passes_logs/2026/01/13/T1/T1__20260113_124310_FENGYUN_3D_rec.log

#Pass ID: 20260113_124310_FENGYUN 3D
#Satellite: FENGYUN 3D
#Configuration: FENGYUN 3D
#almurnet v.1.7.20251203
#Start time: 2026-01-13 12:43:11

#Version: 2.0.20230620
#Station: T1
#Location: 37.570604 lon 55.790049 lat
#TLE: 1 43010U 17072A   26012.32543542  .00000598  00000+0  30457-3 0  9997
#TLE: 2 43010  98.9935 344.1005 0002233 112.6136 247.5276 14.19696644422876

#Time	Az	El	Level	Level2	SNR	BER	BlckErr	Temp	State	Recorded	gain1	gain2
2026-01-13 12:43:11.38	183.97	5.06	-49.2	-61.8	3.8	8.46e-01	0	40	0	0	69	15824
2026-01-13 12:43:15.34	184.14	5.34	-49.0	-61.3	3.8	8.47e-01	0	40	104	0	69	14952
2026-01-13 12:43:19.32	184.32	5.61	-49.2	-61.8	3.8	8.47e-01	0	40	104	0	69	15784
2026-01-13 12:43:23.29	184.50	5.89	-49.2	-61.8	3.8	8.47e-01	0	41	104	0	69	15795
2026-01-13 12:43:27.26	184.69	6.18	-49.1	-60.2	3.9	8.46e-01	0	40	104	0	69	13236
2026-01-13 12:43:31.24	184.88	6.47	-49.0	-59.3	4.1	8.45e-01	0	41	104	0	69	11853
2026-01-13 12:43:35.21	185.07	6.75	-48.8	-58.4	4.3	8.37e-01	0	41	0	0	69	10738
2026-01-13 12:43:39.18	185.27	7.05	-49.0	-59.7	4.0	8.45e-01	0	41	104	0	69	12500
2026-01-13 12:43:43.16	185.46	7.34	-49.0	-59.4	4.0	8.45e-01	0	41	104	0	69	12078
2026-01-13 12:43:47.13	185.67	7.64	-45.8	-49.6	11.2	3.17e-03	0	41	0	14680064	63	5518
2026-01-13 12:43:51.10	185.87	7.94	-42.7	-45.2	15.6	0.00e+00	0	41	0	37748736	57	4700
2026-01-13 12:43:55.07	186.09	8.25	-42.3	-44.8	16.0	0.00e+00	0	41	0	59768832	56	4723
2026-01-13 12:43:59.05	186.30	8.56	-43.8	-46.6	14.3	0.00e+00	0	41	0	81788928	58	5195
2026-01-13 12:44:03.02	186.52	8.87	-46.0	-50.0	10.0	1.90e-03	0	42	0	103809024	62	6124
2026-01-13 12:44:06.99	186.75	9.19	-46.5	-51.0	9.8	1.72e-02	0	41	0	120586240	64	6098
2026-01-13 12:44:10.97	186.97	9.51	-45.0	-48.2	12.7	9.25e-04	0	41	0	141557760	62	4936
2026-01-13 12:44:14.95	187.21	9.83	-42.5	-44.9	16.0	0.00e+00	0	41	0	163577856	56	4787
2026-01-13 12:44:18.93	187.45	10.16	-42.3	-44.6	16.3	0.00e+00	0	41	0	186646528	56	4630
2026-01-13 12:44:22.97	187.70	10.50	-41.6	-43.8	16.9	0.00e+00	0	41	0	208666624	55	4481
2026-01-13 12:44:26.96	187.95	10.84	-41.6	-43.8	16.9	0.00e+00	0	41	0	231735296	55	4462
2026-01-13 12:44:30.94	188.20	11.18	-41.5	-43.8	17.0	0.00e+00	0	42	0	253755392	54	4712
2026-01-13 12:44:34.92	188.46	11.52	-41.5	-43.7	17.0	0.00e+00	0	42	0	276824064	54	4697
2026-01-13 12:44:39.10	188.74	11.89	-41.3	-43.5	17.2	0.00e+00	0	42	0	299892736	54	4587
2026-01-13 12:44:43.09	189.02	12.24	-41.1	-43.3	17.5	0.00e+00	0	42	0	322961408	54	4475
2026-01-13 12:44:47.07	189.30	12.60	-41.2	-43.4	17.3	0.00e+00	0	42	0	344981504	54	4536
2026-01-13 12:44:51.05	189.59	12.97	-41.2	-43.4	17.4	0.00e+00	0	42	0	367001600	54	4515
2026-01-13 12:44:55.03	189.88	13.33	-41.1	-43.3	17.5	0.00e+00	0	42	0	389021696	54	4447
2026-01-13 12:44:59.01	190.18	13.71	-40.9	-43.0	17.8	0.00e+00	0	42	0	412090368	53	4551
2026-01-13 12:45:02.99	190.49	14.09	-40.8	-42.9	17.9	0.00e+00	0	42	0	434110464	53	4514
2026-01-13 12:45:06.96	190.80	14.47	-40.8	-42.9	17.9	0.00e+00	0	42	0	456130560	53	4534
2026-01-13 12:45:10.94	191.13	14.86	-40.8	-42.9	17.9	0.00e+00	0	42	0	479199232	53	4528
2026-01-13 12:45:14.92	191.46	15.25	-40.4	-42.4	18.4	0.00e+00	0	42	0	501219328	52	4526
2026-01-13 12:45:18.88	191.80	15.65	-40.1	-42.1	18.7	0.00e+00	0	42	0	524288000	52	4362
2026-01-13 12:45:22.86	192.15	16.06	-40.1	-42.0	18.8	0.00e+00	0	42	0	546308096	51	4585
2026-01-13 12:45:26.84	192.50	16.47	-40.1	-42.1	18.7	0.00e+00	0	42	0	568328192	51	4638
2026-01-13 12:45:30.85	192.88	16.89	-40.2	-42.2	18.7	0.00e+00	0	42	0	591396864	51	4676
2026-01-13 12:45:34.83	193.25	17.31	-39.9	-41.8	19.0	0.00e+00	0	42	0	613416960	51	4484
2026-01-13 12:45:38.81	193.64	17.74	-40.0	-41.9	18.9	0.00e+00	0	42	0	635437056	51	4532
2026-01-13 12:45:42.79	194.04	18.18	-39.9	-41.8	19.0	0.00e+00	0	42	0	658505728	51	4490
2026-01-13 12:45:46.77	194.45	18.62	-39.7	-41.6	19.2	0.00e+00	0	42	0	680525824	51	4367
2026-01-13 12:45:50.75	194.88	19.07	-39.6	-41.6	19.2	0.00e+00	0	42	0	702545920	51	4357
2026-01-13 12:45:54.81	195.32	19.54	-39.7	-41.6	19.2	0.00e+00	0	42	0	725614592	51	4383
2026-01-13 12:45:58.79	195.77	20.00	-39.4	-41.3	19.4	0.00e+00	0	42	0	748683264	50	4485
2026-01-13 12:46:02.77	196.23	20.47	-39.3	-41.2	19.5	0.00e+00	0	42	0	770703360	50	4423
2026-01-13 12:46:06.75	196.71	20.95	-39.3	-41.2	19.6	0.00e+00	0	42	0	792723456	50	4415
2026-01-13 12:46:10.87	197.21	21.45	-39.2	-41.1	19.6	0.00e+00	0	42	0	815792128	50	4374
2026-01-13 12:46:14.86	197.72	21.95	-39.0	-40.8	19.9	0.00e+00	0	42	0	838860800	49	4486
2026-01-13 12:46:18.87	198.25	22.45	-38.9	-40.8	19.9	0.00e+00	0	42	0	860880896	49	4450
2026-01-13 12:46:22.99	198.81	22.98	-38.9	-40.8	19.9	0.00e+00	0	42	0	883949568	49	4459
2026-01-13 12:46:26.97	199.36	23.49	-38.9	-40.8	19.6	0.00e+00	0	42	0	907018240	49	4445
2026-01-13 12:46:30.95	199.94	24.02	-38.7	-40.5	20.2	0.00e+00	0	42	0	929038336	49	4310
2026-01-13 12:46:34.93	200.53	24.55	-38.5	-40.3	20.4	0.00e+00	0	42	0	951058432	48	4485
2026-01-13 12:46:39.22	201.20	25.13	-38.6	-40.4	20.3	0.00e+00	0	42	0	975175680	48	4542
2026-01-13 12:46:43.20	201.83	25.67	-38.7	-40.5	20.2	0.00e+00	0	42	0	998244352	48	4591
2026-01-13 12:46:47.18	202.49	26.23	-38.3	-40.1	20.5	0.00e+00	0	42	0	1020264448	48	4368
2026-01-13 12:46:51.16	203.17	26.79	-38.3	-40.1	20.5	0.00e+00	0	42	0	1042284544	48	4385
2026-01-13 12:46:55.49	203.94	27.41	-38.4	-40.2	20.4	0.00e+00	0	42	0	1067450368	48	4427
2026-01-13 12:46:59.49	204.68	27.99	-38.4	-40.2	20.4	0.00e+00	0	42	0	1089470464	48	4425
2026-01-13 12:47:03.76	205.49	28.62	-38.4	-40.2	20.5	0.00e+00	0	42	0	1113587712	48	4398
2026-01-13 12:47:07.76	206.29	29.21	-38.3	-40.2	20.5	0.00e+00	0	42	0	1135607808	48	4395
2026-01-13 12:47:11.77	207.11	29.81	-38.3	-40.2	20.5	0.00e+00	0	42	0	1158676480	48	4395
2026-01-13 12:47:15.73	207.96	30.42	-38.4	-40.2	20.5	0.00e+00	0	42	0	1180696576	48	4423
2026-01-13 12:47:19.81	208.86	31.04	-38.3	-40.1	20.6	0.00e+00	0	42	0	1203765248	48	4351
2026-01-13 12:47:23.78	209.77	31.66	-38.2	-40.0	20.7	0.00e+00	0	42	0	1226833920	48	4337
2026-01-13 12:47:27.76	210.72	32.28	-38.2	-40.0	20.7	0.00e+00	0	42	0	1248854016	48	4296
2026-01-13 12:47:31.77	211.72	32.91	-38.2	-40.1	20.6	0.00e+00	0	42	0	1270874112	48	4343
2026-01-13 12:47:35.83	212.76	33.55	-38.3	-40.1	20.6	0.00e+00	0	42	0	1293942784	48	4368
2026-01-13 12:47:39.83	213.83	34.18	-38.0	-39.8	20.6	0.00e+00	0	42	0	1317011456	47	4452
2026-01-13 12:47:43.90	214.97	34.83	-37.9	-39.7	20.7	0.00e+00	0	42	0	1339031552	47	4413
2026-01-13 12:47:47.88	216.12	35.46	-38.0	-39.8	20.6	0.00e+00	0	42	0	1362100224	47	4462
2026-01-13 12:47:51.94	217.34	36.11	-38.0	-39.8	20.6	0.00e+00	0	42	0	1385168896	47	4480
2026-01-13 12:47:55.95	218.59	36.74	-37.6	-39.4	21.0	0.00e+00	0	42	0	1407188992	47	4253
2026-01-13 12:48:00.04	219.92	37.39	-37.8	-39.6	20.8	0.00e+00	0	42	0	1430257664	47	4363
2026-01-13 12:48:04.02	221.26	38.01	-37.7	-39.5	20.9	0.00e+00	0	42	0	1453326336	47	4330
2026-01-13 12:48:08.00	222.65	38.62	-37.9	-39.7	20.7	0.00e+00	0	42	0	1475346432	47	4418
2026-01-13 12:48:11.98	224.10	39.23	-37.8	-39.6	20.8	0.00e+00	0	42	0	1497366528	47	4386
2026-01-13 12:48:15.96	225.60	39.83	-38.0	-39.8	20.6	0.00e+00	0	42	0	1519386624	47	4472
2026-01-13 12:48:19.94	227.16	40.41	-37.7	-39.5	20.9	0.00e+00	0	42	0	1542455296	47	4316
2026-01-13 12:48:23.92	228.77	40.98	-37.7	-39.5	20.9	0.00e+00	0	42	0	1564475392	47	4314
2026-01-13 12:48:27.93	230.45	41.54	-37.6	-39.4	21.0	0.00e+00	0	42	0	1587544064	47	4252
2026-01-13 12:48:31.91	232.17	42.07	-37.7	-39.5	20.9	0.00e+00	0	42	0	1609564160	47	4322
2026-01-13 12:48:35.89	233.95	42.59	-38.0	-39.8	20.7	0.00e+00	0	42	0	1631584256	47	4458
2026-01-13 12:48:39.87	235.78	43.07	-38.2	-40.0	20.4	0.00e+00	0	42	0	1654652928	47	4582
2026-01-13 12:48:43.83	237.66	43.53	-38.3	-40.1	20.4	0.00e+00	0	42	0	1676673024	47	4633
2026-01-13 12:48:47.93	239.66	43.97	-38.4	-40.2	20.3	0.00e+00	0	42	0	1699741696	47	4688
2026-01-13 12:48:51.91	241.65	44.37	-37.9	-39.7	20.8	0.00e+00	0	42	0	1721761792	47	4409
2026-01-13 12:48:55.89	243.69	44.73	-38.2	-40.0	20.5	0.00e+00	0	42	0	1744830464	47	4580
2026-01-13 12:48:59.87	245.78	45.06	-38.1	-39.9	20.5	0.00e+00	0	42	0	1766850560	47	4534
2026-01-13 12:49:03.94	247.95	45.35	-38.3	-40.1	20.4	0.00e+00	0	42	0	1789919232	47	4641
2026-01-13 12:49:08.03	250.17	45.60	-37.9	-39.7	20.8	0.00e+00	0	42	0	1812987904	47	4421
2026-01-13 12:49:12.01	252.36	45.79	-38.3	-40.2	20.3	0.00e+00	0	42	0	1835008000	47	4660
2026-01-13 12:49:15.99	254.58	45.95	-38.1	-39.9	20.5	0.00e+00	0	42	0	1857028096	47	4538
2026-01-13 12:49:19.97	256.81	46.05	-38.2	-40.0	20.6	0.00e+00	0	42	0	1880096768	47	4555
2026-01-13 12:49:23.96	259.06	46.11	-38.5	-40.4	20.2	0.00e+00	0	42	0	1902116864	47	4762
2026-01-13 12:49:27.94	261.31	46.13	-38.4	-40.3	20.3	0.00e+00	0	42	0	1925185536	47	4716
2026-01-13 12:49:31.92	263.55	46.09	-38.2	-40.0	20.5	0.00e+00	0	42	0	1947205632	47	4580
2026-01-13 12:49:35.90	265.79	46.01	-38.3	-40.1	20.4	0.00e+00	0	42	0	1969225728	47	4623
2026-01-13 12:49:39.88	268.02	45.88	-38.2	-40.0	20.5	0.00e+00	0	42	0	1992294400	47	4580
2026-01-13 12:49:43.86	270.22	45.71	-38.4	-40.3	20.3	0.00e+00	0	42	0	2014314496	47	4718
2026-01-13 12:49:47.87	272.41	45.49	-38.3	-40.1	20.4	0.00e+00	0	41	0	2037383168	47	4648
2026-01-13 12:49:52.02	274.64	45.21	-38.0	-39.8	20.7	0.00e+00	0	41	0	2060451840	47	4476
2026-01-13 12:49:56.00	276.75	44.91	-38.2	-40.0	20.5	0.00e+00	0	42	0	2082471936	47	4592
2026-01-13 12:49:59.97	278.80	44.57	-38.2	-39.9	20.8	0.00e+00	0	42	0	2105540608	47	4542
2026-01-13 12:50:03.96	280.82	44.19	-38.1	-39.8	20.9	0.00e+00	0	41	0	2127560704	47	4493
2026-01-13 12:50:08.09	282.86	43.76	-38.1	-39.8	20.9	0.00e+00	0	42	0	2150629376	47	4489
2026-01-13 12:50:12.10	284.79	43.32	-38.4	-40.1	20.7	0.00e+00	0	42	0	2172649472	47	4632
2026-01-13 12:50:16.14	286.67	42.84	-38.1	-39.8	20.9	0.00e+00	0	42	0	2195718144	47	4487
2026-01-13 12:50:20.13	288.48	42.34	-38.3	-40.1	20.7	0.00e+00	0	42	0	2218786816	47	4600
2026-01-13 12:50:24.20	290.27	41.81	-38.0	-39.7	21.0	0.00e+00	0	42	0	2240806912	47	4431
2026-01-13 12:50:28.25	291.98	41.25	-38.0	-39.8	21.0	0.00e+00	0	42	0	2263875584	47	4448
2026-01-13 12:50:32.24	293.62	40.69	-37.7	-39.4	21.3	0.00e+00	0	42	0	2286944256	47	4284
2026-01-13 12:50:36.29	295.22	40.11	-38.0	-39.8	21.0	0.00e+00	0	42	0	2308964352	47	4456
2026-01-13 12:50:40.27	296.74	39.52	-37.7	-39.4	21.2	0.00e+00	0	42	0	2332033024	47	4267
2026-01-13 12:50:44.25	298.21	38.92	-37.6	-39.3	21.3	0.00e+00	0	41	0	2354053120	47	4234
2026-01-13 12:50:48.26	299.63	38.30	-37.7	-39.4	21.3	0.00e+00	0	42	0	2376073216	47	4278
2026-01-13 12:50:52.50	301.08	37.65	-37.6	-39.3	21.4	0.00e+00	0	42	0	2400190464	47	4219
2026-01-13 12:50:56.74	302.47	36.98	-37.8	-39.5	21.2	0.00e+00	0	42	0	2424307712	47	4340
2026-01-13 12:51:00.73	303.73	36.36	-37.8	-39.5	21.2	0.00e+00	0	42	0	2446327808	47	4317
2026-01-13 12:51:04.71	304.94	35.73	-38.1	-39.9	20.9	0.00e+00	0	42	0	2469396480	47	4513
2026-01-13 12:51:08.67	306.10	35.10	-37.9	-39.7	21.1	0.00e+00	0	42	0	2491416576	47	4397
2026-01-13 12:51:12.65	307.22	34.47	-37.9	-39.6	21.1	0.00e+00	0	42	0	2513436672	47	4383
2026-01-13 12:51:16.63	308.30	33.84	-37.7	-39.5	21.2	0.00e+00	0	41	0	2536505344	47	4293
2026-01-13 12:51:20.67	309.35	33.21	-38.1	-39.8	20.9	0.00e+00	0	42	0	2558525440	47	4485
2026-01-13 12:51:24.61	310.34	32.59	-37.9	-39.6	21.1	0.00e+00	0	41	0	2580545536	47	4347
2026-01-13 12:51:28.70	311.33	31.96	-38.0	-39.8	20.9	0.00e+00	0	41	0	2603614208	47	4466
2026-01-13 12:51:32.70	312.27	31.34	-38.2	-40.0	20.7	0.00e+00	0	42	0	2626682880	47	4572
2026-01-13 12:51:36.72	313.17	30.72	-38.0	-39.8	20.9	0.00e+00	0	42	0	2649751552	47	4451
2026-01-13 12:51:40.73	314.03	30.12	-38.5	-40.3	20.4	0.00e+00	0	42	0	2671771648	47	4727
2026-01-13 12:51:45.19	314.96	29.45	-38.1	-39.8	20.9	0.00e+00	0	42	0	2696937472	47	4477
2026-01-13 12:51:49.19	315.76	28.85	-37.7	-39.5	21.2	0.00e+00	0	41	0	2718957568	47	4295
2026-01-13 12:51:53.20	316.54	28.27	-38.0	-39.8	20.9	0.00e+00	0	42	0	2742026240	47	4470
2026-01-13 12:51:57.19	317.28	27.69	-38.3	-40.1	20.7	0.00e+00	0	42	0	2764046336	47	4616
2026-01-13 12:52:01.34	318.03	27.10	-38.3	-40.1	20.7	0.00e+00	0	41	0	2787115008	47	4600
2026-01-13 12:52:05.43	318.73	26.52	-38.4	-40.2	20.6	0.00e+00	0	42	0	2810183680	47	4668
2026-01-13 12:52:09.42	319.40	25.96	-38.4	-40.2	20.5	0.00e+00	0	42	0	2833252352	47	4674
2026-01-13 12:52:13.47	320.06	25.41	-38.3	-40.1	20.6	0.00e+00	0	41	0	2856321024	47	4614
2026-01-13 12:52:17.67	320.72	24.84	-38.4	-40.2	20.5	0.00e+00	0	42	0	2879389696	47	4661
2026-01-13 12:52:21.67	321.32	24.31	-38.9	-40.8	20.2	0.00e+00	0	42	0	2902458368	48	4724
2026-01-13 12:52:25.69	321.91	23.78	-39.0	-40.8	20.2	0.00e+00	0	42	0	2924478464	48	4743
2026-01-13 12:52:29.67	322.47	23.27	-38.8	-40.6	20.3	0.00e+00	0	42	0	2947547136	48	4606
2026-01-13 12:52:33.68	323.02	22.75	-38.9	-40.6	20.4	0.00e+00	0	42	0	2969567232	48	4634
2026-01-13 12:52:37.93	323.59	22.22	-39.2	-41.1	20.0	0.00e+00	0	42	0	2993684480	49	4608
2026-01-13 12:52:41.91	324.10	21.73	-39.4	-41.2	19.8	0.00e+00	0	42	0	3015704576	49	4681
2026-01-13 12:52:45.94	324.60	21.24	-39.4	-41.2	19.8	0.00e+00	0	42	0	3038773248	49	4688
2026-01-13 12:52:49.93	325.08	20.76	-39.4	-41.3	19.7	0.00e+00	0	42	0	3060793344	49	4728
2026-01-13 12:52:53.95	325.56	20.28	-39.7	-41.5	19.5	0.00e+00	0	42	0	3083862016	49	4861
2026-01-13 12:52:57.94	326.01	19.82	-39.7	-41.6	19.5	0.00e+00	0	42	0	3105882112	50	4607
2026-01-13 12:53:01.92	326.45	19.36	-39.6	-41.4	19.6	0.00e+00	0	41	0	3128950784	50	4534
2026-01-13 12:53:06.05	326.90	18.90	-39.7	-41.6	19.5	0.00e+00	0	41	0	3152019456	50	4603
2026-01-13 12:53:10.03	327.31	18.45	-39.9	-41.9	19.1	0.00e+00	0	42	0	3174039552	50	4809
2026-01-13 12:53:14.34	327.75	17.98	-40.2	-42.2	18.9	0.00e+00	0	42	0	3198156800	51	4681
2026-01-13 12:53:18.32	328.15	17.55	-40.3	-42.2	18.9	0.00e+00	0	41	0	3221225472	51	4686
2026-01-13 12:53:22.30	328.53	17.13	-40.3	-42.2	18.8	0.00e+00	0	41	0	3243245568	51	4685
2026-01-13 12:53:26.32	328.90	16.71	-40.4	-42.4	18.7	0.00e+00	0	41	0	3265265664	51	4763
2026-01-13 12:53:30.26	329.26	16.30	-40.5	-42.5	18.5	0.00e+00	0	42	0	3287285760	51	4844
2026-01-13 12:53:34.28	329.62	15.89	-40.7	-42.7	18.3	0.00e+00	0	41	0	3310354432	52	4659
2026-01-13 12:53:38.32	329.97	15.49	-40.7	-42.7	18.3	0.00e+00	0	41	0	3333423104	52	4661
2026-01-13 12:53:42.32	330.31	15.09	-40.6	-42.6	18.4	0.00e+00	0	41	0	3355443200	52	4618
2026-01-13 12:53:46.32	330.64	14.70	-40.6	-42.6	18.4	0.00e+00	0	41	0	3378511872	52	4615
2026-01-13 12:53:50.38	330.96	14.31	-40.7	-42.7	18.2	0.00e+00	0	41	0	3400531968	52	4662
2026-01-13 12:53:54.48	331.29	13.92	-40.9	-43.0	18.0	0.00e+00	0	42	0	3423600640	52	4822
2026-01-13 12:53:58.53	331.60	13.54	-41.1	-43.3	17.7	0.00e+00	0	41	0	3446669312	52	4987
2026-01-13 12:54:02.53	331.89	13.17	-41.5	-43.6	17.4	0.00e+00	0	41	0	3469737984	53	4892
2026-01-13 12:54:06.52	332.19	12.81	-41.6	-43.8	17.2	0.00e+00	0	41	0	3491758080	53	4989
2026-01-13 12:54:10.52	332.47	12.45	-41.4	-43.6	17.4	0.00e+00	0	41	0	3514826752	53	4873
2026-01-13 12:54:14.50	332.75	12.10	-41.4	-43.5	17.4	0.00e+00	0	41	0	3536846848	53	4851
2026-01-13 12:54:18.48	333.02	11.75	-41.5	-43.7	17.3	0.00e+00	0	41	0	3558866944	53	4929
2026-01-13 12:54:22.49	333.29	11.40	-41.5	-43.6	17.3	0.00e+00	0	41	0	3581935616	53	4908
2026-01-13 12:54:26.74	333.56	11.04	-41.7	-43.9	17.1	0.00e+00	0	42	0	3605004288	54	4765
2026-01-13 12:54:31.29	333.85	10.66	-41.7	-43.9	17.0	0.00e+00	0	41	0	3631218688	54	4808
2026-01-13 12:54:35.30	334.10	10.33	-41.7	-43.9	16.9	0.00e+00	0	41	0	3653238784	54	4810
2026-01-13 12:54:39.36	334.35	9.99	-41.8	-44.1	16.8	0.00e+00	0	42	0	3676307456	54	4875
2026-01-13 12:54:43.34	334.59	9.67	-41.8	-44.1	16.8	0.00e+00	0	41	0	3698327552	54	4884
2026-01-13 12:54:47.45	334.83	9.34	-41.7	-44.1	16.7	0.00e+00	0	41	0	3721396224	54	4888
2026-01-13 12:54:51.43	335.06	9.03	-41.8	-44.3	16.5	0.00e+00	0	41	0	3744464896	54	5026
2026-01-13 12:54:55.40	335.28	8.72	-49.7	-62.8	3.8	8.46e-01	0	42	104	3746562048	71	15767
2026-01-13 12:54:59.41	335.50	8.41	-50.6	-62.9	3.8	8.46e-01	0	42	104	3746562048	71	16067
2026-01-13 12:55:03.54	335.72	8.09	-50.8	-63.0	3.8	8.47e-01	0	41	104	3746562048	72	15316
2026-01-13 12:55:07.64	335.94	7.78	-50.8	-63.0	3.8	8.47e-01	0	41	104	3746562048	72	15334
2026-01-13 12:55:11.68	336.15	7.48	-50.8	-63.0	3.8	8.48e-01	0	41	104	3746562048	72	15353
2026-01-13 12:55:15.66	336.35	7.18	-50.7	-63.0	3.8	8.46e-01	0	41	104	3746562048	72	15317
2026-01-13 12:55:19.63	336.55	6.89	-50.6	-63.0	3.8	8.47e-01	0	41	104	3746562048	72	15289
2026-01-13 12:55:23.60	336.75	6.61	-50.6	-62.9	3.8	8.46e-01	0	42	104	3746562048	72	15204
2026-01-13 12:55:27.58	336.94	6.32	-50.6	-62.9	3.8	8.47e-01	0	41	104	3746562048	72	15174
2026-01-13 12:55:31.55	337.13	6.04	-50.6	-62.9	3.8	8.47e-01	0	41	104	3746562048	72	15209
2026-01-13 12:55:35.52	337.31	5.76	-50.6	-62.9	3.8	8.48e-01	0	41	104	3746562048	72	15214
2026-01-13 12:55:39.50	337.50	5.48	-50.6	-63.0	3.8	8.48e-01	0	42	104	3746562048	72	15230
2026-01-13 12:55:43.47	337.67	5.21	-50.6	-62.9	3.8	8.47e-01	0	41	104	3746562048	72	15148
2026-01-13 12:55:47.44	337.85	4.94	-50.6	-62.9	3.8	8.46e-01	0	42	104	3746562048	72	15147

#Closed at: 2026-01-13 12:55:48
#Recorded file [3746 MB]: D:/Data/31040_260113_154311.dat