passes_logs/2026/01/13/T1/T1__20260113_121916_AQUA_rec.log

#Pass ID: 20260113_121916_AQUA
#Satellite: AQUA
#Configuration: AQUA
#almurnet v.1.7.20251203
#Start time: 2026-01-13 12:19:18

#Version: 2.0.20230620
#Station: T1
#Location: 37.570604 lon 55.790049 lat
#TLE: 1 27424U 02022A   26012.29577270  .00001027  00000+0  21555-3 0  9995
#TLE: 2 27424  98.4078 338.6778 0002034  81.5885  29.6294 14.61817302260499

#Time	Az	El	Level	Level2	SNR	BER	BlckErr	Temp	State	Recorded	gain1	gain2
2026-01-13 12:19:18.05	183.13	5.12	-51.4	-73.3	3.8	7.45e-01	0	41	0	0	74	44503
2026-01-13 12:19:21.03	183.27	5.34	-51.4	-70.9	4.0	7.40e-01	0	42	104	0	73	36015
2026-01-13 12:19:24.01	183.41	5.56	-51.3	-70.8	3.9	7.39e-01	0	42	104	0	73	35672
2026-01-13 12:19:26.99	183.56	5.78	-51.3	-72.4	3.8	7.45e-01	0	42	104	0	73	42544
2026-01-13 12:19:29.97	183.70	6.01	-51.3	-72.7	3.8	7.45e-01	0	42	104	0	73	43969
2026-01-13 12:19:32.95	183.85	6.23	-51.2	-70.7	4.0	7.48e-01	0	42	104	0	73	34952
2026-01-13 12:19:35.93	184.00	6.46	-51.1	-69.4	3.9	7.41e-01	0	42	104	0	73	30065
2026-01-13 12:19:38.90	184.15	6.69	-51.0	-68.0	4.8	7.13e-01	0	42	104	0	73	25775
2026-01-13 12:19:41.88	184.31	6.93	-50.9	-66.9	5.4	6.98e-01	0	42	0	524288	73	22649
2026-01-13 12:19:44.86	184.46	7.16	-51.0	-68.7	4.4	7.26e-01	0	42	104	2097152	73	27871
2026-01-13 12:19:47.84	184.63	7.40	-50.9	-71.2	3.9	7.44e-01	0	42	104	2097152	73	37043
2026-01-13 12:19:50.82	184.79	7.64	-50.0	-59.2	12.5	6.10e-01	0	43	0	5767168	71	10440
2026-01-13 12:19:53.80	184.95	7.88	-48.4	-53.8	17.8	6.07e-01	0	42	0	11010048	68	6704
2026-01-13 12:19:56.79	185.12	8.12	-47.4	-51.8	19.7	6.06e-01	0	42	0	16777216	66	5948
2026-01-13 12:19:59.76	185.30	8.37	-47.4	-52.0	19.5	6.06e-01	0	43	0	22544384	66	6096
2026-01-13 12:20:02.75	185.47	8.62	-48.5	-54.6	16.9	6.06e-01	0	43	0	27787264	67	7754
2026-01-13 12:20:05.73	185.65	8.87	-49.7	-58.1	13.5	6.09e-01	0	43	0	33554432	69	10412
2026-01-13 12:20:08.71	185.83	9.13	-49.0	-55.6	15.8	6.07e-01	0	43	0	39321600	70	7332
2026-01-13 12:20:11.69	186.01	9.39	-49.6	-57.3	13.8	6.10e-01	0	43	0	44564480	71	8412
2026-01-13 12:20:14.68	186.20	9.65	-49.4	-55.3	16.2	6.05e-01	0	43	0	50331648	70	7081
2026-01-13 12:20:17.74	186.40	9.92	-49.1	-54.5	17.0	6.05e-01	0	43	0	56098816	70	6468
2026-01-13 12:20:20.59	186.59	10.17	-49.1	-54.8	16.7	6.09e-01	0	43	0	61341696	69	7075
2026-01-13 12:20:24.07	186.82	10.49	-49.0	-54.3	17.1	6.08e-01	0	43	0	68157440	69	6693
2026-01-13 12:20:26.80	187.00	10.74	-48.6	-53.6	17.9	6.08e-01	0	43	0	72876032	69	6171
2026-01-13 12:20:30.06	187.23	11.04	-48.4	-53.1	18.5	6.09e-01	0	43	0	79167488	68	6158
2026-01-13 12:20:32.91	187.43	11.30	-47.5	-51.6	19.7	6.05e-01	0	43	0	84410368	67	5524
2026-01-13 12:20:36.04	187.66	11.60	-47.4	-51.4	19.9	6.06e-01	0	43	0	90177536	66	5684
2026-01-13 12:20:38.88	187.87	11.87	-47.3	-51.3	20.0	6.05e-01	0	43	0	95944704	66	5634
2026-01-13 12:20:42.00	188.10	12.17	-47.0	-51.0	20.3	6.07e-01	0	43	0	101711872	65	5759
2026-01-13 12:20:44.94	188.33	12.46	-46.7	-50.8	20.5	6.09e-01	0	43	0	106954752	65	5606
2026-01-13 12:20:47.92	188.56	12.76	-46.6	-50.4	20.9	6.07e-01	0	43	0	112721920	65	5386
2026-01-13 12:20:50.91	188.80	13.06	-46.5	-50.3	21.0	6.07e-01	0	43	0	118489088	64	5612
2026-01-13 12:20:53.90	189.05	13.36	-46.4	-50.2	21.1	6.05e-01	0	44	0	123731968	64	5559
2026-01-13 12:20:56.93	189.30	13.67	-46.5	-50.3	21.1	6.06e-01	0	43	0	129499136	64	5598
2026-01-13 12:20:59.91	189.55	13.99	-46.6	-50.2	21.1	6.07e-01	0	43	0	135266304	64	5591
2026-01-13 12:21:02.89	189.81	14.30	-46.7	-50.2	21.1	6.06e-01	0	43	0	140509184	64	5556
2026-01-13 12:21:05.88	190.08	14.62	-46.8	-50.3	21.0	6.07e-01	0	43	0	146276352	64	5650
2026-01-13 12:21:08.86	190.35	14.94	-46.7	-50.2	21.2	6.06e-01	0	43	0	152043520	64	5553
2026-01-13 12:21:11.86	190.63	15.27	-46.7	-50.1	21.2	6.08e-01	0	43	0	157810688	64	5528
2026-01-13 12:21:14.86	190.92	15.61	-46.8	-50.2	21.1	6.06e-01	0	43	0	163053568	64	5559
2026-01-13 12:21:17.84	191.21	15.94	-46.6	-49.9	21.4	6.06e-01	0	43	0	168820736	64	5380
2026-01-13 12:21:20.83	191.51	16.29	-46.6	-49.9	21.5	6.06e-01	0	43	0	174587904	64	5358
2026-01-13 12:21:23.81	191.81	16.63	-46.8	-50.1	21.3	6.08e-01	0	43	0	179830784	64	5465
2026-01-13 12:21:26.80	192.12	16.98	-46.6	-49.8	21.5	6.08e-01	0	44	0	185597952	64	5319
2026-01-13 12:21:29.83	192.45	17.34	-46.5	-49.8	21.6	6.07e-01	0	43	0	191365120	64	5301
2026-01-13 12:21:32.93	192.79	17.72	-46.4	-49.7	21.6	6.07e-01	0	43	0	197132288	64	5258
2026-01-13 12:21:35.83	193.12	18.07	-46.5	-49.9	21.4	6.06e-01	0	43	0	202375168	64	5392
2026-01-13 12:21:39.10	193.49	18.48	-46.3	-49.7	21.6	6.07e-01	0	43	0	208666624	64	5248
2026-01-13 12:21:41.82	193.82	18.82	-46.4	-49.8	21.6	6.08e-01	0	43	0	213909504	64	5299
2026-01-13 12:21:44.99	194.20	19.23	-46.5	-49.9	21.5	6.06e-01	0	44	0	219676672	64	5392
2026-01-13 12:21:47.98	194.58	19.62	-46.4	-49.7	21.6	6.08e-01	0	43	0	225443840	64	5276
2026-01-13 12:21:50.97	194.96	20.01	-46.5	-49.8	21.6	6.08e-01	0	44	0	230686720	64	5288
2026-01-13 12:21:53.95	195.35	20.41	-46.8	-49.9	21.4	6.08e-01	0	43	0	236453888	64	5395
2026-01-13 12:21:56.94	195.75	20.81	-46.8	-49.8	21.6	6.08e-01	0	43	0	242221056	64	5333
2026-01-13 12:21:59.92	196.17	21.22	-46.9	-50.1	21.3	6.09e-01	0	43	0	247463936	64	5488
2026-01-13 12:22:02.90	196.59	21.64	-46.7	-49.9	21.5	6.07e-01	0	43	0	253231104	64	5382
2026-01-13 12:22:05.89	197.03	22.06	-46.6	-49.9	21.5	6.08e-01	0	43	0	258998272	64	5381
2026-01-13 12:22:08.96	197.50	22.50	-46.8	-50.1	21.3	6.08e-01	0	44	0	264765440	64	5510
2026-01-13 12:22:11.94	197.96	22.94	-46.8	-50.0	21.4	6.07e-01	0	44	0	270008320	64	5415
2026-01-13 12:22:14.93	198.44	23.38	-47.0	-50.2	21.2	6.07e-01	0	44	0	275775488	64	5569
2026-01-13 12:22:17.91	198.93	23.82	-47.0	-50.0	21.3	6.07e-01	0	44	0	281542656	64	5452
2026-01-13 12:22:20.89	199.43	24.28	-46.9	-50.0	21.3	6.07e-01	0	44	0	286785536	64	5460
2026-01-13 12:22:23.94	199.96	24.75	-46.9	-50.1	21.3	6.07e-01	0	44	0	292552704	64	5481
2026-01-13 12:22:26.85	200.49	25.20	-46.8	-49.9	21.4	6.05e-01	0	44	0	298319872	64	5374
2026-01-13 12:22:30.18	201.11	25.73	-46.7	-49.8	21.6	6.05e-01	0	43	0	304611328	64	5300
2026-01-13 12:22:33.13	201.67	26.20	-46.8	-49.9	21.5	6.06e-01	0	44	0	309854208	64	5348
2026-01-13 12:22:36.67	202.37	26.78	-46.6	-49.8	21.6	6.09e-01	0	44	0	316669952	64	5297
2026-01-13 12:22:39.57	202.97	27.26	-46.6	-49.7	21.7	6.10e-01	0	44	0	321912832	64	5230
2026-01-13 12:22:42.84	203.66	27.81	-46.8	-49.9	21.5	6.07e-01	0	44	0	328204288	64	5361
2026-01-13 12:22:45.68	204.28	28.29	-46.8	-50.0	21.4	6.09e-01	0	44	0	333447168	64	5403
2026-01-13 12:22:48.81	204.99	28.83	-46.6	-49.6	21.8	6.09e-01	0	44	0	339214336	64	5186
2026-01-13 12:22:51.65	205.65	29.32	-46.6	-49.7	21.7	6.07e-01	0	44	0	344457216	64	5219
2026-01-13 12:22:55.00	206.46	29.91	-46.7	-49.7	21.6	6.08e-01	0	43	0	350748672	64	5277
2026-01-13 12:22:57.71	207.14	30.39	-46.8	-49.8	21.5	6.08e-01	0	44	0	355991552	64	5334
2026-01-13 12:23:00.99	207.99	30.98	-46.7	-49.7	21.7	6.05e-01	0	44	0	362283008	64	5238
2026-01-13 12:23:03.72	208.72	31.47	-46.9	-49.9	21.5	6.10e-01	0	43	0	367525888	64	5386
2026-01-13 12:23:07.04	209.64	32.08	-47.0	-50.1	21.3	6.04e-01	0	44	0	373293056	64	5491
2026-01-13 12:23:09.74	210.41	32.58	-46.8	-49.8	21.6	6.08e-01	0	43	0	378535936	64	5322
2026-01-13 12:23:13.22	211.44	33.22	-47.1	-50.3	21.2	6.03e-01	0	44	0	385351680	64	5596
2026-01-13 12:23:15.93	212.27	33.73	-47.1	-50.3	21.2	6.06e-01	0	44	0	390070272	65	5324
2026-01-13 12:23:19.20	213.32	34.34	-47.2	-50.4	21.1	6.07e-01	0	44	0	396361728	65	5385
2026-01-13 12:23:21.91	214.21	34.85	-47.4	-50.7	20.8	6.06e-01	0	44	0	401604608	65	5561
2026-01-13 12:23:25.17	215.32	35.47	-47.2	-50.4	21.1	6.07e-01	0	44	0	407371776	65	5390
2026-01-13 12:23:28.12	216.37	36.02	-47.3	-50.6	20.9	6.06e-01	0	44	0	413138944	65	5526
2026-01-13 12:23:31.61	217.65	36.68	-47.5	-50.8	20.7	6.07e-01	0	44	0	419430400	65	5656
2026-01-13 12:23:34.31	218.68	37.19	-47.6	-51.0	20.6	6.08e-01	0	44	0	424673280	65	5748
2026-01-13 12:23:37.58	219.97	37.80	-47.6	-50.9	20.6	6.07e-01	0	44	0	430964736	65	5698
2026-01-13 12:23:40.42	221.13	38.33	-47.5	-50.8	20.7	6.07e-01	0	44	0	436207616	65	5629
2026-01-13 12:23:43.55	222.45	38.90	-47.4	-50.6	20.9	6.07e-01	0	43	0	441974784	65	5527
2026-01-13 12:23:46.39	223.69	39.42	-47.2	-50.4	21.1	6.08e-01	0	44	0	447217664	65	5376
2026-01-13 12:23:49.52	225.11	39.98	-47.1	-50.2	21.3	6.06e-01	0	44	0	452984832	65	5231
2026-01-13 12:23:52.37	226.44	40.48	-46.9	-50.0	21.4	6.07e-01	0	44	0	458752000	65	5112
2026-01-13 12:23:55.49	227.94	41.02	-46.7	-49.5	21.8	6.07e-01	0	44	0	464519168	65	4870
2026-01-13 12:23:58.33	229.36	41.50	-46.8	-49.8	21.6	6.07e-01	0	44	0	469762048	65	4997
2026-01-13 12:24:01.53	231.00	42.02	-46.8	-49.9	21.5	6.07e-01	0	44	0	475529216	65	5056
2026-01-13 12:24:04.37	232.51	42.47	-46.4	-49.4	21.9	6.07e-01	0	44	0	481296384	64	5096
2026-01-13 12:24:07.58	234.26	42.95	-46.2	-49.0	22.3	6.07e-01	0	44	0	487063552	64	4827
2026-01-13 12:24:10.43	235.85	43.36	-46.3	-49.1	22.2	6.09e-01	0	44	0	492306432	64	4899
2026-01-13 12:24:13.55	237.65	43.79	-46.2	-49.0	22.3	6.07e-01	0	44	0	498073600	64	4832
2026-01-13 12:24:16.40	239.33	44.16	-46.3	-49.1	22.1	6.07e-01	0	44	0	503316480	64	4920
2026-01-13 12:24:19.53	241.22	44.53	-46.0	-48.9	22.3	6.06e-01	0	44	0	509607936	64	4802
2026-01-13 12:24:22.38	242.98	44.85	-46.3	-49.2	22.1	6.05e-01	0	44	0	514850816	63	5225
2026-01-13 12:24:25.50	244.95	45.16	-46.5	-49.3	22.0	6.06e-01	0	44	0	520617984	63	5340
2026-01-13 12:24:28.34	246.77	45.42	-46.0	-48.7	22.5	6.08e-01	0	44	0	525860864	63	4972
2026-01-13 12:24:31.46	248.80	45.67	-46.4	-49.2	22.1	6.08e-01	0	44	0	531628032	63	5275
2026-01-13 12:24:34.31	250.68	45.86	-46.3	-49.3	22.1	6.08e-01	0	44	0	537395200	63	5282
2026-01-13 12:24:37.50	252.82	46.03	-46.5	-49.5	21.9	6.06e-01	0	44	0	543162368	63	5417
2026-01-13 12:24:40.40	254.77	46.16	-46.3	-49.1	22.2	6.07e-01	0	44	0	548405248	63	5215
2026-01-13 12:24:43.59	256.94	46.25	-46.6	-49.6	21.8	6.08e-01	0	44	0	554696704	63	5474
2026-01-13 12:24:46.44	258.88	46.30	-46.4	-49.3	22.0	6.08e-01	0	43	0	559939584	64	4992
2026-01-13 12:24:49.56	261.02	46.31	-46.3	-49.3	21.9	6.08e-01	0	44	0	565706752	64	5033
2026-01-13 12:24:52.41	262.96	46.29	-46.6	-49.7	21.6	6.07e-01	0	44	0	570949632	64	5240
2026-01-13 12:24:55.54	265.10	46.22	-47.2	-50.4	20.6	6.06e-01	0	44	0	576716800	65	5343
2026-01-13 12:24:58.38	267.02	46.12	-46.7	-49.7	21.5	6.07e-01	0	44	0	582483968	64	5277
2026-01-13 12:25:01.50	269.12	45.97	-46.3	-49.2	22.0	6.06e-01	0	43	0	588251136	64	4937
2026-01-13 12:25:04.34	271.00	45.80	-46.5	-49.6	21.6	6.07e-01	0	44	0	593494016	64	5186
2026-01-13 12:25:07.47	273.06	45.58	-47.0	-50.0	21.3	6.05e-01	0	44	0	599261184	64	5439
2026-01-13 12:25:10.32	274.90	45.34	-46.9	-50.0	21.3	6.09e-01	0	44	0	604504064	64	5413
2026-01-13 12:25:13.60	276.99	45.04	-47.1	-50.2	21.1	6.08e-01	0	44	0	610795520	64	5537
2026-01-13 12:25:16.31	278.68	44.75	-46.6	-49.8	21.5	6.09e-01	0	44	0	616038400	64	5300
2026-01-13 12:25:19.82	280.83	44.35	-46.5	-49.4	21.8	6.08e-01	0	44	0	622329856	64	5076
2026-01-13 12:25:22.53	282.44	44.02	-46.3	-49.2	22.0	6.05e-01	0	44	0	627572736	64	4965
2026-01-13 12:25:25.81	284.35	43.58	-46.7	-49.7	21.6	6.06e-01	0	44	0	633864192	64	5233
2026-01-13 12:25:28.52	285.89	43.20	-46.7	-49.7	21.5	6.06e-01	0	44	0	638582784	64	5258
2026-01-13 12:25:31.81	287.71	42.72	-46.8	-49.8	21.5	6.05e-01	0	44	0	644874240	64	5282
2026-01-13 12:25:34.53	289.17	42.30	-46.6	-49.5	21.7	6.06e-01	0	44	0	650117120	64	5148
2026-01-13 12:25:37.79	290.87	41.78	-46.8	-49.9	21.4	6.07e-01	0	44	0	656408576	64	5352
2026-01-13 12:25:40.52	292.25	41.33	-46.8	-49.8	21.5	6.04e-01	0	44	0	661127168	64	5286
2026-01-13 12:25:43.86	293.88	40.77	-46.8	-49.9	21.3	6.07e-01	0	44	0	667418624	64	5386
2026-01-13 12:25:46.80	295.27	40.26	-47.1	-50.3	21.0	6.03e-01	0	44	0	673185792	65	5281
2026-01-13 12:25:49.98	296.73	39.69	-46.8	-49.9	21.3	6.10e-01	0	44	0	678952960	65	5100
2026-01-13 12:25:52.83	297.99	39.18	-47.1	-50.4	20.9	6.08e-01	0	44	0	684195840	65	5397
2026-01-13 12:25:55.95	299.33	38.61	-46.8	-50.0	21.2	6.06e-01	0	43	0	690487296	65	5135
2026-01-13 12:25:58.79	300.51	38.09	-46.9	-50.0	21.2	6.04e-01	0	44	0	695730176	65	5110
2026-01-13 12:26:01.92	301.76	37.51	-46.8	-50.0	21.3	6.07e-01	0	44	0	701497344	65	5105
2026-01-13 12:26:04.76	302.86	36.98	-46.4	-49.5	21.7	6.08e-01	0	44	0	706740224	64	5133
2026-01-13 12:26:07.89	304.02	36.40	-46.4	-49.5	21.7	6.06e-01	0	44	0	712507392	64	5159
2026-01-13 12:26:10.73	305.05	35.86	-46.4	-49.6	21.6	6.06e-01	0	44	0	717750272	64	5198
2026-01-13 12:26:13.89	306.15	35.27	-46.0	-49.0	22.2	6.08e-01	0	44	0	724041728	64	4820
2026-01-13 12:26:16.81	307.13	34.73	-45.9	-48.8	22.4	6.09e-01	0	44	0	729284608	63	4985
2026-01-13 12:26:20.09	308.19	34.11	-45.8	-48.7	22.5	6.07e-01	0	44	0	735576064	63	4937
2026-01-13 12:26:22.96	309.09	33.58	-46.0	-48.7	22.5	6.07e-01	0	44	0	740818944	63	4949
2026-01-13 12:26:26.12	310.05	32.99	-45.7	-48.3	22.8	6.07e-01	0	44	0	746586112	63	4755
2026-01-13 12:26:29.46	311.02	32.38	-45.6	-48.3	22.8	6.08e-01	0	44	0	752877568	62	5003
2026-01-13 12:26:32.17	311.78	31.89	-45.6	-48.4	22.7	6.04e-01	0	44	0	758120448	62	5064
2026-01-13 12:26:35.53	312.69	31.28	-45.5	-48.3	22.9	6.08e-01	0	44	0	764411904	62	4992
2026-01-13 12:26:38.26	313.41	30.79	-45.5	-48.2	22.9	6.05e-01	0	44	0	769654784	62	4931
2026-01-13 12:26:41.55	314.24	30.21	-45.7	-48.6	22.6	6.06e-01	0	43	0	775946240	62	5166
2026-01-13 12:26:44.26	314.91	29.73	-45.7	-48.5	22.6	6.08e-01	0	44	0	780664832	62	5135
2026-01-13 12:26:47.53	315.69	29.16	-45.5	-48.4	22.7	6.08e-01	0	44	0	786956288	62	5072
2026-01-13 12:26:50.23	316.31	28.70	-45.7	-48.7	22.4	6.05e-01	0	44	0	792199168	62	5274
2026-01-13 12:26:53.50	317.03	28.14	-45.5	-48.7	22.4	6.08e-01	0	44	0	797966336	62	5255
2026-01-13 12:26:56.28	317.63	27.68	-45.7	-48.7	22.4	6.06e-01	0	44	0	803209216	62	5271
2026-01-13 12:26:59.55	318.31	27.14	-45.8	-48.9	22.2	6.06e-01	0	44	0	809500672	62	5360
2026-01-13 12:27:02.28	318.87	26.69	-46.0	-49.1	22.1	6.06e-01	0	44	0	814743552	62	5488
2026-01-13 12:27:05.83	319.56	26.12	-46.3	-49.4	21.8	6.07e-01	0	44	0	821035008	63	5378
2026-01-13 12:27:08.57	320.08	25.68	-46.1	-49.2	21.9	6.07e-01	0	43	0	826277888	63	5279
2026-01-13 12:27:11.84	320.68	25.17	-46.0	-49.1	22.1	6.07e-01	0	44	0	832569344	63	5175
2026-01-13 12:27:14.55	321.16	24.75	-45.9	-49.1	22.1	6.08e-01	0	44	0	837812224	63	5187
2026-01-13 12:27:17.83	321.73	24.25	-45.9	-49.1	22.1	6.08e-01	0	44	0	843579392	63	5193
2026-01-13 12:27:20.55	322.19	23.84	-46.1	-49.3	21.9	6.09e-01	0	44	0	848822272	63	5322
2026-01-13 12:27:23.85	322.73	23.35	-46.3	-49.5	21.7	6.06e-01	0	44	0	855113728	63	5431
2026-01-13 12:27:26.57	323.16	22.95	-46.2	-49.4	21.8	6.06e-01	0	44	0	860356608	63	5362
2026-01-13 12:27:29.84	323.66	22.48	-46.2	-49.3	21.9	6.07e-01	0	44	0	866123776	63	5280
2026-01-13 12:27:32.55	324.07	22.10	-46.2	-49.2	21.9	6.07e-01	0	44	0	871366656	63	5262
2026-01-13 12:27:35.82	324.55	21.64	-46.2	-49.2	21.9	6.06e-01	0	44	0	877658112	63	5260
2026-01-13 12:27:38.69	324.95	21.24	-45.9	-49.3	21.9	6.07e-01	0	44	0	882900992	63	5302
2026-01-13 12:27:42.18	325.43	20.77	-46.0	-49.3	21.9	6.08e-01	0	44	0	889192448	63	5298
2026-01-13 12:27:44.88	325.80	20.41	-46.3	-49.3	21.9	6.05e-01	0	44	0	894435328	63	5304
2026-01-13 12:27:48.20	326.23	19.97	-46.1	-49.1	22.0	6.08e-01	0	44	0	900726784	63	5206
2026-01-13 12:27:51.17	326.61	19.58	-46.0	-49.1	22.0	6.08e-01	0	44	0	906493952	63	5198
2026-01-13 12:27:54.48	327.01	19.16	-45.7	-49.1	22.0	6.07e-01	0	44	0	912261120	63	5182
2026-01-13 12:27:57.40	327.37	18.79	-45.5	-49.1	22.0	6.06e-01	0	44	0	918028288	63	5184
2026-01-13 12:28:01.38	327.83	18.29	-45.7	-49.0	22.1	6.06e-01	0	44	0	925368320	63	5140
2026-01-13 12:28:04.22	328.15	17.95	-45.9	-49.1	22.0	6.10e-01	0	44	0	930611200	63	5180
2026-01-13 12:28:08.26	328.60	17.46	-45.9	-48.9	22.2	6.09e-01	0	44	0	938475520	63	5098
2026-01-13 12:28:11.11	328.91	17.12	-45.9	-48.9	22.2	6.06e-01	0	44	0	943718400	63	5083
2026-01-13 12:28:15.45	329.36	16.62	-46.0	-48.9	22.2	6.10e-01	0	44	0	951582720	63	5068
2026-01-13 12:28:18.28	329.65	16.29	-46.1	-49.1	22.1	6.06e-01	0	44	0	957349888	63	5175
2026-01-13 12:28:22.25	330.04	15.84	-46.1	-49.2	21.9	6.08e-01	0	44	0	964689920	63	5279
2026-01-13 12:28:25.16	330.32	15.52	-46.1	-49.3	21.9	6.05e-01	0	44	0	969932800	63	5312
2026-01-13 12:28:29.42	330.72	15.05	-46.2	-49.3	21.9	6.05e-01	0	44	0	977797120	63	5286
2026-01-13 12:28:32.27	330.98	14.75	-46.2	-49.4	21.8	6.04e-01	0	44	0	983564288	63	5344
2026-01-13 12:28:36.25	331.33	14.33	-46.0	-49.4	21.7	6.06e-01	0	44	0	990904320	63	5386
2026-01-13 12:28:39.10	331.58	14.03	-45.9	-49.4	21.8	6.01e-01	0	44	0	996147200	63	5366
2026-01-13 12:28:42.73	331.89	13.65	-46.5	-49.7	21.5	6.03e-01	0	44	0	1002962944	63	5539
2026-01-13 12:28:45.68	332.14	13.35	-46.6	-49.6	21.6	6.05e-01	0	44	0	1008205824	63	5481
2026-01-13 12:28:48.67	332.38	13.05	-46.6	-49.8	21.4	6.04e-01	0	44	0	1013972992	63	5623
2026-01-13 12:28:51.65	332.62	12.76	-46.3	-49.8	21.3	6.03e-01	0	44	0	1019740160	63	5625
2026-01-13 12:28:54.63	332.85	12.46	-46.2	-49.7	21.4	6.03e-01	0	44	0	1025507328	63	5545
2026-01-13 12:28:58.17	333.12	12.12	-46.5	-49.8	21.3	6.02e-01	0	44	0	1031798784	63	5644
2026-01-13 12:29:00.93	333.33	11.86	-46.6	-49.8	21.3	6.02e-01	0	44	0	1037041664	63	5630
2026-01-13 12:29:04.20	333.56	11.55	-46.6	-49.8	21.2	6.01e-01	0	44	0	1043333120	64	5337
2026-01-13 12:29:06.90	333.76	11.30	-46.5	-49.9	21.2	6.05e-01	0	44	0	1048051712	64	5341
2026-01-13 12:29:10.20	333.99	10.99	-46.4	-49.9	21.1	6.03e-01	0	44	0	1054343168	64	5392
2026-01-13 12:29:12.99	334.18	10.74	-46.3	-50.0	21.0	6.02e-01	0	44	0	1059586048	64	5411
2026-01-13 12:29:16.12	334.40	10.45	-46.3	-50.1	20.9	6.04e-01	0	44	0	1065353216	64	5470
2026-01-13 12:29:19.25	334.61	10.18	-46.3	-50.2	20.8	6.00e-01	0	44	0	1071120384	64	5549
2026-01-13 12:29:22.32	334.81	9.91	-46.1	-50.4	20.6	6.06e-01	0	44	0	1077411840	64	5669
2026-01-13 12:29:25.17	334.99	9.66	-46.0	-50.3	20.7	6.02e-01	0	44	0	1082654720	63	5949
2026-01-13 12:29:28.30	335.19	9.39	-46.0	-50.5	20.4	6.02e-01	0	44	0	1088421888	63	6123
2026-01-13 12:29:31.14	335.36	9.14	-45.9	-50.5	20.5	6.03e-01	0	44	0	1093664768	63	6065
2026-01-13 12:29:34.69	335.58	8.84	-50.8	-72.3	3.8	7.49e-01	0	44	104	1096810496	73	41980
2026-01-13 12:29:37.47	335.75	8.61	-51.8	-72.7	3.8	7.42e-01	0	44	104	1096810496	74	41932
2026-01-13 12:29:40.84	335.94	8.33	-52.6	-73.0	3.8	7.46e-01	0	44	104	1096810496	76	38355
2026-01-13 12:29:43.54	336.10	8.11	-52.8	-73.1	3.8	7.44e-01	0	44	104	1096810496	76	38723
2026-01-13 12:29:46.84	336.29	7.85	-53.1	-73.1	3.8	7.42e-01	0	44	104	1096810496	76	38751
2026-01-13 12:29:49.53	336.44	7.63	-52.9	-73.1	3.8	7.45e-01	0	44	104	1096810496	77	36753
2026-01-13 12:29:52.81	336.62	7.37	-53.0	-73.1	3.8	7.47e-01	0	44	104	1096810496	77	36620
2026-01-13 12:29:55.51	336.76	7.16	-52.4	-72.8	3.8	7.44e-01	0	44	104	1096810496	76	37710
2026-01-13 12:29:58.79	336.94	6.90	-52.5	-73.0	3.8	7.49e-01	0	44	104	1096810496	76	38501
2026-01-13 12:30:01.50	337.08	6.69	-52.4	-73.0	3.8	7.46e-01	0	44	104	1096810496	76	38346
2026-01-13 12:30:04.78	337.25	6.44	-52.4	-73.0	3.8	7.43e-01	0	44	104	1096810496	76	38246
2026-01-13 12:30:07.49	337.38	6.24	-52.4	-73.0	3.8	7.45e-01	0	44	104	1096810496	76	38305
2026-01-13 12:30:10.76	337.55	5.99	-52.4	-72.9	3.8	7.44e-01	0	44	104	1096810496	76	38138
2026-01-13 12:30:13.47	337.68	5.79	-52.4	-72.9	3.8	7.49e-01	0	44	104	1096810496	76	38031
2026-01-13 12:30:16.75	337.84	5.55	-52.3	-72.8	3.8	7.45e-01	0	44	104	1096810496	76	37796
2026-01-13 12:30:19.44	337.97	5.35	-52.3	-72.8	3.8	7.46e-01	0	44	104	1096810496	76	37788
2026-01-13 12:30:22.71	338.12	5.12	-52.3	-72.8	3.8	7.47e-01	0	44	104	1096810496	76	37725

#Closed at: 2026-01-13 12:30:25
#Recorded file [1096 MB]: D:/Data/31040_260113_151918.dat