passes_logs/2026/01/13/T1/T1__20260113_214445_NOAA_21_JPSS-2_rec.log

#Pass ID: 20260113_214445_NOAA 21 (JPSS-2)
#Satellite: NOAA 21 (JPSS-2)
#Configuration: NOAA 21
#almurnet v.1.7.20251203
#Start time: 2026-01-13 21:44:45

#Version: 2.0.20230620
#Station: T1
#Location: 37.570604 lon 55.790049 lat
#TLE: 1 54234U 22150A   26013.18009385  .00000056  00000+0  47387-4 0  9997
#TLE: 2 54234  98.7496 314.1019 0000691 303.8246  56.2864 14.19534466164559

#Time	Az	El	Level	Level2	SNR	BER	BlckErr	Temp	State	Recorded	gain1	gain2
2026-01-13 21:44:45.86	35.78	5.00	-49.6	-62.9	3.8	1.49e+00	0	38	0	0	71	15969
2026-01-13 21:44:48.83	36.11	5.14	-49.6	-62.9	3.8	1.49e+00	0	38	104	0	69	17975
2026-01-13 21:44:51.81	36.44	5.29	-49.6	-62.8	3.8	1.49e+00	0	38	104	0	69	17888
2026-01-13 21:44:54.80	36.78	5.43	-49.6	-62.8	3.8	1.49e+00	0	38	104	0	69	17881
2026-01-13 21:44:57.77	37.12	5.58	-49.6	-62.9	3.8	1.49e+00	0	39	104	0	69	18006
2026-01-13 21:45:00.75	37.46	5.72	-49.6	-62.8	3.8	1.49e+00	0	39	104	0	69	17855
2026-01-13 21:45:03.73	37.80	5.86	-49.6	-62.9	3.8	1.49e+00	0	39	104	0	69	17948
2026-01-13 21:45:06.72	38.15	6.01	-49.6	-62.9	3.8	1.49e+00	0	39	104	0	69	17927
2026-01-13 21:45:09.70	38.50	6.15	-49.6	-62.9	3.8	1.49e+00	0	39	104	0	69	17968
2026-01-13 21:45:12.68	38.86	6.30	-49.6	-62.9	3.8	1.49e+00	0	39	104	0	69	17902
2026-01-13 21:45:15.66	39.22	6.44	-49.6	-62.9	3.8	1.49e+00	0	39	104	0	69	17920
2026-01-13 21:45:18.64	39.58	6.59	-49.6	-62.8	3.8	1.49e+00	0	39	104	0	69	17775
2026-01-13 21:45:21.62	39.94	6.73	-49.6	-62.8	3.8	1.49e+00	0	39	104	0	69	17870
2026-01-13 21:45:24.60	40.31	6.88	-49.6	-62.8	3.8	1.49e+00	0	39	104	0	69	17762
2026-01-13 21:45:27.58	40.69	7.02	-49.6	-62.8	3.8	1.49e+00	0	39	104	0	69	17778
2026-01-13 21:45:30.56	41.06	7.16	-49.6	-62.8	3.8	1.49e+00	0	39	104	0	69	17868
2026-01-13 21:45:33.54	41.44	7.31	-49.6	-62.8	3.8	1.49e+00	0	40	104	0	69	17855
2026-01-13 21:45:36.52	41.82	7.45	-49.6	-62.8	3.8	1.49e+00	0	40	104	0	69	17854
2026-01-13 21:45:39.50	42.21	7.59	-49.6	-62.8	3.8	1.49e+00	0	40	104	0	69	17745
2026-01-13 21:45:42.48	42.60	7.74	-49.6	-62.7	3.8	1.49e+00	0	40	104	0	69	17585
2026-01-13 21:45:45.46	42.99	7.88	-49.6	-62.8	3.8	1.49e+00	0	40	104	0	69	17862
2026-01-13 21:45:48.43	43.39	8.02	-49.6	-62.8	3.8	1.49e+00	0	39	104	0	69	17879
2026-01-13 21:45:51.41	43.79	8.16	-49.6	-62.8	3.8	1.49e+00	0	40	104	0	69	17800
2026-01-13 21:45:54.40	44.20	8.30	-49.6	-62.7	3.8	1.49e+00	0	40	104	0	69	17661
2026-01-13 21:45:57.38	44.61	8.44	-49.6	-62.8	3.8	1.49e+00	0	40	104	0	69	17749
2026-01-13 21:46:00.36	45.02	8.58	-49.6	-62.8	3.8	1.49e+00	0	40	104	0	69	17843
2026-01-13 21:46:03.34	45.44	8.72	-49.6	-62.8	3.8	1.49e+00	0	40	104	0	69	17752
2026-01-13 21:46:06.31	45.86	8.86	-49.5	-62.5	3.8	1.49e+00	0	40	104	0	69	17146
2026-01-13 21:46:09.29	46.28	9.00	-49.5	-62.3	3.8	1.49e+00	0	40	104	0	69	16885
2026-01-13 21:46:12.28	46.71	9.14	-49.4	-61.1	3.9	1.49e+00	0	40	104	0	69	14685
2026-01-13 21:46:15.26	47.14	9.28	-45.8	-49.2	12.3	3.50e-04	0	40	0	0	63	5273
2026-01-13 21:46:18.25	47.58	9.42	-45.2	-48.3	13.3	2.74e-05	0	40	0	0	62	5028
2026-01-13 21:46:21.18	48.02	9.55	-44.7	-47.5	14.1	5.30e-06	0	40	0	0	61	4833
2026-01-13 21:46:24.56	48.52	9.70	-44.0	-46.5	15.1	0.00e+00	0	40	0	0	59	4869
2026-01-13 21:46:27.27	48.93	9.83	-43.8	-46.2	15.5	0.00e+00	0	40	0	0	59	4676
2026-01-13 21:46:30.53	49.42	9.97	-43.8	-46.3	15.4	0.00e+00	0	40	0	0	59	4736
2026-01-13 21:46:33.24	49.84	10.09	-43.8	-46.2	15.4	0.00e+00	0	40	0	0	59	4688
2026-01-13 21:46:36.52	50.35	10.24	-43.9	-46.3	15.3	0.00e+00	0	40	0	0	59	4748
2026-01-13 21:46:39.22	50.77	10.36	-43.8	-46.3	15.4	0.00e+00	0	40	0	0	59	4727
2026-01-13 21:46:42.50	51.28	10.50	-43.8	-46.1	15.5	0.00e+00	0	40	0	0	59	4649
2026-01-13 21:46:45.21	51.71	10.62	-43.7	-46.0	15.7	0.00e+00	0	40	0	0	59	4589
2026-01-13 21:46:48.48	52.24	10.76	-43.8	-46.2	15.5	0.00e+00	0	40	0	0	59	4699
2026-01-13 21:46:51.18	52.67	10.87	-43.5	-45.8	15.9	0.00e+00	0	40	0	0	58	4749
2026-01-13 21:46:54.48	53.21	11.01	-43.5	-45.8	15.9	0.00e+00	0	40	0	0	58	4722
2026-01-13 21:46:57.27	53.67	11.13	-43.5	-45.8	15.9	0.00e+00	0	41	0	0	58	4744
2026-01-13 21:47:00.60	54.22	11.27	-43.8	-46.2	15.6	0.00e+00	0	40	0	0	58	4934
2026-01-13 21:47:03.43	54.69	11.38	-43.8	-46.2	15.6	0.00e+00	0	40	0	0	58	4934
2026-01-13 21:47:06.71	55.25	11.52	-43.7	-46.1	15.7	0.00e+00	0	40	0	0	58	4886
2026-01-13 21:47:09.44	55.71	11.63	-43.8	-46.2	15.6	0.00e+00	0	40	0	0	58	4948
2026-01-13 21:47:12.71	56.27	11.76	-43.6	-45.9	15.8	0.00e+00	0	40	0	0	58	4785
2026-01-13 21:47:15.43	56.74	11.86	-43.7	-46.0	15.8	0.00e+00	0	40	0	0	58	4842
2026-01-13 21:47:19.00	57.36	12.00	-43.5	-45.8	15.9	0.00e+00	0	40	0	0	58	4742
2026-01-13 21:47:21.92	57.87	12.11	-43.4	-45.7	16.0	0.00e+00	0	41	0	0	58	4694
2026-01-13 21:47:25.19	58.45	12.23	-43.5	-45.8	16.0	0.00e+00	0	40	0	0	58	4724
2026-01-13 21:47:27.91	58.93	12.33	-43.5	-45.7	16.0	0.00e+00	0	40	0	0	58	4704
2026-01-13 21:47:31.22	59.53	12.45	-43.5	-45.8	15.9	0.00e+00	0	40	0	0	58	4735
2026-01-13 21:47:34.02	60.03	12.55	-43.5	-45.8	16.0	0.00e+00	0	40	0	0	58	4717
2026-01-13 21:47:37.14	60.60	12.66	-43.5	-45.8	16.0	0.00e+00	0	40	0	0	58	4735
2026-01-13 21:47:40.30	61.18	12.77	-43.5	-45.8	16.0	0.00e+00	0	40	0	0	58	4723
2026-01-13 21:47:43.15	61.71	12.87	-43.6	-45.9	15.9	0.00e+00	0	40	0	0	58	4776
2026-01-13 21:47:46.31	62.29	12.97	-43.4	-45.7	16.1	0.00e+00	0	40	0	0	58	4669
2026-01-13 21:47:49.21	62.83	13.06	-43.3	-45.5	16.2	0.00e+00	0	40	0	0	58	4582
2026-01-13 21:47:52.47	63.45	13.17	-43.4	-45.6	16.1	0.00e+00	0	41	0	0	58	4642
2026-01-13 21:47:55.37	64.00	13.26	-43.4	-45.6	16.1	0.00e+00	0	40	0	0	58	4617
2026-01-13 21:47:58.56	64.61	13.35	-43.1	-45.3	16.5	0.00e+00	0	40	0	0	58	4447
2026-01-13 21:48:01.41	65.15	13.44	-43.2	-45.5	16.3	0.00e+00	0	40	0	0	58	4554
2026-01-13 21:48:04.53	65.75	13.53	-43.3	-45.5	16.2	0.00e+00	0	40	0	0	58	4580
2026-01-13 21:48:07.37	66.30	13.60	-43.4	-45.6	16.2	0.00e+00	0	40	0	0	58	4627
2026-01-13 21:48:10.50	66.91	13.69	-43.1	-45.3	16.5	0.00e+00	0	40	0	0	58	4458
2026-01-13 21:48:13.41	67.49	13.76	-43.1	-45.3	16.5	0.00e+00	0	40	0	0	58	4456
2026-01-13 21:48:16.60	68.11	13.85	-43.1	-45.3	16.5	0.00e+00	0	40	0	0	58	4473
2026-01-13 21:48:19.44	68.68	13.91	-43.1	-45.3	16.5	0.00e+00	0	40	0	0	58	4451
2026-01-13 21:48:22.49	69.28	13.99	-43.0	-45.1	16.7	0.00e+00	0	40	0	0	58	4372
2026-01-13 21:48:25.48	69.88	14.05	-43.2	-45.3	16.4	0.00e+00	0	40	0	0	57	4757
2026-01-13 21:48:28.47	70.48	14.12	-43.2	-45.5	16.3	0.00e+00	0	40	0	0	57	4818
2026-01-13 21:48:31.45	71.08	14.18	-42.9	-45.1	16.7	0.00e+00	0	40	0	0	57	4603
2026-01-13 21:48:34.44	71.69	14.24	-43.0	-45.1	16.6	0.00e+00	0	41	0	0	57	4635
2026-01-13 21:48:37.42	72.29	14.30	-42.9	-45.0	16.7	0.00e+00	0	40	0	0	57	4594
2026-01-13 21:48:40.41	72.90	14.35	-42.9	-45.1	16.6	0.00e+00	0	40	0	0	57	4616
2026-01-13 21:48:43.40	73.51	14.40	-43.0	-45.2	16.6	0.00e+00	0	41	0	0	57	4669
2026-01-13 21:48:46.38	74.13	14.45	-43.1	-45.3	16.4	0.00e+00	0	40	0	0	57	4732
2026-01-13 21:48:49.42	74.75	14.50	-43.0	-45.2	16.6	0.00e+00	0	40	0	0	57	4692
2026-01-13 21:48:52.40	75.37	14.54	-43.3	-45.5	16.3	0.00e+00	0	41	0	0	57	4824
2026-01-13 21:48:55.38	75.99	14.58	-43.3	-45.6	16.3	0.00e+00	0	40	0	0	57	4877
2026-01-13 21:48:58.37	76.61	14.61	-43.3	-45.5	16.3	0.00e+00	0	40	0	0	57	4829
2026-01-13 21:49:01.35	77.23	14.65	-43.1	-45.2	16.5	0.00e+00	0	40	0	0	57	4692
2026-01-13 21:49:04.33	77.85	14.67	-43.1	-45.2	16.6	0.00e+00	0	40	0	0	57	4686
2026-01-13 21:49:07.35	78.48	14.70	-43.2	-45.4	16.4	0.00e+00	0	40	0	0	57	4769
2026-01-13 21:49:10.58	79.16	14.73	-43.2	-45.5	16.4	0.00e+00	0	40	0	0	57	4818
2026-01-13 21:49:13.72	79.82	14.75	-43.3	-45.5	16.3	0.00e+00	0	40	0	0	57	4849
2026-01-13 21:49:16.85	80.47	14.77	-43.2	-45.4	16.4	0.00e+00	0	40	0	0	57	4789
2026-01-13 21:49:19.69	81.07	14.78	-43.0	-45.3	16.5	0.00e+00	0	40	0	0	57	4723
2026-01-13 21:49:22.92	81.75	14.79	-43.0	-45.2	16.6	0.00e+00	0	40	0	0	57	4680
2026-01-13 21:49:25.76	82.35	14.80	-43.1	-45.3	16.5	0.00e+00	0	41	0	0	57	4754
2026-01-13 21:49:28.88	83.01	14.80	-42.9	-45.0	16.8	0.00e+00	0	40	0	0	57	4584
2026-01-13 21:49:31.72	83.60	14.80	-42.7	-44.9	16.9	0.00e+00	0	40	0	0	57	4500
2026-01-13 21:49:34.85	84.26	14.80	-42.8	-45.0	16.8	0.00e+00	0	40	0	0	57	4581
2026-01-13 21:49:37.76	84.88	14.79	-43.0	-45.2	16.7	0.00e+00	0	40	0	0	57	4674
2026-01-13 21:49:40.99	85.56	14.78	-43.1	-45.3	16.5	0.00e+00	0	40	0	0	57	4741
2026-01-13 21:49:43.89	86.17	14.77	-43.1	-45.4	16.4	0.00e+00	0	40	0	0	57	4802
2026-01-13 21:49:47.02	86.82	14.75	-43.4	-45.7	16.1	0.00e+00	0	40	0	0	57	4935
2026-01-13 21:49:49.96	87.44	14.73	-43.0	-45.2	16.6	0.00e+00	0	40	0	0	57	4664
2026-01-13 21:49:52.94	88.07	14.71	-43.1	-45.3	16.5	0.00e+00	0	40	0	0	57	4717
2026-01-13 21:49:55.93	88.69	14.69	-43.2	-45.4	16.4	0.00e+00	0	40	0	0	57	4778
2026-01-13 21:49:58.91	89.32	14.66	-43.1	-45.3	16.5	0.00e+00	0	40	0	0	57	4729
2026-01-13 21:50:01.94	89.95	14.63	-42.9	-45.1	16.7	0.00e+00	0	40	0	0	57	4617
2026-01-13 21:50:04.93	90.57	14.59	-43.0	-45.2	16.6	0.00e+00	0	40	0	0	57	4681
2026-01-13 21:50:07.91	91.19	14.55	-42.9	-45.1	16.8	0.00e+00	0	40	0	0	57	4618
2026-01-13 21:50:10.89	91.81	14.51	-43.1	-45.3	16.5	0.00e+00	0	41	0	0	57	4752
2026-01-13 21:50:13.88	92.43	14.47	-43.3	-45.5	16.4	0.00e+00	0	40	0	0	57	4830
2026-01-13 21:50:16.91	93.05	14.42	-43.2	-45.4	16.5	0.00e+00	0	40	0	0	57	4779
2026-01-13 21:50:19.90	93.66	14.37	-43.1	-45.3	16.6	0.00e+00	0	40	0	0	57	4724
2026-01-13 21:50:22.88	94.27	14.32	-43.1	-45.2	16.6	0.00e+00	0	40	0	0	57	4690
2026-01-13 21:50:25.86	94.88	14.26	-43.1	-45.3	16.6	0.00e+00	0	40	0	0	57	4720
2026-01-13 21:50:28.84	95.49	14.20	-43.2	-45.3	16.5	0.00e+00	0	40	0	0	57	4749
2026-01-13 21:50:31.82	96.09	14.14	-43.0	-45.2	16.7	0.00e+00	0	41	0	0	57	4667
2026-01-13 21:50:34.81	96.70	14.08	-43.0	-45.2	16.7	0.00e+00	0	41	0	0	57	4670
2026-01-13 21:50:37.79	97.29	14.01	-43.0	-45.2	16.7	0.00e+00	0	40	0	0	57	4658
2026-01-13 21:50:40.82	97.90	13.94	-43.2	-45.3	16.5	0.00e+00	0	40	0	0	57	4754
2026-01-13 21:50:43.80	98.49	13.87	-43.1	-45.3	16.6	0.00e+00	0	41	0	0	57	4717
2026-01-13 21:50:46.79	99.09	13.79	-43.1	-45.3	16.5	0.00e+00	0	40	0	0	57	4746
2026-01-13 21:50:49.78	99.67	13.72	-43.2	-45.4	16.4	0.00e+00	0	40	0	0	57	4809
2026-01-13 21:50:52.76	100.26	13.64	-43.3	-45.5	16.4	0.00e+00	0	41	0	0	57	4843
2026-01-13 21:50:55.74	100.84	13.55	-43.3	-45.5	16.3	0.00e+00	0	40	0	0	57	4869
2026-01-13 21:50:58.91	101.45	13.46	-43.3	-45.5	16.3	0.00e+00	0	40	0	0	57	4846
2026-01-13 21:51:01.77	102.01	13.38	-43.2	-45.4	16.4	0.00e+00	0	40	0	0	57	4781
2026-01-13 21:51:04.89	102.60	13.29	-43.1	-45.3	16.5	0.00e+00	0	40	0	0	57	4726
2026-01-13 21:51:07.73	103.15	13.20	-43.2	-45.4	16.4	0.00e+00	0	40	0	0	57	4768
2026-01-13 21:51:10.86	103.74	13.10	-43.0	-45.2	16.6	0.00e+00	0	40	0	0	57	4677
2026-01-13 21:51:13.72	104.28	13.01	-43.0	-45.1	16.6	0.00e+00	0	40	0	0	57	4638
2026-01-13 21:51:17.26	104.94	12.89	-43.1	-45.3	16.5	0.00e+00	0	40	0	0	57	4742
2026-01-13 21:51:19.97	105.44	12.80	-43.1	-45.3	16.5	0.00e+00	0	41	0	0	57	4715
2026-01-13 21:51:23.25	106.05	12.69	-43.3	-45.5	16.4	0.00e+00	0	41	0	0	57	4815
2026-01-13 21:51:25.98	106.55	12.59	-43.3	-45.5	16.2	0.00e+00	0	40	0	0	57	4837
2026-01-13 21:51:29.25	107.14	12.48	-43.2	-45.4	16.3	0.00e+00	0	40	0	0	57	4773
2026-01-13 21:51:32.11	107.66	12.37	-43.2	-45.4	16.4	0.00e+00	0	40	0	0	57	4783
2026-01-13 21:51:35.21	108.22	12.26	-43.4	-45.6	16.2	0.00e+00	0	40	0	0	57	4918
2026-01-13 21:51:38.33	108.77	12.14	-43.5	-45.8	16.0	0.00e+00	0	40	0	0	57	4992
2026-01-13 21:51:41.17	109.27	12.03	-43.5	-45.8	15.9	0.00e+00	0	41	0	0	57	5009
2026-01-13 21:51:44.39	109.84	11.91	-43.4	-45.7	16.0	0.00e+00	0	40	0	0	57	4953
2026-01-13 21:51:47.24	110.34	11.80	-43.4	-45.7	16.0	0.00e+00	0	40	0	0	57	4959
2026-01-13 21:51:50.57	110.91	11.66	-43.5	-45.8	15.9	0.00e+00	0	40	0	0	57	5003
2026-01-13 21:51:53.49	111.41	11.55	-43.6	-45.9	15.9	0.00e+00	0	40	0	0	57	5071
2026-01-13 21:51:56.76	111.97	11.41	-43.7	-46.1	15.6	0.00e+00	0	40	0	0	58	4908
2026-01-13 21:51:59.48	112.42	11.30	-43.7	-46.1	15.6	0.00e+00	0	40	0	0	58	4906
2026-01-13 21:52:02.76	112.97	11.16	-43.9	-46.3	15.3	0.00e+00	0	40	0	0	58	5040
2026-01-13 21:52:05.73	113.46	11.04	-43.8	-46.2	15.5	0.00e+00	0	40	0	0	58	4931
2026-01-13 21:52:08.85	113.98	10.91	-43.9	-46.3	15.5	0.00e+00	0	40	0	0	58	4992
2026-01-13 21:52:11.83	114.46	10.78	-44.0	-46.4	15.3	0.00e+00	0	40	0	0	58	5076
2026-01-13 21:52:14.81	114.94	10.65	-44.2	-46.7	15.0	0.00e+00	0	40	0	0	59	4933
2026-01-13 21:52:17.82	115.42	10.52	-44.2	-46.7	15.0	0.00e+00	0	40	0	0	59	4939
2026-01-13 21:52:20.84	115.90	10.39	-44.1	-46.6	15.0	0.00e+00	0	40	0	0	59	4924
2026-01-13 21:52:23.83	116.37	10.25	-44.1	-46.6	15.0	7.00e-07	0	40	0	0	59	4917
2026-01-13 21:52:26.81	116.84	10.12	-44.1	-46.5	15.1	0.00e+00	0	40	0	0	59	4849
2026-01-13 21:52:29.79	117.30	9.99	-44.2	-46.8	14.9	0.00e+00	0	40	0	0	59	4992
2026-01-13 21:52:32.78	117.76	9.85	-44.1	-46.6	15.1	0.00e+00	0	40	0	0	59	4904
2026-01-13 21:52:35.80	118.22	9.71	-44.2	-46.8	14.8	7.00e-07	0	40	0	0	59	5014
2026-01-13 21:52:38.78	118.66	9.58	-44.3	-47.0	14.6	0.00e+00	0	40	0	0	59	5118
2026-01-13 21:52:41.77	119.11	9.44	-44.3	-46.9	14.7	0.00e+00	0	40	0	0	59	5099
2026-01-13 21:52:44.75	119.55	9.30	-44.3	-46.9	14.7	7.00e-07	0	40	0	0	59	5077
2026-01-13 21:52:47.74	119.99	9.16	-44.3	-46.9	14.6	0.00e+00	0	40	0	0	59	5099
2026-01-13 21:52:50.75	120.42	9.02	-44.1	-46.8	14.7	1.50e-06	0	40	0	0	59	5019
2026-01-13 21:52:53.81	120.86	8.88	-50.4	-63.4	3.8	1.49e+00	0	40	104	0	71	17030
2026-01-13 21:52:56.65	121.27	8.74	-50.5	-63.6	3.8	1.49e+00	0	40	104	0	71	17370
2026-01-13 21:52:59.77	121.71	8.59	-50.5	-63.7	3.8	1.49e+00	0	40	104	0	71	17522
2026-01-13 21:53:02.61	122.11	8.46	-50.4	-63.7	3.8	1.49e+00	0	40	104	0	72	16570
2026-01-13 21:53:05.73	122.54	8.31	-50.4	-63.7	3.8	1.49e+00	0	40	104	0	72	16662
2026-01-13 21:53:08.57	122.93	8.17	-50.3	-63.7	3.8	1.49e+00	0	40	104	0	72	16635
2026-01-13 21:53:11.69	123.35	8.02	-50.4	-63.8	3.8	1.49e+00	0	40	104	0	72	16696
2026-01-13 21:53:14.53	123.73	7.89	-50.5	-63.7	3.8	1.49e+00	0	40	104	0	72	16546
2026-01-13 21:53:17.65	124.15	7.74	-50.5	-63.7	3.8	1.49e+00	0	40	104	0	72	16571
2026-01-13 21:53:20.49	124.52	7.60	-50.5	-63.7	3.8	1.49e+00	0	40	104	0	72	16533
2026-01-13 21:53:23.61	124.93	7.45	-50.5	-63.7	3.8	1.49e+00	0	40	104	0	72	16537
2026-01-13 21:53:26.45	125.30	7.31	-50.5	-63.6	3.8	1.49e+00	0	40	104	0	72	16499
2026-01-13 21:53:29.57	125.70	7.16	-50.5	-63.6	3.8	1.49e+00	0	40	104	0	72	16468
2026-01-13 21:53:32.41	126.06	7.02	-50.5	-63.6	3.8	1.49e+00	0	40	104	0	72	16456
2026-01-13 21:53:35.53	126.45	6.87	-50.5	-63.6	3.8	1.49e+00	0	41	104	0	72	16471
2026-01-13 21:53:38.37	126.81	6.73	-50.5	-63.6	3.8	1.49e+00	0	40	104	0	72	16480
2026-01-13 21:53:41.49	127.19	6.58	-50.5	-63.6	3.8	1.49e+00	0	40	104	0	72	16461
2026-01-13 21:53:44.33	127.54	6.44	-50.5	-63.6	3.8	1.49e+00	0	40	104	0	72	16424
2026-01-13 21:53:47.45	127.92	6.28	-50.4	-63.6	3.8	1.49e+00	0	40	104	0	72	16474
2026-01-13 21:53:50.29	128.26	6.14	-50.4	-63.6	3.8	1.49e+00	0	40	104	0	72	16492
2026-01-13 21:53:53.41	128.63	5.99	-50.4	-63.6	3.8	1.49e+00	0	40	104	0	72	16439
2026-01-13 21:53:56.25	128.96	5.85	-50.4	-63.6	3.8	1.49e+00	0	40	104	0	72	16411
2026-01-13 21:53:59.37	129.32	5.70	-50.4	-63.6	3.8	1.49e+00	0	41	104	0	72	16455
2026-01-13 21:54:02.21	129.65	5.56	-50.5	-63.6	3.8	1.49e+00	0	40	104	0	72	16469
2026-01-13 21:54:05.33	130.01	5.40	-50.4	-63.6	3.8	1.49e+00	0	40	104	0	72	16416
2026-01-13 21:54:08.17	130.33	5.26	-50.4	-63.6	3.8	1.49e+00	0	40	104	0	72	16425
2026-01-13 21:54:11.29	130.68	5.11	-50.4	-63.6	3.8	1.49e+00	0	40	104	0	72	16415
2026-01-13 21:54:14.13	130.99	4.97	-50.4	-63.6	3.8	1.49e+00	0	40	104	0	72	16497

#Closed at: 2026-01-13 21:54:15
#Recorded file [0 MB]: D:/Data/31040_260114_004445.dat