passes_logs/2026/01/13/T1/T1__20260113_223425_NOAA_20_JPSS-1_rec.log

#Pass ID: 20260113_223425_NOAA 20 (JPSS-1)
#Satellite: NOAA 20 (JPSS-1)
#Configuration: NOAA 20
#almurnet v.1.7.20251203
#Start time: 2026-01-13 22:34:26

#Version: 2.0.20230620
#Station: T1
#Location: 37.570604 lon 55.790049 lat
#TLE: 1 43013U 17073A   26013.21545503  .00000073  00000+0  55630-4 0  9998
#TLE: 2 43013  98.7633 314.1737 0001580  41.9966 318.1331 14.19535680422486

#Time	Az	El	Level	Level2	SNR	BER	BlckErr	Temp	State	Recorded	gain1	gain2
2026-01-13 22:34:26.94	25.33	5.08	-50.0	-65.5	3.8	1.49e+00	0	37	0	0	71	21732
2026-01-13 22:34:29.91	25.53	5.28	-50.0	-65.5	3.8	1.49e+00	0	37	104	0	70	22999
2026-01-13 22:34:32.89	25.72	5.47	-50.0	-65.6	3.8	1.49e+00	0	37	104	0	70	23052
2026-01-13 22:34:35.87	25.93	5.66	-50.0	-65.5	3.8	1.49e+00	0	37	104	0	70	22984
2026-01-13 22:34:38.85	26.13	5.86	-50.0	-65.6	3.8	1.49e+00	0	37	104	0	70	23071
2026-01-13 22:34:41.83	26.34	6.06	-50.0	-65.5	3.8	1.49e+00	0	37	104	0	70	22981
2026-01-13 22:34:44.81	26.55	6.25	-50.0	-65.5	3.8	1.49e+00	0	37	104	0	70	23021
2026-01-13 22:34:47.79	26.76	6.45	-49.9	-65.5	3.8	1.49e+00	0	38	104	0	70	22913
2026-01-13 22:34:50.77	26.97	6.65	-49.9	-65.5	3.8	1.49e+00	0	38	104	0	70	23042
2026-01-13 22:34:53.75	27.19	6.86	-49.9	-65.5	3.8	1.49e+00	0	38	104	0	70	22898
2026-01-13 22:34:56.73	27.41	7.06	-49.9	-65.5	3.8	1.49e+00	0	38	104	0	70	22838
2026-01-13 22:34:59.71	27.63	7.26	-49.9	-65.5	3.8	1.49e+00	0	38	104	0	70	22990
2026-01-13 22:35:02.69	27.86	7.47	-49.9	-65.5	3.8	1.49e+00	0	38	104	0	70	23023
2026-01-13 22:35:05.67	28.09	7.67	-49.9	-65.4	3.8	1.49e+00	0	38	104	0	70	22633
2026-01-13 22:35:08.65	28.32	7.88	-49.9	-65.2	3.8	1.49e+00	0	38	104	0	70	22209
2026-01-13 22:35:11.63	28.56	8.09	-49.9	-65.2	3.8	1.49e+00	0	38	104	0	70	22105
2026-01-13 22:35:14.61	28.79	8.30	-49.9	-64.9	3.8	1.49e+00	0	38	104	0	70	21498
2026-01-13 22:35:17.59	29.04	8.52	-49.9	-65.3	3.8	1.49e+00	0	38	104	0	70	22423
2026-01-13 22:35:20.57	29.28	8.73	-49.9	-65.2	3.8	1.49e+00	0	38	104	0	70	22125
2026-01-13 22:35:23.55	29.53	8.94	-49.9	-64.1	3.8	1.49e+00	0	38	104	0	70	19509
2026-01-13 22:35:26.54	29.78	9.16	-50.0	-65.4	3.8	1.49e+00	0	38	104	0	70	22717
2026-01-13 22:35:29.55	30.04	9.38	-48.3	-54.9	9.1	1.50e-01	0	38	0	2097152	68	7592
2026-01-13 22:35:32.54	30.30	9.60	-47.1	-52.2	11.8	3.60e-04	0	38	0	8388608	65	6612
2026-01-13 22:35:35.53	30.57	9.82	-46.9	-51.4	12.7	6.17e-05	0	38	0	13631488	65	6044
2026-01-13 22:35:38.51	30.83	10.05	-46.4	-50.3	13.9	6.10e-06	0	39	0	18874368	64	5626
2026-01-13 22:35:41.50	31.11	10.27	-46.0	-49.5	14.8	0.00e+00	0	38	0	25165824	63	5438
2026-01-13 22:35:44.49	31.38	10.50	-45.9	-49.3	15.1	0.00e+00	0	38	0	30408704	63	5288
2026-01-13 22:35:47.55	31.67	10.73	-45.9	-49.3	15.1	0.00e+00	0	39	0	35651584	63	5293
2026-01-13 22:35:50.39	31.94	10.95	-45.9	-49.3	15.1	0.00e+00	0	39	0	40894464	63	5293
2026-01-13 22:35:53.52	32.24	11.19	-45.7	-49.1	15.3	0.00e+00	0	39	0	47185920	63	5184
2026-01-13 22:35:56.36	32.52	11.41	-45.6	-49.0	15.4	0.00e+00	0	39	0	52428800	63	5115
2026-01-13 22:35:59.49	32.83	11.65	-45.6	-48.8	15.6	0.00e+00	0	39	0	58720256	63	5041
2026-01-13 22:36:02.43	33.13	11.88	-45.7	-49.0	15.4	0.00e+00	0	39	0	63963136	63	5120
2026-01-13 22:36:05.55	33.45	12.13	-45.7	-49.1	15.3	0.00e+00	0	39	0	70254592	63	5178
2026-01-13 22:36:08.40	33.74	12.36	-45.7	-49.0	15.4	0.00e+00	0	39	0	75497472	63	5146
2026-01-13 22:36:11.52	34.07	12.61	-45.9	-49.2	15.2	0.00e+00	0	39	0	80740352	63	5268
2026-01-13 22:36:14.37	34.38	12.84	-46.0	-49.3	15.2	0.00e+00	0	39	0	85983232	63	5303
2026-01-13 22:36:17.49	34.72	13.10	-45.7	-49.2	15.3	0.00e+00	0	39	0	92274688	63	5219
2026-01-13 22:36:20.34	35.03	13.33	-45.7	-49.2	15.2	0.00e+00	0	39	0	97517568	63	5264
2026-01-13 22:36:23.46	35.39	13.59	-45.6	-49.0	15.5	0.00e+00	0	39	0	103809024	63	5131
2026-01-13 22:36:26.30	35.71	13.82	-45.7	-49.1	15.4	0.00e+00	0	39	0	109051904	63	5160
2026-01-13 22:36:29.43	36.08	14.08	-45.8	-49.2	15.3	0.00e+00	0	39	0	114294784	63	5242
2026-01-13 22:36:32.32	36.42	14.33	-45.8	-49.1	15.3	0.00e+00	0	39	0	119537664	63	5216
2026-01-13 22:36:35.51	36.80	14.60	-45.8	-49.2	15.3	0.00e+00	0	39	0	125829120	63	5219
2026-01-13 22:36:38.36	37.15	14.84	-45.8	-49.1	15.4	0.00e+00	0	39	0	131072000	63	5181
2026-01-13 22:36:41.48	37.54	15.11	-45.7	-49.0	15.6	0.00e+00	0	39	0	137363456	63	5107
2026-01-13 22:36:44.32	37.90	15.35	-45.7	-49.0	15.5	0.00e+00	0	39	0	142606336	63	5143
2026-01-13 22:36:47.45	38.30	15.63	-45.7	-49.1	15.4	0.00e+00	0	39	0	147849216	63	5206
2026-01-13 22:36:50.37	38.68	15.88	-45.8	-49.1	15.5	0.00e+00	0	39	0	154140672	63	5163
2026-01-13 22:36:53.50	39.10	16.16	-45.7	-48.9	15.7	0.00e+00	0	39	0	159383552	63	5054
2026-01-13 22:36:56.34	39.48	16.41	-45.6	-48.7	15.9	0.00e+00	0	39	0	164626432	63	4937
2026-01-13 22:36:59.46	39.91	16.69	-45.6	-48.7	15.8	0.00e+00	0	39	0	170917888	63	4966
2026-01-13 22:37:02.31	40.31	16.94	-45.7	-48.8	15.8	0.00e+00	0	39	0	176160768	63	4999
2026-01-13 22:37:05.43	40.75	17.22	-45.8	-48.9	15.7	0.00e+00	0	39	0	182452224	63	5069
2026-01-13 22:37:08.37	41.18	17.49	-45.7	-48.8	15.7	0.00e+00	0	39	0	187695104	63	5039
2026-01-13 22:37:11.57	41.65	17.78	-45.5	-48.6	16.0	0.00e+00	0	39	0	193986560	63	4894
2026-01-13 22:37:14.41	42.08	18.04	-45.6	-48.6	16.0	0.00e+00	0	39	0	199229440	63	4904
2026-01-13 22:37:17.54	42.55	18.33	-45.6	-48.6	16.0	0.00e+00	0	39	0	204472320	63	4900
2026-01-13 22:37:20.38	43.00	18.59	-45.4	-48.3	16.3	0.00e+00	0	39	0	209715200	62	5005
2026-01-13 22:37:23.50	43.49	18.88	-45.2	-48.0	16.6	0.00e+00	0	39	0	216006656	62	4846
2026-01-13 22:37:26.35	43.95	19.15	-45.0	-47.8	16.8	0.00e+00	0	39	0	221249536	61	4992
2026-01-13 22:37:29.67	44.49	19.46	-45.0	-47.8	16.8	0.00e+00	0	39	0	227540992	61	5012
2026-01-13 22:37:32.54	44.97	19.73	-45.1	-48.0	16.6	0.00e+00	0	39	0	232783872	61	5104
2026-01-13 22:37:35.83	45.53	20.04	-45.0	-47.9	16.7	0.00e+00	0	39	0	239075328	61	5045
2026-01-13 22:37:38.53	46.00	20.30	-45.1	-47.9	16.6	0.00e+00	0	39	0	244318208	61	5092
2026-01-13 22:37:41.80	46.58	20.61	-45.0	-47.8	16.8	0.00e+00	0	39	0	250609664	61	5021
2026-01-13 22:37:44.61	47.09	20.88	-45.0	-47.8	16.7	0.00e+00	0	39	0	255852544	61	5040
2026-01-13 22:37:48.05	47.72	21.20	-44.9	-47.7	16.8	0.00e+00	0	39	0	262144000	61	4982
2026-01-13 22:37:51.01	48.27	21.49	-44.8	-47.6	17.0	0.00e+00	0	39	0	267386880	61	4897
2026-01-13 22:37:54.29	48.89	21.80	-44.9	-47.7	16.9	0.00e+00	0	39	0	273678336	61	4949
2026-01-13 22:37:57.02	49.42	22.07	-44.6	-47.3	17.3	0.00e+00	0	39	0	278921216	61	4750
2026-01-13 22:38:00.29	50.07	22.38	-44.5	-47.2	17.4	0.00e+00	0	39	0	285212672	61	4671
2026-01-13 22:38:03.00	50.61	22.64	-44.5	-47.2	17.4	0.00e+00	0	39	0	290455552	61	4660
2026-01-13 22:38:06.27	51.28	22.96	-44.6	-47.2	17.3	0.00e+00	0	39	0	295698432	60	4983
2026-01-13 22:38:08.98	51.85	23.22	-44.7	-47.4	17.2	0.00e+00	0	39	0	300941312	60	5087
2026-01-13 22:38:12.25	52.54	23.53	-44.7	-47.4	17.2	0.00e+00	0	39	0	307232768	60	5085
2026-01-13 22:38:14.97	53.13	23.80	-44.8	-47.5	17.1	0.00e+00	0	39	0	312475648	60	5147
2026-01-13 22:38:18.24	53.85	24.11	-44.7	-47.4	17.2	0.00e+00	0	39	0	318767104	60	5071
2026-01-13 22:38:21.21	54.52	24.39	-44.7	-47.4	17.2	0.00e+00	0	39	0	324009984	60	5070
2026-01-13 22:38:24.48	55.26	24.71	-45.0	-47.8	16.9	0.00e+00	0	39	0	330301440	60	5290
2026-01-13 22:38:27.21	55.90	24.97	-45.2	-48.0	16.6	0.00e+00	0	39	0	335544320	61	5140
2026-01-13 22:38:30.54	56.69	25.28	-45.4	-48.3	16.3	0.00e+00	0	39	0	341835776	61	5338
2026-01-13 22:38:33.25	57.34	25.53	-45.4	-48.4	16.3	0.00e+00	0	39	0	347078656	61	5362
2026-01-13 22:38:36.76	58.20	25.86	-45.6	-48.5	16.1	0.00e+00	0	39	0	353370112	61	5459
2026-01-13 22:38:39.46	58.88	26.11	-45.9	-49.0	15.7	0.00e+00	0	39	0	358612992	62	5452
2026-01-13 22:38:42.76	59.71	26.42	-45.7	-48.8	15.9	0.00e+00	0	39	0	364904448	62	5303
2026-01-13 22:38:45.47	60.41	26.66	-45.8	-48.9	15.8	0.00e+00	0	39	0	369098752	62	5356
2026-01-13 22:38:48.74	61.27	26.96	-46.4	-49.7	15.0	0.00e+00	0	39	0	375390208	63	5585
2026-01-13 22:38:51.67	62.06	27.22	-46.8	-50.4	14.2	0.00e+00	0	39	0	381681664	64	5703
2026-01-13 22:38:54.75	62.90	27.49	-46.7	-50.4	14.3	2.20e-06	0	39	0	386924544	64	5657
2026-01-13 22:38:58.02	63.80	27.77	-46.6	-50.1	14.5	0.00e+00	0	39	0	393216000	64	5521
2026-01-13 22:39:00.76	64.57	28.01	-46.6	-50.1	14.6	0.00e+00	0	39	0	398458880	64	5482
2026-01-13 22:39:04.03	65.50	28.28	-46.7	-50.2	14.4	7.00e-07	0	39	0	404750336	64	5571
2026-01-13 22:39:07.15	66.41	28.54	-46.6	-50.2	14.4	3.00e-06	0	39	0	409993216	64	5555
2026-01-13 22:39:10.48	67.39	28.80	-46.4	-49.7	14.9	0.00e+00	0	39	0	416284672	64	5260
2026-01-13 22:39:13.30	68.23	29.02	-46.4	-49.8	14.8	0.00e+00	0	39	0	421527552	64	5329
2026-01-13 22:39:16.42	69.18	29.26	-46.6	-50.1	14.5	0.00e+00	0	39	0	427819008	64	5526
2026-01-13 22:39:19.26	70.06	29.48	-46.6	-50.1	14.5	7.00e-07	0	39	0	433061888	64	5515
2026-01-13 22:39:22.39	71.03	29.70	-46.7	-50.3	14.4	0.00e+00	0	39	0	439353344	64	5598
2026-01-13 22:39:25.24	71.93	29.90	-47.3	-51.3	13.4	9.10e-06	0	39	0	444596224	65	5952
2026-01-13 22:39:28.57	73.00	30.13	-48.0	-52.6	12.1	2.74e-04	0	39	0	450887680	66	6506
2026-01-13 22:39:31.27	73.88	30.31	-48.1	-52.9	11.7	5.10e-04	0	39	0	455081984	66	6743
2026-01-13 22:39:34.54	74.95	30.51	-48.1	-52.8	11.8	4.55e-04	0	39	0	461373440	67	6312
2026-01-13 22:39:37.28	75.86	30.68	-48.2	-53.2	11.4	6.62e-04	0	39	0	466616320	67	6616
2026-01-13 22:39:40.67	77.00	30.87	-48.2	-53.1	11.5	1.04e-03	0	39	0	472907776	67	6523
2026-01-13 22:39:43.43	77.93	31.02	-47.7	-52.1	12.5	1.50e-04	0	39	0	478150656	67	5840
2026-01-13 22:39:46.83	79.10	31.20	-47.7	-52.1	12.5	6.48e-05	0	39	0	484442112	67	5840
2026-01-13 22:39:49.54	80.03	31.33	-47.8	-52.3	12.4	1.40e-04	0	39	0	489684992	67	5953
2026-01-13 22:39:52.84	81.18	31.48	-47.4	-51.6	13.1	4.34e-05	0	39	0	495976448	66	5799
2026-01-13 22:39:55.56	82.14	31.59	-47.0	-51.0	13.6	1.06e-05	0	39	0	501219328	65	5785
2026-01-13 22:39:58.83	83.30	31.72	-47.1	-51.3	13.4	1.29e-05	0	39	0	507510784	65	5955
2026-01-13 22:40:01.59	84.28	31.81	-47.1	-51.2	13.5	1.44e-05	0	39	0	512753664	65	5866
2026-01-13 22:40:05.22	85.59	31.93	-47.0	-51.1	13.5	3.80e-06	0	39	0	519045120	65	5854
2026-01-13 22:40:08.06	86.61	32.01	-47.8	-52.6	12.0	1.94e-04	0	39	0	524288000	66	6538
2026-01-13 22:40:11.19	87.75	32.08	-47.5	-52.1	12.5	1.60e-04	0	39	0	530579456	66	6160
2026-01-13 22:40:14.14	88.82	32.14	-46.8	-50.7	13.9	3.80e-06	0	39	0	535822336	65	5576
2026-01-13 22:40:17.13	89.91	32.19	-47.0	-50.7	13.9	3.00e-06	0	39	0	541065216	65	5590
2026-01-13 22:40:20.44	91.13	32.23	-46.9	-50.7	14.0	3.00e-06	0	39	0	547356672	65	5546
2026-01-13 22:40:23.35	92.20	32.25	-47.1	-51.0	13.7	8.30e-06	0	39	0	553648128	65	5727
2026-01-13 22:40:27.53	93.73	32.27	-47.5	-51.7	12.9	2.59e-05	0	39	0	560988160	65	6236
2026-01-13 22:40:30.38	94.78	32.26	-47.4	-51.6	13.0	3.89e-05	0	39	0	566231040	65	6175
2026-01-13 22:40:34.35	96.24	32.24	-46.9	-50.6	14.1	2.20e-06	0	39	0	573571072	65	5478
2026-01-13 22:40:37.20	97.29	32.22	-47.3	-51.3	13.3	9.10e-06	0	39	0	578813952	65	5990
2026-01-13 22:40:41.10	98.72	32.16	-47.6	-51.9	12.7	7.47e-05	0	39	0	586153984	65	6382
2026-01-13 22:40:44.15	99.83	32.11	-47.8	-52.3	12.4	2.25e-04	0	39	0	592445440	66	6288
2026-01-13 22:40:47.03	100.88	32.04	-48.1	-52.9	11.8	2.91e-04	0	39	0	597688320	66	6747
2026-01-13 22:40:50.15	102.01	31.96	-48.1	-52.9	11.7	6.77e-04	0	39	0	602931200	67	6409
2026-01-13 22:40:53.23	103.12	31.87	-47.9	-52.4	12.3	2.30e-04	0	39	0	609222656	67	6029
2026-01-13 22:40:56.41	104.26	31.77	-48.1	-53.0	11.7	5.40e-04	0	39	0	615514112	67	6421
2026-01-13 22:40:59.25	105.27	31.67	-48.1	-52.8	11.8	4.59e-04	0	39	0	620756992	67	6345
2026-01-13 22:41:02.35	106.37	31.54	-47.6	-51.9	12.7	9.76e-05	0	39	0	625999872	67	5673
2026-01-13 22:41:05.25	107.38	31.42	-47.1	-50.9	13.7	1.29e-05	0	39	0	631242752	66	5390
2026-01-13 22:41:08.51	108.52	31.26	-47.1	-51.0	13.7	5.30e-06	0	40	0	637534208	65	5731
2026-01-13 22:41:11.39	109.51	31.12	-47.4	-51.5	13.2	1.52e-05	0	39	0	642777088	65	6065
2026-01-13 22:41:14.68	110.64	30.95	-47.4	-51.5	13.2	2.21e-05	0	39	0	649068544	65	6096
2026-01-13 22:41:17.41	111.56	30.79	-47.1	-51.1	13.6	8.30e-06	0	39	0	654311424	65	5816
2026-01-13 22:41:20.69	112.66	30.60	-46.8	-50.6	14.1	2.20e-06	0	39	0	660602880	65	5500
2026-01-13 22:41:23.49	113.59	30.43	-47.1	-51.0	13.7	2.20e-06	0	39	0	665845760	65	5765
2026-01-13 22:41:26.61	114.61	30.23	-47.7	-52.3	12.4	1.04e-04	0	39	0	672137216	66	6285
2026-01-13 22:41:29.46	115.53	30.03	-47.8	-52.4	12.2	2.39e-04	0	39	0	677380096	66	6367
2026-01-13 22:41:32.59	116.53	29.82	-47.4	-51.4	13.2	2.21e-05	0	39	0	682622976	66	5694
2026-01-13 22:41:35.43	117.43	29.61	-47.4	-51.5	13.1	3.43e-05	0	39	0	687865856	66	5776
2026-01-13 22:41:38.56	118.40	29.38	-47.7	-52.1	12.6	1.01e-04	0	39	0	694157312	66	6170
2026-01-13 22:41:41.40	119.27	29.17	-48.0	-52.9	11.7	3.52e-04	0	39	0	699400192	66	6771
2026-01-13 22:41:44.53	120.22	28.92	-48.0	-52.7	11.8	6.10e-04	0	39	0	705691648	66	6630
2026-01-13 22:41:47.37	121.07	28.70	-47.8	-52.3	12.4	1.80e-04	0	39	0	710934528	66	6296
2026-01-13 22:41:50.50	121.99	28.44	-46.9	-50.7	13.9	6.10e-06	0	39	0	716177408	65	5534
2026-01-13 22:41:53.35	122.82	28.21	-46.6	-50.1	14.5	0.00e+00	0	39	0	721420288	65	5208
2026-01-13 22:41:56.47	123.71	27.94	-46.9	-50.6	14.0	1.50e-06	0	39	0	727711744	65	5491
2026-01-13 22:41:59.37	124.52	27.69	-47.3	-51.4	13.3	2.05e-05	0	39	0	732954624	65	6013
2026-01-13 22:42:02.62	125.42	27.41	-47.4	-51.5	13.1	5.34e-05	0	39	0	739246080	65	6123
2026-01-13 22:42:05.46	126.19	27.16	-46.4	-49.9	14.7	0.00e+00	0	39	0	744488960	64	5344
2026-01-13 22:42:08.58	127.03	26.88	-46.6	-50.2	14.4	7.00e-07	0	39	0	750780416	64	5580
2026-01-13 22:42:11.43	127.78	26.62	-45.9	-49.0	15.6	0.00e+00	0	39	0	756023296	63	5152
2026-01-13 22:42:14.55	128.58	26.33	-46.4	-50.0	14.7	0.00e+00	0	39	0	761266176	63	5740
2026-01-13 22:42:17.46	129.33	26.06	-47.5	-52.0	12.5	1.09e-04	0	39	0	767557632	65	6473
2026-01-13 22:42:20.59	130.11	25.77	-47.1	-51.0	13.6	8.30e-06	0	39	0	772800512	65	5726
2026-01-13 22:42:23.43	130.81	25.50	-46.8	-50.6	14.0	1.50e-06	0	39	0	778043392	65	5469
2026-01-13 22:42:26.55	131.56	25.21	-46.0	-49.2	15.4	0.00e+00	0	39	0	784334848	63	5263
2026-01-13 22:42:29.40	132.24	24.93	-46.2	-49.5	15.1	0.00e+00	0	39	0	789577728	63	5450
2026-01-13 22:42:32.57	132.97	24.63	-46.4	-49.9	14.6	7.00e-07	0	39	0	795869184	64	5390
2026-01-13 22:42:35.41	133.62	24.36	-45.6	-48.7	16.0	0.00e+00	0	39	0	801112064	63	4938
2026-01-13 22:42:38.54	134.33	24.06	-46.3	-49.7	14.9	0.00e+00	0	39	0	806354944	63	5570
2026-01-13 22:42:41.38	134.96	23.78	-45.8	-49.1	15.5	0.00e+00	0	39	0	811597824	63	5193
2026-01-13 22:42:44.51	135.64	23.48	-45.6	-48.8	15.9	0.00e+00	0	39	0	817889280	63	4991
2026-01-13 22:42:47.35	136.24	23.20	-46.2	-49.5	15.1	0.00e+00	0	39	0	823132160	63	5444
2026-01-13 22:42:50.48	136.90	22.90	-45.6	-48.6	15.9	0.00e+00	0	39	0	829423616	63	4926
2026-01-13 22:42:53.32	137.48	22.62	-45.2	-48.1	16.4	0.00e+00	0	39	0	834666496	62	4876
2026-01-13 22:42:56.45	138.11	22.32	-45.3	-48.3	16.3	0.00e+00	0	39	0	839909376	62	5025
2026-01-13 22:42:59.29	138.67	22.04	-45.1	-47.9	16.7	0.00e+00	0	39	0	845152256	62	4787
2026-01-13 22:43:02.42	139.28	21.74	-44.7	-47.4	17.2	0.00e+00	0	39	0	851443712	61	4768
2026-01-13 22:43:05.26	139.83	21.46	-44.8	-47.6	16.9	0.00e+00	0	39	0	856686592	61	4890
2026-01-13 22:43:08.50	140.43	21.15	-44.6	-47.3	17.1	0.00e+00	0	39	0	862978048	61	4755
2026-01-13 22:43:11.40	140.97	20.87	-44.5	-47.2	17.3	0.00e+00	0	39	0	868220928	61	4693
2026-01-13 22:43:14.67	141.56	20.56	-44.7	-47.4	17.1	0.00e+00	0	39	0	874512384	61	4789
2026-01-13 22:43:17.41	142.04	20.29	-44.6	-47.4	17.1	0.00e+00	0	39	0	879755264	61	4769
2026-01-13 22:43:20.69	142.62	19.98	-44.5	-47.1	17.3	0.00e+00	0	39	0	886046720	60	4923
2026-01-13 22:43:23.52	143.10	19.71	-44.4	-47.1	17.4	0.00e+00	0	39	0	891289600	60	4912
2026-01-13 22:43:26.64	143.62	19.41	-45.1	-48.0	16.5	0.00e+00	0	39	0	896532480	60	5446
2026-01-13 22:43:29.49	144.09	19.14	-45.3	-48.4	16.1	0.00e+00	0	39	0	901775360	61	5363
2026-01-13 22:43:32.65	144.61	18.85	-45.1	-48.2	16.3	0.00e+00	0	39	0	908066816	61	5239
2026-01-13 22:43:35.93	145.13	18.54	-45.2	-48.2	16.3	0.00e+00	0	39	0	914358272	61	5225
2026-01-13 22:43:38.74	145.57	18.28	-45.3	-48.4	16.2	0.00e+00	0	39	0	919601152	61	5343
2026-01-13 22:43:42.13	146.08	17.96	-45.2	-48.2	16.3	0.00e+00	0	39	0	925892608	61	5219
2026-01-13 22:43:45.18	146.54	17.68	-45.4	-48.4	16.1	0.00e+00	0	39	0	931135488	61	5370
2026-01-13 22:43:48.35	147.01	17.39	-45.5	-48.6	15.8	0.00e+00	0	39	0	937426944	61	5524
2026-01-13 22:43:51.33	147.44	17.12	-45.8	-49.0	15.6	0.00e+00	0	39	0	942669824	62	5409
2026-01-13 22:43:54.32	147.87	16.85	-45.8	-49.1	15.4	0.00e+00	0	39	0	948961280	62	5481
2026-01-13 22:43:57.30	148.29	16.58	-46.1	-49.6	14.9	0.00e+00	0	39	0	954204160	62	5830
2026-01-13 22:44:00.29	148.70	16.31	-46.5	-50.1	14.4	7.00e-07	0	39	0	959447040	63	5850
2026-01-13 22:44:03.56	149.14	16.02	-46.2	-49.6	14.8	0.00e+00	0	39	0	965738496	63	5519
2026-01-13 22:44:06.45	149.52	15.76	-45.8	-49.2	15.3	0.00e+00	0	39	0	970981376	63	5236
2026-01-13 22:44:09.73	149.95	15.47	-45.8	-49.2	15.3	0.00e+00	0	39	0	977272832	63	5242
2026-01-13 22:44:12.46	150.30	15.23	-46.1	-49.7	14.8	0.00e+00	0	39	0	982515712	63	5562
2026-01-13 22:44:15.76	150.71	14.95	-46.2	-49.8	14.6	1.50e-06	0	39	0	988807168	63	5636
2026-01-13 22:44:18.46	151.05	14.71	-45.9	-49.4	15.1	0.00e+00	0	39	0	994050048	63	5342
2026-01-13 22:44:21.95	151.47	14.41	-45.7	-49.1	15.3	0.00e+00	0	39	0	1000341504	63	5171
2026-01-13 22:44:24.84	151.82	14.17	-45.8	-49.3	15.1	0.00e+00	0	39	0	1005584384	63	5327
2026-01-13 22:44:28.99	152.31	13.82	-46.2	-49.9	14.5	1.50e-06	0	39	0	1013972992	63	5705
2026-01-13 22:44:31.84	152.63	13.58	-46.2	-49.9	14.5	1.50e-06	0	39	0	1019215872	63	5691
2026-01-13 22:44:35.80	153.08	13.25	-45.6	-49.1	15.3	0.00e+00	0	39	0	1026555904	63	5167
2026-01-13 22:44:38.63	153.40	13.01	-45.4	-48.7	15.6	0.00e+00	0	39	0	1031798784	62	5274
2026-01-13 22:44:42.61	153.83	12.69	-45.5	-48.8	15.6	0.00e+00	0	39	0	1039138816	62	5288
2026-01-13 22:44:45.54	154.14	12.45	-45.7	-49.1	15.2	0.00e+00	0	39	0	1044381696	62	5513
2026-01-13 22:44:48.52	154.46	12.21	-46.0	-49.7	14.7	0.00e+00	0	39	0	1050673152	62	5873
2026-01-13 22:44:51.51	154.77	11.96	-46.0	-49.7	14.6	0.00e+00	0	39	0	1055916032	62	5887
2026-01-13 22:44:54.49	155.07	11.73	-45.9	-49.4	14.7	0.00e+00	0	39	0	1061158912	62	5701
2026-01-13 22:44:57.48	155.37	11.49	-45.8	-49.1	15.2	7.36e-04	0	39	0	1067450368	62	5515
2026-01-13 22:45:00.46	155.66	11.26	-45.9	-49.3	15.0	1.33e-02	0	39	0	1072693248	62	5611
2026-01-13 22:45:03.45	155.95	11.02	-45.8	-49.2	15.1	0.00e+00	0	39	0	1077936128	62	5571
2026-01-13 22:45:06.71	156.27	10.77	-46.0	-49.6	14.7	7.00e-07	0	39	0	1084227584	62	5789
2026-01-13 22:45:09.42	156.52	10.56	-45.9	-49.4	14.9	6.80e-06	0	39	0	1089470464	63	5367
2026-01-13 22:45:12.71	156.83	10.31	-46.1	-49.5	14.7	0.00e+00	0	39	0	1095761920	63	5455
2026-01-13 22:45:15.41	157.08	10.10	-46.0	-49.5	14.7	0.00e+00	0	39	0	1101004800	63	5427
2026-01-13 22:45:18.73	157.37	9.85	-46.1	-49.7	14.6	7.00e-07	0	39	0	1107296256	63	5530
2026-01-13 22:45:21.44	157.62	9.65	-46.1	-49.7	14.5	7.00e-07	0	39	0	1111490560	63	5574
2026-01-13 22:45:24.74	157.90	9.40	-46.3	-50.0	14.2	7.00e-07	0	39	0	1117782016	63	5729
2026-01-13 22:45:27.48	158.14	9.20	-46.3	-50.1	14.0	1.50e-06	0	39	0	1123024896	64	5490
2026-01-13 22:45:30.81	158.42	8.95	-49.3	-57.5	7.6	1.50e-06	0	39	0	1129316352	69	9619
2026-01-13 22:45:33.53	158.65	8.75	-50.3	-65.8	3.8	1.49e+00	0	39	104	1129316352	71	22476
2026-01-13 22:45:36.79	158.92	8.52	-50.3	-66.0	3.8	1.49e+00	0	40	104	1129316352	72	21712
2026-01-13 22:45:39.53	159.14	8.32	-50.9	-66.1	3.8	1.49e+00	0	39	104	1129316352	72	21894
2026-01-13 22:45:42.86	159.41	8.08	-51.0	-66.2	3.8	1.49e+00	0	40	104	1129316352	72	22040
2026-01-13 22:45:45.56	159.62	7.89	-50.9	-66.2	3.8	1.49e+00	0	39	104	1129316352	72	22057
2026-01-13 22:45:48.84	159.88	7.66	-51.0	-66.2	3.8	1.49e+00	0	39	104	1129316352	72	22079
2026-01-13 22:45:51.58	160.09	7.47	-50.9	-66.2	3.8	1.49e+00	0	39	104	1129316352	72	22145
2026-01-13 22:45:54.84	160.34	7.24	-50.7	-66.2	3.8	1.49e+00	0	39	104	1129316352	72	22054
2026-01-13 22:45:57.54	160.54	7.05	-50.7	-66.1	3.8	1.49e+00	0	39	104	1129316352	72	21875
2026-01-13 22:46:00.81	160.78	6.82	-50.7	-66.1	3.8	1.49e+00	0	39	104	1129316352	72	21846
2026-01-13 22:46:03.52	160.98	6.64	-50.7	-66.1	3.8	1.49e+00	0	39	104	1129316352	72	21888
2026-01-13 22:46:06.80	161.21	6.42	-50.7	-66.1	3.8	1.49e+00	0	39	104	1129316352	72	21867
2026-01-13 22:46:09.52	161.41	6.23	-50.7	-66.1	3.8	1.49e+00	0	39	104	1129316352	72	21872
2026-01-13 22:46:12.79	161.64	6.01	-50.7	-66.1	3.8	1.49e+00	0	40	104	1129316352	72	21824
2026-01-13 22:46:15.49	161.82	5.83	-50.7	-66.1	3.8	1.49e+00	0	39	104	1129316352	72	21834
2026-01-13 22:46:18.76	162.05	5.62	-50.7	-66.1	3.8	1.49e+00	0	40	104	1129316352	72	21784
2026-01-13 22:46:21.46	162.23	5.44	-50.7	-66.1	3.8	1.49e+00	0	39	104	1129316352	72	21809
2026-01-13 22:46:24.74	162.45	5.22	-50.7	-66.1	3.8	1.49e+00	0	39	104	1129316352	72	21818
2026-01-13 22:46:27.44	162.62	5.05	-50.7	-66.0	3.8	1.49e+00	0	39	104	1129316352	72	21741

#Closed at: 2026-01-13 22:46:29
#Recorded file [1129 MB]: D:/Data/31040_260114_013426.dat