passes_logs/2026/01/13/T1/T1__20260113_021428_NOAA_20_JPSS-1_rec.log

#Pass ID: 20260113_021428_NOAA 20 (JPSS-1)
#Satellite: NOAA 20 (JPSS-1)
#Configuration: NOAA 20
#almurnet v.1.7.20251203
#Start time: 2026-01-13 02:14:27

#Version: 2.0.20230620
#Station: T1
#Location: 37.570604 lon 55.790049 lat
#TLE: 1 43013U 17073A   26012.29914746  .00000087  00000+0  62270-4 0  9997
#TLE: 2 43013  98.7632 313.2670 0001616  43.2193 316.9110 14.19535514422351

#Time	Az	El	Level	Level2	SNR	BER	BlckErr	Temp	State	Recorded	gain1	gain2
2026-01-13 02:14:27.78	1.38	4.99	-49.1	-66.1	3.8	1.49e+00	0	36	0	0	70	24569
2026-01-13 02:14:29.77	1.15	5.08	-50.1	-65.8	3.8	1.49e+00	0	36	104	0	70	23740
2026-01-13 02:14:31.75	0.92	5.17	-50.1	-65.8	3.8	1.49e+00	0	36	104	0	70	23736
2026-01-13 02:14:33.74	0.69	5.26	-50.1	-65.8	3.8	1.49e+00	0	36	104	0	70	23703
2026-01-13 02:14:35.73	0.46	5.35	-50.1	-65.8	3.8	1.49e+00	0	36	104	0	70	23697
2026-01-13 02:14:37.71	0.23	5.44	-50.1	-65.8	3.8	1.49e+00	0	36	104	0	70	23724
2026-01-13 02:14:39.70	359.99	5.53	-50.1	-65.8	3.8	1.49e+00	0	36	104	0	70	23691
2026-01-13 02:14:41.69	359.75	5.63	-50.1	-65.8	3.8	1.49e+00	0	37	104	0	70	23716
2026-01-13 02:14:43.68	359.51	5.72	-50.1	-65.8	3.8	1.49e+00	0	36	104	0	70	23650
2026-01-13 02:14:45.66	359.27	5.81	-50.1	-65.8	3.8	1.49e+00	0	36	104	0	70	23645
2026-01-13 02:14:47.65	359.03	5.90	-50.1	-65.8	3.8	1.49e+00	0	36	104	0	70	23684
2026-01-13 02:14:49.63	358.79	5.99	-50.0	-65.8	3.8	1.49e+00	0	36	104	0	70	23648
2026-01-13 02:14:51.62	358.54	6.08	-50.0	-65.8	3.8	1.49e+00	0	37	104	0	70	23609
2026-01-13 02:14:53.61	358.30	6.17	-50.0	-65.8	3.8	1.49e+00	0	37	104	0	70	23592
2026-01-13 02:14:55.59	358.05	6.26	-50.0	-65.7	3.8	1.49e+00	0	37	104	0	70	23563
2026-01-13 02:14:57.58	357.80	6.35	-50.0	-65.8	3.8	1.49e+00	0	37	104	0	70	23608
2026-01-13 02:14:59.57	357.55	6.44	-50.0	-65.8	3.8	1.49e+00	0	37	104	0	70	23671
2026-01-13 02:15:01.55	357.29	6.53	-50.0	-65.8	3.8	1.49e+00	0	37	104	0	70	23609
2026-01-13 02:15:03.54	357.04	6.62	-50.0	-65.8	3.8	1.49e+00	0	37	104	0	70	23591
2026-01-13 02:15:05.53	356.78	6.70	-50.0	-65.7	3.8	1.49e+00	0	37	104	0	70	23574
2026-01-13 02:15:07.51	356.53	6.79	-50.0	-65.8	3.8	1.49e+00	0	37	104	0	70	23614
2026-01-13 02:15:09.50	356.27	6.88	-50.0	-65.8	3.8	1.49e+00	0	37	104	0	70	23632
2026-01-13 02:15:11.48	356.01	6.97	-50.0	-65.8	3.8	1.49e+00	0	37	104	0	70	23593
2026-01-13 02:15:13.47	355.74	7.06	-50.0	-65.7	3.8	1.49e+00	0	37	104	0	70	23561
2026-01-13 02:15:15.46	355.48	7.14	-50.0	-65.7	3.8	1.49e+00	0	37	104	0	70	23497
2026-01-13 02:15:17.44	355.21	7.23	-50.0	-65.7	3.8	1.49e+00	0	37	104	0	70	23446
2026-01-13 02:15:19.43	354.95	7.32	-50.0	-65.7	3.8	1.49e+00	0	38	104	0	70	23458
2026-01-13 02:15:21.42	354.68	7.40	-50.0	-65.6	3.8	1.49e+00	0	38	104	0	70	23246
2026-01-13 02:15:23.40	354.41	7.49	-50.0	-65.6	3.8	1.49e+00	0	37	104	0	70	23234
2026-01-13 02:15:25.39	354.14	7.58	-50.0	-65.7	3.8	1.49e+00	0	38	104	0	70	23418
2026-01-13 02:15:27.38	353.86	7.66	-50.0	-65.7	3.8	1.49e+00	0	37	104	0	70	23529
2026-01-13 02:15:29.37	353.58	7.75	-50.0	-65.7	3.8	1.49e+00	0	38	104	0	70	23500
2026-01-13 02:15:31.35	353.31	7.83	-50.0	-65.7	3.8	1.49e+00	0	38	104	0	70	23402
2026-01-13 02:15:33.34	353.03	7.92	-50.0	-65.7	3.8	1.49e+00	0	37	104	0	70	23451
2026-01-13 02:15:35.32	352.75	8.00	-49.9	-65.7	3.8	1.49e+00	0	38	104	0	70	23434
2026-01-13 02:15:37.31	352.47	8.08	-50.0	-65.6	3.8	1.49e+00	0	38	104	0	70	23150
2026-01-13 02:15:39.30	352.18	8.17	-49.9	-65.5	3.8	1.49e+00	0	38	104	0	70	22888
2026-01-13 02:15:41.28	351.90	8.25	-49.9	-65.6	3.8	1.49e+00	0	38	104	0	70	23165
2026-01-13 02:15:43.27	351.61	8.33	-49.9	-65.7	3.8	1.49e+00	0	38	104	0	70	23540
2026-01-13 02:15:45.26	351.32	8.42	-49.9	-65.4	3.8	1.49e+00	0	38	104	0	70	22776
2026-01-13 02:15:47.24	351.03	8.50	-49.9	-64.7	3.8	1.49e+00	0	38	104	0	70	20825
2026-01-13 02:15:49.23	350.74	8.58	-49.9	-64.5	3.8	1.49e+00	0	38	104	0	70	20374
2026-01-13 02:15:51.22	350.44	8.66	-49.8	-62.8	4.0	1.49e+00	0	38	104	0	70	16856
2026-01-13 02:15:53.20	350.15	8.74	-49.5	-60.0	5.1	7.96e-01	0	38	0	2097152	70	12222
2026-01-13 02:15:55.19	349.85	8.82	-49.3	-58.4	6.2	3.20e-01	0	38	0	5242880	70	10119
2026-01-13 02:15:57.17	349.55	8.90	-48.9	-56.9	7.5	1.31e-01	0	38	0	9437184	69	8974
2026-01-13 02:15:59.16	349.25	8.98	-48.3	-54.9	9.4	1.86e-02	0	38	0	12582912	68	7609
2026-01-13 02:16:01.15	348.95	9.06	-47.5	-53.5	10.8	1.96e-03	0	38	0	16777216	66	7232
2026-01-13 02:16:03.14	348.65	9.13	-46.5	-50.4	13.9	2.13e-05	0	38	0	17825792	64	5718
2026-01-13 02:16:05.13	348.34	9.21	-46.2	-50.0	14.3	3.80e-06	0	38	0	22020096	64	5459
2026-01-13 02:16:07.16	348.03	9.29	-46.0	-49.9	14.4	0.00e+00	0	38	0	26214400	64	5367
2026-01-13 02:16:09.23	347.70	9.37	-45.5	-49.7	14.6	7.00e-07	0	38	0	29360128	63	5585
2026-01-13 02:16:11.25	347.39	9.45	-44.8	-49.8	14.5	0.00e+00	0	38	0	33554432	61	6315
2026-01-13 02:16:13.24	347.08	9.52	-44.2	-49.9	14.5	7.00e-07	0	38	0	36700160	60	6736
2026-01-13 02:16:15.23	346.76	9.60	-44.1	-49.9	14.4	7.00e-07	0	38	0	40894464	59	7169
2026-01-13 02:16:17.22	346.44	9.67	-43.8	-49.7	14.6	0.00e+00	0	38	0	44040192	59	7018
2026-01-13 02:16:19.20	346.13	9.74	-43.7	-49.7	14.6	0.00e+00	0	38	0	48234496	59	7011
2026-01-13 02:16:21.19	345.81	9.82	-44.0	-49.7	14.6	0.00e+00	0	38	0	52428800	59	6962
2026-01-13 02:16:23.28	345.47	9.89	-44.4	-49.6	14.8	0.00e+00	0	38	0	55574528	59	6886
2026-01-13 02:16:25.27	345.15	9.96	-44.9	-49.6	14.8	0.00e+00	0	38	0	59768832	60	6495
2026-01-13 02:16:27.26	344.83	10.03	-45.1	-49.6	14.8	7.00e-07	0	38	0	62914560	60	6563
2026-01-13 02:16:29.26	344.50	10.10	-45.2	-49.5	14.9	0.00e+00	0	38	0	67108864	60	6481
2026-01-13 02:16:31.25	344.17	10.17	-45.3	-49.6	14.8	0.00e+00	0	38	0	71303168	61	6196
2026-01-13 02:16:33.23	343.84	10.24	-45.6	-49.7	14.7	0.00e+00	0	38	0	74448896	61	6265
2026-01-13 02:16:35.29	343.50	10.31	-46.0	-49.9	14.6	0.00e+00	0	38	0	78643200	62	6018
2026-01-13 02:16:37.29	343.17	10.38	-46.0	-49.9	14.6	0.00e+00	0	38	0	81788928	62	6003
2026-01-13 02:16:39.29	342.83	10.45	-45.8	-49.7	14.7	0.00e+00	0	38	0	85983232	62	5905
2026-01-13 02:16:41.29	342.49	10.51	-45.9	-49.9	14.5	7.00e-07	0	38	0	90177536	62	6039
2026-01-13 02:16:43.28	342.16	10.58	-46.2	-50.2	14.3	1.50e-06	0	38	0	93323264	62	6220
2026-01-13 02:16:45.27	341.82	10.64	-46.2	-50.1	14.4	1.50e-06	0	38	0	97517568	63	5805
2026-01-13 02:16:47.27	341.48	10.71	-46.0	-50.0	14.4	0.00e+00	0	38	0	100663296	63	5753
2026-01-13 02:16:49.26	341.14	10.77	-45.7	-49.8	14.6	7.00e-07	0	38	0	104857600	63	5652
2026-01-13 02:16:51.38	340.77	10.83	-45.4	-49.6	14.8	0.00e+00	0	38	0	109051904	62	5826
2026-01-13 02:16:53.38	340.42	10.89	-45.3	-49.8	14.7	0.00e+00	0	38	0	112197632	62	5936
2026-01-13 02:16:55.46	340.06	10.96	-45.5	-50.0	14.5	1.50e-06	0	38	0	116391936	62	6087
2026-01-13 02:16:57.47	339.71	11.02	-45.6	-49.9	14.6	1.50e-06	0	38	0	119537664	62	6041
2026-01-13 02:16:59.47	339.36	11.07	-45.6	-49.7	14.7	7.00e-07	0	38	0	123731968	62	5913
2026-01-13 02:17:01.48	339.01	11.13	-45.7	-49.6	14.9	0.00e+00	0	38	0	127926272	62	5819
2026-01-13 02:17:03.48	338.65	11.19	-45.9	-49.7	14.8	0.00e+00	0	38	0	131072000	62	5873
2026-01-13 02:17:05.47	338.30	11.24	-46.2	-49.9	14.5	0.00e+00	0	38	0	135266304	63	5716
2026-01-13 02:17:07.61	337.92	11.30	-46.0	-49.7	14.8	7.00e-07	0	38	0	139460608	63	5535
2026-01-13 02:17:09.59	337.57	11.35	-46.0	-49.7	14.8	7.00e-07	0	38	0	142606336	63	5544
2026-01-13 02:17:11.79	337.17	11.41	-46.0	-49.7	14.8	7.00e-07	0	39	0	146800640	63	5563
2026-01-13 02:17:13.79	336.81	11.46	-46.0	-49.9	14.5	0.00e+00	0	38	0	150994944	63	5710
2026-01-13 02:17:15.80	336.45	11.52	-45.7	-49.8	14.7	0.00e+00	0	38	0	154140672	63	5616
2026-01-13 02:17:17.88	336.07	11.57	-45.6	-49.7	14.8	0.00e+00	0	38	0	158334976	63	5574
2026-01-13 02:17:19.87	335.71	11.61	-45.9	-49.8	14.7	0.00e+00	0	38	0	162529280	63	5607
2026-01-13 02:17:21.86	335.34	11.66	-45.9	-49.6	14.8	0.00e+00	0	38	0	165675008	63	5524
2026-01-13 02:17:23.84	334.98	11.71	-46.0	-49.7	14.8	0.00e+00	0	38	0	169869312	63	5558
2026-01-13 02:17:25.88	334.61	11.75	-46.0	-49.8	14.7	0.00e+00	0	38	0	173015040	63	5608
2026-01-13 02:17:27.92	334.23	11.80	-46.1	-49.8	14.8	1.50e-06	0	38	0	177209344	63	5613
2026-01-13 02:17:29.88	333.87	11.84	-46.1	-49.7	14.8	0.00e+00	0	38	0	180355072	63	5572
2026-01-13 02:17:31.87	333.50	11.88	-46.2	-49.7	14.8	0.00e+00	0	38	0	184549376	63	5586
2026-01-13 02:17:33.86	333.13	11.92	-46.3	-50.0	14.5	0.00e+00	0	39	0	188743680	63	5749
2026-01-13 02:17:35.85	332.76	11.96	-46.2	-50.1	14.4	2.20e-06	0	38	0	191889408	63	5848
2026-01-13 02:17:37.84	332.38	12.00	-46.2	-50.3	14.3	7.00e-07	0	38	0	196083712	63	5945
2026-01-13 02:17:39.83	332.01	12.04	-46.3	-50.2	14.3	1.50e-06	0	38	0	199229440	63	5881
2026-01-13 02:17:41.93	331.62	12.08	-46.6	-50.4	14.2	1.50e-06	0	38	0	203423744	63	6004
2026-01-13 02:17:43.92	331.24	12.11	-46.7	-50.4	14.1	7.00e-07	0	38	0	207618048	63	6058
2026-01-13 02:17:45.91	330.87	12.15	-46.6	-50.5	14.1	1.50e-06	0	38	0	210763776	63	6104
2026-01-13 02:17:47.90	330.49	12.18	-46.4	-50.5	14.1	1.50e-06	0	38	0	214958080	63	6064
2026-01-13 02:17:50.09	330.07	12.21	-46.4	-50.4	14.2	7.00e-07	0	38	0	219152384	63	6027
2026-01-13 02:17:52.10	329.69	12.24	-46.5	-50.3	14.3	2.20e-06	0	38	0	222298112	63	5931
2026-01-13 02:17:54.08	329.31	12.27	-46.5	-50.1	14.5	7.00e-07	0	38	0	226492416	63	5841
2026-01-13 02:17:56.29	328.89	12.30	-46.4	-50.1	14.5	1.50e-06	0	39	0	230686720	63	5836
2026-01-13 02:17:58.31	328.50	12.33	-46.3	-50.1	14.5	0.00e+00	0	38	0	233832448	63	5819
2026-01-13 02:18:00.30	328.12	12.36	-46.3	-50.0	14.6	0.00e+00	0	38	0	238026752	63	5773
2026-01-13 02:18:02.29	327.74	12.38	-46.3	-49.9	14.7	0.00e+00	0	39	0	241172480	63	5675
2026-01-13 02:18:04.28	327.36	12.40	-46.3	-49.9	14.8	0.00e+00	0	38	0	245366784	63	5679
2026-01-13 02:18:06.27	326.97	12.43	-46.4	-50.1	14.6	0.00e+00	0	38	0	249561088	63	5800
2026-01-13 02:18:08.26	326.59	12.45	-46.4	-50.1	14.5	0.00e+00	0	39	0	252706816	63	5814
2026-01-13 02:18:10.25	326.20	12.46	-46.3	-50.1	14.5	0.00e+00	0	39	0	256901120	63	5844
2026-01-13 02:18:12.35	325.80	12.48	-46.1	-50.2	14.5	0.00e+00	0	39	0	260046848	63	5856
2026-01-13 02:18:14.34	325.41	12.50	-46.0	-50.0	14.6	0.00e+00	0	38	0	264241152	63	5753
2026-01-13 02:18:16.39	325.01	12.52	-45.9	-49.9	14.8	0.00e+00	0	38	0	268435456	63	5661
2026-01-13 02:18:18.44	324.61	12.53	-45.9	-49.8	14.9	7.00e-07	0	39	0	271581184	63	5626
2026-01-13 02:18:20.43	324.23	12.54	-45.9	-49.8	14.9	0.00e+00	0	38	0	275775488	63	5611
2026-01-13 02:18:22.57	323.81	12.55	-45.9	-49.7	14.9	0.00e+00	0	38	0	279969792	63	5579
2026-01-13 02:18:24.62	323.41	12.57	-46.1	-49.6	15.0	0.00e+00	0	38	0	283115520	63	5521
2026-01-13 02:18:26.67	323.01	12.57	-46.2	-49.6	15.1	0.00e+00	0	38	0	287309824	63	5501
2026-01-13 02:18:28.69	322.62	12.58	-46.2	-49.6	15.1	0.00e+00	0	38	0	291504128	63	5488
2026-01-13 02:18:30.68	322.23	12.59	-46.0	-49.3	15.3	0.00e+00	0	38	0	294649856	63	5326
2026-01-13 02:18:32.67	321.84	12.59	-46.0	-49.3	15.4	0.00e+00	0	38	0	298844160	63	5291
2026-01-13 02:18:34.66	321.45	12.60	-46.1	-49.4	15.3	0.00e+00	0	38	0	301989888	63	5356
2026-01-13 02:18:36.65	321.06	12.60	-46.1	-49.5	15.2	0.00e+00	0	38	0	306184192	63	5403
2026-01-13 02:18:38.64	320.67	12.60	-46.0	-49.5	15.1	0.00e+00	0	39	0	309329920	63	5454
2026-01-13 02:18:40.63	320.29	12.60	-46.0	-49.6	15.1	0.00e+00	0	38	0	313524224	63	5484
2026-01-13 02:18:42.62	319.90	12.60	-46.1	-49.5	15.2	0.00e+00	0	38	0	317718528	63	5447
2026-01-13 02:18:44.62	319.51	12.59	-46.1	-49.5	15.2	0.00e+00	0	38	0	320864256	63	5416
2026-01-13 02:18:46.63	319.11	12.59	-46.2	-49.6	15.1	0.00e+00	0	39	0	325058560	63	5487
2026-01-13 02:18:48.66	318.72	12.58	-46.0	-49.3	15.4	0.00e+00	0	38	0	328204288	63	5316
2026-01-13 02:18:50.66	318.33	12.58	-46.0	-49.4	15.3	0.00e+00	0	38	0	332398592	63	5391
2026-01-13 02:18:52.66	317.94	12.57	-45.8	-49.3	15.4	0.00e+00	0	38	0	335544320	63	5296
2026-01-13 02:18:54.65	317.55	12.56	-45.8	-49.4	15.2	0.00e+00	0	38	0	339738624	63	5383
2026-01-13 02:18:56.66	317.16	12.55	-45.6	-49.2	15.4	0.00e+00	0	38	0	343932928	63	5253
2026-01-13 02:18:58.65	316.77	12.54	-45.7	-49.3	15.3	0.00e+00	0	38	0	347078656	63	5337
2026-01-13 02:19:00.73	316.37	12.52	-46.0	-49.6	15.0	7.00e-07	0	38	0	351272960	63	5515
2026-01-13 02:19:02.72	315.98	12.51	-46.3	-49.8	14.9	0.00e+00	0	38	0	355467264	63	5641
2026-01-13 02:19:04.73	315.59	12.49	-46.5	-50.1	14.6	7.00e-07	0	38	0	358612992	63	5839
2026-01-13 02:19:06.73	315.20	12.47	-46.6	-50.2	14.4	0.00e+00	0	38	0	362807296	64	5570
2026-01-13 02:19:08.75	314.81	12.46	-46.6	-50.2	14.4	0.00e+00	0	38	0	365953024	64	5563
2026-01-13 02:19:10.75	314.42	12.44	-46.5	-50.1	14.5	0.00e+00	0	38	0	370147328	64	5488
2026-01-13 02:19:12.75	314.04	12.41	-46.5	-50.1	14.5	0.00e+00	0	38	0	373293056	64	5469
2026-01-13 02:19:14.76	313.65	12.39	-46.5	-50.0	14.5	0.00e+00	0	39	0	377487360	64	5455
2026-01-13 02:19:16.76	313.26	12.37	-46.5	-50.1	14.4	7.00e-07	0	39	0	381681664	64	5521
2026-01-13 02:19:18.75	312.88	12.34	-46.4	-50.2	14.4	7.00e-07	0	39	0	384827392	64	5540
2026-01-13 02:19:20.81	312.49	12.32	-46.5	-50.3	14.2	1.50e-06	0	38	0	389021696	64	5652
2026-01-13 02:19:22.81	312.10	12.29	-46.5	-50.3	14.3	0.00e+00	0	38	0	392167424	64	5621
2026-01-13 02:19:24.93	311.70	12.26	-46.4	-50.3	14.3	7.00e-07	0	38	0	396361728	64	5598
2026-01-13 02:19:26.93	311.32	12.23	-46.5	-50.4	14.2	1.50e-06	0	38	0	400556032	64	5697
2026-01-13 02:19:28.95	310.93	12.20	-46.6	-50.5	14.1	3.80e-06	0	38	0	403701760	64	5727
2026-01-13 02:19:30.94	310.55	12.17	-46.7	-50.6	14.0	3.80e-06	0	38	0	407896064	64	5796
2026-01-13 02:19:32.96	310.17	12.13	-46.7	-50.5	14.0	7.00e-07	0	39	0	412090368	64	5773
2026-01-13 02:19:35.04	309.78	12.10	-46.7	-50.5	14.1	7.00e-07	0	38	0	415236096	64	5726
2026-01-13 02:19:37.19	309.37	12.06	-46.4	-50.0	14.6	0.00e+00	0	39	0	419430400	64	5409
2026-01-13 02:19:39.18	309.00	12.02	-46.3	-49.8	14.7	0.00e+00	0	39	0	423624704	64	5335
2026-01-13 02:19:41.26	308.61	11.98	-46.4	-49.9	14.6	7.00e-07	0	39	0	426770432	64	5396
2026-01-13 02:19:43.25	308.23	11.94	-46.6	-50.2	14.4	0.00e+00	0	39	0	430964736	64	5545
2026-01-13 02:19:45.24	307.86	11.90	-46.7	-50.3	14.2	7.00e-07	0	38	0	435159040	64	5656
2026-01-13 02:19:47.23	307.49	11.86	-46.6	-50.4	14.2	2.20e-06	0	38	0	438304768	64	5692
2026-01-13 02:19:49.22	307.12	11.82	-46.6	-50.4	14.2	1.50e-06	0	39	0	442499072	64	5693
2026-01-13 02:19:51.21	306.76	11.77	-46.7	-50.5	14.1	3.80e-06	0	38	0	445644800	64	5743
2026-01-13 02:19:53.20	306.39	11.73	-46.6	-50.5	14.1	0.00e+00	0	38	0	449839104	64	5727
2026-01-13 02:19:55.27	306.01	11.68	-46.5	-50.3	14.3	0.00e+00	0	38	0	452984832	64	5609
2026-01-13 02:19:57.29	305.64	11.64	-46.7	-50.5	14.1	2.20e-06	0	39	0	457179136	64	5739
2026-01-13 02:19:59.40	305.25	11.58	-46.7	-50.4	14.1	1.50e-06	0	38	0	461373440	64	5691
2026-01-13 02:20:01.39	304.89	11.54	-46.8	-50.5	14.0	1.50e-06	0	39	0	464519168	64	5764
2026-01-13 02:20:03.38	304.53	11.49	-46.8	-50.6	13.9	4.50e-06	0	38	0	468713472	64	5802
2026-01-13 02:20:05.37	304.17	11.43	-46.9	-50.8	13.7	3.00e-06	0	39	0	472907776	64	5968
2026-01-13 02:20:07.36	303.81	11.38	-46.9	-50.9	13.7	1.44e-05	0	39	0	476053504	64	6007
2026-01-13 02:20:09.35	303.45	11.33	-46.9	-50.8	13.7	7.60e-06	0	38	0	480247808	64	5929
2026-01-13 02:20:11.35	303.09	11.28	-46.7	-50.4	14.1	3.00e-06	0	38	0	483393536	64	5710
2026-01-13 02:20:13.44	302.72	11.22	-46.7	-50.4	14.1	3.80e-06	0	39	0	487587840	64	5699
2026-01-13 02:20:15.46	302.36	11.16	-46.9	-50.6	13.8	2.20e-06	0	39	0	491782144	64	5848
2026-01-13 02:20:17.67	301.97	11.10	-47.0	-50.9	13.6	6.80e-06	0	38	0	495976448	64	6026
2026-01-13 02:20:19.66	301.62	11.04	-47.1	-51.0	13.5	1.22e-05	0	39	0	499122176	64	6071
2026-01-13 02:20:21.66	301.27	10.98	-47.1	-51.0	13.5	1.06e-05	0	39	0	503316480	64	6102
2026-01-13 02:20:23.65	300.92	10.92	-47.1	-51.0	13.6	6.80e-06	0	39	0	506462208	64	6065
2026-01-13 02:20:25.67	300.57	10.86	-47.0	-50.9	13.5	6.80e-06	0	38	0	510656512	64	6053
2026-01-13 02:20:27.66	300.23	10.80	-46.8	-50.6	13.9	3.80e-06	0	39	0	513802240	64	5840
2026-01-13 02:20:29.66	299.88	10.74	-46.6	-50.2	14.2	7.00e-07	0	38	0	517996544	64	5583
2026-01-13 02:20:31.67	299.54	10.67	-46.6	-50.3	14.1	1.50e-06	0	39	0	522190848	64	5642
2026-01-13 02:20:33.66	299.20	10.61	-46.6	-50.3	14.1	4.50e-06	0	39	0	525336576	64	5649
2026-01-13 02:20:35.74	298.84	10.54	-46.7	-50.4	14.0	4.50e-06	0	39	0	529530880	64	5703
2026-01-13 02:20:37.73	298.51	10.48	-46.7	-50.4	14.0	5.30e-06	0	39	0	532676608	64	5711
2026-01-13 02:20:39.73	298.17	10.41	-46.8	-50.6	13.8	7.00e-07	0	39	0	536870912	64	5822
2026-01-13 02:20:41.74	297.83	10.34	-46.8	-50.7	13.8	5.30e-06	0	38	0	541065216	64	5863
2026-01-13 02:20:43.74	297.50	10.28	-46.7	-50.4	14.1	4.50e-06	0	38	0	544210944	64	5667
2026-01-13 02:20:45.76	297.16	10.21	-46.7	-50.3	14.2	3.80e-06	0	39	0	548405248	64	5631
2026-01-13 02:20:47.75	296.83	10.14	-46.7	-50.4	14.0	2.20e-06	0	38	0	551550976	64	5678
2026-01-13 02:20:49.74	296.50	10.07	-46.7	-50.4	14.0	5.30e-06	0	38	0	555745280	64	5712
2026-01-13 02:20:51.91	296.15	9.99	-46.9	-50.7	13.7	7.60e-06	0	39	0	559939584	64	5922
2026-01-13 02:20:53.83	295.84	9.92	-46.8	-50.5	13.9	3.80e-06	0	39	0	563085312	64	5781
2026-01-13 02:20:55.82	295.51	9.85	-46.7	-50.4	14.0	2.20e-06	0	38	0	567279616	64	5702
2026-01-13 02:20:57.80	295.19	9.78	-46.7	-50.4	13.9	3.80e-06	0	39	0	570425344	64	5721
2026-01-13 02:20:59.79	294.87	9.71	-46.7	-50.4	14.0	3.00e-06	0	38	0	574619648	64	5674
2026-01-13 02:21:01.78	294.55	9.63	-46.8	-50.6	13.9	2.20e-06	0	39	0	577765376	64	5789
2026-01-13 02:21:03.77	294.24	9.56	-46.8	-50.6	13.8	3.80e-06	0	39	0	581959680	64	5829
2026-01-13 02:21:05.83	293.91	9.48	-47.0	-50.9	13.5	5.30e-06	0	38	0	586153984	64	6032
2026-01-13 02:21:08.03	293.57	9.40	-47.1	-51.2	13.2	1.67e-05	0	39	0	590348288	64	6211
2026-01-13 02:21:10.24	293.22	9.31	-47.1	-51.1	13.2	2.44e-05	0	38	0	594542592	65	5849
2026-01-13 02:21:12.23	292.91	9.23	-47.2	-51.2	13.1	2.51e-05	0	39	0	597688320	65	5885
2026-01-13 02:21:14.24	292.60	9.16	-47.1	-51.1	13.2	1.29e-05	0	39	0	601882624	65	5850
2026-01-13 02:21:16.22	292.30	9.08	-47.2	-51.2	13.1	1.29e-05	0	39	0	605028352	65	5889
2026-01-13 02:21:18.24	291.99	9.00	-47.3	-51.4	12.9	3.96e-05	0	38	0	609222656	65	6049
2026-01-13 02:21:20.23	291.68	8.92	-50.9	-66.1	3.8	1.49e+00	0	38	104	610271232	72	21789
2026-01-13 02:21:22.22	291.38	8.84	-51.1	-66.2	3.8	1.49e+00	0	39	104	610271232	72	22247
2026-01-13 02:21:24.37	291.06	8.75	-51.2	-66.4	3.8	1.49e+00	0	39	104	610271232	73	21284
2026-01-13 02:21:26.56	290.73	8.67	-51.1	-66.4	3.8	1.49e+00	0	39	104	610271232	73	21428
2026-01-13 02:21:28.77	290.40	8.58	-51.2	-66.4	3.8	1.49e+00	0	39	104	610271232	73	21430
2026-01-13 02:21:30.81	290.10	8.49	-51.2	-66.5	3.8	1.49e+00	0	39	104	610271232	73	21572
2026-01-13 02:21:32.79	289.81	8.41	-51.2	-66.5	3.8	1.49e+00	0	39	104	610271232	73	21565
2026-01-13 02:21:34.78	289.52	8.33	-51.1	-66.5	3.8	1.49e+00	0	39	104	610271232	73	21583
2026-01-13 02:21:36.77	289.23	8.24	-51.2	-66.4	3.8	1.49e+00	0	39	104	610271232	73	21457
2026-01-13 02:21:38.76	288.94	8.16	-51.2	-66.4	3.8	1.49e+00	0	39	104	610271232	73	21425
2026-01-13 02:21:40.76	288.66	8.08	-51.1	-66.4	3.8	1.49e+00	0	39	104	610271232	73	21322
2026-01-13 02:21:42.75	288.37	7.99	-51.1	-66.4	3.8	1.49e+00	0	38	104	610271232	73	21366
2026-01-13 02:21:44.74	288.09	7.91	-51.1	-66.4	3.8	1.49e+00	0	38	104	610271232	73	21388
2026-01-13 02:21:46.72	287.81	7.82	-51.1	-66.4	3.8	1.49e+00	0	39	104	610271232	73	21367
2026-01-13 02:21:48.71	287.53	7.74	-51.1	-66.4	3.8	1.49e+00	0	39	104	610271232	73	21320
2026-01-13 02:21:50.70	287.25	7.65	-51.1	-66.4	3.8	1.49e+00	0	39	104	610271232	73	21284
2026-01-13 02:21:52.68	286.98	7.57	-51.1	-66.4	3.8	1.49e+00	0	39	104	610271232	73	21352
2026-01-13 02:21:54.67	286.71	7.48	-51.1	-66.4	3.8	1.49e+00	0	39	104	610271232	73	21298
2026-01-13 02:21:56.66	286.43	7.40	-51.1	-66.4	3.8	1.49e+00	0	39	104	610271232	73	21268
2026-01-13 02:21:58.66	286.16	7.31	-51.0	-66.3	3.8	1.49e+00	0	39	104	610271232	73	21211
2026-01-13 02:22:00.65	285.89	7.22	-51.0	-66.3	3.8	1.49e+00	0	38	104	610271232	73	21248
2026-01-13 02:22:02.63	285.63	7.13	-51.0	-66.3	3.8	1.49e+00	0	38	104	610271232	73	21221
2026-01-13 02:22:04.62	285.36	7.05	-51.0	-66.4	3.8	1.49e+00	0	38	104	610271232	73	21273
2026-01-13 02:22:06.62	285.09	6.96	-51.0	-66.3	3.8	1.49e+00	0	39	104	610271232	73	21210
2026-01-13 02:22:08.61	284.83	6.87	-51.0	-66.3	3.8	1.49e+00	0	38	104	610271232	73	21088
2026-01-13 02:22:10.60	284.57	6.78	-51.0	-66.3	3.8	1.49e+00	0	39	104	610271232	73	21175
2026-01-13 02:22:12.60	284.31	6.69	-51.0	-66.3	3.8	1.49e+00	0	38	104	610271232	73	21132
2026-01-13 02:22:14.59	284.05	6.60	-51.0	-66.3	3.8	1.49e+00	0	39	104	610271232	73	21110
2026-01-13 02:22:16.59	283.79	6.51	-51.0	-66.3	3.8	1.49e+00	0	38	104	610271232	73	21149
2026-01-13 02:22:18.57	283.54	6.42	-51.0	-66.3	3.8	1.49e+00	0	39	104	610271232	73	21092
2026-01-13 02:22:20.56	283.29	6.33	-51.0	-66.3	3.8	1.49e+00	0	39	104	610271232	73	21113
2026-01-13 02:22:22.54	283.04	6.25	-51.0	-66.3	3.8	1.49e+00	0	39	104	610271232	73	21121
2026-01-13 02:22:24.55	282.78	6.15	-51.0	-66.3	3.8	1.49e+00	0	38	104	610271232	73	21133
2026-01-13 02:22:26.53	282.54	6.06	-51.0	-66.3	3.8	1.49e+00	0	39	104	610271232	73	21108
2026-01-13 02:22:28.54	282.29	5.97	-51.0	-66.3	3.8	1.49e+00	0	39	104	610271232	73	21163
2026-01-13 02:22:30.52	282.04	5.88	-51.0	-66.3	3.8	1.49e+00	0	38	104	610271232	73	21089
2026-01-13 02:22:32.53	281.80	5.79	-51.0	-66.3	3.8	1.49e+00	0	39	104	610271232	73	21081
2026-01-13 02:22:34.53	281.55	5.70	-51.0	-66.3	3.8	1.49e+00	0	39	104	610271232	73	21044
2026-01-13 02:22:36.51	281.32	5.61	-51.0	-66.3	3.8	1.49e+00	0	39	104	610271232	73	21029
2026-01-13 02:22:38.50	281.08	5.52	-50.9	-66.3	3.8	1.49e+00	0	39	104	610271232	73	21099
2026-01-13 02:22:40.50	280.84	5.43	-50.9	-66.3	3.8	1.49e+00	0	39	104	610271232	73	21048
2026-01-13 02:22:42.49	280.60	5.33	-51.0	-66.3	3.8	1.49e+00	0	39	104	610271232	73	21046
2026-01-13 02:22:44.48	280.37	5.24	-51.0	-66.3	3.8	1.49e+00	0	39	104	610271232	73	21020
2026-01-13 02:22:46.47	280.13	5.15	-50.9	-66.3	3.8	1.49e+00	0	39	104	610271232	73	21025
2026-01-13 02:22:48.47	279.90	5.06	-50.9	-66.3	3.8	1.49e+00	0	38	104	610271232	73	21029
2026-01-13 02:22:50.45	279.67	4.97	-50.9	-66.2	3.8	1.
