passes_logs/2026/01/13/T1/T1__20260113_001242_SUOMI_NPP_rec.log

#Pass ID: 20260113_001242_SUOMI NPP
#Satellite: SUOMI NPP
#Configuration: NPP
#almurnet v.1.7.20251203
#Start time: 2026-01-13 00:12:42

#Version: 2.0.20230620
#Station: T1
#Location: 37.570604 lon 55.790049 lat
#TLE: 1 37849U 11061A   26012.28456845  .00000093  00000+0  65163-4 0  9999
#TLE: 2 37849  98.7807 314.3566 0002508  68.3553 291.7890 14.19524725736322

#Time	Az	El	Level	Level2	SNR	BER	BlckErr	Temp	State	Recorded	gain1	gain2
2026-01-13 00:12:42.69	13.56	5.01	-49.4	-65.6	3.8	1.49e+00	0	41	0	0	70	23193
2026-01-13 00:12:46.66	13.48	5.30	-48.0	-65.2	3.8	1.49e+00	0	41	104	0	66	27847
2026-01-13 00:12:50.63	13.40	5.58	-48.0	-65.0	3.8	1.49e+00	0	41	104	0	66	27135
2026-01-13 00:12:54.61	13.31	5.87	-47.9	-64.8	3.8	1.49e+00	0	41	104	0	66	26749
2026-01-13 00:12:58.58	13.23	6.16	-47.9	-64.7	3.8	1.49e+00	0	42	104	0	66	26330
2026-01-13 00:13:02.56	13.14	6.45	-47.9	-64.5	3.8	1.49e+00	0	42	104	0	66	25790
2026-01-13 00:13:06.53	13.05	6.75	-47.9	-65.1	3.8	1.49e+00	0	42	104	0	66	27526
2026-01-13 00:13:10.50	12.96	7.05	-47.9	-63.8	3.8	1.49e+00	0	42	104	0	66	23609
2026-01-13 00:13:14.48	12.86	7.36	-47.6	-59.2	5.3	6.89e-01	0	42	0	3145728	66	13959
2026-01-13 00:13:18.45	12.76	7.66	-47.1	-55.7	8.2	8.61e-02	0	42	0	10485760	66	9325
2026-01-13 00:13:22.42	12.67	7.98	-46.8	-54.2	9.7	1.37e-02	0	42	0	17825792	65	8336
2026-01-13 00:13:26.40	12.56	8.29	-46.7	-53.8	10.2	5.99e-03	0	42	0	25165824	65	7908
2026-01-13 00:13:30.37	12.46	8.61	-46.9	-54.8	9.1	2.01e-02	0	42	0	32505856	65	8913
2026-01-13 00:13:34.34	12.35	8.93	-47.5	-58.4	5.8	2.88e-01	0	42	0	39845888	65	13521
2026-01-13 00:13:38.32	12.24	9.26	-47.2	-56.2	7.8	2.80e-02	0	43	0	47185920	65	10528
2026-01-13 00:13:42.30	12.13	9.59	-45.5	-50.8	13.4	1.75e-05	0	43	0	52428800	62	6670
2026-01-13 00:13:46.28	12.01	9.93	-44.9	-49.2	15.0	0.00e+00	0	43	0	59768832	61	5860
2026-01-13 00:13:50.28	11.89	10.27	-44.8	-48.7	15.4	0.00e+00	0	43	0	67108864	61	5581
2026-01-13 00:13:54.36	11.77	10.63	-44.6	-48.6	15.6	0.00e+00	0	43	0	74448896	61	5473
2026-01-13 00:13:58.39	11.64	10.98	-44.5	-48.3	15.8	0.00e+00	0	43	0	81788928	61	5337
2026-01-13 00:14:02.37	11.51	11.34	-44.5	-48.2	16.0	0.00e+00	0	43	0	90177536	60	5572
2026-01-13 00:14:06.34	11.38	11.70	-44.4	-47.9	16.2	0.00e+00	0	43	0	97517568	60	5401
2026-01-13 00:14:10.32	11.24	12.06	-44.4	-47.9	16.3	0.00e+00	0	43	0	104857600	60	5382
2026-01-13 00:14:14.30	11.10	12.44	-44.3	-47.7	16.5	0.00e+00	0	43	0	112197632	60	5256
2026-01-13 00:14:18.28	10.96	12.81	-44.2	-47.6	16.6	0.00e+00	0	43	0	119537664	60	5204
2026-01-13 00:14:22.25	10.81	13.19	-44.1	-47.5	16.7	0.00e+00	0	43	0	126877696	60	5134
2026-01-13 00:14:26.31	10.65	13.59	-44.2	-47.6	16.7	0.00e+00	0	43	0	134217728	60	5175
2026-01-13 00:14:30.31	10.50	13.99	-44.4	-47.9	16.4	0.00e+00	0	43	0	142606336	60	5359
2026-01-13 00:14:34.32	10.33	14.39	-44.2	-47.7	16.6	0.00e+00	0	43	0	149946368	60	5228
2026-01-13 00:14:38.32	10.16	14.80	-44.3	-47.8	16.5	0.00e+00	0	43	0	157286400	60	5307
2026-01-13 00:14:42.69	9.97	15.26	-44.4	-47.7	16.5	0.00e+00	0	43	0	165675008	60	5279
2026-01-13 00:14:46.67	9.80	15.68	-44.4	-47.7	16.5	0.00e+00	0	43	0	173015040	60	5272
2026-01-13 00:14:50.64	9.61	16.11	-44.4	-47.6	16.7	0.00e+00	0	43	0	180355072	60	5215
2026-01-13 00:14:54.71	9.42	16.55	-44.5	-47.7	16.7	0.00e+00	0	43	0	187695104	60	5220
2026-01-13 00:14:58.94	9.21	17.03	-44.3	-47.4	16.9	0.00e+00	0	43	0	196083712	60	5060
2026-01-13 00:15:02.93	9.01	17.48	-44.4	-47.5	16.8	0.00e+00	0	43	0	203423744	60	5101
2026-01-13 00:15:06.92	8.80	17.94	-44.2	-47.2	17.1	0.00e+00	0	43	0	210763776	60	4965
2026-01-13 00:15:10.90	8.58	18.41	-44.3	-47.4	17.0	0.00e+00	0	43	0	218103808	60	5067
2026-01-13 00:15:14.95	8.35	18.90	-44.3	-47.4	16.9	0.00e+00	0	44	0	225443840	60	5096
2026-01-13 00:15:18.96	8.12	19.39	-44.6	-47.8	16.5	0.00e+00	0	43	0	233832448	60	5331
2026-01-13 00:15:22.99	7.88	19.89	-44.6	-47.8	16.6	0.00e+00	0	43	0	241172480	60	5315
2026-01-13 00:15:27.00	7.63	20.40	-44.7	-47.8	16.6	0.00e+00	0	43	0	248512512	60	5324
2026-01-13 00:15:31.08	7.36	20.93	-44.8	-47.8	16.6	0.00e+00	0	43	0	255852544	60	5313
2026-01-13 00:15:35.25	7.09	21.48	-44.9	-47.8	16.6	0.00e+00	0	44	0	264241152	60	5315
2026-01-13 00:15:39.24	6.81	22.02	-45.0	-48.0	16.5	0.00e+00	0	43	0	271581184	60	5414
2026-01-13 00:15:43.22	6.52	22.56	-45.3	-48.2	16.3	0.00e+00	0	43	0	278921216	61	5275
2026-01-13 00:15:47.23	6.22	23.13	-45.4	-48.4	16.1	0.00e+00	0	43	0	286261248	61	5396
2026-01-13 00:15:51.21	5.91	23.70	-45.1	-48.0	16.4	0.00e+00	0	44	0	293601280	61	5152
2026-01-13 00:15:55.41	5.57	24.31	-45.6	-48.6	15.8	0.00e+00	0	43	0	301989888	61	5526
2026-01-13 00:15:59.55	5.22	24.93	-45.8	-49.0	15.6	7.00e-07	0	43	0	309329920	62	5421
2026-01-13 00:16:03.54	4.87	25.54	-45.7	-48.8	15.7	0.00e+00	0	43	0	316669952	62	5311
2026-01-13 00:16:07.52	4.51	26.16	-45.7	-48.8	15.7	0.00e+00	0	44	0	324009984	62	5315
2026-01-13 00:16:11.63	4.11	26.82	-46.0	-49.2	15.4	0.00e+00	0	43	0	332398592	62	5558
2026-01-13 00:16:15.61	3.72	27.47	-46.2	-49.5	15.1	0.00e+00	0	43	0	339738624	63	5435
2026-01-13 00:16:19.59	3.30	28.13	-45.8	-49.0	15.6	0.00e+00	0	44	0	347078656	63	5129
2026-01-13 00:16:23.56	2.87	28.81	-45.7	-48.7	16.0	0.00e+00	0	44	0	354418688	62	5245
2026-01-13 00:16:27.55	2.42	29.50	-45.8	-48.8	15.7	0.00e+00	0	44	0	361758720	62	5315
2026-01-13 00:16:31.95	1.90	30.28	-46.5	-50.0	14.6	0.00e+00	0	44	0	370147328	64	5431
2026-01-13 00:16:36.12	1.38	31.04	-47.0	-51.0	13.6	3.80e-06	0	44	0	378535936	64	6094
2026-01-13 00:16:40.11	0.86	31.79	-47.7	-52.4	12.3	1.04e-04	0	43	0	385875968	66	6350
2026-01-13 00:16:44.11	0.31	32.55	-47.7	-52.1	12.5	1.96e-04	0	44	0	393216000	66	6134
2026-01-13 00:16:48.07	359.74	33.32	-47.4	-51.7	13.0	3.66e-05	0	44	0	400556032	66	5873
2026-01-13 00:16:52.27	359.10	34.15	-48.4	-53.5	11.2	1.17e-03	0	44	0	407896064	67	6827
2026-01-13 00:16:56.30	358.46	34.97	-48.3	-53.5	11.2	2.61e-04	0	44	0	416284672	67	6873
2026-01-13 00:17:00.27	357.79	35.80	-48.5	-54.7	9.9	7.01e-03	0	44	0	423624704	67	7822
2026-01-13 00:17:04.60	357.02	36.71	-47.9	-52.7	11.9	4.66e-04	0	44	0	430964736	67	6239
2026-01-13 00:17:08.78	356.24	37.62	-47.1	-51.0	13.7	6.80e-06	0	44	0	439353344	66	5427
2026-01-13 00:17:13.53	355.29	38.67	-46.8	-50.5	14.2	1.50e-06	0	44	0	447741952	65	5429
2026-01-13 00:17:18.09	354.32	39.70	-46.4	-49.7	14.9	0.00e+00	0	44	0	457179136	64	5243
2026-01-13 00:17:22.59	353.30	40.74	-47.2	-51.1	13.5	2.20e-06	0	44	0	465567744	64	6192
2026-01-13 00:17:27.11	352.20	41.80	-46.6	-50.1	14.6	7.00e-07	0	44	0	473956352	64	5492
2026-01-13 00:17:31.25	351.13	42.79	-46.8	-50.4	14.3	7.00e-07	0	44	0	481296384	64	5681
2026-01-13 00:17:35.24	350.03	43.76	-47.5	-51.7	12.9	3.20e-05	0	44	0	488636416	65	6241
2026-01-13 00:17:39.22	348.86	44.73	-46.7	-50.4	14.3	7.00e-07	0	44	0	495976448	64	5685
2026-01-13 00:17:43.46	347.54	45.78	-46.4	-49.8	14.7	0.00e+00	0	44	0	504365056	64	5340
2026-01-13 00:17:47.46	346.21	46.78	-46.5	-49.9	14.7	0.00e+00	0	44	0	511705088	64	5390
2026-01-13 00:17:51.46	344.78	47.79	-46.6	-50.2	14.6	0.00e+00	0	43	0	519045120	64	5571
2026-01-13 00:17:55.55	343.23	48.82	-45.8	-48.9	15.8	0.00e+00	0	43	0	527433728	63	5074
2026-01-13 00:17:59.55	341.60	49.83	-46.3	-49.6	15.2	0.00e+00	0	44	0	534773760	63	5480
2026-01-13 00:18:03.54	339.87	50.84	-45.9	-49.0	15.8	0.00e+00	0	44	0	542113792	63	5112
2026-01-13 00:18:07.55	338.00	51.84	-45.3	-48.3	16.3	0.00e+00	0	43	0	549453824	62	4988
2026-01-13 00:18:11.56	336.01	52.82	-44.3	-46.9	17.6	0.00e+00	0	44	0	556793856	59	5054
2026-01-13 00:18:15.54	333.89	53.78	-45.6	-48.7	16.1	0.00e+00	0	44	0	564133888	62	5263
2026-01-13 00:18:19.51	331.64	54.72	-46.0	-49.3	15.5	0.00e+00	0	43	0	571473920	63	5300
2026-01-13 00:18:23.51	329.22	55.62	-45.1	-47.8	16.9	0.00e+00	0	44	0	579862528	61	5032
2026-01-13 00:18:27.51	326.63	56.49	-45.9	-49.0	15.7	0.00e+00	0	44	0	587202560	63	5110
2026-01-13 00:18:31.53	323.87	57.32	-45.8	-48.9	15.8	0.00e+00	0	44	0	594542592	62	5379
2026-01-13 00:18:35.53	320.96	58.09	-45.1	-47.9	16.8	0.00e+00	0	44	0	601882624	62	4779
2026-01-13 00:18:39.51	317.90	58.78	-45.6	-48.6	16.1	0.00e+00	0	44	0	609222656	62	5162
2026-01-13 00:18:43.53	314.64	59.42	-45.2	-48.1	16.6	0.00e+00	0	44	0	616562688	62	4871
2026-01-13 00:18:47.53	311.25	59.96	-45.0	-47.6	17.0	7.00e-07	0	44	0	624951296	61	4924
2026-01-13 00:18:51.51	307.74	60.42	-46.9	-50.7	14.0	7.00e-07	0	43	0	632291328	65	5556
2026-01-13 00:18:55.51	304.11	60.78	-46.3	-49.6	15.0	0.00e+00	0	44	0	639631360	63	5483
2026-01-13 00:18:59.51	300.38	61.03	-46.1	-49.3	15.4	0.00e+00	0	44	0	646971392	63	5339
2026-01-13 00:19:03.51	296.58	61.18	-45.0	-47.8	16.8	0.00e+00	0	44	0	654311424	61	5009
2026-01-13 00:19:07.76	292.53	61.21	-43.8	-46.2	18.3	0.00e+00	0	44	0	662700032	59	4670
2026-01-13 00:19:11.80	288.68	61.13	-44.5	-47.1	17.5	0.00e+00	0	44	0	670040064	60	4889
2026-01-13 00:19:15.77	284.93	60.94	-43.5	-45.8	18.6	0.00e+00	0	44	0	677380096	58	4718
2026-01-13 00:19:19.76	281.24	60.64	-45.4	-48.5	16.3	0.00e+00	0	43	0	684720128	61	5410
2026-01-13 00:19:23.86	277.56	60.23	-45.4	-48.3	16.4	0.00e+00	0	44	0	692060160	61	5312
2026-01-13 00:19:27.96	274.00	59.72	-45.6	-48.7	16.0	0.00e+00	0	43	0	700448768	62	5253
2026-01-13 00:19:31.94	270.69	59.14	-46.2	-49.6	15.1	0.00e+00	0	43	0	707788800	64	5169
2026-01-13 00:19:36.00	267.47	58.46	-45.9	-49.0	15.7	0.00e+00	0	44	0	715128832	63	5115
2026-01-13 00:19:39.98	264.48	57.73	-45.5	-48.5	16.1	0.00e+00	0	44	0	722468864	61	5424
2026-01-13 00:19:43.96	261.66	56.94	-45.1	-47.8	16.9	0.00e+00	0	43	0	729808896	61	5000
2026-01-13 00:19:47.93	259.00	56.10	-45.5	-48.5	16.2	0.00e+00	0	43	0	738197504	62	5101
2026-01-13 00:19:51.91	256.50	55.22	-46.1	-49.4	15.4	0.00e+00	0	44	0	745537536	62	5674
2026-01-13 00:19:55.94	254.12	54.28	-45.7	-48.7	16.0	0.00e+00	0	44	0	752877568	63	4931
2026-01-13 00:19:59.96	251.90	53.32	-45.9	-48.9	15.7	0.00e+00	0	44	0	760217600	63	5092
2026-01-13 00:20:03.94	249.85	52.35	-44.9	-47.6	17.0	0.00e+00	0	44	0	767557632	61	4896
2026-01-13 00:20:07.92	247.92	51.36	-45.2	-48.1	16.6	0.00e+00	0	43	0	774897664	62	4884
2026-01-13 00:20:11.99	246.09	50.34	-46.7	-50.3	14.4	0.00e+00	0	44	0	783286272	64	5641
2026-01-13 00:20:15.97	244.41	49.33	-46.8	-50.4	14.3	0.00e+00	0	44	0	790626304	64	5680
2026-01-13 00:20:19.95	242.84	48.32	-48.9	-54.4	10.5	9.02e-04	0	44	0	797966336	68	7194
2026-01-13 00:20:23.92	241.37	47.32	-47.4	-51.5	13.2	8.62e-05	0	44	0	805306368	66	5748
2026-01-13 00:20:28.00	239.95	46.29	-47.3	-51.4	13.3	3.81e-05	0	44	0	812646400	65	5993
2026-01-13 00:20:31.97	238.66	45.30	-46.6	-50.1	14.7	0.00e+00	0	44	0	819986432	64	5491
2026-01-13 00:20:35.95	237.45	44.31	-47.6	-51.8	12.9	4.50e-05	0	44	0	827326464	66	5932
2026-01-13 00:20:39.93	236.31	43.34	-46.7	-50.1	14.5	2.20e-06	0	44	0	835715072	65	5204
2026-01-13 00:20:43.99	235.22	42.36	-46.9	-50.5	14.1	2.20e-06	0	44	0	843055104	65	5449
2026-01-13 00:20:47.97	234.21	41.41	-46.8	-50.4	14.2	7.00e-07	0	44	0	850395136	64	5677
2026-01-13 00:20:51.95	233.25	40.47	-47.3	-51.5	13.2	1.14e-05	0	44	0	857735168	65	6063
2026-01-13 00:20:55.93	232.35	39.55	-47.2	-51.0	13.6	7.60e-06	0	44	0	865075200	66	5441
2026-01-13 00:20:59.96	231.50	38.64	-47.2	-51.0	13.6	7.60e-06	0	44	0	872415232	65	5787
2026-01-13 00:21:04.01	230.68	37.74	-47.6	-51.8	12.8	2.28e-05	0	44	0	880803840	66	5967
2026-01-13 00:21:08.10	229.90	36.85	-46.6	-50.0	14.6	7.00e-07	0	44	0	888143872	65	5143
2026-01-13 00:21:12.03	229.19	36.01	-48.0	-52.7	11.9	3.06e-04	0	44	0	895483904	66	6611
2026-01-13 00:21:16.01	228.51	35.17	-47.5	-51.8	12.8	4.50e-05	0	44	0	902823936	66	5924
2026-01-13 00:21:19.99	227.86	34.35	-46.2	-49.4	15.2	0.00e+00	0	44	0	910163968	64	5047
2026-01-13 00:21:23.97	227.24	33.55	-47.0	-50.8	13.8	1.50e-06	0	44	0	917504000	64	5962
2026-01-13 00:21:27.95	226.65	32.77	-46.3	-49.6	14.9	0.00e+00	0	44	0	924844032	64	5198
2026-01-13 00:21:31.93	226.09	32.00	-47.9	-52.5	12.0	5.68e-04	0	44	0	933232640	67	6127
2026-01-13 00:21:35.94	225.56	31.25	-46.5	-50.0	14.6	0.00e+00	0	44	0	940572672	64	5408
2026-01-13 00:21:39.92	225.05	30.51	-46.7	-50.2	14.3	3.00e-06	0	44	0	947912704	64	5574
2026-01-13 00:21:43.90	224.56	29.79	-46.4	-49.8	14.9	0.00e+00	0	44	0	955252736	63	5596
2026-01-13 00:21:47.94	224.09	29.08	-47.6	-52.0	12.7	7.70e-05	0	44	0	962592768	66	6065
2026-01-13 00:21:51.83	223.66	28.41	-46.8	-50.4	14.1	3.80e-06	0	44	0	969932800	65	5388
2026-01-13 00:21:55.81	223.23	27.74	-46.7	-50.4	14.2	5.30e-06	0	44	0	977272832	65	5374
2026-01-13 00:21:59.79	222.82	27.08	-46.1	-49.4	15.0	7.00e-07	0	44	0	984612864	64	5079
2026-01-13 00:22:03.83	222.43	26.42	-46.8	-50.5	14.1	7.00e-07	0	44	0	993001472	64	5738
2026-01-13 00:22:07.81	222.05	25.79	-47.2	-51.1	13.4	1.67e-05	0	44	0	1000341504	65	5834
2026-01-13 00:22:11.87	221.68	25.16	-47.0	-50.8	13.7	1.06e-05	0	44	0	1007681536	65	5647
2026-01-13 00:22:16.10	221.32	24.52	-47.0	-50.8	13.7	1.14e-05	0	44	0	1015021568	65	5641
2026-01-13 00:22:20.18	220.98	23.91	-46.5	-50.0	14.5	1.50e-06	0	44	0	1023410176	64	5411
2026-01-13 00:22:24.16	220.66	23.33	-46.5	-50.0	14.5	1.50e-06	0	44	0	1030750208	64	5418
2026-01-13 00:22:28.40	220.33	22.73	-46.1	-49.3	15.2	0.00e+00	0	44	0	1038090240	63	5337
2026-01-13 00:22:32.41	220.03	22.17	-45.8	-48.9	15.6	0.00e+00	0	44	0	1046478848	63	5092
2026-01-13 00:22:36.70	219.73	21.58	-46.2	-49.5	15.0	0.00e+00	0	44	0	1053818880	63	5430
2026-01-13 00:22:40.77	219.45	21.04	-46.9	-50.8	13.7	2.20e-06	0	44	0	1062207488	64	5957
2026-01-13 00:22:44.74	219.18	20.52	-47.4	-51.7	12.8	4.88e-05	0	44	0	1069547520	65	6248
2026-01-13 00:22:48.72	218.93	20.01	-47.0	-51.1	13.4	2.36e-05	0	44	0	1076887552	65	5822
2026-01-13 00:22:52.72	218.68	19.50	-46.5	-50.2	14.3	7.00e-07	0	44	0	1084227584	64	5561
2026-01-13 00:22:56.73	218.44	19.01	-46.1	-49.4	15.0	0.00e+00	0	44	0	1091567616	64	5080
2026-01-13 00:23:00.73	218.21	18.52	-45.5	-48.5	15.9	0.00e+00	0	44	0	1098907648	63	4845
2026-01-13 00:23:05.44	217.94	17.96	-45.4	-48.4	16.0	0.00e+00	0	44	0	1108344832	62	5076
2026-01-13 00:23:09.51	217.72	17.49	-45.8	-48.9	15.5	0.00e+00	0	44	0	1115684864	62	5383
2026-01-13 00:23:13.51	217.52	17.03	-46.2	-49.6	14.9	0.00e+00	0	44	0	1123024896	63	5489
2026-01-13 00:23:17.51	217.31	16.58	-46.4	-49.9	14.5	7.00e-07	0	44	0	1130364928	63	5703
2026-01-13 00:23:21.51	217.12	16.13	-46.3	-49.7	14.7	0.00e+00	0	44	0	1137704960	63	5563
2026-01-13 00:23:25.80	216.91	15.67	-46.4	-49.9	14.5	7.00e-07	0	44	0	1146093568	63	5709
2026-01-13 00:23:30.35	216.71	15.18	-46.6	-50.3	14.1	2.20e-06	0	44	0	1154482176	63	5984
2026-01-13 00:23:34.74	216.51	14.72	-46.9	-50.8	13.4	7.60e-06	0	44	0	1162870784	64	5983
2026-01-13 00:23:38.70	216.34	14.32	-47.0	-51.1	13.1	3.12e-05	0	44	0	1170210816	64	6189
2026-01-13 00:23:42.82	216.17	13.90	-46.9	-51.0	13.2	2.36e-05	0	44	0	1178599424	65	5767
2026-01-13 00:23:46.80	216.01	13.50	-46.6	-50.4	13.8	9.10e-06	0	44	0	1185939456	65	5363
2026-01-13 00:23:50.78	215.85	13.11	-46.1	-49.6	14.6	0.00e+00	0	44	0	1193279488	64	5174
2026-01-13 00:23:54.75	215.70	12.73	-46.1	-49.5	14.8	7.00e-07	0	44	0	1200619520	63	5439
2026-01-13 00:23:58.92	215.54	12.33	-45.8	-49.0	15.2	0.00e+00	0	44	0	1207959552	63	5139
2026-01-13 00:24:02.98	215.39	11.95	-46.0	-49.3	14.9	0.00e+00	0	44	0	1216348160	63	5323
2026-01-13 00:24:06.95	215.25	11.58	-46.0	-49.5	14.8	7.00e-07	0	44	0	1223688192	63	5420
2026-01-13 00:24:10.93	215.12	11.22	-46.4	-50.0	14.2	0.00e+00	0	44	0	1231028224	63	5754
2026-01-13 00:24:14.92	214.98	10.86	-46.6	-50.3	13.9	1.50e-06	0	44	0	1238368256	63	5948
2026-01-13 00:24:18.93	214.85	10.51	-46.6	-50.3	13.9	7.00e-07	0	44	0	1245708288	63	5967
2026-01-13 00:24:22.90	214.73	10.16	-46.7	-50.6	13.4	1.52e-05	0	44	0	1253048320	64	5848
2026-01-13 00:24:26.88	214.60	9.82	-46.5	-50.3	13.8	5.30e-06	0	44	0	1260388352	64	5628
2026-01-13 00:24:30.86	214.48	9.48	-46.7	-50.7	13.3	1.52e-05	0	44	0	1267728384	64	5916
2026-01-13 00:24:34.86	214.37	9.15	-46.8	-51.1	12.9	4.42e-05	0	44	0	1276116992	64	6175
2026-01-13 00:24:38.84	214.25	8.82	-50.7	-65.9	3.8	1.49e+00	0	44	104	1279262720	71	22691
2026-01-13 00:24:42.81	214.14	8.50	-50.9	-66.2	3.8	1.49e+00	0	44	104	1279262720	72	22062
2026-01-13 00:24:46.78	214.03	8.18	-51.1	-66.2	3.8	1.49e+00	0	44	104	1279262720	72	22123
2026-01-13 00:24:50.76	213.92	7.86	-51.1	-66.2	3.8	1.49e+00	0	44	104	1279262720	72	22228
2026-01-13 00:24:54.73	213.82	7.55	-50.9	-66.2	3.8	1.49e+00	0	44	104	1279262720	72	22008
2026-01-13 00:24:58.70	213.72	7.24	-50.8	-66.2	3.8	1.49e+00	0	44	104	1279262720	72	22081
2026-01-13 00:25:02.68	213.62	6.93	-50.8	-66.1	3.8	1.49e+00	0	44	104	1279262720	72	21988
2026-01-13 00:25:06.65	213.52	6.63	-50.8	-66.1	3.8	1.49e+00	0	44	104	1279262720	72	21961
2026-01-13 00:25:10.62	213.43	6.33	-50.8	-66.2	3.8	1.49e+00	0	44	104	1279262720	72	22091
2026-01-13 00:25:14.60	213.34	6.04	-50.8	-66.1	3.8	1.49e+00	0	44	104	1279262720	72	21988
2026-01-13 00:25:18.57	213.25	5.74	-50.8	-66.2	3.8	1.49e+00	0	44	104	1279262720	72	22025
2026-01-13 00:25:22.54	213.16	5.46	-50.8	-66.1	3.8	1.49e+00	0	44	104	1279262720	72	21930
2026-01-13 00:25:26.52	213.07	5.17	-50.8	-66.1	3.8	1.49e+00	0	44	104	1279262720	72	21963

#Closed at: 2026-01-13 00:25:30
#Recorded file [1279 MB]: D:/Data/31040_260113_031242.dat