passes_logs/2026/01/13/T1/T1__20260113_235353_SUOMI_NPP_rec.log

#Pass ID: 20260113_235353_SUOMI NPP
#Satellite: SUOMI NPP
#Configuration: NPP
#almurnet v.1.7.20251203
#Start time: 2026-01-13 23:53:54

#Version: 2.0.20230620
#Station: T1
#Location: 37.570604 lon 55.790049 lat
#TLE: 1 37849U 11061A   26013.27136842  .00000065  00000+0  51889-4 0  9990
#TLE: 2 37849  98.7808 315.3349 0002489  66.6776 293.4661 14.19524902736466

#Time	Az	El	Level	Level2	SNR	BER	BlckErr	Temp	State	Recorded	gain1	gain2
2026-01-13 23:53:54.97	15.51	5.12	-50.3	-66.9	3.8	1.49e+00	0	40	0	0	72	23954
2026-01-13 23:53:58.94	15.50	5.40	-50.3	-66.9	3.8	1.49e+00	0	41	104	0	71	25437
2026-01-13 23:54:02.91	15.49	5.69	-50.3	-66.8	3.8	1.49e+00	0	41	104	0	71	24998
2026-01-13 23:54:06.89	15.47	5.98	-50.3	-66.8	3.8	1.49e+00	0	41	104	0	71	25023
2026-01-13 23:54:10.86	15.46	6.28	-50.4	-66.9	3.8	1.49e+00	0	41	104	0	71	25503
2026-01-13 23:54:14.83	15.44	6.58	-50.3	-67.0	3.8	1.49e+00	0	41	104	0	71	25783
2026-01-13 23:54:18.80	15.42	6.88	-50.4	-67.1	3.8	1.49e+00	0	42	104	0	71	25879
2026-01-13 23:54:22.78	15.41	7.19	-50.3	-65.4	3.8	1.49e+00	0	42	104	0	71	21274
2026-01-13 23:54:26.75	15.39	7.49	-50.1	-62.0	4.8	9.82e-01	0	42	0	2097152	71	14466
2026-01-13 23:54:30.73	15.37	7.81	-49.9	-60.3	5.8	4.51e-01	0	42	0	9437184	71	11870
2026-01-13 23:54:34.70	15.35	8.12	-49.8	-59.7	6.2	3.15e-01	0	42	0	16777216	71	11157
2026-01-13 23:54:38.67	15.33	8.45	-49.9	-60.2	5.9	3.67e-01	0	42	0	24117248	71	11763
2026-01-13 23:54:42.64	15.31	8.77	-50.1	-61.6	5.0	6.92e-01	0	42	0	31457280	71	13852
2026-01-13 23:54:46.62	15.29	9.10	-50.2	-65.3	3.8	1.49e+00	0	42	104	34603008	71	21063
2026-01-13 23:54:50.60	15.27	9.43	-50.2	-58.8	7.4	9.86e-03	0	42	0	36700160	70	10552
2026-01-13 23:54:54.75	15.24	9.79	-49.0	-55.4	10.5	4.18e-03	0	42	0	45088768	70	7140
2026-01-13 23:54:59.05	15.21	10.16	-48.8	-54.8	11.1	1.25e-03	0	42	0	52428800	69	7073
2026-01-13 23:55:03.25	15.19	10.53	-48.6	-53.7	12.2	2.97e-04	0	42	0	60817408	69	6266
2026-01-13 23:55:07.22	15.16	10.88	-48.2	-53.0	13.0	3.28e-05	0	42	0	68157440	68	6073
2026-01-13 23:55:11.22	15.13	11.24	-48.2	-52.7	13.3	2.44e-05	0	42	0	75497472	68	5911
2026-01-13 23:55:15.29	15.10	11.62	-47.7	-52.3	13.5	7.60e-06	0	42	0	82837504	67	5950
2026-01-13 23:55:19.19	15.07	11.98	-47.7	-52.1	13.7	9.90e-06	0	43	0	90177536	67	5828
2026-01-13 23:55:23.17	15.04	12.35	-47.5	-51.9	13.9	3.00e-06	0	42	0	97517568	66	6059
2026-01-13 23:55:27.25	15.01	12.75	-47.5	-51.8	14.0	6.10e-06	0	43	0	105906176	66	5991
2026-01-13 23:55:31.48	14.97	13.16	-47.4	-51.7	14.1	3.80e-06	0	42	0	113246208	66	5922
2026-01-13 23:55:35.48	14.93	13.56	-47.4	-51.5	14.3	3.80e-06	0	42	0	120586240	66	5774
2026-01-13 23:55:39.46	14.90	13.96	-47.3	-51.5	14.4	7.00e-07	0	43	0	127926272	66	5779
2026-01-13 23:55:43.47	14.86	14.37	-47.3	-51.4	14.4	0.00e+00	0	43	0	136314880	66	5718
2026-01-13 23:55:47.59	14.82	14.80	-47.1	-51.1	14.8	0.00e+00	0	43	0	143654912	66	5505
2026-01-13 23:55:51.53	14.78	15.22	-47.1	-50.9	15.1	7.00e-07	0	43	0	150994944	66	5359
2026-01-13 23:55:55.51	14.73	15.65	-47.2	-50.8	15.2	7.00e-07	0	43	0	158334976	66	5326
2026-01-13 23:55:59.56	14.69	16.09	-47.2	-50.8	15.2	0.00e+00	0	43	0	165675008	66	5285
2026-01-13 23:56:03.54	14.64	16.54	-47.2	-50.8	15.1	0.00e+00	0	43	0	174063616	66	5296
2026-01-13 23:56:07.52	14.59	16.99	-47.2	-50.7	15.2	0.00e+00	0	43	0	181403648	66	5261
2026-01-13 23:56:11.50	14.54	17.46	-47.2	-50.7	15.3	0.00e+00	0	43	0	188743680	66	5221
2026-01-13 23:56:15.48	14.49	17.93	-47.0	-50.3	15.7	0.00e+00	0	43	0	196083712	66	4984
2026-01-13 23:56:19.46	14.43	18.41	-46.9	-50.1	15.8	0.00e+00	0	43	0	203423744	65	5187
2026-01-13 23:56:23.44	14.38	18.90	-46.8	-49.8	16.1	0.00e+00	0	43	0	210763776	65	5013
2026-01-13 23:56:27.42	14.32	19.40	-46.8	-49.8	16.2	0.00e+00	0	43	0	218103808	65	4990
2026-01-13 23:56:31.40	14.25	19.91	-46.9	-49.9	16.1	0.00e+00	0	43	0	225443840	65	5044
2026-01-13 23:56:35.30	14.19	20.42	-46.9	-49.8	16.2	0.00e+00	0	43	0	232783872	65	5010
2026-01-13 23:56:39.28	14.12	20.96	-46.7	-49.6	16.4	0.00e+00	0	43	0	240123904	65	4874
2026-01-13 23:56:43.27	14.05	21.50	-46.5	-49.3	16.6	0.00e+00	0	43	0	248512512	65	4756
2026-01-13 23:56:47.32	13.98	22.07	-46.7	-49.6	16.4	0.00e+00	0	43	0	255852544	65	4876
2026-01-13 23:56:51.33	13.90	22.64	-46.8	-49.7	16.3	0.00e+00	0	43	0	263192576	65	4946
2026-01-13 23:56:55.31	13.82	23.22	-46.8	-49.7	16.3	0.00e+00	0	43	0	270532608	65	4969
2026-01-13 23:56:59.32	13.73	23.82	-46.5	-49.4	16.6	0.00e+00	0	43	0	277872640	64	5049
2026-01-13 23:57:03.31	13.64	24.43	-46.6	-49.5	16.5	0.00e+00	0	43	0	285212672	64	5131
2026-01-13 23:57:07.35	13.55	25.06	-46.6	-49.5	16.5	0.00e+00	0	43	0	293601280	64	5138
2026-01-13 23:57:11.52	13.45	25.73	-46.6	-49.5	16.4	0.00e+00	0	43	0	300941312	64	5144
2026-01-13 23:57:15.52	13.35	26.39	-46.8	-49.7	16.3	0.00e+00	0	43	0	308281344	64	5256
2026-01-13 23:57:19.56	13.24	27.07	-47.5	-50.8	15.2	0.00e+00	0	43	0	315621376	65	5619
2026-01-13 23:57:23.68	13.12	27.79	-47.7	-51.1	15.0	0.00e+00	0	43	0	324009984	66	5478
2026-01-13 23:57:27.82	13.00	28.52	-47.5	-50.8	15.3	0.00e+00	0	43	0	331350016	66	5308
2026-01-13 23:57:31.86	12.87	29.26	-47.9	-51.4	14.7	0.00e+00	0	43	0	338690048	66	5705
2026-01-13 23:57:35.85	12.74	30.01	-48.4	-52.3	13.8	1.50e-06	0	43	0	347078656	67	5986
2026-01-13 23:57:40.17	12.59	30.84	-48.2	-52.0	14.2	1.50e-06	0	43	0	354418688	67	5741
2026-01-13 23:57:44.42	12.43	31.68	-49.5	-54.1	12.2	1.87e-04	0	43	0	362807296	69	6540
2026-01-13 23:57:49.01	12.26	32.61	-50.2	-55.7	10.6	2.72e-03	0	43	0	371195904	71	7038
2026-01-13 23:57:53.00	12.09	33.45	-50.0	-55.3	11.0	1.07e-03	0	43	0	378535936	71	6693
2026-01-13 23:57:57.21	11.90	34.36	-49.3	-53.7	12.7	4.80e-05	0	43	0	386924544	70	5877
2026-01-13 23:58:01.19	11.72	35.25	-47.5	-50.6	15.6	0.00e+00	0	43	0	394264576	66	5191
2026-01-13 23:58:05.17	11.52	36.16	-47.0	-50.0	16.1	0.00e+00	0	43	0	401604608	65	5119
2026-01-13 23:58:09.14	11.31	37.09	-46.3	-49.0	17.1	0.00e+00	0	43	0	408944640	64	4825
2026-01-13 23:58:13.28	11.08	38.09	-46.1	-48.7	17.5	0.00e+00	0	43	0	417333248	63	4941
2026-01-13 23:58:17.31	10.84	39.10	-46.5	-49.3	16.8	0.00e+00	0	43	0	424673280	64	5010
2026-01-13 23:58:21.30	10.58	40.12	-45.9	-48.4	17.7	0.00e+00	0	43	0	432013312	63	4808
2026-01-13 23:58:25.27	10.31	41.17	-46.3	-49.0	17.1	0.00e+00	0	43	0	439353344	63	5119
2026-01-13 23:58:29.26	10.02	42.26	-46.9	-49.9	16.2	0.00e+00	0	43	0	446693376	65	5065
2026-01-13 23:58:33.34	9.70	43.40	-47.4	-50.5	15.7	0.00e+00	0	43	0	454033408	65	5450
2026-01-13 23:58:37.40	9.35	44.57	-48.4	-52.0	14.2	1.50e-06	0	43	0	462422016	67	5760
2026-01-13 23:58:41.38	8.99	45.75	-47.6	-50.8	15.4	0.00e+00	0	43	0	469762048	66	5291
2026-01-13 23:58:45.36	8.59	46.97	-49.2	-53.4	12.9	2.82e-05	0	43	0	477102080	69	6049
2026-01-13 23:58:49.33	8.17	48.21	-48.1	-51.5	14.9	0.00e+00	0	43	0	484442112	68	5112
2026-01-13 23:58:53.36	7.69	49.51	-48.2	-51.5	15.0	2.20e-06	0	43	0	491782144	68	5136
2026-01-13 23:58:57.34	7.18	50.83	-47.3	-50.3	15.9	0.00e+00	0	43	0	499122176	66	5026
2026-01-13 23:59:01.33	6.62	52.19	-47.2	-50.2	16.0	0.00e+00	0	43	0	506462208	65	5247
2026-01-13 23:59:05.48	5.98	53.65	-48.1	-51.6	14.7	3.00e-06	0	43	0	514850816	67	5498
2026-01-13 23:59:09.46	5.30	55.08	-46.3	-49.0	17.1	0.00e+00	0	43	0	522190848	64	4869
2026-01-13 23:59:13.99	4.43	56.75	-46.9	-49.7	16.6	0.00e+00	0	43	0	530579456	65	4970
2026-01-13 23:59:17.97	3.57	58.25	-48.7	-52.3	14.0	2.20e-06	0	43	0	537919488	68	5642
2026-01-13 23:59:21.95	2.61	59.79	-47.8	-50.9	15.2	1.50e-06	0	43	0	545259520	67	5098
2026-01-13 23:59:25.93	1.52	61.35	-47.6	-50.8	15.4	0.00e+00	0	43	0	552599552	66	5322
2026-01-13 23:59:30.08	0.23	63.01	-46.4	-49.1	17.2	0.00e+00	0	43	0	560988160	64	4882
2026-01-13 23:59:34.07	358.80	64.64	-47.2	-50.2	16.0	0.00e+00	0	43	0	568328192	65	5251
2026-01-13 23:59:38.06	357.15	66.28	-47.6	-50.9	15.4	0.00e+00	0	43	0	575668224	65	5678
2026-01-13 23:59:42.05	355.22	67.93	-47.5	-50.6	15.6	0.00e+00	0	43	0	583008256	65	5488
2026-01-13 23:59:46.14	352.89	69.63	-48.2	-51.8	14.5	7.00e-07	0	43	0	591396864	67	5621
2026-01-13 23:59:50.37	349.98	71.38	-46.8	-49.5	16.7	0.00e+00	0	43	0	598736896	65	4866
2026-01-13 23:59:54.35	346.67	73.01	-45.6	-48.1	18.2	0.00e+00	0	43	0	606076928	62	4890
2026-01-13 23:59:58.33	342.63	74.58	-48.2	-51.6	14.8	0.00e+00	0	43	0	613416960	66	5819
2026-01-14 00:00:02.39	337.53	76.12	-49.7	-54.3	12.0	1.72e-04	0	43	0	621805568	70	6316
2026-01-14 00:00:06.40	331.26	77.52	-49.4	-53.7	12.8	7.57e-04	0	43	0	629145600	70	5883
2026-01-14 00:00:10.61	323.03	78.81	-47.8	-50.9	15.4	0.00e+00	0	43	0	636485632	67	5087
2026-01-14 00:00:14.59	313.48	79.77	-49.2	-53.2	13.4	0.00e+00	0	43	0	643825664	68	6227
2026-01-14 00:00:18.60	302.20	80.41	-50.8	-56.8	9.5	3.92e-03	0	43	0	652214272	72	7513
2026-01-14 00:00:22.73	289.45	80.64	-50.6	-56.3	10.3	2.82e-03	0	43	0	659554304	71	7482
2026-01-14 00:00:26.79	276.93	80.41	-49.9	-54.7	11.8	3.45e-04	0	43	0	666894336	71	6213
2026-01-14 00:00:30.99	265.13	79.74	-50.2	-55.5	11.0	8.31e-04	0	43	0	675282944	71	6820
2026-01-14 00:00:34.97	255.66	78.76	-50.0	-54.9	11.4	3.58e-03	0	43	0	682622976	71	6411
2026-01-14 00:00:39.04	247.74	77.51	-50.5	-56.2	10.2	6.74e-03	0	43	0	689963008	72	6978
2026-01-14 00:00:43.23	241.22	76.04	-49.5	-53.7	12.7	2.73e-04	0	43	0	698351616	70	5873
2026-01-14 00:00:47.21	236.27	74.53	-47.4	-50.5	15.7	0.00e+00	0	43	0	705691648	66	5119
2026-01-14 00:00:51.19	232.25	72.95	-45.8	-48.2	17.9	0.00e+00	0	43	0	713031680	63	4671
2026-01-14 00:00:55.17	228.96	71.32	-46.6	-49.2	17.0	0.00e+00	0	43	0	720371712	65	4683
2026-01-14 00:00:59.24	226.17	69.63	-47.7	-50.9	15.4	0.00e+00	0	43	0	727711744	67	5055
2026-01-14 00:01:03.34	223.83	67.92	-48.4	-51.9	14.6	7.00e-07	0	43	0	736100352	68	5347
2026-01-14 00:01:07.45	221.84	66.22	-47.5	-50.5	15.7	0.00e+00	0	43	0	743440384	65	5439
2026-01-14 00:01:11.52	220.16	64.54	-47.7	-50.8	15.6	0.00e+00	0	43	0	750780416	67	5029
2026-01-14 00:01:15.60	218.71	62.88	-49.5	-53.9	12.6	1.35e-04	0	43	0	759169024	71	5689
2026-01-14 00:01:19.69	217.45	61.23	-47.7	-50.8	15.3	0.00e+00	0	43	0	766509056	66	5336
2026-01-14 00:01:23.93	216.30	59.56	-46.8	-49.6	16.6	0.00e+00	0	43	0	773849088	64	5212
2026-01-14 00:01:27.98	215.33	58.00	-47.3	-50.2	15.9	0.00e+00	0	43	0	782237696	65	5262
2026-01-14 00:01:31.98	214.48	56.49	-48.4	-52.0	14.2	0.00e+00	0	43	0	789577728	67	5769
2026-01-14 00:01:35.98	213.72	55.02	-48.9	-52.7	13.8	2.36e-05	0	43	0	796917760	69	5562
2026-01-14 00:01:39.96	213.04	53.58	-47.5	-50.6	15.6	7.00e-07	0	43	0	804257792	66	5176
2026-01-14 00:01:44.54	212.33	51.98	-47.1	-49.9	16.2	0.00e+00	0	43	0	812646400	65	5094
2026-01-14 00:01:48.55	211.78	50.61	-48.1	-51.4	14.9	0.00e+00	0	43	0	819986432	67	5400
2026-01-14 00:01:52.56	211.27	49.28	-49.1	-53.1	13.3	2.89e-05	0	43	0	828375040	70	5483
2026-01-14 00:01:56.61	210.80	47.97	-50.4	-55.8	10.5	8.26e-04	0	43	0	835715072	71	7119
2026-01-14 00:02:00.85	210.34	46.64	-49.4	-53.6	12.7	1.14e-04	0	44	0	843055104	70	5841
2026-01-14 00:02:04.83	209.95	45.43	-47.7	-50.9	15.1	0.00e+00	0	43	0	851443712	67	5051
2026-01-14 00:02:08.80	209.59	44.26	-48.5	-52.2	14.2	0.00e+00	0	43	0	858783744	68	5585
2026-01-14 00:02:12.78	209.26	43.11	-49.0	-53.1	13.4	8.30e-06	0	43	0	866123776	68	6144
2026-01-14 00:02:16.76	208.95	42.00	-50.4	-55.8	10.4	4.58e-02	0	43	0	873463808	72	6691
2026-01-14 00:02:20.74	208.66	40.92	-49.0	-53.0	13.4	6.10e-06	0	43	0	880803840	68	6102
2026-01-14 00:02:24.88	208.38	39.83	-49.1	-53.1	13.4	1.52e-05	0	43	0	888143872	69	5809
2026-01-14 00:02:28.87	208.12	38.80	-48.4	-51.8	14.1	7.60e-06	0	43	0	895483904	68	5284
2026-01-14 00:02:32.84	207.89	37.82	-47.7	-51.0	15.2	0.00e+00	0	43	0	903872512	66	5432
2026-01-14 00:02:36.83	207.66	36.85	-49.1	-53.3	13.4	9.90e-06	0	43	0	911212544	68	6283
2026-01-14 00:02:40.84	207.45	35.91	-49.2	-53.4	12.9	6.63e-05	0	43	0	918552576	69	6019
2026-01-14 00:02:45.16	207.24	34.92	-49.0	-53.0	13.3	7.09e-05	0	43	0	926941184	69	5764
2026-01-14 00:02:49.30	207.05	34.01	-48.3	-51.7	14.6	7.00e-07	0	43	0	934281216	68	5269
2026-01-14 00:02:53.32	206.87	33.14	-48.5	-52.0	14.2	0.00e+00	0	43	0	941621248	68	5464
2026-01-14 00:02:57.33	206.71	32.30	-48.5	-52.0	14.3	7.00e-07	0	43	0	948961280	68	5432
2026-01-14 00:03:01.31	206.55	31.49	-48.3	-51.8	14.3	1.50e-06	0	43	0	957349888	67	5635
2026-01-14 00:03:05.62	206.39	30.64	-48.4	-52.0	14.1	7.00e-07	0	43	0	964689920	67	5750
2026-01-14 00:03:09.60	206.25	29.87	-48.5	-52.2	14.0	4.50e-06	0	43	0	972029952	68	5555
2026-01-14 00:03:13.61	206.12	29.12	-48.6	-52.2	13.9	5.30e-06	0	43	0	980418560	68	5590
2026-01-14 00:03:17.61	205.99	28.39	-47.4	-50.5	15.6	0.00e+00	0	43	0	987758592	66	5125
2026-01-14 00:03:21.67	205.87	27.66	-47.4	-50.4	15.6	0.00e+00	0	43	0	995098624	65	5396
2026-01-14 00:03:25.71	205.75	26.96	-47.2	-50.2	15.8	0.00e+00	0	43	0	1002438656	65	5274
2026-01-14 00:03:29.72	205.64	26.28	-46.7	-49.6	16.3	0.00e+00	0	43	0	1009778688	65	4901
2026-01-14 00:03:33.72	205.53	25.62	-46.7	-49.6	16.2	0.00e+00	0	43	0	1017118720	65	4891
2026-01-14 00:03:37.98	205.43	24.94	-47.1	-50.2	15.5	0.00e+00	0	43	0	1025507328	65	5227
2026-01-14 00:03:41.96	205.33	24.31	-46.9	-50.0	15.6	0.00e+00	0	43	0	1032847360	65	5137
2026-01-14 00:03:45.97	205.24	23.69	-47.3	-50.6	15.0	0.00e+00	0	43	0	1040187392	65	5520
2026-01-14 00:03:50.13	205.15	23.07	-47.9	-51.7	14.0	2.20e-06	0	43	0	1048576000	66	5858
2026-01-14 00:03:54.36	205.06	22.45	-47.9	-51.7	13.9	3.00e-06	0	43	0	1055916032	66	5871
2026-01-14 00:03:58.34	204.98	21.88	-47.0	-50.3	15.2	0.00e+00	0	43	0	1064304640	66	5021
2026-01-14 00:04:02.32	204.91	21.33	-46.9	-50.0	15.4	0.00e+00	0	43	0	1071644672	65	5153
2026-01-14 00:04:06.36	204.83	20.77	-47.0	-50.2	15.2	0.00e+00	0	43	0	1078984704	65	5265
2026-01-14 00:04:10.34	204.76	20.24	-47.2	-50.6	14.8	0.00e+00	0	43	0	1086324736	65	5523
2026-01-14 00:04:14.32	204.69	19.72	-46.5	-49.7	15.7	0.00e+00	0	43	0	1093664768	65	4931
2026-01-14 00:04:18.30	204.63	19.21	-46.5	-49.6	15.7	0.00e+00	0	43	0	1101004800	64	5218
2026-01-14 00:04:22.28	204.57	18.71	-46.7	-49.8	15.6	0.00e+00	0	44	0	1108344832	64	5319
2026-01-14 00:04:26.34	204.50	18.21	-47.1	-50.5	14.8	0.00e+00	0	43	0	1116733440	64	5762
2026-01-14 00:04:30.32	204.45	17.72	-47.7	-51.4	13.8	4.50e-06	0	43	0	1124073472	66	5697
2026-01-14 00:04:34.31	204.39	17.25	-48.0	-52.0	13.3	1.37e-05	0	43	0	1131413504	66	6081
2026-01-14 00:04:38.29	204.34	16.79	-48.0	-52.0	13.3	2.13e-05	0	43	0	1138753536	67	5757
2026-01-14 00:04:42.37	204.28	16.32	-47.9	-51.8	13.4	2.44e-05	0	43	0	1146093568	67	5656
2026-01-14 00:04:46.43	204.23	15.87	-48.1	-52.3	13.0	1.60e-05	0	43	0	1154482176	67	5948
2026-01-14 00:04:50.40	204.19	15.43	-48.1	-52.2	13.0	3.35e-05	0	43	0	1161822208	67	5884
2026-01-14 00:04:54.38	204.14	15.00	-48.3	-52.6	12.5	8.54e-05	0	43	0	1169162240	67	6190
2026-01-14 00:04:58.36	204.09	14.58	-48.3	-52.7	12.5	1.09e-04	0	43	0	1176502272	67	6214
2026-01-14 00:05:02.45	204.05	14.15	-48.3	-52.8	12.3	1.16e-04	0	43	0	1183842304	67	6286
2026-01-14 00:05:06.43	204.01	13.74	-48.5	-53.1	12.0	2.42e-04	0	43	0	1191182336	67	6565
2026-01-14 00:05:10.41	203.97	13.34	-48.3	-52.8	12.4	2.67e-04	0	43	0	1198522368	67	6299
2026-01-14 00:05:14.39	203.93	12.95	-48.3	-52.9	12.3	1.88e-04	0	43	0	1206910976	67	6359
2026-01-14 00:05:18.47	203.89	12.55	-47.9	-52.1	13.0	6.94e-05	0	43	0	1214251008	67	5845
2026-01-14 00:05:22.45	203.85	12.16	-47.9	-52.2	13.0	4.42e-05	0	43	0	1221591040	67	5894
2026-01-14 00:05:26.43	203.82	11.79	-48.0	-52.4	12.8	8.16e-05	0	43	0	1228931072	67	5997
2026-01-14 00:05:30.41	203.78	11.42	-48.1	-52.7	12.5	5.72e-05	0	43	0	1236271104	67	6223
2026-01-14 00:05:34.40	203.75	11.05	-48.0	-52.6	12.6	7.24e-05	0	43	0	1243611136	67	6142
2026-01-14 00:05:38.38	203.72	10.69	-47.9	-52.6	12.6	9.30e-05	0	43	0	1250951168	67	6139
2026-01-14 00:05:42.36	203.69	10.34	-47.9	-52.6	12.6	8.46e-05	0	43	0	1258291200	67	6175
2026-01-14 00:05:46.34	203.66	9.99	-47.8	-52.4	12.8	7.40e-05	0	43	0	1266679808	67	6004
2026-01-14 00:05:50.32	203.63	9.64	-48.0	-52.6	12.6	6.10e-05	0	43	0	1274019840	67	6199
2026-01-14 00:05:54.30	203.60	9.30	-48.0	-52.5	12.7	5.72e-05	0	43	0	1281359872	67	6102
2026-01-14 00:05:58.28	203.58	8.97	-51.3	-65.2	3.8	2.19e-01	0	43	104	1287651328	73	18600
2026-01-14 00:06:02.26	203.55	8.63	-52.2	-67.3	3.8	1.49e+00	0	43	104	1287651328	75	21178
2026-01-14 00:06:06.23	203.52	8.31	-52.0	-67.5	3.8	1.49e+00	0	43	104	1287651328	75	21557
2026-01-14 00:06:10.33	203.50	7.98	-52.4	-67.5	3.8	1.49e+00	0	43	104	1287651328	75	21701
2026-01-14 00:06:14.43	203.47	7.65	-52.5	-67.5	3.8	1.49e+00	0	43	104	1287651328	75	21713
2026-01-14 00:06:18.53	203.45	7.32	-52.2	-67.5	3.8	1.49e+00	0	43	104	1287651328	75	21618
2026-01-14 00:06:22.50	203.43	7.01	-52.2	-67.5	3.8	1.49e+00	0	43	104	1287651328	75	21624
2026-01-14 00:06:26.48	203.41	6.71	-52.2	-67.5	3.8	1.49e+00	0	43	104	1287651328	75	21634
2026-01-14 00:06:30.45	203.38	6.41	-52.3	-67.5	3.8	1.49e+00	0	43	104	1287651328	75	21731
2026-01-14 00:06:34.43	203.36	6.11	-52.3	-67.5	3.8	1.49e+00	0	43	104	1287651328	75	21620
2026-01-14 00:06:38.40	203.34	5.81	-52.3	-67.5	3.8	1.49e+00	0	43	104	1287651328	75	21729
2026-01-14 00:06:42.37	203.33	5.52	-52.3	-67.6	3.8	1.49e+00	0	43	104	1287651328	75	21817
2026-01-14 00:06:46.35	203.31	5.23	-52.3	-67.6	3.8	1.49e+00	0	43	104	1287651328	75	21821
2026-01-14 00:06:50.32	203.29	4.94	-52.3	-67.6	3.8	1.49e+00	0	43	104	1287651328	75	21791

#Closed at: 2026-01-14 00:06:51
#Recorded file [1287 MB]: D:/Data/31040_260114_025354.dat