passes_logs/2026/01/13/T1/T1__20260113_082434_SUOMI_NPP_rec.log

#Pass ID: 20260113_082434_SUOMI NPP
#Satellite: SUOMI NPP
#Configuration: NPP
#almurnet v.1.7.20251203
#Start time: 2026-01-13 08:24:35

#Version: 2.0.20230620
#Station: T1
#Location: 37.570604 lon 55.790049 lat
#TLE: 1 37849U 11061A   26012.28456845  .00000093  00000+0  65163-4 0  9999
#TLE: 2 37849  98.7807 314.3566 0002508  68.3553 291.7890 14.19524725736322

#Time	Az	El	Level	Level2	SNR	BER	BlckErr	Temp	State	Recorded	gain1	gain2
2026-01-13 08:24:35.80	109.69	5.07	-49.8	-65.0	3.8	1.49e+00	0	39	0	0	71	20398
2026-01-13 08:24:38.78	109.45	5.26	-49.8	-65.0	3.8	1.49e+00	0	39	104	0	71	20445
2026-01-13 08:24:41.76	109.20	5.44	-49.8	-65.0	3.8	1.49e+00	0	39	104	0	71	20322
2026-01-13 08:24:44.74	108.96	5.62	-49.8	-65.0	3.8	1.49e+00	0	39	104	0	71	20395
2026-01-13 08:24:47.72	108.71	5.81	-49.8	-64.9	3.8	1.49e+00	0	39	104	0	71	20225
2026-01-13 08:24:50.70	108.45	6.00	-49.8	-64.9	3.8	1.49e+00	0	39	104	0	71	20080
2026-01-13 08:24:53.68	108.20	6.18	-49.8	-64.9	3.8	1.49e+00	0	39	104	0	71	20102
2026-01-13 08:24:56.66	107.94	6.37	-49.8	-64.8	3.8	1.49e+00	0	39	104	0	71	20044
2026-01-13 08:24:59.64	107.67	6.56	-49.8	-64.7	3.8	1.49e+00	0	40	104	0	71	19820
2026-01-13 08:25:02.62	107.41	6.75	-49.8	-64.7	3.8	1.49e+00	0	40	104	0	71	19653
2026-01-13 08:25:05.60	107.14	6.94	-49.8	-64.8	3.8	1.49e+00	0	40	104	0	71	19849
2026-01-13 08:25:08.58	106.86	7.13	-49.8	-65.0	3.8	1.49e+00	0	40	104	0	71	20405
2026-01-13 08:25:11.56	106.58	7.32	-49.8	-65.0	3.8	1.49e+00	0	40	104	0	71	20424
2026-01-13 08:25:14.54	106.30	7.51	-49.7	-64.4	3.8	1.49e+00	0	40	104	0	71	19115
2026-01-13 08:25:17.52	106.02	7.70	-49.7	-63.2	3.8	1.49e+00	0	40	104	0	71	16525
2026-01-13 08:25:20.51	105.73	7.90	-49.7	-64.5	3.8	1.49e+00	0	40	104	0	71	19344
2026-01-13 08:25:23.49	105.43	8.09	-49.5	-61.1	4.3	1.45e+00	0	40	104	0	71	13008
2026-01-13 08:25:26.47	105.13	8.29	-48.4	-54.9	8.7	6.43e-02	0	40	0	5242880	68	7549
2026-01-13 08:25:29.45	104.83	8.48	-47.6	-53.1	10.4	4.94e-03	0	40	0	10485760	67	6556
2026-01-13 08:25:32.43	104.53	8.68	-48.3	-55.0	8.4	2.35e-02	0	40	0	15728640	67	8169
2026-01-13 08:25:35.41	104.22	8.88	-49.6	-62.5	3.8	1.36e+00	0	40	104	20971520	69	17103
2026-01-13 08:25:38.39	103.90	9.08	-49.8	-65.0	3.8	1.49e+00	0	40	104	20971520	70	21527
2026-01-13 08:25:41.55	103.56	9.29	-49.8	-64.6	3.8	1.49e+00	0	40	104	20971520	70	20673
2026-01-13 08:25:44.39	103.26	9.48	-48.9	-57.0	6.8	1.22e+00	0	41	0	20971520	69	9136
2026-01-13 08:25:47.51	102.91	9.69	-47.6	-52.8	10.8	3.06e-03	0	40	0	26214400	67	6323
2026-01-13 08:25:50.36	102.60	9.88	-47.3	-52.1	11.6	6.13e-04	0	41	0	32505856	66	6196
2026-01-13 08:25:53.48	102.24	10.09	-47.1	-51.7	11.9	4.46e-04	0	40	0	37748736	66	5923
2026-01-13 08:25:56.32	101.92	10.29	-46.5	-50.5	13.3	1.98e-05	0	40	0	42991616	65	5432
2026-01-13 08:25:59.60	101.53	10.51	-46.9	-51.3	12.5	4.27e-05	0	40	0	49283072	65	5942
2026-01-13 08:26:02.31	101.21	10.70	-46.8	-51.2	12.6	4.42e-05	0	40	0	54525952	65	5858
2026-01-13 08:26:05.60	100.82	10.92	-46.7	-50.7	13.1	2.74e-05	0	41	0	60817408	65	5577
2026-01-13 08:26:08.55	100.46	11.13	-46.6	-50.7	13.2	1.83e-05	0	41	0	66060288	64	5872
2026-01-13 08:26:11.53	100.09	11.33	-46.4	-50.3	13.6	1.75e-05	0	41	0	71303168	64	5593
2026-01-13 08:26:14.52	99.72	11.54	-46.1	-49.6	14.3	0.00e+00	0	41	0	77594624	63	5487
2026-01-13 08:26:17.50	99.34	11.75	-46.5	-50.4	13.6	1.22e-05	0	41	0	82837504	63	6016
2026-01-13 08:26:20.48	98.96	11.95	-46.1	-49.6	14.4	1.50e-06	0	41	0	88080384	63	5480
2026-01-13 08:26:23.47	98.57	12.16	-46.3	-50.0	13.9	3.00e-06	0	41	0	94371840	63	5744
2026-01-13 08:26:26.45	98.17	12.37	-46.4	-50.2	13.8	5.30e-06	0	41	0	99614720	63	5867
2026-01-13 08:26:29.44	97.77	12.58	-46.2	-49.9	14.1	3.80e-06	0	41	0	104857600	63	5694
2026-01-13 08:26:32.42	97.36	12.79	-46.6	-50.7	13.2	1.90e-05	0	41	0	111149056	64	5903
2026-01-13 08:26:35.40	96.95	13.00	-46.3	-50.0	13.9	2.20e-06	0	41	0	116391936	64	5442
2026-01-13 08:26:38.39	96.53	13.21	-46.4	-50.2	13.8	3.00e-06	0	41	0	121634816	64	5568
2026-01-13 08:26:41.37	96.10	13.42	-46.4	-50.1	13.8	4.50e-06	0	41	0	127926272	64	5521
2026-01-13 08:26:44.45	95.66	13.64	-46.2	-49.8	14.2	1.50e-06	0	41	0	133169152	64	5299
2026-01-13 08:26:47.32	95.24	13.84	-46.0	-49.6	14.4	0.00e+00	0	41	0	138412032	64	5173
2026-01-13 08:26:50.45	94.77	14.06	-46.0	-49.5	14.5	1.50e-06	0	41	0	144703488	63	5459
2026-01-13 08:26:53.29	94.34	14.27	-46.3	-50.0	14.1	7.00e-07	0	41	0	149946368	63	5751
2026-01-13 08:26:56.42	93.86	14.49	-46.5	-50.4	13.6	5.30e-06	0	41	0	156237824	64	5668
2026-01-13 08:26:59.26	93.42	14.69	-46.7	-50.6	13.3	1.67e-05	0	41	0	161480704	64	5849
2026-01-13 08:27:02.51	92.91	14.92	-46.2	-49.7	14.2	0.00e+00	0	41	0	167772160	64	5273
2026-01-13 08:27:05.26	92.47	15.11	-46.4	-50.2	13.8	3.80e-06	0	41	0	171966464	64	5557
2026-01-13 08:27:08.80	91.89	15.36	-46.3	-50.0	14.0	8.30e-06	0	41	0	179306496	64	5452
2026-01-13 08:27:11.50	91.45	15.55	-46.3	-50.1	14.0	6.10e-06	0	41	0	184549376	64	5480
2026-01-13 08:27:14.77	90.90	15.79	-46.2	-49.9	14.1	2.20e-06	0	41	0	189792256	64	5358
2026-01-13 08:27:17.56	90.43	15.98	-45.9	-49.4	14.7	0.00e+00	0	41	0	195035136	63	5356
2026-01-13 08:27:20.75	89.88	16.21	-46.3	-50.0	14.1	1.50e-06	0	41	0	201326592	63	5775
2026-01-13 08:27:23.84	89.34	16.42	-46.2	-49.9	14.1	2.20e-06	0	41	0	207618048	63	5700
2026-01-13 08:27:26.83	88.81	16.63	-46.5	-50.5	13.7	6.10e-06	0	41	0	212860928	63	6083
2026-01-13 08:27:29.81	88.27	16.84	-46.2	-50.0	14.1	1.50e-06	0	41	0	218103808	63	5747
2026-01-13 08:27:32.80	87.73	17.04	-45.9	-49.5	14.6	0.00e+00	0	41	0	224395264	63	5441
2026-01-13 08:27:35.78	87.18	17.25	-45.8	-49.5	14.7	0.00e+00	0	41	0	229638144	63	5413
2026-01-13 08:27:38.77	86.62	17.45	-45.5	-49.0	15.1	0.00e+00	0	41	0	234881024	63	5127
2026-01-13 08:27:41.75	86.05	17.66	-45.5	-48.9	15.2	7.00e-07	0	41	0	241172480	62	5387
2026-01-13 08:27:45.01	85.43	17.88	-45.3	-48.5	15.5	0.00e+00	0	41	0	247463936	62	5139
2026-01-13 08:27:47.80	84.88	18.07	-45.3	-48.6	15.5	0.00e+00	0	41	0	251658240	62	5172
2026-01-13 08:27:50.93	84.26	18.28	-45.3	-48.6	15.5	7.00e-07	0	41	0	257949696	62	5205
2026-01-13 08:27:53.77	83.69	18.46	-45.1	-48.3	15.8	0.00e+00	0	41	0	263192576	62	5007
2026-01-13 08:27:56.99	83.04	18.67	-44.9	-47.9	16.1	0.00e+00	0	41	0	269484032	61	5080
2026-01-13 08:27:59.83	82.46	18.86	-44.8	-47.7	16.3	0.00e+00	0	41	0	274726912	61	4983
2026-01-13 08:28:02.96	81.80	19.06	-44.6	-47.6	16.5	0.00e+00	0	41	0	281018368	60	5168
2026-01-13 08:28:05.80	81.20	19.24	-44.6	-47.6	16.5	0.00e+00	0	41	0	286261248	60	5166
2026-01-13 08:28:08.93	80.54	19.44	-45.1	-48.2	15.9	0.00e+00	0	41	0	291504128	60	5574
2026-01-13 08:28:11.85	79.90	19.62	-44.8	-47.7	16.4	0.00e+00	0	41	0	296747008	60	5277
2026-01-13 08:28:15.13	79.19	19.82	-44.9	-47.9	16.2	0.00e+00	0	41	0	303038464	60	5361
2026-01-13 08:28:17.90	78.57	19.99	-44.6	-47.4	16.7	0.00e+00	0	41	0	308281344	60	5072
2026-01-13 08:28:21.18	77.84	20.18	-44.4	-47.3	16.7	0.00e+00	0	41	0	314572800	60	5030
2026-01-13 08:28:24.10	77.17	20.35	-44.0	-46.8	17.2	0.00e+00	0	41	0	319815680	60	4709
2026-01-13 08:28:27.09	76.49	20.53	-44.0	-46.9	17.1	0.00e+00	0	41	0	326107136	60	4761
2026-01-13 08:28:30.07	75.79	20.69	-44.1	-46.8	17.1	0.00e+00	0	41	0	331350016	59	5016
2026-01-13 08:28:33.05	75.09	20.86	-44.0	-46.7	17.2	0.00e+00	0	41	0	336592896	59	4980
2026-01-13 08:28:36.04	74.39	21.02	-44.4	-47.3	16.7	0.00e+00	0	41	0	342884352	59	5298
2026-01-13 08:28:39.02	73.67	21.18	-44.6	-47.6	16.5	0.00e+00	0	41	0	348127232	60	5173
2026-01-13 08:28:42.01	72.95	21.33	-44.4	-47.3	16.8	0.00e+00	0	41	0	353370112	60	5011
2026-01-13 08:28:44.99	72.22	21.48	-44.5	-47.4	16.5	0.00e+00	0	41	0	359661568	60	5099
2026-01-13 08:28:47.98	71.48	21.63	-44.4	-47.3	16.8	0.00e+00	0	41	0	364904448	60	4991
2026-01-13 08:28:50.97	70.74	21.77	-44.2	-47.0	16.9	0.00e+00	0	41	0	371195904	60	4850
2026-01-13 08:28:53.95	69.99	21.91	-44.2	-47.0	17.0	0.00e+00	0	41	0	376438784	59	5119
2026-01-13 08:28:56.93	69.23	22.04	-44.0	-46.8	16.8	5.30e-06	0	41	0	381681664	59	4989
2026-01-13 08:28:59.97	68.45	22.17	-44.2	-47.0	16.6	5.50e-04	0	41	0	387973120	59	5146
2026-01-13 08:29:02.95	67.68	22.29	-44.9	-47.8	16.3	0.00e+00	0	41	0	393216000	60	5333
2026-01-13 08:29:05.93	66.91	22.41	-45.3	-48.6	15.5	0.00e+00	0	41	0	398458880	61	5483
2026-01-13 08:29:08.92	66.13	22.52	-45.8	-49.3	14.8	0.00e+00	0	41	0	404750336	62	5634
2026-01-13 08:29:11.90	65.34	22.63	-45.8	-49.2	15.0	0.00e+00	0	41	0	409993216	62	5556
2026-01-13 08:29:14.88	64.55	22.73	-45.4	-48.9	15.0	5.71e-03	0	41	0	415236096	62	5368
2026-01-13 08:29:17.84	63.76	22.83	-45.3	-48.5	15.5	1.10e-03	0	41	0	421527552	62	5119
2026-01-13 08:29:20.96	62.92	22.92	-45.2	-48.5	15.6	7.00e-07	0	41	0	426770432	62	5123
2026-01-13 08:29:23.81	62.15	23.00	-45.3	-48.6	15.5	0.00e+00	0	41	0	432013312	62	5210
2026-01-13 08:29:26.93	61.30	23.09	-45.6	-49.0	15.1	0.00e+00	0	41	0	438304768	62	5430
2026-01-13 08:29:29.77	60.53	23.15	-45.4	-48.6	15.5	0.00e+00	0	41	0	443547648	62	5218
2026-01-13 08:29:33.00	59.64	23.23	-45.9	-49.5	14.6	0.00e+00	0	41	0	449839104	62	5783
2026-01-13 08:29:35.84	58.86	23.29	-45.8	-49.4	14.7	0.00e+00	0	41	0	455081984	62	5715
2026-01-13 08:29:38.97	58.00	23.34	-45.8	-49.3	14.8	0.00e+00	0	41	0	460324864	62	5653
2026-01-13 08:29:41.80	57.21	23.39	-46.3	-50.2	13.9	4.50e-06	0	41	0	465567744	63	5913
2026-01-13 08:29:44.93	56.34	23.43	-46.5	-50.5	13.6	1.44e-05	0	41	0	471859200	63	6128
2026-01-13 08:29:47.86	55.52	23.47	-46.2	-50.0	14.1	3.80e-06	0	41	0	477102080	63	5763
2026-01-13 08:29:51.10	54.62	23.50	-45.2	-48.5	15.7	0.00e+00	0	41	0	483393536	62	5101
2026-01-13 08:29:53.94	53.82	23.52	-45.0	-48.2	15.8	0.00e+00	0	41	0	488636416	61	5273
2026-01-13 08:29:57.00	52.97	23.53	-45.3	-48.7	15.4	0.00e+00	0	41	0	494927872	61	5530
2026-01-13 08:29:59.99	52.13	23.54	-45.1	-48.4	15.7	0.00e+00	0	41	0	500170752	61	5371
2026-01-13 08:30:02.98	51.29	23.55	-45.2	-48.5	15.6	0.00e+00	0	41	0	505413632	61	5436
2026-01-13 08:30:05.96	50.46	23.54	-45.1	-48.3	15.7	0.00e+00	0	41	0	511705088	61	5332
2026-01-13 08:30:08.95	49.62	23.53	-45.0	-48.2	15.9	0.00e+00	0	41	0	516947968	61	5255
2026-01-13 08:30:11.93	48.78	23.51	-44.7	-47.7	16.3	0.00e+00	0	41	0	522190848	61	4981
2026-01-13 08:30:14.92	47.95	23.49	-45.1	-48.3	15.8	0.00e+00	0	41	0	528482304	61	5332
2026-01-13 08:30:17.90	47.12	23.46	-44.6	-47.5	16.6	0.00e+00	0	41	0	533725184	61	4835
2026-01-13 08:30:20.89	46.28	23.42	-44.4	-47.3	16.7	0.00e+00	0	41	0	538968064	60	5028
2026-01-13 08:30:23.87	45.46	23.38	-43.8	-46.5	17.5	0.00e+00	0	41	0	545259520	59	4825
2026-01-13 08:30:26.86	44.63	23.33	-43.5	-46.0	17.9	0.00e+00	0	41	0	550502400	58	4845
2026-01-13 08:30:29.84	43.81	23.27	-43.7	-46.2	17.8	0.00e+00	0	41	0	555745280	58	4959
2026-01-13 08:30:32.83	42.99	23.21	-44.1	-46.7	17.3	0.00e+00	0	41	0	562036736	58	5273
2026-01-13 08:30:35.81	42.17	23.14	-44.4	-47.1	16.9	0.00e+00	0	41	0	567279616	59	5177
2026-01-13 08:30:38.80	41.36	23.07	-44.2	-46.9	17.2	0.00e+00	0	41	0	572522496	59	5054
2026-01-13 08:30:41.78	40.55	22.99	-44.3	-47.0	17.0	0.00e+00	0	41	0	578813952	59	5134
2026-01-13 08:30:44.77	39.74	22.90	-44.9	-48.0	16.2	0.00e+00	0	41	0	584056832	60	5409
2026-01-13 08:30:47.76	38.94	22.81	-44.6	-47.5	16.6	0.00e+00	0	41	0	589299712	60	5105
2026-01-13 08:30:50.76	38.14	22.71	-44.8	-47.8	16.4	0.00e+00	0	41	0	595591168	60	5282
2026-01-13 08:30:53.75	37.35	22.61	-45.2	-48.4	15.7	0.00e+00	0	41	0	600834048	61	5386
2026-01-13 08:30:57.12	36.47	22.49	-45.6	-49.1	15.1	0.00e+00	0	41	0	607125504	61	5792
2026-01-13 08:30:59.84	35.76	22.38	-46.0	-49.7	14.5	0.00e+00	0	41	0	612368384	62	5892
2026-01-13 08:31:03.11	34.91	22.25	-45.6	-49.2	14.9	0.00e+00	0	41	0	618659840	62	5586
2026-01-13 08:31:05.91	34.19	22.14	-45.6	-49.3	14.8	7.00e-07	0	41	0	623902720	62	5610
2026-01-13 08:31:09.03	33.40	22.00	-45.7	-49.4	14.8	0.00e+00	0	41	0	629145600	62	5664
2026-01-13 08:31:11.88	32.68	21.87	-45.7	-49.4	14.7	7.00e-07	0	41	0	634388480	62	5709
2026-01-13 08:31:15.00	31.90	21.73	-45.3	-48.8	15.2	0.00e+00	0	41	0	640679936	62	5339
2026-01-13 08:31:17.85	31.20	21.59	-45.5	-49.1	15.1	0.00e+00	0	41	0	645922816	62	5465
2026-01-13 08:31:20.97	30.43	21.44	-45.3	-48.7	15.4	0.00e+00	0	41	0	652214272	62	5236
2026-01-13 08:31:23.82	29.74	21.30	-46.0	-49.8	14.4	0.00e+00	0	41	0	657457152	62	5961
2026-01-13 08:31:27.04	28.96	21.13	-45.9	-49.7	14.4	1.50e-06	0	41	0	663748608	62	5904
2026-01-13 08:31:29.94	28.27	20.98	-45.5	-49.0	15.1	0.00e+00	0	41	0	668991488	62	5418
2026-01-13 08:31:33.13	27.52	20.80	-46.2	-50.2	13.9	2.20e-06	0	41	0	674234368	63	5921
2026-01-13 08:31:35.97	26.86	20.65	-46.4	-50.6	13.4	1.98e-05	0	41	0	680525824	64	5838
2026-01-13 08:31:39.06	26.15	20.47	-45.6	-49.3	14.8	7.00e-07	0	41	0	685768704	63	5298
2026-01-13 08:31:42.05	25.47	20.30	-44.9	-48.4	15.7	0.00e+00	0	41	0	691011584	61	5362
2026-01-13 08:31:45.03	24.79	20.12	-44.9	-48.3	15.7	0.00e+00	0	41	0	697303040	61	5330
2026-01-13 08:31:48.01	24.13	19.95	-44.8	-48.0	16.0	0.00e+00	0	41	0	702545920	61	5156
2026-01-13 08:31:51.00	23.47	19.77	-44.3	-47.2	16.8	0.00e+00	0	41	0	707788800	60	4982
2026-01-13 08:31:53.98	22.83	19.58	-43.7	-46.4	17.5	0.00e+00	0	41	0	714080256	59	4778
2026-01-13 08:31:56.96	22.19	19.40	-44.1	-46.9	17.1	0.00e+00	0	41	0	719323136	59	5078
2026-01-13 08:31:59.95	21.55	19.21	-45.0	-48.3	15.8	0.00e+00	0	41	0	724566016	60	5656
2026-01-13 08:32:02.95	20.92	19.02	-45.4	-49.0	15.1	0.00e+00	0	41	0	730857472	61	5731
2026-01-13 08:32:05.97	20.30	18.83	-45.2	-48.8	15.3	0.00e+00	0	41	0	736100352	61	5649
2026-01-13 08:32:08.95	19.69	18.63	-45.0	-48.4	15.7	0.00e+00	0	41	0	741343232	61	5365
2026-01-13 08:32:11.93	19.09	18.44	-44.7	-48.0	16.1	0.00e+00	0	41	0	747634688	61	5123
2026-01-13 08:32:14.92	18.50	18.24	-44.3	-47.4	16.6	0.00e+00	0	41	0	752877568	60	5075
2026-01-13 08:32:17.90	17.91	18.04	-45.1	-48.5	15.6	0.00e+00	0	41	0	759169024	60	5759
2026-01-13 08:32:20.82	17.35	17.84	-45.2	-48.6	15.5	0.00e+00	0	41	0	764411904	61	5493
2026-01-13 08:32:23.96	16.75	17.63	-45.1	-48.3	15.8	0.00e+00	0	41	0	769654784	61	5293
2026-01-13 08:32:26.80	16.21	17.44	-45.6	-49.1	15.0	0.00e+00	0	41	0	774897664	61	5802
2026-01-13 08:32:29.92	15.63	17.23	-45.1	-48.4	15.6	0.00e+00	0	41	0	781189120	61	5367
2026-01-13 08:32:32.76	15.11	17.03	-44.7	-47.9	16.2	0.00e+00	0	41	0	786432000	61	5063
2026-01-13 08:32:36.24	14.49	16.79	-44.5	-47.6	16.4	0.00e+00	0	41	0	792723456	60	5189
2026-01-13 08:32:38.94	14.00	16.60	-44.6	-47.8	16.3	0.00e+00	0	41	0	797966336	60	5313
2026-01-13 08:32:42.21	13.43	16.38	-44.7	-48.2	15.8	0.00e+00	0	41	0	804257792	60	5568
2026-01-13 08:32:44.91	12.96	16.19	-44.5	-47.8	16.2	0.00e+00	0	41	0	809500672	60	5333
2026-01-13 08:32:48.15	12.41	15.96	-44.1	-46.8	17.1	0.00e+00	0	41	0	815792128	59	5030
2026-01-13 08:32:50.99	11.93	15.76	-43.9	-46.9	17.1	0.00e+00	0	41	0	821035008	59	5045
2026-01-13 08:32:54.32	11.38	15.53	-44.1	-47.3	16.7	0.00e+00	0	41	0	827326464	59	5305
2026-01-13 08:32:57.31	10.89	15.32	-44.5	-47.7	16.3	0.00e+00	0	41	0	832569344	59	5572
2026-01-13 08:33:00.30	10.41	15.11	-44.1	-47.3	16.6	0.00e+00	0	41	0	837812224	59	5310
2026-01-13 08:33:03.28	9.94	14.90	-43.6	-46.8	17.1	0.00e+00	0	41	0	844103680	59	5019
2026-01-13 08:33:06.27	9.47	14.69	-44.3	-47.5	16.4	0.00e+00	0	41	0	849346560	59	5431
2026-01-13 08:33:09.25	9.01	14.48	-45.0	-48.4	15.6	0.00e+00	0	41	0	854589440	60	5692
2026-01-13 08:33:12.24	8.56	14.27	-44.9	-48.4	15.6	0.00e+00	0	41	0	860880896	60	5712
2026-01-13 08:33:15.55	8.07	14.03	-44.7	-48.0	16.0	0.00e+00	0	41	0	867172352	60	5450
2026-01-13 08:33:18.27	7.67	13.84	-44.6	-47.8	16.2	0.00e+00	0	41	0	871366656	60	5290
2026-01-13 08:33:21.56	7.19	13.61	-44.4	-47.6	16.4	0.00e+00	0	41	0	877658112	60	5165
2026-01-13 08:33:24.26	6.80	13.42	-44.5	-48.1	15.9	0.00e+00	0	41	0	882900992	60	5480
2026-01-13 08:33:27.65	6.32	13.18	-45.1	-49.3	14.7	0.00e+00	0	41	0	889192448	60	6329
2026-01-13 08:33:30.43	5.94	12.98	-45.6	-49.6	14.4	0.00e+00	0	41	0	894435328	61	6178
2026-01-13 08:33:33.78	5.48	12.75	-45.0	-48.6	15.4	0.00e+00	0	41	0	900726784	61	5481
2026-01-13 08:33:36.50	5.11	12.56	-44.6	-48.1	15.9	0.00e+00	0	41	0	905969664	61	5186
2026-01-13 08:33:39.78	4.68	12.33	-44.8	-48.3	15.6	0.00e+00	0	41	0	912261120	61	5310
2026-01-13 08:33:42.56	4.31	12.14	-45.0	-48.3	15.6	0.00e+00	0	41	0	917504000	61	5305
2026-01-13 08:33:45.86	3.89	11.91	-44.8	-48.0	15.9	0.00e+00	0	41	0	923795456	61	5134
2026-01-13 08:33:48.66	3.53	11.71	-45.2	-48.6	15.3	0.00e+00	0	41	0	929038336	61	5502
2026-01-13 08:33:52.51	3.05	11.45	-45.5	-49.2	14.8	0.00e+00	0	41	0	936378368	61	5860
2026-01-13 08:33:55.36	2.70	11.25	-45.8	-49.5	14.5	0.00e+00	0	41	0	941621248	62	5740
2026-01-13 08:33:59.48	2.20	10.97	-45.2	-49.4	14.5	7.00e-07	0	40	0	948961280	62	5666
2026-01-13 08:34:02.43	1.85	10.77	-45.4	-50.2	13.7	3.00e-06	0	41	0	954204160	62	6249
2026-01-13 08:34:05.84	1.45	10.53	-46.1	-50.4	13.5	1.14e-05	0	41	0	960495616	63	6036
2026-01-13 08:34:08.84	1.10	10.33	-45.8	-49.7	14.1	2.20e-06	0	41	0	966787072	63	5566
2026-01-13 08:34:12.11	0.73	10.11	-45.4	-49.2	14.6	7.00e-07	0	41	0	973078528	62	5556
2026-01-13 08:34:14.87	0.42	9.92	-45.2	-49.3	14.6	0.00e+00	0	40	0	978321408	62	5598
2026-01-13 08:34:18.15	0.06	9.70	-45.3	-49.6	14.2	0.00e+00	0	41	0	984612864	62	5837
2026-01-13 08:34:20.87	359.77	9.52	-45.8	-50.2	13.6	4.50e-06	0	41	0	988807168	62	6229
2026-01-13 08:34:24.15	359.41	9.30	-45.5	-50.0	13.9	6.80e-06	0	41	0	995098624	62	6071
2026-01-13 08:34:26.90	359.12	9.11	-44.6	-49.6	14.2	1.50e-06	0	41	0	1000341504	61	6179
2026-01-13 08:34:30.23	358.78	8.89	-50.0	-65.2	3.8	1.49e+00	0	41	104	1004535808	70	22234
2026-01-13 08:34:32.94	358.50	8.71	-50.3	-65.7	3.8	1.49e+00	0	41	104	1004535808	71	22034
2026-01-13 08:34:36.22	358.17	8.50	-50.5	-65.8	3.8	1.49e+00	0	41	104	1004535808	71	22418
2026-01-13 08:34:39.01	357.89	8.32	-50.5	-65.8	3.8	1.49e+00	0	41	104	1004535808	71	22405
2026-01-13 08:34:42.26	357.57	8.10	-50.7	-65.8	3.8	1.49e+00	0	41	104	1004535808	71	22487
2026-01-13 08:34:45.35	357.27	7.90	-50.5	-65.8	3.8	1.49e+00	0	41	104	1004535808	72	21192
2026-01-13 08:34:48.54	356.96	7.70	-50.6	-65.8	3.8	1.49e+00	0	41	104	1004535808	72	21208
2026-01-13 08:34:51.37	356.69	7.51	-50.6	-65.9	3.8	1.49e+00	0	41	104	1004535808	72	21298
2026-01-13 08:34:54.49	356.40	7.31	-50.7	-65.8	3.8	1.49e+00	0	41	104	1004535808	72	21232
2026-01-13 08:34:57.33	356.14	7.13	-50.6	-65.8	3.8	1.49e+00	0	41	104	1004535808	72	21211
2026-01-13 08:35:00.45	355.86	6.93	-50.5	-65.8	3.8	1.49e+00	0	41	104	1004535808	72	21255
2026-01-13 08:35:03.29	355.61	6.75	-50.5	-65.8	3.8	1.49e+00	0	41	104	1004535808	72	21132
2026-01-13 08:35:06.42	355.33	6.56	-50.5	-65.8	3.8	1.49e+00	0	41	104	1004535808	72	21146
2026-01-13 08:35:09.25	355.08	6.38	-50.5	-65.8	3.8	1.49e+00	0	41	104	1004535808	72	21120
2026-01-13 08:35:12.38	354.82	6.18	-50.5	-65.8	3.8	1.49e+00	0	41	104	1004535808	72	21173
2026-01-13 08:35:15.21	354.58	6.00	-50.5	-65.8	3.8	1.49e+00	0	41	104	1004535808	72	21154
2026-01-13 08:35:18.33	354.32	5.81	-50.5	-65.8	3.8	1.49e+00	0	41	104	1004535808	72	21177
2026-01-13 08:35:21.17	354.08	5.64	-50.5	-65.8	3.8	1.49e+00	0	41	104	1004535808	72	21095
2026-01-13 08:35:24.29	353.83	5.44	-50.5	-65.8	3.8	1.49e+00	0	41	104	1004535808	72	21133
2026-01-13 08:35:27.13	353.60	5.27	-50.5	-65.8	3.8	1.49e+00	0	41	104	1004535808	72	21079
2026-01-13 08:35:30.25	353.35	5.08	-50.5	-65.8	3.8	1.49e+00	0	41	104	1004535808	72	21075

#Closed at: 2026-01-13 08:35:33
#Recorded file [1004 MB]: D:/Data/31040_260113_112435.dat