passes_logs/2026/01/13/T1/T1__20260113_100314_SUOMI_NPP_rec.log

#Pass ID: 20260113_100314_SUOMI NPP
#Satellite: SUOMI NPP
#Configuration: NPP
#almurnet v.1.7.20251203
#Start time: 2026-01-13 10:03:15

#Version: 2.0.20230620
#Station: T1
#Location: 37.570604 lon 55.790049 lat
#TLE: 1 37849U 11061A   26012.28456845  .00000093  00000+0  65163-4 0  9999
#TLE: 2 37849  98.7807 314.3566 0002508  68.3553 291.7890 14.19524725736322

#Time	Az	El	Level	Level2	SNR	BER	BlckErr	Temp	State	Recorded	gain1	gain2
2026-01-13 10:03:15.83	161.92	5.10	-49.8	-65.2	3.8	1.49e+00	0	39	0	0	71	20861
2026-01-13 10:03:19.79	161.94	5.39	-49.9	-65.3	3.8	1.49e+00	0	39	104	0	71	21145
2026-01-13 10:03:23.77	161.96	5.68	-49.8	-65.3	3.8	1.49e+00	0	39	104	0	71	21020
2026-01-13 10:03:27.74	161.97	5.98	-49.8	-64.9	3.8	1.49e+00	0	39	104	0	71	20255
2026-01-13 10:03:31.72	161.99	6.28	-49.8	-64.1	3.8	1.49e+00	0	39	104	0	71	18456
2026-01-13 10:03:35.69	162.01	6.58	-49.7	-62.1	4.1	1.47e+00	0	40	104	0	71	14628
2026-01-13 10:03:39.66	162.03	6.88	-49.4	-59.5	5.1	7.06e-01	0	40	0	4194304	70	11490
2026-01-13 10:03:43.64	162.05	7.19	-48.9	-56.9	7.1	2.04e-01	0	40	0	11534336	69	8967
2026-01-13 10:03:47.61	162.07	7.50	-48.5	-55.3	8.6	3.55e-02	0	40	0	18874368	69	7516
2026-01-13 10:03:51.59	162.09	7.82	-48.2	-54.3	9.7	3.91e-02	0	40	0	26214400	68	7054
2026-01-13 10:03:55.56	162.11	8.14	-48.5	-55.2	8.7	2.40e-02	0	40	0	33554432	68	7837
2026-01-13 10:03:59.54	162.13	8.46	-49.2	-58.2	5.4	2.68e-01	0	40	0	41943040	69	10461
2026-01-13 10:04:03.51	162.15	8.79	-49.8	-63.6	3.8	1.49e+00	0	40	104	46137344	70	18405
2026-01-13 10:04:07.48	162.17	9.13	-49.7	-61.5	3.9	1.49e+00	0	40	104	46137344	71	13634
2026-01-13 10:04:11.50	162.19	9.47	-49.9	-64.5	3.8	1.49e+00	0	40	104	46137344	71	19208
2026-01-13 10:04:15.47	162.21	9.81	-49.9	-62.6	3.9	1.49e+00	0	40	104	46137344	71	15405
2026-01-13 10:04:19.45	162.24	10.16	-49.9	-63.4	3.9	8.16e-02	0	41	0	47185920	70	17936
2026-01-13 10:04:23.43	162.26	10.51	-47.7	-52.8	11.3	1.20e-03	0	41	0	51380224	67	6305
2026-01-13 10:04:27.49	162.28	10.88	-47.5	-52.5	11.5	7.91e-04	0	41	0	58720256	66	6469
2026-01-13 10:04:31.54	162.30	11.25	-47.2	-51.8	12.2	1.07e-03	0	41	0	66060288	66	5990
2026-01-13 10:04:35.52	162.32	11.61	-46.6	-50.7	13.4	1.67e-05	0	41	0	73400320	64	5920
2026-01-13 10:04:39.50	162.35	11.99	-46.4	-50.3	13.8	3.80e-06	0	41	0	80740352	64	5620
2026-01-13 10:04:43.48	162.37	12.37	-46.4	-50.1	14.0	2.20e-06	0	41	0	88080384	64	5502
2026-01-13 10:04:47.40	162.39	12.75	-46.2	-49.9	14.2	1.50e-06	0	41	0	95420416	64	5375
2026-01-13 10:04:51.38	162.42	13.14	-46.3	-50.1	14.0	1.50e-06	0	41	0	102760448	64	5510
2026-01-13 10:04:55.36	162.44	13.54	-46.5	-50.4	13.8	5.30e-06	0	41	0	111149056	64	5692
2026-01-13 10:04:59.34	162.47	13.95	-46.4	-50.2	14.0	2.20e-06	0	41	0	118489088	64	5549
2026-01-13 10:05:03.38	162.49	14.37	-46.1	-49.7	14.5	7.00e-07	0	41	0	125829120	64	5234
2026-01-13 10:05:07.36	162.52	14.79	-45.8	-49.2	15.0	0.00e+00	0	41	0	133169152	63	5271
2026-01-13 10:05:11.34	162.54	15.21	-45.7	-49.0	15.2	0.00e+00	0	41	0	140509184	63	5157
2026-01-13 10:05:15.42	162.57	15.66	-45.8	-49.1	15.2	0.00e+00	0	41	0	147849216	63	5213
2026-01-13 10:05:19.40	162.60	16.10	-45.8	-49.2	15.1	7.00e-07	0	41	0	156237824	63	5268
2026-01-13 10:05:23.38	162.62	16.55	-45.7	-49.1	15.2	0.00e+00	0	41	0	163577856	63	5200
2026-01-13 10:05:27.36	162.65	17.01	-45.4	-48.6	15.7	0.00e+00	0	41	0	170917888	62	5194
2026-01-13 10:05:31.36	162.68	17.48	-45.3	-48.5	15.8	0.00e+00	0	41	0	178257920	62	5103
2026-01-13 10:05:35.42	162.71	17.97	-45.5	-48.6	15.8	0.00e+00	0	41	0	185597952	62	5172
2026-01-13 10:05:39.41	162.74	18.46	-45.3	-48.4	16.0	0.00e+00	0	41	0	192937984	62	5050
2026-01-13 10:05:43.51	162.77	18.97	-45.2	-48.2	16.2	0.00e+00	0	41	0	201326592	62	4945
2026-01-13 10:05:47.49	162.80	19.48	-44.9	-47.9	16.4	0.00e+00	0	41	0	208666624	61	5055
2026-01-13 10:05:51.85	162.83	20.05	-45.1	-48.1	15.6	0.00e+00	0	41	0	217055232	61	5182
2026-01-13 10:05:55.83	162.86	20.58	-45.1	-48.0	16.3	0.00e+00	0	41	0	224395264	61	5158
2026-01-13 10:05:59.90	162.90	21.13	-45.2	-48.1	16.2	0.00e+00	0	41	0	231735296	61	5196
2026-01-13 10:06:03.88	162.93	21.69	-45.1	-48.0	16.3	1.33e-02	0	41	0	239075328	61	5139
2026-01-13 10:06:07.96	162.96	22.27	-45.5	-48.7	15.7	0.00e+00	0	41	0	246415360	61	5575
2026-01-13 10:06:11.94	163.00	22.85	-45.7	-49.0	15.1	0.00e+00	0	41	0	254803968	62	5406
2026-01-13 10:06:15.92	163.03	23.44	-45.8	-49.1	15.3	0.00e+00	0	41	0	262144000	62	5485
2026-01-13 10:06:19.90	163.07	24.05	-45.8	-49.0	15.4	0.00e+00	0	41	0	269484032	62	5451
2026-01-13 10:06:24.26	163.11	24.73	-46.2	-49.6	14.9	0.00e+00	0	42	0	277872640	62	5850
2026-01-13 10:06:28.24	163.15	25.37	-46.0	-49.3	15.2	0.00e+00	0	41	0	285212672	63	5296
2026-01-13 10:06:32.24	163.19	26.03	-46.0	-49.3	15.2	0.00e+00	0	41	0	292552704	63	5290
2026-01-13 10:06:36.23	163.23	26.70	-46.3	-49.9	14.6	3.80e-06	0	41	0	299892736	63	5658
2026-01-13 10:06:40.46	163.28	27.43	-46.3	-49.7	14.7	6.71e-05	0	41	0	307232768	63	5586
2026-01-13 10:06:44.43	163.32	28.14	-46.1	-49.4	15.1	6.80e-06	0	41	0	315621376	63	5362
2026-01-13 10:06:48.41	163.37	28.86	-46.2	-49.6	14.9	6.10e-06	0	42	0	322961408	63	5491
2026-01-13 10:06:52.39	163.41	29.61	-46.3	-49.7	14.8	0.00e+00	0	42	0	330301440	63	5539
2026-01-13 10:06:56.40	163.46	30.38	-46.1	-49.5	15.0	7.00e-07	0	41	0	337641472	63	5452
2026-01-13 10:07:00.42	163.51	31.17	-46.4	-49.9	14.6	0.00e+00	0	42	0	344981504	63	5710
2026-01-13 10:07:04.39	163.56	31.98	-46.5	-50.0	14.4	1.50e-06	0	42	0	352321536	64	5447
2026-01-13 10:07:08.37	163.62	32.81	-46.7	-50.4	14.1	1.50e-06	0	41	0	359661568	64	5684
2026-01-13 10:07:12.32	163.67	33.65	-47.2	-51.3	13.1	3.96e-05	0	42	0	367001600	65	5989
2026-01-13 10:07:16.30	163.73	34.53	-46.2	-49.6	14.8	1.50e-06	0	41	0	375390208	64	5199
2026-01-13 10:07:20.28	163.79	35.43	-45.7	-48.8	15.7	0.00e+00	0	42	0	382730240	63	4992
2026-01-13 10:07:24.26	163.86	36.36	-45.2	-48.1	16.4	0.00e+00	0	42	0	390070272	62	4924
2026-01-13 10:07:28.35	163.93	37.35	-44.9	-47.8	16.7	0.00e+00	0	41	0	397410304	61	5008
2026-01-13 10:07:32.36	164.00	38.34	-45.1	-48.0	16.5	0.00e+00	0	42	0	404750336	61	5146
2026-01-13 10:07:36.35	164.07	39.36	-44.5	-47.1	17.4	0.00e+00	0	41	0	412090368	60	4887
2026-01-13 10:07:40.33	164.15	40.41	-44.7	-47.4	17.0	0.00e+00	0	41	0	419430400	60	5098
2026-01-13 10:07:44.30	164.23	41.48	-44.9	-47.6	16.9	0.00e+00	0	41	0	427819008	60	5218
2026-01-13 10:07:48.36	164.32	42.61	-45.0	-47.8	16.7	0.00e+00	0	42	0	435159040	61	5012
2026-01-13 10:07:52.37	164.42	43.77	-45.1	-47.9	16.6	0.00e+00	0	42	0	442499072	61	5071
2026-01-13 10:07:56.38	164.52	44.96	-45.8	-48.8	15.8	0.00e+00	0	42	0	449839104	62	5322
2026-01-13 10:08:00.38	164.62	46.18	-46.6	-50.1	14.4	0.00e+00	0	42	0	457179136	64	5479
2026-01-13 10:08:04.37	164.74	47.44	-46.7	-50.3	14.3	1.50e-06	0	42	0	465567744	64	5627
2026-01-13 10:08:08.68	164.87	48.84	-47.3	-51.4	13.2	2.51e-05	0	41	0	472907776	65	6027
2026-01-13 10:08:13.07	165.01	50.31	-46.5	-50.1	14.5	7.00e-07	0	42	0	481296384	65	5171
2026-01-13 10:08:17.31	165.17	51.78	-45.7	-48.8	15.8	0.00e+00	0	41	0	489684992	63	5001
2026-01-13 10:08:21.49	165.34	53.28	-44.7	-47.3	17.1	0.00e+00	0	42	0	497025024	61	4754
2026-01-13 10:08:25.47	165.51	54.74	-45.7	-48.9	15.8	0.00e+00	0	42	0	504365056	61	5662
2026-01-13 10:08:29.56	165.71	56.29	-44.2	-46.8	17.7	0.00e+00	0	42	0	512753664	60	4718
2026-01-13 10:08:33.54	165.92	57.84	-44.6	-47.3	17.2	0.00e+00	0	42	0	520093696	60	5025
2026-01-13 10:08:37.52	166.16	59.43	-45.6	-48.5	16.1	0.00e+00	0	42	0	527433728	62	5142
2026-01-13 10:08:41.50	166.43	61.07	-44.0	-46.5	17.9	0.00e+00	0	42	0	534773760	60	4546
2026-01-13 10:08:45.64	166.75	62.81	-42.7	-44.8	19.3	0.00e+00	0	42	0	542113792	57	4488
2026-01-13 10:08:49.62	167.10	64.52	-43.6	-46.0	18.4	0.00e+00	0	42	0	549453824	57	5108
2026-01-13 10:08:53.52	167.50	66.24	-44.4	-46.9	17.5	0.00e+00	0	42	0	556793856	59	5083
2026-01-13 10:08:57.49	167.97	68.03	-45.6	-48.5	16.1	0.00e+00	0	42	0	565182464	61	5462
2026-01-13 10:09:01.47	168.54	69.86	-47.6	-51.8	12.8	5.84e-04	0	42	0	572522496	67	5600
2026-01-13 10:09:05.45	169.23	71.72	-47.5	-51.6	13.0	4.65e-05	0	42	0	579862528	66	5832
2026-01-13 10:09:09.43	170.07	73.61	-45.3	-48.1	16.6	0.00e+00	0	42	0	587202560	62	4878
2026-01-13 10:09:13.41	171.16	75.53	-47.2	-51.1	13.6	6.10e-06	0	42	0	594542592	65	5792
2026-01-13 10:09:17.42	172.59	77.48	-45.6	-48.6	15.9	0.00e+00	0	42	0	601882624	63	4891
2026-01-13 10:09:21.35	174.53	79.41	-46.7	-50.2	14.4	1.50e-06	0	42	0	609222656	65	5252
2026-01-13 10:09:25.33	177.38	81.37	-47.6	-51.7	12.9	9.10e-06	0	42	0	616562688	65	6254
2026-01-13 10:09:29.30	181.89	83.30	-48.0	-52.7	11.9	7.32e-04	0	42	0	623902720	67	6265
2026-01-13 10:09:33.30	190.09	85.18	-46.7	-50.2	14.3	7.00e-07	0	42	0	632291328	64	5579
2026-01-13 10:09:37.31	207.92	86.86	-47.9	-52.5	12.2	9.10e-06	0	42	0	639631360	66	6434
2026-01-13 10:09:41.32	249.17	87.76	-47.7	-52.1	12.5	7.51e-04	0	42	0	646971392	67	5800
2026-01-13 10:09:45.59	295.41	86.95	-47.2	-51.1	13.6	0.00e+00	0	42	0	655360000	65	5840
2026-01-13 10:09:49.79	314.79	85.21	-46.7	-50.2	14.3	3.80e-06	0	42	0	662700032	65	5270
2026-01-13 10:09:54.29	323.78	83.09	-46.4	-49.8	14.8	0.00e+00	0	42	0	671088640	64	5312
2026-01-13 10:09:58.84	328.52	80.87	-46.4	-49.7	14.8	3.80e-06	0	42	0	679477248	64	5244
2026-01-13 10:10:03.39	331.39	78.64	-48.4	-53.6	11.0	4.27e-04	0	42	0	687865856	67	6928
2026-01-13 10:10:08.03	333.33	76.37	-45.9	-48.9	15.7	0.00e+00	0	42	0	697303040	63	5084
2026-01-13 10:10:12.01	334.54	74.45	-47.5	-51.5	13.1	9.90e-06	0	42	0	704643072	65	6073
2026-01-13 10:10:15.99	335.48	72.55	-48.1	-52.9	11.7	1.69e-04	0	42	0	711983104	67	6400
2026-01-13 10:10:19.97	336.23	70.68	-48.9	-54.1	10.7	2.35e-03	0	42	0	719323136	68	6957
2026-01-13 10:10:23.95	336.85	68.84	-46.0	-49.1	15.5	0.00e+00	0	42	0	726663168	63	5197
2026-01-13 10:10:27.88	337.35	67.06	-47.4	-51.3	13.3	7.00e-07	0	42	0	734003200	65	5970
2026-01-13 10:10:31.86	337.79	65.29	-46.1	-49.6	15.2	0.00e+00	0	42	0	741343232	64	5165
2026-01-13 10:10:35.84	338.16	63.56	-46.2	-49.5	15.2	0.00e+00	0	42	0	748683264	63	5464
2026-01-13 10:10:39.82	338.48	61.87	-44.1	-46.6	17.9	0.00e+00	0	42	0	756023296	59	4884
2026-01-13 10:10:43.80	338.77	60.23	-47.7	-52.0	12.7	2.01e-04	0	42	0	764411904	66	6078
2026-01-13 10:10:47.78	339.02	58.62	-45.6	-48.6	16.1	0.00e+00	0	42	0	771751936	62	5200
2026-01-13 10:10:51.76	339.25	57.06	-44.9	-47.6	17.1	0.00e+00	0	42	0	779091968	61	4891
2026-01-13 10:10:55.79	339.45	55.51	-45.4	-48.3	16.4	0.00e+00	0	42	0	786432000	62	5010
2026-01-13 10:10:59.78	339.64	54.03	-46.4	-49.8	15.0	0.00e+00	0	42	0	793772032	63	5609
2026-01-13 10:11:03.76	339.81	52.59	-46.1	-49.3	15.5	0.00e+00	0	42	0	801112064	63	5282
2026-01-13 10:11:07.76	339.96	51.19	-47.5	-51.7	13.0	2.82e-05	0	42	0	808452096	65	6232
2026-01-13 10:11:11.75	340.10	49.83	-46.0	-49.1	15.6	0.00e+00	0	42	0	816840704	63	5180
2026-01-13 10:11:15.73	340.23	48.51	-48.0	-52.9	11.6	4.19e-05	0	42	0	824180736	66	6772
2026-01-13 10:11:19.72	340.35	47.23	-44.8	-47.6	16.9	0.00e+00	0	42	0	831520768	61	4884
2026-01-13 10:11:23.71	340.47	45.98	-46.2	-49.4	15.4	0.00e+00	0	42	0	838860800	63	5371
2026-01-13 10:11:27.84	340.58	44.74	-46.4	-50.0	14.5	0.00e+00	0	42	0	846200832	64	5456
2026-01-13 10:11:32.11	340.68	43.48	-44.3	-46.9	17.6	0.00e+00	0	42	0	854589440	60	4793
2026-01-13 10:11:36.09	340.77	42.35	-46.8	-50.5	14.2	0.00e+00	0	42	0	861929472	64	5739
2026-01-13 10:11:40.16	340.86	41.23	-47.2	-51.1	13.4	1.29e-05	0	42	0	869269504	66	5504
2026-01-13 10:11:44.14	340.95	40.17	-46.6	-50.0	14.6	7.00e-07	0	42	0	877658112	64	5452
2026-01-13 10:11:48.23	341.03	39.11	-48.1	-52.9	11.7	1.02e-04	0	42	0	884998144	66	6767
2026-01-13 10:11:52.21	341.10	38.11	-49.9	-58.2	6.6	1.49e-01	0	42	0	892338176	70	9874
2026-01-13 10:11:56.19	341.17	37.14	-48.6	-54.2	10.2	4.33e-03	0	42	0	899678208	68	6972
2026-01-13 10:12:00.17	341.24	36.19	-47.5	-51.8	12.8	2.25e-04	0	42	0	907018240	67	5614
2026-01-13 10:12:04.23	341.31	35.25	-47.5	-51.9	12.8	5.18e-05	0	42	0	914358272	66	6019
2026-01-13 10:12:08.21	341.37	34.36	-49.5	-57.1	7.6	4.13e-02	0	42	0	922746880	69	9255
2026-01-13 10:12:12.33	341.43	33.47	-49.3	-55.7	8.8	3.02e-02	0	42	0	930086912	69	7840
2026-01-13 10:12:16.31	341.49	32.63	-48.5	-53.9	10.7	4.95e-03	0	42	0	937426944	69	6377
2026-01-13 10:12:20.29	341.54	31.81	-46.5	-50.1	14.4	1.50e-06	0	42	0	944766976	65	5215
2026-01-13 10:12:24.27	341.60	31.01	-46.8	-50.7	13.9	7.00e-07	0	42	0	952107008	64	5918
2026-01-13 10:12:28.33	341.65	30.22	-48.2	-53.5	11.1	1.37e-03	0	42	0	960495616	67	6844
2026-01-13 10:12:32.32	341.70	29.46	-48.2	-53.2	11.4	8.85e-04	0	42	0	967835648	67	6572
2026-01-13 10:12:36.30	341.75	28.73	-46.9	-50.7	13.9	1.14e-05	0	42	0	975175680	65	5574
2026-01-13 10:12:40.28	341.79	28.02	-46.0	-49.4	15.3	0.00e+00	0	42	0	982515712	63	5344
2026-01-13 10:12:44.26	341.84	27.32	-45.8	-48.8	15.8	0.00e+00	0	42	0	989855744	63	5033
2026-01-13 10:12:48.32	341.88	26.62	-45.4	-48.4	16.2	0.00e+00	0	42	0	997195776	62	5066
2026-01-13 10:12:52.30	341.93	25.96	-45.1	-47.9	16.7	0.00e+00	0	42	0	1004535808	62	4814
2026-01-13 10:12:56.28	341.97	25.31	-45.2	-48.1	16.5	0.00e+00	0	42	0	1012924416	61	5190
2026-01-13 10:13:00.25	342.01	24.68	-45.4	-48.6	16.1	0.00e+00	0	42	0	1020264448	61	5479
2026-01-13 10:13:04.23	342.05	24.07	-45.2	-48.3	16.3	0.00e+00	0	42	0	1027604480	61	5316
2026-01-13 10:13:08.24	342.09	23.46	-44.5	-47.2	17.3	0.00e+00	0	42	0	1034944512	60	4981
2026-01-13 10:13:12.56	342.13	22.82	-44.0	-46.8	17.7	0.00e+00	0	42	0	1043333120	60	4714
2026-01-13 10:13:16.55	342.17	22.25	-44.1	-47.1	17.4	0.00e+00	0	42	0	1050673152	59	5169
2026-01-13 10:13:20.53	342.20	21.69	-44.5	-47.6	16.8	0.00e+00	0	42	0	1058013184	59	5507
2026-01-13 10:13:24.51	342.24	21.14	-45.0	-47.9	16.6	0.00e+00	0	42	0	1065353216	60	5402
2026-01-13 10:13:28.49	342.27	20.60	-45.3	-48.2	16.3	0.00e+00	0	42	0	1072693248	61	5276
2026-01-13 10:13:32.39	342.31	20.09	-45.2	-48.4	16.1	0.00e+00	0	42	0	1080033280	61	5350
2026-01-13 10:13:36.37	342.34	19.57	-45.3	-48.4	16.2	0.00e+00	0	42	0	1087373312	61	5367
2026-01-13 10:13:40.35	342.37	19.07	-45.2	-48.1	16.4	0.00e+00	0	42	0	1094713344	61	5194
2026-01-13 10:13:44.33	342.41	18.57	-45.1	-48.0	16.5	0.00e+00	0	42	0	1102053376	61	5118
2026-01-13 10:13:48.31	342.44	18.09	-44.9	-47.8	16.7	0.00e+00	0	42	0	1110441984	61	4985
2026-01-13 10:13:52.30	342.47	17.61	-45.3	-48.3	16.1	0.00e+00	0	42	0	1117782016	61	5324
2026-01-13 10:13:56.28	342.50	17.14	-45.1	-48.3	16.2	0.00e+00	0	42	0	1125122048	61	5284
2026-01-13 10:14:00.55	342.53	16.65	-45.0	-48.3	16.1	0.00e+00	0	42	0	1132462080	61	5336
2026-01-13 10:14:04.74	342.57	16.18	-45.0	-48.4	16.0	0.00e+00	0	42	0	1140850688	61	5388
2026-01-13 10:14:08.73	342.60	15.74	-45.0	-48.7	15.7	0.00e+00	0	42	0	1148190720	61	5571
2026-01-13 10:14:12.76	342.62	15.30	-44.9	-48.7	15.8	0.00e+00	0	42	0	1155530752	61	5538
2026-01-13 10:14:16.76	342.65	14.88	-45.3	-49.1	15.3	7.00e-07	0	42	0	1162870784	61	5823
2026-01-13 10:14:20.74	342.68	14.46	-45.5	-49.4	15.0	0.00e+00	0	42	0	1171259392	61	6022
2026-01-13 10:14:24.96	342.71	14.02	-45.4	-49.5	14.9	0.00e+00	0	42	0	1178599424	61	6096
2026-01-13 10:14:28.97	342.74	13.62	-45.2	-49.4	15.0	7.00e-07	0	42	0	1185939456	61	6030
2026-01-13 10:14:33.06	342.77	13.21	-45.1	-49.1	15.3	0.00e+00	0	42	0	1194328064	61	5815
2026-01-13 10:14:37.05	342.80	12.82	-45.3	-49.2	15.2	0.00e+00	0	42	0	1201668096	61	5882
2026-01-13 10:14:41.05	342.82	12.44	-45.3	-48.9	15.4	0.00e+00	0	42	0	1209008128	61	5657
2026-01-13 10:14:45.03	342.85	12.06	-45.4	-48.9	15.4	0.00e+00	0	42	0	1216348160	61	5658
2026-01-13 10:14:49.07	342.88	11.68	-45.5	-48.9	15.4	0.00e+00	0	42	0	1223688192	61	5663
2026-01-13 10:14:53.14	342.90	11.31	-45.6	-49.1	15.1	0.00e+00	0	42	0	1231028224	61	5850
2026-01-13 10:14:57.23	342.93	10.94	-45.5	-49.2	15.0	0.00e+00	0	42	0	1239416832	61	5893
2026-01-13 10:15:01.13	342.96	10.59	-45.5	-49.3	14.9	0.00e+00	0	42	0	1246756864	61	5943
2026-01-13 10:15:05.11	342.98	10.24	-45.5	-49.1	15.0	0.00e+00	0	42	0	1254096896	61	5849
2026-01-13 10:15:09.12	343.01	9.89	-45.5	-49.2	15.0	0.00e+00	0	42	0	1261436928	61	5900
2026-01-13 10:15:13.65	343.04	9.50	-45.4	-49.3	14.8	7.00e-07	0	42	0	1269825536	61	5969
2026-01-13 10:15:17.87	343.06	9.15	-45.0	-49.1	15.0	7.00e-07	0	42	0	1278214144	61	5854
2026-01-13 10:15:22.21	343.09	8.79	-50.2	-65.8	3.8	1.49e+00	0	42	104	1281359872	71	22429
2026-01-13 10:15:26.20	343.11	8.46	-50.2	-66.1	3.8	1.49e+00	0	43	104	1281359872	72	21916
2026-01-13 10:15:30.23	343.14	8.14	-50.6	-66.2	3.8	1.49e+00	0	42	104	1281359872	72	22085
2026-01-13 10:15:34.28	343.16	7.81	-51.0	-66.2	3.8	1.49e+00	0	42	104	1281359872	72	22248
2026-01-13 10:15:38.31	343.19	7.50	-51.2	-66.3	3.8	1.49e+00	0	42	104	1281359872	72	22300
2026-01-13 10:15:42.36	343.21	7.18	-51.1	-66.3	3.8	1.49e+00	0	42	104	1281359872	72	22367
2026-01-13 10:15:46.40	343.24	6.87	-51.0	-66.3	3.8	1.49e+00	0	42	104	1281359872	72	22347
2026-01-13 10:15:50.39	343.26	6.57	-51.0	-66.3	3.8	1.49e+00	0	42	104	1281359872	72	22327
2026-01-13 10:15:54.38	343.28	6.27	-51.0	-66.2	3.8	1.49e+00	0	42	104	1281359872	72	22259
2026-01-13 10:15:58.35	343.31	5.97	-51.0	-66.3	3.8	1.49e+00	0	42	104	1281359872	72	22275
2026-01-13 10:16:02.34	343.33	5.68	-51.0	-66.3	3.8	1.49e+00	0	42	104	1281359872	72	22309
2026-01-13 10:16:06.31	343.35	5.39	-51.0	-66.3	3.8	1.49e+00	0	42	104	1281359872	72	22438
2026-01-13 10:16:10.31	343.38	5.11	-51.0	-66.3	3.8	1.49e+00	0	42	104	1281359872	72	22358

#Closed at: 2026-01-13 10:16:13
#Recorded file [1281 MB]: D:/Data/31040_260113_130315.dat