passes_logs/2026/01/13/T1/T1__20260113_092025_KHAYYAM_rec.log

#Pass ID: 20260113_092025_KHAYYAM
#Satellite: KHAYYAM
#Configuration: KHAYYAM_480M
#almurnet v.1.7.20251203
#Start time: 2026-01-13 09:20:24

#Version: 2.0.20230620
#Station: T1
#Location: 37.570604 lon 55.790049 lat
#TLE: 1 53370U 22096A   26012.26586461  .00006533  00000+0  26633-3 0  9995
#TLE: 2 53370  97.3559 279.3255 0001355  93.9277 266.2116 15.24785034190825

#Time	Az	El	Level	Level2	SNR	BER	BlckErr	Temp	State	Recorded	gain1	gain2
2026-01-13 09:20:24.68	225.26	4.84	-53.1	-57.4	3.6	0.00e+00	0	41	0	0	76	25451
2026-01-13 09:20:26.66	225.56	4.96	-52.8	-56.9	3.7	0.00e+00	0	41	104	0	76	24183
2026-01-13 09:20:28.65	225.86	5.07	-52.6	-56.5	3.7	0.00e+00	0	42	104	0	76	23106
2026-01-13 09:20:30.64	226.17	5.19	-52.6	-56.6	3.7	0.00e+00	0	42	104	0	76	23259
2026-01-13 09:20:32.62	226.48	5.30	-52.8	-56.9	3.7	0.00e+00	0	42	104	0	76	24063
2026-01-13 09:20:34.61	226.79	5.41	-53.0	-57.2	3.7	0.00e+00	0	42	104	0	76	24913
2026-01-13 09:20:36.60	227.10	5.53	-53.1	-57.3	3.7	0.00e+00	0	42	104	0	76	25227
2026-01-13 09:20:38.58	227.42	5.64	-53.0	-57.3	3.7	0.00e+00	0	42	104	0	76	25235
2026-01-13 09:20:40.57	227.74	5.76	-53.0	-57.2	3.7	0.00e+00	0	42	104	0	76	24901
2026-01-13 09:20:42.56	228.07	5.87	-52.9	-57.0	3.7	0.00e+00	0	43	104	0	76	24519
2026-01-13 09:20:44.54	228.40	5.99	-52.9	-57.0	3.7	0.00e+00	0	43	104	0	76	24293
2026-01-13 09:20:46.53	228.73	6.10	-52.9	-57.1	3.7	0.00e+00	0	43	104	0	76	24653
2026-01-13 09:20:48.52	229.06	6.22	-53.0	-57.2	3.7	0.00e+00	0	43	104	0	76	25094
2026-01-13 09:20:50.50	229.40	6.33	-53.1	-57.3	3.7	0.00e+00	0	43	104	0	76	25344
2026-01-13 09:20:52.49	229.74	6.44	-53.1	-57.4	3.7	0.00e+00	0	43	104	0	76	25527
2026-01-13 09:20:54.48	230.08	6.56	-53.1	-57.4	3.7	0.00e+00	0	44	104	0	76	25499
2026-01-13 09:20:56.46	230.43	6.67	-53.1	-57.4	3.7	0.00e+00	0	44	104	0	76	25463
2026-01-13 09:20:58.45	230.78	6.79	-53.1	-57.4	3.7	0.00e+00	0	44	104	0	76	25459
2026-01-13 09:21:00.44	231.14	6.90	-53.1	-57.4	3.7	0.00e+00	0	44	104	0	76	25538
2026-01-13 09:21:02.43	231.49	7.02	-53.1	-57.4	3.7	0.00e+00	0	44	104	0	76	25401
2026-01-13 09:21:04.41	231.85	7.13	-53.1	-57.4	3.7	0.00e+00	0	44	104	0	76	25464
2026-01-13 09:21:06.40	232.22	7.24	-53.1	-57.3	3.7	0.00e+00	0	44	104	0	76	25348
2026-01-13 09:21:08.39	232.59	7.36	-53.1	-57.3	3.7	0.00e+00	0	44	104	0	76	25373
2026-01-13 09:21:10.37	232.96	7.47	-53.1	-57.4	3.7	0.00e+00	0	44	104	0	76	25461
2026-01-13 09:21:12.36	233.33	7.58	-53.1	-57.4	3.7	0.00e+00	0	44	104	0	76	25590
2026-01-13 09:21:14.34	233.71	7.70	-53.1	-57.4	3.7	0.00e+00	0	44	104	0	76	25589
2026-01-13 09:21:16.33	234.10	7.81	-53.1	-57.4	3.7	0.00e+00	0	45	104	0	76	25573
2026-01-13 09:21:18.32	234.48	7.92	-53.1	-57.4	3.7	0.00e+00	0	45	104	0	76	25516
2026-01-13 09:21:20.30	234.87	8.03	-53.1	-57.4	3.7	0.00e+00	0	45	104	0	76	25580
2026-01-13 09:21:22.29	235.26	8.15	-53.1	-57.4	3.7	0.00e+00	0	45	104	0	76	25458
2026-01-13 09:21:24.28	235.66	8.26	-53.1	-57.4	3.7	0.00e+00	0	45	104	0	76	25425
2026-01-13 09:21:26.27	236.06	8.37	-53.1	-57.4	3.6	0.00e+00	0	45	104	0	76	25479
2026-01-13 09:21:28.25	236.47	8.48	-53.1	-57.4	3.7	0.00e+00	0	45	104	0	76	25533
2026-01-13 09:21:30.24	236.88	8.59	-53.1	-57.4	3.7	0.00e+00	0	45	104	0	76	25581
2026-01-13 09:21:32.22	237.29	8.70	-53.1	-57.4	3.7	0.00e+00	0	45	104	0	76	25588
2026-01-13 09:21:34.21	237.70	8.81	-53.1	-57.4	3.7	0.00e+00	0	45	104	0	76	25533
2026-01-13 09:21:36.20	238.12	8.92	-53.1	-57.4	3.7	0.00e+00	0	45	104	0	76	25485
2026-01-13 09:21:38.18	238.55	9.03	-53.1	-57.4	3.7	0.00e+00	0	45	104	0	76	25618
2026-01-13 09:21:40.17	238.97	9.13	-53.2	-57.6	3.7	0.00e+00	0	45	104	0	77	24639
2026-01-13 09:21:42.16	239.41	9.24	-53.2	-57.7	3.7	0.00e+00	0	45	104	0	77	24855
2026-01-13 09:21:44.12	239.84	9.35	-53.1	-57.6	3.7	0.00e+00	0	45	104	0	77	24795
2026-01-13 09:21:46.11	240.28	9.45	-53.2	-57.7	3.7	0.00e+00	0	46	104	0	77	25004
2026-01-13 09:21:48.10	240.72	9.56	-53.2	-57.6	3.7	0.00e+00	0	45	104	0	77	24593
2026-01-13 09:21:50.09	241.17	9.66	-53.4	-57.8	3.7	0.00e+00	0	46	104	0	77	25124
2026-01-13 09:21:52.08	241.62	9.77	-53.3	-57.7	3.7	0.00e+00	0	46	104	0	77	24866
2026-01-13 09:21:54.07	242.07	9.87	-53.3	-57.8	3.7	0.00e+00	0	46	104	0	77	25198
2026-01-13 09:21:56.07	242.53	9.98	-53.3	-57.6	3.7	0.00e+00	0	46	104	0	77	24761
2026-01-13 09:21:58.14	243.02	10.08	-53.3	-57.7	3.7	0.00e+00	0	46	104	0	77	24910
2026-01-13 09:22:00.18	243.50	10.19	-53.3	-57.7	3.7	0.00e+00	0	46	104	0	77	24871
2026-01-13 09:22:02.17	243.97	10.29	-53.4	-57.8	3.7	0.00e+00	0	46	104	0	77	25231
2026-01-13 09:22:04.16	244.44	10.38	-53.3	-57.7	3.7	0.00e+00	0	46	104	0	77	25035
2026-01-13 09:22:06.22	244.94	10.49	-53.2	-57.4	3.7	0.00e+00	0	46	104	0	77	24150
2026-01-13 09:22:08.21	245.42	10.58	-53.1	-57.2	3.7	0.00e+00	0	46	104	0	77	23668
2026-01-13 09:22:10.23	245.91	10.68	-53.4	-57.8	3.7	0.00e+00	0	46	104	0	77	25230
2026-01-13 09:22:12.25	246.41	10.78	-53.3	-57.8	3.7	0.00e+00	0	46	104	0	77	25152
2026-01-13 09:22:14.24	246.91	10.87	-53.3	-57.8	3.7	0.00e+00	0	46	104	0	77	25378
2026-01-13 09:22:16.24	247.41	10.96	-53.3	-57.8	3.7	0.00e+00	0	46	104	0	77	25375
2026-01-13 09:22:18.23	247.91	11.05	-53.5	-57.9	3.7	0.00e+00	0	46	104	0	77	25592
2026-01-13 09:22:20.22	248.41	11.14	-53.5	-57.8	3.7	0.00e+00	0	46	104	0	77	25372
2026-01-13 09:22:22.23	248.93	11.23	-53.4	-57.7	3.7	0.00e+00	0	46	104	0	77	25085
2026-01-13 09:22:24.23	249.44	11.32	-53.3	-57.7	3.7	0.00e+00	0	46	104	0	77	24902
2026-01-13 09:22:26.47	250.03	11.42	-53.1	-57.6	3.7	0.00e+00	0	46	104	0	77	24745
2026-01-13 09:22:28.48	250.55	11.50	-53.2	-57.7	3.7	0.00e+00	0	46	104	0	77	25006
2026-01-13 09:22:30.47	251.08	11.59	-53.4	-57.9	3.7	0.00e+00	0	46	104	0	77	25418
2026-01-13 09:22:32.48	251.61	11.67	-53.5	-57.9	3.7	0.00e+00	0	46	104	0	77	25537
2026-01-13 09:22:34.50	252.15	11.75	-53.5	-58.0	3.7	0.00e+00	0	46	104	0	77	25834
2026-01-13 09:22:36.50	252.69	11.83	-53.4	-57.9	3.7	0.00e+00	0	46	104	0	77	25477
2026-01-13 09:22:38.60	253.25	11.91	-53.2	-57.6	3.7	0.00e+00	0	46	104	0	77	24562
2026-01-13 09:22:40.78	253.85	11.99	-53.0	-57.1	3.7	0.00e+00	0	46	104	0	77	23385
2026-01-13 09:22:42.83	254.41	12.07	-52.9	-56.9	3.7	0.00e+00	0	46	104	0	77	22863
2026-01-13 09:22:44.79	254.95	12.14	-53.0	-57.3	3.7	0.00e+00	0	46	104	0	77	23709
2026-01-13 09:22:46.78	255.50	12.21	-53.0	-57.4	3.7	0.00e+00	0	46	104	0	77	24188
2026-01-13 09:22:48.77	256.06	12.27	-53.1	-57.7	3.7	0.00e+00	0	46	104	0	77	24979
2026-01-13 09:22:50.76	256.61	12.34	-53.2	-57.7	3.7	0.00e+00	0	46	104	0	77	24899
2026-01-13 09:22:52.75	257.17	12.40	-53.1	-57.4	3.7	0.00e+00	0	46	104	0	77	24054
2026-01-13 09:22:54.74	257.74	12.46	-53.0	-57.4	3.7	0.00e+00	0	46	104	0	77	24011
2026-01-13 09:22:56.78	258.32	12.53	-52.9	-57.2	3.7	0.00e+00	0	46	104	0	77	23576
2026-01-13 09:22:58.88	258.92	12.59	-52.9	-57.2	3.7	0.00e+00	0	46	104	0	77	23563
2026-01-13 09:23:00.87	259.49	12.64	-53.0	-57.4	3.7	0.00e+00	0	46	104	0	77	24096
2026-01-13 09:23:02.97	260.09	12.70	-52.8	-57.2	3.7	0.00e+00	0	46	104	0	77	23650
2026-01-13 09:23:05.00	260.68	12.75	-52.9	-57.3	3.7	0.00e+00	0	46	104	0	77	23833
2026-01-13 09:23:07.00	261.26	12.80	-52.8	-57.3	3.7	0.00e+00	0	46	104	0	77	23953
2026-01-13 09:23:08.99	261.84	12.85	-53.1	-57.6	3.7	0.00e+00	0	46	104	0	77	24670
2026-01-13 09:23:11.00	262.43	12.89	-53.2	-57.8	3.7	0.00e+00	0	46	104	0	77	25152
2026-01-13 09:23:12.99	263.02	12.93	-53.3	-57.8	3.7	0.00e+00	0	46	104	0	77	25184
2026-01-13 09:23:15.10	263.64	12.97	-53.2	-57.6	3.7	0.00e+00	0	46	104	0	77	24785
2026-01-13 09:23:17.25	264.28	13.01	-52.8	-57.4	3.7	0.00e+00	0	46	104	0	77	24065
2026-01-13 09:23:19.24	264.87	13.05	-52.9	-57.5	3.7	0.00e+00	0	47	104	0	77	24377
2026-01-13 09:23:21.24	265.46	13.08	-53.3	-57.6	3.7	0.00e+00	0	46	104	0	77	24713
2026-01-13 09:23:23.23	266.06	13.11	-53.4	-57.7	3.7	0.00e+00	0	46	104	0	77	25023
2026-01-13 09:23:25.24	266.66	13.14	-53.0	-57.3	3.7	0.00e+00	0	46	104	0	77	23816
2026-01-13 09:23:27.24	267.26	13.16	-53.1	-57.5	3.7	0.00e+00	0	46	104	0	77	24312
2026-01-13 09:23:29.23	267.85	13.19	-53.2	-57.6	3.7	0.00e+00	0	46	104	0	77	24585
2026-01-13 09:23:31.28	268.47	13.21	-53.1	-57.4	3.7	0.00e+00	0	46	104	0	77	24217
2026-01-13 09:23:33.29	269.07	13.23	-53.1	-57.6	3.7	0.00e+00	0	47	104	0	77	24531
2026-01-13 09:23:35.28	269.67	13.24	-53.1	-57.5	3.7	0.00e+00	0	47	104	0	77	24356
2026-01-13 09:23:37.27	270.27	13.25	-53.3	-57.8	3.7	0.00e+00	0	47	104	0	77	25162
2026-01-13 09:23:39.25	270.87	13.26	-53.3	-57.8	3.7	0.00e+00	0	47	104	0	77	25165
2026-01-13 09:23:41.25	271.48	13.27	-53.0	-57.8	3.7	0.00e+00	0	47	104	0	77	25208
2026-01-13 09:23:43.24	272.08	13.28	-53.0	-57.7	3.7	0.00e+00	0	47	104	0	77	24967
2026-01-13 09:23:45.23	272.68	13.28	-53.4	-57.8	3.7	0.00e+00	0	47	104	0	77	25194
2026-01-13 09:23:47.22	273.28	13.28	-53.3	-57.8	3.7	0.00e+00	0	46	104	0	77	25154
2026-01-13 09:23:49.55	273.99	13.28	-53.1	-57.4	3.7	0.00e+00	0	47	104	0	77	24225
2026-01-13 09:23:51.54	274.59	13.27	-53.2	-57.5	3.7	0.00e+00	0	47	104	0	77	24464
2026-01-13 09:23:53.53	275.19	13.26	-53.2	-57.6	3.7	0.00e+00	0	47	104	0	77	24801
2026-01-13 09:23:55.52	275.79	13.25	-53.4	-57.7	3.7	0.00e+00	0	47	104	0	77	24937
2026-01-13 09:23:57.51	276.39	13.24	-53.3	-57.8	3.7	0.00e+00	0	47	104	0	77	25314
2026-01-13 09:23:59.50	276.99	13.22	-53.2	-57.8	3.7	0.00e+00	0	47	104	0	77	25106
2026-01-13 09:24:01.49	277.59	13.20	-53.1	-57.5	3.7	0.00e+00	0	47	104	0	77	24396
2026-01-13 09:24:03.48	278.18	13.18	-52.9	-57.4	3.7	0.00e+00	0	47	104	0	77	24033
2026-01-13 09:24:05.47	278.78	13.16	-53.1	-57.5	3.7	0.00e+00	0	47	104	0	77	24430
2026-01-13 09:24:07.46	279.37	13.14	-53.1	-57.5	3.7	0.00e+00	0	47	104	0	77	24261
2026-01-13 09:24:09.45	279.97	13.11	-53.3	-57.6	3.7	0.00e+00	0	47	104	0	77	24800
2026-01-13 09:24:11.44	280.56	13.08	-53.1	-57.5	3.7	0.00e+00	0	47	104	0	77	24381
2026-01-13 09:24:13.46	281.16	13.04	-53.1	-57.5	3.7	0.00e+00	0	47	104	0	77	24470
2026-01-13 09:24:15.48	281.76	13.01	-53.4	-57.9	3.7	0.00e+00	0	47	104	0	77	25417
2026-01-13 09:24:17.47	282.34	12.97	-53.1	-57.5	3.7	0.00e+00	0	47	104	0	77	24422
2026-01-13 09:24:19.46	282.93	12.93	-53.5	-57.8	3.7	0.00e+00	0	47	104	0	77	25384
2026-01-13 09:24:21.45	283.51	12.89	-53.6	-57.9	3.7	0.00e+00	0	47	104	0	77	25656
2026-01-13 09:24:23.44	284.09	12.85	-53.4	-57.6	3.7	0.00e+00	0	47	104	0	77	24755
2026-01-13 09:24:25.43	284.67	12.80	-53.2	-57.5	3.7	0.00e+00	0	47	104	0	77	24243
2026-01-13 09:24:27.42	285.25	12.75	-52.8	-57.3	3.6	0.00e+00	0	47	104	0	77	23796
2026-01-13 09:24:29.41	285.83	12.70	-52.9	-57.5	3.7	0.00e+00	0	47	104	0	77	24460
2026-01-13 09:24:31.48	286.42	12.65	-53.1	-57.4	3.7	0.00e+00	0	47	104	0	77	24240
2026-01-13 09:24:33.47	286.99	12.59	-53.1	-57.4	3.7	0.00e+00	0	47	104	0	77	24086
2026-01-13 09:24:35.46	287.56	12.53	-53.1	-57.3	3.7	0.00e+00	0	47	104	0	77	23892
2026-01-13 09:24:37.45	288.12	12.47	-53.1	-57.1	3.7	0.00e+00	0	47	104	0	77	23367
2026-01-13 09:24:39.44	288.68	12.41	-53.0	-57.2	3.7	0.00e+00	0	47	104	0	77	23440
2026-01-13 09:24:41.43	289.24	12.35	-52.8	-56.9	3.7	0.00e+00	0	47	104	0	77	22760
2026-01-13 09:24:43.43	289.80	12.28	-52.1	-55.4	3.7	0.00e+00	0	47	104	0	76	20390
2026-01-13 09:24:45.42	290.35	12.22	-52.3	-55.8	3.7	0.00e+00	0	47	104	0	76	21230
2026-01-13 09:24:47.41	290.90	12.15	-53.0	-57.1	3.7	0.00e+00	0	47	104	0	76	24799
2026-01-13 09:24:49.63	291.51	12.07	-53.0	-57.0	3.7	0.00e+00	0	47	104	0	76	24379
2026-01-13 09:24:51.62	292.05	12.00	-52.8	-56.6	3.7	0.00e+00	0	47	104	0	77	21917
2026-01-13 09:24:53.62	292.59	11.92	-53.0	-56.8	3.7	0.00e+00	0	47	104	0	77	22595
2026-01-13 09:24:55.62	293.13	11.85	-53.3	-57.4	3.7	0.00e+00	0	47	104	0	77	24130
2026-01-13 09:24:57.56	293.65	11.77	-52.9	-56.8	3.7	0.00e+00	0	47	104	0	77	22479
2026-01-13 09:24:59.55	294.18	11.69	-53.2	-57.4	3.7	0.00e+00	0	47	104	0	77	24239
2026-01-13 09:25:01.54	294.71	11.61	-53.3	-57.5	3.7	0.00e+00	0	47	104	0	77	24318
2026-01-13 09:25:03.53	295.23	11.53	-53.3	-57.6	3.7	0.00e+00	0	47	104	0	77	24594
2026-01-13 09:25:05.60	295.77	11.44	-53.2	-57.4	3.7	0.00e+00	0	47	104	0	77	23994
2026-01-13 09:25:07.59	296.28	11.36	-52.7	-56.5	3.7	0.00e+00	0	47	104	0	77	21727
2026-01-13 09:25:09.58	296.79	11.27	-52.8	-56.7	3.7	0.00e+00	0	47	104	0	77	22319
2026-01-13 09:25:11.57	297.30	11.19	-53.2	-57.4	3.7	0.00e+00	0	47	104	0	77	24156
2026-01-13 09:25:13.56	297.81	11.10	-53.2	-57.4	3.7	0.00e+00	0	47	104	0	77	24098
2026-01-13 09:25:15.55	298.31	11.01	-53.0	-57.0	3.7	0.00e+00	0	47	104	0	77	23094
2026-01-13 09:25:17.53	298.80	10.92	-52.6	-56.5	3.7	0.00e+00	0	47	104	0	77	21831
2026-01-13 09:25:19.52	299.29	10.82	-52.6	-56.5	3.7	0.00e+00	0	47	104	0	77	21633
2026-01-13 09:25:21.51	299.78	10.73	-52.8	-56.8	3.7	0.00e+00	0	47	104	0	77	22461
2026-01-13 09:25:23.50	300.27	10.63	-52.8	-57.2	3.7	0.00e+00	0	47	104	0	77	23466
2026-01-13 09:25:25.49	300.75	10.54	-52.9	-56.9	3.7	0.00e+00	0	47	104	0	77	22747
2026-01-13 09:25:27.69	301.28	10.43	-52.9	-56.9	3.7	0.00e+00	0	47	104	0	77	22819
2026-01-13 09:25:29.68	301.75	10.33	-53.0	-57.0	3.7	0.00e+00	0	47	104	0	77	23058
2026-01-13 09:25:31.70	302.23	10.23	-52.8	-56.8	3.7	0.00e+00	0	47	104	0	77	22460
2026-01-13 09:25:33.69	302.69	10.13	-52.9	-57.1	3.7	0.00e+00	0	47	104	0	77	23264
2026-01-13 09:25:35.63	303.14	10.04	-52.9	-57.1	3.7	0.00e+00	0	47	104	0	77	23387
2026-01-13 09:25:37.72	303.62	9.93	-52.6	-56.7	3.7	0.00e+00	0	47	104	0	77	22122
2026-01-13 09:25:39.71	304.07	9.83	-52.7	-57.0	3.7	0.00e+00	0	47	104	0	77	22925
2026-01-13 09:25:41.70	304.52	9.72	-53.0	-57.2	3.7	0.00e+00	0	47	104	0	77	23444
2026-01-13 09:25:43.69	304.97	9.62	-52.7	-56.7	3.7	0.00e+00	0	47	104	0	77	22212
2026-01-13 09:25:45.68	305.41	9.52	-52.7	-56.7	3.7	0.00e+00	0	47	104	0	77	22287
2026-01-13 09:25:47.67	305.85	9.41	-52.2	-56.1	3.7	0.00e+00	0	47	104	0	75	23417
2026-01-13 09:25:49.65	306.28	9.31	-51.3	-56.1	3.7	0.00e+00	0	47	104	0	74	24760
2026-01-13 09:25:51.64	306.71	9.20	-51.4	-56.1	3.7	0.00e+00	0	47	104	0	74	24636
2026-01-13 09:25:53.63	307.14	9.09	-51.9	-56.0	3.7	0.00e+00	0	47	104	0	74	24482
2026-01-13 09:25:55.64	307.57	8.98	-51.4	-56.2	3.7	0.00e+00	0	47	104	0	74	24929
2026-01-13 09:25:57.63	307.99	8.88	-53.2	-57.1	3.7	0.00e+00	0	47	104	0	77	23385
2026-01-13 09:25:59.63	308.40	8.77	-53.5	-57.8	3.7	0.00e+00	0	47	104	0	77	25195
2026-01-13 09:26:01.61	308.81	8.66	-53.7	-58.2	3.7	0.00e+00	0	47	104	0	78	25031
2026-01-13 09:26:03.60	309.22	8.55	-53.9	-58.1	3.7	0.00e+00	0	47	104	0	78	24777
2026-01-13 09:26:05.60	309.63	8.44	-53.8	-58.2	3.7	0.00e+00	0	47	104	0	78	25092
2026-01-13 09:26:07.59	310.03	8.33	-53.8	-58.3	3.7	0.00e+00	0	47	104	0	78	25327
2026-01-13 09:26:09.61	310.43	8.22	-53.9	-58.1	3.7	0.00e+00	0	47	104	0	78	24698
2026-01-13 09:26:11.59	310.82	8.11	-53.5	-58.0	3.7	0.00e+00	0	47	104	0	78	24461
2026-01-13 09:26:13.58	311.21	8.00	-53.6	-57.8	3.7	0.00e+00	0	47	104	0	78	23760
2026-01-13 09:26:15.57	311.59	7.88	-53.9	-58.4	3.7	0.00e+00	0	47	104	0	78	25461
2026-01-13 09:26:17.55	311.97	7.77	-53.5	-57.9	3.7	0.00e+00	0	47	104	0	78	23983
2026-01-13 09:26:19.54	312.35	7.66	-53.5	-57.9	3.7	0.00e+00	0	47	104	0	78	23987
2026-01-13 09:26:21.53	312.72	7.55	-53.5	-57.9	3.7	0.00e+00	0	47	104	0	78	24012
2026-01-13 09:26:23.52	313.10	7.44	-53.5	-57.8	3.7	0.00e+00	0	47	104	0	78	23826
2026-01-13 09:26:25.50	313.46	7.32	-53.5	-57.8	3.7	0.00e+00	0	47	104	0	78	23834
2026-01-13 09:26:27.49	313.83	7.21	-53.5	-57.8	3.7	0.00e+00	0	47	104	0	78	23956
2026-01-13 09:26:29.49	314.19	7.10	-53.5	-57.9	3.6	0.00e+00	0	47	104	0	78	24019
2026-01-13 09:26:31.48	314.54	6.99	-53.5	-57.9	3.7	0.00e+00	0	47	104	0	78	23971
2026-01-13 09:26:33.48	314.90	6.87	-53.5	-57.8	3.7	0.00e+00	0	47	104	0	78	23927
2026-01-13 09:26:35.48	315.25	6.76	-53.4	-57.8	3.7	0.00e+00	0	47	104	0	78	23818
2026-01-13 09:26:37.47	315.60	6.65	-53.5	-57.8	3.7	0.00e+00	0	47	104	0	78	23816
2026-01-13 09:26:39.47	315.94	6.53	-53.4	-57.8	3.7	0.00e+00	0	47	104	0	78	23863
2026-01-13 09:26:41.48	316.29	6.42	-53.5	-57.8	3.7	0.00e+00	0	47	104	0	78	23876
2026-01-13 09:26:43.46	316.62	6.30	-53.5	-57.8	3.7	0.00e+00	0	47	104	0	78	23858
2026-01-13 09:26:45.46	316.96	6.19	-53.5	-57.8	3.7	0.00e+00	0	47	104	0	78	23758
2026-01-13 09:26:47.48	317.29	6.07	-53.5	-57.8	3.7	0.00e+00	0	47	104	0	78	23815
2026-01-13 09:26:49.47	317.62	5.96	-53.5	-57.8	3.7	0.00e+00	0	47	104	0	78	23750
2026-01-13 09:26:51.45	317.94	5.85	-53.5	-57.8	3.7	0.00e+00	0	47	104	0	78	23798
2026-01-13 09:26:53.44	318.26	5.74	-53.4	-57.8	3.7	0.00e+00	0	47	104	0	78	23765
2026-01-13 09:26:55.44	318.58	5.62	-53.4	-57.8	3.7	0.00e+00	0	47	104	0	78	23870
2026-01-13 09:26:57.43	318.90	5.51	-53.4	-57.8	3.7	0.00e+00	0	47	104	0	78	23793
2026-01-13 09:26:59.43	319.21	5.39	-53.4	-57.8	3.7	0.00e+00	0	47	104	0	78	23789
2026-01-13 09:27:01.43	319.52	5.28	-53.5	-57.8	3.7	0.00e+00	0	47	104	0	78	23831
2026-01-13 09:27:03.42	319.83	5.17	-53.4	-57.8	3.7	0.00e+00	0	47	104	0	78	23825

#Closed at: 2026-01-13 09:27:05
#Recorded file [0 MB]: D:/Data/31040_260113_122024.dat