passes_logs/2026/01/13/T1/T1__20260113_025729_FENGYUN_3E_rec.log

#Pass ID: 20260113_025729_FENGYUN 3E
#Satellite: FENGYUN 3E
#Configuration: FENGYUN 3E
#almurnet v.1.7.20251203
#Start time: 2026-01-13 02:57:29

#Version: 2.0.20230620
#Station: T1
#Location: 37.570604 lon 55.790049 lat
#TLE: 1 49008U 21062A   26012.25745337  .00000274  00000+0  14981-3 0  9997
#TLE: 2 49008  98.7491  17.4183 0001913 142.8235 217.3074 14.19885845234459

#Time	Az	El	Level	Level2	SNR	BER	BlckErr	Temp	State	Recorded	gain1	gain2
2026-01-13 02:57:29.91	24.24	5.02	-50.5	-61.5	3.8	8.47e-01	0	36	0	0	70	13438
2026-01-13 02:57:32.89	24.42	5.22	-50.5	-61.5	3.8	8.47e-01	0	37	104	0	70	13561
2026-01-13 02:57:35.87	24.60	5.41	-50.5	-61.5	3.8	8.46e-01	0	37	104	0	70	13482
2026-01-13 02:57:38.85	24.78	5.61	-50.5	-61.5	3.8	8.46e-01	0	37	104	0	70	13510
2026-01-13 02:57:41.83	24.97	5.81	-50.5	-61.5	3.8	8.47e-01	0	37	104	0	70	13437
2026-01-13 02:57:44.81	25.16	6.01	-50.4	-61.4	3.8	8.47e-01	0	37	104	0	70	13381
2026-01-13 02:57:47.79	25.35	6.21	-50.5	-61.4	3.8	8.46e-01	0	37	104	0	70	13409
2026-01-13 02:57:50.77	25.54	6.42	-50.5	-61.5	3.8	8.48e-01	0	37	104	0	70	13469
2026-01-13 02:57:53.75	25.74	6.62	-50.4	-61.5	3.8	8.45e-01	0	37	104	0	70	13436
2026-01-13 02:57:56.73	25.93	6.83	-50.5	-61.5	3.8	8.46e-01	0	38	104	0	70	13439
2026-01-13 02:57:59.71	26.13	7.04	-50.4	-61.4	3.8	8.48e-01	0	38	104	0	70	13361
2026-01-13 02:58:02.69	26.34	7.24	-50.4	-61.4	3.8	8.47e-01	0	38	104	0	70	13354
2026-01-13 02:58:05.67	26.54	7.45	-50.4	-61.3	3.8	8.47e-01	0	38	104	0	70	13135
2026-01-13 02:58:08.65	26.75	7.67	-50.4	-60.9	3.8	8.46e-01	0	38	104	0	70	12566
2026-01-13 02:58:11.63	26.96	7.88	-50.3	-60.6	3.8	8.48e-01	0	38	104	0	70	12199
2026-01-13 02:58:14.61	27.18	8.09	-50.3	-60.5	3.8	8.48e-01	0	38	104	0	70	11956
2026-01-13 02:58:17.59	27.40	8.31	-50.3	-60.5	3.8	8.47e-01	0	38	104	0	70	12034
2026-01-13 02:58:20.57	27.62	8.53	-50.4	-61.2	3.8	8.46e-01	0	38	104	0	70	13093
2026-01-13 02:58:23.55	27.84	8.75	-50.3	-60.7	3.8	8.46e-01	0	38	104	0	70	12330
2026-01-13 02:58:26.53	28.07	8.97	-50.3	-60.1	3.8	8.46e-01	0	38	104	0	70	11468
2026-01-13 02:58:29.51	28.30	9.19	-50.3	-60.9	3.8	8.45e-01	0	38	104	3145728	70	12604
2026-01-13 02:58:32.50	28.53	9.42	-45.3	-47.4	12.9	6.40e-05	0	38	0	19922944	61	4475
2026-01-13 02:58:35.48	28.77	9.64	-44.2	-46.0	14.3	0.00e+00	0	38	0	41943040	58	4519
2026-01-13 02:58:38.46	29.01	9.87	-43.1	-44.6	15.8	0.00e+00	0	38	0	62914560	56	4319
2026-01-13 02:58:41.44	29.25	10.10	-42.7	-44.1	16.4	0.00e+00	0	38	0	84934656	56	4074
2026-01-13 02:58:44.43	29.50	10.33	-42.2	-43.5	16.8	0.00e+00	0	38	0	106954752	55	4032
2026-01-13 02:58:47.41	29.75	10.56	-42.1	-43.4	16.9	0.00e+00	0	38	0	127926272	54	4228
2026-01-13 02:58:50.45	30.01	10.80	-42.1	-43.4	16.9	0.00e+00	0	38	0	149946368	54	4195
2026-01-13 02:58:53.43	30.27	11.04	-42.0	-43.2	17.1	0.00e+00	0	38	0	171966464	54	4135
2026-01-13 02:58:56.42	30.54	11.28	-41.8	-43.0	17.3	0.00e+00	0	38	0	192937984	54	4014
2026-01-13 02:58:59.41	30.80	11.52	-41.8	-43.0	17.3	0.00e+00	0	38	0	213909504	54	4046
2026-01-13 02:59:02.39	31.08	11.76	-41.8	-43.0	17.5	0.00e+00	0	38	0	235929600	54	4019
2026-01-13 02:59:05.38	31.35	12.00	-41.7	-42.9	17.6	0.00e+00	0	38	0	257949696	54	3968
2026-01-13 02:59:08.32	31.63	12.25	-41.8	-42.9	17.5	0.00e+00	0	38	0	278921216	54	3993
2026-01-13 02:59:11.44	31.93	12.50	-41.7	-42.9	17.5	0.00e+00	0	38	0	300941312	53	4223
2026-01-13 02:59:14.28	32.20	12.74	-41.7	-42.9	17.5	0.00e+00	0	38	0	321912832	53	4230
2026-01-13 02:59:17.41	32.51	13.01	-41.7	-42.9	17.6	0.00e+00	0	38	0	343932928	53	4215
2026-01-13 02:59:20.26	32.80	13.25	-41.6	-42.8	17.7	0.00e+00	0	38	0	364904448	53	4149
2026-01-13 02:59:23.51	33.13	13.53	-41.6	-42.7	17.7	0.00e+00	0	38	0	387973120	53	4135
2026-01-13 02:59:26.35	33.43	13.77	-41.6	-42.7	17.7	0.00e+00	0	38	0	408944640	53	4131
2026-01-13 02:59:29.62	33.77	14.06	-41.5	-42.6	17.9	0.00e+00	0	38	0	433061888	53	4083
2026-01-13 02:59:32.34	34.06	14.30	-41.4	-42.6	17.8	0.00e+00	0	38	0	451936256	53	4067
2026-01-13 02:59:35.61	34.42	14.58	-41.2	-42.3	18.0	0.00e+00	0	39	0	476053504	52	4185
2026-01-13 02:59:38.47	34.74	14.84	-41.0	-42.1	18.3	0.00e+00	0	38	0	497025024	52	4082
2026-01-13 02:59:41.73	35.11	15.13	-41.0	-42.1	18.3	0.00e+00	0	38	0	520093696	52	4084
2026-01-13 02:59:44.81	35.46	15.41	-40.9	-42.1	18.3	0.00e+00	0	38	0	542113792	52	4056
2026-01-13 02:59:48.11	35.85	15.71	-41.0	-42.0	18.4	0.00e+00	0	38	0	566231040	52	4048
2026-01-13 02:59:50.85	36.18	15.96	-40.9	-41.9	18.5	0.00e+00	0	38	0	586153984	52	4003
2026-01-13 02:59:54.08	36.57	16.26	-40.9	-42.0	18.5	0.00e+00	0	38	0	609222656	52	4028
2026-01-13 02:59:56.92	36.92	16.53	-40.7	-41.8	18.6	0.00e+00	0	39	0	630194176	52	3958
2026-01-13 03:00:00.05	37.32	16.82	-40.7	-41.8	18.6	0.00e+00	0	39	0	652214272	52	3930
2026-01-13 03:00:02.90	37.68	17.09	-40.6	-41.7	18.8	0.00e+00	0	38	0	673185792	51	4109
2026-01-13 03:00:06.35	38.14	17.42	-40.4	-41.5	19.1	0.00e+00	0	38	0	697303040	51	4010
2026-01-13 03:00:09.34	38.54	17.71	-40.2	-41.3	19.1	0.00e+00	0	38	0	719323136	51	3925
2026-01-13 03:00:12.33	38.94	18.00	-40.1	-41.1	19.2	0.00e+00	0	38	0	741343232	50	4090
2026-01-13 03:00:15.31	39.36	18.29	-40.2	-41.2	19.3	0.00e+00	0	38	0	762314752	50	4144
2026-01-13 03:00:18.36	39.79	18.60	-40.3	-41.3	19.3	0.00e+00	0	39	0	784334848	50	4170
2026-01-13 03:00:21.21	40.20	18.88	-40.2	-41.3	19.3	0.00e+00	0	39	0	805306368	50	4147
2026-01-13 03:00:24.33	40.66	19.19	-40.1	-41.1	19.5	0.00e+00	0	38	0	827326464	50	4083
2026-01-13 03:00:27.17	41.08	19.47	-40.1	-41.1	19.5	0.00e+00	0	39	0	848297984	50	4087
2026-01-13 03:00:30.30	41.56	19.79	-40.0	-40.9	19.7	0.00e+00	0	38	0	870318080	50	4002
2026-01-13 03:00:33.14	42.00	20.08	-39.8	-40.8	19.8	0.00e+00	0	38	0	891289600	50	3926
2026-01-13 03:00:36.27	42.49	20.40	-39.8	-40.7	19.9	0.00e+00	0	38	0	914358272	50	3904
2026-01-13 03:00:39.11	42.95	20.69	-39.9	-40.9	19.8	0.00e+00	0	39	0	934281216	50	3963
2026-01-13 03:00:42.24	43.47	21.02	-40.1	-41.1	19.6	0.00e+00	0	38	0	957349888	50	4073
2026-01-13 03:00:45.14	43.96	21.32	-40.1	-41.0	19.7	0.00e+00	0	38	0	977272832	50	4049
2026-01-13 03:00:48.36	44.51	21.66	-39.8	-40.8	19.9	0.00e+00	0	38	0	1001390080	50	3934
2026-01-13 03:00:51.20	45.01	21.96	-39.8	-40.7	20.0	0.00e+00	0	38	0	1021313024	50	3891
2026-01-13 03:00:54.33	45.56	22.29	-39.8	-40.7	20.0	0.00e+00	0	38	0	1044381696	50	3912
2026-01-13 03:00:57.17	46.08	22.59	-39.7	-40.7	20.1	0.00e+00	0	38	0	1064304640	50	3881
2026-01-13 03:01:00.30	46.66	22.93	-39.8	-40.7	20.1	0.00e+00	0	39	0	1087373312	50	3898
2026-01-13 03:01:03.16	47.20	23.23	-39.9	-40.9	19.9	0.00e+00	0	39	0	1107296256	50	3974
2026-01-13 03:01:06.29	47.81	23.57	-40.0	-40.9	19.9	0.00e+00	0	39	0	1130364928	50	4004
2026-01-13 03:01:09.13	48.37	23.88	-39.9	-40.9	20.0	0.00e+00	0	38	0	1151336448	50	3985
2026-01-13 03:01:12.48	49.04	24.24	-39.9	-40.9	20.0	0.00e+00	0	38	0	1175453696	50	3978
2026-01-13 03:01:15.21	49.61	24.54	-39.8	-40.8	20.1	0.00e+00	0	39	0	1194328064	50	3919
2026-01-13 03:01:18.50	50.30	24.89	-39.6	-40.5	20.4	0.00e+00	0	39	0	1218445312	49	4030
2026-01-13 03:01:21.22	50.88	25.19	-39.6	-40.6	20.3	0.00e+00	0	38	0	1238368256	49	4053
2026-01-13 03:01:24.49	51.59	25.55	-39.7	-40.7	20.3	0.00e+00	0	39	0	1261436928	49	4099
2026-01-13 03:01:27.22	52.20	25.85	-39.7	-40.6	20.3	0.00e+00	0	38	0	1281359872	49	4078
2026-01-13 03:01:30.77	53.01	26.23	-39.7	-40.6	20.3	0.00e+00	0	38	0	1307574272	49	4092
2026-01-13 03:01:33.49	53.64	26.53	-39.9	-40.8	20.2	0.00e+00	0	39	0	1326448640	49	4171
2026-01-13 03:01:36.77	54.42	26.89	-39.7	-40.7	20.3	0.00e+00	0	39	0	1350565888	49	4113
2026-01-13 03:01:39.51	55.09	27.18	-39.7	-40.6	20.4	0.00e+00	0	39	0	1370488832	49	4071
2026-01-13 03:01:42.81	55.90	27.54	-39.3	-40.2	20.7	0.00e+00	0	39	0	1393557504	49	3908
2026-01-13 03:01:45.78	56.65	27.86	-39.4	-40.3	20.7	0.00e+00	0	39	0	1415577600	49	3923
2026-01-13 03:01:49.78	57.69	28.29	-39.3	-40.2	20.8	0.00e+00	0	39	0	1444937728	49	3872
2026-01-13 03:01:52.62	58.44	28.59	-39.4	-40.4	20.7	0.00e+00	0	38	0	1464860672	49	3960
2026-01-13 03:01:56.59	59.51	29.01	-39.8	-40.7	20.3	0.00e+00	0	39	0	1493172224	49	4126
2026-01-13 03:01:59.34	60.27	29.30	-39.6	-40.5	20.5	0.00e+00	0	39	0	1513095168	49	4036
2026-01-13 03:02:02.67	61.21	29.64	-39.4	-40.3	20.6	0.00e+00	0	39	0	1537212416	49	3954
2026-01-13 03:02:05.45	62.00	29.93	-39.4	-40.3	20.7	0.00e+00	0	39	0	1557135360	49	3933
2026-01-13 03:02:08.82	62.99	30.27	-39.3	-40.2	20.7	0.00e+00	0	38	0	1582301184	49	3894
2026-01-13 03:02:11.52	63.79	30.54	-39.2	-40.1	20.9	0.00e+00	0	38	0	1601175552	49	3827
2026-01-13 03:02:14.81	64.79	30.86	-39.2	-40.1	20.8	0.00e+00	0	39	0	1625292800	49	3862
2026-01-13 03:02:17.52	65.63	31.12	-39.3	-40.3	20.7	0.00e+00	0	38	0	1645215744	49	3920
2026-01-13 03:02:21.05	66.74	31.46	-39.2	-40.1	20.8	0.00e+00	0	39	0	1670381568	49	3841
2026-01-13 03:02:23.75	67.61	31.71	-39.4	-40.3	20.6	0.00e+00	0	38	0	1689255936	49	3941
2026-01-13 03:02:27.03	68.67	32.00	-39.3	-40.3	20.6	0.00e+00	0	39	0	1713373184	49	3914
2026-01-13 03:02:29.73	69.57	32.24	-39.2	-40.1	20.8	0.00e+00	0	39	0	1733296128	49	3841
2026-01-13 03:02:33.00	70.67	32.52	-39.3	-40.2	20.7	0.00e+00	0	39	0	1756364800	48	4105
2026-01-13 03:02:35.72	71.60	32.75	-39.4	-40.3	20.6	0.00e+00	0	39	0	1776287744	48	4174
2026-01-13 03:02:39.16	72.79	33.03	-39.3	-40.2	20.7	0.00e+00	0	39	0	1800404992	48	4104
2026-01-13 03:02:41.94	73.77	33.24	-39.1	-40.0	20.9	0.00e+00	0	39	0	1821376512	48	4023
2026-01-13 03:02:45.21	74.94	33.49	-38.9	-39.8	21.0	0.00e+00	0	39	0	1844445184	48	3943
2026-01-13 03:02:47.94	75.92	33.68	-39.1	-39.9	20.9	0.00e+00	0	39	0	1864368128	48	4003
2026-01-13 03:02:51.26	77.14	33.91	-39.4	-40.3	20.6	0.00e+00	0	39	0	1888485376	48	4167
2026-01-13 03:02:53.97	78.15	34.09	-39.3	-40.2	20.7	0.00e+00	0	39	0	1908408320	48	4113
2026-01-13 03:02:57.25	79.38	34.29	-39.4	-40.3	20.6	0.00e+00	0	39	0	1931476992	48	4178
2026-01-13 03:03:00.00	80.42	34.44	-39.1	-40.0	20.9	0.00e+00	0	39	0	1951399936	48	4016
2026-01-13 03:03:03.28	81.68	34.62	-38.7	-39.6	21.2	0.00e+00	0	39	0	1975517184	48	3845
2026-01-13 03:03:05.99	82.73	34.75	-38.9	-39.8	21.0	0.00e+00	0	39	0	1994391552	48	3916
2026-01-13 03:03:09.26	84.01	34.90	-39.1	-40.1	20.8	0.00e+00	0	39	0	2018508800	48	4061
2026-01-13 03:03:12.08	85.12	35.02	-39.3	-40.3	20.6	0.00e+00	0	39	0	2038431744	48	4151
2026-01-13 03:03:15.50	86.47	35.14	-39.5	-40.4	20.4	0.00e+00	0	39	0	2063597568	48	4239
2026-01-13 03:03:18.47	87.66	35.24	-39.2	-40.1	20.7	0.00e+00	0	39	0	2084569088	48	4060
2026-01-13 03:03:21.74	88.97	35.33	-38.9	-39.8	20.9	0.00e+00	0	39	0	2108686336	48	3957
2026-01-13 03:03:24.45	90.07	35.39	-39.1	-40.0	20.8	0.00e+00	0	39	0	2127560704	48	4043
2026-01-13 03:03:27.76	91.41	35.45	-39.1	-40.0	20.8	0.00e+00	0	39	0	2151677952	48	4026
2026-01-13 03:03:30.57	92.55	35.48	-39.3	-40.2	20.6	0.00e+00	0	38	0	2171600896	48	4138
2026-01-13 03:03:33.70	93.82	35.51	-39.3	-40.2	20.6	0.00e+00	0	39	0	2194669568	48	4130
2026-01-13 03:03:36.55	94.98	35.52	-39.2	-40.1	20.7	0.00e+00	0	39	0	2214592512	48	4070
2026-01-13 03:03:39.68	96.26	35.52	-39.1	-40.0	20.8	0.00e+00	0	39	0	2237661184	48	4036
2026-01-13 03:03:42.52	97.42	35.50	-39.2	-40.1	20.7	0.00e+00	0	39	0	2258632704	48	4059
2026-01-13 03:03:45.64	98.68	35.47	-39.2	-40.1	20.7	0.00e+00	0	39	0	2280652800	48	4078
2026-01-13 03:03:48.48	99.84	35.42	-39.3	-40.2	20.6	0.00e+00	0	39	0	2301624320	48	4110
2026-01-13 03:03:51.80	101.18	35.36	-39.1	-39.9	20.8	0.00e+00	0	39	0	2324692992	48	4002
2026-01-13 03:03:54.99	102.47	35.28	-39.1	-40.0	20.8	0.00e+00	0	39	0	2347761664	48	4016
2026-01-13 03:03:57.83	103.60	35.19	-38.9	-39.8	20.9	0.00e+00	0	39	0	2368733184	48	3938
2026-01-13 03:04:00.96	104.85	35.08	-38.9	-39.8	21.0	0.00e+00	0	39	0	2390753280	48	3921
2026-01-13 03:04:03.80	105.98	34.97	-39.1	-40.0	20.7	0.00e+00	0	39	0	2411724800	48	4025
2026-01-13 03:04:07.10	107.27	34.83	-39.1	-40.0	20.8	0.00e+00	0	39	0	2435842048	48	4011
2026-01-13 03:04:10.01	108.41	34.69	-39.1	-40.0	20.8	0.00e+00	0	39	0	2456813568	48	4027
2026-01-13 03:04:13.28	109.67	34.52	-39.0	-39.9	20.9	0.00e+00	0	39	0	2479882240	48	3971
2026-01-13 03:04:16.02	110.72	34.37	-39.2	-40.1	20.6	0.00e+00	0	39	0	2499805184	48	4098
2026-01-13 03:04:19.31	111.96	34.18	-39.5	-40.4	20.4	0.00e+00	0	39	0	2523922432	48	4239
2026-01-13 03:04:22.18	113.04	34.00	-39.2	-40.1	20.7	0.00e+00	0	39	0	2544893952	48	4062
2026-01-13 03:04:25.31	114.19	33.79	-39.3	-40.2	20.5	0.00e+00	0	39	0	2566914048	48	4120
2026-01-13 03:04:28.15	115.23	33.59	-39.3	-40.2	20.6	0.00e+00	0	39	0	2587885568	48	4118
2026-01-13 03:04:31.34	116.38	33.35	-39.1	-40.0	20.7	0.00e+00	0	39	0	2610954240	48	4041
2026-01-13 03:04:34.25	117.42	33.13	-39.3	-40.2	20.5	0.00e+00	0	39	0	2631925760	48	4142
2026-01-13 03:04:37.38	118.51	32.88	-39.4	-40.3	20.4	0.00e+00	0	39	0	2653945856	48	4193
2026-01-13 03:04:40.22	119.49	32.65	-39.1	-40.0	20.7	0.00e+00	0	39	0	2674917376	48	4030
2026-01-13 03:04:43.68	120.67	32.35	-39.1	-40.0	20.7	0.00e+00	0	39	0	2700083200	48	4043
2026-01-13 03:04:46.41	121.58	32.11	-39.3	-40.2	20.3	0.00e+00	0	39	0	2718957568	48	4125
2026-01-13 03:04:49.68	122.66	31.82	-39.4	-40.3	20.4	0.00e+00	0	38	0	2743074816	48	4188
2026-01-13 03:04:52.39	123.54	31.57	-39.2	-40.2	20.5	0.00e+00	0	39	0	2762997760	48	4114
2026-01-13 03:04:55.89	124.65	31.24	-39.1	-40.0	20.6	0.00e+00	0	39	0	2788163584	48	4034
2026-01-13 03:04:58.79	125.56	30.96	-39.2	-40.1	20.6	0.00e+00	0	38	0	2809135104	48	4087
2026-01-13 03:05:02.96	126.83	30.55	-39.3	-40.3	20.4	0.00e+00	0	39	0	2838495232	48	4157
2026-01-13 03:05:05.80	127.68	30.26	-39.6	-40.6	20.2	0.00e+00	0	39	0	2859466752	48	4292
2026-01-13 03:05:09.99	128.91	29.83	-39.3	-40.2	20.4	0.00e+00	0	39	0	2889875456	48	4115
2026-01-13 03:05:12.83	129.73	29.54	-39.0	-40.0	20.6	0.00e+00	0	39	0	2909798400	48	4005
2026-01-13 03:05:16.81	130.84	29.12	-39.2	-40.2	20.4	0.00e+00	0	39	0	2939158528	48	4122
2026-01-13 03:05:19.85	131.68	28.80	-39.7	-40.7	20.0	0.00e+00	0	39	0	2961178624	48	4358
2026-01-13 03:05:23.83	132.75	28.38	-39.5	-40.4	20.2	0.00e+00	0	38	0	2989490176	48	4240
2026-01-13 03:05:26.91	133.55	28.05	-39.2	-40.1	20.5	0.00e+00	0	39	0	3011510272	48	4073
2026-01-13 03:05:30.08	134.37	27.70	-39.3	-40.2	20.4	0.00e+00	0	39	0	3034578944	48	4116
2026-01-13 03:05:32.99	135.10	27.39	-39.5	-40.4	20.2	0.00e+00	0	39	0	3055550464	48	4239
2026-01-13 03:05:36.11	135.87	27.05	-39.5	-40.4	20.1	0.00e+00	0	39	0	3077570560	48	4236
2026-01-13 03:05:39.05	136.58	26.72	-39.4	-40.3	20.3	0.00e+00	0	39	0	3099590656	48	4174
2026-01-13 03:05:42.04	137.29	26.40	-39.2	-40.1	20.5	0.00e+00	0	39	0	3120562176	48	4060
2026-01-13 03:05:45.02	137.98	26.07	-39.2	-40.2	20.4	0.00e+00	0	39	0	3142582272	48	4104
2026-01-13 03:05:48.00	138.66	25.74	-39.5	-40.4	20.1	0.00e+00	0	38	0	3163553792	48	4229
2026-01-13 03:05:50.99	139.32	25.41	-39.5	-40.5	20.1	0.00e+00	0	39	0	3185573888	48	4273
2026-01-13 03:05:53.98	139.98	25.08	-39.5	-40.5	20.1	0.00e+00	0	39	0	3207593984	48	4252
2026-01-13 03:05:56.96	140.61	24.76	-39.5	-40.4	20.1	0.00e+00	0	39	0	3228565504	48	4242
2026-01-13 03:05:59.94	141.24	24.43	-39.6	-40.6	20.0	0.00e+00	0	39	0	3250585600	48	4309
2026-01-13 03:06:02.96	141.86	24.10	-39.7	-40.6	19.9	0.00e+00	0	39	0	3271557120	48	4323
2026-01-13 03:06:05.94	142.46	23.77	-39.5	-40.5	20.1	0.00e+00	0	39	0	3293577216	48	4252
2026-01-13 03:06:08.93	143.05	23.45	-39.4	-40.4	20.2	0.00e+00	0	39	0	3315597312	48	4206
2026-01-13 03:06:11.92	143.63	23.12	-39.4	-40.3	20.2	0.00e+00	0	39	0	3336568832	48	4191
2026-01-13 03:06:14.90	144.19	22.80	-39.6	-40.5	20.0	0.00e+00	0	39	0	3358588928	48	4276
2026-01-13 03:06:17.89	144.75	22.48	-39.8	-40.7	19.8	0.00e+00	0	39	0	3379560448	49	4126
2026-01-13 03:06:20.88	145.29	22.16	-39.8	-40.8	19.8	0.00e+00	0	39	0	3401580544	49	4163
2026-01-13 03:06:23.87	145.82	21.84	-39.8	-40.7	19.8	0.00e+00	0	39	0	3423600640	49	4143
2026-01-13 03:06:26.85	146.35	21.52	-39.7	-40.7	19.9	0.00e+00	0	39	0	3444572160	49	4112
2026-01-13 03:06:29.88	146.87	21.20	-39.9	-40.9	19.7	0.00e+00	0	39	0	3466592256	49	4208
2026-01-13 03:06:32.80	147.36	20.90	-40.1	-41.1	19.5	0.00e+00	0	38	0	3487563776	49	4333
2026-01-13 03:06:36.10	147.90	20.55	-40.3	-41.3	19.3	0.00e+00	0	39	0	3511681024	50	4191
2026-01-13 03:06:38.82	148.34	20.27	-40.4	-41.4	19.2	0.00e+00	0	39	0	3530555392	50	4221
2026-01-13 03:06:42.04	148.85	19.94	-40.4	-41.4	19.2	0.00e+00	0	39	0	3553624064	50	4209
2026-01-13 03:06:44.88	149.29	19.64	-40.5	-41.5	19.2	0.00e+00	0	39	0	3574595584	50	4255
2026-01-13 03:06:48.02	149.77	19.32	-40.4	-41.4	19.2	0.00e+00	0	39	0	3597664256	50	4233
2026-01-13 03:06:50.87	150.19	19.04	-40.6	-41.6	19.0	0.00e+00	0	39	0	3617587200	50	4333
2026-01-13 03:06:53.99	150.65	18.72	-40.7	-41.7	18.9	0.00e+00	0	39	0	3640655872	50	4365
2026-01-13 03:06:56.84	151.06	18.44	-40.7	-41.7	18.9	0.00e+00	0	39	0	3660578816	51	4129
2026-01-13 03:06:59.97	151.50	18.13	-40.8	-41.8	18.8	0.00e+00	0	39	0	3683647488	51	4192
2026-01-13 03:07:02.81	151.89	17.85	-40.6	-41.6	19.0	0.00e+00	0	39	0	3703570432	51	4089
2026-01-13 03:07:06.08	152.33	17.53	-40.5	-41.5	19.1	0.00e+00	0	39	0	3727687680	51	4048
2026-01-13 03:07:08.92	152.71	17.25	-40.6	-41.6	19.0	0.00e+00	0	39	0	3748659200	51	4097
2026-01-13 03:07:12.05	153.12	16.95	-40.9	-42.0	18.6	0.00e+00	0	39	0	3770679296	51	4281
2026-01-13 03:07:14.89	153.49	16.68	-41.0	-42.1	18.4	0.00e+00	0	39	0	3791650816	52	4097
2026-01-13 03:07:18.02	153.88	16.38	-41.2	-42.3	18.4	0.00e+00	0	39	0	3813670912	52	4148
2026-01-13 03:07:20.86	154.23	16.12	-41.1	-42.2	18.4	0.00e+00	0	39	0	3834642432	52	4113
2026-01-13 03:07:23.99	154.61	15.82	-41.2	-42.3	18.3	0.00e+00	0	39	0	3856662528	52	4155
2026-01-13 03:07:26.86	154.95	15.56	-41.2	-42.3	18.3	0.00e+00	0	39	0	3877634048	52	4154
2026-01-13 03:07:30.14	155.34	15.25	-41.2	-42.3	18.3	0.00e+00	0	39	0	3901751296	52	4159
2026-01-13 03:07:32.85	155.65	15.01	-41.3	-42.5	18.1	0.00e+00	0	39	0	3920625664	52	4248
2026-01-13 03:07:36.03	156.01	14.72	-41.2	-42.3	18.2	0.00e+00	0	39	0	3943694336	52	4173
2026-01-13 03:07:39.01	156.34	14.45	-41.2	-42.4	18.2	1.20e-02	0	39	0	3965714432	52	4195
2026-01-13 03:07:42.00	156.67	14.19	-41.5	-42.6	18.0	1.18e-02	0	39	0	3986685952	52	4326
2026-01-13 03:07:44.98	156.99	13.92	-41.6	-42.7	17.9	1.08e-02	0	39	0	4008706048	53	4130
2026-01-13 03:07:47.97	157.30	13.66	-41.8	-43.0	17.6	0.00e+00	0	39	0	4029677568	53	4260
2026-01-13 03:07:50.96	157.61	13.40	-41.8	-43.0	17.6	0.00e+00	0	39	0	4051697664	54	4037
2026-01-13 03:07:53.94	157.92	13.14	-42.0	-43.2	17.4	0.00e+00	0	39	0	4072669184	54	4102
2026-01-13 03:07:56.92	158.21	12.89	-42.0	-43.1	17.5	0.00e+00	0	39	0	4094689280	54	4087
2026-01-13 03:07:59.97	158.51	12.63	-41.9	-43.0	17.5	0.00e+00	0	39	0	4116709376	54	4048
2026-01-13 03:08:02.99	158.81	12.37	-42.1	-43.3	17.3	0.00e+00	0	38	0	4138729472	54	4147
2026-01-13 03:08:05.97	159.09	12.12	-42.2	-43.4	17.2	0.00e+00	0	39	0	4159700992	54	4204
2026-01-13 03:08:08.96	159.37	11.87	-42.4	-43.6	16.9	0.00e+00	0	39	0	4181721088	55	4086
2026-01-13 03:08:11.94	159.65	11.63	-42.3	-43.6	17.0	0.00e+00	0	39	0	4202692608	55	4057
2026-01-13 03:08:14.94	159.92	11.38	-42.3	-43.6	16.9	0.00e+00	0	39	0	4224712704	55	4074
2026-01-13 03:08:17.96	160.19	11.14	-42.4	-43.6	16.8	0.00e+00	0	39	0	4246732800	55	4090
2026-01-13 03:08:20.94	160.45	10.90	-42.5	-43.7	16.8	0.00e+00	0	39	0	4267704320	55	4143
2026-01-13 03:08:23.92	160.71	10.66	-42.4	-43.7	16.8	0.00e+00	0	39	0	4289724416	55	4131
2026-01-13 03:08:26.91	160.96	10.42	-42.4	-43.7	16.7	0.00e+00	0	39	0	4310695936	55	4142
2026-01-13 03:08:29.96	161.22	10.18	-42.6	-43.9	16.6	0.00e+00	0	39	0	4332716032	55	4227
2026-01-13 03:08:32.88	161.46	9.95	-42.5	-43.8	16.6	0.00e+00	0	39	0	4354736128	55	4186
2026-01-13 03:08:35.87	161.70	9.72	-42.5	-43.8	16.6	0.00e+00	0	39	0	4375707648	55	4171
2026-01-13 03:08:38.85	161.94	9.49	-42.7	-44.0	16.4	0.00e+00	0	39	0	4397727744	55	4287
2026-01-13 03:08:41.84	162.18	9.26	-42.7	-44.0	16.3	0.00e+00	0	39	0	4418699264	55	4284
2026-01-13 03:08:44.82	162.41	9.04	-42.8	-44.2	16.2	0.00e+00	0	39	0	4440719360	55	4352
2026-01-13 03:08:47.80	162.64	8.81	-51.3	-62.0	3.8	8.47e-01	0	39	104	4448059392	72	12719
2026-01-13 03:08:50.78	162.87	8.59	-51.7	-62.4	3.8	8.47e-01	0	39	104	4448059392	72	13358
2026-01-13 03:08:53.76	163.09	8.37	-51.8	-62.6	3.8	8.47e-01	0	39	104	4448059392	73	12856
2026-01-13 03:08:56.74	163.31	8.15	-51.9	-62.7	3.8	8.47e-01	0	39	104	4448059392	73	12967
2026-01-13 03:08:59.72	163.52	7.93	-51.8	-62.7	3.8	8.47e-01	0	39	104	4448059392	73	13012
2026-01-13 03:09:02.70	163.73	7.72	-51.9	-62.7	3.8	8.45e-01	0	39	104	4448059392	73	13050
2026-01-13 03:09:05.68	163.94	7.50	-52.1	-62.7	3.8	8.47e-01	0	39	104	4448059392	73	13001
2026-01-13 03:09:08.66	164.15	7.29	-52.0	-62.7	3.8	8.47e-01	0	39	104	4448059392	73	13024
2026-01-13 03:09:11.64	164.35	7.08	-51.7	-62.6	3.8	8.48e-01	0	39	104	4448059392	73	12890
2026-01-13 03:09:14.62	164.55	6.87	-51.7	-62.6	3.8	8.46e-01	0	39	104	4448059392	73	12940
2026-01-13 03:09:17.60	164.75	6.66	-51.7	-62.6	3.8	8.46e-01	0	39	104	4448059392	73	12830
2026-01-13 03:09:20.58	164.95	6.45	-51.7	-62.6	3.8	8.47e-01	0	39	104	4448059392	73	12906
2026-01-13 03:09:23.56	165.14	6.24	-51.7	-62.6	3.8	8.47e-01	0	39	104	4448059392	73	12855
2026-01-13 03:09:26.54	165.33	6.04	-51.7	-62.6	3.8	8.47e-01	0	39	104	4448059392	73	12869
2026-01-13 03:09:29.52	165.52	5.83	-51.7	-62.6	3.8	8.47e-01	0	39	104	4448059392	73	12943
2026-01-13 03:09:32.50	165.70	5.63	-51.7	-62.5	3.8	8.47e-01	0	39	104	4448059392	73	12796
2026-01-13 03:09:35.48	165.89	5.43	-51.7	-62.6	3.8	8.47e-01	0	39	104	4448059392	73	12851
2026-01-13 03:09:38.46	166.07	5.23	-51.7	-62.6	3.8	8.46e-01	0	39	104	4448059392	73	12893
2026-01-13 03:09:41.44	166.25	5.03	-51.7	-62.5	3.8	8.47e-01	0	39	104	4448059392	73	12759

#Closed at: 2026-01-13 03:09:43
#Recorded file [4448 MB]: D:/Data/31040_260113_055729.dat