passes_logs/2026/01/13/T1/T1__20260113_003328_NOAA_20_JPSS-1_rec.log

#Pass ID: 20260113_003328_NOAA 20 (JPSS-1)
#Satellite: NOAA 20 (JPSS-1)
#Configuration: NOAA 20
#almurnet v.1.7.20251203
#Start time: 2026-01-13 00:33:30

#Version: 2.0.20230620
#Station: T1
#Location: 37.570604 lon 55.790049 lat
#TLE: 1 43013U 17073A   26012.29914746  .00000087  00000+0  62270-4 0  9997
#TLE: 2 43013  98.7632 313.2670 0001616  43.2193 316.9110 14.19535514422351

#Time	Az	El	Level	Level2	SNR	BER	BlckErr	Temp	State	Recorded	gain1	gain2
2026-01-13 00:33:30.86	10.97	5.15	-48.6	-65.6	3.8	1.49e+00	0	41	0	0	68	26062
2026-01-13 00:33:33.84	10.84	5.36	-48.5	-65.3	3.8	1.49e+00	0	41	104	0	67	26629
2026-01-13 00:33:36.82	10.72	5.56	-48.5	-65.1	3.8	1.49e+00	0	41	104	0	67	26054
2026-01-13 00:33:39.80	10.59	5.77	-48.5	-64.9	3.8	1.49e+00	0	42	104	0	67	25472
2026-01-13 00:33:42.77	10.46	5.98	-48.5	-64.8	3.8	1.49e+00	0	42	104	0	67	25125
2026-01-13 00:33:45.75	10.32	6.19	-48.5	-64.9	3.8	1.49e+00	0	42	104	0	67	25428
2026-01-13 00:33:48.73	10.19	6.40	-48.5	-64.7	3.8	1.49e+00	0	42	104	0	67	24824
2026-01-13 00:33:51.72	10.05	6.62	-48.5	-64.3	3.8	1.49e+00	0	42	104	0	67	23741
2026-01-13 00:33:54.70	9.91	6.84	-48.5	-64.7	3.8	1.49e+00	0	42	104	0	67	24821
2026-01-13 00:33:57.68	9.76	7.05	-48.5	-65.4	3.8	1.49e+00	0	42	104	0	67	26852
2026-01-13 00:34:00.66	9.62	7.27	-48.4	-63.6	3.8	1.49e+00	0	42	104	0	67	21891
2026-01-13 00:34:03.64	9.47	7.50	-48.2	-59.6	5.1	8.55e-01	0	42	0	2097152	67	13859
2026-01-13 00:34:06.62	9.32	7.72	-47.7	-56.5	7.5	1.73e-01	0	42	0	7340032	67	9710
2026-01-13 00:34:09.60	9.17	7.94	-47.3	-54.7	9.4	2.29e-02	0	42	0	13631488	66	8301
2026-01-13 00:34:12.58	9.01	8.17	-46.8	-53.1	11.0	2.21e-03	0	43	0	18874368	65	7317
2026-01-13 00:34:15.56	8.86	8.40	-46.7	-52.7	11.4	1.12e-03	0	42	0	24117248	65	7033
2026-01-13 00:34:18.54	8.70	8.63	-47.0	-53.7	10.4	3.50e-03	0	43	0	30408704	65	7840
2026-01-13 00:34:21.52	8.53	8.86	-47.7	-56.2	7.9	3.64e-02	0	43	0	35651584	65	10439
2026-01-13 00:34:24.50	8.37	9.10	-48.3	-61.1	4.4	8.08e-01	0	43	0	40894464	67	16477
2026-01-13 00:34:27.48	8.20	9.33	-48.5	-63.4	3.9	1.49e+00	0	43	104	45088768	67	21403
2026-01-13 00:34:30.47	8.02	9.57	-46.3	-50.8	13.4	1.06e-05	0	43	0	49283072	64	5961
2026-01-13 00:34:33.45	7.85	9.81	-46.2	-50.6	13.7	9.90e-06	0	43	0	54525952	64	5821
2026-01-13 00:34:36.44	7.67	10.05	-46.0	-50.3	13.9	2.20e-06	0	43	0	60817408	64	5649
2026-01-13 00:34:39.49	7.49	10.30	-45.8	-50.0	14.4	1.50e-06	0	43	0	66060288	63	5728
2026-01-13 00:34:42.35	7.31	10.54	-45.7	-49.7	14.6	0.00e+00	0	43	0	71303168	63	5550
2026-01-13 00:34:45.48	7.11	10.80	-45.7	-49.6	14.8	0.00e+00	0	43	0	77594624	63	5502
2026-01-13 00:34:48.32	6.93	11.04	-45.6	-49.6	14.8	0.00e+00	0	43	0	82837504	63	5500
2026-01-13 00:34:51.44	6.73	11.31	-45.6	-49.4	14.9	0.00e+00	0	43	0	88080384	63	5402
2026-01-13 00:34:54.29	6.54	11.55	-45.7	-49.6	14.8	0.00e+00	0	43	0	94371840	63	5474
2026-01-13 00:34:57.62	6.31	11.84	-45.5	-49.4	15.0	0.00e+00	0	43	0	99614720	62	5671
2026-01-13 00:35:00.32	6.12	12.08	-45.6	-49.4	15.0	0.00e+00	0	43	0	104857600	62	5685
2026-01-13 00:35:03.58	5.89	12.36	-45.6	-49.2	15.2	0.00e+00	0	43	0	111149056	62	5557
2026-01-13 00:35:06.66	5.67	12.64	-45.5	-49.1	15.3	0.00e+00	0	43	0	117440512	62	5522
2026-01-13 00:35:09.86	5.44	12.92	-45.4	-49.1	15.4	0.00e+00	0	43	0	122683392	62	5469
2026-01-13 00:35:12.78	5.22	13.19	-45.5	-49.0	15.5	0.00e+00	0	43	0	128974848	62	5438
2026-01-13 00:35:16.27	4.95	13.51	-45.4	-48.9	15.6	0.00e+00	0	43	0	135266304	62	5397
2026-01-13 00:35:18.97	4.74	13.76	-45.5	-49.0	15.4	0.00e+00	0	43	0	140509184	62	5453
2026-01-13 00:35:22.25	4.48	14.07	-45.6	-49.0	15.5	0.00e+00	0	43	0	145752064	62	5437
2026-01-13 00:35:24.96	4.26	14.32	-45.4	-48.8	15.7	0.00e+00	0	43	0	150994944	62	5284
2026-01-13 00:35:28.51	3.97	14.66	-45.5	-48.8	15.8	0.00e+00	0	43	0	158334976	62	5284
2026-01-13 00:35:31.22	3.74	14.92	-45.5	-48.8	15.7	0.00e+00	0	43	0	163577856	62	5328
2026-01-13 00:35:34.48	3.46	15.24	-45.5	-48.7	15.8	0.00e+00	0	43	0	168820736	62	5276
2026-01-13 00:35:37.18	3.22	15.51	-45.6	-48.9	15.6	0.00e+00	0	43	0	174063616	62	5366
2026-01-13 00:35:40.45	2.93	15.83	-45.6	-48.9	15.6	0.00e+00	0	43	0	180355072	62	5387
2026-01-13 00:35:43.27	2.67	16.11	-45.6	-48.9	15.6	0.00e+00	0	43	0	185597952	62	5394
2026-01-13 00:35:46.53	2.36	16.44	-45.5	-48.9	15.7	0.00e+00	0	43	0	191889408	62	5348
2026-01-13 00:35:49.23	2.10	16.72	-45.6	-49.1	15.5	0.00e+00	0	43	0	197132288	62	5479
2026-01-13 00:35:52.83	1.75	17.09	-45.5	-49.0	15.5	0.00e+00	0	43	0	203423744	62	5462
2026-01-13 00:35:55.67	1.47	17.39	-45.7	-49.3	15.3	0.00e+00	0	43	0	208666624	62	5611
2026-01-13 00:35:59.64	1.06	17.81	-45.8	-49.7	15.0	0.00e+00	0	43	0	216006656	62	5856
2026-01-13 00:36:02.49	0.76	18.12	-45.9	-49.6	15.0	0.00e+00	0	43	0	221249536	62	5854
2026-01-13 00:36:06.67	0.31	18.57	-46.0	-49.6	15.1	0.00e+00	0	43	0	229638144	62	5825
2026-01-13 00:36:09.51	359.99	18.88	-46.0	-49.5	15.1	0.00e+00	0	43	0	234881024	63	5429
2026-01-13 00:36:13.49	359.54	19.32	-46.1	-49.5	15.1	0.00e+00	0	43	0	242221056	63	5464
2026-01-13 00:36:16.54	359.18	19.67	-46.2	-49.6	15.1	0.00e+00	0	43	0	248512512	63	5485
2026-01-13 00:36:20.59	358.70	20.13	-46.2	-49.6	15.1	0.00e+00	0	43	0	255852544	63	5506
2026-01-13 00:36:23.50	358.34	20.46	-46.3	-49.7	15.0	0.00e+00	0	43	0	261095424	63	5572
2026-01-13 00:36:26.48	357.96	20.81	-46.3	-49.7	15.0	0.00e+00	0	43	0	266338304	63	5577
2026-01-13 00:36:29.47	357.58	21.16	-46.4	-49.8	14.9	0.00e+00	0	43	0	272629760	63	5637
2026-01-13 00:36:32.45	357.19	21.51	-46.4	-49.8	14.9	0.00e+00	0	43	0	277872640	63	5631
2026-01-13 00:36:35.44	356.78	21.87	-46.2	-49.6	15.1	0.00e+00	0	43	0	283115520	63	5486
2026-01-13 00:36:38.42	356.37	22.23	-46.2	-49.6	15.2	0.00e+00	0	43	0	289406976	63	5472
2026-01-13 00:36:41.40	355.95	22.59	-46.3	-49.9	14.8	0.00e+00	0	43	0	294649856	63	5690
2026-01-13 00:36:44.39	355.51	22.96	-46.3	-49.8	14.9	0.00e+00	0	43	0	299892736	63	5653
2026-01-13 00:36:47.37	355.07	23.33	-46.2	-49.6	15.2	0.00e+00	0	43	0	306184192	63	5486
2026-01-13 00:36:50.35	354.62	23.70	-46.1	-49.5	15.2	7.00e-07	0	43	0	311427072	63	5445
2026-01-13 00:36:53.29	354.16	24.08	-46.3	-49.8	15.0	0.00e+00	0	43	0	316669952	63	5611
2026-01-13 00:36:56.78	353.60	24.52	-46.1	-49.8	15.0	0.00e+00	0	43	0	324009984	63	5621
2026-01-13 00:36:59.49	353.15	24.87	-46.2	-50.1	14.7	0.00e+00	0	43	0	328204288	63	5805
2026-01-13 00:37:02.76	352.60	25.30	-46.0	-49.8	15.0	0.00e+00	0	43	0	334495744	63	5628
2026-01-13 00:37:05.51	352.12	25.66	-46.0	-49.5	15.2	0.00e+00	0	43	0	339738624	63	5462
2026-01-13 00:37:08.78	351.54	26.09	-46.1	-49.4	15.4	0.00e+00	0	43	0	346030080	63	5393
2026-01-13 00:37:11.60	351.03	26.47	-46.2	-49.6	15.2	0.00e+00	0	43	0	351272960	63	5497
2026-01-13 00:37:14.73	350.44	26.89	-46.2	-49.8	15.0	0.00e+00	0	43	0	357564416	63	5608
2026-01-13 00:37:17.57	349.90	27.27	-46.2	-49.7	15.1	0.00e+00	0	43	0	362807296	63	5554
2026-01-13 00:37:20.69	349.28	27.70	-46.4	-49.7	15.1	0.00e+00	0	43	0	368050176	63	5585
2026-01-13 00:37:23.64	348.69	28.10	-46.5	-49.9	14.9	0.00e+00	0	43	0	374341632	63	5687
2026-01-13 00:37:26.70	348.05	28.52	-46.8	-50.4	14.4	0.00e+00	0	43	0	379584512	64	5677
2026-01-13 00:37:30.19	347.31	29.01	-47.1	-51.1	13.6	5.30e-06	0	43	0	385875968	64	6158
2026-01-13 00:37:32.92	346.71	29.39	-47.1	-51.3	13.5	6.10e-06	0	43	0	391118848	64	6297
2026-01-13 00:37:36.43	345.92	29.88	-47.9	-52.6	12.2	1.12e-04	0	43	0	397410304	66	6499
2026-01-13 00:37:39.28	345.26	30.28	-48.3	-53.3	11.4	5.59e-04	0	43	0	403701760	67	6664
2026-01-13 00:37:42.41	344.51	30.72	-48.3	-53.3	11.5	1.23e-03	0	43	0	408944640	67	6647
2026-01-13 00:37:45.25	343.82	31.12	-48.1	-53.1	11.6	1.13e-03	0	43	0	414187520	67	6511
2026-01-13 00:37:48.52	343.00	31.59	-47.8	-52.8	11.9	2.54e-04	0	43	0	420478976	67	6294
2026-01-13 00:37:51.36	342.26	31.99	-47.9	-52.8	12.0	3.36e-04	0	43	0	425721856	67	6307
2026-01-13 00:37:54.49	341.43	32.43	-47.8	-52.6	12.2	2.18e-04	0	43	0	432013312	67	6177
2026-01-13 00:37:57.33	340.66	32.84	-48.1	-53.0	11.7	4.89e-04	0	43	0	437256192	67	6450
2026-01-13 00:38:00.46	339.79	33.28	-48.0	-52.7	12.0	2.97e-04	0	43	0	442499072	67	6252
2026-01-13 00:38:03.30	338.97	33.68	-47.7	-52.2	12.6	1.01e-04	0	43	0	447741952	67	5872
2026-01-13 00:38:06.52	338.02	34.13	-47.2	-51.3	13.4	1.29e-05	0	43	0	454033408	66	5639
2026-01-13 00:38:09.43	337.14	34.54	-47.1	-51.0	13.8	5.30e-06	0	43	0	459276288	66	5433
2026-01-13 00:38:12.62	336.15	34.98	-46.8	-50.6	14.1	3.00e-06	0	43	0	465567744	65	5500
2026-01-13 00:38:15.46	335.25	35.37	-46.7	-50.3	14.4	7.00e-07	0	43	0	470810624	65	5329
2026-01-13 00:38:18.59	334.22	35.80	-46.9	-50.6	14.1	0.00e+00	0	43	0	477102080	65	5512
2026-01-13 00:38:21.43	333.27	36.18	-47.0	-50.8	13.9	2.20e-06	0	43	0	482344960	65	5656
2026-01-13 00:38:24.56	332.20	36.59	-47.2	-51.0	13.8	5.30e-06	0	43	0	487587840	65	5741
2026-01-13 00:38:27.48	331.17	36.98	-47.2	-51.0	13.7	1.06e-05	0	43	0	493879296	65	5765
2026-01-13 00:38:30.60	330.05	37.38	-47.1	-51.0	13.8	7.60e-06	0	43	0	499122176	65	5723
2026-01-13 00:38:33.45	328.99	37.74	-47.4	-51.4	13.3	7.60e-06	0	43	0	504365056	65	6060
2026-01-13 00:38:36.76	327.74	38.15	-47.4	-52.0	12.8	4.19e-05	0	43	0	510656512	65	6442
2026-01-13 00:38:39.64	326.63	38.49	-47.1	-51.5	13.2	2.21e-05	0	43	0	515899392	65	6129
2026-01-13 00:38:43.00	325.30	38.88	-47.4	-51.7	13.1	3.50e-05	0	43	0	522190848	65	6220
2026-01-13 00:38:45.96	324.10	39.22	-47.2	-51.1	13.7	8.30e-06	0	43	0	528482304	65	5831
2026-01-13 00:38:49.24	322.74	39.57	-46.7	-50.3	14.5	0.00e+00	0	43	0	534773760	65	5288
2026-01-13 00:38:51.96	321.59	39.86	-46.3	-49.7	15.1	0.00e+00	0	43	0	538968064	64	5233
2026-01-13 00:38:55.29	320.16	40.19	-46.0	-49.2	15.6	0.00e+00	0	43	0	545259520	63	5249
2026-01-13 00:38:58.30	318.84	40.48	-46.0	-49.2	15.7	0.00e+00	0	43	0	551550976	63	5237
2026-01-13 00:39:01.96	317.20	40.80	-46.7	-50.3	14.5	0.00e+00	0	43	0	557842432	64	5600
2026-01-13 00:39:04.71	315.95	41.03	-46.7	-50.2	14.6	7.00e-07	0	43	0	563085312	64	5569
2026-01-13 00:39:07.98	314.44	41.29	-46.0	-49.2	15.6	0.00e+00	0	43	0	569376768	63	5242
2026-01-13 00:39:10.71	313.16	41.48	-45.9	-49.0	15.8	0.00e+00	0	43	0	574619648	63	5146
2026-01-13 00:39:14.03	311.59	41.70	-45.6	-48.7	16.1	0.00e+00	0	43	0	580911104	63	4933
2026-01-13 00:39:16.85	310.23	41.87	-45.6	-48.6	16.1	0.00e+00	0	43	0	586153984	63	4925
2026-01-13 00:39:20.27	308.57	42.04	-45.4	-48.3	16.4	0.00e+00	0	43	0	592445440	62	5040
2026-01-13 00:39:23.05	307.21	42.17	-45.5	-48.4	16.5	0.00e+00	0	43	0	597688320	62	5053
2026-01-13 00:39:26.32	305.59	42.29	-45.6	-48.6	16.2	0.00e+00	0	43	0	603979776	62	5196
2026-01-13 00:39:29.04	304.24	42.38	-45.5	-48.4	16.3	0.00e+00	0	43	0	609222656	62	5074
2026-01-13 00:39:32.66	302.43	42.46	-46.1	-49.2	15.6	0.00e+00	0	43	0	615514112	62	5584
2026-01-13 00:39:35.53	300.99	42.50	-46.0	-49.2	15.6	7.00e-07	0	43	0	620756992	62	5572
2026-01-13 00:39:38.66	299.42	42.53	-46.2	-49.5	15.3	0.00e+00	0	43	0	627048448	63	5449
2026-01-13 00:39:41.50	297.99	42.53	-46.7	-50.3	14.4	7.00e-07	0	43	0	632291328	64	5646
2026-01-13 00:39:44.63	296.41	42.51	-46.6	-50.1	14.7	0.00e+00	0	43	0	638582784	64	5479
2026-01-13 00:39:47.47	294.99	42.46	-46.7	-50.3	14.5	2.20e-06	0	43	0	643825664	64	5633
2026-01-13 00:39:50.60	293.42	42.39	-47.1	-51.0	13.8	6.10e-06	0	43	0	649068544	64	6070
2026-01-13 00:39:53.44	292.01	42.31	-47.5	-51.6	13.2	3.50e-05	0	43	0	654311424	65	6154
2026-01-13 00:39:56.63	290.43	42.20	-47.4	-51.4	13.3	1.14e-05	0	43	0	660602880	65	6028
2026-01-13 00:39:59.47	289.03	42.07	-47.9	-52.3	12.5	9.53e-05	0	43	0	665845760	66	6294
2026-01-13 00:40:02.60	287.51	41.91	-48.5	-53.5	11.2	1.11e-03	0	43	0	672137216	67	6852
2026-01-13 00:40:05.62	286.05	41.74	-48.3	-53.2	11.5	7.68e-04	0	43	0	677380096	67	6581
2026-01-13 00:40:09.22	284.34	41.51	-48.7	-53.9	10.9	2.39e-03	0	43	0	684720128	68	6743
2026-01-13 00:40:11.98	283.04	41.31	-47.8	-52.1	12.6	1.79e-04	0	43	0	689963008	67	5824
2026-01-13 00:40:15.25	281.52	41.06	-47.1	-50.9	13.9	6.10e-06	0	43	0	695205888	66	5354
2026-01-13 00:40:17.97	280.28	40.84	-46.8	-50.4	14.3	7.00e-07	0	43	0	700448768	65	5376
2026-01-13 00:40:21.23	278.82	40.55	-46.1	-49.3	15.4	0.00e+00	0	43	0	706740224	64	4989
2026-01-13 00:40:24.24	277.49	40.27	-45.4	-48.3	16.5	0.00e+00	0	43	0	713031680	62	5013
2026-01-13 00:40:27.52	276.06	39.94	-46.0	-49.1	15.6	0.00e+00	0	43	0	718274560	62	5518
2026-01-13 00:40:30.24	274.91	39.66	-45.3	-48.1	16.7	0.00e+00	0	43	0	723517440	62	4901
2026-01-13 00:40:33.52	273.54	39.31	-44.7	-47.3	17.4	0.00e+00	0	43	0	729808896	61	4738
2026-01-13 00:40:36.23	272.43	39.00	-45.4	-48.2	16.5	0.00e+00	0	43	0	735051776	61	5271
2026-01-13 00:40:39.51	271.12	38.62	-45.1	-48.0	16.7	0.00e+00	0	43	0	741343232	61	5110
2026-01-13 00:40:42.22	270.06	38.30	-44.5	-47.1	17.6	0.00e+00	0	43	0	746586112	60	4893
2026-01-13 00:40:45.78	268.69	37.87	-45.2	-48.0	16.7	0.00e+00	0	43	0	752877568	60	5423
2026-01-13 00:40:48.47	267.69	37.53	-45.4	-48.2	16.5	0.00e+00	0	43	0	758120448	61	5259
2026-01-13 00:40:51.74	266.49	37.11	-45.2	-48.0	16.7	0.00e+00	0	43	0	764411904	61	5131
2026-01-13 00:40:54.48	265.52	36.75	-45.1	-47.9	16.8	0.00e+00	0	43	0	769654784	61	5054
2026-01-13 00:40:57.75	264.38	36.32	-45.7	-48.7	16.0	0.00e+00	0	43	0	774897664	62	5264
2026-01-13 00:41:00.73	263.37	35.92	-45.4	-48.3	16.4	0.00e+00	0	43	0	781189120	62	5024
2026-01-13 00:41:03.72	262.38	35.51	-45.6	-48.6	16.1	0.00e+00	0	43	0	786432000	62	5173
2026-01-13 00:41:07.00	261.32	35.06	-46.1	-49.4	15.4	0.00e+00	0	43	0	792723456	63	5352
2026-01-13 00:41:09.70	260.47	34.68	-46.3	-49.7	15.1	0.00e+00	0	43	0	797966336	63	5554
2026-01-13 00:41:13.04	259.45	34.22	-46.7	-50.3	14.3	0.00e+00	0	43	0	804257792	64	5629
2026-01-13 00:41:15.77	258.64	33.83	-46.9	-50.6	14.1	2.20e-06	0	43	0	809500672	64	5821
2026-01-13 00:41:19.22	257.64	33.35	-47.2	-51.1	13.6	1.14e-05	0	43	0	815792128	65	5810
2026-01-13 00:41:21.99	256.85	32.95	-47.3	-51.2	13.4	5.30e-06	0	43	0	821035008	65	5905
2026-01-13 00:41:25.27	255.95	32.49	-47.8	-52.4	12.3	1.52e-04	0	43	0	827326464	66	6383
2026-01-13 00:41:27.99	255.22	32.10	-47.9	-52.4	12.3	2.14e-04	0	43	0	832569344	66	6406
2026-01-13 00:41:31.26	254.37	31.63	-47.5	-51.6	13.0	2.36e-05	0	43	0	837812224	66	5840
2026-01-13 00:41:34.09	253.65	31.23	-48.0	-52.6	12.1	1.98e-04	0	43	0	843055104	66	6533
2026-01-13 00:41:37.51	252.81	30.74	-47.7	-52.0	12.6	1.09e-04	0	43	0	850395136	66	6121
2026-01-13 00:41:40.23	252.15	30.36	-47.2	-51.1	13.5	2.36e-05	0	43	0	854589440	66	5506
2026-01-13 00:41:44.11	251.25	29.81	-47.2	-51.2	13.5	1.83e-05	0	43	0	861929472	66	5559
2026-01-13 00:41:46.97	250.60	29.41	-47.1	-50.9	13.8	4.50e-06	0	43	0	867172352	66	5391
2026-01-13 00:41:50.27	249.87	28.95	-46.7	-50.3	14.4	3.00e-06	0	43	0	873463808	65	5296
2026-01-13 00:41:53.23	249.24	28.53	-46.5	-49.9	14.7	0.00e+00	0	43	0	879755264	65	5082
2026-01-13 00:41:56.76	248.50	28.05	-46.6	-50.2	14.5	1.50e-06	0	43	0	886046720	65	5225
2026-01-13 00:41:59.45	247.95	27.67	-46.5	-49.9	14.7	7.00e-07	0	43	0	891289600	64	5371
2026-01-13 00:42:02.72	247.31	27.23	-46.3	-49.7	14.9	0.00e+00	0	43	0	897581056	64	5244
2026-01-13 00:42:05.53	246.76	26.85	-46.3	-49.6	15.0	0.00e+00	0	43	0	902823936	64	5208
2026-01-13 00:42:08.66	246.17	26.42	-46.3	-49.6	15.0	7.00e-07	0	43	0	908066816	64	5213
2026-01-13 00:42:11.50	245.65	26.04	-46.3	-49.6	15.0	7.00e-07	0	43	0	913309696	64	5215
2026-01-13 00:42:14.63	245.10	25.63	-46.3	-49.6	15.0	0.00e+00	0	43	0	919601152	64	5198
2026-01-13 00:42:17.47	244.60	25.25	-46.4	-49.7	14.9	7.00e-07	0	43	0	924844032	64	5277
2026-01-13 00:42:20.60	244.07	24.84	-46.4	-49.8	14.8	0.00e+00	0	42	0	931135488	64	5297
2026-01-13 00:42:23.44	243.60	24.48	-46.3	-49.6	15.0	0.00e+00	0	43	0	936378368	64	5215
2026-01-13 00:42:26.57	243.09	24.07	-46.2	-49.4	15.2	0.00e+00	0	43	0	941621248	64	5088
2026-01-13 00:42:29.41	242.64	23.71	-46.3	-49.6	15.0	0.00e+00	0	42	0	946864128	64	5183
2026-01-13 00:42:32.61	242.15	23.31	-46.5	-50.0	14.6	7.00e-07	0	42	0	953155584	64	5438
2026-01-13 00:42:35.46	241.72	22.95	-46.6	-50.1	14.5	0.00e+00	0	42	0	958398464	64	5522
2026-01-13 00:42:38.58	241.27	22.57	-46.5	-50.0	14.6	7.00e-07	0	43	0	964689920	64	5434
2026-01-13 00:42:41.42	240.86	22.22	-46.2	-49.5	15.1	0.00e+00	0	42	0	969932800	64	5143
2026-01-13 00:42:44.55	240.42	21.84	-46.2	-49.4	15.2	0.00e+00	0	42	0	975175680	64	5080
2026-01-13 00:42:47.40	240.03	21.49	-46.3	-49.7	14.9	0.00e+00	0	42	0	980418560	64	5240
2026-01-13 00:42:50.63	239.60	21.11	-46.5	-50.0	14.5	7.00e-07	0	42	0	986710016	64	5455
2026-01-13 00:42:53.47	239.23	20.77	-46.6	-50.1	14.4	0.00e+00	0	42	0	991952896	64	5509
2026-01-13 00:42:56.60	238.84	20.41	-46.4	-49.9	14.7	7.00e-07	0	42	0	998244352	64	5358
2026-01-13 00:42:59.44	238.48	20.08	-46.3	-49.7	14.8	0.00e+00	0	42	0	1003487232	64	5270
2026-01-13 00:43:02.56	238.10	19.72	-46.3	-49.7	14.8	0.00e+00	0	42	0	1009778688	64	5245
2026-01-13 00:43:05.41	237.77	19.40	-46.2	-49.6	14.9	0.00e+00	0	42	0	1015021568	64	5205
2026-01-13 00:43:08.53	237.40	19.05	-46.4	-49.8	14.7	7.00e-07	0	42	0	1020264448	64	5328
2026-01-13 00:43:11.38	237.08	18.74	-46.4	-50.0	14.6	0.00e+00	0	42	0	1025507328	64	5406
2026-01-13 00:43:14.71	236.71	18.37	-46.5	-50.1	14.5	7.00e-07	0	42	0	1031798784	64	5481
2026-01-13 00:43:17.43	236.41	18.07	-46.3	-49.9	14.6	0.00e+00	0	42	0	1037041664	64	5364
2026-01-13 00:43:20.71	236.07	17.72	-46.3	-49.8	14.7	7.00e-07	0	42	0	1043333120	64	5326
2026-01-13 00:43:23.51	235.77	17.42	-46.4	-50.0	14.5	0.00e+00	0	43	0	1048576000	64	5424
2026-01-13 00:43:26.64	235.46	17.09	-46.2	-49.7	14.8	0.00e+00	0	43	0	1054867456	64	5225
2026-01-13 00:43:29.48	235.17	16.80	-46.2	-49.7	14.7	0.00e+00	0	42	0	1060110336	64	5255
2026-01-13 00:43:32.61	234.87	16.47	-46.2	-49.6	14.9	0.00e+00	0	42	0	1065353216	64	5193
2026-01-13 00:43:35.44	234.60	16.19	-46.1	-49.5	15.0	7.00e-07	0	42	0	1070596096	64	5137
2026-01-13 00:43:38.57	234.30	15.87	-46.2	-49.6	14.9	0.00e+00	0	42	0	1076887552	64	5194
2026-01-13 00:43:41.41	234.04	15.58	-46.5	-50.1	14.3	7.00e-07	0	42	0	1082130432	64	5500
2026-01-13 00:43:44.54	233.76	15.27	-46.6	-50.3	14.1	2.20e-06	0	42	0	1088421888	64	5643
2026-01-13 00:43:47.38	233.51	14.99	-46.7	-50.4	14.1	1.50e-06	0	42	0	1093664768	64	5691
2026-01-13 00:43:50.59	233.24	14.68	-46.5	-50.1	14.3	1.50e-06	0	42	0	1098907648	64	5480
2026-01-13 00:43:53.45	232.99	14.41	-46.5	-50.1	14.3	7.00e-07	0	43	0	1105199104	64	5491
2026-01-13 00:43:56.58	232.73	14.11	-46.5	-50.2	14.2	1.50e-06	0	42	0	1110441984	64	5544
2026-01-13 00:43:59.42	232.50	13.84	-46.5	-50.2	14.2	1.50e-06	0	42	0	1115684864	64	5570
2026-01-13 00:44:02.55	232.25	13.55	-46.8	-50.6	13.8	4.50e-06	0	42	0	1121976320	64	5825
2026-01-13 00:44:05.39	232.03	13.29	-46.9	-50.9	13.4	9.90e-06	0	42	0	1127219200	64	6057
2026-01-13 00:44:08.61	231.79	12.99	-47.0	-51.1	13.2	3.20e-05	0	42	0	1133510656	64	6166
2026-01-13 00:44:11.45	231.57	12.73	-47.1	-51.3	13.1	2.28e-05	0	42	0	1138753536	64	6278
2026-01-13 00:44:14.57	231.34	12.45	-47.0	-51.1	13.3	2.13e-05	0	42	0	1143996416	64	6150
2026-01-13 00:44:17.41	231.14	12.20	-47.1	-51.2	13.1	2.74e-05	0	42	0	1150287872	64	6237
2026-01-13 00:44:20.54	230.91	11.92	-47.2	-51.4	12.9	3.43e-05	0	42	0	1155530752	65	6002
2026-01-13 00:44:23.38	230.71	11.67	-47.2	-51.5	12.8	6.40e-05	0	42	0	1160773632	65	6080
2026-01-13 00:44:26.51	230.50	11.40	-47.3	-51.6	12.6	7.32e-05	0	42	0	1167065088	65	6169
2026-01-13 00:44:29.46	230.30	11.15	-47.4	-51.8	12.4	1.60e-04	0	42	0	1172307968	65	6329
2026-01-13 00:44:32.71	230.09	10.87	-47.4	-51.9	12.3	1.69e-04	0	42	0	1178599424	65	6397
2026-01-13 00:44:35.55	229.90	10.63	-47.4	-51.9	12.3	1.78e-04	0	42	0	1183842304	65	6400
2026-01-13 00:44:38.68	229.70	10.37	-47.3	-51.7	12.4	1.44e-04	0	42	0	1190133760	65	6247
2026-01-13 00:44:41.84	229.51	10.11	-47.2	-51.7	12.5	1.11e-04	0	42	0	1195376640	65	6209
2026-01-13 00:44:44.76	229.33	9.87	-47.2	-51.6	12.5	9.99e-05	0	42	0	1200619520	65	6197
2026-01-13 00:44:47.75	229.15	9.63	-47.3	-51.9	12.2	1.61e-04	0	42	0	1206910976	65	6375
2026-01-13 00:44:50.73	228.97	9.39	-47.3	-51.9	12.2	2.17e-04	0	42	0	1212153856	65	6371
2026-01-13 00:44:53.71	228.80	9.15	-47.4	-52.2	11.8	3.55e-04	0	42	0	1217396736	65	6618
2026-01-13 00:44:56.64	228.63	8.92	-50.5	-65.4	3.8	1.44e+00	0	42	104	1221591040	71	21441
2026-01-13 00:44:59.76	228.45	8.67	-50.8	-66.0	3.8	1.49e+00	0	42	104	1221591040	72	21745
2026-01-13 00:45:02.60	228.29	8.45	-50.9	-66.2	3.8	1.49e+00	0	42	104	1221591040	72	22059
2026-01-13 00:45:05.72	228.12	8.21	-51.1	-66.2	3.8	1.49e+00	0	42	104	1221591040	72	22135
2026-01-13 00:45:08.56	227.97	7.99	-50.9	-66.2	3.8	1.49e+00	0	42	104	1221591040	72	22057
2026-01-13 00:45:11.68	227.81	7.75	-50.8	-66.2	3.8	1.49e+00	0	42	104	1221591040	72	22199
2026-01-13 00:45:14.52	227.66	7.54	-50.9	-66.2	3.8	1.49e+00	0	42	104	1221591040	72	22035
2026-01-13 00:45:17.64	227.50	7.31	-50.8	-66.2	3.8	1.49e+00	0	42	104	1221591040	72	22012
2026-01-13 00:45:20.48	227.36	7.10	-50.8	-66.1	3.8	1.49e+00	0	42	104	1221591040	72	21947
2026-01-13 00:45:23.60	227.20	6.87	-50.8	-66.1	3.8	1.49e+00	0	42	104	1221591040	72	21913
2026-01-13 00:45:26.44	227.06	6.66	-50.8	-66.1	3.8	1.49e+00	0	42	104	1221591040	72	21897
2026-01-13 00:45:29.56	226.91	6.43	-50.8	-66.1	3.8	1.49e+00	0	42	104	1221591040	72	21964
2026-01-13 00:45:32.40	226.78	6.23	-50.8	-66.1	3.8	1.49e+00	0	42	104	1221591040	72	21872
2026-01-13 00:45:35.52	226.63	6.00	-50.8	-66.1	3.8	1.49e+00	0	42	104	1221591040	72	21936
2026-01-13 00:45:38.36	226.50	5.80	-50.8	-66.1	3.8	1.49e+00	0	42	104	1221591040	72	21812
2026-01-13 00:45:41.48	226.36	5.58	-50.8	-66.0	3.8	1.49e+00	0	42	104	1221591040	72	21745
2026-01-13 00:45:44.32	226.24	5.38	-50.7	-66.1	3.8	1.49e+00	0	42	104	1221591040	72	21791
2026-01-13 00:45:47.44	226.10	5.17	-50.8	-66.1	3.8	1.49e+00	0	42	104	1221591040	72	21804
2026-01-13 00:45:50.27	225.98	4.97	-50.7	-66.1	3.8	1.49e+00	0	42	104	1221591040	72	21897

#Closed at: 2026-01-13 00:45:51
#Recorded file [1221 MB]: D:/Data/31040_260113_033330.dat