passes_logs/2026/01/13/T1/T1__20260113_104214_AQUA_rec.log

#Pass ID: 20260113_104214_AQUA
#Satellite: AQUA
#Configuration: AQUA
#almurnet v.1.7.20251203
#Start time: 2026-01-13 10:42:15

#Version: 2.0.20230620
#Station: T1
#Location: 37.570604 lon 55.790049 lat
#TLE: 1 27424U 02022A   26012.29577270  .00001027  00000+0  21555-3 0  9995
#TLE: 2 27424  98.4078 338.6778 0002034  81.5885  29.6294 14.61817302260499

#Time	Az	El	Level	Level2	SNR	BER	BlckErr	Temp	State	Recorded	gain1	gain2
2026-01-13 10:42:15.98	128.20	5.12	-53.4	-73.4	3.8	7.46e-01	0	40	0	0	78	35697
2026-01-13 10:42:18.95	128.01	5.33	-53.4	-72.4	3.8	7.50e-01	0	40	104	0	77	33967
2026-01-13 10:42:21.93	127.81	5.55	-53.4	-73.0	3.8	7.48e-01	0	41	104	0	77	36276
2026-01-13 10:42:24.91	127.62	5.76	-53.4	-73.5	3.8	7.47e-01	0	41	104	0	77	38350
2026-01-13 10:42:27.89	127.42	5.97	-53.4	-73.5	3.8	7.49e-01	0	41	104	0	77	38621
2026-01-13 10:42:30.87	127.21	6.19	-53.4	-73.2	3.8	7.47e-01	0	41	104	0	77	37139
2026-01-13 10:42:33.85	127.01	6.41	-53.3	-72.3	3.8	7.45e-01	0	41	104	0	77	33515
2026-01-13 10:42:36.83	126.80	6.63	-53.3	-71.7	3.8	7.48e-01	0	41	104	0	77	31132
2026-01-13 10:42:39.81	126.58	6.85	-53.4	-72.4	3.8	7.47e-01	0	41	104	0	77	34028
2026-01-13 10:42:42.79	126.36	7.08	-53.3	-72.7	3.8	7.44e-01	0	41	104	0	77	34915
2026-01-13 10:42:45.77	126.14	7.30	-53.3	-69.8	4.2	7.33e-01	0	41	104	0	77	25226
2026-01-13 10:42:48.75	125.92	7.53	-53.4	-72.4	3.8	7.45e-01	0	41	104	0	77	33762
2026-01-13 10:42:51.73	125.69	7.76	-52.9	-64.2	7.9	6.49e-01	0	41	0	1048576	77	13151
2026-01-13 10:42:54.71	125.45	7.99	-50.9	-56.2	16.1	6.09e-01	0	42	0	6291456	73	6640
2026-01-13 10:42:57.70	125.22	8.23	-49.4	-53.2	19.1	6.07e-01	0	42	0	12058624	70	5571
2026-01-13 10:43:00.68	124.97	8.46	-49.9	-54.1	18.3	6.06e-01	0	42	0	17825792	70	6155
2026-01-13 10:43:03.65	124.73	8.70	-51.9	-59.0	13.4	6.12e-01	0	42	0	23068672	74	8621
2026-01-13 10:43:06.63	124.48	8.94	-53.3	-70.8	4.0	7.40e-01	0	42	104	27262976	77	28200
2026-01-13 10:43:09.62	124.22	9.18	-53.1	-64.5	8.2	6.46e-01	0	42	0	28311552	76	14426
2026-01-13 10:43:12.98	123.93	9.46	-53.4	-70.0	4.2	7.33e-01	0	42	104	28835840	77	25639
2026-01-13 10:43:15.68	123.69	9.68	-53.4	-68.7	4.0	7.36e-01	0	42	104	28835840	77	22168
2026-01-13 10:43:18.95	123.39	9.95	-52.6	-60.4	12.1	6.17e-01	0	42	0	33554432	75	9566
2026-01-13 10:43:21.74	123.13	10.19	-53.5	-69.1	4.6	7.22e-01	0	42	104	34078720	78	21805
2026-01-13 10:43:25.15	122.81	10.48	-53.6	-69.5	4.2	7.41e-01	0	42	104	34078720	78	22975
2026-01-13 10:43:27.92	122.54	10.72	-53.6	-69.3	3.9	7.42e-01	0	42	104	34078720	78	22426
2026-01-13 10:43:31.26	122.21	11.00	-53.7	-71.5	3.9	7.41e-01	0	42	104	34078720	78	28796
2026-01-13 10:43:33.96	121.94	11.24	-53.6	-66.8	5.8	6.85e-01	0	42	0	34603008	78	16854
2026-01-13 10:43:37.23	121.61	11.53	-53.4	-64.8	8.8	6.51e-01	0	42	0	39845888	77	14174
2026-01-13 10:43:40.09	121.31	11.78	-53.6	-68.2	5.0	7.09e-01	0	43	0	41418752	77	20825
2026-01-13 10:43:43.50	120.94	12.09	-51.7	-57.5	15.2	6.08e-01	0	42	0	46137344	75	6867
2026-01-13 10:43:46.22	120.65	12.34	-50.1	-54.2	18.4	6.07e-01	0	42	0	51380224	72	5566
2026-01-13 10:43:50.12	120.21	12.69	-48.4	-51.5	21.1	6.05e-01	0	42	0	58720256	68	5107
2026-01-13 10:43:52.96	119.89	12.95	-48.3	-51.3	21.2	6.09e-01	0	42	0	63963136	68	5028
2026-01-13 10:43:56.65	119.46	13.30	-48.1	-51.1	21.3	6.07e-01	0	42	0	70778880	68	4893
2026-01-13 10:43:59.58	119.11	13.58	-47.9	-50.8	21.4	6.08e-01	0	42	0	76546048	67	5038
2026-01-13 10:44:02.57	118.75	13.86	-47.8	-50.8	21.4	6.06e-01	0	42	0	81788928	67	4992
2026-01-13 10:44:05.55	118.38	14.15	-47.7	-50.7	21.3	6.10e-01	0	43	0	87556096	67	4973
2026-01-13 10:44:08.54	118.00	14.44	-47.5	-50.6	21.4	6.08e-01	0	42	0	93323264	66	5169
2026-01-13 10:44:11.52	117.61	14.73	-47.5	-50.6	21.4	6.07e-01	0	42	0	98566144	66	5184
2026-01-13 10:44:14.51	117.22	15.02	-47.5	-50.5	21.4	6.06e-01	0	42	0	104333312	66	5134
2026-01-13 10:44:17.49	116.81	15.32	-47.6	-50.6	21.3	6.09e-01	0	42	0	110100480	66	5200
2026-01-13 10:44:20.47	116.40	15.62	-47.3	-50.3	21.6	6.06e-01	0	42	0	115343360	66	4990
2026-01-13 10:44:23.46	115.98	15.92	-47.2	-50.2	21.6	6.06e-01	0	43	0	121110528	66	4949
2026-01-13 10:44:26.55	115.53	16.24	-47.0	-49.9	21.9	6.07e-01	0	42	0	126877696	65	5066
2026-01-13 10:44:29.40	115.11	16.53	-46.8	-49.6	22.0	6.06e-01	0	43	0	132120576	65	4919
2026-01-13 10:44:32.53	114.64	16.86	-47.0	-49.9	21.8	6.07e-01	0	42	0	137887744	65	5059
2026-01-13 10:44:35.37	114.20	17.16	-47.1	-50.0	21.7	6.09e-01	0	43	0	143654912	65	5145
2026-01-13 10:44:38.50	113.70	17.49	-47.1	-50.0	21.7	6.08e-01	0	43	0	149422080	65	5140
2026-01-13 10:44:41.34	113.25	17.79	-47.1	-50.1	21.6	6.06e-01	0	43	0	154664960	65	5171
2026-01-13 10:44:44.47	112.73	18.13	-47.0	-49.9	21.8	6.07e-01	0	43	0	160432128	65	5069
2026-01-13 10:44:47.31	112.25	18.44	-47.0	-49.9	21.7	6.08e-01	0	42	0	165675008	65	5089
2026-01-13 10:44:50.61	111.68	18.80	-46.9	-49.9	21.7	6.05e-01	0	43	0	171966464	65	5091
2026-01-13 10:44:53.34	111.19	19.10	-47.0	-50.1	21.6	6.07e-01	0	43	0	177209344	65	5165
2026-01-13 10:44:56.64	110.60	19.46	-47.0	-50.1	21.6	6.08e-01	0	42	0	183500800	65	5165
2026-01-13 10:44:59.36	110.09	19.76	-46.9	-49.8	21.8	6.05e-01	0	43	0	188219392	65	5019
2026-01-13 10:45:02.63	109.47	20.13	-46.9	-49.9	21.8	6.07e-01	0	43	0	194510848	65	5054
2026-01-13 10:45:05.68	108.88	20.48	-47.0	-50.0	21.7	6.08e-01	0	43	0	200278016	65	5141
2026-01-13 10:45:08.66	108.28	20.81	-47.1	-50.1	21.5	6.08e-01	0	43	0	206045184	65	5193
2026-01-13 10:45:11.65	107.67	21.16	-47.1	-50.1	21.5	6.09e-01	0	43	0	211288064	65	5202
2026-01-13 10:45:14.63	107.05	21.50	-46.8	-49.8	21.8	6.07e-01	0	43	0	217055232	65	5018
2026-01-13 10:45:17.61	106.41	21.84	-47.0	-50.0	21.6	6.08e-01	0	43	0	222822400	65	5146
2026-01-13 10:45:20.60	105.76	22.19	-47.2	-50.2	21.5	6.07e-01	0	43	0	228065280	65	5233
2026-01-13 10:45:23.58	105.09	22.53	-47.1	-50.1	21.6	6.05e-01	0	43	0	233832448	65	5181
2026-01-13 10:45:26.57	104.41	22.88	-47.2	-50.2	21.5	6.06e-01	0	43	0	239599616	65	5248
2026-01-13 10:45:29.55	103.71	23.23	-47.1	-50.1	21.6	6.08e-01	0	43	0	244842496	65	5167
2026-01-13 10:45:32.54	102.99	23.58	-46.9	-49.9	21.8	6.07e-01	0	43	0	250609664	65	5089
2026-01-13 10:45:35.52	102.25	23.93	-47.2	-50.1	21.6	6.09e-01	0	43	0	256376832	65	5204
2026-01-13 10:45:38.51	101.50	24.28	-47.3	-50.3	21.4	6.06e-01	0	43	0	261619712	65	5311
2026-01-13 10:45:41.50	100.73	24.63	-47.1	-50.1	21.7	6.08e-01	0	43	0	267386880	65	5162
2026-01-13 10:45:44.49	99.94	24.98	-47.1	-50.0	21.7	6.08e-01	0	43	0	273154048	65	5152
2026-01-13 10:45:47.47	99.13	25.32	-47.1	-50.1	21.7	6.08e-01	0	43	0	278396928	65	5189
2026-01-13 10:45:50.45	98.31	25.67	-47.0	-50.0	21.8	6.07e-01	0	43	0	284164096	65	5137
2026-01-13 10:45:53.44	97.47	26.01	-47.1	-50.1	21.7	6.08e-01	0	43	0	289931264	65	5211
2026-01-13 10:45:56.42	96.60	26.36	-47.2	-50.2	21.7	6.06e-01	0	43	0	295174144	65	5230
2026-01-13 10:45:59.45	95.71	26.70	-47.1	-50.0	21.9	6.06e-01	0	43	0	300941312	65	5123
2026-01-13 10:46:02.44	94.80	27.04	-47.1	-50.0	21.9	6.06e-01	0	43	0	306708480	65	5125
2026-01-13 10:46:05.42	93.88	27.37	-46.9	-49.8	22.1	6.06e-01	0	43	0	312475648	65	5021
2026-01-13 10:46:08.41	92.94	27.70	-46.9	-49.8	22.2	6.08e-01	0	43	0	317718528	65	5028
2026-01-13 10:46:11.40	91.97	28.03	-47.0	-49.8	22.2	6.05e-01	0	43	0	323485696	65	5037
2026-01-13 10:46:14.38	90.99	28.35	-46.9	-49.8	22.3	6.05e-01	0	43	0	329252864	65	4996
2026-01-13 10:46:17.43	89.96	28.67	-47.0	-49.9	22.3	6.06e-01	0	43	0	335020032	65	5042
2026-01-13 10:46:20.34	88.96	28.98	-47.1	-50.0	22.2	6.09e-01	0	43	0	340262912	65	5121
2026-01-13 10:46:23.32	87.92	29.28	-46.8	-49.7	22.5	6.08e-01	0	43	0	346030080	65	4963
2026-01-13 10:46:26.30	86.85	29.57	-46.9	-49.9	22.4	6.07e-01	0	43	0	351272960	65	5070
2026-01-13 10:46:29.29	85.76	29.86	-46.8	-49.7	22.4	6.10e-01	0	43	0	357040128	65	4981
2026-01-13 10:46:32.35	84.63	30.15	-46.9	-49.8	22.5	6.08e-01	0	43	0	362807296	65	4992
2026-01-13 10:46:35.35	83.50	30.42	-46.9	-49.8	22.5	6.08e-01	0	43	0	368574464	65	5032
2026-01-13 10:46:38.41	82.32	30.69	-47.0	-49.9	22.5	6.08e-01	0	43	0	374341632	65	5072
2026-01-13 10:46:41.40	81.16	30.94	-47.3	-50.1	22.3	6.03e-01	0	43	0	379584512	65	5186
2026-01-13 10:46:44.38	79.98	31.18	-47.1	-49.9	22.5	6.06e-01	0	43	0	385351680	65	5094
2026-01-13 10:46:47.37	78.77	31.41	-47.1	-49.9	22.5	6.06e-01	0	43	0	391118848	65	5080
2026-01-13 10:46:50.43	77.52	31.63	-47.2	-50.0	22.5	6.07e-01	0	43	0	396886016	65	5107
2026-01-13 10:46:53.30	76.34	31.82	-47.3	-50.2	22.2	6.06e-01	0	43	0	402128896	65	5264
2026-01-13 10:46:56.43	75.03	32.02	-47.3	-50.2	22.3	6.07e-01	0	43	0	407896064	65	5246
2026-01-13 10:46:59.28	73.82	32.19	-47.3	-50.2	22.4	6.07e-01	0	43	0	413138944	65	5219
2026-01-13 10:47:02.40	72.48	32.35	-47.6	-50.4	22.1	6.05e-01	0	43	0	418906112	65	5366
2026-01-13 10:47:05.24	71.26	32.49	-47.3	-50.0	22.5	6.06e-01	0	43	0	424673280	65	5133
2026-01-13 10:47:08.37	69.89	32.63	-47.6	-50.4	22.1	6.09e-01	0	43	0	430440448	66	5075
2026-01-13 10:47:11.22	68.64	32.74	-47.7	-50.5	22.1	6.07e-01	0	43	0	435683328	66	5133
2026-01-13 10:47:14.69	67.10	32.85	-47.5	-50.3	22.3	6.07e-01	0	43	0	441974784	66	5004
2026-01-13 10:47:17.41	65.89	32.92	-47.7	-50.5	22.1	6.07e-01	0	43	0	447217664	66	5158
2026-01-13 10:47:20.68	64.43	32.99	-47.7	-50.5	22.1	6.07e-01	0	43	0	453509120	66	5157
2026-01-13 10:47:23.50	63.17	33.03	-47.7	-50.5	22.1	6.07e-01	0	43	0	458752000	66	5127
2026-01-13 10:47:26.84	61.67	33.06	-47.8	-50.7	22.0	6.07e-01	0	43	0	465043456	66	5231
2026-01-13 10:47:29.77	60.35	33.07	-47.7	-50.6	22.1	6.07e-01	0	43	0	470286336	66	5162
2026-01-13 10:47:32.93	58.93	33.06	-47.7	-50.5	22.2	6.09e-01	0	43	0	476577792	66	5117
2026-01-13 10:47:35.77	57.65	33.04	-47.8	-50.8	21.9	6.05e-01	0	43	0	481820672	66	5281
2026-01-13 10:47:38.90	56.25	32.99	-47.9	-50.8	21.9	6.09e-01	0	43	0	487587840	66	5317
2026-01-13 10:47:41.74	54.98	32.93	-47.8	-50.7	22.0	6.08e-01	0	43	0	492830720	66	5231
2026-01-13 10:47:45.00	53.53	32.85	-47.8	-50.8	21.9	6.08e-01	0	43	0	499122176	66	5310
2026-01-13 10:47:48.19	52.12	32.75	-48.1	-51.0	21.6	6.06e-01	0	43	0	504889344	66	5438
2026-01-13 10:47:51.03	50.87	32.64	-47.9	-50.8	21.8	6.07e-01	0	43	0	510132224	66	5325
2026-01-13 10:47:54.16	49.51	32.51	-47.9	-50.8	21.8	6.07e-01	0	43	0	516423680	66	5332
2026-01-13 10:47:57.01	48.28	32.37	-47.9	-50.8	21.7	6.07e-01	0	43	0	521666560	66	5328
2026-01-13 10:48:00.12	46.95	32.20	-47.8	-50.7	21.8	6.07e-01	0	43	0	527433728	66	5259
2026-01-13 10:48:03.10	45.69	32.03	-47.8	-50.8	21.7	6.09e-01	0	43	0	533200896	66	5304
2026-01-13 10:48:06.75	44.16	31.80	-47.6	-50.7	21.7	6.06e-01	0	43	0	540016640	66	5259
2026-01-13 10:48:09.59	42.99	31.61	-48.1	-60.4	3.9	7.45e-01	0	43	104	544210944	66	16100
2026-01-13 10:48:13.57	41.38	31.31	-48.4	-60.8	3.8	7.45e-01	0	43	104	544210944	67	15896
2026-01-13 10:48:16.44	40.23	31.09	-50.7	-64.3	3.9	7.44e-01	0	43	104	544210944	71	18746
2026-01-13 10:48:20.25	38.74	30.78	-48.9	-61.7	3.7	7.45e-01	0	43	104	544210944	69	15589
2026-01-13 10:48:23.22	37.60	30.53	-51.7	-66.9	3.7	7.49e-01	0	43	104	544210944	74	21324
2026-01-13 10:48:26.49	36.36	30.23	-53.0	-72.8	3.8	7.47e-01	0	43	104	544210944	77	35375
2026-01-13 10:48:29.22	35.34	29.98	-52.0	-72.7	3.8	7.46e-01	0	43	104	544210944	76	36990
2026-01-13 10:48:32.49	34.15	29.67	-50.4	-64.9	3.8	7.43e-01	0	43	104	544210944	73	18068
2026-01-13 10:48:35.22	33.17	29.40	-48.9	-61.9	3.8	7.43e-01	0	43	104	544210944	69	16089
2026-01-13 10:48:38.50	32.02	29.07	-48.3	-60.8	3.8	7.44e-01	0	43	104	544210944	68	15014
2026-01-13 10:48:41.21	31.09	28.80	-53.0	-72.9	3.8	7.46e-01	0	43	104	544210944	76	38141
2026-01-13 10:48:44.62	29.94	28.44	-49.2	-62.4	3.8	7.46e-01	0	43	104	544210944	70	16094
2026-01-13 10:48:47.37	29.03	28.15	-48.8	-61.9	3.8	7.43e-01	0	43	104	544210944	69	16077
2026-01-13 10:48:50.76	27.93	27.78	-49.0	-62.4	3.8	7.44e-01	0	43	104	544210944	70	15982
2026-01-13 10:48:53.52	27.06	27.48	-48.7	-61.6	3.8	7.46e-01	0	43	104	544210944	69	15519
2026-01-13 10:48:56.79	26.05	27.11	-48.1	-60.8	3.8	7.45e-01	0	43	104	544210944	68	14991
2026-01-13 10:48:59.55	25.21	26.80	-53.0	-73.3	3.8	7.45e-01	0	43	104	544210944	76	39595
2026-01-13 10:49:03.14	24.15	26.39	-53.0	-73.2	3.8	7.42e-01	0	43	104	544210944	76	39387
2026-01-13 10:49:05.84	23.37	26.09	-52.9	-72.5	3.8	7.47e-01	0	43	104	544210944	76	36356
2026-01-13 10:49:09.13	22.44	25.71	-49.3	-62.5	3.8	7.45e-01	0	43	104	544210944	69	17125
2026-01-13 10:49:11.87	21.69	25.39	-48.0	-61.0	3.8	7.46e-01	0	43	104	544210944	68	15293
2026-01-13 10:49:15.44	20.73	24.98	-48.6	-61.8	3.8	7.45e-01	0	43	104	544210944	68	16880
2026-01-13 10:49:18.16	20.01	24.66	-52.0	-71.5	3.8	7.47e-01	0	43	104	544210944	74	36271
2026-01-13 10:49:21.79	19.08	24.24	-52.0	-71.8	3.8	7.47e-01	0	43	104	544210944	74	37716
2026-01-13 10:49:24.74	18.35	23.90	-52.5	-71.5	3.8	7.44e-01	0	43	104	544210944	75	34171
2026-01-13 10:49:28.15	17.52	23.50	-52.2	-73.1	3.8	7.46e-01	0	43	104	544210944	75	40982
2026-01-13 10:49:30.98	16.85	23.17	-49.0	-62.0	3.8	7.49e-01	0	43	104	544210944	69	16299
2026-01-13 10:49:34.11	16.12	22.81	-49.0	-63.1	3.8	7.43e-01	0	43	104	544210944	68	19519
2026-01-13 10:49:37.28	15.40	22.44	-51.0	-69.3	3.9	7.49e-01	0	43	104	544210944	73	30017
2026-01-13 10:49:40.50	14.69	22.07	-49.8	-63.7	3.8	7.41e-01	0	43	104	544210944	71	17676
2026-01-13 10:49:43.35	14.08	21.74	-51.7	-68.1	3.9	7.45e-01	0	43	104	544210944	74	24412
2026-01-13 10:49:46.47	13.42	21.38	-52.0	-68.8	4.0	7.43e-01	0	43	104	544210944	76	23617
2026-01-13 10:49:49.31	12.84	21.06	-47.2	-60.1	3.8	7.43e-01	0	43	104	544210944	66	15568
2026-01-13 10:49:52.44	12.21	20.71	-50.3	-67.0	3.8	7.48e-01	0	43	104	544210944	71	25809
2026-01-13 10:49:55.28	11.65	20.39	-50.5	-65.5	3.9	7.46e-01	0	43	104	544210944	72	20366
2026-01-13 10:49:58.41	11.05	20.04	-48.1	-61.1	3.8	7.47e-01	0	43	104	544210944	68	15497
2026-01-13 10:50:01.25	10.52	19.72	-49.4	-63.3	3.8	7.50e-01	0	43	104	544210944	69	18915
2026-01-13 10:50:04.38	9.95	19.37	-51.7	-72.5	3.8	7.51e-01	0	43	104	544210944	75	38598
2026-01-13 10:50:07.22	9.44	19.06	-52.0	-73.0	3.8	7.47e-01	0	43	104	544210944	75	40791
2026-01-13 10:50:10.57	8.86	18.69	-50.6	-67.8	3.9	7.44e-01	0	43	104	544210944	73	25042
2026-01-13 10:50:13.54	8.35	18.37	-49.6	-67.4	4.0	7.43e-01	0	43	104	544210944	71	26990
2026-01-13 10:50:16.82	7.81	18.02	-46.9	-59.9	3.8	7.43e-01	0	43	104	544210944	65	16098
2026-01-13 10:50:19.54	7.37	17.73	-50.3	-68.2	3.8	7.47e-01	0	43	104	544210944	71	29535
2026-01-13 10:50:22.81	6.85	17.39	-50.6	-70.8	3.9	7.45e-01	0	43	104	544210944	72	37561
2026-01-13 10:50:25.65	6.41	17.09	-50.7	-70.5	3.8	7.46e-01	0	43	104	544210944	72	36327
2026-01-13 10:50:28.77	5.93	16.76	-50.9	-68.9	3.8	7.47e-01	0	43	104	544210944	72	30364
2026-01-13 10:50:31.61	5.51	16.47	-49.3	-64.5	3.9	7.43e-01	0	43	104	544210944	70	20445
2026-01-13 10:50:34.74	5.06	16.15	-47.7	-60.7	3.8	7.49e-01	0	43	104	544210944	67	15673
2026-01-13 10:50:37.72	4.63	15.85	-52.4	-71.8	3.7	7.48e-01	0	43	104	544210944	75	35561
2026-01-13 10:50:41.23	4.15	15.50	-47.3	-61.3	3.8	7.41e-01	0	43	104	544210944	66	17708
2026-01-13 10:50:44.28	3.74	15.19	-47.3	-60.2	3.8	7.47e-01	0	43	104	544210944	66	15653
2026-01-13 10:50:47.12	3.36	14.91	-50.5	-72.9	3.8	7.47e-01	0	43	104	544210944	71	50443
2026-01-13 10:50:50.30	2.95	14.60	-48.9	-62.9	3.8	7.46e-01	0	43	104	544210944	68	19009
2026-01-13 10:50:53.14	2.59	14.33	-47.8	-61.0	3.8	7.45e-01	0	43	104	544210944	67	16190
2026-01-13 10:50:56.27	2.20	14.03	-50.9	-72.6	3.8	7.43e-01	0	43	104	544210944	72	46338
2026-01-13 10:50:59.33	1.83	13.74	-49.1	-62.8	3.8	7.43e-01	0	43	104	544210944	68	18903
2026-01-13 10:51:02.46	1.46	13.44	-47.7	-61.1	3.8	7.46e-01	0	43	104	544210944	67	16417
2026-01-13 10:51:05.30	1.13	13.18	-50.8	-72.7	3.8	7.46e-01	0	43	104	544210944	72	46571
2026-01-13 10:51:08.43	0.77	12.89	-48.9	-62.2	3.8	7.45e-01	0	43	104	544210944	69	16627
2026-01-13 10:51:11.27	0.45	12.63	-48.4	-61.3	3.8	7.48e-01	0	43	104	544210944	68	15907
2026-01-13 10:51:14.50	0.10	12.33	-52.1	-70.9	3.9	7.44e-01	0	43	104	544210944	75	31941
2026-01-13 10:51:17.34	359.80	12.08	-49.7	-64.0	3.8	7.43e-01	0	43	104	544210944	71	18240
2026-01-13 10:51:20.47	359.47	11.80	-48.9	-62.3	3.8	7.46e-01	0	43	104	544210944	69	16744
2026-01-13 10:51:23.31	359.18	11.55	-52.4	-72.5	3.9	7.42e-01	0	43	104	544210944	75	38652
2026-01-13 10:51:26.44	358.86	11.27	-47.1	-61.5	3.8	7.43e-01	0	43	104	544210944	66	18202
2026-01-13 10:51:29.28	358.58	11.03	-46.0	-61.2	3.8	7.47e-01	0	43	104	544210944	63	20803
2026-01-13 10:51:32.51	358.27	10.75	-48.9	-69.0	3.9	7.41e-01	0	43	104	544210944	70	34406
2026-01-13 10:51:35.42	357.99	10.50	-47.4	-62.5	3.9	7.47e-01	0	43	104	544210944	65	21571
2026-01-13 10:51:38.61	357.69	10.23	-47.3	-61.9	3.8	7.46e-01	0	43	104	544210944	66	19118
2026-01-13 10:51:41.45	357.43	10.00	-49.6	-70.3	4.0	7.46e-01	0	43	104	544210944	69	42287
2026-01-13 10:51:44.58	357.15	9.74	-46.0	-61.7	3.8	7.46e-01	0	43	104	544210944	64	20850
2026-01-13 10:51:47.42	356.90	9.50	-45.6	-61.8	3.8	7.44e-01	0	43	104	544210944	63	22364
2026-01-13 10:51:50.55	356.63	9.25	-48.0	-68.3	4.0	7.42e-01	0	43	104	544210944	67	37435
2026-01-13 10:51:53.39	356.39	9.02	-45.0	-62.2	3.8	7.44e-01	0	43	104	544210944	62	24761
2026-01-13 10:51:56.51	356.14	8.77	-53.5	-73.7	3.9	7.48e-01	0	43	104	544210944	77	39316
2026-01-13 10:51:59.35	355.90	8.54	-51.2	-73.8	3.8	7.46e-01	0	43	104	544210944	74	47207
2026-01-13 10:52:02.48	355.65	8.30	-53.4	-73.9	3.8	7.48e-01	0	43	104	544210944	78	38161
2026-01-13 10:52:05.31	355.43	8.08	-53.9	-74.0	3.8	7.46e-01	0	43	104	544210944	78	38471
2026-01-13 10:52:08.55	355.18	7.82	-54.2	-74.0	3.8	7.49e-01	0	43	104	544210944	78	38609
2026-01-13 10:52:11.45	354.96	7.60	-53.9	-74.0	3.8	7.45e-01	0	43	104	544210944	79	36507
2026-01-13 10:52:14.63	354.73	7.36	-54.3	-74.1	3.9	7.47e-01	0	43	104	544210944	79	36672
2026-01-13 10:52:17.47	354.52	7.15	-54.0	-74.1	3.8	7.47e-01	0	43	104	544210944	79	36656
2026-01-13 10:52:20.59	354.29	6.91	-53.9	-74.1	3.8	7.44e-01	0	43	104	544210944	79	36751
2026-01-13 10:52:23.43	354.09	6.70	-53.7	-74.1	3.8	7.45e-01	0	43	104	544210944	78	38888
2026-01-13 10:52:26.55	353.88	6.47	-53.7	-74.1	3.8	7.46e-01	0	43	104	544210944	78	38771
2026-01-13 10:52:29.39	353.68	6.26	-53.7	-74.1	3.8	7.45e-01	0	43	104	544210944	78	38866
2026-01-13 10:52:32.51	353.48	6.04	-53.7	-74.1	3.8	7.46e-01	0	43	104	544210944	78	38960
2026-01-13 10:52:35.35	353.29	5.83	-53.7	-74.1	3.8	7.45e-01	0	43	104	544210944	78	38974
2026-01-13 10:52:38.47	353.09	5.61	-53.8	-74.1	3.8	7.44e-01	0	43	104	544210944	78	39121
2026-01-13 10:52:41.31	352.91	5.41	-53.7	-74.1	3.8	7.46e-01	0	43	104	544210944	78	38967
2026-01-13 10:52:44.44	352.71	5.19	-53.8	-74.2	3.8	7.46e-01	0	43	104	544210944	78	39153
2026-01-13 10:52:47.27	352.54	4.99	-53.8	-74.2	3.8	7.44e-01	0	43	104	544210944	78	39199

#Closed at: 2026-01-13 10:52:48
#Recorded file [544 MB]: D:/Data/31040_260113_134215.dat