passes_logs/2026/01/13/T1/T1__20260113_203909_KHAYYAM_rec.log

#Pass ID: 20260113_203909_KHAYYAM
#Satellite: KHAYYAM
#Configuration: KHAYYAM_480M
#almurnet v.1.7.20251203
#Start time: 2026-01-13 20:39:10

#Version: 2.0.20230620
#Station: T1
#Location: 37.570604 lon 55.790049 lat
#TLE: 1 53370U 22096A   26012.85651212  .00005351  00000+0  21920-3 0  9998
#TLE: 2 53370  97.3560 279.9057 0001312 102.4830 257.6555 15.24704528190917

#Time	Az	El	Level	Level2	SNR	BER	BlckErr	Temp	State	Recorded	gain1	gain2
2026-01-13 20:39:10.86	23.52	4.59	-49.5	-52.1	3.9	0.00e+00	0	46	0	0	70	19551
2026-01-13 20:39:12.84	23.65	4.74	-49.4	-51.9	3.9	0.00e+00	0	46	104	0	69	20282
2026-01-13 20:39:14.82	23.79	4.89	-49.1	-51.6	3.8	0.00e+00	0	46	104	0	69	19590
2026-01-13 20:39:16.81	23.93	5.04	-48.9	-51.3	3.8	0.00e+00	0	46	104	0	69	19008
2026-01-13 20:39:18.80	24.08	5.19	-48.7	-51.1	3.8	0.00e+00	0	47	104	0	69	18481
2026-01-13 20:39:20.79	24.22	5.34	-48.7	-51.1	3.7	0.00e+00	0	47	104	0	69	18431
2026-01-13 20:39:22.77	24.37	5.50	-48.9	-51.3	3.8	0.00e+00	0	47	104	0	69	18974
2026-01-13 20:39:24.76	24.51	5.65	-49.2	-51.7	3.9	0.00e+00	0	47	104	0	69	19908
2026-01-13 20:39:26.74	24.66	5.81	-49.5	-52.0	3.9	0.00e+00	0	47	104	0	69	20554
2026-01-13 20:39:28.73	24.82	5.97	-49.5	-52.0	3.9	0.00e+00	0	47	104	0	69	20587
2026-01-13 20:39:30.72	24.97	6.13	-49.4	-52.0	3.9	0.00e+00	0	47	104	0	69	20410
2026-01-13 20:39:32.70	25.13	6.28	-49.5	-52.0	3.9	0.00e+00	0	48	104	0	69	20488
2026-01-13 20:39:34.69	25.29	6.45	-49.5	-52.0	3.9	0.00e+00	0	48	104	0	69	20623
2026-01-13 20:39:36.68	25.45	6.61	-49.5	-52.0	3.9	0.00e+00	0	48	104	0	69	20619
2026-01-13 20:39:38.67	25.61	6.77	-49.5	-52.0	3.9	0.00e+00	0	48	104	0	69	20583
2026-01-13 20:39:40.65	25.77	6.94	-49.5	-52.0	3.9	0.00e+00	0	48	104	0	69	20611
2026-01-13 20:39:42.64	25.94	7.10	-49.5	-52.0	3.9	0.00e+00	0	48	104	0	69	20585
2026-01-13 20:39:44.63	26.11	7.27	-49.5	-52.0	3.9	0.00e+00	0	48	104	0	69	20584
2026-01-13 20:39:46.61	26.28	7.44	-49.5	-52.0	3.9	0.00e+00	0	48	104	0	69	20605
2026-01-13 20:39:48.60	26.46	7.61	-49.5	-52.1	3.9	0.00e+00	0	49	104	0	69	20642
2026-01-13 20:39:50.59	26.63	7.78	-49.5	-52.0	3.9	0.00e+00	0	49	104	0	69	20617
2026-01-13 20:39:52.57	26.81	7.95	-49.5	-52.0	3.9	0.00e+00	0	49	104	0	69	20620
2026-01-13 20:39:54.56	26.99	8.13	-49.5	-52.0	3.9	0.00e+00	0	49	104	0	69	20626
2026-01-13 20:39:56.55	27.18	8.30	-49.5	-52.0	3.9	0.00e+00	0	49	104	0	69	20631
2026-01-13 20:39:58.53	27.36	8.48	-49.5	-52.1	3.9	0.00e+00	0	49	104	0	69	20637
2026-01-13 20:40:00.52	27.55	8.66	-49.5	-52.1	3.9	0.00e+00	0	49	104	0	69	20705
2026-01-13 20:40:02.51	27.75	8.84	-49.5	-52.1	3.9	0.00e+00	0	49	104	0	69	20641
2026-01-13 20:40:04.49	27.94	9.02	-49.5	-52.1	3.9	0.00e+00	0	49	104	0	69	20661
2026-01-13 20:40:06.48	28.14	9.20	-49.2	-51.8	3.8	0.00e+00	0	49	104	0	69	20122
2026-01-13 20:40:08.47	28.34	9.39	-49.3	-52.2	3.7	0.00e+00	0	49	104	0	70	19818
2026-01-13 20:40:10.46	28.55	9.57	-49.1	-51.5	3.8	0.00e+00	0	49	104	0	70	18373
2026-01-13 20:40:12.45	28.75	9.76	-49.4	-52.2	3.7	0.00e+00	0	49	104	0	70	19770
2026-01-13 20:40:14.43	28.96	9.95	-50.1	-53.7	3.7	0.00e+00	0	49	104	0	70	23476
2026-01-13 20:40:16.42	29.18	10.14	-48.9	-51.8	3.7	0.00e+00	0	50	104	0	69	19954
2026-01-13 20:40:18.41	29.40	10.33	-48.5	-51.0	3.6	0.00e+00	0	49	104	0	67	20534
2026-01-13 20:40:20.40	29.62	10.53	-47.5	-49.4	3.6	0.00e+00	0	49	104	0	66	18179
2026-01-13 20:40:22.39	29.84	10.73	-49.0	-51.3	3.8	0.00e+00	0	49	104	0	68	20033
2026-01-13 20:40:24.38	30.07	10.93	-50.1	-52.7	3.9	0.00e+00	0	50	104	0	70	20942
2026-01-13 20:40:26.37	30.30	11.13	-52.5	-56.5	3.7	0.00e+00	0	50	104	0	75	24440
2026-01-13 20:40:28.34	30.54	11.33	-51.7	-55.3	3.7	0.00e+00	0	50	104	0	73	23853
2026-01-13 20:40:30.33	30.78	11.53	-50.4	-53.1	3.8	0.00e+00	0	50	104	0	72	19512
2026-01-13 20:40:32.32	31.02	11.74	-51.1	-54.2	3.7	0.00e+00	0	50	104	0	72	22174
2026-01-13 20:40:34.31	31.27	11.94	-51.8	-55.4	3.7	0.00e+00	0	50	104	0	74	22830
2026-01-13 20:40:36.30	31.52	12.15	-51.7	-55.6	3.7	0.00e+00	0	50	104	0	74	23327
2026-01-13 20:40:38.29	31.78	12.37	-51.4	-54.9	3.7	0.00e+00	0	50	104	0	74	21481
2026-01-13 20:40:40.29	32.04	12.58	-51.7	-55.5	3.7	0.00e+00	0	50	104	0	74	23103
2026-01-13 20:40:42.28	32.30	12.80	-51.7	-55.5	3.7	0.00e+00	0	50	104	0	74	23085
2026-01-13 20:40:44.27	32.57	13.02	-51.5	-55.0	3.7	0.00e+00	0	50	104	0	74	21692
2026-01-13 20:40:46.32	32.86	13.24	-51.4	-54.9	3.7	0.00e+00	0	50	104	0	74	21388
2026-01-13 20:40:48.31	33.14	13.47	-51.6	-55.0	3.7	0.00e+00	0	50	104	0	74	21671
2026-01-13 20:40:50.31	33.42	13.69	-51.6	-55.0	3.7	0.00e+00	0	50	104	0	74	21757
2026-01-13 20:40:52.30	33.71	13.92	-52.3	-56.0	3.7	0.00e+00	0	50	104	0	75	23015
2026-01-13 20:40:54.29	34.01	14.15	-49.4	-52.2	3.8	0.00e+00	0	50	104	0	69	21113
2026-01-13 20:40:56.27	34.31	14.38	-51.1	-54.7	3.7	0.00e+00	0	50	104	0	73	22137
2026-01-13 20:40:58.27	34.62	14.61	-47.8	-49.8	3.8	0.00e+00	0	50	104	0	67	17844
2026-01-13 20:41:00.29	34.93	14.85	-45.4	-47.0	3.5	0.00e+00	0	50	104	0	62	17355
2026-01-13 20:41:02.34	35.26	15.10	-50.9	-53.9	3.7	0.00e+00	0	50	104	0	72	21596
2026-01-13 20:41:04.36	35.59	15.35	-47.7	-49.7	3.5	0.00e+00	0	50	104	0	67	17678
2026-01-13 20:41:06.35	35.92	15.59	-49.2	-51.5	3.7	0.00e+00	0	50	104	0	68	20483
2026-01-13 20:41:08.56	36.29	15.86	-49.0	-51.2	3.8	0.00e+00	0	50	104	0	69	18623
2026-01-13 20:41:10.56	36.64	16.11	-50.5	-53.5	3.7	0.00e+00	0	51	104	0	73	19424
2026-01-13 20:41:12.59	37.00	16.37	-47.8	-49.8	3.7	0.00e+00	0	50	104	0	67	17888
2026-01-13 20:41:14.59	37.36	16.63	-48.9	-51.2	3.7	0.00e+00	0	50	104	0	68	19771
2026-01-13 20:41:16.58	37.72	16.88	-51.6	-55.1	3.7	0.00e+00	0	50	104	0	73	23382
2026-01-13 20:41:18.57	38.09	17.14	-51.5	-54.9	3.7	0.00e+00	0	50	104	0	74	21593
2026-01-13 20:41:20.68	38.50	17.42	-50.5	-52.9	3.9	0.00e+00	0	50	104	0	72	19053
2026-01-13 20:41:22.82	38.91	17.70	-50.3	-52.6	3.9	0.00e+00	0	50	104	0	72	18595
2026-01-13 20:41:24.80	39.31	17.97	-50.8	-53.4	3.9	0.00e+00	0	51	104	0	72	20208
2026-01-13 20:41:26.80	39.71	18.24	-52.5	-56.1	3.7	0.00e+00	0	51	104	0	75	23361
2026-01-13 20:41:28.78	40.12	18.51	-52.0	-55.3	3.7	0.00e+00	0	51	104	0	76	20064
2026-01-13 20:41:31.01	40.60	18.82	-51.9	-55.2	3.7	0.00e+00	0	51	104	0	75	21104
2026-01-13 20:41:33.00	41.03	19.10	-53.0	-57.1	3.7	0.00e+00	0	51	104	0	76	24797
2026-01-13 20:41:34.99	41.47	19.38	-53.5	-57.9	3.7	0.00e+00	0	51	104	0	77	25620
2026-01-13 20:41:36.98	41.92	19.66	-53.5	-57.9	3.7	0.00e+00	0	51	104	0	77	25430
2026-01-13 20:41:38.97	42.37	19.95	-52.9	-56.7	3.7	0.00e+00	0	51	104	0	77	22222
2026-01-13 20:41:40.96	42.84	20.24	-52.9	-56.7	3.7	0.00e+00	0	51	104	0	77	22335
2026-01-13 20:41:42.95	43.32	20.53	-52.9	-56.8	3.7	0.00e+00	0	51	104	0	77	22562
2026-01-13 20:41:44.94	43.81	20.82	-52.8	-56.9	3.7	0.00e+00	0	51	104	0	77	22805
2026-01-13 20:41:46.94	44.31	21.12	-52.4	-55.9	3.7	0.00e+00	0	51	104	0	76	21465
2026-01-13 20:41:48.93	44.82	21.42	-52.6	-56.3	3.7	0.00e+00	0	51	104	0	76	22435
2026-01-13 20:41:50.93	45.35	21.72	-52.5	-56.3	3.7	0.00e+00	0	51	104	0	76	22595
2026-01-13 20:41:52.96	45.89	22.03	-52.2	-55.8	3.7	0.00e+00	0	51	104	0	76	21293
2026-01-13 20:41:54.94	46.44	22.33	-53.5	-57.9	3.7	0.00e+00	0	51	104	0	77	25522
2026-01-13 20:41:56.93	46.99	22.64	-53.5	-57.9	3.7	0.00e+00	0	51	104	0	77	25486
2026-01-13 20:41:58.92	47.56	22.95	-53.1	-57.4	3.7	0.00e+00	0	51	104	0	77	23982
2026-01-13 20:42:00.92	48.15	23.26	-53.1	-57.4	3.7	0.00e+00	0	51	104	0	77	24080
2026-01-13 20:42:02.90	48.74	23.57	-53.2	-57.4	3.7	0.00e+00	0	51	104	0	77	24048
2026-01-13 20:42:04.89	49.35	23.89	-53.2	-57.5	3.7	0.00e+00	0	51	104	0	77	24514
2026-01-13 20:42:06.96	50.00	24.22	-53.2	-57.4	3.7	0.00e+00	0	51	104	0	77	24131
2026-01-13 20:42:08.99	50.65	24.54	-53.3	-57.5	3.7	0.00e+00	0	51	104	0	77	24385
2026-01-13 20:42:10.98	51.30	24.86	-53.4	-57.7	3.7	0.00e+00	0	51	104	0	77	24994
2026-01-13 20:42:12.96	51.97	25.18	-52.9	-56.9	3.7	0.00e+00	0	51	104	0	77	22682
2026-01-13 20:42:14.95	52.65	25.51	-53.4	-57.8	3.7	0.00e+00	0	51	104	0	77	25262
2026-01-13 20:42:16.94	53.35	25.83	-53.3	-57.6	3.7	0.00e+00	0	51	104	0	77	24677
2026-01-13 20:42:18.93	54.06	26.15	-53.5	-58.0	3.7	0.00e+00	0	51	104	0	77	25948
2026-01-13 20:42:20.92	54.79	26.48	-53.7	-58.2	3.7	0.00e+00	0	51	104	0	77	26304
2026-01-13 20:42:22.93	55.55	26.81	-53.6	-58.0	3.7	0.00e+00	0	51	104	0	77	25755
2026-01-13 20:42:24.96	56.33	27.14	-53.7	-58.1	3.7	0.00e+00	0	51	104	0	78	24723
2026-01-13 20:42:26.95	57.11	27.46	-53.7	-58.1	3.7	0.00e+00	0	51	104	0	78	24689
2026-01-13 20:42:28.94	57.91	27.78	-53.5	-57.8	3.7	0.00e+00	0	51	104	0	78	23851
2026-01-13 20:42:30.93	58.72	28.11	-53.6	-57.9	3.7	0.00e+00	0	51	104	0	78	24202
2026-01-13 20:42:32.92	59.56	28.43	-53.5	-57.5	3.7	0.00e+00	0	51	104	0	78	23063
2026-01-13 20:42:34.91	60.41	28.75	-53.5	-57.6	3.7	0.00e+00	0	51	104	0	78	23249
2026-01-13 20:42:36.90	61.28	29.06	-53.4	-57.8	3.6	0.00e+00	0	51	104	0	78	23874
2026-01-13 20:42:38.89	62.17	29.38	-53.4	-57.8	3.7	0.00e+00	0	51	104	0	78	23938
2026-01-13 20:42:40.96	63.12	29.70	-53.9	-58.3	3.7	0.00e+00	0	51	104	0	78	25124
2026-01-13 20:42:43.12	64.13	30.04	-53.8	-58.2	3.7	0.00e+00	0	51	104	0	78	24939
2026-01-13 20:42:45.41	65.22	30.39	-53.6	-58.1	3.7	0.00e+00	0	51	104	0	78	24566
2026-01-13 20:42:47.40	66.19	30.68	-53.9	-58.3	3.7	0.00e+00	0	51	104	0	78	25117
2026-01-13 20:42:49.39	67.18	30.98	-53.7	-57.9	3.7	0.00e+00	0	51	104	0	78	24101
2026-01-13 20:42:51.38	68.19	31.27	-53.6	-57.8	3.7	0.00e+00	0	51	104	0	78	23923
2026-01-13 20:42:53.37	69.22	31.55	-53.9	-58.3	3.6	0.00e+00	0	51	104	0	78	25327
2026-01-13 20:42:55.36	70.27	31.83	-53.8	-58.3	3.7	0.00e+00	0	51	104	0	78	25170
2026-01-13 20:42:57.35	71.34	32.10	-53.7	-58.1	3.7	0.00e+00	0	51	104	0	78	24560
2026-01-13 20:42:59.34	72.43	32.36	-53.7	-58.0	3.7	0.00e+00	0	51	104	0	78	24342
2026-01-13 20:43:01.32	73.53	32.61	-53.3	-57.6	3.7	0.00e+00	0	51	104	0	78	23386
2026-01-13 20:43:03.31	74.66	32.85	-53.0	-57.1	3.7	0.00e+00	0	51	104	0	78	21870
2026-01-13 20:43:05.30	75.80	33.09	-53.2	-57.7	3.7	0.00e+00	0	51	104	0	78	23480
2026-01-13 20:43:07.32	76.98	33.32	-53.5	-57.9	3.7	0.00e+00	0	51	104	0	78	24040
2026-01-13 20:43:09.31	78.15	33.53	-53.5	-57.9	3.7	0.00e+00	0	51	104	0	78	24055
2026-01-13 20:43:11.38	79.39	33.74	-53.4	-58.0	3.7	0.00e+00	0	51	104	0	78	24424
2026-01-13 20:43:13.43	80.64	33.94	-53.0	-57.7	3.7	0.00e+00	0	51	104	0	78	23550
2026-01-13 20:43:15.48	81.90	34.13	-52.7	-57.4	3.7	0.00e+00	0	51	104	0	77	23965
2026-01-13 20:43:17.53	83.18	34.30	-53.0	-57.8	3.7	0.00e+00	0	51	104	0	77	25163
2026-01-13 20:43:19.59	84.48	34.45	-52.9	-57.6	3.7	0.00e+00	0	51	104	0	77	24779
2026-01-13 20:43:21.58	85.74	34.59	-53.0	-57.9	3.7	0.00e+00	0	51	104	0	77	25403
2026-01-13 20:43:23.57	87.02	34.72	-52.9	-57.8	3.7	0.00e+00	0	52	104	0	77	25198
2026-01-13 20:43:25.56	88.30	34.83	-53.2	-57.9	3.7	0.00e+00	0	51	104	0	77	25528
2026-01-13 20:43:27.55	89.60	34.92	-53.8	-58.2	3.7	0.00e+00	0	51	104	0	78	24938
2026-01-13 20:43:29.54	90.90	35.00	-53.2	-57.9	3.7	0.00e+00	0	52	104	0	78	24007
2026-01-13 20:43:31.53	92.21	35.07	-53.6	-57.9	3.7	0.00e+00	0	51	104	0	78	24034
2026-01-13 20:43:33.52	93.52	35.11	-53.2	-57.9	3.7	0.00e+00	0	51	104	0	78	24038
2026-01-13 20:43:35.51	94.84	35.15	-53.6	-58.1	3.7	0.00e+00	0	51	104	0	78	24654
2026-01-13 20:43:37.61	96.23	35.17	-53.7	-58.1	3.7	0.00e+00	0	51	104	0	78	24589
2026-01-13 20:43:39.60	97.55	35.17	-53.6	-58.1	3.7	0.00e+00	0	51	104	0	78	24574
2026-01-13 20:43:41.60	98.88	35.15	-53.6	-57.9	3.7	0.00e+00	0	51	104	0	78	24044
2026-01-13 20:43:43.58	100.19	35.12	-53.6	-58.0	3.7	0.00e+00	0	51	104	0	78	24382
2026-01-13 20:43:45.58	101.51	35.07	-53.0	-57.2	3.7	0.00e+00	0	51	104	0	77	23537
2026-01-13 20:43:47.57	102.82	35.01	-53.5	-57.6	3.7	0.00e+00	0	51	104	0	77	24684
2026-01-13 20:43:49.56	104.13	34.93	-53.6	-57.9	3.7	0.00e+00	0	51	104	0	78	24162
2026-01-13 20:43:51.54	105.42	34.83	-53.6	-57.8	3.7	0.00e+00	0	51	104	0	78	23916
2026-01-13 20:43:53.53	106.71	34.73	-53.3	-57.7	3.7	0.00e+00	0	51	104	0	78	23487
2026-01-13 20:43:55.53	107.99	34.60	-53.6	-57.9	3.7	0.00e+00	0	51	104	0	78	23996
2026-01-13 20:43:57.51	109.25	34.46	-53.6	-58.0	3.6	0.00e+00	0	51	104	0	78	24247
2026-01-13 20:43:59.50	110.51	34.31	-53.8	-58.2	3.7	0.00e+00	0	51	104	0	78	24852
2026-01-13 20:44:01.49	111.75	34.15	-53.0	-57.6	3.7	0.00e+00	0	51	104	0	78	23302
2026-01-13 20:44:03.48	112.98	33.97	-53.3	-57.8	3.7	0.00e+00	0	51	104	0	77	25352
2026-01-13 20:44:05.47	114.20	33.78	-53.2	-57.9	3.7	0.00e+00	0	51	104	0	77	25409
2026-01-13 20:44:07.46	115.40	33.58	-53.6	-58.1	3.7	0.00e+00	0	51	104	0	77	25984
2026-01-13 20:44:09.45	116.58	33.37	-53.8	-58.1	3.7	0.00e+00	0	51	104	0	78	24693
2026-01-13 20:44:11.45	117.76	33.14	-53.6	-57.9	3.7	0.00e+00	0	51	104	0	78	24050
2026-01-13 20:44:13.43	118.90	32.91	-53.4	-58.0	3.7	0.00e+00	0	52	104	0	78	24253
2026-01-13 20:44:15.42	120.04	32.67	-53.0	-57.7	3.7	0.00e+00	0	51	104	0	78	23602
2026-01-13 20:44:17.60	121.26	32.39	-53.3	-57.8	3.7	0.00e+00	0	51	104	0	77	25126
2026-01-13 20:44:19.59	122.35	32.13	-53.6	-58.0	3.7	0.00e+00	0	51	104	0	77	25861
2026-01-13 20:44:21.58	123.43	31.86	-53.5	-57.8	3.7	0.00e+00	0	51	104	0	77	25168
2026-01-13 20:44:23.57	124.48	31.58	-53.7	-58.0	3.7	0.00e+00	0	52	104	0	78	24430
2026-01-13 20:44:25.56	125.52	31.30	-53.7	-58.1	3.7	0.00e+00	0	51	104	0	78	24696
2026-01-13 20:44:27.55	126.54	31.01	-53.7	-58.2	3.7	0.00e+00	0	51	104	0	78	24875
2026-01-13 20:44:29.54	127.53	30.71	-53.7	-58.1	3.7	0.00e+00	0	51	104	0	78	24716
2026-01-13 20:44:31.66	128.58	30.39	-53.8	-58.2	3.7	0.00e+00	0	51	104	0	78	24899
2026-01-13 20:44:33.64	129.53	30.09	-52.9	-57.5	3.7	0.00e+00	0	51	104	0	77	24441
2026-01-13 20:44:35.63	130.47	29.78	-52.6	-57.2	3.7	0.00e+00	0	51	104	0	76	24902
2026-01-13 20:44:37.71	131.43	29.45	-53.6	-58.0	3.7	0.00e+00	0	51	104	0	77	25716
2026-01-13 20:44:39.71	132.33	29.14	-53.6	-57.9	3.7	0.00e+00	0	51	104	0	77	25463
2026-01-13 20:44:41.70	133.22	28.82	-53.5	-57.7	3.7	0.00e+00	0	51	104	0	77	24970
2026-01-13 20:44:43.68	134.07	28.50	-53.4	-57.7	3.7	0.00e+00	0	51	104	0	77	25030
2026-01-13 20:44:45.67	134.92	28.18	-53.3	-57.5	3.7	0.00e+00	0	51	104	0	77	24280
2026-01-13 20:44:47.83	135.81	27.82	-53.4	-57.6	3.7	0.00e+00	0	51	104	0	77	24778
2026-01-13 20:44:49.89	136.65	27.49	-53.2	-57.7	3.7	0.00e+00	0	52	104	0	77	24881
2026-01-13 20:44:51.94	137.46	27.15	-53.3	-57.6	3.7	0.00e+00	0	51	104	0	77	24731
2026-01-13 20:44:53.93	138.23	26.82	-53.5	-57.8	3.7	0.00e+00	0	51	104	0	77	25104
2026-01-13 20:44:55.92	138.98	26.50	-53.3	-57.8	3.7	0.00e+00	0	52	104	0	77	25135
2026-01-13 20:44:57.91	139.72	26.17	-53.3	-57.9	3.7	0.00e+00	0	52	104	0	77	25487
2026-01-13 20:44:59.99	140.47	25.83	-53.4	-57.9	3.7	0.00e+00	0	51	104	0	77	25667
2026-01-13 20:45:01.98	141.17	25.50	-53.2	-57.6	3.7	0.00e+00	0	51	104	0	77	24798
2026-01-13 20:45:03.97	141.86	25.18	-53.1	-57.5	3.7	0.00e+00	0	51	104	0	77	24473
2026-01-13 20:45:05.96	142.53	24.85	-53.0	-57.7	3.7	0.00e+00	0	51	104	0	77	24843
2026-01-13 20:45:07.95	143.19	24.53	-53.2	-57.8	3.7	0.00e+00	0	51	104	0	77	25134
2026-01-13 20:45:09.94	143.83	24.21	-53.5	-58.1	3.7	0.00e+00	0	51	104	0	77	26020
2026-01-13 20:45:11.93	144.46	23.89	-53.6	-58.1	3.7	0.00e+00	0	51	104	0	77	26051
2026-01-13 20:45:13.92	145.08	23.57	-53.0	-57.7	3.7	0.00e+00	0	51	104	0	77	25052
2026-01-13 20:45:16.13	145.74	23.22	-52.6	-57.4	3.7	0.00e+00	0	51	104	0	76	25561
2026-01-13 20:45:18.33	146.39	22.87	-52.2	-57.3	3.7	0.00e+00	0	51	104	0	76	25113
2026-01-13 20:45:20.26	146.95	22.57	-53.1	-57.8	3.7	0.00e+00	0	51	104	0	76	26762
2026-01-13 20:45:22.25	147.51	22.26	-53.5	-58.0	3.7	0.00e+00	0	51	104	0	77	25752
2026-01-13 20:45:24.24	148.06	21.95	-53.3	-57.8	3.7	0.00e+00	0	51	104	0	77	25311
2026-01-13 20:45:26.22	148.59	21.65	-53.3	-57.8	3.7	0.00e+00	0	51	104	0	77	25323
2026-01-13 20:45:28.21	149.11	21.35	-53.2	-57.7	3.7	0.00e+00	0	51	104	0	77	25044
2026-01-13 20:45:30.20	149.63	21.04	-53.3	-57.8	3.7	0.00e+00	0	51	104	0	77	25315
2026-01-13 20:45:32.19	150.13	20.75	-53.2	-57.7	3.7	0.00e+00	0	51	104	0	77	24971
2026-01-13 20:45:34.15	150.61	20.46	-52.9	-57.4	3.7	0.00e+00	0	51	104	0	77	24103
2026-01-13 20:45:36.20	151.11	20.15	-53.0	-57.5	3.7	0.00e+00	0	51	104	0	77	24341
2026-01-13 20:45:38.22	151.58	19.86	-52.9	-57.4	3.7	0.00e+00	0	51	104	0	77	24066
2026-01-13 20:45:40.30	152.06	19.56	-52.6	-57.2	3.7	0.00e+00	0	51	104	0	77	23495
2026-01-13 20:45:42.29	152.51	19.27	-53.0	-57.5	3.7	0.00e+00	0	51	104	0	76	25932
2026-01-13 20:45:44.48	153.00	18.96	-52.9	-57.5	3.7	0.00e+00	0	51	104	0	76	25682
2026-01-13 20:45:46.75	153.49	18.64	-52.2	-56.7	3.7	0.00e+00	0	51	104	0	76	23638
2026-01-13 20:45:48.75	153.91	18.36	-52.3	-56.7	3.7	0.00e+00	0	51	104	0	76	23463
2026-01-13 20:45:50.77	154.33	18.09	-52.9	-57.4	3.7	0.00e+00	0	51	104	0	76	25499
2026-01-13 20:45:52.78	154.74	17.81	-52.4	-57.0	3.7	0.00e+00	0	51	104	0	76	24473
2026-01-13 20:45:54.85	155.15	17.53	-52.4	-57.2	3.7	0.00e+00	0	51	104	0	76	24831
2026-01-13 20:45:56.85	155.54	17.27	-52.4	-57.3	3.7	0.00e+00	0	51	104	0	76	25123
2026-01-13 20:45:58.95	155.94	16.99	-52.2	-56.8	3.7	0.00e+00	0	51	104	0	76	23899
2026-01-13 20:46:00.97	156.32	16.72	-51.9	-56.8	3.7	0.00e+00	0	51	104	0	75	25122
2026-01-13 20:46:02.96	156.68	16.46	-51.9	-56.6	3.7	0.00e+00	0	51	104	0	75	24599
2026-01-13 20:46:04.95	157.04	16.21	-52.1	-56.9	3.7	0.00e+00	0	52	104	0	75	25410
2026-01-13 20:46:06.96	157.39	15.95	-52.6	-57.1	3.7	0.00e+00	0	52	104	0	75	26195
2026-01-13 20:46:08.95	157.73	15.70	-52.6	-57.3	3.7	0.00e+00	0	51	104	0	75	26667
2026-01-13 20:46:10.95	158.07	15.45	-52.8	-57.5	3.7	0.00e+00	0	51	104	0	76	25721
2026-01-13 20:46:12.97	158.41	15.21	-52.9	-57.6	3.7	0.00e+00	0	52	104	0	76	26008
2026-01-13 20:46:14.98	158.74	14.96	-52.9	-57.5	3.7	0.00e+00	0	51	104	0	76	25907
2026-01-13 20:46:17.24	159.10	14.69	-52.9	-57.6	3.7	0.00e+00	0	51	104	0	76	26115
2026-01-13 20:46:19.22	159.41	14.45	-52.8	-57.4	3.7	0.00e+00	0	51	104	0	76	25485
2026-01-13 20:46:21.21	159.71	14.22	-53.0	-57.6	3.7	0.00e+00	0	51	104	0	76	26069
2026-01-13 20:46:23.20	160.01	13.98	-52.9	-57.5	3.7	0.00e+00	0	52	104	0	76	25905
2026-01-13 20:46:25.19	160.31	13.75	-52.8	-57.4	3.7	0.00e+00	0	51	104	0	76	25651
2026-01-13 20:46:27.24	160.60	13.52	-52.6	-57.2	3.7	0.00e+00	0	52	104	0	76	25013
2026-01-13 20:46:29.15	160.88	13.30	-52.7	-57.3	3.7	0.00e+00	0	51	104	0	76	25346
2026-01-13 20:46:31.14	161.16	13.08	-52.5	-57.0	3.7	0.00e+00	0	52	104	0	76	24436
2026-01-13 20:46:33.13	161.43	12.85	-52.6	-57.2	3.7	0.00e+00	0	51	104	0	76	24931
2026-01-13 20:46:35.12	161.70	12.63	-52.0	-56.8	3.7	0.00e+00	0	52	104	0	76	23768
2026-01-13 20:46:37.25	161.98	12.40	-52.0	-56.7	3.7	0.00e+00	0	52	104	0	76	23482
2026-01-13 20:46:39.26	162.25	12.18	-52.7	-57.3	3.7	0.00e+00	0	52	104	0	76	25383
2026-01-13 20:46:41.24	162.50	11.97	-52.2	-57.0	3.7	0.00e+00	0	51	104	0	76	24399
2026-01-13 20:46:43.26	162.76	11.76	-52.3	-57.0	3.7	0.00e+00	0	52	104	0	76	24400
2026-01-13 20:46:45.27	163.00	11.55	-52.6	-57.3	3.7	0.00e+00	0	52	104	0	76	25273
2026-01-13 20:46:47.29	163.25	11.34	-52.2	-56.7	3.7	0.00e+00	0	51	104	0	76	23620
2026-01-13 20:46:49.28	163.49	11.13	-52.0	-56.8	3.7	0.00e+00	0	52	104	0	75	25180
2026-01-13 20:46:51.27	163.72	10.93	-50.9	-55.8	3.7	0.00e+00	0	52	104	0	73	25123
2026-01-13 20:46:53.28	163.96	10.73	-49.6	-54.6	3.7	0.00e+00	0	51	104	0	70	26063
2026-01-13 20:46:55.52	164.21	10.50	-49.8	-54.8	3.7	0.00e+00	0	52	104	0	70	26779
2026-01-13 20:46:57.51	164.44	10.30	-48.5	-53.7	3.7	0.00e+00	0	52	104	0	69	24836
2026-01-13 20:46:59.52	164.66	10.11	-49.2	-54.4	3.7	0.00e+00	0	52	104	0	69	27121
2026-01-13 20:47:01.52	164.88	9.91	-50.0	-55.1	3.7	0.00e+00	0	52	104	0	70	27556
2026-01-13 20:47:03.51	165.09	9.72	-50.3	-55.4	3.7	0.00e+00	0	52	104	0	71	26965
2026-01-13 20:47:05.53	165.30	9.53	-49.6	-54.6	3.7	0.00e+00	0	52	104	0	70	26263
2026-01-13 20:47:07.55	165.51	9.33	-49.4	-54.6	3.7	0.00e+00	0	51	104	0	70	26119
2026-01-13 20:47:09.71	165.73	9.13	-50.0	-55.2	3.7	0.00e+00	0	51	104	0	70	27914
2026-01-13 20:47:11.84	165.94	8.93	-49.1	-54.2	3.7	0.00e+00	0	52	104	
