passes_logs/2026/01/13/T1/T1__20260113_075549_NOAA_21_JPSS-2_rec.log

#Pass ID: 20260113_075549_NOAA 21 (JPSS-2)
#Satellite: NOAA 21 (JPSS-2)
#Configuration: NOAA 21
#almurnet v.1.7.20251203
#Start time: 2026-01-13 07:55:51

#Version: 2.0.20230620
#Station: T1
#Location: 37.570604 lon 55.790049 lat
#TLE: 1 54234U 22150A   26012.26378519  .00000063  00000+0  50547-4 0  9993
#TLE: 2 54234  98.7495 313.1967 0000726 309.1075  51.0036 14.19534275164425

#Time	Az	El	Level	Level2	SNR	BER	BlckErr	Temp	State	Recorded	gain1	gain2
2026-01-13 07:55:51.19	96.15	5.08	-49.6	-62.8	3.8	1.49e+00	0	43	0	0	71	15825
2026-01-13 07:55:54.17	95.86	5.24	-49.6	-62.7	3.8	1.49e+00	0	43	104	0	71	15689
2026-01-13 07:55:57.15	95.56	5.41	-49.6	-62.7	3.8	1.49e+00	0	43	104	0	71	15608
2026-01-13 07:56:00.13	95.26	5.57	-49.5	-62.7	3.8	1.49e+00	0	43	104	0	71	15608
2026-01-13 07:56:03.11	94.96	5.74	-49.5	-62.7	3.8	1.49e+00	0	43	104	0	71	15613
2026-01-13 07:56:06.08	94.65	5.90	-49.6	-62.7	3.8	1.49e+00	0	44	104	0	71	15613
2026-01-13 07:56:09.06	94.34	6.07	-49.5	-62.7	3.8	1.49e+00	0	44	104	0	71	15628
2026-01-13 07:56:12.04	94.02	6.23	-49.5	-62.6	3.8	1.49e+00	0	44	104	0	71	15566
2026-01-13 07:56:15.02	93.71	6.40	-49.5	-62.7	3.8	1.49e+00	0	44	104	0	71	15642
2026-01-13 07:56:18.00	93.38	6.57	-49.5	-62.5	3.8	1.49e+00	0	43	104	0	71	15346
2026-01-13 07:56:20.98	93.06	6.73	-49.5	-62.3	3.8	1.49e+00	0	44	104	0	71	15021
2026-01-13 07:56:23.96	92.73	6.90	-49.5	-62.1	3.8	1.49e+00	0	43	104	0	71	14699
2026-01-13 07:56:26.94	92.39	7.06	-49.5	-62.0	3.8	1.49e+00	0	44	104	0	71	14469
2026-01-13 07:56:29.92	92.06	7.23	-49.4	-61.8	3.8	1.49e+00	0	44	104	0	70	14904
2026-01-13 07:56:32.90	91.72	7.40	-49.5	-61.7	3.8	1.49e+00	0	44	104	0	70	14800
2026-01-13 07:56:35.88	91.37	7.57	-49.5	-62.4	3.8	1.49e+00	0	44	104	0	70	15989
2026-01-13 07:56:38.86	91.02	7.73	-49.6	-62.7	3.8	1.49e+00	0	44	104	0	70	16631
2026-01-13 07:56:41.84	90.67	7.90	-49.5	-62.5	3.8	1.49e+00	0	44	104	0	70	16218
2026-01-13 07:56:44.82	90.31	8.07	-49.3	-60.4	3.9	1.48e+00	0	44	104	0	70	12713
2026-01-13 07:56:47.80	89.95	8.23	-49.5	-62.3	3.8	1.49e+00	0	44	104	0	70	15878
2026-01-13 07:56:50.78	89.58	8.40	-48.4	-55.2	6.3	4.25e-01	0	44	0	0	68	7881
2026-01-13 07:56:53.76	89.21	8.57	-46.0	-49.7	11.7	1.05e-03	0	44	0	0	63	5548
2026-01-13 07:56:56.74	88.84	8.74	-46.4	-50.3	11.1	1.25e-03	0	44	0	0	63	5985
2026-01-13 07:56:59.72	88.46	8.90	-49.0	-58.4	4.0	6.02e-01	0	44	104	0	68	11343
2026-01-13 07:57:02.70	88.08	9.07	-48.1	-54.7	4.5	1.49e+00	0	44	104	0	68	7387
2026-01-13 07:57:05.69	87.69	9.24	-49.5	-61.6	3.8	1.49e+00	0	44	104	0	69	15440
2026-01-13 07:57:08.67	87.29	9.41	-49.0	-58.1	4.5	1.08e+00	0	44	104	0	69	10345
2026-01-13 07:57:11.65	86.90	9.57	-48.9	-58.2	4.0	9.47e-01	0	44	104	0	69	10433
2026-01-13 07:57:14.92	86.46	9.76	-46.7	-51.2	10.0	1.45e+00	0	44	104	0	65	5880
2026-01-13 07:57:17.83	86.06	9.92	-46.8	-51.3	10.1	5.02e-03	0	44	0	0	64	6337
2026-01-13 07:57:21.21	85.59	10.11	-46.2	-50.1	11.4	1.89e-03	0	44	0	0	64	5468
2026-01-13 07:57:23.92	85.21	10.26	-45.7	-49.1	12.5	1.97e-04	0	44	0	0	63	5207
2026-01-13 07:57:27.19	84.75	10.44	-44.0	-46.7	15.0	0.00e+00	0	44	0	0	60	4659
2026-01-13 07:57:29.91	84.36	10.59	-43.3	-45.7	15.9	0.00e+00	0	44	0	0	58	4685
2026-01-13 07:57:33.24	83.88	10.77	-43.6	-46.0	15.5	0.00e+00	0	44	0	0	58	4845
2026-01-13 07:57:35.97	83.48	10.92	-43.6	-46.1	15.5	0.00e+00	0	44	0	0	58	4871
2026-01-13 07:57:39.25	82.99	11.10	-43.7	-46.2	15.4	0.00e+00	0	44	0	0	58	4958
2026-01-13 07:57:41.95	82.59	11.25	-43.7	-46.2	15.4	0.00e+00	0	44	0	0	58	4956
2026-01-13 07:57:45.22	82.09	11.43	-43.6	-46.0	15.6	0.00e+00	0	44	0	0	58	4851
2026-01-13 07:57:47.93	81.68	11.57	-43.8	-46.3	15.3	0.00e+00	0	44	0	0	58	5011
2026-01-13 07:57:51.50	81.13	11.77	-43.8	-46.2	15.4	0.00e+00	0	44	0	0	58	4980
2026-01-13 07:57:54.20	80.70	11.91	-43.6	-46.0	15.7	0.00e+00	0	44	0	0	58	4858
2026-01-13 07:57:57.83	80.13	12.11	-43.4	-45.7	15.9	0.00e+00	0	44	0	0	58	4696
2026-01-13 07:58:00.54	79.69	12.25	-43.4	-45.7	16.0	0.00e+00	0	44	0	0	58	4657
2026-01-13 07:58:03.80	79.16	12.42	-43.5	-45.8	15.9	0.00e+00	0	44	0	0	58	4728
2026-01-13 07:58:06.52	78.72	12.56	-43.3	-45.5	16.1	0.00e+00	0	44	0	0	58	4584
2026-01-13 07:58:09.79	78.18	12.73	-43.5	-45.8	15.8	0.00e+00	0	44	0	0	58	4716
2026-01-13 07:58:13.22	77.60	12.91	-43.5	-45.8	15.9	0.00e+00	0	44	0	0	58	4729
2026-01-13 07:58:16.06	77.12	13.06	-43.4	-45.8	15.9	0.00e+00	0	44	0	0	58	4716
2026-01-13 07:58:19.30	76.57	13.22	-43.5	-45.8	15.8	0.00e+00	0	44	0	0	58	4739
2026-01-13 07:58:22.22	76.06	13.37	-43.4	-45.6	16.1	0.00e+00	0	44	0	0	58	4634
2026-01-13 07:58:25.48	75.49	13.53	-43.1	-45.3	16.4	0.00e+00	0	44	0	0	58	4462
2026-01-13 07:58:28.32	74.99	13.67	-43.1	-45.3	16.4	0.00e+00	0	44	0	0	58	4456
2026-01-13 07:58:31.45	74.43	13.82	-43.2	-45.4	16.3	0.00e+00	0	44	0	0	58	4535
2026-01-13 07:58:34.29	73.92	13.96	-43.2	-45.5	16.3	0.00e+00	0	44	0	0	58	4547
2026-01-13 07:58:37.41	73.35	14.11	-43.1	-45.3	16.4	0.00e+00	0	44	0	0	58	4479
2026-01-13 07:58:40.26	72.83	14.24	-43.1	-45.3	16.4	0.00e+00	0	44	0	0	58	4463
2026-01-13 07:58:43.38	72.25	14.38	-43.2	-45.4	16.4	0.00e+00	0	44	0	0	58	4501
2026-01-13 07:58:46.23	71.71	14.52	-43.3	-45.5	16.2	0.00e+00	0	44	0	0	58	4572
2026-01-13 07:58:49.36	71.12	14.66	-43.2	-45.4	16.3	0.00e+00	0	44	0	0	58	4544
2026-01-13 07:58:52.20	70.58	14.78	-42.9	-45.0	16.8	0.00e+00	0	44	0	0	57	4562
2026-01-13 07:58:55.33	69.98	14.92	-42.8	-44.9	16.8	0.00e+00	0	44	0	0	57	4507
2026-01-13 07:58:58.17	69.43	15.04	-43.1	-45.3	16.5	0.00e+00	0	44	0	0	57	4708
2026-01-13 07:59:01.38	68.80	15.18	-43.1	-45.2	16.5	0.00e+00	0	44	0	0	57	4700
2026-01-13 07:59:04.22	68.24	15.29	-43.1	-45.2	16.5	0.00e+00	0	44	0	0	57	4705
2026-01-13 07:59:07.35	67.61	15.42	-43.2	-45.4	16.4	0.00e+00	0	44	0	0	57	4760
2026-01-13 07:59:10.19	67.04	15.53	-43.2	-45.4	16.3	0.00e+00	0	44	0	0	57	4813
2026-01-13 07:59:13.43	66.39	15.66	-43.0	-45.2	16.5	0.00e+00	0	44	0	0	57	4698
2026-01-13 07:59:16.42	65.78	15.77	-43.1	-45.3	16.5	0.00e+00	0	44	0	0	57	4712
2026-01-13 07:59:19.41	65.16	15.88	-43.0	-45.2	16.6	0.00e+00	0	44	0	0	57	4656
2026-01-13 07:59:22.40	64.55	15.99	-42.9	-45.0	16.8	0.00e+00	0	44	0	0	57	4564
2026-01-13 07:59:25.38	63.92	16.09	-42.9	-45.0	16.8	0.00e+00	0	44	0	0	57	4557
2026-01-13 07:59:28.41	63.29	16.20	-42.9	-45.1	16.7	0.00e+00	0	44	0	0	57	4619
2026-01-13 07:59:31.40	62.66	16.29	-43.0	-45.1	16.7	0.00e+00	0	44	0	0	57	4624
2026-01-13 07:59:34.38	62.02	16.39	-43.1	-45.3	16.5	0.00e+00	0	44	0	0	57	4717
2026-01-13 07:59:37.36	61.38	16.48	-43.0	-45.2	16.6	0.00e+00	0	44	0	0	57	4668
2026-01-13 07:59:40.35	60.74	16.57	-42.9	-45.1	16.7	0.00e+00	0	44	0	0	57	4612
2026-01-13 07:59:43.39	60.08	16.66	-42.9	-45.0	16.9	0.00e+00	0	44	0	0	57	4571
2026-01-13 07:59:46.33	59.44	16.74	-42.8	-44.9	16.9	0.00e+00	0	44	0	0	57	4543
2026-01-13 07:59:49.56	58.74	16.82	-42.7	-44.8	17.0	0.00e+00	0	44	0	0	57	4472
2026-01-13 07:59:52.40	58.11	16.89	-42.7	-44.8	17.0	0.00e+00	0	44	0	0	57	4456
2026-01-13 07:59:55.53	57.42	16.97	-42.8	-44.9	16.9	0.00e+00	0	44	0	0	57	4507
2026-01-13 07:59:58.37	56.79	17.03	-42.7	-44.8	17.0	0.00e+00	0	44	0	0	57	4477
2026-01-13 08:00:01.59	56.07	17.10	-42.9	-45.1	16.7	0.00e+00	0	44	0	0	57	4613
2026-01-13 08:00:04.43	55.43	17.15	-43.2	-45.4	16.5	0.00e+00	0	44	0	0	57	4762
2026-01-13 08:00:07.56	54.73	17.21	-43.1	-45.3	16.6	0.00e+00	0	44	0	0	57	4725
2026-01-13 08:00:10.40	54.09	17.26	-43.0	-45.1	16.7	0.00e+00	0	44	0	0	57	4624
2026-01-13 08:00:13.52	53.38	17.31	-42.6	-44.7	17.1	0.00e+00	0	44	0	0	57	4399
2026-01-13 08:00:16.37	52.74	17.35	-42.7	-44.8	17.0	0.00e+00	0	44	0	0	57	4444
2026-01-13 08:00:19.50	52.02	17.39	-42.8	-45.0	16.8	0.00e+00	0	44	0	0	57	4553
2026-01-13 08:00:22.34	51.37	17.43	-42.9	-45.1	16.7	0.00e+00	0	44	0	0	57	4602
2026-01-13 08:00:25.47	50.66	17.46	-42.9	-45.0	16.8	0.00e+00	0	44	0	0	57	4571
2026-01-13 08:00:28.31	50.01	17.49	-43.1	-45.3	16.5	0.00e+00	0	44	0	0	57	4711
2026-01-13 08:00:31.44	49.29	17.51	-43.0	-45.2	16.7	0.00e+00	0	44	0	0	57	4659
2026-01-13 08:00:34.28	48.64	17.53	-43.0	-45.2	16.6	0.00e+00	0	44	0	0	57	4675
2026-01-13 08:00:37.41	47.92	17.54	-42.7	-44.8	17.0	0.00e+00	0	44	0	0	57	4475
2026-01-13 08:00:40.31	47.25	17.55	-42.6	-44.7	17.1	0.00e+00	0	44	0	0	57	4412
2026-01-13 08:00:43.58	46.50	17.56	-42.6	-44.6	17.2	0.00e+00	0	44	0	0	57	4375
2026-01-13 08:00:46.29	45.87	17.56	-42.7	-44.8	17.0	0.00e+00	0	44	0	0	57	4461
2026-01-13 08:00:49.57	45.12	17.56	-42.6	-44.7	17.1	0.00e+00	0	44	0	0	57	4411
2026-01-13 08:00:52.29	44.49	17.55	-42.7	-44.8	17.0	0.00e+00	0	44	0	0	57	4450
2026-01-13 08:00:55.65	43.72	17.54	-42.6	-44.7	17.2	0.00e+00	0	44	0	0	57	4404
2026-01-13 08:00:58.79	42.99	17.52	-42.6	-44.7	17.2	0.00e+00	0	44	0	0	56	4653
2026-01-13 08:01:01.92	42.27	17.50	-42.8	-44.9	16.9	0.00e+00	0	44	0	0	56	4782
2026-01-13 08:01:04.77	41.62	17.48	-42.7	-44.8	17.0	0.00e+00	0	44	0	0	56	4724
2026-01-13 08:01:07.89	40.91	17.45	-42.7	-44.8	17.0	0.00e+00	0	44	0	0	56	4740
2026-01-13 08:01:10.73	40.26	17.42	-42.9	-45.0	16.8	0.00e+00	0	44	0	0	56	4849
2026-01-13 08:01:13.86	39.55	17.38	-43.0	-45.1	16.7	0.00e+00	0	44	0	0	56	4907
2026-01-13 08:01:16.70	38.90	17.34	-43.1	-45.2	16.5	0.00e+00	0	44	0	0	56	4981
2026-01-13 08:01:19.83	38.19	17.29	-42.8	-44.9	16.9	0.00e+00	0	44	0	0	56	4804
2026-01-13 08:01:22.73	37.54	17.25	-42.7	-44.8	17.0	0.00e+00	0	44	0	0	56	4730
2026-01-13 08:01:25.95	36.81	17.19	-42.7	-44.9	16.9	0.00e+00	0	44	0	0	56	4764
2026-01-13 08:01:28.89	36.15	17.13	-42.8	-44.9	16.8	0.00e+00	0	44	0	0	56	4794
2026-01-13 08:01:32.13	35.43	17.07	-42.6	-44.8	17.0	0.00e+00	0	44	0	0	56	4713
2026-01-13 08:01:35.41	34.70	17.00	-42.6	-44.8	17.0	0.00e+00	0	44	0	0	56	4721
2026-01-13 08:01:38.18	34.09	16.93	-42.7	-44.9	16.9	0.00e+00	0	44	0	0	56	4800
2026-01-13 08:01:41.45	33.37	16.85	-42.6	-44.7	17.0	0.00e+00	0	44	0	0	56	4686
2026-01-13 08:01:44.37	32.73	16.78	-42.7	-44.9	16.9	0.00e+00	0	44	0	0	56	4763
2026-01-13 08:01:47.75	31.99	16.69	-42.6	-44.7	17.1	0.00e+00	0	44	0	0	56	4691
2026-01-13 08:01:50.45	31.41	16.61	-42.5	-44.6	17.2	0.00e+00	0	44	0	0	56	4612
2026-01-13 08:01:53.74	30.70	16.52	-42.6	-44.7	17.2	0.00e+00	0	44	0	0	56	4662
2026-01-13 08:01:56.45	30.12	16.44	-42.6	-44.7	17.1	0.00e+00	0	44	0	0	56	4660
2026-01-13 08:01:59.75	29.42	16.33	-42.7	-44.7	17.0	0.00e+00	0	44	0	0	56	4694
2026-01-13 08:02:02.51	28.83	16.24	-42.6	-44.7	17.1	0.00e+00	0	44	0	0	56	4683
2026-01-13 08:02:06.02	28.10	16.13	-42.6	-44.8	17.0	0.00e+00	0	44	0	0	56	4744
2026-01-13 08:02:08.72	27.54	16.03	-42.7	-45.0	16.8	0.00e+00	0	44	0	0	56	4845
2026-01-13 08:02:12.03	26.85	15.92	-42.5	-44.7	17.0	0.00e+00	0	44	0	0	56	4681
2026-01-13 08:02:14.75	26.29	15.82	-42.4	-44.6	17.1	0.00e+00	0	44	0	0	56	4649
2026-01-13 08:02:18.03	25.62	15.69	-42.5	-44.7	17.0	0.00e+00	0	44	0	0	56	4670
2026-01-13 08:02:20.77	25.07	15.59	-42.7	-44.9	16.9	0.00e+00	0	44	0	0	56	4782
2026-01-13 08:02:24.22	24.38	15.45	-42.8	-45.0	16.8	0.00e+00	0	44	0	0	56	4835
2026-01-13 08:02:26.98	23.83	15.34	-42.6	-44.7	17.0	0.00e+00	0	44	0	0	56	4696
2026-01-13 08:02:30.27	23.18	15.21	-42.6	-44.9	16.9	0.00e+00	0	44	0	0	56	4763
2026-01-13 08:02:33.01	22.65	15.09	-42.9	-45.2	16.5	0.00e+00	0	44	0	0	56	4950
2026-01-13 08:02:36.29	22.01	14.95	-43.0	-45.3	16.5	0.00e+00	0	44	0	0	56	5019
2026-01-13 08:02:39.01	21.49	14.84	-43.1	-45.4	16.4	0.00e+00	0	44	0	0	56	5081
2026-01-13 08:02:42.25	20.87	14.69	-42.9	-45.2	16.6	0.00e+00	0	44	0	0	56	4936
2026-01-13 08:02:45.34	20.29	14.55	-43.0	-45.4	16.4	0.00e+00	0	44	0	0	56	5066
2026-01-13 08:02:48.40	19.72	14.42	-43.0	-45.3	16.4	0.00e+00	0	44	0	0	56	5011
2026-01-13 08:02:51.53	19.14	14.27	-43.0	-45.2	16.5	0.00e+00	0	44	0	0	56	4964
2026-01-13 08:02:54.37	18.62	14.14	-43.0	-45.2	16.5	0.00e+00	0	44	0	0	56	4969
2026-01-13 08:02:57.50	18.05	13.99	-43.3	-45.5	16.2	0.00e+00	0	44	0	0	57	4863
2026-01-13 08:03:00.34	17.54	13.85	-43.4	-45.8	16.0	0.00e+00	0	44	0	0	57	4986
2026-01-13 08:03:03.47	16.98	13.70	-43.3	-45.7	16.1	0.00e+00	0	44	0	0	57	4931
2026-01-13 08:03:06.36	16.47	13.56	-43.1	-45.5	16.2	0.00e+00	0	44	0	0	57	4844
2026-01-13 08:03:09.63	15.90	13.40	-43.0	-45.5	16.2	0.00e+00	0	44	0	0	57	4830
2026-01-13 08:03:12.35	15.43	13.26	-42.9	-45.5	16.3	0.00e+00	0	44	0	0	57	4827
2026-01-13 08:03:15.60	14.88	13.10	-42.7	-45.2	16.5	0.00e+00	0	44	0	0	57	4673
2026-01-13 08:03:18.44	14.40	12.95	-42.9	-45.2	16.5	0.00e+00	0	44	0	0	57	4690
2026-01-13 08:03:21.57	13.87	12.79	-43.0	-45.3	16.4	0.00e+00	0	44	0	0	57	4708
2026-01-13 08:03:24.41	13.40	12.65	-42.9	-45.3	16.4	0.00e+00	0	44	0	0	57	4733
2026-01-13 08:03:27.54	12.89	12.48	-43.1	-45.6	16.1	0.00e+00	0	44	0	0	57	4872
2026-01-13 08:03:30.39	12.43	12.33	-43.2	-45.8	15.9	0.00e+00	0	44	0	0	57	5003
2026-01-13 08:03:33.51	11.93	12.17	-43.2	-46.1	15.6	0.00e+00	0	44	0	0	57	5168
2026-01-13 08:03:36.35	11.48	12.02	-43.2	-46.0	15.7	0.00e+00	0	44	0	0	57	5149
2026-01-13 08:03:39.48	10.99	11.85	-43.3	-46.0	15.6	0.00e+00	0	44	0	0	57	5159
2026-01-13 08:03:42.32	10.55	11.70	-43.4	-46.1	15.6	0.00e+00	0	44	0	0	57	5191
2026-01-13 08:03:45.45	10.07	11.53	-43.5	-46.2	15.4	0.00e+00	0	44	0	0	57	5262
2026-01-13 08:03:48.42	9.62	11.37	-43.5	-46.2	15.5	0.00e+00	0	44	0	0	57	5226
2026-01-13 08:03:51.41	9.17	11.21	-43.3	-45.9	15.7	0.00e+00	0	44	0	0	57	5083
2026-01-13 08:03:54.39	8.73	11.05	-43.5	-46.1	15.5	0.00e+00	0	44	0	0	57	5199
2026-01-13 08:03:57.38	8.29	10.88	-43.8	-46.6	15.0	0.00e+00	0	44	0	0	58	5210
2026-01-13 08:04:00.33	7.87	10.72	-43.2	-45.9	15.7	0.00e+00	0	44	0	0	58	4814
2026-01-13 08:04:03.45	7.42	10.55	-43.3	-46.0	15.7	0.00e+00	0	44	0	0	58	4815
2026-01-13 08:04:06.29	7.02	10.39	-43.2	-46.0	15.6	0.00e+00	0	44	0	0	58	4863
2026-01-13 08:04:09.42	6.58	10.22	-43.4	-46.3	15.4	0.00e+00	0	44	0	0	58	5007
2026-01-13 08:04:12.27	6.19	10.06	-43.4	-46.4	15.2	0.00e+00	0	44	0	0	58	5077
2026-01-13 08:04:15.40	5.76	9.89	-43.6	-46.4	15.2	0.00e+00	0	44	0	0	58	5077
2026-01-13 08:04:18.32	5.37	9.73	-43.4	-46.0	15.6	0.00e+00	0	44	0	0	58	4831
2026-01-13 08:04:21.60	4.93	9.54	-43.7	-46.3	15.3	0.00e+00	0	44	0	0	58	5029
2026-01-13 08:04:24.30	4.57	9.39	-44.0	-46.6	15.0	0.00e+00	0	44	0	0	58	5204
2026-01-13 08:04:27.57	4.15	9.21	-43.9	-46.5	15.0	7.00e-07	0	44	0	0	59	4856
2026-01-13 08:04:30.27	3.80	9.06	-43.6	-46.7	14.8	0.00e+00	0	44	0	0	59	4948
2026-01-13 08:04:33.53	3.38	8.88	-49.0	-63.0	3.8	1.49e+00	0	44	104	0	69	18129
2026-01-13 08:04:36.25	3.04	8.72	-50.2	-63.5	3.8	1.49e+00	0	44	104	0	71	17125
2026-01-13 08:04:39.53	2.63	8.54	-50.5	-63.6	3.8	1.49e+00	0	44	104	0	71	17410
2026-01-13 08:04:42.27	2.30	8.39	-50.6	-63.7	3.8	1.49e+00	0	44	104	0	72	16505
2026-01-13 08:04:45.71	1.88	8.19	-50.7	-63.7	3.8	1.49e+00	0	44	104	0	72	16526
2026-01-13 08:04:48.46	1.55	8.04	-50.6	-63.7	3.8	1.49e+00	0	44	104	0	72	16578
2026-01-13 08:04:51.86	1.15	7.85	-50.7	-63.7	3.8	1.49e+00	0	44	104	0	72	16612
2026-01-13 08:04:54.57	0.83	7.70	-50.6	-63.7	3.8	1.49e+00	0	44	104	0	72	16618
2026-01-13 08:04:57.86	0.45	7.52	-50.6	-63.7	3.8	1.49e+00	0	44	104	0	72	16586
2026-01-13 08:05:00.56	0.14	7.36	-50.5	-63.7	3.8	1.49e+00	0	44	104	0	72	16519
2026-01-13 08:05:03.84	359.77	7.18	-50.5	-63.7	3.8	1.49e+00	0	44	104	0	72	16510
2026-01-13 08:05:06.53	359.47	7.03	-50.5	-63.6	3.8	1.49e+00	0	44	104	0	72	16465
2026-01-13 08:05:09.80	359.11	6.85	-50.5	-63.6	3.8	1.49e+00	0	44	104	0	72	16475
2026-01-13 08:05:12.51	358.82	6.70	-50.5	-63.6	3.8	1.49e+00	0	44	104	0	72	16470
2026-01-13 08:05:15.77	358.46	6.52	-50.5	-63.6	3.8	1.49e+00	0	44	104	0	72	16477
2026-01-13 08:05:18.47	358.18	6.37	-50.5	-63.6	3.8	1.49e+00	0	44	104	0	72	16481
2026-01-13 08:05:21.75	357.83	6.18	-50.5	-63.6	3.8	1.49e+00	0	44	104	0	72	16443
2026-01-13 08:05:24.44	357.55	6.04	-50.5	-63.6	3.8	1.49e+00	0	44	104	0	72	16416
2026-01-13 08:05:27.72	357.22	5.85	-50.5	-63.6	3.8	1.49e+00	0	44	104	0	72	16456
2026-01-13 08:05:30.42	356.94	5.71	-50.5	-63.6	3.8	1.49e+00	0	44	104	0	72	16407
2026-01-13 08:05:33.68	356.61	5.53	-50.5	-63.6	3.8	1.49e+00	0	44	104	0	72	16481
2026-01-13 08:05:36.38	356.35	5.38	-50.5	-63.6	3.8	1.49e+00	0	44	104	0	72	16432
2026-01-13 08:05:39.66	356.02	5.20	-50.5	-63.6	3.8	1.49e+00	0	44	104	0	72	16405
2026-01-13 08:05:42.35	355.76	5.05	-50.5	-63.6	3.8	1.49e+00	0	44	104	0	72	16461

#Closed at: 2026-01-13 08:05:44
#Recorded file [0 MB]: D:/Data/31040_260113_105551.dat