passes_logs/2026/01/13/T1/T1__20260113_102401_NOAA_20_JPSS-1_rec.log

#Pass ID: 20260113_102401_NOAA 20 (JPSS-1)
#Satellite: NOAA 20 (JPSS-1)
#Configuration: NOAA 20
#almurnet v.1.7.20251203
#Start time: 2026-01-13 10:24:03

#Version: 2.0.20230620
#Station: T1
#Location: 37.570604 lon 55.790049 lat
#TLE: 1 43013U 17073A   26012.29914746  .00000087  00000+0  62270-4 0  9997
#TLE: 2 43013  98.7632 313.2670 0001616  43.2193 316.9110 14.19535514422351

#Time	Az	El	Level	Level2	SNR	BER	BlckErr	Temp	State	Recorded	gain1	gain2
2026-01-13 10:24:03.67	175.22	5.17	-48.6	-65.8	3.8	1.49e+00	0	40	0	0	69	25078
2026-01-13 10:24:07.64	175.33	5.45	-47.8	-65.4	3.8	1.49e+00	0	40	104	0	66	28544
2026-01-13 10:24:11.61	175.44	5.74	-47.8	-65.4	3.8	1.49e+00	0	40	104	0	66	28652
2026-01-13 10:24:15.58	175.56	6.03	-47.8	-65.4	3.8	1.49e+00	0	40	104	0	66	28556
2026-01-13 10:24:19.55	175.68	6.32	-47.8	-64.5	3.8	1.49e+00	0	40	104	0	66	25799
2026-01-13 10:24:23.53	175.80	6.62	-47.8	-63.8	3.8	1.49e+00	0	41	104	0	66	23829
2026-01-13 10:24:27.50	175.92	6.92	-47.8	-65.3	3.8	1.49e+00	0	41	104	0	66	28332
2026-01-13 10:24:31.47	176.05	7.22	-47.6	-60.1	4.9	1.19e+00	0	41	0	1048576	66	15451
2026-01-13 10:24:35.45	176.17	7.53	-46.5	-53.5	10.7	7.89e-03	0	41	0	8388608	65	7647
2026-01-13 10:24:39.42	176.30	7.84	-45.6	-50.7	13.6	2.67e-05	0	41	0	15728640	63	6260
2026-01-13 10:24:43.40	176.44	8.15	-45.7	-51.1	13.3	1.75e-05	0	41	0	23068672	62	6886
2026-01-13 10:24:47.37	176.57	8.47	-46.6	-53.9	10.4	3.82e-03	0	41	0	30408704	63	9038
2026-01-13 10:24:51.34	176.71	8.79	-47.5	-59.7	5.1	5.22e-01	0	41	0	37748736	65	15599
2026-01-13 10:24:55.32	176.85	9.12	-47.9	-56.0	8.1	6.51e-02	0	41	0	40894464	67	9113
2026-01-13 10:24:59.30	176.99	9.45	-48.1	-56.0	8.2	4.25e-02	0	42	0	45088768	67	9104
2026-01-13 10:25:03.35	177.14	9.79	-47.6	-54.5	9.7	1.82e-02	0	41	0	52428800	67	7687
2026-01-13 10:25:07.32	177.29	10.13	-47.2	-53.4	10.8	4.83e-03	0	42	0	59768832	66	7173
2026-01-13 10:25:11.30	177.45	10.47	-45.6	-50.1	14.4	7.00e-07	0	42	0	68157440	63	5800
2026-01-13 10:25:15.28	177.60	10.82	-45.7	-49.9	14.6	6.45e-04	0	42	0	75497472	62	6004
2026-01-13 10:25:19.25	177.76	11.18	-45.6	-49.2	15.2	0.00e+00	0	42	0	82837504	62	5586
2026-01-13 10:25:23.23	177.93	11.54	-45.7	-49.1	15.3	0.00e+00	0	42	0	90177536	62	5514
2026-01-13 10:25:27.33	178.10	11.91	-45.8	-49.3	15.2	0.00e+00	0	42	0	97517568	62	5605
2026-01-13 10:25:31.42	178.28	12.29	-45.8	-49.2	15.3	0.00e+00	0	42	0	105906176	62	5585
2026-01-13 10:25:35.46	178.46	12.67	-45.7	-49.1	15.4	0.00e+00	0	42	0	113246208	62	5503
2026-01-13 10:25:39.45	178.64	13.05	-45.6	-49.0	15.6	0.00e+00	0	42	0	120586240	62	5420
2026-01-13 10:25:43.70	178.84	13.47	-45.7	-49.0	15.5	0.00e+00	0	42	0	127926272	62	5450
2026-01-13 10:25:47.71	179.03	13.86	-45.6	-49.0	15.6	0.00e+00	0	42	0	136314880	62	5436
2026-01-13 10:25:51.70	179.22	14.26	-45.7	-49.1	15.5	0.00e+00	0	42	0	143654912	62	5513
2026-01-13 10:25:55.68	179.42	14.67	-45.8	-49.3	15.3	0.00e+00	0	42	0	150994944	62	5616
2026-01-13 10:25:59.67	179.63	15.08	-45.9	-49.3	15.3	0.00e+00	0	42	0	158334976	62	5644
2026-01-13 10:26:04.07	179.86	15.55	-45.9	-49.4	15.2	1.60e-05	0	42	0	166723584	62	5702
2026-01-13 10:26:08.05	180.08	15.98	-45.9	-49.3	15.4	0.00e+00	0	42	0	174063616	62	5598
2026-01-13 10:26:12.11	180.31	16.42	-46.0	-49.3	15.3	0.00e+00	0	42	0	181403648	62	5624
2026-01-13 10:26:16.17	180.54	16.87	-45.9	-49.2	15.4	0.00e+00	0	42	0	189792256	62	5535
2026-01-13 10:26:20.18	180.78	17.32	-46.0	-49.2	15.4	0.00e+00	0	42	0	197132288	62	5556
2026-01-13 10:26:24.18	181.02	17.78	-46.0	-49.2	15.4	1.75e-04	0	42	0	204472320	62	5583
2026-01-13 10:26:28.16	181.27	18.25	-46.0	-49.3	15.4	0.00e+00	0	42	0	211812352	62	5632
2026-01-13 10:26:32.16	181.53	18.73	-46.0	-49.5	15.2	0.00e+00	0	42	0	219152384	62	5747
2026-01-13 10:26:36.34	181.81	19.24	-45.9	-49.4	15.3	0.00e+00	0	42	0	227540992	62	5661
2026-01-13 10:26:40.53	182.10	19.76	-45.9	-49.3	15.4	0.00e+00	0	42	0	234881024	62	5641
2026-01-13 10:26:44.54	182.38	20.26	-46.1	-49.5	15.2	0.00e+00	0	42	0	242221056	62	5766
2026-01-13 10:26:48.54	182.68	20.78	-46.1	-49.6	15.1	0.00e+00	0	42	0	249561088	62	5827
2026-01-13 10:26:52.58	182.98	21.31	-46.1	-49.6	15.1	0.00e+00	0	42	0	257949696	63	5500
2026-01-13 10:26:56.59	183.30	21.85	-46.1	-49.5	15.3	0.00e+00	0	42	0	265289728	63	5433
2026-01-13 10:27:00.57	183.62	22.39	-45.9	-49.1	15.7	0.00e+00	0	42	0	272629760	63	5174
2026-01-13 10:27:04.56	183.95	22.95	-45.7	-48.8	16.0	0.00e+00	0	42	0	279969792	63	5002
2026-01-13 10:27:08.58	184.30	23.52	-45.5	-48.6	16.2	0.00e+00	0	42	0	287309824	63	4879
2026-01-13 10:27:12.71	184.67	24.12	-45.3	-48.3	16.4	0.00e+00	0	42	0	295698432	62	5023
2026-01-13 10:27:16.85	185.06	24.73	-45.4	-48.4	16.4	0.00e+00	0	42	0	303038464	62	5060
2026-01-13 10:27:20.87	185.45	25.34	-45.3	-48.2	16.5	0.00e+00	0	42	0	310378496	62	4976
2026-01-13 10:27:24.87	185.85	25.96	-44.9	-47.7	17.0	0.00e+00	0	42	0	317718528	61	4969
2026-01-13 10:27:29.10	186.29	26.63	-45.0	-47.7	17.0	0.00e+00	0	42	0	326107136	61	4954
2026-01-13 10:27:33.07	186.72	27.27	-45.2	-48.0	16.8	0.00e+00	0	42	0	333447168	61	5127
2026-01-13 10:27:37.05	187.17	27.93	-45.6	-48.6	16.2	0.00e+00	0	42	0	340787200	61	5513
2026-01-13 10:27:41.03	187.64	28.60	-45.9	-49.0	15.9	0.00e+00	0	42	0	348127232	62	5431
2026-01-13 10:27:45.01	188.13	29.28	-46.1	-49.3	15.6	0.00e+00	0	43	0	355467264	62	5600
2026-01-13 10:27:48.99	188.64	29.98	-46.4	-49.7	15.1	0.00e+00	0	42	0	363855872	63	5584
2026-01-13 10:27:52.97	189.17	30.70	-46.6	-50.0	14.8	0.00e+00	0	43	0	371195904	64	5447
2026-01-13 10:27:56.94	189.72	31.43	-47.2	-50.9	13.9	5.30e-06	0	42	0	378535936	64	5998
2026-01-13 10:28:00.92	190.30	32.17	-47.5	-51.4	13.4	1.29e-05	0	42	0	385875968	65	6057
2026-01-13 10:28:04.96	190.92	32.95	-47.6	-51.6	13.2	2.59e-05	0	42	0	393216000	65	6199
2026-01-13 10:28:08.97	191.56	33.73	-47.4	-51.4	13.4	8.30e-06	0	42	0	400556032	65	6045
2026-01-13 10:28:12.95	192.23	34.53	-47.4	-51.6	13.3	1.98e-05	0	43	0	407896064	65	6133
2026-01-13 10:28:16.93	192.93	35.34	-47.6	-51.6	13.2	1.98e-05	0	43	0	416284672	65	6198
2026-01-13 10:28:20.96	193.67	36.17	-47.7	-51.9	13.0	4.11e-05	0	43	0	423624704	66	6013
2026-01-13 10:28:24.90	194.44	37.01	-47.5	-51.5	13.3	2.36e-05	0	42	0	430964736	66	5745
2026-01-13 10:28:28.88	195.25	37.87	-47.6	-51.7	13.2	2.28e-05	0	42	0	438304768	66	5874
2026-01-13 10:28:32.85	196.10	38.74	-47.3	-51.1	13.7	6.10e-06	0	43	0	445644800	66	5528
2026-01-13 10:28:36.88	197.02	39.64	-47.4	-51.4	13.5	7.60e-06	0	43	0	452984832	66	5662
2026-01-13 10:28:40.81	197.96	40.54	-47.1	-50.7	14.1	7.00e-07	0	43	0	460324864	66	5275
2026-01-13 10:28:44.79	198.97	41.46	-46.6	-49.9	14.8	0.00e+00	0	42	0	467664896	65	5089
2026-01-13 10:28:48.77	200.03	42.39	-46.6	-49.9	14.9	0.00e+00	0	43	0	475004928	64	5394
2026-01-13 10:28:52.78	201.17	43.34	-46.7	-50.1	14.8	0.00e+00	0	42	0	483393536	64	5503
2026-01-13 10:28:56.80	202.38	44.31	-46.8	-50.3	14.5	0.00e+00	0	42	0	490733568	64	5649
2026-01-13 10:29:00.78	203.65	45.27	-47.5	-51.5	13.4	1.83e-05	0	42	0	498073600	65	6080
2026-01-13 10:29:05.06	205.11	46.32	-46.9	-50.7	14.1	7.00e-07	0	43	0	506462208	65	5549
2026-01-13 10:29:09.10	206.57	47.31	-47.9	-52.3	12.7	4.11e-05	0	42	0	513802240	66	6312
2026-01-13 10:29:13.57	208.31	48.41	-47.5	-51.4	13.5	1.83e-05	0	43	0	522190848	66	5667
2026-01-13 10:29:18.12	210.20	49.53	-48.3	-52.9	11.9	3.52e-04	0	43	0	530579456	67	6409
2026-01-13 10:29:22.67	212.23	50.64	-47.0	-50.5	14.4	2.20e-06	0	43	0	538968064	65	5456
2026-01-13 10:29:27.39	214.50	51.77	-46.1	-49.2	15.6	0.00e+00	0	43	0	547356672	64	4981
2026-01-13 10:29:31.93	216.86	52.85	-45.7	-48.6	16.3	0.00e+00	0	43	0	556793856	63	4904
2026-01-13 10:29:36.48	219.39	53.89	-45.2	-47.9	17.0	0.00e+00	0	42	0	565182464	62	4800
2026-01-13 10:29:41.05	222.12	54.90	-45.2	-48.1	16.8	0.00e+00	0	43	0	573571072	62	4881
2026-01-13 10:29:45.04	224.66	55.74	-45.8	-48.8	16.2	0.00e+00	0	43	0	580911104	62	5290
2026-01-13 10:29:49.02	227.35	56.54	-46.5	-49.7	15.3	0.00e+00	0	42	0	588251136	63	5583
2026-01-13 10:29:53.01	230.19	57.28	-46.2	-49.4	15.6	7.00e-07	0	43	0	595591168	63	5341
2026-01-13 10:29:57.10	233.27	57.98	-46.6	-49.8	15.1	0.00e+00	0	42	0	603979776	63	5640
2026-01-13 10:30:01.31	236.59	58.62	-46.6	-49.9	15.1	0.00e+00	0	43	0	611319808	63	5711
2026-01-13 10:30:05.31	239.89	59.15	-46.2	-49.3	15.5	0.00e+00	0	43	0	618659840	64	5033
2026-01-13 10:30:09.29	243.30	59.60	-45.9	-48.9	16.1	0.00e+00	0	43	0	625999872	63	5053
2026-01-13 10:30:13.29	246.83	59.95	-46.3	-49.6	15.4	0.00e+00	0	42	0	634388480	64	5161
2026-01-13 10:30:17.34	250.49	60.21	-46.8	-50.3	14.7	1.50e-06	0	43	0	641728512	64	5593
2026-01-13 10:30:21.46	254.28	60.36	-46.6	-49.8	15.2	0.00e+00	0	42	0	649068544	64	5325
2026-01-13 10:30:25.47	257.99	60.41	-46.3	-49.5	15.4	0.00e+00	0	43	0	656408576	64	5136
2026-01-13 10:30:29.49	261.70	60.35	-45.8	-48.7	16.2	0.00e+00	0	43	0	664797184	62	5267
2026-01-13 10:30:34.19	266.00	60.14	-45.6	-48.5	16.5	0.00e+00	0	43	0	673185792	62	5131
2026-01-13 10:30:38.18	269.59	59.86	-46.2	-49.2	15.8	0.00e+00	0	43	0	680525824	63	5256
2026-01-13 10:30:42.16	273.07	59.48	-46.8	-50.2	14.7	1.50e-06	0	43	0	687865856	65	5255
2026-01-13 10:30:46.12	276.42	59.02	-48.3	-52.9	12.1	2.89e-05	0	43	0	695205888	67	6390
2026-01-13 10:30:50.43	279.93	58.42	-48.7	-53.7	11.5	1.02e-03	0	43	0	703594496	68	6575
2026-01-13 10:30:55.05	283.51	57.68	-48.0	-52.4	12.7	2.03e-04	0	43	0	711983104	68	5684
2026-01-13 10:30:59.60	286.83	56.87	-46.9	-50.4	14.5	0.00e+00	0	43	0	720371712	64	5712
2026-01-13 10:31:04.15	289.96	55.98	-45.5	-48.3	16.7	0.00e+00	0	43	0	728760320	62	5037
2026-01-13 10:31:08.77	292.93	55.02	-45.1	-47.8	17.1	0.00e+00	0	43	0	738197504	60	5333
2026-01-13 10:31:13.15	295.57	54.06	-44.0	-46.3	18.5	0.00e+00	0	43	0	746586112	59	4736
2026-01-13 10:31:17.13	297.81	53.16	-44.5	-47.1	17.8	0.00e+00	0	43	0	753926144	60	4886
2026-01-13 10:31:21.11	299.92	52.23	-45.2	-47.9	17.0	0.00e+00	0	43	0	761266176	61	5075
2026-01-13 10:31:25.03	301.87	51.30	-45.4	-48.3	16.7	0.00e+00	0	43	0	768606208	61	5291
2026-01-13 10:31:29.01	303.74	50.34	-45.9	-48.9	16.0	0.00e+00	0	43	0	775946240	63	5079
2026-01-13 10:31:32.99	305.48	49.37	-48.4	-53.3	11.6	4.50e-05	0	43	0	783286272	67	6709
2026-01-13 10:31:36.97	307.12	48.40	-47.6	-51.7	13.3	1.44e-05	0	43	0	790626304	66	5856
2026-01-13 10:31:40.95	308.66	47.42	-48.8	-54.2	10.8	2.85e-03	0	43	0	797966336	68	7012
2026-01-13 10:31:44.93	310.11	46.45	-47.4	-51.3	13.6	4.50e-06	0	43	0	805306368	66	5635
2026-01-13 10:31:48.91	311.47	45.48	-47.4	-51.3	13.6	2.21e-05	0	43	0	813694976	66	5627
2026-01-13 10:31:52.88	312.75	44.52	-47.2	-50.9	14.0	1.50e-06	0	43	0	821035008	66	5396
2026-01-13 10:31:56.86	313.96	43.57	-48.5	-53.3	11.7	1.55e-03	0	43	0	828375040	68	6325
2026-01-13 10:32:00.83	315.10	42.63	-47.2	-51.0	13.9	7.00e-07	0	43	0	835715072	64	6115
2026-01-13 10:32:04.89	316.19	41.68	-46.7	-50.2	14.8	0.00e+00	0	43	0	843055104	65	5233
2026-01-13 10:32:09.26	317.31	40.67	-47.1	-50.7	14.2	7.00e-07	0	43	0	851443712	65	5591
2026-01-13 10:32:13.28	318.27	39.76	-46.8	-50.4	14.5	7.00e-07	0	43	0	858783744	65	5351
2026-01-13 10:32:17.29	319.18	38.87	-46.3	-49.6	15.5	0.00e+00	0	43	0	866123776	63	5477
2026-01-13 10:32:21.50	320.09	37.95	-47.5	-51.5	13.5	4.19e-05	0	43	0	874512384	66	5732
2026-01-13 10:32:25.50	320.91	37.09	-45.8	-48.7	16.3	0.00e+00	0	43	0	881852416	63	4977
2026-01-13 10:32:29.48	321.68	36.25	-46.3	-49.5	15.6	0.00e+00	0	43	0	889192448	63	5434
2026-01-13 10:32:33.47	322.41	35.43	-46.5	-50.2	15.0	7.00e-07	0	43	0	896532480	63	5858
2026-01-13 10:32:37.57	323.13	34.60	-45.9	-49.1	16.0	0.00e+00	0	43	0	904921088	63	5180
2026-01-13 10:32:41.66	323.82	33.79	-47.5	-51.5	13.6	7.00e-07	0	43	0	912261120	65	6083
2026-01-13 10:32:45.78	324.47	32.99	-47.7	-51.7	13.4	1.14e-05	0	43	0	919601152	66	5916
2026-01-13 10:32:49.81	325.09	32.22	-47.0	-50.5	14.6	0.00e+00	0	43	0	926941184	66	5159
2026-01-13 10:32:53.79	325.67	31.48	-47.6	-51.6	13.6	5.30e-06	0	43	0	935329792	65	6184
2026-01-13 10:32:57.85	326.23	30.74	-48.0	-52.3	13.0	4.04e-05	0	43	0	942669824	66	6287
2026-01-13 10:33:02.12	326.80	29.98	-47.9	-52.2	13.1	4.19e-05	0	43	0	950009856	67	5861
2026-01-13 10:33:06.10	327.30	29.29	-47.6	-51.6	13.6	7.60e-06	0	43	0	958398464	67	5522
2026-01-13 10:33:10.29	327.81	28.57	-47.2	-51.2	14.1	3.80e-06	0	43	0	965738496	66	5560
2026-01-13 10:33:14.27	328.28	27.91	-47.4	-51.3	14.1	2.20e-06	0	43	0	973078528	66	5614
2026-01-13 10:33:18.25	328.73	27.26	-47.7	-51.6	13.7	4.50e-06	0	43	0	980418560	66	5840
2026-01-13 10:33:22.23	329.16	26.62	-47.4	-51.4	13.9	4.50e-06	0	43	0	987758592	66	5720
2026-01-13 10:33:26.43	329.59	25.96	-46.8	-50.5	14.9	0.00e+00	0	43	0	996147200	65	5432
2026-01-13 10:33:30.41	329.99	25.35	-46.7	-50.1	15.3	0.00e+00	0	42	0	1003487232	65	5169
2026-01-13 10:33:34.39	330.38	24.76	-46.9	-50.6	14.9	7.00e-07	0	43	0	1010827264	65	5468
2026-01-13 10:33:38.37	330.75	24.17	-47.3	-51.1	14.4	1.50e-06	0	43	0	1018167296	65	5801
2026-01-13 10:33:42.46	331.11	23.58	-47.2	-50.7	14.7	0.00e+00	0	43	0	1026555904	65	5587
2026-01-13 10:33:46.44	331.46	23.02	-46.9	-50.3	15.2	0.00e+00	0	43	0	1033895936	65	5282
2026-01-13 10:33:50.41	331.79	22.47	-46.5	-49.5	16.0	0.00e+00	0	43	0	1041235968	65	4856
2026-01-13 10:33:54.40	332.11	21.93	-46.6	-49.7	15.9	0.00e+00	0	43	0	1048576000	64	5249
2026-01-13 10:33:58.37	332.43	21.40	-46.7	-50.0	15.6	0.00e+00	0	43	0	1055916032	64	5433
2026-01-13 10:34:02.40	332.73	20.88	-46.7	-50.0	15.7	0.00e+00	0	43	0	1063256064	64	5409
2026-01-13 10:34:06.52	333.04	20.35	-46.5	-49.7	15.9	0.00e+00	0	43	0	1071644672	64	5268
2026-01-13 10:34:10.55	333.32	19.84	-46.3	-49.5	16.2	0.00e+00	0	43	0	1078984704	64	5146
2026-01-13 10:34:14.67	333.61	19.34	-46.2	-49.2	16.5	0.00e+00	0	43	0	1086324736	64	4983
2026-01-13 10:34:18.87	333.89	18.83	-46.4	-49.5	16.4	0.00e+00	0	43	0	1094713344	64	5103
2026-01-13 10:34:22.91	334.15	18.35	-46.5	-49.7	16.2	0.00e+00	0	43	0	1102053376	64	5266
2026-01-13 10:34:27.16	334.42	17.86	-46.8	-50.0	16.0	0.00e+00	0	43	0	1109393408	64	5443
2026-01-13 10:34:31.55	334.69	17.36	-47.2	-50.3	15.8	0.00e+00	0	43	0	1117782016	64	5599
2026-01-13 10:34:35.73	334.94	16.89	-46.9	-50.2	15.8	0.00e+00	0	43	0	1126170624	65	5236
2026-01-13 10:34:39.84	335.17	16.44	-46.6	-50.0	16.0	0.00e+00	0	43	0	1133510656	65	5157
2026-01-13 10:34:43.82	335.40	16.01	-46.6	-49.9	16.1	0.00e+00	0	43	0	1140850688	65	5092
2026-01-13 10:34:47.85	335.62	15.58	-46.8	-50.0	16.1	0.00e+00	0	43	0	1148190720	65	5109
2026-01-13 10:34:51.85	335.83	15.16	-46.9	-50.1	15.9	0.00e+00	0	43	0	1156579328	65	5166
2026-01-13 10:34:55.84	336.04	14.75	-47.1	-50.3	15.7	0.00e+00	0	43	0	1163919360	65	5307
2026-01-13 10:34:59.84	336.24	14.35	-47.1	-50.5	15.5	0.00e+00	0	43	0	1171259392	65	5454
2026-01-13 10:35:03.86	336.44	13.95	-47.2	-50.8	15.3	0.00e+00	0	43	0	1178599424	65	5594
2026-01-13 10:35:07.86	336.63	13.55	-47.3	-50.9	15.1	0.00e+00	0	42	0	1185939456	65	5700
2026-01-13 10:35:11.82	336.82	13.17	-47.4	-51.2	14.8	0.00e+00	0	42	0	1193279488	65	5858
2026-01-13 10:35:15.80	337.00	12.79	-47.3	-51.3	14.7	7.00e-07	0	43	0	1200619520	65	5942
2026-01-13 10:35:19.78	337.18	12.42	-47.4	-51.3	14.6	0.00e+00	0	43	0	1209008128	65	5985
2026-01-13 10:35:23.87	337.36	12.04	-47.5	-51.3	14.6	0.00e+00	0	43	0	1216348160	65	5969
2026-01-13 10:35:27.99	337.54	11.67	-47.6	-51.3	14.7	7.00e-07	0	43	0	1223688192	65	5948
2026-01-13 10:35:31.97	337.71	11.31	-47.5	-51.1	14.8	0.00e+00	0	43	0	1231028224	65	5823
2026-01-13 10:35:35.95	337.87	10.96	-47.6	-51.1	14.8	0.00e+00	0	43	0	1238368256	65	5832
2026-01-13 10:35:40.04	338.03	10.60	-47.5	-51.1	14.8	7.00e-07	0	43	0	1246756864	65	5844
2026-01-13 10:35:44.02	338.19	10.26	-47.5	-51.2	14.7	0.00e+00	0	43	0	1254096896	65	5887
2026-01-13 10:35:48.00	338.34	9.92	-47.6	-51.4	14.4	0.00e+00	0	43	0	1261436928	65	6053
2026-01-13 10:35:51.98	338.49	9.59	-47.7	-51.5	14.4	0.00e+00	0	43	0	1268776960	66	5773
2026-01-13 10:35:55.96	338.64	9.26	-47.7	-51.9	14.0	3.00e-06	0	43	0	1276116992	66	6008
2026-01-13 10:35:59.94	338.79	8.94	-51.2	-63.3	4.6	9.10e-06	0	43	0	1283457024	72	15866
2026-01-13 10:36:03.91	338.93	8.62	-52.3	-67.7	3.8	1.49e+00	0	43	104	1283457024	75	22159
2026-01-13 10:36:07.88	339.07	8.30	-52.6	-67.9	3.8	1.49e+00	0	43	104	1283457024	75	22575
2026-01-13 10:36:11.85	339.20	7.99	-52.7	-68.0	3.8	1.49e+00	0	43	104	1283457024	76	21598
2026-01-13 10:36:15.83	339.34	7.68	-52.9	-68.0	3.8	1.49e+00	0	43	104	1283457024	76	21571
2026-01-13 10:36:19.80	339.47	7.38	-52.8	-68.0	3.8	1.49e+00	0	43	104	1283457024	76	21630
2026-01-13 10:36:23.78	339.60	7.07	-52.7	-68.0	3.8	1.49e+00	0	43	104	1283457024	76	21594
2026-01-13 10:36:27.75	339.72	6.78	-52.7	-67.9	3.8	1.49e+00	0	43	104	1283457024	76	21464
2026-01-13 10:36:31.73	339.85	6.48	-52.7	-67.9	3.8	1.49e+00	0	43	104	1283457024	76	21462
2026-01-13 10:36:35.70	339.97	6.19	-52.7	-67.9	3.8	1.49e+00	0	43	104	1283457024	76	21417
2026-01-13 10:36:39.67	340.09	5.90	-52.7	-67.9	3.8	1.49e+00	0	43	104	1283457024	76	21441
2026-01-13 10:36:43.65	340.21	5.62	-52.7	-67.9	3.8	1.49e+00	0	43	104	1283457024	76	21455
2026-01-13 10:36:47.62	340.33	5.33	-52.7	-67.9	3.8	1.49e+00	0	43	104	1283457024	76	21478
2026-01-13 10:36:51.59	340.44	5.05	-52.7	-67.9	3.8	1.49e+00	0	43	104	1283457024	76	21474

#Closed at: 2026-01-13 10:36:53
#Recorded file [1283 MB]: D:/Data/31040_260113_132403.dat