passes_logs/2026/01/13/T1/T1__20260113_024543_AQUA_rec.log

#Pass ID: 20260113_024543_AQUA
#Satellite: AQUA
#Configuration: AQUA
#almurnet v.1.7.20251203
#Start time: 2026-01-13 02:45:43

#Version: 2.0.20230620
#Station: T1
#Location: 37.570604 lon 55.790049 lat
#TLE: 1 27424U 02022A   26012.29577270  .00001027  00000+0  21555-3 0  9995
#TLE: 2 27424  98.4078 338.6778 0002034  81.5885  29.6294 14.61817302260499

#Time	Az	El	Level	Level2	SNR	BER	BlckErr	Temp	State	Recorded	gain1	gain2
2026-01-13 02:45:43.72	4.14	5.03	-51.9	-72.3	3.8	7.45e-01	0	35	0	0	74	39998
2026-01-13 02:45:46.70	3.89	5.23	-47.5	-71.5	3.8	7.46e-01	0	36	104	0	67	54594
2026-01-13 02:45:49.68	3.63	5.42	-47.5	-71.5	3.8	7.47e-01	0	36	104	0	67	54131
2026-01-13 02:45:52.66	3.37	5.62	-47.5	-71.5	3.8	7.48e-01	0	36	104	0	67	54422
2026-01-13 02:45:55.64	3.10	5.81	-47.5	-71.7	3.8	7.45e-01	0	36	104	0	66	58685
2026-01-13 02:45:58.62	2.83	6.01	-47.5	-71.7	3.8	7.45e-01	0	36	104	0	66	58684
2026-01-13 02:46:01.60	2.55	6.21	-47.5	-71.2	3.8	7.48e-01	0	36	104	0	66	55768
2026-01-13 02:46:04.58	2.27	6.41	-47.5	-71.2	3.8	7.45e-01	0	37	104	0	66	55442
2026-01-13 02:46:07.56	1.99	6.61	-47.4	-70.3	3.8	7.46e-01	0	37	104	0	66	50192
2026-01-13 02:46:10.54	1.70	6.81	-47.4	-69.5	3.9	7.46e-01	0	37	104	0	66	45769
2026-01-13 02:46:13.52	1.41	7.02	-47.4	-70.7	3.8	7.46e-01	0	37	104	0	66	52534
2026-01-13 02:46:16.50	1.11	7.22	-47.4	-70.4	3.8	7.45e-01	0	37	104	0	66	50442
2026-01-13 02:46:19.48	0.81	7.43	-47.5	-69.8	3.9	7.46e-01	0	37	104	0	66	47534
2026-01-13 02:46:22.46	0.50	7.63	-47.4	-69.7	3.9	7.43e-01	0	37	104	0	66	46552
2026-01-13 02:46:25.44	0.19	7.84	-47.4	-71.1	3.8	7.51e-01	0	37	104	0	66	55009
2026-01-13 02:46:28.42	359.87	8.05	-47.4	-65.0	5.7	6.91e-01	0	37	0	0	66	27219
2026-01-13 02:46:31.40	359.55	8.26	-46.9	-57.9	12.6	6.07e-01	0	37	0	5242880	65	12789
2026-01-13 02:46:34.38	359.22	8.47	-46.4	-55.0	15.7	6.02e-01	0	37	0	11010048	64	9635
2026-01-13 02:46:37.36	358.89	8.68	-46.3	-54.3	16.3	6.02e-01	0	37	0	16777216	64	8934
2026-01-13 02:46:40.34	358.55	8.90	-46.4	-54.9	15.8	6.04e-01	0	37	0	22020096	64	9533
2026-01-13 02:46:43.32	358.20	9.11	-47.3	-58.1	12.4	6.05e-01	0	37	0	27787264	65	13036
2026-01-13 02:46:46.31	357.85	9.33	-48.4	-62.0	7.8	6.44e-01	0	37	0	33030144	67	18178
2026-01-13 02:46:49.29	357.50	9.54	-44.5	-50.0	20.5	6.03e-01	0	37	0	38797312	60	6809
2026-01-13 02:46:52.23	357.14	9.76	-44.8	-50.0	20.5	6.02e-01	0	37	0	44040192	60	6875
2026-01-13 02:46:55.36	356.75	9.99	-45.1	-50.2	20.4	6.04e-01	0	37	0	49807360	60	6976
2026-01-13 02:46:58.20	356.40	10.20	-44.9	-50.1	20.5	6.02e-01	0	37	0	55050240	60	6928
2026-01-13 02:47:01.33	356.00	10.43	-44.9	-50.0	20.5	6.07e-01	0	38	0	61341696	60	6846
2026-01-13 02:47:04.17	355.63	10.64	-44.8	-50.0	20.6	6.03e-01	0	37	0	66584576	60	6839
2026-01-13 02:47:07.42	355.20	10.89	-44.6	-49.7	20.8	6.00e-01	0	38	0	72351744	60	6638
2026-01-13 02:47:10.22	354.82	11.10	-44.6	-49.6	21.0	6.02e-01	0	38	0	77594624	60	6531
2026-01-13 02:47:13.46	354.38	11.34	-44.4	-49.3	21.2	6.02e-01	0	38	0	83886080	60	6311
2026-01-13 02:47:16.30	353.98	11.56	-44.4	-49.5	21.1	6.02e-01	0	38	0	89128960	60	6430
2026-01-13 02:47:19.43	353.54	11.80	-44.3	-49.5	21.1	6.05e-01	0	38	0	94896128	59	6864
2026-01-13 02:47:22.27	353.13	12.01	-44.0	-49.5	21.2	6.04e-01	0	38	0	100139008	59	6847
2026-01-13 02:47:25.40	352.67	12.25	-43.7	-49.6	21.1	6.01e-01	0	38	0	106430464	59	6922
2026-01-13 02:47:28.32	352.24	12.48	-43.8	-49.5	21.2	6.01e-01	0	38	0	111673344	59	6858
2026-01-13 02:47:31.55	351.75	12.73	-44.3	-49.5	21.2	6.01e-01	0	38	0	117964800	59	6872
2026-01-13 02:47:34.45	351.30	12.95	-44.9	-49.4	21.2	6.04e-01	0	38	0	123207680	60	6398
2026-01-13 02:47:37.66	350.80	13.20	-45.5	-49.3	21.4	6.02e-01	0	38	0	129499136	61	5967
2026-01-13 02:47:40.58	350.33	13.43	-46.2	-49.4	21.3	6.03e-01	0	38	0	134742016	62	5678
2026-01-13 02:47:43.97	349.78	13.70	-46.0	-49.4	21.4	6.03e-01	0	38	0	141033472	63	5346
2026-01-13 02:47:46.67	349.33	13.91	-45.5	-49.2	21.5	6.00e-01	0	38	0	146276352	63	5269
2026-01-13 02:47:49.96	348.77	14.17	-45.0	-49.1	21.6	6.03e-01	0	38	0	152567808	62	5502
2026-01-13 02:47:52.69	348.31	14.38	-45.2	-49.2	21.5	6.04e-01	0	38	0	157286400	61	5865
2026-01-13 02:47:56.00	347.73	14.64	-45.6	-49.1	21.6	6.02e-01	0	38	0	163577856	61	5844
2026-01-13 02:47:58.76	347.24	14.86	-45.8	-49.0	21.6	6.03e-01	0	38	0	168820736	62	5455
2026-01-13 02:48:02.13	346.63	15.13	-45.8	-49.0	21.8	6.04e-01	0	38	0	175112192	62	5430
2026-01-13 02:48:05.16	346.07	15.36	-45.4	-49.1	21.6	6.03e-01	0	38	0	180879360	62	5520
2026-01-13 02:48:08.24	345.49	15.61	-45.3	-49.0	21.8	6.04e-01	0	38	0	186646528	62	5408
2026-01-13 02:48:11.52	344.86	15.87	-45.3	-48.9	21.8	6.02e-01	0	38	0	192937984	62	5359
2026-01-13 02:48:14.24	344.34	16.08	-45.1	-48.9	21.8	6.01e-01	0	38	0	197656576	61	5708
2026-01-13 02:48:17.52	343.69	16.34	-44.8	-48.9	21.8	6.02e-01	0	38	0	203948032	61	5685
2026-01-13 02:48:20.22	343.14	16.55	-45.2	-49.1	21.7	6.01e-01	0	38	0	209190912	61	5791
2026-01-13 02:48:23.70	342.43	16.82	-45.4	-49.0	21.7	6.03e-01	0	38	0	215482368	61	5762
2026-01-13 02:48:26.42	341.87	17.03	-46.0	-49.0	21.7	6.03e-01	0	38	0	220725248	62	5461
2026-01-13 02:48:29.71	341.17	17.29	-46.0	-49.1	21.7	6.03e-01	0	38	0	227016704	62	5467
2026-01-13 02:48:32.45	340.58	17.50	-46.0	-49.0	21.8	6.03e-01	0	38	0	231735296	62	5418
2026-01-13 02:48:35.72	339.87	17.75	-45.9	-49.0	21.8	6.00e-01	0	38	0	238026752	62	5418
2026-01-13 02:48:38.67	339.21	17.98	-45.7	-49.1	21.7	6.02e-01	0	38	0	243793920	62	5495
2026-01-13 02:48:41.94	338.47	18.22	-46.1	-49.2	21.6	6.01e-01	0	38	0	249561088	62	5566
2026-01-13 02:48:44.66	337.84	18.43	-45.3	-49.1	21.8	6.01e-01	0	38	0	254803968	62	5486
2026-01-13 02:48:48.03	337.06	18.68	-45.4	-49.1	21.7	6.03e-01	0	38	0	261095424	62	5505
2026-01-13 02:48:50.79	336.40	18.88	-46.2	-49.3	21.6	6.03e-01	0	38	0	266338304	62	5627
2026-01-13 02:48:54.20	335.58	19.13	-45.9	-49.2	21.6	6.03e-01	0	38	0	272629760	63	5266
2026-01-13 02:48:56.92	334.91	19.33	-45.8	-49.1	21.7	6.00e-01	0	38	0	277872640	63	5217
2026-01-13 02:49:00.20	334.09	19.56	-45.9	-49.2	21.7	6.00e-01	0	38	0	284164096	63	5223
2026-01-13 02:49:02.94	333.40	19.76	-45.8	-49.2	21.7	6.00e-01	0	38	0	289406976	63	5232
2026-01-13 02:49:06.50	332.49	20.00	-45.9	-49.4	21.5	6.03e-01	0	38	0	295698432	63	5397
2026-01-13 02:49:09.21	331.78	20.19	-46.1	-49.3	21.6	6.03e-01	0	38	0	300941312	63	5280
2026-01-13 02:49:12.49	330.92	20.41	-46.2	-49.3	21.5	6.04e-01	0	38	0	307232768	63	5334
2026-01-13 02:49:15.20	330.19	20.58	-46.3	-49.6	21.4	6.00e-01	0	38	0	311951360	63	5478
2026-01-13 02:49:18.47	329.31	20.79	-46.0	-49.4	21.5	6.03e-01	0	38	0	318242816	63	5382
2026-01-13 02:49:21.24	328.54	20.97	-46.1	-49.5	21.4	6.04e-01	0	38	0	323485696	63	5454
2026-01-13 02:49:24.52	327.63	21.17	-46.1	-49.4	21.5	6.02e-01	0	38	0	329777152	63	5373
2026-01-13 02:49:27.25	326.86	21.33	-46.2	-49.4	21.5	6.02e-01	0	38	0	334495744	63	5366
2026-01-13 02:49:30.52	325.93	21.52	-46.0	-49.5	21.4	6.03e-01	0	38	0	340787200	63	5444
2026-01-13 02:49:33.25	325.14	21.67	-46.0	-49.6	21.4	6.03e-01	0	38	0	346030080	63	5467
2026-01-13 02:49:36.52	324.18	21.85	-46.1	-49.4	21.5	6.01e-01	0	38	0	352321536	63	5399
2026-01-13 02:49:39.26	323.37	21.99	-46.3	-49.6	21.3	6.01e-01	0	38	0	357564416	63	5518
2026-01-13 02:49:42.55	322.39	22.16	-46.2	-49.4	21.5	6.04e-01	0	38	0	363331584	63	5402
2026-01-13 02:49:45.36	321.54	22.29	-46.3	-49.7	21.2	6.01e-01	0	38	0	368574464	63	5586
2026-01-13 02:49:48.70	320.53	22.45	-46.2	-49.7	21.2	6.02e-01	0	38	0	374865920	63	5567
2026-01-13 02:49:51.41	319.69	22.56	-46.3	-49.7	21.3	6.06e-01	0	38	0	380108800	63	5560
2026-01-13 02:49:54.67	318.68	22.70	-46.4	-49.7	21.3	5.98e-01	0	38	0	386400256	63	5569
2026-01-13 02:49:57.39	317.83	22.80	-46.4	-49.7	21.2	6.02e-01	0	38	0	391118848	63	5590
2026-01-13 02:50:00.66	316.80	22.92	-46.5	-49.8	21.2	6.01e-01	0	38	0	397410304	63	5606
2026-01-13 02:50:03.44	315.92	23.02	-46.4	-49.6	21.4	6.01e-01	0	38	0	402653184	63	5476
2026-01-13 02:50:06.72	314.87	23.12	-46.4	-49.7	21.3	6.01e-01	0	38	0	408944640	63	5549
2026-01-13 02:50:09.45	313.99	23.20	-46.6	-50.0	21.0	6.03e-01	0	38	0	413663232	63	5725
2026-01-13 02:50:12.72	312.94	23.28	-46.4	-49.7	21.3	6.03e-01	0	38	0	419954688	63	5576
2026-01-13 02:50:15.43	312.06	23.34	-46.6	-49.9	21.0	6.03e-01	0	38	0	425197568	64	5394
2026-01-13 02:50:18.97	310.90	23.41	-46.4	-49.7	21.2	6.03e-01	0	38	0	432013312	64	5253
2026-01-13 02:50:21.69	310.01	23.46	-46.5	-50.0	20.9	6.00e-01	0	38	0	436731904	64	5456
2026-01-13 02:50:24.98	308.93	23.51	-46.7	-50.1	20.9	6.04e-01	0	38	0	443023360	64	5517
2026-01-13 02:50:27.70	308.03	23.54	-46.8	-50.1	20.9	6.01e-01	0	38	0	448266240	64	5486
2026-01-13 02:50:31.10	306.91	23.57	-46.6	-49.8	21.1	6.04e-01	0	38	0	454557696	64	5304
2026-01-13 02:50:33.94	305.97	23.58	-46.9	-50.2	20.8	6.02e-01	0	38	0	459800576	64	5554
2026-01-13 02:50:37.21	304.89	23.59	-46.8	-50.1	20.9	6.00e-01	0	38	0	466092032	65	5203
2026-01-13 02:50:39.94	303.98	23.58	-47.2	-50.6	20.4	6.02e-01	0	38	0	470810624	65	5499
2026-01-13 02:50:43.23	302.89	23.57	-47.8	-51.5	19.5	6.03e-01	0	38	0	477102080	66	5773
2026-01-13 02:50:46.23	301.90	23.55	-46.6	-49.8	21.1	6.02e-01	0	38	0	482869248	65	5013
2026-01-13 02:50:49.51	300.82	23.52	-47.9	-51.7	19.4	6.04e-01	0	38	0	489160704	66	5911
2026-01-13 02:50:52.39	299.87	23.48	-46.0	-49.0	21.9	6.01e-01	0	38	0	494403584	64	4816
2026-01-13 02:50:56.27	298.60	23.42	-46.6	-49.8	21.1	6.04e-01	0	38	0	501743616	65	4995
2026-01-13 02:50:59.13	297.66	23.36	-46.7	-50.0	21.0	6.04e-01	0	38	0	506986496	64	5456
2026-01-13 02:51:02.40	296.60	23.29	-46.7	-49.8	21.0	6.02e-01	0	38	0	513277952	65	5006
2026-01-13 02:51:05.29	295.66	23.22	-46.6	-49.7	21.2	6.01e-01	0	38	0	518520832	65	4927
2026-01-13 02:51:08.84	294.52	23.12	-46.8	-49.9	21.0	6.07e-01	0	38	0	525336576	65	5074
2026-01-13 02:51:11.55	293.65	23.03	-47.3	-50.7	20.3	6.03e-01	0	38	0	530055168	65	5561
2026-01-13 02:51:15.05	292.54	22.91	-47.2	-50.6	20.5	6.00e-01	0	38	0	536870912	65	5494
2026-01-13 02:51:17.82	291.66	22.81	-46.9	-50.2	20.6	6.05e-01	0	38	0	542113792	65	5276
2026-01-13 02:51:21.12	290.63	22.68	-47.1	-50.5	20.5	6.02e-01	0	38	0	548405248	65	5424
2026-01-13 02:51:24.34	289.63	22.55	-46.8	-50.0	20.8	6.01e-01	0	38	0	554172416	65	5153
2026-01-13 02:51:27.32	288.71	22.42	-46.9	-50.1	20.8	6.02e-01	0	38	0	559939584	65	5171
2026-01-13 02:51:30.30	287.80	22.28	-46.6	-49.7	21.2	6.03e-01	0	38	0	565182464	65	4961
2026-01-13 02:51:33.28	286.90	22.14	-47.2	-50.7	20.4	6.01e-01	0	38	0	570949632	65	5543
2026-01-13 02:51:36.32	285.99	21.98	-46.8	-50.1	20.7	6.05e-01	0	38	0	576716800	65	5200
2026-01-13 02:51:39.34	285.10	21.83	-47.0	-50.5	20.4	6.02e-01	0	38	0	582483968	65	5403
2026-01-13 02:51:42.32	284.23	21.66	-46.8	-50.0	20.8	6.05e-01	0	38	0	588251136	65	5116
2026-01-13 02:51:45.30	283.36	21.49	-47.1	-50.4	20.5	5.99e-01	0	38	0	593494016	65	5395
2026-01-13 02:51:48.28	282.51	21.32	-47.4	-50.9	20.1	6.04e-01	0	38	0	599261184	66	5349
2026-01-13 02:51:51.26	281.67	21.14	-47.3	-50.7	20.2	6.00e-01	0	38	0	605028352	66	5252
2026-01-13 02:51:54.25	280.83	20.96	-47.6	-51.0	20.0	6.00e-01	0	38	0	610271232	66	5447
2026-01-13 02:51:57.23	280.01	20.77	-47.9	-51.6	19.4	6.00e-01	0	38	0	616038400	66	5844
2026-01-13 02:52:00.22	279.20	20.58	-48.3	-52.3	18.8	6.04e-01	0	38	0	621805568	67	5953
2026-01-13 02:52:03.20	278.40	20.38	-47.6	-51.2	19.8	6.03e-01	0	38	0	627048448	66	5589
2026-01-13 02:52:06.19	277.60	20.18	-47.4	-51.0	20.0	6.01e-01	0	38	0	632815616	66	5423
2026-01-13 02:52:09.22	276.81	19.98	-47.4	-50.8	20.2	6.01e-01	0	38	0	638582784	66	5296
2026-01-13 02:52:12.30	276.02	19.76	-46.6	-49.8	21.1	6.03e-01	0	38	0	644349952	65	5011
2026-01-13 02:52:15.15	275.30	19.56	-46.8	-50.1	20.9	6.01e-01	0	38	0	649592832	65	5166
2026-01-13 02:52:18.27	274.52	19.34	-46.7	-50.0	20.9	6.04e-01	0	38	0	655360000	65	5149
2026-01-13 02:52:21.12	273.81	19.13	-46.6	-49.9	21.0	6.03e-01	0	38	0	660602880	65	5061
2026-01-13 02:52:24.24	273.06	18.90	-46.7	-50.0	20.9	6.01e-01	0	38	0	666370048	65	5150
2026-01-13 02:52:27.08	272.38	18.69	-46.6	-49.8	21.1	6.01e-01	0	38	0	672137216	65	5002
2026-01-13 02:52:30.40	271.60	18.44	-46.7	-49.8	21.1	6.02e-01	0	38	0	677904384	65	5008
2026-01-13 02:52:33.36	270.91	18.22	-46.8	-50.1	20.9	6.04e-01	0	38	0	683671552	65	5170
2026-01-13 02:52:36.86	270.11	17.95	-46.7	-49.9	21.0	6.00e-01	0	38	0	690487296	65	5066
2026-01-13 02:52:39.70	269.48	17.74	-46.8	-50.0	20.9	6.00e-01	0	38	0	695730176	65	5156
2026-01-13 02:52:42.83	268.79	17.49	-46.7	-50.0	20.8	6.05e-01	0	38	0	701497344	65	5155
2026-01-13 02:52:45.78	268.15	17.27	-46.7	-50.0	20.9	6.03e-01	0	38	0	707264512	65	5106
2026-01-13 02:52:48.91	267.49	17.02	-46.7	-49.9	20.9	6.05e-01	0	38	0	713031680	65	5089
2026-01-13 02:52:51.75	266.89	16.80	-46.7	-50.0	20.9	6.01e-01	0	38	0	718274560	65	5108
2026-01-13 02:52:54.88	266.25	16.55	-46.7	-49.9	21.0	6.01e-01	0	38	0	724041728	65	5071
2026-01-13 02:52:57.72	265.67	16.33	-46.6	-49.8	21.0	6.02e-01	0	38	0	729284608	65	5036
2026-01-13 02:53:00.85	265.05	16.08	-46.7	-49.9	21.0	6.05e-01	0	38	0	735051776	65	5064
2026-01-13 02:53:03.71	264.49	15.86	-46.8	-50.1	20.8	6.02e-01	0	38	0	740818944	65	5166
2026-01-13 02:53:07.23	263.81	15.58	-46.6	-49.9	20.9	6.05e-01	0	38	0	747110400	65	5077
2026-01-13 02:53:09.95	263.30	15.36	-46.7	-50.2	20.4	6.05e-01	0	38	0	752353280	65	5257
2026-01-13 02:53:13.22	262.69	15.10	-46.5	-49.8	21.0	6.01e-01	0	38	0	758644736	64	5294
2026-01-13 02:53:15.94	262.19	14.89	-46.7	-50.1	20.8	6.02e-01	0	38	0	763363328	64	5465
2026-01-13 02:53:19.21	261.61	14.63	-46.7	-50.1	20.8	5.99e-01	0	38	0	769654784	64	5467
2026-01-13 02:53:22.20	261.08	14.39	-46.9	-50.3	20.6	6.01e-01	0	38	0	775421952	64	5600
2026-01-13 02:53:25.18	260.56	14.16	-46.7	-50.2	20.7	6.02e-01	0	38	0	780664832	64	5530
2026-01-13 02:53:28.16	260.06	13.92	-46.5	-50.0	20.8	6.05e-01	0	38	0	786432000	64	5449
2026-01-13 02:53:31.17	259.55	13.68	-46.6	-50.1	20.7	6.02e-01	0	38	0	792199168	64	5489
2026-01-13 02:53:34.10	259.07	13.45	-46.9	-50.5	20.4	6.02e-01	0	38	0	797442048	64	5753
2026-01-13 02:53:37.23	258.56	13.21	-46.8	-50.2	20.6	5.99e-01	0	38	0	803209216	64	5560
2026-01-13 02:53:40.07	258.11	12.99	-46.9	-50.4	20.4	6.01e-01	0	38	0	808976384	64	5689
2026-01-13 02:53:43.20	257.62	12.74	-46.9	-50.4	20.4	6.03e-01	0	38	0	814743552	64	5703
2026-01-13 02:53:46.39	257.13	12.50	-46.9	-50.4	20.4	6.03e-01	0	38	0	820510720	64	5700
2026-01-13 02:53:49.23	256.70	12.28	-47.1	-50.7	20.1	6.01e-01	0	38	0	825753600	64	5862
2026-01-13 02:53:52.35	256.24	12.03	-46.8	-50.2	20.6	6.02e-01	0	38	0	831520768	64	5553
2026-01-13 02:53:55.20	255.83	11.82	-47.0	-50.5	20.3	6.04e-01	0	38	0	837287936	64	5744
2026-01-13 02:53:58.47	255.36	11.56	-47.1	-50.6	20.1	6.01e-01	0	38	0	843055104	64	5849
2026-01-13 02:54:01.30	254.96	11.35	-47.1	-50.6	20.1	6.02e-01	0	38	0	848822272	64	5854
2026-01-13 02:54:04.43	254.53	11.11	-47.1	-50.7	20.1	6.02e-01	0	38	0	854589440	64	5870
2026-01-13 02:54:07.27	254.14	10.90	-47.1	-50.7	20.0	6.04e-01	0	38	0	859832320	64	5884
2026-01-13 02:54:10.40	253.72	10.66	-47.0	-50.6	20.1	6.02e-01	0	38	0	865599488	64	5853
2026-01-13 02:54:13.24	253.35	10.45	-47.1	-50.7	20.0	6.00e-01	0	38	0	870842368	64	5910
2026-01-13 02:54:16.37	252.94	10.21	-47.2	-51.0	19.7	6.03e-01	0	38	0	877133824	65	5741
2026-01-13 02:54:19.21	252.58	10.00	-47.2	-51.0	19.7	6.05e-01	0	38	0	882376704	65	5729
2026-01-13 02:54:22.34	252.19	9.77	-47.1	-50.8	19.9	6.00e-01	0	38	0	888143872	65	5599
2026-01-13 02:54:25.18	251.84	9.56	-47.3	-50.9	19.8	6.03e-01	0	38	0	893386752	65	5698
2026-01-13 02:54:28.39	251.45	9.33	-47.6	-51.3	19.4	6.02e-01	0	38	0	899153920	65	5967
2026-01-13 02:54:31.23	251.11	9.12	-47.4	-51.0	19.7	6.04e-01	0	38	0	904921088	65	5763
2026-01-13 02:54:34.36	250.74	8.89	-52.2	-72.3	3.8	7.44e-01	0	38	104	907542528	74	39665
2026-01-13 02:54:37.19	250.42	8.69	-52.1	-72.6	3.8	7.47e-01	0	38	104	907542528	75	38947
2026-01-13 02:54:40.35	250.06	8.46	-52.6	-72.7	3.8	7.45e-01	0	38	104	907542528	75	39342
2026-01-13 02:54:43.30	249.73	8.25	-52.6	-72.8	3.8	7.48e-01	0	38	104	907542528	76	37591
2026-01-13 02:54:46.58	249.37	8.02	-52.4	-72.8	3.8	7.45e-01	0	38	104	907542528	76	37685
2026-01-13 02:54:49.48	249.06	7.82	-52.4	-72.8	3.8	7.43e-01	0	38	104	907542528	76	37658
2026-01-13 02:54:52.65	248.72	7.60	-52.6	-72.8	3.8	7.47e-01	0	38	104	907542528	76	37467
2026-01-13 02:54:55.49	248.42	7.40	-52.2	-72.7	3.8	7.47e-01	0	38	104	907542528	76	37275
2026-01-13 02:54:58.61	248.10	7.18	-52.2	-72.7	3.8	7.44e-01	0	38	104	907542528	76	37305
2026-01-13 02:55:01.45	247.82	6.99	-52.2	-72.7	3.8	7.46e-01	0	38	104	907542528	76	37204
2026-01-13 02:55:04.57	247.51	6.77	-52.2	-72.7	3.8	7.46e-01	0	38	104	907542528	76	37253
2026-01-13 02:55:07.41	247.23	6.58	-52.2	-72.7	3.8	7.46e-01	0	38	104	907542528	76	37205
2026-01-13 02:55:10.53	246.93	6.37	-52.2	-72.7	3.8	7.43e-01	0	38	104	907542528	76	37226
2026-01-13 02:55:13.37	246.65	6.18	-52.2	-72.7	3.8	7.46e-01	0	38	104	907542528	76	37178
2026-01-13 02:55:16.49	246.36	5.97	-52.2	-72.7	3.8	7.49e-01	0	38	104	907542528	76	37121
2026-01-13 02:55:19.33	246.10	5.78	-52.2	-72.7	3.8	7.44e-01	0	38	104	907542528	76	37087
2026-01-13 02:55:22.45	245.82	5.57	-52.2	-72.7	3.8	7.49e-01	0	38	104	907542528	76	37144
2026-01-13 02:55:25.29	245.56	5.38	-52.2	-72.7	3.8	7.46e-01	0	38	104	907542528	76	37197
2026-01-13 02:55:28.41	245.29	5.18	-52.2	-72.7	3.8	7.46e-01	0	38	104	907542528	76	37197
2026-01-13 02:55:31.25	245.04	4.99	-52.2	-72.7	3.8	7.44e-01	0	38	104	907542528	76	37038

#Closed at: 2026-01-13 02:55:32
#Recorded file [907 MB]: D:/Data/31040_260113_054543.dat