passes_logs/2026/01/13/T1/T1__20260113_114529_SUOMI_NPP_rec.log

#Pass ID: 20260113_114529_SUOMI NPP
#Satellite: SUOMI NPP
#Configuration: NPP
#almurnet v.1.7.20251203
#Start time: 2026-01-13 11:45:31

#Version: 2.0.20230620
#Station: T1
#Location: 37.570604 lon 55.790049 lat
#TLE: 1 37849U 11061A   26012.28456845  .00000093  00000+0  65163-4 0  9999
#TLE: 2 37849  98.7807 314.3566 0002508  68.3553 291.7890 14.19524725736322

#Time	Az	El	Level	Level2	SNR	BER	BlckErr	Temp	State	Recorded	gain1	gain2
2026-01-13 11:45:31.78	219.09	5.10	-51.6	-67.1	3.8	1.49e+00	0	41	0	0	75	20742
2026-01-13 11:45:34.76	219.39	5.27	-51.6	-67.1	3.8	1.49e+00	0	41	104	0	74	21884
2026-01-13 11:45:37.74	219.69	5.43	-51.6	-67.1	3.8	1.49e+00	0	41	104	0	74	21905
2026-01-13 11:45:40.72	219.99	5.60	-51.6	-67.1	3.8	1.49e+00	0	41	104	0	74	21902
2026-01-13 11:45:43.70	220.29	5.77	-51.6	-67.1	3.8	1.49e+00	0	41	104	0	74	21875
2026-01-13 11:45:46.68	220.60	5.93	-51.6	-67.2	3.8	1.49e+00	0	42	104	0	74	22076
2026-01-13 11:45:49.66	220.91	6.10	-51.6	-67.2	3.8	1.49e+00	0	42	104	0	74	22029
2026-01-13 11:45:52.64	221.23	6.27	-51.6	-67.1	3.8	1.49e+00	0	42	104	0	74	21865
2026-01-13 11:45:55.62	221.54	6.43	-51.6	-67.0	3.8	1.49e+00	0	42	104	0	74	21622
2026-01-13 11:45:58.60	221.87	6.60	-51.6	-67.0	3.8	1.49e+00	0	42	104	0	74	21740
2026-01-13 11:46:01.58	222.19	6.77	-51.6	-67.1	3.8	1.49e+00	0	42	104	0	74	21766
2026-01-13 11:46:04.56	222.52	6.94	-51.6	-67.1	3.8	1.49e+00	0	42	104	0	74	21863
2026-01-13 11:46:07.54	222.85	7.11	-51.6	-66.9	3.8	1.49e+00	0	42	104	0	74	21479
2026-01-13 11:46:10.52	223.19	7.28	-51.6	-67.0	3.8	1.49e+00	0	42	104	0	74	21514
2026-01-13 11:46:13.50	223.53	7.45	-51.6	-66.9	3.8	1.49e+00	0	42	104	0	74	21308
2026-01-13 11:46:16.48	223.87	7.61	-51.6	-66.5	3.8	1.49e+00	0	42	104	0	74	20525
2026-01-13 11:46:19.46	224.22	7.78	-51.5	-66.2	3.8	1.49e+00	0	42	104	0	74	19828
2026-01-13 11:46:22.44	224.57	7.95	-51.5	-65.8	3.8	1.49e+00	0	42	104	0	74	18755
2026-01-13 11:46:25.42	224.93	8.12	-51.5	-66.3	3.8	1.49e+00	0	43	104	0	74	20047
2026-01-13 11:46:28.40	225.29	8.30	-51.4	-63.9	4.1	1.49e+00	0	42	104	0	74	15108
2026-01-13 11:46:31.38	225.65	8.47	-49.8	-55.5	10.2	1.52e-02	0	43	0	4194304	71	6859
2026-01-13 11:46:34.36	226.02	8.64	-48.3	-52.4	13.4	9.90e-06	0	43	0	10485760	68	5706
2026-01-13 11:46:37.34	226.39	8.81	-48.7	-53.0	12.8	3.12e-05	0	43	0	15728640	68	6125
2026-01-13 11:46:40.32	226.77	8.98	-49.9	-55.8	10.1	3.19e-03	0	43	0	20971520	70	7461
2026-01-13 11:46:43.30	227.15	9.15	-49.4	-54.4	11.5	1.05e-04	0	43	0	27262976	69	6793
2026-01-13 11:46:46.29	227.54	9.32	-50.1	-55.8	10.0	6.38e-03	0	43	0	32505856	71	7108
2026-01-13 11:46:49.27	227.93	9.49	-48.9	-53.1	12.8	8.77e-05	0	43	0	37748736	69	5826
2026-01-13 11:46:52.40	228.34	9.67	-48.8	-53.1	12.9	6.25e-05	0	43	0	44040192	69	5798
2026-01-13 11:46:55.29	228.73	9.84	-48.6	-52.7	13.3	2.05e-05	0	43	0	49283072	69	5533
2026-01-13 11:46:58.58	229.17	10.03	-48.7	-52.8	13.3	1.98e-05	0	43	0	55574528	69	5598
2026-01-13 11:47:01.42	229.56	10.19	-48.6	-52.5	13.5	8.30e-06	0	43	0	60817408	69	5411
2026-01-13 11:47:04.54	229.99	10.37	-48.8	-52.8	13.2	2.82e-05	0	43	0	67108864	69	5616
2026-01-13 11:47:07.38	230.39	10.53	-48.5	-52.3	13.7	9.90e-06	0	43	0	72351744	68	5632
2026-01-13 11:47:10.51	230.84	10.71	-48.5	-52.2	13.8	6.10e-06	0	43	0	77594624	68	5580
2026-01-13 11:47:13.35	231.24	10.88	-48.2	-51.8	14.3	0.00e+00	0	43	0	82837504	68	5298
2026-01-13 11:47:16.47	231.70	11.05	-48.4	-52.0	14.0	1.50e-06	0	43	0	89128960	68	5436
2026-01-13 11:47:19.31	232.11	11.22	-48.1	-51.6	14.5	7.00e-07	0	43	0	94371840	68	5179
2026-01-13 11:47:22.44	232.58	11.39	-47.8	-51.2	14.7	7.00e-07	0	43	0	100663296	67	5256
2026-01-13 11:47:25.28	233.00	11.56	-47.7	-51.1	14.8	0.00e+00	0	43	0	105906176	67	5210
2026-01-13 11:47:28.41	233.48	11.73	-47.7	-51.1	14.8	0.00e+00	0	43	0	111149056	67	5176
2026-01-13 11:47:31.23	233.91	11.89	-47.9	-51.4	14.6	1.50e-06	0	43	0	116391936	67	5347
2026-01-13 11:47:34.47	234.41	12.08	-47.8	-51.3	14.6	0.00e+00	0	43	0	122683392	67	5308
2026-01-13 11:47:37.31	234.86	12.24	-48.0	-51.6	14.4	0.00e+00	0	43	0	127926272	67	5467
2026-01-13 11:47:40.44	235.35	12.41	-47.9	-51.4	14.5	0.00e+00	0	43	0	134217728	67	5384
2026-01-13 11:47:43.28	235.81	12.57	-47.8	-51.3	14.7	7.00e-07	0	43	0	139460608	67	5305
2026-01-13 11:47:46.41	236.32	12.74	-47.6	-51.0	15.0	7.00e-07	0	43	0	145752064	67	5132
2026-01-13 11:47:49.25	236.78	12.90	-47.8	-51.3	14.7	0.00e+00	0	43	0	150994944	67	5288
2026-01-13 11:47:52.45	237.31	13.08	-47.5	-50.6	15.3	0.00e+00	0	43	0	156237824	66	5206
2026-01-13 11:47:55.31	237.79	13.23	-47.2	-50.2	15.8	0.00e+00	0	43	0	161480704	66	4931
2026-01-13 11:47:58.60	238.35	13.41	-47.3	-50.4	15.5	0.00e+00	0	43	0	167772160	66	5078
2026-01-13 11:48:01.30	238.81	13.56	-47.5	-50.7	15.3	0.00e+00	0	43	0	173015040	66	5236
2026-01-13 11:48:04.61	239.38	13.74	-47.6	-50.8	15.1	0.00e+00	0	43	0	179306496	66	5333
2026-01-13 11:48:07.86	239.95	13.91	-47.3	-50.4	15.6	0.00e+00	0	43	0	185597952	66	5079
2026-01-13 11:48:10.78	240.47	14.06	-47.2	-50.2	15.7	0.00e+00	0	43	0	190840832	66	4980
2026-01-13 11:48:14.07	241.05	14.24	-47.2	-50.3	15.7	0.00e+00	0	43	0	197132288	66	4987
2026-01-13 11:48:16.85	241.56	14.38	-47.3	-50.4	15.6	7.00e-07	0	43	0	202375168	66	5065
2026-01-13 11:48:20.02	242.14	14.55	-47.5	-50.6	15.4	0.00e+00	0	43	0	208666624	66	5177
2026-01-13 11:48:22.87	242.66	14.69	-47.4	-50.6	15.4	0.00e+00	0	43	0	213909504	66	5171
2026-01-13 11:48:26.07	243.26	14.85	-47.5	-50.6	15.4	0.00e+00	0	43	0	220200960	66	5211
2026-01-13 11:48:28.91	243.79	14.99	-47.5	-50.6	15.4	0.00e+00	0	43	0	225443840	66	5196
2026-01-13 11:48:32.04	244.38	15.15	-47.8	-51.2	14.9	0.00e+00	0	43	0	230686720	66	5540
2026-01-13 11:48:34.88	244.93	15.29	-47.7	-51.0	15.0	1.50e-06	0	43	0	235929600	66	5423
2026-01-13 11:48:38.01	245.53	15.44	-47.8	-51.0	15.0	0.00e+00	0	43	0	242221056	66	5459
2026-01-13 11:48:40.91	246.10	15.58	-47.9	-51.3	14.7	0.00e+00	0	43	0	247463936	66	5633
2026-01-13 11:48:44.10	246.73	15.73	-48.0	-51.4	14.6	7.00e-07	0	43	0	253755392	67	5382
2026-01-13 11:48:46.97	247.30	15.86	-48.0	-51.4	14.6	0.00e+00	0	43	0	258998272	67	5372
2026-01-13 11:48:50.22	247.95	16.01	-48.2	-51.7	14.4	3.80e-06	0	43	0	265289728	67	5545
2026-01-13 11:48:53.09	248.54	16.14	-48.1	-51.6	14.5	0.00e+00	0	43	0	270532608	67	5491
2026-01-13 11:48:56.22	249.17	16.27	-48.2	-51.8	14.3	1.50e-06	0	43	0	275775488	67	5624
2026-01-13 11:48:59.06	249.76	16.40	-48.2	-51.7	14.3	7.00e-07	0	43	0	281018368	67	5582
2026-01-13 11:49:02.19	250.41	16.53	-48.1	-51.6	14.5	0.00e+00	0	43	0	287309824	67	5487
2026-01-13 11:49:05.39	251.08	16.66	-48.4	-52.1	14.0	5.30e-06	0	43	0	293601280	67	5802
2026-01-13 11:49:08.23	251.68	16.78	-48.4	-52.1	14.0	7.00e-07	0	43	0	298844160	67	5812
2026-01-13 11:49:11.36	252.35	16.90	-48.1	-51.6	14.5	1.50e-06	0	43	0	304087040	67	5481
2026-01-13 11:49:14.21	252.96	17.01	-48.0	-51.4	14.7	2.20e-06	0	43	0	310378496	67	5366
2026-01-13 11:49:17.33	253.63	17.13	-47.7	-50.9	15.1	7.00e-07	0	43	0	315621376	67	5071
2026-01-13 11:49:20.17	254.25	17.23	-47.7	-51.0	15.0	0.00e+00	0	43	0	320864256	67	5146
2026-01-13 11:49:23.30	254.94	17.34	-48.2	-51.8	14.3	0.00e+00	0	43	0	327155712	67	5603
2026-01-13 11:49:26.14	255.56	17.44	-47.5	-50.6	15.4	0.00e+00	0	43	0	332398592	66	5207
2026-01-13 11:49:29.38	256.28	17.55	-47.4	-50.5	15.6	0.00e+00	0	43	0	338690048	66	5109
2026-01-13 11:49:32.22	256.92	17.64	-47.6	-50.9	15.2	0.00e+00	0	44	0	343932928	66	5372
2026-01-13 11:49:35.35	257.62	17.74	-47.5	-50.8	15.3	7.00e-07	0	43	0	349175808	66	5283
2026-01-13 11:49:38.19	258.26	17.82	-47.5	-50.7	15.3	0.00e+00	0	44	0	354418688	66	5245
2026-01-13 11:49:41.32	258.97	17.91	-47.0	-50.0	15.9	0.00e+00	0	43	0	360710144	66	4860
2026-01-13 11:49:44.16	259.62	17.99	-46.7	-49.7	16.3	0.00e+00	0	44	0	365953024	65	4928
2026-01-13 11:49:47.39	260.37	18.08	-47.3	-50.5	15.4	0.00e+00	0	43	0	372244480	65	5439
2026-01-13 11:49:50.23	261.02	18.15	-47.0	-50.1	15.6	0.00e+00	0	43	0	377487360	65	5214
2026-01-13 11:49:53.58	261.80	18.23	-46.6	-49.6	15.8	0.00e+00	0	43	0	383778816	65	4920
2026-01-13 11:49:56.28	262.43	18.29	-46.3	-49.3	16.2	0.00e+00	0	43	0	389021696	64	4986
2026-01-13 11:49:59.56	263.20	18.36	-46.3	-49.3	16.0	0.00e+00	0	43	0	395313152	64	5021
2026-01-13 11:50:02.29	263.84	18.41	-46.8	-50.0	15.4	0.00e+00	0	43	0	400556032	64	5415
2026-01-13 11:50:05.57	264.61	18.47	-46.2	-49.1	16.2	0.00e+00	0	44	0	405798912	64	4910
2026-01-13 11:50:08.29	265.26	18.52	-46.7	-49.8	15.5	0.00e+00	0	43	0	411041792	64	5322
2026-01-13 11:50:11.61	266.04	18.57	-47.1	-50.4	14.9	0.00e+00	0	44	0	417333248	64	5716
2026-01-13 11:50:14.70	266.78	18.61	-46.9	-50.3	15.1	0.00e+00	0	43	0	423624704	64	5594
2026-01-13 11:50:17.91	267.55	18.65	-47.1	-50.5	14.8	0.00e+00	0	43	0	428867584	65	5434
2026-01-13 11:50:20.75	268.22	18.68	-47.1	-50.4	14.9	0.00e+00	0	44	0	435159040	65	5401
2026-01-13 11:50:23.88	268.98	18.72	-47.3	-50.8	14.6	0.00e+00	0	44	0	440401920	65	5609
2026-01-13 11:50:26.76	269.67	18.74	-47.4	-51.0	14.3	0.00e+00	0	43	0	445644800	65	5771
2026-01-13 11:50:30.23	270.50	18.76	-47.4	-50.9	14.4	2.20e-06	0	43	0	452984832	65	5697
2026-01-13 11:50:32.97	271.16	18.78	-47.4	-50.9	14.5	1.50e-06	0	43	0	457179136	65	5675
2026-01-13 11:50:36.25	271.95	18.79	-47.0	-50.3	15.0	0.00e+00	0	43	0	463470592	65	5301
2026-01-13 11:50:38.96	272.60	18.79	-47.2	-50.5	14.8	0.00e+00	0	43	0	468713472	65	5448
2026-01-13 11:50:42.23	273.39	18.80	-46.9	-50.2	15.1	0.00e+00	0	44	0	475004928	65	5245
2026-01-13 11:50:45.09	274.08	18.79	-46.9	-50.2	15.1	0.00e+00	0	43	0	480247808	65	5249
2026-01-13 11:50:48.21	274.83	18.79	-47.1	-50.5	14.8	0.00e+00	0	44	0	486539264	65	5431
2026-01-13 11:50:51.05	275.52	18.78	-47.3	-50.8	14.5	0.00e+00	0	43	0	491782144	65	5599
2026-01-13 11:50:54.18	276.27	18.76	-47.4	-51.0	14.3	2.20e-06	0	43	0	497025024	65	5740
2026-01-13 11:50:57.07	276.96	18.74	-47.2	-50.5	14.7	7.00e-07	0	44	0	503316480	65	5456
2026-01-13 11:51:00.26	277.73	18.71	-46.7	-49.9	15.3	7.00e-07	0	43	0	508559360	65	5095
2026-01-13 11:51:03.10	278.41	18.69	-47.0	-50.4	14.8	7.00e-07	0	44	0	513802240	65	5390
2026-01-13 11:51:06.23	279.16	18.65	-47.2	-50.7	14.6	0.00e+00	0	43	0	520093696	65	5543
2026-01-13 11:51:09.07	279.83	18.62	-47.5	-51.1	14.1	1.50e-06	0	44	0	525336576	65	5812
2026-01-13 11:51:12.20	280.58	18.57	-47.5	-51.2	14.0	3.00e-06	0	44	0	531628032	65	5898
2026-01-13 11:51:15.15	281.28	18.53	-47.2	-50.8	14.4	3.00e-06	0	43	0	536870912	65	5614
2026-01-13 11:51:18.40	282.05	18.47	-47.1	-50.6	14.6	7.00e-07	0	44	0	543162368	65	5466
2026-01-13 11:51:21.20	282.71	18.42	-46.7	-50.0	15.1	0.00e+00	0	44	0	548405248	65	5135
2026-01-13 11:51:24.53	283.49	18.36	-46.2	-49.2	15.9	0.00e+00	0	44	0	554696704	64	4960
2026-01-13 11:51:27.44	284.17	18.30	-46.2	-49.1	16.0	0.00e+00	0	44	0	559939584	64	4917
2026-01-13 11:51:30.72	284.93	18.22	-46.8	-50.2	14.9	0.00e+00	0	44	0	566231040	64	5540
2026-01-13 11:51:33.44	285.56	18.16	-47.1	-50.6	14.6	0.00e+00	0	44	0	571473920	64	5802
2026-01-13 11:51:36.75	286.32	18.08	-47.1	-50.5	14.6	0.00e+00	0	44	0	576716800	65	5433
2026-01-13 11:51:39.60	286.98	18.00	-46.8	-50.1	15.0	0.00e+00	0	43	0	583008256	65	5179
2026-01-13 11:51:43.00	287.75	17.91	-46.5	-49.6	15.4	0.00e+00	0	44	0	589299712	64	5216
2026-01-13 11:51:45.71	288.37	17.83	-46.8	-50.2	14.9	0.00e+00	0	43	0	593494016	64	5551
2026-01-13 11:51:48.99	289.10	17.73	-46.8	-50.2	14.8	0.00e+00	0	44	0	599785472	64	5582
2026-01-13 11:51:51.69	289.71	17.65	-46.4	-49.6	15.4	0.00e+00	0	44	0	605028352	64	5176
2026-01-13 11:51:54.95	290.44	17.54	-46.3	-49.4	15.7	0.00e+00	0	44	0	611319808	64	5048
2026-01-13 11:51:57.68	291.04	17.45	-46.4	-49.6	15.5	0.00e+00	0	44	0	616562688	64	5165
2026-01-13 11:52:00.97	291.76	17.34	-46.2	-49.2	15.8	0.00e+00	0	44	0	622854144	64	4934
2026-01-13 11:52:03.68	292.35	17.25	-46.0	-49.0	16.1	0.00e+00	0	44	0	628097024	63	5117
2026-01-13 11:52:06.98	293.07	17.13	-46.1	-49.1	16.0	0.00e+00	0	44	0	634388480	63	5186
2026-01-13 11:52:09.71	293.66	17.02	-46.2	-49.2	15.9	0.00e+00	0	44	0	638582784	63	5261
2026-01-13 11:52:12.98	294.36	16.90	-46.2	-49.2	15.8	0.00e+00	0	44	0	644874240	63	5278
2026-01-13 11:52:15.69	294.93	16.79	-46.3	-49.4	15.7	0.00e+00	0	43	0	650117120	63	5354
2026-01-13 11:52:18.96	295.62	16.66	-46.2	-49.1	15.9	0.00e+00	0	43	0	656408576	63	5216
2026-01-13 11:52:21.72	296.19	16.55	-46.4	-49.6	15.5	0.00e+00	0	44	0	661651456	63	5506
2026-01-13 11:52:24.99	296.87	16.41	-46.4	-49.6	15.5	0.00e+00	0	44	0	667942912	63	5479
2026-01-13 11:52:27.75	297.44	16.29	-46.1	-49.1	16.0	0.00e+00	0	44	0	673185792	63	5161
2026-01-13 11:52:31.10	298.12	16.15	-46.4	-49.5	15.6	0.00e+00	0	44	0	679477248	63	5428
2026-01-13 11:52:34.19	298.74	16.01	-46.5	-49.7	15.4	0.00e+00	0	44	0	684720128	63	5551
2026-01-13 11:52:37.29	299.36	15.87	-46.4	-49.5	15.5	0.00e+00	0	44	0	691011584	64	5139
2026-01-13 11:52:40.13	299.92	15.74	-46.9	-50.3	14.7	0.00e+00	0	44	0	696254464	64	5630
2026-01-13 11:52:43.26	300.54	15.59	-47.4	-51.0	14.0	1.50e-06	0	44	0	701497344	65	5788
2026-01-13 11:52:46.10	301.09	15.46	-47.0	-50.4	14.6	7.00e-07	0	44	0	706740224	65	5375
2026-01-13 11:52:49.23	301.69	15.31	-46.7	-50.0	15.1	0.00e+00	0	44	0	713031680	65	5106
2026-01-13 11:52:52.28	302.28	15.16	-46.6	-49.8	15.2	0.00e+00	0	43	0	719323136	65	5005
2026-01-13 11:52:55.84	302.95	14.99	-46.9	-50.3	14.8	0.00e+00	0	43	0	725614592	65	5280
2026-01-13 11:52:58.56	303.46	14.85	-47.1	-50.6	14.4	0.00e+00	0	44	0	730857472	65	5510
2026-01-13 11:53:01.83	304.06	14.69	-47.8	-51.9	13.2	4.50e-06	0	44	0	737148928	66	6025
2026-01-13 11:53:04.54	304.56	14.55	-47.9	-52.1	13.0	2.51e-05	0	44	0	741343232	66	6140
2026-01-13 11:53:07.81	305.15	14.38	-47.5	-51.2	13.9	3.00e-06	0	44	0	747634688	66	5590
2026-01-13 11:53:10.63	305.66	14.24	-47.3	-51.0	14.1	0.00e+00	0	43	0	752877568	66	5423
2026-01-13 11:53:14.28	306.30	14.04	-47.1	-50.8	14.3	1.50e-06	0	44	0	760217600	66	5295
2026-01-13 11:53:16.98	306.78	13.90	-46.8	-50.3	14.8	0.00e+00	0	44	0	765460480	65	5300
2026-01-13 11:53:20.25	307.35	13.73	-47.0	-50.6	14.4	0.00e+00	0	43	0	770703360	65	5504
2026-01-13 11:53:22.97	307.81	13.59	-47.1	-50.8	14.3	7.00e-07	0	44	0	775946240	65	5603
2026-01-13 11:53:26.25	308.37	13.41	-47.1	-50.8	14.2	1.50e-06	0	44	0	782237696	65	5650
2026-01-13 11:53:28.95	308.83	13.26	-47.3	-51.1	13.9	1.50e-06	0	44	0	787480576	65	5839
2026-01-13 11:53:32.49	309.42	13.07	-47.4	-51.2	13.8	2.20e-06	0	44	0	793772032	65	5876
2026-01-13 11:53:35.19	309.86	12.92	-47.2	-50.8	14.2	7.00e-07	0	44	0	799014912	65	5617
2026-01-13 11:53:38.48	310.40	12.74	-47.1	-50.9	14.1	1.50e-06	0	44	0	805306368	65	5657
2026-01-13 11:53:41.18	310.83	12.60	-47.1	-50.9	14.1	2.20e-06	0	44	0	810549248	65	5694
2026-01-13 11:53:44.51	311.36	12.41	-46.8	-50.5	14.5	0.00e+00	0	44	0	816840704	65	5411
2026-01-13 11:53:47.23	311.79	12.26	-46.6	-50.1	14.8	0.00e+00	0	44	0	822083584	65	5193
2026-01-13 11:53:50.73	312.34	12.07	-46.4	-49.9	15.1	0.00e+00	0	43	0	828375040	64	5344
2026-01-13 11:53:53.43	312.75	11.91	-46.4	-49.9	15.0	0.00e+00	0	44	0	833617920	64	5345
2026-01-13 11:53:56.73	313.25	11.73	-46.4	-49.7	15.2	0.00e+00	0	44	0	839909376	64	5277
2026-01-13 11:53:59.51	313.67	11.57	-46.2	-49.5	15.4	0.00e+00	0	44	0	845152256	64	5132
2026-01-13 11:54:02.71	314.15	11.39	-46.5	-49.8	15.0	0.00e+00	0	44	0	850395136	64	5338
2026-01-13 11:54:05.56	314.57	11.23	-46.7	-50.1	14.8	0.00e+00	0	44	0	855638016	64	5509
2026-01-13 11:54:08.68	315.02	11.06	-46.3	-49.6	15.2	0.00e+00	0	43	0	861929472	64	5193
2026-01-13 11:54:11.53	315.43	10.90	-46.1	-49.3	15.5	0.00e+00	0	44	0	867172352	64	5015
2026-01-13 11:54:14.65	315.88	10.72	-46.1	-49.1	15.8	0.00e+00	0	44	0	873463808	63	5186
2026-01-13 11:54:17.59	316.29	10.55	-46.1	-49.4	15.5	0.00e+00	0	44	0	878706688	63	5345
2026-01-13 11:54:20.57	316.71	10.38	-46.3	-49.8	15.1	0.00e+00	0	44	0	883949568	63	5612
2026-01-13 11:54:23.94	317.17	10.19	-46.2	-49.8	15.0	7.00e-07	0	44	0	890241024	63	5656
2026-01-13 11:54:26.65	317.54	10.04	-46.4	-50.2	14.7	7.00e-07	0	44	0	895483904	63	5873
2026-01-13 11:54:29.93	317.98	9.85	-46.7	-50.6	14.2	0.00e+00	0	44	0	901775360	64	5840
2026-01-13 11:54:32.74	318.35	9.69	-46.7	-50.5	14.3	7.00e-07	0	44	0	907018240	64	5750
2026-01-13 11:54:36.14	318.80	9.50	-46.3	-49.7	15.1	0.00e+00	0	44	0	913309696	64	5231
2026-01-13 11:54:38.93	319.16	9.34	-46.0	-49.4	15.3	0.00e+00	0	43	0	918552576	63	5379
2026-01-13 11:54:42.26	319.59	9.15	-46.0	-49.9	14.9	7.00e-07	0	44	0	924844032	63	5679
2026-01-13 11:54:44.96	319.93	9.00	-50.4	-65.6	3.8	5.42e-03	0	43	104	930086912	71	21893
2026-01-13 11:54:48.22	320.34	8.81	-51.2	-66.5	3.8	1.49e+00	0	44	104	930086912	73	21739
2026-01-13 11:54:50.94	320.68	8.66	-51.6	-66.7	3.8	1.49e+00	0	44	104	930086912	73	22099
2026-01-13 11:54:54.15	321.08	8.48	-51.5	-66.7	3.8	1.49e+00	0	44	104	930086912	73	22217
2026-01-13 11:54:57.24	321.45	8.30	-51.5	-66.7	3.8	1.49e+00	0	44	104	930086912	73	22225
2026-01-13 11:55:00.75	321.87	8.10	-51.6	-66.8	3.8	1.49e+00	0	44	104	930086912	73	22294
2026-01-13 11:55:03.54	322.20	7.94	-51.4	-66.7	3.8	1.49e+00	0	44	104	930086912	73	22045
2026-01-13 11:55:06.87	322.59	7.76	-51.4	-66.6	3.8	1.49e+00	0	44	104	930086912	73	21984
2026-01-13 11:55:09.58	322.91	7.60	-51.4	-66.6	3.8	1.49e+00	0	44	104	930086912	73	21981
2026-01-13 11:55:12.86	323.28	7.42	-51.3	-66.6	3.8	1.49e+00	0	44	104	930086912	73	21835
2026-01-13 11:55:15.57	323.59	7.27	-51.3	-66.6	3.8	1.49e+00	0	44	104	930086912	73	21925
2026-01-13 11:55:18.83	323.95	7.09	-51.3	-66.6	3.8	1.49e+00	0	44	104	930086912	73	21798
2026-01-13 11:55:21.53	324.25	6.93	-51.3	-66.5	3.8	1.49e+00	0	44	104	930086912	73	21721
2026-01-13 11:55:24.79	324.61	6.75	-51.3	-66.5	3.8	1.49e+00	0	44	104	930086912	73	21689
2026-01-13 11:55:27.50	324.90	6.60	-51.2	-66.5	3.8	1.49e+00	0	44	104	930086912	73	21697
2026-01-13 11:55:30.76	325.25	6.42	-51.3	-66.5	3.8	1.49e+00	0	44	104	930086912	73	21641
2026-01-13 11:55:33.46	325.54	6.27	-51.2	-66.5	3.8	1.49e+00	0	44	104	930086912	73	21681
2026-01-13 11:55:36.73	325.88	6.09	-51.2	-66.5	3.8	1.49e+00	0	44	104	930086912	73	21700
2026-01-13 11:55:39.42	326.16	5.94	-51.2	-66.5	3.8	1.49e+00	0	44	104	930086912	73	21648
2026-01-13 11:55:42.69	326.50	5.76	-51.2	-66.5	3.8	1.49e+00	0	44	104	930086912	73	21610
2026-01-13 11:55:45.43	326.78	5.61	-51.2	-66.5	3.8	1.49e+00	0	44	104	930086912	73	21523
2026-01-13 11:55:48.70	327.10	5.43	-51.2	-66.5	3.8	1.49e+00	0	44	104	930086912	73	21595
2026-01-13 11:55:51.41	327.37	5.28	-51.2	-66.4	3.8	1.49e+00	0	44	104	930086912	73	21446
2026-01-13 11:55:54.67	327.69	5.10	-51.2	-66.4	3.8	1.49e+00	0	44	104	930086912	73	21466

#Closed at: 2026-01-13 11:55:57
#Recorded file [930 MB]: D:/Data/31040_260113_144531.dat