passes_logs/2026/01/13/T1/T1__20260113_142804_FENGYUN_3E_rec.log

#Pass ID: 20260113_142804_FENGYUN 3E
#Satellite: FENGYUN 3E
#Configuration: FENGYUN 3E
#almurnet v.1.7.20251203
#Start time: 2026-01-13 14:28:04

#Version: 2.0.20230620
#Station: T1
#Location: 37.570604 lon 55.790049 lat
#TLE: 1 49008U 21062A   26012.89166517 -.00000229  00000+0 -86979-4 0  9993
#TLE: 2 49008  98.7492  18.0449 0001954 141.1957 218.9360 14.19884302234542

#Time	Az	El	Level	Level2	SNR	BER	BlckErr	Temp	State	Recorded	gain1	gain2
2026-01-13 14:28:04.96	168.42	5.01	-50.5	-61.4	3.8	8.46e-01	0	38	0	0	71	12642
2026-01-13 14:28:08.92	168.48	5.30	-46.7	-60.9	3.8	8.49e-01	0	38	104	0	63	18749
2026-01-13 14:28:12.90	168.55	5.59	-46.6	-60.7	3.8	8.47e-01	0	38	104	0	63	18402
2026-01-13 14:28:16.87	168.61	5.88	-46.5	-59.7	3.8	8.45e-01	0	38	104	0	63	16490
2026-01-13 14:28:20.84	168.68	6.17	-46.4	-58.6	3.8	8.45e-01	0	39	104	0	63	14403
2026-01-13 14:28:24.81	168.75	6.47	-46.2	-56.3	4.6	8.20e-01	0	39	0	0	63	11107
2026-01-13 14:28:28.79	168.82	6.77	-45.8	-53.5	6.4	2.86e-01	0	39	0	5242880	62	8528
2026-01-13 14:28:32.76	168.89	7.08	-44.9	-50.7	9.1	2.56e-02	0	39	0	34603008	60	6888
2026-01-13 14:28:36.73	168.96	7.39	-43.9	-47.8	11.9	7.28e-04	0	39	0	62914560	58	5582
2026-01-13 14:28:40.71	169.03	7.70	-42.8	-45.8	13.9	2.20e-06	0	39	0	92274688	56	4977
2026-01-13 14:28:44.68	169.11	8.02	-42.3	-45.3	14.3	0.00e+00	0	40	0	120586240	54	5249
2026-01-13 14:28:48.66	169.18	8.34	-43.5	-47.2	12.6	4.00e-05	0	40	0	148897792	57	5492
2026-01-13 14:28:52.63	169.26	8.66	-45.6	-52.8	7.1	8.33e-02	0	40	0	178257920	60	8772
2026-01-13 14:28:56.60	169.34	8.99	-46.7	-60.5	3.8	8.47e-01	0	40	104	185597952	63	17910
2026-01-13 14:29:00.63	169.42	9.33	-47.1	-59.2	3.8	8.47e-01	0	40	104	196083712	63	15451
2026-01-13 14:29:04.86	169.51	9.69	-44.0	-46.3	13.5	4.50e-06	0	40	0	223346688	58	4704
2026-01-13 14:29:08.94	169.60	10.04	-43.4	-45.6	14.2	1.10e-06	0	40	0	251658240	57	4586
2026-01-13 14:29:12.92	169.68	10.39	-41.8	-43.8	15.9	0.00e+00	0	40	0	281018368	54	4415
2026-01-13 14:29:16.92	169.77	10.75	-41.0	-42.8	16.8	0.00e+00	0	40	0	310378496	52	4438
2026-01-13 14:29:20.92	169.86	11.11	-40.7	-42.6	17.0	0.00e+00	0	40	0	338690048	52	4322
2026-01-13 14:29:25.18	169.96	11.50	-40.7	-42.5	17.2	9.73e-03	0	40	0	369098752	51	4523
2026-01-13 14:29:29.83	170.07	11.93	-40.6	-42.2	17.5	0.00e+00	0	40	0	402653184	51	4389
2026-01-13 14:29:34.44	170.18	12.37	-40.8	-42.5	17.3	0.00e+00	0	40	0	436207616	51	4512
2026-01-13 14:29:39.07	170.29	12.81	-40.3	-41.9	17.8	0.00e+00	0	40	0	469762048	51	4220
2026-01-13 14:29:43.62	170.41	13.26	-40.3	-41.9	17.9	0.00e+00	0	41	0	502267904	51	4211
2026-01-13 14:29:48.18	170.53	13.71	-40.2	-41.8	18.0	0.00e+00	0	40	0	535822336	51	4152
2026-01-13 14:29:52.72	170.65	14.18	-40.2	-41.7	18.1	0.00e+00	0	41	0	568328192	50	4358
2026-01-13 14:29:57.30	170.78	14.65	-39.9	-41.4	18.3	0.00e+00	0	41	0	600834048	50	4219
2026-01-13 14:30:02.05	170.91	15.16	-40.2	-41.7	18.1	0.00e+00	0	41	0	635437056	50	4370
2026-01-13 14:30:06.04	171.03	15.59	-40.1	-41.6	18.2	0.00e+00	0	41	0	664797184	50	4305
2026-01-13 14:30:10.13	171.15	16.04	-39.9	-41.3	18.4	0.00e+00	0	41	0	694157312	50	4187
2026-01-13 14:30:14.24	171.28	16.50	-39.8	-41.3	18.5	0.00e+00	0	41	0	723517440	50	4156
2026-01-13 14:30:18.25	171.41	16.95	-39.7	-41.1	18.7	0.00e+00	0	41	0	752877568	50	4057
2026-01-13 14:30:22.24	171.54	17.42	-40.1	-41.5	18.3	0.00e+00	0	41	0	781189120	50	4291
2026-01-13 14:30:26.24	171.67	17.89	-39.7	-41.2	18.6	0.00e+00	0	41	0	810549248	50	4105
2026-01-13 14:30:30.24	171.81	18.37	-39.6	-41.1	18.7	0.00e+00	0	41	0	838860800	49	4294
2026-01-13 14:30:34.22	171.96	18.86	-39.5	-41.0	18.7	0.00e+00	0	41	0	868220928	49	4270
2026-01-13 14:30:38.65	172.12	19.42	-39.2	-40.7	19.0	0.00e+00	0	41	0	899678208	49	4102
2026-01-13 14:30:42.82	172.28	19.96	-38.7	-40.1	19.1	0.00e+00	0	41	0	930086912	48	4095
2026-01-13 14:30:46.80	172.43	20.48	-38.7	-40.1	19.5	0.00e+00	0	41	0	958398464	48	4057
2026-01-13 14:30:50.83	172.60	21.02	-38.5	-39.9	19.4	0.00e+00	0	41	0	987758592	47	4224
2026-01-13 14:30:54.81	172.76	21.56	-38.5	-40.0	19.3	0.00e+00	0	41	0	1016070144	47	4276
2026-01-13 14:30:58.88	172.94	22.13	-38.4	-39.9	19.4	0.00e+00	0	41	0	1045430272	47	4242
2026-01-13 14:31:02.86	173.12	22.70	-38.4	-39.9	19.4	0.00e+00	0	41	0	1074790400	47	4230
2026-01-13 14:31:06.84	173.30	23.28	-38.4	-39.9	19.4	0.00e+00	0	41	0	1103101952	47	4240
2026-01-13 14:31:10.88	173.50	23.89	-38.4	-39.9	19.5	0.00e+00	0	41	0	1132462080	47	4221
2026-01-13 14:31:14.98	173.70	24.51	-38.5	-40.0	19.4	0.00e+00	0	41	0	1161822208	47	4258
2026-01-13 14:31:18.96	173.91	25.14	-38.5	-40.0	19.4	0.00e+00	0	41	0	1191182336	47	4287
2026-01-13 14:31:23.04	174.13	25.79	-38.3	-39.7	19.7	0.00e+00	0	41	0	1220542464	47	4140
2026-01-13 14:31:27.02	174.35	26.44	-38.0	-39.4	20.0	0.00e+00	0	41	0	1248854016	46	4233
2026-01-13 14:31:31.00	174.58	27.11	-38.1	-39.4	20.0	0.00e+00	0	41	0	1277165568	46	4233
2026-01-13 14:31:34.98	174.82	27.80	-37.9	-39.2	20.2	0.00e+00	0	41	0	1306525696	46	4134
2026-01-13 14:31:38.96	175.07	28.50	-37.7	-39.0	20.2	0.00e+00	0	41	0	1334837248	46	4042
2026-01-13 14:31:42.94	175.33	29.22	-37.6	-39.0	20.3	0.00e+00	0	41	0	1364197376	45	4251
2026-01-13 14:31:46.92	175.60	29.96	-37.7	-39.1	20.1	0.00e+00	0	41	0	1392508928	45	4319
2026-01-13 14:31:50.91	175.89	30.72	-37.6	-39.0	20.2	0.00e+00	0	41	0	1421869056	45	4287
2026-01-13 14:31:54.89	176.19	31.50	-37.8	-39.3	19.9	0.00e+00	0	41	0	1450180608	45	4409
2026-01-13 14:31:58.86	176.50	32.29	-38.2	-39.8	19.5	0.00e+00	0	41	0	1478492160	45	4655
2026-01-13 14:32:02.92	176.83	33.13	-38.1	-39.7	19.7	0.00e+00	0	41	0	1507852288	46	4343
2026-01-13 14:32:06.82	177.17	33.95	-38.0	-39.4	20.0	0.00e+00	0	41	0	1536163840	46	4225
2026-01-13 14:32:10.81	177.53	34.81	-37.8	-39.1	20.3	0.00e+00	0	41	0	1564475392	46	4081
2026-01-13 14:32:14.78	177.91	35.70	-37.6	-38.9	20.4	0.00e+00	0	41	0	1593835520	45	4214
2026-01-13 14:32:18.84	178.32	36.62	-37.5	-38.9	20.4	0.00e+00	0	41	0	1623195648	45	4194
2026-01-13 14:32:22.98	178.76	37.59	-38.0	-39.5	19.8	0.00e+00	0	41	0	1652555776	45	4521
2026-01-13 14:32:26.96	179.21	38.55	-38.2	-39.7	19.7	0.00e+00	0	41	0	1681915904	46	4383
2026-01-13 14:32:30.94	179.69	39.54	-38.3	-39.8	19.7	0.00e+00	0	41	0	1710227456	46	4429
2026-01-13 14:32:34.92	180.20	40.55	-38.4	-39.8	19.7	0.00e+00	0	41	0	1739587584	46	4431
2026-01-13 14:32:39.07	180.76	41.64	-38.3	-39.7	19.8	0.00e+00	0	41	0	1768947712	46	4361
2026-01-13 14:32:43.11	181.34	42.72	-38.4	-39.8	19.7	0.00e+00	0	41	0	1798307840	46	4428
2026-01-13 14:32:47.12	181.96	43.82	-38.4	-39.8	19.6	0.00e+00	0	41	0	1827667968	46	4411
2026-01-13 14:32:51.10	182.62	44.95	-38.4	-39.8	19.7	0.00e+00	0	41	0	1855979520	47	4158
2026-01-13 14:32:55.24	183.36	46.15	-39.2	-40.1	20.1	0.00e+00	0	41	0	1885339648	48	4091
2026-01-13 14:32:59.22	184.12	47.33	-39.6	-40.6	19.7	0.00e+00	0	41	0	1914699776	48	4324
2026-01-13 14:33:03.20	184.94	48.54	-40.2	-41.3	19.1	0.00e+00	0	41	0	1943011328	49	4424
2026-01-13 14:33:07.18	185.82	49.78	-40.0	-41.0	19.4	0.00e+00	0	41	0	1972371456	50	4013
2026-01-13 14:33:11.24	186.81	51.07	-40.3	-41.4	19.0	0.00e+00	0	41	0	2001731584	50	4198
2026-01-13 14:33:15.28	187.87	52.38	-39.9	-40.9	19.5	0.00e+00	0	41	0	2030043136	49	4216
2026-01-13 14:33:19.28	189.02	53.70	-39.8	-40.9	19.5	0.00e+00	0	41	0	2059403264	50	3965
2026-01-13 14:33:23.27	190.28	55.04	-40.1	-41.1	19.2	0.00e+00	0	41	0	2087714816	50	4093
2026-01-13 14:33:27.28	191.67	56.41	-40.2	-41.3	19.1	0.00e+00	0	41	0	2117074944	50	4167
2026-01-13 14:33:31.38	193.23	57.82	-39.1	-40.0	20.1	0.00e+00	0	41	0	2146435072	49	3814
2026-01-13 14:33:35.49	194.98	59.25	-39.8	-40.8	19.6	0.00e+00	0	41	0	2175795200	50	3947
2026-01-13 14:33:39.55	196.90	60.67	-39.6	-40.6	19.7	0.00e+00	0	41	0	2205155328	49	4058
2026-01-13 14:33:43.56	199.02	62.08	-39.4	-40.3	20.0	0.00e+00	0	41	0	2234515456	48	4192
2026-01-13 14:33:47.65	201.44	63.50	-39.1	-40.0	20.2	0.00e+00	0	41	0	2263875584	48	4041
2026-01-13 14:33:51.82	204.23	64.93	-38.9	-39.9	20.4	0.00e+00	0	41	0	2294284288	48	3971
2026-01-13 14:33:55.81	207.24	66.27	-38.5	-39.4	20.5	0.00e+00	0	41	0	2323644416	47	3997
2026-01-13 14:34:00.00	210.83	67.62	-38.5	-39.5	20.5	0.00e+00	0	41	0	2353004544	47	4016
2026-01-13 14:34:03.98	214.69	68.85	-38.9	-39.9	20.1	0.00e+00	0	41	0	2382364672	47	4220
2026-01-13 14:34:07.98	219.06	69.99	-38.5	-39.4	20.5	0.00e+00	0	42	0	2410676224	47	3999
2026-01-13 14:34:11.96	223.95	71.02	-38.8	-39.8	20.2	0.00e+00	0	41	0	2440036352	47	4182
2026-01-13 14:34:15.94	229.39	71.91	-38.3	-39.2	20.7	0.00e+00	0	41	0	2468347904	46	4129
2026-01-13 14:34:19.93	235.38	72.65	-38.4	-39.3	20.0	0.00e+00	0	41	0	2496659456	46	4183
2026-01-13 14:34:23.92	241.86	73.19	-38.6	-39.6	20.4	0.00e+00	0	41	0	2526019584	46	4327
2026-01-13 14:34:27.90	248.67	73.51	-38.3	-39.2	20.7	0.00e+00	0	41	0	2554331136	46	4140
2026-01-13 14:34:31.88	255.67	73.61	-38.4	-39.3	20.6	0.00e+00	0	41	0	2583691264	46	4183
2026-01-13 14:34:35.86	262.66	73.48	-38.6	-39.6	20.2	0.00e+00	0	42	0	2612002816	46	4299
2026-01-13 14:34:39.89	269.51	73.11	-38.4	-39.3	20.6	0.00e+00	0	42	0	2641362944	46	4177
2026-01-13 14:34:43.84	275.84	72.54	-38.3	-39.3	20.7	0.00e+00	0	42	0	2669674496	46	4149
2026-01-13 14:34:47.82	281.73	71.78	-38.5	-39.5	20.5	0.00e+00	0	42	0	2699034624	46	4248
2026-01-13 14:34:51.80	287.08	70.87	-38.6	-39.6	20.4	0.00e+00	0	42	0	2727346176	47	4062
2026-01-13 14:34:55.83	291.93	69.81	-38.6	-39.5	20.5	0.00e+00	0	42	0	2756706304	47	4027
2026-01-13 14:34:59.87	296.25	68.64	-38.5	-39.5	20.4	0.00e+00	0	42	0	2786066432	47	4025
2026-01-13 14:35:03.91	300.07	67.38	-38.4	-39.3	20.7	0.00e+00	0	42	0	2814377984	47	3940
2026-01-13 14:35:07.89	303.41	66.09	-38.3	-39.2	20.7	0.00e+00	0	42	0	2843738112	47	3904
2026-01-13 14:35:11.87	306.36	64.75	-38.5	-39.5	20.5	0.00e+00	0	42	0	2872049664	47	4028
2026-01-13 14:35:15.87	308.99	63.38	-39.1	-40.0	19.9	0.00e+00	0	41	0	2901409792	47	4286
2026-01-13 14:35:19.85	311.33	62.00	-39.4	-40.4	19.9	0.00e+00	0	42	0	2929721344	48	4212
2026-01-13 14:35:23.82	313.41	60.61	-39.8	-40.9	19.5	0.00e+00	0	42	0	2958032896	49	4209
2026-01-13 14:35:27.85	315.30	59.21	-40.4	-41.5	18.9	0.00e+00	0	42	0	2987393024	50	4265
2026-01-13 14:35:31.94	317.03	57.79	-40.4	-41.5	18.9	0.00e+00	0	42	0	3016753152	50	4274
2026-01-13 14:35:35.99	318.57	56.40	-40.3	-41.3	19.1	0.00e+00	0	42	0	3046113280	50	4176
2026-01-13 14:35:39.97	319.94	55.04	-39.8	-40.8	19.5	0.00e+00	0	42	0	3075473408	50	3954
2026-01-13 14:35:44.22	321.27	53.62	-39.9	-40.9	19.4	0.00e+00	0	42	0	3105882112	50	3987
2026-01-13 14:35:48.33	322.44	52.27	-39.9	-40.9	19.4	0.00e+00	0	42	0	3135242240	50	3998
2026-01-13 14:35:52.34	323.49	50.98	-39.9	-40.9	19.5	0.00e+00	0	42	0	3164602368	50	3993
2026-01-13 14:35:56.33	324.45	49.72	-40.1	-41.1	19.2	0.00e+00	0	42	0	3192913920	49	4326
2026-01-13 14:36:00.56	325.38	48.41	-39.7	-40.7	19.5	0.00e+00	0	42	0	3223322624	49	4137
2026-01-13 14:36:04.54	326.19	47.21	-39.7	-40.7	19.6	0.00e+00	0	42	0	3252682752	49	4125
2026-01-13 14:36:08.52	326.94	46.04	-39.3	-40.3	20.0	0.00e+00	0	42	0	3280994304	49	3931
2026-01-13 14:36:12.50	327.64	44.89	-38.4	-39.4	20.5	0.00e+00	0	42	0	3309305856	47	3969
2026-01-13 14:36:16.48	328.30	43.78	-38.4	-39.3	20.5	0.00e+00	0	42	0	3338665984	47	3946
2026-01-13 14:36:20.46	328.91	42.69	-38.5	-39.4	20.5	0.00e+00	0	42	0	3366977536	47	3989
2026-01-13 14:36:24.48	329.49	41.62	-38.4	-39.3	20.6	0.00e+00	0	42	0	3396337664	47	3949
2026-01-13 14:36:28.45	330.02	40.58	-38.3	-39.2	20.7	0.00e+00	0	42	0	3424649216	47	3905
2026-01-13 14:36:32.43	330.53	39.58	-38.4	-39.4	20.5	0.00e+00	0	42	0	3454009344	47	3960
2026-01-13 14:36:36.42	331.01	38.60	-38.7	-39.6	20.3	0.00e+00	0	42	0	3482320896	47	4089
2026-01-13 14:36:40.46	331.46	37.63	-38.7	-39.7	20.3	0.00e+00	0	42	0	3511681024	47	4112
2026-01-13 14:36:44.46	331.89	36.69	-38.3	-39.2	20.6	0.00e+00	0	42	0	3541041152	47	3913
2026-01-13 14:36:48.44	332.29	35.79	-38.0	-38.9	21.0	0.00e+00	0	42	0	3569352704	46	3971
2026-01-13 14:36:52.42	332.67	34.91	-38.0	-38.9	20.9	0.00e+00	0	42	0	3597664256	46	3982
2026-01-13 14:36:56.48	333.04	34.03	-38.1	-39.1	20.7	0.00e+00	0	42	0	3627024384	46	4076
2026-01-13 14:37:00.46	333.39	33.20	-38.1	-39.1	20.7	0.00e+00	0	42	0	3656384512	46	4073
2026-01-13 14:37:04.44	333.72	32.38	-38.0	-39.0	20.8	0.00e+00	0	42	0	3684696064	46	4013
2026-01-13 14:37:08.49	334.04	31.57	-38.1	-39.1	20.7	0.00e+00	0	42	0	3714056192	46	4069
2026-01-13 14:37:12.47	334.33	30.80	-38.4	-39.4	20.5	0.00e+00	0	42	0	3742367744	46	4208
2026-01-13 14:37:16.45	334.62	30.05	-38.4	-39.4	20.4	0.00e+00	0	42	0	3771727872	46	4237
2026-01-13 14:37:20.42	334.89	29.32	-38.4	-39.4	20.5	0.00e+00	0	42	0	3800039424	46	4217
2026-01-13 14:37:24.48	335.16	28.58	-38.5	-39.5	20.3	0.00e+00	0	42	0	3829399552	46	4287
2026-01-13 14:37:28.59	335.42	27.86	-38.7	-39.7	20.2	0.00e+00	0	42	0	3858759680	46	4367
2026-01-13 14:37:32.57	335.66	27.18	-38.8	-39.8	20.1	0.00e+00	0	42	0	3888119808	46	4395
2026-01-13 14:37:36.55	335.90	26.52	-38.8	-39.8	20.1	0.00e+00	0	42	0	3916431360	47	4154
2026-01-13 14:37:40.53	336.12	25.87	-38.7	-39.7	20.2	0.00e+00	0	42	0	3944742912	47	4103
2026-01-13 14:37:44.51	336.33	25.23	-38.4	-39.4	20.4	0.00e+00	0	42	0	3974103040	47	3988
2026-01-13 14:37:48.62	336.55	24.59	-38.5	-39.4	20.4	0.00e+00	0	42	0	4003463168	47	3989
2026-01-13 14:37:52.68	336.75	23.98	-38.6	-39.5	20.2	0.00e+00	0	42	0	4032823296	47	4047
2026-01-13 14:37:56.70	336.95	23.38	-38.7	-39.6	20.2	0.00e+00	0	42	0	4062183424	47	4096
2026-01-13 14:38:00.64	337.13	22.81	-38.8	-39.8	20.1	0.00e+00	0	42	0	4090494976	47	4159
2026-01-13 14:38:04.71	337.32	22.23	-39.0	-40.1	19.8	0.00e+00	0	42	0	4119855104	47	4293
2026-01-13 14:38:08.69	337.49	21.67	-39.1	-40.2	19.7	0.00e+00	0	42	0	4148166656	47	4357
2026-01-13 14:38:12.68	337.66	21.13	-39.2	-40.3	19.5	0.00e+00	0	42	0	4177526784	47	4436
2026-01-13 14:38:16.67	337.82	20.60	-39.3	-40.4	19.8	0.00e+00	0	42	0	4205838336	48	4198
2026-01-13 14:38:20.66	337.98	20.08	-39.2	-40.3	19.8	0.00e+00	0	42	0	4235198464	48	4150
2026-01-13 14:38:24.90	338.15	19.54	-39.2	-40.3	19.8	0.00e+00	0	42	0	4265607168	48	4147
2026-01-13 14:38:29.10	338.30	19.01	-39.4	-40.5	19.6	0.00e+00	0	42	0	4296015872	48	4272
2026-01-13 14:38:33.19	338.45	18.51	-39.5	-40.5	19.6	0.00e+00	0	42	0	4325376000	48	4271
2026-01-13 14:38:37.29	338.60	18.01	-39.6	-40.6	19.5	0.00e+00	0	42	0	4354736128	48	4336
2026-01-13 14:38:41.27	338.73	17.55	-39.8	-40.9	19.2	0.00e+00	0	42	0	4384096256	49	4198
2026-01-13 14:38:45.48	338.87	17.06	-40.0	-41.1	19.0	0.00e+00	0	42	0	4414504960	49	4307
2026-01-13 14:38:49.57	339.01	16.59	-40.1	-41.1	19.0	0.00e+00	0	42	0	4443865088	49	4329
2026-01-13 14:38:53.55	339.13	16.15	-40.2	-41.3	18.8	0.00e+00	0	42	0	4472176640	49	4413
2026-01-13 14:38:57.57	339.26	15.71	-40.4	-41.5	18.6	0.00e+00	0	42	0	4501536768	50	4290
2026-01-13 14:39:01.82	339.39	15.26	-40.2	-41.4	18.7	0.00e+00	0	42	0	4531945472	50	4199
2026-01-13 14:39:05.81	339.50	14.83	-40.3	-41.5	18.6	0.00e+00	0	42	0	4561305600	50	4243
2026-01-13 14:39:09.79	339.62	14.42	-40.5	-41.6	18.4	0.00e+00	0	42	0	4589617152	50	4336
2026-01-13 14:39:13.79	339.73	14.01	-40.5	-41.7	18.4	0.00e+00	0	42	0	4617928704	50	4362
2026-01-13 14:39:17.86	339.84	13.61	-40.5	-41.7	18.4	0.00e+00	0	42	0	4648337408	50	4372
2026-01-13 14:39:22.25	339.96	13.17	-40.8	-42.1	18.0	0.00e+00	0	42	0	4679794688	51	4300
2026-01-13 14:39:26.23	340.06	12.79	-40.8	-42.1	17.9	0.00e+00	0	42	0	4708106240	51	4331
2026-01-13 14:39:30.23	340.16	12.40	-40.7	-42.1	17.9	0.00e+00	0	42	0	4737466368	51	4309
2026-01-13 14:39:34.24	340.26	12.03	-40.8	-42.3	17.7	0.00e+00	0	42	0	4765777920	51	4439
2026-01-13 14:39:38.46	340.37	11.64	-41.0	-42.5	17.5	0.00e+00	0	42	0	4796186624	51	4529
2026-01-13 14:39:42.45	340.46	11.27	-41.1	-42.7	17.2	0.00e+00	0	42	0	4825546752	51	4649
2026-01-13 14:39:46.46	340.56	10.91	-41.0	-42.6	17.4	0.00e+00	0	42	0	4853858304	51	4565
2026-01-13 14:39:50.49	340.65	10.56	-41.3	-42.8	17.2	0.00e+00	0	42	0	4883218432	51	4683
2026-01-13 14:39:54.61	340.74	10.20	-41.3	-42.9	17.0	0.00e+00	0	42	0	4913627136	52	4443
2026-01-13 14:39:58.76	340.83	9.84	-41.6	-43.1	16.7	0.00e+00	0	42	0	4942987264	53	4339
2026-01-13 14:40:02.76	340.92	9.50	-41.4	-43.0	16.8	0.00e+00	0	42	0	4972347392	53	4269
2026-01-13 14:40:06.76	341.00	9.17	-41.4	-43.1	16.8	0.00e+00	0	42	0	5000658944	53	4300
2026-01-13 14:40:10.73	341.09	8.84	-49.9	-61.5	3.8	8.47e-01	0	42	104	5016387584	69	14340
2026-01-13 14:40:14.72	341.17	8.51	-50.2	-61.9	3.8	8.47e-01	0	42	104	5016387584	70	14058
2026-01-13 14:40:18.71	341.25	8.19	-50.5	-62.0	3.8	8.48e-01	0	42	104	5016387584	71	13440
2026-01-13 14:40:22.70	341.33	7.88	-51.1	-62.0	3.8	8.47e-01	0	42	104	5016387584	71	13521
2026-01-13 14:40:26.67	341.41	7.56	-51.2	-62.0	3.8	8.47e-01	0	42	104	5016387584	72	12765
2026-01-13 14:40:30.64	341.48	7.26	-51.2	-61.9	3.8	8.46e-01	0	42	104	5016387584	72	12642
2026-01-13 14:40:34.63	341.56	6.95	-51.1	-61.9	3.8	8.46e-01	0	42	104	5016387584	72	12568
2026-01-13 14:40:38.62	341.63	6.65	-51.0	-61.9	3.8	8.47e-01	0	42	104	5016387584	72	12567
2026-01-13 14:40:42.60	341.70	6.35	-51.0	-61.9	3.8	8.47e-01	0	42	104	5016387584	72	12640
2026-01-13 14:40:46.60	341.78	6.06	-51.0	-61.9	3.8	8.46e-01	0	42	104	5016387584	72	12522
2026-01-13 14:40:50.59	341.85	5.76	-50.9	-61.9	3.8	8.47e-01	0	42	104	5016387584	72	12588
2026-01-13 14:40:54.56	341.92	5.48	-51.0	-61.9	3.8	8.46e-01	0	42	104	5016387584	72	12569
2026-01-13 14:40:58.53	341.99	5.19	-50.9	-61.8	3.8	8.47e-01	0	42	104	5016387584	72
