passes_logs/2026/01/13/T1/T1__20260113_161053_FENGYUN_3E_rec.log

#Pass ID: 20260113_161053_FENGYUN 3E
#Satellite: FENGYUN 3E
#Configuration: FENGYUN 3E
#almurnet v.1.7.20251203
#Start time: 2026-01-13 16:10:52

#Version: 2.0.20230620
#Station: T1
#Location: 37.570604 lon 55.790049 lat
#TLE: 1 49008U 21062A   26012.89166517 -.00000229  00000+0 -86979-4 0  9993
#TLE: 2 49008  98.7492  18.0449 0001954 141.1957 218.9360 14.19884302234542

#Time	Az	El	Level	Level2	SNR	BER	BlckErr	Temp	State	Recorded	gain1	gain2
2026-01-13 16:10:52.91	227.22	4.97	-50.4	-61.3	3.7	8.47e-01	0	41	0	0	71	12397
2026-01-13 16:10:55.89	227.55	5.12	-50.3	-61.2	3.8	8.47e-01	0	41	104	0	71	12365
2026-01-13 16:10:58.87	227.88	5.27	-50.3	-61.2	3.8	8.46e-01	0	41	104	0	71	12351
2026-01-13 16:11:01.85	228.21	5.42	-50.3	-61.3	3.8	8.47e-01	0	41	104	0	71	12426
2026-01-13 16:11:04.83	228.54	5.57	-50.3	-61.2	3.8	8.48e-01	0	42	104	0	71	12358
2026-01-13 16:11:07.81	228.88	5.72	-50.3	-61.2	3.8	8.46e-01	0	42	104	0	71	12315
2026-01-13 16:11:10.79	229.22	5.87	-50.3	-61.2	3.8	8.46e-01	0	42	104	0	71	12277
2026-01-13 16:11:13.77	229.57	6.02	-50.3	-61.0	3.8	8.48e-01	0	42	104	0	71	12013
2026-01-13 16:11:16.75	229.91	6.17	-50.3	-61.0	3.8	8.46e-01	0	42	104	0	71	11976
2026-01-13 16:11:19.72	230.26	6.32	-50.3	-61.0	3.8	8.47e-01	0	42	104	0	71	12094
2026-01-13 16:11:22.70	230.62	6.47	-50.3	-61.2	3.8	8.47e-01	0	42	104	0	71	12288
2026-01-13 16:11:25.68	230.98	6.62	-50.3	-61.2	3.8	8.47e-01	0	43	104	0	71	12305
2026-01-13 16:11:28.66	231.34	6.77	-50.3	-61.1	3.8	8.46e-01	0	43	104	0	71	12176
2026-01-13 16:11:31.64	231.70	6.92	-50.2	-60.8	3.8	8.48e-01	0	43	104	0	71	11795
2026-01-13 16:11:34.62	232.07	7.07	-50.2	-60.8	3.8	8.47e-01	0	43	104	0	71	11790
2026-01-13 16:11:37.60	232.45	7.22	-50.3	-60.9	3.8	8.47e-01	0	43	104	0	71	11898
2026-01-13 16:11:40.58	232.82	7.37	-50.3	-61.0	3.8	8.46e-01	0	43	104	0	71	11962
2026-01-13 16:11:43.56	233.20	7.52	-50.2	-60.0	3.8	8.48e-01	0	43	104	0	71	10778
2026-01-13 16:11:46.54	233.59	7.67	-50.2	-60.7	3.8	8.47e-01	0	43	104	0	71	11601
2026-01-13 16:11:49.52	233.98	7.82	-50.2	-60.5	3.8	8.47e-01	0	43	104	0	71	11346
2026-01-13 16:11:52.50	234.37	7.97	-50.1	-59.5	3.8	8.46e-01	0	43	104	0	71	10110
2026-01-13 16:11:55.48	234.76	8.12	-50.1	-59.3	3.8	8.47e-01	0	43	104	0	70	10444
2026-01-13 16:11:58.46	235.16	8.27	-49.9	-58.2	4.1	8.40e-01	0	43	0	0	70	9189
2026-01-13 16:12:01.44	235.57	8.41	-50.2	-60.7	3.8	8.47e-01	0	43	104	0	70	12360
2026-01-13 16:12:04.42	235.97	8.56	-46.2	-48.8	11.2	4.30e-03	0	43	0	11534336	63	4680
2026-01-13 16:12:07.40	236.39	8.71	-42.7	-44.2	15.8	0.00e+00	0	43	0	32505856	56	4104
2026-01-13 16:12:10.38	236.80	8.85	-42.6	-44.0	15.8	0.00e+00	0	43	0	54525952	55	4273
2026-01-13 16:12:13.36	237.22	9.00	-45.1	-47.1	12.9	2.74e-05	0	43	0	75497472	59	4834
2026-01-13 16:12:16.35	237.65	9.15	-45.7	-48.0	12.0	6.98e-04	0	43	0	97517568	62	4513
2026-01-13 16:12:19.45	238.09	9.30	-46.2	-48.8	11.1	9.17e-03	0	44	0	119537664	63	4681
2026-01-13 16:12:22.29	238.50	9.43	-42.1	-43.6	16.3	0.00e+00	0	43	0	140509184	54	4303
2026-01-13 16:12:25.42	238.96	9.59	-42.0	-43.4	16.5	0.00e+00	0	44	0	162529280	54	4217
2026-01-13 16:12:28.26	239.38	9.72	-41.9	-43.2	16.7	0.00e+00	0	43	0	183500800	54	4145
2026-01-13 16:12:31.39	239.85	9.87	-41.8	-43.1	16.8	0.00e+00	0	44	0	205520896	54	4082
2026-01-13 16:12:34.23	240.27	10.01	-41.6	-42.9	17.1	0.00e+00	0	44	0	226492416	54	3970
2026-01-13 16:12:37.56	240.78	10.16	-41.7	-43.0	16.9	0.00e+00	0	44	0	250609664	54	4028
2026-01-13 16:12:40.26	241.20	10.29	-41.8	-43.1	16.9	0.00e+00	0	44	0	269484032	54	4058
2026-01-13 16:12:43.53	241.70	10.45	-41.7	-43.0	17.0	0.00e+00	0	44	0	293601280	54	4017
2026-01-13 16:12:46.26	242.13	10.57	-41.6	-43.0	17.0	0.00e+00	0	44	0	312475648	53	4245
2026-01-13 16:12:49.58	242.65	10.73	-41.5	-42.8	17.2	0.00e+00	0	44	0	337641472	53	4148
2026-01-13 16:12:52.92	243.19	10.88	-41.6	-42.9	17.1	0.00e+00	0	44	0	361758720	53	4218
2026-01-13 16:12:56.11	243.70	11.02	-41.4	-42.7	17.3	0.00e+00	0	43	0	384827392	53	4106
2026-01-13 16:12:59.24	244.21	11.16	-41.2	-42.4	17.5	0.00e+00	0	44	0	406847488	53	4001
2026-01-13 16:13:02.09	244.68	11.29	-41.2	-42.4	17.5	0.00e+00	0	44	0	427819008	53	3985
2026-01-13 16:13:05.47	245.23	11.44	-41.2	-42.4	17.6	0.00e+00	0	44	0	451936256	53	3964
2026-01-13 16:13:08.37	245.72	11.57	-41.2	-42.5	17.5	0.00e+00	0	44	0	472907776	53	4014
2026-01-13 16:13:11.77	246.29	11.72	-40.9	-42.1	17.8	0.00e+00	0	44	0	497025024	52	4090
2026-01-13 16:13:14.53	246.76	11.84	-41.1	-42.3	17.8	0.00e+00	0	44	0	516947968	52	4149
2026-01-13 16:13:17.81	247.32	11.97	-41.2	-42.4	17.6	0.00e+00	0	44	0	541065216	52	4215
2026-01-13 16:13:20.54	247.80	12.09	-41.1	-42.3	17.7	0.00e+00	0	44	0	560988160	52	4149
2026-01-13 16:13:23.83	248.37	12.23	-40.9	-42.1	17.9	0.00e+00	0	44	0	584056832	52	4077
2026-01-13 16:13:26.56	248.85	12.34	-41.0	-42.2	17.8	0.00e+00	0	44	0	603979776	52	4120
2026-01-13 16:13:29.85	249.43	12.47	-40.9	-42.0	18.0	0.00e+00	0	44	0	628097024	52	4043
2026-01-13 16:13:32.58	249.92	12.58	-40.7	-41.9	18.1	0.00e+00	0	44	0	648019968	52	3975
2026-01-13 16:13:35.86	250.51	12.71	-40.6	-41.8	18.2	0.00e+00	0	44	0	671088640	52	3925
2026-01-13 16:13:38.58	251.00	12.82	-40.7	-41.8	18.2	0.00e+00	0	44	0	691011584	52	3946
2026-01-13 16:13:41.87	251.61	12.94	-40.7	-41.8	18.2	0.00e+00	0	44	0	715128832	51	4189
2026-01-13 16:13:44.79	252.14	13.05	-40.8	-41.9	18.2	0.00e+00	0	44	0	736100352	51	4204
2026-01-13 16:13:48.78	252.89	13.20	-40.9	-42.0	18.1	0.00e+00	0	44	0	764411904	51	4260
2026-01-13 16:13:51.61	253.42	13.30	-40.9	-42.1	18.1	0.00e+00	0	44	0	784334848	51	4302
2026-01-13 16:13:55.59	254.17	13.44	-40.7	-41.9	18.2	0.00e+00	0	44	0	813694976	51	4209
2026-01-13 16:13:58.44	254.71	13.54	-40.7	-41.9	18.2	0.00e+00	0	44	0	833617920	51	4195
2026-01-13 16:14:02.64	255.51	13.68	-40.8	-41.9	18.2	0.00e+00	0	44	0	864026624	51	4238
2026-01-13 16:14:05.78	256.12	13.78	-40.6	-41.7	18.5	0.00e+00	0	44	0	887095296	51	4103
2026-01-13 16:14:09.75	256.89	13.91	-40.7	-41.8	18.3	0.00e+00	0	44	0	915406848	51	4160
2026-01-13 16:14:12.60	257.45	13.99	-40.7	-41.8	18.3	0.00e+00	0	44	0	936378368	51	4164
2026-01-13 16:14:16.47	258.22	14.11	-40.5	-41.6	18.5	0.00e+00	0	44	0	964689920	51	4057
2026-01-13 16:14:19.24	258.77	14.19	-40.5	-41.6	18.5	0.00e+00	0	44	0	984612864	51	4086
2026-01-13 16:14:22.75	259.47	14.29	-40.4	-41.5	18.6	0.00e+00	0	44	0	1009778688	51	4038
2026-01-13 16:14:25.45	260.01	14.36	-40.7	-41.8	18.3	0.00e+00	0	44	0	1028653056	51	4188
2026-01-13 16:14:28.73	260.67	14.45	-40.7	-41.8	18.3	0.00e+00	0	44	0	1052770304	51	4180
2026-01-13 16:14:31.47	261.23	14.52	-40.6	-41.7	18.4	0.00e+00	0	44	0	1072693248	51	4138
2026-01-13 16:14:34.76	261.90	14.60	-40.4	-41.4	18.7	0.00e+00	0	44	0	1095761920	51	4003
2026-01-13 16:14:37.71	262.51	14.67	-40.4	-41.5	18.6	0.00e+00	0	44	0	1117782016	51	4027
2026-01-13 16:14:41.20	263.22	14.74	-40.5	-41.6	18.5	0.00e+00	0	44	0	1142947840	51	4068
2026-01-13 16:14:43.93	263.79	14.80	-40.5	-41.6	18.5	0.00e+00	0	44	0	1162870784	51	4092
2026-01-13 16:14:47.21	264.47	14.87	-40.5	-41.6	18.5	0.00e+00	0	44	0	1185939456	51	4077
2026-01-13 16:14:49.96	265.04	14.92	-40.4	-41.5	18.6	0.00e+00	0	44	0	1205862400	51	4036
2026-01-13 16:14:53.24	265.73	14.98	-40.4	-41.5	18.7	0.00e+00	0	44	0	1229979648	51	4020
2026-01-13 16:14:56.24	266.36	15.03	-40.2	-41.3	18.8	0.00e+00	0	44	0	1250951168	51	3934
2026-01-13 16:14:59.69	267.09	15.09	-40.2	-41.3	18.8	0.00e+00	0	44	0	1276116992	51	3936
2026-01-13 16:15:02.42	267.66	15.13	-40.3	-41.3	18.8	0.00e+00	0	44	0	1296039936	51	3953
2026-01-13 16:15:05.69	268.36	15.18	-40.3	-41.4	18.7	0.00e+00	0	44	0	1319108608	51	3993
2026-01-13 16:15:08.47	268.95	15.21	-40.3	-41.4	18.7	0.00e+00	0	44	0	1340080128	51	3974
2026-01-13 16:15:11.73	269.64	15.25	-40.3	-41.4	18.7	0.00e+00	0	44	0	1363148800	51	3991
2026-01-13 16:15:14.71	270.28	15.28	-40.5	-41.6	18.6	0.00e+00	0	44	0	1384120320	51	4072
2026-01-13 16:15:17.83	270.95	15.31	-40.5	-41.6	18.5	0.00e+00	0	44	0	1407188992	51	4088
2026-01-13 16:15:20.68	271.56	15.34	-40.2	-41.3	18.8	0.00e+00	0	44	0	1428160512	51	3932
2026-01-13 16:15:23.80	272.23	15.36	-40.3	-41.3	18.8	0.00e+00	0	44	0	1450180608	51	3938
2026-01-13 16:15:26.69	272.85	15.38	-40.3	-41.4	18.8	0.00e+00	0	44	0	1471152128	51	3969
2026-01-13 16:15:29.97	273.55	15.39	-40.4	-41.5	18.7	0.00e+00	0	44	0	1495269376	51	4006
2026-01-13 16:15:32.92	274.19	15.40	-40.3	-41.4	18.8	0.00e+00	0	44	0	1516240896	51	3961
2026-01-13 16:15:36.41	274.94	15.41	-40.4	-41.5	18.7	0.00e+00	0	44	0	1541406720	51	4012
2026-01-13 16:15:39.19	275.54	15.42	-40.3	-41.4	18.7	0.00e+00	0	44	0	1561329664	51	3987
2026-01-13 16:15:42.47	276.25	15.42	-40.5	-41.6	18.5	0.00e+00	0	44	0	1585446912	51	4089
2026-01-13 16:15:45.19	276.83	15.41	-40.4	-41.5	18.7	0.00e+00	0	44	0	1604321280	51	4013
2026-01-13 16:15:48.68	277.58	15.41	-40.3	-41.4	18.8	0.00e+00	0	44	0	1629487104	51	3968
2026-01-13 16:15:51.67	278.23	15.40	-40.3	-41.4	18.8	0.00e+00	0	44	0	1651507200	51	3971
2026-01-13 16:15:54.65	278.87	15.38	-40.3	-41.4	18.7	0.00e+00	0	44	0	1672478720	51	3981
2026-01-13 16:15:57.63	279.51	15.37	-40.3	-41.4	18.8	0.00e+00	0	44	0	1694498816	51	3972
2026-01-13 16:16:00.62	280.15	15.35	-40.5	-41.6	18.6	0.00e+00	0	44	0	1716518912	51	4053
2026-01-13 16:16:04.12	280.90	15.32	-40.5	-41.6	18.5	0.00e+00	0	44	0	1741684736	51	4076
2026-01-13 16:16:07.17	281.55	15.29	-40.5	-41.6	18.5	0.00e+00	0	44	0	1763704832	51	4076
2026-01-13 16:16:10.34	282.23	15.26	-40.5	-41.6	18.5	0.00e+00	0	44	0	1786773504	51	4080
2026-01-13 16:16:13.53	282.91	15.22	-40.4	-41.5	18.7	0.00e+00	0	44	0	1809842176	51	4018
2026-01-13 16:16:16.38	283.51	15.19	-40.3	-41.4	18.7	0.00e+00	0	44	0	1829765120	51	3987
2026-01-13 16:16:19.51	284.18	15.14	-40.5	-41.5	18.6	0.00e+00	0	44	0	1852833792	51	4044
2026-01-13 16:16:22.35	284.78	15.10	-40.5	-41.6	18.5	0.00e+00	0	44	0	1872756736	51	4089
2026-01-13 16:16:25.54	285.45	15.05	-40.8	-41.9	18.2	0.00e+00	0	44	0	1895825408	51	4216
2026-01-13 16:16:28.38	286.04	15.01	-40.6	-41.7	18.4	0.00e+00	0	44	0	1916796928	51	4121
2026-01-13 16:16:31.51	286.70	14.95	-40.5	-41.6	18.5	0.00e+00	0	44	0	1938817024	51	4069
2026-01-13 16:16:34.35	287.29	14.90	-40.6	-41.7	18.4	0.00e+00	0	44	0	1959788544	51	4127
2026-01-13 16:16:37.48	287.94	14.83	-40.7	-41.8	18.4	0.00e+00	0	44	0	1981808640	51	4166
2026-01-13 16:16:40.32	288.53	14.77	-40.8	-41.9	18.3	0.00e+00	0	44	0	2002780160	51	4227
2026-01-13 16:16:43.45	289.17	14.71	-41.0	-42.2	18.0	0.00e+00	0	44	0	2024800256	51	4356
2026-01-13 16:16:46.32	289.76	14.64	-40.8	-41.9	18.2	0.00e+00	0	44	0	2045771776	51	4224
2026-01-13 16:16:49.59	290.43	14.56	-40.7	-41.8	18.3	0.00e+00	0	44	0	2069889024	51	4166
2026-01-13 16:16:52.29	290.97	14.50	-40.8	-41.9	18.3	0.00e+00	0	44	0	2088763392	51	4206
2026-01-13 16:16:55.56	291.63	14.41	-41.0	-42.1	18.0	0.00e+00	0	44	0	2112880640	51	4312
2026-01-13 16:16:58.27	292.18	14.34	-41.0	-42.1	18.0	0.00e+00	0	44	0	2132803584	51	4309
2026-01-13 16:17:01.55	292.84	14.25	-40.9	-42.0	18.1	0.00e+00	0	44	0	2155872256	51	4264
2026-01-13 16:17:04.54	293.43	14.17	-40.9	-42.0	18.1	0.00e+00	0	44	0	2177892352	51	4291
2026-01-13 16:17:07.52	294.02	14.08	-41.0	-42.2	17.9	0.00e+00	0	44	0	2198863872	51	4364
2026-01-13 16:17:10.51	294.61	13.99	-41.2	-42.3	17.8	0.00e+00	0	44	0	2220883968	51	4440
2026-01-13 16:17:13.49	295.19	13.90	-41.2	-42.4	17.6	0.00e+00	0	44	0	2241855488	52	4220
2026-01-13 16:17:16.47	295.77	13.81	-41.3	-42.4	17.6	0.00e+00	0	44	0	2263875584	52	4242
2026-01-13 16:17:19.46	296.34	13.71	-41.2	-42.4	17.7	0.00e+00	0	44	0	2284847104	52	4203
2026-01-13 16:17:22.44	296.91	13.61	-40.9	-42.0	18.0	0.00e+00	0	44	0	2306867200	52	4045
2026-01-13 16:17:25.45	297.49	13.51	-41.0	-42.2	17.9	0.00e+00	0	44	0	2328887296	52	4099
2026-01-13 16:17:28.55	298.07	13.40	-41.2	-42.4	17.7	0.00e+00	0	44	0	2350907392	52	4197
2026-01-13 16:17:31.41	298.61	13.30	-41.3	-42.5	17.5	0.00e+00	0	44	0	2371878912	52	4250
2026-01-13 16:17:34.53	299.19	13.19	-41.4	-42.6	17.4	0.00e+00	0	44	0	2393899008	52	4308
2026-01-13 16:17:37.37	299.72	13.09	-41.3	-42.5	17.5	0.00e+00	0	44	0	2414870528	52	4281
2026-01-13 16:17:40.50	300.29	12.97	-41.4	-42.6	17.4	0.00e+00	0	44	0	2436890624	52	4305
2026-01-13 16:17:43.34	300.81	12.87	-41.5	-42.7	17.3	0.00e+00	0	44	0	2457862144	52	4350
2026-01-13 16:17:46.47	301.38	12.75	-41.4	-42.6	17.4	0.00e+00	0	44	0	2479882240	52	4304
2026-01-13 16:17:49.31	301.89	12.63	-41.3	-42.5	17.5	0.00e+00	0	44	0	2500853760	52	4268
2026-01-13 16:17:52.43	302.44	12.51	-41.2	-42.4	17.6	0.00e+00	0	44	0	2522873856	52	4228
2026-01-13 16:17:55.28	302.95	12.40	-41.3	-42.5	17.4	0.00e+00	0	44	0	2543845376	52	4289
2026-01-13 16:17:58.48	303.51	12.27	-41.4	-42.6	17.4	0.00e+00	0	44	0	2566914048	52	4302
2026-01-13 16:18:01.33	304.01	12.15	-41.4	-42.7	17.3	0.00e+00	0	44	0	2587885568	52	4361
2026-01-13 16:18:04.45	304.54	12.02	-41.3	-42.5	17.5	0.00e+00	0	44	0	2609905664	52	4288
2026-01-13 16:18:07.39	305.05	11.90	-41.2	-42.4	17.6	0.00e+00	0	44	0	2630877184	52	4217
2026-01-13 16:18:10.38	305.56	11.77	-41.5	-42.7	17.3	0.00e+00	0	44	0	2652897280	52	4358
2026-01-13 16:18:13.36	306.06	11.64	-41.6	-42.9	17.1	0.00e+00	0	44	0	2674917376	52	4454
2026-01-13 16:18:16.36	306.56	11.51	-41.7	-43.1	16.9	0.00e+00	0	44	0	2695888896	52	4550
2026-01-13 16:18:19.47	307.07	11.38	-41.7	-43.0	17.0	0.00e+00	0	44	0	2718957568	52	4523
2026-01-13 16:18:22.38	307.55	11.25	-41.6	-42.9	17.1	0.00e+00	0	44	0	2739929088	53	4209
2026-01-13 16:18:25.64	308.08	11.10	-41.7	-43.0	17.0	0.00e+00	0	44	0	2762997760	53	4246
2026-01-13 16:18:28.36	308.52	10.98	-41.7	-43.0	17.0	0.00e+00	0	44	0	2782920704	53	4251
2026-01-13 16:18:31.64	309.04	10.83	-41.8	-43.1	16.9	0.00e+00	0	44	0	2805989376	53	4303
2026-01-13 16:18:34.58	309.51	10.70	-41.8	-43.1	16.9	0.00e+00	0	44	0	2828009472	53	4303
2026-01-13 16:18:37.99	310.04	10.54	-41.9	-43.2	16.7	0.00e+00	0	44	0	2852126720	53	4383
2026-01-13 16:18:40.71	310.46	10.42	-41.9	-43.2	16.7	0.00e+00	0	44	0	2872049664	53	4367
2026-01-13 16:18:43.99	310.97	10.27	-42.1	-43.4	16.5	0.00e+00	0	44	0	2895118336	53	4481
2026-01-13 16:18:46.72	311.38	10.14	-41.9	-43.3	16.6	0.00e+00	0	44	0	2915041280	53	4398
2026-01-13 16:18:50.12	311.89	9.98	-42.1	-43.5	16.4	0.00e+00	0	44	0	2940207104	53	4508
2026-01-13 16:18:52.94	312.32	9.84	-42.2	-43.6	16.3	0.00e+00	0	44	0	2960130048	53	4574
2026-01-13 16:18:56.24	312.80	9.69	-41.9	-43.3	16.6	0.00e+00	0	44	0	2984247296	53	4396
2026-01-13 16:18:58.96	313.20	9.56	-41.8	-43.1	16.8	0.00e+00	0	44	0	3004170240	53	4298
2026-01-13 16:19:02.24	313.68	9.40	-42.2	-43.5	16.4	0.00e+00	0	44	0	3027238912	53	4528
2026-01-13 16:19:04.97	314.07	9.27	-42.2	-43.6	16.3	0.00e+00	0	44	0	3047161856	53	4589
2026-01-13 16:19:08.55	314.58	9.10	-42.3	-43.8	16.1	0.00e+00	0	44	0	3073376256	54	4396
2026-01-13 16:19:11.25	314.96	8.97	-50.1	-59.9	3.8	8.47e-01	0	44	104	3089104896	69	11844
2026-01-13 16:19:14.55	315.42	8.81	-51.1	-61.9	3.8	8.49e-01	0	44	104	3089104896	71	13292
2026-01-13 16:19:17.26	315.80	8.67	-51.1	-62.0	3.8	8.47e-01	0	44	104	3089104896	71	13513
2026-01-13 16:19:20.60	316.25	8.51	-51.3	-62.0	3.8	8.48e-01	0	44	104	3089104896	71	13556
2026-01-13 16:19:23.36	316.63	8.38	-51.1	-62.0	3.8	8.47e-01	0	44	104	3089104896	72	12789
2026-01-13 16:19:26.75	317.08	8.21	-51.3	-62.1	3.8	8.47e-01	0	44	104	3089104896	72	12834
2026-01-13 16:19:29.52	317.45	8.07	-51.2	-62.0	3.8	8.47e-01	0	44	104	3089104896	72	12740
2026-01-13 16:19:32.79	317.88	7.91	-51.0	-62.0	3.8	8.46e-01	0	44	104	3089104896	72	12679
2026-01-13 16:19:35.52	318.23	7.78	-51.0	-62.0	3.8	8.48e-01	0	44	104	3089104896	72	12681
2026-01-13 16:19:38.80	318.66	7.61	-51.0	-61.9	3.8	8.46e-01	0	44	104	3089104896	72	12660
2026-01-13 16:19:41.51	319.00	7.48	-51.0	-61.9	3.8	8.47e-01	0	44	104	3089104896	72	12656
2026-01-13 16:19:44.77	319.42	7.32	-51.0	-61.9	3.8	8.47e-01	0	44	104	3089104896	72	12592
2026-01-13 16:19:47.48	319.75	7.18	-51.0	-62.0	3.8	8.46e-01	0	44	104	3089104896	72	12670
2026-01-13 16:19:50.76	320.16	7.02	-51.0	-62.0	3.8	8.48e-01	0	44	104	3089104896	72	12669
2026-01-13 16:19:53.46	320.49	6.89	-51.0	-61.9	3.8	8.48e-01	0	44	104	3089104896	72	12570
2026-01-13 16:19:56.75	320.89	6.72	-51.0	-61.9	3.8	8.46e-01	0	44	104	3089104896	72	12615
2026-01-13 16:19:59.45	321.22	6.59	-50.9	-61.9	3.8	8.45e-01	0	44	104	3089104896	72	12560
2026-01-13 16:20:02.73	321.61	6.43	-50.9	-61.8	3.8	8.45e-01	0	44	104	3089104896	72	12466
2026-01-13 16:20:05.42	321.93	6.29	-50.9	-61.9	3.8	8.46e-01	0	44	104	3089104896	72	12607
2026-01-13 16:20:08.69	322.31	6.13	-50.8	-61.8	3.8	8.47e-01	0	44	104	3089104896	72	12422
2026-01-13 16:20:11.40	322.62	5.99	-50.9	-61.8	3.8	8.47e-01	0	44	104	3089104896	72	12482
2026-01-13 16:20:14.67	323.00	5.83	-50.9	-61.9	3.8	8.48e-01	0	44	104	3089104896	72	12580
2026-01-13 16:20:17.37	323.30	5.70	-50.9	-61.9	3.8	8.48e-01	0	45	104	3089104896	72	12539
2026-01-13 16:20:20.63	323.67	5.53	-50.9	-61.8	3.8	8.46e-01	0	45	104	3089104896	72	12489
2026-01-13 16:20:23.33	323.97	5.40	-50.9	-61.9	3.8	8.46e-01	0	44	104	3089104896	72	12582
2026-01-13 16:20:26.59	324.33	5.24	-50.9	-61.9	3.8	8.46e-01	0	44	104	3089104896	72	12568
2026-01-13 16:20:29.29	324.62	5.10	-50.9	-61.8	3.8	8.46e-01	0	44	104	3089104896	72	12516

#Closed at: 2026-01-13 16:20:32
#Recorded file [3089 MB]: D:/Data/31040_260113_191052.dat