passes_logs/2026/01/13/T1/T1__20260113_014139_FENGYUN_3G_rec.log

#Pass ID: 20260113_014139_FENGYUN 3G
#Satellite: FENGYUN 3G
#Configuration: FENGYUN 3G
#almurnet v.1.7.20251203
#Start time: 2026-01-13 01:41:40

#Version: 2.0.20230620
#Station: T1
#Location: 37.570604 lon 55.790049 lat
#TLE: 1 56232U 23055A   26012.28315646  .00028343  00000+0  44482-3 0  9993
#TLE: 2 56232  49.9940  69.9476 0004238  14.1066 346.0019 15.53388001155773

#Time	Az	El	Level	Level2	SNR	BER	BlckErr	Temp	State	Recorded	gain1	gain2
2026-01-13 01:41:40.86	258.45	5.18	-50.5	-69.2	3.8	8.47e-01	0	36	0	0	73	29535
2026-01-13 01:41:42.84	258.24	5.32	-50.5	-69.2	3.8	8.47e-01	0	36	104	0	72	31165
2026-01-13 01:41:44.83	258.02	5.47	-50.5	-69.2	3.8	8.47e-01	0	36	104	0	72	31141
2026-01-13 01:41:46.81	257.80	5.61	-50.5	-69.2	3.8	8.47e-01	0	36	104	0	72	31194
2026-01-13 01:41:48.80	257.58	5.76	-50.5	-69.1	3.8	8.46e-01	0	36	104	0	72	31068
2026-01-13 01:41:50.79	257.35	5.91	-50.5	-69.1	3.8	8.46e-01	0	37	104	0	72	30960
2026-01-13 01:41:52.77	257.13	6.06	-50.5	-69.1	3.8	8.47e-01	0	37	104	0	72	31015
2026-01-13 01:41:54.76	256.89	6.21	-50.5	-69.2	3.8	8.48e-01	0	37	104	0	72	31257
2026-01-13 01:41:56.75	256.66	6.36	-50.5	-69.1	3.8	8.49e-01	0	37	104	0	72	31031
2026-01-13 01:41:58.73	256.42	6.51	-50.5	-69.0	3.8	8.47e-01	0	37	104	0	72	30584
2026-01-13 01:42:00.72	256.17	6.66	-50.5	-69.0	3.8	8.47e-01	0	37	104	0	72	30398
2026-01-13 01:42:02.71	255.93	6.82	-50.5	-69.0	3.8	8.48e-01	0	37	104	0	72	30511
2026-01-13 01:42:04.69	255.68	6.97	-50.5	-69.1	3.8	8.46e-01	0	37	104	0	72	30824
2026-01-13 01:42:06.68	255.42	7.13	-50.5	-69.2	3.8	8.47e-01	0	37	104	0	72	31387
2026-01-13 01:42:08.67	255.16	7.29	-50.5	-69.2	3.8	8.47e-01	0	37	104	0	72	31362
2026-01-13 01:42:10.65	254.90	7.45	-50.5	-69.1	3.8	8.48e-01	0	37	104	0	72	30983
2026-01-13 01:42:12.64	254.63	7.61	-50.5	-68.8	3.8	8.47e-01	0	37	104	0	72	29884
2026-01-13 01:42:14.63	254.36	7.77	-50.5	-68.9	3.8	8.47e-01	0	37	104	0	72	30282
2026-01-13 01:42:16.61	254.09	7.93	-50.5	-69.1	3.8	8.46e-01	0	38	104	0	72	31033
2026-01-13 01:42:18.60	253.81	8.09	-50.5	-69.1	3.8	8.47e-01	0	37	104	0	72	30784
2026-01-13 01:42:20.59	253.53	8.25	-50.5	-69.2	3.8	8.47e-01	0	37	104	0	72	31304
2026-01-13 01:42:22.58	253.24	8.42	-50.5	-69.2	3.8	8.47e-01	0	37	104	0	72	31410
2026-01-13 01:42:24.56	252.95	8.58	-50.4	-68.3	3.8	8.46e-01	0	38	104	0	72	28150
2026-01-13 01:42:26.55	252.65	8.75	-50.1	-62.0	6.0	8.41e-01	0	38	0	0	72	13599
2026-01-13 01:42:28.54	252.35	8.92	-48.7	-55.0	13.0	3.35e-01	0	38	0	0	69	7218
2026-01-13 01:42:30.52	252.04	9.09	-47.0	-51.3	16.8	0.00e+00	0	38	0	0	65	5964
2026-01-13 01:42:32.52	251.73	9.26	-47.2	-51.7	16.5	0.00e+00	0	38	0	0	65	6243
2026-01-13 01:42:34.50	251.41	9.43	-47.9	-53.0	14.4	0.00e+00	0	38	0	0	68	6117
2026-01-13 01:42:36.49	251.09	9.60	-44.9	-48.0	19.8	0.00e+00	0	38	0	0	61	5121
2026-01-13 01:42:38.48	250.76	9.78	-44.6	-47.6	20.3	0.00e+00	0	38	0	0	61	4876
2026-01-13 01:42:40.48	250.43	9.95	-44.5	-47.4	20.4	0.00e+00	0	38	0	0	61	4771
2026-01-13 01:42:42.47	250.09	10.13	-44.4	-47.2	20.6	0.00e+00	0	38	0	0	60	4978
2026-01-13 01:42:44.46	249.74	10.31	-44.0	-46.8	21.0	0.00e+00	0	38	0	0	60	4719
2026-01-13 01:42:46.45	249.39	10.49	-43.9	-46.6	21.2	0.00e+00	0	38	0	0	59	4913
2026-01-13 01:42:48.44	249.04	10.66	-43.8	-46.5	21.3	0.00e+00	0	38	0	0	59	4842
2026-01-13 01:42:50.43	248.68	10.85	-43.9	-46.6	21.3	0.00e+00	0	38	0	0	59	4877
2026-01-13 01:42:52.42	248.31	11.03	-43.8	-46.4	21.4	0.00e+00	0	38	0	0	59	4810
2026-01-13 01:42:54.41	247.94	11.21	-43.7	-46.2	21.6	0.00e+00	0	38	0	0	59	4698
2026-01-13 01:42:56.48	247.54	11.40	-43.5	-46.0	21.8	0.00e+00	0	38	0	0	59	4570
2026-01-13 01:42:58.43	247.16	11.58	-43.4	-45.9	21.9	0.00e+00	0	38	0	0	58	4779
2026-01-13 01:43:00.42	246.77	11.77	-43.2	-45.7	22.1	0.00e+00	0	38	0	0	58	4656
2026-01-13 01:43:02.41	246.37	11.96	-43.2	-45.8	22.0	0.00e+00	0	38	0	0	58	4710
2026-01-13 01:43:04.39	245.96	12.14	-43.2	-45.7	22.1	0.00e+00	0	38	0	0	58	4661
2026-01-13 01:43:06.39	245.55	12.33	-43.1	-45.6	22.2	0.00e+00	0	38	0	0	58	4629
2026-01-13 01:43:08.38	245.13	12.52	-43.2	-45.6	22.2	0.00e+00	0	38	0	0	58	4646
2026-01-13 01:43:10.37	244.70	12.71	-42.8	-45.2	22.5	0.00e+00	0	38	0	0	57	4677
2026-01-13 01:43:12.35	244.27	12.91	-42.9	-45.3	22.5	0.00e+00	0	38	0	0	57	4726
2026-01-13 01:43:14.34	243.82	13.10	-43.1	-45.6	22.3	0.00e+00	0	38	0	0	57	4873
2026-01-13 01:43:16.33	243.37	13.29	-43.0	-45.4	22.3	0.00e+00	0	38	0	0	57	4790
2026-01-13 01:43:18.32	242.91	13.49	-43.0	-45.4	22.3	0.00e+00	0	38	0	0	57	4810
2026-01-13 01:43:20.31	242.45	13.68	-42.7	-45.1	22.7	0.00e+00	0	38	0	0	57	4625
2026-01-13 01:43:22.30	241.97	13.88	-42.5	-44.8	22.9	0.00e+00	0	38	0	0	57	4481
2026-01-13 01:43:24.30	241.49	14.08	-42.2	-44.5	23.1	0.00e+00	0	38	0	0	56	4581
2026-01-13 01:43:26.26	241.00	14.27	-42.6	-45.0	22.8	0.00e+00	0	38	0	0	56	4819
2026-01-13 01:43:28.18	240.52	14.46	-42.6	-45.0	22.7	0.00e+00	0	38	0	0	56	4829
2026-01-13 01:43:30.17	240.01	14.66	-42.1	-44.4	23.2	0.00e+00	0	38	0	0	56	4528
2026-01-13 01:43:32.16	239.50	14.86	-41.8	-44.1	23.3	0.00e+00	0	38	0	0	55	4624
2026-01-13 01:43:34.15	238.97	15.06	-41.7	-44.0	23.4	0.00e+00	0	38	0	0	55	4560
2026-01-13 01:43:36.14	238.44	15.26	-41.5	-43.7	23.7	0.00e+00	0	38	0	0	54	4671
2026-01-13 01:43:38.13	237.89	15.46	-41.9	-44.3	23.2	0.00e+00	0	38	0	0	54	4984
2026-01-13 01:43:40.11	237.34	15.66	-41.9	-44.2	23.3	0.00e+00	0	38	0	0	54	4964
2026-01-13 01:43:42.10	236.78	15.86	-42.0	-44.3	23.2	0.00e+00	0	38	0	0	54	4998
2026-01-13 01:43:44.09	236.21	16.06	-41.6	-43.9	23.5	0.00e+00	0	38	0	0	54	4779
2026-01-13 01:43:46.08	235.63	16.26	-41.3	-43.5	23.8	0.00e+00	0	38	0	0	54	4571
2026-01-13 01:43:48.07	235.04	16.46	-41.3	-43.5	23.8	0.00e+00	0	38	0	0	54	4569
2026-01-13 01:43:50.06	234.43	16.67	-41.5	-43.8	23.6	0.00e+00	0	38	0	0	54	4713
2026-01-13 01:43:52.09	233.81	16.87	-41.7	-43.9	23.5	0.00e+00	0	38	0	0	54	4790
2026-01-13 01:43:54.16	233.16	17.08	-41.5	-43.8	23.6	0.00e+00	0	38	0	0	54	4710
2026-01-13 01:43:56.22	232.51	17.28	-41.2	-43.4	23.9	0.00e+00	0	38	0	0	54	4518
2026-01-13 01:43:58.21	231.86	17.48	-40.8	-43.0	24.2	0.00e+00	0	38	0	0	53	4559
2026-01-13 01:44:00.21	231.20	17.68	-40.8	-42.9	24.3	0.00e+00	0	39	0	0	53	4500
2026-01-13 01:44:02.20	230.54	17.87	-40.9	-43.0	24.2	0.00e+00	0	38	0	0	53	4565
2026-01-13 01:44:04.19	229.86	18.07	-41.3	-43.4	23.8	0.00e+00	0	38	0	0	53	4808
2026-01-13 01:44:06.18	229.18	18.26	-41.8	-44.0	23.4	0.00e+00	0	38	0	0	54	4856
2026-01-13 01:44:08.17	228.48	18.46	-41.2	-43.4	24.0	0.00e+00	0	38	0	0	54	4504
2026-01-13 01:44:10.15	227.77	18.64	-40.9	-43.1	24.2	0.00e+00	0	38	0	0	53	4616
2026-01-13 01:44:12.14	227.05	18.83	-40.6	-42.6	24.5	0.00e+00	0	38	0	0	53	4389
2026-01-13 01:44:14.13	226.32	19.02	-40.7	-42.8	24.4	0.00e+00	0	39	0	0	53	4446
2026-01-13 01:44:16.12	225.58	19.20	-40.7	-42.8	24.4	0.00e+00	0	38	0	0	53	4482
2026-01-13 01:44:18.11	224.83	19.39	-40.9	-43.0	24.3	0.00e+00	0	38	0	0	53	4560
2026-01-13 01:44:20.10	224.07	19.57	-41.3	-43.5	23.9	0.00e+00	0	38	0	0	53	4827
2026-01-13 01:44:22.29	223.21	19.76	-41.1	-43.2	24.0	0.00e+00	0	38	0	0	53	4701
2026-01-13 01:44:24.45	222.36	19.95	-41.0	-43.2	24.1	0.00e+00	0	38	0	0	53	4681
2026-01-13 01:44:26.44	221.56	20.12	-41.0	-43.1	24.2	0.00e+00	0	38	0	0	53	4626
2026-01-13 01:44:28.43	220.76	20.28	-40.5	-42.6	24.5	0.00e+00	0	38	0	0	53	4361
2026-01-13 01:44:30.42	219.94	20.45	-40.1	-42.1	24.9	0.00e+00	0	39	0	0	52	4368
2026-01-13 01:44:32.41	219.11	20.60	-40.1	-42.2	24.9	0.00e+00	0	38	0	0	52	4402
2026-01-13 01:44:34.40	218.27	20.76	-40.2	-42.3	24.7	0.00e+00	0	38	0	0	52	4474
2026-01-13 01:44:36.52	217.36	20.92	-40.2	-42.3	24.8	0.00e+00	0	38	0	0	52	4447
2026-01-13 01:44:38.46	216.52	21.06	-40.2	-42.3	24.8	0.00e+00	0	38	0	0	52	4458
2026-01-13 01:44:40.44	215.66	21.20	-40.1	-42.1	24.9	0.00e+00	0	38	0	0	52	4364
2026-01-13 01:44:42.43	214.78	21.34	-40.0	-42.1	24.9	0.00e+00	0	38	0	0	52	4344
2026-01-13 01:44:44.42	213.89	21.47	-40.0	-42.1	25.0	0.00e+00	0	38	0	0	51	4610
2026-01-13 01:44:46.42	212.99	21.59	-40.4	-42.4	24.7	0.00e+00	0	38	0	0	51	4809
2026-01-13 01:44:48.41	212.09	21.71	-40.5	-42.6	24.6	0.00e+00	0	38	0	0	51	4906
2026-01-13 01:44:50.40	211.18	21.83	-40.4	-42.5	24.7	0.00e+00	0	38	0	0	51	4825
2026-01-13 01:44:52.38	210.26	21.93	-40.2	-42.2	24.7	0.00e+00	0	38	0	0	51	4699
2026-01-13 01:44:54.38	209.33	22.04	-40.1	-42.1	25.0	0.00e+00	0	38	0	0	51	4648
2026-01-13 01:44:56.37	208.39	22.13	-40.1	-42.1	24.9	0.00e+00	0	38	0	0	51	4624
2026-01-13 01:44:58.36	207.45	22.22	-40.0	-42.1	25.0	0.00e+00	0	38	0	0	51	4599
2026-01-13 01:45:00.35	206.50	22.30	-39.7	-41.7	25.2	0.00e+00	0	38	0	0	51	4436
2026-01-13 01:45:02.34	205.55	22.38	-39.8	-41.8	25.2	0.00e+00	0	38	0	0	51	4457
2026-01-13 01:45:04.33	204.59	22.44	-39.9	-42.0	25.1	0.00e+00	0	38	0	0	51	4554
2026-01-13 01:45:06.32	203.63	22.50	-40.0	-42.0	25.1	0.00e+00	0	39	0	0	51	4571
2026-01-13 01:45:08.37	202.63	22.56	-39.9	-41.9	25.1	0.00e+00	0	39	0	0	51	4526
2026-01-13 01:45:10.36	201.66	22.60	-39.7	-41.7	25.2	0.00e+00	0	38	0	0	51	4439
2026-01-13 01:45:12.35	200.68	22.64	-39.9	-41.9	25.2	0.00e+00	0	38	0	0	51	4504
2026-01-13 01:45:14.34	199.71	22.67	-40.3	-42.3	24.9	0.00e+00	0	39	0	0	51	4733
2026-01-13 01:45:16.46	198.66	22.69	-40.5	-42.6	24.6	0.00e+00	0	38	0	0	51	4901
2026-01-13 01:45:18.45	197.68	22.71	-40.2	-42.3	24.8	0.00e+00	0	38	0	0	52	4476
2026-01-13 01:45:20.45	196.70	22.72	-40.2	-42.3	24.8	0.00e+00	0	38	0	0	52	4462
2026-01-13 01:45:22.44	195.72	22.71	-39.9	-41.9	25.1	0.00e+00	0	39	0	0	51	4523
2026-01-13 01:45:24.43	194.73	22.71	-39.9	-41.9	25.1	0.00e+00	0	39	0	0	51	4520
2026-01-13 01:45:26.42	193.75	22.69	-39.8	-41.8	25.2	0.00e+00	0	38	0	0	51	4474
2026-01-13 01:45:28.41	192.78	22.66	-40.1	-42.2	24.9	0.00e+00	0	38	0	0	51	4671
2026-01-13 01:45:30.40	191.80	22.63	-40.7	-42.8	24.5	0.00e+00	0	38	0	0	51	5003
2026-01-13 01:45:32.39	190.83	22.59	-40.5	-42.7	24.5	0.00e+00	0	38	0	0	52	4669
2026-01-13 01:45:34.38	189.86	22.54	-40.2	-42.3	24.8	0.00e+00	0	38	0	0	52	4461
2026-01-13 01:45:36.37	188.89	22.49	-39.9	-42.0	25.0	0.00e+00	0	38	0	0	51	4563
2026-01-13 01:45:38.36	187.93	22.43	-39.6	-41.6	25.3	0.00e+00	0	39	0	0	51	4370
2026-01-13 01:45:40.35	186.97	22.36	-39.4	-41.4	25.5	0.00e+00	0	38	0	0	50	4512
2026-01-13 01:45:42.34	186.02	22.28	-39.8	-41.9	25.1	0.00e+00	0	39	0	0	50	4764
2026-01-13 01:45:44.33	185.07	22.20	-40.2	-42.2	24.9	0.00e+00	0	38	0	0	51	4690
2026-01-13 01:45:46.52	184.04	22.10	-39.6	-41.6	25.3	0.00e+00	0	38	0	0	51	4369
2026-01-13 01:45:48.72	183.00	21.99	-40.0	-42.1	25.0	0.00e+00	0	38	0	0	50	4905
2026-01-13 01:45:50.78	182.05	21.88	-40.7	-42.8	24.4	0.00e+00	0	38	0	0	52	4748
2026-01-13 01:45:52.79	181.12	21.77	-40.6	-42.8	24.4	0.00e+00	0	38	0	0	52	4725
2026-01-13 01:45:54.79	180.21	21.65	-40.4	-42.5	24.7	0.00e+00	0	38	0	0	52	4578
2026-01-13 01:45:56.78	179.31	21.53	-40.3	-42.4	24.6	0.00e+00	0	39	0	0	52	4542
2026-01-13 01:45:58.77	178.41	21.40	-40.4	-42.5	24.7	0.00e+00	0	38	0	0	52	4549
2026-01-13 01:46:00.78	177.52	21.27	-40.8	-43.0	24.3	0.00e+00	0	38	0	0	52	4843
2026-01-13 01:46:02.78	176.64	21.13	-40.7	-42.9	24.4	0.00e+00	0	38	0	0	52	4778
2026-01-13 01:46:04.91	175.72	20.98	-40.3	-42.4	24.8	0.00e+00	0	38	0	0	52	4498
2026-01-13 01:46:07.09	174.78	20.81	-40.6	-42.7	24.4	0.00e+00	0	38	0	0	52	4697
2026-01-13 01:46:09.08	173.94	20.66	-40.6	-42.7	24.5	0.00e+00	0	39	0	0	52	4681
2026-01-13 01:46:11.08	173.10	20.50	-40.4	-42.5	24.6	0.00e+00	0	39	0	0	52	4591
2026-01-13 01:46:13.08	172.28	20.34	-40.8	-42.9	24.3	0.00e+00	0	38	0	0	52	4802
2026-01-13 01:46:15.07	171.46	20.18	-40.7	-42.8	24.4	0.00e+00	0	38	0	0	52	4738
2026-01-13 01:46:17.06	170.66	20.01	-40.9	-43.0	24.2	0.00e+00	0	38	0	0	52	4867
2026-01-13 01:46:19.05	169.87	19.83	-41.2	-43.4	24.0	0.00e+00	0	38	0	0	52	5062
2026-01-13 01:46:21.15	169.05	19.65	-41.1	-43.3	24.0	0.00e+00	0	38	0	0	53	4758
2026-01-13 01:46:23.22	168.25	19.46	-40.8	-43.0	24.3	0.00e+00	0	38	0	0	53	4556
2026-01-13 01:46:25.27	167.47	19.28	-40.2	-42.3	24.8	0.00e+00	0	39	0	0	52	4463
2026-01-13 01:46:27.26	166.72	19.09	-41.0	-43.2	24.2	2.86e-05	0	38	0	0	52	4948
2026-01-13 01:46:29.25	165.99	18.91	-41.3	-43.5	23.9	0.00e+00	0	39	0	0	53	4833
2026-01-13 01:46:31.28	165.25	18.72	-41.2	-43.4	24.0	0.00e+00	0	38	0	0	53	4798
2026-01-13 01:46:33.29	164.53	18.53	-40.8	-42.9	24.3	8.12e-05	0	39	0	0	53	4530
2026-01-13 01:46:35.31	163.82	18.33	-40.6	-42.7	24.5	4.50e-06	0	38	0	0	53	4425
2026-01-13 01:46:37.31	163.12	18.14	-40.9	-43.0	24.3	0.00e+00	0	38	0	0	53	4579
2026-01-13 01:46:39.30	162.44	17.94	-41.1	-43.3	24.1	0.00e+00	0	39	0	0	53	4721
2026-01-13 01:46:41.31	161.77	17.75	-41.1	-43.3	24.1	0.00e+00	0	38	0	0	53	4722
2026-01-13 01:46:43.31	161.10	17.55	-41.1	-43.2	24.1	0.00e+00	0	38	0	0	53	4691
2026-01-13 01:46:45.33	160.45	17.35	-41.1	-43.3	24.0	0.00e+00	0	38	0	0	53	4728
2026-01-13 01:46:47.35	159.80	17.15	-41.3	-43.5	23.9	0.00e+00	0	39	0	0	53	4841
2026-01-13 01:46:49.36	159.17	16.94	-41.4	-43.6	23.8	0.00e+00	0	38	0	0	53	4923
2026-01-13 01:46:51.35	158.55	16.74	-41.3	-43.5	23.9	0.00e+00	0	38	0	0	53	4848
2026-01-13 01:46:53.37	157.93	16.54	-41.4	-43.7	23.8	0.00e+00	0	39	0	0	53	4937
2026-01-13 01:46:55.65	157.25	16.31	-41.5	-43.8	23.7	2.64e-04	0	38	0	0	54	4723
2026-01-13 01:46:57.58	156.69	16.12	-41.5	-43.7	14.7	0.00e+00	0	39	0	0	54	4693
2026-01-13 01:46:59.57	156.11	15.92	-41.6	-43.9	23.6	9.67e-04	0	38	0	0	54	4765
2026-01-13 01:47:01.55	155.55	15.72	-42.0	-44.3	23.2	1.94e-05	0	39	0	0	54	5036
2026-01-13 01:47:03.54	154.99	15.51	-41.9	-44.2	23.3	0.00e+00	0	39	0	0	54	4958
2026-01-13 01:47:05.53	154.44	15.31	-42.1	-44.5	23.1	0.00e+00	0	38	0	0	54	5122
2026-01-13 01:47:07.52	153.91	15.11	-42.4	-44.8	22.9	0.00e+00	0	39	0	0	55	4990
2026-01-13 01:47:09.51	153.38	14.91	-42.2	-44.5	23.0	0.00e+00	0	38	0	0	55	4865
2026-01-13 01:47:11.50	152.86	14.71	-42.1	-44.4	23.1	0.00e+00	0	38	0	0	55	4813
2026-01-13 01:47:13.49	152.35	14.52	-42.2	-44.5	23.1	0.00e+00	0	38	0	0	55	4853
2026-01-13 01:47:15.48	151.85	14.32	-42.3	-44.8	22.9	0.00e+00	0	39	0	0	55	4996
2026-01-13 01:47:17.47	151.35	14.12	-42.6	-45.1	22.6	0.00e+00	0	39	0	0	55	5176
2026-01-13 01:47:19.55	150.85	13.91	-42.9	-45.4	22.5	0.00e+00	0	38	0	0	56	5058
2026-01-13 01:47:21.55	150.37	13.72	-43.1	-45.6	22.3	0.00e+00	0	39	0	0	56	5176
2026-01-13 01:47:23.54	149.90	13.52	-43.0	-45.5	22.2	0.00e+00	0	38	0	0	56	5132
2026-01-13 01:47:25.53	149.44	13.32	-43.0	-45.5	22.4	0.00e+00	0	38	0	0	56	5115
2026-01-13 01:47:27.52	148.99	13.13	-42.8	-45.3	22.5	0.00e+00	0	39	0	0	56	5037
2026-01-13 01:47:29.49	148.55	12.94	-42.9	-45.4	22.4	0.00e+00	0	38	0	0	56	5077
2026-01-13 01:47:31.48	148.11	12.75	-43.2	-45.8	22.1	0.00e+00	0	38	0	0	57	5025
2026-01-13 01:47:33.56	147.66	12.55	-43.5	-46.0	21.9	1.10e-06	0	38	0	0	57	5156
2026-01-13 01:47:35.56	147.24	12.36	-43.5	-46.1	21.8	0.00e+00	0	39	0	0	57	5208
2026-01-13 01:47:37.54	146.82	12.17	-43.7	-46.3	21.7	1.43e-04	0	38	0	0	58	5001
2026-01-13 01:47:39.53	146.42	11.98	-43.7	-46.3	21.6	8.00e-06	0	38	0	0	58	5029
2026-01-13 01:47:41.52	146.02	11.79	-43.5	-46.2	21.8	0.00e+00	0	39	0	0	58	4931
2026-01-13 01:47:43.51	145.62	11.60	-43.6	-46.3	21.7	0.00e+00	0	39	0	0	58	5012
2026-01-13 01:47:45.51	145.23	11.42	-43.7	-46.3	21.6	0.00e+00	0	39	0	0	58	5027
2026-01-13 01:47:47.49	144.85	11.24	-43.8	-46.5	21.5	0.00e+00	0	39	0	0	58	5110
2026-01-13 01:47:49.48	144.48	11.05	-43.7	-46.4	21.5	0.00e+00	0	39	0	0	58	5084
2026-01-13 01:47:51.47	144.11	10.87	-43.6	-46.2	21.7	0.00e+00	0	39	0	0	58	4972
2026-01-13 01:47:53.47	143.74	10.69	-43.8	-46.4	21.4	0.00e+00	0	39	0	0	58	5099
2026-01-13 01:47:55.46	143.39	10.51	-44.0	-46.7	21.3	0.00e+00	0	39	0	0	58	5237
2026-01-13 01:47:57.45	143.03	10.33	-44.2	-47.0	20.9	0.00e+00	0	39	0	0	59	5113
2026-01-13 01:47:59.44	142.69	10.15	-44.2	-46.9	21.0	0.00e+00	0	38	0	0	59	5089
2026-01-13 01:48:01.43	142.35	9.98	-44.2	-47.0	20.9	0.00e+00	0	38	0	0	59	5154
2026-01-13 01:48:03.42	142.01	9.80	-44.5	-47.5	20.5	0.00e+00	0	39	0	0	59	5410
2026-01-13 01:48:05.49	141.67	9.62	-44.6	-47.6	20.4	0.00e+00	0	39	0	0	59	5491
2026-01-13 01:48:07.56	141.34	9.44	-44.4	-47.3	20.6	0.00e+00	0	39	0	0	59	5325
2026-01-13 01:48:09.60	141.01	9.26	-44.5	-47.5	20.4	0.00e+00	0	39	0	0	59	5441
2026-01-13 01:48:11.58	140.70	9.09	-44.6	-47.7	20.3	0.00e+00	0	38	0	0	59	5533
2026-01-13 01:48:13.57	140.39	8.92	-50.7	-69.2	3.6	0.00e+00	0	39	104	0	72	31378
2026-01-13 01:48:15.56	140.09	8.76	-50.9	-69.7	3.8	6.99e-01	0	39	104	0	72	33065
2026-01-13 01:48:17.55	139.79	8.59	-51.1	-69.9	3.8	8.47e-01	0	39	104	0	72	33790
2026-01-13 01:48:19.54	139.50	8.42	-51.1	-70.0	3.8	8.47e-01	0	39	104	0	73	32291
2026-01-13 01:48:21.53	139.21	8.26	-51.1	-70.0	3.8	8.47e-01	0	38	104	0	73	32480
2026-01-13 01:48:23.51	138.92	8.09	-51.0	-70.1	3.8	8.47e-01	0	39	104	0	73	32588
2026-01-13 01:48:25.53	138.64	7.93	-51.2	-70.1	3.8	8.47e-01	0	38	104	0	73	32660
2026-01-13 01:48:27.58	138.36	7.76	-51.3	-70.1	3.8	8.47e-01	0	39	104	0	73	32695
2026-01-13 01:48:29.63	138.08	7.60	-51.2	-70.1	3.8	8.46e-01	0	39	104	0	73	32735
2026-01-13 01:48:31.69	137.80	7.43	-51.1	-70.1	3.8	8.47e-01	0	39	104	0	73	32581
2026-01-13 01:48:33.67	137.54	7.27	-51.1	-70.1	3.8	8.46e-01	0	38	104	0	73	32557
2026-01-13 01:48:35.66	137.28	7.12	-51.1	-70.0	3.8	8.47e-01	0	39	104	0	73	32494
2026-01-13 01:48:37.65	137.02	6.96	-51.1	-70.0	3.8	8.47e-01	0	39	104	0	73	32515
2026-01-13 01:48:39.63	136.77	6.81	-51.1	-70.0	3.8	8.47e-01	0	39	104	0	73	32451
2026-01-13 01:48:41.62	136.53	6.65	-51.1	-70.0	3.8	8.46e-01	0	38	104	0	73	32525
2026-01-13 01:48:43.61	136.28	6.50	-51.1	-70.0	3.8	8.47e-01	0	39	104	0	73	32497
2026-01-13 01:48:45.59	136.04	6.35	-51.1	-70.0	3.8	8.46e-01	0	38	104	0	73	32515
2026-01-13 01:48:47.58	135.81	6.19	-51.1	-70.0	3.8	8.47e-01	0	39	104	0	73	32392
2026-01-13 01:48:49.56	135.58	6.04	-51.1	-70.0	3.8	8.47e-01	0	39	104	0	73	32331
2026-01-13 01:48:51.55	135.35	5.90	-51.1	-70.0	3.8	8.46e-01	0	38	104	0	73	32478
2026-01-13 01:48:53.54	135.12	5.75	-51.1	-70.0	3.8	8.47e-01	0	38	104	0	73	32405
2026-01-13 01:48:55.52	134.90	5.60	-51.1	-70.0	3.8	8.47e-01	0	39	104	0	73	32306
2026-01-13 01:48:57.51	134.68	5.45	-51.1	-70.0	3.8	8.46e-01	0	39	104	0	73	32410
2026-01-13 01:48:59.50	134.46	5.31	-51.1	-70.0	3.8	8.48e-01	0	39	104	0	73	32327
2026-01-13 01:49:01.48	134.25	5.16	-51.1	-70.0	3.8	8.47e-01	0	39	104	0	73	32386
2026-01-13 01:49:03.47	134.03	5.02	-51.1	-70.0	3.8	8.46e-01	0	39	104	0	73	32389
2026-01-13 01:49:05.46	133.83	4.88	-51.1	-70.0	3.8	8.47e-01	0	38	104	0	73	32313

#Closed at: 2026-01-13 01:49:06
#Recorded file [0 MB]: D:/Data/31040_260113_044140.dat