passes_logs/2026/01/13/T1/T1__20260113_012343_NOAA_21_JPSS-2_rec.log

#Pass ID: 20260113_012343_NOAA 21 (JPSS-2)
#Satellite: NOAA 21 (JPSS-2)
#Configuration: NOAA 21
#almurnet v.1.7.20251203
#Start time: 2026-01-13 01:23:43

#Version: 2.0.20230620
#Station: T1
#Location: 37.570604 lon 55.790049 lat
#TLE: 1 54234U 22150A   26012.26378519  .00000063  00000+0  50547-4 0  9993
#TLE: 2 54234  98.7495 313.1967 0000726 309.1075  51.0036 14.19534275164425

#Time	Az	El	Level	Level2	SNR	BER	BlckErr	Temp	State	Recorded	gain1	gain2
2026-01-13 01:23:43.86	6.36	5.00	-50.2	-63.7	3.8	1.49e+00	0	37	0	0	71	17605
2026-01-13 01:23:46.84	6.11	5.18	-49.4	-63.3	3.8	1.49e+00	0	37	104	0	70	17727
2026-01-13 01:23:49.82	5.87	5.36	-49.5	-63.3	3.8	1.49e+00	0	37	104	0	70	17762
2026-01-13 01:23:52.80	5.62	5.54	-49.5	-63.3	3.8	1.49e+00	0	37	104	0	70	17760
2026-01-13 01:23:55.78	5.37	5.72	-49.5	-63.3	3.8	1.49e+00	0	37	104	0	70	17716
2026-01-13 01:23:58.76	5.11	5.90	-49.5	-63.2	3.8	1.49e+00	0	38	104	0	70	17671
2026-01-13 01:24:01.74	4.85	6.08	-49.4	-63.3	3.8	1.49e+00	0	38	104	0	70	17707
2026-01-13 01:24:04.72	4.59	6.27	-49.5	-63.3	3.8	1.49e+00	0	38	104	0	70	17803
2026-01-13 01:24:07.70	4.32	6.45	-49.3	-63.4	3.8	1.49e+00	0	38	104	0	70	17900
2026-01-13 01:24:10.68	4.05	6.64	-49.5	-63.3	3.8	1.49e+00	0	38	104	0	70	17782
2026-01-13 01:24:13.66	3.78	6.82	-49.5	-63.1	3.8	1.49e+00	0	38	104	0	70	17414
2026-01-13 01:24:16.64	3.50	7.01	-49.4	-62.7	3.8	1.49e+00	0	38	104	0	70	16564
2026-01-13 01:24:19.62	3.22	7.19	-49.4	-62.5	3.8	1.49e+00	0	38	104	0	70	16154
2026-01-13 01:24:22.60	2.94	7.38	-49.4	-62.2	3.8	1.49e+00	0	38	104	0	70	15620
2026-01-13 01:24:25.58	2.65	7.57	-49.3	-61.9	3.8	1.49e+00	0	38	104	0	70	15073
2026-01-13 01:24:28.56	2.36	7.76	-49.5	-62.9	3.8	1.49e+00	0	38	104	0	70	17004
2026-01-13 01:24:31.54	2.06	7.95	-49.3	-61.0	3.9	1.49e+00	0	38	104	0	70	13692
2026-01-13 01:24:34.52	1.76	8.14	-48.2	-54.7	7.3	1.80e-01	0	39	0	0	68	7399
2026-01-13 01:24:37.50	1.46	8.33	-46.9	-51.6	10.2	9.29e-03	0	38	0	0	65	6202
2026-01-13 01:24:40.48	1.15	8.52	-46.0	-49.6	12.4	2.10e-04	0	39	0	0	63	5525
2026-01-13 01:24:43.46	0.84	8.71	-45.6	-49.1	12.9	3.89e-05	0	39	0	0	62	5506
2026-01-13 01:24:46.45	0.52	8.91	-46.4	-50.4	11.6	3.16e-04	0	39	0	0	63	6023
2026-01-13 01:24:49.49	0.19	9.10	-46.8	-51.7	10.0	1.38e-01	0	39	0	0	65	6237
2026-01-13 01:24:52.49	359.87	9.30	-45.8	-50.2	11.6	2.64e-01	0	39	0	0	63	5903
2026-01-13 01:24:55.61	359.52	9.50	-43.7	-46.3	15.7	0.00e+00	0	39	0	0	59	4722
2026-01-13 01:24:58.55	359.19	9.69	-43.8	-46.5	15.5	0.00e+00	0	39	0	0	59	4832
2026-01-13 01:25:01.53	358.85	9.89	-43.7	-46.4	15.6	0.00e+00	0	39	0	0	59	4797
2026-01-13 01:25:04.52	358.50	10.09	-43.4	-46.1	15.9	0.00e+00	0	39	0	0	58	4890
2026-01-13 01:25:07.50	358.16	10.28	-43.5	-46.1	15.9	0.00e+00	0	39	0	0	58	4926
2026-01-13 01:25:10.49	357.80	10.48	-43.5	-46.3	15.8	0.00e+00	0	39	0	0	58	4990
2026-01-13 01:25:13.47	357.44	10.68	-43.5	-46.3	15.8	0.00e+00	0	39	0	0	58	4997
2026-01-13 01:25:16.46	357.08	10.88	-43.4	-46.1	16.0	0.00e+00	0	39	0	0	58	4906
2026-01-13 01:25:19.44	356.71	11.08	-43.1	-45.8	16.3	0.00e+00	0	39	0	0	58	4707
2026-01-13 01:25:22.43	356.33	11.28	-43.0	-45.7	16.4	0.00e+00	0	39	0	0	57	4943
2026-01-13 01:25:25.50	355.94	11.48	-42.9	-45.9	16.2	0.00e+00	0	39	0	0	57	5052
2026-01-13 01:25:28.48	355.56	11.68	-43.0	-46.0	16.1	0.00e+00	0	39	0	0	57	5134
2026-01-13 01:25:31.47	355.16	11.88	-42.5	-45.6	16.4	0.00e+00	0	39	0	0	57	4918
2026-01-13 01:25:34.45	354.77	12.09	-42.4	-45.6	16.5	0.00e+00	0	39	0	0	56	5182
2026-01-13 01:25:37.44	354.36	12.29	-42.4	-45.6	16.5	0.00e+00	0	39	0	0	56	5173
2026-01-13 01:25:40.42	353.96	12.49	-42.6	-45.8	16.3	0.00e+00	0	39	0	0	56	5318
2026-01-13 01:25:43.48	353.53	12.69	-42.7	-45.6	16.5	0.00e+00	0	39	0	0	56	5171
2026-01-13 01:25:46.46	353.11	12.90	-42.9	-45.5	16.6	0.00e+00	0	39	0	0	56	5156
2026-01-13 01:25:49.45	352.69	13.10	-43.0	-45.5	16.6	0.00e+00	0	39	0	0	56	5127
2026-01-13 01:25:52.43	352.26	13.30	-43.3	-45.7	16.4	0.00e+00	0	39	0	0	57	4964
2026-01-13 01:25:55.41	351.82	13.50	-43.5	-45.9	16.3	0.00e+00	0	39	0	0	57	5046
2026-01-13 01:25:58.40	351.38	13.70	-43.4	-45.7	16.5	0.00e+00	0	39	0	0	57	4972
2026-01-13 01:26:01.38	350.93	13.91	-43.2	-45.5	16.7	0.00e+00	0	39	0	0	57	4843
2026-01-13 01:26:04.45	350.46	14.11	-43.2	-45.6	16.5	0.00e+00	0	39	0	0	57	4919
2026-01-13 01:26:07.29	350.02	14.31	-43.2	-45.7	16.5	0.00e+00	0	39	0	0	57	4955
2026-01-13 01:26:10.42	349.53	14.52	-43.3	-45.7	16.4	0.00e+00	0	39	0	0	57	4977
2026-01-13 01:26:13.26	349.07	14.71	-43.2	-45.5	16.6	0.00e+00	0	39	0	0	57	4860
2026-01-13 01:26:16.47	348.55	14.92	-43.4	-45.8	16.4	0.00e+00	0	39	0	0	57	4992
2026-01-13 01:26:19.31	348.09	15.11	-43.5	-45.8	16.4	0.00e+00	0	39	0	0	57	5002
2026-01-13 01:26:22.39	347.58	15.32	-43.4	-45.7	16.5	0.00e+00	0	39	0	0	57	4971
2026-01-13 01:26:25.37	347.07	15.52	-43.4	-45.8	16.4	0.00e+00	0	39	0	0	57	5017
2026-01-13 01:26:28.35	346.57	15.72	-43.5	-45.9	16.3	0.00e+00	0	39	0	0	57	5098
2026-01-13 01:26:31.33	346.05	15.92	-43.4	-45.8	16.4	0.00e+00	0	39	0	0	57	5038
2026-01-13 01:26:34.37	345.52	16.12	-43.2	-45.5	16.7	0.00e+00	0	39	0	0	57	4868
2026-01-13 01:26:37.33	344.99	16.31	-43.2	-45.7	16.5	0.00e+00	0	39	0	0	57	4945
2026-01-13 01:26:40.46	344.43	16.52	-43.0	-45.5	16.8	0.00e+00	0	39	0	0	57	4850
2026-01-13 01:26:43.30	343.91	16.70	-42.6	-45.0	17.2	0.00e+00	0	40	0	0	57	4577
2026-01-13 01:26:46.43	343.33	16.90	-42.7	-45.0	17.1	0.00e+00	0	39	0	0	57	4585
2026-01-13 01:26:49.27	342.80	17.08	-42.9	-45.2	17.0	0.00e+00	0	39	0	0	57	4654
2026-01-13 01:26:52.52	342.18	17.29	-43.1	-45.2	17.0	0.00e+00	0	39	0	0	57	4668
2026-01-13 01:26:55.36	341.63	17.47	-43.1	-45.3	17.0	0.00e+00	0	39	0	0	57	4709
2026-01-13 01:26:58.75	340.97	17.68	-43.3	-45.5	16.7	0.00e+00	0	39	0	0	57	4851
2026-01-13 01:27:01.56	340.42	17.86	-43.3	-45.5	16.8	0.00e+00	0	39	0	0	57	4815
2026-01-13 01:27:04.84	339.76	18.06	-43.1	-45.4	16.9	0.00e+00	0	39	0	0	57	4765
2026-01-13 01:27:07.57	339.21	18.23	-43.2	-45.4	16.9	0.00e+00	0	39	0	0	57	4771
2026-01-13 01:27:11.14	338.48	18.44	-43.1	-45.3	17.0	0.00e+00	0	39	0	0	57	4712
2026-01-13 01:27:13.85	337.91	18.60	-42.8	-45.1	17.1	0.00e+00	0	39	0	0	57	4626
2026-01-13 01:27:17.31	337.19	18.81	-42.8	-45.1	17.1	0.00e+00	0	39	0	0	57	4618
2026-01-13 01:27:20.02	336.61	18.96	-42.9	-45.0	17.2	0.00e+00	0	40	0	0	57	4580
2026-01-13 01:27:23.31	335.90	19.15	-42.9	-45.0	17.2	0.00e+00	0	39	0	0	57	4585
2026-01-13 01:27:26.04	335.31	19.30	-42.8	-45.0	17.3	0.00e+00	0	40	0	0	57	4563
2026-01-13 01:27:29.33	334.58	19.48	-42.9	-45.0	17.2	0.00e+00	0	39	0	0	57	4576
2026-01-13 01:27:32.06	333.97	19.63	-42.7	-44.8	17.4	0.00e+00	0	39	0	0	57	4469
2026-01-13 01:27:35.42	333.22	19.81	-42.7	-44.8	17.4	0.00e+00	0	39	0	0	57	4486
2026-01-13 01:27:38.19	332.59	19.95	-42.7	-44.9	17.3	0.00e+00	0	39	0	0	57	4500
2026-01-13 01:27:41.47	331.84	20.12	-42.7	-44.8	17.4	0.00e+00	0	39	0	0	57	4473
2026-01-13 01:27:44.34	331.17	20.26	-42.7	-44.7	17.5	0.00e+00	0	39	0	0	57	4425
2026-01-13 01:27:47.91	330.33	20.44	-42.7	-44.7	17.5	0.00e+00	0	39	0	0	57	4434
2026-01-13 01:27:50.75	329.66	20.57	-42.5	-44.6	17.6	0.00e+00	0	39	0	0	57	4357
2026-01-13 01:27:53.88	328.91	20.71	-42.4	-44.5	17.7	0.00e+00	0	39	0	0	56	4595
2026-01-13 01:27:56.72	328.23	20.84	-42.6	-44.6	17.6	0.00e+00	0	40	0	0	56	4631
2026-01-13 01:28:00.00	327.43	20.98	-42.4	-44.4	17.8	0.00e+00	0	40	0	0	56	4531
2026-01-13 01:28:02.70	326.77	21.09	-42.1	-44.0	18.2	0.00e+00	0	40	0	0	56	4314
2026-01-13 01:28:06.28	325.88	21.23	-42.1	-44.1	18.1	0.00e+00	0	39	0	0	56	4373
2026-01-13 01:28:08.99	325.20	21.34	-42.2	-44.2	17.9	0.00e+00	0	39	0	0	56	4435
2026-01-13 01:28:12.28	324.38	21.46	-42.5	-44.5	17.7	0.00e+00	0	39	0	0	56	4595
2026-01-13 01:28:15.01	323.69	21.56	-42.4	-44.4	17.8	0.00e+00	0	39	0	0	56	4524
2026-01-13 01:28:18.33	322.84	21.67	-42.4	-44.4	17.8	0.00e+00	0	39	0	0	56	4537
2026-01-13 01:28:21.06	322.14	21.75	-42.5	-44.6	17.7	0.00e+00	0	39	0	0	56	4605
2026-01-13 01:28:24.36	321.29	21.85	-42.6	-44.7	17.6	0.00e+00	0	39	0	0	56	4664
2026-01-13 01:28:27.07	320.58	21.93	-42.4	-44.4	17.8	0.00e+00	0	39	0	0	56	4524
2026-01-13 01:28:30.35	319.73	22.02	-42.4	-44.4	17.8	0.00e+00	0	39	0	0	56	4520
2026-01-13 01:28:33.07	319.01	22.08	-42.6	-44.6	17.6	0.00e+00	0	40	0	0	56	4623
2026-01-13 01:28:36.96	317.99	22.17	-42.5	-44.5	17.8	0.00e+00	0	39	0	0	56	4559
2026-01-13 01:28:39.72	317.26	22.23	-42.4	-44.4	17.9	0.00e+00	0	40	0	0	56	4500
2026-01-13 01:28:43.02	316.38	22.29	-42.4	-44.4	17.8	0.00e+00	0	40	0	0	56	4500
2026-01-13 01:28:45.76	315.65	22.33	-42.4	-44.3	17.9	0.00e+00	0	40	0	0	56	4490
2026-01-13 01:28:49.38	314.68	22.39	-42.6	-44.6	17.7	0.00e+00	0	39	0	0	56	4613
2026-01-13 01:28:52.28	313.90	22.42	-42.6	-44.7	17.7	0.00e+00	0	39	0	0	56	4653
2026-01-13 01:28:56.10	312.87	22.46	-42.7	-44.7	17.6	0.00e+00	0	39	0	0	56	4674
2026-01-13 01:28:59.08	312.07	22.48	-42.6	-44.6	17.7	0.00e+00	0	40	0	0	56	4614
2026-01-13 01:29:02.02	311.27	22.50	-42.2	-44.2	18.0	0.00e+00	0	39	0	0	56	4398
2026-01-13 01:29:05.15	310.43	22.51	-42.2	-44.1	18.1	0.00e+00	0	39	0	0	56	4356
2026-01-13 01:29:08.34	309.57	22.52	-42.5	-44.5	17.8	0.00e+00	0	39	0	0	56	4565
2026-01-13 01:29:11.18	308.80	22.52	-42.7	-44.8	17.5	0.00e+00	0	40	0	0	56	4707
2026-01-13 01:29:14.30	307.95	22.51	-42.6	-44.6	17.7	0.00e+00	0	40	0	0	56	4620
2026-01-13 01:29:17.16	307.18	22.49	-42.4	-44.4	17.9	0.00e+00	0	40	0	0	56	4499
2026-01-13 01:29:20.29	306.33	22.47	-42.3	-44.2	18.0	0.00e+00	0	39	0	0	56	4394
2026-01-13 01:29:23.21	305.55	22.45	-42.5	-44.4	17.8	0.00e+00	0	39	0	0	56	4533
2026-01-13 01:29:26.37	304.70	22.41	-42.4	-44.3	17.9	0.00e+00	0	39	0	0	56	4486
2026-01-13 01:29:29.21	303.93	22.38	-42.5	-44.5	17.7	0.00e+00	0	40	0	0	56	4563
2026-01-13 01:29:32.67	303.01	22.33	-42.9	-44.9	17.3	0.00e+00	0	39	0	0	56	4809
2026-01-13 01:29:35.40	302.28	22.28	-42.6	-44.6	17.6	0.00e+00	0	39	0	0	56	4626
2026-01-13 01:29:38.62	301.42	22.22	-42.6	-44.5	17.7	0.00e+00	0	39	0	0	56	4587
2026-01-13 01:29:41.72	300.60	22.16	-42.3	-44.2	18.0	0.00e+00	0	39	0	0	56	4411
2026-01-13 01:29:44.80	299.79	22.09	-42.4	-44.4	17.8	0.00e+00	0	39	0	0	56	4512
2026-01-13 01:29:47.81	299.00	22.01	-42.7	-44.7	17.5	0.00e+00	0	39	0	0	56	4670
2026-01-13 01:29:50.80	298.21	21.93	-42.6	-44.6	17.6	0.00e+00	0	39	0	0	56	4616
2026-01-13 01:29:53.78	297.44	21.85	-42.3	-44.3	17.9	0.00e+00	0	39	0	0	56	4459
2026-01-13 01:29:56.78	296.66	21.76	-42.4	-44.4	17.8	0.00e+00	0	39	0	0	56	4512
2026-01-13 01:29:59.87	295.87	21.66	-42.5	-44.4	17.7	0.00e+00	0	39	0	0	56	4543
2026-01-13 01:30:02.72	295.14	21.56	-42.6	-44.5	17.6	0.00e+00	0	39	0	0	56	4584
2026-01-13 01:30:05.86	294.34	21.45	-42.7	-44.7	17.5	0.00e+00	0	40	0	0	56	4657
2026-01-13 01:30:08.84	293.59	21.34	-42.6	-44.5	17.7	0.00e+00	0	39	0	0	56	4584
2026-01-13 01:30:11.83	292.85	21.23	-42.7	-44.7	17.5	0.00e+00	0	39	0	0	56	4678
2026-01-13 01:30:14.81	292.11	21.11	-42.8	-44.8	17.4	0.00e+00	0	40	0	0	56	4724
2026-01-13 01:30:17.88	291.35	20.98	-42.7	-44.7	17.6	0.00e+00	0	39	0	0	56	4664
2026-01-13 01:30:20.83	290.63	20.85	-42.8	-44.8	17.4	0.00e+00	0	39	0	0	56	4718
2026-01-13 01:30:23.96	289.87	20.72	-42.7	-44.7	17.5	0.00e+00	0	39	0	0	56	4663
2026-01-13 01:30:26.80	289.19	20.59	-42.7	-44.8	17.4	0.00e+00	0	39	0	0	56	4709
2026-01-13 01:30:29.92	288.45	20.44	-42.5	-44.5	17.7	0.00e+00	0	39	0	0	56	4565
2026-01-13 01:30:32.77	287.78	20.30	-42.5	-44.4	17.8	0.00e+00	0	40	0	0	56	4534
2026-01-13 01:30:36.08	287.00	20.14	-42.4	-44.4	17.8	0.00e+00	0	39	0	0	56	4514
2026-01-13 01:30:38.97	286.34	19.99	-42.2	-44.1	18.1	0.00e+00	0	39	0	0	56	4360
2026-01-13 01:30:42.29	285.58	19.82	-42.2	-44.1	18.1	0.00e+00	0	39	0	0	56	4371
2026-01-13 01:30:45.00	284.96	19.68	-42.7	-44.7	17.6	0.00e+00	0	39	0	0	56	4655
2026-01-13 01:30:48.29	284.23	19.50	-43.0	-45.1	17.2	0.00e+00	0	39	0	0	56	4877
2026-01-13 01:30:51.12	283.60	19.34	-43.0	-45.1	17.1	0.00e+00	0	39	0	0	56	4894
2026-01-13 01:30:54.24	282.92	19.17	-43.0	-45.1	17.1	0.00e+00	0	39	0	0	56	4880
2026-01-13 01:30:57.08	282.30	19.00	-43.0	-45.0	17.1	0.00e+00	0	40	0	0	56	4869
2026-01-13 01:31:00.23	281.63	18.82	-42.8	-44.8	17.4	0.00e+00	0	39	0	0	56	4748
2026-01-13 01:31:03.13	281.01	18.65	-43.1	-45.2	17.0	0.00e+00	0	39	0	0	56	4983
2026-01-13 01:31:06.31	280.35	18.46	-42.7	-44.8	17.3	0.00e+00	0	40	0	0	56	4716
2026-01-13 01:31:09.23	279.74	18.29	-42.5	-44.5	17.6	0.00e+00	0	40	0	0	56	4580
2026-01-13 01:31:12.35	279.11	18.10	-42.5	-44.4	17.7	0.00e+00	0	39	0	0	56	4541
2026-01-13 01:31:15.19	278.53	17.92	-42.7	-44.7	17.5	0.00e+00	0	40	0	0	56	4665
2026-01-13 01:31:18.70	277.83	17.70	-42.5	-44.5	17.6	0.00e+00	0	39	0	0	56	4579
2026-01-13 01:31:21.40	277.30	17.54	-42.7	-44.7	17.4	0.00e+00	0	39	0	0	56	4704
2026-01-13 01:31:24.68	276.67	17.33	-43.1	-45.1	17.1	0.00e+00	0	39	0	0	56	4914
2026-01-13 01:31:27.72	276.08	17.13	-43.0	-45.1	17.1	0.00e+00	0	39	0	0	56	4902
2026-01-13 01:31:30.94	275.47	16.93	-42.6	-44.6	17.5	0.00e+00	0	39	0	0	56	4645
2026-01-13 01:31:33.83	274.93	16.74	-42.8	-44.8	17.4	0.00e+00	0	39	0	0	56	4736
2026-01-13 01:31:37.11	274.33	16.52	-43.1	-45.2	16.9	0.00e+00	0	39	0	0	56	4977
2026-01-13 01:31:39.89	273.83	16.34	-43.4	-45.5	16.6	0.00e+00	0	39	0	0	57	4868
2026-01-13 01:31:43.12	273.25	16.13	-43.5	-45.7	16.5	0.00e+00	0	40	0	0	57	4964
2026-01-13 01:31:45.96	272.74	15.94	-43.5	-45.7	16.5	0.00e+00	0	39	0	0	57	4953
2026-01-13 01:31:49.12	272.19	15.73	-42.9	-45.0	17.2	0.00e+00	0	39	0	0	57	4562
2026-01-13 01:31:51.96	271.70	15.54	-42.9	-45.0	17.2	0.00e+00	0	39	0	0	57	4549
2026-01-13 01:31:55.09	271.17	15.33	-42.6	-44.6	17.5	0.00e+00	0	39	0	0	57	4369
2026-01-13 01:31:57.94	270.69	15.14	-42.9	-45.0	17.1	0.00e+00	0	39	0	0	57	4561
2026-01-13 01:32:01.06	270.18	14.93	-43.4	-45.6	16.5	0.00e+00	0	40	0	0	57	4910
2026-01-13 01:32:04.39	269.64	14.71	-43.4	-45.6	16.5	0.00e+00	0	39	0	0	57	4912
2026-01-13 01:32:07.30	269.17	14.51	-43.2	-45.2	16.9	0.00e+00	0	39	0	0	57	4705
2026-01-13 01:32:10.59	268.65	14.29	-43.0	-45.0	17.1	0.00e+00	0	39	0	0	57	4595
2026-01-13 01:32:13.31	268.22	14.10	-43.3	-45.4	16.7	0.00e+00	0	39	0	0	57	4787
2026-01-13 01:32:16.59	267.72	13.88	-43.6	-45.9	16.2	0.00e+00	0	39	0	0	57	5043
2026-01-13 01:32:19.49	267.28	13.68	-43.8	-46.1	16.0	0.00e+00	0	40	0	0	58	4882
2026-01-13 01:32:22.48	266.83	13.48	-43.4	-45.6	16.6	0.00e+00	0	39	0	0	58	4604
2026-01-13 01:32:25.47	266.39	13.28	-43.2	-45.3	16.8	0.00e+00	0	39	0	0	58	4482
2026-01-13 01:32:28.42	265.96	13.08	-43.2	-45.4	16.7	0.00e+00	0	39	0	0	58	4496
2026-01-13 01:32:31.48	265.52	12.87	-43.5	-45.7	16.3	0.00e+00	0	39	0	0	58	4705
2026-01-13 01:32:34.33	265.12	12.67	-43.9	-46.2	15.9	0.00e+00	0	39	0	0	58	4952
2026-01-13 01:32:37.48	264.68	12.46	-44.0	-46.4	15.7	0.00e+00	0	39	0	0	58	5047
2026-01-13 01:32:40.39	264.27	12.26	-43.9	-46.2	15.9	0.00e+00	0	39	0	0	58	4932
2026-01-13 01:32:43.51	263.85	12.05	-43.5	-45.8	16.2	0.00e+00	0	39	0	0	58	4719
2026-01-13 01:32:46.42	263.46	11.86	-43.5	-45.9	16.1	0.00e+00	0	39	0	0	58	4771
2026-01-13 01:32:49.69	263.03	11.63	-43.7	-46.0	16.0	0.00e+00	0	40	0	0	58	4853
2026-01-13 01:32:52.50	262.66	11.45	-44.0	-46.3	15.7	0.00e+00	0	39	0	0	58	5029
2026-01-13 01:32:55.66	262.26	11.23	-44.1	-46.6	15.5	0.00e+00	0	39	0	0	59	4871
2026-01-13 01:32:58.86	261.85	11.02	-44.3	-46.8	15.2	0.00e+00	0	39	0	0	59	4997
2026-01-13 01:33:01.83	261.48	10.82	-44.3	-46.8	15.2	0.00e+00	0	39	0	0	59	4996
2026-01-13 01:33:04.96	261.10	10.61	-44.2	-46.6	15.4	0.00e+00	0	39	0	0	59	4906
2026-01-13 01:33:07.80	260.75	10.42	-44.3	-46.8	15.2	7.00e-07	0	39	0	0	59	5037
2026-01-13 01:33:10.92	260.38	10.21	-44.6	-47.3	14.7	0.00e+00	0	39	0	0	59	5290
2026-01-13 01:33:13.86	260.03	10.02	-44.8	-47.6	14.4	0.00e+00	0	39	0	0	60	5195
2026-01-13 01:33:17.12	259.66	9.80	-44.6	-47.3	14.7	0.00e+00	0	39	0	0	60	4991
2026-01-13 01:33:19.97	259.33	9.62	-44.4	-47.0	14.9	1.50e-06	0	39	0	0	60	4870
2026-01-13 01:33:23.09	258.98	9.41	-44.1	-46.6	15.4	0.00e+00	0	39	0	0	60	4631
2026-01-13 01:33:25.93	258.66	9.22	-44.2	-46.7	15.3	0.00e+00	0	39	0	0	60	4677
2026-01-13 01:33:29.06	258.31	9.02	-44.5	-47.1	14.9	0.00e+00	0	39	0	0	60	4923
2026-01-13 01:33:31.90	258.01	8.84	-50.6	-63.7	3.8	1.49e+00	0	40	104	0	71	17585
2026-01-13 01:33:35.02	257.67	8.63	-50.8	-63.9	3.8	1.49e+00	0	39	104	0	72	16987
2026-01-13 01:33:37.86	257.37	8.45	-51.0	-64.0	3.8	1.49e+00	0	39	104	0	72	17189
2026-01-13 01:33:40.98	257.05	8.25	-50.9	-64.0	3.8	1.49e+00	0	40	104	0	72	17214
2026-01-13 01:33:43.82	256.75	8.07	-50.8	-64.0	3.8	1.49e+00	0	40	104	0	72	17238
2026-01-13 01:33:46.94	256.44	7.87	-50.9	-64.0	3.8	1.49e+00	0	39	104	0	72	17253
2026-01-13 01:33:49.78	256.15	7.69	-50.9	-64.0	3.8	1.49e+00	0	39	104	0	72	17209
2026-01-13 01:33:52.90	255.84	7.49	-50.8	-64.0	3.8	1.49e+00	0	39	104	0	72	17132
2026-01-13 01:33:55.74	255.57	7.31	-50.8	-63.9	3.8	1.49e+00	0	39	104	0	72	17071
2026-01-13 01:33:58.86	255.27	7.11	-50.8	-64.0	3.8	1.49e+00	0	40	104	0	72	17108
2026-01-13 01:34:01.70	255.00	6.93	-50.8	-64.0	3.8	1.49e+00	0	40	104	0	72	17103
2026-01-13 01:34:04.82	254.71	6.74	-50.8	-63.9	3.8	1.49e+00	0	39	104	0	72	17020
2026-01-13 01:34:07.66	254.44	6.56	-50.8	-63.9	3.8	1.49e+00	0	39	104	0	72	17019
2026-01-13 01:34:10.78	254.16	6.37	-50.8	-63.9	3.8	1.49e+00	0	39	104	0	72	17076
2026-01-13 01:34:13.62	253.90	6.19	-50.8	-63.9	3.8	1.49e+00	0	39	104	0	72	17024
2026-01-13 01:34:16.74	253.62	6.00	-50.8	-64.0	3.8	1.49e+00	0	39	104	0	72	17092
2026-01-13 01:34:19.58	253.37	5.82	-50.8	-64.0	3.8	1.49e+00	0	39	104	0	72	17114
2026-01-13 01:34:22.71	253.10	5.63	-50.8	-63.9	3.8	1.49e+00	0	39	104	0	72	17038
2026-01-13 01:34:25.55	252.86	5.46	-50.8	-63.9	3.8	1.49e+00	0	40	104	0	72	16989
2026-01-13 01:34:28.67	252.60	5.27	-50.8	-63.9	3.8	1.49e+00	0	39	104	0	72	17063
2026-01-13 01:34:31.51	252.36	5.10	-50.8	-63.9	3.8	1.49e+00	0	40	104	0	72	17036

#Closed at: 2026-01-13 01:34:34
#Recorded file [0 MB]: D:/Data/31040_260113_042343.dat