passes_logs/2026/01/13/T1/T1__20260113_093342_NOAA_21_JPSS-2_rec.log

#Pass ID: 20260113_093342_NOAA 21 (JPSS-2)
#Satellite: NOAA 21 (JPSS-2)
#Configuration: NOAA 21
#almurnet v.1.7.20251203
#Start time: 2026-01-13 09:33:43

#Version: 2.0.20230620
#Station: T1
#Location: 37.570604 lon 55.790049 lat
#TLE: 1 54234U 22150A   26012.26378519  .00000063  00000+0  50547-4 0  9993
#TLE: 2 54234  98.7495 313.1967 0000726 309.1075  51.0036 14.19534275164425

#Time	Az	El	Level	Level2	SNR	BER	BlckErr	Temp	State	Recorded	gain1	gain2
2026-01-13 09:33:43.82	148.84	5.08	-49.8	-62.8	3.8	1.49e+00	0	37	0	0	71	15865
2026-01-13 09:33:46.80	148.79	5.30	-49.8	-62.9	3.8	1.49e+00	0	37	104	0	71	16007
2026-01-13 09:33:49.77	148.73	5.51	-49.7	-62.7	3.8	1.49e+00	0	37	104	0	71	15669
2026-01-13 09:33:52.75	148.68	5.73	-49.7	-62.3	3.8	1.49e+00	0	37	104	0	71	14902
2026-01-13 09:33:55.73	148.62	5.95	-49.7	-62.0	3.8	1.49e+00	0	37	104	0	71	14424
2026-01-13 09:33:58.72	148.56	6.17	-49.7	-61.8	3.8	1.49e+00	0	37	104	0	71	14048
2026-01-13 09:34:01.70	148.50	6.39	-49.6	-60.9	3.8	1.49e+00	0	37	104	0	71	12779
2026-01-13 09:34:04.68	148.44	6.62	-49.3	-58.4	4.5	1.42e+00	0	38	104	0	70	10124
2026-01-13 09:34:07.66	148.38	6.85	-48.7	-55.8	6.0	3.60e-01	0	37	0	0	69	7929
2026-01-13 09:34:10.64	148.32	7.07	-48.1	-53.6	7.9	8.06e-02	0	38	0	0	68	6539
2026-01-13 09:34:13.62	148.25	7.30	-46.7	-50.8	10.6	5.99e-03	0	38	0	0	65	5643
2026-01-13 09:34:16.60	148.19	7.54	-45.8	-49.2	12.4	1.59e-04	0	38	0	0	63	5228
2026-01-13 09:34:19.58	148.12	7.77	-45.0	-47.9	13.6	1.29e-05	0	38	0	0	62	4807
2026-01-13 09:34:22.56	148.05	8.01	-44.8	-47.6	13.9	1.50e-06	0	38	0	0	61	4907
2026-01-13 09:34:25.54	147.98	8.25	-45.5	-48.6	12.9	2.74e-05	0	38	0	0	61	5519
2026-01-13 09:34:28.52	147.91	8.49	-46.9	-51.1	10.3	3.27e-03	0	38	0	0	64	6168
2026-01-13 09:34:31.50	147.84	8.73	-48.6	-55.9	5.8	3.31e-01	0	38	0	0	67	8999
2026-01-13 09:34:34.48	147.77	8.98	-49.7	-62.2	3.8	1.49e+00	0	38	104	0	70	15602
2026-01-13 09:34:37.46	147.70	9.23	-49.6	-61.0	3.8	6.93e-02	0	38	104	0	69	14533
2026-01-13 09:34:40.45	147.62	9.48	-49.6	-61.5	3.8	1.49e+00	0	38	104	0	70	14475
2026-01-13 09:34:43.43	147.54	9.73	-49.6	-61.8	3.8	1.49e+00	0	38	104	0	70	15051
2026-01-13 09:34:46.42	147.46	9.99	-49.7	-61.9	3.8	1.49e+00	0	38	104	0	70	15209
2026-01-13 09:34:49.40	147.38	10.25	-47.7	-52.8	8.7	4.26e-02	0	38	0	0	66	6673
2026-01-13 09:34:52.32	147.30	10.51	-46.6	-50.5	11.1	2.25e-03	0	38	0	0	65	5457
2026-01-13 09:34:55.67	147.21	10.80	-44.4	-47.0	14.8	0.00e+00	0	38	0	0	60	4844
2026-01-13 09:34:58.43	147.13	11.05	-43.5	-45.8	15.9	1.38e-03	0	38	0	0	59	4481
2026-01-13 09:35:01.76	147.04	11.35	-43.4	-45.7	16.1	0.00e+00	0	38	0	0	58	4661
2026-01-13 09:35:04.57	146.95	11.61	-43.3	-45.5	16.3	0.00e+00	0	38	0	0	58	4574
2026-01-13 09:35:07.70	146.86	11.90	-43.2	-45.4	16.4	0.00e+00	0	39	0	0	58	4542
2026-01-13 09:35:10.55	146.77	12.17	-43.1	-45.3	16.5	0.00e+00	0	38	0	0	58	4487
2026-01-13 09:35:13.68	146.67	12.46	-43.0	-45.2	16.7	0.00e+00	0	38	0	0	58	4399
2026-01-13 09:35:16.52	146.58	12.74	-42.8	-45.0	16.8	0.00e+00	0	39	0	0	57	4584
2026-01-13 09:35:19.64	146.48	13.04	-42.8	-45.0	16.8	0.00e+00	0	39	0	0	57	4593
2026-01-13 09:35:22.71	146.37	13.34	-42.8	-45.0	16.8	0.00e+00	0	39	0	0	57	4579
2026-01-13 09:35:25.79	146.27	13.65	-42.7	-44.8	17.0	0.00e+00	0	38	0	0	57	4469
2026-01-13 09:35:28.81	146.16	13.95	-42.7	-44.8	17.0	0.00e+00	0	39	0	0	57	4469
2026-01-13 09:35:31.79	146.05	14.25	-42.6	-44.6	17.2	0.00e+00	0	39	0	0	57	4385
2026-01-13 09:35:34.78	145.94	14.56	-42.7	-44.7	17.1	0.00e+00	0	38	0	0	57	4432
2026-01-13 09:35:37.77	145.83	14.87	-42.7	-44.7	17.1	0.00e+00	0	39	0	0	57	4425
2026-01-13 09:35:40.86	145.71	15.20	-42.6	-44.7	17.2	0.00e+00	0	39	0	0	57	4396
2026-01-13 09:35:43.81	145.60	15.52	-42.6	-44.6	17.2	0.00e+00	0	39	0	0	57	4374
2026-01-13 09:35:46.94	145.47	15.86	-42.6	-44.7	17.2	0.00e+00	0	39	0	0	57	4393
2026-01-13 09:35:49.79	145.35	16.17	-42.7	-44.7	17.1	0.00e+00	0	39	0	0	57	4440
2026-01-13 09:35:52.91	145.22	16.52	-42.6	-44.6	17.3	0.00e+00	0	39	0	0	57	4358
2026-01-13 09:35:55.77	145.10	16.84	-42.7	-44.8	17.1	0.00e+00	0	39	0	0	57	4470
2026-01-13 09:35:58.96	144.96	17.20	-42.7	-44.7	17.1	0.00e+00	0	39	0	0	57	4433
2026-01-13 09:36:01.82	144.83	17.54	-42.7	-44.8	17.1	0.00e+00	0	39	0	0	57	4457
2026-01-13 09:36:05.09	144.68	17.92	-42.8	-44.9	17.0	0.00e+00	0	39	0	0	57	4532
2026-01-13 09:36:07.81	144.55	18.24	-42.9	-45.0	16.9	0.00e+00	0	39	0	0	57	4580
2026-01-13 09:36:11.01	144.39	18.63	-42.9	-45.1	16.9	0.00e+00	0	39	0	0	57	4621
2026-01-13 09:36:14.01	144.24	19.00	-42.9	-45.1	16.9	0.00e+00	0	39	0	0	57	4602
2026-01-13 09:36:16.99	144.09	19.37	-42.8	-44.9	17.1	0.00e+00	0	39	0	0	57	4518
2026-01-13 09:36:19.98	143.93	19.75	-42.7	-44.8	17.2	0.00e+00	0	39	0	0	57	4446
2026-01-13 09:36:22.97	143.77	20.13	-42.5	-44.6	17.4	0.00e+00	0	39	0	0	57	4366
2026-01-13 09:36:25.95	143.60	20.52	-42.4	-44.5	17.5	0.00e+00	0	39	0	0	56	4557
2026-01-13 09:36:28.93	143.43	20.91	-42.3	-44.3	17.6	0.00e+00	0	39	0	0	56	4487
2026-01-13 09:36:31.92	143.26	21.31	-42.2	-44.1	17.8	0.00e+00	0	39	0	0	56	4381
2026-01-13 09:36:34.91	143.08	21.72	-41.8	-43.7	18.0	0.00e+00	0	39	0	0	55	4417
2026-01-13 09:36:37.89	142.89	22.13	-41.8	-43.7	18.1	0.00e+00	0	39	0	0	55	4423
2026-01-13 09:36:40.87	142.70	22.55	-41.5	-43.3	18.4	0.00e+00	0	39	0	0	55	4234
2026-01-13 09:36:43.86	142.51	22.97	-41.4	-43.2	18.5	0.00e+00	0	39	0	0	54	4424
2026-01-13 09:36:46.84	142.31	23.40	-41.2	-43.1	18.6	0.00e+00	0	39	0	0	54	4363
2026-01-13 09:36:49.84	142.10	23.85	-41.3	-43.1	18.6	0.00e+00	0	39	0	0	54	4377
2026-01-13 09:36:53.11	141.86	24.33	-41.4	-43.3	18.5	0.00e+00	0	39	0	0	54	4443
2026-01-13 09:36:56.27	141.63	24.82	-41.6	-43.4	18.4	0.00e+00	0	39	0	0	54	4525
2026-01-13 09:36:59.11	141.42	25.25	-41.9	-43.8	18.0	0.00e+00	0	39	0	0	54	4751
2026-01-13 09:37:02.31	141.16	25.76	-42.0	-43.9	17.9	0.00e+00	0	39	0	0	54	4805
2026-01-13 09:37:05.15	140.93	26.21	-42.2	-44.1	17.7	0.00e+00	0	39	0	0	55	4649
2026-01-13 09:37:08.55	140.65	26.77	-42.5	-44.6	17.3	0.00e+00	0	39	0	0	55	4884
2026-01-13 09:37:11.45	140.40	27.25	-43.0	-45.0	17.0	0.00e+00	0	39	0	0	56	4866
2026-01-13 09:37:14.86	140.10	27.82	-43.1	-45.2	16.9	0.00e+00	0	39	0	0	56	4942
2026-01-13 09:37:17.58	139.84	28.29	-43.2	-45.3	16.8	0.00e+00	0	39	0	0	56	4991
2026-01-13 09:37:20.85	139.53	28.86	-43.0	-45.1	16.9	0.00e+00	0	39	0	0	57	4635
2026-01-13 09:37:23.56	139.26	29.34	-42.9	-45.0	17.1	0.00e+00	0	39	0	0	57	4581
2026-01-13 09:37:27.11	138.90	29.98	-42.5	-44.5	17.5	0.00e+00	0	39	0	0	57	4333
2026-01-13 09:37:29.83	138.61	30.48	-42.4	-44.4	17.6	0.00e+00	0	39	0	0	56	4498
2026-01-13 09:37:33.11	138.25	31.10	-42.4	-44.3	17.7	0.00e+00	0	39	0	0	56	4486
2026-01-13 09:37:35.91	137.93	31.63	-42.5	-44.5	17.7	0.00e+00	0	39	0	0	56	4548
2026-01-13 09:37:39.04	137.56	32.24	-42.6	-44.6	17.6	0.00e+00	0	39	0	0	56	4625
2026-01-13 09:37:41.89	137.21	32.80	-42.6	-44.6	17.6	0.00e+00	0	39	0	0	56	4619
2026-01-13 09:37:45.09	136.80	33.44	-42.9	-44.9	17.3	0.00e+00	0	39	0	0	56	4782
2026-01-13 09:37:47.94	136.43	34.02	-43.1	-45.2	17.0	0.00e+00	0	39	0	0	56	4937
2026-01-13 09:37:51.06	136.00	34.67	-43.4	-45.6	16.6	0.00e+00	0	39	0	0	57	4903
2026-01-13 09:37:53.90	135.59	35.27	-43.8	-46.1	16.2	0.00e+00	0	39	0	0	58	4893
2026-01-13 09:37:57.03	135.13	35.95	-44.3	-46.7	15.6	0.00e+00	0	39	0	0	59	4931
2026-01-13 09:37:59.93	134.68	36.58	-44.4	-46.9	15.4	0.00e+00	0	39	0	0	59	5053
2026-01-13 09:38:03.06	134.17	37.28	-44.7	-47.2	15.1	7.00e-07	0	39	0	0	60	4966
2026-01-13 09:38:05.90	133.69	37.92	-44.9	-47.4	14.9	7.00e-07	0	39	0	0	60	5075
2026-01-13 09:38:09.03	133.14	38.64	-44.7	-47.3	15.1	0.00e+00	0	39	0	0	60	4996
2026-01-13 09:38:11.87	132.62	39.30	-44.8	-47.4	14.9	0.00e+00	0	39	0	0	60	5047
2026-01-13 09:38:15.00	132.02	40.05	-45.1	-47.8	14.5	7.00e-07	0	39	0	0	60	5313
2026-01-13 09:38:17.84	131.45	40.73	-45.0	-47.6	14.8	0.00e+00	0	39	0	0	60	5189
2026-01-13 09:38:20.97	130.80	41.50	-44.6	-47.0	15.3	0.00e+00	0	39	0	0	60	4861
2026-01-13 09:38:23.81	130.17	42.20	-44.4	-46.8	15.5	0.00e+00	0	39	0	0	60	4734
2026-01-13 09:38:26.94	129.45	42.99	-45.0	-47.7	14.6	0.00e+00	0	39	0	0	60	5245
2026-01-13 09:38:29.88	128.74	43.74	-45.8	-48.9	13.5	1.14e-05	0	39	0	0	62	5346
2026-01-13 09:38:33.11	127.92	44.58	-45.1	-47.7	14.6	7.00e-07	0	39	0	0	62	4682
2026-01-13 09:38:35.95	127.17	45.32	-44.4	-46.8	15.4	0.00e+00	0	39	0	0	60	4749
2026-01-13 09:38:39.08	126.29	46.15	-45.0	-47.6	14.7	0.00e+00	0	39	0	0	60	5204
2026-01-13 09:38:42.03	125.42	46.94	-45.0	-47.6	14.7	7.00e-07	0	39	0	0	60	5178
2026-01-13 09:38:45.02	124.49	47.75	-44.3	-46.7	15.7	0.00e+00	0	39	0	0	60	4667
2026-01-13 09:38:48.00	123.51	48.56	-44.0	-46.3	16.0	0.00e+00	0	39	0	0	59	4732
2026-01-13 09:38:50.99	122.47	49.38	-44.3	-46.7	15.6	0.00e+00	0	39	0	0	59	4954
2026-01-13 09:38:54.00	121.38	50.21	-44.3	-46.7	15.6	0.00e+00	0	39	0	0	59	4959
2026-01-13 09:38:56.99	120.22	51.04	-43.9	-46.1	16.2	0.00e+00	0	39	0	0	59	4608
2026-01-13 09:38:59.97	119.01	51.87	-43.9	-46.1	16.2	0.00e+00	0	39	0	0	59	4646
2026-01-13 09:39:02.95	117.72	52.69	-43.5	-45.7	16.6	0.00e+00	0	39	0	0	59	4401
2026-01-13 09:39:05.97	116.35	53.53	-43.1	-45.2	17.0	0.00e+00	0	39	0	0	58	4436
2026-01-13 09:39:08.98	114.89	54.36	-42.8	-44.8	17.3	0.00e+00	0	39	0	0	57	4485
2026-01-13 09:39:11.97	113.36	55.17	-43.2	-45.3	16.9	0.00e+00	0	39	0	0	57	4716
2026-01-13 09:39:14.95	111.74	55.98	-43.0	-45.0	17.2	0.00e+00	0	39	0	0	57	4580
2026-01-13 09:39:17.93	110.03	56.77	-43.0	-45.1	17.1	0.00e+00	0	39	0	0	57	4611
2026-01-13 09:39:20.98	108.18	57.56	-42.6	-44.6	17.7	0.00e+00	0	39	0	0	57	4356
2026-01-13 09:39:23.97	106.25	58.32	-42.4	-44.3	17.9	0.00e+00	0	39	0	0	56	4456
2026-01-13 09:39:26.95	104.22	59.06	-42.4	-44.3	17.9	0.00e+00	0	39	0	0	56	4479
2026-01-13 09:39:29.94	102.06	59.77	-42.1	-44.0	18.0	0.00e+00	0	39	0	0	56	4324
2026-01-13 09:39:32.92	99.80	60.45	-41.8	-43.7	18.3	0.00e+00	0	39	0	0	55	4392
2026-01-13 09:39:35.93	97.39	61.09	-41.7	-43.6	18.4	0.00e+00	0	39	0	0	55	4346
2026-01-13 09:39:38.98	94.82	61.71	-41.8	-43.7	18.4	0.00e+00	0	39	0	0	55	4400
2026-01-13 09:39:41.96	92.18	62.26	-41.7	-43.6	18.4	0.00e+00	0	39	0	0	55	4352
2026-01-13 09:39:44.95	89.42	62.77	-41.3	-43.1	18.8	0.00e+00	0	39	0	0	54	4350
2026-01-13 09:39:47.94	86.55	63.22	-41.0	-42.8	19.0	0.00e+00	0	39	0	0	53	4456
2026-01-13 09:39:50.98	83.53	63.62	-41.3	-43.2	18.8	0.00e+00	0	39	0	0	53	4652
2026-01-13 09:39:53.98	80.44	63.95	-41.0	-42.8	19.2	0.00e+00	0	39	0	0	54	4198
2026-01-13 09:39:56.96	77.31	64.21	-41.0	-42.7	19.1	0.00e+00	0	39	0	0	53	4439
2026-01-13 09:39:59.95	74.09	64.40	-41.2	-43.1	18.8	0.00e+00	0	39	0	0	53	4600
2026-01-13 09:40:02.94	70.84	64.52	-41.3	-43.1	18.7	0.00e+00	0	39	0	0	54	4352
2026-01-13 09:40:05.92	67.57	64.56	-41.7	-43.6	18.4	0.00e+00	0	39	0	0	54	4608
2026-01-13 09:40:08.97	64.23	64.52	-41.4	-43.2	18.7	0.00e+00	0	39	0	0	54	4404
2026-01-13 09:40:11.81	61.14	64.42	-42.1	-44.1	18.0	0.00e+00	0	39	0	0	54	4889
2026-01-13 09:40:14.93	57.78	64.23	-41.8	-43.6	18.4	0.00e+00	0	39	0	0	55	4382
2026-01-13 09:40:17.84	54.71	63.99	-41.7	-43.6	18.3	0.00e+00	0	39	0	0	55	4341
2026-01-13 09:40:21.01	51.45	63.65	-41.0	-42.8	19.1	0.00e+00	0	39	0	0	54	4204
2026-01-13 09:40:23.96	48.50	63.27	-42.0	-43.9	18.0	0.00e+00	0	39	0	0	55	4543
2026-01-13 09:40:27.30	45.29	62.77	-41.8	-43.6	18.4	0.00e+00	0	39	0	0	54	4637
2026-01-13 09:40:30.42	42.42	62.24	-42.1	-44.0	18.1	0.00e+00	0	39	0	0	54	4849
2026-01-13 09:40:33.27	39.91	61.71	-41.7	-43.5	18.6	0.00e+00	0	39	0	0	55	4319
2026-01-13 09:40:36.48	37.21	61.06	-41.8	-43.7	18.4	0.00e+00	0	39	0	0	55	4417
2026-01-13 09:40:39.32	34.95	60.45	-41.5	-43.3	18.7	0.00e+00	0	39	0	0	55	4222
2026-01-13 09:40:42.45	32.57	59.74	-42.4	-44.4	17.7	0.00e+00	0	39	0	0	55	4778
2026-01-13 09:40:45.29	30.53	59.06	-42.0	-43.9	18.1	0.00e+00	0	39	0	0	55	4500
2026-01-13 09:40:48.41	28.41	58.30	-43.2	-45.3	16.9	0.00e+00	0	39	0	0	57	4730
2026-01-13 09:40:51.29	26.56	57.57	-42.7	-44.7	17.4	0.00e+00	0	39	0	0	57	4410
2026-01-13 09:40:54.41	24.67	56.75	-42.8	-44.8	17.6	0.00e+00	0	39	0	0	56	4729
2026-01-13 09:40:57.25	23.05	56.00	-42.5	-44.4	17.7	0.00e+00	0	39	0	0	56	4503
2026-01-13 09:41:00.80	21.13	55.05	-42.4	-44.3	17.9	0.00e+00	0	39	0	0	56	4475
2026-01-13 09:41:03.54	19.75	54.30	-44.1	-46.4	15.9	0.00e+00	0	39	0	0	58	5061
2026-01-13 09:41:06.81	18.18	53.40	-43.5	-45.6	16.6	0.00e+00	0	39	0	0	58	4604
2026-01-13 09:41:09.51	16.96	52.66	-43.4	-45.5	16.8	0.00e+00	0	39	0	0	57	4827
2026-01-13 09:41:12.84	15.54	51.74	-44.3	-46.7	15.7	0.00e+00	0	39	0	0	59	4969
2026-01-13 09:41:15.70	14.39	50.95	-43.8	-46.1	16.0	0.00e+00	0	39	0	0	59	4608
2026-01-13 09:41:19.11	13.09	50.01	-43.9	-46.1	16.1	0.00e+00	0	39	0	0	58	4910
2026-01-13 09:41:21.81	12.12	49.27	-44.9	-47.4	14.7	0.00e+00	0	39	0	0	60	5075
2026-01-13 09:41:25.07	11.01	48.38	-45.0	-47.6	14.4	7.00e-07	0	39	0	0	60	5207
2026-01-13 09:41:27.91	10.09	47.61	-44.1	-46.4	16.0	0.00e+00	0	39	0	0	60	4497
2026-01-13 09:41:31.04	9.14	46.77	-45.2	-47.8	14.5	1.50e-06	0	39	0	0	60	5332
2026-01-13 09:41:33.88	8.31	46.01	-44.8	-47.3	15.0	0.00e+00	0	39	0	0	61	4742
2026-01-13 09:41:37.40	7.34	45.09	-44.6	-47.1	15.4	0.00e+00	0	39	0	0	60	4885
2026-01-13 09:41:40.42	6.55	44.30	-44.7	-47.1	15.3	0.00e+00	0	39	0	0	60	4903
2026-01-13 09:41:43.55	5.78	43.50	-44.6	-47.1	15.3	0.00e+00	0	39	0	0	60	4908
2026-01-13 09:41:46.39	5.10	42.78	-45.6	-48.5	13.9	3.80e-06	0	39	0	0	62	5133
2026-01-13 09:41:49.52	4.40	42.00	-44.2	-46.4	15.9	0.00e+00	0	39	0	0	60	4541
2026-01-13 09:41:52.37	3.79	41.30	-44.3	-46.6	15.8	0.00e+00	0	39	0	0	60	4635
2026-01-13 09:41:55.57	3.13	40.53	-44.6	-47.0	15.2	0.00e+00	0	39	0	0	60	4866
2026-01-13 09:41:58.41	2.57	39.85	-44.4	-46.8	15.6	0.00e+00	0	39	0	0	60	4708
2026-01-13 09:42:01.54	1.98	39.11	-44.8	-47.4	15.0	0.00e+00	0	39	0	0	60	5081
2026-01-13 09:42:04.39	1.47	38.45	-44.4	-46.7	15.6	0.00e+00	0	39	0	0	60	4705
2026-01-13 09:42:07.51	0.93	37.74	-44.1	-46.5	15.9	0.00e+00	0	39	0	0	60	4570
2026-01-13 09:42:10.35	0.47	37.11	-44.8	-47.4	15.1	0.00e+00	0	39	0	0	60	5066
2026-01-13 09:42:13.48	359.97	36.42	-44.3	-46.7	15.6	0.00e+00	0	39	0	0	60	4697
2026-01-13 09:42:16.37	359.53	35.79	-43.9	-46.2	16.0	0.00e+00	0	39	0	0	59	4668
2026-01-13 09:42:19.45	359.08	35.14	-43.9	-46.3	15.9	0.00e+00	0	39	0	0	59	4736
2026-01-13 09:42:22.30	358.68	34.54	-44.1	-46.4	15.8	0.00e+00	0	39	0	0	59	4798
2026-01-13 09:42:25.42	358.26	33.90	-44.0	-46.3	15.9	0.00e+00	0	39	0	0	59	4719
2026-01-13 09:42:28.34	357.88	33.31	-43.7	-45.9	16.3	0.00e+00	0	39	0	0	59	4507
2026-01-13 09:42:31.61	357.47	32.66	-43.3	-45.4	16.7	0.00e+00	0	39	0	0	58	4531
2026-01-13 09:42:34.46	357.13	32.10	-42.9	-45.0	17.0	0.00e+00	0	39	0	0	57	4550
2026-01-13 09:42:37.58	356.77	31.50	-42.7	-44.7	17.3	0.00e+00	0	39	0	0	57	4409
2026-01-13 09:42:40.42	356.45	30.97	-42.5	-44.4	17.7	0.00e+00	0	39	0	0	56	4524
2026-01-13 09:42:43.55	356.11	30.39	-42.2	-44.1	18.0	0.00e+00	0	39	0	0	56	4382
2026-01-13 09:42:46.39	355.82	29.87	-42.5	-44.5	17.7	0.00e+00	0	39	0	0	56	4597
2026-01-13 09:42:49.57	355.50	29.30	-42.9	-45.0	17.3	0.00e+00	0	39	0	0	56	4851
2026-01-13 09:42:52.41	355.22	28.80	-43.2	-45.2	17.0	0.00e+00	0	39	0	0	56	4979
2026-01-13 09:42:55.54	354.93	28.26	-43.1	-45.2	17.0	0.00e+00	0	39	0	0	57	4683
2026-01-13 09:42:58.38	354.67	27.78	-43.0	-45.1	16.9	0.00e+00	0	39	0	0	57	4621
2026-01-13 09:43:01.51	354.39	27.26	-42.7	-44.7	17.1	0.00e+00	0	39	0	0	57	4441
2026-01-13 09:43:04.35	354.15	26.79	-42.4	-44.4	17.5	0.00e+00	0	40	0	0	56	4526
2026-01-13 09:43:07.48	353.89	26.28	-42.2	-44.2	17.7	0.00e+00	0	39	0	0	56	4429
2026-01-13 09:43:10.40	353.66	25.82	-42.3	-44.3	17.8	0.00e+00	0	39	0	0	56	4482
2026-01-13 09:43:13.69	353.41	25.31	-42.0	-44.1	18.1	0.00e+00	0	39	0	0	56	4351
2026-01-13 09:43:16.52	353.19	24.87	-41.8	-43.8	18.1	0.00e+00	0	39	0	0	55	4485
2026-01-13 09:43:19.66	352.97	24.40	-41.9	-43.9	18.1	0.00e+00	0	39	0	0	55	4537
2026-01-13 09:43:22.64	352.76	23.95	-42.1	-44.1	17.9	0.00e+00	0	39	0	0	55	4624
2026-01-13 09:43:25.96	352.53	23.47	-42.3	-44.3	17.6	0.00e+00	0	39	0	0	55	4733
2026-01-13 09:43:28.67	352.35	23.08	-42.3	-44.4	17.6	0.00e+00	0	39	0	0	55	4779
2026-01-13 09:43:31.94	352.14	22.61	-42.3	-44.4	17.6	0.00e+00	0	39	0	0	55	4774
2026-01-13 09:43:34.78	351.96	22.22	-42.4	-44.4	17.6	0.00e+00	0	39	0	0	55	4780
2026-01-13 09:43:38.13	351.76	21.76	-42.3	-44.3	17.6	0.00e+00	0	39	0	0	55	4743
2026-01-13 09:43:40.94	351.59	21.38	-42.4	-44.4	17.5	0.00e+00	0	39	0	0	55	4789
2026-01-13 09:43:44.23	351.40	20.94	-42.4	-44.4	17.5	0.00e+00	0	39	0	0	55	4796
2026-01-13 09:43:47.21	351.24	20.55	-42.3	-44.3	17.6	0.00e+00	0	39	0	0	55	4752
2026-01-13 09:43:50.20	351.07	20.17	-42.3	-44.4	17.6	0.00e+00	0	39	0	0	55	4775
2026-01-13 09:43:53.27	350.91	19.78	-42.2	-44.3	17.6	0.00e+00	0	39	0	0	55	4737
2026-01-13 09:43:56.14	350.76	19.42	-42.3	-44.5	17.4	0.00e+00	0	40	0	0	55	4821
2026-01-13 09:43:59.26	350.61	19.03	-42.3	-44.5	17.4	0.00e+00	0	39	0	0	55	4867
2026-01-13 09:44:02.25	350.46	18.67	-42.5	-44.7	17.2	0.00e+00	0	39	0	0	55	4954
2026-01-13 09:44:05.24	350.32	18.31	-42.6	-44.8	17.1	0.00e+00	0	39	0	0	55	5011
2026-01-13 09:44:08.22	350.18	17.96	-42.6	-44.8	17.1	0.00e+00	0	39	0	0	55	5039
2026-01-13 09:44:11.35	350.04	17.59	-43.0	-45.2	16.9	0.00e+00	0	39	0	0	56	4946
2026-01-13 09:44:14.22	349.91	17.26	-43.0	-45.2	16.9	0.00e+00	0	39	0	0	56	4941
2026-01-13 09:44:17.35	349.77	16.91	-43.0	-45.2	16.9	0.00e+00	0	40	0	0	56	4961
2026-01-13 09:44:20.19	349.66	16.59	-43.0	-45.3	16.8	0.00e+00	0	39	0	0	57	4710
2026-01-13 09:44:23.32	349.53	16.24	-43.0	-45.3	16.8	0.00e+00	0	40	0	0	57	4734
2026-01-13 09:44:26.16	349.41	15.93	-43.1	-45.4	16.7	0.00e+00	0	40	0	0	57	4773
2026-01-13 09:44:29.49	349.28	15.57	-43.1	-45.4	16.7	0.00e+00	0	40	0	0	57	4793
2026-01-13 09:44:32.46	349.17	15.26	-43.2	-45.5	16.6	0.00e+00	0	40	0	0	57	4858
2026-01-13 09:44:35.76	349.05	14.91	-43.4	-45.7	16.4	0.00e+00	0	39	0	0	57	4962
2026-01-13 09:44:38.48	348.95	14.63	-43.5	-46.0	16.1	0.00e+00	0	39	0	0	57	5115
2026-01-13 09:44:41.76	348.83	14.29	-43.3	-46.0	16.1	0.00e+00	0	39	0	0	57	5101
2026-01-13 09:44:44.48	348.74	14.02	-43.3	-45.9	16.1	0.00e+00	0	40	0	0	57	5075
2026-01-13 09:44:47.76	348.62	13.69	-43.6	-46.2	15.8	0.00e+00	0	40	0	0	57	5270
2026-01-13 09:44:50.46	348.53	13.43	-43.7	-46.1	15.9	0.00e+00	0	40	0	0	57	5213
2026-01-13 09:44:53.74	348.43	13.11	-43.8	-46.3	15.8	0.00e+00	0	40	0	0	58	4987
2026-01-13 09:44:56.44	348.34	12.85	-43.4	-46.1	16.0	0.00e+00	0	40	0	0	58	4884
2026-01-13 09:44:59.73	348.24	12.53	-43.2	-46.1	15.9	0.00e+00	0	39	0	0	58	4911
2026-01-13 09:45:02.54	348.15	12.27	-42.9	-46.1	15.8	0.00e+00	0	40	0	0	57	5205
2026-01-13 09:45:06.03	348.05	11.94	-42.7	-46.1	15.8	0.00e+00	0	40	0	0	57	5213
2026-01-13 09:45:08.73	347.97	11.69	-42.7	-46.2	15.8	0.00e+00	0	40	0	0	57	5238
2026-01-13 09:45:12.01	347.88	11.40	-42.6	-46.1	15.7	0.00e+00	0	40	0	0	57	5214
2026-01-13 09:45:14.71	347.80	11.15	-42.6	-46.2	15.7	0.00e+00	0	40	0	0	57	5220
2026-01-13 09:45:17.98	347.71	10.86	-42.5	-46.1	15.8	0.00e+00	0	40	0	0	57	5173
2026-01-13 09:45:20.84	347.64	10.61	-42.5	-46.1	15.7	0.00e+00	0	40	0	0	57	5216
2026-01-13 09:45:24.25	347.55	10.31	-42.6	-46.2	15.7	0.00e+00	0	40	0	0	56	5536
2026-01-13 09:45:26.98	347.48	10.08	-42.6	-46.2	15.6	0.00e+00	0	40	0	0	56	5580
2026-01-13 09:45:30.55	347.39	9.77	-42.7	-46.3	15.5	0.00e+00	0	40	0	0	56	5635
2026-01-13 09:45:33.28	347.32	9.54	-43.0	-46.4	15.3	0.00e+00	0	40	0	0	56	5709
2026-01-13 09:45:36.55	347.24	9.27	-43.6	-46.7	15.1	0.00e+00	0	40	0	0	57	5551
2026-01-13 09:45:39.25	347.18	9.04	-43.6	-46.4	15.3	0.00e+00	0	40	0	0	58	5081
2026-01-13 09:45:42.57	347.10	8.77	-49.0	-63.6	3.8	1.49e+00	0	40	104	0	69	19440
2026-01-13 09:45:45.36	347.04	8.55	-50.3	-63.8	3.8	1.49e+00	0	40	104	0	71	17698
2026-01-13 09:45:48.74	346.96	8.27	-50.6	-63.8	3.8	1.49e+00	0	40	104	0	72	16736
2026-01-13 09:45:51.53	346.90	8.05	-50.8	-63.8	3.8	1.49e+00	0	40	104	0	72	16827
2026-01-13 09:45:54.83	346.83	7.79	-50.6	-63.8	3.8	1.49e+00	0	40	104	0	72	16850
2026-01-13 09:45:57.54	346.78	7.58	-50.8	-63.8	3.8	1.49e+00	0	40	104	0	72	16882
2026-01-13 09:46:00.82	346.71	7.33	-50.8	-63.9	3.8	1.49e+00	0	40	104	0	72	16909
2026-01-13 09:46:03.53	346.66	7.12	-50.8	-63.9	3.8	1.49e+00	0	40	104	0	72	16926
2026-01-13 09:46:06.79	346.59	6.87	-50.7	-63.8	3.8	1.49e+00	0	40	104	0	72	16874
2026-01-13 09:46:09.52	346.54	6.66	-50.7	-63.8	3.8	1.49e+00	0	40	104	0	72	16797
2026-01-13 09:46:12.78	346.48	6.42	-50.7	-63.8	3.8	1.49e+00	0	40	104	0	72	16755
2026-01-13 09:46:15.49	346.43	6.22	-50.7	-63.8	3.8	1.49e+00	0	40	104	0	72	16790
2026-01-13 09:46:18.76	346.37	5.98	-50.7	-63.8	3.8	1.49e+00	0	40	104	0	72	16817
2026-01-13 09:46:21.47	346.32	5.78	-50.7	-63.8	3.8	1.49e+00	0	40	104	0	72	16781
2026-01-13 09:46:24.73	346.26	5.54	-50.7	-63.8	3.8	1.49e+00	0	40	104	0	72	16737
2026-01-13 09:46:27.43	346.21	5.35	-50.7	-63.8	3.8	1.49e+00	0	40	104	0	72	16712
2026-01-13 09:46:30.71	346.16	5.12	-50.7	-63.8	3.8	1.49e+00	0	40	104	0	72	16758

#Closed at: 2026-01-13 09:46:33
#Recorded file [0 MB]: D:/Data/31040_260113_123343.dat