passes_logs/2026/01/13/T1/T1__20260113_015332_SUOMI_NPP_rec.log

#Pass ID: 20260113_015332_SUOMI NPP
#Satellite: SUOMI NPP
#Configuration: NPP
#almurnet v.1.7.20251203
#Start time: 2026-01-13 01:53:33

#Version: 2.0.20230620
#Station: T1
#Location: 37.570604 lon 55.790049 lat
#TLE: 1 37849U 11061A   26012.28456845  .00000093  00000+0  65163-4 0  9999
#TLE: 2 37849  98.7807 314.3566 0002508  68.3553 291.7890 14.19524725736322

#Time	Az	El	Level	Level2	SNR	BER	BlckErr	Temp	State	Recorded	gain1	gain2
2026-01-13 01:53:33.76	3.89	5.06	-47.0	-65.7	3.8	1.49e+00	0	36	0	0	65	31359
2026-01-13 01:53:36.73	3.60	5.22	-46.0	-65.7	3.8	1.49e+00	0	36	104	0	62	37255
2026-01-13 01:53:39.71	3.30	5.38	-46.0	-65.7	3.8	1.49e+00	0	37	104	0	62	37123
2026-01-13 01:53:42.70	2.99	5.54	-46.1	-65.7	3.8	1.49e+00	0	37	104	0	62	37080
2026-01-13 01:53:45.68	2.68	5.70	-46.1	-65.7	3.8	1.49e+00	0	37	104	0	62	37044
2026-01-13 01:53:48.66	2.37	5.86	-46.1	-65.7	3.8	1.49e+00	0	37	104	0	62	37267
2026-01-13 01:53:51.64	2.06	6.02	-46.1	-65.7	3.8	1.49e+00	0	37	104	0	62	37212
2026-01-13 01:53:54.62	1.74	6.19	-46.1	-65.7	3.8	1.49e+00	0	37	104	0	62	37062
2026-01-13 01:53:57.60	1.42	6.35	-46.1	-65.7	3.8	1.49e+00	0	37	104	0	62	37263
2026-01-13 01:54:00.58	1.09	6.51	-46.1	-65.7	3.8	1.49e+00	0	37	104	0	62	37074
2026-01-13 01:54:03.56	0.76	6.67	-46.1	-65.6	3.8	1.49e+00	0	37	104	0	62	36840
2026-01-13 01:54:06.54	0.43	6.83	-46.1	-65.7	3.8	1.49e+00	0	37	104	0	62	37222
2026-01-13 01:54:09.52	0.09	7.00	-46.1	-65.7	3.8	1.49e+00	0	38	104	0	62	37333
2026-01-13 01:54:12.50	359.75	7.16	-46.1	-65.7	3.8	1.49e+00	0	38	104	0	62	37074
2026-01-13 01:54:15.48	359.41	7.32	-46.1	-65.3	3.8	1.49e+00	0	38	104	0	62	35685
2026-01-13 01:54:18.46	359.06	7.48	-46.1	-65.4	3.8	1.49e+00	0	38	104	0	62	35986
2026-01-13 01:54:21.44	358.71	7.65	-46.1	-65.4	3.8	1.49e+00	0	38	104	0	62	35775
2026-01-13 01:54:24.42	358.35	7.81	-46.1	-64.8	3.8	1.49e+00	0	38	104	0	62	33631
2026-01-13 01:54:27.40	357.99	7.97	-46.1	-65.2	3.8	1.49e+00	0	38	104	0	62	35012
2026-01-13 01:54:30.38	357.62	8.13	-46.1	-65.5	3.8	1.49e+00	0	38	104	0	62	36371
2026-01-13 01:54:33.36	357.25	8.30	-46.1	-65.6	3.8	1.49e+00	0	38	104	0	62	36564
2026-01-13 01:54:36.34	356.88	8.46	-46.0	-61.2	4.5	1.37e+00	0	38	0	0	62	22250
2026-01-13 01:54:39.32	356.50	8.62	-45.7	-57.4	7.0	1.63e-01	0	38	0	5242880	62	14286
2026-01-13 01:54:42.30	356.12	8.78	-45.5	-55.9	8.3	5.43e-02	0	38	0	10485760	62	12055
2026-01-13 01:54:45.28	355.73	8.95	-45.4	-55.3	9.0	2.96e-02	0	38	0	16777216	62	11182
2026-01-13 01:54:48.27	355.34	9.11	-46.0	-57.5	6.9	2.22e-01	0	38	0	22020096	62	14415
2026-01-13 01:54:51.33	354.93	9.27	-47.5	-61.1	4.0	1.49e+00	0	38	104	26214400	66	17460
2026-01-13 01:54:54.33	354.53	9.44	-44.9	-52.0	12.3	1.52e-04	0	38	0	30408704	61	8156
2026-01-13 01:54:57.45	354.11	9.60	-44.9	-52.2	12.2	2.57e-04	0	38	0	36700160	61	8279
2026-01-13 01:55:00.30	353.72	9.76	-44.9	-51.8	12.5	1.59e-04	0	38	0	41943040	61	7957
2026-01-13 01:55:03.42	353.28	9.92	-45.2	-51.3	13.0	4.04e-05	0	38	0	48234496	61	7459
2026-01-13 01:55:06.27	352.88	10.08	-45.9	-51.5	12.8	5.56e-05	0	39	0	53477376	62	7252
2026-01-13 01:55:09.39	352.44	10.24	-46.6	-52.0	12.4	1.10e-04	0	39	0	58720256	63	7226
2026-01-13 01:55:12.24	352.03	10.39	-46.5	-51.7	12.6	1.10e-04	0	39	0	63963136	64	6620
2026-01-13 01:55:15.48	351.56	10.57	-46.0	-51.5	12.7	4.57e-05	0	39	0	70254592	64	6492
2026-01-13 01:55:18.37	351.13	10.72	-45.8	-52.1	12.2	1.50e-04	0	39	0	75497472	63	7356
2026-01-13 01:55:21.64	350.65	10.89	-45.8	-52.4	11.9	3.20e-04	0	39	0	81788928	63	7619
2026-01-13 01:55:24.36	350.24	11.03	-45.9	-52.3	12.1	2.11e-04	0	39	0	87031808	63	7479
2026-01-13 01:55:27.63	349.74	11.20	-46.2	-52.7	11.7	3.78e-04	0	39	0	93323264	63	7848
2026-01-13 01:55:30.47	349.30	11.35	-45.9	-52.5	12.0	2.75e-04	0	39	0	98566144	63	7641
2026-01-13 01:55:33.59	348.82	11.51	-45.3	-52.2	12.2	2.17e-04	0	39	0	103809024	62	7852
2026-01-13 01:55:36.45	348.37	11.66	-44.9	-51.4	12.9	3.28e-05	0	39	0	110100480	61	7593
2026-01-13 01:55:39.58	347.87	11.82	-45.0	-51.3	13.1	1.29e-05	0	39	0	115343360	61	7480
2026-01-13 01:55:42.42	347.42	11.96	-45.5	-51.5	12.9	2.82e-05	0	39	0	120586240	61	7711
2026-01-13 01:55:45.54	346.91	12.12	-45.7	-50.9	13.5	8.30e-06	0	39	0	126877696	62	6762
2026-01-13 01:55:48.39	346.44	12.26	-45.8	-50.0	14.4	1.50e-06	0	39	0	132120576	62	6078
2026-01-13 01:55:51.51	345.93	12.41	-46.2	-50.3	14.0	0.00e+00	0	39	0	138412032	63	5986
2026-01-13 01:55:54.45	345.44	12.56	-45.8	-50.0	14.4	0.00e+00	0	39	0	143654912	63	5759
2026-01-13 01:55:57.72	344.88	12.72	-45.5	-49.4	14.9	0.00e+00	0	39	0	149946368	63	5401
2026-01-13 01:56:00.57	344.40	12.85	-45.8	-49.3	15.1	0.00e+00	0	39	0	155189248	63	5304
2026-01-13 01:56:03.69	343.86	13.00	-46.0	-49.8	14.6	0.00e+00	0	38	0	160432128	63	5610
2026-01-13 01:56:06.63	343.35	13.14	-45.6	-49.6	14.8	7.00e-07	0	39	0	166723584	63	5489
2026-01-13 01:56:09.61	342.82	13.28	-45.0	-49.1	15.3	0.00e+00	0	39	0	171966464	62	5469
2026-01-13 01:56:12.60	342.29	13.42	-45.1	-49.5	14.9	0.00e+00	0	39	0	177209344	61	6092
2026-01-13 01:56:15.59	341.76	13.56	-45.7	-50.2	14.2	3.00e-06	0	39	0	183500800	61	6583
2026-01-13 01:56:18.58	341.22	13.69	-45.9	-50.2	14.3	1.50e-06	0	39	0	188743680	62	6217
2026-01-13 01:56:21.56	340.67	13.82	-45.5	-49.4	15.0	0.00e+00	0	39	0	193986560	62	5666
2026-01-13 01:56:24.54	340.12	13.95	-45.2	-48.8	15.6	0.00e+00	0	39	0	200278016	62	5311
2026-01-13 01:56:27.53	339.57	14.08	-45.1	-48.4	16.0	0.00e+00	0	39	0	205520896	62	5056
2026-01-13 01:56:30.51	339.01	14.21	-45.1	-48.3	16.0	0.00e+00	0	39	0	210763776	62	4996
2026-01-13 01:56:33.50	338.45	14.33	-45.5	-49.3	15.2	0.00e+00	0	39	0	217055232	62	5600
2026-01-13 01:56:36.48	337.88	14.45	-45.8	-49.7	14.8	7.00e-07	0	39	0	222298112	62	5864
2026-01-13 01:56:39.47	337.30	14.57	-45.5	-48.9	15.6	0.00e+00	0	39	0	227540992	62	5352
2026-01-13 01:56:42.46	336.72	14.69	-45.1	-48.5	15.9	0.00e+00	0	39	0	233832448	62	5125
2026-01-13 01:56:45.44	336.14	14.81	-45.8	-49.5	14.9	0.00e+00	0	39	0	239075328	62	5784
2026-01-13 01:56:48.49	335.54	14.92	-45.9	-49.5	14.9	0.00e+00	0	39	0	244318208	62	5753
2026-01-13 01:56:51.44	334.95	15.03	-45.3	-48.9	15.5	0.00e+00	0	39	0	250609664	62	5344
2026-01-13 01:56:54.45	334.35	15.14	-45.2	-48.9	15.5	0.00e+00	0	39	0	255852544	62	5402
2026-01-13 01:56:57.43	333.75	15.24	-45.4	-48.8	15.6	0.00e+00	0	38	0	261095424	62	5299
2026-01-13 01:57:00.42	333.15	15.35	-45.5	-48.8	15.7	0.00e+00	0	38	0	267386880	62	5292
2026-01-13 01:57:03.40	332.54	15.45	-45.4	-48.9	15.5	0.00e+00	0	39	0	272629760	62	5358
2026-01-13 01:57:06.44	331.91	15.54	-45.5	-49.0	15.4	0.00e+00	0	39	0	278921216	62	5448
2026-01-13 01:57:09.52	331.28	15.64	-45.3	-48.5	15.9	0.00e+00	0	39	0	284164096	62	5136
2026-01-13 01:57:12.37	330.68	15.73	-44.8	-47.9	16.5	0.00e+00	0	39	0	289406976	61	5055
2026-01-13 01:57:15.49	330.03	15.82	-44.8	-47.8	16.6	0.00e+00	0	39	0	295698432	61	5005
2026-01-13 01:57:18.34	329.43	15.90	-45.0	-48.1	16.3	0.00e+00	0	39	0	300941312	61	5164
2026-01-13 01:57:21.49	328.76	15.98	-45.1	-48.2	16.1	0.00e+00	0	39	0	306184192	61	5275
2026-01-13 01:57:24.41	328.14	16.06	-45.4	-48.6	15.8	0.00e+00	0	39	0	312475648	61	5521
2026-01-13 01:57:27.54	327.47	16.14	-45.4	-48.8	15.6	0.00e+00	0	39	0	317718528	61	5635
2026-01-13 01:57:30.38	326.86	16.20	-45.4	-48.8	15.6	0.00e+00	0	38	0	322961408	61	5650
2026-01-13 01:57:33.51	326.18	16.27	-45.2	-48.9	15.6	0.00e+00	0	39	0	329252864	61	5658
2026-01-13 01:57:36.36	325.56	16.33	-45.2	-49.0	15.5	0.00e+00	0	39	0	334495744	61	5730
2026-01-13 01:57:39.49	324.88	16.40	-45.8	-49.3	15.2	0.00e+00	0	39	0	340787200	62	5619
2026-01-13 01:57:42.30	324.26	16.45	-45.7	-49.0	15.4	0.00e+00	0	39	0	346030080	62	5432
2026-01-13 01:57:45.43	323.58	16.51	-45.4	-48.5	16.0	0.00e+00	0	39	0	351272960	62	5110
2026-01-13 01:57:48.27	322.95	16.55	-45.4	-48.7	15.8	0.00e+00	0	39	0	356515840	62	5238
2026-01-13 01:57:51.48	322.24	16.60	-45.3	-48.7	15.8	0.00e+00	0	39	0	362807296	62	5262
2026-01-13 01:57:54.32	321.61	16.64	-45.2	-48.3	16.1	0.00e+00	0	39	0	368050176	62	5020
2026-01-13 01:57:57.67	320.86	16.68	-45.4	-48.6	15.8	0.00e+00	0	39	0	374341632	62	5182
2026-01-13 01:58:00.56	320.22	16.71	-45.9	-49.3	15.1	0.00e+00	0	39	0	379584512	62	5654
2026-01-13 01:58:03.84	319.48	16.75	-46.2	-50.1	14.4	0.00e+00	0	39	0	385875968	63	5829
2026-01-13 01:58:06.54	318.88	16.77	-46.0	-49.9	14.6	2.20e-06	0	39	0	391118848	63	5688
2026-01-13 01:58:09.83	318.14	16.79	-45.8	-49.7	14.7	0.00e+00	0	38	0	397410304	63	5587
2026-01-13 01:58:12.54	317.53	16.81	-45.7	-49.5	14.9	7.00e-07	0	39	0	402653184	63	5427
2026-01-13 01:58:15.82	316.79	16.82	-46.1	-49.7	14.7	0.00e+00	0	39	0	408944640	63	5584
2026-01-13 01:58:18.53	316.18	16.83	-45.7	-49.1	15.3	0.00e+00	0	39	0	413138944	63	5176
2026-01-13 01:58:21.80	315.45	16.84	-45.3	-48.4	16.0	0.00e+00	0	39	0	419430400	62	5085
2026-01-13 01:58:24.58	314.82	16.84	-45.3	-48.5	15.9	0.00e+00	0	39	0	424673280	62	5147
2026-01-13 01:58:27.74	314.11	16.84	-45.8	-49.3	15.2	0.00e+00	0	39	0	430964736	62	5616
2026-01-13 01:58:30.79	313.42	16.83	-46.1	-49.7	14.7	0.00e+00	0	39	0	436207616	62	5922
2026-01-13 01:58:33.78	312.75	16.82	-45.8	-49.3	15.1	0.00e+00	0	39	0	442499072	62	5627
2026-01-13 01:58:36.76	312.08	16.80	-45.5	-48.7	15.7	0.00e+00	0	39	0	447741952	62	5263
2026-01-13 01:58:39.81	311.39	16.78	-45.8	-49.2	15.2	0.00e+00	0	39	0	452984832	62	5590
2026-01-13 01:58:42.79	310.72	16.76	-46.2	-49.8	14.6	0.00e+00	0	39	0	459276288	63	5611
2026-01-13 01:58:45.81	310.05	16.73	-46.6	-50.5	13.9	3.80e-06	0	39	0	464519168	63	6115
2026-01-13 01:58:48.94	309.35	16.70	-46.6	-50.7	13.6	1.06e-05	0	39	0	470810624	64	5903
2026-01-13 01:58:51.79	308.71	16.67	-46.0	-49.8	14.5	0.00e+00	0	39	0	476053504	64	5313
2026-01-13 01:58:54.92	308.01	16.63	-45.8	-49.4	15.0	0.00e+00	0	39	0	482344960	63	5374
2026-01-13 01:58:57.76	307.38	16.59	-45.7	-49.2	15.3	0.00e+00	0	39	0	487587840	63	5224
2026-01-13 01:59:00.99	306.67	16.54	-45.4	-48.7	15.8	0.00e+00	0	39	0	492830720	62	5263
2026-01-13 01:59:03.84	306.04	16.49	-45.8	-49.3	15.2	0.00e+00	0	39	0	498073600	62	5606
2026-01-13 01:59:06.96	305.35	16.43	-45.6	-48.9	15.5	0.00e+00	0	39	0	504365056	62	5392
2026-01-13 01:59:09.80	304.73	16.38	-45.2	-48.3	16.1	0.00e+00	0	39	0	509607936	62	4992
2026-01-13 01:59:13.02	304.03	16.31	-45.2	-48.2	16.2	0.00e+00	0	39	0	515899392	62	4962
2026-01-13 01:59:15.95	303.39	16.25	-45.4	-48.5	15.9	0.00e+00	0	39	0	521142272	62	5123
2026-01-13 01:59:19.08	302.72	16.17	-45.5	-48.6	15.8	0.00e+00	0	39	0	527433728	62	5168
2026-01-13 01:59:22.02	302.08	16.10	-45.6	-48.8	15.6	0.00e+00	0	39	0	532676608	62	5299
2026-01-13 01:59:25.00	301.45	16.03	-45.7	-49.0	15.4	0.00e+00	0	39	0	537919488	62	5445
2026-01-13 01:59:27.98	300.81	15.95	-45.7	-49.0	15.4	0.00e+00	0	39	0	544210944	62	5460
2026-01-13 01:59:30.97	300.18	15.87	-45.4	-48.5	15.9	0.00e+00	0	39	0	549453824	62	5107
2026-01-13 01:59:33.95	299.55	15.78	-45.3	-48.4	16.0	0.00e+00	0	39	0	554696704	62	5057
2026-01-13 01:59:36.94	298.92	15.69	-45.4	-48.5	15.9	0.00e+00	0	39	0	560988160	62	5115
2026-01-13 01:59:39.92	298.30	15.60	-45.4	-48.5	15.9	0.00e+00	0	39	0	566231040	62	5106
2026-01-13 01:59:42.90	297.69	15.51	-45.7	-48.9	15.5	0.00e+00	0	39	0	571473920	62	5374
2026-01-13 01:59:45.95	297.06	15.41	-45.8	-49.1	15.3	0.00e+00	0	39	0	577765376	62	5490
2026-01-13 01:59:48.85	296.47	15.31	-45.9	-49.3	15.0	0.00e+00	0	39	0	583008256	62	5654
2026-01-13 01:59:52.04	295.82	15.20	-46.4	-49.9	14.5	2.20e-06	0	39	0	589299712	63	5718
2026-01-13 01:59:54.88	295.25	15.10	-46.4	-50.1	14.4	0.00e+00	0	39	0	594542592	63	5821
2026-01-13 01:59:58.01	294.62	14.98	-46.3	-49.8	14.6	7.00e-07	0	39	0	599785472	63	5637
2026-01-13 02:00:00.85	294.06	14.88	-46.0	-49.5	15.0	0.00e+00	0	39	0	605028352	63	5410
2026-01-13 02:00:03.97	293.44	14.76	-46.1	-49.5	14.9	0.00e+00	0	39	0	611319808	63	5448
2026-01-13 02:00:06.82	292.89	14.65	-46.0	-49.4	15.1	0.00e+00	0	39	0	616562688	63	5352
2026-01-13 02:00:09.94	292.28	14.52	-45.7	-48.9	15.5	0.00e+00	0	39	0	622854144	63	5048
2026-01-13 02:00:12.78	291.74	14.41	-45.8	-49.1	15.3	0.00e+00	0	39	0	628097024	63	5178
2026-01-13 02:00:15.93	291.14	14.28	-46.0	-49.3	15.1	0.00e+00	0	39	0	633339904	63	5331
2026-01-13 02:00:18.77	290.60	14.16	-46.1	-49.5	14.9	0.00e+00	0	39	0	638582784	63	5460
2026-01-13 02:00:22.27	289.94	14.01	-46.6	-50.5	14.0	3.00e-06	0	39	0	645922816	63	6104
2026-01-13 02:00:24.97	289.44	13.89	-46.8	-50.8	13.5	6.80e-06	0	39	0	651165696	64	5972
2026-01-13 02:00:28.24	288.84	13.75	-46.6	-50.4	13.9	2.20e-06	0	39	0	656408576	64	5704
2026-01-13 02:00:30.95	288.35	13.63	-46.4	-50.1	14.2	1.50e-06	0	39	0	661651456	64	5506
2026-01-13 02:00:34.22	287.75	13.48	-46.5	-50.4	13.9	2.20e-06	0	39	0	667942912	64	5708
2026-01-13 02:00:37.08	287.24	13.35	-46.6	-50.5	13.8	5.30e-06	0	39	0	673185792	64	5746
2026-01-13 02:00:40.35	286.66	13.20	-46.3	-50.0	14.3	7.00e-07	0	39	0	679477248	64	5425
2026-01-13 02:00:43.19	286.16	13.06	-46.4	-50.2	14.1	3.00e-06	0	39	0	684720128	64	5546
2026-01-13 02:00:46.32	285.62	12.91	-46.2	-49.9	14.4	0.00e+00	0	39	0	691011584	64	5386
2026-01-13 02:00:49.16	285.13	12.78	-45.9	-49.3	15.1	0.00e+00	0	39	0	696254464	63	5285
2026-01-13 02:00:52.29	284.60	12.63	-46.1	-49.7	14.6	0.00e+00	0	39	0	701497344	63	5534
2026-01-13 02:00:55.13	284.12	12.49	-46.6	-50.5	13.8	4.50e-06	0	39	0	706740224	63	6083
2026-01-13 02:00:58.25	283.60	12.33	-46.6	-50.4	13.9	1.37e-05	0	39	0	713031680	64	5708
2026-01-13 02:01:01.25	283.10	12.18	-46.5	-50.3	14.0	4.50e-06	0	39	0	718274560	64	5627
2026-01-13 02:01:04.24	282.61	12.03	-46.3	-50.0	14.3	2.20e-06	0	39	0	724566016	64	5410
2026-01-13 02:01:07.56	282.07	11.87	-46.8	-50.9	13.4	1.29e-05	0	39	0	730857472	64	6046
2026-01-13 02:01:10.27	281.64	11.73	-47.9	-53.2	11.1	8.35e-04	0	39	0	736100352	66	6972
2026-01-13 02:01:13.55	281.12	11.56	-48.1	-53.7	10.5	4.48e-03	0	39	0	741343232	67	6971
2026-01-13 02:01:16.36	280.68	11.42	-47.7	-52.7	11.6	8.32e-04	0	39	0	746586112	67	6216
2026-01-13 02:01:19.75	280.15	11.24	-47.5	-52.4	11.8	4.54e-04	0	39	0	752877568	66	6405
2026-01-13 02:01:22.45	279.74	11.10	-47.2	-51.8	12.4	1.18e-04	0	39	0	758120448	66	5972
2026-01-13 02:01:25.72	279.24	10.93	-46.7	-50.8	13.4	7.60e-06	0	39	0	764411904	65	5609
2026-01-13 02:01:28.42	278.83	10.79	-46.8	-50.9	13.3	6.10e-06	0	39	0	769654784	65	5693
2026-01-13 02:01:31.70	278.35	10.61	-46.8	-51.1	13.1	3.81e-05	0	39	0	775946240	65	5816
2026-01-13 02:01:34.61	277.92	10.46	-46.7	-50.8	13.4	2.13e-05	0	39	0	781189120	65	5640
2026-01-13 02:01:37.70	277.47	10.29	-46.5	-50.6	13.6	1.06e-05	0	39	0	787480576	65	5474
2026-01-13 02:01:40.97	277.00	10.12	-46.5	-50.4	13.8	2.20e-06	0	39	0	792723456	64	5662
2026-01-13 02:01:43.67	276.62	9.97	-46.4	-50.1	14.0	2.20e-06	0	39	0	797966336	64	5528
2026-01-13 02:01:46.93	276.16	9.80	-46.5	-50.3	13.8	4.50e-06	0	39	0	804257792	64	5636
2026-01-13 02:01:49.65	275.78	9.65	-46.7	-50.8	13.4	1.37e-05	0	39	0	809500672	64	5928
2026-01-13 02:01:52.91	275.34	9.48	-46.8	-51.0	13.2	2.21e-05	0	39	0	815792128	64	6072
2026-01-13 02:01:55.63	274.97	9.33	-46.7	-50.8	13.3	1.60e-05	0	39	0	821035008	64	5969
2026-01-13 02:01:58.90	274.53	9.15	-46.4	-50.4	13.7	5.30e-06	0	39	0	826277888	64	5671
2026-01-13 02:02:01.73	274.15	9.00	-49.9	-59.6	5.8	1.34e-02	0	39	0	832569344	70	11582
2026-01-13 02:02:04.99	273.72	8.82	-50.8	-66.0	3.8	1.49e+00	0	39	104	832569344	72	21740
2026-01-13 02:02:07.70	273.37	8.67	-51.0	-66.2	3.8	1.49e+00	0	39	104	832569344	72	22055
2026-01-13 02:02:10.96	272.95	8.49	-51.1	-66.3	3.8	1.49e+00	0	39	104	832569344	72	22292
2026-01-13 02:02:13.69	272.61	8.35	-51.0	-66.3	3.8	1.49e+00	0	39	104	832569344	72	22343
2026-01-13 02:02:16.95	272.20	8.17	-50.9	-66.3	3.8	1.49e+00	0	39	104	832569344	72	22383
2026-01-13 02:02:19.68	271.86	8.02	-50.9	-66.3	3.8	1.49e+00	0	39	104	832569344	72	22312
2026-01-13 02:02:22.95	271.46	7.84	-51.0	-66.3	3.8	1.49e+00	0	39	104	832569344	72	22298
2026-01-13 02:02:25.65	271.13	7.69	-50.9	-66.2	3.8	1.49e+00	0	39	104	832569344	72	22179
2026-01-13 02:02:28.91	270.74	7.51	-50.9	-66.2	3.8	1.49e+00	0	39	104	832569344	72	22192
2026-01-13 02:02:31.60	270.42	7.37	-50.9	-66.2	3.8	1.49e+00	0	39	104	832569344	72	22165
2026-01-13 02:02:34.87	270.04	7.19	-50.9	-66.2	3.8	1.49e+00	0	39	104	832569344	72	22112
2026-01-13 02:02:37.56	269.73	7.04	-50.9	-66.2	3.8	1.49e+00	0	39	104	832569344	72	22187
2026-01-13 02:02:40.83	269.36	6.86	-50.9	-66.2	3.8	1.49e+00	0	39	104	832569344	72	22150
2026-01-13 02:02:43.54	269.05	6.71	-50.9	-66.2	3.8	1.49e+00	0	39	104	832569344	72	22173
2026-01-13 02:02:46.82	268.68	6.54	-50.9	-66.2	3.8	1.49e+00	0	39	104	832569344	72	22139
2026-01-13 02:02:49.53	268.38	6.39	-50.9	-66.2	3.8	1.49e+00	0	39	104	832569344	72	22141
2026-01-13 02:02:52.80	268.02	6.21	-50.9	-66.2	3.8	1.49e+00	0	39	104	832569344	72	22132
2026-01-13 02:02:55.49	267.73	6.06	-50.9	-66.2	3.8	1.49e+00	0	39	104	832569344	72	22142
2026-01-13 02:02:58.76	267.38	5.89	-50.9	-66.2	3.8	1.49e+00	0	39	104	832569344	72	22113
2026-01-13 02:03:01.45	267.10	5.74	-50.9	-66.2	3.8	1.49e+00	0	39	104	832569344	72	22089
2026-01-13 02:03:04.72	266.76	5.56	-50.9	-66.2	3.8	1.49e+00	0	39	104	832569344	72	22088
2026-01-13 02:03:07.42	266.48	5.42	-50.9	-66.2	3.8	1.49e+00	0	39	104	832569344	72	22070
2026-01-13 02:03:10.68	266.15	5.24	-50.9	-66.2	3.8	1.49e+00	0	39	104	832569344	72	22039
2026-01-13 02:03:13.39	265.87	5.09	-50.8	-66.2	3.8	1.49e+00	0	39	104	832569344	72	22049

#Closed at: 2026-01-13 02:03:16
#Recorded file [832 MB]: D:/Data/31040_260113_045333.dat