passes_logs/2026/01/13/T1/T1__20260113_074507_KHAYYAM_rec.log

#Pass ID: 20260113_074507_KHAYYAM
#Satellite: KHAYYAM
#Configuration: KHAYYAM_480M
#almurnet v.1.7.20251203
#Start time: 2026-01-13 07:45:08

#Version: 2.0.20230620
#Station: T1
#Location: 37.570604 lon 55.790049 lat
#TLE: 1 53370U 22096A   26012.26586461  .00006533  00000+0  26633-3 0  9995
#TLE: 2 53370  97.3559 279.3255 0001355  93.9277 266.2116 15.24785034190825

#Time	Az	El	Level	Level2	SNR	BER	BlckErr	Temp	State	Recorded	gain1	gain2
2026-01-13 07:45:08.93	159.65	4.98	-52.5	-56.9	3.5	0.00e+00	0	46	0	0	76	24241
2026-01-13 07:45:10.91	159.64	5.15	-52.5	-56.9	3.7	0.00e+00	0	47	104	0	75	25658
2026-01-13 07:45:12.90	159.62	5.31	-52.5	-57.0	3.7	0.00e+00	0	47	104	0	75	25703
2026-01-13 07:45:14.88	159.60	5.48	-52.5	-56.9	3.7	0.00e+00	0	47	104	0	75	25643
2026-01-13 07:45:16.87	159.58	5.64	-52.5	-56.9	3.7	0.00e+00	0	47	104	0	75	25655
2026-01-13 07:45:18.86	159.56	5.81	-52.5	-56.9	3.7	0.00e+00	0	47	104	0	75	25672
2026-01-13 07:45:20.84	159.55	5.98	-52.5	-56.9	3.7	0.00e+00	0	47	104	0	75	25659
2026-01-13 07:45:22.83	159.53	6.15	-52.5	-57.0	3.7	0.00e+00	0	47	104	0	75	25708
2026-01-13 07:45:24.82	159.51	6.33	-52.5	-57.0	3.7	0.00e+00	0	48	104	0	75	25733
2026-01-13 07:45:26.80	159.49	6.50	-52.5	-56.9	3.7	0.00e+00	0	48	104	0	75	25672
2026-01-13 07:45:28.79	159.47	6.68	-52.5	-56.9	3.7	0.00e+00	0	48	104	0	75	25637
2026-01-13 07:45:30.78	159.45	6.85	-52.5	-56.9	3.7	0.00e+00	0	48	104	0	75	25618
2026-01-13 07:45:32.76	159.43	7.03	-52.5	-56.9	3.7	0.00e+00	0	48	104	0	75	25644
2026-01-13 07:45:34.75	159.40	7.21	-52.4	-56.9	3.7	0.00e+00	0	48	104	0	75	25593
2026-01-13 07:45:36.74	159.38	7.40	-52.5	-56.9	3.7	0.00e+00	0	49	104	0	75	25661
2026-01-13 07:45:38.72	159.36	7.58	-52.4	-56.9	3.7	0.00e+00	0	49	104	0	75	25643
2026-01-13 07:45:40.71	159.34	7.77	-52.5	-57.0	3.7	0.00e+00	0	49	104	0	75	25682
2026-01-13 07:45:42.70	159.31	7.96	-52.5	-56.9	3.7	0.00e+00	0	49	104	0	75	25615
2026-01-13 07:45:44.68	159.29	8.15	-52.5	-57.0	3.7	0.00e+00	0	49	104	0	75	25685
2026-01-13 07:45:46.67	159.27	8.34	-52.5	-56.9	3.7	0.00e+00	0	49	104	0	75	25621
2026-01-13 07:45:48.66	159.24	8.53	-52.4	-56.9	3.7	0.00e+00	0	49	104	0	75	25623
2026-01-13 07:45:50.64	159.22	8.73	-52.5	-56.9	3.7	0.00e+00	0	49	104	0	75	25661
2026-01-13 07:45:52.63	159.19	8.93	-52.5	-56.9	3.7	0.00e+00	0	49	104	0	75	25662
2026-01-13 07:45:54.62	159.17	9.13	-52.5	-56.9	3.7	0.00e+00	0	49	104	0	75	25642
2026-01-13 07:45:56.77	159.14	9.35	-52.6	-57.0	3.7	0.00e+00	0	49	104	0	75	25918
2026-01-13 07:45:58.98	159.11	9.58	-52.5	-57.0	3.7	0.00e+00	0	49	104	0	76	24339
2026-01-13 07:46:00.98	159.08	9.79	-52.9	-57.4	3.7	0.00e+00	0	49	104	0	76	25433
2026-01-13 07:46:03.24	159.05	10.03	-52.6	-57.0	3.7	0.00e+00	0	50	104	0	76	24363
2026-01-13 07:46:05.23	159.02	10.24	-52.9	-57.3	3.7	0.00e+00	0	50	104	0	76	25161
2026-01-13 07:46:07.17	158.99	10.45	-52.7	-57.1	3.7	0.00e+00	0	50	104	0	76	24571
2026-01-13 07:46:09.16	158.96	10.67	-52.8	-57.3	3.7	0.00e+00	0	50	104	0	76	25273
2026-01-13 07:46:11.18	158.92	10.89	-52.7	-57.2	3.7	0.00e+00	0	50	104	0	76	25002
2026-01-13 07:46:13.17	158.89	11.12	-52.8	-57.3	3.7	0.00e+00	0	50	104	0	76	25241
2026-01-13 07:46:15.27	158.86	11.36	-52.9	-57.4	3.7	0.00e+00	0	50	104	0	76	25420
2026-01-13 07:46:17.26	158.82	11.59	-52.7	-57.0	3.7	0.00e+00	0	50	104	0	76	24348
2026-01-13 07:46:19.25	158.79	11.82	-52.6	-56.9	3.7	0.00e+00	0	50	104	0	76	24235
2026-01-13 07:46:21.30	158.75	12.06	-52.8	-57.1	3.7	0.00e+00	0	50	104	0	76	24606
2026-01-13 07:46:23.50	158.71	12.33	-52.5	-57.0	3.7	0.00e+00	0	50	104	0	76	24341
2026-01-13 07:46:25.49	158.68	12.57	-52.7	-57.1	3.7	0.00e+00	0	50	104	0	76	24701
2026-01-13 07:46:27.49	158.64	12.81	-52.9	-57.3	3.7	0.00e+00	0	50	104	0	76	25218
2026-01-13 07:46:29.48	158.60	13.06	-53.1	-57.6	3.7	0.00e+00	0	50	104	0	76	26159
2026-01-13 07:46:31.47	158.56	13.32	-53.1	-57.7	3.7	0.00e+00	0	50	104	0	76	26289
2026-01-13 07:46:33.47	158.52	13.57	-53.1	-57.6	3.7	0.00e+00	0	50	104	0	76	26176
2026-01-13 07:46:35.48	158.48	13.83	-53.0	-57.6	3.7	0.00e+00	0	50	104	0	76	26173
2026-01-13 07:46:37.47	158.44	14.10	-53.0	-57.6	3.7	0.00e+00	0	50	104	0	76	26207
2026-01-13 07:46:39.48	158.39	14.37	-53.1	-57.6	3.7	0.00e+00	0	50	104	0	76	26172
2026-01-13 07:46:41.48	158.35	14.64	-53.0	-57.5	3.7	0.00e+00	0	50	104	0	76	25950
2026-01-13 07:46:43.47	158.30	14.91	-52.9	-57.5	3.7	0.00e+00	0	50	104	0	76	25867
2026-01-13 07:46:45.51	158.25	15.20	-52.8	-57.4	3.7	0.00e+00	0	50	104	0	76	25580
2026-01-13 07:46:47.49	158.21	15.48	-52.8	-57.4	3.7	0.00e+00	0	51	104	0	76	25494
2026-01-13 07:46:49.56	158.16	15.78	-52.8	-57.3	3.7	0.00e+00	0	50	104	0	76	25287
2026-01-13 07:46:51.74	158.10	16.10	-52.9	-57.3	3.7	0.00e+00	0	50	104	0	76	25338
2026-01-13 07:46:53.81	158.05	16.41	-52.9	-57.4	3.7	0.00e+00	0	51	104	0	76	25560
2026-01-13 07:46:55.80	157.99	16.71	-52.6	-57.3	3.7	0.00e+00	0	51	104	0	76	25232
2026-01-13 07:46:57.79	157.94	17.02	-52.7	-57.4	3.7	0.00e+00	0	50	104	0	76	25534
2026-01-13 07:46:59.78	157.88	17.33	-52.4	-57.2	3.7	0.00e+00	0	51	104	0	76	24843
2026-01-13 07:47:01.77	157.82	17.65	-52.2	-57.0	3.7	0.00e+00	0	51	104	0	76	24458
2026-01-13 07:47:03.76	157.76	17.97	-52.6	-57.3	3.7	0.00e+00	0	51	104	0	76	25251
2026-01-13 07:47:05.83	157.70	18.31	-52.6	-57.2	3.7	0.00e+00	0	51	104	0	76	24939
2026-01-13 07:47:07.82	157.64	18.65	-53.0	-57.6	3.7	0.00e+00	0	51	104	0	76	26072
2026-01-13 07:47:09.81	157.57	18.99	-53.0	-57.5	3.7	0.00e+00	0	51	104	0	76	25864
2026-01-13 07:47:11.80	157.51	19.33	-53.0	-57.6	3.7	0.00e+00	0	51	104	0	76	26067
2026-01-13 07:47:13.79	157.44	19.69	-52.9	-57.5	3.7	0.00e+00	0	51	104	0	76	25925
2026-01-13 07:47:15.78	157.37	20.04	-52.7	-57.5	3.7	0.00e+00	0	51	104	0	76	25780
2026-01-13 07:47:17.77	157.29	20.41	-52.9	-57.6	3.7	0.00e+00	0	51	104	0	76	26123
2026-01-13 07:47:19.76	157.22	20.78	-53.1	-57.7	3.6	0.00e+00	0	51	104	0	76	26363
2026-01-13 07:47:21.78	157.14	21.17	-53.2	-57.8	3.7	0.00e+00	0	51	104	0	77	25217
2026-01-13 07:47:23.77	157.06	21.55	-52.9	-57.5	3.7	0.00e+00	0	51	104	0	77	24406
2026-01-13 07:47:25.76	156.98	21.95	-53.0	-57.6	3.7	0.00e+00	0	51	104	0	77	24672
2026-01-13 07:47:27.81	156.89	22.36	-53.2	-57.7	3.7	0.00e+00	0	51	104	0	77	25018
2026-01-13 07:47:29.81	156.81	22.77	-53.2	-57.7	3.7	0.00e+00	0	51	104	0	77	25015
2026-01-13 07:47:31.88	156.71	23.21	-53.4	-57.9	3.7	0.00e+00	0	51	104	0	77	25600
2026-01-13 07:47:33.90	156.62	23.64	-53.4	-57.8	3.7	0.00e+00	0	51	104	0	77	25332
2026-01-13 07:47:35.90	156.52	24.08	-53.2	-57.8	3.7	0.00e+00	0	51	104	0	77	25177
2026-01-13 07:47:37.89	156.42	24.53	-53.3	-57.7	3.7	0.00e+00	0	51	104	0	77	25051
2026-01-13 07:47:39.88	156.32	24.98	-53.5	-58.0	3.7	0.00e+00	0	51	104	0	77	25793
2026-01-13 07:47:41.91	156.21	25.46	-53.4	-57.8	3.7	0.00e+00	0	51	104	0	77	25239
2026-01-13 07:47:43.93	156.10	25.94	-53.4	-57.9	3.7	0.00e+00	0	51	104	0	77	25607
2026-01-13 07:47:45.92	155.98	26.42	-53.4	-57.9	3.7	0.00e+00	0	51	104	0	77	25520
2026-01-13 07:47:47.99	155.86	26.94	-53.3	-57.7	3.7	0.00e+00	0	51	104	0	77	24967
2026-01-13 07:47:49.98	155.73	27.45	-53.5	-58.0	3.7	0.00e+00	0	51	104	0	77	25695
2026-01-13 07:47:51.97	155.61	27.97	-53.4	-57.8	3.7	0.00e+00	0	51	104	0	77	25243
2026-01-13 07:47:53.96	155.47	28.50	-53.3	-57.8	3.7	0.00e+00	0	51	104	0	77	25372
2026-01-13 07:47:55.96	155.33	29.04	-53.3	-57.7	3.7	0.00e+00	0	51	104	0	77	25003
2026-01-13 07:47:57.94	155.19	29.60	-53.2	-57.6	3.7	0.00e+00	0	51	104	0	77	24562
2026-01-13 07:47:59.93	155.04	30.17	-52.8	-57.5	3.7	0.00e+00	0	51	104	0	77	24279
2026-01-13 07:48:01.92	154.89	30.75	-52.6	-57.3	3.7	0.00e+00	0	51	104	0	75	26748
2026-01-13 07:48:03.85	154.73	31.33	-52.1	-57.1	3.7	0.00e+00	0	51	104	0	75	26225
2026-01-13 07:48:05.84	154.56	31.94	-52.5	-57.4	3.7	0.00e+00	0	51	104	0	76	25511
2026-01-13 07:48:07.83	154.39	32.56	-53.5	-58.0	3.7	0.00e+00	0	51	104	0	77	25781
2026-01-13 07:48:09.82	154.20	33.20	-53.4	-57.8	3.7	0.00e+00	0	51	104	0	77	25340
2026-01-13 07:48:11.81	154.01	33.86	-53.4	-57.9	3.7	0.00e+00	0	51	104	0	77	25629
2026-01-13 07:48:13.80	153.81	34.53	-53.4	-57.9	3.7	0.00e+00	0	51	104	0	77	25563
2026-01-13 07:48:15.79	153.60	35.22	-53.4	-57.8	3.7	0.00e+00	0	51	104	0	77	25367
2026-01-13 07:48:17.79	153.38	35.94	-53.5	-57.9	3.7	0.00e+00	0	51	104	0	77	25497
2026-01-13 07:48:19.97	153.12	36.73	-53.5	-57.9	3.7	0.00e+00	0	51	104	0	78	24156
2026-01-13 07:48:21.98	152.88	37.49	-53.5	-57.9	3.7	0.00e+00	0	51	104	0	78	24146
2026-01-13 07:48:23.96	152.62	38.25	-53.5	-58.0	3.7	0.00e+00	0	51	104	0	78	24434
2026-01-13 07:48:25.95	152.35	39.03	-53.8	-58.1	3.7	0.00e+00	0	51	104	0	78	24760
2026-01-13 07:48:27.96	152.07	39.85	-53.7	-58.1	3.7	0.00e+00	0	51	104	0	78	24704
2026-01-13 07:48:29.96	151.76	40.68	-53.5	-58.0	3.7	0.00e+00	0	51	104	0	78	24370
2026-01-13 07:48:32.08	151.42	41.58	-53.8	-58.1	3.7	0.00e+00	0	51	104	0	78	24805
2026-01-13 07:48:34.23	151.06	42.52	-53.7	-58.1	3.7	0.00e+00	0	51	104	0	78	24613
2026-01-13 07:48:36.44	150.66	43.52	-53.7	-58.1	3.7	0.00e+00	0	51	104	0	78	24658
2026-01-13 07:48:38.50	150.26	44.48	-53.7	-58.1	3.7	0.00e+00	0	51	104	0	78	24581
2026-01-13 07:48:40.51	149.85	45.43	-53.9	-58.2	3.7	0.00e+00	0	51	104	0	78	24937
2026-01-13 07:48:42.50	149.41	46.40	-53.9	-58.2	3.7	0.00e+00	0	51	104	0	78	24927
2026-01-13 07:48:44.51	148.94	47.40	-53.6	-58.2	3.7	0.00e+00	0	51	104	0	78	24810
2026-01-13 07:48:46.50	148.44	48.42	-53.7	-58.2	3.6	0.00e+00	0	51	104	0	78	25070
2026-01-13 07:48:48.52	147.90	49.48	-53.8	-58.1	3.7	0.00e+00	0	52	104	0	78	24717
2026-01-13 07:48:50.57	147.31	50.58	-53.7	-57.9	3.7	0.00e+00	0	51	104	0	78	24149
2026-01-13 07:48:52.56	146.69	51.68	-53.7	-58.0	3.7	0.00e+00	0	51	104	0	78	24389
2026-01-13 07:48:54.55	146.02	52.80	-53.4	-57.4	3.7	0.00e+00	0	51	104	0	78	22760
2026-01-13 07:48:56.54	145.30	53.94	-53.8	-58.1	3.7	0.00e+00	0	51	104	0	78	24547
2026-01-13 07:48:58.54	144.50	55.11	-53.8	-58.1	3.7	0.00e+00	0	51	104	0	78	24727
2026-01-13 07:49:00.55	143.64	56.31	-53.4	-57.6	3.7	0.00e+00	0	51	104	0	78	23262
2026-01-13 07:49:02.55	142.70	57.53	-53.3	-57.3	3.7	0.00e+00	0	51	104	0	78	22528
2026-01-13 07:49:04.54	141.67	58.76	-53.7	-57.9	3.7	0.00e+00	0	51	104	0	78	23988
2026-01-13 07:49:06.53	140.54	60.01	-53.4	-57.7	3.7	0.00e+00	0	51	104	0	78	23537
2026-01-13 07:49:08.53	139.28	61.28	-52.8	-57.3	3.7	0.00e+00	0	51	104	0	77	23788
2026-01-13 07:49:10.54	137.88	62.58	-53.4	-57.8	3.7	0.00e+00	0	51	104	0	77	25159
2026-01-13 07:49:12.54	136.32	63.87	-53.7	-58.0	3.7	0.00e+00	0	51	104	0	78	24376
2026-01-13 07:49:14.53	134.59	65.17	-53.4	-57.6	3.7	0.00e+00	0	51	104	0	78	23229
2026-01-13 07:49:16.52	132.64	66.47	-53.7	-58.0	3.7	0.00e+00	0	52	104	0	78	24294
2026-01-13 07:49:18.54	130.40	67.78	-53.9	-58.1	3.7	0.00e+00	0	52	104	0	78	24682
2026-01-13 07:49:20.54	127.88	69.06	-53.7	-57.8	3.7	0.00e+00	0	52	104	0	78	23874
2026-01-13 07:49:22.54	125.01	70.32	-53.5	-58.1	3.7	0.00e+00	0	52	104	0	78	24541
2026-01-13 07:49:24.53	121.73	71.54	-54.0	-58.3	3.7	0.00e+00	0	51	104	0	78	25258
2026-01-13 07:49:26.54	117.94	72.71	-53.6	-58.1	3.7	0.00e+00	0	52	104	0	78	24797
2026-01-13 07:49:28.65	113.33	73.87	-53.9	-58.3	3.7	0.00e+00	0	51	104	0	78	25174
2026-01-13 07:49:30.79	107.94	74.94	-53.3	-57.6	3.7	0.00e+00	0	52	104	0	78	23319
2026-01-13 07:49:33.25	100.74	76.00	-53.3	-57.8	3.7	0.00e+00	0	51	104	0	78	23790
2026-01-13 07:49:35.24	94.13	76.68	-53.6	-58.1	3.7	0.00e+00	0	51	104	0	78	24776
2026-01-13 07:49:37.23	86.89	77.17	-52.7	-57.5	3.7	0.00e+00	0	51	104	0	77	24451
2026-01-13 07:49:39.22	79.19	77.45	-53.1	-57.7	3.7	0.00e+00	0	51	104	0	77	25011
2026-01-13 07:49:41.32	70.84	77.50	-53.6	-58.0	3.7	0.00e+00	0	51	104	0	77	25910
2026-01-13 07:49:43.31	63.02	77.31	-53.8	-58.2	3.7	0.00e+00	0	52	104	0	78	25013
2026-01-13 07:49:45.30	55.58	76.90	-53.6	-58.2	3.7	0.00e+00	0	52	104	0	78	24845
2026-01-13 07:49:47.54	47.89	76.20	-53.8	-58.1	3.7	0.00e+00	0	52	104	0	78	24772
2026-01-13 07:49:49.74	41.19	75.31	-53.6	-58.2	3.7	0.00e+00	0	52	104	0	78	24861
2026-01-13 07:49:51.71	35.93	74.38	-53.9	-58.3	3.7	0.00e+00	0	52	104	0	78	25117
2026-01-13 07:49:53.70	31.27	73.33	-53.7	-58.2	3.7	0.00e+00	0	52	104	0	78	24942
2026-01-13 07:49:55.69	27.21	72.20	-53.7	-58.2	3.7	0.00e+00	0	52	104	0	78	24889
2026-01-13 07:49:57.68	23.68	71.02	-53.9	-58.3	3.7	0.00e+00	0	52	104	0	78	25227
2026-01-13 07:49:59.73	20.51	69.75	-53.7	-58.2	3.7	0.00e+00	0	51	104	0	78	25030
2026-01-13 07:50:01.74	17.80	68.47	-53.8	-58.0	3.7	0.00e+00	0	51	104	0	78	24468
2026-01-13 07:50:03.84	15.32	67.12	-53.4	-57.9	3.7	0.00e+00	0	52	104	0	78	24232
2026-01-13 07:50:06.02	13.07	65.70	-53.8	-58.2	3.7	0.00e+00	0	52	104	0	78	24892
2026-01-13 07:50:08.03	11.24	64.40	-53.3	-57.9	3.7	0.00e+00	0	51	104	0	78	24035
2026-01-13 07:50:10.02	9.62	63.11	-53.7	-58.1	3.7	0.00e+00	0	52	104	0	78	24762
2026-01-13 07:50:12.01	8.17	61.83	-53.7	-58.2	3.7	0.00e+00	0	52	104	0	78	24871
2026-01-13 07:50:14.00	6.87	60.56	-54.0	-58.3	3.7	0.00e+00	0	52	104	0	78	25330
2026-01-13 07:50:15.99	5.70	59.30	-53.8	-58.2	3.7	0.00e+00	0	51	104	0	78	24878
2026-01-13 07:50:17.98	4.63	58.07	-53.5	-58.0	3.7	0.00e+00	0	52	104	0	78	24429
2026-01-13 07:50:20.11	3.59	56.77	-53.8	-58.3	3.7	0.00e+00	0	52	104	0	78	25154
2026-01-13 07:50:22.16	2.68	55.54	-53.6	-58.0	3.7	0.00e+00	0	51	104	0	78	24308
2026-01-13 07:50:24.21	1.85	54.34	-53.3	-57.9	3.7	0.00e+00	0	52	104	0	78	24061
2026-01-13 07:50:26.20	1.11	53.19	-53.6	-58.0	3.7	0.00e+00	0	51	104	0	78	24283
2026-01-13 07:50:28.19	0.43	52.07	-53.7	-58.0	3.7	0.00e+00	0	52	104	0	78	24469
2026-01-13 07:50:30.19	359.79	50.97	-53.7	-58.1	3.7	0.00e+00	0	52	104	0	78	24759
2026-01-13 07:50:32.20	359.20	49.88	-53.9	-58.2	3.7	0.00e+00	0	52	104	0	78	25059
2026-01-13 07:50:34.20	358.65	48.83	-53.4	-58.1	3.7	0.00e+00	0	52	104	0	78	24564
2026-01-13 07:50:36.19	358.14	47.81	-53.4	-58.0	3.7	0.00e+00	0	52	104	0	78	24493
2026-01-13 07:50:38.21	357.66	46.79	-53.6	-58.0	3.7	0.00e+00	0	51	104	0	78	24402
2026-01-13 07:50:40.20	357.21	45.82	-53.6	-58.0	3.7	0.00e+00	0	51	104	0	78	24469
2026-01-13 07:50:42.19	356.80	44.87	-53.2	-57.6	3.7	0.00e+00	0	52	104	0	78	23314
2026-01-13 07:50:44.18	356.40	43.94	-53.0	-57.6	3.7	0.00e+00	0	52	104	0	77	24642
2026-01-13 07:50:46.17	356.04	43.04	-53.8	-58.3	3.7	0.00e+00	0	51	104	0	78	25263
2026-01-13 07:50:48.16	355.69	42.16	-53.7	-58.1	3.7	0.00e+00	0	52	104	0	78	24586
2026-01-13 07:50:50.15	355.36	41.30	-53.7	-58.3	3.7	0.00e+00	0	52	104	0	78	25098
2026-01-13 07:50:52.14	355.05	40.46	-53.8	-58.3	3.7	0.00e+00	0	52	104	0	78	25237
2026-01-13 07:50:54.06	354.77	39.68	-53.5	-58.2	3.7	0.00e+00	0	52	104	0	78	24840
2026-01-13 07:50:56.05	354.49	38.88	-53.7	-58.1	3.7	0.00e+00	0	52	104	0	78	24635
2026-01-13 07:50:58.04	354.22	38.10	-53.6	-58.2	3.7	0.00e+00	0	52	104	0	78	24938
2026-01-13 07:51:00.03	353.97	37.35	-53.3	-57.8	3.7	0.00e+00	0	52	104	0	78	23851
2026-01-13 07:51:02.02	353.73	36.61	-53.2	-57.7	3.7	0.00e+00	0	52	104	0	78	23653
2026-01-13 07:51:04.01	353.50	35.89	-52.7	-57.4	3.7	0.00e+00	0	52	104	0	77	24161
2026-01-13 07:51:06.03	353.28	35.18	-53.4	-57.8	3.7	0.00e+00	0	52	104	0	77	25295
2026-01-13 07:51:08.02	353.08	34.50	-53.2	-57.6	3.7	0.00e+00	0	51	104	0	77	24547
2026-01-13 07:51:10.01	352.88	33.83	-53.5	-57.8	3.7	0.00e+00	0	51	104	0	77	25383
2026-01-13 07:51:12.00	352.69	33.18	-53.3	-57.9	3.7	0.00e+00	0	52	104	0	77	25465
2026-01-13 07:51:13.99	352.51	32.54	-53.3	-57.8	3.7	0.00e+00	0	51	104	0	77	25170
2026-01-13 07:51:15.98	352.33	31.92	-53.3	-58.0	3.7	0.00e+00	0	52	104	0	77	25740
2026-01-13 07:51:18.31	352.14	31.22	-53.1	-57.8	3.7	0.00e+00	0	52	104	0	77	25126
2026-01-13 07:51:20.32	351.98	30.62	-53.5	-58.0	3.7	0.00e+00	0	52	104	0	78	24396
2026-01-13 07:51:22.55	351.81	29.98	-53.2	-57.8	3.7	0.00e+00	0	52	104	0	78	23816
2026-01-13 07:51:24.57	351.66	29.41	-52.7	-57.6	3.7	0.00e+00	0	52	104	0	77	24578
2026-01-13 07:51:26.56	351.52	28.86	-52.7	-57.6	3.7	0.00e+00	0	52	104	0	77	24589
2026-01-13 07:51:28.55	351.39	28.33	-53.6	-58.1	3.7	0.00e+00	0	52	104	0	77	26219
2026-01-13 07:51:30.54	351.26	27.81	-53.6	-58.1	3.7	0.00e+00	0	52	104	0	77	26141
2026-01-13 07:51:32.53	351.14	27.30	-53.5	-58.1	3.7	0.00e+00	0	52	104	0	77	26039
2026-01-13 07:51:34.52	351.02	26.80	-52.7	-57.7	3.7	0.00e+00	0	52	104	0	77	24881
2026-01-13 07:51:36.51	350.90	26.31	-52.1	-57.3	3.7	0.00e+00	0	52	104	0	76	25165
2026-01-13 07:51:38.62	350.78	25.80	-52.5	-57.2	3.7	0.00e+00	0	52	104	0	76	25082
2026-01-13 07:51:40.61	350.68	25.33	-52.4	-57.2	3.7	0.00e+00	0	52	104	0	76	24911
2026-01-13 07:51:42.60	350.57	24.88	-51.7	-56.8	3.7	0.00e+00	0	52	104	0	75	25193
2026-01-13 07:51:44.59	350.47	24.43	-50.8	-56.2	3.7	0.00e+00	0	52	104	0	73	26456
2026-01-13 07:51:46.58	350.37	23.99	-51.5	-56.9	3.7	0.00e+00	0	52	104	0	73	28641
2026-01-13 07:51:48.57	350.28	23.56	-50.8	-56.3	3.7	0.00e+00	0	52	104	0	73	26824
2026-01-13 07:51:50.56	350.19	23.14	-51.6	-56.9	3.7	0.00e+00	0	51	104	0	73	28619
2026-01-13 07:51:52.55	350.10	22.73	-52.5	-57.4	3.7	0.00e+00	0	52	104	0	75	27124
2026-01-13 07:51:54.54	350.02	22.32	-52.3	-57.3	3.7	0.00e+00	0	51	104	0	76	25341
2026-01-13 07:51:56.53	349.93	21.92	-52.1	-57.2	3.7	0.00e+00	0	52	104	0	76	25051
2026-01-13 07:51:58.63	349.85	21.51	-52.5	-57.5	3.7	0.00e+00	0	52	104	0	77	24273
2026-01-13 07:52:00.70	349.77	21.12	-53.2	-57.7	3.7	0.00e+00	0	52	104	0	77	25004
2026-01-13 07:52:02.68	349.70	20.74	-53.2	-57.8	3.7	0.00e+00	0	51	104	0	77	25277
2026-01-13 07:52:04.68	349.62	20.37	-53.0	-57.7	3.7	0.00e+00	0	52	104	0	76	26298
2026-01-13 07:52:06.67	349.55	20.01	-53.1	-57.8	3.7	0.00e+00	0	52	104	0	76	26702
2026-01-13 07:52:08.66	349.48	19.66	-52.1	-57.2	3.7	0.00e+00	0	52	104	0	76	25094
2026-01-13 07:52:10.58	349.42	19.32	-50.6	-56.2	3.7	0.00e+00	0	52	104	0	73	26556
2026-01-13 07:52:12.57	349.36	18.98	-51.7	-56.9	3.7	0.00e+00	0	52	104	0	75	25519
2026-01-13 07:52:14.56	349.29	18.65	-50.4	-56.2	3.7	0.00e+00	0	52	104	0	72	27844
2026-01-13 07:52:16.55	349.23	18.32	-50.7	-56.3	3.7	0.00e+00	0	52	104	0	72	28282
2026-01-13 07:52:18.53	349.17	17.99	-50.8	-56.4	3.7	0.00e+00	0	52	104	0	72	28598
2026-01-13 07:52:20.52	349.11	17.67	-50.9	-56.4	3.7	0.00e+00	0	52	104	0	72	28529
2026-01-13 07:52:22.62	349.06	17.34	-51.1	-56.6	3.7	0.00e+00	0	52	104	0	72	29272
2026-01-13 07:52:24.84	348.99	17.00	-50.9	-56.4	3.7	0.00e+00	0	51	104	0	73	27175
2026-01-13 07:52:27.00	348.94	16.67	-51.8	-57.0	3.7	0.00e+00	0	52	104	0	74	27445
2026-01-13 07:52:29.21	348.88	16.34	-51.5	-56.9	3.7	0.00e+00	0	52	104	0	74	27032
2026-01-13 07:52:31.24	348.83	16.04	-52.0	-57.2	3.7	0.00e+00	0	52	104	0	74	28127
2026-01-13 07:52:33.23	348.78	15.75	-52.5	-57.5	3.7	0.00e+00	0	52	104	0	75	27215
2026-01-13 07:52:35.49	348.73	15.43	-52.7	-57.9	3.7	0.00e+00	0	52	104	0	76	27038
2026-01-13 07:52:37.48	348.68	15.15	-52.3	-57.3	3.7	0.00e+00	0	52	104	0	76	25156
2026-01-13 07:52:39.47	348.64	14.88	-52.4	-57.3	3.7	0.00e+00	0	52	104	0	76	25208
2026-01-13 07:52:41.46	348.59	14.60	-52.0	-57.2	3.7	0.00e+00	0	52	104	0	75	26471
2026-01-13 07:52:43.47	348.55	14.33	-51.9	-56.6	3.7	0.00e+00	0	52	104	0	75	24603
2026-01-13 07:52:45.46	348.51	14.07	-52.0	-56.7	3.7	0.00e+00	0	52	104	0	75	24875
2026-01-13 07:52:47.45	348.47	13.81	-50.0	-55.6	3.7	0.00e+00	0	51	104	0	71	27799
2026-01-13 07:52:49.62	348.43	13.53	-50.4	-55.8	3.7	0.00e+00	0	52	104	0	71	28263
2026-01-13 07:52:51.61	348.39	13.28	-50.0	-55.4	3.7	0.00e+00	0	52	104	0	72	25476
2026-01-13 07:52:53.62	348.35	13.03	-50.8	-55.7	3.7	0.00e+00	0	52	104	0	72	26399
2026-01-13 07:52:55.61	348.31	12.79	-51.3	-56.0	3.7	0.00e+00	0	52	104	0	73	25846
2026-01-13 07:52:57.61	348.28	12.54	-51.2	-56.0	3.7	0.00e+00	0	52	104	0	73	25894
2026-01-13 07:52:59.62	348.24	12.30	-48.1	-54.1	3.8	0.00e+00	0	52	104	0	68	27700
2026-01-13 07:53:01.63	348.21	12.06	-48.7	-54.6	3.7	0.00e+00	0	52	104	0	69	27801
2026-01-13 07:53:03.62	348.18	11.83	-46.0	-52.7	3.9	0.00e+00	0	52	104	0	63	31307
2026-01-13 07:53:05.61	348.14	11.60	-46.1	-52.9	3.9	0.00e+00	0	52	104	0	63	32275
2026-01-13 07:53:07.60	348.11	11.37	-46.5	-53.4	3.9	0.00e+00	0	52	104	0	63	33952
2026-01-13 07:53:09.59	348.08	11.15	-46.2	-53.0	4.0	0.00e+00	0	52	104	0	63	32546
2026-01-13 07:53:11.58	348.05	10.93	-46.2	-53.0	4.0	0.00e+00	0	52	104	0	63	32603
2026-01-13 07:53:13.57	348.02	10.71	-46.2	-53.1	4.0	0.00e+00	0	52	104	0	63	32774
2026-01-13 07:53:15.56	347.99	10.49	-46.3	-53.2	3.9	0.00e+00	0	52	104	0	63	33096
2026-01-13 07:53:17.55	347.96	10.28	-46.2	-52.9	3.9	0.00e+00	0	52	104	0	63	32324
2026-01-13 07:53:19.53	347.94	10.07	-46.2	-53.0	3.9	0.00e+00	0	52	104	0	63	32358
2026-01-13 07:53:21.53	347.91	9.86	-46.3	-53.0	3.9	0.00e+00	0	52	104	0	63	32382
2026-01-13 07:53:23.52	347.88	9.65	-46.3	-53.0	3.9	0.00e+00	0	52	104	0	64	30779
2026-01-13 07:53:25.51	347.86	9.45	-46.2	-52.9	3.9	0.00e+00	0	52	104	0	64	30309
2026-01-13 07:53:27.49	347.83	9.25	-46.3	-53.0	3.9	0.00e+00	0	52	104	0	64	30787
2026-01-13 07:53:29.48	347.81	9.05	-46.1	-53.0	3.9	0.00e+00	0	52	104	0	64	30661
2026-01-13 07:53:31.47	347.79	8.85	-52.6	-57.6	3.7	0.00e+00	0	52	104	0	76	26058
2026-01-13 07:53:33.46	347.76	8.65	-51.9	-56.7	3.7	0.00e+00	0	52	104	0	75	24986
2026-01-13 07:53:35.45	347.74	8.46	-53.7	-58.2	3.7	0.00e+00	0	52	104	0	78	24808
2026-01-13 07:53:37.43	347.72	8.27	-53.1	-57.7	3.7	0.00e+00	0	52	104	0	77	25001
2026-01-13 07:53:39.42	347.70	8.08	-53.4	-57.8	3.7	0.00e+00	0	52	104	0	78	23813
2026-01-13 07:53:41.45	347.67	7.89	-53.8	-58.2	3.7	0.00e+00	0	52	104	0	78	24898
2026-01-13 07:53:43.50	347.65	7.70	-53.8	-58.3	3.7	0.00e+00	0	52	104	0	78	25208
2026-01-13 07:53:45.55	347.63	7.51	-54.0	-58.4	3.7	0.00e+00	0	52	104	0	78	25386
2026-01-13 07:53:47.54	347.61	7.33	-53.7	-58.3	3.7	0.00e+00	0	52	104	0	78	25314
2026-01-13 07:53:49.53	347.59	7.15	-53.8	-58.3	3.7	0.00e+00	0	52	104	0	78	25339
2026-01-13 07:53:51.51	347.57	6.97	-54.1	-58.5	3.7	0.00e+00	0	52	104	0	78	25886
2026-01-13 07:53:53.50	347.55	6.79	-53.8	-58.2	3.7	0.00e+00	0	52	104	0	78	25001
2026-01-13 07:53:55.49	347.54	6.62	-53.6	-57.8	3.7	0.00e+00	0	52	104	0	78	23920
2026-01-13 07:53:57.47	347.52	6.44	-53.5	-57.8	3.7	0.00e+00	0	52	104	0	78	23763
2026-01-13 07:53:59.46	347.50	6.27	-53.4	-57.7	3.7	0.00e+00	0	52	104	0	78	23650
2026-01-13 07:54:01.45	347.48	6.10	-53.4	-57.8	3.7	0.00e+00	0	52	104	0	78	23697
2026-01-13 07:54:03.43	347.47	5.93	-53.4	-57.8	3.7	0.00e+00	0	52	104	0	78	23700
2026-01-13 07:54:05.42	347.45	5.76	-53.4	-57.7	3.7	0.00e+00	0	52	104	0	78	23628
2026-01-13 07:54:07.41	347.43	5.60	-53.4	-57.7	3.7	0.00e+00	0	52	104	0	78	23624
2026-01-13 07:54:09.39	347.42	5.43	-53.4	-57.8	3.6	0.00e+00	0	52	104	0	78	23701
2026-01-13 07:54:11.38	347.40	5.27	-53.4	-57.7	3.7	0.00e+00	0	52	104	0	78	23576
2026-