passes_logs/2026/01/13/T1/T1__20260113_061836_FENGYUN_3E_rec.log

#Pass ID: 20260113_061836_FENGYUN 3E
#Satellite: FENGYUN 3E
#Configuration: FENGYUN 3E
#almurnet v.1.7.20251203
#Start time: 2026-01-13 06:18:36

#Version: 2.0.20230620
#Station: T1
#Location: 37.570604 lon 55.790049 lat
#TLE: 1 49008U 21062A   26012.25745337  .00000274  00000+0  14981-3 0  9997
#TLE: 2 49008  98.7491  17.4183 0001913 142.8235 217.3074 14.19885845234459

#Time	Az	El	Level	Level2	SNR	BER	BlckErr	Temp	State	Recorded	gain1	gain2
2026-01-13 06:18:36.88	2.58	5.00	-50.1	-62.2	3.8	8.47e-01	0	41	0	0	70	14689
2026-01-13 06:18:39.87	2.26	5.15	-47.1	-61.7	3.8	8.46e-01	0	41	104	0	65	18448
2026-01-13 06:18:42.86	1.94	5.30	-47.1	-61.8	3.8	8.47e-01	0	41	104	0	64	19639
2026-01-13 06:18:45.85	1.61	5.45	-47.1	-61.7	3.8	8.47e-01	0	42	104	0	64	19447
2026-01-13 06:18:48.84	1.27	5.60	-47.1	-61.7	3.8	8.47e-01	0	42	104	0	64	19587
2026-01-13 06:18:51.83	0.94	5.75	-47.1	-61.7	3.8	8.47e-01	0	42	104	0	64	19539
2026-01-13 06:18:54.82	0.60	5.90	-47.1	-61.7	3.8	8.48e-01	0	42	104	0	64	19553
2026-01-13 06:18:57.81	0.25	6.05	-47.1	-61.7	3.8	8.47e-01	0	42	104	0	64	19503
2026-01-13 06:19:00.80	359.91	6.20	-47.1	-61.7	3.8	8.46e-01	0	42	104	0	64	19498
2026-01-13 06:19:03.79	359.56	6.34	-47.1	-61.7	3.8	8.48e-01	0	42	104	0	64	19458
2026-01-13 06:19:06.78	359.20	6.49	-47.1	-61.7	3.8	8.46e-01	0	42	104	0	64	19445
2026-01-13 06:19:09.77	358.84	6.64	-47.1	-61.7	3.8	8.46e-01	0	42	104	0	64	19544
2026-01-13 06:19:12.76	358.48	6.79	-47.1	-61.6	3.8	8.47e-01	0	42	104	0	64	19388
2026-01-13 06:19:15.75	358.12	6.94	-47.1	-61.7	3.8	8.47e-01	0	43	104	0	64	19608
2026-01-13 06:19:18.74	357.75	7.09	-47.1	-61.7	3.8	8.47e-01	0	43	104	0	64	19491
2026-01-13 06:19:21.72	357.37	7.23	-47.1	-61.7	3.8	8.46e-01	0	43	104	0	64	19547
2026-01-13 06:19:24.71	357.00	7.38	-47.1	-61.7	3.8	8.47e-01	0	43	104	0	64	19606
2026-01-13 06:19:27.71	356.61	7.53	-47.1	-61.7	3.8	8.46e-01	0	43	104	0	64	19499
2026-01-13 06:19:30.70	356.23	7.67	-47.1	-61.7	3.8	8.47e-01	0	43	104	0	64	19547
2026-01-13 06:19:33.69	355.84	7.82	-47.1	-61.3	3.8	8.46e-01	0	43	104	0	64	18518
2026-01-13 06:19:36.67	355.45	7.97	-47.0	-59.5	3.9	8.46e-01	0	43	104	0	64	15065
2026-01-13 06:19:39.66	355.05	8.11	-47.0	-59.3	3.8	8.45e-01	0	43	104	0	64	14741
2026-01-13 06:19:42.65	354.65	8.26	-47.1	-60.7	3.8	8.45e-01	0	43	104	0	64	17455
2026-01-13 06:19:45.64	354.24	8.40	-47.1	-60.6	3.8	8.47e-01	0	43	104	0	64	17113
2026-01-13 06:19:48.63	353.83	8.54	-47.0	-58.9	3.8	8.44e-01	0	43	104	0	64	14172
2026-01-13 06:19:51.62	353.42	8.69	-46.3	-53.0	7.5	1.25e-01	0	43	0	10485760	63	7618
2026-01-13 06:19:54.61	353.00	8.83	-45.6	-51.0	9.5	1.45e-02	0	43	0	32505856	62	6401
2026-01-13 06:19:57.59	352.58	8.97	-45.0	-49.5	11.2	1.46e-03	0	43	0	53477376	60	6002
2026-01-13 06:20:00.59	352.15	9.11	-45.1	-48.8	11.8	7.32e-05	0	44	0	75497472	59	5905
2026-01-13 06:20:03.60	351.72	9.25	-43.9	-46.8	13.6	7.16e-01	0	43	104	90177536	58	4934
2026-01-13 06:20:06.59	351.28	9.39	-42.4	-44.4	16.1	0.00e+00	0	43	0	111149056	55	4444
2026-01-13 06:20:09.60	350.84	9.53	-42.5	-44.2	16.3	0.00e+00	0	43	0	132120576	55	4355
2026-01-13 06:20:12.60	350.39	9.67	-42.5	-43.9	16.5	0.00e+00	0	43	0	154140672	55	4232
2026-01-13 06:20:15.61	349.94	9.81	-42.8	-44.2	16.2	0.00e+00	0	43	0	176160768	55	4391
2026-01-13 06:20:18.62	349.49	9.95	-42.4	-44.0	16.4	0.00e+00	0	43	0	197132288	55	4272
2026-01-13 06:20:21.63	349.03	10.08	-42.4	-44.3	16.2	0.00e+00	0	44	0	219152384	55	4405
2026-01-13 06:20:24.62	348.56	10.22	-42.1	-44.2	16.3	0.00e+00	0	44	0	241172480	54	4607
2026-01-13 06:20:27.62	348.10	10.35	-41.9	-44.1	16.4	0.00e+00	0	44	0	262144000	54	4578
2026-01-13 06:20:30.63	347.62	10.48	-41.4	-43.5	16.9	0.00e+00	0	44	0	284164096	53	4515
2026-01-13 06:20:33.63	347.15	10.61	-41.6	-43.8	16.6	0.00e+00	0	44	0	306184192	53	4656
2026-01-13 06:20:36.63	346.67	10.74	-41.6	-43.6	16.8	0.00e+00	0	44	0	327155712	53	4589
2026-01-13 06:20:39.63	346.18	10.87	-41.8	-43.8	16.7	0.00e+00	0	44	0	349175808	53	4666
2026-01-13 06:20:42.63	345.69	11.00	-41.8	-43.7	16.8	0.00e+00	0	44	0	371195904	53	4618
2026-01-13 06:20:45.64	345.20	11.12	-42.3	-44.0	16.5	0.00e+00	0	44	0	393216000	54	4544
2026-01-13 06:20:48.64	344.70	11.25	-42.4	-43.9	16.6	0.00e+00	0	44	0	414187520	54	4485
2026-01-13 06:20:51.64	344.20	11.37	-42.4	-43.9	16.6	0.00e+00	0	44	0	436207616	54	4447
2026-01-13 06:20:54.65	343.69	11.49	-42.3	-43.8	16.8	0.00e+00	0	44	0	458227712	54	4392
2026-01-13 06:20:57.65	343.18	11.61	-42.1	-43.5	17.0	0.00e+00	0	43	0	479199232	54	4262
2026-01-13 06:21:00.66	342.67	11.73	-41.7	-43.0	17.5	0.00e+00	0	44	0	501219328	54	4030
2026-01-13 06:21:03.67	342.15	11.85	-42.1	-43.6	16.9	0.00e+00	0	44	0	522190848	54	4332
2026-01-13 06:21:06.67	341.62	11.96	-41.9	-43.5	17.0	0.00e+00	0	44	0	544210944	54	4245
2026-01-13 06:21:09.68	341.09	12.07	-41.9	-43.5	17.0	0.00e+00	0	44	0	566231040	54	4272
2026-01-13 06:21:12.68	340.56	12.19	-41.9	-43.5	17.0	0.00e+00	0	44	0	588251136	54	4272
2026-01-13 06:21:15.68	340.03	12.29	-41.7	-43.2	17.2	0.00e+00	0	44	0	609222656	53	4378
2026-01-13 06:21:18.68	339.49	12.40	-41.5	-42.8	17.6	0.00e+00	0	44	0	631242752	53	4178
2026-01-13 06:21:21.68	338.94	12.51	-41.8	-43.1	17.4	0.00e+00	0	44	0	653262848	53	4304
2026-01-13 06:21:24.69	338.39	12.61	-41.7	-43.0	17.5	0.00e+00	0	44	0	674234368	53	4256
2026-01-13 06:21:27.70	337.84	12.71	-41.9	-43.2	17.2	0.00e+00	0	44	0	696254464	53	4385
2026-01-13 06:21:30.70	337.29	12.81	-41.8	-43.2	17.2	0.00e+00	0	44	0	718274560	53	4388
2026-01-13 06:21:33.70	336.73	12.90	-41.7	-43.0	17.4	0.00e+00	0	44	0	739246080	53	4285
2026-01-13 06:21:36.71	336.16	13.00	-41.8	-43.2	17.3	0.00e+00	0	44	0	761266176	53	4351
2026-01-13 06:21:39.71	335.60	13.09	-41.8	-43.1	17.3	0.00e+00	0	44	0	783286272	53	4334
2026-01-13 06:21:42.71	335.03	13.18	-41.7	-43.0	17.5	0.00e+00	0	44	0	804257792	53	4278
2026-01-13 06:21:45.72	334.45	13.26	-41.5	-42.7	17.7	0.00e+00	0	44	0	826277888	53	4129
2026-01-13 06:21:48.72	333.88	13.35	-41.3	-42.6	17.9	0.00e+00	0	44	0	848297984	53	4055
2026-01-13 06:21:51.73	333.29	13.43	-41.3	-42.5	17.9	0.00e+00	0	44	0	869269504	53	4030
2026-01-13 06:21:54.73	332.71	13.51	-41.2	-42.4	18.0	0.00e+00	0	44	0	891289600	53	3986
2026-01-13 06:21:57.73	332.12	13.58	-41.4	-42.6	17.8	0.00e+00	0	44	0	913309696	53	4080
2026-01-13 06:22:00.73	331.54	13.66	-41.4	-42.7	17.8	0.00e+00	0	44	0	935329792	53	4105
2026-01-13 06:22:03.74	330.94	13.73	-41.4	-42.7	17.8	0.00e+00	0	44	0	956301312	53	4116
2026-01-13 06:22:06.74	330.35	13.80	-41.3	-42.5	18.0	0.00e+00	0	44	0	978321408	53	4023
2026-01-13 06:22:09.75	329.75	13.86	-41.1	-42.2	18.3	0.00e+00	0	44	0	1000341504	52	4130
2026-01-13 06:22:12.75	329.15	13.92	-41.0	-42.3	18.2	0.00e+00	0	44	0	1021313024	52	4147
2026-01-13 06:22:15.76	328.54	13.98	-41.1	-42.3	18.2	0.00e+00	0	44	0	1043333120	52	4167
2026-01-13 06:22:18.77	327.93	14.04	-41.3	-42.5	18.0	0.00e+00	0	44	0	1064304640	52	4252
2026-01-13 06:22:21.77	327.33	14.09	-41.3	-42.6	17.9	0.00e+00	0	44	0	1086324736	52	4300
2026-01-13 06:22:24.77	326.72	14.14	-41.1	-42.3	18.1	0.00e+00	0	44	0	1108344832	52	4176
2026-01-13 06:22:27.78	326.10	14.18	-41.1	-42.3	18.2	0.00e+00	0	44	0	1129316352	52	4170
2026-01-13 06:22:30.78	325.49	14.23	-41.1	-42.4	18.1	0.00e+00	0	44	0	1151336448	52	4196
2026-01-13 06:22:33.78	324.88	14.27	-41.0	-42.3	18.1	0.00e+00	0	44	0	1173356544	52	4181
2026-01-13 06:22:36.78	324.26	14.30	-41.4	-42.7	17.8	0.00e+00	0	44	0	1195376640	52	4355
2026-01-13 06:22:39.78	323.64	14.34	-41.6	-42.8	17.7	0.00e+00	0	44	0	1216348160	52	4423
2026-01-13 06:22:42.78	323.02	14.37	-41.2	-42.4	18.1	0.00e+00	0	44	0	1238368256	52	4205
2026-01-13 06:22:45.79	322.40	14.39	-41.2	-42.3	18.2	0.00e+00	0	44	0	1260388352	52	4156
2026-01-13 06:22:48.79	321.77	14.42	-41.1	-42.2	18.3	0.00e+00	0	44	0	1281359872	52	4130
2026-01-13 06:22:51.79	321.15	14.44	-41.0	-42.2	18.3	0.00e+00	0	44	0	1303379968	52	4117
2026-01-13 06:22:54.79	320.53	14.45	-41.3	-42.4	18.1	0.00e+00	0	44	0	1325400064	52	4220
2026-01-13 06:22:57.79	319.90	14.47	-41.0	-42.2	18.3	0.00e+00	0	44	0	1346371584	52	4107
2026-01-13 06:23:00.80	319.28	14.48	-41.0	-42.1	18.4	0.00e+00	0	44	0	1368391680	52	4082
2026-01-13 06:23:03.80	318.65	14.48	-41.0	-42.2	18.2	0.00e+00	0	44	0	1390411776	52	4136
2026-01-13 06:23:06.80	318.02	14.49	-41.3	-42.5	18.0	0.00e+00	0	44	0	1411383296	52	4287
2026-01-13 06:23:09.81	317.40	14.49	-41.2	-42.4	18.1	0.00e+00	0	44	0	1433403392	52	4222
2026-01-13 06:23:12.81	316.77	14.48	-41.1	-42.4	18.1	0.00e+00	0	44	0	1455423488	52	4194
2026-01-13 06:23:15.81	316.15	14.48	-41.1	-42.2	18.3	0.00e+00	0	44	0	1476395008	52	4141
2026-01-13 06:23:18.82	315.52	14.47	-41.0	-42.1	18.3	0.00e+00	0	44	0	1498415104	52	4098
2026-01-13 06:23:21.82	314.89	14.45	-40.9	-42.0	18.5	0.00e+00	0	44	0	1520435200	52	4020
2026-01-13 06:23:24.82	314.27	14.43	-40.9	-42.1	18.4	0.00e+00	0	44	0	1541406720	52	4057
2026-01-13 06:23:27.82	313.65	14.41	-40.9	-42.1	18.4	0.00e+00	0	44	0	1563426816	52	4069
2026-01-13 06:23:30.83	313.02	14.39	-40.9	-42.0	18.5	0.00e+00	0	44	0	1584398336	52	4028
2026-01-13 06:23:33.83	312.40	14.36	-40.9	-42.1	18.4	0.00e+00	0	44	0	1606418432	52	4057
2026-01-13 06:23:36.83	311.78	14.33	-40.8	-41.9	18.5	0.00e+00	0	44	0	1628438528	52	3991
2026-01-13 06:23:39.84	311.16	14.30	-41.0	-42.2	18.3	0.00e+00	0	44	0	1650458624	52	4100
2026-01-13 06:23:42.84	310.54	14.26	-41.0	-42.1	18.4	0.00e+00	0	44	0	1671430144	52	4085
2026-01-13 06:23:45.84	309.93	14.22	-41.0	-42.2	18.3	0.00e+00	0	44	0	1693450240	52	4113
2026-01-13 06:23:48.85	309.31	14.18	-41.2	-42.4	18.1	0.00e+00	0	44	0	1715470336	52	4195
2026-01-13 06:23:51.85	308.70	14.13	-41.3	-42.4	18.1	0.00e+00	0	44	0	1736441856	52	4211
2026-01-13 06:23:54.86	308.09	14.08	-41.2	-42.4	18.1	0.00e+00	0	44	0	1758461952	52	4195
2026-01-13 06:23:57.86	307.48	14.03	-41.0	-42.1	18.4	0.00e+00	0	44	0	1780482048	52	4076
2026-01-13 06:24:00.87	306.87	13.97	-41.1	-42.3	18.2	0.00e+00	0	44	0	1801453568	52	4161
2026-01-13 06:24:03.87	306.27	13.91	-41.3	-42.4	18.0	0.00e+00	0	44	0	1823473664	52	4240
2026-01-13 06:24:06.87	305.66	13.85	-41.2	-42.3	18.1	0.00e+00	0	44	0	1845493760	52	4189
2026-01-13 06:24:09.88	305.06	13.78	-41.4	-42.5	17.9	0.00e+00	0	44	0	1866465280	52	4279
2026-01-13 06:24:12.87	304.47	13.71	-41.4	-42.5	17.9	0.00e+00	0	44	0	1888485376	52	4280
2026-01-13 06:24:15.87	303.88	13.64	-41.4	-42.6	17.8	0.00e+00	0	44	0	1910505472	52	4306
2026-01-13 06:24:18.88	303.29	13.57	-41.3	-42.4	18.0	0.00e+00	0	44	0	1931476992	52	4222
2026-01-13 06:24:21.88	302.70	13.49	-41.4	-42.6	17.8	0.00e+00	0	44	0	1953497088	52	4310
2026-01-13 06:24:24.88	302.11	13.41	-41.4	-42.6	17.8	0.00e+00	0	44	0	1975517184	52	4310
2026-01-13 06:24:27.89	301.53	13.33	-41.4	-42.6	17.8	0.00e+00	0	44	0	1997537280	52	4303
2026-01-13 06:24:30.89	300.95	13.25	-41.5	-42.6	17.8	0.00e+00	0	44	0	2018508800	52	4322
2026-01-13 06:24:33.90	300.38	13.16	-41.6	-42.8	17.6	0.00e+00	0	44	0	2040528896	52	4408
2026-01-13 06:24:36.90	299.81	13.07	-41.7	-42.9	17.5	0.00e+00	0	44	0	2062548992	52	4475
2026-01-13 06:24:39.90	299.24	12.98	-41.7	-42.9	17.5	0.00e+00	0	44	0	2083520512	53	4220
2026-01-13 06:24:42.91	298.67	12.88	-41.7	-42.9	17.6	0.00e+00	0	44	0	2105540608	53	4194
2026-01-13 06:24:45.91	298.11	12.79	-41.9	-43.1	17.4	0.00e+00	0	44	0	2126512128	53	4298
2026-01-13 06:24:48.92	297.56	12.69	-41.7	-42.9	17.5	0.00e+00	0	44	0	2148532224	53	4216
2026-01-13 06:24:51.92	297.00	12.59	-41.7	-42.8	17.6	0.00e+00	0	44	0	2170552320	53	4181
2026-01-13 06:24:54.93	296.45	12.48	-41.8	-43.0	17.4	0.00e+00	0	44	0	2191523840	53	4279
2026-01-13 06:24:57.93	295.91	12.38	-41.8	-43.0	17.4	0.00e+00	0	44	0	2213543936	53	4249
2026-01-13 06:25:00.94	295.37	12.27	-41.9	-43.1	17.3	0.00e+00	0	44	0	2235564032	53	4314
2026-01-13 06:25:03.94	294.83	12.16	-42.0	-43.2	17.2	0.00e+00	0	44	0	2257584128	53	4377
2026-01-13 06:25:06.95	294.29	12.05	-42.0	-43.2	17.2	0.00e+00	0	44	0	2278555648	53	4362
2026-01-13 06:25:09.95	293.77	11.94	-42.2	-43.4	17.0	0.00e+00	0	44	0	2300575744	53	4488
2026-01-13 06:25:12.96	293.24	11.82	-41.9	-43.1	17.3	0.00e+00	0	44	0	2322595840	54	4083
2026-01-13 06:25:15.96	292.72	11.70	-42.2	-43.4	17.0	0.00e+00	0	44	0	2343567360	54	4223
2026-01-13 06:25:18.96	292.20	11.59	-42.2	-43.5	17.0	0.00e+00	0	44	0	2365587456	54	4257
2026-01-13 06:25:21.97	291.69	11.46	-42.3	-43.6	16.8	0.00e+00	0	44	0	2387607552	54	4299
2026-01-13 06:25:24.97	291.18	11.34	-42.5	-43.8	16.6	0.00e+00	0	44	0	2408579072	54	4412
2026-01-13 06:25:27.97	290.68	11.22	-42.5	-43.8	16.6	0.00e+00	0	44	0	2430599168	54	4431
2026-01-13 06:25:30.98	290.18	11.09	-42.4	-43.7	16.7	0.00e+00	0	44	0	2452619264	54	4353
2026-01-13 06:25:33.98	289.68	10.97	-42.5	-43.8	16.5	0.00e+00	0	44	0	2473590784	54	4409
2026-01-13 06:25:36.98	289.19	10.84	-42.3	-43.6	16.7	0.00e+00	0	44	0	2495610880	54	4334
2026-01-13 06:25:39.99	288.70	10.71	-42.4	-43.7	16.7	0.00e+00	0	44	0	2517630976	54	4387
2026-01-13 06:25:42.99	288.22	10.58	-42.5	-43.8	16.6	0.00e+00	0	44	0	2539651072	54	4401
2026-01-13 06:25:45.99	287.74	10.45	-42.2	-43.4	17.0	0.00e+00	0	44	0	2560622592	54	4229
2026-01-13 06:25:48.99	287.27	10.32	-42.6	-43.9	16.5	0.00e+00	0	44	0	2582642688	54	4462
2026-01-13 06:25:51.99	286.80	10.18	-42.5	-43.7	16.6	0.00e+00	0	44	0	2604662784	54	4390
2026-01-13 06:25:54.99	286.34	10.05	-42.5	-43.8	16.6	0.00e+00	0	44	0	2625634304	54	4418
2026-01-13 06:25:58.00	285.88	9.91	-42.7	-44.0	16.4	0.00e+00	0	44	0	2647654400	54	4514
2026-01-13 06:26:01.00	285.42	9.77	-42.6	-43.9	16.4	0.00e+00	0	44	0	2668625920	54	4481
2026-01-13 06:26:04.00	284.97	9.64	-42.8	-44.2	16.2	0.00e+00	0	44	0	2690646016	55	4342
2026-01-13 06:26:07.00	284.52	9.50	-42.4	-43.7	16.6	0.00e+00	0	44	0	2712666112	55	4126
2026-01-13 06:26:10.01	284.08	9.36	-42.4	-43.7	16.6	0.00e+00	0	44	0	2733637632	55	4135
2026-01-13 06:26:13.02	283.64	9.22	-42.5	-43.8	16.5	0.00e+00	0	44	0	2755657728	55	4186
2026-01-13 06:26:16.02	283.20	9.07	-42.7	-44.0	16.3	0.00e+00	0	44	0	2777677824	55	4266
2026-01-13 06:26:19.01	282.77	8.93	-51.2	-62.0	3.8	8.47e-01	0	44	104	2790260736	71	13427
2026-01-13 06:26:22.00	282.35	8.79	-51.4	-62.3	3.8	8.47e-01	0	44	104	2790260736	72	13198
2026-01-13 06:26:24.98	281.93	8.65	-51.6	-62.5	3.8	8.47e-01	0	44	104	2790260736	72	13452
2026-01-13 06:26:27.97	281.52	8.50	-51.6	-62.5	3.8	8.47e-01	0	44	104	2790260736	72	13482
2026-01-13 06:26:30.96	281.10	8.36	-51.6	-62.5	3.8	8.46e-01	0	44	104	2790260736	72	13433
2026-01-13 06:26:33.94	280.70	8.22	-51.5	-62.5	3.8	8.46e-01	0	44	104	2790260736	72	13421
2026-01-13 06:26:36.93	280.29	8.07	-51.6	-62.5	3.8	8.47e-01	0	44	104	2790260736	72	13434
2026-01-13 06:26:39.91	279.89	7.92	-51.5	-62.4	3.8	8.47e-01	0	44	104	2790260736	72	13297
2026-01-13 06:26:42.90	279.50	7.78	-51.4	-62.4	3.8	8.47e-01	0	44	104	2790260736	72	13262
2026-01-13 06:26:45.89	279.11	7.63	-51.4	-62.3	3.8	8.47e-01	0	44	104	2790260736	72	13254
2026-01-13 06:26:48.88	278.72	7.48	-51.4	-62.3	3.8	8.47e-01	0	44	104	2790260736	72	13238
2026-01-13 06:26:51.87	278.34	7.34	-51.4	-62.4	3.8	8.47e-01	0	44	104	2790260736	72	13261
2026-01-13 06:26:54.87	277.96	7.19	-51.4	-62.3	3.8	8.47e-01	0	44	104	2790260736	72	13258
2026-01-13 06:26:57.86	277.58	7.04	-51.4	-62.4	3.8	8.46e-01	0	44	104	2790260736	72	13283
2026-01-13 06:27:00.85	277.21	6.89	-51.4	-62.3	3.8	8.47e-01	0	44	104	2790260736	72	13235
2026-01-13 06:27:03.84	276.84	6.74	-51.4	-62.4	3.8	8.47e-01	0	44	104	2790260736	72	13270
2026-01-13 06:27:06.82	276.48	6.60	-51.4	-62.3	3.8	8.47e-01	0	44	104	2790260736	72	13254
2026-01-13 06:27:09.82	276.12	6.45	-51.4	-62.3	3.8	8.46e-01	0	44	104	2790260736	72	13170
2026-01-13 06:27:12.80	275.76	6.30	-51.4	-62.3	3.8	8.47e-01	0	44	104	2790260736	72	13168
2026-01-13 06:27:15.79	275.41	6.15	-51.4	-62.3	3.8	8.47e-01	0	44	104	2790260736	72	13202
2026-01-13 06:27:18.78	275.06	6.00	-51.4	-62.3	3.8	8.47e-01	0	44	104	2790260736	72	13201
2026-01-13 06:27:21.77	274.71	5.85	-51.4	-62.3	3.8	8.47e-01	0	44	104	2790260736	72	13241
2026-01-13 06:27:24.76	274.37	5.70	-51.4	-62.3	3.8	8.47e-01	0	44	104	2790260736	72	13242
2026-01-13 06:27:27.75	274.03	5.55	-51.4	-62.3	3.8	8.47e-01	0	44	104	2790260736	72	13166
2026-01-13 06:27:30.74	273.70	5.40	-51.4	-62.3	3.8	8.48e-01	0	44	104	2790260736	72	13243
2026-01-13 06:27:33.72	273.37	5.25	-51.4	-62.3	3.8	8.47e-01	0	44	104	2790260736	72	13178
2026-01-13 06:27:36.71	273.04	5.10	-51.4	-62.3	3.8	8.47e-01	0	44	104	2790260736	72	13127

#Closed at: 2026-01-13 06:27:39
#Recorded file [2790 MB]: D:/Data/31040_260113_091836.dat