passes_logs/2026/01/13/T1/T1__20260113_084433_NOAA_20_JPSS-1_rec.log

#Pass ID: 20260113_084433_NOAA 20 (JPSS-1)
#Satellite: NOAA 20 (JPSS-1)
#Configuration: NOAA 20
#almurnet v.1.7.20251203
#Start time: 2026-01-13 08:44:35

#Version: 2.0.20230620
#Station: T1
#Location: 37.570604 lon 55.790049 lat
#TLE: 1 43013U 17073A   26012.29914746  .00000087  00000+0  62270-4 0  9997
#TLE: 2 43013  98.7632 313.2670 0001616  43.2193 316.9110 14.19535514422351

#Time	Az	El	Level	Level2	SNR	BER	BlckErr	Temp	State	Recorded	gain1	gain2
2026-01-13 08:44:35.69	122.82	5.15	-49.5	-64.8	3.8	1.49e+00	0	37	0	0	71	20062
2026-01-13 08:44:38.66	122.64	5.34	-49.5	-64.8	3.8	1.49e+00	0	38	104	0	71	19942
2026-01-13 08:44:41.64	122.45	5.54	-49.5	-64.9	3.8	1.49e+00	0	38	104	0	71	20073
2026-01-13 08:44:44.62	122.26	5.74	-49.7	-64.9	3.8	1.49e+00	0	38	104	0	71	20204
2026-01-13 08:44:47.60	122.07	5.94	-49.7	-64.9	3.8	1.49e+00	0	38	104	0	71	20124
2026-01-13 08:44:50.58	121.88	6.15	-49.7	-64.8	3.8	1.49e+00	0	38	104	0	71	19966
2026-01-13 08:44:53.56	121.68	6.35	-49.5	-64.7	3.8	1.49e+00	0	38	104	0	71	19827
2026-01-13 08:44:56.54	121.48	6.56	-49.5	-64.7	3.8	1.49e+00	0	38	104	0	71	19667
2026-01-13 08:44:59.52	121.28	6.76	-49.5	-64.7	3.8	1.49e+00	0	38	104	0	71	19787
2026-01-13 08:45:02.50	121.07	6.97	-49.6	-64.6	3.8	1.49e+00	0	39	104	0	71	19614
2026-01-13 08:45:05.48	120.86	7.18	-49.6	-64.3	3.8	1.49e+00	0	39	104	0	71	18905
2026-01-13 08:45:08.46	120.65	7.39	-49.5	-64.2	3.8	1.49e+00	0	39	104	0	70	19783
2026-01-13 08:45:11.44	120.43	7.60	-49.6	-64.5	3.8	1.49e+00	0	38	104	0	70	20519
2026-01-13 08:45:14.42	120.22	7.82	-48.9	-58.5	5.4	7.16e-01	0	39	0	1048576	69	10784
2026-01-13 08:45:17.40	119.99	8.03	-47.6	-53.5	9.9	1.55e-02	0	39	0	7340032	67	6865
2026-01-13 08:45:20.38	119.77	8.25	-47.0	-51.8	11.7	7.01e-04	0	39	0	12582912	66	5969
2026-01-13 08:45:23.36	119.54	8.46	-47.2	-52.3	11.2	9.87e-04	0	39	0	17825792	65	6647
2026-01-13 08:45:26.34	119.31	8.68	-48.6	-56.9	6.7	9.17e-02	0	39	0	24117248	67	10073
2026-01-13 08:45:29.32	119.07	8.90	-49.5	-63.9	3.8	1.49e+00	0	39	104	27262976	69	20188
2026-01-13 08:45:32.30	118.83	9.13	-49.1	-59.0	5.2	8.73e-01	0	39	0	27262976	69	11507
2026-01-13 08:45:35.28	118.59	9.35	-48.8	-57.3	6.6	1.15e-01	0	39	0	28311552	68	10027
2026-01-13 08:45:38.27	118.34	9.57	-47.6	-53.5	10.0	1.29e-02	0	39	0	30408704	67	6833
2026-01-13 08:45:41.23	118.09	9.80	-46.3	-50.3	13.4	3.89e-05	0	39	0	36700160	64	5650
2026-01-13 08:45:44.26	117.83	10.03	-46.3	-50.3	13.4	1.44e-05	0	39	0	41943040	64	5653
2026-01-13 08:45:47.25	117.57	10.26	-46.5	-50.6	13.1	3.05e-05	0	39	0	48234496	64	5821
2026-01-13 08:45:50.23	117.31	10.49	-46.2	-50.1	13.7	6.80e-06	0	39	0	53477376	64	5488
2026-01-13 08:45:53.22	117.04	10.73	-46.0	-49.8	14.0	4.50e-06	0	39	0	58720256	64	5282
2026-01-13 08:45:56.26	116.76	10.97	-46.3	-50.2	13.6	5.30e-06	0	40	0	65011712	64	5556
2026-01-13 08:45:59.19	116.49	11.20	-46.3	-50.1	13.7	5.30e-06	0	39	0	70254592	64	5497
2026-01-13 08:46:02.38	116.19	11.45	-46.3	-50.2	13.6	7.60e-06	0	40	0	76546048	64	5573
2026-01-13 08:46:05.36	115.90	11.69	-46.4	-50.3	13.5	6.80e-06	0	39	0	81788928	64	5626
2026-01-13 08:46:08.52	115.59	11.95	-46.3	-50.2	13.7	5.30e-06	0	39	0	88080384	64	5546
2026-01-13 08:46:11.36	115.31	12.18	-46.4	-50.4	13.5	3.80e-06	0	39	0	93323264	64	5672
2026-01-13 08:46:14.49	114.99	12.43	-46.2	-49.9	14.0	1.50e-06	0	40	0	98566144	64	5388
2026-01-13 08:46:17.33	114.70	12.67	-46.3	-50.1	13.8	3.00e-06	0	39	0	103809024	64	5490
2026-01-13 08:46:20.46	114.37	12.93	-46.3	-50.1	13.8	2.20e-06	0	40	0	110100480	64	5517
2026-01-13 08:46:23.36	114.06	13.17	-46.3	-50.0	13.9	2.20e-06	0	40	0	115343360	64	5462
2026-01-13 08:46:26.34	113.74	13.42	-46.1	-49.7	14.3	7.00e-07	0	40	0	120586240	64	5228
2026-01-13 08:46:29.33	113.41	13.68	-46.1	-49.8	14.1	1.50e-06	0	40	0	126877696	64	5315
2026-01-13 08:46:32.31	113.08	13.93	-46.2	-50.0	13.9	3.80e-06	0	40	0	132120576	64	5441
2026-01-13 08:46:35.30	112.73	14.19	-46.1	-49.8	14.2	4.50e-06	0	40	0	137363456	64	5282
2026-01-13 08:46:38.23	112.39	14.44	-46.1	-49.8	14.1	3.00e-06	0	40	0	143654912	64	5331
2026-01-13 08:46:41.78	111.97	14.75	-46.0	-49.7	14.2	0.00e+00	0	40	0	149946368	64	5270
2026-01-13 08:46:44.48	111.65	14.99	-46.2	-49.9	14.0	7.00e-07	0	40	0	155189248	64	5392
2026-01-13 08:46:47.78	111.24	15.28	-46.2	-49.9	14.0	3.80e-06	0	40	0	161480704	64	5381
2026-01-13 08:46:50.51	110.90	15.52	-46.2	-49.9	14.2	2.20e-06	0	40	0	166723584	63	5696
2026-01-13 08:46:53.73	110.49	15.81	-46.2	-49.8	14.2	2.20e-06	0	39	0	171966464	63	5651
2026-01-13 08:46:56.57	110.12	16.06	-46.2	-49.8	14.3	0.00e+00	0	40	0	177209344	63	5647
2026-01-13 08:46:59.70	109.71	16.35	-46.1	-49.7	14.4	7.00e-07	0	40	0	183500800	63	5573
2026-01-13 08:47:02.54	109.32	16.60	-45.9	-49.4	14.7	0.00e+00	0	40	0	188743680	63	5375
2026-01-13 08:47:05.67	108.89	16.89	-45.8	-49.1	15.0	0.00e+00	0	40	0	195035136	63	5210
2026-01-13 08:47:08.62	108.48	17.16	-45.6	-48.8	15.3	0.00e+00	0	40	0	200278016	63	5034
2026-01-13 08:47:11.61	108.06	17.44	-45.8	-49.1	15.0	0.00e+00	0	40	0	205520896	63	5207
2026-01-13 08:47:14.96	107.57	17.75	-45.6	-48.9	15.2	0.00e+00	0	40	0	211812352	63	5065
2026-01-13 08:47:17.67	107.17	18.00	-45.6	-48.9	15.2	0.00e+00	0	40	0	217055232	63	5099
2026-01-13 08:47:20.95	106.68	18.31	-45.6	-48.9	15.3	0.00e+00	0	40	0	223346688	63	5055
2026-01-13 08:47:23.68	106.26	18.57	-45.5	-48.7	15.4	0.00e+00	0	40	0	228589568	62	5247
2026-01-13 08:47:26.97	105.74	18.88	-45.5	-48.8	15.4	0.00e+00	0	40	0	234881024	62	5321
2026-01-13 08:47:29.69	105.31	19.14	-45.5	-48.7	15.4	0.00e+00	0	40	0	240123904	62	5275
2026-01-13 08:47:32.98	104.77	19.46	-45.5	-48.7	15.5	0.00e+00	0	40	0	246415360	62	5264
2026-01-13 08:47:35.68	104.32	19.72	-45.6	-48.9	15.3	0.00e+00	0	40	0	250609664	62	5349
2026-01-13 08:47:38.97	103.77	20.03	-45.7	-49.0	15.2	0.00e+00	0	40	0	256901120	62	5453
2026-01-13 08:47:41.74	103.29	20.30	-46.0	-49.4	14.8	0.00e+00	0	40	0	262144000	62	5680
2026-01-13 08:47:45.13	102.70	20.63	-45.9	-49.4	14.8	0.00e+00	0	40	0	268435456	62	5700
2026-01-13 08:47:48.20	102.15	20.93	-45.9	-49.2	15.0	0.00e+00	0	40	0	274726912	62	5577
2026-01-13 08:47:51.21	101.60	21.22	-46.0	-49.4	14.8	1.50e-06	0	40	0	279969792	62	5715
2026-01-13 08:47:55.19	100.85	21.61	-45.9	-49.3	14.9	0.00e+00	0	40	0	287309824	62	5627
2026-01-13 08:47:58.03	100.31	21.89	-45.8	-49.1	15.1	0.00e+00	0	40	0	292552704	62	5521
2026-01-13 08:48:02.07	99.52	22.28	-45.8	-49.1	15.1	0.00e+00	0	40	0	300941312	62	5474
2026-01-13 08:48:04.99	98.94	22.57	-45.6	-48.8	15.4	0.00e+00	0	40	0	306184192	62	5338
2026-01-13 08:48:07.98	98.33	22.86	-45.4	-48.5	15.7	0.00e+00	0	40	0	311427072	62	5117
2026-01-13 08:48:10.96	97.71	23.16	-45.3	-48.4	15.8	0.00e+00	0	40	0	316669952	62	5081
2026-01-13 08:48:13.94	97.08	23.45	-45.3	-48.3	15.9	0.00e+00	0	40	0	322961408	62	5028
2026-01-13 08:48:16.93	96.44	23.74	-45.1	-48.0	16.2	0.00e+00	0	40	0	328204288	62	4860
2026-01-13 08:48:19.91	95.79	24.03	-45.1	-48.1	16.1	0.00e+00	0	40	0	334495744	62	4904
2026-01-13 08:48:22.96	95.11	24.33	-45.2	-48.3	16.0	0.00e+00	0	40	0	339738624	62	4990
2026-01-13 08:48:25.86	94.45	24.61	-45.2	-48.2	16.1	0.00e+00	0	40	0	344981504	62	4934
2026-01-13 08:48:28.84	93.76	24.89	-45.0	-48.0	16.3	0.00e+00	0	40	0	351272960	62	4817
2026-01-13 08:48:31.82	93.05	25.18	-45.0	-47.9	16.3	0.00e+00	0	40	0	356515840	61	5095
2026-01-13 08:48:34.86	92.32	25.47	-44.9	-47.9	16.4	0.00e+00	0	40	0	361758720	61	5051
2026-01-13 08:48:37.84	91.59	25.75	-45.0	-47.9	16.4	0.00e+00	0	40	0	368050176	61	5052
2026-01-13 08:48:40.82	90.85	26.03	-45.4	-48.6	15.7	0.00e+00	0	40	0	373293056	61	5476
2026-01-13 08:48:43.81	90.09	26.31	-45.6	-48.9	15.3	0.00e+00	0	40	0	378535936	61	5704
2026-01-13 08:48:46.80	89.32	26.58	-45.6	-48.8	15.4	0.00e+00	0	40	0	384827392	61	5638
2026-01-13 08:48:49.83	88.53	26.86	-45.7	-49.0	15.3	0.00e+00	0	40	0	390070272	62	5450
2026-01-13 08:48:52.86	87.72	27.13	-45.8	-49.4	14.9	0.00e+00	0	40	0	395313152	62	5701
2026-01-13 08:48:55.85	86.90	27.39	-45.9	-49.4	14.9	0.00e+00	0	40	0	401604608	62	5687
2026-01-13 08:48:58.83	86.08	27.65	-46.1	-49.7	14.6	0.00e+00	0	40	0	406847488	62	5897
2026-01-13 08:49:01.81	85.25	27.91	-46.0	-49.6	14.6	0.00e+00	0	40	0	412090368	62	5853
2026-01-13 08:49:04.80	84.39	28.16	-46.2	-49.9	14.4	7.00e-07	0	40	0	418381824	63	5670
2026-01-13 08:49:07.75	83.54	28.40	-46.1	-49.8	14.5	0.00e+00	0	40	0	423624704	63	5642
2026-01-13 08:49:10.77	82.65	28.65	-46.1	-49.7	14.6	0.00e+00	0	40	0	428867584	63	5569
2026-01-13 08:49:13.75	81.76	28.88	-46.0	-49.6	14.7	0.00e+00	0	40	0	435159040	63	5511
2026-01-13 08:49:16.74	80.86	29.11	-46.0	-49.5	14.8	0.00e+00	0	40	0	440401920	63	5452
2026-01-13 08:49:19.72	79.94	29.34	-46.2	-49.8	14.5	0.00e+00	0	40	0	445644800	63	5608
2026-01-13 08:49:22.77	78.99	29.56	-46.3	-49.9	14.4	2.20e-06	0	40	0	451936256	63	5677
2026-01-13 08:49:25.75	78.05	29.77	-46.3	-49.8	14.5	7.00e-07	0	40	0	457179136	63	5637
2026-01-13 08:49:28.74	77.09	29.97	-46.4	-50.0	14.3	1.50e-06	0	40	0	463470592	63	5782
2026-01-13 08:49:31.98	76.05	30.18	-46.5	-50.2	14.1	2.20e-06	0	40	0	468713472	63	5879
2026-01-13 08:49:34.82	75.11	30.36	-46.7	-50.6	13.6	3.80e-06	0	40	0	473956352	64	5828
2026-01-13 08:49:37.94	74.08	30.55	-46.8	-50.8	13.4	9.10e-06	0	40	0	480247808	64	5992
2026-01-13 08:49:40.78	73.13	30.71	-46.6	-50.4	13.8	4.50e-06	0	40	0	485490688	64	5694
2026-01-13 08:49:43.99	72.04	30.88	-46.4	-50.0	14.2	1.50e-06	0	40	0	491782144	64	5440
2026-01-13 08:49:46.89	71.05	31.03	-46.3	-49.9	14.3	0.00e+00	0	40	0	497025024	64	5397
2026-01-13 08:49:50.08	69.95	31.18	-46.4	-50.1	14.2	7.00e-07	0	40	0	503316480	64	5472
2026-01-13 08:49:53.00	68.93	31.31	-46.2	-49.8	14.5	7.00e-07	0	40	0	508559360	64	5291
2026-01-13 08:49:55.98	67.89	31.43	-46.1	-49.6	14.6	7.00e-07	0	40	0	513802240	64	5176
2026-01-13 08:49:58.97	66.83	31.54	-46.3	-49.9	14.3	7.00e-07	0	40	0	520093696	64	5374
2026-01-13 08:50:01.95	65.77	31.64	-46.6	-50.4	13.9	6.80e-06	0	40	0	525336576	64	5690
2026-01-13 08:50:04.94	64.71	31.73	-46.6	-50.3	13.9	5.30e-06	0	40	0	530579456	64	5641
2026-01-13 08:50:07.92	63.63	31.80	-46.8	-50.6	13.6	5.30e-06	0	40	0	536870912	64	5848
2026-01-13 08:50:10.90	62.56	31.87	-47.0	-51.2	13.1	2.36e-05	0	40	0	542113792	64	6220
2026-01-13 08:50:13.89	61.48	31.93	-47.0	-51.2	13.1	2.89e-05	0	40	0	547356672	64	6223
2026-01-13 08:50:16.83	60.41	31.97	-47.0	-51.2	13.1	1.83e-05	0	40	0	553648128	64	6203
2026-01-13 08:50:19.95	59.27	32.00	-46.9	-51.0	13.2	2.28e-05	0	40	0	558891008	64	6077
2026-01-13 08:50:22.79	58.24	32.02	-46.9	-50.9	13.3	1.60e-05	0	40	0	564133888	64	6036
2026-01-13 08:50:25.92	57.09	32.03	-46.5	-50.2	14.1	3.80e-06	0	40	0	570425344	64	5531
2026-01-13 08:50:28.76	56.06	32.03	-46.5	-50.1	14.1	1.50e-06	0	40	0	575668224	64	5514
2026-01-13 08:50:31.89	54.91	32.01	-46.8	-50.6	13.6	3.00e-06	0	40	0	581959680	64	5832
2026-01-13 08:50:34.86	53.83	31.99	-46.8	-50.8	13.5	1.60e-05	0	40	0	587202560	64	5942
2026-01-13 08:50:37.99	52.69	31.95	-46.7	-50.6	13.7	4.50e-06	0	40	0	592445440	64	5810
2026-01-13 08:50:40.83	51.67	31.90	-46.9	-50.9	13.4	1.06e-05	0	40	0	598736896	64	6032
2026-01-13 08:50:43.96	50.53	31.84	-46.7	-50.6	13.7	8.30e-06	0	40	0	603979776	64	5842
2026-01-13 08:50:46.85	49.49	31.77	-46.4	-50.1	14.2	1.50e-06	0	40	0	609222656	64	5489
2026-01-13 08:50:49.98	48.37	31.68	-46.6	-50.3	13.9	2.20e-06	0	40	0	615514112	64	5625
2026-01-13 08:50:52.82	47.36	31.59	-46.8	-50.8	13.4	9.90e-06	0	40	0	620756992	64	5940
2026-01-13 08:50:55.95	46.26	31.48	-46.7	-50.5	13.7	4.50e-06	0	40	0	627048448	64	5776
2026-01-13 08:50:58.79	45.26	31.37	-46.7	-50.6	13.7	6.10e-06	0	40	0	632291328	64	5814
2026-01-13 08:51:01.98	44.15	31.23	-47.0	-51.2	13.0	3.35e-05	0	40	0	637534208	64	6236
2026-01-13 08:51:04.87	43.15	31.10	-47.0	-51.1	13.1	3.43e-05	0	40	0	642777088	64	6198
2026-01-13 08:51:08.00	42.07	30.95	-46.6	-50.4	13.8	9.10e-06	0	40	0	649068544	64	5717
2026-01-13 08:51:10.84	41.11	30.80	-46.9	-50.9	13.3	2.28e-05	0	40	0	654311424	64	6048
2026-01-13 08:51:13.97	40.06	30.63	-47.2	-51.4	12.8	5.26e-05	0	40	0	660602880	65	6047
2026-01-13 08:51:16.80	39.12	30.46	-47.1	-51.2	13.0	5.49e-05	0	40	0	665845760	65	5902
2026-01-13 08:51:19.99	38.07	30.27	-47.2	-51.5	12.7	6.48e-05	0	40	0	672137216	65	6086
2026-01-13 08:51:22.83	37.15	30.09	-47.0	-51.2	13.1	5.95e-05	0	40	0	677380096	65	5902
2026-01-13 08:51:26.08	36.10	29.87	-46.9	-50.8	13.4	2.21e-05	0	40	0	682622976	65	5632
2026-01-13 08:51:28.92	35.20	29.68	-47.0	-51.0	13.2	1.98e-05	0	40	0	687865856	65	5752
2026-01-13 08:51:31.99	34.24	29.46	-46.7	-50.6	13.6	8.30e-06	0	40	0	694157312	65	5482
2026-01-13 08:51:34.98	33.32	29.24	-46.6	-50.5	13.8	5.30e-06	0	40	0	699400192	65	5422
2026-01-13 08:51:37.96	32.42	29.01	-46.5	-50.3	13.9	3.00e-06	0	40	0	705691648	64	5638
2026-01-13 08:51:40.99	31.51	28.78	-46.5	-50.4	13.8	6.10e-06	0	40	0	710934528	64	5709
2026-01-13 08:51:43.95	30.63	28.54	-46.6	-50.5	13.7	6.80e-06	0	40	0	716177408	64	5751
2026-01-13 08:51:46.93	29.77	28.30	-46.5	-50.3	13.9	9.10e-06	0	40	0	722468864	64	5651
2026-01-13 08:51:49.92	28.91	28.05	-46.1	-49.9	14.3	7.00e-07	0	40	0	727711744	64	5363
2026-01-13 08:51:52.90	28.07	27.80	-46.0	-49.6	14.7	0.00e+00	0	40	0	732954624	63	5498
2026-01-13 08:51:55.93	27.23	27.54	-46.4	-50.1	14.2	7.00e-07	0	40	0	739246080	63	5851
2026-01-13 08:51:58.94	26.41	27.27	-46.2	-49.8	14.5	7.00e-07	0	40	0	744488960	63	5632
2026-01-13 08:52:01.93	25.61	27.01	-46.1	-49.6	14.7	0.00e+00	0	40	0	749731840	63	5527
2026-01-13 08:52:04.91	24.82	26.74	-46.1	-49.6	14.7	0.00e+00	0	40	0	756023296	63	5490
2026-01-13 08:52:07.89	24.05	26.47	-45.6	-48.8	15.5	0.00e+00	0	40	0	761266176	63	4997
2026-01-13 08:52:10.90	23.28	26.19	-45.3	-48.3	16.0	0.00e+00	0	40	0	767557632	62	5029
2026-01-13 08:52:13.85	22.54	25.92	-45.1	-48.2	16.1	0.00e+00	0	40	0	772800512	62	4931
2026-01-13 08:52:16.95	21.78	25.63	-44.8	-47.7	16.6	0.00e+00	0	40	0	778043392	61	4962
2026-01-13 08:52:19.79	21.09	25.36	-44.5	-47.3	16.9	0.00e+00	0	40	0	783286272	61	4738
2026-01-13 08:52:22.92	20.35	25.06	-44.4	-47.1	17.1	0.00e+00	0	40	0	789577728	60	4925
2026-01-13 08:52:25.76	19.69	24.79	-44.3	-47.1	17.1	0.00e+00	0	40	0	794820608	60	4900
2026-01-13 08:52:29.00	18.95	24.48	-44.2	-46.9	17.3	0.00e+00	0	40	0	801112064	60	4806
2026-01-13 08:52:31.84	18.31	24.21	-43.9	-46.6	17.6	0.00e+00	0	40	0	806354944	59	4877
2026-01-13 08:52:34.96	17.63	23.91	-43.7	-46.2	17.9	0.00e+00	0	40	0	812646400	59	4686
2026-01-13 08:52:37.80	17.01	23.63	-43.7	-46.3	17.9	0.00e+00	0	40	0	817889280	59	4715
2026-01-13 08:52:40.93	16.35	23.33	-43.8	-46.4	17.7	0.00e+00	0	40	0	823132160	59	4797
2026-01-13 08:52:43.77	15.76	23.05	-44.0	-46.7	17.5	0.00e+00	0	40	0	828375040	59	4952
2026-01-13 08:52:47.10	15.08	22.72	-44.3	-47.1	17.1	0.00e+00	0	40	0	834666496	59	5162
2026-01-13 08:52:49.82	14.53	22.46	-44.3	-47.0	17.1	0.00e+00	0	40	0	839909376	59	5158
2026-01-13 08:52:53.07	13.90	22.14	-44.3	-47.0	17.2	0.00e+00	0	40	0	846200832	59	5105
2026-01-13 08:52:55.92	13.35	21.86	-44.4	-47.2	17.0	0.00e+00	0	40	0	851443712	59	5230
2026-01-13 08:52:59.04	12.76	21.56	-44.6	-47.4	16.8	0.00e+00	0	40	0	857735168	59	5348
2026-01-13 08:53:01.95	12.22	21.28	-44.6	-47.5	16.7	0.00e+00	0	40	0	862978048	60	5113
2026-01-13 08:53:05.07	11.65	20.97	-44.7	-47.6	16.6	0.00e+00	0	40	0	868220928	60	5217
2026-01-13 08:53:08.04	11.12	20.69	-44.8	-47.7	16.5	0.00e+00	0	40	0	874512384	60	5276
2026-01-13 08:53:11.02	10.60	20.40	-44.8	-47.8	16.4	0.00e+00	0	40	0	879755264	60	5288
2026-01-13 08:53:14.01	10.09	20.11	-44.8	-47.8	16.4	0.00e+00	0	40	0	884998144	60	5294
2026-01-13 08:53:17.00	9.58	19.82	-44.9	-47.9	16.3	0.00e+00	0	40	0	891289600	60	5361
2026-01-13 08:53:19.98	9.09	19.54	-45.0	-48.2	16.0	0.00e+00	0	40	0	896532480	60	5584
2026-01-13 08:53:22.96	8.61	19.26	-45.0	-48.5	15.7	0.00e+00	0	40	0	901775360	60	5757
2026-01-13 08:53:25.95	8.13	18.97	-45.1	-48.8	15.4	0.00e+00	0	40	0	908066816	60	5941
2026-01-13 08:53:28.93	7.67	18.69	-45.3	-48.9	15.3	0.00e+00	0	40	0	913309696	61	5677
2026-01-13 08:53:31.95	7.21	18.41	-45.4	-49.2	15.0	0.00e+00	0	40	0	918552576	61	5886
2026-01-13 08:53:34.93	6.76	18.13	-45.4	-49.2	14.9	7.00e-07	0	40	0	924844032	61	5908
2026-01-13 08:53:37.91	6.32	17.85	-45.6	-49.2	14.9	0.00e+00	0	40	0	930086912	61	5918
2026-01-13 08:53:40.90	5.89	17.57	-45.6	-49.3	14.9	0.00e+00	0	40	0	935329792	61	5956
2026-01-13 08:53:43.88	5.46	17.30	-45.5	-49.2	15.0	0.00e+00	0	40	0	941621248	61	5887
2026-01-13 08:53:46.85	5.05	17.03	-45.6	-49.2	15.0	0.00e+00	0	40	0	946864128	61	5860
2026-01-13 08:53:50.12	4.60	16.73	-45.9	-49.5	14.8	0.00e+00	0	40	0	953155584	62	5725
2026-01-13 08:53:53.23	4.19	16.44	-45.8	-49.7	14.5	1.50e-06	0	40	0	958398464	62	5865
2026-01-13 08:53:56.22	3.79	16.18	-45.7	-49.8	14.4	0.00e+00	0	40	0	964689920	62	5956
2026-01-13 08:53:59.20	3.41	15.91	-45.8	-49.7	14.4	0.00e+00	0	40	0	969932800	62	5904
2026-01-13 08:54:02.12	3.04	15.65	-45.9	-49.6	14.6	0.00e+00	0	40	0	975175680	62	5803
2026-01-13 08:54:05.36	2.63	15.36	-45.8	-49.7	14.5	1.50e-06	0	40	0	981467136	62	5888
2026-01-13 08:54:08.23	2.28	15.11	-45.9	-49.9	14.3	7.00e-07	0	40	0	986710016	62	6021
2026-01-13 08:54:11.37	1.91	14.84	-45.9	-49.7	14.5	0.00e+00	0	40	0	993001472	62	5905
2026-01-13 08:54:14.21	1.57	14.59	-46.0	-49.7	14.4	7.00e-07	0	40	0	998244352	62	5909
2026-01-13 08:54:17.34	1.21	14.32	-45.9	-49.8	14.4	7.00e-07	0	40	0	1004535808	62	5976
2026-01-13 08:54:20.20	0.88	14.07	-46.0	-50.1	14.0	0.00e+00	0	40	0	1009778688	62	6184
2026-01-13 08:54:23.47	0.52	13.80	-46.3	-50.3	13.8	4.50e-06	0	40	0	1016070144	63	5983
2026-01-13 08:54:26.21	0.22	13.56	-46.3	-50.2	13.9	5.30e-06	0	40	0	1020264448	63	5918
2026-01-13 08:54:30.10	359.80	13.24	-46.2	-50.1	14.0	1.50e-06	0	40	0	1027604480	63	5810
2026-01-13 08:54:32.90	359.50	13.00	-46.1	-49.9	14.2	3.80e-06	0	39	0	1032847360	63	5712
2026-01-13 08:54:36.17	359.17	12.73	-46.4	-50.2	13.9	2.20e-06	0	40	0	1039138816	63	5888
2026-01-13 08:54:39.20	358.86	12.48	-46.1	-50.1	14.0	5.30e-06	0	40	0	1045430272	63	5821
2026-01-13 08:54:42.25	358.55	12.24	-45.8	-50.2	14.0	7.00e-07	0	40	0	1050673152	63	5858
2026-01-13 08:54:45.53	358.23	11.97	-45.6	-50.3	13.8	5.30e-06	0	40	0	1056964608	63	5968
2026-01-13 08:54:48.25	357.97	11.75	-45.3	-50.6	13.5	1.37e-05	0	40	0	1062207488	62	6548
2026-01-13 08:54:51.56	357.65	11.49	-44.8	-51.0	13.1	2.89e-05	0	40	0	1068498944	61	7216
2026-01-13 08:54:54.65	357.37	11.24	-45.0	-51.1	12.9	3.66e-05	0	40	0	1073741824	61	7319
2026-01-13 08:54:58.27	357.04	10.96	-45.8	-51.1	12.9	4.57e-05	0	40	0	1081081856	62	6933
2026-01-13 08:55:01.12	356.78	10.73	-46.1	-51.1	12.9	4.34e-05	0	40	0	1086324736	62	6958
2026-01-13 08:55:04.30	356.50	10.49	-45.6	-51.2	12.8	5.11e-05	0	40	0	1092616192	62	6987
2026-01-13 08:55:07.14	356.25	10.27	-45.6	-51.5	12.6	1.19e-04	0	40	0	1097859072	62	7213
2026-01-13 08:55:10.43	355.97	10.02	-45.5	-51.5	12.5	1.29e-04	0	40	0	1104150528	62	7235
2026-01-13 08:55:13.35	355.73	9.79	-44.9	-51.5	12.5	1.18e-04	0	40	0	1109393408	61	7674
2026-01-13 08:55:16.81	355.44	9.53	-44.1	-51.6	12.4	1.24e-04	0	40	0	1115684864	60	8183
2026-01-13 08:55:19.53	355.22	9.33	-44.3	-51.6	12.3	1.62e-04	0	40	0	1120927744	60	8245
2026-01-13 08:55:22.80	354.96	9.09	-45.3	-51.7	12.2	2.01e-04	0	40	0	1127219200	61	7890
2026-01-13 08:55:25.57	354.74	8.88	-49.9	-65.5	3.8	1.49e+00	0	40	104	1129316352	70	22904
2026-01-13 08:55:28.84	354.49	8.64	-49.9	-65.7	3.8	1.49e+00	0	40	104	1129316352	71	22044
2026-01-13 08:55:31.55	354.28	8.44	-50.5	-65.7	3.8	1.49e+00	0	40	104	1129316352	71	22228
2026-01-13 08:55:34.81	354.04	8.21	-50.5	-65.8	3.8	1.49e+00	0	40	104	1129316352	71	22405
2026-01-13 08:55:37.53	353.83	8.01	-50.7	-65.8	3.8	1.49e+00	0	40	104	1129316352	71	22470
2026-01-13 08:55:40.80	353.60	7.78	-50.6	-65.8	3.9	1.49e+00	0	40	104	1129316352	72	21206
2026-01-13 08:55:43.50	353.40	7.59	-50.6	-65.8	3.8	1.49e+00	0	40	104	1129316352	72	21127
2026-01-13 08:55:46.80	353.17	7.35	-50.7	-65.8	3.8	1.49e+00	0	40	104	1129316352	72	21252
2026-01-13 08:55:49.56	352.98	7.16	-50.7	-65.8	3.8	1.49e+00	0	40	104	1129316352	72	21104
2026-01-13 08:55:52.82	352.76	6.93	-50.5	-65.8	3.8	1.49e+00	0	40	104	1129316352	72	21184
2026-01-13 08:55:55.52	352.58	6.75	-50.5	-65.8	3.8	1.49e+00	0	40	104	1129316352	72	21133
2026-01-13 08:55:58.78	352.36	6.52	-50.4	-65.8	3.8	1.49e+00	0	40	104	1129316352	72	21038
2026-01-13 08:56:01.48	352.18	6.34	-50.4	-65.8	3.8	1.49e+00	0	40	104	1129316352	72	21127
2026-01-13 08:56:04.74	351.97	6.11	-50.4	-65.7	3.8	1.49e+00	0	40	104	1129316352	72	21016
2026-01-13 08:56:07.45	351.80	5.93	-50.4	-65.8	3.8	1.49e+00	0	40	104	1129316352	72	21027
2026-01-13 08:56:10.72	351.60	5.71	-50.4	-65.8	3.8	1.49e+00	0	40	104	1129316352	72	21021
2026-01-13 08:56:13.41	351.43	5.53	-50.4	-65.8	3.8	1.49e+00	0	40	104	1129316352	72	21025
2026-01-13 08:56:16.69	351.23	5.32	-50.4	-65.8	3.8	1.49e+00	0	40	104	1129316352	72	21071
2026-01-13 08:56:19.39	351.07	5.14	-50.4	-65.7	3.8	1.49e+00	0	40	104	1129316352	72	20949
2026-01-13 08:56:22.65	350.88	4.92	-50.4	-65.7	3.8	1.49e+00	0	40	104	1129316352	72	21003

#Closed at: 2026-01-13 08:56:23
#Recorded file [1129 MB]: D:/Data/31040_260113_114435.dat