passes_logs/2026/01/13/T1/T1__20260113_221359_SUOMI_NPP_rec.log

#Pass ID: 20260113_221359_SUOMI NPP
#Satellite: SUOMI NPP
#Configuration: NPP
#almurnet v.1.7.20251203
#Start time: 2026-01-13 22:14:00

#Version: 2.0.20230620
#Station: T1
#Location: 37.570604 lon 55.790049 lat
#TLE: 1 37849U 11061A   26013.27136842  .00000065  00000+0  51889-4 0  9990
#TLE: 2 37849  98.7808 315.3349 0002489  66.6776 293.4661 14.19524902736466

#Time	Az	El	Level	Level2	SNR	BER	BlckErr	Temp	State	Recorded	gain1	gain2
2026-01-13 22:14:00.34	29.99	5.05	-49.8	-65.3	3.8	1.49e+00	0	37	104	0	70	22386
2026-01-13 22:14:03.32	30.26	5.22	-49.8	-65.3	3.8	1.49e+00	0	37	104	0	70	22415
2026-01-13 22:14:06.30	30.53	5.40	-49.8	-65.3	3.8	1.49e+00	0	37	104	0	70	22318
2026-01-13 22:14:09.28	30.80	5.57	-49.8	-65.3	3.8	1.49e+00	0	37	104	0	70	22364
2026-01-13 22:14:12.26	31.07	5.74	-49.7	-65.3	3.8	1.49e+00	0	37	104	0	70	22293
2026-01-13 22:14:15.24	31.35	5.92	-49.7	-65.3	3.8	1.49e+00	0	37	104	0	70	22318
2026-01-13 22:14:18.22	31.63	6.10	-49.7	-65.2	3.8	1.49e+00	0	38	104	0	70	22241
2026-01-13 22:14:21.20	31.91	6.27	-49.7	-65.1	3.8	1.49e+00	0	37	104	0	70	21970
2026-01-13 22:14:24.17	32.20	6.45	-49.7	-65.1	3.8	1.49e+00	0	38	104	0	70	21918
2026-01-13 22:14:27.15	32.49	6.63	-49.7	-65.1	3.8	1.49e+00	0	38	104	0	70	21857
2026-01-13 22:14:30.13	32.78	6.80	-49.7	-65.2	3.8	1.49e+00	0	38	104	0	70	22037
2026-01-13 22:14:33.11	33.08	6.98	-49.7	-65.2	3.8	1.49e+00	0	38	104	0	70	22028
2026-01-13 22:14:36.09	33.38	7.16	-49.7	-65.2	3.8	1.49e+00	0	38	104	0	70	22192
2026-01-13 22:14:39.07	33.69	7.34	-49.7	-65.1	3.8	1.49e+00	0	38	104	0	70	21825
2026-01-13 22:14:42.04	33.99	7.52	-49.7	-65.1	3.8	1.49e+00	0	38	104	0	70	21793
2026-01-13 22:14:45.02	34.30	7.70	-49.7	-65.1	3.8	1.49e+00	0	38	104	0	70	21930
2026-01-13 22:14:48.00	34.62	7.89	-49.7	-65.1	3.8	1.49e+00	0	38	104	0	70	21968
2026-01-13 22:14:50.99	34.94	8.07	-49.7	-65.2	3.8	1.49e+00	0	38	104	0	70	22117
2026-01-13 22:14:53.96	35.26	8.25	-49.7	-65.1	3.8	1.49e+00	0	38	104	0	70	21999
2026-01-13 22:14:56.94	35.59	8.43	-49.7	-65.1	3.8	1.49e+00	0	39	104	0	70	21780
2026-01-13 22:14:59.92	35.92	8.62	-49.7	-65.1	3.8	1.49e+00	0	39	104	0	70	21992
2026-01-13 22:15:02.90	36.25	8.80	-49.7	-65.1	3.8	1.49e+00	0	39	104	0	70	21994
2026-01-13 22:15:05.88	36.59	8.99	-49.5	-64.6	3.8	1.49e+00	0	39	104	0	70	20747
2026-01-13 22:15:08.86	36.93	9.18	-49.2	-63.8	3.8	1.49e+00	0	39	104	0	70	18919
2026-01-13 22:15:11.85	37.28	9.36	-47.3	-52.8	10.8	4.94e-01	0	39	0	3145728	66	6662
2026-01-13 22:15:14.83	37.63	9.55	-46.8	-51.7	12.1	3.50e-04	0	39	0	8388608	65	6224
2026-01-13 22:15:17.85	38.00	9.74	-46.4	-50.8	13.1	6.40e-05	0	39	0	13631488	64	5947
2026-01-13 22:15:20.83	38.36	9.93	-46.1	-50.5	13.4	6.80e-06	0	39	0	19922944	63	6087
2026-01-13 22:15:23.82	38.72	10.12	-45.5	-49.7	14.2	2.20e-06	0	39	0	25165824	62	5865
2026-01-13 22:15:26.81	39.09	10.31	-45.6	-49.8	14.1	2.21e-05	0	39	0	30408704	62	5957
2026-01-13 22:15:29.79	39.47	10.49	-45.8	-49.6	14.4	7.00e-07	0	39	0	36700160	62	5837
2026-01-13 22:15:32.77	39.85	10.68	-45.6	-49.3	14.8	1.06e-05	0	39	0	41943040	62	5602
2026-01-13 22:15:36.04	40.27	10.89	-45.7	-49.3	14.8	0.00e+00	0	39	0	48234496	62	5600
2026-01-13 22:15:39.22	40.68	11.10	-45.7	-49.4	14.6	0.00e+00	0	39	0	54525952	62	5690
2026-01-13 22:15:42.20	41.08	11.29	-46.0	-49.8	14.2	0.00e+00	0	39	0	59768832	62	5945
2026-01-13 22:15:45.19	41.48	11.48	-46.1	-49.9	14.2	3.00e-06	0	39	0	65011712	62	6018
2026-01-13 22:15:48.22	41.89	11.67	-46.2	-50.0	14.1	2.20e-06	0	39	0	71303168	63	5741
2026-01-13 22:15:51.46	42.33	11.88	-46.0	-49.6	14.5	7.00e-07	0	39	0	77594624	63	5490
2026-01-13 22:15:54.17	42.71	12.06	-45.9	-49.4	14.6	1.50e-06	0	39	0	81788928	63	5398
2026-01-13 22:15:57.77	43.22	12.29	-45.9	-49.5	14.5	0.00e+00	0	39	0	89128960	63	5461
2026-01-13 22:16:00.61	43.63	12.47	-45.6	-49.1	14.9	0.00e+00	0	39	0	94371840	63	5206
2026-01-13 22:16:04.59	44.20	12.73	-45.4	-48.7	15.4	0.00e+00	0	39	0	101711872	62	5245
2026-01-13 22:16:07.43	44.62	12.91	-45.3	-48.5	15.6	0.00e+00	0	39	0	106954752	62	5137
2026-01-13 22:16:11.11	45.17	13.15	-45.4	-48.7	15.4	0.00e+00	0	39	0	114294784	62	5239
2026-01-13 22:16:14.32	45.66	13.35	-45.4	-48.8	15.3	0.00e+00	0	39	0	119537664	62	5308
2026-01-13 22:16:17.30	46.11	13.55	-45.6	-49.0	15.1	0.00e+00	0	39	0	125829120	62	5441
2026-01-13 22:16:20.28	46.58	13.74	-45.5	-48.9	15.2	0.00e+00	0	39	0	131072000	62	5359
2026-01-13 22:16:23.27	47.05	13.93	-45.5	-48.8	15.3	0.00e+00	0	39	0	136314880	62	5314
2026-01-13 22:16:26.26	47.52	14.12	-45.7	-49.2	15.0	0.00e+00	0	39	0	142606336	62	5554
2026-01-13 22:16:29.24	48.00	14.31	-45.9	-49.5	14.7	0.00e+00	0	39	0	147849216	62	5743
2026-01-13 22:16:32.47	48.53	14.52	-45.6	-49.1	15.0	0.00e+00	0	39	0	154140672	62	5496
2026-01-13 22:16:35.31	49.00	14.70	-45.3	-48.6	15.6	0.00e+00	0	39	0	159383552	62	5160
2026-01-13 22:16:38.44	49.53	14.90	-45.4	-48.8	15.4	0.00e+00	0	39	0	165675008	62	5290
2026-01-13 22:16:41.28	50.01	15.08	-45.6	-49.1	15.0	0.00e+00	0	39	0	170917888	62	5508
2026-01-13 22:16:44.41	50.55	15.28	-45.3	-48.6	15.5	0.00e+00	0	39	0	176160768	62	5198
2026-01-13 22:16:47.26	51.04	15.46	-45.1	-48.3	15.8	0.00e+00	0	39	0	181403648	62	5036
2026-01-13 22:16:50.72	51.65	15.68	-45.0	-48.2	15.9	0.00e+00	0	39	0	187695104	61	5277
2026-01-13 22:16:53.43	52.14	15.85	-44.9	-48.1	16.0	0.00e+00	0	39	0	192937984	61	5179
2026-01-13 22:16:56.70	52.73	16.05	-44.8	-47.9	16.2	0.00e+00	0	39	0	199229440	61	5049
2026-01-13 22:16:59.42	53.23	16.22	-45.0	-48.2	15.9	0.00e+00	0	39	0	204472320	61	5272
2026-01-13 22:17:02.64	53.82	16.42	-45.0	-48.2	15.9	0.00e+00	0	39	0	210763776	61	5241
2026-01-13 22:17:05.74	54.40	16.61	-44.9	-48.0	16.1	0.00e+00	0	39	0	216006656	61	5157
2026-01-13 22:17:08.72	54.97	16.79	-44.9	-48.0	16.1	0.00e+00	0	39	0	222298112	61	5156
2026-01-13 22:17:11.71	55.54	16.97	-45.2	-48.5	15.6	0.00e+00	0	39	0	227540992	61	5445
2026-01-13 22:17:14.69	56.12	17.15	-45.1	-48.3	15.8	0.00e+00	0	39	0	232783872	61	5323
2026-01-13 22:17:17.75	56.72	17.33	-44.9	-48.1	16.0	0.00e+00	0	39	0	239075328	61	5181
2026-01-13 22:17:20.60	57.29	17.50	-45.2	-48.5	15.6	0.00e+00	0	39	0	244318208	61	5428
2026-01-13 22:17:23.72	57.92	17.68	-45.6	-49.0	15.2	0.00e+00	0	39	0	250609664	61	5753
2026-01-13 22:17:26.56	58.50	17.84	-45.7	-49.2	15.1	0.00e+00	0	39	0	255852544	62	5535
2026-01-13 22:17:29.69	59.14	18.02	-45.8	-49.3	14.9	0.00e+00	0	39	0	261095424	62	5648
2026-01-13 22:17:32.51	59.73	18.18	-46.2	-50.0	14.2	0.00e+00	0	39	0	266338304	63	5741
2026-01-13 22:17:35.64	60.38	18.35	-46.4	-50.2	14.0	2.20e-06	0	39	0	272629760	63	5897
2026-01-13 22:17:38.68	61.03	18.52	-46.5	-50.5	13.7	3.00e-06	0	39	0	277872640	63	6082
2026-01-13 22:17:41.73	61.68	18.68	-46.5	-50.5	13.8	4.50e-06	0	39	0	284164096	63	6066
2026-01-13 22:17:44.95	62.38	18.85	-46.5	-50.5	13.8	3.80e-06	0	39	0	289406976	63	6077
2026-01-13 22:17:47.81	63.01	19.00	-46.5	-50.6	13.6	2.36e-05	0	39	0	295698432	64	5806
2026-01-13 22:17:51.40	63.81	19.19	-46.1	-49.8	14.4	2.20e-06	0	39	0	301989888	64	5335
2026-01-13 22:17:54.11	64.41	19.32	-46.1	-49.9	14.3	7.00e-07	0	39	0	307232768	64	5386
2026-01-13 22:17:57.53	65.19	19.49	-45.8	-49.3	14.9	0.00e+00	0	39	0	313524224	63	5297
2026-01-13 22:18:00.34	65.83	19.63	-45.5	-48.7	15.5	0.00e+00	0	39	0	318767104	62	5267
2026-01-13 22:18:03.75	66.61	19.79	-45.8	-49.2	15.1	0.00e+00	0	39	0	325058560	62	5570
2026-01-13 22:18:06.46	67.24	19.91	-45.5	-48.7	15.5	0.00e+00	0	39	0	330301440	62	5258
2026-01-13 22:18:09.74	68.01	20.06	-45.7	-49.0	15.3	0.00e+00	0	39	0	336592896	62	5418
2026-01-13 22:18:12.46	68.66	20.18	-45.5	-48.7	15.5	0.00e+00	0	39	0	341835776	62	5273
2026-01-13 22:18:15.73	69.44	20.32	-44.9	-47.9	16.3	0.00e+00	0	39	0	348127232	61	5052
2026-01-13 22:18:18.58	70.13	20.43	-45.0	-48.0	16.2	0.00e+00	0	39	0	353370112	61	5144
2026-01-13 22:18:21.99	70.95	20.57	-44.9	-47.9	16.3	0.00e+00	0	39	0	359661568	61	5084
2026-01-13 22:18:24.71	71.62	20.67	-45.4	-48.6	15.7	0.00e+00	0	39	0	364904448	61	5474
2026-01-13 22:18:28.00	72.43	20.79	-45.3	-48.5	15.8	0.00e+00	0	39	0	370147328	61	5425
2026-01-13 22:18:30.74	73.11	20.89	-45.2	-48.3	15.9	0.00e+00	0	39	0	375390208	61	5319
2026-01-13 22:18:34.01	73.92	21.00	-45.2	-48.3	16.0	0.00e+00	0	39	0	381681664	61	5285
2026-01-13 22:18:36.74	74.61	21.09	-45.0	-47.9	16.3	0.00e+00	0	39	0	386924544	61	5088
2026-01-13 22:18:40.21	75.49	21.20	-45.3	-48.4	15.8	0.00e+00	0	39	0	393216000	61	5390
2026-01-13 22:18:42.93	76.18	21.28	-44.9	-47.9	16.3	0.00e+00	0	39	0	398458880	61	5082
2026-01-13 22:18:46.20	77.02	21.37	-45.2	-48.4	15.9	0.00e+00	0	39	0	404750336	61	5347
2026-01-13 22:18:48.91	77.71	21.44	-45.6	-48.9	15.4	0.00e+00	0	39	0	409993216	61	5702
2026-01-13 22:18:52.20	78.56	21.52	-45.3	-48.5	15.9	0.00e+00	0	39	0	416284672	61	5416
2026-01-13 22:18:54.93	79.27	21.58	-45.7	-49.0	15.3	0.00e+00	0	40	0	421527552	61	5784
2026-01-13 22:18:58.20	80.12	21.65	-45.3	-48.5	15.8	0.00e+00	0	39	0	426770432	62	5140
2026-01-13 22:19:00.92	80.84	21.70	-45.3	-48.5	15.9	0.00e+00	0	39	0	432013312	62	5114
2026-01-13 22:19:04.20	81.70	21.76	-45.2	-48.3	16.1	0.00e+00	0	39	0	438304768	62	5000
2026-01-13 22:19:07.06	82.45	21.80	-45.2	-48.3	16.1	0.00e+00	0	39	0	443547648	62	4995
2026-01-13 22:19:10.47	83.35	21.85	-45.4	-48.6	15.8	0.00e+00	0	39	0	449839104	62	5187
2026-01-13 22:19:13.19	84.07	21.88	-45.2	-48.3	16.0	0.00e+00	0	39	0	455081984	62	5036
2026-01-13 22:19:16.46	84.94	21.92	-46.1	-49.8	14.6	0.00e+00	0	40	0	461373440	62	5943
2026-01-13 22:19:19.16	85.66	21.94	-46.2	-49.8	14.7	0.00e+00	0	39	0	466616320	63	5601
2026-01-13 22:19:22.44	86.53	21.96	-45.7	-49.0	15.4	0.00e+00	0	39	0	472907776	63	5152
2026-01-13 22:19:25.15	87.26	21.97	-45.5	-48.8	15.6	0.00e+00	0	39	0	478150656	62	5305
2026-01-13 22:19:28.63	88.18	21.98	-45.6	-48.9	15.5	0.00e+00	0	40	0	484442112	62	5383
2026-01-13 22:19:31.45	88.94	21.98	-45.7	-48.9	15.5	0.00e+00	0	40	0	489684992	62	5399
2026-01-13 22:19:34.80	89.83	21.98	-45.4	-48.6	15.8	0.00e+00	0	40	0	495976448	62	5164
2026-01-13 22:19:37.52	90.56	21.97	-45.2	-48.1	16.3	0.00e+00	0	39	0	501219328	62	4911
2026-01-13 22:19:40.80	91.43	21.95	-45.0	-47.9	16.5	0.00e+00	0	39	0	507510784	61	5065
2026-01-13 22:19:43.63	92.19	21.93	-45.2	-48.2	16.1	0.00e+00	0	39	0	512753664	61	5239
2026-01-13 22:19:47.51	93.22	21.90	-45.2	-48.1	16.2	0.00e+00	0	39	0	520093696	61	5201
2026-01-13 22:19:50.36	93.97	21.86	-45.1	-48.0	16.3	0.00e+00	0	39	0	525336576	61	5159
2026-01-13 22:19:54.16	94.98	21.81	-45.4	-48.4	15.9	0.00e+00	0	39	0	532676608	61	5383
2026-01-13 22:19:57.02	95.73	21.77	-45.2	-48.2	16.2	0.00e+00	0	39	0	537919488	61	5222
2026-01-13 22:20:00.15	96.56	21.72	-45.7	-48.8	15.6	0.00e+00	0	39	0	543162368	62	5320
2026-01-13 22:20:03.29	97.38	21.66	-45.3	-48.3	16.0	0.00e+00	0	39	0	549453824	62	5024
2026-01-13 22:20:06.51	98.22	21.59	-45.1	-48.0	16.3	0.00e+00	0	39	0	555745280	62	4859
2026-01-13 22:20:09.35	98.96	21.53	-45.2	-48.2	16.2	0.00e+00	0	39	0	560988160	62	4929
2026-01-13 22:20:12.48	99.77	21.45	-44.9	-47.8	16.6	0.00e+00	0	39	0	566231040	61	5006
2026-01-13 22:20:15.33	100.51	21.38	-44.8	-47.5	16.8	0.00e+00	0	39	0	571473920	61	4853
2026-01-13 22:20:18.45	101.31	21.29	-44.9	-47.7	16.6	0.00e+00	0	40	0	577765376	61	4944
2026-01-13 22:20:21.29	102.03	21.21	-44.8	-47.6	16.7	0.00e+00	0	39	0	583008256	61	4901
2026-01-13 22:20:24.42	102.83	21.11	-45.0	-47.9	16.4	0.00e+00	0	39	0	589299712	61	5073
2026-01-13 22:20:27.26	103.54	21.02	-45.2	-48.2	16.2	0.00e+00	0	39	0	594542592	61	5220
2026-01-13 22:20:30.39	104.33	20.91	-45.1	-48.0	16.4	0.00e+00	0	39	0	599785472	61	5127
2026-01-13 22:20:33.23	105.03	20.81	-44.8	-47.6	16.7	0.00e+00	0	39	0	605028352	61	4924
2026-01-13 22:20:36.39	105.82	20.70	-44.4	-47.1	17.2	0.00e+00	0	39	0	611319808	60	4899
2026-01-13 22:20:39.23	106.51	20.59	-44.7	-47.5	16.9	0.00e+00	0	39	0	616562688	60	5120
2026-01-13 22:20:42.55	107.32	20.46	-44.9	-47.8	16.6	0.00e+00	0	39	0	622854144	60	5282
2026-01-13 22:20:45.25	107.98	20.35	-44.9	-47.7	16.6	0.00e+00	0	39	0	628097024	60	5272
2026-01-13 22:20:48.52	108.76	20.21	-45.1	-48.0	16.3	0.00e+00	0	40	0	634388480	60	5434
2026-01-13 22:20:51.24	109.41	20.09	-45.5	-48.6	15.7	0.00e+00	0	40	0	639631360	61	5515
2026-01-13 22:20:54.60	110.20	19.94	-44.8	-47.6	16.7	0.00e+00	0	39	0	645922816	61	4883
2026-01-13 22:20:57.30	110.83	19.82	-44.7	-47.5	16.8	0.00e+00	0	39	0	650117120	61	4840
2026-01-13 22:21:00.70	111.62	19.66	-45.2	-48.2	16.2	0.00e+00	0	39	0	656408576	61	5220
2026-01-13 22:21:03.41	112.24	19.52	-46.2	-49.6	14.8	0.00e+00	0	39	0	661651456	62	5838
2026-01-13 22:21:06.71	113.00	19.36	-46.3	-49.8	14.6	7.00e-07	0	39	0	667942912	63	5601
2026-01-13 22:21:09.47	113.62	19.22	-45.9	-49.2	15.2	0.00e+00	0	39	0	673185792	63	5230
2026-01-13 22:21:12.74	114.35	19.06	-46.0	-49.2	15.2	0.00e+00	0	40	0	679477248	63	5263
2026-01-13 22:21:15.78	115.02	18.90	-46.0	-49.2	15.1	0.00e+00	0	39	0	684720128	63	5276
2026-01-13 22:21:18.91	115.70	18.73	-45.8	-49.1	15.3	0.00e+00	0	39	0	691011584	63	5167
2026-01-13 22:21:21.76	116.32	18.58	-45.5	-48.7	15.7	0.00e+00	0	39	0	696254464	63	4949
2026-01-13 22:21:24.89	116.99	18.40	-46.2	-49.7	14.6	0.00e+00	0	39	0	702545920	63	5590
2026-01-13 22:21:27.73	117.59	18.25	-46.8	-50.8	13.5	3.00e-06	0	40	0	707788800	64	5942
2026-01-13 22:21:31.07	118.29	18.06	-46.2	-49.6	14.6	7.00e-07	0	39	0	714080256	64	5209
2026-01-13 22:21:33.77	118.85	17.90	-45.9	-49.1	15.2	0.00e+00	0	39	0	719323136	63	5209
2026-01-13 22:21:37.04	119.52	17.71	-46.5	-50.1	14.3	1.50e-06	0	39	0	724566016	63	5837
2026-01-13 22:21:39.75	120.07	17.56	-46.1	-49.5	14.8	7.00e-07	0	39	0	729808896	63	5428
2026-01-13 22:21:43.02	120.73	17.36	-45.7	-48.8	15.5	0.00e+00	0	39	0	736100352	63	5013
2026-01-13 22:21:45.72	121.26	17.20	-45.8	-49.0	15.4	0.00e+00	0	39	0	741343232	63	5116
2026-01-13 22:21:49.21	121.95	16.99	-45.6	-48.8	15.5	0.00e+00	0	39	0	747634688	63	5017
2026-01-13 22:21:52.29	122.54	16.81	-45.9	-49.2	15.2	0.00e+00	0	39	0	753926144	62	5529
2026-01-13 22:21:55.13	123.09	16.63	-46.2	-49.6	14.7	7.00e-07	0	39	0	759169024	63	5526
2026-01-13 22:21:58.40	123.70	16.43	-45.7	-49.0	15.3	0.00e+00	0	39	0	765460480	63	5144
2026-01-13 22:22:01.10	124.21	16.26	-45.6	-48.7	15.6	0.00e+00	0	39	0	769654784	62	5237
2026-01-13 22:22:04.37	124.81	16.06	-46.0	-49.4	15.0	0.00e+00	0	39	0	775946240	62	5659
2026-01-13 22:22:07.09	125.31	15.89	-46.3	-49.9	14.4	7.00e-07	0	39	0	781189120	63	5673
2026-01-13 22:22:10.36	125.89	15.68	-45.9	-49.3	15.0	7.00e-07	0	39	0	787480576	63	5340
2026-01-13 22:22:13.09	126.38	15.51	-46.3	-49.9	14.4	7.00e-07	0	39	0	792723456	63	5661
2026-01-13 22:22:16.36	126.95	15.30	-46.0	-49.4	14.8	0.00e+00	0	39	0	799014912	63	5400
2026-01-13 22:22:19.33	127.47	15.11	-45.3	-48.4	15.9	0.00e+00	0	39	0	804257792	62	5055
2026-01-13 22:22:22.80	128.06	14.89	-45.4	-48.5	15.8	0.00e+00	0	39	0	810549248	62	5105
2026-01-13 22:22:25.65	128.54	14.71	-45.7	-49.0	15.3	0.00e+00	0	39	0	815792128	62	5406
2026-01-13 22:22:28.78	129.06	14.51	-45.2	-48.3	15.9	0.00e+00	0	39	0	822083584	62	5007
2026-01-13 22:22:31.72	129.55	14.32	-45.1	-48.1	16.1	0.00e+00	0	39	0	827326464	61	5176
2026-01-13 22:22:34.99	130.08	14.10	-45.4	-48.6	15.6	0.00e+00	0	39	0	833617920	61	5469
2026-01-13 22:22:37.70	130.51	13.93	-45.7	-48.9	15.3	0.00e+00	0	39	0	838860800	62	5392
2026-01-13 22:22:40.97	131.03	13.72	-45.9	-49.2	15.0	0.00e+00	0	39	0	845152256	62	5580
2026-01-13 22:22:43.71	131.46	13.54	-46.3	-49.9	14.4	7.00e-07	0	39	0	850395136	63	5661
2026-01-13 22:22:46.99	131.96	13.32	-46.6	-50.3	13.9	3.00e-06	0	39	0	856686592	63	5977
2026-01-13 22:22:49.72	132.38	13.15	-45.9	-49.3	14.9	7.00e-07	0	39	0	860880896	63	5334
2026-01-13 22:22:53.01	132.87	12.93	-45.6	-48.7	15.5	0.00e+00	0	39	0	867172352	63	4977
2026-01-13 22:22:55.71	133.27	12.76	-45.7	-48.9	15.3	0.00e+00	0	39	0	872415232	62	5394
2026-01-13 22:22:59.21	133.79	12.53	-46.1	-49.6	14.7	0.00e+00	0	39	0	878706688	62	5805
2026-01-13 22:23:01.93	134.18	12.35	-46.1	-49.7	14.5	0.00e+00	0	39	0	883949568	63	5547
2026-01-13 22:23:05.20	134.65	12.14	-46.2	-49.7	14.6	0.00e+00	0	39	0	890241024	63	5560
2026-01-13 22:23:08.08	135.05	11.95	-46.6	-50.5	13.7	3.80e-06	0	39	0	895483904	63	6068
2026-01-13 22:23:11.20	135.49	11.75	-46.7	-50.7	13.4	9.90e-06	0	39	0	901775360	64	5894
2026-01-13 22:23:14.04	135.88	11.56	-46.1	-49.6	14.4	1.50e-06	0	40	0	907018240	64	5218
2026-01-13 22:23:17.17	136.30	11.36	-46.0	-49.5	14.7	0.00e+00	0	39	0	913309696	63	5416
2026-01-13 22:23:20.07	136.69	11.17	-45.7	-49.0	15.1	0.00e+00	0	39	0	918552576	63	5152
2026-01-13 22:23:23.26	137.11	10.97	-46.2	-49.9	14.3	7.00e-07	0	39	0	923795456	63	5671
2026-01-13 22:23:26.21	137.49	10.78	-46.1	-49.7	14.5	0.00e+00	0	39	0	930086912	63	5546
2026-01-13 22:23:29.46	137.91	10.57	-46.0	-49.5	14.6	0.00e+00	0	39	0	936378368	63	5417
2026-01-13 22:23:32.37	138.28	10.38	-46.1	-49.6	14.5	0.00e+00	0	39	0	941621248	63	5481
2026-01-13 22:23:35.64	138.69	10.17	-46.7	-50.7	13.5	2.20e-06	0	39	0	947912704	63	6206
2026-01-13 22:23:38.35	139.03	10.00	-46.7	-50.8	13.2	1.06e-05	0	40	0	952107008	64	5969
2026-01-13 22:23:41.61	139.43	9.79	-46.5	-50.4	13.5	8.30e-06	0	39	0	958398464	64	5698
2026-01-13 22:23:44.68	139.80	9.60	-46.1	-49.8	14.2	3.00e-06	0	39	0	964689920	64	5294
2026-01-13 22:23:47.52	140.13	9.42	-46.1	-49.7	14.2	0.00e+00	0	39	0	969932800	64	5278
2026-01-13 22:23:50.65	140.50	9.22	-46.2	-50.0	13.9	3.00e-06	0	39	0	975175680	64	5446
2026-01-13 22:23:53.50	140.83	9.04	-46.3	-50.3	13.5	1.06e-05	0	39	0	980418560	64	5631
2026-01-13 22:23:56.62	141.19	8.84	-50.4	-65.7	3.8	1.49e+00	0	39	104	983564288	71	22228
2026-01-13 22:23:59.46	141.51	8.66	-50.6	-65.9	3.8	1.49e+00	0	39	104	983564288	72	21378
2026-01-13 22:24:02.58	141.86	8.47	-50.8	-66.0	3.8	1.49e+00	0	39	104	983564288	72	21683
2026-01-13 22:24:05.42	142.18	8.29	-50.6	-66.1	3.8	1.49e+00	0	39	104	983564288	72	21801
2026-01-13 22:24:08.54	142.52	8.10	-50.9	-66.1	3.8	1.49e+00	0	39	104	983564288	72	21917
2026-01-13 22:24:11.40	142.82	7.92	-50.8	-66.1	3.8	1.49e+00	0	39	104	983564288	72	21883
2026-01-13 22:24:14.58	143.16	7.72	-50.7	-66.1	3.8	1.49e+00	0	39	104	983564288	72	21806
2026-01-13 22:24:17.47	143.47	7.54	-50.7	-66.1	3.8	1.49e+00	0	39	104	983564288	72	21801
2026-01-13 22:24:20.59	143.79	7.35	-50.7	-66.1	3.8	1.49e+00	0	39	104	983564288	72	21762
2026-01-13 22:24:23.43	144.08	7.18	-50.7	-66.1	3.8	1.49e+00	0	40	104	983564288	72	21757
2026-01-13 22:24:26.55	144.40	6.99	-50.7	-66.1	3.8	1.49e+00	0	39	104	983564288	72	21778
2026-01-13 22:24:29.39	144.68	6.82	-50.7	-66.1	3.8	1.49e+00	0	39	104	983564288	72	21772
2026-01-13 22:24:32.51	144.99	6.63	-50.7	-66.0	3.8	1.49e+00	0	39	104	983564288	72	21739
2026-01-13 22:24:35.35	145.27	6.46	-50.7	-66.1	3.8	1.49e+00	0	39	104	983564288	72	21763
2026-01-13 22:24:38.47	145.57	6.27	-50.7	-66.0	3.8	1.49e+00	0	39	104	983564288	72	21726
2026-01-13 22:24:41.31	145.84	6.10	-50.7	-66.0	3.8	1.49e+00	0	39	104	983564288	72	21698
2026-01-13 22:24:44.43	146.14	5.91	-50.7	-66.0	3.8	1.49e+00	0	40	104	983564288	72	21671
2026-01-13 22:24:47.27	146.40	5.74	-50.7	-66.0	3.8	1.49e+00	0	39	104	983564288	72	21742
2026-01-13 22:24:50.39	146.69	5.56	-50.7	-66.0	3.8	1.49e+00	0	39	104	983564288	72	21606
2026-01-13 22:24:53.23	146.95	5.39	-50.7	-66.0	3.8	1.49e+00	0	39	104	983564288	72	21660
2026-01-13 22:24:56.35	147.23	5.21	-50.7	-66.0	3.8	1.49e+00	0	39	104	983564288	72	21732
2026-01-13 22:24:59.19	147.48	5.04	-50.7	-66.0	3.8	1.49e+00	0	39	104	983564288	72	21706

#Closed at: 2026-01-13 22:25:01
#Recorded file [983 MB]: D:/Data/31040_260114_011400.dat