passes_logs/2026/01/13/T1/T1__20260113_010753_AQUA_rec.log

#Pass ID: 20260113_010753_AQUA
#Satellite: AQUA
#Configuration: AQUA
#almurnet v.1.7.20251203
#Start time: 2026-01-13 01:07:53

#Version: 2.0.20230620
#Station: T1
#Location: 37.570604 lon 55.790049 lat
#TLE: 1 27424U 02022A   26012.29577270  .00001027  00000+0  21555-3 0  9995
#TLE: 2 27424  98.4078 338.6778 0002034  81.5885  29.6294 14.61817302260499

#Time	Az	El	Level	Level2	SNR	BER	BlckErr	Temp	State	Recorded	gain1	gain2
2026-01-13 01:07:53.20	17.92	5.00	-50.3	-71.8	3.8	7.44e-01	0	37	0	0	71	44542
2026-01-13 01:07:56.18	17.98	5.22	-50.2	-71.5	3.8	7.44e-01	0	37	104	0	71	43127
2026-01-13 01:07:59.16	18.04	5.44	-50.2	-70.3	3.8	7.48e-01	0	37	104	0	71	37729
2026-01-13 01:08:02.14	18.10	5.67	-50.2	-69.2	4.0	7.44e-01	0	38	104	0	71	33196
2026-01-13 01:08:05.12	18.16	5.90	-50.2	-67.6	4.4	7.32e-01	0	38	104	0	71	27557
2026-01-13 01:08:08.09	18.22	6.13	-50.1	-68.2	4.2	7.35e-01	0	38	104	0	71	29364
2026-01-13 01:08:11.07	18.29	6.36	-50.2	-70.1	3.8	7.43e-01	0	38	104	0	71	36551
2026-01-13 01:08:14.05	18.35	6.60	-50.1	-70.3	3.8	7.49e-01	0	38	104	0	71	37708
2026-01-13 01:08:17.03	18.41	6.83	-50.1	-69.0	4.0	7.39e-01	0	38	104	0	71	32318
2026-01-13 01:08:20.01	18.48	7.07	-50.2	-68.4	4.1	7.42e-01	0	38	104	0	71	30041
2026-01-13 01:08:22.99	18.54	7.31	-50.1	-66.6	4.8	7.19e-01	0	38	104	0	71	24528
2026-01-13 01:08:25.97	18.61	7.56	-49.9	-63.8	6.5	6.71e-01	0	39	0	3145728	71	17686
2026-01-13 01:08:28.95	18.68	7.81	-49.8	-61.6	8.8	6.35e-01	0	39	0	8388608	71	13821
2026-01-13 01:08:31.93	18.75	8.06	-49.8	-61.6	8.8	6.35e-01	0	39	0	14155776	71	13852
2026-01-13 01:08:34.91	18.82	8.31	-49.9	-62.8	7.7	6.50e-01	0	39	0	19398656	71	15798
2026-01-13 01:08:37.89	18.89	8.57	-50.0	-63.9	6.7	6.71e-01	0	39	0	25165824	71	17896
2026-01-13 01:08:40.87	18.96	8.83	-50.1	-65.0	5.8	6.94e-01	0	39	0	30408704	71	20475
2026-01-13 01:08:43.85	19.03	9.09	-50.2	-64.4	6.1	6.80e-01	0	39	0	30932992	71	19098
2026-01-13 01:08:46.83	19.11	9.35	-48.9	-69.2	3.9	7.44e-01	0	39	104	33554432	69	37148
2026-01-13 01:08:49.83	19.19	9.62	-48.1	-55.7	15.2	6.02e-01	0	39	0	36700160	68	8272
2026-01-13 01:08:52.88	19.26	9.90	-47.5	-53.1	17.6	6.05e-01	0	39	0	42467328	66	6903
2026-01-13 01:08:55.86	19.34	10.18	-47.3	-52.7	18.0	6.03e-01	0	39	0	48234496	66	6606
2026-01-13 01:08:58.99	19.43	10.47	-46.8	-51.7	18.9	6.03e-01	0	39	0	54001664	65	6243
2026-01-13 01:09:01.83	19.50	10.74	-46.4	-50.9	19.6	6.01e-01	0	39	0	59244544	64	6030
2026-01-13 01:09:04.95	19.59	11.04	-46.0	-50.3	20.2	6.02e-01	0	39	0	65011712	64	5603
2026-01-13 01:09:07.80	19.67	11.31	-46.0	-50.0	20.5	6.05e-01	0	39	0	70778880	64	5449
2026-01-13 01:09:10.96	19.76	11.62	-46.0	-50.1	20.6	6.02e-01	0	40	0	76546048	63	5798
2026-01-13 01:09:13.80	19.85	11.91	-46.0	-50.0	20.6	6.02e-01	0	39	0	81788928	63	5744
2026-01-13 01:09:16.93	19.94	12.22	-46.1	-50.0	20.6	6.00e-01	0	39	0	87556096	63	5749
2026-01-13 01:09:19.76	20.02	12.51	-46.0	-49.8	20.8	6.03e-01	0	39	0	93323264	63	5605
2026-01-13 01:09:22.89	20.12	12.84	-46.0	-49.9	20.7	6.03e-01	0	39	0	99090432	63	5714
2026-01-13 01:09:25.79	20.21	13.14	-46.0	-50.0	20.7	6.01e-01	0	39	0	104333312	63	5723
2026-01-13 01:09:29.24	20.33	13.51	-45.8	-49.7	21.0	6.01e-01	0	39	0	110624768	63	5554
2026-01-13 01:09:32.29	20.43	13.84	-45.9	-49.7	20.9	6.01e-01	0	39	0	116391936	63	5537
2026-01-13 01:09:35.16	20.52	14.16	-45.8	-49.6	21.0	5.99e-01	0	39	0	122159104	63	5527
2026-01-13 01:09:38.31	20.63	14.51	-45.7	-49.6	21.1	6.04e-01	0	39	0	127926272	63	5475
2026-01-13 01:09:41.17	20.73	14.84	-45.6	-49.4	21.2	6.01e-01	0	39	0	133169152	63	5394
2026-01-13 01:09:44.30	20.85	15.20	-45.6	-49.3	21.3	6.03e-01	0	39	0	138936320	63	5340
2026-01-13 01:09:47.14	20.95	15.53	-45.8	-49.4	21.3	6.00e-01	0	40	0	144179200	63	5397
2026-01-13 01:09:50.27	21.07	15.90	-46.0	-49.5	21.2	6.00e-01	0	39	0	150470656	63	5459
2026-01-13 01:09:53.13	21.18	16.25	-45.9	-49.3	21.4	6.04e-01	0	40	0	155713536	63	5324
2026-01-13 01:09:56.38	21.31	16.65	-45.7	-49.3	21.5	6.03e-01	0	39	0	161480704	63	5284
2026-01-13 01:09:59.29	21.42	17.01	-45.8	-49.4	21.4	6.04e-01	0	40	0	167247872	63	5354
2026-01-13 01:10:02.54	21.56	17.43	-45.9	-49.4	21.4	6.00e-01	0	40	0	173015040	63	5343
2026-01-13 01:10:05.44	21.68	17.80	-46.0	-49.5	21.3	6.02e-01	0	40	0	178782208	63	5429
2026-01-13 01:10:08.70	21.82	18.24	-46.0	-49.4	21.4	6.01e-01	0	39	0	184549376	63	5341
2026-01-13 01:10:11.46	21.95	18.61	-46.1	-49.4	21.4	6.01e-01	0	39	0	189792256	63	5352
2026-01-13 01:10:14.76	22.10	19.06	-46.1	-49.2	21.5	6.02e-01	0	40	0	196083712	63	5263
2026-01-13 01:10:17.59	22.23	19.45	-46.1	-49.3	21.5	6.04e-01	0	40	0	201326592	63	5294
2026-01-13 01:10:20.71	22.38	19.89	-46.2	-49.4	21.4	6.02e-01	0	40	0	207618048	63	5372
2026-01-13 01:10:23.56	22.52	20.31	-46.2	-49.4	21.4	6.03e-01	0	40	0	212860928	63	5369
2026-01-13 01:10:26.69	22.68	20.77	-45.8	-49.2	21.6	6.02e-01	0	40	0	218628096	63	5254
2026-01-13 01:10:29.53	22.83	21.19	-45.4	-49.0	21.7	6.02e-01	0	40	0	223870976	62	5446
2026-01-13 01:10:32.65	23.00	21.67	-46.0	-49.3	21.5	6.02e-01	0	40	0	229638144	62	5593
2026-01-13 01:10:35.49	23.16	22.11	-46.0	-49.4	21.4	6.01e-01	0	40	0	234881024	62	5716
2026-01-13 01:10:38.62	23.34	22.61	-45.9	-49.4	21.4	6.03e-01	0	40	0	241172480	62	5680
2026-01-13 01:10:41.46	23.51	23.07	-45.8	-49.3	21.5	6.01e-01	0	40	0	246415360	62	5606
2026-01-13 01:10:44.70	23.70	23.61	-46.0	-49.4	21.4	6.03e-01	0	40	0	252182528	62	5707
2026-01-13 01:10:47.54	23.88	24.09	-46.3	-49.6	21.2	6.02e-01	0	40	0	257425408	63	5522
2026-01-13 01:10:50.67	24.08	24.63	-46.2	-49.6	21.2	6.03e-01	0	40	0	263716864	63	5511
2026-01-13 01:10:53.72	24.29	25.17	-46.2	-49.5	21.4	6.04e-01	0	40	0	269484032	63	5416
2026-01-13 01:10:56.73	24.50	25.71	-46.3	-49.4	21.5	6.04e-01	0	40	0	274726912	63	5393
2026-01-13 01:10:59.72	24.71	26.27	-46.4	-49.5	21.4	6.01e-01	0	40	0	280494080	63	5441
2026-01-13 01:11:02.70	24.93	26.83	-46.3	-49.4	21.5	6.03e-01	0	39	0	286261248	63	5356
2026-01-13 01:11:05.69	25.16	27.40	-46.2	-49.3	21.6	6.02e-01	0	40	0	291504128	63	5295
2026-01-13 01:11:08.66	25.40	27.99	-46.3	-49.4	21.5	6.03e-01	0	40	0	297271296	63	5367
2026-01-13 01:11:11.64	25.65	28.59	-45.8	-48.8	22.0	6.03e-01	0	40	0	303038464	63	5012
2026-01-13 01:11:14.95	25.93	29.27	-45.9	-48.8	22.0	6.04e-01	0	40	0	308805632	63	5005
2026-01-13 01:11:17.68	26.18	29.85	-45.7	-48.8	22.1	6.04e-01	0	40	0	314048512	63	5000
2026-01-13 01:11:20.98	26.48	30.56	-45.4	-48.7	22.1	6.02e-01	0	40	0	320339968	62	5241
2026-01-13 01:11:23.70	26.75	31.16	-45.7	-48.9	22.0	6.03e-01	0	40	0	325582848	62	5341
2026-01-13 01:11:27.04	27.09	31.92	-46.1	-49.2	21.7	6.03e-01	0	40	0	331874304	62	5564
2026-01-13 01:11:29.86	27.38	32.57	-45.9	-48.9	22.0	6.01e-01	0	40	0	337117184	62	5357
2026-01-13 01:11:33.34	27.77	33.40	-46.2	-49.3	21.6	6.02e-01	0	40	0	343408640	63	5290
2026-01-13 01:11:36.18	28.09	34.09	-46.3	-49.6	21.3	6.01e-01	0	40	0	348651520	63	5514
2026-01-13 01:11:39.31	28.47	34.88	-46.6	-49.9	21.1	6.01e-01	0	40	0	354942976	63	5658
2026-01-13 01:11:42.18	28.84	35.61	-46.8	-50.1	20.8	6.01e-01	0	40	0	360185856	64	5474
2026-01-13 01:11:45.43	29.27	36.47	-47.0	-50.5	20.5	6.02e-01	0	40	0	365953024	64	5740
2026-01-13 01:11:48.35	29.68	37.25	-47.0	-50.7	20.3	6.02e-01	0	40	0	371720192	65	5557
2026-01-13 01:11:51.60	30.15	38.15	-47.4	-51.1	19.9	6.02e-01	0	40	0	377487360	65	5820
2026-01-13 01:11:54.39	30.59	38.94	-47.3	-51.3	19.7	6.03e-01	0	40	0	382730240	65	5966
2026-01-13 01:11:57.69	31.12	39.89	-47.1	-51.0	19.9	6.01e-01	0	40	0	389021696	65	5778
2026-01-13 01:12:00.49	31.61	40.72	-47.0	-50.4	20.6	6.03e-01	0	40	0	394264576	65	5372
2026-01-13 01:12:03.61	32.18	41.67	-46.4	-49.9	21.0	6.05e-01	0	40	0	400556032	64	5368
2026-01-13 01:12:06.74	32.78	42.65	-46.1	-49.5	21.4	5.99e-01	0	40	0	406323200	63	5452
2026-01-13 01:12:10.13	33.48	43.73	-46.1	-49.2	21.8	6.02e-01	0	40	0	412614656	63	5236
2026-01-13 01:12:12.85	34.08	44.62	-45.8	-48.9	22.1	6.01e-01	0	40	0	417333248	63	5046
2026-01-13 01:12:16.13	34.84	45.71	-45.8	-48.9	21.9	6.02e-01	0	40	0	423624704	63	5093
2026-01-13 01:12:19.13	35.59	46.74	-46.1	-49.2	21.7	6.00e-01	0	40	0	429391872	63	5244
2026-01-13 01:12:22.50	36.49	47.92	-45.9	-48.6	22.3	6.02e-01	0	40	0	435683328	63	4906
2026-01-13 01:12:25.21	37.27	48.88	-45.8	-48.6	22.2	6.00e-01	0	40	0	440926208	63	4921
2026-01-13 01:12:28.73	38.35	50.17	-45.7	-48.5	22.3	6.04e-01	0	40	0	447217664	63	4850
2026-01-13 01:12:31.56	39.30	51.21	-45.7	-48.5	22.4	6.04e-01	0	40	0	452460544	63	4826
2026-01-13 01:12:34.84	40.48	52.45	-45.5	-48.3	22.6	6.01e-01	0	40	0	458752000	63	4712
2026-01-13 01:12:37.54	41.52	53.48	-45.5	-48.3	22.6	6.02e-01	0	40	0	463994880	62	4992
2026-01-13 01:12:40.82	42.90	54.75	-45.9	-48.7	22.2	6.03e-01	0	40	0	470286336	62	5230
2026-01-13 01:12:43.66	44.20	55.87	-46.2	-49.1	21.8	6.03e-01	0	40	0	475529216	62	5523
2026-01-13 01:12:47.28	46.01	57.30	-46.5	-49.4	21.5	6.03e-01	0	40	0	482344960	63	5394
2026-01-13 01:12:49.99	47.50	58.37	-46.8	-50.0	20.9	6.01e-01	0	40	0	487063552	64	5453
2026-01-13 01:12:53.26	49.46	59.68	-47.7	-51.2	19.9	6.00e-01	0	40	0	493355008	66	5545
2026-01-13 01:12:55.98	51.25	60.75	-48.1	-51.8	19.3	6.01e-01	0	40	0	498597888	66	5981
2026-01-13 01:12:59.24	53.61	62.04	-48.4	-52.2	18.9	6.01e-01	0	40	0	504365056	67	5896
2026-01-13 01:13:02.10	55.88	63.15	-48.4	-52.5	18.6	6.02e-01	0	40	0	510132224	67	6091
2026-01-13 01:13:05.73	59.10	64.52	-48.6	-52.7	18.4	6.02e-01	0	40	0	516947968	67	6232
2026-01-13 01:13:08.44	61.75	65.51	-49.2	-54.2	17.1	6.01e-01	0	40	0	521666560	69	6623
2026-01-13 01:13:11.70	65.28	66.65	-49.6	-54.9	16.4	6.03e-01	0	40	0	527958016	69	7130
2026-01-13 01:13:14.42	68.51	67.54	-49.4	-54.3	16.9	6.03e-01	0	40	0	533200896	69	6715
2026-01-13 01:13:17.69	72.77	68.54	-49.4	-54.0	17.3	6.04e-01	0	40	0	538968064	70	6126
2026-01-13 01:13:20.40	76.62	69.28	-49.0	-53.5	17.7	6.01e-01	0	40	0	544210944	70	5772
2026-01-13 01:13:23.76	81.80	70.08	-49.3	-54.1	17.2	6.00e-01	0	40	0	550502400	69	6511
2026-01-13 01:13:26.47	86.29	70.60	-48.7	-53.5	17.8	6.01e-01	0	40	0	555745280	69	6067
2026-01-13 01:13:29.86	92.22	71.10	-48.5	-52.7	18.5	6.01e-01	0	40	0	562036736	69	5553
2026-01-13 01:13:32.56	97.15	71.36	-48.1	-52.0	19.2	6.01e-01	0	40	0	567279616	68	5459
2026-01-13 01:13:35.83	103.26	71.49	-48.3	-52.3	18.9	6.01e-01	0	40	0	573046784	68	5608
2026-01-13 01:13:38.55	108.37	71.45	-48.7	-52.7	18.5	6.03e-01	0	40	0	578289664	68	5876
2026-01-13 01:13:42.10	114.93	71.19	-48.6	-52.7	18.6	6.00e-01	0	40	0	585105408	68	5857
2026-01-13 01:13:45.01	120.11	70.82	-48.6	-52.7	18.6	6.00e-01	0	40	0	590348288	68	5857
2026-01-13 01:13:48.29	125.65	70.23	-48.6	-52.8	18.5	6.00e-01	0	40	0	596639744	68	5944
2026-01-13 01:13:51.02	129.97	69.62	-49.0	-53.3	18.1	6.01e-01	0	40	0	601882624	68	6298
2026-01-13 01:13:54.29	134.77	68.76	-49.2	-53.7	17.6	6.00e-01	0	40	0	607649792	69	6221
2026-01-13 01:13:57.30	138.80	67.87	-48.6	-52.6	18.7	6.03e-01	0	40	0	613416960	69	5469
2026-01-13 01:14:00.35	142.54	66.89	-48.7	-53.0	18.3	6.01e-01	0	40	0	619184128	69	5739
2026-01-13 01:14:03.54	146.07	65.78	-48.9	-53.4	17.9	6.02e-01	0	40	0	624951296	68	6383
2026-01-13 01:14:06.38	148.93	64.75	-47.9	-51.6	19.5	5.98e-01	0	40	0	630718464	67	5484
2026-01-13 01:14:09.51	151.78	63.58	-47.4	-51.1	20.0	6.02e-01	0	40	0	636485632	66	5519
2026-01-13 01:14:12.36	154.14	62.48	-47.5	-51.0	20.0	6.01e-01	0	40	0	641728512	65	5787
2026-01-13 01:14:15.49	156.50	61.25	-47.2	-50.5	20.5	6.02e-01	0	40	0	647495680	65	5462
2026-01-13 01:14:18.33	158.44	60.12	-46.8	-50.0	21.0	6.00e-01	0	40	0	652738560	65	5131
2026-01-13 01:14:21.46	160.39	58.87	-46.7	-49.8	21.1	6.00e-01	0	40	0	658505728	65	5033
2026-01-13 01:14:24.30	162.01	57.74	-46.8	-49.9	21.1	6.03e-01	0	40	0	664272896	65	5048
2026-01-13 01:14:27.43	163.65	56.50	-46.2	-49.1	21.8	6.02e-01	0	40	0	670040064	64	4899
2026-01-13 01:14:30.36	165.05	55.34	-45.8	-48.7	22.3	6.01e-01	0	40	0	675282944	63	4932
2026-01-13 01:14:33.61	166.48	54.07	-45.6	-48.4	22.5	6.04e-01	0	40	0	681574400	63	4799
2026-01-13 01:14:36.42	167.61	52.98	-45.9	-48.8	22.1	6.04e-01	0	40	0	686817280	63	5003
2026-01-13 01:14:39.55	168.79	51.79	-46.1	-49.1	21.9	6.04e-01	0	40	0	692584448	63	5175
2026-01-13 01:14:42.39	169.77	50.72	-46.2	-49.1	21.9	6.02e-01	0	40	0	697827328	63	5186
2026-01-13 01:14:45.51	170.78	49.57	-46.6	-49.7	21.4	6.01e-01	0	40	0	704118784	63	5531
2026-01-13 01:14:48.36	171.63	48.53	-46.7	-49.8	21.1	6.03e-01	0	40	0	709361664	64	5339
2026-01-13 01:14:51.48	172.51	47.42	-46.6	-49.8	21.2	6.04e-01	0	40	0	715128832	64	5292
2026-01-13 01:14:54.32	173.25	46.43	-46.3	-49.2	21.7	6.02e-01	0	40	0	720371712	64	4964
2026-01-13 01:14:57.45	174.02	45.37	-46.6	-49.7	21.3	6.00e-01	0	40	0	726138880	64	5229
2026-01-13 01:15:00.29	174.67	44.42	-46.5	-49.6	21.4	6.04e-01	0	40	0	731381760	64	5176
2026-01-13 01:15:03.42	175.35	43.39	-46.3	-49.3	21.6	6.03e-01	0	40	0	737673216	64	5003
2026-01-13 01:15:06.26	175.93	42.49	-46.6	-49.6	21.3	6.02e-01	0	40	0	742916096	64	5212
2026-01-13 01:15:09.38	176.53	41.51	-47.2	-50.6	20.4	6.02e-01	0	39	0	748683264	65	5503
2026-01-13 01:15:12.22	177.05	40.65	-47.1	-50.5	20.5	6.01e-01	0	40	0	753926144	65	5431
2026-01-13 01:15:15.35	177.59	39.72	-46.9	-50.2	20.8	6.00e-01	0	40	0	759693312	65	5259
2026-01-13 01:15:18.20	178.05	38.89	-47.0	-50.4	20.6	6.01e-01	0	40	0	764936192	65	5371
2026-01-13 01:15:21.32	178.53	38.00	-47.1	-50.5	20.5	6.03e-01	0	40	0	771227648	65	5439
2026-01-13 01:15:24.20	178.96	37.20	-46.7	-50.0	21.0	6.02e-01	0	40	0	776470528	65	5140
2026-01-13 01:15:27.72	179.45	36.25	-46.5	-49.7	21.2	6.04e-01	0	40	0	782761984	65	4959
2026-01-13 01:15:30.43	179.80	35.54	-46.4	-49.5	21.4	6.00e-01	0	40	0	788004864	64	5103
2026-01-13 01:15:33.70	180.22	34.70	-46.0	-48.8	22.0	6.02e-01	0	40	0	794296320	64	4758
2026-01-13 01:15:36.42	180.55	34.02	-46.0	-48.9	22.0	6.02e-01	0	40	0	799539200	63	5046
2026-01-13 01:15:39.69	180.92	33.22	-45.7	-48.5	22.4	6.02e-01	0	40	0	805306368	63	4858
2026-01-13 01:15:42.73	181.26	32.49	-45.6	-48.5	22.4	6.04e-01	0	40	0	811073536	63	4839
2026-01-13 01:15:45.89	181.59	31.75	-45.5	-48.4	22.5	6.01e-01	0	40	0	816840704	62	5077
2026-01-13 01:15:48.81	181.88	31.09	-45.2	-47.9	22.8	6.02e-01	0	40	0	822607872	62	4811
2026-01-13 01:15:52.28	182.22	30.32	-45.3	-48.1	22.6	6.04e-01	0	40	0	828899328	62	4916
2026-01-13 01:15:55.00	182.47	29.73	-45.4	-48.2	22.6	6.03e-01	0	40	0	834142208	62	4950
2026-01-13 01:15:58.52	182.78	28.99	-45.4	-48.3	22.5	6.02e-01	0	40	0	840957952	62	4994
2026-01-13 01:16:01.28	183.02	28.42	-45.7	-48.6	22.3	6.01e-01	0	40	0	845676544	62	5171
2026-01-13 01:16:04.72	183.30	27.72	-45.7	-48.7	22.1	5.99e-01	0	40	0	852492288	62	5256
2026-01-13 01:16:07.48	183.51	27.18	-45.8	-48.8	22.1	6.03e-01	0	40	0	857735168	62	5322
2026-01-13 01:16:10.76	183.76	26.55	-45.9	-49.0	21.8	6.00e-01	0	40	0	863502336	62	5461
2026-01-13 01:16:13.47	183.96	26.04	-46.0	-49.2	21.7	6.00e-01	0	40	0	868745216	62	5584
2026-01-13 01:16:16.75	184.20	25.43	-46.1	-49.3	21.7	6.02e-01	0	40	0	875036672	62	5605
2026-01-13 01:16:19.51	184.38	24.94	-46.1	-49.3	21.6	6.02e-01	0	40	0	880279552	62	5614
2026-01-13 01:16:22.81	184.60	24.35	-46.0	-49.3	21.6	6.01e-01	0	40	0	886046720	62	5610
2026-01-13 01:16:25.51	184.78	23.89	-46.1	-49.4	21.5	6.01e-01	0	40	0	891289600	62	5701
2026-01-13 01:16:29.13	185.00	23.28	-46.2	-49.6	21.3	6.03e-01	0	40	0	898105344	63	5478
2026-01-13 01:16:32.04	185.17	22.79	-46.2	-49.5	21.4	6.01e-01	0	40	0	903348224	63	5452
2026-01-13 01:16:35.31	185.36	22.27	-46.3	-49.6	21.3	6.02e-01	0	40	0	909639680	63	5527
2026-01-13 01:16:38.04	185.52	21.83	-46.2	-49.4	21.5	6.01e-01	0	40	0	914882560	63	5381
2026-01-13 01:16:41.31	185.69	21.32	-46.2	-49.4	21.5	6.01e-01	0	40	0	920649728	63	5351
2026-01-13 01:16:44.33	185.85	20.86	-46.2	-49.4	21.5	6.03e-01	0	40	0	926416896	63	5364
2026-01-13 01:16:47.60	186.02	20.38	-45.9	-49.4	21.5	6.02e-01	0	40	0	932708352	63	5349
2026-01-13 01:16:50.31	186.16	19.98	-45.8	-49.3	21.6	6.02e-01	0	40	0	937951232	63	5310
2026-01-13 01:16:53.58	186.32	19.51	-45.8	-49.2	21.6	6.02e-01	0	40	0	943718400	63	5239
2026-01-13 01:16:56.55	186.46	19.09	-45.8	-49.1	21.7	6.01e-01	0	40	0	949485568	63	5206
2026-01-13 01:16:59.53	186.59	18.68	-45.9	-49.2	21.6	6.03e-01	0	40	0	955252736	63	5255
2026-01-13 01:17:02.52	186.73	18.27	-45.8	-49.2	21.6	6.02e-01	0	40	0	960495616	63	5249
2026-01-13 01:17:05.51	186.86	17.87	-45.7	-49.1	21.7	6.02e-01	0	40	0	966262784	63	5209
2026-01-13 01:17:08.50	186.98	17.48	-45.6	-49.1	21.7	6.02e-01	0	40	0	972029952	63	5166
2026-01-13 01:17:11.48	187.11	17.09	-45.5	-49.0	21.7	6.01e-01	0	40	0	977272832	63	5159
2026-01-13 01:17:14.47	187.23	16.71	-45.5	-49.1	21.6	6.00e-01	0	39	0	983040000	63	5217
2026-01-13 01:17:17.45	187.34	16.34	-45.6	-49.2	21.5	6.05e-01	0	40	0	988807168	63	5270
2026-01-13 01:17:20.50	187.46	15.97	-45.6	-49.3	21.4	6.05e-01	0	40	0	994574336	63	5334
2026-01-13 01:17:23.45	187.57	15.61	-45.6	-49.3	21.3	6.03e-01	0	40	0	999817216	63	5338
2026-01-13 01:17:26.46	187.68	15.25	-45.5	-49.3	21.4	6.04e-01	0	40	0	1005584384	63	5340
2026-01-13 01:17:29.43	187.79	14.90	-45.6	-49.4	21.3	6.02e-01	0	40	0	1011351552	62	5696
2026-01-13 01:17:32.41	187.89	14.56	-45.4	-49.3	21.4	6.01e-01	0	40	0	1016594432	62	5599
2026-01-13 01:17:35.40	187.99	14.22	-45.5	-49.3	21.4	6.02e-01	0	39	0	1022361600	62	5616
2026-01-13 01:17:38.45	188.10	13.88	-45.5	-49.3	21.4	6.02e-01	0	40	0	1028128768	62	5611
2026-01-13 01:17:41.33	188.19	13.56	-45.5	-49.3	21.3	6.01e-01	0	40	0	1033371648	62	5638
2026-01-13 01:17:44.45	188.29	13.23	-45.5	-49.3	21.3	6.02e-01	0	40	0	1039138816	62	5631
2026-01-13 01:17:47.30	188.38	12.92	-45.6	-49.4	21.2	6.00e-01	0	40	0	1044905984	62	5720
2026-01-13 01:17:50.47	188.48	12.59	-45.5	-49.5	21.1	6.02e-01	0	39	0	1050673152	62	5762
2026-01-13 01:17:53.31	188.56	12.29	-45.5	-49.5	21.1	6.03e-01	0	40	0	1055916032	62	5753
2026-01-13 01:17:56.70	188.66	11.94	-45.5	-49.6	21.0	6.02e-01	0	40	0	1062207488	62	5850
2026-01-13 01:17:59.52	188.75	11.66	-45.6	-49.7	20.9	6.00e-01	0	40	0	1067450368	62	5918
2026-01-13 01:18:02.79	188.84	11.33	-45.6	-49.8	20.8	6.02e-01	0	40	0	1073741824	62	5945
2026-01-13 01:18:05.51	188.91	11.07	-45.6	-49.8	20.8	6.01e-01	0	40	0	1078984704	62	5969
2026-01-13 01:18:08.79	189.00	10.75	-45.7	-49.9	20.7	6.01e-01	0	40	0	1085276160	62	6015
2026-01-13 01:18:11.51	189.08	10.49	-45.8	-50.0	20.6	6.01e-01	0	40	0	1089994752	62	6080
2026-01-13 01:18:14.78	189.16	10.18	-45.8	-50.1	20.5	6.00e-01	0	40	0	1096286208	62	6147
2026-01-13 01:18:17.50	189.23	9.93	-45.9	-50.2	20.4	6.00e-01	0	40	0	1101529088	62	6206
2026-01-13 01:18:20.80	189.31	9.62	-45.9	-50.1	20.4	6.01e-01	0	40	0	1107296256	62	6192
2026-01-13 01:18:23.52	189.38	9.37	-45.9	-50.2	20.3	6.02e-01	0	40	0	1112539136	62	6264
2026-01-13 01:18:26.80	189.46	9.08	-45.9	-50.2	20.3	6.01e-01	0	40	0	1118830592	62	6267
2026-01-13 01:18:29.55	189.53	8.83	-50.6	-71.4	3.9	7.45e-01	0	40	104	1120927744	72	40278
2026-01-13 01:18:32.81	189.61	8.55	-51.5	-72.4	3.8	7.46e-01	0	40	104	1120927744	74	40415
2026-01-13 01:18:35.55	189.67	8.31	-52.3	-72.5	3.8	7.48e-01	0	40	104	1120927744	75	38508
2026-01-13 01:18:38.83	189.74	8.03	-52.6	-72.5	3.8	7.46e-01	0	40	104	1120927744	75	38632
2026-01-13 01:18:41.54	189.80	7.80	-51.9	-72.5	3.8	7.49e-01	0	40	104	1120927744	74	40951
2026-01-13 01:18:44.81	189.88	7.52	-52.3	-72.5	3.8	7.43e-01	0	40	104	1120927744	75	38558
2026-01-13 01:18:47.52	189.93	7.30	-52.5	-72.5	3.8	7.44e-01	0	40	104	1120927744	76	36520
2026-01-13 01:18:50.79	190.00	7.03	-52.4	-72.6	3.8	7.47e-01	0	40	104	1120927744	76	36567
2026-01-13 01:18:53.53	190.06	6.81	-51.7	-72.5	3.8	7.47e-01	0	40	104	1120927744	75	38429
2026-01-13 01:18:56.86	190.13	6.54	-52.0	-72.4	3.8	7.46e-01	0	40	104	1120927744	75	38226
2026-01-13 01:18:59.57	190.19	6.32	-52.0	-72.4	3.8	7.46e-01	0	40	104	1120927744	75	38204
2026-01-13 01:19:02.83	190.25	6.07	-52.0	-72.4	3.8	7.46e-01	0	40	104	1120927744	75	38198
2026-01-13 01:19:05.53	190.30	5.86	-52.0	-72.4	3.8	7.47e-01	0	40	104	1120927744	75	38217
2026-01-13 01:19:08.79	190.37	5.60	-52.0	-72.4	3.8	7.49e-01	0	40	104	1120927744	75	38243
2026-01-13 01:19:11.49	190.42	5.40	-52.0	-72.4	3.8	7.46e-01	0	40	104	1120927744	75	38152
2026-01-13 01:19:14.78	190.48	5.15	-52.0	-72.4	3.8	7.46e-01	0	40	104	1120927744	75	38144

#Closed at: 2026-01-13 01:19:17
#Recorded file [1120 MB]: D:/Data/31040_260113_040753.dat