passes_logs/2026/01/13/T1/T1__20260113_043743_FENGYUN_3E_rec.log

#Pass ID: 20260113_043743_FENGYUN 3E
#Satellite: FENGYUN 3E
#Configuration: FENGYUN 3E
#almurnet v.1.7.20251203
#Start time: 2026-01-13 04:37:42

#Version: 2.0.20230620
#Station: T1
#Location: 37.570604 lon 55.790049 lat
#TLE: 1 49008U 21062A   26012.25745337  .00000274  00000+0  14981-3 0  9997
#TLE: 2 49008  98.7491  17.4183 0001913 142.8235 217.3074 14.19885845234459

#Time	Az	El	Level	Level2	SNR	BER	BlckErr	Temp	State	Recorded	gain1	gain2
2026-01-13 04:37:42.82	12.23	4.97	-48.9	-61.4	3.8	8.47e-01	0	40	0	0	68	15012
2026-01-13 04:37:45.79	12.14	5.17	-48.3	-61.3	3.8	8.45e-01	0	40	104	0	65	17672
2026-01-13 04:37:48.78	12.05	5.38	-48.2	-61.2	3.8	8.47e-01	0	40	104	0	65	17349
2026-01-13 04:37:51.76	11.95	5.59	-48.2	-60.9	3.8	8.47e-01	0	40	104	0	65	16738
2026-01-13 04:37:54.74	11.85	5.81	-48.2	-60.7	3.8	8.47e-01	0	41	104	0	65	16408
2026-01-13 04:37:57.72	11.75	6.02	-48.2	-60.5	3.8	8.47e-01	0	41	104	0	65	15981
2026-01-13 04:38:00.70	11.65	6.24	-48.1	-59.9	3.8	8.47e-01	0	41	104	0	65	14938
2026-01-13 04:38:03.67	11.55	6.45	-48.1	-59.8	3.8	8.47e-01	0	41	104	0	65	14742
2026-01-13 04:38:06.65	11.45	6.67	-48.1	-60.4	3.8	8.47e-01	0	41	104	0	65	15803
2026-01-13 04:38:09.63	11.34	6.90	-48.2	-61.4	3.8	8.46e-01	0	41	104	0	65	17724
2026-01-13 04:38:12.61	11.23	7.12	-48.0	-58.6	4.0	8.45e-01	0	41	0	0	65	12938
2026-01-13 04:38:15.60	11.12	7.34	-47.3	-54.1	6.2	3.24e-01	0	41	0	4194304	65	7703
2026-01-13 04:38:18.58	11.01	7.57	-46.3	-50.9	9.4	1.96e-02	0	41	0	26214400	63	5941
2026-01-13 04:38:21.55	10.90	7.80	-45.5	-49.0	11.4	1.29e-03	0	41	0	47185920	61	5355
2026-01-13 04:38:24.54	10.78	8.03	-44.8	-47.7	12.7	1.12e-04	0	41	0	69206016	60	4925
2026-01-13 04:38:27.52	10.66	8.26	-44.4	-47.0	13.3	2.28e-05	0	41	0	90177536	59	4763
2026-01-13 04:38:30.50	10.54	8.50	-45.0	-48.0	12.3	1.54e-04	0	42	0	112197632	59	5362
2026-01-13 04:38:33.48	10.42	8.73	-45.9	-49.9	10.4	2.70e-03	0	41	0	134217728	61	5966
2026-01-13 04:38:36.46	10.30	8.97	-47.3	-54.1	6.3	2.05e-01	0	42	0	155189248	64	8097
2026-01-13 04:38:39.41	10.17	9.21	-48.3	-58.5	3.9	8.47e-01	0	42	104	158334976	66	12051
2026-01-13 04:38:42.54	10.04	9.47	-45.8	-49.6	10.6	6.24e-01	0	42	0	174063616	62	5447
2026-01-13 04:38:45.38	9.91	9.70	-41.9	-43.5	16.7	0.00e+00	0	42	0	195035136	54	4291
2026-01-13 04:38:48.51	9.77	9.96	-42.1	-43.7	16.6	0.00e+00	0	42	0	217055232	54	4365
2026-01-13 04:38:51.35	9.64	10.20	-42.1	-43.6	16.6	0.00e+00	0	42	0	238026752	54	4339
2026-01-13 04:38:54.47	9.50	10.47	-41.8	-43.3	17.0	0.00e+00	0	42	0	260046848	54	4146
2026-01-13 04:38:57.32	9.36	10.71	-41.7	-43.1	17.2	0.00e+00	0	42	0	279969792	54	4064
2026-01-13 04:39:00.44	9.21	10.98	-41.7	-43.0	17.2	0.00e+00	0	42	0	303038464	54	4050
2026-01-13 04:39:03.28	9.07	11.23	-41.7	-43.1	17.2	0.00e+00	0	42	0	324009984	53	4322
2026-01-13 04:39:06.47	8.91	11.51	-41.6	-42.9	17.4	0.00e+00	0	42	0	347078656	53	4225
2026-01-13 04:39:09.31	8.77	11.76	-41.5	-42.8	17.5	0.00e+00	0	42	0	367001600	53	4164
2026-01-13 04:39:12.44	8.60	12.04	-41.4	-42.7	17.5	0.00e+00	0	42	0	390070272	53	4135
2026-01-13 04:39:15.41	8.45	12.31	-41.5	-42.8	17.5	0.00e+00	0	42	0	411041792	53	4170
2026-01-13 04:39:18.40	8.28	12.59	-41.4	-42.7	17.6	0.00e+00	0	42	0	433061888	53	4124
2026-01-13 04:39:21.38	8.12	12.87	-41.4	-42.7	17.6	0.00e+00	0	42	0	454033408	53	4111
2026-01-13 04:39:24.36	7.95	13.14	-41.4	-42.7	17.6	0.00e+00	0	42	0	476053504	53	4100
2026-01-13 04:39:27.34	7.78	13.43	-41.5	-42.7	17.6	0.00e+00	0	42	0	497025024	53	4114
2026-01-13 04:39:30.33	7.60	13.71	-41.1	-42.3	18.0	0.00e+00	0	42	0	519045120	53	3923
2026-01-13 04:39:33.31	7.42	14.00	-41.2	-42.3	18.0	0.00e+00	0	42	0	540016640	52	4191
2026-01-13 04:39:36.30	7.24	14.30	-41.3	-42.5	17.9	0.00e+00	0	43	0	562036736	52	4255
2026-01-13 04:39:39.28	7.05	14.59	-40.9	-42.0	18.3	0.00e+00	0	42	0	584056832	52	4047
2026-01-13 04:39:42.30	6.86	14.89	-41.0	-42.1	18.3	0.00e+00	0	42	0	605028352	52	4076
2026-01-13 04:39:45.35	6.66	15.20	-40.8	-41.9	18.5	0.00e+00	0	42	0	627048448	52	3975
2026-01-13 04:39:48.19	6.47	15.49	-40.8	-41.9	18.5	0.00e+00	0	43	0	648019968	51	4218
2026-01-13 04:39:51.32	6.25	15.82	-40.7	-41.8	18.7	0.00e+00	0	43	0	670040064	51	4147
2026-01-13 04:39:54.16	6.05	16.12	-40.6	-41.7	18.8	0.00e+00	0	42	0	691011584	51	4111
2026-01-13 04:39:57.29	5.83	16.45	-40.8	-41.9	18.5	0.00e+00	0	43	0	714080256	51	4226
2026-01-13 04:40:00.19	5.62	16.76	-40.5	-41.6	18.9	0.00e+00	0	43	0	734003200	51	4057
2026-01-13 04:40:03.38	5.38	17.11	-40.4	-41.5	18.9	0.00e+00	0	43	0	758120448	51	4051
2026-01-13 04:40:06.35	5.15	17.43	-40.4	-41.5	18.9	0.00e+00	0	42	0	779091968	51	4026
2026-01-13 04:40:09.70	4.89	17.81	-40.2	-41.3	19.2	0.00e+00	0	43	0	803209216	51	3928
2026-01-13 04:40:12.40	4.67	18.11	-40.2	-41.3	19.2	0.00e+00	0	43	0	822083584	51	3933
2026-01-13 04:40:15.67	4.40	18.48	-40.0	-41.1	19.4	0.00e+00	0	43	0	846200832	50	4070
2026-01-13 04:40:18.49	4.17	18.81	-40.2	-41.3	19.2	0.00e+00	0	43	0	866123776	50	4150
2026-01-13 04:40:21.62	3.90	19.17	-40.1	-41.1	19.4	0.00e+00	0	43	0	889192448	50	4072
2026-01-13 04:40:24.81	3.61	19.55	-40.0	-41.0	19.5	0.00e+00	0	43	0	912261120	50	4023
2026-01-13 04:40:27.65	3.36	19.89	-39.9	-40.9	19.6	0.00e+00	0	43	0	932184064	50	3997
2026-01-13 04:40:30.78	3.07	20.27	-39.9	-40.9	19.6	0.00e+00	0	43	0	955252736	50	3989
2026-01-13 04:40:33.70	2.79	20.63	-39.9	-41.0	19.5	0.00e+00	0	43	0	976224256	50	4015
2026-01-13 04:40:37.05	2.46	21.05	-40.0	-41.0	19.6	0.00e+00	0	43	0	1000341504	50	4019
2026-01-13 04:40:39.97	2.17	21.42	-40.0	-41.0	19.5	0.00e+00	0	43	0	1021313024	50	4045
2026-01-13 04:40:43.24	1.83	21.84	-39.9	-41.0	19.6	0.00e+00	0	43	0	1045430272	50	4008
2026-01-13 04:40:45.97	1.54	22.19	-40.0	-41.0	19.6	0.00e+00	0	43	0	1064304640	50	4028
2026-01-13 04:40:49.25	1.19	22.63	-40.0	-41.1	19.5	0.00e+00	0	43	0	1088421888	50	4066
2026-01-13 04:40:51.95	0.88	22.99	-39.8	-40.8	19.8	0.00e+00	0	43	0	1108344832	50	3932
2026-01-13 04:40:55.23	0.51	23.43	-39.8	-40.9	19.7	0.00e+00	0	43	0	1131413504	50	3972
2026-01-13 04:40:58.19	0.16	23.83	-39.7	-40.8	19.8	0.00e+00	0	43	0	1153433600	50	3918
2026-01-13 04:41:01.15	359.80	24.24	-39.6	-40.6	19.9	0.00e+00	0	43	0	1174405120	49	4076
2026-01-13 04:41:04.18	359.43	24.67	-39.6	-40.7	19.9	0.00e+00	0	43	0	1196425216	49	4102
2026-01-13 04:41:07.14	359.05	25.09	-39.6	-40.6	20.0	0.00e+00	0	43	0	1217396736	49	4072
2026-01-13 04:41:10.23	358.64	25.53	-39.9	-40.9	19.7	0.00e+00	0	43	0	1240465408	49	4207
2026-01-13 04:41:13.07	358.26	25.95	-39.4	-40.4	20.2	0.00e+00	0	43	0	1260388352	49	3959
2026-01-13 04:41:16.20	357.82	26.41	-39.3	-40.3	20.2	0.00e+00	0	43	0	1283457024	49	3942
2026-01-13 04:41:19.04	357.42	26.83	-39.3	-40.3	20.2	0.00e+00	0	43	0	1303379968	49	3940
2026-01-13 04:41:22.17	356.96	27.31	-39.1	-40.1	20.4	0.00e+00	0	43	0	1326448640	48	4061
2026-01-13 04:41:25.01	356.53	27.74	-38.8	-39.7	20.8	0.00e+00	0	43	0	1346371584	48	3877
2026-01-13 04:41:28.14	356.04	28.23	-38.6	-39.5	20.7	0.00e+00	0	43	0	1369440256	47	4017
2026-01-13 04:41:30.98	355.58	28.68	-38.3	-39.2	20.9	0.00e+00	0	43	0	1390411776	47	3901
2026-01-13 04:41:34.19	355.05	29.19	-38.7	-39.6	20.6	0.00e+00	0	43	0	1413480448	46	4310
2026-01-13 04:41:37.32	354.51	29.69	-38.8	-39.7	20.5	0.00e+00	0	43	0	1435500544	47	4136
2026-01-13 04:41:40.16	354.01	30.15	-39.0	-40.0	20.3	0.00e+00	0	43	0	1456472064	47	4263
2026-01-13 04:41:43.43	353.42	30.69	-39.4	-40.4	20.2	0.00e+00	0	43	0	1479540736	48	4213
2026-01-13 04:41:46.22	352.89	31.16	-39.4	-40.4	20.2	0.00e+00	0	43	0	1500512256	48	4212
2026-01-13 04:41:49.49	352.26	31.71	-39.4	-40.3	20.2	0.00e+00	0	43	0	1523580928	49	3958
2026-01-13 04:41:52.22	351.71	32.17	-38.9	-39.8	20.8	0.00e+00	0	43	0	1543503872	48	3924
2026-01-13 04:41:55.97	350.93	32.82	-38.7	-39.7	20.9	0.00e+00	0	43	0	1570766848	48	3876
2026-01-13 04:41:58.69	350.35	33.29	-38.6	-39.5	20.7	0.00e+00	0	43	0	1589641216	47	4034
2026-01-13 04:42:01.96	349.62	33.86	-38.7	-39.7	20.6	0.00e+00	0	43	0	1613758464	47	4117
2026-01-13 04:42:04.66	349.00	34.34	-38.7	-39.7	20.6	0.00e+00	0	43	0	1632632832	47	4118
2026-01-13 04:42:08.26	348.15	34.99	-38.8	-39.7	20.6	0.00e+00	0	43	0	1658847232	47	4134
2026-01-13 04:42:11.10	347.45	35.50	-38.9	-39.8	20.5	0.00e+00	0	43	0	1679818752	47	4175
2026-01-13 04:42:15.08	346.43	36.22	-39.3	-40.3	20.4	0.00e+00	0	43	0	1708130304	48	4165
2026-01-13 04:42:17.95	345.66	36.74	-39.6	-40.6	20.1	0.00e+00	0	43	0	1729101824	48	4332
2026-01-13 04:42:21.96	344.56	37.48	-39.2	-40.1	20.5	0.00e+00	0	43	0	1757413376	48	4084
2026-01-13 04:42:24.80	343.74	38.00	-39.4	-40.4	20.3	0.00e+00	0	43	0	1778384896	48	4207
2026-01-13 04:42:28.86	342.52	38.75	-39.4	-40.3	20.3	0.00e+00	0	43	0	1807745024	48	4185
2026-01-13 04:42:31.67	341.65	39.27	-39.4	-40.3	20.4	0.00e+00	0	43	0	1827667968	48	4185
2026-01-13 04:42:34.95	340.59	39.88	-39.3	-40.3	20.4	0.00e+00	0	43	0	1851785216	48	4159
2026-01-13 04:42:37.69	339.68	40.38	-39.4	-40.3	20.3	0.00e+00	0	43	0	1871708160	48	4175
2026-01-13 04:42:41.16	338.48	41.02	-39.7	-40.6	20.1	0.00e+00	0	43	0	1896873984	49	4089
2026-01-13 04:42:43.94	337.48	41.53	-39.9	-40.9	19.9	0.00e+00	0	43	0	1916796928	49	4233
2026-01-13 04:42:47.26	336.25	42.13	-39.2	-40.1	20.5	0.00e+00	0	43	0	1940914176	49	3857
2026-01-13 04:42:49.96	335.21	42.62	-38.9	-39.9	20.4	0.00e+00	0	43	0	1959788544	47	4218
2026-01-13 04:42:53.24	333.91	43.21	-38.9	-39.8	20.5	0.00e+00	0	43	0	1983905792	47	4173
2026-01-13 04:42:55.99	332.78	43.69	-39.0	-39.9	20.4	0.00e+00	0	43	0	2003828736	47	4226
2026-01-13 04:42:59.24	331.40	44.25	-39.7	-40.6	20.1	0.00e+00	0	43	0	2026897408	49	4083
2026-01-13 04:43:02.33	330.04	44.78	-40.0	-41.0	19.8	0.00e+00	0	43	0	2048917504	49	4271
2026-01-13 04:43:05.32	328.68	45.28	-39.5	-40.5	20.2	0.00e+00	0	43	0	2070937600	49	4031
2026-01-13 04:43:08.30	327.29	45.76	-39.6	-40.5	20.2	0.00e+00	0	43	0	2091909120	49	4039
2026-01-13 04:43:11.29	325.84	46.23	-39.4	-40.4	20.3	0.00e+00	0	43	0	2113929216	49	3967
2026-01-13 04:43:14.27	324.36	46.68	-39.8	-40.7	19.9	0.00e+00	0	43	0	2135949312	49	4137
2026-01-13 04:43:17.33	322.79	47.13	-40.1	-41.1	19.7	0.00e+00	0	43	0	2157969408	49	4320
2026-01-13 04:43:20.18	321.29	47.53	-39.7	-40.6	20.1	0.00e+00	0	43	0	2177892352	49	4090
2026-01-13 04:43:23.30	319.61	47.95	-40.1	-41.1	19.7	0.00e+00	0	43	0	2200961024	49	4297
2026-01-13 04:43:26.14	318.03	48.31	-40.4	-41.4	19.4	0.00e+00	0	43	0	2220883968	50	4239
2026-01-13 04:43:29.26	316.26	48.68	-40.0	-41.0	19.8	0.00e+00	0	43	0	2243952640	50	4021
2026-01-13 04:43:32.20	314.56	49.00	-40.5	-41.6	19.3	0.00e+00	0	43	0	2264924160	50	4293
2026-01-13 04:43:35.36	312.68	49.32	-40.9	-42.0	18.9	0.00e+00	0	43	0	2287992832	51	4265
2026-01-13 04:43:38.30	310.90	49.59	-40.6	-41.7	19.2	0.00e+00	0	43	0	2308964352	51	4103
2026-01-13 04:43:41.29	309.07	49.84	-40.7	-41.8	19.2	0.00e+00	0	43	0	2330984448	51	4150
2026-01-13 04:43:44.27	307.21	50.05	-40.5	-41.5	19.4	0.00e+00	0	43	0	2351955968	51	4039
2026-01-13 04:43:47.26	305.31	50.23	-41.2	-42.3	18.6	0.00e+00	0	43	0	2373976064	52	4161
2026-01-13 04:43:50.24	303.41	50.38	-40.6	-41.6	19.3	0.00e+00	0	43	0	2394947584	52	3840
2026-01-13 04:43:53.43	301.35	50.50	-40.5	-41.5	19.4	0.00e+00	0	43	0	2418016256	51	4013
2026-01-13 04:43:56.34	299.46	50.58	-40.3	-41.3	19.6	0.00e+00	0	43	0	2438987776	51	3929
2026-01-13 04:43:59.83	297.18	50.62	-40.5	-41.5	19.5	0.00e+00	0	43	0	2464153600	51	4011
2026-01-13 04:44:02.55	295.40	50.63	-40.6	-41.7	19.3	0.00e+00	0	43	0	2484076544	51	4102
2026-01-13 04:44:05.82	293.27	50.59	-40.2	-41.2	19.7	0.00e+00	0	43	0	2508193792	50	4128
2026-01-13 04:44:08.60	291.46	50.53	-40.5	-41.5	19.5	0.00e+00	0	43	0	2528116736	50	4281
2026-01-13 04:44:12.46	288.96	50.40	-40.4	-41.3	19.6	0.00e+00	0	43	0	2555379712	50	4192
2026-01-13 04:44:15.30	287.14	50.26	-40.4	-41.4	19.6	0.00e+00	0	43	0	2576351232	50	4195
2026-01-13 04:44:19.28	284.62	50.02	-40.4	-41.4	19.6	0.00e+00	0	43	0	2604662784	50	4230
2026-01-13 04:44:22.13	282.84	49.82	-40.3	-41.3	19.7	0.00e+00	0	43	0	2625634304	50	4152
2026-01-13 04:44:26.26	280.31	49.47	-40.5	-41.5	19.5	0.00e+00	0	43	0	2654994432	50	4252
2026-01-13 04:44:29.11	278.60	49.19	-40.7	-41.7	19.3	0.00e+00	0	43	0	2675965952	51	4128
2026-01-13 04:44:33.43	276.06	48.73	-40.5	-41.5	19.6	0.00e+00	0	43	0	2707423232	51	4007
2026-01-13 04:44:36.28	274.44	48.40	-39.8	-40.8	20.2	0.00e+00	0	43	0	2727346176	50	3931
2026-01-13 04:44:40.26	272.22	47.89	-40.2	-41.2	19.8	0.00e+00	0	43	0	2755657728	50	4117
2026-01-13 04:44:43.13	270.67	47.51	-40.0	-41.0	20.0	0.00e+00	0	43	0	2776629248	50	4018
2026-01-13 04:44:46.95	268.67	46.96	-39.8	-40.7	20.2	0.00e+00	0	43	0	2804940800	49	4117
2026-01-13 04:44:49.65	267.30	46.56	-40.0	-40.9	20.0	0.00e+00	0	43	0	2823815168	49	4233
2026-01-13 04:44:52.93	265.67	46.05	-39.8	-40.8	20.1	0.00e+00	0	43	0	2847932416	49	4152
2026-01-13 04:44:55.66	264.37	45.62	-39.7	-40.7	20.3	0.00e+00	0	43	0	2866806784	49	4101
2026-01-13 04:44:59.12	262.76	45.05	-39.5	-40.4	20.5	0.00e+00	0	43	0	2893021184	49	3989
2026-01-13 04:45:02.17	261.39	44.54	-39.0	-39.9	20.9	0.00e+00	0	43	0	2913992704	48	3980
2026-01-13 04:45:05.34	260.01	43.99	-39.2	-40.1	20.7	0.00e+00	0	43	0	2937061376	48	4069
2026-01-13 04:45:08.33	258.76	43.47	-39.3	-40.2	20.6	0.00e+00	0	43	0	2959081472	48	4128
2026-01-13 04:45:11.31	257.55	42.94	-39.1	-40.0	20.8	0.00e+00	0	43	0	2980052992	48	4030
2026-01-13 04:45:14.29	256.38	42.40	-39.2	-40.1	20.7	0.00e+00	0	43	0	3002073088	48	4080
2026-01-13 04:45:17.28	255.24	41.85	-39.2	-40.1	20.8	0.00e+00	0	43	0	3023044608	48	4073
2026-01-13 04:45:20.26	254.15	41.31	-39.1	-40.0	20.8	0.00e+00	0	43	0	3045064704	48	4043
2026-01-13 04:45:23.53	252.99	40.71	-39.5	-40.5	20.4	0.00e+00	0	43	0	3069181952	48	4245
2026-01-13 04:45:26.28	252.05	40.20	-39.5	-40.4	20.4	0.00e+00	0	43	0	3088056320	48	4234
2026-01-13 04:45:29.56	250.96	39.59	-39.3	-40.2	20.6	0.00e+00	0	43	0	3112173568	48	4127
2026-01-13 04:45:32.28	250.09	39.08	-39.3	-40.2	20.6	0.00e+00	0	43	0	3132096512	48	4138
2026-01-13 04:45:35.65	249.05	38.46	-39.5	-40.5	20.4	0.00e+00	0	43	0	3156213760	48	4260
2026-01-13 04:45:38.43	248.23	37.94	-39.3	-40.3	20.6	0.00e+00	0	43	0	3176136704	48	4148
2026-01-13 04:45:41.84	247.25	37.31	-39.0	-39.9	20.5	0.00e+00	0	43	0	3201302528	48	3977
2026-01-13 04:45:44.56	246.49	36.81	-38.8	-39.7	21.0	0.00e+00	0	43	0	3220176896	48	3885
2026-01-13 04:45:47.83	245.61	36.21	-38.6	-39.5	20.9	0.00e+00	0	43	0	3244294144	47	4038
2026-01-13 04:45:50.57	244.90	35.71	-39.0	-39.9	20.5	0.00e+00	0	43	0	3264217088	47	4241
2026-01-13 04:45:53.90	244.07	35.11	-39.0	-39.9	20.5	0.00e+00	0	43	0	3287285760	47	4223
2026-01-13 04:45:56.62	243.41	34.62	-38.7	-39.6	20.8	0.00e+00	0	43	0	3307208704	47	4080
2026-01-13 04:45:59.90	242.64	34.03	-38.9	-39.8	20.6	0.00e+00	0	43	0	3331325952	47	4171
2026-01-13 04:46:02.60	242.03	33.55	-39.0	-39.9	20.5	0.00e+00	0	43	0	3350200320	47	4224
2026-01-13 04:46:05.87	241.31	32.98	-38.6	-39.6	20.8	0.00e+00	0	43	0	3374317568	47	4053
2026-01-13 04:46:08.85	240.68	32.46	-38.9	-39.8	20.6	0.00e+00	0	43	0	3395289088	47	4171
2026-01-13 04:46:12.46	239.94	31.84	-39.1	-40.1	20.4	0.00e+00	0	43	0	3421503488	47	4293
2026-01-13 04:46:15.29	239.38	31.36	-39.0	-40.0	20.5	0.00e+00	0	43	0	3442475008	47	4246
2026-01-13 04:46:18.42	238.78	30.83	-38.9	-39.9	20.6	0.00e+00	0	43	0	3464495104	47	4202
2026-01-13 04:46:21.26	238.25	30.36	-39.1	-40.0	20.5	0.00e+00	0	43	0	3485466624	47	4264
2026-01-13 04:46:24.39	237.69	29.84	-39.5	-40.5	20.3	0.00e+00	0	43	0	3507486720	48	4254
2026-01-13 04:46:27.23	237.19	29.38	-39.4	-40.4	20.4	0.00e+00	0	43	0	3528458240	48	4204
2026-01-13 04:46:30.58	236.62	28.84	-39.2	-40.1	20.6	0.00e+00	0	43	0	3552575488	48	4076
2026-01-13 04:46:33.30	236.18	28.41	-38.9	-39.8	20.8	0.00e+00	0	43	0	3572498432	48	3956
2026-01-13 04:46:36.57	235.65	27.90	-39.4	-40.3	20.4	0.00e+00	0	43	0	3595567104	48	4189
2026-01-13 04:46:39.27	235.24	27.48	-39.4	-40.4	20.4	0.00e+00	0	43	0	3615490048	48	4194
2026-01-13 04:46:42.56	234.74	26.97	-39.2	-40.1	20.6	0.00e+00	0	43	0	3638558720	48	4094
2026-01-13 04:46:45.29	234.34	26.56	-39.2	-40.2	20.6	0.00e+00	0	43	0	3658481664	48	4107
2026-01-13 04:46:48.72	233.86	26.05	-39.2	-40.2	20.6	0.00e+00	0	43	0	3683647488	48	4110
2026-01-13 04:46:51.42	233.49	25.65	-39.3	-40.2	20.5	0.00e+00	0	43	0	3703570432	48	4145
2026-01-13 04:46:54.72	233.04	25.17	-39.5	-40.4	20.4	0.00e+00	0	43	0	3726639104	48	4223
2026-01-13 04:46:57.50	232.68	24.77	-39.6	-40.6	20.2	0.00e+00	0	43	0	3746562048	48	4328
2026-01-13 04:47:00.77	232.27	24.31	-39.6	-40.6	20.2	0.00e+00	0	43	0	3770679296	48	4296
2026-01-13 04:47:03.69	231.91	23.90	-39.5	-40.5	20.3	0.00e+00	0	43	0	3791650816	48	4272
2026-01-13 04:47:06.98	231.51	23.45	-39.6	-40.5	20.2	0.00e+00	0	43	0	3815768064	48	4291
2026-01-13 04:47:09.71	231.20	23.08	-39.5	-40.4	20.3	0.00e+00	0	43	0	3834642432	48	4223
2026-01-13 04:47:13.02	230.82	22.63	-39.5	-40.4	20.3	0.00e+00	0	43	0	3858759680	48	4224
2026-01-13 04:47:15.74	230.52	22.27	-39.7	-40.6	20.1	0.00e+00	0	43	0	3878682624	48	4329
2026-01-13 04:47:19.01	230.17	21.84	-39.8	-40.7	20.0	0.00e+00	0	43	0	3901751296	49	4128
2026-01-13 04:47:21.97	229.86	21.46	-39.9	-40.8	20.0	0.00e+00	0	43	0	3923771392	49	4179
2026-01-13 04:47:25.25	229.52	21.04	-40.0	-41.0	19.7	0.00e+00	0	43	0	3946840064	49	4269
2026-01-13 04:47:27.97	229.25	20.70	-40.3	-41.2	19.5	0.00e+00	0	43	0	3966763008	49	4387
2026-01-13 04:47:31.22	228.94	20.29	-40.5	-41.6	19.3	0.00e+00	0	43	0	3990880256	50	4300
2026-01-13 04:47:33.93	228.68	19.96	-40.6	-41.7	19.2	0.00e+00	0	43	0	4009754624	50	4341
2026-01-13 04:47:37.13	228.38	19.57	-40.7	-41.8	19.1	0.00e+00	0	43	0	4032823296	50	4397
2026-01-13 04:47:40.45	228.09	19.18	-40.4	-41.4	19.5	0.00e+00	0	43	0	4056940544	50	4207
2026-01-13 04:47:43.17	227.85	18.86	-40.4	-41.4	19.5	0.00e+00	0	43	0	4076863488	50	4200
2026-01-13 04:47:46.45	227.57	18.47	-40.5	-41.5	19.3	0.00e+00	0	43	0	4099932160	50	4274
2026-01-13 04:47:49.15	227.34	18.16	-40.7	-41.8	19.1	0.00e+00	0	43	0	4119855104	50	4406
2026-01-13 04:47:52.65	227.05	17.76	-40.9	-42.0	18.9	0.00e+00	0	43	0	4145020928	51	4260
2026-01-13 04:47:55.37	226.83	17.46	-41.0	-42.1	18.8	0.00e+00	0	43	0	4164943872	51	4308
2026-01-13 04:47:58.73	226.57	17.09	-41.0	-42.1	18.7	0.00e+00	0	43	0	4189061120	51	4302
2026-01-13 04:48:01.43	226.37	16.79	-41.1	-42.2	18.7	0.00e+00	0	43	0	4208984064	51	4362
2026-01-13 04:48:04.70	226.12	16.44	-41.2	-42.3	18.5	0.00e+00	0	43	0	4232052736	52	4178
2026-01-13 04:48:07.43	225.92	16.14	-41.3	-42.3	18.5	0.00e+00	0	43	0	4251975680	52	4187
2026-01-13 04:48:11.02	225.67	15.76	-41.2	-42.3	18.5	0.00e+00	0	43	0	4278190080	52	4179
2026-01-13 04:48:13.74	225.48	15.48	-41.3	-42.3	18.5	0.00e+00	0	43	0	4297064448	52	4189
2026-01-13 04:48:17.01	225.25	15.14	-41.3	-42.3	18.4	0.00e+00	0	43	0	4321181696	52	4191
2026-01-13 04:48:19.71	225.07	14.87	-41.3	-42.4	18.3	0.00e+00	0	43	0	4341104640	52	4232
2026-01-13 04:48:23.04	224.85	14.53	-41.3	-42.4	18.3	0.00e+00	0	43	0	4364173312	52	4227
2026-01-13 04:48:25.82	224.68	14.25	-41.4	-42.5	18.2	0.00e+00	0	43	0	4384096256	52	4262
2026-01-13 04:48:29.21	224.46	13.92	-41.5	-42.6	18.1	0.00e+00	0	43	0	4409262080	52	4306
2026-01-13 04:48:31.98	224.29	13.65	-41.7	-42.8	17.9	0.00e+00	0	43	0	4429185024	52	4417
2026-01-13 04:48:35.28	224.10	13.33	-41.8	-43.0	17.8	0.00e+00	0	43	0	4453302272	53	4250
2026-01-13 04:48:38.02	223.93	13.07	-41.9	-43.0	17.7	0.00e+00	0	43	0	4472176640	53	4286
2026-01-13 04:48:41.29	223.75	12.76	-42.1	-43.2	17.5	0.00e+00	0	43	0	4496293888	53	4391
2026-01-13 04:48:44.00	223.59	12.51	-42.2	-43.4	17.3	0.00e+00	0	44	0	4515168256	53	4448
2026-01-13 04:48:47.31	223.41	12.20	-42.3	-43.6	17.1	0.00e+00	0	43	0	4539285504	54	4296
2026-01-13 04:48:50.04	223.26	11.95	-42.4	-43.7	17.0	0.00e+00	0	43	0	4559208448	54	4355
2026-01-13 04:48:53.26	223.09	11.66	-42.5	-43.7	16.9	0.00e+00	0	43	0	4582277120	54	4373
2026-01-13 04:48:56.24	222.93	11.40	-42.5	-43.8	16.9	0.00e+00	0	43	0	4604297216	54	4403
2026-01-13 04:48:59.26	222.78	11.13	-42.7	-44.0	16.7	0.00e+00	0	43	0	4625268736	54	4508
2026-01-13 04:49:02.33	222.62	10.86	-42.7	-44.0	16.6	0.00e+00	0	43	0	4648337408	54	4521
2026-01-13 04:49:05.18	222.48	10.61	-42.7	-44.0	16.6	0.00e+00	0	43	0	4668260352	54	4536
2026-01-13 04:49:08.57	222.32	10.32	-43.0	-44.3	16.3	0.00e+00	0	43	0	4693426176	55	4424
2026-01-13 04:49:11.31	222.19	10.09	-42.9	-44.3	16.3	0.00e+00	0	43	0	4713349120	55	4398
2026-01-13 04:49:14.61	222.03	9.81	-42.7	-44.2	16.4	0.00e+00	0	43	0	4736417792	55	4341
2026-01-13 04:49:17.63	221.89	9.56	-43.0	-44.5	16.0	0.00e+00	0	43	0	4758437888	55	4500
2026-01-13 04:49:20.98	221.74	9.28	-43.0	-44.5	15.9	0.00e+00	0	43	0	4782555136	55	4511
2026-01-13 04:49:24.12	221.61	9.02	-43.2	-44.8	15.6	0.00e+00	0	43	0	4805623808	55	4676
2026-01-13 04:49:27.10	221.48	8.78	-51.6	-62.4	3.8	8.47e-01	0	43	104	4810866688	72	13330
2026-01-13 04:49:30.08	221.35	8.54	-51.8	-62.7	3.8	8.47e-01	0	43	104	4810866688	73	12961
2026-01-13 04:49:33.06	221.22	8.30	-52.0	-62.7	3.8	8.48e-01	0	43	104	4810866688	73	13002
2026-01-13 04:49:36.04	221.10	8.07	-51.9	-62.8	3.8	8.46e-01	0	43	104	4810866688	73	13134
2026-01-13 04:49:39.02	220.98	7.84	-51.9	-62.8	3.8	8.48e-01	0	43	104	4810866688	73	13140
2026-01-13 04:49:42.00	220.86	7.61	-51.9	-62.7	3.8	8.46e-01	0	43	104	4810866688	73	13059
2026-01-13 04:49:44.98	220.75	7.38	-51.8	-62.7	3.8	8.47e-01	0	43	104	4810866688	73	12970
2026-01-13 04:49:47.95	220.63	7.15	-51.7	-62.6	3.8	8.47e-01	0	43	104	4810866688	73	12947
2026-01-13 04:49:50.93	220.52	6.92	-51.7	-62.6	3.8	8.47e-01	0	43	104	4810866688	73	12905
2026-01-13 04:49:53.91	220.41	6.70	-51.7	-62.6	3.8	8.47e-01	0	43	104	4810866688	73	12947
2026-01-13 04:49:56.89	220.30	6.48	-51.7	-62.6	3.8	8.45e-01	0	43	104	4810866688	73	12844
2026-01-13 04:49:59.87	220.19	6.26	-51.7	-62.6	3.8	8.46e-01	0	43	104	4810866688	73	12935
2026-01-13 04:50:02.85	220.09	6.04	-51.7	-62.6	3.8	8.47e-01	0	43	104	4810866688	73	12877
2026-01-13 04:50:05.83	219.98	5.83	-51.7	-62.6	3.8	8.47e-01	0	43	104	4810866688	73	12883
2026-01-13 04:50:08.81	219.88	5.61	-51.7	-62.6	3.8	8.47e-01	0	43	104	4810866688	73	12843
2026-01-13 04:50:11.79	219.78	5.40	-51.7	-62.6	3.8	8.46e-01	0	43	104	4810866688	73	12896
2026-01-13 04:50:14.77	219.68	5.19	-51.7	-62.6	3.8	8.47e-01	0	43	104	4810866688	73	12923
2026-01-13 04:50:17.75	219.58	4.98	-51.7	-62.6	3.8	8.47e-01	0	43	104	4810866688	73	12883

#Closed at: 2026-01-13 04:50:18
#Recorded file [4810 MB]: D:/Data/31040_260113_073742.dat