passes_logs/2026/01/13/T1/T1__20260113_231345_FENGYUN_3G_rec.log

#Pass ID: 20260113_231345_FENGYUN 3G
#Satellite: FENGYUN 3G
#Configuration: FENGYUN 3G
#almurnet v.1.7.20251203
#Start time: 2026-01-13 23:13:46

#Version: 2.0.20230620
#Station: T1
#Location: 37.570604 lon 55.790049 lat
#TLE: 1 56232U 23055A   26013.24803668  .00022566  00000+0  35531-3 0  9992
#TLE: 2 56232  49.9941  64.9712 0004217  19.4523 340.6605 15.53433909155921

#Time	Az	El	Level	Level2	SNR	BER	BlckErr	Temp	State	Recorded	gain1	gain2
2026-01-13 23:13:46.22	238.20	5.00	-50.5	-69.5	3.8	8.47e-01	0	39	0	0	73	30699
2026-01-13 23:13:48.20	238.03	5.15	-50.5	-69.5	3.8	8.48e-01	0	39	104	0	73	30643
2026-01-13 23:13:50.19	237.85	5.30	-50.5	-69.5	3.8	8.47e-01	0	39	104	0	73	30602
2026-01-13 23:13:52.18	237.66	5.45	-50.5	-69.5	3.8	8.46e-01	0	39	104	0	73	30599
2026-01-13 23:13:54.17	237.48	5.60	-50.5	-69.5	3.8	8.47e-01	0	40	104	0	73	30615
2026-01-13 23:13:56.15	237.29	5.75	-50.5	-69.6	3.8	8.47e-01	0	39	104	0	73	30803
2026-01-13 23:13:58.14	237.10	5.91	-50.5	-69.5	3.8	8.47e-01	0	39	104	0	73	30409
2026-01-13 23:14:00.12	236.91	6.07	-50.5	-69.4	3.8	8.48e-01	0	40	104	0	73	30132
2026-01-13 23:14:02.11	236.71	6.22	-50.5	-69.3	3.8	8.47e-01	0	39	104	0	73	29744
2026-01-13 23:14:04.10	236.51	6.38	-50.5	-69.3	3.8	8.48e-01	0	40	104	0	73	29884
2026-01-13 23:14:06.08	236.31	6.54	-50.5	-69.5	3.8	8.47e-01	0	40	104	0	73	30392
2026-01-13 23:14:08.07	236.10	6.70	-50.5	-69.4	3.8	8.47e-01	0	40	104	0	73	30341
2026-01-13 23:14:10.05	235.90	6.86	-50.5	-69.5	3.8	8.48e-01	0	40	104	0	73	30464
2026-01-13 23:14:12.04	235.68	7.03	-50.5	-69.5	3.8	8.47e-01	0	40	104	0	73	30424
2026-01-13 23:14:14.02	235.47	7.19	-50.5	-69.4	3.8	8.48e-01	0	40	104	0	73	30043
2026-01-13 23:14:16.01	235.25	7.36	-50.5	-69.3	3.8	8.46e-01	0	40	104	0	73	29963
2026-01-13 23:14:18.00	235.02	7.53	-50.5	-69.0	3.8	8.46e-01	0	40	104	0	73	28764
2026-01-13 23:14:19.98	234.80	7.70	-50.5	-68.2	3.8	8.47e-01	0	40	104	0	72	27783
2026-01-13 23:14:21.97	234.57	7.87	-50.5	-68.5	3.8	8.47e-01	0	40	104	0	72	28803
2026-01-13 23:14:23.96	234.33	8.04	-50.5	-69.4	3.8	8.46e-01	0	40	104	0	72	31916
2026-01-13 23:14:25.94	234.10	8.21	-50.5	-69.3	3.8	8.47e-01	0	40	104	0	72	31741
2026-01-13 23:14:27.93	233.85	8.39	-50.5	-69.2	3.8	8.47e-01	0	40	104	0	72	31262
2026-01-13 23:14:29.92	233.61	8.56	-50.4	-66.9	3.9	8.46e-01	0	40	104	0	72	24001
2026-01-13 23:14:31.90	233.36	8.74	-49.8	-58.9	9.3	5.97e-01	0	41	0	0	71	10102
2026-01-13 23:14:33.89	233.10	8.92	-48.2	-53.5	14.8	2.78e-02	0	41	0	0	68	6490
2026-01-13 23:14:35.88	232.84	9.10	-47.2	-51.6	16.7	0.00e+00	0	41	0	0	66	5813
2026-01-13 23:14:37.95	232.57	9.29	-46.4	-50.2	17.9	2.10e-04	0	41	0	0	64	5555
2026-01-13 23:14:39.97	232.30	9.48	-48.2	-53.9	14.7	2.74e-05	0	41	0	0	67	7145
2026-01-13 23:14:42.04	232.01	9.67	-44.5	-47.4	20.7	0.00e+00	0	41	0	0	61	4790
2026-01-13 23:14:44.03	231.73	9.86	-44.1	-46.9	21.3	0.00e+00	0	41	0	0	60	4764
2026-01-13 23:14:46.16	231.43	10.06	-43.8	-46.5	21.7	0.00e+00	0	41	0	0	59	4839
2026-01-13 23:14:48.15	231.14	10.25	-44.0	-46.7	21.5	0.00e+00	0	41	0	0	59	4972
2026-01-13 23:14:50.14	230.85	10.44	-43.8	-46.5	21.7	0.00e+00	0	41	0	0	59	4828
2026-01-13 23:14:52.13	230.55	10.64	-43.8	-46.4	21.8	0.00e+00	0	41	0	0	59	4794
2026-01-13 23:14:54.12	230.24	10.83	-43.7	-46.3	21.9	0.00e+00	0	41	0	0	59	4752
2026-01-13 23:14:56.10	229.93	11.03	-43.8	-46.4	21.9	0.00e+00	0	41	0	0	59	4786
2026-01-13 23:14:58.15	229.61	11.24	-43.8	-46.4	21.9	0.00e+00	0	41	0	0	59	4777
2026-01-13 23:15:00.18	229.28	11.44	-43.6	-46.2	22.1	0.00e+00	0	41	0	0	59	4659
2026-01-13 23:15:02.24	228.94	11.65	-43.4	-45.9	22.4	0.00e+00	0	41	0	0	58	4765
2026-01-13 23:15:04.26	228.60	11.86	-43.4	-46.0	22.3	0.00e+00	0	41	0	0	58	4823
2026-01-13 23:15:06.25	228.26	12.07	-43.3	-45.8	22.4	0.00e+00	0	41	0	0	58	4752
2026-01-13 23:15:08.24	227.91	12.27	-43.5	-46.0	22.3	0.00e+00	0	41	0	0	58	4861
2026-01-13 23:15:10.24	227.56	12.49	-43.6	-46.2	22.1	0.00e+00	0	41	0	0	58	4947
2026-01-13 23:15:12.23	227.20	12.70	-43.5	-46.0	22.3	0.00e+00	0	41	0	0	58	4837
2026-01-13 23:15:14.22	226.83	12.91	-43.1	-45.5	22.7	0.00e+00	0	41	0	0	58	4598
2026-01-13 23:15:16.29	226.44	13.14	-42.8	-45.2	23.1	0.00e+00	0	41	0	0	57	4659
2026-01-13 23:15:18.28	226.06	13.35	-42.6	-45.0	23.3	0.00e+00	0	41	0	0	57	4549
2026-01-13 23:15:20.40	225.64	13.59	-42.8	-45.1	23.2	0.00e+00	0	41	0	0	57	4646
2026-01-13 23:15:22.47	225.23	13.82	-43.1	-45.5	22.9	0.00e+00	0	41	0	0	57	4827
2026-01-13 23:15:24.48	224.82	14.04	-42.8	-45.1	23.2	0.00e+00	0	41	0	0	57	4639
2026-01-13 23:15:26.47	224.41	14.27	-42.9	-45.2	23.2	0.00e+00	0	41	0	0	57	4683
2026-01-13 23:15:28.46	223.98	14.50	-42.8	-45.1	23.3	0.00e+00	0	41	0	0	57	4619
2026-01-13 23:15:30.47	223.55	14.73	-42.4	-44.7	23.6	0.00e+00	0	41	0	0	56	4665
2026-01-13 23:15:32.46	223.11	14.96	-42.6	-44.9	23.4	0.00e+00	0	41	0	0	56	4805
2026-01-13 23:15:34.48	222.65	15.19	-42.7	-45.1	23.3	0.00e+00	0	41	0	0	56	4879
2026-01-13 23:15:36.48	222.19	15.43	-42.5	-44.8	23.6	0.00e+00	0	41	0	0	56	4724
2026-01-13 23:15:38.48	221.73	15.67	-42.6	-44.9	23.5	0.00e+00	0	41	0	0	56	4792
2026-01-13 23:15:40.54	221.23	15.91	-42.3	-44.5	23.8	0.00e+00	0	41	0	0	56	4586
2026-01-13 23:15:42.53	220.75	16.15	-42.2	-44.4	23.9	0.00e+00	0	41	0	0	56	4516
2026-01-13 23:15:44.63	220.22	16.41	-42.3	-44.5	23.8	0.00e+00	0	41	0	0	56	4571
2026-01-13 23:15:46.68	219.70	16.66	-42.1	-44.3	24.0	0.00e+00	0	41	0	0	56	4458
2026-01-13 23:15:48.96	219.11	16.94	-41.8	-44.0	24.1	0.00e+00	0	41	0	0	55	4555
2026-01-13 23:15:50.98	218.57	17.19	-41.6	-43.8	24.3	0.00e+00	0	41	0	0	55	4479
2026-01-13 23:15:52.97	218.03	17.43	-41.7	-43.9	24.3	0.00e+00	0	41	0	0	55	4494
2026-01-13 23:15:54.97	217.47	17.68	-41.3	-43.5	24.6	0.00e+00	0	41	0	0	54	4547
2026-01-13 23:15:56.98	216.90	17.94	-41.7	-43.9	24.3	0.00e+00	0	41	0	0	54	4779
2026-01-13 23:15:59.05	216.31	18.20	-42.0	-44.2	24.1	0.00e+00	0	41	0	0	54	4934
2026-01-13 23:16:01.11	215.70	18.46	-42.0	-44.2	24.0	0.00e+00	0	41	0	0	54	4954
2026-01-13 23:16:03.10	215.10	18.71	-41.9	-44.1	24.1	0.00e+00	0	41	0	0	54	4906
2026-01-13 23:16:05.36	214.40	19.00	-41.4	-43.5	24.6	0.00e+00	0	41	0	0	54	4596
2026-01-13 23:16:07.33	213.78	19.25	-41.2	-43.3	24.8	0.00e+00	0	41	0	0	54	4448
2026-01-13 23:16:09.32	213.14	19.51	-41.2	-43.3	24.8	0.00e+00	0	41	0	0	54	4456
2026-01-13 23:16:11.31	212.49	19.76	-41.7	-43.9	24.4	0.00e+00	0	41	0	0	54	4765
2026-01-13 23:16:13.30	211.82	20.02	-41.7	-43.8	24.3	0.00e+00	0	41	0	0	54	4741
2026-01-13 23:16:15.29	211.14	20.28	-41.5	-43.6	24.6	0.00e+00	0	41	0	0	54	4630
2026-01-13 23:16:17.32	210.43	20.54	-41.0	-43.1	25.0	0.00e+00	0	41	0	0	54	4375
2026-01-13 23:16:19.38	209.70	20.80	-40.8	-42.9	25.1	0.00e+00	0	41	0	0	53	4501
2026-01-13 23:16:21.37	208.98	21.06	-40.9	-42.9	25.1	0.00e+00	0	41	0	0	53	4520
2026-01-13 23:16:23.36	208.24	21.31	-41.3	-43.4	24.7	0.00e+00	0	41	0	0	53	4801
2026-01-13 23:16:25.35	207.49	21.56	-41.5	-43.6	24.6	0.00e+00	0	41	0	0	53	4891
2026-01-13 23:16:27.34	206.72	21.82	-41.0	-43.0	25.1	0.00e+00	0	41	0	0	53	4587
2026-01-13 23:16:29.33	205.94	22.07	-40.5	-42.5	25.4	0.00e+00	0	41	0	0	53	4330
2026-01-13 23:16:31.32	205.15	22.32	-40.6	-42.6	25.2	0.00e+00	0	41	0	0	53	4385
2026-01-13 23:16:33.31	204.34	22.56	-40.9	-43.0	25.1	0.00e+00	0	41	0	0	53	4574
2026-01-13 23:16:35.30	203.51	22.81	-40.8	-42.8	25.2	0.00e+00	0	42	0	0	53	4493
2026-01-13 23:16:37.29	202.67	23.05	-40.9	-43.0	25.1	0.00e+00	0	41	0	0	53	4571
2026-01-13 23:16:39.36	201.77	23.30	-41.0	-43.1	25.0	0.00e+00	0	42	0	0	53	4605
2026-01-13 23:16:41.35	200.90	23.54	-40.4	-42.4	25.5	0.00e+00	0	42	0	0	52	4528
2026-01-13 23:16:43.34	200.01	23.77	-40.2	-42.2	25.6	0.00e+00	0	41	0	0	52	4407
2026-01-13 23:16:45.33	199.11	24.00	-40.2	-42.2	25.6	0.00e+00	0	41	0	0	52	4414
2026-01-13 23:16:47.32	198.19	24.23	-40.0	-41.8	25.7	0.00e+00	0	42	0	0	51	4446
2026-01-13 23:16:49.31	197.25	24.45	-40.2	-42.2	25.6	0.00e+00	0	41	0	0	51	4681
2026-01-13 23:16:51.30	196.30	24.66	-40.3	-42.3	25.5	0.00e+00	0	42	0	0	51	4746
2026-01-13 23:16:53.28	195.34	24.87	-40.4	-42.4	25.5	0.00e+00	0	41	0	0	51	4771
2026-01-13 23:16:55.37	194.31	25.08	-40.2	-42.2	25.6	0.00e+00	0	41	0	0	51	4672
2026-01-13 23:16:57.36	193.31	25.28	-40.3	-42.3	25.6	0.00e+00	0	41	0	0	51	4723
2026-01-13 23:16:59.35	192.30	25.47	-40.4	-42.4	25.5	0.00e+00	0	41	0	0	51	4777
2026-01-13 23:17:01.35	191.28	25.66	-40.4	-42.4	25.4	0.00e+00	0	42	0	0	51	4809
2026-01-13 23:17:03.34	190.24	25.83	-40.1	-42.1	25.7	0.00e+00	0	41	0	0	51	4643
2026-01-13 23:17:05.33	189.19	26.00	-40.2	-42.2	25.6	0.00e+00	0	41	0	0	51	4675
2026-01-13 23:17:07.32	188.13	26.16	-40.2	-42.1	25.7	0.00e+00	0	41	0	0	51	4651
2026-01-13 23:17:09.31	187.05	26.32	-40.0	-42.0	25.7	0.00e+00	0	41	0	0	51	4574
2026-01-13 23:17:11.33	185.95	26.46	-39.9	-41.8	25.8	0.00e+00	0	42	0	0	51	4487
2026-01-13 23:17:13.32	184.85	26.60	-40.0	-42.0	25.6	0.00e+00	0	42	0	0	51	4589
2026-01-13 23:17:15.31	183.74	26.72	-39.7	-41.7	25.9	0.00e+00	0	41	0	0	51	4433
2026-01-13 23:17:17.30	182.63	26.84	-39.5	-41.4	26.1	0.00e+00	0	41	0	0	50	4522
2026-01-13 23:17:19.29	181.50	26.94	-39.7	-41.7	25.9	0.00e+00	0	41	0	0	50	4687
2026-01-13 23:17:21.28	180.37	27.04	-39.5	-41.5	26.0	0.00e+00	0	41	0	0	50	4559
2026-01-13 23:17:23.27	179.22	27.12	-39.4	-41.3	26.1	0.00e+00	0	41	0	0	50	4488
2026-01-13 23:17:25.26	178.08	27.19	-39.5	-41.4	26.0	0.00e+00	0	41	0	0	50	4539
2026-01-13 23:17:27.25	176.92	27.25	-39.4	-41.3	26.1	0.00e+00	0	41	0	0	50	4465
2026-01-13 23:17:29.24	175.77	27.30	-39.5	-41.4	26.0	0.00e+00	0	41	0	0	50	4520
2026-01-13 23:17:31.21	174.62	27.34	-39.8	-41.8	25.7	0.00e+00	0	42	0	0	50	4747
2026-01-13 23:17:33.20	173.45	27.37	-39.7	-41.7	25.7	0.00e+00	0	41	0	0	50	4676
2026-01-13 23:17:35.24	172.26	27.39	-39.7	-41.7	25.8	0.00e+00	0	41	0	0	50	4663
2026-01-13 23:17:37.23	171.09	27.39	-39.6	-41.6	25.8	0.00e+00	0	42	0	0	50	4638
2026-01-13 23:17:39.48	169.77	27.38	-39.6	-41.5	25.8	0.00e+00	0	42	0	0	50	4583
2026-01-13 23:17:41.48	168.60	27.36	-39.3	-41.3	26.0	0.00e+00	0	42	0	0	50	4453
2026-01-13 23:17:43.47	167.44	27.33	-39.3	-41.3	26.0	0.00e+00	0	41	0	0	50	4443
2026-01-13 23:17:45.46	166.28	27.28	-39.1	-41.0	26.2	0.00e+00	0	42	0	0	50	4336
2026-01-13 23:17:47.47	165.12	27.22	-39.0	-41.0	26.2	0.00e+00	0	42	0	0	49	4547
2026-01-13 23:17:49.46	163.97	27.16	-39.6	-41.6	25.8	0.00e+00	0	41	0	0	50	4639
2026-01-13 23:17:51.45	162.82	27.08	-39.5	-41.5	25.9	0.00e+00	0	42	0	0	50	4547
2026-01-13 23:17:53.47	161.67	26.99	-38.9	-40.8	26.3	0.00e+00	0	42	0	0	49	4468
2026-01-13 23:17:55.46	160.54	26.89	-39.6	-41.6	25.8	0.00e+00	0	41	0	0	49	4895
2026-01-13 23:17:57.45	159.42	26.78	-39.8	-41.8	25.7	0.00e+00	0	42	0	0	50	4751
2026-01-13 23:17:59.44	158.31	26.66	-39.7	-41.7	25.7	0.00e+00	0	42	0	0	50	4676
2026-01-13 23:18:01.43	157.21	26.53	-39.3	-41.3	26.0	0.00e+00	0	42	0	0	50	4442
2026-01-13 23:18:03.44	156.11	26.39	-39.5	-41.5	25.6	0.00e+00	0	42	0	0	50	4563
2026-01-13 23:18:05.44	155.02	26.24	-39.7	-41.7	25.7	0.00e+00	0	42	0	0	50	4691
2026-01-13 23:18:07.43	153.95	26.09	-40.0	-42.0	25.5	0.00e+00	0	42	0	0	50	4861
2026-01-13 23:18:09.42	152.90	25.92	-40.0	-42.1	25.5	0.00e+00	0	42	0	0	50	4880
2026-01-13 23:18:11.43	151.85	25.75	-39.9	-41.9	25.5	0.00e+00	0	42	0	0	50	4796
2026-01-13 23:18:13.42	150.82	25.57	-39.4	-41.3	25.9	0.00e+00	0	42	0	0	50	4491
2026-01-13 23:18:15.42	149.80	25.38	-39.2	-41.3	26.0	0.00e+00	0	41	0	0	50	4445
2026-01-13 23:18:17.41	148.80	25.18	-39.7	-41.7	25.7	0.00e+00	0	42	0	0	50	4703
2026-01-13 23:18:19.42	147.80	24.98	-40.1	-42.1	25.4	0.00e+00	0	41	0	0	50	4916
2026-01-13 23:18:21.41	146.83	24.77	-40.1	-42.1	25.4	0.00e+00	0	42	0	0	50	4898
2026-01-13 23:18:23.41	145.87	24.56	-39.7	-41.7	25.7	0.00e+00	0	42	0	0	50	4685
2026-01-13 23:18:25.41	144.92	24.34	-40.1	-42.2	25.4	0.00e+00	0	42	0	0	50	4931
2026-01-13 23:18:27.40	143.99	24.12	-40.1	-42.2	25.3	0.00e+00	0	41	0	0	51	4664
2026-01-13 23:18:29.44	143.06	23.89	-39.6	-41.6	25.7	0.00e+00	0	42	0	0	51	4383
2026-01-13 23:18:31.43	142.17	23.66	-39.5	-41.5	25.8	0.00e+00	0	42	0	0	51	4324
2026-01-13 23:18:33.42	141.29	23.42	-40.1	-42.2	25.3	0.00e+00	0	42	0	0	51	4654
2026-01-13 23:18:35.43	140.41	23.18	-40.2	-42.3	25.3	0.00e+00	0	42	0	0	51	4723
2026-01-13 23:18:37.46	139.55	22.94	-40.1	-42.1	25.3	0.00e+00	0	42	0	0	51	4630
2026-01-13 23:18:39.50	138.70	22.69	-40.0	-42.1	25.4	0.00e+00	0	42	0	0	51	4612
2026-01-13 23:18:41.57	137.85	22.43	-39.8	-41.8	25.5	0.00e+00	0	41	0	0	51	4482
2026-01-13 23:18:43.76	136.97	22.16	-40.2	-42.3	25.2	0.00e+00	0	42	0	0	51	4706
2026-01-13 23:18:45.91	136.12	21.89	-40.6	-42.6	25.0	0.00e+00	0	42	0	0	51	4925
2026-01-13 23:18:48.26	135.21	21.59	-40.4	-42.4	25.1	0.00e+00	0	42	0	0	51	4812
2026-01-13 23:18:50.26	134.46	21.34	-40.3	-42.4	25.1	0.00e+00	0	42	0	0	51	4778
2026-01-13 23:18:52.25	133.72	21.08	-40.6	-42.7	24.9	0.00e+00	0	41	0	0	51	4971
2026-01-13 23:18:54.30	132.98	20.82	-40.7	-42.8	24.8	0.00e+00	0	42	0	0	52	4738
2026-01-13 23:18:56.29	132.27	20.57	-40.9	-43.0	24.6	0.00e+00	0	42	0	0	52	4837
2026-01-13 23:18:58.41	131.53	20.30	-41.0	-43.1	24.5	0.00e+00	0	42	0	0	52	4909
2026-01-13 23:19:00.60	130.79	20.01	-40.6	-42.7	24.8	0.00e+00	0	42	0	0	52	4661
2026-01-13 23:19:02.66	130.10	19.75	-40.5	-42.6	24.9	0.00e+00	0	42	0	0	52	4648
2026-01-13 23:19:04.71	129.43	19.49	-41.2	-43.3	24.3	0.00e+00	0	42	0	0	52	5038
2026-01-13 23:19:06.70	128.80	19.23	-41.0	-43.1	24.5	0.00e+00	0	42	0	0	53	4650
2026-01-13 23:19:08.85	128.12	18.96	-40.7	-42.8	24.7	0.00e+00	0	42	0	0	53	4491
2026-01-13 23:19:10.84	127.51	18.71	-41.0	-43.1	24.5	0.00e+00	0	42	0	0	53	4633
2026-01-13 23:19:12.84	126.91	18.45	-40.8	-42.9	24.5	0.00e+00	0	42	0	0	53	4540
2026-01-13 23:19:14.84	126.32	18.20	-40.8	-42.9	24.6	0.00e+00	0	42	0	0	53	4522
2026-01-13 23:19:16.83	125.75	17.95	-41.0	-43.2	24.4	0.00e+00	0	42	0	0	53	4683
2026-01-13 23:19:18.84	125.18	17.70	-41.3	-43.5	24.2	0.00e+00	0	42	0	0	53	4836
2026-01-13 23:19:20.83	124.63	17.45	-41.2	-43.4	24.2	0.00e+00	0	42	0	0	53	4798
2026-01-13 23:19:23.10	124.02	17.17	-41.2	-43.3	24.3	0.00e+00	0	42	0	0	53	4743
2026-01-13 23:19:25.09	123.49	16.92	-41.4	-43.5	24.1	0.00e+00	0	42	0	0	53	4868
2026-01-13 23:19:27.08	122.98	16.68	-41.5	-43.8	23.9	0.00e+00	0	42	0	0	53	5000
2026-01-13 23:19:29.07	122.47	16.44	-41.9	-44.2	23.6	0.00e+00	0	42	0	0	54	4949
2026-01-13 23:19:31.03	121.98	16.20	-41.9	-44.2	23.6	0.00e+00	0	42	0	0	54	4941
2026-01-13 23:19:33.02	121.50	15.96	-41.9	-44.1	23.6	0.00e+00	0	42	0	0	54	4912
2026-01-13 23:19:35.01	121.02	15.73	-41.7	-44.0	23.7	0.00e+00	0	41	0	0	54	4862
2026-01-13 23:19:37.12	120.53	15.48	-41.8	-44.1	23.7	0.00e+00	0	42	0	0	54	4876
2026-01-13 23:19:39.11	120.07	15.24	-42.3	-44.6	23.2	0.00e+00	0	42	0	0	55	4914
2026-01-13 23:19:41.10	119.62	15.01	-42.3	-44.6	23.2	0.00e+00	0	42	0	0	55	4921
2026-01-13 23:19:43.08	119.19	14.78	-42.3	-44.7	23.2	0.00e+00	0	42	0	0	55	4953
2026-01-13 23:19:45.07	118.75	14.55	-42.1	-44.4	23.3	0.00e+00	0	42	0	0	55	4808
2026-01-13 23:19:47.06	118.33	14.33	-42.3	-44.7	23.1	0.00e+00	0	42	0	0	55	4938
2026-01-13 23:19:49.05	117.92	14.10	-42.6	-45.1	22.8	0.00e+00	0	42	0	0	55	5167
2026-01-13 23:19:51.04	117.51	13.88	-42.9	-45.4	22.7	0.00e+00	0	42	0	0	56	5067
2026-01-13 23:19:53.06	117.11	13.65	-43.0	-45.5	22.6	0.00e+00	0	42	0	0	56	5109
2026-01-13 23:19:55.05	116.72	13.43	-42.8	-45.2	22.8	0.00e+00	0	42	0	0	56	4935
2026-01-13 23:19:57.18	116.31	13.20	-42.9	-45.3	22.7	0.00e+00	0	42	0	0	56	5002
2026-01-13 23:19:59.18	115.93	12.98	-43.0	-45.4	22.6	0.00e+00	0	42	0	0	56	5087
2026-01-13 23:20:01.17	115.57	12.77	-43.2	-45.7	22.3	0.00e+00	0	42	0	0	57	4979
2026-01-13 23:20:03.15	115.21	12.56	-43.4	-46.0	22.1	0.00e+00	0	42	0	0	57	5113
2026-01-13 23:20:05.13	114.85	12.35	-43.3	-45.9	22.2	0.00e+00	0	42	0	0	57	5054
2026-01-13 23:20:07.12	114.51	12.14	-43.4	-45.9	22.1	0.00e+00	0	42	0	0	57	5088
2026-01-13 23:20:09.11	114.17	11.94	-43.7	-46.3	21.8	0.00e+00	0	42	0	0	58	5020
2026-01-13 23:20:11.10	113.83	11.73	-43.6	-46.2	21.8	0.00e+00	0	42	0	0	58	4969
2026-01-13 23:20:13.09	113.50	11.53	-43.8	-46.5	21.6	0.00e+00	0	42	0	0	58	5120
2026-01-13 23:20:15.10	113.18	11.33	-43.8	-46.5	21.6	0.00e+00	0	42	0	0	58	5114
2026-01-13 23:20:17.10	112.86	11.13	-43.8	-46.6	21.5	0.00e+00	0	42	0	0	58	5162
2026-01-13 23:20:19.09	112.55	10.93	-43.8	-46.5	21.5	0.00e+00	0	42	0	0	58	5153
2026-01-13 23:20:21.16	112.23	10.72	-43.9	-46.7	21.4	0.00e+00	0	42	0	0	58	5237
2026-01-13 23:20:23.16	111.93	10.53	-43.8	-46.5	21.5	0.00e+00	0	42	0	0	58	5136
2026-01-13 23:20:25.24	111.62	10.33	-44.0	-46.7	21.3	0.00e+00	0	42	0	0	58	5261
2026-01-13 23:20:27.24	111.33	10.14	-44.0	-46.8	21.3	0.00e+00	0	42	0	0	58	5295
2026-01-13 23:20:29.23	111.05	9.95	-44.4	-47.2	20.8	0.00e+00	0	42	0	0	59	5258
2026-01-13 23:20:31.44	110.74	9.74	-44.6	-47.6	20.5	0.00e+00	0	42	0	0	59	5473
2026-01-13 23:20:33.45	110.46	9.55	-44.7	-47.6	20.4	0.00e+00	0	42	0	0	59	5513
2026-01-13 23:20:35.44	110.19	9.37	-44.2	-47.0	20.9	0.00e+00	0	42	0	0	60	4865
2026-01-13 23:20:37.44	109.93	9.18	-44.1	-46.9	20.9	0.00e+00	0	42	0	0	60	4809
2026-01-13 23:20:39.45	109.66	9.00	-44.4	-47.3	20.7	0.00e+00	0	42	0	0	60	5041
2026-01-13 23:20:41.44	109.41	8.82	-50.8	-69.7	3.8	7.83e-01	0	42	104	0	72	33054
2026-01-13 23:20:43.42	109.16	8.65	-51.0	-69.9	3.8	8.46e-01	0	42	104	0	72	33716
2026-01-13 23:20:45.41	108.91	8.47	-51.0	-69.9	3.8	8.48e-01	0	42	104	0	72	33888
2026-01-13 23:20:47.41	108.67	8.29	-50.9	-70.0	3.8	8.46e-01	0	42	104	0	72	34247
2026-01-13 23:20:49.46	108.42	8.12	-50.8	-70.0	3.8	8.47e-01	0	42	104	0	72	34440
2026-01-13 23:20:51.52	108.18	7.94	-50.9	-70.1	3.8	8.48e-01	0	42	104	0	72	34482
2026-01-13 23:20:53.50	107.95	7.77	-51.0	-70.1	3.8	8.46e-01	0	42	104	0	72	34642
2026-01-13 23:20:55.49	107.72	7.60	-50.9	-70.1	3.8	8.47e-01	0	42	104	0	72	34679
2026-01-13 23:20:57.48	107.50	7.43	-50.9	-70.1	3.8	8.47e-01	0	42	104	0	72	34717
2026-01-13 23:20:59.48	107.28	7.26	-51.0	-70.1	3.8	8.46e-01	0	42	104	0	72	34805
2026-01-13 23:21:01.47	107.06	7.10	-51.1	-70.1	3.8	8.47e-01	0	42	104	0	72	34639
2026-01-13 23:21:03.45	106.85	6.94	-51.0	-70.0	3.8	8.47e-01	0	42	104	0	72	34453
2026-01-13 23:21:05.44	106.64	6.77	-51.0	-70.1	3.8	8.48e-01	0	42	104	0	72	34499
2026-01-13 23:21:07.44	106.44	6.61	-51.0	-70.1	3.8	8.46e-01	0	42	104	0	72	34503
2026-01-13 23:21:09.44	106.23	6.45	-51.0	-70.0	3.8	8.45e-01	0	42	104	0	72	34439
2026-01-13 23:21:11.43	106.03	6.29	-51.0	-70.0	3.8	8.47e-01	0	42	104	0	72	34428
2026-01-13 23:21:13.42	105.84	6.13	-51.0	-70.0	3.8	8.48e-01	0	42	104	0	72	34299
2026-01-13 23:21:15.42	105.64	5.98	-51.0	-70.0	3.8	8.48e-01	0	42	104	0	72	34334
2026-01-13 23:21:17.40	105.45	5.82	-51.0	-70.0	3.8	8.47e-01	0	42	104	0	72	34316
2026-01-13 23:21:19.39	105.27	5.67	-51.0	-70.0	3.8	8.46e-01	0	42	104	0	72	34337
2026-01-13 23:21:21.41	105.08	5.51	-51.0	-70.0	3.8	8.46e-01	0	42	104	0	72	34183
2026-01-13 23:21:23.40	104.90	5.36	-51.0	-70.0	3.8	8.48e-01	0	42	104	0	72	34236
2026-01-13 23:21:25.40	104.72	5.21	-51.0	-70.0	3.8	8.48e-01	0	42	104	0	72	34264
2026-01-13 23:21:27.40	104.54	5.06	-51.0	-70.0	3.8	8.47e-01	0	42	104	0	72	34216

#Closed at: 2026-01-13 23:21:28
#Recorded file [0 MB]: D:/Data/31040_260114_021346.dat