passes_logs/2026/01/13/T1/T1__20260113_110311_FENGYUN_3D_rec.log

#Pass ID: 20260113_110311_FENGYUN 3D
#Satellite: FENGYUN 3D
#Configuration: FENGYUN 3D
#almurnet v.1.7.20251203
#Start time: 2026-01-13 11:03:10

#Version: 2.0.20230620
#Station: T1
#Location: 37.570604 lon 55.790049 lat
#TLE: 1 43010U 17072A   26012.32543542  .00000598  00000+0  30457-3 0  9997
#TLE: 2 43010  98.9935 344.1005 0002233 112.6136 247.5276 14.19696644422876

#Time	Az	El	Level	Level2	SNR	BER	BlckErr	Temp	State	Recorded	gain1	gain2
2026-01-13 11:03:10.90	131.44	5.01	-51.8	-63.9	3.8	8.47e-01	0	40	0	0	75	14326
2026-01-13 11:03:13.87	131.30	5.21	-51.8	-64.1	3.8	8.47e-01	0	41	104	0	75	14601
2026-01-13 11:03:16.85	131.16	5.42	-51.8	-64.0	3.8	8.48e-01	0	41	104	0	75	14513
2026-01-13 11:03:19.83	131.02	5.63	-51.8	-63.7	3.8	8.47e-01	0	41	104	0	75	14011
2026-01-13 11:03:22.81	130.87	5.83	-51.7	-62.9	3.8	8.47e-01	0	41	104	0	75	12720
2026-01-13 11:03:25.79	130.73	6.04	-51.5	-61.9	3.9	8.46e-01	0	41	104	0	75	11289
2026-01-13 11:03:28.77	130.57	6.26	-51.4	-61.3	3.9	8.44e-01	0	41	104	0	74	11275
2026-01-13 11:03:31.75	130.42	6.47	-51.4	-61.5	3.9	8.44e-01	0	41	104	0	74	11504
2026-01-13 11:03:34.73	130.27	6.68	-51.6	-62.8	3.8	8.47e-01	0	42	104	0	74	13326
2026-01-13 11:03:37.71	130.11	6.90	-51.7	-63.8	3.8	8.47e-01	0	42	104	0	74	14919
2026-01-13 11:03:40.69	129.95	7.12	-51.8	-64.0	3.8	8.48e-01	0	42	104	0	74	15311
2026-01-13 11:03:43.67	129.79	7.34	-51.6	-62.2	3.8	8.47e-01	0	42	104	0	74	12441
2026-01-13 11:03:46.65	129.62	7.56	-50.0	-55.6	7.1	2.08e-01	0	42	0	4194304	72	6505
2026-01-13 11:03:49.63	129.45	7.78	-47.4	-50.7	11.9	8.93e-04	0	42	0	20971520	66	5261
2026-01-13 11:03:52.61	129.28	8.01	-45.5	-48.1	14.6	0.00e+00	0	42	0	37748736	63	4637
2026-01-13 11:03:55.60	129.11	8.24	-44.9	-47.3	15.3	0.00e+00	0	42	0	54525952	61	4753
2026-01-13 11:03:58.57	128.94	8.46	-46.2	-49.0	13.7	8.00e-06	0	42	0	71303168	62	5460
2026-01-13 11:04:01.55	128.76	8.69	-49.1	-53.5	9.3	1.48e-02	0	42	0	88080384	68	6428
2026-01-13 11:04:04.53	128.57	8.93	-51.5	-61.5	3.9	8.39e-01	0	42	104	97517568	73	12174
2026-01-13 11:04:07.52	128.39	9.16	-50.7	-57.5	5.8	1.20e-01	0	43	0	100663296	71	8572
2026-01-13 11:04:10.50	128.20	9.40	-51.6	-61.9	3.8	8.25e-01	0	43	104	101711872	74	12039
2026-01-13 11:04:13.49	128.01	9.64	-51.5	-61.6	4.0	8.45e-01	0	43	104	101711872	74	11556
2026-01-13 11:04:16.47	127.81	9.88	-51.4	-61.3	3.9	8.44e-01	0	43	104	101711872	74	11168
2026-01-13 11:04:19.52	127.61	10.12	-51.3	-59.5	4.8	3.43e-03	0	43	0	106954752	73	9678
2026-01-13 11:04:22.50	127.41	10.37	-46.0	-48.7	14.2	1.14e-05	0	43	0	116391936	63	4964
2026-01-13 11:04:25.49	127.21	10.62	-44.4	-46.7	16.2	0.00e+00	0	43	0	132120576	60	4682
2026-01-13 11:04:28.48	127.00	10.86	-44.0	-46.3	16.6	0.00e+00	0	43	0	148897792	60	4471
2026-01-13 11:04:31.46	126.78	11.12	-44.0	-46.3	16.6	0.00e+00	0	43	0	166723584	59	4709
2026-01-13 11:04:34.46	126.57	11.37	-43.8	-46.0	16.8	0.00e+00	0	43	0	183500800	59	4589
2026-01-13 11:04:37.47	126.34	11.63	-43.9	-46.1	16.8	0.00e+00	0	43	0	200278016	59	4603
2026-01-13 11:04:40.54	126.11	11.89	-43.8	-46.0	16.8	0.00e+00	0	43	0	217055232	59	4573
2026-01-13 11:04:43.38	125.90	12.14	-43.8	-46.0	16.8	0.00e+00	0	43	0	232783872	59	4569
2026-01-13 11:04:46.51	125.65	12.41	-43.8	-46.0	16.8	0.00e+00	0	43	0	250609664	59	4579
2026-01-13 11:04:49.35	125.43	12.67	-43.7	-45.9	16.9	0.00e+00	0	43	0	267386880	59	4516
2026-01-13 11:04:52.48	125.17	12.95	-43.6	-45.8	17.0	0.00e+00	0	43	0	284164096	59	4474
2026-01-13 11:04:55.32	124.94	13.20	-43.6	-45.7	17.1	0.00e+00	0	43	0	300941312	59	4435
2026-01-13 11:04:58.45	124.68	13.49	-43.6	-45.7	17.2	0.00e+00	0	43	0	317718528	59	4428
2026-01-13 11:05:01.29	124.43	13.75	-43.5	-45.6	17.3	0.00e+00	0	43	0	333447168	58	4621
2026-01-13 11:05:04.42	124.16	14.04	-43.4	-45.6	17.3	0.00e+00	0	43	0	351272960	58	4618
2026-01-13 11:05:07.36	123.90	14.31	-43.4	-45.5	17.4	0.00e+00	0	43	0	368050176	58	4574
2026-01-13 11:05:10.48	123.62	14.61	-43.2	-45.3	17.6	0.00e+00	0	43	0	385875968	58	4481
2026-01-13 11:05:13.32	123.35	14.88	-43.1	-45.2	17.7	0.00e+00	0	43	0	401604608	58	4401
2026-01-13 11:05:16.67	123.04	15.20	-43.0	-45.1	17.8	0.00e+00	0	43	0	420478976	58	4360
2026-01-13 11:05:19.41	122.77	15.47	-42.9	-44.9	17.9	0.00e+00	0	43	0	436207616	57	4532
2026-01-13 11:05:22.68	122.45	15.79	-42.9	-45.0	17.9	0.00e+00	0	43	0	454033408	57	4562
2026-01-13 11:05:25.69	122.15	16.09	-42.9	-44.9	17.9	0.00e+00	0	43	0	470810624	57	4519
2026-01-13 11:05:29.07	121.80	16.43	-42.7	-44.8	18.1	0.00e+00	0	43	0	490733568	57	4461
2026-01-13 11:05:31.97	121.50	16.72	-42.7	-44.7	18.1	0.00e+00	0	43	0	506462208	57	4441
2026-01-13 11:05:35.25	121.15	17.06	-42.5	-44.6	18.3	0.00e+00	0	43	0	525336576	57	4341
2026-01-13 11:05:38.00	120.85	17.34	-42.6	-44.6	18.3	0.00e+00	0	43	0	541065216	56	4606
2026-01-13 11:05:41.26	120.48	17.68	-42.3	-44.3	18.5	0.00e+00	0	43	0	558891008	56	4473
2026-01-13 11:05:44.07	120.16	17.98	-42.2	-44.2	18.6	0.00e+00	0	43	0	574619648	56	4425
2026-01-13 11:05:47.60	119.75	18.35	-42.3	-44.3	18.5	0.00e+00	0	43	0	594542592	56	4476
2026-01-13 11:05:50.71	119.38	18.69	-42.4	-44.4	18.4	0.00e+00	0	43	0	612368384	56	4542
2026-01-13 11:05:53.70	119.01	19.01	-42.1	-44.1	18.7	0.00e+00	0	43	0	629145600	56	4361
2026-01-13 11:05:56.68	118.64	19.34	-41.8	-43.7	19.0	0.00e+00	0	43	0	645922816	55	4416
2026-01-13 11:05:59.61	118.27	19.66	-41.6	-43.5	19.1	0.00e+00	0	43	0	661651456	55	4316
2026-01-13 11:06:03.07	117.81	20.04	-41.6	-43.6	19.1	0.00e+00	0	43	0	681574400	55	4354
2026-01-13 11:06:05.97	117.43	20.37	-41.7	-43.6	19.0	0.00e+00	0	43	0	698351616	55	4384
2026-01-13 11:06:09.24	116.98	20.74	-41.7	-43.7	19.0	0.00e+00	0	43	0	716177408	55	4402
2026-01-13 11:06:11.97	116.60	21.06	-41.3	-43.3	19.4	0.00e+00	0	43	0	731906048	54	4443
2026-01-13 11:06:15.23	116.13	21.43	-41.1	-43.0	19.6	0.00e+00	0	43	0	749731840	54	4334
2026-01-13 11:06:18.00	115.72	21.76	-41.0	-42.9	19.7	0.00e+00	0	43	0	765460480	54	4284
2026-01-13 11:06:21.28	115.23	22.14	-41.0	-42.8	19.7	0.00e+00	0	43	0	784334848	54	4238
2026-01-13 11:06:24.19	114.79	22.49	-41.0	-42.9	19.7	0.00e+00	0	43	0	800063488	54	4260
2026-01-13 11:06:27.18	114.32	22.85	-40.9	-42.8	19.8	0.00e+00	0	43	0	816840704	53	4469
2026-01-13 11:06:30.18	113.83	23.21	-40.9	-42.8	19.8	0.00e+00	0	43	0	833617920	53	4466
2026-01-13 11:06:33.17	113.34	23.57	-40.9	-42.8	19.8	0.00e+00	0	43	0	850395136	53	4470
2026-01-13 11:06:36.49	112.78	23.98	-41.1	-43.0	19.6	0.00e+00	0	43	0	869269504	53	4555
2026-01-13 11:06:39.22	112.31	24.32	-40.9	-42.8	19.7	0.00e+00	0	43	0	884998144	53	4492
2026-01-13 11:06:42.48	111.73	24.72	-41.0	-43.0	19.6	0.00e+00	0	43	0	902823936	53	4549
2026-01-13 11:06:45.20	111.24	25.06	-40.8	-42.7	19.9	0.00e+00	0	43	0	918552576	53	4411
2026-01-13 11:06:48.52	110.62	25.48	-40.7	-42.5	20.0	0.00e+00	0	43	0	937426944	53	4327
2026-01-13 11:06:51.28	110.10	25.83	-40.6	-42.5	20.1	0.00e+00	0	43	0	953155584	53	4293
2026-01-13 11:06:54.55	109.46	26.25	-40.5	-42.4	20.2	0.00e+00	0	43	0	970981376	53	4252
2026-01-13 11:06:57.42	108.88	26.62	-40.7	-42.6	20.0	0.00e+00	0	43	0	987758592	53	4356
2026-01-13 11:07:00.75	108.20	27.04	-40.5	-42.3	20.2	0.00e+00	0	43	0	1005584384	53	4228
2026-01-13 11:07:03.47	107.63	27.40	-40.5	-42.3	20.2	0.00e+00	0	43	0	1021313024	52	4476
2026-01-13 11:07:06.76	106.92	27.83	-40.4	-42.3	20.3	0.00e+00	0	43	0	1040187392	52	4454
2026-01-13 11:07:09.47	106.32	28.18	-40.6	-42.4	20.1	0.00e+00	0	43	0	1054867456	52	4541
2026-01-13 11:07:12.97	105.53	28.64	-40.4	-42.3	20.2	0.00e+00	0	43	0	1074790400	52	4455
2026-01-13 11:07:15.69	104.89	28.99	-40.2	-42.0	20.5	0.00e+00	0	43	0	1089470464	52	4316
2026-01-13 11:07:18.95	104.12	29.42	-40.2	-42.0	20.5	0.00e+00	0	43	0	1108344832	52	4297
2026-01-13 11:07:21.68	103.45	29.78	-40.3	-42.2	20.4	0.00e+00	0	43	0	1124073472	52	4399
2026-01-13 11:07:24.97	102.63	30.21	-40.3	-42.1	20.4	0.00e+00	0	43	0	1141899264	52	4378
2026-01-13 11:07:27.72	101.92	30.58	-40.1	-42.0	20.6	0.00e+00	0	43	0	1157627904	52	4294
2026-01-13 11:07:31.25	100.99	31.04	-40.2	-42.1	20.4	0.00e+00	0	43	0	1177550848	52	4346
2026-01-13 11:07:33.96	100.26	31.39	-40.2	-42.1	20.4	0.00e+00	0	43	0	1193279488	52	4342
2026-01-13 11:07:37.25	99.35	31.82	-40.2	-42.0	20.5	0.00e+00	0	43	0	1211105280	52	4304
2026-01-13 11:07:39.96	98.58	32.18	-40.1	-41.9	20.6	0.00e+00	0	43	0	1226833920	52	4267
2026-01-13 11:07:43.23	97.63	32.60	-40.0	-41.8	20.6	0.00e+00	0	43	0	1244659712	52	4228
2026-01-13 11:07:46.07	96.78	32.96	-40.0	-41.8	20.8	0.00e+00	0	44	0	1260388352	51	4454
2026-01-13 11:07:49.19	95.83	33.36	-39.9	-41.6	20.9	0.00e+00	0	43	0	1278214144	51	4369
2026-01-13 11:07:52.04	94.94	33.72	-39.9	-41.7	20.8	0.00e+00	0	43	0	1293942784	51	4437
2026-01-13 11:07:55.16	93.95	34.11	-39.8	-41.6	20.9	0.00e+00	0	43	0	1311768576	51	4377
2026-01-13 11:07:58.13	92.98	34.47	-39.8	-41.6	20.9	0.00e+00	0	44	0	1328545792	51	4363
2026-01-13 11:08:01.40	91.88	34.87	-40.3	-42.2	20.4	0.00e+00	0	43	0	1347420160	51	4667
2026-01-13 11:08:04.12	90.95	35.19	-40.4	-42.2	20.4	0.00e+00	0	43	0	1362100224	51	4673
2026-01-13 11:08:08.02	89.59	35.64	-40.1	-41.9	20.7	0.00e+00	0	44	0	1384120320	51	4514
2026-01-13 11:08:10.83	88.58	35.96	-39.8	-41.6	20.9	0.00e+00	0	43	0	1399848960	51	4357
2026-01-13 11:08:14.91	87.08	36.41	-40.1	-41.9	20.7	0.00e+00	0	43	0	1422917632	51	4509
2026-01-13 11:08:17.76	86.01	36.72	-40.0	-41.8	20.7	0.00e+00	0	43	0	1439694848	51	4466
2026-01-13 11:08:21.81	84.46	37.13	-40.2	-42.0	20.6	0.00e+00	0	43	0	1461714944	51	4560
2026-01-13 11:08:24.54	83.39	37.40	-40.2	-42.0	20.6	0.00e+00	0	43	0	1477443584	51	4582
2026-01-13 11:08:27.83	82.07	37.72	-39.7	-41.6	21.0	0.00e+00	0	43	0	1495269376	51	4342
2026-01-13 11:08:30.56	80.96	37.96	-39.9	-41.7	20.8	0.00e+00	0	43	0	1510998016	51	4414
2026-01-13 11:08:33.84	79.61	38.25	-40.0	-41.8	20.8	0.00e+00	0	43	0	1529872384	51	4470
2026-01-13 11:08:36.57	78.46	38.47	-40.1	-41.9	20.7	0.00e+00	0	43	0	1544552448	51	4504
2026-01-13 11:08:39.85	77.07	38.73	-40.0	-41.8	20.7	0.00e+00	0	43	0	1563426816	51	4484
2026-01-13 11:08:42.69	75.84	38.93	-40.0	-41.8	20.7	0.00e+00	0	44	0	1579155456	51	4477
2026-01-13 11:08:45.82	74.47	39.14	-40.1	-41.9	20.7	0.00e+00	0	43	0	1596981248	51	4530
2026-01-13 11:08:48.66	73.21	39.32	-39.9	-41.7	20.9	0.00e+00	0	43	0	1612709888	51	4418
2026-01-13 11:08:51.90	71.76	39.50	-39.8	-41.6	20.9	0.00e+00	0	43	0	1631584256	51	4370
2026-01-13 11:08:54.82	70.44	39.65	-40.2	-42.0	20.6	0.00e+00	0	43	0	1647312896	51	4569
2026-01-13 11:08:58.07	68.96	39.79	-40.3	-42.1	20.6	0.00e+00	0	43	0	1666187264	51	4637
2026-01-13 11:09:00.98	67.62	39.90	-39.9	-41.7	20.9	0.00e+00	0	43	0	1681915904	51	4396
2026-01-13 11:09:04.10	66.18	40.00	-40.2	-42.0	20.7	0.00e+00	0	43	0	1699741696	51	4559
2026-01-13 11:09:07.01	64.83	40.07	-40.1	-41.9	20.7	0.00e+00	0	43	0	1716518912	51	4545
2026-01-13 11:09:09.99	63.44	40.13	-39.9	-41.7	20.9	0.00e+00	0	43	0	1733296128	51	4422
2026-01-13 11:09:12.98	62.04	40.17	-39.9	-41.6	21.0	0.00e+00	0	43	0	1750073344	51	4382
2026-01-13 11:09:15.96	60.64	40.18	-40.0	-41.8	20.8	0.00e+00	0	43	0	1766850560	51	4462
2026-01-13 11:09:18.95	59.24	40.18	-39.8	-41.5	21.0	0.00e+00	0	43	0	1783627776	51	4334
2026-01-13 11:09:21.94	57.84	40.16	-39.9	-41.7	20.9	0.00e+00	0	44	0	1800404992	51	4413
2026-01-13 11:09:24.93	56.44	40.12	-39.8	-41.5	21.1	0.00e+00	0	43	0	1817182208	51	4327
2026-01-13 11:09:27.92	55.04	40.06	-39.8	-41.5	21.0	0.00e+00	0	44	0	1833959424	51	4326
2026-01-13 11:09:30.90	53.66	39.98	-39.9	-41.7	20.9	0.00e+00	0	43	0	1850736640	51	4431
2026-01-13 11:09:33.88	52.28	39.89	-39.8	-41.5	21.0	0.00e+00	0	43	0	1867513856	51	4340
2026-01-13 11:09:36.86	50.91	39.77	-39.7	-41.5	21.1	0.00e+00	0	43	0	1884291072	51	4306
2026-01-13 11:09:39.85	49.55	39.64	-39.9	-41.7	20.9	0.00e+00	0	44	0	1901068288	51	4417
2026-01-13 11:09:42.83	48.21	39.49	-39.9	-41.7	20.9	0.00e+00	0	44	0	1917845504	51	4416
2026-01-13 11:09:45.82	46.87	39.32	-39.9	-41.7	20.9	0.00e+00	0	43	0	1934622720	51	4426
2026-01-13 11:09:48.87	45.53	39.13	-39.4	-41.1	21.3	0.00e+00	0	43	0	1951399936	50	4389
2026-01-13 11:09:51.95	44.18	38.92	-39.7	-41.5	21.0	0.00e+00	0	43	0	1969225728	50	4573
2026-01-13 11:09:54.82	42.95	38.71	-39.9	-41.7	20.9	0.00e+00	0	44	0	1984954368	50	4664
2026-01-13 11:09:57.95	41.62	38.47	-39.7	-41.4	21.1	0.00e+00	0	43	0	2002780160	50	4539
2026-01-13 11:10:00.79	40.43	38.24	-39.4	-41.2	21.3	0.00e+00	0	44	0	2018508800	50	4407
2026-01-13 11:10:04.00	39.11	37.96	-39.6	-41.4	21.2	0.00e+00	0	43	0	2037383168	50	4499
2026-01-13 11:10:06.84	37.96	37.70	-39.7	-41.5	21.0	0.00e+00	0	44	0	2053111808	50	4579
2026-01-13 11:10:10.11	36.65	37.39	-39.8	-41.6	20.9	0.00e+00	0	44	0	2070937600	50	4637
2026-01-13 11:10:12.89	35.57	37.11	-39.6	-41.4	21.1	0.00e+00	0	43	0	2086666240	50	4519
2026-01-13 11:10:16.06	34.35	36.79	-39.6	-41.3	21.2	0.00e+00	0	43	0	2104492032	50	4490
2026-01-13 11:10:18.90	33.28	36.49	-39.9	-41.6	21.2	0.00e+00	0	43	0	2120220672	50	4616
2026-01-13 11:10:22.02	32.13	36.15	-39.9	-41.6	21.3	0.00e+00	0	43	0	2138046464	50	4618
2026-01-13 11:10:24.88	31.10	35.83	-39.8	-41.6	21.3	0.00e+00	0	43	0	2153775104	50	4600
2026-01-13 11:10:28.01	29.99	35.47	-39.9	-41.6	21.3	0.00e+00	0	43	0	2171600896	50	4610
2026-01-13 11:10:30.85	29.01	35.14	-39.9	-41.7	21.2	0.00e+00	0	43	0	2188378112	50	4653
2026-01-13 11:10:33.98	27.94	34.77	-39.8	-41.6	21.3	0.00e+00	0	44	0	2205155328	50	4607
2026-01-13 11:10:36.82	27.00	34.42	-39.6	-41.3	21.4	0.00e+00	0	43	0	2220883968	50	4488
2026-01-13 11:10:39.98	25.98	34.04	-39.7	-41.4	21.4	0.00e+00	0	43	0	2238709760	50	4538
2026-01-13 11:10:42.88	25.06	33.68	-39.7	-41.4	21.4	0.00e+00	0	43	0	2255486976	50	4526
2026-01-13 11:10:46.15	24.05	33.26	-39.8	-41.5	21.3	0.00e+00	0	43	0	2273312768	50	4583
2026-01-13 11:10:48.99	23.19	32.90	-39.8	-41.6	21.3	0.00e+00	0	44	0	2290089984	50	4616
2026-01-13 11:10:52.11	22.27	32.51	-39.8	-41.5	21.3	0.00e+00	0	43	0	2307915776	50	4585
2026-01-13 11:10:54.97	21.45	32.14	-40.0	-41.7	21.1	0.00e+00	0	44	0	2323644416	50	4698
2026-01-13 11:10:58.10	20.57	31.73	-39.9	-41.6	21.2	0.00e+00	0	44	0	2341470208	50	4645
2026-01-13 11:11:01.25	19.71	31.32	-40.1	-41.9	21.0	0.00e+00	0	44	0	2359296000	50	4768
2026-01-13 11:11:04.29	18.89	30.93	-40.3	-42.0	20.9	0.00e+00	0	44	0	2376073216	51	4575
2026-01-13 11:11:07.57	18.04	30.50	-40.5	-42.3	20.7	0.00e+00	0	44	0	2393899008	51	4736
2026-01-13 11:11:10.27	17.35	30.14	-40.5	-42.2	20.7	0.00e+00	0	44	0	2409627648	51	4691
2026-01-13 11:11:13.54	16.54	29.71	-40.4	-42.2	20.7	0.00e+00	0	44	0	2427453440	51	4664
2026-01-13 11:11:16.28	15.88	29.35	-40.4	-42.1	20.8	0.00e+00	0	44	0	2443182080	51	4628
2026-01-13 11:11:19.63	15.09	28.92	-40.2	-42.0	20.9	0.00e+00	0	43	0	2462056448	51	4562
2026-01-13 11:11:22.82	14.36	28.50	-40.3	-42.0	20.9	0.00e+00	0	43	0	2479882240	51	4596
2026-01-13 11:11:26.28	13.59	28.05	-40.6	-42.4	20.5	0.00e+00	0	44	0	2499805184	52	4521
2026-01-13 11:11:28.98	13.00	27.70	-40.5	-42.3	20.6	0.00e+00	0	43	0	2514485248	52	4449
2026-01-13 11:11:32.26	12.30	27.27	-40.5	-42.2	20.6	0.00e+00	0	43	0	2533359616	52	4426
2026-01-13 11:11:34.98	11.74	26.92	-40.5	-42.2	20.6	0.00e+00	0	43	0	2548039680	52	4427
2026-01-13 11:11:38.23	11.08	26.51	-40.7	-42.5	20.4	0.00e+00	0	43	0	2566914048	52	4556
2026-01-13 11:11:41.07	10.52	26.15	-40.9	-42.7	20.2	0.00e+00	0	43	0	2582642688	52	4670
2026-01-13 11:11:44.25	9.91	25.74	-41.0	-42.7	20.2	0.00e+00	0	43	0	2600468480	52	4695
2026-01-13 11:11:47.37	9.32	25.35	-40.8	-42.6	20.3	0.00e+00	0	44	0	2618294272	52	4636
2026-01-13 11:11:50.22	8.80	24.99	-40.9	-42.6	20.3	0.00e+00	0	44	0	2634022912	52	4642
2026-01-13 11:11:53.48	8.22	24.59	-40.8	-42.6	20.3	0.00e+00	0	44	0	2652897280	52	4629
2026-01-13 11:11:56.21	7.74	24.25	-41.0	-42.8	20.1	0.00e+00	0	43	0	2667577344	52	4726
2026-01-13 11:11:59.48	7.18	23.85	-40.9	-42.7	20.2	0.00e+00	0	43	0	2686451712	52	4657
2026-01-13 11:12:02.23	6.73	23.51	-40.8	-42.6	20.3	0.00e+00	0	43	0	2702180352	52	4604
2026-01-13 11:12:05.99	6.12	23.06	-41.0	-42.8	20.1	0.00e+00	0	44	0	2723151872	52	4726
2026-01-13 11:12:08.78	5.68	22.73	-41.0	-42.8	20.1	0.00e+00	0	43	0	2738880512	52	4746
2026-01-13 11:12:12.05	5.17	22.34	-41.0	-42.9	20.0	0.00e+00	0	44	0	2756706304	52	4762
2026-01-13 11:12:14.78	4.76	22.02	-41.0	-42.8	20.0	0.00e+00	0	43	0	2772434944	52	4756
2026-01-13 11:12:18.11	4.27	21.63	-41.2	-43.0	19.9	0.00e+00	0	44	0	2791309312	53	4594
2026-01-13 11:12:20.93	3.87	21.30	-41.3	-43.2	19.7	0.00e+00	0	43	0	2807037952	53	4660
2026-01-13 11:12:24.21	3.40	20.93	-41.4	-43.3	19.6	0.00e+00	0	44	0	2825912320	53	4731
2026-01-13 11:12:26.94	3.03	20.62	-41.4	-43.3	19.6	0.00e+00	0	44	0	2840592384	53	4720
2026-01-13 11:12:30.24	2.59	20.24	-41.3	-43.2	19.7	0.00e+00	0	44	0	2859466752	53	4659
2026-01-13 11:12:33.22	2.20	19.91	-41.3	-43.1	19.8	0.00e+00	0	44	0	2876243968	53	4640
2026-01-13 11:12:36.49	1.78	19.55	-41.5	-43.3	19.6	0.00e+00	0	44	0	2894069760	53	4741
2026-01-13 11:12:39.23	1.43	19.25	-41.7	-43.6	19.4	0.00e+00	0	44	0	2909798400	54	4621
2026-01-13 11:12:42.85	0.99	18.86	-41.9	-43.8	19.2	0.00e+00	0	44	0	2930769920	54	4728
2026-01-13 11:12:45.74	0.65	18.55	-41.8	-43.8	19.2	0.00e+00	0	43	0	2946498560	54	4706
2026-01-13 11:12:49.45	0.21	18.15	-41.9	-43.9	19.1	0.00e+00	0	44	0	2967470080	54	4764
2026-01-13 11:12:52.15	359.90	17.87	-42.1	-44.1	18.9	0.00e+00	0	44	0	2983198720	54	4880
2026-01-13 11:12:55.65	359.51	17.51	-42.2	-44.1	18.8	0.00e+00	0	44	0	3002073088	55	4639
2026-01-13 11:12:58.46	359.21	17.22	-42.4	-44.3	18.6	0.00e+00	0	43	0	3017801728	55	4756
2026-01-13 11:13:01.75	358.86	16.88	-42.4	-44.3	18.6	0.00e+00	0	44	0	3036676096	55	4747
2026-01-13 11:13:04.46	358.57	16.61	-42.5	-44.5	18.5	0.00e+00	0	43	0	3052404736	55	4819
2026-01-13 11:13:07.76	358.23	16.28	-42.5	-44.4	18.6	0.00e+00	0	43	0	3070230528	55	4779
2026-01-13 11:13:10.51	357.96	16.00	-42.4	-44.3	18.6	0.00e+00	0	44	0	3085959168	55	4759
2026-01-13 11:13:14.04	357.61	15.66	-42.5	-44.5	18.4	0.00e+00	0	44	0	3105882112	55	4853
2026-01-13 11:13:16.75	357.35	15.39	-42.5	-44.5	18.4	0.00e+00	0	44	0	3120562176	55	4868
2026-01-13 11:13:20.05	357.04	15.07	-42.9	-44.8	18.3	0.00e+00	0	44	0	3139436544	56	4753
2026-01-13 11:13:22.81	356.79	14.81	-42.9	-44.9	18.2	0.00e+00	0	44	0	3155165184	56	4814
2026-01-13 11:13:26.08	356.49	14.50	-43.1	-45.1	18.0	0.00e+00	0	44	0	3172990976	56	4896
2026-01-13 11:13:28.87	356.24	14.24	-43.3	-45.4	17.8	0.00e+00	0	43	0	3188719616	57	4769
2026-01-13 11:13:32.27	355.95	13.92	-43.4	-45.5	17.7	0.00e+00	0	44	0	3208642560	57	4840
2026-01-13 11:13:35.00	355.71	13.67	-43.1	-45.3	17.8	0.00e+00	0	43	0	3223322624	57	4726
2026-01-13 11:13:38.28	355.44	13.38	-43.3	-45.5	17.6	0.00e+00	0	44	0	3242196992	57	4832
2026-01-13 11:13:41.01	355.22	13.13	-43.3	-45.5	17.5	0.00e+00	0	44	0	3257925632	57	4864
2026-01-13 11:13:44.28	354.95	12.84	-43.2	-45.5	17.5	0.00e+00	0	43	0	3275751424	57	4861
2026-01-13 11:13:46.98	354.74	12.60	-43.0	-45.6	17.5	0.00e+00	0	43	0	3290431488	57	4901
2026-01-13 11:13:50.26	354.49	12.31	-42.9	-45.6	17.4	0.00e+00	0	43	0	3309305856	57	4917
2026-01-13 11:13:53.31	354.26	12.04	-42.9	-45.6	17.5	0.00e+00	0	44	0	3327131648	57	4883
2026-01-13 11:13:56.44	354.02	11.77	-43.2	-45.8	17.3	0.00e+00	0	44	0	3343908864	57	5037
2026-01-13 11:13:59.28	353.81	11.53	-43.4	-45.9	17.2	0.00e+00	0	43	0	3359637504	57	5042
2026-01-13 11:14:02.41	353.59	11.27	-43.5	-45.9	17.2	0.00e+00	0	44	0	3377463296	57	5075
2026-01-13 11:14:05.33	353.38	11.02	-43.4	-45.9	17.2	0.00e+00	0	44	0	3394240512	57	5067
2026-01-13 11:14:08.45	353.17	10.76	-43.5	-46.0	17.1	0.00e+00	0	44	0	3412066304	57	5128
2026-01-13 11:14:11.29	352.97	10.53	-43.8	-46.2	16.8	0.00e+00	0	44	0	3427794944	58	4978
2026-01-13 11:14:14.42	352.77	10.27	-43.8	-46.2	16.9	0.00e+00	0	43	0	3445620736	58	4950
2026-01-13 11:14:17.26	352.58	10.04	-43.7	-46.1	16.9	0.00e+00	0	44	0	3461349376	58	4915
2026-01-13 11:14:20.39	352.38	9.79	-43.8	-46.4	16.6	0.00e+00	0	43	0	3479175168	58	5069
2026-01-13 11:14:23.23	352.20	9.56	-43.3	-46.1	16.9	0.00e+00	0	44	0	3494903808	58	4900
2026-01-13 11:14:26.55	351.99	9.30	-43.5	-46.1	16.8	0.00e+00	0	44	0	3513778176	58	4922
2026-01-13 11:14:29.28	351.82	9.08	-43.7	-46.1	16.9	0.00e+00	0	44	0	3528458240	58	4893
2026-01-13 11:14:32.88	351.61	8.80	-51.8	-64.4	3.8	8.47e-01	0	44	104	3538944000	74	16049
2026-01-13 11:14:35.73	351.44	8.58	-52.2	-64.8	3.8	8.47e-01	0	44	104	3538944000	75	15847
2026-01-13 11:14:39.28	351.23	8.31	-52.6	-65.0	3.8	8.47e-01	0	44	104	3538944000	76	15252
2026-01-13 11:14:42.02	351.08	8.11	-52.8	-65.0	3.8	8.46e-01	0	44	104	3538944000	76	15323
2026-01-13 11:14:45.55	350.88	7.84	-52.8	-65.0	3.8	8.47e-01	0	44	104	3538944000	76	15358
2026-01-13 11:14:48.26	350.73	7.64	-52.9	-65.0	3.8	8.47e-01	0	44	104	3538944000	76	15372
2026-01-13 11:14:51.87	350.53	7.37	-52.8	-65.0	3.8	8.47e-01	0	44	104	3538944000	76	15354
2026-01-13 11:14:54.57	350.39	7.17	-53.0	-65.1	3.8	8.47e-01	0	44	104	3538944000	76	15441
2026-01-13 11:14:57.84	350.22	6.93	-52.9	-65.0	3.8	8.47e-01	0	44	104	3538944000	76	15342
2026-01-13 11:15:00.53	350.08	6.74	-52.8	-65.0	3.8	8.48e-01	0	44	104	3538944000	76	15311
2026-01-13 11:15:03.81	349.91	6.50	-52.8	-65.0	3.8	8.48e-01	0	43	104	3538944000	76	15338
2026-01-13 11:15:06.51	349.78	6.31	-52.8	-65.0	3.8	8.46e-01	0	43	104	3538944000	76	15350
2026-01-13 11:15:09.79	349.62	6.08	-52.8	-65.0	3.8	8.45e-01	0	44	104	3538944000	76	15275
2026-01-13 11:15:12.48	349.49	5.89	-52.8	-65.0	3.8	8.47e-01	0	44	104	3538944000	76	15283
2026-01-13 11:15:15.75	349.33	5.66	-52.8	-65.0	3.8	8.47e-01	0	43	104	3538944000	76	15367
2026-01-13 11:15:18.46	349.21	5.47	-52.7	-65.0	3.8	8.47e-01	0	44	104	3538944000	76	15288
2026-01-13 11:15:21.74	349.05	5.25	-52.7	-65.0	3.8	8.48e-01	0	44	104	3538944000	76	15236
2026-01-13 11:15:24.43	348.93	5.06	-52.7	-65.0	3.8	8.46e-01	0	44	104	3538944000	76	15274

#Closed at: 2026-01-13 11:15:26
#Recorded file [3538 MB]: D:/Data/31040_260113_140310.dat