passes_logs/2025/01/28/Planum_Noyabrsk/Planum_Noyabrsk__20250128_064144_NOAA_18_rec.log

#Pass ID: 20250128_064144_NOAA 18
#Satellite: NOAA 18
#Configuration: NOAA 18
#Start time: 2025-01-28 06:41:49.650705

#LorettStation: 1.0.0 05.05.2024
#Station: Planum_Noyabrsk
#Location: 75.446886 lon 63.207202 lat
#TLE: 1 28654U 05018A   25027.40881812  .00000426  00000+0  24926-3 0  9994
#TLE: 2 28654  98.8547 108.3390 0014849 145.0486 215.1664 14.13498678 14850

#Time	Az	El	Level	SNR
2025-01-28 06:41:55.840723	25.2	31.2	-48.9	0.0
2025-01-28 06:41:56.981715	25.3	31.4	-50.5	0.0
2025-01-28 06:41:58.125221	25.3	31.6	-49.8	0.0
2025-01-28 06:41:59.268199	25.4	31.9	-51.3	0.0
2025-01-28 06:42:00.410190	25.4	32.1	-50.3	0.0
2025-01-28 06:42:01.550186	25.5	32.3	-50.2	0.0
2025-01-28 06:42:02.692177	25.6	32.5	-50.7	0.0
2025-01-28 06:42:03.835165	25.6	32.8	-51.0	0.0
2025-01-28 06:42:04.978154	25.7	33.0	-50.2	0.0
2025-01-28 06:42:06.120144	25.7	33.2	-52.0	0.0
2025-01-28 06:42:07.263131	25.8	33.5	-53.2	0.0
2025-01-28 06:42:08.406139	25.8	33.7	-51.6	0.0
2025-01-28 06:42:09.548130	25.9	34.0	-51.8	0.0
2025-01-28 06:42:10.690120	26.0	34.2	-51.5	0.0
2025-01-28 06:42:11.832111	26.0	34.5	-52.5	0.0
2025-01-28 06:42:12.972615	26.1	34.7	-53.0	0.0
2025-01-28 06:42:14.118605	26.1	35.0	-52.3	0.0
2025-01-28 06:42:15.259098	26.2	35.2	-52.6	0.0
2025-01-28 06:42:16.402086	26.3	35.5	-52.6	0.0
2025-01-28 06:42:17.544076	26.3	35.7	-54.7	0.0
2025-01-28 06:42:18.685069	26.4	36.0	-54.9	0.0
2025-01-28 06:42:19.834042	26.5	36.2	-54.0	0.0
2025-01-28 06:42:20.978027	26.5	36.5	-53.5	0.0
2025-01-28 06:42:22.119531	26.6	36.8	-55.4	0.0
2025-01-28 06:42:23.260524	26.7	37.0	-54.8	0.0
2025-01-28 06:42:24.403512	26.8	37.3	-54.8	0.0
2025-01-28 06:42:25.544015	26.8	37.6	-54.3	0.0
2025-01-28 06:42:26.686007	26.9	37.8	-54.3	0.0
2025-01-28 06:42:27.829991	27.0	38.1	-57.4	0.0
2025-01-28 06:42:28.972490	27.1	38.4	-54.0	0.0
2025-01-28 06:42:30.115479	27.1	38.7	-56.4	0.0
2025-01-28 06:42:31.257468	27.2	38.9	-56.4	0.0
2025-01-28 06:42:32.400964	27.3	39.2	-55.3	0.0
2025-01-28 06:42:33.541956	27.4	39.5	-56.5	0.0
2025-01-28 06:42:34.685941	27.5	39.8	-59.4	0.0
2025-01-28 06:42:35.827441	27.5	40.1	-56.7	0.0
2025-01-28 06:42:36.969432	27.6	40.4	-57.5	0.0
2025-01-28 06:42:38.110426	27.7	40.7	-55.8	0.0
2025-01-28 06:42:39.251928	27.8	41.0	-59.3	0.0
2025-01-28 06:42:40.394427	27.9	41.3	-56.4	0.0
2025-01-28 06:42:41.537415	28.0	41.6	-55.3	0.0
2025-01-28 06:42:42.678916	28.1	41.9	-58.7	0.0
2025-01-28 06:42:43.821905	28.2	42.2	-60.3	0.0
2025-01-28 06:42:44.963896	28.3	42.5	-57.1	0.0
2025-01-28 06:42:46.106886	28.4	42.8	-57.5	0.0
2025-01-28 06:42:47.247876	28.5	43.1	-59.7	0.0
2025-01-28 06:42:48.390865	28.6	43.5	-59.8	0.9
2025-01-28 06:42:49.533852	28.7	43.8	-58.2	0.0
2025-01-28 06:42:50.675844	28.8	44.1	-59.6	1.1
2025-01-28 06:42:51.817833	28.9	44.4	-58.8	1.1
2025-01-28 06:42:52.960822	29.0	44.7	-59.0	0.0
2025-01-28 06:42:54.102812	29.1	45.1	-58.7	1.2
2025-01-28 06:42:55.246797	29.2	45.4	-60.6	4.7
2025-01-28 06:42:56.388788	29.4	45.7	-59.3	2.1
2025-01-28 06:42:57.530796	29.5	46.1	-59.5	0.7
2025-01-28 06:42:58.672786	29.6	46.4	-60.7	4.1
2025-01-28 06:42:59.815775	29.7	46.8	-59.6	3.4
2025-01-28 06:43:00.960757	29.9	47.1	-61.7	4.8
2025-01-28 06:43:02.102750	30.0	47.5	-61.9	3.6
2025-01-28 06:43:03.243741	30.1	47.8	-62.6	6.3
2025-01-28 06:43:04.389231	30.3	48.2	-61.0	3.2
2025-01-28 06:43:05.531728	30.4	48.5	-62.0	5.1
2025-01-28 06:43:06.671235	30.5	48.9	-62.2	5.8
2025-01-28 06:43:07.814223	30.7	49.3	-61.1	0.0
2025-01-28 06:43:08.955216	30.8	49.6	-62.9	5.8
2025-01-28 06:43:10.098204	31.0	50.0	-61.9	3.8
2025-01-28 06:43:11.239704	31.1	50.4	-61.7	5.5
2025-01-28 06:43:12.380697	31.3	50.7	-62.9	5.5
2025-01-28 06:43:13.523687	31.5	51.1	-62.8	6.4
2025-01-28 06:43:14.664678	31.6	51.5	-62.0	3.3
2025-01-28 06:43:15.808665	31.8	51.9	-62.0	3.9
2025-01-28 06:43:16.953646	32.0	52.3	-63.7	5.7
2025-01-28 06:43:18.094152	32.2	52.7	-61.9	2.5
2025-01-28 06:43:19.234654	32.4	53.0	-64.1	5.3
2025-01-28 06:43:20.377643	32.6	53.4	-63.1	4.7
2025-01-28 06:43:21.517150	32.7	53.8	-63.2	4.3
2025-01-28 06:43:22.658651	32.9	54.2	-63.5	2.7
2025-01-28 06:43:23.799643	33.2	54.6	-63.7	4.2
2025-01-28 06:43:24.940637	33.4	55.0	-62.1	1.4
2025-01-28 06:43:26.083625	33.6	55.5	-61.8	0.1
2025-01-28 06:43:27.226124	33.8	55.9	-61.6	0.0
2025-01-28 06:43:28.368115	34.1	56.3	-63.0	1.5
2025-01-28 06:43:29.512100	34.3	56.7	-62.3	0.0
2025-01-28 06:43:30.657083	34.5	57.1	-62.5	0.0
2025-01-28 06:43:31.801069	34.8	57.5	-62.2	2.1
2025-01-28 06:43:32.943058	35.1	58.0	-61.8	0.0
2025-01-28 06:43:34.086047	35.3	58.4	-62.7	3.6
2025-01-28 06:43:35.227058	35.6	58.8	-60.7	0.0
2025-01-28 06:43:36.372040	35.9	59.2	-60.7	1.3
2025-01-28 06:43:37.514031	36.2	59.7	-60.8	1.5
2025-01-28 06:43:38.655533	36.5	60.1	-60.6	0.2
2025-01-28 06:43:39.796526	36.8	60.6	-60.7	1.6
2025-01-28 06:43:40.940512	37.2	61.0	-59.2	0.0
2025-01-28 06:43:42.083008	37.5	61.4	-60.5	2.2
2025-01-28 06:43:43.225996	37.8	61.9	-64.1	8.8
2025-01-28 06:43:44.367986	38.2	62.3	-61.4	1.2
2025-01-28 06:43:45.509002	38.6	62.8	-60.8	1.9
2025-01-28 06:43:46.649994	39.0	63.2	-60.4	2.5
2025-01-28 06:43:47.792494	39.4	63.7	-61.1	3.6
2025-01-28 06:43:48.934990	39.8	64.1	-58.4	0.0
2025-01-28 06:43:50.075984	40.3	64.6	-60.8	3.5
2025-01-28 06:43:51.221965	40.7	65.1	-61.0	3.8
2025-01-28 06:43:52.363955	41.2	65.5	-61.8	3.5
2025-01-28 06:43:53.504948	41.7	66.0	-61.5	4.7
2025-01-28 06:43:54.646938	42.2	66.4	-61.6	4.8
2025-01-28 06:43:55.788929	42.8	66.9	-61.4	3.7
2025-01-28 06:43:56.930920	43.3	67.4	-61.5	3.0
2025-01-28 06:43:58.072910	43.9	67.8	-61.2	1.7
2025-01-28 06:43:59.217899	44.6	68.3	-59.7	1.4
2025-01-28 06:44:00.358886	45.2	68.7	-61.5	2.9
2025-01-28 06:44:01.505863	45.9	69.2	-59.0	0.0
2025-01-28 06:44:02.648851	46.6	69.7	-61.9	4.9
2025-01-28 06:44:03.791349	47.4	70.1	-62.4	5.4
2025-01-28 06:44:04.936331	48.2	70.6	-56.7	0.0
2025-01-28 06:44:06.085304	49.0	71.1	-61.8	3.5
2025-01-28 06:44:07.229289	49.9	71.5	-60.4	3.0
2025-01-28 06:44:08.371280	50.8	72.0	-59.0	0.4
2025-01-28 06:44:09.512273	51.8	72.4	-60.6	5.5
2025-01-28 06:44:10.654264	52.8	72.9	-63.2	3.8
2025-01-28 06:44:11.795257	53.9	73.3	-63.8	6.6
2025-01-28 06:44:12.938244	55.0	73.8	-63.4	1.2
2025-01-28 06:44:14.079746	56.2	74.2	-63.9	0.0
2025-01-28 06:44:15.220737	57.5	74.6	-62.9	6.3
2025-01-28 06:44:16.362728	58.9	75.0	-63.9	7.7
2025-01-28 06:44:17.504718	60.3	75.5	-64.1	6.1
2025-01-28 06:44:18.645711	61.8	75.9	-63.6	5.5
2025-01-28 06:44:19.788699	63.4	76.3	-63.7	6.7
2025-01-28 06:44:20.931688	65.1	76.7	-62.8	4.2
2025-01-28 06:44:22.072680	67.0	77.0	-63.1	4.9
2025-01-28 06:44:23.215669	68.9	77.4	-62.8	5.5
2025-01-28 06:44:24.356662	70.9	77.8	-62.7	5.8
2025-01-28 06:44:25.498652	73.1	78.1	-63.7	6.2
2025-01-28 06:44:26.642638	75.4	78.4	-62.3	1.7
2025-01-28 06:44:27.784629	77.8	78.7	-60.7	1.1
2025-01-28 06:44:28.929611	80.4	79.0	-63.8	5.4
2025-01-28 06:44:30.073597	83.1	79.3	-62.3	3.6
2025-01-28 06:44:31.217090	85.9	79.5	-59.7	0.0
2025-01-28 06:44:32.359081	88.8	79.7	-62.7	0.8
2025-01-28 06:44:33.498079	91.9	79.9	-63.4	1.5
2025-01-28 06:44:34.640577	95.0	80.0	-65.5	5.2
2025-01-28 06:44:35.781570	98.3	80.2	-65.7	7.5
2025-01-28 06:44:36.923561	101.6	80.2	-61.9	0.0
2025-01-28 06:44:38.066057	105.0	80.3	-63.7	1.1
2025-01-28 06:44:39.208048	108.4	80.3	-63.4	1.1
2025-01-28 06:44:40.351544	111.8	80.3	-62.5	0.2
2025-01-28 06:44:41.492047	115.2	80.3	-63.8	1.0
2025-01-28 06:44:42.636033	118.6	80.2	-63.9	2.2
2025-01-28 06:44:43.778023	121.8	80.1	-63.5	4.1
2025-01-28 06:44:44.919529	125.0	80.0	-64.1	3.3
2025-01-28 06:44:46.065506	128.2	79.8	-62.1	0.1
2025-01-28 06:44:47.206499	131.2	79.6	-64.2	4.6
2025-01-28 06:44:48.348004	134.0	79.4	-64.0	6.9
2025-01-28 06:44:49.489994	136.8	79.1	-64.3	3.9
2025-01-28 06:44:50.631985	139.4	78.8	-63.4	1.9
2025-01-28 06:44:51.773485	141.9	78.6	-63.5	2.0
2025-01-28 06:44:52.914991	144.2	78.2	-63.6	3.1
2025-01-28 06:44:54.057979	146.5	77.9	-66.8	10.3
2025-01-28 06:44:55.200967	148.6	77.6	-65.7	3.6
2025-01-28 06:44:56.344463	150.6	77.2	-65.4	5.2
2025-01-28 06:44:57.485456	152.4	76.8	-65.5	9.3
2025-01-28 06:44:58.631943	154.2	76.4	-63.7	1.8
2025-01-28 06:44:59.778920	155.9	76.1	-65.0	8.9
2025-01-28 06:45:00.921908	157.5	75.6	-63.7	4.0
2025-01-28 06:45:02.062919	158.9	75.2	-63.6	3.4
2025-01-28 06:45:03.204910	160.3	74.8	-63.7	4.2
2025-01-28 06:45:04.349892	161.6	74.4	-62.4	3.2
2025-01-28 06:45:05.491903	162.9	73.9	-63.4	4.0
2025-01-28 06:45:06.633894	164.1	73.5	-63.0	1.4
2025-01-28 06:45:07.774887	165.2	73.1	-63.2	2.2
2025-01-28 06:45:08.919869	166.2	72.6	-62.8	1.0
2025-01-28 06:45:10.065359	167.2	72.2	-63.9	3.2
2025-01-28 06:45:11.207349	168.2	71.7	-65.9	10.8
2025-01-28 06:45:12.349847	169.1	71.2	-63.8	4.8
2025-01-28 06:45:13.492834	169.9	70.8	-63.9	4.7
2025-01-28 06:45:14.634825	170.7	70.3	-64.1	8.1
2025-01-28 06:45:15.776815	171.5	69.9	-64.0	10.5
2025-01-28 06:45:16.918807	172.2	69.4	-64.8	7.6
2025-01-28 06:45:18.062791	172.9	68.9	-63.8	7.6
2025-01-28 06:45:19.205779	173.6	68.5	-64.6	8.0
2025-01-28 06:45:20.346772	174.2	68.0	-64.3	7.5
2025-01-28 06:45:21.489760	174.8	67.5	-64.9	8.7
2025-01-28 06:45:22.629756	175.4	67.1	-65.2	12.2
2025-01-28 06:45:23.771746	176.0	66.6	-64.0	7.5
2025-01-28 06:45:24.912740	176.5	66.2	-65.8	13.4
2025-01-28 06:45:26.053733	177.0	65.7	-65.6	13.9
2025-01-28 06:45:27.196721	177.5	65.2	-64.6	10.9
2025-01-28 06:45:28.337714	178.0	64.8	-66.0	12.0
2025-01-28 06:45:29.479213	178.4	64.3	-65.3	10.9
2025-01-28 06:45:30.625701	178.9	63.9	-65.8	12.0
2025-01-28 06:45:31.767692	179.3	63.4	-65.4	9.9
2025-01-28 06:45:32.907688	179.7	63.0	-65.2	9.6
2025-01-28 06:45:34.049190	180.1	62.5	-66.3	9.1
2025-01-28 06:45:35.195171	180.4	62.1	-66.4	10.0
2025-01-28 06:45:36.337161	180.8	61.6	-65.7	6.6
2025-01-28 06:45:37.479661	181.1	61.2	-66.2	7.0
2025-01-28 06:45:38.621652	181.5	60.7	-66.3	6.1
2025-01-28 06:45:39.763642	181.8	60.3	-66.0	5.8
2025-01-28 06:45:40.908135	182.1	59.8	-65.9	5.7
2025-01-28 06:45:42.051122	182.4	59.4	-66.8	7.0
2025-01-28 06:45:43.193112	182.7	59.0	-66.6	6.9
2025-01-28 06:45:44.333621	183.0	58.5	-66.3	6.3
2025-01-28 06:45:45.476609	183.3	58.1	-66.4	5.5
2025-01-28 06:45:46.617602	183.5	57.7	-66.9	7.6
2025-01-28 06:45:47.760590	183.8	57.2	-66.8	6.6
2025-01-28 06:45:48.905574	184.0	56.8	-66.9	5.5
2025-01-28 06:45:50.047563	184.3	56.4	-66.7	8.0
2025-01-28 06:45:51.191059	184.5	56.0	-66.7	6.3
2025-01-28 06:45:52.334045	184.8	55.6	-67.0	7.1
2025-01-28 06:45:53.476036	185.0	55.2	-66.4	5.9
2025-01-28 06:45:54.619549	185.2	54.8	-67.4	8.8
2025-01-28 06:45:55.762537	185.4	54.3	-66.6	8.2
2025-01-28 06:45:56.904528	185.6	53.9	-66.0	8.8
2025-01-28 06:45:58.051015	185.8	53.5	-65.7	7.7
2025-01-28 06:45:59.193006	186.0	53.1	-66.7	9.0
2025-01-28 06:46:00.335993	186.2	52.8	-66.6	9.4
2025-01-28 06:46:01.477984	186.4	52.4	-66.0	8.0
2025-01-28 06:46:02.619974	186.6	52.0	-65.8	9.0
2025-01-28 06:46:03.761965	186.7	51.6	-66.4	10.3
2025-01-28 06:46:04.902974	186.9	51.2	-66.0	10.5
2025-01-28 06:46:06.044965	187.1	50.8	-66.6	11.8
2025-01-28 06:46:07.188952	187.2	50.4	-66.1	11.4
2025-01-28 06:46:08.330941	187.4	50.1	-66.2	11.1
2025-01-28 06:46:09.471935	187.5	49.7	-66.1	10.9
2025-01-28 06:46:10.613925	187.7	49.3	-66.2	11.0
2025-01-28 06:46:11.755915	187.8	49.0	-65.6	9.4
2025-01-28 06:46:12.897906	188.0	48.6	-65.3	10.1
2025-01-28 06:46:14.039897	188.1	48.2	-66.3	10.3
2025-01-28 06:46:15.180402	188.3	47.9	-66.2	10.7
2025-01-28 06:46:16.322392	188.4	47.5	-67.0	11.0
2025-01-28 06:46:17.464384	188.5	47.2	-66.7	10.5
2025-01-28 06:46:18.606374	188.7	46.8	-66.7	10.8
2025-01-28 06:46:19.751356	188.8	46.5	-66.5	10.3
2025-01-28 06:46:20.892349	188.9	46.1	-66.8	11.0
2025-01-28 06:46:22.033852	189.0	45.8	-66.6	9.0
2025-01-28 06:46:23.174844	189.2	45.5	-66.8	10.4
2025-01-28 06:46:24.317832	189.3	45.1	-67.4	10.6
2025-01-28 06:46:25.460331	189.4	44.8	-67.2	10.7
2025-01-28 06:46:26.601324	189.5	44.5	-67.2	10.5
2025-01-28 06:46:27.745310	189.6	44.1	-66.5	9.5
2025-01-28 06:46:28.886302	189.7	43.8	-66.5	9.1
2025-01-28 06:46:30.029796	189.8	43.5	-65.9	7.8
2025-01-28 06:46:31.173782	189.9	43.2	-65.4	7.3
2025-01-28 06:46:32.315772	190.0	42.8	-65.5	6.8
2025-01-28 06:46:33.459757	190.1	42.5	-66.8	9.4
2025-01-28 06:46:34.600750	190.2	42.2	-66.8	10.7
2025-01-28 06:46:35.743739	190.3	41.9	-66.1	9.3
2025-01-28 06:46:36.889719	190.4	41.6	-65.2	7.5
2025-01-28 06:46:38.031710	190.5	41.3	-65.6	7.4
2025-01-28 06:46:39.174699	190.6	41.0	-65.7	8.7
2025-01-28 06:46:40.316688	190.7	40.7	-65.7	7.7
2025-01-28 06:46:41.458679	190.8	40.4	-66.7	11.2
2025-01-28 06:46:42.601667	190.9	40.1	-66.0	9.5
2025-01-28 06:46:43.750639	190.9	39.8	-67.2	10.5
2025-01-28 06:46:44.892631	191.0	39.5	-67.0	14.5
2025-01-28 06:46:46.033623	191.1	39.2	-67.1	13.4
2025-01-28 06:46:47.178605	191.2	38.9	-66.8	11.9
2025-01-28 06:46:48.320596	191.3	38.6	-66.8	11.6
2025-01-28 06:46:49.464090	191.3	38.4	-67.0	12.5
2025-01-28 06:46:50.606080	191.4	38.1	-66.6	11.7
2025-01-28 06:46:51.749068	191.5	37.8	-66.5	11.9
2025-01-28 06:46:52.892056	191.6	37.5	-65.6	11.1
2025-01-28 06:46:54.039034	191.6	37.3	-66.1	11.2
2025-01-28 06:46:55.181024	191.7	37.0	-66.4	10.9
2025-01-28 06:46:56.323015	191.8	36.7	-65.8	10.5
2025-01-28 06:46:57.464008	191.9	36.5	-66.1	11.9
2025-01-28 06:46:58.605999	191.9	36.2	-66.7	11.7
2025-01-28 06:46:59.750981	192.0	35.9	-67.2	12.6
2025-01-28 06:47:00.895964	192.1	35.7	-66.4	12.4
2025-01-28 06:47:02.038952	192.1	35.4	-67.4	12.2
2025-01-28 06:47:03.180452	192.2	35.2	-66.8	11.9
2025-01-28 06:47:04.322458	192.3	34.9	-66.4	11.1
2025-01-28 06:47:05.463451	192.3	34.6	-67.0	12.1
2025-01-28 06:47:06.604444	192.4	34.4	-66.4	11.1
2025-01-28 06:47:07.752419	192.4	34.1	-67.5	13.5
2025-01-28 06:47:08.893919	192.5	33.9	-67.2	12.4
2025-01-28 06:47:10.033914	192.6	33.7	-66.8	12.0
2025-01-28 06:47:11.176902	192.6	33.4	-67.4	12.5
2025-01-28 06:47:12.318893	192.7	33.2	-67.4	11.5
2025-01-28 06:47:13.461881	192.7	32.9	-67.8	12.7
2025-01-28 06:47:14.601386	192.8	32.7	-66.9	11.3
2025-01-28 06:47:15.743376	192.8	32.5	-68.0	13.1
2025-01-28 06:47:16.885368	192.9	32.2	-67.8	13.5
2025-01-28 06:47:18.027863	193.0	32.0	-68.2	12.5
2025-01-28 06:47:19.171849	193.0	31.8	-68.3	13.7
2025-01-28 06:47:20.314838	193.1	31.5	-67.6	13.2
2025-01-28 06:47:21.454833	193.1	31.3	-67.4	11.1
2025-01-28 06:47:22.596823	193.2	31.1	-67.5	12.5
2025-01-28 06:47:23.737816	193.2	30.9	-67.9	13.0
2025-01-28 06:47:24.882309	193.3	30.7	-68.1	12.5
2025-01-28 06:47:26.024299	193.3	30.4	-67.7	10.1
2025-01-28 06:47:27.167287	193.4	30.2	-67.5	13.7
2025-01-28 06:47:28.307789	193.4	30.0	-67.9	10.6
#Closed at: 2025-01-28 06:41:44.655206