passes_logs/2025/01/28/Planum_Noyabrsk/Planum_Noyabrsk__20250128_163840_NOAA_18_rec.log

#Pass ID: 20250128_163840_NOAA 18
#Satellite: NOAA 18
#Configuration: NOAA 18
#Start time: 2025-01-28 16:38:45.993889

#LorettStation: 1.0.0 05.05.2024
#Station: Planum_Noyabrsk
#Location: 75.446886 lon 63.207202 lat
#TLE: 1 28654U 05018A   25027.40881812  .00000426  00000+0  24926-3 0  9994
#TLE: 2 28654  98.8547 108.3390 0014849 145.0486 215.1664 14.13498678 14850

#Time	Az	El	Level	SNR
2025-01-28 16:39:22.992520	167.0	37.8	-65.3	9.3
2025-01-28 16:39:24.133008	167.0	38.1	-65.2	9.4
2025-01-28 16:39:25.274985	167.1	38.4	-66.7	11.8
2025-01-28 16:39:26.414967	167.2	38.7	-65.6	11.5
2025-01-28 16:39:27.556454	167.2	38.9	-65.8	11.0
2025-01-28 16:39:28.698429	167.3	39.2	-65.7	11.6
2025-01-28 16:39:29.839408	167.4	39.5	-64.2	11.4
2025-01-28 16:39:30.979899	167.4	39.8	-65.3	9.5
2025-01-28 16:39:32.128858	167.5	40.1	-65.5	11.1
2025-01-28 16:39:33.270834	167.6	40.4	-65.4	10.3
2025-01-28 16:39:34.414805	167.7	40.7	-65.8	9.6
2025-01-28 16:39:35.557778	167.7	41.0	-65.7	11.6
2025-01-28 16:39:36.698758	167.8	41.3	-65.9	10.5
2025-01-28 16:39:37.840245	167.9	41.6	-65.7	11.8
2025-01-28 16:39:38.982221	168.0	41.9	-65.9	12.2
2025-01-28 16:39:40.123200	168.1	42.2	-65.6	11.6
2025-01-28 16:39:41.265177	168.1	42.5	-66.1	12.0
2025-01-28 16:39:42.406156	168.2	42.8	-65.9	12.9
2025-01-28 16:39:43.550128	168.3	43.1	-65.5	10.9
2025-01-28 16:39:44.691108	168.4	43.4	-65.7	12.6
2025-01-28 16:39:45.835078	168.5	43.8	-64.4	9.3
2025-01-28 16:39:46.977054	168.6	44.1	-64.6	10.5
2025-01-28 16:39:48.119031	168.7	44.4	-64.8	11.0
2025-01-28 16:39:49.265994	168.8	44.7	-64.0	6.6
2025-01-28 16:39:50.406974	168.9	45.1	-64.7	12.7
2025-01-28 16:39:51.546955	169.0	45.4	-65.0	11.9
2025-01-28 16:39:52.689929	169.1	45.7	-65.0	13.0
2025-01-28 16:39:53.831905	169.2	46.1	-65.4	12.4
2025-01-28 16:39:54.973883	169.3	46.4	-64.9	10.5
2025-01-28 16:39:56.116856	169.4	46.8	-64.6	11.0
2025-01-28 16:39:57.260827	169.5	47.1	-64.8	11.9
2025-01-28 16:39:58.404799	169.6	47.5	-64.0	9.7
2025-01-28 16:39:59.549767	169.7	47.8	-63.8	10.1
2025-01-28 16:40:00.690747	169.8	48.2	-63.9	8.2
2025-01-28 16:40:01.832233	170.0	48.5	-64.2	10.2
2025-01-28 16:40:02.974209	170.1	48.9	-64.0	8.8
2025-01-28 16:40:04.117183	170.2	49.3	-64.4	10.8
2025-01-28 16:40:05.258162	170.3	49.6	-64.2	10.5
2025-01-28 16:40:06.405125	170.5	50.0	-64.8	12.1
2025-01-28 16:40:07.547102	170.6	50.4	-63.7	9.4
2025-01-28 16:40:08.692579	170.7	50.7	-64.1	9.3
2025-01-28 16:40:09.835553	170.9	51.1	-65.8	12.7
2025-01-28 16:40:10.975534	171.0	51.5	-64.6	8.9
2025-01-28 16:40:12.126487	171.2	51.9	-65.0	9.2
2025-01-28 16:40:13.268464	171.3	52.3	-64.0	8.2
2025-01-28 16:40:14.409443	171.5	52.7	-63.6	7.7
2025-01-28 16:40:15.551442	171.6	53.1	-64.4	8.7
2025-01-28 16:40:16.694415	171.8	53.4	-65.0	9.1
2025-01-28 16:40:17.836392	172.0	53.8	-64.4	7.1
2025-01-28 16:40:18.981360	172.1	54.2	-64.7	5.1
2025-01-28 16:40:20.124343	172.3	54.7	-64.1	5.9
2025-01-28 16:40:21.266310	172.5	55.1	-64.9	6.6
2025-01-28 16:40:22.408794	172.7	55.5	-64.8	6.1
2025-01-28 16:40:23.550771	172.9	55.9	-64.4	6.6
2025-01-28 16:40:24.693745	173.1	56.3	-64.2	7.2
2025-01-28 16:40:25.835720	173.3	56.7	-64.8	7.5
2025-01-28 16:40:26.978695	173.5	57.1	-64.4	7.0
2025-01-28 16:40:28.119674	173.7	57.6	-66.3	10.6
2025-01-28 16:40:29.260162	173.9	58.0	-65.7	8.5
2025-01-28 16:40:30.401141	174.2	58.4	-67.3	12.4
2025-01-28 16:40:31.543117	174.4	58.8	-64.0	7.5
2025-01-28 16:40:32.684097	174.7	59.3	-64.7	8.1
2025-01-28 16:40:33.825583	174.9	59.7	-65.6	6.8
2025-01-28 16:40:34.967559	175.2	60.2	-65.9	9.0
2025-01-28 16:40:36.109535	175.4	60.6	-64.4	4.7
2025-01-28 16:40:37.255501	175.7	61.0	-66.5	11.5
2025-01-28 16:40:38.397478	176.0	61.5	-65.6	6.9
2025-01-28 16:40:39.539454	176.3	61.9	-65.0	6.1
2025-01-28 16:40:40.682428	176.6	62.4	-65.1	6.7
2025-01-28 16:40:41.829392	177.0	62.8	-65.7	10.2
2025-01-28 16:40:42.972365	177.3	63.3	-66.6	11.7
2025-01-28 16:40:44.113857	177.7	63.8	-64.2	6.9
2025-01-28 16:40:45.256830	178.0	64.2	-65.3	9.9
2025-01-28 16:40:46.397810	178.4	64.7	-66.7	13.8
2025-01-28 16:40:47.538300	178.8	65.1	-65.4	9.8
2025-01-28 16:40:48.681275	179.2	65.6	-64.8	5.2
2025-01-28 16:40:49.822254	179.6	66.1	-66.3	12.3
2025-01-28 16:40:50.969724	180.1	66.5	-64.3	9.8
2025-01-28 16:40:52.113696	180.6	67.0	-65.3	10.5
2025-01-28 16:40:53.255672	181.0	67.5	-65.5	11.6
2025-01-28 16:40:54.397648	181.6	68.0	-64.8	7.8
2025-01-28 16:40:55.540622	182.1	68.4	-65.1	11.5
2025-01-28 16:40:56.681601	182.7	68.9	-64.8	10.4
2025-01-28 16:40:57.822091	183.2	69.4	-64.2	7.2
2025-01-28 16:40:58.965065	183.9	69.9	-63.8	8.2
2025-01-28 16:41:00.106044	184.5	70.3	-64.0	11.4
2025-01-28 16:41:01.249527	185.2	70.8	-65.0	13.9
2025-01-28 16:41:02.390506	185.9	71.3	-64.9	10.7
2025-01-28 16:41:03.535474	186.7	71.8	-64.6	11.5
2025-01-28 16:41:04.675965	187.5	72.2	-66.1	11.8
2025-01-28 16:41:05.818448	188.3	72.7	-65.9	7.7
2025-01-28 16:41:06.958430	189.2	73.2	-65.8	11.6
2025-01-28 16:41:08.099916	190.2	73.6	-65.3	10.5
2025-01-28 16:41:09.244884	191.2	74.1	-65.8	8.8
2025-01-28 16:41:10.388366	192.3	74.6	-64.7	7.5
2025-01-28 16:41:11.541823	193.4	75.0	-63.9	8.2
2025-01-28 16:41:12.683799	194.7	75.5	-64.3	7.6
2025-01-28 16:41:13.825776	196.0	75.9	-63.3	2.5
2025-01-28 16:41:14.972739	197.4	76.4	-64.0	4.0
2025-01-28 16:41:16.115713	198.8	76.8	-64.1	6.0
2025-01-28 16:41:17.257689	200.4	77.2	-63.2	2.6
2025-01-28 16:41:18.402658	202.1	77.6	-66.0	9.5
2025-01-28 16:41:19.544635	203.9	78.0	-64.5	7.9
2025-01-28 16:41:20.685614	205.9	78.4	-64.0	7.1
2025-01-28 16:41:21.831580	208.0	78.8	-64.0	4.4
2025-01-28 16:41:22.971562	210.2	79.2	-64.2	6.8
2025-01-28 16:41:24.117037	212.6	79.5	-62.8	0.0
2025-01-28 16:41:25.260011	215.1	79.9	-65.5	6.6
2025-01-28 16:41:26.401986	217.9	80.2	-64.9	6.6
2025-01-28 16:41:27.543963	220.7	80.5	-64.9	5.9
2025-01-28 16:41:28.684943	223.8	80.7	-65.2	7.6
2025-01-28 16:41:29.826919	227.1	81.0	-63.7	3.2
2025-01-28 16:41:30.969893	230.5	81.2	-64.4	5.1
2025-01-28 16:41:32.111379	234.0	81.4	-64.8	3.1
2025-01-28 16:41:33.254352	237.7	81.5	-65.1	4.0
2025-01-28 16:41:34.397325	241.5	81.6	-65.2	5.0
2025-01-28 16:41:35.544797	245.4	81.7	-65.6	6.5
2025-01-28 16:41:36.687771	249.4	81.7	-63.3	2.2
2025-01-28 16:41:37.828259	253.3	81.7	-65.3	6.1
2025-01-28 16:41:38.969261	257.2	81.6	-64.4	4.8
2025-01-28 16:41:40.113232	261.1	81.6	-65.1	4.3
2025-01-28 16:41:41.255209	264.9	81.4	-63.6	3.8
2025-01-28 16:41:42.398697	268.5	81.3	-64.1	3.2
2025-01-28 16:41:43.538671	272.0	81.1	-64.0	4.4
2025-01-28 16:41:44.681645	275.3	80.9	-63.4	3.9
2025-01-28 16:41:45.823621	278.5	80.6	-64.0	3.3
2025-01-28 16:41:46.965599	281.5	80.3	-62.1	0.0
2025-01-28 16:41:48.110567	284.3	80.0	-64.3	3.1
2025-01-28 16:41:49.251546	286.9	79.7	-64.4	3.0
2025-01-28 16:41:50.395026	289.4	79.4	-64.1	0.0
2025-01-28 16:41:51.535008	291.7	79.0	-62.5	0.8
2025-01-28 16:41:52.680974	293.9	78.6	-63.7	3.3
2025-01-28 16:41:53.822950	295.9	78.3	-63.0	0.0
2025-01-28 16:41:54.964927	297.8	77.9	-64.6	3.7
2025-01-28 16:41:56.108410	299.6	77.4	-63.1	4.3
2025-01-28 16:41:57.247394	301.2	77.0	-62.3	0.4
2025-01-28 16:41:58.395355	302.7	76.6	-63.3	4.9
2025-01-28 16:41:59.538329	304.2	76.2	-63.8	6.6
2025-01-28 16:42:00.680306	305.5	75.7	-63.9	5.2
2025-01-28 16:42:01.823279	306.8	75.3	-62.6	4.6
2025-01-28 16:42:02.965763	308.0	74.8	-63.2	5.7
2025-01-28 16:42:04.109734	309.1	74.3	-63.1	5.2
2025-01-28 16:42:05.250713	310.1	73.9	-62.1	4.2
2025-01-28 16:42:06.392199	311.1	73.4	-64.2	7.0
2025-01-28 16:42:07.537674	312.1	73.0	-62.7	5.1
2025-01-28 16:42:08.679650	312.9	72.5	-62.1	3.5
2025-01-28 16:42:09.823622	313.8	72.0	-62.3	4.7
2025-01-28 16:42:10.966596	314.5	71.5	-60.3	3.6
2025-01-28 16:42:12.109571	315.3	71.1	-61.4	2.7
2025-01-28 16:42:13.250582	316.0	70.6	-60.7	2.5
2025-01-28 16:42:14.392559	316.7	70.1	-62.8	7.8
2025-01-28 16:42:15.537528	317.3	69.6	-61.2	5.2
2025-01-28 16:42:16.679014	317.9	69.2	-60.5	1.9
2025-01-28 16:42:17.820990	318.5	68.7	-62.5	5.2
2025-01-28 16:42:18.964472	319.0	68.2	-61.7	6.7
2025-01-28 16:42:20.104962	319.6	67.7	-60.8	3.9
2025-01-28 16:42:21.247937	320.1	67.3	-59.9	1.2
2025-01-28 16:42:22.393904	320.6	66.8	-61.8	6.0
2025-01-28 16:42:23.537388	321.0	66.3	-58.6	2.7
2025-01-28 16:42:24.680362	321.5	65.9	-60.3	3.5
2025-01-28 16:42:25.822338	321.9	65.4	-59.4	1.6
2025-01-28 16:42:26.963824	322.3	64.9	-58.7	0.7
2025-01-28 16:42:28.105801	322.7	64.5	-59.5	3.3
2025-01-28 16:42:29.246780	323.0	64.0	-60.2	4.2
2025-01-28 16:42:30.389754	323.4	63.6	-59.7	2.7
2025-01-28 16:42:31.530733	323.7	63.1	-59.6	2.5
2025-01-28 16:42:32.673707	324.1	62.6	-59.9	1.0
2025-01-28 16:42:33.816194	324.4	62.2	-62.1	0.0
2025-01-28 16:42:34.959168	324.7	61.7	-59.2	0.0
2025-01-28 16:42:36.100146	325.0	61.3	-58.8	0.0
2025-01-28 16:42:37.243121	325.3	60.8	-58.0	0.0
2025-01-28 16:42:38.384100	325.6	60.4	-58.8	0.0
2025-01-28 16:42:39.528071	325.8	60.0	-58.3	0.0
2025-01-28 16:42:40.671045	326.1	59.5	-58.9	0.0
2025-01-28 16:42:41.815017	326.4	59.1	-59.9	0.0
2025-01-28 16:42:42.958987	326.6	58.7	-58.8	0.0
2025-01-28 16:42:44.101961	326.8	58.2	-59.0	0.0
2025-01-28 16:42:45.242940	327.1	57.8	-58.2	0.0
2025-01-28 16:42:46.388907	327.3	57.4	-58.0	0.0
2025-01-28 16:42:47.532878	327.5	56.9	-58.9	0.0
2025-01-28 16:42:48.673858	327.7	56.5	-55.2	0.0
2025-01-28 16:42:49.816831	327.9	56.1	-58.7	0.0
2025-01-28 16:42:50.956324	328.1	55.7	-60.7	0.0
2025-01-28 16:42:52.114259	328.3	55.3	-61.4	0.0
2025-01-28 16:42:53.260224	328.5	54.9	-58.8	0.0
2025-01-28 16:42:54.408185	328.7	54.5	-61.2	0.0
2025-01-28 16:42:55.551159	328.8	54.1	-61.2	0.0
2025-01-28 16:42:56.692137	329.0	53.7	-59.4	0.0
2025-01-28 16:42:57.834114	329.2	53.3	-59.8	0.0
2025-01-28 16:42:58.977088	329.3	52.9	-60.1	0.0
2025-01-28 16:43:00.121059	329.5	52.5	-59.8	0.0
2025-01-28 16:43:01.265030	329.7	52.1	-58.8	0.0
2025-01-28 16:43:02.407007	329.8	51.7	-61.6	3.1
2025-01-28 16:43:03.548983	329.9	51.3	-59.8	0.0
2025-01-28 16:43:04.690960	330.1	50.9	-60.5	0.0
2025-01-28 16:43:05.831939	330.2	50.6	-59.0	0.0
2025-01-28 16:43:06.973916	330.4	50.2	-60.9	3.5
2025-01-28 16:43:08.116890	330.5	49.8	-60.7	2.4
2025-01-28 16:43:09.257869	330.6	49.5	-60.7	4.2
2025-01-28 16:43:10.399845	330.8	49.1	-61.3	2.5
2025-01-28 16:43:11.542819	330.9	48.7	-61.8	4.3
2025-01-28 16:43:12.686790	331.0	48.4	-60.3	1.3
2025-01-28 16:43:13.827769	331.1	48.0	-60.3	2.2
2025-01-28 16:43:14.969746	331.2	47.7	-59.3	2.4
2025-01-28 16:43:16.114715	331.3	47.3	-62.0	4.9
2025-01-28 16:43:17.256691	331.5	47.0	-61.2	4.6
2025-01-28 16:43:18.402657	331.6	46.6	-59.2	0.0
2025-01-28 16:43:19.545631	331.7	46.3	-63.4	7.5
2025-01-28 16:43:20.687118	331.8	45.9	-60.8	2.9
2025-01-28 16:43:21.828606	331.9	45.6	-61.1	3.3
2025-01-28 16:43:22.970583	332.0	45.3	-60.2	2.0
2025-01-28 16:43:24.114557	332.1	44.9	-61.7	4.7
2025-01-28 16:43:25.258036	332.2	44.6	-59.4	1.0
2025-01-28 16:43:26.399015	332.3	44.3	-61.7	3.8
2025-01-28 16:43:27.543983	332.4	43.9	-61.5	3.0
2025-01-28 16:43:28.684963	332.5	43.6	-60.9	2.2
2025-01-28 16:43:29.828934	332.5	43.3	-61.9	0.8
2025-01-28 16:43:30.971907	332.6	43.0	-62.0	1.0
2025-01-28 16:43:32.113887	332.7	42.7	-63.1	2.7
2025-01-28 16:43:33.254863	332.8	42.4	-60.0	0.0
2025-01-28 16:43:34.398836	332.9	42.1	-61.2	0.0
2025-01-28 16:43:35.540811	333.0	41.7	-60.7	0.0
2025-01-28 16:43:36.683785	333.0	41.4	-62.8	4.3
2025-01-28 16:43:37.826759	333.1	41.1	-61.4	0.0
2025-01-28 16:43:38.967249	333.2	40.8	-61.5	0.0
2025-01-28 16:43:40.109226	333.3	40.5	-59.5	0.0
2025-01-28 16:43:41.250205	333.4	40.3	-59.4	0.0
2025-01-28 16:43:42.391201	333.4	40.0	-61.1	0.0
2025-01-28 16:43:43.533684	333.5	39.7	-60.7	1.7
2025-01-28 16:43:44.675661	333.6	39.4	-62.0	0.0
2025-01-28 16:43:45.821627	333.6	39.1	-62.6	2.3
2025-01-28 16:43:46.962606	333.7	38.8	-60.3	0.0
2025-01-28 16:43:48.105580	333.8	38.5	-61.2	0.6
2025-01-28 16:43:49.246068	333.8	38.3	-60.6	0.0
2025-01-28 16:43:50.390041	333.9	38.0	-61.9	1.3
2025-01-28 16:43:51.532524	334.0	37.7	-61.5	4.9
2025-01-28 16:43:52.675498	334.0	37.4	-59.5	0.7
2025-01-28 16:43:53.814990	334.1	37.2	-61.0	0.0
2025-01-28 16:43:54.957964	334.2	36.9	-59.6	0.5
2025-01-28 16:43:56.098943	334.2	36.6	-60.1	1.2
2025-01-28 16:43:57.240919	334.3	36.4	-59.4	2.0
2025-01-28 16:43:58.382897	334.3	36.1	-60.4	5.5
2025-01-28 16:43:59.530369	334.4	35.9	-59.1	1.0
2025-01-28 16:44:00.674339	334.5	35.6	-57.7	0.0
2025-01-28 16:44:01.817312	334.5	35.3	-57.7	0.1
2025-01-28 16:44:02.957803	334.6	35.1	-57.2	0.0
2025-01-28 16:44:04.100778	334.6	34.8	-57.9	0.0
2025-01-28 16:44:05.244749	334.7	34.6	-59.8	2.3
2025-01-28 16:44:06.387722	334.7	34.3	-59.3	0.0
2025-01-28 16:44:07.529699	334.8	34.1	-60.3	3.5
2025-01-28 16:44:08.670678	334.8	33.9	-57.8	0.0
2025-01-28 16:44:09.812166	334.9	33.6	-57.4	0.0
2025-01-28 16:44:10.954142	334.9	33.4	-57.6	0.0
2025-01-28 16:44:12.096119	335.0	33.1	-60.9	3.0
2025-01-28 16:44:13.238603	335.0	32.9	-58.7	0.0
2025-01-28 16:44:14.381575	335.1	32.7	-58.4	0.0
2025-01-28 16:44:15.524549	335.1	32.4	-61.0	3.0
2025-01-28 16:44:16.666037	335.2	32.2	-61.0	3.0
2025-01-28 16:44:17.816991	335.2	32.0	-57.2	0.0
2025-01-28 16:44:18.957971	335.3	31.7	-57.8	0.0
2025-01-28 16:44:20.101451	335.3	31.5	-60.0	0.4
2025-01-28 16:44:21.244426	335.4	31.3	-60.6	2.7
2025-01-28 16:44:22.390392	335.4	31.1	-59.0	0.0
2025-01-28 16:44:23.532875	335.4	30.9	-56.6	0.0
2025-01-28 16:44:24.674851	335.5	30.6	-60.0	1.0
2025-01-28 16:44:25.816828	335.5	30.4	-58.9	0.0
2025-01-28 16:44:26.961305	335.6	30.2	-58.5	0.0
2025-01-28 16:44:28.103282	335.6	30.0	-60.9	0.0
#Closed at: 2025-01-28 16:38:40.998674