passes_logs/2025/01/28/Planum_Noyabrsk/Planum_Noyabrsk__20250128_214732_METEOR-M2_4_rec.log

#Pass ID: 20250128_214732_METEOR-M2 4
#Satellite: METEOR-M2 4
#Configuration: METEOR-M2 4
#Start time: 2025-01-28 21:47:37.903101

#LorettStation: 1.0.0 05.05.2024
#Station: Planum_Noyabrsk
#Location: 75.446886 lon 63.207202 lat
#TLE: 1 59051U 24039A   25028.39390490  .00000111  00000+0  69128-4 0  9994
#TLE: 2 59051  98.6312 351.1223 0006848 182.9091 177.2049 14.22329730 47503

#Time	Az	El	Level	SNR
2025-01-28 21:47:46.109937	59.3	30.9	-59.0	4.6
2025-01-28 21:47:47.253889	59.7	31.1	-59.6	0.0
2025-01-28 21:47:48.395361	60.0	31.2	-59.3	0.0
2025-01-28 21:47:49.535325	60.3	31.3	-59.7	6.8
2025-01-28 21:47:50.678283	60.7	31.5	-51.1	0.0
2025-01-28 21:47:51.819245	61.0	31.6	-57.2	2.3
2025-01-28 21:47:52.966191	61.4	31.7	-54.8	0.0
2025-01-28 21:47:54.109148	61.7	31.8	-57.4	4.5
2025-01-28 21:47:55.249622	62.1	32.0	-57.9	4.8
2025-01-28 21:47:56.394574	62.4	32.1	-56.3	0.0
2025-01-28 21:47:57.538528	62.8	32.2	-58.9	8.3
2025-01-28 21:47:58.680488	63.2	32.3	-53.8	0.0
2025-01-28 21:47:59.822447	63.5	32.5	-56.6	0.0
2025-01-28 21:48:00.965404	63.9	32.6	-52.6	0.0
2025-01-28 21:48:02.108390	64.3	32.7	-57.3	0.0
2025-01-28 21:48:03.250349	64.6	32.8	-56.6	0.0
2025-01-28 21:48:04.392308	65.0	32.9	-58.9	0.0
2025-01-28 21:48:05.534268	65.4	33.1	-63.6	10.7
2025-01-28 21:48:06.676228	65.8	33.2	-59.4	5.0
2025-01-28 21:48:07.821179	66.2	33.3	-55.8	0.0
2025-01-28 21:48:08.963158	66.6	33.4	-59.8	0.0
2025-01-28 21:48:10.109106	66.9	33.5	-64.1	0.0
2025-01-28 21:48:11.251066	67.3	33.6	-63.8	3.6
2025-01-28 21:48:12.393533	67.7	33.8	-63.4	0.0
2025-01-28 21:48:13.534495	68.1	33.9	-62.5	6.2
2025-01-28 21:48:14.676455	68.5	34.0	-62.5	0.0
2025-01-28 21:48:15.818415	68.9	34.1	-63.7	0.8
2025-01-28 21:48:16.963366	69.3	34.2	-60.6	0.0
2025-01-28 21:48:18.108318	69.8	34.3	-65.2	5.6
2025-01-28 21:48:19.251784	70.2	34.4	-61.2	6.4
2025-01-28 21:48:20.398729	70.6	34.5	-62.8	0.0
2025-01-28 21:48:21.538694	71.0	34.6	-64.6	9.3
2025-01-28 21:48:22.680653	71.4	34.7	-62.7	4.5
2025-01-28 21:48:23.822613	71.8	34.8	-58.8	0.2
2025-01-28 21:48:24.964573	72.3	34.9	-60.6	0.1
2025-01-28 21:48:26.105555	72.7	35.0	-56.8	0.0
2025-01-28 21:48:27.250505	73.1	35.1	-58.7	0.0
2025-01-28 21:48:28.395457	73.5	35.2	-56.1	0.0
2025-01-28 21:48:29.540409	74.0	35.3	-59.8	2.7
2025-01-28 21:48:30.682368	74.4	35.4	-57.5	0.0
2025-01-28 21:48:31.823837	74.9	35.5	-57.5	0.0
2025-01-28 21:48:32.962804	75.3	35.6	-59.8	0.8
2025-01-28 21:48:34.106758	75.7	35.7	-60.5	0.0
2025-01-28 21:48:35.247739	76.2	35.7	-58.3	2.9
2025-01-28 21:48:36.388721	76.6	35.8	-52.7	0.0
2025-01-28 21:48:37.530680	77.1	35.9	-58.6	0.0
2025-01-28 21:48:38.672639	77.5	36.0	-51.2	0.0
2025-01-28 21:48:39.814599	78.0	36.1	-51.5	0.0
2025-01-28 21:48:40.954076	78.5	36.1	-51.0	0.0
2025-01-28 21:48:42.096036	78.9	36.2	-52.9	0.0
2025-01-28 21:48:43.237994	79.4	36.3	-56.9	0.0
2025-01-28 21:48:44.378973	79.8	36.4	-51.8	0.0
2025-01-28 21:48:45.521438	80.3	36.4	-51.9	0.0
2025-01-28 21:48:46.662400	80.8	36.5	-56.0	0.0
2025-01-28 21:48:47.808855	81.2	36.6	-51.3	0.0
2025-01-28 21:48:48.950815	81.7	36.6	-51.4	0.0
2025-01-28 21:48:50.096763	82.2	36.7	-51.5	0.0
2025-01-28 21:48:51.239721	82.7	36.8	-51.5	0.0
2025-01-28 21:48:52.381680	83.1	36.8	-51.1	0.0
2025-01-28 21:48:53.527629	83.6	36.9	-59.3	0.0
2025-01-28 21:48:54.668591	84.1	36.9	-51.4	0.0
2025-01-28 21:48:55.810551	84.6	37.0	-50.6	0.0
2025-01-28 21:48:56.956499	85.1	37.0	-54.6	0.0
2025-01-28 21:48:58.099457	85.6	37.1	-49.4	0.0
2025-01-28 21:48:59.241416	86.0	37.1	-49.6	0.0
2025-01-28 21:49:00.382378	86.5	37.1	-50.6	0.0
2025-01-28 21:49:01.531320	87.0	37.2	-57.7	0.0
2025-01-28 21:49:02.673279	87.5	37.2	-52.2	0.0
2025-01-28 21:49:03.815238	88.0	37.3	-48.8	0.0
2025-01-28 21:49:04.957197	88.5	37.3	-55.2	0.0
2025-01-28 21:49:06.100155	89.0	37.3	-52.5	0.0
2025-01-28 21:49:07.242114	89.5	37.4	-57.2	0.0
2025-01-28 21:49:08.383076	90.0	37.4	-50.9	0.0
2025-01-28 21:49:09.526033	90.5	37.4	-52.1	0.0
2025-01-28 21:49:10.670009	91.0	37.4	-56.0	0.0
2025-01-28 21:49:11.814961	91.5	37.4	-51.8	0.0
2025-01-28 21:49:12.957918	92.0	37.5	-50.3	0.0
2025-01-28 21:49:14.099387	92.5	37.5	-52.1	0.0
2025-01-28 21:49:15.241346	93.0	37.5	-50.4	0.0
2025-01-28 21:49:16.386298	93.5	37.5	-52.2	0.0
2025-01-28 21:49:17.529254	94.0	37.5	-51.2	0.0
2025-01-28 21:49:18.670216	94.5	37.5	-58.0	0.0
2025-01-28 21:49:19.812176	94.9	37.5	-51.4	0.0
2025-01-28 21:49:20.954642	95.4	37.5	-50.6	0.0
2025-01-28 21:49:22.097111	95.9	37.5	-51.7	0.0
2025-01-28 21:49:23.241064	96.4	37.5	-52.8	0.0
2025-01-28 21:49:24.383529	96.9	37.5	-54.8	0.0
2025-01-28 21:49:25.525489	97.4	37.5	-53.8	0.0
2025-01-28 21:49:26.667448	97.9	37.5	-54.3	0.0
2025-01-28 21:49:27.809916	98.4	37.5	-53.2	0.0
2025-01-28 21:49:28.950877	98.9	37.4	-54.6	0.0
2025-01-28 21:49:30.093835	99.4	37.4	-54.2	0.0
2025-01-28 21:49:31.236791	99.9	37.4	-54.0	0.0
2025-01-28 21:49:32.378751	100.4	37.4	-57.7	0.0
2025-01-28 21:49:33.519713	100.9	37.4	-51.0	0.0
2025-01-28 21:49:34.662670	101.4	37.3	-55.2	0.0
2025-01-28 21:49:35.807621	101.9	37.3	-60.8	0.0
2025-01-28 21:49:36.949581	102.4	37.3	-58.3	0.0
2025-01-28 21:49:38.091540	102.9	37.2	-57.9	0.0
2025-01-28 21:49:39.234006	103.4	37.2	-60.8	2.1
2025-01-28 21:49:40.374968	103.9	37.2	-59.9	0.0
2025-01-28 21:49:41.520917	104.4	37.1	-57.8	0.0
2025-01-28 21:49:42.661388	104.9	37.1	-56.2	0.0
2025-01-28 21:49:43.804346	105.3	37.0	-53.3	0.0
2025-01-28 21:49:44.944310	105.8	37.0	-60.8	0.0
2025-01-28 21:49:46.092255	106.3	36.9	-63.1	0.0
2025-01-28 21:49:47.235211	106.8	36.9	-64.4	1.0
2025-01-28 21:49:48.379165	107.3	36.8	-62.1	0.0
2025-01-28 21:49:49.521125	107.7	36.8	-61.2	0.0
2025-01-28 21:49:50.663084	108.2	36.7	-58.4	0.0
2025-01-28 21:49:51.804564	108.7	36.6	-62.5	0.0
2025-01-28 21:49:52.946523	109.2	36.6	-57.5	0.0
2025-01-28 21:49:54.093469	109.6	36.5	-58.7	0.0
2025-01-28 21:49:55.234432	110.1	36.4	-60.9	0.0
2025-01-28 21:49:56.377389	110.6	36.4	-55.2	0.0
2025-01-28 21:49:57.520346	111.0	36.3	-62.7	5.7
2025-01-28 21:49:58.663302	111.5	36.2	-62.6	0.0
2025-01-28 21:49:59.805767	112.0	36.2	-57.2	0.0
2025-01-28 21:50:00.951717	112.4	36.1	-56.9	0.0
2025-01-28 21:50:02.093676	112.9	36.0	-57.8	0.0
2025-01-28 21:50:03.236650	113.3	35.9	-58.2	0.0
2025-01-28 21:50:04.380606	113.8	35.8	-59.9	0.0
2025-01-28 21:50:05.522564	114.2	35.7	-62.6	0.0
2025-01-28 21:50:06.664032	114.7	35.7	-57.4	0.0
2025-01-28 21:50:07.804503	115.1	35.6	-57.9	0.0
2025-01-28 21:50:08.949455	115.6	35.5	-59.0	0.0
2025-01-28 21:50:10.094914	116.0	35.4	-62.9	1.5
2025-01-28 21:50:11.237381	116.5	35.3	-58.2	0.0
2025-01-28 21:50:12.377851	116.9	35.2	-60.8	4.3
2025-01-28 21:50:13.522803	117.3	35.1	-59.9	1.8
2025-01-28 21:50:14.663765	117.8	35.0	-57.9	0.0
2025-01-28 21:50:15.807719	118.2	34.9	-58.4	0.0
2025-01-28 21:50:16.954173	118.6	34.8	-55.6	0.0
2025-01-28 21:50:18.095136	119.0	34.7	-62.1	6.0
2025-01-28 21:50:19.237095	119.5	34.6	-60.7	7.2
2025-01-28 21:50:20.377060	119.9	34.5	-61.5	5.1
2025-01-28 21:50:21.525004	120.3	34.4	-59.6	0.0
2025-01-28 21:50:22.666963	120.7	34.3	-58.8	7.1
2025-01-28 21:50:23.811916	121.1	34.2	-58.1	0.0
2025-01-28 21:50:24.953874	121.5	34.1	-57.1	0.0
2025-01-28 21:50:26.095343	121.9	34.0	-58.8	4.2
2025-01-28 21:50:27.242289	122.3	33.9	-61.1	5.0
2025-01-28 21:50:28.383251	122.7	33.7	-58.6	0.1
2025-01-28 21:50:29.524722	123.1	33.6	-60.2	0.0
2025-01-28 21:50:30.666682	123.5	33.5	-58.4	1.3
2025-01-28 21:50:31.808641	123.9	33.4	-58.0	0.0
2025-01-28 21:50:32.950114	124.3	33.3	-58.4	0.0
2025-01-28 21:50:34.092073	124.7	33.2	-58.5	1.2
2025-01-28 21:50:35.234033	125.1	33.1	-58.7	0.0
2025-01-28 21:50:36.375992	125.5	32.9	-59.9	0.0
2025-01-28 21:50:37.518968	125.8	32.8	-61.0	4.7
2025-01-28 21:50:38.661922	126.2	32.7	-59.8	0.0
2025-01-28 21:50:39.803882	126.6	32.6	-57.4	0.0
2025-01-28 21:50:40.945350	127.0	32.4	-55.3	0.0
2025-01-28 21:50:42.088813	127.3	32.3	-57.1	0.0
2025-01-28 21:50:43.230772	127.7	32.2	-57.4	0.0
2025-01-28 21:50:44.379713	128.0	32.1	-57.4	0.0
2025-01-28 21:50:45.522671	128.4	31.9	-56.3	0.0
2025-01-28 21:50:46.663632	128.8	31.8	-57.6	0.0
2025-01-28 21:50:47.805591	129.1	31.7	-57.3	0.0
2025-01-28 21:50:48.947551	129.5	31.6	-54.8	0.0
2025-01-28 21:50:50.091505	129.8	31.4	-58.0	0.0
2025-01-28 21:50:51.234462	130.2	31.3	-57.3	0.0
2025-01-28 21:50:52.377419	130.5	31.2	-57.7	0.0
2025-01-28 21:50:53.519888	130.8	31.1	-58.3	0.0
2025-01-28 21:50:54.665837	131.2	30.9	-58.6	0.0
2025-01-28 21:50:55.810298	131.5	30.8	-58.0	0.0
2025-01-28 21:50:56.952765	131.8	30.7	-62.3	2.7
2025-01-28 21:50:58.093727	132.2	30.5	-59.5	0.0
2025-01-28 21:50:59.235687	132.5	30.4	-59.5	0.0
2025-01-28 21:51:00.376648	132.8	30.3	-58.8	0.9
2025-01-28 21:51:01.518608	133.1	30.1	-62.7	2.1
2025-01-28 21:51:02.661565	133.5	30.0	-70.6	0.0
#Closed at: 2025-01-28 21:47:32.906589