passes_logs/2025/01/28/Planum_Noyabrsk/Planum_Noyabrsk__20250128_061934_NOAA_19_rec.log

#Pass ID: 20250128_061934_NOAA 19
#Satellite: NOAA 19
#Configuration: NOAA 19
#Start time: 2025-01-28 06:19:39.231685

#LorettStation: 1.0.0 05.05.2024
#Station: Planum_Noyabrsk
#Location: 75.446886 lon 63.207202 lat
#TLE: 1 33591U 09005A   25027.46444201  .00000384  00000+0  22877-3 0  9999
#TLE: 2 33591  99.0174  91.3219 0013988  23.7282 336.4532 14.13270320823047

#Time	Az	El	Level	SNR
2025-01-28 06:19:45.430666	8.4	31.1	-61.1	4.4
2025-01-28 06:19:46.582630	8.3	31.3	-61.7	4.8
2025-01-28 06:19:47.727612	8.1	31.5	-60.9	1.8
2025-01-28 06:19:48.878599	8.0	31.7	-62.1	2.9
2025-01-28 06:19:50.024087	7.9	32.0	-61.5	2.0
2025-01-28 06:19:51.167075	7.7	32.2	-61.9	3.2
2025-01-28 06:19:52.312058	7.6	32.4	-63.7	5.9
2025-01-28 06:19:53.454049	7.4	32.6	-63.1	6.0
2025-01-28 06:19:54.600028	7.3	32.8	-64.6	6.8
2025-01-28 06:19:55.745030	7.1	33.0	-63.8	6.8
2025-01-28 06:19:56.890013	7.0	33.3	-63.8	4.6
2025-01-28 06:19:58.040497	6.8	33.5	-65.2	8.1
2025-01-28 06:19:59.185479	6.6	33.7	-64.7	6.9
2025-01-28 06:20:00.336448	6.5	33.9	-63.7	5.9
2025-01-28 06:20:01.481429	6.3	34.2	-66.4	10.7
2025-01-28 06:20:02.629404	6.2	34.4	-64.6	7.2
2025-01-28 06:20:03.777379	6.0	34.6	-66.8	10.9
2025-01-28 06:20:04.922361	5.8	34.9	-66.4	9.7
2025-01-28 06:20:06.067344	5.6	35.1	-64.8	7.2
2025-01-28 06:20:07.212327	5.5	35.3	-65.7	7.1
2025-01-28 06:20:08.358307	5.3	35.6	-65.6	9.4
2025-01-28 06:20:09.506282	5.1	35.8	-66.7	11.5
2025-01-28 06:20:10.653259	4.9	36.0	-66.4	11.8
2025-01-28 06:20:11.799239	4.7	36.3	-65.9	12.3
2025-01-28 06:20:12.947214	4.5	36.5	-65.0	9.3
2025-01-28 06:20:14.100176	4.4	36.8	-66.1	12.8
2025-01-28 06:20:15.244668	4.2	37.0	-65.2	12.2
2025-01-28 06:20:16.395149	4.0	37.3	-65.5	12.5
2025-01-28 06:20:17.542126	3.8	37.5	-65.7	13.9
2025-01-28 06:20:18.688107	3.6	37.7	-64.2	11.0
2025-01-28 06:20:19.832598	3.3	38.0	-64.8	9.6
2025-01-28 06:20:20.990547	3.1	38.3	-64.7	10.1
2025-01-28 06:20:22.134532	2.9	38.5	-63.9	8.2
2025-01-28 06:20:23.287494	2.7	38.8	-63.4	9.6
2025-01-28 06:20:24.434471	2.5	39.0	-65.3	13.7
2025-01-28 06:20:25.578457	2.2	39.3	-64.9	15.0
2025-01-28 06:20:26.731418	2.0	39.5	-63.4	12.0
2025-01-28 06:20:27.876401	1.8	39.8	-62.9	12.7
2025-01-28 06:20:29.025374	1.6	40.1	-61.9	7.6
2025-01-28 06:20:30.171353	1.3	40.3	-62.9	10.5
2025-01-28 06:20:31.317334	1.1	40.6	-62.0	8.9
2025-01-28 06:20:32.468300	0.8	40.8	-61.2	8.3
2025-01-28 06:20:33.614280	0.6	41.1	-62.3	9.4
2025-01-28 06:20:34.759281	0.3	41.4	-61.8	9.5
2025-01-28 06:20:35.910247	0.0	41.6	-62.4	9.7
2025-01-28 06:20:37.056227	359.8	41.9	-63.6	12.3
2025-01-28 06:20:38.207194	359.5	42.2	-60.3	5.1
2025-01-28 06:20:39.355189	359.2	42.5	-59.7	3.9
2025-01-28 06:20:40.501679	359.0	42.7	-63.0	11.5
2025-01-28 06:20:41.650651	358.7	43.0	-61.1	7.3
2025-01-28 06:20:42.796631	358.4	43.3	-63.2	9.8
2025-01-28 06:20:43.944606	358.1	43.6	-61.5	6.5
2025-01-28 06:20:45.096570	357.8	43.8	-61.5	6.7
2025-01-28 06:20:46.244545	357.5	44.1	-63.1	7.0
2025-01-28 06:20:47.390526	357.2	44.4	-58.6	2.8
2025-01-28 06:20:48.541492	356.9	44.7	-59.9	6.1
2025-01-28 06:20:49.687472	356.5	45.0	-59.7	5.0
2025-01-28 06:20:50.832964	356.2	45.3	-58.3	2.6
2025-01-28 06:20:51.978942	355.9	45.5	-58.8	4.3
2025-01-28 06:20:53.126919	355.5	45.8	-60.9	10.2
2025-01-28 06:20:54.272897	355.2	46.1	-56.8	0.0
2025-01-28 06:20:55.420873	354.8	46.4	-56.9	1.0
2025-01-28 06:20:56.568358	354.5	46.7	-54.7	0.0
2025-01-28 06:20:57.712343	354.1	47.0	-58.3	1.7
2025-01-28 06:20:58.859320	353.7	47.3	-61.8	6.4
2025-01-28 06:21:00.008294	353.4	47.6	-58.2	0.4
2025-01-28 06:21:01.157264	353.0	47.8	-59.3	0.0
2025-01-28 06:21:02.307234	352.6	48.1	-56.2	0.4
2025-01-28 06:21:03.454211	352.2	48.4	-58.0	1.8
2025-01-28 06:21:04.600192	351.8	48.7	-57.7	2.3
2025-01-28 06:21:05.751160	351.3	49.0	-56.5	1.2
2025-01-28 06:21:06.896141	350.9	49.3	-56.2	0.5
2025-01-28 06:21:08.041632	350.5	49.6	-59.4	5.4
2025-01-28 06:21:09.193596	350.0	49.9	-59.0	4.8
2025-01-28 06:21:10.338579	349.6	50.2	-57.7	1.2
2025-01-28 06:21:11.489565	349.1	50.5	-60.7	5.5
2025-01-28 06:21:12.635546	348.7	50.8	-58.2	2.0
2025-01-28 06:21:13.781526	348.2	51.1	-59.2	4.6
2025-01-28 06:21:14.930499	347.7	51.3	-58.4	0.1
2025-01-28 06:21:16.074483	347.2	51.6	-60.0	5.1
2025-01-28 06:21:17.221461	346.7	51.9	-55.2	0.0
2025-01-28 06:21:18.372427	346.2	52.2	-59.1	0.0
2025-01-28 06:21:19.517410	345.6	52.5	-59.1	4.8
2025-01-28 06:21:20.669395	345.1	52.8	-57.1	0.6
2025-01-28 06:21:21.815375	344.6	53.1	-57.7	3.0
2025-01-28 06:21:22.961355	344.0	53.4	-57.6	0.0
2025-01-28 06:21:24.113321	343.4	53.7	-58.5	4.9
2025-01-28 06:21:25.259299	342.8	53.9	-58.4	2.7
2025-01-28 06:21:26.406277	342.2	54.2	-56.6	0.0
2025-01-28 06:21:27.552257	341.6	54.5	-59.4	0.0
2025-01-28 06:21:28.695245	341.0	54.8	-55.8	0.0
2025-01-28 06:21:29.841225	340.4	55.1	-58.7	4.6
2025-01-28 06:21:30.983217	339.8	55.3	-56.2	0.0
2025-01-28 06:21:32.128198	339.1	55.6	-60.7	0.7
2025-01-28 06:21:33.272692	338.4	55.9	-59.4	3.3
2025-01-28 06:21:34.419180	337.8	56.1	-58.0	3.2
2025-01-28 06:21:35.561170	337.1	56.4	-57.2	0.0
2025-01-28 06:21:36.705662	336.4	56.7	-59.4	4.1
2025-01-28 06:21:37.850645	335.6	56.9	-58.3	2.2
2025-01-28 06:21:38.996137	334.9	57.2	-56.8	0.0
2025-01-28 06:21:40.147103	334.2	57.4	-57.8	3.2
2025-01-28 06:21:41.289095	333.4	57.7	-58.4	4.6
2025-01-28 06:21:42.431103	332.6	57.9	-56.7	0.4
2025-01-28 06:21:43.575088	331.8	58.2	-58.6	4.6
2025-01-28 06:21:44.718076	331.0	58.4	-57.4	0.0
2025-01-28 06:21:45.861064	330.2	58.6	-58.0	2.6
2025-01-28 06:21:47.006046	329.4	58.8	-58.1	6.7
2025-01-28 06:21:48.148546	328.6	59.1	-56.6	0.0
2025-01-28 06:21:49.290554	327.7	59.3	-59.6	5.8
2025-01-28 06:21:50.435536	326.8	59.5	-58.5	3.2
2025-01-28 06:21:51.578524	325.9	59.7	-57.2	0.0
2025-01-28 06:21:52.722511	325.0	59.9	-57.5	1.0
2025-01-28 06:21:53.866495	324.1	60.1	-57.6	3.5
2025-01-28 06:21:55.008485	323.2	60.3	-58.0	0.0
2025-01-28 06:21:56.151473	322.3	60.5	-59.2	1.8
2025-01-28 06:21:57.295458	321.3	60.6	-60.3	3.5
2025-01-28 06:21:58.438446	320.3	60.8	-57.0	0.0
2025-01-28 06:21:59.580457	319.4	61.0	-56.4	0.0
2025-01-28 06:22:00.729430	318.4	61.1	-56.8	0.0
2025-01-28 06:22:01.872418	317.4	61.3	-56.1	0.0
2025-01-28 06:22:03.013918	316.3	61.4	-56.2	0.0
2025-01-28 06:22:04.156906	315.3	61.5	-57.8	0.0
2025-01-28 06:22:05.301888	314.3	61.7	-58.6	0.5
2025-01-28 06:22:06.443896	313.2	61.8	-58.8	2.2
2025-01-28 06:22:07.585887	312.2	61.9	-58.2	0.0
2025-01-28 06:22:08.729392	311.1	62.0	-62.0	4.3
2025-01-28 06:22:09.877366	310.0	62.1	-63.8	5.6
2025-01-28 06:22:11.020355	308.9	62.2	-63.6	5.7
2025-01-28 06:22:12.167332	307.8	62.2	-61.7	4.6
2025-01-28 06:22:13.309832	306.7	62.3	-64.4	6.0
2025-01-28 06:22:14.451820	305.6	62.4	-59.8	2.0
2025-01-28 06:22:15.596313	304.5	62.4	-64.7	9.0
2025-01-28 06:22:16.740298	303.4	62.4	-61.7	4.1
2025-01-28 06:22:17.882288	302.3	62.5	-59.1	0.0
2025-01-28 06:22:19.031774	301.2	62.5	-63.5	5.6
2025-01-28 06:22:20.173765	300.1	62.5	-63.1	4.0
2025-01-28 06:22:21.316754	299.0	62.5	-61.6	3.1
2025-01-28 06:22:22.461735	297.8	62.5	-63.5	4.4
2025-01-28 06:22:23.610708	296.7	62.5	-62.1	6.1
2025-01-28 06:22:24.753696	295.6	62.4	-63.5	7.1
2025-01-28 06:22:25.895199	294.5	62.4	-62.8	5.7
2025-01-28 06:22:27.039181	293.4	62.4	-63.2	7.5
2025-01-28 06:22:28.181172	292.3	62.3	-62.1	6.8
2025-01-28 06:22:29.323182	291.2	62.2	-62.4	5.7
2025-01-28 06:22:30.467167	290.1	62.2	-63.8	7.9
2025-01-28 06:22:31.610155	289.0	62.1	-64.4	8.8
2025-01-28 06:22:32.753143	287.9	62.0	-64.2	6.2
2025-01-28 06:22:33.902115	286.9	61.9	-64.1	6.2
2025-01-28 06:22:35.044105	285.8	61.8	-64.6	10.3
2025-01-28 06:22:36.187093	284.8	61.7	-62.1	4.6
2025-01-28 06:22:37.330081	283.7	61.6	-64.4	10.6
2025-01-28 06:22:38.473069	282.7	61.4	-62.9	6.7
2025-01-28 06:22:39.617054	281.7	61.3	-63.2	7.4
2025-01-28 06:22:40.763035	280.7	61.1	-63.1	6.3
2025-01-28 06:22:41.904028	279.7	61.0	-61.9	6.5
2025-01-28 06:22:43.049011	278.7	60.8	-61.7	6.5
2025-01-28 06:22:44.197982	277.7	60.7	-62.5	6.8
2025-01-28 06:22:45.340970	276.8	60.5	-63.0	8.6
2025-01-28 06:22:46.482961	275.8	60.3	-65.1	12.4
2025-01-28 06:22:47.626947	274.9	60.1	-63.4	10.3
2025-01-28 06:22:48.769935	274.0	59.9	-63.8	8.8
2025-01-28 06:22:49.910927	273.1	59.7	-63.7	9.0
2025-01-28 06:22:51.055910	272.2	59.5	-63.4	9.3
2025-01-28 06:22:52.198898	271.3	59.3	-63.7	10.5
2025-01-28 06:22:53.346384	270.5	59.1	-64.2	11.6
2025-01-28 06:22:54.488375	269.6	58.9	-63.6	9.7
2025-01-28 06:22:55.631363	268.8	58.6	-64.9	12.1
2025-01-28 06:22:56.774351	268.0	58.4	-64.6	11.0
2025-01-28 06:22:57.917339	267.2	58.2	-64.2	11.3
2025-01-28 06:22:59.059329	266.4	57.9	-64.8	11.5
2025-01-28 06:23:00.199836	265.6	57.7	-65.1	12.2
2025-01-28 06:23:01.342824	264.8	57.5	-65.0	11.9
2025-01-28 06:23:02.484815	264.1	57.2	-65.1	11.9
2025-01-28 06:23:03.628309	263.4	56.9	-65.0	10.5
2025-01-28 06:23:04.771808	262.6	56.7	-64.9	11.3
2025-01-28 06:23:05.913307	261.9	56.4	-65.6	12.4
2025-01-28 06:23:07.054809	261.2	56.2	-64.5	10.7
2025-01-28 06:23:08.196799	260.6	55.9	-64.8	11.6
2025-01-28 06:23:09.344774	259.9	55.6	-64.9	11.2
2025-01-28 06:23:10.488759	259.2	55.4	-64.7	10.3
2025-01-28 06:23:11.632745	258.6	55.1	-64.8	10.1
2025-01-28 06:23:12.775733	258.0	54.8	-64.0	10.0
2025-01-28 06:23:13.918737	257.4	54.5	-63.4	8.6
2025-01-28 06:23:15.060727	256.8	54.3	-63.8	7.9
2025-01-28 06:23:16.202717	256.2	54.0	-64.0	9.8
2025-01-28 06:23:17.346212	255.6	53.7	-63.6	8.9
2025-01-28 06:23:18.487715	255.0	53.4	-64.2	9.5
2025-01-28 06:23:19.631698	254.4	53.1	-63.6	8.7
2025-01-28 06:23:20.777697	253.9	52.8	-64.1	9.4
2025-01-28 06:23:21.920686	253.4	52.6	-64.3	10.0
2025-01-28 06:23:23.062676	252.8	52.3	-65.4	11.6
2025-01-28 06:23:24.204691	252.3	52.0	-63.3	8.9
2025-01-28 06:23:25.347680	251.8	51.7	-64.6	9.6
2025-01-28 06:23:26.490667	251.3	51.4	-65.9	12.7
2025-01-28 06:23:27.633655	250.8	51.1	-64.5	9.9
2025-01-28 06:23:28.775646	250.3	50.8	-65.3	13.0
2025-01-28 06:23:29.916639	249.9	50.5	-66.2	12.1
2025-01-28 06:23:31.061622	249.4	50.2	-65.7	10.5
2025-01-28 06:23:32.207602	249.0	49.9	-64.7	10.6
2025-01-28 06:23:33.350589	248.5	49.7	-65.0	10.6
2025-01-28 06:23:34.493577	248.1	49.4	-65.8	11.6
2025-01-28 06:23:35.635568	247.7	49.1	-65.2	10.9
2025-01-28 06:23:36.777560	247.2	48.8	-65.4	10.6
2025-01-28 06:23:37.921054	246.8	48.5	-65.0	9.2
2025-01-28 06:23:39.063044	246.4	48.2	-65.3	9.5
2025-01-28 06:23:40.206032	246.0	47.9	-65.3	10.4
2025-01-28 06:23:41.350039	245.7	47.6	-66.2	11.6
2025-01-28 06:23:42.492007	245.3	47.3	-66.5	11.1
2025-01-28 06:23:43.633998	244.9	47.0	-67.4	13.6
2025-01-28 06:23:44.775008	244.5	46.8	-66.5	10.4
2025-01-28 06:23:45.917996	244.2	46.5	-66.5	11.0
2025-01-28 06:23:47.060493	243.8	46.2	-66.6	10.6
2025-01-28 06:23:48.206491	243.5	45.9	-66.7	11.5
2025-01-28 06:23:49.347484	243.1	45.6	-66.6	11.8
2025-01-28 06:23:50.490472	242.8	45.3	-67.9	13.4
2025-01-28 06:23:51.630974	242.5	45.0	-67.3	12.4
2025-01-28 06:23:52.773963	242.1	44.8	-67.0	12.0
2025-01-28 06:23:53.919942	241.8	44.5	-66.8	12.4
2025-01-28 06:23:55.064925	241.5	44.2	-67.4	13.7
2025-01-28 06:23:56.206916	241.2	43.9	-67.1	12.4
2025-01-28 06:23:57.347909	240.9	43.6	-67.4	13.3
2025-01-28 06:23:58.490917	240.6	43.4	-67.8	14.8
2025-01-28 06:23:59.632907	240.3	43.1	-67.0	13.8
2025-01-28 06:24:00.774898	240.0	42.8	-66.7	12.2
2025-01-28 06:24:01.918883	239.8	42.5	-67.1	12.7
2025-01-28 06:24:03.060383	239.5	42.3	-67.0	14.0
2025-01-28 06:24:04.203371	239.2	42.0	-67.5	14.3
2025-01-28 06:24:05.345361	239.0	41.7	-66.3	12.7
2025-01-28 06:24:06.486355	238.7	41.5	-67.1	13.6
2025-01-28 06:24:07.627347	238.4	41.2	-66.7	13.8
2025-01-28 06:24:08.769354	238.2	40.9	-67.1	14.6
2025-01-28 06:24:09.911345	237.9	40.7	-66.9	14.4
2025-01-28 06:24:11.056327	237.7	40.4	-66.9	13.9
2025-01-28 06:24:12.204810	237.4	40.1	-66.8	13.6
2025-01-28 06:24:13.349793	237.2	39.9	-67.1	13.9
2025-01-28 06:24:14.491783	237.0	39.6	-67.6	15.7
2025-01-28 06:24:15.633283	236.7	39.4	-67.6	15.1
2025-01-28 06:24:16.778266	236.5	39.1	-67.0	13.5
2025-01-28 06:24:17.926241	236.3	38.9	-67.0	13.1
2025-01-28 06:24:19.068231	236.1	38.6	-67.3	13.7
2025-01-28 06:24:20.212726	235.9	38.3	-67.4	13.2
2025-01-28 06:24:21.355714	235.6	38.1	-67.2	13.4
2025-01-28 06:24:22.497705	235.4	37.8	-67.5	14.7
2025-01-28 06:24:23.638698	235.2	37.6	-67.1	13.1
2025-01-28 06:24:24.781196	235.0	37.4	-67.1	13.1
2025-01-28 06:24:25.922188	234.8	37.1	-67.5	12.8
2025-01-28 06:24:27.068169	234.6	36.9	-67.8	12.4
2025-01-28 06:24:28.216143	234.4	36.6	-67.8	13.1
2025-01-28 06:24:29.358134	234.2	36.4	-67.2	12.1
2025-01-28 06:24:30.500124	234.1	36.1	-67.4	12.7
2025-01-28 06:24:31.642115	233.9	35.9	-67.3	11.4
2025-01-28 06:24:32.789092	233.7	35.7	-67.6	11.9
2025-01-28 06:24:33.932080	233.5	35.4	-67.3	11.3
2025-01-28 06:24:35.075068	233.3	35.2	-68.2	11.3
2025-01-28 06:24:36.218563	233.2	35.0	-67.7	10.6
2025-01-28 06:24:37.361550	233.0	34.7	-67.8	11.6
2025-01-28 06:24:38.505536	232.8	34.5	-67.6	11.6
2025-01-28 06:24:39.647526	232.7	34.3	-67.9	10.9
2025-01-28 06:24:40.789519	232.5	34.0	-67.9	11.1
2025-01-28 06:24:41.931018	232.3	33.8	-67.6	9.7
2025-01-28 06:24:43.074006	232.2	33.6	-67.6	11.1
2025-01-28 06:24:44.217500	232.0	33.4	-68.0	11.2
2025-01-28 06:24:45.359491	231.9	33.1	-67.6	10.4
2025-01-28 06:24:46.500990	231.7	32.9	-67.7	11.8
2025-01-28 06:24:47.643978	231.5	32.7	-66.9	9.0
2025-01-28 06:24:48.785969	231.4	32.5	-66.9	9.7
2025-01-28 06:24:49.936445	231.2	32.3	-67.7	10.3
2025-01-28 06:24:51.079433	231.1	32.1	-67.4	10.1
2025-01-28 06:24:52.220934	231.0	31.8	-67.2	9.8
2025-01-28 06:24:53.363922	230.8	31.6	-65.8	7.9
2025-01-28 06:24:54.506909	230.7	31.4	-65.9	8.5
2025-01-28 06:24:55.649407	230.5	31.2	-65.9	8.1
2025-01-28 06:24:56.790400	230.4	31.0	-65.5	6.6
2025-01-28 06:24:57.933388	230.3	30.8	-66.8	9.4
2025-01-28 06:24:59.075379	230.1	30.6	-66.6	8.9
2025-01-28 06:25:00.219364	230.0	30.4	-65.8	7.8
2025-01-28 06:25:01.362352	229.9	30.2	-66.7	9.4
2025-01-28 06:25:02.507336	229.7	30.0	-67.6	7.1
#Closed at: 2025-01-28 06:19:34.235665