passes_logs/2026/01/04/Regia/Regia__20260104_113037_AQUA_rec.log

#Pass ID: 20260104_113037_AQUA
#Satellite: AQUA
#Configuration: AQUA
#Start time: 2026-01-04 11:30:42.959545

#LorettStation: 1.0.0 05.05.2024
#Station: Regia
#Location: 37.494653 lon 55.929028 lat
#TLE: 1 27424U 02022A   25365.92641127  .00002078  00000+0  42628-3 0  9999
#TLE: 2 27424  98.4058 327.1196 0001962  94.7781 340.6230 14.61783896258835

#Time	Az	El	Level	SNR
2026-01-04 11:30:45.096270	153.4	15.3	-69.4	0.0
2026-01-04 11:30:46.211600	153.3	15.4	-69.4	0.0
2026-01-04 11:30:47.327838	153.3	15.5	-69.6	0.0
2026-01-04 11:30:48.443120	153.3	15.7	-69.4	0.0
2026-01-04 11:30:49.557972	153.3	15.8	-69.5	0.0
2026-01-04 11:30:50.674169	153.2	15.9	-69.5	0.0
2026-01-04 11:30:51.788105	153.2	16.1	-69.8	0.0
2026-01-04 11:30:52.905244	153.2	16.2	-69.2	0.0
2026-01-04 11:30:54.019109	153.1	16.3	-69.7	0.0
2026-01-04 11:30:55.138622	153.1	16.5	-69.5	0.0
2026-01-04 11:30:56.253174	153.1	16.6	-69.6	0.0
2026-01-04 11:30:57.367404	153.0	16.8	-69.2	0.0
2026-01-04 11:30:58.482261	153.0	16.9	-69.4	0.0
2026-01-04 11:30:59.596676	153.0	17.0	-69.5	0.0
2026-01-04 11:31:00.710925	153.0	17.2	-69.6	0.0
2026-01-04 11:31:01.826404	152.9	17.3	-69.5	0.0
2026-01-04 11:31:02.941566	152.9	17.5	-69.5	0.0
2026-01-04 11:31:04.057090	152.9	17.6	-69.4	0.0
2026-01-04 11:31:05.171994	152.8	17.8	-69.7	0.0
2026-01-04 11:31:06.291159	152.8	17.9	-69.5	0.0
2026-01-04 11:31:07.406122	152.8	18.1	-69.3	0.0
2026-01-04 11:31:08.520806	152.7	18.2	-69.5	0.0
2026-01-04 11:31:09.635902	152.7	18.4	-69.4	0.0
2026-01-04 11:31:10.751221	152.6	18.5	-69.6	0.0
2026-01-04 11:31:11.866235	152.6	18.7	-69.5	0.0
2026-01-04 11:31:12.981455	152.6	18.8	-69.5	0.0
2026-01-04 11:31:14.096513	152.5	19.0	-69.5	0.0
2026-01-04 11:31:15.211432	152.5	19.1	-69.3	0.0
2026-01-04 11:31:16.326178	152.5	19.3	-69.4	0.0
2026-01-04 11:31:17.440763	152.4	19.5	-69.4	0.0
2026-01-04 11:31:18.555950	152.4	19.6	-69.4	0.0
2026-01-04 11:31:19.671816	152.3	19.8	-69.1	0.0
2026-01-04 11:31:20.786493	152.3	19.9	-69.7	0.0
2026-01-04 11:31:21.901665	152.3	20.1	-69.6	0.0
2026-01-04 11:31:23.016170	152.2	20.3	-69.8	0.0
2026-01-04 11:31:24.130436	152.2	20.4	-69.5	0.0
2026-01-04 11:31:25.244877	152.1	20.6	-69.5	0.0
2026-01-04 11:31:26.359736	152.1	20.8	-69.3	0.0
2026-01-04 11:31:27.475015	152.1	20.9	-69.1	0.0
2026-01-04 11:31:28.588994	152.0	21.1	-69.3	0.0
2026-01-04 11:31:29.704852	152.0	21.3	-69.5	0.0
2026-01-04 11:31:30.819729	151.9	21.5	-69.4	0.0
2026-01-04 11:31:31.934397	151.9	21.6	-69.4	0.0
2026-01-04 11:31:33.049001	151.8	21.8	-69.5	0.0
2026-01-04 11:31:34.162725	151.8	22.0	-69.3	0.0
2026-01-04 11:31:35.276914	151.7	22.2	-69.5	0.0
2026-01-04 11:31:36.391729	151.7	22.3	-69.5	0.0
2026-01-04 11:31:37.506258	151.6	22.5	-69.7	0.0
2026-01-04 11:31:38.621165	151.6	22.7	-69.6	0.0
2026-01-04 11:31:39.735324	151.5	22.9	-69.4	0.0
2026-01-04 11:31:40.848820	151.5	23.1	-69.4	0.0
2026-01-04 11:31:41.965326	151.4	23.3	-69.1	0.0
2026-01-04 11:31:43.078772	151.4	23.4	-69.4	0.0
2026-01-04 11:31:44.193165	151.3	23.6	-69.1	0.0
2026-01-04 11:31:45.307236	151.3	23.8	-69.4	0.0
2026-01-04 11:31:46.429074	151.2	24.0	-69.4	0.0
2026-01-04 11:31:47.542678	151.2	24.2	-69.3	0.0
2026-01-04 11:31:48.660340	151.1	24.4	-69.6	0.0
2026-01-04 11:31:49.778367	151.1	24.6	-69.2	0.0
2026-01-04 11:31:50.892002	151.0	24.8	-69.5	0.0
2026-01-04 11:31:52.012267	151.0	25.0	-69.5	0.0
2026-01-04 11:31:53.126206	150.9	25.2	-69.4	0.0
2026-01-04 11:31:54.249025	150.8	25.4	-69.2	0.0
2026-01-04 11:31:55.364743	150.8	25.6	-69.6	0.0
2026-01-04 11:31:56.480784	150.7	25.8	-69.5	0.0
2026-01-04 11:31:57.596133	150.7	26.0	-69.6	0.0
2026-01-04 11:31:58.711211	150.6	26.3	-69.2	0.0
2026-01-04 11:31:59.827502	150.5	26.5	-69.6	0.0
2026-01-04 11:32:00.943955	150.5	26.7	-69.5	0.0
2026-01-04 11:32:02.064984	150.4	26.9	-69.6	0.0
2026-01-04 11:32:03.180019	150.3	27.1	-69.4	0.0
2026-01-04 11:32:04.302931	150.3	27.3	-69.3	0.0
2026-01-04 11:32:05.418218	150.2	27.6	-69.4	0.0
2026-01-04 11:32:06.539856	150.1	27.8	-69.7	0.0
2026-01-04 11:32:07.654661	150.1	28.0	-69.5	0.0
2026-01-04 11:32:08.776969	150.0	28.2	-69.4	0.0
2026-01-04 11:32:09.890201	149.9	28.5	-69.6	0.0
2026-01-04 11:32:11.005240	149.8	28.7	-69.7	0.0
2026-01-04 11:32:12.119978	149.8	28.9	-69.7	0.0
2026-01-04 11:32:13.234856	149.7	29.2	-69.7	0.0
2026-01-04 11:32:14.349795	149.6	29.4	-69.4	0.0
2026-01-04 11:32:15.464750	149.5	29.6	-69.7	0.0
2026-01-04 11:32:16.579759	149.5	29.9	-69.8	0.0
2026-01-04 11:32:17.693837	149.4	30.1	-69.7	0.0
2026-01-04 11:32:18.809366	149.3	30.4	-69.6	0.0
2026-01-04 11:32:19.923783	149.2	30.6	-69.6	0.0
2026-01-04 11:32:21.039158	149.1	30.9	-69.7	0.0
2026-01-04 11:32:22.153998	149.0	31.1	-69.6	0.0
2026-01-04 11:32:23.268223	149.0	31.4	-69.7	0.0
2026-01-04 11:32:24.387245	148.9	31.6	-69.7	0.0
2026-01-04 11:32:25.501459	148.8	31.9	-69.7	0.0
2026-01-04 11:32:26.631962	148.7	32.2	-69.3	0.0
2026-01-04 11:32:27.748434	148.6	32.4	-69.6	0.0
2026-01-04 11:32:28.864417	148.5	32.7	-69.7	0.0
2026-01-04 11:32:29.979271	148.4	33.0	-69.6	0.0
2026-01-04 11:32:31.093993	148.3	33.2	-69.7	0.0
2026-01-04 11:32:32.208035	148.2	33.5	-69.8	0.0
2026-01-04 11:32:33.322622	148.1	33.8	-69.7	0.0
2026-01-04 11:32:34.438675	148.0	34.1	-69.0	0.0
2026-01-04 11:32:35.553797	147.9	34.3	-69.8	0.0
2026-01-04 11:32:36.668853	147.8	34.6	-69.9	0.0
2026-01-04 11:32:37.783726	147.7	34.9	-69.6	0.0
2026-01-04 11:32:38.898388	147.5	35.2	-69.4	0.0
2026-01-04 11:32:40.014027	147.4	35.5	-69.6	0.0
2026-01-04 11:32:41.128959	147.3	35.8	-69.6	0.0
2026-01-04 11:32:42.242627	147.2	36.1	-69.8	0.0
2026-01-04 11:32:43.357983	147.1	36.4	-69.4	0.0
2026-01-04 11:32:44.473007	146.9	36.7	-69.0	0.0
2026-01-04 11:32:45.588025	146.8	37.0	-69.7	0.0
2026-01-04 11:32:46.703844	146.7	37.3	-69.9	0.0
2026-01-04 11:32:47.818522	146.6	37.6	-69.5	0.0
2026-01-04 11:32:48.933765	146.4	37.9	-69.7	0.0
2026-01-04 11:32:50.048670	146.3	38.3	-69.7	0.0
2026-01-04 11:32:51.163214	146.2	38.6	-69.5	0.0
2026-01-04 11:32:52.277408	146.0	38.9	-69.5	0.0
2026-01-04 11:32:53.393128	145.9	39.2	-69.8	0.0
2026-01-04 11:32:54.507857	145.7	39.6	-69.6	0.0
2026-01-04 11:32:55.621569	145.6	39.9	-69.7	0.0
2026-01-04 11:32:56.736406	145.4	40.2	-69.7	0.0
2026-01-04 11:32:57.851201	145.2	40.6	-69.8	0.0
2026-01-04 11:32:58.965737	145.1	40.9	-69.7	0.0
2026-01-04 11:33:00.079752	144.9	41.3	-69.9	0.0
2026-01-04 11:33:01.195379	144.8	41.6	-69.7	0.0
2026-01-04 11:33:02.310099	144.6	42.0	-69.5	0.0
2026-01-04 11:33:03.424863	144.4	42.3	-69.7	0.0
2026-01-04 11:33:04.539552	144.2	42.7	-69.9	0.0
2026-01-04 11:33:05.656863	144.0	43.0	-69.6	0.0
2026-01-04 11:33:06.771801	143.8	43.4	-69.8	0.0
2026-01-04 11:33:07.886800	143.7	43.8	-69.7	0.0
2026-01-04 11:33:09.002424	143.5	44.1	-69.8	0.0
2026-01-04 11:33:10.116944	143.2	44.5	-69.5	0.0
2026-01-04 11:33:11.231677	143.0	44.9	-69.7	0.0
2026-01-04 11:33:12.346725	142.8	45.3	-69.6	0.0
2026-01-04 11:33:13.461998	142.6	45.7	-69.7	0.0
2026-01-04 11:33:14.576857	142.4	46.1	-69.4	0.0
2026-01-04 11:33:15.703334	142.1	46.5	-69.7	0.0
2026-01-04 11:33:16.817444	141.9	46.8	-69.8	0.0
2026-01-04 11:33:17.934026	141.7	47.2	-69.9	0.0
2026-01-04 11:33:19.049034	141.4	47.7	-69.9	0.0
2026-01-04 11:33:20.164206	141.2	48.1	-69.8	0.0
2026-01-04 11:33:21.278838	140.9	48.5	-69.8	0.0
2026-01-04 11:33:22.393590	140.6	48.9	-69.6	0.0
2026-01-04 11:33:23.508368	140.3	49.3	-69.8	0.0
2026-01-04 11:33:24.623012	140.1	49.7	-69.8	0.0
2026-01-04 11:33:25.738201	139.8	50.1	-69.7	0.0
2026-01-04 11:33:26.856203	139.5	50.6	-69.8	0.0
2026-01-04 11:33:27.971008	139.1	51.0	-69.6	0.0
2026-01-04 11:33:29.083830	138.8	51.4	-69.9	0.0
2026-01-04 11:33:30.199136	138.5	51.9	-69.7	0.0
2026-01-04 11:33:31.313768	138.2	52.3	-69.8	0.0
2026-01-04 11:33:32.428584	137.8	52.7	-69.2	0.0
2026-01-04 11:33:33.543483	137.4	53.2	-69.8	0.0
2026-01-04 11:33:34.658289	137.1	53.6	-69.8	0.0
2026-01-04 11:33:35.772068	136.7	54.1	-69.7	0.0
2026-01-04 11:33:36.887467	136.3	54.5	-69.7	0.0
2026-01-04 11:33:38.002765	135.9	55.0	-69.7	0.0
2026-01-04 11:33:39.117399	135.4	55.5	-69.8	0.0
2026-01-04 11:33:40.232430	135.0	55.9	-69.7	0.0
2026-01-04 11:33:41.346231	134.5	56.4	-69.5	0.0
2026-01-04 11:33:42.461498	134.1	56.9	-69.8	0.0
2026-01-04 11:33:43.576693	133.6	57.3	-69.7	0.0
2026-01-04 11:33:44.691591	133.1	57.8	-69.5	0.0
2026-01-04 11:33:45.805847	132.6	58.3	-69.7	0.0
2026-01-04 11:33:46.919753	132.0	58.7	-69.5	0.0
2026-01-04 11:33:48.034267	131.5	59.2	-69.7	0.0
2026-01-04 11:33:49.148579	130.9	59.7	-69.7	0.0
2026-01-04 11:33:50.267620	130.3	60.2	-69.8	0.0
2026-01-04 11:33:51.382553	129.6	60.6	-69.7	0.0
2026-01-04 11:33:52.497366	129.0	61.1	-69.7	0.0
2026-01-04 11:33:53.611718	128.3	61.6	-69.6	0.0
2026-01-04 11:33:54.726689	127.6	62.1	-69.7	0.0
2026-01-04 11:33:55.839979	126.9	62.6	-69.8	0.0
2026-01-04 11:33:56.955203	126.1	63.0	-69.6	0.0
2026-01-04 11:33:58.069694	125.3	63.5	-69.7	0.0
2026-01-04 11:33:59.184601	124.5	64.0	-69.7	0.0
2026-01-04 11:34:00.300354	123.6	64.5	-69.8	0.0
2026-01-04 11:34:01.419143	122.7	64.9	-69.6	0.0
2026-01-04 11:34:02.534347	121.8	65.4	-69.7	0.0
2026-01-04 11:34:03.649197	120.8	65.9	-69.6	0.0
2026-01-04 11:34:04.766304	119.8	66.3	-69.4	0.0
2026-01-04 11:34:05.885914	118.7	66.8	-69.3	0.0
2026-01-04 11:34:07.000539	117.6	67.2	-69.9	0.0
2026-01-04 11:34:08.115326	116.5	67.7	-69.6	0.0
2026-01-04 11:34:09.229609	115.2	68.1	-69.6	0.0
2026-01-04 11:34:10.345069	114.0	68.5	-69.9	0.0
2026-01-04 11:34:11.458392	112.7	69.0	-69.6	0.0
2026-01-04 11:34:12.573184	111.3	69.4	-69.8	0.0
2026-01-04 11:34:13.688125	109.8	69.8	-69.9	0.0
2026-01-04 11:34:14.801632	108.3	70.2	-69.6	0.0
2026-01-04 11:34:15.916126	106.8	70.6	-69.7	0.0
2026-01-04 11:34:17.031411	105.1	70.9	-69.5	0.0
2026-01-04 11:34:18.145392	103.4	71.3	-69.5	0.0
2026-01-04 11:34:19.260780	101.7	71.6	-69.4	0.0
2026-01-04 11:34:20.375874	99.8	71.9	-69.1	0.0
2026-01-04 11:34:21.489689	97.9	72.3	-69.7	0.0
2026-01-04 11:34:22.603827	95.9	72.5	-69.5	0.0
2026-01-04 11:34:23.719198	93.9	72.8	-69.8	0.0
2026-01-04 11:34:24.833735	91.8	73.1	-69.5	0.0
2026-01-04 11:34:25.948160	89.6	73.3	-69.7	0.0
2026-01-04 11:34:27.066296	87.4	73.5	-69.5	0.0
2026-01-04 11:34:28.181107	85.1	73.7	-69.6	0.0
2026-01-04 11:34:29.296948	82.8	73.8	-69.7	0.0
2026-01-04 11:34:30.411630	80.4	73.9	-69.8	0.0
2026-01-04 11:34:31.526223	78.0	74.0	-69.7	0.0
2026-01-04 11:34:32.641108	75.5	74.1	-69.5	0.0
2026-01-04 11:34:33.755341	73.1	74.2	-69.7	0.0
2026-01-04 11:34:34.869420	70.6	74.2	-69.7	0.0
2026-01-04 11:34:35.984594	68.1	74.2	-70.0	0.0
2026-01-04 11:34:37.099691	65.7	74.1	-69.6	0.0
2026-01-04 11:34:38.214972	63.2	74.1	-69.8	0.0
2026-01-04 11:34:39.329052	60.8	74.0	-69.8	0.0
2026-01-04 11:34:40.443539	58.4	73.8	-69.7	0.0
2026-01-04 11:34:41.558557	56.1	73.7	-69.8	0.0
2026-01-04 11:34:42.672782	53.8	73.5	-69.9	0.0
2026-01-04 11:34:43.787821	51.5	73.3	-69.8	0.0
2026-01-04 11:34:44.919341	49.3	73.1	-69.8	0.0
2026-01-04 11:34:46.034543	47.2	72.9	-69.8	0.0
2026-01-04 11:34:47.148883	45.1	72.6	-69.9	0.0
2026-01-04 11:34:48.265014	43.2	72.3	-69.5	0.0
2026-01-04 11:34:49.379087	41.2	72.0	-69.9	0.0
2026-01-04 11:34:50.493874	39.4	71.7	-69.5	0.0
2026-01-04 11:34:51.610515	37.6	71.3	-69.2	0.0
2026-01-04 11:34:52.725730	35.9	71.0	-69.8	0.0
2026-01-04 11:34:53.840127	34.3	70.6	-69.8	0.0
2026-01-04 11:34:54.954863	32.7	70.2	-69.6	0.0
2026-01-04 11:34:56.069624	31.2	69.9	-69.5	0.0
2026-01-04 11:34:57.184929	29.7	69.5	-69.3	0.0
2026-01-04 11:34:58.299203	28.3	69.0	-69.7	0.0
2026-01-04 11:34:59.413948	27.0	68.6	-69.7	0.0
2026-01-04 11:35:00.531739	25.7	68.2	-69.4	0.0
2026-01-04 11:35:01.646878	24.5	67.8	-69.5	0.0
2026-01-04 11:35:02.760841	23.4	67.3	-69.4	0.0
2026-01-04 11:35:03.875621	22.2	66.9	-69.6	0.0
2026-01-04 11:35:04.990155	21.2	66.4	-69.7	0.0
2026-01-04 11:35:06.104181	20.1	65.9	-69.2	0.0
2026-01-04 11:35:07.218878	19.2	65.5	-69.3	0.0
2026-01-04 11:35:08.333704	18.2	65.0	-69.6	0.0
2026-01-04 11:35:09.452814	17.3	64.5	-69.7	0.0
2026-01-04 11:35:10.567291	16.4	64.1	-69.6	0.0
2026-01-04 11:35:11.684664	15.6	63.6	-69.5	0.0
2026-01-04 11:35:12.798934	14.8	63.1	-69.4	0.0
2026-01-04 11:35:13.913150	14.0	62.7	-69.6	0.0
2026-01-04 11:35:15.027203	13.3	62.2	-69.8	0.0
2026-01-04 11:35:16.142164	12.6	61.7	-69.0	0.0
2026-01-04 11:35:17.257572	11.9	61.2	-69.1	0.0
2026-01-04 11:35:18.372475	11.3	60.7	-69.7	0.0
2026-01-04 11:35:19.487604	10.6	60.3	-69.4	0.0
2026-01-04 11:35:20.601571	10.0	59.8	-69.7	0.0
2026-01-04 11:35:21.717000	9.4	59.3	-69.5	0.0
2026-01-04 11:35:22.834677	8.9	58.8	-69.5	0.0
2026-01-04 11:35:23.950733	8.3	58.4	-69.4	0.0
2026-01-04 11:35:25.064924	7.8	57.9	-69.4	0.0
2026-01-04 11:35:26.180419	7.3	57.4	-69.5	0.0
2026-01-04 11:35:27.295793	6.8	57.0	-69.4	0.0
2026-01-04 11:35:28.409897	6.3	56.5	-69.8	0.0
2026-01-04 11:35:29.524438	5.9	56.0	-69.5	0.0
2026-01-04 11:35:30.639046	5.4	55.6	-69.6	0.0
2026-01-04 11:35:31.753903	5.0	55.1	-69.3	0.0
2026-01-04 11:35:32.867458	4.6	54.7	-69.4	0.0
2026-01-04 11:35:33.984930	4.2	54.2	-69.8	0.0
2026-01-04 11:35:35.099430	3.8	53.8	-69.5	0.0
2026-01-04 11:35:36.213022	3.4	53.3	-69.5	0.0
2026-01-04 11:35:37.328204	3.1	52.9	-69.7	0.0
2026-01-04 11:35:38.442720	2.7	52.4	-69.7	0.0
2026-01-04 11:35:39.557392	2.4	52.0	-69.7	0.0
2026-01-04 11:35:40.671865	2.0	51.6	-69.7	0.0
2026-01-04 11:35:41.787249	1.7	51.1	-69.8	0.0
2026-01-04 11:35:42.901912	1.4	50.7	-69.3	0.0
2026-01-04 11:35:44.016769	1.1	50.3	-69.8	0.0
2026-01-04 11:35:45.131369	0.8	49.8	-69.7	0.0
2026-01-04 11:35:46.248029	0.5	49.4	-69.9	0.0
2026-01-04 11:35:47.362889	0.2	49.0	-69.9	0.0
2026-01-04 11:35:48.476267	360.0	48.6	-69.8	0.0
2026-01-04 11:35:49.590818	359.7	48.2	-69.5	0.0
2026-01-04 11:35:50.705997	359.4	47.8	-69.6	0.0
2026-01-04 11:35:51.820475	359.2	47.4	-69.7	0.0
2026-01-04 11:35:52.936054	358.9	47.0	-69.7	0.0
2026-01-04 11:35:54.050442	358.7	46.6	-69.8	0.0
2026-01-04 11:35:55.165337	358.5	46.2	-69.5	0.0
2026-01-04 11:35:56.282206	358.3	45.8	-69.7	0.0
2026-01-04 11:35:57.397279	358.0	45.4	-69.7	0.0
2026-01-04 11:35:58.512974	357.8	45.0	-69.7	0.0
2026-01-04 11:35:59.628049	357.6	44.7	-69.8	0.0
2026-01-04 11:36:00.743123	357.4	44.3	-69.7	0.0
2026-01-04 11:36:01.856586	357.2	43.9	-69.8	0.0
2026-01-04 11:36:02.970946	357.0	43.5	-69.9	0.0
2026-01-04 11:36:04.086296	356.8	43.2	-69.8	0.0
2026-01-04 11:36:05.201036	356.6	42.8	-69.7	0.0
2026-01-04 11:36:06.315694	356.5	42.5	-69.7	0.0
2026-01-04 11:36:07.432108	356.3	42.1	-69.6	0.0
2026-01-04 11:36:08.547145	356.1	41.8	-69.8	0.0
2026-01-04 11:36:09.660830	355.9	41.4	-70.0	0.0
2026-01-04 11:36:10.776222	355.8	41.1	-69.8	0.0
2026-01-04 11:36:11.889725	355.6	40.7	-69.6	0.0
2026-01-04 11:36:13.005553	355.4	40.4	-69.8	0.0
2026-01-04 11:36:14.119078	355.3	40.0	-69.8	0.0
2026-01-04 11:36:15.234959	355.1	39.7	-69.7	0.0
2026-01-04 11:36:16.353734	355.0	39.4	-69.9	0.0
2026-01-04 11:36:17.468514	354.8	39.1	-69.4	0.0
2026-01-04 11:36:18.586196	354.7	38.7	-69.8	0.0
2026-01-04 11:36:19.701523	354.6	38.4	-69.6	0.0
2026-01-04 11:36:20.821379	354.4	38.1	-69.7	0.0
2026-01-04 11:36:21.936512	354.3	37.8	-69.3	0.0
2026-01-04 11:36:23.061520	354.2	37.5	-69.7	0.0
2026-01-04 11:36:24.175766	354.0	37.2	-69.5	0.0
2026-01-04 11:36:25.296402	353.9	36.8	-69.3	0.0
2026-01-04 11:36:26.410609	353.8	36.5	-69.6	0.0
2026-01-04 11:36:27.525451	353.7	36.2	-69.3	0.0
2026-01-04 11:36:28.639864	353.5	35.9	-69.7	0.0
2026-01-04 11:36:29.754956	353.4	35.7	-69.8	0.0
2026-01-04 11:36:30.868650	353.3	35.4	-69.7	0.0
2026-01-04 11:36:31.983264	353.2	35.1	-69.6	0.0
2026-01-04 11:36:33.098369	353.1	34.8	-69.4	0.0
2026-01-04 11:36:34.213512	353.0	34.5	-69.5	0.0
2026-01-04 11:36:35.328078	352.9	34.2	-69.7	0.0
2026-01-04 11:36:36.443123	352.8	33.9	-69.7	0.0
2026-01-04 11:36:37.558402	352.7	33.7	-69.5	0.0
2026-01-04 11:36:38.673744	352.6	33.4	-69.8	0.0
2026-01-04 11:36:39.788513	352.5	33.1	-69.7	0.0
2026-01-04 11:36:40.908015	352.4	32.9	-69.8	0.0
2026-01-04 11:36:42.023718	352.3	32.6	-69.8	0.0
2026-01-04 11:36:43.137573	352.2	32.3	-69.6	0.0
2026-01-04 11:36:44.252302	352.1	32.1	-69.7	0.0
2026-01-04 11:36:45.367302	352.0	31.8	-69.7	0.0
2026-01-04 11:36:46.481715	351.9	31.5	-69.6	0.0
2026-01-04 11:36:47.597000	351.8	31.3	-69.8	0.0
2026-01-04 11:36:48.712380	351.7	31.0	-69.9	0.0
2026-01-04 11:36:49.827815	351.6	30.8	-69.9	0.0
2026-01-04 11:36:50.942555	351.6	30.5	-69.9	0.0
2026-01-04 11:36:52.059685	351.5	30.3	-69.9	0.0
2026-01-04 11:36:53.174514	351.4	30.1	-69.7	0.0
2026-01-04 11:36:54.289584	351.3	29.8	-69.8	0.0
2026-01-04 11:36:55.404103	351.2	29.6	-69.2	0.0
2026-01-04 11:36:56.519197	351.2	29.3	-69.7	0.0
2026-01-04 11:36:57.634535	351.1	29.1	-69.6	0.0
2026-01-04 11:36:58.749574	351.0	28.9	-69.6	0.0
2026-01-04 11:36:59.866232	350.9	28.6	-69.6	0.0
2026-01-04 11:37:00.980960	350.9	28.4	-69.2	0.0
2026-01-04 11:37:02.094723	350.8	28.2	-69.8	0.0
2026-01-04 11:37:03.211665	350.7	28.0	-69.8	0.0
2026-01-04 11:37:04.325912	350.7	27.7	-69.7	0.0
2026-01-04 11:37:05.440903	350.6	27.5	-69.7	0.0
2026-01-04 11:37:06.555200	350.5	27.3	-69.7	0.0
2026-01-04 11:37:07.671521	350.5	27.1	-69.7	0.0
2026-01-04 11:37:08.784803	350.4	26.9	-69.5	0.0
2026-01-04 11:37:09.899612	350.3	26.6	-69.4	0.0
2026-01-04 11:37:11.013971	350.3	26.4	-69.7	0.0
2026-01-04 11:37:12.128918	350.2	26.2	-69.9	0.0
2026-01-04 11:37:13.243894	350.1	26.0	-69.3	0.0
2026-01-04 11:37:14.360479	350.1	25.8	-69.7	0.0
2026-01-04 11:37:15.474485	350.0	25.6	-69.8	0.0
2026-01-04 11:37:16.590666	350.0	25.4	-69.8	0.0
2026-01-04 11:37:17.706202	349.9	25.2	-69.7	0.0
2026-01-04 11:37:18.820698	349.9	25.0	-69.7	0.0
2026-01-04 11:37:19.935630	349.8	24.8	-69.8	0.0
2026-01-04 11:37:21.049473	349.7	24.6	-69.8	0.0
2026-01-04 11:37:22.165416	349.7	24.4	-69.6	0.0
2026-01-04 11:37:23.280241	349.6	24.2	-69.7	0.0
2026-01-04 11:37:24.394956	349.6	24.0	-69.8	0.0
2026-01-04 11:37:25.512486	349.5	23.8	-69.5	0.0
2026-01-04 11:37:26.625884	349.5	23.6	-69.7	0.0
2026-01-04 11:37:27.741106	349.4	23.5	-69.8	0.0
2026-01-04 11:37:28.856631	349.4	23.3	-69.9	0.0
2026-01-04 11:37:29.970933	349.3	23.1	-69.9	0.0
2026-01-04 11:37:31.084810	349.3	22.9	-69.8	0.0
2026-01-04 11:37:32.200082	349.2	22.7	-69.8	0.0
2026-01-04 11:37:33.315275	349.2	22.5	-69.8	0.0
2026-01-04 11:37:34.429661	349.1	22.4	-69.5	0.0
2026-01-04 11:37:35.544373	349.1	22.2	-69.6	0.0
2026-01-04 11:37:36.659533	349.0	22.0	-69.5	0.0
2026-01-04 11:37:37.775121	349.0	21.8	-69.4	0.0
2026-01-04 11:37:38.890184	349.0	21.6	-69.6	0.0
2026-01-04 11:37:40.005996	348.9	21.5	-69.7	0.0
2026-01-04 11:37:41.121155	348.9	21.3	-69.7	0.0
2026-01-04 11:37:42.236147	348.8	21.1	-69.7	0.0
2026-01-04 11:37:43.349836	348.8	21.0	-69.4	0.0
2026-01-04 11:37:44.463987	348.7	20.8	-69.6	0.0
2026-01-04 11:37:45.579121	348.7	20.6	-69.6	0.0
2026-01-04 11:37:46.693451	348.7	20.5	-69.6	0.0
2026-01-04 11:37:47.809754	348.6	20.3	-69.7	0.0
2026-01-04 11:37:48.924007	348.6	20.1	-69.8	0.0
2026-01-04 11:37:50.043298	348.5	20.0	-69.8	0.0
2026-01-04 11:37:51.157463	348.5	19.8	-69.8	0.0
2026-01-04 11:37:52.272082	348.5	19.7	-69.4	0.0
2026-01-04 11:37:53.387287	348.4	19.5	-69.4	0.0
2026-01-04 11:37:54.501654	348.4	19.3	-69.7	0.0
2026-01-04 11:37:55.616387	348.3	19.2	-69.4	0.0
2026-01-04 11:37:56.732176	348.3	19.0	-69.5	0.0
2026-01-04 11:37:57.847225	348.3	18.9	-69.6	0.0
2026-01-04 11:37:58.961368	348.2	18.7	-69.5	0.0
2026-01-04 11:38:00.076540	348.2	18.6	-69.6	0.0
2026-01-04 11:38:01.191637	348.2	18.4	-69.8	0.0
2026-01-04 11:38:02.310611	348.1	18.3	-70.0	0.0
2026-01-04 11:38:03.425083	348.1	18.1	-69.5	0.0
2026-01-04 11:38:04.539014	348.1	18.0	-69.6	0.0
2026-01-04 11:38:05.653414	348.0	17.8	-69.5	0.0
2026-01-04 11:38:06.768290	348.0	17.7	-69.7	0.0
2026-01-04 11:38:07.883450	348.0	17.5	-69.1	0.0
2026-01-04 11:38:08.998909	347.9	17.4	-69.4	0.0
2026-01-04 11:38:10.113399	347.9	17.2	-69.5	0.0
2026-01-04 11:38:11.228438	347.9	17.1	-69.5	0.0
2026-01-04 11:38:12.343165	347.8	17.0	-69.8	0.0
2026-01-04 11:38:13.460011	347.8	16.8	-69.6	0.0
2026-01-04 11:38:14.574368	347.8	16.7	-69.5	0.0
2026-01-04 11:38:15.689104	347.8	16.5	-69.6	0.0
2026-01-04 11:38:16.803456	347.7	16.4	-69.6	0.0
2026-01-04 11:38:17.917692	347.7	16.3	-69.7	0.0
2026-01-04 11:38:19.032710	347.7	16.1	-69.6	0.0
2026-01-04 11:38:20.146604	347.6	16.0	-69.7	0.0
2026-01-04 11:38:21.261278	347.6	15.9	-69.7	0.0
2026-01-04 11:38:22.375487	347.6	15.7	-69.7	0.0
2026-01-04 11:38:23.490516	347.6	15.6	-69.7	0.0
2026-01-04 11:38:24.605198	347.5	15.5	-69.7	0.0
2026-01-04 11:38:25.720082	347.5	15.3	-69.7	0.0
2026-01-04 11:38:26.835135	347.5	15.2	-69.4	0.0
2026-01-04 11:38:27.949977	347.4	15.1	-69.6	0.0
#Closed at: 2026-01-04 11:30:37.960609