passes_logs/2026/01/04/Regia/Regia__20260104_015658_AQUA_rec.log

#Pass ID: 20260104_015658_AQUA
#Satellite: AQUA
#Configuration: AQUA
#Start time: 2026-01-04 01:57:03.760170

#LorettStation: 1.0.0 05.05.2024
#Station: Regia
#Location: 37.494653 lon 55.929028 lat
#TLE: 1 27424U 02022A   25365.92641127  .00002078  00000+0  42628-3 0  9999
#TLE: 2 27424  98.4058 327.1196 0001962  94.7781 340.6230 14.61783896258835

#Time	Az	El	Level	SNR
2026-01-04 01:57:07.925094	5.2	15.5	-69.5	0.0
2026-01-04 01:57:09.041269	5.1	15.6	-69.3	0.0
2026-01-04 01:57:10.157066	5.0	15.7	-69.2	0.0
2026-01-04 01:57:11.272396	4.9	15.8	-69.5	0.0
2026-01-04 01:57:12.387451	4.8	16.0	-69.5	0.0
2026-01-04 01:57:13.501718	4.8	16.1	-69.3	0.0
2026-01-04 01:57:14.616712	4.7	16.2	-69.5	0.0
2026-01-04 01:57:15.731705	4.6	16.4	-69.5	0.0
2026-01-04 01:57:16.847917	4.5	16.5	-69.3	0.0
2026-01-04 01:57:17.963366	4.4	16.6	-69.3	0.0
2026-01-04 01:57:19.078716	4.3	16.8	-69.3	0.0
2026-01-04 01:57:20.192564	4.2	16.9	-69.2	0.0
2026-01-04 01:57:21.307559	4.1	17.0	-69.3	0.0
2026-01-04 01:57:22.423219	4.0	17.2	-69.1	0.0
2026-01-04 01:57:23.538789	3.9	17.3	-69.4	0.0
2026-01-04 01:57:24.653475	3.8	17.4	-69.3	0.0
2026-01-04 01:57:25.768211	3.7	17.6	-69.1	0.0
2026-01-04 01:57:26.882729	3.6	17.7	-69.3	0.0
2026-01-04 01:57:27.997786	3.5	17.9	-69.4	0.0
2026-01-04 01:57:29.112685	3.4	18.0	-69.3	0.0
2026-01-04 01:57:30.227464	3.3	18.1	-69.2	0.0
2026-01-04 01:57:31.341316	3.2	18.3	-69.0	0.0
2026-01-04 01:57:32.457415	3.1	18.4	-69.4	0.0
2026-01-04 01:57:33.572358	3.0	18.6	-69.5	0.0
2026-01-04 01:57:34.686366	2.9	18.7	-69.3	0.0
2026-01-04 01:57:35.800964	2.8	18.9	-69.2	0.0
2026-01-04 01:57:36.931145	2.7	19.0	-68.9	0.0
2026-01-04 01:57:38.046560	2.5	19.1	-69.3	0.0
2026-01-04 01:57:39.160002	2.4	19.3	-69.5	0.0
2026-01-04 01:57:40.275357	2.3	19.4	-69.2	0.0
2026-01-04 01:57:41.391116	2.2	19.6	-69.3	0.0
2026-01-04 01:57:42.505813	2.1	19.7	-69.3	0.0
2026-01-04 01:57:43.621476	2.0	19.9	-69.4	0.0
2026-01-04 01:57:44.736072	1.8	20.0	-69.4	0.0
2026-01-04 01:57:45.851072	1.7	20.2	-69.5	0.0
2026-01-04 01:57:46.965612	1.6	20.3	-69.2	0.0
2026-01-04 01:57:48.081122	1.5	20.5	-69.3	0.0
2026-01-04 01:57:49.196467	1.4	20.7	-69.5	0.0
2026-01-04 01:57:50.310182	1.2	20.8	-69.2	0.0
2026-01-04 01:57:51.428172	1.1	21.0	-69.5	0.0
2026-01-04 01:57:52.542836	1.0	21.1	-69.3	0.0
2026-01-04 01:57:53.658287	0.8	21.3	-69.4	0.0
2026-01-04 01:57:54.773525	0.7	21.4	-69.4	0.0
2026-01-04 01:57:55.888275	0.6	21.6	-69.4	0.0
2026-01-04 01:57:57.002720	0.5	21.8	-69.5	0.0
2026-01-04 01:57:58.118448	0.3	21.9	-69.5	0.0
2026-01-04 01:57:59.233197	0.2	22.1	-69.8	0.0
2026-01-04 01:58:00.349982	0.0	22.3	-69.2	0.0
2026-01-04 01:58:01.463427	359.9	22.4	-69.0	0.0
2026-01-04 01:58:02.580566	359.8	22.6	-69.1	0.0
2026-01-04 01:58:03.695337	359.6	22.8	-69.5	0.0
2026-01-04 01:58:04.810668	359.5	22.9	-69.5	0.0
2026-01-04 01:58:05.925463	359.3	23.1	-69.2	0.0
2026-01-04 01:58:07.040551	359.2	23.3	-69.3	0.0
2026-01-04 01:58:08.155131	359.0	23.4	-69.6	0.0
2026-01-04 01:58:09.270405	358.9	23.6	-69.4	0.0
2026-01-04 01:58:10.385926	358.7	23.8	-69.3	0.0
2026-01-04 01:58:11.500854	358.6	24.0	-69.6	0.0
2026-01-04 01:58:12.616248	358.4	24.1	-69.3	0.0
2026-01-04 01:58:13.731609	358.2	24.3	-69.3	0.0
2026-01-04 01:58:14.846743	358.1	24.5	-69.5	0.0
2026-01-04 01:58:15.961142	357.9	24.7	-69.3	0.0
2026-01-04 01:58:17.076119	357.7	24.8	-69.6	0.0
2026-01-04 01:58:18.190853	357.6	25.0	-69.5	0.0
2026-01-04 01:58:19.305242	357.4	25.2	-69.4	0.0
2026-01-04 01:58:20.419601	357.2	25.4	-69.3	0.0
2026-01-04 01:58:21.535060	357.1	25.6	-69.6	0.0
2026-01-04 01:58:22.650401	356.9	25.8	-69.5	0.0
2026-01-04 01:58:23.767731	356.7	25.9	-69.7	0.0
2026-01-04 01:58:24.883602	356.5	26.1	-69.4	0.0
2026-01-04 01:58:25.998730	356.3	26.3	-69.6	0.0
2026-01-04 01:58:27.112746	356.2	26.5	-69.3	0.0
2026-01-04 01:58:28.227748	356.0	26.7	-69.5	0.0
2026-01-04 01:58:29.342998	355.8	26.9	-69.1	0.0
2026-01-04 01:58:30.457911	355.6	27.1	-69.4	0.0
2026-01-04 01:58:31.572880	355.4	27.3	-69.8	0.0
2026-01-04 01:58:32.687698	355.2	27.5	-69.2	0.0
2026-01-04 01:58:33.802129	355.0	27.7	-69.3	0.0
2026-01-04 01:58:34.917092	354.8	27.9	-69.5	0.0
2026-01-04 01:58:36.035147	354.6	28.1	-69.4	0.0
2026-01-04 01:58:37.151188	354.4	28.3	-69.4	0.0
2026-01-04 01:58:38.266120	354.2	28.5	-69.3	0.0
2026-01-04 01:58:39.380355	354.0	28.7	-69.4	0.0
2026-01-04 01:58:40.495314	353.7	28.9	-69.4	0.0
2026-01-04 01:58:41.610073	353.5	29.1	-69.6	0.0
2026-01-04 01:58:42.725136	353.3	29.3	-69.5	0.0
2026-01-04 01:58:43.839121	353.1	29.5	-69.5	0.0
2026-01-04 01:58:44.955291	352.8	29.7	-69.5	0.0
2026-01-04 01:58:46.070565	352.6	29.9	-69.4	0.0
2026-01-04 01:58:47.185915	352.4	30.1	-69.6	0.0
2026-01-04 01:58:48.301011	352.1	30.3	-69.5	0.0
2026-01-04 01:58:49.415739	351.9	30.5	-69.6	0.0
2026-01-04 01:58:50.530295	351.6	30.8	-69.5	0.0
2026-01-04 01:58:51.644480	351.4	31.0	-69.5	0.0
2026-01-04 01:58:52.759998	351.1	31.2	-69.3	0.0
2026-01-04 01:58:53.874998	350.9	31.4	-69.5	0.0
2026-01-04 01:58:54.988688	350.6	31.6	-69.4	0.0
2026-01-04 01:58:56.103271	350.4	31.8	-69.3	0.0
2026-01-04 01:58:57.217661	350.1	32.1	-69.4	0.0
2026-01-04 01:58:58.338741	349.8	32.3	-69.4	0.0
2026-01-04 01:58:59.452750	349.6	32.5	-69.5	0.0
2026-01-04 01:59:00.570276	349.3	32.7	-69.2	0.0
2026-01-04 01:59:01.685193	349.0	33.0	-69.5	0.0
2026-01-04 01:59:02.805208	348.7	33.2	-69.4	0.0
2026-01-04 01:59:03.927134	348.4	33.4	-69.4	0.0
2026-01-04 01:59:05.041520	348.1	33.6	-69.2	0.0
2026-01-04 01:59:06.164064	347.8	33.9	-69.2	0.0
2026-01-04 01:59:07.278824	347.5	34.1	-69.4	0.0
2026-01-04 01:59:08.401760	347.2	34.3	-69.3	0.0
2026-01-04 01:59:09.516801	346.9	34.6	-69.3	0.0
2026-01-04 01:59:10.636346	346.6	34.8	-69.3	0.0
2026-01-04 01:59:11.750746	346.3	35.0	-69.5	0.0
2026-01-04 01:59:12.865689	345.9	35.3	-69.1	0.0
2026-01-04 01:59:13.980814	345.6	35.5	-68.9	0.0
2026-01-04 01:59:15.096323	345.3	35.7	-69.6	0.0
2026-01-04 01:59:16.210870	344.9	36.0	-69.3	0.0
2026-01-04 01:59:17.325815	344.6	36.2	-69.3	0.0
2026-01-04 01:59:18.441456	344.2	36.4	-69.6	0.0
2026-01-04 01:59:19.555321	343.9	36.7	-69.1	0.0
2026-01-04 01:59:20.671393	343.5	36.9	-69.5	0.0
2026-01-04 01:59:21.786702	343.1	37.2	-69.6	0.0
2026-01-04 01:59:22.902349	342.8	37.4	-69.4	0.0
2026-01-04 01:59:24.017005	342.4	37.6	-69.4	0.0
2026-01-04 01:59:25.130899	342.0	37.9	-69.6	0.0
2026-01-04 01:59:26.245270	341.6	38.1	-69.7	0.0
2026-01-04 01:59:27.360454	341.2	38.4	-69.3	0.0
2026-01-04 01:59:28.474929	340.8	38.6	-69.5	0.0
2026-01-04 01:59:29.589561	340.4	38.8	-69.5	0.0
2026-01-04 01:59:30.704304	340.0	39.1	-69.5	0.0
2026-01-04 01:59:31.819090	339.6	39.3	-69.4	0.0
2026-01-04 01:59:32.934234	339.1	39.6	-69.3	0.0
2026-01-04 01:59:34.049511	338.7	39.8	-69.1	0.0
2026-01-04 01:59:35.164708	338.3	40.0	-69.3	0.0
2026-01-04 01:59:36.280362	337.8	40.3	-69.3	0.0
2026-01-04 01:59:37.395042	337.3	40.5	-69.6	0.0
2026-01-04 01:59:38.510040	336.9	40.8	-69.3	0.0
2026-01-04 01:59:39.623722	336.4	41.0	-69.5	0.0
2026-01-04 01:59:40.739056	335.9	41.2	-69.4	0.0
2026-01-04 01:59:41.853607	335.5	41.5	-69.4	0.0
2026-01-04 01:59:42.970318	335.0	41.7	-69.4	0.0
2026-01-04 01:59:44.085147	334.5	42.0	-69.8	0.0
2026-01-04 01:59:45.199980	334.0	42.2	-69.2	0.0
2026-01-04 01:59:46.315112	333.4	42.4	-69.4	0.0
2026-01-04 01:59:47.431002	332.9	42.7	-69.5	0.0
2026-01-04 01:59:48.546231	332.4	42.9	-69.5	0.0
2026-01-04 01:59:49.665258	331.8	43.1	-69.2	0.0
2026-01-04 01:59:50.782825	331.3	43.4	-69.6	0.0
2026-01-04 01:59:51.913262	330.7	43.6	-69.4	0.0
2026-01-04 01:59:53.027330	330.2	43.8	-69.7	0.0
2026-01-04 01:59:54.140955	329.6	44.0	-69.3	0.0
2026-01-04 01:59:55.257546	329.0	44.3	-69.4	0.0
2026-01-04 01:59:56.372110	328.4	44.5	-69.4	0.0
2026-01-04 01:59:57.491205	327.8	44.7	-69.5	0.0
2026-01-04 01:59:58.606395	327.2	44.9	-69.2	0.0
2026-01-04 01:59:59.724229	326.6	45.2	-68.9	0.0
2026-01-04 02:00:00.838882	326.0	45.4	-69.4	0.0
2026-01-04 02:00:01.953219	325.4	45.6	-69.1	0.0
2026-01-04 02:00:03.067947	324.7	45.8	-69.4	0.0
2026-01-04 02:00:04.185115	324.1	46.0	-69.7	0.0
2026-01-04 02:00:05.300106	323.4	46.2	-69.3	0.0
2026-01-04 02:00:06.415541	322.8	46.4	-69.4	0.0
2026-01-04 02:00:07.530420	322.1	46.6	-69.3	0.0
2026-01-04 02:00:08.644793	321.4	46.8	-69.2	0.0
2026-01-04 02:00:09.760740	320.7	47.0	-69.4	0.0
2026-01-04 02:00:10.875045	320.0	47.2	-69.5	0.0
2026-01-04 02:00:11.989534	319.3	47.3	-69.5	0.0
2026-01-04 02:00:13.104272	318.6	47.5	-69.5	0.0
2026-01-04 02:00:14.222656	317.9	47.7	-69.7	0.0
2026-01-04 02:00:15.338048	317.1	47.9	-69.4	0.0
2026-01-04 02:00:16.452589	316.4	48.0	-69.2	0.0
2026-01-04 02:00:17.566865	315.7	48.2	-69.5	0.0
2026-01-04 02:00:18.681427	314.9	48.3	-69.6	0.0
2026-01-04 02:00:19.796328	314.1	48.5	-69.4	0.0
2026-01-04 02:00:20.911960	313.4	48.6	-69.5	0.0
2026-01-04 02:00:22.026352	312.6	48.8	-69.5	0.0
2026-01-04 02:00:23.140817	311.8	48.9	-69.5	0.0
2026-01-04 02:00:24.255403	311.0	49.0	-69.4	0.0
2026-01-04 02:00:25.369802	310.2	49.2	-69.4	0.0
2026-01-04 02:00:26.484578	309.4	49.3	-69.5	0.0
2026-01-04 02:00:27.597629	308.6	49.4	-69.6	0.0
2026-01-04 02:00:28.712869	307.8	49.5	-69.3	0.0
2026-01-04 02:00:29.827429	306.9	49.6	-69.4	0.0
2026-01-04 02:00:30.942838	306.1	49.7	-69.6	0.0
2026-01-04 02:00:32.057664	305.3	49.8	-69.6	0.0
2026-01-04 02:00:33.172107	304.4	49.9	-69.6	0.0
2026-01-04 02:00:34.302948	303.6	50.0	-69.3	0.0
2026-01-04 02:00:35.421019	302.7	50.0	-69.6	0.0
2026-01-04 02:00:36.536346	301.9	50.1	-69.6	0.0
2026-01-04 02:00:37.651050	301.0	50.1	-69.4	0.0
2026-01-04 02:00:38.765194	300.2	50.2	-69.3	0.0
2026-01-04 02:00:39.880426	299.3	50.2	-69.2	0.0
2026-01-04 02:00:40.993585	298.5	50.3	-69.8	0.0
2026-01-04 02:00:42.108766	297.6	50.3	-69.4	0.0
2026-01-04 02:00:43.223773	296.7	50.3	-69.7	0.0
2026-01-04 02:00:44.352525	295.8	50.3	-69.3	0.0
2026-01-04 02:00:45.466699	295.0	50.4	-69.4	0.0
2026-01-04 02:00:46.582122	294.1	50.4	-69.5	0.0
2026-01-04 02:00:47.697475	293.2	50.3	-69.5	0.0
2026-01-04 02:00:48.812344	292.4	50.3	-69.4	0.0
2026-01-04 02:00:49.926527	291.5	50.3	-69.7	0.0
2026-01-04 02:00:51.040961	290.6	50.3	-69.5	0.0
2026-01-04 02:00:52.155912	289.8	50.3	-69.3	0.0
2026-01-04 02:00:53.271747	288.9	50.2	-69.5	0.0
2026-01-04 02:00:54.386063	288.0	50.2	-69.6	0.0
2026-01-04 02:00:55.501356	287.2	50.1	-69.4	0.0
2026-01-04 02:00:56.619179	286.3	50.1	-69.8	0.0
2026-01-04 02:00:57.733891	285.5	50.0	-69.7	0.0
2026-01-04 02:00:58.848921	284.6	49.9	-69.6	0.0
2026-01-04 02:00:59.963383	283.8	49.8	-69.5	0.0
2026-01-04 02:01:01.079179	283.0	49.8	-69.6	0.0
2026-01-04 02:01:02.195677	282.1	49.7	-69.6	0.0
2026-01-04 02:01:03.309887	281.3	49.6	-69.6	0.0
2026-01-04 02:01:04.431372	280.5	49.5	-69.5	0.0
2026-01-04 02:01:05.546039	279.7	49.4	-69.1	0.0
2026-01-04 02:01:06.670136	278.8	49.2	-69.2	0.0
2026-01-04 02:01:07.787967	278.0	49.1	-69.7	0.0
2026-01-04 02:01:08.906080	277.2	49.0	-69.5	0.0
2026-01-04 02:01:10.028981	276.4	48.9	-69.6	0.0
2026-01-04 02:01:11.143883	275.6	48.7	-69.2	0.0
2026-01-04 02:01:12.267375	274.9	48.6	-69.6	0.0
2026-01-04 02:01:13.381850	274.1	48.4	-69.7	0.0
2026-01-04 02:01:14.501960	273.3	48.3	-69.6	0.0
2026-01-04 02:01:15.617200	272.6	48.1	-69.5	0.0
2026-01-04 02:01:16.732073	271.8	48.0	-69.4	0.0
2026-01-04 02:01:17.845889	271.1	47.8	-69.5	0.0
2026-01-04 02:01:18.960205	270.4	47.6	-69.6	0.0
2026-01-04 02:01:20.074469	269.6	47.4	-69.9	0.0
2026-01-04 02:01:21.189727	268.9	47.3	-69.5	0.0
2026-01-04 02:01:22.303766	268.2	47.1	-69.4	0.0
2026-01-04 02:01:23.417999	267.5	46.9	-69.6	0.0
2026-01-04 02:01:24.533037	266.8	46.7	-69.8	0.0
2026-01-04 02:01:25.648123	266.2	46.5	-69.3	0.0
2026-01-04 02:01:26.763085	265.5	46.3	-69.7	0.0
2026-01-04 02:01:27.876290	264.8	46.1	-69.4	0.0
2026-01-04 02:01:28.991537	264.2	45.9	-69.5	0.0
2026-01-04 02:01:30.106539	263.5	45.7	-69.6	0.0
2026-01-04 02:01:31.220830	262.9	45.5	-69.7	0.0
2026-01-04 02:01:32.336575	262.3	45.3	-69.4	0.0
2026-01-04 02:01:33.451091	261.6	45.1	-69.6	0.0
2026-01-04 02:01:34.565220	261.0	44.8	-69.7	0.0
2026-01-04 02:01:35.680880	260.4	44.6	-69.6	0.0
2026-01-04 02:01:36.795252	259.8	44.4	-69.0	0.0
2026-01-04 02:01:37.909484	259.2	44.2	-69.4	0.0
2026-01-04 02:01:39.024301	258.7	44.0	-69.7	0.0
2026-01-04 02:01:40.138998	258.1	43.7	-69.5	0.0
2026-01-04 02:01:41.254026	257.5	43.5	-69.4	0.0
2026-01-04 02:01:42.368600	257.0	43.3	-69.5	0.0
2026-01-04 02:01:43.483793	256.4	43.0	-69.4	0.0
2026-01-04 02:01:44.599056	255.9	42.8	-69.4	0.0
2026-01-04 02:01:45.714655	255.4	42.6	-69.5	0.0
2026-01-04 02:01:46.829220	254.8	42.3	-69.8	0.0
2026-01-04 02:01:47.943458	254.3	42.1	-69.8	0.0
2026-01-04 02:01:49.058687	253.8	41.9	-69.4	0.0
2026-01-04 02:01:50.174199	253.3	41.6	-69.5	0.0
2026-01-04 02:01:51.289902	252.8	41.4	-69.7	0.0
2026-01-04 02:01:52.403875	252.4	41.1	-69.6	0.0
2026-01-04 02:01:53.517602	251.9	40.9	-69.9	0.0
2026-01-04 02:01:54.632888	251.4	40.7	-69.7	0.0
2026-01-04 02:01:55.745888	251.0	40.4	-69.5	0.0
2026-01-04 02:01:56.860505	250.5	40.2	-69.7	0.0
2026-01-04 02:01:57.976463	250.0	39.9	-69.7	0.0
2026-01-04 02:01:59.098266	249.6	39.7	-69.7	0.0
2026-01-04 02:02:00.213471	249.2	39.4	-69.8	0.0
2026-01-04 02:02:01.327798	248.7	39.2	-69.5	0.0
2026-01-04 02:02:02.442143	248.3	39.0	-69.6	0.0
2026-01-04 02:02:03.557794	247.9	38.7	-69.5	0.0
2026-01-04 02:02:04.677082	247.5	38.5	-69.6	0.0
2026-01-04 02:02:05.792087	247.1	38.2	-69.7	0.0
2026-01-04 02:02:06.907156	246.7	38.0	-69.7	0.0
2026-01-04 02:02:08.021748	246.3	37.7	-69.4	0.0
2026-01-04 02:02:09.144265	245.9	37.5	-69.6	0.0
2026-01-04 02:02:10.259149	245.5	37.3	-69.8	0.0
2026-01-04 02:02:11.381636	245.2	37.0	-69.7	0.0
2026-01-04 02:02:12.497171	244.8	36.8	-69.7	0.0
2026-01-04 02:02:13.614947	244.4	36.5	-69.5	0.0
2026-01-04 02:02:14.730154	244.1	36.3	-69.6	0.0
2026-01-04 02:02:15.845687	243.7	36.1	-69.6	0.0
2026-01-04 02:02:16.959880	243.4	35.8	-69.4	0.0
2026-01-04 02:02:18.075452	243.0	35.6	-69.3	0.0
2026-01-04 02:02:19.191685	242.7	35.4	-69.7	0.0
2026-01-04 02:02:20.321307	242.4	35.1	-69.8	0.0
2026-01-04 02:02:21.436430	242.0	34.9	-69.7	0.0
2026-01-04 02:02:22.550492	241.7	34.7	-69.4	0.0
2026-01-04 02:02:23.669602	241.4	34.4	-69.7	0.0
2026-01-04 02:02:24.784246	241.1	34.2	-69.7	0.0
2026-01-04 02:02:25.899174	240.8	34.0	-69.9	0.0
2026-01-04 02:02:27.013795	240.5	33.7	-69.7	0.0
2026-01-04 02:02:28.129047	240.2	33.5	-69.9	0.0
2026-01-04 02:02:29.244030	239.9	33.3	-69.8	0.0
2026-01-04 02:02:30.359044	239.6	33.0	-69.8	0.0
2026-01-04 02:02:31.472741	239.3	32.8	-69.9	0.0
2026-01-04 02:02:32.588382	239.0	32.6	-69.6	0.0
2026-01-04 02:02:33.703491	238.8	32.4	-69.6	0.0
2026-01-04 02:02:34.819639	238.5	32.1	-69.5	0.0
2026-01-04 02:02:35.933957	238.2	31.9	-69.6	0.0
2026-01-04 02:02:37.049311	237.9	31.7	-69.7	0.0
2026-01-04 02:02:38.164458	237.7	31.5	-69.6	0.0
2026-01-04 02:02:39.278721	237.4	31.3	-69.6	0.0
2026-01-04 02:02:40.392134	237.2	31.0	-69.4	0.0
2026-01-04 02:02:41.507512	236.9	30.8	-69.6	0.0
2026-01-04 02:02:42.622300	236.7	30.6	-69.8	0.0
2026-01-04 02:02:43.738228	236.4	30.4	-69.8	0.0
2026-01-04 02:02:44.851784	236.2	30.2	-69.6	0.0
2026-01-04 02:02:45.968844	235.9	30.0	-69.9	0.0
2026-01-04 02:02:47.083630	235.7	29.8	-69.6	0.0
2026-01-04 02:02:48.199192	235.5	29.6	-69.8	0.0
2026-01-04 02:02:49.314114	235.3	29.3	-69.6	0.0
2026-01-04 02:02:50.428906	235.0	29.1	-69.6	0.0
2026-01-04 02:02:51.543298	234.8	28.9	-69.6	0.0
2026-01-04 02:02:52.657266	234.6	28.7	-69.4	0.0
2026-01-04 02:02:53.772154	234.4	28.5	-69.6	0.0
2026-01-04 02:02:54.887019	234.2	28.3	-69.8	0.0
2026-01-04 02:02:56.001820	233.9	28.1	-69.7	0.0
2026-01-04 02:02:57.118950	233.7	27.9	-69.7	0.0
2026-01-04 02:02:58.234356	233.5	27.7	-69.8	0.0
2026-01-04 02:02:59.349520	233.3	27.5	-69.8	0.0
2026-01-04 02:03:00.464690	233.1	27.3	-69.6	0.0
2026-01-04 02:03:01.580245	232.9	27.1	-69.8	0.0
2026-01-04 02:03:02.695826	232.7	26.9	-69.7	0.0
2026-01-04 02:03:03.810811	232.5	26.7	-69.7	0.0
2026-01-04 02:03:04.924866	232.4	26.5	-69.8	0.0
2026-01-04 02:03:06.040130	232.2	26.4	-69.8	0.0
2026-01-04 02:03:07.155919	232.0	26.2	-69.5	0.0
2026-01-04 02:03:08.270349	231.8	26.0	-69.5	0.0
2026-01-04 02:03:09.385833	231.6	25.8	-69.4	0.0
2026-01-04 02:03:10.500209	231.4	25.6	-69.7	0.0
2026-01-04 02:03:11.614621	231.3	25.4	-69.6	0.0
2026-01-04 02:03:12.729236	231.1	25.2	-69.6	0.0
2026-01-04 02:03:13.843597	230.9	25.0	-69.5	0.0
2026-01-04 02:03:14.973453	230.7	24.9	-69.6	0.0
2026-01-04 02:03:16.087388	230.6	24.7	-69.7	0.0
2026-01-04 02:03:17.202795	230.4	24.5	-69.4	0.0
2026-01-04 02:03:18.317683	230.2	24.3	-69.5	0.0
2026-01-04 02:03:19.431536	230.1	24.1	-69.5	0.0
2026-01-04 02:03:20.546200	229.9	24.0	-69.8	0.0
2026-01-04 02:03:21.661179	229.8	23.8	-69.5	0.0
2026-01-04 02:03:22.776048	229.6	23.6	-69.8	0.0
2026-01-04 02:03:23.890276	229.5	23.4	-69.7	0.0
2026-01-04 02:03:25.005264	229.3	23.3	-69.6	0.0
2026-01-04 02:03:26.124096	229.1	23.1	-69.8	0.0
2026-01-04 02:03:27.238106	229.0	22.9	-69.6	0.0
2026-01-04 02:03:28.353615	228.9	22.8	-69.6	0.0
2026-01-04 02:03:29.467806	228.7	22.6	-69.6	0.0
2026-01-04 02:03:30.584347	228.6	22.4	-69.6	0.0
2026-01-04 02:03:31.698285	228.4	22.3	-69.5	0.0
2026-01-04 02:03:32.814508	228.3	22.1	-69.7	0.0
2026-01-04 02:03:33.928862	228.1	21.9	-69.2	0.0
2026-01-04 02:03:35.043270	228.0	21.8	-69.7	0.0
2026-01-04 02:03:36.157960	227.9	21.6	-69.6	0.0
2026-01-04 02:03:37.272692	227.7	21.4	-69.8	0.0
2026-01-04 02:03:38.387305	227.6	21.3	-69.8	0.0
2026-01-04 02:03:39.502469	227.5	21.1	-69.5	0.0
2026-01-04 02:03:40.616960	227.3	21.0	-69.7	0.0
2026-01-04 02:03:41.731585	227.2	20.8	-69.6	0.0
2026-01-04 02:03:42.846792	227.1	20.6	-69.9	0.0
2026-01-04 02:03:43.961698	227.0	20.5	-69.5	0.0
2026-01-04 02:03:45.077180	226.8	20.3	-69.4	0.0
2026-01-04 02:03:46.191681	226.7	20.2	-69.7	0.0
2026-01-04 02:03:47.305375	226.6	20.0	-69.6	0.0
2026-01-04 02:03:48.420257	226.5	19.9	-69.5	0.0
2026-01-04 02:03:49.534909	226.3	19.7	-69.7	0.0
2026-01-04 02:03:50.650323	226.2	19.6	-69.7	0.0
2026-01-04 02:03:51.765922	226.1	19.4	-69.5	0.0
2026-01-04 02:03:52.880933	226.0	19.3	-69.4	0.0
2026-01-04 02:03:53.995009	225.9	19.1	-69.4	0.0
2026-01-04 02:03:55.109921	225.8	19.0	-69.4	0.0
2026-01-04 02:03:56.225365	225.7	18.8	-69.4	0.0
2026-01-04 02:03:57.342642	225.5	18.7	-69.5	0.0
2026-01-04 02:03:58.456564	225.4	18.5	-69.6	0.0
2026-01-04 02:03:59.570202	225.3	18.4	-69.4	0.0
2026-01-04 02:04:00.685834	225.2	18.3	-69.6	0.0
2026-01-04 02:04:01.800282	225.1	18.1	-69.8	0.0
2026-01-04 02:04:02.915337	225.0	18.0	-69.6	0.0
2026-01-04 02:04:04.029661	224.9	17.8	-69.7	0.0
2026-01-04 02:04:05.144598	224.8	17.7	-69.8	0.0
2026-01-04 02:04:06.259818	224.7	17.5	-69.8	0.0
2026-01-04 02:04:07.374818	224.6	17.4	-69.7	0.0
2026-01-04 02:04:08.487723	224.5	17.3	-69.9	0.0
2026-01-04 02:04:09.602218	224.4	17.1	-69.4	0.0
2026-01-04 02:04:10.716907	224.3	17.0	-69.6	0.0
2026-01-04 02:04:11.831205	224.2	16.9	-69.7	0.0
2026-01-04 02:04:12.946950	224.1	16.7	-69.8	0.0
2026-01-04 02:04:14.061442	224.0	16.6	-69.7	0.0
2026-01-04 02:04:15.175947	223.9	16.5	-69.5	0.0
2026-01-04 02:04:16.290642	223.8	16.3	-69.8	0.0
2026-01-04 02:04:17.406724	223.7	16.2	-69.7	0.0
2026-01-04 02:04:18.520393	223.6	16.1	-69.8	0.0
2026-01-04 02:04:19.634423	223.5	15.9	-69.6	0.0
2026-01-04 02:04:20.748186	223.5	15.8	-69.8	0.0
2026-01-04 02:04:21.863136	223.4	15.7	-69.6	0.0
2026-01-04 02:04:22.977665	223.3	15.5	-69.7	0.0
2026-01-04 02:04:24.092577	223.2	15.4	-69.6	0.0
2026-01-04 02:04:25.207425	223.1	15.3	-69.8	0.0
2026-01-04 02:04:26.322396	223.0	15.2	-69.7	0.0
2026-01-04 02:04:27.437388	222.9	15.0	-69.7	0.0
2026-01-04 02:04:28.552110	222.8	14.9	-69.7	0.0
#Closed at: 2026-01-04 01:56:58.760548