passes_logs/2025/01/23/X_MFTI_02/X_MFTI_02__20250123_003329_AQUA_rec.log

#Pass ID: 20250123_003329_AQUA
#Satellite: AQUA
#Configuration: AQUA
#Start time: 2025-01-23 00:33:24

#Version: 1.5.20200625
#Station: X_MFTI_02
#Location: 37.5186 lon 55.9291 lat
#TLE: 1 27424U 02022A   23362.45420161  .00001617  00000+0  35675-3 0  9997
#TLE: 2 27424  98.3111 306.4798 0000768  48.9916  62.2296 14.58703046151674

#Time	Az	El	Level	Level2	SNR	BER	Gain	Gain2
2025-01-23 00:33:27.03	49.79	68.85	
2025-01-23 00:33:27.23	49.98	68.94	
2025-01-23 00:33:27.43	50.16	69.03	
2025-01-23 00:33:27.63	50.35	69.12	
2025-01-23 00:33:27.83	50.54	69.21	
2025-01-23 00:33:28.04	50.74	69.30	
2025-01-23 00:33:28.25	50.95	69.40	
2025-01-23 00:33:28.46	51.15	69.49	
2025-01-23 00:33:28.66	51.35	69.58	
2025-01-23 00:33:28.87	51.56	69.67	
2025-01-23 00:33:29.07	51.76	69.76	
2025-01-23 00:33:29.27	51.97	69.85	
2025-01-23 00:33:29.48	52.18	69.94	
2025-01-23 00:33:29.68	52.39	70.03	
2025-01-23 00:33:29.89	52.61	70.13	
2025-01-23 00:33:30.09	52.82	70.21	
2025-01-23 00:33:30.29	53.03	70.30	
2025-01-23 00:33:30.50	53.26	70.39	
2025-01-23 00:33:30.70	53.48	70.48	
2025-01-23 00:33:30.91	53.71	70.57	
2025-01-23 00:33:31.11	53.93	70.66	
2025-01-23 00:33:31.32	54.16	70.75	
2025-01-23 00:33:31.52	54.39	70.84	
2025-01-23 00:33:31.73	54.63	70.93	
2025-01-23 00:33:31.95	54.89	71.02	
2025-01-23 00:33:32.15	55.12	71.11	
2025-01-23 00:33:32.36	55.37	71.20	
2025-01-23 00:33:32.57	55.62	71.29	
2025-01-23 00:33:32.77	55.86	71.38	
2025-01-23 00:33:32.98	56.11	71.46	
2025-01-23 00:33:33.18	56.36	71.55	
2025-01-23 00:33:33.39	56.62	71.64	
2025-01-23 00:33:33.59	56.87	71.72	
2025-01-23 00:33:33.79	57.12	71.81	
2025-01-23 00:33:34.00	57.39	71.89	
2025-01-23 00:33:34.21	57.66	71.98	
2025-01-23 00:33:34.41	57.92	72.07	
2025-01-23 00:33:34.61	58.18	72.15	
2025-01-23 00:33:34.82	58.46	72.24	
2025-01-23 00:33:35.02	58.73	72.32	
2025-01-23 00:33:35.22	59.00	72.40	
2025-01-23 00:33:35.42	59.27	72.48	
2025-01-23 00:33:35.63	59.56	72.57	
2025-01-23 00:33:35.84	59.86	72.65	
2025-01-23 00:33:36.04	60.14	72.73	
2025-01-23 00:33:36.25	60.44	72.82	
2025-01-23 00:33:36.45	60.73	72.90	
2025-01-23 00:33:36.65	61.02	72.98	
2025-01-23 00:33:36.86	61.32	73.06	
2025-01-23 00:33:37.07	61.64	73.14	
2025-01-23 00:33:37.28	61.95	73.23	
2025-01-23 00:33:37.49	62.27	73.31	
2025-01-23 00:33:37.70	62.59	73.39	
2025-01-23 00:33:37.90	62.90	73.47	
2025-01-23 00:33:38.11	63.23	73.55	
2025-01-23 00:33:38.31	63.54	73.62	
2025-01-23 00:33:38.51	63.86	73.70	
2025-01-23 00:33:38.72	64.20	73.78	
2025-01-23 00:33:38.93	64.54	73.86	
2025-01-23 00:33:39.14	64.88	73.94	
2025-01-23 00:33:39.35	65.23	74.01	
2025-01-23 00:33:39.55	65.57	74.09	
2025-01-23 00:33:39.76	65.92	74.17	
2025-01-23 00:33:39.97	66.28	74.24	
2025-01-23 00:33:40.17	66.62	74.31	
2025-01-23 00:33:40.38	66.99	74.39	
2025-01-23 00:33:40.59	67.36	74.46	
2025-01-23 00:33:40.79	67.71	74.53	
2025-01-23 00:33:40.99	68.07	74.60	
2025-01-23 00:33:41.20	68.45	74.68	
2025-01-23 00:33:41.41	68.84	74.75	
2025-01-23 00:33:41.62	69.22	74.82	
2025-01-23 00:33:41.82	69.60	74.89	
2025-01-23 00:33:42.02	69.97	74.96	
2025-01-23 00:33:42.22	70.35	75.02	
2025-01-23 00:33:42.43	70.76	75.09	
2025-01-23 00:33:42.63	71.14	75.16	
2025-01-23 00:33:42.84	71.55	75.23	
2025-01-23 00:33:43.04	71.95	75.29	
2025-01-23 00:33:43.24	72.35	75.35	
2025-01-23 00:33:43.45	72.77	75.42	
2025-01-23 00:33:43.65	73.17	75.48	
2025-01-23 00:33:43.86	73.60	75.55	
2025-01-23 00:33:44.06	74.01	75.61	
2025-01-23 00:33:44.27	74.45	75.67	
2025-01-23 00:33:44.47	74.87	75.73	
2025-01-23 00:33:44.68	75.32	75.79	
2025-01-23 00:33:44.88	75.74	75.85	
2025-01-23 00:33:45.08	76.17	75.90	
2025-01-23 00:33:45.28	76.61	75.96	
2025-01-23 00:33:45.49	77.07	76.02	
2025-01-23 00:33:45.70	77.53	76.08	
2025-01-23 00:33:45.90	77.98	76.13	
2025-01-23 00:33:46.10	78.43	76.18	
2025-01-23 00:33:46.31	78.90	76.24	
2025-01-23 00:33:46.52	79.38	76.29	
2025-01-23 00:33:46.73	79.87	76.35	
2025-01-23 00:33:46.93	80.33	76.40	
2025-01-23 00:33:47.14	80.82	76.45	
2025-01-23 00:33:47.34	81.29	76.49	
2025-01-23 00:33:47.54	81.77	76.54	
2025-01-23 00:33:47.74	82.24	76.59	
2025-01-23 00:33:47.95	82.75	76.64	
2025-01-23 00:33:48.15	83.23	76.68	
2025-01-23 00:33:48.36	83.75	76.73	
2025-01-23 00:33:48.56	84.24	76.77	
2025-01-23 00:33:48.77	84.76	76.81	
2025-01-23 00:33:48.97	85.25	76.85	
2025-01-23 00:33:49.18	85.78	76.89	
2025-01-23 00:33:49.38	86.28	76.93	
2025-01-23 00:33:49.58	86.79	76.97	
2025-01-23 00:33:49.79	87.33	77.01	
2025-01-23 00:33:49.99	87.84	77.04	
2025-01-23 00:33:50.20	88.38	77.08	
2025-01-23 00:33:50.40	88.90	77.11	
2025-01-23 00:33:50.61	89.45	77.15	
2025-01-23 00:33:50.82	90.00	77.18	
2025-01-23 00:33:51.03	90.56	77.21	
2025-01-23 00:33:51.23	91.09	77.24	
2025-01-23 00:33:51.43	91.62	77.27	
2025-01-23 00:33:51.63	92.15	77.30	
2025-01-23 00:33:51.84	92.72	77.32	
2025-01-23 00:33:52.05	93.28	77.35	
2025-01-23 00:33:52.25	93.83	77.37	
2025-01-23 00:33:52.45	94.37	77.40	
2025-01-23 00:33:52.65	94.92	77.42	
2025-01-23 00:33:52.86	95.49	77.44	
2025-01-23 00:33:53.07	96.07	77.46	
2025-01-23 00:33:53.28	96.65	77.48	
2025-01-23 00:33:53.48	97.20	77.50	
2025-01-23 00:33:53.69	97.78	77.51	
2025-01-23 00:33:53.90	98.37	77.53	
2025-01-23 00:33:54.11	98.95	77.54	
2025-01-23 00:33:54.32	99.54	77.55	
2025-01-23 00:33:54.52	100.10	77.56	
2025-01-23 00:33:54.73	100.69	77.57	
2025-01-23 00:33:54.93	101.25	77.58	
2025-01-23 00:33:55.14	101.84	77.59	
2025-01-23 00:33:55.34	102.40	77.60	
2025-01-23 00:33:55.54	102.97	77.60	
2025-01-23 00:33:55.75	103.56	77.61	
2025-01-23 00:33:55.96	104.15	77.61	
2025-01-23 00:33:56.17	104.74	77.61	
2025-01-23 00:33:56.38	105.34	77.61	
2025-01-23 00:33:56.59	105.93	77.61	
2025-01-23 00:33:56.79	106.49	77.61	
2025-01-23 00:33:56.99	107.06	77.60	
2025-01-23 00:33:57.20	107.65	77.60	
2025-01-23 00:33:57.40	108.21	77.59	
2025-01-23 00:33:57.60	108.78	77.59	
2025-01-23 00:33:57.82	109.39	77.58	
2025-01-23 00:33:58.02	109.96	77.57	
2025-01-23 00:33:58.23	110.54	77.56	
2025-01-23 00:33:58.43	111.10	77.55	
2025-01-23 00:33:58.64	111.69	77.53	
2025-01-23 00:33:58.85	112.27	77.52	
2025-01-23 00:33:59.06	112.86	77.50	
2025-01-23 00:33:59.26	113.41	77.48	
2025-01-23 00:33:59.47	113.99	77.47	
2025-01-23 00:33:59.67	114.54	77.45	
2025-01-23 00:33:59.87	115.09	77.43	
2025-01-23 00:34:00.08	115.66	77.40	
2025-01-23 00:34:00.28	116.21	77.38	
2025-01-23 00:34:00.49	116.78	77.36	
2025-01-23 00:34:00.69	117.32	77.33	
2025-01-23 00:34:00.90	117.88	77.31	
2025-01-23 00:34:01.10	118.42	77.28	
2025-01-23 00:34:01.30	118.95	77.25	
2025-01-23 00:34:01.50	119.48	77.22	
2025-01-23 00:34:01.71	120.04	77.19	
2025-01-23 00:34:01.92	120.59	77.16	
2025-01-23 00:34:02.12	121.12	77.13	
2025-01-23 00:34:02.32	121.64	77.09	
2025-01-23 00:34:02.53	122.18	77.06	
2025-01-23 00:34:02.73	122.69	77.02	
2025-01-23 00:34:02.93	123.21	76.99	
2025-01-23 00:34:03.14	123.74	76.95	
2025-01-23 00:34:03.34	124.25	76.91	
2025-01-23 00:34:03.54	124.75	76.87	
2025-01-23 00:34:03.75	125.27	76.83	
2025-01-23 00:34:03.95	125.77	76.79	
2025-01-23 00:34:04.16	126.29	76.74	
2025-01-23 00:34:04.36	126.78	76.70	
2025-01-23 00:34:04.56	127.26	76.66	
2025-01-23 00:34:04.77	127.77	76.61	
2025-01-23 00:34:04.98	128.28	76.56	
2025-01-23 00:34:05.18	128.75	76.51	
2025-01-23 00:34:05.38	129.22	76.47	
2025-01-23 00:34:05.58	129.69	76.42	
2025-01-23 00:34:05.79	130.18	76.37	
2025-01-23 00:34:05.99	130.64	76.32	
2025-01-23 00:34:06.20	131.13	76.26	
2025-01-23 00:34:06.40	131.58	76.21	
2025-01-23 00:34:06.61	132.05	76.16	
2025-01-23 00:34:06.82	132.52	76.10	
2025-01-23 00:34:07.03	132.99	76.04	
2025-01-23 00:34:07.23	133.43	75.99	
2025-01-23 00:34:07.45	133.91	75.92	
2025-01-23 00:34:07.65	134.34	75.87	
2025-01-23 00:34:07.85	134.77	75.81	
2025-01-23 00:34:08.06	135.22	75.75	
2025-01-23 00:34:08.26	135.64	75.69	
2025-01-23 00:34:08.47	136.08	75.63	
2025-01-23 00:34:08.68	136.51	75.56	
2025-01-23 00:34:08.88	136.92	75.50	
2025-01-23 00:34:09.08	137.33	75.44	
2025-01-23 00:34:09.29	137.75	75.37	
2025-01-23 00:34:09.50	138.17	75.31	
2025-01-23 00:34:09.71	138.59	75.24	
2025-01-23 00:34:09.92	139.00	75.17	
2025-01-23 00:34:10.12	139.39	75.11	
2025-01-23 00:34:10.33	139.79	75.04	
2025-01-23 00:34:10.53	140.17	74.97	
2025-01-23 00:34:10.73	140.55	74.91	
2025-01-23 00:34:10.93	140.93	74.84	
2025-01-23 00:34:11.14	141.31	74.77	
2025-01-23 00:34:11.34	141.68	74.70	
2025-01-23 00:34:11.54	142.04	74.63	
2025-01-23 00:34:11.75	142.42	74.55	
2025-01-23 00:34:11.95	142.78	74.48	
2025-01-23 00:34:12.15	143.13	74.41	
2025-01-23 00:34:12.36	143.50	74.34	
2025-01-23 00:34:12.56	143.85	74.27	
2025-01-23 00:34:12.77	144.21	74.19	
2025-01-23 00:34:12.97	144.55	74.12	
2025-01-23 00:34:13.18	144.90	74.04	
2025-01-23 00:34:13.39	145.25	73.96	
2025-01-23 00:34:13.59	145.58	73.89	
2025-01-23 00:34:13.80	145.92	73.81	
2025-01-23 00:34:14.00	146.24	73.73	
2025-01-23 00:34:14.21	146.58	73.65	
2025-01-23 00:34:14.41	146.90	73.58	
2025-01-23 00:34:14.61	147.21	73.50	
2025-01-23 00:34:14.81	147.52	73.42	
2025-01-23 00:34:15.02	147.84	73.34	
2025-01-23 00:34:15.22	148.15	73.26	
2025-01-23 00:34:15.42	148.45	73.18	
2025-01-23 00:34:15.62	148.75	73.10	
2025-01-23 00:34:15.83	149.06	73.02	
2025-01-23 00:34:16.03	149.35	72.94	
2025-01-23 00:34:16.24	149.66	72.86	
2025-01-23 00:34:16.44	149.94	72.78	
2025-01-23 00:34:16.64	150.23	72.70	
2025-01-23 00:34:16.85	150.52	72.61	
2025-01-23 00:34:17.06	150.81	72.53	
2025-01-23 00:34:17.27	151.10	72.44	
2025-01-23 00:34:17.48	151.39	72.35	
2025-01-23 00:34:17.69	151.67	72.27	
2025-01-23 00:34:17.89	151.94	72.18	
2025-01-23 00:34:18.09	152.20	72.10	
2025-01-23 00:34:18.30	152.48	72.01	
2025-01-23 00:34:18.50	152.74	71.93	
2025-01-23 00:34:18.70	153.00	71.85	
2025-01-23 00:34:18.91	153.26	71.76	
2025-01-23 00:34:19.12	153.53	71.67	
2025-01-23 00:34:19.33	153.79	71.58	
2025-01-23 00:34:19.53	154.03	71.50	
2025-01-23 00:34:19.73	154.28	71.41	
2025-01-23 00:34:19.94	154.53	71.32	
2025-01-23 00:34:20.15	154.78	71.23	
2025-01-23 00:34:20.35	155.02	71.15	
2025-01-23 00:34:20.56	155.27	71.05	
2025-01-23 00:34:20.76	155.50	70.97	
2025-01-23 00:34:20.96	155.73	70.88	
2025-01-23 00:34:21.17	155.97	70.79	
2025-01-23 00:34:21.37	156.19	70.70	
2025-01-23 00:34:21.57	156.42	70.62	
2025-01-23 00:34:21.77	156.64	70.53	
2025-01-23 00:34:21.98	156.87	70.44	
2025-01-23 00:34:22.20	157.11	70.34	
2025-01-23 00:34:22.40	157.32	70.25	
2025-01-23 00:34:22.61	157.55	70.16	
2025-01-23 00:34:22.82	157.77	70.07	

#Closed at: 2025-01-23 00:34:23