passes_logs/2025/01/23/X_MFTI_02/X_MFTI_02__20250123_182050_TERRA_rec.log

#Pass ID: 20250123_182050_TERRA
#Satellite: TERRA
#Configuration: TERRA
#Start time: 2025-01-23 18:20:44

#Version: 1.5.20200625
#Station: X_MFTI_02
#Location: 37.5186 lon 55.9291 lat
#TLE: 1 25994U 99068A   23362.45014226  .00000817  00000+0  18168-3 0  9993
#TLE: 2 25994  98.0729  65.8244 0002317 146.5078 343.6211 14.59509299278111

#Time	Az	El	Level	Level2	SNR	BER	Gain	Gain2
2025-01-23 18:20:46.94	171.41	68.56	
2025-01-23 18:20:47.15	171.46	68.67	
2025-01-23 18:20:47.36	171.51	68.79	
2025-01-23 18:20:47.56	171.55	68.90	
2025-01-23 18:20:47.78	171.60	69.02	
2025-01-23 18:20:47.98	171.65	69.13	
2025-01-23 18:20:48.19	171.69	69.24	
2025-01-23 18:20:48.39	171.74	69.35	
2025-01-23 18:20:48.59	171.79	69.46	
2025-01-23 18:20:48.80	171.84	69.58	
2025-01-23 18:20:49.00	171.89	69.69	
2025-01-23 18:20:49.21	171.94	69.80	
2025-01-23 18:20:49.42	171.99	69.92	
2025-01-23 18:20:49.63	172.04	70.04	
2025-01-23 18:20:49.84	172.09	70.15	
2025-01-23 18:20:50.04	172.15	70.26	
2025-01-23 18:20:50.24	172.20	70.37	
2025-01-23 18:20:50.45	172.25	70.49	
2025-01-23 18:20:50.66	172.31	70.61	
2025-01-23 18:20:50.86	172.36	70.72	
2025-01-23 18:20:51.06	172.42	70.83	
2025-01-23 18:20:51.27	172.47	70.95	
2025-01-23 18:20:51.47	172.53	71.06	
2025-01-23 18:20:51.67	172.59	71.17	
2025-01-23 18:20:51.88	172.65	71.29	
2025-01-23 18:20:52.08	172.71	71.40	
2025-01-23 18:20:52.29	172.77	71.52	
2025-01-23 18:20:52.49	172.83	71.63	
2025-01-23 18:20:52.70	172.89	71.75	
2025-01-23 18:20:52.90	172.95	71.86	
2025-01-23 18:20:53.10	173.01	71.97	
2025-01-23 18:20:53.31	173.08	72.09	
2025-01-23 18:20:53.51	173.14	72.20	
2025-01-23 18:20:53.72	173.21	72.32	
2025-01-23 18:20:53.93	173.28	72.44	
2025-01-23 18:20:54.13	173.35	72.55	
2025-01-23 18:20:54.34	173.42	72.67	
2025-01-23 18:20:54.54	173.48	72.79	
2025-01-23 18:20:54.75	173.56	72.90	
2025-01-23 18:20:54.96	173.63	73.02	
2025-01-23 18:20:55.16	173.70	73.14	
2025-01-23 18:20:55.37	173.78	73.26	
2025-01-23 18:20:55.57	173.85	73.37	
2025-01-23 18:20:55.78	173.93	73.49	
2025-01-23 18:20:55.98	174.00	73.60	
2025-01-23 18:20:56.19	174.08	73.72	
2025-01-23 18:20:56.39	174.16	73.84	
2025-01-23 18:20:56.59	174.24	73.95	
2025-01-23 18:20:56.79	174.32	74.06	
2025-01-23 18:20:57.00	174.41	74.18	
2025-01-23 18:20:57.20	174.49	74.30	
2025-01-23 18:20:57.41	174.58	74.42	
2025-01-23 18:20:57.61	174.66	74.53	
2025-01-23 18:20:57.82	174.75	74.65	
2025-01-23 18:20:58.02	174.84	74.77	
2025-01-23 18:20:58.23	174.93	74.89	
2025-01-23 18:20:58.44	175.03	75.01	
2025-01-23 18:20:58.64	175.12	75.12	
2025-01-23 18:20:58.85	175.22	75.25	
2025-01-23 18:20:59.06	175.32	75.37	
2025-01-23 18:20:59.26	175.42	75.48	
2025-01-23 18:20:59.46	175.51	75.60	
2025-01-23 18:20:59.67	175.62	75.72	
2025-01-23 18:20:59.87	175.72	75.83	
2025-01-23 18:21:00.07	175.83	75.95	
2025-01-23 18:21:00.28	175.94	76.07	
2025-01-23 18:21:00.48	176.04	76.18	
2025-01-23 18:21:00.69	176.16	76.31	
2025-01-23 18:21:00.90	176.27	76.43	
2025-01-23 18:21:01.10	176.39	76.54	
2025-01-23 18:21:01.31	176.51	76.66	
2025-01-23 18:21:01.51	176.63	76.78	
2025-01-23 18:21:01.72	176.75	76.90	
2025-01-23 18:21:01.92	176.87	77.02	
2025-01-23 18:21:02.12	177.00	77.13	
2025-01-23 18:21:02.33	177.13	77.25	
2025-01-23 18:21:02.53	177.26	77.37	
2025-01-23 18:21:02.74	177.40	77.49	
2025-01-23 18:21:02.95	177.54	77.61	
2025-01-23 18:21:03.17	177.69	77.74	
2025-01-23 18:21:03.38	177.83	77.86	
2025-01-23 18:21:03.58	177.98	77.98	
2025-01-23 18:21:03.78	178.12	78.09	
2025-01-23 18:21:03.99	178.28	78.21	
2025-01-23 18:21:04.20	178.44	78.34	
2025-01-23 18:21:04.40	178.59	78.45	
2025-01-23 18:21:04.60	178.75	78.57	
2025-01-23 18:21:04.81	178.92	78.69	
2025-01-23 18:21:05.02	179.09	78.81	
2025-01-23 18:21:05.22	179.26	78.93	
2025-01-23 18:21:05.43	179.44	79.05	
2025-01-23 18:21:05.64	179.62	79.17	
2025-01-23 18:21:05.84	179.80	79.29	
2025-01-23 18:21:06.04	179.99	79.40	
2025-01-23 18:21:06.25	180.18	79.52	
2025-01-23 18:21:06.45	180.38	79.64	
2025-01-23 18:21:06.65	180.57	79.76	
2025-01-23 18:21:06.86	180.78	79.88	
2025-01-23 18:21:07.06	180.99	79.99	
2025-01-23 18:21:07.26	181.20	80.11	
2025-01-23 18:21:07.47	181.43	80.23	
2025-01-23 18:21:07.68	181.66	80.35	
2025-01-23 18:21:07.88	181.89	80.47	
2025-01-23 18:21:08.09	182.13	80.59	
2025-01-23 18:21:08.29	182.37	80.70	
2025-01-23 18:21:08.51	182.64	80.83	
2025-01-23 18:21:08.71	182.90	80.94	
2025-01-23 18:21:08.92	183.17	81.06	
2025-01-23 18:21:09.12	183.43	81.18	
2025-01-23 18:21:09.32	183.71	81.29	
2025-01-23 18:21:09.52	183.99	81.41	
2025-01-23 18:21:09.74	184.30	81.53	
2025-01-23 18:21:09.94	184.60	81.65	
2025-01-23 18:21:10.15	184.92	81.77	
2025-01-23 18:21:10.35	185.24	81.88	
2025-01-23 18:21:10.55	185.56	81.99	
2025-01-23 18:21:10.76	185.91	82.11	
2025-01-23 18:21:10.96	186.25	82.22	
2025-01-23 18:21:11.16	186.60	82.34	
2025-01-23 18:21:11.37	186.99	82.46	
2025-01-23 18:21:11.57	187.36	82.57	
2025-01-23 18:21:11.77	187.75	82.68	
2025-01-23 18:21:11.98	188.17	82.80	
2025-01-23 18:21:12.18	188.58	82.91	
2025-01-23 18:21:12.39	189.03	83.03	
2025-01-23 18:21:12.59	189.47	83.14	
2025-01-23 18:21:12.80	189.94	83.25	
2025-01-23 18:21:13.01	190.44	83.37	
2025-01-23 18:21:13.21	190.92	83.48	
2025-01-23 18:21:13.43	191.48	83.60	
2025-01-23 18:21:13.63	192.00	83.71	
2025-01-23 18:21:13.84	192.57	83.82	
2025-01-23 18:21:14.05	193.16	83.93	
2025-01-23 18:21:14.26	193.77	84.04	
2025-01-23 18:21:14.46	194.38	84.15	
2025-01-23 18:21:14.66	195.01	84.26	
2025-01-23 18:21:14.87	195.69	84.37	
2025-01-23 18:21:15.07	196.37	84.47	
2025-01-23 18:21:15.27	197.07	84.57	
2025-01-23 18:21:15.48	197.84	84.68	
2025-01-23 18:21:15.68	198.60	84.78	
2025-01-23 18:21:15.88	199.39	84.88	
2025-01-23 18:21:16.08	200.21	84.98	
2025-01-23 18:21:16.29	201.11	85.09	
2025-01-23 18:21:16.50	202.05	85.19	
2025-01-23 18:21:16.70	202.98	85.29	
2025-01-23 18:21:16.91	204.00	85.39	
2025-01-23 18:21:17.13	205.12	85.49	
2025-01-23 18:21:17.34	206.23	85.58	
2025-01-23 18:21:17.54	207.34	85.68	
2025-01-23 18:21:17.75	208.55	85.77	
2025-01-23 18:21:17.95	209.76	85.86	
2025-01-23 18:21:18.17	211.14	85.95	
2025-01-23 18:21:18.37	212.46	86.03	
2025-01-23 18:21:18.58	213.90	86.12	
2025-01-23 18:21:18.79	215.40	86.20	
2025-01-23 18:21:18.99	216.90	86.27	
2025-01-23 18:21:19.21	218.61	86.35	
2025-01-23 18:21:19.41	220.23	86.42	
2025-01-23 18:21:19.61	221.92	86.49	
2025-01-23 18:21:19.82	223.76	86.56	
2025-01-23 18:21:20.03	225.67	86.62	
2025-01-23 18:21:20.24	227.65	86.68	
2025-01-23 18:21:20.44	229.60	86.73	
2025-01-23 18:21:20.66	231.81	86.79	
2025-01-23 18:21:20.86	233.89	86.83	
2025-01-23 18:21:21.06	236.03	86.87	
2025-01-23 18:21:21.27	238.32	86.91	
2025-01-23 18:21:21.47	240.56	86.94	
2025-01-23 18:21:21.67	242.84	86.96	
2025-01-23 18:21:21.87	245.15	86.99	
2025-01-23 18:21:22.08	247.61	87.00	
2025-01-23 18:21:22.29	250.10	87.01	
2025-01-23 18:21:22.50	252.60	87.02	
2025-01-23 18:21:22.70	254.98	87.02	
2025-01-23 18:21:22.91	257.48	87.02	
2025-01-23 18:21:23.11	259.85	87.00	
2025-01-23 18:21:23.31	262.19	86.99	
2025-01-23 18:21:23.52	264.63	86.97	
2025-01-23 18:21:23.73	267.03	86.94	
2025-01-23 18:21:23.93	269.26	86.91	
2025-01-23 18:21:24.13	271.46	86.88	
2025-01-23 18:21:24.34	273.70	86.83	
2025-01-23 18:21:24.55	275.89	86.79	
2025-01-23 18:21:24.75	277.91	86.74	
2025-01-23 18:21:24.95	279.86	86.69	
2025-01-23 18:21:25.16	281.85	86.63	
2025-01-23 18:21:25.36	283.68	86.57	
2025-01-23 18:21:25.56	285.44	86.50	
2025-01-23 18:21:25.77	287.23	86.44	
2025-01-23 18:21:25.97	288.86	86.37	
2025-01-23 18:21:26.17	290.43	86.29	
2025-01-23 18:21:26.38	292.01	86.21	
2025-01-23 18:21:26.59	293.53	86.13	
2025-01-23 18:21:26.80	294.98	86.05	
2025-01-23 18:21:27.00	296.31	85.97	
2025-01-23 18:21:27.21	297.64	85.88	
2025-01-23 18:21:27.41	298.86	85.79	
2025-01-23 18:21:27.61	300.03	85.70	
2025-01-23 18:21:27.82	301.21	85.61	
2025-01-23 18:21:28.02	302.28	85.52	
2025-01-23 18:21:28.23	303.36	85.42	
2025-01-23 18:21:28.44	304.40	85.32	
2025-01-23 18:21:28.64	305.34	85.23	
2025-01-23 18:21:28.84	306.25	85.13	
2025-01-23 18:21:29.05	307.16	85.03	
2025-01-23 18:21:29.26	308.04	84.92	
2025-01-23 18:21:29.46	308.84	84.82	
2025-01-23 18:21:29.67	309.65	84.71	
2025-01-23 18:21:29.89	310.47	84.60	
2025-01-23 18:21:30.09	311.18	84.50	
2025-01-23 18:21:30.29	311.86	84.40	
2025-01-23 18:21:30.50	312.55	84.29	
2025-01-23 18:21:30.70	313.19	84.18	
2025-01-23 18:21:30.91	313.83	84.07	
2025-01-23 18:21:31.12	314.44	83.96	
2025-01-23 18:21:31.32	315.01	83.85	
2025-01-23 18:21:31.53	315.59	83.74	
2025-01-23 18:21:31.74	316.14	83.62	
2025-01-23 18:21:31.94	316.65	83.51	
2025-01-23 18:21:32.15	317.16	83.40	
2025-01-23 18:21:32.36	317.66	83.28	
2025-01-23 18:21:32.56	318.12	83.17	
2025-01-23 18:21:32.77	318.59	83.06	
2025-01-23 18:21:32.97	319.02	82.95	
2025-01-23 18:21:33.17	319.43	82.84	
2025-01-23 18:21:33.38	319.86	82.72	
2025-01-23 18:21:33.60	320.29	82.60	
2025-01-23 18:21:33.80	320.66	82.48	
2025-01-23 18:21:34.00	321.03	82.37	
2025-01-23 18:21:34.21	321.40	82.25	
2025-01-23 18:21:34.41	321.75	82.14	
2025-01-23 18:21:34.63	322.12	82.02	
2025-01-23 18:21:34.83	322.44	81.90	
2025-01-23 18:21:35.03	322.76	81.79	
2025-01-23 18:21:35.24	323.08	81.67	
2025-01-23 18:21:35.44	323.38	81.56	
2025-01-23 18:21:35.64	323.67	81.44	
2025-01-23 18:21:35.85	323.96	81.32	
2025-01-23 18:21:36.06	324.25	81.20	
2025-01-23 18:21:36.27	324.53	81.08	
2025-01-23 18:21:36.48	324.80	80.96	
2025-01-23 18:21:36.68	325.06	80.85	
2025-01-23 18:21:36.90	325.33	80.72	
2025-01-23 18:21:37.10	325.57	80.60	
2025-01-23 18:21:37.31	325.81	80.48	
2025-01-23 18:21:37.51	326.04	80.37	
2025-01-23 18:21:37.72	326.27	80.25	
2025-01-23 18:21:37.92	326.49	80.13	
2025-01-23 18:21:38.12	326.70	80.02	
2025-01-23 18:21:38.33	326.92	79.90	
2025-01-23 18:21:38.53	327.12	79.78	
2025-01-23 18:21:38.73	327.32	79.67	
2025-01-23 18:21:38.94	327.52	79.54	
2025-01-23 18:21:39.14	327.71	79.43	
2025-01-23 18:21:39.35	327.91	79.31	
2025-01-23 18:21:39.56	328.09	79.19	
2025-01-23 18:21:39.76	328.27	79.07	
2025-01-23 18:21:39.97	328.45	78.95	
2025-01-23 18:21:40.17	328.62	78.83	
2025-01-23 18:21:40.38	328.79	78.71	
2025-01-23 18:21:40.58	328.96	78.60	
2025-01-23 18:21:40.78	329.11	78.48	
2025-01-23 18:21:40.98	329.27	78.36	
2025-01-23 18:21:41.20	329.44	78.24	
2025-01-23 18:21:41.40	329.58	78.12	
2025-01-23 18:21:41.60	329.73	78.01	
2025-01-23 18:21:41.81	329.88	77.88	
2025-01-23 18:21:42.01	330.02	77.77	
2025-01-23 18:21:42.22	330.16	77.65	
2025-01-23 18:21:42.42	330.30	77.53	
2025-01-23 18:21:42.62	330.43	77.42	
2025-01-23 18:21:42.83	330.57	77.29	
2025-01-23 18:21:43.03	330.69	77.18	
2025-01-23 18:21:43.24	330.82	77.06	
2025-01-23 18:21:43.45	330.95	76.94	
2025-01-23 18:21:43.65	331.07	76.82	
2025-01-23 18:21:43.86	331.20	76.70	
2025-01-23 18:21:44.06	331.31	76.58	
2025-01-23 18:21:44.26	331.43	76.47	
2025-01-23 18:21:44.47	331.54	76.35	
2025-01-23 18:21:44.67	331.65	76.23	
2025-01-23 18:21:44.89	331.77	76.11	
2025-01-23 18:21:45.09	331.88	75.99	
2025-01-23 18:21:45.29	331.98	75.88	
2025-01-23 18:21:45.50	332.09	75.75	
2025-01-23 18:21:45.70	332.19	75.64	
2025-01-23 18:21:45.91	332.29	75.52	
2025-01-23 18:21:46.11	332.39	75.40	
2025-01-23 18:21:46.32	332.49	75.28	
2025-01-23 18:21:46.53	332.59	75.16	
2025-01-23 18:21:46.73	332.68	75.05	
2025-01-23 18:21:46.94	332.78	74.93	
2025-01-23 18:21:47.14	332.87	74.81	
2025-01-23 18:21:47.34	332.95	74.70	
2025-01-23 18:21:47.55	333.05	74.58	
2025-01-23 18:21:47.75	333.13	74.47	
2025-01-23 18:21:47.95	333.22	74.35	
2025-01-23 18:21:48.16	333.30	74.23	
2025-01-23 18:21:48.36	333.38	74.12	
2025-01-23 18:21:48.56	333.46	74.00	
2025-01-23 18:21:48.78	333.55	73.88	
2025-01-23 18:21:48.98	333.63	73.76	
2025-01-23 18:21:49.19	333.71	73.64	
2025-01-23 18:21:49.39	333.79	73.53	
2025-01-23 18:21:49.60	333.86	73.41	
2025-01-23 18:21:49.80	333.94	73.30	
2025-01-23 18:21:50.00	334.01	73.19	
2025-01-23 18:21:50.21	334.08	73.07	
2025-01-23 18:21:50.42	334.16	72.95	
2025-01-23 18:21:50.63	334.23	72.83	
2025-01-23 18:21:50.83	334.30	72.72	
2025-01-23 18:21:51.03	334.37	72.60	
2025-01-23 18:21:51.24	334.44	72.48	
2025-01-23 18:21:51.44	334.50	72.37	
2025-01-23 18:21:51.64	334.57	72.26	
2025-01-23 18:21:51.84	334.63	72.15	
2025-01-23 18:21:52.05	334.70	72.03	
2025-01-23 18:21:52.25	334.76	71.92	
2025-01-23 18:21:52.45	334.82	71.80	
2025-01-23 18:21:52.66	334.88	71.69	
2025-01-23 18:21:52.87	334.95	71.57	
2025-01-23 18:21:53.07	335.01	71.46	
2025-01-23 18:21:53.27	335.06	71.35	
2025-01-23 18:21:53.48	335.12	71.23	
2025-01-23 18:21:53.69	335.18	71.11	
2025-01-23 18:21:53.90	335.24	70.99	
2025-01-23 18:21:54.10	335.30	70.88	
2025-01-23 18:21:54.30	335.35	70.77	
2025-01-23 18:21:54.51	335.41	70.66	
2025-01-23 18:21:54.71	335.46	70.54	
2025-01-23 18:21:54.92	335.52	70.43	
2025-01-23 18:21:55.12	335.57	70.32	
2025-01-23 18:21:55.32	335.62	70.21	
2025-01-23 18:21:55.53	335.68	70.09	

#Closed at: 2025-01-23 18:21:55