passes_logs/2025/01/25/Planum_Noyabrsk/Planum_Noyabrsk__20250125_151331_NOAA_19_rec.log

#Pass ID: 20250125_151331_NOAA 19
#Satellite: NOAA 19
#Configuration: NOAA 19
#Start time: 2025-01-25 15:13:36.206732

#LorettStation: 1.0.0 05.05.2024
#Station: Planum_Noyabrsk
#Location: 75.446886 lon 63.207202 lat
#TLE: 1 33591U 09005A   25024.56176042  .00000462  00000+0  27048-3 0  9994
#TLE: 2 33591  99.0180  88.3973 0014119  31.6053 328.5964 14.13268197822632

#Time	Az	El	Level	SNR
2025-01-25 15:13:42.976654	152.3	31.3	-65.7	11.3
2025-01-25 15:13:44.117644	152.3	31.5	-65.5	11.5
2025-01-25 15:13:45.259633	152.3	31.8	-65.6	10.9
2025-01-25 15:13:46.400622	152.3	32.0	-65.5	10.5
2025-01-25 15:13:47.545117	152.3	32.2	-64.6	8.0
2025-01-25 15:13:48.685616	152.2	32.5	-65.8	10.6
2025-01-25 15:13:49.829598	152.2	32.7	-66.6	11.3
2025-01-25 15:13:50.972583	152.2	32.9	-66.2	11.3
2025-01-25 15:13:52.114571	152.2	33.2	-66.1	11.1
2025-01-25 15:13:53.256559	152.1	33.4	-66.0	11.0
2025-01-25 15:13:54.397549	152.1	33.7	-66.0	11.4
2025-01-25 15:13:55.538540	152.1	33.9	-66.2	11.9
2025-01-25 15:13:56.679530	152.0	34.2	-66.3	11.5
2025-01-25 15:13:57.821534	152.0	34.4	-66.4	11.5
2025-01-25 15:13:58.962525	152.0	34.7	-66.6	9.8
2025-01-25 15:14:00.104513	152.0	34.9	-66.2	11.6
2025-01-25 15:14:01.244505	151.9	35.2	-66.4	12.1
2025-01-25 15:14:02.387491	151.9	35.4	-66.2	11.7
2025-01-25 15:14:03.528482	151.9	35.7	-66.5	13.1
2025-01-25 15:14:04.669525	151.8	35.9	-66.2	13.0
2025-01-25 15:14:05.810985	151.8	36.2	-66.3	13.4
2025-01-25 15:14:06.955967	151.8	36.5	-66.3	12.5
2025-01-25 15:14:08.103450	151.7	36.7	-66.5	13.3
2025-01-25 15:14:09.245944	151.7	37.0	-66.6	13.1
2025-01-25 15:14:10.387931	151.7	37.3	-66.6	12.8
2025-01-25 15:14:11.530432	151.6	37.6	-66.4	12.9
2025-01-25 15:14:12.670425	151.6	37.8	-66.2	12.9
2025-01-25 15:14:13.811930	151.6	38.1	-66.4	12.9
2025-01-25 15:14:14.954423	151.5	38.4	-66.5	12.4
2025-01-25 15:14:16.095414	151.5	38.7	-66.3	12.3
2025-01-25 15:14:17.235407	151.5	39.0	-65.7	11.4
2025-01-25 15:14:18.377901	151.4	39.3	-66.5	12.8
2025-01-25 15:14:19.519889	151.4	39.5	-66.3	12.9
2025-01-25 15:14:20.661877	151.3	39.8	-66.7	13.7
2025-01-25 15:14:21.801870	151.3	40.1	-66.5	13.6
2025-01-25 15:14:22.948845	151.3	40.4	-66.2	14.2
2025-01-25 15:14:24.090832	151.2	40.7	-66.3	14.3
2025-01-25 15:14:25.231823	151.2	41.0	-66.1	14.2
2025-01-25 15:14:26.374808	151.1	41.3	-65.7	14.0
2025-01-25 15:14:27.515798	151.1	41.7	-65.6	13.8
2025-01-25 15:14:28.658800	151.0	42.0	-65.9	15.1
2025-01-25 15:14:29.802786	151.0	42.3	-65.7	15.0
2025-01-25 15:14:30.943773	150.9	42.6	-65.7	14.7
2025-01-25 15:14:32.090260	150.9	42.9	-65.9	14.4
2025-01-25 15:14:33.232248	150.8	43.2	-66.0	13.7
2025-01-25 15:14:34.374235	150.8	43.6	-66.1	14.4
2025-01-25 15:14:35.516223	150.7	43.9	-65.7	14.7
2025-01-25 15:14:36.657214	150.7	44.2	-65.2	13.8
2025-01-25 15:14:37.799201	150.6	44.5	-65.6	14.0
2025-01-25 15:14:38.941190	150.6	44.9	-65.5	14.6
2025-01-25 15:14:40.083177	150.5	45.2	-65.7	13.7
2025-01-25 15:14:41.223170	150.4	45.6	-65.5	13.3
2025-01-25 15:14:42.363671	150.4	45.9	-65.4	14.0
2025-01-25 15:14:43.505658	150.3	46.2	-65.3	14.9
2025-01-25 15:14:44.647646	150.3	46.6	-65.3	14.4
2025-01-25 15:14:45.788636	150.2	46.9	-65.4	14.0
2025-01-25 15:14:46.936608	150.1	47.3	-64.9	14.0
2025-01-25 15:14:48.078596	150.1	47.7	-65.4	14.7
2025-01-25 15:14:49.222092	150.0	48.0	-64.6	13.2
2025-01-25 15:14:50.364080	149.9	48.4	-65.2	14.7
2025-01-25 15:14:51.508063	149.8	48.8	-64.4	13.3
2025-01-25 15:14:52.650051	149.8	49.1	-64.8	13.4
2025-01-25 15:14:53.792038	149.7	49.5	-64.9	13.5
2025-01-25 15:14:54.934029	149.6	49.9	-64.3	13.5
2025-01-25 15:14:56.079006	149.5	50.3	-64.8	13.9
2025-01-25 15:14:57.226000	149.4	50.6	-64.5	13.6
2025-01-25 15:14:58.371978	149.4	51.0	-64.7	14.0
2025-01-25 15:14:59.513966	149.3	51.4	-64.8	13.8
2025-01-25 15:15:00.654956	149.2	51.8	-64.6	13.1
2025-01-25 15:15:01.796452	149.1	52.2	-64.1	12.8
2025-01-25 15:15:02.937442	149.0	52.6	-63.3	12.1
2025-01-25 15:15:04.078944	148.9	53.0	-63.2	11.0
2025-01-25 15:15:05.220930	148.8	53.4	-63.4	11.5
2025-01-25 15:15:06.361921	148.7	53.8	-63.8	11.7
2025-01-25 15:15:07.503909	148.6	54.2	-63.8	11.2
2025-01-25 15:15:08.644900	148.5	54.6	-63.8	11.5
2025-01-25 15:15:09.785890	148.4	55.0	-63.3	11.5
2025-01-25 15:15:10.927387	148.2	55.5	-63.3	12.1
2025-01-25 15:15:12.069375	148.1	55.9	-62.7	11.0
2025-01-25 15:15:13.211363	148.0	56.3	-63.2	10.3
2025-01-25 15:15:14.352354	147.9	56.7	-62.6	10.5
2025-01-25 15:15:15.494341	147.7	57.2	-63.2	8.8
2025-01-25 15:15:16.635331	147.6	57.6	-62.9	10.2
2025-01-25 15:15:17.776829	147.4	58.1	-62.2	8.3
2025-01-25 15:15:18.918817	147.3	58.5	-62.9	9.4
2025-01-25 15:15:20.060805	147.1	58.9	-62.6	9.5
2025-01-25 15:15:21.201814	147.0	59.4	-64.1	10.5
2025-01-25 15:15:22.346303	146.8	59.8	-63.4	9.2
2025-01-25 15:15:23.489289	146.7	60.3	-63.5	8.8
2025-01-25 15:15:24.630279	146.5	60.7	-63.8	9.7
2025-01-25 15:15:25.773264	146.3	61.2	-63.8	9.4
2025-01-25 15:15:26.913257	146.1	61.7	-62.9	8.2
2025-01-25 15:15:28.055245	145.9	62.1	-63.0	8.0
2025-01-25 15:15:29.196236	145.7	62.6	-63.6	8.8
2025-01-25 15:15:30.339220	145.5	63.1	-63.2	9.6
2025-01-25 15:15:31.479214	145.3	63.5	-63.6	8.3
2025-01-25 15:15:32.621709	145.0	64.0	-63.0	6.8
2025-01-25 15:15:33.763696	144.8	64.5	-63.0	6.5
2025-01-25 15:15:34.903690	144.6	65.0	-63.4	7.5
2025-01-25 15:15:36.047672	144.3	65.5	-63.3	6.3
2025-01-25 15:15:37.186668	144.0	66.0	-63.0	6.9
2025-01-25 15:15:38.327658	143.7	66.4	-63.3	7.1
2025-01-25 15:15:39.470154	143.4	66.9	-63.0	8.1
2025-01-25 15:15:40.611143	143.1	67.4	-63.3	8.0
2025-01-25 15:15:41.752134	142.8	67.9	-63.3	8.3
2025-01-25 15:15:42.893633	142.4	68.4	-63.2	7.7
2025-01-25 15:15:44.035620	142.1	68.9	-63.3	7.0
2025-01-25 15:15:45.176611	141.7	69.4	-64.6	10.3
2025-01-25 15:15:46.318108	141.3	69.9	-63.2	7.3
2025-01-25 15:15:47.458101	140.8	70.4	-62.8	7.9
2025-01-25 15:15:48.602591	140.4	70.9	-63.6	8.0
2025-01-25 15:15:49.749566	139.9	71.5	-63.1	6.8
2025-01-25 15:15:50.896542	139.4	72.0	-62.6	6.6
2025-01-25 15:15:52.039529	138.9	72.5	-62.8	5.8
2025-01-25 15:15:53.179536	138.3	73.0	-63.3	6.4
2025-01-25 15:15:54.323029	137.7	73.5	-63.6	6.1
2025-01-25 15:15:55.464019	137.0	74.0	-63.6	4.7
2025-01-25 15:15:56.608020	136.3	74.5	-63.4	3.3
2025-01-25 15:15:57.750007	135.6	75.0	-63.2	2.4
2025-01-25 15:15:58.891995	134.8	75.5	-63.4	0.0
2025-01-25 15:16:00.039967	133.9	76.1	-63.9	2.2
2025-01-25 15:16:01.180958	133.0	76.6	-63.3	0.0
2025-01-25 15:16:02.322946	131.9	77.1	-63.5	0.0
2025-01-25 15:16:03.465932	130.8	77.6	-63.5	0.6
2025-01-25 15:16:04.606921	129.7	78.1	-62.6	1.5
2025-01-25 15:16:05.748911	128.4	78.6	-62.6	1.7
2025-01-25 15:16:06.889900	126.9	79.1	-62.9	1.9
2025-01-25 15:16:08.032885	125.4	79.5	-62.2	2.2
2025-01-25 15:16:09.173876	123.7	80.0	-61.9	2.6
2025-01-25 15:16:10.318366	121.8	80.5	-61.5	2.8
2025-01-25 15:16:11.460354	119.7	81.0	-61.8	2.9
2025-01-25 15:16:12.602343	117.4	81.4	-61.3	3.1
2025-01-25 15:16:13.745844	114.9	81.8	-61.0	3.8
2025-01-25 15:16:14.886835	112.0	82.2	-60.8	4.3
2025-01-25 15:16:16.028822	108.9	82.6	-61.0	4.0
2025-01-25 15:16:17.169324	105.4	83.0	-61.3	3.7
2025-01-25 15:16:18.312310	101.5	83.4	-61.4	3.3
2025-01-25 15:16:19.452303	97.2	83.7	-61.4	3.0
2025-01-25 15:16:20.592803	92.5	83.9	-60.8	2.0
2025-01-25 15:16:21.735788	87.4	84.2	-60.9	3.0
2025-01-25 15:16:22.878282	81.9	84.3	-60.4	3.4
2025-01-25 15:16:24.019272	76.2	84.5	-60.4	3.0
2025-01-25 15:16:25.160263	70.2	84.5	-60.4	1.0
2025-01-25 15:16:26.301253	64.2	84.5	-60.5	1.8
2025-01-25 15:16:27.442751	58.2	84.5	-60.5	0.9
2025-01-25 15:16:28.583741	52.4	84.4	-60.9	0.0
2025-01-25 15:16:29.726726	46.8	84.2	-60.8	1.1
2025-01-25 15:16:30.873700	41.6	84.0	-60.3	2.5
2025-01-25 15:16:32.015689	36.9	83.7	-60.4	0.0
2025-01-25 15:16:33.156679	32.5	83.4	-60.5	2.4
2025-01-25 15:16:34.299665	28.6	83.1	-60.0	2.4
2025-01-25 15:16:35.440655	25.0	82.7	-60.7	3.6
2025-01-25 15:16:36.584641	21.8	82.3	-60.5	2.8
2025-01-25 15:16:37.729617	18.9	81.9	-60.5	1.6
2025-01-25 15:16:38.874597	16.3	81.5	-60.1	1.7
2025-01-25 15:16:40.016585	14.0	81.0	-60.2	2.9
2025-01-25 15:16:41.161075	11.9	80.6	-59.7	0.5
2025-01-25 15:16:42.303062	10.0	80.1	-60.2	2.4
2025-01-25 15:16:43.445050	8.2	79.6	-61.1	1.9
2025-01-25 15:16:44.585549	6.7	79.1	-60.5	2.6
2025-01-25 15:16:45.727537	5.2	78.6	-60.6	2.1
2025-01-25 15:16:46.869524	3.9	78.2	-60.3	0.0
2025-01-25 15:16:48.011512	2.7	77.7	-61.5	0.5
2025-01-25 15:16:49.158487	1.6	77.2	-61.2	0.0
2025-01-25 15:16:50.299477	0.6	76.6	-61.1	0.6
2025-01-25 15:16:51.442462	359.6	76.1	-61.7	0.0
2025-01-25 15:16:52.584450	358.8	75.6	-61.5	0.0
2025-01-25 15:16:53.726438	357.9	75.1	-62.2	0.0
2025-01-25 15:16:54.869424	357.2	74.6	-61.3	0.0
2025-01-25 15:16:56.017395	356.5	74.1	-61.7	0.0
2025-01-25 15:16:57.159383	355.8	73.6	-60.8	0.0
2025-01-25 15:16:58.301371	355.2	73.1	-60.4	0.0
2025-01-25 15:16:59.441872	354.6	72.6	-59.6	0.0
2025-01-25 15:17:00.584857	354.1	72.1	-60.1	2.2
2025-01-25 15:17:01.727353	353.6	71.6	-59.3	0.0
2025-01-25 15:17:02.871336	353.1	71.0	-60.0	0.5
2025-01-25 15:17:04.013324	352.6	70.5	-60.2	0.4
2025-01-25 15:17:05.153824	352.2	70.0	-59.4	0.0
2025-01-25 15:17:06.295811	351.8	69.5	-59.0	2.1
2025-01-25 15:17:07.435804	351.4	69.0	-59.6	3.1
2025-01-25 15:17:08.577792	351.0	68.5	-60.3	4.2
2025-01-25 15:17:09.722282	350.7	68.0	-58.7	0.5
2025-01-25 15:17:10.863273	350.3	67.5	-58.8	0.0
2025-01-25 15:17:12.006258	350.0	67.0	-59.2	1.5
2025-01-25 15:17:13.149264	349.7	66.6	-58.1	0.7
2025-01-25 15:17:14.296239	349.4	66.1	-58.2	1.3
2025-01-25 15:17:15.437230	349.1	65.6	-58.6	0.3
2025-01-25 15:17:16.579725	348.9	65.1	-58.5	0.8
2025-01-25 15:17:17.722710	348.6	64.6	-58.1	0.7
2025-01-25 15:17:18.865696	348.4	64.1	-56.7	0.0
2025-01-25 15:17:20.004712	348.2	63.7	-58.1	0.5
2025-01-25 15:17:21.147699	347.9	63.2	-57.7	0.0
2025-01-25 15:17:22.290682	347.7	62.7	-57.4	0.0
2025-01-25 15:17:23.432672	347.5	62.3	-57.5	0.0
2025-01-25 15:17:24.575656	347.3	61.8	-57.0	0.0
2025-01-25 15:17:25.717644	347.1	61.3	-56.4	0.0
2025-01-25 15:17:26.858146	346.9	60.9	-56.5	0.0
2025-01-25 15:17:28.000135	346.8	60.4	-58.0	0.0
2025-01-25 15:17:29.141124	346.6	60.0	-57.5	0.0
2025-01-25 15:17:30.282623	346.4	59.5	-57.1	0.0
2025-01-25 15:17:31.423613	346.3	59.1	-56.8	0.0
2025-01-25 15:17:32.565601	346.1	58.6	-55.1	0.0
2025-01-25 15:17:33.706100	346.0	58.2	-54.9	0.0
2025-01-25 15:17:34.849086	345.8	57.7	-56.2	0.0
2025-01-25 15:17:35.996060	345.7	57.3	-55.4	0.0
2025-01-25 15:17:37.136561	345.6	56.9	-55.3	0.0
2025-01-25 15:17:38.279546	345.4	56.5	-57.4	0.0
2025-01-25 15:17:39.424038	345.3	56.0	-56.3	0.0
2025-01-25 15:17:40.565029	345.2	55.6	-56.4	0.0
2025-01-25 15:17:41.707016	345.1	55.2	-55.6	0.0
2025-01-25 15:17:42.849004	344.9	54.8	-55.5	0.0
2025-01-25 15:17:43.990501	344.8	54.4	-56.1	0.0
2025-01-25 15:17:45.133487	344.7	54.0	-55.0	0.0
2025-01-25 15:17:46.274477	344.6	53.5	-55.6	0.0
2025-01-25 15:17:47.419457	344.5	53.1	-55.3	0.0
2025-01-25 15:17:48.567429	344.4	52.7	-55.5	0.0
2025-01-25 15:17:49.709416	344.3	52.3	-56.6	0.0
2025-01-25 15:17:50.850913	344.2	52.0	-55.7	0.0
2025-01-25 15:17:51.992901	344.1	51.6	-57.0	0.0
2025-01-25 15:17:53.137881	344.1	51.2	-55.6	0.0
2025-01-25 15:17:54.278872	344.0	50.8	-55.8	0.0
2025-01-25 15:17:55.420859	343.9	50.4	-56.0	0.0
2025-01-25 15:17:56.561850	343.8	50.0	-55.7	0.0
2025-01-25 15:17:57.704346	343.7	49.7	-55.6	0.0
2025-01-25 15:17:58.846333	343.6	49.3	-55.7	0.0
2025-01-25 15:17:59.988322	343.6	48.9	-55.7	0.0
2025-01-25 15:18:01.130309	343.5	48.6	-56.8	0.0
2025-01-25 15:18:02.271300	343.4	48.2	-53.6	0.0
2025-01-25 15:18:03.413287	343.4	47.8	-56.1	0.0
2025-01-25 15:18:04.557272	343.3	47.5	-57.1	0.0
2025-01-25 15:18:05.698261	343.2	47.1	-56.4	0.0
2025-01-25 15:18:06.845235	343.2	46.8	-55.5	0.0
2025-01-25 15:18:07.987223	343.1	46.4	-55.5	0.0
2025-01-25 15:18:09.131207	343.0	46.1	-56.2	0.0
2025-01-25 15:18:10.272196	343.0	45.7	-55.5	0.0
2025-01-25 15:18:11.414185	342.9	45.4	-57.5	0.0
2025-01-25 15:18:12.559164	342.9	45.1	-56.5	0.0
2025-01-25 15:18:13.704650	342.8	44.7	-54.2	0.0
2025-01-25 15:18:14.849139	342.7	44.4	-54.9	0.0
2025-01-25 15:18:15.989132	342.7	44.1	-56.6	0.0
2025-01-25 15:18:17.131120	342.6	43.7	-53.7	0.0
2025-01-25 15:18:18.277098	342.6	43.4	-55.3	0.0
2025-01-25 15:18:19.419085	342.5	43.1	-55.8	0.0
2025-01-25 15:18:20.561073	342.5	42.8	-56.7	0.0
2025-01-25 15:18:21.707559	342.4	42.5	-55.8	0.0
2025-01-25 15:18:22.852052	342.4	42.1	-54.8	0.0
2025-01-25 15:18:23.994035	342.3	41.8	-57.7	0.0
2025-01-25 15:18:25.135027	342.3	41.5	-54.3	0.0
2025-01-25 15:18:26.278011	342.2	41.2	-54.1	0.0
2025-01-25 15:18:27.419999	342.2	40.9	-54.2	0.0
2025-01-25 15:18:28.560501	342.2	40.6	-54.2	0.0
2025-01-25 15:18:29.703486	342.1	40.3	-55.1	0.0
2025-01-25 15:18:30.846472	342.1	40.0	-55.5	0.0
2025-01-25 15:18:31.988967	342.0	39.7	-54.8	0.0
2025-01-25 15:18:33.131953	342.0	39.4	-54.6	0.0
2025-01-25 15:18:34.273940	342.0	39.2	-55.5	0.0
2025-01-25 15:18:35.415928	341.9	38.9	-53.8	0.0
2025-01-25 15:18:36.558914	341.9	38.6	-54.5	0.0
2025-01-25 15:18:37.699904	341.8	38.3	-57.9	0.0
2025-01-25 15:18:38.842889	341.8	38.0	-56.3	0.0
2025-01-25 15:18:39.985875	341.8	37.8	-57.8	0.0
2025-01-25 15:18:41.127863	341.7	37.5	-54.5	0.0
2025-01-25 15:18:42.268853	341.7	37.2	-54.0	0.0
2025-01-25 15:18:43.410841	341.7	36.9	-53.0	0.0
2025-01-25 15:18:44.551831	341.6	36.7	-56.3	0.0
2025-01-25 15:18:45.693819	341.6	36.4	-54.0	0.0
2025-01-25 15:18:46.836313	341.6	36.1	-54.9	0.0
2025-01-25 15:18:47.977303	341.5	35.9	-52.0	0.0
2025-01-25 15:18:49.118293	341.5	35.6	-58.5	0.0
2025-01-25 15:18:50.261787	341.5	35.4	-54.3	0.0
2025-01-25 15:18:51.405770	341.5	35.1	-53.1	0.0
2025-01-25 15:18:52.547757	341.4	34.9	-52.3	0.0
2025-01-25 15:18:53.689746	341.4	34.6	-53.4	0.0
2025-01-25 15:18:54.830736	341.4	34.4	-54.3	0.0
2025-01-25 15:18:55.974718	341.3	34.1	-54.6	0.0
2025-01-25 15:18:57.118702	341.3	33.9	-54.5	0.0
2025-01-25 15:18:58.260689	341.3	33.6	-53.4	0.0
2025-01-25 15:18:59.406666	341.3	33.4	-54.2	0.0
2025-01-25 15:19:00.550158	341.2	33.2	-55.1	0.0
2025-01-25 15:19:01.691656	341.2	32.9	-52.5	0.0
2025-01-25 15:19:02.835638	341.2	32.7	-52.3	0.0
2025-01-25 15:19:03.978625	341.2	32.4	-53.2	0.0
2025-01-25 15:19:05.120612	341.1	32.2	-53.6	0.0
2025-01-25 15:19:06.265591	341.1	32.0	-52.5	0.0
2025-01-25 15:19:07.408104	341.1	31.8	-52.2	0.0
2025-01-25 15:19:08.550092	341.1	31.5	-53.6	0.0
2025-01-25 15:19:09.695072	341.1	31.3	-54.3	0.0
2025-01-25 15:19:10.836063	341.0	31.1	-54.2	0.0
2025-01-25 15:19:11.979047	341.0	30.9	-53.3	0.0
2025-01-25 15:19:13.124028	341.0	30.6	-54.3	0.0
2025-01-25 15:19:14.266015	341.0	30.4	-53.9	0.0
2025-01-25 15:19:15.408003	340.9	30.2	-55.8	0.0
2025-01-25 15:19:16.549991	340.9	30.0	-55.2	0.0
#Closed at: 2025-01-25 15:13:31.211673