passes_logs/2025/01/25/Planum_Noyabrsk/Planum_Noyabrsk__20250125_042307_METEOR-M2_3_rec.log

#Pass ID: 20250125_042307_METEOR-M2 3
#Satellite: METEOR-M2 3
#Configuration: METEOR-M2 3
#Start time: 2025-01-25 04:23:12.152604

#LorettStation: 1.0.0 05.05.2024
#Station: Planum_Noyabrsk
#Location: 75.446886 lon 63.207202 lat
#TLE: 1 57166U 23091A   25024.59926546  .00000099  00000+0  62418-4 0  9991
#TLE: 2 57166  98.6835  82.9446 0003691 192.8209 167.2876 14.23971787 82139

#Time	Az	El	Level	SNR
2025-01-25 04:23:22.392830	50.1	31.5	-62.4	8.6
2025-01-25 04:23:23.535296	50.4	31.7	-61.3	10.1
2025-01-25 04:23:24.676257	50.7	31.9	-62.0	9.2
2025-01-25 04:23:25.820210	51.0	32.0	-61.2	8.1
2025-01-25 04:23:26.964669	51.3	32.2	-60.9	9.5
2025-01-25 04:23:28.110127	51.6	32.4	-57.3	0.0
2025-01-25 04:23:29.253082	51.9	32.5	-60.7	9.1
2025-01-25 04:23:30.394549	52.2	32.7	-61.4	8.1
2025-01-25 04:23:31.537505	52.5	32.9	-61.7	10.3
2025-01-25 04:23:32.677469	52.8	33.0	-60.2	8.8
2025-01-25 04:23:33.824415	53.1	33.2	-59.5	2.6
2025-01-25 04:23:34.965376	53.4	33.4	-62.5	7.0
2025-01-25 04:23:36.112832	53.7	33.6	-61.0	7.4
2025-01-25 04:23:37.259777	54.1	33.7	-62.0	7.0
2025-01-25 04:23:38.405725	54.4	33.9	-62.6	7.7
2025-01-25 04:23:39.547684	54.7	34.1	-62.0	7.2
2025-01-25 04:23:40.696624	55.1	34.2	-57.9	0.0
2025-01-25 04:23:41.838582	55.4	34.4	-60.3	7.4
2025-01-25 04:23:42.980053	55.7	34.6	-59.8	2.9
2025-01-25 04:23:44.120522	56.1	34.8	-59.5	5.4
2025-01-25 04:23:45.263478	56.4	34.9	-61.2	5.0
2025-01-25 04:23:46.406434	56.8	35.1	-58.8	7.0
2025-01-25 04:23:47.547395	57.1	35.3	-61.9	6.5
2025-01-25 04:23:48.689354	57.5	35.4	-63.5	7.0
2025-01-25 04:23:49.830330	57.9	35.6	-62.5	0.0
2025-01-25 04:23:50.987754	58.2	35.8	-61.1	4.8
2025-01-25 04:23:52.129713	58.6	36.0	-54.9	0.0
2025-01-25 04:23:53.271671	59.0	36.1	-61.2	6.3
2025-01-25 04:23:54.412144	59.3	36.3	-60.4	0.5
2025-01-25 04:23:55.554101	59.7	36.5	-60.8	0.0
2025-01-25 04:23:56.697057	60.1	36.6	-57.0	0.0
2025-01-25 04:23:57.838018	60.5	36.8	-60.2	7.4
2025-01-25 04:23:58.986959	60.9	37.0	-49.4	0.0
2025-01-25 04:24:00.127919	61.3	37.1	-60.6	4.7
2025-01-25 04:24:01.268880	61.7	37.3	-61.3	9.4
2025-01-25 04:24:02.412833	62.1	37.4	-58.3	1.3
2025-01-25 04:24:03.555789	62.5	37.6	-57.8	0.0
2025-01-25 04:24:04.719197	62.9	37.8	-57.8	4.6
2025-01-25 04:24:05.860158	63.4	37.9	-59.8	4.4
2025-01-25 04:24:07.001119	63.8	38.1	-61.1	5.1
2025-01-25 04:24:08.144075	64.2	38.3	-62.6	4.4
2025-01-25 04:24:09.288535	64.6	38.4	-55.4	0.0
2025-01-25 04:24:10.430494	65.1	38.6	-59.6	0.0
2025-01-25 04:24:11.573449	65.5	38.7	-61.2	8.3
2025-01-25 04:24:12.714426	65.9	38.9	-59.1	0.0
2025-01-25 04:24:13.856890	66.4	39.0	-60.5	5.4
2025-01-25 04:24:14.999846	66.8	39.2	-62.0	5.1
2025-01-25 04:24:16.141313	67.3	39.3	-62.3	5.6
2025-01-25 04:24:17.284271	67.8	39.5	-62.1	2.6
2025-01-25 04:24:18.426227	68.2	39.6	-62.7	0.0
2025-01-25 04:24:19.592123	68.7	39.8	-63.1	4.2
2025-01-25 04:24:20.735078	69.2	39.9	-61.7	2.5
2025-01-25 04:24:21.876039	69.6	40.1	-59.3	0.0
2025-01-25 04:24:23.015025	70.1	40.2	-61.7	0.0
2025-01-25 04:24:24.159975	70.6	40.4	-59.9	0.0
2025-01-25 04:24:25.302931	71.1	40.5	-59.2	0.0
2025-01-25 04:24:26.442403	71.6	40.6	-60.7	0.0
2025-01-25 04:24:27.585359	72.1	40.8	-57.5	0.0
2025-01-25 04:24:28.726321	72.6	40.9	-56.9	0.0
2025-01-25 04:24:29.867282	73.1	41.0	-62.0	5.2
2025-01-25 04:24:31.008749	73.6	41.2	-57.9	0.0
2025-01-25 04:24:32.150707	74.1	41.3	-51.4	0.0
2025-01-25 04:24:33.329568	74.6	41.4	-59.5	0.0
2025-01-25 04:24:34.471526	75.2	41.6	-60.4	1.8
2025-01-25 04:24:35.612993	75.7	41.7	-59.1	0.7
2025-01-25 04:24:36.752957	76.2	41.8	-57.1	1.2
2025-01-25 04:24:37.895913	76.7	41.9	-56.3	0.0
2025-01-25 04:24:39.042858	77.3	42.0	-55.9	0.0
2025-01-25 04:24:40.184834	77.8	42.1	-58.4	0.8
2025-01-25 04:24:41.327790	78.4	42.2	-56.9	0.0
2025-01-25 04:24:42.468752	78.9	42.4	-58.2	0.0
2025-01-25 04:24:43.610709	79.5	42.5	-54.6	0.0
2025-01-25 04:24:44.758652	80.0	42.6	-53.5	0.0
2025-01-25 04:24:45.902605	80.6	42.7	-51.0	0.0
2025-01-25 04:24:47.043566	81.2	42.8	-52.9	0.0
2025-01-25 04:24:48.194010	81.7	42.8	-53.2	0.0
2025-01-25 04:24:49.335969	82.3	42.9	-50.1	0.0
2025-01-25 04:24:50.478925	82.9	43.0	-54.4	0.0
2025-01-25 04:24:51.619886	83.4	43.1	-52.7	0.0
2025-01-25 04:24:52.761353	84.0	43.2	-53.3	0.0
2025-01-25 04:24:53.923259	84.6	43.3	-54.5	0.0
2025-01-25 04:24:55.067212	85.2	43.3	-54.6	0.0
2025-01-25 04:24:56.208173	85.8	43.4	-51.4	0.0
2025-01-25 04:24:57.351128	86.4	43.5	-54.1	0.0
2025-01-25 04:24:58.493087	87.0	43.6	-56.1	0.0
2025-01-25 04:24:59.637040	87.5	43.6	-52.0	0.0
2025-01-25 04:25:00.778001	88.1	43.7	-56.0	0.0
2025-01-25 04:25:01.919959	88.7	43.7	-53.0	0.0
2025-01-25 04:25:03.061918	89.3	43.8	-55.3	0.0
2025-01-25 04:25:04.202879	89.9	43.8	-55.0	0.0
2025-01-25 04:25:05.344838	90.5	43.9	-56.2	0.0
2025-01-25 04:25:06.485799	91.2	43.9	-57.8	0.0
2025-01-25 04:25:07.666164	91.8	44.0	-56.1	0.0
2025-01-25 04:25:08.806639	92.4	44.0	-55.5	0.0
2025-01-25 04:25:09.948597	93.0	44.0	-60.4	0.0
2025-01-25 04:25:11.090556	93.6	44.1	-55.1	0.0
2025-01-25 04:25:12.233021	94.2	44.1	-54.0	0.0
2025-01-25 04:25:13.377970	94.8	44.1	-56.2	0.0
2025-01-25 04:25:14.522432	95.5	44.1	-57.7	0.0
2025-01-25 04:25:15.664391	96.1	44.2	-56.1	0.0
2025-01-25 04:25:16.805352	96.7	44.2	-54.1	0.0
2025-01-25 04:25:17.947311	97.3	44.2	-57.5	0.0
2025-01-25 04:25:19.096267	97.9	44.2	-57.6	0.0
2025-01-25 04:25:20.242214	98.5	44.2	-59.5	0.0
2025-01-25 04:25:21.384680	99.2	44.2	-56.6	0.0
2025-01-25 04:25:22.530137	99.8	44.2	-55.6	0.0
2025-01-25 04:25:23.673093	100.4	44.2	-60.2	0.0
2025-01-25 04:25:24.814053	101.0	44.1	-58.2	0.0
2025-01-25 04:25:25.977463	101.6	44.1	-55.0	0.0
2025-01-25 04:25:27.117427	102.2	44.1	-58.2	0.0
2025-01-25 04:25:28.258899	102.9	44.1	-58.9	0.0
2025-01-25 04:25:29.401363	103.5	44.0	-56.8	0.0
2025-01-25 04:25:30.545316	104.1	44.0	-58.4	0.0
2025-01-25 04:25:31.686788	104.7	44.0	-60.0	1.3
2025-01-25 04:25:32.829741	105.3	43.9	-59.1	0.0
2025-01-25 04:25:33.971700	105.9	43.9	-61.7	0.0
2025-01-25 04:25:35.114659	106.5	43.9	-60.3	6.7
2025-01-25 04:25:36.255616	107.1	43.8	-61.3	2.5
2025-01-25 04:25:37.398573	107.7	43.8	-62.0	3.5
2025-01-25 04:25:38.537539	108.3	43.7	-60.6	0.0
2025-01-25 04:25:39.679497	108.9	43.6	-53.4	0.0
2025-01-25 04:25:40.823450	109.5	43.6	-61.5	0.0
2025-01-25 04:25:41.966407	110.1	43.5	-57.1	4.8
2025-01-25 04:25:43.110872	110.7	43.4	-59.7	2.0
2025-01-25 04:25:44.252830	111.3	43.4	-61.0	4.5
2025-01-25 04:25:45.403765	111.9	43.3	-60.2	0.0
2025-01-25 04:25:46.545232	112.4	43.2	-59.7	2.1
2025-01-25 04:25:47.685196	113.0	43.1	-62.9	4.6
2025-01-25 04:25:48.838632	113.6	43.1	-61.2	2.5
2025-01-25 04:25:49.977598	114.2	43.0	-58.7	0.0
2025-01-25 04:25:51.121551	114.8	42.9	-63.6	5.6
2025-01-25 04:25:52.263509	115.3	42.8	-58.7	1.6
2025-01-25 04:25:53.405467	115.9	42.7	-59.7	2.5
2025-01-25 04:25:54.548423	116.4	42.6	-58.8	0.0
2025-01-25 04:25:55.689385	117.0	42.5	-60.6	1.5
2025-01-25 04:25:56.834335	117.6	42.4	-59.4	1.6
2025-01-25 04:25:57.977291	118.1	42.3	-61.1	1.0
2025-01-25 04:25:59.139702	118.7	42.2	-62.3	8.8
2025-01-25 04:26:00.280175	119.2	42.1	-58.3	0.0
2025-01-25 04:26:01.420650	119.7	41.9	-62.5	6.0
2025-01-25 04:26:02.561611	120.3	41.8	-57.5	0.0
2025-01-25 04:26:03.705564	120.8	41.7	-60.5	4.3
2025-01-25 04:26:04.850515	121.3	41.6	-58.7	2.8
2025-01-25 04:26:05.990985	121.9	41.5	-59.8	0.0
2025-01-25 04:26:07.137930	122.4	41.3	-60.0	0.0
2025-01-25 04:26:08.279397	122.9	41.2	-61.8	0.0
2025-01-25 04:26:09.422353	123.4	41.1	-60.9	0.0
2025-01-25 04:26:10.563314	123.9	40.9	-60.9	0.0
2025-01-25 04:26:11.705272	124.4	40.8	-62.4	1.5
2025-01-25 04:26:12.869174	124.9	40.7	-60.6	0.0
2025-01-25 04:26:14.016117	125.4	40.5	-61.1	6.0
2025-01-25 04:26:15.161067	125.9	40.4	-61.3	5.7
2025-01-25 04:26:16.301541	126.4	40.3	-63.8	8.9
2025-01-25 04:26:17.444496	126.9	40.1	-62.8	0.0
2025-01-25 04:26:18.585457	127.4	40.0	-61.7	5.2
2025-01-25 04:26:19.727416	127.8	39.8	-61.2	3.3
2025-01-25 04:26:20.873869	128.3	39.7	-62.8	6.0
2025-01-25 04:26:22.014830	128.8	39.5	-62.9	8.5
2025-01-25 04:26:23.156789	129.2	39.4	-62.4	6.0
2025-01-25 04:26:24.302754	129.7	39.2	-58.9	0.0
2025-01-25 04:26:25.446706	130.2	39.1	-62.0	3.4
2025-01-25 04:26:26.589662	130.6	38.9	-61.5	6.5
2025-01-25 04:26:27.744606	131.1	38.8	-60.5	4.8
2025-01-25 04:26:28.886565	131.5	38.6	-62.0	0.0
2025-01-25 04:26:30.027526	131.9	38.4	-61.9	10.0
2025-01-25 04:26:31.171985	132.4	38.3	-61.6	3.4
2025-01-25 04:26:32.314941	132.8	38.1	-63.6	10.4
2025-01-25 04:26:33.456408	133.2	38.0	-61.4	4.2
2025-01-25 04:26:34.598366	133.6	37.8	-60.4	5.4
2025-01-25 04:26:35.740833	134.1	37.6	-59.7	1.1
2025-01-25 04:26:36.883789	134.5	37.5	-60.2	3.9
2025-01-25 04:26:38.025748	134.9	37.3	-61.3	1.3
2025-01-25 04:26:39.173690	135.3	37.1	-62.1	6.2
2025-01-25 04:26:40.316646	135.7	37.0	-60.4	2.7
2025-01-25 04:26:41.468087	136.1	36.8	-63.3	5.5
2025-01-25 04:26:42.609047	136.5	36.6	-61.2	5.6
2025-01-25 04:26:43.750008	136.9	36.5	-62.4	4.8
2025-01-25 04:26:44.892474	137.2	36.3	-61.3	3.6
2025-01-25 04:26:46.033434	137.6	36.1	-63.1	5.4
2025-01-25 04:26:47.175393	138.0	36.0	-60.2	0.0
2025-01-25 04:26:48.318348	138.4	35.8	-65.2	13.1
2025-01-25 04:26:49.458821	138.7	35.6	-63.8	8.6
2025-01-25 04:26:50.598785	139.1	35.5	-63.7	8.2
2025-01-25 04:26:51.740743	139.5	35.3	-61.8	6.7
2025-01-25 04:26:52.882212	139.8	35.1	-64.0	7.8
2025-01-25 04:26:54.023174	140.2	34.9	-64.1	8.7
2025-01-25 04:26:55.165132	140.5	34.8	-64.1	9.1
2025-01-25 04:26:56.308087	140.9	34.6	-64.6	9.5
2025-01-25 04:26:57.453038	141.2	34.4	-64.8	10.2
2025-01-25 04:26:58.594996	141.6	34.3	-64.7	10.3
2025-01-25 04:26:59.736466	141.9	34.1	-65.1	11.3
2025-01-25 04:27:00.877427	142.2	33.9	-65.0	12.1
2025-01-25 04:27:02.019385	142.5	33.7	-65.5	13.0
2025-01-25 04:27:03.160346	142.9	33.6	-64.9	11.3
2025-01-25 04:27:04.303302	143.2	33.4	-65.8	12.2
2025-01-25 04:27:05.444263	143.5	33.2	-65.8	12.8
2025-01-25 04:27:06.586222	143.8	33.1	-65.3	11.5
2025-01-25 04:27:07.725694	144.1	32.9	-65.3	13.0
2025-01-25 04:27:08.867653	144.4	32.7	-65.4	12.3
2025-01-25 04:27:10.011606	144.8	32.5	-65.0	11.6
2025-01-25 04:27:11.153564	145.1	32.4	-65.3	12.1
2025-01-25 04:27:12.296520	145.4	32.2	-65.0	12.6
2025-01-25 04:27:13.438478	145.7	32.0	-65.5	13.9
2025-01-25 04:27:14.579440	145.9	31.8	-64.6	11.9
2025-01-25 04:27:15.720400	146.2	31.7	-65.0	13.1
2025-01-25 04:27:16.862359	146.5	31.5	-65.2	12.9
2025-01-25 04:27:18.002829	146.8	31.3	-65.5	13.0
2025-01-25 04:27:19.146292	147.1	31.2	-64.8	10.8
2025-01-25 04:27:20.293237	147.4	31.0	-65.6	12.6
2025-01-25 04:27:21.442177	147.6	30.8	-65.8	12.7
2025-01-25 04:27:22.586130	147.9	30.7	-65.3	12.8
2025-01-25 04:27:23.727091	148.2	30.5	-65.1	12.4
2025-01-25 04:27:24.869049	148.5	30.3	-65.1	12.4
2025-01-25 04:27:26.011007	148.7	30.1	-66.1	11.9
2025-01-25 04:27:27.151969	149.0	30.0	-68.5	0.4
#Closed at: 2025-01-25 04:23:07.157908