passes_logs/2025/01/25/Planum_Noyabrsk/Planum_Noyabrsk__20250125_051631_NOAA_19_rec.log

#Pass ID: 20250125_051631_NOAA 19
#Satellite: NOAA 19
#Configuration: NOAA 19
#Start time: 2025-01-25 05:16:36.525372

#LorettStation: 1.0.0 05.05.2024
#Station: Planum_Noyabrsk
#Location: 75.446886 lon 63.207202 lat
#TLE: 1 33591U 09005A   25024.56176042  .00000462  00000+0  27048-3 0  9994
#TLE: 2 33591  99.0180  88.3973 0014119  31.6053 328.5964 14.13268197822632

#Time	Az	El	Level	SNR
2025-01-25 05:16:44.741872	33.4	31.5	-62.4	5.3
2025-01-25 05:16:45.884885	33.6	31.7	-60.7	5.2
2025-01-25 05:16:47.027410	33.7	31.9	-59.4	1.8
2025-01-25 05:16:48.169426	33.9	32.1	-59.2	4.9
2025-01-25 05:16:49.313436	34.0	32.4	-59.3	6.5
2025-01-25 05:16:50.453967	34.1	32.6	-60.6	4.7
2025-01-25 05:16:51.593988	34.3	32.8	-59.8	3.6
2025-01-25 05:16:52.735512	34.4	33.0	-61.0	5.4
2025-01-25 05:16:53.873049	34.6	33.2	-57.7	0.9
2025-01-25 05:16:55.014068	34.7	33.5	-59.0	3.5
2025-01-25 05:16:56.155087	34.9	33.7	-57.2	4.2
2025-01-25 05:16:57.301092	35.0	33.9	-61.6	8.8
2025-01-25 05:16:58.443107	35.2	34.1	-59.4	7.1
2025-01-25 05:16:59.584126	35.3	34.4	-59.7	6.7
2025-01-25 05:17:00.726656	35.5	34.6	-58.9	7.9
2025-01-25 05:17:01.864684	35.6	34.8	-59.4	5.5
2025-01-25 05:17:03.008202	35.8	35.1	-59.0	3.6
2025-01-25 05:17:04.149731	36.0	35.3	-60.2	9.6
2025-01-25 05:17:05.290750	36.1	35.5	-60.1	3.6
2025-01-25 05:17:06.432767	36.3	35.8	-59.0	3.7
2025-01-25 05:17:07.574782	36.5	36.0	-57.4	2.5
2025-01-25 05:17:08.715801	36.6	36.3	-57.4	1.1
2025-01-25 05:17:09.857816	36.8	36.5	-58.0	2.2
2025-01-25 05:17:10.999341	37.0	36.8	-57.6	1.5
2025-01-25 05:17:12.140360	37.2	37.0	-58.5	3.7
2025-01-25 05:17:13.282375	37.4	37.2	-58.5	3.5
2025-01-25 05:17:14.422904	37.5	37.5	-59.1	6.0
2025-01-25 05:17:15.564429	37.7	37.8	-57.7	2.6
2025-01-25 05:17:16.705447	37.9	38.0	-58.3	0.0
2025-01-25 05:17:17.847464	38.1	38.3	-58.3	2.0
2025-01-25 05:17:18.993977	38.3	38.5	-57.3	0.7
2025-01-25 05:17:20.133508	38.5	38.8	-56.3	0.0
2025-01-25 05:17:21.275523	38.7	39.0	-56.7	0.0
2025-01-25 05:17:22.414547	38.9	39.3	-58.4	1.4
2025-01-25 05:17:23.558557	39.2	39.6	-57.7	0.2
2025-01-25 05:17:24.700573	39.4	39.8	-59.1	2.5
2025-01-25 05:17:25.843586	39.6	40.1	-60.0	6.2
2025-01-25 05:17:26.984605	39.8	40.3	-57.8	1.8
2025-01-25 05:17:28.126629	40.0	40.6	-58.0	0.8
2025-01-25 05:17:29.268146	40.3	40.9	-60.0	3.1
2025-01-25 05:17:30.409165	40.5	41.2	-58.1	0.8
2025-01-25 05:17:31.550183	40.7	41.4	-58.4	2.5
2025-01-25 05:17:32.692705	41.0	41.7	-59.0	2.4
2025-01-25 05:17:33.833724	41.2	42.0	-58.0	1.7
2025-01-25 05:17:34.974743	41.5	42.3	-58.8	3.0
2025-01-25 05:17:36.115290	41.7	42.5	-58.1	2.2
2025-01-25 05:17:37.258283	42.0	42.8	-58.2	1.1
2025-01-25 05:17:38.398305	42.2	43.1	-57.6	0.4
2025-01-25 05:17:39.540827	42.5	43.4	-59.0	3.2
2025-01-25 05:17:40.680848	42.8	43.7	-59.4	3.9
2025-01-25 05:17:41.822864	43.0	44.0	-59.3	3.8
2025-01-25 05:17:42.963397	43.3	44.2	-60.6	6.1
2025-01-25 05:17:44.108405	43.6	44.5	-60.1	4.4
2025-01-25 05:17:45.247429	43.9	44.8	-59.4	5.3
2025-01-25 05:17:46.389953	44.2	45.1	-59.2	2.3
2025-01-25 05:17:47.530978	44.5	45.4	-60.9	5.5
2025-01-25 05:17:48.671990	44.8	45.7	-60.6	6.1
2025-01-25 05:17:49.816507	45.1	46.0	-61.2	6.3
2025-01-25 05:17:50.959521	45.4	46.3	-60.3	5.8
2025-01-25 05:17:52.102533	45.8	46.6	-60.5	6.4
2025-01-25 05:17:53.243552	46.1	46.9	-60.0	4.3
2025-01-25 05:17:54.385568	46.4	47.2	-59.7	3.9
2025-01-25 05:17:55.525589	46.8	47.5	-60.7	8.1
2025-01-25 05:17:56.667606	47.1	47.8	-60.7	6.8
2025-01-25 05:17:57.807626	47.5	48.1	-61.4	7.3
2025-01-25 05:17:58.951637	47.8	48.4	-60.9	7.1
2025-01-25 05:18:00.091658	48.2	48.7	-62.0	10.2
2025-01-25 05:18:01.232185	48.6	49.0	-61.9	8.4
2025-01-25 05:18:02.373204	49.0	49.3	-62.7	7.9
2025-01-25 05:18:03.517215	49.4	49.6	-62.7	10.4
2025-01-25 05:18:04.658232	49.8	49.9	-62.0	8.7
2025-01-25 05:18:05.800248	50.2	50.2	-61.8	8.0
2025-01-25 05:18:06.941267	50.6	50.5	-62.8	10.0
2025-01-25 05:18:08.084785	51.0	50.9	-62.8	7.2
2025-01-25 05:18:09.227798	51.5	51.2	-64.2	12.5
2025-01-25 05:18:10.369815	51.9	51.5	-63.0	8.7
2025-01-25 05:18:11.512340	52.4	51.8	-63.5	10.1
2025-01-25 05:18:12.654354	52.8	52.1	-63.9	10.0
2025-01-25 05:18:13.795375	53.3	52.4	-64.8	10.7
2025-01-25 05:18:14.935901	53.8	52.7	-63.2	8.7
2025-01-25 05:18:16.079912	54.3	53.0	-56.5	0.0
2025-01-25 05:18:17.220930	54.8	53.3	-64.2	10.4
2025-01-25 05:18:18.362455	55.3	53.6	-63.1	8.5
2025-01-25 05:18:19.506466	55.8	54.0	-62.0	4.3
2025-01-25 05:18:20.650476	56.3	54.3	-62.0	4.6
2025-01-25 05:18:21.791495	56.9	54.6	-64.0	6.8
2025-01-25 05:18:22.932513	57.4	54.9	-65.6	9.3
2025-01-25 05:18:24.074529	58.0	55.2	-62.3	6.3
2025-01-25 05:18:25.221043	58.6	55.5	-64.9	5.8
2025-01-25 05:18:26.362061	59.2	55.8	-62.9	0.0
2025-01-25 05:18:27.504077	59.8	56.1	-65.8	6.9
2025-01-25 05:18:28.646093	60.4	56.4	-59.7	0.0
2025-01-25 05:18:29.787112	61.1	56.7	-59.5	0.0
2025-01-25 05:18:30.929127	61.7	57.0	-61.0	3.4
2025-01-25 05:18:32.071656	62.4	57.3	-62.7	5.5
2025-01-25 05:18:33.217661	63.1	57.6	-63.6	6.8
2025-01-25 05:18:34.358679	63.8	57.9	-58.1	0.0
2025-01-25 05:18:35.507186	64.5	58.2	-63.0	0.0
2025-01-25 05:18:36.649202	65.2	58.5	-59.3	0.0
2025-01-25 05:18:37.792215	65.9	58.7	-63.2	0.0
2025-01-25 05:18:38.932744	66.7	59.0	-61.2	0.0
2025-01-25 05:18:40.075760	67.4	59.3	-62.7	0.0
2025-01-25 05:18:41.216775	68.2	59.6	-61.3	0.0
2025-01-25 05:18:42.360808	69.0	59.8	-59.1	0.0
2025-01-25 05:18:43.501826	69.9	60.1	-62.3	6.4
2025-01-25 05:18:44.640850	70.7	60.4	-61.8	5.7
2025-01-25 05:18:45.783372	71.5	60.6	-62.3	4.5
2025-01-25 05:18:46.925390	72.4	60.9	-57.5	0.0
2025-01-25 05:18:48.066406	73.3	61.1	-60.3	3.4
2025-01-25 05:18:49.210417	74.2	61.4	-57.7	0.0
2025-01-25 05:18:50.352434	75.1	61.6	-59.0	2.0
2025-01-25 05:18:51.495446	76.1	61.8	-58.8	0.0
2025-01-25 05:18:52.639457	77.0	62.1	-58.6	0.0
2025-01-25 05:18:53.779478	78.0	62.3	-62.5	4.6
2025-01-25 05:18:54.921494	79.0	62.5	-60.0	0.0
2025-01-25 05:18:56.061515	80.0	62.7	-62.8	3.8
2025-01-25 05:18:57.206523	81.0	62.9	-60.2	0.6
2025-01-25 05:18:58.347542	82.1	63.1	-61.2	0.0
2025-01-25 05:18:59.490065	83.1	63.3	-57.1	0.0
2025-01-25 05:19:00.637068	84.2	63.5	-58.2	0.0
2025-01-25 05:19:01.781079	85.3	63.6	-56.9	0.0
2025-01-25 05:19:02.923096	86.4	63.8	-57.6	0.0
2025-01-25 05:19:04.064113	87.6	63.9	-55.9	0.0
2025-01-25 05:19:05.205132	88.7	64.1	-55.1	0.0
2025-01-25 05:19:06.347658	89.8	64.2	-53.0	0.0
2025-01-25 05:19:07.494660	91.0	64.3	-57.4	0.0
2025-01-25 05:19:08.636676	92.2	64.5	-56.5	0.0
2025-01-25 05:19:09.779689	93.4	64.6	-56.1	0.0
2025-01-25 05:19:10.921705	94.6	64.7	-57.4	0.0
2025-01-25 05:19:12.065228	95.8	64.7	-56.4	0.0
2025-01-25 05:19:13.207244	97.0	64.8	-57.3	0.0
2025-01-25 05:19:14.348264	98.2	64.9	-54.2	0.0
2025-01-25 05:19:15.489282	99.5	64.9	-58.8	0.0
2025-01-25 05:19:16.633293	100.7	65.0	-59.3	0.3
2025-01-25 05:19:17.772316	101.9	65.0	-58.9	0.9
2025-01-25 05:19:18.919319	103.2	65.1	-59.2	0.7
2025-01-25 05:19:20.064834	104.4	65.1	-59.0	1.6
2025-01-25 05:19:21.206850	105.7	65.1	-59.6	4.2
2025-01-25 05:19:22.349864	106.9	65.1	-58.9	0.0
2025-01-25 05:19:23.490882	108.2	65.1	-60.3	4.1
2025-01-25 05:19:24.631902	109.4	65.0	-60.3	4.8
2025-01-25 05:19:25.773917	110.7	65.0	-60.3	3.0
2025-01-25 05:19:26.914935	111.9	64.9	-62.1	8.7
2025-01-25 05:19:28.058946	113.1	64.9	-62.3	9.3
2025-01-25 05:19:29.199964	114.4	64.8	-60.9	5.2
2025-01-25 05:19:30.340496	115.6	64.7	-61.9	4.7
2025-01-25 05:19:31.481515	116.8	64.6	-63.2	10.1
2025-01-25 05:19:32.623040	118.0	64.6	-62.5	7.2
2025-01-25 05:19:33.764059	119.2	64.4	-61.2	3.9
2025-01-25 05:19:34.906075	120.3	64.3	-62.0	7.6
2025-01-25 05:19:36.048091	121.5	64.2	-60.3	4.5
2025-01-25 05:19:37.187622	122.7	64.1	-59.8	4.1
2025-01-25 05:19:38.330636	123.8	63.9	-60.4	4.6
2025-01-25 05:19:39.470657	124.9	63.8	-62.6	8.2
2025-01-25 05:19:40.612184	126.0	63.6	-62.5	7.8
2025-01-25 05:19:41.757192	127.1	63.4	-62.4	7.0
2025-01-25 05:19:42.901205	128.2	63.3	-61.8	5.4
2025-01-25 05:19:44.043218	129.2	63.1	-62.0	5.4
2025-01-25 05:19:45.184237	130.3	62.9	-63.7	7.3
2025-01-25 05:19:46.325255	131.3	62.7	-63.0	6.9
2025-01-25 05:19:47.465783	132.3	62.5	-64.2	8.5
2025-01-25 05:19:48.608797	133.3	62.3	-65.3	10.5
2025-01-25 05:19:49.748818	134.3	62.0	-65.0	10.6
2025-01-25 05:19:50.894334	135.2	61.8	-62.7	6.7
2025-01-25 05:19:52.037349	136.2	61.6	-64.4	9.2
2025-01-25 05:19:53.178366	137.1	61.3	-64.8	11.0
2025-01-25 05:19:54.322887	138.0	61.1	-61.3	4.3
2025-01-25 05:19:55.462908	138.9	60.9	-61.6	7.9
2025-01-25 05:19:56.603927	139.8	60.6	-61.8	7.7
2025-01-25 05:19:57.745454	140.6	60.3	-62.3	8.4
2025-01-25 05:19:58.886473	141.4	60.1	-64.7	10.7
2025-01-25 05:20:00.029486	142.3	59.8	-62.6	8.2
2025-01-25 05:20:01.170504	143.1	59.5	-64.1	8.1
2025-01-25 05:20:02.316510	143.9	59.3	-64.5	9.9
2025-01-25 05:20:03.457528	144.6	59.0	-64.1	12.6
2025-01-25 05:20:04.604041	145.4	58.7	-65.1	12.8
2025-01-25 05:20:05.748053	146.1	58.4	-63.0	9.0
2025-01-25 05:20:06.888073	146.8	58.1	-62.7	8.9
2025-01-25 05:20:08.029092	147.5	57.9	-63.0	9.0
2025-01-25 05:20:09.170620	148.2	57.6	-65.0	13.8
2025-01-25 05:20:10.314631	148.9	57.3	-65.1	13.2
2025-01-25 05:20:11.455649	149.6	57.0	-63.0	9.8
2025-01-25 05:20:12.596180	150.2	56.7	-64.1	10.3
2025-01-25 05:20:13.737199	150.9	56.4	-65.0	14.1
2025-01-25 05:20:14.878218	151.5	56.1	-64.9	11.3
2025-01-25 05:20:16.018256	152.1	55.8	-65.2	11.6
2025-01-25 05:20:17.161776	152.7	55.5	-64.8	10.8
2025-01-25 05:20:18.302795	153.3	55.2	-64.8	11.9
2025-01-25 05:20:19.444811	153.8	54.8	-65.4	12.9
2025-01-25 05:20:20.587824	154.4	54.5	-65.5	14.5
2025-01-25 05:20:21.729840	154.9	54.2	-65.2	13.7
2025-01-25 05:20:22.870859	155.5	53.9	-65.2	15.0
2025-01-25 05:20:24.012875	156.0	53.6	-65.4	13.5
2025-01-25 05:20:25.153893	156.5	53.3	-66.1	15.5
2025-01-25 05:20:26.296907	157.0	53.0	-66.0	14.9
2025-01-25 05:20:27.437925	157.5	52.7	-66.1	15.5
2025-01-25 05:20:28.580939	158.0	52.4	-65.9	15.3
2025-01-25 05:20:29.722955	158.4	52.1	-65.4	14.4
2025-01-25 05:20:30.862975	158.9	51.8	-65.0	13.1
2025-01-25 05:20:32.005989	159.4	51.4	-66.5	15.9
2025-01-25 05:20:33.147007	159.8	51.1	-66.6	15.4
2025-01-25 05:20:34.288538	160.2	50.8	-66.3	14.6
2025-01-25 05:20:35.431550	160.7	50.5	-66.4	14.3
2025-01-25 05:20:36.572568	161.1	50.2	-66.2	15.0
2025-01-25 05:20:37.714098	161.5	49.9	-66.0	15.6
2025-01-25 05:20:38.855117	161.9	49.6	-65.6	14.1
2025-01-25 05:20:39.995138	162.3	49.3	-66.1	13.5
2025-01-25 05:20:41.137661	162.7	49.0	-66.9	15.5
2025-01-25 05:20:42.278679	163.0	48.7	-66.5	14.0
2025-01-25 05:20:43.420696	163.4	48.4	-66.6	13.8
2025-01-25 05:20:44.560716	163.8	48.1	-66.4	15.2
2025-01-25 05:20:45.703740	164.1	47.8	-67.0	16.0
2025-01-25 05:20:46.844748	164.5	47.5	-66.5	14.1
2025-01-25 05:20:47.987272	164.8	47.2	-66.9	12.5
2025-01-25 05:20:49.127298	165.1	46.9	-67.0	13.2
2025-01-25 05:20:50.269310	165.5	46.6	-66.5	12.7
2025-01-25 05:20:51.410837	165.8	46.3	-66.8	13.4
2025-01-25 05:20:52.552853	166.1	46.0	-66.6	13.5
2025-01-25 05:20:53.692875	166.4	45.7	-67.1	16.0
2025-01-25 05:20:54.835404	166.7	45.4	-66.4	14.9
2025-01-25 05:20:55.974934	167.0	45.1	-66.4	13.9
2025-01-25 05:20:57.119943	167.3	44.8	-66.7	14.0
2025-01-25 05:20:58.259963	167.6	44.5	-65.9	13.0
2025-01-25 05:20:59.405969	167.9	44.2	-66.3	15.1
2025-01-25 05:21:00.547985	168.2	43.9	-66.6	15.2
2025-01-25 05:21:01.689535	168.5	43.6	-66.5	16.4
2025-01-25 05:21:02.832548	168.7	43.3	-66.1	15.7
2025-01-25 05:21:03.972569	169.0	43.1	-66.6	15.7
2025-01-25 05:21:05.114587	169.3	42.8	-66.0	13.5
2025-01-25 05:21:06.255604	169.5	42.5	-66.3	14.4
2025-01-25 05:21:07.397620	169.8	42.2	-67.1	15.7
2025-01-25 05:21:08.538638	170.0	41.9	-66.3	14.7
2025-01-25 05:21:09.680164	170.3	41.7	-66.1	13.9
2025-01-25 05:21:10.821183	170.5	41.4	-65.9	14.4
2025-01-25 05:21:11.962203	170.7	41.1	-66.7	14.8
2025-01-25 05:21:13.102730	171.0	40.9	-66.7	14.6
2025-01-25 05:21:14.240756	171.2	40.6	-66.5	14.1
2025-01-25 05:21:15.381775	171.4	40.3	-66.5	14.3
2025-01-25 05:21:16.527782	171.6	40.0	-66.6	13.9
2025-01-25 05:21:17.668799	171.9	39.8	-66.0	12.9
2025-01-25 05:21:18.811812	172.1	39.5	-66.4	13.0
2025-01-25 05:21:19.952343	172.3	39.3	-66.7	12.7
2025-01-25 05:21:21.094360	172.5	39.0	-66.9	13.6
2025-01-25 05:21:22.236375	172.7	38.7	-67.0	11.6
2025-01-25 05:21:23.377412	172.9	38.5	-67.7	13.7
2025-01-25 05:21:24.521423	173.1	38.2	-67.5	12.4
2025-01-25 05:21:25.661444	173.3	38.0	-67.5	14.1
2025-01-25 05:21:26.800974	173.5	37.7	-66.7	12.1
2025-01-25 05:21:27.942991	173.7	37.5	-66.7	11.5
2025-01-25 05:21:29.084008	173.9	37.2	-67.3	13.0
2025-01-25 05:21:30.226056	174.0	37.0	-67.1	12.4
2025-01-25 05:21:31.370066	174.2	36.7	-67.9	13.6
2025-01-25 05:21:32.513080	174.4	36.5	-67.6	13.3
2025-01-25 05:21:33.654098	174.6	36.2	-67.0	11.5
2025-01-25 05:21:34.796115	174.8	36.0	-66.8	11.3
2025-01-25 05:21:35.937133	174.9	35.7	-67.3	12.0
2025-01-25 05:21:37.079149	175.1	35.5	-67.0	11.4
2025-01-25 05:21:38.228147	175.3	35.3	-66.8	11.7
2025-01-25 05:21:39.370162	175.4	35.0	-66.8	11.5
2025-01-25 05:21:40.512685	175.6	34.8	-67.1	11.0
2025-01-25 05:21:41.651709	175.7	34.6	-67.2	12.2
2025-01-25 05:21:42.792727	175.9	34.3	-67.1	11.3
2025-01-25 05:21:43.935249	176.1	34.1	-67.2	11.6
2025-01-25 05:21:45.074292	176.2	33.9	-67.0	11.7
2025-01-25 05:21:46.218302	176.4	33.6	-67.4	11.3
2025-01-25 05:21:47.359320	176.5	33.4	-67.1	11.3
2025-01-25 05:21:48.500847	176.7	33.2	-67.5	11.5
2025-01-25 05:21:49.641864	176.8	33.0	-67.6	12.7
2025-01-25 05:21:50.782900	176.9	32.8	-67.7	12.0
2025-01-25 05:21:51.923427	177.1	32.5	-67.6	10.2
2025-01-25 05:21:53.063447	177.2	32.3	-67.4	11.2
2025-01-25 05:21:54.206461	177.4	32.1	-67.7	11.5
2025-01-25 05:21:55.347480	177.5	31.9	-67.5	10.5
2025-01-25 05:21:56.491490	177.6	31.7	-67.6	10.4
2025-01-25 05:21:57.632509	177.8	31.5	-67.8	11.8
2025-01-25 05:21:58.772043	177.9	31.2	-68.1	11.6
2025-01-25 05:21:59.917050	178.0	31.0	-68.2	12.1
2025-01-25 05:22:01.056579	178.1	30.8	-68.1	11.7
2025-01-25 05:22:02.197599	178.3	30.6	-67.9	11.4
2025-01-25 05:22:03.338615	178.4	30.4	-67.4	10.7
2025-01-25 05:22:04.481139	178.5	30.2	-67.3	10.8
2025-01-25 05:22:05.621666	178.6	30.0	-67.0	6.0
#Closed at: 2025-01-25 05:16:31.528902