passes_logs/2025/01/25/Planum_Noyabrsk/Planum_Noyabrsk__20250125_065743_NOAA_19_rec.log

#Pass ID: 20250125_065743_NOAA 19
#Satellite: NOAA 19
#Configuration: NOAA 19
#Start time: 2025-01-25 06:57:48.456135

#LorettStation: 1.0.0 05.05.2024
#Station: Planum_Noyabrsk
#Location: 75.446886 lon 63.207202 lat
#TLE: 1 33591U 09005A   25024.56176042  .00000462  00000+0  27048-3 0  9994
#TLE: 2 33591  99.0180  88.3973 0014119  31.6053 328.5964 14.13268197822632

#Time	Az	El	Level	SNR
2025-01-25 06:57:56.654652	351.9	31.1	-58.5	0.0
2025-01-25 06:57:57.793144	351.7	31.3	-58.6	0.0
2025-01-25 06:57:58.937623	351.4	31.4	-58.5	0.0
2025-01-25 06:58:00.081594	351.1	31.6	-57.3	0.0
2025-01-25 06:58:01.222573	350.8	31.7	-56.1	0.0
2025-01-25 06:58:02.364060	350.5	31.9	-57.7	0.0
2025-01-25 06:58:03.505039	350.2	32.0	-56.9	0.0
2025-01-25 06:58:04.644023	349.9	32.2	-56.6	0.0
2025-01-25 06:58:05.785509	349.6	32.4	-55.9	0.0
2025-01-25 06:58:06.924493	349.3	32.5	-55.5	0.0
2025-01-25 06:58:08.065979	349.0	32.7	-53.9	0.0
2025-01-25 06:58:09.207464	348.7	32.8	-55.6	0.0
2025-01-25 06:58:10.348444	348.4	33.0	-54.3	0.0
2025-01-25 06:58:11.490420	348.0	33.1	-54.3	0.0
2025-01-25 06:58:12.635897	347.7	33.3	-55.5	0.0
2025-01-25 06:58:13.777875	347.4	33.4	-53.0	0.0
2025-01-25 06:58:14.919850	347.1	33.6	-54.6	0.0
2025-01-25 06:58:16.060830	346.7	33.7	-57.7	0.0
2025-01-25 06:58:17.201809	346.4	33.9	-54.6	0.0
2025-01-25 06:58:18.343786	346.1	34.1	-55.2	0.0
2025-01-25 06:58:19.484764	345.7	34.2	-53.6	0.0
2025-01-25 06:58:20.627739	345.4	34.4	-52.7	0.0
2025-01-25 06:58:21.767228	345.0	34.5	-52.4	0.0
2025-01-25 06:58:22.909714	344.7	34.7	-53.2	0.0
2025-01-25 06:58:24.050200	344.3	34.8	-52.2	0.0
2025-01-25 06:58:25.192178	344.0	35.0	-52.3	0.0
2025-01-25 06:58:26.333156	343.6	35.1	-52.4	0.0
2025-01-25 06:58:27.476130	343.2	35.3	-54.3	0.0
2025-01-25 06:58:28.617109	342.9	35.4	-52.7	0.0
2025-01-25 06:58:29.759597	342.5	35.6	-53.2	0.0
2025-01-25 06:58:30.900084	342.1	35.7	-52.9	0.0
2025-01-25 06:58:32.041064	341.8	35.8	-53.2	0.0
2025-01-25 06:58:33.182042	341.4	36.0	-53.3	0.0
2025-01-25 06:58:34.326013	341.0	36.1	-52.8	0.0
2025-01-25 06:58:35.464998	340.6	36.3	-53.4	0.0
2025-01-25 06:58:36.605979	340.2	36.4	-53.4	0.0
2025-01-25 06:58:37.746956	339.8	36.6	-53.6	0.0
2025-01-25 06:58:38.889931	339.4	36.7	-53.2	0.0
2025-01-25 06:58:40.030909	339.0	36.8	-53.1	0.0
2025-01-25 06:58:41.173392	338.6	37.0	-53.7	0.0
2025-01-25 06:58:42.313373	338.2	37.1	-52.8	0.0
2025-01-25 06:58:43.453355	337.8	37.3	-52.9	0.0
2025-01-25 06:58:44.595333	337.4	37.4	-53.1	0.0
2025-01-25 06:58:45.736311	337.0	37.5	-54.0	0.0
2025-01-25 06:58:46.879792	336.6	37.7	-54.1	0.0
2025-01-25 06:58:48.023272	336.1	37.8	-53.5	0.0
2025-01-25 06:58:49.168240	335.7	37.9	-53.0	0.0
2025-01-25 06:58:50.309219	335.3	38.0	-53.5	0.0
2025-01-25 06:58:51.450200	334.8	38.2	-53.9	0.0
2025-01-25 06:58:52.592175	334.4	38.3	-54.5	0.0
2025-01-25 06:58:53.734151	334.0	38.4	-55.2	0.0
2025-01-25 06:58:54.874133	333.5	38.5	-54.4	0.0
2025-01-25 06:58:56.017108	333.1	38.7	-55.3	0.0
2025-01-25 06:58:57.157089	332.6	38.8	-55.9	0.0
2025-01-25 06:58:58.300063	332.2	38.9	-55.9	0.0
2025-01-25 06:58:59.439048	331.7	39.0	-55.5	0.0
2025-01-25 06:59:00.582022	331.2	39.1	-54.9	0.0
2025-01-25 06:59:01.723000	330.8	39.3	-54.4	0.0
2025-01-25 06:59:02.866972	330.3	39.4	-55.4	0.0
2025-01-25 06:59:04.008948	329.8	39.5	-55.2	0.0
2025-01-25 06:59:05.147934	329.4	39.6	-56.0	0.0
2025-01-25 06:59:06.291905	328.9	39.7	-57.0	2.7
2025-01-25 06:59:07.434393	328.4	39.8	-56.5	0.0
2025-01-25 06:59:08.577368	327.9	39.9	-56.6	1.6
2025-01-25 06:59:09.718853	327.4	40.0	-56.1	0.0
2025-01-25 06:59:10.860831	326.9	40.1	-56.2	0.0
2025-01-25 06:59:12.000811	326.5	40.2	-56.6	1.4
2025-01-25 06:59:13.143786	326.0	40.3	-56.9	1.5
2025-01-25 06:59:14.282770	325.5	40.4	-57.5	2.8
2025-01-25 06:59:15.426252	325.0	40.5	-56.9	1.6
2025-01-25 06:59:16.567231	324.5	40.5	-56.9	2.8
2025-01-25 06:59:17.709208	324.0	40.6	-57.8	5.4
2025-01-25 06:59:18.850187	323.4	40.7	-59.1	6.0
2025-01-25 06:59:19.990677	322.9	40.8	-57.9	3.2
2025-01-25 06:59:21.132655	322.4	40.9	-58.1	3.4
2025-01-25 06:59:22.273633	321.9	40.9	-58.3	3.7
2025-01-25 06:59:23.415119	321.4	41.0	-59.0	4.5
2025-01-25 06:59:24.558093	320.9	41.1	-58.6	3.1
2025-01-25 06:59:25.697584	320.3	41.1	-59.4	4.6
2025-01-25 06:59:26.840069	319.8	41.2	-58.9	4.8
2025-01-25 06:59:27.981047	319.3	41.3	-59.3	3.8
2025-01-25 06:59:29.125019	318.8	41.3	-59.6	5.1
2025-01-25 06:59:30.263513	318.2	41.4	-59.4	4.9
2025-01-25 06:59:31.401500	317.7	41.4	-59.6	5.0
2025-01-25 06:59:32.542480	317.2	41.5	-59.5	3.7
2025-01-25 06:59:33.682461	316.6	41.5	-59.8	4.8
2025-01-25 06:59:34.824441	316.1	41.6	-60.1	5.3
2025-01-25 06:59:35.964421	315.6	41.6	-61.6	5.9
2025-01-25 06:59:37.110387	315.0	41.7	-61.0	5.2
2025-01-25 06:59:38.254357	314.5	41.7	-61.0	5.6
2025-01-25 06:59:39.396333	313.9	41.7	-61.0	4.9
2025-01-25 06:59:40.537313	313.4	41.8	-61.5	6.8
2025-01-25 06:59:41.680286	312.8	41.8	-62.1	7.7
2025-01-25 06:59:42.822263	312.3	41.8	-62.5	9.5
2025-01-25 06:59:43.963750	311.7	41.8	-61.4	6.7
2025-01-25 06:59:45.105727	311.2	41.9	-62.5	7.3
2025-01-25 06:59:46.243713	310.6	41.9	-62.4	7.4
2025-01-25 06:59:47.385694	310.1	41.9	-62.9	9.3
2025-01-25 06:59:48.526669	309.5	41.9	-62.2	6.3
2025-01-25 06:59:49.668652	309.0	41.9	-62.0	5.6
2025-01-25 06:59:50.809625	308.4	41.9	-63.9	8.4
2025-01-25 06:59:51.951111	307.9	41.9	-63.4	8.0
2025-01-25 06:59:53.092089	307.4	41.9	-64.8	9.2
2025-01-25 06:59:54.233068	306.8	41.9	-62.3	7.8
2025-01-25 06:59:55.374048	306.3	41.9	-63.0	6.2
2025-01-25 06:59:56.512540	305.7	41.9	-64.8	9.5
2025-01-25 06:59:57.650528	305.2	41.9	-62.2	4.4
2025-01-25 06:59:58.791507	304.6	41.9	-62.9	7.5
2025-01-25 06:59:59.930491	304.1	41.8	-61.8	6.0
2025-01-25 07:00:01.072497	303.5	41.8	-62.4	6.4
2025-01-25 07:00:02.213447	303.0	41.8	-63.1	6.1
2025-01-25 07:00:03.355424	302.4	41.8	-64.5	8.8
2025-01-25 07:00:04.494408	301.9	41.7	-62.7	7.4
2025-01-25 07:00:05.635388	301.3	41.7	-63.6	7.0
2025-01-25 07:00:06.776366	300.8	41.7	-63.0	6.9
2025-01-25 07:00:07.917345	300.3	41.6	-62.8	7.3
2025-01-25 07:00:09.057327	299.7	41.6	-62.9	7.4
2025-01-25 07:00:10.197816	299.2	41.5	-62.2	7.3
2025-01-25 07:00:11.339793	298.6	41.5	-61.8	7.3
2025-01-25 07:00:12.481769	298.1	41.4	-62.4	8.0
2025-01-25 07:00:13.622748	297.6	41.4	-62.8	8.9
2025-01-25 07:00:14.763727	297.1	41.3	-62.6	8.4
2025-01-25 07:00:15.904707	296.5	41.3	-62.2	7.5
2025-01-25 07:00:17.043199	296.0	41.2	-64.0	8.6
2025-01-25 07:00:18.183181	295.5	41.1	-63.5	10.5
2025-01-25 07:00:19.324160	295.0	41.1	-63.7	9.1
2025-01-25 07:00:20.464650	294.4	41.0	-64.1	11.8
2025-01-25 07:00:21.605630	293.9	40.9	-63.6	8.2
2025-01-25 07:00:22.746609	293.4	40.9	-63.3	9.5
2025-01-25 07:00:23.892575	292.9	40.8	-63.6	8.6
2025-01-25 07:00:25.031559	292.4	40.7	-63.9	9.4
2025-01-25 07:00:26.172539	291.9	40.6	-63.6	8.7
2025-01-25 07:00:27.312032	291.4	40.5	-63.8	10.5
2025-01-25 07:00:28.453012	290.9	40.4	-63.5	9.3
2025-01-25 07:00:29.596982	290.4	40.4	-63.3	9.1
2025-01-25 07:00:30.736964	289.9	40.3	-63.8	9.8
2025-01-25 07:00:31.878941	289.4	40.2	-64.0	9.7
2025-01-25 07:00:33.019919	288.9	40.1	-63.7	9.0
2025-01-25 07:00:34.162894	288.4	40.0	-64.8	10.0
2025-01-25 07:00:35.302875	287.9	39.9	-64.7	10.6
2025-01-25 07:00:36.444852	287.4	39.8	-65.2	12.2
2025-01-25 07:00:37.586829	286.9	39.7	-65.0	11.8
2025-01-25 07:00:38.727808	286.5	39.6	-64.7	9.8
2025-01-25 07:00:39.867790	286.0	39.5	-65.3	10.4
2025-01-25 07:00:41.008768	285.5	39.3	-64.3	9.3
2025-01-25 07:00:42.153248	285.0	39.2	-64.6	10.9
2025-01-25 07:00:43.293229	284.6	39.1	-63.9	10.3
2025-01-25 07:00:44.435209	284.1	39.0	-63.4	10.5
2025-01-25 07:00:45.576185	283.7	38.9	-63.8	11.6
2025-01-25 07:00:46.717670	283.2	38.8	-63.6	11.2
2025-01-25 07:00:47.859646	282.8	38.6	-63.4	10.1
2025-01-25 07:00:49.007607	282.3	38.5	-63.9	10.9
2025-01-25 07:00:50.148586	281.9	38.4	-63.4	11.5
2025-01-25 07:00:51.290563	281.4	38.3	-63.5	12.0
2025-01-25 07:00:52.429058	281.0	38.2	-62.8	11.0
2025-01-25 07:00:53.571034	280.6	38.0	-63.3	12.1
2025-01-25 07:00:54.714008	280.1	37.9	-62.9	11.4
2025-01-25 07:00:55.854495	279.7	37.8	-63.1	11.8
2025-01-25 07:00:56.996474	279.3	37.6	-63.0	11.4
2025-01-25 07:00:58.137451	278.9	37.5	-62.9	11.0
2025-01-25 07:00:59.279429	278.4	37.4	-63.7	13.5
2025-01-25 07:01:00.420407	278.0	37.2	-63.5	13.4
2025-01-25 07:01:01.562387	277.6	37.1	-62.8	11.2
2025-01-25 07:01:02.702871	277.2	37.0	-62.8	11.0
2025-01-25 07:01:03.845845	276.8	36.8	-62.9	10.1
2025-01-25 07:01:04.985827	276.4	36.7	-62.9	10.0
2025-01-25 07:01:06.125809	276.0	36.5	-62.8	9.7
2025-01-25 07:01:07.263796	275.6	36.4	-63.1	9.9
2025-01-25 07:01:08.404775	275.2	36.3	-63.1	9.9
2025-01-25 07:01:09.543759	274.8	36.1	-63.5	10.0
2025-01-25 07:01:10.683741	274.5	36.0	-63.1	8.4
2025-01-25 07:01:11.823723	274.1	35.8	-63.2	8.3
2025-01-25 07:01:12.965700	273.7	35.7	-63.6	9.4
2025-01-25 07:01:14.107676	273.3	35.5	-63.4	8.4
2025-01-25 07:01:15.246660	273.0	35.4	-63.5	9.2
2025-01-25 07:01:16.388638	272.6	35.2	-64.5	8.0
2025-01-25 07:01:17.532116	272.2	35.1	-64.0	6.9
2025-01-25 07:01:18.673097	271.9	34.9	-63.8	8.9
2025-01-25 07:01:19.813077	271.5	34.8	-64.0	8.0
2025-01-25 07:01:20.954562	271.2	34.6	-64.3	8.7
2025-01-25 07:01:22.097536	270.8	34.5	-65.3	11.2
2025-01-25 07:01:23.238515	270.5	34.3	-64.6	7.7
2025-01-25 07:01:24.379495	270.1	34.2	-64.5	6.5
2025-01-25 07:01:25.520474	269.8	34.0	-65.1	8.4
2025-01-25 07:01:26.663448	269.5	33.9	-65.2	8.3
2025-01-25 07:01:27.803429	269.1	33.7	-65.7	7.0
2025-01-25 07:01:28.946404	268.8	33.6	-64.6	7.7
2025-01-25 07:01:30.086385	268.5	33.4	-65.0	8.0
2025-01-25 07:01:31.226879	268.1	33.3	-65.4	6.9
2025-01-25 07:01:32.367859	267.8	33.1	-65.5	7.6
2025-01-25 07:01:33.509835	267.5	33.0	-66.5	9.2
2025-01-25 07:01:34.652321	267.2	32.8	-64.9	6.7
2025-01-25 07:01:35.794299	266.9	32.6	-65.8	7.6
2025-01-25 07:01:36.936274	266.6	32.5	-65.5	8.9
2025-01-25 07:01:38.077254	266.3	32.3	-65.8	8.7
2025-01-25 07:01:39.224217	266.0	32.2	-65.7	9.2
2025-01-25 07:01:40.365195	265.7	32.0	-65.4	9.4
2025-01-25 07:01:41.507173	265.4	31.9	-65.9	8.9
2025-01-25 07:01:42.648152	265.1	31.7	-66.1	9.2
2025-01-25 07:01:43.790129	264.8	31.6	-65.6	9.7
2025-01-25 07:01:44.931123	264.5	31.4	-65.3	9.7
2025-01-25 07:01:46.073606	264.2	31.3	-65.7	9.4
2025-01-25 07:01:47.214585	263.9	31.1	-65.8	10.3
2025-01-25 07:01:48.355565	263.6	30.9	-66.1	10.0
2025-01-25 07:01:49.497540	263.4	30.8	-65.9	10.5
2025-01-25 07:01:50.637523	263.1	30.6	-66.2	11.7
2025-01-25 07:01:51.779499	262.8	30.5	-65.7	10.7
2025-01-25 07:01:52.924976	262.5	30.3	-65.7	10.8
2025-01-25 07:01:54.066951	262.3	30.2	-64.6	6.8
2025-01-25 07:01:55.208928	262.0	30.0	-66.5	0.0
#Closed at: 2025-01-25 06:57:43.460589