passes_logs/2025/01/25/Planum_Noyabrsk/Planum_Noyabrsk__20250125_072013_NOAA_18_rec.log

#Pass ID: 20250125_072013_NOAA 18
#Satellite: NOAA 18
#Configuration: NOAA 18
#Start time: 2025-01-25 07:20:18.987773

#LorettStation: 1.0.0 05.05.2024
#Station: Planum_Noyabrsk
#Location: 75.446886 lon 63.207202 lat
#TLE: 1 28654U 05018A   25024.57737520  .00000541  00000+0  31079-3 0  9990
#TLE: 2 28654  98.8552 105.5360 0014781 152.6661 207.5292 14.13496499 14453

#Time	Az	El	Level	SNR
2025-01-25 07:20:25.193834	10.2	31.1	-60.1	3.2
2025-01-25 07:20:26.335811	10.1	31.4	-61.5	6.9
2025-01-25 07:20:27.475792	10.0	31.6	-61.3	6.1
2025-01-25 07:20:28.618276	9.9	31.8	-61.8	4.2
2025-01-25 07:20:29.762247	9.8	32.0	-60.8	2.2
2025-01-25 07:20:30.903228	9.6	32.2	-63.0	6.5
2025-01-25 07:20:32.043208	9.5	32.4	-61.6	5.7
2025-01-25 07:20:33.184187	9.4	32.7	-62.1	5.8
2025-01-25 07:20:34.323172	9.3	32.9	-62.9	5.4
2025-01-25 07:20:35.464153	9.1	33.1	-63.7	6.9
2025-01-25 07:20:36.604643	9.0	33.3	-64.3	5.8
2025-01-25 07:20:37.747617	8.9	33.6	-64.3	8.1
2025-01-25 07:20:38.887599	8.7	33.8	-64.9	9.7
2025-01-25 07:20:40.030081	8.6	34.0	-64.6	8.7
2025-01-25 07:20:41.172058	8.5	34.3	-64.4	7.9
2025-01-25 07:20:42.313037	8.3	34.5	-64.8	9.6
2025-01-25 07:20:43.453534	8.2	34.7	-65.6	9.6
2025-01-25 07:20:44.597020	8.0	35.0	-66.3	10.5
2025-01-25 07:20:45.737002	7.9	35.2	-66.1	10.4
2025-01-25 07:20:46.881971	7.8	35.5	-66.0	9.7
2025-01-25 07:20:48.023947	7.6	35.7	-65.7	10.1
2025-01-25 07:20:49.165924	7.5	36.0	-65.0	8.6
2025-01-25 07:20:50.311400	7.3	36.2	-65.6	9.2
2025-01-25 07:20:51.455372	7.1	36.5	-65.1	7.8
2025-01-25 07:20:52.596350	7.0	36.7	-65.6	8.0
2025-01-25 07:20:53.738350	6.8	37.0	-66.2	11.2
2025-01-25 07:20:54.879329	6.7	37.2	-66.4	11.6
2025-01-25 07:20:56.020309	6.5	37.5	-66.4	13.0
2025-01-25 07:20:57.161795	6.3	37.7	-66.0	11.1
2025-01-25 07:20:58.305275	6.1	38.0	-65.9	10.2
2025-01-25 07:20:59.444259	6.0	38.2	-65.9	9.4
2025-01-25 07:21:00.587234	5.8	38.5	-65.9	10.8
2025-01-25 07:21:01.726723	5.6	38.8	-65.7	11.6
2025-01-25 07:21:02.868701	5.4	39.0	-65.8	11.9
2025-01-25 07:21:04.011693	5.2	39.3	-66.2	12.4
2025-01-25 07:21:05.151676	5.0	39.6	-65.6	11.2
2025-01-25 07:21:06.292654	4.8	39.8	-64.2	9.7
2025-01-25 07:21:07.434631	4.7	40.1	-64.6	8.2
2025-01-25 07:21:08.574614	4.5	40.4	-66.4	12.5
2025-01-25 07:21:09.718584	4.2	40.7	-64.5	7.7
2025-01-25 07:21:10.858075	4.0	40.9	-63.4	8.6
2025-01-25 07:21:12.001555	3.8	41.2	-64.0	9.4
2025-01-25 07:21:13.142534	3.6	41.5	-63.8	9.7
2025-01-25 07:21:14.284511	3.4	41.8	-63.5	9.5
2025-01-25 07:21:15.424999	3.2	42.1	-62.2	7.3
2025-01-25 07:21:16.566975	2.9	42.3	-63.3	9.6
2025-01-25 07:21:17.706957	2.7	42.6	-64.0	10.7
2025-01-25 07:21:18.853429	2.5	42.9	-63.5	10.0
2025-01-25 07:21:19.995405	2.2	43.2	-62.7	8.7
2025-01-25 07:21:21.137382	2.0	43.5	-62.5	9.3
2025-01-25 07:21:22.279870	1.7	43.8	-63.5	10.3
2025-01-25 07:21:23.421355	1.5	44.1	-63.2	11.7
2025-01-25 07:21:24.562334	1.2	44.4	-62.4	6.3
2025-01-25 07:21:25.703821	1.0	44.7	-61.9	6.8
2025-01-25 07:21:26.844801	0.7	45.0	-62.0	9.0
2025-01-25 07:21:27.986776	0.4	45.3	-64.1	11.4
2025-01-25 07:21:29.127756	0.1	45.6	-62.9	9.4
2025-01-25 07:21:30.268734	359.9	45.9	-61.4	6.9
2025-01-25 07:21:31.410712	359.6	46.2	-61.7	7.1
2025-01-25 07:21:32.555189	359.3	46.5	-62.2	8.0
2025-01-25 07:21:33.696168	359.0	46.8	-62.3	9.3
2025-01-25 07:21:34.836150	358.7	47.1	-61.2	4.7
2025-01-25 07:21:35.978126	358.3	47.5	-62.1	8.3
2025-01-25 07:21:37.119105	358.0	47.8	-60.7	7.2
2025-01-25 07:21:38.260084	357.7	48.1	-60.6	5.5
2025-01-25 07:21:39.400575	357.4	48.4	-61.8	7.4
2025-01-25 07:21:40.545543	357.0	48.7	-61.6	6.1
2025-01-25 07:21:41.687520	356.7	49.0	-60.8	5.7
2025-01-25 07:21:42.828499	356.3	49.4	-62.2	5.1
2025-01-25 07:21:43.970983	355.9	49.7	-60.7	5.5
2025-01-25 07:21:45.110473	355.6	50.0	-60.7	5.6
2025-01-25 07:21:46.252957	355.2	50.3	-60.2	4.9
2025-01-25 07:21:47.395931	354.8	50.6	-60.9	5.2
2025-01-25 07:21:48.537908	354.4	51.0	-61.3	3.5
2025-01-25 07:21:49.679393	354.0	51.3	-60.6	3.6
2025-01-25 07:21:50.821370	353.6	51.6	-61.4	4.8
2025-01-25 07:21:51.960354	353.2	51.9	-60.0	0.0
2025-01-25 07:21:53.104328	352.7	52.3	-60.4	0.2
2025-01-25 07:21:54.247316	352.3	52.6	-60.5	0.0
2025-01-25 07:21:55.388295	351.8	52.9	-60.8	0.0
2025-01-25 07:21:56.530272	351.4	53.3	-60.5	0.0
2025-01-25 07:21:57.674243	350.9	53.6	-60.8	0.0
2025-01-25 07:21:58.815223	350.4	53.9	-60.6	0.0
2025-01-25 07:21:59.957199	349.9	54.2	-60.9	0.8
2025-01-25 07:22:01.101170	349.4	54.6	-60.7	0.4
2025-01-25 07:22:02.244144	348.9	54.9	-60.9	0.0
2025-01-25 07:22:03.387118	348.3	55.2	-60.6	0.7
2025-01-25 07:22:04.530092	347.8	55.5	-61.8	0.0
2025-01-25 07:22:05.670074	347.2	55.9	-60.6	2.0
2025-01-25 07:22:06.813554	346.7	56.2	-60.2	0.0
2025-01-25 07:22:07.957035	346.1	56.5	-60.0	0.0
2025-01-25 07:22:09.101006	345.5	56.8	-61.9	0.4
2025-01-25 07:22:10.245975	344.9	57.2	-60.1	0.0
2025-01-25 07:22:11.389946	344.2	57.5	-60.3	0.0
2025-01-25 07:22:12.529928	343.6	57.8	-61.0	0.0
2025-01-25 07:22:13.670907	342.9	58.1	-61.4	0.0
2025-01-25 07:22:14.811886	342.3	58.4	-60.8	0.0
2025-01-25 07:22:15.953863	341.6	58.8	-60.2	0.0
2025-01-25 07:22:17.094842	340.9	59.1	-59.8	0.0
2025-01-25 07:22:18.242312	340.1	59.4	-60.3	0.0
2025-01-25 07:22:19.384288	339.4	59.7	-60.2	0.3
2025-01-25 07:22:20.525267	338.6	60.0	-60.8	1.2
2025-01-25 07:22:21.667244	337.9	60.3	-59.8	0.5
2025-01-25 07:22:22.808223	337.1	60.6	-59.9	1.1
2025-01-25 07:22:23.949203	336.2	60.9	-58.9	0.0
2025-01-25 07:22:25.091179	335.4	61.2	-58.8	0.0
2025-01-25 07:22:26.232158	334.6	61.4	-60.2	1.2
2025-01-25 07:22:27.373137	333.7	61.7	-59.2	1.1
2025-01-25 07:22:28.517108	332.8	62.0	-58.5	0.5
2025-01-25 07:22:29.660086	331.9	62.3	-59.3	1.4
2025-01-25 07:22:30.801061	330.9	62.5	-59.6	1.6
2025-01-25 07:22:31.945540	330.0	62.8	-60.5	2.2
2025-01-25 07:22:33.087027	329.0	63.0	-58.6	1.5
2025-01-25 07:22:34.231996	328.0	63.3	-58.9	1.1
2025-01-25 07:22:35.374970	327.0	63.5	-58.0	0.0
2025-01-25 07:22:36.518451	326.0	63.8	-57.4	0.0
2025-01-25 07:22:37.658432	324.9	64.0	-58.1	2.0
2025-01-25 07:22:38.802403	323.8	64.2	-59.1	3.1
2025-01-25 07:22:39.941387	322.7	64.4	-59.3	3.8
2025-01-25 07:22:41.087860	321.6	64.6	-58.3	2.1
2025-01-25 07:22:42.228839	320.5	64.8	-59.9	3.4
2025-01-25 07:22:43.370327	319.3	65.0	-58.2	0.5
2025-01-25 07:22:44.512815	318.1	65.2	-60.0	1.6
2025-01-25 07:22:45.654302	316.9	65.4	-59.9	1.8
2025-01-25 07:22:46.793792	315.7	65.5	-60.5	2.9
2025-01-25 07:22:47.935768	314.5	65.7	-58.9	0.0
2025-01-25 07:22:49.076747	313.2	65.8	-57.1	1.5
2025-01-25 07:22:50.218724	312.0	65.9	-57.1	0.0
2025-01-25 07:22:51.359704	310.7	66.0	-57.3	0.0
2025-01-25 07:22:52.501680	309.4	66.2	-56.5	0.0
2025-01-25 07:22:53.643656	308.1	66.3	-58.0	2.1
2025-01-25 07:22:54.784636	306.8	66.3	-58.1	0.0
2025-01-25 07:22:55.925614	305.5	66.4	-56.7	0.0
2025-01-25 07:22:57.067591	304.1	66.5	-56.9	0.0
2025-01-25 07:22:58.208570	302.8	66.5	-56.9	0.0
2025-01-25 07:22:59.350060	301.5	66.6	-58.6	0.0
2025-01-25 07:23:00.491040	300.1	66.6	-57.2	0.0
2025-01-25 07:23:01.634013	298.8	66.6	-60.1	0.8
2025-01-25 07:23:02.773996	297.4	66.6	-60.5	0.9
2025-01-25 07:23:03.916970	296.0	66.6	-59.0	0.0
2025-01-25 07:23:05.056460	294.7	66.6	-58.8	0.0
2025-01-25 07:23:06.196950	293.4	66.5	-60.1	3.2
2025-01-25 07:23:07.337931	292.0	66.5	-59.9	0.2
2025-01-25 07:23:08.479906	290.7	66.4	-61.3	2.2
2025-01-25 07:23:09.621882	289.3	66.4	-60.9	4.1
2025-01-25 07:23:10.760375	288.0	66.3	-60.8	0.0
2025-01-25 07:23:11.902352	286.7	66.2	-61.7	1.0
2025-01-25 07:23:13.043331	285.4	66.1	-59.8	0.0
2025-01-25 07:23:14.183819	284.1	66.0	-61.4	4.6
2025-01-25 07:23:15.324309	282.9	65.9	-60.7	3.7
2025-01-25 07:23:16.466286	281.6	65.7	-60.3	2.8
2025-01-25 07:23:17.611761	280.4	65.6	-61.4	3.3
2025-01-25 07:23:18.751742	279.2	65.4	-61.3	3.7
2025-01-25 07:23:19.895714	277.9	65.3	-61.0	3.6
2025-01-25 07:23:21.036709	276.8	65.1	-60.6	2.1
2025-01-25 07:23:22.178686	275.6	64.9	-61.1	4.6
2025-01-25 07:23:23.319665	274.4	64.7	-61.9	5.4
2025-01-25 07:23:24.462149	273.3	64.5	-62.8	7.2
2025-01-25 07:23:25.602130	272.2	64.3	-62.7	4.0
2025-01-25 07:23:26.744106	271.1	64.1	-62.8	3.2
2025-01-25 07:23:27.885595	270.0	63.9	-63.3	3.3
2025-01-25 07:23:29.024579	269.0	63.6	-63.1	2.1
2025-01-25 07:23:30.168551	268.0	63.4	-63.3	4.0
2025-01-25 07:23:31.311033	267.0	63.2	-62.4	1.8
2025-01-25 07:23:32.456002	266.0	62.9	-63.0	4.5
2025-01-25 07:23:33.598485	265.0	62.6	-62.8	3.3
2025-01-25 07:23:34.740970	264.1	62.4	-61.7	1.7
2025-01-25 07:23:35.881949	263.1	62.1	-63.2	5.8
2025-01-25 07:23:37.022929	262.2	61.8	-63.6	3.7
2025-01-25 07:23:38.162925	261.3	61.6	-62.9	2.8
2025-01-25 07:23:39.305899	260.5	61.3	-63.5	5.4
2025-01-25 07:23:40.445881	259.6	61.0	-64.2	6.4
2025-01-25 07:23:41.587369	258.8	60.7	-64.2	7.7
2025-01-25 07:23:42.727858	258.0	60.4	-63.2	4.5
2025-01-25 07:23:43.882801	257.2	60.1	-64.5	8.1
2025-01-25 07:23:45.023799	256.4	59.8	-62.7	5.1
2025-01-25 07:23:46.164778	255.7	59.5	-62.7	4.0
2025-01-25 07:23:47.307752	255.0	59.2	-62.7	5.6
2025-01-25 07:23:48.448241	254.2	58.9	-63.0	5.2
2025-01-25 07:23:49.595205	253.5	58.6	-62.2	4.9
2025-01-25 07:23:50.736183	252.9	58.2	-63.5	8.3
2025-01-25 07:23:51.877678	252.2	57.9	-62.8	7.7
2025-01-25 07:23:53.019163	251.5	57.6	-64.0	7.7
2025-01-25 07:23:54.160142	250.9	57.3	-62.7	7.3
2025-01-25 07:23:55.300631	250.3	57.0	-63.5	7.5
2025-01-25 07:23:56.444602	249.7	56.6	-64.1	8.9
2025-01-25 07:23:57.584584	249.1	56.3	-65.0	9.0
2025-01-25 07:23:58.725563	248.5	56.0	-65.4	11.0
2025-01-25 07:23:59.868537	247.9	55.7	-65.0	10.4
2025-01-25 07:24:01.008519	247.4	55.3	-65.5	9.8
2025-01-25 07:24:02.150495	246.8	55.0	-65.3	10.9
2025-01-25 07:24:03.296969	246.3	54.7	-65.1	10.3
2025-01-25 07:24:04.438945	245.8	54.3	-64.8	10.3
2025-01-25 07:24:05.579925	245.3	54.0	-65.0	8.9
2025-01-25 07:24:06.722899	244.8	53.7	-64.9	9.6
2025-01-25 07:24:07.861883	244.3	53.4	-65.7	13.9
2025-01-25 07:24:09.003860	243.9	53.0	-65.0	9.6
2025-01-25 07:24:10.145855	243.4	52.7	-66.1	12.8
2025-01-25 07:24:11.287831	243.0	52.4	-64.8	12.3
2025-01-25 07:24:12.428810	242.5	52.0	-64.9	11.1
2025-01-25 07:24:13.569791	242.1	51.7	-64.8	11.0
2025-01-25 07:24:14.711766	241.7	51.4	-65.0	11.9
2025-01-25 07:24:15.852745	241.3	51.1	-65.0	11.5
2025-01-25 07:24:17.000221	240.8	50.7	-64.6	11.0
2025-01-25 07:24:18.140202	240.5	50.4	-65.0	10.9
2025-01-25 07:24:19.283176	240.1	50.1	-65.2	11.7
2025-01-25 07:24:20.423176	239.7	49.8	-65.2	12.1
2025-01-25 07:24:21.566150	239.3	49.4	-65.4	12.7
2025-01-25 07:24:22.706131	239.0	49.1	-64.3	10.6
2025-01-25 07:24:23.848108	238.6	48.8	-65.1	11.5
2025-01-25 07:24:24.989087	238.3	48.5	-65.6	11.5
2025-01-25 07:24:26.131064	237.9	48.2	-65.2	11.9
2025-01-25 07:24:27.273040	237.6	47.8	-64.8	11.9
2025-01-25 07:24:28.413023	237.3	47.5	-65.2	12.7
2025-01-25 07:24:29.555996	236.9	47.2	-65.1	11.9
2025-01-25 07:24:30.696486	236.6	46.9	-64.9	11.9
2025-01-25 07:24:31.838462	236.3	46.6	-64.8	10.9
2025-01-25 07:24:32.980438	236.0	46.3	-64.5	11.3
2025-01-25 07:24:34.120927	235.7	46.0	-64.1	10.6
2025-01-25 07:24:35.262904	235.4	45.7	-65.4	13.5
2025-01-25 07:24:36.403391	235.2	45.3	-65.3	13.5
2025-01-25 07:24:37.545368	234.9	45.0	-64.6	11.6
2025-01-25 07:24:38.685857	234.6	44.7	-65.4	13.8
2025-01-25 07:24:39.828831	234.3	44.4	-65.9	13.4
2025-01-25 07:24:40.968813	234.1	44.1	-64.8	12.6
2025-01-25 07:24:42.110792	233.8	43.8	-64.8	12.8
2025-01-25 07:24:43.251769	233.6	43.5	-65.4	12.2
2025-01-25 07:24:44.393746	233.3	43.3	-64.8	9.9
2025-01-25 07:24:45.533238	233.1	43.0	-65.9	12.7
2025-01-25 07:24:46.673220	232.9	42.7	-65.7	14.1
2025-01-25 07:24:47.816194	232.6	42.4	-64.9	10.5
2025-01-25 07:24:48.956684	232.4	42.1	-65.3	12.2
2025-01-25 07:24:50.101652	232.2	41.8	-65.1	12.6
2025-01-25 07:24:51.242630	231.9	41.5	-64.9	10.6
2025-01-25 07:24:52.382612	231.7	41.2	-64.9	10.2
2025-01-25 07:24:53.524589	231.5	41.0	-64.6	11.1
2025-01-25 07:24:54.666565	231.3	40.7	-65.9	13.3
2025-01-25 07:24:55.808542	231.1	40.4	-66.5	13.0
2025-01-25 07:24:56.952513	230.9	40.1	-66.9	13.8
2025-01-25 07:24:58.099476	230.7	39.8	-66.0	12.5
2025-01-25 07:24:59.239964	230.5	39.6	-66.1	11.6
2025-01-25 07:25:00.382447	230.3	39.3	-66.1	11.8
2025-01-25 07:25:01.524931	230.1	39.0	-65.8	11.7
2025-01-25 07:25:02.665910	229.9	38.8	-66.2	14.8
2025-01-25 07:25:03.808884	229.7	38.5	-66.8	13.2
2025-01-25 07:25:04.950860	229.6	38.2	-66.1	10.7
2025-01-25 07:25:06.091839	229.4	38.0	-66.7	13.6
2025-01-25 07:25:07.233816	229.2	37.7	-67.1	13.0
2025-01-25 07:25:08.374795	229.0	37.5	-66.4	10.2
2025-01-25 07:25:09.515775	228.9	37.2	-66.3	11.6
2025-01-25 07:25:10.656261	228.7	36.9	-66.7	11.9
2025-01-25 07:25:11.797241	228.5	36.7	-66.4	10.0
2025-01-25 07:25:12.937222	228.4	36.4	-66.5	10.3
2025-01-25 07:25:14.076712	228.2	36.2	-66.5	11.4
2025-01-25 07:25:15.215697	228.1	35.9	-66.2	10.6
2025-01-25 07:25:16.356676	227.9	35.7	-67.1	10.6
2025-01-25 07:25:17.504149	227.7	35.4	-66.3	10.6
2025-01-25 07:25:18.645127	227.6	35.2	-66.6	10.5
2025-01-25 07:25:19.785109	227.4	35.0	-67.0	11.5
2025-01-25 07:25:20.927592	227.3	34.7	-66.6	11.2
2025-01-25 07:25:22.068570	227.2	34.5	-66.4	11.0
2025-01-25 07:25:23.209549	227.0	34.2	-65.8	9.9
2025-01-25 07:25:24.349548	226.9	34.0	-65.8	9.4
2025-01-25 07:25:25.494029	226.7	33.8	-66.3	9.9
2025-01-25 07:25:26.635008	226.6	33.5	-67.2	12.1
2025-01-25 07:25:27.778979	226.5	33.3	-67.2	12.6
2025-01-25 07:25:28.919958	226.3	33.1	-66.8	10.0
2025-01-25 07:25:30.061935	226.2	32.8	-65.6	8.8
2025-01-25 07:25:31.203421	226.1	32.6	-64.8	6.4
2025-01-25 07:25:32.345398	226.0	32.4	-66.9	12.1
2025-01-25 07:25:33.485380	225.8	32.2	-66.2	9.3
2025-01-25 07:25:34.627863	225.7	31.9	-66.2	9.3
2025-01-25 07:25:35.767844	225.6	31.7	-65.8	8.7
2025-01-25 07:25:36.909821	225.5	31.5	-66.5	10.6
2025-01-25 07:25:38.051797	225.4	31.3	-66.4	10.0
2025-01-25 07:25:39.200755	225.2	31.1	-65.5	9.0
2025-01-25 07:25:40.341734	225.1	30.9	-65.5	9.3
2025-01-25 07:25:41.482714	225.0	30.6	-64.8	7.8
2025-01-25 07:25:42.627682	224.9	30.4	-66.2	11.3
2025-01-25 07:25:43.770164	224.8	30.2	-66.3	9.9
2025-01-25 07:25:44.911649	224.7	30.0	-68.1	6.7
#Closed at: 2025-01-25 07:20:13.992499