passes_logs/2026/01/15/R3.2S_Murmansk_2ch/R3.2S_Murmansk_2ch__20260115_210159_NOAA_21_JPSS-2_rec.log

#Pass ID: 20260115_210159_NOAA 21 (JPSS-2)
#Satellite: NOAA 21 (JPSS-2)
#Configuration: NOAA-21
#almurnet v.1.7.20251203
#Start time: 2026-01-15 21:01:59

#Version: 2.2.20231116
#Station: R3.2S_Murmansk_2ch
#Location: 33.079688 lon 68.888172 lat
#TLE: 1 54234U 22150A   26015.57659306  .00000014  00000+0  27538-4 0  9996
#TLE: 2 54234  98.7498 316.4693 0000634 287.4933  72.6174 14.19534738164896

#Time	Az	El	Level	Level2	SNR	BER	BlckErr	Temp	State	Recorded	gain1	gain2
2026-01-15 21:01:59.51	18.53	1.99	-49.4	-63.3	3.8	1.49e+00	0	31	0	0	65	17373
2026-01-15 21:02:02.53	18.85	2.11	-49.4	-63.3	3.8	1.49e+00	0	31	104	0	64	18340
2026-01-15 21:02:05.56	19.16	2.24	-49.4	-63.2	3.9	1.49e+00	0	31	104	0	64	18292
2026-01-15 21:02:08.58	19.48	2.36	-49.4	-63.3	3.8	1.49e+00	0	31	104	0	64	18442
2026-01-15 21:02:11.61	19.81	2.48	-49.4	-63.3	3.8	1.49e+00	0	31	104	0	64	18395
2026-01-15 21:02:14.64	20.13	2.61	-49.4	-63.2	3.8	1.49e+00	0	31	104	0	64	18300
2026-01-15 21:02:17.67	20.46	2.73	-49.4	-63.3	3.8	1.49e+00	0	32	104	0	64	18401
2026-01-15 21:02:20.70	20.79	2.86	-49.5	-63.4	3.8	1.49e+00	0	32	104	0	64	18565
2026-01-15 21:02:23.72	21.12	2.98	-49.5	-63.4	3.8	1.49e+00	0	32	104	0	64	18584
2026-01-15 21:02:26.75	21.46	3.10	-49.5	-63.3	3.8	1.49e+00	0	32	104	0	64	18345
2026-01-15 21:02:29.78	21.80	3.23	-49.5	-63.3	3.8	1.49e+00	0	32	104	0	64	18504
2026-01-15 21:02:32.81	22.14	3.35	-49.5	-63.4	3.8	1.49e+00	0	32	104	0	64	18549
2026-01-15 21:02:35.83	22.48	3.47	-49.5	-63.4	3.8	1.49e+00	0	32	104	0	64	18519
2026-01-15 21:02:38.86	22.83	3.59	-49.5	-63.3	3.8	1.49e+00	0	32	104	0	64	18443
2026-01-15 21:02:41.89	23.18	3.72	-49.5	-63.2	3.8	1.49e+00	0	32	104	0	64	18219
2026-01-15 21:02:44.92	23.53	3.84	-49.5	-63.4	3.8	1.49e+00	0	32	104	0	64	18583
2026-01-15 21:02:47.95	23.89	3.96	-49.4	-63.3	3.8	1.49e+00	0	32	104	0	64	18389
2026-01-15 21:02:50.98	24.25	4.08	-49.5	-63.4	3.8	1.49e+00	0	32	104	0	64	18529
2026-01-15 21:02:54.00	24.61	4.20	-49.5	-63.3	3.8	1.49e+00	0	32	104	0	64	18452
2026-01-15 21:02:57.03	24.97	4.32	-49.5	-63.4	3.8	1.49e+00	0	32	104	0	64	18521
2026-01-15 21:03:00.06	25.34	4.44	-49.5	-63.1	3.8	1.49e+00	0	32	104	0	64	17928
2026-01-15 21:03:03.09	25.71	4.56	-49.4	-62.3	3.8	1.49e+00	0	32	104	0	64	16498
2026-01-15 21:03:06.12	26.08	4.68	-49.4	-62.2	3.8	1.49e+00	0	32	104	0	64	16309
2026-01-15 21:03:09.15	26.45	4.80	-48.9	-57.1	5.4	6.07e-01	0	32	0	0	64	9032
2026-01-15 21:03:12.17	26.83	4.91	-47.9	-53.1	8.6	4.46e-02	0	32	0	9437184	62	6390
2026-01-15 21:03:15.20	27.21	5.03	-48.1	-53.7	8.1	4.18e-02	0	32	0	18874368	62	6806
2026-01-15 21:03:18.23	27.60	5.15	-46.5	-49.4	12.5	2.59e-05	0	33	0	26214400	59	4982
2026-01-15 21:03:21.25	27.98	5.27	-45.0	-47.2	14.1	0.00e+00	0	32	0	34603008	56	4551
2026-01-15 21:03:24.28	28.37	5.38	-44.2	-46.1	14.7	0.00e+00	0	33	0	45088768	54	4535
2026-01-15 21:03:27.30	28.76	5.50	-44.8	-47.0	14.2	0.00e+00	0	32	0	54525952	55	4744
2026-01-15 21:03:30.33	29.16	5.61	-44.9	-47.0	14.2	0.00e+00	0	33	0	63963136	55	4729
2026-01-15 21:03:33.36	29.56	5.73	-44.8	-47.0	14.2	0.00e+00	0	33	0	73400320	55	4715
2026-01-15 21:03:36.39	29.96	5.84	-44.6	-46.6	14.5	0.00e+00	0	33	0	82837504	55	4529
2026-01-15 21:03:39.42	30.37	5.95	-44.4	-46.4	14.6	0.00e+00	0	33	0	92274688	55	4426
2026-01-15 21:03:42.44	30.77	6.06	-44.5	-46.5	14.6	0.00e+00	0	33	0	101711872	55	4490
2026-01-15 21:03:45.47	31.19	6.18	-44.6	-46.7	14.5	0.00e+00	0	33	0	111149056	55	4554
2026-01-15 21:03:48.50	31.60	6.29	-44.3	-46.2	14.8	0.00e+00	0	33	0	120586240	54	4573
2026-01-15 21:03:51.53	32.02	6.40	-44.2	-46.1	14.9	0.00e+00	0	32	0	130023424	54	4511
2026-01-15 21:03:54.56	32.44	6.50	-44.2	-46.1	14.9	0.00e+00	0	33	0	139460608	54	4532
2026-01-15 21:03:57.59	32.86	6.61	-44.2	-46.0	14.9	0.00e+00	0	33	0	148897792	54	4485
2026-01-15 21:04:00.61	33.28	6.72	-44.3	-46.2	14.9	0.00e+00	0	33	0	158334976	54	4564
2026-01-15 21:04:03.64	33.71	6.83	-44.2	-46.0	14.9	0.00e+00	0	33	0	167772160	54	4484
2026-01-15 21:04:06.67	34.15	6.93	-43.9	-45.7	15.1	0.00e+00	0	33	0	177209344	54	4330
2026-01-15 21:04:09.70	34.58	7.04	-44.1	-45.9	15.0	0.00e+00	0	33	0	186646528	54	4437
2026-01-15 21:04:12.73	35.02	7.14	-44.0	-45.8	15.1	0.00e+00	0	33	0	196083712	54	4374
2026-01-15 21:04:15.76	35.46	7.24	-44.2	-46.0	15.0	0.00e+00	0	33	0	205520896	54	4477
2026-01-15 21:04:18.78	35.90	7.35	-44.0	-45.8	15.1	0.00e+00	0	33	0	214958080	54	4364
2026-01-15 21:04:21.81	36.35	7.45	-44.2	-46.1	15.0	0.00e+00	0	33	0	224395264	54	4509
2026-01-15 21:04:24.84	36.80	7.55	-44.1	-45.9	15.1	0.00e+00	0	33	0	233832448	54	4415
2026-01-15 21:04:27.87	37.26	7.64	-43.9	-45.7	15.2	0.00e+00	0	33	0	243269632	54	4308
2026-01-15 21:04:30.90	37.71	7.74	-43.9	-45.7	15.2	0.00e+00	0	33	0	252706816	54	4316
2026-01-15 21:04:33.93	38.17	7.84	-43.8	-45.6	15.2	0.00e+00	0	33	0	262144000	54	4261
2026-01-15 21:04:36.96	38.63	7.93	-44.2	-46.0	15.0	0.00e+00	0	33	0	271581184	54	4477
2026-01-15 21:04:39.99	39.10	8.03	-43.8	-45.5	15.4	0.00e+00	0	33	0	281018368	54	4217
2026-01-15 21:04:43.02	39.57	8.12	-43.7	-45.4	15.4	0.00e+00	0	33	0	290455552	53	4399
2026-01-15 21:04:46.05	40.04	8.21	-43.8	-45.6	15.3	0.00e+00	0	33	0	299892736	53	4495
2026-01-15 21:04:49.08	40.51	8.30	-43.9	-45.7	15.2	0.00e+00	0	33	0	309329920	53	4574
2026-01-15 21:04:52.11	40.99	8.39	-44.1	-45.9	15.1	0.00e+00	0	33	0	318767104	53	4685
2026-01-15 21:04:55.14	41.47	8.48	-43.9	-45.6	15.3	0.00e+00	0	33	0	328204288	53	4545
2026-01-15 21:04:58.17	41.95	8.56	-43.7	-45.4	15.4	0.00e+00	0	33	0	337641472	53	4409
2026-01-15 21:05:01.20	42.43	8.65	-43.5	-45.2	15.5	0.00e+00	0	33	0	347078656	53	4318
2026-01-15 21:05:04.23	42.92	8.73	-43.6	-45.2	15.5	0.00e+00	0	33	0	356515840	53	4328
2026-01-15 21:05:07.26	43.41	8.81	-43.8	-45.5	15.4	0.00e+00	0	33	0	365953024	53	4465
2026-01-15 21:05:10.28	43.90	8.89	-43.9	-45.6	15.3	0.00e+00	0	33	0	375390208	53	4527
2026-01-15 21:05:13.31	44.40	8.97	-43.7	-45.5	15.4	0.00e+00	0	33	0	385875968	53	4445
2026-01-15 21:05:16.34	44.89	9.04	-43.7	-45.5	15.4	0.00e+00	0	33	0	395313152	53	4446
2026-01-15 21:05:19.37	45.40	9.12	-43.5	-45.2	15.5	0.00e+00	0	33	0	404750336	53	4302
2026-01-15 21:05:22.40	45.90	9.19	-43.7	-45.4	15.4	0.00e+00	0	33	0	414187520	53	4408
2026-01-15 21:05:25.43	46.40	9.26	-43.6	-45.3	15.5	0.00e+00	0	33	0	423624704	53	4343
2026-01-15 21:05:28.46	46.91	9.33	-43.8	-45.5	15.4	0.00e+00	0	33	0	433061888	53	4463
2026-01-15 21:05:31.48	47.42	9.40	-43.9	-45.7	15.3	0.00e+00	0	33	0	442499072	53	4576
2026-01-15 21:05:34.51	47.93	9.47	-43.7	-45.4	15.5	0.00e+00	0	33	0	451936256	53	4393
2026-01-15 21:05:37.54	48.45	9.53	-43.7	-45.4	15.5	0.00e+00	0	33	0	461373440	53	4405
2026-01-15 21:05:40.57	48.96	9.59	-43.4	-45.0	15.6	0.00e+00	0	33	0	470810624	53	4204
2026-01-15 21:05:43.60	49.48	9.65	-43.7	-45.4	15.5	0.00e+00	0	33	0	480247808	53	4408
2026-01-15 21:05:46.63	50.00	9.71	-43.9	-45.6	15.3	0.00e+00	0	33	0	489684992	53	4533
2026-01-15 21:05:49.66	50.53	9.77	-43.9	-45.7	15.3	0.00e+00	0	33	0	499122176	53	4547
2026-01-15 21:05:52.68	51.05	9.83	-43.6	-45.3	15.5	0.00e+00	0	33	0	508559360	53	4375
2026-01-15 21:05:55.71	51.58	9.88	-43.6	-45.2	15.6	0.00e+00	0	33	0	517996544	53	4322
2026-01-15 21:05:58.74	52.10	9.93	-43.6	-45.3	15.6	0.00e+00	0	33	0	527433728	53	4342
2026-01-15 21:06:01.77	52.64	9.98	-43.4	-45.0	15.7	0.00e+00	0	33	0	536870912	53	4205
2026-01-15 21:06:04.80	53.17	10.02	-43.5	-45.1	15.6	0.00e+00	0	33	0	546308096	53	4253
2026-01-15 21:06:07.82	53.70	10.07	-43.6	-45.2	15.6	0.00e+00	0	33	0	555745280	53	4318
2026-01-15 21:06:10.85	54.23	10.11	-43.8	-45.5	15.4	0.00e+00	0	33	0	565182464	53	4468
2026-01-15 21:06:13.88	54.77	10.15	-43.6	-45.3	15.5	0.00e+00	0	33	0	574619648	53	4360
2026-01-15 21:06:16.91	55.31	10.19	-43.5	-45.2	15.6	0.00e+00	0	33	0	584056832	53	4309
2026-01-15 21:06:19.93	55.85	10.23	-43.6	-45.3	15.6	0.00e+00	0	33	0	593494016	53	4342
2026-01-15 21:06:22.96	56.39	10.26	-43.7	-45.4	15.5	0.00e+00	0	33	0	602931200	53	4428
2026-01-15 21:06:25.99	56.93	10.29	-43.7	-45.4	15.5	0.00e+00	0	33	0	612368384	53	4398
2026-01-15 21:06:29.02	57.47	10.32	-43.5	-45.1	15.6	0.00e+00	0	33	0	621805568	53	4288
2026-01-15 21:06:32.05	58.02	10.35	-43.5	-45.1	15.6	0.00e+00	0	33	0	631242752	53	4290
2026-01-15 21:06:35.08	58.56	10.38	-43.4	-45.0	15.7	0.00e+00	0	33	0	640679936	53	4200
2026-01-15 21:06:38.11	59.11	10.40	-43.4	-45.0	15.7	0.00e+00	0	33	0	650117120	53	4234
2026-01-15 21:06:41.13	59.66	10.42	-43.3	-44.9	15.7	0.00e+00	0	33	0	659554304	52	4403
2026-01-15 21:06:44.16	60.20	10.44	-43.3	-44.9	15.8	0.00e+00	0	33	0	668991488	52	4397
2026-01-15 21:06:47.19	60.75	10.45	-43.4	-45.0	15.7	0.00e+00	0	33	0	678428672	52	4452
2026-01-15 21:06:50.22	61.30	10.47	-43.4	-45.0	15.6	0.00e+00	0	33	0	687865856	52	4479
2026-01-15 21:06:53.25	61.85	10.48	-43.4	-45.0	15.7	0.00e+00	0	33	0	697303040	52	4463
2026-01-15 21:06:56.27	62.40	10.49	-43.4	-45.1	15.7	0.00e+00	0	33	0	706740224	52	4499
2026-01-15 21:06:59.30	62.95	10.50	-43.5	-45.1	15.6	0.00e+00	0	33	0	716177408	52	4524
2026-01-15 21:07:02.33	63.50	10.50	-43.4	-45.0	15.7	0.00e+00	0	33	0	725614592	52	4472
2026-01-15 21:07:05.36	64.05	10.50	-43.4	-45.1	15.7	0.00e+00	0	33	0	736100352	52	4509
2026-01-15 21:07:08.39	64.60	10.50	-43.3	-44.9	15.7	0.00e+00	0	33	0	744488960	52	4419
2026-01-15 21:07:11.42	65.15	10.50	-43.2	-44.7	15.8	0.00e+00	0	33	0	754974720	52	4338
2026-01-15 21:07:14.45	65.70	10.50	-43.2	-44.8	15.8	0.00e+00	0	33	0	763363328	52	4377
2026-01-15 21:07:17.48	66.25	10.49	-43.2	-44.8	15.8	0.00e+00	0	33	0	773849088	52	4351
2026-01-15 21:07:20.51	66.80	10.48	-43.3	-44.9	15.7	0.00e+00	0	33	0	783286272	52	4415
2026-01-15 21:07:23.54	67.35	10.47	-43.4	-45.1	15.6	0.00e+00	0	33	0	792723456	52	4505
2026-01-15 21:07:26.57	67.90	10.45	-43.4	-45.0	15.7	0.00e+00	0	33	0	802160640	52	4472
2026-01-15 21:07:29.60	68.45	10.44	-43.4	-45.0	15.7	0.00e+00	0	33	0	811597824	52	4485
2026-01-15 21:07:32.63	69.00	10.42	-43.3	-44.9	15.8	0.00e+00	0	33	0	821035008	52	4436
2026-01-15 21:07:35.66	69.54	10.40	-43.4	-45.0	15.7	0.00e+00	0	33	0	830472192	52	4484
2026-01-15 21:07:38.69	70.09	10.37	-43.5	-45.1	15.7	0.00e+00	0	33	0	839909376	52	4519
2026-01-15 21:07:41.72	70.64	10.35	-43.4	-45.1	15.7	0.00e+00	0	33	0	849346560	52	4503
2026-01-15 21:07:44.75	71.18	10.32	-43.4	-45.0	15.7	0.00e+00	0	33	0	858783744	52	4470
2026-01-15 21:07:47.78	71.72	10.29	-43.3	-44.9	15.8	0.00e+00	0	33	0	868220928	52	4434
2026-01-15 21:07:50.81	72.27	10.26	-43.3	-44.9	15.7	0.00e+00	0	33	0	877658112	52	4431
2026-01-15 21:07:53.84	72.81	10.23	-43.6	-45.2	15.6	0.00e+00	0	33	0	887095296	52	4590
2026-01-15 21:07:56.86	73.35	10.19	-43.5	-45.2	15.6	0.00e+00	0	33	0	896532480	52	4566
2026-01-15 21:07:59.90	73.89	10.15	-43.6	-45.3	15.6	0.00e+00	0	33	0	905969664	52	4606
2026-01-15 21:08:02.92	74.42	10.11	-43.4	-45.1	15.6	0.00e+00	0	33	0	915406848	52	4511
2026-01-15 21:08:05.95	74.96	10.07	-43.6	-45.3	15.5	0.00e+00	0	33	0	924844032	52	4622
2026-01-15 21:08:08.98	75.50	10.02	-43.7	-45.4	15.5	0.00e+00	0	33	0	934281216	52	4655
2026-01-15 21:08:12.00	76.03	9.97	-43.5	-45.1	15.6	0.00e+00	0	33	0	943718400	52	4521
2026-01-15 21:08:15.03	76.56	9.93	-43.6	-45.2	15.6	0.00e+00	0	33	0	953155584	52	4591
2026-01-15 21:08:18.06	77.09	9.87	-43.5	-45.2	15.6	0.00e+00	0	34	0	962592768	52	4562
2026-01-15 21:08:21.09	77.62	9.82	-43.5	-45.2	15.6	0.00e+00	0	34	0	972029952	52	4561
2026-01-15 21:08:24.12	78.14	9.77	-43.5	-45.1	15.6	0.00e+00	0	33	0	981467136	52	4540
2026-01-15 21:08:27.15	78.67	9.71	-43.4	-45.0	15.7	0.00e+00	0	33	0	990904320	52	4451
2026-01-15 21:08:30.17	79.19	9.65	-43.5	-45.1	15.6	0.00e+00	0	33	0	1000341504	52	4544
2026-01-15 21:08:33.20	79.71	9.59	-43.3	-44.9	15.8	0.00e+00	0	33	0	1009778688	52	4399
2026-01-15 21:08:36.23	80.22	9.53	-43.4	-45.0	15.7	0.00e+00	0	33	0	1019215872	52	4485
2026-01-15 21:08:39.26	80.74	9.46	-43.4	-45.0	15.7	0.00e+00	0	34	0	1028653056	52	4465
2026-01-15 21:08:42.29	81.25	9.39	-43.6	-45.2	15.6	0.00e+00	0	33	0	1038090240	52	4583
2026-01-15 21:08:45.32	81.76	9.33	-43.4	-45.0	15.7	0.00e+00	0	33	0	1047527424	52	4488
2026-01-15 21:08:48.35	82.27	9.26	-43.2	-44.8	15.8	0.00e+00	0	33	0	1056964608	52	4377
2026-01-15 21:08:51.37	82.78	9.18	-43.5	-45.2	15.6	0.00e+00	0	33	0	1066401792	52	4546
2026-01-15 21:08:54.40	83.28	9.11	-43.5	-45.1	15.7	0.00e+00	0	33	0	1075838976	52	4521
2026-01-15 21:08:57.43	83.78	9.03	-43.4	-45.1	15.7	0.00e+00	0	33	0	1085276160	52	4510
2026-01-15 21:09:00.46	84.28	8.96	-43.6	-45.2	15.6	0.00e+00	0	34	0	1095761920	52	4584
2026-01-15 21:09:03.49	84.78	8.88	-43.6	-45.2	15.6	0.00e+00	0	33	0	1104150528	52	4597
2026-01-15 21:09:06.51	85.27	8.80	-43.7	-45.4	15.5	0.00e+00	0	33	0	1114636288	52	4656
2026-01-15 21:09:09.54	85.76	8.72	-43.6	-45.3	15.6	0.00e+00	0	34	0	1124073472	52	4630
2026-01-15 21:09:12.57	86.25	8.63	-43.7	-45.4	15.5	0.00e+00	0	33	0	1133510656	52	4699
2026-01-15 21:09:15.60	86.74	8.55	-43.5	-45.1	15.6	0.00e+00	0	33	0	1142947840	52	4540
2026-01-15 21:09:18.63	87.22	8.46	-43.5	-45.2	15.6	0.00e+00	0	34	0	1152385024	52	4565
2026-01-15 21:09:21.66	87.70	8.38	-43.5	-45.1	15.6	0.00e+00	0	33	0	1161822208	52	4535
2026-01-15 21:09:24.69	88.18	8.29	-43.6	-45.3	15.5	0.00e+00	0	33	0	1171259392	52	4637
2026-01-15 21:09:27.71	88.65	8.20	-43.7	-45.5	15.4	0.00e+00	0	33	0	1180696576	52	4722
2026-01-15 21:09:30.74	89.13	8.10	-43.9	-45.6	15.3	0.00e+00	0	33	0	1190133760	52	4790
2026-01-15 21:09:33.77	89.60	8.01	-43.7	-45.5	15.4	0.00e+00	0	34	0	1199570944	53	4457
2026-01-15 21:09:36.80	90.06	7.92	-43.8	-45.5	15.4	0.00e+00	0	33	0	1209008128	53	4467
2026-01-15 21:09:39.83	90.52	7.82	-43.9	-45.7	15.3	0.00e+00	0	34	0	1218445312	53	4594
2026-01-15 21:09:42.86	90.99	7.72	-43.7	-45.4	15.4	0.00e+00	0	33	0	1227882496	53	4441
2026-01-15 21:09:45.88	91.44	7.63	-43.9	-45.7	15.3	0.00e+00	0	33	0	1237319680	53	4567
2026-01-15 21:09:48.91	91.90	7.53	-44.0	-45.8	15.2	0.00e+00	0	34	0	1246756864	53	4639
2026-01-15 21:09:51.94	92.35	7.43	-44.1	-45.9	15.2	0.00e+00	0	33	0	1256194048	53	4693
2026-01-15 21:09:54.97	92.80	7.32	-44.1	-45.9	15.2	0.00e+00	0	33	0	1265631232	53	4685
2026-01-15 21:09:58.00	93.24	7.22	-44.2	-46.1	15.0	0.00e+00	0	34	0	1275068416	53	4809
2026-01-15 21:10:01.02	93.68	7.12	-44.0	-45.9	15.2	0.00e+00	0	33	0	1284505600	53	4659
2026-01-15 21:10:04.05	94.12	7.01	-44.0	-45.9	15.1	0.00e+00	0	33	0	1293942784	53	4658
2026-01-15 21:10:07.08	94.56	6.91	-44.2	-46.1	15.0	0.00e+00	0	33	0	1303379968	53	4792
2026-01-15 21:10:10.11	94.99	6.80	-44.3	-46.2	15.0	0.00e+00	0	33	0	1312817152	54	4550
2026-01-15 21:10:13.14	95.42	6.70	-44.3	-46.2	15.0	0.00e+00	0	33	0	1322254336	54	4555
2026-01-15 21:10:16.17	95.85	6.59	-44.1	-45.9	15.1	0.00e+00	0	33	0	1331691520	54	4414
2026-01-15 21:10:19.20	96.28	6.48	-44.2	-46.1	15.0	0.00e+00	0	34	0	1341128704	54	4518
2026-01-15 21:10:22.23	96.70	6.37	-44.2	-46.1	15.0	0.00e+00	0	34	0	1350565888	54	4526
2026-01-15 21:10:25.26	97.12	6.26	-44.3	-46.2	14.9	0.00e+00	0	33	0	1360003072	54	4586
2026-01-15 21:10:28.29	97.53	6.15	-44.6	-46.6	14.7	0.00e+00	0	34	0	1369440256	54	4780
2026-01-15 21:10:31.32	97.94	6.03	-44.3	-46.3	14.9	0.00e+00	0	34	0	1378877440	54	4622
2026-01-15 21:10:34.35	98.35	5.92	-44.3	-46.3	14.9	0.00e+00	0	34	0	1388314624	54	4609
2026-01-15 21:10:37.38	98.76	5.81	-44.5	-46.5	14.7	0.00e+00	0	33	0	1397751808	54	4743
2026-01-15 21:10:40.41	99.16	5.69	-44.9	-47.0	14.4	0.00e+00	0	33	0	1407188992	54	5030
2026-01-15 21:10:43.44	99.56	5.58	-44.6	-46.6	14.6	0.00e+00	0	34	0	1416626176	54	4785
2026-01-15 21:10:46.47	99.96	5.46	-44.7	-46.8	14.5	0.00e+00	0	34	0	1426063360	54	4890
2026-01-15 21:10:49.50	100.35	5.34	-45.0	-47.2	14.2	0.00e+00	0	33	0	1435500544	55	4823
2026-01-15 21:10:52.53	100.75	5.23	-44.7	-46.9	14.4	0.00e+00	0	33	0	1444937728	55	4656
2026-01-15 21:10:55.56	101.13	5.11	-44.2	-46.2	14.9	0.00e+00	0	33	0	1454374912	55	4303
2026-01-15 21:10:58.58	101.52	4.99	-45.4	-47.8	13.9	0.00e+00	0	33	0	1463812096	55	5173
2026-01-15 21:11:01.61	101.90	4.87	-50.9	-64.8	3.8	1.49e+00	0	34	104	1465909248	66	19494
2026-01-15 21:11:04.64	102.28	4.75	-51.2	-65.2	3.8	1.49e+00	0	34	104	1465909248	67	19266
2026-01-15 21:11:07.67	102.66	4.63	-51.6	-65.6	3.8	1.49e+00	0	34	104	1465909248	68	19121
2026-01-15 21:11:10.69	103.03	4.51	-51.8	-65.8	3.8	1.49e+00	0	34	104	1465909248	68	19478
2026-01-15 21:11:13.72	103.40	4.39	-51.8	-65.8	3.8	1.49e+00	0	34	104	1465909248	68	19581
2026-01-15 21:11:16.75	103.77	4.27	-51.9	-65.9	3.8	1.49e+00	0	34	104	1465909248	68	19741
2026-01-15 21:11:19.78	104.13	4.15	-51.9	-65.9	3.8	1.49e+00	0	34	104	1465909248	69	18710
2026-01-15 21:11:22.81	104.49	4.03	-52.0	-66.0	3.8	1.49e+00	0	34	104	1465909248	69	18773
2026-01-15 21:11:25.84	104.85	3.91	-52.0	-66.0	3.8	1.49e+00	0	34	104	1465909248	69	18816
2026-01-15 21:11:28.86	105.21	3.79	-51.9	-65.9	3.8	1.49e+00	0	34	104	1465909248	69	18688
2026-01-15 21:11:31.89	105.56	3.66	-51.9	-65.9	3.8	1.49e+00	0	34	104	1465909248	69	18677
2026-01-15 21:11:34.92	105.91	3.54	-51.9	-65.9	3.8	1.49e+00	0	34	104	1465909248	69	18578
2026-01-15 21:11:37.95	106.26	3.42	-51.9	-65.9	3.8	1.49e+00	0	34	104	1465909248	69	18557
2026-01-15 21:11:40.98	106.60	3.29	-51.9	-65.9	3.8	1.49e+00	0	34	104	1465909248	69	18561
2026-01-15 21:11:44.00	106.94	3.17	-51.9	-65.9	3.8	1.49e+00	0	34	104	1465909248	69	18562
2026-01-15 21:11:47.03	107.28	3.05	-51.9	-65.9	3.8	1.49e+00	0	34	104	1465909248	69	18522
2026-01-15 21:11:50.06	107.62	2.92	-51.8	-65.9	3.8	1.49e+00	0	34	104	1465909248	69	18545
2026-01-15 21:11:53.09	107.95	2.80	-51.8	-65.9	3.8	1.49e+00	0	34	104	1465909248	69	18542
2026-01-15 21:11:56.12	108.28	2.67	-51.8	-65.9	3.8	1.49e+00	0	34	104	1465909248	69	18551
2026-01-15 21:11:59.14	108.61	2.55	-51.8	-65.8	3.8	1.49e+00	0	34	104	1465909248	69	18500
2026-01-15 21:12:02.17	108.94	2.42	-51.8	-65.9	3.8	1.49e+00	0	34	104	1465909248	69	18541
2026-01-15 21:12:05.20	109.26	2.30	-51.8	-65.8	3.8	1.49e+00	0	34	104	1465909248	69	18484
2026-01-15 21:12:08.23	109.58	2.17	-51.8	-65.8	3.8	1.49e+00	0	34	104	1465909248	69	18491
2026-01-15 21:12:11.25	109.90	2.04	-51.8	-65.8	3.8	1.49e+00	0	34	104	1465909248	69	18440

#Closed at: 2026-01-15 21:12:14
#Recorded file [1465 MB]: D:/lorett/data/31004_260116_000159.dat