passes_logs/2026/01/15/R3.2S_Murmansk_2ch/R3.2S_Murmansk_2ch__20260115_213140_SUOMI_NPP_rec.log

#Pass ID: 20260115_213140_SUOMI NPP
#Satellite: SUOMI NPP
#Configuration: NPP
#almurnet v.1.7.20251203
#Start time: 2026-01-15 21:31:41

#Version: 2.2.20231116
#Station: R3.2S_Murmansk_2ch
#Location: 33.079688 lon 68.888172 lat
#TLE: 1 37849U 11061A   26015.59739646  .00000050  00000+0  44779-4 0  9992
#TLE: 2 37849  98.7811 317.6408 0002446  62.6499 297.4925 14.19525346736798

#Time	Az	El	Level	Level2	SNR	BER	BlckErr	Temp	State	Recorded	gain1	gain2
2026-01-15 21:31:41.88	18.60	2.08	-49.6	-65.7	3.8	1.49e+00	0	31	0	0	65	22960
2026-01-15 21:31:44.90	18.89	2.22	-49.7	-65.7	3.8	1.49e+00	0	31	104	0	64	24309
2026-01-15 21:31:47.93	19.18	2.36	-49.7	-65.8	3.8	1.49e+00	0	31	104	0	64	24567
2026-01-15 21:31:50.96	19.47	2.50	-49.7	-65.8	3.8	1.49e+00	0	31	104	0	64	24528
2026-01-15 21:31:53.99	19.76	2.64	-49.7	-65.8	3.8	1.49e+00	0	31	104	0	64	24545
2026-01-15 21:31:57.01	20.06	2.78	-49.7	-65.8	3.8	1.49e+00	0	31	104	0	64	24630
2026-01-15 21:32:00.04	20.36	2.92	-49.7	-65.8	3.8	1.49e+00	0	31	104	0	64	24600
2026-01-15 21:32:03.07	20.66	3.06	-49.7	-65.8	3.8	1.49e+00	0	31	104	0	64	24598
2026-01-15 21:32:06.10	20.97	3.20	-49.7	-65.7	3.8	1.49e+00	0	32	104	0	64	24319
2026-01-15 21:32:09.12	21.28	3.34	-49.7	-65.7	3.8	1.49e+00	0	32	104	0	64	24326
2026-01-15 21:32:12.15	21.59	3.48	-49.7	-65.8	3.8	1.49e+00	0	32	104	0	64	24555
2026-01-15 21:32:15.18	21.90	3.62	-49.7	-65.8	3.8	1.49e+00	0	32	104	0	64	24586
2026-01-15 21:32:18.20	22.22	3.77	-49.7	-65.8	3.8	1.49e+00	0	32	104	0	64	24657
2026-01-15 21:32:21.23	22.54	3.91	-49.7	-65.7	3.8	1.49e+00	0	32	104	0	64	24393
2026-01-15 21:32:24.26	22.86	4.05	-49.7	-65.7	3.8	1.49e+00	0	32	104	0	64	24255
2026-01-15 21:32:27.29	23.19	4.19	-49.7	-65.8	3.8	1.49e+00	0	32	104	0	64	24518
2026-01-15 21:32:30.32	23.51	4.33	-49.7	-65.4	3.8	1.49e+00	0	32	104	0	64	23521
2026-01-15 21:32:33.35	23.85	4.47	-49.7	-65.7	3.8	1.49e+00	0	32	104	0	64	24244
2026-01-15 21:32:36.37	24.18	4.61	-49.5	-61.3	4.5	1.37e+00	5	32	0	0	64	14616
2026-01-15 21:32:39.40	24.52	4.76	-49.0	-57.5	6.8	2.06e-01	0	32	0	5242880	64	9408
2026-01-15 21:32:42.43	24.86	4.90	-48.6	-55.3	8.9	1.53e-02	0	32	0	11534336	63	7730
2026-01-15 21:32:45.46	25.20	5.04	-48.8	-56.0	8.3	4.24e-02	0	32	0	16777216	63	8377
2026-01-15 21:32:48.49	25.55	5.18	-47.0	-50.6	12.9	5.64e-05	0	32	0	22020096	60	5381
2026-01-15 21:32:51.51	25.90	5.32	-46.8	-50.1	13.7	0.00e+00	0	32	0	27262976	59	5364
2026-01-15 21:32:54.54	26.25	5.46	-46.5	-49.6	14.1	0.00e+00	0	32	0	33554432	59	5079
2026-01-15 21:32:57.57	26.61	5.60	-46.6	-49.7	13.9	0.00e+00	0	32	0	38797312	59	5108
2026-01-15 21:33:00.60	26.97	5.74	-46.6	-49.8	13.9	0.00e+00	0	32	0	45088768	59	5165
2026-01-15 21:33:03.62	27.33	5.88	-46.5	-49.6	14.1	0.00e+00	0	33	0	50331648	59	5050
2026-01-15 21:33:06.65	27.70	6.02	-46.8	-50.0	13.8	0.00e+00	0	32	0	55574528	59	5338
2026-01-15 21:33:09.68	28.07	6.16	-45.9	-48.6	14.7	0.00e+00	0	33	0	61865984	58	4764
2026-01-15 21:33:12.71	28.44	6.30	-45.9	-48.5	14.8	0.00e+00	0	32	0	67108864	57	5028
2026-01-15 21:33:15.74	28.82	6.44	-45.6	-48.1	14.9	0.00e+00	0	33	0	73400320	57	4804
2026-01-15 21:33:18.76	29.20	6.58	-46.1	-48.8	14.6	0.00e+00	0	33	0	78643200	57	5172
2026-01-15 21:33:21.79	29.59	6.72	-45.9	-48.5	14.8	0.00e+00	0	33	0	83886080	57	5023
2026-01-15 21:33:24.82	29.97	6.86	-46.1	-48.7	14.7	0.00e+00	0	33	0	90177536	57	5154
2026-01-15 21:33:27.85	30.36	7.00	-46.4	-49.3	14.3	0.00e+00	0	32	0	95420416	58	5187
2026-01-15 21:33:30.87	30.76	7.14	-45.8	-48.3	15.0	0.00e+00	0	33	0	101711872	58	4628
2026-01-15 21:33:33.91	31.16	7.27	-46.0	-48.6	14.7	0.00e+00	0	33	0	106954752	58	4809
2026-01-15 21:33:36.93	31.56	7.41	-46.0	-48.6	14.8	0.00e+00	0	33	0	113246208	58	4799
2026-01-15 21:33:39.96	31.97	7.55	-46.3	-49.0	14.6	0.00e+00	0	33	0	118489088	58	5019
2026-01-15 21:33:42.99	32.37	7.68	-46.2	-48.9	14.7	0.00e+00	0	33	0	123731968	58	4948
2026-01-15 21:33:46.02	32.79	7.82	-46.4	-49.1	14.6	0.00e+00	0	33	0	130023424	58	5072
2026-01-15 21:33:49.05	33.21	7.95	-46.7	-49.6	14.2	0.00e+00	0	33	0	135266304	58	5400
2026-01-15 21:33:52.07	33.62	8.09	-46.3	-48.9	14.7	0.00e+00	0	33	0	141557760	58	4973
2026-01-15 21:33:55.10	34.05	8.22	-46.0	-48.6	14.9	0.00e+00	0	33	0	146800640	58	4780
2026-01-15 21:33:58.13	34.48	8.36	-46.0	-48.5	14.9	0.00e+00	0	33	0	152043520	58	4747
2026-01-15 21:34:01.15	34.91	8.49	-46.3	-48.9	14.7	0.00e+00	0	33	0	158334976	58	4950
2026-01-15 21:34:04.18	35.34	8.62	-46.1	-48.7	14.9	0.00e+00	0	33	0	163577856	58	4842
2026-01-15 21:34:07.21	35.78	8.75	-46.1	-48.7	14.9	0.00e+00	0	33	0	169869312	58	4815
2026-01-15 21:34:10.24	36.23	8.88	-46.1	-48.7	14.8	0.00e+00	0	33	0	175112192	58	4862
2026-01-15 21:34:13.27	36.67	9.01	-46.1	-48.6	14.9	0.00e+00	0	33	0	180355072	58	4791
2026-01-15 21:34:16.29	37.12	9.14	-46.4	-49.1	14.7	0.00e+00	0	33	0	186646528	58	5069
2026-01-15 21:34:19.32	37.58	9.27	-46.0	-48.4	15.0	0.00e+00	0	33	0	191889408	58	4701
2026-01-15 21:34:22.35	38.04	9.40	-46.1	-48.7	14.8	0.00e+00	0	33	0	198180864	58	4858
2026-01-15 21:34:25.38	38.50	9.52	-46.3	-48.9	14.8	0.00e+00	0	33	0	203423744	58	4943
2026-01-15 21:34:28.40	38.97	9.65	-46.5	-49.3	14.5	0.00e+00	0	33	0	209715200	58	5204
2026-01-15 21:34:31.43	39.44	9.77	-46.5	-49.3	14.6	0.00e+00	0	33	0	214958080	58	5184
2026-01-15 21:34:34.46	39.91	9.89	-46.4	-49.0	14.8	0.00e+00	0	33	0	220200960	58	5038
2026-01-15 21:34:37.49	40.39	10.02	-46.4	-49.0	14.7	0.00e+00	0	33	0	226492416	58	5032
2026-01-15 21:34:40.52	40.87	10.14	-46.6	-49.3	14.6	0.00e+00	0	33	0	231735296	58	5202
2026-01-15 21:34:43.54	41.35	10.26	-46.6	-49.4	14.6	0.00e+00	0	33	0	238026752	58	5225
2026-01-15 21:34:46.57	41.84	10.38	-46.7	-49.5	14.5	0.00e+00	0	33	0	243269632	58	5290
2026-01-15 21:34:49.60	42.34	10.49	-46.8	-49.7	14.3	0.00e+00	0	33	0	248512512	58	5446
2026-01-15 21:34:52.63	42.84	10.61	-46.8	-49.6	14.4	0.00e+00	0	33	0	254803968	58	5373
2026-01-15 21:34:55.65	43.33	10.72	-46.9	-49.9	14.3	0.00e+00	0	33	0	260046848	59	5222
2026-01-15 21:34:58.68	43.84	10.84	-46.8	-49.7	14.4	0.00e+00	0	33	0	266338304	59	5138
2026-01-15 21:35:01.71	44.35	10.95	-46.5	-49.2	14.7	0.00e+00	0	33	0	271581184	59	4858
2026-01-15 21:35:04.74	44.86	11.06	-46.5	-49.2	14.7	0.00e+00	0	33	0	277872640	59	4861
2026-01-15 21:35:07.77	45.38	11.17	-46.6	-49.4	14.6	0.00e+00	0	33	0	283115520	59	4945
2026-01-15 21:35:10.79	45.90	11.27	-46.6	-49.3	14.6	0.00e+00	0	33	0	288358400	59	4900
2026-01-15 21:35:13.82	46.42	11.38	-46.4	-49.0	14.9	0.00e+00	0	33	0	294649856	59	4716
2026-01-15 21:35:16.85	46.95	11.48	-46.2	-48.8	14.9	0.00e+00	0	33	0	299892736	59	4605
2026-01-15 21:35:19.87	47.48	11.59	-46.4	-49.1	14.8	0.00e+00	0	33	0	306184192	59	4761
2026-01-15 21:35:22.90	48.01	11.69	-46.6	-49.3	14.6	0.00e+00	0	33	0	311427072	59	4896
2026-01-15 21:35:25.93	48.55	11.78	-46.5	-49.1	14.8	0.00e+00	0	33	0	316669952	59	4802
2026-01-15 21:35:28.96	49.09	11.88	-46.5	-49.1	14.8	0.00e+00	0	33	0	322961408	59	4781
2026-01-15 21:35:31.99	49.64	11.98	-46.4	-49.0	14.9	0.00e+00	0	33	0	328204288	59	4751
2026-01-15 21:35:35.01	50.18	12.07	-46.2	-48.7	15.1	0.00e+00	0	33	0	334495744	58	4828
2026-01-15 21:35:38.04	50.73	12.16	-45.9	-48.2	15.3	0.00e+00	0	33	0	339738624	58	4571
2026-01-15 21:35:41.07	51.29	12.25	-45.9	-48.3	15.2	0.00e+00	0	33	0	346030080	57	4892
2026-01-15 21:35:44.10	51.85	12.33	-46.0	-48.5	15.2	0.00e+00	0	33	0	351272960	57	4990
2026-01-15 21:35:47.12	52.41	12.42	-46.3	-48.9	14.9	0.00e+00	0	33	0	356515840	57	5241
2026-01-15 21:35:50.15	52.97	12.50	-46.0	-48.3	15.2	0.00e+00	0	33	0	362807296	57	4926
2026-01-15 21:35:53.18	53.54	12.58	-45.7	-48.0	15.4	0.00e+00	0	33	0	368050176	57	4707
2026-01-15 21:35:56.21	54.11	12.66	-46.0	-48.5	15.2	0.00e+00	0	33	0	374341632	57	4987
2026-01-15 21:35:59.23	54.68	12.73	-45.6	-47.8	15.5	0.00e+00	0	33	0	379584512	57	4627
2026-01-15 21:36:02.26	55.26	12.81	-45.3	-47.5	15.7	0.00e+00	0	33	0	384827392	57	4445
2026-01-15 21:36:05.29	55.84	12.88	-46.1	-48.5	15.2	0.00e+00	0	33	0	391118848	57	5026
2026-01-15 21:36:08.32	56.42	12.95	-46.1	-48.5	15.1	0.00e+00	0	33	0	396361728	57	5012
2026-01-15 21:36:11.35	57.00	13.01	-46.1	-48.5	15.1	0.00e+00	0	33	0	402653184	57	5007
2026-01-15 21:36:14.37	57.59	13.07	-47.1	-50.2	14.2	0.00e+00	0	33	0	407896064	59	5408
2026-01-15 21:36:17.40	58.18	13.14	-47.1	-50.0	14.2	0.00e+00	0	33	0	413138944	59	5338
2026-01-15 21:36:20.43	58.77	13.19	-46.4	-49.0	14.9	0.00e+00	0	33	0	419430400	59	4713
2026-01-15 21:36:23.46	59.36	13.25	-46.6	-49.3	14.7	0.00e+00	0	33	0	424673280	59	4923
2026-01-15 21:36:26.48	59.96	13.30	-46.7	-49.5	14.6	0.00e+00	0	33	0	430964736	59	5003
2026-01-15 21:36:29.51	60.55	13.35	-46.3	-48.8	15.0	0.00e+00	0	33	0	436207616	59	4632
2026-01-15 21:36:32.53	61.15	13.40	-46.4	-49.0	14.9	0.00e+00	0	33	0	442499072	59	4748
2026-01-15 21:36:35.56	61.75	13.44	-46.5	-49.1	14.8	0.00e+00	0	33	0	447741952	59	4774
2026-01-15 21:36:38.59	62.36	13.48	-45.7	-47.9	15.5	0.00e+00	0	33	0	452984832	58	4437
2026-01-15 21:36:41.62	62.96	13.52	-45.8	-48.1	15.4	0.00e+00	0	33	0	459276288	57	4803
2026-01-15 21:36:44.64	63.57	13.56	-46.2	-48.7	15.1	0.00e+00	0	33	0	464519168	57	5122
2026-01-15 21:36:47.67	64.17	13.59	-45.6	-47.8	15.6	0.00e+00	0	33	0	470810624	57	4621
2026-01-15 21:36:50.70	64.78	13.62	-44.9	-47.0	15.9	0.00e+00	0	33	0	476053504	56	4447
2026-01-15 21:36:53.73	65.39	13.65	-45.3	-47.4	15.7	0.00e+00	0	33	0	481296384	56	4669
2026-01-15 21:36:56.75	66.00	13.67	-45.4	-47.6	15.6	0.00e+00	0	33	0	487587840	56	4781
2026-01-15 21:36:59.78	66.62	13.70	-45.7	-47.9	15.5	0.00e+00	0	33	0	492830720	56	4978
2026-01-15 21:37:02.81	67.23	13.71	-45.7	-47.9	15.5	0.00e+00	0	33	0	499122176	56	4980
2026-01-15 21:37:05.83	67.84	13.73	-45.4	-47.6	15.7	0.00e+00	0	33	0	504365056	56	4793
2026-01-15 21:37:08.86	68.46	13.74	-45.7	-48.0	15.5	0.00e+00	0	33	0	509607936	56	4988
2026-01-15 21:37:11.89	69.07	13.75	-45.8	-48.1	15.4	0.00e+00	0	33	0	515899392	57	4795
2026-01-15 21:37:14.92	69.69	13.76	-45.5	-47.7	15.7	0.00e+00	0	33	0	521142272	57	4585
2026-01-15 21:37:17.95	70.30	13.76	-45.8	-48.1	15.4	0.00e+00	0	33	0	527433728	57	4786
2026-01-15 21:37:20.97	70.92	13.76	-45.6	-47.9	15.6	0.00e+00	0	33	0	532676608	57	4667
2026-01-15 21:37:24.00	71.53	13.76	-45.3	-47.4	15.8	0.00e+00	0	33	0	538968064	57	4411
2026-01-15 21:37:27.03	72.15	13.75	-45.6	-47.8	15.6	0.00e+00	0	33	0	544210944	57	4620
2026-01-15 21:37:30.05	72.76	13.74	-45.4	-47.6	15.7	0.00e+00	0	33	0	549453824	57	4521
2026-01-15 21:37:33.08	73.37	13.73	-44.8	-46.8	16.1	0.00e+00	0	33	0	555745280	56	4360
2026-01-15 21:37:36.11	73.99	13.72	-44.6	-46.5	16.2	0.00e+00	0	33	0	560988160	55	4468
2026-01-15 21:37:39.13	74.60	13.70	-44.7	-46.7	16.0	0.00e+00	0	33	0	567279616	55	4560
2026-01-15 21:37:42.16	75.21	13.68	-44.7	-46.6	16.1	0.00e+00	0	33	0	572522496	55	4543
2026-01-15 21:37:45.19	75.83	13.65	-44.9	-47.0	15.9	0.00e+00	0	33	0	577765376	55	4710
2026-01-15 21:37:48.22	76.44	13.63	-45.2	-47.3	15.8	0.00e+00	0	33	0	584056832	55	4895
2026-01-15 21:37:51.25	77.05	13.60	-45.1	-47.2	15.8	0.00e+00	0	33	0	589299712	55	4824
2026-01-15 21:37:54.27	77.65	13.57	-45.1	-47.2	15.8	0.00e+00	0	33	0	595591168	55	4838
2026-01-15 21:37:57.30	78.26	13.53	-45.2	-47.4	15.7	0.00e+00	0	33	0	600834048	55	4944
2026-01-15 21:38:00.32	78.87	13.49	-45.3	-47.4	15.8	0.00e+00	0	33	0	607125504	56	4687
2026-01-15 21:38:03.35	79.47	13.45	-45.1	-47.1	15.9	0.00e+00	0	33	0	612368384	56	4536
2026-01-15 21:38:06.38	80.07	13.41	-44.9	-46.9	16.0	0.00e+00	0	33	0	617611264	56	4430
2026-01-15 21:38:09.40	80.67	13.36	-44.5	-46.4	16.1	0.00e+00	0	33	0	623902720	55	4429
2026-01-15 21:38:12.43	81.27	13.31	-44.5	-46.5	16.2	0.00e+00	0	33	0	629145600	55	4443
2026-01-15 21:38:15.46	81.87	13.26	-44.5	-46.4	16.1	0.00e+00	0	33	0	635437056	55	4430
2026-01-15 21:38:18.49	82.46	13.20	-44.3	-46.1	16.3	0.00e+00	0	33	0	640679936	55	4274
2026-01-15 21:38:21.52	83.06	13.15	-44.4	-46.3	16.2	0.00e+00	0	33	0	645922816	55	4357
2026-01-15 21:38:24.54	83.65	13.09	-44.6	-46.6	16.0	0.00e+00	0	33	0	652214272	55	4506
2026-01-15 21:38:27.57	84.23	13.02	-44.8	-46.9	15.9	0.00e+00	0	33	0	657457152	55	4652
2026-01-15 21:38:30.60	84.82	12.96	-44.7	-46.8	16.0	0.00e+00	0	33	0	663748608	55	4601
2026-01-15 21:38:33.63	85.40	12.89	-44.6	-46.6	16.0	0.00e+00	0	33	0	668991488	55	4514
2026-01-15 21:38:36.65	85.98	12.82	-44.4	-46.3	16.1	0.00e+00	0	34	0	674234368	55	4371
2026-01-15 21:38:39.68	86.56	12.75	-44.2	-46.1	16.3	0.00e+00	0	33	0	680525824	55	4249
2026-01-15 21:38:42.71	87.13	12.67	-43.9	-45.7	16.5	0.00e+00	0	33	0	685768704	54	4297
2026-01-15 21:38:45.74	87.71	12.59	-44.0	-45.8	16.4	0.00e+00	0	33	0	692060160	54	4388
2026-01-15 21:38:48.77	88.28	12.51	-44.0	-45.9	16.4	0.00e+00	0	33	0	697303040	54	4396
2026-01-15 21:38:51.79	88.84	12.43	-44.4	-46.3	16.2	0.00e+00	0	33	0	703594496	54	4608
2026-01-15 21:38:54.82	89.40	12.35	-44.6	-46.6	16.1	0.00e+00	0	33	0	708837376	54	4760
2026-01-15 21:38:57.85	89.96	12.26	-44.3	-46.2	16.2	0.00e+00	0	33	0	714080256	54	4574
2026-01-15 21:39:00.88	90.52	12.17	-44.5	-46.5	16.1	0.00e+00	0	34	0	720371712	54	4721
2026-01-15 21:39:03.90	91.07	12.08	-44.7	-46.7	16.0	0.00e+00	0	33	0	725614592	54	4825
2026-01-15 21:39:06.93	91.62	11.99	-44.8	-46.8	16.0	0.00e+00	0	33	0	731906048	54	4895
2026-01-15 21:39:09.96	92.17	11.89	-44.8	-46.9	15.9	0.00e+00	0	33	0	737148928	54	4953
2026-01-15 21:39:12.98	92.71	11.80	-45.3	-47.5	15.6	0.00e+00	0	33	0	742391808	55	5013
2026-01-15 21:39:16.01	93.25	11.70	-45.5	-47.7	15.6	0.00e+00	0	33	0	748683264	56	4837
2026-01-15 21:39:19.04	93.79	11.60	-45.4	-47.5	15.7	0.00e+00	0	33	0	753926144	56	4751
2026-01-15 21:39:22.07	94.32	11.50	-45.5	-47.7	15.6	0.00e+00	0	33	0	760217600	56	4861
2026-01-15 21:39:25.10	94.85	11.39	-46.0	-48.4	15.2	0.00e+00	0	33	0	765460480	57	4949
2026-01-15 21:39:28.12	95.38	11.29	-46.4	-49.1	14.9	0.00e+00	0	33	0	770703360	58	5051
2026-01-15 21:39:31.15	95.90	11.18	-46.4	-49.1	14.8	0.00e+00	0	33	0	776994816	58	5045
2026-01-15 21:39:34.17	96.42	11.07	-46.5	-49.2	14.8	0.00e+00	0	33	0	782237696	58	5126
2026-01-15 21:39:37.20	96.93	10.96	-46.9	-49.9	14.3	0.00e+00	0	33	0	788529152	59	5270
2026-01-15 21:39:40.23	97.44	10.85	-46.2	-48.8	15.0	0.00e+00	0	33	0	793772032	59	4612
2026-01-15 21:39:43.26	97.95	10.73	-45.8	-48.2	15.4	0.00e+00	0	33	0	800063488	58	4573
2026-01-15 21:39:46.29	98.45	10.62	-46.3	-48.9	14.9	0.00e+00	0	33	0	805306368	58	4983
2026-01-15 21:39:49.32	98.95	10.50	-46.7	-49.6	14.5	0.00e+00	0	33	0	810549248	58	5381
2026-01-15 21:39:52.34	99.45	10.38	-46.6	-49.3	14.7	0.00e+00	0	33	0	816840704	58	5208
2026-01-15 21:39:55.37	99.94	10.27	-46.8	-49.6	14.4	0.00e+00	0	33	0	822083584	59	5097
2026-01-15 21:39:58.40	100.43	10.15	-46.7	-49.6	14.5	0.00e+00	0	33	0	828375040	59	5077
2026-01-15 21:40:01.43	100.91	10.02	-46.6	-49.5	14.6	0.00e+00	0	33	0	833617920	59	4990
2026-01-15 21:40:04.45	101.39	9.90	-46.8	-49.7	14.5	0.00e+00	0	34	0	838860800	59	5103
2026-01-15 21:40:07.48	101.86	9.78	-46.6	-49.4	14.6	0.00e+00	0	33	0	845152256	59	4932
2026-01-15 21:40:10.51	102.34	9.65	-46.0	-48.5	15.2	0.00e+00	0	34	0	850395136	58	4720
2026-01-15 21:40:13.53	102.80	9.53	-45.8	-48.2	15.3	0.00e+00	0	33	0	856686592	58	4594
2026-01-15 21:40:16.56	103.27	9.40	-46.3	-48.9	14.9	0.00e+00	0	34	0	861929472	58	4943
2026-01-15 21:40:19.59	103.73	9.27	-46.6	-49.4	14.5	0.00e+00	0	33	0	868220928	58	5254
2026-01-15 21:40:22.62	104.19	9.14	-46.7	-49.6	14.5	0.00e+00	0	34	0	873463808	59	5085
2026-01-15 21:40:25.64	104.64	9.01	-46.5	-49.3	14.7	0.00e+00	0	33	0	878706688	59	4890
2026-01-15 21:40:28.67	105.09	8.88	-46.1	-48.7	15.0	0.00e+00	0	33	0	884998144	58	4853
2026-01-15 21:40:31.70	105.53	8.75	-46.3	-48.9	14.9	0.00e+00	0	33	0	890241024	58	4977
2026-01-15 21:40:34.73	105.98	8.62	-45.9	-48.3	15.2	0.00e+00	0	33	0	896532480	58	4636
2026-01-15 21:40:37.76	106.41	8.49	-45.9	-48.4	15.2	0.00e+00	0	34	0	901775360	58	4661
2026-01-15 21:40:40.78	106.85	8.35	-46.1	-48.6	15.0	0.00e+00	0	34	0	907018240	58	4809
2026-01-15 21:40:43.81	107.28	8.22	-46.1	-48.6	15.0	0.00e+00	0	34	0	913309696	58	4800
2026-01-15 21:40:46.84	107.70	8.08	-45.7	-48.0	15.3	0.00e+00	0	34	0	918552576	57	4752
2026-01-15 21:40:49.87	108.12	7.95	-45.6	-48.0	15.3	0.00e+00	0	34	0	924844032	57	4752
2026-01-15 21:40:52.90	108.54	7.81	-45.8	-48.2	15.2	0.00e+00	0	34	0	930086912	57	4847
2026-01-15 21:40:55.92	108.96	7.68	-45.9	-48.4	15.1	0.00e+00	0	33	0	936378368	57	4971
2026-01-15 21:40:58.95	109.37	7.54	-45.9	-48.4	15.1	0.00e+00	0	33	0	941621248	57	4958
2026-01-15 21:41:01.98	109.77	7.40	-45.9	-48.4	15.1	0.00e+00	0	33	0	946864128	57	4972
2026-01-15 21:41:05.01	110.18	7.26	-46.0	-48.5	15.0	0.00e+00	0	34	0	953155584	57	5034
2026-01-15 21:41:08.04	110.58	7.12	-45.9	-48.4	15.1	0.00e+00	0	34	0	958398464	57	4962
2026-01-15 21:41:11.06	110.97	6.99	-46.4	-49.2	14.6	0.00e+00	0	34	0	964689920	57	5421
2026-01-15 21:41:14.09	111.37	6.85	-46.0	-48.6	15.0	0.00e+00	0	33	0	969932800	58	4803
2026-01-15 21:41:17.12	111.76	6.71	-46.0	-48.6	15.0	0.00e+00	0	33	0	975175680	58	4801
2026-01-15 21:41:20.15	112.14	6.57	-46.0	-48.6	15.0	0.00e+00	0	33	0	981467136	58	4777
2026-01-15 21:41:23.18	112.52	6.43	-46.4	-49.2	14.6	0.00e+00	0	34	0	986710016	58	5113
2026-01-15 21:41:26.20	112.90	6.29	-46.6	-49.5	14.4	0.00e+00	0	34	0	993001472	58	5322
2026-01-15 21:41:29.23	113.28	6.15	-46.4	-49.2	14.5	0.00e+00	0	33	0	998244352	58	5157
2026-01-15 21:41:32.25	113.65	6.01	-46.5	-49.4	14.4	0.00e+00	0	34	0	1003487232	58	5273
2026-01-15 21:41:35.28	114.02	5.86	-46.2	-49.0	14.6	0.00e+00	0	34	0	1009778688	58	5030
2026-01-15 21:41:38.31	114.38	5.72	-46.3	-49.1	14.6	0.00e+00	0	34	0	1015021568	58	5071
2026-01-15 21:41:41.34	114.74	5.58	-46.4	-49.5	14.2	0.00e+00	0	34	0	1021313024	58	5287
2026-01-15 21:41:44.36	115.10	5.44	-46.4	-49.5	14.2	0.00e+00	0	33	0	1026555904	58	5284
2026-01-15 21:41:47.39	115.45	5.30	-46.2	-49.1	14.4	0.00e+00	0	34	0	1032847360	58	5087
2026-01-15 21:41:50.42	115.81	5.15	-46.4	-49.5	14.2	0.00e+00	0	33	0	1038090240	58	5282
2026-01-15 21:41:53.45	116.15	5.01	-46.9	-50.4	13.6	0.00e+00	0	34	0	1043333120	58	5877
2026-01-15 21:41:56.48	116.50	4.87	-50.9	-67.0	3.8	1.49e+00	0	34	104	1044381696	66	25182
2026-01-15 21:41:59.51	116.84	4.73	-51.4	-67.5	3.8	1.49e+00	0	34	104	1044381696	67	25244
2026-01-15 21:42:02.53	117.18	4.59	-51.7	-67.9	3.8	1.49e+00	0	34	104	1044381696	68	24833
2026-01-15 21:42:05.56	117.51	4.44	-51.8	-68.0	3.8	1.49e+00	0	34	104	1044381696	68	25139
2026-01-15 21:42:08.59	117.85	4.30	-51.9	-68.1	3.8	1.49e+00	0	34	104	1044381696	68	25284
2026-01-15 21:42:11.61	118.17	4.16	-51.9	-68.1	3.8	1.49e+00	0	34	104	1044381696	68	25493
2026-01-15 21:42:14.64	118.50	4.02	-51.9	-68.2	3.8	1.49e+00	0	34	104	1044381696	69	24142
2026-01-15 21:42:17.67	118.82	3.87	-52.0	-68.2	3.8	1.49e+00	0	34	104	1044381696	69	24244
2026-01-15 21:42:20.70	119.14	3.73	-52.0	-68.2	3.8	1.49e+00	0	34	104	1044381696	69	24360
2026-01-15 21:42:23.72	119.46	3.59	-52.0	-68.2	3.8	1.49e+00	0	34	104	1044381696	69	24360
2026-01-15 21:42:26.75	119.77	3.45	-52.0	-68.2	3.8	1.49e+00	0	34	104	1044381696	69	24306
2026-01-15 21:42:29.78	120.09	3.30	-51.9	-68.2	3.8	1.49e+00	0	34	104	1044381696	69	24211
2026-01-15 21:42:32.81	120.39	3.16	-51.9	-68.2	3.8	1.49e+00	0	34	104	1044381696	69	24193
2026-01-15 21:42:35.84	120.70	3.02	-51.9	-68.2	3.8	1.49e+00	0	34	104	1044381696	69	24226
2026-01-15 21:42:38.86	121.00	2.88	-51.9	-68.1	3.8	1.49e+00	0	34	104	1044381696	69	24094
2026-01-15 21:42:41.89	121.30	2.73	-51.9	-68.1	3.8	1.49e+00	0	34	104	1044381696	69	24081
2026-01-15 21:42:44.92	121.60	2.59	-51.9	-68.1	3.8	1.49e+00	0	34	104	1044381696	69	24077
2026-01-15 21:42:47.94	121.89	2.45	-51.9	-68.2	3.8	1.49e+00	0	34	104	1044381696	69	24151
2026-01-15 21:42:50.97	122.19	2.31	-51.9	-68.1	3.8	1.49e+00	0	34	104	1044381696	69	24079
2026-01-15 21:42:54.00	122.48	2.17	-51.9	-68.1	3.8	1.49e+00	0	34	104	1044381696	69	24075
2026-01-15 21:42:57.03	122.76	2.03	-51.9	-68.1	3.8	1.49e+00	0	34	104	1044381696	69	24102

#Closed at: 2026-01-15 21:42:59
#Recorded file [1044 MB]: D:/lorett/data/31004_260116_003141.dat