passes_logs/2026/01/15/R3.2S_Murmansk_2ch/R3.2S_Murmansk_2ch__20260115_233254_NOAA_20_JPSS-1_rec.log

#Pass ID: 20260115_233254_NOAA 20 (JPSS-1)
#Satellite: NOAA 20 (JPSS-1)
#Configuration: NOAA 20
#almurnet v.1.7.20251203
#Start time: 2026-01-15 23:32:53

#Version: 2.2.20231116
#Station: R3.2S_Murmansk_2ch
#Location: 33.079688 lon 68.888172 lat
#TLE: 1 43013U 17073A   26015.61195121  .00000020  00000+0  30574-4 0  9993
#TLE: 2 43013  98.7636 316.5448 0001475  38.5247 321.6034 14.19536030422828

#Time	Az	El	Level	Level2	SNR	BER	BlckErr	Temp	State	Recorded	gain1	gain2
2026-01-15 23:32:53.52	20.96	1.97	-49.9	-65.6	3.8	1.49e+00	0	31	0	0	66	21365
2026-01-15 23:32:57.56	21.10	2.22	-49.9	-65.2	3.8	1.49e+00	0	31	104	0	64	22789
2026-01-15 23:33:01.59	21.25	2.47	-49.8	-64.8	3.8	1.49e+00	0	32	104	0	64	21784
2026-01-15 23:33:05.63	21.40	2.72	-49.8	-64.1	3.8	1.49e+00	0	32	104	0	64	20080
2026-01-15 23:33:09.67	21.55	2.98	-49.8	-62.5	4.2	1.20e+00	0	31	0	0	64	16881
2026-01-15 23:33:13.70	21.70	3.23	-49.6	-60.0	5.2	5.80e-01	0	32	0	6291456	64	12642
2026-01-15 23:33:17.74	21.85	3.49	-49.5	-59.3	5.7	3.45e-01	0	32	0	13631488	64	11654
2026-01-15 23:33:21.78	22.01	3.76	-49.1	-56.7	7.7	1.16e-01	0	32	0	20971520	64	8607
2026-01-15 23:33:25.81	22.17	4.02	-47.8	-52.3	11.6	2.01e-04	0	32	0	28311552	62	5824
2026-01-15 23:33:29.85	22.33	4.29	-47.3	-51.3	12.4	2.20e-06	0	32	0	35651584	60	5798
2026-01-15 23:33:33.89	22.50	4.56	-47.8	-52.5	11.4	2.20e-06	0	32	0	44040192	60	6668
2026-01-15 23:33:37.92	22.66	4.83	-48.9	-55.9	8.4	3.15e-02	0	32	0	51380224	63	8324
2026-01-15 23:33:41.96	22.83	5.11	-48.3	-53.7	10.7	4.36e-03	0	32	0	58720256	63	6437
2026-01-15 23:33:46.00	23.01	5.39	-49.7	-60.2	5.1	1.75e-01	0	32	0	66060288	64	12855
2026-01-15 23:33:50.04	23.18	5.67	-47.3	-51.0	12.8	0.00e+00	0	33	0	74448896	60	5637
2026-01-15 23:33:54.07	23.36	5.95	-46.8	-50.1	13.6	0.00e+00	0	32	0	81788928	60	5053
2026-01-15 23:33:58.11	23.55	6.24	-46.7	-49.8	13.8	0.00e+00	0	33	0	89128960	60	4906
2026-01-15 23:34:02.15	23.73	6.53	-47.0	-50.2	13.9	0.00e+00	0	33	0	96468992	59	5405
2026-01-15 23:34:06.18	23.92	6.82	-46.9	-50.1	13.9	0.00e+00	0	33	0	103809024	59	5370
2026-01-15 23:34:10.22	24.11	7.12	-46.8	-49.8	14.1	0.00e+00	0	33	0	112197632	59	5186
2026-01-15 23:34:14.26	24.31	7.41	-46.7	-49.6	14.3	0.00e+00	0	33	0	119537664	59	5092
2026-01-15 23:34:18.29	24.51	7.72	-46.5	-49.2	14.5	0.00e+00	0	33	0	126877696	59	4859
2026-01-15 23:34:22.33	24.71	8.02	-46.5	-49.3	14.5	0.00e+00	0	33	0	134217728	59	4899
2026-01-15 23:34:26.37	24.92	8.33	-46.4	-49.1	14.7	0.00e+00	0	33	0	142606336	59	4782
2026-01-15 23:34:30.41	25.13	8.64	-46.2	-48.9	14.8	0.00e+00	0	33	0	149946368	59	4653
2026-01-15 23:34:34.45	25.35	8.96	-46.3	-48.9	14.8	0.00e+00	0	33	0	157286400	58	4963
2026-01-15 23:34:38.48	25.57	9.28	-46.1	-48.6	15.0	0.00e+00	0	33	0	164626432	58	4809
2026-01-15 23:34:42.52	25.79	9.60	-46.1	-48.6	15.0	0.00e+00	0	33	0	171966464	58	4810
2026-01-15 23:34:46.56	26.02	9.93	-45.9	-48.3	15.2	0.00e+00	0	33	0	180355072	58	4622
2026-01-15 23:34:50.59	26.25	10.26	-45.8	-48.1	15.3	0.00e+00	0	33	0	187695104	58	4515
2026-01-15 23:34:54.63	26.49	10.60	-45.8	-48.2	15.3	0.00e+00	0	33	0	195035136	58	4546
2026-01-15 23:34:58.67	26.74	10.94	-45.9	-48.2	15.3	0.00e+00	0	33	0	202375168	58	4576
2026-01-15 23:35:02.71	26.99	11.29	-45.9	-48.3	15.3	0.00e+00	0	33	0	209715200	58	4605
2026-01-15 23:35:06.74	27.24	11.63	-45.8	-48.1	15.4	0.00e+00	0	33	0	218103808	58	4525
2026-01-15 23:35:10.78	27.50	11.99	-45.7	-48.0	15.4	0.00e+00	0	33	0	225443840	57	4722
2026-01-15 23:35:14.81	27.77	12.35	-45.5	-47.7	15.6	0.00e+00	0	33	0	232783872	57	4571
2026-01-15 23:35:18.85	28.04	12.71	-45.4	-47.5	15.7	0.00e+00	0	33	0	240123904	57	4472
2026-01-15 23:35:22.89	28.32	13.08	-45.4	-47.5	15.7	0.00e+00	0	33	0	248512512	57	4486
2026-01-15 23:35:26.93	28.61	13.45	-45.2	-47.3	15.8	0.00e+00	0	33	0	255852544	56	4621
2026-01-15 23:35:30.96	28.90	13.83	-45.1	-47.2	15.9	0.00e+00	0	33	0	263192576	56	4559
2026-01-15 23:35:35.00	29.20	14.21	-45.1	-47.1	16.0	0.00e+00	0	33	0	270532608	56	4509
2026-01-15 23:35:39.04	29.51	14.60	-45.0	-47.0	16.0	0.00e+00	0	33	0	277872640	56	4482
2026-01-15 23:35:43.08	29.82	15.00	-45.1	-47.2	15.9	0.00e+00	0	33	0	286261248	56	4559
2026-01-15 23:35:47.11	30.14	15.40	-45.0	-46.9	16.0	0.00e+00	0	33	0	293601280	56	4440
2026-01-15 23:35:51.15	30.47	15.80	-45.0	-47.0	16.0	0.00e+00	0	33	0	300941312	56	4465
2026-01-15 23:35:55.19	30.81	16.22	-45.1	-47.1	15.9	0.00e+00	0	33	0	308281344	56	4511
2026-01-15 23:35:59.23	31.16	16.63	-45.0	-47.0	16.0	0.00e+00	0	33	0	316669952	56	4444
2026-01-15 23:36:03.26	31.52	17.06	-45.1	-47.1	15.9	0.00e+00	0	33	0	324009984	56	4521
2026-01-15 23:36:07.30	31.89	17.49	-45.1	-47.1	15.9	0.00e+00	0	33	0	331350016	56	4502
2026-01-15 23:36:11.33	32.26	17.93	-45.4	-47.4	15.8	0.00e+00	0	33	0	338690048	56	4704
2026-01-15 23:36:15.37	32.65	18.37	-45.5	-47.6	15.7	0.00e+00	0	33	0	346030080	56	4790
2026-01-15 23:36:19.41	33.05	18.83	-45.4	-47.4	15.8	0.00e+00	0	33	0	354418688	56	4699
2026-01-15 23:36:23.44	33.46	19.28	-45.4	-47.5	15.8	0.00e+00	0	33	0	361758720	56	4715
2026-01-15 23:36:27.48	33.89	19.75	-45.4	-47.4	15.8	0.00e+00	0	33	0	369098752	56	4695
2026-01-15 23:36:31.52	34.32	20.22	-45.5	-47.6	15.7	0.00e+00	0	33	0	376438784	56	4796
2026-01-15 23:36:35.55	34.77	20.70	-45.4	-47.5	15.8	0.00e+00	0	33	0	383778816	56	4734
2026-01-15 23:36:39.59	35.23	21.19	-45.3	-47.3	15.8	0.00e+00	0	33	0	392167424	56	4631
2026-01-15 23:36:43.63	35.71	21.69	-45.1	-47.1	16.0	0.00e+00	0	33	0	399507456	56	4505
2026-01-15 23:36:47.66	36.20	22.19	-45.1	-47.1	16.0	0.00e+00	0	33	0	406847488	56	4513
2026-01-15 23:36:51.70	36.71	22.71	-45.5	-47.5	15.8	0.00e+00	0	33	0	414187520	56	4753
2026-01-15 23:36:55.74	37.24	23.23	-45.6	-47.7	15.7	0.00e+00	0	33	0	422576128	56	4843
2026-01-15 23:36:59.78	37.78	23.76	-45.3	-47.3	15.8	0.00e+00	0	33	0	429916160	56	4647
2026-01-15 23:37:03.81	38.34	24.29	-45.0	-47.0	16.0	0.00e+00	0	33	0	437256192	56	4447
2026-01-15 23:37:07.85	38.91	24.84	-45.1	-47.1	16.0	0.00e+00	0	33	0	444596224	56	4524
2026-01-15 23:37:11.89	39.51	25.39	-45.5	-47.5	15.7	0.00e+00	0	33	0	451936256	56	4757
2026-01-15 23:37:15.93	40.13	25.96	-45.4	-47.5	15.8	0.00e+00	0	33	0	460324864	56	4716
2026-01-15 23:37:19.96	40.77	26.53	-45.4	-47.4	15.8	0.00e+00	0	33	0	467664896	56	4703
2026-01-15 23:37:24.00	41.44	27.11	-45.8	-48.0	15.5	0.00e+00	0	33	0	475004928	56	4996
2026-01-15 23:37:28.04	42.13	27.70	-46.3	-48.7	15.2	0.00e+00	0	33	0	482344960	57	5130
2026-01-15 23:37:32.08	42.84	28.29	-46.4	-48.7	15.2	0.00e+00	0	33	0	490733568	58	4861
2026-01-15 23:37:36.12	43.58	28.90	-46.5	-49.0	15.1	0.00e+00	0	33	0	498073600	58	4986
2026-01-15 23:37:40.15	44.35	29.51	-47.0	-49.7	14.7	0.00e+00	0	33	0	505413632	59	5148
2026-01-15 23:37:44.19	45.14	30.13	-47.1	-49.8	14.6	0.00e+00	0	33	0	512753664	59	5191
2026-01-15 23:37:48.22	45.97	30.76	-47.1	-49.9	14.6	0.00e+00	0	33	0	520093696	59	5226
2026-01-15 23:37:52.26	46.83	31.39	-46.3	-48.5	15.3	0.00e+00	0	33	0	528482304	59	4491
2026-01-15 23:37:56.29	47.72	32.04	-46.4	-48.8	15.2	0.00e+00	0	33	0	535822336	59	4607
2026-01-15 23:38:00.33	48.65	32.68	-46.1	-48.4	15.4	0.00e+00	0	33	0	543162368	58	4658
2026-01-15 23:38:04.37	49.62	33.34	-45.9	-48.0	15.6	0.00e+00	0	33	0	550502400	58	4490
2026-01-15 23:38:08.41	50.62	34.00	-46.4	-48.7	15.3	0.00e+00	0	33	0	558891008	58	4859
2026-01-15 23:38:12.45	51.67	34.66	-46.1	-48.2	15.5	0.00e+00	0	33	0	566231040	58	4594
2026-01-15 23:38:16.48	52.76	35.33	-46.2	-48.4	15.4	0.00e+00	0	33	0	573571072	58	4692
2026-01-15 23:38:20.52	53.89	36.00	-46.2	-48.4	15.4	0.00e+00	0	33	0	580911104	58	4685
2026-01-15 23:38:24.56	55.07	36.67	-45.5	-47.5	15.9	0.00e+00	0	33	0	588251136	57	4455
2026-01-15 23:38:28.59	56.30	37.34	-45.4	-47.4	15.9	0.00e+00	0	33	0	596639744	56	4705
2026-01-15 23:38:32.63	57.58	38.01	-45.8	-47.9	15.6	0.00e+00	0	33	0	603979776	56	4982
2026-01-15 23:38:36.67	58.91	38.68	-45.6	-47.6	15.8	0.00e+00	0	33	0	611319808	56	4781
2026-01-15 23:38:40.71	60.30	39.34	-45.8	-47.9	15.7	0.00e+00	0	33	0	618659840	56	4959
2026-01-15 23:38:44.74	61.74	40.00	-46.3	-48.6	15.3	0.00e+00	0	33	0	627048448	58	4778
2026-01-15 23:38:48.78	63.25	40.65	-45.5	-47.5	15.9	0.00e+00	0	33	0	634388480	57	4447
2026-01-15 23:38:52.82	64.81	41.28	-45.7	-47.7	15.8	0.00e+00	0	33	0	641728512	57	4592
2026-01-15 23:38:56.85	66.43	41.91	-45.0	-46.8	16.1	0.00e+00	0	33	0	649068544	56	4390
2026-01-15 23:39:00.89	68.12	42.51	-45.7	-47.8	15.7	0.00e+00	0	33	0	656408576	56	4905
2026-01-15 23:39:04.93	69.87	43.10	-45.9	-48.0	15.7	0.00e+00	0	33	0	664797184	56	4997
2026-01-15 23:39:08.97	71.69	43.67	-46.7	-49.2	15.1	0.00e+00	0	33	0	672137216	58	5116
2026-01-15 23:39:13.00	73.56	44.21	-46.4	-48.7	15.4	0.00e+00	0	33	0	679477248	58	4835
2026-01-15 23:39:17.04	75.50	44.73	-46.7	-49.1	15.2	0.00e+00	0	33	0	686817280	59	4784
2026-01-15 23:39:21.07	77.50	45.21	-46.3	-48.5	15.4	0.00e+00	0	33	0	695205888	58	4752
2026-01-15 23:39:25.11	79.56	45.67	-46.9	-49.5	14.7	0.00e+00	0	33	0	702545920	60	4734
2026-01-15 23:39:29.15	81.68	46.08	-46.5	-48.8	15.3	0.00e+00	0	33	0	709885952	59	4612
2026-01-15 23:39:33.19	83.86	46.46	-47.2	-50.0	14.4	0.00e+00	0	33	0	717225984	60	5003
2026-01-15 23:39:37.23	86.08	46.80	-46.3	-48.5	15.4	0.00e+00	0	33	0	724566016	59	4492
2026-01-15 23:39:41.26	88.34	47.09	-46.8	-49.3	15.0	0.00e+00	0	33	0	732954624	58	5204
2026-01-15 23:39:45.30	90.65	47.33	-46.8	-49.3	14.8	0.00e+00	0	33	0	740294656	60	4631
2026-01-15 23:39:49.34	92.99	47.53	-46.7	-49.2	15.1	0.00e+00	0	33	0	747634688	58	5116
2026-01-15 23:39:53.38	95.35	47.67	-46.2	-48.4	15.5	0.00e+00	0	33	0	754974720	59	4440
2026-01-15 23:39:57.41	97.73	47.76	-45.9	-48.0	15.6	0.00e+00	0	33	0	762314752	57	4725
2026-01-15 23:40:01.45	100.12	47.80	-47.0	-49.6	14.8	0.00e+00	0	33	0	770703360	59	5091
2026-01-15 23:40:05.49	102.52	47.79	-46.5	-48.8	15.3	0.00e+00	0	33	0	778043392	59	4634
2026-01-15 23:40:09.53	104.91	47.72	-47.2	-49.9	14.6	0.00e+00	0	33	0	785383424	59	5241
2026-01-15 23:40:13.56	107.28	47.60	-47.0	-49.7	14.6	0.00e+00	0	33	0	792723456	60	4815
2026-01-15 23:40:17.60	109.63	47.43	-45.9	-48.1	15.7	0.00e+00	0	33	0	801112064	58	4504
2026-01-15 23:40:21.64	111.96	47.21	-46.7	-49.1	15.1	0.00e+00	0	33	0	808452096	58	5064
2026-01-15 23:40:25.67	114.24	46.94	-47.2	-50.0	14.4	0.00e+00	0	33	0	815792128	60	5025
2026-01-15 23:40:29.71	116.49	46.63	-47.5	-50.5	14.1	0.00e+00	0	33	0	823132160	60	5286
2026-01-15 23:40:33.75	118.69	46.27	-47.3	-50.1	14.3	0.00e+00	0	33	0	830472192	60	5082
2026-01-15 23:40:37.79	120.84	45.87	-47.2	-50.0	14.4	0.00e+00	0	33	0	838860800	61	4729
2026-01-15 23:40:41.82	122.93	45.44	-47.4	-50.4	14.2	0.00e+00	0	33	0	846200832	61	4945
2026-01-15 23:40:45.86	124.96	44.96	-46.0	-48.1	15.6	0.00e+00	0	33	0	853540864	58	4531
2026-01-15 23:40:49.90	126.93	44.46	-45.2	-47.1	16.1	0.00e+00	0	33	0	860880896	56	4530
2026-01-15 23:40:53.93	128.84	43.93	-45.2	-47.2	16.0	0.00e+00	0	33	0	869269504	56	4555
2026-01-15 23:40:57.97	130.69	43.37	-44.3	-46.0	16.4	0.00e+00	0	33	0	876609536	55	4241
2026-01-15 23:41:02.01	132.48	42.79	-44.5	-46.3	16.3	0.00e+00	0	33	0	883949568	55	4346
2026-01-15 23:41:06.04	134.19	42.19	-45.0	-47.0	16.0	0.00e+00	0	33	0	891289600	55	4713
2026-01-15 23:41:10.08	135.85	41.57	-44.4	-46.2	16.4	0.00e+00	0	33	0	898629632	54	4553
2026-01-15 23:41:14.12	137.45	40.94	-45.1	-46.9	16.2	0.00e+00	0	33	0	907018240	56	4420
2026-01-15 23:41:18.15	138.98	40.30	-46.9	-49.4	15.0	0.00e+00	0	33	0	914358272	58	5265
2026-01-15 23:41:22.19	140.46	39.64	-45.9	-48.1	15.6	0.00e+00	0	33	0	921698304	57	4770
2026-01-15 23:41:26.23	141.87	38.98	-45.6	-47.6	15.8	0.00e+00	0	33	0	929038336	57	4531
2026-01-15 23:41:30.27	143.24	38.31	-48.0	-51.4	13.4	0.00e+00	0	33	0	936378368	61	5570
2026-01-15 23:41:34.30	144.54	37.64	-46.5	-48.9	15.2	0.00e+00	0	33	0	944766976	59	4683
2026-01-15 23:41:38.34	145.80	36.97	-47.5	-50.6	13.9	0.00e+00	0	33	0	952107008	61	5080
2026-01-15 23:41:42.38	147.00	36.29	-46.7	-49.1	15.0	0.00e+00	0	33	0	959447040	59	4810
2026-01-15 23:41:46.42	148.16	35.62	-47.3	-50.2	14.2	0.00e+00	0	33	0	966787072	61	4836
2026-01-15 23:41:50.45	149.27	34.95	-47.0	-49.7	14.7	0.00e+00	0	33	0	975175680	59	5113
2026-01-15 23:41:54.49	150.34	34.28	-47.4	-50.4	14.1	0.00e+00	0	33	0	982515712	61	4945
2026-01-15 23:41:58.53	151.37	33.61	-45.7	-47.8	15.7	0.00e+00	0	33	0	989855744	57	4601
2026-01-15 23:42:02.57	152.35	32.95	-48.3	-52.0	12.9	2.20e-06	0	33	0	997195776	61	5992
2026-01-15 23:42:06.60	153.30	32.30	-46.0	-48.1	15.5	0.00e+00	0	33	0	1004535808	58	4538
2026-01-15 23:42:10.64	154.21	31.65	-47.3	-50.2	14.4	0.00e+00	0	33	0	1012924416	59	5415
2026-01-15 23:42:14.68	155.09	31.01	-46.8	-49.4	14.7	0.00e+00	0	33	0	1020264448	60	4673
2026-01-15 23:42:18.72	155.93	30.37	-46.7	-49.3	14.9	0.00e+00	0	33	0	1027604480	59	4879
2026-01-15 23:42:22.75	156.74	29.75	-47.4	-50.5	14.0	0.00e+00	0	33	0	1034944512	60	5283
2026-01-15 23:42:26.79	157.53	29.13	-46.2	-48.5	15.3	0.00e+00	0	33	0	1043333120	58	4714
2026-01-15 23:42:30.83	158.28	28.52	-46.3	-48.7	15.2	0.00e+00	0	33	0	1050673152	58	4824
2026-01-15 23:42:34.86	159.01	27.91	-47.0	-49.7	14.7	0.00e+00	0	33	0	1058013184	59	5116
2026-01-15 23:42:38.90	159.71	27.32	-45.6	-47.7	15.7	0.00e+00	0	33	0	1065353216	57	4570
2026-01-15 23:42:42.94	160.38	26.73	-45.3	-47.3	15.9	0.00e+00	0	33	0	1072693248	57	4355
2026-01-15 23:42:46.98	161.03	26.15	-45.8	-47.9	15.6	0.00e+00	0	33	0	1081081856	57	4702
2026-01-15 23:42:51.01	161.66	25.59	-46.2	-48.5	15.2	0.00e+00	0	33	0	1088421888	57	5040
2026-01-15 23:42:55.05	162.27	25.02	-45.8	-48.1	15.5	0.00e+00	0	33	0	1095761920	57	4764
2026-01-15 23:42:59.09	162.86	24.47	-45.6	-47.7	15.7	0.00e+00	0	33	0	1103101952	57	4571
2026-01-15 23:43:03.12	163.43	23.93	-46.2	-48.6	15.2	0.00e+00	0	33	0	1111490560	57	5078
2026-01-15 23:43:07.16	163.98	23.39	-45.9	-48.2	15.4	0.00e+00	0	33	0	1118830592	57	4840
2026-01-15 23:43:11.20	164.51	22.87	-45.2	-47.2	15.9	0.00e+00	0	33	0	1126170624	57	4297
2026-01-15 23:43:15.24	165.02	22.35	-45.2	-47.2	15.9	0.00e+00	0	33	0	1133510656	56	4551
2026-01-15 23:43:19.27	165.52	21.84	-45.4	-47.4	15.7	0.00e+00	0	33	0	1140850688	56	4704
2026-01-15 23:43:23.31	166.00	21.34	-45.7	-47.9	15.5	0.00e+00	0	33	0	1149239296	56	4930
2026-01-15 23:43:27.35	166.47	20.84	-45.8	-48.0	15.4	0.00e+00	0	33	0	1156579328	56	5021
2026-01-15 23:43:31.38	166.93	20.36	-45.4	-47.6	15.7	0.00e+00	0	33	0	1163919360	56	4760
2026-01-15 23:43:35.42	167.37	19.88	-45.5	-47.6	15.6	0.00e+00	0	33	0	1171259392	56	4814
2026-01-15 23:43:39.46	167.80	19.40	-45.8	-48.1	15.4	0.00e+00	0	33	0	1178599424	56	5052
2026-01-15 23:43:43.50	168.21	18.94	-46.0	-48.4	15.2	0.00e+00	0	33	0	1186988032	57	4962
2026-01-15 23:43:47.53	168.62	18.48	-46.0	-48.3	15.3	0.00e+00	0	33	0	1194328064	57	4925
2026-01-15 23:43:51.57	169.01	18.03	-45.3	-47.4	15.7	0.00e+00	0	33	0	1201668096	57	4440
2026-01-15 23:43:55.61	169.39	17.59	-45.0	-47.0	15.9	0.00e+00	0	33	0	1209008128	56	4450
2026-01-15 23:43:59.64	169.76	17.16	-45.1	-47.1	15.8	0.00e+00	0	33	0	1217396736	56	4501
2026-01-15 23:44:03.68	170.12	16.73	-45.3	-47.5	15.7	0.00e+00	0	33	0	1224736768	56	4710
2026-01-15 23:44:07.72	170.47	16.30	-45.5	-47.6	15.6	0.00e+00	0	33	0	1232076800	56	4812
2026-01-15 23:44:11.76	170.82	15.88	-45.4	-47.5	15.6	0.00e+00	0	33	0	1239416832	56	4758
2026-01-15 23:44:15.79	171.15	15.47	-45.2	-47.3	15.7	0.00e+00	0	33	0	1246756864	56	4625
2026-01-15 23:44:19.83	171.48	15.07	-45.1	-47.2	15.8	0.00e+00	0	33	0	1255145472	56	4567
2026-01-15 23:44:23.86	171.79	14.67	-45.4	-47.5	15.6	0.00e+00	0	33	0	1262485504	56	4731
2026-01-15 23:44:27.90	172.10	14.28	-45.6	-47.8	15.4	0.00e+00	0	33	0	1269825536	56	4889
2026-01-15 23:44:31.94	172.40	13.89	-45.9	-48.3	15.2	0.00e+00	0	33	0	1277165568	56	5189
2026-01-15 23:44:35.98	172.70	13.51	-46.1	-48.7	15.0	0.00e+00	0	33	0	1285554176	57	5106
2026-01-15 23:44:40.01	172.98	13.13	-46.3	-48.9	14.8	0.00e+00	0	33	0	1292894208	57	5241
2026-01-15 23:44:44.05	173.26	12.76	-46.1	-48.7	15.0	0.00e+00	0	33	0	1300234240	57	5108
2026-01-15 23:44:48.09	173.54	12.39	-45.9	-48.3	15.2	0.00e+00	0	33	0	1307574272	57	4879
2026-01-15 23:44:52.12	173.80	12.03	-45.8	-48.1	15.2	0.00e+00	0	33	0	1314914304	57	4797
2026-01-15 23:44:56.16	174.07	11.67	-45.5	-47.7	15.5	0.00e+00	0	33	0	1323302912	57	4588
2026-01-15 23:45:00.20	174.32	11.32	-45.7	-48.0	15.3	0.00e+00	0	33	0	1330642944	57	4741
2026-01-15 23:45:04.23	174.57	10.97	-45.9	-48.4	15.1	0.00e+00	0	33	0	1337982976	57	4936
2026-01-15 23:45:08.27	174.81	10.63	-46.1	-48.6	14.9	0.00e+00	0	33	0	1345323008	57	5090
2026-01-15 23:45:12.31	175.05	10.29	-46.3	-48.9	14.7	0.00e+00	0	33	0	1352663040	57	5260
2026-01-15 23:45:16.35	175.29	9.96	-46.5	-49.2	14.6	0.00e+00	0	33	0	1361051648	58	5127
2026-01-15 23:45:20.39	175.52	9.62	-46.4	-49.1	14.6	0.00e+00	0	33	0	1368391680	58	5084
2026-01-15 23:45:24.42	175.74	9.30	-46.5	-49.2	14.6	0.00e+00	0	33	0	1375731712	58	5159
2026-01-15 23:45:28.46	175.96	8.97	-46.5	-49.3	14.5	0.00e+00	0	33	0	1383071744	58	5196
2026-01-15 23:45:32.50	176.18	8.66	-46.3	-48.9	14.7	0.00e+00	0	33	0	1391460352	58	4971
2026-01-15 23:45:36.53	176.39	8.34	-46.1	-48.8	14.8	0.00e+00	0	33	0	1398800384	58	4874
2026-01-15 23:45:40.57	176.59	8.03	-46.2	-48.8	14.8	0.00e+00	0	33	0	1406140416	58	4906
2026-01-15 23:45:44.61	176.80	7.72	-46.1	-48.8	14.7	0.00e+00	0	33	0	1413480448	58	4875
2026-01-15 23:45:48.65	177.00	7.41	-46.1	-48.7	14.8	0.00e+00	0	33	0	1420820480	58	4823
2026-01-15 23:45:52.69	177.19	7.11	-46.2	-48.8	14.7	0.00e+00	0	33	0	1429209088	58	4922
2026-01-15 23:45:56.72	177.38	6.82	-46.4	-49.2	14.4	0.00e+00	0	33	0	1436549120	58	5153
2026-01-15 23:46:00.76	177.57	6.52	-46.3	-49.2	14.4	0.00e+00	0	33	0	1443889152	58	5101
2026-01-15 23:46:04.79	177.75	6.23	-46.6	-49.7	14.0	0.00e+00	0	33	0	1451229184	58	5407
2026-01-15 23:46:08.83	177.94	5.94	-46.5	-49.5	14.2	0.00e+00	0	33	0	1459617792	59	5024
2026-01-15 23:46:12.87	178.11	5.65	-46.9	-50.1	13.7	7.00e-07	0	33	0	1466957824	59	5397
2026-01-15 23:46:16.90	178.29	5.37	-47.0	-50.4	13.5	0.00e+00	0	33	0	1474297856	59	5561
2026-01-15 23:46:20.94	178.46	5.09	-47.1	-50.9	12.8	0.00e+00	0	33	0	1481637888	60	5553
2026-01-15 23:46:24.98	178.63	4.81	-51.0	-67.2	3.8	1.49e+00	0	33	104	1484783616	67	24141
2026-01-15 23:46:29.02	178.79	4.54	-51.4	-67.6	3.8	1.49e+00	0	33	104	1484783616	67	25402
2026-01-15 23:46:33.05	178.96	4.27	-51.8	-68.0	3.8	1.49e+00	0	33	104	1484783616	68	25098
2026-01-15 23:46:37.09	179.12	4.00	-51.9	-68.1	3.8	1.49e+00	0	33	104	1484783616	68	25488
2026-01-15 23:46:41.13	179.28	3.73	-51.9	-68.2	3.8	1.49e+00	0	33	104	1484783616	69	24158
2026-01-15 23:46:45.17	179.43	3.46	-51.9	-68.1	3.8	1.49e+00	0	33	104	1484783616	69	24084
2026-01-15 23:46:49.21	179.58	3.20	-51.9	-68.1	3.8	1.49e+00	0	33	104	1484783616	69	23984
2026-01-15 23:46:53.24	179.73	2.94	-51.8	-68.1	3.8	1.49e+00	0	33	104	1484783616	69	23991
2026-01-15 23:46:57.28	179.88	2.68	-51.8	-68.1	3.8	1.49e+00	0	33	104	1484783616	69	23889
2026-01-15 23:47:01.32	180.03	2.43	-51.8	-68.1	3.8	1.49e+00	0	33	104	1484783616	69	23866
2026-01-15 23:47:05.35	180.17	2.18	-51.8	-68.0	3.8	1.49e+00	0	33	104	1484783616	69	23849

#Closed at: 2026-01-15 23:47:09
#Recorded file [1484 MB]: D:/lorett/data/31004_260116_023253.dat