passes_logs/2026/01/15/R3.2S_Murmansk_2ch/R3.2S_Murmansk_2ch__20260115_224227_NOAA_21_JPSS-2_rec.log

#Pass ID: 20260115_224227_NOAA 21 (JPSS-2)
#Satellite: NOAA 21 (JPSS-2)
#Configuration: NOAA-21
#almurnet v.1.7.20251203
#Start time: 2026-01-15 22:42:28

#Version: 2.2.20231116
#Station: R3.2S_Murmansk_2ch
#Location: 33.079688 lon 68.888172 lat
#TLE: 1 54234U 22150A   26015.57659306  .00000014  00000+0  27538-4 0  9996
#TLE: 2 54234  98.7498 316.4693 0000634 287.4933  72.6174 14.19534738164896

#Time	Az	El	Level	Level2	SNR	BER	BlckErr	Temp	State	Recorded	gain1	gain2
2026-01-15 22:42:28.89	19.34	2.09	-49.9	-63.8	3.8	1.49e+00	0	31	104	0	64	19600
2026-01-15 22:42:32.90	19.58	2.32	-49.9	-63.7	3.8	1.49e+00	0	31	104	0	64	19367
2026-01-15 22:42:36.93	19.82	2.55	-49.9	-63.9	3.8	1.49e+00	0	31	104	0	65	18552
2026-01-15 22:42:40.97	20.07	2.79	-49.9	-63.6	3.8	1.49e+00	0	32	104	0	65	17889
2026-01-15 22:42:45.01	20.32	3.03	-49.8	-62.8	3.8	1.49e+00	0	32	104	0	65	16394
2026-01-15 22:42:49.04	20.58	3.27	-49.9	-62.8	3.8	1.49e+00	0	32	104	0	65	16498
2026-01-15 22:42:53.08	20.84	3.51	-49.7	-61.3	3.9	1.48e+00	0	32	104	0	65	13792
2026-01-15 22:42:57.12	21.10	3.75	-49.5	-59.0	4.6	1.10e+00	2	32	104	0	65	10623
2026-01-15 22:43:01.16	21.37	4.00	-49.5	-58.6	4.8	1.08e+00	0	32	104	0	65	10108
2026-01-15 22:43:05.20	21.65	4.24	-48.0	-52.8	9.3	8.75e-03	0	32	0	11534336	62	6155
2026-01-15 22:43:09.24	21.92	4.49	-46.4	-49.3	12.5	6.10e-06	0	32	0	24117248	59	4923
2026-01-15 22:43:13.27	22.20	4.74	-47.1	-50.5	11.6	1.72e-04	0	32	0	36700160	59	5641
2026-01-15 22:43:17.31	22.49	4.99	-48.1	-53.0	9.1	9.20e-03	0	32	0	49283072	61	6721
2026-01-15 22:43:21.35	22.78	5.25	-46.0	-48.6	13.1	6.17e-05	0	32	0	59768832	58	4784
2026-01-15 22:43:25.38	23.08	5.50	-44.4	-46.4	14.5	0.00e+00	0	32	0	72351744	55	4420
2026-01-15 22:43:29.42	23.38	5.76	-44.7	-46.7	14.4	0.00e+00	0	32	0	84934656	55	4593
2026-01-15 22:43:33.46	23.68	6.02	-44.4	-46.4	14.6	0.00e+00	0	32	0	97517568	54	4654
2026-01-15 22:43:37.49	23.99	6.28	-44.2	-46.1	14.8	0.00e+00	0	32	0	110100480	54	4500
2026-01-15 22:43:41.53	24.31	6.54	-44.4	-46.4	14.6	0.00e+00	0	32	0	122683392	54	4680
2026-01-15 22:43:45.57	24.63	6.81	-44.5	-46.5	14.5	0.00e+00	0	32	0	135266304	54	4759
2026-01-15 22:43:49.61	24.95	7.07	-44.3	-46.3	14.8	0.00e+00	0	33	0	147849216	54	4599
2026-01-15 22:43:53.65	25.29	7.34	-44.4	-46.4	14.7	0.00e+00	0	33	0	160432128	54	4666
2026-01-15 22:43:57.68	25.62	7.61	-44.3	-46.1	14.9	0.00e+00	0	33	0	173015040	54	4530
2026-01-15 22:44:01.72	25.97	7.89	-44.2	-46.0	14.9	0.00e+00	0	33	0	185597952	54	4484
2026-01-15 22:44:05.76	26.32	8.16	-44.0	-45.8	15.1	0.00e+00	0	33	0	198180864	54	4350
2026-01-15 22:44:09.80	26.67	8.44	-43.7	-45.4	15.4	0.00e+00	0	33	0	211812352	54	4173
2026-01-15 22:44:13.84	27.04	8.72	-43.5	-45.1	15.5	0.00e+00	0	33	0	223346688	53	4274
2026-01-15 22:44:17.88	27.41	9.00	-43.5	-45.2	15.4	0.00e+00	0	33	0	236978176	53	4322
2026-01-15 22:44:21.91	27.78	9.29	-43.4	-45.0	15.5	0.00e+00	0	33	0	249561088	52	4452
2026-01-15 22:44:25.95	28.17	9.57	-43.2	-44.7	15.7	0.00e+00	0	33	0	262144000	52	4339
2026-01-15 22:44:29.99	28.56	9.86	-43.1	-44.7	15.7	0.00e+00	0	33	0	274726912	52	4314
2026-01-15 22:44:34.03	28.96	10.15	-43.1	-44.6	15.8	0.00e+00	0	33	0	287309824	52	4287
2026-01-15 22:44:38.07	29.36	10.45	-43.0	-44.5	15.8	0.00e+00	0	33	0	299892736	52	4221
2026-01-15 22:44:42.11	29.78	10.74	-42.7	-44.2	16.0	0.00e+00	0	33	0	312475648	52	4071
2026-01-15 22:44:46.15	30.20	11.04	-42.9	-44.4	15.9	0.00e+00	0	33	0	325058560	51	4397
2026-01-15 22:44:50.19	30.63	11.34	-42.7	-44.2	16.0	0.00e+00	0	33	0	337641472	51	4295
2026-01-15 22:44:54.23	31.07	11.64	-42.7	-44.2	16.0	0.00e+00	0	33	0	350224384	51	4313
2026-01-15 22:44:58.27	31.51	11.95	-42.6	-44.0	16.1	0.00e+00	0	33	0	362807296	51	4224
2026-01-15 22:45:02.31	31.97	12.26	-42.6	-44.1	16.1	0.00e+00	0	33	0	375390208	51	4243
2026-01-15 22:45:06.34	32.44	12.56	-42.5	-43.9	16.2	0.00e+00	0	33	0	387973120	51	4168
2026-01-15 22:45:10.38	32.91	12.88	-42.6	-44.0	16.2	0.00e+00	0	33	0	400556032	51	4227
2026-01-15 22:45:14.42	33.40	13.19	-42.5	-44.0	16.2	0.00e+00	0	33	0	413138944	51	4197
2026-01-15 22:45:18.46	33.89	13.51	-42.6	-44.0	16.1	0.00e+00	0	33	0	425721856	51	4240
2026-01-15 22:45:22.50	34.40	13.82	-42.6	-44.1	16.2	0.00e+00	0	33	0	438304768	51	4245
2026-01-15 22:45:26.54	34.91	14.15	-42.7	-44.2	16.1	0.00e+00	0	33	0	450887680	51	4312
2026-01-15 22:45:30.57	35.44	14.47	-43.0	-44.5	16.0	0.00e+00	0	33	0	463470592	51	4474
2026-01-15 22:45:34.61	35.97	14.79	-42.9	-44.4	16.0	0.00e+00	0	33	0	476053504	51	4398
2026-01-15 22:45:38.65	36.52	15.12	-42.7	-44.2	16.1	0.00e+00	0	33	0	488636416	51	4306
2026-01-15 22:45:42.69	37.08	15.45	-42.7	-44.1	16.2	0.00e+00	0	33	0	501219328	51	4262
2026-01-15 22:45:46.73	37.66	15.78	-42.9	-44.3	16.1	0.00e+00	0	33	0	513802240	51	4384
2026-01-15 22:45:50.77	38.24	16.11	-43.0	-44.5	16.0	0.00e+00	0	33	0	526385152	51	4449
2026-01-15 22:45:54.80	38.84	16.45	-42.9	-44.3	16.1	0.00e+00	0	33	0	538968064	51	4372
2026-01-15 22:45:58.84	39.45	16.78	-43.3	-44.8	15.9	0.00e+00	0	33	0	552599552	51	4647
2026-01-15 22:46:02.88	40.07	17.12	-43.3	-44.9	15.9	0.00e+00	0	33	0	564133888	51	4666
2026-01-15 22:46:06.92	40.71	17.46	-43.1	-44.6	16.0	0.00e+00	0	33	0	577765376	51	4515
2026-01-15 22:46:10.96	41.36	17.80	-43.0	-44.5	16.0	0.00e+00	0	33	0	590348288	51	4448
2026-01-15 22:46:14.99	42.03	18.14	-43.1	-44.6	16.0	0.00e+00	0	33	0	602931200	51	4537
2026-01-15 22:46:19.03	42.71	18.48	-42.8	-44.2	16.2	0.00e+00	0	33	0	615514112	51	4310
2026-01-15 22:46:23.07	43.41	18.83	-42.6	-43.9	16.2	0.00e+00	0	33	0	628097024	51	4191
2026-01-15 22:46:27.11	44.12	19.17	-42.8	-44.3	16.2	0.00e+00	0	33	0	640679936	51	4351
2026-01-15 22:46:31.15	44.85	19.51	-42.3	-43.6	16.4	0.00e+00	0	33	0	653262848	51	4031
2026-01-15 22:46:35.19	45.59	19.86	-42.2	-43.5	16.5	0.00e+00	0	33	0	665845760	50	4211
2026-01-15 22:46:39.22	46.35	20.20	-42.3	-43.7	16.4	0.00e+00	0	33	0	678428672	50	4293
2026-01-15 22:46:43.26	47.13	20.55	-42.1	-43.4	16.5	0.00e+00	0	33	0	691011584	50	4160
2026-01-15 22:46:47.30	47.92	20.89	-41.8	-43.0	16.6	0.00e+00	0	33	0	703594496	50	4003
2026-01-15 22:46:51.33	48.73	21.23	-41.6	-42.8	16.7	0.00e+00	0	33	0	716177408	49	4139
2026-01-15 22:46:55.37	49.56	21.57	-41.3	-42.5	16.8	0.00e+00	0	33	0	728760320	49	3975
2026-01-15 22:46:59.41	50.41	21.92	-41.2	-42.4	16.8	0.00e+00	0	33	0	741343232	48	4170
2026-01-15 22:47:03.46	51.27	22.25	-41.3	-42.6	16.8	0.00e+00	0	33	0	753926144	48	4249
2026-01-15 22:47:07.50	52.16	22.59	-41.1	-42.3	16.9	0.00e+00	0	33	0	766509056	48	4116
2026-01-15 22:47:11.54	53.06	22.93	-41.2	-42.4	16.8	0.00e+00	0	33	0	779091968	48	4179
2026-01-15 22:47:15.57	53.98	23.26	-41.3	-42.6	16.8	0.00e+00	0	33	0	791674880	48	4246
2026-01-15 22:47:19.61	54.92	23.58	-41.5	-42.7	16.7	0.00e+00	0	33	0	804257792	48	4328
2026-01-15 22:47:23.65	55.88	23.91	-41.5	-42.8	16.7	0.00e+00	0	34	0	816840704	48	4349
2026-01-15 22:47:27.69	56.86	24.23	-41.8	-43.1	16.6	0.00e+00	0	34	0	829423616	48	4506
2026-01-15 22:47:31.73	57.86	24.54	-41.7	-43.0	16.6	0.00e+00	0	33	0	842006528	48	4473
2026-01-15 22:47:35.77	58.88	24.85	-41.9	-43.2	16.6	0.00e+00	0	33	0	854589440	48	4576
2026-01-15 22:47:39.81	59.92	25.15	-42.6	-44.0	16.3	0.00e+00	0	33	0	867172352	50	4449
2026-01-15 22:47:43.85	60.98	25.45	-42.1	-43.4	16.6	0.00e+00	0	33	0	879755264	50	4188
2026-01-15 22:47:47.89	62.06	25.74	-41.9	-43.2	16.7	0.00e+00	0	33	0	892338176	50	4055
2026-01-15 22:47:51.93	63.15	26.02	-42.0	-43.3	16.6	0.00e+00	0	33	0	904921088	50	4106
2026-01-15 22:47:55.97	64.27	26.29	-41.8	-43.0	16.7	0.00e+00	0	33	0	918552576	49	4221
2026-01-15 22:48:00.00	65.40	26.56	-41.8	-43.1	16.7	0.00e+00	0	33	0	931135488	49	4268
2026-01-15 22:48:04.05	66.56	26.81	-41.7	-43.0	16.7	0.00e+00	0	33	0	943718400	49	4223
2026-01-15 22:48:08.09	67.73	27.06	-41.8	-43.0	16.7	0.00e+00	0	33	0	956301312	49	4226
2026-01-15 22:48:12.12	68.91	27.29	-41.7	-43.0	16.7	0.00e+00	0	33	0	968884224	49	4201
2026-01-15 22:48:16.16	70.12	27.52	-42.1	-43.4	16.6	0.00e+00	0	33	0	981467136	49	4403
2026-01-15 22:48:20.20	71.34	27.73	-42.1	-43.4	16.6	0.00e+00	0	33	0	994050048	49	4406
2026-01-15 22:48:24.24	72.58	27.93	-42.0	-43.3	16.6	0.00e+00	0	33	0	1006632960	49	4383
2026-01-15 22:48:28.27	73.83	28.11	-42.2	-43.5	16.5	0.00e+00	0	34	0	1019215872	49	4473
2026-01-15 22:48:32.31	75.10	28.29	-41.9	-43.2	16.7	0.00e+00	0	33	0	1031798784	49	4296
2026-01-15 22:48:36.35	76.38	28.45	-42.1	-43.4	16.6	0.00e+00	0	33	0	1044381696	49	4398
2026-01-15 22:48:40.39	77.67	28.59	-42.1	-43.4	16.6	0.00e+00	0	33	0	1056964608	49	4413
2026-01-15 22:48:44.43	78.97	28.72	-42.3	-43.6	16.5	0.00e+00	0	33	0	1069547520	49	4530
2026-01-15 22:48:48.47	80.28	28.83	-42.3	-43.7	16.5	0.00e+00	0	33	0	1082130432	49	4546
2026-01-15 22:48:52.51	81.60	28.93	-41.8	-43.0	16.7	0.00e+00	0	33	0	1094713344	49	4225
2026-01-15 22:48:56.55	82.93	29.02	-42.2	-43.5	16.5	0.00e+00	0	34	0	1107296256	49	4483
2026-01-15 22:49:00.59	84.27	29.08	-42.1	-43.4	16.6	0.00e+00	0	34	0	1119879168	49	4396
2026-01-15 22:49:04.63	85.61	29.13	-42.0	-43.3	16.6	0.00e+00	0	33	0	1132462080	49	4353
2026-01-15 22:49:08.67	86.95	29.17	-41.9	-43.2	16.6	0.00e+00	0	34	0	1145044992	49	4305
2026-01-15 22:49:12.71	88.29	29.18	-41.8	-43.1	16.7	0.00e+00	0	33	0	1157627904	49	4249
2026-01-15 22:49:16.75	89.64	29.18	-42.2	-43.6	16.5	0.00e+00	0	33	0	1170210816	49	4511
2026-01-15 22:49:20.79	90.99	29.16	-42.4	-43.7	16.5	0.00e+00	0	33	0	1182793728	49	4578
2026-01-15 22:49:24.82	92.33	29.13	-42.3	-43.7	16.5	0.00e+00	0	33	0	1195376640	49	4561
2026-01-15 22:49:28.86	93.67	29.08	-42.4	-43.7	16.5	0.00e+00	0	33	0	1207959552	50	4337
2026-01-15 22:49:32.90	95.00	29.01	-42.1	-43.4	16.6	0.00e+00	0	33	0	1220542464	50	4155
2026-01-15 22:49:36.94	96.33	28.93	-42.1	-43.5	16.6	0.00e+00	0	33	0	1234173952	50	4206
2026-01-15 22:49:40.98	97.65	28.83	-42.1	-43.4	16.6	0.00e+00	0	34	0	1245708288	50	4158
2026-01-15 22:49:45.02	98.97	28.71	-42.0	-43.2	16.7	0.00e+00	0	33	0	1259339776	50	4096
2026-01-15 22:49:49.06	100.27	28.58	-42.0	-43.3	16.7	0.00e+00	0	33	0	1271922688	50	4127
2026-01-15 22:49:53.10	101.56	28.43	-41.8	-43.1	16.7	0.00e+00	0	34	0	1284505600	50	4028
2026-01-15 22:49:57.13	102.84	28.27	-42.1	-43.4	16.6	0.00e+00	0	33	0	1297088512	50	4170
2026-01-15 22:50:01.17	104.11	28.10	-42.1	-43.5	16.5	0.00e+00	0	33	0	1309671424	50	4194
2026-01-15 22:50:05.21	105.36	27.91	-42.0	-43.3	16.7	0.00e+00	0	34	0	1322254336	50	4122
2026-01-15 22:50:09.25	106.60	27.71	-41.9	-43.1	16.7	0.00e+00	0	34	0	1334837248	50	4042
2026-01-15 22:50:13.29	107.83	27.50	-41.8	-43.1	16.7	0.00e+00	0	34	0	1347420160	50	4042
2026-01-15 22:50:17.32	109.03	27.27	-41.7	-43.0	16.8	0.00e+00	0	34	0	1360003072	50	3974
2026-01-15 22:50:21.36	110.22	27.04	-41.6	-42.8	16.8	0.00e+00	0	34	0	1372585984	49	4127
2026-01-15 22:50:25.40	111.39	26.79	-41.8	-43.1	16.7	0.00e+00	0	33	0	1385168896	49	4274
2026-01-15 22:50:29.44	112.55	26.53	-41.7	-42.9	16.8	0.00e+00	0	34	0	1397751808	49	4190
2026-01-15 22:50:33.48	113.68	26.27	-41.7	-42.9	16.8	0.00e+00	0	34	0	1410334720	49	4172
2026-01-15 22:50:37.51	114.80	25.99	-41.9	-43.2	16.7	0.00e+00	0	33	0	1422917632	49	4294
2026-01-15 22:50:41.55	115.90	25.71	-42.1	-43.4	16.6	0.00e+00	0	34	0	1435500544	49	4414
2026-01-15 22:50:45.59	116.98	25.42	-41.7	-43.0	16.8	0.00e+00	0	34	0	1448083456	49	4201
2026-01-15 22:50:49.63	118.04	25.12	-42.1	-43.4	16.6	0.00e+00	0	33	0	1460666368	49	4428
2026-01-15 22:50:53.66	119.08	24.81	-41.8	-43.1	16.7	0.00e+00	0	33	0	1473249280	49	4266
2026-01-15 22:50:57.70	120.10	24.50	-41.4	-42.7	16.9	0.00e+00	0	34	0	1485832192	49	4060
2026-01-15 22:51:01.74	121.10	24.18	-41.7	-42.9	16.8	0.00e+00	0	34	0	1498415104	49	4187
2026-01-15 22:51:05.78	122.08	23.86	-41.7	-43.0	16.7	0.00e+00	0	33	0	1510998016	49	4225
2026-01-15 22:51:09.81	123.04	23.54	-42.0	-43.3	16.7	0.00e+00	0	34	0	1523580928	49	4355
2026-01-15 22:51:13.85	123.98	23.21	-42.0	-43.4	16.6	0.00e+00	0	34	0	1536163840	49	4400
2026-01-15 22:51:17.89	124.91	22.88	-41.8	-43.1	16.7	0.00e+00	0	34	0	1548746752	49	4272
2026-01-15 22:51:21.93	125.81	22.54	-41.7	-42.9	16.8	0.00e+00	0	34	0	1561329664	49	4187
2026-01-15 22:51:25.97	126.70	22.20	-41.5	-42.7	16.8	0.00e+00	0	33	0	1573912576	49	4087
2026-01-15 22:51:30.01	127.56	21.86	-41.3	-42.5	16.9	0.00e+00	0	34	0	1586495488	49	3998
2026-01-15 22:51:34.05	128.41	21.52	-41.8	-43.2	16.6	0.00e+00	0	34	0	1600126976	49	4298
2026-01-15 22:51:38.09	129.24	21.17	-42.0	-43.4	16.5	0.00e+00	0	34	0	1611661312	49	4411
2026-01-15 22:51:42.12	130.05	20.83	-41.8	-43.1	16.6	0.00e+00	0	34	0	1625292800	49	4285
2026-01-15 22:51:46.17	130.85	20.48	-41.8	-43.1	16.6	0.00e+00	0	34	0	1637875712	49	4288
2026-01-15 22:51:50.20	131.62	20.14	-42.0	-43.3	16.5	0.00e+00	0	34	0	1650458624	49	4383
2026-01-15 22:51:54.24	132.39	19.79	-42.0	-43.3	16.5	0.00e+00	0	34	0	1663041536	49	4357
2026-01-15 22:51:58.28	133.13	19.44	-42.0	-43.3	16.6	0.00e+00	0	34	0	1675624448	49	4374
2026-01-15 22:52:02.32	133.86	19.09	-42.2	-43.6	16.4	0.00e+00	0	33	0	1688207360	49	4502
2026-01-15 22:52:06.35	134.57	18.75	-42.3	-43.7	16.4	0.00e+00	0	33	0	1700790272	49	4569
2026-01-15 22:52:10.39	135.27	18.40	-42.4	-43.8	16.4	0.00e+00	0	33	0	1713373184	50	4355
2026-01-15 22:52:14.43	135.95	18.06	-42.2	-43.6	16.5	0.00e+00	0	34	0	1725956096	50	4264
2026-01-15 22:52:18.47	136.61	17.72	-42.3	-43.6	16.5	0.00e+00	0	34	0	1738539008	50	4286
2026-01-15 22:52:22.51	137.27	17.37	-42.1	-43.5	16.5	0.00e+00	0	34	0	1751121920	50	4211
2026-01-15 22:52:26.55	137.91	17.03	-41.9	-43.2	16.6	0.00e+00	0	33	0	1763704832	50	4088
2026-01-15 22:52:30.59	138.53	16.69	-42.1	-43.4	16.5	0.00e+00	0	33	0	1776287744	50	4187
2026-01-15 22:52:34.63	139.14	16.35	-42.3	-43.7	16.4	0.00e+00	0	34	0	1788870656	50	4309
2026-01-15 22:52:38.66	139.74	16.02	-42.2	-43.6	16.4	0.00e+00	0	34	0	1801453568	50	4262
2026-01-15 22:52:42.70	140.32	15.68	-42.2	-43.6	16.4	0.00e+00	0	33	0	1814036480	50	4250
2026-01-15 22:52:46.74	140.90	15.35	-42.5	-44.0	16.3	0.00e+00	0	34	0	1826619392	50	4443
2026-01-15 22:52:50.78	141.46	15.02	-42.6	-44.0	16.2	0.00e+00	0	34	0	1839202304	50	4481
2026-01-15 22:52:54.81	142.00	14.69	-42.6	-44.1	16.2	0.00e+00	0	34	0	1851785216	50	4518
2026-01-15 22:52:58.85	142.54	14.36	-42.8	-44.3	16.1	0.00e+00	0	34	0	1864368128	50	4620
2026-01-15 22:53:02.89	143.07	14.04	-42.8	-44.3	16.1	0.00e+00	0	34	0	1876951040	51	4350
2026-01-15 22:53:06.93	143.58	13.72	-42.8	-44.3	16.1	0.00e+00	0	33	0	1889533952	51	4345
2026-01-15 22:53:10.96	144.09	13.40	-43.0	-44.6	15.9	0.00e+00	0	33	0	1902116864	51	4509
2026-01-15 22:53:15.00	144.58	13.08	-43.1	-44.7	15.9	0.00e+00	0	34	0	1914699776	51	4566
2026-01-15 22:53:19.04	145.06	12.76	-42.9	-44.4	16.0	0.00e+00	0	33	0	1927282688	51	4433
2026-01-15 22:53:23.08	145.54	12.45	-42.9	-44.4	16.0	0.00e+00	0	33	0	1939865600	51	4397
2026-01-15 22:53:27.12	146.00	12.14	-43.1	-44.6	15.9	0.00e+00	0	34	0	1952448512	51	4516
2026-01-15 22:53:31.15	146.46	11.83	-43.2	-44.7	15.9	0.00e+00	0	33	0	1965031424	51	4592
2026-01-15 22:53:35.19	146.90	11.52	-43.0	-44.6	15.9	0.00e+00	0	34	0	1978662912	51	4511
2026-01-15 22:53:39.23	147.34	11.22	-43.0	-44.6	15.9	0.00e+00	0	34	0	1990197248	51	4505
2026-01-15 22:53:43.27	147.77	10.92	-43.2	-44.7	15.8	0.00e+00	0	34	0	2003828736	51	4586
2026-01-15 22:53:47.31	148.19	10.62	-43.3	-44.9	15.7	0.00e+00	0	34	0	2016411648	51	4680
2026-01-15 22:53:51.35	148.60	10.32	-43.4	-45.1	15.6	0.00e+00	0	34	0	2028994560	52	4496
2026-01-15 22:53:55.38	149.01	10.03	-43.4	-45.0	15.7	0.00e+00	0	33	0	2041577472	52	4473
2026-01-15 22:53:59.42	149.40	9.73	-43.4	-45.1	15.6	0.00e+00	0	33	0	2054160384	52	4495
2026-01-15 22:54:03.46	149.79	9.44	-43.5	-45.2	15.6	0.00e+00	0	34	0	2066743296	52	4559
2026-01-15 22:54:07.50	150.18	9.15	-43.6	-45.3	15.5	0.00e+00	0	33	0	2079326208	52	4632
2026-01-15 22:54:11.54	150.55	8.87	-43.5	-45.1	15.6	0.00e+00	0	34	0	2091909120	52	4541
2026-01-15 22:54:15.60	150.92	8.58	-43.5	-45.2	15.5	0.00e+00	0	34	0	2104492032	52	4570
2026-01-15 22:54:19.63	151.28	8.30	-43.5	-45.2	15.5	0.00e+00	0	34	0	2117074944	52	4569
2026-01-15 22:54:23.67	151.64	8.02	-43.4	-45.0	15.6	0.00e+00	0	34	0	2129657856	52	4488
2026-01-15 22:54:27.71	151.98	7.75	-43.7	-45.5	15.3	0.00e+00	0	34	0	2142240768	52	4732
2026-01-15 22:54:31.75	152.33	7.47	-43.9	-45.7	15.2	0.00e+00	0	34	0	2154823680	53	4597
2026-01-15 22:54:35.79	152.66	7.20	-44.0	-45.8	15.1	0.00e+00	0	34	0	2167406592	53	4647
2026-01-15 22:54:39.83	152.99	6.93	-44.3	-46.3	14.8	0.00e+00	0	34	0	2179989504	53	4888
2026-01-15 22:54:43.87	153.32	6.66	-44.2	-46.1	14.9	0.00e+00	0	34	0	2192572416	53	4766
2026-01-15 22:54:47.91	153.64	6.39	-44.5	-46.6	14.6	0.00e+00	0	34	0	2205155328	54	4765
2026-01-15 22:54:51.94	153.95	6.13	-44.1	-46.1	14.9	0.00e+00	0	34	0	2217738240	54	4499
2026-01-15 22:54:55.98	154.26	5.86	-44.4	-46.5	14.6	0.00e+00	0	34	0	2230321152	54	4725
2026-01-15 22:55:00.02	154.56	5.60	-44.4	-46.4	14.6	0.00e+00	0	34	0	2242904064	54	4673
2026-01-15 22:55:04.06	154.86	5.34	-44.9	-47.1	14.2	0.00e+00	0	34	0	2255486976	55	4767
2026-01-15 22:55:08.09	155.15	5.09	-44.5	-46.5	14.5	0.00e+00	0	34	0	2268069888	55	4490
2026-01-15 22:55:12.13	155.44	4.83	-50.9	-65.0	3.8	1.49e+00	0	34	104	2273312768	67	18772
2026-01-15 22:55:16.17	155.72	4.58	-51.4	-65.4	3.8	1.49e+00	0	34	104	2273312768	67	19687
2026-01-15 22:55:20.21	156.00	4.33	-51.8	-65.8	3.8	1.49e+00	0	34	104	2273312768	68	19487
2026-01-15 22:55:24.25	156.28	4.08	-52.0	-66.0	3.8	1.49e+00	0	34	104	2273312768	69	18824
2026-01-15 22:55:28.28	156.55	3.83	-52.0	-66.0	3.8	1.49e+00	0	34	104	2273312768	69	18933
2026-01-15 22:55:32.32	156.81	3.59	-52.0	-66.0	3.8	1.49e+00	0	34	104	2273312768	69	18849
2026-01-15 22:55:36.35	157.07	3.34	-51.9	-66.0	3.8	1.49e+00	0	34	104	2273312768	69	18760
2026-01-15 22:55:40.39	157.33	3.10	-51.9	-65.9	3.8	1.49e+00	0	34	104	2273312768	69	18705
2026-01-15 22:55:44.43	157.58	2.86	-51.9	-65.9	3.8	1.49e+00	0	34	104	2273312768	69	18673
2026-01-15 22:55:48.47	157.83	2.62	-51.9	-65.9	3.8	1.49e+00	0	34	104	2273312768	69	18641
2026-01-15 22:55:52.51	158.08	2.38	-51.9	-65.9	3.8	1.49e+00	0	34	104	2273312768	69	18583
2026-01-15 22:55:56.54	158.32	2.15	-38.7	-63.8	3.7	1.52e+00	0	34	104	2273312768	43	65392

#Closed at: 2026-01-15 22:55:59
#Recorded file [2273 MB]: D:/lorett/data/31004_260116_014228.dat