passes_logs/2026/01/15/R3.2S_Murmansk_2ch/R3.2S_Murmansk_2ch__20260115_194603_TY-39_rec.log

#Pass ID: 20260115_194603_TY-39
#Satellite: TY-39
#Configuration: TY-39
#almurnet v.1.7.20251203
#Start time: 2026-01-15 19:46:04

#Version: 2.2.20231116
#Station: R3.2S_Murmansk_2ch
#Location: 33.079688 lon 68.888172 lat
#TLE: 1 51832U 22019J   26014.95856198  .00001434  00000-0  70377-4 0  9997
#TLE: 2 51832  97.3654  81.6497 0010051  52.2384 307.9760 15.19636883214527

#Time	Az	El	Level	Level2	SNR	BER	BlckErr	Temp	State	Recorded	gain1	gain2
2026-01-15 19:46:04.99	201.18	2.09	-49.6	-52.8	3.7	0.00e+00	0	35	0	0	66	20192
2026-01-15 19:46:08.01	201.42	2.28	-49.6	-52.8	3.7	0.00e+00	0	35	104	0	66	20225
2026-01-15 19:46:11.04	201.66	2.47	-49.6	-52.8	3.7	0.00e+00	0	35	104	0	66	20214
2026-01-15 19:46:14.06	201.91	2.67	-49.6	-52.8	3.7	0.00e+00	0	35	104	0	66	20228
2026-01-15 19:46:17.09	202.17	2.87	-49.6	-52.8	3.7	0.00e+00	0	36	104	0	66	20248
2026-01-15 19:46:20.12	202.43	3.07	-49.6	-52.8	3.7	0.00e+00	0	36	104	0	66	20304
2026-01-15 19:46:23.15	202.69	3.27	-49.6	-52.8	3.7	0.00e+00	0	36	104	0	66	20287
2026-01-15 19:46:26.18	202.96	3.47	-49.7	-52.8	3.7	0.00e+00	0	36	104	0	66	20368
2026-01-15 19:46:29.21	203.23	3.68	-49.7	-52.8	3.7	0.00e+00	0	36	104	0	66	20358
2026-01-15 19:46:32.23	203.50	3.88	-49.7	-52.9	3.7	0.00e+00	0	36	104	0	66	20405
2026-01-15 19:46:35.26	203.78	4.09	-49.7	-52.8	3.7	0.00e+00	0	36	104	0	66	20351
2026-01-15 19:46:38.29	204.07	4.30	-49.7	-52.8	3.7	0.00e+00	0	36	104	0	66	20357
2026-01-15 19:46:41.32	204.36	4.51	-49.7	-52.8	3.7	0.00e+00	0	37	104	0	66	20351
2026-01-15 19:46:44.34	204.66	4.72	-49.7	-52.8	3.7	0.00e+00	0	37	104	0	66	20365
2026-01-15 19:46:47.37	204.96	4.94	-49.7	-52.8	3.7	0.00e+00	0	37	104	0	66	20365
2026-01-15 19:46:50.40	205.27	5.16	-49.8	-52.9	3.7	0.00e+00	0	37	104	0	66	20592
2026-01-15 19:46:53.43	205.58	5.37	-49.7	-52.9	3.7	0.00e+00	0	37	104	0	66	20462
2026-01-15 19:46:56.46	205.90	5.59	-49.7	-52.9	3.7	0.00e+00	0	37	104	0	66	20399
2026-01-15 19:46:59.49	206.22	5.82	-49.8	-53.0	3.7	0.00e+00	0	37	104	0	66	20689
2026-01-15 19:47:02.51	206.55	6.04	-49.9	-53.1	3.7	0.00e+00	0	37	104	0	66	20875
2026-01-15 19:47:05.54	206.89	6.26	-49.9	-53.0	3.7	0.00e+00	0	37	104	0	66	20849
2026-01-15 19:47:08.57	207.23	6.49	-41.3	-41.9	5.2	0.00e+00	146	37	104	0	48	16324
2026-01-15 19:47:11.60	207.58	6.72	-36.6	-36.9	11.9	3.46e-05	0	38	0	201326592	40	14571
2026-01-15 19:47:14.63	207.94	6.95	-36.0	-36.4	12.2	6.90e-06	0	38	0	427819008	38	15320
2026-01-15 19:47:17.66	208.30	7.19	-35.9	-36.3	12.3	0.00e+00	0	38	0	654311424	38	15141
2026-01-15 19:47:20.68	208.67	7.42	-35.6	-35.9	12.5	0.00e+00	0	38	0	880803840	38	14467
2026-01-15 19:47:23.71	209.05	7.66	-35.9	-36.3	12.3	0.00e+00	0	38	0	1107296256	38	15130
2026-01-15 19:47:26.74	209.43	7.90	-35.6	-35.9	12.6	0.00e+00	0	38	0	1333788672	38	14469
2026-01-15 19:47:29.77	209.82	8.14	-35.7	-36.0	12.5	0.00e+00	0	38	0	1560281088	38	14653
2026-01-15 19:47:32.80	210.23	8.39	-35.5	-35.8	12.6	0.00e+00	0	38	0	1795162112	38	14395
2026-01-15 19:47:35.83	210.63	8.63	-35.4	-35.7	12.7	0.00e+00	0	39	0	2013265920	37	15024
2026-01-15 19:47:38.85	211.05	8.88	-35.2	-35.5	12.8	0.00e+00	0	39	0	2248146944	37	14760
2026-01-15 19:47:41.88	211.48	9.13	-35.3	-35.6	12.8	0.00e+00	0	39	0	2466250752	37	14797
2026-01-15 19:47:44.91	211.91	9.38	-35.3	-35.6	12.8	0.00e+00	0	39	0	2701131776	37	14818
2026-01-15 19:47:47.94	212.36	9.64	-35.1	-35.4	12.9	0.00e+00	0	39	0	2927624192	37	14569
2026-01-15 19:47:50.97	212.81	9.90	-34.8	-35.1	13.0	0.00e+00	0	39	0	3154116608	36	14932
2026-01-15 19:47:54.00	213.27	10.16	-35.0	-35.3	12.9	0.00e+00	0	39	0	3380609024	36	15216
2026-01-15 19:47:57.03	213.74	10.42	-35.0	-35.3	13.0	0.00e+00	0	39	0	3607101440	36	15194
2026-01-15 19:48:00.06	214.23	10.68	-34.9	-35.2	13.0	0.00e+00	0	39	0	3833593856	36	14995
2026-01-15 19:48:03.09	214.72	10.95	-34.8	-35.1	13.1	6.90e-06	0	39	0	4060086272	36	14818
2026-01-15 19:48:06.11	215.22	11.22	-34.8	-35.0	13.1	0.00e+00	0	39	0	4286578688	36	14747
2026-01-15 19:48:09.14	215.74	11.49	-34.6	-34.8	13.2	0.00e+00	0	39	0	4513071104	36	14428
2026-01-15 19:48:12.17	216.27	11.76	-34.5	-34.8	13.3	0.00e+00	0	39	0	4739563520	36	14359
2026-01-15 19:48:15.20	216.81	12.03	-31.8	-32.1	13.2	0.00e+00	0	39	0	4974444544	30	14946
2026-01-15 19:48:18.23	217.36	12.31	-31.7	-32.0	13.3	0.00e+00	0	39	0	5192548352	30	14724
2026-01-15 19:48:21.26	217.92	12.59	-31.6	-31.9	13.3	0.00e+00	0	39	0	5427429376	30	14552
2026-01-15 19:48:24.29	218.49	12.87	-31.6	-31.8	13.4	0.00e+00	0	39	0	5653921792	30	14411
2026-01-15 19:48:27.32	219.08	13.15	-31.5	-31.7	13.4	0.00e+00	0	39	0	5880414208	30	14242
2026-01-15 19:48:30.35	219.68	13.44	-31.4	-31.6	13.4	0.00e+00	0	40	0	6106906624	29	14945
2026-01-15 19:48:33.38	220.30	13.73	-31.3	-31.6	13.5	0.00e+00	0	40	0	6333399040	29	14863
2026-01-15 19:48:36.40	220.93	14.01	-31.1	-31.3	13.6	0.00e+00	0	40	0	6559891456	29	14421
2026-01-15 19:48:39.43	221.57	14.30	-31.0	-31.3	13.6	0.00e+00	0	40	0	6786383872	29	14366
2026-01-15 19:48:42.46	222.23	14.60	-31.2	-31.4	13.6	0.00e+00	0	40	0	7012876288	29	14553
2026-01-15 19:48:45.49	222.90	14.89	-31.0	-31.2	13.6	0.00e+00	0	40	0	7239368704	28	15098
2026-01-15 19:48:48.52	223.59	15.18	-30.8	-31.1	13.7	0.00e+00	0	40	0	7465861120	28	14862
2026-01-15 19:48:51.55	224.30	15.48	-30.8	-31.1	13.7	0.00e+00	0	40	0	7700742144	28	14822
2026-01-15 19:48:54.58	225.02	15.77	-30.7	-31.0	13.7	0.00e+00	0	40	0	7918845952	28	14670
2026-01-15 19:48:57.60	225.76	16.07	-30.7	-31.0	13.7	0.00e+00	0	40	0	8153726976	28	14647
2026-01-15 19:49:00.63	226.51	16.37	-30.4	-30.7	13.9	0.00e+00	0	40	0	8380219392	28	14211
2026-01-15 19:49:03.66	227.28	16.67	-30.4	-30.7	13.9	0.00e+00	0	40	0	8606711808	27	14997
2026-01-15 19:49:06.69	228.07	16.97	-30.3	-30.6	13.9	0.00e+00	0	40	0	8833204224	27	14873
2026-01-15 19:49:09.72	228.88	17.26	-30.2	-30.5	14.0	0.00e+00	0	40	0	9059696640	27	14717
2026-01-15 19:49:12.75	229.71	17.56	-30.1	-30.4	14.0	0.00e+00	0	40	0	9286189056	27	14522
2026-01-15 19:49:15.78	230.55	17.86	-30.1	-30.4	14.0	0.00e+00	0	40	0	9512681472	27	14494
2026-01-15 19:49:18.81	231.42	18.16	-30.0	-30.3	14.0	0.00e+00	0	40	0	9739173888	27	14322
2026-01-15 19:49:21.84	232.30	18.45	-30.0	-30.2	14.0	0.00e+00	0	40	0	9965666304	27	14243
2026-01-15 19:49:24.86	233.20	18.74	-29.9	-30.1	14.0	0.00e+00	0	40	0	10192158720	26	14939
2026-01-15 19:49:27.89	234.13	19.04	-29.7	-30.0	14.1	0.00e+00	0	40	0	10418651136	26	14625
2026-01-15 19:49:30.92	235.07	19.33	-29.6	-29.9	14.1	0.00e+00	0	40	0	10645143552	26	14497
2026-01-15 19:49:33.95	236.03	19.61	-29.7	-29.9	14.1	0.00e+00	0	40	0	10880024576	26	14587
2026-01-15 19:49:36.98	237.02	19.90	-29.6	-29.9	14.2	0.00e+00	0	40	0	11106516992	26	14480
2026-01-15 19:49:40.00	238.02	20.17	-29.5	-29.7	14.2	0.00e+00	0	40	0	11333009408	26	14273
2026-01-15 19:49:43.03	239.04	20.45	-29.4	-29.7	14.2	0.00e+00	0	40	0	11559501824	26	14151
2026-01-15 19:49:46.06	240.09	20.72	-29.3	-29.5	14.3	0.00e+00	0	40	0	11785994240	25	14729
2026-01-15 19:49:49.09	241.15	20.99	-29.3	-29.6	14.2	0.00e+00	0	40	0	12012486656	25	14855
2026-01-15 19:49:52.12	242.24	21.25	-29.3	-29.5	14.3	0.00e+00	0	40	0	12238979072	25	14739
2026-01-15 19:49:55.15	243.34	21.50	-29.1	-29.4	14.3	0.00e+00	0	40	0	12465471488	25	14465
2026-01-15 19:49:58.18	244.47	21.75	-29.1	-29.4	14.3	0.00e+00	0	40	0	12691963904	25	14531
2026-01-15 19:50:01.20	245.61	21.98	-29.0	-29.2	14.4	0.00e+00	0	41	0	12918456320	25	14193
2026-01-15 19:50:04.23	246.78	22.21	-29.0	-29.2	14.4	0.00e+00	0	40	0	13144948736	25	14262
2026-01-15 19:50:07.26	247.96	22.44	-29.0	-29.3	14.4	0.00e+00	0	40	0	13371441152	25	14312
2026-01-15 19:50:10.29	249.16	22.65	-28.8	-29.1	14.4	0.00e+00	0	40	0	13597933568	24	14783
2026-01-15 19:50:13.32	250.38	22.85	-28.8	-29.0	14.4	0.00e+00	0	40	0	13832814592	24	14731
2026-01-15 19:50:16.35	251.62	23.05	-28.9	-29.1	14.4	0.00e+00	0	40	0	14059307008	24	14927
2026-01-15 19:50:19.37	252.87	23.23	-28.7	-28.9	14.4	0.00e+00	0	40	0	14285799424	24	14591
2026-01-15 19:50:22.40	254.14	23.40	-28.8	-29.0	14.4	0.00e+00	0	40	0	14512291840	24	14702
2026-01-15 19:50:25.43	255.42	23.56	-28.8	-29.0	14.4	0.00e+00	0	40	0	14738784256	24	14718
2026-01-15 19:50:28.46	256.72	23.70	-28.7	-28.9	14.5	0.00e+00	0	40	0	14965276672	24	14537
2026-01-15 19:50:31.49	258.03	23.84	-28.6	-28.8	14.5	0.00e+00	0	40	0	15191769088	24	14438
2026-01-15 19:50:34.52	259.35	23.95	-28.6	-28.8	14.5	0.00e+00	0	40	0	15418261504	24	14399
2026-01-15 19:50:37.54	260.68	24.06	-28.6	-28.8	14.5	0.00e+00	0	40	0	15644753920	24	14390
2026-01-15 19:50:40.57	262.02	24.15	-28.4	-28.7	14.5	0.00e+00	0	40	0	15871246336	24	14154
2026-01-15 19:50:43.60	263.37	24.23	-28.5	-28.7	14.5	0.00e+00	0	40	0	16097738752	24	14258
2026-01-15 19:50:46.63	264.72	24.29	-28.5	-28.7	14.5	0.00e+00	0	40	0	16324231168	24	14217
2026-01-15 19:50:49.66	266.08	24.33	-28.5	-28.7	14.5	0.00e+00	0	41	0	16559112192	24	14202
2026-01-15 19:50:52.69	267.45	24.36	-28.4	-28.7	14.5	0.00e+00	0	40	0	16777216000	24	14179
2026-01-15 19:50:55.72	268.81	24.38	-28.5	-28.8	14.5	0.00e+00	0	40	0	17012097024	24	14334
2026-01-15 19:50:58.75	270.18	24.38	-28.6	-28.8	14.5	0.00e+00	0	40	0	17238589440	24	14365
2026-01-15 19:51:01.78	271.54	24.36	-28.6	-28.8	14.5	0.00e+00	0	40	0	17465081856	24	14401
2026-01-15 19:51:04.81	272.90	24.33	-28.6	-28.8	14.5	0.00e+00	0	40	0	17691574272	24	14368
2026-01-15 19:51:07.83	274.26	24.29	-28.6	-28.8	14.5	0.00e+00	0	40	0	17918066688	24	14437
2026-01-15 19:51:10.86	275.61	24.22	-28.7	-29.0	14.5	0.00e+00	0	40	0	18144559104	24	14610
2026-01-15 19:51:13.89	276.96	24.15	-28.8	-29.0	14.5	0.00e+00	0	40	0	18371051520	24	14738
2026-01-15 19:51:16.92	278.30	24.06	-28.7	-29.0	14.5	0.00e+00	0	40	0	18597543936	24	14628
2026-01-15 19:51:19.95	279.63	23.95	-28.8	-29.0	14.4	0.00e+00	0	40	0	18824036352	24	14726
2026-01-15 19:51:22.97	280.94	23.83	-28.8	-29.0	14.5	0.00e+00	0	40	0	19050528768	24	14737
2026-01-15 19:51:26.01	282.25	23.70	-28.9	-29.2	14.4	0.00e+00	0	40	0	19285409792	24	15023
2026-01-15 19:51:29.03	283.54	23.55	-28.9	-29.1	14.5	0.00e+00	0	41	0	19503513600	24	14863
2026-01-15 19:51:32.06	284.82	23.40	-28.9	-29.2	14.5	0.00e+00	0	41	0	19738394624	24	14989
2026-01-15 19:51:35.09	286.08	23.23	-29.0	-29.2	14.4	0.00e+00	0	40	0	19956498432	24	15090
2026-01-15 19:51:38.12	287.33	23.04	-28.9	-29.2	14.5	0.00e+00	0	41	0	20191379456	24	15018
2026-01-15 19:51:41.14	288.56	22.85	-29.1	-29.3	14.4	0.00e+00	0	40	0	20417871872	24	15239
2026-01-15 19:51:44.17	289.78	22.65	-29.1	-29.4	14.4	0.00e+00	0	40	0	20644364288	24	15322
2026-01-15 19:51:47.20	290.97	22.44	-29.2	-29.4	14.4	0.00e+00	0	40	0	20870856704	24	15417
2026-01-15 19:51:50.23	292.15	22.22	-29.2	-29.5	14.4	0.00e+00	0	40	0	21097349120	24	15488
2026-01-15 19:51:53.26	293.31	21.99	-29.3	-29.5	14.4	0.00e+00	0	40	0	21323841536	24	15635
2026-01-15 19:51:56.29	294.45	21.75	-29.4	-29.6	14.3	0.00e+00	0	41	0	21550333952	24	15796
2026-01-15 19:51:59.32	295.57	21.50	-29.4	-29.7	14.4	0.00e+00	0	41	0	21776826368	24	15863
2026-01-15 19:52:02.35	296.67	21.25	-29.5	-29.8	14.3	0.00e+00	0	40	0	22003318784	24	16123
2026-01-15 19:52:05.38	297.75	20.99	-29.6	-29.9	14.3	0.00e+00	0	41	0	22229811200	25	15388
2026-01-15 19:52:08.40	298.81	20.73	-29.6	-29.9	14.3	0.00e+00	0	41	0	22464692224	25	15302
2026-01-15 19:52:11.43	299.85	20.46	-29.7	-29.9	14.3	0.00e+00	0	41	0	22682796032	25	15422
2026-01-15 19:52:14.46	300.87	20.19	-29.8	-30.0	14.3	0.00e+00	0	41	0	22917677056	25	15618
2026-01-15 19:52:17.49	301.86	19.91	-29.8	-30.1	14.3	0.00e+00	0	40	0	23144169472	25	15743
2026-01-15 19:52:20.52	302.84	19.63	-29.9	-30.2	14.2	0.00e+00	0	41	0	23370661888	25	15860
2026-01-15 19:52:23.54	303.80	19.34	-30.0	-30.3	14.2	0.00e+00	0	41	0	23597154304	25	16017
2026-01-15 19:52:26.57	304.73	19.06	-30.2	-30.5	14.1	0.00e+00	0	41	0	23823646720	26	15474
2026-01-15 19:52:29.60	305.65	18.77	-30.2	-30.5	14.1	0.00e+00	0	41	0	24050139136	26	15532
2026-01-15 19:52:32.63	306.55	18.48	-30.3	-30.5	14.1	0.00e+00	0	41	0	24276631552	26	15648
2026-01-15 19:52:35.66	307.43	18.18	-30.4	-30.7	14.1	0.00e+00	0	41	0	24503123968	26	15923
2026-01-15 19:52:38.69	308.29	17.89	-30.5	-30.7	14.1	0.00e+00	0	41	0	24729616384	27	15105
2026-01-15 19:52:41.71	309.12	17.60	-30.6	-30.9	14.0	0.00e+00	0	41	0	24956108800	27	15328
2026-01-15 19:52:44.74	309.95	17.30	-30.6	-30.9	14.0	0.00e+00	0	41	0	25182601216	27	15369
2026-01-15 19:52:47.77	310.75	17.00	-30.7	-31.0	14.0	0.00e+00	0	41	0	25409093632	27	15496
2026-01-15 19:52:50.80	311.53	16.71	-30.7	-31.0	14.0	0.00e+00	0	41	0	25643974656	27	15540
2026-01-15 19:52:53.83	312.30	16.41	-31.0	-31.2	13.9	0.00e+00	0	41	0	25862078464	27	15989
2026-01-15 19:52:56.86	313.05	16.12	-30.9	-31.2	13.9	0.00e+00	0	41	0	26096959488	27	15882
2026-01-15 19:52:59.89	313.79	15.82	-31.0	-31.3	13.8	0.00e+00	0	41	0	26315063296	27	16020
2026-01-15 19:53:02.91	314.50	15.53	-31.0	-31.3	13.8	0.00e+00	0	41	0	26549944320	27	16028
2026-01-15 19:53:05.94	315.20	15.24	-31.0	-31.3	13.8	0.00e+00	0	41	0	26776436736	28	15195
2026-01-15 19:53:08.97	315.89	14.94	-31.2	-31.5	13.7	0.00e+00	0	41	0	27002929152	28	15614
2026-01-15 19:53:12.00	316.56	14.65	-31.2	-31.4	13.8	0.00e+00	0	41	0	27229421568	28	15470
2026-01-15 19:53:15.02	317.21	14.37	-31.3	-31.6	13.7	0.00e+00	0	41	0	27455913984	28	15767
2026-01-15 19:53:18.05	317.85	14.08	-31.5	-31.7	13.7	0.00e+00	0	41	0	27682406400	28	16009
2026-01-15 19:53:21.08	318.48	13.79	-31.5	-31.8	13.6	0.00e+00	0	41	0	27908898816	28	16044
2026-01-15 19:53:24.11	319.09	13.51	-31.6	-31.9	13.6	0.00e+00	0	41	0	28135391232	28	16272
2026-01-15 19:53:27.14	319.69	13.22	-31.7	-32.0	13.5	0.00e+00	0	41	0	28361883648	29	15594
2026-01-15 19:53:30.16	320.27	12.95	-31.8	-32.1	13.5	0.00e+00	0	41	0	28588376064	29	15671
2026-01-15 19:53:33.19	320.85	12.67	-31.8	-32.1	13.5	0.00e+00	0	41	0	28814868480	29	15710
2026-01-15 19:53:36.22	321.41	12.39	-32.0	-32.3	13.4	0.00e+00	0	41	0	29049749504	29	16037
2026-01-15 19:53:39.25	321.95	12.12	-32.0	-32.3	13.4	0.00e+00	0	41	0	29276241920	29	16076
2026-01-15 19:53:42.28	322.49	11.84	-32.0	-32.3	13.4	0.00e+00	0	41	0	29502734336	30	15202
2026-01-15 19:53:45.31	323.01	11.57	-32.3	-32.5	13.3	0.00e+00	0	41	0	29729226752	30	15605
2026-01-15 19:53:48.33	323.53	11.30	-32.4	-32.7	13.2	0.00e+00	0	41	0	29955719168	30	15977
2026-01-15 19:53:51.36	324.03	11.04	-32.3	-32.6	13.3	0.00e+00	0	41	0	30182211584	30	15690
2026-01-15 19:53:54.39	324.52	10.77	-32.4	-32.7	13.2	0.00e+00	0	41	0	30408704000	30	15885
2026-01-15 19:53:57.26	324.98	10.53	-32.6	-32.9	13.1	0.00e+00	0	41	0	30635196416	31	15411
2026-01-15 19:54:00.43	325.47	10.25	-32.6	-32.9	13.1	0.00e+00	0	41	0	30870077440	31	15340
2026-01-15 19:54:03.32	325.91	10.01	-32.9	-33.2	12.9	0.00e+00	0	41	0	31088181248	31	15951
2026-01-15 19:54:06.49	326.38	9.74	-32.7	-33.0	13.0	0.00e+00	0	41	0	31331450880	31	15604
2026-01-15 19:54:09.37	326.80	9.50	-32.7	-33.0	13.0	0.00e+00	0	41	0	31541166080	31	15521
2026-01-15 19:54:12.55	327.26	9.24	-33.0	-33.3	12.9	0.00e+00	0	41	0	31784435712	31	16060
2026-01-15 19:54:15.43	327.66	9.00	-33.1	-33.4	12.8	0.00e+00	0	41	0	31994150912	32	15380
2026-01-15 19:54:18.60	328.10	8.74	-33.3	-33.6	12.8	0.00e+00	0	41	0	32237420544	32	15681
2026-01-15 19:54:21.49	328.49	8.51	-33.3	-33.6	12.7	0.00e+00	0	41	0	32447135744	32	15788
2026-01-15 19:54:24.66	328.91	8.26	-33.5	-33.8	12.6	6.90e-06	0	41	0	32690405376	32	16052
2026-01-15 19:54:27.55	329.28	8.03	-33.4	-33.7	12.6	6.90e-06	0	41	0	32908509184	32	15934
2026-01-15 19:54:30.72	329.68	7.78	-33.9	-34.2	12.4	0.00e+00	0	41	0	33143390208	33	15853
2026-01-15 19:54:33.60	330.04	7.55	-34.6	-34.9	12.0	6.90e-06	0	41	0	33361494016	35	15368
2026-01-15 19:54:36.78	330.43	7.31	-34.2	-34.6	12.2	2.77e-05	0	41	0	33596375040	35	14777
2026-01-15 19:54:39.66	330.77	7.09	-34.1	-34.4	12.3	6.90e-06	0	41	0	33814478848	35	14546
2026-01-15 19:54:42.83	331.15	6.85	-34.1	-34.5	12.2	6.90e-06	0	41	0	34049359872	35	14649
2026-01-15 19:54:45.72	331.48	6.63	-33.9	-34.2	12.3	4.16e-05	0	41	0	34267463680	35	14219
2026-01-15 19:54:48.89	331.84	6.39	-34.1	-34.4	12.2	1.38e-05	0	41	0	34502344704	34	15468
2026-01-15 19:54:51.77	332.16	6.18	-34.4	-34.7	12.0	6.90e-06	0	41	0	34720448512	34	15973
2026-01-15 19:54:54.95	332.51	5.95	-34.7	-35.1	11.7	3.46e-05	0	41	0	34963718144	35	15680
2026-01-15 19:54:57.83	332.81	5.74	-34.2	-34.6	12.0	6.24e-05	0	41	0	35173433344	35	14782
2026-01-15 19:55:01.00	333.15	5.51	-34.5	-34.8	11.8	2.77e-05	0	41	0	35416702976	35	15249
2026-01-15 19:55:03.89	333.45	5.30	-34.9	-35.2	11.6	4.16e-05	0	41	0	35634806784	35	15968
2026-01-15 19:55:07.06	333.77	5.08	-49.9	-53.0	3.7	8.32e-05	0	41	104	35802578944	65	22042
2026-01-15 19:55:09.95	334.05	4.87	-50.6	-53.8	3.7	8.32e-05	0	40	104	35802578944	67	21402
2026-01-15 19:55:13.12	334.37	4.65	-51.2	-54.3	3.7	8.32e-05	0	40	104	35802578944	68	21474
2026-01-15 19:55:16.00	334.64	4.45	-51.4	-54.6	3.7	8.32e-05	0	40	104	35802578944	68	22119
2026-01-15 19:55:19.18	334.94	4.23	-51.6	-54.7	3.7	8.32e-05	0	40	104	35802578944	68	22562
2026-01-15 19:55:22.06	335.21	4.04	-51.6	-54.7	3.7	8.32e-05	0	40	104	35802578944	69	21336
2026-01-15 19:55:25.24	335.50	3.82	-51.6	-54.8	3.7	8.32e-05	0	40	104	35802578944	69	21377
2026-01-15 19:55:28.12	335.76	3.63	-51.6	-54.7	3.7	8.32e-05	0	40	104	35802578944	69	21291
2026-01-15 19:55:31.29	336.04	3.42	-51.5	-54.6	3.7	8.32e-05	0	40	104	35802578944	69	21100
2026-01-15 19:55:34.17	336.29	3.23	-51.5	-54.6	3.7	8.32e-05	0	40	104	35802578944	69	21045
2026-01-15 19:55:37.34	336.56	3.02	-51.4	-54.6	3.7	8.32e-05	0	40	104	35802578944	69	20959
2026-01-15 19:55:40.23	336.81	2.83	-51.4	-54.6	3.7	8.32e-05	0	40	104	35802578944	69	20882
2026-01-15 19:55:43.40	337.07	2.63	-51.4	-54.5	3.7	8.32e-05	0	40	104	35802578944	69	20800
2026-01-15 19:55:46.29	337.30	2.44	-51.4	-54.5	3.7	8.32e-05	0	40	104	35802578944	69	20777
2026-01-15 19:55:49.46	337.56	2.24	-51.4	-54.5	3.7	8.32e-05	0	40	104	35802578944	69	20777
2026-01-15 19:55:52.34	337.79	2.06	-51.4	-54.5	3.7	8.32e-05	0	40	104	35802578944	69	20751

#Closed at: 2026-01-15 19:55:55
#Recorded file [35802 MB]: D:/lorett/data/31004_260115_224604.dat