passes_logs/2025/01/02/X_MFTI_02/X_MFTI_02__20250102_011108_FENGYUN_3D_rec.log

#Pass ID: 20250102_011108_FENGYUN 3D
#Satellite: FENGYUN 3D
#Configuration: FENGYUN 3D
#Start time: 2025-01-02 01:11:05

#Version: 1.5.20200625
#Station: X_MFTI_02
#Location: 37.5186 lon 55.9291 lat
#TLE: 1 43010U 17072A   23362.50642187  .00000183  00000+0  10870-3 0  9994
#TLE: 2 43010  98.8887 311.3857 0002475  98.0400 262.1057 14.19259665317063

#Time	Az	El	Level	Level2	SNR	BER	Gain	Gain2
2025-01-02 01:11:05.36	5.98	68.83	-69.9	-88.7	3.7	8457698	99	31545
2025-01-02 01:11:05.77	5.86	69.02	-69.8	-88.9	3.9	8460021	99	32479
2025-01-02 01:11:06.18	5.73	69.20	-69.6	-88.9	3.9	8461681	98	33193
2025-01-02 01:11:06.59	5.61	69.38	-68.6	-87.7	3.8	8456817	98	32632
2025-01-02 01:11:07.01	5.47	69.57	-68.5	-87.8	3.8	8458259	98	33174
2025-01-02 01:11:07.42	5.34	69.76	-68.6	-88.0	3.8	8457984	98	33479
2025-01-02 01:11:07.84	5.20	69.95	-68.6	-87.9	3.8	8473640	98	33404
2025-01-02 01:11:08.26	5.06	70.14	-68.6	-87.7	3.8	8459884	98	32765
2025-01-02 01:11:08.67	4.92	70.33	-68.6	-87.9	3.8	8458316	98	33417
2025-01-02 01:11:09.08	4.78	70.51	-69.2	-88.3	3.9	8464679	99	32375
2025-01-02 01:11:09.50	4.63	70.70	-68.7	-88.1	3.9	8454826	98	33282
2025-01-02 01:11:09.91	4.48	70.89	-68.8	-87.6	3.8	8463054	98	31561
2025-01-02 01:11:10.33	4.32	71.08	-69.8	-88.7	3.8	8458145	99	31639
2025-01-02 01:11:10.74	4.16	71.27	-68.8	-88.1	4.0	8456050	98	33030
2025-01-02 01:11:11.16	4.00	71.46	-69.8	-88.7	3.8	8464153	99	31919
2025-01-02 01:11:11.57	3.84	71.65	-69.4	-88.3	3.8	8466785	99	31943
2025-01-02 01:11:11.99	3.67	71.84	-68.6	-87.9	3.9	8464977	98	33261
2025-01-02 01:11:12.40	3.50	72.03	-70.2	-90.2	3.8	8465148	99	36017
2025-01-02 01:11:12.82	3.32	72.22	-69.8	-88.4	3.8	8454151	99	30716
2025-01-02 01:11:13.23	3.14	72.41	-69.8	-88.6	3.8	8463123	99	31284
2025-01-02 01:11:13.65	2.95	72.60	-69.9	-88.8	3.8	8455581	99	31627
2025-01-02 01:11:14.06	2.76	72.79	-69.9	-89.2	3.6	8457572	99	33423
2025-01-02 01:11:14.48	2.57	72.98	-69.8	-88.5	3.8	8450786	99	30930
2025-01-02 01:11:14.89	2.37	73.17	-69.9	-88.8	3.8	8460273	99	31601
2025-01-02 01:11:15.31	2.17	73.37	-69.9	-88.7	3.8	8457881	99	31651
2025-01-02 01:11:15.72	1.96	73.55	-70.2	-90.0	3.7	8453956	99	35154
2025-01-02 01:11:16.14	1.74	73.75	-69.9	-88.6	3.8	8452617	99	31137
2025-01-02 01:11:16.56	1.52	73.94	-69.7	-88.6	3.8	8460411	99	31530
2025-01-02 01:11:16.97	1.30	74.13	-68.7	-88.0	3.9	8466751	98	33144
2025-01-02 01:11:17.39	1.07	74.32	-68.7	-88.0	3.9	8455341	98	32908
2025-01-02 01:11:17.81	0.83	74.52	-68.7	-87.8	3.7	8456428	98	32499
2025-01-02 01:11:18.22	0.59	74.71	-67.4	-86.8	3.7	8456005	97	33684
2025-01-02 01:11:18.63	0.34	74.90	-68.6	-88.3	3.7	8461772	97	34596
2025-01-02 01:11:19.05	0.08	75.09	-69.9	-88.4	3.8	8465526	99	30052
2025-01-02 01:11:19.47	359.82	75.29	-69.8	-88.6	3.8	8453132	99	31490
2025-01-02 01:11:19.88	359.55	75.48	-69.8	-88.6	3.8	8455295	99	31422
2025-01-02 01:11:20.30	359.27	75.67	-69.8	-89.0	3.6	8455982	99	32814
2025-01-02 01:11:20.71	358.99	75.86	-69.7	-88.5	3.8	8452342	99	31095
2025-01-02 01:11:21.13	358.69	76.05	-69.8	-88.7	3.8	8454940	99	31545
2025-01-02 01:11:21.54	358.39	76.24	-69.8	-88.6	3.8	8458763	99	31516
2025-01-02 01:11:21.96	358.08	76.43	-69.8	-88.4	3.8	8461853	99	30772
2025-01-02 01:11:22.37	357.76	76.62	-68.6	-87.2	3.8	8459472	99	30895
2025-01-02 01:11:22.79	357.43	76.82	-69.8	-88.6	3.8	8459266	99	31398
2025-01-02 01:11:23.20	357.09	77.01	-69.8	-88.6	3.8	8456279	99	31409
2025-01-02 01:11:23.62	356.74	77.20	-69.3	-88.5	3.7	8446140	98	32913
2025-01-02 01:11:24.03	356.38	77.39	-68.7	-88.2	3.7	8457962	97	33783
2025-01-02 01:11:24.44	356.01	77.57	-69.9	-88.7	3.8	8467243	99	31496
2025-01-02 01:11:24.86	355.62	77.77	-69.9	-88.8	3.7	8456428	99	31608
2025-01-02 01:11:25.27	355.23	77.95	-69.9	-88.4	3.8	8463397	99	30539
2025-01-02 01:11:25.69	354.82	78.14	-69.9	-88.7	3.8	8470252	99	31482
2025-01-02 01:11:26.10	354.40	78.33	-69.8	-88.7	3.8	8468467	99	31580
2025-01-02 01:11:26.51	353.97	78.52	-67.9	-87.0	3.8	8448703	98	32256
2025-01-02 01:11:26.92	353.52	78.70	-68.0	-87.4	3.8	8457344	98	33553
2025-01-02 01:11:27.34	353.05	78.89	-69.9	-88.7	3.8	8450557	99	31492
2025-01-02 01:11:27.75	352.57	79.08	-69.9	-88.8	3.8	8458751	99	31656
2025-01-02 01:11:28.16	352.07	79.26	-69.0	-89.1	4.0	8457904	96	36350
2025-01-02 01:11:28.58	351.55	79.45	-69.8	-88.4	3.8	8458351	99	30410
2025-01-02 01:11:28.99	351.02	79.63	-69.9	-88.8	3.8	8459175	99	31540
2025-01-02 01:11:29.41	350.45	79.82	-69.7	-88.4	3.8	8455810	99	30815
2025-01-02 01:11:29.82	349.88	80.00	-69.8	-88.9	3.8	8450981	98	32334
2025-01-02 01:11:30.24	349.27	80.18	-68.8	-88.8	3.8	8465755	96	36089
2025-01-02 01:11:30.66	348.64	80.37	-69.4	-88.6	3.8	8451873	98	33051
2025-01-02 01:11:31.07	348.00	80.54	-69.9	-88.7	3.8	8463283	99	31580
2025-01-02 01:11:31.48	347.33	80.72	-69.9	-88.5	3.8	8463157	99	30536
2025-01-02 01:11:31.90	346.62	80.90	-69.9	-88.7	3.8	8453178	99	31526
2025-01-02 01:11:32.31	345.90	81.08	-69.9	-88.7	3.8	8455547	99	31560
2025-01-02 01:11:32.73	345.13	81.25	-69.0	-88.3	3.7	8467163	98	33332
2025-01-02 01:11:33.14	344.35	81.43	-68.6	-87.8	3.8	8452159	98	32742
2025-01-02 01:11:33.56	343.52	81.60	-67.9	-88.2	3.8	8467128	96	37316
2025-01-02 01:11:33.97	342.67	81.77	-68.5	-88.2	3.8	8446403	97	34755
2025-01-02 01:11:34.39	341.76	81.94	-68.6	-88.7	4.0	8456600	96	36506
2025-01-02 01:11:34.80	340.84	82.10	-70.0	-88.7	3.8	8466396	99	31085
2025-01-02 01:11:35.22	339.85	82.27	-68.0	-87.0	3.8	8460193	98	31899
2025-01-02 01:11:35.63	338.85	82.43	-68.5	-87.7	3.8	8447994	98	32709
2025-01-02 01:11:36.05	337.77	82.59	-69.8	-88.2	3.9	8451324	99	30025
2025-01-02 01:11:36.46	336.68	82.75	-69.9	-88.7	3.8	8463169	99	31584
2025-01-02 01:11:36.88	335.50	82.91	-69.3	-88.4	3.8	8468433	99	32493
2025-01-02 01:11:37.29	334.31	83.06	-69.9	-88.8	3.8	8459632	99	31597
2025-01-02 01:11:37.71	333.02	83.21	-69.9	-88.4	3.9	8459037	99	30390
2025-01-02 01:11:38.12	331.72	83.35	-68.5	-87.8	3.8	8456462	98	33275
2025-01-02 01:11:38.54	330.32	83.50	-68.6	-87.5	3.9	8466876	99	31638
2025-01-02 01:11:38.95	328.90	83.63	-69.0	-88.3	3.7	8456920	98	33398
2025-01-02 01:11:39.37	327.37	83.77	-69.8	-88.5	3.8	8450706	99	30928
2025-01-02 01:11:39.78	325.82	83.90	-69.8	-88.7	3.8	8464530	99	31526
2025-01-02 01:11:40.20	324.16	84.02	-69.9	-88.7	3.8	8459323	99	31485
2025-01-02 01:11:40.61	322.47	84.14	-69.8	-88.4	3.8	8456359	99	30781
2025-01-02 01:11:41.03	320.67	84.26	-69.8	-88.4	3.8	8453281	99	30727
2025-01-02 01:11:41.44	318.84	84.37	-69.8	-88.7	3.8	8459346	99	31579
2025-01-02 01:11:41.86	316.90	84.47	-69.8	-88.9	3.7	8454631	99	32311
2025-01-02 01:11:42.27	314.93	84.57	-69.8	-88.7	3.7	8457916	99	31577
2025-01-02 01:11:42.69	312.84	84.66	-69.9	-88.9	3.8	8456497	99	32325
2025-01-02 01:11:43.11	310.69	84.74	-69.9	-89.0	3.7	8470607	99	32751
2025-01-02 01:11:43.52	308.52	84.81	-69.0	-87.9	3.7	8464851	99	31510
2025-01-02 01:11:43.94	306.23	84.88	-69.8	-88.6	3.8	8457630	99	31373
2025-01-02 01:11:44.35	303.95	84.94	-70.1	-90.0	3.8	8453063	99	35545
2025-01-02 01:11:44.77	301.55	84.99	-69.8	-88.6	3.8	8461177	99	31426
2025-01-02 01:11:45.18	299.17	85.03	-69.8	-88.5	3.7	8464027	99	31005
2025-01-02 01:11:45.60	296.69	85.07	-69.7	-88.4	3.8	8455467	99	31087
2025-01-02 01:11:46.01	294.25	85.09	-70.0	-89.8	3.8	8460365	99	35114
2025-01-02 01:11:46.43	291.72	85.11	-69.8	-88.6	3.8	8461612	99	31427
2025-01-02 01:11:46.84	289.25	85.11	-69.7	-88.4	3.8	8464553	99	30774
2025-01-02 01:11:47.26	286.71	85.11	-69.7	-88.3	3.8	8464622	99	30760
2025-01-02 01:11:47.67	284.24	85.10	-70.0	-89.4	3.8	8456851	99	33717
2025-01-02 01:11:48.08	281.79	85.07	-69.7	-88.4	3.7	8453041	99	30850
2025-01-02 01:11:48.50	279.30	85.04	-69.8	-88.5	3.8	8459541	99	30880
2025-01-02 01:11:48.92	276.86	85.00	-69.8	-88.7	3.8	8458053	99	31483
2025-01-02 01:11:49.33	274.51	84.95	-69.8	-88.6	3.8	8455490	99	31466
2025-01-02 01:11:49.75	272.16	84.89	-69.9	-88.7	3.7	8462333	99	31541
2025-01-02 01:11:50.16	269.91	84.83	-69.8	-88.6	3.8	8468330	99	31347
2025-01-02 01:11:50.58	267.68	84.76	-69.8	-88.6	3.8	8459049	99	31451
2025-01-02 01:11:50.99	265.56	84.68	-69.8	-88.7	3.8	8448017	99	31506
2025-01-02 01:11:51.41	263.46	84.59	-69.8	-88.4	3.8	8457870	99	30357
2025-01-02 01:11:51.82	261.47	84.49	-69.9	-88.5	3.8	8463066	99	30426
2025-01-02 01:11:52.24	259.51	84.39	-69.8	-88.7	3.8	8457309	99	31566
2025-01-02 01:11:52.65	257.67	84.28	-69.9	-88.8	3.7	8452091	99	31541
2025-01-02 01:11:53.07	255.85	84.17	-69.9	-88.6	3.8	8453430	99	30995
2025-01-02 01:11:53.48	254.15	84.05	-69.9	-88.6	3.7	8474830	99	31035
2025-01-02 01:11:53.89	252.51	83.93	-69.8	-88.6	3.8	8455615	99	31499
2025-01-02 01:11:54.31	250.91	83.80	-69.9	-88.8	3.7	8449916	99	31546
2025-01-02 01:11:54.72	249.40	83.67	-69.9	-88.5	3.8	8462024	99	30715
2025-01-02 01:11:55.13	247.96	83.53	-69.8	-88.6	3.8	8446895	99	31502
2025-01-02 01:11:55.55	246.55	83.39	-69.8	-88.6	3.8	8457675	99	31476
2025-01-02 01:11:55.96	245.23	83.24	-69.9	-88.7	3.8	8455307	99	31480
2025-01-02 01:11:56.38	243.94	83.09	-69.8	-88.5	3.8	8454860	99	30949
2025-01-02 01:11:56.79	242.73	82.94	-69.9	-88.8	3.8	8454208	99	31498
2025-01-02 01:11:57.20	241.57	82.79	-69.0	-88.3	3.8	8457321	98	33073
2025-01-02 01:11:57.62	240.43	82.63	-69.7	-88.3	3.8	8466487	99	30439
2025-01-02 01:11:58.04	239.35	82.47	-69.7	-88.3	3.8	8449745	99	30448
2025-01-02 01:11:58.45	238.33	82.31	-69.8	-88.7	3.8	8450775	99	31594
2025-01-02 01:11:58.87	237.33	82.14	-69.8	-88.7	3.8	8460971	99	31560
2025-01-02 01:11:59.28	236.40	81.98	-69.8	-88.4	3.8	8460159	99	30520
2025-01-02 01:11:59.69	235.51	81.81	-69.8	-88.4	3.7	8459129	99	30605
2025-01-02 01:12:00.11	234.63	81.64	-69.9	-88.7	3.9	8455467	99	31574
2025-01-02 01:12:00.53	233.79	81.46	-68.6	-87.5	3.8	8451713	99	31870
2025-01-02 01:12:00.94	233.00	81.29	-69.6	-88.4	3.8	8445110	99	31057
2025-01-02 01:12:01.35	232.24	81.12	-69.2	-88.1	3.9	8457572	99	31559
2025-01-02 01:12:01.77	231.49	80.94	-69.9	-88.8	3.8	8459953	99	31600
2025-01-02 01:12:02.19	230.78	80.76	-69.8	-88.6	3.8	8461555	99	31516
2025-01-02 01:12:02.60	230.10	80.58	-69.8	-88.4	3.8	8455856	99	30744
2025-01-02 01:12:03.01	229.46	80.41	-69.8	-88.6	3.8	8465847	99	31510
2025-01-02 01:12:03.43	228.82	80.22	-69.8	-88.7	3.8	8452766	99	31567
2025-01-02 01:12:03.85	228.20	80.04	-69.9	-88.4	3.8	8453601	99	30132
2025-01-02 01:12:04.26	227.63	79.86	-69.9	-88.4	3.7	8463706	99	30147
2025-01-02 01:12:04.68	227.06	79.67	-69.7	-88.6	3.8	8460685	99	31499
2025-01-02 01:12:05.09	226.52	79.49	-69.8	-88.7	3.8	8468193	99	31585
2025-01-02 01:12:05.50	226.00	79.30	-69.8	-88.7	3.8	8455684	98	31765
2025-01-02 01:12:05.92	225.49	79.12	-69.7	-88.6	3.8	8455410	99	31527
2025-01-02 01:12:06.34	225.00	78.93	-69.9	-88.7	3.8	8463180	99	31470
2025-01-02 01:12:06.75	224.53	78.74	-69.9	-88.7	3.8	8458145	99	31534
2025-01-02 01:12:07.17	224.07	78.55	-69.9	-88.5	3.8	8460777	99	30807
2025-01-02 01:12:07.58	223.63	78.37	-69.8	-88.6	3.8	8459838	99	31506
2025-01-02 01:12:08.00	223.20	78.17	-69.9	-88.8	3.8	8459300	99	31493
2025-01-02 01:12:08.41	222.79	77.99	-69.9	-88.4	3.8	8463947	99	30317
2025-01-02 01:12:08.82	222.40	77.80	-69.7	-88.2	3.8	8464324	99	30374
2025-01-02 01:12:09.24	222.01	77.61	-69.8	-88.7	3.8	8460502	99	31604
2025-01-02 01:12:09.65	221.64	77.42	-69.8	-88.7	3.8	8464691	99	31526
2025-01-02 01:12:10.06	221.28	77.23	-70.0	-88.9	3.8	8457172	99	31889
2025-01-02 01:12:10.48	220.92	77.04	-69.8	-88.8	3.8	8462253	99	31912
2025-01-02 01:12:10.89	220.58	76.85	-69.9	-88.7	3.8	8448246	99	31501
2025-01-02 01:12:11.30	220.26	76.66	-69.8	-88.9	3.8	8444126	99	32276
2025-01-02 01:12:11.72	219.93	76.47	-69.8	-88.5	3.8	8449779	99	31154
2025-01-02 01:12:12.13	219.62	76.28	-70.0	-88.9	3.8	8463363	99	31618
2025-01-02 01:12:12.55	219.31	76.08	-69.9	-88.7	3.8	8457035	99	31606
2025-01-02 01:12:12.96	219.02	75.89	-69.9	-88.8	3.8	8460514	99	31536
2025-01-02 01:12:13.38	218.73	75.70	-69.9	-88.4	3.8	8456130	99	30374
2025-01-02 01:12:13.79	218.45	75.51	-69.9	-88.7	3.8	8445396	99	31575
2025-01-02 01:12:14.21	218.18	75.32	-69.9	-88.8	3.8	8456748	99	31644
2025-01-02 01:12:14.63	217.91	75.12	-69.2	-89.1	3.7	8469257	99	35441
2025-01-02 01:12:15.04	217.66	74.93	-69.7	-88.5	3.8	8458648	99	31312
2025-01-02 01:12:15.46	217.40	74.74	-70.0	-88.8	3.8	8462425	99	31644
2025-01-02 01:12:15.87	217.16	74.55	-69.9	-88.7	3.8	8459152	99	31513
2025-01-02 01:12:16.29	216.92	74.35	-69.9	-89.2	3.7	8458923	99	32902
2025-01-02 01:12:16.70	216.69	74.16	-69.9	-88.4	3.7	8454334	99	30240
2025-01-02 01:12:17.12	216.46	73.97	-69.8	-88.7	3.8	8459793	99	31612
2025-01-02 01:12:17.53	216.25	73.78	-69.9	-88.8	3.8	8459426	99	31625
2025-01-02 01:12:17.95	216.03	73.59	-69.8	-88.8	3.8	8456153	99	31903
2025-01-02 01:12:18.36	215.82	73.40	-69.9	-88.8	3.8	8449321	99	31646
2025-01-02 01:12:18.78	215.62	73.20	-69.7	-88.6	3.8	8459781	99	31640
2025-01-02 01:12:19.19	215.42	73.01	-69.8	-88.7	3.7	8465652	99	31583
2025-01-02 01:12:19.61	215.22	72.82	-70.1	-89.0	3.8	8466156	99	31807
2025-01-02 01:12:20.02	215.03	72.63	-69.9	-88.8	3.8	8456966	99	31638
2025-01-02 01:12:20.44	214.84	72.44	-69.9	-88.8	3.7	8462596	99	31685
2025-01-02 01:12:20.85	214.66	72.25	-69.7	-88.4	3.7	8450626	99	30810
2025-01-02 01:12:21.27	214.48	72.06	-69.7	-88.6	3.8	8448783	99	31396
2025-01-02 01:12:21.68	214.31	71.87	-69.8	-88.7	3.8	8457366	99	31508
2025-01-02 01:12:22.10	214.14	71.68	-69.9	-88.8	3.8	8465160	99	31575
2025-01-02 01:12:22.51	213.98	71.49	-70.0	-88.7	3.8	8458271	99	30884
2025-01-02 01:12:22.93	213.81	71.29	-69.9	-88.6	3.8	8458190	99	30782
2025-01-02 01:12:23.34	213.65	71.11	-70.0	-88.9	3.8	8471557	99	31683
2025-01-02 01:12:23.76	213.50	70.92	-70.0	-88.9	3.9	8447822	99	31662
2025-01-02 01:12:24.17	213.35	70.73	-69.8	-88.3	3.8	8466888	99	30136
2025-01-02 01:12:24.59	213.19	70.54	-69.9	-88.7	3.8	8451667	99	31480

#Closed at: 2025-01-02 01:12:25