passes_logs/2026/01/28/PlanumMoscow/PlanumMoscow__20260128_180039_METOP-B_rec.log

#Pass ID: 20260128_180039_METOP-B
#Satellite: METOP-B
#Configuration: METOP-B
#Start time: 2026-01-28 18:00:44.784944

#LorettStation: 1.0.0 05.05.2024
#Station: PlanumMoscow
#Location: 37.6253844 lon 55.6713361 lat
#TLE: 1 38771U 12049A   25293.92766658  .00000266  00000+0  14193-3 0  9996
#TLE: 2 38771  98.6882 344.7603 0001609 341.5209  18.5909 14.21379342679275

#Time	Az	El	Level	SNR
2026-01-28 18:04:23.166234	190.1	28.3	-62.6	6.7
2026-01-28 18:04:25.415780	190.4	28.7	-63.8	7.6
2026-01-28 18:04:27.659792	190.7	29.0	-64.0	7.4
2026-01-28 18:04:29.903810	191.0	29.4	-64.0	7.5
2026-01-28 18:04:32.150379	191.3	29.8	-64.2	7.3
2026-01-28 18:04:34.394398	191.6	30.2	-60.9	2.0
2026-01-28 18:04:36.639954	192.0	30.6	-63.3	5.2
2026-01-28 18:04:38.883974	192.3	31.0	-63.3	4.6
2026-01-28 18:04:41.129521	192.7	31.4	-64.1	5.8
2026-01-28 18:04:43.373078	193.0	31.8	-63.6	5.3
2026-01-28 18:04:45.617595	193.4	32.3	-63.6	6.2
2026-01-28 18:04:47.864647	193.8	32.7	-63.9	6.0
2026-01-28 18:04:50.109154	194.1	33.1	-64.0	6.3
2026-01-28 18:04:52.353205	194.5	33.5	-64.3	5.6
2026-01-28 18:04:54.597720	194.9	34.0	-64.0	1.6
2026-01-28 18:04:56.841732	195.4	34.4	-63.4	5.6
2026-01-28 18:04:59.085779	195.8	34.9	-63.0	0.0
2026-01-28 18:05:01.330337	196.2	35.3	-63.6	6.1
2026-01-28 18:05:03.574844	196.7	35.8	-63.0	5.7
2026-01-28 18:05:05.819864	197.1	36.2	-63.0	5.2
2026-01-28 18:05:08.063915	197.6	36.7	-63.6	3.9
2026-01-28 18:05:10.307934	198.1	37.2	-62.7	0.0
2026-01-28 18:05:12.551969	198.6	37.6	-63.5	2.7
2026-01-28 18:05:14.799989	199.1	38.1	-62.7	4.4
2026-01-28 18:05:17.044001	199.7	38.6	-63.3	3.9
2026-01-28 18:05:19.287549	200.2	39.1	-63.7	5.1
2026-01-28 18:05:21.531568	200.8	39.6	-63.1	3.5
2026-01-28 18:05:23.778131	201.4	40.1	-62.6	2.2
2026-01-28 18:05:26.023152	202.0	40.6	-63.8	5.0
2026-01-28 18:05:28.266713	202.6	41.1	-62.2	2.0
2026-01-28 18:05:30.514238	203.2	41.6	-60.7	0.0
2026-01-28 18:05:32.758786	203.9	42.1	-63.4	4.4
2026-01-28 18:05:35.003293	204.6	42.6	-63.7	3.0
2026-01-28 18:05:37.247809	205.3	43.1	-64.1	5.0
2026-01-28 18:05:39.494861	206.0	43.6	-63.4	1.3
2026-01-28 18:05:41.739377	206.7	44.1	-63.9	5.4
2026-01-28 18:05:43.983923	207.5	44.7	-63.0	2.5
2026-01-28 18:05:46.227943	208.3	45.2	-63.2	3.6
2026-01-28 18:05:48.472450	209.1	45.7	-63.3	2.2
2026-01-28 18:05:50.715500	210.0	46.2	-63.1	1.4
2026-01-28 18:05:52.960016	210.8	46.7	-62.8	3.0
2026-01-28 18:05:55.203571	211.8	47.3	-63.4	2.5
2026-01-28 18:05:57.447582	212.7	47.8	-62.6	0.0
2026-01-28 18:05:59.692089	213.7	48.3	-63.5	0.5
2026-01-28 18:06:01.936160	214.7	48.8	-62.4	0.0
2026-01-28 18:06:04.182685	215.7	49.3	-62.3	0.0
2026-01-28 18:06:06.426233	216.8	49.8	-63.5	0.0
2026-01-28 18:06:08.670749	217.9	50.3	-62.9	0.0
2026-01-28 18:06:10.914296	219.0	50.8	-63.7	0.3
2026-01-28 18:06:13.160812	220.2	51.3	-64.3	0.0
2026-01-28 18:06:15.404873	221.4	51.8	-64.6	0.0
2026-01-28 18:06:17.649380	222.7	52.2	-64.8	0.0
2026-01-28 18:06:19.893430	224.0	52.7	-63.9	0.0
2026-01-28 18:06:22.137937	225.3	53.1	-65.0	0.2
2026-01-28 18:06:24.382453	226.7	53.6	-65.4	0.0
2026-01-28 18:06:26.628028	228.1	54.0	-65.4	0.5
2026-01-28 18:06:28.873552	229.6	54.4	-64.4	0.0
2026-01-28 18:06:31.117595	231.1	54.8	-63.7	0.0
2026-01-28 18:06:33.362102	232.6	55.2	-64.3	0.0
2026-01-28 18:06:35.606123	234.2	55.5	-64.2	0.0
2026-01-28 18:06:37.850164	235.8	55.9	-64.6	0.0
2026-01-28 18:06:40.094680	237.4	56.2	-65.2	0.0
2026-01-28 18:06:42.338722	239.1	56.5	-63.7	0.0
2026-01-28 18:06:44.583742	240.9	56.7	-64.9	0.0
2026-01-28 18:06:46.827785	242.6	57.0	-65.5	0.0
2026-01-28 18:06:49.072292	244.4	57.2	-64.8	0.0
2026-01-28 18:06:51.316809	246.2	57.4	-65.3	0.0
2026-01-28 18:06:53.561357	248.1	57.6	-65.9	0.0
2026-01-28 18:06:55.805872	249.9	57.7	-65.5	0.0
2026-01-28 18:06:58.050421	251.8	57.8	-65.0	0.0
2026-01-28 18:07:00.294477	253.7	57.9	-65.7	0.0
2026-01-28 18:07:02.541985	255.6	58.0	-66.3	0.0
2026-01-28 18:07:04.786491	257.5	58.0	-66.4	0.0
2026-01-28 18:07:07.031007	259.5	58.0	-65.6	0.0
2026-01-28 18:07:09.275075	261.4	58.0	-66.4	0.0
2026-01-28 18:07:11.519095	263.3	57.9	-66.0	0.0
2026-01-28 18:07:13.764157	265.2	57.8	-66.8	0.0
2026-01-28 18:07:16.008693	267.0	57.7	-65.9	0.0
2026-01-28 18:07:18.254705	268.9	57.6	-66.8	0.0
2026-01-28 18:07:20.499748	270.7	57.4	-66.2	0.0
2026-01-28 18:07:22.744266	272.6	57.2	-66.5	0.0
2026-01-28 18:07:24.987816	274.3	57.0	-67.4	0.0
2026-01-28 18:07:27.232835	276.1	56.7	-67.4	0.0
2026-01-28 18:07:29.479401	277.8	56.4	-66.8	0.0
2026-01-28 18:07:31.723916	279.5	56.1	-67.0	0.0
2026-01-28 18:07:33.967431	281.1	55.8	-68.5	0.0
2026-01-28 18:07:36.211977	282.8	55.5	-68.0	0.0
2026-01-28 18:07:38.456030	284.3	55.1	-67.7	0.0
2026-01-28 18:07:40.701080	285.9	54.7	-67.7	0.0
2026-01-28 18:07:42.945099	287.3	54.3	-68.6	0.0
2026-01-28 18:07:45.189606	288.8	53.9	-67.4	0.0
2026-01-28 18:07:47.434166	290.2	53.5	-68.6	0.0
2026-01-28 18:07:49.678682	291.6	53.1	-68.3	0.0
2026-01-28 18:07:51.927718	292.9	52.6	-68.4	0.0
2026-01-28 18:07:54.172234	294.2	52.2	-68.2	0.0
2026-01-28 18:07:56.415782	295.4	51.7	-68.6	0.0
2026-01-28 18:07:58.659833	296.6	51.2	-68.7	0.0
2026-01-28 18:08:00.903349	297.8	50.7	-68.4	0.0
2026-01-28 18:08:03.147360	298.9	50.2	-68.1	0.0
2026-01-28 18:08:05.391380	300.0	49.7	-68.2	0.0
2026-01-28 18:08:07.635929	301.1	49.2	-67.7	0.0
2026-01-28 18:08:09.880444	302.1	48.7	-67.7	0.0
2026-01-28 18:08:12.124951	303.1	48.2	-66.9	0.0
2026-01-28 18:08:14.368499	304.1	47.7	-67.3	0.0
2026-01-28 18:08:16.613014	305.0	47.2	-67.2	0.0
2026-01-28 18:08:18.856562	305.9	46.7	-66.8	0.0
2026-01-28 18:08:21.100575	306.8	46.2	-66.7	0.0
2026-01-28 18:08:23.345082	307.6	45.6	-67.0	0.0
2026-01-28 18:08:25.591609	308.4	45.1	-67.5	0.0
2026-01-28 18:08:27.834157	309.2	44.6	-66.4	0.0
2026-01-28 18:08:30.078664	310.0	44.1	-66.9	0.0
2026-01-28 18:08:32.322189	310.7	43.6	-66.6	0.0
2026-01-28 18:08:34.568224	311.5	43.1	-66.7	0.0
2026-01-28 18:08:36.812245	312.2	42.6	-66.1	0.0
2026-01-28 18:08:39.057256	312.8	42.1	-65.7	0.0
2026-01-28 18:08:41.299317	313.5	41.6	-66.6	0.4
2026-01-28 18:08:43.549338	314.1	41.1	-66.1	1.3
2026-01-28 18:08:45.792390	314.7	40.6	-65.8	0.0
2026-01-28 18:08:48.035905	315.3	40.1	-65.8	0.0
2026-01-28 18:08:50.278973	315.9	39.6	-66.5	3.4
2026-01-28 18:08:52.521993	316.5	39.1	-66.2	3.0
2026-01-28 18:08:54.767562	317.0	38.6	-65.7	0.8
2026-01-28 18:08:57.011582	317.6	38.1	-65.8	2.0
2026-01-28 18:08:59.255098	318.1	37.6	-65.9	3.6
2026-01-28 18:09:01.498646	318.6	37.2	-65.7	3.1
2026-01-28 18:09:03.742177	319.1	36.7	-65.2	3.6
2026-01-28 18:09:05.983767	319.5	36.2	-65.0	2.7
2026-01-28 18:09:08.227282	320.0	35.8	-64.7	0.0
2026-01-28 18:09:10.470846	320.4	35.3	-64.4	0.8
2026-01-28 18:09:12.715866	320.9	34.9	-64.8	1.2
2026-01-28 18:09:14.969880	321.3	34.4	-64.6	1.6
2026-01-28 18:09:17.213935	321.7	34.0	-64.5	0.2
2026-01-28 18:09:19.457986	322.1	33.6	-65.4	2.9
2026-01-28 18:09:21.701997	322.5	33.1	-65.6	3.0
2026-01-28 18:09:23.945523	322.9	32.7	-65.4	3.2
2026-01-28 18:09:26.190039	323.3	32.3	-65.5	2.9
2026-01-28 18:09:28.436051	323.6	31.9	-65.6	2.3
2026-01-28 18:09:30.678575	324.0	31.5	-65.7	3.2
2026-01-28 18:09:32.922601	324.3	31.1	-65.5	3.7
2026-01-28 18:09:35.166622	324.7	30.7	-65.7	3.4
2026-01-28 18:09:37.410138	325.0	30.3	-65.8	5.0
2026-01-28 18:09:39.653159	325.3	29.9	-65.8	5.3
2026-01-28 18:09:41.896675	325.6	29.5	-65.5	3.7
2026-01-28 18:09:44.140191	325.9	29.1	-65.4	5.4
2026-01-28 18:09:46.385204	326.3	28.7	-65.6	3.8
2026-01-28 18:09:48.632721	326.5	28.4	-65.6	5.2
2026-01-28 18:09:50.876239	326.8	28.0	-65.2	5.0
2026-01-28 18:09:53.119755	327.1	27.6	-65.2	4.4
2026-01-28 18:09:55.364767	327.4	27.3	-65.3	5.0
2026-01-28 18:09:57.612788	327.7	26.9	-65.4	4.4
2026-01-28 18:09:59.855807	327.9	26.5	-65.6	5.7
2026-01-28 18:10:02.099314	328.2	26.2	-65.7	4.6
2026-01-28 18:10:04.340324	328.4	25.8	-65.9	4.6
2026-01-28 18:10:06.581849	328.7	25.5	-65.0	4.7
2026-01-28 18:10:08.822382	328.9	25.2	-65.5	4.6
2026-01-28 18:10:11.064888	329.2	24.8	-65.6	4.6
2026-01-28 18:10:13.308422	329.4	24.5	-65.6	5.1
2026-01-28 18:10:15.553434	329.6	24.2	-65.3	4.7
2026-01-28 18:10:17.796967	329.8	23.9	-65.4	4.6
2026-01-28 18:10:20.043979	330.1	23.5	-65.6	5.8
2026-01-28 18:10:22.288496	330.3	23.2	-66.4	5.1
2026-01-28 18:10:24.533003	330.5	22.9	-65.6	3.6
2026-01-28 18:10:26.777014	330.7	22.6	-66.0	5.5
2026-01-28 18:10:29.023046	330.9	22.3	-65.3	4.2
2026-01-28 18:10:31.266561	331.1	22.0	-65.9	5.4
2026-01-28 18:10:33.511068	331.3	21.7	-65.8	5.8
2026-01-28 18:10:35.754079	331.5	21.4	-65.9	4.9
2026-01-28 18:10:37.998586	331.7	21.1	-66.1	5.5
2026-01-28 18:10:40.242598	331.8	20.8	-65.3	5.5
2026-01-28 18:10:42.485122	332.0	20.5	-65.8	5.3
2026-01-28 18:10:44.731143	332.2	20.2	-65.8	4.2
2026-01-28 18:10:46.972658	332.4	20.0	-65.9	4.4
2026-01-28 18:10:49.211686	332.6	19.7	-66.3	4.2
2026-01-28 18:10:51.453202	332.7	19.4	-65.8	5.4
2026-01-28 18:10:53.696717	332.9	19.1	-66.0	5.2
2026-01-28 18:10:55.940233	333.1	18.9	-65.2	4.8
2026-01-28 18:10:58.183244	333.2	18.6	-65.7	5.4
2026-01-28 18:11:00.426760	333.4	18.3	-65.3	5.3
2026-01-28 18:11:02.668284	333.5	18.1	-65.1	4.5
2026-01-28 18:11:04.911800	333.7	17.8	-65.5	4.4
2026-01-28 18:11:07.158316	333.8	17.6	-65.9	4.9
2026-01-28 18:11:09.401831	334.0	17.3	-65.5	4.3
2026-01-28 18:11:11.645356	334.1	17.1	-65.6	3.9
2026-01-28 18:11:13.889368	334.3	16.8	-65.6	3.8
2026-01-28 18:11:16.130883	334.4	16.6	-65.8	4.8
2026-01-28 18:11:18.373389	334.6	16.3	-65.5	3.1
2026-01-28 18:11:20.616905	334.7	16.1	-65.5	3.9
2026-01-28 18:11:22.859916	334.8	15.8	-65.5	3.8
2026-01-28 18:11:25.102946	335.0	15.6	-65.7	4.0
2026-01-28 18:11:27.346958	335.1	15.4	-65.6	4.3
2026-01-28 18:11:29.589473	335.2	15.1	-65.9	4.1
2026-01-28 18:11:31.831980	335.4	14.9	-64.9	2.2
2026-01-28 18:11:34.073999	335.5	14.7	-65.7	3.2
2026-01-28 18:11:36.315010	335.6	14.4	-65.6	4.5
2026-01-28 18:11:38.555524	335.7	14.2	-65.7	3.5
2026-01-28 18:11:40.792534	335.8	14.0	-65.7	4.0
2026-01-28 18:11:43.032545	336.0	13.8	-65.7	3.5
2026-01-28 18:11:45.275060	336.1	13.6	-65.3	2.4
2026-01-28 18:11:47.513574	336.2	13.3	-65.9	2.2
2026-01-28 18:11:49.756585	336.3	13.1	-65.8	2.9
2026-01-28 18:11:52.000597	336.4	12.9	-66.1	3.1
2026-01-28 18:11:54.243616	336.5	12.7	-65.7	1.9
2026-01-28 18:11:56.479626	336.6	12.5	-65.7	2.0
2026-01-28 18:11:58.717131	336.8	12.3	-65.9	2.2
2026-01-28 18:12:00.953636	336.9	12.1	-65.0	1.9
2026-01-28 18:12:03.194159	337.0	11.9	-65.5	2.1
2026-01-28 18:12:05.430176	337.1	11.7	-65.2	0.0
2026-01-28 18:12:07.669690	337.2	11.5	-65.3	0.4
2026-01-28 18:12:09.911701	337.3	11.3	-66.0	3.1
2026-01-28 18:12:12.148720	337.4	11.1	-65.7	2.2
2026-01-28 18:12:14.385737	337.5	10.9	-66.0	2.1
2026-01-28 18:12:16.626756	337.6	10.7	-65.4	0.9
2026-01-28 18:12:18.865775	337.7	10.5	-65.4	0.3
2026-01-28 18:12:21.109787	337.8	10.3	-64.5	0.0
2026-01-28 18:12:23.349797	337.9	10.1	-65.6	0.0
2026-01-28 18:12:25.587303	338.0	9.9	-65.0	1.7
2026-01-28 18:12:27.823808	338.1	9.7	-64.3	0.0
2026-01-28 18:12:30.063845	338.1	9.5	-65.3	0.0
2026-01-28 18:12:32.302855	338.2	9.4	-65.6	1.1
2026-01-28 18:12:34.543865	338.3	9.2	-65.4	1.5
2026-01-28 18:12:36.784381	338.4	9.0	-65.3	0.0
2026-01-28 18:12:39.033393	338.5	8.8	-64.6	0.0
2026-01-28 18:12:41.272899	338.6	8.6	-64.9	0.0
2026-01-28 18:12:43.517414	338.7	8.5	-64.8	0.0
2026-01-28 18:12:45.762436	338.8	8.3	-64.6	0.0
2026-01-28 18:12:48.005447	338.8	8.1	-65.4	0.0
2026-01-28 18:12:50.248963	338.9	7.9	-65.0	0.0
2026-01-28 18:12:52.489973	339.0	7.7	-64.9	0.0
2026-01-28 18:12:54.729992	339.1	7.6	-64.7	0.0
2026-01-28 18:12:56.971507	339.2	7.4	-64.6	0.0
2026-01-28 18:12:59.212022	339.2	7.2	-64.7	0.2
2026-01-28 18:13:01.450537	339.3	7.1	-65.1	0.0
2026-01-28 18:13:03.690061	339.4	6.9	-64.1	0.0
2026-01-28 18:13:05.931575	339.5	6.7	-64.9	0.0
2026-01-28 18:13:08.174091	339.6	6.6	-65.0	0.0
2026-01-28 18:13:10.419103	339.6	6.4	-65.0	0.0
2026-01-28 18:13:12.662618	339.7	6.2	-64.6	0.0
2026-01-28 18:13:14.903151	339.8	6.1	-64.4	0.0
2026-01-28 18:13:17.145162	339.9	5.9	-66.0	0.0
2026-01-28 18:13:19.393173	339.9	5.7	-68.6	0.0
2026-01-28 18:13:21.634183	340.0	5.6	-66.5	0.0
2026-01-28 18:13:23.877195	340.1	5.4	-65.5	0.0
2026-01-28 18:13:26.121719	340.1	5.3	-68.2	0.0
2026-01-28 18:13:28.365730	340.2	5.1	-69.1	0.0
2026-01-28 18:13:30.610237	340.3	5.0	-69.6	0.0
#Closed at: 2026-01-28 18:00:39.786803