passes_logs/2026/01/28/PlanumMoscow/PlanumMoscow__20260128_084720_METOP-C_rec.log

#Pass ID: 20260128_084720_METOP-C
#Satellite: METOP-C
#Configuration: METOP-C
#Start time: 2026-01-28 08:47:25.964177

#LorettStation: 1.0.0 05.05.2024
#Station: PlanumMoscow
#Location: 37.6253844 lon 55.6713361 lat
#TLE: 1 43689U 18087A   25293.88981035  .00000265  00000+0  14109-3 0  9997
#TLE: 2 43689  98.7006 352.4487 0002041 122.1097 238.0279 14.21482740360838

#Time	Az	El	Level	SNR
2026-01-28 08:51:04.375625	347.6	24.7	-61.9	0.0
2026-01-28 08:51:06.620140	347.1	25.0	-63.3	0.0
2026-01-28 08:51:08.864647	346.7	25.2	-62.6	0.0
2026-01-28 08:51:11.109154	346.2	25.5	-63.6	0.0
2026-01-28 08:51:13.353660	345.8	25.8	-63.6	0.0
2026-01-28 08:51:15.597175	345.3	26.0	-63.3	0.0
2026-01-28 08:51:17.841682	344.8	26.3	-65.2	0.0
2026-01-28 08:51:20.086189	344.3	26.6	-63.8	0.0
2026-01-28 08:51:22.329705	343.8	26.8	-65.1	0.0
2026-01-28 08:51:24.574212	343.3	27.1	-65.3	0.0
2026-01-28 08:51:26.818719	342.8	27.4	-65.4	0.0
2026-01-28 08:51:29.062234	342.3	27.6	-65.5	0.0
2026-01-28 08:51:31.308750	341.7	27.9	-65.5	0.0
2026-01-28 08:51:33.553257	341.2	28.2	-65.3	0.0
2026-01-28 08:51:35.796772	340.6	28.4	-65.1	0.0
2026-01-28 08:51:38.040784	340.1	28.7	-65.7	0.0
2026-01-28 08:51:40.284794	339.5	28.9	-65.9	0.0
2026-01-28 08:51:42.529301	338.9	29.2	-65.5	0.0
2026-01-28 08:51:44.773808	338.3	29.5	-64.9	0.0
2026-01-28 08:51:47.018315	337.7	29.7	-64.7	0.0
2026-01-28 08:51:49.262822	337.1	30.0	-65.3	0.0
2026-01-28 08:51:51.507329	336.5	30.2	-65.5	0.0
2026-01-28 08:51:53.751339	335.8	30.5	-65.6	0.0
2026-01-28 08:51:55.994855	335.2	30.8	-65.4	0.0
2026-01-28 08:51:58.239362	334.5	31.0	-64.8	0.0
2026-01-28 08:52:00.483869	333.9	31.3	-64.5	0.0
2026-01-28 08:52:02.727880	333.2	31.5	-65.2	0.0
2026-01-28 08:52:04.973388	332.5	31.8	-65.0	0.0
2026-01-28 08:52:07.217894	331.8	32.0	-65.5	0.0
2026-01-28 08:52:09.461905	331.1	32.2	-65.5	0.0
2026-01-28 08:52:11.709412	330.4	32.5	-65.3	0.0
2026-01-28 08:52:13.953423	329.7	32.7	-65.8	0.0
2026-01-28 08:52:16.197930	328.9	32.9	-65.8	0.0
2026-01-28 08:52:18.442437	328.2	33.2	-65.4	0.0
2026-01-28 08:52:20.685954	327.4	33.4	-65.8	0.0
2026-01-28 08:52:22.930460	326.7	33.6	-66.0	0.0
2026-01-28 08:52:25.174471	325.9	33.8	-66.1	0.0
2026-01-28 08:52:27.417535	325.1	34.0	-67.0	0.0
2026-01-28 08:52:29.661553	324.3	34.2	-65.7	0.0
2026-01-28 08:52:31.905563	323.5	34.4	-66.5	0.0
2026-01-28 08:52:34.149622	322.7	34.6	-66.2	0.0
2026-01-28 08:52:36.392641	321.8	34.8	-65.8	0.0
2026-01-28 08:52:38.636690	321.0	35.0	-66.3	0.0
2026-01-28 08:52:40.881206	320.1	35.2	-66.0	0.0
2026-01-28 08:52:43.125713	319.3	35.4	-64.6	0.0
2026-01-28 08:52:45.369258	318.4	35.5	-65.7	0.0
2026-01-28 08:52:47.613301	317.5	35.7	-65.4	0.0
2026-01-28 08:52:49.857808	316.6	35.8	-65.5	0.0
2026-01-28 08:52:52.101827	315.8	36.0	-65.6	0.0
2026-01-28 08:52:54.345838	314.9	36.1	-65.3	0.0
2026-01-28 08:52:56.589382	313.9	36.2	-65.1	0.0
2026-01-28 08:52:58.832930	313.0	36.4	-65.7	0.0
2026-01-28 08:53:01.077482	312.1	36.5	-65.3	0.0
2026-01-28 08:53:03.321501	311.2	36.6	-64.3	0.0
2026-01-28 08:53:05.566008	310.2	36.7	-65.6	0.0
2026-01-28 08:53:07.812068	309.3	36.8	-64.7	0.0
2026-01-28 08:53:10.056087	308.4	36.8	-64.8	0.0
2026-01-28 08:53:12.300134	307.4	36.9	-65.3	0.0
2026-01-28 08:53:14.544651	306.5	37.0	-64.0	0.0
2026-01-28 08:53:16.787695	305.5	37.0	-65.5	0.0
2026-01-28 08:53:19.031711	304.5	37.1	-64.6	0.0
2026-01-28 08:53:21.276226	303.6	37.1	-64.4	0.0
2026-01-28 08:53:23.521266	302.6	37.1	-65.3	0.0
2026-01-28 08:53:25.766781	301.7	37.1	-64.9	0.0
2026-01-28 08:53:28.011288	300.7	37.1	-65.0	0.0
2026-01-28 08:53:30.255833	299.7	37.1	-64.6	0.0
2026-01-28 08:53:32.500351	298.8	37.1	-63.4	0.0
2026-01-28 08:53:34.746906	297.8	37.1	-64.6	0.0
2026-01-28 08:53:36.990421	296.8	37.1	-65.1	0.0
2026-01-28 08:53:39.233966	295.9	37.0	-64.9	0.0
2026-01-28 08:53:41.478473	294.9	37.0	-65.0	0.0
2026-01-28 08:53:43.722529	294.0	36.9	-65.6	0.0
2026-01-28 08:53:45.966580	293.0	36.9	-63.9	0.0
2026-01-28 08:53:48.211087	292.1	36.8	-64.5	0.0
2026-01-28 08:53:50.455611	291.1	36.7	-64.7	0.0
2026-01-28 08:53:52.715161	290.2	36.6	-64.4	0.0
2026-01-28 08:53:54.960218	289.2	36.5	-64.9	0.0
2026-01-28 08:53:57.204229	288.3	36.4	-64.3	0.0
2026-01-28 08:53:59.448743	287.4	36.3	-64.3	0.0
2026-01-28 08:54:01.692787	286.5	36.2	-64.1	0.0
2026-01-28 08:54:03.937806	285.6	36.0	-62.6	0.0
2026-01-28 08:54:06.182321	284.7	35.9	-65.0	0.0
2026-01-28 08:54:08.427395	283.8	35.7	-63.9	0.0
2026-01-28 08:54:10.671902	282.9	35.6	-61.9	0.0
2026-01-28 08:54:12.916463	282.0	35.4	-62.6	0.0
2026-01-28 08:54:15.160978	281.2	35.3	-63.5	0.0
2026-01-28 08:54:17.407533	280.3	35.1	-62.2	0.0
2026-01-28 08:54:19.650056	279.5	34.9	-63.5	0.0
2026-01-28 08:54:21.894114	278.6	34.7	-60.6	0.0
2026-01-28 08:54:24.138125	277.8	34.5	-62.5	0.0
2026-01-28 08:54:26.381649	277.0	34.3	-61.5	0.0
2026-01-28 08:54:28.625690	276.2	34.1	-61.4	0.0
2026-01-28 08:54:30.870206	275.4	33.9	-59.8	0.0
2026-01-28 08:54:33.114254	274.6	33.7	-60.2	0.0
2026-01-28 08:54:35.357798	273.8	33.5	-63.6	0.0
2026-01-28 08:54:37.602305	273.0	33.3	-61.8	0.0
2026-01-28 08:54:39.846849	272.3	33.0	-62.2	0.0
2026-01-28 08:54:42.090371	271.5	32.8	-60.7	0.0
2026-01-28 08:54:44.334412	270.8	32.6	-62.5	0.0
2026-01-28 08:54:46.578919	270.1	32.3	-60.4	0.0
2026-01-28 08:54:48.823426	269.4	32.1	-61.3	0.0
2026-01-28 08:54:51.070933	268.7	31.9	-62.3	0.0
2026-01-28 08:54:53.315440	268.0	31.6	-62.3	0.0
2026-01-28 08:54:55.558955	267.3	31.4	-60.6	0.0
2026-01-28 08:54:57.802966	266.6	31.1	-61.6	0.0
2026-01-28 08:55:00.050474	265.9	30.9	-61.4	0.0
2026-01-28 08:55:02.288979	265.3	30.6	-61.3	0.0
2026-01-28 08:55:04.527484	264.7	30.4	-62.1	0.0
2026-01-28 08:55:06.767495	264.0	30.1	-60.3	0.0
2026-01-28 08:55:09.007505	263.4	29.8	-60.0	0.0
2026-01-28 08:55:11.250012	262.8	29.6	-60.8	0.0
2026-01-28 08:55:13.491023	262.2	29.3	-62.6	0.0
2026-01-28 08:55:15.730538	261.6	29.0	-59.8	0.0
2026-01-28 08:55:17.971043	261.0	28.8	-60.6	0.0
2026-01-28 08:55:20.211550	260.5	28.5	-60.9	0.0
2026-01-28 08:55:22.453056	259.9	28.3	-60.5	0.0
2026-01-28 08:55:24.693066	259.3	28.0	-61.1	0.0
2026-01-28 08:55:26.932571	258.8	27.7	-61.0	0.0
2026-01-28 08:55:29.175078	258.3	27.5	-61.4	0.0
2026-01-28 08:55:31.417584	257.7	27.2	-61.2	0.0
2026-01-28 08:55:33.662596	257.2	26.9	-60.1	0.0
2026-01-28 08:55:35.905607	256.7	26.7	-61.3	0.0
2026-01-28 08:55:38.149157	256.2	26.4	-60.9	0.0
2026-01-28 08:55:40.392664	255.7	26.1	-60.2	0.0
2026-01-28 08:55:42.630169	255.2	25.9	-59.7	0.0
2026-01-28 08:55:44.872179	254.8	25.6	-59.3	0.0
2026-01-28 08:55:47.115686	254.3	25.3	-60.1	0.0
2026-01-28 08:55:49.361193	253.8	25.1	-60.7	0.0
2026-01-28 08:55:51.604699	253.4	24.8	-60.9	0.0
2026-01-28 08:55:53.844205	253.0	24.5	-60.8	0.0
2026-01-28 08:55:56.085216	252.5	24.3	-61.0	0.0
2026-01-28 08:55:58.325721	252.1	24.0	-60.8	0.0
2026-01-28 08:56:00.562730	251.7	23.8	-61.3	0.0
2026-01-28 08:56:02.806237	251.3	23.5	-60.2	0.0
2026-01-28 08:56:05.049752	250.8	23.2	-60.9	0.0
2026-01-28 08:56:07.291258	250.4	23.0	-60.3	0.0
2026-01-28 08:56:09.535765	250.0	22.7	-60.9	0.0
2026-01-28 08:56:11.781272	249.7	22.5	-61.5	0.0
2026-01-28 08:56:14.028284	249.3	22.2	-61.0	0.0
2026-01-28 08:56:16.268790	248.9	22.0	-60.7	0.0
2026-01-28 08:56:18.511296	248.5	21.7	-60.8	0.0
2026-01-28 08:56:20.754813	248.2	21.5	-61.3	0.0
2026-01-28 08:56:23.001825	247.8	21.2	-60.9	0.0
2026-01-28 08:56:25.246332	247.5	21.0	-59.8	0.0
2026-01-28 08:56:27.489839	247.1	20.7	-60.3	0.0
2026-01-28 08:56:29.736850	246.8	20.5	-60.4	0.0
2026-01-28 08:56:31.981358	246.4	20.2	-61.4	0.0
2026-01-28 08:56:34.224864	246.1	20.0	-61.6	0.0
2026-01-28 08:56:36.467370	245.8	19.7	-61.2	0.0
2026-01-28 08:56:38.713877	245.5	19.5	-61.6	0.0
2026-01-28 08:56:40.958384	245.1	19.3	-60.8	0.0
2026-01-28 08:56:43.200890	244.8	19.0	-60.2	0.0
2026-01-28 08:56:45.444406	244.5	18.8	-62.6	0.0
2026-01-28 08:56:47.688912	244.2	18.6	-63.2	0.0
2026-01-28 08:56:49.933421	243.9	18.3	-61.6	0.0
2026-01-28 08:56:52.174934	243.6	18.1	-61.9	0.0
2026-01-28 08:56:54.418945	243.4	17.9	-61.9	0.0
2026-01-28 08:56:56.664452	243.1	17.6	-62.8	0.0
2026-01-28 08:56:58.905959	242.8	17.4	-63.4	0.0
2026-01-28 08:57:01.148969	242.5	17.2	-63.3	0.0
2026-01-28 08:57:03.395476	242.3	17.0	-63.5	0.0
2026-01-28 08:57:05.639984	242.0	16.7	-62.7	0.0
2026-01-28 08:57:07.884491	241.7	16.5	-62.6	0.0
2026-01-28 08:57:10.132007	241.5	16.3	-62.3	0.0
2026-01-28 08:57:12.376514	241.2	16.1	-63.4	0.0
2026-01-28 08:57:14.621021	241.0	15.9	-62.2	0.0
2026-01-28 08:57:16.865527	240.7	15.6	-62.9	0.0
2026-01-28 08:57:19.111539	240.5	15.4	-62.8	0.0
2026-01-28 08:57:21.356046	240.2	15.2	-62.7	0.0
2026-01-28 08:57:23.600553	240.0	15.0	-63.0	0.0
2026-01-28 08:57:25.844068	239.8	14.8	-63.0	0.0
2026-01-28 08:57:28.087575	239.5	14.6	-63.1	0.0
2026-01-28 08:57:30.330081	239.3	14.4	-62.2	0.0
2026-01-28 08:57:32.566586	239.1	14.2	-63.1	0.0
2026-01-28 08:57:34.803596	238.9	14.0	-63.2	0.0
2026-01-28 08:57:37.042102	238.7	13.8	-63.1	0.0
2026-01-28 08:57:39.283608	238.5	13.6	-63.5	0.0
2026-01-28 08:57:41.526114	238.2	13.4	-63.4	0.0
2026-01-28 08:57:43.770125	238.0	13.2	-63.4	0.0
2026-01-28 08:57:46.012136	237.8	13.0	-64.2	0.0
2026-01-28 08:57:48.254642	237.6	12.8	-64.3	0.0
2026-01-28 08:57:50.499149	237.4	12.6	-63.6	0.0
2026-01-28 08:57:52.743656	237.2	12.4	-63.8	0.0
2026-01-28 08:57:54.987162	237.0	12.2	-63.4	0.0
2026-01-28 08:57:57.230684	236.8	12.0	-64.2	0.9
2026-01-28 08:57:59.475191	236.7	11.8	-63.4	0.0
2026-01-28 08:58:01.716697	236.5	11.6	-64.1	0.0
2026-01-28 08:58:03.961204	236.3	11.4	-64.1	0.0
2026-01-28 08:58:06.200222	236.1	11.2	-63.9	1.7
2026-01-28 08:58:08.441232	235.9	11.0	-64.3	0.4
2026-01-28 08:58:10.678249	235.8	10.8	-64.1	1.1
2026-01-28 08:58:12.915754	235.6	10.7	-64.5	2.3
2026-01-28 08:58:15.155764	235.4	10.5	-63.9	0.0
2026-01-28 08:58:17.394270	235.2	10.3	-64.2	1.4
2026-01-28 08:58:19.632288	235.1	10.1	-64.5	1.6
2026-01-28 08:58:21.871298	234.9	9.9	-64.6	1.6
2026-01-28 08:58:24.115309	234.7	9.8	-64.2	2.4
2026-01-28 08:58:26.353815	234.6	9.6	-64.7	3.6
2026-01-28 08:58:28.594321	234.4	9.4	-64.5	2.6
2026-01-28 08:58:30.836331	234.3	9.2	-64.4	2.8
2026-01-28 08:58:33.078847	234.1	9.1	-64.7	3.9
2026-01-28 08:58:35.319865	234.0	8.9	-64.2	1.6
2026-01-28 08:58:37.562381	233.8	8.7	-65.0	3.7
2026-01-28 08:58:39.806393	233.7	8.5	-64.7	3.1
2026-01-28 08:58:42.047916	233.5	8.4	-64.6	3.9
2026-01-28 08:58:44.290423	233.4	8.2	-64.8	0.8
2026-01-28 08:58:46.531929	233.2	8.0	-64.7	3.1
2026-01-28 08:58:48.771435	233.1	7.9	-65.0	3.9
2026-01-28 08:58:51.010444	232.9	7.7	-64.6	3.1
2026-01-28 08:58:53.246959	232.8	7.5	-64.9	3.4
2026-01-28 08:58:55.485472	232.7	7.4	-65.3	4.0
2026-01-28 08:58:57.721491	232.5	7.2	-64.9	4.2
2026-01-28 08:58:59.959508	232.4	7.0	-64.9	3.9
2026-01-28 08:59:02.194021	232.3	6.9	-64.7	3.4
2026-01-28 08:59:04.431537	232.1	6.7	-65.3	3.3
2026-01-28 08:59:06.673050	232.0	6.6	-64.9	3.6
2026-01-28 08:59:08.909606	231.9	6.4	-65.3	3.6
2026-01-28 08:59:11.148128	231.7	6.2	-65.2	2.0
2026-01-28 08:59:13.385137	231.6	6.1	-65.4	3.4
2026-01-28 08:59:15.626155	231.5	5.9	-59.4	0.0
2026-01-28 08:59:17.864671	231.4	5.8	-61.6	0.0
2026-01-28 08:59:20.102680	231.3	5.6	-62.6	0.0
2026-01-28 08:59:22.341690	231.1	5.5	-66.2	0.0
2026-01-28 08:59:24.583709	231.0	5.3	-70.9	0.0
2026-01-28 08:59:26.825728	230.9	5.2	-71.1	0.0
2026-01-28 08:59:29.070236	230.8	5.0	-71.8	0.0
#Closed at: 2026-01-28 08:47:20.964990