passes_logs/2026/01/28/PlanumMoscow/PlanumMoscow__20260128_015549_METEOR-M2_4_rec.log

#Pass ID: 20260128_015549_METEOR-M2 4
#Satellite: METEOR-M2 4
#Configuration: METEOR-M2 4
#Start time: 2026-01-28 01:55:54.051043

#LorettStation: 1.0.0 05.05.2024
#Station: PlanumMoscow
#Location: 37.6253844 lon 55.6713361 lat
#TLE: 1 59051U 24039A   25293.94737965  .00000087  00000+0  58459-4 0  9998
#TLE: 2 59051  98.6671 251.7071 0007726 135.4772 224.7028 14.22388966 85257

#Time	Az	El	Level	SNR
2026-01-28 01:59:32.494024	350.2	25.6	-51.7	0.0
2026-01-28 01:59:34.737053	349.8	25.9	-51.6	0.0
2026-01-28 01:59:36.981064	349.4	26.2	-51.5	0.0
2026-01-28 01:59:39.227580	348.9	26.5	-51.5	0.0
2026-01-28 01:59:41.470599	348.5	26.8	-51.6	0.0
2026-01-28 01:59:43.715106	348.0	27.1	-51.5	0.0
2026-01-28 01:59:45.958631	347.6	27.4	-51.2	0.0
2026-01-28 01:59:48.202643	347.1	27.7	-51.3	0.0
2026-01-28 01:59:50.445662	346.6	28.0	-51.6	0.0
2026-01-28 01:59:52.689673	346.1	28.3	-51.4	0.0
2026-01-28 01:59:54.932198	345.6	28.6	-51.2	0.0
2026-01-28 01:59:57.176209	345.1	28.9	-51.2	0.0
2026-01-28 01:59:59.420220	344.6	29.2	-51.0	0.0
2026-01-28 02:00:01.663753	344.1	29.5	-50.9	0.0
2026-01-28 02:00:03.907279	343.6	29.8	-51.2	0.0
2026-01-28 02:00:06.150797	343.0	30.1	-50.8	0.0
2026-01-28 02:00:08.394817	342.4	30.4	-50.6	0.0
2026-01-28 02:00:10.637342	341.9	30.7	-50.7	0.0
2026-01-28 02:00:12.880857	341.3	31.0	-51.0	0.0
2026-01-28 02:00:15.124869	340.7	31.3	-50.9	0.0
2026-01-28 02:00:17.368384	340.1	31.6	-51.0	0.0
2026-01-28 02:00:19.611412	339.5	31.9	-50.9	0.0
2026-01-28 02:00:21.855432	338.9	32.2	-51.0	0.0
2026-01-28 02:00:24.097966	338.2	32.5	-50.9	0.0
2026-01-28 02:00:26.340491	337.6	32.8	-50.8	0.0
2026-01-28 02:00:28.588513	336.9	33.1	-51.3	0.0
2026-01-28 02:00:30.830047	336.2	33.4	-51.7	0.0
2026-01-28 02:00:33.073562	335.5	33.7	-51.4	0.0
2026-01-28 02:00:35.320584	334.8	34.0	-51.1	0.0
2026-01-28 02:00:37.564099	334.1	34.3	-51.2	0.0
2026-01-28 02:00:39.807615	333.4	34.6	-51.4	0.0
2026-01-28 02:00:42.053122	332.7	34.9	-51.5	0.0
2026-01-28 02:00:44.298142	331.9	35.1	-51.2	0.0
2026-01-28 02:00:46.541658	331.2	35.4	-51.5	0.0
2026-01-28 02:00:48.785174	330.4	35.7	-51.8	0.0
2026-01-28 02:00:51.029186	329.6	36.0	-52.0	0.0
2026-01-28 02:00:53.275702	328.8	36.2	-51.8	0.0
2026-01-28 02:00:55.519713	328.0	36.5	-51.9	0.0
2026-01-28 02:00:57.763229	327.1	36.8	-52.0	0.0
2026-01-28 02:01:00.006250	326.3	37.0	-52.0	0.0
2026-01-28 02:01:02.255271	325.4	37.3	-52.4	0.0
2026-01-28 02:01:04.498289	324.5	37.5	-52.5	0.0
2026-01-28 02:01:06.724570	323.7	37.7	-52.3	0.0
2026-01-28 02:01:08.967589	322.8	38.0	-52.4	0.0
2026-01-28 02:01:11.212095	321.9	38.2	-53.1	0.0
2026-01-28 02:01:13.455116	320.9	38.4	-53.5	0.0
2026-01-28 02:01:15.697640	320.0	38.6	-53.8	0.0
2026-01-28 02:01:17.945669	319.0	38.8	-53.8	0.0
2026-01-28 02:01:20.189185	318.1	39.0	-54.1	0.0
2026-01-28 02:01:22.433196	317.1	39.2	-54.5	0.0
2026-01-28 02:01:24.679225	316.1	39.4	-54.6	0.0
2026-01-28 02:01:26.923750	315.1	39.6	-55.3	0.0
2026-01-28 02:01:29.167762	314.1	39.7	-56.3	0.0
2026-01-28 02:01:31.411773	313.1	39.9	-56.6	0.0
2026-01-28 02:01:33.653801	312.1	40.0	-56.7	0.0
2026-01-28 02:01:35.898308	311.1	40.1	-57.3	1.0
2026-01-28 02:01:38.142319	310.0	40.3	-57.6	0.6
2026-01-28 02:01:40.385339	309.0	40.4	-58.5	2.4
2026-01-28 02:01:42.628368	307.9	40.5	-59.1	2.5
2026-01-28 02:01:44.870395	306.9	40.6	-59.7	3.9
2026-01-28 02:01:47.113920	305.8	40.6	-60.5	4.6
2026-01-28 02:01:49.359452	304.7	40.7	-61.5	6.0
2026-01-28 02:01:51.601976	303.6	40.8	-62.2	7.1
2026-01-28 02:01:53.846483	302.6	40.8	-63.0	8.4
2026-01-28 02:01:56.089998	301.5	40.8	-63.5	9.6
2026-01-28 02:01:58.334018	300.4	40.9	-64.8	11.0
2026-01-28 02:02:00.577534	299.3	40.9	-65.2	12.5
2026-01-28 02:02:02.820554	298.2	40.9	-66.2	12.8
2026-01-28 02:02:05.064070	297.1	40.9	-66.3	12.8
2026-01-28 02:02:07.309104	296.1	40.8	-66.2	12.9
2026-01-28 02:02:09.554611	295.0	40.8	-66.0	12.6
2026-01-28 02:02:11.799118	293.9	40.8	-65.7	11.7
2026-01-28 02:02:14.043625	292.8	40.7	-65.0	11.2
2026-01-28 02:02:16.291142	291.7	40.6	-64.2	9.9
2026-01-28 02:02:18.534658	290.7	40.5	-63.5	9.6
2026-01-28 02:02:20.778668	289.6	40.5	-63.0	8.7
2026-01-28 02:02:23.020706	288.6	40.3	-62.2	7.8
2026-01-28 02:02:25.263231	287.5	40.2	-62.1	6.7
2026-01-28 02:02:27.512253	286.5	40.1	-62.1	5.6
2026-01-28 02:02:29.756760	285.4	40.0	-61.7	4.7
2026-01-28 02:02:32.000771	284.4	39.8	-61.4	4.3
2026-01-28 02:02:34.244286	283.4	39.7	-60.7	3.7
2026-01-28 02:02:36.488297	282.4	39.5	-60.4	2.3
2026-01-28 02:02:38.732309	281.4	39.3	-60.3	2.1
2026-01-28 02:02:40.977320	280.4	39.2	-60.0	2.3
2026-01-28 02:02:43.221332	279.4	39.0	-59.6	3.4
2026-01-28 02:02:45.464849	278.5	38.8	-59.4	3.9
2026-01-28 02:02:47.707869	277.5	38.6	-59.5	3.3
2026-01-28 02:02:49.955881	276.6	38.3	-59.3	2.8
2026-01-28 02:02:52.200396	275.7	38.1	-59.0	3.6
2026-01-28 02:02:54.446904	274.8	37.9	-59.0	2.9
2026-01-28 02:02:56.690432	273.9	37.7	-59.0	2.2
2026-01-28 02:02:58.934939	273.0	37.4	-59.0	1.3
2026-01-28 02:03:01.178958	272.1	37.2	-59.1	1.4
2026-01-28 02:03:03.424475	271.2	36.9	-58.9	1.2
2026-01-28 02:03:05.670991	270.4	36.7	-58.8	0.3
2026-01-28 02:03:07.915003	269.6	36.4	-58.8	0.4
2026-01-28 02:03:10.159025	268.7	36.1	-59.2	0.7
2026-01-28 02:03:12.403036	267.9	35.9	-59.3	1.1
2026-01-28 02:03:14.647056	267.1	35.6	-59.0	0.8
2026-01-28 02:03:16.890572	266.4	35.3	-59.0	0.9
2026-01-28 02:03:19.134088	265.6	35.0	-59.2	1.7
2026-01-28 02:03:21.379099	264.8	34.7	-58.9	1.8
2026-01-28 02:03:23.625633	264.1	34.5	-58.6	1.3
2026-01-28 02:03:25.870140	263.4	34.2	-59.3	1.8
2026-01-28 02:03:28.113159	262.7	33.9	-59.5	2.3
2026-01-28 02:03:30.359179	262.0	33.6	-58.9	1.7
2026-01-28 02:03:32.604191	261.3	33.3	-59.1	1.4
2026-01-28 02:03:34.848715	260.6	33.0	-59.0	1.5
2026-01-28 02:03:37.092726	259.9	32.7	-59.1	2.3
2026-01-28 02:03:39.340251	259.3	32.4	-59.0	1.5
2026-01-28 02:03:41.584263	258.6	32.1	-58.9	1.5
2026-01-28 02:03:43.827779	258.0	31.8	-58.9	2.2
2026-01-28 02:03:46.070303	257.4	31.5	-59.1	1.5
2026-01-28 02:03:48.314315	256.8	31.2	-58.9	1.0
2026-01-28 02:03:50.557838	256.2	30.9	-59.0	1.8
2026-01-28 02:03:52.802345	255.6	30.6	-58.9	1.2
2026-01-28 02:03:55.045860	255.1	30.2	-58.8	0.7
2026-01-28 02:03:57.290393	254.5	29.9	-58.6	2.6
2026-01-28 02:03:59.533909	254.0	29.6	-58.8	1.7
2026-01-28 02:04:01.777920	253.4	29.3	-58.6	2.2
2026-01-28 02:04:04.021435	252.9	29.0	-58.5	2.6
2026-01-28 02:04:06.264951	252.4	28.7	-58.4	2.1
2026-01-28 02:04:08.508961	251.9	28.4	-58.8	2.5
2026-01-28 02:04:10.752972	251.4	28.1	-58.7	2.4
2026-01-28 02:04:12.995993	250.9	27.8	-58.7	2.3
2026-01-28 02:04:15.240500	250.4	27.5	-58.7	2.3
2026-01-28 02:04:17.484511	249.9	27.2	-58.5	2.3
2026-01-28 02:04:19.726541	249.5	26.9	-58.7	2.9
2026-01-28 02:04:21.969073	249.0	26.6	-58.4	2.6
2026-01-28 02:04:24.213589	248.6	26.3	-59.2	2.7
2026-01-28 02:04:26.457104	248.1	26.0	-59.3	3.2
2026-01-28 02:04:28.701124	247.7	25.7	-59.3	2.7
2026-01-28 02:04:30.945648	247.3	25.5	-59.1	2.8
2026-01-28 02:04:33.189164	246.9	25.2	-59.1	3.4
2026-01-28 02:04:35.432680	246.5	24.9	-59.2	2.5
2026-01-28 02:04:37.678214	246.1	24.6	-59.8	3.3
2026-01-28 02:04:39.922226	245.7	24.3	-59.7	2.5
2026-01-28 02:04:42.166237	245.3	24.0	-59.9	2.9
2026-01-28 02:04:44.410753	244.9	23.7	-60.1	3.8
2026-01-28 02:04:46.656782	244.5	23.5	-60.5	3.5
2026-01-28 02:04:48.901307	244.2	23.2	-60.6	4.1
2026-01-28 02:04:51.145814	243.8	22.9	-60.8	3.8
2026-01-28 02:04:53.395332	243.5	22.6	-60.9	3.1
2026-01-28 02:04:55.639343	243.1	22.4	-61.0	4.3
2026-01-28 02:04:57.883355	242.8	22.1	-61.2	3.9
2026-01-28 02:05:00.126871	242.4	21.8	-61.1	4.5
2026-01-28 02:05:02.371377	242.1	21.6	-61.3	5.0
2026-01-28 02:05:04.616389	241.8	21.3	-61.2	4.7
2026-01-28 02:05:06.860400	241.5	21.0	-61.8	5.2
2026-01-28 02:05:09.103916	241.2	20.8	-62.0	5.6
2026-01-28 02:05:11.347440	240.9	20.5	-62.4	4.9
2026-01-28 02:05:13.589964	240.6	20.2	-62.7	5.1
2026-01-28 02:05:15.833479	240.3	20.0	-62.5	6.1
2026-01-28 02:05:18.076498	240.0	19.7	-62.4	6.0
2026-01-28 02:05:20.320022	239.7	19.5	-62.2	5.1
2026-01-28 02:05:22.564529	239.4	19.2	-62.7	5.7
2026-01-28 02:05:24.809045	239.1	19.0	-63.1	5.7
2026-01-28 02:05:27.058562	238.9	18.7	-62.9	5.8
2026-01-28 02:05:29.303079	238.6	18.5	-62.9	6.2
2026-01-28 02:05:31.554092	238.3	18.2	-62.9	6.7
2026-01-28 02:05:33.797111	238.1	18.0	-63.2	7.4
2026-01-28 02:05:36.040626	237.8	17.8	-63.7	6.9
2026-01-28 02:05:38.283159	237.6	17.5	-63.5	7.3
2026-01-28 02:05:40.527675	237.3	17.3	-63.0	6.9
2026-01-28 02:05:42.772687	237.1	17.1	-63.6	7.4
2026-01-28 02:05:45.016202	236.8	16.8	-63.3	7.3
2026-01-28 02:05:47.266225	236.6	16.6	-63.6	7.2
2026-01-28 02:05:49.511237	236.4	16.4	-63.2	6.1
2026-01-28 02:05:51.754754	236.2	16.1	-63.6	6.9
2026-01-28 02:05:53.999782	235.9	15.9	-63.4	7.1
2026-01-28 02:05:56.243298	235.7	15.7	-62.6	5.5
2026-01-28 02:05:58.487805	235.5	15.5	-63.0	5.3
2026-01-28 02:06:00.730337	235.3	15.2	-63.3	6.2
2026-01-28 02:06:02.975360	235.1	15.0	-63.5	6.5
2026-01-28 02:06:05.218875	234.9	14.8	-63.0	5.3
2026-01-28 02:06:07.462887	234.7	14.6	-63.4	5.9
2026-01-28 02:06:09.706411	234.5	14.4	-63.5	6.3
2026-01-28 02:06:11.949935	234.3	14.2	-63.3	6.2
2026-01-28 02:06:14.193946	234.1	13.9	-63.4	6.3
2026-01-28 02:06:16.441975	233.9	13.7	-63.6	7.5
2026-01-28 02:06:18.685986	233.7	13.5	-63.7	6.4
2026-01-28 02:06:20.929997	233.5	13.3	-63.7	6.2
2026-01-28 02:06:23.173513	233.3	13.1	-64.2	6.2
2026-01-28 02:06:25.417036	233.1	12.9	-64.2	6.1
2026-01-28 02:06:27.661047	232.9	12.7	-63.9	6.5
2026-01-28 02:06:29.904564	232.8	12.5	-64.2	6.8
2026-01-28 02:06:32.146592	232.6	12.3	-64.2	5.9
2026-01-28 02:06:34.390604	232.4	12.1	-64.2	6.2
2026-01-28 02:06:36.633623	232.3	11.9	-65.0	6.9
2026-01-28 02:06:38.876651	232.1	11.7	-64.2	7.1
2026-01-28 02:06:41.121176	231.9	11.5	-64.6	6.9
2026-01-28 02:06:43.365187	231.8	11.3	-64.8	6.6
2026-01-28 02:06:45.608703	231.6	11.1	-65.3	7.5
2026-01-28 02:06:47.854218	231.4	10.9	-65.7	7.4
2026-01-28 02:06:50.097734	231.3	10.7	-65.2	7.7
2026-01-28 02:06:52.340753	231.1	10.6	-64.8	7.3
2026-01-28 02:06:54.583285	231.0	10.4	-65.7	6.6
2026-01-28 02:06:56.828306	230.8	10.2	-66.1	8.0
2026-01-28 02:06:59.072318	230.7	10.0	-66.2	8.6
2026-01-28 02:07:01.316824	230.5	9.8	-65.9	8.1
2026-01-28 02:07:03.562341	230.4	9.6	-65.4	7.7
2026-01-28 02:07:05.806352	230.3	9.5	-65.8	8.3
2026-01-28 02:07:08.049877	230.1	9.3	-65.7	7.0
2026-01-28 02:07:10.297897	230.0	9.1	-66.0	7.1
2026-01-28 02:07:12.543414	229.8	8.9	-66.0	9.1
2026-01-28 02:07:14.785951	229.7	8.7	-65.8	7.3
2026-01-28 02:07:17.030454	229.6	8.6	-65.7	7.5
2026-01-28 02:07:19.274474	229.4	8.4	-65.8	8.3
2026-01-28 02:07:21.519486	229.3	8.2	-65.9	7.0
2026-01-28 02:07:23.761515	229.2	8.0	-66.1	7.9
2026-01-28 02:07:26.005031	229.1	7.9	-65.2	6.6
2026-01-28 02:07:28.249538	228.9	7.7	-65.8	7.0
2026-01-28 02:07:30.492564	228.8	7.5	-66.7	6.4
2026-01-28 02:07:32.738067	228.7	7.4	-65.5	5.5
2026-01-28 02:07:34.983078	228.6	7.2	-65.3	6.7
2026-01-28 02:07:37.226105	228.4	7.0	-65.5	6.1
2026-01-28 02:07:39.469620	228.3	6.9	-65.7	6.2
2026-01-28 02:07:41.713632	228.2	6.7	-65.5	7.5
2026-01-28 02:07:43.957646	228.1	6.5	-65.4	5.8
2026-01-28 02:07:46.200668	228.0	6.4	-65.7	5.8
2026-01-28 02:07:48.445679	227.9	6.2	-65.8	5.6
2026-01-28 02:07:50.689204	227.7	6.1	-65.6	5.7
2026-01-28 02:07:52.933215	227.6	5.9	-67.1	1.1
2026-01-28 02:07:55.176731	227.5	5.7	-66.3	0.0
2026-01-28 02:07:57.420255	227.4	5.6	-68.2	0.0
2026-01-28 02:07:59.663275	227.3	5.4	-70.1	0.0
2026-01-28 02:08:01.905801	227.2	5.3	-68.9	0.0
2026-01-28 02:08:04.148821	227.1	5.1	-67.0	0.0
#Closed at: 2026-01-28 01:55:49.051955