passes_logs/2026/01/28/PlanumMoscow/PlanumMoscow__20260128_063041_METOP-B_rec.log

#Pass ID: 20260128_063041_METOP-B
#Satellite: METOP-B
#Configuration: METOP-B
#Start time: 2026-01-28 06:30:46.672213

#LorettStation: 1.0.0 05.05.2024
#Station: PlanumMoscow
#Location: 37.6253844 lon 55.6713361 lat
#TLE: 1 38771U 12049A   25293.92766658  .00000266  00000+0  14193-3 0  9996
#TLE: 2 38771  98.6882 344.7603 0001609 341.5209  18.5909 14.21379342679275

#Time	Az	El	Level	SNR
2026-01-28 06:34:25.086086	40.5	26.2	-61.4	0.0
2026-01-28 06:34:27.332137	40.9	26.5	-61.4	0.0
2026-01-28 06:34:29.575675	41.3	26.8	-62.3	0.5
2026-01-28 06:34:31.819685	41.7	27.2	-61.8	0.0
2026-01-28 06:34:34.066244	42.1	27.5	-62.2	0.8
2026-01-28 06:34:36.309760	42.5	27.8	-61.3	0.0
2026-01-28 06:34:38.553816	42.9	28.1	-61.2	0.0
2026-01-28 06:34:40.796842	43.3	28.5	-61.5	0.0
2026-01-28 06:34:43.043428	43.8	28.8	-63.2	0.0
2026-01-28 06:34:45.285470	44.2	29.1	-62.8	1.6
2026-01-28 06:34:47.529010	44.7	29.5	-62.2	0.0
2026-01-28 06:34:49.773031	45.1	29.8	-62.4	0.5
2026-01-28 06:34:52.016586	45.6	30.1	-62.9	0.5
2026-01-28 06:34:54.260143	46.1	30.5	-61.9	1.5
2026-01-28 06:34:56.504165	46.6	30.8	-62.4	0.3
2026-01-28 06:34:58.747728	47.1	31.2	-62.6	0.0
2026-01-28 06:35:00.993747	47.6	31.5	-62.4	0.1
2026-01-28 06:35:03.237765	48.1	31.9	-62.1	0.3
2026-01-28 06:35:05.481310	48.7	32.2	-62.4	2.2
2026-01-28 06:35:07.724833	49.2	32.6	-61.9	0.0
2026-01-28 06:35:09.969890	49.8	32.9	-61.9	0.0
2026-01-28 06:35:12.214902	50.4	33.3	-62.1	0.0
2026-01-28 06:35:14.458456	51.0	33.6	-61.8	0.0
2026-01-28 06:35:16.704981	51.6	34.0	-62.4	0.0
2026-01-28 06:35:18.949627	52.2	34.3	-60.7	0.0
2026-01-28 06:35:21.194042	52.8	34.7	-60.7	0.0
2026-01-28 06:35:23.437605	53.4	35.0	-60.4	0.0
2026-01-28 06:35:25.683159	54.1	35.4	-61.3	0.0
2026-01-28 06:35:27.926683	54.8	35.7	-62.1	0.0
2026-01-28 06:35:30.170238	55.5	36.1	-61.3	0.0
2026-01-28 06:35:32.416763	56.2	36.5	-62.1	0.0
2026-01-28 06:35:34.660783	56.9	36.8	-61.2	0.0
2026-01-28 06:35:36.904316	57.6	37.2	-61.5	0.0
2026-01-28 06:35:39.146840	58.3	37.5	-60.3	0.0
2026-01-28 06:35:41.395890	59.1	37.9	-59.2	0.0
2026-01-28 06:35:43.640405	59.9	38.2	-59.2	0.0
2026-01-28 06:35:45.883944	60.7	38.6	-60.1	0.0
2026-01-28 06:35:48.127467	61.5	38.9	-60.7	0.0
2026-01-28 06:35:50.374014	62.3	39.2	-59.7	0.0
2026-01-28 06:35:52.617564	63.2	39.6	-60.2	0.0
2026-01-28 06:35:54.861089	64.0	39.9	-59.4	0.0
2026-01-28 06:35:57.107635	64.9	40.2	-58.4	0.0
2026-01-28 06:35:59.351656	65.8	40.6	-57.6	0.0
2026-01-28 06:36:01.595698	66.7	40.9	-58.5	0.0
2026-01-28 06:36:03.839238	67.6	41.2	-59.7	0.0
2026-01-28 06:36:06.082791	68.6	41.5	-60.1	0.0
2026-01-28 06:36:08.326308	69.6	41.8	-58.4	0.0
2026-01-28 06:36:10.569824	70.5	42.1	-60.9	0.0
2026-01-28 06:36:12.813873	71.5	42.4	-61.7	0.0
2026-01-28 06:36:15.058918	72.6	42.7	-60.8	0.0
2026-01-28 06:36:17.303425	73.6	42.9	-61.5	0.0
2026-01-28 06:36:19.548455	74.7	43.2	-59.0	0.0
2026-01-28 06:36:21.793526	75.7	43.5	-61.6	0.0
2026-01-28 06:36:24.037553	76.8	43.7	-62.9	0.0
2026-01-28 06:36:26.281601	77.9	43.9	-61.0	0.0
2026-01-28 06:36:28.527146	79.1	44.2	-62.5	0.0
2026-01-28 06:36:30.770670	80.2	44.4	-61.6	0.0
2026-01-28 06:36:33.014216	81.4	44.6	-62.1	0.0
2026-01-28 06:36:35.258236	82.5	44.8	-62.6	0.0
2026-01-28 06:36:37.506791	83.7	44.9	-62.8	0.0
2026-01-28 06:36:39.753820	84.9	45.1	-63.1	0.0
2026-01-28 06:36:41.997365	86.1	45.3	-63.5	0.0
2026-01-28 06:36:44.240384	87.3	45.4	-64.8	0.9
2026-01-28 06:36:46.483442	88.6	45.5	-65.6	3.0
2026-01-28 06:36:48.727460	89.8	45.6	-63.9	0.0
2026-01-28 06:36:50.971472	91.0	45.7	-63.0	0.0
2026-01-28 06:36:53.218540	92.3	45.8	-63.0	0.0
2026-01-28 06:36:55.462570	93.6	45.9	-61.8	0.0
2026-01-28 06:36:57.706647	94.8	45.9	-63.5	0.6
2026-01-28 06:36:59.950161	96.1	46.0	-64.5	0.0
2026-01-28 06:37:02.194677	97.4	46.0	-64.6	0.0
2026-01-28 06:37:04.438698	98.6	46.0	-63.9	0.0
2026-01-28 06:37:06.681270	99.9	46.0	-64.0	0.0
2026-01-28 06:37:08.922803	101.2	46.0	-63.5	0.0
2026-01-28 06:37:11.165832	102.4	46.0	-63.2	0.0
2026-01-28 06:37:13.409377	103.7	45.9	-64.7	0.7
2026-01-28 06:37:15.650917	105.0	45.8	-64.3	0.0
2026-01-28 06:37:17.895976	106.2	45.8	-64.2	0.5
2026-01-28 06:37:20.139523	107.5	45.7	-65.4	2.6
2026-01-28 06:37:22.383534	108.7	45.5	-65.0	2.7
2026-01-28 06:37:24.627546	109.9	45.4	-65.3	2.6
2026-01-28 06:37:26.870625	111.2	45.3	-64.2	0.1
2026-01-28 06:37:29.114146	112.4	45.1	-63.1	0.0
2026-01-28 06:37:31.357166	113.6	45.0	-63.1	0.0
2026-01-28 06:37:33.599223	114.7	44.8	-63.0	0.0
2026-01-28 06:37:35.843243	115.9	44.6	-62.1	0.0
2026-01-28 06:37:38.086293	117.1	44.4	-64.7	1.3
2026-01-28 06:37:40.329818	118.2	44.2	-64.1	0.0
2026-01-28 06:37:42.573373	119.3	44.0	-64.4	0.2
2026-01-28 06:37:44.816399	120.5	43.7	-63.1	0.0
2026-01-28 06:37:47.059418	121.5	43.5	-62.9	0.0
2026-01-28 06:37:49.303965	122.6	43.2	-64.6	0.0
2026-01-28 06:37:51.547488	123.7	43.0	-64.5	3.4
2026-01-28 06:37:53.790551	124.7	42.7	-64.7	2.0
2026-01-28 06:37:56.033578	125.8	42.4	-64.4	1.6
2026-01-28 06:37:58.276133	126.8	42.1	-65.1	3.7
2026-01-28 06:38:00.519703	127.8	41.8	-64.8	3.3
2026-01-28 06:38:02.762779	128.7	41.5	-65.8	5.8
2026-01-28 06:38:05.006791	129.7	41.2	-65.3	5.2
2026-01-28 06:38:07.249324	130.6	40.9	-65.1	4.1
2026-01-28 06:38:09.492870	131.5	40.6	-64.7	4.8
2026-01-28 06:38:11.736889	132.4	40.3	-65.1	5.4
2026-01-28 06:38:13.980434	133.3	39.9	-65.8	6.3
2026-01-28 06:38:16.223465	134.2	39.6	-65.8	6.9
2026-01-28 06:38:18.468011	135.0	39.3	-65.5	6.3
2026-01-28 06:38:20.712028	135.9	38.9	-66.0	6.2
2026-01-28 06:38:22.953592	136.7	38.6	-65.7	6.8
2026-01-28 06:38:25.198669	137.5	38.2	-65.3	6.9
2026-01-28 06:38:27.447177	138.3	37.9	-64.6	5.6
2026-01-28 06:38:29.690788	139.0	37.5	-65.3	6.5
2026-01-28 06:38:31.936321	139.8	37.2	-65.7	7.4
2026-01-28 06:38:34.179841	140.5	36.8	-65.4	5.8
2026-01-28 06:38:36.422891	141.2	36.5	-65.7	5.3
2026-01-28 06:38:38.672448	141.9	36.1	-66.0	6.5
2026-01-28 06:38:40.915506	142.6	35.8	-65.9	5.5
2026-01-28 06:38:43.159524	143.3	35.4	-66.2	6.1
2026-01-28 06:38:45.402553	143.9	35.0	-65.8	5.2
2026-01-28 06:38:47.646141	144.6	34.7	-65.7	6.9
2026-01-28 06:38:49.889200	145.2	34.3	-65.5	6.5
2026-01-28 06:38:52.131761	145.8	34.0	-65.2	5.5
2026-01-28 06:38:54.374800	146.4	33.6	-65.2	6.5
2026-01-28 06:38:56.623354	147.0	33.3	-65.3	7.1
2026-01-28 06:38:58.866882	147.6	32.9	-65.3	7.3
2026-01-28 06:39:01.111429	148.2	32.5	-64.1	6.2
2026-01-28 06:39:03.354946	148.7	32.2	-64.3	6.5
2026-01-28 06:39:05.601474	149.3	31.8	-65.0	8.1
2026-01-28 06:39:07.845034	149.8	31.5	-65.0	8.3
2026-01-28 06:39:10.087567	150.3	31.1	-64.9	8.7
2026-01-28 06:39:12.333144	150.8	30.8	-64.9	7.9
2026-01-28 06:39:14.578181	151.3	30.5	-64.9	8.0
2026-01-28 06:39:16.820760	151.8	30.1	-65.1	7.9
2026-01-28 06:39:19.064781	152.3	29.8	-64.9	7.8
2026-01-28 06:39:21.309297	152.8	29.4	-65.3	7.8
2026-01-28 06:39:23.553346	153.2	29.1	-65.3	7.3
2026-01-28 06:39:25.796401	153.7	28.8	-65.5	8.0
2026-01-28 06:39:28.045909	154.1	28.4	-64.6	7.1
2026-01-28 06:39:30.289920	154.5	28.1	-64.7	7.7
2026-01-28 06:39:32.532941	155.0	27.8	-64.6	6.2
2026-01-28 06:39:34.776952	155.4	27.4	-64.5	6.7
2026-01-28 06:39:37.021468	155.8	27.1	-64.7	7.0
2026-01-28 06:39:39.265975	156.2	26.8	-64.9	7.2
2026-01-28 06:39:41.508013	156.6	26.5	-65.2	7.9
2026-01-28 06:39:43.751040	157.0	26.2	-65.1	8.5
2026-01-28 06:39:45.998061	157.3	25.8	-65.0	7.7
2026-01-28 06:39:48.241081	157.7	25.5	-65.1	8.2
2026-01-28 06:39:50.484099	158.1	25.2	-65.3	8.9
2026-01-28 06:39:52.731120	158.4	24.9	-65.6	8.7
2026-01-28 06:39:54.975132	158.8	24.6	-65.6	8.1
2026-01-28 06:39:57.218647	159.1	24.3	-65.6	8.6
2026-01-28 06:39:59.462172	159.4	24.0	-65.2	8.1
2026-01-28 06:40:01.700686	159.8	23.7	-65.6	8.3
2026-01-28 06:40:03.940192	160.1	23.4	-65.6	8.3
2026-01-28 06:40:06.177722	160.4	23.1	-65.6	8.2
2026-01-28 06:40:08.414253	160.7	22.8	-65.4	8.3
2026-01-28 06:40:10.651271	161.0	22.6	-65.4	8.0
2026-01-28 06:40:12.888776	161.3	22.3	-65.2	8.3
2026-01-28 06:40:15.123793	161.6	22.0	-65.2	8.0
2026-01-28 06:40:17.363299	161.9	21.7	-65.2	8.1
2026-01-28 06:40:19.605817	162.2	21.4	-65.4	8.1
2026-01-28 06:40:21.842341	162.5	21.2	-65.3	8.1
2026-01-28 06:40:24.078846	162.8	20.9	-65.1	8.2
2026-01-28 06:40:26.315360	163.0	20.6	-65.5	8.2
2026-01-28 06:40:28.554865	163.3	20.4	-65.4	7.8
2026-01-28 06:40:30.791875	163.5	20.1	-65.5	7.9
2026-01-28 06:40:33.031893	163.8	19.8	-65.4	7.9
2026-01-28 06:40:35.270920	164.1	19.6	-65.3	8.1
2026-01-28 06:40:37.511435	164.3	19.3	-65.1	6.7
2026-01-28 06:40:39.750949	164.6	19.0	-65.2	7.3
2026-01-28 06:40:41.991455	164.8	18.8	-65.7	8.1
2026-01-28 06:40:44.232479	165.0	18.5	-65.3	6.7
2026-01-28 06:40:46.474986	165.3	18.3	-65.0	7.0
2026-01-28 06:40:48.716502	165.5	18.0	-65.2	7.6
2026-01-28 06:40:50.962513	165.7	17.8	-65.0	7.0
2026-01-28 06:40:53.206029	165.9	17.5	-65.2	7.2
2026-01-28 06:40:55.449040	166.2	17.3	-65.1	6.2
2026-01-28 06:40:57.690555	166.4	17.1	-65.3	6.8
2026-01-28 06:40:59.932069	166.6	16.8	-64.9	7.1
2026-01-28 06:41:02.177081	166.8	16.6	-64.9	6.7
2026-01-28 06:41:04.414593	167.0	16.4	-65.0	5.9
2026-01-28 06:41:06.657613	167.2	16.1	-64.8	6.9
2026-01-28 06:41:08.901624	167.4	15.9	-64.4	6.2
2026-01-28 06:41:11.145646	167.6	15.7	-64.4	5.4
2026-01-28 06:41:13.390662	167.8	15.4	-64.6	5.0
2026-01-28 06:41:15.634688	168.0	15.2	-64.5	4.9
2026-01-28 06:41:17.877699	168.2	15.0	-64.5	5.4
2026-01-28 06:41:20.116222	168.4	14.8	-65.1	4.6
2026-01-28 06:41:22.353736	168.6	14.5	-64.5	5.3
2026-01-28 06:41:24.594251	168.7	14.3	-64.2	3.6
2026-01-28 06:41:26.840263	168.9	14.1	-64.7	4.7
2026-01-28 06:41:29.084280	169.1	13.9	-65.0	4.2
2026-01-28 06:41:31.330781	169.3	13.7	-65.0	5.3
2026-01-28 06:41:33.573802	169.4	13.5	-64.9	6.0
2026-01-28 06:41:35.817821	169.6	13.3	-64.5	3.6
2026-01-28 06:41:38.062328	169.8	13.1	-65.1	5.9
2026-01-28 06:41:40.304856	169.9	12.8	-65.0	4.6
2026-01-28 06:41:42.548381	170.1	12.6	-64.9	4.4
2026-01-28 06:41:44.792393	170.3	12.4	-64.8	4.8
2026-01-28 06:41:47.036899	170.4	12.2	-65.0	5.2
2026-01-28 06:41:49.281919	170.6	12.0	-64.6	4.2
2026-01-28 06:41:51.524930	170.7	11.8	-64.7	3.5
2026-01-28 06:41:53.768942	170.9	11.6	-64.9	4.7
2026-01-28 06:41:56.010954	171.0	11.4	-64.8	4.7
2026-01-28 06:41:58.251996	171.2	11.2	-64.5	3.6
2026-01-28 06:42:00.487510	171.3	11.1	-64.3	3.2
2026-01-28 06:42:02.724024	171.5	10.9	-64.0	4.3
2026-01-28 06:42:04.964036	171.6	10.7	-63.9	3.7
2026-01-28 06:42:07.204045	171.7	10.5	-64.3	3.2
2026-01-28 06:42:09.439559	171.9	10.3	-63.1	0.0
2026-01-28 06:42:11.675080	172.0	10.1	-62.9	0.0
2026-01-28 06:42:13.911090	172.2	9.9	-63.9	1.6
2026-01-28 06:42:16.153111	172.3	9.7	-64.3	1.4
2026-01-28 06:42:18.393122	172.4	9.6	-65.1	2.9
2026-01-28 06:42:20.629139	172.6	9.4	-65.1	4.4
2026-01-28 06:42:22.865156	172.7	9.2	-64.9	3.5
2026-01-28 06:42:25.105166	172.8	9.0	-64.6	3.3
2026-01-28 06:42:27.340184	172.9	8.8	-64.5	0.9
2026-01-28 06:42:29.575697	173.1	8.7	-63.9	0.0
2026-01-28 06:42:31.811707	173.2	8.5	-64.8	1.4
2026-01-28 06:42:34.049717	173.3	8.3	-64.5	2.3
2026-01-28 06:42:36.281733	173.4	8.1	-64.7	2.7
2026-01-28 06:42:38.517742	173.5	8.0	-64.0	0.1
2026-01-28 06:42:40.755256	173.7	7.8	-64.1	2.0
2026-01-28 06:42:42.989280	173.8	7.6	-64.5	2.5
2026-01-28 06:42:45.227794	173.9	7.5	-65.0	0.7
2026-01-28 06:42:47.463812	174.0	7.3	-64.3	1.0
2026-01-28 06:42:49.699847	174.1	7.1	-63.7	0.0
2026-01-28 06:42:51.937361	174.2	7.0	-64.3	0.1
2026-01-28 06:42:54.173873	174.3	6.8	-64.2	0.4
2026-01-28 06:42:56.412379	174.5	6.6	-63.5	0.0
2026-01-28 06:42:58.653893	174.6	6.5	-63.4	1.5
2026-01-28 06:43:00.893398	174.7	6.3	-64.2	0.0
2026-01-28 06:43:03.137410	174.8	6.1	-63.3	0.0
2026-01-28 06:43:05.381424	174.9	6.0	-65.3	0.0
2026-01-28 06:43:07.622939	175.0	5.8	-70.2	0.0
2026-01-28 06:43:09.857956	175.1	5.7	-69.4	0.0
2026-01-28 06:43:12.101470	175.2	5.5	-68.8	0.0
2026-01-28 06:43:14.337489	175.3	5.4	-68.7	0.0
2026-01-28 06:43:16.578003	175.4	5.2	-70.5	0.0
2026-01-28 06:43:18.817526	175.5	5.0	-71.5	0.0
#Closed at: 2026-01-28 06:30:41.673392