passes_logs/2026/01/28/PlanumMoscow/PlanumMoscow__20260128_183701_METOP-C_rec.log

#Pass ID: 20260128_183701_METOP-C
#Satellite: METOP-C
#Configuration: METOP-C
#Start time: 2026-01-28 18:37:06.085568

#LorettStation: 1.0.0 05.05.2024
#Station: PlanumMoscow
#Location: 37.6253844 lon 55.6713361 lat
#TLE: 1 43689U 18087A   25293.88981035  .00000265  00000+0  14109-3 0  9997
#TLE: 2 43689  98.7006 352.4487 0002041 122.1097 238.0279 14.21482740360838

#Time	Az	El	Level	SNR
2026-01-28 18:40:44.477802	194.6	27.7	-65.3	0.0
2026-01-28 18:40:46.718356	194.9	28.1	-65.3	0.0
2026-01-28 18:40:48.957375	195.2	28.4	-65.6	0.0
2026-01-28 18:40:51.197965	195.6	28.8	-65.2	0.0
2026-01-28 18:40:53.436984	195.9	29.2	-64.5	0.0
2026-01-28 18:40:55.678517	196.3	29.5	-64.1	0.0
2026-01-28 18:40:57.922528	196.7	29.9	-66.2	0.0
2026-01-28 18:41:00.161042	197.0	30.3	-66.3	0.0
2026-01-28 18:41:02.399068	197.4	30.7	-63.5	0.0
2026-01-28 18:41:04.639079	197.8	31.1	-65.9	0.0
2026-01-28 18:41:06.876601	198.2	31.5	-65.5	0.0
2026-01-28 18:41:09.120116	198.6	31.9	-63.4	0.0
2026-01-28 18:41:11.359134	199.1	32.3	-63.2	0.0
2026-01-28 18:41:13.600144	199.5	32.7	-64.0	0.0
2026-01-28 18:41:15.842162	199.9	33.1	-64.6	0.0
2026-01-28 18:41:18.079676	200.4	33.5	-64.3	0.0
2026-01-28 18:41:20.320696	200.9	33.9	-65.9	0.0
2026-01-28 18:41:22.558706	201.3	34.3	-65.9	0.0
2026-01-28 18:41:24.802221	201.8	34.7	-65.6	0.0
2026-01-28 18:41:27.043250	202.3	35.1	-65.4	0.0
2026-01-28 18:41:29.287261	202.8	35.6	-63.0	0.0
2026-01-28 18:41:31.529779	203.4	36.0	-66.8	0.0
2026-01-28 18:41:33.773294	203.9	36.4	-66.1	0.0
2026-01-28 18:41:36.012809	204.5	36.9	-66.0	0.0
2026-01-28 18:41:38.251819	205.0	37.3	-65.1	0.0
2026-01-28 18:41:40.490333	205.6	37.8	-65.8	0.0
2026-01-28 18:41:42.733344	206.2	38.2	-65.3	0.0
2026-01-28 18:41:44.974850	206.9	38.6	-66.2	0.0
2026-01-28 18:41:47.217861	207.5	39.1	-66.4	0.0
2026-01-28 18:41:49.460376	208.2	39.5	-66.3	0.0
2026-01-28 18:41:51.702892	208.8	40.0	-63.7	0.0
2026-01-28 18:41:53.944912	209.5	40.4	-64.3	0.0
2026-01-28 18:41:56.188933	210.2	40.9	-64.0	0.0
2026-01-28 18:41:58.432457	211.0	41.4	-64.2	0.0
2026-01-28 18:42:00.675972	211.7	41.8	-64.2	0.0
2026-01-28 18:42:02.919478	212.5	42.3	-63.9	0.0
2026-01-28 18:42:05.168490	213.3	42.7	-64.1	0.0
2026-01-28 18:42:07.411519	214.1	43.2	-66.1	0.0
2026-01-28 18:42:09.654043	215.0	43.6	-63.1	0.0
2026-01-28 18:42:11.897559	215.8	44.1	-66.1	0.0
2026-01-28 18:42:14.141075	216.7	44.5	-64.3	0.0
2026-01-28 18:42:16.381598	217.6	45.0	-62.9	0.0
2026-01-28 18:42:18.619617	218.6	45.4	-65.3	0.0
2026-01-28 18:42:20.858141	219.5	45.9	-65.8	0.0
2026-01-28 18:42:23.102649	220.5	46.3	-65.5	0.0
2026-01-28 18:42:25.347164	221.5	46.7	-63.8	0.0
2026-01-28 18:42:27.591182	222.6	47.2	-63.0	0.0
2026-01-28 18:42:29.834699	223.7	47.6	-62.7	0.0
2026-01-28 18:42:32.078213	224.8	48.0	-62.5	0.0
2026-01-28 18:42:34.322720	225.9	48.4	-62.6	0.0
2026-01-28 18:42:36.566740	227.1	48.8	-62.2	0.0
2026-01-28 18:42:38.806246	228.3	49.2	-62.8	0.0
2026-01-28 18:42:41.045760	229.5	49.6	-63.7	0.0
2026-01-28 18:42:43.290275	230.8	49.9	-65.4	0.0
2026-01-28 18:42:45.532286	232.1	50.3	-65.5	0.0
2026-01-28 18:42:47.771791	233.4	50.6	-63.5	0.0
2026-01-28 18:42:50.012802	234.7	50.9	-63.9	0.0
2026-01-28 18:42:52.249315	236.1	51.3	-65.1	0.0
2026-01-28 18:42:54.489830	237.5	51.5	-65.4	0.0
2026-01-28 18:42:56.728850	238.9	51.8	-63.8	0.0
2026-01-28 18:42:58.967364	240.4	52.1	-65.4	0.0
2026-01-28 18:43:01.211881	241.8	52.3	-63.9	0.0
2026-01-28 18:43:03.451900	243.3	52.6	-64.6	0.0
2026-01-28 18:43:05.694407	244.9	52.8	-64.9	0.0
2026-01-28 18:43:07.935417	246.4	53.0	-65.9	0.0
2026-01-28 18:43:10.173428	248.0	53.1	-66.8	0.0
2026-01-28 18:43:12.409942	249.5	53.3	-67.1	0.0
2026-01-28 18:43:14.648952	251.1	53.4	-65.9	0.0
2026-01-28 18:43:16.890467	252.7	53.5	-66.3	0.0
2026-01-28 18:43:19.126485	254.4	53.6	-64.3	0.0
2026-01-28 18:43:21.361496	256.0	53.7	-65.5	0.0
2026-01-28 18:43:23.602002	257.6	53.7	-66.1	0.0
2026-01-28 18:43:25.845517	259.2	53.7	-66.9	0.0
2026-01-28 18:43:28.086024	260.9	53.7	-65.5	0.0
2026-01-28 18:43:30.324042	262.5	53.7	-66.0	0.0
2026-01-28 18:43:32.563052	264.1	53.6	-66.7	0.0
2026-01-28 18:43:34.803062	265.7	53.5	-65.8	0.0
2026-01-28 18:43:37.045577	267.4	53.4	-66.7	0.0
2026-01-28 18:43:39.289084	268.9	53.3	-66.1	0.0
2026-01-28 18:43:41.529094	270.5	53.1	-67.6	0.0
2026-01-28 18:43:43.769113	272.1	53.0	-68.1	0.0
2026-01-28 18:43:46.006637	273.6	52.8	-66.3	0.0
2026-01-28 18:43:48.243656	275.2	52.6	-65.8	0.0
2026-01-28 18:43:50.487667	276.7	52.4	-66.9	0.0
2026-01-28 18:43:52.728678	278.1	52.1	-67.8	0.0
2026-01-28 18:43:54.966191	279.6	51.9	-68.1	0.0
2026-01-28 18:43:57.207707	281.0	51.6	-68.1	0.0
2026-01-28 18:43:59.454222	282.4	51.3	-66.8	0.0
2026-01-28 18:44:01.698738	283.8	51.0	-66.9	0.0
2026-01-28 18:44:03.939244	285.1	50.6	-67.6	0.0
2026-01-28 18:44:06.181760	286.4	50.3	-68.1	0.0
2026-01-28 18:44:08.422788	287.7	50.0	-67.8	0.0
2026-01-28 18:44:10.665807	289.0	49.6	-66.9	0.0
2026-01-28 18:44:12.908323	290.2	49.2	-67.0	0.0
2026-01-28 18:44:15.146838	291.4	48.8	-68.6	0.0
2026-01-28 18:44:17.383351	292.6	48.4	-67.2	0.0
2026-01-28 18:44:19.622371	293.7	48.0	-67.6	0.0
2026-01-28 18:44:21.861901	294.8	47.6	-68.7	0.0
2026-01-28 18:44:24.101415	295.9	47.2	-68.8	0.0
2026-01-28 18:44:26.345426	296.9	46.8	-68.2	0.0
2026-01-28 18:44:28.588941	298.0	46.4	-68.6	0.0
2026-01-28 18:44:30.837468	299.0	45.9	-68.7	0.0
2026-01-28 18:44:33.081975	299.9	45.5	-68.4	0.0
2026-01-28 18:44:35.325986	300.9	45.0	-68.5	0.0
2026-01-28 18:44:37.573511	301.8	44.6	-68.7	0.0
2026-01-28 18:44:39.813025	302.7	44.1	-67.7	0.0
2026-01-28 18:44:42.053531	303.5	43.7	-68.8	0.0
2026-01-28 18:44:44.292541	304.4	43.2	-68.7	0.0
2026-01-28 18:44:46.536057	305.2	42.8	-68.3	0.0
2026-01-28 18:44:48.779069	306.0	42.3	-68.3	0.0
2026-01-28 18:44:51.018079	306.8	41.9	-67.3	0.0
2026-01-28 18:44:53.258097	307.5	41.4	-68.7	0.0
2026-01-28 18:44:55.501611	308.2	41.0	-68.0	0.0
2026-01-28 18:44:57.745622	309.0	40.5	-67.8	0.0
2026-01-28 18:44:59.984632	309.7	40.1	-68.6	0.0
2026-01-28 18:45:02.225643	310.3	39.6	-67.9	0.0
2026-01-28 18:45:04.469158	311.0	39.2	-67.9	0.0
2026-01-28 18:45:06.713169	311.6	38.7	-68.2	0.0
2026-01-28 18:45:08.957180	312.2	38.3	-68.6	0.0
2026-01-28 18:45:11.203203	312.9	37.8	-67.5	0.0
2026-01-28 18:45:13.446718	313.4	37.4	-67.9	0.0
2026-01-28 18:45:15.691225	314.0	37.0	-67.1	0.0
2026-01-28 18:45:17.934739	314.6	36.5	-67.8	0.0
2026-01-28 18:45:20.179254	315.1	36.1	-67.8	0.0
2026-01-28 18:45:22.421778	315.7	35.7	-68.3	0.0
2026-01-28 18:45:24.666293	316.2	35.3	-67.7	0.0
2026-01-28 18:45:26.911314	316.7	34.8	-66.9	0.0
2026-01-28 18:45:29.155821	317.2	34.4	-67.6	0.0
2026-01-28 18:45:31.399336	317.6	34.0	-67.6	0.0
2026-01-28 18:45:33.642356	318.1	33.6	-67.5	0.0
2026-01-28 18:45:35.886367	318.6	33.2	-66.7	0.0
2026-01-28 18:45:38.130377	319.0	32.8	-67.2	0.0
2026-01-28 18:45:40.373404	319.4	32.4	-68.1	0.0
2026-01-28 18:45:42.621424	319.9	32.0	-67.6	0.0
2026-01-28 18:45:44.864939	320.3	31.6	-67.2	0.0
2026-01-28 18:45:47.107959	320.7	31.2	-66.9	0.0
2026-01-28 18:45:49.350980	321.1	30.8	-66.9	0.0
2026-01-28 18:45:51.594494	321.5	30.4	-66.9	0.0
2026-01-28 18:45:53.839001	321.9	30.0	-67.1	0.0
2026-01-28 18:45:56.083013	322.2	29.7	-67.6	0.0
2026-01-28 18:45:58.326529	322.6	29.3	-66.8	0.0
2026-01-28 18:46:00.570539	322.9	28.9	-67.1	0.0
2026-01-28 18:46:02.815550	323.3	28.6	-67.0	0.0
2026-01-28 18:46:05.061571	323.6	28.2	-67.5	0.0
2026-01-28 18:46:07.305583	323.9	27.8	-67.2	0.0
2026-01-28 18:46:09.550090	324.3	27.5	-67.2	0.0
2026-01-28 18:46:11.791125	324.6	27.1	-67.0	0.0
2026-01-28 18:46:14.034639	324.9	26.8	-67.2	0.0
2026-01-28 18:46:16.277658	325.2	26.5	-67.2	0.0
2026-01-28 18:46:18.521173	325.5	26.1	-67.2	0.0
2026-01-28 18:46:20.764690	325.8	25.8	-66.7	0.0
2026-01-28 18:46:23.007709	326.1	25.5	-67.2	0.0
2026-01-28 18:46:25.251720	326.4	25.1	-68.0	0.0
2026-01-28 18:46:27.495236	326.6	24.8	-68.1	0.0
2026-01-28 18:46:29.737758	326.9	24.5	-68.0	0.0
2026-01-28 18:46:31.982273	327.2	24.2	-67.8	0.0
2026-01-28 18:46:34.226789	327.4	23.8	-67.5	0.0
2026-01-28 18:46:36.475305	327.7	23.5	-67.5	0.0
2026-01-28 18:46:38.717829	327.9	23.2	-67.8	0.0
2026-01-28 18:46:40.962336	328.2	22.9	-68.1	0.0
2026-01-28 18:46:43.205355	328.4	22.6	-68.1	0.0
2026-01-28 18:46:45.448870	328.6	22.3	-68.5	0.0
2026-01-28 18:46:47.692386	328.9	22.0	-68.1	0.0
2026-01-28 18:46:49.935902	329.1	21.7	-68.2	0.0
2026-01-28 18:46:52.181923	329.3	21.4	-68.3	0.0
2026-01-28 18:46:54.425439	329.5	21.2	-68.2	0.0
2026-01-28 18:46:56.668955	329.7	20.9	-67.7	0.0
2026-01-28 18:46:58.911477	330.0	20.6	-67.9	0.0
2026-01-28 18:47:01.153505	330.2	20.3	-68.2	0.0
2026-01-28 18:47:03.397020	330.4	20.0	-67.9	0.0
2026-01-28 18:47:05.642042	330.6	19.8	-68.2	0.0
2026-01-28 18:47:07.885060	330.8	19.5	-68.6	0.0
2026-01-28 18:47:10.128575	331.0	19.2	-68.2	0.0
2026-01-28 18:47:12.371595	331.2	19.0	-68.1	0.0
2026-01-28 18:47:14.616615	331.3	18.7	-68.6	0.0
2026-01-28 18:47:16.865133	331.5	18.4	-68.3	0.0
2026-01-28 18:47:19.109151	331.7	18.2	-67.7	0.0
2026-01-28 18:47:21.353162	331.9	17.9	-67.9	0.0
2026-01-28 18:47:23.598184	332.1	17.7	-67.7	0.0
2026-01-28 18:47:25.842195	332.2	17.4	-68.2	0.0
2026-01-28 18:47:28.084222	332.4	17.2	-68.4	0.0
2026-01-28 18:47:30.327737	332.6	16.9	-68.1	0.0
2026-01-28 18:47:32.572750	332.7	16.7	-68.6	0.0
2026-01-28 18:47:34.816264	332.9	16.4	-68.6	0.0
2026-01-28 18:47:37.060771	333.1	16.2	-68.0	0.0
2026-01-28 18:47:39.306791	333.2	16.0	-67.8	0.0
2026-01-28 18:47:41.550306	333.4	15.7	-68.3	0.0
2026-01-28 18:47:43.794316	333.5	15.5	-68.1	0.0
2026-01-28 18:47:46.038824	333.7	15.3	-68.2	0.0
2026-01-28 18:47:48.282347	333.8	15.0	-67.9	0.0
2026-01-28 18:47:50.523876	334.0	14.8	-67.9	0.0
2026-01-28 18:47:52.765903	334.1	14.6	-68.2	0.0
2026-01-28 18:47:55.009417	334.3	14.4	-68.2	0.0
2026-01-28 18:47:57.253428	334.4	14.1	-67.5	0.0
2026-01-28 18:47:59.497439	334.5	13.9	-67.9	0.0
2026-01-28 18:48:01.740955	334.7	13.7	-67.6	0.0
2026-01-28 18:48:03.984481	334.8	13.5	-67.8	0.0
2026-01-28 18:48:06.228491	334.9	13.3	-67.0	0.0
2026-01-28 18:48:08.472014	335.1	13.1	-67.2	0.0
2026-01-28 18:48:10.716025	335.2	12.9	-67.3	0.0
2026-01-28 18:48:12.960532	335.3	12.6	-68.0	0.0
2026-01-28 18:48:15.205039	335.5	12.4	-67.7	0.0
2026-01-28 18:48:17.449050	335.6	12.2	-67.5	0.0
2026-01-28 18:48:19.693060	335.7	12.0	-66.9	0.0
2026-01-28 18:48:21.937071	335.8	11.8	-67.5	0.0
2026-01-28 18:48:24.181578	335.9	11.6	-67.3	0.0
2026-01-28 18:48:26.427590	336.1	11.4	-67.1	0.0
2026-01-28 18:48:28.672097	336.2	11.2	-67.2	0.0
2026-01-28 18:48:30.915612	336.3	11.0	-67.0	0.0
2026-01-28 18:48:33.160118	336.4	10.8	-67.2	0.0
2026-01-28 18:48:35.405130	336.5	10.6	-67.3	0.0
2026-01-28 18:48:37.649637	336.6	10.5	-67.2	0.0
2026-01-28 18:48:39.894143	336.7	10.3	-67.0	0.0
2026-01-28 18:48:42.138651	336.9	10.1	-67.3	0.0
2026-01-28 18:48:44.383157	337.0	9.9	-66.9	0.0
2026-01-28 18:48:46.627664	337.1	9.7	-68.0	0.0
2026-01-28 18:48:48.872171	337.2	9.5	-67.4	0.0
2026-01-28 18:48:51.116183	337.3	9.3	-67.5	0.0
2026-01-28 18:48:53.359698	337.4	9.1	-66.1	0.0
2026-01-28 18:48:55.604204	337.5	9.0	-67.2	0.0
2026-01-28 18:48:57.851216	337.6	8.8	-66.2	0.0
2026-01-28 18:49:00.095723	337.7	8.6	-67.2	0.0
2026-01-28 18:49:02.340230	337.8	8.4	-66.2	0.0
2026-01-28 18:49:04.584737	337.9	8.3	-66.7	0.0
2026-01-28 18:49:06.828747	338.0	8.1	-65.7	0.0
2026-01-28 18:49:09.073254	338.1	7.9	-66.7	0.0
2026-01-28 18:49:11.317761	338.2	7.7	-67.1	0.0
2026-01-28 18:49:13.561773	338.3	7.6	-67.1	0.0
2026-01-28 18:49:15.806279	338.4	7.4	-66.8	0.0
2026-01-28 18:49:18.051290	338.4	7.2	-66.0	0.0
2026-01-28 18:49:20.297797	338.5	7.1	-66.0	0.0
2026-01-28 18:49:22.542304	338.6	6.9	-66.1	0.0
2026-01-28 18:49:24.786811	338.7	6.7	-66.0	0.0
2026-01-28 18:49:27.030822	338.8	6.6	-64.9	0.0
2026-01-28 18:49:29.274834	338.9	6.4	-65.3	0.0
2026-01-28 18:49:31.518845	339.0	6.2	-65.2	0.0
2026-01-28 18:49:33.763352	339.1	6.1	-65.3	0.0
2026-01-28 18:49:36.009860	339.1	5.9	-66.8	0.0
2026-01-28 18:49:38.261873	339.2	5.7	-68.1	0.0
2026-01-28 18:49:40.507379	339.3	5.6	-67.3	0.0
2026-01-28 18:49:42.751887	339.4	5.4	-67.6	0.0
2026-01-28 18:49:44.998899	339.5	5.3	-67.4	0.0
2026-01-28 18:49:47.242911	339.6	5.1	-67.7	0.0
#Closed at: 2026-01-28 18:37:01.086857