passes_logs/2026/01/28/PlanumMoscow/PlanumMoscow__20260128_001538_METEOR-M2_4_rec.log

#Pass ID: 20260128_001538_METEOR-M2 4
#Satellite: METEOR-M2 4
#Configuration: METEOR-M2 4
#Start time: 2026-01-28 00:15:43.007721

#LorettStation: 1.0.0 05.05.2024
#Station: PlanumMoscow
#Location: 37.6253844 lon 55.6713361 lat
#TLE: 1 59051U 24039A   25293.94737965  .00000087  00000+0  58459-4 0  9998
#TLE: 2 59051  98.6671 251.7071 0007726 135.4772 224.7028 14.22388966 85257

#Time	Az	El	Level	SNR
2026-01-28 00:19:21.418170	41.7	25.9	-58.6	3.1
2026-01-28 00:19:23.661685	42.1	26.2	-59.1	2.8
2026-01-28 00:19:25.905200	42.5	26.5	-59.4	3.8
2026-01-28 00:19:28.149219	42.9	26.8	-59.1	3.6
2026-01-28 00:19:30.392735	43.3	27.1	-59.3	4.0
2026-01-28 00:19:32.636250	43.7	27.4	-59.5	4.7
2026-01-28 00:19:34.879765	44.2	27.7	-59.8	5.0
2026-01-28 00:19:37.125786	44.6	28.0	-59.7	5.3
2026-01-28 00:19:39.367815	45.0	28.4	-60.0	4.8
2026-01-28 00:19:41.609852	45.5	28.7	-60.5	5.2
2026-01-28 00:19:43.854359	46.0	29.0	-60.8	5.5
2026-01-28 00:19:46.097886	46.5	29.3	-60.9	6.1
2026-01-28 00:19:48.341909	46.9	29.7	-61.1	6.2
2026-01-28 00:19:50.584452	47.4	30.0	-61.1	5.4
2026-01-28 00:19:52.828463	48.0	30.3	-61.3	6.7
2026-01-28 00:19:55.071978	48.5	30.6	-61.2	7.0
2026-01-28 00:19:57.320495	49.0	31.0	-61.7	7.4
2026-01-28 00:19:59.564505	49.5	31.3	-62.0	7.2
2026-01-28 00:20:01.808516	50.1	31.6	-61.9	7.6
2026-01-28 00:20:04.052528	50.7	32.0	-62.2	8.0
2026-01-28 00:20:06.295549	51.2	32.3	-62.7	8.0
2026-01-28 00:20:08.541561	51.8	32.6	-63.0	7.3
2026-01-28 00:20:10.784589	52.4	33.0	-62.8	8.9
2026-01-28 00:20:13.027609	53.0	33.3	-63.0	8.7
2026-01-28 00:20:15.271619	53.7	33.6	-62.9	8.8
2026-01-28 00:20:17.515134	54.3	34.0	-62.6	9.0
2026-01-28 00:20:19.760641	54.9	34.3	-63.7	9.8
2026-01-28 00:20:22.003663	55.6	34.6	-63.8	9.5
2026-01-28 00:20:24.247180	56.3	35.0	-64.5	10.0
2026-01-28 00:20:26.491190	57.0	35.3	-64.5	9.4
2026-01-28 00:20:28.734210	57.7	35.6	-64.0	9.1
2026-01-28 00:20:30.978232	58.4	36.0	-64.7	9.2
2026-01-28 00:20:33.222243	59.1	36.3	-62.8	8.5
2026-01-28 00:20:35.466255	59.9	36.6	-62.5	6.9
2026-01-28 00:20:37.709781	60.6	37.0	-62.9	9.1
2026-01-28 00:20:39.954288	61.4	37.3	-64.4	10.7
2026-01-28 00:20:42.197803	62.2	37.6	-63.0	9.2
2026-01-28 00:20:44.441318	63.0	37.9	-62.6	8.9
2026-01-28 00:20:46.684337	63.9	38.2	-63.2	10.4
2026-01-28 00:20:48.926365	64.7	38.5	-64.0	8.5
2026-01-28 00:20:51.168889	65.6	38.8	-61.7	7.2
2026-01-28 00:20:53.409926	66.4	39.1	-61.6	5.2
2026-01-28 00:20:55.652451	67.3	39.4	-61.9	7.1
2026-01-28 00:20:57.895975	68.2	39.7	-63.0	7.9
2026-01-28 00:21:00.137509	69.1	40.0	-63.2	7.0
2026-01-28 00:21:02.379539	70.1	40.3	-63.3	6.4
2026-01-28 00:21:04.623549	71.0	40.6	-63.4	7.9
2026-01-28 00:21:06.867074	72.0	40.8	-63.8	7.4
2026-01-28 00:21:09.111093	73.0	41.1	-60.3	2.1
2026-01-28 00:21:11.351633	74.0	41.3	-61.8	5.6
2026-01-28 00:21:13.595645	75.0	41.6	-63.6	7.2
2026-01-28 00:21:15.838170	76.0	41.8	-64.0	8.5
2026-01-28 00:21:18.082677	77.1	42.1	-64.0	8.2
2026-01-28 00:21:20.327700	78.1	42.3	-64.2	8.6
2026-01-28 00:21:22.570223	79.2	42.5	-64.3	8.5
2026-01-28 00:21:24.811752	80.3	42.7	-65.0	9.5
2026-01-28 00:21:27.054772	81.4	42.9	-64.8	9.4
2026-01-28 00:21:29.303288	82.5	43.0	-65.0	9.5
2026-01-28 00:21:31.546803	83.6	43.2	-64.3	8.4
2026-01-28 00:21:33.790815	84.8	43.4	-65.5	9.5
2026-01-28 00:21:36.032844	85.9	43.5	-65.2	8.6
2026-01-28 00:21:38.279370	87.1	43.6	-65.6	9.0
2026-01-28 00:21:40.524381	88.3	43.7	-65.2	7.2
2026-01-28 00:21:42.768392	89.4	43.9	-65.5	9.6
2026-01-28 00:21:45.011412	90.6	43.9	-65.7	9.7
2026-01-28 00:21:47.256423	91.8	44.0	-65.2	9.7
2026-01-28 00:21:49.500930	93.0	44.1	-65.8	10.1
2026-01-28 00:21:51.744942	94.2	44.1	-65.8	10.7
2026-01-28 00:21:53.988960	95.4	44.2	-66.2	11.0
2026-01-28 00:21:56.232972	96.6	44.2	-66.1	11.6
2026-01-28 00:21:58.476983	97.8	44.2	-66.0	10.6
2026-01-28 00:22:00.721490	99.0	44.2	-66.0	10.4
2026-01-28 00:22:02.966006	100.2	44.2	-66.1	9.8
2026-01-28 00:22:05.210027	101.4	44.2	-65.7	8.9
2026-01-28 00:22:07.453552	102.6	44.1	-66.2	9.7
2026-01-28 00:22:09.702068	103.8	44.1	-66.4	8.8
2026-01-28 00:22:11.946079	105.0	44.0	-66.4	9.7
2026-01-28 00:22:14.189605	106.2	43.9	-66.7	9.6
2026-01-28 00:22:16.433615	107.4	43.8	-66.5	9.9
2026-01-28 00:22:18.676141	108.6	43.7	-65.3	8.9
2026-01-28 00:22:20.919160	109.7	43.6	-65.7	8.8
2026-01-28 00:22:23.162676	110.9	43.4	-64.9	5.2
2026-01-28 00:22:25.404715	112.0	43.3	-66.0	9.7
2026-01-28 00:22:27.648737	113.2	43.1	-65.7	9.9
2026-01-28 00:22:29.892259	114.3	43.0	-65.8	10.9
2026-01-28 00:22:32.136273	115.4	42.8	-65.7	9.9
2026-01-28 00:22:34.379293	116.5	42.6	-65.9	9.8
2026-01-28 00:22:36.623314	117.6	42.4	-64.8	7.5
2026-01-28 00:22:38.866829	118.7	42.2	-65.0	10.1
2026-01-28 00:22:41.108372	119.7	41.9	-65.8	9.0
2026-01-28 00:22:43.353392	120.8	41.7	-65.8	9.2
2026-01-28 00:22:45.596411	121.8	41.5	-65.5	9.1
2026-01-28 00:22:47.840918	122.8	41.2	-65.1	9.1
2026-01-28 00:22:50.084433	123.8	41.0	-64.2	9.0
2026-01-28 00:22:52.328949	124.8	40.7	-64.4	10.2
2026-01-28 00:22:54.570483	125.7	40.4	-64.6	10.0
2026-01-28 00:22:56.813998	126.7	40.1	-64.5	9.6
2026-01-28 00:22:59.057514	127.6	39.9	-64.1	8.8
2026-01-28 00:23:01.301526	128.5	39.6	-64.3	8.3
2026-01-28 00:23:03.545536	129.4	39.3	-64.1	7.9
2026-01-28 00:23:05.789547	130.3	39.0	-64.1	7.3
2026-01-28 00:23:08.036560	131.2	38.7	-64.2	7.6
2026-01-28 00:23:10.280580	132.1	38.4	-64.0	7.8
2026-01-28 00:23:12.524599	132.9	38.0	-63.8	8.3
2026-01-28 00:23:14.768116	133.7	37.7	-63.5	8.4
2026-01-28 00:23:17.014631	134.5	37.4	-63.7	8.6
2026-01-28 00:23:19.257157	135.3	37.1	-64.0	8.6
2026-01-28 00:23:21.501168	136.1	36.8	-63.9	8.5
2026-01-28 00:23:23.744684	136.8	36.4	-63.7	8.1
2026-01-28 00:23:25.988199	137.6	36.1	-63.9	8.1
2026-01-28 00:23:28.232706	138.3	35.8	-64.0	8.7
2026-01-28 00:23:30.477717	139.0	35.4	-64.0	8.7
2026-01-28 00:23:32.720241	139.7	35.1	-64.1	8.6
2026-01-28 00:23:34.962762	140.4	34.8	-64.0	9.1
2026-01-28 00:23:37.207773	141.1	34.4	-64.2	9.4
2026-01-28 00:23:39.453290	141.8	34.1	-64.1	9.4
2026-01-28 00:23:41.697301	142.4	33.7	-64.4	9.6
2026-01-28 00:23:43.939826	143.0	33.4	-64.3	9.6
2026-01-28 00:23:46.184838	143.7	33.1	-64.1	9.6
2026-01-28 00:23:48.428362	144.3	32.7	-64.6	9.7
2026-01-28 00:23:50.671878	144.9	32.4	-64.5	10.2
2026-01-28 00:23:52.915889	145.4	32.1	-64.3	10.1
2026-01-28 00:23:55.159901	146.0	31.7	-64.2	10.1
2026-01-28 00:23:57.403920	146.6	31.4	-64.1	9.9
2026-01-28 00:23:59.648932	147.1	31.0	-64.0	10.6
2026-01-28 00:24:01.894452	147.7	30.7	-64.2	10.7
2026-01-28 00:24:04.137969	148.2	30.4	-64.4	10.3
2026-01-28 00:24:06.382980	148.7	30.0	-64.5	10.6
2026-01-28 00:24:08.627992	149.2	29.7	-64.3	10.7
2026-01-28 00:24:10.871013	149.7	29.4	-64.5	10.7
2026-01-28 00:24:13.114527	150.2	29.1	-64.4	10.8
2026-01-28 00:24:15.358044	150.7	28.7	-64.6	10.6
2026-01-28 00:24:17.602055	151.1	28.4	-64.7	10.7
2026-01-28 00:24:19.846066	151.6	28.1	-64.8	10.7
2026-01-28 00:24:22.095079	152.0	27.8	-64.8	10.2
2026-01-28 00:24:24.338595	152.5	27.5	-64.7	10.5
2026-01-28 00:24:26.582606	152.9	27.1	-64.8	10.3
2026-01-28 00:24:28.826617	153.3	26.8	-65.1	10.1
2026-01-28 00:24:31.074636	153.8	26.5	-65.1	9.8
2026-01-28 00:24:33.317656	154.2	26.2	-64.7	10.1
2026-01-28 00:24:35.561170	154.6	25.9	-65.2	10.6
2026-01-28 00:24:37.803696	155.0	25.6	-65.0	10.7
2026-01-28 00:24:40.046716	155.3	25.3	-65.1	10.9
2026-01-28 00:24:42.290239	155.7	25.0	-65.1	11.2
2026-01-28 00:24:44.532765	156.1	24.7	-65.0	11.1
2026-01-28 00:24:46.774795	156.5	24.4	-64.9	11.4
2026-01-28 00:24:49.019806	156.8	24.1	-64.9	11.0
2026-01-28 00:24:51.263817	157.2	23.8	-64.9	11.1
2026-01-28 00:24:53.507828	157.5	23.5	-65.0	10.8
2026-01-28 00:24:55.749892	157.9	23.2	-64.9	10.9
2026-01-28 00:24:57.991921	158.2	22.9	-64.8	10.7
2026-01-28 00:25:00.235940	158.5	22.6	-65.1	10.8
2026-01-28 00:25:02.478464	158.8	22.4	-65.1	11.1
2026-01-28 00:25:04.721978	159.2	22.1	-65.2	10.8
2026-01-28 00:25:06.965988	159.5	21.8	-65.5	10.5
2026-01-28 00:25:09.210495	159.8	21.5	-65.2	10.6
2026-01-28 00:25:11.453516	160.1	21.3	-65.1	10.6
2026-01-28 00:25:13.697031	160.4	21.0	-65.1	10.3
2026-01-28 00:25:15.943042	160.7	20.7	-65.1	10.2
2026-01-28 00:25:18.190559	160.9	20.5	-65.3	9.7
2026-01-28 00:25:20.434570	161.2	20.2	-65.1	9.7
2026-01-28 00:25:22.677093	161.5	19.9	-64.6	9.6
2026-01-28 00:25:24.920114	161.8	19.7	-65.1	9.7
2026-01-28 00:25:27.164629	162.0	19.4	-65.0	9.2
2026-01-28 00:25:29.408145	162.3	19.2	-64.9	9.2
2026-01-28 00:25:31.650173	162.6	18.9	-64.5	8.5
2026-01-28 00:25:33.895698	162.8	18.7	-64.5	9.0
2026-01-28 00:25:36.139214	163.1	18.4	-64.5	8.7
2026-01-28 00:25:38.382730	163.3	18.2	-64.5	7.7
2026-01-28 00:25:40.625751	163.5	17.9	-64.7	7.9
2026-01-28 00:25:42.869761	163.8	17.7	-64.3	7.8
2026-01-28 00:25:45.113772	164.0	17.4	-64.2	7.6
2026-01-28 00:25:47.357288	164.2	17.2	-64.1	7.4
2026-01-28 00:25:49.600315	164.5	16.9	-64.2	7.2
2026-01-28 00:25:51.844847	164.7	16.7	-63.9	7.1
2026-01-28 00:25:54.090354	164.9	16.5	-63.6	7.0
2026-01-28 00:25:56.339367	165.1	16.2	-63.4	6.7
2026-01-28 00:25:58.581892	165.4	16.0	-63.5	6.5
2026-01-28 00:26:00.824911	165.6	15.8	-63.6	5.8
2026-01-28 00:26:03.068921	165.8	15.6	-63.6	6.6
2026-01-28 00:26:05.311953	166.0	15.3	-63.5	6.0
2026-01-28 00:26:07.555468	166.2	15.1	-62.8	6.0
2026-01-28 00:26:09.799975	166.4	14.9	-63.2	5.7
2026-01-28 00:26:12.042996	166.6	14.7	-62.9	5.4
2026-01-28 00:26:14.287006	166.8	14.5	-63.1	5.6
2026-01-28 00:26:16.531018	167.0	14.2	-63.6	5.3
2026-01-28 00:26:18.774535	167.2	14.0	-63.2	5.2
2026-01-28 00:26:21.022060	167.3	13.8	-63.0	5.0
2026-01-28 00:26:23.265081	167.5	13.6	-62.7	4.4
2026-01-28 00:26:25.506611	167.7	13.4	-62.9	4.9
2026-01-28 00:26:27.750127	167.9	13.2	-62.8	5.0
2026-01-28 00:26:29.993642	168.1	13.0	-62.9	4.9
2026-01-28 00:26:32.237661	168.2	12.8	-62.5	4.2
2026-01-28 00:26:34.481177	168.4	12.6	-62.7	4.3
2026-01-28 00:26:36.723701	168.6	12.4	-62.8	4.6
2026-01-28 00:26:38.967226	168.7	12.2	-62.7	4.2
2026-01-28 00:26:41.211237	168.9	12.0	-62.3	3.9
2026-01-28 00:26:43.454751	169.1	11.8	-62.4	3.5
2026-01-28 00:26:45.700770	169.2	11.6	-62.5	3.6
2026-01-28 00:26:47.944780	169.4	11.4	-62.4	2.9
2026-01-28 00:26:50.188305	169.5	11.2	-62.5	3.3
2026-01-28 00:26:52.431324	169.7	11.0	-62.2	2.4
2026-01-28 00:26:54.674840	169.8	10.8	-62.1	3.1
2026-01-28 00:26:56.918859	170.0	10.6	-62.2	1.8
2026-01-28 00:26:59.162375	170.1	10.4	-62.4	2.2
2026-01-28 00:27:01.406386	170.3	10.2	-62.4	2.2
2026-01-28 00:27:03.648908	170.4	10.0	-62.3	2.6
2026-01-28 00:27:05.896929	170.6	9.9	-62.0	1.6
2026-01-28 00:27:08.140940	170.7	9.7	-62.0	1.9
2026-01-28 00:27:10.384960	170.9	9.5	-62.0	1.4
2026-01-28 00:27:12.628476	171.0	9.3	-62.2	1.5
2026-01-28 00:27:14.870512	171.1	9.1	-62.7	1.3
2026-01-28 00:27:17.113531	171.3	9.0	-62.5	2.0
2026-01-28 00:27:19.358038	171.4	8.8	-62.2	1.1
2026-01-28 00:27:21.606059	171.5	8.6	-62.2	0.7
2026-01-28 00:27:23.852071	171.7	8.4	-61.9	1.1
2026-01-28 00:27:26.096578	171.8	8.3	-62.0	0.0
2026-01-28 00:27:28.346094	171.9	8.1	-62.3	0.9
2026-01-28 00:27:30.589112	172.1	7.9	-61.9	0.2
2026-01-28 00:27:32.832628	172.2	7.7	-62.0	0.7
2026-01-28 00:27:35.081640	172.3	7.6	-62.2	1.0
2026-01-28 00:27:37.324659	172.4	7.4	-62.2	0.0
2026-01-28 00:27:39.568175	172.5	7.2	-61.9	0.0
2026-01-28 00:27:41.811689	172.7	7.1	-62.0	0.9
2026-01-28 00:27:44.058710	172.8	6.9	-62.1	0.0
2026-01-28 00:27:46.301729	172.9	6.7	-62.0	0.0
2026-01-28 00:27:48.544749	173.0	6.6	-62.0	1.8
2026-01-28 00:27:50.788264	173.1	6.4	-62.0	0.4
2026-01-28 00:27:53.031778	173.2	6.2	-61.8	0.0
2026-01-28 00:27:55.274797	173.4	6.1	-61.8	0.9
2026-01-28 00:27:57.523809	173.5	5.9	-63.1	0.0
2026-01-28 00:27:59.767820	173.6	5.8	-67.6	0.0
2026-01-28 00:28:02.011836	173.7	5.6	-65.7	0.0
2026-01-28 00:28:04.254866	173.8	5.4	-66.6	0.0
2026-01-28 00:28:06.498383	173.9	5.3	-68.7	0.0
2026-01-28 00:28:08.741898	174.0	5.1	-68.5	0.0
2026-01-28 00:28:10.986404	174.1	5.0	-65.9	0.0
#Closed at: 2026-01-28 00:15:38.010176