passes_logs/2026/01/09/R2.0S_Moscow/R2.0S_Moscow__20260109_033045_FENGYUN_3G_rec.log

#Pass ID: 20260109_033045_FENGYUN 3G
#Satellite: FENGYUN 3G
#Configuration: FENGYUN 3G
#almurnet v.1.7.20251203
#Start time: 2026-01-09 03:30:45

#Version: 2.2.20231116
#Station: R2.0S_Moscow
#Location: 37.707566 lon 55.798166 lat
#TLE: 1 56232U 23055A   26008.48762740  .00031983  00000+0  50485-3 0  9995
#TLE: 2 56232  49.9936  89.5247 0004286 357.0620   3.0321 15.53163078155186

#Time	Az	El	Level	Level2	SNR	BER	BlckErr	Temp	State	Recorded	gain1	gain2
2026-01-09 03:30:45.12	263.60	1.97	-44.0	-62.2	3.8	8.46e-01	0	47	0	0	59	29572
2026-01-09 03:30:48.14	263.34	2.16	-44.0	-62.2	3.8	8.45e-01	0	47	104	0	59	29472
2026-01-09 03:30:51.17	263.08	2.35	-44.0	-62.2	3.8	8.47e-01	0	47	104	0	59	29496
2026-01-09 03:30:54.20	262.82	2.54	-44.0	-62.2	3.8	8.47e-01	0	48	104	0	59	29505
2026-01-09 03:30:57.24	262.54	2.73	-44.0	-62.2	3.8	8.46e-01	0	48	104	0	59	29395
2026-01-09 03:31:00.27	262.27	2.93	-44.0	-62.2	3.8	8.45e-01	0	48	104	0	59	29470
2026-01-09 03:31:03.30	261.99	3.12	-44.0	-62.2	3.8	8.46e-01	0	48	104	0	59	29441
2026-01-09 03:31:06.33	261.70	3.32	-44.0	-62.1	3.8	8.46e-01	0	49	104	0	59	29321
2026-01-09 03:31:09.36	261.41	3.52	-44.0	-62.1	3.8	8.47e-01	0	49	104	0	59	29186
2026-01-09 03:31:12.39	261.11	3.72	-44.0	-62.1	3.8	8.47e-01	0	49	104	0	59	29212
2026-01-09 03:31:15.42	260.80	3.92	-44.0	-62.2	3.8	8.45e-01	0	49	104	0	59	29468
2026-01-09 03:31:18.45	260.49	4.13	-44.0	-62.2	3.8	8.45e-01	0	49	104	0	59	29388
2026-01-09 03:31:21.48	260.18	4.33	-44.0	-62.2	3.8	8.46e-01	0	50	104	0	59	29362
2026-01-09 03:31:24.51	259.85	4.54	-44.0	-61.9	3.8	8.46e-01	0	50	104	0	59	28603
2026-01-09 03:31:27.54	259.52	4.75	-44.0	-61.8	3.8	8.46e-01	0	50	104	0	59	28133
2026-01-09 03:31:30.58	259.18	4.96	-44.0	-62.0	3.8	8.48e-01	0	50	104	0	59	28785
2026-01-09 03:31:33.60	258.84	5.18	-44.0	-62.2	3.8	8.45e-01	0	50	104	0	59	29384
2026-01-09 03:31:36.63	258.49	5.39	-44.0	-62.1	3.8	8.46e-01	0	51	104	0	59	29272
2026-01-09 03:31:39.66	258.13	5.61	-44.0	-61.9	3.8	8.46e-01	0	51	104	0	59	28363
2026-01-09 03:31:42.69	257.76	5.83	-44.0	-61.9	3.8	8.47e-01	0	51	104	0	59	28584
2026-01-09 03:31:45.72	257.38	6.05	-44.0	-61.2	3.8	8.47e-01	0	51	104	0	59	26235
2026-01-09 03:31:48.75	257.00	6.27	-43.9	-57.8	4.5	8.45e-01	0	51	0	0	59	17713
2026-01-09 03:31:51.79	256.61	6.50	-43.7	-55.1	6.0	7.54e-01	0	51	0	524288	59	12977
2026-01-09 03:31:54.81	256.21	6.73	-43.5	-53.7	7.2	2.23e-01	0	51	0	3670016	59	11080
2026-01-09 03:31:57.85	255.80	6.96	-43.7	-55.6	5.6	1.86e-01	0	51	0	7340032	59	13877
2026-01-09 03:32:00.88	255.38	7.19	-43.9	-59.1	3.9	8.00e-01	0	51	104	7340032	59	20565
2026-01-09 03:32:03.91	254.95	7.42	-42.2	-47.9	13.1	7.74e-03	0	52	0	9437184	56	6732
2026-01-09 03:32:06.94	254.51	7.66	-39.7	-42.8	18.2	0.00e+00	0	52	0	13107200	51	5021
2026-01-09 03:32:09.97	254.06	7.89	-39.4	-42.3	18.7	0.00e+00	0	52	0	16252928	50	5014
2026-01-09 03:32:13.00	253.61	8.13	-40.6	-44.3	16.7	0.00e+00	0	52	0	19922944	52	5632
2026-01-09 03:32:16.03	253.14	8.37	-40.8	-44.6	16.7	1.18e-03	0	52	0	23068672	52	5852
2026-01-09 03:32:19.05	252.66	8.62	-39.2	-41.9	19.2	1.05e-01	0	52	0	26738688	49	5096
2026-01-09 03:32:22.08	252.17	8.86	-38.7	-41.2	20.0	0.00e+00	0	52	0	29884416	49	4666
2026-01-09 03:32:25.11	251.66	9.11	-38.6	-41.2	20.0	0.00e+00	0	52	0	33554432	49	4657
2026-01-09 03:32:28.14	251.15	9.36	-38.3	-40.7	20.6	0.00e+00	0	53	0	36700160	48	4671
2026-01-09 03:32:31.17	250.62	9.61	-38.2	-40.5	20.8	0.00e+00	0	53	0	40370176	48	4566
2026-01-09 03:32:34.20	250.08	9.86	-38.2	-40.5	20.8	0.00e+00	0	53	0	43515904	48	4579
2026-01-09 03:32:37.23	249.53	10.12	-38.3	-40.6	20.7	0.00e+00	0	53	0	47185920	48	4639
2026-01-09 03:32:40.25	248.97	10.38	-38.0	-40.3	21.0	0.00e+00	0	53	0	50331648	48	4463
2026-01-09 03:32:43.28	248.39	10.64	-37.8	-40.0	21.2	0.00e+00	0	53	0	54001664	47	4593
2026-01-09 03:32:46.31	247.80	10.90	-37.6	-39.7	21.6	0.00e+00	0	53	0	57147392	46	4670
2026-01-09 03:32:49.34	247.19	11.16	-37.7	-39.9	21.5	0.00e+00	0	53	0	60817408	46	4773
2026-01-09 03:32:52.37	246.57	11.43	-37.8	-40.0	21.4	0.00e+00	0	53	0	63963136	46	4837
2026-01-09 03:32:55.40	245.93	11.69	-37.5	-39.6	21.7	0.00e+00	0	53	0	67633152	46	4636
2026-01-09 03:32:58.43	245.28	11.96	-37.2	-39.2	22.2	0.00e+00	0	53	0	70778880	46	4400
2026-01-09 03:33:01.46	244.61	12.23	-37.4	-39.5	21.9	0.00e+00	0	53	0	74448896	46	4577
2026-01-09 03:33:04.49	243.92	12.50	-37.4	-39.5	21.9	0.00e+00	0	53	0	77594624	46	4565
2026-01-09 03:33:07.52	243.22	12.77	-37.1	-39.0	22.4	0.00e+00	0	53	0	81264640	46	4337
2026-01-09 03:33:10.55	242.50	13.04	-36.6	-38.4	22.9	0.00e+00	0	53	0	84410368	45	4272
2026-01-09 03:33:13.58	241.76	13.32	-37.0	-38.9	22.5	0.00e+00	0	53	0	88080384	45	4540
2026-01-09 03:33:16.61	241.01	13.59	-37.0	-38.9	22.5	0.00e+00	0	54	0	91226112	45	4526
2026-01-09 03:33:19.63	240.24	13.87	-36.6	-38.5	22.9	0.00e+00	0	54	0	94896128	45	4315
2026-01-09 03:33:22.66	239.45	14.14	-36.1	-37.9	23.5	0.00e+00	0	54	0	98041856	44	4274
2026-01-09 03:33:25.69	238.64	14.42	-36.7	-38.5	22.9	0.00e+00	0	54	0	101711872	44	4594
2026-01-09 03:33:28.72	237.80	14.69	-36.8	-38.7	22.7	0.00e+00	0	54	0	104857600	44	4702
2026-01-09 03:33:31.75	236.95	14.96	-36.2	-37.9	23.5	0.00e+00	0	54	0	108527616	44	4289
2026-01-09 03:33:34.77	236.09	15.24	-35.7	-37.4	23.9	0.00e+00	0	54	0	111673344	43	4277
2026-01-09 03:33:37.80	235.20	15.51	-35.9	-37.7	23.6	0.00e+00	0	54	0	115343360	43	4403
2026-01-09 03:33:40.83	234.28	15.78	-36.2	-38.0	23.4	0.00e+00	0	54	0	118489088	43	4551
2026-01-09 03:33:43.86	233.35	16.05	-36.2	-38.0	23.4	0.00e+00	0	54	0	122159104	43	4572
2026-01-09 03:33:46.89	232.40	16.31	-35.5	-37.1	24.2	0.00e+00	0	54	0	125304832	42	4389
2026-01-09 03:33:49.92	231.42	16.58	-35.3	-37.0	24.3	0.00e+00	0	54	0	128974848	42	4308
2026-01-09 03:33:52.94	230.43	16.84	-35.8	-37.6	23.8	0.00e+00	0	54	0	132120576	42	4604
2026-01-09 03:33:55.97	229.41	17.09	-36.0	-37.8	23.6	0.00e+00	0	54	0	135790592	42	4729
2026-01-09 03:33:59.00	228.37	17.35	-35.7	-37.4	23.9	0.00e+00	0	54	0	138936320	42	4534
2026-01-09 03:34:02.03	227.31	17.60	-35.1	-36.7	24.7	0.00e+00	0	54	0	142606336	42	4151
2026-01-09 03:34:05.06	226.22	17.84	-34.6	-36.1	25.2	0.00e+00	0	55	0	145752064	41	4120
2026-01-09 03:34:08.08	225.12	18.08	-35.0	-36.6	24.6	0.00e+00	0	54	0	149422080	41	4364
2026-01-09 03:34:11.11	224.00	18.31	-35.4	-37.0	24.3	0.00e+00	0	55	0	152567808	41	4591
2026-01-09 03:34:14.14	222.85	18.53	-35.7	-37.4	24.0	0.00e+00	0	55	0	156237824	41	4772
2026-01-09 03:34:17.17	221.68	18.75	-35.7	-37.4	24.1	0.00e+00	0	55	0	159383552	42	4507
2026-01-09 03:34:20.19	220.50	18.96	-35.6	-37.3	24.1	0.00e+00	0	55	0	163053568	42	4466
2026-01-09 03:34:23.22	219.29	19.16	-34.9	-36.4	24.9	0.00e+00	0	55	0	166199296	41	4284
2026-01-09 03:34:26.25	218.06	19.35	-35.3	-36.9	24.6	0.00e+00	0	54	0	169869312	41	4506
2026-01-09 03:34:29.28	216.82	19.53	-34.9	-36.5	24.9	0.00e+00	0	55	0	173015040	41	4326
2026-01-09 03:34:32.31	215.56	19.70	-34.9	-36.5	24.9	0.00e+00	0	55	0	176685056	41	4323
2026-01-09 03:34:35.34	214.28	19.86	-34.9	-36.5	24.9	0.00e+00	0	55	0	179830784	41	4313
2026-01-09 03:34:38.36	212.99	20.01	-35.2	-36.8	24.5	0.00e+00	0	55	0	183500800	41	4480
2026-01-09 03:34:41.39	211.68	20.15	-35.1	-36.7	24.8	0.00e+00	0	55	0	186646528	41	4394
2026-01-09 03:34:44.42	210.35	20.27	-35.2	-36.9	24.6	0.00e+00	0	55	0	189792256	41	4496
2026-01-09 03:34:47.45	209.02	20.38	-35.2	-36.8	24.7	0.00e+00	0	55	0	193462272	41	4451
2026-01-09 03:34:50.48	207.67	20.48	-35.5	-37.2	24.3	0.00e+00	0	55	0	197132288	42	4399
2026-01-09 03:34:53.51	206.31	20.57	-35.5	-37.2	24.3	0.00e+00	0	55	0	200278016	42	4408
2026-01-09 03:34:56.53	204.95	20.63	-35.5	-37.1	24.4	0.00e+00	0	55	0	203948032	42	4369
2026-01-09 03:34:59.56	203.58	20.69	-35.2	-36.8	24.7	0.00e+00	0	55	0	207093760	42	4195
2026-01-09 03:35:02.59	202.21	20.73	-34.5	-36.1	25.3	0.00e+00	0	55	0	210763776	41	4106
2026-01-09 03:35:05.61	200.83	20.76	-34.3	-35.8	25.5	0.00e+00	0	55	0	213909504	40	4221
2026-01-09 03:35:08.64	199.45	20.77	-34.0	-35.5	25.8	0.00e+00	0	55	0	217579520	40	4064
2026-01-09 03:35:11.67	198.07	20.76	-34.5	-36.1	25.3	0.00e+00	0	55	0	220725248	40	4351
2026-01-09 03:35:14.70	196.69	20.75	-34.8	-36.3	25.1	0.00e+00	0	55	0	224395264	40	4470
2026-01-09 03:35:17.73	195.31	20.71	-34.7	-36.3	25.1	0.00e+00	0	55	0	227540992	40	4456
2026-01-09 03:35:20.76	193.93	20.66	-34.3	-35.8	25.5	0.00e+00	0	55	0	230686720	40	4231
2026-01-09 03:35:23.78	192.57	20.60	-34.5	-36.1	25.3	0.00e+00	0	55	0	234356736	40	4349
2026-01-09 03:35:26.82	191.20	20.52	-35.0	-36.6	24.8	0.00e+00	0	55	0	237502464	40	4622
2026-01-09 03:35:29.85	189.85	20.43	-35.0	-36.6	24.8	0.00e+00	0	55	0	241172480	41	4345
2026-01-09 03:35:32.88	188.51	20.33	-35.2	-36.8	24.6	0.00e+00	0	55	0	244842496	41	4447
2026-01-09 03:35:35.91	187.18	20.21	-35.7	-37.4	24.0	0.00e+00	0	55	0	247988224	42	4522
2026-01-09 03:35:38.93	185.87	20.08	-34.9	-36.5	24.9	0.00e+00	0	55	0	251658240	41	4301
2026-01-09 03:35:41.96	184.57	19.94	-35.1	-36.7	24.7	0.00e+00	0	55	0	254803968	41	4435
2026-01-09 03:35:44.99	183.28	19.78	-34.9	-36.5	24.8	0.00e+00	0	55	0	258473984	41	4334
2026-01-09 03:35:48.01	182.01	19.62	-35.0	-36.5	24.8	0.00e+00	0	55	0	261619712	41	4340
2026-01-09 03:35:51.04	180.76	19.44	-34.7	-36.2	25.1	0.00e+00	0	55	0	265289728	41	4185
2026-01-09 03:35:54.07	179.52	19.25	-35.1	-36.7	24.7	0.00e+00	0	55	0	268435456	41	4403
2026-01-09 03:35:57.10	178.30	19.06	-35.1	-36.7	24.6	0.00e+00	0	56	0	271581184	41	4439
2026-01-09 03:36:00.13	177.10	18.85	-35.3	-36.9	24.4	0.00e+00	0	56	0	275251200	41	4529
2026-01-09 03:36:03.16	175.93	18.64	-35.1	-36.7	24.6	0.00e+00	0	55	0	278396928	41	4415
2026-01-09 03:36:06.18	174.77	18.42	-35.3	-36.9	24.4	0.00e+00	0	56	0	282066944	41	4533
2026-01-09 03:36:09.21	173.63	18.19	-34.7	-36.3	25.0	0.00e+00	0	56	0	285212672	41	4205
2026-01-09 03:36:12.24	172.52	17.95	-34.8	-36.3	25.0	0.00e+00	0	56	0	288882688	41	4229
2026-01-09 03:36:15.27	171.42	17.71	-35.5	-37.2	24.2	0.00e+00	0	55	0	292028416	41	4653
2026-01-09 03:36:18.30	170.35	17.47	-35.5	-37.1	24.2	0.00e+00	0	55	0	295698432	41	4630
2026-01-09 03:36:21.33	169.30	17.22	-35.4	-37.1	24.3	0.00e+00	0	55	0	299368448	41	4620
2026-01-09 03:36:24.35	168.27	16.96	-35.8	-37.5	24.0	0.00e+00	0	55	0	302514176	42	4580
2026-01-09 03:36:27.38	167.26	16.70	-35.8	-37.6	23.9	0.00e+00	0	56	0	305659904	42	4607
2026-01-09 03:36:30.41	166.28	16.44	-35.7	-37.4	24.1	0.00e+00	0	56	0	309329920	42	4496
2026-01-09 03:36:33.44	165.31	16.18	-35.7	-37.4	24.1	0.00e+00	0	56	0	312475648	42	4526
2026-01-09 03:36:36.47	164.37	15.91	-36.3	-38.1	23.4	0.00e+00	0	56	0	316145664	43	4615
2026-01-09 03:36:39.49	163.45	15.64	-36.2	-37.9	23.4	0.00e+00	0	56	0	319291392	43	4539
2026-01-09 03:36:42.52	162.55	15.37	-36.1	-37.9	23.5	0.00e+00	0	56	0	322961408	43	4533
2026-01-09 03:36:45.55	161.67	15.09	-36.2	-38.0	23.4	0.00e+00	0	56	0	326107136	43	4566
2026-01-09 03:36:48.58	160.80	14.82	-36.4	-38.2	23.1	0.00e+00	0	56	0	329777152	43	4700
2026-01-09 03:36:51.60	159.97	14.55	-36.9	-38.8	22.8	0.00e+00	0	56	0	332922880	44	4732
2026-01-09 03:36:54.63	159.14	14.27	-36.9	-38.8	22.8	0.00e+00	0	56	0	336592896	44	4733
2026-01-09 03:36:57.66	158.34	14.00	-37.6	-39.7	21.9	0.00e+00	0	56	0	339738624	45	4940
2026-01-09 03:37:00.69	157.56	13.72	-37.2	-39.2	22.3	0.00e+00	0	56	0	343408640	45	4681
2026-01-09 03:37:03.72	156.79	13.45	-36.9	-38.9	22.6	0.00e+00	0	56	0	346554368	45	4510
2026-01-09 03:37:06.75	156.05	13.17	-37.2	-39.2	22.2	0.00e+00	0	56	0	350224384	45	4699
2026-01-09 03:37:09.77	155.32	12.90	-37.5	-39.6	21.8	0.00e+00	0	56	0	353370112	45	4915
2026-01-09 03:37:12.80	154.61	12.63	-37.3	-39.4	22.0	0.00e+00	0	56	0	357040128	45	4776
2026-01-09 03:37:15.82	153.92	12.36	-37.5	-39.7	21.7	0.00e+00	0	56	0	360185856	45	4934
2026-01-09 03:37:18.85	153.24	12.09	-37.5	-39.5	21.8	0.00e+00	0	56	0	363855872	45	4870
2026-01-09 03:37:21.88	152.58	11.82	-37.7	-39.9	21.4	0.00e+00	0	56	0	367001600	45	5076
2026-01-09 03:37:24.90	151.94	11.55	-37.8	-40.0	21.3	0.00e+00	0	56	0	370671616	46	4857
2026-01-09 03:37:27.93	151.30	11.29	-37.6	-39.8	21.5	0.00e+00	0	56	0	373817344	46	4706
2026-01-09 03:37:30.96	150.69	11.02	-37.7	-39.8	21.5	0.00e+00	0	56	0	377487360	46	4759
2026-01-09 03:37:33.99	150.09	10.76	-38.0	-40.3	21.0	0.00e+00	0	56	0	380633088	46	4986
2026-01-09 03:37:37.02	149.50	10.50	-38.3	-40.7	20.6	0.00e+00	0	56	0	384303104	47	4933
2026-01-09 03:37:40.05	148.93	10.24	-38.6	-41.1	20.1	0.00e+00	0	56	0	387448832	47	5172
2026-01-09 03:37:43.08	148.37	9.98	-38.2	-40.5	20.6	0.00e+00	0	56	0	391118848	47	4867
2026-01-09 03:37:46.11	147.82	9.73	-38.2	-40.7	20.5	0.00e+00	0	56	0	394264576	47	4930
2026-01-09 03:37:49.13	147.29	9.48	-38.5	-41.1	20.0	0.00e+00	0	56	0	397934592	47	5203
2026-01-09 03:37:52.16	146.77	9.23	-38.5	-41.1	19.9	0.00e+00	0	56	0	401080320	47	5183
2026-01-09 03:37:55.19	146.26	8.98	-38.3	-40.8	20.1	0.00e+00	0	56	0	404750336	47	5039
2026-01-09 03:37:58.22	145.76	8.73	-38.5	-41.1	19.8	0.00e+00	0	56	0	407896064	47	5204
2026-01-09 03:38:01.25	145.28	8.49	-38.6	-41.2	19.6	0.00e+00	0	56	0	411566080	47	5261
2026-01-09 03:38:04.27	144.80	8.24	-38.8	-41.5	19.4	0.00e+00	0	56	0	414711808	48	5133
2026-01-09 03:38:07.30	144.34	8.00	-39.0	-41.8	19.2	0.00e+00	0	56	0	418381824	48	5286
2026-01-09 03:38:10.33	143.88	7.77	-44.8	-62.9	3.8	8.46e-01	0	56	104	418906112	60	30177
2026-01-09 03:38:13.36	143.44	7.53	-45.2	-63.4	3.8	8.46e-01	0	56	104	418906112	60	32094
2026-01-09 03:38:16.39	143.01	7.29	-45.2	-63.5	3.8	8.47e-01	0	56	104	418906112	61	30653
2026-01-09 03:38:19.42	142.58	7.06	-45.0	-63.3	3.8	8.46e-01	0	56	104	418906112	61	29949
2026-01-09 03:38:22.45	142.17	6.83	-44.9	-63.3	3.8	8.47e-01	0	56	104	418906112	61	29752
2026-01-09 03:38:25.48	141.76	6.60	-44.9	-63.2	3.8	8.46e-01	0	56	104	418906112	61	29671
2026-01-09 03:38:28.51	141.36	6.38	-44.9	-63.2	3.8	8.46e-01	0	56	104	418906112	61	29653
2026-01-09 03:38:31.54	140.97	6.15	-44.9	-63.2	3.8	8.45e-01	0	56	104	418906112	61	29663
2026-01-09 03:38:34.58	140.59	5.93	-44.9	-63.2	3.8	8.46e-01	0	56	104	418906112	61	29631
2026-01-09 03:38:37.60	140.22	5.71	-44.9	-63.2	3.8	8.45e-01	0	56	104	418906112	61	29672
2026-01-09 03:38:40.64	139.86	5.49	-44.9	-63.2	3.8	8.46e-01	0	56	104	418906112	61	29633
2026-01-09 03:38:43.67	139.50	5.28	-44.9	-63.2	3.8	8.46e-01	0	56	104	418906112	61	29626
2026-01-09 03:38:46.70	139.15	5.06	-44.9	-63.2	3.8	8.46e-01	0	56	104	418906112	61	29619
2026-01-09 03:38:49.73	138.81	4.85	-44.9	-63.3	3.8	8.45e-01	0	56	104	418906112	61	29693
2026-01-09 03:38:52.75	138.47	4.64	-44.9	-63.3	3.8	8.46e-01	0	56	104	418906112	61	29715
2026-01-09 03:38:55.78	138.15	4.43	-44.9	-63.2	3.8	8.46e-01	0	57	104	418906112	61	29641
2026-01-09 03:38:58.81	137.82	4.22	-44.9	-63.2	3.8	8.47e-01	0	56	104	418906112	61	29645
2026-01-09 03:39:01.85	137.51	4.02	-44.9	-63.2	3.8	8.45e-01	0	56	104	418906112	61	29589
2026-01-09 03:39:04.88	137.20	3.81	-44.9	-63.2	3.8	8.47e-01	0	56	104	418906112	61	29626
2026-01-09 03:39:07.91	136.90	3.61	-44.9	-63.2	3.8	8.46e-01	0	56	104	418906112	61	29655
2026-01-09 03:39:10.94	136.60	3.41	-44.9	-63.2	3.8	8.46e-01	0	56	104	418906112	61	29569
2026-01-09 03:39:13.97	136.31	3.21	-44.9	-63.2	3.8	8.46e-01	0	56	104	418906112	61	29644
2026-01-09 03:39:17.00	136.02	3.01	-44.9	-63.2	3.8	8.47e-01	0	56	104	418906112	61	29627
2026-01-09 03:39:20.02	135.75	2.82	-44.9	-63.2	3.8	8.46e-01	0	56	104	418906112	61	29603
2026-01-09 03:39:23.06	135.47	2.62	-44.9	-63.2	3.8	8.46e-01	0	56	104	418906112	61	29668
2026-01-09 03:39:26.09	135.20	2.43	-44.9	-63.2	3.8	8.47e-01	0	56	104	418906112	61	29519
2026-01-09 03:39:29.12	134.94	2.24	-44.9	-63.2	3.8	8.46e-01	0	56	104	418906112	61	29609
2026-01-09 03:39:32.15	134.68	2.05	-44.9	-63.2	3.8	8.45e-01	0	57	104	418906112	61	29597

#Closed at: 2026-01-09 03:39:34
#Recorded file [418 MB]: D:/lorett/data/31039_260109_063044.dat