passes_logs/2026/01/09/R2.0S_Moscow/R2.0S_Moscow__20260109_023304_FENGYUN_3E_rec.log

#Pass ID: 20260109_023304_FENGYUN 3E
#Satellite: FENGYUN 3E
#Configuration: FENGYUN 3E
#almurnet v.1.7.20251203
#Start time: 2026-01-09 02:41:25

#Version: 2.2.20231116
#Station: R2.0S_Moscow
#Location: 37.707566 lon 55.798166 lat
#TLE: 1 49008U 21062A   26008.52265380 -.00000112  00000+0 -32190-4 0  9993
#TLE: 2 49008  98.7483  13.7266 0001697 149.3310 210.7966 14.19883994233927

#Time	Az	El	Level	Level2	SNR	BER	BlckErr	Temp	State	Recorded	gain1	gain2
2026-01-09 02:41:25.10	119.10	21.19	-44.7	-56.3	3.8	8.45e-01	0	57	0	0	60	14116
2026-01-09 02:41:27.12	119.57	21.07	-45.6	-56.8	3.8	8.46e-01	0	57	104	0	62	12552
2026-01-09 02:41:29.14	120.03	20.94	-45.5	-56.7	3.8	8.46e-01	0	57	104	0	62	12431
2026-01-09 02:41:31.16	120.49	20.81	-45.3	-56.4	3.8	8.45e-01	0	57	104	0	61	12756
2026-01-09 02:41:33.18	120.95	20.67	-45.1	-56.2	3.8	8.46e-01	0	57	104	0	61	12433
2026-01-09 02:41:35.20	121.40	20.54	-44.9	-56.0	3.8	8.46e-01	0	57	104	0	60	12876
2026-01-09 02:41:37.22	121.85	20.41	-44.9	-55.9	3.8	8.46e-01	0	57	104	0	60	12749
2026-01-09 02:41:39.24	122.29	20.27	-44.9	-56.1	3.8	8.45e-01	0	57	104	0	60	13091
2026-01-09 02:41:41.26	122.73	20.14	-44.9	-56.1	3.8	8.46e-01	0	57	104	0	60	13056
2026-01-09 02:41:43.29	123.17	20.00	-44.8	-56.0	3.8	8.46e-01	0	57	104	0	60	12831
2026-01-09 02:41:45.31	123.61	19.86	-44.9	-55.9	3.8	8.45e-01	0	58	104	0	60	12723
2026-01-09 02:41:47.33	124.04	19.72	-44.9	-55.9	3.8	8.46e-01	0	58	104	0	60	12729
2026-01-09 02:41:49.35	124.46	19.58	-44.9	-56.1	3.8	8.46e-01	0	58	104	0	60	12960
2026-01-09 02:41:51.37	124.88	19.44	-44.9	-56.0	3.8	8.46e-01	0	57	104	0	60	12869
2026-01-09 02:41:53.39	125.30	19.30	-44.8	-55.5	3.8	8.46e-01	0	58	104	0	60	12198
2026-01-09 02:41:55.42	125.72	19.16	-44.8	-55.2	3.8	8.46e-01	0	58	104	0	60	11700
2026-01-09 02:41:57.44	126.13	19.02	-44.8	-55.2	3.8	8.46e-01	0	58	104	0	60	11719
2026-01-09 02:41:59.46	126.54	18.87	-44.8	-55.9	3.8	8.46e-01	0	58	104	0	60	12680
2026-01-09 02:42:01.48	126.94	18.73	-44.7	-54.8	3.8	8.46e-01	0	58	104	0	60	11250
2026-01-09 02:42:03.50	127.34	18.59	-43.7	-49.7	5.3	7.51e-01	0	58	0	0	58	6961
2026-01-09 02:42:05.52	127.73	18.44	-42.0	-46.1	8.3	6.37e-02	0	58	0	12582912	55	5467
2026-01-09 02:42:07.54	128.13	18.30	-41.9	-45.8	8.6	3.47e-02	0	58	0	27262976	54	5627
2026-01-09 02:42:09.56	128.52	18.15	-44.1	-51.2	4.5	7.94e-01	0	58	0	38797312	57	8811
2026-01-09 02:42:11.58	128.90	18.01	-43.2	-48.3	6.3	7.79e-01	0	58	0	38797312	57	6315
2026-01-09 02:42:13.60	129.28	17.86	-37.8	-40.0	14.3	4.50e-06	0	58	0	53477376	46	4571
2026-01-09 02:42:15.62	129.66	17.72	-34.8	-36.6	17.3	0.00e+00	0	57	0	68157440	40	4357
2026-01-09 02:42:17.64	130.03	17.57	-34.4	-36.2	17.7	0.00e+00	0	58	0	82837504	39	4420
2026-01-09 02:42:19.66	130.41	17.42	-43.9	-50.7	4.9	1.94e-05	0	58	0	97517568	57	8328
2026-01-09 02:42:21.68	130.77	17.27	-36.9	-39.2	14.9	0.00e+00	0	58	0	105906176	43	4931
2026-01-09 02:42:23.70	131.14	17.13	-38.1	-40.5	14.0	2.20e-06	0	58	0	120586240	45	5115
2026-01-09 02:42:25.72	131.50	16.98	-34.5	-36.3	17.5	0.00e+00	0	58	0	133169152	40	4241
2026-01-09 02:42:27.74	131.85	16.83	-34.2	-36.0	17.9	0.00e+00	0	58	0	147849216	39	4297
2026-01-09 02:42:29.77	132.21	16.68	-34.1	-35.8	18.0	4.23e-05	0	58	0	162529280	38	4471
2026-01-09 02:42:31.79	132.56	16.53	-34.1	-35.8	18.1	0.00e+00	0	58	0	177209344	37	4722
2026-01-09 02:42:33.81	132.91	16.39	-34.0	-35.6	17.7	1.17e-03	0	58	0	191889408	37	4620
2026-01-09 02:42:35.82	133.25	16.24	-34.0	-35.6	18.0	4.50e-06	0	58	0	206569472	37	4627
2026-01-09 02:42:37.84	133.59	16.09	-33.6	-35.7	17.9	2.20e-06	0	57	0	221249536	37	4702
2026-01-09 02:42:39.86	133.93	15.94	-34.5	-36.2	17.6	1.68e-03	0	58	0	235929600	38	4677
2026-01-09 02:42:41.88	134.26	15.79	-34.6	-36.5	17.0	6.41e-03	0	58	0	250609664	38	4857
2026-01-09 02:42:43.90	134.59	15.65	-34.8	-36.8	15.9	5.02e-03	0	58	0	264241152	39	4751
2026-01-09 02:42:45.92	134.92	15.50	-35.0	-37.0	13.9	2.19e-03	0	58	0	278921216	39	4820
2026-01-09 02:42:47.94	135.24	15.35	-34.6	-36.7	16.5	1.10e-03	0	58	0	293601280	38	4965
2026-01-09 02:42:49.96	135.56	15.20	-33.8	-36.6	16.4	1.10e-03	0	58	0	308281344	38	4893
2026-01-09 02:42:51.98	135.88	15.05	-34.4	-36.4	17.1	1.14e-03	0	58	0	322961408	38	4800
2026-01-09 02:42:53.99	136.20	14.91	-34.3	-36.3	17.4	7.38e-04	0	58	0	337641472	38	4718
2026-01-09 02:42:56.01	136.51	14.76	-34.3	-36.2	17.0	1.29e-03	0	58	0	352321536	38	4666
2026-01-09 02:42:58.03	136.82	14.61	-33.3	-36.2	17.4	4.68e-04	0	58	0	367001600	38	4702
2026-01-09 02:43:00.05	137.12	14.46	-34.3	-36.4	16.7	1.72e-04	0	58	0	380633088	38	4778
2026-01-09 02:43:02.07	137.43	14.31	-34.8	-36.6	17.1	2.13e-03	0	58	0	396361728	39	4617
2026-01-09 02:43:04.09	137.73	14.17	-34.9	-36.8	16.9	1.80e-03	0	58	0	409993216	39	4726
2026-01-09 02:43:06.10	138.02	14.02	-35.0	-37.0	16.6	1.26e-04	0	58	0	424673280	39	4831
2026-01-09 02:43:08.12	138.32	13.87	-35.1	-36.9	16.6	3.65e-04	0	58	0	439353344	39	4814
2026-01-09 02:43:10.14	138.61	13.73	-35.1	-36.9	16.8	1.13e-03	0	58	0	454033408	39	4810
2026-01-09 02:43:12.16	138.90	13.58	-34.9	-36.8	16.9	2.17e-05	0	58	0	468713472	39	4749
2026-01-09 02:43:14.18	139.18	13.43	-34.9	-36.8	16.9	8.69e-05	0	58	0	483393536	39	4722
2026-01-09 02:43:16.20	139.47	13.29	-35.1	-36.9	16.8	1.37e-05	0	58	0	498073600	39	4787
2026-01-09 02:43:18.22	139.75	13.14	-34.8	-36.7	16.9	1.10e-06	0	58	0	512753664	39	4657
2026-01-09 02:43:20.24	140.03	13.00	-34.9	-36.8	16.8	4.50e-06	0	58	0	527433728	39	4712
2026-01-09 02:43:22.26	140.30	12.85	-34.9	-36.7	16.9	1.10e-06	0	58	0	541065216	39	4694
2026-01-09 02:43:24.27	140.57	12.71	-35.0	-36.9	16.8	0.00e+00	0	58	0	555745280	39	4773
2026-01-09 02:43:26.29	140.84	12.56	-35.3	-37.1	16.5	1.10e-06	0	58	0	570425344	40	4641
2026-01-09 02:43:28.31	141.11	12.42	-35.4	-37.3	16.3	0.00e+00	0	58	0	585105408	40	4752
2026-01-09 02:43:30.33	141.38	12.27	-35.3	-37.2	16.4	0.00e+00	0	58	0	599785472	40	4652
2026-01-09 02:43:32.35	141.64	12.13	-35.2	-37.1	16.5	0.00e+00	0	58	0	614465536	40	4635
2026-01-09 02:43:34.37	141.90	11.98	-35.0	-36.9	16.7	0.00e+00	0	58	0	629145600	40	4523
2026-01-09 02:43:36.39	142.16	11.84	-35.2	-37.0	16.6	0.00e+00	0	58	0	643825664	40	4595
2026-01-09 02:43:38.41	142.41	11.70	-35.1	-36.9	16.7	0.00e+00	0	58	0	658505728	40	4536
2026-01-09 02:43:40.43	142.67	11.56	-35.2	-37.1	16.5	0.00e+00	0	58	0	673185792	40	4622
2026-01-09 02:43:42.44	142.91	11.41	-35.3	-37.2	16.4	0.00e+00	0	58	0	686817280	40	4685
2026-01-09 02:43:44.46	143.16	11.27	-35.4	-37.4	16.2	0.00e+00	0	58	0	701497344	40	4767
2026-01-09 02:43:46.48	143.41	11.13	-35.5	-37.4	16.1	0.00e+00	0	58	0	716177408	40	4784
2026-01-09 02:43:48.50	143.65	10.99	-35.6	-37.6	15.9	0.00e+00	0	58	0	730857472	40	4884
2026-01-09 02:43:50.52	143.89	10.85	-35.5	-37.5	16.0	0.00e+00	0	58	0	745537536	40	4855
2026-01-09 02:43:52.54	144.13	10.71	-35.7	-37.7	15.8	0.00e+00	0	58	0	760217600	40	4943
2026-01-09 02:43:54.56	144.37	10.57	-35.6	-37.6	15.8	0.00e+00	0	58	0	774897664	40	4915
2026-01-09 02:43:56.58	144.60	10.43	-35.7	-37.7	15.7	0.00e+00	0	58	0	789577728	41	4703
2026-01-09 02:43:58.60	144.84	10.29	-35.8	-37.8	15.6	0.00e+00	0	58	0	804257792	41	4739
2026-01-09 02:44:00.61	145.07	10.15	-35.7	-37.7	15.7	0.00e+00	0	58	0	818937856	41	4705
2026-01-09 02:44:02.63	145.29	10.01	-35.8	-37.8	15.6	0.00e+00	0	58	0	832569344	41	4751
2026-01-09 02:44:04.65	145.52	9.87	-35.9	-37.9	15.5	0.00e+00	0	58	0	847249408	41	4781
2026-01-09 02:44:06.67	145.75	9.74	-35.9	-37.9	15.6	0.00e+00	0	58	0	861929472	41	4793
2026-01-09 02:44:08.69	145.97	9.60	-35.9	-38.0	15.4	0.00e+00	0	58	0	876609536	41	4835
2026-01-09 02:44:10.70	146.19	9.46	-35.9	-38.0	15.4	0.00e+00	0	58	0	891289600	41	4829
2026-01-09 02:44:12.72	146.40	9.33	-36.0	-38.1	15.3	0.00e+00	0	58	0	905969664	41	4899
2026-01-09 02:44:14.74	146.62	9.19	-36.1	-38.2	15.1	0.00e+00	0	58	0	920649728	41	4972
2026-01-09 02:44:16.76	146.84	9.05	-36.0	-38.1	15.2	0.00e+00	0	58	0	935329792	41	4885
2026-01-09 02:44:18.78	147.05	8.92	-36.0	-38.1	15.1	0.00e+00	0	58	0	950009856	41	4920
2026-01-09 02:44:20.80	147.26	8.78	-35.9	-38.0	15.3	0.00e+00	0	58	0	963641344	41	4819
2026-01-09 02:44:22.82	147.47	8.65	-35.9	-38.0	15.3	0.00e+00	0	58	0	978321408	41	4815
2026-01-09 02:44:24.83	147.67	8.51	-35.8	-37.9	15.3	0.00e+00	0	58	0	993001472	41	4776
2026-01-09 02:44:26.85	147.88	8.38	-35.8	-37.8	15.3	1.10e-06	0	58	0	1007681536	41	4748
2026-01-09 02:44:28.87	148.08	8.25	-35.7	-37.8	15.4	0.00e+00	0	58	0	1022361600	41	4717
2026-01-09 02:44:30.89	148.28	8.11	-35.8	-37.8	15.3	0.00e+00	0	58	0	1037041664	41	4759
2026-01-09 02:44:32.91	148.48	7.98	-44.3	-54.6	3.9	4.36e-01	0	58	104	1049624576	58	12285
2026-01-09 02:44:34.93	148.68	7.85	-45.0	-55.8	3.8	8.45e-01	0	58	104	1049624576	59	13300
2026-01-09 02:44:36.95	148.88	7.72	-45.3	-56.5	3.8	8.46e-01	0	58	104	1049624576	60	13679
2026-01-09 02:44:38.97	149.07	7.59	-45.5	-56.8	3.8	8.47e-01	0	58	104	1049624576	60	14056
2026-01-09 02:44:40.99	149.26	7.46	-45.6	-56.7	3.8	8.46e-01	0	58	104	1049624576	60	13959
2026-01-09 02:44:43.01	149.45	7.32	-45.4	-56.6	3.8	8.46e-01	0	58	104	1049624576	60	13727
2026-01-09 02:44:45.04	149.64	7.19	-45.3	-56.4	3.8	8.47e-01	0	58	104	1049624576	60	13530
2026-01-09 02:44:47.06	149.83	7.06	-45.2	-56.4	3.8	8.46e-01	0	58	104	1049624576	60	13459
2026-01-09 02:44:49.08	150.02	6.93	-45.2	-56.3	3.8	8.47e-01	0	58	104	1049624576	60	13364
2026-01-09 02:44:51.10	150.20	6.81	-45.2	-56.4	3.8	8.47e-01	0	58	104	1049624576	60	13466
2026-01-09 02:44:53.12	150.39	6.68	-45.2	-56.4	3.8	8.45e-01	0	58	104	1049624576	60	13465
2026-01-09 02:44:55.13	150.57	6.55	-45.2	-56.3	3.8	8.45e-01	0	58	104	1049624576	60	13402
2026-01-09 02:44:57.15	150.75	6.42	-45.2	-56.3	3.8	8.46e-01	0	58	104	1049624576	60	13386
2026-01-09 02:44:59.17	150.93	6.29	-45.2	-56.3	3.8	8.45e-01	0	58	104	1049624576	60	13400
2026-01-09 02:45:01.19	151.10	6.17	-45.2	-56.3	3.8	8.47e-01	0	58	104	1049624576	60	13368
2026-01-09 02:45:03.21	151.28	6.04	-45.2	-56.3	3.8	8.47e-01	0	58	104	1049624576	60	13358
2026-01-09 02:45:05.23	151.45	5.91	-45.2	-56.4	3.8	8.46e-01	0	58	104	1049624576	60	13425
2026-01-09 02:45:07.25	151.63	5.79	-45.2	-56.4	3.8	8.46e-01	0	58	104	1049624576	60	13420
2026-01-09 02:45:09.27	151.80	5.66	-45.2	-56.3	3.8	8.47e-01	0	58	104	1049624576	60	13293
2026-01-09 02:45:11.28	151.97	5.54	-45.2	-56.3	3.8	8.47e-01	0	58	104	1049624576	60	13345
2026-01-09 02:45:13.31	152.13	5.41	-45.2	-56.3	3.8	8.46e-01	0	58	104	1049624576	60	13323
2026-01-09 02:45:15.32	152.30	5.29	-45.1	-56.3	3.8	8.46e-01	0	58	104	1049624576	60	13307
2026-01-09 02:45:17.34	152.47	5.17	-45.2	-56.3	3.8	8.45e-01	0	59	104	1049624576	60	13333
2026-01-09 02:45:19.36	152.63	5.04	-45.2	-56.3	3.8	8.46e-01	0	58	104	1049624576	60	13302
2026-01-09 02:45:21.38	152.79	4.92	-45.2	-56.3	3.8	8.46e-01	0	58	104	1049624576	60	13328
2026-01-09 02:45:23.40	152.96	4.80	-45.2	-56.3	3.8	8.45e-01	0	58	104	1049624576	60	13360
2026-01-09 02:45:25.42	153.12	4.67	-45.1	-56.3	3.8	8.46e-01	0	58	104	1049624576	60	13319
2026-01-09 02:45:27.44	153.28	4.55	-45.1	-56.3	3.8	8.47e-01	0	58	104	1049624576	60	13317
2026-01-09 02:45:29.46	153.43	4.43	-45.2	-56.3	3.8	8.46e-01	0	58	104	1049624576	60	13281
2026-01-09 02:45:31.48	153.59	4.31	-45.2	-56.3	3.8	8.46e-01	0	59	104	1049624576	60	13319
2026-01-09 02:45:33.50	153.75	4.19	-45.1	-56.3	3.8	8.45e-01	0	58	104	1049624576	60	13271
2026-01-09 02:45:35.52	153.90	4.07	-45.1	-56.3	3.8	8.47e-01	0	58	104	1049624576	60	13313
2026-01-09 02:45:37.54	154.05	3.95	-45.1	-56.3	3.8	8.47e-01	0	58	104	1049624576	60	13349
2026-01-09 02:45:39.56	154.20	3.83	-45.1	-56.3	3.8	8.46e-01	0	58	104	1049624576	60	13273
2026-01-09 02:45:41.58	154.35	3.71	-45.1	-56.3	3.8	8.45e-01	0	58	104	1049624576	60	13292
2026-01-09 02:45:43.60	154.50	3.59	-45.1	-56.3	3.8	8.47e-01	0	58	104	1049624576	60	13318
2026-01-09 02:45:45.62	154.65	3.47	-45.1	-56.3	3.8	8.46e-01	0	58	104	1049624576	60	13312
2026-01-09 02:45:47.64	154.80	3.35	-45.1	-56.3	3.8	8.45e-01	0	59	104	1049624576	60	13321
2026-01-09 02:45:49.66	154.95	3.24	-45.1	-56.3	3.8	8.45e-01	0	58	104	1049624576	60	13290
2026-01-09 02:45:51.68	155.09	3.12	-45.1	-56.3	3.8	8.45e-01	0	59	104	1049624576	60	13320
2026-01-09 02:45:53.70	155.23	3.00	-45.1	-56.3	3.8	8.47e-01	0	58	104	1049624576	60	13294
2026-01-09 02:45:55.72	155.38	2.88	-45.1	-56.3	3.8	8.48e-01	0	58	104	1049624576	60	13314
2026-01-09 02:45:57.74	155.52	2.77	-45.1	-56.3	3.8	8.46e-01	0	58	104	1049624576	60	13346
2026-01-09 02:45:59.76	155.66	2.65	-45.1	-56.3	3.8	8.47e-01	0	58	104	1049624576	60	13347
2026-01-09 02:46:01.78	155.80	2.54	-45.1	-56.2	3.8	8.47e-01	0	58	104	1049624576	60	13232
2026-01-09 02:46:03.80	155.94	2.42	-45.1	-56.2	3.8	8.46e-01	0	58	104	1049624576	60	13231
2026-01-09 02:46:05.82	156.07	2.31	-45.1	-56.3	3.8	8.46e-01	0	58	104	1049624576	60	13278
2026-01-09 02:46:07.84	156.21	2.19	-45.1	-56.3	3.8	8.46e-01	0	58	104	1049624576	60	13275
2026-01-09 02:46:09.86	156.35	2.08	-45.1	-56.2	3.8	8.47e-01	0	58	104	1049624576	60	13256
2026-01-09 02:46:11.88	156.48	1.96	-45.1	-56.2	3.8	8.46e-01	0	58	104	1049624576	60	13254

#Closed at: 2026-01-09 02:46:12
#Recorded file [1049 MB]: D:/lorett/data/31039_260109_054124.dat