passes_logs/2026/01/09/R2.0S_Moscow/R2.0S_Moscow__20260109_104825_NOAA_21_JPSS-2_rec.log

#Pass ID: 20260109_104825_NOAA 21 (JPSS-2)
#Satellite: NOAA 21 (JPSS-2)
#Configuration: NOAA-21
#almurnet v.1.7.20251203
#Start time: 2026-01-09 10:51:47

#Version: 2.2.20231116
#Station: R2.0S_Moscow
#Location: 37.707566 lon 55.798166 lat
#TLE: 1 54234U 22150A   26008.45757862  .00000119  00000+0  77172-4 0  9996
#TLE: 2 54234  98.7494 309.4367 0000894 328.2777  31.8345 14.19533328163889

#Time	Az	El	Level	Level2	SNR	BER	BlckErr	Temp	State	Recorded	gain1	gain2
2026-01-09 10:51:47.70	201.28	18.01	-44.7	-56.3	3.8	8.47e-01	0	56	0	0	60	14055
2026-01-09 10:51:50.73	201.64	18.33	-45.0	-57.3	3.8	1.49e+00	0	57	104	0	61	14913
2026-01-09 10:51:53.76	202.02	18.65	-44.8	-57.1	3.8	1.49e+00	0	57	104	0	61	14565
2026-01-09 10:51:56.79	202.40	18.98	-44.8	-57.0	3.8	1.49e+00	0	57	104	0	61	14454
2026-01-09 10:51:59.82	202.79	19.30	-44.8	-57.0	3.8	1.49e+00	0	57	104	0	61	14474
2026-01-09 10:52:02.85	203.18	19.64	-44.8	-57.1	3.8	1.49e+00	0	57	104	0	61	14573
2026-01-09 10:52:05.89	203.59	19.97	-44.8	-57.0	3.8	1.49e+00	0	57	104	0	61	14483
2026-01-09 10:52:08.91	204.01	20.31	-44.7	-56.8	3.8	1.49e+00	0	57	104	0	61	14066
2026-01-09 10:52:11.94	204.43	20.65	-44.7	-56.6	3.8	1.49e+00	0	57	104	0	61	13840
2026-01-09 10:52:14.98	204.86	20.99	-44.7	-56.9	3.8	1.49e+00	0	57	104	0	61	14302
2026-01-09 10:52:18.01	205.31	21.34	-44.7	-56.7	3.8	1.49e+00	0	57	104	0	61	13944
2026-01-09 10:52:21.04	205.76	21.69	-44.7	-56.9	3.8	1.49e+00	0	57	104	0	61	14307
2026-01-09 10:52:24.07	206.22	22.04	-44.7	-57.0	3.8	1.49e+00	0	57	104	0	61	14521
2026-01-09 10:52:27.10	206.70	22.39	-44.7	-56.6	3.8	1.49e+00	0	57	104	0	61	13756
2026-01-09 10:52:30.13	207.18	22.75	-44.6	-55.5	3.8	1.49e+00	0	57	104	0	61	12166
2026-01-09 10:52:33.16	207.67	23.11	-44.5	-54.8	3.9	1.48e+00	0	57	104	0	61	11249
2026-01-09 10:52:36.19	208.18	23.48	-44.0	-51.1	5.2	7.37e-01	0	57	0	0	59	8182
2026-01-09 10:52:39.22	208.70	23.84	-41.3	-44.5	11.1	3.13e-03	0	57	0	9437184	54	5132
2026-01-09 10:52:42.25	209.23	24.21	-38.0	-39.8	15.9	0.00e+00	0	57	0	18874368	48	4198
2026-01-09 10:52:45.28	209.77	24.58	-40.6	-43.2	12.5	9.90e-06	0	57	0	25165824	51	5276
2026-01-09 10:52:48.31	210.32	24.96	-36.8	-38.3	17.3	0.00e+00	0	57	0	34603008	45	4213
2026-01-09 10:52:51.34	210.89	25.34	-36.7	-38.1	17.5	0.00e+00	0	57	0	44040192	45	4144
2026-01-09 10:52:54.37	211.47	25.72	-36.8	-38.2	17.4	0.00e+00	0	57	0	53477376	45	4192
2026-01-09 10:52:57.40	212.07	26.10	-36.8	-38.3	17.3	0.00e+00	0	57	0	62914560	45	4205
2026-01-09 10:53:00.43	212.67	26.48	-37.0	-38.6	17.0	0.00e+00	0	57	0	72351744	45	4343
2026-01-09 10:53:03.45	213.30	26.87	-37.5	-39.1	16.5	0.00e+00	0	57	0	81788928	45	4632
2026-01-09 10:53:06.48	213.93	27.26	-37.7	-39.4	16.3	0.00e+00	0	57	0	91226112	46	4499
2026-01-09 10:53:09.51	214.59	27.65	-37.8	-39.5	16.2	0.00e+00	0	57	0	100663296	46	4555
2026-01-09 10:53:12.53	215.26	28.04	-37.9	-39.6	16.1	0.00e+00	0	57	0	110100480	46	4623
2026-01-09 10:53:15.56	215.94	28.43	-37.8	-39.5	16.2	0.00e+00	0	57	0	119537664	46	4570
2026-01-09 10:53:18.59	216.64	28.83	-37.7	-39.4	16.3	0.00e+00	0	57	0	128974848	46	4505
2026-01-09 10:53:21.62	217.36	29.22	-37.5	-39.1	16.5	0.00e+00	0	57	0	138412032	46	4390
2026-01-09 10:53:24.64	218.10	29.61	-37.4	-38.9	16.7	0.00e+00	0	57	0	147849216	46	4288
2026-01-09 10:53:27.67	218.85	30.01	-37.5	-39.1	16.6	0.00e+00	0	57	0	157286400	46	4364
2026-01-09 10:53:30.70	219.63	30.41	-37.3	-38.8	16.9	0.00e+00	0	57	0	166723584	46	4217
2026-01-09 10:53:33.73	220.42	30.80	-37.2	-38.8	16.9	0.00e+00	0	57	0	176160768	46	4208
2026-01-09 10:53:36.76	221.23	31.20	-37.1	-38.6	17.0	0.00e+00	0	57	0	185597952	46	4132
2026-01-09 10:53:39.79	222.06	31.59	-37.1	-38.6	17.0	0.00e+00	0	57	0	195035136	46	4143
2026-01-09 10:53:42.82	222.91	31.98	-37.5	-39.0	16.6	0.00e+00	0	57	0	204472320	46	4340
2026-01-09 10:53:45.84	223.78	32.37	-37.5	-39.1	16.5	0.00e+00	0	57	0	213909504	46	4382
2026-01-09 10:53:48.87	224.67	32.76	-37.6	-39.2	16.5	0.00e+00	0	57	0	223346688	46	4400
2026-01-09 10:53:51.90	225.59	33.15	-37.7	-39.4	16.3	0.00e+00	0	57	0	233832448	46	4501
2026-01-09 10:53:54.93	226.52	33.53	-38.0	-39.7	16.0	0.00e+00	0	57	0	243269632	46	4670
2026-01-09 10:53:57.96	227.48	33.91	-38.1	-39.8	15.9	0.00e+00	0	57	0	252706816	46	4730
2026-01-09 10:54:00.99	228.46	34.28	-38.1	-39.9	15.8	0.00e+00	0	57	0	262144000	46	4798
2026-01-09 10:54:04.01	229.45	34.65	-38.1	-39.9	15.8	0.00e+00	0	57	0	271581184	46	4786
2026-01-09 10:54:07.04	230.48	35.01	-38.5	-40.3	15.3	0.00e+00	0	57	0	281018368	47	4758
2026-01-09 10:54:10.07	231.52	35.37	-38.3	-40.1	15.5	0.00e+00	0	57	0	290455552	47	4643
2026-01-09 10:54:13.10	232.59	35.72	-38.5	-40.4	15.3	0.00e+00	0	57	0	299892736	47	4774
2026-01-09 10:54:16.13	233.68	36.06	-38.7	-40.5	15.3	0.00e+00	0	57	0	309329920	48	4581
2026-01-09 10:54:19.16	234.79	36.40	-38.7	-40.6	15.2	0.00e+00	0	57	0	318767104	48	4613
2026-01-09 10:54:22.19	235.93	36.73	-39.0	-40.9	14.9	0.00e+00	0	57	0	328204288	48	4813
2026-01-09 10:54:25.22	237.08	37.04	-38.8	-40.6	15.1	0.00e+00	0	57	0	337641472	48	4648
2026-01-09 10:54:28.25	238.26	37.35	-38.7	-40.5	15.2	0.00e+00	0	57	0	347078656	48	4585
2026-01-09 10:54:31.28	239.46	37.65	-38.7	-40.6	15.1	0.00e+00	0	57	0	356515840	48	4629
2026-01-09 10:54:34.31	240.69	37.93	-38.7	-40.5	15.2	0.00e+00	0	57	0	365953024	48	4572
2026-01-09 10:54:37.34	241.93	38.20	-38.7	-40.6	15.2	0.00e+00	0	57	0	375390208	48	4605
2026-01-09 10:54:40.36	243.19	38.46	-38.7	-40.5	15.2	0.00e+00	0	57	0	384827392	48	4589
2026-01-09 10:54:43.39	244.47	38.71	-39.3	-41.3	14.4	1.50e-06	0	57	0	394264576	49	4742
2026-01-09 10:54:46.41	245.77	38.94	-38.9	-40.8	15.0	0.00e+00	0	57	0	403701760	49	4468
2026-01-09 10:54:49.44	247.09	39.15	-39.2	-41.2	14.5	7.00e-07	0	57	0	413138944	49	4686
2026-01-09 10:54:52.47	248.42	39.35	-38.9	-40.8	15.0	0.00e+00	0	57	0	422576128	49	4468
2026-01-09 10:54:55.49	249.77	39.54	-39.1	-41.1	14.6	7.00e-07	0	57	0	432013312	49	4619
2026-01-09 10:54:58.52	251.13	39.70	-39.2	-41.2	14.6	0.00e+00	0	57	0	441450496	49	4654
2026-01-09 10:55:01.54	252.51	39.85	-39.0	-40.9	14.8	7.00e-07	0	57	0	450887680	49	4544
2026-01-09 10:55:04.57	253.90	39.98	-39.2	-41.2	14.6	7.00e-07	0	57	0	460324864	49	4653
2026-01-09 10:55:07.60	255.30	40.10	-39.2	-41.2	14.6	0.00e+00	0	57	0	469762048	49	4683
2026-01-09 10:55:10.63	256.71	40.19	-39.0	-41.0	14.7	0.00e+00	0	57	0	479199232	49	4573
2026-01-09 10:55:13.66	258.12	40.27	-38.9	-40.8	15.0	0.00e+00	0	57	0	488636416	49	4445
2026-01-09 10:55:16.69	259.54	40.33	-39.4	-41.4	14.3	7.00e-07	0	57	0	498073600	49	4802
2026-01-09 10:55:19.72	260.97	40.36	-39.3	-41.4	14.4	7.00e-07	0	57	0	507510784	49	4788
2026-01-09 10:55:22.75	262.40	40.38	-39.8	-42.1	13.6	6.10e-06	0	57	0	516947968	50	4901
2026-01-09 10:55:25.77	263.82	40.38	-39.5	-41.5	14.2	1.50e-06	0	57	0	526385152	50	4589
2026-01-09 10:55:28.80	265.25	40.36	-39.7	-41.9	13.9	5.30e-06	0	57	0	535822336	50	4791
2026-01-09 10:55:31.83	266.68	40.32	-39.4	-41.4	14.4	7.00e-07	0	57	0	545259520	50	4531
2026-01-09 10:55:34.86	268.10	40.26	-39.4	-41.5	14.3	3.00e-06	0	57	0	554696704	50	4562
2026-01-09 10:55:37.88	269.50	40.18	-39.2	-41.2	14.6	7.00e-07	0	57	0	564133888	50	4412
2026-01-09 10:55:40.92	270.92	40.08	-39.4	-41.5	14.2	2.20e-06	0	57	0	573571072	50	4584
2026-01-09 10:55:43.94	272.31	39.96	-39.1	-41.1	14.6	0.00e+00	0	57	0	583008256	50	4379
2026-01-09 10:55:46.97	273.69	39.83	-39.0	-41.0	14.8	0.00e+00	0	57	0	592445440	50	4294
2026-01-09 10:55:50.00	275.07	39.68	-39.5	-41.6	14.1	2.20e-06	0	57	0	602931200	49	4925
2026-01-09 10:55:53.03	276.43	39.51	-39.2	-41.2	14.6	7.00e-07	0	57	0	611319808	49	4658
2026-01-09 10:55:56.06	277.77	39.32	-39.1	-41.1	14.6	0.00e+00	0	57	0	621805568	49	4602
2026-01-09 10:55:59.09	279.10	39.12	-39.2	-41.2	14.6	7.00e-07	0	57	0	631242752	49	4661
2026-01-09 10:56:02.12	280.42	38.90	-38.8	-40.7	15.0	0.00e+00	0	57	0	640679936	49	4416
2026-01-09 10:56:05.14	281.71	38.67	-39.2	-41.2	14.5	0.00e+00	0	57	0	650117120	49	4691
2026-01-09 10:56:08.17	282.98	38.42	-38.2	-39.9	15.8	0.00e+00	0	57	0	659554304	48	4277
2026-01-09 10:56:11.20	284.24	38.16	-38.3	-40.0	15.8	0.00e+00	0	57	0	668991488	48	4311
2026-01-09 10:56:14.23	285.47	37.89	-39.2	-41.1	14.6	0.00e+00	0	57	0	678428672	48	4926
2026-01-09 10:56:17.25	286.69	37.60	-38.8	-40.7	15.0	0.00e+00	0	57	0	687865856	49	4406
2026-01-09 10:56:20.28	287.88	37.31	-38.3	-40.1	15.6	0.00e+00	0	57	0	697303040	48	4371
2026-01-09 10:56:23.31	289.05	37.00	-38.2	-39.9	15.8	0.00e+00	0	57	0	706740224	48	4274
2026-01-09 10:56:26.34	290.20	36.68	-38.1	-39.8	15.9	0.00e+00	0	57	0	716177408	48	4203
2026-01-09 10:56:29.37	291.33	36.35	-38.2	-40.0	15.6	0.00e+00	0	57	0	725614592	47	4563
2026-01-09 10:56:32.40	292.43	36.02	-38.3	-40.1	15.6	0.00e+00	0	57	0	735051776	47	4611
2026-01-09 10:56:35.43	293.52	35.68	-38.3	-40.1	15.5	0.00e+00	0	57	0	744488960	47	4605
2026-01-09 10:56:38.45	294.57	35.33	-38.1	-39.9	15.7	0.00e+00	0	57	0	753926144	47	4512
2026-01-09 10:56:41.49	295.62	34.97	-38.0	-39.7	15.9	0.00e+00	0	57	0	763363328	47	4418
2026-01-09 10:56:44.52	296.63	34.61	-37.7	-39.4	16.2	0.00e+00	0	57	0	772800512	47	4257
2026-01-09 10:56:47.55	297.62	34.24	-37.9	-39.6	16.0	0.00e+00	0	57	0	782237696	47	4345
2026-01-09 10:56:50.57	298.59	33.87	-38.1	-39.8	15.8	0.00e+00	0	57	0	791674880	47	4476
2026-01-09 10:56:53.60	299.54	33.49	-38.0	-39.7	15.9	0.00e+00	0	57	0	801112064	47	4406
2026-01-09 10:56:56.63	300.47	33.11	-37.9	-39.6	16.0	0.00e+00	0	57	0	810549248	47	4387
2026-01-09 10:56:59.66	301.37	32.73	-37.5	-39.1	16.5	0.00e+00	0	57	0	819986432	47	4141
2026-01-09 10:57:02.69	302.26	32.34	-37.3	-38.9	16.7	0.00e+00	0	57	0	829423616	46	4267
2026-01-09 10:57:05.71	303.12	31.95	-37.5	-39.1	16.5	0.00e+00	0	57	0	838860800	46	4352
2026-01-09 10:57:08.74	303.97	31.56	-37.7	-39.3	16.3	0.00e+00	0	57	0	848297984	46	4484
2026-01-09 10:57:11.77	304.79	31.17	-37.6	-39.2	16.4	0.00e+00	0	57	0	857735168	46	4417
2026-01-09 10:57:14.80	305.60	30.78	-37.7	-39.4	16.2	0.00e+00	0	57	0	867172352	46	4503
2026-01-09 10:57:17.83	306.38	30.39	-38.1	-39.8	15.8	0.00e+00	0	57	0	876609536	46	4739
2026-01-09 10:57:20.86	307.15	30.00	-37.9	-39.6	16.0	0.00e+00	0	57	0	886046720	46	4606
2026-01-09 10:57:23.89	307.90	29.60	-37.8	-39.5	16.1	0.00e+00	0	57	0	895483904	46	4555
2026-01-09 10:57:26.92	308.63	29.21	-37.8	-39.4	16.1	0.00e+00	0	57	0	904921088	46	4529
2026-01-09 10:57:29.95	309.35	28.82	-37.5	-39.1	16.5	0.00e+00	0	57	0	914358272	46	4352
2026-01-09 10:57:32.97	310.04	28.43	-37.3	-38.9	16.6	0.00e+00	0	57	0	923795456	46	4270
2026-01-09 10:57:36.00	310.72	28.04	-37.3	-38.9	16.6	0.00e+00	0	57	0	933232640	46	4282
2026-01-09 10:57:39.03	311.39	27.65	-37.1	-38.6	16.9	0.00e+00	0	57	0	942669824	46	4132
2026-01-09 10:57:42.05	312.04	27.26	-36.9	-38.4	17.1	0.00e+00	0	57	0	952107008	45	4254
2026-01-09 10:57:45.09	312.67	26.88	-36.8	-38.3	17.1	0.00e+00	0	57	0	961544192	45	4228
2026-01-09 10:57:48.12	313.29	26.49	-36.7	-38.2	17.3	0.00e+00	0	57	0	972029952	45	4173
2026-01-09 10:57:51.14	313.90	26.11	-36.7	-38.2	17.3	0.00e+00	0	57	0	980418560	45	4168
2026-01-09 10:57:54.17	314.49	25.74	-36.7	-38.2	17.3	0.00e+00	0	57	0	990904320	45	4169
2026-01-09 10:57:57.20	315.06	25.36	-36.7	-38.2	17.3	0.00e+00	0	57	0	1000341504	45	4150
2026-01-09 10:58:00.23	315.63	24.98	-36.7	-38.1	17.3	0.00e+00	0	57	0	1009778688	45	4144
2026-01-09 10:58:03.26	316.18	24.61	-36.5	-37.9	17.5	0.00e+00	0	57	0	1019215872	44	4281
2026-01-09 10:58:06.29	316.72	24.24	-36.6	-38.1	17.3	0.00e+00	0	57	0	1028653056	44	4343
2026-01-09 10:58:09.31	317.24	23.88	-36.8	-38.3	17.2	0.00e+00	0	57	0	1038090240	44	4443
2026-01-09 10:58:12.34	317.76	23.52	-36.7	-38.2	17.2	0.00e+00	0	57	0	1047527424	44	4397
2026-01-09 10:58:15.37	318.26	23.15	-36.9	-38.4	16.9	0.00e+00	0	57	0	1056964608	44	4539
2026-01-09 10:58:18.40	318.75	22.80	-37.2	-38.7	16.7	0.00e+00	0	57	0	1066401792	44	4698
2026-01-09 10:58:21.42	319.23	22.44	-37.2	-38.8	16.6	0.00e+00	0	57	0	1075838976	45	4462
2026-01-09 10:58:24.45	319.70	22.09	-37.4	-39.0	16.4	0.00e+00	0	57	0	1085276160	45	4579
2026-01-09 10:58:27.48	320.17	21.74	-37.3	-39.0	16.4	0.00e+00	0	57	0	1094713344	45	4555
2026-01-09 10:58:30.51	320.62	21.40	-37.3	-38.9	16.5	0.00e+00	0	57	0	1104150528	45	4518
2026-01-09 10:58:33.54	321.06	21.05	-37.4	-39.0	16.4	0.00e+00	0	57	0	1113587712	45	4579
2026-01-09 10:58:36.57	321.49	20.71	-37.3	-38.9	16.5	0.00e+00	0	57	0	1123024896	45	4499
2026-01-09 10:58:39.60	321.91	20.38	-36.9	-38.5	16.9	0.00e+00	0	57	0	1132462080	45	4298
2026-01-09 10:58:42.62	322.32	20.04	-36.8	-38.3	16.9	0.00e+00	0	57	0	1141899264	45	4242
2026-01-09 10:58:45.65	322.73	19.71	-36.9	-38.4	16.9	0.00e+00	0	57	0	1151336448	45	4251
2026-01-09 10:58:48.68	323.13	19.38	-36.9	-38.5	16.8	0.00e+00	0	57	0	1160773632	45	4310
2026-01-09 10:58:51.71	323.51	19.06	-36.9	-38.4	16.9	0.00e+00	0	58	0	1170210816	45	4260
2026-01-09 10:58:54.73	323.89	18.74	-36.9	-38.4	16.9	0.00e+00	0	57	0	1179648000	45	4290
2026-01-09 10:58:57.76	324.27	18.42	-37.1	-38.6	16.7	0.00e+00	0	57	0	1189085184	45	4387
2026-01-09 10:59:00.79	324.63	18.10	-37.0	-38.5	16.8	0.00e+00	0	57	0	1198522368	45	4320
2026-01-09 10:59:03.81	324.99	17.79	-37.1	-38.7	16.6	0.00e+00	0	57	0	1207959552	45	4410
2026-01-09 10:59:06.84	325.34	17.48	-37.3	-38.9	16.3	0.00e+00	0	58	0	1217396736	45	4538
2026-01-09 10:59:09.87	325.69	17.18	-37.2	-38.8	16.5	0.00e+00	0	58	0	1226833920	45	4455
2026-01-09 10:59:12.90	326.03	16.87	-37.3	-38.9	16.3	0.00e+00	0	58	0	1236271104	45	4526
2026-01-09 10:59:15.93	326.36	16.57	-37.2	-38.8	16.4	0.00e+00	0	57	0	1245708288	45	4483
2026-01-09 10:59:18.96	326.68	16.27	-37.5	-39.1	16.1	0.00e+00	0	58	0	1255145472	45	4638
2026-01-09 10:59:21.98	327.00	15.98	-37.5	-39.2	16.0	0.00e+00	0	58	0	1264582656	45	4674
2026-01-09 10:59:25.01	327.31	15.68	-37.6	-39.3	15.8	0.00e+00	0	57	0	1274019840	45	4748
2026-01-09 10:59:28.04	327.62	15.39	-37.7	-39.4	15.7	0.00e+00	0	57	0	1283457024	45	4807
2026-01-09 10:59:31.07	327.92	15.11	-37.8	-39.5	15.7	0.00e+00	0	57	0	1292894208	46	4579
2026-01-09 10:59:34.10	328.22	14.82	-37.7	-39.5	15.7	0.00e+00	0	57	0	1302331392	46	4561
2026-01-09 10:59:37.13	328.51	14.54	-37.7	-39.4	15.7	0.00e+00	0	58	0	1311768576	46	4536
2026-01-09 10:59:40.16	328.80	14.26	-37.7	-39.4	15.8	0.00e+00	0	58	0	1321205760	46	4512
2026-01-09 10:59:43.18	329.08	13.99	-37.7	-39.5	15.7	0.00e+00	0	58	0	1330642944	46	4563
2026-01-09 10:59:46.21	329.35	13.71	-38.1	-39.9	15.2	0.00e+00	0	57	0	1340080128	46	4814
2026-01-09 10:59:49.24	329.62	13.44	-37.9	-39.8	15.4	0.00e+00	0	57	0	1349517312	46	4709
2026-01-09 10:59:52.27	329.89	13.17	-37.9	-39.8	15.3	0.00e+00	0	57	0	1358954496	46	4706
2026-01-09 10:59:55.30	330.15	12.90	-38.1	-39.9	15.1	0.00e+00	0	57	0	1369440256	46	4804
2026-01-09 10:59:58.33	330.41	12.64	-38.0	-39.8	15.2	0.00e+00	0	57	0	1378877440	46	4748
2026-01-09 11:00:01.36	330.66	12.38	-38.1	-40.0	15.0	0.00e+00	0	58	0	1388314624	46	4864
2026-01-09 11:00:04.38	330.91	12.12	-38.1	-40.0	15.1	0.00e+00	0	57	0	1397751808	46	4825
2026-01-09 11:00:07.41	331.16	11.86	-38.0	-39.9	15.1	0.00e+00	0	58	0	1407188992	46	4806
2026-01-09 11:00:10.44	331.40	11.61	-38.1	-40.0	15.1	0.00e+00	0	58	0	1416626176	46	4833
2026-01-09 11:00:13.47	331.63	11.35	-38.0	-39.9	15.1	0.00e+00	0	58	0	1426063360	46	4803
2026-01-09 11:00:16.50	331.87	11.10	-38.2	-40.1	14.8	0.00e+00	0	57	0	1435500544	46	4925
2026-01-09 11:00:19.53	332.10	10.85	-38.1	-40.0	15.0	0.00e+00	0	58	0	1444937728	46	4839
2026-01-09 11:00:22.55	332.32	10.61	-38.1	-40.0	14.9	7.00e-07	0	58	0	1454374912	46	4869
2026-01-09 11:00:25.58	332.54	10.36	-38.3	-40.3	14.6	0.00e+00	0	58	0	1463812096	47	4724
2026-01-09 11:00:28.62	332.76	10.12	-38.5	-40.6	14.2	7.00e-07	0	57	0	1473249280	47	4917
2026-01-09 11:00:31.65	332.98	9.88	-38.9	-41.1	13.9	3.80e-06	0	57	0	1482686464	48	4873
2026-01-09 11:00:34.67	333.19	9.64	-38.8	-41.0	13.9	3.80e-06	0	58	0	1492123648	48	4858
2026-01-09 11:00:37.70	333.40	9.41	-39.0	-41.3	13.6	5.30e-06	0	58	0	1501560832	48	4994
2026-01-09 11:00:40.73	333.61	9.17	-38.8	-41.1	13.8	4.50e-06	0	58	0	1510998016	48	4888
2026-01-09 11:00:43.76	333.81	8.94	-38.9	-41.1	13.7	3.80e-06	0	58	0	1520435200	48	4911
2026-01-09 11:00:46.79	334.01	8.71	-38.9	-41.2	13.6	1.06e-05	0	58	0	1529872384	48	4929
2026-01-09 11:00:49.82	334.21	8.48	-38.9	-41.2	13.5	1.75e-05	0	58	0	1539309568	48	4965
2026-01-09 11:00:52.85	334.40	8.25	-39.0	-41.3	13.4	1.37e-05	0	58	0	1548746752	48	5025
2026-01-09 11:00:55.88	334.59	8.03	-39.1	-41.5	13.2	1.67e-05	0	57	0	1558183936	48	5114
2026-01-09 11:00:58.91	334.78	7.80	-44.6	-56.8	3.8	1.49e+00	0	58	104	1560281088	59	15777
2026-01-09 11:01:01.94	334.97	7.58	-44.9	-57.2	3.8	1.49e+00	0	58	104	1560281088	60	15748
2026-01-09 11:01:04.97	335.15	7.36	-45.0	-57.3	3.8	1.49e+00	0	58	104	1560281088	60	15825
2026-01-09 11:01:08.00	335.33	7.14	-44.9	-57.2	3.8	1.49e+00	0	58	104	1560281088	60	15673
2026-01-09 11:01:11.03	335.51	6.93	-44.9	-57.2	3.8	1.49e+00	0	58	104	1560281088	60	15609
2026-01-09 11:01:14.07	335.69	6.71	-44.9	-57.1	3.8	1.49e+00	0	58	104	1560281088	60	15511
2026-01-09 11:01:17.10	335.86	6.50	-44.9	-57.1	3.8	1.49e+00	0	58	104	1560281088	60	15491
2026-01-09 11:01:20.12	336.03	6.29	-44.9	-57.1	3.8	1.49e+00	0	58	104	1560281088	60	15467
2026-01-09 11:01:23.16	336.20	6.08	-44.9	-57.1	3.8	1.49e+00	0	58	104	1560281088	60	15478
2026-01-09 11:01:26.19	336.37	5.87	-44.9	-57.1	3.8	1.49e+00	0	57	104	1560281088	60	15515
2026-01-09 11:01:29.22	336.53	5.66	-44.9	-57.1	3.8	1.49e+00	0	58	104	1560281088	60	15488
2026-01-09 11:01:32.25	336.69	5.45	-44.8	-57.1	3.8	1.49e+00	0	58	104	1560281088	60	15490
2026-01-09 11:01:35.28	336.85	5.25	-44.8	-57.1	3.8	1.49e+00	0	58	104	1560281088	60	15429
2026-01-09 11:01:38.31	337.01	5.05	-44.8	-57.1	3.8	1.49e+00	0	58	104	1560281088	60	15457
2026-01-09 11:01:41.34	337.17	4.84	-44.8	-57.1	3.8	1.49e+00	0	58	104	1560281088	60	15412
2026-01-09 11:01:44.37	337.32	4.64	-44.8	-57.1	3.8	1.49e+00	0	58	104	1560281088	60	15403
2026-01-09 11:01:47.40	337.48	4.44	-44.8	-57.1	3.8	1.49e+00	0	58	104	1560281088	60	15423
2026-01-09 11:01:50.43	337.63	4.25	-44.8	-57.0	3.8	1.49e+00	0	58	104	1560281088	60	15391
2026-01-09 11:01:53.46	337.78	4.05	-44.8	-57.0	3.8	1.49e+00	0	58	104	1560281088	60	15398
2026-01-09 11:01:56.50	337.92	3.85	-44.8	-57.1	3.8	1.49e+00	0	58	104	1560281088	60	15432
2026-01-09 11:01:59.53	338.07	3.66	-44.8	-57.0	3.8	1.49e+00	0	58	104	1560281088	60	15382
2026-01-09 11:02:02.56	338.21	3.47	-44.8	-57.0	3.8	1.49e+00	0	58	104	1560281088	60	15371
2026-01-09 11:02:05.59	338.36	3.28	-44.7	-57.1	3.8	1.49e+00	0	58	104	1560281088	60	15439
2026-01-09 11:02:08.62	338.50	3.09	-44.8	-57.0	3.8	1.49e+00	0	58	104	1560281088	60	15340
2026-01-09 11:02:11.66	338.64	2.90	-44.8	-57.0	3.8	1.49e+00	0	58	104	1560281088	60	15373
2026-01-09 11:02:14.69	338.77	2.71	-44.8	-57.1	3.8	1.49e+00	0	58	104	1560281088	60	15434
2026-01-09 11:02:17.72	338.91	2.52	-44.8	-57.0	3.8	1.49e+00	0	58	104	1560281088	60	15365
2026-01-09 11:02:20.75	339.04	2.34	-44.8	-57.1	3.8	1.49e+00	0	58	104	1560281088	60	15419
2026-01-09 11:02:23.78	339.17	2.15	-44.8	-57.1	3.8	1.49e+00	0	58	104	1560281088	60	15435
2026-01-09 11:02:26.81	339.31	1.97	-44.8	-57.1	3.8	1.49e+00	0	58	104	1560281088	60	15427

#Closed at: 2026-01-09 11:02:27
#Recorded file [1560 MB]: D:/lorett/data/31039_260109_135147.dat