passes_logs/2026/01/09/R2.0S_Moscow/R2.0S_Moscow__20260109_220837_NOAA_20_JPSS-1_rec.log

#Pass ID: 20260109_220837_NOAA 20 (JPSS-1)
#Satellite: NOAA 20 (JPSS-1)
#Configuration: NOAA 20
#almurnet v.1.7.20251203
#Start time: 2026-01-09 22:08:39

#Version: 2.2.20231116
#Station: R2.0S_Moscow
#Location: 37.707566 lon 55.798166 lat
#TLE: 1 43013U 17073A   26009.26828276  .00000112  00000+0  74203-4 0  9990
#TLE: 2 43013  98.7631 310.2683 0001700  47.4387 312.6933 14.19534764421920

#Time	Az	El	Level	Level2	SNR	BER	BlckErr	Temp	State	Recorded	gain1	gain2
2026-01-09 22:08:39.54	25.60	2.10	-42.2	-57.2	3.8	1.49e+00	0	46	0	0	56	19648
2026-01-09 22:08:43.57	25.89	2.32	-42.1	-57.0	3.8	1.49e+00	0	47	104	0	55	20418
2026-01-09 22:08:47.62	26.19	2.54	-42.1	-57.0	3.8	1.49e+00	0	47	104	0	55	20415
2026-01-09 22:08:51.65	26.50	2.76	-42.1	-57.0	3.8	1.49e+00	0	48	104	0	55	20376
2026-01-09 22:08:55.69	26.80	2.99	-42.1	-57.0	3.8	1.49e+00	0	48	104	0	55	20324
2026-01-09 22:08:59.72	27.12	3.21	-42.1	-57.0	3.8	1.49e+00	0	48	104	0	55	20423
2026-01-09 22:09:03.76	27.43	3.43	-42.1	-57.0	3.8	1.49e+00	0	48	104	0	55	20384
2026-01-09 22:09:07.80	27.75	3.66	-42.1	-57.0	3.8	1.49e+00	0	49	104	0	55	20382
2026-01-09 22:09:11.84	28.08	3.89	-42.1	-57.0	3.8	1.49e+00	0	49	104	0	55	20383
2026-01-09 22:09:15.87	28.41	4.12	-42.1	-57.0	3.8	1.49e+00	0	49	104	0	55	20443
2026-01-09 22:09:19.91	28.75	4.35	-42.1	-57.0	3.8	1.49e+00	0	49	104	0	55	20386
2026-01-09 22:09:23.95	29.09	4.58	-42.0	-57.0	3.8	1.49e+00	0	50	104	0	55	20386
2026-01-09 22:09:27.98	29.43	4.81	-42.1	-57.0	3.8	1.49e+00	0	50	104	0	55	20377
2026-01-09 22:09:32.02	29.78	5.04	-42.1	-57.0	3.8	1.49e+00	0	50	104	0	55	20331
2026-01-09 22:09:36.06	30.14	5.28	-42.1	-57.0	3.8	1.49e+00	0	50	104	0	55	20454
2026-01-09 22:09:40.10	30.50	5.51	-42.1	-57.0	3.8	1.49e+00	0	50	104	0	55	20360
2026-01-09 22:09:44.13	30.87	5.75	-42.1	-57.0	3.8	1.49e+00	0	51	104	0	55	20389
2026-01-09 22:09:48.17	31.25	5.99	-42.1	-57.0	3.8	1.49e+00	0	51	104	0	55	20398
2026-01-09 22:09:52.21	31.62	6.23	-42.1	-56.9	3.8	1.49e+00	0	51	104	0	55	20274
2026-01-09 22:09:56.25	32.01	6.47	-42.1	-57.0	3.8	1.49e+00	0	51	104	0	55	20305
2026-01-09 22:10:00.28	32.40	6.71	-42.1	-57.0	3.8	1.49e+00	0	51	104	0	55	20372
2026-01-09 22:10:04.32	32.80	6.95	-42.1	-57.0	3.8	1.49e+00	0	51	104	0	55	20319
2026-01-09 22:10:08.35	33.20	7.20	-41.9	-54.4	3.9	1.49e+00	0	51	104	0	55	15133
2026-01-09 22:10:12.39	33.61	7.44	-40.7	-46.6	9.0	4.81e-02	0	52	0	5242880	53	6958
2026-01-09 22:10:16.42	34.03	7.69	-40.2	-45.0	10.8	1.91e-03	0	52	0	13631488	51	6482
2026-01-09 22:10:20.45	34.45	7.94	-40.5	-46.1	9.6	2.59e-02	0	52	0	20971520	52	6951
2026-01-09 22:10:24.48	34.88	8.18	-40.3	-46.7	8.4	7.04e-01	0	52	0	28311552	52	7377
2026-01-09 22:10:28.50	35.32	8.43	-40.7	-45.2	11.4	9.15e-04	0	52	0	35651584	53	5869
2026-01-09 22:10:32.52	35.76	8.68	-41.0	-45.6	11.1	1.07e-03	0	52	0	42991616	53	6145
2026-01-09 22:10:36.56	36.22	8.94	-40.9	-45.0	11.9	5.41e-04	0	52	0	50331648	53	5738
2026-01-09 22:10:40.58	36.67	9.19	-40.7	-44.5	12.4	1.97e-04	0	53	0	57671680	53	5446
2026-01-09 22:10:44.61	37.14	9.44	-40.9	-44.8	12.2	2.10e-04	0	53	0	65011712	53	5645
2026-01-09 22:10:48.64	37.62	9.70	-40.9	-44.7	12.5	1.30e-04	0	53	0	73400320	53	5555
2026-01-09 22:10:52.67	38.10	9.95	-40.7	-44.3	13.0	5.56e-05	0	53	0	80740352	53	5288
2026-01-09 22:10:56.70	38.59	10.21	-40.8	-44.3	13.0	2.59e-05	0	53	0	88080384	53	5331
2026-01-09 22:11:00.73	39.09	10.47	-40.7	-44.2	13.1	2.89e-05	0	53	0	95420416	53	5244
2026-01-09 22:11:04.76	39.60	10.72	-40.7	-44.1	13.3	1.75e-05	0	53	0	103809024	53	5183
2026-01-09 22:11:08.79	40.12	10.98	-40.7	-44.0	13.4	1.98e-05	0	53	0	111149056	53	5156
2026-01-09 22:11:12.82	40.64	11.24	-40.8	-44.1	13.3	2.82e-05	0	54	0	118489088	53	5218
2026-01-09 22:11:16.85	41.18	11.50	-40.8	-44.2	13.3	1.60e-05	0	53	0	125829120	53	5250
2026-01-09 22:11:20.88	41.72	11.76	-40.7	-44.0	13.5	1.37e-05	0	53	0	133169152	53	5130
2026-01-09 22:11:24.91	42.27	12.02	-40.8	-44.0	13.5	3.80e-06	0	54	0	141557760	53	5153
2026-01-09 22:11:28.94	42.84	12.29	-40.7	-44.0	13.6	6.10e-06	0	54	0	148897792	53	5119
2026-01-09 22:11:32.98	43.41	12.55	-40.7	-43.9	13.6	2.20e-06	0	54	0	156237824	53	5092
2026-01-09 22:11:37.00	43.99	12.81	-40.5	-43.6	14.0	1.50e-06	0	54	0	163577856	53	4883
2026-01-09 22:11:41.03	44.59	13.07	-40.4	-43.5	14.1	7.00e-07	0	54	0	170917888	52	5108
2026-01-09 22:11:45.06	45.19	13.33	-40.5	-43.6	14.0	0.00e+00	0	54	0	179306496	52	5205
2026-01-09 22:11:49.08	45.80	13.60	-40.5	-43.6	14.0	3.80e-06	0	54	0	186646528	52	5207
2026-01-09 22:11:53.12	46.43	13.86	-40.6	-43.7	14.0	3.00e-06	0	54	0	193986560	52	5232
2026-01-09 22:11:57.15	47.06	14.12	-40.7	-43.9	13.8	2.20e-06	0	54	0	201326592	52	5348
2026-01-09 22:12:01.16	47.71	14.38	-40.6	-43.8	13.9	3.00e-06	0	54	0	208666624	52	5288
2026-01-09 22:12:05.18	48.36	14.64	-40.5	-43.5	14.2	1.50e-06	0	54	0	217055232	52	5133
2026-01-09 22:12:09.21	49.03	14.90	-40.5	-43.5	14.2	2.20e-06	0	54	0	224395264	52	5101
2026-01-09 22:12:13.25	49.71	15.16	-40.2	-43.0	14.8	0.00e+00	0	54	0	231735296	52	4819
2026-01-09 22:12:17.28	50.41	15.42	-40.0	-42.7	15.1	0.00e+00	0	55	0	239075328	51	4955
2026-01-09 22:12:21.31	51.11	15.68	-39.9	-42.5	15.3	0.00e+00	0	54	0	246415360	51	4841
2026-01-09 22:12:25.34	51.83	15.93	-39.8	-42.3	15.6	0.00e+00	0	54	0	254803968	51	4717
2026-01-09 22:12:29.37	52.55	16.19	-39.7	-42.1	15.7	0.00e+00	0	54	0	262144000	51	4651
2026-01-09 22:12:33.41	53.29	16.44	-39.8	-42.3	15.5	0.00e+00	0	55	0	269484032	51	4754
2026-01-09 22:12:37.44	54.05	16.69	-39.7	-42.2	15.6	0.00e+00	0	55	0	276824064	51	4689
2026-01-09 22:12:41.47	54.81	16.94	-39.8	-42.3	15.5	0.00e+00	0	55	0	284164096	51	4758
2026-01-09 22:12:45.50	55.59	17.18	-40.2	-42.9	14.9	0.00e+00	0	55	0	292552704	51	5075
2026-01-09 22:12:49.53	56.38	17.43	-40.1	-42.8	15.0	0.00e+00	0	55	0	299892736	51	5024
2026-01-09 22:12:53.55	57.17	17.67	-40.2	-43.0	14.9	0.00e+00	0	55	0	307232768	51	5112
2026-01-09 22:12:57.58	57.99	17.91	-40.4	-43.2	14.7	0.00e+00	0	55	0	314572800	51	5247
2026-01-09 22:13:01.61	58.81	18.14	-40.5	-43.3	14.5	7.00e-07	0	55	0	321912832	51	5325
2026-01-09 22:13:05.63	59.65	18.37	-40.7	-43.7	14.2	7.00e-07	0	55	0	330301440	51	5558
2026-01-09 22:13:09.67	60.50	18.60	-40.9	-44.1	13.7	4.50e-06	0	55	0	337641472	52	5481
2026-01-09 22:13:13.70	61.37	18.82	-41.0	-44.3	13.5	1.37e-05	0	55	0	344981504	52	5601
2026-01-09 22:13:17.74	62.25	19.04	-41.1	-44.5	13.2	1.98e-05	0	55	0	352321536	52	5776
2026-01-09 22:13:21.77	63.14	19.25	-41.2	-44.6	13.1	3.20e-05	0	55	0	359661568	53	5475
2026-01-09 22:13:25.80	64.04	19.46	-40.8	-44.0	13.8	2.20e-06	0	55	0	368050176	53	5122
2026-01-09 22:13:29.83	64.95	19.66	-40.8	-43.9	13.8	4.50e-06	0	55	0	375390208	53	5092
2026-01-09 22:13:33.86	65.87	19.86	-40.9	-44.0	13.7	8.30e-06	0	55	0	382730240	53	5157
2026-01-09 22:13:37.89	66.81	20.05	-40.8	-43.9	13.8	3.80e-06	0	55	0	390070272	53	5059
2026-01-09 22:13:41.92	67.76	20.24	-40.7	-43.8	13.9	7.00e-07	0	55	0	398458880	53	5014
2026-01-09 22:13:45.95	68.71	20.41	-40.7	-43.9	13.8	3.80e-06	0	55	0	405798912	53	5064
2026-01-09 22:13:49.99	69.69	20.59	-40.8	-44.1	13.5	1.22e-05	0	55	0	413138944	53	5165
2026-01-09 22:13:54.02	70.67	20.75	-40.4	-43.7	13.6	6.80e-06	0	55	0	420478976	52	5243
2026-01-09 22:13:58.05	71.66	20.91	-40.3	-43.6	13.3	2.13e-05	0	55	0	427819008	52	5217
2026-01-09 22:14:02.07	72.65	21.06	-40.3	-43.7	13.1	4.42e-05	0	55	0	436207616	52	5270
2026-01-09 22:14:06.10	73.66	21.20	-40.3	-43.4	13.9	3.00e-06	0	55	0	443547648	52	5049
2026-01-09 22:14:10.13	74.68	21.34	-40.2	-43.2	14.1	0.00e+00	0	56	0	450887680	52	4975
2026-01-09 22:14:14.15	75.71	21.46	-40.4	-43.4	14.0	1.50e-06	0	55	0	458227712	52	5099
2026-01-09 22:14:18.18	76.74	21.58	-40.5	-43.5	13.9	3.00e-06	0	55	0	465567744	52	5150
2026-01-09 22:14:22.21	77.78	21.68	-40.8	-44.1	13.4	1.14e-05	0	56	0	473956352	52	5497
2026-01-09 22:14:26.24	78.83	21.78	-40.8	-44.1	13.4	9.10e-06	0	56	0	481296384	52	5509
2026-01-09 22:14:30.27	79.89	21.87	-40.4	-43.4	14.1	3.80e-06	0	55	0	488636416	52	5090
2026-01-09 22:14:34.31	80.95	21.95	-40.5	-43.4	14.2	0.00e+00	0	56	0	495976448	52	5085
2026-01-09 22:14:38.34	82.02	22.02	-40.8	-43.9	13.7	5.30e-06	0	55	0	503316480	52	5396
2026-01-09 22:14:42.38	83.09	22.08	-40.5	-43.6	13.9	2.20e-06	0	56	0	511705088	52	5174
2026-01-09 22:14:46.41	84.17	22.13	-40.3	-43.4	13.9	7.00e-07	0	56	0	519045120	52	5072
2026-01-09 22:14:50.44	85.24	22.17	-40.6	-44.0	13.2	2.21e-05	0	56	0	526385152	52	5411
2026-01-09 22:14:54.46	86.32	22.20	-40.4	-43.5	13.8	5.30e-06	0	56	0	533725184	52	5130
2026-01-09 22:14:58.49	87.40	22.22	-40.1	-43.0	14.3	1.50e-06	0	56	0	541065216	52	4867
2026-01-09 22:15:02.51	88.49	22.23	-40.6	-43.9	13.6	1.14e-05	0	56	0	549453824	52	5354
2026-01-09 22:15:06.55	89.57	22.23	-40.7	-44.0	13.6	1.22e-05	0	56	0	556793856	52	5419
2026-01-09 22:15:10.58	90.66	22.22	-40.5	-43.5	14.1	2.20e-06	0	55	0	564133888	52	5146
2026-01-09 22:15:14.61	91.74	22.20	-40.3	-43.1	14.6	0.00e+00	0	56	0	571473920	52	4917
2026-01-09 22:15:18.65	92.82	22.16	-40.8	-43.9	13.8	1.50e-06	0	56	0	579862528	52	5402
2026-01-09 22:15:22.68	93.90	22.12	-40.6	-43.6	14.2	7.00e-07	0	56	0	587202560	52	5178
2026-01-09 22:15:26.70	94.97	22.07	-40.3	-43.2	14.6	7.00e-07	0	56	0	594542592	52	4941
2026-01-09 22:15:30.73	96.04	22.01	-40.1	-42.7	15.2	0.00e+00	0	56	0	601882624	51	4976
2026-01-09 22:15:34.75	97.11	21.93	-40.2	-42.9	15.0	0.00e+00	0	56	0	609222656	51	5055
2026-01-09 22:15:38.79	98.17	21.85	-40.0	-42.6	15.3	0.00e+00	0	56	0	617611264	51	4898
2026-01-09 22:15:42.82	99.23	21.76	-40.3	-43.1	14.8	0.00e+00	0	56	0	624951296	51	5175
2026-01-09 22:15:46.85	100.28	21.66	-40.2	-42.9	15.0	7.00e-07	0	56	0	632291328	51	5086
2026-01-09 22:15:50.89	101.32	21.55	-39.8	-42.3	15.6	0.00e+00	0	56	0	639631360	51	4745
2026-01-09 22:15:54.92	102.36	21.43	-39.3	-41.6	16.3	0.00e+00	0	56	0	646971392	50	4610
2026-01-09 22:15:58.95	103.38	21.30	-39.8	-42.3	15.6	0.00e+00	0	56	0	655360000	50	5029
2026-01-09 22:16:02.98	104.40	21.16	-39.7	-42.2	15.7	0.00e+00	0	56	0	662700032	50	4942
2026-01-09 22:16:07.01	105.41	21.02	-39.4	-41.8	16.2	0.00e+00	0	56	0	670040064	50	4714
2026-01-09 22:16:11.03	106.41	20.87	-38.9	-41.1	16.8	0.00e+00	0	56	0	677380096	49	4599
2026-01-09 22:16:15.06	107.40	20.71	-39.2	-41.4	16.5	0.00e+00	0	56	0	684720128	49	4773
2026-01-09 22:16:19.09	108.38	20.54	-39.5	-41.9	16.0	0.00e+00	0	56	0	693108736	49	5061
2026-01-09 22:16:23.11	109.35	20.37	-39.9	-42.5	15.4	0.00e+00	0	56	0	700448768	50	5140
2026-01-09 22:16:27.15	110.31	20.18	-39.6	-42.0	16.0	0.00e+00	0	56	0	707788800	50	4815
2026-01-09 22:16:31.18	111.26	20.00	-39.3	-41.6	16.3	0.00e+00	0	56	0	715128832	50	4624
2026-01-09 22:16:35.22	112.20	19.80	-39.9	-42.5	15.5	0.00e+00	0	56	0	722468864	50	5112
2026-01-09 22:16:39.25	113.12	19.60	-40.6	-43.6	14.2	1.50e-06	0	56	0	730857472	51	5510
2026-01-09 22:16:43.28	114.04	19.39	-40.6	-43.6	14.1	1.50e-06	0	56	0	738197504	52	5215
2026-01-09 22:16:47.31	114.94	19.18	-40.2	-43.0	14.7	4.50e-06	0	56	0	745537536	52	4866
2026-01-09 22:16:51.34	115.83	18.97	-40.1	-42.8	14.9	0.00e+00	0	56	0	752877568	52	4754
2026-01-09 22:16:55.36	116.70	18.75	-40.5	-43.5	14.3	1.50e-06	0	56	0	760217600	52	5125
2026-01-09 22:16:59.39	117.56	18.52	-40.6	-43.7	14.0	2.20e-06	0	56	0	768606208	52	5264
2026-01-09 22:17:03.42	118.42	18.29	-40.2	-43.0	14.8	0.00e+00	0	56	0	775946240	52	4829
2026-01-09 22:17:07.45	119.25	18.06	-40.2	-42.9	14.9	0.00e+00	0	56	0	783286272	51	5061
2026-01-09 22:17:11.48	120.08	17.82	-40.2	-43.0	14.7	7.00e-07	0	56	0	790626304	51	5146
2026-01-09 22:17:15.52	120.90	17.58	-40.2	-43.0	14.8	0.00e+00	0	56	0	797966336	51	5129
2026-01-09 22:17:19.55	121.70	17.34	-40.5	-43.5	14.2	2.20e-06	0	56	0	806354944	51	5459
2026-01-09 22:17:23.59	122.49	17.09	-40.5	-43.5	14.2	1.60e-05	0	56	0	813694976	51	5434
2026-01-09 22:17:27.63	123.27	16.84	-40.3	-43.6	14.0	3.24e-04	0	56	0	821035008	51	5471
2026-01-09 22:17:31.66	124.03	16.59	-39.9	-42.7	14.9	5.06e-04	0	56	0	828375040	50	5244
2026-01-09 22:17:35.69	124.78	16.34	-40.6	-43.7	13.8	5.11e-04	0	56	0	836763648	51	5558
2026-01-09 22:17:39.72	125.52	16.08	-40.4	-43.5	14.0	6.06e-04	0	56	0	844103680	51	5406
2026-01-09 22:17:43.75	126.25	15.83	-37.5	-42.9	10.8	1.10e-02	0	56	0	851443712	45	7147
2026-01-09 22:17:47.78	126.96	15.57	-40.5	-43.6	13.9	1.94e-03	0	56	0	858783744	51	5519
2026-01-09 22:17:51.81	127.67	15.31	-37.6	-42.8	10.8	3.98e-02	0	56	0	866123776	49	5621
2026-01-09 22:17:55.84	128.36	15.05	-39.5	-43.7	11.6	1.28e-01	2	56	0	874512384	49	6243
2026-01-09 22:17:59.86	129.04	14.79	-39.1	-43.6	10.7	4.04e-02	4	56	0	881852416	48	6533
2026-01-09 22:18:03.90	129.71	14.52	-39.7	-43.3	12.8	4.99e-02	0	56	0	889192448	50	5646
2026-01-09 22:18:07.93	130.36	14.26	-38.6	-43.9	11.4	7.87e-02	2	56	0	894435328	50	6060
2026-01-09 22:18:11.95	131.01	14.00	-37.4	-43.2	11.3	1.50e-01	11	56	0	902823936	48	6224
2026-01-09 22:18:15.99	131.64	13.73	-37.7	-43.3	10.1	3.26e-01	10	56	0	908066816	46	7072
2026-01-09 22:18:20.01	132.26	13.47	-39.6	-44.5	9.2	1.41e-01	6	56	0	909115392	47	7711
2026-01-09 22:18:24.05	132.88	13.20	-38.2	-43.5	9.8	7.13e-01	9	56	0	914358272	48	6448
2026-01-09 22:18:28.08	133.48	12.94	-33.1	-42.7	6.0	3.54e-01	6	56	0	920649728	42	8360
2026-01-09 22:18:32.11	134.07	12.67	-36.3	-44.2	9.8	5.44e-02	3	56	0	927989760	47	7407
2026-01-09 22:18:36.14	134.65	12.41	-38.6	-44.4	10.7	6.75e-02	4	56	0	933232640	49	6743
2026-01-09 22:18:40.17	135.23	12.14	-40.4	-44.4	11.2	1.00e-01	1	56	0	940572672	51	6002
2026-01-09 22:18:44.19	135.79	11.88	-34.2	-43.8	6.8	3.21e-02	4	56	0	947912704	40	10646
2026-01-09 22:18:48.23	136.34	11.61	-40.2	-44.1	12.5	1.86e-02	0	56	0	955252736	51	5796
2026-01-09 22:18:52.27	136.88	11.35	-40.4	-44.0	12.8	1.88e-02	0	56	0	962592768	50	6064
2026-01-09 22:18:56.30	137.42	11.09	-39.6	-44.1	12.6	9.54e-04	0	56	0	969932800	51	5797
2026-01-09 22:19:00.34	137.94	10.83	-40.3	-44.0	12.7	1.24e-03	0	56	0	978321408	51	5728
2026-01-09 22:19:04.37	138.46	10.56	-41.5	-47.8	8.4	4.01e-02	0	57	0	985661440	53	7937
2026-01-09 22:19:08.40	138.96	10.30	-41.8	-48.6	7.5	1.34e-01	0	56	0	993001472	54	8183
2026-01-09 22:19:12.44	139.46	10.04	-40.8	-45.1	11.1	4.08e-03	0	56	0	1000341504	53	5841
2026-01-09 22:19:16.46	139.95	9.79	-40.8	-44.7	12.0	1.26e-03	0	56	0	1007681536	53	5563
2026-01-09 22:19:20.49	140.43	9.53	-41.1	-45.2	11.8	4.79e-04	0	57	0	1016070144	53	5878
2026-01-09 22:19:24.52	140.90	9.27	-41.3	-45.6	11.3	1.20e-03	0	56	0	1023410176	53	6188
2026-01-09 22:19:28.55	141.37	9.01	-41.5	-46.2	10.7	2.20e-03	0	56	0	1030750208	53	6579
2026-01-09 22:19:32.57	141.82	8.76	-41.7	-46.5	10.4	3.73e-03	0	56	0	1038090240	53	6853
2026-01-09 22:19:36.60	142.27	8.51	-41.7	-46.7	10.1	5.31e-03	0	57	0	1045430272	53	6992
2026-01-09 22:19:40.63	142.71	8.25	-41.5	-46.3	10.5	4.35e-03	0	56	0	1053818880	53	6723
2026-01-09 22:19:44.66	143.15	8.00	-43.6	-54.9	4.4	1.73e-01	37	57	0	1061158912	57	14241
2026-01-09 22:19:48.69	143.58	7.75	-44.9	-59.6	3.8	1.49e+00	0	56	104	1061158912	60	20711
2026-01-09 22:19:52.73	144.00	7.50	-45.2	-59.9	3.8	1.49e+00	0	56	104	1061158912	60	21375
2026-01-09 22:19:56.76	144.41	7.25	-45.0	-59.6	3.8	1.49e+00	0	56	104	1061158912	60	20611
2026-01-09 22:20:00.79	144.82	7.01	-44.9	-59.5	3.8	1.49e+00	0	57	104	1061158912	60	20352
2026-01-09 22:20:04.83	145.22	6.76	-44.9	-59.4	3.8	1.49e+00	0	57	104	1061158912	60	20240
2026-01-09 22:20:08.85	145.61	6.52	-44.9	-59.4	3.8	1.49e+00	0	56	104	1061158912	60	20266
2026-01-09 22:20:12.88	146.00	6.27	-44.9	-59.4	3.8	1.49e+00	0	56	104	1061158912	60	20251
2026-01-09 22:20:16.92	146.38	6.03	-44.9	-59.4	3.8	1.49e+00	0	57	104	1061158912	60	20236
2026-01-09 22:20:20.95	146.76	5.79	-44.8	-59.4	3.8	1.49e+00	0	57	104	1061158912	60	20170
2026-01-09 22:20:24.98	147.13	5.55	-44.8	-59.4	3.8	1.49e+00	0	57	104	1061158912	60	20149
2026-01-09 22:20:29.02	147.49	5.31	-44.8	-59.4	3.8	1.49e+00	0	57	104	1061158912	60	20247
2026-01-09 22:20:33.06	147.85	5.07	-44.8	-59.4	3.8	1.49e+00	0	57	104	1061158912	60	20212
2026-01-09 22:20:37.09	148.20	4.84	-44.8	-59.4	3.8	1.49e+00	0	57	104	1061158912	60	20259
2026-01-09 22:20:41.12	148.55	4.60	-44.8	-59.4	3.8	1.49e+00	0	57	104	1061158912	60	20239
2026-01-09 22:20:45.15	148.89	4.37	-44.8	-59.4	3.8	1.49e+00	0	57	104	1061158912	60	20174
2026-01-09 22:20:49.18	149.23	4.13	-44.8	-59.4	3.8	1.49e+00	0	57	104	1061158912	60	20260
2026-01-09 22:20:53.22	149.56	3.90	-44.8	-59.4	3.8	1.49e+00	0	57	104	1061158912	60	20108
2026-01-09 22:20:57.25	149.88	3.67	-44.8	-59.4	3.8	1.49e+00	0	57	104	1061158912	60	20135
2026-01-09 22:21:01.28	150.21	3.44	-44.8	-59.4	3.8	1.49e+00	0	57	104	1061158912	60	20159
2026-01-09 22:21:05.32	150.52	3.21	-44.8	-59.4	3.8	1.49e+00	0	57	104	1061158912	60	20166
2026-01-09 22:21:09.35	150.84	2.99	-44.8	-59.4	3.8	1.49e+00	0	57	104	1061158912	60	20133
2026-01-09 22:21:13.38	151.14	2.76	-44.8	-59.4	3.8	1.49e+00	0	57	104	1061158912	60	20133
2026-01-09 22:21:17.42	151.45	2.54	-44.8	-59.4	3.8	1.49e+00	0	57	104	1061158912	60	20126
2026-01-09 22:21:21.46	151.75	2.31	-44.8	-59.4	3.8	1.49e+00	0	57	104	1061158912	60	20161
2026-01-09 22:21:25.50	152.04	2.09	-44.8	-59.4	3.8	1.49e+00	0	57	104	1061158912	60	20238
2026-01-09 22:21:29.53	152.33	1.87	-44.8	-59.4	3.8	1.49e+00	0	57	104	1061158912	60	20190

#Closed at: 2026-01-09 22:21:29
#Recorded file [1061 MB]: D:/lorett/data/31039_260110_010839.dat