passes_logs/2026/01/09/R2.0S_Moscow/R2.0S_Moscow__20260109_015424_FENGYUN_3G_rec.log

#Pass ID: 20260109_015424_FENGYUN 3G
#Satellite: FENGYUN 3G
#Configuration: FENGYUN 3G
#almurnet v.1.7.20251203
#Start time: 2026-01-09 02:02:41

#Version: 2.2.20231116
#Station: R2.0S_Moscow
#Location: 37.707566 lon 55.798166 lat
#TLE: 1 56232U 23055A   26008.48762740  .00031983  00000+0  50485-3 0  9995
#TLE: 2 56232  49.9936  89.5247 0004286 357.0620   3.0321 15.53163078155186

#Time	Az	El	Level	Level2	SNR	BER	BlckErr	Temp	State	Recorded	gain1	gain2
2026-01-09 02:02:41.47	112.43	6.22	-45.7	-64.4	3.8	7.48e-01	0	56	0	0	62	32172
2026-01-09 02:02:42.48	112.34	6.14	-44.8	-63.1	3.8	8.44e-01	0	57	104	0	61	29098
2026-01-09 02:02:43.49	112.25	6.06	-44.8	-63.1	3.8	8.46e-01	0	56	104	0	61	29095
2026-01-09 02:02:44.50	112.15	5.98	-44.8	-63.1	3.8	8.46e-01	0	57	104	0	61	29145
2026-01-09 02:02:45.51	112.07	5.90	-44.8	-63.1	3.8	8.46e-01	0	56	104	0	61	29061
2026-01-09 02:02:46.52	111.98	5.82	-44.8	-63.0	3.8	8.47e-01	0	56	104	0	61	29006
2026-01-09 02:02:47.53	111.89	5.74	-44.8	-63.1	3.8	8.45e-01	0	56	104	0	61	29140
2026-01-09 02:02:48.55	111.80	5.66	-44.8	-63.1	3.8	8.45e-01	0	57	104	0	61	29020
2026-01-09 02:02:49.56	111.71	5.58	-44.8	-63.1	3.8	8.47e-01	0	57	104	0	61	29061
2026-01-09 02:02:50.57	111.63	5.50	-44.8	-63.1	3.8	8.47e-01	0	57	104	0	61	29106
2026-01-09 02:02:51.58	111.54	5.43	-44.8	-63.1	3.8	8.47e-01	0	56	104	0	61	29098
2026-01-09 02:02:52.59	111.46	5.35	-44.8	-63.1	3.8	8.46e-01	0	57	104	0	61	29101
2026-01-09 02:02:53.60	111.37	5.27	-44.8	-63.1	3.8	8.46e-01	0	57	104	0	61	29054
2026-01-09 02:02:54.61	111.29	5.19	-44.8	-63.1	3.8	8.46e-01	0	57	104	0	61	29098
2026-01-09 02:02:55.62	111.21	5.12	-44.8	-63.1	3.8	8.47e-01	0	57	104	0	61	29077
2026-01-09 02:02:56.63	111.13	5.04	-44.8	-63.1	3.8	8.46e-01	0	57	104	0	61	29048
2026-01-09 02:02:57.64	111.04	4.96	-44.8	-63.1	3.8	8.46e-01	0	56	104	0	61	29027
2026-01-09 02:02:58.65	110.96	4.89	-44.8	-63.1	3.8	8.46e-01	0	56	104	0	61	29130
2026-01-09 02:02:59.66	110.88	4.81	-44.8	-63.1	3.8	8.46e-01	0	56	104	0	61	29076
2026-01-09 02:03:00.67	110.80	4.74	-44.8	-63.1	3.8	8.46e-01	0	57	104	0	61	29124
2026-01-09 02:03:01.68	110.72	4.66	-44.8	-63.1	3.8	8.46e-01	0	56	104	0	61	29121
2026-01-09 02:03:02.69	110.65	4.59	-44.8	-63.1	3.8	8.46e-01	0	57	104	0	61	29103
2026-01-09 02:03:03.70	110.57	4.51	-44.8	-63.1	3.8	8.46e-01	0	56	104	0	61	29073
2026-01-09 02:03:04.71	110.49	4.44	-44.8	-63.1	3.8	8.46e-01	0	57	104	0	61	29122
2026-01-09 02:03:05.73	110.41	4.36	-44.8	-63.1	3.8	8.46e-01	0	56	104	0	61	29113
2026-01-09 02:03:06.74	110.34	4.29	-44.8	-63.1	3.8	8.46e-01	0	56	104	0	61	29029
2026-01-09 02:03:07.75	110.26	4.22	-44.8	-63.1	3.8	8.46e-01	0	56	104	0	61	29049
2026-01-09 02:03:08.75	110.19	4.14	-44.8	-63.1	3.8	8.46e-01	0	56	104	0	61	29152
2026-01-09 02:03:09.77	110.11	4.07	-44.8	-63.1	3.8	8.46e-01	0	56	104	0	61	29052
2026-01-09 02:03:10.78	110.04	4.00	-44.8	-63.1	3.8	8.46e-01	0	57	104	0	61	29118
2026-01-09 02:03:11.79	109.96	3.92	-44.8	-63.1	3.8	8.46e-01	0	56	104	0	61	29099
2026-01-09 02:03:12.80	109.89	3.85	-44.8	-63.0	3.8	8.46e-01	0	57	104	0	61	29008
2026-01-09 02:03:13.81	109.82	3.78	-44.8	-63.0	3.8	8.46e-01	0	56	104	0	61	28996
2026-01-09 02:03:14.82	109.75	3.71	-44.8	-63.1	3.8	8.46e-01	0	56	104	0	61	29060
2026-01-09 02:03:15.83	109.68	3.64	-44.8	-63.1	3.8	8.47e-01	0	56	104	0	61	29083
2026-01-09 02:03:16.84	109.60	3.57	-44.8	-63.1	3.8	8.46e-01	0	57	104	0	61	29050
2026-01-09 02:03:17.85	109.53	3.49	-44.8	-63.1	3.8	8.46e-01	0	56	104	0	61	29084
2026-01-09 02:03:18.86	109.46	3.42	-44.8	-63.0	3.8	8.46e-01	0	57	104	0	61	28972
2026-01-09 02:03:19.87	109.40	3.35	-44.8	-63.1	3.8	8.46e-01	0	56	104	0	61	29031
2026-01-09 02:03:20.88	109.33	3.28	-44.8	-63.1	3.8	8.46e-01	0	57	104	0	61	29028
2026-01-09 02:03:21.89	109.26	3.21	-44.8	-63.1	3.8	8.46e-01	0	56	104	0	61	29065
2026-01-09 02:03:22.90	109.19	3.14	-44.8	-63.0	3.8	8.45e-01	0	57	104	0	61	28967
2026-01-09 02:03:23.91	109.12	3.07	-44.8	-63.1	3.8	8.46e-01	0	56	104	0	61	29043
2026-01-09 02:03:24.92	109.06	3.00	-44.8	-63.1	3.8	8.46e-01	0	56	104	0	61	29089
2026-01-09 02:03:25.93	108.99	2.94	-44.8	-63.1	3.8	8.45e-01	0	57	104	0	61	29111
2026-01-09 02:03:26.94	108.92	2.87	-44.8	-63.1	3.8	8.46e-01	0	56	104	0	61	29012
2026-01-09 02:03:27.95	108.86	2.80	-44.8	-63.1	3.8	8.46e-01	0	56	104	0	61	29019
2026-01-09 02:03:28.96	108.79	2.73	-44.8	-63.1	3.8	8.46e-01	0	56	104	0	61	29042
2026-01-09 02:03:29.97	108.73	2.66	-44.8	-63.1	3.8	8.47e-01	0	56	104	0	61	29079
2026-01-09 02:03:30.98	108.66	2.59	-44.8	-63.1	3.8	8.47e-01	0	56	104	0	61	29019
2026-01-09 02:03:31.99	108.60	2.53	-44.8	-63.0	3.8	8.47e-01	0	56	104	0	61	28978
2026-01-09 02:03:33.00	108.54	2.46	-44.8	-63.0	3.8	8.45e-01	0	56	104	0	61	29008
2026-01-09 02:03:34.01	108.47	2.39	-44.8	-63.1	3.8	8.46e-01	0	56	104	0	61	29098
2026-01-09 02:03:35.02	108.41	2.32	-44.8	-63.0	3.8	8.46e-01	0	57	104	0	61	28988
2026-01-09 02:03:36.03	108.35	2.26	-44.8	-63.1	3.8	8.46e-01	0	56	104	0	61	29059
2026-01-09 02:03:37.04	108.29	2.19	-44.8	-63.1	3.8	8.46e-01	0	56	104	0	61	29036
2026-01-09 02:03:38.05	108.23	2.12	-44.8	-63.1	3.8	8.46e-01	0	56	104	0	61	29058
2026-01-09 02:03:39.06	108.17	2.06	-44.8	-63.1	3.8	8.47e-01	0	56	104	0	61	29016
2026-01-09 02:03:40.07	108.10	1.99	-44.8	-63.0	3.8	8.46e-01	0	56	104	0	61	28980
2026-01-09 02:03:41.08	108.04	1.93	-44.8	-63.1	3.8	8.46e-01	0	56	104	0	61	29070

#Closed at: 2026-01-09 02:03:41
#Recorded file [0 MB]: D:/lorett/data/31039_260109_050241.dat