passes_logs/2026/01/09/R2.0S_Moscow/R2.0S_Moscow__20260109_103826_FENGYUN_3D_rec.log

#Pass ID: 20260109_103826_FENGYUN 3D
#Satellite: FENGYUN 3D
#Configuration: FENGYUN 3D
#almurnet v.1.7.20251203
#Start time: 2026-01-09 10:38:26

#Version: 2.2.20231116
#Station: R2.0S_Moscow
#Location: 37.707566 lon 55.798166 lat
#TLE: 1 43010U 17072A   26008.51967461  .00000013  00000+0  27718-4 0  9992
#TLE: 2 43010  98.9935 340.2353 0002115 119.1573 240.9815 14.19693759422336

#Time	Az	El	Level	Level2	SNR	BER	BlckErr	Temp	State	Recorded	gain1	gain2
2026-01-09 10:38:26.11	122.15	2.01	-16.3	-30.8	4.0	8.32e-01	0	47	0	0	9	14154
2026-01-09 10:38:30.15	121.93	2.25	-19.8	-33.7	4.1	8.29e-01	0	47	104	0	11	17530
2026-01-09 10:38:34.19	121.71	2.49	-20.8	-35.1	3.7	8.16e-01	0	47	104	0	11	20651
2026-01-09 10:38:38.23	121.49	2.73	-19.0	-31.2	3.9	8.29e-01	0	48	104	0	10	14033
2026-01-09 10:38:42.27	121.26	2.98	-17.1	-29.8	3.9	8.21e-01	0	48	104	0	6	14921
2026-01-09 10:38:46.32	121.03	3.23	-19.3	-31.8	4.0	8.30e-01	0	49	104	0	7	17826
2026-01-09 10:38:50.36	120.80	3.48	-17.7	-31.2	4.1	8.18e-01	0	49	104	0	9	14790
2026-01-09 10:38:54.40	120.56	3.73	-16.0	-24.6	3.8	8.21e-01	0	49	0	0	6	8199
2026-01-09 10:38:58.45	120.32	3.98	-21.0	-33.8	3.6	8.08e-01	0	49	104	0	8	21202
2026-01-09 10:39:02.48	120.07	4.24	-19.6	-32.6	4.2	7.99e-01	0	49	104	0	11	15473
2026-01-09 10:39:06.53	119.82	4.50	-18.1	-29.6	4.1	8.07e-01	0	50	104	0	14	9241
2026-01-09 10:39:10.57	119.56	4.75	-17.9	-28.7	3.6	8.19e-01	0	50	0	0	6	13236
2026-01-09 10:39:14.61	119.30	5.02	-19.5	-31.4	3.9	8.22e-01	0	50	104	0	7	16897
2026-01-09 10:39:18.65	119.03	5.28	-20.8	-33.8	3.9	8.06e-01	0	50	104	0	14	14990
2026-01-09 10:39:22.70	118.76	5.54	-21.2	-34.9	4.1	8.14e-01	0	51	104	0	14	17016
2026-01-09 10:39:26.74	118.48	5.81	-19.3	-31.3	4.0	8.11e-01	0	51	104	0	11	13373
2026-01-09 10:39:30.78	118.20	6.08	-18.4	-31.3	3.9	8.17e-01	0	51	104	0	10	14083
2026-01-09 10:39:34.83	117.91	6.35	-21.7	-35.5	4.1	8.21e-01	0	51	104	0	13	19262
2026-01-09 10:39:38.87	117.62	6.63	-20.4	-32.6	3.8	8.23e-01	0	52	104	0	11	15525
2026-01-09 10:39:42.91	117.32	6.90	-20.1	-32.3	3.7	8.20e-01	0	52	104	0	8	17874
2026-01-09 10:39:46.95	117.02	7.18	-21.2	-33.8	3.7	8.23e-01	0	52	104	0	10	18783
2026-01-09 10:39:50.99	116.71	7.46	-20.6	-33.1	3.9	8.21e-01	0	52	104	0	8	19498
2026-01-09 10:39:55.03	116.39	7.74	-18.3	-27.6	3.7	8.19e-01	0	52	104	0	8	10325
2026-01-09 10:39:59.08	116.06	8.03	-17.2	-30.7	4.3	8.29e-01	0	52	104	0	8	14877
2026-01-09 10:40:03.12	115.73	8.31	-23.5	-36.8	4.2	8.21e-01	0	52	0	0	17	17852
2026-01-09 10:40:07.16	115.40	8.60	-21.6	-34.6	4.6	8.29e-01	0	53	104	0	15	15402
2026-01-09 10:40:11.19	115.06	8.89	-19.3	-31.6	4.4	8.29e-01	0	52	104	0	15	10936
2026-01-09 10:40:15.23	114.70	9.19	-22.2	-34.7	4.4	8.26e-01	0	53	104	0	16	14863
2026-01-09 10:40:19.27	114.35	9.49	-23.0	-34.1	4.6	8.26e-01	0	53	104	0	18	12315
2026-01-09 10:40:23.31	113.98	9.78	-24.0	-35.1	4.0	8.24e-01	0	53	104	0	17	14578
2026-01-09 10:40:27.34	113.61	10.09	-25.4	-36.3	4.0	8.28e-01	0	53	104	0	20	14055
2026-01-09 10:40:31.38	113.23	10.39	-28.4	-37.0	7.6	5.79e-01	0	53	0	0	29	9151
2026-01-09 10:40:35.42	112.84	10.70	-30.6	-37.7	9.2	4.78e-01	0	53	0	5242880	32	8273
2026-01-09 10:40:39.45	112.44	11.00	-23.4	-36.3	9.1	3.46e-01	0	53	0	19922944	25	10641
2026-01-09 10:40:43.49	112.03	11.32	-28.8	-37.2	8.8	9.81e-02	0	54	0	38797312	32	7851
2026-01-09 10:40:47.53	111.62	11.63	-34.2	-38.1	13.7	3.75e-02	0	54	0	60817408	39	5814
2026-01-09 10:40:51.57	111.19	11.95	-34.9	-37.7	15.1	7.55e-02	0	54	0	82837504	40	5243
2026-01-09 10:40:55.61	110.76	12.27	-35.5	-37.6	15.6	4.35e-03	0	54	0	104857600	41	4895
2026-01-09 10:40:59.65	110.31	12.59	-35.9	-37.7	16.1	1.19e-04	0	54	0	127926272	42	4666
2026-01-09 10:41:03.69	109.86	12.91	-35.3	-37.3	16.5	4.50e-06	0	54	0	150994944	42	4449
2026-01-09 10:41:07.73	109.39	13.24	-35.5	-37.1	16.7	1.10e-06	0	54	0	173015040	42	4366
2026-01-09 10:41:11.76	108.92	13.57	-35.4	-37.1	16.7	4.80e-05	0	54	0	196083712	41	4619
2026-01-09 10:41:15.80	108.43	13.90	-35.4	-37.0	16.8	3.20e-05	0	54	0	218103808	41	4588
2026-01-09 10:41:19.84	107.93	14.24	-35.2	-36.8	17.1	1.10e-06	0	54	0	241172480	41	4467
2026-01-09 10:41:23.88	107.43	14.57	-35.1	-36.7	17.2	9.10e-06	0	54	0	264241152	41	4416
2026-01-09 10:41:27.91	106.91	14.91	-35.0	-36.5	17.4	3.40e-06	0	54	0	286261248	41	4317
2026-01-09 10:41:31.95	106.37	15.25	-34.8	-36.3	17.6	0.00e+00	0	55	0	309329920	41	4228
2026-01-09 10:41:35.98	105.83	15.59	-34.8	-36.3	17.5	0.00e+00	0	55	0	332398592	41	4230
2026-01-09 10:41:40.03	105.27	15.94	-34.7	-36.3	17.7	0.00e+00	0	55	0	355467264	41	4204
2026-01-09 10:41:44.06	104.70	16.29	-34.6	-36.1	17.8	0.00e+00	0	55	0	377487360	41	4141
2026-01-09 10:41:48.10	104.11	16.64	-34.6	-36.1	18.0	0.00e+00	0	55	0	400556032	41	4101
2026-01-09 10:41:52.14	103.51	16.99	-34.6	-36.0	18.0	0.00e+00	0	55	0	422576128	41	4098
2026-01-09 10:41:56.18	102.90	17.34	-34.5	-36.0	17.9	0.00e+00	0	55	0	445644800	40	4304
2026-01-09 10:42:00.22	102.27	17.70	-34.3	-35.7	18.3	0.00e+00	0	55	0	468713472	40	4163
2026-01-09 10:42:04.26	101.62	18.06	-34.2	-35.6	18.5	0.00e+00	0	55	0	490733568	40	4107
2026-01-09 10:42:08.29	100.97	18.41	-34.3	-35.7	18.4	0.00e+00	0	55	0	513802240	40	4156
2026-01-09 10:42:12.33	100.29	18.77	-34.1	-35.5	18.5	0.00e+00	0	55	0	536870912	40	4087
2026-01-09 10:42:16.37	99.60	19.13	-33.9	-35.3	18.9	0.00e+00	0	55	0	559939584	39	4203
2026-01-09 10:42:20.41	98.89	19.50	-34.1	-35.5	18.6	0.00e+00	0	55	0	581959680	39	4326
2026-01-09 10:42:24.44	98.17	19.86	-34.1	-35.5	18.6	0.00e+00	0	55	0	605028352	39	4335
2026-01-09 10:42:28.49	97.42	20.22	-34.1	-35.5	18.7	0.00e+00	0	55	0	627048448	39	4305
2026-01-09 10:42:32.53	96.66	20.58	-34.1	-35.5	18.7	0.00e+00	0	55	0	650117120	39	4303
2026-01-09 10:42:36.56	95.88	20.94	-34.0	-35.4	18.7	0.00e+00	0	55	0	673185792	39	4280
2026-01-09 10:42:40.60	95.09	21.30	-33.8	-35.1	19.0	0.00e+00	0	56	0	695205888	39	4123
2026-01-09 10:42:44.64	94.27	21.66	-33.6	-35.0	19.1	0.00e+00	0	55	0	718274560	39	4067
2026-01-09 10:42:48.68	93.43	22.02	-33.5	-34.9	19.1	0.00e+00	0	56	0	741343232	39	4014
2026-01-09 10:42:52.71	92.58	22.38	-33.5	-34.8	19.2	0.00e+00	0	56	0	764411904	38	4212
2026-01-09 10:42:56.75	91.70	22.74	-33.5	-34.9	19.1	0.00e+00	0	56	0	786432000	38	4257
2026-01-09 10:43:00.79	90.81	23.09	-33.6	-35.0	19.0	0.00e+00	0	55	0	809500672	38	4305
2026-01-09 10:43:04.83	89.89	23.44	-33.4	-34.7	19.2	0.00e+00	0	56	0	831520768	38	4185
2026-01-09 10:43:08.87	88.95	23.79	-33.4	-34.8	19.2	0.00e+00	0	56	0	854589440	38	4210
2026-01-09 10:43:12.91	88.00	24.13	-33.6	-34.9	19.1	0.00e+00	0	56	0	877658112	38	4283
2026-01-09 10:43:16.94	87.02	24.47	-33.3	-34.7	19.4	0.00e+00	0	56	0	899678208	38	4155
2026-01-09 10:43:20.98	86.02	24.80	-33.3	-34.6	19.5	0.00e+00	0	56	0	922746880	38	4100
2026-01-09 10:43:25.02	85.00	25.13	-33.2	-34.5	19.5	0.00e+00	0	56	0	945815552	38	4078
2026-01-09 10:43:29.06	83.95	25.45	-33.1	-34.4	19.7	0.00e+00	0	56	0	967835648	38	4014
2026-01-09 10:43:33.10	82.89	25.76	-33.1	-34.4	19.7	0.00e+00	0	56	0	990904320	38	4032
2026-01-09 10:43:37.14	81.80	26.07	-33.0	-34.3	19.7	0.00e+00	0	56	0	1013972992	38	3990
2026-01-09 10:43:41.18	80.70	26.37	-33.0	-34.3	19.7	0.00e+00	0	56	0	1035993088	38	3995
2026-01-09 10:43:45.22	79.57	26.66	-33.3	-34.6	19.5	0.00e+00	0	56	0	1059061760	38	4124
2026-01-09 10:43:49.25	78.42	26.94	-32.9	-34.2	19.9	0.00e+00	0	56	0	1082130432	37	4160
2026-01-09 10:43:53.29	77.25	27.21	-32.9	-34.2	19.9	0.00e+00	0	56	0	1104150528	37	4177
2026-01-09 10:43:57.33	76.07	27.47	-32.7	-33.9	20.1	0.00e+00	0	56	0	1127219200	37	4049
2026-01-09 10:44:01.36	74.86	27.72	-32.7	-34.0	20.1	0.00e+00	0	56	0	1150287872	37	4062
2026-01-09 10:44:05.40	73.64	27.96	-32.6	-33.8	20.3	0.00e+00	0	56	0	1172307968	37	3994
2026-01-09 10:44:09.44	72.39	28.18	-32.6	-33.9	20.3	0.00e+00	0	56	0	1195376640	37	4020
2026-01-09 10:44:13.48	71.13	28.39	-32.4	-33.6	20.6	0.00e+00	0	56	0	1218445312	36	4109
2026-01-09 10:44:17.52	69.86	28.59	-32.5	-33.8	20.4	0.00e+00	0	56	0	1240465408	36	4197
2026-01-09 10:44:21.56	68.57	28.77	-32.4	-33.6	20.6	0.00e+00	0	56	0	1263534080	36	4106
2026-01-09 10:44:25.60	67.26	28.93	-32.3	-33.5	20.6	0.00e+00	0	56	0	1286602752	36	4084
2026-01-09 10:44:29.64	65.94	29.08	-32.6	-33.8	20.4	0.00e+00	0	56	0	1308622848	36	4220
2026-01-09 10:44:33.67	64.62	29.22	-32.2	-33.4	20.7	0.00e+00	0	56	0	1331691520	36	4033
2026-01-09 10:44:37.71	63.28	29.33	-32.3	-33.5	20.7	0.00e+00	0	56	0	1354760192	36	4089
2026-01-09 10:44:41.75	61.93	29.43	-32.1	-33.3	20.9	0.00e+00	0	56	0	1376780288	36	3971
2026-01-09 10:44:45.78	60.58	29.52	-32.3	-33.6	20.6	0.00e+00	0	56	0	1399848960	36	4111
2026-01-09 10:44:49.82	59.21	29.58	-32.2	-33.4	20.8	0.00e+00	0	56	0	1422917632	36	4038
2026-01-09 10:44:53.86	57.85	29.63	-31.3	-32.5	20.9	0.00e+00	0	56	0	1444937728	34	4086
2026-01-09 10:44:57.90	56.48	29.65	-31.4	-32.6	20.8	0.00e+00	0	56	0	1468006400	34	4122
2026-01-09 10:45:01.94	55.10	29.66	-31.6	-32.8	20.6	0.00e+00	0	56	0	1491075072	34	4211
2026-01-09 10:45:05.98	53.73	29.66	-31.5	-32.7	20.7	0.00e+00	0	56	0	1513095168	34	4167
2026-01-09 10:45:10.02	52.36	29.63	-31.6	-32.8	20.6	0.00e+00	0	56	0	1536163840	34	4214
2026-01-09 10:45:14.06	50.99	29.58	-31.7	-33.0	20.5	0.00e+00	0	56	0	1559232512	34	4298
2026-01-09 10:45:18.09	49.64	29.52	-31.6	-32.9	20.5	0.00e+00	0	56	0	1581252608	34	4249
2026-01-09 10:45:22.13	48.28	29.44	-31.4	-32.6	20.8	0.00e+00	0	56	0	1604321280	34	4127
2026-01-09 10:45:26.17	46.93	29.34	-31.6	-32.8	20.6	0.00e+00	0	56	0	1627389952	34	4240
2026-01-09 10:45:30.20	45.60	29.22	-31.8	-33.0	20.4	0.00e+00	0	56	0	1649410048	34	4337
2026-01-09 10:45:34.24	44.27	29.09	-32.1	-33.2	21.0	0.00e+00	0	56	0	1672478720	34	4417
2026-01-09 10:45:38.28	42.95	28.94	-32.1	-33.2	21.0	0.00e+00	0	56	0	1695547392	34	4405
2026-01-09 10:45:42.32	41.65	28.78	-32.3	-33.4	20.8	0.00e+00	0	56	0	1717567488	35	4255
2026-01-09 10:45:46.36	40.36	28.60	-32.1	-33.2	20.9	0.00e+00	0	56	0	1740636160	35	4170
2026-01-09 10:45:50.40	39.08	28.40	-31.8	-32.9	21.2	0.00e+00	0	56	0	1763704832	35	4024
2026-01-09 10:45:54.44	37.82	28.19	-32.2	-33.2	20.9	0.00e+00	0	56	0	1785724928	35	4191
2026-01-09 10:45:58.48	36.58	27.97	-32.1	-33.2	21.0	0.00e+00	0	56	0	1808793600	35	4155
2026-01-09 10:46:02.51	35.36	27.74	-31.9	-33.0	21.1	0.00e+00	0	56	0	1830813696	35	4083
2026-01-09 10:46:06.55	34.16	27.49	-32.0	-33.1	21.1	0.00e+00	0	56	0	1853882368	35	4100
2026-01-09 10:46:10.59	32.97	27.23	-32.2	-33.3	20.9	0.00e+00	0	56	0	1876951040	35	4205
2026-01-09 10:46:14.63	31.81	26.96	-32.0	-33.1	21.0	0.00e+00	0	56	0	1900019712	35	4108
2026-01-09 10:46:18.67	30.66	26.68	-32.3	-33.4	20.8	0.00e+00	0	56	0	1922039808	35	4253
2026-01-09 10:46:22.71	29.54	26.39	-32.4	-33.4	20.7	0.00e+00	0	56	0	1945108480	35	4289
2026-01-09 10:46:26.75	28.43	26.09	-32.5	-33.6	20.5	0.00e+00	0	56	0	1968177152	35	4366
2026-01-09 10:46:30.79	27.35	25.79	-32.1	-33.2	20.9	0.00e+00	0	56	0	1990197248	35	4146
2026-01-09 10:46:34.83	26.29	25.48	-32.5	-33.6	20.5	0.00e+00	0	56	0	2013265920	35	4367
2026-01-09 10:46:38.87	25.25	25.16	-32.3	-33.3	20.8	0.00e+00	0	57	0	2036334592	35	4236
2026-01-09 10:46:42.90	24.23	24.83	-32.4	-33.5	20.6	0.00e+00	0	56	0	2058354688	35	4320
2026-01-09 10:46:46.94	23.23	24.50	-32.5	-33.6	20.4	0.00e+00	0	56	0	2081423360	35	4384
2026-01-09 10:46:50.98	22.25	24.16	-32.4	-33.6	20.5	0.00e+00	0	56	0	2104492032	35	4341
2026-01-09 10:46:55.01	21.30	23.82	-32.7	-33.8	20.2	0.00e+00	0	57	0	2126512128	35	4483
2026-01-09 10:46:59.05	20.37	23.48	-33.3	-34.5	20.3	0.00e+00	0	56	0	2149580800	37	4297
2026-01-09 10:47:03.09	19.45	23.13	-33.7	-34.8	19.9	0.00e+00	0	56	0	2172649472	37	4474
2026-01-09 10:47:07.13	18.56	22.77	-33.6	-34.7	20.1	0.00e+00	0	56	0	2194669568	37	4411
2026-01-09 10:47:11.17	17.69	22.42	-33.6	-34.8	20.0	0.00e+00	0	56	0	2217738240	37	4460
2026-01-09 10:47:15.21	16.83	22.06	-33.7	-34.9	19.9	0.00e+00	0	56	0	2239758336	38	4264
2026-01-09 10:47:19.25	16.00	21.71	-33.7	-34.8	19.9	0.00e+00	0	56	0	2262827008	38	4214
2026-01-09 10:47:23.29	15.19	21.35	-33.7	-34.9	19.9	0.00e+00	0	57	0	2285895680	38	4261
2026-01-09 10:47:27.33	14.39	20.99	-33.7	-34.9	19.8	0.00e+00	0	56	0	2308964352	38	4265
2026-01-09 10:47:31.37	13.61	20.63	-33.8	-35.0	19.7	0.00e+00	0	57	0	2330984448	38	4320
2026-01-09 10:47:35.40	12.86	20.27	-33.8	-34.9	19.8	0.00e+00	0	57	0	2354053120	38	4288
2026-01-09 10:47:39.44	12.12	19.91	-33.9	-35.0	19.7	0.00e+00	0	57	0	2377121792	38	4330
2026-01-09 10:47:43.47	11.40	19.55	-33.9	-35.0	19.7	0.00e+00	0	57	0	2399141888	38	4332
2026-01-09 10:47:47.51	10.69	19.19	-34.2	-35.4	19.3	0.00e+00	0	57	0	2422210560	38	4536
2026-01-09 10:47:51.55	10.00	18.83	-34.3	-35.6	19.1	0.00e+00	0	56	0	2444230656	39	4350
2026-01-09 10:47:55.58	9.33	18.47	-34.3	-35.5	19.1	0.00e+00	0	57	0	2467299328	39	4337
2026-01-09 10:47:59.62	8.67	18.11	-34.5	-35.7	18.9	0.00e+00	0	57	0	2490368000	39	4435
2026-01-09 10:48:03.66	8.03	17.76	-34.5	-35.8	18.8	0.00e+00	0	56	0	2512388096	39	4455
2026-01-09 10:48:07.69	7.41	17.41	-34.7	-36.0	18.6	0.00e+00	0	57	0	2535456768	39	4560
2026-01-09 10:48:11.73	6.80	17.05	-34.6	-35.9	18.6	0.00e+00	0	57	0	2558525440	39	4503
2026-01-09 10:48:15.77	6.20	16.70	-34.6	-35.9	18.6	0.00e+00	0	57	0	2581594112	39	4514
2026-01-09 10:48:19.81	5.62	16.35	-34.9	-36.2	18.2	0.00e+00	0	57	0	2603614208	40	4421
2026-01-09 10:48:23.85	5.05	16.01	-34.8	-36.1	18.2	0.00e+00	0	56	0	2626682880	40	4373
2026-01-09 10:48:27.89	4.49	15.66	-35.1	-36.4	17.8	0.00e+00	0	57	0	2648702976	40	4541
2026-01-09 10:48:31.93	3.95	15.32	-35.2	-36.7	17.5	0.00e+00	0	57	0	2671771648	41	4393
2026-01-09 10:48:35.97	3.42	14.98	-35.2	-36.6	17.5	0.00e+00	0	57	0	2694840320	41	4368
2026-01-09 10:48:40.01	2.90	14.64	-35.2	-36.6	17.3	0.00e+00	0	57	0	2716860416	41	4382
2026-01-09 10:48:44.05	2.40	14.30	-35.4	-36.9	17.0	0.00e+00	0	57	0	2739929088	41	4503
2026-01-09 10:48:48.09	1.90	13.97	-35.0	-36.5	17.1	0.00e+00	0	56	0	2762997760	41	4331
2026-01-09 10:48:52.12	1.42	13.64	-36.1	-37.9	15.2	0.00e+00	0	57	0	2786066432	42	4790
2026-01-09 10:48:56.16	0.95	13.31	-38.4	-41.5	10.9	1.62e-03	0	57	0	2808086528	47	5418
2026-01-09 10:49:00.19	0.49	12.99	-39.3	-44.4	7.1	1.45e-01	0	57	0	2831155200	49	6729
2026-01-09 10:49:04.24	0.04	12.66	-39.9	-49.6	3.9	8.43e-01	0	57	104	2839543808	50	11571
2026-01-09 10:49:08.27	359.60	12.34	-39.8	-51.1	3.8	8.45e-01	0	57	104	2839543808	50	13863
2026-01-09 10:49:12.31	359.17	12.02	-39.6	-51.4	3.8	8.46e-01	0	57	104	2839543808	50	14361
2026-01-09 10:49:16.35	358.74	11.71	-39.4	-51.3	3.8	8.47e-01	0	57	104	2839543808	50	14078
2026-01-09 10:49:20.38	358.33	11.40	-39.4	-51.3	3.8	8.46e-01	0	57	104	2839543808	50	14141
2026-01-09 10:49:24.42	357.93	11.09	-38.9	-51.2	3.8	8.46e-01	0	57	104	2839543808	48	15607
2026-01-09 10:49:28.46	357.53	10.78	-38.9	-51.2	3.8	8.46e-01	0	57	104	2839543808	49	14782
2026-01-09 10:49:32.49	357.15	10.47	-38.1	-51.1	3.8	8.47e-01	0	57	104	2839543808	48	15425
2026-01-09 10:49:36.53	356.77	10.17	-38.3	-51.1	3.8	8.46e-01	0	57	104	2839543808	48	15530
2026-01-09 10:49:40.57	356.40	9.87	-38.6	-51.1	3.8	8.45e-01	0	57	104	2839543808	49	14655
2026-01-09 10:49:44.61	356.04	9.57	-39.3	-51.2	3.8	8.47e-01	0	57	104	2839543808	49	14872
2026-01-09 10:49:48.65	355.68	9.27	-39.4	-51.3	3.8	8.46e-01	0	57	104	2839543808	50	14105
2026-01-09 10:49:52.68	355.34	8.98	-39.8	-51.5	3.8	8.47e-01	0	57	104	2839543808	50	14454
2026-01-09 10:49:56.72	355.00	8.69	-39.8	-51.5	3.8	8.46e-01	0	57	104	2839543808	50	14429
2026-01-09 10:50:00.76	354.66	8.40	-39.7	-51.4	3.8	8.47e-01	0	57	104	2839543808	50	14221
2026-01-09 10:50:04.79	354.34	8.11	-39.8	-51.5	3.8	8.46e-01	0	57	104	2839543808	50	14394
2026-01-09 10:50:08.83	354.02	7.83	-42.5	-54.1	3.9	8.46e-01	0	57	104	2839543808	55	14580
2026-01-09 10:50:12.87	353.71	7.55	-45.0	-56.6	3.8	8.47e-01	0	57	104	2839543808	60	14615
2026-01-09 10:50:16.91	353.40	7.27	-45.0	-56.6	3.8	8.47e-01	0	57	104	2839543808	60	14636
2026-01-09 10:50:20.96	353.10	6.99	-44.8	-56.5	3.8	8.46e-01	0	57	104	2839543808	60	14443
2026-01-09 10:50:25.00	352.80	6.72	-44.8	-56.4	3.8	8.48e-01	0	57	104	2839543808	60	14258
2026-01-09 10:50:29.04	352.51	6.44	-44.8	-56.4	3.8	8.46e-01	0	57	104	2839543808	60	14237
2026-01-09 10:50:33.08	352.23	6.17	-44.8	-56.3	3.8	8.45e-01	0	57	104	2839543808	60	14171
2026-01-09 10:50:37.12	351.95	5.90	-44.7	-56.3	3.8	8.46e-01	0	57	104	2839543808	60	14115
2026-01-09 10:50:41.16	351.68	5.64	-44.7	-56.3	3.8	8.46e-01	0	57	104	2839543808	60	14123
2026-01-09 10:50:45.21	351.41	5.37	-44.7	-56.3	3.8	8.46e-01	0	57	104	2839543808	60	14190
2026-01-09 10:50:49.25	351.15	5.11	-44.8	-56.3	3.8	8.45e-01	0	57	104	2839543808	60	14193
2026-01-09 10:50:53.29	350.89	4.85	-44.7	-56.3	3.8	8.46e-01	0	57	104	2839543808	60	14124
2026-01-09 10:50:57.34	350.64	4.59	-44.7	-56.3	3.8	8.47e-01	0	57	104	2839543808	60	14094
2026-01-09 10:51:01.38	350.39	4.33	-44.7	-56.3	3.8	8.46e-01	0	57	104	2839543808	60	14158
2026-01-09 10:51:05.42	350.15	4.08	-44.7	-56.3	3.8	8.46e-01	0	57	104	2839543808	60	14125
2026-01-09 10:51:09.46	349.91	3.83	-44.7	-56.3	3.8	8.45e-01	0	57	104	2839543808	60	14142
2026-01-09 10:51:13.50	349.68	3.58	-44.7	-56.3	3.8	8.46e-01	0	57	104	2839543808	60	14101
2026-01-09 10:51:17.54	349.45	3.33	-44.7	-56.3	3.8	8.45e-01	0	57	104	2839543808	60	14124
2026-01-09 10:51:21.58	349.22	3.08	-44.7	-56.3	3.8	8.47e-01	0	57	104	2839543808	60	14061
2026-01-09 10:51:25.62	349.00	2.83	-44.7	-56.3	3.8	8.47e-01	0	57	104	2839543808	60	14150
2026-01-09 10:51:29.66	348.78	2.59	-44.7	-56.3	3.8	8.46e-01	0	57	104	2839543808	60	14109
2026-01-09 10:51:33.70	348.56	2.35	-44.7	-56.3	3.8	8.46e-01	0	57	104	2839543808	60	14153
2026-01-09 10:51:37.75	348.35	2.11	-44.7	-56.2	3.8	8.45e-01	0	57	104	2839543808	60	14043

#Closed at: 2026-01-09 10:51:40
#Recorded file [2839 MB]: D:/lorett/data/31039_260109_133825.dat