passes_logs/2026/01/09/R2.0S_Moscow/R2.0S_Moscow__20260109_004657_FENGYUN_3D_rec.log

#Pass ID: 20260109_004657_FENGYUN 3D
#Satellite: FENGYUN 3D
#Configuration: FENGYUN 3D
#almurnet v.1.7.20251203
#Start time: 2026-01-09 00:46:59

#Version: 2.2.20231116
#Station: R2.0S_Moscow
#Location: 37.707566 lon 55.798166 lat
#TLE: 1 43010U 17072A   26008.51967461  .00000013  00000+0  27718-4 0  9992
#TLE: 2 43010  98.9935 340.2353 0002115 119.1573 240.9815 14.19693759422336

#Time	Az	El	Level	Level2	SNR	BER	BlckErr	Temp	State	Recorded	gain1	gain2
2026-01-09 00:46:59.72	21.78	2.12	-41.6	-53.6	3.8	8.46e-01	0	47	0	0	55	13844
2026-01-09 00:47:03.75	21.97	2.37	-41.6	-53.6	3.8	8.46e-01	0	48	104	0	53	15509
2026-01-09 00:47:07.79	22.16	2.61	-41.5	-53.6	3.8	8.46e-01	0	48	104	0	53	15424
2026-01-09 00:47:11.84	22.36	2.86	-41.5	-53.6	3.8	8.46e-01	0	48	104	0	53	15450
2026-01-09 00:47:15.88	22.56	3.11	-41.5	-53.6	3.8	8.46e-01	0	49	104	0	53	15457
2026-01-09 00:47:19.93	22.77	3.36	-41.5	-53.6	3.8	8.46e-01	0	49	104	0	53	15442
2026-01-09 00:47:23.97	22.98	3.62	-41.5	-53.5	3.8	8.46e-01	0	49	104	0	53	15401
2026-01-09 00:47:28.02	23.19	3.87	-41.5	-53.6	3.8	8.46e-01	0	49	104	0	53	15460
2026-01-09 00:47:32.06	23.40	4.13	-41.5	-53.6	3.8	8.46e-01	0	50	104	0	53	15502
2026-01-09 00:47:36.10	23.62	4.39	-41.5	-53.6	3.8	8.47e-01	0	50	104	0	53	15480
2026-01-09 00:47:40.14	23.84	4.65	-41.6	-53.6	3.8	8.45e-01	0	50	104	0	53	15436
2026-01-09 00:47:44.18	24.06	4.92	-41.5	-53.6	3.8	8.47e-01	0	50	104	0	53	15490
2026-01-09 00:47:48.23	24.29	5.19	-41.5	-53.6	3.8	8.47e-01	0	51	104	0	53	15423
2026-01-09 00:47:52.27	24.53	5.46	-41.5	-53.6	3.8	8.46e-01	0	51	104	0	53	15487
2026-01-09 00:47:56.31	24.76	5.73	-41.5	-53.6	3.8	8.46e-01	0	51	104	0	53	15469
2026-01-09 00:48:00.35	25.00	6.00	-41.5	-53.6	3.8	8.46e-01	0	51	104	0	53	15503
2026-01-09 00:48:04.39	25.25	6.28	-41.5	-53.6	3.8	8.46e-01	0	52	104	0	53	15423
2026-01-09 00:48:08.44	25.50	6.56	-41.5	-53.5	3.8	8.45e-01	0	52	104	0	53	15247
2026-01-09 00:48:12.48	25.75	6.84	-41.4	-52.6	3.8	8.45e-01	0	52	104	0	53	13767
2026-01-09 00:48:16.52	26.01	7.13	-41.3	-51.5	3.8	8.45e-01	0	52	104	0	53	12176
2026-01-09 00:48:20.57	26.27	7.41	-40.5	-47.1	5.6	7.21e-01	0	52	0	0	53	7295
2026-01-09 00:48:24.61	26.54	7.70	-37.8	-40.8	11.6	1.36e-03	0	52	0	22020096	47	5017
2026-01-09 00:48:28.65	26.82	8.00	-36.5	-38.8	13.7	4.50e-06	0	52	0	45088768	44	4744
2026-01-09 00:48:32.69	27.09	8.29	-38.5	-40.9	12.9	1.51e-04	0	53	0	61865984	48	4770
2026-01-09 00:48:36.73	27.38	8.59	-37.1	-39.0	14.6	0.00e+00	0	53	0	84934656	46	4328
2026-01-09 00:48:40.77	27.67	8.89	-37.0	-38.9	14.8	0.00e+00	0	53	0	106954752	45	4507
2026-01-09 00:48:44.80	27.96	9.20	-36.6	-38.4	15.5	0.00e+00	0	53	0	130023424	45	4256
2026-01-09 00:48:48.84	28.26	9.51	-36.7	-38.5	15.5	0.00e+00	0	53	0	153092096	45	4295
2026-01-09 00:48:52.88	28.57	9.82	-36.6	-38.4	15.6	0.00e+00	0	53	0	175112192	45	4256
2026-01-09 00:48:56.91	28.88	10.13	-36.6	-38.3	15.7	0.00e+00	0	53	0	198180864	45	4223
2026-01-09 00:49:00.95	29.20	10.45	-36.4	-38.1	16.0	0.00e+00	0	53	0	221249536	44	4361
2026-01-09 00:49:04.99	29.53	10.77	-36.3	-37.9	16.2	0.00e+00	0	53	0	243269632	44	4270
2026-01-09 00:49:09.03	29.86	11.10	-36.1	-37.7	16.5	0.00e+00	0	53	0	266338304	44	4156
2026-01-09 00:49:13.07	30.20	11.43	-36.2	-37.8	16.5	0.00e+00	0	54	0	289406976	44	4195
2026-01-09 00:49:17.10	30.55	11.76	-36.0	-37.5	16.8	0.00e+00	0	54	0	311427072	44	4076
2026-01-09 00:49:21.15	30.90	12.10	-35.6	-37.1	17.1	0.00e+00	0	54	0	334495744	43	4130
2026-01-09 00:49:25.18	31.27	12.43	-35.5	-37.0	17.2	0.00e+00	0	54	0	357564416	43	4064
2026-01-09 00:49:29.22	31.64	12.78	-35.5	-36.9	17.3	0.00e+00	0	54	0	379584512	43	4025
2026-01-09 00:49:33.26	32.02	13.13	-35.5	-37.0	17.3	0.00e+00	0	54	0	402653184	42	4302
2026-01-09 00:49:37.30	32.41	13.48	-35.4	-36.8	17.4	0.00e+00	0	54	0	425721856	42	4228
2026-01-09 00:49:41.33	32.80	13.83	-35.4	-36.8	17.5	0.00e+00	0	54	0	447741952	42	4211
2026-01-09 00:49:45.37	33.21	14.19	-35.4	-36.8	17.5	0.00e+00	0	54	0	470810624	42	4210
2026-01-09 00:49:49.41	33.62	14.55	-35.5	-36.9	17.4	0.00e+00	0	55	0	493879296	42	4279
2026-01-09 00:49:53.46	34.05	14.92	-35.3	-36.8	17.6	0.00e+00	0	55	0	515899392	42	4194
2026-01-09 00:49:57.50	34.49	15.29	-35.1	-36.5	17.9	0.00e+00	0	55	0	538968064	42	4086
2026-01-09 00:50:01.54	34.93	15.67	-35.0	-36.4	18.0	0.00e+00	0	55	0	562036736	42	4028
2026-01-09 00:50:05.58	35.39	16.05	-35.0	-36.4	18.1	0.00e+00	0	55	0	584056832	41	4248
2026-01-09 00:50:09.62	35.86	16.44	-35.2	-36.5	17.9	0.00e+00	0	55	0	607125504	41	4331
2026-01-09 00:50:13.65	36.34	16.82	-35.1	-36.4	18.0	0.00e+00	0	55	0	630194176	41	4283
2026-01-09 00:50:17.69	36.83	17.22	-35.0	-36.3	18.2	0.00e+00	0	55	0	652214272	41	4227
2026-01-09 00:50:21.73	37.34	17.62	-34.8	-36.1	18.4	0.00e+00	0	55	0	675282944	41	4118
2026-01-09 00:50:25.78	37.86	18.02	-34.7	-36.0	18.4	0.00e+00	0	55	0	698351616	41	4095
2026-01-09 00:50:29.81	38.39	18.42	-34.7	-36.1	18.4	0.00e+00	0	55	0	720371712	41	4100
2026-01-09 00:50:33.85	38.94	18.84	-34.7	-36.0	18.5	0.00e+00	0	55	0	743440384	41	4067
2026-01-09 00:50:37.88	39.50	19.25	-34.5	-35.7	18.8	0.00e+00	0	55	0	766509056	40	4183
2026-01-09 00:50:41.92	40.07	19.67	-34.3	-35.6	18.9	0.00e+00	0	55	0	788529152	40	4106
2026-01-09 00:50:45.96	40.66	20.10	-34.4	-35.7	18.8	0.00e+00	0	55	0	811597824	40	4164
2026-01-09 00:50:50.00	41.27	20.52	-34.4	-35.7	18.9	0.00e+00	0	55	0	834666496	40	4147
2026-01-09 00:50:54.03	41.90	20.96	-34.3	-35.6	19.0	0.00e+00	0	55	0	856686592	40	4116
2026-01-09 00:50:58.07	42.54	21.39	-34.0	-35.3	19.3	0.00e+00	0	55	0	879755264	40	3964
2026-01-09 00:51:02.11	43.20	21.83	-34.1	-35.3	19.4	0.00e+00	0	55	0	902823936	39	4219
2026-01-09 00:51:06.14	43.87	22.28	-34.1	-35.4	19.3	0.00e+00	0	55	0	924844032	39	4254
2026-01-09 00:51:10.19	44.57	22.73	-33.8	-34.9	19.7	0.00e+00	0	55	0	947912704	39	4041
2026-01-09 00:51:14.23	45.29	23.18	-33.8	-34.9	19.7	0.00e+00	0	56	0	970981376	39	4050
2026-01-09 00:51:18.27	46.03	23.64	-33.7	-34.9	19.8	0.00e+00	0	55	0	993001472	39	4030
2026-01-09 00:51:22.30	46.79	24.10	-33.7	-34.9	19.8	0.00e+00	0	56	0	1016070144	39	4014
2026-01-09 00:51:26.34	47.57	24.56	-33.6	-34.7	19.9	0.00e+00	0	55	0	1039138816	39	3955
2026-01-09 00:51:30.38	48.38	25.02	-33.4	-34.5	20.1	0.00e+00	0	56	0	1061158912	38	4084
2026-01-09 00:51:34.42	49.20	25.49	-33.3	-34.5	20.2	0.00e+00	0	56	0	1084227584	38	4056
2026-01-09 00:51:38.45	50.06	25.96	-33.4	-34.6	20.1	0.00e+00	0	56	0	1107296256	38	4110
2026-01-09 00:51:42.49	50.93	26.43	-33.4	-34.6	20.1	0.00e+00	0	56	0	1129316352	38	4102
2026-01-09 00:51:46.53	51.84	26.90	-33.3	-34.6	19.6	0.00e+00	0	56	0	1152385024	38	4137
2026-01-09 00:51:50.57	52.77	27.37	-33.0	-34.3	19.9	0.00e+00	0	56	0	1175453696	38	3992
2026-01-09 00:51:54.61	53.73	27.84	-32.9	-34.2	20.0	0.00e+00	0	56	0	1197473792	37	4156
2026-01-09 00:51:58.65	54.71	28.32	-33.0	-34.3	19.9	0.00e+00	0	56	0	1220542464	37	4217
2026-01-09 00:52:02.69	55.73	28.79	-32.5	-33.7	20.5	0.00e+00	0	56	0	1243611136	36	4149
2026-01-09 00:52:06.73	56.77	29.26	-32.8	-34.0	20.2	0.00e+00	0	56	0	1265631232	36	4319
2026-01-09 00:52:10.77	57.85	29.72	-32.7	-33.9	20.2	0.00e+00	0	56	0	1288699904	36	4281
2026-01-09 00:52:14.80	58.95	30.18	-32.6	-33.8	20.3	0.00e+00	0	56	0	1311768576	36	4223
2026-01-09 00:52:18.85	60.09	30.64	-32.6	-33.8	20.3	0.00e+00	0	56	0	1333788672	36	4236
2026-01-09 00:52:22.89	61.26	31.10	-32.6	-33.8	20.3	0.00e+00	0	56	0	1356857344	36	4241
2026-01-09 00:52:26.92	62.46	31.54	-32.6	-33.8	20.3	0.00e+00	0	56	0	1379926016	36	4241
2026-01-09 00:52:30.96	63.70	31.98	-32.8	-34.1	20.1	0.00e+00	0	56	0	1401946112	36	4349
2026-01-09 00:52:35.00	64.97	32.41	-32.8	-34.1	20.2	0.00e+00	0	56	0	1425014784	36	4345
2026-01-09 00:52:39.04	66.27	32.84	-32.5	-33.8	20.4	0.00e+00	0	56	0	1448083456	36	4206
2026-01-09 00:52:43.08	67.61	33.25	-32.7	-33.9	20.2	0.00e+00	0	56	0	1470103552	36	4290
2026-01-09 00:52:47.11	68.97	33.65	-32.3	-33.5	20.6	0.00e+00	0	56	0	1493172224	36	4074
2026-01-09 00:52:51.15	70.38	34.03	-32.6	-33.8	20.3	0.00e+00	0	56	0	1516240896	36	4229
2026-01-09 00:52:55.19	71.81	34.41	-32.4	-33.7	20.5	0.00e+00	0	56	0	1538260992	36	4163
2026-01-09 00:52:59.23	73.28	34.76	-32.7	-34.0	20.3	0.00e+00	0	56	0	1561329664	36	4315
2026-01-09 00:53:03.26	74.77	35.10	-32.4	-33.6	20.6	0.00e+00	0	56	0	1583349760	36	4116
2026-01-09 00:53:07.30	76.30	35.42	-32.4	-33.6	20.6	0.00e+00	0	56	0	1606418432	36	4133
2026-01-09 00:53:11.34	77.86	35.72	-32.1	-33.3	20.9	0.00e+00	0	56	0	1629487104	36	3972
2026-01-09 00:53:15.38	79.45	36.00	-32.4	-33.7	20.5	0.00e+00	0	56	0	1652555776	36	4150
2026-01-09 00:53:19.41	81.05	36.26	-32.2	-33.4	20.8	0.00e+00	0	56	0	1674575872	36	4041
2026-01-09 00:53:23.45	82.69	36.49	-32.5	-33.7	20.5	0.00e+00	0	56	0	1697644544	36	4170
2026-01-09 00:53:27.49	84.35	36.70	-32.0	-33.2	21.0	0.00e+00	0	56	0	1720713216	36	3950
2026-01-09 00:53:31.53	86.03	36.89	-32.2	-33.4	20.8	0.00e+00	0	56	0	1742733312	36	4044
2026-01-09 00:53:35.57	87.73	37.04	-32.3	-33.5	20.7	0.00e+00	0	56	0	1765801984	36	4071
2026-01-09 00:53:39.61	89.44	37.17	-32.3	-33.5	20.7	0.00e+00	0	56	0	1787822080	36	4068
2026-01-09 00:53:43.65	91.16	37.28	-32.2	-33.4	20.8	0.00e+00	0	56	0	1810890752	36	4047
2026-01-09 00:53:47.69	92.90	37.35	-32.1	-33.3	20.9	0.00e+00	0	56	0	1833959424	36	3985
2026-01-09 00:53:51.73	94.64	37.40	-32.3	-33.5	20.7	0.00e+00	0	56	0	1857028096	36	4091
2026-01-09 00:53:55.77	96.38	37.41	-32.5	-33.8	20.5	0.00e+00	0	56	0	1879048192	36	4202
2026-01-09 00:53:59.80	98.12	37.40	-32.2	-33.4	20.8	0.00e+00	0	56	0	1902116864	36	4030
2026-01-09 00:54:03.84	99.86	37.36	-32.0	-33.2	21.1	0.00e+00	0	56	0	1925185536	36	3917
2026-01-09 00:54:07.88	101.60	37.28	-32.3	-33.5	20.7	0.00e+00	0	56	0	1947205632	36	4089
2026-01-09 00:54:11.92	103.32	37.18	-32.3	-33.6	20.7	0.00e+00	0	56	0	1970274304	36	4099
2026-01-09 00:54:15.96	105.04	37.06	-32.2	-33.4	20.8	0.00e+00	0	56	0	1992294400	36	4039
2026-01-09 00:54:20.00	106.74	36.90	-32.3	-33.5	20.8	0.00e+00	0	56	0	2015363072	36	4077
2026-01-09 00:54:24.04	108.42	36.72	-32.4	-33.6	20.6	0.00e+00	0	56	0	2038431744	36	4135
2026-01-09 00:54:28.07	110.08	36.51	-32.4	-33.7	20.5	0.00e+00	0	56	0	2061500416	36	4153
2026-01-09 00:54:32.11	111.72	36.28	-32.4	-33.7	20.6	0.00e+00	0	57	0	2083520512	36	4156
2026-01-09 00:54:36.15	113.34	36.02	-32.3	-33.5	20.7	0.00e+00	0	56	0	2106589184	36	4087
2026-01-09 00:54:40.20	114.94	35.74	-32.2	-33.4	20.8	0.00e+00	0	56	0	2129657856	36	4028
2026-01-09 00:54:44.23	116.50	35.44	-32.5	-33.8	20.4	0.00e+00	0	57	0	2151677952	36	4201
2026-01-09 00:54:48.28	118.04	35.12	-32.6	-33.9	20.4	0.00e+00	0	57	0	2174746624	36	4265
2026-01-09 00:54:52.31	119.54	34.78	-32.5	-33.8	20.4	0.00e+00	0	57	0	2196766720	36	4204
2026-01-09 00:54:56.35	121.01	34.43	-32.6	-33.8	20.4	0.00e+00	0	56	0	2219835392	36	4227
2026-01-09 00:55:00.39	122.45	34.06	-32.7	-34.0	20.3	0.00e+00	0	56	0	2242904064	36	4296
2026-01-09 00:55:04.43	123.86	33.67	-32.7	-34.0	20.2	0.00e+00	0	56	0	2265972736	36	4314
2026-01-09 00:55:08.46	125.24	33.27	-32.8	-34.1	20.1	0.00e+00	0	56	0	2287992832	36	4366
2026-01-09 00:55:12.50	126.58	32.86	-32.7	-34.0	20.2	0.00e+00	0	56	0	2311061504	36	4299
2026-01-09 00:55:16.54	127.89	32.43	-32.8	-34.1	20.1	0.00e+00	0	56	0	2334130176	36	4352
2026-01-09 00:55:20.58	129.17	32.00	-33.0	-34.3	19.9	0.00e+00	0	56	0	2356150272	36	4482
2026-01-09 00:55:24.62	130.41	31.56	-32.8	-34.1	20.1	0.00e+00	0	57	0	2379218944	36	4354
2026-01-09 00:55:28.66	131.62	31.11	-32.8	-34.1	20.1	0.00e+00	0	56	0	2401239040	36	4360
2026-01-09 00:55:32.69	132.79	30.65	-33.0	-34.3	19.8	0.00e+00	0	57	0	2424307712	36	4489
2026-01-09 00:55:36.73	133.94	30.19	-33.2	-34.5	19.8	0.00e+00	0	57	0	2447376384	36	4576
2026-01-09 00:55:40.77	135.05	29.72	-33.0	-34.3	20.0	0.00e+00	0	56	0	2470445056	36	4459
2026-01-09 00:55:44.81	136.13	29.26	-33.2	-34.5	19.8	0.00e+00	0	57	0	2492465152	36	4571
2026-01-09 00:55:48.85	137.18	28.78	-33.2	-34.5	19.8	0.00e+00	0	57	0	2515533824	36	4548
2026-01-09 00:55:52.88	138.20	28.31	-33.6	-35.0	19.3	0.00e+00	0	57	0	2538602496	37	4574
2026-01-09 00:55:56.93	139.19	27.83	-33.2	-34.4	19.8	0.00e+00	0	57	0	2560622592	37	4287
2026-01-09 00:56:00.97	140.16	27.36	-33.3	-34.6	19.6	0.00e+00	0	56	0	2583691264	37	4386
2026-01-09 00:56:05.01	141.09	26.88	-33.1	-34.5	19.8	0.00e+00	0	57	0	2605711360	37	4294
2026-01-09 00:56:09.05	142.00	26.41	-33.1	-34.4	19.8	0.00e+00	0	56	0	2628780032	37	4280
2026-01-09 00:56:13.09	142.89	25.93	-33.3	-34.6	19.6	0.00e+00	0	57	0	2651848704	37	4375
2026-01-09 00:56:17.13	143.74	25.46	-33.3	-34.6	19.7	0.00e+00	0	57	0	2674917376	37	4350
2026-01-09 00:56:21.17	144.58	24.99	-33.5	-34.9	19.4	0.00e+00	0	57	0	2696937472	37	4507
2026-01-09 00:56:25.21	145.38	24.52	-33.6	-34.9	19.3	0.00e+00	0	57	0	2720006144	37	4545
2026-01-09 00:56:29.24	146.17	24.06	-33.5	-34.8	19.5	0.00e+00	0	57	0	2743074816	37	4461
2026-01-09 00:56:33.28	146.93	23.59	-33.7	-35.1	19.2	0.00e+00	0	57	0	2765094912	37	4602
2026-01-09 00:56:37.32	147.67	23.13	-33.8	-35.2	19.1	0.00e+00	0	57	0	2788163584	38	4424
2026-01-09 00:56:41.36	148.39	22.68	-33.7	-35.1	19.2	0.00e+00	0	56	0	2810183680	38	4353
2026-01-09 00:56:45.39	149.09	22.23	-33.9	-35.3	19.0	0.00e+00	0	57	0	2833252352	38	4456
2026-01-09 00:56:49.43	149.77	21.78	-34.1	-35.5	18.8	0.00e+00	0	57	0	2856321024	38	4576
2026-01-09 00:56:53.47	150.44	21.33	-34.1	-35.5	18.8	0.00e+00	0	57	0	2879389696	38	4562
2026-01-09 00:56:57.50	151.08	20.89	-34.2	-35.6	18.7	0.00e+00	0	57	0	2901409792	38	4626
2026-01-09 00:57:01.54	151.70	20.46	-34.5	-36.0	18.3	0.00e+00	0	57	0	2924478464	39	4554
2026-01-09 00:57:05.58	152.31	20.02	-34.5	-36.0	18.3	0.00e+00	0	57	0	2947547136	39	4558
2026-01-09 00:57:09.62	152.91	19.59	-34.6	-36.0	18.2	0.00e+00	0	57	0	2969567232	39	4588
2026-01-09 00:57:13.66	153.48	19.17	-34.7	-36.2	18.1	0.00e+00	0	57	0	2992635904	39	4653
2026-01-09 00:57:17.69	154.04	18.75	-34.7	-36.1	18.1	0.00e+00	0	57	0	3014656000	39	4647
2026-01-09 00:57:21.73	154.59	18.34	-34.8	-36.3	17.9	0.00e+00	0	57	0	3037724672	40	4472
2026-01-09 00:57:25.77	155.13	17.93	-35.0	-36.5	17.7	0.00e+00	0	57	0	3060793344	40	4580
2026-01-09 00:57:29.81	155.64	17.52	-35.0	-36.5	17.7	0.00e+00	0	57	0	3082813440	40	4577
2026-01-09 00:57:33.85	156.15	17.12	-34.9	-36.3	17.8	0.00e+00	0	56	0	3105882112	40	4493
2026-01-09 00:57:37.89	156.64	16.72	-34.9	-36.4	17.8	0.00e+00	0	57	0	3128950784	40	4494
2026-01-09 00:57:41.93	157.12	16.33	-35.0	-36.5	17.7	0.00e+00	0	57	0	3152019456	40	4574
2026-01-09 00:57:45.97	157.59	15.94	-35.2	-36.7	17.4	0.00e+00	0	57	0	3174039552	40	4685
2026-01-09 00:57:50.01	158.05	15.56	-35.4	-37.0	17.2	0.00e+00	0	57	0	3197108224	41	4559
2026-01-09 00:57:54.05	158.50	15.18	-35.6	-37.2	17.0	0.00e+00	0	57	0	3219128320	41	4677
2026-01-09 00:57:58.08	158.93	14.81	-35.8	-37.4	16.7	0.00e+00	0	57	0	3242196992	42	4541
2026-01-09 00:58:02.12	159.36	14.44	-35.8	-37.5	16.7	0.00e+00	0	57	0	3265265664	42	4556
2026-01-09 00:58:06.16	159.77	14.07	-35.8	-37.4	16.7	0.00e+00	0	57	0	3287285760	42	4521
2026-01-09 00:58:10.20	160.18	13.71	-35.8	-37.5	16.6	0.00e+00	0	57	0	3310354432	42	4567
2026-01-09 00:58:14.23	160.57	13.35	-36.1	-37.8	16.2	0.00e+00	0	57	0	3333423104	43	4484
2026-01-09 00:58:18.27	160.96	13.00	-36.2	-37.9	16.2	0.00e+00	0	57	0	3355443200	43	4516
2026-01-09 00:58:22.31	161.34	12.65	-36.1	-37.8	16.2	0.00e+00	0	57	0	3378511872	43	4473
2026-01-09 00:58:26.35	161.71	12.30	-36.1	-37.8	16.2	0.00e+00	0	57	0	3401580544	43	4487
2026-01-09 00:58:30.39	162.07	11.96	-36.3	-38.1	15.9	0.00e+00	0	57	0	3423600640	43	4619
2026-01-09 00:58:34.43	162.42	11.62	-36.2	-38.0	15.9	0.00e+00	0	57	0	3446669312	43	4581
2026-01-09 00:58:38.47	162.77	11.28	-36.6	-38.4	15.6	0.00e+00	0	57	0	3469737984	43	4790
2026-01-09 00:58:42.50	163.11	10.95	-36.6	-38.5	15.5	0.00e+00	0	57	0	3491758080	43	4817
2026-01-09 00:58:46.54	163.44	10.63	-36.6	-38.5	15.4	0.00e+00	0	57	0	3514826752	43	4837
2026-01-09 00:58:50.58	163.76	10.30	-36.7	-38.5	15.4	0.00e+00	0	57	0	3537895424	43	4857
2026-01-09 00:58:54.61	164.08	9.98	-36.7	-38.6	15.5	0.00e+00	0	57	0	3559915520	44	4608
2026-01-09 00:58:58.65	164.39	9.66	-36.9	-38.8	15.2	0.00e+00	0	57	0	3582984192	44	4749
2026-01-09 00:59:02.69	164.69	9.35	-37.0	-38.9	15.1	0.00e+00	0	57	0	3606052864	44	4773
2026-01-09 00:59:06.72	164.99	9.04	-37.2	-39.2	14.7	0.00e+00	0	57	0	3628072960	44	4973
2026-01-09 00:59:10.77	165.28	8.73	-37.1	-39.1	14.8	0.00e+00	0	57	0	3651141632	45	4617
2026-01-09 00:59:14.81	165.57	8.43	-37.1	-39.1	14.7	0.00e+00	0	57	0	3674210304	45	4630
2026-01-09 00:59:18.85	165.85	8.13	-37.1	-39.0	14.7	0.00e+00	0	57	0	3696230400	45	4585
2026-01-09 00:59:22.89	166.13	7.83	-44.7	-56.1	3.8	8.47e-01	0	57	104	3707764736	59	14576
2026-01-09 00:59:26.93	166.40	7.53	-44.9	-56.5	3.8	8.46e-01	0	57	104	3707764736	60	14437
2026-01-09 00:59:30.97	166.66	7.24	-44.9	-56.5	3.8	8.46e-01	0	57	104	3707764736	60	14483
2026-01-09 00:59:35.01	166.92	6.95	-44.8	-56.3	3.8	8.46e-01	0	57	104	3707764736	60	14162
2026-01-09 00:59:39.05	167.18	6.66	-44.7	-56.3	3.8	8.47e-01	0	57	104	3707764736	60	14159
2026-01-09 00:59:43.09	167.43	6.38	-44.7	-56.2	3.8	8.45e-01	0	57	104	3707764736	60	14038
2026-01-09 00:59:47.13	167.67	6.10	-44.7	-56.2	3.8	8.46e-01	0	57	104	3707764736	60	14021
2026-01-09 00:59:51.17	167.91	5.82	-44.7	-56.2	3.8	8.45e-01	0	57	104	3707764736	60	13998
2026-01-09 00:59:55.22	168.15	5.54	-44.7	-56.2	3.8	8.46e-01	0	57	104	3707764736	60	14030
2026-01-09 00:59:59.26	168.38	5.27	-44.7	-56.2	3.8	8.46e-01	0	57	104	3707764736	60	14046
2026-01-09 01:00:03.30	168.61	5.00	-44.7	-56.2	3.8	8.46e-01	0	57	104	3707764736	60	13973
2026-01-09 01:00:07.34	168.84	4.73	-44.7	-56.2	3.8	8.46e-01	0	57	104	3707764736	60	13964
2026-01-09 01:00:11.38	169.06	4.46	-44.7	-56.2	3.8	8.47e-01	0	57	104	3707764736	60	14002
2026-01-09 01:00:15.43	169.28	4.20	-44.7	-56.2	3.8	8.45e-01	0	57	104	3707764736	60	13952
2026-01-09 01:00:19.47	169.49	3.94	-44.7	-56.2	3.8	8.47e-01	0	57	104	3707764736	60	14001
2026-01-09 01:00:23.51	169.70	3.68	-44.7	-56.2	3.8	8.45e-01	0	57	104	3707764736	60	14029
2026-01-09 01:00:27.56	169.91	3.42	-44.7	-56.2	3.8	8.45e-01	0	57	104	3707764736	60	14029
2026-01-09 01:00:31.60	170.11	3.16	-44.7	-56.2	3.8	8.46e-01	0	57	104	3707764736	60	13976
2026-01-09 01:00:35.64	170.31	2.91	-44.7	-56.2	3.8	8.46e-01	0	57	104	3707764736	60	13972
2026-01-09 01:00:39.69	170.50	2.66	-44.7	-56.2	3.8	8.47e-01	0	57	104	3707764736	60	13940
2026-01-09 01:00:43.73	170.70	2.41	-44.7	-56.2	3.8	8.45e-01	0	57	104	3707764736	60	13993
2026-01-09 01:00:47.77	170.89	2.16	-44.7	-56.2	3.8	8.46e-01	0	57	104	3707764736	60	13970
2026-01-09 01:00:51.81	171.08	1.92	-44.7	-56.3	3.8	8.46e-01	0	57	104	3707764736	60	14067

#Closed at: 2026-01-09 01:00:53
#Recorded file [3707 MB]: D:/lorett/data/31039_260109_034659.dat