passes_logs/2026/01/09/R2.0S_Moscow/R2.0S_Moscow__20260109_005737_NOAA_21_JPSS-2_rec.log

#Pass ID: 20260109_005737_NOAA 21 (JPSS-2)
#Satellite: NOAA 21 (JPSS-2)
#Configuration: NOAA-21
#almurnet v.1.7.20251203
#Start time: 2026-01-09 01:01:00

#Version: 2.2.20231116
#Station: R2.0S_Moscow
#Location: 37.707566 lon 55.798166 lat
#TLE: 1 54234U 22150A   26008.45757862  .00000119  00000+0  77172-4 0  9996
#TLE: 2 54234  98.7494 309.4367 0000894 328.2777  31.8345 14.19533328163889

#Time	Az	El	Level	Level2	SNR	BER	BlckErr	Temp	State	Recorded	gain1	gain2
2026-01-09 01:01:00.44	353.97	16.70	-44.7	-56.2	3.8	8.45e-01	0	56	0	0	60	14042
2026-01-09 01:01:03.46	353.54	16.97	-45.0	-57.3	3.8	1.49e+00	0	57	104	0	61	14935
2026-01-09 01:01:06.49	353.10	17.24	-44.9	-57.2	3.8	1.49e+00	0	57	104	0	61	14745
2026-01-09 01:01:09.52	352.65	17.51	-43.9	-56.2	3.8	1.49e+00	0	57	104	0	59	14800
2026-01-09 01:01:12.55	352.19	17.78	-41.5	-54.0	3.8	1.49e+00	0	57	104	0	55	14462
2026-01-09 01:01:15.58	351.72	18.05	-41.5	-54.0	3.8	1.49e+00	0	57	104	0	55	14440
2026-01-09 01:01:18.61	351.24	18.32	-41.5	-54.0	3.8	1.49e+00	0	57	104	0	55	14462
2026-01-09 01:01:21.64	350.75	18.59	-41.5	-54.0	3.8	1.49e+00	0	57	104	0	55	14427
2026-01-09 01:01:24.68	350.26	18.87	-41.5	-54.0	3.8	1.49e+00	0	57	104	0	55	14431
2026-01-09 01:01:27.71	349.75	19.14	-41.5	-54.0	3.8	1.49e+00	0	57	104	0	55	14416
2026-01-09 01:01:30.74	349.24	19.42	-41.5	-54.0	3.8	1.49e+00	0	57	104	0	55	14418
2026-01-09 01:01:33.77	348.72	19.69	-41.5	-54.0	3.8	1.49e+00	0	57	104	0	55	14391
2026-01-09 01:01:36.80	348.19	19.97	-41.5	-53.9	3.8	1.49e+00	0	57	104	0	55	14291
2026-01-09 01:01:39.84	347.64	20.25	-41.5	-53.9	3.8	1.49e+00	0	57	104	0	55	14350
2026-01-09 01:01:42.87	347.09	20.52	-41.5	-53.6	3.8	1.49e+00	0	57	104	0	54	14663
2026-01-09 01:01:45.90	346.53	20.80	-41.5	-53.9	3.8	1.49e+00	0	57	104	0	54	15115
2026-01-09 01:01:48.93	345.95	21.08	-40.8	-48.7	4.8	1.14e+00	1	57	104	0	53	8861
2026-01-09 01:01:51.96	345.37	21.35	-38.9	-42.6	10.1	9.17e-03	0	57	0	8388608	49	5492
2026-01-09 01:01:54.99	344.78	21.63	-36.9	-38.8	15.3	1.50e-06	0	57	0	17825792	45	4479
2026-01-09 01:01:58.02	344.17	21.91	-37.4	-39.4	15.0	3.00e-06	0	57	0	27262976	46	4513
2026-01-09 01:02:01.04	343.56	22.18	-37.1	-38.9	15.5	0.00e+00	0	57	0	36700160	45	4528
2026-01-09 01:02:04.07	342.93	22.46	-37.6	-39.6	15.1	0.00e+00	0	57	0	46137344	45	4886
2026-01-09 01:02:07.10	342.29	22.73	-37.1	-38.8	16.1	0.00e+00	0	57	0	55574528	45	4455
2026-01-09 01:02:10.13	341.64	23.01	-36.8	-38.4	16.6	0.00e+00	0	57	0	65011712	45	4280
2026-01-09 01:02:13.16	340.98	23.28	-37.3	-38.9	16.3	0.00e+00	0	57	0	74448896	45	4533
2026-01-09 01:02:16.19	340.31	23.55	-37.1	-38.7	16.6	0.00e+00	0	57	0	83886080	45	4419
2026-01-09 01:02:19.22	339.62	23.82	-36.8	-38.4	17.0	0.00e+00	0	57	0	93323264	45	4257
2026-01-09 01:02:22.25	338.92	24.09	-36.9	-38.5	16.9	0.00e+00	0	57	0	102760448	45	4310
2026-01-09 01:02:25.28	338.21	24.35	-36.9	-38.4	17.0	0.00e+00	0	57	0	112197632	45	4273
2026-01-09 01:02:28.31	337.49	24.62	-37.1	-38.7	16.8	0.00e+00	0	57	0	121634816	45	4399
2026-01-09 01:02:31.33	336.76	24.88	-37.4	-39.0	16.5	0.00e+00	0	57	0	131072000	45	4583
2026-01-09 01:02:34.37	336.01	25.14	-37.3	-38.9	16.5	0.00e+00	0	57	0	140509184	45	4531
2026-01-09 01:02:37.39	335.26	25.39	-37.5	-39.1	16.4	0.00e+00	0	57	0	149946368	45	4637
2026-01-09 01:02:40.42	334.48	25.65	-37.4	-39.0	16.5	0.00e+00	0	57	0	159383552	45	4583
2026-01-09 01:02:43.44	333.70	25.89	-37.2	-38.8	16.7	0.00e+00	0	57	0	168820736	45	4467
2026-01-09 01:02:46.47	332.91	26.14	-37.5	-39.1	16.4	0.00e+00	0	57	0	178257920	45	4616
2026-01-09 01:02:49.50	332.10	26.38	-37.5	-39.1	16.4	0.00e+00	0	57	0	187695104	45	4622
2026-01-09 01:02:52.53	331.28	26.62	-37.3	-38.9	16.5	0.00e+00	0	57	0	197132288	45	4539
2026-01-09 01:02:55.56	330.44	26.85	-37.5	-39.2	16.4	0.00e+00	0	57	0	207618048	45	4656
2026-01-09 01:02:58.59	329.60	27.08	-37.4	-39.1	16.4	0.00e+00	0	57	0	217055232	45	4606
2026-01-09 01:03:01.62	328.74	27.30	-37.5	-39.1	16.4	0.00e+00	0	57	0	226492416	45	4645
2026-01-09 01:03:04.65	327.87	27.52	-37.3	-38.8	16.7	0.00e+00	0	57	0	235929600	45	4492
2026-01-09 01:03:07.68	326.99	27.73	-37.4	-39.1	16.4	0.00e+00	0	57	0	245366784	45	4599
2026-01-09 01:03:10.71	326.09	27.93	-37.6	-39.3	16.2	0.00e+00	0	57	0	254803968	45	4711
2026-01-09 01:03:13.73	325.19	28.13	-37.6	-39.3	16.2	0.00e+00	0	57	0	264241152	45	4730
2026-01-09 01:03:16.76	324.27	28.33	-37.7	-39.4	16.1	0.00e+00	0	57	0	273678336	46	4537
2026-01-09 01:03:19.79	323.35	28.51	-37.3	-38.9	16.6	0.00e+00	0	57	0	283115520	46	4258
2026-01-09 01:03:22.82	322.41	28.69	-37.5	-39.2	16.3	0.00e+00	0	57	0	292552704	46	4409
2026-01-09 01:03:25.84	321.46	28.86	-37.6	-39.3	16.3	0.00e+00	0	57	0	301989888	46	4443
2026-01-09 01:03:28.87	320.50	29.02	-37.7	-39.4	16.1	0.00e+00	0	57	0	311427072	46	4536
2026-01-09 01:03:31.91	319.53	29.18	-37.8	-39.5	16.0	0.00e+00	0	57	0	320864256	46	4559
2026-01-09 01:03:34.94	318.56	29.32	-37.8	-39.5	16.1	0.00e+00	0	57	0	330301440	46	4557
2026-01-09 01:03:37.96	317.57	29.46	-37.9	-39.7	15.9	0.00e+00	0	57	0	339738624	46	4653
2026-01-09 01:03:40.99	316.58	29.59	-37.8	-39.5	16.0	0.00e+00	0	57	0	349175808	46	4581
2026-01-09 01:03:44.02	315.58	29.71	-37.8	-39.5	16.1	0.00e+00	0	57	0	358612992	46	4564
2026-01-09 01:03:47.05	314.57	29.82	-37.6	-39.3	16.3	0.00e+00	0	57	0	368050176	46	4446
2026-01-09 01:03:50.07	313.55	29.92	-37.7	-39.4	16.1	0.00e+00	0	57	0	377487360	46	4523
2026-01-09 01:03:53.10	312.53	30.01	-37.5	-39.2	16.4	0.00e+00	0	57	0	386924544	46	4400
2026-01-09 01:03:56.13	311.50	30.09	-37.5	-39.2	16.3	0.00e+00	0	57	0	396361728	46	4408
2026-01-09 01:03:59.16	310.47	30.16	-37.6	-39.2	16.3	0.00e+00	0	57	0	405798912	46	4416
2026-01-09 01:04:02.18	309.44	30.22	-37.8	-39.6	15.9	0.00e+00	0	57	0	415236096	46	4608
2026-01-09 01:04:05.21	308.40	30.27	-37.5	-39.1	16.4	0.00e+00	0	57	0	424673280	46	4385
2026-01-09 01:04:08.24	307.35	30.31	-37.6	-39.3	16.2	0.00e+00	0	57	0	434110464	46	4473
2026-01-09 01:04:11.26	306.31	30.34	-37.8	-39.5	16.0	0.00e+00	0	57	0	443547648	46	4592
2026-01-09 01:04:14.29	305.26	30.35	-37.6	-39.2	16.3	0.00e+00	0	57	0	452984832	46	4439
2026-01-09 01:04:17.32	304.21	30.36	-37.4	-39.0	16.5	0.00e+00	0	57	0	462422016	46	4320
2026-01-09 01:04:20.35	303.17	30.36	-37.3	-38.9	16.6	0.00e+00	0	57	0	471859200	46	4253
2026-01-09 01:04:23.38	302.12	30.34	-37.2	-38.8	16.7	0.00e+00	0	57	0	481296384	46	4220
2026-01-09 01:04:26.40	301.07	30.32	-37.5	-39.2	16.3	0.00e+00	0	57	0	490733568	46	4396
2026-01-09 01:04:29.43	300.03	30.28	-37.7	-39.4	16.1	0.00e+00	0	57	0	500170752	46	4506
2026-01-09 01:04:32.46	298.99	30.23	-37.6	-39.3	16.3	0.00e+00	0	57	0	509607936	46	4446
2026-01-09 01:04:35.49	297.95	30.18	-38.0	-39.8	15.7	0.00e+00	0	57	0	519045120	46	4726
2026-01-09 01:04:38.52	296.91	30.11	-37.9	-39.6	15.9	0.00e+00	0	57	0	528482304	46	4637
2026-01-09 01:04:41.55	295.88	30.03	-37.7	-39.4	16.1	0.00e+00	0	57	0	537919488	46	4524
2026-01-09 01:04:44.58	294.86	29.94	-37.4	-39.0	16.5	0.00e+00	0	57	0	547356672	46	4326
2026-01-09 01:04:47.60	293.84	29.84	-37.6	-39.2	16.3	0.00e+00	0	57	0	556793856	46	4431
2026-01-09 01:04:50.63	292.83	29.74	-37.6	-39.3	16.2	0.00e+00	0	57	0	566231040	46	4463
2026-01-09 01:04:53.66	291.82	29.62	-37.7	-39.3	16.1	0.00e+00	0	57	0	575668224	46	4489
2026-01-09 01:04:56.69	290.82	29.49	-37.4	-39.0	16.5	0.00e+00	0	57	0	586153984	46	4309
2026-01-09 01:04:59.71	289.84	29.36	-37.4	-39.0	16.5	0.00e+00	0	57	0	595591168	46	4320
2026-01-09 01:05:02.74	288.86	29.21	-37.3	-38.9	16.6	0.00e+00	0	57	0	605028352	46	4278
2026-01-09 01:05:05.77	287.88	29.06	-37.7	-39.4	16.1	0.00e+00	0	57	0	614465536	46	4524
2026-01-09 01:05:08.79	286.92	28.90	-37.7	-39.4	16.1	0.00e+00	0	57	0	623902720	46	4504
2026-01-09 01:05:11.82	285.97	28.73	-37.4	-39.0	16.5	0.00e+00	0	57	0	633339904	46	4313
2026-01-09 01:05:14.85	285.03	28.56	-37.4	-39.0	16.4	0.00e+00	0	57	0	642777088	46	4337
2026-01-09 01:05:17.88	284.09	28.37	-37.3	-38.8	16.6	0.00e+00	0	57	0	652214272	46	4238
2026-01-09 01:05:20.91	283.17	28.18	-37.5	-39.2	16.2	0.00e+00	0	57	0	661651456	46	4398
2026-01-09 01:05:23.93	282.26	27.98	-37.5	-39.1	16.3	0.00e+00	0	57	0	671088640	46	4372
2026-01-09 01:05:26.96	281.36	27.78	-37.7	-39.4	16.1	0.00e+00	0	57	0	680525824	46	4523
2026-01-09 01:05:29.99	280.48	27.57	-37.9	-39.6	15.8	0.00e+00	0	57	0	689963008	46	4642
2026-01-09 01:05:33.02	279.60	27.35	-37.0	-38.5	16.9	0.00e+00	0	57	0	699400192	46	4096
2026-01-09 01:05:36.05	278.74	27.13	-37.0	-38.5	16.9	0.00e+00	0	57	0	708837376	45	4340
2026-01-09 01:05:39.07	277.89	26.90	-38.0	-39.8	15.7	0.00e+00	0	57	0	718274560	46	4716
2026-01-09 01:05:42.10	277.05	26.67	-37.6	-39.3	16.1	0.00e+00	0	57	0	727711744	46	4488
2026-01-09 01:05:45.13	276.22	26.43	-36.9	-38.4	17.0	0.00e+00	0	57	0	737148928	45	4248
2026-01-09 01:05:48.16	275.41	26.19	-37.1	-38.7	16.7	0.00e+00	0	57	0	746586112	45	4409
2026-01-09 01:05:51.19	274.60	25.95	-37.3	-38.9	16.3	0.00e+00	0	58	0	756023296	45	4526
2026-01-09 01:05:54.22	273.81	25.70	-37.1	-38.6	16.6	0.00e+00	0	57	0	765460480	45	4383
2026-01-09 01:05:57.25	273.03	25.44	-37.3	-39.0	16.4	0.00e+00	0	57	0	774897664	45	4555
2026-01-09 01:06:00.27	272.27	25.19	-37.2	-38.9	16.5	0.00e+00	0	57	0	784334848	45	4501
2026-01-09 01:06:03.31	271.52	24.93	-36.4	-37.9	17.4	0.00e+00	0	57	0	793772032	44	4252
2026-01-09 01:06:06.33	270.78	24.67	-36.5	-37.9	17.4	0.00e+00	0	57	0	803209216	44	4267
2026-01-09 01:06:09.36	270.05	24.40	-37.1	-38.7	16.7	0.00e+00	0	57	0	812646400	44	4693
2026-01-09 01:06:12.39	269.33	24.14	-37.3	-39.0	16.4	0.00e+00	0	57	0	822083584	45	4548
2026-01-09 01:06:15.41	268.63	23.87	-36.9	-38.5	16.9	0.00e+00	0	57	0	831520768	45	4293
2026-01-09 01:06:18.44	267.94	23.60	-36.7	-38.2	17.1	0.00e+00	0	57	0	840957952	45	4159
2026-01-09 01:06:21.47	267.26	23.33	-36.9	-38.5	16.8	0.00e+00	0	57	0	850395136	45	4307
2026-01-09 01:06:24.50	266.59	23.05	-37.8	-39.6	15.8	0.00e+00	0	57	0	859832320	46	4602
2026-01-09 01:06:27.52	265.94	22.78	-37.3	-39.0	16.4	0.00e+00	0	57	0	869269504	46	4294
2026-01-09 01:06:30.55	265.29	22.51	-37.2	-38.8	16.6	0.00e+00	0	57	0	878706688	46	4197
2026-01-09 01:06:33.58	264.66	22.23	-36.7	-38.2	17.1	0.00e+00	0	57	0	888143872	45	4154
2026-01-09 01:06:36.60	264.04	21.95	-37.0	-38.5	16.8	0.00e+00	0	57	0	897581056	45	4312
2026-01-09 01:06:39.63	263.43	21.67	-37.3	-38.9	16.4	0.00e+00	0	57	0	907018240	45	4531
2026-01-09 01:06:42.65	262.83	21.40	-36.7	-38.1	17.1	0.00e+00	0	57	0	916455424	45	4139
2026-01-09 01:06:45.68	262.24	21.12	-37.1	-38.7	16.6	0.00e+00	0	57	0	925892608	45	4392
2026-01-09 01:06:48.71	261.66	20.84	-37.8	-39.6	15.7	0.00e+00	0	57	0	935329792	46	4639
2026-01-09 01:06:51.74	261.10	20.56	-37.5	-39.2	16.2	0.00e+00	0	58	0	944766976	46	4395
2026-01-09 01:06:54.76	260.54	20.29	-36.9	-38.5	16.8	0.00e+00	0	57	0	954204160	45	4294
2026-01-09 01:06:57.79	259.99	20.01	-37.6	-39.3	16.0	0.00e+00	0	57	0	963641344	45	4728
2026-01-09 01:07:00.82	259.45	19.73	-37.4	-39.1	16.1	0.00e+00	0	57	0	973078528	45	4627
2026-01-09 01:07:03.85	258.92	19.45	-36.8	-38.3	17.0	0.00e+00	0	57	0	982515712	45	4200
2026-01-09 01:07:06.88	258.41	19.18	-37.3	-38.9	16.3	0.00e+00	0	57	0	991952896	45	4543
2026-01-09 01:07:09.91	257.90	18.90	-38.0	-39.8	15.5	0.00e+00	0	57	0	1002438656	46	4750
2026-01-09 01:07:12.93	257.40	18.63	-37.6	-39.3	16.0	0.00e+00	0	57	0	1010827264	46	4456
2026-01-09 01:07:15.95	256.91	18.35	-37.2	-38.8	16.4	0.00e+00	0	57	0	1021313024	46	4225
2026-01-09 01:07:18.98	256.43	18.08	-37.5	-39.2	16.1	0.00e+00	0	57	0	1030750208	46	4398
2026-01-09 01:07:22.01	255.95	17.81	-37.9	-39.8	15.5	0.00e+00	0	57	0	1040187392	46	4716
2026-01-09 01:07:25.03	255.49	17.54	-38.0	-39.9	15.3	0.00e+00	0	57	0	1049624576	46	4787
2026-01-09 01:07:28.06	255.03	17.27	-37.6	-39.4	15.8	0.00e+00	0	58	0	1059061760	46	4503
2026-01-09 01:07:31.09	254.58	17.00	-37.5	-39.2	16.0	0.00e+00	0	57	0	1068498944	46	4425
2026-01-09 01:07:34.12	254.14	16.73	-37.5	-39.2	16.0	0.00e+00	0	57	0	1077936128	46	4420
2026-01-09 01:07:37.14	253.71	16.46	-37.6	-39.4	15.8	0.00e+00	0	58	0	1087373312	46	4519
2026-01-09 01:07:40.17	253.29	16.20	-38.0	-39.8	15.4	0.00e+00	0	58	0	1096810496	46	4733
2026-01-09 01:07:43.20	252.87	15.93	-37.9	-39.7	15.5	0.00e+00	0	57	0	1106247680	46	4677
2026-01-09 01:07:46.22	252.46	15.67	-37.5	-39.2	16.0	0.00e+00	0	57	0	1115684864	46	4403
2026-01-09 01:07:49.25	252.06	15.41	-37.2	-38.8	16.4	0.00e+00	0	57	0	1125122048	46	4205
2026-01-09 01:07:52.28	251.66	15.15	-37.5	-39.3	15.9	0.00e+00	0	57	0	1134559232	46	4445
2026-01-09 01:07:55.31	251.27	14.89	-37.9	-39.7	15.5	0.00e+00	0	57	0	1143996416	46	4677
2026-01-09 01:07:58.34	250.89	14.63	-38.0	-39.8	15.3	0.00e+00	0	58	0	1153433600	46	4751
2026-01-09 01:08:01.37	250.51	14.38	-37.7	-39.5	15.6	0.00e+00	0	58	0	1162870784	46	4574
2026-01-09 01:08:04.39	250.15	14.12	-37.4	-39.1	16.0	0.00e+00	0	57	0	1172307968	46	4343
2026-01-09 01:08:07.41	249.78	13.87	-37.2	-38.9	16.2	0.00e+00	0	57	0	1181745152	46	4261
2026-01-09 01:08:10.44	249.43	13.62	-37.4	-39.1	16.0	0.00e+00	0	58	0	1191182336	46	4377
2026-01-09 01:08:13.47	249.08	13.37	-37.7	-39.5	15.6	0.00e+00	0	58	0	1200619520	46	4594
2026-01-09 01:08:16.50	248.73	13.12	-38.0	-39.9	15.2	0.00e+00	0	57	0	1210056704	46	4805
2026-01-09 01:08:19.52	248.40	12.87	-38.2	-40.2	14.9	0.00e+00	0	57	0	1219493888	47	4681
2026-01-09 01:08:22.55	248.06	12.63	-38.0	-39.9	15.2	0.00e+00	0	57	0	1228931072	47	4514
2026-01-09 01:08:25.58	247.74	12.38	-37.8	-39.6	15.5	0.00e+00	0	58	0	1238368256	47	4343
2026-01-09 01:08:28.61	247.41	12.14	-37.6	-39.3	15.7	0.00e+00	0	58	0	1247805440	47	4221
2026-01-09 01:08:31.64	247.10	11.90	-37.7	-39.4	15.6	0.00e+00	0	57	0	1257242624	47	4279
2026-01-09 01:08:34.67	246.79	11.66	-37.9	-39.8	15.2	0.00e+00	0	57	0	1266679808	47	4474
2026-01-09 01:08:37.69	246.48	11.42	-38.3	-40.4	14.6	1.50e-06	0	57	0	1276116992	47	4772
2026-01-09 01:08:40.72	246.18	11.19	-38.6	-40.7	14.3	7.00e-07	0	58	0	1285554176	47	4949
2026-01-09 01:08:43.75	245.88	10.95	-38.7	-40.8	14.1	1.50e-06	0	57	0	1294991360	47	5015
2026-01-09 01:08:46.78	245.59	10.72	-38.6	-40.7	14.3	2.20e-06	0	57	0	1304428544	48	4678
2026-01-09 01:08:49.81	245.30	10.49	-38.4	-40.4	14.6	0.00e+00	0	57	0	1313865728	48	4522
2026-01-09 01:08:52.84	245.02	10.26	-38.4	-40.4	14.6	0.00e+00	0	57	0	1323302912	48	4507
2026-01-09 01:08:55.86	244.75	10.03	-38.5	-40.5	14.5	0.00e+00	0	57	0	1332740096	48	4574
2026-01-09 01:08:58.89	244.47	9.80	-38.7	-40.8	14.1	0.00e+00	0	57	0	1342177280	48	4724
2026-01-09 01:09:01.92	244.20	9.57	-38.8	-41.1	13.9	1.50e-06	0	58	0	1351614464	48	4873
2026-01-09 01:09:04.95	243.94	9.35	-39.1	-41.4	13.5	1.44e-05	0	58	0	1361051648	48	5066
2026-01-09 01:09:07.97	243.68	9.13	-39.1	-41.4	13.6	1.29e-05	0	57	0	1370488832	48	5043
2026-01-09 01:09:11.00	243.42	8.90	-39.2	-41.6	13.3	2.21e-05	0	58	0	1379926016	49	4897
2026-01-09 01:09:14.03	243.17	8.68	-39.1	-41.4	13.4	2.05e-05	0	58	0	1390411776	49	4800
2026-01-09 01:09:17.06	242.92	8.46	-39.1	-41.4	13.5	9.90e-06	0	58	0	1398800384	49	4770
2026-01-09 01:09:20.08	242.68	8.25	-39.0	-41.4	13.4	1.06e-05	0	58	0	1409286144	49	4781
2026-01-09 01:09:23.11	242.44	8.03	-39.1	-41.4	13.4	5.30e-06	0	58	0	1417674752	49	4784
2026-01-09 01:09:26.14	242.20	7.82	-44.7	-56.8	3.8	1.49e+00	0	58	104	1419771904	59	15817
2026-01-09 01:09:29.17	241.96	7.60	-44.8	-57.1	3.8	1.49e+00	0	58	104	1419771904	60	15544
2026-01-09 01:09:32.20	241.73	7.39	-44.9	-57.2	3.8	1.49e+00	0	58	104	1419771904	60	15658
2026-01-09 01:09:35.24	241.51	7.18	-44.8	-57.1	3.8	1.49e+00	0	58	104	1419771904	60	15543
2026-01-09 01:09:38.27	241.28	6.97	-44.8	-57.1	3.8	1.49e+00	0	58	104	1419771904	60	15470
2026-01-09 01:09:41.30	241.06	6.76	-44.8	-57.0	3.8	1.49e+00	0	58	104	1419771904	60	15367
2026-01-09 01:09:44.33	240.84	6.55	-44.8	-57.0	3.8	1.49e+00	0	58	104	1419771904	60	15343
2026-01-09 01:09:47.35	240.63	6.35	-44.7	-57.0	3.8	1.49e+00	0	58	104	1419771904	60	15374
2026-01-09 01:09:50.38	240.42	6.14	-44.8	-57.0	3.8	1.49e+00	0	58	104	1419771904	60	15394
2026-01-09 01:09:53.41	240.21	5.94	-44.8	-57.0	3.8	1.49e+00	0	58	104	1419771904	60	15322
2026-01-09 01:09:56.44	240.01	5.74	-44.7	-57.0	3.8	1.49e+00	0	58	104	1419771904	60	15387
2026-01-09 01:09:59.47	239.80	5.54	-44.8	-57.0	3.8	1.49e+00	0	58	104	1419771904	60	15375
2026-01-09 01:10:02.49	239.61	5.34	-44.7	-57.0	3.8	1.49e+00	0	58	104	1419771904	60	15293
2026-01-09 01:10:05.52	239.41	5.14	-44.7	-57.0	3.8	1.49e+00	0	58	104	1419771904	60	15292
2026-01-09 01:10:08.55	239.22	4.94	-44.7	-57.0	3.8	1.49e+00	0	58	104	1419771904	60	15328
2026-01-09 01:10:11.58	239.02	4.75	-44.7	-57.0	3.8	1.49e+00	0	58	104	1419771904	60	15354
2026-01-09 01:10:14.60	238.84	4.55	-44.7	-57.0	3.8	1.49e+00	0	58	104	1419771904	60	15318
2026-01-09 01:10:17.63	238.65	4.36	-44.7	-57.0	3.8	1.49e+00	0	58	104	1419771904	60	15323
2026-01-09 01:10:20.66	238.47	4.16	-44.7	-57.0	3.8	1.49e+00	0	58	104	1419771904	60	15319
2026-01-09 01:10:23.70	238.29	3.97	-44.7	-57.0	3.8	1.49e+00	0	58	104	1419771904	60	15375
2026-01-09 01:10:26.73	238.11	3.78	-44.7	-57.0	3.8	1.49e+00	0	58	104	1419771904	60	15357
2026-01-09 01:10:29.76	237.93	3.59	-44.7	-57.0	3.8	1.49e+00	0	58	104	1419771904	60	15284
2026-01-09 01:10:32.79	237.76	3.40	-44.7	-57.0	3.8	1.49e+00	0	58	104	1419771904	60	15299
2026-01-09 01:10:35.83	237.59	3.21	-44.7	-57.0	3.8	1.49e+00	0	58	104	1419771904	60	15283
2026-01-09 01:10:38.85	237.42	3.03	-44.7	-57.0	3.8	1.49e+00	0	58	104	1419771904	60	15299
2026-01-09 01:10:41.88	237.25	2.84	-44.7	-57.0	3.8	1.49e+00	0	58	104	1419771904	60	15343
2026-01-09 01:10:44.91	237.09	2.66	-44.7	-57.0	3.8	1.49e+00	0	58	104	1419771904	60	15319
2026-01-09 01:10:47.94	236.92	2.48	-44.7	-57.0	3.8	1.49e+00	0	58	104	1419771904	60	15334
2026-01-09 01:10:50.98	236.76	2.29	-44.7	-57.0	3.8	1.49e+00	0	58	104	1419771904	60	15300
2026-01-09 01:10:54.00	236.60	2.11	-44.7	-57.0	3.8	1.49e+00	0	58	104	1419771904	60	15288

#Closed at: 2026-01-09 01:10:56
#Recorded file [1419 MB]: D:/lorett/data/31039_260109_040100.dat