passes_logs/2026/01/09/R2.0S_Moscow/R2.0S_Moscow__20260109_114008_NOAA_20_JPSS-1_rec.log

#Pass ID: 20260109_114008_NOAA 20 (JPSS-1)
#Satellite: NOAA 20 (JPSS-1)
#Configuration: NOAA 20
#almurnet v.1.7.20251203
#Start time: 2026-01-09 11:40:07

#Version: 2.2.20231116
#Station: R2.0S_Moscow
#Location: 37.707566 lon 55.798166 lat
#TLE: 1 43013U 17073A   26008.42245989  .00000120  00000+0  77990-4 0  9996
#TLE: 2 43013  98.7631 309.4315 0001737  48.7960 311.3365 14.19534455421802

#Time	Az	El	Level	Level2	SNR	BER	BlckErr	Temp	State	Recorded	gain1	gain2
2026-01-09 11:40:07.85	214.24	1.98	-44.0	-58.4	3.8	1.49e+00	0	50	0	0	59	19009
2026-01-09 11:40:10.88	214.48	2.14	-44.0	-58.4	3.8	1.49e+00	0	50	104	0	59	18996
2026-01-09 11:40:13.91	214.73	2.30	-44.0	-58.3	3.8	1.49e+00	0	50	104	0	59	18921
2026-01-09 11:40:16.94	214.98	2.45	-44.0	-58.3	3.8	1.49e+00	0	51	104	0	59	18902
2026-01-09 11:40:19.98	215.24	2.61	-43.9	-58.4	3.8	1.49e+00	0	50	104	0	59	18980
2026-01-09 11:40:23.01	215.49	2.78	-43.9	-58.3	3.8	1.49e+00	0	51	104	0	59	18936
2026-01-09 11:40:26.04	215.75	2.94	-43.9	-58.3	3.8	1.49e+00	0	51	104	0	59	18899
2026-01-09 11:40:29.07	216.01	3.10	-43.9	-58.3	3.8	1.49e+00	0	51	104	0	59	18896
2026-01-09 11:40:32.10	216.27	3.26	-43.9	-58.3	3.8	1.49e+00	0	51	104	0	59	18942
2026-01-09 11:40:35.13	216.54	3.42	-43.9	-58.3	3.8	1.49e+00	0	51	104	0	59	18845
2026-01-09 11:40:38.16	216.81	3.58	-43.9	-58.3	3.8	1.49e+00	0	51	104	0	59	18904
2026-01-09 11:40:41.20	217.08	3.75	-43.9	-58.3	3.8	1.49e+00	0	52	104	0	59	18861
2026-01-09 11:40:44.23	217.36	3.91	-43.9	-58.3	3.8	1.49e+00	0	52	104	0	59	18902
2026-01-09 11:40:47.26	217.63	4.07	-43.9	-58.3	3.8	1.49e+00	0	52	104	0	59	18890
2026-01-09 11:40:50.29	217.92	4.24	-43.9	-58.3	3.8	1.49e+00	0	52	104	0	59	18888
2026-01-09 11:40:53.32	218.20	4.40	-43.9	-58.3	3.8	1.49e+00	0	52	104	0	59	18899
2026-01-09 11:40:56.36	218.49	4.57	-43.9	-58.3	3.8	1.49e+00	0	52	104	0	59	18812
2026-01-09 11:40:59.39	218.78	4.74	-43.9	-58.3	3.8	1.49e+00	0	52	104	0	59	18818
2026-01-09 11:41:02.42	219.07	4.90	-43.9	-58.3	3.8	1.49e+00	0	53	104	0	59	18836
2026-01-09 11:41:05.45	219.37	5.07	-43.9	-58.3	3.8	1.49e+00	0	53	104	0	59	18758
2026-01-09 11:41:08.48	219.67	5.23	-43.9	-58.2	3.8	1.49e+00	0	53	104	0	59	18608
2026-01-09 11:41:11.51	219.97	5.40	-43.9	-58.2	3.8	1.49e+00	0	53	104	0	59	18534
2026-01-09 11:41:14.54	220.28	5.57	-43.9	-58.3	3.8	1.49e+00	0	53	104	0	59	18781
2026-01-09 11:41:17.57	220.59	5.74	-43.9	-58.3	3.8	1.49e+00	0	53	104	0	59	18838
2026-01-09 11:41:20.60	220.90	5.91	-43.9	-58.2	3.8	1.49e+00	0	53	104	0	59	18708
2026-01-09 11:41:23.63	221.22	6.08	-43.9	-58.3	3.8	1.49e+00	0	53	104	0	59	18735
2026-01-09 11:41:26.66	221.54	6.24	-43.9	-58.3	3.8	1.49e+00	0	54	104	0	59	18823
2026-01-09 11:41:29.69	221.86	6.41	-43.9	-58.3	3.8	1.49e+00	0	54	104	0	59	18779
2026-01-09 11:41:32.73	222.19	6.58	-43.9	-58.3	3.8	1.49e+00	0	53	104	0	59	18748
2026-01-09 11:41:35.76	222.52	6.76	-43.9	-58.1	3.8	1.49e+00	0	54	104	0	59	18513
2026-01-09 11:41:38.79	222.86	6.93	-43.9	-58.0	3.8	1.49e+00	0	54	104	0	59	18190
2026-01-09 11:41:41.82	223.20	7.10	-43.9	-57.8	3.8	1.49e+00	0	54	104	0	59	17880
2026-01-09 11:41:44.85	223.54	7.27	-43.9	-57.5	3.8	1.49e+00	0	54	104	0	59	17142
2026-01-09 11:41:47.88	223.89	7.44	-43.8	-56.3	3.8	1.49e+00	0	54	104	0	59	14918
2026-01-09 11:41:50.91	224.24	7.61	-43.6	-53.5	4.7	1.16e+00	0	54	0	1048576	59	10857
2026-01-09 11:41:53.95	224.60	7.78	-43.1	-50.4	6.7	2.54e-01	0	54	0	6291456	58	8024
2026-01-09 11:41:56.98	224.96	7.96	-42.4	-48.1	8.9	3.62e-02	0	54	0	12582912	56	6939
2026-01-09 11:42:00.01	225.32	8.13	-43.5	-53.3	4.7	1.08e+00	0	54	0	15728640	57	11878
2026-01-09 11:42:03.03	225.69	8.30	-41.3	-45.4	11.7	4.14e-04	0	55	0	20971520	53	6016
2026-01-09 11:42:06.06	226.06	8.47	-40.9	-44.4	12.7	6.25e-05	0	54	0	26214400	53	5352
2026-01-09 11:42:09.09	226.43	8.65	-40.8	-44.3	12.8	6.71e-05	0	55	0	32505856	53	5336
2026-01-09 11:42:12.12	226.81	8.82	-40.8	-44.3	12.9	4.42e-05	0	54	0	37748736	53	5298
2026-01-09 11:42:15.14	227.20	8.99	-40.7	-44.0	13.2	2.44e-05	0	54	0	44040192	53	5133
2026-01-09 11:42:18.18	227.59	9.17	-40.6	-43.8	13.4	1.52e-05	0	55	0	49283072	53	5024
2026-01-09 11:42:21.20	227.98	9.34	-40.5	-43.8	13.4	9.90e-06	0	55	0	54525952	53	5003
2026-01-09 11:42:24.23	228.38	9.51	-40.5	-43.8	13.4	9.10e-06	0	55	0	60817408	53	5005
2026-01-09 11:42:27.26	228.78	9.68	-40.5	-43.7	13.5	8.30e-06	0	55	0	66060288	53	4982
2026-01-09 11:42:30.29	229.19	9.86	-40.6	-43.8	13.5	1.37e-05	0	55	0	72351744	53	4999
2026-01-09 11:42:33.32	229.60	10.03	-40.6	-43.8	13.4	1.14e-05	0	55	0	77594624	53	5040
2026-01-09 11:42:36.34	230.02	10.20	-40.7	-43.9	13.4	1.75e-05	0	55	0	82837504	53	5072
2026-01-09 11:42:39.37	230.44	10.38	-40.7	-43.9	13.4	6.80e-06	0	55	0	89128960	53	5083
2026-01-09 11:42:42.40	230.86	10.55	-40.6	-43.9	13.4	1.44e-05	0	55	0	94371840	53	5047
2026-01-09 11:42:45.43	231.30	10.72	-40.5	-43.7	13.6	6.80e-06	0	55	0	100663296	53	4953
2026-01-09 11:42:48.46	231.73	10.89	-40.6	-43.8	13.5	9.90e-06	0	55	0	105906176	53	5035
2026-01-09 11:42:51.49	232.17	11.07	-40.6	-43.9	13.5	1.22e-05	0	55	0	112197632	53	5054
2026-01-09 11:42:54.52	232.62	11.24	-40.6	-43.7	13.7	6.80e-06	0	55	0	117440512	53	4963
2026-01-09 11:42:57.55	233.07	11.41	-40.4	-43.5	13.9	2.20e-06	0	55	0	122683392	52	5108
2026-01-09 11:43:00.58	233.53	11.58	-40.5	-43.5	13.9	8.30e-06	0	55	0	128974848	52	5132
2026-01-09 11:43:03.61	233.99	11.75	-40.5	-43.5	13.9	3.80e-06	0	55	0	134217728	52	5131
2026-01-09 11:43:06.64	234.46	11.92	-40.4	-43.5	14.0	3.80e-06	0	55	0	140509184	52	5109
2026-01-09 11:43:09.66	234.93	12.09	-40.4	-43.4	14.0	3.00e-06	0	55	0	145752064	52	5064
2026-01-09 11:43:12.69	235.40	12.26	-40.4	-43.5	13.9	3.80e-06	0	55	0	150994944	52	5115
2026-01-09 11:43:15.72	235.89	12.43	-40.4	-43.3	14.1	6.10e-06	0	55	0	157286400	52	5033
2026-01-09 11:43:18.75	236.38	12.59	-40.2	-43.0	14.4	7.00e-07	0	56	0	162529280	52	4852
2026-01-09 11:43:21.78	236.87	12.76	-40.2	-43.0	14.5	0.00e+00	0	55	0	168820736	52	4830
2026-01-09 11:43:24.81	237.37	12.93	-40.1	-42.8	14.6	7.00e-07	0	55	0	174063616	52	4753
2026-01-09 11:43:27.83	237.87	13.09	-40.0	-42.7	14.8	0.00e+00	0	56	0	180355072	52	4692
2026-01-09 11:43:30.86	238.38	13.26	-39.9	-42.6	15.0	0.00e+00	0	55	0	185597952	51	4873
2026-01-09 11:43:33.89	238.90	13.42	-39.9	-42.5	15.0	0.00e+00	0	56	0	190840832	51	4867
2026-01-09 11:43:36.91	239.42	13.58	-39.9	-42.5	15.1	0.00e+00	0	56	0	197132288	51	4818
2026-01-09 11:43:39.94	239.94	13.74	-39.8	-42.4	15.2	7.00e-07	0	56	0	202375168	51	4769
2026-01-09 11:43:42.97	240.47	13.90	-39.7	-42.2	15.4	0.00e+00	0	56	0	208666624	51	4656
2026-01-09 11:43:45.99	241.01	14.06	-39.6	-42.1	15.6	0.00e+00	0	56	0	213909504	51	4604
2026-01-09 11:43:49.02	241.55	14.22	-39.7	-42.1	15.5	0.00e+00	0	56	0	219152384	51	4646
2026-01-09 11:43:52.05	242.10	14.37	-39.7	-42.2	15.4	0.00e+00	0	56	0	225443840	51	4700
2026-01-09 11:43:55.08	242.66	14.53	-39.6	-42.1	15.6	0.00e+00	0	56	0	230686720	51	4609
2026-01-09 11:43:58.11	243.22	14.68	-39.6	-42.0	15.6	0.00e+00	0	56	0	236978176	51	4591
2026-01-09 11:44:01.13	243.78	14.83	-39.8	-42.4	15.2	0.00e+00	0	56	0	242221056	51	4776
2026-01-09 11:44:04.16	244.35	14.98	-40.0	-42.6	15.1	0.00e+00	0	56	0	248512512	51	4883
2026-01-09 11:44:07.19	244.93	15.13	-40.0	-42.5	15.1	0.00e+00	0	56	0	253755392	51	4870
2026-01-09 11:44:10.22	245.51	15.27	-40.0	-42.7	15.0	0.00e+00	0	56	0	258998272	51	4949
2026-01-09 11:44:13.24	246.10	15.42	-40.3	-43.1	14.6	0.00e+00	0	56	0	265289728	51	5176
2026-01-09 11:44:16.27	246.69	15.56	-40.4	-43.2	14.4	7.00e-07	0	56	0	270532608	51	5259
2026-01-09 11:44:19.30	247.29	15.70	-40.5	-43.4	14.2	1.50e-06	0	56	0	276824064	51	5370
2026-01-09 11:44:22.33	247.89	15.84	-40.5	-43.4	14.3	1.50e-06	0	56	0	282066944	51	5368
2026-01-09 11:44:25.36	248.50	15.97	-40.6	-43.5	14.1	7.00e-07	0	56	0	287309824	51	5464
2026-01-09 11:44:28.39	249.12	16.11	-40.6	-43.7	13.9	3.00e-06	0	56	0	293601280	52	5240
2026-01-09 11:44:31.41	249.73	16.24	-40.7	-43.8	13.8	1.50e-06	0	56	0	298844160	52	5289
2026-01-09 11:44:34.44	250.36	16.36	-40.8	-43.9	13.6	5.30e-06	0	56	0	305135616	52	5398
2026-01-09 11:44:37.47	250.99	16.49	-41.0	-44.4	13.2	2.13e-05	0	56	0	310378496	52	5692
2026-01-09 11:44:40.50	251.63	16.61	-41.1	-44.5	13.1	3.50e-05	0	56	0	316669952	52	5748
2026-01-09 11:44:43.53	252.27	16.73	-40.8	-44.0	13.6	1.52e-05	0	56	0	321912832	52	5453
2026-01-09 11:44:46.56	252.91	16.85	-40.8	-43.9	13.7	8.30e-06	0	56	0	327155712	52	5370
2026-01-09 11:44:49.59	253.56	16.96	-40.7	-43.7	13.8	1.50e-06	0	56	0	333447168	52	5278
2026-01-09 11:44:52.61	254.21	17.08	-40.7	-43.8	13.8	4.50e-06	0	56	0	338690048	52	5300
2026-01-09 11:44:55.64	254.87	17.18	-40.4	-43.4	14.3	0.00e+00	0	56	0	344981504	52	5047
2026-01-09 11:44:58.67	255.54	17.29	-40.2	-43.0	14.7	0.00e+00	0	56	0	350224384	52	4817
2026-01-09 11:45:01.70	256.21	17.39	-40.1	-42.8	14.8	1.50e-06	0	56	0	355467264	52	4748
2026-01-09 11:45:04.73	256.88	17.49	-40.1	-42.8	14.8	0.00e+00	0	56	0	361758720	52	4727
2026-01-09 11:45:07.75	257.55	17.58	-40.1	-42.8	14.8	0.00e+00	0	56	0	367001600	52	4716
2026-01-09 11:45:10.78	258.23	17.67	-40.1	-42.7	14.9	7.00e-07	0	56	0	373293056	52	4690
2026-01-09 11:45:13.81	258.92	17.76	-40.2	-42.9	14.7	0.00e+00	0	56	0	378535936	52	4806
2026-01-09 11:45:16.84	259.61	17.85	-40.3	-43.1	14.5	7.00e-07	0	56	0	383778816	52	4924
2026-01-09 11:45:19.87	260.30	17.93	-40.3	-43.1	14.5	7.00e-07	0	56	0	390070272	52	4915
2026-01-09 11:45:22.89	260.99	18.00	-40.2	-42.9	14.7	0.00e+00	0	56	0	395313152	52	4808
2026-01-09 11:45:25.92	261.69	18.08	-40.1	-42.8	14.7	0.00e+00	0	56	0	401604608	52	4758
2026-01-09 11:45:28.95	262.39	18.14	-40.3	-43.1	14.6	0.00e+00	0	56	0	406847488	52	4875
2026-01-09 11:45:31.98	263.10	18.21	-40.3	-43.2	14.5	7.00e-07	0	56	0	413138944	52	4932
2026-01-09 11:45:35.00	263.80	18.27	-40.3	-43.1	14.6	7.00e-07	0	56	0	418381824	52	4873
2026-01-09 11:45:38.03	264.52	18.33	-40.3	-43.0	14.6	0.00e+00	0	56	0	423624704	52	4863
2026-01-09 11:45:41.06	265.23	18.38	-40.2	-43.0	14.6	0.00e+00	0	56	0	429916160	52	4824
2026-01-09 11:45:44.09	265.94	18.43	-40.1	-42.8	14.8	7.00e-07	0	56	0	435159040	52	4752
2026-01-09 11:45:47.11	266.66	18.47	-40.2	-42.9	14.8	0.00e+00	0	57	0	441450496	52	4770
2026-01-09 11:45:50.14	267.38	18.51	-40.4	-43.2	14.4	7.00e-07	0	56	0	446693376	52	4953
2026-01-09 11:45:53.17	268.10	18.54	-40.3	-43.1	14.5	7.00e-07	0	56	0	451936256	52	4895
2026-01-09 11:45:56.20	268.82	18.58	-40.3	-43.2	14.5	0.00e+00	0	56	0	458227712	52	4929
2026-01-09 11:45:59.23	269.54	18.60	-40.4	-43.3	14.4	7.00e-07	0	56	0	463470592	52	4988
2026-01-09 11:46:02.26	270.27	18.62	-40.6	-43.6	14.1	7.00e-07	0	57	0	469762048	52	5167
2026-01-09 11:46:05.29	270.99	18.64	-40.6	-43.6	14.0	2.20e-06	0	56	0	475004928	52	5204
2026-01-09 11:46:08.31	271.72	18.65	-40.3	-43.2	14.5	0.00e+00	0	57	0	481296384	52	4939
2026-01-09 11:46:11.34	272.44	18.66	-40.3	-43.1	14.6	0.00e+00	0	57	0	486539264	52	4876
2026-01-09 11:46:14.37	273.17	18.67	-40.6	-43.5	14.1	1.50e-06	0	57	0	491782144	52	5155
2026-01-09 11:46:17.40	273.90	18.67	-40.7	-43.8	13.8	4.50e-06	0	57	0	498073600	52	5305
2026-01-09 11:46:20.43	274.63	18.66	-40.5	-43.5	14.2	3.80e-06	0	57	0	503316480	52	5119
2026-01-09 11:46:23.46	275.35	18.65	-40.5	-43.4	14.2	2.20e-06	0	57	0	509607936	52	5091
2026-01-09 11:46:26.49	276.08	18.64	-40.5	-43.5	14.1	4.50e-06	0	56	0	514850816	52	5111
2026-01-09 11:46:29.51	276.80	18.62	-40.5	-43.4	14.2	1.50e-06	0	56	0	520093696	52	5059
2026-01-09 11:46:32.54	277.52	18.60	-40.4	-43.3	14.3	1.50e-06	0	56	0	526385152	52	5014
2026-01-09 11:46:35.57	278.25	18.57	-40.3	-43.1	14.5	0.00e+00	0	56	0	531628032	52	4908
2026-01-09 11:46:38.60	278.97	18.54	-40.3	-43.1	14.5	0.00e+00	0	57	0	537919488	52	4913
2026-01-09 11:46:41.62	279.69	18.50	-40.3	-43.1	14.5	0.00e+00	0	56	0	543162368	52	4889
2026-01-09 11:46:44.66	280.41	18.46	-40.3	-43.1	14.5	0.00e+00	0	57	0	549453824	52	4889
2026-01-09 11:46:47.69	281.12	18.42	-40.5	-43.4	14.2	0.00e+00	0	57	0	554696704	52	5087
2026-01-09 11:46:50.71	281.83	18.37	-40.4	-43.4	14.2	2.20e-06	0	57	0	559939584	52	5047
2026-01-09 11:46:53.74	282.54	18.32	-40.1	-42.8	14.8	0.00e+00	0	57	0	566231040	52	4748
2026-01-09 11:46:56.77	283.25	18.26	-40.1	-42.7	15.0	0.00e+00	0	57	0	571473920	51	4950
2026-01-09 11:46:59.80	283.96	18.20	-40.2	-42.9	14.8	7.00e-07	0	57	0	577765376	51	5094
2026-01-09 11:47:02.82	284.66	18.14	-40.2	-42.9	14.8	0.00e+00	0	57	0	583008256	51	5062
2026-01-09 11:47:05.85	285.36	18.07	-40.2	-42.9	14.8	0.00e+00	0	56	0	588251136	51	5046
2026-01-09 11:47:08.88	286.06	17.99	-40.0	-42.5	15.1	0.00e+00	0	57	0	594542592	51	4868
2026-01-09 11:47:11.91	286.75	17.92	-39.7	-42.2	15.5	0.00e+00	0	56	0	599785472	51	4665
2026-01-09 11:47:14.94	287.44	17.84	-39.7	-42.1	15.6	0.00e+00	0	57	0	606076928	51	4636
2026-01-09 11:47:17.97	288.13	17.75	-39.6	-42.1	15.6	0.00e+00	0	57	0	611319808	51	4618
2026-01-09 11:47:21.00	288.81	17.67	-39.8	-42.4	15.3	0.00e+00	0	57	0	617611264	51	4773
2026-01-09 11:47:24.03	289.49	17.57	-39.9	-42.5	15.2	0.00e+00	0	57	0	622854144	51	4827
2026-01-09 11:47:27.06	290.16	17.48	-39.9	-42.4	15.2	0.00e+00	0	57	0	628097024	51	4794
2026-01-09 11:47:30.09	290.83	17.38	-39.7	-42.2	15.5	0.00e+00	0	57	0	634388480	51	4670
2026-01-09 11:47:33.12	291.49	17.28	-39.5	-41.9	15.8	0.00e+00	0	57	0	639631360	51	4508
2026-01-09 11:47:36.14	292.15	17.18	-39.3	-41.6	16.1	0.00e+00	0	56	0	645922816	50	4600
2026-01-09 11:47:39.17	292.81	17.07	-39.2	-41.5	16.1	0.00e+00	0	57	0	651165696	50	4572
2026-01-09 11:47:42.21	293.46	16.96	-39.4	-41.8	15.9	0.00e+00	0	56	0	656408576	50	4727
2026-01-09 11:47:45.23	294.11	16.84	-39.4	-41.7	15.9	0.00e+00	0	57	0	662700032	50	4690
2026-01-09 11:47:48.26	294.75	16.73	-39.2	-41.5	16.2	0.00e+00	0	57	0	667942912	50	4556
2026-01-09 11:47:51.29	295.39	16.61	-39.1	-41.3	16.4	0.00e+00	0	57	0	674234368	50	4466
2026-01-09 11:47:54.32	296.02	16.48	-38.9	-41.1	16.5	0.00e+00	0	56	0	679477248	49	4600
2026-01-09 11:47:57.34	296.65	16.36	-39.3	-41.6	16.0	0.00e+00	0	57	0	685768704	49	4913
2026-01-09 11:48:00.37	297.27	16.23	-39.4	-41.9	15.7	0.00e+00	0	57	0	691011584	49	5048
2026-01-09 11:48:03.40	297.88	16.10	-39.3	-41.7	15.9	0.00e+00	0	57	0	696254464	49	4945
2026-01-09 11:48:06.43	298.50	15.97	-39.3	-41.7	15.9	0.00e+00	0	57	0	702545920	49	4944
2026-01-09 11:48:09.46	299.10	15.84	-39.3	-41.6	16.0	0.00e+00	0	57	0	707788800	49	4915
2026-01-09 11:48:12.49	299.70	15.70	-39.4	-41.8	15.8	0.00e+00	0	57	0	714080256	49	4984
2026-01-09 11:48:15.51	300.30	15.56	-40.0	-42.6	15.0	0.00e+00	0	57	0	719323136	50	5208
2026-01-09 11:48:18.54	300.88	15.42	-40.5	-43.4	14.1	7.00e-07	0	57	0	724566016	51	5384
2026-01-09 11:48:21.57	301.47	15.28	-40.6	-43.7	13.9	4.50e-06	0	57	0	730857472	51	5558
2026-01-09 11:48:24.60	302.05	15.13	-40.6	-43.7	13.7	4.50e-06	0	57	0	736100352	52	5275
2026-01-09 11:48:27.63	302.62	14.98	-40.5	-43.6	13.9	4.50e-06	0	57	0	742391808	52	5160
2026-01-09 11:48:30.66	303.19	14.84	-40.3	-43.2	14.3	1.50e-06	0	57	0	747634688	52	4965
2026-01-09 11:48:33.69	303.75	14.69	-40.4	-43.3	14.1	0.00e+00	0	57	0	752877568	52	5030
2026-01-09 11:48:36.71	304.31	14.53	-40.6	-43.7	13.7	4.50e-06	0	57	0	759169024	52	5259
2026-01-09 11:48:39.74	304.86	14.38	-40.8	-44.0	13.4	1.29e-05	0	57	0	764411904	52	5441
2026-01-09 11:48:42.77	305.40	14.23	-40.9	-44.2	13.3	2.05e-05	0	57	0	770703360	52	5545
2026-01-09 11:48:45.80	305.94	14.07	-41.0	-44.4	13.1	3.66e-05	0	57	0	775946240	52	5660
2026-01-09 11:48:48.83	306.48	13.91	-40.8	-44.0	13.4	1.83e-05	0	57	0	782237696	52	5452
2026-01-09 11:48:51.86	307.01	13.76	-40.7	-43.8	13.6	6.80e-06	0	57	0	787480576	52	5335
2026-01-09 11:48:54.88	307.53	13.60	-40.6	-43.8	13.7	9.10e-06	0	57	0	792723456	52	5281
2026-01-09 11:48:57.91	308.05	13.44	-40.4	-43.4	14.0	3.00e-06	0	57	0	799014912	52	5063
2026-01-09 11:49:00.94	308.56	13.27	-40.1	-42.9	14.5	7.00e-07	0	57	0	804257792	52	4798
2026-01-09 11:49:03.97	309.07	13.11	-40.1	-42.9	14.5	0.00e+00	0	57	0	810549248	52	4780
2026-01-09 11:49:07.00	309.57	12.95	-40.2	-43.1	14.3	7.00e-07	0	57	0	815792128	52	4886
2026-01-09 11:49:10.03	310.06	12.78	-40.4	-43.4	14.0	3.00e-06	0	57	0	821035008	52	5091
2026-01-09 11:49:13.05	310.55	12.62	-40.8	-44.1	13.3	1.67e-05	0	57	0	827326464	52	5507
2026-01-09 11:49:16.08	311.04	12.45	-40.7	-44.0	13.3	1.83e-05	0	57	0	832569344	52	5444
2026-01-09 11:49:19.11	311.52	12.29	-40.2	-43.1	14.3	1.50e-06	0	57	0	838860800	52	4884
2026-01-09 11:49:22.14	311.99	12.12	-39.9	-42.6	14.9	0.00e+00	0	57	0	844103680	51	4877
2026-01-09 11:49:25.16	312.46	11.95	-39.9	-42.6	14.8	0.00e+00	0	57	0	850395136	51	4917
2026-01-09 11:49:28.20	312.93	11.78	-40.0	-42.8	14.5	8.30e-06	0	57	0	855638016	51	5022
2026-01-09 11:49:31.22	313.39	11.62	-40.1	-42.9	14.5	7.00e-07	0	57	0	860880896	51	5079
2026-01-09 11:49:34.25	313.84	11.45	-40.1	-42.9	14.5	1.50e-06	0	57	0	867172352	51	5085
2026-01-09 11:49:37.28	314.29	11.28	-40.3	-43.2	14.2	7.00e-07	0	57	0	872415232	51	5238
2026-01-09 11:49:40.31	314.73	11.11	-40.2	-43.1	14.3	2.20e-06	0	57	0	878706688	51	5218
2026-01-09 11:49:43.34	315.17	10.94	-40.0	-42.7	14.7	7.00e-07	0	57	0	883949568	51	4973
2026-01-09 11:49:46.36	315.60	10.77	-39.9	-42.6	14.8	0.00e+00	0	57	0	889192448	51	4904
2026-01-09 11:49:49.39	316.03	10.60	-40.2	-43.0	14.4	0.00e+00	0	57	0	895483904	51	5148
2026-01-09 11:49:52.42	316.46	10.43	-40.4	-43.4	14.0	2.20e-06	0	57	0	900726784	51	5372
2026-01-09 11:49:55.45	316.88	10.25	-40.2	-43.2	14.2	3.00e-06	0	57	0	907018240	51	5225
2026-01-09 11:49:58.47	317.29	10.08	-40.1	-43.0	14.4	0.00e+00	0	57	0	912261120	51	5108
2026-01-09 11:50:01.50	317.70	9.91	-40.2	-43.2	14.2	1.50e-06	0	57	0	918552576	51	5241
2026-01-09 11:50:04.53	318.11	9.74	-40.6	-43.7	13.6	8.30e-06	0	57	0	923795456	51	5583
2026-01-09 11:50:07.56	318.51	9.57	-40.6	-43.9	13.4	1.37e-05	0	57	0	929038336	51	5673
2026-01-09 11:50:10.59	318.91	9.40	-40.3	-43.3	13.9	5.30e-06	0	57	0	935329792	51	5333
2026-01-09 11:50:13.61	319.30	9.23	-40.2	-43.2	14.1	2.20e-06	0	57	0	940572672	51	5243
2026-01-09 11:50:16.64	319.68	9.06	-40.4	-43.4	13.8	6.10e-06	0	57	0	946864128	51	5385
2026-01-09 11:50:19.67	320.07	8.89	-40.5	-43.8	13.5	7.60e-06	0	57	0	952107008	51	5607
2026-01-09 11:50:22.70	320.45	8.71	-40.6	-43.9	13.3	1.98e-05	0	57	0	957349888	51	5668
2026-01-09 11:50:25.73	320.82	8.54	-40.6	-43.9	13.3	1.52e-05	0	57	0	963641344	51	5684
2026-01-09 11:50:28.76	321.19	8.37	-40.7	-44.0	13.2	2.05e-05	0	57	0	968884224	51	5758
2026-01-09 11:50:31.78	321.56	8.20	-40.7	-44.3	12.8	5.95e-05	0	57	0	975175680	52	5600
2026-01-09 11:50:34.81	321.92	8.03	-40.9	-44.6	12.2	5.19e-04	0	57	0	980418560	52	5824
2026-01-09 11:50:37.84	322.28	7.86	-44.4	-58.9	3.8	1.49e+00	0	57	104	982515712	59	20108
2026-01-09 11:50:40.87	322.63	7.69	-44.9	-59.5	3.8	1.49e+00	0	57	104	982515712	60	20305
2026-01-09 11:50:43.90	322.98	7.52	-45.0	-59.5	3.8	1.49e+00	0	57	104	982515712	60	20466
2026-01-09 11:50:46.93	323.33	7.35	-44.9	-59.4	3.8	1.49e+00	0	57	104	982515712	60	20187
2026-01-09 11:50:49.96	323.67	7.18	-44.9	-59.4	3.8	1.49e+00	0	57	104	982515712	60	20138
2026-01-09 11:50:52.99	324.01	7.01	-44.8	-59.3	3.8	1.49e+00	0	57	104	982515712	60	19909
2026-01-09 11:50:56.02	324.35	6.85	-44.9	-59.3	3.8	1.49e+00	0	57	104	982515712	60	19965
2026-01-09 11:50:59.05	324.68	6.68	-44.9	-59.3	3.8	1.49e+00	0	57	104	982515712	60	19967
2026-01-09 11:51:02.08	325.01	6.51	-44.9	-59.4	3.8	1.49e+00	0	57	104	982515712	60	20103
2026-01-09 11:51:05.11	325.33	6.34	-44.9	-59.3	3.8	1.49e+00	0	57	104	982515712	60	19992
2026-01-09 11:51:08.14	325.65	6.18	-44.9	-59.3	3.8	1.49e+00	0	57	104	982515712	60	19978
2026-01-09 11:51:11.17	325.97	6.01	-44.9	-59.3	3.8	1.49e+00	0	57	104	982515712	60	19975
2026-01-09 11:51:14.20	326.28	5.84	-44.9	-59.3	3.8	1.49e+00	0	57	104	982515712	60	19966
2026-01-09 11:51:17.23	326.59	5.68	-44.9	-59.3	3.8	1.49e+00	0	57	104	982515712	60	20005
2026-01-09 11:51:20.26	326.90	5.51	-44.9	-59.3	3.8	1.49e+00	0	57	104	982515712	60	19947
2026-01-09 11:51:23.29	327.20	5.34	-44.8	-59.3	3.8	1.49e+00	0	57	104	982515712	60	19972
2026-01-09 11:51:26.32	327.50	5.18	-44.8	-59.3	3.8	1.49e+00	0	57	104	982515712	60	19880
2026-01-09 11:51:29.35	327.80	5.01	-44.9	-59.3	3.8	1.49e+00	0	57	104	982515712	60	19959
2026-01-09 11:51:32.38	328.09	4.85	-44.8	-59.3	3.8	1.49e+00	0	57	104	982515712	60	19942
2026-01-09 11:51:35.41	328.39	4.69	-44.8	-59.3	3.8	1.49e+00	0	57	104	982515712	60	19915
2026-01-09 11:51:38.45	328.67	4.52	-44.8	-59.2	3.8	1.49e+00	0	57	104	982515712	60	19781
2026-01-09 11:51:41.47	328.96	4.36	-44.8	-59.3	3.8	1.49e+00	0	57	104	982515712	60	19891
2026-01-09 11:51:44.51	329.24	4.20	-44.8	-59.3	3.8	1.49e+00	0	57	104	982515712	60	19851
2026-01-09 11:51:47.54	329.52	4.04	-44.8	-59.3	3.8	1.49e+00	0	57	104	982515712	60	19869
2026-01-09 11:51:50.57	329.80	3.87	-44.8	-59.3	3.8	1.49e+00	0	57	104	982515712	60	19869
2026-01-09 11:51:53.60	330.07	3.71	-44.8	-59.3	3.8	1.49e+00	0	57	104	982515712	60	19850
2026-01-09 11:51:56.63	330.34	3.55	-44.8	-59.3	3.8	1.49e+00	0	57	104	982515712	60	19860
2026-01-09 11:51:59.67	330.61	3.39	-44.8	-59.2	3.8	1.49e+00	0	57	104	982515712	60	19764
2026-01-09 11:52:02.70	330.87	3.23	-44.8	-59.2	3.8	1.49e+00	0	57	104	982515712	60	19783
2026-01-09 11:52:05.73	331.13	3.07	-44.8	-59.3	3.8	1.49e+00	0	57	104	982515712	60	19865
2026-01-09 11:52:08.76	331.39	2.91	-44.8	-59.2	3.8	1.49e+00	0	57	104	982515712	60	19826
2026-01-09 11:52:11.79	331.65	2.76	-44.8	-59.2	3.8	1.49e+00	0	57	104	982515712	60	19693
2026-01-09 11:52:14.82	331.90	2.60	-44.8	-59.2	3.8	1.49e+00	0	57	104	982515712	60	19803
2026-01-09 11:52:17.86	332.16	2.44	-44.6	-59.2	3.8	1.49e+00	0	57	104	982515712	60	19804
2026-01-09 11:52:20.89	332.41	2.28	-44.8	-59.2	3.8	1.49e+00	0	57	104	982515712	60	19831
2026-01-09 11:52:23.92	332.65	2.13	-44.8	-59.2	3.8	1.49e+00	0	57	104	982515712	60	19742
2026-01-09 11:52:26.95	332.90	1.97	-44.8	-59.2	3.8	1.49e+00	0	57	104	982515712	60	19731

#Closed at: 2026-01-09 11:52:28
#Recorded file [982 MB]: D:/lorett/data/31039_260109_144007.dat