passes_logs/2026/01/09/R2.0S_Moscow/R2.0S_Moscow__20260109_232726_FENGYUN_3G_rec.log

#Pass ID: 20260109_232726_FENGYUN 3G
#Satellite: FENGYUN 3G
#Configuration: FENGYUN 3G
#almurnet v.1.7.20251203
#Start time: 2026-01-09 23:27:26

#Version: 2.2.20231116
#Station: R2.0S_Moscow
#Location: 37.707566 lon 55.798166 lat
#TLE: 1 56232U 23055A   26009.25964270  .00031369  00000+0  49445-3 0  9995
#TLE: 2 56232  49.9935  85.5429 0004254   0.7108 359.3865 15.53213378155304

#Time	Az	El	Level	Level2	SNR	BER	BlckErr	Temp	State	Recorded	gain1	gain2
2026-01-09 23:27:26.93	213.85	2.03	-43.3	-61.7	3.8	8.47e-01	0	47	0	0	58	29435
2026-01-09 23:27:28.95	213.64	2.15	-43.3	-61.7	3.8	8.46e-01	0	47	104	0	58	29429
2026-01-09 23:27:30.97	213.42	2.27	-43.3	-61.7	3.8	8.46e-01	0	47	104	0	58	29391
2026-01-09 23:27:32.99	213.21	2.39	-43.4	-61.7	3.8	8.46e-01	0	47	104	0	58	29447
2026-01-09 23:27:35.01	212.99	2.51	-43.3	-61.7	3.8	8.47e-01	0	47	104	0	58	29491
2026-01-09 23:27:37.03	212.77	2.64	-43.3	-61.7	3.8	8.46e-01	0	48	104	0	58	29430
2026-01-09 23:27:39.05	212.55	2.76	-43.3	-61.7	3.8	8.46e-01	0	48	104	0	58	29435
2026-01-09 23:27:41.07	212.32	2.88	-43.3	-61.6	3.8	8.47e-01	0	48	104	0	58	29344
2026-01-09 23:27:43.09	212.10	3.00	-43.3	-61.7	3.8	8.46e-01	0	48	104	0	58	29373
2026-01-09 23:27:45.11	211.86	3.13	-43.3	-61.7	3.8	8.47e-01	0	48	104	0	58	29351
2026-01-09 23:27:47.13	211.63	3.25	-43.3	-61.7	3.8	8.45e-01	0	48	104	0	58	29394
2026-01-09 23:27:49.15	211.39	3.38	-43.3	-61.7	3.8	8.45e-01	0	48	104	0	58	29371
2026-01-09 23:27:51.16	211.16	3.50	-43.3	-61.7	3.8	8.46e-01	0	48	104	0	58	29380
2026-01-09 23:27:53.19	210.91	3.63	-43.3	-61.7	3.8	8.46e-01	0	49	104	0	58	29428
2026-01-09 23:27:55.20	210.67	3.75	-43.3	-61.7	3.8	8.45e-01	0	49	104	0	58	29366
2026-01-09 23:27:57.22	210.42	3.88	-43.3	-61.7	3.8	8.47e-01	0	49	104	0	58	29420
2026-01-09 23:27:59.24	210.17	4.01	-43.3	-61.7	3.8	8.48e-01	0	49	104	0	58	29394
2026-01-09 23:28:01.25	209.91	4.14	-43.3	-61.7	3.8	8.47e-01	0	49	104	0	58	29405
2026-01-09 23:28:03.27	209.66	4.26	-43.3	-61.6	3.8	8.46e-01	0	49	104	0	58	29316
2026-01-09 23:28:05.29	209.39	4.39	-43.3	-61.6	3.8	8.47e-01	0	50	104	0	58	29235
2026-01-09 23:28:07.31	209.13	4.52	-43.3	-61.6	3.8	8.47e-01	0	49	104	0	58	29171
2026-01-09 23:28:09.33	208.86	4.65	-43.3	-61.6	3.8	8.45e-01	0	50	104	0	58	29108
2026-01-09 23:28:11.35	208.59	4.78	-43.3	-61.6	3.8	8.46e-01	0	50	104	0	58	29120
2026-01-09 23:28:13.36	208.32	4.91	-43.3	-61.6	3.8	8.46e-01	0	50	104	0	58	29286
2026-01-09 23:28:15.37	208.04	5.05	-43.3	-61.6	3.8	8.47e-01	0	50	104	0	58	29225
2026-01-09 23:28:17.39	207.76	5.18	-43.3	-61.7	3.8	8.47e-01	0	50	104	0	58	29371
2026-01-09 23:28:19.41	207.47	5.31	-43.3	-61.7	3.8	8.47e-01	0	50	104	0	58	29404
2026-01-09 23:28:21.43	207.18	5.44	-43.3	-61.6	3.8	8.47e-01	0	50	104	0	58	29277
2026-01-09 23:28:23.45	206.89	5.58	-43.3	-61.6	3.8	8.46e-01	0	50	104	0	58	29048
2026-01-09 23:28:25.47	206.59	5.71	-43.3	-61.5	3.8	8.45e-01	0	50	104	0	58	28859
2026-01-09 23:28:27.49	206.29	5.85	-43.3	-61.6	3.8	8.45e-01	0	51	104	0	58	29155
2026-01-09 23:28:29.51	205.98	5.98	-43.3	-61.6	3.8	8.46e-01	0	51	104	0	58	29272
2026-01-09 23:28:31.52	205.68	6.12	-43.3	-61.2	3.8	8.47e-01	0	51	104	0	58	27934
2026-01-09 23:28:33.54	205.36	6.25	-43.3	-59.9	3.8	8.45e-01	0	51	104	0	58	24079
2026-01-09 23:28:35.56	205.05	6.39	-43.2	-58.8	4.1	8.45e-01	0	51	0	0	58	21093
2026-01-09 23:28:37.57	204.73	6.52	-43.2	-58.7	4.1	8.43e-01	0	51	104	0	58	20951
2026-01-09 23:28:39.59	204.40	6.66	-43.2	-58.6	4.1	8.44e-01	0	51	104	0	58	20775
2026-01-09 23:28:41.61	204.07	6.80	-43.2	-58.8	4.1	8.41e-01	0	51	0	0	58	21060
2026-01-09 23:28:43.62	203.74	6.94	-43.3	-60.8	3.8	8.43e-01	0	51	104	0	58	26693
2026-01-09 23:28:45.64	203.40	7.08	-43.3	-60.2	3.8	8.47e-01	0	51	104	0	58	24712
2026-01-09 23:28:47.66	203.06	7.22	-42.9	-53.8	6.6	8.16e-01	0	51	0	0	57	12542
2026-01-09 23:28:49.67	202.71	7.35	-42.6	-51.3	9.0	2.27e-01	0	51	0	2621440	57	9419
2026-01-09 23:28:51.69	202.36	7.49	-42.7	-51.8	8.7	2.53e-02	0	52	0	4718592	57	9959
2026-01-09 23:28:53.71	202.00	7.63	-43.1	-56.5	4.8	1.71e-01	0	52	0	6291456	57	17215
2026-01-09 23:28:55.72	201.64	7.77	-42.6	-51.5	8.6	7.62e-01	0	52	0	7340032	57	9664
2026-01-09 23:28:57.74	201.27	7.92	-41.3	-46.6	13.7	3.53e-03	0	52	0	9961472	54	6570
2026-01-09 23:28:59.76	200.90	8.06	-42.2	-49.4	11.8	3.40e-06	0	52	0	12058624	54	9037
2026-01-09 23:29:01.77	200.53	8.20	-40.5	-44.9	15.7	5.75e-02	0	52	0	14155776	52	6048
2026-01-09 23:29:03.79	200.14	8.34	-43.0	-56.0	6.8	0.00e+00	0	52	0	16777216	56	17099
2026-01-09 23:29:05.81	199.76	8.48	-39.6	-42.7	18.0	4.65e-01	0	52	0	17825792	51	4977
2026-01-09 23:29:07.82	199.37	8.62	-39.4	-42.5	18.5	0.00e+00	0	52	0	19922944	50	5127
2026-01-09 23:29:09.84	198.97	8.77	-39.7	-42.9	18.1	0.00e+00	0	52	0	22020096	50	5347
2026-01-09 23:29:11.85	198.57	8.91	-39.4	-42.4	18.5	0.00e+00	0	52	0	24117248	50	5075
2026-01-09 23:29:13.86	198.16	9.05	-39.4	-42.3	18.7	0.00e+00	0	52	0	26738688	50	5029
2026-01-09 23:29:15.88	197.75	9.19	-39.2	-42.1	19.0	0.00e+00	0	52	0	28835840	50	4908
2026-01-09 23:29:17.89	197.33	9.34	-39.1	-41.9	19.1	0.00e+00	0	52	0	30932992	50	4793
2026-01-09 23:29:19.90	196.91	9.48	-38.9	-41.6	19.4	0.00e+00	0	52	0	33554432	49	4879
2026-01-09 23:29:21.92	196.48	9.62	-39.1	-41.8	19.2	0.00e+00	0	52	0	35651584	49	5039
2026-01-09 23:29:23.93	196.04	9.77	-39.2	-42.0	19.1	0.00e+00	0	53	0	37748736	49	5117
2026-01-09 23:29:25.95	195.60	9.91	-39.4	-42.3	18.8	0.00e+00	0	52	0	40370176	49	5336
2026-01-09 23:29:27.96	195.15	10.05	-39.2	-42.1	19.1	0.00e+00	0	53	0	42467328	49	5171
2026-01-09 23:29:29.98	194.70	10.20	-39.0	-41.7	19.5	0.00e+00	0	53	0	44564480	49	4940
2026-01-09 23:29:32.00	194.24	10.34	-38.5	-41.0	20.2	0.00e+00	0	53	0	47185920	49	4557
2026-01-09 23:29:34.01	193.78	10.48	-38.6	-41.1	20.1	0.00e+00	0	53	0	49283072	48	4906
2026-01-09 23:29:36.03	193.30	10.62	-38.7	-41.3	20.0	0.00e+00	0	53	0	51380224	48	4993
2026-01-09 23:29:38.04	192.83	10.77	-39.0	-41.6	19.6	0.00e+00	0	53	0	54001664	48	5215
2026-01-09 23:29:40.06	192.34	10.91	-38.8	-41.4	19.8	0.00e+00	0	53	0	56098816	48	5088
2026-01-09 23:29:42.07	191.85	11.05	-38.7	-41.3	20.0	0.00e+00	0	53	0	58195968	48	5003
2026-01-09 23:29:44.08	191.36	11.19	-38.6	-41.1	20.1	0.00e+00	0	53	0	60817408	48	4926
2026-01-09 23:29:46.10	190.86	11.33	-38.6	-41.2	20.1	0.00e+00	0	53	0	62914560	48	4929
2026-01-09 23:29:48.11	190.35	11.47	-38.4	-40.8	20.4	0.00e+00	0	53	0	65011712	48	4751
2026-01-09 23:29:50.13	189.83	11.61	-38.3	-40.6	20.7	0.00e+00	0	53	0	67633152	48	4644
2026-01-09 23:29:52.14	189.31	11.75	-38.4	-40.8	20.5	0.00e+00	0	53	0	69730304	48	4726
2026-01-09 23:29:54.15	188.78	11.89	-38.5	-40.9	20.5	0.00e+00	0	53	0	71827456	48	4772
2026-01-09 23:29:56.17	188.25	12.03	-38.6	-41.1	20.2	0.00e+00	0	53	0	74448896	48	4918
2026-01-09 23:29:58.18	187.71	12.16	-38.6	-41.0	20.3	0.00e+00	0	53	0	76546048	48	4868
2026-01-09 23:30:00.19	187.16	12.30	-38.5	-40.9	20.4	0.00e+00	0	54	0	78643200	48	4806
2026-01-09 23:30:02.21	186.61	12.43	-38.3	-40.7	20.7	0.00e+00	0	53	0	81264640	48	4666
2026-01-09 23:30:04.22	186.05	12.57	-38.4	-40.8	20.6	0.00e+00	0	54	0	83361792	48	4730
2026-01-09 23:30:06.23	185.48	12.70	-38.4	-40.8	20.6	0.00e+00	0	53	0	85458944	48	4713
2026-01-09 23:30:08.25	184.90	12.83	-38.4	-40.7	20.6	0.00e+00	0	53	0	88080384	48	4696
2026-01-09 23:30:10.27	184.32	12.96	-38.4	-40.8	20.6	0.00e+00	0	54	0	90177536	48	4708
2026-01-09 23:30:12.29	183.73	13.09	-38.4	-40.8	20.6	0.00e+00	0	53	0	92274688	48	4734
2026-01-09 23:30:14.30	183.14	13.22	-38.1	-40.4	21.0	0.00e+00	0	54	0	94896128	48	4513
2026-01-09 23:30:16.32	182.53	13.35	-38.0	-40.2	21.2	0.00e+00	0	53	0	96993280	47	4691
2026-01-09 23:30:18.34	181.93	13.47	-37.9	-40.1	21.3	0.00e+00	0	54	0	99090432	47	4633
2026-01-09 23:30:20.35	181.31	13.59	-37.9	-40.1	21.2	0.00e+00	0	54	0	101187584	47	4629
2026-01-09 23:30:22.37	180.69	13.71	-37.9	-40.2	21.2	0.00e+00	0	54	0	103809024	47	4673
2026-01-09 23:30:24.39	180.06	13.83	-37.7	-39.9	21.4	0.00e+00	0	54	0	105906176	47	4505
2026-01-09 23:30:26.40	179.43	13.95	-37.6	-39.7	21.7	0.00e+00	0	54	0	108003328	47	4428
2026-01-09 23:30:28.42	178.79	14.07	-37.7	-39.8	21.6	0.00e+00	0	54	0	110624768	46	4737
2026-01-09 23:30:30.43	178.14	14.18	-37.7	-39.9	21.6	0.00e+00	0	54	0	112721920	46	4760
2026-01-09 23:30:32.44	177.49	14.29	-37.8	-40.0	21.4	0.00e+00	0	54	0	114819072	46	4830
2026-01-09 23:30:34.46	176.83	14.40	-37.9	-40.1	21.3	0.00e+00	0	54	0	117440512	46	4917
2026-01-09 23:30:36.47	176.16	14.51	-37.8	-40.0	21.4	0.00e+00	0	54	0	119537664	46	4846
2026-01-09 23:30:38.49	175.49	14.61	-37.7	-39.9	21.6	0.00e+00	0	54	0	121634816	46	4771
2026-01-09 23:30:40.50	174.82	14.71	-37.7	-39.8	21.7	0.00e+00	0	54	0	124256256	46	4734
2026-01-09 23:30:42.51	174.13	14.81	-37.6	-39.7	21.8	0.00e+00	0	54	0	126353408	46	4688
2026-01-09 23:30:44.53	173.44	14.91	-38.0	-40.2	21.5	0.00e+00	0	54	0	128450560	46	4928
2026-01-09 23:30:46.54	172.75	15.00	-37.8	-40.0	21.6	0.00e+00	0	54	0	131072000	46	4823
2026-01-09 23:30:48.55	172.05	15.09	-37.9	-40.1	21.5	0.00e+00	0	54	0	133169152	46	4881
2026-01-09 23:30:50.57	171.35	15.18	-37.7	-39.8	21.8	0.00e+00	0	54	0	135266304	46	4728
2026-01-09 23:30:52.58	170.64	15.26	-37.4	-39.5	22.2	0.00e+00	0	54	0	137887744	46	4557
2026-01-09 23:30:54.59	169.92	15.34	-37.4	-39.4	22.3	0.00e+00	0	54	0	139984896	46	4507
2026-01-09 23:30:56.60	169.21	15.42	-37.4	-39.5	22.3	0.00e+00	0	54	0	142082048	46	4554
2026-01-09 23:30:58.62	168.48	15.49	-37.8	-39.8	21.9	0.00e+00	0	54	0	144703488	46	4746
2026-01-09 23:31:00.63	167.75	15.56	-37.7	-39.8	21.9	0.00e+00	0	54	0	146800640	46	4741
2026-01-09 23:31:02.65	167.02	15.63	-37.9	-40.0	21.7	0.00e+00	0	54	0	148897792	46	4857
2026-01-09 23:31:04.66	166.28	15.69	-37.9	-40.1	21.8	0.00e+00	0	54	0	151519232	46	4872
2026-01-09 23:31:06.67	165.54	15.75	-37.8	-39.8	21.9	0.00e+00	0	54	0	153616384	46	4755
2026-01-09 23:31:08.68	164.80	15.81	-37.5	-39.5	22.2	0.00e+00	0	54	0	155713536	46	4589
2026-01-09 23:31:10.70	164.05	15.86	-37.4	-39.4	22.4	0.00e+00	0	54	0	158334976	46	4532
2026-01-09 23:31:12.72	163.30	15.91	-37.5	-39.5	22.3	0.00e+00	0	54	0	160432128	46	4586
2026-01-09 23:31:14.73	162.55	15.95	-37.8	-39.9	21.9	0.00e+00	0	54	0	162529280	46	4800
2026-01-09 23:31:16.75	161.79	15.99	-38.1	-40.3	21.5	0.00e+00	0	54	0	165150720	46	5039
2026-01-09 23:31:18.76	161.03	16.03	-38.3	-40.6	21.2	0.00e+00	0	55	0	167247872	47	4891
2026-01-09 23:31:20.78	160.27	16.06	-38.1	-40.3	21.5	0.00e+00	0	54	0	169345024	47	4736
2026-01-09 23:31:22.79	159.51	16.09	-38.0	-40.2	21.6	0.00e+00	0	54	0	171442176	47	4677
2026-01-09 23:31:24.81	158.74	16.11	-37.7	-39.8	22.0	0.00e+00	0	54	0	174063616	47	4457
2026-01-09 23:31:26.83	157.98	16.13	-37.3	-39.2	22.5	0.00e+00	0	55	0	176160768	46	4432
2026-01-09 23:31:28.85	157.21	16.15	-37.0	-39.0	22.7	0.00e+00	0	55	0	178257920	45	4549
2026-01-09 23:31:30.86	156.44	16.16	-37.1	-39.1	22.6	0.00e+00	0	55	0	180879360	45	4611
2026-01-09 23:31:32.88	155.67	16.16	-37.3	-39.3	22.3	0.00e+00	0	55	0	182976512	45	4759
2026-01-09 23:31:34.89	154.91	16.17	-37.3	-39.4	22.3	0.00e+00	0	54	0	185073664	45	4762
2026-01-09 23:31:36.90	154.14	16.16	-37.5	-39.5	22.2	0.00e+00	0	55	0	187695104	45	4833
2026-01-09 23:31:38.92	153.37	16.16	-37.5	-39.5	22.1	0.00e+00	0	55	0	189792256	45	4854
2026-01-09 23:31:40.93	152.61	16.15	-37.4	-39.5	22.2	0.00e+00	0	54	0	191889408	45	4829
2026-01-09 23:31:42.94	151.84	16.13	-37.2	-39.2	22.4	0.00e+00	0	54	0	194510848	45	4665
2026-01-09 23:31:44.96	151.07	16.11	-37.0	-39.0	22.6	0.00e+00	0	55	0	196608000	45	4546
2026-01-09 23:31:46.97	150.31	16.09	-36.9	-38.8	22.7	0.00e+00	0	55	0	198705152	45	4484
2026-01-09 23:31:48.99	149.55	16.06	-36.8	-38.7	22.9	0.00e+00	0	55	0	201326592	45	4409
2026-01-09 23:31:51.00	148.79	16.03	-37.0	-39.0	22.6	0.00e+00	0	55	0	203423744	45	4555
2026-01-09 23:31:53.02	148.03	16.00	-37.2	-39.2	22.4	0.00e+00	0	55	0	205520896	45	4667
2026-01-09 23:31:55.04	147.27	15.96	-37.6	-39.6	22.0	0.00e+00	0	55	0	208142336	45	4910
2026-01-09 23:31:57.06	146.52	15.91	-37.7	-39.8	21.8	0.00e+00	0	55	0	210239488	46	4719
2026-01-09 23:31:59.08	145.77	15.87	-37.5	-39.6	22.0	0.00e+00	0	55	0	212336640	46	4609
2026-01-09 23:32:01.10	145.02	15.81	-37.6	-39.7	21.8	0.00e+00	0	55	0	214958080	46	4678
2026-01-09 23:32:03.12	144.27	15.76	-37.6	-39.7	21.9	0.00e+00	0	55	0	217055232	46	4662
2026-01-09 23:32:05.13	143.54	15.70	-37.9	-40.2	21.4	0.00e+00	0	55	0	219152384	46	4945
2026-01-09 23:32:07.15	142.80	15.64	-37.9	-40.1	21.5	0.00e+00	0	55	0	221773824	46	4901
2026-01-09 23:32:09.16	142.07	15.57	-37.5	-39.5	22.0	0.00e+00	0	55	0	223870976	46	4594
2026-01-09 23:32:11.17	141.34	15.50	-37.0	-39.3	22.2	0.00e+00	0	55	0	225968128	45	4734
2026-01-09 23:32:13.18	140.62	15.43	-37.6	-39.7	21.8	0.00e+00	0	55	0	228589568	45	4970
2026-01-09 23:32:15.20	139.90	15.35	-38.0	-40.2	21.3	0.00e+00	0	55	0	230686720	46	4961
2026-01-09 23:32:17.21	139.19	15.27	-37.6	-39.7	21.7	0.00e+00	0	55	0	232783872	46	4702
2026-01-09 23:32:19.23	138.48	15.19	-37.2	-39.2	22.2	0.00e+00	0	55	0	235405312	45	4685
2026-01-09 23:32:21.24	137.78	15.10	-37.6	-39.7	21.7	0.00e+00	0	55	0	237502464	45	4976
2026-01-09 23:32:23.25	137.08	15.01	-33.1	-39.6	19.0	0.00e+00	0	55	0	239599616	42	5834
2026-01-09 23:32:25.26	136.39	14.92	-37.8	-40.1	21.3	1.10e-06	0	55	0	241696768	46	4883
2026-01-09 23:32:27.28	135.70	14.82	-37.6	-39.8	21.5	2.17e-04	0	55	0	244318208	45	5011
2026-01-09 23:32:29.29	135.02	14.73	-36.9	-39.4	18.8	8.69e-05	0	55	0	246415360	44	5049
2026-01-09 23:32:31.31	134.34	14.63	-37.4	-39.5	21.5	4.82e-03	0	55	0	248512512	45	4860
2026-01-09 23:32:33.33	133.67	14.52	-37.4	-39.8	20.5	1.99e-04	0	55	0	251133952	44	5284
2026-01-09 23:32:35.34	133.01	14.42	-36.4	-39.8	16.1	8.12e-04	0	55	0	253231104	44	5282
2026-01-09 23:32:37.36	132.35	14.31	-37.4	-39.6	21.0	4.82e-03	0	55	0	255328256	45	4925
2026-01-09 23:32:39.38	131.70	14.20	-37.0	-39.4	20.3	1.14e-03	0	55	0	257949696	44	5059
2026-01-09 23:32:41.40	131.05	14.09	-34.2	-39.2	18.1	1.21e-03	0	55	0	260046848	41	5879
2026-01-09 23:32:43.42	130.41	13.97	-35.9	-38.8	19.4	6.03e-03	0	55	0	262144000	42	5322
2026-01-09 23:32:45.43	129.78	13.85	-26.1	-39.8	13.0	2.86e-03	0	55	0	264241152	39	7086
2026-01-09 23:32:47.45	129.16	13.74	-26.3	-37.8	9.9	1.33e-01	0	55	0	266338304	28	10594
2026-01-09 23:32:49.47	128.53	13.61	-35.4	-39.8	10.9	2.04e-01	0	55	0	268435456	41	6317
2026-01-09 23:32:51.49	127.92	13.49	-36.3	-39.3	10.3	9.12e-02	0	55	0	270532608	40	6345
2026-01-09 23:32:53.50	127.32	13.37	-34.6	-39.5	15.6	4.55e-02	0	55	0	272629760	40	6458
2026-01-09 23:32:55.52	126.72	13.24	-36.9	-39.9	18.1	4.22e-02	0	55	0	274726912	43	5660
2026-01-09 23:32:57.53	126.13	13.12	-37.6	-40.7	17.9	9.87e-03	0	55	0	277348352	45	5563
2026-01-09 23:32:59.55	125.54	12.99	-34.6	-40.2	12.2	9.22e-03	0	55	0	279445504	34	9900
2026-01-09 23:33:01.56	124.96	12.86	-37.6	-40.0	19.9	1.25e-02	0	55	0	281542656	45	5108
2026-01-09 23:33:03.58	124.39	12.73	-36.1	-39.8	18.5	7.86e-04	0	55	0	284164096	41	6324
2026-01-09 23:33:05.59	123.82	12.60	-37.3	-40.3	20.2	5.22e-04	0	55	0	286261248	45	5338
2026-01-09 23:33:07.61	123.26	12.46	-37.8	-40.7	19.4	1.40e-02	0	55	0	288358400	44	5903
2026-01-09 23:33:09.63	122.71	12.33	-38.1	-41.4	19.1	2.63e-05	0	55	0	290979840	46	5690
2026-01-09 23:33:11.64	122.16	12.19	-37.4	-40.8	18.1	6.52e-05	0	55	0	293076992	44	5966
2026-01-09 23:33:13.66	121.62	12.06	-37.2	-41.1	18.9	3.20e-05	0	55	0	295174144	45	5808
2026-01-09 23:33:15.68	121.09	11.92	-36.4	-40.5	19.2	1.13e-04	0	55	0	297795584	42	6427
2026-01-09 23:33:17.70	120.56	11.78	-36.9	-40.6	19.4	4.67e-03	0	55	0	299892736	44	5801
2026-01-09 23:33:19.71	120.04	11.64	-36.4	-40.5	19.3	4.23e-05	0	55	0	301989888	43	6109
2026-01-09 23:33:21.74	119.53	11.50	-35.3	-40.9	18.8	1.10e-04	0	55	0	304611328	44	6051
2026-01-09 23:33:23.75	119.02	11.36	-36.7	-40.7	16.8	3.91e-04	0	55	0	306708480	43	6223
2026-01-09 23:33:25.77	118.52	11.22	-32.8	-40.8	15.6	6.42e-03	0	55	0	308805632	38	8451
2026-01-09 23:33:27.79	118.02	11.08	-34.4	-41.3	14.8	7.52e-03	0	55	0	311427072	38	8914
2026-01-09 23:33:29.80	117.54	10.94	-34.9	-41.9	13.4	1.81e-02	0	56	0	313524224	39	9015
2026-01-09 23:33:31.82	117.06	10.80	-33.0	-41.1	13.2	1.50e-02	0	55	0	315621376	34	10978
2026-01-09 23:33:33.83	116.58	10.66	-30.5	-40.5	12.9	2.70e-02	0	55	0	317718528	32	11480
2026-01-09 23:33:35.85	116.11	10.52	-24.4	-39.6	11.8	6.14e-02	0	55	0	320339968	27	13818
2026-01-09 23:33:37.86	115.65	10.38	-29.3	-40.2	10.8	5.41e-02	0	56	0	322437120	28	13888
2026-01-09 23:33:39.88	115.19	10.23	-29.0	-40.4	9.6	1.14e-01	0	55	0	324534272	24	17923
2026-01-09 23:33:41.88	114.75	10.09	-28.4	-40.9	10.2	1.41e-01	0	55	0	326631424	28	15138
2026-01-09 23:33:43.90	114.30	9.95	-29.3	-43.0	8.0	2.03e-01	0	55	0	328728576	25	22788
2026-01-09 23:33:45.91	113.86	9.81	-29.5	-49.1	6.4	4.01e-01	0	55	0	330301440	29	36781
2026-01-09 23:33:47.93	113.43	9.67	-31.0	-46.2	7.5	6.86e-01	0	55	0	330825728	31	23499
2026-01-09 23:33:49.95	113.00	9.52	-26.7	-43.5	9.9	3.59e-01	0	56	0	332398592	29	19303
2026-01-09 23:33:51.96	112.58	9.38	-33.3	-43.5	12.0	1.39e-01	0	56	0	334495744	36	12938
2026-01-09 23:33:53.98	112.16	9.24	-34.3	-44.0	11.8	6.52e-02	0	55	0	337117184	38	12149
2026-01-09 23:33:56.00	111.75	9.10	-33.1	-43.0	14.5	1.13e-02	0	56	0	339214336	41	9123
2026-01-09 23:33:58.01	111.34	8.96	-36.6	-42.0	15.9	4.39e-03	0	55	0	341311488	43	7267
2026-01-09 23:34:00.03	110.94	8.81	-37.3	-42.0	16.6	1.49e-03	0	56	0	343932928	45	6491
2026-01-09 23:34:02.04	110.55	8.67	-37.1	-42.5	16.6	2.27e-04	0	55	0	346030080	46	6442
2026-01-09 23:34:04.06	110.16	8.53	-38.3	-42.9	16.3	2.10e-04	0	56	0	348127232	47	6394
2026-01-09 23:34:06.07	109.78	8.39	-38.9	-43.0	17.0	7.55e-05	0	55	0	350748672	48	6112
2026-01-09 23:34:08.09	109.40	8.25	-39.0	-43.2	16.9	2.40e-05	0	56	0	352845824	48	6210
2026-01-09 23:34:10.11	109.02	8.11	-38.9	-43.1	16.7	1.60e-05	0	56	0	354942976	47	6536
2026-01-09 23:34:12.13	108.65	7.97	-39.4	-58.6	4.4	1.21e-01	0	56	104	357040128	52	29103
2026-01-09 23:34:14.15	108.29	7.83	-44.7	-62.9	3.8	8.45e-01	0	56	104	357040128	60	30304
2026-01-09 23:34:16.17	107.93	7.69	-45.2	-63.4	3.8	8.46e-01	0	56	104	357040128	60	31982
2026-01-09 23:34:18.18	107.57	7.55	-45.4	-63.6	3.8	8.46e-01	0	56	104	357040128	61	31028
2026-01-09 23:34:20.20	107.22	7.41	-45.4	-63.8	3.8	8.46e-01	0	56	104	357040128	61	31475
2026-01-09 23:34:22.22	106.88	7.27	-45.3	-63.7	3.8	8.47e-01	0	56	104	357040128	61	31254
2026-01-09 23:34:24.24	106.53	7.13	-45.2	-63.6	3.8	8.47e-01	0	56	104	357040128	61	30812
2026-01-09 23:34:26.26	106.20	6.99	-45.1	-63.5	3.8	8.44e-01	0	56	104	357040128	61	30677
2026-01-09 23:34:28.28	105.87	6.86	-45.0	-63.5	3.8	8.46e-01	0	56	104	357040128	61	30481
2026-01-09 23:34:30.29	105.54	6.72	-45.0	-63.5	3.8	8.46e-01	0	56	104	357040128	61	30404
2026-01-09 23:34:32.31	105.22	6.58	-45.0	-63.5	3.8	8.46e-01	0	56	104	357040128	61	30449
2026-01-09 23:34:34.33	104.90	6.45	-45.0	-63.4	3.8	8.45e-01	0	56	104	357040128	61	30228
2026-01-09 23:34:36.35	104.58	6.31	-45.0	-63.4	3.8	8.46e-01	0	56	104	357040128	60	32130
2026-01-09 23:34:38.37	104.27	6.18	-45.0	-63.4	3.8	8.46e-01	0	56	104	357040128	60	32098
2026-01-09 23:34:40.39	103.96	6.04	-45.0	-63.4	3.8	8.47e-01	0	56	104	357040128	60	32094
2026-01-09 23:34:42.41	103.66	5.91	-45.0	-63.4	3.8	8.46e-01	0	56	104	357040128	60	32115
2026-01-09 23:34:44.43	103.36	5.77	-45.0	-63.4	3.8	8.46e-01	0	56	104	357040128	60	32151
2026-01-09 23:34:46.44	103.07	5.64	-45.0	-63.4	3.8	8.46e-01	0	56	104	357040128	60	32153
2026-01-09 23:34:48.46	102.77	5.51	-45.0	-63.4	3.8	8.46e-01	0	56	104	357040128	60	32122
2026-01-09 23:34:50.48	102.49	5.37	-45.0	-63.5	3.8	8.46e-01	0	56	104	357040128	60	32208
2026-01-09 23:34:52.50	102.20	5.24	-45.0	-63.4	3.8	8.45e-01	0	56	104	357040128	60	32115
2026-01-09 23:34:54.52	101.92	5.11	-45.0	-63.5	3.8	8.47e-01	0	56	104	357040128	60	32213
2026-01-09 23:34:56.54	101.65	4.98	-45.0	-63.4	3.8	8.46e-01	0	56	104	357040128	60	32137
2026-01-09 23:34:58.55	101.37	4.85	-45.0	-63.4	3.8	8.47e-01	0	56	104	357040128	60	32137
2026-01-09 23:35:00.57	101.10	4.72	-45.0	-63.5	3.8	8.46e-01	0	56	104	357040128	60	32204
2026-01-09 23:35:02.59	100.84	4.59	-45.0	-63.4	3.8	8.46e-01	0	56	104	357040128	60	32091
2026-01-09 23:35:04.61	100.57	4.46	-45.0	-63.4	3.8	8.46e-01	0	56	104	357040128	60	32040
2026-01-09 23:35:06.63	100.31	4.33	-45.0	-63.5	3.8	8.46e-01	0	56	104	357040128	60	32180
2026-01-09 23:35:08.65	100.06	4.21	-45.0	-63.5	3.8	8.46e-01	0	56	104	357040128	60	32186
2026-01-09 23:35:10.67	99.81	4.08	-45.0	-63.4	3.8	8.46e-01	0	56	104	357040128	60	32066
2026-01-09 23:35:12.68	99.56	3.95	-45.0	-63.4	3.8	8.46e-01	0	56	104	357040128	60	32113
2026-01-09 23:35:14.70	99.31	3.83	-45.0	-63.4	3.8	8.47e-01	0	56	104	357040128	60	32128
2026-01-09 23:35:16.72	99.07	3.70	-45.0	-63.4	3.8	8.46e-01	0	56	104	357040128	60	32161
2026-01-09 23:35:18.74	98.82	3.57	-45.0	-63.4	3.8	8.46e-01	0	56	104	357040128	60	32124
2026-01-09 23:35:20.75	98.59	3.45	-45.0	-63.5	3.8	8.46e-01	0	56	104	357040128	60	32192
2026-01-09 23:35:22.77	98.35	3.33	-45.0	-63.4	3.8	8.46e-01	0	56	104	357040128	60	32148
2026-01-09 23:35:24.79	98.12	3.20	-45.0	-63.5	3.8	8.46e-01	0	56	104	357040128	60	32214
2026-01-09 23:35:26.80	97.89	3.08	-45.0	-63.5	3.8	8.47e-01	0	56	104	357040128	60	32230
2026-01-09 23:35:28.82	97.67	2.96	-45.0	-63.4	3.8	8.46e-01	0	56	104	357040128	60	32098
2026-01-09 23:35:30.83	97.44	2.83	-45.0	-63.4	3.8	8.46e-01	0	56	104	357040128	60	32167
2026-01-09 23:35:32.84	97.22	2.71	-45.0	-63.5	3.8	8.46e-01	0	56	104	357040128	60	32220
2026-01-09 23:35:34.86	97.01	2.59	-45.0	-63.4	3.8	8.46e-01	0	56	104	357040128	60	32148
2026-01-09 23:35:36.87	96.79	2.47	-45.0	-63.4	3.8	8.46e-01	0	56	104	357040128	60	32156
2026-01-09 23:35:38.89	96.58	2.35	-45.0	-63.4	3.8	8.47e-01	0	56	104	357040128	60	32125
2026-01-09 23:35:40.91	96.37	2.23	-45.0	-63.4	3.8	8.46e-01	0	56	104	357040128	60	32096
2026-01-09 23:35:42.93	96.16	2.11	-45.0	-63.4	3.8	8.47e-01	0	56	104	357040128	60	32075
2026-01-09 23:35:44.95	95.95	1.99	-45.0	-63.4	3.8	8.46e-01	0	56	104	357040128	60	32063

#Closed at: 2026-01-09 23:35:46
#Recorded file [357 MB]: D:/lorett/data/31039_260110_022726.dat