passes_logs/2026/01/09/R2.0S_Moscow/R2.0S_Moscow__20260109_055346_FENGYUN_3E_rec.log

#Pass ID: 20260109_055346_FENGYUN 3E
#Satellite: FENGYUN 3E
#Configuration: FENGYUN 3E
#almurnet v.1.7.20251203
#Start time: 2026-01-09 05:53:47

#Version: 2.2.20231116
#Station: R2.0S_Moscow
#Location: 37.707566 lon 55.798166 lat
#TLE: 1 49008U 21062A   26008.52265380 -.00000112  00000+0 -32190-4 0  9993
#TLE: 2 49008  98.7483  13.7266 0001697 149.3310 210.7966 14.19883994233927

#Time	Az	El	Level	Level2	SNR	BER	BlckErr	Temp	State	Recorded	gain1	gain2
2026-01-09 05:53:47.99	9.33	2.07	-39.3	-50.8	3.8	8.46e-01	0	47	0	0	49	13287
2026-01-09 05:53:51.02	9.10	2.23	-39.3	-50.8	3.8	8.45e-01	0	48	104	0	48	14125
2026-01-09 05:53:54.05	8.87	2.39	-39.3	-50.8	3.8	8.46e-01	0	48	104	0	48	14135
2026-01-09 05:53:57.08	8.64	2.56	-39.3	-50.8	3.8	8.45e-01	0	48	104	0	48	14110
2026-01-09 05:54:00.11	8.41	2.72	-39.3	-50.8	3.8	8.46e-01	0	48	104	0	48	14096
2026-01-09 05:54:03.14	8.17	2.89	-39.3	-50.8	3.8	8.46e-01	0	48	104	0	48	14092
2026-01-09 05:54:06.18	7.93	3.05	-39.3	-50.8	3.8	8.46e-01	0	49	104	0	48	14090
2026-01-09 05:54:09.21	7.68	3.22	-39.3	-50.8	3.8	8.46e-01	0	49	104	0	48	14115
2026-01-09 05:54:12.24	7.44	3.38	-39.3	-50.8	3.8	8.47e-01	0	49	104	0	48	14110
2026-01-09 05:54:15.27	7.19	3.55	-39.3	-50.8	3.8	8.46e-01	0	49	104	0	48	14109
2026-01-09 05:54:18.30	6.94	3.72	-39.3	-50.8	3.8	8.46e-01	0	50	104	0	48	14088
2026-01-09 05:54:21.33	6.68	3.89	-39.3	-50.8	3.8	8.47e-01	0	50	104	0	48	14082
2026-01-09 05:54:24.36	6.42	4.05	-39.3	-50.8	3.8	8.46e-01	0	50	104	0	48	14123
2026-01-09 05:54:27.39	6.16	4.22	-39.3	-50.8	3.8	8.46e-01	0	50	104	0	48	14122
2026-01-09 05:54:30.42	5.90	4.39	-39.3	-50.8	3.8	8.45e-01	0	50	104	0	48	14066
2026-01-09 05:54:33.45	5.63	4.56	-39.3	-50.8	3.8	8.46e-01	0	51	104	0	48	14059
2026-01-09 05:54:36.49	5.36	4.73	-39.3	-50.8	3.8	8.46e-01	0	51	104	0	48	14058
2026-01-09 05:54:39.52	5.08	4.90	-39.3	-50.8	3.8	8.47e-01	0	51	104	0	48	14060
2026-01-09 05:54:42.55	4.81	5.07	-39.3	-50.8	3.8	8.47e-01	0	51	104	0	48	14070
2026-01-09 05:54:45.58	4.53	5.25	-39.3	-50.7	3.8	8.45e-01	0	51	104	0	48	14046
2026-01-09 05:54:48.61	4.24	5.42	-39.3	-50.7	3.8	8.47e-01	0	51	104	0	48	14044
2026-01-09 05:54:51.64	3.95	5.59	-39.3	-50.7	3.8	8.47e-01	0	51	104	0	48	14016
2026-01-09 05:54:54.67	3.66	5.76	-39.3	-50.8	3.8	8.47e-01	0	51	104	0	48	14051
2026-01-09 05:54:57.70	3.37	5.94	-39.3	-50.7	3.8	8.46e-01	0	52	104	0	48	14018
2026-01-09 05:55:00.73	3.07	6.11	-39.3	-50.8	3.8	8.46e-01	0	52	104	0	48	14081
2026-01-09 05:55:03.76	2.77	6.28	-39.3	-50.8	3.8	8.45e-01	0	52	104	0	48	14059
2026-01-09 05:55:06.79	2.46	6.46	-39.3	-50.8	3.8	8.47e-01	0	52	104	0	48	14074
2026-01-09 05:55:09.83	2.15	6.63	-39.3	-50.8	3.8	8.46e-01	0	52	104	0	48	14076
2026-01-09 05:55:12.86	1.83	6.81	-39.3	-50.8	3.8	8.46e-01	0	52	104	0	48	14059
2026-01-09 05:55:15.89	1.52	6.98	-39.3	-50.8	3.8	8.46e-01	0	52	104	0	48	14047
2026-01-09 05:55:18.92	1.19	7.16	-39.3	-50.8	3.8	8.47e-01	0	53	104	0	48	14067
2026-01-09 05:55:21.95	0.87	7.34	-39.3	-50.8	3.8	8.45e-01	0	53	104	0	48	14048
2026-01-09 05:55:24.98	0.54	7.51	-39.3	-50.7	3.8	8.47e-01	0	53	104	0	48	14044
2026-01-09 05:55:28.01	0.20	7.69	-39.3	-50.8	3.8	8.47e-01	0	53	104	0	48	14064
2026-01-09 05:55:31.04	359.86	7.87	-39.3	-50.8	3.8	8.45e-01	0	53	104	0	48	14078
2026-01-09 05:55:34.07	359.52	8.05	-39.3	-50.8	3.8	8.47e-01	0	53	104	0	48	14101
2026-01-09 05:55:37.10	359.17	8.22	-39.4	-50.8	3.8	8.46e-01	0	53	104	0	48	14203
2026-01-09 05:55:40.13	358.82	8.40	-39.2	-50.8	3.8	8.46e-01	0	53	104	0	48	14147
2026-01-09 05:55:43.16	358.47	8.58	-39.1	-50.6	3.8	8.47e-01	0	54	104	0	47	14618
2026-01-09 05:55:46.19	358.11	8.76	-38.7	-50.6	3.8	8.47e-01	0	53	104	0	47	14625
2026-01-09 05:55:49.22	357.74	8.94	-38.3	-50.5	3.8	8.45e-01	0	54	104	0	46	15267
2026-01-09 05:55:52.24	357.37	9.12	-38.8	-50.5	3.8	8.46e-01	0	54	104	0	47	14530
2026-01-09 05:55:55.28	357.00	9.29	-39.0	-50.5	3.8	8.47e-01	0	54	104	0	47	14484
2026-01-09 05:55:58.30	356.62	9.47	-39.2	-50.7	3.8	8.46e-01	0	54	104	0	48	14046
2026-01-09 05:56:01.33	356.23	9.65	-38.7	-50.7	3.8	8.46e-01	0	54	104	0	48	13954
2026-01-09 05:56:04.36	355.85	9.83	-39.1	-50.7	3.8	8.46e-01	0	54	104	0	49	13209
2026-01-09 05:56:07.39	355.45	10.01	-39.5	-50.8	3.8	8.45e-01	0	54	104	0	49	13298
2026-01-09 05:56:10.41	355.05	10.19	-39.8	-50.8	3.8	8.46e-01	0	54	104	0	49	13400
2026-01-09 05:56:13.44	354.65	10.37	-39.9	-50.9	3.8	8.47e-01	0	54	104	0	49	13417
2026-01-09 05:56:16.47	354.24	10.55	-40.0	-50.9	3.8	8.46e-01	0	54	104	0	49	13527
2026-01-09 05:56:19.50	353.83	10.72	-40.0	-50.9	3.8	8.46e-01	0	55	104	0	49	13546
2026-01-09 05:56:22.53	353.41	10.90	-40.0	-51.0	3.8	8.46e-01	0	54	104	0	50	12905
2026-01-09 05:56:25.56	352.98	11.08	-39.8	-51.0	3.8	8.46e-01	0	54	104	0	50	12923
2026-01-09 05:56:28.59	352.55	11.26	-40.2	-51.3	3.8	8.47e-01	0	55	104	0	50	13293
2026-01-09 05:56:31.62	352.12	11.44	-40.4	-51.5	3.8	8.45e-01	0	55	104	0	50	13590
2026-01-09 05:56:34.64	351.68	11.61	-40.2	-51.2	3.8	8.46e-01	0	55	104	0	50	13247
2026-01-09 05:56:37.68	351.23	11.79	-40.7	-51.7	3.8	8.47e-01	0	55	104	0	50	13976
2026-01-09 05:56:40.71	350.78	11.97	-40.7	-51.6	3.8	8.46e-01	0	55	104	0	51	13099
2026-01-09 05:56:43.74	350.32	12.14	-40.4	-51.4	3.8	8.46e-01	0	55	104	0	51	12803
2026-01-09 05:56:46.76	349.86	12.32	-40.6	-51.5	3.8	8.46e-01	0	55	104	0	51	12853
2026-01-09 05:56:49.79	349.39	12.49	-40.6	-51.8	3.8	8.46e-01	0	55	104	0	51	13407
2026-01-09 05:56:52.82	348.92	12.67	-40.4	-51.5	3.8	8.47e-01	0	55	104	0	51	12933
2026-01-09 05:56:55.85	348.44	12.84	-41.0	-52.1	3.8	8.46e-01	0	55	104	0	51	13843
2026-01-09 05:56:58.88	347.95	13.01	-40.8	-51.9	3.8	8.46e-01	0	55	104	0	52	12775
2026-01-09 05:57:01.91	347.46	13.19	-41.2	-52.2	3.8	8.46e-01	0	55	104	0	52	13191
2026-01-09 05:57:04.93	346.96	13.36	-41.0	-52.1	3.8	8.46e-01	0	55	104	0	52	12988
2026-01-09 05:57:07.96	346.46	13.53	-41.0	-51.9	3.8	8.46e-01	0	55	104	0	52	12705
2026-01-09 05:57:10.99	345.95	13.69	-40.8	-51.8	3.8	8.47e-01	0	55	104	0	52	12542
2026-01-09 05:57:14.02	345.43	13.86	-40.6	-51.6	3.8	8.46e-01	0	55	104	0	52	12323
2026-01-09 05:57:17.05	344.91	14.03	-40.6	-51.6	3.8	8.45e-01	0	55	104	0	51	12997
2026-01-09 05:57:20.08	344.38	14.19	-40.8	-51.7	3.8	8.45e-01	0	55	104	0	51	13152
2026-01-09 05:57:23.10	343.85	14.36	-40.8	-51.7	3.8	8.46e-01	0	55	104	0	51	13234
2026-01-09 05:57:26.13	343.31	14.52	-40.5	-51.7	3.8	8.45e-01	0	55	104	0	51	13227
2026-01-09 05:57:29.16	342.77	14.68	-40.4	-51.7	3.8	8.46e-01	0	55	104	0	51	13150
2026-01-09 05:57:32.19	342.22	14.84	-40.9	-51.8	3.8	8.46e-01	0	56	104	0	51	13358
2026-01-09 05:57:35.22	341.66	15.00	-40.7	-51.7	3.8	8.46e-01	0	56	104	0	51	13176
2026-01-09 05:57:38.25	341.09	15.15	-40.5	-51.4	3.8	8.46e-01	0	56	104	0	51	12683
2026-01-09 05:57:41.28	340.53	15.31	-40.4	-51.4	3.8	8.45e-01	0	56	104	0	51	12679
2026-01-09 05:57:44.32	339.95	15.46	-40.6	-47.9	4.0	8.42e-01	0	56	104	0	51	8470
2026-01-09 05:57:47.34	339.37	15.61	-39.3	-42.9	8.6	6.54e-02	0	56	0	11534336	49	5374
2026-01-09 05:57:50.37	338.78	15.76	-35.9	-37.7	14.6	4.50e-06	0	56	0	32505856	42	4394
2026-01-09 05:57:53.40	338.19	15.91	-35.1	-36.5	16.4	0.00e+00	0	56	0	54525952	40	4337
2026-01-09 05:57:56.43	337.59	16.05	-35.7	-37.1	16.3	0.00e+00	0	56	0	76546048	41	4370
2026-01-09 05:57:59.45	336.98	16.19	-35.0	-36.3	17.5	0.00e+00	0	56	0	98566144	40	4198
2026-01-09 05:58:02.48	336.37	16.33	-34.8	-36.0	18.0	0.00e+00	0	56	0	120586240	40	4079
2026-01-09 05:58:05.51	335.76	16.47	-34.8	-36.0	18.1	0.00e+00	0	56	0	142606336	40	4066
2026-01-09 05:58:08.54	335.14	16.60	-34.8	-36.0	18.1	0.00e+00	0	56	0	164626432	40	4072
2026-01-09 05:58:11.57	334.51	16.73	-34.8	-36.0	18.1	0.00e+00	0	56	0	185597952	40	4078
2026-01-09 05:58:14.60	333.87	16.86	-34.6	-35.8	18.3	0.00e+00	0	56	0	207618048	40	3969
2026-01-09 05:58:17.62	333.24	16.98	-34.6	-35.8	18.4	0.00e+00	0	56	0	229638144	40	3968
2026-01-09 05:58:20.65	332.59	17.10	-34.4	-35.5	18.7	0.00e+00	0	56	0	251658240	39	4083
2026-01-09 05:58:23.68	331.94	17.22	-34.2	-35.3	18.9	0.00e+00	0	56	0	273678336	39	3965
2026-01-09 05:58:26.71	331.29	17.34	-34.0	-35.1	19.1	0.00e+00	0	56	0	295698432	39	3891
2026-01-09 05:58:29.74	330.63	17.45	-34.2	-35.3	19.0	0.00e+00	0	56	0	317718528	39	3968
2026-01-09 05:58:32.77	329.96	17.56	-34.2	-35.3	18.9	0.00e+00	0	56	0	338690048	39	3991
2026-01-09 05:58:35.80	329.29	17.67	-34.3	-35.4	18.8	0.00e+00	0	56	0	360710144	39	4035
2026-01-09 05:58:38.83	328.62	17.77	-34.2	-35.3	19.0	0.00e+00	0	56	0	382730240	39	3980
2026-01-09 05:58:41.86	327.94	17.87	-34.2	-35.3	19.0	0.00e+00	0	56	0	404750336	39	3960
2026-01-09 05:58:44.89	327.26	17.96	-34.1	-35.2	19.0	0.00e+00	0	56	0	426770432	39	3948
2026-01-09 05:58:47.92	326.57	18.05	-34.1	-35.2	19.0	0.00e+00	0	56	0	448790528	39	3946
2026-01-09 05:58:50.95	325.88	18.14	-34.2	-35.2	19.0	0.00e+00	0	56	0	470810624	39	3958
2026-01-09 05:58:53.99	325.18	18.22	-34.2	-35.3	19.0	0.00e+00	0	56	0	492830720	39	3964
2026-01-09 05:58:57.01	324.48	18.30	-34.2	-35.3	19.0	0.00e+00	0	56	0	513802240	39	3983
2026-01-09 05:59:00.04	323.78	18.37	-34.2	-35.2	19.0	0.00e+00	0	56	0	535822336	39	3958
2026-01-09 05:59:03.07	323.08	18.44	-34.0	-35.0	19.2	0.00e+00	0	56	0	557842432	39	3867
2026-01-09 05:59:06.09	322.37	18.51	-33.7	-34.7	19.6	0.00e+00	0	56	0	579862528	38	3938
2026-01-09 05:59:09.12	321.66	18.57	-33.8	-34.9	19.4	0.00e+00	0	56	0	601882624	38	4022
2026-01-09 05:59:12.15	320.94	18.63	-33.9	-34.9	19.4	0.00e+00	0	56	0	622854144	38	4035
2026-01-09 05:59:15.18	320.22	18.68	-33.9	-35.0	19.3	0.00e+00	0	56	0	644874240	38	4063
2026-01-09 05:59:18.21	319.50	18.73	-33.8	-34.9	19.4	0.00e+00	0	56	0	666894336	38	4015
2026-01-09 05:59:21.24	318.78	18.77	-33.9	-35.0	19.4	0.00e+00	0	56	0	688914432	38	4053
2026-01-09 05:59:24.26	318.06	18.81	-33.9	-35.0	19.3	0.00e+00	0	56	0	710934528	38	4058
2026-01-09 05:59:27.29	317.33	18.84	-33.9	-35.0	19.3	0.00e+00	0	56	0	732954624	38	4072
2026-01-09 05:59:30.32	316.60	18.87	-33.9	-35.0	19.4	0.00e+00	0	56	0	753926144	38	4057
2026-01-09 05:59:33.35	315.87	18.89	-33.7	-34.7	19.5	0.00e+00	0	56	0	775946240	38	3955
2026-01-09 05:59:36.38	315.14	18.91	-33.5	-34.5	19.8	0.00e+00	0	56	0	797966336	38	3864
2026-01-09 05:59:39.41	314.41	18.93	-33.6	-34.6	19.7	0.00e+00	0	56	0	819986432	38	3892
2026-01-09 05:59:42.44	313.68	18.94	-33.6	-34.6	19.7	0.00e+00	0	56	0	842006528	38	3897
2026-01-09 05:59:45.47	312.95	18.94	-33.6	-34.7	19.6	0.00e+00	0	56	0	864026624	38	3921
2026-01-09 05:59:48.50	312.21	18.94	-33.6	-34.6	19.7	0.00e+00	0	56	0	886046720	38	3890
2026-01-09 05:59:51.53	311.48	18.94	-33.6	-34.7	19.6	0.00e+00	0	56	0	908066816	38	3928
2026-01-09 05:59:54.57	310.75	18.93	-33.7	-34.8	19.5	0.00e+00	0	56	0	929038336	38	3979
2026-01-09 05:59:57.59	310.02	18.91	-33.8	-34.8	19.5	0.00e+00	0	56	0	951058432	38	3991
2026-01-09 06:00:00.62	309.29	18.89	-33.6	-34.6	19.7	0.00e+00	0	56	0	973078528	38	3912
2026-01-09 06:00:03.65	308.56	18.87	-33.8	-34.8	19.5	0.00e+00	0	56	0	995098624	38	3986
2026-01-09 06:00:06.68	307.83	18.84	-33.7	-34.8	19.5	0.00e+00	0	57	0	1017118720	38	3974
2026-01-09 06:00:09.71	307.10	18.81	-33.6	-34.6	19.7	0.00e+00	0	56	0	1039138816	38	3898
2026-01-09 06:00:12.74	306.38	18.77	-33.6	-34.7	19.6	0.00e+00	0	56	0	1061158912	38	3922
2026-01-09 06:00:15.77	305.65	18.72	-33.7	-34.8	19.5	0.00e+00	0	56	0	1082130432	38	3977
2026-01-09 06:00:18.80	304.93	18.68	-33.7	-34.7	19.6	0.00e+00	0	57	0	1104150528	38	3957
2026-01-09 06:00:21.83	304.21	18.62	-33.5	-34.5	19.7	0.00e+00	0	56	0	1126170624	38	3858
2026-01-09 06:00:24.86	303.50	18.57	-33.6	-34.7	19.6	0.00e+00	0	56	0	1148190720	37	4157
2026-01-09 06:00:27.89	302.78	18.51	-33.8	-34.8	19.4	0.00e+00	0	56	0	1170210816	37	4226
2026-01-09 06:00:30.92	302.07	18.44	-33.6	-34.7	19.5	0.00e+00	0	56	0	1192230912	37	4167
2026-01-09 06:00:33.95	301.36	18.37	-33.6	-34.7	19.6	0.00e+00	0	56	0	1214251008	37	4153
2026-01-09 06:00:36.98	300.66	18.30	-33.7	-34.8	19.5	0.00e+00	0	57	0	1235222528	37	4195
2026-01-09 06:00:40.01	299.96	18.22	-33.8	-34.9	19.4	0.00e+00	0	57	0	1257242624	37	4248
2026-01-09 06:00:43.03	299.27	18.13	-33.8	-34.8	19.4	0.00e+00	0	57	0	1279262720	37	4242
2026-01-09 06:00:46.06	298.57	18.05	-33.7	-34.7	19.5	0.00e+00	0	57	0	1301282816	37	4186
2026-01-09 06:00:49.09	297.88	17.96	-33.8	-34.8	19.4	0.00e+00	0	57	0	1323302912	37	4220
2026-01-09 06:00:52.12	297.20	17.86	-33.9	-35.0	19.2	0.00e+00	0	57	0	1345323008	37	4310
2026-01-09 06:00:55.15	296.52	17.76	-33.8	-34.9	19.3	0.00e+00	0	57	0	1367343104	37	4247
2026-01-09 06:00:58.18	295.84	17.66	-33.9	-34.9	19.2	0.00e+00	0	57	0	1388314624	37	4290
2026-01-09 06:01:01.20	295.17	17.56	-34.2	-35.3	18.9	0.00e+00	0	57	0	1410334720	37	4469
2026-01-09 06:01:04.23	294.51	17.45	-34.4	-35.5	18.7	0.00e+00	0	57	0	1432354816	38	4313
2026-01-09 06:01:07.26	293.84	17.33	-34.2	-35.3	18.9	0.00e+00	0	57	0	1454374912	38	4196
2026-01-09 06:01:10.29	293.19	17.22	-34.1	-35.2	18.9	0.00e+00	0	57	0	1476395008	38	4189
2026-01-09 06:01:13.32	292.54	17.10	-34.3	-35.4	18.8	0.00e+00	0	57	0	1498415104	38	4262
2026-01-09 06:01:16.35	291.89	16.98	-34.5	-35.6	18.6	0.00e+00	0	57	0	1520435200	38	4361
2026-01-09 06:01:19.38	291.25	16.85	-34.4	-35.6	18.6	0.00e+00	0	56	0	1542455296	38	4364
2026-01-09 06:01:22.41	290.61	16.72	-34.4	-35.5	18.6	0.00e+00	0	57	0	1563426816	38	4325
2026-01-09 06:01:25.44	289.98	16.59	-34.4	-35.5	18.6	0.00e+00	0	57	0	1585446912	38	4319
2026-01-09 06:01:28.47	289.36	16.46	-34.4	-35.5	18.6	0.00e+00	0	57	0	1607467008	38	4319
2026-01-09 06:01:31.51	288.74	16.32	-34.5	-35.6	18.5	0.00e+00	0	57	0	1629487104	38	4375
2026-01-09 06:01:34.53	288.13	16.18	-34.5	-35.7	18.4	0.00e+00	0	57	0	1651507200	38	4412
2026-01-09 06:01:37.56	287.52	16.04	-34.5	-35.6	18.5	0.00e+00	0	57	0	1672478720	38	4377
2026-01-09 06:01:40.59	286.92	15.89	-34.4	-35.6	18.5	0.00e+00	0	57	0	1694498816	38	4342
2026-01-09 06:01:43.62	286.32	15.75	-34.4	-35.6	18.5	0.00e+00	0	57	0	1716518912	38	4359
2026-01-09 06:01:46.65	285.73	15.60	-34.5	-35.7	18.3	0.00e+00	0	57	0	1738539008	38	4403
2026-01-09 06:01:49.68	285.15	15.45	-34.5	-35.6	18.4	0.00e+00	0	56	0	1760559104	38	4371
2026-01-09 06:01:52.71	284.57	15.30	-34.5	-35.6	18.4	0.00e+00	0	57	0	1782579200	38	4369
2026-01-09 06:01:55.74	284.00	15.14	-34.5	-35.7	18.4	0.00e+00	0	57	0	1804599296	38	4393
2026-01-09 06:01:58.76	283.43	14.98	-34.6	-35.8	18.2	0.00e+00	0	57	0	1825570816	38	4460
2026-01-09 06:02:01.79	282.87	14.83	-34.9	-36.1	18.0	0.00e+00	0	57	0	1847590912	39	4343
2026-01-09 06:02:04.82	282.32	14.67	-35.0	-36.2	17.8	0.00e+00	0	57	0	1869611008	39	4406
2026-01-09 06:02:07.85	281.77	14.50	-35.0	-36.2	17.8	0.00e+00	0	57	0	1891631104	39	4407
2026-01-09 06:02:10.88	281.23	14.34	-34.8	-36.0	18.0	0.00e+00	0	57	0	1913651200	39	4312
2026-01-09 06:02:13.92	280.69	14.18	-35.0	-36.2	17.8	0.00e+00	0	57	0	1935671296	39	4398
2026-01-09 06:02:16.95	280.16	14.01	-35.1	-36.4	17.6	0.00e+00	0	57	0	1957691392	39	4508
2026-01-09 06:02:19.98	279.64	13.84	-35.2	-36.4	17.4	0.00e+00	0	57	0	1978662912	40	4283
2026-01-09 06:02:23.01	279.12	13.67	-35.2	-36.4	17.4	0.00e+00	0	57	0	2000683008	40	4285
2026-01-09 06:02:26.04	278.60	13.50	-35.0	-36.2	17.7	0.00e+00	0	57	0	2022703104	40	4157
2026-01-09 06:02:29.07	278.10	13.33	-35.0	-36.2	17.6	0.00e+00	0	57	0	2044723200	40	4169
2026-01-09 06:02:32.09	277.60	13.16	-35.1	-36.3	17.5	0.00e+00	0	57	0	2066743296	40	4239
2026-01-09 06:02:35.12	277.10	12.99	-35.1	-36.4	17.5	0.00e+00	0	57	0	2088763392	40	4249
2026-01-09 06:02:38.15	276.62	12.82	-35.2	-36.5	17.3	0.00e+00	0	57	0	2110783488	40	4307
2026-01-09 06:02:41.18	276.13	12.64	-35.2	-36.5	17.4	0.00e+00	0	57	0	2131755008	40	4303
2026-01-09 06:02:44.21	275.66	12.47	-35.1	-36.4	17.5	0.00e+00	0	57	0	2153775104	40	4246
2026-01-09 06:02:47.23	275.19	12.29	-35.2	-36.4	17.4	0.00e+00	0	57	0	2175795200	40	4283
2026-01-09 06:02:50.26	274.72	12.12	-35.3	-36.6	17.2	0.00e+00	0	57	0	2197815296	40	4346
2026-01-09 06:02:53.29	274.26	11.94	-35.2	-36.5	17.2	0.00e+00	0	57	0	2219835392	40	4312
2026-01-09 06:02:56.31	273.81	11.76	-35.4	-36.7	17.0	0.00e+00	0	57	0	2241855488	40	4435
2026-01-09 06:02:59.34	273.36	11.59	-35.6	-36.9	16.8	0.00e+00	0	57	0	2263875584	40	4516
2026-01-09 06:03:02.37	272.91	11.41	-35.7	-37.1	16.6	0.00e+00	0	57	0	2284847104	40	4618
2026-01-09 06:03:05.40	272.47	11.23	-35.6	-37.0	16.6	0.00e+00	0	57	0	2306867200	41	4326
2026-01-09 06:03:08.43	272.04	11.05	-35.4	-36.7	16.8	0.00e+00	0	57	0	2328887296	41	4190
2026-01-09 06:03:11.46	271.61	10.87	-35.3	-36.6	17.0	0.00e+00	0	57	0	2350907392	41	4112
2026-01-09 06:03:14.48	271.19	10.69	-35.6	-37.0	16.5	0.00e+00	0	57	0	2372927488	41	4295
2026-01-09 06:03:17.51	270.78	10.51	-35.9	-37.3	16.1	0.00e+00	0	57	0	2394947584	41	4488
2026-01-09 06:03:20.54	270.36	10.33	-35.9	-37.3	16.1	0.00e+00	0	57	0	2416967680	41	4462
2026-01-09 06:03:23.57	269.96	10.15	-35.9	-37.3	16.1	0.00e+00	0	57	0	2437939200	41	4493
2026-01-09 06:03:26.60	269.55	9.98	-36.1	-37.6	15.8	0.00e+00	0	57	0	2459959296	41	4620
2026-01-09 06:03:29.63	269.16	9.80	-36.1	-37.6	15.7	0.00e+00	0	57	0	2481979392	41	4626
2026-01-09 06:03:32.65	268.77	9.62	-36.2	-37.8	15.4	0.00e+00	0	57	0	2503999488	42	4457
2026-01-09 06:03:35.68	268.38	9.44	-36.5	-38.2	14.8	0.00e+00	0	57	0	2526019584	42	4668
2026-01-09 06:03:38.71	268.00	9.26	-36.8	-38.5	14.6	0.00e+00	0	57	0	2546991104	43	4565
2026-01-09 06:03:41.74	267.62	9.08	-37.1	-39.0	13.8	2.20e-06	0	57	0	2569011200	43	4826
2026-01-09 06:03:44.77	267.25	8.90	-37.7	-39.8	13.0	3.31e-05	0	57	0	2591031296	45	4724
2026-01-09 06:03:47.80	266.88	8.72	-38.2	-40.5	12.1	2.45e-04	0	57	0	2613051392	46	4870
2026-01-09 06:03:50.82	266.52	8.54	-38.5	-41.0	11.4	1.05e-03	0	57	0	2635071488	46	5131
2026-01-09 06:03:53.86	266.16	8.36	-38.8	-41.6	10.6	3.67e-03	0	57	0	2657091584	47	5183
2026-01-09 06:03:56.88	265.80	8.18	-39.2	-42.4	9.5	1.42e-02	0	57	0	2679111680	47	5705
2026-01-09 06:03:59.92	265.45	8.00	-44.3	-54.6	3.8	3.39e-01	0	57	104	2697986048	58	12351
2026-01-09 06:04:02.95	265.10	7.83	-45.1	-56.0	3.8	8.46e-01	0	57	104	2697986048	59	13598
2026-01-09 06:04:05.98	264.76	7.65	-45.2	-56.4	3.8	8.46e-01	0	57	104	2697986048	60	13479
2026-01-09 06:04:09.01	264.43	7.47	-45.3	-56.4	3.8	8.46e-01	0	57	104	2697986048	60	13521
2026-01-09 06:04:12.04	264.09	7.29	-45.2	-56.3	3.8	8.45e-01	0	57	104	2697986048	60	13410
2026-01-09 06:04:15.07	263.76	7.12	-45.1	-56.3	3.8	8.46e-01	0	57	104	2697986048	60	13308
2026-01-09 06:04:18.10	263.44	6.94	-45.1	-56.2	3.8	8.46e-01	0	57	104	2697986048	60	13155
2026-01-09 06:04:21.13	263.12	6.76	-45.1	-56.3	3.8	8.46e-01	0	57	104	2697986048	60	13322
2026-01-09 06:04:24.16	262.80	6.59	-44.1	-54.9	4.1	8.33e-01	0	57	104	2697986048	58	12729
2026-01-09 06:04:27.20	262.49	6.41	-44.8	-55.5	3.9	8.40e-01	0	57	104	2697986048	59	12883
2026-01-09 06:04:30.22	262.18	6.24	-45.1	-55.6	3.8	8.42e-01	0	57	104	2697986048	59	13060
2026-01-09 06:04:33.26	261.87	6.06	-45.2	-56.0	3.8	8.45e-01	0	57	104	2697986048	59	13630
2026-01-09 06:04:36.29	261.57	5.89	-45.2	-56.0	3.8	8.45e-01	0	57	104	2697986048	59	13625
2026-01-09 06:04:39.32	261.27	5.71	-45.2	-56.0	3.8	8.47e-01	0	57	104	2697986048	59	13675
2026-01-09 06:04:42.35	260.98	5.54	-45.2	-56.0	3.8	8.47e-01	0	57	104	2697986048	59	13669
2026-01-09 06:04:45.39	260.68	5.37	-45.2	-56.0	3.8	8.46e-01	0	57	104	2697986048	59	13674
2026-01-09 06:04:48.42	260.40	5.19	-45.2	-56.0	3.8	8.46e-01	0	57	104	2697986048	59	13658
2026-01-09 06:04:51.45	260.11	5.02	-45.2	-56.0	3.8	8.46e-01	0	57	104	2697986048	59	13623
2026-01-09 06:04:54.48	259.83	4.85	-45.2	-56.0	3.8	8.46e-01	0	57	104	2697986048	59	13650
2026-01-09 06:04:57.51	259.55	4.68	-45.2	-56.0	3.8	8.47e-01	0	57	104	2697986048	59	13669
2026-01-09 06:05:00.54	259.28	4.51	-45.2	-56.0	3.8	8.46e-01	0	57	104	2697986048	59	13683
2026-01-09 06:05:03.57	259.01	4.34	-45.1	-55.9	3.8	8.46e-01	0	57	104	2697986048	59	13432
2026-01-09 06:05:06.60	258.74	4.17	-45.2	-56.0	3.8	8.47e-01	0	57	104	2697986048	59	13671
2026-01-09 06:05:09.63	258.48	4.00	-45.2	-56.0	3.8	8.47e-01	0	57	104	2697986048	59	13631
2026-01-09 06:05:12.67	258.21	3.83	-45.2	-56.0	3.8	8.44e-01	0	57	104	2697986048	59	13631
2026-01-09 06:05:15.70	257.96	3.66	-45.2	-56.0	3.8	8.48e-01	0	57	104	2697986048	59	13692
2026-01-09 06:05:18.73	257.70	3.49	-45.1	-56.0	3.8	8.48e-01	0	57	104	2697986048	59	13595
2026-01-09 06:05:21.76	257.45	3.33	-45.2	-56.0	3.8	8.47e-01	0	58	104	2697986048	59	13647
2026-01-09 06:05:24.79	257.20	3.16	-45.2	-56.0	3.8	8.46e-01	0	57	104	2697986048	59	13604
2026-01-09 06:05:27.82	256.95	2.99	-45.0	-55.9	3.8	8.46e-01	0	57	104	2697986048	59	13508
2026-01-09 06:05:30.85	256.71	2.83	-44.9	-55.8	3.8	8.46e-01	0	57	104	2697986048	59	13320
2026-01-09 06:05:33.88	256.47	2.66	-45.2	-56.0	3.8	8.47e-01	0	57	104	2697986048	59	13629
2026-01-09 06:05:36.91	256.23	2.50	-45.2	-56.0	3.8	8.45e-01	0	57	104	2697986048	59	13633
2026-01-09 06:05:39.94	255.99	2.33	-45.2	-56.0	3.8	8.46e-01	0	57	104	2697986048	59	13679
2026-01-09 06:05:42.98	255.76	2.17	-45.2	-56.0	3.8	8.47e-01	0	57	104	2697986048	59	13614
2026-01-09 06:05:46.01	255.53	2.01	-45.2	-56.0	3.8	8.47e-01	0	57	104	2697986048	59	13686

#Closed at: 2026-01-09 06:05:47
#Recorded file [2697 MB]: D:/lorett/data/31039_260109_085347.dat