passes_logs/2026/01/09/R2.0S_Moscow/R2.0S_Moscow__20260109_140336_FENGYUN_3E_rec.log

#Pass ID: 20260109_140336_FENGYUN 3E
#Satellite: FENGYUN 3E
#Configuration: FENGYUN 3E
#almurnet v.1.7.20251203
#Start time: 2026-01-09 14:03:37

#Version: 2.2.20231116
#Station: R2.0S_Moscow
#Location: 37.707566 lon 55.798166 lat
#TLE: 1 49008U 21062A   26008.59312205 -.00000223  00000+0 -84486-4 0  9997
#TLE: 2 49008  98.7483  13.7961 0001692 149.3118 210.8157 14.19883502233939

#Time	Az	El	Level	Level2	SNR	BER	BlckErr	Temp	State	Recorded	gain1	gain2
2026-01-09 14:03:37.72	156.52	2.05	-44.3	-55.3	3.8	8.46e-01	0	47	0	0	59	12537
2026-01-09 14:03:41.74	156.51	2.31	-44.3	-55.2	3.8	8.46e-01	0	48	104	0	59	12514
2026-01-09 14:03:45.78	156.49	2.57	-44.3	-55.3	3.8	8.46e-01	0	48	104	0	59	12546
2026-01-09 14:03:49.83	156.47	2.84	-44.2	-55.2	3.8	8.46e-01	0	48	104	0	59	12514
2026-01-09 14:03:53.87	156.45	3.11	-44.2	-55.2	3.8	8.47e-01	0	48	104	0	59	12506
2026-01-09 14:03:57.91	156.44	3.38	-44.2	-55.2	3.8	8.46e-01	0	49	104	0	59	12447
2026-01-09 14:04:01.95	156.42	3.66	-44.2	-55.2	3.8	8.47e-01	0	49	104	0	59	12447
2026-01-09 14:04:05.99	156.40	3.93	-44.2	-55.2	3.8	8.47e-01	0	49	104	0	59	12498
2026-01-09 14:04:10.03	156.38	4.21	-44.2	-55.2	3.8	8.46e-01	0	49	104	0	59	12463
2026-01-09 14:04:14.07	156.36	4.50	-44.2	-55.2	3.8	8.46e-01	0	50	104	0	59	12499
2026-01-09 14:04:18.11	156.34	4.78	-44.2	-55.2	3.8	8.46e-01	0	50	104	0	59	12463
2026-01-09 14:04:22.15	156.32	5.07	-44.2	-55.2	3.8	8.46e-01	0	50	104	0	59	12454
2026-01-09 14:04:26.19	156.30	5.36	-44.2	-55.0	3.8	8.45e-01	0	51	104	0	59	12199
2026-01-09 14:04:30.22	156.27	5.66	-44.1	-54.3	3.8	8.46e-01	0	51	104	0	59	11254
2026-01-09 14:04:34.26	156.25	5.96	-43.9	-52.8	4.0	8.43e-01	0	51	104	0	58	9973
2026-01-09 14:04:38.29	156.23	6.26	-43.8	-52.4	3.9	8.41e-01	0	51	104	0	58	9532
2026-01-09 14:04:42.33	156.20	6.57	-43.2	-49.8	4.9	7.92e-01	0	51	0	0	57	7521
2026-01-09 14:04:46.38	156.18	6.88	-42.7	-48.4	5.8	4.53e-01	0	52	0	2097152	56	6738
2026-01-09 14:04:50.42	156.15	7.19	-41.9	-46.7	7.1	1.72e-01	0	52	0	31457280	54	6249
2026-01-09 14:04:54.46	156.13	7.51	-40.6	-44.2	9.5	1.49e-02	0	52	0	60817408	52	5249
2026-01-09 14:04:58.51	156.10	7.83	-38.6	-41.3	12.6	2.09e-04	0	52	0	90177536	48	4725
2026-01-09 14:05:02.55	156.07	8.15	-41.1	-45.0	9.1	7.15e-04	0	52	0	118489088	51	6076
2026-01-09 14:05:06.58	156.04	8.48	-37.1	-39.4	14.2	4.68e-04	0	52	0	147849216	45	4505
2026-01-09 14:05:10.62	156.01	8.82	-35.7	-37.7	15.7	0.00e+00	0	53	0	177209344	41	4684
2026-01-09 14:05:14.66	155.98	9.16	-35.3	-37.3	16.2	0.00e+00	0	53	0	206569472	41	4465
2026-01-09 14:05:18.70	155.95	9.50	-35.2	-37.2	16.3	0.00e+00	0	53	0	235929600	41	4412
2026-01-09 14:05:22.73	155.91	9.85	-35.2	-37.1	16.4	0.00e+00	0	53	0	265289728	41	4359
2026-01-09 14:05:26.77	155.88	10.20	-35.0	-36.9	16.6	0.00e+00	0	53	0	293601280	41	4286
2026-01-09 14:05:30.81	155.84	10.56	-35.1	-37.0	16.6	0.00e+00	0	53	0	322961408	40	4592
2026-01-09 14:05:34.85	155.81	10.92	-35.0	-36.8	16.8	0.00e+00	0	53	0	352321536	40	4492
2026-01-09 14:05:38.89	155.77	11.29	-35.0	-36.9	16.8	0.00e+00	0	53	0	381681664	40	4523
2026-01-09 14:05:42.92	155.73	11.66	-34.9	-36.8	16.9	0.00e+00	0	53	0	411041792	40	4452
2026-01-09 14:05:46.96	155.69	12.04	-34.9	-36.8	16.9	0.00e+00	0	54	0	439353344	40	4467
2026-01-09 14:05:51.01	155.65	12.43	-34.8	-36.7	17.0	0.00e+00	0	54	0	468713472	40	4414
2026-01-09 14:05:55.04	155.61	12.82	-34.8	-36.6	17.1	0.00e+00	0	54	0	498073600	40	4388
2026-01-09 14:05:59.08	155.56	13.22	-34.8	-36.6	17.1	0.00e+00	0	54	0	527433728	40	4378
2026-01-09 14:06:03.12	155.51	13.63	-34.5	-36.3	17.4	0.00e+00	0	54	0	556793856	40	4237
2026-01-09 14:06:07.16	155.47	14.04	-34.6	-36.4	17.5	0.00e+00	0	54	0	585105408	40	4247
2026-01-09 14:06:11.20	155.42	14.46	-34.6	-36.4	17.4	0.00e+00	0	54	0	614465536	40	4243
2026-01-09 14:06:15.23	155.37	14.89	-34.5	-36.3	17.6	0.00e+00	0	54	0	643825664	39	4460
2026-01-09 14:06:19.27	155.31	15.32	-34.5	-36.2	17.7	0.00e+00	0	54	0	673185792	39	4413
2026-01-09 14:06:23.31	155.26	15.76	-34.2	-35.9	18.0	0.00e+00	0	54	0	701497344	39	4271
2026-01-09 14:06:27.35	155.20	16.21	-34.2	-35.9	18.0	0.00e+00	0	55	0	730857472	39	4275
2026-01-09 14:06:31.39	155.14	16.67	-34.2	-35.8	18.1	0.00e+00	0	54	0	760217600	39	4240
2026-01-09 14:06:35.43	155.08	17.14	-33.9	-35.5	18.5	0.00e+00	0	55	0	789577728	38	4299
2026-01-09 14:06:39.46	155.02	17.62	-33.8	-35.4	18.6	0.00e+00	0	54	0	818937856	38	4253
2026-01-09 14:06:43.51	154.95	18.10	-33.6	-35.2	18.8	0.00e+00	0	55	0	847249408	38	4157
2026-01-09 14:06:47.55	154.89	18.60	-33.4	-34.9	19.0	0.00e+00	0	55	0	876609536	37	4285
2026-01-09 14:06:51.59	154.82	19.11	-33.4	-34.9	19.1	0.00e+00	0	55	0	905969664	37	4269
2026-01-09 14:06:55.62	154.74	19.62	-33.4	-34.9	19.1	0.00e+00	0	55	0	935329792	37	4279
2026-01-09 14:06:59.66	154.67	20.15	-33.4	-35.0	19.0	0.00e+00	0	55	0	964689920	37	4302
2026-01-09 14:07:03.69	154.59	20.69	-33.3	-34.9	19.1	0.00e+00	0	55	0	994050048	37	4257
2026-01-09 14:07:07.73	154.50	21.24	-33.4	-35.0	19.0	0.00e+00	0	55	0	1022361600	37	4301
2026-01-09 14:07:11.77	154.42	21.80	-33.3	-34.9	19.1	0.00e+00	0	55	0	1051721728	37	4253
2026-01-09 14:07:15.80	154.33	22.38	-33.1	-34.8	19.2	0.00e+00	0	55	0	1081081856	37	4205
2026-01-09 14:07:19.83	154.23	22.96	-33.2	-34.8	19.1	0.00e+00	0	55	0	1110441984	37	4225
2026-01-09 14:07:23.87	154.14	23.57	-33.0	-34.7	19.2	0.00e+00	0	55	0	1139802112	36	4394
2026-01-09 14:07:27.91	154.03	24.18	-32.9	-34.5	19.4	0.00e+00	0	55	0	1168113664	36	4326
2026-01-09 14:07:31.95	153.93	24.81	-32.8	-34.4	19.5	0.00e+00	0	55	0	1197473792	36	4258
2026-01-09 14:07:35.98	153.81	25.46	-32.6	-34.3	19.6	0.00e+00	0	55	0	1226833920	36	4194
2026-01-09 14:07:40.02	153.70	26.12	-31.8	-33.5	19.5	0.00e+00	0	55	0	1256194048	34	4307
2026-01-09 14:07:44.06	153.58	26.80	-31.8	-33.4	19.5	0.00e+00	0	55	0	1285554176	34	4272
2026-01-09 14:07:48.10	153.45	27.50	-31.7	-33.4	19.6	0.00e+00	0	56	0	1313865728	34	4275
2026-01-09 14:07:52.14	153.31	28.21	-31.7	-33.3	19.6	0.00e+00	0	56	0	1343225856	34	4237
2026-01-09 14:07:56.17	153.17	28.95	-31.7	-33.3	19.8	0.00e+00	0	56	0	1372585984	34	4218
2026-01-09 14:08:00.21	153.02	29.70	-31.5	-33.1	20.0	0.00e+00	0	55	0	1401946112	34	4107
2026-01-09 14:08:04.25	152.87	30.47	-31.5	-33.1	19.9	0.00e+00	0	56	0	1430257664	33	4364
2026-01-09 14:08:08.29	152.70	31.27	-31.7	-33.3	19.8	0.00e+00	0	56	0	1459617792	33	4474
2026-01-09 14:08:12.33	152.53	32.08	-31.8	-33.4	19.6	0.00e+00	0	56	0	1488977920	33	4531
2026-01-09 14:08:16.37	152.34	32.92	-31.8	-33.4	19.7	0.00e+00	0	56	0	1518338048	33	4517
2026-01-09 14:08:20.40	152.15	33.78	-31.7	-33.3	19.7	0.00e+00	0	56	0	1547698176	33	4492
2026-01-09 14:08:24.44	151.94	34.67	-31.7	-33.4	19.7	0.00e+00	0	56	0	1576009728	33	4496
2026-01-09 14:08:28.48	151.73	35.58	-31.6	-33.3	19.8	0.00e+00	0	56	0	1605369856	33	4457
2026-01-09 14:08:32.51	151.50	36.52	-31.8	-33.5	19.7	0.00e+00	0	56	0	1634729984	33	4546
2026-01-09 14:08:36.56	151.25	37.48	-32.1	-33.8	19.5	0.00e+00	0	56	0	1664090112	33	4718
2026-01-09 14:08:40.59	150.99	38.47	-32.0	-33.7	19.6	0.00e+00	0	56	0	1693450240	33	4684
2026-01-09 14:08:44.63	150.71	39.50	-32.1	-33.7	19.5	0.00e+00	0	56	0	1721761792	33	4701
2026-01-09 14:08:48.66	150.41	40.55	-32.1	-33.7	19.6	0.00e+00	0	56	0	1751121920	33	4678
2026-01-09 14:08:52.71	150.09	41.63	-31.9	-33.4	19.8	0.00e+00	0	56	0	1780482048	33	4531
2026-01-09 14:08:56.74	149.75	42.75	-32.5	-33.4	20.7	0.00e+00	0	56	0	1809842176	34	4279
2026-01-09 14:09:00.79	149.38	43.90	-33.1	-34.1	20.1	0.00e+00	0	56	0	1839202304	35	4356
2026-01-09 14:09:04.83	148.99	45.08	-34.1	-35.1	19.9	0.00e+00	0	56	0	1868562432	37	4384
2026-01-09 14:09:08.86	148.56	46.29	-33.9	-34.9	20.1	0.00e+00	0	56	0	1896873984	38	4027
2026-01-09 14:09:12.91	148.09	47.55	-34.1	-35.1	19.9	0.00e+00	0	56	0	1926234112	38	4137
2026-01-09 14:09:16.95	147.59	48.83	-34.6	-35.6	19.3	0.00e+00	0	56	0	1955594240	39	4145
2026-01-09 14:09:20.99	147.04	50.16	-34.5	-35.5	19.5	0.00e+00	0	56	0	1984954368	39	4097
2026-01-09 14:09:25.03	146.43	51.52	-34.3	-35.4	19.7	0.00e+00	0	56	0	2014314496	39	4010
2026-01-09 14:09:29.06	145.77	52.91	-34.8	-35.9	19.2	0.00e+00	0	56	0	2042626048	39	4272
2026-01-09 14:09:33.10	145.04	54.34	-34.5	-35.6	19.4	0.00e+00	0	56	0	2071986176	39	4109
2026-01-09 14:09:37.14	144.23	55.80	-34.7	-35.8	19.2	0.00e+00	0	56	0	2101346304	39	4205
2026-01-09 14:09:41.18	143.33	57.30	-34.7	-35.7	19.2	0.00e+00	0	56	0	2130706432	40	3953
2026-01-09 14:09:45.21	142.32	58.83	-34.4	-35.5	19.5	0.00e+00	0	56	0	2160066560	39	4072
2026-01-09 14:09:49.25	141.19	60.39	-34.4	-35.4	19.6	0.00e+00	0	57	0	2188378112	38	4284
2026-01-09 14:09:53.29	139.90	61.98	-33.7	-34.8	20.1	0.00e+00	0	56	0	2217738240	38	3964
2026-01-09 14:09:57.32	138.44	63.58	-33.7	-34.8	20.2	0.00e+00	0	56	0	2247098368	37	4200
2026-01-09 14:10:01.36	136.75	65.21	-32.6	-33.5	21.3	0.00e+00	0	56	0	2276458496	36	3862
2026-01-09 14:10:05.40	134.79	66.86	-32.6	-33.6	20.5	0.00e+00	0	57	0	2304770048	35	4107
2026-01-09 14:10:09.44	132.51	68.50	-32.2	-33.1	20.8	0.00e+00	0	56	0	2334130176	34	4134
2026-01-09 14:10:13.48	129.80	70.14	-33.1	-34.1	19.9	0.00e+00	0	56	0	2363490304	35	4364
2026-01-09 14:10:17.51	126.59	71.75	-33.2	-34.2	20.6	0.00e+00	0	57	0	2392850432	37	3921
2026-01-09 14:10:21.55	122.71	73.32	-33.0	-34.0	20.8	0.00e+00	0	56	0	2422210560	37	3828
2026-01-09 14:10:25.59	118.00	74.82	-33.0	-34.0	20.8	0.00e+00	0	57	0	2450522112	36	4083
2026-01-09 14:10:29.63	112.25	76.22	-31.4	-32.4	21.2	0.00e+00	0	57	0	2479882240	33	4005
2026-01-09 14:10:33.67	105.24	77.47	-31.5	-32.4	21.5	0.00e+00	0	57	0	2509242368	33	4044
2026-01-09 14:10:37.71	96.78	78.50	-31.3	-32.2	21.7	0.00e+00	0	57	0	2538602496	32	4184
2026-01-09 14:10:41.74	86.91	79.24	-31.1	-32.1	21.8	0.00e+00	0	57	0	2567962624	32	4100
2026-01-09 14:10:45.78	75.89	79.63	-31.1	-32.1	21.8	0.00e+00	0	57	0	2597322752	32	4099
2026-01-09 14:10:49.82	64.45	79.63	-31.3	-32.2	21.7	0.00e+00	0	57	0	2625634304	32	4169
2026-01-09 14:10:53.86	53.46	79.22	-30.8	-31.7	22.2	0.00e+00	0	57	0	2654994432	32	3940
2026-01-09 14:10:57.89	43.63	78.47	-30.8	-31.7	22.1	0.00e+00	0	57	0	2684354560	32	3953
2026-01-09 14:11:01.93	35.22	77.43	-31.3	-32.2	21.7	0.00e+00	0	57	0	2713714688	32	4158
2026-01-09 14:11:05.96	28.27	76.19	-31.3	-32.2	21.7	0.00e+00	0	57	0	2743074816	32	4162
2026-01-09 14:11:10.00	22.56	74.79	-32.1	-33.1	20.8	0.00e+00	0	57	0	2771386368	34	4123
2026-01-09 14:11:14.03	17.89	73.29	-32.7	-33.7	20.3	0.00e+00	0	57	0	2800746496	35	4152
2026-01-09 14:11:18.08	14.03	71.71	-32.9	-33.9	20.1	0.00e+00	0	57	0	2830106624	35	4285
2026-01-09 14:11:22.12	10.83	70.10	-32.4	-33.3	20.6	0.00e+00	0	57	0	2859466752	35	3999
2026-01-09 14:11:26.16	8.14	68.46	-32.5	-33.5	20.5	0.00e+00	0	57	0	2888826880	35	4077
2026-01-09 14:11:30.19	5.87	66.83	-31.9	-32.8	21.2	0.00e+00	0	57	0	2917138432	34	4003
2026-01-09 14:11:34.23	3.93	65.19	-32.6	-33.6	20.4	9.10e-06	0	57	0	2946498560	35	4138
2026-01-09 14:11:38.27	2.25	63.56	-34.1	-35.1	19.8	0.00e+00	0	57	0	2975858688	37	4367
2026-01-09 14:11:42.31	0.79	61.96	-34.6	-35.7	19.3	0.00e+00	0	57	0	3005218816	38	4417
2026-01-09 14:11:46.35	359.51	60.37	-34.4	-35.4	19.5	0.00e+00	0	56	0	3033530368	38	4282
2026-01-09 14:11:50.39	358.38	58.82	-34.8	-35.9	18.9	0.00e+00	0	57	0	3062890496	39	4263
2026-01-09 14:11:54.43	357.37	57.29	-34.8	-35.9	19.1	0.00e+00	0	57	0	3092250624	39	4256
2026-01-09 14:11:58.47	356.48	55.80	-34.8	-35.9	19.0	0.00e+00	0	57	0	3121610752	39	4283
2026-01-09 14:12:02.49	355.68	54.35	-34.5	-35.6	19.3	0.00e+00	0	57	0	3150970880	39	4133
2026-01-09 14:12:06.53	354.95	52.92	-34.6	-35.6	19.3	0.00e+00	0	57	0	3179282432	39	4143
2026-01-09 14:12:10.56	354.29	51.54	-35.0	-36.1	18.9	0.00e+00	0	57	0	3208642560	39	4363
2026-01-09 14:12:14.60	353.69	50.18	-34.4	-35.5	18.5	0.00e+00	0	57	0	3238002688	39	4072
2026-01-09 14:12:18.64	353.14	48.87	-34.4	-35.4	19.5	0.00e+00	0	57	0	3267362816	39	4036
2026-01-09 14:12:22.68	352.64	47.58	-34.1	-35.2	19.6	0.00e+00	0	57	0	3296722944	39	3932
2026-01-09 14:12:26.72	352.18	46.34	-33.4	-34.4	20.4	0.00e+00	0	57	0	3325034496	37	4041
2026-01-09 14:12:30.75	351.75	45.13	-33.3	-34.3	20.4	0.00e+00	0	57	0	3354394624	37	3989
2026-01-09 14:12:34.79	351.35	43.95	-32.9	-33.9	20.9	0.00e+00	0	57	0	3383754752	36	4028
2026-01-09 14:12:38.83	350.99	42.81	-32.8	-33.8	20.9	0.00e+00	0	57	0	3413114880	36	3970
2026-01-09 14:12:42.87	350.65	41.70	-33.2	-34.2	20.6	0.00e+00	0	57	0	3442475008	36	4174
2026-01-09 14:12:46.91	350.33	40.62	-33.8	-34.8	20.0	0.00e+00	0	57	0	3471835136	37	4222
2026-01-09 14:12:50.95	350.04	39.57	-33.8	-34.9	19.9	0.00e+00	0	57	0	3500146688	37	4249
2026-01-09 14:12:54.99	349.76	38.55	-33.5	-34.5	20.3	0.00e+00	0	57	0	3529506816	37	4086
2026-01-09 14:12:59.03	349.50	37.56	-33.4	-34.5	20.3	0.00e+00	0	57	0	3558866944	37	4055
2026-01-09 14:13:03.07	349.26	36.60	-33.1	-34.1	20.7	0.00e+00	0	57	0	3588227072	37	3894
2026-01-09 14:13:07.10	349.03	35.67	-32.8	-33.8	20.9	0.00e+00	0	57	0	3616538624	36	3983
2026-01-09 14:13:11.14	348.81	34.76	-32.6	-33.6	21.1	0.00e+00	0	57	0	3645898752	36	3880
2026-01-09 14:13:15.18	348.61	33.88	-32.5	-33.5	21.2	0.00e+00	0	57	0	3675258880	36	3831
2026-01-09 14:13:19.22	348.42	33.02	-32.7	-33.7	21.0	0.00e+00	0	57	0	3704619008	36	3935
2026-01-09 14:13:23.25	348.24	32.18	-33.0	-34.0	20.8	0.00e+00	0	57	0	3732930560	36	4056
2026-01-09 14:13:27.29	348.06	31.37	-33.2	-34.2	20.5	0.00e+00	0	57	0	3762290688	36	4181
2026-01-09 14:13:31.33	347.90	30.58	-33.3	-34.3	20.4	0.00e+00	0	57	0	3791650816	36	4214
2026-01-09 14:13:35.37	347.75	29.81	-33.2	-34.2	20.4	0.00e+00	0	57	0	3821010944	36	4180
2026-01-09 14:13:39.41	347.60	29.06	-33.2	-34.2	20.4	0.00e+00	0	57	0	3850371072	36	4158
2026-01-09 14:13:43.44	347.46	28.33	-33.2	-34.2	20.4	0.00e+00	0	57	0	3878682624	36	4148
2026-01-09 14:13:47.48	347.33	27.62	-33.3	-34.2	20.4	0.00e+00	0	57	0	3908042752	36	4192
2026-01-09 14:13:51.52	347.20	26.92	-33.4	-34.4	20.2	0.00e+00	0	57	0	3937402880	36	4252
2026-01-09 14:13:55.56	347.08	26.24	-33.5	-34.5	20.1	0.00e+00	0	57	0	3966763008	36	4315
2026-01-09 14:13:59.60	346.97	25.58	-33.5	-34.5	20.1	0.00e+00	0	57	0	3996123136	36	4330
2026-01-09 14:14:03.63	346.86	24.94	-33.4	-34.5	20.1	0.00e+00	0	57	0	4025483264	36	4292
2026-01-09 14:14:07.66	346.76	24.31	-33.5	-34.6	19.9	0.00e+00	0	57	0	4053794816	36	4342
2026-01-09 14:14:11.71	346.66	23.70	-33.4	-34.4	20.0	0.00e+00	0	57	0	4083154944	36	4282
2026-01-09 14:14:15.74	346.56	23.10	-33.6	-34.6	19.7	0.00e+00	0	57	0	4112515072	36	4370
2026-01-09 14:14:19.79	346.47	22.51	-33.4	-34.4	19.7	0.00e+00	0	57	0	4141875200	36	4282
2026-01-09 14:14:23.82	346.38	21.94	-33.8	-34.9	18.7	0.00e+00	0	57	0	4171235328	37	4277
2026-01-09 14:14:27.86	346.30	21.38	-37.2	-39.3	12.8	2.40e-05	0	57	0	4199546880	43	5026
2026-01-09 14:14:31.90	346.22	20.83	-40.5	-47.1	4.8	7.84e-01	0	57	0	4224712704	50	8242
2026-01-09 14:14:35.94	346.14	20.29	-40.6	-51.1	3.8	8.46e-01	0	57	104	4224712704	50	13105
2026-01-09 14:14:39.98	346.07	19.76	-40.8	-51.9	3.8	8.46e-01	0	57	104	4224712704	51	13507
2026-01-09 14:14:44.02	346.00	19.25	-40.9	-51.8	3.8	8.46e-01	0	57	104	4224712704	51	13331
2026-01-09 14:14:48.06	345.93	18.74	-40.5	-51.4	3.8	8.46e-01	0	57	104	4224712704	52	12053
2026-01-09 14:14:52.09	345.87	18.25	-41.0	-52.2	3.8	8.46e-01	0	57	104	4224712704	52	13211
2026-01-09 14:14:56.13	345.80	17.76	-40.8	-52.1	3.8	8.45e-01	0	57	104	4224712704	52	12979
2026-01-09 14:15:00.17	345.74	17.29	-40.3	-51.9	3.8	8.46e-01	0	57	104	4224712704	51	13476
2026-01-09 14:15:04.21	345.69	16.82	-40.4	-51.8	3.8	8.46e-01	0	57	104	4224712704	51	13310
2026-01-09 14:15:08.25	345.63	16.36	-41.4	-52.8	3.8	8.45e-01	0	57	104	4224712704	52	14082
2026-01-09 14:15:12.29	345.58	15.92	-40.9	-51.9	3.8	8.46e-01	0	57	104	4224712704	52	12796
2026-01-09 14:15:16.33	345.53	15.47	-41.0	-52.0	3.8	8.46e-01	0	57	104	4224712704	52	12897
2026-01-09 14:15:20.37	345.48	15.04	-40.9	-51.9	3.8	8.47e-01	0	57	104	4224712704	52	12678
2026-01-09 14:15:24.41	345.43	14.62	-41.0	-51.9	3.8	8.46e-01	0	57	104	4224712704	52	12785
2026-01-09 14:15:28.45	345.38	14.20	-40.7	-51.7	3.8	8.47e-01	0	57	104	4224712704	52	12413
2026-01-09 14:15:32.48	345.34	13.79	-40.9	-51.8	3.8	8.46e-01	0	57	104	4224712704	52	12530
2026-01-09 14:15:36.52	345.30	13.38	-40.8	-51.7	3.8	8.46e-01	0	57	104	4224712704	52	12477
2026-01-09 14:15:40.56	345.26	12.98	-40.6	-51.7	3.8	8.46e-01	0	57	104	4224712704	52	12501
2026-01-09 14:15:44.60	345.22	12.59	-40.6	-51.5	3.8	8.46e-01	0	57	104	4224712704	52	12200
2026-01-09 14:15:48.63	345.18	12.21	-40.5	-51.5	3.8	8.46e-01	0	57	104	4224712704	51	12956
2026-01-09 14:15:52.67	345.14	11.83	-40.9	-51.8	3.8	8.45e-01	0	57	104	4224712704	51	13333
2026-01-09 14:15:56.71	345.11	11.45	-40.5	-51.5	3.8	8.45e-01	0	57	104	4224712704	51	12832
2026-01-09 14:16:00.75	345.07	11.09	-40.7	-51.6	3.8	8.46e-01	0	57	104	4224712704	51	13051
2026-01-09 14:16:04.79	345.04	10.72	-40.7	-51.5	3.8	8.47e-01	0	57	104	4224712704	51	12917
2026-01-09 14:16:08.83	345.01	10.37	-40.7	-51.7	3.8	8.45e-01	0	57	104	4224712704	51	13167
2026-01-09 14:16:12.87	344.98	10.01	-40.6	-51.4	3.8	8.46e-01	0	58	104	4224712704	51	12780
2026-01-09 14:16:16.91	344.95	9.67	-41.0	-51.9	3.8	8.46e-01	0	57	104	4224712704	51	13475
2026-01-09 14:16:20.95	344.92	9.33	-40.6	-51.6	3.8	8.46e-01	0	57	104	4224712704	51	12962
2026-01-09 14:16:24.99	344.90	8.99	-40.7	-51.6	3.8	8.46e-01	0	57	104	4224712704	51	13042
2026-01-09 14:16:29.03	344.87	8.65	-40.7	-51.6	3.8	8.46e-01	0	57	104	4224712704	51	13046
2026-01-09 14:16:33.07	344.84	8.33	-40.9	-51.7	3.8	8.47e-01	0	57	104	4224712704	51	13238
2026-01-09 14:16:37.11	344.82	8.00	-40.7	-51.6	3.8	8.46e-01	0	57	104	4224712704	51	12966
2026-01-09 14:16:41.15	344.80	7.68	-45.0	-56.0	3.8	8.46e-01	0	58	104	4224712704	59	13685
2026-01-09 14:16:45.20	344.78	7.36	-45.3	-56.6	3.8	8.47e-01	0	57	104	4224712704	60	13874
2026-01-09 14:16:49.24	344.75	7.05	-45.3	-56.7	3.8	8.47e-01	0	57	104	4224712704	60	13915
2026-01-09 14:16:53.28	344.73	6.74	-45.2	-56.5	3.8	8.46e-01	0	57	104	4224712704	60	13618
2026-01-09 14:16:57.32	344.71	6.44	-45.2	-56.4	3.8	8.47e-01	0	57	104	4224712704	60	13553
2026-01-09 14:17:01.37	344.69	6.13	-45.1	-56.4	3.8	8.46e-01	0	57	104	4224712704	60	13501
2026-01-09 14:17:05.41	344.68	5.84	-45.1	-56.4	3.8	8.46e-01	0	57	104	4224712704	60	13562
2026-01-09 14:17:09.46	344.66	5.54	-45.1	-56.4	3.8	8.45e-01	0	57	104	4224712704	60	13548
2026-01-09 14:17:13.50	344.64	5.25	-45.1	-56.4	3.8	8.45e-01	0	57	104	4224712704	60	13520
2026-01-09 14:17:17.54	344.63	4.96	-45.1	-56.4	3.8	8.47e-01	0	57	104	4224712704	60	13562
2026-01-09 14:17:21.58	344.61	4.67	-45.1	-56.4	3.8	8.45e-01	0	57	104	4224712704	60	13490
2026-01-09 14:17:25.62	344.59	4.39	-45.1	-56.4	3.8	8.46e-01	0	57	104	4224712704	60	13552
2026-01-09 14:17:29.67	344.58	4.11	-45.1	-56.4	3.8	8.47e-01	0	57	104	4224712704	60	13526
2026-01-09 14:17:33.71	344.57	3.84	-45.1	-56.4	3.8	8.46e-01	0	57	104	4224712704	60	13469
2026-01-09 14:17:37.75	344.55	3.56	-45.1	-56.4	3.8	8.45e-01	0	57	104	4224712704	60	13497
2026-01-09 14:17:41.79	344.54	3.29	-45.1	-56.4	3.8	8.46e-01	0	58	104	4224712704	60	13519
2026-01-09 14:17:45.84	344.53	3.02	-45.2	-56.2	3.8	8.46e-01	0	58	104	4224712704	59	13998
2026-01-09 14:17:49.88	344.52	2.76	-45.2	-56.2	3.8	8.46e-01	0	58	104	4224712704	59	13886
2026-01-09 14:17:53.92	344.51	2.49	-45.2	-56.2	3.8	8.47e-01	0	57	104	4224712704	59	13921
2026-01-09 14:17:57.96	344.50	2.23	-45.2	-56.2	3.8	8.46e-01	0	57	104	4224712704	59	13930
2026-01-09 14:18:02.00	344.49	1.97	-45.0	-56.1	3.8	8.45e-01	0	57	104	4224712704	59	13801

#Closed at: 2026-01-09 14:18:04
#Recorded file [4224 MB]: D:/lorett/data/31039_260109_170337.dat