passes_logs/2026/01/09/R2.0S_Moscow/R2.0S_Moscow__20260109_081915_NOAA_20_JPSS-1_rec.log

#Pass ID: 20260109_081915_NOAA 20 (JPSS-1)
#Satellite: NOAA 20 (JPSS-1)
#Configuration: NOAA 20
#almurnet v.1.7.20251203
#Start time: 2026-01-09 08:19:17

#Version: 2.2.20231116
#Station: R2.0S_Moscow
#Location: 37.707566 lon 55.798166 lat
#TLE: 1 43013U 17073A   26008.42245989  .00000120  00000+0  77990-4 0  9996
#TLE: 2 43013  98.7631 309.4315 0001737  48.7960 311.3365 14.19534455421802

#Time	Az	El	Level	Level2	SNR	BER	BlckErr	Temp	State	Recorded	gain1	gain2
2026-01-09 08:19:17.02	113.63	2.08	-42.1	-55.9	4.0	1.50e+00	0	48	0	0	55	18095
2026-01-09 08:19:20.04	113.43	2.25	-41.8	-53.9	4.3	1.50e+00	0	48	104	0	53	16000
2026-01-09 08:19:23.07	113.23	2.42	-41.5	-55.7	3.8	1.49e+00	0	48	104	0	54	18642
2026-01-09 08:19:26.10	113.03	2.60	-41.6	-55.6	4.1	1.49e+00	0	48	104	0	55	17301
2026-01-09 08:19:29.14	112.82	2.77	-41.1	-55.6	4.1	1.50e+00	0	49	104	0	55	17340
2026-01-09 08:19:32.17	112.62	2.95	-41.4	-55.8	4.0	1.50e+00	0	49	104	0	55	17747
2026-01-09 08:19:35.20	112.41	3.13	-41.2	-55.2	4.0	1.50e+00	0	49	104	0	54	17548
2026-01-09 08:19:38.23	112.20	3.30	-41.4	-54.3	4.1	1.50e+00	0	49	104	0	53	16799
2026-01-09 08:19:41.26	111.98	3.48	-41.8	-54.6	4.1	1.49e+00	0	49	104	0	54	16503
2026-01-09 08:19:44.29	111.76	3.66	-42.2	-55.0	4.1	1.50e+00	0	49	104	0	54	17150
2026-01-09 08:19:47.33	111.54	3.84	-39.9	-54.7	4.0	1.50e+00	0	50	104	0	53	17520
2026-01-09 08:19:50.35	111.32	4.02	-40.5	-55.1	4.0	1.50e+00	0	50	104	0	53	18493
2026-01-09 08:19:53.38	111.09	4.20	-38.7	-53.8	4.0	1.50e+00	0	50	104	0	46	23751
2026-01-09 08:19:56.42	110.86	4.39	-37.8	-55.4	4.0	1.50e+00	0	50	104	0	46	28556
2026-01-09 08:19:59.44	110.63	4.57	-38.0	-55.6	3.9	1.50e+00	0	50	104	0	47	27614
2026-01-09 08:20:02.48	110.40	4.75	-39.0	-54.7	4.1	1.50e+00	0	51	104	0	48	23549
2026-01-09 08:20:05.51	110.16	4.94	-40.2	-55.4	4.1	1.50e+00	0	50	104	0	51	21262
2026-01-09 08:20:08.54	109.92	5.12	-41.4	-55.8	4.0	1.50e+00	0	50	104	0	53	19921
2026-01-09 08:20:11.57	109.68	5.31	-41.5	-55.7	4.1	1.50e+00	0	51	104	0	53	19792
2026-01-09 08:20:14.60	109.43	5.50	-41.4	-54.6	3.7	1.50e+00	0	51	104	0	53	17434
2026-01-09 08:20:17.63	109.18	5.68	-40.6	-54.7	4.0	1.50e+00	0	51	104	0	54	16643
2026-01-09 08:20:20.66	108.92	5.87	-41.7	-55.7	4.0	1.50e+00	0	51	104	0	55	17612
2026-01-09 08:20:23.69	108.67	6.06	-41.7	-55.5	4.1	1.50e+00	0	51	104	0	54	18195
2026-01-09 08:20:26.72	108.41	6.25	-41.0	-55.5	4.0	1.50e+00	0	52	104	0	54	18260
2026-01-09 08:20:29.75	108.14	6.44	-41.3	-55.7	4.0	1.49e+00	0	52	104	0	54	18671
2026-01-09 08:20:32.78	107.87	6.64	-40.0	-53.0	4.2	1.50e+00	0	52	104	0	51	16183
2026-01-09 08:20:35.81	107.60	6.83	-41.5	-55.5	4.1	1.50e+00	0	52	104	0	54	18125
2026-01-09 08:20:38.85	107.33	7.02	-41.8	-55.3	4.0	1.50e+00	0	52	104	0	54	17743
2026-01-09 08:20:41.88	107.05	7.22	-40.0	-54.9	3.9	1.50e+00	0	52	104	0	55	16017
2026-01-09 08:20:44.91	106.76	7.41	-41.4	-53.2	4.1	1.50e+00	0	52	104	0	53	14744
2026-01-09 08:20:47.94	106.48	7.61	-35.3	-48.9	4.3	1.48e+00	0	52	104	0	49	11375
2026-01-09 08:20:50.97	106.19	7.81	-41.2	-48.7	6.1	5.65e-01	15	52	0	4194304	53	8773
2026-01-09 08:20:54.00	105.89	8.01	-39.8	-46.0	8.2	1.49e-01	2	53	0	9437184	51	7272
2026-01-09 08:20:57.02	105.59	8.20	-37.3	-48.4	4.1	5.88e-01	5	53	104	10485760	42	16077
2026-01-09 08:21:00.05	105.29	8.40	-40.0	-45.2	7.7	1.44e-01	3	53	0	12582912	50	6980
2026-01-09 08:21:03.08	104.98	8.60	-39.9	-45.0	9.3	8.10e-02	0	53	0	17825792	51	6454
2026-01-09 08:21:06.11	104.67	8.80	-40.0	-45.0	8.5	2.94e-01	7	53	0	24117248	49	7272
2026-01-09 08:21:09.14	104.35	9.01	-39.9	-45.4	8.2	2.29e-01	4	53	0	29360128	50	7133
2026-01-09 08:21:12.17	104.03	9.21	-38.8	-45.1	8.0	1.95e-01	2	53	0	34603008	50	6931
2026-01-09 08:21:15.20	103.71	9.41	-38.7	-45.0	7.6	2.99e-01	15	54	0	39845888	49	7280
2026-01-09 08:21:18.23	103.38	9.62	-36.2	-44.2	5.2	3.34e-01	21	53	0	45088768	42	9881
2026-01-09 08:21:21.26	103.04	9.82	-37.7	-44.4	7.2	4.21e-01	18	53	0	50331648	47	7617
2026-01-09 08:21:24.28	102.70	10.03	-36.3	-44.5	7.3	3.57e-01	36	53	0	56623104	46	8128
2026-01-09 08:21:27.31	102.36	10.24	-37.2	-44.2	7.1	3.93e-01	46	54	0	61865984	44	8794
2026-01-09 08:21:30.34	102.01	10.44	-36.5	-43.7	6.8	6.70e-01	67	54	0	66060288	41	9843
2026-01-09 08:21:33.37	101.65	10.65	-34.7	-43.1	6.9	5.89e-01	75	54	0	71303168	41	9250
2026-01-09 08:21:36.40	101.29	10.86	-34.5	-43.7	6.5	5.86e-01	91	54	0	73400320	40	10514
2026-01-09 08:21:39.43	100.93	11.07	-34.0	-45.1	4.8	1.39e+00	0	54	104	74448896	38	13817
2026-01-09 08:21:42.45	100.56	11.28	-34.0	-44.7	4.8	1.35e+00	0	54	104	74448896	38	13258
2026-01-09 08:21:45.48	100.18	11.49	-31.4	-42.6	4.9	1.30e+00	0	54	104	74448896	38	10399
2026-01-09 08:21:48.51	99.80	11.70	-32.4	-42.8	6.8	7.43e-01	65	54	0	74448896	40	9418
2026-01-09 08:21:51.54	99.42	11.91	-32.8	-43.1	7.3	4.52e-01	57	54	0	79691776	39	10345
2026-01-09 08:21:54.57	99.02	12.12	-36.0	-42.6	7.0	6.51e-01	32	54	0	83886080	41	8735
2026-01-09 08:21:57.60	98.62	12.34	-36.2	-43.4	8.6	2.87e-01	15	54	0	90177536	45	7592
2026-01-09 08:22:00.62	98.22	12.55	-37.7	-42.9	9.0	2.14e-01	7	54	0	95420416	45	7198
2026-01-09 08:22:03.65	97.81	12.76	-38.4	-43.4	10.1	1.11e-01	3	54	0	100663296	49	6017
2026-01-09 08:22:06.68	97.39	12.98	-39.2	-44.4	10.2	6.36e-02	0	54	0	106954752	49	6769
2026-01-09 08:22:09.71	96.97	13.19	-40.5	-45.0	10.7	2.23e-02	0	54	0	112197632	52	6070
2026-01-09 08:22:12.74	96.54	13.41	-40.5	-45.7	10.5	4.86e-03	0	55	0	118489088	52	6627
2026-01-09 08:22:15.77	96.11	13.62	-41.2	-45.8	10.8	2.65e-03	0	55	0	123731968	53	6299
2026-01-09 08:22:18.79	95.67	13.84	-41.1	-45.3	11.5	1.57e-03	0	55	0	128974848	53	5924
2026-01-09 08:22:21.83	95.22	14.05	-40.8	-44.4	12.6	7.85e-05	0	54	0	135266304	53	5369
2026-01-09 08:22:24.86	94.76	14.27	-40.6	-44.0	12.9	5.26e-05	0	55	0	140509184	52	5454
2026-01-09 08:22:27.89	94.30	14.49	-40.7	-44.3	12.7	3.50e-05	0	55	0	146800640	52	5633
2026-01-09 08:22:30.91	93.83	14.70	-40.8	-44.4	12.6	9.91e-05	0	55	0	152043520	52	5704
2026-01-09 08:22:33.94	93.36	14.92	-40.8	-44.4	12.6	1.07e-04	0	55	0	158334976	52	5695
2026-01-09 08:22:36.97	92.88	15.13	-40.8	-44.4	12.7	8.69e-05	0	55	0	163577856	52	5662
2026-01-09 08:22:40.00	92.39	15.35	-40.2	-44.3	12.7	8.01e-05	0	55	0	168820736	52	5616
2026-01-09 08:22:43.02	91.89	15.56	-40.7	-44.2	12.8	6.94e-05	0	55	0	175112192	52	5572
2026-01-09 08:22:46.05	91.39	15.78	-40.9	-44.7	12.3	1.62e-04	0	55	0	180355072	52	5890
2026-01-09 08:22:49.08	90.87	15.99	-41.1	-45.0	12.0	2.72e-04	0	55	0	186646528	52	6062
2026-01-09 08:22:52.11	90.36	16.21	-41.1	-45.0	11.9	2.73e-04	0	55	0	191889408	52	6126
2026-01-09 08:22:55.14	89.83	16.42	-40.9	-44.8	12.0	3.13e-04	0	55	0	197132288	52	5936
2026-01-09 08:22:58.17	89.30	16.63	-40.9	-45.1	11.7	4.64e-04	0	55	0	203423744	52	6137
2026-01-09 08:23:01.19	88.76	16.84	-40.7	-44.8	11.6	6.35e-04	0	55	0	208666624	52	5971
2026-01-09 08:23:04.22	88.21	17.06	-40.6	-45.0	11.1	1.23e-03	0	55	0	214958080	52	6068
2026-01-09 08:23:07.25	87.65	17.27	-40.5	-45.1	10.8	2.61e-03	0	55	0	220200960	52	6144
2026-01-09 08:23:10.28	87.08	17.48	-40.4	-45.0	10.6	3.33e-03	0	55	0	226492416	52	6113
2026-01-09 08:23:13.30	86.51	17.68	-40.3	-44.9	10.7	2.69e-03	0	55	0	231735296	52	6045
2026-01-09 08:23:16.33	85.93	17.89	-40.2	-44.5	11.1	1.62e-03	0	55	0	236978176	52	5769
2026-01-09 08:23:19.36	85.34	18.10	-40.0	-44.3	11.3	1.08e-03	0	55	0	243269632	51	5977
2026-01-09 08:23:22.39	84.75	18.30	-40.0	-44.0	11.9	5.42e-04	0	55	0	248512512	51	5749
2026-01-09 08:23:25.42	84.14	18.50	-39.6	-42.9	13.3	2.51e-05	0	55	0	254803968	51	5088
2026-01-09 08:23:28.45	83.53	18.71	-39.6	-42.7	13.9	3.80e-06	0	56	0	260046848	51	4975
2026-01-09 08:23:31.48	82.91	18.90	-39.6	-42.5	14.3	3.00e-06	0	55	0	265289728	51	4852
2026-01-09 08:23:34.50	82.28	19.10	-39.5	-42.5	14.2	7.00e-07	0	55	0	271581184	51	4858
2026-01-09 08:23:37.53	81.64	19.30	-39.4	-42.4	14.1	7.00e-07	0	55	0	276824064	50	5088
2026-01-09 08:23:40.56	80.99	19.49	-39.4	-42.6	13.7	3.80e-06	0	55	0	283115520	50	5183
2026-01-09 08:23:43.58	80.34	19.68	-39.4	-42.6	13.6	6.10e-06	0	55	0	288358400	50	5214
2026-01-09 08:23:46.61	79.68	19.87	-39.4	-42.7	13.4	1.37e-05	0	56	0	293601280	50	5251
2026-01-09 08:23:49.64	79.01	20.05	-39.6	-42.7	13.7	3.80e-06	0	55	0	299892736	50	5257
2026-01-09 08:23:52.67	78.33	20.24	-39.6	-42.7	14.0	5.30e-06	0	56	0	305135616	50	5227
2026-01-09 08:23:55.70	77.64	20.42	-39.8	-42.9	13.9	3.80e-06	0	56	0	311427072	50	5346
2026-01-09 08:23:58.73	76.95	20.59	-39.5	-42.4	14.4	1.50e-06	0	55	0	316669952	50	5092
2026-01-09 08:24:01.75	76.25	20.76	-39.5	-42.3	14.7	0.00e+00	0	56	0	322961408	50	4985
2026-01-09 08:24:04.78	75.54	20.93	-39.3	-41.9	15.1	0.00e+00	0	56	0	328204288	50	4790
2026-01-09 08:24:07.81	74.82	21.10	-39.2	-41.7	15.3	0.00e+00	0	56	0	333447168	50	4679
2026-01-09 08:24:10.84	74.09	21.26	-39.1	-41.6	15.6	0.00e+00	0	56	0	339738624	50	4607
2026-01-09 08:24:13.87	73.36	21.42	-39.1	-41.5	15.6	0.00e+00	0	56	0	344981504	50	4582
2026-01-09 08:24:16.89	72.62	21.58	-39.0	-41.4	15.7	0.00e+00	0	56	0	351272960	50	4533
2026-01-09 08:24:19.92	71.87	21.73	-38.8	-41.2	15.9	0.00e+00	0	56	0	356515840	49	4666
2026-01-09 08:24:22.95	71.12	21.87	-38.8	-41.1	16.2	0.00e+00	0	56	0	361758720	49	4623
2026-01-09 08:24:25.98	70.35	22.01	-38.8	-41.0	16.5	0.00e+00	0	56	0	368050176	49	4562
2026-01-09 08:24:29.01	69.58	22.15	-38.9	-41.1	16.5	0.00e+00	0	56	0	373293056	49	4613
2026-01-09 08:24:32.04	68.81	22.28	-39.0	-41.2	16.3	0.00e+00	0	56	0	379584512	49	4700
2026-01-09 08:24:35.07	68.03	22.41	-39.1	-41.3	16.3	0.00e+00	0	56	0	384827392	49	4721
2026-01-09 08:24:38.09	67.24	22.53	-39.0	-41.2	16.4	0.00e+00	0	56	0	391118848	49	4672
2026-01-09 08:24:41.12	66.44	22.65	-39.5	-41.9	15.7	0.00e+00	0	56	0	396361728	49	5095
2026-01-09 08:24:44.15	65.64	22.76	-39.9	-42.5	15.1	0.00e+00	0	56	0	401604608	50	5158
2026-01-09 08:24:47.18	64.84	22.86	-39.9	-42.4	15.2	0.00e+00	0	56	0	407896064	50	5095
2026-01-09 08:24:50.21	64.02	22.96	-40.1	-42.9	14.8	0.00e+00	0	56	0	413138944	50	5356
2026-01-09 08:24:53.23	63.21	23.06	-40.1	-42.8	14.9	0.00e+00	0	56	0	419430400	50	5292
2026-01-09 08:24:56.26	62.39	23.14	-40.2	-43.0	14.7	0.00e+00	0	56	0	424673280	50	5432
2026-01-09 08:24:59.29	61.56	23.23	-40.5	-43.4	14.2	0.00e+00	0	56	0	429916160	51	5387
2026-01-09 08:25:02.32	60.73	23.30	-40.4	-43.4	14.3	0.00e+00	0	56	0	436207616	51	5343
2026-01-09 08:25:05.34	59.90	23.37	-40.4	-43.3	14.3	0.00e+00	0	56	0	441450496	51	5335
2026-01-09 08:25:08.37	59.06	23.43	-40.5	-43.4	14.3	1.50e-06	0	56	0	447741952	51	5381
2026-01-09 08:25:11.40	58.22	23.49	-40.3	-43.1	14.6	7.00e-07	0	56	0	452984832	51	5189
2026-01-09 08:25:14.42	57.38	23.54	-40.6	-43.5	14.2	0.00e+00	0	56	0	459276288	51	5447
2026-01-09 08:25:17.45	56.54	23.58	-40.3	-43.0	14.7	0.00e+00	0	56	0	464519168	51	5155
2026-01-09 08:25:20.48	55.69	23.62	-40.4	-43.1	14.6	0.00e+00	0	56	0	469762048	51	5210
2026-01-09 08:25:23.51	54.84	23.65	-40.2	-42.9	14.8	0.00e+00	0	56	0	476053504	51	5090
2026-01-09 08:25:26.53	53.99	23.67	-40.3	-43.1	14.7	0.00e+00	0	56	0	481296384	51	5175
2026-01-09 08:25:29.56	53.14	23.69	-40.0	-42.7	15.1	0.00e+00	0	56	0	487587840	51	4940
2026-01-09 08:25:32.59	52.29	23.70	-39.9	-42.4	15.3	0.00e+00	0	56	0	492830720	51	4814
2026-01-09 08:25:35.62	51.43	23.70	-39.7	-42.1	15.7	0.00e+00	0	56	0	498073600	51	4642
2026-01-09 08:25:38.64	50.58	23.70	-39.6	-42.0	15.8	0.00e+00	0	56	0	504365056	51	4590
2026-01-09 08:25:41.67	49.73	23.68	-39.4	-41.7	16.1	0.00e+00	0	56	0	509607936	50	4661
2026-01-09 08:25:44.70	48.88	23.67	-39.3	-41.5	16.3	0.00e+00	0	56	0	515899392	50	4575
2026-01-09 08:25:47.73	48.03	23.64	-38.9	-41.0	16.8	0.00e+00	0	56	0	521142272	49	4580
2026-01-09 08:25:50.76	47.18	23.61	-38.8	-40.9	16.9	0.00e+00	0	56	0	526385152	49	4509
2026-01-09 08:25:53.78	46.34	23.57	-38.4	-40.4	17.4	0.00e+00	0	56	0	532676608	48	4512
2026-01-09 08:25:56.81	45.49	23.53	-38.6	-40.6	17.2	0.00e+00	0	56	0	537919488	48	4611
2026-01-09 08:25:59.84	44.65	23.48	-38.3	-40.2	17.6	0.00e+00	0	56	0	544210944	48	4431
2026-01-09 08:26:02.86	43.81	23.42	-38.4	-40.3	17.5	0.00e+00	0	56	0	549453824	48	4461
2026-01-09 08:26:05.89	42.98	23.35	-38.6	-40.6	17.2	0.00e+00	0	56	0	555745280	48	4621
2026-01-09 08:26:08.92	42.15	23.28	-38.6	-40.7	17.1	0.00e+00	0	56	0	560988160	48	4659
2026-01-09 08:26:11.95	41.32	23.20	-38.7	-40.8	17.0	0.00e+00	0	56	0	566231040	48	4721
2026-01-09 08:26:14.98	40.49	23.12	-39.0	-41.2	16.6	0.00e+00	0	56	0	572522496	48	4953
2026-01-09 08:26:18.01	39.68	23.03	-39.2	-41.4	16.3	0.00e+00	0	56	0	577765376	48	5100
2026-01-09 08:26:21.03	38.86	22.94	-39.5	-41.9	15.9	0.00e+00	0	56	0	584056832	49	5068
2026-01-09 08:26:24.06	38.06	22.84	-39.5	-41.9	15.9	0.00e+00	0	56	0	589299712	49	5078
2026-01-09 08:26:27.09	37.25	22.73	-39.6	-42.0	15.8	0.00e+00	0	56	0	594542592	49	5130
2026-01-09 08:26:30.12	36.46	22.62	-39.8	-42.2	15.6	0.00e+00	0	56	0	600834048	50	4969
2026-01-09 08:26:33.15	35.66	22.50	-40.0	-42.5	15.3	0.00e+00	0	56	0	606076928	50	5157
2026-01-09 08:26:36.17	34.88	22.38	-40.0	-42.6	15.3	0.00e+00	0	56	0	612368384	50	5171
2026-01-09 08:26:39.20	34.10	22.25	-40.0	-42.7	15.2	0.00e+00	0	56	0	617611264	50	5219
2026-01-09 08:26:42.23	33.33	22.12	-40.2	-42.9	15.0	0.00e+00	0	56	0	623902720	50	5351
2026-01-09 08:26:45.26	32.56	21.98	-40.2	-42.8	15.0	0.00e+00	0	56	0	629145600	51	5032
2026-01-09 08:26:48.29	31.81	21.84	-40.2	-42.9	14.9	0.00e+00	0	56	0	634388480	51	5085
2026-01-09 08:26:51.32	31.05	21.69	-40.2	-42.9	15.0	0.00e+00	0	56	0	640679936	51	5042
2026-01-09 08:26:54.35	30.31	21.54	-40.3	-43.0	14.8	0.00e+00	0	56	0	645922816	51	5139
2026-01-09 08:26:57.38	29.57	21.39	-40.5	-43.3	14.5	0.00e+00	0	56	0	652214272	51	5293
2026-01-09 08:27:00.41	28.84	21.23	-40.2	-42.8	15.0	0.00e+00	0	56	0	657457152	51	5006
2026-01-09 08:27:03.43	28.12	21.06	-40.2	-42.9	15.0	7.00e-07	0	56	0	662700032	51	5077
2026-01-09 08:27:06.46	27.41	20.90	-40.2	-42.9	15.0	7.00e-07	0	56	0	668991488	51	5043
2026-01-09 08:27:09.49	26.70	20.73	-40.1	-42.7	15.1	0.00e+00	0	56	0	674234368	51	4976
2026-01-09 08:27:12.52	26.01	20.55	-39.9	-42.5	15.4	7.00e-07	0	56	0	680525824	51	4819
2026-01-09 08:27:15.55	25.32	20.38	-39.9	-42.4	15.4	0.00e+00	0	56	0	685768704	51	4772
2026-01-09 08:27:18.58	24.64	20.20	-39.8	-42.3	15.5	0.00e+00	0	56	0	692060160	51	4722
2026-01-09 08:27:21.60	23.96	20.01	-39.8	-42.3	15.5	0.00e+00	0	57	0	697303040	51	4746
2026-01-09 08:27:24.63	23.30	19.83	-39.9	-42.5	15.3	0.00e+00	0	56	0	702545920	51	4833
2026-01-09 08:27:27.66	22.64	19.64	-39.9	-42.4	15.4	0.00e+00	0	56	0	708837376	51	4781
2026-01-09 08:27:30.69	21.99	19.45	-39.8	-42.4	15.5	0.00e+00	0	57	0	714080256	51	4760
2026-01-09 08:27:33.72	21.35	19.26	-39.9	-42.4	15.3	0.00e+00	0	56	0	720371712	51	4803
2026-01-09 08:27:36.74	20.72	19.06	-40.0	-42.6	15.2	0.00e+00	0	56	0	725614592	51	4907
2026-01-09 08:27:39.77	20.10	18.87	-40.0	-42.6	15.2	0.00e+00	0	56	0	730857472	51	4871
2026-01-09 08:27:42.80	19.48	18.67	-39.9	-42.5	15.2	0.00e+00	0	57	0	737148928	51	4834
2026-01-09 08:27:45.83	18.87	18.47	-40.0	-42.6	15.2	0.00e+00	0	56	0	742391808	51	4889
2026-01-09 08:27:48.86	18.27	18.26	-39.8	-42.4	15.4	0.00e+00	0	57	0	748683264	51	4764
2026-01-09 08:27:51.89	17.68	18.06	-39.8	-42.3	15.4	0.00e+00	0	56	0	753926144	51	4737
2026-01-09 08:27:54.91	17.10	17.86	-39.7	-42.2	15.4	0.00e+00	0	56	0	759169024	51	4704
2026-01-09 08:27:57.94	16.52	17.65	-39.6	-42.0	15.7	0.00e+00	0	57	0	765460480	51	4569
2026-01-09 08:28:00.97	15.96	17.44	-39.4	-41.8	15.9	0.00e+00	0	57	0	770703360	50	4727
2026-01-09 08:28:04.00	15.40	17.23	-39.4	-41.7	15.9	0.00e+00	0	56	0	776994816	50	4698
2026-01-09 08:28:07.03	14.84	17.02	-39.6	-42.0	15.6	0.00e+00	0	56	0	782237696	50	4864
2026-01-09 08:28:10.06	14.30	16.81	-39.4	-41.8	15.9	0.00e+00	0	56	0	788529152	50	4729
2026-01-09 08:28:13.09	13.76	16.60	-39.2	-41.5	16.1	0.00e+00	0	57	0	793772032	50	4576
2026-01-09 08:28:16.12	13.23	16.39	-39.2	-41.4	16.2	0.00e+00	0	56	0	799014912	50	4531
2026-01-09 08:28:19.15	12.71	16.17	-39.1	-41.4	16.3	0.00e+00	0	56	0	805306368	50	4517
2026-01-09 08:28:22.18	12.20	15.96	-39.4	-41.8	15.8	0.00e+00	0	56	0	810549248	50	4730
2026-01-09 08:28:25.21	11.69	15.75	-39.5	-42.0	15.6	0.00e+00	0	56	0	816840704	50	4818
2026-01-09 08:28:28.23	11.20	15.53	-39.0	-41.3	16.3	0.00e+00	0	56	0	822083584	50	4463
2026-01-09 08:28:31.26	10.70	15.32	-39.0	-41.3	16.2	0.00e+00	0	56	0	827326464	50	4477
2026-01-09 08:28:34.29	10.22	15.11	-39.2	-41.6	15.9	0.00e+00	0	56	0	833617920	50	4612
2026-01-09 08:28:37.32	9.74	14.89	-39.3	-41.7	15.7	0.00e+00	0	56	0	838860800	50	4701
2026-01-09 08:28:40.35	9.27	14.68	-39.5	-42.0	15.4	0.00e+00	0	57	0	845152256	50	4831
2026-01-09 08:28:43.37	8.81	14.46	-39.7	-42.3	15.0	0.00e+00	0	56	0	850395136	50	5020
2026-01-09 08:28:46.40	8.35	14.25	-39.8	-42.6	14.6	0.00e+00	0	56	0	856686592	50	5198
2026-01-09 08:28:49.43	7.90	14.03	-39.8	-42.6	14.6	0.00e+00	0	56	0	861929472	50	5162
2026-01-09 08:28:52.46	7.46	13.82	-39.5	-42.3	14.9	0.00e+00	0	57	0	867172352	50	4984
2026-01-09 08:28:55.49	7.02	13.60	-39.6	-42.4	14.6	0.00e+00	0	57	0	873463808	50	5090
2026-01-09 08:28:58.52	6.59	13.39	-39.8	-42.9	14.0	1.50e-06	0	56	0	878706688	50	5351
2026-01-09 08:29:01.55	6.17	13.17	-40.0	-43.2	13.5	1.06e-05	0	57	0	884998144	50	5591
2026-01-09 08:29:04.58	5.75	12.96	-39.7	-43.0	13.6	6.10e-06	0	57	0	890241024	50	5426
2026-01-09 08:29:07.60	5.34	12.75	-39.1	-42.1	14.4	1.50e-06	0	57	0	895483904	50	4871
2026-01-09 08:29:10.63	4.93	12.54	-39.4	-43.0	13.0	1.37e-05	0	56	0	901775360	50	5406
2026-01-09 08:29:13.66	4.53	12.32	-40.7	-48.1	6.9	9.80e-02	0	57	0	907018240	52	8683
2026-01-09 08:29:16.69	4.14	12.11	-40.6	-53.8	3.8	1.49e+00	0	56	104	911212544	52	16754
2026-01-09 08:29:19.71	3.75	11.90	-40.0	-54.8	3.8	1.49e+00	0	56	104	911212544	52	18779
2026-01-09 08:29:22.74	3.37	11.69	-39.7	-54.3	3.8	1.49e+00	0	56	104	911212544	51	18901
2026-01-09 08:29:25.77	2.99	11.48	-39.8	-54.6	3.8	1.49e+00	0	56	104	911212544	51	19526
2026-01-09 08:29:28.80	2.62	11.27	-39.7	-54.4	3.8	1.49e+00	0	57	104	911212544	51	19071
2026-01-09 08:29:31.83	2.26	11.06	-39.7	-54.5	3.8	1.49e+00	0	56	104	911212544	51	19178
2026-01-09 08:29:34.86	1.90	10.85	-39.7	-54.3	3.8	1.49e+00	0	57	104	911212544	51	18897
2026-01-09 08:29:37.89	1.54	10.64	-39.6	-54.3	3.8	1.49e+00	0	57	104	911212544	51	18810
2026-01-09 08:29:40.92	1.19	10.44	-39.5	-54.3	3.8	1.49e+00	0	57	104	911212544	51	18741
2026-01-09 08:29:43.95	0.85	10.23	-39.3	-54.3	3.8	1.49e+00	0	57	104	911212544	50	19963
2026-01-09 08:29:46.97	0.51	10.03	-39.6	-54.3	3.8	1.49e+00	0	57	104	911212544	50	19884
2026-01-09 08:29:50.00	0.17	9.82	-39.3	-54.3	3.8	1.49e+00	0	57	104	911212544	50	19848
2026-01-09 08:29:53.03	359.84	9.62	-39.4	-54.3	3.8	1.49e+00	0	56	104	911212544	50	19907
2026-01-09 08:29:56.06	359.52	9.41	-39.2	-54.2	3.8	1.49e+00	0	57	104	911212544	49	20835
2026-01-09 08:29:59.09	359.20	9.21	-39.2	-54.2	3.8	1.49e+00	0	57	104	911212544	49	21006
2026-01-09 08:30:02.11	358.88	9.01	-38.2	-54.1	3.8	1.49e+00	0	57	104	911212544	48	21810
2026-01-09 08:30:05.14	358.57	8.81	-38.7	-54.1	3.8	1.49e+00	0	57	104	911212544	48	21981
2026-01-09 08:30:08.17	358.26	8.61	-38.1	-54.0	3.8	1.49e+00	0	57	104	911212544	48	21717
2026-01-09 08:30:11.20	357.96	8.41	-38.5	-54.1	3.8	1.49e+00	0	57	104	911212544	48	21918
2026-01-09 08:30:14.23	357.66	8.21	-38.5	-54.1	3.8	1.49e+00	0	57	104	911212544	48	21941
2026-01-09 08:30:17.26	357.36	8.01	-38.1	-54.1	3.8	1.49e+00	0	57	104	911212544	48	21810
2026-01-09 08:30:20.29	357.07	7.81	-44.7	-59.0	3.8	1.49e+00	0	57	104	911212544	59	20458
2026-01-09 08:30:23.32	356.79	7.62	-45.0	-59.6	3.8	1.49e+00	0	57	104	911212544	60	20546
2026-01-09 08:30:26.36	356.50	7.42	-45.0	-59.5	3.8	1.49e+00	0	57	104	911212544	60	20520
2026-01-09 08:30:29.39	356.22	7.23	-44.9	-59.4	3.8	1.49e+00	0	57	104	911212544	60	20083
2026-01-09 08:30:32.42	355.95	7.03	-44.8	-59.2	3.8	1.49e+00	0	57	104	911212544	60	19832
2026-01-09 08:30:35.45	355.68	6.84	-44.8	-59.2	3.8	1.49e+00	0	57	104	911212544	60	19772
2026-01-09 08:30:38.48	355.41	6.65	-44.8	-59.2	3.8	1.49e+00	0	57	104	911212544	60	19731
2026-01-09 08:30:41.51	355.15	6.46	-44.8	-59.2	3.8	1.49e+00	0	57	104	911212544	60	19684
2026-01-09 08:30:44.55	354.89	6.27	-44.7	-59.2	3.8	1.49e+00	0	57	104	911212544	60	19666
2026-01-09 08:30:47.58	354.63	6.08	-44.7	-59.1	3.8	1.49e+00	0	57	104	911212544	60	19587
2026-01-09 08:30:50.60	354.38	5.89	-44.7	-59.2	3.8	1.49e+00	0	57	104	911212544	60	19679
2026-01-09 08:30:53.63	354.13	5.70	-44.7	-59.2	3.8	1.49e+00	0	57	104	911212544	60	19617
2026-01-09 08:30:56.67	353.88	5.51	-44.7	-59.1	3.8	1.49e+00	0	57	104	911212544	60	19614
2026-01-09 08:30:59.70	353.64	5.33	-44.7	-59.1	3.8	1.49e+00	0	57	104	911212544	60	19575
2026-01-09 08:31:02.73	353.40	5.14	-44.7	-59.2	3.8	1.49e+00	0	57	104	911212544	60	19632
2026-01-09 08:31:05.76	353.16	4.96	-44.7	-59.2	3.8	1.49e+00	0	57	104	911212544	60	19631
2026-01-09 08:31:08.79	352.93	4.77	-44.7	-59.1	3.8	1.49e+00	0	57	104	911212544	60	19559
2026-01-09 08:31:11.82	352.70	4.59	-44.7	-59.1	3.8	1.49e+00	0	57	104	911212544	60	19538
2026-01-09 08:31:14.85	352.47	4.41	-44.7	-59.1	3.8	1.49e+00	0	57	104	911212544	60	19614
2026-01-09 08:31:17.88	352.25	4.23	-44.7	-59.1	3.8	1.49e+00	0	57	104	911212544	60	19578
2026-01-09 08:31:20.92	352.02	4.04	-44.7	-59.2	3.8	1.49e+00	0	57	104	911212544	60	19619
2026-01-09 08:31:23.95	351.80	3.86	-44.7	-59.2	3.8	1.49e+00	0	57	104	911212544	60	19645
2026-01-09 08:31:26.98	351.59	3.69	-44.7	-59.2	3.8	1.49e+00	0	57	104	911212544	60	19637
2026-01-09 08:31:30.01	351.37	3.51	-44.7	-59.1	3.8	1.49e+00	0	57	104	911212544	60	19598
2026-01-09 08:31:33.04	351.16	3.33	-44.7	-59.1	3.8	1.49e+00	0	57	104	911212544	60	19592
2026-01-09 08:31:36.07	350.96	3.15	-44.7	-59.1	3.8	1.49e+00	0	57	104	911212544	60	19571
2026-01-09 08:31:39.11	350.75	2.98	-44.7	-59.1	3.8	1.49e+00	0	57	104	911212544	60	19594
2026-01-09 08:31:42.14	350.55	2.80	-44.7	-59.1	3.8	1.49e+00	0	57	104	911212544	60	19590
2026-01-09 08:31:45.17	350.35	2.63	-44.7	-59.1	3.8	1.49e+00	0	57	104	911212544	60	19531
2026-01-09 08:31:48.20	350.15	2.45	-44.7	-59.1	3.8	1.49e+00	0	57	104	911212544	60	19575
2026-01-09 08:31:51.23	349.96	2.28	-44.7	-59.2	3.8	1.49e+00	0	57	104	911212544	60	19625
2026-01-09 08:31:54.26	349.76	2.11	-44.7	-59.1	3.8	1.49e+00	0	57	104	911212544	60	19550

#Closed at: 2026-01-09 08:31:56
#Recorded file [911 MB]: D:/lorett/data/31039_260109_111916.dat