passes_logs/2026/01/09/R2.0S_Moscow/R2.0S_Moscow__20260109_112337_AQUA_rec.log

#Pass ID: 20260109_112337_AQUA
#Satellite: AQUA
#Configuration: AQUA
#almurnet v.1.7.20251203
#Start time: 2026-01-09 11:32:02

#Version: 2.2.20231116
#Station: R2.0S_Moscow
#Location: 37.707566 lon 55.798166 lat
#TLE: 1 27424U 02022A   26004.96787593  .00001598  00000+0  32997-3 0  9996
#TLE: 2 27424  98.4069 331.2279 0002002  90.2377   0.6092 14.61798176259425

#Time	Az	El	Level	Level2	SNR	BER	BlckErr	Temp	State	Recorded	gain1	gain2
2026-01-09 11:32:02.25	355.99	32.67	-44.8	-59.2	3.8	1.49e+00	0	56	0	0	60	19811
2026-01-09 11:32:04.27	355.75	32.20	-46.1	-64.6	3.8	7.43e-01	0	56	104	0	62	32919
2026-01-09 11:32:06.29	355.52	31.74	-46.1	-64.7	3.8	7.44e-01	0	57	104	0	62	33015
2026-01-09 11:32:08.31	355.30	31.28	-46.0	-64.4	3.8	7.45e-01	0	57	104	0	62	32068
2026-01-09 11:32:10.33	355.08	30.84	-45.7	-60.8	4.3	7.46e-01	0	57	104	0	62	21126
2026-01-09 11:32:12.35	354.86	30.40	-44.3	-62.7	3.8	7.47e-01	0	57	104	0	60	29545
2026-01-09 11:32:14.37	354.66	29.96	-44.3	-62.8	3.8	7.45e-01	0	57	104	0	60	29760
2026-01-09 11:32:16.39	354.46	29.54	-44.3	-63.0	3.8	7.45e-01	0	57	104	0	60	30498
2026-01-09 11:32:18.42	354.26	29.11	-44.3	-63.1	3.8	7.43e-01	0	57	104	0	60	30986
2026-01-09 11:32:20.44	354.07	28.70	-44.3	-62.6	3.8	7.45e-01	0	57	104	0	60	29032
2026-01-09 11:32:22.46	353.89	28.29	-44.3	-62.1	3.8	7.46e-01	0	57	104	0	60	27596
2026-01-09 11:32:24.48	353.71	27.89	-44.3	-62.0	3.8	7.43e-01	0	57	104	0	60	27295
2026-01-09 11:32:26.51	353.53	27.49	-44.3	-62.8	3.8	7.47e-01	0	57	104	0	60	29930
2026-01-09 11:32:28.53	353.36	27.10	-44.3	-62.8	3.8	7.47e-01	0	57	104	0	60	29807
2026-01-09 11:32:30.55	353.20	26.72	-44.3	-62.8	3.8	7.49e-01	0	57	104	0	60	29944
2026-01-09 11:32:32.57	353.03	26.34	-44.3	-61.9	3.8	7.46e-01	0	57	104	0	60	26915
2026-01-09 11:32:34.60	352.88	25.96	-44.3	-62.2	3.8	7.47e-01	0	57	104	0	60	27863
2026-01-09 11:32:36.62	352.72	25.59	-44.2	-61.3	3.9	7.44e-01	0	57	104	0	60	25084
2026-01-09 11:32:38.64	352.57	25.23	-44.3	-62.7	3.8	7.44e-01	0	57	104	0	60	29445
2026-01-09 11:32:40.66	352.43	24.87	-44.3	-62.6	3.8	7.45e-01	0	57	104	0	60	29168
2026-01-09 11:32:42.68	352.28	24.52	-44.2	-61.7	3.8	7.41e-01	0	57	104	0	60	26408
2026-01-09 11:32:44.70	352.15	24.17	-44.2	-59.5	4.2	7.34e-01	0	56	104	0	60	20496
2026-01-09 11:32:46.72	352.01	23.83	-44.1	-58.6	4.7	7.43e-01	0	57	104	0	60	18466
2026-01-09 11:32:48.74	351.88	23.49	-44.1	-57.0	5.3	7.03e-01	0	57	104	0	60	15334
2026-01-09 11:32:50.76	351.75	23.16	-44.1	-58.4	4.0	7.35e-01	0	57	104	1572864	60	17912
2026-01-09 11:32:52.78	351.62	22.83	-43.5	-50.9	11.3	6.12e-01	0	57	0	4194304	59	8032
2026-01-09 11:32:54.80	351.50	22.50	-43.2	-50.0	12.3	6.08e-01	0	57	0	7864320	58	7645
2026-01-09 11:32:56.82	351.38	22.18	-41.8	-47.1	14.6	6.04e-01	0	57	0	12058624	55	6506
2026-01-09 11:32:58.84	351.26	21.86	-41.4	-49.9	10.5	6.20e-01	0	57	0	15728640	53	10175
2026-01-09 11:33:00.86	351.14	21.55	-39.8	-42.5	19.9	6.03e-01	0	57	0	19398656	51	4850
2026-01-09 11:33:02.88	351.03	21.24	-40.7	-44.6	17.3	6.03e-01	0	57	0	23068672	52	5805
2026-01-09 11:33:04.90	350.92	20.94	-41.4	-47.9	12.9	6.07e-01	0	57	0	26738688	53	8068
2026-01-09 11:33:06.92	350.81	20.64	-41.4	-51.6	8.2	6.43e-01	56	57	0	30932992	53	12341
2026-01-09 11:33:08.94	350.71	20.34	-41.1	-55.0	5.1	7.06e-01	0	57	0	33030144	53	18140
2026-01-09 11:33:10.96	350.61	20.05	-40.9	-58.4	3.9	7.48e-01	0	57	104	33030144	53	26819
2026-01-09 11:33:12.98	350.50	19.76	-41.1	-60.1	3.8	7.44e-01	0	57	104	33030144	53	32720
2026-01-09 11:33:14.99	350.41	19.47	-40.8	-60.7	3.8	7.45e-01	0	57	104	33030144	53	34995
2026-01-09 11:33:17.01	350.31	19.19	-41.3	-60.7	3.8	7.47e-01	0	57	104	33030144	53	35233
2026-01-09 11:33:19.03	350.21	18.91	-40.9	-60.6	3.8	7.45e-01	0	57	104	33030144	53	34788
2026-01-09 11:33:21.05	350.12	18.64	-40.8	-61.0	3.8	7.43e-01	0	57	104	33030144	53	36303
2026-01-09 11:33:23.06	350.03	18.37	-41.4	-60.6	3.8	7.43e-01	0	57	104	33030144	53	34729
2026-01-09 11:33:25.08	349.94	18.10	-41.2	-60.4	3.8	7.45e-01	0	57	104	33030144	53	33974
2026-01-09 11:33:27.10	349.86	17.83	-41.0	-60.6	3.8	7.43e-01	0	57	104	33030144	53	34529
2026-01-09 11:33:29.12	349.77	17.57	-41.0	-60.5	3.8	7.45e-01	0	57	104	33030144	53	34370
2026-01-09 11:33:31.14	349.69	17.31	-41.1	-60.4	3.8	7.47e-01	0	57	104	33030144	53	33784
2026-01-09 11:33:33.16	349.60	17.05	-41.3	-60.5	3.8	7.45e-01	0	57	104	33030144	53	34235
2026-01-09 11:33:35.17	349.52	16.80	-40.7	-61.3	3.8	7.46e-01	0	57	104	33030144	52	39597
2026-01-09 11:33:37.20	349.44	16.55	-41.1	-60.5	3.8	7.45e-01	0	57	104	33030144	52	36404
2026-01-09 11:33:39.22	349.37	16.30	-39.4	-60.8	3.8	7.47e-01	0	57	104	33030144	50	42141
2026-01-09 11:33:41.24	349.29	16.05	-40.0	-60.6	3.8	7.43e-01	0	57	104	33030144	50	41216
2026-01-09 11:33:43.25	349.22	15.81	-41.0	-61.1	3.8	7.42e-01	0	57	104	33030144	52	38946
2026-01-09 11:33:45.27	349.14	15.57	-39.9	-60.7	3.8	7.48e-01	0	57	104	33030144	51	39450
2026-01-09 11:33:47.29	349.07	15.33	-40.6	-60.6	3.8	7.42e-01	0	57	104	33030144	51	39053
2026-01-09 11:33:49.31	349.00	15.10	-40.4	-60.7	3.8	7.47e-01	0	57	104	33030144	52	37313
2026-01-09 11:33:51.33	348.93	14.86	-42.0	-61.0	3.8	7.45e-01	0	57	104	33030144	54	34131
2026-01-09 11:33:53.35	348.86	14.63	-40.2	-60.5	3.8	7.48e-01	0	57	104	33030144	52	36154
2026-01-09 11:33:55.37	348.80	14.40	-40.9	-60.6	3.8	7.48e-01	0	57	104	33030144	52	36816
2026-01-09 11:33:57.39	348.73	14.18	-40.3	-60.4	3.8	7.44e-01	0	57	104	33030144	52	35952
2026-01-09 11:33:59.40	348.67	13.96	-41.6	-61.1	3.8	7.46e-01	0	57	104	33030144	54	34668
2026-01-09 11:34:01.42	348.60	13.73	-40.6	-60.5	3.8	7.49e-01	0	57	104	33030144	52	36393
2026-01-09 11:34:03.44	348.54	13.52	-40.4	-60.5	3.8	7.44e-01	0	57	104	33030144	52	36351
2026-01-09 11:34:05.46	348.48	13.30	-40.7	-60.6	3.8	7.48e-01	0	57	104	33030144	52	36770
2026-01-09 11:34:07.48	348.42	13.08	-41.5	-60.6	3.8	7.46e-01	0	57	104	33030144	53	34596
2026-01-09 11:34:09.49	348.36	12.87	-41.3	-60.6	3.8	7.43e-01	0	57	104	33030144	53	34692
2026-01-09 11:34:11.51	348.30	12.66	-41.5	-60.5	3.8	7.42e-01	0	57	104	33030144	53	34450
2026-01-09 11:34:13.53	348.25	12.45	-41.5	-60.6	3.8	7.44e-01	0	57	104	33030144	53	34502
2026-01-09 11:34:15.55	348.19	12.24	-41.5	-60.6	3.8	7.42e-01	0	57	104	33030144	53	34863
2026-01-09 11:34:17.57	348.14	12.04	-41.6	-60.5	3.8	7.43e-01	0	57	104	33030144	53	34402
2026-01-09 11:34:19.59	348.08	11.84	-41.6	-60.7	3.8	7.45e-01	0	57	104	33030144	53	34968
2026-01-09 11:34:21.60	348.03	11.64	-41.6	-60.5	3.8	7.46e-01	0	57	104	33030144	53	34466
2026-01-09 11:34:23.62	347.98	11.44	-41.6	-60.5	3.8	7.43e-01	0	57	104	33030144	54	32322
2026-01-09 11:34:25.64	347.93	11.24	-41.6	-60.6	3.8	7.50e-01	0	57	104	33030144	54	32589
2026-01-09 11:34:27.66	347.88	11.04	-41.9	-61.0	3.8	7.45e-01	0	57	104	33030144	54	34330
2026-01-09 11:34:29.68	347.83	10.85	-41.8	-60.9	3.8	7.45e-01	0	57	104	33030144	54	33983
2026-01-09 11:34:31.70	347.78	10.65	-41.6	-60.6	3.8	7.46e-01	0	57	104	33030144	54	32713
2026-01-09 11:34:33.72	347.73	10.46	-41.7	-60.8	3.8	7.47e-01	0	57	104	33030144	54	33584
2026-01-09 11:34:35.74	347.68	10.27	-41.8	-60.9	3.8	7.45e-01	0	57	104	33030144	54	33818
2026-01-09 11:34:37.75	347.64	10.09	-41.8	-60.9	3.8	7.44e-01	0	57	104	33030144	54	33798
2026-01-09 11:34:39.77	347.59	9.90	-41.7	-60.9	3.8	7.47e-01	0	57	104	33030144	54	33979
2026-01-09 11:34:41.79	347.55	9.72	-41.7	-60.9	3.8	7.44e-01	0	57	104	33030144	54	34039
2026-01-09 11:34:43.81	347.50	9.53	-41.7	-60.6	3.8	7.51e-01	0	57	104	33030144	54	32895
2026-01-09 11:34:45.82	347.46	9.35	-41.7	-60.6	3.8	7.46e-01	0	57	104	33030144	54	32869
2026-01-09 11:34:47.84	347.42	9.17	-41.7	-60.9	3.8	7.46e-01	0	57	104	33030144	54	33918
2026-01-09 11:34:49.87	347.37	8.99	-41.7	-60.8	3.8	7.44e-01	0	57	104	33030144	54	33672
2026-01-09 11:34:51.89	347.33	8.81	-41.7	-60.7	3.8	7.48e-01	0	57	104	33030144	54	32951
2026-01-09 11:34:53.90	347.29	8.64	-41.7	-60.7	3.8	7.42e-01	0	57	104	33030144	54	32951
2026-01-09 11:34:55.93	347.25	8.46	-41.7	-60.7	3.8	7.42e-01	0	57	104	33030144	54	33300
2026-01-09 11:34:57.94	347.21	8.29	-41.8	-60.7	3.8	7.45e-01	0	57	104	33030144	54	33197
2026-01-09 11:34:59.96	347.17	8.12	-41.8	-60.8	3.8	7.44e-01	0	57	104	33030144	54	33332
2026-01-09 11:35:01.97	347.13	7.95	-41.6	-60.5	3.8	7.48e-01	0	57	104	33030144	54	32351
2026-01-09 11:35:03.99	347.10	7.78	-42.8	-61.8	3.8	7.46e-01	0	57	104	33030144	55	35587
2026-01-09 11:35:06.01	347.06	7.61	-45.8	-64.4	3.9	7.44e-01	0	57	104	33030144	62	31961
2026-01-09 11:35:08.03	347.02	7.44	-45.9	-64.5	3.8	7.44e-01	0	57	104	33030144	62	32502
2026-01-09 11:35:10.05	346.99	7.28	-46.0	-64.6	3.8	7.42e-01	0	57	104	33030144	62	32915
2026-01-09 11:35:12.07	346.95	7.11	-45.8	-64.2	3.9	7.48e-01	0	57	104	33030144	62	31249
2026-01-09 11:35:14.09	346.92	6.95	-46.0	-64.6	3.8	7.43e-01	0	57	104	33030144	62	32572
2026-01-09 11:35:16.11	346.88	6.79	-45.9	-64.5	3.8	7.47e-01	0	57	104	33030144	62	32362
2026-01-09 11:35:18.13	346.85	6.63	-45.8	-64.4	3.8	7.43e-01	0	57	104	33030144	62	32177
2026-01-09 11:35:20.14	346.81	6.47	-45.8	-64.4	3.8	7.45e-01	0	57	104	33030144	62	32049
2026-01-09 11:35:22.16	346.78	6.31	-45.8	-64.4	3.8	7.42e-01	0	57	104	33030144	62	32062
2026-01-09 11:35:24.19	346.75	6.15	-45.8	-64.4	3.8	7.46e-01	0	57	104	33030144	62	32121
2026-01-09 11:35:26.21	346.72	5.99	-45.8	-64.4	3.8	7.45e-01	0	57	104	33030144	62	32006
2026-01-09 11:35:28.23	346.69	5.84	-45.8	-64.4	3.8	7.45e-01	0	57	104	33030144	62	32053
2026-01-09 11:35:30.25	346.65	5.68	-45.8	-64.4	3.8	7.45e-01	0	57	104	33030144	62	31990
2026-01-09 11:35:32.27	346.62	5.53	-45.8	-64.4	3.8	7.46e-01	0	57	104	33030144	62	32016
2026-01-09 11:35:34.29	346.59	5.37	-45.7	-64.4	3.8	7.44e-01	0	58	104	33030144	62	31984
2026-01-09 11:35:36.31	346.56	5.22	-45.8	-64.4	3.8	7.47e-01	0	57	104	33030144	62	31961
2026-01-09 11:35:38.33	346.53	5.07	-45.8	-64.4	3.8	7.48e-01	0	57	104	33030144	62	31969
2026-01-09 11:35:40.35	346.51	4.92	-45.8	-64.4	3.8	7.46e-01	0	57	104	33030144	62	31968
2026-01-09 11:35:42.37	346.48	4.77	-45.8	-64.4	3.8	7.46e-01	0	57	104	33030144	62	31923
2026-01-09 11:35:44.39	346.45	4.62	-45.7	-64.4	3.8	7.44e-01	0	57	104	33030144	62	31885
2026-01-09 11:35:46.41	346.42	4.48	-45.8	-64.4	3.8	7.46e-01	0	57	104	33030144	62	31812
2026-01-09 11:35:48.43	346.39	4.33	-45.8	-64.4	3.8	7.45e-01	0	57	104	33030144	62	31886
2026-01-09 11:35:50.46	346.37	4.18	-45.8	-64.4	3.8	7.43e-01	0	57	104	33030144	62	31860
2026-01-09 11:35:52.48	346.34	4.04	-45.8	-64.4	3.8	7.45e-01	0	57	104	33030144	62	31897
2026-01-09 11:35:54.50	346.32	3.89	-45.8	-64.4	3.8	7.44e-01	0	57	104	33030144	62	31860
2026-01-09 11:35:56.52	346.29	3.75	-45.8	-64.4	3.8	7.45e-01	0	57	104	33030144	62	31846
2026-01-09 11:35:58.54	346.26	3.61	-45.8	-64.4	3.8	7.44e-01	0	57	104	33030144	62	31853
2026-01-09 11:36:00.56	346.24	3.47	-45.8	-64.4	3.8	7.45e-01	0	57	104	33030144	62	31841
2026-01-09 11:36:02.58	346.21	3.33	-45.8	-64.4	3.8	7.45e-01	0	57	104	33030144	62	31842
2026-01-09 11:36:04.60	346.19	3.19	-45.8	-64.3	3.8	7.46e-01	0	57	104	33030144	62	31803
2026-01-09 11:36:06.62	346.17	3.05	-45.8	-64.4	3.8	7.47e-01	0	57	104	33030144	62	31829
2026-01-09 11:36:08.64	346.14	2.91	-45.8	-64.4	3.8	7.48e-01	0	57	104	33030144	62	31823
2026-01-09 11:36:10.66	346.12	2.77	-45.8	-64.4	3.8	7.43e-01	0	57	104	33030144	62	31874
2026-01-09 11:36:12.68	346.10	2.64	-45.7	-64.3	3.8	7.45e-01	0	57	104	33030144	62	31783
2026-01-09 11:36:14.70	346.07	2.50	-45.8	-64.3	3.8	7.44e-01	0	57	104	33030144	62	31733
2026-01-09 11:36:16.72	346.05	2.36	-45.8	-64.4	3.8	7.43e-01	0	57	104	33030144	62	31845
2026-01-09 11:36:18.74	346.03	2.23	-45.7	-64.3	3.8	7.44e-01	0	57	104	33030144	62	31795
2026-01-09 11:36:20.76	346.01	2.10	-45.7	-64.3	3.8	7.46e-01	0	57	104	33030144	62	31784
2026-01-09 11:36:22.78	345.99	1.96	-45.8	-64.3	3.8	7.47e-01	0	57	104	33030144	62	31772

#Closed at: 2026-01-09 11:36:24
#Recorded file [33 MB]: D:/lorett/data/31039_260109_143202.dat