passes_logs/2026/01/09/R2.0S_Moscow/R2.0S_Moscow__20260109_075920_SUOMI_NPP_rec.log

#Pass ID: 20260109_075920_SUOMI NPP
#Satellite: SUOMI NPP
#Configuration: NPP
#almurnet v.1.7.20251203
#Start time: 2026-01-09 07:59:21

#Version: 2.2.20231116
#Station: R2.0S_Moscow
#Location: 37.707566 lon 55.798166 lat
#TLE: 1 37849U 11061A   26008.05542337  .00000108  00000+0  71976-4 0  9997
#TLE: 2 37849  98.7805 310.1641 0002540  75.6410 284.5048 14.19523335735721

#Time	Az	El	Level	Level2	SNR	BER	BlckErr	Temp	State	Recorded	gain1	gain2
2026-01-09 07:59:21.15	101.44	2.03	-39.9	-54.5	3.8	1.49e+00	0	47	0	0	51	19309
2026-01-09 07:59:24.17	101.20	2.19	-39.9	-54.5	3.8	1.49e+00	0	47	104	0	51	19353
2026-01-09 07:59:27.20	100.96	2.35	-39.9	-54.5	3.8	1.49e+00	0	47	104	0	51	19332
2026-01-09 07:59:30.23	100.71	2.51	-39.9	-54.5	3.8	1.49e+00	0	47	104	0	51	19293
2026-01-09 07:59:33.26	100.46	2.67	-39.9	-54.5	3.8	1.49e+00	0	48	104	0	51	19330
2026-01-09 07:59:36.29	100.21	2.83	-39.9	-54.5	3.8	1.49e+00	0	48	104	0	51	19280
2026-01-09 07:59:39.33	99.96	3.00	-39.9	-54.5	3.8	1.49e+00	0	48	104	0	51	19337
2026-01-09 07:59:42.36	99.70	3.16	-39.9	-54.5	3.8	1.49e+00	0	48	104	0	51	19284
2026-01-09 07:59:45.39	99.44	3.32	-39.9	-54.5	3.8	1.49e+00	0	48	104	0	51	19260
2026-01-09 07:59:48.42	99.18	3.48	-39.9	-54.5	3.8	1.49e+00	0	49	104	0	51	19292
2026-01-09 07:59:51.45	98.91	3.65	-39.9	-54.5	3.8	1.49e+00	0	49	104	0	51	19329
2026-01-09 07:59:54.48	98.64	3.81	-39.9	-54.5	3.8	1.49e+00	0	49	104	0	51	19279
2026-01-09 07:59:57.52	98.37	3.98	-39.9	-54.5	3.8	1.49e+00	0	49	104	0	51	19260
2026-01-09 08:00:00.55	98.09	4.14	-39.9	-54.5	3.8	1.49e+00	0	49	104	0	51	19243
2026-01-09 08:00:03.58	97.81	4.31	-39.9	-54.5	3.8	1.49e+00	0	49	104	0	51	19262
2026-01-09 08:00:06.61	97.53	4.47	-39.8	-54.5	3.8	1.49e+00	0	50	104	0	51	19268
2026-01-09 08:00:09.65	97.25	4.64	-39.9	-54.5	3.8	1.49e+00	0	50	104	0	51	19306
2026-01-09 08:00:12.68	96.96	4.80	-39.9	-54.5	3.8	1.49e+00	0	50	104	0	51	19236
2026-01-09 08:00:15.71	96.67	4.97	-39.9	-54.5	3.8	1.49e+00	0	50	104	0	51	19229
2026-01-09 08:00:18.74	96.37	5.14	-39.9	-54.5	3.8	1.49e+00	0	50	104	0	51	19243
2026-01-09 08:00:21.77	96.07	5.31	-39.9	-54.5	3.8	1.49e+00	0	51	104	0	51	19250
2026-01-09 08:00:24.80	95.77	5.47	-39.9	-54.5	3.8	1.49e+00	0	50	104	0	51	19295
2026-01-09 08:00:27.83	95.46	5.64	-39.9	-54.5	3.8	1.49e+00	0	51	104	0	51	19265
2026-01-09 08:00:30.86	95.16	5.81	-39.9	-54.5	3.8	1.49e+00	0	51	104	0	51	19286
2026-01-09 08:00:33.89	94.84	5.98	-39.9	-54.5	3.8	1.49e+00	0	51	104	0	51	19259
2026-01-09 08:00:36.93	94.52	6.15	-39.9	-54.5	3.8	1.49e+00	0	51	104	0	51	19309
2026-01-09 08:00:39.96	94.20	6.32	-39.9	-54.5	3.8	1.49e+00	0	51	104	0	51	19255
2026-01-09 08:00:42.99	93.88	6.49	-39.8	-54.5	3.8	1.49e+00	0	51	104	0	51	19211
2026-01-09 08:00:46.02	93.55	6.66	-39.9	-54.5	3.8	1.49e+00	0	52	104	0	51	19246
2026-01-09 08:00:49.06	93.22	6.83	-39.9	-54.5	3.8	1.49e+00	0	52	104	0	51	19344
2026-01-09 08:00:52.09	92.88	7.00	-39.9	-54.5	3.8	1.49e+00	0	52	104	0	51	19232
2026-01-09 08:00:55.12	92.54	7.17	-39.9	-54.5	3.8	1.49e+00	0	52	104	0	51	19179
2026-01-09 08:00:58.16	92.19	7.34	-39.9	-54.4	3.8	1.49e+00	0	52	104	0	51	19117
2026-01-09 08:01:01.19	91.85	7.51	-39.8	-54.5	3.8	1.49e+00	0	52	104	0	51	19217
2026-01-09 08:01:04.22	91.49	7.68	-39.9	-54.5	3.8	1.49e+00	0	52	104	0	51	19191
2026-01-09 08:01:07.25	91.14	7.85	-39.8	-54.3	3.8	1.49e+00	0	52	104	0	51	18851
2026-01-09 08:01:10.28	90.77	8.02	-39.8	-52.2	3.8	1.48e+00	0	52	104	0	51	14791
2026-01-09 08:01:13.31	90.41	8.19	-39.8	-53.5	3.8	1.49e+00	0	53	104	0	51	17127
2026-01-09 08:01:16.34	90.04	8.37	-39.9	-54.1	3.8	1.49e+00	0	53	104	0	51	18474
2026-01-09 08:01:19.37	89.66	8.54	-39.7	-54.5	3.8	1.49e+00	0	53	104	0	51	19325
2026-01-09 08:01:22.40	89.29	8.71	-39.9	-54.9	3.8	1.49e+00	0	53	104	0	51	20157
2026-01-09 08:01:25.42	88.90	8.88	-39.9	-54.9	3.8	1.49e+00	0	53	104	0	51	20179
2026-01-09 08:01:28.45	88.52	9.05	-39.9	-54.6	3.8	1.49e+00	0	53	104	0	51	19414
2026-01-09 08:01:31.48	88.12	9.22	-40.0	-54.6	3.8	1.49e+00	0	53	104	0	51	19601
2026-01-09 08:01:34.51	87.72	9.39	-40.2	-54.8	3.8	1.49e+00	0	53	104	0	51	19975
2026-01-09 08:01:37.54	87.32	9.56	-40.2	-54.8	3.8	1.49e+00	0	53	104	0	51	19985
2026-01-09 08:01:40.57	86.92	9.73	-40.2	-54.9	3.8	1.49e+00	0	53	104	0	51	20129
2026-01-09 08:01:43.60	86.50	9.90	-40.1	-54.8	3.8	1.49e+00	0	53	104	0	51	20022
2026-01-09 08:01:46.62	86.09	10.07	-40.0	-54.7	3.8	1.49e+00	0	53	104	0	51	19828
2026-01-09 08:01:49.65	85.67	10.24	-39.8	-54.5	3.8	1.49e+00	0	53	104	0	51	19217
2026-01-09 08:01:52.67	85.24	10.41	-39.9	-54.5	3.8	1.49e+00	0	54	104	0	51	19375
2026-01-09 08:01:55.70	84.81	10.58	-39.9	-54.5	3.8	1.49e+00	0	54	104	0	50	20509
2026-01-09 08:01:58.73	84.37	10.75	-39.8	-54.5	3.8	1.49e+00	0	54	104	0	50	20410
2026-01-09 08:02:01.76	83.93	10.92	-40.0	-54.6	3.8	1.49e+00	0	54	104	0	50	20647
2026-01-09 08:02:04.79	83.48	11.08	-39.8	-54.5	3.8	1.49e+00	0	54	104	0	50	20339
2026-01-09 08:02:07.82	83.03	11.25	-40.0	-54.6	3.8	1.49e+00	0	54	104	0	50	20642
2026-01-09 08:02:10.84	82.58	11.42	-39.9	-54.5	3.8	1.49e+00	0	54	104	0	50	20327
2026-01-09 08:02:13.87	82.11	11.58	-40.0	-54.6	3.8	1.49e+00	0	54	104	0	50	20658
2026-01-09 08:02:16.90	81.64	11.75	-40.0	-54.6	3.8	1.49e+00	0	54	104	0	50	20666
2026-01-09 08:02:19.93	81.17	11.91	-40.1	-54.7	3.8	1.49e+00	0	54	104	0	50	20911
2026-01-09 08:02:22.96	80.69	12.07	-40.0	-54.6	3.8	1.49e+00	0	54	104	0	50	20705
2026-01-09 08:02:25.99	80.21	12.24	-40.3	-54.8	3.8	1.49e+00	0	54	104	0	51	20069
2026-01-09 08:02:29.02	79.72	12.40	-40.0	-54.6	3.8	1.49e+00	0	54	104	0	51	19591
2026-01-09 08:02:32.05	79.22	12.56	-40.4	-54.9	3.8	1.49e+00	0	54	104	0	51	20260
2026-01-09 08:02:35.08	78.72	12.72	-40.2	-54.9	3.8	1.49e+00	0	54	104	0	51	20113
2026-01-09 08:02:38.11	78.22	12.88	-40.4	-55.0	3.8	1.49e+00	0	54	104	0	52	19273
2026-01-09 08:02:41.14	77.71	13.03	-40.3	-54.9	3.8	1.49e+00	0	54	104	0	52	18954
2026-01-09 08:02:44.17	77.19	13.19	-40.7	-54.8	3.8	1.49e+00	0	54	104	0	52	18840
2026-01-09 08:02:47.20	76.67	13.34	-40.4	-54.9	3.8	1.49e+00	0	54	104	0	52	19087
2026-01-09 08:02:50.23	76.14	13.50	-40.8	-54.7	3.8	1.49e+00	0	54	104	0	52	18680
2026-01-09 08:02:53.26	75.61	13.65	-40.9	-54.5	3.8	1.49e+00	0	54	104	0	52	18281
2026-01-09 08:02:56.29	75.07	13.80	-40.9	-53.5	3.8	1.49e+00	0	55	104	0	52	16296
2026-01-09 08:02:59.32	74.52	13.95	-40.8	-52.4	4.1	1.41e+00	0	55	0	0	52	14290
2026-01-09 08:03:02.35	73.97	14.09	-40.7	-50.9	4.6	9.12e-01	0	55	0	3145728	52	12081
2026-01-09 08:03:05.38	73.42	14.24	-40.4	-49.2	5.5	5.81e-01	0	55	0	9437184	52	9849
2026-01-09 08:03:08.41	72.86	14.38	-40.2	-48.6	5.8	3.68e-01	0	55	0	14680064	52	9246
2026-01-09 08:03:11.44	72.29	14.52	-40.0	-47.7	6.5	2.27e-01	0	55	0	20971520	51	8786
2026-01-09 08:03:14.47	71.72	14.66	-39.8	-46.9	7.1	1.30e-01	0	55	0	26214400	51	8032
2026-01-09 08:03:17.49	71.14	14.80	-40.1	-47.7	6.6	2.15e-01	0	55	0	31457280	51	8777
2026-01-09 08:03:20.52	70.56	14.93	-40.0	-46.6	7.9	8.49e-02	0	55	0	37748736	51	7720
2026-01-09 08:03:23.55	69.97	15.07	-40.1	-46.1	8.6	3.85e-02	0	55	0	42991616	51	7359
2026-01-09 08:03:26.58	69.38	15.20	-39.6	-44.2	11.0	2.49e-03	0	55	0	49283072	51	5878
2026-01-09 08:03:29.61	68.78	15.33	-39.6	-43.7	11.8	5.30e-04	0	55	0	54525952	51	5572
2026-01-09 08:03:32.64	68.18	15.45	-39.7	-43.5	12.5	1.23e-04	0	55	0	59768832	51	5420
2026-01-09 08:03:35.66	67.57	15.57	-39.8	-43.4	12.9	7.01e-05	0	55	0	66060288	51	5371
2026-01-09 08:03:38.69	66.96	15.69	-39.8	-43.2	13.5	6.80e-06	0	55	0	71303168	51	5238
2026-01-09 08:03:41.72	66.34	15.81	-39.3	-42.3	14.5	0.00e+00	0	55	0	77594624	50	4998
2026-01-09 08:03:44.75	65.72	15.92	-39.2	-42.0	14.8	0.00e+00	0	55	0	82837504	50	4863
2026-01-09 08:03:47.77	65.09	16.04	-38.7	-41.2	15.8	0.00e+00	0	55	0	89128960	49	4689
2026-01-09 08:03:50.80	64.46	16.14	-38.5	-40.8	16.3	0.00e+00	0	55	0	94371840	48	4729
2026-01-09 08:03:53.83	63.82	16.25	-38.8	-41.3	15.9	0.00e+00	0	55	0	99614720	48	4990
2026-01-09 08:03:56.86	63.18	16.35	-39.0	-41.5	15.7	0.00e+00	0	55	0	105906176	48	5141
2026-01-09 08:03:59.89	62.54	16.45	-39.3	-42.0	15.2	0.00e+00	0	55	0	111149056	49	5101
2026-01-09 08:04:02.92	61.89	16.55	-39.4	-42.1	15.1	0.00e+00	0	55	0	117440512	49	5202
2026-01-09 08:04:05.94	61.23	16.64	-39.7	-42.5	14.7	0.00e+00	0	55	0	122683392	50	5159
2026-01-09 08:04:08.97	60.58	16.73	-39.8	-42.8	14.4	0.00e+00	0	55	0	127926272	50	5309
2026-01-09 08:04:12.00	59.91	16.81	-39.8	-42.8	14.4	0.00e+00	0	55	0	134217728	50	5306
2026-01-09 08:04:15.03	59.25	16.90	-39.9	-42.9	14.3	7.00e-07	0	55	0	139460608	50	5371
2026-01-09 08:04:18.06	58.58	16.97	-39.5	-42.1	15.1	0.00e+00	0	55	0	145752064	50	4923
2026-01-09 08:04:21.09	57.91	17.05	-39.4	-42.1	15.2	0.00e+00	0	56	0	150994944	50	4907
2026-01-09 08:04:24.12	57.23	17.12	-39.3	-41.9	15.3	0.00e+00	0	56	0	157286400	50	4800
2026-01-09 08:04:27.15	56.55	17.19	-39.1	-41.7	15.6	0.00e+00	0	56	0	162529280	50	4665
2026-01-09 08:04:30.18	55.87	17.25	-39.3	-42.0	15.3	0.00e+00	0	56	0	167772160	50	4825
2026-01-09 08:04:33.20	55.19	17.31	-39.6	-42.5	14.8	0.00e+00	0	56	0	174063616	50	5115
2026-01-09 08:04:36.23	54.50	17.36	-40.2	-43.6	13.7	2.20e-06	0	56	0	179306496	50	5793
2026-01-09 08:04:39.26	53.81	17.41	-40.2	-43.6	13.6	1.06e-05	0	56	0	185597952	51	5526
2026-01-09 08:04:42.29	53.12	17.46	-40.2	-43.5	13.7	6.10e-06	0	56	0	190840832	51	5428
2026-01-09 08:04:45.31	52.43	17.50	-40.0	-43.2	14.1	3.00e-06	0	56	0	196083712	51	5232
2026-01-09 08:04:48.34	51.74	17.54	-39.6	-42.6	14.7	0.00e+00	0	56	0	202375168	51	4879
2026-01-09 08:04:51.37	51.04	17.57	-39.8	-42.8	14.5	7.00e-07	0	56	0	207618048	51	4992
2026-01-09 08:04:54.40	50.34	17.60	-39.4	-42.1	15.2	0.00e+00	0	56	0	213909504	50	4887
2026-01-09 08:04:57.43	49.64	17.63	-39.4	-42.2	15.2	0.00e+00	0	56	0	219152384	50	4941
2026-01-09 08:05:00.45	48.94	17.65	-39.7	-42.6	14.8	0.00e+00	0	56	0	225443840	50	5160
2026-01-09 08:05:03.48	48.24	17.66	-40.0	-43.0	14.2	0.00e+00	0	56	0	230686720	50	5441
2026-01-09 08:05:06.52	47.54	17.67	-39.9	-42.9	14.4	0.00e+00	0	56	0	235929600	50	5376
2026-01-09 08:05:09.55	46.84	17.68	-39.6	-42.5	14.9	0.00e+00	0	56	0	242221056	50	5116
2026-01-09 08:05:12.58	46.13	17.68	-39.6	-42.4	14.9	0.00e+00	0	56	0	247463936	50	5085
2026-01-09 08:05:15.61	45.43	17.68	-40.1	-43.3	14.1	2.20e-06	0	56	0	253755392	50	5615
2026-01-09 08:05:18.63	44.73	17.68	-40.4	-43.9	13.5	6.80e-06	0	56	0	258998272	51	5693
2026-01-09 08:05:21.66	44.03	17.67	-40.2	-43.6	13.8	9.10e-06	0	56	0	264241152	51	5480
2026-01-09 08:05:24.69	43.33	17.65	-39.7	-42.6	14.7	0.00e+00	0	56	0	270532608	51	4920
2026-01-09 08:05:27.72	42.63	17.63	-39.6	-42.4	14.9	0.00e+00	0	56	0	275775488	50	5093
2026-01-09 08:05:30.75	41.93	17.61	-39.5	-42.2	15.1	0.00e+00	0	56	0	282066944	50	4968
2026-01-09 08:05:33.78	41.23	17.58	-39.3	-41.9	15.5	0.00e+00	0	56	0	287309824	50	4805
2026-01-09 08:05:36.80	40.53	17.55	-39.4	-42.1	15.3	0.00e+00	0	56	0	293601280	50	4875
2026-01-09 08:05:39.83	39.84	17.51	-39.1	-41.6	15.8	0.00e+00	0	56	0	298844160	50	4599
2026-01-09 08:05:42.86	39.15	17.47	-38.6	-40.9	16.5	0.00e+00	0	56	0	304087040	49	4523
2026-01-09 08:05:45.88	38.46	17.43	-38.8	-41.2	16.3	0.00e+00	0	56	0	310378496	49	4660
2026-01-09 08:05:48.91	37.77	17.38	-39.0	-41.3	16.0	0.00e+00	0	56	0	315621376	49	4758
2026-01-09 08:05:51.94	37.08	17.33	-39.1	-41.6	15.8	0.00e+00	0	56	0	321912832	49	4916
2026-01-09 08:05:54.97	36.40	17.27	-39.5	-42.2	15.3	0.00e+00	0	56	0	327155712	49	5244
2026-01-09 08:05:58.00	35.72	17.21	-39.4	-42.1	15.3	0.00e+00	0	56	0	332398592	49	5187
2026-01-09 08:06:01.03	35.04	17.14	-39.6	-42.3	15.1	0.00e+00	0	56	0	338690048	49	5333
2026-01-09 08:06:04.05	34.36	17.07	-39.6	-42.3	15.1	0.00e+00	0	56	0	343932928	49	5328
2026-01-09 08:06:07.08	33.69	17.00	-39.7	-42.5	14.9	0.00e+00	0	56	0	350224384	50	5145
2026-01-09 08:06:10.11	33.02	16.92	-39.8	-42.6	14.8	7.00e-07	0	56	0	355467264	50	5199
2026-01-09 08:06:13.14	32.36	16.84	-39.7	-42.5	14.9	0.00e+00	0	56	0	360710144	50	5136
2026-01-09 08:06:16.17	31.70	16.76	-39.8	-42.7	14.7	0.00e+00	0	56	0	367001600	50	5244
2026-01-09 08:06:19.19	31.04	16.67	-40.0	-43.0	14.4	7.00e-07	0	56	0	372244480	50	5419
2026-01-09 08:06:22.22	30.39	16.58	-40.3	-43.5	13.9	3.00e-06	0	56	0	378535936	51	5440
2026-01-09 08:06:25.25	29.74	16.49	-40.4	-43.7	13.7	3.80e-06	0	56	0	383778816	51	5576
2026-01-09 08:06:28.28	29.09	16.39	-40.1	-43.1	14.3	7.00e-07	0	56	0	390070272	51	5204
2026-01-09 08:06:31.31	28.45	16.29	-39.8	-42.6	14.8	0.00e+00	0	56	0	395313152	51	4912
2026-01-09 08:06:34.34	27.81	16.18	-39.8	-42.8	14.6	7.00e-07	0	56	0	400556032	51	4992
2026-01-09 08:06:37.37	27.18	16.08	-39.6	-42.5	14.9	7.00e-07	0	56	0	406847488	51	4819
2026-01-09 08:06:40.40	26.55	15.97	-39.3	-41.9	15.5	0.00e+00	0	56	0	412090368	50	4761
2026-01-09 08:06:43.43	25.93	15.85	-39.2	-41.8	15.6	0.00e+00	0	56	0	418381824	50	4709
2026-01-09 08:06:46.46	25.31	15.74	-39.1	-41.7	15.7	0.00e+00	0	56	0	423624704	50	4653
2026-01-09 08:06:49.49	24.70	15.62	-39.7	-42.7	14.7	0.00e+00	0	56	0	428867584	50	5219
2026-01-09 08:06:52.51	24.10	15.50	-40.4	-43.9	13.4	4.50e-06	0	56	0	435159040	51	5660
2026-01-09 08:06:55.54	23.49	15.37	-40.2	-43.5	13.7	1.06e-05	0	56	0	440401920	51	5430
2026-01-09 08:06:58.57	22.90	15.24	-40.2	-43.5	13.8	3.80e-06	0	56	0	446693376	51	5432
2026-01-09 08:07:01.60	22.30	15.12	-40.3	-43.7	13.6	6.80e-06	0	56	0	451936256	51	5540
2026-01-09 08:07:04.62	21.72	14.98	-40.3	-43.8	13.4	1.06e-05	0	56	0	458227712	51	5619
2026-01-09 08:07:07.65	21.14	14.85	-40.2	-43.5	13.7	2.20e-06	0	56	0	463470592	51	5442
2026-01-09 08:07:10.68	20.56	14.71	-39.8	-42.9	14.3	7.00e-07	0	56	0	468713472	51	5071
2026-01-09 08:07:13.69	19.99	14.58	-39.6	-42.6	14.6	1.50e-06	0	56	0	475004928	51	4906
2026-01-09 08:07:16.72	19.43	14.44	-39.7	-42.6	14.5	1.50e-06	0	56	0	480247808	51	4921
2026-01-09 08:07:19.75	18.87	14.30	-40.0	-43.3	13.8	2.20e-06	0	56	0	486539264	51	5312
2026-01-09 08:07:22.78	18.31	14.15	-40.0	-43.2	13.9	1.50e-06	0	56	0	491782144	51	5237
2026-01-09 08:07:25.81	17.76	14.01	-39.7	-42.7	14.5	0.00e+00	0	56	0	497025024	51	4933
2026-01-09 08:07:28.83	17.22	13.86	-39.8	-42.9	14.2	0.00e+00	0	56	0	503316480	51	5051
2026-01-09 08:07:31.86	16.68	13.71	-40.4	-43.9	13.2	6.10e-06	0	56	0	508559360	51	5680
2026-01-09 08:07:34.89	16.15	13.56	-41.2	-45.8	11.2	7.57e-04	0	56	0	514850816	52	6663
2026-01-09 08:07:37.92	15.62	13.41	-41.4	-46.2	10.7	3.85e-03	0	56	0	520093696	53	6642
2026-01-09 08:07:40.95	15.10	13.25	-41.2	-45.7	11.3	8.25e-04	0	56	0	526385152	53	6212
2026-01-09 08:07:43.97	14.58	13.10	-40.8	-44.9	12.1	3.78e-04	0	56	0	531628032	53	5681
2026-01-09 08:07:47.00	14.07	12.94	-40.7	-44.6	12.4	1.30e-04	0	56	0	536870912	53	5496
2026-01-09 08:07:50.03	13.57	12.79	-40.1	-43.6	13.4	2.51e-05	0	56	0	543162368	52	5166
2026-01-09 08:07:53.06	13.07	12.63	-40.4	-44.2	12.7	4.57e-05	0	56	0	548405248	52	5566
2026-01-09 08:07:56.08	12.58	12.47	-40.6	-44.5	12.3	1.60e-04	0	56	0	554696704	52	5756
2026-01-09 08:07:59.11	12.09	12.31	-40.3	-43.9	12.8	5.64e-05	0	56	0	559939584	52	5378
2026-01-09 08:08:02.14	11.60	12.15	-39.9	-43.3	13.4	1.14e-05	0	56	0	565182464	51	5289
2026-01-09 08:08:05.17	11.13	11.98	-39.8	-43.3	13.3	1.98e-05	0	56	0	571473920	51	5318
2026-01-09 08:08:08.20	10.65	11.82	-40.0	-43.9	12.5	1.12e-04	0	56	0	576716800	51	5664
2026-01-09 08:08:11.23	10.19	11.66	-40.6	-45.5	10.3	2.50e-03	0	56	0	583008256	51	6866
2026-01-09 08:08:14.25	9.73	11.49	-40.7	-46.8	8.5	3.88e-02	0	56	0	588251136	51	7934
2026-01-09 08:08:17.28	9.27	11.33	-40.6	-48.1	6.8	1.28e-01	0	56	0	593494016	51	9236
2026-01-09 08:08:20.31	8.82	11.16	-40.6	-50.4	4.9	6.24e-01	0	56	0	599785472	51	11961
2026-01-09 08:08:23.34	8.37	10.99	-40.3	-52.1	4.1	1.38e+00	0	56	0	602931200	51	14685
2026-01-09 08:08:26.36	7.93	10.83	-40.2	-52.4	3.9	1.48e+00	0	56	104	602931200	51	15156
2026-01-09 08:08:29.39	7.50	10.66	-40.0	-53.6	3.8	1.49e+00	0	56	104	602931200	51	17370
2026-01-09 08:08:32.42	7.07	10.49	-39.9	-54.4	3.8	1.49e+00	0	56	104	602931200	51	19154
2026-01-09 08:08:35.45	6.64	10.32	-39.8	-54.4	3.8	1.49e+00	0	56	104	602931200	51	19057
2026-01-09 08:08:38.48	6.22	10.15	-39.4	-54.1	3.8	1.49e+00	0	56	104	602931200	50	19402
2026-01-09 08:08:41.51	5.80	9.98	-39.5	-54.2	3.8	1.49e+00	0	56	104	602931200	50	19639
2026-01-09 08:08:44.54	5.39	9.81	-39.5	-54.1	3.8	1.49e+00	0	56	104	602931200	50	19564
2026-01-09 08:08:47.57	4.99	9.64	-39.5	-54.1	3.8	1.49e+00	0	57	104	602931200	50	19545
2026-01-09 08:08:50.59	4.59	9.47	-39.5	-54.2	3.8	1.49e+00	0	57	104	602931200	50	19661
2026-01-09 08:08:53.62	4.19	9.30	-39.5	-54.2	3.8	1.49e+00	0	56	104	602931200	50	19634
2026-01-09 08:08:56.65	3.80	9.13	-39.6	-54.2	3.8	1.49e+00	0	57	104	602931200	50	19702
2026-01-09 08:08:59.68	3.41	8.96	-39.5	-54.1	3.8	1.49e+00	0	56	104	602931200	50	19544
2026-01-09 08:09:02.71	3.03	8.79	-39.6	-54.2	3.8	1.49e+00	0	56	104	602931200	50	19741
2026-01-09 08:09:05.74	2.65	8.62	-39.5	-54.2	3.8	1.49e+00	0	56	104	602931200	50	19738
2026-01-09 08:09:08.76	2.28	8.45	-39.2	-54.2	3.8	1.49e+00	0	57	104	602931200	50	19616
2026-01-09 08:09:11.79	1.91	8.28	-39.3	-54.3	3.8	1.49e+00	0	56	104	602931200	50	19886
2026-01-09 08:09:14.81	1.55	8.11	-39.4	-54.2	3.8	1.49e+00	0	56	104	602931200	50	19629
2026-01-09 08:09:17.85	1.19	7.94	-43.8	-58.3	3.8	1.49e+00	0	57	104	602931200	58	19900
2026-01-09 08:09:20.88	0.83	7.77	-44.8	-59.4	3.8	1.49e+00	0	56	104	602931200	60	20197
2026-01-09 08:09:23.91	0.48	7.60	-45.0	-59.6	3.8	1.49e+00	0	57	104	602931200	60	20586
2026-01-09 08:09:26.94	0.14	7.43	-44.8	-59.4	3.8	1.49e+00	0	57	104	602931200	60	20177
2026-01-09 08:09:29.97	359.79	7.26	-44.8	-59.2	3.8	1.49e+00	0	57	104	602931200	60	19813
2026-01-09 08:09:33.00	359.45	7.09	-44.8	-59.2	3.8	1.49e+00	0	57	104	602931200	60	19797
2026-01-09 08:09:36.03	359.12	6.92	-44.7	-59.2	3.8	1.49e+00	0	57	104	602931200	60	19720
2026-01-09 08:09:39.05	358.79	6.75	-44.7	-59.2	3.8	1.49e+00	0	57	104	602931200	60	19635
2026-01-09 08:09:42.08	358.46	6.58	-44.7	-59.2	3.8	1.49e+00	0	57	104	602931200	60	19663
2026-01-09 08:09:45.11	358.14	6.41	-44.7	-59.2	3.8	1.49e+00	0	57	104	602931200	60	19639
2026-01-09 08:09:48.15	357.82	6.24	-44.7	-59.2	3.8	1.49e+00	0	57	104	602931200	60	19633
2026-01-09 08:09:51.18	357.50	6.07	-44.7	-59.1	3.8	1.49e+00	0	57	104	602931200	60	19613
2026-01-09 08:09:54.21	357.19	5.90	-44.7	-59.2	3.8	1.49e+00	0	57	104	602931200	60	19642
2026-01-09 08:09:57.24	356.88	5.74	-44.7	-59.2	3.8	1.49e+00	0	57	104	602931200	60	19637
2026-01-09 08:10:00.27	356.58	5.57	-44.7	-59.1	3.8	1.49e+00	0	57	104	602931200	60	19587
2026-01-09 08:10:03.30	356.28	5.40	-44.7	-59.2	3.8	1.49e+00	0	57	104	602931200	60	19634
2026-01-09 08:10:06.33	355.98	5.23	-44.7	-59.1	3.8	1.49e+00	0	57	104	602931200	60	19590
2026-01-09 08:10:09.36	355.69	5.07	-44.7	-59.2	3.8	1.49e+00	0	57	104	602931200	60	19649
2026-01-09 08:10:12.39	355.40	4.90	-44.7	-59.1	3.8	1.49e+00	0	57	104	602931200	60	19588
2026-01-09 08:10:15.42	355.11	4.73	-44.7	-59.1	3.8	1.49e+00	0	57	104	602931200	60	19601
2026-01-09 08:10:18.46	354.83	4.57	-44.7	-59.1	3.8	1.49e+00	0	56	104	602931200	60	19592
2026-01-09 08:10:21.49	354.55	4.40	-44.7	-59.1	3.8	1.49e+00	0	57	104	602931200	60	19576
2026-01-09 08:10:24.52	354.27	4.24	-44.7	-59.2	3.8	1.49e+00	0	57	104	602931200	60	19658
2026-01-09 08:10:27.55	354.00	4.07	-44.7	-59.1	3.8	1.49e+00	0	57	104	602931200	60	19608
2026-01-09 08:10:30.59	353.73	3.91	-44.7	-59.2	3.8	1.49e+00	0	57	104	602931200	60	19649
2026-01-09 08:10:33.62	353.46	3.74	-44.6	-59.1	3.8	1.49e+00	0	57	104	602931200	60	19560
2026-01-09 08:10:36.65	353.20	3.58	-44.7	-59.2	3.8	1.49e+00	0	57	104	602931200	60	19638
2026-01-09 08:10:39.68	352.94	3.42	-44.7	-59.2	3.8	1.49e+00	0	57	104	602931200	60	19624
2026-01-09 08:10:42.71	352.68	3.26	-44.7	-59.2	3.8	1.49e+00	0	57	104	602931200	60	19648
2026-01-09 08:10:45.74	352.42	3.09	-44.7	-59.1	3.8	1.49e+00	0	57	104	602931200	60	19528
2026-01-09 08:10:48.78	352.17	2.93	-44.7	-59.1	3.8	1.49e+00	0	57	104	602931200	60	19560
2026-01-09 08:10:51.81	351.92	2.77	-44.7	-59.2	3.8	1.49e+00	0	57	104	602931200	60	19642
2026-01-09 08:10:54.84	351.68	2.61	-44.7	-59.1	3.8	1.49e+00	0	57	104	602931200	60	19608
2026-01-09 08:10:57.87	351.43	2.45	-44.7	-59.1	3.8	1.49e+00	0	57	104	602931200	60	19609
2026-01-09 08:11:00.90	351.19	2.29	-44.7	-59.2	3.8	1.49e+00	0	57	104	602931200	60	19624
2026-01-09 08:11:03.93	350.95	2.13	-44.7	-59.1	3.8	1.49e+00	0	57	104	602931200	60	19595
2026-01-09 08:11:06.96	350.72	1.97	-44.7	-59.1	3.8	1.49e+00	0	57	104	602931200	60	19553

#Closed at: 2026-01-09 08:11:08
#Recorded file [602 MB]: D:/lorett/data/31039_260109_105920.dat