passes_logs/2026/01/09/R2.0S_Moscow/R2.0S_Moscow__20260109_095803_NOAA_20_JPSS-1_rec.log

#Pass ID: 20260109_095803_NOAA 20 (JPSS-1)
#Satellite: NOAA 20 (JPSS-1)
#Configuration: NOAA 20
#almurnet v.1.7.20251203
#Start time: 2026-01-09 09:58:36

#Version: 2.2.20231116
#Station: R2.0S_Moscow
#Location: 37.707566 lon 55.798166 lat
#TLE: 1 43013U 17073A   26008.42245989  .00000120  00000+0  77990-4 0  9996
#TLE: 2 43013  98.7631 309.4315 0001737  48.7960 311.3365 14.19534455421802

#Time	Az	El	Level	Level2	SNR	BER	BlckErr	Temp	State	Recorded	gain1	gain2
2026-01-09 09:58:36.88	162.15	4.26	-45.7	-64.4	3.8	7.42e-01	0	57	0	0	62	31836
2026-01-09 09:58:40.92	162.17	4.54	-45.1	-59.7	3.8	1.49e+00	0	57	104	0	62	18602
2026-01-09 09:58:44.96	162.19	4.83	-44.8	-59.4	3.8	1.49e+00	0	57	104	0	61	18952
2026-01-09 09:58:49.01	162.21	5.12	-44.0	-58.5	3.8	1.49e+00	0	57	104	0	60	18283
2026-01-09 09:58:53.04	162.23	5.41	-44.1	-58.3	3.8	1.49e+00	0	57	104	0	59	18945
2026-01-09 09:58:57.09	162.25	5.71	-44.1	-58.3	3.8	1.49e+00	0	57	104	0	59	18829
2026-01-09 09:59:01.13	162.27	6.01	-44.1	-58.4	3.8	1.49e+00	0	58	104	0	59	19138
2026-01-09 09:59:05.17	162.29	6.31	-44.1	-58.4	3.8	1.49e+00	0	57	104	0	59	19130
2026-01-09 09:59:09.21	162.31	6.62	-44.1	-57.6	3.8	1.49e+00	0	57	104	0	59	17411
2026-01-09 09:59:13.25	162.33	6.93	-44.0	-56.5	3.8	1.49e+00	0	57	104	0	59	15363
2026-01-09 09:59:17.29	162.35	7.24	-43.9	-55.6	3.9	1.45e+00	0	57	104	0	59	13751
2026-01-09 09:59:21.33	162.38	7.56	-43.8	-53.9	4.5	1.07e+00	2	57	0	2097152	59	11411
2026-01-09 09:59:25.38	162.40	7.88	-43.3	-50.9	6.4	3.26e-01	0	57	0	9437184	58	8506
2026-01-09 09:59:29.42	162.42	8.21	-42.6	-48.2	8.9	3.86e-02	0	57	0	16777216	57	6613
2026-01-09 09:59:33.46	162.44	8.54	-42.3	-47.3	9.7	9.18e-02	0	57	0	24117248	56	6307
2026-01-09 09:59:37.50	162.47	8.88	-41.8	-46.4	10.7	3.73e-03	0	57	0	31457280	55	6003
2026-01-09 09:59:41.53	162.49	9.22	-41.7	-46.1	11.0	1.95e-03	0	57	0	38797312	55	5823
2026-01-09 09:59:45.57	162.51	9.56	-41.6	-45.8	11.3	1.03e-03	0	57	0	46137344	55	5615
2026-01-09 09:59:49.60	162.54	9.91	-41.4	-45.3	11.9	3.38e-04	0	57	0	53477376	54	5626
2026-01-09 09:59:53.64	162.56	10.26	-41.3	-45.2	12.1	3.07e-04	0	57	0	61865984	54	5547
2026-01-09 09:59:57.68	162.59	10.62	-41.2	-44.9	12.4	1.88e-04	0	57	0	69206016	54	5379
2026-01-09 10:00:01.71	162.61	10.99	-41.2	-44.8	12.6	1.36e-04	0	57	0	76546048	54	5304
2026-01-09 10:00:05.75	162.64	11.36	-41.1	-44.7	12.7	8.62e-05	0	57	0	83886080	54	5239
2026-01-09 10:00:09.79	162.66	11.73	-41.1	-44.6	12.9	5.34e-05	0	57	0	92274688	54	5170
2026-01-09 10:00:13.83	162.69	12.12	-41.0	-44.4	13.1	4.11e-05	0	57	0	99614720	54	5046
2026-01-09 10:00:17.87	162.72	12.50	-41.0	-44.3	13.1	3.05e-05	0	57	0	106954752	53	5339
2026-01-09 10:00:21.90	162.74	12.90	-40.9	-44.2	13.2	1.60e-05	0	57	0	114294784	53	5269
2026-01-09 10:00:25.94	162.77	13.30	-40.9	-44.2	13.3	2.67e-05	0	57	0	121634816	53	5263
2026-01-09 10:00:29.98	162.80	13.71	-40.9	-44.1	13.4	1.22e-05	0	57	0	130023424	53	5203
2026-01-09 10:00:34.02	162.83	14.12	-40.8	-44.1	13.5	1.60e-05	0	57	0	137363456	53	5176
2026-01-09 10:00:38.06	162.86	14.54	-40.7	-43.9	13.7	6.80e-06	0	57	0	144703488	53	5082
2026-01-09 10:00:42.10	162.89	14.97	-40.7	-43.8	13.8	7.60e-06	0	57	0	152043520	53	5005
2026-01-09 10:00:46.14	162.92	15.41	-40.6	-43.6	14.0	2.20e-06	0	57	0	160432128	53	4917
2026-01-09 10:00:50.18	162.95	15.85	-40.6	-43.6	14.1	2.20e-06	0	57	0	167772160	53	4888
2026-01-09 10:00:54.21	162.98	16.31	-40.5	-43.4	14.3	7.00e-07	0	57	0	175112192	52	5053
2026-01-09 10:00:58.25	163.01	16.77	-40.4	-43.2	14.5	7.00e-07	0	57	0	182452224	52	4953
2026-01-09 10:01:02.29	163.04	17.24	-40.2	-43.0	14.7	0.00e+00	0	57	0	189792256	52	4837
2026-01-09 10:01:06.33	163.07	17.72	-40.2	-42.8	14.9	0.00e+00	0	57	0	198180864	52	4757
2026-01-09 10:01:10.37	163.11	18.21	-40.0	-42.6	15.2	0.00e+00	0	57	0	205520896	52	4607
2026-01-09 10:01:14.41	163.14	18.71	-40.0	-42.6	15.3	0.00e+00	0	57	0	212860928	51	4887
2026-01-09 10:01:18.44	163.18	19.22	-40.0	-42.5	15.4	0.00e+00	0	57	0	220200960	51	4844
2026-01-09 10:01:22.48	163.21	19.74	-40.0	-42.5	15.4	0.00e+00	0	57	0	228589568	51	4854
2026-01-09 10:01:26.52	163.25	20.27	-40.0	-42.5	15.4	0.00e+00	0	57	0	235929600	51	4863
2026-01-09 10:01:30.56	163.29	20.81	-39.8	-42.3	15.7	0.00e+00	0	57	0	243269632	51	4714
2026-01-09 10:01:34.60	163.32	21.37	-39.8	-42.3	15.7	0.00e+00	0	57	0	250609664	51	4710
2026-01-09 10:01:38.64	163.36	21.94	-39.8	-42.2	15.8	0.00e+00	0	57	0	257949696	51	4684
2026-01-09 10:01:42.67	163.40	22.52	-39.8	-42.2	15.8	0.00e+00	0	57	0	266338304	51	4673
2026-01-09 10:01:46.71	163.45	23.11	-39.8	-42.2	15.8	0.00e+00	0	57	0	273678336	51	4672
2026-01-09 10:01:50.75	163.49	23.72	-39.8	-42.2	15.8	0.00e+00	0	57	0	281018368	51	4685
2026-01-09 10:01:54.78	163.53	24.34	-39.7	-42.1	15.9	0.00e+00	0	57	0	288358400	51	4621
2026-01-09 10:01:58.82	163.58	24.98	-39.8	-42.2	15.9	0.00e+00	0	57	0	296747008	51	4655
2026-01-09 10:02:02.86	163.63	25.63	-39.9	-42.3	15.8	0.00e+00	0	57	0	304087040	51	4713
2026-01-09 10:02:06.90	163.67	26.30	-40.2	-42.7	15.3	0.00e+00	0	57	0	311427072	51	4962
2026-01-09 10:02:10.94	163.72	26.99	-40.5	-43.2	14.8	0.00e+00	0	57	0	318767104	51	5253
2026-01-09 10:02:14.97	163.77	27.69	-40.8	-43.7	14.2	0.00e+00	0	57	0	326107136	52	5259
2026-01-09 10:02:19.01	163.83	28.42	-41.2	-44.3	13.6	6.10e-06	0	57	0	334495744	52	5649
2026-01-09 10:02:23.05	163.88	29.16	-41.5	-45.0	12.9	3.43e-05	0	57	0	341835776	53	5771
2026-01-09 10:02:27.08	163.94	29.92	-41.9	-45.8	12.2	1.98e-04	0	57	0	349175808	54	5938
2026-01-09 10:02:31.12	164.00	30.71	-42.1	-46.0	11.9	3.99e-04	0	57	0	356515840	54	6099
2026-01-09 10:02:35.15	164.06	31.51	-41.8	-45.5	12.5	1.43e-04	0	57	0	364904448	54	5736
2026-01-09 10:02:39.19	164.12	32.34	-41.5	-44.8	13.2	1.67e-05	0	57	0	372244480	54	5321
2026-01-09 10:02:43.23	164.19	33.19	-41.4	-44.7	13.3	1.67e-05	0	57	0	379584512	54	5239
2026-01-09 10:02:47.27	164.26	34.07	-40.9	-43.9	14.1	1.50e-06	0	57	0	386924544	53	5082
2026-01-09 10:02:51.30	164.33	34.97	-40.1	-42.6	15.5	0.00e+00	0	57	0	394264576	52	4614
2026-01-09 10:02:55.34	164.41	35.90	-39.5	-41.7	16.4	0.00e+00	0	57	0	402653184	51	4425
2026-01-09 10:02:59.38	164.49	36.85	-39.4	-41.6	16.5	0.00e+00	0	57	0	409993216	50	4630
2026-01-09 10:03:03.41	164.57	37.84	-39.3	-41.4	16.7	0.00e+00	0	57	0	417333248	50	4535
2026-01-09 10:03:07.45	164.66	38.85	-39.1	-41.2	17.0	0.00e+00	0	57	0	424673280	50	4398
2026-01-09 10:03:11.49	164.76	39.90	-38.9	-41.0	17.2	0.00e+00	0	57	0	433061888	49	4547
2026-01-09 10:03:15.53	164.86	40.98	-39.2	-41.3	16.8	0.00e+00	0	57	0	440401920	49	4738
2026-01-09 10:03:19.56	164.96	42.08	-39.1	-41.2	17.0	0.00e+00	0	57	0	447741952	49	4654
2026-01-09 10:03:23.60	165.07	43.23	-39.2	-41.3	16.8	0.00e+00	0	57	0	455081984	49	4737
2026-01-09 10:03:27.64	165.19	44.41	-40.3	-42.9	15.3	0.00e+00	0	57	0	462422016	51	5070
2026-01-09 10:03:31.67	165.32	45.62	-41.0	-44.0	14.0	3.00e-06	0	57	0	470810624	52	5459
2026-01-09 10:03:35.71	165.46	46.88	-41.4	-44.8	13.3	1.22e-05	0	57	0	478150656	53	5597
2026-01-09 10:03:39.75	165.61	48.17	-41.6	-45.0	13.1	4.42e-05	0	57	0	485490688	54	5444
2026-01-09 10:03:43.79	165.76	49.51	-41.5	-44.8	13.2	1.37e-05	0	57	0	492830720	54	5291
2026-01-09 10:03:47.83	165.94	50.88	-40.8	-43.6	14.4	2.20e-06	0	57	0	501219328	53	4892
2026-01-09 10:03:51.87	166.13	52.29	-39.1	-41.1	17.0	0.00e+00	0	57	0	508559360	50	4383
2026-01-09 10:03:55.91	166.33	53.75	-38.5	-40.4	17.8	0.00e+00	0	57	0	515899392	48	4494
2026-01-09 10:03:59.94	166.56	55.24	-39.1	-41.2	16.9	0.00e+00	0	57	0	523239424	48	4962
2026-01-09 10:04:03.98	166.81	56.79	-40.0	-42.4	15.7	7.00e-07	0	57	0	530579456	50	5063
2026-01-09 10:04:08.02	167.09	58.37	-40.3	-42.8	15.4	0.00e+00	0	57	0	538968064	51	4996
2026-01-09 10:04:12.07	167.40	60.00	-39.5	-41.7	16.5	0.00e+00	0	57	0	546308096	50	4655
2026-01-09 10:04:16.10	167.76	61.67	-38.5	-40.4	17.7	0.00e+00	0	57	0	553648128	49	4250
2026-01-09 10:04:20.14	168.16	63.38	-37.7	-39.4	18.6	0.00e+00	0	57	0	560988160	47	4254
2026-01-09 10:04:24.18	168.63	65.13	-39.8	-42.2	15.9	0.00e+00	0	57	0	569376768	50	4960
2026-01-09 10:04:28.21	169.17	66.91	-40.4	-43.0	15.2	0.00e+00	0	57	0	576716800	51	5110
2026-01-09 10:04:32.25	169.82	68.74	-41.2	-44.3	13.6	6.80e-06	0	57	0	584056832	53	5317
2026-01-09 10:04:36.29	170.59	70.60	-40.0	-42.4	15.6	0.00e+00	0	57	0	591396864	51	4803
2026-01-09 10:04:40.33	171.54	72.50	-41.1	-44.2	13.7	5.30e-06	0	57	0	598736896	52	5531
2026-01-09 10:04:44.36	172.73	74.41	-41.3	-44.6	13.3	6.10e-06	0	57	0	607125504	53	5466
2026-01-09 10:04:48.40	174.26	76.35	-40.8	-43.8	14.1	3.00e-06	0	57	0	614465536	53	5011
2026-01-09 10:04:52.44	176.33	78.31	-40.3	-42.9	14.9	0.00e+00	0	57	0	621805568	52	4810
2026-01-09 10:04:56.48	179.24	80.26	-39.6	-42.0	16.0	0.00e+00	0	57	0	629145600	51	4564
2026-01-09 10:05:00.51	183.62	82.20	-42.2	-46.4	11.3	1.03e-04	0	57	0	636485632	54	6387
2026-01-09 10:05:04.55	190.87	84.08	-40.4	-43.1	14.6	7.00e-07	0	57	0	644874240	52	4923
2026-01-09 10:05:08.59	204.41	85.79	-39.9	-42.3	15.6	0.00e+00	0	57	0	652214272	51	4716
2026-01-09 10:05:12.63	231.96	87.00	-41.0	-44.0	13.7	3.80e-06	0	57	0	659554304	52	5459
2026-01-09 10:05:16.67	272.68	87.01	-40.6	-43.5	14.3	1.50e-06	0	57	0	666894336	52	5134
2026-01-09 10:05:20.71	300.56	85.81	-40.5	-43.2	14.6	7.00e-07	0	57	0	675282944	52	4940
2026-01-09 10:05:24.75	314.27	84.11	-40.2	-42.8	15.2	0.00e+00	0	57	0	682622976	51	5006
2026-01-09 10:05:28.78	321.57	82.24	-42.1	-46.2	11.6	1.10e-03	0	57	0	689963008	55	5894
2026-01-09 10:05:32.82	326.00	80.30	-40.0	-42.4	15.5	0.00e+00	0	57	0	697303040	51	4804
2026-01-09 10:05:36.86	328.93	78.35	-40.9	-43.9	13.8	1.06e-05	0	57	0	704643072	52	5378
2026-01-09 10:05:40.90	331.01	76.40	-42.9	-47.8	10.0	1.36e-02	0	57	0	713031680	57	6302
2026-01-09 10:05:44.93	332.55	74.46	-42.9	-47.9	10.0	9.49e-03	0	57	0	720371712	56	6734
2026-01-09 10:05:48.97	333.75	72.55	-40.4	-43.1	14.8	7.00e-07	0	57	0	727711744	52	4918
2026-01-09 10:05:53.01	334.70	70.66	-40.0	-42.5	15.5	0.00e+00	0	57	0	735051776	50	5101
2026-01-09 10:05:57.04	335.48	68.81	-40.3	-42.9	15.2	7.00e-07	0	57	0	743440384	51	5052
2026-01-09 10:06:01.08	336.12	66.98	-41.7	-45.3	12.5	1.35e-04	0	57	0	750780416	55	5312
2026-01-09 10:06:05.12	336.67	65.20	-41.8	-45.5	12.4	3.42e-04	0	57	0	758120448	54	5739
2026-01-09 10:06:09.16	337.14	63.45	-38.8	-40.7	17.3	0.00e+00	0	57	0	765460480	49	4425
2026-01-09 10:06:13.19	337.54	61.75	-38.7	-40.6	17.4	0.00e+00	0	57	0	772800512	49	4378
2026-01-09 10:06:17.23	337.90	60.08	-41.5	-44.9	13.0	9.00e-05	0	57	0	781189120	54	5380
2026-01-09 10:06:21.27	338.22	58.46	-41.9	-45.6	12.3	7.09e-05	0	57	0	788529152	54	5825
2026-01-09 10:06:25.31	338.50	56.88	-41.5	-44.8	13.1	2.66e-04	0	57	0	795869184	55	5035
2026-01-09 10:06:29.34	338.75	55.35	-40.6	-43.3	14.7	7.00e-07	0	57	0	803209216	53	4759
2026-01-09 10:06:33.38	338.98	53.85	-40.4	-42.9	15.2	0.00e+00	0	57	0	811597824	51	5088
2026-01-09 10:06:37.42	339.19	52.40	-40.0	-42.3	15.9	0.00e+00	0	57	0	818937856	50	5003
2026-01-09 10:06:41.45	339.37	50.99	-42.7	-47.3	10.7	1.64e-03	0	57	0	826277888	55	6653
2026-01-09 10:06:45.49	339.55	49.62	-42.5	-46.6	11.4	1.12e-03	0	57	0	833617920	56	5812
2026-01-09 10:06:49.53	339.71	48.29	-44.2	-52.5	5.7	5.28e-01	0	57	0	840957952	59	9645
2026-01-09 10:06:53.57	339.86	47.00	-40.0	-42.4	15.7	0.00e+00	0	57	0	849346560	51	4766
2026-01-09 10:06:57.60	340.00	45.76	-40.8	-43.7	14.3	1.50e-06	0	57	0	856686592	52	5258
2026-01-09 10:07:01.64	340.13	44.54	-40.4	-43.1	14.9	0.00e+00	0	57	0	864026624	52	4908
2026-01-09 10:07:05.68	340.25	43.37	-38.8	-40.7	17.3	0.00e+00	0	57	0	871366656	49	4434
2026-01-09 10:07:09.72	340.36	42.22	-40.9	-43.9	14.1	0.00e+00	0	57	0	878706688	52	5367
2026-01-09 10:07:13.74	340.47	41.12	-40.7	-43.5	14.5	1.50e-06	0	57	0	887095296	53	4848
2026-01-09 10:07:17.79	340.57	40.04	-39.9	-42.2	15.9	0.00e+00	0	57	0	894435328	51	4680
2026-01-09 10:07:21.82	340.66	39.00	-41.9	-45.7	12.1	8.01e-05	0	57	0	901775360	54	5923
2026-01-09 10:07:25.86	340.75	37.99	-43.2	-48.4	9.5	2.28e-02	0	57	0	909115392	57	6770
2026-01-09 10:07:29.90	340.84	37.01	-42.0	-45.8	12.3	4.32e-04	0	57	0	917504000	56	5289
2026-01-09 10:07:33.93	340.92	36.06	-41.3	-44.5	13.4	1.67e-05	0	57	0	924844032	54	5156
2026-01-09 10:07:37.97	341.00	35.13	-42.0	-45.9	11.9	2.09e-04	0	57	0	932184064	54	6053
2026-01-09 10:07:42.00	341.08	34.23	-43.7	-50.3	7.6	7.82e-02	0	57	0	939524096	57	8429
2026-01-09 10:07:46.04	341.15	33.36	-43.5	-49.6	8.2	6.63e-02	0	57	0	946864128	58	7338
2026-01-09 10:07:50.08	341.22	32.51	-42.3	-46.5	11.5	1.51e-03	0	57	0	955252736	56	5750
2026-01-09 10:07:54.12	341.28	31.68	-42.1	-46.0	11.9	3.16e-04	0	57	0	962592768	56	5454
2026-01-09 10:07:58.15	341.35	30.88	-42.3	-46.3	11.7	6.29e-04	0	57	0	969932800	56	5628
2026-01-09 10:08:02.19	341.41	30.10	-42.2	-46.1	11.8	5.37e-04	0	57	0	977272832	56	5512
2026-01-09 10:08:06.23	341.47	29.34	-41.8	-45.5	12.2	1.95e-04	0	57	0	985661440	55	5432
2026-01-09 10:08:10.27	341.52	28.60	-41.3	-44.6	13.1	2.36e-05	0	57	0	993001472	54	5217
2026-01-09 10:08:14.31	341.58	27.87	-40.6	-43.5	14.2	7.00e-07	0	57	0	1000341504	53	4854
2026-01-09 10:08:18.34	341.63	27.17	-40.2	-42.9	14.9	0.00e+00	0	57	0	1007681536	52	4799
2026-01-09 10:08:22.38	341.68	26.49	-40.1	-42.8	15.0	0.00e+00	0	57	0	1015021568	52	4713
2026-01-09 10:08:26.42	341.74	25.82	-40.3	-43.1	14.6	7.00e-07	0	57	0	1023410176	52	4916
2026-01-09 10:08:30.46	341.78	25.16	-40.2	-42.9	14.8	0.00e+00	0	57	0	1030750208	52	4791
2026-01-09 10:08:34.49	341.83	24.53	-39.9	-42.4	15.4	0.00e+00	0	57	0	1038090240	51	4786
2026-01-09 10:08:38.53	341.88	23.91	-39.4	-41.7	16.0	0.00e+00	0	57	0	1045430272	50	4701
2026-01-09 10:08:42.57	341.92	23.30	-39.3	-41.5	16.1	0.00e+00	0	57	0	1053818880	50	4597
2026-01-09 10:08:46.61	341.97	22.71	-39.1	-41.4	16.1	0.00e+00	0	57	0	1061158912	50	4512
2026-01-09 10:08:50.65	342.01	22.13	-39.1	-41.4	16.0	0.00e+00	0	57	0	1068498944	50	4521
2026-01-09 10:08:54.69	342.05	21.56	-39.1	-41.7	15.2	0.00e+00	0	57	0	1075838976	49	4966
2026-01-09 10:08:58.72	342.10	21.01	-40.6	-46.0	9.4	1.08e-02	0	57	0	1083179008	51	7269
2026-01-09 10:09:02.76	342.14	20.47	-40.5	-50.4	4.8	7.31e-01	0	57	0	1091567616	52	11294
2026-01-09 10:09:06.80	342.18	19.94	-40.2	-54.0	3.8	1.49e+00	0	57	104	1092616192	52	17259
2026-01-09 10:09:10.84	342.21	19.42	-39.7	-54.8	3.8	1.49e+00	0	57	104	1092616192	51	20025
2026-01-09 10:09:14.87	342.25	18.91	-40.5	-55.2	3.8	1.49e+00	0	57	104	1092616192	51	20844
2026-01-09 10:09:18.91	342.29	18.41	-40.2	-54.9	3.8	1.49e+00	0	57	104	1092616192	51	20086
2026-01-09 10:09:22.95	342.33	17.92	-40.5	-55.1	3.8	1.49e+00	0	57	104	1092616192	51	20579
2026-01-09 10:09:26.98	342.36	17.45	-40.2	-54.8	3.8	1.49e+00	0	57	104	1092616192	51	19921
2026-01-09 10:09:31.02	342.40	16.98	-40.7	-55.2	3.8	1.49e+00	0	57	104	1092616192	51	20963
2026-01-09 10:09:35.06	342.43	16.51	-40.3	-54.9	3.8	1.49e+00	0	57	104	1092616192	51	20084
2026-01-09 10:09:39.09	342.47	16.06	-40.4	-55.1	3.8	1.49e+00	0	57	104	1092616192	51	20640
2026-01-09 10:09:43.13	342.50	15.62	-40.3	-54.8	3.8	1.49e+00	0	57	104	1092616192	51	20052
2026-01-09 10:09:47.17	342.53	15.18	-40.6	-55.2	3.8	1.49e+00	0	57	104	1092616192	51	20864
2026-01-09 10:09:51.20	342.57	14.76	-40.4	-54.9	3.8	1.49e+00	0	57	104	1092616192	51	20257
2026-01-09 10:09:55.24	342.60	14.33	-40.5	-55.1	3.8	1.49e+00	0	57	104	1092616192	51	20580
2026-01-09 10:09:59.28	342.63	13.92	-40.5	-55.1	3.8	1.49e+00	0	57	104	1092616192	51	20602
2026-01-09 10:10:03.32	342.66	13.51	-40.4	-55.0	3.8	1.49e+00	0	57	104	1092616192	51	20384
2026-01-09 10:10:07.36	342.69	13.11	-40.3	-55.0	3.8	1.49e+00	0	57	104	1092616192	51	20310
2026-01-09 10:10:11.39	342.72	12.72	-40.5	-55.1	3.8	1.49e+00	0	57	104	1092616192	51	20553
2026-01-09 10:10:15.43	342.75	12.33	-40.5	-55.1	3.8	1.49e+00	0	57	104	1092616192	51	20583
2026-01-09 10:10:19.47	342.78	11.95	-40.4	-54.9	3.8	1.49e+00	0	57	104	1092616192	51	20247
2026-01-09 10:10:23.50	342.81	11.58	-40.3	-54.8	3.8	1.49e+00	0	57	104	1092616192	51	20035
2026-01-09 10:10:27.54	342.84	11.21	-40.1	-54.7	3.8	1.49e+00	0	57	104	1092616192	51	19640
2026-01-09 10:10:31.58	342.87	10.84	-40.0	-54.6	3.8	1.49e+00	0	57	104	1092616192	51	19439
2026-01-09 10:10:35.61	342.90	10.49	-40.1	-54.6	3.8	1.49e+00	0	57	104	1092616192	51	19557
2026-01-09 10:10:39.65	342.93	10.13	-40.2	-54.7	3.8	1.49e+00	0	57	104	1092616192	51	19709
2026-01-09 10:10:43.69	342.96	9.78	-40.2	-54.8	3.8	1.49e+00	0	57	104	1092616192	51	19909
2026-01-09 10:10:47.73	342.99	9.44	-40.3	-54.8	3.8	1.49e+00	0	57	104	1092616192	51	19910
2026-01-09 10:10:51.76	343.01	9.10	-40.3	-54.8	3.8	1.49e+00	0	57	104	1092616192	51	20001
2026-01-09 10:10:55.80	343.04	8.77	-40.3	-54.7	3.8	1.49e+00	0	57	104	1092616192	51	19824
2026-01-09 10:10:59.84	343.07	8.44	-40.3	-54.8	3.8	1.49e+00	0	57	104	1092616192	51	19847
2026-01-09 10:11:03.89	343.10	8.11	-40.4	-55.0	3.8	1.49e+00	0	57	104	1092616192	51	20374
2026-01-09 10:11:07.93	343.12	7.79	-42.6	-57.2	3.8	1.49e+00	0	57	104	1092616192	55	20812
2026-01-09 10:11:11.97	343.15	7.47	-44.9	-59.4	3.8	1.49e+00	0	57	104	1092616192	60	20246
2026-01-09 10:11:16.01	343.18	7.16	-45.0	-59.5	3.8	1.49e+00	0	57	104	1092616192	60	20380
2026-01-09 10:11:20.06	343.20	6.85	-44.9	-59.3	3.8	1.49e+00	0	57	104	1092616192	60	19978
2026-01-09 10:11:24.10	343.23	6.54	-44.8	-59.3	3.8	1.49e+00	0	57	104	1092616192	60	19900
2026-01-09 10:11:28.14	343.25	6.24	-44.8	-59.3	3.8	1.49e+00	0	57	104	1092616192	60	19877
2026-01-09 10:11:32.18	343.28	5.94	-44.8	-59.3	3.8	1.49e+00	0	57	104	1092616192	60	19846
2026-01-09 10:11:36.22	343.31	5.64	-44.8	-59.2	3.8	1.49e+00	0	57	104	1092616192	60	19837
2026-01-09 10:11:40.26	343.33	5.35	-44.8	-59.2	3.8	1.49e+00	0	57	104	1092616192	60	19841
2026-01-09 10:11:44.31	343.36	5.06	-44.8	-59.2	3.8	1.49e+00	0	57	104	1092616192	60	19841
2026-01-09 10:11:48.35	343.38	4.78	-44.8	-59.2	3.8	1.49e+00	0	57	104	1092616192	60	19811
2026-01-09 10:11:52.39	343.41	4.49	-44.8	-59.2	3.8	1.49e+00	0	57	104	1092616192	60	19821
2026-01-09 10:11:56.44	343.43	4.21	-44.8	-59.2	3.8	1.49e+00	0	57	104	1092616192	60	19803
2026-01-09 10:12:00.45	343.46	3.94	-44.8	-59.3	3.8	1.49e+00	0	57	104	1092616192	60	19862
2026-01-09 10:12:04.49	343.48	3.66	-44.8	-59.3	3.8	1.49e+00	0	57	104	1092616192	60	19873
2026-01-09 10:12:08.53	343.50	3.39	-44.8	-59.3	3.8	1.49e+00	0	57	104	1092616192	60	19867
2026-01-09 10:12:12.57	343.53	3.12	-44.8	-59.2	3.8	1.49e+00	0	57	104	1092616192	60	19835
2026-01-09 10:12:16.62	343.55	2.85	-44.8	-59.3	3.8	1.49e+00	0	57	104	1092616192	60	19850
2026-01-09 10:12:20.66	343.58	2.59	-44.8	-59.2	3.8	1.49e+00	0	57	104	1092616192	60	19818
2026-01-09 10:12:24.70	343.60	2.33	-44.8	-59.2	3.8	1.49e+00	0	57	104	1092616192	60	19840
2026-01-09 10:12:28.74	343.63	2.07	-44.8	-59.2	3.8	1.49e+00	0	57	104	1092616192	60	19821

#Closed at: 2026-01-09 10:12:31
#Recorded file [1092 MB]: D:/lorett/data/31039_260109_125836.dat