passes_logs/2026/01/09/R2.0S_Moscow/R2.0S_Moscow__20260109_000730_NOAA_20_JPSS-1_rec.log

#Pass ID: 20260109_000730_NOAA 20 (JPSS-1)
#Satellite: NOAA 20 (JPSS-1)
#Configuration: NOAA 20
#almurnet v.1.7.20251203
#Start time: 2026-01-09 00:07:30

#Version: 2.2.20231116
#Station: R2.0S_Moscow
#Location: 37.707566 lon 55.798166 lat
#TLE: 1 43013U 17073A   26008.42245989  .00000120  00000+0  77990-4 0  9996
#TLE: 2 43013  98.7631 309.4315 0001737  48.7960 311.3365 14.19534455421802

#Time	Az	El	Level	Level2	SNR	BER	BlckErr	Temp	State	Recorded	gain1	gain2
2026-01-09 00:07:30.70	14.28	2.00	-42.9	-57.4	3.8	1.49e+00	0	48	0	0	57	19023
2026-01-09 00:07:34.75	14.21	2.26	-42.8	-57.4	3.8	1.49e+00	0	49	104	0	57	18963
2026-01-09 00:07:38.79	14.15	2.52	-42.8	-57.4	3.8	1.49e+00	0	49	104	0	57	18981
2026-01-09 00:07:42.83	14.08	2.78	-42.8	-57.3	3.8	1.49e+00	0	49	104	0	57	18945
2026-01-09 00:07:46.87	14.01	3.04	-42.8	-57.3	3.8	1.49e+00	0	49	104	0	57	18928
2026-01-09 00:07:50.91	13.94	3.31	-42.8	-57.3	3.8	1.49e+00	0	50	104	0	57	18751
2026-01-09 00:07:54.95	13.87	3.58	-42.8	-57.1	3.8	1.49e+00	0	50	104	0	57	18383
2026-01-09 00:07:58.99	13.79	3.85	-42.8	-57.1	3.8	1.49e+00	0	50	104	0	57	18492
2026-01-09 00:08:03.04	13.72	4.13	-42.8	-57.1	3.8	1.49e+00	0	50	104	0	57	18348
2026-01-09 00:08:07.08	13.64	4.40	-42.8	-57.1	3.8	1.49e+00	0	50	104	0	57	18488
2026-01-09 00:08:11.12	13.56	4.68	-42.8	-57.1	3.8	1.49e+00	0	51	104	0	57	18364
2026-01-09 00:08:15.17	13.48	4.97	-42.8	-56.7	3.8	1.49e+00	0	51	104	0	57	17648
2026-01-09 00:08:19.21	13.39	5.25	-42.7	-55.9	3.8	1.49e+00	0	51	104	0	57	16022
2026-01-09 00:08:23.25	13.31	5.54	-42.7	-55.0	3.8	1.48e+00	0	51	104	0	57	14508
2026-01-09 00:08:27.29	13.22	5.83	-42.7	-55.3	3.8	1.48e+00	0	52	104	0	57	14940
2026-01-09 00:08:31.33	13.13	6.13	-42.8	-56.1	3.8	1.49e+00	0	52	104	0	57	16500
2026-01-09 00:08:35.37	13.04	6.43	-42.6	-54.4	4.0	1.48e+00	0	52	104	0	57	13562
2026-01-09 00:08:39.42	12.95	6.73	-42.2	-50.4	5.9	4.81e-01	0	52	0	5242880	56	9020
2026-01-09 00:08:43.46	12.85	7.04	-41.2	-46.9	9.0	3.01e-02	0	52	0	12582912	54	6760
2026-01-09 00:08:47.50	12.75	7.34	-40.6	-45.3	10.7	3.36e-03	0	52	0	19922944	53	5928
2026-01-09 00:08:51.54	12.65	7.66	-40.5	-45.2	10.8	2.68e-03	0	53	0	28311552	53	5883
2026-01-09 00:08:55.58	12.55	7.97	-41.1	-46.6	9.2	1.47e-02	0	53	0	35651584	53	6959
2026-01-09 00:08:59.62	12.44	8.29	-40.9	-45.6	10.2	1.45e+00	1	53	104	40894464	54	5839
2026-01-09 00:09:03.66	12.33	8.62	-40.1	-43.9	12.5	1.32e-04	0	53	0	47185920	52	5369
2026-01-09 00:09:07.70	12.22	8.95	-40.1	-43.8	12.6	8.69e-05	0	53	0	55574528	52	5301
2026-01-09 00:09:11.74	12.11	9.28	-39.9	-43.3	13.0	3.28e-05	0	53	0	62914560	51	5339
2026-01-09 00:09:15.78	11.99	9.62	-39.8	-43.3	13.1	2.21e-05	0	53	0	70254592	51	5280
2026-01-09 00:09:19.81	11.87	9.96	-39.8	-43.2	13.3	1.98e-05	0	53	0	77594624	51	5236
2026-01-09 00:09:23.85	11.74	10.30	-39.8	-43.2	13.3	2.05e-05	0	53	0	84934656	51	5267
2026-01-09 00:09:27.89	11.61	10.65	-39.6	-42.8	13.7	4.50e-06	0	54	0	93323264	51	5022
2026-01-09 00:09:31.93	11.48	11.01	-39.7	-43.0	13.5	1.14e-05	0	54	0	100663296	51	5136
2026-01-09 00:09:35.97	11.35	11.37	-39.5	-42.7	13.6	1.29e-05	0	54	0	108003328	50	5261
2026-01-09 00:09:40.01	11.21	11.74	-39.4	-42.6	13.9	4.50e-06	0	54	0	115343360	50	5166
2026-01-09 00:09:44.04	11.07	12.11	-39.4	-42.4	14.2	7.00e-07	0	54	0	123731968	50	5092
2026-01-09 00:09:48.08	10.92	12.49	-39.5	-42.5	14.4	2.20e-06	0	54	0	131072000	50	5111
2026-01-09 00:09:52.12	10.77	12.87	-39.7	-42.5	14.5	7.00e-07	0	55	0	138412032	50	5158
2026-01-09 00:09:56.16	10.61	13.26	-39.4	-42.1	15.0	0.00e+00	0	55	0	145752064	50	4915
2026-01-09 00:10:00.19	10.46	13.65	-39.4	-42.0	15.3	0.00e+00	0	54	0	153092096	50	4827
2026-01-09 00:10:04.23	10.29	14.05	-39.4	-42.0	15.4	0.00e+00	0	55	0	161480704	50	4826
2026-01-09 00:10:08.27	10.12	14.46	-39.3	-41.8	15.6	0.00e+00	0	55	0	168820736	50	4734
2026-01-09 00:10:12.31	9.95	14.87	-39.4	-41.8	15.7	0.00e+00	0	55	0	176160768	50	4737
2026-01-09 00:10:16.34	9.77	15.29	-39.3	-41.7	15.8	0.00e+00	0	55	0	183500800	50	4676
2026-01-09 00:10:20.38	9.58	15.72	-39.3	-41.6	15.9	0.00e+00	0	55	0	191889408	50	4648
2026-01-09 00:10:24.42	9.39	16.16	-39.3	-41.7	15.8	0.00e+00	0	55	0	199229440	50	4700
2026-01-09 00:10:28.46	9.19	16.60	-39.3	-41.7	15.9	0.00e+00	0	55	0	206569472	50	4668
2026-01-09 00:10:32.50	8.99	17.05	-39.3	-41.6	16.1	0.00e+00	0	55	0	213909504	50	4622
2026-01-09 00:10:36.54	8.77	17.51	-39.2	-41.5	16.2	0.00e+00	0	55	0	221249536	50	4574
2026-01-09 00:10:40.57	8.56	17.98	-39.2	-41.4	16.3	0.00e+00	0	55	0	229638144	50	4533
2026-01-09 00:10:44.61	8.33	18.45	-39.2	-41.5	16.2	0.00e+00	0	55	0	236978176	50	4586
2026-01-09 00:10:48.65	8.10	18.94	-39.2	-41.5	16.3	0.00e+00	0	55	0	244318208	50	4554
2026-01-09 00:10:52.68	7.86	19.43	-39.3	-41.6	16.2	0.00e+00	0	55	0	251658240	50	4602
2026-01-09 00:10:56.72	7.61	19.93	-39.3	-41.7	16.1	0.00e+00	0	55	0	260046848	50	4652
2026-01-09 00:11:00.76	7.35	20.45	-39.4	-41.7	16.1	0.00e+00	0	55	0	267386880	50	4704
2026-01-09 00:11:04.79	7.08	20.97	-39.3	-41.6	16.2	0.00e+00	0	55	0	274726912	50	4649
2026-01-09 00:11:08.83	6.80	21.50	-39.4	-41.7	16.1	0.00e+00	0	55	0	282066944	50	4682
2026-01-09 00:11:12.87	6.51	22.05	-39.4	-41.7	16.1	0.00e+00	0	55	0	289406976	50	4670
2026-01-09 00:11:16.90	6.22	22.60	-39.4	-41.7	16.1	0.00e+00	0	55	0	297795584	50	4695
2026-01-09 00:11:20.94	5.90	23.17	-39.4	-41.8	16.1	0.00e+00	0	55	0	305135616	50	4714
2026-01-09 00:11:24.98	5.58	23.75	-39.6	-42.0	15.9	0.00e+00	0	55	0	312475648	50	4815
2026-01-09 00:11:29.02	5.25	24.34	-39.7	-42.1	15.7	0.00e+00	0	56	0	319815680	50	4923
2026-01-09 00:11:33.05	4.90	24.94	-39.9	-42.4	15.5	0.00e+00	0	56	0	328204288	50	5048
2026-01-09 00:11:37.09	4.53	25.55	-40.1	-42.8	15.1	0.00e+00	0	56	0	335544320	50	5303
2026-01-09 00:11:41.13	4.15	26.18	-40.3	-43.0	14.9	7.00e-07	0	56	0	342884352	51	5141
2026-01-09 00:11:45.17	3.76	26.82	-40.6	-43.5	14.4	7.00e-07	0	56	0	350224384	51	5437
2026-01-09 00:11:49.21	3.35	27.48	-40.9	-44.0	13.8	2.20e-06	0	56	0	357564416	52	5463
2026-01-09 00:11:53.24	2.92	28.15	-41.2	-44.6	13.3	2.21e-05	0	56	0	365953024	53	5471
2026-01-09 00:11:57.28	2.47	28.84	-41.3	-44.7	13.1	2.59e-05	0	56	0	373293056	53	5575
2026-01-09 00:12:01.30	2.00	29.53	-41.5	-45.0	12.9	6.71e-05	0	56	0	380633088	53	5739
2026-01-09 00:12:05.34	1.51	30.25	-41.8	-45.6	12.3	1.89e-04	0	56	0	387973120	54	5799
2026-01-09 00:12:09.38	1.00	30.98	-41.8	-45.6	12.2	1.95e-04	0	56	0	395313152	54	5839
2026-01-09 00:12:13.42	0.46	31.73	-42.0	-45.9	11.9	3.79e-04	0	56	0	403701760	54	6048
2026-01-09 00:12:17.46	359.89	32.49	-42.1	-46.2	11.7	5.51e-04	0	56	0	411041792	54	6210
2026-01-09 00:12:21.49	359.30	33.27	-42.1	-46.2	11.6	7.00e-04	0	56	0	418381824	55	5920
2026-01-09 00:12:25.53	358.68	34.07	-42.2	-46.3	11.6	7.34e-04	0	56	0	425721856	55	5966
2026-01-09 00:12:29.57	358.02	34.88	-42.2	-46.5	11.5	8.64e-04	0	56	0	434110464	55	6063
2026-01-09 00:12:33.61	357.33	35.71	-42.3	-46.7	11.2	1.70e-03	0	56	0	441450496	55	6222
2026-01-09 00:12:37.64	356.60	36.56	-42.2	-46.5	11.4	9.47e-04	0	56	0	448790528	55	6080
2026-01-09 00:12:41.68	355.83	37.42	-41.9	-45.6	12.4	2.00e-04	0	56	0	456130560	55	5487
2026-01-09 00:12:45.72	355.02	38.31	-41.7	-45.3	12.6	1.50e-04	0	56	0	463470592	55	5333
2026-01-09 00:12:49.76	354.17	39.21	-41.6	-45.1	13.0	3.89e-05	0	56	0	471859200	55	5160
2026-01-09 00:12:53.80	353.26	40.12	-41.7	-45.2	12.8	6.63e-05	0	56	0	479199232	55	5279
2026-01-09 00:12:57.83	352.30	41.05	-41.8	-45.4	12.5	7.17e-05	0	56	0	486539264	55	5388
2026-01-09 00:13:01.87	351.28	41.99	-41.8	-45.5	12.5	1.14e-04	0	56	0	493879296	55	5453
2026-01-09 00:13:05.91	350.20	42.95	-41.8	-45.4	12.5	6.94e-05	0	56	0	502267904	55	5402
2026-01-09 00:13:09.95	349.05	43.92	-41.3	-44.5	13.6	9.10e-06	0	56	0	509607936	54	5111
2026-01-09 00:13:13.99	347.82	44.90	-41.4	-44.7	13.4	8.30e-06	0	56	0	516947968	54	5222
2026-01-09 00:13:18.02	346.52	45.89	-41.2	-44.3	13.8	3.80e-06	0	56	0	524288000	54	5014
2026-01-09 00:13:22.06	345.14	46.89	-41.5	-44.8	13.2	2.59e-05	0	56	0	531628032	54	5297
2026-01-09 00:13:26.10	343.66	47.89	-41.6	-45.0	13.0	3.58e-05	0	56	0	540016640	54	5422
2026-01-09 00:13:30.13	342.08	48.89	-41.1	-44.2	13.8	6.80e-06	0	56	0	547356672	54	4973
2026-01-09 00:13:34.17	340.39	49.89	-41.1	-44.1	13.9	4.50e-06	0	56	0	554696704	53	5184
2026-01-09 00:13:38.20	338.59	50.88	-41.1	-44.1	14.0	0.00e+00	0	56	0	562036736	53	5184
2026-01-09 00:13:42.24	336.67	51.86	-40.1	-42.5	15.6	0.00e+00	0	57	0	569376768	52	4591
2026-01-09 00:13:46.28	334.61	52.83	-39.6	-41.8	16.4	0.00e+00	0	56	0	577765376	50	4750
2026-01-09 00:13:50.32	332.41	53.77	-39.6	-41.8	16.4	0.00e+00	0	57	0	585105408	50	4721
2026-01-09 00:13:54.35	330.08	54.68	-39.6	-41.8	16.4	0.00e+00	0	57	0	592445440	50	4708
2026-01-09 00:13:58.39	327.58	55.56	-40.6	-43.3	14.8	0.00e+00	0	57	0	599785472	51	5326
2026-01-09 00:14:02.42	324.93	56.40	-41.1	-44.2	13.8	8.30e-06	0	56	0	608174080	53	5237
2026-01-09 00:14:06.46	322.12	57.18	-41.0	-44.0	14.0	5.30e-06	0	57	0	615514112	53	5150
2026-01-09 00:14:10.49	319.15	57.91	-41.4	-44.7	13.3	2.28e-05	0	56	0	622854144	53	5546
2026-01-09 00:14:14.53	316.02	58.56	-41.0	-44.1	13.9	3.80e-06	0	57	0	630194176	53	5167
2026-01-09 00:14:18.57	312.73	59.14	-41.2	-44.3	13.7	1.37e-05	0	57	0	637534208	53	5322
2026-01-09 00:14:22.61	309.31	59.63	-40.6	-43.5	14.5	7.00e-07	0	57	0	645922816	53	4819
2026-01-09 00:14:26.64	305.78	60.03	-40.2	-42.7	15.3	0.00e+00	0	56	0	653262848	51	4958
2026-01-09 00:14:30.68	302.14	60.33	-40.0	-42.5	15.5	0.00e+00	0	56	0	660602880	51	4837
2026-01-09 00:14:34.72	298.42	60.53	-39.7	-42.0	16.1	0.00e+00	0	56	0	667942912	51	4576
2026-01-09 00:14:38.75	294.68	60.62	-38.9	-40.9	17.1	0.00e+00	0	56	0	676331520	49	4541
2026-01-09 00:14:42.79	290.91	60.60	-38.4	-40.3	17.7	0.00e+00	0	56	0	683671552	48	4471
2026-01-09 00:14:46.82	287.18	60.47	-38.3	-40.2	17.8	0.00e+00	0	56	0	691011584	48	4410
2026-01-09 00:14:50.86	283.49	60.23	-38.3	-40.1	17.9	0.00e+00	0	56	0	698351616	48	4385
2026-01-09 00:14:54.90	279.88	59.89	-38.8	-40.8	17.3	0.00e+00	0	57	0	705691648	48	4710
2026-01-09 00:14:58.94	276.38	59.45	-39.5	-41.8	16.3	0.00e+00	0	57	0	714080256	49	5020
2026-01-09 00:15:02.97	273.02	58.92	-40.0	-42.4	15.7	0.00e+00	0	56	0	721420288	50	5053
2026-01-09 00:15:07.01	269.79	58.31	-40.4	-43.0	15.0	0.00e+00	0	57	0	728760320	51	5145
2026-01-09 00:15:11.05	266.71	57.62	-40.5	-43.3	14.6	0.00e+00	0	56	0	736100352	52	5010
2026-01-09 00:15:15.08	263.80	56.88	-40.3	-43.0	15.0	0.00e+00	0	57	0	743440384	52	4817
2026-01-09 00:15:19.12	261.04	56.07	-40.0	-42.5	15.5	0.00e+00	0	57	0	751828992	51	4849
2026-01-09 00:15:23.16	258.45	55.21	-39.1	-41.2	16.8	0.00e+00	0	56	0	759169024	50	4418
2026-01-09 00:15:27.20	256.01	54.31	-39.4	-41.5	16.5	0.00e+00	0	57	0	766509056	50	4588
2026-01-09 00:15:31.23	253.72	53.39	-39.5	-41.7	16.3	0.00e+00	0	57	0	773849088	50	4705
2026-01-09 00:15:35.27	251.58	52.43	-40.5	-43.2	14.9	0.00e+00	0	57	0	782237696	51	5226
2026-01-09 00:15:39.31	249.57	51.45	-40.6	-43.4	14.5	7.00e-07	0	57	0	789577728	52	5081
2026-01-09 00:15:43.35	247.69	50.46	-41.1	-44.1	13.8	7.00e-07	0	57	0	796917760	52	5524
2026-01-09 00:15:47.39	245.93	49.46	-42.3	-46.4	11.5	9.43e-04	0	57	0	804257792	55	6034
2026-01-09 00:15:51.42	244.29	48.46	-41.6	-45.1	12.8	8.54e-05	0	57	0	811597824	55	5190
2026-01-09 00:15:55.46	242.75	47.46	-42.6	-47.2	10.5	3.80e-03	0	57	0	819986432	55	6638
2026-01-09 00:15:59.50	241.30	46.45	-41.6	-45.2	12.7	1.23e-04	0	57	0	827326464	55	5226
2026-01-09 00:16:03.54	239.94	45.45	-41.5	-45.0	13.0	2.28e-05	0	57	0	834666496	54	5408
2026-01-09 00:16:07.57	238.67	44.47	-41.1	-44.2	13.7	1.14e-05	0	57	0	842006528	54	4959
2026-01-09 00:16:11.61	237.48	43.49	-41.4	-44.6	13.2	2.82e-05	0	57	0	850395136	54	5217
2026-01-09 00:16:15.65	236.35	42.52	-41.3	-44.5	13.3	1.90e-05	0	57	0	857735168	54	5131
2026-01-09 00:16:19.68	235.30	41.56	-41.3	-44.6	13.3	1.98e-05	0	57	0	865075200	54	5179
2026-01-09 00:16:23.72	234.30	40.62	-41.9	-45.7	12.1	2.59e-04	0	57	0	872415232	54	5901
2026-01-09 00:16:27.76	233.36	39.69	-42.2	-46.3	11.5	8.11e-04	0	57	0	879755264	55	5973
2026-01-09 00:16:31.80	232.47	38.78	-42.2	-46.3	11.4	1.02e-03	0	57	0	888143872	55	5990
2026-01-09 00:16:35.83	231.63	37.89	-42.1	-46.2	11.6	1.03e-03	0	57	0	895483904	55	5869
2026-01-09 00:16:39.87	230.83	37.01	-41.9	-45.7	12.1	2.45e-04	0	57	0	902823936	55	5561
2026-01-09 00:16:43.90	230.08	36.15	-41.7	-45.3	12.5	1.44e-04	0	57	0	910163968	55	5314
2026-01-09 00:16:47.94	229.36	35.30	-42.0	-45.9	11.9	3.72e-04	0	57	0	918552576	55	5698
2026-01-09 00:16:51.98	228.68	34.48	-41.9	-45.8	12.0	3.03e-04	0	57	0	925892608	55	5641
2026-01-09 00:16:56.02	228.04	33.67	-42.1	-46.1	11.6	4.05e-04	0	57	0	933232640	55	5822
2026-01-09 00:17:00.06	227.42	32.87	-42.3	-46.7	11.0	1.58e-03	0	57	0	940572672	55	6262
2026-01-09 00:17:04.09	226.84	32.10	-41.8	-45.6	12.2	3.12e-04	0	57	0	947912704	55	5480
2026-01-09 00:17:08.13	226.28	31.34	-41.4	-44.8	13.0	3.35e-05	0	57	0	956301312	54	5305
2026-01-09 00:17:12.17	225.75	30.59	-41.5	-45.0	12.8	5.56e-05	0	57	0	963641344	54	5440
2026-01-09 00:17:16.20	225.24	29.87	-41.8	-45.5	12.2	1.65e-04	0	57	0	970981376	54	5761
2026-01-09 00:17:20.24	224.76	29.16	-41.8	-45.5	12.3	2.08e-04	0	57	0	978321408	54	5752
2026-01-09 00:17:24.28	224.30	28.46	-41.4	-44.8	13.0	4.34e-05	0	57	0	986710016	54	5325
2026-01-09 00:17:28.31	223.85	27.78	-41.3	-44.6	13.2	1.83e-05	0	57	0	994050048	54	5177
2026-01-09 00:17:32.35	223.43	27.11	-41.1	-44.3	13.4	9.90e-06	0	57	0	1001390080	54	5022
2026-01-09 00:17:36.39	223.02	26.46	-41.0	-44.1	13.6	4.50e-06	0	57	0	1008730112	53	5194
2026-01-09 00:17:40.43	222.63	25.82	-40.7	-43.7	14.1	2.20e-06	0	57	0	1016070144	53	4932
2026-01-09 00:17:44.47	222.25	25.19	-40.8	-43.8	13.9	1.50e-06	0	57	0	1024458752	53	5024
2026-01-09 00:17:48.50	221.89	24.58	-40.9	-43.9	13.8	4.50e-06	0	57	0	1031798784	53	5091
2026-01-09 00:17:52.54	221.55	23.98	-40.9	-44.1	13.7	7.60e-06	0	57	0	1039138816	53	5163
2026-01-09 00:17:56.57	221.22	23.40	-40.8	-43.8	13.9	2.20e-06	0	57	0	1046478848	53	5003
2026-01-09 00:18:00.61	220.89	22.82	-40.7	-43.7	14.0	3.80e-06	0	57	0	1054867456	53	4972
2026-01-09 00:18:04.65	220.59	22.26	-40.9	-43.9	13.7	6.80e-06	0	57	0	1062207488	53	5099
2026-01-09 00:18:08.68	220.29	21.71	-40.7	-43.8	13.9	3.80e-06	0	57	0	1069547520	53	4987
2026-01-09 00:18:12.72	220.00	21.16	-40.5	-43.3	14.3	1.50e-06	0	57	0	1076887552	52	5026
2026-01-09 00:18:16.76	219.72	20.63	-40.3	-43.0	14.7	0.00e+00	0	57	0	1084227584	52	4840
2026-01-09 00:18:20.80	219.46	20.11	-40.4	-43.2	14.4	0.00e+00	0	57	0	1092616192	52	4964
2026-01-09 00:18:24.83	219.20	19.60	-40.5	-43.5	14.2	2.20e-06	0	57	0	1099956224	52	5114
2026-01-09 00:18:28.87	218.95	19.10	-40.5	-43.4	14.2	7.00e-07	0	57	0	1107296256	52	5061
2026-01-09 00:18:32.91	218.71	18.61	-40.4	-43.2	14.4	0.00e+00	0	57	0	1114636288	52	4967
2026-01-09 00:18:36.95	218.48	18.13	-40.4	-43.2	14.4	0.00e+00	0	57	0	1121976320	52	4970
2026-01-09 00:18:40.98	218.25	17.66	-40.4	-43.2	14.4	0.00e+00	0	57	0	1130364928	52	4956
2026-01-09 00:18:45.02	218.03	17.19	-40.5	-43.5	14.1	3.00e-06	0	57	0	1137704960	52	5131
2026-01-09 00:18:49.06	217.82	16.73	-40.7	-43.7	13.8	2.20e-06	0	57	0	1145044992	52	5267
2026-01-09 00:18:53.10	217.62	16.29	-40.8	-44.0	13.5	1.06e-05	0	57	0	1152385024	52	5463
2026-01-09 00:18:57.14	217.42	15.84	-40.8	-43.9	13.5	6.80e-06	0	57	0	1160773632	52	5400
2026-01-09 00:19:01.17	217.22	15.41	-40.7	-43.9	13.6	6.10e-06	0	57	0	1168113664	52	5369
2026-01-09 00:19:05.21	217.04	14.99	-40.8	-44.0	13.5	1.29e-05	0	57	0	1175453696	52	5415
2026-01-09 00:19:09.24	216.86	14.57	-40.8	-44.1	13.4	1.52e-05	0	57	0	1182793728	52	5494
2026-01-09 00:19:13.28	216.68	14.15	-40.9	-44.2	13.2	3.05e-05	0	57	0	1190133760	52	5587
2026-01-09 00:19:17.31	216.51	13.75	-41.0	-44.5	12.9	4.19e-05	0	57	0	1198522368	52	5739
2026-01-09 00:19:21.35	216.34	13.35	-41.0	-44.5	12.9	5.34e-05	0	57	0	1205862400	53	5405
2026-01-09 00:19:25.39	216.18	12.96	-40.9	-44.4	13.0	3.81e-05	0	57	0	1213202432	53	5343
2026-01-09 00:19:29.42	216.02	12.57	-40.9	-44.4	12.9	7.70e-05	0	57	0	1220542464	53	5350
2026-01-09 00:19:33.46	215.87	12.19	-40.8	-44.2	13.0	3.73e-05	0	57	0	1228931072	53	5271
2026-01-09 00:19:37.50	215.72	11.81	-40.9	-44.4	12.9	4.50e-05	0	57	0	1236271104	53	5356
2026-01-09 00:19:41.54	215.58	11.44	-41.0	-44.5	12.7	7.55e-05	0	57	0	1243611136	53	5420
2026-01-09 00:19:45.58	215.44	11.08	-41.1	-44.8	12.4	1.25e-04	0	57	0	1250951168	53	5629
2026-01-09 00:19:49.62	215.30	10.72	-41.3	-45.1	12.0	2.82e-04	0	57	0	1258291200	53	5837
2026-01-09 00:19:53.65	215.17	10.36	-41.3	-45.4	11.6	5.48e-04	0	57	0	1266679808	53	6034
2026-01-09 00:19:57.69	215.04	10.01	-41.4	-45.5	11.5	7.50e-04	0	57	0	1274019840	53	6084
2026-01-09 00:20:01.73	214.91	9.67	-41.3	-45.6	11.3	1.19e-03	0	57	0	1281359872	53	6202
2026-01-09 00:20:05.77	214.79	9.33	-40.8	-45.7	11.1	1.71e-03	0	57	0	1288699904	53	6244
2026-01-09 00:20:09.80	214.66	8.99	-40.9	-45.8	10.9	2.29e-03	0	57	0	1297088512	53	6305
2026-01-09 00:20:13.84	214.55	8.66	-41.4	-46.1	10.7	2.86e-03	0	57	0	1304428544	53	6496
2026-01-09 00:20:17.88	214.43	8.33	-41.5	-45.9	10.9	2.88e-03	0	57	0	1311768576	53	6406
2026-01-09 00:20:21.92	214.32	8.01	-41.5	-46.2	10.6	2.87e-03	0	57	0	1319108608	53	6582
2026-01-09 00:20:25.96	214.21	7.69	-44.7	-59.2	3.8	1.49e+00	0	57	104	1321205760	60	19682
2026-01-09 00:20:30.00	214.10	7.37	-44.9	-59.4	3.8	1.49e+00	0	57	104	1321205760	60	20215
2026-01-09 00:20:34.04	214.00	7.06	-44.8	-59.3	3.8	1.49e+00	0	57	104	1321205760	60	20002
2026-01-09 00:20:38.08	213.90	6.75	-44.8	-59.3	3.8	1.49e+00	0	57	104	1321205760	60	19950
2026-01-09 00:20:42.13	213.80	6.45	-44.8	-59.2	3.8	1.49e+00	0	57	104	1321205760	60	19828
2026-01-09 00:20:46.16	213.70	6.15	-44.8	-59.3	3.8	1.49e+00	0	57	104	1321205760	60	19876
2026-01-09 00:20:50.21	213.60	5.85	-44.7	-59.3	3.8	1.49e+00	0	57	104	1321205760	60	19850
2026-01-09 00:20:54.25	213.51	5.56	-44.8	-59.2	3.8	1.49e+00	0	57	104	1321205760	60	19793
2026-01-09 00:20:58.28	213.42	5.27	-44.8	-59.2	3.8	1.49e+00	0	57	104	1321205760	60	19771
2026-01-09 00:21:02.33	213.33	4.98	-44.7	-59.2	3.8	1.49e+00	0	57	104	1321205760	60	19812
2026-01-09 00:21:06.37	213.24	4.69	-44.7	-59.2	3.8	1.49e+00	0	57	104	1321205760	60	19745
2026-01-09 00:21:10.41	213.16	4.41	-44.8	-59.2	3.8	1.49e+00	0	57	104	1321205760	60	19817
2026-01-09 00:21:14.45	213.07	4.13	-44.8	-59.2	3.8	1.49e+00	0	57	104	1321205760	60	19739
2026-01-09 00:21:18.49	212.99	3.85	-44.8	-59.2	3.8	1.49e+00	0	57	104	1321205760	60	19797
2026-01-09 00:21:22.54	212.91	3.58	-44.7	-59.2	3.8	1.49e+00	0	57	104	1321205760	60	19730
2026-01-09 00:21:26.57	212.83	3.31	-44.7	-59.2	3.8	1.49e+00	0	57	104	1321205760	60	19768
2026-01-09 00:21:30.62	212.76	3.04	-44.7	-59.2	3.8	1.49e+00	0	57	104	1321205760	60	19709
2026-01-09 00:21:34.66	212.68	2.77	-44.7	-59.2	3.8	1.49e+00	0	57	104	1321205760	60	19653
2026-01-09 00:21:38.70	212.61	2.51	-44.7	-59.2	3.8	1.49e+00	0	57	104	1321205760	60	19671
2026-01-09 00:21:42.74	212.54	2.25	-44.7	-59.2	3.8	1.49e+00	0	57	104	1321205760	60	19698
2026-01-09 00:21:46.79	212.46	1.99	-44.7	-59.2	3.8	1.49e+00	0	57	104	1321205760	60	19673

#Closed at: 2026-01-09 00:21:48
#Recorded file [1321 MB]: D:/lorett/data/31039_260109_030730.dat