passes_logs/2026/01/09/R2.0S_Moscow/R2.0S_Moscow__20260109_041311_FENGYUN_3E_rec.log

#Pass ID: 20260109_041311_FENGYUN 3E
#Satellite: FENGYUN 3E
#Configuration: FENGYUN 3E
#almurnet v.1.7.20251203
#Start time: 2026-01-09 04:13:12

#Version: 2.2.20231116
#Station: R2.0S_Moscow
#Location: 37.707566 lon 55.798166 lat
#TLE: 1 49008U 21062A   26008.52265380 -.00000112  00000+0 -32190-4 0  9993
#TLE: 2 49008  98.7483  13.7266 0001697 149.3310 210.7966 14.19883994233927

#Time	Az	El	Level	Level2	SNR	BER	BlckErr	Temp	State	Recorded	gain1	gain2
2026-01-09 04:13:12.04	14.97	2.06	-43.6	-54.7	3.8	8.45e-01	0	47	0	0	58	12465
2026-01-09 04:13:16.08	14.94	2.32	-43.6	-54.7	3.8	8.46e-01	0	48	104	0	58	12502
2026-01-09 04:13:20.12	14.91	2.58	-43.5	-54.7	3.8	8.46e-01	0	48	104	0	58	12442
2026-01-09 04:13:24.16	14.87	2.84	-43.6	-54.7	3.8	8.47e-01	0	48	104	0	58	12449
2026-01-09 04:13:28.21	14.84	3.11	-43.5	-54.7	3.8	8.46e-01	0	49	104	0	58	12398
2026-01-09 04:13:32.25	14.80	3.38	-43.6	-54.7	3.8	8.45e-01	0	49	104	0	58	12452
2026-01-09 04:13:36.29	14.76	3.65	-43.5	-54.7	3.8	8.47e-01	0	49	104	0	58	12433
2026-01-09 04:13:40.33	14.72	3.92	-43.5	-54.7	3.8	8.45e-01	0	50	104	0	58	12449
2026-01-09 04:13:44.37	14.68	4.20	-43.5	-54.7	3.8	8.46e-01	0	50	104	0	58	12394
2026-01-09 04:13:48.41	14.64	4.48	-43.6	-54.7	3.8	8.46e-01	0	50	104	0	58	12434
2026-01-09 04:13:52.45	14.60	4.76	-43.5	-54.6	3.8	8.46e-01	0	51	104	0	58	12334
2026-01-09 04:13:56.49	14.56	5.05	-43.5	-54.4	3.8	8.47e-01	0	51	104	0	58	12021
2026-01-09 04:14:00.53	14.51	5.34	-43.4	-53.9	3.8	8.48e-01	0	51	104	0	57	11982
2026-01-09 04:14:04.57	14.47	5.63	-43.5	-54.0	3.8	8.46e-01	0	51	104	0	57	12199
2026-01-09 04:14:08.61	14.42	5.92	-43.5	-53.9	3.8	8.44e-01	0	51	104	0	57	12088
2026-01-09 04:14:12.66	14.37	6.22	-43.4	-53.6	3.8	8.46e-01	0	52	104	0	57	11556
2026-01-09 04:14:16.70	14.32	6.52	-42.1	-47.7	5.8	7.14e-01	0	52	0	0	55	6633
2026-01-09 04:14:20.74	14.27	6.83	-40.4	-43.7	9.7	1.68e-02	0	52	0	29360128	51	5237
2026-01-09 04:14:24.78	14.22	7.14	-37.8	-39.8	13.6	1.02e-05	0	52	0	57671680	46	4466
2026-01-09 04:14:28.82	14.17	7.45	-37.3	-39.2	14.2	1.10e-06	0	52	0	87031808	44	4656
2026-01-09 04:14:32.86	14.11	7.77	-37.5	-39.3	14.1	1.10e-06	0	53	0	116391936	44	4746
2026-01-09 04:14:36.91	14.05	8.09	-36.9	-38.6	15.1	2.20e-06	0	53	0	145752064	44	4356
2026-01-09 04:14:40.94	13.99	8.41	-40.6	-43.9	9.5	2.92e-04	0	53	0	168820736	50	5673
2026-01-09 04:14:44.98	13.93	8.74	-36.2	-37.7	15.9	0.00e+00	0	53	0	198180864	42	4417
2026-01-09 04:14:49.01	13.87	9.07	-36.0	-37.5	16.3	0.00e+00	0	53	0	227540992	42	4296
2026-01-09 04:14:53.05	13.81	9.41	-36.1	-37.5	16.2	0.00e+00	0	53	0	256901120	42	4325
2026-01-09 04:14:57.09	13.74	9.75	-36.0	-37.4	16.4	0.00e+00	0	54	0	286261248	42	4253
2026-01-09 04:15:01.13	13.67	10.10	-35.9	-37.3	16.5	0.00e+00	0	54	0	314572800	42	4221
2026-01-09 04:15:05.17	13.60	10.45	-35.8	-37.2	16.6	0.00e+00	0	54	0	343932928	42	4165
2026-01-09 04:15:09.20	13.53	10.81	-35.8	-37.1	16.7	0.00e+00	0	54	0	373293056	42	4140
2026-01-09 04:15:13.24	13.46	11.17	-35.8	-37.1	16.8	0.00e+00	0	54	0	402653184	42	4126
2026-01-09 04:15:17.28	13.38	11.54	-35.7	-37.0	17.0	0.00e+00	0	54	0	432013312	42	4070
2026-01-09 04:15:21.32	13.30	11.91	-35.5	-36.9	17.0	0.00e+00	0	54	0	461373440	41	4247
2026-01-09 04:15:25.35	13.22	12.29	-35.3	-36.6	17.3	0.00e+00	0	54	0	489684992	41	4120
2026-01-09 04:15:29.39	13.14	12.68	-35.2	-36.5	17.5	0.00e+00	0	54	0	519045120	41	4061
2026-01-09 04:15:33.43	13.05	13.07	-35.2	-36.5	17.6	0.00e+00	0	55	0	548405248	41	4063
2026-01-09 04:15:37.47	12.96	13.46	-35.2	-36.5	17.6	0.00e+00	0	55	0	577765376	41	4057
2026-01-09 04:15:41.51	12.87	13.87	-35.1	-36.3	17.9	0.00e+00	0	55	0	607125504	41	3993
2026-01-09 04:15:45.55	12.77	14.28	-34.9	-36.1	18.1	0.00e+00	0	54	0	636485632	40	4111
2026-01-09 04:15:49.58	12.68	14.70	-35.0	-36.1	18.0	0.00e+00	0	55	0	664797184	40	4144
2026-01-09 04:15:53.62	12.57	15.12	-34.8	-36.0	18.2	0.00e+00	0	55	0	694157312	40	4085
2026-01-09 04:15:57.66	12.47	15.55	-34.6	-35.8	18.5	0.00e+00	0	55	0	723517440	40	3973
2026-01-09 04:16:01.70	12.36	15.99	-34.7	-35.8	18.6	0.00e+00	0	55	0	752877568	39	4227
2026-01-09 04:16:05.74	12.25	16.44	-34.4	-35.5	18.9	0.00e+00	0	55	0	781189120	39	4059
2026-01-09 04:16:09.77	12.13	16.90	-34.3	-35.4	19.1	0.00e+00	0	55	0	810549248	39	4008
2026-01-09 04:16:13.81	12.01	17.36	-34.2	-35.3	19.1	0.00e+00	0	55	0	839909376	39	3993
2026-01-09 04:16:17.85	11.89	17.83	-34.1	-35.1	19.3	0.00e+00	0	55	0	869269504	39	3899
2026-01-09 04:16:21.88	11.76	18.32	-34.0	-35.0	19.4	0.00e+00	0	55	0	897581056	38	4094
2026-01-09 04:16:25.92	11.62	18.81	-33.9	-35.0	19.5	0.00e+00	0	56	0	926941184	38	4054
2026-01-09 04:16:29.96	11.48	19.31	-33.8	-34.9	19.6	0.00e+00	0	55	0	956301312	38	4008
2026-01-09 04:16:34.00	11.34	19.82	-33.8	-34.9	19.7	0.00e+00	0	55	0	985661440	38	4012
2026-01-09 04:16:38.04	11.19	20.35	-33.9	-34.9	19.6	0.00e+00	0	55	0	1015021568	38	4046
2026-01-09 04:16:42.07	11.03	20.88	-33.7	-34.7	19.9	0.00e+00	0	55	0	1043333120	38	3937
2026-01-09 04:16:46.11	10.87	21.42	-33.7	-34.7	19.9	0.00e+00	0	56	0	1072693248	38	3930
2026-01-09 04:16:50.15	10.70	21.98	-33.6	-34.7	19.9	0.00e+00	0	56	0	1102053376	38	3923
2026-01-09 04:16:54.19	10.53	22.55	-33.7	-34.7	19.9	0.00e+00	0	56	0	1131413504	38	3935
2026-01-09 04:16:58.23	10.35	23.13	-33.5	-34.5	20.1	0.00e+00	0	56	0	1160773632	38	3865
2026-01-09 04:17:02.26	10.16	23.72	-33.6	-34.6	20.0	0.00e+00	0	56	0	1190133760	37	4116
2026-01-09 04:17:06.30	9.96	24.33	-33.5	-34.6	20.0	0.00e+00	0	56	0	1218445312	37	4104
2026-01-09 04:17:10.34	9.75	24.96	-33.5	-34.5	20.1	0.00e+00	0	56	0	1247805440	37	4080
2026-01-09 04:17:14.38	9.54	25.59	-33.4	-34.4	20.2	0.00e+00	0	56	0	1277165568	37	4027
2026-01-09 04:17:18.41	9.32	26.24	-33.2	-34.2	20.4	0.00e+00	0	56	0	1306525696	37	3932
2026-01-09 04:17:22.45	9.08	26.91	-33.1	-34.1	20.5	0.00e+00	0	56	0	1335885824	37	3892
2026-01-09 04:17:26.49	8.83	27.60	-32.9	-33.8	20.8	0.00e+00	0	56	0	1364197376	36	4002
2026-01-09 04:17:30.53	8.58	28.30	-32.8	-33.7	20.9	0.00e+00	0	56	0	1393557504	36	3947
2026-01-09 04:17:34.57	8.31	29.02	-32.7	-33.7	20.9	0.00e+00	0	56	0	1422917632	36	3920
2026-01-09 04:17:38.60	8.03	29.75	-32.6	-33.6	21.0	0.00e+00	0	56	0	1452277760	36	3889
2026-01-09 04:17:42.64	7.73	30.51	-32.7	-33.7	21.0	0.00e+00	0	56	0	1480589312	36	3922
2026-01-09 04:17:46.68	7.42	31.28	-32.8	-33.8	20.9	0.00e+00	0	56	0	1509949440	36	3968
2026-01-09 04:17:50.72	7.09	32.08	-33.0	-34.0	20.7	0.00e+00	0	56	0	1539309568	36	4073
2026-01-09 04:17:54.76	6.74	32.90	-32.9	-33.9	20.8	0.00e+00	0	56	0	1568669696	36	4043
2026-01-09 04:17:58.80	6.38	33.73	-32.8	-33.8	20.9	0.00e+00	0	56	0	1598029824	36	3975
2026-01-09 04:18:02.84	5.99	34.59	-32.7	-33.7	21.0	0.00e+00	0	56	0	1626341376	36	3928
2026-01-09 04:18:06.88	5.59	35.48	-32.6	-33.5	21.1	0.00e+00	0	56	0	1655701504	36	3864
2026-01-09 04:18:10.91	5.16	36.38	-32.8	-33.8	20.9	0.00e+00	0	56	0	1685061632	36	3974
2026-01-09 04:18:14.96	4.70	37.31	-32.9	-33.8	20.9	0.00e+00	0	56	0	1714421760	36	3997
2026-01-09 04:18:18.99	4.22	38.27	-33.2	-34.2	20.5	0.00e+00	0	57	0	1743781888	36	4167
2026-01-09 04:18:23.03	3.70	39.25	-33.2	-34.2	20.6	0.00e+00	0	56	0	1772093440	36	4146
2026-01-09 04:18:27.06	3.16	40.25	-33.1	-34.0	20.7	0.00e+00	0	56	0	1801453568	36	4093
2026-01-09 04:18:31.10	2.57	41.28	-33.0	-33.9	20.8	0.00e+00	0	56	0	1830813696	36	4044
2026-01-09 04:18:35.14	1.95	42.34	-33.1	-34.1	20.7	0.00e+00	0	56	0	1860173824	36	4109
2026-01-09 04:18:39.18	1.28	43.43	-33.1	-34.0	20.7	0.00e+00	0	56	0	1889533952	36	4089
2026-01-09 04:18:43.21	0.56	44.53	-32.9	-33.9	20.9	0.00e+00	0	56	0	1918894080	36	4005
2026-01-09 04:18:47.25	359.79	45.67	-33.5	-34.4	20.3	0.00e+00	0	56	0	1947205632	36	4286
2026-01-09 04:18:51.29	358.96	46.84	-34.1	-35.2	19.6	0.00e+00	0	57	0	1976565760	37	4393
2026-01-09 04:18:55.33	358.07	48.03	-33.8	-34.9	19.1	0.00e+00	0	57	0	2005925888	37	4257
2026-01-09 04:18:59.37	357.10	49.25	-34.2	-35.3	18.9	0.00e+00	0	57	0	2035286016	38	4199
2026-01-09 04:19:03.41	356.05	50.49	-34.4	-35.5	18.8	0.00e+00	0	57	0	2064646144	38	4326
2026-01-09 04:19:07.45	354.90	51.75	-34.7	-35.8	19.0	0.00e+00	0	57	0	2092957696	39	4222
2026-01-09 04:19:11.48	353.66	53.04	-34.1	-35.2	19.7	0.00e+00	0	57	0	2122317824	38	4162
2026-01-09 04:19:15.52	352.29	54.34	-33.6	-34.5	20.2	0.00e+00	0	57	0	2151677952	38	3858
2026-01-09 04:19:19.56	350.79	55.66	-34.5	-35.5	19.3	0.00e+00	0	57	0	2181038080	39	4092
2026-01-09 04:19:23.61	349.14	56.99	-34.9	-36.0	18.9	0.00e+00	0	57	0	2210398208	39	4292
2026-01-09 04:19:27.64	347.33	58.33	-34.6	-35.7	19.2	0.00e+00	0	57	0	2238709760	39	4149
2026-01-09 04:19:31.68	345.32	59.66	-34.3	-35.4	19.5	0.00e+00	0	57	0	2268069888	38	4243
2026-01-09 04:19:35.72	343.09	60.99	-33.8	-34.8	19.7	0.00e+00	0	57	0	2297430016	38	3978
2026-01-09 04:19:39.76	340.61	62.31	-33.6	-34.6	20.3	0.00e+00	0	57	0	2326790144	37	4100
2026-01-09 04:19:43.79	337.86	63.59	-33.2	-34.2	20.5	0.00e+00	0	57	0	2355101696	37	3926
2026-01-09 04:19:47.83	334.78	64.84	-33.2	-34.2	20.5	0.00e+00	0	57	0	2384461824	37	3926
2026-01-09 04:19:51.87	331.35	66.04	-31.4	-32.3	21.5	0.00e+00	0	57	0	2413821952	33	3999
2026-01-09 04:19:55.91	327.53	67.17	-31.9	-32.9	21.0	0.00e+00	0	57	0	2443182080	33	4257
2026-01-09 04:19:59.95	323.29	68.20	-32.1	-33.1	20.8	0.00e+00	0	57	0	2472542208	34	4108
2026-01-09 04:20:03.98	318.62	69.12	-32.2	-33.2	20.7	0.00e+00	0	57	0	2500853760	34	4154
2026-01-09 04:20:08.02	313.51	69.92	-32.4	-33.4	20.5	0.00e+00	0	57	0	2530213888	34	4277
2026-01-09 04:20:12.06	307.99	70.55	-32.2	-33.2	20.7	0.00e+00	0	57	0	2559574016	34	4160
2026-01-09 04:20:16.10	302.14	71.01	-32.4	-33.3	20.5	0.00e+00	0	57	0	2588934144	35	3986
2026-01-09 04:20:20.14	296.04	71.27	-32.2	-33.2	20.7	0.00e+00	0	57	0	2618294272	34	4152
2026-01-09 04:20:24.18	289.82	71.33	-32.2	-33.2	20.7	0.00e+00	0	57	0	2646605824	34	4150
2026-01-09 04:20:28.22	283.65	71.18	-32.7	-33.8	20.1	0.00e+00	0	57	0	2675965952	35	4195
2026-01-09 04:20:32.26	277.64	70.82	-32.4	-33.4	20.5	0.00e+00	0	57	0	2705326080	35	4021
2026-01-09 04:20:36.30	271.92	70.28	-32.8	-33.8	20.1	0.00e+00	0	57	0	2734686208	35	4201
2026-01-09 04:20:40.34	266.58	69.58	-32.5	-33.5	20.4	0.00e+00	0	57	0	2764046336	35	4065
2026-01-09 04:20:44.38	261.66	68.72	-32.5	-33.5	20.2	0.00e+00	0	57	0	2793406464	35	4067
2026-01-09 04:20:48.41	257.18	67.74	-32.3	-33.3	20.5	1.10e-06	0	57	0	2821718016	35	3959
2026-01-09 04:20:52.45	253.13	66.66	-32.3	-33.3	20.6	0.00e+00	0	57	0	2851078144	35	3961
2026-01-09 04:20:56.49	249.48	65.50	-32.1	-33.1	20.8	0.00e+00	0	57	0	2880438272	35	3879
2026-01-09 04:21:00.53	246.21	64.27	-32.2	-33.2	20.7	0.00e+00	0	57	0	2909798400	35	3937
2026-01-09 04:21:04.57	243.28	63.00	-32.6	-33.5	20.4	0.00e+00	0	57	0	2939158528	35	4096
2026-01-09 04:21:08.60	240.65	61.70	-33.7	-34.7	19.9	1.10e-06	0	57	0	2967470080	37	4190
2026-01-09 04:21:12.64	238.29	60.37	-34.0	-35.1	19.7	0.00e+00	0	57	0	2996830208	37	4349
2026-01-09 04:21:16.68	236.16	59.03	-33.9	-34.9	19.9	0.00e+00	0	57	0	3026190336	38	4011
2026-01-09 04:21:20.72	234.23	57.69	-34.6	-35.8	19.1	0.00e+00	0	57	0	3055550464	39	4200
2026-01-09 04:21:24.75	232.50	56.35	-34.0	-35.0	19.8	0.00e+00	0	57	0	3084910592	38	4068
2026-01-09 04:21:28.79	230.92	55.02	-33.8	-34.8	20.0	0.00e+00	0	57	0	3113222144	38	3985
2026-01-09 04:21:32.83	229.48	53.71	-34.3	-35.4	19.4	0.00e+00	0	58	0	3142582272	38	4275
2026-01-09 04:21:36.87	228.17	52.41	-33.8	-34.8	20.0	0.00e+00	0	57	0	3171942400	38	3971
2026-01-09 04:21:40.91	226.97	51.12	-34.0	-35.1	19.7	0.00e+00	0	57	0	3201302528	38	4105
2026-01-09 04:21:44.95	225.86	49.87	-33.3	-34.2	20.5	0.00e+00	0	57	0	3230662656	37	3953
2026-01-09 04:21:48.98	224.85	48.63	-33.8	-34.8	19.9	0.00e+00	0	57	0	3258974208	37	4239
2026-01-09 04:21:53.02	223.91	47.42	-33.4	-34.4	20.3	0.00e+00	0	57	0	3288334336	37	4039
2026-01-09 04:21:57.06	223.05	46.24	-33.2	-34.1	20.6	0.00e+00	0	57	0	3317694464	37	3905
2026-01-09 04:22:01.10	222.24	45.08	-33.5	-34.5	20.3	0.00e+00	0	57	0	3347054592	37	4059
2026-01-09 04:22:05.14	221.49	43.95	-32.6	-33.5	21.2	0.00e+00	0	57	0	3375366144	36	3856
2026-01-09 04:22:09.17	220.80	42.85	-32.2	-33.2	20.7	0.00e+00	0	57	0	3404726272	34	4163
2026-01-09 04:22:13.21	220.15	41.77	-32.0	-32.9	20.6	0.00e+00	0	57	0	3434086400	34	4042
2026-01-09 04:22:17.24	219.54	40.72	-31.9	-32.8	21.1	0.00e+00	0	58	0	3463446528	34	3995
2026-01-09 04:22:21.28	218.97	39.70	-32.0	-32.9	21.0	0.00e+00	0	57	0	3492806656	34	4025
2026-01-09 04:22:25.32	218.44	38.70	-32.0	-32.9	20.9	0.00e+00	0	57	0	3521118208	34	4048
2026-01-09 04:22:29.36	217.94	37.73	-32.1	-33.1	20.8	0.00e+00	0	57	0	3550478336	34	4112
2026-01-09 04:22:33.40	217.46	36.78	-31.9	-32.8	20.6	0.00e+00	0	57	0	3579838464	34	3980
2026-01-09 04:22:37.43	217.02	35.86	-31.4	-32.4	21.4	0.00e+00	0	57	0	3609198592	33	4010
2026-01-09 04:22:41.47	216.60	34.96	-31.6	-32.6	21.3	0.00e+00	0	57	0	3638558720	33	4114
2026-01-09 04:22:45.51	216.20	34.08	-31.9	-32.8	21.1	0.00e+00	0	58	0	3667918848	33	4233
2026-01-09 04:22:49.55	215.82	33.23	-31.7	-32.6	21.2	0.00e+00	0	57	0	3696230400	33	4120
2026-01-09 04:22:53.58	215.46	32.40	-31.5	-32.4	21.4	0.00e+00	0	57	0	3725590528	33	4033
2026-01-09 04:22:57.62	215.12	31.59	-31.5	-32.5	21.4	0.00e+00	0	58	0	3754950656	33	4063
2026-01-09 04:23:01.65	214.80	30.80	-31.4	-32.4	21.4	0.00e+00	0	57	0	3784310784	33	4020
2026-01-09 04:23:05.70	214.49	30.03	-31.4	-32.3	21.5	0.00e+00	0	57	0	3813670912	33	3996
2026-01-09 04:23:09.74	214.20	29.28	-31.5	-32.4	21.4	0.00e+00	0	57	0	3841982464	33	4028
2026-01-09 04:23:13.78	213.92	28.55	-31.6	-32.6	21.0	0.00e+00	0	57	0	3871342592	33	4100
2026-01-09 04:23:17.82	213.66	27.84	-31.7	-32.6	21.1	0.00e+00	0	57	0	3900702720	33	4130
2026-01-09 04:23:21.85	213.40	27.14	-32.0	-32.9	20.9	0.00e+00	0	57	0	3930062848	33	4274
2026-01-09 04:23:25.89	213.16	26.46	-32.1	-33.0	20.8	0.00e+00	0	57	0	3958374400	33	4337
2026-01-09 04:23:29.93	212.93	25.80	-32.1	-33.0	20.8	0.00e+00	0	57	0	3987734528	33	4340
2026-01-09 04:23:33.97	212.70	25.15	-31.9	-32.9	20.9	0.00e+00	0	57	0	4017094656	33	4264
2026-01-09 04:23:38.01	212.49	24.52	-31.9	-32.9	20.9	0.00e+00	0	57	0	4046454784	33	4248
2026-01-09 04:23:42.06	212.28	23.90	-32.0	-33.0	20.8	0.00e+00	0	57	0	4075814912	33	4300
2026-01-09 04:23:46.10	212.09	23.29	-32.2	-33.1	20.7	0.00e+00	0	57	0	4105175040	33	4376
2026-01-09 04:23:50.13	211.90	22.70	-32.3	-33.2	20.6	0.00e+00	0	57	0	4133486592	34	4181
2026-01-09 04:23:54.17	211.72	22.13	-32.3	-33.3	20.5	0.00e+00	0	57	0	4162846720	34	4199
2026-01-09 04:23:58.21	211.54	21.56	-32.4	-33.3	20.4	0.00e+00	0	57	0	4192206848	34	4237
2026-01-09 04:24:02.24	211.38	21.01	-32.4	-33.4	20.3	0.00e+00	0	57	0	4221566976	34	4275
2026-01-09 04:24:06.28	211.21	20.47	-32.5	-33.5	20.2	0.00e+00	0	57	0	4249878528	34	4314
2026-01-09 04:24:10.32	211.06	19.94	-32.8	-33.8	19.9	0.00e+00	0	57	0	4279238656	35	4229
2026-01-09 04:24:14.36	210.91	19.42	-33.0	-34.1	19.7	0.00e+00	0	57	0	4308598784	35	4347
2026-01-09 04:24:18.39	210.76	18.91	-33.9	-35.0	19.5	0.00e+00	0	57	0	4337958912	37	4310
2026-01-09 04:24:22.43	210.62	18.41	-34.1	-35.2	19.3	0.00e+00	0	57	0	4367319040	37	4419
2026-01-09 04:24:26.47	210.49	17.92	-34.1	-35.2	19.3	0.00e+00	0	57	0	4396679168	37	4431
2026-01-09 04:24:30.51	210.36	17.44	-34.1	-35.2	19.3	0.00e+00	0	58	0	4424990720	37	4398
2026-01-09 04:24:34.55	210.23	16.97	-34.1	-35.1	19.2	0.00e+00	0	58	0	4454350848	37	4391
2026-01-09 04:24:38.59	210.11	16.51	-34.0	-35.1	19.3	0.00e+00	0	57	0	4483710976	37	4365
2026-01-09 04:24:42.62	209.99	16.06	-34.0	-35.1	19.3	0.00e+00	0	57	0	4513071104	37	4351
2026-01-09 04:24:46.66	209.88	15.61	-34.1	-35.2	19.2	0.00e+00	0	57	0	4542431232	37	4404
2026-01-09 04:24:50.70	209.77	15.17	-34.3	-35.4	19.0	0.00e+00	0	57	0	4570742784	38	4270
2026-01-09 04:24:54.74	209.66	14.74	-34.5	-35.6	18.8	0.00e+00	0	57	0	4600102912	38	4360
2026-01-09 04:24:58.78	209.56	14.32	-34.6	-35.7	18.6	0.00e+00	0	57	0	4629463040	38	4434
2026-01-09 04:25:02.81	209.46	13.91	-34.8	-36.0	18.4	0.00e+00	0	57	0	4658823168	39	4292
2026-01-09 04:25:06.85	209.36	13.50	-35.0	-36.2	18.2	0.00e+00	0	58	0	4688183296	39	4396
2026-01-09 04:25:10.89	209.27	13.10	-35.1	-36.3	18.0	0.00e+00	0	58	0	4716494848	39	4457
2026-01-09 04:25:14.93	209.17	12.70	-35.3	-36.5	17.7	0.00e+00	0	58	0	4745854976	40	4321
2026-01-09 04:25:18.97	209.09	12.31	-35.4	-36.6	17.5	0.00e+00	0	57	0	4775215104	40	4383
2026-01-09 04:25:23.01	209.00	11.93	-35.4	-36.7	17.5	0.00e+00	0	58	0	4804575232	40	4415
2026-01-09 04:25:27.05	208.91	11.55	-35.5	-36.7	17.4	0.00e+00	0	58	0	4833935360	40	4435
2026-01-09 04:25:31.09	208.83	11.18	-35.7	-37.0	17.0	0.00e+00	0	57	0	4862246912	40	4561
2026-01-09 04:25:35.13	208.75	10.81	-35.6	-36.9	17.1	0.00e+00	0	58	0	4891607040	41	4258
2026-01-09 04:25:39.17	208.68	10.45	-35.6	-36.9	17.1	0.00e+00	0	57	0	4920967168	41	4279
2026-01-09 04:25:43.21	208.60	10.10	-35.7	-37.0	17.0	0.00e+00	0	58	0	4950327296	41	4322
2026-01-09 04:25:47.25	208.53	9.75	-35.8	-37.1	16.9	0.00e+00	0	57	0	4979687424	41	4354
2026-01-09 04:25:51.29	208.46	9.40	-35.9	-37.2	16.7	0.00e+00	0	58	0	5007998976	41	4424
2026-01-09 04:25:55.32	208.39	9.06	-36.0	-37.4	16.6	0.00e+00	0	57	0	5037359104	41	4495
2026-01-09 04:25:59.36	208.32	8.72	-36.1	-37.5	16.4	0.00e+00	0	58	0	5066719232	41	4547
2026-01-09 04:26:03.40	208.26	8.39	-36.4	-37.8	16.0	0.00e+00	0	58	0	5096079360	42	4472
2026-01-09 04:26:07.43	208.19	8.06	-36.2	-37.6	16.2	0.00e+00	0	58	0	5124390912	42	4391
2026-01-09 04:26:11.47	208.13	7.74	-45.2	-56.1	3.8	8.45e-01	0	57	104	5133828096	59	13831
2026-01-09 04:26:15.52	208.07	7.42	-45.4	-56.6	3.8	8.46e-01	0	58	104	5133828096	60	13772
2026-01-09 04:26:19.55	208.01	7.11	-45.3	-56.5	3.8	8.45e-01	0	58	104	5133828096	60	13570
2026-01-09 04:26:23.59	207.95	6.79	-45.3	-56.4	3.8	8.46e-01	0	58	104	5133828096	60	13480
2026-01-09 04:26:27.63	207.90	6.49	-45.2	-56.4	3.8	8.46e-01	0	58	104	5133828096	60	13456
2026-01-09 04:26:31.67	207.84	6.18	-45.2	-56.4	3.8	8.46e-01	0	58	104	5133828096	60	13471
2026-01-09 04:26:35.71	207.79	5.88	-45.2	-56.4	3.8	8.45e-01	0	58	104	5133828096	60	13430
2026-01-09 04:26:39.75	207.74	5.58	-45.2	-56.3	3.8	8.47e-01	0	58	104	5133828096	60	13402
2026-01-09 04:26:43.79	207.68	5.29	-45.2	-56.3	3.8	8.46e-01	0	58	104	5133828096	60	13376
2026-01-09 04:26:47.83	207.63	5.00	-45.2	-56.3	3.8	8.46e-01	0	58	104	5133828096	60	13339
2026-01-09 04:26:51.88	207.59	4.71	-45.1	-56.3	3.8	8.47e-01	0	58	104	5133828096	60	13360
2026-01-09 04:26:55.92	207.54	4.42	-45.1	-56.3	3.8	8.46e-01	0	58	104	5133828096	60	13347
2026-01-09 04:26:59.96	207.49	4.14	-45.1	-56.3	3.8	8.47e-01	0	58	104	5133828096	60	13331
2026-01-09 04:27:04.01	207.45	3.86	-45.1	-56.3	3.8	8.47e-01	0	57	104	5133828096	60	13358
2026-01-09 04:27:08.05	207.40	3.59	-45.1	-56.3	3.8	8.47e-01	0	58	104	5133828096	60	13353
2026-01-09 04:27:12.09	207.36	3.31	-45.1	-56.3	3.8	8.47e-01	0	58	104	5133828096	60	13315
2026-01-09 04:27:16.13	207.32	3.04	-45.1	-56.2	3.8	8.45e-01	0	58	104	5133828096	60	13260
2026-01-09 04:27:20.17	207.28	2.78	-45.1	-56.3	3.8	8.47e-01	0	58	104	5133828096	60	13303
2026-01-09 04:27:24.21	207.24	2.51	-45.1	-56.3	3.8	8.46e-01	0	58	104	5133828096	60	13264
2026-01-09 04:27:28.25	207.20	2.25	-45.1	-56.3	3.8	8.46e-01	0	58	104	5133828096	60	13303
2026-01-09 04:27:32.30	207.16	1.99	-45.1	-56.3	3.8	8.47e-01	0	58	104	5133828096	60	13299

#Closed at: 2026-01-09 04:27:33
#Recorded file [5133 MB]: D:/lorett/data/31039_260109_071311.dat