passes_logs/2026/01/09/R2.0S_Moscow/R2.0S_Moscow__20260109_111835_SUOMI_NPP_rec.log

#Pass ID: 20260109_111835_SUOMI NPP
#Satellite: SUOMI NPP
#Configuration: NPP
#almurnet v.1.7.20251203
#Start time: 2026-01-09 11:18:37

#Version: 2.2.20231116
#Station: R2.0S_Moscow
#Location: 37.707566 lon 55.798166 lat
#TLE: 1 37849U 11061A   26008.05542337  .00000108  00000+0  71976-4 0  9997
#TLE: 2 37849  98.7805 310.1641 0002540  75.6410 284.5048 14.19523335735721

#Time	Az	El	Level	Level2	SNR	BER	BlckErr	Temp	State	Recorded	gain1	gain2
2026-01-09 11:18:37.16	200.31	2.11	-43.8	-58.1	3.8	1.49e+00	0	47	0	0	59	18477
2026-01-09 11:18:41.21	200.56	2.35	-43.8	-58.1	3.8	1.49e+00	0	47	104	0	59	18381
2026-01-09 11:18:45.25	200.82	2.58	-43.8	-58.1	3.8	1.49e+00	0	48	104	0	59	18384
2026-01-09 11:18:49.30	201.08	2.82	-43.8	-58.1	3.8	1.49e+00	0	48	104	0	59	18347
2026-01-09 11:18:53.34	201.35	3.06	-43.8	-58.1	3.8	1.49e+00	0	48	104	0	59	18434
2026-01-09 11:18:57.38	201.61	3.30	-43.8	-58.1	3.8	1.49e+00	0	49	104	0	59	18379
2026-01-09 11:19:01.42	201.89	3.54	-43.7	-58.1	3.8	1.49e+00	0	49	104	0	59	18445
2026-01-09 11:19:05.46	202.17	3.78	-43.8	-58.1	3.8	1.49e+00	0	49	104	0	59	18384
2026-01-09 11:19:09.50	202.45	4.03	-43.8	-58.1	3.8	1.49e+00	0	49	104	0	59	18390
2026-01-09 11:19:13.55	202.74	4.28	-43.7	-58.1	3.8	1.49e+00	0	50	104	0	59	18342
2026-01-09 11:19:17.59	203.03	4.52	-43.8	-58.1	3.8	1.49e+00	0	50	104	0	59	18379
2026-01-09 11:19:21.63	203.33	4.77	-43.7	-58.1	3.8	1.49e+00	0	50	104	0	59	18338
2026-01-09 11:19:25.67	203.63	5.03	-43.7	-58.1	3.8	1.49e+00	0	50	104	0	59	18349
2026-01-09 11:19:29.72	203.93	5.28	-43.7	-58.1	3.8	1.49e+00	0	50	104	0	59	18442
2026-01-09 11:19:33.76	204.25	5.53	-43.7	-58.0	3.8	1.49e+00	0	51	104	0	59	18279
2026-01-09 11:19:37.80	204.56	5.79	-43.7	-58.0	3.8	1.49e+00	0	51	104	0	59	18250
2026-01-09 11:19:41.84	204.89	6.05	-43.8	-58.0	3.8	1.49e+00	0	51	104	0	59	18244
2026-01-09 11:19:45.88	205.21	6.31	-43.8	-57.9	3.8	1.49e+00	0	51	104	0	59	18022
2026-01-09 11:19:49.93	205.55	6.58	-43.7	-57.6	3.8	1.49e+00	0	51	104	0	59	17368
2026-01-09 11:19:53.97	205.89	6.84	-43.7	-57.3	3.8	1.49e+00	0	52	104	0	59	16795
2026-01-09 11:19:58.01	206.23	7.11	-43.7	-56.6	3.8	1.49e+00	0	52	104	0	59	15576
2026-01-09 11:20:02.05	206.58	7.38	-43.4	-53.8	4.4	1.36e+00	0	52	0	0	58	11944
2026-01-09 11:20:06.09	206.94	7.65	-42.7	-49.5	7.3	1.45e-01	0	52	0	7340032	57	7651
2026-01-09 11:20:10.13	207.31	7.92	-41.6	-46.4	10.2	6.46e-03	0	52	0	15728640	55	6026
2026-01-09 11:20:14.17	207.68	8.19	-43.2	-52.2	5.2	2.84e-01	0	52	0	23068672	56	11097
2026-01-09 11:20:18.21	208.06	8.47	-40.3	-43.5	13.3	2.44e-05	0	52	0	30408704	52	5157
2026-01-09 11:20:22.25	208.44	8.75	-40.2	-43.4	13.5	1.37e-05	0	53	0	37748736	52	5094
2026-01-09 11:20:26.29	208.83	9.03	-40.3	-43.4	13.7	9.90e-06	0	53	0	45088768	52	5073
2026-01-09 11:20:30.33	209.23	9.31	-40.2	-43.3	13.8	2.20e-06	0	53	0	53477376	52	5015
2026-01-09 11:20:34.37	209.64	9.59	-40.1	-43.0	14.1	2.20e-06	0	53	0	60817408	51	5142
2026-01-09 11:20:38.40	210.05	9.88	-40.0	-42.9	14.4	0.00e+00	0	53	0	68157440	51	5061
2026-01-09 11:20:42.44	210.48	10.17	-40.3	-43.3	14.0	7.00e-07	0	53	0	75497472	51	5285
2026-01-09 11:20:46.48	210.91	10.46	-40.3	-43.2	14.1	7.00e-07	0	53	0	83886080	51	5258
2026-01-09 11:20:50.51	211.35	10.75	-40.4	-43.4	14.0	3.80e-06	0	53	0	91226112	51	5382
2026-01-09 11:20:54.55	211.79	11.04	-40.3	-43.2	14.2	1.50e-06	0	54	0	98566144	51	5237
2026-01-09 11:20:58.59	212.25	11.34	-39.8	-42.5	14.9	0.00e+00	0	54	0	105906176	51	4821
2026-01-09 11:21:02.63	212.72	11.64	-39.8	-42.4	15.0	0.00e+00	0	54	0	113246208	51	4781
2026-01-09 11:21:06.66	213.19	11.94	-40.1	-42.8	14.6	0.00e+00	0	54	0	121634816	51	5017
2026-01-09 11:21:10.70	213.67	12.24	-40.2	-43.0	14.4	0.00e+00	0	54	0	128974848	51	5149
2026-01-09 11:21:14.74	214.17	12.55	-40.3	-43.1	14.3	7.00e-07	0	54	0	136314880	51	5214
2026-01-09 11:21:18.78	214.67	12.85	-40.2	-43.1	14.4	7.00e-07	0	54	0	143654912	51	5168
2026-01-09 11:21:22.81	215.19	13.16	-40.2	-43.1	14.5	0.00e+00	0	54	0	152043520	51	5166
2026-01-09 11:21:26.85	215.71	13.47	-40.2	-43.0	14.5	1.50e-06	0	54	0	159383552	51	5133
2026-01-09 11:21:30.89	216.25	13.78	-40.2	-43.0	14.5	0.00e+00	0	54	0	166723584	51	5140
2026-01-09 11:21:34.92	216.79	14.09	-40.1	-42.8	14.8	0.00e+00	0	54	0	174063616	51	4991
2026-01-09 11:21:38.97	217.35	14.41	-39.7	-42.2	15.3	0.00e+00	0	54	0	181403648	51	4699
2026-01-09 11:21:43.00	217.92	14.72	-39.7	-42.2	15.4	0.00e+00	0	54	0	189792256	51	4679
2026-01-09 11:21:47.04	218.50	15.04	-40.1	-42.8	14.8	0.00e+00	0	54	0	197132288	51	5012
2026-01-09 11:21:51.07	219.09	15.36	-40.2	-43.0	14.7	0.00e+00	0	54	0	204472320	51	5106
2026-01-09 11:21:55.11	219.70	15.68	-40.0	-42.6	15.0	0.00e+00	0	55	0	211812352	51	4906
2026-01-09 11:21:59.15	220.32	16.00	-40.0	-42.6	15.1	0.00e+00	0	55	0	219152384	51	4914
2026-01-09 11:22:03.19	220.95	16.33	-39.8	-42.4	15.3	0.00e+00	0	55	0	227540992	51	4772
2026-01-09 11:22:07.23	221.60	16.65	-39.8	-42.2	15.5	0.00e+00	0	55	0	234881024	51	4700
2026-01-09 11:22:11.26	222.25	16.97	-39.4	-41.7	16.0	0.00e+00	0	55	0	242221056	50	4685
2026-01-09 11:22:15.30	222.93	17.30	-39.4	-41.7	16.0	0.00e+00	0	55	0	249561088	50	4668
2026-01-09 11:22:19.34	223.62	17.62	-39.6	-42.0	15.8	0.00e+00	0	55	0	257949696	50	4835
2026-01-09 11:22:23.37	224.32	17.95	-39.6	-41.9	15.8	0.00e+00	0	55	0	265289728	50	4810
2026-01-09 11:22:27.41	225.03	18.27	-39.5	-41.8	15.9	0.00e+00	0	55	0	272629760	50	4755
2026-01-09 11:22:31.45	225.76	18.60	-39.3	-41.5	16.2	0.00e+00	0	55	0	279969792	50	4592
2026-01-09 11:22:35.48	226.51	18.93	-39.2	-41.4	16.4	0.00e+00	0	55	0	287309824	50	4497
2026-01-09 11:22:39.52	227.27	19.25	-39.0	-41.2	16.6	0.00e+00	0	55	0	295698432	49	4665
2026-01-09 11:22:43.56	228.05	19.57	-39.3	-41.5	16.2	0.00e+00	0	55	0	303038464	49	4859
2026-01-09 11:22:47.59	228.84	19.90	-38.9	-41.0	16.7	0.00e+00	0	55	0	310378496	49	4590
2026-01-09 11:22:51.63	229.66	20.22	-39.2	-41.3	16.4	0.00e+00	0	55	0	317718528	49	4759
2026-01-09 11:22:55.66	230.48	20.54	-39.0	-41.2	16.6	0.00e+00	0	55	0	326107136	49	4655
2026-01-09 11:22:59.70	231.33	20.86	-39.4	-41.7	16.2	0.00e+00	0	55	0	333447168	49	4944
2026-01-09 11:23:03.74	232.19	21.17	-39.1	-41.3	16.5	0.00e+00	0	55	0	340787200	49	4714
2026-01-09 11:23:07.78	233.07	21.49	-39.2	-41.4	16.4	0.00e+00	0	55	0	348127232	49	4764
2026-01-09 11:23:11.82	233.97	21.80	-39.2	-41.4	16.4	0.00e+00	0	55	0	355467264	49	4769
2026-01-09 11:23:15.85	234.88	22.10	-39.1	-41.3	16.5	0.00e+00	0	55	0	363855872	49	4708
2026-01-09 11:23:19.89	235.81	22.40	-39.3	-41.5	16.3	0.00e+00	0	55	0	371195904	49	4825
2026-01-09 11:23:23.93	236.76	22.70	-39.1	-41.3	16.5	0.00e+00	0	55	0	378535936	49	4720
2026-01-09 11:23:27.96	237.73	23.00	-39.0	-41.0	16.7	0.00e+00	0	56	0	385875968	49	4596
2026-01-09 11:23:32.00	238.71	23.28	-39.3	-41.5	16.3	0.00e+00	0	55	0	394264576	49	4836
2026-01-09 11:23:36.04	239.72	23.57	-39.5	-41.8	16.1	0.00e+00	0	56	0	401604608	49	4988
2026-01-09 11:23:40.07	240.74	23.84	-39.3	-41.5	16.3	0.00e+00	0	56	0	408944640	49	4836
2026-01-09 11:23:44.11	241.77	24.11	-38.8	-40.9	16.9	0.00e+00	0	56	0	416284672	49	4504
2026-01-09 11:23:48.15	242.83	24.38	-39.8	-42.2	15.7	0.00e+00	0	56	0	423624704	50	4954
2026-01-09 11:23:52.19	243.90	24.63	-38.8	-40.9	16.9	0.00e+00	0	56	0	432013312	49	4509
2026-01-09 11:23:56.23	244.99	24.88	-40.2	-42.8	15.0	0.00e+00	0	56	0	439353344	51	5016
2026-01-09 11:24:00.26	246.10	25.12	-40.4	-43.1	14.8	7.00e-07	0	56	0	446693376	51	5160
2026-01-09 11:24:04.30	247.22	25.35	-40.0	-42.5	15.3	0.00e+00	0	56	0	454033408	51	4825
2026-01-09 11:24:08.34	248.36	25.57	-40.7	-43.6	14.3	0.00e+00	0	56	0	462422016	51	5477
2026-01-09 11:24:12.37	249.51	25.78	-41.2	-44.5	13.3	1.37e-05	0	56	0	469762048	52	5737
2026-01-09 11:24:16.41	250.68	25.97	-41.0	-44.1	13.7	4.50e-06	0	56	0	477102080	53	5181
2026-01-09 11:24:20.45	251.86	26.16	-41.6	-45.3	12.5	1.17e-04	0	56	0	484442112	53	5924
2026-01-09 11:24:24.49	253.05	26.34	-40.6	-43.5	14.2	1.50e-06	0	56	0	491782144	53	4859
2026-01-09 11:24:28.53	254.26	26.50	-41.2	-44.5	13.2	2.28e-05	0	56	0	500170752	53	5428
2026-01-09 11:24:32.56	255.48	26.65	-41.6	-45.2	12.5	5.79e-05	0	56	0	507510784	53	5921
2026-01-09 11:24:36.60	256.71	26.79	-41.4	-44.8	13.0	5.95e-05	0	56	0	514850816	54	5311
2026-01-09 11:24:40.64	257.95	26.92	-42.2	-46.4	11.3	2.33e-03	0	56	0	522190848	55	6032
2026-01-09 11:24:44.68	259.20	27.03	-41.2	-44.5	13.3	1.83e-05	0	56	0	530579456	54	5122
2026-01-09 11:24:48.72	260.45	27.12	-41.6	-45.1	12.7	6.33e-05	0	56	0	537919488	54	5517
2026-01-09 11:24:52.76	261.72	27.21	-42.1	-46.3	11.5	8.89e-04	0	56	0	545259520	54	6296
2026-01-09 11:24:56.80	262.99	27.28	-41.6	-45.2	12.6	1.54e-04	0	56	0	552599552	54	5545
2026-01-09 11:25:00.83	264.26	27.33	-41.8	-45.5	12.3	9.46e-05	0	56	0	559939584	54	5777
2026-01-09 11:25:04.87	265.54	27.37	-41.4	-44.8	13.0	5.03e-05	0	56	0	568328192	54	5300
2026-01-09 11:25:08.90	266.81	27.39	-41.1	-44.3	13.5	1.06e-05	0	56	0	575668224	53	5327
2026-01-09 11:25:12.94	268.09	27.40	-40.9	-43.9	13.8	3.80e-06	0	56	0	583008256	53	5090
2026-01-09 11:25:16.97	269.37	27.39	-41.6	-45.2	12.6	8.08e-05	0	56	0	590348288	54	5549
2026-01-09 11:25:21.01	270.65	27.37	-41.9	-45.8	11.9	3.60e-04	0	56	0	597688320	54	5983
2026-01-09 11:25:25.05	271.93	27.33	-41.1	-44.3	13.5	1.37e-05	0	56	0	606076928	54	5011
2026-01-09 11:25:29.09	273.20	27.28	-40.5	-43.2	14.6	0.00e+00	0	56	0	613416960	52	4959
2026-01-09 11:25:33.12	274.47	27.22	-40.7	-43.6	14.1	2.20e-06	0	56	0	620756992	52	5215
2026-01-09 11:25:37.16	275.73	27.14	-41.3	-44.7	13.1	6.56e-05	0	56	0	628097024	53	5554
2026-01-09 11:25:41.20	276.99	27.04	-40.9	-43.8	14.0	3.80e-06	0	56	0	636485632	53	5032
2026-01-09 11:25:45.24	278.24	26.93	-40.5	-43.3	14.5	7.00e-07	0	56	0	643825664	52	5011
2026-01-09 11:25:49.27	279.47	26.81	-40.4	-43.2	14.7	0.00e+00	0	56	0	651165696	52	4927
2026-01-09 11:25:53.31	280.70	26.67	-40.1	-42.7	15.1	0.00e+00	0	56	0	658505728	52	4694
2026-01-09 11:25:57.35	281.92	26.52	-40.2	-42.8	15.1	0.00e+00	0	56	0	665845760	51	5010
2026-01-09 11:26:01.39	283.12	26.36	-41.0	-44.1	13.7	6.80e-06	0	56	0	674234368	52	5485
2026-01-09 11:26:05.43	284.32	26.19	-40.2	-42.8	15.0	0.00e+00	0	56	0	681574400	52	4718
2026-01-09 11:26:09.47	285.50	26.00	-38.7	-40.7	17.2	0.00e+00	0	56	0	688914432	49	4392
2026-01-09 11:26:13.50	286.66	25.80	-39.3	-41.6	16.3	0.00e+00	0	56	0	696254464	49	4882
2026-01-09 11:26:17.54	287.81	25.60	-39.2	-41.3	16.5	0.00e+00	0	56	0	704643072	50	4476
2026-01-09 11:26:21.58	288.95	25.38	-38.7	-40.8	17.0	0.00e+00	0	56	0	711983104	49	4459
2026-01-09 11:26:25.62	290.07	25.15	-38.1	-39.9	17.8	0.00e+00	0	56	0	719323136	48	4267
2026-01-09 11:26:29.65	291.17	24.92	-38.3	-40.2	17.5	0.00e+00	0	56	0	726663168	47	4689
2026-01-09 11:26:33.69	292.26	24.67	-38.7	-40.7	17.1	0.00e+00	0	56	0	734003200	48	4696
2026-01-09 11:26:37.73	293.33	24.42	-38.3	-40.2	17.6	0.00e+00	0	56	0	742391808	48	4394
2026-01-09 11:26:41.77	294.39	24.16	-38.3	-40.2	17.5	0.00e+00	0	56	0	749731840	48	4437
2026-01-09 11:26:45.80	295.42	23.89	-38.3	-40.1	17.6	0.00e+00	0	57	0	757071872	48	4385
2026-01-09 11:26:49.84	296.44	23.62	-38.7	-40.8	17.0	0.00e+00	0	56	0	764411904	48	4722
2026-01-09 11:26:53.88	297.44	23.34	-38.8	-40.8	17.0	0.00e+00	0	56	0	772800512	48	4737
2026-01-09 11:26:57.92	298.43	23.05	-38.9	-41.0	16.7	0.00e+00	0	56	0	780140544	48	4857
2026-01-09 11:27:01.95	299.39	22.76	-39.8	-42.2	15.6	0.00e+00	0	56	0	787480576	50	4973
2026-01-09 11:27:05.99	300.34	22.47	-39.3	-41.5	16.2	0.00e+00	0	57	0	794820608	50	4588
2026-01-09 11:27:10.03	301.27	22.17	-39.6	-41.9	15.8	0.00e+00	0	56	0	802160640	50	4801
2026-01-09 11:27:14.06	302.18	21.86	-38.6	-40.5	17.2	0.00e+00	0	56	0	810549248	49	4335
2026-01-09 11:27:18.10	303.08	21.56	-39.4	-41.7	16.1	0.00e+00	0	56	0	817889280	49	4932
2026-01-09 11:27:22.14	303.95	21.24	-39.6	-41.9	15.8	0.00e+00	0	56	0	825229312	49	5077
2026-01-09 11:27:26.18	304.82	20.93	-39.6	-41.9	15.8	0.00e+00	0	56	0	832569344	50	4814
2026-01-09 11:27:30.21	305.66	20.62	-39.1	-41.3	16.4	0.00e+00	0	56	0	840957952	49	4733
2026-01-09 11:27:34.25	306.48	20.30	-40.1	-42.7	15.0	0.00e+00	0	57	0	848297984	50	5267
2026-01-09 11:27:38.29	307.30	19.98	-39.2	-41.4	16.3	0.00e+00	0	56	0	855638016	50	4537
2026-01-09 11:27:42.32	308.09	19.66	-38.7	-40.8	16.9	0.00e+00	0	56	0	862978048	49	4457
2026-01-09 11:27:46.36	308.87	19.34	-40.0	-42.5	15.2	0.00e+00	0	56	0	870318080	50	5156
2026-01-09 11:27:50.39	309.63	19.02	-39.5	-41.8	15.9	0.00e+00	0	56	0	878706688	50	4753
2026-01-09 11:27:54.43	310.37	18.70	-39.7	-42.1	15.6	0.00e+00	0	56	0	886046720	50	4908
2026-01-09 11:27:58.47	311.10	18.37	-39.0	-41.2	16.4	0.00e+00	0	56	0	893386752	50	4412
2026-01-09 11:28:02.50	311.82	18.05	-39.4	-41.8	15.9	0.00e+00	0	56	0	900726784	49	4987
2026-01-09 11:28:06.54	312.52	17.73	-39.2	-41.5	16.2	0.00e+00	0	57	0	908066816	50	4551
2026-01-09 11:28:10.57	313.21	17.41	-38.9	-41.1	16.5	0.00e+00	0	56	0	916455424	49	4602
2026-01-09 11:28:14.62	313.88	17.08	-39.9	-42.4	15.2	0.00e+00	0	56	0	923795456	50	5100
2026-01-09 11:28:18.65	314.54	16.76	-39.3	-41.6	15.9	0.00e+00	0	56	0	931135488	50	4645
2026-01-09 11:28:22.69	315.18	16.44	-39.3	-41.6	16.0	0.00e+00	0	56	0	938475520	50	4623
2026-01-09 11:28:26.73	315.82	16.12	-39.4	-41.7	15.9	0.00e+00	0	56	0	946864128	50	4660
2026-01-09 11:28:30.77	316.44	15.80	-39.0	-41.2	16.3	0.00e+00	0	57	0	954204160	49	4704
2026-01-09 11:28:34.80	317.04	15.49	-40.1	-42.9	14.7	0.00e+00	0	57	0	961544192	50	5348
2026-01-09 11:28:38.84	317.64	15.17	-40.7	-43.8	13.8	6.10e-06	0	56	0	968884224	51	5624
2026-01-09 11:28:42.88	318.22	14.85	-40.1	-42.9	14.7	0.00e+00	0	57	0	976224256	51	5045
2026-01-09 11:28:46.92	318.79	14.54	-39.6	-42.0	15.5	0.00e+00	0	57	0	984612864	51	4577
2026-01-09 11:28:50.95	319.35	14.23	-39.1	-41.4	16.1	0.00e+00	0	56	0	991952896	50	4516
2026-01-09 11:28:54.99	319.89	13.92	-39.2	-41.5	16.0	0.00e+00	0	56	0	999292928	49	4842
2026-01-09 11:28:59.03	320.43	13.61	-39.8	-42.3	15.2	0.00e+00	0	56	0	1006632960	50	5024
2026-01-09 11:29:03.07	320.96	13.30	-40.5	-43.5	14.0	2.20e-06	0	56	0	1015021568	51	5403
2026-01-09 11:29:07.10	321.47	13.00	-40.3	-43.1	14.3	7.00e-07	0	57	0	1022361600	51	5218
2026-01-09 11:29:11.14	321.98	12.69	-39.9	-42.5	14.9	0.00e+00	0	57	0	1029701632	51	4865
2026-01-09 11:29:15.18	322.47	12.39	-39.8	-42.4	15.0	0.00e+00	0	56	0	1037041664	51	4769
2026-01-09 11:29:19.22	322.96	12.09	-40.0	-42.7	14.7	0.00e+00	0	57	0	1044381696	51	4976
2026-01-09 11:29:23.26	323.44	11.79	-39.8	-42.4	14.9	0.00e+00	0	57	0	1052770304	51	4812
2026-01-09 11:29:27.29	323.90	11.50	-40.0	-42.8	14.6	0.00e+00	0	57	0	1060110336	51	4996
2026-01-09 11:29:31.33	324.36	11.21	-40.3	-43.3	14.1	4.50e-06	0	57	0	1067450368	51	5309
2026-01-09 11:29:35.37	324.81	10.91	-40.7	-43.9	13.3	2.36e-05	0	56	0	1074790400	52	5401
2026-01-09 11:29:39.41	325.25	10.62	-40.9	-44.3	13.0	3.12e-05	0	57	0	1082130432	52	5626
2026-01-09 11:29:43.45	325.68	10.33	-40.9	-44.4	12.9	5.87e-05	0	57	0	1090519040	52	5674
2026-01-09 11:29:47.48	326.11	10.05	-40.6	-43.8	13.4	1.44e-05	0	57	0	1097859072	52	5309
2026-01-09 11:29:51.52	326.53	9.77	-40.4	-43.5	13.6	8.30e-06	0	57	0	1105199104	52	5157
2026-01-09 11:29:55.56	326.94	9.48	-40.3	-43.5	13.7	6.10e-06	0	57	0	1112539136	52	5108
2026-01-09 11:29:59.60	327.34	9.20	-40.0	-42.9	14.3	1.50e-06	0	57	0	1120927744	51	5086
2026-01-09 11:30:03.63	327.73	8.93	-40.2	-43.1	14.1	7.00e-07	0	57	0	1128267776	51	5199
2026-01-09 11:30:07.67	328.12	8.65	-40.4	-43.5	13.6	5.30e-06	0	56	0	1135607808	51	5448
2026-01-09 11:30:11.71	328.50	8.38	-40.9	-44.6	12.4	1.48e-04	0	57	0	1142947840	52	5837
2026-01-09 11:30:15.75	328.87	8.10	-41.1	-45.1	11.9	3.48e-04	0	57	0	1150287872	52	6146
2026-01-09 11:30:19.79	329.24	7.83	-44.6	-58.9	3.8	1.49e+00	0	57	104	1154482176	59	20266
2026-01-09 11:30:23.83	329.60	7.56	-45.0	-59.5	3.8	1.49e+00	0	57	104	1154482176	60	20384
2026-01-09 11:30:27.88	329.96	7.30	-44.9	-59.4	3.8	1.49e+00	0	57	104	1154482176	60	20211
2026-01-09 11:30:31.92	330.31	7.03	-44.9	-59.3	3.8	1.49e+00	0	57	104	1154482176	60	20039
2026-01-09 11:30:35.96	330.65	6.77	-44.9	-59.3	3.8	1.49e+00	0	57	104	1154482176	60	20035
2026-01-09 11:30:40.00	330.99	6.51	-44.9	-59.3	3.8	1.49e+00	0	57	104	1154482176	60	20010
2026-01-09 11:30:44.04	331.32	6.25	-44.9	-59.3	3.8	1.49e+00	0	57	104	1154482176	60	19949
2026-01-09 11:30:48.08	331.64	5.99	-44.9	-59.3	3.8	1.49e+00	0	57	104	1154482176	60	19923
2026-01-09 11:30:52.13	331.97	5.74	-44.8	-59.3	3.8	1.49e+00	0	57	104	1154482176	60	19920
2026-01-09 11:30:56.17	332.28	5.48	-44.8	-59.3	3.8	1.49e+00	0	57	104	1154482176	60	19927
2026-01-09 11:31:00.21	332.59	5.23	-44.8	-59.3	3.8	1.49e+00	0	57	104	1154482176	60	19909
2026-01-09 11:31:04.25	332.90	4.98	-44.8	-59.3	3.8	1.49e+00	0	57	104	1154482176	60	19898
2026-01-09 11:31:08.30	333.20	4.73	-44.8	-59.3	3.8	1.49e+00	0	57	104	1154482176	60	19920
2026-01-09 11:31:12.34	333.49	4.49	-44.8	-59.3	3.8	1.49e+00	0	57	104	1154482176	60	19910
2026-01-09 11:31:16.38	333.78	4.24	-44.8	-59.3	3.8	1.49e+00	0	57	104	1154482176	60	19927
2026-01-09 11:31:20.42	334.07	4.00	-44.8	-59.3	3.8	1.49e+00	0	57	104	1154482176	60	19884
2026-01-09 11:31:24.46	334.35	3.76	-44.8	-59.3	3.8	1.49e+00	0	57	104	1154482176	60	19884
2026-01-09 11:31:28.50	334.63	3.52	-44.8	-59.3	3.8	1.49e+00	0	57	104	1154482176	60	19899
2026-01-09 11:31:32.54	334.91	3.28	-44.8	-59.3	3.8	1.49e+00	0	57	104	1154482176	60	19870
2026-01-09 11:31:36.58	335.18	3.04	-44.8	-59.3	3.8	1.49e+00	0	57	104	1154482176	60	19962
2026-01-09 11:31:40.63	335.44	2.81	-44.8	-59.3	3.8	1.49e+00	0	57	104	1154482176	60	19931
2026-01-09 11:31:44.67	335.70	2.57	-44.8	-59.3	3.8	1.49e+00	0	57	104	1154482176	60	19958
2026-01-09 11:31:48.71	335.96	2.34	-44.8	-59.3	3.8	1.49e+00	0	57	104	1154482176	60	19883
2026-01-09 11:31:52.75	336.22	2.11	-44.8	-59.3	3.8	1.49e+00	0	57	104	1154482176	60	19875

#Closed at: 2026-01-09 11:31:55
#Recorded file [1154 MB]: D:/lorett/data/31039_260109_141836.dat