passes_logs/2026/01/09/R2.0S_Moscow/R2.0S_Moscow__20260109_154514_FENGYUN_3E_rec.log

#Pass ID: 20260109_154514_FENGYUN 3E
#Satellite: FENGYUN 3E
#Configuration: FENGYUN 3E
#almurnet v.1.7.20251203
#Start time: 2026-01-09 15:45:14

#Version: 2.2.20231116
#Station: R2.0S_Moscow
#Location: 37.707566 lon 55.798166 lat
#TLE: 1 49008U 21062A   26008.59312205 -.00000223  00000+0 -84486-4 0  9997
#TLE: 2 49008  98.7483  13.7961 0001692 149.3118 210.8157 14.19883502233939

#Time	Az	El	Level	Level2	SNR	BER	BlckErr	Temp	State	Recorded	gain1	gain2
2026-01-09 15:45:14.87	207.80	2.02	-43.9	-54.9	3.8	8.45e-01	0	47	0	0	58	12784
2026-01-09 15:45:18.92	208.10	2.24	-43.9	-55.0	3.8	8.46e-01	0	47	104	0	58	12813
2026-01-09 15:45:22.96	208.40	2.47	-43.9	-54.9	3.8	8.47e-01	0	47	104	0	58	12801
2026-01-09 15:45:27.01	208.70	2.69	-43.9	-55.0	3.8	8.46e-01	0	47	104	0	58	12826
2026-01-09 15:45:31.05	209.01	2.92	-43.9	-55.0	3.8	8.47e-01	0	48	104	0	58	12819
2026-01-09 15:45:35.09	209.32	3.14	-43.9	-54.9	3.8	8.46e-01	0	48	104	0	58	12797
2026-01-09 15:45:39.14	209.63	3.37	-43.9	-54.9	3.8	8.46e-01	0	48	104	0	58	12786
2026-01-09 15:45:43.18	209.95	3.60	-43.9	-54.9	3.8	8.47e-01	0	49	104	0	58	12775
2026-01-09 15:45:47.23	210.28	3.83	-43.9	-54.9	3.8	8.46e-01	0	49	104	0	58	12742
2026-01-09 15:45:51.27	210.61	4.06	-43.9	-54.9	3.8	8.45e-01	0	49	104	0	57	13565
2026-01-09 15:45:55.31	210.95	4.30	-43.9	-54.9	3.8	8.46e-01	0	50	104	0	57	13516
2026-01-09 15:45:59.36	211.29	4.53	-43.9	-54.9	3.8	8.46e-01	0	50	104	0	57	13428
2026-01-09 15:46:03.39	211.63	4.77	-43.9	-54.8	3.8	8.46e-01	0	50	104	0	57	13294
2026-01-09 15:46:07.44	211.99	5.00	-43.9	-54.8	3.8	8.47e-01	0	50	104	0	57	13301
2026-01-09 15:46:11.48	212.34	5.24	-43.9	-54.9	3.8	8.47e-01	0	51	104	0	57	13434
2026-01-09 15:46:15.52	212.70	5.48	-43.9	-54.8	3.8	8.47e-01	0	51	104	0	57	13403
2026-01-09 15:46:19.57	213.07	5.72	-43.9	-54.8	3.8	8.46e-01	0	51	104	0	57	13348
2026-01-09 15:46:23.61	213.45	5.96	-43.9	-54.8	3.8	8.46e-01	0	51	104	0	57	13323
2026-01-09 15:46:27.66	213.83	6.21	-43.9	-54.7	3.8	8.48e-01	0	51	104	0	57	13199
2026-01-09 15:46:31.70	214.22	6.45	-43.8	-54.6	3.8	8.47e-01	0	51	104	0	57	13075
2026-01-09 15:46:35.75	214.61	6.70	-43.8	-54.5	3.8	8.46e-01	0	51	104	0	57	12899
2026-01-09 15:46:39.79	215.01	6.94	-43.9	-54.8	3.8	8.46e-01	0	52	104	0	57	13261
2026-01-09 15:46:43.83	215.41	7.19	-43.8	-54.2	3.8	8.47e-01	0	52	104	0	57	12426
2026-01-09 15:46:47.88	215.83	7.44	-43.2	-50.6	4.4	8.31e-01	0	52	0	0	57	8216
2026-01-09 15:46:51.92	216.25	7.69	-41.2	-44.8	8.6	4.73e-02	0	52	0	16777216	53	5311
2026-01-09 15:46:55.96	216.67	7.94	-39.2	-41.5	12.2	2.97e-04	0	52	0	46137344	49	4581
2026-01-09 15:47:00.00	217.11	8.19	-38.2	-40.1	13.7	1.10e-06	0	52	0	66060288	46	4650
2026-01-09 15:47:04.04	217.55	8.45	-37.1	-38.7	15.1	0.00e+00	0	53	0	95420416	44	4421
2026-01-09 15:47:08.09	218.00	8.70	-36.8	-38.4	15.5	0.00e+00	0	53	0	124780544	44	4254
2026-01-09 15:47:12.13	218.45	8.96	-36.6	-38.1	15.8	0.00e+00	0	53	0	154140672	44	4103
2026-01-09 15:47:16.17	218.92	9.21	-36.4	-37.9	15.8	0.00e+00	0	53	0	183500800	43	4271
2026-01-09 15:47:20.22	219.39	9.47	-36.4	-37.9	15.9	0.00e+00	0	53	0	211812352	43	4251
2026-01-09 15:47:24.26	219.87	9.73	-36.6	-38.1	15.7	0.00e+00	0	53	0	241172480	43	4351
2026-01-09 15:47:28.31	220.36	9.99	-36.5	-38.1	15.8	0.00e+00	0	53	0	270532608	43	4342
2026-01-09 15:47:32.35	220.86	10.25	-36.5	-38.0	15.9	0.00e+00	0	53	0	299892736	43	4304
2026-01-09 15:47:36.40	221.36	10.51	-36.3	-37.8	16.1	0.00e+00	0	53	0	329252864	43	4206
2026-01-09 15:47:40.44	221.88	10.78	-36.4	-37.8	16.1	0.00e+00	0	54	0	358612992	43	4227
2026-01-09 15:47:44.49	222.40	11.04	-36.2	-37.6	16.4	0.00e+00	0	54	0	387973120	43	4110
2026-01-09 15:47:48.53	222.94	11.30	-36.2	-37.6	16.4	0.00e+00	0	54	0	417333248	43	4108
2026-01-09 15:47:52.57	223.48	11.57	-36.3	-37.8	16.2	0.00e+00	0	54	0	446693376	43	4212
2026-01-09 15:47:56.62	224.03	11.83	-36.1	-37.4	16.5	0.00e+00	0	54	0	475004928	43	4041
2026-01-09 15:48:00.66	224.59	12.10	-35.9	-37.3	16.7	0.00e+00	0	54	0	504365056	42	4206
2026-01-09 15:48:04.70	225.16	12.36	-36.0	-37.4	16.7	0.00e+00	0	54	0	533725184	42	4264
2026-01-09 15:48:08.74	225.74	12.63	-35.7	-37.0	17.1	0.00e+00	0	54	0	563085312	42	4063
2026-01-09 15:48:12.79	226.34	12.90	-35.5	-36.8	17.3	0.00e+00	0	54	0	592445440	41	4203
2026-01-09 15:48:16.83	226.94	13.16	-35.5	-36.8	17.3	0.00e+00	0	54	0	620756992	41	4242
2026-01-09 15:48:20.88	227.55	13.43	-35.4	-36.6	17.5	0.00e+00	0	54	0	650117120	41	4129
2026-01-09 15:48:24.92	228.18	13.70	-35.1	-36.4	17.7	0.00e+00	0	54	0	679477248	41	4013
2026-01-09 15:48:28.96	228.81	13.96	-35.4	-36.6	17.5	0.00e+00	0	54	0	708837376	41	4137
2026-01-09 15:48:33.01	229.46	14.23	-35.4	-36.7	17.5	0.00e+00	0	55	0	738197504	41	4153
2026-01-09 15:48:37.05	230.11	14.49	-35.2	-36.5	17.7	0.00e+00	0	55	0	767557632	41	4063
2026-01-09 15:48:41.09	230.78	14.76	-35.0	-36.2	18.0	0.00e+00	0	55	0	795869184	41	3947
2026-01-09 15:48:45.14	231.46	15.02	-35.0	-36.2	18.0	0.00e+00	0	55	0	825229312	40	4183
2026-01-09 15:48:49.18	232.16	15.28	-34.8	-36.0	18.1	0.00e+00	0	55	0	854589440	40	4090
2026-01-09 15:48:53.22	232.86	15.54	-34.9	-36.1	18.1	0.00e+00	0	55	0	883949568	40	4144
2026-01-09 15:48:57.27	233.58	15.81	-34.8	-35.9	18.3	0.00e+00	0	55	0	913309696	40	4045
2026-01-09 15:49:01.31	234.30	16.06	-34.7	-35.9	18.3	0.00e+00	0	55	0	941621248	40	4021
2026-01-09 15:49:05.35	235.04	16.32	-34.6	-35.8	18.4	0.00e+00	0	55	0	970981376	40	3981
2026-01-09 15:49:09.40	235.80	16.58	-34.6	-35.7	18.6	0.00e+00	0	55	0	1000341504	39	4171
2026-01-09 15:49:13.44	236.56	16.83	-34.5	-35.7	18.6	0.00e+00	0	55	0	1029701632	39	4148
2026-01-09 15:49:17.48	237.34	17.08	-34.5	-35.6	18.7	0.00e+00	0	55	0	1059061760	39	4122
2026-01-09 15:49:21.52	238.13	17.33	-34.5	-35.6	18.7	0.00e+00	0	55	0	1088421888	39	4130
2026-01-09 15:49:25.56	238.93	17.57	-34.5	-35.6	18.7	0.00e+00	0	55	0	1116733440	39	4113
2026-01-09 15:49:29.61	239.75	17.81	-34.5	-35.7	18.7	0.00e+00	0	55	0	1146093568	39	4149
2026-01-09 15:49:33.66	240.58	18.05	-34.4	-35.5	18.9	0.00e+00	0	55	0	1175453696	39	4053
2026-01-09 15:49:37.70	241.42	18.29	-34.1	-35.2	19.1	0.00e+00	0	55	0	1204813824	39	3951
2026-01-09 15:49:41.75	242.27	18.52	-34.3	-35.4	18.9	0.00e+00	0	55	0	1234173952	39	4045
2026-01-09 15:49:45.79	243.14	18.75	-34.3	-35.4	18.9	0.00e+00	0	55	0	1263534080	39	4014
2026-01-09 15:49:49.83	244.02	18.97	-34.3	-35.4	18.9	0.00e+00	0	55	0	1292894208	39	4043
2026-01-09 15:49:53.88	244.91	19.19	-34.2	-35.3	19.0	0.00e+00	0	55	0	1322254336	39	3964
2026-01-09 15:49:57.92	245.82	19.40	-34.3	-35.4	18.9	0.00e+00	0	56	0	1350565888	39	4027
2026-01-09 15:50:01.96	246.73	19.61	-34.1	-35.2	19.1	0.00e+00	0	55	0	1379926016	39	3952
2026-01-09 15:50:06.01	247.66	19.81	-33.8	-34.9	19.4	0.00e+00	0	55	0	1409286144	38	4024
2026-01-09 15:50:10.05	248.60	20.01	-33.9	-34.9	19.4	0.00e+00	0	55	0	1438646272	38	4031
2026-01-09 15:50:14.09	249.55	20.20	-33.9	-35.0	19.4	0.00e+00	0	55	0	1468006400	38	4088
2026-01-09 15:50:18.14	250.51	20.38	-34.0	-35.1	19.3	0.00e+00	0	56	0	1497366528	38	4118
2026-01-09 15:50:22.18	251.49	20.56	-34.0	-35.1	19.3	0.00e+00	0	56	0	1525678080	38	4122
2026-01-09 15:50:26.22	252.47	20.73	-34.2	-35.3	19.1	0.00e+00	0	56	0	1555038208	38	4207
2026-01-09 15:50:30.26	253.47	20.89	-34.0	-35.1	19.3	0.00e+00	0	56	0	1584398336	38	4126
2026-01-09 15:50:34.31	254.47	21.04	-34.0	-35.1	19.3	0.00e+00	0	56	0	1613758464	38	4128
2026-01-09 15:50:38.35	255.49	21.19	-33.9	-35.0	19.4	0.00e+00	0	56	0	1643118592	38	4074
2026-01-09 15:50:42.40	256.51	21.33	-33.9	-34.9	19.5	0.00e+00	0	56	0	1671430144	38	4044
2026-01-09 15:50:46.44	257.54	21.46	-33.7	-34.8	19.6	0.00e+00	0	56	0	1700790272	38	3974
2026-01-09 15:50:50.49	258.58	21.58	-33.7	-34.8	19.6	0.00e+00	0	56	0	1730150400	38	3979
2026-01-09 15:50:54.53	259.63	21.69	-33.6	-34.6	19.8	0.00e+00	0	56	0	1759510528	38	3898
2026-01-09 15:50:58.57	260.69	21.79	-33.6	-34.7	19.7	0.00e+00	0	56	0	1788870656	37	4166
2026-01-09 15:51:02.61	261.75	21.88	-33.9	-34.9	19.5	0.00e+00	0	56	0	1818230784	37	4271
2026-01-09 15:51:06.66	262.82	21.97	-33.6	-34.6	19.7	0.00e+00	0	56	0	1846542336	37	4133
2026-01-09 15:51:10.70	263.89	22.04	-33.8	-34.8	19.6	0.00e+00	0	56	0	1875902464	37	4229
2026-01-09 15:51:14.75	264.97	22.10	-33.7	-34.8	19.6	0.00e+00	0	56	0	1905262592	37	4217
2026-01-09 15:51:18.79	266.05	22.16	-33.8	-34.8	19.6	0.00e+00	0	56	0	1934622720	37	4226
2026-01-09 15:51:22.83	267.13	22.20	-33.9	-34.9	19.5	0.00e+00	0	56	0	1963982848	37	4286
2026-01-09 15:51:26.88	268.22	22.23	-33.8	-34.9	19.5	0.00e+00	0	56	0	1993342976	37	4258
2026-01-09 15:51:30.92	269.30	22.26	-33.6	-34.6	19.8	0.00e+00	0	56	0	2021654528	37	4135
2026-01-09 15:51:34.96	270.39	22.27	-33.7	-34.7	19.7	0.00e+00	0	56	0	2051014656	37	4175
2026-01-09 15:51:39.01	271.48	22.27	-33.6	-34.7	19.7	0.00e+00	0	56	0	2080374784	37	4148
2026-01-09 15:51:43.05	272.57	22.26	-33.8	-34.9	19.4	0.00e+00	0	56	0	2109734912	37	4266
2026-01-09 15:51:47.09	273.66	22.24	-34.0	-35.1	19.3	0.00e+00	0	56	0	2139095040	37	4341
2026-01-09 15:51:51.14	274.75	22.21	-34.0	-35.1	19.3	0.00e+00	0	56	0	2168455168	37	4361
2026-01-09 15:51:55.18	275.83	22.17	-33.9	-35.0	19.4	0.00e+00	0	56	0	2197815296	37	4311
2026-01-09 15:51:59.23	276.91	22.12	-33.7	-34.8	19.6	0.00e+00	0	56	0	2227175424	37	4198
2026-01-09 15:52:03.27	277.99	22.06	-33.8	-34.8	19.6	0.00e+00	0	56	0	2255486976	37	4240
2026-01-09 15:52:07.32	279.06	21.99	-33.6	-34.6	19.8	0.00e+00	0	56	0	2284847104	37	4131
2026-01-09 15:52:11.36	280.13	21.91	-33.8	-34.8	19.6	0.00e+00	0	56	0	2314207232	37	4235
2026-01-09 15:52:15.40	281.19	21.82	-33.8	-34.9	19.5	0.00e+00	0	56	0	2343567360	37	4243
2026-01-09 15:52:19.45	282.25	21.72	-33.9	-34.9	19.5	0.00e+00	0	56	0	2372927488	37	4284
2026-01-09 15:52:23.49	283.29	21.61	-33.9	-35.0	19.4	0.00e+00	0	56	0	2401239040	37	4310
2026-01-09 15:52:27.53	284.33	21.49	-33.8	-34.8	19.6	0.00e+00	0	56	0	2430599168	37	4214
2026-01-09 15:52:31.57	285.36	21.37	-34.0	-35.1	19.3	0.00e+00	0	56	0	2459959296	37	4349
2026-01-09 15:52:35.61	286.39	21.23	-33.9	-35.0	19.5	0.00e+00	0	56	0	2489319424	37	4296
2026-01-09 15:52:39.65	287.40	21.09	-33.8	-34.8	19.6	0.00e+00	0	56	0	2518679552	37	4229
2026-01-09 15:52:43.69	288.40	20.94	-34.1	-35.2	19.3	0.00e+00	0	56	0	2548039680	37	4396
2026-01-09 15:52:47.74	289.40	20.78	-34.2	-35.2	19.2	0.00e+00	0	56	0	2576351232	38	4192
2026-01-09 15:52:51.77	290.38	20.61	-34.1	-35.2	19.2	0.00e+00	0	56	0	2605711360	38	4165
2026-01-09 15:52:55.81	291.35	20.44	-34.0	-35.1	19.3	0.00e+00	0	56	0	2635071488	38	4121
2026-01-09 15:52:59.85	292.32	20.26	-34.1	-35.2	19.2	0.00e+00	0	56	0	2664431616	38	4146
2026-01-09 15:53:03.89	293.27	20.07	-34.3	-35.4	19.0	0.00e+00	0	56	0	2693791744	38	4258
2026-01-09 15:53:07.93	294.21	19.88	-34.2	-35.3	19.0	0.00e+00	0	56	0	2722103296	38	4239
2026-01-09 15:53:11.97	295.13	19.68	-34.4	-35.5	18.8	0.00e+00	0	56	0	2751463424	38	4311
2026-01-09 15:53:16.01	296.05	19.47	-34.4	-35.5	18.8	0.00e+00	0	56	0	2780823552	38	4333
2026-01-09 15:53:20.05	296.95	19.26	-34.2	-35.3	19.0	0.00e+00	0	56	0	2810183680	38	4205
2026-01-09 15:53:24.09	297.84	19.05	-34.3	-35.4	18.9	0.00e+00	0	56	0	2839543808	38	4277
2026-01-09 15:53:28.13	298.72	18.83	-34.7	-35.8	18.5	0.00e+00	0	56	0	2868903936	39	4218
2026-01-09 15:53:32.17	299.59	18.61	-34.7	-35.9	18.4	0.00e+00	0	56	0	2897215488	39	4261
2026-01-09 15:53:36.22	300.44	18.38	-34.6	-35.7	18.6	0.00e+00	0	56	0	2926575616	39	4180
2026-01-09 15:53:40.27	301.29	18.14	-34.7	-35.8	18.5	0.00e+00	0	56	0	2955935744	39	4233
2026-01-09 15:53:44.31	302.12	17.91	-34.6	-35.8	18.5	0.00e+00	0	56	0	2985295872	39	4201
2026-01-09 15:53:48.35	302.93	17.67	-34.7	-35.8	18.5	0.00e+00	0	57	0	3014656000	39	4219
2026-01-09 15:53:52.40	303.74	17.43	-34.8	-36.0	18.4	0.00e+00	0	56	0	3042967552	39	4293
2026-01-09 15:53:56.44	304.53	17.18	-34.9	-36.1	18.2	0.00e+00	0	56	0	3072327680	39	4354
2026-01-09 15:54:00.48	305.31	16.93	-35.0	-36.2	18.1	0.00e+00	0	57	0	3101687808	39	4401
2026-01-09 15:54:04.52	306.07	16.69	-34.9	-36.1	18.2	0.00e+00	0	56	0	3131047936	39	4386
2026-01-09 15:54:08.57	306.83	16.43	-34.9	-36.0	18.2	0.00e+00	0	57	0	3160408064	39	4322
2026-01-09 15:54:12.61	307.57	16.18	-35.0	-36.2	18.0	0.00e+00	0	56	0	3189768192	39	4433
2026-01-09 15:54:16.65	308.29	15.92	-35.2	-36.4	17.7	0.00e+00	0	56	0	3218079744	40	4284
2026-01-09 15:54:20.69	309.01	15.67	-35.2	-36.4	17.8	0.00e+00	0	56	0	3247439872	40	4276
2026-01-09 15:54:24.73	309.72	15.41	-35.3	-36.6	17.5	0.00e+00	0	56	0	3276800000	40	4370
2026-01-09 15:54:28.78	310.41	15.15	-35.3	-36.6	17.6	0.00e+00	0	56	0	3306160128	40	4349
2026-01-09 15:54:32.82	311.09	14.89	-35.2	-36.4	17.7	0.00e+00	0	56	0	3335520256	40	4282
2026-01-09 15:54:36.86	311.76	14.62	-35.4	-36.7	17.4	0.00e+00	0	56	0	3363831808	40	4407
2026-01-09 15:54:40.91	312.42	14.36	-35.8	-37.1	17.0	0.00e+00	0	56	0	3393191936	41	4369
2026-01-09 15:54:44.95	313.07	14.10	-35.8	-37.1	17.0	0.00e+00	0	56	0	3422552064	41	4355
2026-01-09 15:54:48.99	313.70	13.84	-35.3	-36.6	17.4	0.00e+00	0	56	0	3451912192	41	4120
2026-01-09 15:54:53.03	314.33	13.57	-35.1	-36.3	17.7	0.00e+00	0	56	0	3481272320	41	4001
2026-01-09 15:54:57.07	314.94	13.31	-35.3	-36.6	17.4	0.00e+00	0	56	0	3510632448	41	4108
2026-01-09 15:55:01.11	315.55	13.04	-35.5	-36.8	17.2	0.00e+00	0	57	0	3538944000	41	4206
2026-01-09 15:55:05.15	316.14	12.78	-35.9	-37.2	16.8	0.00e+00	0	57	0	3568304128	41	4430
2026-01-09 15:55:09.20	316.72	12.52	-36.0	-37.4	16.6	0.00e+00	0	57	0	3597664256	41	4497
2026-01-09 15:55:13.24	317.30	12.25	-36.0	-37.4	16.6	0.00e+00	0	56	0	3627024384	41	4497
2026-01-09 15:55:17.28	317.86	11.99	-35.7	-37.1	16.9	0.00e+00	0	57	0	3656384512	41	4357
2026-01-09 15:55:21.33	318.41	11.73	-35.8	-37.2	16.7	0.00e+00	0	56	0	3685744640	41	4400
2026-01-09 15:55:25.37	318.96	11.47	-36.0	-37.4	16.5	0.00e+00	0	57	0	3714056192	41	4531
2026-01-09 15:55:29.41	319.49	11.21	-36.4	-37.9	16.0	0.00e+00	0	56	0	3743416320	42	4520
2026-01-09 15:55:33.46	320.02	10.94	-36.5	-38.0	15.9	0.00e+00	0	57	0	3772776448	42	4576
2026-01-09 15:55:37.50	320.54	10.68	-36.3	-37.8	16.1	0.00e+00	0	56	0	3802136576	42	4465
2026-01-09 15:55:41.54	321.04	10.43	-36.5	-38.0	15.9	0.00e+00	0	56	0	3831496704	42	4548
2026-01-09 15:55:45.58	321.54	10.17	-36.4	-37.9	15.9	0.00e+00	0	56	0	3860856832	42	4502
2026-01-09 15:55:49.63	322.04	9.91	-36.3	-37.8	16.0	0.00e+00	0	57	0	3890216960	42	4483
2026-01-09 15:55:53.67	322.52	9.65	-36.4	-37.8	15.9	0.00e+00	0	56	0	3918528512	42	4476
2026-01-09 15:55:57.71	322.99	9.40	-36.5	-38.0	15.8	0.00e+00	0	57	0	3947888640	42	4555
2026-01-09 15:56:01.75	323.46	9.14	-36.8	-38.4	15.3	0.00e+00	0	57	0	3977248768	43	4538
2026-01-09 15:56:05.79	323.92	8.89	-36.7	-38.3	15.4	0.00e+00	0	57	0	4006608896	43	4465
2026-01-09 15:56:09.83	324.37	8.64	-37.1	-38.8	14.9	0.00e+00	0	57	0	4035969024	43	4721
2026-01-09 15:56:13.88	324.82	8.38	-37.4	-39.1	14.7	2.20e-06	0	57	0	4065329152	44	4607
2026-01-09 15:56:17.92	325.25	8.13	-37.0	-38.6	15.1	0.00e+00	0	56	0	4093640704	44	4360
2026-01-09 15:56:21.96	325.68	7.89	-44.5	-55.5	3.8	8.46e-01	0	57	104	4113563648	58	13664
2026-01-09 15:56:26.00	326.11	7.64	-45.2	-56.4	3.8	8.47e-01	0	57	104	4113563648	60	13545
2026-01-09 15:56:30.04	326.52	7.39	-45.2	-56.5	3.8	8.47e-01	0	57	104	4113563648	60	13725
2026-01-09 15:56:34.09	326.93	7.14	-45.1	-56.4	3.8	8.45e-01	0	57	104	4113563648	60	13534
2026-01-09 15:56:38.13	327.33	6.90	-45.1	-56.4	3.8	8.46e-01	0	57	104	4113563648	60	13473
2026-01-09 15:56:42.17	327.73	6.66	-45.1	-56.4	3.8	8.45e-01	0	57	104	4113563648	60	13534
2026-01-09 15:56:46.21	328.12	6.41	-45.0	-56.4	3.8	8.46e-01	0	57	104	4113563648	60	13522
2026-01-09 15:56:50.25	328.50	6.17	-45.1	-56.4	3.8	8.45e-01	0	57	104	4113563648	60	13488
2026-01-09 15:56:54.29	328.88	5.93	-45.1	-56.4	3.8	8.45e-01	0	57	104	4113563648	60	13502
2026-01-09 15:56:58.33	329.25	5.70	-45.2	-56.2	3.8	8.46e-01	0	57	104	4113563648	59	13940
2026-01-09 15:57:02.38	329.62	5.46	-45.2	-56.2	3.8	8.46e-01	0	57	104	4113563648	59	13897
2026-01-09 15:57:06.42	329.98	5.22	-45.2	-56.2	3.8	8.46e-01	0	57	104	4113563648	59	13909
2026-01-09 15:57:10.47	330.34	4.99	-45.2	-56.2	3.8	8.47e-01	0	57	104	4113563648	59	13961
2026-01-09 15:57:14.51	330.69	4.75	-45.1	-56.2	3.8	8.46e-01	0	57	104	4113563648	59	13920
2026-01-09 15:57:18.55	331.03	4.52	-45.1	-56.2	3.8	8.47e-01	0	57	104	4113563648	59	13930
2026-01-09 15:57:22.60	331.37	4.29	-45.1	-56.2	3.8	8.46e-01	0	57	104	4113563648	59	13908
2026-01-09 15:57:26.63	331.71	4.06	-45.1	-56.2	3.8	8.46e-01	0	57	104	4113563648	59	13965
2026-01-09 15:57:30.67	332.04	3.83	-45.2	-56.2	3.8	8.46e-01	0	57	104	4113563648	59	13905
2026-01-09 15:57:34.71	332.36	3.60	-45.1	-56.2	3.8	8.47e-01	0	57	104	4113563648	59	13933
2026-01-09 15:57:38.76	332.68	3.38	-45.1	-56.2	3.8	8.46e-01	0	57	104	4113563648	59	13966
2026-01-09 15:57:42.80	333.00	3.15	-45.1	-56.2	3.8	8.46e-01	0	57	104	4113563648	59	13898
2026-01-09 15:57:46.84	333.31	2.93	-45.2	-56.2	3.8	8.46e-01	0	57	104	4113563648	59	13931
2026-01-09 15:57:50.89	333.62	2.70	-45.1	-56.2	3.8	8.46e-01	0	57	104	4113563648	59	13919
2026-01-09 15:57:54.94	333.92	2.48	-45.2	-56.2	3.8	8.47e-01	0	57	104	4113563648	59	13913
2026-01-09 15:57:58.98	334.22	2.26	-45.2	-56.2	3.8	8.47e-01	0	57	104	4113563648	59	13922
2026-01-09 15:58:03.02	334.51	2.04	-45.2	-56.2	3.8	8.46e-01	0	57	104	4113563648	59	13953

#Closed at: 2026-01-09 15:58:04
#Recorded file [4113 MB]: D:/lorett/data/31039_260109_184514.dat