passes_logs/2026/01/09/R2.0S_Moscow/R2.0S_Moscow__20260109_012719_SUOMI_NPP_rec.log

#Pass ID: 20260109_012719_SUOMI NPP
#Satellite: SUOMI NPP
#Configuration: NPP
#almurnet v.1.7.20251203
#Start time: 2026-01-09 01:27:21

#Version: 2.2.20231116
#Station: R2.0S_Moscow
#Location: 37.707566 lon 55.798166 lat
#TLE: 1 37849U 11061A   26008.05542337  .00000108  00000+0  71976-4 0  9997
#TLE: 2 37849  98.7805 310.1641 0002540  75.6410 284.5048 14.19523335735721

#Time	Az	El	Level	Level2	SNR	BER	BlckErr	Temp	State	Recorded	gain1	gain2
2026-01-09 01:27:21.51	10.01	2.13	-39.3	-54.2	3.8	1.49e+00	0	47	0	0	50	19735
2026-01-09 01:27:24.53	9.80	2.30	-39.4	-54.2	3.8	1.49e+00	0	47	104	0	49	20870
2026-01-09 01:27:27.56	9.60	2.47	-39.3	-54.2	3.8	1.49e+00	0	48	104	0	49	20891
2026-01-09 01:27:30.60	9.39	2.64	-39.3	-54.2	3.8	1.49e+00	0	48	104	0	49	20843
2026-01-09 01:27:33.63	9.18	2.81	-39.3	-54.2	3.8	1.49e+00	0	48	104	0	49	20860
2026-01-09 01:27:36.66	8.97	2.99	-39.3	-54.2	3.8	1.49e+00	0	48	104	0	49	20805
2026-01-09 01:27:39.69	8.76	3.16	-39.3	-54.2	3.8	1.49e+00	0	49	104	0	49	20894
2026-01-09 01:27:42.72	8.54	3.34	-39.3	-54.2	3.8	1.49e+00	0	49	104	0	49	20828
2026-01-09 01:27:45.76	8.32	3.51	-39.3	-54.1	3.8	1.49e+00	0	49	104	0	49	20758
2026-01-09 01:27:48.79	8.09	3.69	-39.3	-54.2	3.8	1.49e+00	0	49	104	0	49	20813
2026-01-09 01:27:51.82	7.87	3.86	-39.3	-54.2	3.8	1.49e+00	0	49	104	0	49	20784
2026-01-09 01:27:54.86	7.64	4.04	-39.3	-54.2	3.8	1.49e+00	0	50	104	0	49	20801
2026-01-09 01:27:57.89	7.41	4.22	-39.3	-54.2	3.8	1.49e+00	0	50	104	0	49	20829
2026-01-09 01:28:00.92	7.17	4.40	-39.3	-54.1	3.8	1.49e+00	0	50	104	0	49	20740
2026-01-09 01:28:03.95	6.93	4.58	-39.3	-54.1	3.8	1.49e+00	0	50	104	0	49	20761
2026-01-09 01:28:06.98	6.69	4.76	-39.3	-54.2	3.8	1.49e+00	0	50	104	0	49	20796
2026-01-09 01:28:10.01	6.45	4.94	-39.3	-54.2	3.8	1.49e+00	0	50	104	0	49	20837
2026-01-09 01:28:13.05	6.20	5.12	-39.3	-54.1	3.8	1.49e+00	0	50	104	0	49	20751
2026-01-09 01:28:16.08	5.95	5.30	-39.3	-54.1	3.8	1.49e+00	0	51	104	0	49	20775
2026-01-09 01:28:19.11	5.70	5.49	-39.3	-54.1	3.8	1.49e+00	0	51	104	0	49	20725
2026-01-09 01:28:22.14	5.44	5.67	-39.3	-54.2	3.8	1.49e+00	0	51	104	0	49	20789
2026-01-09 01:28:25.17	5.18	5.85	-39.3	-54.2	3.8	1.49e+00	0	51	104	0	49	20781
2026-01-09 01:28:28.21	4.92	6.04	-39.3	-54.2	3.8	1.49e+00	0	51	104	0	49	20845
2026-01-09 01:28:31.24	4.65	6.23	-39.3	-54.2	3.8	1.49e+00	0	51	104	0	49	20830
2026-01-09 01:28:34.27	4.38	6.41	-39.3	-54.1	3.8	1.49e+00	0	52	104	0	49	20743
2026-01-09 01:28:37.30	4.10	6.60	-39.3	-54.1	3.8	1.49e+00	0	52	104	0	49	20715
2026-01-09 01:28:40.33	3.82	6.79	-39.3	-54.2	3.8	1.49e+00	0	52	104	0	49	20817
2026-01-09 01:28:43.36	3.54	6.98	-39.3	-54.1	3.8	1.49e+00	0	52	104	0	49	20731
2026-01-09 01:28:46.40	3.25	7.17	-39.3	-54.1	3.8	1.49e+00	0	52	104	0	49	20749
2026-01-09 01:28:49.43	2.96	7.36	-39.3	-54.2	3.8	1.49e+00	0	52	104	0	49	20783
2026-01-09 01:28:52.46	2.67	7.55	-39.3	-54.1	3.8	1.49e+00	0	52	104	0	49	20759
2026-01-09 01:28:55.49	2.37	7.74	-39.3	-54.1	3.8	1.49e+00	0	53	104	0	49	20767
2026-01-09 01:28:58.52	2.07	7.93	-39.3	-54.1	3.8	1.49e+00	0	52	104	0	49	20690
2026-01-09 01:29:01.55	1.76	8.13	-39.3	-54.2	3.8	1.49e+00	0	53	104	0	49	20782
2026-01-09 01:29:04.58	1.45	8.32	-39.3	-54.2	3.8	1.49e+00	0	53	104	0	49	20853
2026-01-09 01:29:07.61	1.14	8.51	-39.4	-54.2	3.8	1.49e+00	0	53	104	0	49	20963
2026-01-09 01:29:10.64	0.82	8.71	-39.2	-54.2	3.8	1.49e+00	0	53	104	0	49	20802
2026-01-09 01:29:13.67	0.50	8.91	-39.1	-54.3	3.8	1.49e+00	0	53	104	0	49	21118
2026-01-09 01:29:16.70	0.17	9.10	-39.0	-54.3	3.8	1.49e+00	0	53	104	0	49	21031
2026-01-09 01:29:19.73	359.83	9.30	-39.0	-54.2	3.8	1.49e+00	0	53	104	0	49	20869
2026-01-09 01:29:22.76	359.50	9.50	-39.0	-54.3	3.8	1.49e+00	0	53	104	0	49	21101
2026-01-09 01:29:25.78	359.16	9.69	-39.1	-54.2	3.8	1.49e+00	0	53	104	0	49	20778
2026-01-09 01:29:28.81	358.81	9.89	-39.0	-54.2	3.8	1.49e+00	0	53	104	0	49	20886
2026-01-09 01:29:31.84	358.46	10.09	-39.3	-54.2	3.8	1.49e+00	0	53	104	0	49	20896
2026-01-09 01:29:34.87	358.10	10.29	-38.6	-54.1	3.8	1.49e+00	0	54	104	0	49	20619
2026-01-09 01:29:37.89	357.74	10.49	-39.0	-54.2	3.8	1.49e+00	0	54	104	0	49	20849
2026-01-09 01:29:40.92	357.37	10.69	-38.7	-54.1	3.8	1.49e+00	0	54	104	0	49	20573
2026-01-09 01:29:43.95	357.00	10.89	-39.3	-54.2	3.9	1.49e+00	0	54	104	0	49	20953
2026-01-09 01:29:46.98	356.62	11.10	-39.0	-54.2	3.8	1.49e+00	0	54	104	0	49	20870
2026-01-09 01:29:50.01	356.24	11.30	-39.8	-54.3	3.8	1.49e+00	0	54	104	0	50	19962
2026-01-09 01:29:53.04	355.85	11.50	-39.2	-54.2	3.8	1.49e+00	0	54	104	0	49	20881
2026-01-09 01:29:56.06	355.46	11.70	-40.0	-54.9	3.8	1.49e+00	0	54	104	0	50	21275
2026-01-09 01:29:59.09	355.06	11.91	-39.6	-54.3	3.8	1.49e+00	0	54	104	0	50	19845
2026-01-09 01:30:02.12	354.65	12.11	-39.6	-54.3	3.8	1.49e+00	0	54	104	0	50	19976
2026-01-09 01:30:05.15	354.24	12.31	-39.8	-54.5	3.8	1.49e+00	0	54	104	0	50	20525
2026-01-09 01:30:08.17	353.82	12.52	-39.9	-54.6	3.8	1.49e+00	0	54	104	0	50	20682
2026-01-09 01:30:11.20	353.40	12.72	-39.1	-54.7	3.8	1.49e+00	0	54	104	0	50	20835
2026-01-09 01:30:14.23	352.97	12.93	-40.4	-54.9	3.8	1.49e+00	0	54	104	0	51	20267
2026-01-09 01:30:17.26	352.54	13.13	-40.1	-55.1	3.8	1.49e+00	0	55	104	0	51	20646
2026-01-09 01:30:20.29	352.09	13.34	-40.2	-54.9	3.8	1.49e+00	0	54	104	0	51	20255
2026-01-09 01:30:23.32	351.65	13.54	-40.4	-55.0	3.8	1.49e+00	0	54	104	0	51	20411
2026-01-09 01:30:26.35	351.19	13.75	-40.3	-55.0	3.8	1.49e+00	0	54	104	0	51	20414
2026-01-09 01:30:29.38	350.73	13.95	-40.4	-55.1	3.8	1.49e+00	0	54	104	0	51	20640
2026-01-09 01:30:32.40	350.27	14.15	-40.4	-55.1	3.8	1.49e+00	0	55	104	0	51	20676
2026-01-09 01:30:35.43	349.79	14.36	-40.2	-55.2	3.8	1.49e+00	0	55	104	0	51	20787
2026-01-09 01:30:38.46	349.31	14.56	-40.2	-55.2	3.8	1.49e+00	0	55	104	0	52	19770
2026-01-09 01:30:41.49	348.82	14.76	-40.6	-55.5	3.8	1.49e+00	0	55	104	0	52	20384
2026-01-09 01:30:44.52	348.33	14.97	-41.0	-55.7	3.8	1.49e+00	0	55	104	0	52	20798
2026-01-09 01:30:47.54	347.83	15.17	-41.1	-55.7	3.8	1.49e+00	0	55	104	0	53	19756
2026-01-09 01:30:50.57	347.32	15.37	-41.2	-56.0	3.8	1.49e+00	0	55	104	0	53	20336
2026-01-09 01:30:53.60	346.81	15.57	-41.3	-56.1	3.8	1.49e+00	0	55	104	0	53	20599
2026-01-09 01:30:56.63	346.29	15.77	-41.2	-55.8	3.8	1.49e+00	0	55	104	0	53	19971
2026-01-09 01:30:59.65	345.76	15.97	-40.3	-55.2	3.8	1.49e+00	0	55	104	0	52	19666
2026-01-09 01:31:02.68	345.22	16.17	-40.2	-55.0	3.8	1.49e+00	0	55	104	0	52	19359
2026-01-09 01:31:05.71	344.68	16.37	-40.3	-55.0	3.8	1.49e+00	0	55	104	0	52	19233
2026-01-09 01:31:08.74	344.13	16.57	-40.7	-55.3	3.8	1.49e+00	0	55	104	0	52	19962
2026-01-09 01:31:11.77	343.57	16.76	-40.0	-55.0	3.8	1.49e+00	0	55	104	0	52	19248
2026-01-09 01:31:14.79	343.00	16.95	-40.1	-55.0	3.8	1.49e+00	0	55	104	0	51	20413
2026-01-09 01:31:17.82	342.43	17.15	-40.0	-55.2	3.8	1.49e+00	0	55	104	0	51	20842
2026-01-09 01:31:20.85	341.85	17.34	-40.1	-55.1	3.8	1.49e+00	0	55	104	0	51	20688
2026-01-09 01:31:23.88	341.26	17.53	-40.0	-54.9	3.8	1.49e+00	0	55	104	0	51	20290
2026-01-09 01:31:26.91	340.67	17.72	-40.0	-54.8	3.8	1.49e+00	0	55	104	0	51	20037
2026-01-09 01:31:29.94	340.06	17.90	-40.8	-53.8	3.8	1.49e+00	0	56	104	0	52	16797
2026-01-09 01:31:32.97	339.45	18.09	-42.0	-53.6	4.1	7.61e-01	0	55	0	1048576	54	14608
2026-01-09 01:31:36.00	338.83	18.27	-40.1	-44.0	12.3	3.30e-04	0	55	0	5242880	51	5775
2026-01-09 01:31:39.03	338.21	18.45	-39.5	-42.8	13.9	7.60e-06	0	55	0	11534336	51	5041
2026-01-09 01:31:42.06	337.57	18.63	-39.6	-42.7	14.3	2.20e-06	0	56	0	16777216	50	5232
2026-01-09 01:31:45.08	336.93	18.80	-39.3	-42.0	15.2	0.00e+00	0	55	0	23068672	50	4833
2026-01-09 01:31:48.11	336.28	18.98	-39.6	-42.5	14.7	0.00e+00	0	55	0	28311552	50	5149
2026-01-09 01:31:51.14	335.63	19.15	-39.8	-42.7	14.6	7.00e-07	0	55	0	34603008	50	5273
2026-01-09 01:31:54.17	334.96	19.32	-39.5	-42.3	15.0	0.00e+00	0	55	0	39845888	50	4986
2026-01-09 01:31:57.20	334.29	19.48	-39.5	-42.3	15.1	0.00e+00	0	56	0	45088768	50	5022
2026-01-09 01:32:00.22	333.62	19.64	-39.5	-42.3	15.1	0.00e+00	0	55	0	51380224	50	5003
2026-01-09 01:32:03.25	332.93	19.80	-39.3	-41.9	15.6	0.00e+00	0	55	0	56623104	50	4766
2026-01-09 01:32:06.28	332.24	19.95	-39.4	-42.0	15.5	0.00e+00	0	55	0	62914560	50	4846
2026-01-09 01:32:09.31	331.54	20.11	-39.5	-42.2	15.2	0.00e+00	0	56	0	68157440	50	4980
2026-01-09 01:32:12.34	330.83	20.25	-39.1	-41.5	16.0	0.00e+00	0	56	0	73400320	50	4570
2026-01-09 01:32:15.37	330.12	20.40	-38.7	-41.0	16.5	0.00e+00	0	55	0	79691776	49	4551
2026-01-09 01:32:18.40	329.40	20.54	-38.9	-41.3	16.2	0.00e+00	0	56	0	84934656	49	4727
2026-01-09 01:32:21.43	328.67	20.67	-38.9	-41.2	16.3	0.00e+00	0	56	0	91226112	49	4685
2026-01-09 01:32:24.45	327.94	20.81	-38.9	-41.2	16.4	0.00e+00	0	56	0	96468992	49	4661
2026-01-09 01:32:27.48	327.20	20.93	-39.3	-41.8	15.7	0.00e+00	0	56	0	102760448	49	5003
2026-01-09 01:32:30.51	326.46	21.06	-39.4	-42.0	15.5	0.00e+00	0	56	0	108003328	49	5125
2026-01-09 01:32:33.54	325.70	21.17	-38.9	-41.2	16.3	0.00e+00	0	55	0	113246208	49	4699
2026-01-09 01:32:36.56	324.95	21.29	-38.9	-41.2	16.3	0.00e+00	0	56	0	119537664	49	4691
2026-01-09 01:32:39.59	324.19	21.40	-39.0	-41.3	16.2	0.00e+00	0	56	0	124780544	49	4714
2026-01-09 01:32:42.62	323.42	21.50	-38.8	-41.1	16.5	0.00e+00	0	56	0	131072000	49	4599
2026-01-09 01:32:45.65	322.64	21.60	-38.6	-40.8	16.8	0.00e+00	0	56	0	136314880	48	4712
2026-01-09 01:32:48.68	321.87	21.69	-39.5	-42.1	15.5	0.00e+00	0	56	0	141557760	49	5163
2026-01-09 01:32:51.70	321.08	21.78	-40.1	-43.0	14.5	7.00e-07	0	56	0	147849216	50	5437
2026-01-09 01:32:54.73	320.30	21.86	-40.2	-43.2	14.4	0.00e+00	0	56	0	153092096	50	5529
2026-01-09 01:32:57.76	319.51	21.94	-40.3	-43.5	14.1	2.20e-06	0	56	0	159383552	51	5408
2026-01-09 01:33:00.79	318.71	22.01	-40.3	-43.3	14.2	2.20e-06	0	56	0	164626432	51	5324
2026-01-09 01:33:03.81	317.91	22.08	-39.7	-42.4	15.1	0.00e+00	0	56	0	170917888	51	4766
2026-01-09 01:33:06.84	317.11	22.14	-39.7	-42.5	15.0	0.00e+00	0	56	0	176160768	51	4829
2026-01-09 01:33:09.87	316.31	22.19	-40.2	-43.2	14.3	3.00e-06	0	56	0	181403648	51	5265
2026-01-09 01:33:12.90	315.50	22.24	-40.1	-43.1	14.3	1.50e-06	0	56	0	187695104	51	5199
2026-01-09 01:33:15.93	314.69	22.29	-39.9	-42.8	14.7	0.00e+00	0	56	0	192937984	51	4995
2026-01-09 01:33:18.96	313.87	22.32	-40.3	-43.4	14.1	7.00e-07	0	56	0	199229440	51	5359
2026-01-09 01:33:21.98	313.06	22.35	-40.3	-43.5	14.0	1.50e-06	0	56	0	204472320	51	5421
2026-01-09 01:33:25.02	312.24	22.38	-40.6	-43.9	13.6	3.80e-06	0	56	0	209715200	51	5714
2026-01-09 01:33:28.04	311.43	22.39	-40.6	-44.0	13.4	2.36e-05	0	56	0	216006656	52	5459
2026-01-09 01:33:31.07	310.61	22.40	-41.0	-44.8	12.6	3.73e-05	0	56	0	221249536	52	5961
2026-01-09 01:33:34.10	309.79	22.41	-40.6	-44.2	13.2	3.73e-05	0	56	0	227540992	52	5539
2026-01-09 01:33:37.13	308.97	22.41	-40.2	-43.4	13.9	3.80e-06	0	56	0	232783872	52	5063
2026-01-09 01:33:40.16	308.15	22.40	-39.7	-42.5	14.9	0.00e+00	0	56	0	238026752	51	4839
2026-01-09 01:33:43.18	307.34	22.39	-39.6	-42.3	15.1	0.00e+00	0	56	0	244318208	51	4744
2026-01-09 01:33:46.21	306.52	22.37	-39.5	-42.3	15.2	0.00e+00	0	56	0	249561088	50	5000
2026-01-09 01:33:49.24	305.70	22.34	-40.1	-43.2	14.3	0.00e+00	0	56	0	255852544	50	5574
2026-01-09 01:33:52.27	304.89	22.31	-40.2	-43.3	14.2	3.00e-06	0	56	0	261095424	51	5299
2026-01-09 01:33:55.30	304.08	22.27	-39.7	-42.5	14.9	7.00e-07	0	56	0	267386880	51	4864
2026-01-09 01:33:58.32	303.27	22.23	-39.3	-41.8	15.7	0.00e+00	0	56	0	272629760	50	4749
2026-01-09 01:34:01.35	302.46	22.18	-39.5	-42.1	15.3	0.00e+00	0	56	0	277872640	50	4925
2026-01-09 01:34:04.38	301.66	22.12	-39.3	-41.7	15.8	0.00e+00	0	56	0	284164096	50	4697
2026-01-09 01:34:07.41	300.85	22.06	-39.4	-41.9	15.6	0.00e+00	0	56	0	289406976	50	4802
2026-01-09 01:34:10.43	300.06	21.99	-39.3	-41.7	15.8	0.00e+00	0	56	0	295698432	50	4688
2026-01-09 01:34:13.46	299.26	21.92	-38.9	-41.1	16.4	0.00e+00	0	56	0	300941312	49	4639
2026-01-09 01:34:16.49	298.47	21.84	-38.7	-40.9	16.6	0.00e+00	0	56	0	306184192	49	4501
2026-01-09 01:34:19.52	297.68	21.76	-38.9	-41.2	16.3	0.00e+00	0	56	0	312475648	49	4692
2026-01-09 01:34:22.55	296.90	21.67	-38.9	-41.1	16.3	0.00e+00	0	56	0	317718528	49	4650
2026-01-09 01:34:25.58	296.12	21.57	-38.8	-41.0	16.4	0.00e+00	0	56	0	324009984	49	4588
2026-01-09 01:34:28.60	295.35	21.47	-38.6	-40.8	16.7	0.00e+00	0	56	0	329252864	49	4453
2026-01-09 01:34:31.63	294.58	21.37	-39.1	-41.6	16.0	0.00e+00	0	56	0	335544320	49	4873
2026-01-09 01:34:34.66	293.82	21.25	-39.8	-42.6	14.8	0.00e+00	0	56	0	340787200	50	5199
2026-01-09 01:34:37.69	293.06	21.14	-39.7	-42.3	15.2	0.00e+00	0	56	0	346030080	50	5020
2026-01-09 01:34:40.71	292.31	21.02	-39.4	-42.0	15.5	0.00e+00	0	56	0	352321536	50	4816
2026-01-09 01:34:43.74	291.56	20.89	-39.8	-42.6	14.9	0.00e+00	0	56	0	357564416	50	5178
2026-01-09 01:34:46.77	290.82	20.77	-40.3	-43.3	14.2	1.50e-06	0	56	0	363855872	51	5337
2026-01-09 01:34:49.79	290.09	20.63	-40.5	-43.7	13.8	1.50e-06	0	56	0	369098752	51	5546
2026-01-09 01:34:52.82	289.37	20.49	-40.3	-43.3	14.2	1.50e-06	0	56	0	374341632	51	5305
2026-01-09 01:34:55.85	288.65	20.35	-40.1	-43.0	14.6	0.00e+00	0	56	0	380633088	51	5101
2026-01-09 01:34:58.88	287.93	20.21	-40.2	-43.3	14.2	7.00e-07	0	56	0	385875968	51	5309
2026-01-09 01:35:01.90	287.23	20.06	-40.1	-43.0	14.4	7.00e-07	0	56	0	392167424	51	5158
2026-01-09 01:35:04.93	286.53	19.91	-39.8	-42.6	14.9	0.00e+00	0	56	0	397410304	51	4877
2026-01-09 01:35:07.96	285.83	19.75	-39.3	-41.9	15.5	0.00e+00	0	56	0	403701760	50	4772
2026-01-09 01:35:10.99	285.15	19.59	-39.3	-41.8	15.7	0.00e+00	0	56	0	408944640	50	4732
2026-01-09 01:35:14.02	284.47	19.43	-39.7	-42.4	15.0	0.00e+00	0	56	0	414187520	50	5093
2026-01-09 01:35:17.05	283.80	19.26	-40.3	-43.5	13.9	3.80e-06	0	56	0	420478976	51	5423
2026-01-09 01:35:20.07	283.14	19.09	-40.6	-44.1	13.2	2.51e-05	0	56	0	425721856	52	5488
2026-01-09 01:35:23.10	282.48	18.92	-40.6	-44.1	13.2	2.05e-05	0	56	0	432013312	52	5514
2026-01-09 01:35:26.13	281.83	18.75	-41.2	-45.5	11.7	3.25e-04	0	56	0	437256192	53	6103
2026-01-09 01:35:29.16	281.19	18.57	-41.4	-45.9	11.3	1.00e-03	0	56	0	442499072	53	6402
2026-01-09 01:35:32.19	280.56	18.39	-40.5	-44.1	13.1	6.48e-05	0	56	0	448790528	53	5195
2026-01-09 01:35:35.21	279.93	18.21	-39.8	-42.7	14.7	0.00e+00	0	56	0	454033408	51	4927
2026-01-09 01:35:38.24	279.31	18.03	-39.6	-42.4	15.0	0.00e+00	0	56	0	460324864	51	4791
2026-01-09 01:35:41.27	278.70	17.84	-39.6	-42.4	14.9	0.00e+00	0	56	0	465567744	50	5078
2026-01-09 01:35:44.29	278.10	17.65	-39.9	-42.9	14.4	3.00e-06	0	56	0	470810624	50	5347
2026-01-09 01:35:47.33	277.50	17.46	-39.5	-42.2	15.1	0.00e+00	0	56	0	477102080	50	4948
2026-01-09 01:35:50.36	276.91	17.27	-39.3	-41.9	15.4	0.00e+00	0	56	0	482344960	50	4795
2026-01-09 01:35:53.38	276.33	17.08	-40.1	-43.3	14.0	0.00e+00	0	56	0	488636416	50	5602
2026-01-09 01:35:56.41	275.76	16.89	-40.6	-44.3	12.8	5.03e-05	0	56	0	493879296	52	5656
2026-01-09 01:35:59.44	275.19	16.69	-40.4	-43.9	13.3	2.44e-05	0	56	0	500170752	52	5387
2026-01-09 01:36:02.46	274.64	16.50	-40.2	-43.5	13.6	2.20e-06	0	56	0	505413632	52	5140
2026-01-09 01:36:05.49	274.08	16.30	-39.9	-43.0	14.2	2.20e-06	0	56	0	510656512	51	5133
2026-01-09 01:36:08.52	273.54	16.10	-39.9	-42.9	14.4	7.00e-07	0	56	0	516947968	51	5097
2026-01-09 01:36:11.55	273.00	15.90	-40.0	-43.1	14.1	0.00e+00	0	56	0	522190848	51	5207
2026-01-09 01:36:14.58	272.47	15.70	-40.5	-44.0	13.2	9.90e-06	0	56	0	528482304	51	5768
2026-01-09 01:36:17.61	271.95	15.50	-40.4	-43.8	13.4	1.98e-05	0	56	0	533725184	51	5654
2026-01-09 01:36:20.63	271.43	15.30	-40.0	-43.1	14.1	5.30e-06	0	56	0	538968064	51	5189
2026-01-09 01:36:23.66	270.93	15.09	-40.0	-43.0	14.2	1.50e-06	0	56	0	545259520	51	5147
2026-01-09 01:36:26.69	270.42	14.89	-40.5	-43.7	13.6	1.50e-06	0	56	0	550502400	51	5529
2026-01-09 01:36:29.72	269.93	14.69	-40.6	-43.8	13.5	9.90e-06	0	56	0	556793856	51	5607
2026-01-09 01:36:32.74	269.44	14.48	-40.2	-43.1	14.1	2.20e-06	0	56	0	562036736	51	5217
2026-01-09 01:36:35.77	268.96	14.28	-39.8	-42.5	14.8	0.00e+00	0	56	0	568328192	51	4848
2026-01-09 01:36:38.80	268.49	14.07	-39.9	-42.7	14.6	0.00e+00	0	56	0	573571072	51	4935
2026-01-09 01:36:41.83	268.02	13.87	-39.7	-42.3	15.0	0.00e+00	0	56	0	578813952	51	4728
2026-01-09 01:36:44.86	267.56	13.66	-39.0	-41.3	15.9	0.00e+00	0	56	0	585105408	50	4486
2026-01-09 01:36:47.88	267.10	13.46	-39.1	-41.5	15.8	0.00e+00	0	56	0	590348288	49	4819
2026-01-09 01:36:50.91	266.65	13.25	-39.3	-41.8	15.4	0.00e+00	0	56	0	596639744	49	5000
2026-01-09 01:36:53.94	266.21	13.05	-39.8	-42.5	14.8	0.00e+00	0	56	0	601882624	50	5131
2026-01-09 01:36:56.96	265.78	12.84	-40.0	-42.8	14.5	0.00e+00	0	56	0	607125504	50	5306
2026-01-09 01:37:00.00	265.34	12.64	-39.7	-42.3	14.9	7.00e-07	0	56	0	613416960	50	5019
2026-01-09 01:37:03.02	264.92	12.43	-39.3	-41.7	15.5	0.00e+00	0	56	0	618659840	50	4688
2026-01-09 01:37:06.05	264.50	12.23	-39.2	-41.6	15.5	0.00e+00	0	56	0	624951296	50	4648
2026-01-09 01:37:09.08	264.09	12.02	-39.7	-42.3	14.9	0.00e+00	0	56	0	630194176	50	5023
2026-01-09 01:37:12.11	263.68	11.82	-40.0	-42.8	14.3	0.00e+00	0	56	0	636485632	50	5315
2026-01-09 01:37:15.12	263.29	11.62	-40.3	-43.4	13.7	5.30e-06	0	57	0	641728512	51	5400
2026-01-09 01:37:18.15	262.89	11.41	-40.3	-43.5	13.6	7.60e-06	0	56	0	646971392	51	5427
2026-01-09 01:37:21.18	262.50	11.21	-40.0	-43.0	14.1	7.00e-07	0	56	0	653262848	51	5125
2026-01-09 01:37:24.21	262.12	11.01	-39.6	-42.2	14.9	7.00e-07	0	57	0	658505728	51	4668
2026-01-09 01:37:27.24	261.74	10.80	-39.3	-41.8	15.3	0.00e+00	0	57	0	664797184	50	4749
2026-01-09 01:37:30.26	261.36	10.60	-39.6	-42.3	14.8	7.00e-07	0	56	0	670040064	50	5028
2026-01-09 01:37:33.29	260.99	10.40	-40.3	-43.4	13.7	2.20e-06	0	56	0	675282944	51	5349
2026-01-09 01:37:36.32	260.63	10.20	-40.5	-43.8	13.2	1.75e-05	0	57	0	681574400	51	5648
2026-01-09 01:37:39.35	260.27	10.00	-40.2	-43.4	13.7	2.28e-05	0	56	0	686817280	51	5345
2026-01-09 01:37:42.38	259.92	9.80	-40.1	-43.2	13.9	7.00e-07	0	57	0	693108736	51	5220
2026-01-09 01:37:45.41	259.57	9.60	-40.3	-43.4	13.6	6.80e-06	0	56	0	698351616	51	5379
2026-01-09 01:37:48.44	259.23	9.40	-40.4	-43.7	13.3	1.67e-05	0	56	0	703594496	51	5572
2026-01-09 01:37:51.47	258.89	9.21	-40.5	-43.8	13.1	2.28e-05	0	56	0	709885952	51	5645
2026-01-09 01:37:54.49	258.55	9.01	-40.6	-44.0	13.0	3.81e-05	0	56	0	715128832	51	5725
2026-01-09 01:37:57.52	258.22	8.81	-40.8	-44.4	12.5	9.00e-05	0	57	0	721420288	52	5668
2026-01-09 01:38:00.55	257.90	8.62	-40.8	-44.5	12.4	1.43e-04	0	56	0	726663168	52	5740
2026-01-09 01:38:03.58	257.58	8.42	-40.8	-44.5	12.4	1.46e-04	0	56	0	732954624	52	5732
2026-01-09 01:38:06.61	257.26	8.23	-40.7	-44.3	12.5	9.99e-05	0	56	0	738197504	52	5631
2026-01-09 01:38:09.64	256.95	8.03	-40.7	-44.4	12.5	1.16e-04	0	56	0	743440384	52	5664
2026-01-09 01:38:12.67	256.64	7.84	-44.5	-58.8	3.8	1.49e+00	0	56	104	745537536	59	20020
2026-01-09 01:38:15.70	256.34	7.64	-44.8	-59.3	3.8	1.49e+00	0	56	104	745537536	60	19903
2026-01-09 01:38:18.73	256.04	7.45	-44.9	-59.4	3.8	1.49e+00	0	56	104	745537536	60	20142
2026-01-09 01:38:21.76	255.74	7.26	-44.8	-59.3	3.8	1.49e+00	0	56	104	745537536	60	19922
2026-01-09 01:38:24.79	255.45	7.07	-44.8	-59.3	3.8	1.49e+00	0	57	104	745537536	60	19880
2026-01-09 01:38:27.82	255.16	6.88	-44.8	-59.2	3.8	1.49e+00	0	56	104	745537536	60	19804
2026-01-09 01:38:30.85	254.88	6.69	-44.7	-59.2	3.8	1.49e+00	0	57	104	745537536	60	19769
2026-01-09 01:38:33.88	254.60	6.50	-44.8	-59.2	3.8	1.49e+00	0	57	104	745537536	60	19820
2026-01-09 01:38:36.92	254.32	6.32	-44.7	-59.2	3.8	1.49e+00	0	57	104	745537536	60	19836
2026-01-09 01:38:39.95	254.04	6.13	-44.7	-59.2	3.8	1.49e+00	0	57	104	745537536	60	19756
2026-01-09 01:38:42.98	253.78	5.94	-44.7	-59.2	3.8	1.49e+00	0	57	104	745537536	60	19696
2026-01-09 01:38:46.01	253.51	5.76	-44.7	-59.2	3.8	1.49e+00	0	57	104	745537536	60	19728
2026-01-09 01:38:49.05	253.25	5.57	-44.7	-59.2	3.8	1.49e+00	0	56	104	745537536	60	19781
2026-01-09 01:38:52.08	252.99	5.39	-44.7	-59.2	3.8	1.49e+00	0	57	104	745537536	60	19770
2026-01-09 01:38:55.11	252.73	5.20	-44.7	-59.2	3.8	1.49e+00	0	56	104	745537536	60	19744
2026-01-09 01:38:58.14	252.48	5.02	-44.7	-59.2	3.8	1.49e+00	0	57	104	745537536	60	19695
2026-01-09 01:39:01.17	252.23	4.84	-44.7	-59.2	3.8	1.49e+00	0	57	104	745537536	60	19754
2026-01-09 01:39:04.21	251.98	4.66	-44.7	-59.2	3.8	1.49e+00	0	56	104	745537536	60	19704
2026-01-09 01:39:07.24	251.74	4.48	-44.7	-59.2	3.8	1.49e+00	0	57	104	745537536	60	19722
2026-01-09 01:39:10.27	251.50	4.30	-44.7	-59.2	3.8	1.49e+00	0	56	104	745537536	60	19700
2026-01-09 01:39:13.30	251.26	4.12	-44.7	-59.2	3.8	1.49e+00	0	57	104	745537536	60	19680
2026-01-09 01:39:16.33	251.03	3.94	-44.7	-59.2	3.8	1.49e+00	0	57	104	745537536	60	19755
2026-01-09 01:39:19.37	250.79	3.76	-44.7	-59.2	3.8	1.49e+00	0	57	104	745537536	60	19696
2026-01-09 01:39:22.40	250.57	3.59	-44.7	-59.2	3.8	1.49e+00	0	57	104	745537536	60	19693
2026-01-09 01:39:25.43	250.34	3.41	-44.7	-59.2	3.8	1.49e+00	0	57	104	745537536	60	19673
2026-01-09 01:39:28.46	250.12	3.23	-44.7	-59.2	3.8	1.49e+00	0	57	104	745537536	60	19730
2026-01-09 01:39:31.49	249.90	3.06	-44.7	-59.2	3.8	1.49e+00	0	57	104	745537536	60	19688
2026-01-09 01:39:34.52	249.68	2.89	-44.7	-59.2	3.8	1.49e+00	0	57	104	745537536	60	19670
2026-01-09 01:39:37.55	249.47	2.71	-44.7	-59.2	3.8	1.49e+00	0	57	104	745537536	60	19647
2026-01-09 01:39:40.58	249.25	2.54	-44.7	-59.2	3.8	1.49e+00	0	57	104	745537536	60	19648
2026-01-09 01:39:43.61	249.04	2.37	-44.7	-59.1	3.8	1.49e+00	0	57	104	745537536	60	19589
2026-01-09 01:39:46.65	248.84	2.20	-44.7	-59.2	3.8	1.49e+00	0	57	104	745537536	60	19636
2026-01-09 01:39:49.68	248.63	2.03	-44.7	-59.2	3.8	1.49e+00	0	57	104	745537536	60	19638

#Closed at: 2026-01-09 01:39:52
#Recorded file [745 MB]: D:/lorett/data/31039_260109_042721.dat