passes_logs/2026/01/09/R2.0S_Moscow/R2.0S_Moscow__20260109_234841_NOAA_20_JPSS-1_rec.log

#Pass ID: 20260109_234841_NOAA 20 (JPSS-1)
#Satellite: NOAA 20 (JPSS-1)
#Configuration: NOAA 20
#almurnet v.1.7.20251203
#Start time: 2026-01-09 23:48:41

#Version: 2.2.20231116
#Station: R2.0S_Moscow
#Location: 37.707566 lon 55.798166 lat
#TLE: 1 43013U 17073A   26009.26828276  .00000112  00000+0  74203-4 0  9990
#TLE: 2 43013  98.7631 310.2683 0001700  47.4387 312.6933 14.19534764421920

#Time	Az	El	Level	Level2	SNR	BER	BlckErr	Temp	State	Recorded	gain1	gain2
2026-01-09 23:48:41.78	15.55	2.04	-43.0	-57.6	3.8	1.49e+00	0	48	0	0	57	19432
2026-01-09 23:48:45.81	15.54	2.30	-42.9	-57.6	3.8	1.49e+00	0	48	104	0	57	19426
2026-01-09 23:48:49.84	15.53	2.56	-42.9	-57.6	3.8	1.49e+00	0	48	104	0	57	19392
2026-01-09 23:48:53.88	15.52	2.82	-42.9	-57.6	3.8	1.49e+00	0	49	104	0	57	19413
2026-01-09 23:48:57.92	15.51	3.09	-42.9	-57.5	3.8	1.49e+00	0	49	104	0	57	19322
2026-01-09 23:49:01.95	15.50	3.36	-42.9	-57.6	3.8	1.49e+00	0	49	104	0	57	19404
2026-01-09 23:49:05.99	15.49	3.63	-42.9	-57.6	3.8	1.49e+00	0	49	104	0	57	19393
2026-01-09 23:49:10.02	15.47	3.90	-42.9	-57.5	3.8	1.49e+00	0	49	104	0	57	19357
2026-01-09 23:49:14.06	15.46	4.18	-42.9	-57.5	3.8	1.49e+00	0	49	104	0	57	19337
2026-01-09 23:49:18.10	15.45	4.46	-42.9	-57.5	3.8	1.49e+00	0	50	104	0	57	19294
2026-01-09 23:49:22.13	15.43	4.74	-42.9	-57.5	3.8	1.49e+00	0	50	104	0	57	19340
2026-01-09 23:49:26.16	15.42	5.03	-42.9	-57.5	3.8	1.49e+00	0	50	104	0	57	19343
2026-01-09 23:49:30.19	15.40	5.31	-42.9	-57.5	3.8	1.49e+00	0	51	104	0	57	19334
2026-01-09 23:49:34.22	15.39	5.60	-42.9	-57.5	3.8	1.49e+00	0	51	104	0	57	19303
2026-01-09 23:49:38.25	15.37	5.90	-42.9	-57.5	3.8	1.49e+00	0	51	104	0	57	19344
2026-01-09 23:49:42.29	15.35	6.20	-42.9	-57.4	3.8	1.49e+00	0	51	104	0	57	19045
2026-01-09 23:49:46.33	15.33	6.50	-42.9	-57.3	3.8	1.49e+00	0	51	104	0	57	18857
2026-01-09 23:49:50.37	15.31	6.81	-42.8	-56.3	3.8	1.49e+00	0	52	104	0	57	16699
2026-01-09 23:49:54.41	15.29	7.12	-42.6	-52.8	4.6	1.32e+00	0	52	0	0	57	11237
2026-01-09 23:49:58.44	15.27	7.43	-41.6	-48.1	7.9	9.17e-02	0	52	0	8388608	55	7305
2026-01-09 23:50:02.47	15.25	7.75	-41.6	-47.9	8.1	4.33e-02	0	52	0	15728640	54	7614
2026-01-09 23:50:06.50	15.23	8.07	-41.9	-49.0	7.3	6.47e-02	0	52	0	23068672	54	8597
2026-01-09 23:50:10.53	15.20	8.39	-41.8	-47.7	8.9	1.57e-01	0	52	0	28311552	55	7025
2026-01-09 23:50:14.55	15.18	8.72	-41.8	-47.6	8.8	2.08e-02	0	53	0	33554432	55	6903
2026-01-09 23:50:18.58	15.15	9.05	-41.5	-46.8	9.8	9.94e-03	0	53	0	40894464	55	6275
2026-01-09 23:50:22.61	15.13	9.39	-41.6	-46.6	10.0	7.03e-03	0	53	0	48234496	55	6200
2026-01-09 23:50:26.63	15.10	9.73	-41.7	-46.9	9.9	5.89e-03	0	53	0	55574528	55	6366
2026-01-09 23:50:30.65	15.07	10.08	-41.6	-46.3	10.6	4.76e-03	0	53	0	63963136	55	5925
2026-01-09 23:50:34.68	15.04	10.43	-41.5	-46.2	10.7	3.54e-03	0	53	0	71303168	55	5909
2026-01-09 23:50:38.71	15.01	10.79	-41.6	-46.2	10.7	3.07e-03	0	53	0	78643200	55	5905
2026-01-09 23:50:42.74	14.98	11.15	-41.5	-46.0	11.0	2.70e-03	0	53	0	85983232	55	5787
2026-01-09 23:50:46.77	14.95	11.52	-41.5	-46.0	11.1	1.81e-03	0	53	0	93323264	55	5727
2026-01-09 23:50:50.80	14.91	11.89	-41.6	-46.1	11.0	2.34e-03	0	54	0	101711872	55	5813
2026-01-09 23:50:54.83	14.88	12.27	-41.6	-46.0	11.1	1.95e-03	0	54	0	109051904	55	5788
2026-01-09 23:50:58.87	14.84	12.66	-41.5	-45.8	11.4	1.13e-03	0	54	0	116391936	54	5924
2026-01-09 23:51:02.90	14.80	13.05	-41.3	-45.4	11.8	5.67e-04	0	54	0	123731968	54	5691
2026-01-09 23:51:06.93	14.76	13.44	-41.4	-45.5	11.8	4.00e-04	0	54	0	132120576	54	5748
2026-01-09 23:51:10.96	14.72	13.85	-41.2	-45.0	12.5	2.25e-04	0	54	0	139460608	54	5405
2026-01-09 23:51:14.99	14.68	14.26	-41.3	-45.0	12.4	1.04e-04	0	54	0	146800640	54	5458
2026-01-09 23:51:19.02	14.64	14.68	-41.3	-45.0	12.4	1.23e-04	0	54	0	154140672	54	5452
2026-01-09 23:51:23.05	14.59	15.10	-41.2	-44.9	12.6	9.23e-05	0	54	0	161480704	54	5384
2026-01-09 23:51:27.07	14.54	15.54	-41.2	-44.8	12.7	8.85e-05	0	54	0	169869312	54	5338
2026-01-09 23:51:31.10	14.49	15.98	-41.1	-44.7	12.8	5.56e-05	0	54	0	177209344	54	5248
2026-01-09 23:51:35.14	14.44	16.43	-41.1	-44.6	13.0	3.20e-05	0	54	0	184549376	54	5211
2026-01-09 23:51:39.17	14.38	16.89	-41.1	-44.5	13.2	2.89e-05	0	54	0	191889408	54	5105
2026-01-09 23:51:43.21	14.33	17.35	-41.0	-44.4	13.2	1.67e-05	0	54	0	199229440	53	5376
2026-01-09 23:51:47.23	14.27	17.83	-40.8	-44.0	13.7	8.30e-06	0	54	0	207618048	53	5138
2026-01-09 23:51:51.26	14.21	18.31	-40.8	-43.9	13.8	3.80e-06	0	55	0	214958080	53	5088
2026-01-09 23:51:55.29	14.14	18.81	-40.7	-43.7	14.0	7.00e-07	0	55	0	222298112	53	4979
2026-01-09 23:51:59.32	14.08	19.31	-40.7	-43.7	14.1	3.00e-06	0	55	0	229638144	53	4973
2026-01-09 23:52:03.35	14.01	19.83	-40.6	-43.5	14.3	7.00e-07	0	55	0	236978176	53	4866
2026-01-09 23:52:07.37	13.94	20.35	-40.6	-43.5	14.3	7.00e-07	0	55	0	245366784	53	4864
2026-01-09 23:52:11.40	13.86	20.89	-40.6	-43.5	14.4	1.50e-06	0	55	0	252706816	53	4827
2026-01-09 23:52:15.43	13.78	21.44	-40.6	-43.5	14.4	0.00e+00	0	55	0	260046848	53	4837
2026-01-09 23:52:19.47	13.70	22.00	-40.6	-43.4	14.5	0.00e+00	0	55	0	267386880	53	4805
2026-01-09 23:52:23.50	13.62	22.57	-40.6	-43.5	14.5	0.00e+00	0	55	0	274726912	53	4815
2026-01-09 23:52:27.53	13.53	23.16	-40.5	-43.3	14.7	0.00e+00	0	55	0	283115520	52	5032
2026-01-09 23:52:31.56	13.44	23.76	-40.4	-43.2	14.9	0.00e+00	0	55	0	290455552	52	4928
2026-01-09 23:52:35.59	13.34	24.37	-40.4	-43.1	14.9	0.00e+00	0	55	0	297795584	52	4906
2026-01-09 23:52:39.62	13.24	25.00	-40.4	-43.1	15.0	0.00e+00	0	55	0	305135616	52	4889
2026-01-09 23:52:43.65	13.13	25.65	-40.5	-43.2	14.8	0.00e+00	0	55	0	312475648	52	4951
2026-01-09 23:52:47.68	13.02	26.31	-40.6	-43.4	14.6	1.50e-06	0	55	0	320864256	52	5083
2026-01-09 23:52:51.71	12.90	26.98	-40.8	-43.7	14.4	0.00e+00	0	55	0	328204288	52	5248
2026-01-09 23:52:55.74	12.78	27.68	-41.2	-44.3	13.7	1.50e-06	0	55	0	335544320	52	5652
2026-01-09 23:52:59.77	12.65	28.39	-41.5	-44.9	13.2	3.20e-05	0	55	0	342884352	53	5678
2026-01-09 23:53:03.81	12.51	29.12	-42.0	-45.8	12.2	1.77e-04	0	55	0	351272960	54	5980
2026-01-09 23:53:07.84	12.37	29.87	-42.2	-46.3	11.8	4.52e-04	0	56	0	358612992	54	6293
2026-01-09 23:53:11.87	12.22	30.64	-42.3	-46.5	11.6	7.56e-04	0	56	0	365953024	55	6082
2026-01-09 23:53:15.90	12.06	31.43	-42.3	-46.5	11.6	7.07e-04	0	56	0	373293056	55	6066
2026-01-09 23:53:19.92	11.89	32.24	-42.4	-46.7	11.4	1.15e-03	0	56	0	380633088	55	6237
2026-01-09 23:53:23.95	11.71	33.08	-42.4	-46.8	11.3	1.28e-03	0	55	0	389021696	55	6288
2026-01-09 23:53:27.98	11.52	33.93	-42.0	-45.9	12.2	3.16e-04	0	56	0	396361728	55	5701
2026-01-09 23:53:32.02	11.32	34.82	-41.5	-44.9	13.3	2.59e-05	0	55	0	403701760	55	5056
2026-01-09 23:53:36.04	11.11	35.72	-41.0	-43.9	14.3	2.20e-06	0	56	0	411041792	54	4814
2026-01-09 23:53:40.06	10.89	36.65	-40.3	-42.9	15.4	0.00e+00	0	56	0	418381824	52	4763
2026-01-09 23:53:44.09	10.65	37.61	-40.1	-42.5	15.7	0.00e+00	0	56	0	426770432	52	4590
2026-01-09 23:53:48.13	10.40	38.61	-40.2	-42.7	15.7	0.00e+00	0	56	0	434110464	51	4929
2026-01-09 23:53:52.16	10.13	39.62	-40.5	-43.1	15.3	0.00e+00	0	56	0	441450496	51	5168
2026-01-09 23:53:56.19	9.84	40.67	-40.9	-43.7	14.5	0.00e+00	0	56	0	448790528	52	5252
2026-01-09 23:54:00.22	9.53	41.75	-41.2	-44.3	14.0	3.00e-06	0	56	0	456130560	52	5632
2026-01-09 23:54:04.25	9.19	42.86	-41.2	-44.3	14.0	3.80e-06	0	56	0	464519168	53	5309
2026-01-09 23:54:08.28	8.84	44.00	-41.4	-44.7	13.6	3.80e-06	0	56	0	471859200	53	5531
2026-01-09 23:54:12.31	8.45	45.17	-41.8	-45.3	13.0	3.50e-05	0	56	0	479199232	54	5597
2026-01-09 23:54:16.34	8.03	46.38	-42.5	-46.7	11.5	6.96e-04	0	56	0	486539264	55	6267
2026-01-09 23:54:20.36	7.58	47.62	-42.8	-47.3	11.1	1.64e-03	0	56	0	493879296	56	6316
2026-01-09 23:54:24.39	7.09	48.90	-42.7	-47.0	11.4	1.28e-03	0	56	0	502267904	56	6124
2026-01-09 23:54:28.43	6.55	50.22	-41.6	-45.0	13.3	3.35e-05	0	56	0	509607936	55	5110
2026-01-09 23:54:32.46	5.96	51.57	-40.5	-43.1	15.2	0.00e+00	0	56	0	516947968	53	4645
2026-01-09 23:54:36.49	5.32	52.96	-40.2	-42.7	15.7	0.00e+00	0	56	0	524288000	52	4687
2026-01-09 23:54:40.52	4.60	54.38	-40.2	-42.6	15.7	0.00e+00	0	56	0	531628032	52	4644
2026-01-09 23:54:44.55	3.82	55.84	-41.0	-43.9	14.5	0.00e+00	0	56	0	540016640	52	5399
2026-01-09 23:54:48.57	2.94	57.33	-42.6	-46.9	11.3	1.04e-03	0	56	0	547356672	55	6368
2026-01-09 23:54:52.60	1.96	58.85	-42.9	-47.5	10.9	1.72e-03	0	56	0	554696704	56	6433
2026-01-09 23:54:56.62	0.85	60.40	-41.1	-44.1	14.2	9.90e-06	0	56	0	562036736	54	4923
2026-01-09 23:55:00.64	359.60	61.98	-40.3	-42.9	15.5	0.00e+00	0	56	0	569376768	52	4794
2026-01-09 23:55:04.68	358.17	63.59	-40.0	-42.3	16.2	0.00e+00	0	56	0	577765376	51	4739
2026-01-09 23:55:08.71	356.53	65.21	-40.5	-43.0	15.4	0.00e+00	0	56	0	585105408	51	5158
2026-01-09 23:55:12.73	354.63	66.85	-41.3	-44.4	13.9	3.80e-06	0	56	0	592445440	53	5371
2026-01-09 23:55:16.76	352.40	68.49	-41.3	-44.5	13.9	6.10e-06	0	56	0	599785472	53	5445
2026-01-09 23:55:20.79	349.77	70.13	-40.8	-43.6	14.8	0.00e+00	0	56	0	607125504	53	4890
2026-01-09 23:55:24.81	346.65	71.74	-40.4	-43.0	15.3	0.00e+00	0	56	0	615514112	52	4831
2026-01-09 23:55:28.84	342.87	73.32	-41.3	-44.6	13.7	6.10e-06	0	56	0	622854144	53	5478
2026-01-09 23:55:32.87	338.27	74.84	-42.0	-45.8	12.4	2.83e-04	0	56	0	630194176	55	5640
2026-01-09 23:55:36.90	332.64	76.26	-41.9	-45.5	12.7	5.79e-05	0	56	0	637534208	55	5462
2026-01-09 23:55:40.93	325.75	77.53	-41.6	-45.1	13.2	1.44e-05	0	56	0	645922816	54	5509
2026-01-09 23:55:44.96	317.38	78.59	-41.1	-44.2	14.0	7.00e-07	0	56	0	653262848	53	5272
2026-01-09 23:55:48.98	307.54	79.38	-41.0	-44.0	14.3	3.00e-06	0	56	0	660602880	53	5119
2026-01-09 23:55:53.01	296.44	79.81	-41.2	-44.4	13.9	7.60e-06	0	56	0	667942912	53	5401
2026-01-09 23:55:57.04	284.82	79.85	-40.4	-43.1	15.2	0.00e+00	0	56	0	675282944	52	4909
2026-01-09 23:56:01.06	273.60	79.48	-40.1	-42.6	15.8	0.00e+00	0	56	0	682622976	51	4875
2026-01-09 23:56:05.09	263.48	78.75	-40.9	-43.8	14.5	1.50e-06	0	56	0	691011584	52	5315
2026-01-09 23:56:09.12	254.85	77.73	-42.6	-47.2	11.0	5.56e-04	0	56	0	698351616	55	6596
2026-01-09 23:56:13.16	247.70	76.48	-43.5	-49.3	8.9	3.54e-02	0	56	0	705691648	57	7503
2026-01-09 23:56:17.18	241.88	75.09	-43.1	-48.2	10.1	7.26e-03	0	56	0	713031680	57	6579
2026-01-09 23:56:21.22	237.11	73.58	-41.5	-44.9	13.4	1.14e-05	0	56	0	720371712	54	5356
2026-01-09 23:56:25.24	233.21	72.01	-40.2	-42.8	15.6	0.00e+00	0	56	0	728760320	52	4710
2026-01-09 23:56:29.27	229.97	70.39	-41.1	-44.1	14.2	7.00e-07	0	56	0	736100352	52	5503
2026-01-09 23:56:33.31	227.26	68.75	-41.4	-44.7	13.6	1.37e-05	0	56	0	743440384	53	5531
2026-01-09 23:56:37.34	224.97	67.10	-42.9	-47.6	10.7	3.42e-03	0	56	0	750780416	56	6542
2026-01-09 23:56:41.37	223.02	65.46	-41.1	-44.2	14.0	1.60e-05	0	56	0	759169024	54	4949
2026-01-09 23:56:45.41	221.33	63.82	-39.6	-41.9	16.5	0.00e+00	0	56	0	766509056	51	4498
2026-01-09 23:56:49.44	219.87	62.21	-40.0	-42.4	16.0	0.00e+00	0	56	0	773849088	51	4806
2026-01-09 23:56:53.48	218.59	60.61	-41.5	-44.8	13.5	3.80e-06	0	56	0	781189120	53	5649
2026-01-09 23:56:57.51	217.46	59.05	-42.1	-45.9	12.4	1.37e-04	0	56	0	788529152	54	6024
2026-01-09 23:57:01.55	216.45	57.51	-43.5	-49.2	9.1	1.92e-02	0	56	0	796917760	57	7431
2026-01-09 23:57:05.59	215.56	56.01	-41.6	-45.0	13.3	6.71e-05	0	56	0	804257792	55	5126
2026-01-09 23:57:09.63	214.75	54.54	-40.5	-43.2	15.1	0.00e+00	0	56	0	811597824	53	4680
2026-01-09 23:57:13.66	214.03	53.11	-40.3	-42.9	15.4	0.00e+00	0	56	0	818937856	52	4801
2026-01-09 23:57:17.69	213.37	51.71	-40.8	-43.7	14.6	0.00e+00	0	56	0	827326464	52	5220
2026-01-09 23:57:21.72	212.78	50.35	-41.5	-44.8	13.5	4.50e-06	0	56	0	834666496	53	5616
2026-01-09 23:57:25.75	212.23	49.03	-43.2	-48.3	10.0	7.82e-03	0	57	0	842006528	57	6703
2026-01-09 23:57:29.78	211.73	47.74	-42.3	-46.3	12.1	5.26e-04	0	56	0	849346560	56	5628
2026-01-09 23:57:33.80	211.27	46.49	-42.8	-47.3	11.0	2.22e-03	0	56	0	856686592	56	6324
2026-01-09 23:57:37.83	210.85	45.27	-42.6	-46.9	11.4	1.39e-03	0	56	0	865075200	56	6009
2026-01-09 23:57:41.87	210.46	44.08	-42.7	-47.0	11.3	8.41e-04	0	56	0	872415232	56	6107
2026-01-09 23:57:45.90	210.09	42.93	-42.5	-46.7	11.6	7.01e-04	0	57	0	879755264	56	5911
2026-01-09 23:57:49.93	209.75	41.81	-42.7	-47.1	11.2	1.07e-03	0	56	0	887095296	56	6193
2026-01-09 23:57:53.96	209.44	40.73	-43.0	-47.8	10.4	3.75e-03	0	57	0	894435328	56	6723
2026-01-09 23:57:57.99	209.15	39.67	-42.8	-47.3	11.0	2.27e-03	0	56	0	902823936	56	6301
2026-01-09 23:58:02.02	208.87	38.65	-42.3	-46.2	12.1	4.85e-04	0	56	0	910163968	56	5588
2026-01-09 23:58:06.05	208.61	37.65	-42.1	-45.8	12.5	9.61e-05	0	56	0	917504000	56	5324
2026-01-09 23:58:10.07	208.37	36.69	-42.0	-45.7	12.6	9.68e-05	0	57	0	924844032	56	5262
2026-01-09 23:58:14.09	208.14	35.75	-42.5	-46.7	11.6	4.58e-04	0	56	0	932184064	56	5858
2026-01-09 23:58:18.13	207.93	34.83	-42.3	-46.3	12.0	3.56e-04	0	57	0	940572672	56	5614
2026-01-09 23:58:22.17	207.73	33.94	-41.8	-45.5	12.7	7.17e-05	0	56	0	947912704	55	5408
2026-01-09 23:58:26.20	207.53	33.08	-42.0	-45.7	12.4	1.26e-04	0	56	0	955252736	55	5581
2026-01-09 23:58:30.22	207.35	32.24	-42.3	-46.4	11.7	4.90e-04	0	56	0	962592768	55	6047
2026-01-09 23:58:34.25	207.18	31.42	-42.5	-46.8	11.2	1.17e-03	0	57	0	969932800	55	6343
2026-01-09 23:58:38.27	207.02	30.63	-42.3	-46.6	11.5	9.16e-04	0	57	0	978321408	55	6145
2026-01-09 23:58:42.30	206.87	29.85	-42.2	-46.2	11.9	4.16e-04	0	57	0	985661440	55	5884
2026-01-09 23:58:46.33	206.72	29.10	-42.1	-46.0	12.0	3.18e-04	0	57	0	993001472	55	5769
2026-01-09 23:58:50.36	206.58	28.36	-41.8	-45.5	12.6	1.16e-04	0	57	0	1000341504	55	5430
2026-01-09 23:58:54.39	206.45	27.65	-41.8	-45.4	12.6	8.69e-05	0	57	0	1007681536	55	5384
2026-01-09 23:58:58.42	206.32	26.95	-41.7	-45.3	12.8	5.72e-05	0	57	0	1016070144	55	5308
2026-01-09 23:59:02.45	206.20	26.27	-41.8	-45.6	12.5	1.02e-04	0	56	0	1023410176	55	5476
2026-01-09 23:59:06.49	206.09	25.60	-41.7	-45.3	12.8	6.48e-05	0	56	0	1030750208	55	5287
2026-01-09 23:59:10.53	205.98	24.95	-41.2	-44.5	13.6	7.60e-06	0	57	0	1038090240	54	5119
2026-01-09 23:59:14.55	205.87	24.32	-41.0	-44.0	14.1	2.20e-06	0	56	0	1045430272	53	5123
2026-01-09 23:59:18.57	205.77	23.70	-40.8	-43.7	14.4	0.00e+00	0	57	0	1053818880	53	4969
2026-01-09 23:59:22.60	205.67	23.10	-40.8	-43.7	14.3	0.00e+00	0	56	0	1061158912	53	4982
2026-01-09 23:59:26.62	205.58	22.51	-40.9	-44.0	14.1	3.80e-06	0	57	0	1068498944	53	5108
2026-01-09 23:59:30.65	205.49	21.93	-41.0	-44.1	14.0	3.80e-06	0	57	0	1075838976	53	5168
2026-01-09 23:59:34.68	205.41	21.37	-41.0	-44.1	13.9	4.50e-06	0	56	0	1083179008	53	5202
2026-01-09 23:59:38.71	205.33	20.82	-41.2	-44.5	13.5	1.37e-05	0	57	0	1091567616	53	5409
2026-01-09 23:59:42.74	205.25	20.28	-41.3	-44.6	13.3	1.75e-05	0	56	0	1098907648	53	5520
2026-01-09 23:59:46.76	205.17	19.75	-41.4	-44.8	13.2	1.67e-05	0	57	0	1106247680	53	5598
2026-01-09 23:59:50.79	205.10	19.23	-41.4	-44.8	13.0	3.20e-05	0	56	0	1113587712	53	5653
2026-01-09 23:59:54.82	205.03	18.72	-41.4	-44.9	13.0	4.04e-05	0	57	0	1121976320	53	5706
2026-01-09 23:59:58.85	204.96	18.23	-41.5	-45.0	12.8	5.11e-05	0	57	0	1129316352	53	5775
2026-01-10 00:00:02.88	204.90	17.74	-41.6	-45.2	12.7	7.24e-05	0	57	0	1136656384	53	5887
2026-01-10 00:00:06.91	204.84	17.26	-41.6	-45.3	12.5	1.05e-04	0	56	0	1143996416	53	5991
2026-01-10 00:00:10.93	204.78	16.79	-41.6	-45.4	12.5	1.25e-04	0	56	0	1151336448	53	5997
2026-01-10 00:00:14.97	204.72	16.33	-41.7	-45.5	12.2	1.91e-04	0	57	0	1158676480	53	6123
2026-01-10 00:00:19.00	204.66	15.88	-41.8	-45.7	12.0	3.22e-04	0	57	0	1167065088	54	5893
2026-01-10 00:00:23.03	204.61	15.44	-41.8	-45.9	11.8	4.63e-04	0	57	0	1174405120	54	6016
2026-01-10 00:00:27.06	204.56	15.00	-41.9	-46.0	11.7	5.84e-04	0	56	0	1181745152	54	6095
2026-01-10 00:00:31.08	204.51	14.58	-41.9	-46.0	11.7	5.59e-04	0	57	0	1189085184	54	6082
2026-01-10 00:00:35.11	204.46	14.16	-41.8	-45.9	11.7	5.84e-04	0	57	0	1196425216	54	6061
2026-01-10 00:00:39.14	204.41	13.74	-41.8	-45.9	11.8	5.46e-04	0	57	0	1204813824	54	5995
2026-01-10 00:00:43.17	204.37	13.34	-41.8	-45.8	11.8	4.96e-04	0	57	0	1212153856	54	5982
2026-01-10 00:00:47.19	204.33	12.94	-41.7	-45.8	11.8	4.29e-04	0	57	0	1219493888	54	5951
2026-01-10 00:00:51.22	204.28	12.54	-41.7	-45.8	11.7	5.54e-04	0	57	0	1226833920	54	5977
2026-01-10 00:00:55.25	204.24	12.16	-41.7	-45.7	11.8	4.50e-04	0	57	0	1235222528	54	5891
2026-01-10 00:00:59.28	204.20	11.78	-41.6	-45.7	11.8	5.35e-04	0	57	0	1242562560	54	5914
2026-01-10 00:01:03.30	204.16	11.40	-41.7	-45.8	11.6	6.90e-04	0	57	0	1249902592	54	5963
2026-01-10 00:01:07.33	204.13	11.03	-41.6	-45.8	11.6	6.98e-04	0	57	0	1257242624	54	5967
2026-01-10 00:01:11.35	204.09	10.67	-41.7	-45.9	11.5	8.99e-04	0	57	0	1264582656	54	6034
2026-01-10 00:01:15.38	204.06	10.31	-41.8	-46.2	11.2	1.23e-03	0	57	0	1272971264	54	6220
2026-01-10 00:01:19.41	204.02	9.96	-41.7	-46.1	11.2	1.32e-03	0	57	0	1280311296	54	6187
2026-01-10 00:01:23.45	203.99	9.61	-41.7	-46.2	11.0	2.13e-03	0	57	0	1287651328	54	6244
2026-01-10 00:01:27.49	203.96	9.26	-41.8	-46.4	10.7	3.04e-03	0	57	0	1294991360	54	6401
2026-01-10 00:01:31.52	203.93	8.92	-41.8	-46.5	10.7	2.82e-03	0	57	0	1302331392	54	6423
2026-01-10 00:01:35.54	203.90	8.59	-41.8	-46.7	10.3	4.92e-03	0	57	0	1310720000	54	6601
2026-01-10 00:01:39.57	203.87	8.26	-41.8	-46.6	10.3	5.46e-03	0	57	0	1318060032	54	6569
2026-01-10 00:01:43.60	203.84	7.93	-44.5	-58.9	3.8	1.49e+00	0	57	104	1323302912	59	20241
2026-01-10 00:01:47.63	203.82	7.61	-45.0	-59.7	3.8	1.49e+00	0	57	104	1323302912	60	20987
2026-01-10 00:01:51.67	203.79	7.29	-45.1	-59.8	3.8	1.49e+00	0	57	104	1323302912	60	21183
2026-01-10 00:01:55.70	203.76	6.98	-45.0	-59.8	3.8	1.49e+00	0	57	104	1323302912	60	21058
2026-01-10 00:01:59.74	203.74	6.67	-45.0	-59.7	3.8	1.49e+00	0	57	104	1323302912	60	21015
2026-01-10 00:02:03.78	203.72	6.36	-44.9	-59.7	3.8	1.49e+00	0	57	104	1323302912	60	20986
2026-01-10 00:02:07.81	203.69	6.06	-44.9	-59.7	3.8	1.49e+00	0	57	104	1323302912	60	20990
2026-01-10 00:02:11.85	203.67	5.76	-44.9	-59.7	3.8	1.49e+00	0	57	104	1323302912	60	20903
2026-01-10 00:02:15.88	203.65	5.46	-44.9	-59.7	3.8	1.49e+00	0	57	104	1323302912	60	20909
2026-01-10 00:02:19.92	203.63	5.17	-44.9	-59.7	3.8	1.49e+00	0	57	104	1323302912	60	20895
2026-01-10 00:02:23.95	203.61	4.88	-44.9	-59.7	3.8	1.49e+00	0	57	104	1323302912	60	20874
2026-01-10 00:02:27.98	203.59	4.59	-44.9	-59.7	3.8	1.49e+00	0	57	104	1323302912	60	20927
2026-01-10 00:02:32.02	203.57	4.31	-44.9	-59.7	3.8	1.49e+00	0	57	104	1323302912	60	20861
2026-01-10 00:02:36.06	203.55	4.03	-44.9	-59.7	3.8	1.49e+00	0	57	104	1323302912	60	20863
2026-01-10 00:02:40.10	203.53	3.75	-44.9	-59.7	3.8	1.49e+00	0	57	104	1323302912	60	20827
2026-01-10 00:02:44.13	203.51	3.48	-44.9	-59.7	3.8	1.49e+00	0	57	104	1323302912	60	20838
2026-01-10 00:02:48.16	203.49	3.20	-44.9	-59.7	3.8	1.49e+00	0	57	104	1323302912	60	20842
2026-01-10 00:02:52.19	203.48	2.94	-44.9	-59.7	3.8	1.49e+00	0	57	104	1323302912	60	20836
2026-01-10 00:02:56.23	203.46	2.67	-44.9	-59.7	3.8	1.49e+00	0	57	104	1323302912	60	20825
2026-01-10 00:03:00.26	203.44	2.40	-44.9	-59.7	3.8	1.49e+00	0	57	104	1323302912	60	20863
2026-01-10 00:03:04.30	203.43	2.14	-44.9	-59.7	3.8	1.49e+00	0	57	104	1323302912	60	20832

#Closed at: 2026-01-10 00:03:08
#Recorded file [1323 MB]: D:/lorett/data/31039_260110_024841.dat