passes_logs/2026/01/09/R2.0S_Moscow/R2.0S_Moscow__20260109_122510_FENGYUN_3E_rec.log

#Pass ID: 20260109_122510_FENGYUN 3E
#Satellite: FENGYUN 3E
#Configuration: FENGYUN 3E
#almurnet v.1.7.20251203
#Start time: 2026-01-09 12:32:14

#Version: 2.2.20231116
#Station: R2.0S_Moscow
#Location: 37.707566 lon 55.798166 lat
#TLE: 1 49008U 21062A   26008.52265380 -.00000112  00000+0 -32190-4 0  9993
#TLE: 2 49008  98.7483  13.7266 0001697 149.3310 210.7966 14.19883994233927

#Time	Az	El	Level	Level2	SNR	BER	BlckErr	Temp	State	Recorded	gain1	gain2
2026-01-09 12:32:14.92	34.89	19.79	-44.8	-56.3	3.8	8.46e-01	0	56	0	0	60	14187
2026-01-09 12:32:16.95	34.41	19.73	-45.5	-56.7	3.8	8.45e-01	0	57	104	0	62	12507
2026-01-09 12:32:18.97	33.92	19.66	-45.4	-56.7	3.8	8.46e-01	0	57	104	0	61	13114
2026-01-09 12:32:20.99	33.44	19.59	-45.1	-56.1	3.8	8.46e-01	0	57	104	0	61	12364
2026-01-09 12:32:23.01	32.97	19.52	-44.9	-56.2	3.8	8.46e-01	0	57	104	0	60	13237
2026-01-09 12:32:25.03	32.49	19.44	-44.9	-56.1	3.8	8.45e-01	0	57	104	0	60	13021
2026-01-09 12:32:27.05	32.02	19.37	-44.9	-56.1	3.8	8.47e-01	0	57	104	0	60	13020
2026-01-09 12:32:29.07	31.54	19.29	-44.9	-56.2	3.8	8.46e-01	0	57	104	0	60	13203
2026-01-09 12:32:31.09	31.08	19.21	-44.9	-56.2	3.8	8.47e-01	0	57	104	0	60	13197
2026-01-09 12:32:33.11	30.61	19.13	-44.9	-56.2	3.8	8.45e-01	0	57	104	0	60	13125
2026-01-09 12:32:35.13	30.15	19.05	-44.9	-56.1	3.8	8.46e-01	0	57	104	0	60	13094
2026-01-09 12:32:37.15	29.69	18.97	-44.9	-56.1	3.8	8.46e-01	0	57	104	0	60	13084
2026-01-09 12:32:39.17	29.23	18.88	-44.9	-56.2	3.8	8.46e-01	0	57	104	0	60	13148
2026-01-09 12:32:41.19	28.77	18.80	-44.9	-55.9	3.8	8.46e-01	0	57	104	0	60	12698
2026-01-09 12:32:43.21	28.32	18.71	-44.9	-55.8	3.8	8.46e-01	0	57	104	0	60	12570
2026-01-09 12:32:45.24	27.86	18.62	-44.9	-55.8	3.8	8.46e-01	0	57	104	0	60	12617
2026-01-09 12:32:47.25	27.42	18.53	-44.8	-55.0	3.8	8.46e-01	0	57	104	0	60	11512
2026-01-09 12:32:49.27	26.97	18.43	-44.8	-55.2	3.8	8.46e-01	0	57	104	0	60	11709
2026-01-09 12:32:51.29	26.53	18.34	-44.9	-56.0	3.8	8.47e-01	0	57	104	0	60	12870
2026-01-09 12:32:53.31	26.09	18.24	-44.9	-56.0	3.8	8.45e-01	0	57	104	0	60	12942
2026-01-09 12:32:55.33	25.66	18.15	-44.9	-56.0	3.8	8.46e-01	0	57	104	0	60	12910
2026-01-09 12:32:57.35	25.22	18.05	-44.8	-55.6	3.8	8.46e-01	0	57	104	0	60	12291
2026-01-09 12:32:59.37	24.79	17.95	-44.8	-55.0	3.8	8.46e-01	0	57	104	0	60	11535
2026-01-09 12:33:01.39	24.36	17.85	-44.7	-54.7	3.8	8.47e-01	0	57	104	0	60	11100
2026-01-09 12:33:03.41	23.94	17.75	-44.4	-52.1	4.3	8.41e-01	0	57	0	0	59	8734
2026-01-09 12:33:05.42	23.52	17.64	-42.9	-47.1	7.6	1.74e-01	0	57	0	5242880	56	5846
2026-01-09 12:33:07.44	23.10	17.54	-39.8	-42.0	12.9	1.84e-04	0	57	0	19922944	50	4550
2026-01-09 12:33:09.46	22.68	17.43	-37.2	-38.7	16.1	0.00e+00	0	57	0	34603008	44	4398
2026-01-09 12:33:11.48	22.27	17.33	-36.6	-37.9	16.7	0.00e+00	0	57	0	49283072	43	4274
2026-01-09 12:33:13.50	21.86	17.22	-37.4	-38.8	15.7	3.31e-04	0	58	0	63963136	46	3987
2026-01-09 12:33:15.52	21.45	17.11	-34.6	-35.8	18.7	0.00e+00	0	57	0	77594624	40	3961
2026-01-09 12:33:17.54	21.05	17.00	-34.5	-35.6	18.9	0.00e+00	0	57	0	92274688	40	3913
2026-01-09 12:33:19.55	20.65	16.89	-34.6	-35.7	18.8	0.00e+00	0	57	0	106954752	40	3929
2026-01-09 12:33:21.57	20.25	16.78	-34.6	-35.8	18.7	0.00e+00	0	58	0	121634816	40	3959
2026-01-09 12:33:23.59	19.85	16.67	-34.8	-35.9	18.5	0.00e+00	0	57	0	136314880	40	4039
2026-01-09 12:33:25.61	19.46	16.55	-35.0	-36.1	18.3	0.00e+00	0	58	0	150994944	40	4144
2026-01-09 12:33:27.63	19.07	16.44	-34.8	-35.9	18.5	0.00e+00	0	57	0	165675008	40	4029
2026-01-09 12:33:29.65	18.69	16.32	-34.7	-35.8	18.6	0.00e+00	0	58	0	180355072	40	4004
2026-01-09 12:33:31.67	18.30	16.21	-34.8	-36.0	18.5	0.00e+00	0	57	0	195035136	40	4067
2026-01-09 12:33:33.68	17.92	16.09	-34.9	-36.1	18.3	0.00e+00	0	57	0	209715200	40	4118
2026-01-09 12:33:35.70	17.55	15.97	-35.0	-36.1	18.3	0.00e+00	0	57	0	223346688	40	4140
2026-01-09 12:33:37.72	17.17	15.86	-34.9	-36.0	18.3	0.00e+00	0	57	0	239075328	40	4087
2026-01-09 12:33:39.74	16.80	15.74	-35.0	-36.2	18.2	0.00e+00	0	57	0	252706816	40	4149
2026-01-09 12:33:41.75	16.43	15.62	-35.0	-36.2	18.2	0.00e+00	0	57	0	267386880	40	4184
2026-01-09 12:33:43.77	16.07	15.50	-35.2	-36.4	18.0	0.00e+00	0	57	0	282066944	40	4247
2026-01-09 12:33:45.79	15.71	15.38	-35.0	-36.2	18.2	0.00e+00	0	57	0	296747008	40	4172
2026-01-09 12:33:47.81	15.35	15.26	-35.0	-36.2	18.2	0.00e+00	0	57	0	311427072	40	4157
2026-01-09 12:33:49.82	14.99	15.14	-35.0	-36.2	18.2	0.00e+00	0	57	0	326107136	40	4166
2026-01-09 12:33:51.84	14.64	15.02	-35.1	-36.3	18.1	0.00e+00	0	57	0	340787200	40	4196
2026-01-09 12:33:53.86	14.29	14.89	-35.1	-36.3	18.1	0.00e+00	0	57	0	354418688	40	4207
2026-01-09 12:33:55.88	13.94	14.77	-35.1	-36.3	18.0	0.00e+00	0	57	0	369098752	40	4223
2026-01-09 12:33:57.89	13.60	14.65	-35.2	-36.4	17.9	0.00e+00	0	57	0	383778816	40	4267
2026-01-09 12:33:59.91	13.25	14.52	-35.3	-36.6	17.7	0.00e+00	0	58	0	398458880	40	4349
2026-01-09 12:34:01.93	12.92	14.40	-35.4	-36.6	17.7	0.00e+00	0	57	0	413138944	40	4359
2026-01-09 12:34:03.95	12.58	14.28	-35.5	-36.7	17.6	0.00e+00	0	57	0	427819008	40	4417
2026-01-09 12:34:05.97	12.25	14.15	-35.5	-36.7	17.5	0.00e+00	0	57	0	442499072	40	4435
2026-01-09 12:34:07.99	11.92	14.03	-35.6	-36.8	17.4	0.00e+00	0	58	0	457179136	40	4491
2026-01-09 12:34:10.00	11.59	13.90	-35.5	-36.8	17.5	0.00e+00	0	57	0	471859200	40	4447
2026-01-09 12:34:12.02	11.27	13.78	-35.6	-36.9	17.3	0.00e+00	0	58	0	486539264	40	4523
2026-01-09 12:34:14.04	10.94	13.65	-35.5	-36.8	17.4	0.00e+00	0	57	0	500170752	40	4453
2026-01-09 12:34:16.06	10.62	13.52	-35.4	-36.7	17.5	0.00e+00	0	57	0	514850816	40	4396
2026-01-09 12:34:18.08	10.31	13.40	-35.4	-36.7	17.3	0.00e+00	0	57	0	529530880	40	4427
2026-01-09 12:34:20.09	10.00	13.27	-35.3	-36.5	17.5	0.00e+00	0	57	0	544210944	40	4335
2026-01-09 12:34:22.11	9.68	13.14	-35.4	-36.7	17.3	0.00e+00	0	57	0	558891008	40	4420
2026-01-09 12:34:24.13	9.38	13.02	-35.5	-36.8	17.2	0.00e+00	0	57	0	573571072	40	4443
2026-01-09 12:34:26.15	9.07	12.89	-35.5	-36.8	17.0	0.00e+00	0	58	0	588251136	40	4488
2026-01-09 12:34:28.17	8.77	12.76	-35.5	-36.8	17.0	0.00e+00	0	57	0	601882624	40	4461
2026-01-09 12:34:30.18	8.47	12.64	-35.4	-36.8	16.9	0.00e+00	0	58	0	617611264	40	4446
2026-01-09 12:34:32.20	8.17	12.51	-35.6	-36.9	16.8	0.00e+00	0	57	0	631242752	40	4519
2026-01-09 12:34:34.22	7.88	12.38	-35.5	-36.9	16.7	0.00e+00	0	58	0	645922816	40	4503
2026-01-09 12:34:36.24	7.59	12.25	-35.1	-36.4	16.9	0.00e+00	0	58	0	660602880	40	4291
2026-01-09 12:34:38.25	7.30	12.13	-35.7	-37.2	15.7	0.00e+00	0	58	0	675282944	40	4696
2026-01-09 12:34:40.27	7.01	12.00	-36.9	-38.8	13.6	8.00e-06	0	57	0	689963008	43	4751
2026-01-09 12:34:42.29	6.73	11.87	-38.1	-40.7	11.2	1.08e-03	0	58	0	704643072	45	5254
2026-01-09 12:34:44.31	6.44	11.74	-39.5	-43.3	8.2	5.15e-02	0	57	0	719323136	48	5958
2026-01-09 12:34:46.33	6.16	11.62	-40.2	-45.9	5.5	6.02e-01	0	57	0	732954624	49	7618
2026-01-09 12:34:48.35	5.89	11.49	-40.3	-47.4	4.6	8.16e-01	0	58	0	734003200	50	8465
2026-01-09 12:34:50.37	5.61	11.36	-40.3	-48.6	4.1	8.40e-01	0	57	0	734003200	50	9748
2026-01-09 12:34:52.39	5.34	11.23	-40.3	-50.0	3.8	8.45e-01	0	58	104	734003200	50	11421
2026-01-09 12:34:54.41	5.07	11.10	-40.3	-50.4	3.8	8.47e-01	0	58	104	734003200	50	11986
2026-01-09 12:34:56.42	4.80	10.98	-40.2	-51.0	3.8	8.46e-01	0	58	104	734003200	50	12888
2026-01-09 12:34:58.44	4.54	10.85	-40.2	-51.0	3.8	8.45e-01	0	58	104	734003200	50	12948
2026-01-09 12:35:00.46	4.28	10.72	-40.2	-51.0	3.8	8.47e-01	0	58	104	734003200	50	12957
2026-01-09 12:35:02.48	4.02	10.60	-40.1	-51.0	3.8	8.48e-01	0	58	104	734003200	50	12927
2026-01-09 12:35:04.50	3.76	10.47	-40.1	-51.0	3.8	8.46e-01	0	58	104	734003200	50	12842
2026-01-09 12:35:06.52	3.50	10.34	-40.1	-51.0	3.8	8.45e-01	0	58	104	734003200	50	12905
2026-01-09 12:35:08.54	3.25	10.21	-40.1	-51.0	3.8	8.45e-01	0	57	104	734003200	50	12842
2026-01-09 12:35:10.56	3.00	10.09	-40.1	-50.9	3.8	8.45e-01	0	58	104	734003200	50	12775
2026-01-09 12:35:12.57	2.75	9.96	-40.1	-50.9	3.8	8.46e-01	0	58	104	734003200	50	12799
2026-01-09 12:35:14.59	2.50	9.83	-40.1	-51.0	3.8	8.47e-01	0	58	104	734003200	50	12905
2026-01-09 12:35:16.61	2.26	9.71	-40.1	-51.0	3.8	8.46e-01	0	58	104	734003200	50	12923
2026-01-09 12:35:18.63	2.02	9.58	-40.1	-51.0	3.8	8.47e-01	0	58	104	734003200	50	12898
2026-01-09 12:35:20.65	1.78	9.45	-39.9	-51.0	3.8	8.45e-01	0	58	104	734003200	50	12825
2026-01-09 12:35:22.67	1.54	9.33	-39.8	-50.9	3.8	8.46e-01	0	58	104	734003200	50	12792
2026-01-09 12:35:24.68	1.30	9.20	-39.7	-50.9	3.8	8.46e-01	0	58	104	734003200	50	12749
2026-01-09 12:35:26.70	1.07	9.08	-39.7	-50.9	3.8	8.45e-01	0	58	104	734003200	50	12787
2026-01-09 12:35:28.72	0.84	8.95	-39.7	-50.9	3.8	8.46e-01	0	58	104	734003200	50	12791
2026-01-09 12:35:30.74	0.61	8.82	-39.8	-51.0	3.8	8.47e-01	0	58	104	734003200	50	12815
2026-01-09 12:35:32.75	0.38	8.70	-39.8	-50.9	3.8	8.47e-01	0	58	104	734003200	50	12765
2026-01-09 12:35:34.77	0.16	8.57	-39.8	-51.0	3.8	8.45e-01	0	58	104	734003200	50	12898
2026-01-09 12:35:36.79	359.93	8.45	-39.8	-51.0	3.8	8.46e-01	0	58	104	734003200	49	13628
2026-01-09 12:35:38.81	359.71	8.32	-39.5	-51.0	3.8	8.45e-01	0	58	104	734003200	49	13573
2026-01-09 12:35:40.83	359.49	8.20	-39.4	-50.9	3.8	8.45e-01	0	58	104	734003200	49	13533
2026-01-09 12:35:42.85	359.27	8.08	-39.5	-50.9	3.8	8.46e-01	0	58	104	734003200	48	14350
2026-01-09 12:35:44.87	359.06	7.95	-39.6	-51.0	3.8	8.46e-01	0	58	104	734003200	48	14464
2026-01-09 12:35:46.89	358.84	7.83	-45.0	-56.0	3.8	8.47e-01	0	58	104	734003200	59	13633
2026-01-09 12:35:48.91	358.63	7.70	-45.3	-56.6	3.8	8.47e-01	0	58	104	734003200	60	13832
2026-01-09 12:35:50.93	358.42	7.58	-45.5	-56.8	3.8	8.45e-01	0	58	104	734003200	60	14068
2026-01-09 12:35:52.95	358.21	7.46	-45.5	-56.8	3.8	8.46e-01	0	58	104	734003200	60	14119
2026-01-09 12:35:54.97	358.01	7.33	-45.4	-56.8	3.8	8.45e-01	0	58	104	734003200	60	14119
2026-01-09 12:35:56.99	357.80	7.21	-45.4	-56.7	3.8	8.46e-01	0	58	104	734003200	60	13889
2026-01-09 12:35:59.01	357.60	7.09	-45.3	-56.6	3.8	8.46e-01	0	58	104	734003200	60	13785
2026-01-09 12:36:01.03	357.40	6.97	-45.3	-56.5	3.8	8.45e-01	0	58	104	734003200	60	13704
2026-01-09 12:36:03.05	357.20	6.84	-45.3	-56.6	3.8	8.46e-01	0	58	104	734003200	60	13761
2026-01-09 12:36:05.07	357.00	6.72	-45.3	-56.5	3.8	8.46e-01	0	58	104	734003200	60	13623
2026-01-09 12:36:07.10	356.80	6.60	-45.3	-56.6	3.8	8.45e-01	0	58	104	734003200	60	13737
2026-01-09 12:36:09.11	356.61	6.48	-45.2	-56.6	3.8	8.46e-01	0	58	104	734003200	60	13731
2026-01-09 12:36:11.13	356.42	6.36	-45.3	-56.5	3.8	8.47e-01	0	58	104	734003200	60	13663
2026-01-09 12:36:13.15	356.22	6.24	-45.3	-56.5	3.8	8.46e-01	0	58	104	734003200	60	13694
2026-01-09 12:36:15.17	356.03	6.12	-45.3	-56.5	3.8	8.45e-01	0	58	104	734003200	60	13713
2026-01-09 12:36:17.19	355.85	6.00	-45.2	-56.5	3.8	8.46e-01	0	58	104	734003200	60	13672
2026-01-09 12:36:19.21	355.66	5.88	-45.3	-56.5	3.8	8.47e-01	0	58	104	734003200	60	13700
2026-01-09 12:36:21.23	355.48	5.76	-45.3	-56.5	3.8	8.45e-01	0	58	104	734003200	60	13718
2026-01-09 12:36:23.25	355.29	5.64	-45.2	-56.5	3.8	8.46e-01	0	58	104	734003200	60	13718
2026-01-09 12:36:25.27	355.11	5.52	-45.2	-56.5	3.8	8.46e-01	0	58	104	734003200	60	13683
2026-01-09 12:36:27.29	354.93	5.40	-45.2	-56.5	3.8	8.46e-01	0	58	104	734003200	60	13655
2026-01-09 12:36:29.31	354.75	5.28	-45.2	-56.5	3.8	8.46e-01	0	58	104	734003200	60	13683
2026-01-09 12:36:31.34	354.57	5.16	-45.2	-56.5	3.8	8.46e-01	0	58	104	734003200	60	13643
2026-01-09 12:36:33.35	354.40	5.04	-45.2	-56.5	3.8	8.47e-01	0	58	104	734003200	60	13624
2026-01-09 12:36:35.37	354.23	4.93	-45.2	-56.5	3.8	8.45e-01	0	58	104	734003200	60	13670
2026-01-09 12:36:37.39	354.05	4.81	-45.2	-56.5	3.8	8.47e-01	0	58	104	734003200	60	13640
2026-01-09 12:36:39.41	353.88	4.69	-45.2	-56.5	3.8	8.46e-01	0	58	104	734003200	60	13603
2026-01-09 12:36:41.43	353.71	4.57	-45.2	-56.5	3.8	8.46e-01	0	58	104	734003200	60	13650
2026-01-09 12:36:43.45	353.54	4.46	-45.2	-56.4	3.8	8.47e-01	0	58	104	734003200	60	13568
2026-01-09 12:36:45.47	353.38	4.34	-45.2	-56.5	3.8	8.46e-01	0	58	104	734003200	60	13601
2026-01-09 12:36:47.49	353.21	4.22	-45.2	-56.4	3.8	8.46e-01	0	58	104	734003200	60	13568
2026-01-09 12:36:49.51	353.05	4.11	-45.2	-56.4	3.8	8.47e-01	0	58	104	734003200	60	13546
2026-01-09 12:36:51.53	352.89	3.99	-45.2	-56.5	3.8	8.45e-01	0	58	104	734003200	60	13588
2026-01-09 12:36:53.55	352.72	3.88	-45.2	-56.4	3.8	8.46e-01	0	58	104	734003200	60	13562
2026-01-09 12:36:55.58	352.56	3.76	-45.2	-56.5	3.8	8.45e-01	0	58	104	734003200	60	13595
2026-01-09 12:36:57.60	352.40	3.65	-45.2	-56.5	3.8	8.46e-01	0	58	104	734003200	60	13597
2026-01-09 12:36:59.62	352.25	3.53	-45.2	-56.5	3.8	8.46e-01	0	58	104	734003200	60	13607
2026-01-09 12:37:01.64	352.09	3.42	-45.2	-56.5	3.8	8.46e-01	0	58	104	734003200	60	13586
2026-01-09 12:37:03.66	351.94	3.30	-45.2	-56.5	3.8	8.47e-01	0	58	104	734003200	60	13588
2026-01-09 12:37:05.68	351.78	3.19	-45.2	-56.4	3.8	8.46e-01	0	58	104	734003200	60	13561
2026-01-09 12:37:07.70	351.63	3.08	-45.0	-56.5	3.8	8.46e-01	0	58	104	734003200	60	13605
2026-01-09 12:37:09.72	351.48	2.96	-45.2	-56.5	3.8	8.46e-01	0	58	104	734003200	60	13585
2026-01-09 12:37:11.74	351.33	2.85	-45.2	-56.5	3.8	8.47e-01	0	58	104	734003200	60	13653
2026-01-09 12:37:13.74	351.18	2.74	-45.2	-56.5	3.8	8.47e-01	0	58	104	734003200	60	13618
2026-01-09 12:37:15.76	351.03	2.63	-45.2	-56.4	3.8	8.46e-01	0	58	104	734003200	60	13554
2026-01-09 12:37:17.78	350.89	2.51	-45.2	-56.5	3.8	8.46e-01	0	58	104	734003200	60	13586
2026-01-09 12:37:19.80	350.74	2.40	-45.2	-56.4	3.8	8.47e-01	0	58	104	734003200	60	13547
2026-01-09 12:37:21.82	350.60	2.29	-45.2	-56.5	3.8	8.46e-01	0	58	104	734003200	60	13577
2026-01-09 12:37:23.84	350.46	2.18	-45.2	-56.5	3.8	8.46e-01	0	58	104	734003200	60	13572
2026-01-09 12:37:25.86	350.31	2.07	-45.2	-56.5	3.8	8.47e-01	0	58	104	734003200	60	13623
2026-01-09 12:37:27.89	350.17	1.96	-45.2	-56.5	3.8	8.46e-01	0	58	104	734003200	60	13648

#Closed at: 2026-01-09 12:37:28
#Recorded file [734 MB]: D:/lorett/data/31039_260109_153214.dat