passes_logs/2026/01/09/R2.0S_Moscow/R2.0S_Moscow__20260109_022714_FENGYUN_3D_rec.log

#Pass ID: 20260109_022714_FENGYUN 3D
#Satellite: FENGYUN 3D
#Configuration: FENGYUN 3D
#almurnet v.1.7.20251203
#Start time: 2026-01-09 02:27:15

#Version: 2.2.20231116
#Station: R2.0S_Moscow
#Location: 37.707566 lon 55.798166 lat
#TLE: 1 43010U 17072A   26008.51967461  .00000013  00000+0  27718-4 0  9992
#TLE: 2 43010  98.9935 340.2353 0002115 119.1573 240.9815 14.19693759422336

#Time	Az	El	Level	Level2	SNR	BER	BlckErr	Temp	State	Recorded	gain1	gain2
2026-01-09 02:27:15.02	13.74	2.04	-40.1	-51.8	3.8	8.45e-01	0	47	0	0	52	13367
2026-01-09 02:27:19.05	13.63	2.29	-40.1	-51.8	3.8	8.45e-01	0	48	104	0	52	13323
2026-01-09 02:27:23.09	13.52	2.55	-40.1	-51.8	3.8	8.45e-01	0	48	104	0	52	13320
2026-01-09 02:27:27.14	13.40	2.81	-40.1	-51.8	3.8	8.47e-01	0	49	104	0	52	13299
2026-01-09 02:27:31.18	13.29	3.07	-40.1	-51.8	3.8	8.46e-01	0	49	104	0	52	13316
2026-01-09 02:27:35.22	13.17	3.33	-40.1	-51.7	3.8	8.46e-01	0	49	104	0	52	13244
2026-01-09 02:27:39.26	13.05	3.60	-40.1	-51.6	3.8	8.46e-01	0	49	104	0	52	13031
2026-01-09 02:27:43.31	12.93	3.87	-40.1	-51.6	3.8	8.46e-01	0	49	104	0	52	13098
2026-01-09 02:27:47.35	12.80	4.14	-40.1	-51.6	3.8	8.47e-01	0	49	104	0	52	12966
2026-01-09 02:27:51.39	12.67	4.41	-40.0	-51.5	3.8	8.46e-01	0	50	104	0	52	12863
2026-01-09 02:27:55.43	12.54	4.69	-40.1	-51.5	3.8	8.47e-01	0	50	104	0	52	12881
2026-01-09 02:27:59.48	12.41	4.97	-40.1	-51.4	3.8	8.46e-01	0	50	104	0	52	12753
2026-01-09 02:28:03.52	12.27	5.25	-40.0	-50.9	3.8	8.46e-01	0	51	104	0	52	11977
2026-01-09 02:28:07.56	12.13	5.53	-39.9	-49.9	3.8	8.45e-01	0	51	104	0	51	11299
2026-01-09 02:28:11.60	11.99	5.82	-39.9	-49.2	4.0	8.44e-01	0	51	104	0	51	10518
2026-01-09 02:28:15.65	11.84	6.11	-40.0	-49.9	3.9	8.44e-01	0	51	104	0	51	11409
2026-01-09 02:28:19.69	11.69	6.40	-40.1	-50.9	3.8	8.46e-01	0	52	104	0	51	12706
2026-01-09 02:28:23.73	11.54	6.70	-39.9	-49.4	3.8	8.44e-01	0	52	104	0	51	10680
2026-01-09 02:28:27.78	11.38	7.00	-39.5	-47.2	4.5	8.20e-01	0	52	0	0	51	8328
2026-01-09 02:28:31.82	11.22	7.30	-39.4	-46.6	4.9	7.86e-01	0	52	0	0	50	8194
2026-01-09 02:28:35.86	11.05	7.61	-39.5	-47.2	4.6	8.16e-01	0	52	0	0	50	8805
2026-01-09 02:28:39.90	10.89	7.92	-39.8	-48.9	4.1	8.42e-01	0	52	0	0	50	10659
2026-01-09 02:28:43.94	10.72	8.23	-40.6	-51.9	3.8	8.47e-01	0	53	104	0	51	14351
2026-01-09 02:28:47.97	10.54	8.55	-40.2	-48.8	4.2	8.37e-01	0	53	0	0	51	9965
2026-01-09 02:28:52.01	10.36	8.87	-40.1	-49.0	4.1	8.39e-01	0	53	0	0	51	10178
2026-01-09 02:28:56.05	10.18	9.19	-40.3	-50.6	3.8	8.44e-01	0	53	104	0	51	12264
2026-01-09 02:29:00.09	9.99	9.52	-40.2	-51.5	3.8	8.46e-01	0	53	104	0	51	13595
2026-01-09 02:29:04.12	9.79	9.85	-40.1	-51.5	3.8	8.44e-01	0	53	104	0	51	13703
2026-01-09 02:29:08.16	9.59	10.19	-39.9	-51.4	3.8	8.45e-01	0	53	104	0	51	13518
2026-01-09 02:29:12.20	9.39	10.53	-40.1	-51.6	3.8	8.45e-01	0	53	104	0	51	13760
2026-01-09 02:29:16.24	9.18	10.87	-40.2	-49.0	4.1	8.45e-01	0	53	0	0	51	10227
2026-01-09 02:29:20.28	8.97	11.22	-39.7	-46.5	5.2	7.62e-01	0	54	0	0	51	7636
2026-01-09 02:29:24.33	8.75	11.58	-38.8	-43.4	7.7	1.20e-01	0	54	0	17825792	49	6055
2026-01-09 02:29:28.36	8.52	11.94	-38.3	-42.1	9.3	3.23e-02	0	54	0	39845888	48	5480
2026-01-09 02:29:32.40	8.29	12.30	-37.2	-39.6	13.1	3.43e-05	0	54	0	62914560	46	4623
2026-01-09 02:29:36.44	8.05	12.67	-37.1	-39.1	14.2	3.40e-06	0	54	0	85983232	46	4374
2026-01-09 02:29:40.48	7.81	13.05	-36.3	-38.0	15.6	0.00e+00	0	54	0	108003328	44	4328
2026-01-09 02:29:44.51	7.56	13.42	-35.7	-37.4	16.2	0.00e+00	0	54	0	131072000	43	4249
2026-01-09 02:29:48.55	7.30	13.81	-35.8	-37.4	16.5	0.00e+00	0	54	0	154140672	43	4269
2026-01-09 02:29:52.59	7.03	14.20	-36.1	-37.6	16.4	0.00e+00	0	54	0	176160768	43	4381
2026-01-09 02:29:56.63	6.76	14.60	-35.8	-37.4	16.8	0.00e+00	0	54	0	199229440	43	4247
2026-01-09 02:30:00.67	6.48	15.00	-35.8	-37.2	17.0	0.00e+00	0	55	0	222298112	43	4190
2026-01-09 02:30:04.71	6.19	15.41	-35.6	-37.1	17.2	0.00e+00	0	55	0	244318208	43	4100
2026-01-09 02:30:08.74	5.89	15.82	-35.4	-36.8	17.4	0.00e+00	0	55	0	267386880	42	4227
2026-01-09 02:30:12.78	5.59	16.24	-35.2	-36.6	17.7	0.00e+00	0	55	0	290455552	42	4133
2026-01-09 02:30:16.82	5.27	16.67	-35.2	-36.6	17.8	0.00e+00	0	55	0	312475648	42	4113
2026-01-09 02:30:20.86	4.95	17.10	-35.2	-36.6	17.8	0.00e+00	0	55	0	335544320	42	4103
2026-01-09 02:30:24.90	4.61	17.54	-34.9	-36.3	18.1	0.00e+00	0	55	0	358612992	41	4207
2026-01-09 02:30:28.94	4.27	17.99	-34.7	-36.1	18.3	0.00e+00	0	55	0	380633088	41	4100
2026-01-09 02:30:32.97	3.91	18.44	-34.6	-35.9	18.5	0.00e+00	0	55	0	403701760	41	4033
2026-01-09 02:30:37.01	3.54	18.91	-34.5	-35.8	18.6	0.00e+00	0	55	0	426770432	41	3998
2026-01-09 02:30:41.05	3.16	19.37	-34.6	-35.9	18.5	0.00e+00	0	55	0	448790528	41	4019
2026-01-09 02:30:45.09	2.77	19.85	-34.6	-35.9	18.6	0.00e+00	0	55	0	471859200	41	4006
2026-01-09 02:30:49.13	2.37	20.34	-34.3	-35.5	19.0	0.00e+00	0	55	0	494927872	40	4085
2026-01-09 02:30:53.17	1.95	20.83	-34.1	-35.3	19.2	0.00e+00	0	55	0	516947968	40	3994
2026-01-09 02:30:57.20	1.52	21.33	-34.3	-35.5	19.0	0.00e+00	0	55	0	540016640	40	4075
2026-01-09 02:31:01.24	1.07	21.84	-34.2	-35.5	19.1	0.00e+00	0	55	0	563085312	40	4058
2026-01-09 02:31:05.28	0.61	22.36	-34.0	-35.2	19.4	0.00e+00	0	55	0	585105408	39	4177
2026-01-09 02:31:09.32	0.13	22.88	-33.7	-34.9	19.7	0.00e+00	0	56	0	608174080	39	4033
2026-01-09 02:31:13.35	359.63	23.42	-33.8	-35.0	19.6	0.00e+00	0	56	0	631242752	39	4078
2026-01-09 02:31:17.39	359.12	23.96	-33.9	-35.1	19.5	0.00e+00	0	56	0	653262848	39	4132
2026-01-09 02:31:21.42	358.59	24.51	-33.6	-34.8	19.8	0.00e+00	0	56	0	676331520	39	3988
2026-01-09 02:31:25.46	358.03	25.07	-33.5	-34.6	20.0	0.00e+00	0	56	0	698351616	38	4141
2026-01-09 02:31:29.50	357.46	25.65	-33.7	-34.9	19.8	0.00e+00	0	56	0	721420288	38	4253
2026-01-09 02:31:33.54	356.86	26.23	-33.6	-34.8	19.9	0.00e+00	0	56	0	744488960	38	4233
2026-01-09 02:31:37.58	356.25	26.81	-33.4	-34.5	20.2	0.00e+00	0	56	0	767557632	38	4084
2026-01-09 02:31:41.62	355.60	27.41	-33.3	-34.4	20.3	0.00e+00	0	56	0	789577728	38	4044
2026-01-09 02:31:45.67	354.93	28.02	-33.6	-34.7	20.0	0.00e+00	0	56	0	812646400	38	4191
2026-01-09 02:31:49.71	354.24	28.64	-33.4	-34.5	20.2	0.00e+00	0	56	0	835715072	38	4097
2026-01-09 02:31:53.74	353.52	29.26	-33.1	-34.3	20.5	0.00e+00	0	56	0	857735168	38	3975
2026-01-09 02:31:57.78	352.77	29.90	-33.4	-34.5	20.3	0.00e+00	0	56	0	880803840	38	4087
2026-01-09 02:32:01.81	351.99	30.54	-33.6	-34.7	20.0	0.00e+00	0	56	0	902823936	38	4192
2026-01-09 02:32:05.86	351.17	31.19	-33.2	-34.4	20.4	0.00e+00	0	56	0	925892608	38	4010
2026-01-09 02:32:09.89	350.33	31.85	-33.1	-34.3	20.5	0.00e+00	0	56	0	948961280	37	4203
2026-01-09 02:32:13.93	349.44	32.51	-33.1	-34.2	20.6	0.00e+00	0	56	0	972029952	37	4185
2026-01-09 02:32:17.97	348.52	33.19	-32.7	-33.8	21.0	0.00e+00	0	56	0	994050048	37	3963
2026-01-09 02:32:22.00	347.56	33.87	-32.9	-34.0	20.8	0.00e+00	0	56	0	1017118720	37	4083
2026-01-09 02:32:26.04	346.55	34.55	-32.9	-34.0	20.8	0.00e+00	0	56	0	1040187392	37	4076
2026-01-09 02:32:30.08	345.51	35.24	-33.2	-34.4	20.5	0.00e+00	0	56	0	1062207488	37	4245
2026-01-09 02:32:34.12	344.41	35.93	-32.9	-34.0	20.8	0.00e+00	0	56	0	1085276160	37	4078
2026-01-09 02:32:38.15	343.27	36.63	-32.8	-33.9	21.0	0.00e+00	0	56	0	1107296256	37	4022
2026-01-09 02:32:42.19	342.08	37.32	-33.0	-34.0	20.8	0.00e+00	0	56	0	1130364928	37	4097
2026-01-09 02:32:46.23	340.83	38.02	-32.8	-33.9	20.9	0.00e+00	0	56	0	1153433600	37	4036
2026-01-09 02:32:50.27	339.53	38.72	-32.7	-33.8	21.1	0.00e+00	0	56	0	1176502272	37	3980
2026-01-09 02:32:54.30	338.18	39.41	-32.9	-34.0	20.8	0.00e+00	0	56	0	1198522368	37	4089
2026-01-09 02:32:58.34	336.76	40.09	-33.0	-34.1	20.7	0.00e+00	0	56	0	1221591040	37	4132
2026-01-09 02:33:02.38	335.29	40.77	-33.1	-34.2	20.6	0.00e+00	0	56	0	1244659712	37	4169
2026-01-09 02:33:06.42	333.74	41.44	-33.2	-34.3	20.5	0.00e+00	0	56	0	1266679808	37	4217
2026-01-09 02:33:10.46	332.14	42.10	-32.8	-33.9	20.9	0.00e+00	0	56	0	1289748480	37	4006
2026-01-09 02:33:14.50	330.46	42.74	-32.9	-34.0	20.8	0.00e+00	0	56	0	1311768576	37	4068
2026-01-09 02:33:18.54	328.72	43.36	-32.9	-34.0	20.8	0.00e+00	0	57	0	1334837248	37	4087
2026-01-09 02:33:22.57	326.92	43.96	-32.7	-33.8	21.0	0.00e+00	0	56	0	1357905920	37	3988
2026-01-09 02:33:26.61	325.04	44.54	-32.8	-33.8	21.0	0.00e+00	0	56	0	1379926016	37	4004
2026-01-09 02:33:30.66	323.09	45.09	-32.6	-33.6	21.2	0.00e+00	0	56	0	1402994688	36	4140
2026-01-09 02:33:34.70	321.07	45.61	-32.8	-33.9	20.9	0.00e+00	0	56	0	1426063360	36	4271
2026-01-09 02:33:38.73	319.00	46.10	-32.9	-33.9	20.9	0.00e+00	0	56	0	1449132032	37	4040
2026-01-09 02:33:42.77	316.86	46.55	-33.3	-34.4	20.4	0.00e+00	0	56	0	1471152128	37	4273
2026-01-09 02:33:46.80	314.66	46.95	-33.3	-34.4	20.4	0.00e+00	0	57	0	1494220800	37	4269
2026-01-09 02:33:50.84	312.40	47.32	-33.1	-34.3	20.5	0.00e+00	0	56	0	1516240896	37	4201
2026-01-09 02:33:54.88	310.09	47.63	-33.5	-34.6	20.2	0.00e+00	0	56	0	1539309568	37	4372
2026-01-09 02:33:58.92	307.74	47.90	-33.5	-34.6	20.2	0.00e+00	0	56	0	1562378240	37	4378
2026-01-09 02:34:02.96	305.35	48.11	-33.4	-34.6	20.2	0.00e+00	0	56	0	1584398336	37	4357
2026-01-09 02:34:07.00	302.93	48.27	-33.1	-34.2	20.6	0.00e+00	0	56	0	1607467008	37	4169
2026-01-09 02:34:11.04	300.49	48.38	-33.1	-34.3	20.5	0.00e+00	0	56	0	1630535680	37	4200
2026-01-09 02:34:15.08	298.03	48.43	-33.1	-34.2	20.6	0.00e+00	0	56	0	1653604352	37	4180
2026-01-09 02:34:19.12	295.58	48.42	-33.2	-34.4	20.4	0.00e+00	0	56	0	1675624448	37	4259
2026-01-09 02:34:23.16	293.13	48.36	-33.2	-34.3	20.5	0.00e+00	0	57	0	1698693120	37	4206
2026-01-09 02:34:27.19	290.70	48.24	-33.3	-34.4	20.4	0.00e+00	0	56	0	1720713216	37	4291
2026-01-09 02:34:31.23	288.28	48.06	-33.0	-34.1	20.7	0.00e+00	0	57	0	1743781888	37	4117
2026-01-09 02:34:35.27	285.90	47.83	-32.9	-34.0	20.8	0.00e+00	0	57	0	1766850560	37	4061
2026-01-09 02:34:39.31	283.56	47.55	-32.8	-33.9	20.8	0.00e+00	0	57	0	1788870656	37	4030
2026-01-09 02:34:43.34	281.26	47.22	-33.2	-34.3	20.5	0.00e+00	0	57	0	1811939328	37	4235
2026-01-09 02:34:47.38	279.02	46.84	-32.9	-34.0	20.7	0.00e+00	0	56	0	1835008000	37	4085
2026-01-09 02:34:51.42	276.83	46.42	-32.5	-33.6	21.1	0.00e+00	0	57	0	1857028096	37	3889
2026-01-09 02:34:55.46	274.70	45.96	-32.9	-34.0	20.7	0.00e+00	0	57	0	1880096768	37	4098
2026-01-09 02:34:59.50	272.63	45.46	-33.0	-34.1	20.7	0.00e+00	0	57	0	1903165440	37	4113
2026-01-09 02:35:03.54	270.63	44.93	-32.4	-33.4	21.3	0.00e+00	0	57	0	1925185536	36	4051
2026-01-09 02:35:07.58	268.70	44.37	-32.4	-33.4	21.3	0.00e+00	0	57	0	1948254208	36	4040
2026-01-09 02:35:11.62	266.84	43.79	-32.6	-33.7	21.1	0.00e+00	0	57	0	1971322880	36	4153
2026-01-09 02:35:15.66	265.04	43.18	-32.3	-33.3	21.4	0.00e+00	0	57	0	1993342976	36	4002
2026-01-09 02:35:19.70	263.31	42.54	-32.1	-33.2	21.5	0.00e+00	0	57	0	2016411648	36	3926
2026-01-09 02:35:23.75	261.65	41.89	-32.3	-33.4	21.3	0.00e+00	0	57	0	2039480320	36	4013
2026-01-09 02:35:27.78	260.06	41.23	-32.2	-33.2	21.5	0.00e+00	0	57	0	2061500416	36	3952
2026-01-09 02:35:31.82	258.53	40.56	-32.5	-33.6	21.2	0.00e+00	0	57	0	2084569088	36	4102
2026-01-09 02:35:35.86	257.07	39.87	-32.7	-33.8	20.9	0.00e+00	0	57	0	2107637760	36	4239
2026-01-09 02:35:39.90	255.66	39.18	-32.4	-33.5	21.2	0.00e+00	0	57	0	2129657856	36	4073
2026-01-09 02:35:43.94	254.32	38.49	-32.6	-33.7	21.1	0.00e+00	0	57	0	2152726528	36	4147
2026-01-09 02:35:47.97	253.03	37.79	-32.5	-33.6	21.1	0.00e+00	0	57	0	2175795200	36	4107
2026-01-09 02:35:52.01	251.80	37.09	-32.2	-33.3	21.4	0.00e+00	0	57	0	2197815296	36	3964
2026-01-09 02:35:56.05	250.62	36.39	-32.3	-33.4	21.3	0.00e+00	0	57	0	2220883968	36	4011
2026-01-09 02:36:00.09	249.49	35.69	-32.1	-33.1	21.6	0.00e+00	0	57	0	2243952640	36	3904
2026-01-09 02:36:04.12	248.40	35.00	-32.4	-33.5	21.2	0.00e+00	0	57	0	2265972736	36	4068
2026-01-09 02:36:08.16	247.37	34.31	-32.2	-33.3	21.4	0.00e+00	0	57	0	2289041408	36	3974
2026-01-09 02:36:12.20	246.37	33.62	-32.3	-33.4	21.3	0.00e+00	0	57	0	2312110080	36	4023
2026-01-09 02:36:16.24	245.41	32.94	-32.4	-33.5	21.2	0.00e+00	0	57	0	2334130176	36	4066
2026-01-09 02:36:20.29	244.50	32.26	-32.3	-33.4	21.3	0.00e+00	0	57	0	2357198848	36	4008
2026-01-09 02:36:24.32	243.62	31.60	-32.5	-33.6	21.1	0.00e+00	0	57	0	2380267520	36	4106
2026-01-09 02:36:28.36	242.78	30.94	-32.4	-33.5	21.2	0.00e+00	0	57	0	2402287616	36	4054
2026-01-09 02:36:32.40	241.97	30.29	-32.4	-33.5	21.1	0.00e+00	0	57	0	2425356288	36	4080
2026-01-09 02:36:36.44	241.19	29.64	-32.4	-33.5	21.1	0.00e+00	0	57	0	2448424960	36	4080
2026-01-09 02:36:40.48	240.45	29.01	-32.9	-34.0	20.7	0.00e+00	0	57	0	2470445056	36	4300
2026-01-09 02:36:44.52	239.73	28.38	-33.0	-34.2	20.5	0.00e+00	0	57	0	2493513728	36	4394
2026-01-09 02:36:48.55	239.04	27.77	-33.0	-34.1	20.6	0.00e+00	0	57	0	2516582400	36	4369
2026-01-09 02:36:52.59	238.38	27.16	-32.9	-34.0	20.7	0.00e+00	0	57	0	2538602496	36	4293
2026-01-09 02:36:56.62	237.74	26.56	-33.0	-34.1	20.6	0.00e+00	0	57	0	2561671168	36	4353
2026-01-09 02:37:00.66	237.13	25.97	-33.1	-34.3	20.4	0.00e+00	0	57	0	2584739840	36	4449
2026-01-09 02:37:04.70	236.54	25.39	-33.1	-34.2	20.4	0.00e+00	0	57	0	2606759936	36	4435
2026-01-09 02:37:08.74	235.96	24.82	-32.9	-34.0	20.7	0.00e+00	0	57	0	2629828608	36	4296
2026-01-09 02:37:12.78	235.41	24.26	-33.0	-34.1	20.5	0.00e+00	0	57	0	2652897280	36	4365
2026-01-09 02:37:16.80	234.89	23.71	-33.1	-34.2	20.4	0.00e+00	0	57	0	2674917376	36	4431
2026-01-09 02:37:20.84	234.37	23.17	-33.1	-34.2	20.5	0.00e+00	0	57	0	2697986048	36	4399
2026-01-09 02:37:24.88	233.88	22.63	-33.3	-34.4	20.2	0.00e+00	0	57	0	2721054720	37	4282
2026-01-09 02:37:28.92	233.40	22.11	-33.4	-34.6	20.0	0.00e+00	0	57	0	2743074816	37	4363
2026-01-09 02:37:32.96	232.94	21.59	-33.5	-34.6	20.0	0.00e+00	0	57	0	2766143488	37	4373
2026-01-09 02:37:37.00	232.49	21.08	-33.6	-34.7	19.9	0.00e+00	0	57	0	2789212160	37	4426
2026-01-09 02:37:41.04	232.06	20.58	-33.7	-34.9	19.7	0.00e+00	0	57	0	2811232256	37	4514
2026-01-09 02:37:45.08	231.64	20.09	-33.9	-35.1	19.5	0.00e+00	0	57	0	2834300928	38	4347
2026-01-09 02:37:49.11	231.24	19.60	-33.9	-35.1	19.5	0.00e+00	0	57	0	2857369600	38	4353
2026-01-09 02:37:53.15	230.85	19.13	-33.9	-35.1	19.5	0.00e+00	0	57	0	2879389696	38	4367
2026-01-09 02:37:57.18	230.47	18.66	-34.1	-35.3	19.3	0.00e+00	0	57	0	2902458368	38	4452
2026-01-09 02:38:01.22	230.10	18.20	-34.3	-35.6	19.0	0.00e+00	0	57	0	2925527040	39	4347
2026-01-09 02:38:05.25	229.75	17.74	-34.5	-35.7	18.8	0.00e+00	0	57	0	2947547136	39	4421
2026-01-09 02:38:09.30	229.40	17.30	-34.6	-35.8	18.7	0.00e+00	0	57	0	2970615808	39	4477
2026-01-09 02:38:13.33	229.06	16.86	-34.7	-36.0	18.5	0.00e+00	0	57	0	2993684480	40	4302
2026-01-09 02:38:17.37	228.74	16.42	-34.8	-36.1	18.3	0.00e+00	0	57	0	3015704576	40	4390
2026-01-09 02:38:21.41	228.42	16.00	-34.7	-36.0	18.4	0.00e+00	0	57	0	3038773248	40	4336
2026-01-09 02:38:25.45	228.12	15.58	-34.8	-36.1	18.3	0.00e+00	0	57	0	3060793344	40	4365
2026-01-09 02:38:29.49	227.82	15.16	-34.9	-36.2	18.2	0.00e+00	0	57	0	3083862016	40	4402
2026-01-09 02:38:33.52	227.53	14.76	-35.0	-36.3	18.1	0.00e+00	0	57	0	3106930688	40	4487
2026-01-09 02:38:37.56	227.25	14.35	-35.1	-36.5	17.9	0.00e+00	0	57	0	3129999360	40	4574
2026-01-09 02:38:41.60	226.97	13.96	-35.2	-36.5	17.8	0.00e+00	0	57	0	3152019456	41	4328
2026-01-09 02:38:45.64	226.70	13.57	-35.3	-36.7	17.7	0.00e+00	0	57	0	3175088128	41	4405
2026-01-09 02:38:49.68	226.44	13.18	-35.3	-36.7	17.6	0.00e+00	0	57	0	3198156800	41	4426
2026-01-09 02:38:53.72	226.19	12.80	-35.6	-37.0	17.3	0.00e+00	0	57	0	3220176896	41	4582
2026-01-09 02:38:57.76	225.95	12.43	-35.7	-37.2	17.1	0.00e+00	0	57	0	3243245568	42	4409
2026-01-09 02:39:01.80	225.71	12.06	-35.9	-37.5	16.8	0.00e+00	0	57	0	3265265664	42	4552
2026-01-09 02:39:05.83	225.47	11.70	-36.0	-37.5	16.7	0.00e+00	0	57	0	3288334336	42	4597
2026-01-09 02:39:09.87	225.24	11.34	-36.1	-37.7	16.6	0.00e+00	0	57	0	3311403008	42	4661
2026-01-09 02:39:13.92	225.02	10.98	-36.1	-37.6	16.6	0.00e+00	0	57	0	3334471680	43	4385
2026-01-09 02:39:17.96	224.81	10.64	-36.2	-37.8	16.4	0.00e+00	0	57	0	3356491776	43	4444
2026-01-09 02:39:21.99	224.59	10.29	-36.1	-37.7	16.5	0.00e+00	0	57	0	3379560448	43	4403
2026-01-09 02:39:26.03	224.39	9.95	-36.0	-37.5	16.6	0.00e+00	0	57	0	3402629120	43	4335
2026-01-09 02:39:30.07	224.19	9.61	-36.2	-37.8	16.3	0.00e+00	0	57	0	3424649216	43	4451
2026-01-09 02:39:34.11	223.99	9.28	-36.2	-37.8	16.3	0.00e+00	0	57	0	3447717888	43	4448
2026-01-09 02:39:38.15	223.80	8.95	-36.3	-37.9	16.2	0.00e+00	0	57	0	3469737984	43	4497
2026-01-09 02:39:42.18	223.61	8.63	-36.4	-38.0	16.0	0.00e+00	0	57	0	3492806656	43	4560
2026-01-09 02:39:46.22	223.43	8.31	-36.5	-38.2	15.7	0.00e+00	0	57	0	3515875328	43	4690
2026-01-09 02:39:50.26	223.25	7.99	-36.6	-38.3	15.7	0.00e+00	0	57	0	3538944000	43	4718
2026-01-09 02:39:54.30	223.08	7.68	-44.7	-56.4	3.8	8.47e-01	0	57	104	3541041152	60	14219
2026-01-09 02:39:58.34	222.90	7.37	-44.9	-56.5	3.8	8.47e-01	0	57	104	3541041152	60	14484
2026-01-09 02:40:02.38	222.74	7.07	-44.9	-56.4	3.8	8.47e-01	0	57	104	3541041152	60	14358
2026-01-09 02:40:06.42	222.57	6.76	-44.8	-56.4	3.8	8.45e-01	0	57	104	3541041152	60	14282
2026-01-09 02:40:10.46	222.41	6.46	-44.8	-56.3	3.8	8.46e-01	0	57	104	3541041152	60	14203
2026-01-09 02:40:14.49	222.26	6.17	-44.8	-56.4	3.8	8.45e-01	0	57	104	3541041152	60	14253
2026-01-09 02:40:18.54	222.10	5.87	-44.8	-56.4	3.8	8.46e-01	0	57	104	3541041152	60	14222
2026-01-09 02:40:22.58	221.95	5.58	-44.8	-56.4	3.8	8.45e-01	0	57	104	3541041152	60	14221
2026-01-09 02:40:26.62	221.81	5.30	-44.8	-56.3	3.8	8.47e-01	0	57	104	3541041152	60	14167
2026-01-09 02:40:30.66	221.66	5.01	-44.8	-56.3	3.8	8.47e-01	0	57	104	3541041152	60	14144
2026-01-09 02:40:34.70	221.52	4.73	-44.8	-56.3	3.8	8.47e-01	0	57	104	3541041152	60	14157
2026-01-09 02:40:38.74	221.38	4.45	-44.8	-56.3	3.8	8.46e-01	0	57	104	3541041152	60	14161
2026-01-09 02:40:42.78	221.25	4.18	-44.8	-56.3	3.8	8.46e-01	0	57	104	3541041152	60	14145
2026-01-09 02:40:46.83	221.12	3.91	-44.8	-56.3	3.8	8.46e-01	0	57	104	3541041152	60	14196
2026-01-09 02:40:50.86	220.99	3.64	-44.8	-56.3	3.8	8.46e-01	0	57	104	3541041152	60	14161
2026-01-09 02:40:54.90	220.86	3.37	-44.8	-56.3	3.8	8.47e-01	0	57	104	3541041152	60	14207
2026-01-09 02:40:58.94	220.73	3.10	-44.7	-56.3	3.8	8.47e-01	0	57	104	3541041152	60	14139
2026-01-09 02:41:02.98	220.61	2.84	-44.7	-56.3	3.8	8.47e-01	0	57	104	3541041152	60	14145
2026-01-09 02:41:07.02	220.49	2.58	-44.7	-56.3	3.8	8.46e-01	0	57	104	3541041152	60	14126
2026-01-09 02:41:11.06	220.37	2.32	-44.8	-56.3	3.8	8.47e-01	0	57	104	3541041152	60	14162
2026-01-09 02:41:15.10	220.26	2.06	-44.7	-56.3	3.8	8.46e-01	0	57	104	3541041152	60	14127

#Closed at: 2026-01-09 02:41:17
#Recorded file [3541 MB]: D:/lorett/data/31039_260109_052714.dat