passes_logs/2026/01/09/R2.0S_Moscow/R2.0S_Moscow__20260109_225822_NOAA_21_JPSS-2_rec.log

#Pass ID: 20260109_225822_NOAA 21 (JPSS-2)
#Satellite: NOAA 21 (JPSS-2)
#Configuration: NOAA-21
#almurnet v.1.7.20251203
#Start time: 2026-01-09 22:58:23

#Version: 2.2.20231116
#Station: R2.0S_Moscow
#Location: 37.707566 lon 55.798166 lat
#TLE: 1 54234U 22150A   26009.23291724  .00000115  00000+0  75298-4 0  9996
#TLE: 2 54234  98.7494 310.2026 0000856 324.9272  35.1848 14.19533567163994

#Time	Az	El	Level	Level2	SNR	BER	BlckErr	Temp	State	Recorded	gain1	gain2
2026-01-09 22:58:23.42	19.66	2.07	-41.0	-53.9	3.8	1.49e+00	0	47	0	0	54	15096
2026-01-09 22:58:27.45	19.81	2.32	-41.0	-53.8	3.8	1.49e+00	0	47	104	0	53	15912
2026-01-09 22:58:31.48	19.95	2.57	-41.0	-53.9	3.8	1.49e+00	0	48	104	0	53	15977
2026-01-09 22:58:35.52	20.10	2.83	-41.0	-53.9	3.8	1.49e+00	0	48	104	0	53	15981
2026-01-09 22:58:39.56	20.25	3.09	-41.0	-53.9	3.8	1.49e+00	0	48	104	0	53	16006
2026-01-09 22:58:43.60	20.40	3.34	-41.0	-53.9	3.8	1.49e+00	0	48	104	0	53	15945
2026-01-09 22:58:47.63	20.55	3.61	-41.0	-53.8	3.8	1.49e+00	0	49	104	0	53	15891
2026-01-09 22:58:51.67	20.71	3.87	-41.0	-53.9	3.8	1.49e+00	0	49	104	0	53	15986
2026-01-09 22:58:55.70	20.86	4.14	-41.0	-53.8	3.8	1.49e+00	0	50	104	0	53	15918
2026-01-09 22:58:59.74	21.02	4.40	-41.0	-53.8	3.8	1.49e+00	0	50	104	0	53	15907
2026-01-09 22:59:03.78	21.19	4.68	-41.0	-53.8	3.8	1.49e+00	0	50	104	0	53	15926
2026-01-09 22:59:07.82	21.35	4.95	-41.0	-53.8	3.8	1.49e+00	0	50	104	0	53	15928
2026-01-09 22:59:11.85	21.52	5.23	-41.0	-53.8	3.8	1.49e+00	0	50	104	0	53	15894
2026-01-09 22:59:15.89	21.70	5.50	-41.0	-53.8	3.8	1.49e+00	0	50	104	0	53	15916
2026-01-09 22:59:19.93	21.87	5.79	-41.0	-53.9	3.8	1.49e+00	0	50	104	0	53	15948
2026-01-09 22:59:23.96	22.05	6.07	-41.0	-53.8	3.8	1.49e+00	0	51	104	0	53	15888
2026-01-09 22:59:27.99	22.23	6.36	-41.0	-53.8	3.8	1.49e+00	0	51	104	0	53	15910
2026-01-09 22:59:32.03	22.41	6.65	-41.0	-53.8	3.8	1.49e+00	0	51	104	0	53	15763
2026-01-09 22:59:36.06	22.60	6.94	-41.0	-53.4	3.8	1.49e+00	0	52	104	0	53	15075
2026-01-09 22:59:40.10	22.79	7.24	-40.9	-52.7	3.8	1.49e+00	0	51	104	0	53	13985
2026-01-09 22:59:44.14	22.99	7.54	-40.9	-52.4	3.8	1.49e+00	0	52	104	0	53	13441
2026-01-09 22:59:48.17	23.19	7.85	-40.5	-49.1	4.6	1.18e+00	0	52	104	0	53	9248
2026-01-09 22:59:52.21	23.39	8.15	-39.3	-43.1	10.4	5.26e-03	0	52	0	6291456	50	5490
2026-01-09 22:59:56.24	23.60	8.46	-40.7	-50.0	4.2	1.43e+00	0	52	104	15728640	52	10838
2026-01-09 23:00:00.27	23.81	8.78	-39.5	-42.3	12.3	2.08e-04	0	52	0	27262976	50	5025
2026-01-09 23:00:04.30	24.02	9.09	-39.2	-41.7	13.1	3.96e-05	0	52	0	39845888	50	4676
2026-01-09 23:00:08.33	24.24	9.42	-39.1	-41.5	13.4	1.67e-05	0	53	0	52428800	50	4583
2026-01-09 23:00:12.37	24.46	9.74	-39.3	-41.7	13.3	1.44e-05	0	53	0	65011712	50	4698
2026-01-09 23:00:16.40	24.69	10.07	-39.0	-41.2	13.8	1.50e-06	0	53	0	77594624	49	4700
2026-01-09 23:00:20.44	24.92	10.40	-38.9	-41.1	14.1	3.00e-06	0	53	0	90177536	49	4600
2026-01-09 23:00:24.46	25.16	10.74	-38.7	-40.8	14.3	7.00e-07	0	53	0	102760448	49	4481
2026-01-09 23:00:28.49	25.40	11.08	-38.6	-40.6	14.6	7.00e-07	0	53	0	115343360	48	4644
2026-01-09 23:00:32.52	25.65	11.43	-38.5	-40.5	14.8	7.00e-07	0	53	0	127926272	48	4568
2026-01-09 23:00:36.54	25.90	11.78	-38.4	-40.4	14.9	0.00e+00	0	53	0	140509184	48	4513
2026-01-09 23:00:40.57	26.16	12.13	-38.3	-40.3	15.0	0.00e+00	0	53	0	153092096	48	4456
2026-01-09 23:00:44.60	26.43	12.49	-38.2	-40.1	15.3	0.00e+00	0	54	0	165675008	48	4354
2026-01-09 23:00:48.63	26.70	12.86	-38.3	-40.2	15.1	0.00e+00	0	53	0	178257920	48	4433
2026-01-09 23:00:52.65	26.98	13.23	-38.1	-40.0	15.4	0.00e+00	0	54	0	190840832	48	4312
2026-01-09 23:00:56.68	27.26	13.60	-38.2	-40.0	15.4	0.00e+00	0	54	0	203423744	48	4313
2026-01-09 23:01:00.71	27.55	13.98	-38.2	-40.0	15.5	0.00e+00	0	54	0	216006656	48	4316
2026-01-09 23:01:04.74	27.85	14.37	-38.1	-39.9	15.5	0.00e+00	0	54	0	228589568	48	4291
2026-01-09 23:01:08.77	28.16	14.76	-38.2	-40.0	15.5	0.00e+00	0	54	0	241172480	48	4306
2026-01-09 23:01:12.80	28.47	15.16	-38.2	-40.0	15.5	0.00e+00	0	54	0	253755392	48	4336
2026-01-09 23:01:16.83	28.79	15.56	-38.3	-40.2	15.4	7.00e-07	0	54	0	266338304	48	4405
2026-01-09 23:01:20.86	29.12	15.97	-38.4	-40.3	15.2	0.00e+00	0	54	0	278921216	48	4492
2026-01-09 23:01:24.89	29.46	16.38	-38.6	-40.5	15.0	0.00e+00	0	54	0	291504128	48	4585
2026-01-09 23:01:28.91	29.81	16.80	-38.6	-40.5	15.0	0.00e+00	0	54	0	304087040	48	4577
2026-01-09 23:01:32.94	30.16	17.23	-38.6	-40.5	15.1	0.00e+00	0	54	0	316669952	48	4577
2026-01-09 23:01:36.97	30.53	17.67	-38.5	-40.3	15.3	0.00e+00	0	54	0	329252864	48	4484
2026-01-09 23:01:40.99	30.91	18.11	-38.5	-40.4	15.2	0.00e+00	0	54	0	341835776	48	4535
2026-01-09 23:01:45.02	31.29	18.55	-38.4	-40.3	15.4	0.00e+00	0	54	0	354418688	48	4474
2026-01-09 23:01:49.04	31.69	19.01	-38.2	-40.0	15.7	0.00e+00	0	55	0	367001600	48	4323
2026-01-09 23:01:53.07	32.10	19.47	-38.0	-39.7	16.0	0.00e+00	0	54	0	379584512	48	4174
2026-01-09 23:01:57.10	32.53	19.94	-37.8	-39.5	16.2	0.00e+00	0	55	0	392167424	47	4311
2026-01-09 23:02:01.13	32.96	20.42	-37.6	-39.3	16.4	0.00e+00	0	55	0	404750336	47	4201
2026-01-09 23:02:05.17	33.41	20.90	-37.5	-39.1	16.5	0.00e+00	0	55	0	417333248	46	4369
2026-01-09 23:02:09.20	33.87	21.39	-37.3	-38.9	16.7	0.00e+00	0	55	0	429916160	46	4255
2026-01-09 23:02:13.23	34.35	21.89	-37.3	-38.9	16.7	0.00e+00	0	55	0	442499072	46	4263
2026-01-09 23:02:17.27	34.84	22.40	-37.2	-38.8	16.9	0.00e+00	0	55	0	455081984	46	4201
2026-01-09 23:02:21.30	35.35	22.92	-37.1	-38.6	17.1	0.00e+00	0	55	0	467664896	46	4106
2026-01-09 23:02:25.34	35.88	23.45	-37.0	-38.5	17.2	0.00e+00	0	55	0	480247808	45	4315
2026-01-09 23:02:29.37	36.42	23.98	-36.9	-38.4	17.2	0.00e+00	0	55	0	492830720	45	4286
2026-01-09 23:02:33.41	36.98	24.52	-37.1	-38.6	17.2	0.00e+00	0	55	0	505413632	45	4364
2026-01-09 23:02:37.44	37.56	25.07	-37.2	-38.7	17.0	0.00e+00	0	55	0	517996544	45	4413
2026-01-09 23:02:41.49	38.17	25.63	-37.5	-39.1	16.7	0.00e+00	0	55	0	530579456	45	4601
2026-01-09 23:02:45.52	38.79	26.20	-37.5	-39.1	16.7	0.00e+00	0	55	0	543162368	45	4641
2026-01-09 23:02:49.55	39.43	26.78	-37.7	-39.3	16.5	0.00e+00	0	55	0	555745280	45	4727
2026-01-09 23:02:53.57	40.10	27.36	-37.7	-39.4	16.4	0.00e+00	0	55	0	568328192	46	4505
2026-01-09 23:02:57.60	40.79	27.96	-37.8	-39.4	16.4	0.00e+00	0	55	0	580911104	46	4538
2026-01-09 23:03:01.62	41.50	28.56	-37.9	-39.5	16.3	0.00e+00	0	55	0	593494016	46	4576
2026-01-09 23:03:05.65	42.25	29.17	-37.8	-39.4	16.4	0.00e+00	0	55	0	606076928	46	4529
2026-01-09 23:03:09.67	43.02	29.78	-37.7	-39.3	16.5	0.00e+00	0	55	0	618659840	46	4472
2026-01-09 23:03:13.70	43.82	30.41	-37.6	-39.2	16.6	0.00e+00	0	55	0	631242752	46	4427
2026-01-09 23:03:17.73	44.65	31.05	-37.5	-39.1	16.8	0.00e+00	0	55	0	643825664	46	4349
2026-01-09 23:03:21.76	45.52	31.69	-37.6	-39.2	16.6	0.00e+00	0	55	0	656408576	46	4432
2026-01-09 23:03:25.79	46.42	32.34	-38.0	-39.7	16.2	0.00e+00	0	55	0	668991488	46	4662
2026-01-09 23:03:29.82	47.35	32.99	-38.2	-39.9	16.0	0.00e+00	0	55	0	681574400	47	4513
2026-01-09 23:03:33.84	48.32	33.65	-38.5	-40.2	15.6	0.00e+00	0	55	0	694157312	47	4702
2026-01-09 23:03:37.87	49.34	34.32	-38.4	-40.2	15.7	0.00e+00	0	55	0	706740224	47	4680
2026-01-09 23:03:41.90	50.39	34.99	-38.6	-40.4	15.5	0.00e+00	0	56	0	719323136	47	4794
2026-01-09 23:03:45.93	51.49	35.66	-38.9	-40.7	15.3	0.00e+00	0	55	0	731906048	48	4690
2026-01-09 23:03:49.96	52.64	36.34	-39.4	-41.5	14.6	0.00e+00	0	56	0	744488960	49	4816
2026-01-09 23:03:53.99	53.83	37.01	-39.4	-41.4	14.6	7.00e-07	0	55	0	757071872	49	4783
2026-01-09 23:03:58.03	55.08	37.69	-39.6	-41.7	14.2	7.00e-07	0	56	0	770703360	49	4983
2026-01-09 23:04:02.06	56.37	38.37	-39.7	-41.8	14.2	7.00e-07	0	56	0	782237696	50	4755
2026-01-09 23:04:06.10	57.73	39.04	-39.4	-41.4	14.7	0.00e+00	0	55	0	795869184	50	4506
2026-01-09 23:04:10.13	59.13	39.71	-39.3	-41.3	14.8	7.00e-07	0	56	0	808452096	50	4466
2026-01-09 23:04:14.15	60.59	40.37	-39.5	-41.6	14.5	0.00e+00	0	56	0	819986432	50	4611
2026-01-09 23:04:18.18	62.12	41.02	-40.0	-42.2	13.9	2.20e-06	0	56	0	833617920	50	4969
2026-01-09 23:04:22.21	63.70	41.66	-40.2	-42.5	13.6	4.50e-06	0	56	0	845152256	51	4854
2026-01-09 23:04:26.24	65.35	42.29	-39.9	-42.0	14.1	3.80e-06	0	56	0	858783744	51	4583
2026-01-09 23:04:30.27	67.06	42.89	-39.7	-41.8	14.3	0.00e+00	0	56	0	871366656	51	4447
2026-01-09 23:04:34.30	68.84	43.48	-39.6	-41.6	14.5	7.00e-07	0	56	0	883949568	50	4625
2026-01-09 23:04:38.32	70.67	44.05	-39.9	-42.0	14.0	2.20e-06	0	56	0	896532480	50	4862
2026-01-09 23:04:42.35	72.58	44.59	-39.7	-41.8	14.3	7.00e-07	0	56	0	909115392	50	4716
2026-01-09 23:04:46.37	74.54	45.11	-39.8	-41.9	14.2	1.50e-06	0	56	0	921698304	50	4767
2026-01-09 23:04:50.41	76.58	45.59	-39.9	-42.1	14.1	1.50e-06	0	56	0	934281216	50	4897
2026-01-09 23:04:54.44	78.67	46.04	-40.1	-42.3	13.9	3.00e-06	0	56	0	946864128	50	5017
2026-01-09 23:04:58.47	80.82	46.45	-39.6	-41.6	14.6	7.00e-07	0	56	0	959447040	50	4634
2026-01-09 23:05:02.51	83.03	46.82	-39.8	-41.9	14.3	0.00e+00	0	56	0	972029952	50	4776
2026-01-09 23:05:06.54	85.29	47.15	-39.7	-41.9	14.2	7.00e-07	0	56	0	984612864	50	4765
2026-01-09 23:05:10.57	87.58	47.43	-39.7	-41.7	14.4	0.00e+00	0	56	0	997195776	50	4696
2026-01-09 23:05:14.61	89.92	47.66	-39.3	-41.3	14.8	7.00e-07	0	56	0	1009778688	50	4456
2026-01-09 23:05:18.64	92.29	47.84	-39.6	-41.7	14.5	7.00e-07	0	56	0	1022361600	50	4674
2026-01-09 23:05:22.68	94.69	47.97	-39.5	-41.5	14.6	7.00e-07	0	56	0	1034944512	50	4570
2026-01-09 23:05:26.71	97.10	48.05	-39.6	-41.6	14.6	0.00e+00	0	56	0	1047527424	50	4645
2026-01-09 23:05:30.74	99.51	48.07	-39.5	-41.6	14.7	7.00e-07	0	56	0	1060110336	50	4601
2026-01-09 23:05:34.76	101.92	48.04	-39.8	-41.9	14.2	2.20e-06	0	56	0	1072693248	50	4786
2026-01-09 23:05:38.79	104.33	47.95	-40.0	-42.3	13.9	2.20e-06	0	56	0	1085276160	50	4984
2026-01-09 23:05:42.82	106.71	47.81	-40.0	-42.2	13.9	1.14e-05	0	56	0	1097859072	51	4687
2026-01-09 23:05:46.85	109.08	47.62	-40.1	-42.4	13.8	5.30e-06	0	56	0	1110441984	51	4765
2026-01-09 23:05:50.88	111.41	47.38	-39.9	-42.0	14.1	3.00e-06	0	56	0	1123024896	51	4591
2026-01-09 23:05:54.92	113.71	47.10	-39.7	-41.7	14.4	3.00e-06	0	56	0	1135607808	50	4691
2026-01-09 23:05:58.96	115.97	46.76	-39.4	-41.3	14.7	7.00e-07	0	56	0	1148190720	50	4483
2026-01-09 23:06:03.00	118.17	46.38	-40.2	-42.4	13.7	5.30e-06	0	56	0	1160773632	50	5099
2026-01-09 23:06:07.03	120.32	45.96	-39.2	-41.1	15.0	0.00e+00	0	56	0	1173356544	50	4342
2026-01-09 23:06:11.07	122.41	45.51	-39.2	-41.1	15.0	0.00e+00	0	56	0	1185939456	50	4386
2026-01-09 23:06:15.11	124.44	45.02	-39.0	-40.8	15.2	0.00e+00	0	56	0	1198522368	49	4493
2026-01-09 23:06:19.15	126.41	44.49	-39.4	-41.4	14.6	7.00e-07	0	56	0	1211105280	49	4814
2026-01-09 23:06:23.18	128.31	43.94	-39.8	-41.8	14.3	0.00e+00	0	56	0	1223688192	50	4757
2026-01-09 23:06:27.22	130.14	43.37	-40.4	-42.7	13.4	1.67e-05	0	56	0	1236271104	51	4972
2026-01-09 23:06:31.24	131.91	42.77	-40.2	-42.5	13.6	3.00e-06	0	56	0	1248854016	51	4835
2026-01-09 23:06:35.27	133.61	42.16	-40.0	-42.1	14.0	3.00e-06	0	56	0	1261436928	51	4651
2026-01-09 23:06:39.30	135.25	41.52	-39.4	-41.4	14.7	0.00e+00	0	56	0	1274019840	50	4538
2026-01-09 23:06:43.33	136.83	40.88	-39.4	-41.4	14.7	7.00e-07	0	56	0	1286602752	50	4495
2026-01-09 23:06:47.37	138.35	40.22	-39.5	-41.5	14.5	0.00e+00	0	56	0	1299185664	50	4595
2026-01-09 23:06:51.39	139.80	39.56	-40.1	-42.4	13.7	7.60e-06	0	56	0	1311768576	50	5089
2026-01-09 23:06:55.43	141.21	38.88	-39.8	-41.9	14.2	7.00e-07	0	56	0	1324351488	51	4511
2026-01-09 23:06:59.47	142.55	38.21	-39.4	-41.4	14.7	0.00e+00	0	56	0	1336934400	50	4541
2026-01-09 23:07:03.50	143.84	37.53	-38.9	-40.8	15.3	0.00e+00	0	56	0	1349517312	49	4460
2026-01-09 23:07:07.54	145.08	36.84	-38.8	-40.6	15.5	0.00e+00	0	56	0	1362100224	49	4361
2026-01-09 23:07:11.57	146.27	36.16	-39.2	-41.2	14.9	0.00e+00	0	56	0	1374683136	49	4682
2026-01-09 23:07:15.59	147.41	35.48	-39.4	-41.4	14.7	0.00e+00	0	56	0	1387266048	49	4793
2026-01-09 23:07:19.62	148.50	34.81	-38.8	-40.6	15.4	0.00e+00	0	56	0	1399848960	49	4390
2026-01-09 23:07:23.65	149.55	34.13	-39.0	-40.9	15.2	0.00e+00	0	56	0	1412431872	49	4498
2026-01-09 23:07:27.68	150.56	33.46	-38.6	-40.3	15.7	0.00e+00	0	56	0	1425014784	49	4238
2026-01-09 23:07:31.72	151.53	32.80	-38.5	-40.2	15.8	0.00e+00	0	56	0	1437597696	48	4426
2026-01-09 23:07:35.76	152.46	32.14	-38.2	-39.8	16.1	0.00e+00	0	56	0	1450180608	48	4238
2026-01-09 23:07:39.79	153.36	31.49	-37.9	-39.5	16.4	0.00e+00	0	56	0	1462763520	47	4316
2026-01-09 23:07:43.83	154.22	30.84	-37.5	-39.1	16.7	0.00e+00	0	57	0	1475346432	47	4120
2026-01-09 23:07:47.86	155.05	30.20	-37.6	-39.2	16.7	0.00e+00	0	56	0	1488977920	47	4179
2026-01-09 23:07:51.90	155.85	29.57	-37.6	-39.1	16.8	0.00e+00	0	56	0	1500512256	47	4134
2026-01-09 23:07:55.93	156.61	28.95	-37.4	-38.9	17.0	0.00e+00	0	56	0	1514143744	46	4266
2026-01-09 23:07:59.96	157.35	28.34	-37.5	-39.1	16.8	0.00e+00	0	56	0	1526726656	46	4371
2026-01-09 23:08:03.99	158.06	27.73	-37.6	-39.2	16.7	0.00e+00	0	57	0	1538260992	46	4412
2026-01-09 23:08:08.02	158.75	27.14	-37.2	-38.7	17.0	0.00e+00	0	56	0	1551892480	46	4191
2026-01-09 23:08:12.05	159.41	26.55	-37.4	-38.9	16.9	0.00e+00	0	56	0	1563426816	46	4280
2026-01-09 23:08:16.09	160.05	25.97	-37.2	-38.7	17.1	0.00e+00	0	57	0	1577058304	46	4184
2026-01-09 23:08:20.12	160.67	25.40	-37.1	-38.6	17.1	0.00e+00	0	56	0	1589641216	46	4138
2026-01-09 23:08:24.15	161.26	24.84	-37.3	-38.9	16.9	0.00e+00	0	56	0	1602224128	46	4248
2026-01-09 23:08:28.19	161.84	24.29	-37.4	-39.0	16.8	0.00e+00	0	56	0	1614807040	46	4295
2026-01-09 23:08:32.22	162.40	23.75	-37.7	-39.3	16.5	0.00e+00	0	57	0	1627389952	46	4465
2026-01-09 23:08:36.25	162.93	23.21	-37.9	-39.6	16.2	0.00e+00	0	56	0	1639972864	46	4610
2026-01-09 23:08:40.28	163.46	22.68	-37.9	-39.6	16.2	0.00e+00	0	56	0	1652555776	46	4622
2026-01-09 23:08:44.32	163.96	22.17	-37.6	-39.3	16.4	0.00e+00	0	56	0	1665138688	46	4460
2026-01-09 23:08:48.36	164.45	21.65	-37.5	-39.1	16.6	0.00e+00	0	56	0	1677721600	46	4367
2026-01-09 23:08:52.40	164.92	21.15	-37.6	-39.3	16.5	0.00e+00	0	56	0	1690304512	46	4443
2026-01-09 23:08:56.43	165.38	20.66	-37.7	-39.4	16.4	0.00e+00	0	56	0	1702887424	46	4503
2026-01-09 23:09:00.47	165.83	20.17	-37.6	-39.3	16.4	0.00e+00	0	56	0	1715470336	46	4455
2026-01-09 23:09:04.50	166.26	19.69	-38.0	-39.7	16.0	0.00e+00	0	56	0	1728053248	46	4674
2026-01-09 23:09:08.54	166.68	19.22	-37.8	-39.6	16.1	0.00e+00	0	56	0	1740636160	46	4605
2026-01-09 23:09:12.58	167.09	18.76	-37.7	-39.4	16.2	0.00e+00	0	56	0	1753219072	46	4502
2026-01-09 23:09:16.62	167.48	18.30	-37.6	-39.3	16.3	0.00e+00	0	56	0	1765801984	46	4444
2026-01-09 23:09:20.66	167.87	17.85	-37.6	-39.3	16.3	0.00e+00	0	56	0	1778384896	46	4447
2026-01-09 23:09:24.69	168.24	17.41	-37.5	-39.2	16.4	0.00e+00	0	56	0	1790967808	46	4400
2026-01-09 23:09:28.72	168.60	16.97	-37.5	-39.1	16.5	0.00e+00	0	56	0	1803550720	46	4388
2026-01-09 23:09:32.76	168.95	16.54	-37.8	-39.5	16.1	0.00e+00	0	57	0	1816133632	46	4578
2026-01-09 23:09:36.80	169.30	16.12	-38.1	-39.9	15.7	0.00e+00	0	57	0	1828716544	46	4771
2026-01-09 23:09:40.83	169.63	15.71	-38.2	-40.1	15.4	7.00e-07	0	56	0	1841299456	47	4615
2026-01-09 23:09:44.86	169.96	15.30	-38.2	-40.1	15.3	0.00e+00	0	56	0	1853882368	47	4642
2026-01-09 23:09:48.89	170.28	14.89	-38.3	-40.2	15.2	0.00e+00	0	56	0	1866465280	47	4680
2026-01-09 23:09:52.92	170.58	14.49	-38.3	-40.3	15.1	0.00e+00	0	57	0	1879048192	47	4717
2026-01-09 23:09:56.96	170.89	14.10	-38.4	-40.4	15.0	0.00e+00	0	56	0	1891631104	47	4789
2026-01-09 23:10:01.00	171.18	13.71	-38.4	-40.3	15.0	0.00e+00	0	56	0	1904214016	47	4750
2026-01-09 23:10:05.03	171.47	13.33	-38.4	-40.3	15.0	7.00e-07	0	56	0	1916796928	47	4744
2026-01-09 23:10:09.06	171.75	12.96	-38.5	-40.5	14.8	7.00e-07	0	57	0	1929379840	47	4835
2026-01-09 23:10:13.09	172.02	12.59	-38.6	-40.6	14.6	7.00e-07	0	56	0	1941962752	47	4902
2026-01-09 23:10:17.11	172.29	12.22	-38.6	-40.7	14.5	0.00e+00	0	56	0	1954545664	47	4948
2026-01-09 23:10:21.14	172.55	11.86	-38.5	-40.5	14.7	1.50e-06	0	56	0	1967128576	47	4856
2026-01-09 23:10:25.17	172.80	11.50	-38.6	-40.7	14.4	0.00e+00	0	56	0	1979711488	47	4968
2026-01-09 23:10:29.19	173.05	11.15	-38.6	-40.7	14.6	7.00e-07	0	56	0	1992294400	48	4666
2026-01-09 23:10:33.22	173.29	10.81	-38.5	-40.5	14.6	7.00e-07	0	57	0	2004877312	48	4577
2026-01-09 23:10:37.26	173.53	10.46	-38.5	-40.6	14.6	0.00e+00	0	56	0	2017460224	48	4608
2026-01-09 23:10:41.29	173.76	10.13	-38.6	-40.7	14.4	0.00e+00	0	56	0	2030043136	48	4693
2026-01-09 23:10:45.32	173.99	9.79	-38.8	-40.9	14.1	7.00e-07	0	56	0	2042626048	48	4802
2026-01-09 23:10:49.36	174.22	9.46	-38.9	-41.1	13.9	3.00e-06	0	57	0	2055208960	48	4883
2026-01-09 23:10:53.40	174.43	9.14	-39.1	-41.4	13.5	7.60e-06	0	56	0	2067791872	48	5087
2026-01-09 23:10:57.43	174.65	8.81	-38.9	-41.2	13.7	5.30e-06	0	57	0	2080374784	49	4673
2026-01-09 23:11:01.47	174.86	8.49	-39.0	-41.4	13.4	1.60e-05	0	57	0	2092957696	49	4773
2026-01-09 23:11:05.50	175.06	8.18	-39.3	-41.8	12.8	4.80e-05	0	56	0	2105540608	49	5022
2026-01-09 23:11:09.54	175.26	7.87	-44.6	-56.8	3.8	1.49e+00	0	57	104	2112880640	59	15919
2026-01-09 23:11:13.58	175.46	7.56	-45.0	-57.4	3.8	1.49e+00	0	56	104	2112880640	60	16122
2026-01-09 23:11:17.61	175.65	7.26	-45.1	-57.6	3.8	1.49e+00	0	57	104	2112880640	60	16351
2026-01-09 23:11:21.64	175.84	6.96	-45.0	-57.5	3.8	1.49e+00	0	56	104	2112880640	60	16239
2026-01-09 23:11:25.68	176.03	6.66	-44.9	-57.5	3.8	1.49e+00	0	57	104	2112880640	60	16130
2026-01-09 23:11:29.71	176.21	6.36	-44.9	-57.5	3.8	1.49e+00	0	57	104	2112880640	60	16208
2026-01-09 23:11:33.74	176.39	6.07	-44.9	-57.5	3.8	1.49e+00	0	57	104	2112880640	60	16170
2026-01-09 23:11:37.78	176.57	5.78	-44.9	-57.5	3.8	1.49e+00	0	57	104	2112880640	60	16169
2026-01-09 23:11:41.80	176.74	5.50	-44.8	-57.5	3.8	1.49e+00	0	57	104	2112880640	60	16190
2026-01-09 23:11:45.84	176.91	5.22	-44.9	-57.5	3.8	1.49e+00	0	57	104	2112880640	60	16214
2026-01-09 23:11:49.88	177.08	4.94	-44.9	-57.5	3.8	1.49e+00	0	57	104	2112880640	60	16192
2026-01-09 23:11:53.92	177.24	4.66	-44.9	-57.5	3.8	1.49e+00	0	57	104	2112880640	60	16155
2026-01-09 23:11:57.96	177.40	4.38	-44.9	-57.5	3.8	1.49e+00	0	57	104	2112880640	60	16128
2026-01-09 23:12:01.97	177.56	4.11	-44.9	-57.5	3.8	1.49e+00	0	57	104	2112880640	60	16144
2026-01-09 23:12:06.01	177.71	3.84	-44.9	-57.4	3.8	1.49e+00	0	57	104	2112880640	60	16105
2026-01-09 23:12:10.04	177.87	3.58	-44.9	-57.4	3.8	1.49e+00	0	57	104	2112880640	60	16068
2026-01-09 23:12:14.06	178.02	3.31	-44.9	-57.4	3.8	1.49e+00	0	57	104	2112880640	60	16091
2026-01-09 23:12:18.10	178.16	3.05	-44.9	-57.4	3.8	1.49e+00	0	57	104	2112880640	60	16124
2026-01-09 23:12:22.14	178.31	2.79	-44.9	-57.4	3.8	1.49e+00	0	57	104	2112880640	60	16081
2026-01-09 23:12:26.16	178.45	2.54	-44.7	-57.5	3.8	1.49e+00	0	57	104	2112880640	60	16130
2026-01-09 23:12:30.20	178.59	2.28	-44.9	-57.4	3.8	1.49e+00	0	57	104	2112880640	60	16096
2026-01-09 23:12:34.24	178.73	2.03	-44.9	-57.4	3.8	1.49e+00	0	57	104	2112880640	60	16104

#Closed at: 2026-01-09 23:12:34
#Recorded file [2112 MB]: D:/lorett/data/31039_260110_015823.dat