passes_logs/2026/01/09/R2.0S_Moscow/R2.0S_Moscow__20260109_094810_AQUA_rec.log

#Pass ID: 20260109_094810_AQUA
#Satellite: AQUA
#Configuration: AQUA
#almurnet v.1.7.20251203
#Start time: 2026-01-09 09:51:52

#Version: 2.2.20231116
#Station: R2.0S_Moscow
#Location: 37.707566 lon 55.798166 lat
#TLE: 1 27424U 02022A   26004.96787593  .00001598  00000+0  32997-3 0  9996
#TLE: 2 27424  98.4069 331.2279 0002002  90.2377   0.6092 14.61798176259425

#Time	Az	El	Level	Level2	SNR	BER	BlckErr	Temp	State	Recorded	gain1	gain2
2026-01-09 09:51:52.57	69.55	13.88	-44.7	-59.2	3.8	1.49e+00	0	56	0	0	60	19677
2026-01-09 09:51:54.58	69.10	13.96	-45.9	-64.7	3.8	7.46e-01	0	56	104	0	62	32999
2026-01-09 09:51:56.60	68.65	14.04	-46.1	-64.8	3.8	7.44e-01	0	57	104	0	62	33354
2026-01-09 09:51:58.63	68.20	14.11	-46.0	-64.7	3.8	7.47e-01	0	57	104	0	62	33110
2026-01-09 09:52:00.65	67.74	14.19	-45.6	-64.3	3.8	7.48e-01	0	56	104	0	62	31520
2026-01-09 09:52:02.67	67.28	14.26	-45.3	-63.7	3.8	7.50e-01	0	57	104	0	62	29473
2026-01-09 09:52:04.69	66.82	14.33	-45.1	-63.8	3.8	7.44e-01	0	56	104	0	62	30016
2026-01-09 09:52:06.71	66.35	14.40	-45.2	-63.7	3.8	7.47e-01	0	56	104	0	62	29670
2026-01-09 09:52:08.73	65.89	14.47	-45.1	-63.5	3.8	7.47e-01	0	56	104	0	62	28791
2026-01-09 09:52:10.76	65.42	14.54	-45.2	-63.6	3.8	7.44e-01	0	57	104	0	62	29221
2026-01-09 09:52:12.78	64.95	14.61	-45.1	-63.7	3.8	7.45e-01	0	57	104	0	62	29566
2026-01-09 09:52:14.80	64.47	14.67	-45.2	-63.8	3.8	7.44e-01	0	57	104	0	62	29928
2026-01-09 09:52:16.82	64.00	14.73	-45.1	-63.3	3.8	7.47e-01	0	56	104	0	62	28270
2026-01-09 09:52:18.85	63.52	14.79	-45.1	-62.8	3.8	7.45e-01	0	56	104	0	62	26740
2026-01-09 09:52:20.87	63.04	14.85	-45.1	-63.2	3.8	7.43e-01	0	57	104	0	62	27772
2026-01-09 09:52:22.89	62.56	14.91	-45.1	-63.4	3.8	7.43e-01	0	57	104	0	62	28448
2026-01-09 09:52:24.91	62.07	14.97	-45.1	-63.7	3.8	7.45e-01	0	56	104	0	62	29374
2026-01-09 09:52:26.93	61.59	15.02	-45.1	-63.2	3.8	7.47e-01	0	56	104	0	62	27864
2026-01-09 09:52:28.95	61.10	15.07	-45.1	-62.7	3.8	7.47e-01	0	56	104	0	62	26330
2026-01-09 09:52:30.98	60.61	15.12	-45.1	-63.4	3.8	7.45e-01	0	57	104	0	62	28378
2026-01-09 09:52:32.99	60.12	15.17	-45.1	-63.5	3.8	7.46e-01	0	57	104	0	62	28902
2026-01-09 09:52:35.01	59.63	15.22	-45.1	-62.8	3.8	7.49e-01	0	56	104	0	62	26572
2026-01-09 09:52:37.04	59.14	15.26	-45.1	-60.6	4.0	7.34e-01	0	57	104	0	62	20680
2026-01-09 09:52:39.06	58.64	15.30	-45.0	-59.7	4.1	7.26e-01	0	57	104	0	61	19643
2026-01-09 09:52:41.08	58.14	15.34	-44.8	-56.4	6.2	6.80e-01	92	57	0	524288	61	13426
2026-01-09 09:52:43.10	57.65	15.38	-44.0	-51.2	11.3	6.16e-01	0	57	0	4194304	60	7854
2026-01-09 09:52:45.12	57.15	15.42	-42.3	-46.1	16.9	6.05e-01	0	57	0	7864320	56	5522
2026-01-09 09:52:47.14	56.65	15.45	-45.4	-63.3	3.8	7.48e-01	0	57	104	10485760	61	29938
2026-01-09 09:52:49.16	56.14	15.48	-44.4	-52.1	10.4	6.19e-01	0	57	0	12582912	59	9255
2026-01-09 09:52:51.18	55.64	15.51	-40.3	-43.0	20.0	6.04e-01	0	56	0	16252928	52	4847
2026-01-09 09:52:53.20	55.14	15.54	-40.2	-42.9	20.1	6.05e-01	0	57	0	19922944	52	4775
2026-01-09 09:52:55.22	54.63	15.57	-40.2	-42.8	20.2	6.07e-01	0	57	0	23592960	52	4727
2026-01-09 09:52:57.24	54.13	15.59	-40.3	-43.0	20.1	6.06e-01	0	57	0	27787264	52	4826
2026-01-09 09:52:59.26	53.62	15.61	-40.0	-42.5	20.7	6.07e-01	0	57	0	31457280	51	4834
2026-01-09 09:53:01.28	53.11	15.63	-40.0	-42.4	20.7	6.08e-01	0	57	0	35127296	51	4798
2026-01-09 09:53:03.30	52.60	15.65	-39.9	-42.4	20.8	6.06e-01	0	57	0	38797312	51	4774
2026-01-09 09:53:05.32	52.10	15.67	-39.9	-42.3	20.8	6.04e-01	0	57	0	42991616	51	4729
2026-01-09 09:53:07.34	51.59	15.68	-39.9	-42.3	20.9	6.05e-01	0	57	0	46661632	51	4730
2026-01-09 09:53:09.36	51.08	15.69	-39.9	-42.4	20.8	6.05e-01	0	57	0	50331648	51	4765
2026-01-09 09:53:11.38	50.57	15.70	-39.9	-42.4	20.8	6.05e-01	0	57	0	54001664	51	4771
2026-01-09 09:53:13.40	50.06	15.71	-39.7	-42.1	21.1	6.05e-01	0	57	0	57671680	51	4608
2026-01-09 09:53:15.42	49.55	15.71	-39.9	-42.3	20.9	6.05e-01	0	57	0	61865984	51	4727
2026-01-09 09:53:17.44	49.04	15.71	-39.9	-42.3	20.8	6.08e-01	0	57	0	65536000	51	4755
2026-01-09 09:53:19.45	48.53	15.71	-39.8	-42.2	20.9	6.07e-01	0	57	0	69206016	51	4705
2026-01-09 09:53:21.47	48.02	15.71	-39.8	-42.2	20.9	6.08e-01	0	57	0	72876032	51	4703
2026-01-09 09:53:23.49	47.51	15.71	-39.8	-42.3	20.9	6.05e-01	0	57	0	77070336	51	4710
2026-01-09 09:53:25.51	47.00	15.70	-39.8	-42.3	20.9	6.06e-01	0	57	0	80740352	51	4707
2026-01-09 09:53:27.53	46.49	15.69	-39.9	-42.3	20.8	6.07e-01	0	57	0	84410368	51	4757
2026-01-09 09:53:29.55	45.98	15.68	-39.9	-42.3	20.9	6.08e-01	0	57	0	88080384	51	4713
2026-01-09 09:53:31.57	45.47	15.67	-39.8	-42.2	20.9	6.06e-01	0	57	0	91750400	51	4688
2026-01-09 09:53:33.58	44.96	15.66	-40.2	-52.0	3.9	7.39e-01	0	57	104	93323264	51	14439
2026-01-09 09:53:35.60	44.46	15.64	-40.2	-52.0	3.9	7.42e-01	0	57	104	93323264	51	14409
2026-01-09 09:53:37.62	43.95	15.62	-41.8	-54.8	3.7	7.44e-01	0	57	104	93323264	54	16717
2026-01-09 09:53:39.64	43.44	15.60	-41.8	-54.8	3.7	7.47e-01	0	57	104	93323264	54	16736
2026-01-09 09:53:41.66	42.94	15.58	-40.5	-52.6	3.8	7.43e-01	0	57	104	93323264	52	14691
2026-01-09 09:53:43.67	42.44	15.55	-41.4	-53.8	4.2	7.35e-01	0	57	104	93323264	53	15870
2026-01-09 09:53:45.70	41.93	15.52	-43.3	-57.2	4.0	7.40e-01	0	57	104	93323264	57	18661
2026-01-09 09:53:47.72	41.43	15.49	-42.2	-55.0	3.8	7.46e-01	0	57	104	93323264	54	17095
2026-01-09 09:53:49.74	40.93	15.46	-40.1	-52.0	3.8	7.43e-01	0	57	104	93323264	52	13632
2026-01-09 09:53:51.75	40.43	15.43	-41.7	-54.3	3.8	7.49e-01	0	57	104	93323264	53	16832
2026-01-09 09:53:53.77	39.93	15.39	-43.8	-58.6	3.8	7.47e-01	0	57	104	93323264	58	20683
2026-01-09 09:53:55.79	39.43	15.35	-40.2	-52.2	3.8	7.46e-01	0	57	104	93323264	52	13887
2026-01-09 09:53:57.81	38.94	15.31	-40.1	-52.0	3.8	7.49e-01	0	57	104	93323264	52	13639
2026-01-09 09:53:59.83	38.44	15.27	-40.0	-51.9	3.8	7.45e-01	0	57	104	93323264	52	13420
2026-01-09 09:54:01.84	37.95	15.23	-44.0	-59.0	3.8	7.47e-01	0	57	104	93323264	58	21530
2026-01-09 09:54:03.86	37.46	15.18	-44.0	-58.8	3.8	7.43e-01	0	57	104	93323264	58	21034
2026-01-09 09:54:05.88	36.97	15.14	-40.4	-52.5	3.8	7.42e-01	0	57	104	93323264	52	14435
2026-01-09 09:54:07.90	36.48	15.09	-41.9	-54.7	3.8	7.43e-01	0	57	104	93323264	54	16559
2026-01-09 09:54:09.92	35.99	15.04	-44.3	-59.8	3.8	7.47e-01	0	57	104	93323264	59	22444
2026-01-09 09:54:11.94	35.51	14.98	-44.1	-59.0	3.8	7.42e-01	0	57	104	93323264	58	21721
2026-01-09 09:54:13.96	35.03	14.93	-40.1	-52.0	3.8	7.45e-01	0	57	104	93323264	52	13690
2026-01-09 09:54:15.97	34.55	14.87	-42.7	-56.2	3.8	7.47e-01	0	57	104	93323264	55	18567
2026-01-09 09:54:17.99	34.07	14.81	-44.5	-60.4	3.8	7.47e-01	0	57	104	93323264	59	24128
2026-01-09 09:54:20.01	33.59	14.75	-44.1	-59.3	3.8	7.46e-01	0	57	104	93323264	58	22404
2026-01-09 09:54:22.03	33.12	14.69	-40.2	-52.2	3.8	7.46e-01	0	57	104	93323264	52	14031
2026-01-09 09:54:24.05	32.65	14.63	-41.6	-54.4	3.9	7.41e-01	0	57	104	93323264	54	16033
2026-01-09 09:54:26.07	32.18	14.56	-44.4	-60.3	3.8	7.44e-01	0	57	104	93323264	59	23852
2026-01-09 09:54:28.09	31.71	14.50	-44.4	-60.2	3.8	7.46e-01	0	57	104	93323264	59	23381
2026-01-09 09:54:30.11	31.24	14.43	-40.4	-52.6	3.8	7.45e-01	0	57	104	93323264	52	14563
2026-01-09 09:54:32.13	30.78	14.36	-43.4	-57.6	3.8	7.41e-01	0	57	104	93323264	57	19437
2026-01-09 09:54:34.15	30.32	14.29	-44.5	-61.2	3.8	7.50e-01	0	57	104	93323264	60	24750
2026-01-09 09:54:36.17	29.86	14.21	-40.3	-52.4	3.8	7.44e-01	0	57	104	93323264	52	14327
2026-01-09 09:54:38.19	29.41	14.14	-40.2	-52.2	3.8	7.45e-01	0	57	104	93323264	52	13944
2026-01-09 09:54:40.21	28.95	14.06	-40.4	-52.6	3.8	7.44e-01	0	57	104	93323264	52	14640
2026-01-09 09:54:42.23	28.50	13.99	-43.9	-58.8	3.8	7.46e-01	0	57	104	93323264	59	20037
2026-01-09 09:54:44.25	28.05	13.91	-43.9	-58.9	3.9	7.44e-01	0	57	104	93323264	58	21370
2026-01-09 09:54:46.27	27.61	13.83	-40.2	-52.1	3.8	7.46e-01	0	57	104	93323264	52	13883
2026-01-09 09:54:48.29	27.16	13.75	-41.3	-53.9	3.9	7.46e-01	0	57	104	93323264	54	15162
2026-01-09 09:54:50.30	26.73	13.66	-43.6	-58.2	3.8	7.42e-01	0	57	104	93323264	59	18654
2026-01-09 09:54:52.32	26.29	13.58	-43.7	-58.4	3.8	7.42e-01	0	57	104	93323264	58	20153
2026-01-09 09:54:54.34	25.85	13.50	-40.2	-52.3	3.8	7.44e-01	0	57	104	93323264	52	14069
2026-01-09 09:54:56.36	25.42	13.41	-40.7	-53.0	3.9	7.46e-01	0	57	104	93323264	53	14448
2026-01-09 09:54:58.38	24.99	13.32	-43.1	-57.0	3.8	7.44e-01	0	57	104	93323264	58	17201
2026-01-09 09:55:00.40	24.57	13.23	-43.5	-58.1	3.8	7.45e-01	0	57	104	93323264	58	19556
2026-01-09 09:55:02.41	24.14	13.14	-40.2	-52.2	3.8	7.46e-01	0	57	104	93323264	52	14038
2026-01-09 09:55:04.43	23.72	13.05	-40.3	-52.4	3.9	7.46e-01	0	57	104	93323264	52	14367
2026-01-09 09:55:06.45	23.30	12.96	-42.8	-56.4	3.9	7.46e-01	0	57	104	93323264	57	17055
2026-01-09 09:55:08.47	22.89	12.87	-43.2	-57.4	3.9	7.41e-01	0	57	104	93323264	58	18025
2026-01-09 09:55:10.49	22.48	12.78	-40.4	-52.6	3.8	7.43e-01	0	57	104	93323264	52	14662
2026-01-09 09:55:12.51	22.07	12.68	-40.1	-52.1	3.8	7.42e-01	0	57	104	93323264	52	13793
2026-01-09 09:55:14.53	21.66	12.58	-41.7	-54.6	3.9	7.44e-01	0	57	104	93323264	55	15473
2026-01-09 09:55:16.55	21.26	12.49	-42.5	-56.1	3.9	7.42e-01	0	57	104	93323264	57	16377
2026-01-09 09:55:18.56	20.86	12.39	-40.2	-52.2	3.8	7.44e-01	0	57	104	93323264	52	13920
2026-01-09 09:55:20.58	20.46	12.29	-40.5	-52.7	3.9	7.40e-01	0	57	104	93323264	53	13992
2026-01-09 09:55:22.60	20.06	12.19	-44.3	-60.7	3.9	7.43e-01	0	57	104	93323264	59	24968
2026-01-09 09:55:24.62	19.67	12.09	-40.5	-52.9	3.8	7.47e-01	0	57	104	93323264	52	15076
2026-01-09 09:55:26.64	19.28	11.99	-40.4	-52.6	3.8	7.44e-01	0	57	104	93323264	52	14583
2026-01-09 09:55:28.66	18.90	11.89	-40.5	-52.8	3.8	7.49e-01	0	57	104	93323264	52	15043
2026-01-09 09:55:30.68	18.51	11.79	-41.2	-53.7	3.8	7.45e-01	0	57	104	93323264	54	14751
2026-01-09 09:55:32.70	18.13	11.69	-41.4	-54.3	3.9	7.43e-01	0	57	104	93323264	55	14930
2026-01-09 09:55:34.71	17.76	11.58	-40.4	-52.6	3.8	7.46e-01	0	57	104	93323264	52	14555
2026-01-09 09:55:36.73	17.38	11.48	-41.3	-54.0	3.8	7.46e-01	0	57	104	93323264	53	16312
2026-01-09 09:55:38.75	17.01	11.37	-44.0	-59.8	3.8	7.44e-01	0	57	104	93323264	59	22360
2026-01-09 09:55:40.77	16.64	11.27	-40.5	-52.8	3.8	7.45e-01	0	57	104	93323264	52	14881
2026-01-09 09:55:42.79	16.28	11.16	-40.3	-52.5	3.8	7.45e-01	0	57	104	93323264	52	14515
2026-01-09 09:55:44.81	15.91	11.06	-40.7	-53.2	3.8	7.46e-01	0	57	104	93323264	52	15647
2026-01-09 09:55:46.82	15.55	10.95	-41.4	-54.1	3.8	7.46e-01	0	57	104	93323264	54	15566
2026-01-09 09:55:48.84	15.20	10.84	-41.0	-53.6	3.9	7.43e-01	0	57	104	93323264	54	14669
2026-01-09 09:55:50.86	14.84	10.73	-40.8	-53.2	3.8	7.43e-01	0	57	104	93323264	53	14828
2026-01-09 09:55:52.89	14.49	10.62	-42.1	-55.3	3.8	7.49e-01	0	57	104	93323264	54	17841
2026-01-09 09:55:54.90	14.14	10.52	-43.8	-59.7	3.8	7.47e-01	0	57	104	93323264	59	22248
2026-01-09 09:55:56.92	13.80	10.41	-40.7	-53.1	3.8	7.44e-01	0	57	104	93323264	52	15572
2026-01-09 09:55:58.94	13.45	10.30	-40.4	-52.7	3.8	7.42e-01	0	57	104	93323264	52	14856
2026-01-09 09:56:00.96	13.11	10.19	-40.9	-53.6	3.8	7.46e-01	0	57	104	93323264	52	16346
2026-01-09 09:56:02.98	12.78	10.08	-41.5	-54.6	3.8	7.46e-01	0	57	104	93323264	53	17289
2026-01-09 09:56:04.99	12.44	9.97	-40.7	-53.2	3.9	7.47e-01	0	57	104	93323264	53	14775
2026-01-09 09:56:07.01	12.11	9.85	-40.3	-52.8	3.8	7.41e-01	0	57	104	93323264	52	14900
2026-01-09 09:56:09.03	11.78	9.74	-40.7	-54.3	3.8	7.45e-01	0	57	104	93323264	52	17832
2026-01-09 09:56:11.05	11.46	9.63	-40.4	-57.8	3.8	7.44e-01	0	57	104	93323264	52	26595
2026-01-09 09:56:13.07	11.13	9.52	-41.4	-55.3	3.8	7.45e-01	0	57	104	93323264	53	18751
2026-01-09 09:56:15.09	10.81	9.41	-41.4	-57.7	3.8	7.46e-01	0	57	104	93323264	53	24737
2026-01-09 09:56:17.11	10.49	9.29	-41.2	-59.4	3.8	7.44e-01	0	57	104	93323264	53	30104
2026-01-09 09:56:19.13	10.18	9.18	-40.4	-59.5	3.8	7.43e-01	0	57	104	93323264	52	32500
2026-01-09 09:56:21.15	9.87	9.07	-40.4	-59.5	3.8	7.46e-01	0	57	104	93323264	52	32273
2026-01-09 09:56:23.17	9.56	8.96	-40.4	-59.5	3.8	7.47e-01	0	57	104	93323264	52	32229
2026-01-09 09:56:25.19	9.25	8.84	-40.4	-59.4	3.8	7.46e-01	0	57	104	93323264	52	32128
2026-01-09 09:56:27.21	8.95	8.73	-40.4	-59.4	3.8	7.46e-01	0	57	104	93323264	52	31945
2026-01-09 09:56:29.22	8.64	8.62	-40.4	-59.4	3.8	7.46e-01	0	57	104	93323264	52	32059
2026-01-09 09:56:31.25	8.34	8.50	-40.3	-59.3	3.8	7.46e-01	0	57	104	93323264	52	31789
2026-01-09 09:56:33.27	8.05	8.39	-40.3	-59.3	3.8	7.45e-01	0	57	104	93323264	52	31570
2026-01-09 09:56:35.29	7.75	8.27	-40.3	-59.4	3.8	7.44e-01	0	57	104	93323264	52	31819
2026-01-09 09:56:37.30	7.46	8.16	-40.3	-59.3	3.8	7.43e-01	0	57	104	93323264	52	31567
2026-01-09 09:56:39.32	7.17	8.05	-40.3	-59.2	3.8	7.46e-01	0	57	104	93323264	52	31435
2026-01-09 09:56:41.34	6.89	7.93	-43.6	-62.5	3.8	7.42e-01	0	57	104	93323264	57	34205
2026-01-09 09:56:43.36	6.60	7.82	-45.6	-64.2	3.8	7.47e-01	0	57	104	93323264	61	33303
2026-01-09 09:56:45.38	6.32	7.70	-46.0	-64.6	3.8	7.45e-01	0	57	104	93323264	62	32841
2026-01-09 09:56:47.40	6.04	7.59	-46.1	-64.8	3.8	7.45e-01	0	57	104	93323264	62	33330
2026-01-09 09:56:49.42	5.77	7.47	-46.1	-64.8	3.8	7.45e-01	0	57	104	93323264	62	33366
2026-01-09 09:56:51.44	5.49	7.36	-46.0	-64.6	3.8	7.45e-01	0	57	104	93323264	62	32785
2026-01-09 09:56:53.46	5.22	7.24	-45.8	-64.5	3.8	7.45e-01	0	57	104	93323264	62	32369
2026-01-09 09:56:55.48	4.95	7.13	-45.8	-64.4	3.8	7.45e-01	0	57	104	93323264	62	32131
2026-01-09 09:56:57.51	4.68	7.02	-45.8	-64.4	3.8	7.43e-01	0	58	104	93323264	62	32039
2026-01-09 09:56:59.53	4.42	6.90	-45.8	-64.4	3.8	7.43e-01	0	57	104	93323264	62	32037
2026-01-09 09:57:01.55	4.15	6.79	-45.8	-64.4	3.8	7.46e-01	0	57	104	93323264	62	32004
2026-01-09 09:57:03.57	3.89	6.67	-45.6	-64.4	3.8	7.48e-01	0	57	104	93323264	62	32033
2026-01-09 09:57:05.59	3.64	6.56	-45.8	-64.4	3.8	7.43e-01	0	57	104	93323264	62	32071
2026-01-09 09:57:07.61	3.38	6.44	-45.8	-64.4	3.8	7.47e-01	0	57	104	93323264	62	32028
2026-01-09 09:57:09.63	3.13	6.33	-45.8	-64.4	3.8	7.45e-01	0	57	104	93323264	62	32017
2026-01-09 09:57:11.65	2.88	6.22	-45.8	-64.4	3.8	7.46e-01	0	57	104	93323264	62	32007
2026-01-09 09:57:13.67	2.63	6.10	-45.8	-64.4	3.8	7.47e-01	0	57	104	93323264	62	31937
2026-01-09 09:57:15.69	2.38	5.99	-45.8	-64.4	3.8	7.42e-01	0	57	104	93323264	62	31969
2026-01-09 09:57:17.71	2.14	5.87	-45.8	-64.4	3.8	7.48e-01	0	57	104	93323264	62	31913
2026-01-09 09:57:19.73	1.89	5.76	-45.7	-64.4	3.8	7.42e-01	0	57	104	93323264	62	31966
2026-01-09 09:57:21.75	1.65	5.65	-45.7	-64.4	3.8	7.42e-01	0	57	104	93323264	62	31970
2026-01-09 09:57:23.78	1.41	5.53	-45.7	-64.4	3.8	7.44e-01	0	58	104	93323264	62	31993
2026-01-09 09:57:25.80	1.18	5.42	-45.7	-64.4	3.8	7.44e-01	0	57	104	93323264	62	31938
2026-01-09 09:57:27.82	0.94	5.30	-45.7	-64.4	3.8	7.45e-01	0	57	104	93323264	62	31958
2026-01-09 09:57:29.84	0.71	5.19	-45.7	-64.4	3.8	7.45e-01	0	58	104	93323264	62	31944
2026-01-09 09:57:31.86	0.48	5.08	-45.7	-64.4	3.8	7.42e-01	0	58	104	93323264	62	31979
2026-01-09 09:57:33.88	0.25	4.97	-45.8	-64.4	3.8	7.46e-01	0	58	104	93323264	62	31991
2026-01-09 09:57:35.90	0.03	4.85	-45.7	-64.4	3.8	7.44e-01	0	58	104	93323264	62	31918
2026-01-09 09:57:37.92	359.80	4.74	-45.7	-64.4	3.8	7.44e-01	0	58	104	93323264	62	31962
2026-01-09 09:57:39.94	359.58	4.63	-45.7	-64.4	3.8	7.46e-01	0	58	104	93323264	62	32028
2026-01-09 09:57:41.96	359.36	4.52	-45.7	-64.4	3.8	7.43e-01	0	57	104	93323264	62	31975
2026-01-09 09:57:43.98	359.14	4.40	-45.7	-64.4	3.8	7.46e-01	0	58	104	93323264	62	31926
2026-01-09 09:57:46.00	358.93	4.29	-45.7	-64.4	3.8	7.48e-01	0	57	104	93323264	62	31914
2026-01-09 09:57:48.03	358.71	4.18	-45.7	-64.4	3.8	7.47e-01	0	57	104	93323264	62	31933
2026-01-09 09:57:50.05	358.50	4.07	-45.7	-64.4	3.8	7.45e-01	0	57	104	93323264	62	31894
2026-01-09 09:57:52.07	358.29	3.96	-45.7	-64.4	3.8	7.45e-01	0	57	104	93323264	62	31826
2026-01-09 09:57:54.09	358.08	3.84	-45.7	-64.4	3.8	7.44e-01	0	57	104	93323264	62	31840
2026-01-09 09:57:56.11	357.87	3.73	-45.7	-64.4	3.8	7.48e-01	0	57	104	93323264	62	31887
2026-01-09 09:57:58.13	357.66	3.62	-45.7	-64.4	3.8	7.46e-01	0	58	104	93323264	62	31920
2026-01-09 09:58:00.15	357.46	3.51	-45.7	-64.4	3.8	7.45e-01	0	57	104	93323264	62	31937
2026-01-09 09:58:02.17	357.26	3.40	-45.7	-64.4	3.8	7.46e-01	0	58	104	93323264	62	31856
2026-01-09 09:58:04.19	357.06	3.29	-45.7	-64.4	3.8	7.44e-01	0	58	104	93323264	62	31916
2026-01-09 09:58:06.21	356.86	3.18	-45.7	-64.4	3.8	7.46e-01	0	57	104	93323264	62	31923
2026-01-09 09:58:08.23	356.66	3.07	-45.7	-64.4	3.8	7.47e-01	0	57	104	93323264	62	31877
2026-01-09 09:58:10.25	356.47	2.96	-45.7	-64.4	3.8	7.44e-01	0	58	104	93323264	62	31883
2026-01-09 09:58:12.27	356.27	2.85	-45.7	-64.4	3.8	7.46e-01	0	58	104	93323264	62	31928
2026-01-09 09:58:14.29	356.08	2.74	-45.7	-64.4	3.8	7.42e-01	0	57	104	93323264	62	31921
2026-01-09 09:58:16.31	355.89	2.63	-45.7	-64.4	3.8	7.43e-01	0	57	104	93323264	62	31903
2026-01-09 09:58:18.33	355.70	2.52	-45.7	-64.4	3.8	7.43e-01	0	58	104	93323264	62	31927
2026-01-09 09:58:20.35	355.52	2.41	-45.7	-64.4	3.8	7.45e-01	0	57	104	93323264	62	31890
2026-01-09 09:58:22.37	355.33	2.30	-45.7	-64.4	3.8	7.46e-01	0	57	104	93323264	62	31839
2026-01-09 09:58:24.39	355.15	2.19	-45.7	-64.4	3.8	7.44e-01	0	58	104	93323264	62	31891
2026-01-09 09:58:26.41	354.96	2.09	-45.7	-64.4	3.8	7.50e-01	0	57	104	93323264	62	31838
2026-01-09 09:58:28.43	354.78	1.98	-45.7	-64.3	3.8	7.47e-01	0	57	104	93323264	62	31807

#Closed at: 2026-01-09 09:58:29
#Recorded file [93 MB]: D:/lorett/data/31039_260109_125152.dat