passes_logs/2026/01/09/R2.0S_Moscow/R2.0S_Moscow__20260109_232757_SUOMI_NPP_rec.log

#Pass ID: 20260109_232757_SUOMI NPP
#Satellite: SUOMI NPP
#Configuration: NPP
#almurnet v.1.7.20251203
#Start time: 2026-01-09 23:35:53

#Version: 2.2.20231116
#Station: R2.0S_Moscow
#Location: 37.707566 lon 55.798166 lat
#TLE: 1 37849U 11061A   26008.83076692  .00000095  00000+0  66074-4 0  9997
#TLE: 2 37849  98.7806 310.9327 0002533  74.3004 285.8451 14.19523607735834

#Time	Az	El	Level	Level2	SNR	BER	BlckErr	Temp	State	Recorded	gain1	gain2
2026-01-09 23:35:53.39	152.57	62.79	-45.0	-63.4	3.8	8.46e-01	0	55	0	0	60	32116
2026-01-09 23:35:55.40	153.92	62.15	-45.0	-59.8	3.8	1.49e+00	0	56	104	0	61	19853
2026-01-09 23:35:57.42	155.20	61.50	-45.0	-59.7	3.8	1.49e+00	0	56	104	0	61	19834
2026-01-09 23:35:59.44	156.41	60.85	-45.0	-59.6	3.8	1.49e+00	0	56	104	0	61	19611
2026-01-09 23:36:01.45	157.56	60.20	-44.9	-59.7	3.8	1.49e+00	0	56	104	0	61	19664
2026-01-09 23:36:03.47	158.66	59.53	-44.9	-59.7	3.8	1.49e+00	0	56	104	0	61	19623
2026-01-09 23:36:05.49	159.71	58.87	-45.0	-59.7	3.8	1.49e+00	0	56	104	0	61	19633
2026-01-09 23:36:07.51	160.70	58.21	-44.9	-59.6	3.8	1.49e+00	0	56	104	0	61	19548
2026-01-09 23:36:09.53	161.65	57.54	-44.9	-59.6	3.8	1.49e+00	0	56	104	0	61	19549
2026-01-09 23:36:11.54	162.54	56.88	-44.9	-59.7	3.8	1.49e+00	0	56	104	0	61	19668
2026-01-09 23:36:13.57	163.40	56.22	-44.9	-59.5	3.8	1.49e+00	0	56	104	0	61	19299
2026-01-09 23:36:15.59	164.22	55.56	-44.9	-59.6	3.8	1.49e+00	0	56	104	0	61	19592
2026-01-09 23:36:17.61	165.01	54.90	-44.9	-59.6	3.8	1.49e+00	0	56	104	0	61	19574
2026-01-09 23:36:19.63	165.75	54.25	-44.9	-59.4	3.8	1.49e+00	0	56	104	0	61	19035
2026-01-09 23:36:21.65	166.47	53.60	-44.9	-59.6	3.8	1.49e+00	0	56	104	0	61	19422
2026-01-09 23:36:23.67	167.15	52.95	-44.9	-59.6	3.8	1.49e+00	0	56	104	0	61	19578
2026-01-09 23:36:25.69	167.81	52.31	-44.9	-59.5	3.8	1.49e+00	0	56	104	0	61	19194
2026-01-09 23:36:27.71	168.43	51.67	-44.9	-59.1	3.8	1.49e+00	0	56	104	0	61	18396
2026-01-09 23:36:29.74	169.04	51.04	-44.9	-59.4	3.8	1.49e+00	0	56	104	0	61	18976
2026-01-09 23:36:31.76	169.61	50.41	-44.9	-59.6	3.8	1.49e+00	0	56	104	0	61	19513
2026-01-09 23:36:33.78	170.17	49.79	-44.9	-59.3	3.8	1.49e+00	0	56	104	0	61	18766
2026-01-09 23:36:35.80	170.70	49.18	-44.9	-59.4	3.8	1.49e+00	0	56	104	0	61	19148
2026-01-09 23:36:37.82	171.21	48.57	-44.9	-59.2	3.8	1.49e+00	0	56	104	0	61	18687
2026-01-09 23:36:39.84	171.70	47.96	-44.9	-58.8	3.8	1.49e+00	0	56	104	0	61	17868
2026-01-09 23:36:41.85	172.18	47.37	-44.5	-54.1	5.0	7.47e-01	0	56	0	1048576	61	10350
2026-01-09 23:36:43.87	172.63	46.78	-44.8	-58.3	3.8	1.47e+00	0	56	104	3145728	61	16729
2026-01-09 23:36:45.88	173.07	46.20	-44.0	-51.0	7.2	6.08e-01	0	56	0	3145728	59	8119
2026-01-09 23:36:47.89	173.49	45.62	-44.9	-59.4	3.8	5.94e-01	0	56	104	7340032	60	20090
2026-01-09 23:36:49.91	173.90	45.05	-41.2	-44.3	13.7	3.35e-01	0	56	0	7340032	53	5309
2026-01-09 23:36:51.93	174.30	44.49	-43.9	-50.7	7.7	3.20e-04	0	56	0	10485760	58	8279
2026-01-09 23:36:53.95	174.68	43.93	-42.8	-47.5	10.7	2.83e-03	0	56	0	14680064	56	6469
2026-01-09 23:36:55.96	175.05	43.38	-42.6	-47.0	11.3	1.21e-03	0	56	0	17825792	56	6068
2026-01-09 23:36:57.98	175.40	42.83	-41.7	-45.2	12.8	1.03e-04	0	56	0	22020096	55	5254
2026-01-09 23:36:59.99	175.75	42.30	-40.8	-43.7	14.4	0.00e+00	0	56	0	26214400	53	4969
2026-01-09 23:37:02.01	176.08	41.77	-39.9	-42.2	16.0	0.00e+00	0	56	0	29360128	51	4681
2026-01-09 23:37:04.02	176.40	41.25	-40.7	-43.5	14.7	7.00e-07	0	56	0	33554432	52	5102
2026-01-09 23:37:06.04	176.72	40.73	-41.3	-44.6	13.6	3.80e-06	0	56	0	36700160	53	5508
2026-01-09 23:37:08.06	177.02	40.21	-40.3	-42.9	15.2	7.00e-07	0	56	0	40894464	52	4807
2026-01-09 23:37:10.07	177.32	39.71	-39.7	-42.0	16.2	0.00e+00	0	56	0	45088768	51	4546
2026-01-09 23:37:12.08	177.60	39.21	-39.6	-41.8	16.4	0.00e+00	0	56	0	48234496	50	4758
2026-01-09 23:37:14.09	177.88	38.72	-40.6	-43.3	14.8	0.00e+00	0	56	0	52428800	51	5324
2026-01-09 23:37:16.11	178.15	38.24	-41.6	-45.0	13.1	4.50e-06	0	56	0	55574528	53	5780
2026-01-09 23:37:18.13	178.41	37.76	-41.1	-44.2	14.0	6.10e-06	0	56	0	59768832	53	5247
2026-01-09 23:37:20.15	178.67	37.28	-40.0	-42.5	15.5	0.00e+00	0	56	0	63963136	52	4572
2026-01-09 23:37:22.16	178.91	36.82	-40.1	-42.6	15.6	0.00e+00	0	56	0	67108864	51	4880
2026-01-09 23:37:24.18	179.16	36.36	-40.4	-43.0	15.2	0.00e+00	0	56	0	71303168	51	5121
2026-01-09 23:37:26.20	179.39	35.90	-40.7	-43.5	14.7	7.00e-07	0	56	0	74448896	51	5413
2026-01-09 23:37:28.22	179.62	35.45	-40.9	-43.9	14.2	0.00e+00	0	56	0	78643200	52	5353
2026-01-09 23:37:30.23	179.84	35.01	-41.4	-44.7	13.4	6.80e-06	0	56	0	82837504	53	5539
2026-01-09 23:37:32.24	180.06	34.57	-42.1	-46.2	11.8	1.78e-04	0	56	0	85983232	54	6228
2026-01-09 23:37:34.26	180.27	34.14	-42.4	-46.8	11.2	2.09e-03	0	56	0	90177536	55	6297
2026-01-09 23:37:36.27	180.47	33.71	-42.2	-46.3	11.6	9.01e-04	0	57	0	93323264	55	5988
2026-01-09 23:37:38.28	180.67	33.29	-41.5	-44.8	13.2	1.01e-04	0	56	0	97517568	54	5329
2026-01-09 23:37:40.30	180.87	32.88	-40.9	-44.0	14.1	1.50e-06	0	56	0	101711872	53	5109
2026-01-09 23:37:42.32	181.06	32.47	-40.6	-43.3	14.7	0.00e+00	0	56	0	104857600	52	5035
2026-01-09 23:37:44.33	181.25	32.06	-40.6	-43.3	14.7	7.00e-07	0	56	0	109051904	52	5035
2026-01-09 23:37:46.35	181.43	31.66	-41.2	-44.4	13.5	4.50e-06	0	56	0	113246208	53	5385
2026-01-09 23:37:48.36	181.61	31.27	-42.1	-46.2	11.8	1.81e-04	0	56	0	116391936	54	6213
2026-01-09 23:37:50.37	181.78	30.88	-42.5	-47.0	10.8	2.49e-03	0	57	0	120586240	55	6494
2026-01-09 23:37:52.39	181.95	30.49	-42.4	-46.9	11.0	2.59e-03	0	56	0	123731968	55	6356
2026-01-09 23:37:54.40	182.12	30.11	-42.3	-46.7	11.3	4.55e-04	0	56	0	127926272	55	6207
2026-01-09 23:37:56.41	182.28	29.74	-41.6	-45.2	12.8	1.03e-04	0	56	0	131072000	55	5224
2026-01-09 23:37:58.42	182.44	29.37	-41.6	-45.2	12.7	6.10e-05	0	56	0	135266304	55	5262
2026-01-09 23:38:00.43	182.59	29.00	-41.5	-45.1	12.8	7.09e-05	0	57	0	139460608	55	5184
2026-01-09 23:38:02.45	182.74	28.64	-41.4	-44.8	13.1	3.81e-05	0	56	0	142606336	54	5318
2026-01-09 23:38:04.46	182.89	28.29	-41.3	-44.7	13.2	2.74e-05	0	56	0	146800640	54	5247
2026-01-09 23:38:06.48	183.04	27.93	-41.4	-44.8	13.1	1.52e-05	0	57	0	150994944	54	5332
2026-01-09 23:38:08.49	183.18	27.58	-41.2	-44.4	13.4	1.29e-05	0	56	0	154140672	54	5099
2026-01-09 23:38:10.51	183.32	27.24	-40.9	-44.0	13.9	1.67e-05	0	56	0	158334976	53	5138
2026-01-09 23:38:12.52	183.46	26.90	-40.9	-44.0	13.9	3.80e-06	0	56	0	161480704	53	5115
2026-01-09 23:38:14.54	183.59	26.56	-40.6	-43.5	14.4	3.80e-06	0	56	0	165675008	53	4820
2026-01-09 23:38:16.55	183.72	26.23	-40.3	-43.0	14.8	0.00e+00	0	56	0	169869312	52	4846
2026-01-09 23:38:18.56	183.85	25.90	-40.0	-42.6	15.3	0.00e+00	0	56	0	173015040	51	4879
2026-01-09 23:38:20.58	183.98	25.58	-39.8	-42.3	15.6	0.00e+00	0	56	0	177209344	51	4712
2026-01-09 23:38:22.59	184.10	25.26	-39.5	-41.8	16.1	0.00e+00	0	56	0	180355072	51	4452
2026-01-09 23:38:24.60	184.22	24.94	-39.4	-41.7	16.2	0.00e+00	0	56	0	184549376	50	4652
2026-01-09 23:38:26.61	184.34	24.63	-39.0	-41.1	16.7	0.00e+00	0	56	0	187695104	49	4613
2026-01-09 23:38:28.63	184.46	24.32	-39.1	-41.3	16.6	0.00e+00	0	56	0	191889408	49	4708
2026-01-09 23:38:30.64	184.58	24.01	-39.2	-41.4	16.4	0.00e+00	0	56	0	196083712	49	4784
2026-01-09 23:38:32.65	184.69	23.71	-39.4	-41.7	16.1	0.00e+00	0	56	0	199229440	49	4964
2026-01-09 23:38:34.67	184.80	23.41	-39.7	-42.1	15.7	0.00e+00	0	56	0	203423744	49	5193
2026-01-09 23:38:36.69	184.91	23.12	-39.8	-42.3	15.6	0.00e+00	0	56	0	207618048	50	4985
2026-01-09 23:38:38.72	185.02	22.82	-40.1	-42.7	15.1	0.00e+00	0	56	0	210763776	50	5260
2026-01-09 23:38:40.74	185.12	22.53	-40.3	-43.0	14.8	7.00e-07	0	57	0	214958080	51	5124
2026-01-09 23:38:42.75	185.23	22.24	-40.4	-43.2	14.5	0.00e+00	0	57	0	218103808	51	5261
2026-01-09 23:38:44.77	185.33	21.96	-40.3	-43.1	14.7	0.00e+00	0	57	0	222298112	51	5164
2026-01-09 23:38:46.79	185.43	21.68	-40.4	-43.3	14.5	7.00e-07	0	56	0	226492416	51	5287
2026-01-09 23:38:48.80	185.53	21.40	-40.3	-43.1	14.7	0.00e+00	0	56	0	229638144	51	5205
2026-01-09 23:38:50.81	185.62	21.13	-40.1	-42.8	15.0	0.00e+00	0	57	0	233832448	51	5017
2026-01-09 23:38:52.83	185.72	20.86	-40.1	-42.7	15.0	0.00e+00	0	57	0	236978176	51	4977
2026-01-09 23:38:54.84	185.81	20.59	-39.8	-42.4	15.4	0.00e+00	0	56	0	241172480	51	4778
2026-01-09 23:38:56.86	185.90	20.32	-40.0	-42.6	15.1	0.00e+00	0	56	0	245366784	51	4916
2026-01-09 23:38:58.88	186.00	20.06	-39.9	-42.5	15.2	0.00e+00	0	57	0	248512512	51	4849
2026-01-09 23:39:00.89	186.08	19.80	-40.0	-42.6	15.0	0.00e+00	0	57	0	252706816	51	4921
2026-01-09 23:39:02.92	186.17	19.54	-39.9	-42.5	15.2	0.00e+00	0	57	0	255852544	51	4843
2026-01-09 23:39:04.93	186.26	19.29	-39.8	-42.4	15.3	0.00e+00	0	56	0	260046848	51	4770
2026-01-09 23:39:06.95	186.34	19.03	-39.7	-42.2	15.4	0.00e+00	0	57	0	264241152	51	4703
2026-01-09 23:39:08.96	186.43	18.78	-39.6	-42.0	15.7	0.00e+00	0	56	0	267386880	51	4583
2026-01-09 23:39:10.97	186.51	18.54	-39.5	-41.9	15.8	0.00e+00	0	56	0	271581184	50	4765
2026-01-09 23:39:12.99	186.59	18.29	-39.3	-41.6	16.0	0.00e+00	0	56	0	274726912	50	4650
2026-01-09 23:39:15.01	186.67	18.05	-39.5	-41.9	15.8	0.00e+00	0	56	0	278921216	50	4789
2026-01-09 23:39:17.02	186.75	17.81	-39.6	-42.1	15.6	0.00e+00	0	56	0	283115520	50	4887
2026-01-09 23:39:19.03	186.83	17.57	-39.5	-42.0	15.6	0.00e+00	0	56	0	286261248	50	4841
2026-01-09 23:39:21.06	186.91	17.33	-39.9	-42.5	15.1	0.00e+00	0	57	0	290455552	50	5123
2026-01-09 23:39:23.07	186.98	17.10	-40.1	-42.9	14.8	0.00e+00	0	57	0	293601280	50	5359
2026-01-09 23:39:25.08	187.06	16.87	-40.4	-43.3	14.3	2.20e-06	0	56	0	297795584	51	5293
2026-01-09 23:39:27.10	187.13	16.64	-40.6	-43.6	14.0	7.00e-07	0	56	0	301989888	51	5503
2026-01-09 23:39:29.11	187.20	16.41	-40.5	-43.6	13.9	4.50e-06	0	56	0	305135616	52	5162
2026-01-09 23:39:31.12	187.27	16.19	-40.7	-43.8	13.6	2.20e-06	0	56	0	309329920	52	5336
2026-01-09 23:39:33.13	187.34	15.96	-40.6	-43.7	13.8	4.50e-06	0	56	0	312475648	52	5248
2026-01-09 23:39:35.15	187.41	15.74	-40.8	-44.1	13.4	1.37e-05	0	56	0	316669952	52	5487
2026-01-09 23:39:37.16	187.48	15.52	-40.8	-44.1	13.3	2.74e-05	0	56	0	320864256	52	5492
2026-01-09 23:39:39.17	187.55	15.31	-40.9	-44.3	13.2	2.05e-05	0	56	0	324009984	52	5603
2026-01-09 23:39:41.18	187.62	15.09	-40.8	-44.1	13.2	1.75e-05	0	57	0	328204288	52	5527
2026-01-09 23:39:43.20	187.68	14.88	-40.8	-44.2	13.2	1.75e-05	0	56	0	331350016	52	5561
2026-01-09 23:39:45.21	187.75	14.67	-40.8	-44.3	13.0	1.10e-03	0	57	0	335544320	52	5623
2026-01-09 23:39:47.24	187.81	14.46	-40.8	-44.4	12.8	6.49e-03	0	56	0	339738624	52	5696
2026-01-09 23:39:49.25	187.88	14.25	-40.7	-44.4	12.8	7.28e-03	0	57	0	342884352	52	5701
2026-01-09 23:39:51.27	187.94	14.04	-40.3	-44.3	12.9	7.28e-03	0	57	0	347078656	52	5600
2026-01-09 23:39:53.29	188.00	13.84	-39.9	-44.3	12.8	7.69e-03	0	56	0	351272960	51	5947
2026-01-09 23:39:55.31	188.06	13.63	-40.6	-44.4	12.8	7.23e-03	0	56	0	354418688	51	6053
2026-01-09 23:39:57.32	188.12	13.43	-40.6	-44.3	12.8	6.56e-03	0	57	0	358612992	52	5637
2026-01-09 23:39:59.34	188.18	13.23	-40.8	-44.3	12.9	6.56e-05	0	56	0	361758720	52	5651
2026-01-09 23:40:01.36	188.24	13.03	-40.8	-44.3	13.0	3.28e-05	0	56	0	365953024	52	5619
2026-01-09 23:40:03.37	188.30	12.84	-40.8	-44.3	12.9	5.79e-05	0	56	0	369098752	52	5607
2026-01-09 23:40:05.39	188.36	12.64	-40.9	-44.5	12.7	6.79e-05	0	57	0	373293056	52	5767
2026-01-09 23:40:07.40	188.42	12.45	-40.9	-44.6	12.7	1.04e-04	0	56	0	377487360	52	5798
2026-01-09 23:40:09.41	188.47	12.26	-40.9	-44.6	12.5	1.28e-04	0	56	0	380633088	52	5844
2026-01-09 23:40:11.42	188.53	12.07	-40.9	-44.5	12.6	1.79e-04	0	57	0	384827392	52	5771
2026-01-09 23:40:13.44	188.58	11.88	-40.8	-44.3	12.8	1.24e-04	0	56	0	389021696	52	5654
2026-01-09 23:40:15.45	188.64	11.69	-40.9	-44.6	12.6	7.47e-05	0	56	0	392167424	52	5789
2026-01-09 23:40:17.46	188.69	11.50	-40.9	-44.5	12.6	8.77e-05	0	57	0	396361728	52	5779
2026-01-09 23:40:19.47	188.74	11.32	-40.9	-44.5	12.6	9.61e-05	0	57	0	399507456	52	5784
2026-01-09 23:40:21.48	188.80	11.14	-40.9	-44.6	12.5	7.47e-05	0	57	0	403701760	52	5811
2026-01-09 23:40:23.50	188.85	10.95	-40.7	-44.3	12.7	1.07e-04	0	57	0	407896064	52	5653
2026-01-09 23:40:25.51	188.90	10.77	-40.9	-44.7	12.4	1.67e-04	0	56	0	411041792	52	5858
2026-01-09 23:40:27.52	188.95	10.60	-40.9	-44.7	12.3	1.84e-04	0	57	0	415236096	52	5904
2026-01-09 23:40:29.54	189.00	10.42	-40.9	-44.8	12.2	2.02e-04	0	56	0	418381824	52	5930
2026-01-09 23:40:31.55	189.05	10.24	-40.9	-44.7	12.3	2.03e-04	0	56	0	422576128	52	5878
2026-01-09 23:40:33.57	189.10	10.06	-40.9	-44.8	12.2	2.05e-04	0	57	0	425721856	52	5926
2026-01-09 23:40:35.59	189.15	9.89	-40.7	-44.4	12.5	3.07e-04	0	57	0	429916160	52	5710
2026-01-09 23:40:37.61	189.20	9.72	-40.7	-44.3	12.7	4.88e-05	0	57	0	434110464	52	5623
2026-01-09 23:40:39.62	189.24	9.54	-40.6	-44.1	12.9	9.76e-05	0	56	0	437256192	52	5514
2026-01-09 23:40:41.64	189.29	9.37	-40.7	-44.3	12.7	3.89e-05	0	56	0	441450496	52	5617
2026-01-09 23:40:43.65	189.34	9.20	-40.6	-44.1	12.9	4.88e-05	0	56	0	445644800	52	5481
2026-01-09 23:40:45.66	189.38	9.04	-40.5	-44.1	12.9	4.50e-05	0	57	0	448790528	52	5485
2026-01-09 23:40:47.68	189.43	8.87	-40.4	-43.7	13.2	3.28e-05	0	57	0	452984832	52	5271
2026-01-09 23:40:49.69	189.47	8.70	-40.5	-44.0	12.9	4.11e-05	0	56	0	456130560	52	5425
2026-01-09 23:40:51.71	189.52	8.54	-40.4	-43.9	13.1	2.28e-05	0	56	0	460324864	52	5360
2026-01-09 23:40:53.72	189.56	8.37	-40.3	-43.7	13.2	2.82e-05	0	57	0	464519168	52	5257
2026-01-09 23:40:55.73	189.61	8.21	-40.4	-43.8	13.1	3.28e-05	0	57	0	467664896	52	5301
2026-01-09 23:40:57.75	189.65	8.05	-40.4	-43.9	13.0	3.43e-05	0	57	0	471859200	52	5359
2026-01-09 23:40:59.76	189.69	7.89	-44.2	-58.6	3.8	1.48e+00	0	56	104	473956352	58	20723
2026-01-09 23:41:01.78	189.74	7.73	-44.7	-59.4	3.8	1.49e+00	0	57	104	473956352	60	20126
2026-01-09 23:41:03.80	189.78	7.57	-44.9	-59.6	3.8	1.49e+00	0	57	104	473956352	60	20645
2026-01-09 23:41:05.82	189.82	7.41	-45.0	-59.7	3.8	1.49e+00	0	57	104	473956352	60	20976
2026-01-09 23:41:07.84	189.86	7.25	-45.1	-59.8	3.8	1.49e+00	0	57	104	473956352	60	21139
2026-01-09 23:41:09.85	189.90	7.10	-45.0	-59.8	3.8	1.49e+00	0	57	104	473956352	60	21042
2026-01-09 23:41:11.87	189.95	6.94	-45.0	-59.8	3.8	1.49e+00	0	57	104	473956352	60	21160
2026-01-09 23:41:13.89	189.99	6.79	-45.0	-59.8	3.8	1.49e+00	0	57	104	473956352	60	21047
2026-01-09 23:41:15.90	190.03	6.63	-45.0	-59.7	3.8	1.49e+00	0	56	104	473956352	60	21006
2026-01-09 23:41:17.92	190.07	6.48	-44.9	-59.7	3.8	1.49e+00	0	57	104	473956352	60	21004
2026-01-09 23:41:19.94	190.11	6.33	-45.0	-59.7	3.8	1.49e+00	0	57	104	473956352	60	20917
2026-01-09 23:41:21.96	190.14	6.18	-45.0	-59.7	3.8	1.49e+00	0	57	104	473956352	60	20918
2026-01-09 23:41:23.97	190.18	6.03	-44.9	-59.7	3.8	1.49e+00	0	57	104	473956352	60	21015
2026-01-09 23:41:25.99	190.22	5.88	-44.9	-59.7	3.8	1.49e+00	0	57	104	473956352	60	20937
2026-01-09 23:41:28.01	190.26	5.73	-44.9	-59.7	3.8	1.49e+00	0	56	104	473956352	60	20938
2026-01-09 23:41:30.02	190.30	5.58	-44.9	-59.7	3.8	1.49e+00	0	57	104	473956352	60	20941
2026-01-09 23:41:32.04	190.33	5.44	-44.9	-59.7	3.8	1.49e+00	0	57	104	473956352	60	20893
2026-01-09 23:41:34.06	190.37	5.29	-44.9	-59.7	3.8	1.49e+00	0	57	104	473956352	60	20903
2026-01-09 23:41:36.08	190.41	5.14	-44.9	-59.7	3.8	1.49e+00	0	57	104	473956352	60	20878
2026-01-09 23:41:38.10	190.44	5.00	-44.9	-59.7	3.8	1.49e+00	0	57	104	473956352	60	20842
2026-01-09 23:41:40.10	190.48	4.86	-44.9	-59.7	3.8	1.49e+00	0	57	104	473956352	60	20891
2026-01-09 23:41:42.11	190.52	4.72	-44.9	-59.7	3.8	1.49e+00	0	57	104	473956352	60	20942
2026-01-09 23:41:44.13	190.55	4.57	-44.9	-59.7	3.8	1.49e+00	0	57	104	473956352	60	20845
2026-01-09 23:41:46.14	190.59	4.43	-44.9	-59.7	3.8	1.49e+00	0	57	104	473956352	60	20843
2026-01-09 23:41:48.16	190.62	4.29	-44.9	-59.7	3.8	1.49e+00	0	57	104	473956352	60	20809
2026-01-09 23:41:50.18	190.66	4.15	-44.9	-59.7	3.8	1.49e+00	0	57	104	473956352	60	20853
2026-01-09 23:41:52.19	190.69	4.01	-44.9	-59.7	3.8	1.49e+00	0	57	104	473956352	60	20785
2026-01-09 23:41:54.22	190.72	3.87	-44.9	-59.6	3.8	1.49e+00	0	57	104	473956352	60	20709
2026-01-09 23:41:56.23	190.76	3.74	-44.9	-59.7	3.8	1.49e+00	0	57	104	473956352	60	20842
2026-01-09 23:41:58.25	190.79	3.60	-44.9	-59.6	3.8	1.49e+00	0	57	104	473956352	60	20745
2026-01-09 23:42:00.27	190.83	3.46	-44.9	-59.6	3.8	1.49e+00	0	57	104	473956352	60	20764
2026-01-09 23:42:02.28	190.86	3.33	-44.9	-59.6	3.8	1.49e+00	0	56	104	473956352	60	20772
2026-01-09 23:42:04.30	190.89	3.19	-44.9	-59.7	3.8	1.49e+00	0	57	104	473956352	60	20792
2026-01-09 23:42:06.32	190.92	3.06	-44.9	-59.7	3.8	1.49e+00	0	57	104	473956352	60	20823
2026-01-09 23:42:08.34	190.96	2.93	-44.9	-59.7	3.8	1.49e+00	0	57	104	473956352	60	20824
2026-01-09 23:42:10.36	190.99	2.79	-44.9	-59.7	3.8	1.49e+00	0	57	104	473956352	60	20871
2026-01-09 23:42:12.37	191.02	2.66	-44.9	-59.7	3.8	1.49e+00	0	57	104	473956352	60	20852
2026-01-09 23:42:14.39	191.05	2.53	-44.9	-59.7	3.8	1.49e+00	0	57	104	473956352	60	20905
2026-01-09 23:42:16.41	191.08	2.40	-44.9	-59.7	3.8	1.49e+00	0	57	104	473956352	60	20902
2026-01-09 23:42:18.43	191.11	2.27	-44.9	-59.7	3.8	1.49e+00	0	57	104	473956352	60	20829
2026-01-09 23:42:20.45	191.14	2.14	-44.9	-59.7	3.8	1.49e+00	0	57	104	473956352	60	20838
2026-01-09 23:42:22.46	191.18	2.01	-44.9	-59.7	3.8	1.49e+00	0	57	104	473956352	60	20779
2026-01-09 23:42:24.48	191.21	1.88	-44.9	-59.7	3.8	1.49e+00	0	57	104	473956352	60	20834

#Closed at: 2026-01-09 23:42:24
#Recorded file [473 MB]: D:/lorett/data/31039_260110_023553.dat