passes_logs/2026/01/09/R2.0S_Moscow/R2.0S_Moscow__20260109_014809_NOAA_20_JPSS-1_rec.log

#Pass ID: 20260109_014809_NOAA 20 (JPSS-1)
#Satellite: NOAA 20 (JPSS-1)
#Configuration: NOAA 20
#almurnet v.1.7.20251203
#Start time: 2026-01-09 01:48:09

#Version: 2.2.20231116
#Station: R2.0S_Moscow
#Location: 37.707566 lon 55.798166 lat
#TLE: 1 43013U 17073A   26008.42245989  .00000120  00000+0  77990-4 0  9996
#TLE: 2 43013  98.7631 309.4315 0001737  48.7960 311.3365 14.19534455421802

#Time	Az	El	Level	Level2	SNR	BER	BlckErr	Temp	State	Recorded	gain1	gain2
2026-01-09 01:48:09.24	8.99	2.00	-37.7	-54.0	3.8	1.49e+00	0	47	0	0	47	22796
2026-01-09 01:48:12.27	8.75	2.16	-37.7	-53.9	3.8	1.49e+00	0	47	104	0	46	24091
2026-01-09 01:48:15.30	8.50	2.32	-37.8	-54.0	3.8	1.49e+00	0	48	104	0	46	24136
2026-01-09 01:48:18.33	8.25	2.47	-37.7	-54.0	3.8	1.49e+00	0	48	104	0	46	24169
2026-01-09 01:48:21.37	8.00	2.63	-37.6	-53.9	3.8	1.49e+00	0	48	104	0	46	24058
2026-01-09 01:48:24.40	7.75	2.79	-37.7	-53.9	3.8	1.49e+00	0	48	104	0	46	24085
2026-01-09 01:48:27.43	7.49	2.95	-37.7	-53.9	3.8	1.49e+00	0	49	104	0	46	24095
2026-01-09 01:48:30.47	7.23	3.11	-37.6	-53.9	3.8	1.49e+00	0	49	104	0	46	24086
2026-01-09 01:48:33.50	6.96	3.27	-37.6	-53.9	3.8	1.49e+00	0	49	104	0	46	24052
2026-01-09 01:48:36.53	6.70	3.43	-37.7	-53.9	3.8	1.49e+00	0	49	104	0	46	24018
2026-01-09 01:48:39.56	6.43	3.59	-37.7	-53.9	3.8	1.49e+00	0	49	104	0	46	24030
2026-01-09 01:48:42.59	6.15	3.75	-37.7	-53.9	3.8	1.49e+00	0	50	104	0	46	24122
2026-01-09 01:48:45.63	5.88	3.91	-37.6	-53.9	3.8	1.49e+00	0	50	104	0	46	24054
2026-01-09 01:48:48.66	5.60	4.07	-37.6	-53.9	3.8	1.49e+00	0	50	104	0	46	24013
2026-01-09 01:48:51.69	5.31	4.23	-37.7	-53.9	3.8	1.49e+00	0	50	104	0	46	23987
2026-01-09 01:48:54.72	5.03	4.39	-37.7	-53.9	3.8	1.49e+00	0	50	104	0	46	23991
2026-01-09 01:48:57.75	4.74	4.55	-37.7	-53.9	3.8	1.49e+00	0	50	104	0	46	24054
2026-01-09 01:49:00.78	4.45	4.71	-37.7	-53.9	3.8	1.49e+00	0	51	104	0	46	23956
2026-01-09 01:49:03.81	4.15	4.88	-37.6	-53.9	3.8	1.49e+00	0	51	104	0	46	24020
2026-01-09 01:49:06.85	3.85	5.04	-37.7	-53.9	3.8	1.49e+00	0	51	104	0	46	23980
2026-01-09 01:49:09.88	3.55	5.20	-37.7	-53.9	3.8	1.49e+00	0	51	104	0	46	24005
2026-01-09 01:49:12.91	3.24	5.36	-37.7	-53.9	3.8	1.49e+00	0	51	104	0	46	23957
2026-01-09 01:49:15.94	2.93	5.53	-37.6	-53.9	3.8	1.49e+00	0	51	104	0	46	23916
2026-01-09 01:49:18.98	2.62	5.69	-37.7	-53.9	3.8	1.49e+00	0	52	104	0	46	24008
2026-01-09 01:49:22.01	2.30	5.86	-37.7	-53.9	3.8	1.49e+00	0	52	104	0	46	23971
2026-01-09 01:49:25.04	1.98	6.02	-37.7	-53.9	3.8	1.49e+00	0	52	104	0	46	23976
2026-01-09 01:49:28.07	1.66	6.18	-37.6	-53.9	3.8	1.49e+00	0	52	104	0	46	23982
2026-01-09 01:49:31.10	1.33	6.35	-37.7	-53.9	3.8	1.49e+00	0	52	104	0	46	23993
2026-01-09 01:49:34.13	0.99	6.51	-37.7	-53.9	3.8	1.49e+00	0	52	104	0	46	24060
2026-01-09 01:49:37.16	0.66	6.68	-37.6	-53.9	3.8	1.49e+00	0	52	104	0	46	23958
2026-01-09 01:49:40.20	0.32	6.84	-37.6	-53.9	3.8	1.49e+00	0	52	104	0	46	23917
2026-01-09 01:49:43.23	359.97	7.00	-37.6	-53.9	3.8	1.49e+00	0	52	104	0	46	23952
2026-01-09 01:49:46.26	359.63	7.17	-37.6	-53.9	3.8	1.49e+00	0	53	104	0	46	23926
2026-01-09 01:49:49.29	359.27	7.33	-37.7	-53.9	3.8	1.49e+00	0	53	104	0	46	23974
2026-01-09 01:49:52.32	358.92	7.50	-37.7	-53.9	3.8	1.49e+00	0	53	104	0	46	23951
2026-01-09 01:49:55.35	358.56	7.66	-37.7	-53.9	3.8	1.49e+00	0	53	104	0	46	23986
2026-01-09 01:49:58.38	358.19	7.83	-37.6	-53.9	3.8	1.49e+00	0	53	104	0	46	23954
2026-01-09 01:50:01.41	357.82	7.99	-37.7	-53.9	3.8	1.49e+00	0	53	104	0	46	23985
2026-01-09 01:50:04.44	357.45	8.16	-37.9	-54.0	3.8	1.49e+00	0	53	104	0	47	22823
2026-01-09 01:50:07.47	357.07	8.32	-38.1	-54.0	3.8	1.49e+00	0	53	104	0	47	22833
2026-01-09 01:50:10.50	356.69	8.48	-38.9	-54.1	3.8	1.49e+00	0	53	104	0	48	21805
2026-01-09 01:50:13.53	356.30	8.65	-39.6	-54.2	3.8	1.49e+00	0	53	104	0	49	21014
2026-01-09 01:50:16.56	355.91	8.81	-39.5	-54.3	3.8	1.49e+00	0	54	104	0	49	21080
2026-01-09 01:50:19.58	355.52	8.98	-39.5	-54.3	3.8	1.49e+00	0	54	104	0	49	21129
2026-01-09 01:50:22.61	355.12	9.14	-39.5	-54.3	3.8	1.49e+00	0	53	104	0	50	20058
2026-01-09 01:50:25.64	354.71	9.30	-39.4	-54.3	3.8	1.49e+00	0	54	104	0	50	19867
2026-01-09 01:50:28.67	354.31	9.46	-39.8	-54.4	3.8	1.49e+00	0	54	104	0	50	20184
2026-01-09 01:50:31.69	353.89	9.63	-39.8	-54.4	3.8	1.49e+00	0	54	104	0	50	20241
2026-01-09 01:50:34.72	353.47	9.79	-39.9	-54.5	3.8	1.49e+00	0	54	104	0	50	20498
2026-01-09 01:50:37.75	353.05	9.95	-40.2	-54.9	3.8	1.49e+00	0	54	104	0	51	20203
2026-01-09 01:50:40.78	352.62	10.11	-40.0	-54.7	3.8	1.49e+00	0	54	104	0	51	19615
2026-01-09 01:50:43.81	352.19	10.27	-39.8	-54.7	3.8	1.49e+00	0	54	104	0	51	19713
2026-01-09 01:50:46.84	351.75	10.43	-40.2	-54.9	3.8	1.49e+00	0	54	104	0	51	20105
2026-01-09 01:50:49.87	351.31	10.59	-40.0	-54.7	3.8	1.49e+00	0	54	104	0	51	19796
2026-01-09 01:50:52.89	350.86	10.75	-40.6	-55.2	3.8	1.49e+00	0	54	104	0	51	20819
2026-01-09 01:50:55.92	350.41	10.91	-40.2	-54.8	3.8	1.49e+00	0	54	104	0	51	19909
2026-01-09 01:50:58.95	349.95	11.06	-40.3	-54.9	3.8	1.49e+00	0	54	104	0	51	20110
2026-01-09 01:51:01.98	349.49	11.22	-40.6	-55.2	3.8	1.49e+00	0	54	104	0	51	21001
2026-01-09 01:51:05.00	349.02	11.37	-40.2	-54.8	3.8	1.49e+00	0	54	104	0	51	19905
2026-01-09 01:51:08.03	348.55	11.53	-40.3	-54.8	3.8	1.49e+00	0	54	104	0	51	20040
2026-01-09 01:51:11.06	348.07	11.68	-40.4	-55.2	3.8	1.49e+00	0	54	104	0	51	20992
2026-01-09 01:51:14.09	347.59	11.83	-40.8	-55.4	3.8	1.49e+00	0	55	104	0	52	20198
2026-01-09 01:51:17.12	347.10	11.99	-40.7	-55.3	3.8	1.49e+00	0	55	104	0	52	20037
2026-01-09 01:51:20.14	346.61	12.14	-40.4	-55.2	3.8	1.49e+00	0	55	104	0	52	19665
2026-01-09 01:51:23.17	346.11	12.29	-40.5	-55.1	3.8	1.49e+00	0	55	104	0	52	19550
2026-01-09 01:51:26.20	345.61	12.43	-40.1	-54.8	3.8	1.49e+00	0	55	104	0	52	18857
2026-01-09 01:51:29.23	345.10	12.58	-40.3	-55.0	3.8	1.49e+00	0	55	104	0	52	19357
2026-01-09 01:51:32.26	344.58	12.73	-40.5	-55.1	3.8	1.49e+00	0	55	104	0	52	19480
2026-01-09 01:51:35.29	344.06	12.87	-40.2	-54.9	3.8	1.49e+00	0	55	104	0	52	19008
2026-01-09 01:51:38.32	343.54	13.01	-40.4	-55.1	3.8	1.49e+00	0	55	104	0	52	19397
2026-01-09 01:51:41.35	343.01	13.15	-40.3	-54.9	3.8	1.49e+00	0	55	104	0	52	19033
2026-01-09 01:51:44.37	342.48	13.29	-40.2	-55.0	3.8	1.49e+00	0	55	104	0	51	20366
2026-01-09 01:51:47.40	341.94	13.43	-39.9	-54.8	3.8	1.49e+00	0	55	104	0	51	20055
2026-01-09 01:51:50.43	341.39	13.56	-39.7	-54.7	3.8	1.49e+00	0	55	104	0	51	19760
2026-01-09 01:51:53.46	340.84	13.70	-39.8	-54.8	3.8	1.49e+00	0	55	104	0	51	19891
2026-01-09 01:51:56.49	340.29	13.83	-40.1	-54.8	3.8	1.49e+00	0	55	104	0	51	20064
2026-01-09 01:51:59.52	339.73	13.96	-40.3	-54.3	3.8	1.49e+00	0	55	104	0	51	18740
2026-01-09 01:52:02.55	339.16	14.09	-40.7	-46.8	8.5	9.28e-02	0	55	0	4194304	52	7534
2026-01-09 01:52:05.57	338.59	14.21	-39.8	-43.6	12.5	2.21e-04	0	55	0	9437184	51	5501
2026-01-09 01:52:08.60	338.02	14.34	-40.2	-44.1	12.4	9.53e-05	0	55	0	14680064	51	5833
2026-01-09 01:52:11.63	337.44	14.46	-40.4	-44.0	12.6	1.25e-04	0	55	0	20971520	51	5774
2026-01-09 01:52:14.66	336.85	14.58	-40.6	-44.1	13.0	3.05e-05	0	55	0	26214400	51	5790
2026-01-09 01:52:17.69	336.27	14.69	-40.4	-43.5	13.6	7.60e-06	0	55	0	32505856	51	5434
2026-01-09 01:52:20.71	335.67	14.81	-40.1	-43.0	14.2	2.20e-06	0	55	0	37748736	51	5146
2026-01-09 01:52:23.74	335.08	14.92	-40.0	-42.8	14.5	1.50e-06	0	55	0	42991616	51	5040
2026-01-09 01:52:26.77	334.47	15.03	-39.9	-42.7	14.7	0.00e+00	0	55	0	49283072	51	4939
2026-01-09 01:52:29.80	333.86	15.13	-39.8	-42.5	14.9	0.00e+00	0	55	0	54525952	51	4825
2026-01-09 01:52:32.82	333.25	15.23	-39.7	-42.3	15.1	0.00e+00	0	55	0	60817408	51	4728
2026-01-09 01:52:35.85	332.64	15.33	-39.7	-42.4	15.0	0.00e+00	0	55	0	66060288	51	4773
2026-01-09 01:52:38.88	332.02	15.43	-39.7	-42.3	15.1	0.00e+00	0	55	0	71303168	51	4747
2026-01-09 01:52:41.91	331.39	15.53	-39.5	-42.0	15.5	0.00e+00	0	56	0	77594624	51	4574
2026-01-09 01:52:44.94	330.77	15.62	-39.6	-42.2	15.3	0.00e+00	0	55	0	82837504	51	4656
2026-01-09 01:52:47.97	330.13	15.70	-39.7	-42.2	15.2	0.00e+00	0	56	0	89128960	51	4694
2026-01-09 01:52:50.99	329.50	15.79	-39.6	-42.2	15.3	0.00e+00	0	55	0	94371840	51	4679
2026-01-09 01:52:54.02	328.86	15.87	-39.8	-42.4	15.1	7.00e-07	0	56	0	100663296	51	4797
2026-01-09 01:52:57.05	328.22	15.95	-39.9	-42.5	15.0	0.00e+00	0	55	0	105906176	51	4838
2026-01-09 01:53:00.08	327.57	16.02	-39.8	-42.5	15.1	0.00e+00	0	55	0	111149056	51	4819
2026-01-09 01:53:03.10	326.93	16.09	-39.9	-42.5	15.1	0.00e+00	0	56	0	117440512	51	4840
2026-01-09 01:53:06.13	326.27	16.16	-40.0	-42.7	14.8	0.00e+00	0	56	0	122683392	51	4935
2026-01-09 01:53:09.16	325.62	16.23	-40.0	-42.7	14.8	0.00e+00	0	56	0	128974848	51	4939
2026-01-09 01:53:12.19	324.96	16.29	-40.1	-42.8	14.6	7.00e-07	0	56	0	134217728	51	5040
2026-01-09 01:53:15.22	324.30	16.34	-40.3	-43.2	14.3	0.00e+00	0	56	0	139460608	51	5275
2026-01-09 01:53:18.25	323.64	16.40	-40.4	-43.3	14.2	1.50e-06	0	56	0	145752064	51	5318
2026-01-09 01:53:21.27	322.97	16.44	-40.1	-42.9	14.6	0.00e+00	0	56	0	150994944	51	5058
2026-01-09 01:53:24.30	322.30	16.49	-40.0	-42.6	14.9	0.00e+00	0	56	0	157286400	51	4911
2026-01-09 01:53:27.33	321.63	16.53	-40.0	-42.7	14.8	0.00e+00	0	56	0	162529280	51	4969
2026-01-09 01:53:30.36	320.96	16.57	-40.2	-43.0	14.5	0.00e+00	0	56	0	168820736	51	5117
2026-01-09 01:53:33.39	320.29	16.60	-40.3	-43.2	14.2	7.00e-07	0	56	0	174063616	51	5267
2026-01-09 01:53:36.42	319.62	16.63	-40.4	-43.3	14.2	1.50e-06	0	56	0	179306496	51	5310
2026-01-09 01:53:39.44	318.94	16.66	-40.4	-43.3	14.2	3.00e-06	0	56	0	185597952	51	5335
2026-01-09 01:53:42.47	318.26	16.68	-40.5	-43.4	14.0	1.50e-06	0	56	0	190840832	51	5401
2026-01-09 01:53:45.50	317.59	16.69	-40.5	-43.5	14.0	1.50e-06	0	56	0	197132288	51	5432
2026-01-09 01:53:48.53	316.91	16.71	-40.3	-43.1	14.4	7.00e-07	0	56	0	202375168	51	5198
2026-01-09 01:53:51.56	316.23	16.72	-40.3	-43.1	14.4	0.00e+00	0	56	0	207618048	51	5203
2026-01-09 01:53:54.58	315.55	16.72	-40.3	-43.2	14.3	1.50e-06	0	56	0	213909504	51	5265
2026-01-09 01:53:57.61	314.87	16.72	-40.4	-43.4	14.1	1.50e-06	0	56	0	219152384	51	5348
2026-01-09 01:54:00.64	314.19	16.72	-40.4	-43.3	14.2	7.00e-07	0	56	0	225443840	51	5314
2026-01-09 01:54:03.66	313.52	16.71	-40.6	-43.6	13.9	1.50e-06	0	56	0	230686720	51	5505
2026-01-09 01:54:06.69	312.84	16.70	-40.5	-43.5	14.0	3.00e-06	0	56	0	235929600	51	5456
2026-01-09 01:54:09.73	312.16	16.69	-40.3	-43.1	14.4	7.00e-07	0	56	0	242221056	51	5208
2026-01-09 01:54:12.75	311.48	16.67	-40.3	-43.2	14.4	7.00e-07	0	56	0	247463936	51	5220
2026-01-09 01:54:15.78	310.80	16.64	-40.4	-43.3	14.2	1.50e-06	0	56	0	253755392	51	5300
2026-01-09 01:54:18.81	310.13	16.62	-40.3	-43.2	14.3	0.00e+00	0	56	0	258998272	51	5231
2026-01-09 01:54:21.83	309.46	16.58	-40.2	-43.0	14.5	7.00e-07	0	56	0	265289728	51	5138
2026-01-09 01:54:24.86	308.78	16.55	-40.3	-43.1	14.4	1.50e-06	0	56	0	270532608	51	5198
2026-01-09 01:54:27.89	308.11	16.51	-40.3	-43.2	14.3	1.50e-06	0	56	0	275775488	51	5244
2026-01-09 01:54:30.92	307.44	16.47	-40.2	-43.1	14.4	7.00e-07	0	56	0	282066944	51	5175
2026-01-09 01:54:33.95	306.77	16.42	-40.2	-43.0	14.4	0.00e+00	0	56	0	287309824	51	5148
2026-01-09 01:54:36.98	306.11	16.37	-40.0	-42.7	14.8	0.00e+00	0	56	0	293601280	51	4974
2026-01-09 01:54:40.00	305.45	16.31	-39.8	-42.5	15.0	0.00e+00	0	56	0	298844160	51	4822
2026-01-09 01:54:43.03	304.79	16.25	-39.8	-42.4	15.1	7.00e-07	0	56	0	304087040	51	4780
2026-01-09 01:54:46.06	304.13	16.19	-39.8	-42.5	15.0	0.00e+00	0	56	0	310378496	51	4831
2026-01-09 01:54:49.09	303.48	16.13	-39.7	-42.3	15.2	0.00e+00	0	56	0	315621376	51	4734
2026-01-09 01:54:52.12	302.82	16.06	-39.8	-42.4	15.1	0.00e+00	0	56	0	321912832	51	4781
2026-01-09 01:54:55.14	302.18	15.98	-39.8	-42.5	15.0	0.00e+00	0	56	0	327155712	51	4832
2026-01-09 01:54:58.17	301.53	15.91	-39.8	-42.4	15.0	7.00e-07	0	56	0	333447168	51	4809
2026-01-09 01:55:01.20	300.89	15.83	-40.0	-42.7	14.7	0.00e+00	0	56	0	338690048	51	4958
2026-01-09 01:55:04.23	300.25	15.74	-40.1	-42.9	14.6	7.00e-07	0	56	0	343932928	51	5081
2026-01-09 01:55:07.25	299.62	15.66	-40.1	-42.9	14.5	0.00e+00	0	56	0	350224384	51	5073
2026-01-09 01:55:10.28	298.99	15.57	-40.0	-42.8	14.6	0.00e+00	0	56	0	355467264	51	5023
2026-01-09 01:55:13.31	298.36	15.48	-40.1	-42.9	14.4	2.20e-06	0	56	0	361758720	51	5091
2026-01-09 01:55:16.34	297.73	15.38	-40.1	-43.0	14.3	7.00e-07	0	56	0	367001600	51	5124
2026-01-09 01:55:19.37	297.11	15.28	-40.3	-43.3	14.1	7.00e-07	0	56	0	372244480	51	5302
2026-01-09 01:55:22.40	296.50	15.18	-40.4	-43.4	13.9	3.00e-06	0	56	0	378535936	51	5387
2026-01-09 01:55:25.42	295.89	15.08	-40.2	-43.1	14.2	7.00e-07	0	56	0	383778816	51	5205
2026-01-09 01:55:28.45	295.28	14.97	-40.0	-42.7	14.5	0.00e+00	0	56	0	390070272	51	4973
2026-01-09 01:55:31.48	294.68	14.86	-39.9	-42.6	14.6	7.00e-07	0	56	0	395313152	51	4920
2026-01-09 01:55:34.51	294.08	14.74	-40.0	-42.8	14.4	7.00e-07	0	56	0	401604608	51	5035
2026-01-09 01:55:37.54	293.49	14.63	-40.1	-43.1	14.2	7.00e-07	0	56	0	406847488	51	5168
2026-01-09 01:55:40.57	292.90	14.51	-39.8	-42.6	14.6	0.00e+00	0	56	0	412090368	51	4894
2026-01-09 01:55:43.59	292.32	14.39	-39.7	-42.5	14.7	0.00e+00	0	56	0	418381824	51	4826
2026-01-09 01:55:46.62	291.74	14.27	-39.9	-42.6	14.5	7.00e-07	0	56	0	423624704	51	4920
2026-01-09 01:55:49.65	291.17	14.14	-39.9	-42.7	14.4	0.00e+00	0	56	0	429916160	51	4974
2026-01-09 01:55:52.68	290.60	14.02	-39.9	-42.8	14.3	1.50e-06	0	56	0	435159040	51	5011
2026-01-09 01:55:55.71	290.03	13.89	-39.8	-42.6	14.4	7.00e-07	0	56	0	440401920	51	4916
2026-01-09 01:55:58.74	289.47	13.76	-39.8	-42.6	14.4	7.00e-07	0	56	0	446693376	51	4898
2026-01-09 01:56:01.76	288.92	13.62	-39.8	-42.6	14.4	7.00e-07	0	56	0	451936256	51	4919
2026-01-09 01:56:04.80	288.37	13.49	-40.0	-43.0	14.0	1.50e-06	0	56	0	458227712	51	5105
2026-01-09 01:56:07.82	287.83	13.35	-40.1	-43.3	13.7	3.00e-06	0	56	0	463470592	51	5280
2026-01-09 01:56:10.85	287.29	13.21	-40.2	-43.4	13.4	1.60e-05	0	56	0	469762048	51	5394
2026-01-09 01:56:13.88	286.75	13.07	-40.4	-43.8	13.1	1.75e-05	0	56	0	475004928	51	5600
2026-01-09 01:56:16.91	286.22	12.93	-40.6	-44.2	12.7	6.71e-05	0	56	0	480247808	51	5868
2026-01-09 01:56:19.93	285.70	12.79	-40.8	-44.6	12.2	1.92e-04	0	56	0	486539264	52	5833
2026-01-09 01:56:22.96	285.18	12.64	-41.0	-45.0	11.8	3.60e-04	0	56	0	491782144	52	6081
2026-01-09 01:56:25.99	284.67	12.50	-40.9	-44.8	12.0	3.11e-04	0	56	0	498073600	52	5969
2026-01-09 01:56:29.02	284.16	12.35	-41.1	-45.2	11.6	6.61e-04	0	56	0	503316480	52	6223
2026-01-09 01:56:32.05	283.66	12.20	-41.2	-45.5	11.2	1.24e-03	0	56	0	508559360	52	6450
2026-01-09 01:56:35.08	283.16	12.05	-41.0	-45.0	11.6	7.72e-04	0	56	0	514850816	53	5786
2026-01-09 01:56:38.10	282.67	11.90	-40.9	-44.8	11.9	4.07e-04	0	56	0	520093696	53	5644
2026-01-09 01:56:41.13	282.18	11.75	-41.0	-45.0	11.7	5.76e-04	0	56	0	526385152	53	5774
2026-01-09 01:56:44.16	281.69	11.59	-41.2	-45.5	11.3	1.26e-03	0	56	0	531628032	53	6074
2026-01-09 01:56:47.19	281.22	11.44	-41.3	-45.6	11.1	1.73e-03	0	56	0	536870912	53	6190
2026-01-09 01:56:50.22	280.74	11.28	-41.2	-45.5	11.2	1.56e-03	0	56	0	543162368	53	6116
2026-01-09 01:56:53.25	280.28	11.13	-41.2	-45.4	11.3	1.25e-03	0	56	0	548405248	53	6012
2026-01-09 01:56:56.27	279.82	10.97	-41.2	-45.5	11.1	1.29e-03	0	56	0	554696704	53	6080
2026-01-09 01:56:59.30	279.36	10.81	-41.3	-45.8	10.8	2.44e-03	0	56	0	559939584	53	6277
2026-01-09 01:57:02.33	278.90	10.65	-41.3	-45.8	10.7	2.91e-03	0	56	0	566231040	53	6291
2026-01-09 01:57:05.36	278.46	10.49	-41.2	-45.8	10.5	3.42e-03	0	56	0	571473920	53	6341
2026-01-09 01:57:08.39	278.01	10.33	-41.2	-46.1	10.0	6.31e-03	0	56	0	576716800	53	6570
2026-01-09 01:57:11.41	277.58	10.17	-41.3	-46.4	9.7	1.06e-02	0	56	0	583008256	53	6752
2026-01-09 01:57:14.44	277.14	10.01	-41.3	-46.6	9.4	1.56e-02	0	56	0	588251136	53	6954
2026-01-09 01:57:17.47	276.72	9.85	-41.2	-47.1	8.5	3.36e-02	0	56	0	594542592	53	7339
2026-01-09 01:57:20.50	276.29	9.69	-41.1	-47.8	7.6	8.79e-02	0	57	0	599785472	53	7910
2026-01-09 01:57:23.53	275.87	9.53	-41.1	-48.7	6.5	2.07e-01	0	56	0	605028352	53	8786
2026-01-09 01:57:26.56	275.46	9.36	-40.9	-49.8	5.4	4.69e-01	0	56	0	611319808	53	9964
2026-01-09 01:57:29.58	275.05	9.20	-40.8	-50.9	4.7	9.13e-01	0	56	0	616562688	53	11297
2026-01-09 01:57:32.61	274.65	9.04	-40.6	-51.9	4.2	1.38e+00	0	57	0	620756992	53	12779
2026-01-09 01:57:35.64	274.25	8.87	-40.5	-52.8	3.9	1.47e+00	0	56	104	620756992	53	14050
2026-01-09 01:57:38.66	273.85	8.71	-40.4	-53.3	3.8	1.48e+00	0	56	104	620756992	52	15782
2026-01-09 01:57:41.69	273.46	8.55	-40.3	-53.6	3.8	1.49e+00	0	56	104	620756992	52	16488
2026-01-09 01:57:44.72	273.07	8.38	-40.2	-54.0	3.8	1.49e+00	0	57	104	620756992	52	17100
2026-01-09 01:57:47.75	272.69	8.22	-40.1	-54.3	3.8	1.49e+00	0	57	104	620756992	52	17721
2026-01-09 01:57:50.78	272.31	8.05	-39.7	-54.1	3.8	1.49e+00	0	57	104	620756992	51	18313
2026-01-09 01:57:53.81	271.94	7.89	-44.5	-58.9	3.8	1.49e+00	0	57	104	620756992	59	20131
2026-01-09 01:57:56.84	271.57	7.72	-44.8	-59.3	3.8	1.49e+00	0	57	104	620756992	60	19986
2026-01-09 01:57:59.87	271.21	7.56	-44.9	-59.4	3.8	1.49e+00	0	56	104	620756992	60	20229
2026-01-09 01:58:02.90	270.84	7.39	-44.8	-59.3	3.8	1.49e+00	0	56	104	620756992	60	20040
2026-01-09 01:58:05.93	270.49	7.23	-44.8	-59.3	3.8	1.49e+00	0	56	104	620756992	60	19884
2026-01-09 01:58:08.96	270.14	7.06	-44.8	-59.3	3.8	1.49e+00	0	57	104	620756992	60	19899
2026-01-09 01:58:12.00	269.79	6.90	-44.7	-59.2	3.8	1.49e+00	0	57	104	620756992	60	19796
2026-01-09 01:58:15.03	269.44	6.73	-44.7	-59.2	3.8	1.49e+00	0	57	104	620756992	60	19750
2026-01-09 01:58:18.06	269.10	6.57	-44.7	-59.2	3.8	1.49e+00	0	57	104	620756992	60	19737
2026-01-09 01:58:21.09	268.76	6.40	-44.7	-59.2	3.8	1.49e+00	0	57	104	620756992	60	19719
2026-01-09 01:58:24.12	268.43	6.24	-44.7	-59.2	3.8	1.49e+00	0	57	104	620756992	60	19749
2026-01-09 01:58:27.15	268.10	6.08	-44.7	-59.2	3.8	1.49e+00	0	57	104	620756992	60	19712
2026-01-09 01:58:30.18	267.78	5.91	-44.7	-59.2	3.8	1.49e+00	0	57	104	620756992	60	19674
2026-01-09 01:58:33.22	267.45	5.75	-44.7	-59.2	3.8	1.49e+00	0	57	104	620756992	60	19703
2026-01-09 01:58:36.25	267.13	5.58	-44.7	-59.2	3.8	1.49e+00	0	57	104	620756992	60	19730
2026-01-09 01:58:39.28	266.82	5.42	-44.7	-59.2	3.8	1.49e+00	0	57	104	620756992	60	19760
2026-01-09 01:58:42.31	266.51	5.26	-44.7	-59.2	3.8	1.49e+00	0	57	104	620756992	60	19726
2026-01-09 01:58:45.34	266.20	5.09	-44.7	-59.2	3.8	1.49e+00	0	57	104	620756992	60	19743
2026-01-09 01:58:48.37	265.90	4.93	-44.7	-59.2	3.8	1.49e+00	0	57	104	620756992	60	19750
2026-01-09 01:58:51.40	265.60	4.77	-44.7	-59.2	3.8	1.49e+00	0	57	104	620756992	60	19761
2026-01-09 01:58:54.43	265.30	4.61	-44.7	-59.2	3.8	1.49e+00	0	56	104	620756992	60	19730
2026-01-09 01:58:57.46	265.01	4.44	-44.7	-59.2	3.8	1.49e+00	0	57	104	620756992	60	19704
2026-01-09 01:59:00.49	264.72	4.28	-44.7	-59.2	3.8	1.49e+00	0	57	104	620756992	60	19731
2026-01-09 01:59:03.52	264.43	4.12	-44.7	-59.2	3.8	1.49e+00	0	57	104	620756992	60	19737
2026-01-09 01:59:06.55	264.15	3.96	-44.7	-59.2	3.8	1.49e+00	0	57	104	620756992	60	19695
2026-01-09 01:59:09.59	263.86	3.80	-44.7	-59.2	3.8	1.49e+00	0	57	104	620756992	60	19718
2026-01-09 01:59:12.62	263.59	3.64	-44.7	-59.2	3.8	1.49e+00	0	57	104	620756992	60	19692
2026-01-09 01:59:15.65	263.31	3.48	-44.7	-59.2	3.8	1.49e+00	0	57	104	620756992	60	19730
2026-01-09 01:59:18.68	263.04	3.32	-44.7	-59.2	3.8	1.49e+00	0	57	104	620756992	60	19718
2026-01-09 01:59:21.71	262.77	3.16	-44.7	-59.2	3.8	1.49e+00	0	57	104	620756992	60	19746
2026-01-09 01:59:24.74	262.51	3.00	-44.7	-59.2	3.8	1.49e+00	0	57	104	620756992	60	19745
2026-01-09 01:59:27.77	262.25	2.84	-44.7	-59.2	3.8	1.49e+00	0	57	104	620756992	60	19716
2026-01-09 01:59:30.81	261.99	2.68	-44.7	-59.2	3.8	1.49e+00	0	57	104	620756992	60	19686
2026-01-09 01:59:33.84	261.73	2.52	-44.7	-59.2	3.8	1.49e+00	0	57	104	620756992	60	19686
2026-01-09 01:59:36.87	261.47	2.36	-44.7	-59.2	3.8	1.49e+00	0	57	104	620756992	60	19747
2026-01-09 01:59:39.90	261.22	2.21	-44.7	-59.2	3.8	1.49e+00	0	57	104	620756992	60	19708
2026-01-09 01:59:42.93	260.98	2.05	-44.7	-59.2	3.8	1.49e+00	0	57	104	620756992	60	19711

#Closed at: 2026-01-09 01:59:44
#Recorded file [620 MB]: D:/lorett/data/31039_260109_044809.dat