passes_logs/2026/01/27/planumMaritime01/planumMaritime01__20260127_182319_METOP-B_rec.log

#Pass ID: 20260127_182319_METOP-B
#Satellite: METOP-B
#Configuration: METOP-B
#Start time: 2026-01-27 18:23:24.515553

#LorettStation: 1.0.0 05.05.2024
#Station: planumMaritime01
#Location: 37.49445 lon 55.92918 lat
#TLE: 1 38771U 12049A   26026.42154174  .00000197  00000+0  10998-3 0  9992
#TLE: 2 38771  98.6731  80.6089 0002944  53.2610 306.8837 14.21428899693123

#Time	Az	El	Level	SNR
2026-01-27 18:23:26.676119	192.4	10.2	-74.8	0.0
2026-01-27 18:23:28.923854	192.5	10.4	-72.7	0.0
2026-01-27 18:23:31.170619	192.7	10.5	-71.4	0.0
2026-01-27 18:23:33.417025	192.9	10.7	-71.5	0.0
2026-01-27 18:23:35.664367	193.0	10.9	-69.9	0.0
2026-01-27 18:23:37.912409	193.2	11.1	-70.3	0.0
2026-01-27 18:23:40.157441	193.4	11.3	-70.6	0.0
2026-01-27 18:23:42.403085	193.5	11.5	-70.3	0.0
2026-01-27 18:23:44.651061	193.7	11.7	-69.2	0.0
2026-01-27 18:23:46.897121	193.9	11.9	-70.4	0.0
2026-01-27 18:23:49.141137	194.0	12.1	-69.4	0.0
2026-01-27 18:23:51.389247	194.2	12.3	-70.6	0.0
2026-01-27 18:23:53.634891	194.4	12.5	-70.6	0.0
2026-01-27 18:23:55.881868	194.6	12.7	-70.0	0.0
2026-01-27 18:23:58.126186	194.8	12.9	-70.8	0.0
2026-01-27 18:24:00.368747	195.0	13.1	-70.2	0.0
2026-01-27 18:24:02.616392	195.2	13.3	-70.0	0.0
2026-01-27 18:24:04.859596	195.4	13.5	-68.9	0.0
2026-01-27 18:24:07.106258	195.6	13.7	-70.0	0.0
2026-01-27 18:24:09.351060	195.8	13.9	-70.1	0.0
2026-01-27 18:24:11.596767	196.0	14.1	-69.7	0.0
2026-01-27 18:24:13.840577	196.2	14.3	-69.5	0.0
2026-01-27 18:24:16.083927	196.4	14.5	-69.3	0.0
2026-01-27 18:24:18.328771	196.6	14.7	-70.3	0.0
2026-01-27 18:24:20.573845	196.8	15.0	-70.4	0.0
2026-01-27 18:24:22.821177	197.0	15.2	-69.0	0.0
2026-01-27 18:24:25.065945	197.2	15.4	-69.5	0.0
2026-01-27 18:24:27.312606	197.5	15.6	-68.8	0.0
2026-01-27 18:24:29.559234	197.7	15.8	-68.9	0.0
2026-01-27 18:24:31.804816	197.9	16.1	-68.4	0.0
2026-01-27 18:24:34.050654	198.2	16.3	-69.9	0.0
2026-01-27 18:24:36.297377	198.4	16.5	-69.5	0.0
2026-01-27 18:24:38.540357	198.6	16.7	-70.6	0.0
2026-01-27 18:24:40.783257	198.9	17.0	-69.9	0.0
2026-01-27 18:24:43.028537	199.1	17.2	-69.8	0.0
2026-01-27 18:24:45.272466	199.4	17.4	-70.3	0.0
2026-01-27 18:24:47.517189	199.6	17.7	-69.8	0.0
2026-01-27 18:24:49.763179	199.9	17.9	-69.6	0.0
2026-01-27 18:24:52.013046	200.1	18.1	-69.8	0.0
2026-01-27 18:24:54.259022	200.4	18.4	-69.9	0.0
2026-01-27 18:24:56.504613	200.7	18.6	-69.0	0.0
2026-01-27 18:24:58.752119	201.0	18.9	-69.8	0.0
2026-01-27 18:25:00.996039	201.2	19.1	-70.2	0.0
2026-01-27 18:25:03.244148	201.5	19.4	-69.8	0.0
2026-01-27 18:25:05.489047	201.8	19.6	-69.6	0.0
2026-01-27 18:25:07.734428	202.1	19.9	-70.2	0.0
2026-01-27 18:25:09.978049	202.4	20.1	-69.3	0.0
2026-01-27 18:25:12.221809	202.7	20.4	-69.8	0.0
2026-01-27 18:25:14.465221	203.0	20.6	-69.5	0.0
2026-01-27 18:25:16.710996	203.3	20.9	-68.8	0.0
2026-01-27 18:25:18.953444	203.6	21.1	-69.9	0.0
2026-01-27 18:25:21.198383	204.0	21.4	-69.5	0.0
2026-01-27 18:25:23.445228	204.3	21.7	-70.5	0.0
2026-01-27 18:25:25.692284	204.6	21.9	-69.2	0.0
2026-01-27 18:25:27.936544	205.0	22.2	-70.2	0.0
2026-01-27 18:25:30.181695	205.3	22.5	-69.9	0.0
2026-01-27 18:25:32.428748	205.7	22.7	-70.2	0.0
2026-01-27 18:25:34.676618	206.0	23.0	-70.6	0.9
2026-01-27 18:25:36.919543	206.4	23.3	-70.5	0.4
2026-01-27 18:25:39.164786	206.8	23.6	-70.2	2.5
2026-01-27 18:25:41.407820	207.1	23.9	-70.7	4.5
2026-01-27 18:25:43.652719	207.5	24.1	-70.4	3.5
2026-01-27 18:25:45.900803	207.9	24.4	-71.1	1.6
2026-01-27 18:25:48.149059	208.3	24.7	-70.8	3.6
2026-01-27 18:25:50.395484	208.7	25.0	-70.9	4.8
2026-01-27 18:25:52.640760	209.1	25.3	-71.0	5.9
2026-01-27 18:25:54.886307	209.5	25.6	-71.5	4.3
2026-01-27 18:25:57.132321	210.0	25.9	-71.2	4.6
2026-01-27 18:25:59.381429	210.4	26.1	-71.8	6.5
2026-01-27 18:26:01.629914	210.8	26.4	-72.1	3.6
2026-01-27 18:26:03.878552	211.3	26.7	-72.1	7.1
2026-01-27 18:26:06.122054	211.8	27.0	-72.3	5.6
2026-01-27 18:26:08.363841	212.2	27.3	-72.5	7.3
2026-01-27 18:26:10.608240	212.7	27.6	-72.0	6.3
2026-01-27 18:26:12.855982	213.2	27.9	-72.2	7.9
2026-01-27 18:26:15.104088	213.7	28.2	-73.1	7.9
2026-01-27 18:26:17.349294	214.2	28.5	-73.2	8.9
2026-01-27 18:26:19.596520	214.7	28.8	-72.8	7.5
2026-01-27 18:26:21.838991	215.2	29.1	-73.3	9.0
2026-01-27 18:26:24.090759	215.7	29.4	-73.3	8.3
2026-01-27 18:26:26.334426	216.3	29.7	-73.2	9.4
2026-01-27 18:26:28.581666	216.8	30.1	-73.0	8.5
2026-01-27 18:26:30.826125	217.4	30.4	-73.2	9.7
2026-01-27 18:26:33.070863	218.0	30.7	-73.4	9.5
2026-01-27 18:26:35.316826	218.6	31.0	-73.5	10.1
2026-01-27 18:26:37.563840	219.1	31.3	-73.4	10.9
2026-01-27 18:26:39.808434	219.7	31.6	-73.4	10.0
2026-01-27 18:26:42.054019	220.4	31.9	-73.5	10.9
2026-01-27 18:26:44.300868	221.0	32.2	-73.3	10.7
2026-01-27 18:26:46.546746	221.6	32.5	-72.7	9.5
2026-01-27 18:26:48.791010	222.3	32.8	-73.2	10.8
2026-01-27 18:26:51.034384	222.9	33.1	-73.0	10.6
2026-01-27 18:26:53.277272	223.6	33.4	-73.2	11.8
2026-01-27 18:26:55.521878	224.3	33.7	-73.2	11.8
2026-01-27 18:26:57.768923	225.0	34.0	-73.2	11.5
2026-01-27 18:27:00.014175	225.7	34.3	-73.3	11.5
2026-01-27 18:27:02.258695	226.4	34.6	-73.2	10.7
2026-01-27 18:27:04.507383	227.2	34.9	-73.2	11.8
2026-01-27 18:27:06.753107	227.9	35.2	-73.2	11.4
2026-01-27 18:27:08.998971	228.7	35.5	-73.3	11.1
2026-01-27 18:27:11.245564	229.5	35.7	-73.4	10.8
2026-01-27 18:27:13.491807	230.3	36.0	-73.3	11.0
2026-01-27 18:27:15.738525	231.1	36.3	-73.4	11.4
2026-01-27 18:27:17.986020	231.9	36.6	-73.2	11.5
2026-01-27 18:27:20.232027	232.7	36.8	-73.1	10.3
2026-01-27 18:27:22.479871	233.6	37.1	-73.2	10.4
2026-01-27 18:27:24.721125	234.4	37.4	-73.0	11.3
2026-01-27 18:27:26.967789	235.3	37.6	-73.0	9.9
2026-01-27 18:27:29.214257	236.2	37.9	-73.0	11.5
2026-01-27 18:27:31.455470	237.1	38.1	-72.6	10.9
2026-01-27 18:27:33.701226	238.0	38.3	-72.7	11.1
2026-01-27 18:27:35.944412	238.9	38.6	-72.6	11.1
2026-01-27 18:27:38.192271	239.9	38.8	-72.6	10.9
2026-01-27 18:27:40.438821	240.8	39.0	-72.4	11.5
2026-01-27 18:27:42.681374	241.8	39.2	-72.1	10.6
2026-01-27 18:27:44.927098	242.8	39.4	-72.5	9.9
2026-01-27 18:27:47.172350	243.7	39.6	-72.9	10.3
2026-01-27 18:27:49.421019	244.7	39.8	-72.9	10.2
2026-01-27 18:27:51.665003	245.8	40.0	-72.7	10.0
2026-01-27 18:27:53.909139	246.8	40.1	-72.7	9.8
2026-01-27 18:27:56.149991	247.8	40.3	-72.7	9.3
2026-01-27 18:27:58.396373	248.8	40.4	-72.5	8.5
2026-01-27 18:28:00.643195	249.9	40.6	-72.4	8.7
2026-01-27 18:28:02.891933	250.9	40.7	-72.4	9.0
2026-01-27 18:28:05.138416	252.0	40.8	-72.4	8.3
2026-01-27 18:28:07.385241	253.1	40.9	-72.2	9.2
2026-01-27 18:28:09.628988	254.2	41.0	-72.5	8.7
2026-01-27 18:28:11.876425	255.2	41.1	-72.3	8.8
2026-01-27 18:28:14.123074	256.3	41.2	-72.2	9.5
2026-01-27 18:28:16.369382	257.4	41.2	-71.8	9.9
2026-01-27 18:28:18.614295	258.5	41.3	-71.9	7.8
2026-01-27 18:28:20.856036	259.6	41.3	-71.3	7.7
2026-01-27 18:28:23.101742	260.7	41.4	-71.7	7.9
2026-01-27 18:28:25.346055	261.8	41.4	-72.0	7.7
2026-01-27 18:28:27.593642	262.9	41.4	-72.3	8.2
2026-01-27 18:28:29.839596	264.0	41.4	-71.7	4.1
2026-01-27 18:28:32.088741	265.1	41.3	-71.5	9.1
2026-01-27 18:28:34.336125	266.2	41.3	-70.2	6.1
2026-01-27 18:28:36.581843	267.3	41.3	-70.6	3.5
2026-01-27 18:28:38.826191	268.4	41.2	-71.1	6.0
2026-01-27 18:28:41.070864	269.5	41.2	-70.9	8.4
2026-01-27 18:28:43.315192	270.6	41.1	-68.9	3.5
2026-01-27 18:28:45.558307	271.7	41.0	-70.6	3.8
2026-01-27 18:28:47.805020	272.7	40.9	-70.8	7.1
2026-01-27 18:28:50.050672	273.8	40.8	-70.1	6.6
2026-01-27 18:28:52.294851	274.9	40.7	-69.5	4.6
2026-01-27 18:28:54.540747	275.9	40.5	-69.5	4.0
2026-01-27 18:28:56.785192	277.0	40.4	-68.5	4.3
2026-01-27 18:28:59.030889	278.0	40.2	-69.0	5.8
2026-01-27 18:29:01.279196	279.0	40.1	-68.2	2.7
2026-01-27 18:29:03.527323	280.0	39.9	-69.7	2.8
2026-01-27 18:29:05.771116	281.0	39.7	-68.8	3.6
2026-01-27 18:29:08.020894	282.0	39.5	-69.5	4.1
2026-01-27 18:29:10.264055	283.0	39.4	-69.9	4.9
2026-01-27 18:29:12.510530	284.0	39.2	-70.1	6.0
2026-01-27 18:29:14.753894	284.9	38.9	-69.3	1.7
2026-01-27 18:29:17.000587	285.9	38.7	-69.4	5.1
2026-01-27 18:29:19.246516	286.8	38.5	-70.5	3.8
2026-01-27 18:29:21.493085	287.7	38.3	-68.9	5.1
2026-01-27 18:29:23.736286	288.6	38.0	-69.9	4.5
2026-01-27 18:29:25.979241	289.5	37.8	-69.3	2.2
2026-01-27 18:29:28.225315	290.4	37.5	-68.3	1.3
2026-01-27 18:29:30.471358	291.3	37.3	-69.5	1.6
2026-01-27 18:29:32.713500	292.1	37.0	-68.8	4.6
2026-01-27 18:29:34.960788	292.9	36.8	-67.9	2.3
2026-01-27 18:29:37.204374	293.8	36.5	-68.0	0.0
2026-01-27 18:29:39.448026	294.6	36.2	-68.0	0.0
2026-01-27 18:29:41.693823	295.4	35.9	-67.8	1.5
2026-01-27 18:29:43.936121	296.2	35.7	-67.5	1.2
2026-01-27 18:29:46.182186	296.9	35.4	-68.9	0.4
2026-01-27 18:29:48.426792	297.7	35.1	-68.3	0.0
2026-01-27 18:29:50.676303	298.4	34.8	-68.5	1.7
2026-01-27 18:29:52.922575	299.2	34.5	-68.3	1.3
2026-01-27 18:29:55.170569	299.9	34.2	-68.4	4.5
2026-01-27 18:29:57.415922	300.6	33.9	-68.0	1.3
2026-01-27 18:29:59.663039	301.3	33.6	-69.3	0.6
2026-01-27 18:30:01.908735	302.0	33.3	-69.3	2.7
2026-01-27 18:30:04.154315	302.6	33.0	-68.5	1.6
2026-01-27 18:30:06.398875	303.3	32.7	-67.5	0.0
2026-01-27 18:30:08.645368	303.9	32.4	-69.5	0.0
2026-01-27 18:30:10.889958	304.6	32.1	-69.1	0.0
2026-01-27 18:30:13.135586	305.2	31.8	-69.1	0.0
2026-01-27 18:30:15.378353	305.8	31.5	-70.4	0.4
2026-01-27 18:30:17.621486	306.4	31.2	-69.1	1.4
2026-01-27 18:30:19.866836	307.0	30.9	-68.2	0.0
2026-01-27 18:30:22.110910	307.6	30.6	-69.6	0.3
2026-01-27 18:30:24.354623	308.1	30.3	-68.9	3.5
2026-01-27 18:30:26.600602	308.7	30.0	-68.2	0.0
2026-01-27 18:30:28.844569	309.2	29.7	-68.4	0.0
2026-01-27 18:30:31.086679	309.8	29.4	-67.9	0.8
2026-01-27 18:30:33.330769	310.3	29.1	-68.6	1.5
2026-01-27 18:30:35.579021	310.8	28.8	-69.1	1.4
2026-01-27 18:30:37.821108	311.3	28.5	-68.8	2.7
2026-01-27 18:30:40.064397	311.8	28.2	-68.9	0.9
2026-01-27 18:30:42.310395	312.3	27.9	-69.7	0.0
2026-01-27 18:30:44.554382	312.8	27.6	-69.0	1.9
2026-01-27 18:30:46.802306	313.3	27.3	-69.8	0.0
2026-01-27 18:30:49.044943	313.7	27.0	-68.8	0.6
2026-01-27 18:30:51.290137	314.2	26.7	-69.0	0.0
2026-01-27 18:30:53.534073	314.6	26.4	-69.2	0.0
2026-01-27 18:30:55.778536	315.1	26.1	-67.5	0.0
2026-01-27 18:30:58.023620	315.5	25.8	-67.8	0.0
2026-01-27 18:31:00.268995	315.9	25.6	-67.2	0.0
2026-01-27 18:31:02.516380	316.3	25.3	-66.6	0.0
2026-01-27 18:31:04.765339	316.7	25.0	-66.6	0.0
2026-01-27 18:31:07.010969	317.1	24.7	-66.7	0.0
2026-01-27 18:31:09.255071	317.5	24.4	-66.8	0.0
2026-01-27 18:31:11.501043	317.9	24.1	-66.4	0.0
2026-01-27 18:31:13.746604	318.3	23.9	-66.1	0.0
2026-01-27 18:31:15.989666	318.7	23.6	-64.3	0.0
2026-01-27 18:31:18.232171	319.0	23.3	-65.1	0.0
2026-01-27 18:31:20.478227	319.4	23.0	-66.5	0.0
2026-01-27 18:31:22.721593	319.8	22.8	-65.8	0.0
2026-01-27 18:31:24.966833	320.1	22.5	-66.7	0.0
2026-01-27 18:31:27.212048	320.5	22.2	-66.1	0.0
2026-01-27 18:31:29.455857	320.8	22.0	-65.5	0.0
2026-01-27 18:31:31.702288	321.1	21.7	-66.8	0.0
2026-01-27 18:31:33.950464	321.5	21.4	-67.2	0.0
2026-01-27 18:31:36.195365	321.8	21.2	-66.7	0.0
2026-01-27 18:31:38.442352	322.1	20.9	-67.4	0.0
2026-01-27 18:31:40.686438	322.4	20.7	-66.4	0.0
2026-01-27 18:31:42.932296	322.7	20.4	-66.9	0.0
2026-01-27 18:31:45.176205	323.0	20.2	-66.9	0.0
2026-01-27 18:31:47.419379	323.3	19.9	-66.5	0.0
2026-01-27 18:31:49.665071	323.6	19.7	-62.5	0.0
2026-01-27 18:31:51.910123	323.9	19.4	-66.0	0.0
2026-01-27 18:31:54.156538	324.2	19.2	-66.5	0.0
2026-01-27 18:31:56.403730	324.5	18.9	-57.8	0.0
2026-01-27 18:31:58.646670	324.7	18.7	-65.7	0.0
2026-01-27 18:32:00.890663	325.0	18.4	-65.8	0.0
2026-01-27 18:32:03.134339	325.3	18.2	-64.1	0.0
2026-01-27 18:32:05.379573	325.5	18.0	-65.4	0.0
2026-01-27 18:32:07.623737	325.8	17.7	-65.2	0.0
2026-01-27 18:32:09.866946	326.0	17.5	-64.9	0.0
2026-01-27 18:32:12.110495	326.3	17.3	-61.4	0.0
2026-01-27 18:32:14.356781	326.5	17.0	-65.4	0.0
2026-01-27 18:32:16.602036	326.8	16.8	-65.1	0.0
2026-01-27 18:32:18.848753	327.0	16.6	-65.6	0.0
2026-01-27 18:32:21.091194	327.3	16.4	-65.3	0.0
2026-01-27 18:32:23.339372	327.5	16.1	-64.1	0.0
2026-01-27 18:32:25.586564	327.7	15.9	-64.0	0.0
2026-01-27 18:32:27.830654	327.9	15.7	-65.9	0.0
2026-01-27 18:32:30.078228	328.2	15.5	-65.0	0.0
2026-01-27 18:32:32.322500	328.4	15.3	-64.5	0.0
2026-01-27 18:32:34.570041	328.6	15.0	-63.5	0.0
2026-01-27 18:32:36.812609	328.8	14.8	-64.5	0.0
2026-01-27 18:32:39.057170	329.0	14.6	-63.9	0.0
2026-01-27 18:32:41.306036	329.2	14.4	-63.3	0.0
2026-01-27 18:32:43.551152	329.4	14.2	-62.2	0.0
2026-01-27 18:32:45.794972	329.7	14.0	-62.3	0.0
2026-01-27 18:32:48.041250	329.9	13.8	-61.7	0.0
2026-01-27 18:32:50.285265	330.0	13.6	-62.8	0.0
2026-01-27 18:32:52.528674	330.2	13.4	-62.3	0.0
2026-01-27 18:32:54.772418	330.4	13.2	-62.4	0.0
2026-01-27 18:32:57.018158	330.6	13.0	-62.2	0.0
2026-01-27 18:32:59.264240	330.8	12.8	-63.4	0.0
2026-01-27 18:33:01.510442	331.0	12.6	-62.3	0.0
2026-01-27 18:33:03.754808	331.2	12.4	-61.9	0.0
2026-01-27 18:33:06.000049	331.4	12.2	-64.2	0.0
2026-01-27 18:33:08.246385	331.5	12.0	-61.6	0.0
2026-01-27 18:33:10.490513	331.7	11.8	-63.2	0.0
2026-01-27 18:33:12.736384	331.9	11.6	-62.2	0.0
2026-01-27 18:33:14.986049	332.1	11.4	-64.0	0.0
2026-01-27 18:33:17.227988	332.2	11.2	-63.2	0.0
2026-01-27 18:33:19.474235	332.4	11.0	-64.3	0.0
2026-01-27 18:33:21.716194	332.6	10.9	-64.1	0.0
2026-01-27 18:33:23.964981	332.7	10.7	-66.4	0.0
2026-01-27 18:33:26.210029	332.9	10.5	-67.1	0.0
2026-01-27 18:33:28.454149	333.1	10.3	-69.6	0.0
2026-01-27 18:33:30.694786	333.2	10.1	-71.3	0.0
#Closed at: 2026-01-27 18:23:19.522676