passes_logs/2026/01/27/planumMaritime01/planumMaritime01__20260127_120819_METEOR-M2_4_rec.log

#Pass ID: 20260127_120819_METEOR-M2 4
#Satellite: METEOR-M2 4
#Configuration: METEOR-M2 4
#Start time: 2026-01-27 12:08:24.273001

#LorettStation: 1.0.0 05.05.2024
#Station: planumMaritime01
#Location: 37.49445 lon 55.92918 lat
#TLE: 1 59051U 24039A   26026.51377740  .00000074  00000+0  52756-4 0  9997
#TLE: 2 59051  98.6831 347.7355 0006350 213.0382 147.0400 14.22409886 99125

#Time	Az	El	Level	SNR
2026-01-27 12:08:26.441375	190.3	10.2	-81.7	0.0
2026-01-27 12:08:28.690672	190.5	10.4	-81.5	0.0
2026-01-27 12:08:30.939094	190.6	10.6	-80.2	0.0
2026-01-27 12:08:33.185375	190.8	10.7	-78.4	0.0
2026-01-27 12:08:35.431316	191.0	10.9	-77.2	3.6
2026-01-27 12:08:37.680430	191.1	11.1	-76.7	4.2
2026-01-27 12:08:39.929102	191.3	11.3	-76.8	6.0
2026-01-27 12:08:42.176168	191.4	11.5	-76.7	4.8
2026-01-27 12:08:44.424384	191.6	11.7	-77.1	5.2
2026-01-27 12:08:46.673982	191.8	11.9	-75.9	4.8
2026-01-27 12:08:48.922234	191.9	12.1	-76.2	5.5
2026-01-27 12:08:51.168009	192.1	12.3	-76.4	4.7
2026-01-27 12:08:53.418269	192.3	12.5	-76.9	6.2
2026-01-27 12:08:55.666241	192.4	12.7	-76.9	5.8
2026-01-27 12:08:57.916030	192.6	12.9	-76.5	5.7
2026-01-27 12:09:00.164368	192.8	13.1	-76.5	7.2
2026-01-27 12:09:02.412229	193.0	13.3	-76.9	6.2
2026-01-27 12:09:04.661934	193.2	13.5	-76.2	6.7
2026-01-27 12:09:06.910498	193.3	13.7	-76.2	5.5
2026-01-27 12:09:09.158074	193.5	13.9	-76.4	5.9
2026-01-27 12:09:11.407997	193.7	14.1	-76.7	7.1
2026-01-27 12:09:13.656119	193.9	14.4	-77.0	7.1
2026-01-27 12:09:15.902429	194.1	14.6	-75.7	3.7
2026-01-27 12:09:18.148417	194.3	14.8	-76.2	6.4
2026-01-27 12:09:20.395613	194.5	15.0	-75.3	3.9
2026-01-27 12:09:22.642232	194.7	15.2	-75.1	4.1
2026-01-27 12:09:24.888939	194.9	15.5	-75.9	5.8
2026-01-27 12:09:27.135656	195.1	15.7	-76.6	5.8
2026-01-27 12:09:29.380400	195.3	15.9	-76.7	7.2
2026-01-27 12:09:31.629649	195.6	16.1	-76.7	4.9
2026-01-27 12:09:33.877506	195.8	16.4	-76.0	2.4
2026-01-27 12:09:36.122624	196.0	16.6	-76.1	5.7
2026-01-27 12:09:38.369751	196.2	16.8	-76.7	5.3
2026-01-27 12:09:40.616422	196.5	17.1	-75.9	4.7
2026-01-27 12:09:42.863671	196.7	17.3	-76.4	5.1
2026-01-27 12:09:45.113661	196.9	17.5	-76.5	4.4
2026-01-27 12:09:47.362385	197.2	17.8	-76.3	3.2
2026-01-27 12:09:49.610681	197.4	18.0	-76.4	3.9
2026-01-27 12:09:51.858828	197.7	18.3	-76.6	4.7
2026-01-27 12:09:54.104209	197.9	18.5	-76.6	6.5
2026-01-27 12:09:56.352953	198.2	18.7	-76.8	6.5
2026-01-27 12:09:58.602464	198.4	19.0	-76.4	6.4
2026-01-27 12:10:00.850150	198.7	19.2	-76.5	8.7
2026-01-27 12:10:03.097856	199.0	19.5	-76.3	6.7
2026-01-27 12:10:05.343410	199.2	19.8	-76.3	6.1
2026-01-27 12:10:07.592159	199.5	20.0	-76.4	6.6
2026-01-27 12:10:09.844663	199.8	20.3	-76.1	8.4
2026-01-27 12:10:12.093952	200.1	20.5	-75.8	7.3
2026-01-27 12:10:14.340933	200.4	20.8	-76.6	7.8
2026-01-27 12:10:16.589268	200.7	21.1	-75.9	6.9
2026-01-27 12:10:18.837122	201.0	21.3	-76.2	5.8
2026-01-27 12:10:21.086706	201.3	21.6	-76.0	7.2
2026-01-27 12:10:23.334819	201.6	21.9	-76.0	8.1
2026-01-27 12:10:25.584044	201.9	22.2	-76.1	8.4
2026-01-27 12:10:27.832861	202.2	22.4	-75.8	5.9
2026-01-27 12:10:30.078988	202.6	22.7	-76.2	7.4
2026-01-27 12:10:32.328521	202.9	23.0	-75.8	8.2
2026-01-27 12:10:34.575496	203.2	23.3	-75.9	8.8
2026-01-27 12:10:36.822684	203.6	23.6	-76.0	8.6
2026-01-27 12:10:39.071572	203.9	23.8	-76.1	8.1
2026-01-27 12:10:41.318997	204.3	24.1	-75.8	9.0
2026-01-27 12:10:43.568875	204.7	24.4	-76.2	8.5
2026-01-27 12:10:45.817180	205.0	24.7	-76.2	8.6
2026-01-27 12:10:48.065514	205.4	25.0	-76.3	8.5
2026-01-27 12:10:50.314006	205.8	25.3	-76.3	7.3
2026-01-27 12:10:52.559417	206.2	25.6	-76.5	8.8
2026-01-27 12:10:54.808282	206.6	25.9	-77.1	8.9
2026-01-27 12:10:57.056379	207.0	26.2	-76.7	8.8
2026-01-27 12:10:59.304431	207.4	26.5	-77.0	9.2
2026-01-27 12:11:01.557685	207.8	26.8	-77.3	10.2
2026-01-27 12:11:03.807106	208.3	27.1	-76.8	9.3
2026-01-27 12:11:06.056056	208.7	27.4	-76.9	10.9
2026-01-27 12:11:08.302780	209.1	27.7	-77.6	11.0
2026-01-27 12:11:10.552742	209.6	28.1	-77.3	11.4
2026-01-27 12:11:12.800381	210.1	28.4	-77.4	11.0
2026-01-27 12:11:15.047936	210.5	28.7	-77.7	12.1
2026-01-27 12:11:17.293916	211.0	29.0	-77.5	12.4
2026-01-27 12:11:19.544158	211.5	29.3	-77.2	12.1
2026-01-27 12:11:21.791998	212.0	29.7	-77.6	11.3
2026-01-27 12:11:24.036953	212.5	30.0	-77.6	12.1
2026-01-27 12:11:26.285029	213.1	30.3	-78.1	12.2
2026-01-27 12:11:28.532454	213.6	30.6	-78.1	12.5
2026-01-27 12:11:30.779509	214.1	31.0	-78.1	12.3
2026-01-27 12:11:33.027065	214.7	31.3	-78.3	12.8
2026-01-27 12:11:35.275718	215.3	31.6	-78.1	12.4
2026-01-27 12:11:37.523707	215.8	31.9	-77.8	12.8
2026-01-27 12:11:39.769760	216.4	32.3	-78.0	12.5
2026-01-27 12:11:42.018710	217.0	32.6	-78.1	12.1
2026-01-27 12:11:44.266662	217.6	32.9	-77.9	12.1
2026-01-27 12:11:46.517862	218.3	33.2	-78.0	13.0
2026-01-27 12:11:48.766353	218.9	33.6	-77.8	13.3
2026-01-27 12:11:51.012642	219.5	33.9	-77.8	12.8
2026-01-27 12:11:53.260480	220.2	34.2	-78.1	12.6
2026-01-27 12:11:55.509026	220.9	34.6	-78.5	13.1
2026-01-27 12:11:57.756793	221.6	34.9	-78.3	12.8
2026-01-27 12:12:00.004745	222.3	35.2	-78.3	13.7
2026-01-27 12:12:02.253767	223.0	35.5	-78.5	13.1
2026-01-27 12:12:04.501987	223.7	35.8	-78.3	13.0
2026-01-27 12:12:06.749509	224.5	36.2	-78.5	13.2
2026-01-27 12:12:08.998597	225.2	36.5	-77.9	13.1
2026-01-27 12:12:11.246158	226.0	36.8	-78.1	13.3
2026-01-27 12:12:13.494773	226.8	37.1	-78.2	13.2
2026-01-27 12:12:15.743581	227.6	37.4	-78.1	12.9
2026-01-27 12:12:17.993718	228.4	37.7	-78.3	12.9
2026-01-27 12:12:20.246786	229.3	38.0	-78.0	13.2
2026-01-27 12:12:22.496139	230.1	38.3	-77.9	12.7
2026-01-27 12:12:24.743427	231.0	38.6	-78.1	13.5
2026-01-27 12:12:26.993665	231.9	38.9	-78.2	13.0
2026-01-27 12:12:29.240539	232.8	39.2	-78.3	13.0
2026-01-27 12:12:31.489511	233.7	39.5	-78.3	12.6
2026-01-27 12:12:33.740171	234.6	39.7	-78.4	12.4
2026-01-27 12:12:35.987248	235.5	40.0	-78.6	12.3
2026-01-27 12:12:38.235678	236.5	40.2	-79.0	12.3
2026-01-27 12:12:40.486588	237.5	40.5	-79.1	12.3
2026-01-27 12:12:42.734013	238.5	40.7	-78.9	11.3
2026-01-27 12:12:44.981743	239.5	41.0	-78.9	11.9
2026-01-27 12:12:47.230874	240.5	41.2	-78.9	12.2
2026-01-27 12:12:49.478837	241.5	41.4	-78.7	11.8
2026-01-27 12:12:51.728324	242.5	41.6	-78.5	11.1
2026-01-27 12:12:53.979489	243.6	41.8	-78.4	11.0
2026-01-27 12:12:56.228308	244.7	42.0	-78.2	11.9
2026-01-27 12:12:58.477560	245.7	42.2	-78.4	10.9
2026-01-27 12:13:00.723942	246.8	42.4	-78.3	11.3
2026-01-27 12:13:02.973236	247.9	42.5	-78.2	9.9
2026-01-27 12:13:05.221984	249.0	42.7	-78.8	10.7
2026-01-27 12:13:07.471697	250.2	42.8	-78.8	9.5
2026-01-27 12:13:09.723772	251.3	42.9	-78.8	10.6
2026-01-27 12:13:11.971262	252.4	43.0	-79.2	10.4
2026-01-27 12:13:14.220023	253.6	43.1	-77.8	7.7
2026-01-27 12:13:16.469126	254.7	43.2	-78.5	8.7
2026-01-27 12:13:18.715836	255.9	43.3	-78.3	9.4
2026-01-27 12:13:20.965719	257.1	43.4	-77.8	8.9
2026-01-27 12:13:23.215977	258.2	43.4	-78.3	10.0
2026-01-27 12:13:25.461843	259.4	43.4	-78.2	9.6
2026-01-27 12:13:27.714657	260.6	43.5	-78.6	10.3
2026-01-27 12:13:29.962913	261.8	43.5	-78.7	10.1
2026-01-27 12:13:32.212582	262.9	43.5	-77.5	7.0
2026-01-27 12:13:34.461776	264.1	43.5	-77.0	7.4
2026-01-27 12:13:36.711157	265.3	43.4	-77.8	7.4
2026-01-27 12:13:38.960898	266.4	43.4	-77.2	6.2
2026-01-27 12:13:41.212856	267.6	43.3	-77.3	4.7
2026-01-27 12:13:43.460335	268.8	43.3	-76.7	3.3
2026-01-27 12:13:45.710349	269.9	43.2	-77.2	4.7
2026-01-27 12:13:47.959819	271.1	43.1	-78.4	8.3
2026-01-27 12:13:50.210519	272.2	43.0	-77.6	6.9
2026-01-27 12:13:52.458315	273.4	42.9	-77.2	6.6
2026-01-27 12:13:54.705862	274.5	42.7	-77.5	3.5
2026-01-27 12:13:56.954090	275.6	42.6	-78.3	7.3
2026-01-27 12:13:59.204964	276.7	42.4	-77.3	5.4
2026-01-27 12:14:01.452999	277.8	42.3	-77.1	5.6
2026-01-27 12:14:03.698526	278.9	42.1	-76.7	3.1
2026-01-27 12:14:05.945611	280.0	41.9	-76.8	5.1
2026-01-27 12:14:08.191462	281.0	41.7	-76.5	2.8
2026-01-27 12:14:10.437654	282.1	41.5	-77.2	8.0
2026-01-27 12:14:12.684074	283.1	41.3	-76.4	5.6
2026-01-27 12:14:14.932493	284.1	41.1	-75.1	2.6
2026-01-27 12:14:17.179761	285.1	40.9	-76.6	7.9
2026-01-27 12:14:19.427239	286.1	40.6	-74.8	2.3
2026-01-27 12:14:21.673700	287.1	40.4	-75.3	4.1
2026-01-27 12:14:23.924159	288.1	40.1	-76.2	6.7
2026-01-27 12:14:26.168841	289.0	39.9	-76.6	6.3
2026-01-27 12:14:28.416918	289.9	39.6	-75.3	0.8
2026-01-27 12:14:30.664666	290.8	39.3	-75.2	2.2
2026-01-27 12:14:32.915641	291.7	39.1	-75.3	5.0
2026-01-27 12:14:35.159893	292.6	38.8	-74.7	3.0
2026-01-27 12:14:37.406342	293.5	38.5	-74.8	2.7
2026-01-27 12:14:39.658875	294.4	38.2	-75.9	4.7
2026-01-27 12:14:41.909364	295.2	37.9	-75.9	5.9
2026-01-27 12:14:44.157143	296.0	37.6	-75.5	1.9
2026-01-27 12:14:46.404706	296.8	37.3	-73.9	2.4
2026-01-27 12:14:48.651934	297.6	37.0	-75.6	2.5
2026-01-27 12:14:50.899244	298.4	36.7	-75.2	3.6
2026-01-27 12:14:53.147626	299.2	36.4	-75.7	6.0
2026-01-27 12:14:55.398146	299.9	36.0	-75.6	5.1
2026-01-27 12:14:57.648195	300.7	35.7	-72.8	0.0
2026-01-27 12:14:59.895047	301.4	35.4	-76.5	7.5
2026-01-27 12:15:02.141380	302.1	35.1	-75.0	2.8
2026-01-27 12:15:04.390006	302.8	34.8	-75.2	3.8
2026-01-27 12:15:06.639055	303.5	34.4	-74.3	3.5
2026-01-27 12:15:08.889501	304.2	34.1	-74.2	3.5
2026-01-27 12:15:11.138061	304.8	33.8	-76.7	6.7
2026-01-27 12:15:13.385604	305.4	33.5	-74.4	1.3
2026-01-27 12:15:15.633399	306.1	33.1	-76.4	6.4
2026-01-27 12:15:17.883983	306.7	32.8	-75.9	6.9
2026-01-27 12:15:20.133974	307.3	32.5	-76.1	6.4
2026-01-27 12:15:22.379846	307.9	32.2	-75.5	4.2
2026-01-27 12:15:24.626747	308.5	31.8	-76.4	7.5
2026-01-27 12:15:26.875964	309.1	31.5	-74.1	1.2
2026-01-27 12:15:29.123297	309.6	31.2	-75.4	3.9
2026-01-27 12:15:31.370771	310.2	30.9	-76.1	5.5
2026-01-27 12:15:33.622262	310.7	30.5	-75.6	5.0
2026-01-27 12:15:35.870677	311.2	30.2	-75.2	5.3
2026-01-27 12:15:38.120594	311.7	29.9	-75.4	4.3
2026-01-27 12:15:40.367727	312.3	29.6	-75.9	5.8
2026-01-27 12:15:42.614185	312.7	29.2	-73.4	2.3
2026-01-27 12:15:44.866922	313.2	28.9	-73.6	0.0
2026-01-27 12:15:47.115043	313.7	28.6	-75.7	5.5
2026-01-27 12:15:49.362243	314.2	28.3	-74.6	2.8
2026-01-27 12:15:51.609591	314.6	28.0	-76.0	4.1
2026-01-27 12:15:53.856100	315.1	27.7	-71.9	0.0
2026-01-27 12:15:56.103550	315.5	27.4	-73.9	2.6
2026-01-27 12:15:58.353536	316.0	27.1	-74.0	0.0
2026-01-27 12:16:00.602575	316.4	26.8	-74.5	3.2
2026-01-27 12:16:02.847522	316.8	26.4	-73.1	2.0
2026-01-27 12:16:05.097231	317.2	26.1	-71.3	0.0
2026-01-27 12:16:07.343877	317.6	25.8	-71.9	0.0
2026-01-27 12:16:09.593530	318.0	25.5	-71.8	0.2
2026-01-27 12:16:11.838822	318.4	25.3	-71.6	0.3
2026-01-27 12:16:14.085732	318.8	25.0	-71.6	0.0
2026-01-27 12:16:16.334200	319.2	24.7	-71.4	0.0
2026-01-27 12:16:18.580471	319.5	24.4	-71.0	0.0
2026-01-27 12:16:20.827031	319.9	24.1	-69.3	0.0
2026-01-27 12:16:23.073083	320.3	23.8	-71.7	0.0
2026-01-27 12:16:25.321204	320.6	23.5	-73.3	0.0
2026-01-27 12:16:27.569508	321.0	23.2	-72.8	0.0
2026-01-27 12:16:29.816680	321.3	23.0	-72.6	0.0
2026-01-27 12:16:32.066686	321.6	22.7	-73.5	0.0
2026-01-27 12:16:34.315471	322.0	22.4	-70.1	0.0
2026-01-27 12:16:36.562436	322.3	22.1	-72.2	0.0
2026-01-27 12:16:38.810447	322.6	21.9	-70.5	0.0
2026-01-27 12:16:41.056315	322.9	21.6	-73.2	0.0
2026-01-27 12:16:43.305033	323.2	21.3	-69.5	0.0
2026-01-27 12:16:45.546973	323.5	21.1	-71.9	0.0
2026-01-27 12:16:47.793037	323.8	20.8	-71.9	0.0
2026-01-27 12:16:50.039113	324.1	20.5	-72.3	0.0
2026-01-27 12:16:52.290275	324.4	20.3	-72.8	0.0
2026-01-27 12:16:54.538057	324.6	20.0	-71.7	0.0
2026-01-27 12:16:56.785770	324.9	19.8	-71.2	0.0
2026-01-27 12:16:59.036823	325.2	19.5	-72.7	0.0
2026-01-27 12:17:01.285571	325.5	19.3	-72.5	0.0
2026-01-27 12:17:03.531804	325.7	19.0	-72.2	0.0
2026-01-27 12:17:05.782261	326.0	18.8	-72.6	0.0
2026-01-27 12:17:08.029914	326.2	18.5	-71.0	0.0
2026-01-27 12:17:10.274703	326.5	18.3	-70.9	0.0
2026-01-27 12:17:12.520126	326.7	18.0	-70.6	0.0
2026-01-27 12:17:14.769419	327.0	17.8	-73.0	0.0
2026-01-27 12:17:17.016911	327.2	17.6	-71.5	0.0
2026-01-27 12:17:19.265102	327.5	17.3	-72.7	0.0
2026-01-27 12:17:21.513368	327.7	17.1	-70.8	0.0
2026-01-27 12:17:23.757391	327.9	16.8	-68.7	0.0
2026-01-27 12:17:26.006288	328.1	16.6	-70.4	0.0
2026-01-27 12:17:28.253882	328.4	16.4	-69.9	0.0
2026-01-27 12:17:30.506597	328.6	16.2	-71.6	0.0
2026-01-27 12:17:32.755253	328.8	15.9	-69.9	0.0
2026-01-27 12:17:35.003317	329.0	15.7	-70.8	0.0
2026-01-27 12:17:37.247860	329.2	15.5	-70.4	0.0
2026-01-27 12:17:39.493323	329.4	15.3	-67.8	0.0
2026-01-27 12:17:41.742498	329.6	15.1	-68.6	0.0
2026-01-27 12:17:43.990620	329.8	14.8	-70.3	0.0
2026-01-27 12:17:46.237355	330.0	14.6	-69.1	0.0
2026-01-27 12:17:48.486532	330.2	14.4	-66.8	0.0
2026-01-27 12:17:50.734206	330.4	14.2	-69.6	0.0
2026-01-27 12:17:52.981748	330.6	14.0	-68.4	0.0
2026-01-27 12:17:55.226780	330.8	13.8	-66.5	0.0
2026-01-27 12:17:57.476626	331.0	13.6	-66.7	0.0
2026-01-27 12:17:59.724684	331.2	13.4	-68.0	0.0
2026-01-27 12:18:01.974654	331.4	13.2	-66.9	0.0
2026-01-27 12:18:04.222480	331.5	13.0	-68.7	0.0
2026-01-27 12:18:06.470368	331.7	12.8	-69.9	0.0
2026-01-27 12:18:08.718396	331.9	12.6	-69.5	0.0
2026-01-27 12:18:10.964189	332.1	12.4	-69.8	0.0
2026-01-27 12:18:13.212489	332.2	12.2	-67.7	0.0
2026-01-27 12:18:15.458386	332.4	12.0	-66.8	0.0
2026-01-27 12:18:17.705871	332.6	11.8	-71.0	0.0
2026-01-27 12:18:19.954771	332.7	11.6	-69.3	0.0
2026-01-27 12:18:22.198839	332.9	11.4	-70.1	0.0
2026-01-27 12:18:24.445912	333.0	11.2	-67.5	0.0
2026-01-27 12:18:26.695667	333.2	11.0	-70.6	0.0
2026-01-27 12:18:28.939371	333.4	10.8	-69.6	0.0
2026-01-27 12:18:31.186570	333.5	10.6	-72.6	0.0
2026-01-27 12:18:33.435051	333.7	10.4	-73.0	0.0
2026-01-27 12:18:35.683579	333.8	10.3	-75.6	0.0
2026-01-27 12:18:37.929999	334.0	10.1	-77.8	0.0
#Closed at: 2026-01-27 12:08:19.279690