passes_logs/2026/01/27/planumMaritime01/planumMaritime01__20260127_091110_METOP-C_rec.log

#Pass ID: 20260127_091110_METOP-C
#Satellite: METOP-C
#Configuration: METOP-C
#Start time: 2026-01-27 09:11:15.540818

#LorettStation: 1.0.0 05.05.2024
#Station: planumMaritime01
#Location: 37.49445 lon 55.92918 lat
#TLE: 1 43689U 18087A   26026.44785771  .00000193  00000+0  10820-3 0  9999
#TLE: 2 43689  98.6858  88.5171 0001142 162.3171 197.8046 14.21504916374692

#Time	Az	El	Level	SNR
2026-01-27 09:11:17.715462	2.0	10.2	-64.1	0.0
2026-01-27 09:11:19.967309	1.7	10.3	-63.7	0.0
2026-01-27 09:11:22.223273	1.5	10.5	-64.5	0.0
2026-01-27 09:11:24.475944	1.3	10.7	-65.5	0.0
2026-01-27 09:11:26.726507	1.1	10.8	-65.6	0.0
2026-01-27 09:11:28.979781	0.8	11.0	-65.4	0.0
2026-01-27 09:11:31.233567	0.6	11.2	-61.9	0.0
2026-01-27 09:11:33.486355	0.4	11.3	-63.7	0.0
2026-01-27 09:11:35.739528	0.1	11.5	-66.5	0.0
2026-01-27 09:11:37.987838	359.9	11.7	-67.4	0.0
2026-01-27 09:11:40.239331	359.6	11.9	-63.6	0.0
2026-01-27 09:11:42.496490	359.4	12.0	-66.6	0.0
2026-01-27 09:11:44.749686	359.1	12.2	-65.3	0.0
2026-01-27 09:11:47.003756	358.9	12.4	-66.6	0.0
2026-01-27 09:11:49.257471	358.6	12.6	-66.8	0.0
2026-01-27 09:11:51.507882	358.4	12.7	-64.3	0.0
2026-01-27 09:11:53.760978	358.1	12.9	-64.8	0.0
2026-01-27 09:11:56.015253	357.8	13.1	-66.9	0.0
2026-01-27 09:11:58.267100	357.6	13.3	-66.8	0.0
2026-01-27 09:12:00.522537	357.3	13.4	-67.7	0.0
2026-01-27 09:12:02.771799	357.0	13.6	-65.7	0.0
2026-01-27 09:12:05.025385	356.7	13.8	-64.1	0.0
2026-01-27 09:12:07.276024	356.4	14.0	-63.6	0.0
2026-01-27 09:12:09.529607	356.1	14.2	-66.3	0.0
2026-01-27 09:12:11.778447	355.9	14.3	-63.9	0.0
2026-01-27 09:12:14.031350	355.6	14.5	-67.5	0.0
2026-01-27 09:12:16.281417	355.3	14.7	-65.9	0.0
2026-01-27 09:12:18.535799	355.0	14.9	-66.4	0.0
2026-01-27 09:12:20.789608	354.7	15.1	-68.0	0.0
2026-01-27 09:12:23.041643	354.3	15.3	-66.8	0.0
2026-01-27 09:12:25.292664	354.0	15.4	-67.1	0.0
2026-01-27 09:12:27.550031	353.7	15.6	-66.2	0.0
2026-01-27 09:12:29.803784	353.4	15.8	-65.4	0.0
2026-01-27 09:12:32.060718	353.1	16.0	-65.6	0.0
2026-01-27 09:12:34.317052	352.7	16.2	-65.3	0.0
2026-01-27 09:12:36.572686	352.4	16.4	-61.8	0.0
2026-01-27 09:12:38.828116	352.0	16.6	-65.5	0.0
2026-01-27 09:12:41.080650	351.7	16.8	-65.0	0.0
2026-01-27 09:12:43.333752	351.3	16.9	-64.6	0.0
2026-01-27 09:12:45.586986	351.0	17.1	-66.3	0.0
2026-01-27 09:12:47.839346	350.6	17.3	-65.3	0.0
2026-01-27 09:12:50.095336	350.3	17.5	-65.8	0.0
2026-01-27 09:12:52.347600	349.9	17.7	-65.3	0.0
2026-01-27 09:12:54.602818	349.5	17.9	-65.9	0.0
2026-01-27 09:12:56.859153	349.2	18.1	-65.1	0.0
2026-01-27 09:12:59.111491	348.8	18.3	-65.1	0.0
2026-01-27 09:13:01.363520	348.4	18.5	-65.7	0.0
2026-01-27 09:13:03.617084	348.0	18.7	-66.6	0.0
2026-01-27 09:13:05.868879	347.6	18.8	-65.5	0.0
2026-01-27 09:13:08.123174	347.2	19.0	-64.1	0.0
2026-01-27 09:13:10.374037	346.8	19.2	-64.7	0.0
2026-01-27 09:13:12.626324	346.4	19.4	-63.8	0.0
2026-01-27 09:13:14.880717	346.0	19.6	-65.0	0.0
2026-01-27 09:13:17.134113	345.5	19.8	-64.5	0.0
2026-01-27 09:13:19.388570	345.1	20.0	-63.1	0.0
2026-01-27 09:13:21.639260	344.7	20.2	-63.5	0.0
2026-01-27 09:13:23.892314	344.2	20.4	-64.5	0.0
2026-01-27 09:13:26.147345	343.8	20.6	-65.5	0.0
2026-01-27 09:13:28.405552	343.3	20.8	-63.4	0.0
2026-01-27 09:13:30.659871	342.9	20.9	-66.1	0.0
2026-01-27 09:13:32.914059	342.4	21.1	-64.0	0.0
2026-01-27 09:13:35.168680	341.9	21.3	-64.0	0.0
2026-01-27 09:13:37.422006	341.5	21.5	-64.3	0.0
2026-01-27 09:13:39.677385	341.0	21.7	-66.4	0.0
2026-01-27 09:13:41.929735	340.5	21.9	-64.8	0.0
2026-01-27 09:13:44.182793	340.0	22.1	-64.9	0.0
2026-01-27 09:13:46.436637	339.5	22.2	-66.3	0.0
2026-01-27 09:13:48.688586	339.0	22.4	-64.2	0.0
2026-01-27 09:13:50.944095	338.5	22.6	-65.3	0.0
2026-01-27 09:13:53.196209	338.0	22.8	-65.2	0.0
2026-01-27 09:13:55.448943	337.5	23.0	-64.7	0.0
2026-01-27 09:13:57.701797	336.9	23.2	-64.2	0.0
2026-01-27 09:13:59.953468	336.4	23.3	-64.0	0.0
2026-01-27 09:14:02.209674	335.9	23.5	-64.3	0.0
2026-01-27 09:14:04.465216	335.3	23.7	-64.0	0.0
2026-01-27 09:14:06.719242	334.8	23.8	-64.2	0.0
2026-01-27 09:14:08.971973	334.2	24.0	-65.2	0.0
2026-01-27 09:14:11.221780	333.6	24.2	-63.8	0.0
2026-01-27 09:14:13.476508	333.1	24.4	-66.3	0.0
2026-01-27 09:14:15.733683	332.5	24.5	-65.4	0.0
2026-01-27 09:14:17.986449	331.9	24.7	-65.8	0.0
2026-01-27 09:14:20.241524	331.3	24.8	-65.1	0.0
2026-01-27 09:14:22.496883	330.7	25.0	-66.7	0.0
2026-01-27 09:14:24.747440	330.1	25.1	-66.3	0.0
2026-01-27 09:14:26.998665	329.5	25.3	-67.7	0.0
2026-01-27 09:14:29.257609	328.9	25.5	-68.8	0.0
2026-01-27 09:14:31.511087	328.3	25.6	-67.9	0.0
2026-01-27 09:14:33.759549	327.6	25.7	-68.8	0.0
2026-01-27 09:14:36.012355	327.0	25.9	-68.1	0.0
2026-01-27 09:14:38.264177	326.4	26.0	-68.1	0.0
2026-01-27 09:14:40.516468	325.7	26.2	-67.9	0.0
2026-01-27 09:14:42.766109	325.1	26.3	-66.7	0.0
2026-01-27 09:14:45.019401	324.4	26.4	-65.3	0.0
2026-01-27 09:14:47.272852	323.8	26.5	-66.6	0.0
2026-01-27 09:14:49.527299	323.1	26.7	-66.4	0.0
2026-01-27 09:14:51.780075	322.4	26.8	-67.5	0.0
2026-01-27 09:14:54.038537	321.8	26.9	-66.0	0.0
2026-01-27 09:14:56.289481	321.1	27.0	-66.9	0.0
2026-01-27 09:14:58.543006	320.4	27.1	-67.9	0.0
2026-01-27 09:15:00.793146	319.7	27.2	-65.7	0.0
2026-01-27 09:15:03.045039	319.0	27.3	-68.5	0.0
2026-01-27 09:15:05.298583	318.3	27.4	-69.5	0.2
2026-01-27 09:15:07.554302	317.6	27.5	-68.8	0.0
2026-01-27 09:15:09.804356	316.9	27.6	-69.0	0.0
2026-01-27 09:15:12.056280	316.2	27.6	-68.6	0.0
2026-01-27 09:15:14.306405	315.5	27.7	-69.7	0.0
2026-01-27 09:15:16.560628	314.8	27.8	-68.9	0.0
2026-01-27 09:15:18.813022	314.1	27.8	-70.5	1.7
2026-01-27 09:15:21.063025	313.4	27.9	-69.7	0.0
2026-01-27 09:15:23.315268	312.6	28.0	-70.3	0.0
2026-01-27 09:15:25.567215	311.9	28.0	-70.9	0.0
2026-01-27 09:15:27.820392	311.2	28.1	-68.9	0.0
2026-01-27 09:15:30.072937	310.5	28.1	-70.8	0.0
2026-01-27 09:15:32.324082	309.7	28.1	-70.4	0.3
2026-01-27 09:15:34.575563	309.0	28.2	-70.0	0.0
2026-01-27 09:15:36.827147	308.3	28.2	-68.9	0.0
2026-01-27 09:15:39.079032	307.5	28.2	-69.3	0.0
2026-01-27 09:15:41.332766	306.8	28.2	-69.5	0.0
2026-01-27 09:15:43.583357	306.1	28.2	-71.3	0.0
2026-01-27 09:15:45.839392	305.3	28.2	-70.8	0.0
2026-01-27 09:15:48.091142	304.6	28.2	-68.5	0.0
2026-01-27 09:15:50.343091	303.9	28.2	-69.0	0.0
2026-01-27 09:15:52.595753	303.1	28.2	-68.6	0.0
2026-01-27 09:15:54.844655	302.4	28.2	-68.5	0.0
2026-01-27 09:15:57.097550	301.7	28.2	-69.5	0.0
2026-01-27 09:15:59.353782	300.9	28.1	-69.5	0.0
2026-01-27 09:16:01.605943	300.2	28.1	-68.8	0.0
2026-01-27 09:16:03.858267	299.5	28.1	-69.4	0.0
2026-01-27 09:16:06.109562	298.7	28.0	-68.7	0.0
2026-01-27 09:16:08.364313	298.0	28.0	-68.5	0.0
2026-01-27 09:16:10.619258	297.3	27.9	-68.8	0.0
2026-01-27 09:16:12.869726	296.6	27.9	-68.0	0.0
2026-01-27 09:16:15.118723	295.8	27.8	-66.8	0.0
2026-01-27 09:16:17.371229	295.1	27.7	-68.9	0.0
2026-01-27 09:16:19.625731	294.4	27.7	-69.3	0.0
2026-01-27 09:16:21.879566	293.7	27.6	-67.6	0.0
2026-01-27 09:16:24.134423	293.0	27.5	-69.1	0.0
2026-01-27 09:16:26.385717	292.3	27.4	-69.1	0.0
2026-01-27 09:16:28.637914	291.6	27.3	-67.1	0.0
2026-01-27 09:16:30.890466	290.9	27.2	-68.8	0.0
2026-01-27 09:16:33.143174	290.2	27.1	-68.6	0.0
2026-01-27 09:16:35.396950	289.5	27.0	-68.7	0.0
2026-01-27 09:16:37.651665	288.8	26.9	-69.6	0.0
2026-01-27 09:16:39.905733	288.2	26.8	-68.3	0.0
2026-01-27 09:16:42.158302	287.5	26.7	-69.7	0.0
2026-01-27 09:16:44.407929	286.8	26.6	-68.9	0.0
2026-01-27 09:16:46.660322	286.2	26.5	-68.9	0.0
2026-01-27 09:16:48.917511	285.5	26.3	-69.1	0.0
2026-01-27 09:16:51.171250	284.9	26.2	-68.8	0.0
2026-01-27 09:16:53.424951	284.2	26.1	-69.3	0.0
2026-01-27 09:16:55.679745	283.6	25.9	-70.1	0.0
2026-01-27 09:16:57.934688	282.9	25.8	-70.5	0.0
2026-01-27 09:17:00.187730	282.3	25.6	-70.1	0.0
2026-01-27 09:17:02.439543	281.7	25.5	-70.6	0.0
2026-01-27 09:17:04.692699	281.1	25.3	-70.0	0.0
2026-01-27 09:17:06.946433	280.4	25.2	-71.0	0.3
2026-01-27 09:17:09.196388	279.8	25.0	-70.2	0.2
2026-01-27 09:17:11.449717	279.2	24.9	-70.3	0.0
2026-01-27 09:17:13.701436	278.6	24.7	-70.3	0.9
2026-01-27 09:17:15.954637	278.1	24.6	-68.7	0.0
2026-01-27 09:17:18.209594	277.5	24.4	-71.5	0.0
2026-01-27 09:17:20.464122	276.9	24.2	-71.4	0.4
2026-01-27 09:17:22.716900	276.3	24.1	-68.8	0.0
2026-01-27 09:17:24.970789	275.8	23.9	-70.0	0.0
2026-01-27 09:17:27.227777	275.2	23.7	-71.3	0.5
2026-01-27 09:17:29.477412	274.7	23.5	-72.1	0.0
2026-01-27 09:17:31.731510	274.1	23.4	-72.5	0.9
2026-01-27 09:17:33.987132	273.6	23.2	-72.6	0.1
2026-01-27 09:17:36.240674	273.0	23.0	-72.0	0.8
2026-01-27 09:17:38.495745	272.5	22.8	-71.9	1.3
2026-01-27 09:17:40.748486	272.0	22.7	-72.1	0.0
2026-01-27 09:17:43.000745	271.5	22.5	-71.3	0.0
2026-01-27 09:17:45.255004	271.0	22.3	-71.5	0.1
2026-01-27 09:17:47.507437	270.5	22.1	-71.2	0.0
2026-01-27 09:17:49.761183	270.0	21.9	-72.0	0.6
2026-01-27 09:17:52.016522	269.5	21.7	-71.4	0.2
2026-01-27 09:17:54.268859	269.0	21.5	-71.6	0.0
2026-01-27 09:17:56.522797	268.5	21.4	-72.0	0.8
2026-01-27 09:17:58.774868	268.0	21.2	-71.5	1.3
2026-01-27 09:18:01.027806	267.6	21.0	-71.8	0.8
2026-01-27 09:18:03.280466	267.1	20.8	-71.9	1.4
2026-01-27 09:18:05.534533	266.7	20.6	-72.1	1.1
2026-01-27 09:18:07.785618	266.2	20.4	-71.8	0.0
2026-01-27 09:18:10.040699	265.8	20.2	-72.3	2.3
2026-01-27 09:18:12.292823	265.3	20.0	-72.5	1.3
2026-01-27 09:18:14.542580	264.9	19.8	-72.3	1.6
2026-01-27 09:18:16.796228	264.5	19.6	-72.8	1.2
2026-01-27 09:18:19.050198	264.0	19.5	-72.7	0.7
2026-01-27 09:18:21.307625	263.6	19.3	-72.6	0.3
2026-01-27 09:18:23.559462	263.2	19.1	-72.5	0.8
2026-01-27 09:18:25.812406	262.8	18.9	-72.2	0.5
2026-01-27 09:18:28.067513	262.4	18.7	-71.7	0.6
2026-01-27 09:18:30.320152	262.0	18.5	-72.4	0.8
2026-01-27 09:18:32.575149	261.6	18.3	-71.4	0.3
2026-01-27 09:18:34.827848	261.2	18.1	-71.9	1.1
2026-01-27 09:18:37.082943	260.9	17.9	-72.6	1.6
2026-01-27 09:18:39.337618	260.5	17.7	-71.7	0.0
2026-01-27 09:18:41.590600	260.1	17.5	-72.1	1.0
2026-01-27 09:18:43.842160	259.7	17.3	-72.2	0.3
2026-01-27 09:18:46.095174	259.4	17.2	-72.5	0.0
2026-01-27 09:18:48.349649	259.0	17.0	-72.4	0.0
2026-01-27 09:18:50.601187	258.7	16.8	-72.6	0.2
2026-01-27 09:18:52.852626	258.3	16.6	-71.5	0.0
2026-01-27 09:18:55.106048	258.0	16.4	-73.0	0.0
2026-01-27 09:18:57.361219	257.6	16.2	-73.0	0.0
2026-01-27 09:18:59.610910	257.3	16.0	-73.1	0.8
2026-01-27 09:19:01.860454	257.0	15.8	-72.8	0.0
2026-01-27 09:19:04.111453	256.6	15.6	-73.2	0.0
2026-01-27 09:19:06.365484	256.3	15.5	-73.0	0.2
2026-01-27 09:19:08.619073	256.0	15.3	-73.0	0.0
2026-01-27 09:19:10.873384	255.7	15.1	-73.1	0.0
2026-01-27 09:19:13.126573	255.4	14.9	-73.2	0.0
2026-01-27 09:19:15.382206	255.1	14.7	-73.3	0.0
2026-01-27 09:19:17.632972	254.8	14.5	-73.4	0.4
2026-01-27 09:19:19.887352	254.5	14.3	-73.0	0.0
2026-01-27 09:19:22.139496	254.2	14.2	-73.4	0.0
2026-01-27 09:19:24.393782	253.9	14.0	-73.8	0.8
2026-01-27 09:19:26.642389	253.6	13.8	-74.1	0.0
2026-01-27 09:19:28.897411	253.3	13.6	-74.1	0.9
2026-01-27 09:19:31.153036	253.0	13.4	-73.4	0.0
2026-01-27 09:19:33.404439	252.7	13.3	-73.2	0.0
2026-01-27 09:19:35.660804	252.5	13.1	-73.7	0.0
2026-01-27 09:19:37.911683	252.2	12.9	-72.8	0.0
2026-01-27 09:19:40.164484	251.9	12.7	-74.4	0.9
2026-01-27 09:19:42.414185	251.7	12.5	-73.7	0.0
2026-01-27 09:19:44.668513	251.4	12.4	-73.5	0.3
2026-01-27 09:19:46.922326	251.1	12.2	-74.6	0.8
2026-01-27 09:19:49.176089	250.9	12.0	-74.6	1.8
2026-01-27 09:19:51.428741	250.6	11.8	-73.3	0.0
2026-01-27 09:19:53.681217	250.4	11.7	-74.5	0.0
2026-01-27 09:19:55.932588	250.1	11.5	-74.8	0.6
2026-01-27 09:19:58.184796	249.9	11.3	-74.2	1.0
2026-01-27 09:20:00.438047	249.7	11.2	-73.8	0.0
2026-01-27 09:20:02.691576	249.4	11.0	-73.6	0.1
2026-01-27 09:20:04.943166	249.2	10.8	-75.8	0.0
2026-01-27 09:20:07.196210	249.0	10.6	-77.3	0.0
2026-01-27 09:20:09.447747	248.7	10.5	-79.0	0.0
2026-01-27 09:20:11.701542	248.5	10.3	-79.5	0.0
2026-01-27 09:20:13.956787	248.3	10.1	-80.3	0.0
#Closed at: 2026-01-27 09:11:10.547841