passes_logs/2026/01/27/planumMaritime01/planumMaritime01__20260127_072959_METEOR-M2_3_rec.log

#Pass ID: 20260127_072959_METEOR-M2 3
#Satellite: METEOR-M2 3
#Configuration: METEOR-M2 3
#Start time: 2026-01-27 07:30:04.821051

#LorettStation: 1.0.0 05.05.2024
#Station: planumMaritime01
#Location: 37.49445 lon 55.92918 lat
#TLE: 1 57166U 23091A   26026.51936249  .00000031  00000+0  32206-4 0  9995
#TLE: 2 57166  98.6306  84.2620 0003398 208.0151 152.0846 14.24032693134357

#Time	Az	El	Level	SNR
2026-01-27 07:30:06.998570	16.4	10.2	-74.1	0.0
2026-01-27 07:30:09.267686	16.5	10.4	-71.3	0.0
2026-01-27 07:30:11.541854	16.5	10.6	-71.3	0.0
2026-01-27 07:30:13.816226	16.5	10.8	-72.1	0.0
2026-01-27 07:30:16.093800	16.5	11.0	-67.4	0.0
2026-01-27 07:30:18.369369	16.5	11.2	-66.3	0.0
2026-01-27 07:30:20.642317	16.5	11.4	-69.1	0.0
2026-01-27 07:30:22.918048	16.5	11.6	-68.8	0.0
2026-01-27 07:30:25.191472	16.5	11.8	-67.4	0.0
2026-01-27 07:30:27.469105	16.5	12.1	-68.6	0.0
2026-01-27 07:30:29.743646	16.5	12.3	-63.3	0.0
2026-01-27 07:30:32.019134	16.5	12.5	-67.7	0.0
2026-01-27 07:30:34.292063	16.5	12.7	-67.3	0.0
2026-01-27 07:30:36.561897	16.6	12.9	-68.3	0.0
2026-01-27 07:30:38.832876	16.6	13.2	-68.0	0.0
2026-01-27 07:30:41.102505	16.6	13.4	-67.2	0.0
2026-01-27 07:30:43.370885	16.6	13.6	-68.3	0.0
2026-01-27 07:30:45.638780	16.6	13.8	-65.6	0.0
2026-01-27 07:30:47.909720	16.6	14.1	-62.7	0.0
2026-01-27 07:30:50.179201	16.6	14.3	-68.2	0.0
2026-01-27 07:30:52.445010	16.6	14.5	-67.0	0.0
2026-01-27 07:30:54.721493	16.6	14.8	-67.7	0.0
2026-01-27 07:30:56.996320	16.6	15.0	-67.6	0.0
2026-01-27 07:30:59.271377	16.6	15.3	-65.7	0.0
2026-01-27 07:31:01.547170	16.7	15.5	-67.9	0.0
2026-01-27 07:31:03.823750	16.7	15.8	-65.0	0.0
2026-01-27 07:31:06.100776	16.7	16.0	-69.2	0.0
2026-01-27 07:31:08.374890	16.7	16.3	-65.0	0.0
2026-01-27 07:31:10.645371	16.7	16.5	-70.3	0.0
2026-01-27 07:31:12.917982	16.7	16.8	-67.5	0.0
2026-01-27 07:31:15.185140	16.7	17.1	-64.7	0.0
2026-01-27 07:31:17.453152	16.7	17.3	-67.2	0.0
2026-01-27 07:31:19.722066	16.7	17.6	-67.8	0.0
2026-01-27 07:31:21.990286	16.7	17.9	-68.1	0.0
2026-01-27 07:31:24.261430	16.7	18.1	-67.7	0.0
2026-01-27 07:31:26.539857	16.7	18.4	-68.1	0.0
2026-01-27 07:31:28.819442	16.8	18.7	-67.2	0.0
2026-01-27 07:31:31.093578	16.8	19.0	-70.9	0.0
2026-01-27 07:31:33.370530	16.8	19.3	-68.7	0.0
2026-01-27 07:31:35.647451	16.8	19.6	-68.1	0.0
2026-01-27 07:31:37.920142	16.8	19.9	-68.1	0.0
2026-01-27 07:31:40.193482	16.8	20.2	-68.5	0.0
2026-01-27 07:31:42.459497	16.8	20.5	-69.2	0.0
2026-01-27 07:31:44.726753	16.8	20.8	-70.3	0.0
2026-01-27 07:31:46.987952	16.8	21.1	-69.6	0.0
2026-01-27 07:31:49.253874	16.8	21.4	-69.6	0.0
2026-01-27 07:31:51.518104	16.8	21.7	-69.8	0.0
2026-01-27 07:31:53.775256	16.8	22.0	-69.0	0.0
2026-01-27 07:31:56.036154	16.9	22.4	-66.9	0.0
2026-01-27 07:31:58.299287	16.9	22.7	-68.1	0.0
2026-01-27 07:32:00.565512	16.9	23.0	-71.6	0.0
2026-01-27 07:32:02.829789	16.9	23.4	-69.5	0.0
2026-01-27 07:32:05.098010	16.9	23.7	-67.8	0.0
2026-01-27 07:32:07.363375	16.9	24.1	-69.3	0.0
2026-01-27 07:32:09.627418	16.9	24.4	-70.1	0.0
2026-01-27 07:32:11.895807	16.9	24.8	-67.6	0.0
2026-01-27 07:32:14.165187	16.9	25.1	-70.4	0.0
2026-01-27 07:32:16.433863	16.9	25.5	-69.4	0.0
2026-01-27 07:32:18.706453	16.9	25.9	-70.1	0.0
2026-01-27 07:32:20.985648	16.9	26.3	-70.3	0.0
2026-01-27 07:32:23.260354	17.0	26.6	-71.6	0.0
2026-01-27 07:32:25.535610	17.0	27.0	-70.6	0.0
2026-01-27 07:32:27.810550	17.0	27.4	-67.6	0.0
2026-01-27 07:32:30.080148	17.0	27.8	-69.4	0.0
2026-01-27 07:32:32.348758	17.0	28.2	-70.1	0.0
2026-01-27 07:32:34.612492	17.0	28.7	-67.6	0.0
2026-01-27 07:32:36.880649	17.0	29.1	-70.6	0.0
2026-01-27 07:32:39.149423	17.0	29.5	-70.7	0.0
2026-01-27 07:32:41.412346	17.0	29.9	-65.8	0.0
2026-01-27 07:32:43.678682	17.0	30.4	-70.0	0.0
2026-01-27 07:32:45.941979	17.0	30.8	-71.4	0.0
2026-01-27 07:32:48.209257	17.0	31.3	-68.5	0.0
2026-01-27 07:32:50.475856	17.0	31.7	-71.0	0.0
2026-01-27 07:32:52.745391	17.1	32.2	-69.8	0.0
2026-01-27 07:32:55.013943	17.1	32.7	-70.5	0.0
2026-01-27 07:32:57.277324	17.1	33.2	-70.5	0.0
2026-01-27 07:32:59.541018	17.1	33.6	-71.0	0.0
2026-01-27 07:33:01.816262	17.1	34.2	-72.7	0.0
2026-01-27 07:33:04.084261	17.1	34.7	-73.1	1.7
2026-01-27 07:33:06.357328	17.1	35.2	-72.7	0.0
2026-01-27 07:33:08.627307	17.1	35.7	-72.6	2.4
2026-01-27 07:33:10.899580	17.1	36.2	-74.2	1.9
2026-01-27 07:33:13.167826	17.1	36.8	-73.9	2.2
2026-01-27 07:33:15.439161	17.1	37.3	-74.1	3.2
2026-01-27 07:33:17.714472	17.1	37.9	-73.6	2.8
2026-01-27 07:33:19.989269	17.1	38.5	-74.0	0.9
2026-01-27 07:33:22.264937	17.2	39.1	-74.8	2.4
2026-01-27 07:33:24.538613	17.2	39.7	-74.1	0.6
2026-01-27 07:33:26.815169	17.2	40.3	-73.4	0.0
2026-01-27 07:33:29.092993	17.2	40.9	-75.1	3.3
2026-01-27 07:33:31.369627	17.2	41.5	-75.5	3.6
2026-01-27 07:33:33.645737	17.2	42.1	-76.0	4.0
2026-01-27 07:33:35.919132	17.2	42.8	-76.2	5.8
2026-01-27 07:33:38.194111	17.2	43.4	-75.4	4.6
2026-01-27 07:33:40.465459	17.2	44.1	-75.3	2.9
2026-01-27 07:33:42.740904	17.2	44.8	-75.5	5.2
2026-01-27 07:33:45.019348	17.2	45.5	-75.3	6.1
2026-01-27 07:33:47.302969	17.2	46.2	-75.0	4.5
2026-01-27 07:33:49.577737	17.2	46.9	-74.5	4.2
2026-01-27 07:33:51.854950	17.2	47.7	-75.1	4.1
2026-01-27 07:33:54.133301	17.2	48.4	-76.0	5.6
2026-01-27 07:33:56.409793	17.3	49.2	-75.6	5.6
2026-01-27 07:33:58.687324	17.3	49.9	-76.7	4.8
2026-01-27 07:34:00.956569	17.3	50.7	-76.1	4.0
2026-01-27 07:34:03.224025	17.3	51.5	-75.7	4.1
2026-01-27 07:34:05.491246	17.3	52.3	-76.4	2.8
2026-01-27 07:34:07.755441	17.3	53.1	-75.3	2.3
2026-01-27 07:34:10.018920	17.3	54.0	-77.0	4.2
2026-01-27 07:34:12.285606	17.3	54.8	-76.0	2.0
2026-01-27 07:34:14.548807	17.3	55.7	-76.9	2.5
2026-01-27 07:34:16.812535	17.3	56.6	-76.9	2.7
2026-01-27 07:34:19.077676	17.3	57.5	-76.6	2.1
2026-01-27 07:34:21.345295	17.3	58.4	-76.9	2.2
2026-01-27 07:34:23.617359	17.3	59.3	-76.8	2.6
2026-01-27 07:34:25.886838	17.3	60.2	-76.9	1.8
2026-01-27 07:34:28.161450	17.3	61.2	-77.0	1.5
2026-01-27 07:34:30.433650	17.3	62.2	-77.6	3.7
2026-01-27 07:34:32.705899	17.3	63.2	-77.5	4.5
2026-01-27 07:34:34.982638	17.3	64.2	-77.5	6.3
2026-01-27 07:34:37.257281	17.3	65.2	-78.5	6.6
2026-01-27 07:34:39.533631	17.3	66.2	-77.0	1.6
2026-01-27 07:34:41.808887	17.3	67.2	-77.9	4.5
2026-01-27 07:34:44.083799	17.3	68.3	-78.2	5.2
2026-01-27 07:34:46.361982	17.3	69.3	-77.1	4.3
2026-01-27 07:34:48.637539	17.3	70.4	-78.2	7.0
2026-01-27 07:34:50.910400	17.3	71.5	-76.7	3.9
2026-01-27 07:34:53.178904	17.3	72.6	-77.4	6.2
2026-01-27 07:34:55.451069	17.3	73.7	-76.6	4.6
2026-01-27 07:34:57.721465	17.3	74.8	-76.7	4.3
2026-01-27 07:34:59.998960	17.3	76.0	-75.9	3.8
2026-01-27 07:35:02.268160	17.3	77.1	-77.7	5.8
2026-01-27 07:35:04.540063	17.3	78.3	-77.7	6.1
2026-01-27 07:35:06.812276	17.2	79.4	-76.2	3.5
2026-01-27 07:35:09.083727	17.2	80.6	-77.5	6.7
2026-01-27 07:35:11.358234	17.2	81.7	-77.5	6.3
2026-01-27 07:35:13.636688	17.1	82.9	-78.1	6.4
2026-01-27 07:35:15.911913	17.0	84.1	-77.9	6.6
2026-01-27 07:35:18.188459	16.8	85.3	-76.9	3.2
2026-01-27 07:35:20.463518	16.6	86.5	-78.5	6.9
2026-01-27 07:35:22.737765	16.1	87.7	-78.3	7.2
2026-01-27 07:35:25.013138	14.4	88.9	-77.7	6.1
2026-01-27 07:35:27.287336	237.9	89.9	-77.5	9.3
2026-01-27 07:35:29.563615	200.5	88.7	-77.9	10.5
2026-01-27 07:35:31.837038	199.1	87.5	-78.0	10.3
2026-01-27 07:35:34.112846	198.7	86.3	-78.3	10.4
2026-01-27 07:35:36.388824	198.4	85.1	-78.8	10.3
2026-01-27 07:35:38.667297	198.3	84.0	-78.8	8.8
2026-01-27 07:35:40.944829	198.2	82.8	-78.9	8.5
2026-01-27 07:35:43.219320	198.1	81.6	-79.5	8.7
2026-01-27 07:35:45.495884	198.1	80.4	-79.1	9.0
2026-01-27 07:35:47.768830	198.1	79.3	-78.5	8.8
2026-01-27 07:35:50.039918	198.0	78.1	-78.9	9.9
2026-01-27 07:35:52.315690	198.0	76.9	-78.5	9.1
2026-01-27 07:35:54.592272	198.0	75.8	-79.1	10.7
2026-01-27 07:35:56.866483	198.0	74.7	-79.2	10.9
2026-01-27 07:35:59.142217	198.0	73.5	-79.2	10.1
2026-01-27 07:36:01.405772	198.0	72.4	-79.7	10.4
2026-01-27 07:36:03.676849	198.0	71.3	-79.7	10.0
2026-01-27 07:36:05.947653	198.0	70.3	-79.6	11.0
2026-01-27 07:36:08.219650	198.0	69.2	-79.6	11.1
2026-01-27 07:36:10.490317	198.0	68.1	-79.6	11.4
2026-01-27 07:36:12.761052	198.0	67.1	-79.5	11.0
2026-01-27 07:36:15.032552	198.0	66.0	-79.4	12.0
2026-01-27 07:36:17.299253	198.0	65.0	-79.5	11.5
2026-01-27 07:36:19.568613	198.0	64.0	-79.7	11.0
2026-01-27 07:36:21.838777	198.0	63.0	-79.7	11.0
2026-01-27 07:36:24.105921	198.0	62.0	-79.8	10.8
2026-01-27 07:36:26.371359	198.0	61.0	-79.8	10.3
2026-01-27 07:36:28.637143	198.0	60.1	-80.0	10.8
2026-01-27 07:36:30.902213	198.0	59.2	-80.1	10.6
2026-01-27 07:36:33.170822	198.0	58.2	-79.9	9.9
2026-01-27 07:36:35.434755	198.0	57.3	-80.3	11.2
2026-01-27 07:36:37.699389	198.0	56.4	-79.8	10.6
2026-01-27 07:36:39.962530	198.0	55.5	-80.0	10.9
2026-01-27 07:36:42.230121	198.0	54.7	-80.0	11.1
2026-01-27 07:36:44.498036	198.0	53.8	-80.1	11.0
2026-01-27 07:36:46.763906	198.0	53.0	-80.6	10.3
2026-01-27 07:36:49.028923	198.0	52.2	-80.1	11.3
2026-01-27 07:36:51.304904	198.0	51.3	-79.7	12.2
2026-01-27 07:36:53.573941	198.0	50.5	-79.7	12.7
2026-01-27 07:36:55.847438	198.0	49.8	-79.5	12.8
2026-01-27 07:36:58.117153	198.0	49.0	-79.6	12.9
2026-01-27 07:37:00.385809	198.0	48.2	-79.3	12.8
2026-01-27 07:37:02.650339	198.0	47.5	-79.0	13.5
2026-01-27 07:37:04.917354	198.0	46.7	-78.6	13.2
2026-01-27 07:37:07.187166	198.1	46.0	-78.9	13.0
2026-01-27 07:37:09.454636	198.1	45.3	-78.5	12.9
2026-01-27 07:37:11.722651	198.1	44.6	-78.4	12.4
2026-01-27 07:37:13.993433	198.1	43.9	-78.8	14.2
2026-01-27 07:37:16.265259	198.1	43.3	-78.5	13.4
2026-01-27 07:37:18.530847	198.1	42.6	-78.7	12.5
2026-01-27 07:37:20.806145	198.1	42.0	-78.4	12.2
2026-01-27 07:37:23.081070	198.1	41.3	-78.3	12.8
2026-01-27 07:37:25.353081	198.1	40.7	-78.8	12.9
2026-01-27 07:37:27.629596	198.1	40.1	-78.3	12.3
2026-01-27 07:37:29.901529	198.1	39.5	-78.2	12.2
2026-01-27 07:37:32.176708	198.1	38.9	-78.2	12.0
2026-01-27 07:37:34.449184	198.1	38.3	-77.9	10.8
2026-01-27 07:37:36.717111	198.1	37.7	-78.0	11.1
2026-01-27 07:37:38.986560	198.1	37.1	-78.1	11.7
2026-01-27 07:37:41.264825	198.1	36.6	-77.8	11.0
2026-01-27 07:37:43.540824	198.2	36.0	-77.6	11.2
2026-01-27 07:37:45.819187	198.2	35.5	-77.4	9.9
2026-01-27 07:37:48.093709	198.2	35.0	-77.3	11.3
2026-01-27 07:37:50.367134	198.2	34.5	-77.2	8.9
2026-01-27 07:37:52.641247	198.2	33.9	-77.6	9.6
2026-01-27 07:37:54.919598	198.2	33.4	-77.7	10.6
2026-01-27 07:37:57.191922	198.2	33.0	-77.4	7.0
2026-01-27 07:37:59.467950	198.2	32.5	-77.7	8.8
2026-01-27 07:38:01.742877	198.2	32.0	-77.2	8.5
2026-01-27 07:38:04.018725	198.2	31.5	-77.0	8.0
2026-01-27 07:38:06.295299	198.2	31.0	-77.2	7.0
2026-01-27 07:38:08.572507	198.2	30.6	-76.8	7.7
2026-01-27 07:38:10.844734	198.2	30.1	-76.5	7.8
2026-01-27 07:38:13.119887	198.2	29.7	-76.7	6.4
2026-01-27 07:38:15.395950	198.2	29.3	-76.7	7.5
2026-01-27 07:38:17.673296	198.3	28.8	-76.7	6.7
2026-01-27 07:38:19.949107	198.3	28.4	-76.9	6.4
2026-01-27 07:38:22.219412	198.3	28.0	-76.7	6.9
2026-01-27 07:38:24.493713	198.3	27.6	-76.7	6.8
2026-01-27 07:38:26.766441	198.3	27.2	-76.6	6.3
2026-01-27 07:38:29.043858	198.3	26.8	-76.6	6.8
2026-01-27 07:38:31.320113	198.3	26.4	-76.3	5.2
2026-01-27 07:38:33.588002	198.3	26.0	-76.5	5.6
2026-01-27 07:38:35.850174	198.3	25.6	-76.1	5.8
2026-01-27 07:38:38.112507	198.3	25.3	-76.2	5.2
2026-01-27 07:38:40.375299	198.3	24.9	-76.0	6.0
2026-01-27 07:38:42.641039	198.3	24.5	-75.9	5.3
2026-01-27 07:38:44.906995	198.3	24.2	-76.3	5.2
2026-01-27 07:38:47.171421	198.3	23.8	-76.3	6.1
2026-01-27 07:38:49.435466	198.3	23.5	-76.8	7.8
2026-01-27 07:38:51.700391	198.4	23.1	-76.3	4.3
2026-01-27 07:38:53.976248	198.4	22.8	-76.5	5.7
2026-01-27 07:38:56.251861	198.4	22.4	-76.0	4.1
2026-01-27 07:38:58.521223	198.4	22.1	-76.5	5.9
2026-01-27 07:39:00.800275	198.4	21.8	-76.2	4.1
2026-01-27 07:39:03.077132	198.4	21.5	-76.6	5.2
2026-01-27 07:39:05.346042	198.4	21.1	-76.3	6.1
2026-01-27 07:39:07.618030	198.4	20.8	-75.5	2.4
2026-01-27 07:39:09.888491	198.4	20.5	-76.1	5.0
2026-01-27 07:39:12.157292	198.4	20.2	-75.8	3.9
2026-01-27 07:39:14.431522	198.4	19.9	-75.8	5.7
2026-01-27 07:39:16.705318	198.4	19.6	-76.1	5.9
2026-01-27 07:39:18.979145	198.4	19.3	-76.0	5.4
2026-01-27 07:39:21.254643	198.4	19.0	-76.1	5.0
2026-01-27 07:39:23.530065	198.4	18.7	-76.1	5.1
2026-01-27 07:39:25.799151	198.5	18.4	-76.2	4.2
2026-01-27 07:39:28.059568	198.5	18.2	-76.1	3.6
2026-01-27 07:39:30.322356	198.5	17.9	-76.5	4.6
2026-01-27 07:39:32.586631	198.5	17.6	-75.9	1.6
2026-01-27 07:39:34.847601	198.5	17.3	-76.3	3.3
2026-01-27 07:39:37.115119	198.5	17.1	-76.3	3.6
2026-01-27 07:39:39.389500	198.5	16.8	-76.3	3.8
2026-01-27 07:39:41.658846	198.5	16.5	-76.5	4.2
2026-01-27 07:39:43.931153	198.5	16.3	-76.4	4.5
2026-01-27 07:39:46.204026	198.5	16.0	-76.5	4.1
2026-01-27 07:39:48.477351	198.5	15.8	-76.6	4.1
2026-01-27 07:39:50.753496	198.5	15.5	-76.4	5.0
2026-01-27 07:39:53.027988	198.5	15.3	-76.2	3.2
2026-01-27 07:39:55.303429	198.5	15.0	-76.5	4.8
2026-01-27 07:39:57.577434	198.5	14.8	-76.6	3.9
2026-01-27 07:39:59.852170	198.6	14.5	-76.6	4.2
2026-01-27 07:40:02.121949	198.6	14.3	-76.5	2.8
2026-01-27 07:40:04.388373	198.6	14.0	-76.8	4.9
2026-01-27 07:40:06.661441	198.6	13.8	-76.9	4.9
2026-01-27 07:40:08.935758	198.6	13.6	-76.9	4.4
2026-01-27 07:40:11.209627	198.6	13.3	-76.5	3.1
2026-01-27 07:40:13.480233	198.6	13.1	-76.7	0.9
2026-01-27 07:40:15.754494	198.6	12.9	-77.5	3.5
2026-01-27 07:40:18.029806	198.6	12.7	-76.7	3.3
2026-01-27 07:40:20.301555	198.6	12.4	-77.1	2.3
2026-01-27 07:40:22.578008	198.6	12.2	-76.9	3.4
2026-01-27 07:40:24.853309	198.6	12.0	-76.9	3.7
2026-01-27 07:40:27.123759	198.6	11.8	-77.0	2.9
2026-01-27 07:40:29.395109	198.6	11.6	-77.4	2.9
2026-01-27 07:40:31.663294	198.6	11.4	-77.1	2.4
2026-01-27 07:40:33.927229	198.7	11.1	-77.4	2.9
2026-01-27 07:40:36.193394	198.7	10.9	-77.5	4.4
2026-01-27 07:40:38.457704	198.7	10.7	-78.7	0.0
2026-01-27 07:40:40.721723	198.7	10.5	-82.7	0.0
2026-01-27 07:40:42.984377	198.7	10.3	-84.4	0.7
2026-01-27 07:40:45.245679	198.7	10.1	-84.6	0.0
#Closed at: 2026-01-27 07:29:59.827135