passes_logs/2026/01/27/planumMaritime01/planumMaritime01__20260127_065249_METOP-B_rec.log

#Pass ID: 20260127_065249_METOP-B
#Satellite: METOP-B
#Configuration: METOP-B
#Start time: 2026-01-27 06:52:54.397520

#LorettStation: 1.0.0 05.05.2024
#Station: planumMaritime01
#Location: 37.49445 lon 55.92918 lat
#TLE: 1 38771U 12049A   26026.42154174  .00000197  00000+0  10998-3 0  9992
#TLE: 2 38771  98.6731  80.6089 0002944  53.2610 306.8837 14.21428899693123

#Time	Az	El	Level	SNR
2026-01-27 06:52:56.576462	20.9	10.2	-67.4	0.0
2026-01-27 06:52:58.830725	21.0	10.4	-66.2	0.0
2026-01-27 06:53:01.081831	21.1	10.6	-64.4	0.0
2026-01-27 06:53:03.333177	21.2	10.8	-63.3	0.0
2026-01-27 06:53:05.587260	21.2	11.0	-61.3	0.0
2026-01-27 06:53:07.843284	21.3	11.2	-61.8	0.0
2026-01-27 06:53:10.096879	21.4	11.4	-60.1	0.0
2026-01-27 06:53:12.349869	21.5	11.6	-60.7	0.0
2026-01-27 06:53:14.602143	21.6	11.8	-59.4	0.0
2026-01-27 06:53:16.857038	21.7	12.0	-58.3	0.0
2026-01-27 06:53:19.111500	21.7	12.2	-60.9	0.0
2026-01-27 06:53:21.364693	21.8	12.4	-58.5	0.0
2026-01-27 06:53:23.619116	21.9	12.6	-59.1	0.0
2026-01-27 06:53:25.873434	22.0	12.8	-59.5	0.0
2026-01-27 06:53:28.127127	22.1	13.1	-60.2	0.0
2026-01-27 06:53:30.381611	22.2	13.3	-60.4	0.0
2026-01-27 06:53:32.630859	22.3	13.5	-57.3	0.0
2026-01-27 06:53:34.883881	22.4	13.7	-57.7	0.0
2026-01-27 06:53:37.137312	22.5	13.9	-60.2	0.0
2026-01-27 06:53:39.391935	22.6	14.2	-61.8	0.0
2026-01-27 06:53:41.643072	22.7	14.4	-60.7	0.0
2026-01-27 06:53:43.898757	22.8	14.6	-60.6	0.0
2026-01-27 06:53:46.151291	22.9	14.9	-60.5	0.0
2026-01-27 06:53:48.404361	23.0	15.1	-60.5	0.0
2026-01-27 06:53:50.657998	23.1	15.3	-59.9	0.0
2026-01-27 06:53:52.911251	23.2	15.6	-61.4	0.0
2026-01-27 06:53:55.163477	23.3	15.8	-59.9	0.0
2026-01-27 06:53:57.418495	23.4	16.1	-58.9	0.0
2026-01-27 06:53:59.675380	23.5	16.3	-60.3	0.0
2026-01-27 06:54:01.928721	23.6	16.5	-59.7	0.0
2026-01-27 06:54:04.183068	23.7	16.8	-63.2	0.0
2026-01-27 06:54:06.435014	23.9	17.1	-62.2	0.0
2026-01-27 06:54:08.690741	24.0	17.3	-62.2	0.0
2026-01-27 06:54:10.945932	24.1	17.6	-61.7	0.0
2026-01-27 06:54:13.200992	24.2	17.8	-61.9	0.0
2026-01-27 06:54:15.456890	24.3	18.1	-59.8	0.0
2026-01-27 06:54:17.710726	24.5	18.4	-61.6	0.0
2026-01-27 06:54:19.964154	24.6	18.6	-61.5	0.0
2026-01-27 06:54:22.217016	24.7	18.9	-61.9	0.0
2026-01-27 06:54:24.469895	24.8	19.2	-61.6	0.0
2026-01-27 06:54:26.725376	25.0	19.5	-62.0	0.0
2026-01-27 06:54:28.979089	25.1	19.7	-62.6	0.0
2026-01-27 06:54:31.231758	25.3	20.0	-60.2	0.0
2026-01-27 06:54:33.485560	25.4	20.3	-60.4	0.0
2026-01-27 06:54:35.740956	25.5	20.6	-62.1	0.0
2026-01-27 06:54:37.995629	25.7	20.9	-60.8	0.0
2026-01-27 06:54:40.249176	25.8	21.2	-62.0	0.0
2026-01-27 06:54:42.503965	26.0	21.5	-61.7	0.0
2026-01-27 06:54:44.758471	26.1	21.8	-59.9	0.0
2026-01-27 06:54:47.012099	26.3	22.1	-61.0	0.0
2026-01-27 06:54:49.263887	26.5	22.4	-59.5	0.0
2026-01-27 06:54:51.517668	26.6	22.7	-59.7	0.0
2026-01-27 06:54:53.770844	26.8	23.1	-62.2	0.0
2026-01-27 06:54:56.022881	27.0	23.4	-62.1	0.0
2026-01-27 06:54:58.279254	27.1	23.7	-63.5	0.0
2026-01-27 06:55:00.534588	27.3	24.0	-60.1	0.0
2026-01-27 06:55:02.787888	27.5	24.4	-60.3	0.0
2026-01-27 06:55:05.044928	27.7	24.7	-61.3	0.0
2026-01-27 06:55:07.299282	27.9	25.1	-60.0	0.0
2026-01-27 06:55:09.551697	28.1	25.4	-62.5	0.0
2026-01-27 06:55:11.803208	28.3	25.8	-62.7	0.0
2026-01-27 06:55:14.059432	28.5	26.1	-61.9	0.0
2026-01-27 06:55:16.316026	28.7	26.5	-62.8	0.0
2026-01-27 06:55:18.568864	28.9	26.8	-63.4	0.0
2026-01-27 06:55:20.823713	29.1	27.2	-64.0	0.0
2026-01-27 06:55:23.078126	29.3	27.6	-63.4	0.0
2026-01-27 06:55:25.332245	29.5	28.0	-64.1	0.0
2026-01-27 06:55:27.587132	29.7	28.4	-60.7	0.0
2026-01-27 06:55:29.839893	30.0	28.7	-65.3	0.0
2026-01-27 06:55:32.094952	30.2	29.1	-64.8	0.0
2026-01-27 06:55:34.348569	30.5	29.5	-65.9	0.0
2026-01-27 06:55:36.603334	30.7	29.9	-63.5	0.0
2026-01-27 06:55:38.856219	31.0	30.3	-65.2	0.0
2026-01-27 06:55:41.107710	31.2	30.8	-66.1	0.0
2026-01-27 06:55:43.362859	31.5	31.2	-67.9	0.0
2026-01-27 06:55:45.616643	31.8	31.6	-66.9	0.0
2026-01-27 06:55:47.873651	32.1	32.0	-66.6	0.0
2026-01-27 06:55:50.127624	32.4	32.5	-66.9	0.0
2026-01-27 06:55:52.383208	32.7	32.9	-66.5	0.0
2026-01-27 06:55:54.636090	33.0	33.4	-65.4	0.0
2026-01-27 06:55:56.891871	33.3	33.8	-64.3	0.0
2026-01-27 06:55:59.144986	33.6	34.3	-68.4	0.0
2026-01-27 06:56:01.399774	34.0	34.8	-67.6	0.0
2026-01-27 06:56:03.650930	34.3	35.2	-68.8	2.8
2026-01-27 06:56:05.906967	34.7	35.7	-68.9	2.5
2026-01-27 06:56:08.160858	35.0	36.2	-69.4	4.6
2026-01-27 06:56:10.412395	35.4	36.7	-69.2	0.0
2026-01-27 06:56:12.665086	35.8	37.2	-69.8	4.3
2026-01-27 06:56:14.918928	36.2	37.7	-68.6	3.7
2026-01-27 06:56:17.172559	36.6	38.2	-69.2	1.5
2026-01-27 06:56:19.426484	37.0	38.7	-69.6	5.8
2026-01-27 06:56:21.680738	37.4	39.2	-69.2	4.7
2026-01-27 06:56:23.936599	37.9	39.8	-70.3	6.7
2026-01-27 06:56:26.191204	38.4	40.3	-69.2	2.8
2026-01-27 06:56:28.446074	38.8	40.8	-67.1	0.0
2026-01-27 06:56:30.701035	39.3	41.4	-68.5	3.5
2026-01-27 06:56:32.955922	39.9	41.9	-69.5	3.6
2026-01-27 06:56:35.213576	40.4	42.5	-69.5	3.2
2026-01-27 06:56:37.468068	40.9	43.1	-70.2	3.2
2026-01-27 06:56:39.722483	41.5	43.6	-69.6	3.4
2026-01-27 06:56:41.975380	42.1	44.2	-68.4	0.0
2026-01-27 06:56:44.228146	42.7	44.8	-67.9	1.1
2026-01-27 06:56:46.480192	43.3	45.4	-67.9	2.3
2026-01-27 06:56:48.736013	44.0	46.0	-68.8	0.0
2026-01-27 06:56:50.987602	44.7	46.6	-68.1	3.4
2026-01-27 06:56:53.242747	45.4	47.2	-68.4	5.2
2026-01-27 06:56:55.497377	46.1	47.8	-68.4	5.5
2026-01-27 06:56:57.748737	46.9	48.4	-67.5	5.1
2026-01-27 06:56:59.998812	47.7	49.0	-66.4	3.6
2026-01-27 06:57:02.248754	48.5	49.6	-67.5	3.4
2026-01-27 06:57:04.501259	49.4	50.2	-67.6	2.0
2026-01-27 06:57:06.754017	50.3	50.8	-68.8	4.2
2026-01-27 06:57:09.007251	51.2	51.4	-67.5	0.0
2026-01-27 06:57:11.260785	52.2	52.0	-68.7	1.3
2026-01-27 06:57:13.512850	53.2	52.7	-69.2	1.9
2026-01-27 06:57:15.764776	54.3	53.3	-69.1	3.6
2026-01-27 06:57:18.018545	55.4	53.9	-67.7	0.4
2026-01-27 06:57:20.270053	56.5	54.5	-69.7	4.7
2026-01-27 06:57:22.522349	57.7	55.1	-69.6	4.7
2026-01-27 06:57:24.775662	59.0	55.7	-67.9	1.9
2026-01-27 06:57:27.031292	60.3	56.3	-66.9	1.3
2026-01-27 06:57:29.286728	61.6	56.9	-67.9	2.5
2026-01-27 06:57:31.538984	63.0	57.4	-67.4	2.7
2026-01-27 06:57:33.791767	64.5	58.0	-67.3	1.9
2026-01-27 06:57:36.046220	66.1	58.5	-69.2	4.3
2026-01-27 06:57:38.299764	67.7	59.1	-69.9	4.8
2026-01-27 06:57:40.552682	69.3	59.6	-68.7	5.1
2026-01-27 06:57:42.805240	71.1	60.1	-69.0	4.6
2026-01-27 06:57:45.059703	72.9	60.6	-69.2	5.4
2026-01-27 06:57:47.310480	74.7	61.0	-69.2	4.6
2026-01-27 06:57:49.565390	76.7	61.4	-70.0	8.5
2026-01-27 06:57:51.817224	78.6	61.8	-69.0	7.5
2026-01-27 06:57:54.071820	80.7	62.2	-69.5	7.7
2026-01-27 06:57:56.329891	82.8	62.6	-70.4	5.3
2026-01-27 06:57:58.586066	85.0	62.9	-70.6	6.9
2026-01-27 06:58:00.839803	87.3	63.2	-70.9	8.7
2026-01-27 06:58:03.090279	89.5	63.4	-70.9	6.6
2026-01-27 06:58:05.343326	91.9	63.6	-71.2	6.7
2026-01-27 06:58:07.597824	94.2	63.8	-70.4	6.0
2026-01-27 06:58:09.850242	96.6	63.9	-71.6	8.0
2026-01-27 06:58:12.100610	99.1	64.0	-71.2	6.7
2026-01-27 06:58:14.355873	101.5	64.0	-71.6	9.0
2026-01-27 06:58:16.609900	103.9	64.0	-71.8	8.9
2026-01-27 06:58:18.862974	106.4	64.0	-71.0	7.1
2026-01-27 06:58:21.116185	108.8	63.9	-72.1	8.5
2026-01-27 06:58:23.366866	111.2	63.8	-71.7	10.5
2026-01-27 06:58:25.618203	113.6	63.6	-71.9	10.0
2026-01-27 06:58:27.870177	115.9	63.4	-71.8	10.2
2026-01-27 06:58:30.123583	118.2	63.2	-71.6	9.2
2026-01-27 06:58:32.375076	120.5	62.9	-71.2	10.3
2026-01-27 06:58:34.629185	122.7	62.6	-71.6	9.3
2026-01-27 06:58:36.880946	124.8	62.3	-71.9	8.8
2026-01-27 06:58:39.131104	126.9	61.9	-71.8	10.0
2026-01-27 06:58:41.383474	128.9	61.5	-71.9	10.3
2026-01-27 06:58:43.636106	130.8	61.1	-71.2	7.8
2026-01-27 06:58:45.892213	132.7	60.6	-71.3	8.4
2026-01-27 06:58:48.144610	134.5	60.2	-72.3	10.8
2026-01-27 06:58:50.395314	136.3	59.7	-72.6	10.0
2026-01-27 06:58:52.647819	138.0	59.2	-73.0	10.5
2026-01-27 06:58:54.898759	139.6	58.6	-72.8	10.4
2026-01-27 06:58:57.148219	141.1	58.1	-72.8	9.5
2026-01-27 06:58:59.398651	142.6	57.5	-72.7	10.1
2026-01-27 06:59:01.652284	144.0	57.0	-72.9	9.8
2026-01-27 06:59:03.910015	145.4	56.4	-72.5	10.0
2026-01-27 06:59:06.162240	146.7	55.8	-72.6	8.2
2026-01-27 06:59:08.414754	148.0	55.2	-72.9	9.4
2026-01-27 06:59:10.670864	149.2	54.6	-72.8	9.8
2026-01-27 06:59:12.923113	150.4	54.0	-72.7	10.4
2026-01-27 06:59:15.175821	151.5	53.4	-72.8	9.5
2026-01-27 06:59:17.428491	152.5	52.8	-72.6	10.4
2026-01-27 06:59:19.685633	153.6	52.1	-72.6	10.9
2026-01-27 06:59:21.941937	154.5	51.5	-72.4	11.1
2026-01-27 06:59:24.195262	155.5	50.9	-72.4	10.1
2026-01-27 06:59:26.448562	156.4	50.3	-72.5	10.6
2026-01-27 06:59:28.701358	157.3	49.7	-71.9	10.2
2026-01-27 06:59:30.956044	158.1	49.1	-72.6	10.9
2026-01-27 06:59:33.206526	158.9	48.4	-73.1	10.0
2026-01-27 06:59:35.460149	159.7	47.8	-73.2	9.3
2026-01-27 06:59:37.712640	160.4	47.2	-73.3	10.0
2026-01-27 06:59:39.964876	161.1	46.6	-73.5	11.1
2026-01-27 06:59:42.219864	161.8	46.0	-73.2	9.8
2026-01-27 06:59:44.471203	162.5	45.4	-73.3	10.3
2026-01-27 06:59:46.720410	163.1	44.8	-73.4	11.4
2026-01-27 06:59:48.974947	163.7	44.3	-73.5	11.5
2026-01-27 06:59:51.225893	164.3	43.7	-73.5	12.2
2026-01-27 06:59:53.477608	164.9	43.1	-73.6	12.0
2026-01-27 06:59:55.730734	165.5	42.5	-72.8	12.1
2026-01-27 06:59:57.984310	166.0	42.0	-72.6	10.3
2026-01-27 07:00:00.237344	166.5	41.4	-73.2	11.4
2026-01-27 07:00:02.489652	167.0	40.9	-73.3	11.4
2026-01-27 07:00:04.743457	167.5	40.3	-72.8	10.8
2026-01-27 07:00:06.994146	168.0	39.8	-73.8	11.4
2026-01-27 07:00:09.246323	168.4	39.3	-73.4	11.0
2026-01-27 07:00:11.500452	168.9	38.7	-72.5	9.9
2026-01-27 07:00:13.761448	169.3	38.2	-71.9	8.0
2026-01-27 07:00:16.017668	169.7	37.7	-73.1	10.0
2026-01-27 07:00:18.268918	170.1	37.2	-73.1	8.8
2026-01-27 07:00:20.522335	170.5	36.7	-72.5	8.7
2026-01-27 07:00:22.776085	170.9	36.2	-72.0	8.0
2026-01-27 07:00:25.027901	171.2	35.7	-72.1	8.0
2026-01-27 07:00:27.280031	171.6	35.2	-72.3	7.7
2026-01-27 07:00:29.532687	171.9	34.8	-72.3	9.1
2026-01-27 07:00:31.789218	172.3	34.3	-71.6	7.0
2026-01-27 07:00:34.041829	172.6	33.8	-72.1	6.1
2026-01-27 07:00:36.293521	172.9	33.4	-72.3	7.8
2026-01-27 07:00:38.545485	173.2	32.9	-72.1	6.4
2026-01-27 07:00:40.798749	173.5	32.5	-71.4	7.6
2026-01-27 07:00:43.051818	173.8	32.0	-71.7	5.9
2026-01-27 07:00:45.303249	174.1	31.6	-71.9	7.7
2026-01-27 07:00:47.557115	174.4	31.2	-71.7	6.3
2026-01-27 07:00:49.810068	174.7	30.7	-71.8	5.6
2026-01-27 07:00:52.063794	174.9	30.3	-71.8	5.2
2026-01-27 07:00:54.315559	175.2	29.9	-71.5	3.6
2026-01-27 07:00:56.569961	175.4	29.5	-71.5	2.8
2026-01-27 07:00:58.822661	175.7	29.1	-71.4	3.2
2026-01-27 07:01:01.076984	175.9	28.7	-71.6	2.0
2026-01-27 07:01:03.328755	176.1	28.3	-71.5	3.0
2026-01-27 07:01:05.582652	176.4	27.9	-72.0	3.3
2026-01-27 07:01:07.837085	176.6	27.5	-71.7	0.0
2026-01-27 07:01:10.090253	176.8	27.2	-71.2	0.1
2026-01-27 07:01:12.344236	177.0	26.8	-71.4	0.0
2026-01-27 07:01:14.597607	177.2	26.4	-70.9	0.0
2026-01-27 07:01:16.851981	177.4	26.1	-71.9	0.3
2026-01-27 07:01:19.106074	177.6	25.7	-71.7	0.7
2026-01-27 07:01:21.361026	177.8	25.3	-71.7	1.4
2026-01-27 07:01:23.616427	178.0	25.0	-71.4	0.0
2026-01-27 07:01:25.870595	178.2	24.7	-71.8	2.1
2026-01-27 07:01:28.125377	178.4	24.3	-71.1	0.3
2026-01-27 07:01:30.378097	178.6	24.0	-71.3	0.4
2026-01-27 07:01:32.629043	178.8	23.6	-71.3	0.7
2026-01-27 07:01:34.882387	178.9	23.3	-71.3	0.1
2026-01-27 07:01:37.137225	179.1	23.0	-71.2	0.0
2026-01-27 07:01:39.395396	179.3	22.7	-71.4	0.0
2026-01-27 07:01:41.648276	179.4	22.3	-71.2	0.0
2026-01-27 07:01:43.902065	179.6	22.0	-71.7	0.0
2026-01-27 07:01:46.155089	179.7	21.7	-71.4	2.1
2026-01-27 07:01:48.407324	179.9	21.4	-71.4	0.0
2026-01-27 07:01:50.661566	180.1	21.1	-71.7	0.0
2026-01-27 07:01:52.914761	180.2	20.8	-71.1	0.0
2026-01-27 07:01:55.165760	180.3	20.5	-71.5	0.3
2026-01-27 07:01:57.420017	180.5	20.2	-71.8	0.0
2026-01-27 07:01:59.672889	180.6	19.9	-71.8	0.0
2026-01-27 07:02:01.926894	180.8	19.6	-72.1	0.0
2026-01-27 07:02:04.178581	180.9	19.4	-72.4	0.0
2026-01-27 07:02:06.432533	181.0	19.1	-71.9	0.0
2026-01-27 07:02:08.684094	181.2	18.8	-72.4	0.7
2026-01-27 07:02:10.937295	181.3	18.5	-71.9	2.1
2026-01-27 07:02:13.191673	181.4	18.3	-72.3	1.1
2026-01-27 07:02:15.446752	181.5	18.0	-72.0	0.8
2026-01-27 07:02:17.699482	181.7	17.7	-72.6	1.7
2026-01-27 07:02:19.950645	181.8	17.5	-72.8	0.0
2026-01-27 07:02:22.200989	181.9	17.2	-72.6	0.0
2026-01-27 07:02:24.453413	182.0	16.9	-72.9	0.8
2026-01-27 07:02:26.706123	182.1	16.7	-73.2	0.8
2026-01-27 07:02:28.959306	182.2	16.4	-73.3	0.0
2026-01-27 07:02:31.214292	182.4	16.2	-72.6	1.8
2026-01-27 07:02:33.469483	182.5	15.9	-72.5	1.0
2026-01-27 07:02:35.722074	182.6	15.7	-73.5	3.3
2026-01-27 07:02:37.975586	182.7	15.5	-73.4	0.9
2026-01-27 07:02:40.228099	182.8	15.2	-72.9	1.5
2026-01-27 07:02:42.479698	182.9	15.0	-72.8	1.8
2026-01-27 07:02:44.731488	183.0	14.7	-72.9	0.0
2026-01-27 07:02:46.984131	183.1	14.5	-72.5	1.3
2026-01-27 07:02:49.236772	183.2	14.3	-73.0	1.7
2026-01-27 07:02:51.490354	183.3	14.0	-72.7	0.0
2026-01-27 07:02:53.743069	183.4	13.8	-72.7	0.3
2026-01-27 07:02:55.997573	183.5	13.6	-72.5	0.0
2026-01-27 07:02:58.249746	183.6	13.4	-73.0	0.0
2026-01-27 07:03:00.506242	183.7	13.1	-72.6	0.0
2026-01-27 07:03:02.760336	183.7	12.9	-72.8	0.0
2026-01-27 07:03:05.014574	183.8	12.7	-72.1	0.0
2026-01-27 07:03:07.265938	183.9	12.5	-72.1	0.0
2026-01-27 07:03:09.520467	184.0	12.3	-72.2	0.0
2026-01-27 07:03:11.775400	184.1	12.1	-71.7	0.0
2026-01-27 07:03:14.027119	184.2	11.9	-71.7	0.0
2026-01-27 07:03:16.280992	184.3	11.7	-71.1	0.0
2026-01-27 07:03:18.532730	184.3	11.4	-72.0	0.0
2026-01-27 07:03:20.787709	184.4	11.2	-71.1	0.0
2026-01-27 07:03:23.046437	184.5	11.0	-71.6	0.0
2026-01-27 07:03:25.298208	184.6	10.8	-72.4	0.0
2026-01-27 07:03:27.553368	184.7	10.6	-71.7	0.0
2026-01-27 07:03:29.809061	184.7	10.4	-72.1	0.0
2026-01-27 07:03:32.061979	184.8	10.2	-77.1	0.0
2026-01-27 07:03:34.315471	184.9	10.0	-80.4	0.0
#Closed at: 2026-01-27 06:52:49.403412