passes_logs/2026/01/27/planumMaritime01/planumMaritime01__20260127_102820_METEOR-M2_4_rec.log

#Pass ID: 20260127_102820_METEOR-M2 4
#Satellite: METEOR-M2 4
#Configuration: METEOR-M2 4
#Start time: 2026-01-27 10:28:25.746645

#LorettStation: 1.0.0 05.05.2024
#Station: planumMaritime01
#Location: 37.49445 lon 55.92918 lat
#TLE: 1 59051U 24039A   26026.51377740  .00000074  00000+0  52756-4 0  9997
#TLE: 2 59051  98.6831 347.7355 0006350 213.0382 147.0400 14.22409886 99125

#Time	Az	El	Level	SNR
2026-01-27 10:28:27.918642	130.2	10.2	-82.3	0.0
2026-01-27 10:28:30.183304	130.1	10.4	-79.0	0.0
2026-01-27 10:28:32.454084	130.0	10.6	-78.2	3.8
2026-01-27 10:28:34.725684	129.8	10.7	-78.2	4.9
2026-01-27 10:28:36.997454	129.7	10.9	-77.6	5.0
2026-01-27 10:28:39.269300	129.5	11.1	-77.7	4.8
2026-01-27 10:28:41.543487	129.3	11.3	-77.6	4.8
2026-01-27 10:28:43.816900	129.2	11.5	-77.4	6.0
2026-01-27 10:28:46.090383	129.0	11.7	-77.9	7.6
2026-01-27 10:28:48.363482	128.9	11.9	-78.2	7.6
2026-01-27 10:28:50.638461	128.7	12.1	-77.8	6.3
2026-01-27 10:28:52.911612	128.5	12.3	-78.2	7.4
2026-01-27 10:28:55.182223	128.4	12.5	-78.2	6.6
2026-01-27 10:28:57.452938	128.2	12.7	-77.8	7.6
2026-01-27 10:28:59.726384	128.0	12.9	-77.6	6.9
2026-01-27 10:29:02.001227	127.9	13.1	-78.0	7.1
2026-01-27 10:29:04.276648	127.7	13.4	-77.7	7.0
2026-01-27 10:29:06.547222	127.5	13.6	-77.4	7.1
2026-01-27 10:29:08.818969	127.3	13.8	-77.8	6.4
2026-01-27 10:29:11.094068	127.1	14.0	-77.4	6.4
2026-01-27 10:29:13.367057	126.9	14.2	-77.9	7.1
2026-01-27 10:29:15.642434	126.7	14.4	-77.8	7.2
2026-01-27 10:29:17.915187	126.5	14.6	-76.9	6.5
2026-01-27 10:29:20.193021	126.3	14.9	-77.9	8.2
2026-01-27 10:29:22.468989	126.1	15.1	-77.5	7.8
2026-01-27 10:29:24.743453	125.9	15.3	-77.4	7.5
2026-01-27 10:29:27.017588	125.7	15.5	-77.7	8.1
2026-01-27 10:29:29.291995	125.5	15.8	-77.6	9.0
2026-01-27 10:29:31.564674	125.3	16.0	-77.0	6.6
2026-01-27 10:29:33.841344	125.1	16.2	-77.6	7.0
2026-01-27 10:29:36.115306	124.9	16.5	-77.3	7.5
2026-01-27 10:29:38.392369	124.6	16.7	-76.8	6.8
2026-01-27 10:29:40.668441	124.4	16.9	-77.3	8.7
2026-01-27 10:29:42.944509	124.2	17.2	-78.0	7.2
2026-01-27 10:29:45.216345	124.0	17.4	-77.2	6.4
2026-01-27 10:29:47.486400	123.7	17.7	-77.3	7.1
2026-01-27 10:29:49.757314	123.5	17.9	-77.3	7.8
2026-01-27 10:29:52.028635	123.2	18.1	-77.7	7.1
2026-01-27 10:29:54.300171	123.0	18.4	-77.1	7.1
2026-01-27 10:29:56.569392	122.7	18.6	-77.5	6.8
2026-01-27 10:29:58.843023	122.5	18.9	-77.5	7.6
2026-01-27 10:30:01.112724	122.2	19.1	-77.8	8.7
2026-01-27 10:30:03.373238	121.9	19.4	-77.1	6.7
2026-01-27 10:30:05.629629	121.7	19.7	-78.0	8.5
2026-01-27 10:30:07.886681	121.4	19.9	-77.7	8.9
2026-01-27 10:30:10.151618	121.1	20.2	-77.2	7.0
2026-01-27 10:30:12.411136	120.8	20.4	-77.3	7.7
2026-01-27 10:30:14.668937	120.5	20.7	-77.4	8.2
2026-01-27 10:30:16.925318	120.2	21.0	-77.3	7.4
2026-01-27 10:30:19.186761	119.9	21.2	-77.3	8.3
2026-01-27 10:30:21.445185	119.6	21.5	-77.1	7.7
2026-01-27 10:30:23.707828	119.3	21.8	-77.3	9.2
2026-01-27 10:30:25.980849	119.0	22.0	-77.1	9.4
2026-01-27 10:30:28.258853	118.7	22.3	-77.5	9.7
2026-01-27 10:30:30.535126	118.3	22.6	-76.9	8.7
2026-01-27 10:30:32.809507	118.0	22.9	-77.3	9.0
2026-01-27 10:30:35.081362	117.6	23.2	-77.3	9.6
2026-01-27 10:30:37.354757	117.3	23.4	-77.0	8.9
2026-01-27 10:30:39.628621	116.9	23.7	-77.1	8.2
2026-01-27 10:30:41.898975	116.6	24.0	-77.6	9.3
2026-01-27 10:30:44.171757	116.2	24.3	-77.8	7.8
2026-01-27 10:30:46.439910	115.8	24.6	-77.6	8.7
2026-01-27 10:30:48.710653	115.4	24.9	-77.3	8.2
2026-01-27 10:30:50.983535	115.0	25.2	-77.1	9.9
2026-01-27 10:30:53.258949	114.6	25.5	-77.2	9.6
2026-01-27 10:30:55.527025	114.2	25.8	-77.2	9.4
2026-01-27 10:30:57.791321	113.8	26.1	-77.5	10.6
2026-01-27 10:31:00.056660	113.4	26.4	-77.2	9.3
2026-01-27 10:31:02.323379	113.0	26.7	-76.9	10.2
2026-01-27 10:31:04.588943	112.5	27.0	-77.2	10.0
2026-01-27 10:31:06.854556	112.1	27.3	-76.9	8.7
2026-01-27 10:31:09.120161	111.6	27.6	-76.9	9.5
2026-01-27 10:31:11.387257	111.2	27.9	-77.5	10.3
2026-01-27 10:31:13.658928	110.7	28.3	-77.4	9.4
2026-01-27 10:31:15.934532	110.2	28.6	-77.2	10.3
2026-01-27 10:31:18.207685	109.7	28.9	-77.1	9.5
2026-01-27 10:31:20.477962	109.2	29.2	-76.6	9.0
2026-01-27 10:31:22.750484	108.7	29.5	-77.0	9.3
2026-01-27 10:31:25.023659	108.2	29.8	-76.6	9.2
2026-01-27 10:31:27.298668	107.6	30.2	-77.1	9.7
2026-01-27 10:31:29.569850	107.1	30.5	-76.8	9.0
2026-01-27 10:31:31.842729	106.5	30.8	-76.6	8.8
2026-01-27 10:31:34.116659	105.9	31.1	-75.9	6.3
2026-01-27 10:31:36.394196	105.4	31.4	-76.7	8.0
2026-01-27 10:31:38.666926	104.8	31.8	-76.5	8.3
2026-01-27 10:31:40.937981	104.2	32.1	-76.8	8.3
2026-01-27 10:31:43.208746	103.5	32.4	-76.2	6.4
2026-01-27 10:31:45.482250	102.9	32.7	-75.5	5.6
2026-01-27 10:31:47.754499	102.3	33.0	-76.3	7.8
2026-01-27 10:31:50.027397	101.6	33.4	-76.3	6.4
2026-01-27 10:31:52.302438	101.0	33.7	-75.6	5.5
2026-01-27 10:31:54.581773	100.3	34.0	-76.7	7.1
2026-01-27 10:31:56.855693	99.6	34.3	-76.4	7.1
2026-01-27 10:31:59.131602	98.9	34.6	-76.7	6.9
2026-01-27 10:32:01.403932	98.1	34.9	-76.3	6.3
2026-01-27 10:32:03.682053	97.4	35.3	-75.4	4.7
2026-01-27 10:32:05.955331	96.7	35.6	-76.2	6.0
2026-01-27 10:32:08.234622	95.9	35.9	-75.3	5.4
2026-01-27 10:32:10.506518	95.1	36.2	-75.2	4.2
2026-01-27 10:32:12.769000	94.3	36.5	-75.1	4.0
2026-01-27 10:32:15.031090	93.5	36.8	-74.1	2.1
2026-01-27 10:32:17.298409	92.7	37.1	-73.0	1.6
2026-01-27 10:32:19.566351	91.9	37.3	-74.3	2.9
2026-01-27 10:32:21.832369	91.0	37.6	-74.7	3.3
2026-01-27 10:32:24.097500	90.1	37.9	-73.8	3.9
2026-01-27 10:32:26.358081	89.3	38.2	-74.2	0.0
2026-01-27 10:32:28.617913	88.4	38.4	-73.9	1.9
2026-01-27 10:32:30.874345	87.5	38.7	-74.1	3.4
2026-01-27 10:32:33.124712	86.6	38.9	-73.6	1.1
2026-01-27 10:32:35.377415	85.6	39.2	-75.1	1.5
2026-01-27 10:32:37.629956	84.7	39.4	-74.5	0.0
2026-01-27 10:32:39.881435	83.7	39.6	-74.3	1.6
2026-01-27 10:32:42.138664	82.7	39.9	-74.0	1.2
2026-01-27 10:32:44.391650	81.8	40.1	-74.7	2.0
2026-01-27 10:32:46.648024	80.8	40.3	-74.8	1.3
2026-01-27 10:32:48.906741	79.7	40.5	-73.8	0.0
2026-01-27 10:32:51.164742	78.7	40.7	-74.2	0.0
2026-01-27 10:32:53.420042	77.7	40.9	-74.9	1.6
2026-01-27 10:32:55.679657	76.6	41.0	-73.8	1.2
2026-01-27 10:32:57.952686	75.6	41.2	-73.1	0.0
2026-01-27 10:33:00.226109	74.5	41.3	-73.2	0.0
2026-01-27 10:33:02.495583	73.4	41.5	-73.5	0.0
2026-01-27 10:33:04.766368	72.3	41.6	-74.3	0.0
2026-01-27 10:33:07.037502	71.2	41.7	-73.9	0.0
2026-01-27 10:33:09.310690	70.1	41.8	-74.3	1.7
2026-01-27 10:33:11.584059	69.0	41.9	-73.9	0.0
2026-01-27 10:33:13.853748	67.9	42.0	-74.6	1.6
2026-01-27 10:33:16.122960	66.7	42.0	-74.4	0.9
2026-01-27 10:33:18.403042	65.6	42.1	-72.7	0.0
2026-01-27 10:33:20.682780	64.5	42.1	-73.9	0.5
2026-01-27 10:33:22.957386	63.3	42.2	-74.9	2.1
2026-01-27 10:33:25.233298	62.2	42.2	-74.6	1.1
2026-01-27 10:33:27.508903	61.1	42.2	-72.4	0.0
2026-01-27 10:33:29.781100	59.9	42.2	-74.5	3.2
2026-01-27 10:33:32.056957	58.8	42.2	-74.4	1.3
2026-01-27 10:33:34.333528	57.6	42.1	-74.2	0.0
2026-01-27 10:33:36.610704	56.5	42.1	-74.9	0.0
2026-01-27 10:33:38.885269	55.4	42.0	-74.7	0.0
2026-01-27 10:33:41.158828	54.2	41.9	-75.4	1.1
2026-01-27 10:33:43.434692	53.1	41.9	-75.4	1.2
2026-01-27 10:33:45.714638	52.0	41.8	-74.9	0.8
2026-01-27 10:33:47.990890	50.9	41.6	-74.1	0.0
2026-01-27 10:33:50.266107	49.8	41.5	-73.5	0.1
2026-01-27 10:33:52.541668	48.7	41.4	-74.7	0.0
2026-01-27 10:33:54.818236	47.6	41.3	-74.6	0.0
2026-01-27 10:33:57.095588	46.6	41.1	-75.0	2.9
2026-01-27 10:33:59.368659	45.5	40.9	-74.6	0.8
2026-01-27 10:34:01.641561	44.5	40.8	-74.6	1.3
2026-01-27 10:34:03.911968	43.4	40.6	-74.6	0.0
2026-01-27 10:34:06.180159	42.4	40.4	-74.0	0.0
2026-01-27 10:34:08.450585	41.4	40.2	-75.7	1.6
2026-01-27 10:34:10.722752	40.4	40.0	-75.2	0.0
2026-01-27 10:34:12.993237	39.4	39.8	-75.7	0.0
2026-01-27 10:34:15.261519	38.4	39.5	-75.2	0.0
2026-01-27 10:34:17.532708	37.5	39.3	-75.4	0.0
2026-01-27 10:34:19.792438	36.5	39.0	-75.2	0.0
2026-01-27 10:34:22.050714	35.6	38.8	-73.9	0.0
2026-01-27 10:34:24.312407	34.7	38.5	-75.5	0.0
2026-01-27 10:34:26.569286	33.8	38.3	-76.1	0.0
2026-01-27 10:34:28.825294	32.9	38.0	-74.5	1.5
2026-01-27 10:34:31.084181	32.1	37.7	-73.3	0.0
2026-01-27 10:34:33.345387	31.2	37.5	-73.7	0.0
2026-01-27 10:34:35.603996	30.4	37.2	-75.4	1.4
2026-01-27 10:34:37.862479	29.6	36.9	-74.5	0.0
2026-01-27 10:34:40.120466	28.8	36.6	-73.6	0.0
2026-01-27 10:34:42.387418	28.0	36.3	-74.1	0.0
2026-01-27 10:34:44.663054	27.2	36.0	-73.9	0.0
2026-01-27 10:34:46.937246	26.4	35.7	-73.3	0.0
2026-01-27 10:34:49.212204	25.7	35.4	-72.0	0.0
2026-01-27 10:34:51.486177	24.9	35.1	-73.7	0.0
2026-01-27 10:34:53.762099	24.2	34.8	-73.6	0.0
2026-01-27 10:34:56.036571	23.5	34.5	-72.6	0.0
2026-01-27 10:34:58.312117	22.8	34.2	-72.2	0.0
2026-01-27 10:35:00.583957	22.1	33.8	-73.4	0.0
2026-01-27 10:35:02.860177	21.4	33.5	-70.8	0.0
2026-01-27 10:35:05.132150	20.8	33.2	-72.0	0.0
2026-01-27 10:35:07.398752	20.1	32.9	-70.5	0.0
2026-01-27 10:35:09.665191	19.5	32.6	-71.1	0.0
2026-01-27 10:35:11.931209	18.9	32.3	-72.2	0.0
2026-01-27 10:35:14.198099	18.3	31.9	-71.2	0.0
2026-01-27 10:35:16.467837	17.7	31.6	-69.9	0.0
2026-01-27 10:35:18.742987	17.1	31.3	-70.6	0.0
2026-01-27 10:35:21.013230	16.5	31.0	-71.8	0.0
2026-01-27 10:35:23.288021	15.9	30.7	-65.8	0.0
2026-01-27 10:35:25.556531	15.4	30.3	-71.1	0.0
2026-01-27 10:35:27.830797	14.9	30.0	-72.2	0.0
2026-01-27 10:35:30.103639	14.3	29.7	-69.1	0.0
2026-01-27 10:35:32.375382	13.8	29.4	-70.8	0.0
2026-01-27 10:35:34.652733	13.3	29.1	-68.9	0.0
2026-01-27 10:35:36.923527	12.8	28.8	-68.0	0.0
2026-01-27 10:35:39.197523	12.3	28.4	-67.9	0.0
2026-01-27 10:35:41.473667	11.8	28.1	-71.1	0.0
2026-01-27 10:35:43.747541	11.4	27.8	-69.8	0.0
2026-01-27 10:35:46.021100	10.9	27.5	-68.3	0.0
2026-01-27 10:35:48.294600	10.5	27.2	-71.4	0.0
2026-01-27 10:35:50.563065	10.0	26.9	-72.5	0.0
2026-01-27 10:35:52.830125	9.6	26.6	-68.6	0.0
2026-01-27 10:35:55.099767	9.2	26.3	-70.0	0.0
2026-01-27 10:35:57.367835	8.7	26.0	-70.2	0.0
2026-01-27 10:35:59.638504	8.3	25.7	-69.9	0.0
2026-01-27 10:36:01.907029	7.9	25.4	-69.9	0.0
2026-01-27 10:36:04.178324	7.5	25.1	-69.0	0.0
2026-01-27 10:36:06.453178	7.1	24.8	-70.6	0.0
2026-01-27 10:36:08.720422	6.8	24.5	-70.5	0.0
2026-01-27 10:36:10.992242	6.4	24.2	-70.4	0.0
2026-01-27 10:36:13.258958	6.0	23.9	-68.1	0.0
2026-01-27 10:36:15.531985	5.7	23.6	-69.5	0.0
2026-01-27 10:36:17.799843	5.3	23.3	-68.8	0.0
2026-01-27 10:36:20.068134	5.0	23.1	-69.8	0.0
2026-01-27 10:36:22.326088	4.6	22.8	-69.5	0.0
2026-01-27 10:36:24.585365	4.3	22.5	-70.3	0.0
2026-01-27 10:36:26.845469	4.0	22.2	-69.0	0.0
2026-01-27 10:36:29.108083	3.7	22.0	-70.5	0.0
2026-01-27 10:36:31.367987	3.4	21.7	-69.3	0.0
2026-01-27 10:36:33.624753	3.0	21.4	-70.1	0.0
2026-01-27 10:36:35.881900	2.7	21.1	-68.3	0.0
2026-01-27 10:36:38.138417	2.4	20.9	-72.1	0.0
2026-01-27 10:36:40.397947	2.2	20.6	-72.2	0.0
2026-01-27 10:36:42.661581	1.9	20.4	-71.9	0.0
2026-01-27 10:36:44.927690	1.6	20.1	-70.2	0.0
2026-01-27 10:36:47.200970	1.3	19.8	-71.0	0.0
2026-01-27 10:36:49.472264	1.0	19.6	-72.0	0.0
2026-01-27 10:36:51.745801	0.8	19.3	-71.2	0.0
2026-01-27 10:36:54.018013	0.5	19.1	-71.3	0.0
2026-01-27 10:36:56.288247	0.2	18.8	-71.5	0.0
2026-01-27 10:36:58.562692	360.0	18.6	-70.8	0.0
2026-01-27 10:37:00.839672	359.7	18.3	-69.5	0.0
2026-01-27 10:37:03.110819	359.5	18.1	-72.3	0.0
2026-01-27 10:37:05.384006	359.2	17.8	-71.9	0.0
2026-01-27 10:37:07.654634	359.0	17.6	-72.4	0.0
2026-01-27 10:37:09.925945	358.8	17.4	-72.8	0.0
2026-01-27 10:37:12.198465	358.5	17.1	-73.0	0.0
2026-01-27 10:37:14.466293	358.3	16.9	-71.5	0.0
2026-01-27 10:37:16.735469	358.1	16.6	-71.8	0.0
2026-01-27 10:37:19.011485	357.9	16.4	-72.4	0.0
2026-01-27 10:37:21.282792	357.7	16.2	-73.0	0.0
2026-01-27 10:37:23.552305	357.4	16.0	-72.7	0.0
2026-01-27 10:37:25.821230	357.2	15.7	-73.5	0.0
2026-01-27 10:37:28.087266	357.0	15.5	-71.9	0.0
2026-01-27 10:37:30.346891	356.8	15.3	-73.5	0.0
2026-01-27 10:37:32.608697	356.6	15.1	-72.7	0.0
2026-01-27 10:37:34.866269	356.4	14.8	-71.4	0.0
2026-01-27 10:37:37.128675	356.2	14.6	-70.8	0.0
2026-01-27 10:37:39.394370	356.0	14.4	-73.4	0.0
2026-01-27 10:37:41.661496	355.9	14.2	-73.3	0.0
2026-01-27 10:37:43.924769	355.7	14.0	-74.4	0.0
2026-01-27 10:37:46.189642	355.5	13.8	-70.4	0.0
2026-01-27 10:37:48.461750	355.3	13.6	-72.4	0.0
2026-01-27 10:37:50.733031	355.1	13.3	-73.2	0.0
2026-01-27 10:37:53.003040	355.0	13.1	-71.9	0.0
2026-01-27 10:37:55.270852	354.8	12.9	-71.9	0.0
2026-01-27 10:37:57.536840	354.6	12.7	-72.2	0.0
2026-01-27 10:37:59.805434	354.4	12.5	-71.2	0.0
2026-01-27 10:38:02.078093	354.3	12.3	-72.2	0.0
2026-01-27 10:38:04.346041	354.1	12.1	-73.5	0.0
2026-01-27 10:38:06.620415	354.0	11.9	-72.8	0.0
2026-01-27 10:38:08.896633	353.8	11.7	-72.5	0.0
2026-01-27 10:38:11.173488	353.6	11.5	-72.0	0.0
2026-01-27 10:38:13.444425	353.5	11.3	-72.2	0.0
2026-01-27 10:38:15.720409	353.3	11.1	-72.5	0.0
2026-01-27 10:38:17.994341	353.2	10.9	-73.0	0.0
2026-01-27 10:38:20.266671	353.0	10.7	-73.0	0.0
2026-01-27 10:38:22.544794	352.9	10.6	-71.8	0.0
2026-01-27 10:38:24.810699	352.8	10.4	-75.0	0.0
2026-01-27 10:38:27.079730	352.6	10.2	-78.6	0.0
#Closed at: 2026-01-27 10:28:20.752063