passes_logs/2026/01/27/planumMaritime01/planumMaritime01__20260127_171856_METEOR-M2_3_rec.log

#Pass ID: 20260127_171856_METEOR-M2 3
#Satellite: METEOR-M2 3
#Configuration: METEOR-M2 3
#Start time: 2026-01-27 17:19:01.117482

#LorettStation: 1.0.0 05.05.2024
#Station: planumMaritime01
#Location: 37.49445 lon 55.92918 lat
#TLE: 1 57166U 23091A   26026.51936249  .00000031  00000+0  32206-4 0  9995
#TLE: 2 57166  98.6306  84.2620 0003398 208.0151 152.0846 14.24032693134357

#Time	Az	El	Level	SNR
2026-01-27 17:19:03.279848	144.8	10.2	-79.8	0.0
2026-01-27 17:19:05.525461	144.7	10.4	-81.1	0.0
2026-01-27 17:19:07.770125	144.6	10.6	-80.2	0.0
2026-01-27 17:19:10.017813	144.5	10.8	-78.5	5.6
2026-01-27 17:19:12.263184	144.4	11.0	-78.0	6.2
2026-01-27 17:19:14.508986	144.4	11.2	-78.2	6.0
2026-01-27 17:19:16.755644	144.3	11.4	-78.0	6.6
2026-01-27 17:19:19.002130	144.2	11.6	-78.1	6.8
2026-01-27 17:19:21.249132	144.1	11.8	-78.5	6.4
2026-01-27 17:19:23.498059	144.0	12.0	-78.3	6.0
2026-01-27 17:19:25.743094	143.9	12.2	-78.4	6.3
2026-01-27 17:19:27.993626	143.9	12.4	-77.9	5.8
2026-01-27 17:19:30.242257	143.8	12.7	-78.3	7.1
2026-01-27 17:19:32.490141	143.7	12.9	-78.4	7.2
2026-01-27 17:19:34.736128	143.6	13.1	-78.6	6.9
2026-01-27 17:19:36.984860	143.5	13.3	-78.6	7.2
2026-01-27 17:19:39.233205	143.4	13.5	-78.3	6.8
2026-01-27 17:19:41.483087	143.3	13.8	-78.6	7.7
2026-01-27 17:19:43.729924	143.2	14.0	-78.6	7.3
2026-01-27 17:19:45.978727	143.1	14.2	-78.2	6.7
2026-01-27 17:19:48.227115	143.0	14.4	-78.4	7.3
2026-01-27 17:19:50.474235	142.9	14.7	-78.3	6.9
2026-01-27 17:19:52.723450	142.8	14.9	-77.9	6.6
2026-01-27 17:19:54.970907	142.7	15.1	-78.3	6.6
2026-01-27 17:19:57.218700	142.6	15.4	-78.3	7.3
2026-01-27 17:19:59.469179	142.5	15.6	-77.7	6.5
2026-01-27 17:20:01.717289	142.4	15.9	-78.3	6.4
2026-01-27 17:20:03.964911	142.2	16.1	-78.2	7.5
2026-01-27 17:20:06.213947	142.1	16.4	-78.2	7.3
2026-01-27 17:20:08.463044	142.0	16.6	-78.4	7.2
2026-01-27 17:20:10.711072	141.9	16.9	-77.7	5.7
2026-01-27 17:20:12.960480	141.8	17.1	-78.3	7.5
2026-01-27 17:20:15.207673	141.6	17.4	-78.1	7.9
2026-01-27 17:20:17.453034	141.5	17.6	-78.0	8.0
2026-01-27 17:20:19.702926	141.4	17.9	-78.1	8.5
2026-01-27 17:20:21.948126	141.2	18.2	-78.3	7.9
2026-01-27 17:20:24.198400	141.1	18.5	-78.1	8.4
2026-01-27 17:20:26.444234	141.0	18.7	-78.2	8.4
2026-01-27 17:20:28.692280	140.8	19.0	-78.3	8.4
2026-01-27 17:20:30.939822	140.7	19.3	-77.8	7.4
2026-01-27 17:20:33.185092	140.5	19.6	-78.0	8.1
2026-01-27 17:20:35.433585	140.4	19.8	-78.2	8.6
2026-01-27 17:20:37.680728	140.2	20.1	-78.4	9.0
2026-01-27 17:20:39.931366	140.1	20.4	-77.5	8.3
2026-01-27 17:20:42.183314	139.9	20.7	-78.2	7.4
2026-01-27 17:20:44.432512	139.8	21.0	-78.1	8.6
2026-01-27 17:20:46.681476	139.6	21.3	-78.1	8.3
2026-01-27 17:20:48.928129	139.4	21.6	-78.0	7.4
2026-01-27 17:20:51.177344	139.3	21.9	-77.9	8.4
2026-01-27 17:20:53.424188	139.1	22.2	-78.1	7.7
2026-01-27 17:20:55.669901	138.9	22.6	-77.7	8.7
2026-01-27 17:20:57.916564	138.7	22.9	-77.5	7.6
2026-01-27 17:21:00.165266	138.6	23.2	-78.0	9.3
2026-01-27 17:21:02.415579	138.4	23.5	-77.8	8.4
2026-01-27 17:21:04.664406	138.2	23.8	-77.8	9.9
2026-01-27 17:21:06.912336	138.0	24.2	-77.7	9.1
2026-01-27 17:21:09.162039	137.8	24.5	-77.6	9.6
2026-01-27 17:21:11.409888	137.6	24.9	-77.4	9.8
2026-01-27 17:21:13.657416	137.4	25.2	-77.8	10.5
2026-01-27 17:21:15.908831	137.1	25.6	-77.3	10.1
2026-01-27 17:21:18.155665	136.9	25.9	-77.6	10.3
2026-01-27 17:21:20.401699	136.7	26.3	-77.3	10.4
2026-01-27 17:21:22.651269	136.5	26.6	-77.7	9.6
2026-01-27 17:21:24.899880	136.2	27.0	-77.5	9.9
2026-01-27 17:21:27.143081	136.0	27.4	-77.8	9.6
2026-01-27 17:21:29.392987	135.7	27.7	-77.9	10.4
2026-01-27 17:21:31.641526	135.5	28.1	-77.3	9.5
2026-01-27 17:21:33.889237	135.2	28.5	-77.6	10.6
2026-01-27 17:21:36.137073	135.0	28.9	-77.6	10.6
2026-01-27 17:21:38.385940	134.7	29.3	-77.7	11.0
2026-01-27 17:21:40.633035	134.4	29.7	-77.6	11.4
2026-01-27 17:21:42.879161	134.1	30.1	-77.4	11.8
2026-01-27 17:21:45.128834	133.8	30.5	-77.2	10.0
2026-01-27 17:21:47.376723	133.5	30.9	-77.7	10.7
2026-01-27 17:21:49.624327	133.2	31.3	-77.8	10.4
2026-01-27 17:21:51.871669	132.9	31.8	-77.6	10.9
2026-01-27 17:21:54.121358	132.6	32.2	-77.2	10.2
2026-01-27 17:21:56.367795	132.2	32.6	-77.7	9.6
2026-01-27 17:21:58.617097	131.9	33.1	-77.9	9.3
2026-01-27 17:22:00.864574	131.5	33.5	-77.5	9.5
2026-01-27 17:22:03.111905	131.2	34.0	-77.1	9.3
2026-01-27 17:22:05.356933	130.8	34.4	-77.9	9.6
2026-01-27 17:22:07.604896	130.4	34.9	-77.7	9.2
2026-01-27 17:22:09.855524	130.0	35.3	-77.2	8.5
2026-01-27 17:22:12.102209	129.6	35.8	-77.7	9.4
2026-01-27 17:22:14.350871	129.2	36.3	-77.5	4.8
2026-01-27 17:22:16.598890	128.7	36.8	-77.5	9.3
2026-01-27 17:22:18.847646	128.3	37.3	-77.0	7.3
2026-01-27 17:22:21.096937	127.8	37.8	-78.0	9.1
2026-01-27 17:22:23.344358	127.3	38.2	-76.9	6.8
2026-01-27 17:22:25.591470	126.8	38.8	-77.2	8.7
2026-01-27 17:22:27.838070	126.3	39.3	-77.1	7.4
2026-01-27 17:22:30.084938	125.8	39.8	-77.1	7.7
2026-01-27 17:22:32.334449	125.3	40.3	-77.4	8.8
2026-01-27 17:22:34.582840	124.7	40.8	-76.3	4.0
2026-01-27 17:22:36.829957	124.1	41.3	-76.9	8.5
2026-01-27 17:22:39.082278	123.5	41.9	-76.9	8.8
2026-01-27 17:22:41.329974	122.9	42.4	-76.8	8.9
2026-01-27 17:22:43.574185	122.3	42.9	-74.7	3.2
2026-01-27 17:22:45.821922	121.6	43.5	-74.6	3.9
2026-01-27 17:22:48.068682	120.9	44.0	-75.4	4.4
2026-01-27 17:22:50.316050	120.2	44.6	-75.2	4.0
2026-01-27 17:22:52.561932	119.5	45.1	-77.2	7.0
2026-01-27 17:22:54.812308	118.7	45.7	-76.5	3.6
2026-01-27 17:22:57.057484	117.9	46.2	-75.9	4.2
2026-01-27 17:22:59.303374	117.1	46.8	-74.6	2.9
2026-01-27 17:23:01.551226	116.3	47.3	-75.4	3.1
2026-01-27 17:23:03.799498	115.4	47.9	-75.7	4.7
2026-01-27 17:23:06.047969	114.5	48.5	-75.0	4.0
2026-01-27 17:23:08.296035	113.5	49.0	-75.6	3.7
2026-01-27 17:23:10.543910	112.6	49.6	-75.1	5.1
2026-01-27 17:23:12.789654	111.6	50.1	-74.9	2.0
2026-01-27 17:23:15.038658	110.5	50.7	-75.7	4.6
2026-01-27 17:23:17.286054	109.4	51.2	-76.1	3.8
2026-01-27 17:23:19.533546	108.3	51.8	-75.9	2.6
2026-01-27 17:23:21.781320	107.1	52.3	-76.9	2.3
2026-01-27 17:23:24.027678	105.9	52.8	-76.2	2.2
2026-01-27 17:23:26.277303	104.6	53.3	-77.6	2.8
2026-01-27 17:23:28.525419	103.3	53.8	-76.6	3.7
2026-01-27 17:23:30.775341	102.0	54.3	-76.4	3.1
2026-01-27 17:23:33.025040	100.6	54.8	-75.6	1.9
2026-01-27 17:23:35.270948	99.1	55.3	-76.5	2.9
2026-01-27 17:23:37.519503	97.6	55.8	-76.5	3.0
2026-01-27 17:23:39.766076	96.1	56.2	-76.1	1.1
2026-01-27 17:23:42.016455	94.5	56.6	-76.0	0.0
2026-01-27 17:23:44.265333	92.9	57.0	-75.4	0.0
2026-01-27 17:23:46.512653	91.2	57.4	-76.1	0.0
2026-01-27 17:23:48.759904	89.4	57.8	-75.2	0.0
2026-01-27 17:23:51.004834	87.7	58.1	-76.3	0.0
2026-01-27 17:23:53.254263	85.8	58.4	-74.8	0.0
2026-01-27 17:23:55.499484	84.0	58.7	-74.7	0.0
2026-01-27 17:23:57.747880	82.1	59.0	-74.4	0.0
2026-01-27 17:23:59.995363	80.1	59.2	-74.7	0.0
2026-01-27 17:24:02.243956	78.1	59.4	-74.2	0.0
2026-01-27 17:24:04.493363	76.1	59.6	-74.9	0.0
2026-01-27 17:24:06.737858	74.1	59.7	-75.3	0.0
2026-01-27 17:24:08.983364	72.1	59.8	-74.4	0.0
2026-01-27 17:24:11.233372	70.0	59.9	-74.0	0.0
2026-01-27 17:24:13.482121	67.9	59.9	-76.5	0.0
2026-01-27 17:24:15.730794	65.9	59.9	-75.3	0.6
2026-01-27 17:24:17.977410	63.8	59.9	-75.7	0.4
2026-01-27 17:24:20.222836	61.7	59.8	-74.5	0.1
2026-01-27 17:24:22.470638	59.7	59.8	-74.6	0.0
2026-01-27 17:24:24.720843	57.6	59.6	-75.2	0.0
2026-01-27 17:24:26.969991	55.6	59.5	-74.0	0.0
2026-01-27 17:24:29.217888	53.6	59.3	-74.4	0.0
2026-01-27 17:24:31.466510	51.7	59.1	-74.3	0.0
2026-01-27 17:24:33.712049	49.8	58.8	-74.7	0.0
2026-01-27 17:24:35.959288	47.9	58.5	-73.9	0.0
2026-01-27 17:24:38.204769	46.1	58.2	-75.0	2.5
2026-01-27 17:24:40.450003	44.3	57.9	-73.8	0.8
2026-01-27 17:24:42.695490	42.5	57.5	-74.5	0.0
2026-01-27 17:24:44.943955	40.8	57.2	-74.4	0.0
2026-01-27 17:24:47.192121	39.2	56.8	-75.0	1.9
2026-01-27 17:24:49.440757	37.6	56.3	-74.2	0.9
2026-01-27 17:24:51.688125	36.0	55.9	-75.0	0.0
2026-01-27 17:24:53.938343	34.5	55.5	-75.1	0.5
2026-01-27 17:24:56.185947	33.0	55.0	-75.9	0.9
2026-01-27 17:24:58.434823	31.6	54.5	-75.5	0.0
2026-01-27 17:25:00.681501	30.3	54.0	-76.1	1.0
2026-01-27 17:25:02.932349	28.9	53.5	-77.3	3.8
2026-01-27 17:25:05.179505	27.7	53.0	-77.7	6.9
2026-01-27 17:25:07.425242	26.4	52.5	-77.0	3.0
2026-01-27 17:25:09.670935	25.3	51.9	-76.2	2.3
2026-01-27 17:25:11.919485	24.1	51.4	-77.0	4.3
2026-01-27 17:25:14.165513	23.0	50.9	-77.3	3.7
2026-01-27 17:25:16.411925	22.0	50.3	-76.5	3.4
2026-01-27 17:25:18.660890	20.9	49.8	-76.3	2.9
2026-01-27 17:25:20.908218	20.0	49.2	-76.0	1.7
2026-01-27 17:25:23.156464	19.0	48.7	-75.2	1.4
2026-01-27 17:25:25.402870	18.1	48.1	-75.5	3.3
2026-01-27 17:25:27.650419	17.2	47.6	-73.5	0.0
2026-01-27 17:25:29.897265	16.3	47.0	-72.9	0.0
2026-01-27 17:25:32.145299	15.5	46.4	-75.1	3.3
2026-01-27 17:25:34.391213	14.7	45.9	-74.6	1.7
2026-01-27 17:25:36.637844	14.0	45.3	-74.3	0.7
2026-01-27 17:25:38.884298	13.2	44.8	-72.5	0.0
2026-01-27 17:25:41.130375	12.5	44.2	-72.6	1.2
2026-01-27 17:25:43.378037	11.8	43.7	-72.7	0.0
2026-01-27 17:25:45.628027	11.2	43.2	-72.9	1.0
2026-01-27 17:25:47.876313	10.5	42.6	-72.6	0.0
2026-01-27 17:25:50.122973	9.9	42.1	-72.8	0.0
2026-01-27 17:25:52.369325	9.3	41.6	-73.1	0.0
2026-01-27 17:25:54.616853	8.7	41.0	-71.6	0.0
2026-01-27 17:25:56.862104	8.1	40.5	-70.3	0.0
2026-01-27 17:25:59.109924	7.6	40.0	-72.3	0.0
2026-01-27 17:26:01.354369	7.1	39.5	-71.2	0.0
2026-01-27 17:26:03.601855	6.5	39.0	-65.4	0.0
2026-01-27 17:26:05.849669	6.0	38.5	-70.7	0.0
2026-01-27 17:26:08.098164	5.6	38.0	-71.1	0.0
2026-01-27 17:26:10.347503	5.1	37.5	-70.6	0.0
2026-01-27 17:26:12.591830	4.6	37.0	-68.7	0.0
2026-01-27 17:26:14.841236	4.2	36.5	-68.3	0.0
2026-01-27 17:26:17.087023	3.8	36.0	-68.8	0.0
2026-01-27 17:26:19.335021	3.4	35.6	-70.1	0.0
2026-01-27 17:26:21.585231	3.0	35.1	-69.8	0.0
2026-01-27 17:26:23.830213	2.6	34.6	-70.3	0.0
2026-01-27 17:26:26.074238	2.2	34.2	-68.6	0.0
2026-01-27 17:26:28.322405	1.8	33.7	-68.0	0.0
2026-01-27 17:26:30.569557	1.5	33.3	-69.0	0.0
2026-01-27 17:26:32.816255	1.1	32.9	-68.4	0.0
2026-01-27 17:26:35.064062	0.8	32.4	-69.1	0.0
2026-01-27 17:26:37.311751	0.5	32.0	-66.5	0.0
2026-01-27 17:26:39.561277	0.1	31.6	-63.1	0.0
2026-01-27 17:26:41.807429	359.8	31.1	-68.1	0.0
2026-01-27 17:26:44.053478	359.5	30.7	-69.6	0.0
2026-01-27 17:26:46.303357	359.2	30.3	-69.7	0.0
2026-01-27 17:26:48.549996	358.9	29.9	-69.2	0.0
2026-01-27 17:26:50.796344	358.6	29.5	-69.7	0.0
2026-01-27 17:26:53.044588	358.4	29.1	-69.4	0.0
2026-01-27 17:26:55.293595	358.1	28.7	-69.5	0.0
2026-01-27 17:26:57.545120	357.8	28.3	-70.0	0.0
2026-01-27 17:26:59.793677	357.6	28.0	-69.0	0.0
2026-01-27 17:27:02.041239	357.3	27.6	-69.0	0.0
2026-01-27 17:27:04.287722	357.1	27.2	-68.8	0.0
2026-01-27 17:27:06.536114	356.9	26.9	-68.2	0.0
2026-01-27 17:27:08.779398	356.6	26.5	-70.0	0.0
2026-01-27 17:27:11.027976	356.4	26.1	-68.1	0.0
2026-01-27 17:27:13.275072	356.2	25.8	-69.9	0.0
2026-01-27 17:27:15.522906	356.0	25.4	-62.9	0.0
2026-01-27 17:27:17.773248	355.8	25.1	-70.3	0.0
2026-01-27 17:27:20.020780	355.6	24.7	-66.8	0.0
2026-01-27 17:27:22.266623	355.3	24.4	-68.0	0.0
2026-01-27 17:27:24.512159	355.2	24.1	-70.6	0.0
2026-01-27 17:27:26.761955	355.0	23.7	-67.1	0.0
2026-01-27 17:27:29.008982	354.8	23.4	-68.7	0.0
2026-01-27 17:27:31.252160	354.6	23.1	-68.6	0.0
2026-01-27 17:27:33.498849	354.4	22.8	-69.0	0.0
2026-01-27 17:27:35.745417	354.2	22.5	-68.8	0.0
2026-01-27 17:27:37.994322	354.1	22.2	-68.3	0.0
2026-01-27 17:27:40.241936	353.9	21.8	-69.6	0.0
2026-01-27 17:27:42.490068	353.7	21.5	-69.5	0.0
2026-01-27 17:27:44.739777	353.6	21.2	-69.2	0.0
2026-01-27 17:27:46.986272	353.4	20.9	-67.0	0.0
2026-01-27 17:27:49.236769	353.2	20.6	-70.2	0.0
2026-01-27 17:27:51.485043	353.1	20.4	-67.3	0.0
2026-01-27 17:27:53.731136	352.9	20.1	-69.0	0.0
2026-01-27 17:27:55.976311	352.8	19.8	-69.5	0.0
2026-01-27 17:27:58.223100	352.6	19.5	-71.2	0.0
2026-01-27 17:28:00.467646	352.5	19.2	-71.9	0.0
2026-01-27 17:28:02.714141	352.4	18.9	-68.5	0.0
2026-01-27 17:28:04.962058	352.2	18.7	-69.5	0.0
2026-01-27 17:28:07.209429	352.1	18.4	-70.5	0.0
2026-01-27 17:28:09.456674	352.0	18.1	-70.5	0.0
2026-01-27 17:28:11.702172	351.8	17.9	-70.5	0.0
2026-01-27 17:28:13.949240	351.7	17.6	-72.6	0.0
2026-01-27 17:28:16.197556	351.6	17.4	-71.1	0.0
2026-01-27 17:28:18.442183	351.5	17.1	-71.9	0.0
2026-01-27 17:28:20.690856	351.3	16.8	-72.0	0.0
2026-01-27 17:28:22.939757	351.2	16.6	-71.2	0.0
2026-01-27 17:28:25.188011	351.1	16.3	-69.7	0.0
2026-01-27 17:28:27.435427	351.0	16.1	-69.4	0.0
2026-01-27 17:28:29.685639	350.9	15.8	-70.8	0.0
2026-01-27 17:28:31.930526	350.8	15.6	-71.5	0.0
2026-01-27 17:28:34.182674	350.7	15.4	-71.9	0.0
2026-01-27 17:28:36.428750	350.6	15.1	-71.8	0.0
2026-01-27 17:28:38.674441	350.5	14.9	-71.6	0.0
2026-01-27 17:28:40.921620	350.4	14.7	-71.6	0.0
2026-01-27 17:28:43.171703	350.3	14.4	-72.1	0.0
2026-01-27 17:28:45.418133	350.2	14.2	-71.0	0.0
2026-01-27 17:28:47.667526	350.1	14.0	-72.3	0.0
2026-01-27 17:28:49.914536	350.0	13.8	-70.9	0.0
2026-01-27 17:28:52.165628	349.9	13.5	-70.9	0.0
2026-01-27 17:28:54.413473	349.8	13.3	-73.3	0.0
2026-01-27 17:28:56.658997	349.7	13.1	-73.8	0.0
2026-01-27 17:28:58.908128	349.6	12.9	-73.4	0.0
2026-01-27 17:29:01.156608	349.5	12.7	-73.4	0.0
2026-01-27 17:29:03.404513	349.4	12.4	-72.3	0.0
2026-01-27 17:29:05.653497	349.3	12.2	-72.1	0.0
2026-01-27 17:29:07.899824	349.3	12.0	-69.1	0.0
2026-01-27 17:29:10.151238	349.2	11.8	-69.5	0.0
2026-01-27 17:29:12.399873	349.1	11.6	-71.5	0.0
2026-01-27 17:29:14.648584	349.0	11.4	-73.2	0.0
2026-01-27 17:29:16.897261	348.9	11.2	-71.0	0.0
2026-01-27 17:29:19.145338	348.9	11.0	-72.1	0.0
2026-01-27 17:29:21.391151	348.8	10.8	-70.3	0.0
2026-01-27 17:29:23.637188	348.7	10.6	-68.1	0.0
2026-01-27 17:29:25.887528	348.6	10.4	-71.3	0.0
2026-01-27 17:29:28.133251	348.6	10.2	-70.8	0.0
#Closed at: 2026-01-27 17:18:56.120226