passes_logs/2026/01/27/planumMaritime01/planumMaritime01__20260127_003824_METEOR-M2_4_rec.log

#Pass ID: 20260127_003824_METEOR-M2 4
#Satellite: METEOR-M2 4
#Configuration: METEOR-M2 4
#Start time: 2026-01-27 00:38:29.118989

#LorettStation: 1.0.0 05.05.2024
#Station: planumMaritime01
#Location: 37.49445 lon 55.92918 lat
#TLE: 1 59051U 24039A   26026.51377740  .00000074  00000+0  52756-4 0  9997
#TLE: 2 59051  98.6831 347.7355 0006350 213.0382 147.0400 14.22409886 99125

#Time	Az	El	Level	SNR
2026-01-27 00:38:31.285217	21.5	10.2	-75.6	0.0
2026-01-27 00:38:33.553924	21.6	10.4	-70.7	0.0
2026-01-27 00:38:35.829897	21.6	10.6	-70.0	0.0
2026-01-27 00:38:38.106204	21.7	10.8	-70.2	0.0
2026-01-27 00:38:40.379968	21.8	11.0	-71.1	0.0
2026-01-27 00:38:42.655876	21.9	11.2	-68.1	0.0
2026-01-27 00:38:44.930153	22.0	11.4	-70.2	0.0
2026-01-27 00:38:47.196575	22.1	11.6	-70.9	0.0
2026-01-27 00:38:49.467867	22.2	11.8	-72.7	0.0
2026-01-27 00:38:51.736770	22.3	12.0	-71.4	0.0
2026-01-27 00:38:54.007526	22.4	12.2	-72.4	0.0
2026-01-27 00:38:56.275658	22.5	12.4	-70.1	0.0
2026-01-27 00:38:58.543376	22.6	12.6	-68.8	0.0
2026-01-27 00:39:00.814130	22.7	12.8	-71.6	0.0
2026-01-27 00:39:03.079940	22.8	13.1	-70.6	0.0
2026-01-27 00:39:05.348455	22.9	13.3	-71.8	0.0
2026-01-27 00:39:07.620230	23.0	13.5	-71.1	0.0
2026-01-27 00:39:09.890258	23.1	13.7	-71.1	0.0
2026-01-27 00:39:12.158378	23.2	13.9	-71.6	0.0
2026-01-27 00:39:14.429132	23.3	14.2	-71.0	0.0
2026-01-27 00:39:16.694230	23.4	14.4	-72.3	0.0
2026-01-27 00:39:18.956534	23.5	14.6	-71.9	0.0
2026-01-27 00:39:21.227811	23.6	14.9	-68.9	0.0
2026-01-27 00:39:23.502378	23.8	15.1	-68.2	0.0
2026-01-27 00:39:25.782574	23.9	15.3	-70.0	0.0
2026-01-27 00:39:28.060129	24.0	15.6	-70.2	0.0
2026-01-27 00:39:30.334432	24.1	15.8	-70.9	0.0
2026-01-27 00:39:32.609639	24.2	16.1	-69.9	0.0
2026-01-27 00:39:34.883789	24.4	16.3	-67.8	0.0
2026-01-27 00:39:37.160858	24.5	16.6	-69.4	0.0
2026-01-27 00:39:39.436231	24.6	16.8	-69.8	0.0
2026-01-27 00:39:41.712889	24.7	17.1	-70.1	0.0
2026-01-27 00:39:43.979058	24.9	17.3	-68.2	0.0
2026-01-27 00:39:46.244254	25.0	17.6	-71.1	0.0
2026-01-27 00:39:48.508997	25.1	17.8	-70.5	0.0
2026-01-27 00:39:50.773426	25.3	18.1	-70.4	0.0
2026-01-27 00:39:53.039375	25.4	18.4	-70.3	0.0
2026-01-27 00:39:55.303638	25.6	18.6	-69.7	0.0
2026-01-27 00:39:57.569301	25.7	18.9	-66.6	0.0
2026-01-27 00:39:59.836150	25.9	19.2	-69.9	0.0
2026-01-27 00:40:02.102423	26.0	19.5	-69.6	0.0
2026-01-27 00:40:04.375945	26.2	19.8	-70.2	0.0
2026-01-27 00:40:06.647455	26.3	20.0	-68.8	0.0
2026-01-27 00:40:08.924833	26.5	20.3	-66.5	0.0
2026-01-27 00:40:11.200393	26.6	20.6	-69.5	0.0
2026-01-27 00:40:13.474169	26.8	20.9	-70.7	0.0
2026-01-27 00:40:15.749936	27.0	21.2	-71.6	0.0
2026-01-27 00:40:18.028234	27.1	21.5	-69.8	0.0
2026-01-27 00:40:20.302671	27.3	21.8	-70.9	0.0
2026-01-27 00:40:22.575962	27.5	22.1	-71.4	0.0
2026-01-27 00:40:24.844394	27.7	22.4	-71.2	0.0
2026-01-27 00:40:27.109494	27.8	22.8	-68.8	0.0
2026-01-27 00:40:29.382271	28.0	23.1	-71.0	0.0
2026-01-27 00:40:31.649826	28.2	23.4	-69.0	0.0
2026-01-27 00:40:33.920466	28.4	23.7	-69.5	0.0
2026-01-27 00:40:36.189082	28.6	24.1	-72.3	0.0
2026-01-27 00:40:38.452631	28.8	24.4	-73.2	0.0
2026-01-27 00:40:40.715961	29.0	24.7	-72.6	0.0
2026-01-27 00:40:42.987860	29.2	25.1	-72.1	0.0
2026-01-27 00:40:45.261888	29.5	25.4	-73.4	0.0
2026-01-27 00:40:47.532927	29.7	25.8	-73.7	0.0
2026-01-27 00:40:49.802832	29.9	26.1	-71.9	0.0
2026-01-27 00:40:52.072099	30.1	26.5	-72.4	0.0
2026-01-27 00:40:54.340334	30.4	26.8	-71.1	0.0
2026-01-27 00:40:56.612445	30.6	27.2	-72.8	0.0
2026-01-27 00:40:58.880569	30.8	27.6	-72.5	0.0
2026-01-27 00:41:01.158697	31.1	28.0	-74.6	0.0
2026-01-27 00:41:03.432800	31.4	28.3	-73.0	0.0
2026-01-27 00:41:05.704982	31.6	28.7	-73.8	0.0
2026-01-27 00:41:07.976716	31.9	29.1	-74.5	2.5
2026-01-27 00:41:10.254382	32.2	29.5	-74.3	1.0
2026-01-27 00:41:12.524317	32.4	29.9	-74.0	4.1
2026-01-27 00:41:14.792982	32.7	30.3	-74.0	1.7
2026-01-27 00:41:17.062468	33.0	30.7	-74.2	5.9
2026-01-27 00:41:19.329381	33.3	31.2	-74.0	2.5
2026-01-27 00:41:21.596752	33.6	31.6	-74.5	4.6
2026-01-27 00:41:23.866035	34.0	32.0	-75.6	4.8
2026-01-27 00:41:26.135577	34.3	32.4	-76.0	5.9
2026-01-27 00:41:28.411344	34.6	32.9	-75.8	6.8
2026-01-27 00:41:30.687835	35.0	33.3	-75.8	6.8
2026-01-27 00:41:32.960933	35.3	33.8	-75.9	6.3
2026-01-27 00:41:35.237362	35.7	34.2	-76.2	8.0
2026-01-27 00:41:37.514057	36.1	34.7	-76.5	5.8
2026-01-27 00:41:39.789708	36.5	35.2	-74.9	2.5
2026-01-27 00:41:42.065092	36.9	35.6	-76.1	8.1
2026-01-27 00:41:44.339881	37.3	36.1	-76.2	9.1
2026-01-27 00:41:46.620700	37.7	36.6	-76.8	8.0
2026-01-27 00:41:48.895635	38.1	37.1	-76.7	9.7
2026-01-27 00:41:51.173963	38.6	37.6	-76.4	9.3
2026-01-27 00:41:53.444784	39.0	38.1	-77.3	9.6
2026-01-27 00:41:55.713938	39.5	38.6	-75.9	5.1
2026-01-27 00:41:57.985059	40.0	39.1	-74.7	5.0
2026-01-27 00:42:00.252879	40.5	39.6	-77.8	9.7
2026-01-27 00:42:02.518921	41.0	40.1	-77.7	6.4
2026-01-27 00:42:04.787612	41.6	40.7	-76.9	6.2
2026-01-27 00:42:07.056465	42.1	41.2	-78.0	11.2
2026-01-27 00:42:09.325686	42.7	41.7	-77.2	10.3
2026-01-27 00:42:11.593629	43.3	42.3	-77.4	10.1
2026-01-27 00:42:13.866898	43.9	42.8	-77.6	8.1
2026-01-27 00:42:16.148057	44.5	43.4	-77.2	9.6
2026-01-27 00:42:18.424045	45.2	43.9	-77.4	10.2
2026-01-27 00:42:20.699299	45.9	44.5	-77.6	8.2
2026-01-27 00:42:22.975075	46.6	45.0	-76.6	8.0
2026-01-27 00:42:25.250259	47.3	45.6	-77.2	8.7
2026-01-27 00:42:27.525197	48.0	46.2	-76.6	6.0
2026-01-27 00:42:29.803056	48.8	46.8	-77.7	8.6
2026-01-27 00:42:32.074614	49.6	47.3	-77.9	7.1
2026-01-27 00:42:34.342434	50.5	47.9	-78.4	6.8
2026-01-27 00:42:36.618525	51.3	48.5	-76.3	4.8
2026-01-27 00:42:38.891452	52.3	49.1	-77.4	3.8
2026-01-27 00:42:41.167563	53.2	49.6	-78.2	5.3
2026-01-27 00:42:43.446531	54.2	50.2	-77.8	8.2
2026-01-27 00:42:45.722727	55.2	50.8	-77.0	3.3
2026-01-27 00:42:47.998958	56.2	51.4	-78.0	6.1
2026-01-27 00:42:50.274931	57.3	51.9	-76.9	5.5
2026-01-27 00:42:52.550023	58.5	52.5	-75.4	1.6
2026-01-27 00:42:54.818043	59.7	53.1	-77.7	4.5
2026-01-27 00:42:57.091712	60.9	53.6	-77.8	6.7
2026-01-27 00:42:59.359734	62.1	54.2	-77.9	6.4
2026-01-27 00:43:01.626665	63.5	54.7	-76.8	2.9
2026-01-27 00:43:03.896439	64.8	55.2	-77.8	3.1
2026-01-27 00:43:06.172207	66.3	55.7	-78.1	4.6
2026-01-27 00:43:08.445554	67.7	56.2	-75.7	0.0
2026-01-27 00:43:10.718722	69.3	56.7	-78.3	3.8
2026-01-27 00:43:12.993751	70.8	57.2	-78.3	5.9
2026-01-27 00:43:15.268321	72.5	57.7	-78.5	7.1
2026-01-27 00:43:17.537337	74.2	58.1	-78.4	5.7
2026-01-27 00:43:19.806778	75.9	58.5	-78.2	6.6
2026-01-27 00:43:22.081723	77.7	58.9	-79.1	4.7
2026-01-27 00:43:24.351051	79.6	59.3	-78.9	3.6
2026-01-27 00:43:26.623622	81.5	59.6	-78.9	6.1
2026-01-27 00:43:28.902703	83.4	59.9	-77.1	0.0
2026-01-27 00:43:31.179666	85.4	60.2	-79.4	5.0
2026-01-27 00:43:33.454526	87.5	60.5	-78.3	3.0
2026-01-27 00:43:35.728402	89.5	60.7	-79.6	6.9
2026-01-27 00:43:38.005677	91.7	60.9	-78.7	8.3
2026-01-27 00:43:40.281364	93.8	61.0	-79.5	8.3
2026-01-27 00:43:42.555734	96.0	61.2	-79.5	7.3
2026-01-27 00:43:44.831163	98.2	61.3	-78.0	3.4
2026-01-27 00:43:47.103434	100.4	61.3	-79.4	7.7
2026-01-27 00:43:49.370232	102.6	61.3	-80.0	9.3
2026-01-27 00:43:51.626149	104.8	61.3	-80.0	8.0
2026-01-27 00:43:53.879351	107.0	61.3	-79.9	9.3
2026-01-27 00:43:56.131547	109.1	61.2	-78.6	4.0
2026-01-27 00:43:58.386093	111.3	61.0	-79.1	10.1
2026-01-27 00:44:00.641221	113.4	60.9	-79.8	11.0
2026-01-27 00:44:02.893607	115.5	60.7	-79.8	9.7
2026-01-27 00:44:05.147671	117.6	60.4	-80.5	9.5
2026-01-27 00:44:07.398946	119.6	60.2	-81.0	10.2
2026-01-27 00:44:09.648727	121.6	59.9	-81.1	10.0
2026-01-27 00:44:11.900842	123.5	59.6	-81.0	9.6
2026-01-27 00:44:14.152068	125.4	59.2	-81.8	8.0
2026-01-27 00:44:16.402421	127.2	58.9	-81.3	8.3
2026-01-27 00:44:18.654215	129.0	58.5	-81.2	10.3
2026-01-27 00:44:20.905303	130.7	58.1	-81.1	9.9
2026-01-27 00:44:23.156630	132.4	57.6	-81.0	11.0
2026-01-27 00:44:25.406075	134.0	57.2	-81.0	10.9
2026-01-27 00:44:27.656721	135.6	56.7	-81.0	10.5
2026-01-27 00:44:29.907652	137.1	56.2	-81.1	11.6
2026-01-27 00:44:32.161652	138.6	55.7	-81.3	10.5
2026-01-27 00:44:34.411651	140.0	55.2	-81.4	11.0
2026-01-27 00:44:36.664421	141.3	54.7	-81.2	11.3
2026-01-27 00:44:38.928353	142.7	54.2	-81.1	11.3
2026-01-27 00:44:41.189300	143.9	53.6	-80.9	10.4
2026-01-27 00:44:43.453742	145.2	53.1	-81.1	11.3
2026-01-27 00:44:45.730191	146.4	52.5	-80.9	11.5
2026-01-27 00:44:48.003182	147.5	51.9	-80.6	12.5
2026-01-27 00:44:50.279365	148.6	51.3	-80.6	12.7
2026-01-27 00:44:52.549736	149.6	50.8	-80.0	12.4
2026-01-27 00:44:54.825151	150.7	50.2	-80.3	13.4
2026-01-27 00:44:57.097870	151.6	49.6	-79.9	13.2
2026-01-27 00:44:59.371503	152.6	49.0	-80.1	13.4
2026-01-27 00:45:01.635981	153.5	48.5	-79.9	12.8
2026-01-27 00:45:03.907668	154.4	47.9	-80.2	13.4
2026-01-27 00:45:06.183097	155.2	47.3	-80.2	12.7
2026-01-27 00:45:08.458022	156.0	46.7	-80.2	13.1
2026-01-27 00:45:10.733347	156.8	46.1	-80.2	13.4
2026-01-27 00:45:13.009519	157.6	45.6	-80.4	13.2
2026-01-27 00:45:15.287941	158.3	45.0	-80.3	13.4
2026-01-27 00:45:17.562500	159.0	44.4	-80.5	13.8
2026-01-27 00:45:19.829485	159.7	43.9	-80.3	13.6
2026-01-27 00:45:22.095846	160.3	43.3	-80.4	13.4
2026-01-27 00:45:24.364271	161.0	42.8	-80.6	14.0
2026-01-27 00:45:26.629954	161.6	42.2	-79.5	11.6
2026-01-27 00:45:28.898995	162.2	41.7	-79.5	11.7
2026-01-27 00:45:31.165422	162.8	41.1	-79.2	11.8
2026-01-27 00:45:33.431886	163.3	40.6	-79.4	11.5
2026-01-27 00:45:35.697906	163.9	40.1	-79.4	11.5
2026-01-27 00:45:37.973216	164.4	39.5	-79.2	11.6
2026-01-27 00:45:40.250620	164.9	39.0	-79.0	11.8
2026-01-27 00:45:42.521375	165.4	38.5	-78.9	11.6
2026-01-27 00:45:44.796207	165.8	38.0	-78.6	12.3
2026-01-27 00:45:47.073047	166.3	37.5	-78.7	12.2
2026-01-27 00:45:49.345722	166.8	37.0	-78.6	11.7
2026-01-27 00:45:51.615368	167.2	36.5	-78.5	10.9
2026-01-27 00:45:53.890743	167.6	36.0	-78.4	10.8
2026-01-27 00:45:56.166507	168.0	35.5	-78.3	11.4
2026-01-27 00:45:58.439865	168.4	35.0	-78.3	11.6
2026-01-27 00:46:00.712404	168.8	34.6	-78.3	11.2
2026-01-27 00:46:02.987557	169.2	34.1	-78.4	11.2
2026-01-27 00:46:05.258947	169.5	33.7	-78.3	11.6
2026-01-27 00:46:07.531007	169.9	33.2	-78.1	10.9
2026-01-27 00:46:09.802656	170.3	32.8	-78.1	10.9
2026-01-27 00:46:12.071744	170.6	32.3	-78.0	10.5
2026-01-27 00:46:14.340920	170.9	31.9	-77.8	11.2
2026-01-27 00:46:16.612782	171.2	31.4	-78.3	11.4
2026-01-27 00:46:18.887507	171.5	31.0	-78.0	11.7
2026-01-27 00:46:21.157150	171.9	30.6	-78.1	11.5
2026-01-27 00:46:23.429762	172.1	30.2	-77.9	11.5
2026-01-27 00:46:25.708893	172.4	29.8	-77.5	11.2
2026-01-27 00:46:27.984269	172.7	29.4	-77.8	11.3
2026-01-27 00:46:30.260635	173.0	29.0	-77.7	11.2
2026-01-27 00:46:32.536522	173.3	28.6	-77.7	11.2
2026-01-27 00:46:34.815148	173.5	28.2	-77.9	10.7
2026-01-27 00:46:37.090809	173.8	27.8	-77.7	11.9
2026-01-27 00:46:39.361783	174.0	27.4	-77.4	11.5
2026-01-27 00:46:41.626114	174.3	27.0	-78.2	9.8
2026-01-27 00:46:43.892819	174.5	26.7	-77.8	10.6
2026-01-27 00:46:46.156217	174.8	26.3	-77.0	11.2
2026-01-27 00:46:48.422382	175.0	25.9	-77.6	10.6
2026-01-27 00:46:50.688928	175.2	25.6	-77.6	10.6
2026-01-27 00:46:52.956060	175.4	25.2	-77.6	9.7
2026-01-27 00:46:55.220481	175.6	24.9	-77.8	10.6
2026-01-27 00:46:57.486701	175.8	24.5	-78.1	9.6
2026-01-27 00:46:59.756354	176.1	24.2	-78.1	10.4
2026-01-27 00:47:02.031494	176.3	23.9	-78.1	10.3
2026-01-27 00:47:04.303654	176.5	23.5	-78.0	9.5
2026-01-27 00:47:06.581036	176.6	23.2	-78.5	9.9
2026-01-27 00:47:08.853642	176.8	22.9	-78.2	9.6
2026-01-27 00:47:11.127463	177.0	22.6	-78.3	9.1
2026-01-27 00:47:13.397196	177.2	22.2	-78.3	10.4
2026-01-27 00:47:15.665870	177.4	21.9	-78.3	10.2
2026-01-27 00:47:17.935615	177.6	21.6	-78.4	9.2
2026-01-27 00:47:20.204759	177.7	21.3	-78.2	10.5
2026-01-27 00:47:22.473839	177.9	21.0	-78.5	10.7
2026-01-27 00:47:24.739847	178.1	20.7	-78.3	10.9
2026-01-27 00:47:27.005605	178.2	20.4	-78.4	11.2
2026-01-27 00:47:29.275702	178.4	20.1	-78.3	10.5
2026-01-27 00:47:31.549927	178.5	19.8	-78.4	11.0
2026-01-27 00:47:33.822530	178.7	19.5	-78.5	9.8
2026-01-27 00:47:36.096050	178.9	19.3	-78.6	10.2
2026-01-27 00:47:38.370135	179.0	19.0	-78.5	10.4
2026-01-27 00:47:40.644581	179.1	18.7	-78.7	10.2
2026-01-27 00:47:42.917414	179.3	18.4	-78.9	9.9
2026-01-27 00:47:45.193112	179.4	18.1	-78.8	10.2
2026-01-27 00:47:47.467564	179.6	17.9	-79.0	9.5
2026-01-27 00:47:49.740313	179.7	17.6	-79.2	9.9
2026-01-27 00:47:52.015795	179.8	17.3	-79.3	9.4
2026-01-27 00:47:54.285928	180.0	17.1	-79.0	8.7
2026-01-27 00:47:56.562617	180.1	16.8	-79.2	8.6
2026-01-27 00:47:58.836828	180.2	16.6	-79.1	9.0
2026-01-27 00:48:01.110662	180.4	16.3	-78.6	9.6
2026-01-27 00:48:03.387093	180.5	16.1	-78.8	9.4
2026-01-27 00:48:05.663132	180.6	15.8	-79.1	9.6
2026-01-27 00:48:07.939754	180.7	15.6	-78.8	10.1
2026-01-27 00:48:10.218656	180.8	15.3	-78.9	9.6
2026-01-27 00:48:12.491747	181.0	15.1	-78.9	10.3
2026-01-27 00:48:14.766945	181.1	14.8	-78.8	10.9
2026-01-27 00:48:17.043279	181.2	14.6	-78.7	11.0
2026-01-27 00:48:19.318533	181.3	14.4	-78.7	10.5
2026-01-27 00:48:21.591215	181.4	14.1	-78.8	10.2
2026-01-27 00:48:23.867400	181.5	13.9	-79.0	10.3
2026-01-27 00:48:26.143424	181.6	13.7	-79.1	9.5
2026-01-27 00:48:28.420876	181.7	13.5	-79.3	9.5
2026-01-27 00:48:30.700657	181.8	13.2	-79.0	9.2
2026-01-27 00:48:32.975486	181.9	13.0	-79.0	9.2
2026-01-27 00:48:35.253955	182.0	12.8	-79.5	9.2
2026-01-27 00:48:37.525735	182.1	12.6	-79.3	9.1
2026-01-27 00:48:39.801720	182.2	12.4	-79.5	7.6
2026-01-27 00:48:42.077484	182.3	12.1	-79.1	7.4
2026-01-27 00:48:44.349561	182.4	11.9	-79.3	8.3
2026-01-27 00:48:46.622556	182.5	11.7	-79.4	7.5
2026-01-27 00:48:48.896776	182.6	11.5	-79.4	8.4
2026-01-27 00:48:51.152128	182.7	11.3	-79.3	6.1
2026-01-27 00:48:53.408172	182.8	11.1	-79.4	7.5
2026-01-27 00:48:55.662880	182.9	10.9	-78.0	8.0
2026-01-27 00:48:57.920293	183.0	10.7	-80.8	2.7
2026-01-27 00:49:00.176908	183.1	10.5	-82.3	0.0
2026-01-27 00:49:02.430844	183.1	10.3	-83.5	0.0
2026-01-27 00:49:04.691171	183.2	10.1	-85.1	0.0
#Closed at: 2026-01-27 00:38:24.123155