passes_logs/2026/01/27/planumMaritime01/planumMaritime01__20260127_083321_METOP-B_rec.log

#Pass ID: 20260127_083321_METOP-B
#Satellite: METOP-B
#Configuration: METOP-B
#Start time: 2026-01-27 08:33:26.262649

#LorettStation: 1.0.0 05.05.2024
#Station: planumMaritime01
#Location: 37.49445 lon 55.92918 lat
#TLE: 1 38771U 12049A   26026.42154174  .00000197  00000+0  10998-3 0  9992
#TLE: 2 38771  98.6731  80.6089 0002944  53.2610 306.8837 14.21428899693123

#Time	Az	El	Level	SNR
2026-01-27 08:33:28.436568	3.0	10.2	-61.5	0.0
2026-01-27 08:33:30.693441	2.8	10.3	-63.8	0.0
2026-01-27 08:33:32.947253	2.6	10.5	-64.5	0.0
2026-01-27 08:33:35.199678	2.4	10.7	-64.7	0.0
2026-01-27 08:33:37.454946	2.2	10.9	-64.6	0.0
2026-01-27 08:33:39.709458	2.0	11.0	-62.9	0.0
2026-01-27 08:33:41.963820	1.8	11.2	-64.2	0.0
2026-01-27 08:33:44.218754	1.5	11.4	-65.0	0.0
2026-01-27 08:33:46.468704	1.3	11.6	-66.2	0.0
2026-01-27 08:33:48.719023	1.1	11.7	-65.6	0.0
2026-01-27 08:33:50.973379	0.9	11.9	-65.3	0.0
2026-01-27 08:33:53.227380	0.6	12.1	-65.6	0.0
2026-01-27 08:33:55.480614	0.4	12.3	-64.7	0.0
2026-01-27 08:33:57.733268	0.2	12.5	-65.3	0.0
2026-01-27 08:33:59.985714	359.9	12.6	-66.4	0.0
2026-01-27 08:34:02.239540	359.7	12.8	-64.2	0.0
2026-01-27 08:34:04.494566	359.4	13.0	-64.5	0.0
2026-01-27 08:34:06.743833	359.2	13.2	-64.2	0.0
2026-01-27 08:34:08.997695	358.9	13.4	-64.5	0.0
2026-01-27 08:34:11.253598	358.7	13.6	-63.7	0.0
2026-01-27 08:34:13.506582	358.4	13.7	-63.1	0.0
2026-01-27 08:34:15.758933	358.1	13.9	-66.1	0.0
2026-01-27 08:34:18.010530	357.9	14.1	-64.3	0.0
2026-01-27 08:34:20.260766	357.6	14.3	-64.8	0.0
2026-01-27 08:34:22.514062	357.3	14.5	-64.5	0.0
2026-01-27 08:34:24.765949	357.1	14.7	-65.2	0.0
2026-01-27 08:34:27.021743	356.8	14.9	-65.4	0.0
2026-01-27 08:34:29.274530	356.5	15.1	-65.8	0.0
2026-01-27 08:34:31.525496	356.2	15.3	-65.1	0.0
2026-01-27 08:34:33.779694	355.9	15.5	-66.2	0.0
2026-01-27 08:34:36.035591	355.6	15.7	-65.1	0.0
2026-01-27 08:34:38.290458	355.3	15.9	-68.2	0.0
2026-01-27 08:34:40.546231	355.0	16.1	-67.0	0.0
2026-01-27 08:34:42.799037	354.7	16.3	-66.5	0.0
2026-01-27 08:34:45.054851	354.4	16.4	-66.6	0.0
2026-01-27 08:34:47.307716	354.1	16.6	-66.5	0.0
2026-01-27 08:34:49.563092	353.7	16.8	-65.6	0.0
2026-01-27 08:34:51.818290	353.4	17.0	-64.9	0.0
2026-01-27 08:34:54.073690	353.1	17.3	-65.1	0.0
2026-01-27 08:34:56.326637	352.7	17.5	-66.4	0.0
2026-01-27 08:34:58.579562	352.4	17.7	-66.8	0.0
2026-01-27 08:35:00.836857	352.0	17.9	-66.3	0.0
2026-01-27 08:35:03.090024	351.7	18.1	-64.9	0.0
2026-01-27 08:35:05.346235	351.3	18.3	-65.4	0.0
2026-01-27 08:35:07.602392	351.0	18.5	-64.8	0.0
2026-01-27 08:35:09.854106	350.6	18.7	-63.7	0.0
2026-01-27 08:35:12.105182	350.2	18.9	-64.3	0.0
2026-01-27 08:35:14.358631	349.9	19.1	-69.0	0.0
2026-01-27 08:35:16.612610	349.5	19.3	-67.3	0.0
2026-01-27 08:35:18.866190	349.1	19.5	-66.2	0.0
2026-01-27 08:35:21.116655	348.7	19.7	-64.2	0.0
2026-01-27 08:35:23.367301	348.3	19.9	-63.5	0.0
2026-01-27 08:35:25.624801	347.9	20.1	-62.0	0.0
2026-01-27 08:35:27.878734	347.5	20.3	-65.5	0.0
2026-01-27 08:35:30.135447	347.1	20.5	-65.2	0.0
2026-01-27 08:35:32.390408	346.7	20.8	-64.4	0.0
2026-01-27 08:35:34.644793	346.2	21.0	-61.8	0.0
2026-01-27 08:35:36.899133	345.8	21.2	-65.6	0.0
2026-01-27 08:35:39.153737	345.4	21.4	-65.4	0.0
2026-01-27 08:35:41.405500	344.9	21.6	-64.2	0.0
2026-01-27 08:35:43.656413	344.5	21.8	-63.3	0.0
2026-01-27 08:35:45.908493	344.0	22.0	-62.8	0.0
2026-01-27 08:35:48.163519	343.6	22.2	-65.4	0.0
2026-01-27 08:35:50.414744	343.1	22.4	-65.5	0.0
2026-01-27 08:35:52.668512	342.6	22.6	-66.5	0.0
2026-01-27 08:35:54.925526	342.1	22.8	-65.7	0.0
2026-01-27 08:35:57.178159	341.6	23.0	-66.2	0.0
2026-01-27 08:35:59.428519	341.2	23.2	-65.0	0.0
2026-01-27 08:36:01.683020	340.7	23.4	-65.0	0.0
2026-01-27 08:36:03.936192	340.1	23.7	-65.3	0.0
2026-01-27 08:36:06.188269	339.6	23.9	-66.3	0.0
2026-01-27 08:36:08.438716	339.1	24.1	-67.2	0.0
2026-01-27 08:36:10.689631	338.6	24.3	-67.3	0.0
2026-01-27 08:36:12.942846	338.0	24.5	-67.1	0.0
2026-01-27 08:36:15.195106	337.5	24.7	-67.8	0.0
2026-01-27 08:36:17.449489	337.0	24.9	-66.4	0.0
2026-01-27 08:36:19.704989	336.4	25.0	-63.9	0.0
2026-01-27 08:36:21.957739	335.8	25.2	-66.6	0.0
2026-01-27 08:36:24.214499	335.3	25.4	-65.8	0.0
2026-01-27 08:36:26.467907	334.7	25.6	-65.7	0.0
2026-01-27 08:36:28.725035	334.1	25.8	-65.8	0.0
2026-01-27 08:36:30.977514	333.5	26.0	-65.3	0.0
2026-01-27 08:36:33.237772	332.9	26.2	-65.2	0.0
2026-01-27 08:36:35.489291	332.3	26.4	-65.6	0.0
2026-01-27 08:36:37.741462	331.7	26.6	-65.8	0.0
2026-01-27 08:36:39.994875	331.1	26.7	-67.0	0.0
2026-01-27 08:36:42.246009	330.5	26.9	-67.7	0.0
2026-01-27 08:36:44.502443	329.8	27.1	-67.6	0.0
2026-01-27 08:36:46.755615	329.2	27.3	-66.9	0.0
2026-01-27 08:36:49.008089	328.5	27.4	-67.8	0.0
2026-01-27 08:36:51.260760	327.9	27.6	-68.5	0.0
2026-01-27 08:36:53.514673	327.2	27.7	-68.9	0.0
2026-01-27 08:36:55.768719	326.5	27.9	-70.8	0.0
2026-01-27 08:36:58.022178	325.9	28.1	-68.4	0.0
2026-01-27 08:37:00.275150	325.2	28.2	-69.2	0.0
2026-01-27 08:37:02.529267	324.5	28.4	-68.1	0.0
2026-01-27 08:37:04.782862	323.8	28.5	-70.2	0.0
2026-01-27 08:37:07.036657	323.1	28.6	-68.9	0.0
2026-01-27 08:37:09.290452	322.4	28.8	-70.1	0.6
2026-01-27 08:37:11.541854	321.7	28.9	-70.1	1.7
2026-01-27 08:37:13.792027	321.0	29.0	-66.4	0.0
2026-01-27 08:37:16.043152	320.3	29.1	-67.9	0.0
2026-01-27 08:37:18.295653	319.5	29.3	-69.1	0.0
2026-01-27 08:37:20.546313	318.8	29.4	-69.9	0.0
2026-01-27 08:37:22.800521	318.1	29.5	-70.8	3.3
2026-01-27 08:37:25.050048	317.3	29.6	-71.3	1.6
2026-01-27 08:37:27.304126	316.6	29.7	-70.6	0.8
2026-01-27 08:37:29.557930	315.8	29.8	-70.1	0.0
2026-01-27 08:37:31.808233	315.1	29.9	-70.2	1.4
2026-01-27 08:37:34.060524	314.3	29.9	-72.2	4.4
2026-01-27 08:37:36.313755	313.5	30.0	-68.7	0.0
2026-01-27 08:37:38.568153	312.8	30.1	-72.1	3.9
2026-01-27 08:37:40.824459	312.0	30.2	-72.1	0.0
2026-01-27 08:37:43.079620	311.2	30.2	-70.3	2.2
2026-01-27 08:37:45.335091	310.4	30.3	-72.6	5.2
2026-01-27 08:37:47.588488	309.6	30.3	-70.4	1.9
2026-01-27 08:37:49.842090	308.9	30.4	-72.5	5.9
2026-01-27 08:37:52.095043	308.1	30.4	-71.3	2.4
2026-01-27 08:37:54.346657	307.3	30.4	-69.8	2.2
2026-01-27 08:37:56.599971	306.5	30.4	-71.1	5.2
2026-01-27 08:37:58.851032	305.7	30.5	-71.0	4.4
2026-01-27 08:38:01.101552	304.9	30.5	-70.8	2.8
2026-01-27 08:38:03.353745	304.1	30.5	-70.2	0.0
2026-01-27 08:38:05.607309	303.4	30.5	-70.0	0.0
2026-01-27 08:38:07.860601	302.6	30.5	-69.9	0.0
2026-01-27 08:38:10.111899	301.8	30.5	-70.3	1.0
2026-01-27 08:38:12.364457	301.0	30.4	-71.3	4.2
2026-01-27 08:38:14.620756	300.2	30.4	-70.7	1.3
2026-01-27 08:38:16.874973	299.4	30.4	-68.6	0.0
2026-01-27 08:38:19.129421	298.6	30.4	-70.3	0.3
2026-01-27 08:38:21.383590	297.8	30.3	-70.8	4.1
2026-01-27 08:38:23.636039	297.1	30.3	-69.4	0.0
2026-01-27 08:38:25.888607	296.3	30.2	-68.7	0.0
2026-01-27 08:38:28.142554	295.5	30.1	-69.5	0.9
2026-01-27 08:38:30.399375	294.7	30.1	-70.1	2.0
2026-01-27 08:38:32.653048	294.0	30.0	-68.0	0.0
2026-01-27 08:38:34.906064	293.2	29.9	-70.7	0.8
2026-01-27 08:38:37.164565	292.4	29.8	-71.1	5.1
2026-01-27 08:38:39.416440	291.7	29.8	-70.5	5.7
2026-01-27 08:38:41.670312	290.9	29.7	-70.9	2.6
2026-01-27 08:38:43.926678	290.2	29.6	-69.9	0.0
2026-01-27 08:38:46.181643	289.4	29.5	-70.8	3.4
2026-01-27 08:38:48.434528	288.7	29.4	-70.8	3.6
2026-01-27 08:38:50.684577	288.0	29.2	-68.9	0.7
2026-01-27 08:38:52.933296	287.2	29.1	-69.5	0.8
2026-01-27 08:38:55.186850	286.5	29.0	-69.6	1.8
2026-01-27 08:38:57.437589	285.8	28.9	-69.6	2.2
2026-01-27 08:38:59.693798	285.1	28.7	-70.3	0.4
2026-01-27 08:39:01.945381	284.4	28.6	-71.3	3.6
2026-01-27 08:39:04.201226	283.7	28.5	-70.6	1.7
2026-01-27 08:39:06.453579	283.0	28.3	-72.2	4.0
2026-01-27 08:39:08.707910	282.3	28.2	-71.5	3.9
2026-01-27 08:39:10.958574	281.6	28.0	-71.1	3.6
2026-01-27 08:39:13.211428	280.9	27.9	-71.6	3.9
2026-01-27 08:39:15.469161	280.3	27.7	-69.9	0.0
2026-01-27 08:39:17.722625	279.6	27.5	-71.3	0.0
2026-01-27 08:39:19.978562	279.0	27.4	-71.5	2.3
2026-01-27 08:39:22.229871	278.3	27.2	-71.7	3.0
2026-01-27 08:39:24.484857	277.7	27.0	-71.5	3.0
2026-01-27 08:39:26.736024	277.0	26.9	-71.9	3.3
2026-01-27 08:39:28.992761	276.4	26.7	-72.2	3.7
2026-01-27 08:39:31.244507	275.8	26.5	-71.5	2.1
2026-01-27 08:39:33.496823	275.2	26.3	-70.0	0.0
2026-01-27 08:39:35.747499	274.6	26.1	-71.7	0.8
2026-01-27 08:39:37.999203	274.0	26.0	-70.3	0.0
2026-01-27 08:39:40.252249	273.4	25.8	-72.5	3.2
2026-01-27 08:39:42.505303	272.8	25.6	-72.3	3.5
2026-01-27 08:39:44.760533	272.2	25.4	-71.1	1.9
2026-01-27 08:39:47.011725	271.6	25.2	-72.6	5.2
2026-01-27 08:39:49.262226	271.1	25.0	-72.0	4.2
2026-01-27 08:39:51.513169	270.5	24.8	-71.1	0.0
2026-01-27 08:39:53.764221	270.0	24.6	-72.2	2.9
2026-01-27 08:39:56.014899	269.4	24.4	-72.7	3.6
2026-01-27 08:39:58.270083	268.9	24.2	-73.1	5.1
2026-01-27 08:40:00.521294	268.4	24.0	-72.7	4.9
2026-01-27 08:40:02.774499	267.9	23.8	-72.8	4.1
2026-01-27 08:40:05.025872	267.3	23.6	-72.7	6.0
2026-01-27 08:40:07.274486	266.8	23.4	-72.4	1.3
2026-01-27 08:40:09.525861	266.3	23.2	-73.1	5.2
2026-01-27 08:40:11.781024	265.8	23.0	-72.6	4.0
2026-01-27 08:40:14.030787	265.3	22.8	-73.2	4.5
2026-01-27 08:40:16.282308	264.9	22.6	-73.2	4.4
2026-01-27 08:40:18.532209	264.4	22.3	-71.9	4.1
2026-01-27 08:40:20.784142	263.9	22.1	-72.7	4.0
2026-01-27 08:40:23.037023	263.5	21.9	-72.6	5.5
2026-01-27 08:40:25.287415	263.0	21.7	-73.0	4.2
2026-01-27 08:40:27.541678	262.6	21.5	-73.2	5.1
2026-01-27 08:40:29.794267	262.1	21.3	-72.9	4.7
2026-01-27 08:40:32.048493	261.7	21.1	-73.2	4.2
2026-01-27 08:40:34.299391	261.2	20.9	-73.0	5.0
2026-01-27 08:40:36.552921	260.8	20.7	-72.3	1.7
2026-01-27 08:40:38.808918	260.4	20.5	-73.9	4.7
2026-01-27 08:40:41.060994	260.0	20.3	-73.8	5.0
2026-01-27 08:40:43.312993	259.6	20.0	-73.9	4.7
2026-01-27 08:40:45.564021	259.2	19.8	-74.0	4.3
2026-01-27 08:40:47.814486	258.8	19.6	-73.6	3.1
2026-01-27 08:40:50.064620	258.4	19.4	-74.3	5.8
2026-01-27 08:40:52.315044	258.0	19.2	-73.5	4.3
2026-01-27 08:40:54.568290	257.6	19.0	-73.8	3.8
2026-01-27 08:40:56.821580	257.2	18.8	-73.7	4.3
2026-01-27 08:40:59.075528	256.9	18.6	-74.2	3.9
2026-01-27 08:41:01.329823	256.5	18.4	-74.7	4.0
2026-01-27 08:41:03.583640	256.1	18.2	-74.4	4.1
2026-01-27 08:41:05.835395	255.8	18.0	-74.3	4.8
2026-01-27 08:41:08.089379	255.4	17.8	-74.5	4.9
2026-01-27 08:41:10.342100	255.1	17.6	-73.8	4.2
2026-01-27 08:41:12.593871	254.7	17.4	-73.9	4.2
2026-01-27 08:41:14.846172	254.4	17.2	-74.3	4.2
2026-01-27 08:41:17.100914	254.1	17.0	-74.3	4.9
2026-01-27 08:41:19.354794	253.7	16.8	-74.7	4.9
2026-01-27 08:41:21.610444	253.4	16.6	-75.0	5.7
2026-01-27 08:41:23.862610	253.1	16.4	-74.0	3.8
2026-01-27 08:41:26.114217	252.8	16.2	-74.5	4.8
2026-01-27 08:41:28.365658	252.5	16.0	-74.8	4.7
2026-01-27 08:41:30.617176	252.2	15.8	-75.1	4.8
2026-01-27 08:41:32.865497	251.9	15.6	-75.2	3.9
2026-01-27 08:41:35.115065	251.6	15.4	-75.5	5.2
2026-01-27 08:41:37.365171	251.3	15.2	-73.9	3.8
2026-01-27 08:41:39.616524	251.0	15.0	-74.5	3.5
2026-01-27 08:41:41.870921	250.7	14.8	-73.9	2.3
2026-01-27 08:41:44.124724	250.4	14.6	-75.1	2.9
2026-01-27 08:41:46.376726	250.1	14.4	-74.9	3.4
2026-01-27 08:41:48.627155	249.8	14.2	-74.5	3.7
2026-01-27 08:41:50.878451	249.6	14.0	-75.5	5.2
2026-01-27 08:41:53.129667	249.3	13.8	-75.5	4.7
2026-01-27 08:41:55.384199	249.0	13.7	-75.6	4.8
2026-01-27 08:41:57.638622	248.8	13.5	-75.0	4.6
2026-01-27 08:41:59.890922	248.5	13.3	-74.2	2.1
2026-01-27 08:42:02.147167	248.3	13.1	-74.9	1.0
2026-01-27 08:42:04.400155	248.0	12.9	-74.8	0.1
2026-01-27 08:42:06.651351	247.8	12.7	-75.3	2.1
2026-01-27 08:42:08.902056	247.5	12.5	-74.7	4.2
2026-01-27 08:42:11.154288	247.3	12.4	-75.2	5.1
2026-01-27 08:42:13.406620	247.0	12.2	-74.7	4.9
2026-01-27 08:42:15.659026	246.8	12.0	-74.5	3.3
2026-01-27 08:42:17.910886	246.6	11.8	-74.1	0.1
2026-01-27 08:42:20.161623	246.3	11.6	-74.4	1.5
2026-01-27 08:42:22.414323	246.1	11.5	-74.7	2.6
2026-01-27 08:42:24.665211	245.9	11.3	-75.2	1.3
2026-01-27 08:42:26.917409	245.7	11.1	-74.9	4.5
2026-01-27 08:42:29.167402	245.4	10.9	-75.4	4.8
2026-01-27 08:42:31.418797	245.2	10.8	-76.1	1.2
2026-01-27 08:42:33.671509	245.0	10.6	-77.3	0.8
2026-01-27 08:42:35.922732	244.8	10.4	-78.6	0.0
2026-01-27 08:42:38.175764	244.6	10.2	-79.9	0.0
2026-01-27 08:42:40.428896	244.4	10.1	-78.9	0.0
#Closed at: 2026-01-27 08:33:21.270220