passes_logs/2026/01/01/R4.6S_Anadyr_2ch/R4.6S_Anadyr_2ch__20260101_222233_2025-108B_rec.log

#Pass ID: 20260101_222233_2025-108B
#Satellite: 2025-108B
#Configuration: 3PB_600M
#almurnet v.1.7.20251203
#Start time: 2026-01-01 22:22:34

#Version: 2.2.20231116
#Station: R4.6S_Anadyr_2ch
#Location: 177.4865 lon 64.73178 lat
#TLE: 1 64088U 25108B   25351.01672131  .00008460  00000+0  43413-3 0  9994
#TLE: 2 64088  97.4940  63.8579 0011684 285.1423  74.8517 15.16717580 31720

#Time	Az	El	Level	Level2	SNR	BER	BlckErr	Temp	State	Recorded	gain1	gain2
2026-01-01 22:22:34.87	20.74	0.09	-51.8	-53.2	3.4	0.00e+00	0	34	0	0	60	77033
2026-01-01 22:22:37.90	20.94	0.27	-51.8	-54.3	3.6	0.00e+00	0	35	104	0	60	87597
2026-01-01 22:22:40.93	21.14	0.45	-51.8	-54.3	3.5	0.00e+00	0	35	104	0	60	87562
2026-01-01 22:22:43.96	21.35	0.63	-51.8	-54.3	3.6	0.00e+00	0	36	104	0	60	87666
2026-01-01 22:22:46.99	21.56	0.81	-51.8	-54.3	3.6	0.00e+00	0	36	104	0	60	87472
2026-01-01 22:22:50.02	21.77	0.99	-51.8	-54.3	3.5	0.00e+00	0	36	104	0	60	87487
2026-01-01 22:22:53.06	21.98	1.17	-51.8	-54.3	3.6	0.00e+00	0	36	104	0	60	87400
2026-01-01 22:22:56.09	22.20	1.36	-51.8	-54.3	3.6	0.00e+00	0	36	104	0	60	87447
2026-01-01 22:22:59.12	22.42	1.54	-51.8	-54.3	3.6	0.00e+00	0	36	104	0	60	87871
2026-01-01 22:23:02.15	22.64	1.73	-51.8	-54.3	3.6	0.00e+00	0	36	104	0	60	87553
2026-01-01 22:23:05.18	22.87	1.92	-51.8	-54.3	3.6	0.00e+00	0	36	104	0	60	87378
2026-01-01 22:23:08.22	23.10	2.11	-51.8	-54.3	3.6	0.00e+00	0	36	104	0	60	87449
2026-01-01 22:23:11.25	23.34	2.30	-51.8	-54.3	3.6	0.00e+00	0	36	104	0	60	87298
2026-01-01 22:23:14.28	23.57	2.49	-51.8	-54.3	3.6	0.00e+00	0	36	104	0	60	87802
2026-01-01 22:23:17.31	23.81	2.68	-51.8	-54.3	3.6	0.00e+00	0	36	104	0	60	87798
2026-01-01 22:23:20.35	24.06	2.88	-51.8	-54.3	3.6	0.00e+00	0	36	104	0	60	87689
2026-01-01 22:23:23.38	24.31	3.08	-51.8	-54.3	3.6	0.00e+00	0	37	104	0	60	87873
2026-01-01 22:23:26.41	24.56	3.27	-51.8	-54.3	3.6	0.00e+00	0	37	104	0	60	87302
2026-01-01 22:23:29.44	24.82	3.47	-51.8	-54.3	3.6	0.00e+00	0	37	104	0	60	87932
2026-01-01 22:23:32.43	25.08	3.67	-51.8	-54.3	3.6	0.00e+00	0	37	104	0	60	87879
2026-01-01 22:23:35.46	25.34	3.87	-51.8	-54.3	3.6	0.00e+00	0	37	104	0	60	87757
2026-01-01 22:23:38.49	25.61	4.08	-51.8	-54.3	3.6	0.00e+00	0	37	104	0	60	87833
2026-01-01 22:23:41.52	25.89	4.28	-51.8	-54.3	3.6	0.00e+00	0	37	104	0	60	88005
2026-01-01 22:23:44.56	26.17	4.49	-51.8	-54.3	3.6	0.00e+00	0	37	104	0	60	87819
2026-01-01 22:23:47.59	26.45	4.70	-51.8	-54.3	3.6	0.00e+00	0	37	104	0	60	87468
2026-01-01 22:23:50.62	26.74	4.91	-51.8	-54.3	3.6	0.00e+00	0	37	104	0	60	87224
2026-01-01 22:23:53.65	27.03	5.12	-51.8	-54.3	3.6	0.00e+00	0	37	104	0	60	88143
2026-01-01 22:23:56.68	27.33	5.33	-51.8	-54.3	3.6	0.00e+00	0	37	104	0	60	87748
2026-01-01 22:23:59.71	27.63	5.55	-51.8	-54.3	3.6	0.00e+00	0	37	104	0	60	87501
2026-01-01 22:24:02.74	27.94	5.77	-51.8	-54.3	3.6	0.00e+00	0	37	104	0	60	87737
2026-01-01 22:24:05.78	28.26	5.98	-51.8	-54.3	3.5	0.00e+00	0	37	104	0	60	87950
2026-01-01 22:24:08.81	28.58	6.21	-51.8	-54.3	3.6	0.00e+00	0	37	104	0	60	87888
2026-01-01 22:24:11.84	28.91	6.43	-51.8	-54.3	3.6	0.00e+00	0	37	104	0	60	87886
2026-01-01 22:24:14.87	29.24	6.65	-51.8	-54.3	3.6	0.00e+00	0	37	104	0	60	88016
2026-01-01 22:24:17.91	29.58	6.88	-51.8	-54.3	3.6	0.00e+00	0	37	104	0	60	87999
2026-01-01 22:24:20.94	29.92	7.11	-51.8	-54.3	3.6	0.00e+00	0	37	104	0	60	87357
2026-01-01 22:24:23.97	30.27	7.34	-51.8	-54.3	3.6	0.00e+00	0	37	104	0	60	87657
2026-01-01 22:24:27.00	30.63	7.57	-51.8	-54.3	3.6	0.00e+00	0	38	104	0	60	87778
2026-01-01 22:24:30.03	31.00	7.80	-51.9	-54.3	3.6	0.00e+00	0	38	104	0	60	87969
2026-01-01 22:24:33.07	31.37	8.04	-51.9	-54.3	3.6	0.00e+00	0	37	104	0	60	87976
2026-01-01 22:24:36.10	31.75	8.28	-51.9	-54.4	3.6	0.00e+00	0	38	104	0	60	88340
2026-01-01 22:24:39.13	32.14	8.52	-51.8	-54.4	3.6	0.00e+00	0	38	104	0	60	88617
2026-01-01 22:24:42.16	32.53	8.76	-51.9	-54.4	3.6	0.00e+00	0	38	104	0	60	88380
2026-01-01 22:24:45.19	32.93	9.00	-51.8	-54.4	3.6	0.00e+00	0	38	104	0	60	88373
2026-01-01 22:24:48.23	33.34	9.25	-51.9	-54.3	3.6	0.00e+00	0	38	104	0	60	87932
2026-01-01 22:24:51.26	33.76	9.50	-51.9	-54.4	3.6	0.00e+00	0	38	104	0	60	88232
2026-01-01 22:24:54.30	34.19	9.75	-51.8	-54.3	3.6	0.00e+00	0	38	104	0	60	87942
2026-01-01 22:24:57.33	34.63	10.00	-51.8	-54.3	3.6	0.00e+00	0	38	104	0	60	87875
2026-01-01 22:25:00.36	35.07	10.26	-51.9	-54.3	3.6	0.00e+00	0	38	104	0	60	87845
2026-01-01 22:25:03.39	35.53	10.52	-51.9	-54.3	3.6	0.00e+00	0	38	104	0	60	87913
2026-01-01 22:25:06.43	35.99	10.78	-51.8	-54.3	3.6	0.00e+00	0	38	104	0	60	88147
2026-01-01 22:25:09.46	36.46	11.04	-51.8	-54.3	3.6	0.00e+00	0	38	104	0	60	87861
2026-01-01 22:25:12.49	36.95	11.30	-51.9	-54.4	3.6	0.00e+00	0	38	104	0	60	88741
2026-01-01 22:25:15.52	37.44	11.57	-51.8	-54.3	3.6	0.00e+00	0	38	104	0	60	88153
2026-01-01 22:25:18.56	37.95	11.83	-51.8	-54.3	3.6	0.00e+00	0	38	104	0	60	87906
2026-01-01 22:25:21.59	38.46	12.10	-51.9	-54.3	3.5	0.00e+00	0	38	104	0	60	88068
2026-01-01 22:25:24.62	38.99	12.37	-51.9	-54.4	3.6	0.00e+00	0	38	104	0	60	88413
2026-01-01 22:25:27.65	39.52	12.65	-51.9	-54.3	3.6	0.00e+00	0	38	104	0	60	88160
2026-01-01 22:25:30.68	40.07	12.92	-51.9	-54.4	3.6	0.00e+00	0	38	104	0	60	88261
2026-01-01 22:25:33.72	40.64	13.20	-51.9	-54.4	3.6	0.00e+00	0	38	104	0	60	88670
2026-01-01 22:25:36.75	41.21	13.48	-51.9	-54.3	3.6	0.00e+00	0	38	104	0	60	88057
2026-01-01 22:25:39.78	41.80	13.76	-51.9	-54.4	3.6	0.00e+00	0	38	104	0	60	88440
2026-01-01 22:25:42.81	42.40	14.05	-51.9	-54.4	3.6	0.00e+00	0	38	104	0	60	88354
2026-01-01 22:25:45.84	43.01	14.33	-51.9	-54.4	3.6	0.00e+00	0	38	104	0	60	88280
2026-01-01 22:25:48.87	43.64	14.62	-51.9	-54.4	3.6	0.00e+00	0	38	104	0	60	88595
2026-01-01 22:25:51.90	44.28	14.91	-51.9	-54.3	3.6	0.00e+00	0	38	104	0	60	88123
2026-01-01 22:25:54.93	44.93	15.20	-51.9	-54.4	3.6	0.00e+00	0	38	104	0	60	88341
2026-01-01 22:25:57.96	45.60	15.49	-51.9	-54.4	3.6	0.00e+00	0	38	104	0	60	88355
2026-01-01 22:26:01.00	46.29	15.78	-51.9	-54.3	3.6	0.00e+00	0	38	104	0	60	88102
2026-01-01 22:26:04.03	46.99	16.07	-51.9	-54.4	3.6	0.00e+00	0	38	104	0	60	88590
2026-01-01 22:26:07.06	47.71	16.36	-51.9	-54.3	3.6	0.00e+00	0	38	104	0	60	88085
2026-01-01 22:26:10.10	48.44	16.66	-51.9	-54.4	3.5	0.00e+00	0	38	104	0	60	88323
2026-01-01 22:26:13.13	49.19	16.95	-51.9	-54.3	3.6	0.00e+00	0	38	104	0	60	87692
2026-01-01 22:26:16.16	49.96	17.25	-51.9	-54.3	3.6	0.00e+00	0	38	104	0	60	87986
2026-01-01 22:26:19.20	50.75	17.55	-51.9	-54.4	3.6	0.00e+00	0	38	104	0	60	88660
2026-01-01 22:26:22.23	51.55	17.84	-51.9	-54.3	3.6	0.00e+00	0	38	104	0	60	88071
2026-01-01 22:26:25.26	52.37	18.13	-51.9	-54.4	3.6	0.00e+00	0	38	104	0	60	88463
2026-01-01 22:26:28.29	53.20	18.43	-51.9	-54.4	3.6	0.00e+00	0	38	104	0	60	88685
2026-01-01 22:26:31.32	54.06	18.72	-51.9	-54.3	3.6	0.00e+00	0	38	104	0	60	88085
2026-01-01 22:26:34.35	54.93	19.01	-51.9	-54.4	3.6	0.00e+00	0	38	104	0	60	88545
2026-01-01 22:26:37.39	55.83	19.30	-51.9	-54.4	3.6	0.00e+00	0	38	104	0	60	88537
2026-01-01 22:26:40.42	56.74	19.59	-51.9	-54.4	3.6	0.00e+00	0	38	104	0	60	88445
2026-01-01 22:26:43.45	57.68	19.87	-51.9	-54.3	3.6	0.00e+00	0	38	104	0	60	88216
2026-01-01 22:26:46.48	58.63	20.15	-51.9	-54.4	3.6	0.00e+00	0	38	104	0	60	88871
2026-01-01 22:26:49.51	59.60	20.43	-51.8	-54.3	3.6	0.00e+00	0	38	104	0	60	87597
2026-01-01 22:26:52.55	60.59	20.71	-51.9	-54.4	3.6	0.00e+00	0	39	104	0	60	88743
2026-01-01 22:26:55.58	61.61	20.98	-51.9	-54.3	3.6	0.00e+00	0	38	104	0	60	88091
2026-01-01 22:26:58.61	62.64	21.24	-51.9	-54.4	3.6	0.00e+00	0	38	104	0	60	88379
2026-01-01 22:27:01.64	63.69	21.50	-51.9	-54.4	3.6	0.00e+00	0	38	104	0	60	88411
2026-01-01 22:27:04.68	64.76	21.76	-51.9	-54.4	3.6	0.00e+00	0	38	104	0	60	89011
2026-01-01 22:27:07.71	65.85	22.00	-51.9	-54.4	3.6	0.00e+00	0	38	104	0	60	88397
2026-01-01 22:27:10.75	66.97	22.25	-51.9	-54.4	3.6	0.00e+00	0	38	104	0	60	88483
2026-01-01 22:27:13.78	68.09	22.48	-51.9	-54.4	3.6	0.00e+00	0	38	104	0	60	88633
2026-01-01 22:27:16.81	69.24	22.71	-51.9	-54.4	3.6	0.00e+00	0	38	104	0	60	88638
2026-01-01 22:27:19.85	70.41	22.92	-51.9	-54.3	3.6	0.00e+00	0	38	104	0	60	88198
2026-01-01 22:27:22.88	71.59	23.13	-51.9	-54.4	3.6	0.00e+00	0	38	104	0	60	88664
2026-01-01 22:27:25.91	72.79	23.33	-51.9	-54.4	3.6	0.00e+00	0	38	104	0	60	88491
2026-01-01 22:27:28.94	74.01	23.52	-51.9	-54.3	3.6	0.00e+00	0	39	104	0	60	88077
2026-01-01 22:27:31.97	75.25	23.69	-51.9	-54.3	3.6	0.00e+00	0	38	104	0	60	87858
2026-01-01 22:27:35.01	76.50	23.86	-51.9	-54.3	3.6	0.00e+00	0	38	104	0	60	87890
2026-01-01 22:27:38.04	77.76	24.01	-51.9	-54.4	3.6	0.00e+00	0	38	104	0	60	88373
2026-01-01 22:27:41.07	79.04	24.16	-51.9	-54.4	3.6	0.00e+00	0	38	104	0	60	88518
2026-01-01 22:27:44.10	80.33	24.28	-51.9	-54.4	3.6	0.00e+00	0	38	104	0	60	88839
2026-01-01 22:27:47.13	81.62	24.40	-51.9	-54.3	3.6	0.00e+00	0	39	104	0	60	87990
2026-01-01 22:27:50.16	82.93	24.50	-51.9	-54.3	3.6	0.00e+00	0	38	104	0	60	87877
2026-01-01 22:27:53.19	84.25	24.59	-51.9	-54.4	3.6	0.00e+00	0	39	104	0	60	88711
2026-01-01 22:27:56.23	85.58	24.66	-51.9	-54.3	3.6	0.00e+00	0	38	104	0	60	87698
2026-01-01 22:27:59.26	86.92	24.72	-51.9	-54.4	3.5	0.00e+00	0	38	104	0	60	88998
2026-01-01 22:28:02.29	88.25	24.76	-51.9	-54.3	3.6	0.00e+00	0	38	104	0	60	88127
2026-01-01 22:28:05.32	89.60	24.79	-51.9	-54.3	3.6	0.00e+00	0	38	104	0	60	87751
2026-01-01 22:28:08.36	90.94	24.81	-51.9	-54.3	3.6	0.00e+00	0	38	104	0	60	88157
2026-01-01 22:28:11.39	92.29	24.81	-51.9	-54.3	3.6	0.00e+00	0	39	104	0	60	88179
2026-01-01 22:28:14.42	93.63	24.79	-51.9	-54.4	3.6	0.00e+00	0	39	104	0	60	88299
2026-01-01 22:28:17.45	94.97	24.76	-51.9	-54.4	3.6	0.00e+00	0	39	104	0	60	88423
2026-01-01 22:28:20.48	96.31	24.71	-51.9	-54.4	3.6	0.00e+00	0	39	104	0	60	88567
2026-01-01 22:28:23.52	97.65	24.65	-51.9	-54.3	3.6	0.00e+00	0	39	104	0	60	88176
2026-01-01 22:28:26.55	98.98	24.57	-51.9	-54.4	3.6	0.00e+00	0	39	104	0	60	89046
2026-01-01 22:28:29.58	100.30	24.48	-51.9	-54.4	3.6	0.00e+00	0	39	104	0	60	88387
2026-01-01 22:28:32.61	101.61	24.38	-51.9	-54.4	3.6	0.00e+00	0	39	104	0	60	88824
2026-01-01 22:28:35.64	102.91	24.26	-51.9	-54.4	3.6	0.00e+00	0	39	104	0	60	89101
2026-01-01 22:28:38.68	104.20	24.12	-51.9	-54.3	3.6	0.00e+00	0	38	104	0	60	88057
2026-01-01 22:28:41.70	105.48	23.98	-51.9	-54.4	3.6	0.00e+00	0	38	104	0	60	88478
2026-01-01 22:28:44.73	106.74	23.82	-51.9	-54.4	3.6	0.00e+00	0	38	104	0	60	88329
2026-01-01 22:28:47.77	108.00	23.65	-51.9	-54.4	3.6	0.00e+00	0	39	104	0	60	88640
2026-01-01 22:28:50.80	109.23	23.47	-51.9	-54.4	3.6	0.00e+00	0	39	104	0	60	88634
2026-01-01 22:28:53.83	110.46	23.28	-51.9	-54.4	3.6	0.00e+00	0	38	104	0	60	88488
2026-01-01 22:28:56.86	111.66	23.08	-52.0	-54.4	3.6	0.00e+00	0	38	104	0	60	89065
2026-01-01 22:28:59.90	112.85	22.87	-51.9	-54.4	3.6	0.00e+00	0	39	104	0	60	88538
2026-01-01 22:29:02.93	114.02	22.65	-51.9	-54.4	3.6	0.00e+00	0	39	104	0	60	88474
2026-01-01 22:29:05.96	115.17	22.42	-51.9	-54.4	3.6	0.00e+00	0	39	104	0	60	88557
2026-01-01 22:29:08.99	116.30	22.18	-52.0	-54.5	3.6	0.00e+00	0	39	104	0	60	89298
2026-01-01 22:29:12.02	117.41	21.93	-51.9	-54.4	3.6	0.00e+00	0	39	104	0	60	88599
2026-01-01 22:29:15.06	118.51	21.68	-51.9	-54.4	3.6	0.00e+00	0	39	104	0	60	88990
2026-01-01 22:29:18.09	119.58	21.42	-51.9	-54.4	3.6	0.00e+00	0	39	104	0	60	88477
2026-01-01 22:29:21.12	120.64	21.16	-51.9	-54.4	3.6	0.00e+00	0	39	104	0	60	88795
2026-01-01 22:29:24.15	121.67	20.89	-52.0	-54.4	3.6	0.00e+00	0	39	104	0	60	88955
2026-01-01 22:29:27.18	122.69	20.62	-52.0	-54.4	3.6	0.00e+00	0	39	104	0	60	89114
2026-01-01 22:29:30.21	123.68	20.34	-51.9	-54.4	3.4	0.00e+00	0	39	104	0	60	88570
2026-01-01 22:29:33.24	124.66	20.06	-52.0	-54.5	3.6	0.00e+00	0	39	104	0	60	89452
2026-01-01 22:29:36.28	125.62	19.77	-52.0	-54.4	3.6	0.00e+00	0	39	104	0	60	88818
2026-01-01 22:29:39.31	126.55	19.48	-51.9	-54.4	3.6	0.00e+00	0	39	104	0	60	88723
2026-01-01 22:29:42.34	127.47	19.19	-51.9	-54.4	3.6	0.00e+00	0	39	104	0	60	88516
2026-01-01 22:29:45.37	128.36	18.90	-51.9	-54.4	3.6	0.00e+00	0	39	104	0	60	88462
2026-01-01 22:29:48.40	129.24	18.60	-52.0	-54.4	3.6	0.00e+00	0	39	104	0	60	88994
2026-01-01 22:29:51.43	130.10	18.31	-52.0	-54.4	3.6	0.00e+00	0	39	104	0	60	88911
2026-01-01 22:29:54.46	130.94	18.01	-51.9	-54.4	3.6	0.00e+00	0	39	104	0	60	89126
2026-01-01 22:29:57.49	131.76	17.71	-51.9	-54.4	3.6	0.00e+00	0	39	104	0	60	88587
2026-01-01 22:30:00.53	132.57	17.41	-51.9	-54.4	3.6	0.00e+00	0	39	104	0	60	89131
2026-01-01 22:30:03.56	133.36	17.11	-51.9	-54.4	3.6	0.00e+00	0	39	104	0	60	88434
2026-01-01 22:30:06.59	134.13	16.81	-51.9	-54.4	3.6	0.00e+00	0	39	104	0	60	88353
2026-01-01 22:30:09.63	134.88	16.52	-51.9	-54.4	3.6	0.00e+00	0	39	104	0	60	89237
2026-01-01 22:30:12.66	135.62	16.22	-52.0	-54.5	3.6	0.00e+00	0	39	104	0	60	89330
2026-01-01 22:30:15.69	136.33	15.92	-52.0	-54.4	3.6	0.00e+00	0	39	104	0	60	89169
2026-01-01 22:30:18.72	137.04	15.62	-51.9	-54.4	3.6	0.00e+00	0	39	104	0	60	88849
2026-01-01 22:30:21.75	137.72	15.33	-51.9	-54.4	3.6	0.00e+00	0	39	104	0	60	88593
2026-01-01 22:30:24.78	138.40	15.03	-51.9	-54.4	3.5	0.00e+00	0	39	104	0	60	88695
2026-01-01 22:30:27.81	139.05	14.74	-51.9	-54.4	3.6	0.00e+00	0	39	104	0	60	88771
2026-01-01 22:30:30.84	139.70	14.45	-52.0	-54.5	3.6	0.00e+00	0	39	104	0	60	89286
2026-01-01 22:30:33.88	140.33	14.16	-51.9	-54.4	3.6	0.00e+00	0	39	104	0	60	88439
2026-01-01 22:30:36.91	140.94	13.87	-51.9	-54.4	3.6	0.00e+00	0	39	104	0	60	88359
2026-01-01 22:30:39.94	141.54	13.59	-51.9	-54.4	3.6	0.00e+00	0	39	104	0	60	88672
2026-01-01 22:30:42.97	142.13	13.30	-51.9	-54.4	3.6	0.00e+00	0	39	104	0	60	88375
2026-01-01 22:30:46.00	142.71	13.02	-52.0	-54.4	3.6	0.00e+00	0	39	104	0	60	88883
2026-01-01 22:30:49.04	143.27	12.74	-51.9	-54.4	3.6	0.00e+00	0	39	104	0	60	88622
2026-01-01 22:30:52.07	143.82	12.46	-51.9	-54.4	3.6	0.00e+00	0	39	104	0	60	88574
2026-01-01 22:30:55.10	144.36	12.18	-52.0	-54.5	3.6	0.00e+00	0	39	104	0	60	89384
2026-01-01 22:30:58.13	144.89	11.91	-52.0	-54.4	3.6	0.00e+00	0	39	104	0	60	88999
2026-01-01 22:31:01.17	145.41	11.63	-52.0	-54.4	3.6	0.00e+00	0	39	104	0	60	88772
2026-01-01 22:31:04.20	145.91	11.36	-51.9	-54.4	3.6	0.00e+00	0	39	104	0	60	88645
2026-01-01 22:31:07.23	146.40	11.09	-52.0	-54.4	3.6	0.00e+00	0	39	104	0	60	89066
2026-01-01 22:31:10.27	146.89	10.83	-52.0	-54.5	3.6	0.00e+00	0	39	104	0	60	89549
2026-01-01 22:31:13.30	147.36	10.56	-51.9	-54.4	3.6	0.00e+00	0	39	104	0	60	88392
2026-01-01 22:31:16.33	147.83	10.30	-51.9	-54.3	3.6	0.00e+00	0	39	104	0	60	87989
2026-01-01 22:31:19.36	148.28	10.04	-51.9	-54.4	3.6	0.00e+00	0	39	104	0	60	89204
2026-01-01 22:31:22.39	148.73	9.79	-52.0	-54.4	3.6	0.00e+00	0	39	104	0	60	89114
2026-01-01 22:31:25.43	149.16	9.53	-51.9	-54.4	3.6	0.00e+00	0	39	104	0	60	88342
2026-01-01 22:31:28.46	149.59	9.28	-51.9	-54.3	3.6	0.00e+00	0	39	104	0	60	87989
2026-01-01 22:31:31.49	150.01	9.03	-51.9	-54.4	3.6	0.00e+00	0	39	104	0	60	88431
2026-01-01 22:31:34.51	150.42	8.78	-51.9	-54.4	3.6	0.00e+00	0	39	104	0	60	88845
2026-01-01 22:31:37.55	150.82	8.53	-52.0	-54.5	3.6	0.00e+00	0	39	104	0	60	89435
2026-01-01 22:31:40.58	151.22	8.29	-51.9	-54.4	3.6	0.00e+00	0	39	104	0	60	88442
2026-01-01 22:31:43.61	151.60	8.04	-52.0	-54.4	3.6	0.00e+00	0	39	104	0	60	88722
2026-01-01 22:31:46.64	151.98	7.80	-52.0	-54.5	3.6	0.00e+00	0	39	104	0	60	89438
2026-01-01 22:31:49.67	152.35	7.57	-51.9	-54.4	3.6	0.00e+00	0	39	104	0	60	88676
2026-01-01 22:31:52.70	152.72	7.33	-51.9	-54.4	3.6	0.00e+00	0	39	104	0	60	88603
2026-01-01 22:31:55.73	153.07	7.10	-51.9	-54.4	3.5	0.00e+00	0	39	104	0	60	88834
2026-01-01 22:31:58.77	153.43	6.86	-51.9	-54.4	3.6	0.00e+00	0	39	104	0	60	89056
2026-01-01 22:32:01.80	153.77	6.63	-52.0	-54.4	3.5	0.00e+00	0	39	104	0	60	89222
2026-01-01 22:32:04.83	154.11	6.40	-51.9	-54.4	3.6	0.00e+00	0	39	104	0	60	88964
2026-01-01 22:32:07.87	154.44	6.18	-52.0	-54.4	3.6	0.00e+00	0	39	104	0	60	89027
2026-01-01 22:32:10.90	154.77	5.95	-52.0	-54.4	3.6	0.00e+00	0	39	104	0	60	89148
2026-01-01 22:32:13.93	155.09	5.73	-52.0	-54.4	3.6	0.00e+00	0	39	104	0	60	88802
2026-01-01 22:32:16.97	155.40	5.51	-51.9	-54.4	3.6	0.00e+00	0	39	104	0	60	88343
2026-01-01 22:32:20.00	155.71	5.29	-52.0	-54.5	3.6	0.00e+00	0	39	104	0	60	89276
2026-01-01 22:32:23.03	156.01	5.07	-52.0	-54.4	3.6	0.00e+00	0	39	104	0	60	89012
2026-01-01 22:32:26.06	156.31	4.86	-52.0	-54.4	3.6	0.00e+00	0	39	104	0	60	89107
2026-01-01 22:32:29.09	156.60	4.64	-52.0	-54.4	3.6	0.00e+00	0	39	104	0	60	88643
2026-01-01 22:32:32.13	156.89	4.43	-52.0	-54.5	3.6	0.00e+00	0	39	104	0	60	89912
2026-01-01 22:32:35.16	157.18	4.22	-52.0	-54.5	3.6	0.00e+00	0	39	104	0	60	89757
2026-01-01 22:32:38.19	157.45	4.01	-52.0	-54.4	3.6	0.00e+00	0	39	104	0	60	89149
2026-01-01 22:32:41.22	157.73	3.81	-52.0	-54.4	3.6	0.00e+00	0	39	104	0	60	89030
2026-01-01 22:32:44.25	157.99	3.60	-52.0	-54.4	3.6	0.00e+00	0	39	104	0	60	88641
2026-01-01 22:32:47.29	158.26	3.40	-52.0	-54.4	3.6	0.00e+00	0	39	104	0	60	89015
2026-01-01 22:32:50.32	158.52	3.20	-52.0	-54.5	3.6	0.00e+00	0	39	104	0	60	89669
2026-01-01 22:32:53.35	158.77	2.99	-52.0	-54.5	3.6	0.00e+00	0	39	104	0	60	89249
2026-01-01 22:32:56.38	159.03	2.80	-52.0	-54.5	3.6	0.00e+00	0	39	104	0	60	90022
2026-01-01 22:32:59.42	159.27	2.60	-52.0	-54.5	3.6	0.00e+00	0	39	104	0	60	89513
2026-01-01 22:33:02.45	159.52	2.40	-52.0	-54.5	3.6	0.00e+00	0	39	104	0	60	89315
2026-01-01 22:33:05.48	159.76	2.21	-51.9	-54.4	3.6	0.00e+00	0	39	104	0	60	88645
2026-01-01 22:33:08.52	159.99	2.01	-52.0	-54.5	3.6	0.00e+00	0	39	104	0	60	89475
2026-01-01 22:33:11.55	160.23	1.82	-52.0	-54.4	3.6	0.00e+00	0	39	104	0	60	88951
2026-01-01 22:33:14.58	160.45	1.63	-51.9	-54.4	3.6	0.00e+00	0	39	104	0	60	88720
2026-01-01 22:33:17.61	160.68	1.44	-52.0	-54.5	3.6	0.00e+00	0	39	104	0	60	89312
2026-01-01 22:33:20.64	160.90	1.25	-52.0	-54.4	3.6	0.00e+00	0	39	104	0	60	89183
2026-01-01 22:33:23.68	161.12	1.07	-51.9	-54.4	3.6	0.00e+00	0	39	104	0	60	89081
2026-01-01 22:33:26.71	161.34	0.88	-51.9	-54.4	3.6	0.00e+00	0	39	104	0	60	89199
2026-01-01 22:33:29.74	161.55	0.70	-51.9	-54.4	3.6	0.00e+00	0	39	104	0	60	88318
2026-01-01 22:33:32.77	161.76	0.51	-51.9	-54.4	3.6	0.00e+00	0	39	104	0	60	88692
2026-01-01 22:33:35.80	161.96	0.33	-52.0	-54.5	3.5	0.00e+00	0	39	104	0	60	89550
2026-01-01 22:33:38.83	162.16	0.15	-51.9	-54.4	3.6	0.00e+00	0	39	104	0	60	88607
2026-01-01 22:33:41.86	162.36	-0.03	-51.9	-54.4	3.6	0.00e+00	0	39	104	0	60	88887

#Closed at: 2026-01-01 22:33:42
#Recorded file [0 MB]: D:/lorett/data/35034_260102_012234.dat