passes_logs/2026/01/01/R4.6S_Anadyr_2ch/R4.6S_Anadyr_2ch__20260101_001144_2025-108B_rec.log

#Pass ID: 20260101_001144_2025-108B
#Satellite: 2025-108B
#Configuration: 3PB_600M
#almurnet v.1.7.20251203
#Start time: 2026-01-01 00:11:47

#Version: 2.2.20231116
#Station: R4.6S_Anadyr_2ch
#Location: 177.4865 lon 64.73178 lat
#TLE: 1 64088U 25108B   25351.01672131  .00008460  00000+0  43413-3 0  9994
#TLE: 2 64088  97.4940  63.8579 0011684 285.1423  74.8517 15.16717580 31720

#Time	Az	El	Level	Level2	SNR	BER	BlckErr	Temp	State	Recorded	gain1	gain2
2026-01-01 00:11:47.23	17.32	0.18	-51.4	-52.7	3.4	0.00e+00	0	34	0	0	60	73082
2026-01-01 00:11:50.26	17.26	0.37	-51.6	-54.1	3.5	0.00e+00	0	35	104	0	60	85566
2026-01-01 00:11:53.29	17.20	0.56	-51.6	-54.0	3.6	0.00e+00	0	35	104	0	60	85128
2026-01-01 00:11:56.33	17.14	0.76	-51.6	-54.0	3.6	0.00e+00	0	36	104	0	60	85127
2026-01-01 00:11:59.36	17.08	0.96	-51.6	-54.1	3.6	0.00e+00	0	36	104	0	60	85646
2026-01-01 00:12:02.39	17.01	1.16	-51.6	-54.0	3.6	0.00e+00	0	36	104	0	60	85218
2026-01-01 00:12:05.43	16.95	1.36	-51.6	-54.0	3.6	0.00e+00	0	36	104	0	60	85222
2026-01-01 00:12:08.46	16.88	1.56	-51.6	-54.1	3.6	0.00e+00	0	36	104	0	60	85925
2026-01-01 00:12:11.49	16.81	1.76	-51.6	-54.1	3.6	0.00e+00	0	36	104	0	60	85575
2026-01-01 00:12:14.52	16.74	1.97	-51.6	-54.1	3.6	0.00e+00	0	36	104	0	60	85667
2026-01-01 00:12:17.55	16.67	2.18	-51.6	-54.1	3.6	0.00e+00	0	36	104	0	60	85582
2026-01-01 00:12:20.59	16.60	2.39	-51.6	-54.0	3.6	0.00e+00	0	36	104	0	60	85223
2026-01-01 00:12:23.62	16.53	2.60	-51.6	-54.1	3.6	0.00e+00	0	36	104	0	60	85518
2026-01-01 00:12:26.66	16.45	2.81	-51.6	-54.1	3.6	0.00e+00	0	37	104	0	60	85328
2026-01-01 00:12:29.69	16.37	3.03	-51.6	-54.1	3.6	0.00e+00	0	37	104	0	60	85519
2026-01-01 00:12:32.72	16.29	3.25	-51.6	-54.1	3.6	0.00e+00	0	37	104	0	60	85936
2026-01-01 00:12:35.75	16.21	3.47	-51.6	-54.0	3.6	0.00e+00	0	37	104	0	60	85216
2026-01-01 00:12:38.78	16.13	3.69	-51.6	-54.1	3.6	0.00e+00	0	37	104	0	60	85519
2026-01-01 00:12:41.81	16.05	3.92	-51.6	-54.1	3.6	0.00e+00	0	37	104	0	60	85511
2026-01-01 00:12:44.84	15.96	4.14	-51.6	-54.0	3.6	0.00e+00	0	37	104	0	60	85194
2026-01-01 00:12:47.88	15.87	4.37	-51.6	-54.0	3.6	0.00e+00	0	37	104	0	60	85030
2026-01-01 00:12:50.91	15.78	4.61	-51.6	-54.1	3.6	0.00e+00	0	37	104	0	60	85388
2026-01-01 00:12:53.95	15.69	4.84	-51.6	-54.1	3.6	0.00e+00	0	37	104	0	60	85288
2026-01-01 00:12:56.98	15.60	5.08	-51.6	-54.1	3.6	0.00e+00	0	37	104	0	60	85327
2026-01-01 00:13:00.01	15.50	5.32	-51.6	-54.1	3.6	0.00e+00	0	37	104	0	60	85895
2026-01-01 00:13:03.05	15.40	5.56	-51.6	-54.1	3.6	0.00e+00	0	37	104	0	60	85545
2026-01-01 00:13:06.08	15.30	5.81	-51.6	-54.1	3.6	0.00e+00	0	37	104	0	60	85814
2026-01-01 00:13:09.11	15.20	6.06	-51.6	-54.1	3.6	0.00e+00	0	37	104	0	60	85640
2026-01-01 00:13:12.15	15.09	6.31	-51.6	-54.1	3.6	0.00e+00	0	37	104	0	60	85567
2026-01-01 00:13:15.18	14.98	6.57	-51.6	-54.1	3.6	0.00e+00	0	37	104	0	60	85757
2026-01-01 00:13:18.21	14.87	6.82	-51.6	-54.1	3.6	0.00e+00	0	37	104	0	60	85502
2026-01-01 00:13:21.25	14.75	7.09	-51.6	-54.1	3.6	0.00e+00	0	37	104	0	60	85656
2026-01-01 00:13:24.28	14.64	7.35	-51.6	-54.1	3.6	0.00e+00	0	37	104	0	60	85310
2026-01-01 00:13:27.31	14.52	7.62	-51.6	-54.1	3.6	0.00e+00	0	37	104	0	60	86116
2026-01-01 00:13:30.34	14.39	7.89	-51.6	-54.1	3.6	0.00e+00	0	37	104	0	60	85334
2026-01-01 00:13:33.37	14.27	8.17	-51.6	-54.1	3.6	0.00e+00	0	38	104	0	60	85861
2026-01-01 00:13:36.40	14.14	8.45	-51.6	-54.1	3.6	0.00e+00	0	38	104	0	60	85857
2026-01-01 00:13:39.44	14.01	8.73	-51.6	-54.1	3.6	0.00e+00	0	38	104	0	60	85393
2026-01-01 00:13:42.47	13.87	9.02	-51.6	-54.1	3.6	0.00e+00	0	38	104	0	60	85493
2026-01-01 00:13:45.50	13.73	9.31	-51.6	-54.1	3.6	0.00e+00	0	38	104	0	60	85574
2026-01-01 00:13:48.53	13.59	9.61	-51.6	-54.1	3.6	0.00e+00	0	38	104	0	60	85714
2026-01-01 00:13:51.57	13.44	9.91	-51.6	-54.1	3.6	0.00e+00	0	38	104	0	60	85350
2026-01-01 00:13:54.60	13.29	10.22	-51.6	-54.1	3.6	0.00e+00	0	38	104	0	60	85552
2026-01-01 00:13:57.64	13.13	10.53	-51.6	-54.1	3.6	0.00e+00	0	38	104	0	60	85448
2026-01-01 00:14:00.67	12.97	10.85	-51.6	-54.1	3.6	0.00e+00	0	38	104	0	60	85595
2026-01-01 00:14:03.71	12.80	11.17	-51.6	-54.1	3.6	0.00e+00	0	38	104	0	60	85867
2026-01-01 00:14:06.74	12.63	11.49	-51.6	-54.1	3.6	0.00e+00	0	38	104	0	60	85488
2026-01-01 00:14:09.77	12.46	11.83	-51.6	-54.1	3.6	0.00e+00	0	38	104	0	60	85379
2026-01-01 00:14:12.80	12.28	12.16	-51.6	-54.1	3.6	0.00e+00	0	38	104	0	60	85536
2026-01-01 00:14:15.84	12.09	12.51	-51.6	-54.1	3.6	0.00e+00	0	38	104	0	60	85684
2026-01-01 00:14:18.87	11.90	12.86	-51.6	-54.1	3.6	0.00e+00	0	38	104	0	60	85492
2026-01-01 00:14:21.90	11.71	13.21	-51.6	-54.1	3.6	0.00e+00	0	38	104	0	60	85742
2026-01-01 00:14:24.93	11.50	13.57	-51.6	-54.1	3.6	0.00e+00	0	38	104	0	60	85577
2026-01-01 00:14:27.97	11.29	13.94	-51.6	-54.1	3.6	0.00e+00	0	38	104	0	60	85506
2026-01-01 00:14:31.00	11.08	14.32	-51.6	-54.1	3.6	0.00e+00	0	38	104	0	60	85361
2026-01-01 00:14:34.03	10.86	14.70	-51.6	-54.1	3.6	0.00e+00	0	38	104	0	60	85784
2026-01-01 00:14:37.07	10.62	15.09	-51.6	-54.1	3.6	0.00e+00	0	38	104	0	60	85588
2026-01-01 00:14:40.10	10.39	15.49	-51.6	-54.1	3.6	0.00e+00	0	38	104	0	60	85592
2026-01-01 00:14:43.13	10.14	15.90	-51.6	-54.1	3.6	0.00e+00	0	38	104	0	60	85483
2026-01-01 00:14:46.16	9.89	16.31	-51.6	-54.1	3.6	0.00e+00	0	38	104	0	60	85340
2026-01-01 00:14:49.20	9.62	16.74	-51.6	-54.1	3.6	0.00e+00	0	38	104	0	60	85438
2026-01-01 00:14:52.23	9.35	17.17	-51.6	-54.1	3.6	0.00e+00	0	38	104	0	60	85385
2026-01-01 00:14:55.27	9.07	17.61	-51.6	-54.1	3.6	0.00e+00	0	38	104	0	60	85426
2026-01-01 00:14:58.30	8.78	18.06	-51.6	-54.0	3.6	0.00e+00	0	38	104	0	60	84898
2026-01-01 00:15:01.33	8.48	18.52	-51.6	-54.1	3.5	0.00e+00	0	38	104	0	60	85233
2026-01-01 00:15:04.36	8.16	19.00	-51.6	-54.1	3.6	0.00e+00	0	38	104	0	60	85402
2026-01-01 00:15:07.40	7.84	19.48	-51.6	-54.1	3.6	0.00e+00	0	38	104	0	60	85585
2026-01-01 00:15:10.43	7.50	19.97	-51.6	-54.1	3.6	0.00e+00	0	38	104	0	60	85582
2026-01-01 00:15:13.46	7.15	20.47	-51.6	-54.1	3.6	0.00e+00	0	38	104	0	60	85710
2026-01-01 00:15:16.50	6.78	20.99	-51.6	-54.0	3.6	0.00e+00	0	38	104	0	60	84953
2026-01-01 00:15:19.53	6.40	21.52	-51.6	-54.1	3.6	0.00e+00	0	38	104	0	60	85670
2026-01-01 00:15:22.56	6.01	22.06	-51.6	-54.1	3.6	0.00e+00	0	38	104	0	60	85416
2026-01-01 00:15:25.59	5.60	22.61	-51.6	-54.1	3.6	0.00e+00	0	38	104	0	60	85397
2026-01-01 00:15:28.62	5.17	23.18	-51.6	-54.1	3.6	0.00e+00	0	38	104	0	60	85452
2026-01-01 00:15:31.66	4.72	23.76	-51.6	-54.1	3.6	0.00e+00	0	38	104	0	60	85357
2026-01-01 00:15:34.69	4.25	24.36	-51.6	-54.1	3.6	0.00e+00	0	38	104	0	60	85423
2026-01-01 00:15:37.72	3.77	24.97	-51.6	-54.0	3.6	0.00e+00	0	38	104	0	60	85206
2026-01-01 00:15:40.76	3.25	25.59	-51.6	-54.1	3.6	0.00e+00	0	39	104	0	60	85793
2026-01-01 00:15:43.79	2.72	26.24	-51.6	-54.1	3.6	0.00e+00	0	38	104	0	60	85674
2026-01-01 00:15:46.82	2.16	26.89	-51.6	-54.1	3.6	0.00e+00	0	38	104	0	60	85730
2026-01-01 00:15:49.86	1.58	27.57	-51.6	-54.0	3.6	0.00e+00	0	38	104	0	60	84917
2026-01-01 00:15:52.89	0.97	28.26	-51.6	-54.1	3.6	0.00e+00	0	38	104	0	60	85535
2026-01-01 00:15:55.92	0.32	28.97	-51.6	-54.1	3.6	0.00e+00	0	38	104	0	60	85509
2026-01-01 00:15:58.95	359.65	29.69	-51.6	-54.0	3.6	0.00e+00	0	38	104	0	60	84946
2026-01-01 00:16:01.99	358.93	30.44	-51.6	-54.1	3.6	0.00e+00	0	38	104	0	60	85543
2026-01-01 00:16:05.02	358.19	31.20	-51.6	-54.1	3.6	0.00e+00	0	38	104	0	60	85338
2026-01-01 00:16:08.05	357.40	31.98	-51.6	-54.1	3.6	0.00e+00	0	38	104	0	60	85388
2026-01-01 00:16:11.08	356.57	32.78	-51.6	-54.1	3.6	0.00e+00	0	38	104	0	60	85603
2026-01-01 00:16:14.12	355.69	33.60	-51.6	-54.1	3.6	0.00e+00	0	38	104	0	60	85849
2026-01-01 00:16:17.15	354.77	34.43	-51.6	-54.1	3.6	0.00e+00	0	39	104	0	60	85236
2026-01-01 00:16:20.18	353.79	35.28	-51.6	-54.1	3.6	0.00e+00	0	39	104	0	60	85885
2026-01-01 00:16:23.21	352.75	36.15	-51.6	-54.1	3.6	0.00e+00	0	39	104	0	60	85762
2026-01-01 00:16:26.24	351.66	37.04	-51.6	-54.1	3.6	0.00e+00	0	39	104	0	60	85353
2026-01-01 00:16:29.27	350.49	37.94	-51.6	-54.1	3.6	0.00e+00	0	39	104	0	60	85928
2026-01-01 00:16:32.31	349.26	38.86	-51.6	-54.1	3.6	0.00e+00	0	39	104	0	60	85359
2026-01-01 00:16:35.34	347.95	39.79	-51.6	-54.1	3.6	0.00e+00	0	39	104	0	60	85634
2026-01-01 00:16:38.37	346.55	40.73	-51.6	-54.1	3.6	0.00e+00	0	39	104	0	60	85289
2026-01-01 00:16:41.41	345.07	41.69	-51.6	-54.1	3.6	0.00e+00	0	39	104	0	60	85529
2026-01-01 00:16:44.44	343.49	42.64	-51.6	-54.1	3.6	0.00e+00	0	39	104	0	60	85905
2026-01-01 00:16:47.47	341.82	43.60	-51.6	-54.1	3.6	0.00e+00	0	39	104	0	60	85258
2026-01-01 00:16:50.51	340.03	44.56	-51.6	-54.1	3.6	0.00e+00	0	39	104	0	60	85393
2026-01-01 00:16:53.54	338.13	45.51	-51.6	-54.1	3.6	0.00e+00	0	39	104	0	60	85292
2026-01-01 00:16:56.58	336.10	46.45	-51.6	-54.0	3.6	0.00e+00	0	39	104	0	60	84871
2026-01-01 00:16:59.61	333.95	47.37	-51.6	-54.1	3.6	0.00e+00	0	39	104	0	60	85240
2026-01-01 00:17:02.64	331.67	48.26	-51.6	-54.1	3.6	0.00e+00	0	39	104	0	60	85591
2026-01-01 00:17:05.67	329.25	49.13	-51.6	-54.1	3.6	0.00e+00	0	39	104	0	60	85540
2026-01-01 00:17:08.71	326.67	49.96	-51.6	-54.1	3.6	0.00e+00	0	39	104	0	60	85620
2026-01-01 00:17:11.74	323.96	50.74	-51.6	-54.1	3.6	0.00e+00	0	39	104	0	60	85276
2026-01-01 00:17:14.77	321.11	51.46	-51.6	-54.1	3.6	0.00e+00	0	39	104	0	60	85607
2026-01-01 00:17:17.80	318.12	52.12	-51.6	-54.1	3.6	0.00e+00	0	39	104	0	60	85508
2026-01-01 00:17:20.83	315.00	52.70	-51.6	-54.1	3.6	0.00e+00	0	39	104	0	60	85354
2026-01-01 00:17:23.87	311.75	53.20	-51.6	-54.0	3.6	0.00e+00	0	39	104	0	60	85122
2026-01-01 00:17:26.90	308.40	53.61	-51.6	-54.1	3.6	0.00e+00	0	39	104	0	60	85823
2026-01-01 00:17:29.93	304.96	53.93	-51.6	-54.1	3.6	0.00e+00	0	39	104	0	60	85708
2026-01-01 00:17:32.96	301.46	54.13	-51.6	-54.1	3.6	0.00e+00	0	39	104	0	60	85555
2026-01-01 00:17:35.99	297.92	54.24	-51.6	-54.0	3.6	0.00e+00	0	39	104	0	60	85029
2026-01-01 00:17:39.02	294.37	54.23	-51.6	-54.1	3.6	0.00e+00	0	39	104	0	60	85535
2026-01-01 00:17:42.06	290.82	54.12	-51.6	-54.1	3.6	0.00e+00	0	39	104	0	60	85682
2026-01-01 00:17:45.09	287.32	53.90	-51.6	-54.1	3.6	0.00e+00	0	39	104	0	60	85560
2026-01-01 00:17:48.12	283.89	53.57	-51.6	-54.1	3.6	0.00e+00	0	39	104	0	60	85686
2026-01-01 00:17:51.16	280.53	53.15	-51.6	-54.0	3.6	0.00e+00	0	39	104	0	60	85133
2026-01-01 00:17:54.19	277.30	52.64	-51.6	-54.1	3.6	0.00e+00	0	39	104	0	60	85598
2026-01-01 00:17:57.22	274.18	52.04	-51.6	-54.0	3.6	0.00e+00	0	39	104	0	60	84653
2026-01-01 00:18:00.26	271.19	51.37	-51.6	-54.0	3.6	0.00e+00	0	39	104	0	60	85154
2026-01-01 00:18:03.29	268.35	50.64	-51.6	-54.0	3.6	0.00e+00	0	39	104	0	60	85214
2026-01-01 00:18:06.32	265.65	49.85	-51.6	-54.1	3.6	0.00e+00	0	39	104	0	60	85926
2026-01-01 00:18:09.36	263.08	49.01	-51.6	-54.1	3.6	0.00e+00	0	39	104	0	60	85711
2026-01-01 00:18:12.39	260.67	48.14	-51.6	-54.1	3.6	0.00e+00	0	39	104	0	60	85504
2026-01-01 00:18:15.42	258.40	47.23	-51.6	-54.1	3.6	0.00e+00	0	39	104	0	60	85377
2026-01-01 00:18:18.45	256.25	46.31	-51.6	-54.1	3.6	0.00e+00	0	39	104	0	60	85538
2026-01-01 00:18:21.49	254.23	45.36	-51.6	-54.0	3.6	0.00e+00	0	39	104	0	60	85195
2026-01-01 00:18:24.52	252.34	44.40	-51.6	-54.0	3.6	0.00e+00	0	39	104	0	60	85120
2026-01-01 00:18:27.55	250.56	43.44	-51.6	-54.1	3.6	0.00e+00	0	39	104	0	60	85874
2026-01-01 00:18:30.58	248.89	42.48	-51.6	-54.1	3.6	0.00e+00	0	39	104	0	60	85445
2026-01-01 00:18:33.62	247.32	41.51	-51.6	-54.0	3.6	0.00e+00	0	39	104	0	60	84968
2026-01-01 00:18:36.65	245.84	40.56	-51.6	-54.1	3.6	0.00e+00	0	39	104	0	60	85789
2026-01-01 00:18:39.69	244.45	39.61	-51.6	-54.0	3.6	0.00e+00	0	39	104	0	60	85143
2026-01-01 00:18:42.72	243.15	38.67	-51.6	-54.0	3.6	0.00e+00	0	39	104	0	60	85026
2026-01-01 00:18:45.75	241.92	37.75	-51.6	-54.0	3.6	0.00e+00	0	39	104	0	60	84298
2026-01-01 00:18:48.79	240.75	36.84	-51.6	-54.1	3.6	0.00e+00	0	39	104	0	60	85892
2026-01-01 00:18:51.82	239.66	35.95	-51.6	-54.1	3.6	0.00e+00	0	39	104	0	60	85288
2026-01-01 00:18:54.85	238.63	35.08	-51.6	-54.1	3.6	0.00e+00	0	39	104	0	60	85657
2026-01-01 00:18:57.89	237.65	34.22	-51.6	-54.1	3.6	0.00e+00	0	39	104	0	60	85693
2026-01-01 00:19:00.92	236.73	33.38	-51.6	-54.1	3.6	0.00e+00	0	39	104	0	60	85597
2026-01-01 00:19:03.95	235.85	32.56	-51.6	-54.1	3.6	0.00e+00	0	39	104	0	60	85434
2026-01-01 00:19:06.98	235.03	31.76	-51.6	-54.1	3.6	0.00e+00	0	39	104	0	60	85850
2026-01-01 00:19:10.01	234.24	30.97	-51.6	-54.1	3.6	0.00e+00	0	39	104	0	60	85833
2026-01-01 00:19:13.05	233.49	30.21	-51.7	-54.1	3.6	0.00e+00	0	39	104	0	60	85714
2026-01-01 00:19:16.08	232.78	29.46	-51.6	-54.1	3.6	0.00e+00	0	39	104	0	60	85657
2026-01-01 00:19:19.11	232.11	28.73	-51.6	-54.1	3.5	0.00e+00	0	39	104	0	60	85651
2026-01-01 00:19:22.14	231.47	28.02	-51.6	-54.1	3.6	0.00e+00	0	39	104	0	60	85996
2026-01-01 00:19:25.18	230.85	27.33	-51.6	-54.1	3.6	0.00e+00	0	39	104	0	60	85231
2026-01-01 00:19:28.20	230.27	26.65	-51.6	-54.0	3.6	0.00e+00	0	39	104	0	60	85131
2026-01-01 00:19:31.24	229.71	25.99	-51.6	-54.1	3.6	0.00e+00	0	39	104	0	60	85344
2026-01-01 00:19:34.27	229.18	25.35	-51.7	-54.1	3.6	0.00e+00	0	39	104	0	60	85843
2026-01-01 00:19:37.31	228.67	24.72	-51.6	-54.1	3.6	0.00e+00	0	39	104	0	60	85712
2026-01-01 00:19:40.34	228.18	24.11	-51.6	-54.1	3.6	0.00e+00	0	39	104	0	60	85744
2026-01-01 00:19:43.37	227.72	23.51	-51.6	-54.1	3.6	0.00e+00	0	39	104	0	60	86188
2026-01-01 00:19:46.41	227.27	22.93	-51.6	-54.0	3.6	0.00e+00	0	39	104	0	60	85085
2026-01-01 00:19:49.44	226.84	22.36	-51.6	-54.1	3.6	0.00e+00	0	39	104	0	60	85691
2026-01-01 00:19:52.47	226.43	21.80	-51.7	-54.1	3.6	0.00e+00	0	39	104	0	60	85731
2026-01-01 00:19:55.50	226.04	21.26	-51.6	-54.1	3.6	0.00e+00	0	39	104	0	60	85764
2026-01-01 00:19:58.54	225.66	20.73	-51.6	-54.1	3.6	0.00e+00	0	39	104	0	60	85778
2026-01-01 00:20:01.57	225.29	20.21	-51.7	-54.1	3.6	0.00e+00	0	39	104	0	60	85806
2026-01-01 00:20:04.60	224.94	19.71	-51.6	-54.1	3.6	0.00e+00	0	39	104	0	60	85968
2026-01-01 00:20:07.64	224.60	19.21	-51.7	-54.1	3.6	0.00e+00	0	39	104	0	60	85793
2026-01-01 00:20:10.67	224.27	18.73	-51.6	-54.1	3.6	0.00e+00	0	39	104	0	60	85305
2026-01-01 00:20:13.70	223.96	18.26	-51.6	-54.1	3.6	0.00e+00	0	39	104	0	60	85682
2026-01-01 00:20:16.73	223.66	17.80	-51.7	-54.1	3.6	0.00e+00	0	39	104	0	60	85841
2026-01-01 00:20:19.77	223.36	17.34	-51.6	-54.1	3.6	0.00e+00	0	39	104	0	60	85440
2026-01-01 00:20:22.80	223.08	16.90	-51.7	-54.2	3.6	0.00e+00	0	39	104	0	60	86231
2026-01-01 00:20:25.83	222.81	16.47	-51.6	-54.1	3.6	0.00e+00	0	39	104	0	60	85641
2026-01-01 00:20:28.86	222.55	16.04	-51.6	-54.1	3.6	0.00e+00	0	39	104	0	60	85441
2026-01-01 00:20:31.90	222.29	15.63	-51.6	-54.1	3.6	0.00e+00	0	39	104	0	60	85355
2026-01-01 00:20:34.93	222.05	15.22	-51.6	-54.1	3.6	0.00e+00	0	39	104	0	60	86161
2026-01-01 00:20:37.97	221.81	14.82	-51.6	-54.1	3.6	0.00e+00	0	39	104	0	60	85608
2026-01-01 00:20:41.00	221.58	14.43	-51.8	-54.2	3.6	0.00e+00	0	39	104	0	60	86825
2026-01-01 00:20:44.04	221.35	14.04	-51.8	-54.3	3.6	0.00e+00	0	39	104	0	60	87216
2026-01-01 00:20:47.07	221.13	13.66	-51.7	-54.2	3.6	0.00e+00	0	39	104	0	60	86775
2026-01-01 00:20:50.10	220.92	13.30	-51.5	-54.0	3.6	0.00e+00	0	39	104	0	60	84694
2026-01-01 00:20:53.14	220.72	12.93	-49.6	-52.2	3.6	0.00e+00	0	39	104	0	60	68788
2026-01-01 00:20:56.17	220.52	12.57	-50.2	-52.6	3.6	0.00e+00	0	39	104	0	60	72536
2026-01-01 00:20:59.20	220.33	12.22	-50.2	-52.7	3.6	0.00e+00	0	39	104	0	60	72697
2026-01-01 00:21:02.23	220.14	11.88	-50.2	-52.7	3.6	0.00e+00	0	39	104	0	60	72791
2026-01-01 00:21:05.27	219.96	11.54	-50.2	-52.7	3.6	0.00e+00	0	39	104	0	60	72719
2026-01-01 00:21:08.30	219.79	11.21	-50.2	-52.6	3.6	0.00e+00	0	39	104	0	60	72468
2026-01-01 00:21:11.33	219.62	10.88	-50.2	-52.7	3.6	0.00e+00	0	39	104	0	60	72668
2026-01-01 00:21:14.36	219.45	10.56	-50.2	-52.7	3.6	0.00e+00	0	39	104	0	60	72669
2026-01-01 00:21:17.40	219.29	10.24	-50.2	-52.6	3.6	0.00e+00	0	39	104	0	60	72496
2026-01-01 00:21:20.43	219.13	9.93	-50.2	-52.6	3.6	0.00e+00	0	39	104	0	60	72423
2026-01-01 00:21:23.46	218.98	9.63	-50.2	-52.7	3.6	0.00e+00	0	39	104	0	60	72902
2026-01-01 00:21:26.49	218.83	9.32	-50.2	-52.7	3.6	0.00e+00	0	39	104	0	60	72763
2026-01-01 00:21:29.53	218.68	9.03	-50.2	-52.7	3.6	0.00e+00	0	39	104	0	60	72804
2026-01-01 00:21:32.56	218.54	8.73	-50.2	-52.6	3.6	0.00e+00	0	39	104	0	60	72410
2026-01-01 00:21:35.60	218.40	8.44	-50.1	-52.6	3.6	0.00e+00	0	39	104	0	60	72368
2026-01-01 00:21:38.63	218.27	8.16	-50.2	-52.7	3.6	0.00e+00	0	39	104	0	60	72637
2026-01-01 00:21:41.66	218.14	7.88	-50.3	-52.8	3.6	0.00e+00	0	39	104	0	60	73756
2026-01-01 00:21:44.69	218.01	7.60	-50.3	-52.8	3.6	0.00e+00	0	39	104	0	60	73923
2026-01-01 00:21:47.73	217.89	7.33	-50.4	-52.9	3.6	0.00e+00	0	39	104	0	60	74729
2026-01-01 00:21:50.76	217.76	7.06	-50.5	-52.9	3.6	0.00e+00	0	39	104	0	60	74829
2026-01-01 00:21:53.79	217.65	6.79	-50.5	-53.0	3.6	0.00e+00	0	39	104	0	60	75602
2026-01-01 00:21:56.83	217.53	6.53	-50.5	-53.0	3.6	0.00e+00	0	39	104	0	60	75447
2026-01-01 00:21:59.86	217.42	6.27	-50.6	-53.0	3.6	0.00e+00	0	39	104	0	60	75771
2026-01-01 00:22:02.89	217.31	6.02	-50.6	-53.1	3.6	0.00e+00	0	39	104	0	60	76251
2026-01-01 00:22:05.92	217.20	5.76	-50.6	-53.1	3.6	0.00e+00	0	39	104	0	60	76007
2026-01-01 00:22:08.95	217.09	5.52	-50.7	-53.1	3.6	0.00e+00	0	39	104	0	60	76769
2026-01-01 00:22:11.99	216.99	5.27	-50.7	-53.2	3.6	0.00e+00	0	39	104	0	60	76859
2026-01-01 00:22:15.02	216.89	5.03	-50.7	-53.2	3.6	0.00e+00	0	39	104	0	60	77220
2026-01-01 00:22:18.05	216.79	4.78	-50.7	-53.2	3.6	0.00e+00	0	39	104	0	60	77478
2026-01-01 00:22:21.08	216.69	4.55	-50.7	-53.2	3.6	0.00e+00	0	39	104	0	60	77264
2026-01-01 00:22:24.12	216.60	4.31	-50.7	-53.3	3.6	0.00e+00	0	39	104	0	60	77916
2026-01-01 00:22:27.15	216.51	4.08	-50.8	-53.3	3.6	0.00e+00	0	39	104	0	60	77992
2026-01-01 00:22:30.18	216.42	3.85	-50.8	-53.3	3.6	0.00e+00	0	39	104	0	60	78312
2026-01-01 00:22:33.21	216.33	3.62	-50.8	-53.3	3.6	0.00e+00	0	39	104	0	60	77844
2026-01-01 00:22:36.25	216.24	3.39	-50.8	-53.3	3.6	0.00e+00	0	39	104	0	60	77742
2026-01-01 00:22:39.28	216.16	3.17	-50.8	-53.3	3.6	0.00e+00	0	39	104	0	60	77814
2026-01-01 00:22:42.32	216.07	2.95	-50.9	-53.4	3.6	0.00e+00	0	39	104	0	60	78824
2026-01-01 00:22:45.35	215.99	2.73	-51.0	-53.4	3.6	0.00e+00	0	39	104	0	60	79217
2026-01-01 00:22:48.38	215.91	2.52	-51.0	-53.4	3.6	0.00e+00	0	39	104	0	60	79230
2026-01-01 00:22:51.41	215.84	2.30	-51.0	-53.4	3.6	0.00e+00	0	39	104	0	60	79341
2026-01-01 00:22:54.45	215.76	2.09	-51.0	-53.4	3.6	0.00e+00	0	39	104	0	60	79437
2026-01-01 00:22:57.48	215.69	1.88	-51.0	-53.5	3.6	0.00e+00	0	39	104	0	60	79757
2026-01-01 00:23:00.51	215.61	1.67	-51.0	-53.5	3.6	0.00e+00	0	39	104	0	60	80047
2026-01-01 00:23:03.55	215.54	1.46	-51.1	-53.5	3.6	0.00e+00	0	39	104	0	60	80244
2026-01-01 00:23:06.58	215.47	1.26	-51.0	-53.5	3.6	0.00e+00	0	39	104	0	60	79856
2026-01-01 00:23:09.61	215.40	1.06	-51.1	-53.6	3.6	0.00e+00	0	39	104	0	60	80678
2026-01-01 00:23:12.64	215.33	0.85	-51.1	-53.6	3.6	0.00e+00	0	39	104	0	60	80595
2026-01-01 00:23:15.67	215.27	0.66	-51.1	-53.6	3.6	0.00e+00	0	39	104	0	60	80464
2026-01-01 00:23:18.70	215.20	0.46	-51.0	-53.6	3.6	0.00e+00	0	39	104	0	60	80500
2026-01-01 00:23:21.73	215.14	0.26	-51.1	-53.6	3.6	0.00e+00	0	39	104	0	60	80984
2026-01-01 00:23:24.76	215.08	0.07	-51.2	-53.6	3.5	0.00e+00	0	39	104	0	60	81238

#Closed at: 2026-01-01 00:23:27
#Recorded file [0 MB]: D:/lorett/data/35034_260101_031147.dat