passes_logs/2026/01/01/R4.6S_Anadyr_2ch/R4.6S_Anadyr_2ch__20260101_092908_2025-108B_rec.log

#Pass ID: 20260101_092908_2025-108B
#Satellite: 2025-108B
#Configuration: 3PB_600M
#almurnet v.1.7.20251203
#Start time: 2026-01-01 09:29:10

#Version: 2.2.20231116
#Station: R4.6S_Anadyr_2ch
#Location: 177.4865 lon 64.73178 lat
#TLE: 1 64088U 25108B   25351.01672131  .00008460  00000+0  43413-3 0  9994
#TLE: 2 64088  97.4940  63.8579 0011684 285.1423  74.8517 15.16717580 31720

#Time	Az	El	Level	Level2	SNR	BER	BlckErr	Temp	State	Recorded	gain1	gain2
2026-01-01 09:29:10.40	158.25	0.12	-52.3	-53.6	3.4	0.00e+00	0	34	0	0	60	80902
2026-01-01 09:29:13.43	158.25	0.31	-51.9	-54.4	3.6	0.00e+00	0	35	104	0	60	88497
2026-01-01 09:29:16.46	158.26	0.51	-51.9	-54.4	3.6	0.00e+00	0	35	104	0	60	88453
2026-01-01 09:29:19.49	158.26	0.71	-51.9	-54.4	3.6	0.00e+00	0	35	104	0	60	88491
2026-01-01 09:29:22.52	158.26	0.91	-51.9	-54.3	3.6	0.00e+00	0	36	104	0	60	87807
2026-01-01 09:29:25.55	158.27	1.11	-51.9	-54.3	3.6	0.00e+00	0	36	104	0	60	88215
2026-01-01 09:29:28.59	158.27	1.32	-51.9	-54.4	3.6	0.00e+00	0	35	104	0	60	88294
2026-01-01 09:29:31.62	158.27	1.52	-51.9	-54.4	3.6	0.00e+00	0	36	104	0	60	88751
2026-01-01 09:29:34.65	158.28	1.73	-51.9	-54.4	3.6	0.00e+00	0	36	104	0	60	88544
2026-01-01 09:29:37.68	158.28	1.94	-52.0	-54.4	3.6	0.00e+00	0	36	104	0	60	88511
2026-01-01 09:29:40.72	158.28	2.15	-51.9	-54.4	3.6	0.00e+00	0	36	104	0	60	88228
2026-01-01 09:29:43.75	158.29	2.37	-51.9	-54.4	3.6	0.00e+00	0	36	104	0	60	89015
2026-01-01 09:29:46.78	158.29	2.58	-51.9	-54.4	3.6	0.00e+00	0	36	104	0	60	88755
2026-01-01 09:29:49.81	158.29	2.80	-51.9	-54.4	3.6	0.00e+00	0	36	104	0	60	88703
2026-01-01 09:29:52.85	158.29	3.02	-52.0	-54.4	3.6	0.00e+00	0	36	104	0	60	88669
2026-01-01 09:29:55.88	158.30	3.24	-51.9	-54.4	3.6	0.00e+00	0	36	104	0	60	88420
2026-01-01 09:29:58.91	158.30	3.47	-51.9	-54.4	3.6	0.00e+00	0	36	104	0	60	88593
2026-01-01 09:30:01.94	158.30	3.70	-52.0	-54.4	3.6	0.00e+00	0	36	104	0	60	88798
2026-01-01 09:30:04.98	158.30	3.93	-51.9	-54.4	3.6	0.00e+00	0	37	104	0	60	88278
2026-01-01 09:30:08.01	158.30	4.16	-51.9	-54.4	3.6	0.00e+00	0	37	104	0	60	88764
2026-01-01 09:30:11.04	158.30	4.39	-51.9	-54.4	3.6	0.00e+00	0	37	104	0	60	88282
2026-01-01 09:30:14.07	158.31	4.63	-51.9	-54.4	3.6	0.00e+00	0	37	104	0	60	88870
2026-01-01 09:30:17.10	158.31	4.87	-51.9	-54.4	3.6	0.00e+00	0	37	104	0	60	88220
2026-01-01 09:30:20.13	158.31	5.12	-51.9	-54.4	3.6	0.00e+00	0	37	104	0	60	88763
2026-01-01 09:30:23.16	158.31	5.36	-51.9	-54.4	3.6	0.00e+00	0	37	104	0	60	88455
2026-01-01 09:30:26.19	158.31	5.61	-51.9	-54.3	3.6	0.00e+00	0	37	104	0	60	88038
2026-01-01 09:30:29.22	158.31	5.86	-51.9	-54.4	3.6	0.00e+00	0	37	104	0	60	88655
2026-01-01 09:30:32.25	158.31	6.12	-51.9	-54.4	3.6	0.00e+00	0	37	104	0	60	88768
2026-01-01 09:30:35.29	158.31	6.38	-51.9	-54.4	3.6	0.00e+00	0	37	104	0	60	88501
2026-01-01 09:30:38.32	158.31	6.64	-51.9	-54.3	3.5	0.00e+00	0	37	104	0	60	88184
2026-01-01 09:30:41.35	158.31	6.91	-51.9	-54.4	3.6	0.00e+00	0	37	104	0	60	88410
2026-01-01 09:30:44.38	158.31	7.18	-51.9	-54.3	3.6	0.00e+00	0	37	104	0	60	88080
2026-01-01 09:30:47.41	158.31	7.45	-51.9	-54.3	3.6	0.00e+00	0	37	104	0	60	88102
2026-01-01 09:30:50.44	158.31	7.73	-51.9	-54.3	3.5	0.00e+00	0	37	104	0	60	88097
2026-01-01 09:30:53.48	158.30	8.01	-51.9	-54.4	3.6	0.00e+00	0	37	104	0	60	88258
2026-01-01 09:30:56.51	158.30	8.30	-51.9	-54.4	3.6	0.00e+00	0	37	104	0	60	88386
2026-01-01 09:30:59.54	158.30	8.59	-51.9	-54.4	3.6	0.00e+00	0	37	104	0	60	88312
2026-01-01 09:31:02.57	158.30	8.88	-51.9	-54.4	3.6	0.00e+00	0	37	104	0	60	88559
2026-01-01 09:31:05.61	158.30	9.18	-51.9	-54.4	3.6	0.00e+00	0	37	104	0	60	88327
2026-01-01 09:31:08.64	158.29	9.48	-51.9	-54.3	3.6	0.00e+00	0	37	104	0	60	88194
2026-01-01 09:31:11.67	158.29	9.79	-51.9	-54.4	3.6	0.00e+00	0	37	104	0	60	88361
2026-01-01 09:31:14.70	158.29	10.11	-51.9	-54.3	3.6	0.00e+00	0	37	104	0	60	88141
2026-01-01 09:31:17.74	158.28	10.43	-51.9	-54.3	3.6	0.00e+00	0	38	104	0	60	87964
2026-01-01 09:31:20.77	158.28	10.75	-51.9	-54.4	3.6	0.00e+00	0	38	104	0	60	88221
2026-01-01 09:31:23.80	158.27	11.08	-51.9	-54.3	3.6	0.00e+00	0	38	104	0	60	88157
2026-01-01 09:31:26.83	158.27	11.42	-51.9	-54.4	3.6	0.00e+00	0	38	104	0	60	88679
2026-01-01 09:31:29.86	158.26	11.76	-51.9	-54.4	3.6	0.00e+00	0	38	104	0	60	88230
2026-01-01 09:31:32.89	158.26	12.11	-51.9	-54.4	3.6	0.00e+00	0	38	104	0	60	88818
2026-01-01 09:31:35.93	158.25	12.46	-51.9	-54.4	3.6	0.00e+00	0	38	104	0	60	88397
2026-01-01 09:31:38.96	158.24	12.82	-51.9	-54.4	3.6	0.00e+00	0	38	104	0	60	88551
2026-01-01 09:31:41.99	158.23	13.19	-51.9	-54.4	3.6	0.00e+00	0	38	104	0	60	88914
2026-01-01 09:31:45.03	158.23	13.57	-51.9	-54.4	3.6	0.00e+00	0	38	104	0	60	88530
2026-01-01 09:31:48.06	158.22	13.95	-51.9	-54.4	3.6	0.00e+00	0	38	104	0	60	88331
2026-01-01 09:31:51.10	158.21	14.34	-51.9	-54.4	3.6	0.00e+00	0	38	104	0	60	88282
2026-01-01 09:31:54.13	158.20	14.74	-51.9	-54.3	3.6	0.00e+00	0	38	104	0	60	88030
2026-01-01 09:31:57.16	158.19	15.15	-51.9	-54.4	3.6	0.00e+00	0	38	104	0	60	88429
2026-01-01 09:32:00.19	158.18	15.57	-51.9	-54.4	3.6	0.00e+00	0	38	104	0	60	88347
2026-01-01 09:32:03.23	158.17	15.99	-51.9	-54.4	3.6	0.00e+00	0	38	104	0	60	88323
2026-01-01 09:32:06.26	158.15	16.43	-51.9	-54.4	3.6	0.00e+00	0	38	104	0	60	88674
2026-01-01 09:32:09.29	158.14	16.88	-51.9	-54.4	3.6	0.00e+00	0	38	104	0	60	88336
2026-01-01 09:32:12.33	158.12	17.33	-51.9	-54.4	3.6	0.00e+00	0	38	104	0	60	88844
2026-01-01 09:32:15.36	158.11	17.80	-51.9	-54.3	3.6	0.00e+00	0	38	104	0	60	88118
2026-01-01 09:32:18.39	158.09	18.28	-51.9	-54.3	3.6	0.00e+00	0	38	104	0	60	87969
2026-01-01 09:32:21.42	158.08	18.77	-51.9	-54.4	3.5	0.00e+00	0	38	104	0	60	88304
2026-01-01 09:32:24.45	158.06	19.27	-51.9	-54.4	3.6	0.00e+00	0	38	104	0	60	88675
2026-01-01 09:32:27.49	158.04	19.79	-51.9	-54.4	3.6	0.00e+00	0	38	104	0	60	88517
2026-01-01 09:32:30.52	158.02	20.32	-51.9	-54.4	3.6	0.00e+00	0	38	104	0	60	88253
2026-01-01 09:32:33.55	158.00	20.86	-51.9	-54.4	3.6	0.00e+00	0	38	104	0	60	88234
2026-01-01 09:32:36.59	157.97	21.42	-51.9	-54.3	3.6	0.00e+00	0	38	104	0	60	87885
2026-01-01 09:32:39.62	157.95	22.00	-51.9	-54.3	3.6	0.00e+00	0	38	104	0	60	87967
2026-01-01 09:32:42.65	157.92	22.59	-51.9	-54.3	3.6	0.00e+00	0	38	104	0	60	88064
2026-01-01 09:32:45.69	157.90	23.20	-51.9	-54.3	3.6	0.00e+00	0	38	104	0	60	88064
2026-01-01 09:32:48.72	157.87	23.82	-51.9	-54.3	3.6	0.00e+00	0	38	104	0	60	88187
2026-01-01 09:32:51.75	157.84	24.46	-51.9	-54.4	3.6	0.00e+00	0	38	104	0	60	88373
2026-01-01 09:32:54.79	157.80	25.13	-51.9	-54.3	3.6	0.00e+00	0	38	104	0	60	88051
2026-01-01 09:32:57.82	157.77	25.81	-51.9	-54.3	3.6	0.00e+00	0	38	104	0	60	88147
2026-01-01 09:33:00.85	157.73	26.52	-51.9	-54.3	3.6	0.00e+00	0	38	104	0	60	88089
2026-01-01 09:33:03.89	157.69	27.25	-51.9	-54.4	3.6	0.00e+00	0	38	104	0	60	88297
2026-01-01 09:33:06.92	157.65	28.00	-51.9	-54.4	3.6	0.00e+00	0	38	104	0	60	88309
2026-01-01 09:33:09.95	157.60	28.78	-51.9	-54.3	3.6	0.00e+00	0	38	104	0	60	88124
2026-01-01 09:33:12.98	157.56	29.58	-51.9	-54.4	3.6	0.00e+00	0	38	104	0	60	88354
2026-01-01 09:33:16.01	157.50	30.41	-51.9	-54.4	3.6	0.00e+00	0	38	104	0	60	88303
2026-01-01 09:33:19.04	157.45	31.27	-51.9	-54.4	3.6	0.00e+00	0	38	104	0	60	88392
2026-01-01 09:33:22.08	157.39	32.16	-51.9	-54.4	3.6	0.00e+00	0	38	104	0	60	88449
2026-01-01 09:33:25.11	157.33	33.09	-51.9	-54.3	3.6	0.00e+00	0	38	104	0	60	88147
2026-01-01 09:33:28.14	157.26	34.04	-51.9	-54.4	3.6	0.00e+00	0	38	104	0	60	88234
2026-01-01 09:33:31.17	157.19	35.03	-51.9	-54.3	3.6	0.00e+00	0	38	104	0	60	87947
2026-01-01 09:33:34.20	157.11	36.06	-51.9	-54.4	3.6	0.00e+00	0	38	104	0	60	88343
2026-01-01 09:33:37.24	157.02	37.13	-51.9	-54.4	3.6	0.00e+00	0	38	104	0	60	88252
2026-01-01 09:33:40.27	156.93	38.23	-51.9	-54.4	3.6	0.00e+00	0	38	104	0	60	88292
2026-01-01 09:33:43.30	156.83	39.38	-51.9	-54.3	3.6	0.00e+00	0	38	104	0	60	88040
2026-01-01 09:33:46.34	156.72	40.58	-51.9	-54.4	3.6	0.00e+00	0	38	104	0	60	88375
2026-01-01 09:33:49.37	156.61	41.82	-51.9	-54.4	3.6	0.00e+00	0	38	104	0	60	88465
2026-01-01 09:33:52.41	156.48	43.11	-52.0	-54.4	3.6	0.00e+00	0	38	104	0	60	88909
2026-01-01 09:33:55.44	156.34	44.45	-51.9	-54.4	3.6	0.00e+00	0	38	104	0	60	88469
2026-01-01 09:33:58.47	156.18	45.84	-51.9	-54.4	3.6	0.00e+00	0	39	104	0	60	88687
2026-01-01 09:34:01.51	156.01	47.29	-51.9	-54.4	3.6	0.00e+00	0	38	104	0	60	88275
2026-01-01 09:34:04.54	155.82	48.80	-51.9	-54.4	3.6	0.00e+00	0	38	104	0	60	88222
2026-01-01 09:34:07.57	155.61	50.36	-51.9	-54.4	3.6	0.00e+00	0	38	104	0	60	88377
2026-01-01 09:34:10.60	155.37	51.98	-51.9	-54.4	3.6	0.00e+00	0	38	104	0	60	88571
2026-01-01 09:34:13.63	155.11	53.66	-51.9	-54.3	3.6	0.00e+00	0	38	104	0	60	88132
2026-01-01 09:34:16.67	154.80	55.41	-51.9	-54.4	3.6	0.00e+00	0	39	104	0	60	88397
2026-01-01 09:34:19.70	154.46	57.22	-51.9	-54.4	3.6	0.00e+00	0	39	104	0	60	88760
2026-01-01 09:34:22.74	154.06	59.09	-51.9	-54.4	3.6	0.00e+00	0	38	104	0	60	88272
2026-01-01 09:34:25.77	153.60	61.03	-52.0	-54.5	3.6	0.00e+00	0	38	104	0	60	89337
2026-01-01 09:34:28.80	153.06	63.02	-52.0	-54.4	3.6	0.00e+00	0	38	104	0	60	89128
2026-01-01 09:34:31.83	152.41	65.08	-52.0	-54.4	3.6	0.00e+00	0	38	104	0	60	89219
2026-01-01 09:34:34.87	151.62	67.19	-52.0	-54.5	3.6	0.00e+00	0	39	104	0	60	89311
2026-01-01 09:34:37.90	150.66	69.36	-52.0	-54.5	3.6	0.00e+00	0	39	104	0	60	89459
2026-01-01 09:34:40.93	149.44	71.57	-51.9	-54.3	3.6	0.00e+00	0	39	104	0	60	88010
2026-01-01 09:34:43.97	147.85	73.83	-52.0	-54.4	3.6	0.00e+00	0	39	104	0	60	88828
2026-01-01 09:34:47.00	145.72	76.12	-51.9	-54.4	3.6	0.00e+00	0	39	104	0	60	88452
2026-01-01 09:34:50.03	142.71	78.41	-52.0	-54.5	3.6	0.00e+00	0	39	104	0	60	89557
2026-01-01 09:34:53.07	138.14	80.70	-51.9	-54.4	3.6	0.00e+00	0	38	104	0	60	88710
2026-01-01 09:34:56.10	130.62	82.91	-51.9	-54.4	3.6	0.00e+00	0	39	104	0	60	88643
2026-01-01 09:34:59.13	116.69	84.91	-51.9	-54.3	3.6	0.00e+00	0	38	104	0	60	88186
2026-01-01 09:35:02.16	89.18	86.29	-51.9	-54.4	3.6	0.00e+00	0	39	104	0	60	88825
2026-01-01 09:35:05.19	50.07	86.27	-51.9	-54.4	3.6	0.00e+00	0	39	104	0	60	88438
2026-01-01 09:35:08.23	23.00	84.85	-51.9	-54.4	3.6	0.00e+00	0	39	104	0	60	88227
2026-01-01 09:35:11.26	9.38	82.84	-51.9	-54.3	3.6	0.00e+00	0	39	104	0	60	88189
2026-01-01 09:35:14.29	2.00	80.63	-51.9	-54.4	3.6	0.00e+00	0	39	104	0	60	88800
2026-01-01 09:35:17.32	357.51	78.35	-51.9	-54.3	3.6	0.00e+00	0	39	104	0	60	88024
2026-01-01 09:35:20.35	354.53	76.06	-51.9	-54.4	3.6	0.00e+00	0	39	104	0	60	88456
2026-01-01 09:35:23.38	352.42	73.78	-51.9	-54.4	3.5	0.00e+00	0	39	104	0	60	88257
2026-01-01 09:35:26.42	350.84	71.52	-51.9	-54.4	3.6	0.00e+00	0	39	104	0	60	88635
2026-01-01 09:35:29.45	349.63	69.31	-51.9	-54.4	3.6	0.00e+00	0	39	104	0	60	88467
2026-01-01 09:35:32.48	348.67	67.15	-51.9	-54.4	3.6	0.00e+00	0	39	104	0	60	88502
2026-01-01 09:35:35.52	347.89	65.04	-51.9	-54.4	3.6	0.00e+00	0	39	104	0	60	88420
2026-01-01 09:35:38.55	347.25	62.99	-51.9	-54.4	3.6	0.00e+00	0	39	104	0	60	88271
2026-01-01 09:35:41.58	346.71	61.00	-51.9	-54.3	3.6	0.00e+00	0	39	104	0	60	87900
2026-01-01 09:35:44.61	346.25	59.07	-51.9	-54.4	3.6	0.00e+00	0	39	104	0	60	88517
2026-01-01 09:35:47.64	345.86	57.21	-51.9	-54.4	3.6	0.00e+00	0	39	104	0	60	88677
2026-01-01 09:35:50.68	345.51	55.40	-51.9	-54.4	3.6	0.00e+00	0	39	104	0	60	88656
2026-01-01 09:35:53.71	345.21	53.66	-51.9	-54.4	3.6	0.00e+00	0	39	104	0	60	88354
2026-01-01 09:35:56.74	344.95	51.99	-51.9	-54.3	3.5	0.00e+00	0	39	104	0	60	87941
2026-01-01 09:35:59.77	344.71	50.37	-51.9	-54.3	3.6	0.00e+00	0	39	104	0	60	88125
2026-01-01 09:36:02.80	344.50	48.82	-51.9	-54.4	3.6	0.00e+00	0	39	104	0	60	88450
2026-01-01 09:36:05.84	344.31	47.31	-51.9	-54.4	3.6	0.00e+00	0	39	104	0	60	88305
2026-01-01 09:36:08.87	344.14	45.87	-51.9	-54.3	3.6	0.00e+00	0	39	104	0	60	88145
2026-01-01 09:36:11.90	343.99	44.49	-51.9	-54.3	3.6	0.00e+00	0	39	104	0	60	87730
2026-01-01 09:36:14.93	343.85	43.15	-51.9	-54.4	3.6	0.00e+00	0	39	104	0	60	88243
2026-01-01 09:36:17.96	343.72	41.87	-51.9	-54.3	3.6	0.00e+00	0	39	104	0	60	88098
2026-01-01 09:36:20.99	343.60	40.63	-51.9	-54.4	3.6	0.00e+00	0	39	104	0	60	88322
2026-01-01 09:36:24.02	343.50	39.44	-51.9	-54.3	3.6	0.00e+00	0	39	104	0	60	87957
2026-01-01 09:36:27.05	343.40	38.30	-51.9	-54.4	3.6	0.00e+00	0	39	104	0	60	88349
2026-01-01 09:36:30.09	343.31	37.19	-51.9	-54.4	3.6	0.00e+00	0	39	104	0	60	88303
2026-01-01 09:36:33.12	343.22	36.13	-51.9	-54.3	3.6	0.00e+00	0	39	104	0	60	88002
2026-01-01 09:36:36.15	343.15	35.10	-51.9	-54.4	3.6	0.00e+00	0	39	104	0	60	88798
2026-01-01 09:36:39.18	343.07	34.12	-51.9	-54.3	3.6	0.00e+00	0	39	104	0	60	88062
2026-01-01 09:36:42.21	343.01	33.16	-51.9	-54.4	3.6	0.00e+00	0	39	104	0	60	88434
2026-01-01 09:36:45.24	342.94	32.25	-51.9	-54.4	3.6	0.00e+00	0	39	104	0	60	88408
2026-01-01 09:36:48.28	342.89	31.36	-51.9	-54.4	3.6	0.00e+00	0	39	104	0	60	88847
2026-01-01 09:36:51.31	342.83	30.50	-51.9	-54.4	3.6	0.00e+00	0	39	104	0	60	88373
2026-01-01 09:36:54.34	342.78	29.67	-51.9	-54.4	3.6	0.00e+00	0	39	104	0	60	88578
2026-01-01 09:36:57.37	342.73	28.87	-51.9	-54.3	3.6	0.00e+00	0	39	104	0	60	88005
2026-01-01 09:37:00.40	342.69	28.10	-51.9	-54.4	3.6	0.00e+00	0	39	104	0	60	88431
2026-01-01 09:37:03.43	342.65	27.35	-51.9	-54.3	3.6	0.00e+00	0	39	104	0	60	87969
2026-01-01 09:37:06.47	342.61	26.62	-51.9	-54.3	3.5	0.00e+00	0	39	104	0	60	87904
2026-01-01 09:37:09.50	342.57	25.91	-51.9	-54.3	3.6	0.00e+00	0	39	104	0	60	88085
2026-01-01 09:37:12.53	342.54	25.23	-51.9	-54.4	3.6	0.00e+00	0	39	104	0	60	88246
2026-01-01 09:37:15.56	342.51	24.57	-51.9	-54.4	3.6	0.00e+00	0	39	104	0	60	88344
2026-01-01 09:37:18.60	342.48	23.93	-51.9	-54.3	3.6	0.00e+00	0	39	104	0	60	88171
2026-01-01 09:37:21.63	342.45	23.30	-51.8	-54.3	3.6	0.00e+00	0	39	104	0	60	87895
2026-01-01 09:37:24.65	342.42	22.70	-51.9	-54.4	3.6	0.00e+00	0	39	104	0	60	88414
2026-01-01 09:37:27.68	342.40	22.11	-51.9	-54.3	3.6	0.00e+00	0	39	104	0	60	87926
2026-01-01 09:37:30.72	342.38	21.54	-51.9	-54.3	3.6	0.00e+00	0	39	104	0	60	87858
2026-01-01 09:37:33.75	342.35	20.98	-51.9	-54.3	3.6	0.00e+00	0	39	104	0	60	87857
2026-01-01 09:37:36.78	342.33	20.44	-51.8	-54.3	3.6	0.00e+00	0	39	104	0	60	87848
2026-01-01 09:37:39.81	342.31	19.91	-51.9	-54.3	3.6	0.00e+00	0	39	104	0	60	87946
2026-01-01 09:37:42.85	342.30	19.39	-51.9	-54.3	3.6	0.00e+00	0	39	104	0	60	88057
2026-01-01 09:37:45.88	342.28	18.89	-51.8	-54.3	3.6	0.00e+00	0	39	104	0	60	87789
2026-01-01 09:37:48.91	342.26	18.40	-51.8	-54.3	3.6	0.00e+00	0	39	104	0	60	87942
2026-01-01 09:37:51.94	342.25	17.92	-51.8	-54.3	3.6	0.00e+00	0	39	104	0	60	87662
2026-01-01 09:37:54.97	342.23	17.46	-51.8	-54.3	3.6	0.00e+00	0	39	104	0	60	87860
2026-01-01 09:37:58.00	342.22	17.00	-51.8	-54.3	3.6	0.00e+00	0	39	104	0	60	87485
2026-01-01 09:38:01.04	342.21	16.56	-51.8	-54.3	3.6	0.00e+00	0	39	104	0	60	87797
2026-01-01 09:38:04.07	342.20	16.12	-51.8	-54.3	3.6	0.00e+00	0	39	104	0	60	87507
2026-01-01 09:38:07.10	342.19	15.70	-51.8	-54.3	3.6	0.00e+00	0	39	104	0	60	87354
2026-01-01 09:38:10.13	342.18	15.28	-51.8	-54.3	3.6	0.00e+00	0	39	104	0	60	87239
2026-01-01 09:38:13.16	342.17	14.87	-51.8	-54.2	3.6	0.00e+00	0	39	104	0	60	87035
2026-01-01 09:38:16.20	342.16	14.47	-51.8	-54.3	3.6	0.00e+00	0	39	104	0	60	88080
2026-01-01 09:38:19.23	342.15	14.08	-51.8	-54.3	3.6	0.00e+00	0	39	104	0	60	88184
2026-01-01 09:38:22.26	342.15	13.70	-51.8	-54.2	3.6	0.00e+00	0	39	104	0	60	87114
2026-01-01 09:38:25.29	342.14	13.32	-51.8	-54.3	3.6	0.00e+00	0	39	104	0	60	87371
2026-01-01 09:38:28.32	342.13	12.96	-51.8	-54.3	3.6	0.00e+00	0	39	104	0	60	87316
2026-01-01 09:38:31.36	342.13	12.59	-51.9	-54.3	3.6	0.00e+00	0	39	104	0	60	87402
2026-01-01 09:38:34.39	342.12	12.24	-51.9	-54.3	3.6	0.00e+00	0	39	104	0	60	87868
2026-01-01 09:38:37.42	342.12	11.89	-51.8	-54.3	3.6	0.00e+00	0	39	104	0	60	87680
2026-01-01 09:38:40.46	342.11	11.55	-51.8	-54.3	3.6	0.00e+00	0	39	104	0	60	87560
2026-01-01 09:38:43.49	342.11	11.22	-51.9	-54.3	3.6	0.00e+00	0	39	104	0	60	87739
2026-01-01 09:38:46.52	342.11	10.89	-51.8	-54.3	3.6	0.00e+00	0	39	104	0	60	87597
2026-01-01 09:38:49.55	342.10	10.56	-51.9	-54.3	3.6	0.00e+00	0	39	104	0	60	87972
2026-01-01 09:38:52.59	342.10	10.24	-51.9	-54.4	3.6	0.00e+00	0	39	104	0	60	88361
2026-01-01 09:38:55.62	342.10	9.93	-51.9	-54.3	3.6	0.00e+00	0	39	104	0	60	87652
2026-01-01 09:38:58.65	342.10	9.62	-51.9	-54.3	3.6	0.00e+00	0	39	104	0	60	88009
2026-01-01 09:39:01.68	342.10	9.32	-51.8	-54.3	3.6	0.00e+00	0	39	104	0	60	87380
2026-01-01 09:39:04.71	342.10	9.02	-51.8	-54.2	3.6	0.00e+00	0	39	104	0	60	86593
2026-01-01 09:39:07.75	342.10	8.73	-51.9	-54.3	3.6	0.00e+00	0	39	104	0	60	87886
2026-01-01 09:39:10.78	342.10	8.44	-51.8	-54.3	3.6	0.00e+00	0	39	104	0	60	87394
2026-01-01 09:39:13.81	342.10	8.15	-51.8	-54.2	3.5	0.00e+00	0	39	104	0	60	87013
2026-01-01 09:39:16.84	342.10	7.87	-51.8	-54.3	3.6	0.00e+00	0	39	104	0	60	87489
2026-01-01 09:39:19.87	342.10	7.59	-51.8	-54.3	3.6	0.00e+00	0	39	104	0	60	87898
2026-01-01 09:39:22.90	342.10	7.32	-51.8	-54.3	3.6	0.00e+00	0	39	104	0	60	87387
2026-01-01 09:39:25.93	342.10	7.05	-51.8	-54.3	3.5	0.00e+00	0	39	104	0	60	87942
2026-01-01 09:39:28.97	342.10	6.78	-51.8	-54.3	3.6	0.00e+00	0	39	104	0	60	87310
2026-01-01 09:39:32.00	342.10	6.52	-51.8	-54.3	3.6	0.00e+00	0	39	104	0	60	87803
2026-01-01 09:39:35.03	342.10	6.26	-51.8	-54.4	3.6	0.00e+00	0	39	104	0	60	88350
2026-01-01 09:39:38.07	342.11	6.01	-51.9	-54.3	3.6	0.00e+00	0	39	104	0	60	87370
2026-01-01 09:39:41.10	342.11	5.76	-51.9	-54.3	3.6	0.00e+00	0	39	104	0	60	87718
2026-01-01 09:39:44.13	342.11	5.51	-51.9	-54.3	3.6	0.00e+00	0	39	104	0	60	87663
2026-01-01 09:39:47.17	342.12	5.26	-51.9	-54.3	3.6	0.00e+00	0	39	104	0	60	87684
2026-01-01 09:39:50.20	342.12	5.02	-51.9	-54.3	3.6	0.00e+00	0	39	104	0	60	87845
2026-01-01 09:39:53.23	342.12	4.78	-51.9	-54.3	3.6	0.00e+00	0	39	104	0	60	87595
2026-01-01 09:39:56.26	342.13	4.54	-51.9	-54.3	3.6	0.00e+00	0	39	104	0	60	87899
2026-01-01 09:39:59.30	342.13	4.30	-51.9	-54.3	3.6	0.00e+00	0	39	104	0	60	87421
2026-01-01 09:40:02.33	342.13	4.07	-51.9	-54.3	3.6	0.00e+00	0	39	104	0	60	88142
2026-01-01 09:40:05.36	342.14	3.84	-51.8	-54.3	3.6	0.00e+00	0	39	104	0	60	87620
2026-01-01 09:40:08.39	342.14	3.61	-51.9	-54.3	3.6	0.00e+00	0	39	104	0	60	87760
2026-01-01 09:40:11.43	342.15	3.39	-51.9	-54.3	3.6	0.00e+00	0	39	104	0	60	87882
2026-01-01 09:40:14.46	342.15	3.17	-51.8	-54.3	3.6	0.00e+00	0	39	104	0	60	87419
2026-01-01 09:40:17.49	342.15	2.95	-51.8	-54.3	3.6	0.00e+00	0	39	104	0	60	87551
2026-01-01 09:40:20.53	342.16	2.73	-51.8	-54.3	3.6	0.00e+00	0	39	104	0	60	87687
2026-01-01 09:40:23.56	342.16	2.51	-51.9	-54.3	3.6	0.00e+00	0	39	104	0	60	87787
2026-01-01 09:40:26.59	342.17	2.30	-51.9	-54.3	3.6	0.00e+00	0	39	104	0	60	87934
2026-01-01 09:40:29.62	342.18	2.09	-51.9	-54.3	3.6	0.00e+00	0	39	104	0	60	88136
2026-01-01 09:40:32.66	342.18	1.88	-51.9	-54.3	3.6	0.00e+00	0	39	104	0	60	87724
2026-01-01 09:40:35.69	342.19	1.67	-51.9	-54.3	3.6	0.00e+00	0	39	104	0	60	87451
2026-01-01 09:40:38.73	342.19	1.46	-51.9	-54.3	3.6	0.00e+00	0	39	104	0	60	88052
2026-01-01 09:40:41.76	342.20	1.26	-51.9	-54.3	3.6	0.00e+00	0	39	104	0	60	87637
2026-01-01 09:40:44.79	342.20	1.06	-51.9	-54.3	3.6	0.00e+00	0	39	104	0	60	88185
2026-01-01 09:40:47.82	342.21	0.86	-51.9	-54.3	3.6	0.00e+00	0	39	104	0	60	87852
2026-01-01 09:40:50.86	342.22	0.66	-51.9	-54.3	3.6	0.00e+00	0	39	104	0	60	88035
2026-01-01 09:40:53.89	342.22	0.46	-51.9	-54.3	3.6	0.00e+00	0	39	104	0	60	87627
2026-01-01 09:40:56.92	342.23	0.27	-51.9	-54.4	3.6	0.00e+00	0	39	104	0	60	88405
2026-01-01 09:40:59.95	342.24	0.07	-51.9	-54.3	3.6	0.00e+00	0	39	104	0	60	88117

#Closed at: 2026-01-01 09:41:02
#Recorded file [0 MB]: D:/lorett/data/35034_260101_122910.dat