passes_logs/2026/01/01/R4.6S_Anadyr_2ch/R4.6S_Anadyr_2ch__20260101_014552_2025-108B_rec.log

#Pass ID: 20260101_014552_2025-108B
#Satellite: 2025-108B
#Configuration: 3PB_600M
#almurnet v.1.7.20251203
#Start time: 2026-01-01 01:45:54

#Version: 2.2.20231116
#Station: R4.6S_Anadyr_2ch
#Location: 177.4865 lon 64.73178 lat
#TLE: 1 64088U 25108B   25351.01672131  .00008460  00000+0  43413-3 0  9994
#TLE: 2 64088  97.4940  63.8579 0011684 285.1423  74.8517 15.16717580 31720

#Time	Az	El	Level	Level2	SNR	BER	BlckErr	Temp	State	Recorded	gain1	gain2
2026-01-01 01:45:54.72	18.15	0.13	-51.1	-52.6	3.4	0.00e+00	0	34	0	0	60	71745
2026-01-01 01:45:57.75	17.90	0.30	-51.9	-54.4	3.6	0.00e+00	0	35	104	0	60	88722
2026-01-01 01:46:00.78	17.65	0.47	-51.9	-54.4	3.6	0.00e+00	0	36	104	0	60	88554
2026-01-01 01:46:03.82	17.40	0.64	-51.9	-54.3	3.6	0.00e+00	0	36	104	0	60	88206
2026-01-01 01:46:06.85	17.14	0.81	-51.9	-54.4	3.6	0.00e+00	0	36	104	0	60	88387
2026-01-01 01:46:09.88	16.88	0.98	-51.9	-54.4	3.6	0.00e+00	0	36	104	0	60	88254
2026-01-01 01:46:12.92	16.62	1.16	-51.9	-54.4	3.6	0.00e+00	0	36	104	0	60	88569
2026-01-01 01:46:15.95	16.35	1.33	-51.9	-54.3	3.6	0.00e+00	0	36	104	0	60	87944
2026-01-01 01:46:18.98	16.08	1.50	-51.9	-54.4	3.6	0.00e+00	0	36	104	0	60	88561
2026-01-01 01:46:22.02	15.80	1.68	-51.9	-54.4	3.6	0.00e+00	0	36	104	0	60	88322
2026-01-01 01:46:25.05	15.52	1.86	-51.9	-54.4	3.6	0.00e+00	0	36	104	0	60	88674
2026-01-01 01:46:28.08	15.23	2.03	-51.9	-54.3	3.6	0.00e+00	0	37	104	0	60	88196
2026-01-01 01:46:31.12	14.94	2.21	-51.9	-54.3	3.6	0.00e+00	0	37	104	0	60	88097
2026-01-01 01:46:34.15	14.65	2.39	-51.9	-54.4	3.6	0.00e+00	0	37	104	0	60	88450
2026-01-01 01:46:37.18	14.35	2.57	-51.9	-54.3	3.6	0.00e+00	0	37	104	0	60	87881
2026-01-01 01:46:40.22	14.04	2.75	-51.9	-54.4	3.6	0.00e+00	0	37	104	0	60	88514
2026-01-01 01:46:43.25	13.73	2.93	-51.9	-54.4	3.6	0.00e+00	0	37	104	0	60	88614
2026-01-01 01:46:46.28	13.42	3.11	-51.9	-54.4	3.6	0.00e+00	0	37	104	0	60	88327
2026-01-01 01:46:49.32	13.10	3.30	-51.9	-54.4	3.6	0.00e+00	0	37	104	0	60	88398
2026-01-01 01:46:52.35	12.77	3.48	-51.9	-54.4	3.6	0.00e+00	0	37	104	0	60	88641
2026-01-01 01:46:55.38	12.44	3.67	-51.9	-54.3	3.6	0.00e+00	0	37	104	0	60	88100
2026-01-01 01:46:58.42	12.11	3.85	-51.9	-54.4	3.6	0.00e+00	0	37	104	0	60	88660
2026-01-01 01:47:01.45	11.77	4.04	-51.9	-54.4	3.6	0.00e+00	0	37	104	0	60	88540
2026-01-01 01:47:04.48	11.42	4.23	-51.9	-54.4	3.6	0.00e+00	0	37	104	0	60	88545
2026-01-01 01:47:07.51	11.07	4.42	-51.9	-54.4	3.6	0.00e+00	0	37	104	0	60	88850
2026-01-01 01:47:10.55	10.71	4.60	-51.9	-54.4	3.6	0.00e+00	0	37	104	0	60	88610
2026-01-01 01:47:13.58	10.34	4.79	-51.9	-54.3	3.6	0.00e+00	0	37	104	0	60	88159
2026-01-01 01:47:16.61	9.97	4.99	-51.9	-54.4	3.6	0.00e+00	0	37	104	0	60	88393
2026-01-01 01:47:19.64	9.60	5.18	-51.9	-54.4	3.6	0.00e+00	0	37	104	0	60	88746
2026-01-01 01:47:22.68	9.21	5.37	-51.9	-54.4	3.6	0.00e+00	0	37	104	0	60	88551
2026-01-01 01:47:25.71	8.82	5.56	-51.9	-54.4	3.6	0.00e+00	0	38	104	0	60	88507
2026-01-01 01:47:28.74	8.42	5.76	-51.9	-54.5	3.6	0.00e+00	0	38	104	0	60	89260
2026-01-01 01:47:31.77	8.02	5.95	-51.9	-54.4	3.6	0.00e+00	0	38	104	0	60	88420
2026-01-01 01:47:34.81	7.61	6.15	-51.9	-54.3	3.6	0.00e+00	0	38	104	0	60	88139
2026-01-01 01:47:37.84	7.19	6.34	-51.9	-54.3	3.6	0.00e+00	0	38	104	0	60	88096
2026-01-01 01:47:40.87	6.77	6.54	-51.9	-54.4	3.6	0.00e+00	0	38	104	0	60	89086
2026-01-01 01:47:43.90	6.34	6.74	-51.9	-54.3	3.5	0.00e+00	0	38	104	0	60	88205
2026-01-01 01:47:46.94	5.90	6.94	-51.9	-54.4	3.6	0.00e+00	0	38	104	0	60	88593
2026-01-01 01:47:49.97	5.45	7.14	-51.9	-54.4	3.6	0.00e+00	0	38	104	0	60	88483
2026-01-01 01:47:53.01	4.99	7.34	-51.9	-54.3	3.6	0.00e+00	0	38	104	0	60	88184
2026-01-01 01:47:56.04	4.53	7.54	-51.9	-54.3	3.6	0.00e+00	0	38	104	0	60	88047
2026-01-01 01:47:59.07	4.06	7.74	-51.9	-54.4	3.6	0.00e+00	0	38	104	0	60	88318
2026-01-01 01:48:02.10	3.58	7.94	-51.9	-54.4	3.6	0.00e+00	0	38	104	0	60	88551
2026-01-01 01:48:05.14	3.09	8.14	-51.9	-54.4	3.6	0.00e+00	0	38	104	0	60	88369
2026-01-01 01:48:08.17	2.59	8.34	-51.9	-54.4	3.6	0.00e+00	0	38	104	0	60	88273
2026-01-01 01:48:11.20	2.09	8.54	-51.9	-54.4	3.6	0.00e+00	0	38	104	0	60	88560
2026-01-01 01:48:14.23	1.58	8.75	-51.9	-54.4	3.6	0.00e+00	0	38	104	0	60	88655
2026-01-01 01:48:17.27	1.05	8.95	-51.9	-54.4	3.6	0.00e+00	0	38	104	0	60	88374
2026-01-01 01:48:20.30	0.52	9.15	-51.9	-54.4	3.6	0.00e+00	0	38	104	0	60	88369
2026-01-01 01:48:23.33	359.98	9.35	-51.9	-54.4	3.6	0.00e+00	0	38	104	0	60	89036
2026-01-01 01:48:26.36	359.43	9.56	-51.9	-54.4	3.6	0.00e+00	0	38	104	0	60	88294
2026-01-01 01:48:29.40	358.87	9.76	-51.9	-54.4	3.6	0.00e+00	0	38	104	0	60	88439
2026-01-01 01:48:32.43	358.30	9.96	-51.9	-54.4	3.6	0.00e+00	0	38	104	0	60	88654
2026-01-01 01:48:35.46	357.72	10.17	-51.9	-54.4	3.6	0.00e+00	0	38	104	0	60	88579
2026-01-01 01:48:38.50	357.13	10.37	-51.9	-54.4	3.6	0.00e+00	0	38	104	0	60	88388
2026-01-01 01:48:41.53	356.53	10.57	-51.9	-54.3	3.6	0.00e+00	0	38	104	0	60	88167
2026-01-01 01:48:44.56	355.92	10.77	-51.9	-54.4	3.6	0.00e+00	0	38	104	0	60	88330
2026-01-01 01:48:47.60	355.30	10.97	-51.9	-54.4	3.6	0.00e+00	0	38	104	0	60	88351
2026-01-01 01:48:50.63	354.67	11.17	-51.9	-54.4	3.6	0.00e+00	0	38	104	0	60	88373
2026-01-01 01:48:53.66	354.03	11.37	-51.9	-54.3	3.6	0.00e+00	0	38	104	0	60	88217
2026-01-01 01:48:56.70	353.37	11.57	-51.9	-54.4	3.6	0.00e+00	0	38	104	0	60	88759
2026-01-01 01:48:59.73	352.71	11.77	-51.9	-54.4	3.6	0.00e+00	0	38	104	0	60	88563
2026-01-01 01:49:02.76	352.04	11.96	-51.9	-54.3	3.5	0.00e+00	0	38	104	0	60	88081
2026-01-01 01:49:05.79	351.35	12.16	-51.9	-54.4	3.6	0.00e+00	0	38	104	0	60	88403
2026-01-01 01:49:08.82	350.66	12.35	-51.9	-54.4	3.6	0.00e+00	0	38	104	0	60	88342
2026-01-01 01:49:11.86	349.95	12.54	-51.9	-54.3	3.6	0.00e+00	0	39	104	0	60	87852
2026-01-01 01:49:14.89	349.23	12.73	-51.9	-54.3	3.6	0.00e+00	0	39	104	0	60	87983
2026-01-01 01:49:17.92	348.50	12.92	-51.9	-54.4	3.6	0.00e+00	0	39	104	0	60	88280
2026-01-01 01:49:20.96	347.76	13.10	-51.9	-54.3	3.6	0.00e+00	0	39	104	0	60	88193
2026-01-01 01:49:23.99	347.01	13.28	-51.9	-54.4	3.6	0.00e+00	0	39	104	0	60	88221
2026-01-01 01:49:27.02	346.25	13.46	-51.9	-54.4	3.6	0.00e+00	0	39	104	0	60	88265
2026-01-01 01:49:30.05	345.47	13.64	-51.9	-54.4	3.6	0.00e+00	0	39	104	0	60	88344
2026-01-01 01:49:33.09	344.69	13.81	-51.9	-54.3	3.6	0.00e+00	0	38	104	0	60	87843
2026-01-01 01:49:36.12	343.89	13.99	-51.9	-54.4	3.6	0.00e+00	0	38	104	0	60	88719
2026-01-01 01:49:39.15	343.08	14.15	-51.9	-54.4	3.6	0.00e+00	0	39	104	0	60	88631
2026-01-01 01:49:42.19	342.26	14.32	-51.9	-54.4	3.6	0.00e+00	0	39	104	0	60	88533
2026-01-01 01:49:45.22	341.43	14.48	-51.9	-54.4	3.6	0.00e+00	0	39	104	0	60	88372
2026-01-01 01:49:48.26	340.59	14.63	-51.9	-54.4	3.6	0.00e+00	0	39	104	0	60	88653
2026-01-01 01:49:51.29	339.74	14.79	-51.9	-54.3	3.6	0.00e+00	0	39	104	0	60	88111
2026-01-01 01:49:54.32	338.88	14.93	-51.9	-54.4	3.6	0.00e+00	0	39	104	0	60	88258
2026-01-01 01:49:57.35	338.01	15.08	-51.9	-54.4	3.6	0.00e+00	0	39	104	0	60	88766
2026-01-01 01:50:00.39	337.13	15.22	-51.9	-54.4	3.6	0.00e+00	0	39	104	0	60	88356
2026-01-01 01:50:03.42	336.24	15.35	-51.9	-54.4	3.6	0.00e+00	0	39	104	0	60	88255
2026-01-01 01:50:06.46	335.34	15.48	-51.9	-54.4	3.6	0.00e+00	0	39	104	0	60	88599
2026-01-01 01:50:09.49	334.43	15.60	-51.9	-54.3	3.6	0.00e+00	0	39	104	0	60	87924
2026-01-01 01:50:12.52	333.52	15.72	-51.9	-54.3	3.6	0.00e+00	0	39	104	0	60	87699
2026-01-01 01:50:15.55	332.59	15.83	-51.9	-54.3	3.6	0.00e+00	0	39	104	0	60	88119
2026-01-01 01:50:18.58	331.66	15.93	-51.9	-54.4	3.6	0.00e+00	0	39	104	0	60	88575
2026-01-01 01:50:21.62	330.72	16.03	-51.9	-54.4	3.6	0.00e+00	0	39	104	0	60	88241
2026-01-01 01:50:24.65	329.77	16.12	-51.9	-54.3	3.6	0.00e+00	0	39	104	0	60	88199
2026-01-01 01:50:27.68	328.82	16.21	-51.9	-54.4	3.6	0.00e+00	0	39	104	0	60	88415
2026-01-01 01:50:30.72	327.85	16.28	-51.9	-54.3	3.6	0.00e+00	0	39	104	0	60	88174
2026-01-01 01:50:33.75	326.89	16.36	-51.9	-54.4	3.6	0.00e+00	0	39	104	0	60	88224
2026-01-01 01:50:36.79	325.91	16.42	-51.9	-54.3	3.6	0.00e+00	0	39	104	0	60	87969
2026-01-01 01:50:39.82	324.94	16.48	-51.9	-54.3	3.6	0.00e+00	0	39	104	0	60	87826
2026-01-01 01:50:42.85	323.96	16.53	-51.9	-54.4	3.6	0.00e+00	0	39	104	0	60	88729
2026-01-01 01:50:45.89	322.97	16.57	-51.9	-54.3	3.6	0.00e+00	0	39	104	0	60	87945
2026-01-01 01:50:48.92	321.98	16.60	-51.9	-54.4	3.6	0.00e+00	0	39	104	0	60	88391
2026-01-01 01:50:51.96	320.99	16.63	-51.9	-54.4	3.6	0.00e+00	0	39	104	0	60	88572
2026-01-01 01:50:54.99	320.00	16.65	-51.9	-54.4	3.6	0.00e+00	0	39	104	0	60	88485
2026-01-01 01:50:58.02	319.01	16.66	-51.9	-54.4	3.6	0.00e+00	0	39	104	0	60	88330
2026-01-01 01:51:01.05	318.02	16.67	-51.9	-54.4	3.6	0.00e+00	0	39	104	0	60	88253
2026-01-01 01:51:04.09	317.02	16.66	-51.9	-54.4	3.6	0.00e+00	0	39	104	0	60	88435
2026-01-01 01:51:07.12	316.03	16.65	-51.9	-54.4	3.6	0.00e+00	0	39	104	0	60	88310
2026-01-01 01:51:10.15	315.03	16.63	-51.9	-54.4	3.6	0.00e+00	0	39	104	0	60	88715
2026-01-01 01:51:13.18	314.04	16.61	-51.9	-54.4	3.5	0.00e+00	0	39	104	0	60	88424
2026-01-01 01:51:16.21	313.06	16.57	-51.9	-54.3	3.6	0.00e+00	0	39	104	0	60	88168
2026-01-01 01:51:19.25	312.07	16.53	-51.9	-54.4	3.6	0.00e+00	0	39	104	0	60	88436
2026-01-01 01:51:22.28	311.09	16.48	-51.9	-54.3	3.6	0.00e+00	0	39	104	0	60	88189
2026-01-01 01:51:25.31	310.11	16.42	-51.9	-54.3	3.6	0.00e+00	0	39	104	0	60	88169
2026-01-01 01:51:28.35	309.13	16.36	-51.9	-54.4	3.6	0.00e+00	0	39	104	0	60	88584
2026-01-01 01:51:31.38	308.16	16.29	-51.9	-54.4	3.6	0.00e+00	0	39	104	0	60	88315
2026-01-01 01:51:34.41	307.20	16.21	-51.9	-54.4	3.6	0.00e+00	0	39	104	0	60	88263
2026-01-01 01:51:37.45	306.24	16.12	-51.9	-54.4	3.6	0.00e+00	0	39	104	0	60	88832
2026-01-01 01:51:40.48	305.29	16.03	-51.9	-54.4	3.6	0.00e+00	0	39	104	0	60	88539
2026-01-01 01:51:43.51	304.35	15.93	-51.9	-54.4	3.6	0.00e+00	0	39	104	0	60	88417
2026-01-01 01:51:46.55	303.41	15.83	-51.9	-54.4	3.6	0.00e+00	0	39	104	0	60	88623
2026-01-01 01:51:49.58	302.48	15.71	-51.9	-54.3	3.6	0.00e+00	0	39	104	0	60	88010
2026-01-01 01:51:52.61	301.56	15.60	-51.9	-54.4	3.5	0.00e+00	0	39	104	0	60	88709
2026-01-01 01:51:55.64	300.65	15.47	-51.9	-54.3	3.6	0.00e+00	0	39	104	0	60	88213
2026-01-01 01:51:58.68	299.74	15.35	-51.9	-54.4	3.6	0.00e+00	0	39	104	0	60	88497
2026-01-01 01:52:01.71	298.85	15.21	-51.9	-54.4	3.6	0.00e+00	0	39	104	0	60	88391
2026-01-01 01:52:04.74	297.96	15.07	-51.9	-54.3	3.6	0.00e+00	0	39	104	0	60	88182
2026-01-01 01:52:07.77	297.09	14.93	-51.9	-54.4	3.6	0.00e+00	0	39	104	0	60	88864
2026-01-01 01:52:10.81	296.22	14.78	-51.9	-54.4	3.6	0.00e+00	0	39	104	0	60	88585
2026-01-01 01:52:13.84	295.36	14.63	-51.9	-54.4	3.6	0.00e+00	0	39	104	0	60	88454
2026-01-01 01:52:16.87	294.52	14.47	-51.9	-54.4	3.6	0.00e+00	0	39	104	0	60	88739
2026-01-01 01:52:19.90	293.69	14.31	-51.9	-54.4	3.6	0.00e+00	0	39	104	0	60	88601
2026-01-01 01:52:22.94	292.86	14.14	-51.9	-54.4	3.6	0.00e+00	0	39	104	0	60	88516
2026-01-01 01:52:25.97	292.05	13.97	-51.9	-54.3	3.6	0.00e+00	0	39	104	0	60	88113
2026-01-01 01:52:29.00	291.25	13.80	-51.9	-54.4	3.6	0.00e+00	0	39	104	0	60	88408
2026-01-01 01:52:32.04	290.45	13.63	-51.9	-54.4	3.6	0.00e+00	0	39	104	0	60	88597
2026-01-01 01:52:35.07	289.68	13.45	-51.9	-54.4	3.6	0.00e+00	0	39	104	0	60	88578
2026-01-01 01:52:38.10	288.91	13.27	-51.9	-54.4	3.6	0.00e+00	0	39	104	0	60	88608
2026-01-01 01:52:41.14	288.15	13.08	-51.9	-54.4	3.6	0.00e+00	0	39	104	0	60	88887
2026-01-01 01:52:44.17	287.40	12.90	-51.9	-54.4	3.6	0.00e+00	0	39	104	0	60	88606
2026-01-01 01:52:47.20	286.67	12.71	-51.9	-54.3	3.6	0.00e+00	0	39	104	0	60	88082
2026-01-01 01:52:50.24	285.94	12.52	-51.9	-54.3	3.6	0.00e+00	0	38	104	0	60	88002
2026-01-01 01:52:53.27	285.23	12.32	-51.9	-54.4	3.6	0.00e+00	0	39	104	0	60	88501
2026-01-01 01:52:56.30	284.53	12.13	-51.9	-54.3	3.5	0.00e+00	0	39	104	0	60	88173
2026-01-01 01:52:59.33	283.84	11.93	-51.9	-54.4	3.6	0.00e+00	0	39	104	0	60	88538
2026-01-01 01:53:02.37	283.16	11.74	-51.9	-54.3	3.6	0.00e+00	0	39	104	0	60	87812
2026-01-01 01:53:05.40	282.49	11.54	-51.9	-54.4	3.6	0.00e+00	0	39	104	0	60	88582
2026-01-01 01:53:08.43	281.83	11.34	-51.9	-54.4	3.6	0.00e+00	0	39	104	0	60	88363
2026-01-01 01:53:11.46	281.19	11.14	-51.9	-54.4	3.6	0.00e+00	0	39	104	0	60	88934
2026-01-01 01:53:14.50	280.55	10.94	-51.9	-54.4	3.6	0.00e+00	0	39	104	0	60	88296
2026-01-01 01:53:17.53	279.92	10.73	-51.9	-54.4	3.6	0.00e+00	0	39	104	0	60	88734
2026-01-01 01:53:20.56	279.31	10.53	-51.9	-54.4	3.6	0.00e+00	0	39	104	0	60	88619
2026-01-01 01:53:23.60	278.70	10.33	-51.9	-54.4	3.6	0.00e+00	0	39	104	0	60	88302
2026-01-01 01:53:26.61	278.11	10.12	-51.9	-54.3	3.6	0.00e+00	0	39	104	0	60	88197
2026-01-01 01:53:29.93	277.47	9.90	-51.9	-54.4	3.6	0.00e+00	0	39	104	0	60	88278
2026-01-01 01:53:32.67	276.95	9.72	-51.9	-54.4	3.6	0.00e+00	0	39	104	0	60	88757
2026-01-01 01:53:35.99	276.33	9.49	-51.9	-54.4	3.6	0.00e+00	0	39	104	0	60	88352
2026-01-01 01:53:38.74	275.83	9.31	-51.9	-54.3	3.6	0.00e+00	0	39	104	0	60	88207
2026-01-01 01:53:42.06	275.23	9.08	-51.9	-54.3	3.6	0.00e+00	0	39	104	0	60	87930
2026-01-01 01:53:44.80	274.74	8.90	-51.9	-54.4	3.6	0.00e+00	0	39	104	0	60	88392
2026-01-01 01:53:48.13	274.16	8.67	-51.9	-54.4	3.6	0.00e+00	0	39	104	0	60	88409
2026-01-01 01:53:50.87	273.70	8.49	-51.9	-54.4	3.6	0.00e+00	0	39	104	0	60	88560
2026-01-01 01:53:54.19	273.14	8.26	-51.9	-54.4	3.6	0.00e+00	0	39	104	0	60	88534
2026-01-01 01:53:56.94	272.68	8.08	-51.9	-54.4	3.6	0.00e+00	0	39	104	0	60	88499
2026-01-01 01:54:00.26	272.14	7.86	-51.9	-54.4	3.6	0.00e+00	0	39	104	0	60	88467
2026-01-01 01:54:03.00	271.71	7.67	-51.9	-54.4	3.6	0.00e+00	0	39	104	0	60	88704
2026-01-01 01:54:06.32	271.19	7.45	-51.9	-54.4	3.6	0.00e+00	0	39	104	0	60	88334
2026-01-01 01:54:09.07	270.76	7.27	-51.9	-54.4	3.6	0.00e+00	0	39	104	0	60	88718
2026-01-01 01:54:12.39	270.26	7.05	-51.9	-54.4	3.6	0.00e+00	0	39	104	0	60	88467
2026-01-01 01:54:15.13	269.85	6.87	-51.9	-54.4	3.6	0.00e+00	0	39	104	0	60	88349
2026-01-01 01:54:18.45	269.36	6.65	-51.9	-54.4	3.6	0.00e+00	0	39	104	0	60	88306
2026-01-01 01:54:21.20	268.97	6.47	-51.9	-54.4	3.6	0.00e+00	0	39	104	0	60	88904
2026-01-01 01:54:24.52	268.50	6.25	-51.9	-54.4	3.6	0.00e+00	0	39	104	0	60	88606
2026-01-01 01:54:27.26	268.12	6.07	-51.9	-54.3	3.6	0.00e+00	0	39	104	0	60	88147
2026-01-01 01:54:30.58	267.66	5.86	-51.9	-54.4	3.6	0.00e+00	0	39	104	0	60	88305
2026-01-01 01:54:33.33	267.29	5.68	-51.9	-54.4	3.6	0.00e+00	0	39	104	0	60	88287
2026-01-01 01:54:36.65	266.86	5.46	-51.9	-54.4	3.5	0.00e+00	0	39	104	0	60	88650
2026-01-01 01:54:39.40	266.50	5.29	-51.9	-54.3	3.6	0.00e+00	0	39	104	0	60	88219
2026-01-01 01:54:42.72	266.07	5.08	-51.9	-54.3	3.6	0.00e+00	0	39	104	0	60	88042
2026-01-01 01:54:45.46	265.73	4.90	-51.9	-54.4	3.6	0.00e+00	0	39	104	0	60	88952
2026-01-01 01:54:48.78	265.32	4.69	-51.9	-54.4	3.6	0.00e+00	0	39	104	0	60	88560
2026-01-01 01:54:51.53	264.99	4.52	-51.9	-54.3	3.6	0.00e+00	0	39	104	0	60	88206
2026-01-01 01:54:54.85	264.59	4.31	-51.9	-54.4	3.6	0.00e+00	0	39	104	0	60	88543
2026-01-01 01:54:57.59	264.27	4.14	-51.9	-54.4	3.6	0.00e+00	0	39	104	0	60	88548
2026-01-01 01:55:00.91	263.88	3.93	-51.9	-54.4	3.6	0.00e+00	0	39	104	0	60	88599
2026-01-01 01:55:03.65	263.57	3.76	-51.9	-54.4	3.6	0.00e+00	0	39	104	0	60	88414
2026-01-01 01:55:06.98	263.20	3.55	-51.9	-54.4	3.6	0.00e+00	0	39	104	0	60	88607
2026-01-01 01:55:09.72	262.90	3.39	-51.9	-54.4	3.6	0.00e+00	0	39	104	0	60	88493
2026-01-01 01:55:13.04	262.54	3.18	-51.9	-54.4	3.6	0.00e+00	0	39	104	0	60	88730
2026-01-01 01:55:15.78	262.24	3.02	-51.9	-54.4	3.6	0.00e+00	0	39	104	0	60	89081
2026-01-01 01:55:19.11	261.90	2.82	-51.9	-54.4	3.6	0.00e+00	0	39	104	0	60	88749
2026-01-01 01:55:21.85	261.61	2.65	-51.9	-54.4	3.6	0.00e+00	0	39	104	0	60	88312
2026-01-01 01:55:25.18	261.27	2.45	-51.9	-54.4	3.6	0.00e+00	0	39	104	0	60	88312
2026-01-01 01:55:27.92	261.00	2.29	-51.9	-54.4	3.6	0.00e+00	0	39	104	0	60	88508
2026-01-01 01:55:31.25	260.67	2.09	-51.9	-54.4	3.6	0.00e+00	0	39	104	0	60	88977
2026-01-01 01:55:33.99	260.41	1.93	-51.9	-54.4	3.6	0.00e+00	0	39	104	0	60	88482
2026-01-01 01:55:37.31	260.09	1.73	-51.9	-54.4	3.6	0.00e+00	0	39	104	0	60	88551
2026-01-01 01:55:40.06	259.83	1.57	-51.9	-54.4	3.6	0.00e+00	0	39	104	0	60	88328
2026-01-01 01:55:43.38	259.53	1.38	-51.9	-54.4	3.6	0.00e+00	0	39	104	0	60	88729
2026-01-01 01:55:46.12	259.28	1.22	-51.9	-54.4	3.6	0.00e+00	0	39	104	0	60	88396
2026-01-01 01:55:49.44	258.98	1.03	-51.9	-54.4	3.6	0.00e+00	0	39	104	0	60	88866
2026-01-01 01:55:52.19	258.73	0.87	-51.9	-54.4	3.6	0.00e+00	0	39	104	0	60	88331
2026-01-01 01:55:55.51	258.45	0.68	-51.9	-54.4	3.6	0.00e+00	0	39	104	0	60	88765
2026-01-01 01:55:58.25	258.21	0.52	-51.9	-54.4	3.6	0.00e+00	0	39	104	0	60	88812
2026-01-01 01:56:01.58	257.93	0.34	-51.9	-54.4	3.6	0.00e+00	0	39	104	0	60	89154
2026-01-01 01:56:04.32	257.70	0.18	-51.9	-54.4	3.6	0.00e+00	0	39	104	0	60	88440
2026-01-01 01:56:07.64	257.43	-0.00	-51.9	-54.4	3.6	0.00e+00	0	39	104	0	60	88947

#Closed at: 2026-01-01 01:56:10
#Recorded file [0 MB]: D:/lorett/data/35034_260101_044554.dat