passes_logs/2026/01/01/R4.6S_Anadyr_2ch/R4.6S_Anadyr_2ch__20260101_075559_2025-108B_rec.log

#Pass ID: 20260101_075559_2025-108B
#Satellite: 2025-108B
#Configuration: 3PB_600M
#almurnet v.1.7.20251203
#Start time: 2026-01-01 07:56:00

#Version: 2.2.20231116
#Station: R4.6S_Anadyr_2ch
#Location: 177.4865 lon 64.73178 lat
#TLE: 1 64088U 25108B   25351.01672131  .00008460  00000+0  43413-3 0  9994
#TLE: 2 64088  97.4940  63.8579 0011684 285.1423  74.8517 15.16717580 31720

#Time	Az	El	Level	Level2	SNR	BER	BlckErr	Temp	State	Recorded	gain1	gain2
2026-01-01 07:56:00.40	115.26	0.06	-52.0	-53.4	3.3	0.00e+00	0	34	0	0	60	78975
2026-01-01 07:56:03.44	115.07	0.24	-52.2	-54.7	3.6	0.00e+00	0	36	104	0	60	91658
2026-01-01 07:56:06.47	114.87	0.42	-52.1	-54.5	3.6	0.00e+00	0	36	104	0	60	89888
2026-01-01 07:56:09.50	114.66	0.60	-52.4	-54.9	3.6	0.00e+00	0	36	104	0	60	94199
2026-01-01 07:56:12.54	114.46	0.78	-52.5	-54.9	3.6	0.00e+00	0	36	104	0	60	94390
2026-01-01 07:56:15.57	114.25	0.97	-52.3	-54.7	3.6	0.00e+00	0	36	104	0	60	92163
2026-01-01 07:56:18.60	114.03	1.15	-52.2	-54.6	3.6	0.00e+00	0	36	104	0	60	91083
2026-01-01 07:56:21.64	113.82	1.34	-52.4	-54.8	3.6	0.00e+00	0	36	104	0	60	93223
2026-01-01 07:56:24.67	113.60	1.52	-52.3	-54.8	3.6	0.00e+00	0	37	104	0	60	92447
2026-01-01 07:56:27.70	113.37	1.71	-52.2	-54.6	3.6	0.00e+00	0	37	104	0	60	91318
2026-01-01 07:56:30.74	113.14	1.90	-52.4	-54.9	3.6	0.00e+00	0	37	104	0	60	93663
2026-01-01 07:56:33.77	112.91	2.09	-52.3	-54.8	3.6	0.00e+00	0	37	104	0	60	92578
2026-01-01 07:56:36.80	112.68	2.29	-52.2	-54.7	3.6	0.00e+00	0	37	104	0	60	91661
2026-01-01 07:56:39.83	112.44	2.48	-52.3	-54.8	3.6	0.00e+00	0	37	104	0	60	92671
2026-01-01 07:56:42.86	112.20	2.68	-52.4	-54.8	3.6	0.00e+00	0	37	104	0	60	93097
2026-01-01 07:56:45.90	111.95	2.87	-52.4	-54.9	3.6	0.00e+00	0	37	104	0	60	93567
2026-01-01 07:56:48.93	111.69	3.07	-52.3	-54.7	3.6	0.00e+00	0	37	104	0	60	91935
2026-01-01 07:56:51.96	111.44	3.27	-52.2	-54.6	3.6	0.00e+00	0	37	104	0	60	91074
2026-01-01 07:56:54.99	111.18	3.47	-52.3	-54.7	3.6	0.00e+00	0	37	104	0	60	92122
2026-01-01 07:56:58.03	110.91	3.67	-52.4	-54.8	3.6	0.00e+00	0	37	104	0	60	93233
2026-01-01 07:57:01.06	110.64	3.87	-52.1	-54.6	3.6	0.00e+00	0	37	104	0	60	90715
2026-01-01 07:57:04.10	110.36	4.08	-52.4	-54.8	3.6	0.00e+00	0	37	104	0	60	93162
2026-01-01 07:57:07.13	110.08	4.29	-52.3	-54.8	3.6	0.00e+00	0	37	104	0	60	92676
2026-01-01 07:57:10.16	109.80	4.49	-52.3	-54.7	3.6	0.00e+00	0	37	104	0	60	92346
2026-01-01 07:57:13.20	109.51	4.70	-52.2	-54.7	3.6	0.00e+00	0	37	104	0	60	91379
2026-01-01 07:57:16.23	109.21	4.92	-52.2	-54.6	3.6	0.00e+00	0	37	104	0	60	90878
2026-01-01 07:57:19.26	108.91	5.13	-52.2	-54.7	3.6	0.00e+00	0	38	104	0	60	91573
2026-01-01 07:57:22.29	108.60	5.34	-52.4	-54.8	3.6	0.00e+00	0	38	104	0	60	92825
2026-01-01 07:57:25.32	108.29	5.56	-52.3	-54.8	3.6	0.00e+00	0	38	104	0	60	92427
2026-01-01 07:57:28.36	107.97	5.78	-52.3	-54.7	3.5	0.00e+00	0	38	104	0	60	92316
2026-01-01 07:57:31.39	107.64	5.99	-52.2	-54.6	3.6	0.00e+00	0	38	104	0	60	90906
2026-01-01 07:57:34.42	107.31	6.21	-52.1	-54.5	3.6	0.00e+00	0	38	104	0	60	90236
2026-01-01 07:57:37.45	106.97	6.44	-52.3	-54.7	3.6	0.00e+00	0	38	104	0	60	92017
2026-01-01 07:57:40.49	106.63	6.66	-52.3	-54.8	3.5	0.00e+00	0	38	104	0	60	92577
2026-01-01 07:57:43.52	106.28	6.89	-52.3	-54.7	3.6	0.00e+00	0	38	104	0	60	92104
2026-01-01 07:57:46.55	105.92	7.11	-52.1	-54.6	3.6	0.00e+00	0	38	104	0	60	90654
2026-01-01 07:57:49.58	105.55	7.34	-52.3	-54.8	3.6	0.00e+00	0	38	104	0	60	92509
2026-01-01 07:57:52.62	105.18	7.57	-52.4	-54.9	3.6	0.00e+00	0	38	104	0	60	93809
2026-01-01 07:57:55.65	104.80	7.81	-52.5	-54.9	3.6	0.00e+00	0	38	104	0	60	94400
2026-01-01 07:57:58.68	104.41	8.04	-52.5	-54.9	3.6	0.00e+00	0	38	104	0	60	93956
2026-01-01 07:58:01.72	104.02	8.28	-52.3	-54.7	3.6	0.00e+00	0	38	104	0	60	92180
2026-01-01 07:58:04.75	103.61	8.52	-52.3	-54.8	3.6	0.00e+00	0	38	104	0	60	92384
2026-01-01 07:58:07.78	103.20	8.76	-52.5	-54.9	3.6	0.00e+00	0	38	104	0	60	94293
2026-01-01 07:58:10.82	102.78	9.00	-52.2	-54.7	3.6	0.00e+00	0	38	104	0	60	92215
2026-01-01 07:58:13.85	102.35	9.24	-52.3	-54.8	3.6	0.00e+00	0	38	104	0	60	92599
2026-01-01 07:58:16.88	101.91	9.49	-52.4	-54.8	3.6	0.00e+00	0	38	104	0	60	92855
2026-01-01 07:58:19.92	101.46	9.73	-52.3	-54.8	3.6	0.00e+00	0	38	104	0	60	92463
2026-01-01 07:58:22.95	101.01	9.98	-52.4	-54.8	3.6	0.00e+00	0	38	104	0	60	92693
2026-01-01 07:58:25.98	100.54	10.23	-52.4	-54.8	3.6	0.00e+00	0	38	104	0	60	93297
2026-01-01 07:58:29.02	100.06	10.48	-52.3	-54.7	3.6	0.00e+00	0	38	104	0	60	91935
2026-01-01 07:58:32.05	99.58	10.74	-52.5	-54.9	3.6	0.00e+00	0	38	104	0	60	94181
2026-01-01 07:58:35.08	99.08	10.99	-52.4	-54.8	3.6	0.00e+00	0	38	104	0	60	93218
2026-01-01 07:58:38.11	98.57	11.25	-52.3	-54.8	3.6	0.00e+00	0	38	104	0	60	92387
2026-01-01 07:58:41.14	98.05	11.51	-52.3	-54.8	3.6	0.00e+00	0	38	104	0	60	92982
2026-01-01 07:58:44.17	97.52	11.76	-52.5	-55.0	3.6	0.00e+00	0	38	104	0	60	94731
2026-01-01 07:58:47.21	96.98	12.03	-52.4	-54.9	3.6	0.00e+00	0	38	104	0	60	94131
2026-01-01 07:58:50.24	96.43	12.29	-52.4	-54.8	3.6	0.00e+00	0	38	104	0	60	93297
2026-01-01 07:58:53.27	95.86	12.55	-52.3	-54.7	3.6	0.00e+00	0	38	104	0	60	91850
2026-01-01 07:58:56.31	95.28	12.82	-52.4	-54.8	3.6	0.00e+00	0	38	104	0	60	93264
2026-01-01 07:58:59.34	94.69	13.08	-52.3	-54.8	3.6	0.00e+00	0	38	104	0	60	92431
2026-01-01 07:59:02.37	94.09	13.35	-52.4	-54.8	3.6	0.00e+00	0	38	104	0	60	93218
2026-01-01 07:59:05.41	93.47	13.62	-52.4	-54.8	3.6	0.00e+00	0	38	104	0	60	92758
2026-01-01 07:59:08.44	92.84	13.89	-52.3	-54.7	3.6	0.00e+00	0	38	104	0	60	91389
2026-01-01 07:59:11.47	92.20	14.16	-52.4	-54.9	3.6	0.00e+00	0	38	104	0	60	93786
2026-01-01 07:59:14.51	91.54	14.43	-52.2	-54.6	3.6	0.00e+00	0	38	104	0	60	91291
2026-01-01 07:59:17.54	90.87	14.70	-52.3	-54.7	3.6	0.00e+00	0	38	104	0	60	91899
2026-01-01 07:59:20.57	90.19	14.97	-52.2	-54.7	3.6	0.00e+00	0	38	104	0	60	91795
2026-01-01 07:59:23.61	89.48	15.24	-52.4	-54.9	3.6	0.00e+00	0	38	104	0	60	93854
2026-01-01 07:59:26.64	88.77	15.51	-52.3	-54.7	3.6	0.00e+00	0	38	104	0	60	92308
2026-01-01 07:59:29.67	88.04	15.78	-52.2	-54.6	3.6	0.00e+00	0	38	104	0	60	90828
2026-01-01 07:59:32.70	87.29	16.06	-52.2	-54.7	3.6	0.00e+00	0	38	104	0	60	91569
2026-01-01 07:59:35.74	86.52	16.33	-52.2	-54.7	3.6	0.00e+00	0	38	104	0	60	91344
2026-01-01 07:59:38.77	85.75	16.59	-52.3	-54.8	3.6	0.00e+00	0	38	104	0	60	92473
2026-01-01 07:59:41.80	84.95	16.86	-52.2	-54.6	3.6	0.00e+00	0	38	104	0	60	91174
2026-01-01 07:59:44.83	84.14	17.13	-52.2	-54.7	3.6	0.00e+00	0	38	104	0	60	91411
2026-01-01 07:59:47.87	83.31	17.39	-52.2	-54.6	3.6	0.00e+00	0	38	104	0	60	91152
2026-01-01 07:59:50.90	82.46	17.65	-52.2	-54.7	3.6	0.00e+00	0	38	104	0	60	91626
2026-01-01 07:59:53.93	81.60	17.91	-52.2	-54.7	3.6	0.00e+00	0	38	104	0	60	91525
2026-01-01 07:59:56.97	80.72	18.17	-52.3	-54.8	3.5	0.00e+00	0	38	104	0	60	92492
2026-01-01 08:00:00.00	79.82	18.43	-52.4	-54.8	3.6	0.00e+00	0	38	104	0	60	93434
2026-01-01 08:00:03.03	78.91	18.68	-52.4	-54.8	3.6	0.00e+00	0	38	104	0	60	93148
2026-01-01 08:00:06.07	77.97	18.92	-52.4	-54.8	3.6	0.00e+00	0	38	104	0	60	92642
2026-01-01 08:00:09.10	77.02	19.17	-52.3	-54.7	3.6	0.00e+00	0	38	104	0	60	92107
2026-01-01 08:00:12.14	76.06	19.41	-52.2	-54.7	3.6	0.00e+00	0	38	104	0	60	92180
2026-01-01 08:00:15.17	75.07	19.64	-52.3	-54.7	3.6	0.00e+00	0	38	104	0	60	92173
2026-01-01 08:00:18.20	74.07	19.87	-52.2	-54.7	3.6	0.00e+00	0	38	104	0	60	91753
2026-01-01 08:00:21.23	73.06	20.09	-52.3	-54.7	3.6	0.00e+00	0	38	104	0	60	92322
2026-01-01 08:00:24.27	72.02	20.31	-52.3	-54.8	3.6	0.00e+00	0	38	104	0	60	92657
2026-01-01 08:00:27.30	70.97	20.51	-52.4	-54.8	3.6	0.00e+00	0	38	104	0	60	92709
2026-01-01 08:00:30.33	69.91	20.72	-52.4	-54.8	3.6	0.00e+00	0	38	104	0	60	93019
2026-01-01 08:00:33.36	68.82	20.91	-52.4	-54.9	3.6	0.00e+00	0	38	104	0	60	93536
2026-01-01 08:00:36.39	67.73	21.09	-52.3	-54.8	3.6	0.00e+00	0	38	104	0	60	92899
2026-01-01 08:00:39.42	66.62	21.27	-52.4	-54.8	3.6	0.00e+00	0	38	104	0	60	92651
2026-01-01 08:00:42.45	65.49	21.44	-52.3	-54.7	3.6	0.00e+00	0	38	104	0	60	92331
2026-01-01 08:00:45.49	64.35	21.60	-52.2	-54.7	3.6	0.00e+00	0	38	104	0	60	91409
2026-01-01 08:00:48.52	63.20	21.75	-52.3	-54.7	3.5	0.00e+00	0	38	104	0	60	91477
2026-01-01 08:00:51.55	62.04	21.89	-52.3	-54.8	3.6	0.00e+00	0	38	104	0	60	92542
2026-01-01 08:00:54.58	60.86	22.01	-52.4	-54.9	3.6	0.00e+00	0	38	104	0	60	93667
2026-01-01 08:00:57.62	59.68	22.13	-52.4	-54.8	3.6	0.00e+00	0	38	104	0	60	92878
2026-01-01 08:01:00.65	58.48	22.24	-52.3	-54.7	3.5	0.00e+00	0	38	104	0	60	92315
2026-01-01 08:01:03.69	57.27	22.33	-52.3	-54.8	3.6	0.00e+00	0	38	104	0	60	92420
2026-01-01 08:01:06.72	56.06	22.41	-52.3	-54.7	3.6	0.00e+00	0	38	104	0	60	91597
2026-01-01 08:01:09.75	54.85	22.48	-52.3	-54.7	3.6	0.00e+00	0	38	104	0	60	91976
2026-01-01 08:01:12.79	53.62	22.54	-52.6	-55.1	3.6	0.00e+00	0	38	104	0	60	95777
2026-01-01 08:01:15.82	52.40	22.58	-52.3	-54.8	3.6	0.00e+00	0	39	104	0	60	92501
2026-01-01 08:01:18.85	51.17	22.61	-52.4	-54.8	3.6	0.00e+00	0	38	104	0	60	93064
2026-01-01 08:01:21.88	49.93	22.63	-52.2	-54.7	3.6	0.00e+00	0	38	104	0	60	91618
2026-01-01 08:01:24.92	48.70	22.64	-52.5	-55.0	3.6	0.00e+00	0	38	104	0	60	94821
2026-01-01 08:01:27.95	47.46	22.63	-52.3	-54.8	3.6	0.00e+00	0	38	104	0	60	92779
2026-01-01 08:01:30.98	46.23	22.61	-52.5	-54.9	3.6	0.00e+00	0	38	104	0	60	94201
2026-01-01 08:01:34.01	45.00	22.58	-52.3	-54.8	3.6	0.00e+00	0	38	104	0	60	92680
2026-01-01 08:01:37.05	43.77	22.53	-52.3	-54.7	3.6	0.00e+00	0	38	104	0	60	91966
2026-01-01 08:01:40.08	42.55	22.48	-52.2	-54.7	3.6	0.00e+00	0	38	104	0	60	91935
2026-01-01 08:01:43.11	41.34	22.40	-52.3	-54.9	3.6	0.00e+00	0	38	104	0	60	93566
2026-01-01 08:01:46.14	40.13	22.32	-52.2	-54.7	3.6	0.00e+00	0	38	104	0	60	91515
2026-01-01 08:01:49.18	38.92	22.23	-52.2	-54.7	3.6	0.00e+00	0	38	104	0	60	91755
2026-01-01 08:01:52.21	37.73	22.12	-52.4	-54.9	3.6	0.00e+00	0	38	104	0	60	93503
2026-01-01 08:01:55.25	36.55	22.00	-52.2	-54.6	3.6	0.00e+00	0	38	104	0	60	91091
2026-01-01 08:01:58.28	35.38	21.87	-52.4	-54.9	3.6	0.00e+00	0	38	104	0	60	94135
2026-01-01 08:02:01.31	34.22	21.73	-52.2	-54.7	3.6	0.00e+00	0	38	104	0	60	91891
2026-01-01 08:02:04.35	33.06	21.58	-52.3	-54.7	3.6	0.00e+00	0	39	104	0	60	92018
2026-01-01 08:02:07.38	31.93	21.42	-52.2	-54.7	3.6	0.00e+00	0	39	104	0	60	91580
2026-01-01 08:02:10.42	30.80	21.25	-52.3	-54.7	3.6	0.00e+00	0	38	104	0	60	91741
2026-01-01 08:02:13.45	29.70	21.08	-52.2	-54.7	3.6	0.00e+00	0	39	104	0	60	91421
2026-01-01 08:02:16.48	28.60	20.89	-52.4	-54.8	3.6	0.00e+00	0	38	104	0	60	93196
2026-01-01 08:02:19.51	27.53	20.70	-52.3	-54.7	3.6	0.00e+00	0	38	104	0	60	92001
2026-01-01 08:02:22.55	26.46	20.49	-52.3	-54.7	3.6	0.00e+00	0	38	104	0	60	92121
2026-01-01 08:02:25.58	25.42	20.29	-52.3	-54.8	3.6	0.00e+00	0	39	104	0	60	92536
2026-01-01 08:02:28.61	24.39	20.07	-52.3	-54.7	3.6	0.00e+00	0	39	104	0	60	92347
2026-01-01 08:02:31.65	23.37	19.85	-52.4	-54.9	3.6	0.00e+00	0	39	104	0	60	93848
2026-01-01 08:02:34.68	22.38	19.62	-52.4	-54.9	3.6	0.00e+00	0	39	104	0	60	93830
2026-01-01 08:02:37.71	21.40	19.39	-52.5	-55.0	3.6	0.00e+00	0	39	104	0	60	94763
2026-01-01 08:02:40.74	20.44	19.15	-52.4	-54.9	3.5	0.00e+00	0	39	104	0	60	93637
2026-01-01 08:02:43.77	19.49	18.91	-52.3	-54.7	3.6	0.00e+00	0	39	104	0	60	91816
2026-01-01 08:02:46.80	18.57	18.66	-52.3	-54.8	3.6	0.00e+00	0	39	104	0	60	92648
2026-01-01 08:02:49.84	17.65	18.41	-52.4	-54.8	3.6	0.00e+00	0	39	104	0	60	93250
2026-01-01 08:02:52.87	16.76	18.15	-52.3	-54.8	3.6	0.00e+00	0	39	104	0	60	92455
2026-01-01 08:02:55.91	15.88	17.90	-52.3	-54.7	3.6	0.00e+00	0	39	104	0	60	92272
2026-01-01 08:02:58.94	15.03	17.64	-52.3	-54.8	3.6	0.00e+00	0	38	104	0	60	92672
2026-01-01 08:03:01.97	14.19	17.38	-52.2	-54.7	3.6	0.00e+00	0	39	104	0	60	91338
2026-01-01 08:03:05.00	13.36	17.11	-52.3	-54.8	3.6	0.00e+00	0	39	104	0	60	92958
2026-01-01 08:03:08.04	12.55	16.85	-52.4	-54.8	3.6	0.00e+00	0	39	104	0	60	92880
2026-01-01 08:03:11.07	11.76	16.58	-52.4	-54.9	3.6	0.00e+00	0	39	104	0	60	93590
2026-01-01 08:03:14.10	10.99	16.31	-52.3	-54.8	3.6	0.00e+00	0	39	104	0	60	92995
2026-01-01 08:03:17.14	10.23	16.04	-52.3	-54.8	3.6	0.00e+00	0	39	104	0	60	92561
2026-01-01 08:03:20.17	9.48	15.77	-52.5	-54.9	3.6	0.00e+00	0	39	104	0	60	93998
2026-01-01 08:03:23.20	8.76	15.50	-52.3	-54.8	3.6	0.00e+00	0	39	104	0	60	92499
2026-01-01 08:03:26.24	8.04	15.23	-52.3	-54.7	3.6	0.00e+00	0	39	104	0	60	92319
2026-01-01 08:03:29.27	7.35	14.96	-52.3	-54.7	3.6	0.00e+00	0	39	104	0	60	92166
2026-01-01 08:03:32.30	6.66	14.69	-52.3	-54.8	3.6	0.00e+00	0	39	104	0	60	92459
2026-01-01 08:03:35.33	6.00	14.42	-52.4	-54.8	3.6	0.00e+00	0	39	104	0	60	93137
2026-01-01 08:03:38.36	5.34	14.15	-52.3	-54.8	3.6	0.00e+00	0	39	104	0	60	93055
2026-01-01 08:03:41.40	4.70	13.88	-52.2	-54.7	3.6	0.00e+00	0	39	104	0	60	91757
2026-01-01 08:03:44.43	4.08	13.61	-52.3	-54.8	3.6	0.00e+00	0	39	104	0	60	92642
2026-01-01 08:03:47.46	3.47	13.35	-52.4	-54.8	3.6	0.00e+00	0	39	104	0	60	93021
2026-01-01 08:03:50.50	2.87	13.08	-52.3	-54.7	3.6	0.00e+00	0	39	104	0	60	91798
2026-01-01 08:03:53.53	2.28	12.82	-52.4	-54.8	3.6	0.00e+00	0	39	104	0	60	93070
2026-01-01 08:03:56.56	1.71	12.55	-52.3	-54.7	3.6	0.00e+00	0	39	104	0	60	92037
2026-01-01 08:03:59.59	1.14	12.29	-52.5	-55.0	3.6	0.00e+00	0	39	104	0	60	94598
2026-01-01 08:04:02.63	0.59	12.03	-52.2	-54.7	3.6	0.00e+00	0	39	104	0	60	91507
2026-01-01 08:04:05.66	0.06	11.77	-52.4	-54.9	3.6	0.00e+00	0	39	104	0	60	93757
2026-01-01 08:04:08.69	359.53	11.51	-52.4	-54.9	3.6	0.00e+00	0	39	104	0	60	94284
2026-01-01 08:04:11.73	359.01	11.25	-52.4	-54.8	3.6	0.00e+00	0	39	104	0	60	93436
2026-01-01 08:04:14.76	358.51	10.99	-52.4	-54.9	3.6	0.00e+00	0	39	104	0	60	93809
2026-01-01 08:04:17.79	358.02	10.74	-52.5	-54.9	3.6	0.00e+00	0	39	104	0	60	93978
2026-01-01 08:04:20.82	357.53	10.49	-52.3	-54.8	3.6	0.00e+00	0	39	104	0	60	92412
2026-01-01 08:04:23.86	357.06	10.24	-52.4	-54.9	3.6	0.00e+00	0	39	104	0	60	94100
2026-01-01 08:04:26.89	356.60	9.99	-52.4	-54.9	3.6	0.00e+00	0	39	104	0	60	93746
2026-01-01 08:04:29.92	356.14	9.74	-52.2	-54.6	3.6	0.00e+00	0	39	104	0	60	90801
2026-01-01 08:04:32.96	355.70	9.49	-52.2	-54.6	3.6	0.00e+00	0	39	104	0	60	91053
2026-01-01 08:04:35.99	355.26	9.25	-52.4	-54.8	3.6	0.00e+00	0	39	104	0	60	93241
2026-01-01 08:04:39.02	354.84	9.01	-52.4	-54.8	3.6	0.00e+00	0	39	104	0	60	93300
2026-01-01 08:04:42.05	354.42	8.77	-52.3	-54.8	3.6	0.00e+00	0	39	104	0	60	93175
2026-01-01 08:04:45.09	354.01	8.53	-52.3	-54.7	3.6	0.00e+00	0	39	104	0	60	92292
2026-01-01 08:04:48.12	353.61	8.29	-52.3	-54.8	3.6	0.00e+00	0	39	104	0	60	92930
2026-01-01 08:04:51.15	353.21	8.06	-52.4	-54.8	3.6	0.00e+00	0	39	104	0	60	93123
2026-01-01 08:04:54.19	352.83	7.82	-52.4	-54.9	3.6	0.00e+00	0	39	104	0	60	93706
2026-01-01 08:04:57.22	352.45	7.59	-52.5	-55.0	3.6	0.00e+00	0	39	104	0	60	94895
2026-01-01 08:05:00.26	352.08	7.36	-52.3	-54.8	3.6	0.00e+00	0	39	104	0	60	93321
2026-01-01 08:05:03.29	351.72	7.13	-52.3	-54.7	3.6	0.00e+00	0	39	104	0	60	92358
2026-01-01 08:05:06.32	351.36	6.90	-52.3	-54.7	3.6	0.00e+00	0	39	104	0	60	92068
2026-01-01 08:05:09.35	351.02	6.68	-52.4	-54.8	3.6	0.00e+00	0	39	104	0	60	93253
2026-01-01 08:05:12.39	350.67	6.46	-52.3	-54.7	3.6	0.00e+00	0	39	104	0	60	91551
2026-01-01 08:05:15.42	350.34	6.23	-52.4	-54.8	3.6	0.00e+00	0	39	104	0	60	93352
2026-01-01 08:05:18.45	350.01	6.01	-52.5	-54.9	3.6	0.00e+00	0	39	104	0	60	93716
2026-01-01 08:05:21.49	349.69	5.80	-52.5	-54.9	3.6	0.00e+00	0	39	104	0	60	94127
2026-01-01 08:05:24.52	349.37	5.58	-52.3	-54.8	3.6	0.00e+00	0	39	104	0	60	93142
2026-01-01 08:05:27.55	349.06	5.36	-52.4	-54.9	3.6	0.00e+00	0	39	104	0	60	94195
2026-01-01 08:05:30.58	348.75	5.15	-52.4	-54.8	3.6	0.00e+00	0	39	104	0	60	92857
2026-01-01 08:05:33.62	348.45	4.94	-52.2	-54.6	3.6	0.00e+00	0	39	104	0	60	91289
2026-01-01 08:05:36.65	348.16	4.73	-52.5	-54.9	3.6	0.00e+00	0	39	104	0	60	94431
2026-01-01 08:05:39.68	347.87	4.52	-52.5	-55.0	3.6	0.00e+00	0	39	104	0	60	94753
2026-01-01 08:05:42.72	347.59	4.31	-52.4	-54.8	3.6	0.00e+00	0	39	104	0	60	93303
2026-01-01 08:05:45.75	347.31	4.11	-52.3	-54.7	3.6	0.00e+00	0	39	104	0	60	91435
2026-01-01 08:05:48.78	347.04	3.90	-52.2	-54.7	3.6	0.00e+00	0	39	104	0	60	91420
2026-01-01 08:05:51.81	346.77	3.70	-52.3	-54.7	3.6	0.00e+00	0	39	104	0	60	92307
2026-01-01 08:05:54.85	346.51	3.50	-52.3	-54.7	3.6	0.00e+00	0	39	104	0	60	92066
2026-01-01 08:05:57.88	346.25	3.30	-52.2	-54.7	3.6	0.00e+00	0	39	104	0	60	91536
2026-01-01 08:06:00.92	346.00	3.10	-52.2	-54.7	3.6	0.00e+00	0	39	104	0	60	91437
2026-01-01 08:06:03.95	345.75	2.90	-52.2	-54.6	3.6	0.00e+00	0	39	104	0	60	90953
2026-01-01 08:06:06.98	345.50	2.71	-52.4	-54.9	3.6	0.00e+00	0	39	104	0	60	93574
2026-01-01 08:06:10.01	345.26	2.51	-52.2	-54.7	3.6	0.00e+00	0	39	104	0	60	91344
2026-01-01 08:06:13.04	345.02	2.32	-52.3	-54.7	3.6	0.00e+00	0	39	104	0	60	91929
2026-01-01 08:06:16.08	344.79	2.13	-52.3	-54.8	3.6	0.00e+00	0	39	104	0	60	92607
2026-01-01 08:06:19.11	344.56	1.93	-52.3	-54.7	3.6	0.00e+00	0	39	104	0	60	92144
2026-01-01 08:06:22.14	344.34	1.75	-52.2	-54.6	3.6	0.00e+00	0	39	104	0	60	91154
2026-01-01 08:06:25.17	344.12	1.56	-52.5	-54.9	3.6	0.00e+00	0	39	104	0	60	94475
2026-01-01 08:06:28.20	343.90	1.37	-52.3	-54.8	3.6	0.00e+00	0	39	104	0	60	92690
2026-01-01 08:06:31.24	343.68	1.18	-52.3	-54.7	3.6	0.00e+00	0	39	104	0	60	92178
2026-01-01 08:06:34.27	343.47	1.00	-52.2	-54.6	3.6	0.00e+00	0	39	104	0	60	90617
2026-01-01 08:06:37.30	343.27	0.82	-52.3	-54.7	3.6	0.00e+00	0	39	104	0	60	92249
2026-01-01 08:06:40.34	343.06	0.63	-52.2	-54.6	3.6	0.00e+00	0	39	104	0	60	91227
2026-01-01 08:06:43.37	342.86	0.45	-52.2	-54.7	3.6	0.00e+00	0	39	104	0	60	91552
2026-01-01 08:06:46.40	342.67	0.27	-52.4	-54.8	3.6	0.00e+00	0	39	104	0	60	92867
2026-01-01 08:06:49.44	342.47	0.09	-52.2	-54.6	3.6	0.00e+00	0	39	104	0	60	91175
2026-01-01 08:06:52.47	342.28	-0.08	-52.2	-54.6	3.6	0.00e+00	0	39	104	0	60	90984

#Closed at: 2026-01-01 08:06:52
#Recorded file [0 MB]: D:/lorett/data/35034_260101_105600.dat