passes_logs/2026/01/01/R4.6S_Anadyr_2ch/R4.6S_Anadyr_2ch__20260101_110411_2025-108B_rec.log

#Pass ID: 20260101_110411_2025-108B
#Satellite: 2025-108B
#Configuration: 3PB_600M
#almurnet v.1.7.20251203
#Start time: 2026-01-01 11:04:12

#Version: 2.2.20231116
#Station: R4.6S_Anadyr_2ch
#Location: 177.4865 lon 64.73178 lat
#TLE: 1 64088U 25108B   25351.01672131  .00008460  00000+0  43413-3 0  9994
#TLE: 2 64088  97.4940  63.8579 0011684 285.1423  74.8517 15.16717580 31720

#Time	Az	El	Level	Level2	SNR	BER	BlckErr	Temp	State	Recorded	gain1	gain2
2026-01-01 11:04:12.55	204.54	0.06	-51.9	-53.3	3.4	0.00e+00	0	34	0	0	60	77729
2026-01-01 11:04:15.58	204.78	0.23	-51.8	-54.2	3.6	0.00e+00	0	36	104	0	60	86761
2026-01-01 11:04:18.61	205.01	0.40	-51.8	-54.3	3.6	0.00e+00	0	36	104	0	60	87385
2026-01-01 11:04:21.65	205.25	0.58	-51.8	-54.2	3.6	0.00e+00	0	36	104	0	60	87100
2026-01-01 11:04:24.68	205.49	0.76	-51.8	-54.2	3.6	0.00e+00	0	36	104	0	60	86740
2026-01-01 11:04:27.71	205.73	0.93	-51.8	-54.2	3.6	0.00e+00	0	36	104	0	60	87090
2026-01-01 11:04:30.74	205.98	1.11	-51.8	-54.2	3.6	0.00e+00	0	36	104	0	60	86852
2026-01-01 11:04:33.77	206.23	1.29	-51.8	-54.2	3.6	0.00e+00	0	36	104	0	60	86974
2026-01-01 11:04:36.81	206.49	1.47	-51.8	-54.2	3.6	0.00e+00	0	36	104	0	60	87163
2026-01-01 11:04:39.84	206.75	1.65	-51.8	-54.3	3.6	0.00e+00	0	37	104	0	60	87415
2026-01-01 11:04:42.87	207.01	1.84	-51.8	-54.2	3.6	0.00e+00	0	37	104	0	60	87022
2026-01-01 11:04:45.90	207.28	2.02	-51.8	-54.2	3.6	0.00e+00	0	37	104	0	60	87154
2026-01-01 11:04:48.93	207.55	2.21	-51.8	-54.3	3.6	0.00e+00	0	37	104	0	60	87391
2026-01-01 11:04:51.96	207.82	2.39	-51.9	-54.3	3.6	0.00e+00	0	37	104	0	60	88073
2026-01-01 11:04:54.99	208.10	2.58	-51.8	-54.3	3.6	0.00e+00	0	37	104	0	60	87943
2026-01-01 11:04:58.03	208.39	2.77	-51.8	-54.2	3.6	0.00e+00	0	37	104	0	60	86845
2026-01-01 11:05:01.06	208.68	2.96	-51.8	-54.2	3.6	0.00e+00	0	37	104	0	60	86734
2026-01-01 11:05:04.09	208.97	3.15	-51.8	-54.2	3.6	0.00e+00	0	37	104	0	60	87130
2026-01-01 11:05:07.12	209.27	3.34	-51.8	-54.3	3.6	0.00e+00	0	37	104	0	60	87221
2026-01-01 11:05:10.15	209.57	3.53	-51.8	-54.3	3.6	0.00e+00	0	37	104	0	60	87371
2026-01-01 11:05:13.19	209.87	3.73	-51.8	-54.3	3.6	0.00e+00	0	37	104	0	60	87339
2026-01-01 11:05:16.22	210.19	3.92	-51.8	-54.3	3.6	0.00e+00	0	37	104	0	60	87237
2026-01-01 11:05:19.25	210.50	4.12	-51.9	-54.3	3.6	0.00e+00	0	37	104	0	60	87882
2026-01-01 11:05:22.28	210.82	4.32	-51.8	-54.3	3.6	0.00e+00	0	37	104	0	60	87349
2026-01-01 11:05:25.31	211.15	4.52	-51.8	-54.2	3.6	0.00e+00	0	37	104	0	60	87168
2026-01-01 11:05:28.34	211.48	4.72	-51.8	-54.3	3.6	0.00e+00	0	37	104	0	60	87303
2026-01-01 11:05:31.38	211.82	4.92	-51.8	-54.3	3.6	0.00e+00	0	37	104	0	60	87430
2026-01-01 11:05:34.41	212.17	5.12	-51.8	-54.2	3.6	0.00e+00	0	37	104	0	60	87014
2026-01-01 11:05:37.44	212.51	5.33	-51.8	-54.2	3.6	0.00e+00	0	37	104	0	60	87181
2026-01-01 11:05:40.47	212.87	5.53	-51.8	-54.3	3.6	0.00e+00	0	38	104	0	60	87237
2026-01-01 11:05:43.50	213.23	5.74	-51.8	-54.3	3.6	0.00e+00	0	38	104	0	60	87485
2026-01-01 11:05:46.53	213.60	5.95	-51.8	-54.3	3.6	0.00e+00	0	38	104	0	60	87325
2026-01-01 11:05:49.57	213.97	6.16	-51.8	-54.2	3.6	0.00e+00	0	38	104	0	60	86762
2026-01-01 11:05:52.60	214.35	6.37	-51.8	-54.3	3.6	0.00e+00	0	38	104	0	60	87347
2026-01-01 11:05:55.63	214.74	6.58	-51.8	-54.3	3.6	0.00e+00	0	38	104	0	60	87700
2026-01-01 11:05:58.66	215.13	6.80	-51.8	-54.3	3.6	0.00e+00	0	38	104	0	60	87245
2026-01-01 11:06:01.69	215.53	7.01	-51.8	-54.2	3.6	0.00e+00	0	38	104	0	60	87154
2026-01-01 11:06:04.73	215.94	7.23	-51.8	-54.2	3.6	0.00e+00	0	38	104	0	60	86834
2026-01-01 11:06:07.76	216.36	7.45	-51.8	-54.2	3.6	0.00e+00	0	38	104	0	60	86769
2026-01-01 11:06:10.79	216.78	7.66	-51.8	-54.3	3.6	0.00e+00	0	38	104	0	60	87268
2026-01-01 11:06:13.82	217.21	7.88	-51.8	-54.2	3.6	0.00e+00	0	38	104	0	60	87021
2026-01-01 11:06:16.86	217.65	8.11	-51.8	-54.3	3.6	0.00e+00	0	38	104	0	60	87263
2026-01-01 11:06:19.89	218.10	8.33	-51.8	-54.2	3.6	0.00e+00	0	38	104	0	60	87201
2026-01-01 11:06:22.92	218.55	8.55	-51.8	-54.2	3.6	0.00e+00	0	38	104	0	60	87137
2026-01-01 11:06:25.95	219.01	8.78	-51.8	-54.3	3.6	0.00e+00	0	38	104	0	60	87247
2026-01-01 11:06:28.98	219.48	9.01	-51.8	-54.2	3.6	0.00e+00	0	38	104	0	60	86774
2026-01-01 11:06:32.02	219.96	9.24	-51.8	-54.3	3.6	0.00e+00	0	38	104	0	60	87394
2026-01-01 11:06:35.05	220.45	9.46	-51.8	-54.2	3.6	0.00e+00	0	38	104	0	60	87051
2026-01-01 11:06:38.08	220.95	9.69	-51.8	-54.2	3.6	0.00e+00	0	38	104	0	60	86833
2026-01-01 11:06:41.11	221.46	9.93	-51.8	-54.2	3.6	0.00e+00	0	38	104	0	60	86923
2026-01-01 11:06:44.14	221.97	10.16	-51.8	-54.2	3.6	0.00e+00	0	38	104	0	60	86882
2026-01-01 11:06:47.18	222.50	10.39	-51.8	-54.3	3.6	0.00e+00	0	38	104	0	60	88132
2026-01-01 11:06:50.21	223.04	10.63	-51.8	-54.3	3.6	0.00e+00	0	38	104	0	60	87864
2026-01-01 11:06:53.24	223.58	10.86	-51.8	-54.2	3.6	0.00e+00	0	38	104	0	60	86836
2026-01-01 11:06:56.27	224.14	11.10	-51.8	-54.3	3.6	0.00e+00	0	38	104	0	60	87306
2026-01-01 11:06:59.30	224.71	11.34	-51.8	-54.2	3.6	0.00e+00	0	38	104	0	60	86573
2026-01-01 11:07:02.34	225.29	11.57	-51.8	-54.2	3.6	0.00e+00	0	38	104	0	60	87163
2026-01-01 11:07:05.37	225.88	11.81	-51.8	-54.2	3.6	0.00e+00	0	38	104	0	60	87203
2026-01-01 11:07:08.40	226.48	12.05	-51.8	-54.2	3.6	0.00e+00	0	38	104	0	60	86764
2026-01-01 11:07:11.43	227.09	12.29	-51.8	-54.2	3.5	0.00e+00	0	38	104	0	60	87107
2026-01-01 11:07:14.46	227.71	12.53	-51.8	-54.2	3.5	0.00e+00	0	38	104	0	60	86777
2026-01-01 11:07:17.50	228.35	12.77	-51.8	-54.3	3.6	0.00e+00	0	38	104	0	60	87436
2026-01-01 11:07:20.53	229.00	13.01	-51.8	-54.2	3.6	0.00e+00	0	38	104	0	60	86760
2026-01-01 11:07:23.56	229.66	13.25	-51.8	-54.3	3.6	0.00e+00	0	38	104	0	60	87656
2026-01-01 11:07:26.59	230.33	13.49	-51.8	-54.3	3.6	0.00e+00	0	38	104	0	60	87253
2026-01-01 11:07:29.62	231.01	13.73	-51.8	-54.3	3.6	0.00e+00	0	38	104	0	60	87318
2026-01-01 11:07:32.66	231.71	13.97	-51.8	-54.2	3.6	0.00e+00	0	38	104	0	60	86295
2026-01-01 11:07:35.69	232.42	14.21	-51.7	-54.2	3.6	0.00e+00	0	38	104	0	60	86400
2026-01-01 11:07:38.72	233.15	14.45	-51.7	-54.2	3.6	0.00e+00	0	38	104	0	60	86394
2026-01-01 11:07:41.75	233.88	14.69	-51.7	-54.2	3.6	0.00e+00	0	38	104	0	60	86912
2026-01-01 11:07:44.78	234.63	14.92	-51.7	-54.2	3.6	0.00e+00	0	38	104	0	60	86417
2026-01-01 11:07:47.81	235.40	15.16	-51.7	-54.2	3.6	0.00e+00	0	38	104	0	60	86555
2026-01-01 11:07:50.84	236.18	15.39	-51.7	-54.2	3.6	0.00e+00	0	38	104	0	60	86578
2026-01-01 11:07:53.88	236.97	15.63	-51.8	-54.2	3.6	0.00e+00	0	38	104	0	60	86831
2026-01-01 11:07:56.91	237.78	15.86	-51.8	-54.2	3.6	0.00e+00	0	38	104	0	60	86638
2026-01-01 11:07:59.94	238.60	16.08	-51.8	-54.2	3.6	0.00e+00	0	38	104	0	60	87129
2026-01-01 11:08:02.97	239.43	16.31	-51.8	-54.2	3.6	0.00e+00	0	38	104	0	60	86855
2026-01-01 11:08:06.01	240.28	16.53	-51.8	-54.2	3.6	0.00e+00	0	38	104	0	60	87003
2026-01-01 11:08:09.04	241.14	16.75	-51.8	-54.3	3.6	0.00e+00	0	38	104	0	60	87522
2026-01-01 11:08:12.07	242.02	16.97	-51.8	-54.3	3.6	0.00e+00	0	38	104	0	60	87277
2026-01-01 11:08:15.11	242.92	17.18	-51.8	-54.2	3.6	0.00e+00	0	38	104	0	60	86470
2026-01-01 11:08:18.14	243.82	17.39	-51.8	-54.3	3.6	0.00e+00	0	38	104	0	60	87515
2026-01-01 11:08:21.17	244.74	17.60	-51.8	-54.3	3.6	0.00e+00	0	38	104	0	60	87367
2026-01-01 11:08:24.21	245.68	17.80	-51.8	-54.2	3.6	0.00e+00	0	38	104	0	60	87169
2026-01-01 11:08:27.24	246.62	18.00	-51.8	-54.3	3.6	0.00e+00	0	38	104	0	60	87238
2026-01-01 11:08:30.27	247.59	18.19	-51.8	-54.3	3.6	0.00e+00	0	38	104	0	60	87589
2026-01-01 11:08:33.30	248.56	18.37	-51.8	-54.2	3.6	0.00e+00	0	38	104	0	60	86937
2026-01-01 11:08:36.34	249.55	18.55	-51.8	-54.2	3.6	0.00e+00	0	38	104	0	60	86974
2026-01-01 11:08:39.37	250.55	18.73	-51.8	-54.2	3.6	0.00e+00	0	38	104	0	60	86874
2026-01-01 11:08:42.40	251.56	18.89	-51.8	-54.3	3.6	0.00e+00	0	38	104	0	60	87298
2026-01-01 11:08:45.44	252.59	19.06	-51.8	-54.2	3.6	0.00e+00	0	38	104	0	60	86954
2026-01-01 11:08:48.47	253.63	19.21	-51.8	-54.2	3.6	0.00e+00	0	38	104	0	60	86899
2026-01-01 11:08:51.50	254.68	19.36	-51.8	-54.3	3.6	0.00e+00	0	38	104	0	60	87355
2026-01-01 11:08:54.53	255.74	19.49	-51.8	-54.3	3.6	0.00e+00	0	38	104	0	60	87441
2026-01-01 11:08:57.57	256.81	19.62	-51.8	-54.3	3.6	0.00e+00	0	38	104	0	60	87340
2026-01-01 11:09:00.60	257.89	19.75	-51.8	-54.2	3.6	0.00e+00	0	38	104	0	60	86765
2026-01-01 11:09:03.63	258.98	19.86	-51.8	-54.2	3.5	0.00e+00	0	38	104	0	60	86952
2026-01-01 11:09:06.67	260.08	19.97	-51.8	-54.2	3.6	0.00e+00	0	38	104	0	60	87044
2026-01-01 11:09:09.70	261.19	20.06	-51.8	-54.2	3.6	0.00e+00	0	38	104	0	60	86992
2026-01-01 11:09:12.73	262.30	20.15	-51.9	-54.3	3.6	0.00e+00	0	38	104	0	60	88098
2026-01-01 11:09:15.77	263.42	20.23	-51.8	-54.3	3.6	0.00e+00	0	38	104	0	60	87457
2026-01-01 11:09:18.80	264.55	20.29	-51.9	-54.3	3.6	0.00e+00	0	38	104	0	60	88108
2026-01-01 11:09:21.84	265.68	20.35	-51.8	-54.3	3.6	0.00e+00	0	38	104	0	60	87388
2026-01-01 11:09:24.87	266.81	20.40	-51.8	-54.3	3.6	0.00e+00	0	38	104	0	60	87247
2026-01-01 11:09:27.91	267.96	20.44	-51.9	-54.3	3.6	0.00e+00	0	38	104	0	60	88144
2026-01-01 11:09:30.94	269.10	20.46	-51.8	-54.2	3.6	0.00e+00	0	38	104	0	60	87204
2026-01-01 11:09:33.97	270.24	20.48	-51.8	-54.3	3.6	0.00e+00	0	38	104	0	60	87471
2026-01-01 11:09:37.00	271.38	20.49	-51.8	-54.2	3.6	0.00e+00	0	38	104	0	60	87181
2026-01-01 11:09:40.04	272.53	20.48	-51.8	-54.3	3.6	0.00e+00	0	38	104	0	60	87885
2026-01-01 11:09:43.07	273.67	20.47	-51.8	-54.3	3.6	0.00e+00	0	38	104	0	60	87243
2026-01-01 11:09:46.10	274.81	20.44	-51.8	-54.3	3.6	0.00e+00	0	38	104	0	60	87220
2026-01-01 11:09:49.14	275.95	20.41	-51.8	-54.3	3.6	0.00e+00	0	38	104	0	60	87313
2026-01-01 11:09:52.17	277.08	20.36	-51.8	-54.3	3.6	0.00e+00	0	38	104	0	60	87749
2026-01-01 11:09:55.20	278.21	20.31	-51.8	-54.2	3.6	0.00e+00	0	38	104	0	60	86900
2026-01-01 11:09:58.23	279.34	20.24	-51.8	-54.2	3.6	0.00e+00	0	38	104	0	60	86814
2026-01-01 11:10:01.27	280.46	20.17	-51.8	-54.2	3.6	0.00e+00	0	38	104	0	60	87053
2026-01-01 11:10:04.30	281.57	20.08	-51.8	-54.3	3.6	0.00e+00	0	38	104	0	60	87646
2026-01-01 11:10:07.34	282.68	19.99	-51.8	-54.3	3.6	0.00e+00	0	38	104	0	60	87590
2026-01-01 11:10:10.37	283.78	19.88	-51.8	-54.2	3.6	0.00e+00	0	38	104	0	60	87194
2026-01-01 11:10:13.40	284.87	19.77	-51.8	-54.2	3.6	0.00e+00	0	38	104	0	60	86805
2026-01-01 11:10:16.43	285.94	19.65	-51.8	-54.3	3.6	0.00e+00	0	38	104	0	60	87424
2026-01-01 11:10:19.47	287.02	19.52	-51.8	-54.2	3.6	0.00e+00	0	38	104	0	60	87143
2026-01-01 11:10:22.50	288.08	19.39	-51.8	-54.2	3.6	0.00e+00	0	38	104	0	60	87005
2026-01-01 11:10:25.53	289.12	19.24	-51.8	-54.2	3.6	0.00e+00	0	38	104	0	60	87065
2026-01-01 11:10:28.56	290.16	19.09	-51.7	-54.2	3.6	0.00e+00	0	38	104	0	60	86351
2026-01-01 11:10:31.59	291.19	18.93	-51.7	-54.2	3.6	0.00e+00	0	38	104	0	60	86778
2026-01-01 11:10:34.62	292.20	18.77	-51.8	-54.2	3.6	0.00e+00	0	38	104	0	60	86767
2026-01-01 11:10:37.65	293.20	18.60	-51.8	-54.3	3.6	0.00e+00	0	38	104	0	60	87459
2026-01-01 11:10:40.68	294.18	18.42	-51.8	-54.3	3.6	0.00e+00	0	38	104	0	60	87325
2026-01-01 11:10:43.72	295.16	18.23	-51.8	-54.3	3.6	0.00e+00	0	38	104	0	60	87404
2026-01-01 11:10:46.75	296.12	18.05	-51.8	-54.2	3.6	0.00e+00	0	38	104	0	60	86545
2026-01-01 11:10:49.78	297.07	17.85	-51.8	-54.2	3.6	0.00e+00	0	38	104	0	60	87206
2026-01-01 11:10:52.81	298.00	17.65	-51.8	-54.3	3.6	0.00e+00	0	38	104	0	60	87332
2026-01-01 11:10:55.84	298.92	17.45	-51.8	-54.2	3.6	0.00e+00	0	38	104	0	60	86985
2026-01-01 11:10:58.88	299.83	17.24	-51.8	-54.2	3.6	0.00e+00	0	38	104	0	60	86723
2026-01-01 11:11:01.91	300.72	17.03	-51.8	-54.3	3.5	0.00e+00	0	38	104	0	60	87946
2026-01-01 11:11:04.94	301.60	16.82	-51.8	-54.3	3.5	0.00e+00	0	39	104	0	60	87598
2026-01-01 11:11:07.97	302.46	16.60	-51.8	-54.2	3.6	0.00e+00	0	38	104	0	60	86995
2026-01-01 11:11:11.00	303.31	16.38	-51.8	-54.2	3.6	0.00e+00	0	38	104	0	60	87130
2026-01-01 11:11:14.03	304.14	16.15	-51.8	-54.3	3.6	0.00e+00	0	39	104	0	60	87394
2026-01-01 11:11:17.06	304.96	15.93	-51.8	-54.2	3.6	0.00e+00	0	38	104	0	60	86774
2026-01-01 11:11:20.10	305.77	15.70	-51.8	-54.3	3.6	0.00e+00	0	39	104	0	60	87767
2026-01-01 11:11:23.13	306.56	15.47	-51.8	-54.3	3.6	0.00e+00	0	38	104	0	60	87784
2026-01-01 11:11:26.16	307.34	15.24	-51.9	-54.3	3.6	0.00e+00	0	38	104	0	60	87807
2026-01-01 11:11:29.19	308.10	15.00	-51.8	-54.3	3.6	0.00e+00	0	38	104	0	60	87901
2026-01-01 11:11:32.22	308.85	14.77	-51.8	-54.3	3.6	0.00e+00	0	39	104	0	60	87387
2026-01-01 11:11:35.26	309.59	14.53	-51.8	-54.2	3.6	0.00e+00	0	38	104	0	60	86915
2026-01-01 11:11:38.29	310.32	14.30	-51.8	-54.2	3.6	0.00e+00	0	38	104	0	60	87199
2026-01-01 11:11:41.32	311.03	14.06	-51.8	-54.3	3.6	0.00e+00	0	39	104	0	60	87760
2026-01-01 11:11:44.35	311.72	13.82	-51.8	-54.3	3.6	0.00e+00	0	38	104	0	60	87378
2026-01-01 11:11:47.38	312.41	13.58	-51.8	-54.3	3.6	0.00e+00	0	39	104	0	60	87608
2026-01-01 11:11:50.41	313.08	13.35	-51.8	-54.3	3.6	0.00e+00	0	38	104	0	60	87542
2026-01-01 11:11:53.45	313.74	13.11	-51.8	-54.3	3.6	0.00e+00	0	38	104	0	60	87692
2026-01-01 11:11:56.48	314.39	12.87	-51.8	-54.3	3.6	0.00e+00	0	38	104	0	60	87613
2026-01-01 11:11:59.51	315.02	12.63	-51.8	-54.2	3.6	0.00e+00	0	39	104	0	60	86512
2026-01-01 11:12:02.54	315.65	12.39	-51.8	-54.3	3.6	0.00e+00	0	39	104	0	60	87982
2026-01-01 11:12:05.57	316.26	12.15	-51.8	-54.2	3.6	0.00e+00	0	39	104	0	60	87032
2026-01-01 11:12:08.60	316.86	11.92	-51.8	-54.2	3.6	0.00e+00	0	39	104	0	60	87155
2026-01-01 11:12:11.64	317.45	11.68	-51.8	-54.3	3.6	0.00e+00	0	39	104	0	60	87738
2026-01-01 11:12:14.67	318.03	11.44	-51.8	-54.3	3.6	0.00e+00	0	39	104	0	60	87239
2026-01-01 11:12:17.70	318.60	11.21	-51.8	-54.3	3.6	0.00e+00	0	38	104	0	60	87482
2026-01-01 11:12:20.73	319.16	10.97	-51.8	-54.2	3.6	0.00e+00	0	39	104	0	60	87096
2026-01-01 11:12:23.77	319.70	10.74	-51.8	-54.3	3.6	0.00e+00	0	39	104	0	60	88036
2026-01-01 11:12:26.80	320.24	10.50	-51.7	-54.2	3.5	0.00e+00	0	39	104	0	60	87086
2026-01-01 11:12:29.83	320.77	10.27	-51.8	-54.2	3.6	0.00e+00	0	39	104	0	60	87161
2026-01-01 11:12:32.86	321.28	10.04	-51.8	-54.2	3.6	0.00e+00	0	39	104	0	60	86933
2026-01-01 11:12:35.89	321.79	9.81	-51.8	-54.3	3.6	0.00e+00	0	39	104	0	60	87285
2026-01-01 11:12:38.92	322.29	9.58	-51.9	-54.3	3.6	0.00e+00	0	38	104	0	60	87690
2026-01-01 11:12:41.95	322.78	9.36	-51.8	-54.3	3.6	0.00e+00	0	39	104	0	60	87715
2026-01-01 11:12:44.98	323.26	9.13	-51.8	-54.3	3.5	0.00e+00	0	39	104	0	60	87374
2026-01-01 11:12:48.01	323.73	8.90	-51.8	-54.3	3.6	0.00e+00	0	39	104	0	60	87403
2026-01-01 11:12:51.04	324.19	8.68	-51.8	-54.3	3.6	0.00e+00	0	39	104	0	60	87629
2026-01-01 11:12:54.08	324.65	8.46	-51.8	-54.2	3.6	0.00e+00	0	39	104	0	60	86863
2026-01-01 11:12:57.11	325.10	8.23	-51.8	-54.2	3.6	0.00e+00	0	39	104	0	60	86940
2026-01-01 11:13:00.14	325.54	8.01	-51.8	-54.2	3.5	0.00e+00	0	39	104	0	60	86748
2026-01-01 11:13:03.17	325.97	7.80	-51.7	-54.2	3.6	0.00e+00	0	39	104	0	60	86654
2026-01-01 11:13:06.20	326.39	7.58	-51.7	-54.2	3.6	0.00e+00	0	39	104	0	60	86649
2026-01-01 11:13:09.24	326.81	7.36	-51.8	-54.2	3.6	0.00e+00	0	39	104	0	60	86953
2026-01-01 11:13:12.27	327.22	7.15	-51.8	-54.2	3.6	0.00e+00	0	39	104	0	60	86891
2026-01-01 11:13:15.30	327.62	6.93	-51.8	-54.3	3.6	0.00e+00	0	39	104	0	60	87506
2026-01-01 11:13:18.33	328.01	6.72	-51.7	-54.2	3.6	0.00e+00	0	39	104	0	60	87154
2026-01-01 11:13:21.36	328.40	6.51	-51.8	-54.2	3.6	0.00e+00	0	39	104	0	60	86803
2026-01-01 11:13:24.39	328.78	6.30	-51.8	-54.2	3.6	0.00e+00	0	39	104	0	60	87110
2026-01-01 11:13:27.42	329.16	6.09	-51.7	-54.2	3.6	0.00e+00	0	38	104	0	60	86733
2026-01-01 11:13:30.45	329.53	5.88	-51.8	-54.2	3.6	0.00e+00	0	39	104	0	60	86934
2026-01-01 11:13:33.49	329.89	5.68	-51.8	-54.2	3.6	0.00e+00	0	39	104	0	60	87005
2026-01-01 11:13:36.51	330.25	5.47	-51.8	-54.2	3.6	0.00e+00	0	39	104	0	60	86542
2026-01-01 11:13:39.55	330.60	5.27	-51.8	-54.2	3.6	0.00e+00	0	39	104	0	60	86680
2026-01-01 11:13:42.58	330.94	5.07	-51.7	-54.2	3.6	0.00e+00	0	39	104	0	60	87010
2026-01-01 11:13:45.61	331.28	4.86	-51.8	-54.2	3.6	0.00e+00	0	39	104	0	60	86801
2026-01-01 11:13:48.64	331.62	4.67	-51.8	-54.3	3.6	0.00e+00	0	39	104	0	60	87260
2026-01-01 11:13:51.67	331.95	4.47	-51.7	-54.2	3.6	0.00e+00	0	39	104	0	60	86503
2026-01-01 11:13:54.70	332.27	4.27	-51.8	-54.2	3.6	0.00e+00	0	39	104	0	60	86792
2026-01-01 11:13:57.73	332.59	4.07	-51.7	-54.2	3.6	0.00e+00	0	39	104	0	60	86779
2026-01-01 11:14:00.77	332.90	3.88	-51.8	-54.2	3.6	0.00e+00	0	39	104	0	60	86738
2026-01-01 11:14:03.80	333.21	3.69	-51.8	-54.2	3.6	0.00e+00	0	39	104	0	60	86773
2026-01-01 11:14:06.83	333.51	3.49	-51.8	-54.3	3.6	0.00e+00	0	39	104	0	60	87241
2026-01-01 11:14:09.86	333.81	3.30	-51.7	-54.2	3.6	0.00e+00	0	39	104	0	60	86445
2026-01-01 11:14:12.89	334.11	3.11	-51.8	-54.2	3.6	0.00e+00	0	39	104	0	60	87202
2026-01-01 11:14:15.92	334.40	2.93	-51.8	-54.2	3.6	0.00e+00	0	39	104	0	60	87074
2026-01-01 11:14:18.96	334.68	2.74	-51.8	-54.2	3.6	0.00e+00	0	39	104	0	60	86705
2026-01-01 11:14:21.99	334.97	2.55	-51.8	-54.2	3.6	0.00e+00	0	39	104	0	60	86979
2026-01-01 11:14:25.02	335.24	2.37	-51.7	-54.2	3.6	0.00e+00	0	39	104	0	60	86820
2026-01-01 11:14:28.05	335.52	2.18	-51.8	-54.2	3.6	0.00e+00	0	39	104	0	60	87045
2026-01-01 11:14:31.08	335.78	2.00	-51.8	-54.2	3.6	0.00e+00	0	39	104	0	60	86831
2026-01-01 11:14:34.11	336.05	1.82	-51.7	-54.2	3.6	0.00e+00	0	39	104	0	60	86528
2026-01-01 11:14:37.15	336.31	1.64	-51.8	-54.3	3.5	0.00e+00	0	39	104	0	60	87255
2026-01-01 11:14:40.18	336.57	1.46	-51.8	-54.2	3.6	0.00e+00	0	39	104	0	60	86888
2026-01-01 11:14:43.21	336.82	1.28	-51.8	-54.2	3.6	0.00e+00	0	39	104	0	60	86723
2026-01-01 11:14:46.25	337.07	1.10	-51.8	-54.2	3.6	0.00e+00	0	39	104	0	60	86976
2026-01-01 11:14:49.28	337.32	0.92	-51.8	-54.2	3.6	0.00e+00	0	39	104	0	60	86599
2026-01-01 11:14:52.31	337.56	0.75	-51.8	-54.2	3.6	0.00e+00	0	39	104	0	60	86729
2026-01-01 11:14:55.34	337.80	0.57	-51.8	-54.3	3.6	0.00e+00	0	39	104	0	60	87314
2026-01-01 11:14:58.38	338.04	0.40	-51.8	-54.2	3.6	0.00e+00	0	39	104	0	60	86710
2026-01-01 11:15:01.41	338.27	0.23	-51.8	-54.2	3.6	0.00e+00	0	39	104	0	60	86946
2026-01-01 11:15:04.44	338.50	0.05	-51.8	-54.3	3.6	0.00e+00	0	39	104	0	60	87267

#Closed at: 2026-01-01 11:15:05
#Recorded file [0 MB]: D:/lorett/data/35034_260101_140412.dat