passes_logs/2026/01/01/R4.6S_Anadyr_2ch/R4.6S_Anadyr_2ch__20260101_235639_2025-108B_rec.log

#Pass ID: 20260101_235639_2025-108B
#Satellite: 2025-108B
#Configuration: 3PB_600M
#almurnet v.1.7.20251203
#Start time: 2026-01-01 23:56:40

#Version: 2.2.20231116
#Station: R4.6S_Anadyr_2ch
#Location: 177.4865 lon 64.73178 lat
#TLE: 1 64088U 25108B   25351.01672131  .00008460  00000+0  43413-3 0  9994
#TLE: 2 64088  97.4940  63.8579 0011684 285.1423  74.8517 15.16717580 31720

#Time	Az	El	Level	Level2	SNR	BER	BlckErr	Temp	State	Recorded	gain1	gain2
2026-01-01 23:56:40.19	17.54	0.05	-52.0	-53.3	3.4	0.00e+00	0	34	0	0	60	77852
2026-01-01 23:56:43.22	17.51	0.24	-51.8	-54.3	3.6	0.00e+00	0	35	104	0	60	87652
2026-01-01 23:56:46.25	17.49	0.43	-51.8	-54.2	3.6	0.00e+00	0	35	104	0	60	86883
2026-01-01 23:56:49.28	17.46	0.63	-51.8	-54.2	3.6	0.00e+00	0	36	104	0	60	86956
2026-01-01 23:56:52.31	17.43	0.83	-51.8	-54.2	3.6	0.00e+00	0	36	104	0	60	86689
2026-01-01 23:56:55.34	17.41	1.02	-51.8	-54.3	3.6	0.00e+00	0	36	104	0	60	87507
2026-01-01 23:56:58.37	17.38	1.22	-51.8	-54.2	3.6	0.00e+00	0	36	104	0	60	86950
2026-01-01 23:57:01.41	17.35	1.43	-51.8	-54.3	3.6	0.00e+00	0	36	104	0	60	87405
2026-01-01 23:57:04.43	17.32	1.63	-51.9	-54.4	3.6	0.00e+00	0	36	104	0	60	88223
2026-01-01 23:57:07.46	17.29	1.84	-51.8	-54.3	3.6	0.00e+00	0	36	104	0	60	87802
2026-01-01 23:57:10.49	17.26	2.05	-51.8	-54.3	3.6	0.00e+00	0	36	104	0	60	87438
2026-01-01 23:57:13.52	17.23	2.26	-51.8	-54.3	3.6	0.00e+00	0	36	104	0	60	87348
2026-01-01 23:57:16.55	17.20	2.47	-51.8	-54.3	3.6	0.00e+00	0	36	104	0	60	87632
2026-01-01 23:57:19.58	17.17	2.68	-51.8	-54.2	3.6	0.00e+00	0	37	104	0	60	86750
2026-01-01 23:57:22.62	17.13	2.90	-51.8	-54.2	3.6	0.00e+00	0	37	104	0	60	87199
2026-01-01 23:57:25.64	17.10	3.12	-51.8	-54.2	3.6	0.00e+00	0	37	104	0	60	86910
2026-01-01 23:57:28.67	17.06	3.34	-51.8	-54.2	3.6	0.00e+00	0	37	104	0	60	86848
2026-01-01 23:57:31.70	17.02	3.56	-51.8	-54.3	3.6	0.00e+00	0	37	104	0	60	87623
2026-01-01 23:57:34.73	16.99	3.79	-51.8	-54.3	3.6	0.00e+00	0	37	104	0	60	87367
2026-01-01 23:57:37.76	16.95	4.01	-51.8	-54.2	3.6	0.00e+00	0	37	104	0	60	87196
2026-01-01 23:57:40.79	16.91	4.24	-51.8	-54.3	3.6	0.00e+00	0	37	104	0	60	87573
2026-01-01 23:57:43.83	16.87	4.48	-51.8	-54.3	3.6	0.00e+00	0	37	104	0	60	87627
2026-01-01 23:57:46.86	16.83	4.71	-51.8	-54.3	3.6	0.00e+00	0	37	104	0	60	87449
2026-01-01 23:57:49.89	16.78	4.95	-51.8	-54.3	3.6	0.00e+00	0	37	104	0	60	87505
2026-01-01 23:57:52.92	16.74	5.19	-51.8	-54.3	3.6	0.00e+00	0	37	104	0	60	87393
2026-01-01 23:57:55.96	16.69	5.44	-51.9	-54.3	3.6	0.00e+00	0	37	104	0	60	88015
2026-01-01 23:57:58.99	16.65	5.68	-51.9	-54.4	3.6	0.00e+00	0	37	104	0	60	88393
2026-01-01 23:58:02.02	16.60	5.93	-51.8	-54.3	3.6	0.00e+00	0	37	104	0	60	87516
2026-01-01 23:58:05.05	16.55	6.19	-51.8	-54.3	3.6	0.00e+00	0	37	104	0	60	87406
2026-01-01 23:58:08.08	16.50	6.44	-51.8	-54.3	3.6	0.00e+00	0	37	104	0	60	87682
2026-01-01 23:58:11.12	16.45	6.70	-51.8	-54.3	3.6	0.00e+00	0	37	104	0	60	88112
2026-01-01 23:58:14.14	16.40	6.97	-51.8	-54.3	3.6	0.00e+00	0	37	104	0	60	87835
2026-01-01 23:58:17.17	16.34	7.23	-51.8	-54.3	3.6	0.00e+00	0	37	104	0	60	87790
2026-01-01 23:58:20.21	16.29	7.50	-51.8	-54.2	3.6	0.00e+00	0	37	104	0	60	87055
2026-01-01 23:58:23.23	16.23	7.78	-51.9	-54.3	3.6	0.00e+00	0	37	104	0	60	87586
2026-01-01 23:58:26.26	16.17	8.06	-51.8	-54.3	3.6	0.00e+00	0	37	104	0	60	87560
2026-01-01 23:58:29.29	16.11	8.34	-51.9	-54.4	3.6	0.00e+00	0	38	104	0	60	88250
2026-01-01 23:58:32.32	16.05	8.62	-51.9	-54.3	3.6	0.00e+00	0	38	104	0	60	87788
2026-01-01 23:58:35.35	15.98	8.91	-51.8	-54.3	3.6	0.00e+00	0	38	104	0	60	87398
2026-01-01 23:58:38.38	15.91	9.21	-51.9	-54.3	3.6	0.00e+00	0	38	104	0	60	88031
2026-01-01 23:58:41.41	15.85	9.51	-51.8	-54.3	3.5	0.00e+00	0	37	104	0	60	87287
2026-01-01 23:58:44.45	15.77	9.81	-51.8	-54.3	3.6	0.00e+00	0	38	104	0	60	87456
2026-01-01 23:58:47.48	15.70	10.12	-51.9	-54.3	3.6	0.00e+00	0	38	104	0	60	87826
2026-01-01 23:58:50.51	15.63	10.44	-51.9	-54.4	3.6	0.00e+00	0	38	104	0	60	88413
2026-01-01 23:58:53.54	15.55	10.76	-51.9	-54.4	3.6	0.00e+00	0	38	104	0	60	88403
2026-01-01 23:58:56.57	15.47	11.08	-51.8	-54.3	3.6	0.00e+00	0	38	104	0	60	87693
2026-01-01 23:58:59.60	15.39	11.41	-51.8	-54.3	3.6	0.00e+00	0	38	104	0	60	87479
2026-01-01 23:59:02.63	15.30	11.75	-51.9	-54.3	3.6	0.00e+00	0	38	104	0	60	88135
2026-01-01 23:59:05.66	15.21	12.09	-51.8	-54.3	3.6	0.00e+00	0	38	104	0	60	87662
2026-01-01 23:59:08.70	15.12	12.44	-51.8	-54.3	3.6	0.00e+00	0	38	104	0	60	87305
2026-01-01 23:59:11.72	15.03	12.79	-51.8	-54.3	3.6	0.00e+00	0	38	104	0	60	87671
2026-01-01 23:59:14.75	14.93	13.16	-51.9	-54.4	3.6	0.00e+00	0	38	104	0	60	88523
2026-01-01 23:59:17.78	14.83	13.53	-51.9	-54.3	3.6	0.00e+00	0	38	104	0	60	88134
2026-01-01 23:59:20.81	14.73	13.90	-51.9	-54.3	3.6	0.00e+00	0	38	104	0	60	87635
2026-01-01 23:59:23.84	14.62	14.29	-51.9	-54.3	3.6	0.00e+00	0	38	104	0	60	87872
2026-01-01 23:59:26.88	14.51	14.68	-51.9	-54.3	3.6	0.00e+00	0	38	104	0	60	88015
2026-01-01 23:59:29.91	14.40	15.08	-51.9	-54.3	3.6	0.00e+00	0	38	104	0	60	88070
2026-01-01 23:59:32.94	14.28	15.49	-51.9	-54.3	3.6	0.00e+00	0	38	104	0	60	87908
2026-01-01 23:59:35.97	14.16	15.90	-51.9	-54.3	3.6	0.00e+00	0	38	104	0	60	87852
2026-01-01 23:59:39.00	14.03	16.33	-51.9	-54.3	3.6	0.00e+00	0	38	104	0	60	87947
2026-01-01 23:59:42.03	13.90	16.77	-51.9	-54.3	3.5	0.00e+00	0	38	104	0	60	88118
2026-01-01 23:59:45.06	13.76	17.21	-51.8	-54.3	3.6	0.00e+00	0	38	104	0	60	87917
2026-01-01 23:59:48.10	13.62	17.67	-51.8	-54.3	3.6	0.00e+00	0	38	104	0	60	87211
2026-01-01 23:59:51.12	13.47	18.13	-51.9	-54.3	3.6	0.00e+00	0	38	104	0	60	87802
2026-01-01 23:59:54.15	13.32	18.61	-51.9	-54.3	3.6	0.00e+00	0	38	104	0	60	87838
2026-01-01 23:59:57.18	13.16	19.10	-51.9	-54.3	3.6	0.00e+00	0	38	104	0	60	88048
2026-01-02 00:00:00.21	12.99	19.60	-51.9	-54.3	3.6	0.00e+00	0	38	104	0	60	88123
2026-01-02 00:00:03.24	12.82	20.12	-51.8	-54.3	3.6	0.00e+00	0	38	104	0	60	87228
2026-01-02 00:00:06.27	12.64	20.64	-51.8	-54.3	3.6	0.00e+00	0	38	104	0	60	87485
2026-01-02 00:00:09.30	12.45	21.19	-51.9	-54.3	3.6	0.00e+00	0	38	104	0	60	88030
2026-01-02 00:00:12.33	12.26	21.74	-51.9	-54.3	3.6	0.00e+00	0	38	104	0	60	87848
2026-01-02 00:00:15.36	12.05	22.31	-51.9	-54.3	3.6	0.00e+00	0	38	104	0	60	87926
2026-01-02 00:00:18.40	11.84	22.90	-51.9	-54.4	3.6	0.00e+00	0	38	104	0	60	88576
2026-01-02 00:00:21.43	11.61	23.50	-51.8	-54.3	3.6	0.00e+00	0	38	104	0	60	87490
2026-01-02 00:00:24.46	11.38	24.12	-51.8	-54.3	3.6	0.00e+00	0	38	104	0	60	87550
2026-01-02 00:00:27.49	11.13	24.76	-51.8	-54.3	3.6	0.00e+00	0	38	104	0	60	87794
2026-01-02 00:00:30.52	10.87	25.42	-51.9	-54.3	3.6	0.00e+00	0	38	104	0	60	88094
2026-01-02 00:00:33.54	10.61	26.09	-51.8	-54.3	3.6	0.00e+00	0	38	104	0	60	87878
2026-01-02 00:00:36.58	10.32	26.79	-51.8	-54.3	3.6	0.00e+00	0	38	104	0	60	87599
2026-01-02 00:00:39.61	10.02	27.51	-51.8	-54.2	3.6	0.00e+00	0	38	104	0	60	87203
2026-01-02 00:00:42.64	9.71	28.25	-51.8	-54.3	3.6	0.00e+00	0	38	104	0	60	87515
2026-01-02 00:00:45.67	9.38	29.01	-51.9	-54.3	3.6	0.00e+00	0	39	104	0	60	88061
2026-01-02 00:00:48.70	9.03	29.80	-51.9	-54.4	3.6	0.00e+00	0	38	104	0	60	88609
2026-01-02 00:00:51.73	8.66	30.62	-51.9	-54.3	3.6	0.00e+00	0	39	104	0	60	87858
2026-01-02 00:00:54.77	8.26	31.46	-51.8	-54.2	3.6	0.00e+00	0	39	104	0	60	87183
2026-01-02 00:00:57.80	7.85	32.32	-51.8	-54.3	3.6	0.00e+00	0	39	104	0	60	87394
2026-01-02 00:01:00.83	7.41	33.22	-51.8	-54.3	3.6	0.00e+00	0	39	104	0	60	87563
2026-01-02 00:01:03.87	6.94	34.15	-51.9	-54.3	3.6	0.00e+00	0	39	104	0	60	87841
2026-01-02 00:01:06.90	6.44	35.10	-51.8	-54.3	3.6	0.00e+00	0	39	104	0	60	87360
2026-01-02 00:01:09.93	5.91	36.09	-51.8	-54.3	3.6	0.00e+00	0	39	104	0	60	87568
2026-01-02 00:01:12.96	5.34	37.11	-51.9	-54.3	3.6	0.00e+00	0	39	104	0	60	88050
2026-01-02 00:01:15.99	4.73	38.17	-51.8	-54.3	3.6	0.00e+00	0	39	104	0	60	87453
2026-01-02 00:01:19.02	4.08	39.26	-51.9	-54.3	3.6	0.00e+00	0	39	104	0	60	88084
2026-01-02 00:01:22.06	3.37	40.39	-51.9	-54.4	3.6	0.00e+00	0	39	104	0	60	88488
2026-01-02 00:01:25.09	2.61	41.55	-51.9	-54.3	3.6	0.00e+00	0	39	104	0	60	88183
2026-01-02 00:01:28.12	1.80	42.75	-51.8	-54.2	3.6	0.00e+00	0	39	104	0	60	87061
2026-01-02 00:01:31.16	0.91	43.99	-51.8	-54.3	3.6	0.00e+00	0	39	104	0	60	87619
2026-01-02 00:01:34.19	359.94	45.27	-51.8	-54.3	3.6	0.00e+00	0	39	104	0	60	87479
2026-01-02 00:01:37.22	358.90	46.58	-51.9	-54.4	3.6	0.00e+00	0	39	104	0	60	88399
2026-01-02 00:01:40.26	357.75	47.94	-51.9	-54.3	3.6	0.00e+00	0	39	104	0	60	88204
2026-01-02 00:01:43.29	356.49	49.32	-51.9	-54.3	3.6	0.00e+00	0	39	104	0	60	88210
2026-01-02 00:01:46.32	355.11	50.74	-51.9	-54.4	3.6	0.00e+00	0	39	104	0	60	88845
2026-01-02 00:01:49.36	353.58	52.19	-51.8	-54.3	3.6	0.00e+00	0	39	104	0	60	87469
2026-01-02 00:01:52.39	351.89	53.66	-51.9	-54.3	3.6	0.00e+00	0	39	104	0	60	87853
2026-01-02 00:01:55.42	350.02	55.15	-51.8	-54.3	3.6	0.00e+00	0	39	104	0	60	87780
2026-01-02 00:01:58.45	347.93	56.65	-51.9	-54.3	3.6	0.00e+00	0	39	104	0	60	87962
2026-01-02 00:02:01.49	345.59	58.16	-51.9	-54.4	3.6	0.00e+00	0	39	104	0	60	88297
2026-01-02 00:02:04.52	342.97	59.66	-51.7	-54.1	3.6	0.00e+00	0	39	104	0	60	86006
2026-01-02 00:02:07.55	340.03	61.14	-51.2	-53.6	3.6	0.00e+00	0	39	104	0	60	80968
2026-01-02 00:02:10.59	336.70	62.59	-50.3	-52.8	3.6	0.00e+00	0	39	104	0	60	73680
2026-01-02 00:02:13.62	332.96	63.97	-50.2	-52.7	3.6	0.00e+00	0	39	104	0	60	73055
2026-01-02 00:02:16.65	328.76	65.26	-50.2	-52.7	3.6	0.00e+00	0	39	104	0	60	72994
2026-01-02 00:02:19.68	324.06	66.45	-50.2	-52.7	3.6	0.00e+00	0	39	104	0	60	72920
2026-01-02 00:02:22.71	318.84	67.49	-50.2	-52.7	3.6	0.00e+00	0	39	104	0	60	73158
2026-01-02 00:02:25.75	313.09	68.36	-50.2	-52.7	3.6	0.00e+00	0	39	104	0	60	73028
2026-01-02 00:02:28.78	306.90	69.01	-50.2	-52.7	3.6	0.00e+00	0	39	104	0	60	72670
2026-01-02 00:02:31.81	300.35	69.43	-50.2	-52.7	3.6	0.00e+00	0	39	104	0	60	72744
2026-01-02 00:02:34.84	293.61	69.59	-50.2	-52.7	3.6	0.00e+00	0	39	104	0	60	73333
2026-01-02 00:02:37.88	286.82	69.48	-50.2	-52.6	3.6	0.00e+00	0	39	104	0	60	72422
2026-01-02 00:02:40.91	280.21	69.12	-50.2	-52.7	3.6	0.00e+00	0	39	104	0	60	72641
2026-01-02 00:02:43.94	273.93	68.51	-50.2	-52.7	3.6	0.00e+00	0	39	104	0	60	73044
2026-01-02 00:02:46.98	268.08	67.68	-50.2	-52.7	3.6	0.00e+00	0	39	104	0	60	72991
2026-01-02 00:02:50.01	262.74	66.67	-50.2	-52.7	3.6	0.00e+00	0	39	104	0	60	72870
2026-01-02 00:02:53.04	257.93	65.51	-50.4	-52.9	3.6	0.00e+00	0	39	104	0	60	74723
2026-01-02 00:02:56.08	253.61	64.22	-50.5	-53.0	3.6	0.00e+00	0	39	104	0	60	75550
2026-01-02 00:02:59.11	249.78	62.85	-50.4	-52.9	3.6	0.00e+00	0	39	104	0	60	74338
2026-01-02 00:03:02.14	246.37	61.41	-50.5	-53.0	3.6	0.00e+00	0	39	104	0	60	75435
2026-01-02 00:03:05.17	243.35	59.93	-50.5	-53.0	3.6	0.00e+00	0	39	104	0	60	75863
2026-01-02 00:03:08.21	240.66	58.43	-50.6	-53.1	3.6	0.00e+00	0	39	104	0	60	76134
2026-01-02 00:03:11.24	238.26	56.91	-50.6	-53.1	3.6	0.00e+00	0	39	104	0	60	76178
2026-01-02 00:03:14.27	236.12	55.40	-50.7	-53.2	3.6	0.00e+00	0	39	104	0	60	77077
2026-01-02 00:03:17.30	234.21	53.90	-50.6	-53.2	3.6	0.00e+00	0	39	104	0	60	76948
2026-01-02 00:03:20.34	232.47	52.41	-50.8	-53.2	3.6	0.00e+00	0	39	104	0	60	77338
2026-01-02 00:03:23.37	230.92	50.95	-50.8	-53.2	3.6	0.00e+00	0	39	104	0	60	77684
2026-01-02 00:03:26.40	229.51	49.52	-50.8	-53.3	3.6	0.00e+00	0	39	104	0	60	78050
2026-01-02 00:03:29.44	228.22	48.11	-50.9	-53.3	3.6	0.00e+00	0	39	104	0	60	77997
2026-01-02 00:03:32.47	227.05	46.75	-50.8	-53.3	3.6	0.00e+00	0	39	104	0	60	77852
2026-01-02 00:03:35.50	225.98	45.42	-50.9	-53.4	3.6	0.00e+00	0	39	104	0	60	78698
2026-01-02 00:03:38.54	225.00	44.13	-50.9	-53.4	3.6	0.00e+00	0	39	104	0	60	78788
2026-01-02 00:03:41.57	224.10	42.88	-42.3	-42.7	5.3	0.00e+00	0	39	104	0	60	22941
2026-01-02 00:03:44.60	223.26	41.66	-42.3	-42.6	5.2	0.00e+00	0	39	104	0	60	22904
2026-01-02 00:03:47.64	222.49	40.48	-42.2	-42.6	5.2	0.00e+00	0	39	104	0	60	22778
2026-01-02 00:03:50.67	221.78	39.34	-42.2	-42.6	5.2	0.00e+00	0	39	104	0	60	22734
2026-01-02 00:03:53.70	221.11	38.24	-42.2	-42.6	5.2	0.00e+00	0	39	104	0	60	22694
2026-01-02 00:03:56.73	220.49	37.17	-42.1	-42.4	5.3	0.00e+00	0	39	104	0	60	22335
2026-01-02 00:03:59.77	219.91	36.13	-42.1	-42.4	5.3	0.00e+00	0	39	104	0	60	22370
2026-01-02 00:04:02.80	219.37	35.13	-42.1	-42.4	5.2	0.00e+00	0	39	104	0	60	22404
2026-01-02 00:04:05.84	218.86	34.16	-42.1	-42.4	5.2	0.00e+00	0	39	104	0	60	22340
2026-01-02 00:04:08.87	218.39	33.22	-42.1	-42.4	5.3	0.00e+00	0	39	104	0	60	22310
2026-01-02 00:04:11.90	217.94	32.32	-42.0	-42.4	5.3	0.00e+00	0	39	104	0	60	22282
2026-01-02 00:04:14.93	217.52	31.44	-42.2	-42.6	5.2	0.00e+00	0	39	104	0	60	22760
2026-01-02 00:04:17.96	217.12	30.59	-42.0	-42.3	5.3	0.00e+00	0	39	104	0	60	22007
2026-01-02 00:04:21.00	216.75	29.77	-42.0	-42.4	5.3	0.00e+00	0	39	104	0	60	22262
2026-01-02 00:04:24.03	216.39	28.97	-42.0	-42.4	5.3	0.00e+00	0	39	104	0	60	22281
2026-01-02 00:04:27.06	216.06	28.20	-42.1	-42.4	5.3	0.00e+00	0	39	104	0	60	22296
2026-01-02 00:04:30.10	215.74	27.45	-42.2	-42.6	5.2	0.00e+00	0	39	104	0	60	22875
2026-01-02 00:04:33.13	215.43	26.72	-42.2	-42.5	5.2	0.00e+00	0	39	104	0	60	22583
2026-01-02 00:04:36.16	215.15	26.02	-42.1	-42.4	5.2	0.00e+00	0	39	104	0	60	22341
2026-01-02 00:04:39.19	214.87	25.33	-42.0	-42.3	5.3	0.00e+00	0	39	104	0	60	22092
2026-01-02 00:04:42.23	214.61	24.67	-42.0	-42.3	5.3	0.00e+00	0	39	104	0	60	22118
2026-01-02 00:04:45.26	214.36	24.02	-41.7	-42.0	5.3	0.00e+00	0	39	104	0	60	21275
2026-01-02 00:04:48.29	214.12	23.39	-41.7	-42.0	5.3	0.00e+00	0	39	104	0	60	21340
2026-01-02 00:04:51.32	213.90	22.79	-41.8	-42.1	5.3	0.00e+00	0	39	104	0	60	21576
2026-01-02 00:04:54.35	213.68	22.19	-41.6	-41.9	5.4	0.00e+00	0	39	104	0	60	21043
2026-01-02 00:04:57.38	213.47	21.62	-41.5	-41.8	5.4	0.00e+00	0	39	104	0	60	20845
2026-01-02 00:05:00.41	213.27	21.06	-41.5	-41.8	5.4	0.00e+00	0	39	104	0	60	20812
2026-01-02 00:05:03.44	213.08	20.51	-41.3	-41.7	5.4	0.00e+00	0	39	104	0	60	20533
2026-01-02 00:05:06.47	212.90	19.98	-41.0	-41.4	5.4	0.00e+00	0	39	104	0	60	19776
2026-01-02 00:05:09.50	212.73	19.46	-41.2	-41.5	5.4	0.00e+00	0	39	104	0	60	20052
2026-01-02 00:05:12.53	212.56	18.95	-41.4	-41.7	5.4	0.00e+00	0	39	104	0	60	20494
2026-01-02 00:05:15.56	212.39	18.46	-41.3	-41.6	5.4	0.00e+00	0	39	104	0	60	20253
2026-01-02 00:05:18.59	212.24	17.98	-41.3	-41.6	5.4	0.00e+00	0	39	104	0	60	20225
2026-01-02 00:05:21.62	212.09	17.50	-41.5	-41.8	5.4	0.00e+00	0	39	104	0	60	20822
2026-01-02 00:05:24.65	211.94	17.05	-41.6	-41.8	5.4	0.00e+00	0	39	104	0	60	20867
2026-01-02 00:05:27.68	211.80	16.60	-41.7	-42.0	5.3	0.00e+00	0	39	104	0	60	21336
2026-01-02 00:05:30.71	211.67	16.16	-41.9	-42.2	5.3	0.00e+00	0	39	104	0	60	21880
2026-01-02 00:05:33.74	211.54	15.73	-41.7	-42.0	5.3	0.00e+00	0	39	104	0	60	21349
2026-01-02 00:05:36.77	211.42	15.31	-41.9	-42.3	5.3	0.00e+00	0	39	104	0	60	21918
2026-01-02 00:05:39.81	211.29	14.89	-41.9	-42.2	5.3	0.00e+00	0	39	104	0	60	21813
2026-01-02 00:05:42.84	211.18	14.49	-41.6	-41.9	5.4	0.00e+00	0	39	104	0	60	21153
2026-01-02 00:05:45.87	211.07	14.10	-41.8	-42.1	5.4	0.00e+00	0	39	104	0	60	21530
2026-01-02 00:05:48.90	210.96	13.71	-41.7	-42.1	5.4	0.00e+00	0	39	104	0	60	21484
2026-01-02 00:05:51.93	210.85	13.33	-41.6	-42.0	5.4	0.00e+00	0	39	104	0	60	21181
2026-01-02 00:05:54.96	210.75	12.96	-41.4	-41.7	5.5	0.00e+00	0	39	104	0	60	20498
2026-01-02 00:05:57.99	210.65	12.59	-41.5	-41.8	5.4	0.00e+00	0	39	104	0	60	20840
2026-01-02 00:06:01.02	210.55	12.24	-41.1	-41.4	5.5	0.00e+00	0	39	104	0	60	19813
2026-01-02 00:06:04.04	210.46	11.89	-41.1	-41.4	5.5	0.00e+00	0	39	104	0	60	19815
2026-01-02 00:06:07.07	210.37	11.54	-41.4	-41.7	5.5	0.00e+00	0	39	104	0	60	20614
2026-01-02 00:06:10.10	210.29	11.20	-41.3	-41.7	5.4	0.00e+00	0	39	104	0	60	20500
2026-01-02 00:06:13.13	210.20	10.87	-41.4	-41.7	5.5	0.00e+00	0	39	104	0	60	20464
2026-01-02 00:06:16.17	210.12	10.54	-41.6	-41.9	5.4	0.00e+00	0	39	104	0	60	20972
2026-01-02 00:06:19.20	210.04	10.22	-42.0	-42.3	5.3	0.00e+00	0	39	104	0	60	21962
2026-01-02 00:06:22.23	209.96	9.91	-42.0	-42.3	5.3	0.00e+00	0	39	104	0	60	22114
2026-01-02 00:06:25.26	209.89	9.59	-42.3	-42.6	5.3	0.00e+00	0	39	104	0	60	22826
2026-01-02 00:06:28.29	209.81	9.29	-42.3	-42.7	5.3	0.00e+00	0	39	104	0	60	23024
2026-01-02 00:06:31.33	209.74	8.99	-43.1	-43.5	5.1	0.00e+00	0	39	104	0	60	25206
2026-01-02 00:06:34.36	209.67	8.69	-43.7	-44.2	5.0	0.00e+00	0	39	104	0	60	27280
2026-01-02 00:06:37.39	209.61	8.40	-43.3	-43.8	5.1	0.00e+00	0	39	104	0	60	26061
2026-01-02 00:06:40.43	209.54	8.11	-43.0	-43.3	5.2	0.00e+00	0	39	104	0	60	24781
2026-01-02 00:06:43.46	209.48	7.82	-42.9	-43.2	5.3	0.00e+00	0	39	104	0	60	24540
2026-01-02 00:06:46.49	209.42	7.55	-43.0	-43.4	5.1	0.00e+00	0	39	104	0	60	24919
2026-01-02 00:06:49.52	209.36	7.27	-43.3	-43.8	5.2	0.00e+00	0	39	104	0	60	26051
2026-01-02 00:06:52.55	209.30	7.00	-43.3	-43.7	5.1	0.00e+00	0	39	104	0	60	25857
2026-01-02 00:06:55.58	209.24	6.73	-42.5	-42.8	5.2	0.00e+00	0	39	104	0	60	23432
2026-01-02 00:06:58.61	209.19	6.47	-42.1	-42.5	5.4	0.00e+00	0	39	104	0	60	22470
2026-01-02 00:07:01.64	209.13	6.20	-42.1	-42.4	5.3	0.00e+00	0	39	104	0	60	22351
2026-01-02 00:07:04.66	209.08	5.95	-43.3	-43.7	5.1	0.00e+00	0	39	104	0	60	25996
2026-01-02 00:07:07.69	209.03	5.69	-43.8	-44.3	5.0	0.00e+00	0	39	104	0	60	27729
2026-01-02 00:07:10.72	208.98	5.44	-43.7	-44.2	5.1	0.00e+00	0	39	104	0	60	27355
2026-01-02 00:07:13.75	208.93	5.19	-42.9	-43.3	5.2	0.00e+00	0	39	104	0	60	24731
2026-01-02 00:07:16.78	208.88	4.95	-43.1	-43.5	5.2	0.00e+00	0	39	104	0	60	25261
2026-01-02 00:07:19.81	208.84	4.71	-42.8	-43.2	5.3	0.00e+00	0	39	104	0	60	24472
2026-01-02 00:07:22.84	208.79	4.47	-41.9	-41.1	7.9	0.00e+00	0	39	0	0	60	19188
2026-01-02 00:07:25.87	208.75	4.23	-41.2	-40.3	8.4	0.00e+00	0	39	0	0	60	17550
2026-01-02 00:07:28.90	208.70	4.00	-41.2	-40.4	8.2	0.00e+00	0	39	0	0	60	17726
2026-01-02 00:07:31.94	208.66	3.76	-41.2	-40.4	8.2	0.00e+00	0	39	0	0	60	17758
2026-01-02 00:07:34.97	208.62	3.54	-41.2	-40.3	8.3	0.00e+00	0	39	0	0	60	17554
2026-01-02 00:07:38.00	208.58	3.31	-41.0	-40.1	8.3	0.00e+00	0	39	0	0	60	17189
2026-01-02 00:07:41.04	208.54	3.08	-40.2	-39.3	8.4	0.00e+00	0	39	0	0	60	15686
2026-01-02 00:07:44.07	208.50	2.86	-39.8	-38.9	8.6	0.00e+00	0	39	0	0	60	14855
2026-01-02 00:07:47.10	208.47	2.64	-39.1	-38.3	8.8	0.00e+00	0	39	0	0	60	13828
2026-01-02 00:07:50.13	208.43	2.43	-38.5	-37.6	8.8	0.00e+00	0	39	0	0	58	14372
2026-01-02 00:07:53.17	208.39	2.21	-38.6	-37.7	8.8	0.00e+00	0	39	0	0	58	14580
2026-01-02 00:07:56.20	208.36	2.00	-40.4	-39.6	8.9	0.00e+00	0	39	0	0	60	16075
2026-01-02 00:07:59.23	208.33	1.79	-40.9	-40.0	10.6	0.00e+00	0	39	0	0	60	16932
2026-01-02 00:08:02.27	208.29	1.58	-39.9	-39.0	11.5	0.00e+00	0	39	0	0	60	15126
2026-01-02 00:08:05.30	208.26	1.37	-39.3	-38.4	11.1	0.00e+00	0	39	0	0	60	14120
2026-01-02 00:08:08.33	208.23	1.16	-39.6	-38.8	11.2	0.00e+00	0	39	0	0	60	14656
2026-01-02 00:08:11.37	208.20	0.96	-39.0	-38.1	11.2	0.00e+00	0	39	0	0	58	15204
2026-01-02 00:08:14.40	208.17	0.76	-38.7	-37.8	11.3	0.00e+00	0	39	0	0	58	14788
2026-01-02 00:08:17.43	208.14	0.56	-39.1	-38.2	11.8	0.00e+00	0	39	0	0	58	15403
2026-01-02 00:08:20.47	208.11	0.36	-38.8	-37.9	12.2	0.00e+00	0	39	0	0	58	14904
2026-01-02 00:08:23.50	208.08	0.16	-38.6	-37.7	12.6	0.00e+00	0	39	0	0	58	14548
2026-01-02 00:08:26.53	208.05	-0.03	-38.0	-37.5	12.2	0.00e+00	0	39	0	0	56	15983

#Closed at: 2026-01-02 00:08:27
#Recorded file [0 MB]: D:/lorett/data/35034_260102_025640.dat