passes_logs/2026/01/01/R4.6S_Anadyr_2ch/R4.6S_Anadyr_2ch__20260101_062406_2025-108B_rec.log

#Pass ID: 20260101_062406_2025-108B
#Satellite: 2025-108B
#Configuration: 3PB_600M
#almurnet v.1.7.20251203
#Start time: 2026-01-01 06:24:08

#Version: 2.2.20231116
#Station: R4.6S_Anadyr_2ch
#Location: 177.4865 lon 64.73178 lat
#TLE: 1 64088U 25108B   25351.01672131  .00008460  00000+0  43413-3 0  9994
#TLE: 2 64088  97.4940  63.8579 0011684 285.1423  74.8517 15.16717580 31720

#Time	Az	El	Level	Level2	SNR	BER	BlckErr	Temp	State	Recorded	gain1	gain2
2026-01-01 06:24:08.78	74.83	0.11	-51.9	-53.3	3.4	0.00e+00	0	34	0	0	60	78433
2026-01-01 06:24:10.79	74.61	0.21	-51.9	-54.4	3.6	0.00e+00	0	35	104	0	60	88389
2026-01-01 06:24:12.82	74.38	0.31	-51.9	-54.3	3.6	0.00e+00	0	35	104	0	60	88053
2026-01-01 06:24:14.84	74.15	0.40	-51.9	-54.4	3.6	0.00e+00	0	35	104	0	60	88260
2026-01-01 06:24:16.86	73.92	0.50	-51.9	-54.3	3.6	0.00e+00	0	35	104	0	60	88073
2026-01-01 06:24:18.88	73.69	0.59	-51.9	-54.4	3.6	0.00e+00	0	36	104	0	60	88371
2026-01-01 06:24:20.91	73.45	0.69	-51.9	-54.3	3.6	0.00e+00	0	36	104	0	60	88032
2026-01-01 06:24:22.93	73.22	0.79	-51.9	-54.3	3.6	0.00e+00	0	36	104	0	60	88105
2026-01-01 06:24:24.95	72.98	0.88	-51.9	-54.3	3.6	0.00e+00	0	36	104	0	60	87999
2026-01-01 06:24:26.97	72.74	0.98	-51.9	-54.3	3.6	0.00e+00	0	36	104	0	60	88116
2026-01-01 06:24:28.99	72.50	1.08	-51.9	-54.4	3.5	0.00e+00	0	36	104	0	60	88685
2026-01-01 06:24:31.02	72.25	1.17	-51.9	-54.4	3.6	0.00e+00	0	36	104	0	60	88235
2026-01-01 06:24:33.04	72.01	1.27	-51.9	-54.3	3.6	0.00e+00	0	36	104	0	60	88189
2026-01-01 06:24:35.06	71.76	1.37	-51.9	-54.4	3.6	0.00e+00	0	36	104	0	60	88671
2026-01-01 06:24:37.08	71.51	1.46	-51.9	-54.3	3.6	0.00e+00	0	36	104	0	60	88200
2026-01-01 06:24:39.10	71.25	1.56	-51.9	-54.4	3.6	0.00e+00	0	36	104	0	60	88291
2026-01-01 06:24:41.12	71.00	1.66	-51.9	-54.4	3.6	0.00e+00	0	36	104	0	60	88321
2026-01-01 06:24:43.14	70.74	1.75	-51.9	-54.4	3.6	0.00e+00	0	36	104	0	60	88464
2026-01-01 06:24:45.17	70.48	1.85	-51.9	-54.4	3.6	0.00e+00	0	36	104	0	60	88975
2026-01-01 06:24:47.19	70.22	1.95	-51.9	-54.4	3.6	0.00e+00	0	36	104	0	60	88437
2026-01-01 06:24:49.21	69.96	2.04	-51.9	-54.4	3.6	0.00e+00	0	36	104	0	60	88614
2026-01-01 06:24:51.23	69.69	2.14	-51.9	-54.4	3.6	0.00e+00	0	36	104	0	60	88344
2026-01-01 06:24:53.25	69.43	2.23	-51.9	-54.4	3.6	0.00e+00	0	36	104	0	60	88613
2026-01-01 06:24:55.27	69.16	2.33	-51.9	-54.4	3.6	0.00e+00	0	36	104	0	60	89005
2026-01-01 06:24:57.30	68.88	2.43	-51.9	-54.4	3.6	0.00e+00	0	37	104	0	60	88466
2026-01-01 06:24:59.32	68.61	2.52	-51.9	-54.4	3.6	0.00e+00	0	37	104	0	60	88283
2026-01-01 06:25:01.34	68.33	2.62	-51.9	-54.4	3.6	0.00e+00	0	37	104	0	60	88944
2026-01-01 06:25:03.36	68.05	2.71	-51.9	-54.4	3.6	0.00e+00	0	37	104	0	60	88397
2026-01-01 06:25:05.38	67.77	2.81	-51.9	-54.4	3.6	0.00e+00	0	37	104	0	60	88892
2026-01-01 06:25:07.41	67.49	2.91	-51.9	-54.4	3.6	0.00e+00	0	37	104	0	60	88615
2026-01-01 06:25:09.43	67.20	3.00	-51.9	-54.4	3.6	0.00e+00	0	37	104	0	60	88431
2026-01-01 06:25:11.45	66.91	3.10	-51.9	-54.4	3.6	0.00e+00	0	37	104	0	60	88508
2026-01-01 06:25:13.47	66.62	3.19	-51.9	-54.4	3.6	0.00e+00	0	37	104	0	60	88928
2026-01-01 06:25:15.50	66.33	3.29	-51.9	-54.4	3.6	0.00e+00	0	37	104	0	60	88389
2026-01-01 06:25:17.52	66.03	3.38	-51.9	-54.4	3.6	0.00e+00	0	37	104	0	60	88468
2026-01-01 06:25:19.54	65.73	3.48	-51.9	-54.4	3.6	0.00e+00	0	37	104	0	60	88967
2026-01-01 06:25:21.56	65.43	3.57	-51.9	-54.4	3.6	0.00e+00	0	37	104	0	60	88700
2026-01-01 06:25:23.58	65.13	3.66	-51.9	-54.4	3.6	0.00e+00	0	37	104	0	60	88593
2026-01-01 06:25:25.61	64.82	3.76	-51.9	-54.4	3.6	0.00e+00	0	37	104	0	60	88450
2026-01-01 06:25:27.63	64.51	3.85	-51.9	-54.4	3.6	0.00e+00	0	37	104	0	60	88607
2026-01-01 06:25:29.65	64.20	3.95	-51.9	-54.4	3.6	0.00e+00	0	37	104	0	60	88719
2026-01-01 06:25:31.67	63.89	4.04	-51.9	-54.4	3.6	0.00e+00	0	37	104	0	60	88931
2026-01-01 06:25:33.70	63.57	4.13	-51.9	-54.3	3.6	0.00e+00	0	37	104	0	60	88049
2026-01-01 06:25:35.72	63.26	4.23	-51.9	-54.4	3.6	0.00e+00	0	37	104	0	60	88739
2026-01-01 06:25:37.74	62.94	4.32	-51.9	-54.4	3.5	0.00e+00	0	37	104	0	60	88389
2026-01-01 06:25:39.76	62.61	4.41	-51.9	-54.4	3.6	0.00e+00	0	37	104	0	60	88370
2026-01-01 06:25:41.78	62.29	4.50	-51.9	-54.4	3.6	0.00e+00	0	37	104	0	60	88572
2026-01-01 06:25:43.80	61.96	4.59	-51.9	-54.4	3.6	0.00e+00	0	37	104	0	60	88476
2026-01-01 06:25:45.83	61.63	4.69	-51.9	-54.4	3.6	0.00e+00	0	37	104	0	60	88806
2026-01-01 06:25:47.85	61.29	4.78	-51.9	-54.4	3.6	0.00e+00	0	37	104	0	60	88288
2026-01-01 06:25:49.87	60.96	4.87	-51.9	-54.4	3.6	0.00e+00	0	37	104	0	60	88774
2026-01-01 06:25:51.89	60.62	4.96	-51.9	-54.4	3.6	0.00e+00	0	37	104	0	60	88464
2026-01-01 06:25:53.91	60.28	5.05	-51.9	-54.4	3.6	0.00e+00	0	37	104	0	60	88377
2026-01-01 06:25:55.93	59.93	5.14	-51.9	-54.4	3.6	0.00e+00	0	37	104	0	60	88803
2026-01-01 06:25:57.96	59.58	5.23	-51.9	-54.4	3.6	0.00e+00	0	37	104	0	60	88566
2026-01-01 06:25:59.98	59.23	5.31	-51.9	-54.4	3.6	0.00e+00	0	37	104	0	60	88791
2026-01-01 06:26:02.00	58.88	5.40	-51.9	-54.4	3.6	0.00e+00	0	37	104	0	60	88610
2026-01-01 06:26:04.02	58.53	5.49	-51.9	-54.4	3.6	0.00e+00	0	37	104	0	60	88534
2026-01-01 06:26:06.05	58.17	5.58	-51.9	-54.4	3.6	0.00e+00	0	37	104	0	60	88501
2026-01-01 06:26:08.07	57.81	5.66	-51.9	-54.4	3.6	0.00e+00	0	37	104	0	60	88356
2026-01-01 06:26:10.09	57.44	5.75	-51.9	-54.4	3.6	0.00e+00	0	37	104	0	60	88798
2026-01-01 06:26:12.11	57.08	5.84	-51.9	-54.4	3.6	0.00e+00	0	38	104	0	60	88526
2026-01-01 06:26:14.13	56.71	5.92	-51.9	-54.4	3.6	0.00e+00	0	38	104	0	60	88869
2026-01-01 06:26:16.16	56.34	6.01	-51.9	-54.4	3.6	0.00e+00	0	38	104	0	60	88816
2026-01-01 06:26:18.18	55.96	6.09	-51.9	-54.4	3.6	0.00e+00	0	38	104	0	60	88820
2026-01-01 06:26:20.20	55.59	6.17	-51.9	-54.3	3.6	0.00e+00	0	38	104	0	60	87972
2026-01-01 06:26:22.22	55.21	6.25	-51.9	-54.4	3.6	0.00e+00	0	38	104	0	60	88641
2026-01-01 06:26:24.24	54.83	6.34	-51.9	-54.4	3.5	0.00e+00	0	38	104	0	60	88467
2026-01-01 06:26:26.27	54.44	6.42	-51.9	-54.4	3.6	0.00e+00	0	38	104	0	60	88355
2026-01-01 06:26:28.28	54.06	6.50	-51.9	-54.4	3.6	0.00e+00	0	38	104	0	60	89179
2026-01-01 06:26:30.31	53.66	6.58	-51.9	-54.3	3.6	0.00e+00	0	38	104	0	60	88163
2026-01-01 06:26:32.33	53.27	6.66	-51.9	-54.4	3.6	0.00e+00	0	38	104	0	60	88702
2026-01-01 06:26:34.35	52.88	6.73	-51.9	-54.4	3.6	0.00e+00	0	38	104	0	60	88352
2026-01-01 06:26:36.37	52.48	6.81	-52.0	-54.4	3.6	0.00e+00	0	38	104	0	60	88316
2026-01-01 06:26:38.39	52.08	6.89	-51.9	-54.4	3.6	0.00e+00	0	38	104	0	60	89158
2026-01-01 06:26:40.41	51.68	6.96	-51.9	-54.4	3.6	0.00e+00	0	38	104	0	60	89078
2026-01-01 06:26:42.43	51.27	7.04	-51.9	-54.4	3.6	0.00e+00	0	38	104	0	60	88490
2026-01-01 06:26:44.46	50.86	7.11	-51.9	-54.4	3.6	0.00e+00	0	38	104	0	60	88614
2026-01-01 06:26:46.48	50.45	7.19	-51.9	-54.4	3.6	0.00e+00	0	38	104	0	60	88742
2026-01-01 06:26:48.50	50.04	7.26	-52.0	-54.4	3.6	0.00e+00	0	38	104	0	60	88967
2026-01-01 06:26:50.52	49.62	7.33	-51.9	-54.4	3.6	0.00e+00	0	38	104	0	60	88578
2026-01-01 06:26:52.54	49.20	7.40	-51.9	-54.4	3.6	0.00e+00	0	38	104	0	60	89001
2026-01-01 06:26:54.56	48.78	7.47	-52.0	-54.4	3.6	0.00e+00	0	38	104	0	60	88586
2026-01-01 06:26:56.59	48.36	7.54	-52.0	-54.4	3.6	0.00e+00	0	38	104	0	60	88785
2026-01-01 06:26:58.61	47.93	7.61	-52.0	-54.4	3.6	0.00e+00	0	38	104	0	60	88370
2026-01-01 06:27:00.63	47.50	7.67	-52.0	-54.4	3.6	0.00e+00	0	38	104	0	60	88433
2026-01-01 06:27:02.65	47.07	7.74	-52.0	-54.4	3.6	0.00e+00	0	38	104	0	60	88883
2026-01-01 06:27:04.67	46.64	7.80	-52.0	-54.4	3.6	0.00e+00	0	38	104	0	60	89150
2026-01-01 06:27:06.70	46.20	7.87	-52.0	-54.4	3.6	0.00e+00	0	38	104	0	60	89145
2026-01-01 06:27:08.72	45.77	7.93	-51.9	-54.4	3.6	0.00e+00	0	38	104	0	60	89020
2026-01-01 06:27:10.74	45.33	7.99	-52.0	-54.4	3.6	0.00e+00	0	38	104	0	60	88730
2026-01-01 06:27:12.76	44.88	8.05	-52.0	-54.4	3.6	0.00e+00	0	38	104	0	60	88440
2026-01-01 06:27:14.78	44.44	8.11	-52.0	-54.4	3.6	0.00e+00	0	38	104	0	60	88623
2026-01-01 06:27:16.81	43.99	8.16	-52.0	-54.4	3.6	0.00e+00	0	38	104	0	60	88673
2026-01-01 06:27:18.83	43.54	8.22	-52.0	-54.3	3.5	0.00e+00	0	38	104	0	60	88199
2026-01-01 06:27:20.85	43.09	8.27	-52.0	-54.4	3.6	0.00e+00	0	38	104	0	60	88526
2026-01-01 06:27:22.87	42.64	8.33	-52.0	-54.4	3.6	0.00e+00	0	38	104	0	60	88943
2026-01-01 06:27:24.90	42.18	8.38	-52.0	-54.4	3.6	0.00e+00	0	38	104	0	60	88806
2026-01-01 06:27:26.92	41.73	8.43	-52.0	-54.5	3.6	0.00e+00	0	38	104	0	60	89419
2026-01-01 06:27:28.94	41.27	8.48	-52.0	-54.4	3.6	0.00e+00	0	38	104	0	60	88722
2026-01-01 06:27:30.96	40.81	8.53	-52.0	-54.4	3.6	0.00e+00	0	38	104	0	60	89177
2026-01-01 06:27:32.98	40.35	8.57	-52.0	-54.5	3.6	0.00e+00	0	38	104	0	60	89363
2026-01-01 06:27:35.00	39.88	8.62	-52.0	-54.4	3.6	0.00e+00	0	38	104	0	60	89143
2026-01-01 06:27:37.03	39.41	8.66	-52.0	-54.5	3.6	0.00e+00	0	38	104	0	60	89608
2026-01-01 06:27:39.05	38.95	8.71	-52.0	-54.4	3.6	0.00e+00	0	38	104	0	60	88584
2026-01-01 06:27:41.07	38.48	8.75	-52.0	-54.4	3.6	0.00e+00	0	38	104	0	60	88906
2026-01-01 06:27:43.09	38.01	8.79	-52.0	-54.4	3.6	0.00e+00	0	38	104	0	60	89107
2026-01-01 06:27:45.11	37.53	8.82	-52.0	-54.4	3.6	0.00e+00	0	38	104	0	60	88976
2026-01-01 06:27:47.14	37.06	8.86	-52.0	-54.4	3.6	0.00e+00	0	38	104	0	60	88969
2026-01-01 06:27:49.16	36.58	8.89	-52.0	-54.5	3.6	0.00e+00	0	38	104	0	60	89316
2026-01-01 06:27:51.18	36.11	8.93	-52.0	-54.4	3.6	0.00e+00	0	38	104	0	60	89042
2026-01-01 06:27:53.21	35.63	8.96	-52.0	-54.4	3.6	0.00e+00	0	38	104	0	60	88843
2026-01-01 06:27:55.23	35.15	8.99	-52.0	-54.4	3.6	0.00e+00	0	38	104	0	60	89142
2026-01-01 06:27:57.25	34.67	9.02	-52.0	-54.4	3.6	0.00e+00	0	38	104	0	60	88802
2026-01-01 06:27:59.27	34.19	9.05	-52.0	-54.4	3.6	0.00e+00	0	38	104	0	60	88412
2026-01-01 06:28:01.30	33.70	9.07	-52.0	-54.4	3.6	0.00e+00	0	38	104	0	60	89019
2026-01-01 06:28:03.32	33.22	9.09	-52.0	-54.4	3.6	0.00e+00	0	38	104	0	60	88705
2026-01-01 06:28:05.34	32.73	9.12	-52.0	-54.5	3.6	0.00e+00	0	38	104	0	60	89988
2026-01-01 06:28:07.36	32.25	9.14	-52.0	-54.4	3.6	0.00e+00	0	38	104	0	60	88956
2026-01-01 06:28:09.38	31.76	9.16	-52.0	-54.4	3.6	0.00e+00	0	38	104	0	60	89121
2026-01-01 06:28:11.41	31.27	9.17	-52.0	-54.4	3.6	0.00e+00	0	38	104	0	60	89051
2026-01-01 06:28:13.43	30.79	9.19	-52.0	-54.5	3.6	0.00e+00	0	38	104	0	60	89352
2026-01-01 06:28:15.45	30.30	9.20	-52.0	-54.5	3.6	0.00e+00	0	38	104	0	60	89486
2026-01-01 06:28:17.47	29.81	9.21	-52.0	-54.5	3.6	0.00e+00	0	38	104	0	60	89270
2026-01-01 06:28:19.49	29.32	9.22	-52.0	-54.4	3.6	0.00e+00	0	39	104	0	60	89204
2026-01-01 06:28:21.51	28.83	9.23	-52.0	-54.4	3.6	0.00e+00	0	38	104	0	60	89200
2026-01-01 06:28:23.54	28.34	9.24	-52.0	-54.4	3.6	0.00e+00	0	38	104	0	60	88804
2026-01-01 06:28:25.56	27.85	9.24	-52.0	-54.4	3.6	0.00e+00	0	38	104	0	60	88895
2026-01-01 06:28:27.58	27.36	9.25	-52.0	-54.4	3.6	0.00e+00	0	39	104	0	60	88854
2026-01-01 06:28:29.60	26.87	9.25	-52.0	-54.4	3.6	0.00e+00	0	38	104	0	60	88816
2026-01-01 06:28:31.62	26.38	9.25	-52.0	-54.4	3.6	0.00e+00	0	38	104	0	60	88984
2026-01-01 06:28:33.64	25.89	9.25	-52.0	-54.5	3.6	0.00e+00	0	39	104	0	60	89295
2026-01-01 06:28:35.67	25.40	9.24	-52.0	-54.4	3.6	0.00e+00	0	39	104	0	60	89021
2026-01-01 06:28:37.69	24.91	9.24	-52.0	-54.4	3.6	0.00e+00	0	39	104	0	60	89100
2026-01-01 06:28:39.71	24.42	9.23	-52.0	-54.4	3.6	0.00e+00	0	39	104	0	60	89218
2026-01-01 06:28:41.73	23.93	9.22	-52.0	-54.5	3.5	0.00e+00	0	39	104	0	60	89468
2026-01-01 06:28:43.75	23.44	9.21	-52.0	-54.5	3.6	0.00e+00	0	39	104	0	60	89358
2026-01-01 06:28:45.77	22.95	9.20	-52.0	-54.4	3.6	0.00e+00	0	39	104	0	60	88799
2026-01-01 06:28:47.80	22.46	9.19	-52.0	-54.5	3.6	0.00e+00	0	39	104	0	60	89305
2026-01-01 06:28:49.82	21.97	9.17	-52.0	-54.4	3.6	0.00e+00	0	39	104	0	60	89174
2026-01-01 06:28:51.84	21.49	9.16	-52.0	-54.5	3.6	0.00e+00	0	39	104	0	60	89290
2026-01-01 06:28:53.86	21.00	9.14	-52.0	-54.5	3.6	0.00e+00	0	39	104	0	60	89406
2026-01-01 06:28:55.89	20.51	9.12	-52.0	-54.4	3.6	0.00e+00	0	39	104	0	60	88953
2026-01-01 06:28:57.91	20.03	9.10	-52.0	-54.5	3.6	0.00e+00	0	39	104	0	60	89552
2026-01-01 06:28:59.93	19.54	9.07	-52.0	-54.4	3.6	0.00e+00	0	39	104	0	60	88848
2026-01-01 06:29:01.95	19.06	9.05	-52.0	-54.4	3.6	0.00e+00	0	39	104	0	60	89124
2026-01-01 06:29:03.97	18.58	9.02	-52.0	-54.5	3.6	0.00e+00	0	39	104	0	60	89472
2026-01-01 06:29:06.00	18.10	8.99	-52.0	-54.4	3.6	0.00e+00	0	39	104	0	60	88626
2026-01-01 06:29:08.02	17.62	8.96	-52.0	-54.4	3.6	0.00e+00	0	39	104	0	60	89029
2026-01-01 06:29:10.04	17.14	8.93	-52.0	-54.4	3.6	0.00e+00	0	39	104	0	60	89078
2026-01-01 06:29:12.06	16.66	8.90	-52.0	-54.5	3.6	0.00e+00	0	39	104	0	60	89411
2026-01-01 06:29:14.09	16.19	8.86	-52.0	-54.5	3.6	0.00e+00	0	39	104	0	60	89489
2026-01-01 06:29:16.11	15.71	8.83	-52.0	-54.4	3.6	0.00e+00	0	39	104	0	60	88789
2026-01-01 06:29:18.13	15.24	8.79	-52.0	-54.5	3.6	0.00e+00	0	39	104	0	60	89302
2026-01-01 06:29:20.15	14.77	8.75	-52.0	-54.4	3.6	0.00e+00	0	39	104	0	60	88879
2026-01-01 06:29:22.17	14.30	8.71	-52.0	-54.5	3.6	0.00e+00	0	39	104	0	60	89392
2026-01-01 06:29:24.20	13.83	8.67	-52.0	-54.4	3.6	0.00e+00	0	39	104	0	60	88991
2026-01-01 06:29:26.22	13.37	8.62	-52.0	-54.4	3.6	0.00e+00	0	39	104	0	60	89117
2026-01-01 06:29:28.24	12.90	8.58	-52.0	-54.4	3.6	0.00e+00	0	39	104	0	60	89233
2026-01-01 06:29:30.26	12.44	8.53	-52.0	-54.4	3.6	0.00e+00	0	39	104	0	60	89163
2026-01-01 06:29:32.28	11.98	8.48	-52.0	-54.4	3.6	0.00e+00	0	39	104	0	60	89090
2026-01-01 06:29:34.30	11.52	8.43	-52.0	-54.4	3.6	0.00e+00	0	39	104	0	60	89192
2026-01-01 06:29:36.33	11.06	8.38	-52.0	-54.4	3.6	0.00e+00	0	39	104	0	60	88819
2026-01-01 06:29:38.35	10.61	8.33	-52.0	-54.4	3.6	0.00e+00	0	39	104	0	60	88928
2026-01-01 06:29:40.37	10.16	8.28	-52.0	-54.4	3.6	0.00e+00	0	39	104	0	60	89198
2026-01-01 06:29:42.39	9.70	8.22	-52.0	-54.5	3.6	0.00e+00	0	39	104	0	60	89304
2026-01-01 06:29:44.41	9.26	8.17	-52.0	-54.5	3.6	0.00e+00	0	39	104	0	60	89350
2026-01-01 06:29:46.44	8.81	8.11	-52.0	-54.4	3.6	0.00e+00	0	39	104	0	60	88665
2026-01-01 06:29:48.46	8.36	8.05	-52.0	-54.5	3.6	0.00e+00	0	39	104	0	60	89315
2026-01-01 06:29:50.48	7.92	7.99	-52.0	-54.4	3.6	0.00e+00	0	39	104	0	60	89199
2026-01-01 06:29:52.50	7.48	7.93	-52.0	-54.5	3.6	0.00e+00	0	39	104	0	60	89318
2026-01-01 06:29:54.53	7.04	7.87	-52.0	-54.5	3.6	0.00e+00	0	39	104	0	60	89356
2026-01-01 06:29:56.55	6.61	7.81	-52.0	-54.4	3.6	0.00e+00	0	39	104	0	60	89073
2026-01-01 06:29:58.57	6.18	7.74	-52.0	-54.4	3.6	0.00e+00	0	39	104	0	60	88564
2026-01-01 06:30:00.59	5.75	7.68	-52.0	-54.4	3.6	0.00e+00	0	39	104	0	60	88916
2026-01-01 06:30:02.62	5.32	7.61	-52.0	-54.4	3.6	0.00e+00	0	39	104	0	60	88966
2026-01-01 06:30:04.64	4.89	7.54	-52.0	-54.5	3.6	0.00e+00	0	39	104	0	60	89377
2026-01-01 06:30:06.66	4.47	7.48	-52.0	-54.4	3.6	0.00e+00	0	39	104	0	60	89012
2026-01-01 06:30:08.68	4.05	7.41	-52.0	-54.4	3.6	0.00e+00	0	39	104	0	60	89233
2026-01-01 06:30:10.71	3.63	7.34	-52.0	-54.4	3.6	0.00e+00	0	39	104	0	60	89089
2026-01-01 06:30:12.73	3.21	7.26	-52.0	-54.5	3.6	0.00e+00	0	39	104	0	60	89329
2026-01-01 06:30:14.75	2.80	7.19	-52.0	-54.4	3.6	0.00e+00	0	39	104	0	60	88966
2026-01-01 06:30:16.77	2.39	7.12	-52.0	-54.5	3.6	0.00e+00	0	39	104	0	60	89400
2026-01-01 06:30:18.79	1.98	7.05	-52.0	-54.4	3.6	0.00e+00	0	39	104	0	60	89126
2026-01-01 06:30:20.81	1.57	6.97	-52.0	-54.5	3.6	0.00e+00	0	39	104	0	60	89820
2026-01-01 06:30:22.84	1.17	6.89	-52.0	-54.4	3.6	0.00e+00	0	39	104	0	60	88947
2026-01-01 06:30:24.86	0.77	6.82	-52.0	-54.5	3.6	0.00e+00	0	39	104	0	60	89351
2026-01-01 06:30:26.88	0.37	6.74	-52.0	-54.4	3.6	0.00e+00	0	39	104	0	60	88740
2026-01-01 06:30:28.90	359.98	6.66	-52.0	-54.4	3.6	0.00e+00	0	39	104	0	60	89044
2026-01-01 06:30:30.92	359.59	6.58	-52.0	-54.4	3.6	0.00e+00	0	39	104	0	60	88916
2026-01-01 06:30:32.94	359.20	6.50	-52.0	-54.5	3.6	0.00e+00	0	39	104	0	60	89384
2026-01-01 06:30:34.96	358.81	6.42	-52.0	-54.4	3.6	0.00e+00	0	39	104	0	60	88841
2026-01-01 06:30:36.98	358.42	6.34	-52.0	-54.4	3.6	0.00e+00	0	39	104	0	60	89047
2026-01-01 06:30:39.01	358.04	6.26	-52.0	-54.4	3.6	0.00e+00	0	39	104	0	60	89097
2026-01-01 06:30:41.03	357.66	6.18	-52.0	-54.4	3.6	0.00e+00	0	39	104	0	60	89214
2026-01-01 06:30:43.05	357.29	6.10	-52.0	-54.4	3.6	0.00e+00	0	39	104	0	60	89096
2026-01-01 06:30:45.07	356.91	6.01	-52.0	-54.4	3.6	0.00e+00	0	39	104	0	60	88941
2026-01-01 06:30:47.09	356.54	5.93	-52.0	-54.4	3.6	0.00e+00	0	39	104	0	60	88898
2026-01-01 06:30:49.11	356.17	5.84	-52.0	-54.4	3.6	0.00e+00	0	39	104	0	60	89099
2026-01-01 06:30:51.13	355.81	5.76	-52.0	-54.4	3.6	0.00e+00	0	39	104	0	60	88858
2026-01-01 06:30:53.16	355.45	5.67	-52.0	-54.4	3.6	0.00e+00	0	39	104	0	60	89201
2026-01-01 06:30:55.18	355.09	5.58	-52.0	-54.5	3.6	0.00e+00	0	39	104	0	60	89516
2026-01-01 06:30:57.20	354.73	5.50	-52.0	-54.5	3.6	0.00e+00	0	39	104	0	60	89552
2026-01-01 06:30:59.22	354.37	5.41	-52.0	-54.4	3.6	0.00e+00	0	39	104	0	60	89137
2026-01-01 06:31:01.25	354.02	5.32	-52.0	-54.5	3.6	0.00e+00	0	39	104	0	60	89310
2026-01-01 06:31:03.27	353.67	5.23	-52.0	-54.5	3.6	0.00e+00	0	39	104	0	60	89357
2026-01-01 06:31:05.29	353.32	5.14	-52.0	-54.5	3.6	0.00e+00	0	39	104	0	60	89451
2026-01-01 06:31:07.31	352.98	5.05	-52.0	-54.4	3.6	0.00e+00	0	39	104	0	60	89012
2026-01-01 06:31:09.33	352.64	4.96	-52.0	-54.4	3.6	0.00e+00	0	39	104	0	60	89073
2026-01-01 06:31:11.36	352.30	4.87	-52.0	-54.4	3.6	0.00e+00	0	39	104	0	60	89002
2026-01-01 06:31:13.38	351.96	4.78	-52.0	-54.4	3.6	0.00e+00	0	39	104	0	60	88766
2026-01-01 06:31:15.40	351.63	4.69	-52.0	-54.4	3.6	0.00e+00	0	39	104	0	60	89145
2026-01-01 06:31:17.42	351.30	4.60	-52.0	-54.4	3.6	0.00e+00	0	39	104	0	60	88983
2026-01-01 06:31:19.44	350.97	4.51	-52.0	-54.4	3.6	0.00e+00	0	39	104	0	60	89210
2026-01-01 06:31:21.46	350.65	4.42	-52.0	-54.4	3.6	0.00e+00	0	39	104	0	60	88568
2026-01-01 06:31:23.49	350.32	4.33	-52.0	-54.4	3.6	0.00e+00	0	39	104	0	60	89064
2026-01-01 06:31:25.51	350.00	4.23	-52.0	-54.4	3.6	0.00e+00	0	39	104	0	60	88770
2026-01-01 06:31:27.53	349.68	4.14	-52.0	-54.4	3.6	0.00e+00	0	39	104	0	60	89037
2026-01-01 06:31:29.55	349.37	4.05	-52.0	-54.4	3.6	0.00e+00	0	39	104	0	60	88575
2026-01-01 06:31:31.57	349.06	3.95	-52.0	-54.4	3.6	0.00e+00	0	39	104	0	60	89112
2026-01-01 06:31:33.60	348.74	3.86	-52.0	-54.4	3.6	0.00e+00	0	39	104	0	60	88938
2026-01-01 06:31:35.62	348.44	3.77	-52.0	-54.5	3.6	0.00e+00	0	39	104	0	60	89315
2026-01-01 06:31:37.64	348.13	3.67	-52.0	-54.4	3.6	0.00e+00	0	39	104	0	60	88876
2026-01-01 06:31:39.66	347.83	3.58	-52.0	-54.4	3.6	0.00e+00	0	39	104	0	60	88650
2026-01-01 06:31:41.68	347.53	3.48	-52.0	-54.4	3.6	0.00e+00	0	39	104	0	60	88720
2026-01-01 06:31:43.71	347.23	3.39	-52.0	-54.4	3.6	0.00e+00	0	39	104	0	60	88644
2026-01-01 06:31:45.73	346.93	3.29	-52.0	-54.4	3.6	0.00e+00	0	39	104	0	60	88835
2026-01-01 06:31:47.75	346.64	3.20	-52.0	-54.4	3.6	0.00e+00	0	39	104	0	60	89218
2026-01-01 06:31:49.77	346.35	3.10	-52.0	-54.4	3.6	0.00e+00	0	39	104	0	60	88603
2026-01-01 06:31:51.79	346.06	3.01	-52.0	-54.4	3.6	0.00e+00	0	39	104	0	60	89046
2026-01-01 06:31:53.81	345.78	2.91	-52.0	-54.4	3.6	0.00e+00	0	39	104	0	60	88761
2026-01-01 06:31:55.84	345.49	2.82	-52.0	-54.4	3.6	0.00e+00	0	39	104	0	60	88636
2026-01-01 06:31:57.86	345.21	2.72	-52.0	-54.4	3.6	0.00e+00	0	39	104	0	60	88989
2026-01-01 06:31:59.88	344.93	2.63	-52.0	-54.4	3.6	0.00e+00	0	39	104	0	60	89237
2026-01-01 06:32:01.90	344.66	2.53	-52.0	-54.5	3.6	0.00e+00	0	39	104	0	60	89452
2026-01-01 06:32:03.93	344.38	2.43	-52.0	-54.5	3.6	0.00e+00	0	39	104	0	60	89241
2026-01-01 06:32:05.95	344.11	2.34	-52.0	-54.4	3.6	0.00e+00	0	39	104	0	60	89220
2026-01-01 06:32:07.97	343.84	2.24	-52.0	-54.4	3.6	0.00e+00	0	39	104	0	60	89211
2026-01-01 06:32:09.99	343.57	2.15	-52.0	-54.4	3.6	0.00e+00	0	39	104	0	60	88762
2026-01-01 06:32:12.01	343.31	2.05	-52.0	-54.5	3.6	0.00e+00	0	39	104	0	60	89427
2026-01-01 06:32:14.03	343.05	1.95	-52.0	-54.5	3.6	0.00e+00	0	39	104	0	60	89384
2026-01-01 06:32:16.05	342.79	1.86	-52.0	-54.4	3.6	0.00e+00	0	39	104	0	60	89023
2026-01-01 06:32:18.08	342.53	1.76	-52.0	-54.4	3.6	0.00e+00	0	39	104	0	60	89133
2026-01-01 06:32:20.10	342.27	1.66	-52.0	-54.5	3.6	0.00e+00	0	39	104	0	60	89485
2026-01-01 06:32:22.12	342.02	1.57	-52.0	-54.5	3.6	0.00e+00	0	39	104	0	60	89444
2026-01-01 06:32:24.14	341.76	1.47	-52.0	-54.4	3.6	0.00e+00	0	39	104	0	60	89145
2026-01-01 06:32:26.16	341.51	1.37	-52.0	-54.4	3.6	0.00e+00	0	39	104	0	60	88942
2026-01-01 06:32:28.18	341.27	1.28	-52.0	-54.4	3.6	0.00e+00	0	39	104	0	60	89206
2026-01-01 06:32:30.20	341.02	1.18	-52.0	-54.4	3.6	0.00e+00	0	39	104	0	60	89188
2026-01-01 06:32:32.22	340.78	1.08	-52.0	-54.4	3.6	0.00e+00	0	39	104	0	60	89103
2026-01-01 06:32:34.25	340.53	0.99	-52.0	-54.5	3.6	0.00e+00	0	39	104	0	60	89338
2026-01-01 06:32:36.27	340.30	0.89	-52.0	-54.5	3.6	0.00e+00	0	39	104	0	60	89544
2026-01-01 06:32:38.29	340.06	0.79	-52.0	-54.4	3.6	0.00e+00	0	39	104	0	60	89009
2026-01-01 06:32:40.31	339.82	0.70	-52.0	-54.5	3.6	0.00e+00	0	39	104	0	60	89368
2026-01-01 06:32:42.34	339.59	0.60	-52.0	-54.4	3.6	0.00e+00	0	39	104	0	60	88932
2026-01-01 06:32:44.36	339.36	0.50	-52.0	-54.4	3.6	0.00e+00	0	39	104	0	60	88728
2026-01-01 06:32:46.38	339.13	0.41	-52.0	-54.5	3.6	0.00e+00	0	39	104	0	60	89485
2026-01-01 06:32:48.40	338.90	0.31	-52.0	-54.4	3.6	0.00e+00	0	39	104	0	60	89028
2026-01-01 06:32:50.42	338.67	0.22	-52.0	-54.4	3.6	0.00e+00	0	39	104	0	60	89134
2026-01-01 06:32:52.45	338.45	0.12	-52.0	-54.5	3.6	0.00e+00	0	39	104	0	60	89299
2026-01-01 06:32:54.47	338.23	0.02	-52.0	-54.4	3.6	0.00e+00	0	39	104	0	60	89224
2026-01-01 06:32:56.49	338.01	-0.07	-52.0	-54.5	3.6	0.00e+00	0	39	104	0	60	89318

#Closed at: 2026-01-01 06:32:57
#Recorded file [0 MB]: D:/lorett/data/35034_260101_092408.dat