passes_logs/2026/01/29/R2.0S_Moscow/R2.0S_Moscow__20260129_075503_NOAA_21_JPSS-2_rec.log

#Pass ID: 20260129_075503_NOAA 21 (JPSS-2)
#Satellite: NOAA 21 (JPSS-2)
#Configuration: NOAA-21
#almurnet v.1.7.20251203
#Start time: 2026-01-29 07:55:04

#Version: 2.2.20231116
#Station: R2.0S_Moscow
#Location: 37.707566 lon 55.798166 lat
#TLE: 1 54234U 22150A   26027.91149249  .00000141  00000+0  87546-4 0  9993
#TLE: 2 54234  98.7510 328.6558 0000880 202.8718 157.2419 14.19540177166642

#Time	Az	El	Level	Level2	SNR	BER	BlckErr	Temp	State	Recorded	gain1	gain2
2026-01-29 07:55:04.75	101.39	2.07	-40.0	-52.2	3.8	1.49e+00	0	49	0	0	51	14725
2026-01-29 07:55:07.77	101.15	2.23	-39.9	-52.2	3.8	1.49e+00	0	49	104	0	51	14766
2026-01-29 07:55:10.80	100.91	2.39	-40.0	-52.1	3.8	1.49e+00	0	50	104	0	51	14703
2026-01-29 07:55:13.84	100.66	2.55	-40.0	-52.2	3.8	1.49e+00	0	50	104	0	51	14750
2026-01-29 07:55:16.87	100.42	2.72	-40.0	-52.2	3.8	1.49e+00	0	50	104	0	51	14736
2026-01-29 07:55:19.90	100.16	2.88	-39.9	-52.2	3.8	1.49e+00	0	50	104	0	51	14753
2026-01-29 07:55:22.93	99.91	3.04	-40.0	-52.2	3.8	1.49e+00	0	50	104	0	51	14743
2026-01-29 07:55:25.96	99.65	3.20	-40.0	-52.2	3.8	1.49e+00	0	50	104	0	51	14719
2026-01-29 07:55:28.99	99.39	3.36	-39.9	-52.2	3.8	1.49e+00	0	51	104	0	51	14710
2026-01-29 07:55:32.02	99.13	3.53	-39.9	-52.2	3.8	1.49e+00	0	51	104	0	51	14736
2026-01-29 07:55:35.05	98.86	3.69	-39.9	-52.1	3.8	1.49e+00	0	51	104	0	51	14703
2026-01-29 07:55:38.08	98.59	3.86	-39.9	-52.1	3.8	1.49e+00	0	51	104	0	51	14708
2026-01-29 07:55:41.12	98.32	4.02	-39.9	-52.1	3.8	1.49e+00	0	51	104	0	51	14702
2026-01-29 07:55:44.15	98.04	4.19	-39.9	-52.1	3.8	1.49e+00	0	52	104	0	51	14703
2026-01-29 07:55:47.18	97.76	4.35	-39.9	-52.2	3.8	1.49e+00	0	52	104	0	51	14728
2026-01-29 07:55:50.21	97.48	4.52	-39.9	-52.2	3.8	1.49e+00	0	52	104	0	51	14723
2026-01-29 07:55:53.24	97.20	4.68	-39.9	-52.2	3.8	1.49e+00	0	52	104	0	51	14732
2026-01-29 07:55:56.27	96.91	4.85	-39.9	-52.2	3.8	1.49e+00	0	52	104	0	51	14728
2026-01-29 07:55:59.30	96.62	5.02	-39.9	-52.1	3.8	1.49e+00	0	53	104	0	51	14686
2026-01-29 07:56:02.33	96.32	5.18	-39.9	-52.2	3.8	1.49e+00	0	53	104	0	51	14753
2026-01-29 07:56:05.36	96.02	5.35	-39.9	-52.1	3.8	1.49e+00	0	53	104	0	51	14617
2026-01-29 07:56:08.40	95.72	5.52	-39.9	-52.1	3.8	1.49e+00	0	53	104	0	51	14664
2026-01-29 07:56:11.43	95.41	5.69	-39.9	-52.1	3.8	1.49e+00	0	53	104	0	51	14661
2026-01-29 07:56:14.46	95.10	5.85	-39.9	-52.1	3.8	1.49e+00	0	53	104	0	51	14658
2026-01-29 07:56:17.49	94.79	6.02	-39.9	-52.1	3.8	1.49e+00	0	53	104	0	51	14678
2026-01-29 07:56:20.52	94.47	6.19	-39.9	-52.1	3.8	1.49e+00	0	54	104	0	51	14626
2026-01-29 07:56:23.55	94.15	6.36	-39.9	-52.1	3.8	1.49e+00	0	54	104	0	51	14667
2026-01-29 07:56:26.58	93.82	6.53	-39.9	-52.1	3.8	1.49e+00	0	54	104	0	51	14691
2026-01-29 07:56:29.62	93.49	6.70	-39.9	-52.1	3.8	1.49e+00	0	54	104	0	51	14686
2026-01-29 07:56:32.65	93.16	6.87	-39.9	-52.1	3.8	1.49e+00	0	54	104	0	51	14640
2026-01-29 07:56:35.68	92.83	7.04	-39.9	-52.1	3.8	1.49e+00	0	54	104	0	51	14594
2026-01-29 07:56:38.71	92.48	7.21	-39.9	-52.1	3.8	1.49e+00	0	54	104	0	51	14612
2026-01-29 07:56:41.74	92.14	7.38	-39.9	-52.1	3.8	1.49e+00	0	54	104	0	51	14624
2026-01-29 07:56:44.77	91.79	7.55	-39.9	-52.1	3.8	1.49e+00	0	54	104	0	51	14630
2026-01-29 07:56:47.80	91.44	7.72	-39.9	-52.1	3.8	1.49e+00	0	55	104	0	51	14627
2026-01-29 07:56:50.83	91.08	7.89	-39.9	-52.1	3.8	1.49e+00	0	54	104	0	51	14609
2026-01-29 07:56:53.87	90.72	8.07	-39.9	-51.3	3.8	1.49e+00	0	55	104	0	51	13330
2026-01-29 07:56:56.90	90.35	8.24	-40.1	-51.9	3.8	1.49e+00	0	55	104	0	51	14245
2026-01-29 07:56:59.92	89.98	8.41	-40.1	-52.2	3.8	1.49e+00	0	55	104	0	51	14852
2026-01-29 07:57:02.95	89.61	8.58	-40.4	-52.5	3.8	1.49e+00	0	55	104	0	51	15301
2026-01-29 07:57:05.98	89.23	8.75	-40.6	-52.9	3.8	1.49e+00	0	55	104	0	51	15981
2026-01-29 07:57:09.01	88.85	8.92	-40.5	-52.8	3.8	1.49e+00	0	55	104	0	51	15764
2026-01-29 07:57:12.04	88.46	9.09	-40.2	-52.4	3.8	1.49e+00	0	55	104	0	51	15210
2026-01-29 07:57:15.07	88.06	9.26	-40.6	-52.9	3.8	1.49e+00	0	55	104	0	51	16037
2026-01-29 07:57:18.10	87.67	9.43	-40.4	-52.7	3.8	1.49e+00	0	55	104	0	51	15707
2026-01-29 07:57:21.13	87.26	9.60	-40.5	-52.8	3.8	1.49e+00	0	55	104	0	51	15778
2026-01-29 07:57:24.16	86.86	9.77	-40.4	-52.7	3.8	1.49e+00	0	56	104	0	51	15624
2026-01-29 07:57:27.19	86.44	9.94	-40.5	-52.8	3.8	1.49e+00	0	56	104	0	51	15815
2026-01-29 07:57:30.21	86.03	10.11	-40.5	-52.8	3.8	1.49e+00	0	56	104	0	51	15789
2026-01-29 07:57:33.24	85.61	10.28	-39.8	-52.3	3.8	1.49e+00	0	56	104	0	50	15906
2026-01-29 07:57:36.27	85.18	10.45	-39.6	-52.5	3.7	1.49e+00	0	56	104	0	50	16309
2026-01-29 07:57:39.30	84.75	10.62	-40.0	-52.4	3.8	1.49e+00	0	56	104	0	51	15120
2026-01-29 07:57:42.33	84.31	10.79	-40.0	-52.3	3.8	1.49e+00	0	56	104	0	51	14904
2026-01-29 07:57:45.36	83.87	10.96	-40.2	-52.4	3.8	1.49e+00	0	56	104	0	50	16074
2026-01-29 07:57:48.39	83.42	11.12	-40.1	-52.3	3.8	1.49e+00	0	56	104	0	51	14905
2026-01-29 07:57:51.42	82.97	11.29	-40.1	-52.4	3.8	1.49e+00	0	56	104	0	51	15054
2026-01-29 07:57:54.46	82.51	11.46	-39.9	-52.3	3.8	1.49e+00	0	56	104	0	50	15898
2026-01-29 07:57:57.48	82.05	11.62	-40.2	-52.4	3.8	1.49e+00	0	56	104	0	51	15209
2026-01-29 07:58:00.51	81.58	11.79	-40.2	-52.4	3.8	1.49e+00	0	56	104	0	51	15103
2026-01-29 07:58:03.54	81.11	11.95	-40.3	-52.5	3.8	1.49e+00	0	56	104	0	51	15312
2026-01-29 07:58:06.57	80.63	12.11	-40.3	-52.5	3.8	1.49e+00	0	57	104	0	51	15346
2026-01-29 07:58:09.60	80.14	12.27	-40.4	-52.6	3.8	1.49e+00	0	56	104	0	51	15423
2026-01-29 07:58:12.63	79.65	12.44	-40.3	-52.5	3.8	1.49e+00	0	57	104	0	51	15328
2026-01-29 07:58:15.66	79.16	12.60	-40.3	-52.5	3.8	1.49e+00	0	57	104	0	52	14436
2026-01-29 07:58:18.68	78.66	12.75	-40.2	-52.4	3.8	1.49e+00	0	57	104	0	52	14326
2026-01-29 07:58:21.71	78.16	12.91	-40.6	-52.9	3.8	1.49e+00	0	57	104	0	52	15065
2026-01-29 07:58:24.74	77.64	13.07	-40.7	-52.8	3.8	1.49e+00	0	57	104	0	52	14966
2026-01-29 07:58:27.77	77.13	13.22	-40.8	-53.0	3.8	1.49e+00	0	57	104	0	52	15249
2026-01-29 07:58:30.81	76.60	13.38	-40.8	-52.8	3.8	1.49e+00	0	57	104	0	52	15001
2026-01-29 07:58:33.84	76.08	13.53	-40.7	-52.8	3.8	1.49e+00	0	57	104	0	53	14179
2026-01-29 07:58:36.87	75.54	13.68	-41.1	-52.9	3.8	1.49e+00	0	57	104	0	53	14314
2026-01-29 07:58:39.90	75.00	13.83	-40.9	-52.2	3.8	1.49e+00	0	57	104	0	53	13161
2026-01-29 07:58:42.94	74.46	13.98	-41.1	-51.4	3.9	1.49e+00	0	57	104	0	53	12069
2026-01-29 07:58:45.97	73.91	14.13	-41.0	-51.5	3.8	1.46e+00	0	57	104	0	53	12233
2026-01-29 07:58:49.00	73.35	14.27	-40.6	-48.8	4.5	1.13e+00	0	57	104	0	53	8952
2026-01-29 07:58:52.03	72.79	14.41	-40.6	-51.9	3.8	1.48e+00	0	57	104	0	52	13480
2026-01-29 07:58:55.06	72.23	14.56	-40.0	-47.0	5.3	6.01e-01	0	57	0	3145728	51	8147
2026-01-29 07:58:58.08	71.66	14.69	-40.0	-46.1	6.2	3.18e-01	0	57	0	11534336	51	7305
2026-01-29 07:59:01.11	71.08	14.83	-40.7	-47.2	5.7	4.64e-01	0	57	0	22020096	51	8365
2026-01-29 07:59:04.14	70.50	14.96	-40.3	-45.4	7.5	2.15e-01	0	57	0	27262976	52	6365
2026-01-29 07:59:07.18	69.91	15.10	-40.3	-45.5	7.4	1.29e-01	0	57	0	36700160	51	6802
2026-01-29 07:59:10.20	69.32	15.23	-39.7	-43.7	9.5	1.45e-02	0	57	0	46137344	51	5537
2026-01-29 07:59:13.23	68.72	15.35	-39.9	-43.5	10.1	9.20e-03	0	57	0	55574528	51	5459
2026-01-29 07:59:16.26	68.12	15.48	-40.0	-43.4	10.9	2.23e-03	0	57	0	65011712	51	5354
2026-01-29 07:59:19.30	67.51	15.60	-40.0	-43.1	11.4	1.07e-03	0	57	0	74448896	51	5181
2026-01-29 07:59:22.32	66.90	15.72	-39.9	-42.9	11.6	6.95e-04	0	58	0	83886080	51	5098
2026-01-29 07:59:25.35	66.28	15.84	-39.7	-42.4	12.4	1.80e-04	0	57	0	93323264	51	4787
2026-01-29 07:59:28.38	65.66	15.95	-39.8	-42.5	12.5	1.49e-04	0	57	0	102760448	51	4836
2026-01-29 07:59:31.41	65.03	16.06	-39.7	-42.3	12.8	7.85e-05	0	57	0	112197632	51	4713
2026-01-29 07:59:34.44	64.40	16.17	-39.6	-42.0	13.1	2.13e-05	0	58	0	121634816	51	4594
2026-01-29 07:59:37.48	63.76	16.28	-39.6	-42.1	13.1	3.28e-05	0	57	0	131072000	51	4604
2026-01-29 07:59:40.51	63.12	16.38	-39.7	-42.2	13.1	2.89e-05	0	57	0	140509184	51	4656
2026-01-29 07:59:43.54	62.47	16.48	-39.9	-42.4	12.9	5.03e-05	0	57	0	149946368	51	4803
2026-01-29 07:59:46.57	61.82	16.57	-39.9	-42.5	12.9	4.11e-05	0	57	0	159383552	51	4824
2026-01-29 07:59:49.60	61.17	16.66	-39.9	-42.5	12.9	5.26e-05	0	57	0	168820736	51	4840
2026-01-29 07:59:52.63	60.51	16.75	-39.8	-42.3	13.1	2.67e-05	0	58	0	178257920	51	4754
2026-01-29 07:59:55.67	59.85	16.84	-39.8	-42.3	13.2	3.35e-05	0	57	0	187695104	51	4706
2026-01-29 07:59:58.70	59.19	16.92	-39.7	-42.1	13.3	1.60e-05	0	58	0	197132288	51	4629
2026-01-29 08:00:01.73	58.52	17.00	-39.7	-42.1	13.4	1.60e-05	0	57	0	206569472	51	4614
2026-01-29 08:00:04.76	57.85	17.07	-39.7	-42.1	13.4	1.06e-05	0	58	0	216006656	51	4609
2026-01-29 08:00:07.79	57.17	17.14	-39.6	-42.0	13.4	1.06e-05	0	57	0	225443840	51	4589
2026-01-29 08:00:10.82	56.50	17.21	-39.7	-42.1	13.3	1.75e-05	0	57	0	234881024	51	4642
2026-01-29 08:00:13.85	55.81	17.27	-39.9	-42.4	13.0	3.20e-05	0	58	0	245366784	51	4813
2026-01-29 08:00:16.89	55.13	17.33	-40.0	-42.5	13.0	2.74e-05	0	58	0	253755392	51	4839
2026-01-29 08:00:19.92	54.44	17.38	-39.7	-42.1	13.4	1.67e-05	0	58	0	264241152	51	4625
2026-01-29 08:00:22.95	53.76	17.43	-39.7	-42.1	13.4	1.44e-05	0	58	0	273678336	51	4636
2026-01-29 08:00:25.98	53.06	17.48	-39.8	-42.3	13.2	1.90e-05	0	57	0	283115520	51	4722
2026-01-29 08:00:29.01	52.37	17.52	-39.8	-42.2	13.4	1.83e-05	0	58	0	292552704	51	4668
2026-01-29 08:00:32.04	51.68	17.55	-39.8	-42.2	13.3	1.22e-05	0	58	0	301989888	51	4675
2026-01-29 08:00:35.07	50.98	17.59	-39.8	-42.2	13.3	1.60e-05	0	58	0	311427072	51	4689
2026-01-29 08:00:38.10	50.29	17.62	-39.9	-42.4	13.2	2.44e-05	0	58	0	320864256	51	4764
2026-01-29 08:00:41.13	49.59	17.64	-39.9	-42.4	13.1	3.12e-05	0	58	0	330301440	51	4808
2026-01-29 08:00:44.17	48.89	17.66	-39.9	-42.3	13.3	2.05e-05	0	58	0	339738624	51	4728
2026-01-29 08:00:47.19	48.19	17.68	-39.6	-42.0	13.6	9.10e-06	0	58	0	349175808	51	4555
2026-01-29 08:00:50.23	47.49	17.69	-39.6	-42.0	13.6	9.90e-06	0	58	0	358612992	51	4558
2026-01-29 08:00:53.25	46.79	17.69	-39.6	-41.9	13.7	8.30e-06	0	58	0	368050176	51	4526
2026-01-29 08:00:56.28	46.09	17.70	-39.6	-41.9	13.7	6.80e-06	0	58	0	377487360	51	4499
2026-01-29 08:00:59.31	45.38	17.69	-39.6	-41.9	13.7	5.30e-06	0	58	0	386924544	51	4521
2026-01-29 08:01:02.34	44.68	17.69	-39.7	-42.0	13.6	1.06e-05	0	58	0	396361728	51	4578
2026-01-29 08:01:05.37	43.98	17.68	-39.7	-42.0	13.6	1.06e-05	0	58	0	405798912	51	4584
2026-01-29 08:01:08.40	43.28	17.66	-39.6	-41.9	13.7	8.30e-06	0	58	0	415236096	51	4509
2026-01-29 08:01:11.42	42.59	17.64	-39.8	-42.1	13.4	8.30e-06	0	58	0	424673280	51	4651
2026-01-29 08:01:14.45	41.89	17.62	-39.6	-42.0	13.6	8.30e-06	0	58	0	434110464	51	4562
2026-01-29 08:01:17.48	41.19	17.59	-39.7	-42.1	13.5	5.30e-06	0	58	0	443547648	51	4604
2026-01-29 08:01:20.51	40.50	17.56	-39.8	-42.2	13.4	1.22e-05	0	58	0	452984832	51	4685
2026-01-29 08:01:23.54	39.80	17.52	-39.9	-42.3	13.3	1.29e-05	0	58	0	462422016	51	4725
2026-01-29 08:01:26.57	39.11	17.48	-40.0	-42.5	13.1	2.44e-05	0	58	0	471859200	51	4844
2026-01-29 08:01:29.60	38.42	17.44	-39.9	-42.3	13.3	2.13e-05	0	58	0	481296384	51	4745
2026-01-29 08:01:32.62	37.74	17.39	-39.8	-42.2	13.3	1.83e-05	0	58	0	490733568	51	4687
2026-01-29 08:01:35.65	37.05	17.33	-39.8	-42.2	13.4	1.44e-05	0	58	0	500170752	51	4658
2026-01-29 08:01:38.68	36.37	17.28	-39.8	-42.2	13.4	1.67e-05	0	58	0	509607936	51	4694
2026-01-29 08:01:41.71	35.69	17.21	-39.7	-42.1	13.5	8.30e-06	0	58	0	519045120	51	4615
2026-01-29 08:01:44.74	35.01	17.15	-39.7	-42.1	13.5	1.06e-05	0	58	0	528482304	51	4628
2026-01-29 08:01:47.77	34.34	17.08	-39.6	-41.9	13.7	6.80e-06	0	58	0	537919488	51	4517
2026-01-29 08:01:50.80	33.67	17.01	-39.7	-42.1	13.5	7.60e-06	0	58	0	547356672	51	4618
2026-01-29 08:01:53.83	33.00	16.93	-39.8	-42.2	13.4	1.67e-05	0	58	0	556793856	51	4662
2026-01-29 08:01:56.86	32.34	16.85	-39.7	-42.1	13.4	1.52e-05	0	58	0	567279616	51	4639
2026-01-29 08:01:59.89	31.68	16.77	-39.6	-41.9	13.7	1.06e-05	0	58	0	575668224	51	4520
2026-01-29 08:02:02.91	31.02	16.68	-39.7	-42.1	13.5	9.90e-06	0	58	0	586153984	51	4601
2026-01-29 08:02:05.94	30.37	16.59	-39.6	-41.9	13.6	6.10e-06	0	58	0	594542592	51	4532
2026-01-29 08:02:08.98	29.72	16.49	-39.7	-42.1	13.4	1.14e-05	0	58	0	605028352	51	4616
2026-01-29 08:02:12.00	29.08	16.39	-39.7	-42.1	13.4	1.14e-05	0	58	0	614465536	51	4618
2026-01-29 08:02:15.04	28.44	16.29	-39.7	-42.1	13.3	1.90e-05	0	58	0	623902720	51	4641
2026-01-29 08:02:18.07	27.80	16.19	-39.8	-42.2	13.3	1.83e-05	0	58	0	633339904	51	4676
2026-01-29 08:02:21.10	27.17	16.08	-39.7	-42.0	13.4	1.52e-05	0	58	0	642777088	51	4591
2026-01-29 08:02:24.13	26.55	15.97	-39.5	-41.8	13.6	8.30e-06	0	58	0	652214272	50	4755
2026-01-29 08:02:27.16	25.92	15.86	-39.6	-41.9	13.5	1.06e-05	0	58	0	661651456	50	4811
2026-01-29 08:02:30.19	25.31	15.74	-39.7	-42.1	13.3	2.28e-05	0	58	0	671088640	50	4920
2026-01-29 08:02:33.22	24.70	15.62	-39.8	-42.3	13.1	2.36e-05	0	58	0	680525824	50	5027
2026-01-29 08:02:36.25	24.09	15.50	-39.6	-41.9	13.5	9.10e-06	0	58	0	689963008	50	4809
2026-01-29 08:02:39.28	23.49	15.38	-39.7	-42.1	13.3	1.83e-05	0	58	0	699400192	50	4889
2026-01-29 08:02:42.31	22.89	15.25	-39.8	-42.4	13.0	2.44e-05	0	58	0	708837376	50	5053
2026-01-29 08:02:45.33	22.30	15.12	-40.0	-42.6	12.8	6.56e-05	0	58	0	718274560	50	5189
2026-01-29 08:02:48.37	21.72	14.99	-39.9	-42.5	12.8	6.48e-05	0	58	0	727711744	50	5141
2026-01-29 08:02:51.40	21.14	14.85	-40.0	-42.7	12.7	7.85e-05	0	58	0	737148928	50	5227
2026-01-29 08:02:54.43	20.56	14.72	-40.1	-42.8	12.5	1.07e-04	0	58	0	746586112	50	5299
2026-01-29 08:02:57.46	19.99	14.58	-40.0	-42.7	12.7	7.85e-05	0	58	0	756023296	50	5230
2026-01-29 08:03:00.49	19.43	14.44	-39.9	-42.5	12.8	5.95e-05	0	58	0	765460480	50	5134
2026-01-29 08:03:03.52	18.87	14.30	-40.0	-42.6	12.8	6.86e-05	0	58	0	774897664	50	5163
2026-01-29 08:03:06.55	18.31	14.15	-40.1	-42.7	12.6	9.00e-05	0	58	0	784334848	50	5268
2026-01-29 08:03:09.58	17.77	14.01	-40.2	-42.9	12.4	1.58e-04	0	58	0	793772032	51	5077
2026-01-29 08:03:12.61	17.22	13.86	-40.2	-42.9	12.4	1.70e-04	0	58	0	803209216	51	5082
2026-01-29 08:03:15.64	16.69	13.71	-40.0	-42.6	12.6	9.00e-05	0	58	0	812646400	51	4926
2026-01-29 08:03:18.67	16.15	13.56	-40.0	-42.7	12.6	1.05e-04	0	58	0	822083584	51	4942
2026-01-29 08:03:21.70	15.63	13.41	-40.2	-42.9	12.3	1.63e-04	0	58	0	831520768	51	5086
2026-01-29 08:03:24.74	15.11	13.26	-40.0	-42.6	12.6	1.06e-04	0	58	0	840957952	51	4921
2026-01-29 08:03:27.77	14.59	13.10	-39.9	-42.6	12.6	1.03e-04	0	58	0	850395136	51	4897
2026-01-29 08:03:30.80	14.08	12.94	-40.0	-42.7	12.5	1.16e-04	0	58	0	859832320	51	4928
2026-01-29 08:03:33.83	13.58	12.79	-40.0	-42.7	12.4	1.44e-04	0	58	0	869269504	51	4954
2026-01-29 08:03:36.86	13.08	12.63	-40.0	-42.7	12.3	1.98e-04	0	58	0	879755264	51	4979
2026-01-29 08:03:39.89	12.59	12.47	-40.1	-43.0	12.0	3.33e-04	0	58	0	888143872	51	5109
2026-01-29 08:03:42.92	12.10	12.31	-40.2	-43.3	11.4	7.79e-04	0	58	0	898629632	51	5309
2026-01-29 08:03:45.95	11.62	12.15	-40.1	-43.2	11.3	1.18e-03	0	58	0	908066816	51	5279
2026-01-29 08:03:48.98	11.14	11.99	-39.9	-43.0	11.3	1.07e-03	0	58	0	917504000	51	5151
2026-01-29 08:03:52.01	10.67	11.82	-40.0	-43.4	10.7	2.69e-03	0	58	0	926941184	51	5374
2026-01-29 08:03:55.05	10.20	11.66	-40.4	-44.7	9.0	2.17e-02	0	58	0	936378368	51	6209
2026-01-29 08:03:58.08	9.74	11.49	-40.6	-45.9	7.2	1.22e-01	0	58	0	945815552	51	7156
2026-01-29 08:04:01.11	9.28	11.33	-40.8	-48.0	5.2	4.53e-01	0	58	0	955252736	52	8603
2026-01-29 08:04:04.14	8.83	11.16	-40.9	-50.4	3.9	1.44e+00	0	58	104	956301312	52	11293
2026-01-29 08:04:07.17	8.39	10.99	-40.7	-52.0	3.8	1.49e+00	0	58	104	956301312	52	13726
2026-01-29 08:04:10.20	7.95	10.83	-40.9	-51.9	3.8	1.49e+00	0	58	104	956301312	53	12729
2026-01-29 08:04:13.23	7.51	10.66	-40.6	-52.2	3.8	1.49e+00	0	58	104	956301312	52	14041
2026-01-29 08:04:16.26	7.08	10.49	-40.2	-52.4	3.8	1.49e+00	0	58	104	956301312	51	15064
2026-01-29 08:04:19.29	6.66	10.32	-39.7	-51.9	3.8	1.49e+00	0	58	104	956301312	51	14274
2026-01-29 08:04:22.32	6.24	10.15	-39.7	-51.9	3.8	1.49e+00	0	58	104	956301312	51	14223
2026-01-29 08:04:25.35	5.82	9.98	-39.8	-52.0	3.8	1.49e+00	0	58	104	956301312	51	14376
2026-01-29 08:04:28.38	5.41	9.81	-40.0	-52.1	3.8	1.49e+00	0	58	104	956301312	51	14649
2026-01-29 08:04:31.41	5.01	9.65	-39.8	-51.9	3.8	1.49e+00	0	59	104	956301312	51	14324
2026-01-29 08:04:34.44	4.61	9.48	-39.8	-51.9	3.8	1.49e+00	0	58	104	956301312	51	14357
2026-01-29 08:04:37.47	4.21	9.30	-39.8	-52.0	3.8	1.49e+00	0	58	104	956301312	51	14435
2026-01-29 08:04:40.50	3.82	9.13	-39.8	-52.0	3.8	1.49e+00	0	59	104	956301312	51	14453
2026-01-29 08:04:43.53	3.44	8.96	-39.8	-52.0	3.8	1.49e+00	0	58	104	956301312	51	14392
2026-01-29 08:04:46.56	3.06	8.79	-39.8	-52.0	3.8	1.49e+00	0	58	104	956301312	51	14388
2026-01-29 08:04:49.59	2.68	8.62	-39.8	-52.0	3.8	1.49e+00	0	58	104	956301312	51	14437
2026-01-29 08:04:52.62	2.31	8.45	-39.8	-52.0	3.8	1.49e+00	0	58	104	956301312	51	14477
2026-01-29 08:04:55.65	1.94	8.28	-39.8	-52.0	3.8	1.49e+00	0	58	104	956301312	51	14515
2026-01-29 08:04:58.68	1.57	8.11	-39.8	-52.0	3.8	1.49e+00	0	59	104	956301312	51	14499
2026-01-29 08:05:01.71	1.21	7.94	-43.3	-55.7	3.8	1.49e+00	0	59	104	956301312	57	15743
2026-01-29 08:05:04.74	0.86	7.77	-45.0	-57.5	3.8	1.49e+00	0	58	104	956301312	60	16307
2026-01-29 08:05:07.77	0.51	7.60	-45.3	-57.9	3.8	1.49e+00	0	58	104	956301312	61	15980
2026-01-29 08:05:10.80	0.16	7.43	-45.1	-57.8	3.8	1.49e+00	0	58	104	956301312	60	16713
2026-01-29 08:05:13.84	359.82	7.26	-45.0	-57.6	3.8	1.49e+00	0	58	104	956301312	60	16379
2026-01-29 08:05:16.87	359.48	7.09	-44.9	-57.5	3.8	1.49e+00	0	58	104	956301312	60	16296
2026-01-29 08:05:19.90	359.15	6.92	-44.9	-57.5	3.8	1.49e+00	0	59	104	956301312	60	16265
2026-01-29 08:05:22.93	358.82	6.75	-44.9	-57.5	3.8	1.49e+00	0	58	104	956301312	60	16251
2026-01-29 08:05:25.96	358.49	6.58	-44.9	-57.5	3.8	1.49e+00	0	58	104	956301312	60	16213
2026-01-29 08:05:28.99	358.17	6.41	-44.9	-57.5	3.8	1.49e+00	0	58	104	956301312	60	16243
2026-01-29 08:05:32.02	357.85	6.24	-44.9	-57.5	3.8	1.49e+00	0	58	104	956301312	60	16261
2026-01-29 08:05:35.06	357.53	6.07	-44.8	-57.5	3.8	1.49e+00	0	59	104	956301312	60	16304
2026-01-29 08:05:38.09	357.22	5.91	-44.9	-57.5	3.8	1.49e+00	0	59	104	956301312	60	16206
2026-01-29 08:05:41.12	356.92	5.74	-44.9	-57.5	3.8	1.49e+00	0	59	104	956301312	60	16196
2026-01-29 08:05:44.15	356.61	5.57	-44.9	-57.5	3.8	1.49e+00	0	59	104	956301312	60	16177
2026-01-29 08:05:47.18	356.31	5.40	-44.8	-57.5	3.8	1.49e+00	0	59	104	956301312	60	16154
2026-01-29 08:05:50.21	356.02	5.24	-44.8	-57.5	3.8	1.49e+00	0	59	104	956301312	60	16190
2026-01-29 08:05:53.24	355.72	5.07	-44.8	-57.5	3.8	1.49e+00	0	59	104	956301312	60	16181
2026-01-29 08:05:56.27	355.43	4.90	-44.8	-57.5	3.8	1.49e+00	0	59	104	956301312	60	16155
2026-01-29 08:05:59.30	355.15	4.74	-44.1	-57.3	3.8	1.49e+00	0	59	104	956301312	59	16858
2026-01-29 08:06:02.33	354.86	4.57	-44.8	-57.4	3.8	1.49e+00	0	59	104	956301312	60	16121
2026-01-29 08:06:05.37	354.58	4.41	-44.8	-57.4	3.8	1.49e+00	0	59	104	956301312	60	16107
2026-01-29 08:06:08.40	354.31	4.24	-44.8	-57.4	3.8	1.49e+00	0	59	104	956301312	60	16083
2026-01-29 08:06:11.43	354.03	4.08	-44.8	-57.4	3.8	1.49e+00	0	59	104	956301312	60	16060
2026-01-29 08:06:14.46	353.76	3.91	-44.8	-57.4	3.8	1.49e+00	0	59	104	956301312	60	16059
2026-01-29 08:06:17.49	353.50	3.75	-44.8	-57.4	3.8	1.49e+00	0	59	104	956301312	60	16062
2026-01-29 08:06:20.52	353.23	3.59	-44.6	-57.5	3.8	1.49e+00	0	59	104	956301312	60	16128
2026-01-29 08:06:23.55	352.97	3.42	-44.8	-57.4	3.8	1.49e+00	0	58	104	956301312	60	16062
2026-01-29 08:06:26.58	352.72	3.26	-44.8	-57.5	3.8	1.49e+00	0	59	104	956301312	60	16143
2026-01-29 08:06:29.62	352.46	3.10	-44.6	-57.4	3.8	1.49e+00	0	59	104	956301312	60	16097
2026-01-29 08:06:32.65	352.21	2.94	-44.8	-57.5	3.8	1.49e+00	0	59	104	956301312	60	16142
2026-01-29 08:06:35.68	351.96	2.77	-44.7	-57.4	3.8	1.49e+00	0	59	104	956301312	60	16089
2026-01-29 08:06:38.71	351.71	2.61	-44.8	-57.4	3.8	1.49e+00	0	59	104	956301312	60	16112
2026-01-29 08:06:41.74	351.47	2.45	-44.8	-57.4	3.8	1.49e+00	0	59	104	956301312	60	16097
2026-01-29 08:06:44.77	351.23	2.29	-44.8	-57.4	3.8	1.49e+00	0	59	104	956301312	60	16062
2026-01-29 08:06:47.80	350.99	2.13	-44.8	-57.4	3.8	1.49e+00	0	59	104	956301312	60	16077
2026-01-29 08:06:50.83	350.76	1.97	-44.8	-57.4	3.8	1.49e+00	0	59	104	956301312	60	16073

#Closed at: 2026-01-29 08:06:52
#Recorded file [956 MB]: D:/lorett/data/31039_260129_105504.dat