passes_logs/2026/01/29/R2.0S_Moscow/R2.0S_Moscow__20260129_061210_FENGYUN_3E_rec.log

#Pass ID: 20260129_061210_FENGYUN 3E
#Satellite: FENGYUN 3E
#Configuration: FENGYUN 3E
#almurnet v.1.7.20251203
#Start time: 2026-01-29 06:12:10

#Version: 2.2.20231116
#Station: R2.0S_Moscow
#Location: 37.707566 lon 55.798166 lat
#TLE: 1 49008U 21062A   26027.97178348  .00000209  00000+0  11900-3 0  9990
#TLE: 2 49008  98.7501  32.9491 0002537 114.6782 245.4659 14.19888434236687

#Time	Az	El	Level	Level2	SNR	BER	BlckErr	Temp	State	Recorded	gain1	gain2
2026-01-29 06:12:10.86	8.56	2.03	-40.1	-51.0	3.8	8.46e-01	0	49	0	0	51	12150
2026-01-29 06:12:13.88	8.30	2.19	-40.0	-51.0	3.8	8.46e-01	0	49	104	0	51	12102
2026-01-29 06:12:16.91	8.04	2.34	-40.0	-51.0	3.8	8.45e-01	0	49	104	0	51	12138
2026-01-29 06:12:19.94	7.78	2.49	-40.0	-51.0	3.8	8.45e-01	0	49	104	0	51	12128
2026-01-29 06:12:22.97	7.51	2.64	-40.0	-51.0	3.8	8.47e-01	0	50	104	0	51	12105
2026-01-29 06:12:26.00	7.25	2.80	-40.0	-50.9	3.8	8.46e-01	0	50	104	0	51	12057
2026-01-29 06:12:29.03	6.98	2.95	-40.0	-51.0	3.8	8.45e-01	0	50	104	0	51	12112
2026-01-29 06:12:32.07	6.70	3.11	-40.0	-51.0	3.8	8.47e-01	0	50	104	0	51	12119
2026-01-29 06:12:35.10	6.42	3.26	-40.0	-51.0	3.8	8.47e-01	0	50	104	0	51	12120
2026-01-29 06:12:38.13	6.14	3.41	-40.0	-50.9	3.8	8.46e-01	0	50	104	0	51	12089
2026-01-29 06:12:41.16	5.86	3.57	-40.0	-51.0	3.8	8.45e-01	0	51	104	0	51	12110
2026-01-29 06:12:44.19	5.57	3.72	-40.0	-51.0	3.8	8.47e-01	0	51	104	0	51	12100
2026-01-29 06:12:47.22	5.28	3.88	-40.0	-50.9	3.8	8.46e-01	0	52	104	0	51	12069
2026-01-29 06:12:50.25	4.99	4.03	-40.0	-51.0	3.8	8.46e-01	0	52	104	0	51	12118
2026-01-29 06:12:53.28	4.70	4.19	-40.0	-50.9	3.8	8.46e-01	0	52	104	0	51	12089
2026-01-29 06:12:56.31	4.40	4.35	-40.0	-51.0	3.8	8.46e-01	0	52	104	0	51	12132
2026-01-29 06:12:59.35	4.09	4.50	-40.0	-50.9	3.8	8.45e-01	0	52	104	0	51	12054
2026-01-29 06:13:02.38	3.79	4.66	-40.0	-51.0	3.8	8.45e-01	0	53	104	0	51	12102
2026-01-29 06:13:05.41	3.48	4.81	-40.0	-51.0	3.8	8.48e-01	0	53	104	0	51	12098
2026-01-29 06:13:08.44	3.16	4.97	-40.0	-50.9	3.8	8.46e-01	0	52	104	0	51	12070
2026-01-29 06:13:11.47	2.85	5.13	-40.0	-50.9	3.8	8.46e-01	0	53	104	0	51	12080
2026-01-29 06:13:14.50	2.53	5.28	-40.0	-50.9	3.8	8.46e-01	0	53	104	0	51	12090
2026-01-29 06:13:17.53	2.20	5.44	-40.0	-50.9	3.8	8.47e-01	0	53	104	0	51	12058
2026-01-29 06:13:20.56	1.88	5.60	-40.0	-50.9	3.8	8.46e-01	0	53	104	0	51	12039
2026-01-29 06:13:23.59	1.55	5.75	-40.0	-50.9	3.8	8.46e-01	0	53	104	0	51	12052
2026-01-29 06:13:26.62	1.21	5.91	-40.0	-50.9	3.8	8.46e-01	0	53	104	0	51	12078
2026-01-29 06:13:29.65	0.87	6.06	-40.0	-51.0	3.8	8.47e-01	0	54	104	0	51	12096
2026-01-29 06:13:32.68	0.53	6.22	-40.0	-51.0	3.8	8.46e-01	0	54	104	0	51	12100
2026-01-29 06:13:35.71	0.19	6.38	-40.0	-51.0	3.8	8.47e-01	0	54	104	0	51	12122
2026-01-29 06:13:38.74	359.84	6.53	-40.0	-50.9	3.8	8.47e-01	0	54	104	0	51	12062
2026-01-29 06:13:41.77	359.48	6.69	-40.0	-50.9	3.8	8.47e-01	0	54	104	0	51	12061
2026-01-29 06:13:44.81	359.12	6.85	-40.0	-50.9	3.8	8.46e-01	0	54	104	0	51	12083
2026-01-29 06:13:47.84	358.76	7.00	-40.0	-50.9	3.8	8.45e-01	0	55	104	0	51	12057
2026-01-29 06:13:50.87	358.40	7.16	-40.0	-50.9	3.8	8.45e-01	0	54	104	0	51	12067
2026-01-29 06:13:53.90	358.03	7.32	-40.0	-50.9	3.8	8.46e-01	0	55	104	0	51	12077
2026-01-29 06:13:56.93	357.65	7.47	-40.0	-50.9	3.8	8.46e-01	0	55	104	0	51	12032
2026-01-29 06:13:59.96	357.28	7.63	-40.0	-50.9	3.8	8.46e-01	0	55	104	0	51	12082
2026-01-29 06:14:02.99	356.89	7.78	-40.0	-50.9	3.8	8.46e-01	0	55	104	0	51	12022
2026-01-29 06:14:06.03	356.51	7.94	-40.0	-50.9	3.8	8.46e-01	0	55	104	0	51	12040
2026-01-29 06:14:09.06	356.12	8.09	-40.2	-51.1	3.8	8.46e-01	0	55	104	0	51	12282
2026-01-29 06:14:12.09	355.72	8.25	-40.3	-51.3	3.8	8.46e-01	0	55	104	0	51	12546
2026-01-29 06:14:15.12	355.32	8.40	-40.2	-51.1	3.8	8.46e-01	0	55	104	0	51	12287
2026-01-29 06:14:18.15	354.92	8.55	-40.2	-51.1	3.8	8.45e-01	0	55	104	0	51	12347
2026-01-29 06:14:21.18	354.51	8.71	-40.3	-51.2	3.8	8.46e-01	0	55	104	0	51	12437
2026-01-29 06:14:24.21	354.10	8.86	-40.5	-51.4	3.8	8.45e-01	0	56	104	0	51	12683
2026-01-29 06:14:27.24	353.68	9.01	-40.5	-51.4	3.8	8.46e-01	0	56	104	0	51	12738
2026-01-29 06:14:30.27	353.26	9.16	-40.5	-51.4	3.8	8.47e-01	0	56	104	0	51	12746
2026-01-29 06:14:33.30	352.84	9.31	-40.5	-51.4	3.8	8.45e-01	0	56	104	0	51	12765
2026-01-29 06:14:36.34	352.40	9.46	-40.9	-51.8	3.8	8.46e-01	0	56	104	0	51	13265
2026-01-29 06:14:39.37	351.97	9.61	-40.8	-51.7	3.8	8.46e-01	0	56	104	0	51	13160
2026-01-29 06:14:42.40	351.53	9.76	-40.7	-51.6	3.8	8.46e-01	0	56	104	0	51	13104
2026-01-29 06:14:45.43	351.09	9.91	-40.8	-51.7	3.8	8.47e-01	0	56	104	0	51	13216
2026-01-29 06:14:48.46	350.64	10.06	-41.0	-51.9	3.8	8.46e-01	0	56	104	0	51	13479
2026-01-29 06:14:51.49	350.18	10.21	-41.0	-51.9	3.8	8.46e-01	0	57	104	0	51	13518
2026-01-29 06:14:54.52	349.73	10.35	-40.8	-51.8	3.8	8.46e-01	0	56	104	0	51	13335
2026-01-29 06:14:57.56	349.26	10.50	-40.9	-51.8	3.8	8.46e-01	0	56	104	0	52	12571
2026-01-29 06:15:00.58	348.80	10.64	-41.1	-52.1	3.8	8.46e-01	0	56	104	0	52	12974
2026-01-29 06:15:03.61	348.33	10.78	-41.3	-52.2	3.8	8.46e-01	0	56	104	0	52	13210
2026-01-29 06:15:06.64	347.85	10.92	-41.3	-52.2	3.8	8.46e-01	0	57	104	0	52	13192
2026-01-29 06:15:09.68	347.37	11.07	-41.3	-52.3	3.8	8.46e-01	0	56	104	0	52	13283
2026-01-29 06:15:12.70	346.88	11.20	-41.3	-52.3	3.8	8.47e-01	0	56	104	0	52	13298
2026-01-29 06:15:15.73	346.39	11.34	-41.1	-52.0	3.8	8.47e-01	0	57	104	0	52	12904
2026-01-29 06:15:18.76	345.89	11.48	-41.0	-51.9	3.8	8.46e-01	0	57	104	0	52	12772
2026-01-29 06:15:21.79	345.39	11.62	-41.0	-51.9	3.8	8.47e-01	0	57	104	0	52	12774
2026-01-29 06:15:24.82	344.89	11.75	-41.0	-51.9	3.8	8.48e-01	0	57	104	0	52	12709
2026-01-29 06:15:27.85	344.38	11.88	-40.9	-51.9	3.8	8.46e-01	0	57	104	0	52	12675
2026-01-29 06:15:30.87	343.87	12.01	-40.9	-51.8	3.8	8.47e-01	0	57	104	0	52	12559
2026-01-29 06:15:33.90	343.35	12.14	-40.9	-51.8	3.8	8.46e-01	0	57	104	0	52	12608
2026-01-29 06:15:36.93	342.82	12.27	-40.8	-51.8	3.8	8.46e-01	0	57	104	0	52	12609
2026-01-29 06:15:39.97	342.29	12.40	-40.5	-51.4	3.8	8.46e-01	0	57	104	0	52	12092
2026-01-29 06:15:43.00	341.76	12.52	-40.5	-51.5	3.8	8.47e-01	0	57	104	0	52	12131
2026-01-29 06:15:46.03	341.22	12.64	-40.6	-51.5	3.8	8.46e-01	0	57	104	0	52	12202
2026-01-29 06:15:49.06	340.68	12.76	-40.5	-51.5	3.8	8.45e-01	0	57	104	0	52	12102
2026-01-29 06:15:52.09	340.13	12.88	-41.6	-51.5	3.8	8.46e-01	0	57	104	0	52	12220
2026-01-29 06:15:55.12	339.58	13.00	-41.3	-49.8	4.0	8.43e-01	0	57	104	0	52	9987
2026-01-29 06:15:58.15	339.03	13.11	-40.7	-45.1	7.2	1.80e-01	0	57	0	3145728	52	5829
2026-01-29 06:16:01.18	338.47	13.23	-39.4	-42.2	10.7	3.54e-03	0	57	0	25165824	49	4929
2026-01-29 06:16:04.21	337.90	13.34	-39.8	-42.5	10.7	3.74e-03	0	57	0	47185920	49	5153
2026-01-29 06:16:07.24	337.33	13.44	-40.0	-42.7	11.0	2.24e-03	0	57	0	69206016	49	5225
2026-01-29 06:16:10.28	336.76	13.55	-39.8	-42.2	11.7	7.22e-04	0	57	0	91226112	49	4958
2026-01-29 06:16:13.31	336.18	13.65	-39.4	-41.6	12.5	1.30e-04	0	57	0	113246208	49	4602
2026-01-29 06:16:16.34	335.60	13.75	-39.5	-41.7	12.4	1.85e-04	0	57	0	134217728	49	4689
2026-01-29 06:16:19.37	335.02	13.85	-39.1	-41.2	13.1	2.97e-05	0	57	0	156237824	49	4394
2026-01-29 06:16:22.41	334.43	13.95	-39.0	-41.0	13.3	1.25e-05	0	57	0	178257920	48	4566
2026-01-29 06:16:25.44	333.83	14.04	-39.0	-40.9	13.3	3.43e-05	0	58	0	200278016	48	4537
2026-01-29 06:16:28.46	333.24	14.13	-38.9	-40.8	13.5	1.14e-05	0	58	0	222298112	48	4477
2026-01-29 06:16:31.49	332.64	14.22	-38.7	-40.6	13.7	9.10e-06	0	57	0	244318208	48	4368
2026-01-29 06:16:34.53	332.03	14.30	-38.7	-40.5	13.8	6.80e-06	0	58	0	266338304	48	4327
2026-01-29 06:16:37.56	331.43	14.39	-38.7	-40.6	13.8	4.50e-06	0	57	0	288358400	48	4368
2026-01-29 06:16:40.59	330.82	14.46	-38.8	-40.6	13.7	6.80e-06	0	58	0	309329920	48	4391
2026-01-29 06:16:43.62	330.20	14.54	-38.8	-40.7	13.7	8.00e-06	0	58	0	331350016	48	4418
2026-01-29 06:16:46.65	329.58	14.61	-38.6	-40.4	14.0	2.20e-06	0	58	0	353370112	48	4263
2026-01-29 06:16:49.69	328.96	14.68	-38.2	-40.0	14.3	4.50e-06	0	58	0	375390208	47	4304
2026-01-29 06:16:52.72	328.34	14.75	-38.3	-40.1	14.2	2.20e-06	0	57	0	397410304	47	4368
2026-01-29 06:16:55.75	327.71	14.81	-38.5	-40.4	14.0	2.20e-06	0	58	0	419430400	47	4497
2026-01-29 06:16:58.77	327.09	14.87	-38.5	-40.4	13.9	3.40e-06	0	58	0	441450496	47	4508
2026-01-29 06:17:01.81	326.45	14.93	-38.5	-40.3	14.0	4.50e-06	0	58	0	462422016	47	4472
2026-01-29 06:17:04.84	325.82	14.98	-38.4	-40.2	14.1	3.40e-06	0	58	0	484442112	47	4393
2026-01-29 06:17:07.87	325.19	15.03	-38.2	-40.0	14.3	1.10e-06	0	58	0	506462208	47	4303
2026-01-29 06:17:10.90	324.55	15.08	-38.2	-39.9	14.4	0.00e+00	0	58	0	528482304	47	4286
2026-01-29 06:17:13.93	323.91	15.12	-38.2	-40.0	14.4	2.20e-06	0	58	0	550502400	47	4292
2026-01-29 06:17:16.96	323.27	15.16	-38.3	-40.0	14.3	1.10e-06	0	58	0	572522496	47	4333
2026-01-29 06:17:19.99	322.62	15.20	-38.4	-40.2	14.1	1.10e-06	0	58	0	593494016	47	4435
2026-01-29 06:17:23.02	321.98	15.23	-38.4	-40.2	14.1	1.10e-06	0	58	0	615514112	47	4424
2026-01-29 06:17:26.06	321.33	15.26	-38.3	-40.1	14.2	4.50e-06	0	58	0	637534208	47	4357
2026-01-29 06:17:29.09	320.68	15.28	-38.2	-39.9	14.4	1.10e-06	0	58	0	659554304	47	4276
2026-01-29 06:17:32.12	320.04	15.30	-38.1	-39.8	14.5	1.10e-06	0	58	0	681574400	47	4231
2026-01-29 06:17:35.15	319.39	15.32	-38.1	-39.8	14.5	0.00e+00	0	58	0	703594496	47	4233
2026-01-29 06:17:38.18	318.74	15.33	-38.1	-39.8	14.5	1.10e-06	0	58	0	725614592	47	4232
2026-01-29 06:17:41.22	318.08	15.34	-38.2	-40.0	14.4	1.10e-06	0	58	0	747634688	47	4306
2026-01-29 06:17:44.25	317.43	15.35	-38.4	-40.2	14.1	4.50e-06	0	58	0	768606208	47	4408
2026-01-29 06:17:47.28	316.78	15.35	-38.5	-40.4	14.0	2.20e-06	0	58	0	790626304	47	4494
2026-01-29 06:17:50.31	316.13	15.35	-38.5	-40.3	14.0	5.70e-06	0	58	0	812646400	47	4479
2026-01-29 06:17:53.34	315.48	15.35	-38.5	-40.3	14.0	8.00e-06	0	58	0	834666496	47	4461
2026-01-29 06:17:56.37	314.83	15.34	-38.4	-40.3	14.0	3.40e-06	0	58	0	856686592	47	4452
2026-01-29 06:17:59.40	314.18	15.33	-38.4	-40.2	14.1	6.80e-06	0	58	0	878706688	47	4432
2026-01-29 06:18:02.43	313.53	15.31	-38.3	-40.0	14.3	2.20e-06	0	58	0	900726784	47	4340
2026-01-29 06:18:05.47	312.88	15.29	-38.1	-39.9	14.4	1.10e-06	0	58	0	922746880	47	4258
2026-01-29 06:18:08.49	312.23	15.27	-38.1	-39.8	14.5	0.00e+00	0	58	0	943718400	47	4228
2026-01-29 06:18:11.52	311.59	15.24	-38.1	-39.8	14.5	1.10e-06	0	58	0	965738496	47	4218
2026-01-29 06:18:14.56	310.94	15.21	-38.2	-39.9	14.4	0.00e+00	0	58	0	987758592	47	4276
2026-01-29 06:18:17.59	310.29	15.18	-38.1	-39.9	14.4	1.10e-06	0	58	0	1009778688	47	4258
2026-01-29 06:18:20.62	309.65	15.14	-38.2	-40.0	14.3	1.10e-06	0	58	0	1031798784	47	4301
2026-01-29 06:18:23.64	309.01	15.10	-38.2	-39.9	14.3	0.00e+00	0	58	0	1053818880	47	4287
2026-01-29 06:18:26.67	308.37	15.06	-38.3	-40.1	14.2	4.50e-06	0	58	0	1075838976	47	4360
2026-01-29 06:18:29.70	307.73	15.01	-38.3	-40.1	14.2	2.20e-06	0	58	0	1096810496	47	4352
2026-01-29 06:18:32.74	307.10	14.96	-38.3	-40.0	14.2	2.20e-06	0	58	0	1118830592	47	4338
2026-01-29 06:18:35.77	306.46	14.90	-38.3	-40.1	14.2	0.00e+00	0	58	0	1140850688	47	4344
2026-01-29 06:18:38.80	305.83	14.84	-38.2	-40.0	14.3	2.20e-06	0	58	0	1162870784	47	4298
2026-01-29 06:18:41.84	305.20	14.78	-38.3	-40.2	14.1	2.20e-06	0	58	0	1184890880	47	4392
2026-01-29 06:18:44.87	304.58	14.72	-38.3	-40.1	14.1	0.00e+00	0	58	0	1206910976	47	4376
2026-01-29 06:18:47.90	303.95	14.65	-38.3	-40.1	14.1	2.20e-06	0	58	0	1228931072	47	4386
2026-01-29 06:18:50.93	303.33	14.58	-38.3	-40.1	14.1	1.10e-06	0	58	0	1250951168	47	4377
2026-01-29 06:18:53.96	302.72	14.50	-38.3	-40.1	14.1	0.00e+00	0	58	0	1272971264	47	4382
2026-01-29 06:18:56.99	302.10	14.42	-38.4	-40.2	14.0	2.20e-06	0	59	0	1293942784	47	4413
2026-01-29 06:19:00.02	301.49	14.34	-38.4	-40.2	13.9	3.40e-06	0	58	0	1315962880	47	4434
2026-01-29 06:19:03.05	300.89	14.26	-38.3	-40.2	14.0	1.10e-06	0	58	0	1337982976	47	4394
2026-01-29 06:19:06.08	300.28	14.17	-38.3	-40.2	13.9	3.40e-06	0	58	0	1360003072	47	4407
2026-01-29 06:19:09.11	299.68	14.09	-38.3	-40.1	14.1	2.20e-06	0	59	0	1382023168	47	4351
2026-01-29 06:19:12.13	299.09	13.99	-38.5	-40.4	13.7	4.50e-06	0	58	0	1404043264	47	4533
2026-01-29 06:19:15.16	298.50	13.90	-38.8	-40.8	13.3	1.71e-05	0	59	0	1426063360	47	4727
2026-01-29 06:19:18.19	297.91	13.80	-38.5	-40.4	13.7	1.02e-05	0	58	0	1447034880	47	4525
2026-01-29 06:19:21.23	297.32	13.70	-38.4	-40.2	13.9	6.80e-06	0	58	0	1469054976	47	4412
2026-01-29 06:19:24.26	296.74	13.60	-38.5	-40.4	13.7	5.70e-06	0	58	0	1491075072	47	4512
2026-01-29 06:19:27.29	296.16	13.50	-38.7	-40.6	13.4	1.25e-05	0	58	0	1513095168	47	4629
2026-01-29 06:19:30.32	295.59	13.39	-38.7	-40.8	13.2	2.51e-05	0	59	0	1535115264	47	4707
2026-01-29 06:19:33.35	295.02	13.28	-38.5	-40.5	13.3	2.17e-05	0	58	0	1556086784	47	4572
2026-01-29 06:19:36.39	294.46	13.17	-38.4	-40.3	13.5	1.25e-05	0	58	0	1578106880	47	4461
2026-01-29 06:19:39.41	293.90	13.05	-38.3	-40.2	13.4	6.80e-06	0	58	0	1600126976	47	4417
2026-01-29 06:19:42.44	293.34	12.94	-38.4	-40.5	12.9	4.80e-05	0	58	0	1622147072	47	4552
2026-01-29 06:19:45.47	292.79	12.82	-38.7	-40.8	12.3	1.88e-04	0	58	0	1644167168	47	4752
2026-01-29 06:19:48.50	292.24	12.70	-38.7	-40.9	12.3	2.23e-04	0	59	0	1666187264	47	4807
2026-01-29 06:19:51.53	291.70	12.58	-38.7	-40.9	12.1	2.80e-04	0	59	0	1688207360	47	4814
2026-01-29 06:19:54.56	291.17	12.45	-38.7	-41.0	12.0	3.32e-04	0	59	0	1710227456	47	4833
2026-01-29 06:19:57.60	290.63	12.33	-38.8	-41.1	11.9	4.46e-04	0	58	0	1731198976	47	4890
2026-01-29 06:20:00.63	290.10	12.20	-38.8	-41.2	11.7	5.53e-04	0	58	0	1753219072	47	4931
2026-01-29 06:20:03.66	289.58	12.07	-39.0	-41.6	11.2	1.21e-03	0	58	0	1775239168	47	5166
2026-01-29 06:20:06.69	289.06	11.94	-39.6	-42.6	10.1	6.63e-03	0	59	0	1797259264	48	5471
2026-01-29 06:20:09.72	288.54	11.81	-40.0	-43.4	8.9	2.74e-02	0	59	0	1819279360	49	5699
2026-01-29 06:20:12.75	288.03	11.68	-40.5	-44.7	7.4	1.02e-01	0	59	0	1841299456	50	6234
2026-01-29 06:20:15.78	287.53	11.54	-40.9	-46.0	6.1	2.97e-01	0	58	0	1863319552	51	6836
2026-01-29 06:20:18.82	287.03	11.40	-40.5	-51.2	3.8	8.43e-01	0	59	104	1880096768	52	11794
2026-01-29 06:20:21.85	286.53	11.27	-41.2	-46.8	5.6	6.72e-01	0	59	0	1883242496	53	6667
2026-01-29 06:20:24.88	286.04	11.13	-41.3	-47.1	5.4	7.01e-01	0	58	0	1893728256	53	6925
2026-01-29 06:20:27.91	285.55	10.99	-41.9	-48.0	5.1	7.60e-01	0	58	0	1896873984	53	7684
2026-01-29 06:20:30.95	285.07	10.84	-42.4	-51.7	3.8	8.46e-01	0	58	104	1897922560	54	11032
2026-01-29 06:20:33.98	284.59	10.70	-41.4	-46.8	5.8	5.40e-01	0	58	0	1900019712	53	6674
2026-01-29 06:20:37.01	284.12	10.56	-41.4	-45.9	6.9	1.87e-01	0	59	0	1922039808	53	6061
2026-01-29 06:20:40.04	283.66	10.41	-40.8	-44.6	8.2	5.72e-02	0	59	0	1943011328	52	5514
2026-01-29 06:20:43.07	283.19	10.27	-40.7	-45.0	7.3	6.26e-02	0	59	0	1953497088	51	6079
2026-01-29 06:20:46.10	282.73	10.12	-39.3	-42.1	10.7	3.28e-03	0	59	0	1975517184	49	4880
2026-01-29 06:20:49.12	282.28	9.97	-39.2	-41.9	10.8	2.73e-03	0	59	0	1997537280	49	4784
2026-01-29 06:20:52.16	281.83	9.83	-39.1	-41.6	11.2	1.33e-03	0	59	0	2019557376	49	4643
2026-01-29 06:20:55.19	281.39	9.68	-39.7	-42.5	10.3	5.34e-03	0	59	0	2041577472	49	5144
2026-01-29 06:20:58.23	280.95	9.53	-40.0	-43.1	9.6	1.24e-02	0	59	0	2063597568	49	5481
2026-01-29 06:21:01.25	280.51	9.38	-40.2	-43.6	8.9	2.31e-02	0	59	0	2085617664	49	5822
2026-01-29 06:21:04.29	280.08	9.22	-40.6	-44.6	7.7	8.58e-02	0	59	0	2106589184	50	6166
2026-01-29 06:21:07.32	279.65	9.07	-40.9	-45.6	6.5	2.35e-01	0	59	0	2128609280	51	6540
2026-01-29 06:21:10.35	279.23	8.92	-41.1	-46.8	5.5	7.34e-01	0	59	0	2145386496	51	7505
2026-01-29 06:21:13.38	278.82	8.77	-41.7	-49.6	3.9	8.46e-01	0	59	104	2149580800	53	9256
2026-01-29 06:21:16.41	278.40	8.61	-41.5	-48.0	4.9	7.83e-01	0	59	0	2149580800	53	7681
2026-01-29 06:21:19.44	278.00	8.46	-41.4	-48.7	4.4	8.24e-01	0	59	0	2149580800	53	8331
2026-01-29 06:21:22.48	277.59	8.31	-40.5	-51.2	3.8	8.47e-01	0	59	104	2149580800	52	11786
2026-01-29 06:21:25.51	277.19	8.15	-41.3	-50.2	3.9	8.46e-01	0	59	104	2149580800	52	10487
2026-01-29 06:21:28.54	276.80	8.00	-42.1	-50.6	3.8	8.44e-01	0	59	104	2149580800	53	10304
2026-01-29 06:21:31.57	276.40	7.84	-45.2	-56.0	3.8	8.46e-01	0	59	104	2149580800	59	13723
2026-01-29 06:21:34.60	276.02	7.69	-45.3	-56.5	3.8	8.47e-01	0	59	104	2149580800	60	13617
2026-01-29 06:21:37.63	275.63	7.53	-45.4	-56.5	3.8	8.46e-01	0	59	104	2149580800	60	13714
2026-01-29 06:21:40.66	275.26	7.37	-45.1	-56.4	3.8	8.46e-01	0	59	104	2149580800	60	13538
2026-01-29 06:21:43.69	274.88	7.22	-45.2	-56.5	3.8	8.45e-01	0	59	104	2149580800	60	13574
2026-01-29 06:21:46.72	274.51	7.06	-45.2	-56.4	3.8	8.46e-01	0	59	104	2149580800	60	13479
2026-01-29 06:21:49.75	274.14	6.91	-45.2	-56.4	3.8	8.46e-01	0	59	104	2149580800	60	13489
2026-01-29 06:21:52.78	273.78	6.75	-45.2	-56.4	3.8	8.45e-01	0	59	104	2149580800	60	13474
2026-01-29 06:21:55.81	273.42	6.59	-45.2	-56.4	3.8	8.46e-01	0	59	104	2149580800	60	13433
2026-01-29 06:21:58.85	273.07	6.43	-45.2	-56.4	3.8	8.45e-01	0	59	104	2149580800	60	13427
2026-01-29 06:22:01.88	272.72	6.28	-45.1	-56.4	3.8	8.48e-01	0	59	104	2149580800	60	13423
2026-01-29 06:22:04.91	272.37	6.12	-45.1	-56.4	3.8	8.46e-01	0	59	104	2149580800	60	13417
2026-01-29 06:22:07.94	272.03	5.96	-45.1	-56.3	3.8	8.46e-01	0	59	104	2149580800	60	13398
2026-01-29 06:22:10.97	271.69	5.81	-45.1	-56.3	3.8	8.48e-01	0	59	104	2149580800	60	13410
2026-01-29 06:22:14.00	271.35	5.65	-45.1	-56.3	3.8	8.46e-01	0	59	104	2149580800	60	13368
2026-01-29 06:22:17.03	271.02	5.49	-45.1	-56.3	3.8	8.45e-01	0	59	104	2149580800	60	13402
2026-01-29 06:22:20.07	270.69	5.34	-45.1	-56.4	3.8	8.47e-01	0	59	104	2149580800	60	13418
2026-01-29 06:22:23.10	270.37	5.18	-45.0	-56.1	3.8	8.47e-01	0	59	104	2149580800	59	13730
2026-01-29 06:22:26.13	270.05	5.02	-45.2	-56.1	3.8	8.47e-01	0	59	104	2149580800	59	13820
2026-01-29 06:22:29.16	269.73	4.87	-45.1	-56.3	3.8	8.46e-01	0	59	104	2149580800	60	13402
2026-01-29 06:22:32.19	269.42	4.71	-45.1	-56.3	3.8	8.46e-01	0	59	104	2149580800	60	13384
2026-01-29 06:22:35.22	269.10	4.55	-45.2	-56.1	3.8	8.46e-01	0	59	104	2149580800	59	13840
2026-01-29 06:22:38.26	268.80	4.40	-45.1	-56.3	3.8	8.46e-01	0	59	104	2149580800	60	13371
2026-01-29 06:22:41.29	268.49	4.24	-45.1	-56.3	3.8	8.47e-01	0	59	104	2149580800	60	13375
2026-01-29 06:22:44.31	268.19	4.08	-45.2	-56.1	3.8	8.46e-01	0	59	104	2149580800	59	13831
2026-01-29 06:22:47.34	267.90	3.93	-45.1	-56.3	3.8	8.48e-01	0	59	104	2149580800	60	13354
2026-01-29 06:22:50.38	267.60	3.77	-44.7	-56.2	3.8	8.47e-01	0	59	104	2149580800	60	13152
2026-01-29 06:22:53.41	267.31	3.62	-45.2	-56.1	3.8	8.47e-01	0	59	104	2149580800	59	13807
2026-01-29 06:22:56.44	267.02	3.46	-45.2	-56.1	3.8	8.46e-01	0	59	104	2149580800	59	13816
2026-01-29 06:22:59.47	266.74	3.31	-45.2	-56.1	3.8	8.47e-01	0	59	104	2149580800	59	13828
2026-01-29 06:23:02.50	266.45	3.15	-45.2	-56.1	3.8	8.46e-01	0	59	104	2149580800	59	13799
2026-01-29 06:23:05.53	266.18	3.00	-45.2	-56.1	3.8	8.46e-01	0	59	104	2149580800	59	13811
2026-01-29 06:23:08.56	265.90	2.84	-45.2	-56.1	3.8	8.46e-01	0	59	104	2149580800	58	14596
2026-01-29 06:23:11.60	265.63	2.69	-45.2	-56.1	3.8	8.46e-01	0	59	104	2149580800	59	13777
2026-01-29 06:23:14.63	265.36	2.54	-45.2	-56.1	3.8	8.46e-01	0	59	104	2149580800	59	13793
2026-01-29 06:23:17.66	265.09	2.38	-45.2	-56.1	3.8	8.47e-01	0	59	104	2149580800	59	13809
2026-01-29 06:23:20.69	264.83	2.23	-45.2	-56.1	3.8	8.46e-01	0	59	104	2149580800	59	13778
2026-01-29 06:23:23.72	264.56	2.08	-45.2	-56.1	3.8	8.46e-01	0	59	104	2149580800	59	13821
2026-01-29 06:23:26.75	264.31	1.92	-45.2	-56.1	3.8	8.46e-01	0	59	104	2149580800	59	13847

#Closed at: 2026-01-29 06:23:27
#Recorded file [2149 MB]: D:/lorett/data/31039_260129_091210.dat