passes_logs/2026/01/29/R2.0S_Moscow/R2.0S_Moscow__20260129_003251_NOAA_20_JPSS-1_rec.log

#Pass ID: 20260129_003251_NOAA 20 (JPSS-1)
#Satellite: NOAA 20 (JPSS-1)
#Configuration: NOAA 20
#almurnet v.1.7.20251203
#Start time: 2026-01-29 00:32:52

#Version: 2.2.20231116
#Station: R2.0S_Moscow
#Location: 37.707566 lon 55.798166 lat
#TLE: 1 43013U 17073A   26027.80586608  .00000156  00000+0  94940-4 0  9998
#TLE: 2 43013  98.7647 328.6108 0000947  21.3465 338.7750 14.19541216424550

#Time	Az	El	Level	Level2	SNR	BER	BlckErr	Temp	State	Recorded	gain1	gain2
2026-01-29 00:32:52.48	12.73	2.05	-40.0	-54.4	3.8	1.49e+00	0	50	0	0	52	17969
2026-01-29 00:32:56.51	12.60	2.30	-40.1	-54.4	3.8	1.49e+00	0	51	104	0	51	19083
2026-01-29 00:33:00.55	12.46	2.55	-40.1	-54.4	3.8	1.49e+00	0	51	104	0	51	19152
2026-01-29 00:33:04.58	12.32	2.81	-40.1	-54.4	3.8	1.49e+00	0	51	104	0	51	19000
2026-01-29 00:33:08.63	12.17	3.06	-40.0	-54.4	3.8	1.49e+00	0	51	104	0	51	19099
2026-01-29 00:33:12.67	12.03	3.32	-40.1	-54.4	3.8	1.49e+00	0	52	104	0	51	19091
2026-01-29 00:33:16.71	11.88	3.59	-40.1	-54.4	3.8	1.49e+00	0	52	104	0	51	19051
2026-01-29 00:33:20.75	11.72	3.85	-40.1	-54.4	3.8	1.49e+00	0	52	104	0	51	18970
2026-01-29 00:33:24.79	11.57	4.12	-40.0	-54.4	3.8	1.49e+00	0	52	104	0	51	18979
2026-01-29 00:33:28.83	11.41	4.39	-40.0	-54.4	3.8	1.49e+00	0	53	104	0	51	18983
2026-01-29 00:33:32.87	11.24	4.66	-40.0	-54.3	3.8	1.49e+00	0	53	104	0	51	18911
2026-01-29 00:33:36.91	11.08	4.93	-40.0	-54.3	3.8	1.49e+00	0	53	104	0	51	18869
2026-01-29 00:33:40.96	10.91	5.21	-40.0	-54.3	3.8	1.49e+00	0	53	104	0	51	18846
2026-01-29 00:33:45.00	10.74	5.49	-40.0	-54.3	3.8	1.49e+00	0	54	104	0	51	18873
2026-01-29 00:33:49.04	10.56	5.77	-40.0	-54.3	3.8	1.49e+00	0	53	104	0	51	18897
2026-01-29 00:33:53.08	10.38	6.05	-40.0	-54.4	3.8	1.49e+00	0	54	104	0	51	18971
2026-01-29 00:33:57.12	10.19	6.34	-40.0	-54.4	3.8	1.49e+00	0	54	104	0	51	18963
2026-01-29 00:34:01.16	10.01	6.63	-40.0	-54.4	3.8	1.49e+00	0	54	104	0	51	18989
2026-01-29 00:34:05.21	9.81	6.93	-40.0	-54.4	3.8	1.49e+00	0	54	104	0	51	18969
2026-01-29 00:34:09.25	9.61	7.22	-40.0	-54.3	3.8	1.49e+00	0	54	104	0	51	18944
2026-01-29 00:34:13.29	9.41	7.52	-40.0	-54.3	3.8	1.49e+00	0	55	104	0	51	18933
2026-01-29 00:34:17.33	9.21	7.83	-40.0	-54.4	3.8	1.49e+00	0	55	104	0	51	19033
2026-01-29 00:34:21.37	9.00	8.13	-40.0	-54.4	3.8	1.49e+00	0	55	104	0	51	18986
2026-01-29 00:34:25.40	8.78	8.44	-40.2	-54.5	3.8	1.49e+00	0	55	104	0	51	19377
2026-01-29 00:34:29.44	8.56	8.75	-40.1	-54.5	3.8	1.49e+00	0	55	104	0	51	19237
2026-01-29 00:34:33.48	8.34	9.07	-40.1	-54.4	3.8	1.49e+00	0	56	104	0	51	19103
2026-01-29 00:34:37.53	8.10	9.39	-40.0	-54.4	3.8	1.49e+00	0	55	104	0	51	18952
2026-01-29 00:34:41.57	7.87	9.71	-40.0	-54.4	3.8	1.49e+00	0	56	104	0	51	18957
2026-01-29 00:34:45.61	7.63	10.04	-40.1	-54.4	3.8	1.49e+00	0	56	104	0	51	19164
2026-01-29 00:34:49.64	7.38	10.37	-40.3	-54.5	3.8	1.49e+00	0	56	104	0	51	19327
2026-01-29 00:34:53.68	7.13	10.71	-39.9	-54.3	3.8	1.49e+00	0	56	104	0	51	18795
2026-01-29 00:34:57.72	6.86	11.05	-40.1	-54.4	3.8	1.49e+00	0	56	104	0	51	19088
2026-01-29 00:35:01.76	6.60	11.39	-40.7	-53.7	3.8	1.49e+00	0	56	104	0	52	16505
2026-01-29 00:35:05.80	6.32	11.74	-41.1	-51.6	4.4	1.38e+00	86	56	0	0	52	13086
2026-01-29 00:35:09.84	6.04	12.09	-41.4	-48.6	7.0	2.54e-01	0	56	0	7340032	54	8179
2026-01-29 00:35:13.88	5.76	12.45	-39.9	-44.5	10.6	4.93e-02	0	56	0	13631488	51	6124
2026-01-29 00:35:17.92	5.46	12.81	-40.2	-44.5	11.2	1.43e-03	0	56	0	20971520	51	6130
2026-01-29 00:35:21.96	5.16	13.17	-40.4	-44.8	11.2	2.52e-03	0	57	0	28311552	51	6280
2026-01-29 00:35:26.00	4.85	13.54	-40.2	-44.1	12.2	2.25e-04	0	57	0	35651584	51	5814
2026-01-29 00:35:30.04	4.53	13.92	-40.5	-44.5	12.0	2.66e-04	0	56	0	42991616	51	6130
2026-01-29 00:35:34.08	4.20	14.30	-40.8	-45.0	11.6	6.22e-04	0	57	0	51380224	52	6100
2026-01-29 00:35:38.12	3.86	14.68	-40.6	-44.3	12.7	8.46e-05	0	57	0	58720256	52	5611
2026-01-29 00:35:42.16	3.52	15.07	-40.8	-44.5	12.7	1.01e-04	0	57	0	66060288	52	5731
2026-01-29 00:35:46.20	3.16	15.47	-40.9	-44.5	12.9	4.88e-05	0	57	0	73400320	52	5757
2026-01-29 00:35:50.24	2.80	15.87	-41.0	-44.7	12.8	6.48e-05	0	57	0	81788928	52	5881
2026-01-29 00:35:54.29	2.42	16.27	-41.2	-44.8	12.8	7.09e-05	0	57	0	89128960	52	5978
2026-01-29 00:35:58.33	2.03	16.69	-41.2	-44.8	12.8	7.70e-05	0	57	0	96468992	53	5652
2026-01-29 00:36:02.37	1.64	17.10	-41.3	-45.0	12.6	7.55e-05	0	57	0	103809024	53	5788
2026-01-29 00:36:06.40	1.23	17.52	-41.4	-45.1	12.6	1.03e-04	0	57	0	111149056	53	5844
2026-01-29 00:36:10.44	0.81	17.95	-41.5	-45.3	12.4	1.30e-04	0	57	0	119537664	53	5988
2026-01-29 00:36:14.48	0.37	18.39	-41.5	-45.4	12.3	1.57e-04	0	57	0	126877696	53	6017
2026-01-29 00:36:18.53	359.92	18.83	-41.4	-45.2	12.5	1.28e-04	0	57	0	134217728	53	5878
2026-01-29 00:36:22.57	359.46	19.28	-41.5	-45.3	12.5	1.08e-04	0	58	0	141557760	53	5956
2026-01-29 00:36:26.61	358.99	19.73	-41.6	-45.5	12.3	1.76e-04	0	58	0	149946368	53	6074
2026-01-29 00:36:30.65	358.50	20.19	-41.5	-45.4	12.3	2.48e-04	0	57	0	157286400	53	6020
2026-01-29 00:36:34.69	357.99	20.65	-41.5	-45.5	12.1	2.72e-04	0	57	0	164626432	53	6097
2026-01-29 00:36:38.73	357.47	21.12	-41.5	-45.6	11.9	3.48e-04	0	58	0	171966464	53	6168
2026-01-29 00:36:42.77	356.93	21.60	-41.5	-45.6	12.0	3.38e-04	0	58	0	179306496	53	6137
2026-01-29 00:36:46.80	356.38	22.08	-41.5	-45.5	12.1	3.32e-04	0	57	0	187695104	53	6095
2026-01-29 00:36:50.84	355.80	22.57	-41.6	-45.7	12.1	2.76e-04	0	58	0	195035136	53	6219
2026-01-29 00:36:54.88	355.21	23.07	-41.6	-45.6	12.2	2.29e-04	0	58	0	202375168	53	6137
2026-01-29 00:36:58.92	354.60	23.57	-41.5	-45.3	12.4	1.01e-04	0	58	0	209715200	53	5981
2026-01-29 00:37:02.94	353.97	24.08	-41.7	-45.5	12.3	1.69e-04	0	58	0	218103808	53	6118
2026-01-29 00:37:06.98	353.32	24.59	-41.7	-45.5	12.4	1.43e-04	0	58	0	225443840	54	5777
2026-01-29 00:37:11.02	352.64	25.11	-41.7	-45.4	12.5	9.00e-05	0	58	0	232783872	54	5715
2026-01-29 00:37:15.06	351.94	25.64	-41.7	-45.4	12.6	9.91e-05	0	58	0	240123904	54	5689
2026-01-29 00:37:19.10	351.22	26.17	-41.7	-45.4	12.7	1.09e-04	0	58	0	247463936	54	5687
2026-01-29 00:37:23.14	350.47	26.71	-41.7	-45.5	12.6	1.28e-04	0	58	0	255852544	54	5750
2026-01-29 00:37:27.18	349.69	27.25	-41.8	-45.6	12.5	1.01e-04	0	58	0	263192576	54	5833
2026-01-29 00:37:31.22	348.89	27.80	-42.0	-45.9	12.3	1.64e-04	0	58	0	270532608	54	5999
2026-01-29 00:37:35.26	348.06	28.35	-42.2	-46.3	11.8	3.92e-04	0	58	0	277872640	54	6343
2026-01-29 00:37:39.30	347.20	28.91	-42.5	-47.0	11.0	1.62e-03	0	58	0	286261248	55	6464
2026-01-29 00:37:43.34	346.30	29.47	-42.9	-47.8	10.4	4.02e-03	0	58	0	293601280	56	6672
2026-01-29 00:37:47.38	345.38	30.03	-43.3	-48.8	9.4	1.35e-02	0	58	0	300941312	57	7064
2026-01-29 00:37:51.42	344.42	30.60	-43.4	-49.1	9.0	2.50e-02	0	58	0	308281344	57	7355
2026-01-29 00:37:55.46	343.43	31.17	-43.2	-48.7	9.4	2.00e-02	0	58	0	315621376	57	7006
2026-01-29 00:37:59.50	342.40	31.73	-43.2	-48.6	9.6	1.34e-02	0	58	0	324009984	57	6887
2026-01-29 00:38:03.54	341.34	32.30	-43.1	-48.3	10.0	7.64e-03	0	58	0	331350016	57	6660
2026-01-29 00:38:07.58	340.23	32.87	-43.4	-49.0	9.2	2.05e-02	0	58	0	338690048	57	7250
2026-01-29 00:38:11.62	339.09	33.43	-43.1	-48.3	10.0	8.48e-03	0	58	0	346030080	57	6656
2026-01-29 00:38:15.67	337.90	34.00	-42.9	-47.6	10.7	2.96e-03	0	58	0	354418688	57	6170
2026-01-29 00:38:19.71	336.68	34.56	-42.7	-47.1	11.2	1.58e-03	0	58	0	361758720	57	5822
2026-01-29 00:38:23.75	335.41	35.11	-42.4	-46.5	12.0	4.29e-04	0	58	0	369098752	56	5741
2026-01-29 00:38:27.79	334.10	35.65	-42.5	-46.7	11.7	4.71e-04	0	58	0	376438784	56	5888
2026-01-29 00:38:31.83	332.74	36.19	-42.6	-46.9	11.6	6.77e-04	0	59	0	384827392	56	5996
2026-01-29 00:38:35.86	331.34	36.72	-42.7	-47.1	11.2	1.04e-03	0	59	0	392167424	56	6195
2026-01-29 00:38:39.90	329.89	37.23	-42.7	-47.1	11.4	1.12e-03	0	58	0	399507456	56	6156
2026-01-29 00:38:43.94	328.39	37.73	-43.0	-47.8	10.6	3.49e-03	0	58	0	406847488	56	6665
2026-01-29 00:38:47.98	326.85	38.22	-42.9	-47.5	10.8	3.14e-03	0	59	0	414187520	56	6488
2026-01-29 00:38:52.02	325.27	38.68	-43.0	-47.7	10.7	3.05e-03	0	58	0	422576128	56	6593
2026-01-29 00:38:56.06	323.63	39.13	-42.8	-47.2	11.2	1.40e-03	0	58	0	429916160	56	6259
2026-01-29 00:39:00.11	321.95	39.56	-42.0	-45.6	12.9	4.88e-05	0	58	0	437256192	56	5203
2026-01-29 00:39:04.14	320.23	39.96	-41.8	-45.3	13.1	3.28e-05	0	58	0	444596224	55	5282
2026-01-29 00:39:08.19	318.46	40.34	-41.6	-45.1	13.3	2.05e-05	0	59	0	452984832	55	5161
2026-01-29 00:39:12.23	316.66	40.69	-42.1	-46.0	12.3	1.41e-04	0	59	0	460324864	55	5759
2026-01-29 00:39:16.27	314.81	41.01	-41.7	-45.2	13.2	2.28e-05	0	58	0	467664896	55	5249
2026-01-29 00:39:20.31	312.94	41.29	-41.6	-44.9	13.5	1.22e-05	0	58	0	475004928	54	5351
2026-01-29 00:39:24.35	311.03	41.55	-41.4	-44.7	13.7	3.00e-06	0	59	0	482344960	54	5260
2026-01-29 00:39:28.39	309.09	41.77	-41.1	-44.0	14.3	7.00e-07	0	59	0	490733568	54	4863
2026-01-29 00:39:32.42	307.13	41.95	-41.1	-44.0	14.3	7.00e-07	0	59	0	498073600	54	4858
2026-01-29 00:39:36.46	305.15	42.09	-41.1	-44.2	14.2	3.00e-06	0	58	0	505413632	54	4939
2026-01-29 00:39:40.50	303.15	42.20	-41.3	-44.5	13.9	3.80e-06	0	59	0	512753664	54	5123
2026-01-29 00:39:44.54	301.14	42.27	-41.5	-44.9	13.5	1.29e-05	0	58	0	521142272	54	5355
2026-01-29 00:39:48.58	299.12	42.30	-41.6	-45.0	13.3	1.52e-05	0	58	0	528482304	54	5416
2026-01-29 00:39:52.62	297.10	42.28	-42.1	-46.0	12.3	1.70e-04	0	59	0	535822336	54	6075
2026-01-29 00:39:56.66	295.09	42.23	-42.2	-46.1	12.2	2.08e-04	0	59	0	543162368	55	5813
2026-01-29 00:40:00.70	293.08	42.14	-42.5	-46.8	11.5	6.00e-04	0	59	0	550502400	55	6295
2026-01-29 00:40:04.74	291.09	42.01	-42.8	-47.3	11.1	1.97e-03	0	58	0	558891008	56	6321
2026-01-29 00:40:08.78	289.12	41.84	-43.1	-48.0	10.4	3.21e-03	0	59	0	566231040	56	6840
2026-01-29 00:40:12.82	287.17	41.63	-43.5	-49.2	9.2	2.81e-02	0	59	0	573571072	57	7442
2026-01-29 00:40:16.86	285.25	41.39	-43.6	-49.4	8.9	2.20e-02	0	59	0	580911104	57	7560
2026-01-29 00:40:20.90	283.35	41.11	-43.2	-48.3	10.2	7.52e-03	0	58	0	589299712	57	6671
2026-01-29 00:40:24.93	281.50	40.80	-42.5	-46.7	11.7	8.36e-04	0	59	0	596639744	57	5544
2026-01-29 00:40:28.97	279.68	40.47	-42.3	-46.2	12.3	1.85e-04	0	58	0	603979776	56	5549
2026-01-29 00:40:33.01	277.89	40.10	-41.3	-44.5	13.8	3.80e-06	0	58	0	611319808	54	5137
2026-01-29 00:40:37.06	276.15	39.70	-41.5	-44.9	13.5	1.14e-05	0	59	0	618659840	53	5689
2026-01-29 00:40:41.10	274.45	39.28	-40.6	-43.3	15.1	0.00e+00	0	59	0	627048448	53	4737
2026-01-29 00:40:45.13	272.80	38.84	-40.7	-43.5	14.9	0.00e+00	0	59	0	634388480	52	5147
2026-01-29 00:40:49.17	271.19	38.38	-40.7	-43.6	14.8	1.50e-06	0	59	0	641728512	52	5165
2026-01-29 00:40:53.21	269.63	37.90	-40.3	-43.0	15.4	0.00e+00	0	59	0	649068544	52	4831
2026-01-29 00:40:57.25	268.11	37.40	-41.1	-44.2	14.1	7.00e-07	0	59	0	657457152	52	5576
2026-01-29 00:41:01.29	266.64	36.89	-40.9	-43.8	14.5	0.00e+00	0	59	0	664797184	53	5010
2026-01-29 00:41:05.33	265.22	36.37	-41.0	-44.0	14.4	1.50e-06	0	59	0	672137216	53	5118
2026-01-29 00:41:09.37	263.84	35.83	-41.2	-44.3	14.0	4.50e-06	0	59	0	679477248	53	5334
2026-01-29 00:41:13.41	262.51	35.29	-41.2	-44.3	14.0	7.00e-07	0	58	0	686817280	53	5338
2026-01-29 00:41:17.44	261.22	34.74	-41.8	-45.4	12.9	3.73e-05	0	58	0	695205888	54	5674
2026-01-29 00:41:21.48	259.98	34.18	-42.1	-46.0	12.3	1.33e-04	0	59	0	702545920	54	6089
2026-01-29 00:41:25.52	258.77	33.61	-42.3	-46.5	11.7	5.35e-04	0	59	0	709885952	55	6128
2026-01-29 00:41:29.56	257.61	33.05	-42.6	-47.2	11.0	1.83e-03	0	59	0	717225984	55	6625
2026-01-29 00:41:33.60	256.49	32.48	-42.9	-47.7	10.6	2.80e-03	0	59	0	725614592	56	6607
2026-01-29 00:41:37.63	255.41	31.91	-43.1	-48.3	10.0	8.85e-03	0	59	0	732954624	56	7069
2026-01-29 00:41:41.68	254.36	31.34	-42.9	-47.8	10.5	3.29e-03	0	59	0	740294656	56	6668
2026-01-29 00:41:45.72	253.35	30.77	-43.1	-48.2	10.1	7.87e-03	0	59	0	747634688	56	6969
2026-01-29 00:41:49.76	252.38	30.20	-42.8	-47.5	10.8	2.59e-03	0	59	0	754974720	56	6485
2026-01-29 00:41:53.80	251.44	29.63	-42.7	-47.3	10.9	1.79e-03	0	59	0	763363328	56	6332
2026-01-29 00:41:57.84	250.53	29.07	-42.4	-46.6	11.7	4.44e-04	0	59	0	770703360	56	5805
2026-01-29 00:42:01.88	249.65	28.51	-42.1	-45.9	12.5	1.05e-04	0	59	0	778043392	56	5346
2026-01-29 00:42:05.92	248.81	27.95	-42.1	-46.0	12.3	1.75e-04	0	59	0	785383424	56	5433
2026-01-29 00:42:09.96	247.99	27.40	-42.0	-45.8	12.5	1.29e-04	0	59	0	793772032	56	5332
2026-01-29 00:42:13.99	247.20	26.86	-41.6	-45.2	12.9	6.94e-05	0	59	0	801112064	55	5272
2026-01-29 00:42:18.03	246.44	26.31	-41.7	-45.3	12.9	5.18e-05	0	59	0	808452096	55	5316
2026-01-29 00:42:22.07	245.70	25.78	-41.8	-45.5	12.6	8.77e-05	0	59	0	815792128	55	5408
2026-01-29 00:42:26.11	244.99	25.25	-41.8	-45.6	12.5	1.14e-04	0	59	0	823132160	55	5516
2026-01-29 00:42:30.14	244.30	24.72	-41.7	-45.4	12.7	8.39e-05	0	59	0	831520768	55	5369
2026-01-29 00:42:34.18	243.64	24.20	-41.8	-45.5	12.6	8.16e-05	0	59	0	838860800	55	5425
2026-01-29 00:42:38.22	242.99	23.69	-41.6	-45.2	12.9	4.95e-05	0	59	0	846200832	55	5274
2026-01-29 00:42:42.26	242.37	23.18	-41.8	-45.7	12.4	1.40e-04	0	59	0	853540864	55	5553
2026-01-29 00:42:46.30	241.77	22.68	-42.0	-46.0	12.1	2.55e-04	0	59	0	861929472	55	5726
2026-01-29 00:42:50.34	241.18	22.19	-41.8	-45.6	12.5	1.15e-04	0	59	0	869269504	55	5475
2026-01-29 00:42:54.38	240.62	21.70	-41.7	-45.4	12.7	7.55e-05	0	59	0	876609536	55	5361
2026-01-29 00:42:58.42	240.07	21.22	-41.8	-45.7	12.3	1.45e-04	0	59	0	883949568	55	5568
2026-01-29 00:43:02.46	239.54	20.74	-42.0	-46.0	12.0	3.58e-04	0	59	0	891289600	55	5780
2026-01-29 00:43:06.50	239.03	20.27	-42.0	-46.0	12.0	3.05e-04	0	59	0	899678208	55	5737
2026-01-29 00:43:10.53	238.53	19.81	-41.8	-45.7	12.3	1.65e-04	0	59	0	907018240	55	5536
2026-01-29 00:43:14.57	238.04	19.35	-41.8	-45.7	12.4	1.65e-04	0	59	0	914358272	55	5531
2026-01-29 00:43:18.61	237.57	18.90	-41.9	-45.8	12.2	2.15e-04	0	59	0	921698304	55	5599
2026-01-29 00:43:22.65	237.12	18.46	-41.9	-45.9	12.1	3.15e-04	0	59	0	930086912	55	5696
2026-01-29 00:43:26.69	236.68	18.02	-41.9	-46.0	12.0	4.01e-04	0	59	0	937426944	55	5743
2026-01-29 00:43:30.73	236.25	17.59	-41.7	-45.6	12.4	1.63e-04	0	59	0	944766976	55	5482
2026-01-29 00:43:34.77	235.83	17.16	-41.7	-45.5	12.4	1.40e-04	0	59	0	952107008	55	5434
2026-01-29 00:43:38.82	235.42	16.74	-41.6	-45.4	12.5	1.74e-04	0	59	0	959447040	55	5394
2026-01-29 00:43:42.86	235.03	16.33	-41.5	-45.2	12.7	1.12e-04	0	59	0	967835648	55	5265
2026-01-29 00:43:46.90	234.64	15.92	-41.5	-45.3	12.7	6.40e-05	0	59	0	975175680	54	5601
2026-01-29 00:43:50.94	234.27	15.51	-41.7	-45.5	12.3	1.66e-04	0	59	0	982515712	54	5779
2026-01-29 00:43:54.98	233.91	15.11	-41.9	-46.0	11.9	5.03e-04	0	59	0	989855744	54	6070
2026-01-29 00:43:59.02	233.56	14.72	-41.9	-46.2	11.6	6.39e-04	0	59	0	998244352	54	6214
2026-01-29 00:44:03.06	233.21	14.33	-41.9	-46.0	11.8	5.69e-04	0	59	0	1005584384	54	6122
2026-01-29 00:44:07.10	232.88	13.95	-41.8	-46.0	11.8	4.59e-04	0	59	0	1012924416	54	6084
2026-01-29 00:44:11.14	232.55	13.57	-41.9	-46.1	11.6	5.77e-04	0	59	0	1020264448	54	6170
2026-01-29 00:44:15.18	232.23	13.20	-42.1	-46.7	11.0	1.70e-03	0	59	0	1028653056	54	6593
2026-01-29 00:44:19.22	231.92	12.83	-42.2	-47.0	10.7	2.93e-03	0	59	0	1035993088	55	6421
2026-01-29 00:44:23.26	231.62	12.47	-42.2	-46.9	10.7	3.48e-03	0	59	0	1043333120	55	6401
2026-01-29 00:44:27.30	231.33	12.11	-42.2	-46.9	10.7	2.89e-03	0	59	0	1050673152	55	6386
2026-01-29 00:44:31.34	231.04	11.75	-42.2	-46.9	10.7	3.20e-03	0	59	0	1058013184	55	6374
2026-01-29 00:44:35.38	230.76	11.40	-42.3	-47.3	10.3	5.11e-03	0	59	0	1066401792	55	6674
2026-01-29 00:44:39.42	230.49	11.06	-42.4	-47.6	9.9	7.38e-03	0	59	0	1073741824	55	6928
2026-01-29 00:44:43.45	230.22	10.72	-42.4	-47.7	9.8	1.01e-02	0	58	0	1081081856	55	6978
2026-01-29 00:44:47.49	229.96	10.38	-42.4	-47.6	9.9	9.09e-03	0	59	0	1088421888	55	6897
2026-01-29 00:44:51.53	229.71	10.04	-42.3	-47.4	10.1	6.80e-03	0	59	0	1096810496	55	6734
2026-01-29 00:44:55.57	229.46	9.71	-42.2	-47.3	10.1	6.26e-03	0	59	0	1104150528	55	6659
2026-01-29 00:44:59.61	229.22	9.39	-42.3	-47.7	9.7	8.49e-03	0	59	0	1111490560	55	6961
2026-01-29 00:45:03.65	228.98	9.07	-42.4	-47.8	9.5	1.50e-02	0	59	0	1118830592	55	7121
2026-01-29 00:45:07.69	228.75	8.75	-42.5	-48.1	9.2	2.27e-02	0	59	0	1126170624	55	7339
2026-01-29 00:45:11.73	228.52	8.43	-42.5	-48.2	9.1	2.22e-02	0	59	0	1134559232	55	7415
2026-01-29 00:45:15.78	228.30	8.12	-42.4	-48.2	9.0	2.49e-02	0	59	0	1141899264	55	7420
2026-01-29 00:45:19.82	228.09	7.81	-44.8	-59.6	3.8	1.49e+00	0	59	104	1145044992	60	20672
2026-01-29 00:45:23.86	227.87	7.51	-45.1	-59.9	3.8	1.49e+00	0	59	104	1145044992	60	21482
2026-01-29 00:45:27.90	227.67	7.21	-45.1	-60.0	3.8	1.49e+00	0	59	104	1145044992	60	21519
2026-01-29 00:45:31.94	227.46	6.91	-45.1	-59.9	3.8	1.49e+00	0	59	104	1145044992	60	21482
2026-01-29 00:45:35.98	227.27	6.61	-45.0	-59.8	3.8	1.49e+00	0	59	104	1145044992	60	21253
2026-01-29 00:45:40.02	227.07	6.32	-45.0	-59.9	3.8	1.49e+00	0	59	104	1145044992	60	21307
2026-01-29 00:45:44.06	226.88	6.03	-45.0	-59.9	3.8	1.49e+00	0	59	104	1145044992	60	21352
2026-01-29 00:45:48.10	226.69	5.74	-45.0	-59.9	3.8	1.49e+00	0	59	104	1145044992	60	21276
2026-01-29 00:45:52.14	226.51	5.46	-45.0	-59.9	3.8	1.49e+00	0	59	104	1145044992	60	21295
2026-01-29 00:45:56.19	226.33	5.18	-45.0	-59.8	3.8	1.49e+00	0	59	104	1145044992	60	21251
2026-01-29 00:46:00.23	226.16	4.90	-45.0	-59.8	3.8	1.49e+00	0	59	104	1145044992	60	21200
2026-01-29 00:46:04.27	225.98	4.63	-45.0	-59.8	3.8	1.49e+00	0	59	104	1145044992	60	21178
2026-01-29 00:46:08.31	225.82	4.35	-45.0	-59.9	3.8	1.49e+00	0	59	104	1145044992	60	21281
2026-01-29 00:46:12.35	225.65	4.08	-45.0	-59.9	3.8	1.49e+00	0	59	104	1145044992	60	21270
2026-01-29 00:46:16.39	225.49	3.81	-45.0	-59.8	3.8	1.49e+00	0	59	104	1145044992	60	21231
2026-01-29 00:46:20.44	225.33	3.55	-45.0	-59.8	3.8	1.49e+00	0	59	104	1145044992	60	21211
2026-01-29 00:46:24.48	225.17	3.28	-45.0	-59.8	3.8	1.49e+00	0	59	104	1145044992	60	21212
2026-01-29 00:46:28.52	225.02	3.02	-45.0	-59.8	3.8	1.49e+00	0	59	104	1145044992	60	21223
2026-01-29 00:46:32.56	224.87	2.76	-45.0	-59.9	3.8	1.49e+00	0	59	104	1145044992	60	21276
2026-01-29 00:46:36.60	224.72	2.51	-45.0	-59.8	3.8	1.49e+00	0	59	104	1145044992	60	21216
2026-01-29 00:46:40.65	224.58	2.25	-45.0	-59.8	3.8	1.49e+00	0	59	104	1145044992	60	21194
2026-01-29 00:46:44.69	224.43	2.00	-45.0	-59.8	3.8	1.49e+00	0	59	104	1145044992	60	21239

#Closed at: 2026-01-29 00:46:46
#Recorded file [1145 MB]: D:/lorett/data/31039_260129_033252.dat