passes_logs/2026/01/29/R2.0S_Moscow/R2.0S_Moscow__20260129_171922_FENGYUN_3G_rec.log

#Pass ID: 20260129_171922_FENGYUN 3G
#Satellite: FENGYUN 3G
#Configuration: FENGYUN 3G
#almurnet v.1.7.20251203
#Start time: 2026-01-29 17:19:22

#Version: 2.2.20231116
#Station: R2.0S_Moscow
#Location: 37.707566 lon 55.798166 lat
#TLE: 1 56232U 23055A   26027.33093889  .00044881  00000+0  67100-3 0  9994
#TLE: 2 56232  49.9947 352.2708 0004101  93.7831 266.3606 15.54500775158110

#Time	Az	El	Level	Level2	SNR	BER	BlckErr	Temp	State	Recorded	gain1	gain2
2026-01-29 17:19:22.09	249.61	1.98	-44.0	-62.5	3.8	8.47e-01	0	51	0	0	60	28908
2026-01-29 17:19:25.11	249.42	2.18	-44.0	-62.5	3.8	8.46e-01	0	51	104	0	60	28924
2026-01-29 17:19:28.14	249.23	2.38	-44.1	-62.5	3.8	8.47e-01	0	52	104	0	60	28822
2026-01-29 17:19:31.17	249.03	2.58	-44.0	-62.5	3.8	8.45e-01	0	52	104	0	60	28840
2026-01-29 17:19:34.20	248.83	2.79	-44.0	-62.5	3.8	8.47e-01	0	52	104	0	60	28879
2026-01-29 17:19:37.24	248.63	3.00	-44.0	-62.5	3.8	8.46e-01	0	52	104	0	60	28853
2026-01-29 17:19:40.27	248.42	3.20	-44.0	-62.5	3.8	8.46e-01	0	53	104	0	60	28750
2026-01-29 17:19:43.30	248.21	3.42	-44.0	-62.5	3.8	8.47e-01	0	53	104	0	60	28903
2026-01-29 17:19:46.33	247.99	3.63	-44.0	-62.5	3.8	8.46e-01	0	53	104	0	60	28801
2026-01-29 17:19:49.36	247.77	3.84	-44.0	-62.5	3.8	8.46e-01	0	53	104	0	60	28803
2026-01-29 17:19:52.39	247.55	4.06	-44.0	-62.5	3.8	8.46e-01	0	54	104	0	60	28873
2026-01-29 17:19:55.42	247.32	4.28	-44.0	-62.5	3.8	8.47e-01	0	54	104	0	60	28938
2026-01-29 17:19:58.45	247.08	4.51	-44.0	-62.5	3.8	8.46e-01	0	54	104	0	60	28895
2026-01-29 17:20:01.48	246.84	4.73	-44.0	-62.5	3.8	8.46e-01	0	54	104	0	60	28863
2026-01-29 17:20:04.52	246.59	4.96	-44.0	-62.5	3.8	8.47e-01	0	54	104	0	60	28916
2026-01-29 17:20:07.54	246.34	5.19	-44.0	-62.5	3.8	8.45e-01	0	54	104	0	60	28872
2026-01-29 17:20:10.58	246.08	5.42	-44.0	-62.5	3.8	8.46e-01	0	54	104	0	60	28929
2026-01-29 17:20:13.61	245.81	5.66	-44.0	-62.5	3.8	8.46e-01	0	54	104	0	60	28869
2026-01-29 17:20:16.64	245.54	5.90	-44.0	-62.5	3.8	8.45e-01	0	55	104	0	60	28908
2026-01-29 17:20:19.67	245.26	6.14	-44.0	-62.5	3.8	8.45e-01	0	55	104	0	60	28911
2026-01-29 17:20:22.70	244.98	6.38	-44.0	-62.5	3.8	8.47e-01	0	55	104	0	60	28888
2026-01-29 17:20:25.74	244.68	6.63	-44.0	-62.5	3.8	8.45e-01	0	55	104	0	60	28907
2026-01-29 17:20:28.77	244.38	6.88	-44.0	-62.5	3.8	8.46e-01	0	55	104	0	60	28864
2026-01-29 17:20:31.80	244.08	7.14	-44.0	-62.5	3.8	8.46e-01	0	55	104	0	60	28936
2026-01-29 17:20:34.83	243.76	7.39	-44.0	-62.5	3.8	8.46e-01	0	56	104	0	60	28831
2026-01-29 17:20:37.86	243.44	7.65	-44.0	-62.5	3.8	8.46e-01	0	56	104	0	60	28967
2026-01-29 17:20:40.89	243.11	7.92	-44.0	-62.5	3.8	8.46e-01	0	56	104	0	60	28897
2026-01-29 17:20:43.92	242.77	8.19	-44.2	-62.6	3.8	8.45e-01	0	56	104	0	60	29278
2026-01-29 17:20:46.95	242.42	8.46	-44.0	-62.5	3.8	8.46e-01	0	56	104	0	60	28917
2026-01-29 17:20:49.98	242.06	8.73	-44.1	-62.6	3.8	8.47e-01	0	56	104	0	60	29346
2026-01-29 17:20:53.01	241.70	9.01	-44.1	-62.6	3.8	8.46e-01	0	56	104	0	60	29023
2026-01-29 17:20:56.05	241.32	9.30	-44.2	-62.7	3.8	8.45e-01	0	56	104	0	60	29469
2026-01-29 17:20:59.07	240.93	9.58	-44.1	-62.6	3.8	8.46e-01	0	57	104	0	60	29202
2026-01-29 17:21:02.10	240.53	9.87	-44.2	-62.7	3.8	8.47e-01	0	57	104	0	60	29435
2026-01-29 17:21:05.13	240.12	10.17	-44.2	-62.6	3.8	8.46e-01	0	57	104	0	60	29252
2026-01-29 17:21:08.16	239.70	10.47	-44.3	-62.7	3.8	8.47e-01	0	57	104	0	60	29659
2026-01-29 17:21:11.19	239.27	10.77	-44.2	-62.7	3.8	8.47e-01	0	57	104	0	60	29357
2026-01-29 17:21:14.22	238.83	11.08	-44.3	-62.8	3.8	8.47e-01	0	57	104	0	60	29757
2026-01-29 17:21:17.25	238.37	11.39	-44.2	-62.7	3.8	8.46e-01	0	57	104	0	60	29512
2026-01-29 17:21:20.27	237.90	11.71	-44.4	-62.8	3.8	8.46e-01	0	57	104	0	60	29889
2026-01-29 17:21:23.30	237.41	12.03	-44.3	-62.8	3.8	8.46e-01	0	57	104	0	60	29768
2026-01-29 17:21:26.33	236.91	12.35	-44.3	-62.8	3.8	8.46e-01	0	57	104	0	60	30006
2026-01-29 17:21:29.36	236.40	12.69	-44.3	-62.8	3.8	8.47e-01	0	57	104	0	60	29875
2026-01-29 17:21:32.39	235.86	13.02	-44.5	-62.9	3.8	8.46e-01	0	57	104	0	60	30181
2026-01-29 17:21:35.42	235.32	13.36	-44.4	-62.9	3.8	8.47e-01	0	58	104	0	60	30170
2026-01-29 17:21:38.45	234.75	13.71	-44.4	-62.9	3.8	8.46e-01	0	58	104	0	60	30112
2026-01-29 17:21:41.48	234.17	14.06	-44.4	-62.9	3.8	8.45e-01	0	58	104	0	60	30133
2026-01-29 17:21:44.51	233.57	14.42	-44.5	-63.0	3.8	8.45e-01	0	58	104	0	60	30434
2026-01-29 17:21:47.54	232.95	14.78	-44.5	-62.9	3.8	8.46e-01	0	58	104	0	60	30355
2026-01-29 17:21:50.58	232.31	15.15	-44.5	-62.9	3.8	8.45e-01	0	58	104	0	60	30314
2026-01-29 17:21:53.61	231.65	15.52	-44.5	-63.0	3.8	8.46e-01	0	58	104	0	60	30395
2026-01-29 17:21:56.64	230.97	15.90	-44.5	-63.0	3.8	8.47e-01	0	58	104	0	60	30695
2026-01-29 17:21:59.67	230.26	16.28	-44.5	-63.0	3.8	8.46e-01	0	58	104	0	60	30545
2026-01-29 17:22:02.70	229.54	16.66	-44.5	-63.0	3.8	8.46e-01	0	58	104	0	60	30576
2026-01-29 17:22:05.72	228.79	17.06	-44.6	-63.0	3.8	8.46e-01	0	58	104	0	60	30696
2026-01-29 17:22:08.76	228.01	17.45	-44.6	-63.1	3.8	8.47e-01	0	58	104	0	60	30829
2026-01-29 17:22:11.78	227.21	17.85	-44.6	-63.1	3.8	8.46e-01	0	58	104	0	60	30765
2026-01-29 17:22:14.81	226.38	18.26	-44.6	-63.0	3.8	8.46e-01	0	58	104	0	60	30712
2026-01-29 17:22:17.84	225.52	18.67	-44.6	-63.1	3.8	8.47e-01	0	58	104	0	60	30823
2026-01-29 17:22:20.87	224.64	19.08	-44.6	-63.1	3.8	8.46e-01	0	58	104	0	60	30893
2026-01-29 17:22:23.90	223.72	19.50	-44.7	-63.1	3.8	8.46e-01	0	58	104	0	60	31072
2026-01-29 17:22:26.93	222.77	19.92	-44.7	-63.1	3.8	8.47e-01	0	58	104	0	60	30971
2026-01-29 17:22:29.96	221.79	20.34	-44.7	-63.1	3.8	8.45e-01	0	59	104	0	60	30991
2026-01-29 17:22:32.99	220.78	20.77	-44.7	-63.1	3.8	8.46e-01	0	58	104	0	60	31068
2026-01-29 17:22:36.02	219.73	21.19	-44.7	-63.2	3.8	8.46e-01	0	59	104	0	60	31294
2026-01-29 17:22:39.05	218.65	21.62	-44.7	-63.2	3.8	8.46e-01	0	58	104	0	60	31171
2026-01-29 17:22:42.07	217.53	22.05	-44.7	-63.2	3.8	8.47e-01	0	59	104	0	60	31212
2026-01-29 17:22:45.10	216.38	22.47	-44.7	-63.2	3.8	8.46e-01	0	59	104	0	60	31184
2026-01-29 17:22:48.13	215.18	22.90	-44.8	-63.2	3.8	8.46e-01	0	59	104	0	60	31418
2026-01-29 17:22:51.17	213.94	23.32	-44.7	-63.2	3.8	8.47e-01	0	59	104	0	60	31266
2026-01-29 17:22:54.19	212.67	23.74	-44.8	-63.2	3.8	8.46e-01	0	59	104	0	60	31319
2026-01-29 17:22:57.22	211.36	24.16	-44.8	-63.2	3.8	8.45e-01	0	59	104	0	60	31262
2026-01-29 17:23:00.25	210.00	24.56	-44.8	-63.2	3.8	8.47e-01	0	59	104	0	60	31289
2026-01-29 17:23:03.28	208.61	24.96	-44.8	-63.2	3.8	8.46e-01	0	59	104	0	60	31354
2026-01-29 17:23:06.31	207.17	25.36	-44.8	-63.2	3.8	8.45e-01	0	59	104	0	60	31402
2026-01-29 17:23:09.34	205.69	25.74	-44.8	-63.2	3.8	8.46e-01	0	59	104	0	60	31332
2026-01-29 17:23:12.37	204.17	26.11	-44.8	-63.2	3.8	8.47e-01	0	59	104	0	60	31352
2026-01-29 17:23:15.40	202.61	26.46	-44.8	-63.3	3.8	8.47e-01	0	59	104	0	60	31494
2026-01-29 17:23:18.43	201.01	26.80	-44.8	-63.2	3.8	8.46e-01	0	59	104	0	60	31439
2026-01-29 17:23:21.46	199.37	27.13	-44.8	-63.2	3.8	8.46e-01	0	59	104	0	60	31436
2026-01-29 17:23:24.49	197.69	27.43	-44.8	-63.3	3.8	8.46e-01	0	59	104	0	60	31501
2026-01-29 17:23:27.52	195.98	27.72	-44.8	-63.2	3.8	8.47e-01	0	59	104	0	60	31389
2026-01-29 17:23:30.55	194.23	27.98	-44.8	-63.3	3.8	8.45e-01	0	59	104	0	60	31453
2026-01-29 17:23:33.58	192.45	28.22	-44.8	-63.3	3.8	8.47e-01	0	59	104	0	60	31533
2026-01-29 17:23:36.60	190.65	28.43	-44.8	-63.3	3.8	8.46e-01	0	59	104	0	60	31538
2026-01-29 17:23:39.63	188.82	28.62	-44.8	-63.3	3.8	8.47e-01	0	59	104	0	60	31568
2026-01-29 17:23:42.66	186.97	28.77	-44.8	-63.3	3.8	8.46e-01	0	59	104	0	60	31447
2026-01-29 17:23:45.69	185.10	28.90	-44.8	-63.3	3.8	8.47e-01	0	59	104	0	60	31502
2026-01-29 17:23:48.72	183.21	29.00	-44.8	-63.3	3.8	8.46e-01	0	59	104	0	60	31614
2026-01-29 17:23:51.75	181.31	29.07	-44.8	-63.3	3.8	8.47e-01	0	59	104	0	60	31654
2026-01-29 17:23:54.78	179.40	29.10	-44.8	-63.3	3.8	8.46e-01	0	59	104	0	60	31704
2026-01-29 17:23:57.81	177.50	29.11	-44.9	-63.4	3.8	8.46e-01	0	59	104	0	60	31826
2026-01-29 17:24:00.84	175.59	29.08	-45.1	-63.6	3.8	8.46e-01	0	60	104	0	61	30859
2026-01-29 17:24:03.87	173.69	29.02	-44.1	-63.4	3.8	8.46e-01	0	60	104	0	60	31897
2026-01-29 17:24:06.90	171.80	28.93	-44.2	-63.4	3.8	8.47e-01	0	59	104	0	59	33703
2026-01-29 17:24:09.93	169.92	28.81	-45.0	-63.4	3.8	8.45e-01	0	60	104	0	60	32085
2026-01-29 17:24:12.96	168.06	28.65	-45.0	-63.4	3.8	8.46e-01	0	59	104	0	60	32177
2026-01-29 17:24:15.99	166.23	28.48	-45.1	-63.5	3.8	8.46e-01	0	59	104	0	60	32514
2026-01-29 17:24:19.02	164.41	28.27	-45.1	-63.5	3.8	8.45e-01	0	59	104	0	60	32454
2026-01-29 17:24:22.05	162.63	28.04	-45.1	-63.6	3.8	8.46e-01	0	60	104	0	60	32563
2026-01-29 17:24:25.08	160.88	27.78	-45.1	-63.5	3.8	8.47e-01	0	60	104	0	60	32429
2026-01-29 17:24:28.11	159.16	27.50	-45.1	-63.5	3.8	8.47e-01	0	60	104	0	60	32503
2026-01-29 17:24:31.14	157.47	27.20	-45.1	-63.5	3.8	8.46e-01	0	60	104	0	60	32444
2026-01-29 17:24:34.18	155.82	26.88	-45.1	-63.5	3.8	8.46e-01	0	59	104	0	60	32542
2026-01-29 17:24:37.20	154.21	26.54	-45.1	-63.5	3.8	8.46e-01	0	60	104	0	60	32455
2026-01-29 17:24:40.23	152.64	26.19	-45.1	-63.5	3.8	8.46e-01	0	60	104	0	60	32472
2026-01-29 17:24:43.26	151.11	25.82	-45.1	-63.5	3.8	8.45e-01	0	60	104	0	60	32344
2026-01-29 17:24:46.29	149.62	25.45	-45.1	-63.5	3.8	8.45e-01	0	60	104	0	60	32433
2026-01-29 17:24:49.32	148.17	25.06	-45.1	-63.5	3.8	8.46e-01	0	60	104	0	60	32387
2026-01-29 17:24:52.35	146.77	24.66	-45.1	-63.5	3.8	8.46e-01	0	60	104	0	60	32350
2026-01-29 17:24:55.38	145.40	24.25	-45.0	-63.4	3.8	8.47e-01	0	60	104	0	60	32096
2026-01-29 17:24:58.41	144.08	23.84	-45.0	-63.4	3.8	8.44e-01	0	60	104	0	60	32016
2026-01-29 17:25:01.45	142.79	23.42	-45.0	-63.4	3.8	8.47e-01	0	60	104	0	60	31924
2026-01-29 17:25:04.48	141.55	22.99	-45.0	-63.4	3.8	8.46e-01	0	60	104	0	60	31862
2026-01-29 17:25:07.50	140.35	22.57	-44.9	-63.3	3.8	8.45e-01	0	60	104	0	60	31704
2026-01-29 17:25:10.53	139.18	22.14	-44.8	-63.3	3.8	8.47e-01	0	60	104	0	60	31680
2026-01-29 17:25:13.56	138.05	21.72	-44.9	-63.3	3.8	8.47e-01	0	60	104	0	60	31530
2026-01-29 17:25:16.59	136.96	21.29	-44.9	-63.3	3.8	8.46e-01	0	60	104	0	60	31598
2026-01-29 17:25:19.62	135.90	20.86	-44.8	-63.2	3.8	8.46e-01	0	60	104	0	60	31373
2026-01-29 17:25:22.66	134.88	20.44	-44.8	-63.2	3.8	8.45e-01	0	60	104	0	60	31359
2026-01-29 17:25:25.69	133.89	20.01	-44.8	-63.2	3.8	8.46e-01	0	60	104	0	60	31151
2026-01-29 17:25:28.71	132.94	19.59	-44.8	-63.2	3.8	8.46e-01	0	60	104	0	60	31180
2026-01-29 17:25:31.74	132.02	19.17	-44.7	-63.1	3.8	8.46e-01	0	60	104	0	60	31011
2026-01-29 17:25:34.77	131.12	18.76	-44.7	-63.1	3.8	8.47e-01	0	60	104	0	60	30939
2026-01-29 17:25:37.80	130.26	18.35	-44.6	-63.0	3.8	8.46e-01	0	60	104	0	60	30672
2026-01-29 17:25:40.83	129.42	17.94	-44.5	-63.0	3.8	8.45e-01	0	60	104	0	60	30695
2026-01-29 17:25:43.86	128.61	17.54	-44.7	-63.1	3.8	8.46e-01	0	60	104	0	59	32639
2026-01-29 17:25:46.88	127.84	17.14	-42.5	-62.6	3.8	8.45e-01	0	60	104	0	58	32638
2026-01-29 17:25:49.91	127.08	16.75	-43.5	-62.4	3.9	8.46e-01	0	60	104	0	57	34025
2026-01-29 17:25:52.94	126.35	16.36	-43.6	-62.6	3.8	8.46e-01	0	60	104	0	58	32854
2026-01-29 17:25:55.97	125.64	15.98	-43.9	-62.9	3.8	8.46e-01	0	60	104	0	58	33712
2026-01-29 17:25:59.00	124.95	15.60	-43.7	-63.0	3.7	8.47e-01	0	60	104	0	58	34164
2026-01-29 17:26:02.04	124.28	15.23	-41.8	-62.4	3.9	8.46e-01	0	60	104	0	56	35984
2026-01-29 17:26:05.06	123.64	14.86	-43.8	-62.7	4.0	8.47e-01	0	60	104	0	56	37367
2026-01-29 17:26:08.09	123.02	14.50	-42.6	-62.6	3.8	8.45e-01	0	60	104	0	56	36711
2026-01-29 17:26:11.12	122.41	14.14	-41.1	-61.3	4.0	8.45e-01	0	60	104	0	50	44544
2026-01-29 17:26:14.15	121.83	13.79	-36.3	-61.8	3.8	8.46e-01	0	60	104	0	50	47107
2026-01-29 17:26:17.19	121.26	13.44	-40.9	-62.2	3.4	8.44e-01	0	60	104	0	53	41840
2026-01-29 17:26:20.22	120.70	13.10	-38.5	-62.4	4.2	8.47e-01	0	60	104	0	52	45301
2026-01-29 17:26:23.24	120.17	12.76	-39.6	-62.3	4.1	8.46e-01	0	60	104	0	48	56312
2026-01-29 17:26:26.28	119.65	12.43	-34.9	-60.6	3.3	8.45e-01	0	60	104	0	42	65523
2026-01-29 17:26:29.31	119.15	12.10	-32.3	-57.1	3.8	8.34e-01	0	60	104	0	35	65535
2026-01-29 17:26:32.34	118.66	11.78	-27.5	-53.6	6.7	7.62e-01	0	60	104	0	28	65535
2026-01-29 17:26:35.37	118.18	11.46	-21.6	-52.6	4.4	7.81e-01	0	60	104	0	26	65535
2026-01-29 17:26:38.40	117.72	11.14	-23.2	-46.1	2.8	7.67e-01	0	61	104	0	13	65534
2026-01-29 17:26:41.43	117.27	10.83	-28.7	-51.6	3.6	7.57e-01	0	60	104	0	24	65535
2026-01-29 17:26:44.46	116.84	10.53	-16.9	-45.1	2.9	7.57e-01	0	60	104	0	11	65535
2026-01-29 17:26:47.49	116.41	10.23	-18.0	-44.1	3.2	7.67e-01	0	60	104	0	9	65535
2026-01-29 17:26:50.52	116.00	9.93	-21.3	-45.6	4.1	7.78e-01	0	60	104	0	12	65535
2026-01-29 17:26:53.55	115.60	9.64	-21.6	-45.1	4.0	7.58e-01	0	61	104	0	11	65533
2026-01-29 17:26:56.58	115.21	9.35	-17.1	-42.6	3.6	7.71e-01	0	60	104	0	6	65535
2026-01-29 17:26:59.61	114.83	9.07	-19.3	-44.1	4.3	7.75e-01	0	60	104	0	9	65535
2026-01-29 17:27:02.64	114.46	8.79	-19.9	-41.6	3.6	7.59e-01	0	60	104	0	4	65535
2026-01-29 17:27:05.67	114.10	8.52	-21.6	-43.6	3.1	7.69e-01	0	60	104	0	8	65535
2026-01-29 17:27:08.70	113.75	8.24	-16.2	-41.6	3.6	7.62e-01	0	61	104	0	4	65535
2026-01-29 17:27:11.73	113.41	7.97	-25.1	-48.1	3.7	7.66e-01	0	61	104	0	17	65535
2026-01-29 17:27:14.76	113.08	7.71	-44.9	-63.2	3.8	8.45e-01	0	61	104	0	60	31446
2026-01-29 17:27:17.79	112.75	7.45	-45.3	-63.7	3.8	8.46e-01	0	60	104	0	61	31309
2026-01-29 17:27:20.82	112.44	7.19	-45.5	-63.9	3.8	8.47e-01	0	60	104	0	61	32072
2026-01-29 17:27:23.85	112.13	6.94	-45.3	-63.7	3.8	8.46e-01	0	60	104	0	61	31338
2026-01-29 17:27:26.89	111.83	6.68	-45.2	-63.6	3.8	8.45e-01	0	61	104	0	61	30967
2026-01-29 17:27:29.92	111.53	6.43	-45.1	-63.5	3.8	8.46e-01	0	61	104	0	61	30703
2026-01-29 17:27:32.95	111.25	6.19	-45.1	-63.5	3.8	8.47e-01	0	60	104	0	61	30628
2026-01-29 17:27:35.98	110.97	5.95	-45.1	-63.5	3.8	8.47e-01	0	61	104	0	60	32498
2026-01-29 17:27:39.01	110.70	5.71	-45.1	-63.5	3.8	8.46e-01	0	61	104	0	60	32281
2026-01-29 17:27:42.04	110.43	5.47	-45.0	-63.5	3.8	8.46e-01	0	61	104	0	60	32282
2026-01-29 17:27:45.08	110.17	5.24	-45.0	-63.5	3.8	8.46e-01	0	61	104	0	60	32321
2026-01-29 17:27:48.11	109.91	5.01	-45.0	-63.5	3.8	8.46e-01	0	61	104	0	60	32233
2026-01-29 17:27:51.14	109.66	4.78	-45.0	-63.5	3.8	8.47e-01	0	61	104	0	60	32276
2026-01-29 17:27:54.17	109.42	4.55	-45.0	-63.5	3.8	8.47e-01	0	61	104	0	60	32292
2026-01-29 17:27:57.20	109.18	4.33	-45.0	-63.5	3.8	8.46e-01	0	61	104	0	60	32273
2026-01-29 17:28:00.23	108.95	4.11	-45.0	-63.4	3.8	8.46e-01	0	61	104	0	60	32155
2026-01-29 17:28:03.26	108.72	3.89	-45.0	-63.5	3.8	8.47e-01	0	61	104	0	60	32238
2026-01-29 17:28:06.29	108.50	3.67	-45.0	-63.5	3.8	8.47e-01	0	61	104	0	60	32286
2026-01-29 17:28:09.33	108.28	3.46	-45.0	-63.5	3.8	8.45e-01	0	61	104	0	60	32241
2026-01-29 17:28:12.36	108.07	3.25	-45.0	-63.5	3.8	8.46e-01	0	61	104	0	60	32260
2026-01-29 17:28:15.39	107.86	3.04	-45.0	-63.5	3.8	8.46e-01	0	61	104	0	60	32213
2026-01-29 17:28:18.42	107.66	2.83	-45.0	-63.5	3.8	8.46e-01	0	61	104	0	60	32233
2026-01-29 17:28:21.45	107.46	2.62	-45.0	-63.5	3.8	8.47e-01	0	60	104	0	60	32259
2026-01-29 17:28:24.48	107.26	2.42	-45.0	-63.5	3.8	8.46e-01	0	61	104	0	60	32213
2026-01-29 17:28:27.52	107.07	2.22	-45.0	-63.5	3.8	8.46e-01	0	61	104	0	60	32245
2026-01-29 17:28:30.55	106.88	2.02	-45.0	-63.5	3.8	8.46e-01	0	61	104	0	60	32255

#Closed at: 2026-01-29 17:28:32
#Recorded file [0 MB]: D:/lorett/data/31039_260129_201921.dat