passes_logs/2026/01/29/R2.0S_Moscow/R2.0S_Moscow__20260129_024917_FENGYUN_3D_rec.log

#Pass ID: 20260129_024917_FENGYUN 3D
#Satellite: FENGYUN 3D
#Configuration: FENGYUN 3D
#almurnet v.1.7.20251203
#Start time: 2026-01-29 02:49:17

#Version: 2.2.20231116
#Station: R2.0S_Moscow
#Location: 37.707566 lon 55.798166 lat
#TLE: 1 43010U 17072A   26027.90082829  .00000305  00000+0  16579-3 0  9998
#TLE: 2 43010  98.9960 359.9183 0002511  88.1058 272.0405 14.19701796425082

#Time	Az	El	Level	Level2	SNR	BER	BlckErr	Temp	State	Recorded	gain1	gain2
2026-01-29 02:49:17.98	12.61	2.05	-39.8	-51.2	3.8	8.45e-01	0	49	0	0	51	13236
2026-01-29 02:49:22.01	12.44	2.30	-39.8	-51.3	3.8	8.46e-01	0	50	104	0	51	13284
2026-01-29 02:49:26.06	12.28	2.55	-39.8	-51.2	3.8	8.46e-01	0	50	104	0	51	13237
2026-01-29 02:49:30.10	12.11	2.80	-39.8	-51.2	3.8	8.46e-01	0	50	104	0	51	13248
2026-01-29 02:49:34.14	11.93	3.06	-39.8	-51.2	3.8	8.46e-01	0	51	104	0	51	13236
2026-01-29 02:49:38.18	11.76	3.31	-39.8	-51.2	3.8	8.47e-01	0	51	104	0	51	13183
2026-01-29 02:49:42.22	11.58	3.57	-39.8	-51.2	3.8	8.46e-01	0	51	104	0	51	13203
2026-01-29 02:49:46.27	11.39	3.83	-39.8	-51.2	3.8	8.45e-01	0	51	104	0	51	13158
2026-01-29 02:49:50.31	11.21	4.09	-39.8	-51.2	3.8	8.46e-01	0	52	104	0	51	13181
2026-01-29 02:49:54.34	11.02	4.36	-39.8	-51.2	3.8	8.45e-01	0	52	104	0	51	13221
2026-01-29 02:49:58.39	10.82	4.62	-39.8	-51.2	3.8	8.45e-01	0	52	104	0	51	13225
2026-01-29 02:50:02.42	10.62	4.89	-39.8	-51.2	3.8	8.46e-01	0	52	104	0	51	13146
2026-01-29 02:50:06.47	10.42	5.16	-39.8	-51.2	3.8	8.46e-01	0	53	104	0	51	13198
2026-01-29 02:50:10.51	10.21	5.44	-39.8	-51.2	3.8	8.46e-01	0	53	104	0	51	13206
2026-01-29 02:50:14.55	10.00	5.71	-39.8	-51.2	3.8	8.45e-01	0	53	104	0	51	13250
2026-01-29 02:50:18.59	9.79	5.99	-39.8	-51.2	3.8	8.46e-01	0	53	104	0	51	13235
2026-01-29 02:50:22.63	9.57	6.28	-39.8	-51.2	3.8	8.46e-01	0	53	104	0	51	13198
2026-01-29 02:50:26.67	9.34	6.56	-39.8	-51.2	3.8	8.46e-01	0	54	104	0	51	13174
2026-01-29 02:50:30.72	9.11	6.85	-39.8	-51.2	3.8	8.46e-01	0	54	104	0	51	13219
2026-01-29 02:50:34.76	8.88	7.14	-39.8	-51.2	3.8	8.46e-01	0	54	104	0	51	13220
2026-01-29 02:50:38.80	8.64	7.43	-39.8	-51.2	3.8	8.46e-01	0	54	104	0	51	13191
2026-01-29 02:50:42.84	8.40	7.73	-39.8	-51.2	3.8	8.45e-01	0	54	104	0	51	13149
2026-01-29 02:50:46.88	8.15	8.02	-39.8	-51.2	3.8	8.46e-01	0	54	104	0	51	13252
2026-01-29 02:50:50.91	7.89	8.32	-39.9	-51.3	3.8	8.46e-01	0	55	104	0	51	13331
2026-01-29 02:50:54.95	7.63	8.63	-39.9	-51.3	3.8	8.46e-01	0	55	104	0	51	13355
2026-01-29 02:50:58.98	7.36	8.94	-39.9	-51.3	3.8	8.46e-01	0	55	104	0	51	13356
2026-01-29 02:51:03.02	7.09	9.25	-39.9	-51.4	3.8	8.46e-01	0	55	104	0	51	13437
2026-01-29 02:51:07.06	6.81	9.56	-40.0	-51.4	3.8	8.46e-01	0	55	104	0	51	13550
2026-01-29 02:51:11.10	6.53	9.88	-40.2	-51.6	3.8	8.47e-01	0	55	104	0	51	13743
2026-01-29 02:51:15.14	6.23	10.20	-39.9	-51.3	3.8	8.46e-01	0	55	104	0	51	13282
2026-01-29 02:51:19.18	5.94	10.52	-39.7	-51.2	3.8	8.47e-01	0	55	104	0	51	13120
2026-01-29 02:51:23.22	5.63	10.85	-40.0	-51.3	3.8	8.46e-01	0	56	104	0	52	12558
2026-01-29 02:51:27.26	5.32	11.18	-40.0	-51.3	3.8	8.46e-01	0	56	104	0	51	13321
2026-01-29 02:51:31.30	4.99	11.52	-41.4	-49.6	4.3	8.38e-01	0	56	0	0	53	9824
2026-01-29 02:51:35.34	4.67	11.86	-41.1	-48.7	4.5	8.22e-01	0	56	0	0	53	8763
2026-01-29 02:51:39.38	4.33	12.20	-42.4	-52.8	3.8	8.45e-01	0	56	104	0	55	12655
2026-01-29 02:51:43.42	3.98	12.54	-40.5	-49.0	4.1	8.43e-01	0	56	0	0	52	9669
2026-01-29 02:51:47.46	3.63	12.89	-41.0	-50.6	3.8	8.45e-01	0	56	104	0	52	11673
2026-01-29 02:51:51.50	3.27	13.25	-40.4	-47.2	5.0	5.88e-01	0	56	0	2097152	52	7817
2026-01-29 02:51:55.54	2.90	13.61	-38.2	-41.1	11.1	4.21e-02	0	57	0	19922944	48	4881
2026-01-29 02:51:59.58	2.51	13.97	-37.3	-39.5	13.6	1.71e-05	0	57	0	41943040	46	4574
2026-01-29 02:52:03.62	2.12	14.33	-38.0	-40.3	13.1	3.08e-05	0	57	0	65011712	46	5010
2026-01-29 02:52:07.66	1.72	14.70	-37.8	-39.9	13.8	4.50e-06	0	56	0	88080384	46	4790
2026-01-29 02:52:11.70	1.31	15.08	-37.7	-39.8	14.1	1.10e-06	0	57	0	110100480	46	4709
2026-01-29 02:52:15.74	0.89	15.46	-37.8	-39.8	14.4	1.10e-06	0	57	0	133169152	46	4738
2026-01-29 02:52:19.79	0.45	15.84	-37.7	-39.5	14.8	0.00e+00	0	57	0	156237824	46	4597
2026-01-29 02:52:23.83	0.00	16.23	-37.7	-39.6	14.8	0.00e+00	0	57	0	179306496	46	4635
2026-01-29 02:52:27.88	359.55	16.62	-37.7	-39.6	14.9	0.00e+00	0	57	0	201326592	46	4634
2026-01-29 02:52:31.92	359.07	17.02	-37.9	-39.8	14.7	2.20e-06	0	57	0	224395264	46	4732
2026-01-29 02:52:35.96	358.59	17.42	-37.6	-39.5	15.1	0.00e+00	0	57	0	246415360	46	4550
2026-01-29 02:52:40.00	358.09	17.83	-37.2	-39.0	15.4	0.00e+00	0	57	0	269484032	46	4293
2026-01-29 02:52:44.05	357.58	18.24	-36.7	-38.4	15.8	0.00e+00	0	57	0	292552704	45	4266
2026-01-29 02:52:48.09	357.06	18.65	-36.8	-38.6	15.2	0.00e+00	0	57	0	315621376	45	4380
2026-01-29 02:52:52.13	356.51	19.07	-36.8	-38.8	14.5	1.10e-06	0	57	0	337641472	44	4715
2026-01-29 02:52:56.17	355.96	19.49	-40.2	-44.6	7.8	5.56e-02	0	57	0	360710144	50	6528
2026-01-29 02:53:00.21	355.39	19.92	-40.2	-44.9	7.3	1.14e-01	0	57	0	383778816	51	6386
2026-01-29 02:53:04.25	354.80	20.35	-39.5	-43.3	9.2	4.00e-02	0	57	0	405798912	51	5283
2026-01-29 02:53:08.29	354.19	20.79	-38.7	-41.7	11.1	2.57e-03	0	58	0	428867584	49	4929
2026-01-29 02:53:12.33	353.57	21.23	-38.3	-40.7	12.6	9.95e-05	0	57	0	451936256	48	4705
2026-01-29 02:53:16.37	352.92	21.67	-37.6	-39.5	14.2	1.10e-06	0	58	0	473956352	47	4340
2026-01-29 02:53:20.41	352.26	22.12	-36.8	-38.5	15.5	0.00e+00	0	57	0	497025024	45	4312
2026-01-29 02:53:24.45	351.58	22.57	-35.8	-37.3	16.6	0.00e+00	0	57	0	520093696	43	4232
2026-01-29 02:53:28.50	350.88	23.03	-35.9	-37.4	17.0	0.00e+00	0	58	0	542113792	43	4264
2026-01-29 02:53:32.54	350.15	23.49	-36.1	-37.6	16.9	0.00e+00	0	58	0	565182464	43	4371
2026-01-29 02:53:36.58	349.41	23.95	-36.1	-37.6	17.1	0.00e+00	0	58	0	588251136	43	4350
2026-01-29 02:53:40.62	348.64	24.41	-35.8	-37.2	17.5	0.00e+00	0	58	0	611319808	43	4179
2026-01-29 02:53:44.66	347.85	24.88	-35.5	-36.9	17.9	0.00e+00	0	58	0	633339904	43	4033
2026-01-29 02:53:48.70	347.03	25.35	-35.7	-37.1	17.8	0.00e+00	0	58	0	656408576	43	4105
2026-01-29 02:53:52.74	346.19	25.82	-35.5	-36.8	18.1	0.00e+00	0	58	0	678428672	42	4232
2026-01-29 02:53:56.79	345.32	26.29	-35.2	-36.5	18.4	0.00e+00	0	58	0	701497344	42	4088
2026-01-29 02:54:00.83	344.43	26.76	-35.2	-36.5	18.4	0.00e+00	0	58	0	724566016	42	4091
2026-01-29 02:54:04.88	343.51	27.24	-35.2	-36.5	18.5	0.00e+00	0	58	0	747634688	42	4081
2026-01-29 02:54:08.92	342.56	27.71	-35.2	-36.5	18.5	0.00e+00	0	58	0	769654784	42	4086
2026-01-29 02:54:12.96	341.58	28.18	-35.1	-36.4	18.6	0.00e+00	0	58	0	792723456	42	4041
2026-01-29 02:54:17.01	340.57	28.65	-35.1	-36.4	18.7	0.00e+00	0	58	0	815792128	42	4021
2026-01-29 02:54:21.05	339.53	29.12	-35.0	-36.3	18.7	0.00e+00	0	58	0	837812224	41	4199
2026-01-29 02:54:25.09	338.46	29.59	-35.1	-36.4	18.6	0.00e+00	0	58	0	860880896	41	4282
2026-01-29 02:54:29.14	337.36	30.05	-35.1	-36.4	18.7	0.00e+00	0	58	0	883949568	41	4249
2026-01-29 02:54:33.18	336.23	30.50	-35.0	-36.2	18.8	0.00e+00	0	58	0	905969664	41	4191
2026-01-29 02:54:37.23	335.06	30.96	-34.8	-36.0	19.0	0.00e+00	0	58	0	929038336	41	4094
2026-01-29 02:54:41.27	333.86	31.40	-34.8	-36.1	19.0	0.00e+00	0	58	0	952107008	41	4103
2026-01-29 02:54:45.31	332.63	31.83	-34.7	-36.0	19.1	0.00e+00	0	58	0	974127104	41	4056
2026-01-29 02:54:49.36	331.36	32.26	-34.8	-36.0	19.1	0.00e+00	0	58	0	997195776	41	4076
2026-01-29 02:54:53.39	330.07	32.68	-34.7	-36.0	19.1	0.00e+00	0	58	0	1020264448	41	4067
2026-01-29 02:54:57.44	328.73	33.08	-34.6	-35.8	19.3	0.00e+00	0	58	0	1043333120	41	3975
2026-01-29 02:55:01.48	327.37	33.47	-34.5	-35.8	19.3	0.00e+00	0	58	0	1065353216	41	3964
2026-01-29 02:55:05.52	325.97	33.85	-34.7	-35.9	19.2	0.00e+00	0	58	0	1088421888	41	4024
2026-01-29 02:55:09.55	324.54	34.21	-34.6	-35.8	19.3	0.00e+00	0	58	0	1110441984	41	4004
2026-01-29 02:55:13.60	323.07	34.56	-34.7	-35.9	19.2	0.00e+00	0	58	0	1133510656	41	4049
2026-01-29 02:55:17.63	321.58	34.89	-34.3	-35.5	19.6	0.00e+00	0	58	0	1156579328	40	4066
2026-01-29 02:55:21.68	320.06	35.20	-34.7	-36.0	19.2	0.00e+00	0	58	0	1179648000	40	4304
2026-01-29 02:55:25.72	318.50	35.48	-34.7	-35.9	19.2	0.00e+00	0	58	0	1201668096	40	4289
2026-01-29 02:55:29.76	316.93	35.75	-34.6	-35.8	19.3	0.00e+00	0	58	0	1224736768	40	4205
2026-01-29 02:55:33.80	315.32	35.99	-34.7	-35.9	19.3	0.00e+00	0	58	0	1247805440	40	4264
2026-01-29 02:55:37.85	313.69	36.21	-34.3	-35.5	19.6	0.00e+00	0	58	0	1269825536	40	4092
2026-01-29 02:55:41.89	312.04	36.40	-34.6	-35.8	19.4	0.00e+00	0	58	0	1292894208	40	4218
2026-01-29 02:55:45.93	310.38	36.57	-34.6	-35.8	19.4	0.00e+00	0	58	0	1315962880	40	4211
2026-01-29 02:55:49.97	308.69	36.71	-34.5	-35.7	19.5	0.00e+00	0	58	0	1337982976	40	4153
2026-01-29 02:55:54.01	307.00	36.82	-34.8	-36.0	19.1	0.00e+00	0	58	0	1361051648	40	4329
2026-01-29 02:55:58.05	305.29	36.90	-34.7	-35.9	19.2	0.00e+00	0	58	0	1384120320	40	4289
2026-01-29 02:56:02.08	303.58	36.96	-34.6	-35.8	19.3	0.00e+00	0	58	0	1406140416	40	4235
2026-01-29 02:56:06.13	301.86	36.98	-34.6	-35.8	19.3	0.00e+00	0	58	0	1429209088	40	4215
2026-01-29 02:56:10.17	300.14	36.98	-34.7	-35.9	19.2	0.00e+00	0	58	0	1452277760	40	4278
2026-01-29 02:56:14.21	298.43	36.94	-34.4	-35.6	19.5	0.00e+00	0	58	0	1474297856	40	4138
2026-01-29 02:56:18.25	296.71	36.88	-34.4	-35.5	19.6	0.00e+00	0	58	0	1497366528	40	4095
2026-01-29 02:56:22.29	295.01	36.79	-34.4	-35.6	19.5	0.00e+00	0	58	0	1520435200	40	4128
2026-01-29 02:56:26.33	293.32	36.67	-34.4	-35.6	19.5	0.00e+00	0	59	0	1542455296	40	4145
2026-01-29 02:56:30.38	291.63	36.52	-34.5	-35.7	19.4	0.00e+00	0	58	0	1565523968	40	4165
2026-01-29 02:56:34.41	289.97	36.34	-34.4	-35.6	19.6	0.00e+00	0	58	0	1588592640	40	4101
2026-01-29 02:56:38.45	288.33	36.14	-34.3	-35.5	19.6	0.00e+00	0	58	0	1610612736	40	4086
2026-01-29 02:56:42.50	286.70	35.92	-34.2	-35.4	19.7	0.00e+00	0	58	0	1633681408	40	4019
2026-01-29 02:56:46.54	285.11	35.67	-34.4	-35.6	19.5	0.00e+00	0	58	0	1656750080	40	4110
2026-01-29 02:56:50.58	283.53	35.39	-34.3	-35.5	19.6	0.00e+00	0	58	0	1679818752	40	4057
2026-01-29 02:56:54.61	281.99	35.10	-34.1	-35.3	19.8	0.00e+00	0	59	0	1701838848	40	3959
2026-01-29 02:56:58.65	280.47	34.78	-34.3	-35.5	19.6	0.00e+00	0	58	0	1724907520	40	4058
2026-01-29 02:57:02.70	278.98	34.45	-34.3	-35.5	19.6	0.00e+00	0	58	0	1746927616	40	4075
2026-01-29 02:57:06.74	277.52	34.10	-34.5	-35.7	19.4	0.00e+00	0	59	0	1769996288	40	4164
2026-01-29 02:57:10.78	276.10	33.73	-34.4	-35.6	19.5	0.00e+00	0	59	0	1793064960	40	4112
2026-01-29 02:57:14.82	274.71	33.35	-34.4	-35.6	19.5	0.00e+00	0	58	0	1816133632	40	4112
2026-01-29 02:57:18.86	273.35	32.95	-34.2	-35.4	19.7	0.00e+00	0	59	0	1838153728	40	4014
2026-01-29 02:57:22.90	272.02	32.54	-34.3	-35.5	19.6	0.00e+00	0	59	0	1861222400	40	4075
2026-01-29 02:57:26.94	270.73	32.12	-34.4	-35.6	19.4	0.00e+00	0	59	0	1884291072	40	4127
2026-01-29 02:57:30.99	269.47	31.69	-34.6	-35.8	19.2	0.00e+00	0	58	0	1906311168	40	4236
2026-01-29 02:57:35.03	268.24	31.25	-34.5	-35.7	19.4	0.00e+00	0	59	0	1929379840	40	4156
2026-01-29 02:57:39.07	267.05	30.80	-34.5	-35.7	19.3	0.00e+00	0	58	0	1951399936	40	4186
2026-01-29 02:57:43.11	265.89	30.35	-34.6	-35.8	19.2	0.00e+00	0	59	0	1974468608	40	4229
2026-01-29 02:57:47.15	264.77	29.89	-34.7	-35.9	19.1	0.00e+00	0	59	0	1997537280	40	4257
2026-01-29 02:57:51.19	263.67	29.42	-34.5	-35.8	19.2	0.00e+00	0	59	0	2020605952	40	4197
2026-01-29 02:57:55.24	262.60	28.95	-34.6	-35.8	19.2	0.00e+00	0	58	0	2042626048	40	4222
2026-01-29 02:57:59.28	261.57	28.48	-34.7	-35.9	19.1	0.00e+00	0	59	0	2065694720	40	4268
2026-01-29 02:58:03.32	260.57	28.01	-34.7	-35.9	19.1	0.00e+00	0	59	0	2088763392	40	4288
2026-01-29 02:58:07.36	259.60	27.54	-34.7	-35.9	19.0	0.00e+00	0	59	0	2110783488	40	4291
2026-01-29 02:58:11.40	258.65	27.06	-34.8	-36.0	18.9	0.00e+00	0	59	0	2133852160	40	4328
2026-01-29 02:58:15.45	257.73	26.58	-34.9	-36.2	18.8	0.00e+00	0	59	0	2156920832	40	4416
2026-01-29 02:58:19.49	256.85	26.11	-34.9	-36.2	18.7	0.00e+00	0	59	0	2178940928	40	4425
2026-01-29 02:58:23.53	255.98	25.64	-35.2	-36.5	18.4	0.00e+00	0	59	0	2202009600	40	4580
2026-01-29 02:58:27.57	255.15	25.16	-35.3	-36.6	18.3	0.00e+00	0	59	0	2225078272	41	4366
2026-01-29 02:58:31.62	254.33	24.69	-35.5	-36.8	18.1	0.00e+00	0	59	0	2247098368	41	4486
2026-01-29 02:58:35.66	253.54	24.22	-35.6	-36.9	18.0	0.00e+00	0	59	0	2270167040	41	4540
2026-01-29 02:58:39.70	252.78	23.76	-35.4	-36.8	18.1	0.00e+00	0	59	0	2293235712	41	4450
2026-01-29 02:58:43.74	252.04	23.30	-35.5	-36.9	18.0	0.00e+00	0	59	0	2316304384	41	4510
2026-01-29 02:58:47.78	251.32	22.84	-35.5	-36.9	18.0	0.00e+00	0	59	0	2338324480	41	4496
2026-01-29 02:58:51.82	250.62	22.38	-35.5	-36.8	18.0	0.00e+00	0	59	0	2361393152	41	4491
2026-01-29 02:58:55.86	249.94	21.93	-35.4	-36.8	18.1	0.00e+00	0	59	0	2383413248	41	4446
2026-01-29 02:58:59.90	249.28	21.48	-35.5	-36.8	18.0	0.00e+00	0	59	0	2406481920	41	4492
2026-01-29 02:59:03.94	248.64	21.04	-35.7	-37.0	17.8	0.00e+00	0	59	0	2429550592	41	4595
2026-01-29 02:59:07.99	248.01	20.59	-35.5	-36.9	18.0	0.00e+00	0	59	0	2452619264	41	4497
2026-01-29 02:59:12.03	247.41	20.16	-35.6	-37.0	17.8	0.00e+00	0	59	0	2474639360	41	4588
2026-01-29 02:59:16.07	246.82	19.73	-35.8	-37.2	17.6	0.00e+00	0	59	0	2497708032	42	4435
2026-01-29 02:59:20.10	246.25	19.30	-36.1	-37.6	17.3	0.00e+00	0	59	0	2519728128	42	4599
2026-01-29 02:59:24.15	245.69	18.88	-36.0	-37.5	17.4	0.00e+00	0	59	0	2542796800	42	4551
2026-01-29 02:59:28.20	245.15	18.46	-36.0	-37.5	17.4	0.00e+00	0	59	0	2565865472	42	4557
2026-01-29 02:59:32.24	244.63	18.04	-36.2	-37.6	17.2	0.00e+00	0	59	0	2588934144	42	4630
2026-01-29 02:59:36.27	244.12	17.63	-36.4	-37.9	16.9	0.00e+00	0	59	0	2610954240	43	4514
2026-01-29 02:59:40.31	243.62	17.23	-36.6	-38.1	16.6	0.00e+00	0	59	0	2634022912	43	4636
2026-01-29 02:59:44.36	243.14	16.82	-36.9	-38.5	16.4	0.00e+00	0	59	0	2657091584	44	4557
2026-01-29 02:59:48.40	242.67	16.43	-37.0	-38.6	16.4	0.00e+00	0	59	0	2679111680	44	4612
2026-01-29 02:59:52.44	242.21	16.04	-36.9	-38.5	16.4	0.00e+00	0	59	0	2702180352	44	4590
2026-01-29 02:59:56.48	241.76	15.65	-37.1	-38.7	16.2	0.00e+00	0	59	0	2725249024	44	4665
2026-01-29 03:00:00.53	241.33	15.26	-37.1	-38.7	16.2	0.00e+00	0	59	0	2747269120	44	4677
2026-01-29 03:00:04.57	240.90	14.88	-37.2	-38.8	16.1	0.00e+00	0	59	0	2770337792	44	4745
2026-01-29 03:00:08.61	240.49	14.51	-37.2	-38.8	16.0	0.00e+00	0	59	0	2793406464	45	4477
2026-01-29 03:00:12.65	240.09	14.14	-37.3	-39.0	15.8	0.00e+00	0	59	0	2815426560	45	4591
2026-01-29 03:00:16.69	239.70	13.77	-37.4	-39.1	15.7	0.00e+00	0	59	0	2838495232	45	4630
2026-01-29 03:00:20.73	239.32	13.41	-37.5	-39.2	15.6	0.00e+00	0	59	0	2861563904	45	4679
2026-01-29 03:00:24.77	238.94	13.05	-37.7	-39.5	15.2	0.00e+00	0	59	0	2884632576	46	4597
2026-01-29 03:00:28.82	238.58	12.70	-37.8	-39.7	15.1	0.00e+00	0	59	0	2906652672	46	4672
2026-01-29 03:00:32.86	238.22	12.35	-37.8	-39.7	15.0	0.00e+00	0	59	0	2929721344	46	4670
2026-01-29 03:00:36.91	237.88	12.00	-37.9	-39.7	15.0	0.00e+00	0	59	0	2951741440	46	4684
2026-01-29 03:00:40.95	237.54	11.66	-37.8	-39.6	15.0	0.00e+00	0	59	0	2974810112	46	4636
2026-01-29 03:00:44.99	237.21	11.32	-37.9	-39.7	14.9	0.00e+00	0	59	0	2997878784	46	4687
2026-01-29 03:00:49.03	236.89	10.99	-38.0	-39.9	14.7	1.10e-06	0	59	0	3020947456	46	4809
2026-01-29 03:00:53.07	236.57	10.65	-38.3	-40.3	14.3	1.10e-06	0	59	0	3042967552	47	4724
2026-01-29 03:00:57.11	236.26	10.33	-38.3	-40.3	14.2	0.00e+00	0	59	0	3066036224	47	4750
2026-01-29 03:01:01.15	235.96	10.00	-38.3	-40.4	14.1	1.10e-06	0	59	0	3089104896	47	4774
2026-01-29 03:01:05.19	235.67	9.68	-38.4	-40.5	14.0	5.70e-06	0	59	0	3111124992	47	4836
2026-01-29 03:01:09.24	235.38	9.36	-38.4	-40.5	13.9	8.00e-06	0	59	0	3134193664	47	4833
2026-01-29 03:01:13.28	235.10	9.05	-38.3	-40.4	14.1	5.70e-06	0	59	0	3157262336	47	4775
2026-01-29 03:01:17.32	234.82	8.74	-38.3	-40.4	14.0	4.50e-06	0	59	0	3179282432	47	4779
2026-01-29 03:01:21.36	234.55	8.43	-38.4	-40.5	13.8	6.80e-06	0	59	0	3202351104	47	4861
2026-01-29 03:01:25.40	234.29	8.13	-38.5	-40.6	13.8	5.70e-06	0	59	0	3225419776	47	4899
2026-01-29 03:01:29.44	234.03	7.83	-44.7	-56.3	3.8	8.46e-01	0	59	104	3238002688	59	15014
2026-01-29 03:01:33.48	233.78	7.53	-45.0	-56.9	3.8	8.46e-01	0	59	104	3238002688	60	15138
2026-01-29 03:01:37.52	233.53	7.23	-45.0	-57.0	3.8	8.47e-01	0	59	104	3238002688	60	15280
2026-01-29 03:01:41.57	233.29	6.94	-45.0	-56.9	3.8	8.46e-01	0	59	104	3238002688	60	15139
2026-01-29 03:01:45.61	233.06	6.65	-44.9	-56.8	3.8	8.46e-01	0	59	104	3238002688	60	15013
2026-01-29 03:01:49.65	232.82	6.36	-44.9	-56.9	3.8	8.46e-01	0	59	104	3238002688	60	15068
2026-01-29 03:01:53.69	232.60	6.08	-44.9	-56.8	3.8	8.46e-01	0	59	104	3238002688	60	15049
2026-01-29 03:01:57.73	232.37	5.80	-44.9	-56.8	3.8	8.46e-01	0	59	104	3238002688	60	14995
2026-01-29 03:02:01.78	232.15	5.52	-44.9	-56.8	3.8	8.47e-01	0	59	104	3238002688	60	15024
2026-01-29 03:02:05.82	231.94	5.24	-44.8	-56.8	3.8	8.46e-01	0	59	104	3238002688	60	14940
2026-01-29 03:02:09.85	231.73	4.97	-44.8	-56.8	3.8	8.46e-01	0	59	104	3238002688	60	14997
2026-01-29 03:02:13.89	231.53	4.70	-44.8	-56.8	3.8	8.46e-01	0	59	104	3238002688	60	14955
2026-01-29 03:02:17.94	231.32	4.43	-44.8	-56.8	3.8	8.46e-01	0	59	104	3238002688	60	15010
2026-01-29 03:02:21.98	231.13	4.16	-44.8	-56.8	3.8	8.46e-01	0	59	104	3238002688	60	15008
2026-01-29 03:02:26.02	230.93	3.90	-44.8	-56.8	3.8	8.46e-01	0	59	104	3238002688	60	14962
2026-01-29 03:02:30.06	230.74	3.64	-44.8	-56.8	3.8	8.46e-01	0	59	104	3238002688	60	14980
2026-01-29 03:02:34.10	230.55	3.38	-44.8	-56.8	3.8	8.45e-01	0	59	104	3238002688	60	14994
2026-01-29 03:02:38.14	230.37	3.12	-44.8	-56.8	3.8	8.45e-01	0	59	104	3238002688	60	14947
2026-01-29 03:02:42.18	230.19	2.86	-44.8	-56.8	3.8	8.46e-01	0	59	104	3238002688	60	14885
2026-01-29 03:02:46.23	230.01	2.61	-44.8	-56.8	3.8	8.45e-01	0	59	104	3238002688	60	14934
2026-01-29 03:02:50.27	229.84	2.36	-44.8	-56.8	3.8	8.47e-01	0	59	104	3238002688	60	14880
2026-01-29 03:02:54.31	229.67	2.11	-44.8	-56.8	3.8	8.46e-01	0	59	104	3238002688	60	14914
2026-01-29 03:02:58.35	229.50	1.86	-44.8	-56.8	3.8	8.46e-01	0	59	104	3238002688	60	14971

#Closed at: 2026-01-29 03:02:58
#Recorded file [3238 MB]: D:/lorett/data/31039_260129_054917.dat