passes_logs/2026/01/29/R2.0S_Moscow/R2.0S_Moscow__20260129_123953_FENGYUN_3D_rec.log

#Pass ID: 20260129_123953_FENGYUN 3D
#Satellite: FENGYUN 3D
#Configuration: FENGYUN 3D
#almurnet v.1.7.20251203
#Start time: 2026-01-29 12:39:54

#Version: 2.2.20231116
#Station: R2.0S_Moscow
#Location: 37.707566 lon 55.798166 lat
#TLE: 1 43010U 17072A   26027.97130493  .00000326  00000+0  17586-3 0  9998
#TLE: 2 43010  98.9960 359.9900 0002514  87.8428 272.3036 14.19701925425097

#Time	Az	El	Level	Level2	SNR	BER	BlckErr	Temp	State	Recorded	gain1	gain2
2026-01-29 12:39:54.62	180.23	2.08	-44.0	-55.6	3.8	8.47e-01	0	51	0	0	59	13858
2026-01-29 12:39:58.65	180.36	2.34	-44.0	-55.6	3.8	8.46e-01	0	52	104	0	59	13853
2026-01-29 12:40:02.69	180.50	2.59	-44.0	-55.6	3.8	8.47e-01	0	52	104	0	59	13851
2026-01-29 12:40:06.74	180.64	2.85	-44.0	-55.7	3.8	8.46e-01	0	52	104	0	59	13886
2026-01-29 12:40:10.78	180.78	3.11	-44.0	-55.7	3.8	8.46e-01	0	52	104	0	59	13892
2026-01-29 12:40:14.82	180.93	3.38	-44.0	-55.6	3.8	8.45e-01	0	53	104	0	59	13882
2026-01-29 12:40:18.86	181.08	3.64	-44.0	-55.7	3.8	8.45e-01	0	53	104	0	59	13895
2026-01-29 12:40:22.90	181.23	3.91	-44.0	-55.6	3.8	8.45e-01	0	53	104	0	59	13867
2026-01-29 12:40:26.95	181.38	4.18	-44.0	-55.6	3.8	8.47e-01	0	54	104	0	59	13828
2026-01-29 12:40:30.99	181.53	4.46	-44.0	-55.5	3.8	8.46e-01	0	54	104	0	59	13719
2026-01-29 12:40:35.03	181.69	4.73	-43.9	-55.2	3.8	8.47e-01	0	54	104	0	59	13195
2026-01-29 12:40:39.07	181.85	5.01	-43.9	-54.5	3.8	8.46e-01	0	54	104	0	59	12171
2026-01-29 12:40:43.12	182.01	5.29	-43.8	-54.0	3.8	8.46e-01	0	54	104	0	59	11440
2026-01-29 12:40:47.16	182.18	5.58	-43.7	-53.0	3.9	8.42e-01	0	55	104	0	59	10277
2026-01-29 12:40:51.20	182.35	5.87	-43.4	-51.6	4.3	8.32e-01	0	55	0	0	58	9214
2026-01-29 12:40:55.24	182.52	6.16	-43.0	-49.6	5.2	7.49e-01	0	55	0	0	58	7319
2026-01-29 12:40:59.29	182.70	6.45	-42.3	-47.5	6.9	2.18e-01	0	55	0	16777216	56	6434
2026-01-29 12:41:03.33	182.88	6.75	-41.4	-45.5	8.6	5.63e-02	0	55	0	39845888	54	5786
2026-01-29 12:41:07.37	183.06	7.05	-40.8	-44.3	9.8	1.58e-02	0	56	0	62914560	53	5318
2026-01-29 12:41:11.41	183.25	7.35	-40.2	-43.3	10.9	3.61e-03	0	56	0	84934656	52	5015
2026-01-29 12:41:15.46	183.44	7.66	-39.8	-42.5	11.7	8.41e-04	0	56	0	108003328	51	4861
2026-01-29 12:41:19.50	183.63	7.97	-39.8	-42.7	11.6	8.33e-04	0	56	0	131072000	51	4928
2026-01-29 12:41:23.54	183.83	8.28	-40.4	-43.4	10.9	5.19e-03	0	56	0	154140672	52	5086
2026-01-29 12:41:27.59	184.03	8.60	-39.6	-42.2	12.1	3.54e-04	0	56	0	175112192	51	4705
2026-01-29 12:41:31.62	184.23	8.92	-39.4	-41.9	12.6	1.62e-04	0	56	0	197132288	50	4781
2026-01-29 12:41:35.66	184.44	9.25	-39.3	-41.8	12.7	1.81e-04	0	56	0	220200960	50	4745
2026-01-29 12:41:39.71	184.66	9.58	-39.3	-41.8	12.7	1.50e-04	0	57	0	243269632	50	4741
2026-01-29 12:41:43.75	184.88	9.91	-39.3	-41.8	12.7	1.27e-04	0	57	0	265289728	50	4725
2026-01-29 12:41:47.79	185.10	10.25	-39.3	-41.8	12.8	9.61e-05	0	57	0	288358400	50	4715
2026-01-29 12:41:51.82	185.33	10.59	-39.3	-41.7	12.9	8.12e-05	0	57	0	311427072	50	4662
2026-01-29 12:41:55.87	185.57	10.94	-39.3	-41.7	12.9	8.46e-05	0	57	0	333447168	50	4676
2026-01-29 12:41:59.90	185.81	11.29	-39.2	-41.5	13.0	5.37e-05	0	57	0	356515840	50	4598
2026-01-29 12:42:03.94	186.05	11.64	-39.1	-41.4	13.2	4.11e-05	0	57	0	379584512	50	4538
2026-01-29 12:42:07.99	186.30	12.01	-39.0	-41.2	13.4	3.08e-05	0	58	0	402653184	49	4702
2026-01-29 12:42:12.03	186.56	12.37	-38.9	-41.1	13.5	1.37e-05	0	58	0	424673280	49	4641
2026-01-29 12:42:16.07	186.82	12.74	-39.0	-41.2	13.5	1.48e-05	0	58	0	447741952	49	4693
2026-01-29 12:42:20.11	187.09	13.12	-38.9	-41.2	13.5	1.02e-05	0	58	0	469762048	49	4664
2026-01-29 12:42:24.15	187.37	13.50	-38.8	-41.0	13.8	1.02e-05	0	58	0	492830720	49	4556
2026-01-29 12:42:28.19	187.65	13.88	-38.7	-40.8	13.9	9.10e-06	0	58	0	515899392	49	4484
2026-01-29 12:42:32.24	187.94	14.28	-38.6	-40.7	14.1	3.40e-06	0	58	0	538968064	49	4422
2026-01-29 12:42:36.28	188.24	14.68	-38.6	-40.7	14.1	5.70e-06	0	58	0	560988160	49	4418
2026-01-29 12:42:40.32	188.54	15.08	-38.5	-40.6	14.2	3.40e-06	0	58	0	584056832	49	4360
2026-01-29 12:42:44.36	188.86	15.49	-38.3	-40.4	14.5	1.10e-06	0	58	0	607125504	48	4499
2026-01-29 12:42:48.40	189.18	15.91	-38.3	-40.2	14.6	0.00e+00	0	58	0	629145600	48	4441
2026-01-29 12:42:52.44	189.51	16.33	-38.2	-40.1	14.8	1.10e-06	0	58	0	652214272	48	4381
2026-01-29 12:42:56.48	189.85	16.76	-38.1	-40.0	14.9	0.00e+00	0	59	0	675282944	48	4311
2026-01-29 12:43:00.52	190.20	17.19	-37.7	-39.6	15.2	0.00e+00	0	59	0	697303040	47	4373
2026-01-29 12:43:04.56	190.56	17.64	-37.5	-39.2	15.6	0.00e+00	0	59	0	720371712	46	4435
2026-01-29 12:43:08.60	190.93	18.09	-37.6	-39.5	15.4	0.00e+00	0	59	0	743440384	46	4560
2026-01-29 12:43:12.64	191.31	18.54	-37.6	-39.5	15.2	8.00e-06	0	59	0	765460480	46	4576
2026-01-29 12:43:16.68	191.70	19.01	-37.6	-39.5	15.3	4.50e-06	0	59	0	788529152	46	4556
2026-01-29 12:43:20.73	192.10	19.48	-37.5	-39.4	15.4	1.25e-05	0	59	0	811597824	46	4504
2026-01-29 12:43:24.77	192.52	19.96	-37.5	-39.3	15.6	0.00e+00	0	59	0	833617920	46	4465
2026-01-29 12:43:28.82	192.95	20.45	-37.5	-39.3	15.6	0.00e+00	0	59	0	856686592	46	4489
2026-01-29 12:43:32.86	193.39	20.94	-37.1	-38.8	16.2	0.00e+00	0	59	0	879755264	46	4199
2026-01-29 12:43:36.90	193.85	21.45	-37.0	-38.7	16.2	0.00e+00	0	59	0	901775360	46	4172
2026-01-29 12:43:40.94	194.32	21.96	-37.1	-38.8	16.2	0.00e+00	0	59	0	924844032	46	4200
2026-01-29 12:43:44.98	194.80	22.48	-36.9	-38.5	16.4	0.00e+00	0	59	0	947912704	45	4339
2026-01-29 12:43:49.02	195.30	23.01	-36.9	-38.6	16.4	0.00e+00	0	59	0	970981376	45	4344
2026-01-29 12:43:53.06	195.82	23.55	-36.7	-38.3	16.7	0.00e+00	0	59	0	993001472	45	4219
2026-01-29 12:43:57.10	196.36	24.10	-36.7	-38.4	16.6	0.00e+00	0	59	0	1016070144	45	4243
2026-01-29 12:44:01.15	196.92	24.66	-36.8	-38.5	16.4	0.00e+00	0	59	0	1038090240	45	4298
2026-01-29 12:44:05.19	197.49	25.22	-36.7	-38.4	16.6	0.00e+00	0	60	0	1061158912	45	4244
2026-01-29 12:44:09.22	198.09	25.80	-36.8	-38.4	16.6	0.00e+00	0	59	0	1084227584	45	4252
2026-01-29 12:44:13.26	198.70	26.38	-36.7	-38.2	16.7	0.00e+00	0	59	0	1106247680	45	4189
2026-01-29 12:44:17.30	199.34	26.97	-36.4	-38.0	17.0	0.00e+00	0	59	0	1129316352	44	4327
2026-01-29 12:44:21.34	200.01	27.58	-36.5	-38.0	16.9	0.00e+00	0	60	0	1152385024	44	4329
2026-01-29 12:44:25.39	200.70	28.19	-36.3	-37.9	17.1	0.00e+00	0	60	0	1175453696	44	4244
2026-01-29 12:44:29.42	201.41	28.81	-36.5	-38.1	16.9	0.00e+00	0	60	0	1197473792	44	4352
2026-01-29 12:44:33.46	202.15	29.44	-36.5	-38.1	16.9	0.00e+00	0	60	0	1220542464	44	4366
2026-01-29 12:44:37.50	202.93	30.08	-36.3	-37.8	17.3	0.00e+00	0	60	0	1242562560	44	4215
2026-01-29 12:44:41.54	203.73	30.73	-36.4	-37.9	17.1	0.00e+00	0	60	0	1265631232	44	4280
2026-01-29 12:44:45.58	204.56	31.38	-36.5	-38.1	17.0	0.00e+00	0	60	0	1288699904	44	4360
2026-01-29 12:44:49.62	205.43	32.05	-36.3	-37.9	17.2	0.00e+00	0	60	0	1311768576	44	4243
2026-01-29 12:44:53.66	206.34	32.72	-36.3	-37.9	17.2	0.00e+00	0	60	0	1333788672	44	4245
2026-01-29 12:44:57.70	207.28	33.40	-36.4	-38.0	17.1	0.00e+00	0	60	0	1356857344	44	4292
2026-01-29 12:45:01.74	208.26	34.09	-36.2	-37.7	17.4	0.00e+00	0	60	0	1379926016	44	4170
2026-01-29 12:45:05.79	209.29	34.78	-36.0	-37.5	17.6	0.00e+00	0	60	0	1401946112	44	4083
2026-01-29 12:45:09.83	210.36	35.48	-36.3	-37.8	17.3	0.00e+00	0	60	0	1425014784	44	4229
2026-01-29 12:45:13.87	211.47	36.18	-36.2	-37.7	17.4	0.00e+00	0	60	0	1448083456	44	4175
2026-01-29 12:45:17.92	212.64	36.88	-36.1	-37.6	17.5	0.00e+00	0	60	0	1470103552	44	4114
2026-01-29 12:45:21.96	213.85	37.59	-36.0	-37.5	17.6	0.00e+00	0	60	0	1493172224	44	4074
2026-01-29 12:45:26.00	215.12	38.30	-35.6	-37.0	18.0	0.00e+00	0	60	0	1516240896	43	4070
2026-01-29 12:45:30.04	216.44	39.00	-36.0	-37.4	17.5	0.00e+00	0	60	0	1538260992	43	4291
2026-01-29 12:45:34.09	217.82	39.70	-35.8	-37.2	17.8	0.00e+00	0	60	0	1561329664	43	4171
2026-01-29 12:45:38.13	219.25	40.40	-36.1	-37.6	17.3	0.00e+00	0	60	0	1584398336	43	4390
2026-01-29 12:45:42.17	220.75	41.09	-35.9	-37.4	17.6	0.00e+00	0	60	0	1607467008	43	4260
2026-01-29 12:45:46.21	222.32	41.77	-35.9	-37.4	17.6	0.00e+00	0	60	0	1629487104	43	4247
2026-01-29 12:45:50.26	223.95	42.44	-35.9	-37.4	17.6	0.00e+00	0	60	0	1652555776	43	4274
2026-01-29 12:45:54.30	225.65	43.09	-35.9	-37.3	17.7	0.00e+00	0	60	0	1674575872	43	4224
2026-01-29 12:45:58.34	227.41	43.73	-36.0	-37.4	17.6	0.00e+00	0	60	0	1697644544	43	4277
2026-01-29 12:46:02.38	229.25	44.34	-36.4	-38.0	17.1	0.00e+00	0	60	0	1720713216	43	4546
2026-01-29 12:46:06.43	231.16	44.93	-36.3	-37.8	17.2	0.00e+00	0	60	0	1743781888	43	4456
2026-01-29 12:46:10.47	233.13	45.50	-36.4	-37.9	17.1	0.00e+00	0	60	0	1765801984	43	4522
2026-01-29 12:46:14.51	235.18	46.03	-36.3	-37.8	17.2	0.00e+00	0	60	0	1788870656	43	4473
2026-01-29 12:46:18.54	237.28	46.53	-36.2	-37.7	17.3	0.00e+00	0	60	0	1811939328	43	4436
2026-01-29 12:46:22.59	239.46	46.99	-36.2	-37.7	17.3	0.00e+00	0	60	0	1833959424	43	4400
2026-01-29 12:46:26.63	241.70	47.41	-36.2	-37.7	17.3	0.00e+00	0	60	0	1857028096	43	4392
2026-01-29 12:46:30.67	243.99	47.79	-36.1	-37.6	17.4	0.00e+00	0	60	0	1880096768	43	4351
2026-01-29 12:46:34.72	246.34	48.12	-36.4	-38.0	17.1	0.00e+00	0	60	0	1902116864	43	4554
2026-01-29 12:46:38.75	248.73	48.40	-36.3	-37.8	17.2	0.00e+00	0	60	0	1925185536	43	4474
2026-01-29 12:46:42.80	251.17	48.62	-36.3	-37.8	17.2	0.00e+00	0	61	0	1948254208	43	4459
2026-01-29 12:46:46.84	253.63	48.80	-36.2	-37.7	17.3	0.00e+00	0	60	0	1970274304	43	4415
2026-01-29 12:46:50.88	256.11	48.91	-36.2	-37.7	17.3	0.00e+00	0	61	0	1993342976	43	4421
2026-01-29 12:46:54.92	258.61	48.97	-36.3	-37.9	17.2	0.00e+00	0	60	0	2016411648	43	4500
2026-01-29 12:46:58.96	261.12	48.98	-36.6	-38.2	16.8	0.00e+00	0	60	0	2038431744	43	4695
2026-01-29 12:47:03.01	263.62	48.92	-36.3	-37.9	17.2	0.00e+00	0	60	0	2061500416	43	4504
2026-01-29 12:47:07.05	266.11	48.81	-36.6	-38.2	16.8	0.00e+00	0	60	0	2084569088	43	4687
2026-01-29 12:47:11.09	268.57	48.64	-36.3	-37.8	17.3	0.00e+00	0	60	0	2106589184	43	4454
2026-01-29 12:47:15.13	271.01	48.42	-36.2	-37.7	17.3	0.00e+00	0	60	0	2129657856	43	4436
2026-01-29 12:47:19.17	273.40	48.15	-36.7	-38.3	16.9	0.00e+00	0	60	0	2152726528	44	4491
2026-01-29 12:47:23.21	275.75	47.82	-36.5	-38.0	17.2	0.00e+00	0	60	0	2174746624	44	4326
2026-01-29 12:47:27.25	278.04	47.45	-36.4	-37.9	17.3	0.00e+00	0	60	0	2197815296	44	4284
2026-01-29 12:47:31.28	280.28	47.04	-36.6	-38.2	17.0	0.00e+00	0	60	0	2220883968	44	4399
2026-01-29 12:47:35.32	282.45	46.58	-36.4	-37.8	17.6	0.00e+00	0	61	0	2243952640	44	4199
2026-01-29 12:47:39.36	284.57	46.09	-36.2	-37.5	17.8	0.00e+00	0	61	0	2265972736	44	4094
2026-01-29 12:47:43.41	286.62	45.56	-36.6	-38.0	17.4	0.00e+00	0	61	0	2289041408	44	4321
2026-01-29 12:47:47.45	288.59	45.00	-36.7	-38.2	17.2	0.00e+00	0	60	0	2311061504	44	4395
2026-01-29 12:47:51.49	290.50	44.41	-36.5	-37.9	17.5	0.00e+00	0	60	0	2334130176	44	4272
2026-01-29 12:47:55.53	292.34	43.80	-36.4	-37.8	17.6	0.00e+00	0	61	0	2357198848	44	4207
2026-01-29 12:47:59.58	294.11	43.17	-36.6	-38.0	17.4	0.00e+00	0	61	0	2380267520	44	4304
2026-01-29 12:48:03.62	295.81	42.52	-36.6	-38.0	17.4	0.00e+00	0	61	0	2402287616	44	4319
2026-01-29 12:48:07.66	297.44	41.86	-36.3	-37.6	17.7	0.00e+00	0	61	0	2425356288	44	4137
2026-01-29 12:48:11.70	299.01	41.18	-36.4	-37.9	17.5	0.00e+00	0	60	0	2448424960	44	4252
2026-01-29 12:48:15.74	300.51	40.50	-36.1	-37.4	17.9	0.00e+00	0	60	0	2470445056	44	4050
2026-01-29 12:48:19.78	301.95	39.81	-36.1	-37.5	17.8	0.00e+00	0	61	0	2493513728	44	4079
2026-01-29 12:48:23.82	303.33	39.11	-36.1	-37.5	17.8	0.00e+00	0	61	0	2516582400	44	4065
2026-01-29 12:48:27.86	304.66	38.41	-35.8	-37.1	18.1	0.00e+00	0	60	0	2538602496	43	4118
2026-01-29 12:48:31.89	305.92	37.71	-35.9	-37.2	17.9	0.00e+00	0	61	0	2561671168	43	4183
2026-01-29 12:48:35.94	307.14	37.01	-35.9	-37.3	17.9	0.00e+00	0	61	0	2584739840	43	4209
2026-01-29 12:48:39.98	308.30	36.31	-36.1	-37.5	17.7	0.00e+00	0	61	0	2606759936	43	4316
2026-01-29 12:48:44.02	309.42	35.61	-36.0	-37.4	17.8	0.00e+00	0	61	0	2629828608	43	4246
2026-01-29 12:48:48.06	310.49	34.92	-36.2	-37.6	17.5	0.00e+00	0	61	0	2652897280	43	4368
2026-01-29 12:48:52.11	311.52	34.23	-35.9	-37.2	17.9	0.00e+00	0	61	0	2674917376	43	4185
2026-01-29 12:48:56.15	312.51	33.54	-35.9	-37.2	17.9	0.00e+00	0	60	0	2697986048	43	4190
2026-01-29 12:49:00.19	313.45	32.87	-36.2	-37.6	17.5	0.00e+00	0	60	0	2721054720	43	4349
2026-01-29 12:49:04.24	314.36	32.20	-36.2	-37.6	17.5	0.00e+00	0	61	0	2743074816	43	4354
2026-01-29 12:49:08.28	315.23	31.53	-36.3	-37.8	17.3	0.00e+00	0	61	0	2766143488	43	4448
2026-01-29 12:49:12.32	316.07	30.88	-36.2	-37.6	17.5	0.00e+00	0	61	0	2789212160	43	4365
2026-01-29 12:49:16.36	316.88	30.23	-36.1	-37.5	17.6	0.00e+00	0	61	0	2811232256	43	4304
2026-01-29 12:49:20.40	317.65	29.60	-36.1	-37.5	17.5	0.00e+00	0	61	0	2834300928	43	4331
2026-01-29 12:49:24.44	318.40	28.97	-36.4	-37.8	17.2	0.00e+00	0	61	0	2857369600	43	4490
2026-01-29 12:49:28.48	319.12	28.35	-36.5	-38.0	17.1	0.00e+00	0	61	0	2880438272	43	4592
2026-01-29 12:49:32.52	319.81	27.74	-36.3	-37.8	17.3	0.00e+00	0	61	0	2902458368	43	4463
2026-01-29 12:49:36.56	320.47	27.14	-36.3	-37.7	17.3	0.00e+00	0	61	0	2925527040	43	4419
2026-01-29 12:49:40.60	321.12	26.55	-36.3	-37.8	17.3	0.00e+00	0	60	0	2947547136	43	4452
2026-01-29 12:49:44.65	321.74	25.97	-36.4	-37.9	17.1	0.00e+00	0	61	0	2970615808	43	4540
2026-01-29 12:49:48.68	322.34	25.40	-36.5	-38.0	17.0	0.00e+00	0	61	0	2993684480	43	4582
2026-01-29 12:49:52.73	322.92	24.83	-36.5	-37.9	17.1	0.00e+00	0	61	0	3016753152	43	4527
2026-01-29 12:49:56.77	323.47	24.28	-36.4	-37.9	17.1	0.00e+00	0	61	0	3038773248	43	4507
2026-01-29 12:50:00.81	324.01	23.73	-36.7	-38.2	16.8	0.00e+00	0	61	0	3061841920	43	4652
2026-01-29 12:50:04.85	324.54	23.19	-37.2	-38.8	16.4	0.00e+00	0	61	0	3084910592	44	4709
2026-01-29 12:50:08.89	325.04	22.67	-37.3	-38.9	16.2	0.00e+00	0	61	0	3106930688	45	4532
2026-01-29 12:50:12.93	325.53	22.15	-37.3	-38.9	16.2	0.00e+00	0	61	0	3129999360	45	4529
2026-01-29 12:50:16.97	326.00	21.64	-37.1	-38.7	16.4	0.00e+00	0	61	0	3153068032	45	4404
2026-01-29 12:50:21.02	326.46	21.13	-37.3	-38.9	16.2	0.00e+00	0	61	0	3175088128	45	4505
2026-01-29 12:50:25.06	326.91	20.64	-37.3	-39.0	16.1	0.00e+00	0	61	0	3198156800	45	4551
2026-01-29 12:50:29.10	327.34	20.15	-37.4	-39.0	16.0	0.00e+00	0	61	0	3221225472	45	4565
2026-01-29 12:50:33.14	327.76	19.68	-37.4	-39.1	15.9	0.00e+00	0	61	0	3243245568	45	4602
2026-01-29 12:50:37.18	328.17	19.21	-37.7	-39.4	15.6	0.00e+00	0	61	0	3266314240	45	4776
2026-01-29 12:50:41.23	328.56	18.74	-38.0	-39.8	15.1	1.10e-06	0	61	0	3289382912	46	4729
2026-01-29 12:50:45.27	328.94	18.29	-38.1	-40.0	15.0	2.20e-06	0	61	0	3312451584	46	4827
2026-01-29 12:50:49.32	329.32	17.84	-38.1	-40.0	14.9	0.00e+00	0	61	0	3334471680	46	4835
2026-01-29 12:50:53.36	329.68	17.40	-38.0	-39.8	15.1	0.00e+00	0	61	0	3357540352	46	4738
2026-01-29 12:50:57.39	330.03	16.96	-38.0	-39.8	15.1	0.00e+00	0	61	0	3379560448	46	4729
2026-01-29 12:51:01.44	330.38	16.53	-38.1	-40.0	14.8	1.10e-06	0	61	0	3402629120	46	4832
2026-01-29 12:51:05.48	330.71	16.11	-38.3	-40.2	14.6	1.10e-06	0	61	0	3425697792	47	4688
2026-01-29 12:51:09.52	331.04	15.70	-38.4	-40.4	14.3	3.40e-06	0	61	0	3448766464	47	4802
2026-01-29 12:51:13.56	331.35	15.29	-38.6	-40.6	14.1	2.20e-06	0	61	0	3470786560	47	4906
2026-01-29 12:51:17.60	331.66	14.89	-38.6	-40.6	14.1	4.50e-06	0	61	0	3493855232	47	4895
2026-01-29 12:51:21.64	331.96	14.49	-38.6	-40.7	14.0	5.70e-06	0	61	0	3516923904	47	4948
2026-01-29 12:51:25.68	332.26	14.10	-38.7	-40.7	13.9	8.00e-06	0	61	0	3538944000	47	4983
2026-01-29 12:51:29.72	332.54	13.71	-38.9	-41.1	13.7	1.71e-05	0	61	0	3562012672	48	4874
2026-01-29 12:51:33.76	332.82	13.33	-39.0	-41.2	13.5	9.10e-06	0	61	0	3585081344	48	4983
2026-01-29 12:51:37.80	333.10	12.96	-39.0	-41.2	13.5	2.17e-05	0	61	0	3607101440	48	4970
2026-01-29 12:51:41.84	333.36	12.59	-39.1	-41.3	13.3	3.43e-05	0	61	0	3630170112	48	5019
2026-01-29 12:51:45.88	333.62	12.23	-39.0	-41.3	13.3	2.74e-05	0	61	0	3653238784	48	4988
2026-01-29 12:51:49.92	333.88	11.87	-39.1	-41.3	13.3	3.20e-05	0	61	0	3675258880	48	5026
2026-01-29 12:51:53.96	334.13	11.51	-39.1	-41.4	13.1	4.34e-05	0	61	0	3698327552	48	5092
2026-01-29 12:51:58.00	334.37	11.16	-39.3	-41.8	12.8	9.04e-05	0	61	0	3721396224	49	4986
2026-01-29 12:52:02.05	334.61	10.82	-39.5	-41.9	12.6	1.68e-04	0	61	0	3743416320	49	5084
2026-01-29 12:52:06.08	334.84	10.48	-39.6	-42.1	12.3	2.63e-04	0	61	0	3766484992	49	5214
2026-01-29 12:52:10.12	335.07	10.14	-39.6	-42.1	12.3	2.57e-04	0	61	0	3789553664	49	5213
2026-01-29 12:52:14.16	335.29	9.81	-39.5	-42.1	12.3	2.20e-04	0	61	0	3811573760	49	5161
2026-01-29 12:52:18.20	335.51	9.48	-39.5	-42.1	12.3	2.99e-04	0	61	0	3834642432	49	5161
2026-01-29 12:52:22.25	335.73	9.15	-39.6	-42.2	12.1	3.58e-04	0	61	0	3857711104	49	5239
2026-01-29 12:52:26.29	335.94	8.83	-39.4	-42.0	12.1	3.50e-04	0	61	0	3879731200	49	5132
2026-01-29 12:52:30.33	336.14	8.52	-39.6	-42.3	11.7	7.59e-04	0	61	0	3902799872	49	5309
2026-01-29 12:52:34.38	336.35	8.20	-39.4	-42.2	11.7	6.86e-04	0	61	0	3925868544	49	5237
2026-01-29 12:52:38.42	336.55	7.89	-44.2	-55.8	3.8	8.42e-01	0	61	104	3943694336	58	14990
2026-01-29 12:52:42.46	336.74	7.59	-44.9	-56.8	3.8	8.45e-01	0	61	104	3943694336	60	14938
2026-01-29 12:52:46.51	336.93	7.28	-45.1	-57.0	3.8	8.45e-01	0	61	104	3943694336	60	15320
2026-01-29 12:52:50.55	337.12	6.99	-45.0	-56.9	3.8	8.45e-01	0	61	104	3943694336	60	15222
2026-01-29 12:52:54.59	337.30	6.69	-44.9	-56.9	3.8	8.46e-01	0	61	104	3943694336	60	15130
2026-01-29 12:52:58.64	337.48	6.40	-44.9	-56.9	3.8	8.45e-01	0	61	104	3943694336	60	15092
2026-01-29 12:53:02.68	337.66	6.11	-44.9	-56.8	3.8	8.46e-01	0	61	104	3943694336	60	15011
2026-01-29 12:53:06.72	337.83	5.82	-44.9	-56.8	3.8	8.47e-01	0	61	104	3943694336	60	14988
2026-01-29 12:53:10.77	338.01	5.54	-44.9	-56.8	3.8	8.46e-01	0	61	104	3943694336	60	15005
2026-01-29 12:53:14.81	338.17	5.25	-44.9	-56.8	3.8	8.45e-01	0	61	104	3943694336	60	15018
2026-01-29 12:53:18.85	338.34	4.98	-44.9	-56.8	3.8	8.46e-01	0	61	104	3943694336	60	15020
2026-01-29 12:53:22.89	338.50	4.70	-44.9	-56.8	3.8	8.46e-01	0	61	104	3943694336	60	15016
2026-01-29 12:53:26.94	338.66	4.43	-44.9	-56.8	3.8	8.47e-01	0	61	104	3943694336	60	15040
2026-01-29 12:53:30.98	338.82	4.16	-44.9	-56.8	3.8	8.47e-01	0	61	104	3943694336	60	14984
2026-01-29 12:53:35.02	338.97	3.89	-44.9	-56.8	3.8	8.46e-01	0	61	104	3943694336	60	14983
2026-01-29 12:53:39.06	339.13	3.63	-44.9	-56.8	3.8	8.47e-01	0	61	104	3943694336	60	15033
2026-01-29 12:53:43.10	339.28	3.36	-44.9	-56.8	3.8	8.47e-01	0	61	104	3943694336	60	14989
2026-01-29 12:53:47.15	339.42	3.10	-44.9	-56.8	3.8	8.45e-01	0	61	104	3943694336	60	15009
2026-01-29 12:53:51.19	339.57	2.84	-44.8	-56.8	3.8	8.46e-01	0	61	104	3943694336	60	14953
2026-01-29 12:53:55.23	339.71	2.59	-44.8	-56.8	3.8	8.47e-01	0	61	104	3943694336	60	14966
2026-01-29 12:53:59.27	339.85	2.34	-44.8	-56.8	3.8	8.46e-01	0	61	104	3943694336	60	14950
2026-01-29 12:54:03.31	339.99	2.08	-44.8	-56.8	3.8	8.46e-01	0	61	104	3943694336	60	15006

#Closed at: 2026-01-29 12:54:05
#Recorded file [3943 MB]: D:/lorett/data/31039_260129_153954.dat