passes_logs/2026/01/29/R2.0S_Moscow/R2.0S_Moscow__20260129_043132_FENGYUN_3E_rec.log

#Pass ID: 20260129_043132_FENGYUN 3E
#Satellite: FENGYUN 3E
#Configuration: FENGYUN 3E
#almurnet v.1.7.20251203
#Start time: 2026-01-29 04:31:32

#Version: 2.2.20231116
#Station: R2.0S_Moscow
#Location: 37.707566 lon 55.798166 lat
#TLE: 1 49008U 21062A   26027.83084825  .00000170  00000+0  10081-3 0  9997
#TLE: 2 49008  98.7501  32.8098 0002509 114.2687 245.8752 14.19888158236667

#Time	Az	El	Level	Level2	SNR	BER	BlckErr	Temp	State	Recorded	gain1	gain2
2026-01-29 04:31:32.37	13.79	2.02	-42.3	-53.3	3.8	8.46e-01	0	49	0	0	55	12602
2026-01-29 04:31:36.41	13.70	2.27	-42.5	-53.5	3.8	8.45e-01	0	49	104	0	56	12121
2026-01-29 04:31:40.45	13.61	2.53	-42.5	-53.4	3.8	8.46e-01	0	50	104	0	56	12088
2026-01-29 04:31:44.49	13.52	2.79	-42.5	-53.5	3.8	8.46e-01	0	50	104	0	56	12099
2026-01-29 04:31:48.53	13.43	3.05	-42.5	-53.5	3.8	8.46e-01	0	50	104	0	56	12102
2026-01-29 04:31:52.57	13.34	3.32	-42.5	-53.4	3.8	8.45e-01	0	50	104	0	56	12063
2026-01-29 04:31:56.62	13.24	3.59	-42.3	-53.0	3.8	8.46e-01	0	51	104	0	55	12218
2026-01-29 04:32:00.66	13.15	3.86	-42.3	-52.6	3.8	8.46e-01	0	51	104	0	55	11559
2026-01-29 04:32:04.70	13.05	4.13	-42.2	-52.4	3.8	8.46e-01	0	51	104	0	55	11386
2026-01-29 04:32:08.74	12.94	4.41	-42.1	-51.7	3.8	8.46e-01	0	51	104	0	55	10528
2026-01-29 04:32:12.78	12.84	4.69	-42.0	-51.0	3.8	8.45e-01	0	52	104	0	55	9683
2026-01-29 04:32:16.83	12.73	4.97	-42.0	-50.8	4.0	8.45e-01	0	52	104	0	55	9405
2026-01-29 04:32:20.86	12.63	5.25	-42.0	-51.2	3.8	8.43e-01	0	52	104	0	55	9916
2026-01-29 04:32:24.91	12.51	5.54	-42.2	-52.1	3.8	8.45e-01	0	52	104	0	55	10953
2026-01-29 04:32:28.95	12.40	5.83	-42.1	-51.8	3.8	8.47e-01	0	53	104	0	55	10655
2026-01-29 04:32:32.99	12.28	6.12	-42.0	-50.6	4.0	8.43e-01	0	53	104	0	54	9730
2026-01-29 04:32:37.03	12.17	6.42	-41.3	-47.5	5.1	7.72e-01	0	53	0	0	53	7283
2026-01-29 04:32:41.08	12.04	6.72	-40.3	-44.5	7.5	1.45e-01	0	53	0	19922944	51	5769
2026-01-29 04:32:45.12	11.92	7.02	-39.3	-42.6	9.4	1.81e-02	0	53	0	49283072	49	5196
2026-01-29 04:32:49.17	11.79	7.33	-38.8	-41.7	10.5	4.84e-03	0	54	0	78643200	48	4936
2026-01-29 04:32:53.21	11.66	7.64	-39.0	-42.1	10.0	7.99e-03	0	54	0	106954752	48	5174
2026-01-29 04:32:57.26	11.53	7.95	-39.8	-43.5	8.6	3.63e-02	0	54	0	136314880	49	5731
2026-01-29 04:33:01.30	11.39	8.27	-41.2	-46.6	5.9	7.23e-01	0	54	0	163577856	52	6940
2026-01-29 04:33:05.34	11.25	8.59	-40.6	-45.5	6.5	2.40e-01	0	54	0	188743680	51	6475
2026-01-29 04:33:09.38	11.10	8.92	-41.0	-46.2	6.1	3.83e-01	0	54	0	218103808	51	7006
2026-01-29 04:33:13.42	10.95	9.25	-40.9	-46.2	5.9	6.35e-01	0	55	0	229638144	52	6635
2026-01-29 04:33:17.45	10.80	9.58	-41.1	-47.4	5.1	7.66e-01	0	54	0	233832448	53	7127
2026-01-29 04:33:21.50	10.65	9.92	-41.5	-48.1	4.8	8.27e-01	0	55	0	234881024	53	7805
2026-01-29 04:33:25.54	10.49	10.26	-41.7	-50.1	3.9	8.43e-01	0	55	104	234881024	53	9802
2026-01-29 04:33:29.58	10.32	10.61	-41.1	-47.8	4.8	8.02e-01	0	55	0	234881024	53	7503
2026-01-29 04:33:33.62	10.16	10.96	-40.9	-49.2	4.1	8.15e-01	0	55	0	234881024	52	9305
2026-01-29 04:33:37.66	9.98	11.32	-41.6	-46.6	6.4	2.81e-01	0	55	0	243269632	53	6512
2026-01-29 04:33:41.71	9.80	11.68	-40.0	-43.2	9.9	1.59e-02	0	55	0	272629760	51	4927
2026-01-29 04:33:45.75	9.62	12.05	-38.1	-40.3	12.8	9.49e-05	0	55	0	301989888	47	4454
2026-01-29 04:33:49.79	9.43	12.42	-37.9	-39.9	13.3	2.63e-05	0	56	0	330301440	46	4500
2026-01-29 04:33:53.83	9.24	12.80	-38.0	-40.0	13.3	1.48e-05	0	56	0	359661568	46	4584
2026-01-29 04:33:57.87	9.04	13.18	-38.0	-39.9	13.6	1.25e-05	0	56	0	389021696	46	4525
2026-01-29 04:34:01.91	8.84	13.57	-38.1	-40.0	13.7	5.70e-06	0	56	0	418381824	46	4562
2026-01-29 04:34:05.96	8.63	13.97	-38.1	-39.9	14.1	5.70e-06	0	56	0	447741952	46	4495
2026-01-29 04:34:10.00	8.41	14.37	-38.1	-39.9	14.1	1.10e-06	0	56	0	477102080	46	4526
2026-01-29 04:34:14.04	8.19	14.77	-37.8	-39.5	14.6	0.00e+00	0	56	0	505413632	46	4308
2026-01-29 04:34:18.08	7.96	15.19	-37.6	-39.3	14.9	0.00e+00	0	56	0	534773760	46	4200
2026-01-29 04:34:22.12	7.73	15.61	-37.6	-39.2	15.0	0.00e+00	0	56	0	564133888	46	4168
2026-01-29 04:34:26.17	7.48	16.04	-37.4	-39.0	15.2	0.00e+00	0	56	0	593494016	45	4321
2026-01-29 04:34:30.21	7.23	16.47	-37.4	-39.0	15.3	0.00e+00	0	56	0	622854144	45	4301
2026-01-29 04:34:34.25	6.97	16.91	-37.3	-38.9	15.4	0.00e+00	0	56	0	652214272	45	4252
2026-01-29 04:34:38.30	6.71	17.36	-37.2	-38.8	15.6	0.00e+00	0	56	0	680525824	45	4199
2026-01-29 04:34:42.34	6.43	17.82	-37.1	-38.6	15.7	0.00e+00	0	57	0	709885952	45	4139
2026-01-29 04:34:46.38	6.15	18.29	-37.2	-38.8	15.6	0.00e+00	0	57	0	739246080	45	4211
2026-01-29 04:34:50.42	5.85	18.76	-37.0	-38.5	15.9	0.00e+00	0	57	0	768606208	44	4329
2026-01-29 04:34:54.47	5.55	19.24	-37.0	-38.4	16.0	0.00e+00	0	57	0	797966336	44	4284
2026-01-29 04:34:58.51	5.24	19.73	-37.0	-38.4	16.1	0.00e+00	0	57	0	826277888	44	4270
2026-01-29 04:35:02.55	4.91	20.23	-36.9	-38.3	16.2	0.00e+00	0	57	0	855638016	44	4222
2026-01-29 04:35:06.59	4.58	20.74	-37.1	-38.5	16.0	0.00e+00	0	57	0	884998144	44	4327
2026-01-29 04:35:10.63	4.23	21.26	-37.1	-38.6	16.0	0.00e+00	0	57	0	914358272	44	4362
2026-01-29 04:35:14.67	3.87	21.78	-37.1	-38.6	16.0	0.00e+00	0	57	0	943718400	44	4349
2026-01-29 04:35:18.72	3.49	22.32	-37.0	-38.5	16.1	0.00e+00	0	57	0	973078528	44	4307
2026-01-29 04:35:22.75	3.11	22.87	-36.7	-38.1	16.5	0.00e+00	0	57	0	1001390080	44	4135
2026-01-29 04:35:26.80	2.70	23.43	-36.7	-38.0	16.6	0.00e+00	0	57	0	1030750208	44	4092
2026-01-29 04:35:30.84	2.29	23.99	-36.3	-37.7	16.8	0.00e+00	0	57	0	1060110336	43	4158
2026-01-29 04:35:34.88	1.85	24.57	-36.3	-37.6	16.9	0.00e+00	0	57	0	1089470464	43	4117
2026-01-29 04:35:38.93	1.40	25.17	-36.1	-37.4	17.1	0.00e+00	0	57	0	1118830592	43	4028
2026-01-29 04:35:42.97	0.93	25.77	-36.1	-37.4	17.2	0.00e+00	0	57	0	1147142144	42	4263
2026-01-29 04:35:47.01	0.45	26.38	-36.0	-37.3	17.3	0.00e+00	0	57	0	1176502272	42	4194
2026-01-29 04:35:51.05	359.94	27.01	-36.0	-37.3	17.3	0.00e+00	0	57	0	1205862400	42	4210
2026-01-29 04:35:55.09	359.41	27.64	-36.2	-37.5	17.1	0.00e+00	0	57	0	1235222528	42	4305
2026-01-29 04:35:59.14	358.86	28.30	-36.0	-37.3	17.3	0.00e+00	0	57	0	1264582656	42	4231
2026-01-29 04:36:03.18	358.29	28.96	-36.1	-37.4	17.2	0.00e+00	0	57	0	1293942784	42	4275
2026-01-29 04:36:07.22	357.69	29.63	-36.1	-37.4	17.3	0.00e+00	0	57	0	1322254336	42	4277
2026-01-29 04:36:11.26	357.06	30.32	-36.1	-37.4	17.3	0.00e+00	0	57	0	1351614464	42	4265
2026-01-29 04:36:15.30	356.41	31.02	-36.1	-37.4	17.3	0.00e+00	0	57	0	1380974592	42	4265
2026-01-29 04:36:19.35	355.73	31.73	-35.9	-37.2	17.5	0.00e+00	0	58	0	1410334720	42	4155
2026-01-29 04:36:23.39	355.01	32.46	-35.9	-37.1	17.6	0.00e+00	0	58	0	1439694848	42	4132
2026-01-29 04:36:27.43	354.26	33.20	-35.7	-37.0	17.8	0.00e+00	0	58	0	1469054976	42	4063
2026-01-29 04:36:31.48	353.48	33.95	-35.5	-36.7	18.1	0.00e+00	0	58	0	1498415104	41	4168
2026-01-29 04:36:35.52	352.66	34.71	-35.8	-37.0	17.7	0.00e+00	0	58	0	1526726656	41	4325
2026-01-29 04:36:39.56	351.79	35.49	-35.8	-37.1	17.7	0.00e+00	0	58	0	1556086784	42	4110
2026-01-29 04:36:43.61	350.89	36.28	-35.6	-36.8	18.0	0.00e+00	0	58	0	1585446912	42	3967
2026-01-29 04:36:47.65	349.93	37.07	-35.6	-36.9	17.9	0.00e+00	0	57	0	1614807040	41	4247
2026-01-29 04:36:51.69	348.93	37.88	-36.0	-37.2	17.6	0.00e+00	0	58	0	1644167168	41	4426
2026-01-29 04:36:55.73	347.88	38.70	-35.9	-37.2	17.6	0.00e+00	0	58	0	1673527296	41	4403
2026-01-29 04:36:59.78	346.77	39.52	-35.7	-37.0	17.8	0.00e+00	0	58	0	1702887424	41	4293
2026-01-29 04:37:03.80	345.61	40.35	-36.1	-37.4	17.5	0.00e+00	0	58	0	1731198976	42	4254
2026-01-29 04:37:07.84	344.39	41.19	-36.5	-37.8	17.0	0.00e+00	0	58	0	1760559104	43	4205
2026-01-29 04:37:11.88	343.09	42.03	-36.3	-37.6	17.3	0.00e+00	0	58	0	1789919232	43	4105
2026-01-29 04:37:15.93	341.72	42.87	-36.0	-37.2	17.6	0.00e+00	0	58	0	1819279360	42	4182
2026-01-29 04:37:19.97	340.29	43.71	-36.0	-37.3	17.6	0.00e+00	0	58	0	1847590912	42	4228
2026-01-29 04:37:24.01	338.77	44.55	-36.5	-37.8	17.1	0.00e+00	0	58	0	1876951040	43	4232
2026-01-29 04:37:28.05	337.17	45.38	-36.5	-37.9	17.0	0.00e+00	0	58	0	1906311168	43	4259
2026-01-29 04:37:32.10	335.48	46.21	-36.0	-37.3	17.6	0.00e+00	0	58	0	1935671296	43	3968
2026-01-29 04:37:36.14	333.71	47.02	-36.9	-38.3	16.5	0.00e+00	0	58	0	1965031424	43	4479
2026-01-29 04:37:40.18	331.83	47.82	-36.8	-38.2	16.7	0.00e+00	0	58	0	1994391552	43	4425
2026-01-29 04:37:44.23	329.86	48.59	-36.8	-38.2	16.7	0.00e+00	0	58	0	2023751680	43	4392
2026-01-29 04:37:48.27	327.79	49.34	-36.5	-37.8	17.1	0.00e+00	0	58	0	2052063232	43	4210
2026-01-29 04:37:52.31	325.62	50.06	-37.9	-39.5	15.6	0.00e+00	0	58	0	2081423360	45	4550
2026-01-29 04:37:56.35	323.34	50.74	-37.3	-38.8	16.3	0.00e+00	0	58	0	2110783488	45	4197
2026-01-29 04:38:00.39	320.96	51.39	-37.1	-38.4	16.6	0.00e+00	0	58	0	2140143616	44	4288
2026-01-29 04:38:04.43	318.48	51.98	-37.3	-38.7	16.3	0.00e+00	0	58	0	2169503744	44	4437
2026-01-29 04:38:08.48	315.90	52.53	-37.3	-38.8	16.3	0.00e+00	0	58	0	2197815296	44	4445
2026-01-29 04:38:12.52	313.23	53.02	-37.2	-38.6	16.4	0.00e+00	0	58	0	2227175424	44	4378
2026-01-29 04:38:16.56	310.47	53.45	-36.8	-38.1	16.9	0.00e+00	0	58	0	2256535552	44	4132
2026-01-29 04:38:20.60	307.63	53.81	-37.8	-39.4	15.7	0.00e+00	0	58	0	2285895680	45	4512
2026-01-29 04:38:24.64	304.74	54.10	-37.1	-38.4	16.6	0.00e+00	0	58	0	2315255808	45	4050
2026-01-29 04:38:28.69	301.78	54.32	-37.3	-38.7	16.3	0.00e+00	0	58	0	2344615936	44	4424
2026-01-29 04:38:32.73	298.79	54.45	-36.8	-38.2	16.9	0.00e+00	0	58	0	2372927488	44	4152
2026-01-29 04:38:36.77	295.78	54.52	-37.3	-38.7	16.3	0.00e+00	0	58	0	2402287616	44	4434
2026-01-29 04:38:40.81	292.76	54.50	-36.8	-38.2	16.8	0.00e+00	0	58	0	2431647744	44	4154
2026-01-29 04:38:44.86	289.75	54.40	-37.2	-38.7	16.4	0.00e+00	0	58	0	2461007872	44	4400
2026-01-29 04:38:48.90	286.78	54.22	-36.6	-38.0	17.1	0.00e+00	0	58	0	2490368000	44	4063
2026-01-29 04:38:52.94	283.85	53.97	-37.1	-38.5	16.4	0.00e+00	0	58	0	2518679552	44	4337
2026-01-29 04:38:56.98	280.97	53.65	-36.9	-38.2	16.8	0.00e+00	0	58	0	2548039680	44	4185
2026-01-29 04:39:01.02	278.17	53.25	-36.9	-38.3	16.7	0.00e+00	0	58	0	2577399808	44	4207
2026-01-29 04:39:05.06	275.45	52.79	-37.3	-38.7	16.3	0.00e+00	0	58	0	2606759936	44	4432
2026-01-29 04:39:09.10	272.82	52.28	-36.3	-37.6	17.2	0.00e+00	0	58	0	2636120064	43	4140
2026-01-29 04:39:13.14	270.28	51.70	-37.3	-38.7	16.3	0.00e+00	0	58	0	2665480192	44	4416
2026-01-29 04:39:17.18	267.84	51.08	-36.8	-38.1	16.9	0.00e+00	0	58	0	2693791744	44	4118
2026-01-29 04:39:21.22	265.51	50.42	-37.2	-38.6	16.3	0.00e+00	0	58	0	2723151872	44	4385
2026-01-29 04:39:25.27	263.27	49.71	-37.1	-38.5	16.5	0.00e+00	0	58	0	2752512000	44	4333
2026-01-29 04:39:29.31	261.14	48.98	-36.8	-38.2	16.8	0.00e+00	0	58	0	2781872128	44	4153
2026-01-29 04:39:33.35	259.12	48.21	-36.5	-37.9	17.0	0.00e+00	0	58	0	2811232256	43	4245
2026-01-29 04:39:37.39	257.19	47.43	-36.4	-37.8	17.0	0.00e+00	0	58	0	2839543808	43	4197
2026-01-29 04:39:41.44	255.35	46.62	-36.1	-37.4	17.3	0.00e+00	0	58	0	2868903936	43	4044
2026-01-29 04:39:45.48	253.62	45.80	-36.4	-37.7	17.1	0.00e+00	0	58	0	2898264064	43	4180
2026-01-29 04:39:49.52	251.97	44.97	-35.9	-37.2	17.6	0.00e+00	0	58	0	2927624192	42	4169
2026-01-29 04:39:53.56	250.41	44.13	-35.9	-37.1	17.7	0.00e+00	0	58	0	2956984320	42	4124
2026-01-29 04:39:57.60	248.92	43.28	-35.6	-36.8	17.9	0.00e+00	0	58	0	2986344448	41	4224
2026-01-29 04:40:01.64	247.52	42.44	-35.9	-37.2	17.5	0.00e+00	0	58	0	3014656000	41	4420
2026-01-29 04:40:05.68	246.18	41.59	-35.7	-36.9	17.8	0.00e+00	0	58	0	3044016128	41	4255
2026-01-29 04:40:09.72	244.92	40.75	-35.7	-36.9	17.8	0.00e+00	0	58	0	3073376256	41	4291
2026-01-29 04:40:13.76	243.71	39.91	-35.6	-36.9	17.9	0.00e+00	0	58	0	3102736384	41	4244
2026-01-29 04:40:17.81	242.57	39.08	-35.9	-37.2	17.6	0.00e+00	0	58	0	3132096512	41	4408
2026-01-29 04:40:21.85	241.49	38.26	-35.8	-37.1	17.7	0.00e+00	0	58	0	3160408064	41	4343
2026-01-29 04:40:25.89	240.46	37.44	-35.9	-37.1	17.6	0.00e+00	0	58	0	3189768192	41	4373
2026-01-29 04:40:29.93	239.48	36.63	-36.0	-37.3	17.4	0.00e+00	0	58	0	3219128320	41	4456
2026-01-29 04:40:33.97	238.55	35.84	-35.7	-36.9	17.8	0.00e+00	0	58	0	3248488448	41	4263
2026-01-29 04:40:38.01	237.66	35.06	-35.4	-36.6	18.1	0.00e+00	0	58	0	3277848576	41	4107
2026-01-29 04:40:42.05	236.81	34.28	-35.4	-36.6	18.0	0.00e+00	0	59	0	3307208704	41	4145
2026-01-29 04:40:46.09	236.00	33.52	-35.4	-36.6	18.1	0.00e+00	0	58	0	3335520256	41	4132
2026-01-29 04:40:50.13	235.23	32.77	-35.6	-36.8	17.9	0.00e+00	0	58	0	3364880384	41	4213
2026-01-29 04:40:54.17	234.50	32.04	-35.6	-36.8	17.9	0.00e+00	0	58	0	3394240512	41	4210
2026-01-29 04:40:58.21	233.80	31.32	-35.6	-36.8	17.9	0.00e+00	0	58	0	3423600640	41	4205
2026-01-29 04:41:02.26	233.12	30.60	-35.7	-36.9	17.7	0.00e+00	0	58	0	3452960768	41	4276
2026-01-29 04:41:06.30	232.48	29.91	-35.8	-37.1	17.6	0.00e+00	0	58	0	3481272320	41	4360
2026-01-29 04:41:10.34	231.87	29.22	-35.8	-37.1	17.6	0.00e+00	0	58	0	3510632448	41	4343
2026-01-29 04:41:14.38	231.28	28.55	-35.9	-37.2	17.4	0.00e+00	0	58	0	3539992576	41	4431
2026-01-29 04:41:18.42	230.71	27.89	-35.9	-37.2	17.5	0.00e+00	0	58	0	3569352704	41	4397
2026-01-29 04:41:22.46	230.17	27.25	-36.0	-37.3	17.3	0.00e+00	0	58	0	3598712832	41	4454
2026-01-29 04:41:26.50	229.65	26.61	-36.1	-37.4	17.2	0.00e+00	0	58	0	3628072960	41	4517
2026-01-29 04:41:30.54	229.15	25.99	-36.1	-37.4	17.2	0.00e+00	0	58	0	3656384512	41	4507
2026-01-29 04:41:34.59	228.67	25.38	-36.0	-37.3	17.3	0.00e+00	0	58	0	3685744640	41	4458
2026-01-29 04:41:38.63	228.20	24.78	-36.0	-37.3	17.2	0.00e+00	0	58	0	3715104768	41	4487
2026-01-29 04:41:42.67	227.76	24.19	-36.0	-37.2	17.3	0.00e+00	0	58	0	3744464896	41	4440
2026-01-29 04:41:46.71	227.33	23.62	-36.1	-37.4	17.1	0.00e+00	0	58	0	3773825024	41	4524
2026-01-29 04:41:50.75	226.92	23.05	-36.2	-37.5	17.0	0.00e+00	0	58	0	3802136576	42	4339
2026-01-29 04:41:54.79	226.52	22.50	-36.2	-37.6	17.0	0.00e+00	0	58	0	3831496704	42	4347
2026-01-29 04:41:58.84	226.13	21.95	-36.0	-37.3	17.2	0.00e+00	0	58	0	3860856832	42	4227
2026-01-29 04:42:02.88	225.76	21.42	-36.2	-37.5	17.0	0.00e+00	0	58	0	3890216960	42	4306
2026-01-29 04:42:06.92	225.41	20.89	-36.4	-37.8	16.7	0.00e+00	0	58	0	3919577088	42	4470
2026-01-29 04:42:10.96	225.06	20.38	-36.7	-38.1	16.4	0.00e+00	0	58	0	3948937216	42	4630
2026-01-29 04:42:15.00	224.73	19.87	-36.9	-38.3	16.1	0.00e+00	0	58	0	3977248768	43	4485
2026-01-29 04:42:19.04	224.41	19.37	-37.0	-38.4	16.0	0.00e+00	0	58	0	4006608896	43	4541
2026-01-29 04:42:23.09	224.09	18.89	-37.0	-38.5	15.9	0.00e+00	0	58	0	4035969024	43	4577
2026-01-29 04:42:27.13	223.79	18.41	-37.0	-38.5	15.9	0.00e+00	0	58	0	4065329152	43	4587
2026-01-29 04:42:31.17	223.50	17.94	-36.8	-38.2	16.2	0.00e+00	0	58	0	4094689280	43	4432
2026-01-29 04:42:35.22	223.21	17.47	-36.9	-38.3	16.1	0.00e+00	0	58	0	4123000832	43	4461
2026-01-29 04:42:39.26	222.94	17.02	-36.9	-38.3	16.0	0.00e+00	0	58	0	4152360960	43	4489
2026-01-29 04:42:43.30	222.67	16.57	-36.9	-38.4	15.9	0.00e+00	0	58	0	4181721088	43	4517
2026-01-29 04:42:47.34	222.42	16.13	-37.1	-38.6	15.8	0.00e+00	0	58	0	4211081216	43	4604
2026-01-29 04:42:51.38	222.17	15.70	-37.4	-39.0	15.5	0.00e+00	0	58	0	4240441344	44	4548
2026-01-29 04:42:55.42	221.92	15.27	-37.4	-38.9	15.5	0.00e+00	0	58	0	4269801472	44	4540
2026-01-29 04:42:59.47	221.69	14.85	-37.6	-39.2	15.2	0.00e+00	0	58	0	4298113024	44	4697
2026-01-29 04:43:03.51	221.46	14.44	-37.8	-39.4	15.0	1.10e-06	0	58	0	4327473152	45	4510
2026-01-29 04:43:07.55	221.23	14.04	-37.8	-39.5	14.9	0.00e+00	0	58	0	4356833280	45	4576
2026-01-29 04:43:11.59	221.02	13.64	-37.9	-39.6	14.7	0.00e+00	0	58	0	4386193408	45	4639
2026-01-29 04:43:15.63	220.81	13.24	-38.0	-39.7	14.6	0.00e+00	0	58	0	4415553536	45	4681
2026-01-29 04:43:19.67	220.60	12.86	-38.0	-39.8	14.5	0.00e+00	0	58	0	4443865088	45	4712
2026-01-29 04:43:23.71	220.40	12.47	-38.3	-40.1	14.2	1.10e-06	0	58	0	4473225216	46	4614
2026-01-29 04:43:27.76	220.21	12.10	-38.4	-40.2	14.0	3.40e-06	0	58	0	4502585344	46	4675
2026-01-29 04:43:31.80	220.02	11.73	-38.6	-40.4	13.8	1.14e-05	0	58	0	4531945472	46	4811
2026-01-29 04:43:35.84	219.84	11.36	-38.8	-40.7	13.4	6.80e-06	0	58	0	4561305600	47	4694
2026-01-29 04:43:39.88	219.66	11.00	-38.8	-40.8	13.4	1.60e-05	0	58	0	4590665728	47	4708
2026-01-29 04:43:43.92	219.48	10.65	-38.9	-40.9	13.2	2.40e-05	0	58	0	4618977280	47	4781
2026-01-29 04:43:47.96	219.31	10.29	-38.8	-40.8	13.2	2.51e-05	0	58	0	4648337408	47	4748
2026-01-29 04:43:52.01	219.15	9.95	-38.9	-40.9	13.1	2.97e-05	0	58	0	4677697536	47	4795
2026-01-29 04:43:56.05	218.98	9.61	-39.0	-41.0	13.0	3.89e-05	0	58	0	4707057664	47	4853
2026-01-29 04:44:00.08	218.83	9.27	-38.9	-41.0	13.0	4.69e-05	0	58	0	4736417792	47	4816
2026-01-29 04:44:04.13	218.67	8.94	-39.1	-41.2	12.8	9.38e-05	0	58	0	4765777920	47	4938
2026-01-29 04:44:08.16	218.52	8.61	-39.2	-41.3	12.6	9.95e-05	0	58	0	4794089472	47	5027
2026-01-29 04:44:12.20	218.38	8.28	-39.2	-41.3	12.5	1.49e-04	0	59	0	4823449600	47	5041
2026-01-29 04:44:16.24	218.23	7.96	-44.8	-55.5	3.8	8.46e-01	0	58	104	4849664000	59	12855
2026-01-29 04:44:20.28	218.09	7.65	-45.3	-56.5	3.8	8.47e-01	0	58	104	4849664000	60	13698
2026-01-29 04:44:24.33	217.96	7.33	-45.4	-56.7	3.8	8.46e-01	0	59	104	4849664000	60	13900
2026-01-29 04:44:28.37	217.82	7.03	-45.3	-56.6	3.8	8.45e-01	0	59	104	4849664000	60	13806
2026-01-29 04:44:32.41	217.69	6.72	-45.3	-56.6	3.8	8.47e-01	0	59	104	4849664000	60	13773
2026-01-29 04:44:36.46	217.56	6.42	-45.2	-56.5	3.8	8.45e-01	0	59	104	4849664000	60	13673
2026-01-29 04:44:40.50	217.44	6.12	-45.2	-56.5	3.8	8.46e-01	0	59	104	4849664000	60	13594
2026-01-29 04:44:44.54	217.32	5.82	-45.2	-56.5	3.8	8.47e-01	0	59	104	4849664000	60	13592
2026-01-29 04:44:48.58	217.20	5.53	-45.2	-56.5	3.8	8.47e-01	0	58	104	4849664000	60	13602
2026-01-29 04:44:52.62	217.08	5.24	-45.2	-56.4	3.8	8.45e-01	0	59	104	4849664000	60	13567
2026-01-29 04:44:56.66	216.96	4.95	-45.2	-56.4	3.8	8.46e-01	0	59	104	4849664000	60	13564
2026-01-29 04:45:00.70	216.85	4.67	-45.2	-56.4	3.8	8.46e-01	0	59	104	4849664000	60	13483
2026-01-29 04:45:04.75	216.74	4.39	-45.2	-56.4	3.8	8.46e-01	0	59	104	4849664000	60	13551
2026-01-29 04:45:08.79	216.63	4.11	-45.1	-56.4	3.8	8.46e-01	0	58	104	4849664000	60	13519
2026-01-29 04:45:12.83	216.53	3.84	-45.1	-56.4	3.8	8.47e-01	0	59	104	4849664000	60	13505
2026-01-29 04:45:16.87	216.42	3.57	-45.2	-56.5	3.8	8.46e-01	0	59	104	4849664000	60	13602
2026-01-29 04:45:20.91	216.32	3.30	-45.1	-56.4	3.8	8.47e-01	0	59	104	4849664000	60	13526
2026-01-29 04:45:24.96	216.22	3.03	-45.2	-56.2	3.8	8.46e-01	0	59	104	4849664000	59	13913
2026-01-29 04:45:29.00	216.13	2.76	-45.2	-56.2	3.8	8.46e-01	0	59	104	4849664000	59	13927
2026-01-29 04:45:33.04	216.03	2.50	-45.2	-56.2	3.8	8.45e-01	0	59	104	4849664000	59	13930
2026-01-29 04:45:37.08	215.94	2.24	-44.9	-56.1	3.8	8.47e-01	0	59	104	4849664000	59	13861
2026-01-29 04:45:41.12	215.85	1.98	-45.2	-56.1	3.8	8.46e-01	0	59	104	4849664000	59	13870

#Closed at: 2026-01-29 04:45:43
#Recorded file [4849 MB]: D:/lorett/data/31039_260129_073132.dat