passes_logs/2026/01/29/R2.0S_Moscow/R2.0S_Moscow__20260129_223345_NOAA_20_JPSS-1_rec.log

#Pass ID: 20260129_223345_NOAA 20 (JPSS-1)
#Satellite: NOAA 20 (JPSS-1)
#Configuration: NOAA 20
#almurnet v.1.7.20251203
#Start time: 2026-01-29 22:33:45

#Version: 2.2.20231116
#Station: R2.0S_Moscow
#Location: 37.707566 lon 55.798166 lat
#TLE: 1 43013U 17073A   26028.86313978  .00000144  00000+0  89200-4 0  9993
#TLE: 2 43013  98.7648 329.6571 0000891  20.0014 340.1197 14.19541559424709

#Time	Az	El	Level	Level2	SNR	BER	BlckErr	Temp	State	Recorded	gain1	gain2
2026-01-29 22:33:45.63	22.30	2.02	-42.4	-56.9	3.8	1.49e+00	0	52	0	0	56	18984
2026-01-29 22:33:49.66	22.51	2.26	-42.4	-56.9	3.8	1.49e+00	0	52	104	0	56	18988
2026-01-29 22:33:53.71	22.74	2.50	-42.4	-56.9	3.8	1.49e+00	0	52	104	0	56	18998
2026-01-29 22:33:57.75	22.96	2.74	-42.4	-56.8	3.8	1.49e+00	0	53	104	0	56	18932
2026-01-29 22:34:01.79	23.19	2.98	-42.4	-56.9	3.8	1.49e+00	0	53	104	0	56	18983
2026-01-29 22:34:05.83	23.42	3.22	-42.4	-56.9	3.8	1.49e+00	0	53	104	0	56	18967
2026-01-29 22:34:09.87	23.66	3.47	-42.4	-56.9	3.8	1.49e+00	0	53	104	0	56	18993
2026-01-29 22:34:13.90	23.90	3.72	-42.4	-56.8	3.8	1.49e+00	0	54	104	0	56	18948
2026-01-29 22:34:17.94	24.14	3.97	-42.4	-56.9	3.8	1.49e+00	0	54	104	0	56	18957
2026-01-29 22:34:21.98	24.39	4.22	-42.4	-56.8	3.8	1.49e+00	0	54	104	0	56	18941
2026-01-29 22:34:26.03	24.64	4.47	-42.4	-56.8	3.8	1.49e+00	0	54	104	0	56	18937
2026-01-29 22:34:30.07	24.89	4.73	-42.4	-56.8	3.8	1.49e+00	0	54	104	0	56	18933
2026-01-29 22:34:34.11	25.15	4.99	-42.4	-56.9	3.8	1.49e+00	0	55	104	0	56	18958
2026-01-29 22:34:38.15	25.42	5.25	-42.4	-56.9	3.8	1.49e+00	0	55	104	0	56	18981
2026-01-29 22:34:42.19	25.69	5.51	-42.4	-56.8	3.8	1.49e+00	0	55	104	0	56	18915
2026-01-29 22:34:46.23	25.96	5.78	-42.4	-56.9	3.8	1.49e+00	0	55	104	0	56	18964
2026-01-29 22:34:50.28	26.24	6.04	-42.4	-56.8	3.8	1.49e+00	0	56	104	0	56	18944
2026-01-29 22:34:54.31	26.52	6.31	-42.4	-56.8	3.8	1.49e+00	0	56	104	0	56	18885
2026-01-29 22:34:58.35	26.80	6.58	-42.4	-56.8	3.8	1.49e+00	0	56	104	0	56	18833
2026-01-29 22:35:02.40	27.10	6.86	-42.4	-56.8	3.8	1.49e+00	0	56	104	0	56	18869
2026-01-29 22:35:06.44	27.39	7.13	-42.3	-55.3	3.8	1.49e+00	0	56	104	0	56	15928
2026-01-29 22:35:10.48	27.70	7.41	-41.7	-50.5	5.4	6.98e-01	0	57	0	4194304	55	9666
2026-01-29 22:35:14.52	28.01	7.69	-41.3	-48.6	6.7	2.21e-01	0	57	0	11534336	54	8263
2026-01-29 22:35:18.56	28.32	7.97	-41.2	-48.2	7.2	1.56e-01	0	57	0	19922944	54	7842
2026-01-29 22:35:22.60	28.64	8.26	-42.3	-48.9	7.6	3.47e-02	0	57	0	27262976	55	8073
2026-01-29 22:35:26.64	28.96	8.55	-41.8	-47.7	8.6	3.80e-02	0	57	0	34603008	55	6986
2026-01-29 22:35:30.68	29.30	8.84	-41.8	-47.3	9.3	1.61e-02	0	57	0	41943040	55	6686
2026-01-29 22:35:34.73	29.63	9.13	-41.7	-47.0	9.7	1.17e-02	0	57	0	49283072	55	6433
2026-01-29 22:35:38.77	29.98	9.43	-41.9	-47.1	9.7	1.13e-02	0	57	0	57671680	55	6539
2026-01-29 22:35:42.81	30.33	9.73	-42.0	-47.2	9.8	9.45e-03	0	57	0	65011712	55	6614
2026-01-29 22:35:46.84	30.69	10.03	-42.0	-47.1	9.9	7.77e-03	0	58	0	72351744	55	6545
2026-01-29 22:35:50.89	31.05	10.33	-42.0	-47.1	10.1	7.96e-03	0	58	0	79691776	55	6519
2026-01-29 22:35:54.93	31.43	10.64	-42.0	-46.9	10.3	4.19e-03	0	58	0	88080384	55	6353
2026-01-29 22:35:58.97	31.81	10.95	-41.9	-46.6	10.6	3.30e-03	0	58	0	95420416	55	6173
2026-01-29 22:36:03.00	32.19	11.26	-42.0	-46.7	10.6	3.19e-03	0	58	0	102760448	55	6237
2026-01-29 22:36:07.04	32.59	11.58	-42.0	-46.6	10.8	2.57e-03	0	58	0	110100480	55	6147
2026-01-29 22:36:11.08	32.99	11.90	-41.9	-46.5	11.0	1.68e-03	0	58	0	118489088	55	6064
2026-01-29 22:36:15.13	33.41	12.22	-41.9	-46.3	11.1	1.68e-03	0	58	0	125829120	55	5978
2026-01-29 22:36:19.16	33.83	12.54	-42.0	-46.6	10.8	2.10e-03	0	58	0	133169152	55	6155
2026-01-29 22:36:23.20	34.26	12.87	-42.0	-46.6	10.8	2.33e-03	0	58	0	140509184	55	6180
2026-01-29 22:36:27.24	34.70	13.20	-42.1	-46.7	10.8	3.04e-03	0	58	0	147849216	55	6233
2026-01-29 22:36:31.28	35.15	13.53	-42.2	-46.9	10.6	4.37e-03	0	59	0	156237824	55	6369
2026-01-29 22:36:35.32	35.61	13.87	-42.1	-46.6	11.0	1.94e-03	0	59	0	163577856	55	6158
2026-01-29 22:36:39.36	36.08	14.21	-42.0	-46.4	11.1	1.44e-03	0	59	0	170917888	55	6049
2026-01-29 22:36:43.40	36.56	14.55	-42.1	-46.7	10.9	2.20e-03	0	59	0	178257920	55	6209
2026-01-29 22:36:47.44	37.05	14.90	-42.1	-46.7	10.9	2.16e-03	0	59	0	186646528	55	6234
2026-01-29 22:36:51.48	37.55	15.25	-42.1	-46.6	11.0	1.75e-03	0	59	0	193986560	55	6141
2026-01-29 22:36:55.52	38.06	15.60	-42.1	-46.5	11.1	1.55e-03	0	59	0	201326592	55	6117
2026-01-29 22:36:59.57	38.59	15.95	-42.2	-46.7	10.9	2.55e-03	0	59	0	208666624	55	6257
2026-01-29 22:37:03.61	39.12	16.31	-42.1	-46.6	11.0	1.69e-03	0	59	0	216006656	55	6166
2026-01-29 22:37:07.65	39.67	16.67	-42.0	-46.3	11.4	1.01e-03	0	59	0	224395264	55	5940
2026-01-29 22:37:11.69	40.24	17.04	-42.0	-46.3	11.4	9.87e-04	0	59	0	231735296	55	5990
2026-01-29 22:37:15.73	40.81	17.40	-42.1	-46.5	11.2	1.85e-03	0	59	0	239075328	55	6072
2026-01-29 22:37:19.77	41.40	17.77	-42.1	-46.4	11.3	1.12e-03	0	59	0	246415360	55	6046
2026-01-29 22:37:23.82	42.01	18.15	-42.1	-46.3	11.4	1.05e-03	0	59	0	254803968	55	5969
2026-01-29 22:37:27.86	42.63	18.52	-42.0	-46.3	11.5	6.90e-04	0	59	0	262144000	55	5939
2026-01-29 22:37:31.90	43.26	18.90	-42.0	-46.2	11.6	7.12e-04	0	59	0	269484032	55	5881
2026-01-29 22:37:35.94	43.91	19.28	-41.7	-45.6	12.2	2.30e-04	0	60	0	276824064	55	5494
2026-01-29 22:37:39.98	44.58	19.66	-41.7	-45.6	12.3	1.48e-04	0	59	0	284164096	55	5484
2026-01-29 22:37:44.02	45.26	20.04	-41.7	-45.5	12.3	2.03e-04	0	59	0	292552704	55	5456
2026-01-29 22:37:48.06	45.96	20.43	-41.7	-45.5	12.3	1.97e-04	0	59	0	299892736	55	5461
2026-01-29 22:37:52.10	46.67	20.81	-41.8	-45.7	12.1	2.39e-04	0	59	0	307232768	55	5586
2026-01-29 22:37:56.14	47.41	21.20	-41.7	-45.4	12.5	1.39e-04	0	60	0	314572800	55	5378
2026-01-29 22:38:00.18	48.16	21.59	-41.6	-45.4	12.5	8.54e-05	0	60	0	322961408	55	5351
2026-01-29 22:38:04.21	48.93	21.98	-41.7	-45.4	12.5	1.27e-04	0	59	0	330301440	55	5397
2026-01-29 22:38:08.25	49.72	22.38	-41.7	-45.3	12.6	7.62e-05	0	59	0	337641472	55	5327
2026-01-29 22:38:12.29	50.53	22.77	-41.6	-45.1	12.9	4.80e-05	0	60	0	344981504	55	5205
2026-01-29 22:38:16.33	51.36	23.16	-41.5	-45.0	13.0	4.73e-05	0	60	0	353370112	54	5448
2026-01-29 22:38:20.37	52.21	23.55	-41.6	-45.1	12.9	5.11e-05	0	60	0	360710144	54	5498
2026-01-29 22:38:24.42	53.08	23.95	-41.6	-45.3	12.8	7.55e-05	0	60	0	368050176	54	5596
2026-01-29 22:38:28.46	53.97	24.34	-41.6	-45.2	12.8	7.09e-05	0	60	0	375390208	54	5578
2026-01-29 22:38:32.50	54.89	24.73	-41.7	-45.3	12.8	5.79e-05	0	60	0	382730240	54	5603
2026-01-29 22:38:36.54	55.83	25.12	-41.8	-45.6	12.4	1.08e-04	0	60	0	391118848	54	5852
2026-01-29 22:38:40.58	56.79	25.50	-42.0	-46.0	12.0	2.91e-04	0	60	0	398458880	54	6116
2026-01-29 22:38:44.62	57.77	25.88	-42.1	-46.1	11.8	4.84e-04	0	60	0	405798912	54	6189
2026-01-29 22:38:48.66	58.78	26.26	-42.1	-46.3	11.7	6.05e-04	0	60	0	413138944	54	6307
2026-01-29 22:38:52.70	59.81	26.64	-42.3	-46.7	11.3	1.42e-03	0	60	0	421527552	55	6216
2026-01-29 22:38:56.75	60.87	27.01	-42.3	-46.7	11.3	1.06e-03	0	60	0	428867584	55	6220
2026-01-29 22:39:00.79	61.95	27.37	-43.0	-48.1	10.0	6.68e-03	0	60	0	436207616	56	6908
2026-01-29 22:39:04.83	63.05	27.73	-43.1	-48.3	9.8	9.60e-03	0	60	0	443547648	56	7045
2026-01-29 22:39:08.86	64.18	28.08	-43.0	-48.0	10.2	6.35e-03	0	60	0	450887680	56	6852
2026-01-29 22:39:12.90	65.33	28.42	-43.0	-48.0	10.2	6.47e-03	0	60	0	459276288	56	6862
2026-01-29 22:39:16.95	66.51	28.76	-43.1	-48.3	9.8	1.01e-02	0	60	0	466616320	56	7108
2026-01-29 22:39:20.99	67.71	29.09	-42.9	-47.8	10.3	4.80e-03	0	60	0	473956352	56	6710
2026-01-29 22:39:25.02	68.93	29.40	-43.0	-47.9	10.3	5.07e-03	0	60	0	481296384	56	6770
2026-01-29 22:39:29.06	70.18	29.71	-43.1	-48.1	10.1	7.62e-03	0	60	0	489684992	56	6934
2026-01-29 22:39:33.10	71.45	30.00	-43.1	-48.1	10.1	6.67e-03	0	60	0	497025024	56	6898
2026-01-29 22:39:37.14	72.75	30.28	-43.6	-49.8	8.3	4.14e-02	0	60	0	504365056	57	7975
2026-01-29 22:39:41.18	74.06	30.55	-43.8	-50.6	7.5	1.04e-01	0	60	0	511705088	58	8255
2026-01-29 22:39:45.22	75.40	30.80	-44.1	-51.4	6.7	2.29e-01	0	60	0	519045120	59	8468
2026-01-29 22:39:49.26	76.76	31.04	-43.9	-51.1	7.0	1.48e-01	0	60	0	526385152	59	8232
2026-01-29 22:39:53.30	78.14	31.27	-43.8	-50.2	7.9	7.30e-02	0	60	0	533725184	59	7376
2026-01-29 22:39:57.34	79.53	31.47	-43.5	-49.4	8.8	3.36e-02	0	60	0	542113792	59	6749
2026-01-29 22:40:01.38	80.95	31.66	-43.7	-49.9	8.3	4.67e-02	0	60	0	549453824	59	7164
2026-01-29 22:40:05.42	82.38	31.83	-43.4	-49.0	9.2	2.49e-02	0	60	0	556793856	58	6878
2026-01-29 22:40:09.46	83.82	31.99	-43.5	-49.1	9.1	2.11e-02	0	60	0	564133888	58	6928
2026-01-29 22:40:13.50	85.27	32.12	-43.3	-48.7	9.5	1.55e-02	0	60	0	572522496	58	6636
2026-01-29 22:40:17.54	86.74	32.23	-43.7	-50.0	8.3	4.07e-02	0	60	0	579862528	58	7646
2026-01-29 22:40:21.58	88.22	32.33	-43.7	-49.8	8.3	5.19e-02	0	60	0	587202560	58	7532
2026-01-29 22:40:25.62	89.70	32.40	-43.3	-48.7	9.5	1.24e-02	0	60	0	594542592	58	6592
2026-01-29 22:40:29.66	91.19	32.45	-43.3	-48.7	9.6	1.41e-02	0	60	0	601882624	58	6586
2026-01-29 22:40:33.70	92.69	32.48	-43.4	-48.9	9.4	1.60e-02	0	61	0	610271232	58	6751
2026-01-29 22:40:37.73	94.18	32.49	-43.7	-49.7	8.5	4.03e-02	0	60	0	617611264	58	7424
2026-01-29 22:40:41.77	95.67	32.48	-43.3	-48.7	9.5	1.69e-02	0	60	0	624951296	58	6635
2026-01-29 22:40:45.81	97.17	32.45	-43.2	-48.3	9.9	6.88e-03	0	61	0	632291328	58	6316
2026-01-29 22:40:49.86	98.66	32.40	-43.6	-49.5	8.7	2.75e-02	0	60	0	640679936	58	7241
2026-01-29 22:40:53.89	100.14	32.32	-43.7	-49.9	8.3	4.57e-02	0	60	0	648019968	58	7569
2026-01-29 22:40:57.93	101.62	32.23	-43.9	-50.5	7.7	8.55e-02	0	61	0	655360000	58	8164
2026-01-29 22:41:01.97	103.09	32.11	-43.8	-50.4	7.8	8.11e-02	0	61	0	662700032	58	8056
2026-01-29 22:41:06.01	104.54	31.97	-43.9	-50.5	7.7	8.50e-02	0	61	0	670040064	58	8162
2026-01-29 22:41:10.05	105.99	31.82	-43.8	-50.2	7.9	7.74e-02	0	61	0	678428672	58	7899
2026-01-29 22:41:14.09	107.42	31.65	-43.5	-49.3	9.0	2.72e-02	0	60	0	685768704	58	7046
2026-01-29 22:41:18.13	108.83	31.46	-43.4	-48.8	9.4	1.64e-02	0	60	0	693108736	58	6711
2026-01-29 22:41:22.17	110.23	31.25	-43.5	-49.3	9.0	2.65e-02	0	60	0	700448768	58	7053
2026-01-29 22:41:26.21	111.61	31.02	-43.5	-49.2	9.0	2.68e-02	0	60	0	708837376	58	7008
2026-01-29 22:41:30.25	112.97	30.78	-43.3	-48.5	9.7	1.16e-02	0	61	0	716177408	58	6478
2026-01-29 22:41:34.29	114.31	30.53	-43.3	-48.6	9.6	1.07e-02	0	60	0	723517440	58	6515
2026-01-29 22:41:38.32	115.63	30.26	-43.7	-50.1	8.1	6.11e-02	0	61	0	730857472	58	7756
2026-01-29 22:41:42.36	116.92	29.97	-43.5	-49.3	8.9	2.63e-02	0	61	0	738197504	58	7045
2026-01-29 22:41:46.40	118.20	29.68	-43.5	-49.3	8.9	2.84e-02	0	61	0	746586112	58	7103
2026-01-29 22:41:50.44	119.45	29.37	-43.7	-49.9	8.3	4.77e-02	0	61	0	753926144	58	7596
2026-01-29 22:41:54.47	120.67	29.05	-43.8	-50.1	8.0	7.03e-02	0	61	0	761266176	58	7777
2026-01-29 22:41:58.52	121.88	28.72	-43.5	-49.2	9.0	4.01e-02	0	61	0	768606208	58	7004
2026-01-29 22:42:02.55	123.06	28.38	-43.1	-48.1	10.2	5.81e-03	0	61	0	776994816	58	6132
2026-01-29 22:42:06.59	124.21	28.04	-43.3	-48.8	9.4	1.58e-02	0	61	0	784334848	58	6678
2026-01-29 22:42:10.63	125.34	27.68	-43.6	-49.7	8.4	3.85e-02	0	61	0	791674880	58	7423
2026-01-29 22:42:14.67	126.45	27.32	-42.8	-47.4	10.9	4.26e-03	0	60	0	799014912	57	6049
2026-01-29 22:42:18.71	127.53	26.95	-43.2	-48.3	9.9	7.95e-03	0	61	0	806354944	57	6651
2026-01-29 22:42:22.75	128.59	26.58	-42.7	-47.2	11.1	1.42e-03	0	61	0	814743552	57	5864
2026-01-29 22:42:26.79	129.62	26.20	-43.8	-50.2	8.0	6.31e-02	0	61	0	822083584	58	7851
2026-01-29 22:42:30.83	130.63	25.82	-43.4	-48.9	9.2	1.89e-02	0	61	0	829423616	58	6788
2026-01-29 22:42:34.86	131.61	25.44	-43.1	-48.2	10.0	9.65e-03	0	61	0	836763648	57	6598
2026-01-29 22:42:38.90	132.57	25.05	-42.9	-47.6	10.6	2.65e-03	0	61	0	845152256	57	6165
2026-01-29 22:42:42.94	133.51	24.66	-42.8	-47.5	10.7	4.97e-03	0	61	0	852492288	57	6104
2026-01-29 22:42:46.99	134.43	24.26	-42.8	-47.4	10.8	1.89e-03	0	61	0	859832320	56	6403
2026-01-29 22:42:51.02	135.32	23.87	-42.6	-46.9	11.2	2.33e-03	0	61	0	867172352	56	6051
2026-01-29 22:42:55.06	136.20	23.48	-42.5	-46.8	11.4	8.52e-04	0	61	0	874512384	56	5991
2026-01-29 22:42:59.10	137.05	23.08	-42.4	-46.7	11.5	1.27e-03	0	61	0	882900992	56	5870
2026-01-29 22:43:03.14	137.88	22.68	-42.2	-46.2	12.1	2.91e-04	0	61	0	890241024	56	5540
2026-01-29 22:43:07.18	138.69	22.29	-42.2	-46.1	12.1	3.56e-04	0	61	0	897581056	56	5517
2026-01-29 22:43:11.22	139.48	21.89	-41.6	-45.2	12.9	3.20e-05	0	61	0	904921088	55	5226
2026-01-29 22:43:15.26	140.25	21.50	-41.7	-45.3	12.7	6.71e-05	0	61	0	913309696	55	5328
2026-01-29 22:43:19.30	141.00	21.11	-41.5	-45.0	13.0	3.12e-05	0	61	0	920649728	55	5132
2026-01-29 22:43:23.34	141.74	20.71	-41.6	-45.2	12.8	5.49e-05	0	61	0	927989760	55	5277
2026-01-29 22:43:27.38	142.45	20.32	-41.5	-45.0	13.0	4.11e-05	0	61	0	935329792	55	5125
2026-01-29 22:43:31.43	143.15	19.93	-41.3	-44.6	13.4	1.14e-05	0	61	0	942669824	54	5194
2026-01-29 22:43:35.47	143.84	19.55	-41.7	-45.4	12.5	5.56e-05	0	61	0	951058432	54	5714
2026-01-29 22:43:39.51	144.50	19.16	-41.9	-45.9	12.0	3.34e-04	0	61	0	958398464	54	6037
2026-01-29 22:43:43.54	145.15	18.78	-41.8	-45.7	12.3	1.65e-04	0	61	0	965738496	54	5872
2026-01-29 22:43:47.58	145.78	18.40	-41.9	-45.8	12.1	2.59e-04	0	61	0	973078528	54	5976
2026-01-29 22:43:51.62	146.40	18.02	-41.8	-45.7	12.2	2.19e-04	0	61	0	981467136	54	5883
2026-01-29 22:43:55.66	147.00	17.65	-41.8	-45.7	12.2	2.04e-04	0	61	0	988807168	54	5870
2026-01-29 22:43:59.70	147.59	17.28	-42.1	-46.4	11.5	7.65e-04	0	61	0	996147200	54	6349
2026-01-29 22:44:03.74	148.17	16.91	-42.1	-46.5	11.3	1.07e-03	0	61	0	1003487232	54	6424
2026-01-29 22:44:07.79	148.73	16.54	-42.5	-47.4	10.3	4.33e-03	0	61	0	1010827264	55	6783
2026-01-29 22:44:11.83	149.28	16.18	-42.5	-47.4	10.3	6.49e-03	0	61	0	1019215872	55	6740
2026-01-29 22:44:15.86	149.82	15.82	-42.2	-46.7	11.0	1.97e-03	0	61	0	1026555904	55	6241
2026-01-29 22:44:19.90	150.34	15.46	-42.3	-47.1	10.6	3.02e-03	0	61	0	1033895936	55	6501
2026-01-29 22:44:23.94	150.85	15.10	-42.5	-47.5	10.1	7.24e-03	0	61	0	1041235968	55	6863
2026-01-29 22:44:27.99	151.35	14.75	-42.3	-47.1	10.5	3.61e-03	0	61	0	1049624576	55	6557
2026-01-29 22:44:32.03	151.84	14.40	-42.1	-46.5	11.1	1.54e-03	0	61	0	1056964608	55	6128
2026-01-29 22:44:36.07	152.32	14.06	-42.4	-47.3	10.3	4.26e-03	0	61	0	1064304640	55	6720
2026-01-29 22:44:40.10	152.79	13.72	-42.5	-47.5	10.1	7.40e-03	0	61	0	1071644672	55	6853
2026-01-29 22:44:44.14	153.24	13.38	-42.3	-47.0	10.6	4.17e-03	0	60	0	1078984704	55	6452
2026-01-29 22:44:48.18	153.69	13.04	-42.0	-46.4	11.3	1.30e-03	0	61	0	1087373312	55	6001
2026-01-29 22:44:52.22	154.13	12.71	-42.1	-46.5	11.0	1.39e-03	0	61	0	1094713344	55	6119
2026-01-29 22:44:56.26	154.56	12.38	-42.2	-47.0	10.5	3.28e-03	0	61	0	1102053376	55	6463
2026-01-29 22:45:00.30	154.98	12.05	-42.3	-47.2	10.3	3.57e-03	0	61	0	1109393408	55	6626
2026-01-29 22:45:04.34	155.39	11.73	-42.1	-46.8	10.7	3.43e-03	0	61	0	1117782016	55	6321
2026-01-29 22:45:08.38	155.79	11.41	-42.2	-46.9	10.5	2.86e-03	0	61	0	1125122048	55	6386
2026-01-29 22:45:12.42	156.18	11.09	-42.1	-46.9	10.6	3.27e-03	0	61	0	1132462080	55	6357
2026-01-29 22:45:16.46	156.57	10.78	-42.1	-46.8	10.6	3.89e-03	0	61	0	1139802112	55	6294
2026-01-29 22:45:20.50	156.95	10.46	-42.1	-47.0	10.3	5.01e-03	0	61	0	1147142144	55	6440
2026-01-29 22:45:24.54	157.32	10.16	-42.0	-46.8	10.6	4.49e-03	0	61	0	1155530752	55	6280
2026-01-29 22:45:28.58	157.68	9.85	-42.1	-47.0	10.2	9.47e-03	0	61	0	1162870784	55	6494
2026-01-29 22:45:32.61	158.03	9.55	-42.2	-47.3	9.8	9.69e-03	0	61	0	1170210816	55	6710
2026-01-29 22:45:36.66	158.38	9.24	-42.2	-47.5	9.7	1.07e-02	0	61	0	1177550848	55	6826
2026-01-29 22:45:40.70	158.72	8.95	-42.2	-47.6	9.5	1.27e-02	0	61	0	1185939456	55	6944
2026-01-29 22:45:44.74	159.06	8.65	-42.2	-47.5	9.6	1.67e-02	0	61	0	1193279488	55	6832
2026-01-29 22:45:48.78	159.39	8.36	-42.3	-47.8	9.3	2.03e-02	0	61	0	1200619520	55	7071
2026-01-29 22:45:52.82	159.71	8.07	-42.4	-48.2	8.7	3.77e-02	0	61	0	1207959552	55	7448
2026-01-29 22:45:56.87	160.03	7.78	-45.1	-59.8	3.8	1.49e+00	0	61	104	1210056704	60	21150
2026-01-29 22:46:00.91	160.34	7.50	-45.3	-60.1	3.8	1.49e+00	0	61	104	1210056704	61	20588
2026-01-29 22:46:04.95	160.64	7.21	-45.1	-60.0	3.8	1.49e+00	0	61	104	1210056704	61	20335
2026-01-29 22:46:08.99	160.94	6.93	-45.0	-59.8	3.8	1.49e+00	0	61	104	1210056704	61	20005
2026-01-29 22:46:13.04	161.23	6.65	-44.9	-59.8	3.8	1.49e+00	0	61	104	1210056704	61	19857
2026-01-29 22:46:17.08	161.52	6.38	-44.9	-59.7	3.8	1.49e+00	0	61	104	1210056704	61	19817
2026-01-29 22:46:21.12	161.80	6.11	-44.9	-59.7	3.8	1.49e+00	0	61	104	1210056704	61	19780
2026-01-29 22:46:25.16	162.08	5.84	-44.9	-59.7	3.8	1.49e+00	0	61	104	1210056704	61	19826
2026-01-29 22:46:29.21	162.36	5.57	-44.9	-59.7	3.8	1.49e+00	0	61	104	1210056704	61	19782
2026-01-29 22:46:33.25	162.63	5.30	-44.9	-59.7	3.8	1.49e+00	0	61	104	1210056704	61	19789
2026-01-29 22:46:37.29	162.89	5.04	-44.9	-59.7	3.8	1.49e+00	0	61	104	1210056704	61	19726
2026-01-29 22:46:41.33	163.15	4.77	-44.9	-59.7	3.8	1.49e+00	0	61	104	1210056704	61	19760
2026-01-29 22:46:45.37	163.40	4.51	-44.9	-59.7	3.8	1.49e+00	0	61	104	1210056704	61	19744
2026-01-29 22:46:49.41	163.65	4.26	-44.9	-59.7	3.8	1.49e+00	0	61	104	1210056704	61	19696
2026-01-29 22:46:53.45	163.90	4.00	-44.8	-59.7	3.8	1.49e+00	0	61	104	1210056704	61	19672
2026-01-29 22:46:57.50	164.14	3.75	-44.9	-59.7	3.8	1.49e+00	0	61	104	1210056704	61	19675
2026-01-29 22:47:01.54	164.38	3.49	-44.8	-59.7	3.8	1.49e+00	0	61	104	1210056704	61	19650
2026-01-29 22:47:05.58	164.62	3.24	-44.8	-59.7	3.8	1.49e+00	0	61	104	1210056704	61	19652
2026-01-29 22:47:09.62	164.85	3.00	-44.8	-59.7	3.8	1.49e+00	0	61	104	1210056704	61	19693
2026-01-29 22:47:13.67	165.08	2.75	-44.8	-59.7	3.8	1.49e+00	0	61	104	1210056704	61	19640
2026-01-29 22:47:17.71	165.30	2.51	-44.8	-59.7	3.8	1.49e+00	0	61	104	1210056704	61	19667
2026-01-29 22:47:21.75	165.52	2.26	-44.8	-59.7	3.8	1.49e+00	0	61	104	1210056704	61	19670
2026-01-29 22:47:25.79	165.74	2.02	-44.8	-59.7	3.8	1.49e+00	0	61	104	1210056704	61	19689

#Closed at: 2026-01-29 22:47:27
#Recorded file [1210 MB]: D:/lorett/data/31039_260130_013345.dat