passes_logs/2026/01/29/R2.0S_Moscow/R2.0S_Moscow__20260129_110000_FENGYUN_3D_rec.log

#Pass ID: 20260129_110000_FENGYUN 3D
#Satellite: FENGYUN 3D
#Configuration: FENGYUN 3D
#almurnet v.1.7.20251203
#Start time: 2026-01-29 10:59:59

#Version: 2.2.20231116
#Station: R2.0S_Moscow
#Location: 37.707566 lon 55.798166 lat
#TLE: 1 43010U 17072A   26027.97130493  .00000326  00000+0  17586-3 0  9998
#TLE: 2 43010  98.9960 359.9900 0002514  87.8428 272.3036 14.19701925425097

#Time	Az	El	Level	Level2	SNR	BER	BlckErr	Temp	State	Recorded	gain1	gain2
2026-01-29 10:59:59.96	131.56	1.97	-18.8	-32.5	3.8	8.34e-01	0	50	0	0	10	16294
2026-01-29 11:00:03.99	131.39	2.22	-14.1	-31.2	3.8	8.21e-01	0	51	104	0	1	23490
2026-01-29 11:00:08.04	131.23	2.47	-15.1	-29.2	3.5	8.21e-01	0	51	0	0	2	17551
2026-01-29 11:00:12.08	131.06	2.72	-18.9	-36.9	3.7	8.22e-01	0	51	104	0	9	28360
2026-01-29 11:00:16.12	130.89	2.98	-20.9	-36.0	3.5	8.22e-01	0	52	104	0	8	27133
2026-01-29 11:00:20.17	130.71	3.24	-17.0	-34.3	3.7	8.13e-01	0	52	104	0	8	22391
2026-01-29 11:00:24.20	130.53	3.50	-16.8	-31.6	3.9	8.14e-01	0	52	104	0	10	14635
2026-01-29 11:00:28.25	130.35	3.76	-20.0	-35.6	3.6	8.20e-01	0	53	104	0	11	21842
2026-01-29 11:00:32.29	130.17	4.02	-17.1	-31.9	3.7	8.23e-01	0	53	104	0	4	21485
2026-01-29 11:00:36.33	129.98	4.29	-20.9	-35.4	3.5	8.27e-01	0	53	104	0	9	24052
2026-01-29 11:00:40.38	129.79	4.56	-14.3	-29.6	3.8	8.25e-01	0	53	104	0	0	20768
2026-01-29 11:00:44.41	129.59	4.83	-15.7	-29.8	3.8	8.25e-01	0	53	104	0	6	14880
2026-01-29 11:00:48.46	129.39	5.11	-13.7	-29.4	3.5	8.29e-01	0	54	104	0	0	20158
2026-01-29 11:00:52.50	129.19	5.38	-17.5	-32.3	3.6	8.20e-01	0	54	104	0	5	21165
2026-01-29 11:00:56.54	128.98	5.66	-17.3	-31.9	3.5	8.23e-01	0	54	104	0	3	22657
2026-01-29 11:01:00.58	128.76	5.94	-15.9	-27.4	3.8	8.26e-01	0	54	104	0	3	13531
2026-01-29 11:01:04.62	128.55	6.23	-15.8	-30.7	3.6	8.18e-01	0	55	104	0	1	22192
2026-01-29 11:01:08.66	128.33	6.51	-18.1	-33.1	3.6	8.26e-01	0	55	104	0	8	19491
2026-01-29 11:01:12.71	128.10	6.81	-15.7	-34.5	3.6	8.29e-01	0	55	104	0	2	32205
2026-01-29 11:01:16.75	127.87	7.10	-21.4	-36.8	3.6	8.30e-01	0	55	104	0	13	22445
2026-01-29 11:01:20.79	127.63	7.39	-13.8	-30.8	3.7	8.30e-01	0	55	104	0	0	23653
2026-01-29 11:01:24.83	127.39	7.69	-16.9	-29.1	3.9	8.26e-01	0	55	104	0	8	12306
2026-01-29 11:01:28.87	127.15	7.99	-20.3	-36.3	3.7	8.29e-01	0	55	104	0	8	28315
2026-01-29 11:01:32.91	126.90	8.30	-21.6	-37.2	3.7	8.35e-01	0	56	104	0	11	26361
2026-01-29 11:01:36.95	126.64	8.61	-13.2	-24.6	3.8	8.45e-01	0	56	104	0	1	11009
2026-01-29 11:01:40.99	126.38	8.92	-16.7	-31.0	4.0	8.31e-01	0	56	104	0	6	17223
2026-01-29 11:01:45.03	126.11	9.23	-18.0	-32.6	3.7	8.32e-01	0	56	104	0	4	23094
2026-01-29 11:01:49.07	125.84	9.55	-16.9	-34.8	3.7	8.29e-01	0	56	104	0	10	21029
2026-01-29 11:01:53.11	125.55	9.87	-16.8	-28.1	4.0	8.36e-01	0	57	0	0	6	12280
2026-01-29 11:01:57.15	125.27	10.20	-26.3	-42.0	4.3	8.32e-01	0	57	104	0	20	27345
2026-01-29 11:02:01.19	124.97	10.53	-26.1	-39.3	3.8	8.29e-01	0	57	104	0	17	23760
2026-01-29 11:02:05.24	124.67	10.86	-23.8	-39.0	4.5	8.29e-01	0	57	0	0	18	21635
2026-01-29 11:02:09.28	124.36	11.20	-22.8	-38.0	3.9	8.35e-01	0	57	104	0	15	22865
2026-01-29 11:02:13.31	124.05	11.54	-29.7	-44.8	4.9	8.32e-01	0	57	104	2097152	28	23615
2026-01-29 11:02:17.36	123.73	11.88	-34.8	-45.2	4.8	8.24e-01	0	57	104	2097152	38	13966
2026-01-29 11:02:21.40	123.39	12.23	-33.9	-41.5	10.9	1.05e-01	0	57	0	9437184	41	7675
2026-01-29 11:02:25.44	123.06	12.58	-36.2	-40.9	8.5	1.40e-01	0	57	0	28311552	38	8486
2026-01-29 11:02:29.48	122.71	12.94	-37.7	-40.9	12.6	8.73e-02	0	57	0	49283072	44	6052
2026-01-29 11:02:33.52	122.35	13.30	-36.7	-40.6	12.6	5.66e-02	0	58	0	72351744	42	6496
2026-01-29 11:02:37.57	121.99	13.66	-30.1	-40.4	11.8	4.88e-02	0	57	0	94371840	37	8554
2026-01-29 11:02:41.61	121.61	14.03	-36.7	-40.6	12.6	5.74e-02	0	58	0	117440512	43	6198
2026-01-29 11:02:45.65	121.23	14.40	-37.3	-40.4	13.0	6.66e-02	0	58	0	139460608	42	6404
2026-01-29 11:02:49.69	120.83	14.78	-32.7	-40.2	11.6	5.53e-02	0	58	0	162529280	40	7002
2026-01-29 11:02:53.74	120.42	15.16	-35.2	-40.2	12.5	1.80e-02	0	58	0	184549376	41	6626
2026-01-29 11:02:57.78	120.01	15.55	-34.7	-40.1	13.0	6.14e-03	0	58	0	207618048	40	6896
2026-01-29 11:03:01.81	119.58	15.94	-37.3	-40.1	14.3	1.26e-03	0	58	0	230686720	46	4873
2026-01-29 11:03:05.86	119.14	16.34	-37.3	-40.0	14.2	1.22e-03	0	58	0	252706816	45	5153
2026-01-29 11:03:09.90	118.69	16.74	-37.9	-40.0	14.3	2.01e-04	0	58	0	275775488	46	4817
2026-01-29 11:03:13.94	118.23	17.14	-37.9	-39.9	14.5	5.47e-04	0	58	0	298844160	46	4807
2026-01-29 11:03:17.99	117.75	17.56	-37.9	-40.0	14.6	0.00e+00	0	58	0	320864256	46	4820
2026-01-29 11:03:22.02	117.26	17.97	-38.0	-40.1	14.4	2.20e-06	0	58	0	343932928	46	4902
2026-01-29 11:03:26.06	116.76	18.39	-37.7	-39.7	14.9	0.00e+00	0	58	0	367001600	46	4652
2026-01-29 11:03:30.10	116.24	18.82	-37.5	-39.4	15.0	1.11e-04	0	59	0	389021696	45	4807
2026-01-29 11:03:34.15	115.71	19.25	-37.6	-39.5	15.1	2.20e-06	0	58	0	412090368	45	4860
2026-01-29 11:03:38.19	115.16	19.68	-37.5	-39.4	15.3	0.00e+00	0	59	0	435159040	45	4779
2026-01-29 11:03:42.23	114.59	20.12	-37.4	-39.3	15.4	5.70e-06	0	59	0	458227712	45	4724
2026-01-29 11:03:46.27	114.01	20.56	-37.3	-39.1	15.6	0.00e+00	0	58	0	480247808	45	4611
2026-01-29 11:03:50.31	113.41	21.01	-37.3	-39.1	15.6	0.00e+00	0	58	0	503316480	45	4615
2026-01-29 11:03:54.36	112.80	21.47	-37.2	-39.0	15.7	0.00e+00	0	59	0	525336576	45	4573
2026-01-29 11:03:58.40	112.16	21.93	-37.0	-38.7	16.0	0.00e+00	0	59	0	548405248	45	4439
2026-01-29 11:04:02.44	111.50	22.39	-36.8	-38.5	16.3	0.00e+00	0	59	0	571473920	44	4562
2026-01-29 11:04:06.48	110.83	22.86	-36.9	-38.6	16.2	0.00e+00	0	59	0	594542592	44	4619
2026-01-29 11:04:10.53	110.13	23.33	-36.8	-38.5	16.3	0.00e+00	0	59	0	616562688	44	4574
2026-01-29 11:04:14.57	109.41	23.80	-36.8	-38.4	16.4	0.00e+00	0	59	0	639631360	44	4543
2026-01-29 11:04:18.61	108.67	24.28	-36.9	-38.6	16.2	0.00e+00	0	59	0	662700032	44	4651
2026-01-29 11:04:22.66	107.91	24.77	-36.8	-38.5	16.4	0.00e+00	0	59	0	684720128	44	4564
2026-01-29 11:04:26.70	107.12	25.25	-36.5	-38.1	16.7	0.00e+00	0	59	0	707788800	44	4389
2026-01-29 11:04:30.75	106.31	25.74	-36.4	-37.9	16.9	0.00e+00	0	59	0	730857472	44	4287
2026-01-29 11:04:34.79	105.47	26.23	-36.4	-38.0	16.9	0.00e+00	0	59	0	752877568	44	4302
2026-01-29 11:04:38.83	104.61	26.72	-36.4	-38.0	16.9	0.00e+00	0	59	0	775946240	44	4307
2026-01-29 11:04:42.87	103.71	27.22	-36.4	-38.0	16.9	0.00e+00	0	59	0	799014912	44	4316
2026-01-29 11:04:46.92	102.79	27.71	-36.4	-37.9	17.0	0.00e+00	0	59	0	822083584	44	4276
2026-01-29 11:04:50.96	101.84	28.21	-36.4	-38.0	16.9	0.00e+00	0	59	0	844103680	44	4304
2026-01-29 11:04:55.00	100.86	28.70	-36.4	-38.0	16.9	0.00e+00	0	59	0	867172352	44	4327
2026-01-29 11:04:59.04	99.85	29.20	-36.2	-37.7	17.2	0.00e+00	0	59	0	890241024	44	4178
2026-01-29 11:05:03.08	98.81	29.69	-36.3	-37.8	17.1	0.00e+00	0	59	0	912261120	44	4242
2026-01-29 11:05:07.12	97.74	30.18	-36.1	-37.7	17.2	0.00e+00	0	59	0	935329792	44	4159
2026-01-29 11:05:11.16	96.63	30.67	-35.7	-37.2	17.6	0.00e+00	0	59	0	958398464	43	4154
2026-01-29 11:05:15.21	95.49	31.15	-35.6	-37.4	17.2	4.02e-04	0	60	0	980418560	43	4270
2026-01-29 11:05:19.25	94.31	31.63	-35.7	-37.2	17.5	2.20e-06	0	59	0	1003487232	42	4439
2026-01-29 11:05:23.29	93.10	32.10	-35.5	-37.1	17.6	0.00e+00	0	60	0	1026555904	42	4355
2026-01-29 11:05:27.33	91.85	32.56	-35.6	-37.1	17.7	0.00e+00	0	59	0	1048576000	42	4362
2026-01-29 11:05:31.38	90.57	33.02	-35.6	-37.0	17.7	0.00e+00	0	59	0	1071644672	42	4340
2026-01-29 11:05:35.42	89.25	33.46	-35.7	-37.2	17.6	0.00e+00	0	60	0	1094713344	42	4392
2026-01-29 11:05:39.46	87.89	33.90	-35.6	-37.1	17.7	0.00e+00	0	59	0	1116733440	42	4357
2026-01-29 11:05:43.50	86.50	34.32	-35.6	-37.1	17.8	0.00e+00	0	59	0	1139802112	42	4345
2026-01-29 11:05:47.55	85.07	34.72	-35.6	-37.1	17.7	0.00e+00	0	60	0	1162870784	42	4371
2026-01-29 11:05:51.59	83.61	35.11	-35.5	-37.0	17.9	0.00e+00	0	60	0	1184890880	42	4310
2026-01-29 11:05:55.63	82.11	35.49	-35.7	-37.2	17.6	0.00e+00	0	60	0	1207959552	42	4396
2026-01-29 11:05:59.67	80.58	35.84	-35.8	-37.3	17.5	0.00e+00	0	59	0	1231028224	42	4468
2026-01-29 11:06:03.71	79.02	36.17	-35.7	-37.1	17.7	0.00e+00	0	59	0	1254096896	42	4389
2026-01-29 11:06:07.75	77.43	36.49	-35.6	-37.1	17.8	0.00e+00	0	60	0	1276116992	42	4371
2026-01-29 11:06:11.79	75.80	36.78	-35.4	-36.8	18.1	0.00e+00	0	59	0	1299185664	42	4221
2026-01-29 11:06:15.83	74.15	37.04	-35.5	-36.9	17.9	0.00e+00	0	60	0	1322254336	42	4291
2026-01-29 11:06:19.87	72.47	37.28	-35.7	-37.1	17.7	0.00e+00	0	60	0	1344274432	42	4386
2026-01-29 11:06:23.91	70.77	37.50	-35.4	-36.9	18.1	0.00e+00	0	60	0	1367343104	42	4246
2026-01-29 11:06:27.95	69.05	37.68	-35.8	-37.2	17.7	0.00e+00	0	59	0	1389363200	42	4434
2026-01-29 11:06:31.99	67.31	37.84	-35.9	-37.4	17.5	0.00e+00	0	60	0	1412431872	42	4539
2026-01-29 11:06:36.03	65.55	37.96	-35.9	-37.4	17.6	0.00e+00	0	60	0	1435500544	42	4506
2026-01-29 11:06:40.07	63.79	38.06	-35.5	-37.0	17.9	0.00e+00	0	60	0	1458569216	42	4308
2026-01-29 11:06:44.11	62.01	38.12	-35.9	-37.4	17.5	0.00e+00	0	59	0	1480589312	42	4533
2026-01-29 11:06:48.16	60.23	38.16	-35.8	-37.3	17.7	0.00e+00	0	59	0	1503657984	42	4475
2026-01-29 11:06:52.20	58.44	38.16	-35.9	-37.4	17.5	0.00e+00	0	60	0	1526726656	42	4522
2026-01-29 11:06:56.24	56.66	38.13	-35.8	-37.3	17.6	0.00e+00	0	60	0	1548746752	42	4471
2026-01-29 11:07:00.28	54.89	38.07	-35.7	-37.1	17.8	0.00e+00	0	60	0	1571815424	42	4371
2026-01-29 11:07:04.32	53.12	37.98	-35.9	-37.3	17.6	0.00e+00	0	60	0	1594884096	42	4470
2026-01-29 11:07:08.36	51.37	37.85	-35.5	-36.9	18.0	0.00e+00	0	60	0	1616904192	42	4279
2026-01-29 11:07:12.39	49.63	37.70	-35.4	-36.8	18.1	0.00e+00	0	60	0	1639972864	42	4212
2026-01-29 11:07:16.44	47.90	37.52	-35.2	-36.6	18.3	0.00e+00	0	60	0	1663041536	42	4123
2026-01-29 11:07:20.48	46.20	37.31	-35.4	-36.8	18.1	0.00e+00	0	60	0	1685061632	42	4196
2026-01-29 11:07:24.52	44.52	37.07	-35.6	-37.1	17.9	0.00e+00	0	60	0	1708130304	42	4343
2026-01-29 11:07:28.57	42.87	36.81	-35.6	-37.0	17.9	0.00e+00	0	60	0	1731198976	42	4328
2026-01-29 11:07:32.61	41.24	36.53	-35.5	-37.0	18.0	0.00e+00	0	60	0	1754267648	42	4298
2026-01-29 11:07:36.65	39.65	36.22	-35.7	-37.1	17.8	0.00e+00	0	60	0	1776287744	42	4370
2026-01-29 11:07:40.69	38.08	35.89	-35.7	-37.1	17.8	0.00e+00	0	60	0	1799356416	42	4376
2026-01-29 11:07:44.74	36.55	35.53	-35.6	-37.0	17.9	0.00e+00	0	60	0	1821376512	42	4332
2026-01-29 11:07:48.78	35.05	35.16	-35.6	-37.0	18.2	0.00e+00	0	60	0	1844445184	42	4303
2026-01-29 11:07:52.82	33.59	34.78	-35.8	-37.1	18.0	0.00e+00	0	60	0	1867513856	42	4386
2026-01-29 11:07:56.87	32.16	34.37	-35.7	-37.0	18.1	0.00e+00	0	60	0	1890582528	42	4336
2026-01-29 11:08:00.91	30.77	33.96	-35.8	-37.2	17.9	0.00e+00	0	60	0	1912602624	42	4403
2026-01-29 11:08:04.95	29.42	33.53	-35.7	-37.1	18.1	0.00e+00	0	60	0	1935671296	42	4352
2026-01-29 11:08:08.99	28.10	33.09	-35.5	-36.8	18.3	0.00e+00	0	60	0	1958739968	42	4209
2026-01-29 11:08:13.03	26.81	32.63	-35.9	-37.3	17.8	0.00e+00	0	60	0	1980760064	42	4467
2026-01-29 11:08:17.07	25.57	32.17	-35.8	-37.2	17.9	0.00e+00	0	60	0	2003828736	42	4424
2026-01-29 11:08:21.11	24.36	31.71	-35.6	-37.0	18.1	0.00e+00	0	60	0	2026897408	42	4297
2026-01-29 11:08:25.15	23.18	31.23	-35.7	-37.0	18.1	0.00e+00	0	60	0	2048917504	42	4318
2026-01-29 11:08:29.19	22.04	30.75	-36.0	-37.3	17.8	0.00e+00	0	60	0	2071986176	42	4492
2026-01-29 11:08:33.23	20.93	30.27	-35.9	-37.3	17.8	0.00e+00	0	60	0	2095054848	42	4475
2026-01-29 11:08:37.28	19.86	29.78	-36.0	-37.3	17.8	0.00e+00	0	60	0	2117074944	42	4482
2026-01-29 11:08:41.32	18.81	29.29	-36.0	-37.4	17.7	0.00e+00	0	60	0	2140143616	42	4524
2026-01-29 11:08:45.36	17.80	28.79	-36.2	-37.6	17.5	0.00e+00	0	60	0	2163212288	42	4626
2026-01-29 11:08:49.40	16.83	28.30	-36.0	-37.4	17.6	0.00e+00	0	60	0	2185232384	43	4279
2026-01-29 11:08:53.44	15.88	27.81	-36.2	-37.6	17.4	0.00e+00	0	60	0	2208301056	43	4386
2026-01-29 11:08:57.48	14.96	27.31	-36.2	-37.7	17.4	0.00e+00	0	60	0	2231369728	43	4397
2026-01-29 11:09:01.52	14.07	26.82	-36.3	-37.8	17.2	0.00e+00	0	60	0	2253389824	43	4468
2026-01-29 11:09:05.56	13.20	26.33	-36.5	-37.9	17.1	0.00e+00	0	60	0	2276458496	43	4545
2026-01-29 11:09:09.60	12.36	25.84	-36.4	-37.9	17.1	0.00e+00	0	60	0	2299527168	43	4513
2026-01-29 11:09:13.65	11.55	25.36	-36.6	-38.1	16.9	0.00e+00	0	60	0	2321547264	43	4638
2026-01-29 11:09:17.69	10.77	24.87	-36.6	-38.1	16.8	0.00e+00	0	60	0	2344615936	43	4650
2026-01-29 11:09:21.72	10.00	24.39	-36.8	-38.4	16.8	0.00e+00	0	60	0	2367684608	44	4499
2026-01-29 11:09:25.76	9.27	23.92	-36.9	-38.4	16.7	0.00e+00	0	60	0	2389704704	44	4519
2026-01-29 11:09:29.80	8.55	23.44	-36.9	-38.4	16.7	0.00e+00	0	60	0	2412773376	44	4532
2026-01-29 11:09:33.84	7.85	22.97	-36.8	-38.4	16.8	0.00e+00	0	60	0	2435842048	44	4497
2026-01-29 11:09:37.88	7.18	22.51	-36.7	-38.2	16.8	0.00e+00	0	60	0	2457862144	44	4428
2026-01-29 11:09:41.93	6.52	22.04	-36.7	-38.3	16.8	0.00e+00	0	60	0	2480930816	44	4447
2026-01-29 11:09:45.97	5.89	21.59	-37.0	-38.5	16.5	0.00e+00	0	60	0	2503999488	44	4594
2026-01-29 11:09:50.01	5.28	21.14	-37.1	-38.6	16.4	0.00e+00	0	60	0	2526019584	44	4647
2026-01-29 11:09:54.05	4.68	20.69	-37.1	-38.6	16.3	0.00e+00	0	60	0	2549088256	44	4650
2026-01-29 11:09:58.10	4.10	20.24	-37.1	-38.7	16.3	0.00e+00	0	60	0	2572156928	44	4669
2026-01-29 11:10:02.14	3.53	19.81	-37.2	-38.8	16.1	0.00e+00	0	60	0	2594177024	44	4756
2026-01-29 11:10:06.17	2.99	19.37	-37.3	-39.0	15.9	0.00e+00	0	60	0	2617245696	45	4573
2026-01-29 11:10:10.22	2.45	18.94	-37.4	-39.1	15.8	0.00e+00	0	60	0	2640314368	45	4625
2026-01-29 11:10:14.26	1.94	18.52	-37.3	-38.9	15.9	0.00e+00	0	60	0	2662334464	45	4543
2026-01-29 11:10:18.30	1.44	18.10	-37.4	-39.0	15.8	0.00e+00	0	60	0	2685403136	45	4593
2026-01-29 11:10:22.34	0.95	17.69	-37.6	-39.4	15.3	0.00e+00	0	60	0	2708471808	45	4803
2026-01-29 11:10:26.39	0.47	17.28	-37.8	-39.6	15.1	0.00e+00	0	60	0	2731540480	46	4636
2026-01-29 11:10:30.43	0.01	16.87	-37.8	-39.6	15.1	0.00e+00	0	60	0	2753560576	46	4626
2026-01-29 11:10:34.47	359.56	16.47	-37.8	-39.7	14.8	2.20e-06	0	60	0	2776629248	46	4672
2026-01-29 11:10:38.51	359.13	16.08	-37.9	-39.8	14.7	0.00e+00	0	60	0	2799697920	46	4717
2026-01-29 11:10:42.55	358.70	15.69	-37.8	-39.7	14.5	0.00e+00	0	60	0	2821718016	46	4699
2026-01-29 11:10:46.59	358.29	15.30	-38.0	-40.0	14.0	3.40e-06	0	60	0	2844786688	47	4591
2026-01-29 11:10:50.64	357.88	14.92	-38.4	-40.7	12.9	7.09e-05	0	60	0	2867855360	47	4983
2026-01-29 11:10:54.68	357.49	14.54	-38.1	-40.5	12.8	5.03e-05	0	60	0	2889875456	47	4829
2026-01-29 11:10:58.72	357.11	14.17	-38.3	-41.0	11.9	4.69e-04	0	60	0	2912944128	47	5134
2026-01-29 11:11:02.76	356.74	13.80	-37.7	-40.2	12.3	2.33e-04	0	60	0	2936012800	47	4701
2026-01-29 11:11:06.80	356.38	13.44	-38.4	-41.6	10.5	3.80e-03	0	60	0	2958032896	47	5465
2026-01-29 11:11:10.84	356.02	13.08	-39.8	-44.8	6.9	1.82e-01	0	60	0	2981101568	50	6684
2026-01-29 11:11:14.89	355.68	12.72	-40.4	-48.6	4.3	8.32e-01	0	60	0	2992635904	51	9799
2026-01-29 11:11:18.93	355.34	12.37	-40.9	-51.0	3.8	8.46e-01	0	60	104	2992635904	52	12227
2026-01-29 11:11:22.97	355.01	12.02	-40.0	-51.5	3.8	8.47e-01	0	60	104	2992635904	51	13594
2026-01-29 11:11:27.01	354.69	11.68	-40.2	-51.6	3.8	8.47e-01	0	61	104	2992635904	51	13866
2026-01-29 11:11:31.05	354.38	11.34	-40.0	-51.4	3.8	8.46e-01	0	61	104	2992635904	51	13512
2026-01-29 11:11:35.09	354.07	11.00	-40.2	-51.6	3.8	8.48e-01	0	60	104	2992635904	51	13885
2026-01-29 11:11:39.13	353.78	10.67	-40.1	-51.6	3.8	8.47e-01	0	61	104	2992635904	51	13766
2026-01-29 11:11:43.17	353.48	10.34	-40.1	-51.6	3.8	8.46e-01	0	60	104	2992635904	51	13727
2026-01-29 11:11:47.21	353.20	10.02	-40.1	-51.5	3.8	8.46e-01	0	61	104	2992635904	51	13687
2026-01-29 11:11:51.25	352.92	9.70	-40.1	-51.5	3.8	8.46e-01	0	60	104	2992635904	51	13705
2026-01-29 11:11:55.29	352.65	9.38	-40.2	-51.7	3.8	8.46e-01	0	61	104	2992635904	51	13922
2026-01-29 11:11:59.33	352.39	9.07	-40.3	-51.8	3.8	8.46e-01	0	61	104	2992635904	51	14094
2026-01-29 11:12:03.36	352.13	8.76	-40.4	-51.9	3.8	8.46e-01	0	60	104	2992635904	51	14251
2026-01-29 11:12:07.40	351.88	8.45	-40.4	-51.9	3.8	8.46e-01	0	60	104	2992635904	51	14275
2026-01-29 11:12:11.45	351.63	8.14	-40.4	-51.9	3.8	8.47e-01	0	61	104	2992635904	51	14309
2026-01-29 11:12:15.49	351.38	7.84	-40.7	-52.2	3.8	8.46e-01	0	61	104	2992635904	52	13916
2026-01-29 11:12:19.53	351.15	7.54	-45.0	-56.9	3.8	8.47e-01	0	60	104	2992635904	60	15087
2026-01-29 11:12:23.57	350.92	7.25	-44.5	-57.0	3.8	8.46e-01	0	60	104	2992635904	60	15276
2026-01-29 11:12:27.61	350.69	6.96	-44.9	-56.9	3.8	8.47e-01	0	61	104	2992635904	60	15056
2026-01-29 11:12:31.65	350.47	6.67	-44.9	-56.8	3.8	8.45e-01	0	61	104	2992635904	60	14990
2026-01-29 11:12:35.69	350.25	6.38	-44.8	-56.8	3.8	8.47e-01	0	60	104	2992635904	60	14883
2026-01-29 11:12:39.73	350.04	6.10	-44.8	-56.8	3.8	8.45e-01	0	61	104	2992635904	60	14881
2026-01-29 11:12:43.77	349.83	5.81	-44.7	-56.8	3.8	8.46e-01	0	61	104	2992635904	60	14960
2026-01-29 11:12:47.82	349.62	5.53	-44.8	-56.7	3.8	8.45e-01	0	61	104	2992635904	60	14875
2026-01-29 11:12:51.86	349.42	5.26	-44.8	-56.8	3.8	8.47e-01	0	61	104	2992635904	60	14901
2026-01-29 11:12:55.90	349.23	4.98	-44.8	-56.8	3.8	8.45e-01	0	61	104	2992635904	60	14891
2026-01-29 11:12:59.95	349.03	4.71	-44.8	-56.8	3.8	8.46e-01	0	61	104	2992635904	60	14899
2026-01-29 11:13:03.99	348.85	4.44	-44.8	-56.7	3.8	8.46e-01	0	61	104	2992635904	60	14876
2026-01-29 11:13:08.03	348.66	4.18	-44.2	-56.7	3.8	8.46e-01	0	61	104	2992635904	60	14800
2026-01-29 11:13:12.07	348.48	3.91	-44.8	-56.7	3.8	8.46e-01	0	61	104	2992635904	60	14831
2026-01-29 11:13:16.11	348.30	3.65	-44.6	-56.7	3.8	8.47e-01	0	60	104	2992635904	60	14802
2026-01-29 11:13:20.15	348.13	3.39	-44.6	-56.7	3.8	8.45e-01	0	60	104	2992635904	60	14808
2026-01-29 11:13:24.19	347.96	3.13	-44.8	-56.7	3.8	8.45e-01	0	61	104	2992635904	60	14847
2026-01-29 11:13:28.24	347.79	2.88	-44.8	-56.7	3.8	8.47e-01	0	61	104	2992635904	60	14751
2026-01-29 11:13:32.28	347.63	2.63	-44.8	-56.7	3.8	8.46e-01	0	60	104	2992635904	60	14822
2026-01-29 11:13:36.32	347.47	2.37	-44.8	-56.7	3.8	8.46e-01	0	61	104	2992635904	60	14822
2026-01-29 11:13:40.36	347.31	2.12	-44.8	-56.7	3.8	8.46e-01	0	60	104	2992635904	60	14808

#Closed at: 2026-01-29 11:13:43
#Recorded file [2992 MB]: D:/lorett/data/31039_260129_135959.dat