passes_logs/2026/01/29/R2.0S_Moscow/R2.0S_Moscow__20260129_235327_SUOMI_NPP_rec.log

#Pass ID: 20260129_235327_SUOMI NPP
#Satellite: SUOMI NPP
#Configuration: NPP
#almurnet v.1.7.20251203
#Start time: 2026-01-29 23:53:28

#Version: 2.2.20231116
#Station: R2.0S_Moscow
#Location: 37.707566 lon 55.798166 lat
#TLE: 1 37849U 11061A   26028.91916408  .00000155  00000+0  94467-4 0  9990
#TLE: 2 37849  98.7824 330.8488 0002045  39.4457 320.6868 14.19531289738686

#Time	Az	El	Level	Level2	SNR	BER	BlckErr	Temp	State	Recorded	gain1	gain2
2026-01-29 23:53:28.95	15.60	2.12	-42.5	-57.1	3.8	1.49e+00	0	51	0	0	57	18321
2026-01-29 23:53:32.99	15.59	2.38	-42.5	-57.1	3.8	1.49e+00	0	52	104	0	56	19420
2026-01-29 23:53:37.03	15.58	2.64	-42.5	-57.1	3.8	1.49e+00	0	52	104	0	56	19426
2026-01-29 23:53:41.07	15.57	2.90	-42.5	-57.1	3.8	1.49e+00	0	52	104	0	56	19395
2026-01-29 23:53:45.11	15.56	3.17	-42.5	-57.1	3.8	1.49e+00	0	53	104	0	56	19448
2026-01-29 23:53:49.15	15.55	3.44	-42.5	-57.1	3.8	1.49e+00	0	53	104	0	56	19392
2026-01-29 23:53:53.19	15.54	3.71	-42.5	-57.0	3.8	1.49e+00	0	53	104	0	56	19346
2026-01-29 23:53:57.23	15.53	3.99	-42.5	-57.0	3.8	1.49e+00	0	53	104	0	56	19375
2026-01-29 23:54:01.28	15.51	4.27	-42.5	-57.0	3.8	1.49e+00	0	54	104	0	56	19358
2026-01-29 23:54:05.32	15.50	4.55	-42.5	-57.0	3.8	1.49e+00	0	54	104	0	56	19293
2026-01-29 23:54:09.36	15.49	4.83	-42.5	-57.0	3.8	1.49e+00	0	54	104	0	56	19345
2026-01-29 23:54:13.40	15.47	5.12	-42.5	-57.0	3.8	1.49e+00	0	54	104	0	56	19351
2026-01-29 23:54:17.44	15.46	5.41	-42.5	-57.0	3.8	1.49e+00	0	55	104	0	56	19279
2026-01-29 23:54:21.48	15.44	5.70	-42.5	-57.0	3.8	1.49e+00	0	55	104	0	56	19285
2026-01-29 23:54:25.52	15.42	6.00	-42.5	-57.0	3.8	1.49e+00	0	55	104	0	56	19229
2026-01-29 23:54:29.56	15.41	6.30	-42.5	-56.9	3.8	1.49e+00	0	55	104	0	56	18988
2026-01-29 23:54:33.60	15.39	6.60	-42.5	-56.5	3.8	1.49e+00	0	55	104	0	56	18282
2026-01-29 23:54:37.64	15.37	6.91	-42.4	-55.3	3.8	1.49e+00	0	56	104	0	56	15882
2026-01-29 23:54:41.69	15.35	7.22	-42.1	-52.1	4.6	9.81e-01	0	56	0	1048576	56	10995
2026-01-29 23:54:45.73	15.33	7.54	-41.5	-49.0	6.6	2.33e-01	0	56	0	8388608	55	8161
2026-01-29 23:54:49.77	15.31	7.86	-41.9	-51.3	5.0	6.03e-01	0	56	0	16777216	54	11281
2026-01-29 23:54:53.81	15.29	8.18	-42.5	-50.2	6.4	4.22e-01	0	56	0	24117248	55	9313
2026-01-29 23:54:57.85	15.26	8.51	-42.7	-50.1	6.7	2.32e-01	0	57	0	28311552	56	8677
2026-01-29 23:55:01.89	15.24	8.84	-42.7	-49.7	7.2	1.36e-01	0	56	0	35651584	56	8338
2026-01-29 23:55:05.93	15.22	9.17	-42.7	-54.0	4.2	2.95e-01	0	57	0	42991616	56	13616
2026-01-29 23:55:09.97	15.19	9.51	-42.8	-49.5	7.6	1.29e-01	0	57	0	50331648	57	7664
2026-01-29 23:55:14.02	15.16	9.86	-42.8	-49.4	7.6	1.00e-01	0	57	0	57671680	57	7623
2026-01-29 23:55:18.05	15.14	10.21	-42.8	-49.3	7.9	8.47e-02	0	57	0	65011712	57	7469
2026-01-29 23:55:22.09	15.11	10.56	-42.8	-49.2	8.0	6.39e-02	0	57	0	73400320	57	7433
2026-01-29 23:55:26.14	15.08	10.92	-42.8	-49.0	8.2	5.17e-02	0	57	0	80740352	57	7263
2026-01-29 23:55:30.18	15.05	11.29	-42.7	-48.7	8.5	5.35e-02	0	58	0	88080384	57	6967
2026-01-29 23:55:34.22	15.01	11.66	-42.8	-48.7	8.6	3.62e-02	0	57	0	95420416	57	7001
2026-01-29 23:55:38.26	14.98	12.04	-42.7	-48.6	8.7	3.32e-02	0	58	0	103809024	57	6899
2026-01-29 23:55:42.29	14.95	12.42	-42.7	-48.5	8.8	2.37e-02	0	58	0	111149056	57	6819
2026-01-29 23:55:46.33	14.91	12.81	-42.6	-48.2	9.1	2.28e-02	0	58	0	118489088	57	6616
2026-01-29 23:55:50.38	14.87	13.20	-42.7	-48.2	9.2	1.66e-02	0	58	0	125829120	57	6621
2026-01-29 23:55:54.41	14.83	13.60	-42.6	-47.9	9.6	1.62e-02	0	58	0	133169152	57	6383
2026-01-29 23:55:58.45	14.79	14.01	-42.7	-48.1	9.5	1.45e-02	0	58	0	141557760	57	6539
2026-01-29 23:56:02.49	14.75	14.43	-42.6	-47.7	9.9	9.41e-03	0	58	0	148897792	57	6209
2026-01-29 23:56:06.53	14.71	14.85	-42.5	-47.6	10.0	9.04e-03	0	58	0	156237824	57	6158
2026-01-29 23:56:10.57	14.66	15.28	-42.5	-47.5	10.2	6.94e-03	0	59	0	163577856	56	6434
2026-01-29 23:56:14.62	14.61	15.72	-42.5	-47.4	10.2	5.33e-03	0	59	0	171966464	56	6415
2026-01-29 23:56:18.66	14.56	16.16	-42.5	-47.3	10.4	5.45e-03	0	59	0	179306496	56	6338
2026-01-29 23:56:22.70	14.51	16.62	-42.5	-47.4	10.4	4.84e-03	0	59	0	186646528	56	6359
2026-01-29 23:56:26.74	14.46	17.08	-42.4	-47.1	10.8	3.52e-03	0	59	0	193986560	56	6142
2026-01-29 23:56:30.78	14.40	17.55	-42.4	-47.1	10.7	2.94e-03	0	59	0	201326592	56	6148
2026-01-29 23:56:34.82	14.35	18.03	-42.3	-46.7	11.2	1.28e-03	0	58	0	209715200	56	5861
2026-01-29 23:56:38.86	14.28	18.52	-42.2	-46.4	11.5	9.71e-04	0	59	0	217055232	56	5676
2026-01-29 23:56:42.90	14.22	19.02	-42.1	-46.3	11.7	5.18e-04	0	59	0	224395264	56	5605
2026-01-29 23:56:46.94	14.16	19.53	-42.1	-46.2	11.7	5.93e-04	0	59	0	231735296	56	5561
2026-01-29 23:56:50.98	14.09	20.05	-42.2	-46.3	11.6	4.36e-04	0	59	0	240123904	56	5647
2026-01-29 23:56:55.02	14.02	20.58	-42.1	-46.0	11.9	4.51e-04	0	59	0	247463936	56	5464
2026-01-29 23:56:59.06	13.94	21.13	-41.6	-45.9	11.9	4.42e-04	0	59	0	254803968	54	6032
2026-01-29 23:57:03.09	13.87	21.68	-41.9	-45.8	12.1	2.82e-04	0	59	0	262144000	54	5938
2026-01-29 23:57:07.13	13.78	22.25	-42.0	-46.0	11.9	3.14e-04	0	59	0	269484032	54	6082
2026-01-29 23:57:11.17	13.70	22.83	-41.9	-45.8	12.1	3.55e-04	0	59	0	277872640	54	5975
2026-01-29 23:57:15.21	13.61	23.42	-41.8	-45.7	12.2	1.69e-04	0	59	0	285212672	54	5872
2026-01-29 23:57:19.26	13.52	24.03	-41.8	-45.6	12.3	1.62e-04	0	59	0	292552704	54	5842
2026-01-29 23:57:23.30	13.42	24.66	-42.0	-45.9	12.0	3.29e-04	0	59	0	299892736	54	6045
2026-01-29 23:57:27.34	13.32	25.29	-42.0	-45.9	12.0	3.93e-04	0	60	0	308281344	54	6051
2026-01-29 23:57:31.38	13.21	25.95	-41.8	-45.6	12.4	1.24e-04	0	59	0	315621376	54	5843
2026-01-29 23:57:35.42	13.10	26.62	-42.1	-46.1	11.9	2.73e-04	0	60	0	322961408	54	6181
2026-01-29 23:57:39.46	12.98	27.30	-42.3	-46.6	11.3	1.08e-03	0	60	0	330301440	55	6192
2026-01-29 23:57:43.50	12.86	28.01	-42.4	-46.9	11.0	1.38e-03	0	59	0	337641472	55	6368
2026-01-29 23:57:47.55	12.73	28.73	-42.5	-47.0	11.0	1.38e-03	0	60	0	346030080	55	6451
2026-01-29 23:57:51.59	12.60	29.47	-43.0	-48.1	10.0	6.56e-03	0	60	0	353370112	56	6958
2026-01-29 23:57:55.63	12.45	30.23	-43.1	-48.2	9.9	9.16e-03	0	60	0	360710144	57	6602
2026-01-29 23:57:59.67	12.30	31.01	-43.1	-48.3	9.8	1.04e-02	0	60	0	368050176	57	6696
2026-01-29 23:58:03.71	12.14	31.82	-43.8	-50.6	7.5	8.56e-02	0	60	0	376438784	58	8239
2026-01-29 23:58:07.75	11.97	32.64	-43.9	-50.7	7.4	1.58e-01	0	60	0	383778816	58	8348
2026-01-29 23:58:11.79	11.80	33.49	-44.5	-53.6	5.3	2.57e-01	0	60	0	391118848	59	10922
2026-01-29 23:58:15.83	11.61	34.36	-43.7	-50.0	8.2	6.23e-02	0	60	0	398458880	59	7255
2026-01-29 23:58:19.87	11.41	35.26	-42.7	-47.2	11.0	3.65e-03	0	60	0	406847488	57	5912
2026-01-29 23:58:23.91	11.20	36.18	-42.7	-47.2	11.1	7.32e-04	0	60	0	414187520	56	6213
2026-01-29 23:58:27.96	10.97	37.13	-41.8	-45.4	12.8	1.07e-04	0	60	0	421527552	55	5398
2026-01-29 23:58:32.00	10.73	38.11	-42.0	-45.8	12.4	7.32e-05	0	60	0	428867584	55	5594
2026-01-29 23:58:36.04	10.47	39.12	-42.2	-46.2	12.0	3.55e-04	0	60	0	436207616	55	5872
2026-01-29 23:58:40.08	10.20	40.15	-41.9	-45.7	12.5	1.35e-04	0	60	0	444596224	55	5532
2026-01-29 23:58:44.11	9.91	41.22	-42.2	-46.2	12.0	2.90e-04	0	60	0	451936256	55	5868
2026-01-29 23:58:48.15	9.59	42.31	-42.4	-46.6	11.6	8.80e-04	0	60	0	459276288	55	6186
2026-01-29 23:58:52.19	9.26	43.44	-42.9	-47.6	10.6	3.55e-03	0	60	0	466616320	56	6568
2026-01-29 23:58:56.23	8.89	44.61	-43.1	-48.1	10.2	7.74e-03	0	60	0	475004928	57	6497
2026-01-29 23:59:00.27	8.50	45.80	-42.8	-47.3	11.0	1.69e-03	0	60	0	482344960	57	5951
2026-01-29 23:59:04.31	8.07	47.03	-43.5	-49.3	8.9	2.96e-02	0	60	0	489684992	57	7490
2026-01-29 23:59:08.35	7.61	48.30	-43.2	-48.4	9.9	8.60e-03	0	60	0	497025024	57	6760
2026-01-29 23:59:12.39	7.11	49.60	-43.3	-48.7	9.6	1.56e-02	0	60	0	504365056	57	6974
2026-01-29 23:59:16.43	6.56	50.94	-42.9	-47.5	10.9	1.81e-03	0	60	0	512753664	57	6071
2026-01-29 23:59:20.47	5.96	52.32	-42.4	-46.5	12.0	5.21e-04	0	60	0	520093696	56	5754
2026-01-29 23:59:24.51	5.29	53.73	-42.9	-47.5	10.9	2.83e-03	0	60	0	527433728	56	6454
2026-01-29 23:59:28.55	4.56	55.18	-42.4	-46.3	12.1	1.75e-04	0	60	0	534773760	56	5631
2026-01-29 23:59:32.59	3.74	56.66	-42.7	-46.9	11.5	4.62e-04	0	60	0	543162368	56	6018
2026-01-29 23:59:36.63	2.82	58.17	-43.1	-47.9	10.4	3.93e-03	0	60	0	550502400	56	6745
2026-01-29 23:59:40.67	1.80	59.72	-42.8	-47.3	11.1	5.51e-03	0	60	0	557842432	57	5924
2026-01-29 23:59:44.72	0.64	61.31	-43.0	-47.7	10.8	2.67e-03	0	60	0	565182464	56	6622
2026-01-29 23:59:48.76	359.32	62.91	-41.7	-45.2	13.1	3.50e-05	0	60	0	573571072	55	5244
2026-01-29 23:59:52.79	357.81	64.53	-42.0	-45.7	12.6	6.86e-05	0	60	0	580911104	54	5879
2026-01-29 23:59:56.83	356.06	66.18	-42.6	-47.1	11.1	6.86e-04	0	60	0	588251136	55	6561
2026-01-30 00:00:00.87	354.02	67.83	-42.8	-47.4	11.0	1.42e-03	0	60	0	595591168	56	6391
2026-01-30 00:00:04.91	351.61	69.49	-42.8	-47.4	10.9	2.41e-03	0	60	0	602931200	57	5997
2026-01-30 00:00:08.95	348.75	71.14	-42.0	-45.7	12.6	9.84e-05	0	60	0	611319808	55	5582
2026-01-30 00:00:12.99	345.31	72.75	-41.5	-44.9	13.4	1.83e-05	0	60	0	618659840	54	5396
2026-01-30 00:00:17.03	341.12	74.32	-43.1	-48.2	10.1	1.25e-03	0	60	0	625999872	56	7025
2026-01-30 00:00:21.07	335.99	75.81	-43.7	-50.3	7.8	4.34e-02	0	60	0	633339904	58	7986
2026-01-30 00:00:25.11	329.66	77.17	-43.5	-49.4	8.7	7.65e-02	0	60	0	641728512	58	7182
2026-01-30 00:00:29.15	321.88	78.36	-42.9	-47.7	10.5	3.18e-03	0	60	0	649068544	57	6214
2026-01-30 00:00:33.19	312.51	79.30	-43.6	-49.9	8.4	4.45e-02	0	60	0	656408576	57	8005
2026-01-30 00:00:37.24	301.61	79.91	-44.1	-51.7	6.6	1.74e-01	0	61	0	663748608	58	9295
2026-01-30 00:00:41.28	289.80	80.13	-44.3	-52.8	5.7	3.40e-01	0	60	0	671088640	59	10031
2026-01-30 00:00:45.32	277.97	79.92	-43.4	-49.3	8.9	7.85e-02	0	61	0	678428672	58	7052
2026-01-30 00:00:49.36	267.06	79.32	-43.7	-50.1	8.1	3.37e-02	0	61	0	685768704	58	7735
2026-01-30 00:00:53.40	257.63	78.39	-44.0	-51.4	6.9	4.42e-02	0	61	0	693108736	58	9018
2026-01-30 00:00:57.44	249.80	77.21	-43.9	-50.8	7.4	1.08e-01	0	61	0	701497344	58	8455
2026-01-30 00:01:01.48	243.43	75.85	-43.9	-51.1	7.1	3.25e-01	0	60	0	708837376	59	8230
2026-01-30 00:01:05.52	238.26	74.36	-42.3	-46.3	12.0	6.20e-04	0	61	0	716177408	56	5611
2026-01-30 00:01:09.56	234.05	72.79	-41.3	-44.4	13.7	2.05e-05	0	61	0	723517440	54	5097
2026-01-30 00:01:13.60	230.58	71.17	-42.2	-46.3	11.8	7.29e-04	0	61	0	731906048	55	5942
2026-01-30 00:01:17.64	227.70	69.53	-42.7	-47.2	11.2	5.00e-03	0	60	0	739246080	56	6205
2026-01-30 00:01:21.68	225.29	67.87	-43.0	-48.0	10.1	3.61e-03	0	61	0	746586112	56	6834
2026-01-30 00:01:25.72	223.23	66.21	-41.6	-45.0	13.3	3.80e-06	0	61	0	753926144	54	5443
2026-01-30 00:01:29.76	221.48	64.56	-42.9	-47.6	10.6	3.79e-03	0	61	0	762314752	56	6520
2026-01-30 00:01:33.80	219.96	62.93	-43.8	-50.4	7.9	8.51e-02	0	61	0	769654784	58	8039
2026-01-30 00:01:37.84	218.63	61.32	-43.2	-48.4	9.9	3.38e-02	0	61	0	776994816	58	6352
2026-01-30 00:01:41.89	217.46	59.73	-41.3	-44.4	13.9	1.44e-05	0	61	0	784334848	54	5067
2026-01-30 00:01:45.93	216.43	58.17	-41.7	-45.3	13.0	4.34e-05	0	60	0	791674880	54	5596
2026-01-30 00:01:49.97	215.52	56.65	-42.3	-46.4	11.8	2.17e-04	0	61	0	800063488	55	6021
2026-01-30 00:01:54.01	214.70	55.17	-43.5	-49.2	9.0	1.89e-02	0	61	0	807403520	57	7431
2026-01-30 00:01:58.05	213.96	53.71	-42.9	-47.6	10.8	3.40e-03	0	61	0	814743552	57	6139
2026-01-30 00:02:02.09	213.29	52.30	-42.7	-47.1	11.2	2.69e-03	0	60	0	822083584	57	5832
2026-01-30 00:02:06.13	212.68	50.92	-42.9	-47.6	10.6	4.45e-03	0	61	0	830472192	56	6552
2026-01-30 00:02:10.17	212.13	49.57	-43.7	-50.0	8.6	4.22e-02	0	61	0	837812224	57	8148
2026-01-30 00:02:14.21	211.62	48.27	-43.7	-50.0	8.3	3.14e-02	0	60	0	845152256	58	7679
2026-01-30 00:02:18.25	211.16	46.99	-43.9	-50.5	7.9	9.58e-02	0	61	0	852492288	59	7648
2026-01-30 00:02:22.29	210.73	45.76	-42.9	-47.6	10.7	7.00e-03	0	61	0	859832320	57	6183
2026-01-30 00:02:26.33	210.34	44.56	-43.2	-48.4	9.9	8.30e-03	0	61	0	868220928	57	6727
2026-01-30 00:02:30.37	209.97	43.39	-43.4	-49.0	9.2	1.52e-02	0	60	0	875560960	57	7261
2026-01-30 00:02:34.41	209.63	42.25	-44.1	-51.7	6.7	1.43e-01	0	61	0	882900992	58	9339
2026-01-30 00:02:38.45	209.31	41.15	-43.2	-48.3	10.0	1.07e-02	0	61	0	890241024	58	6283
2026-01-30 00:02:42.49	209.02	40.08	-43.2	-48.5	9.8	2.05e-02	0	61	0	898629632	57	6809
2026-01-30 00:02:46.53	208.74	39.04	-43.4	-49.1	9.1	3.24e-02	0	61	0	905969664	57	7298
2026-01-30 00:02:50.57	208.49	38.03	-42.5	-46.8	11.5	6.64e-04	0	61	0	913309696	56	5957
2026-01-30 00:02:54.61	208.24	37.05	-43.0	-48.0	10.3	4.48e-03	0	61	0	920649728	56	6822
2026-01-30 00:02:58.65	208.02	36.10	-43.3	-48.7	9.5	1.64e-02	0	61	0	927989760	57	6991
2026-01-30 00:03:02.69	207.80	35.17	-43.5	-49.5	8.5	4.33e-02	0	61	0	936378368	57	7671
2026-01-30 00:03:06.72	207.60	34.27	-42.8	-47.4	10.8	2.88e-03	0	61	0	943718400	57	6046
2026-01-30 00:03:10.76	207.41	33.40	-42.9	-47.6	10.6	2.22e-03	0	61	0	951058432	57	6148
2026-01-30 00:03:14.80	207.23	32.55	-42.8	-47.5	10.7	4.50e-03	0	61	0	958398464	57	6094
2026-01-30 00:03:18.84	207.06	31.72	-43.0	-48.0	10.1	6.44e-03	0	61	0	966787072	57	6422
2026-01-30 00:03:22.88	206.90	30.91	-43.1	-48.3	9.9	5.77e-03	0	61	0	974127104	57	6674
2026-01-30 00:03:26.93	206.74	30.13	-42.9	-47.7	10.5	3.62e-03	0	61	0	981467136	57	6224
2026-01-30 00:03:30.97	206.60	29.36	-43.0	-48.2	10.0	7.34e-03	0	61	0	988807168	57	6603
2026-01-30 00:03:35.00	206.46	28.62	-42.6	-47.1	11.1	2.57e-03	0	61	0	996147200	57	5801
2026-01-30 00:03:39.04	206.33	27.90	-42.4	-46.7	11.5	9.77e-04	0	61	0	1004535808	56	5860
2026-01-30 00:03:43.08	206.20	27.19	-42.4	-46.7	11.4	1.16e-03	0	61	0	1011875840	56	5906
2026-01-30 00:03:47.12	206.08	26.50	-42.2	-46.2	11.9	3.13e-04	0	61	0	1019215872	56	5574
2026-01-30 00:03:51.15	205.97	25.83	-41.8	-45.5	12.5	1.53e-04	0	61	0	1026555904	55	5446
2026-01-30 00:03:55.19	205.86	25.18	-42.0	-46.0	11.9	3.78e-04	0	61	0	1034944512	55	5766
2026-01-30 00:03:59.23	205.76	24.54	-42.1	-46.3	11.7	5.34e-04	0	61	0	1042284544	55	5941
2026-01-30 00:04:03.27	205.66	23.91	-42.1	-46.3	11.7	4.58e-04	0	61	0	1049624576	55	5945
2026-01-30 00:04:07.31	205.56	23.30	-42.4	-46.9	11.0	1.71e-03	0	61	0	1056964608	55	6398
2026-01-30 00:04:11.35	205.47	22.70	-42.9	-47.9	10.2	5.89e-03	0	61	0	1064304640	56	6738
2026-01-30 00:04:15.39	205.38	22.12	-42.7	-47.6	10.4	3.77e-03	0	61	0	1072693248	56	6532
2026-01-30 00:04:19.43	205.30	21.55	-42.6	-47.4	10.7	3.77e-03	0	61	0	1080033280	56	6349
2026-01-30 00:04:23.47	205.22	20.99	-42.7	-47.5	10.6	3.67e-03	0	61	0	1087373312	56	6458
2026-01-30 00:04:27.50	205.14	20.45	-42.7	-47.5	10.4	3.15e-03	0	61	0	1094713344	56	6477
2026-01-30 00:04:31.54	205.07	19.92	-42.5	-47.0	11.0	2.69e-03	0	61	0	1103101952	56	6081
2026-01-30 00:04:35.58	205.00	19.39	-42.4	-46.8	11.1	9.80e-04	0	61	0	1110441984	56	5974
2026-01-30 00:04:39.62	204.93	18.88	-42.3	-46.5	11.4	5.13e-04	0	61	0	1117782016	56	5778
2026-01-30 00:04:43.66	204.86	18.38	-42.4	-47.0	11.0	2.07e-03	0	61	0	1125122048	56	6063
2026-01-30 00:04:47.70	204.80	17.89	-42.7	-47.7	10.1	6.68e-03	0	61	0	1132462080	56	6639
2026-01-30 00:04:51.74	204.74	17.41	-42.9	-48.3	9.5	1.43e-02	0	61	0	1140850688	56	7061
2026-01-30 00:04:55.78	204.68	16.94	-43.0	-48.6	9.2	2.27e-02	0	61	0	1148190720	56	7343
2026-01-30 00:04:59.82	204.62	16.47	-43.1	-48.8	9.0	2.51e-02	0	61	0	1155530752	56	7525
2026-01-30 00:05:03.86	204.57	16.02	-43.0	-48.5	9.3	2.07e-02	0	61	0	1162870784	56	7237
2026-01-30 00:05:07.90	204.52	15.57	-42.9	-48.4	9.3	1.79e-02	0	61	0	1171259392	56	7171
2026-01-30 00:05:11.94	204.46	15.13	-43.0	-48.8	8.9	2.75e-02	0	61	0	1178599424	56	7505
2026-01-30 00:05:15.98	204.42	14.70	-43.2	-49.2	8.5	2.72e-02	0	61	0	1185939456	56	7891
2026-01-30 00:05:20.02	204.37	14.28	-43.1	-49.2	8.5	4.34e-02	0	61	0	1193279488	57	7404
2026-01-30 00:05:24.05	204.32	13.86	-43.2	-49.6	8.1	5.26e-02	0	61	0	1200619520	57	7746
2026-01-30 00:05:28.09	204.28	13.45	-43.1	-49.3	8.3	4.30e-02	0	61	0	1209008128	57	7543
2026-01-30 00:05:32.13	204.24	13.05	-43.0	-49.0	8.6	4.53e-02	0	61	0	1216348160	57	7229
2026-01-30 00:05:36.17	204.19	12.65	-43.0	-48.9	8.7	3.91e-02	0	61	0	1223688192	57	7176
2026-01-30 00:05:40.21	204.15	12.26	-42.9	-48.9	8.6	3.41e-02	0	61	0	1231028224	57	7158
2026-01-30 00:05:44.25	204.12	11.88	-43.0	-49.1	8.4	4.09e-02	0	61	0	1239416832	57	7358
2026-01-30 00:05:48.30	204.08	11.50	-43.0	-49.1	8.4	4.26e-02	0	61	0	1246756864	57	7323
2026-01-30 00:05:52.33	204.04	11.13	-43.0	-49.2	8.3	4.42e-02	0	61	0	1254096896	57	7421
2026-01-30 00:05:56.37	204.01	10.76	-42.9	-49.0	8.5	4.02e-02	0	61	0	1261436928	57	7232
2026-01-30 00:06:00.41	203.97	10.40	-42.9	-49.2	8.2	5.07e-02	0	61	0	1268776960	57	7445
2026-01-30 00:06:04.45	203.94	10.05	-42.9	-49.0	8.4	4.59e-02	0	61	0	1277165568	57	7225
2026-01-30 00:06:08.49	203.91	9.70	-42.9	-49.2	8.1	6.20e-02	0	61	0	1284505600	57	7454
2026-01-30 00:06:12.53	203.88	9.35	-42.8	-49.1	8.3	5.35e-02	0	61	0	1291845632	57	7308
2026-01-30 00:06:16.57	203.85	9.01	-42.8	-49.0	8.3	5.54e-02	0	61	0	1299185664	57	7270
2026-01-30 00:06:20.61	203.82	8.67	-42.7	-48.9	8.4	6.19e-02	0	61	0	1307574272	57	7132
2026-01-30 00:06:24.65	203.79	8.34	-42.7	-48.8	8.5	4.26e-02	0	61	0	1314914304	57	7056
2026-01-30 00:06:28.69	203.76	8.01	-43.7	-53.3	5.1	7.76e-02	0	61	0	1322254336	57	11839
2026-01-30 00:06:32.73	203.74	7.69	-44.9	-59.7	3.8	1.49e+00	0	61	104	1322254336	60	20842
2026-01-30 00:06:36.77	203.71	7.37	-45.0	-59.9	3.8	1.49e+00	0	61	104	1322254336	60	21330
2026-01-30 00:06:40.81	203.69	7.05	-45.0	-59.8	3.8	1.49e+00	0	61	104	1322254336	60	21161
2026-01-30 00:06:44.86	203.66	6.74	-44.9	-59.8	3.8	1.49e+00	0	61	104	1322254336	60	21099
2026-01-30 00:06:48.90	203.64	6.43	-44.9	-59.8	3.8	1.49e+00	0	61	104	1322254336	60	21070
2026-01-30 00:06:52.94	203.62	6.13	-44.9	-59.8	3.8	1.49e+00	0	61	104	1322254336	60	21047
2026-01-30 00:06:56.98	203.60	5.83	-44.9	-59.7	3.8	1.49e+00	0	61	104	1322254336	60	20987
2026-01-30 00:07:01.02	203.57	5.53	-44.9	-59.7	3.8	1.49e+00	0	61	104	1322254336	60	21015
2026-01-30 00:07:05.07	203.55	5.24	-44.9	-59.7	3.8	1.49e+00	0	61	104	1322254336	60	20944
2026-01-30 00:07:09.11	203.53	4.95	-44.9	-59.7	3.8	1.49e+00	0	61	104	1322254336	60	20925
2026-01-30 00:07:13.15	203.51	4.66	-44.9	-59.7	3.8	1.49e+00	0	61	104	1322254336	60	20985
2026-01-30 00:07:17.19	203.49	4.37	-44.9	-59.7	3.8	1.49e+00	0	61	104	1322254336	60	20990
2026-01-30 00:07:21.23	203.48	4.09	-44.9	-59.7	3.8	1.49e+00	0	61	104	1322254336	60	20880
2026-01-30 00:07:25.27	203.46	3.81	-44.9	-59.7	3.8	1.49e+00	0	61	104	1322254336	60	20965
2026-01-30 00:07:29.32	203.44	3.54	-44.8	-59.7	3.8	1.49e+00	0	61	104	1322254336	60	20892
2026-01-30 00:07:33.36	203.42	3.26	-44.9	-59.7	3.8	1.49e+00	0	61	104	1322254336	60	20902
2026-01-30 00:07:37.40	203.41	2.99	-44.9	-59.7	3.8	1.49e+00	0	61	104	1322254336	60	20919
2026-01-30 00:07:41.44	203.39	2.73	-44.9	-59.7	3.8	1.49e+00	0	61	104	1322254336	60	20886
2026-01-30 00:07:45.48	203.38	2.46	-44.9	-59.7	3.8	1.49e+00	0	61	104	1322254336	60	20876
2026-01-30 00:07:49.53	203.36	2.20	-44.9	-59.7	3.8	1.49e+00	0	61	104	1322254336	60	20847

#Closed at: 2026-01-30 00:07:53
#Recorded file [1322 MB]: D:/lorett/data/31039_260130_025328.dat