passes_logs/2026/01/29/R2.0S_Moscow/R2.0S_Moscow__20260129_111417_NOAA_21_JPSS-2_rec.log

#Pass ID: 20260129_111417_NOAA 21 (JPSS-2)
#Satellite: NOAA 21 (JPSS-2)
#Configuration: NOAA-21
#almurnet v.1.7.20251203
#Start time: 2026-01-29 11:17:30

#Version: 2.2.20231116
#Station: R2.0S_Moscow
#Location: 37.707566 lon 55.798166 lat
#TLE: 1 54234U 22150A   26027.91149249  .00000141  00000+0  87546-4 0  9993
#TLE: 2 54234  98.7510 328.6558 0000880 202.8718 157.2419 14.19540177166642

#Time	Az	El	Level	Level2	SNR	BER	BlckErr	Temp	State	Recorded	gain1	gain2
2026-01-29 11:17:30.00	218.45	15.09	-45.6	-64.7	3.8	7.46e-01	0	60	0	0	62	33245
2026-01-29 11:17:33.02	218.89	15.33	-45.0	-57.7	3.8	1.49e+00	0	61	104	0	61	15583
2026-01-29 11:17:36.05	219.34	15.57	-44.9	-57.5	3.8	1.49e+00	0	61	104	0	61	15261
2026-01-29 11:17:39.09	219.80	15.81	-44.8	-57.4	3.8	1.49e+00	0	61	104	0	61	15150
2026-01-29 11:17:42.12	220.27	16.05	-44.7	-57.3	3.8	1.49e+00	0	60	104	0	61	14916
2026-01-29 11:17:45.16	220.74	16.30	-44.7	-57.3	3.8	1.49e+00	0	61	104	0	61	14954
2026-01-29 11:17:48.19	221.22	16.54	-44.7	-57.2	3.8	1.49e+00	0	61	104	0	61	14838
2026-01-29 11:17:51.22	221.71	16.78	-44.7	-57.2	3.8	1.49e+00	0	60	104	0	60	15694
2026-01-29 11:17:54.25	222.20	17.03	-44.7	-57.2	3.8	1.49e+00	0	61	104	0	60	15648
2026-01-29 11:17:57.28	222.70	17.27	-44.7	-57.2	3.8	1.49e+00	0	61	104	0	60	15750
2026-01-29 11:18:00.31	223.21	17.52	-44.7	-57.2	3.8	1.49e+00	0	61	104	0	60	15753
2026-01-29 11:18:03.34	223.73	17.76	-44.6	-56.9	3.8	1.49e+00	0	61	104	0	60	15099
2026-01-29 11:18:06.38	224.26	18.01	-44.6	-56.3	3.8	1.49e+00	0	61	104	0	60	14089
2026-01-29 11:18:09.41	224.80	18.25	-44.4	-55.5	3.8	1.49e+00	0	60	104	0	60	12845
2026-01-29 11:18:12.44	225.34	18.50	-44.0	-52.0	4.4	9.50e-01	0	61	104	0	60	8660
2026-01-29 11:18:15.48	225.89	18.74	-42.9	-47.7	8.1	7.56e-02	0	61	0	8388608	57	6205
2026-01-29 11:18:18.51	226.46	18.99	-41.3	-44.6	11.2	2.30e-03	0	61	0	17825792	54	5165
2026-01-29 11:18:21.54	227.03	19.23	-40.2	-42.8	13.0	3.81e-05	0	61	0	27262976	52	4714
2026-01-29 11:18:24.58	227.61	19.48	-44.7	-56.4	3.8	1.83e-05	0	61	104	36700160	60	14256
2026-01-29 11:18:27.61	228.19	19.72	-40.5	-43.2	12.7	2.84e-04	0	61	0	41943040	52	4934
2026-01-29 11:18:30.64	228.79	19.96	-39.9	-42.2	13.7	2.20e-06	0	61	0	50331648	51	4680
2026-01-29 11:18:33.67	229.40	20.21	-39.9	-42.2	13.7	7.60e-06	0	61	0	60817408	51	4689
2026-01-29 11:18:36.70	230.01	20.45	-39.8	-42.1	13.8	5.30e-06	0	61	0	70254592	51	4647
2026-01-29 11:18:39.73	230.64	20.69	-39.7	-41.9	14.1	1.50e-06	0	61	0	79691776	51	4508
2026-01-29 11:18:42.76	231.27	20.93	-39.5	-41.7	14.2	7.00e-07	0	61	0	89128960	51	4414
2026-01-29 11:18:45.79	231.92	21.17	-39.2	-41.3	14.7	0.00e+00	0	61	0	98566144	50	4464
2026-01-29 11:18:48.82	232.57	21.40	-39.1	-41.1	14.8	0.00e+00	0	61	0	108003328	50	4384
2026-01-29 11:18:51.85	233.24	21.64	-39.0	-41.0	14.9	0.00e+00	0	61	0	117440512	50	4334
2026-01-29 11:18:54.88	233.91	21.87	-38.9	-40.9	15.0	0.00e+00	0	61	0	126877696	49	4514
2026-01-29 11:18:57.91	234.59	22.10	-38.9	-40.9	15.1	0.00e+00	0	61	0	136314880	49	4498
2026-01-29 11:19:00.94	235.29	22.33	-38.9	-40.9	15.1	0.00e+00	0	61	0	145752064	49	4501
2026-01-29 11:19:03.97	235.99	22.56	-39.0	-40.9	15.0	0.00e+00	0	61	0	155189248	49	4543
2026-01-29 11:19:07.00	236.70	22.78	-39.1	-41.0	14.9	0.00e+00	0	61	0	164626432	49	4591
2026-01-29 11:19:10.03	237.43	23.00	-39.2	-41.2	14.7	0.00e+00	0	60	0	174063616	49	4680
2026-01-29 11:19:13.06	238.16	23.22	-39.2	-41.2	14.8	0.00e+00	0	61	0	183500800	49	4669
2026-01-29 11:19:16.09	238.91	23.44	-39.2	-41.3	14.7	0.00e+00	0	61	0	192937984	49	4707
2026-01-29 11:19:19.13	239.66	23.65	-39.3	-41.3	14.6	0.00e+00	0	61	0	202375168	49	4750
2026-01-29 11:19:22.16	240.43	23.86	-39.3	-41.4	14.6	0.00e+00	0	61	0	211812352	49	4780
2026-01-29 11:19:25.19	241.20	24.07	-39.3	-41.3	14.6	0.00e+00	0	61	0	221249536	49	4758
2026-01-29 11:19:28.22	241.98	24.27	-39.5	-41.6	14.4	1.50e-06	0	61	0	230686720	49	4885
2026-01-29 11:19:31.25	242.78	24.46	-39.7	-41.9	14.1	1.50e-06	0	61	0	240123904	49	5068
2026-01-29 11:19:34.28	243.58	24.66	-39.7	-41.9	14.1	1.50e-06	0	61	0	249561088	50	4803
2026-01-29 11:19:37.31	244.39	24.85	-39.5	-41.7	14.3	7.00e-07	0	61	0	258998272	50	4662
2026-01-29 11:19:40.33	245.21	25.03	-39.5	-41.7	14.3	0.00e+00	0	61	0	268435456	50	4655
2026-01-29 11:19:43.36	246.04	25.21	-39.6	-41.7	14.3	7.00e-07	0	61	0	277872640	50	4689
2026-01-29 11:19:46.39	246.88	25.38	-39.5	-41.7	14.3	2.20e-06	0	61	0	287309824	50	4660
2026-01-29 11:19:49.42	247.73	25.55	-39.6	-41.8	14.2	2.20e-06	0	61	0	296747008	50	4731
2026-01-29 11:19:52.45	248.59	25.71	-39.6	-41.8	14.1	0.00e+00	0	61	0	306184192	50	4729
2026-01-29 11:19:55.49	249.46	25.87	-39.5	-41.6	14.3	0.00e+00	0	61	0	315621376	50	4631
2026-01-29 11:19:58.52	250.33	26.02	-39.6	-41.8	14.2	0.00e+00	0	61	0	325058560	50	4728
2026-01-29 11:20:01.55	251.21	26.17	-39.5	-41.7	14.4	1.50e-06	0	61	0	334495744	50	4652
2026-01-29 11:20:04.58	252.11	26.31	-39.4	-41.5	14.5	1.50e-06	0	61	0	343932928	50	4583
2026-01-29 11:20:07.61	253.00	26.44	-39.7	-41.9	14.1	7.00e-07	0	61	0	354418688	50	4783
2026-01-29 11:20:10.64	253.91	26.56	-39.6	-41.7	14.3	7.00e-07	0	61	0	363855872	50	4683
2026-01-29 11:20:13.67	254.82	26.68	-39.5	-41.6	14.4	0.00e+00	0	61	0	373293056	50	4650
2026-01-29 11:20:16.70	255.74	26.79	-39.6	-41.7	14.3	7.00e-07	0	61	0	382730240	50	4686
2026-01-29 11:20:19.73	256.66	26.89	-39.6	-41.8	14.2	2.20e-06	0	61	0	392167424	50	4728
2026-01-29 11:20:22.76	257.59	26.99	-39.5	-41.6	14.4	1.50e-06	0	61	0	401604608	50	4601
2026-01-29 11:20:25.79	258.53	27.08	-39.4	-41.4	14.5	1.50e-06	0	61	0	411041792	50	4544
2026-01-29 11:20:28.82	259.47	27.16	-39.4	-41.5	14.5	0.00e+00	0	61	0	420478976	50	4565
2026-01-29 11:20:31.85	260.41	27.23	-39.3	-41.4	14.6	0.00e+00	0	61	0	429916160	50	4516
2026-01-29 11:20:34.88	261.36	27.30	-39.4	-41.5	14.5	0.00e+00	0	61	0	439353344	50	4561
2026-01-29 11:20:37.91	262.31	27.35	-39.3	-41.3	14.6	7.00e-07	0	61	0	448790528	50	4486
2026-01-29 11:20:40.94	263.26	27.40	-39.5	-41.6	14.4	0.00e+00	0	61	0	458227712	50	4641
2026-01-29 11:20:43.97	264.22	27.44	-39.5	-41.6	14.4	1.50e-06	0	61	0	467664896	50	4626
2026-01-29 11:20:47.01	265.18	27.47	-39.6	-41.7	14.2	2.20e-06	0	61	0	477102080	50	4694
2026-01-29 11:20:50.04	266.14	27.49	-39.5	-41.6	14.4	7.00e-07	0	61	0	486539264	50	4637
2026-01-29 11:20:53.07	267.10	27.51	-39.4	-41.5	14.4	0.00e+00	0	61	0	495976448	50	4597
2026-01-29 11:20:56.10	268.06	27.51	-39.6	-41.8	14.2	7.00e-07	0	61	0	505413632	50	4711
2026-01-29 11:20:59.13	269.03	27.51	-39.5	-41.6	14.4	7.00e-07	0	61	0	514850816	50	4618
2026-01-29 11:21:02.16	269.99	27.50	-39.6	-41.8	14.2	2.20e-06	0	61	0	524288000	50	4731
2026-01-29 11:21:05.19	270.95	27.48	-39.5	-41.6	14.3	0.00e+00	0	61	0	533725184	50	4635
2026-01-29 11:21:08.21	271.90	27.45	-39.3	-41.4	14.6	0.00e+00	0	61	0	543162368	50	4528
2026-01-29 11:21:11.25	272.86	27.41	-39.2	-41.2	14.8	0.00e+00	0	61	0	552599552	50	4403
2026-01-29 11:21:14.27	273.81	27.37	-39.3	-41.4	14.6	0.00e+00	0	61	0	562036736	50	4495
2026-01-29 11:21:17.30	274.76	27.31	-39.4	-41.4	14.5	0.00e+00	0	61	0	571473920	50	4544
2026-01-29 11:21:20.33	275.71	27.25	-39.2	-41.2	14.8	0.00e+00	0	61	0	580911104	50	4411
2026-01-29 11:21:23.36	276.66	27.18	-39.4	-41.4	14.5	1.50e-06	0	61	0	590348288	50	4543
2026-01-29 11:21:26.39	277.60	27.10	-39.3	-41.3	14.7	0.00e+00	0	61	0	599785472	50	4475
2026-01-29 11:21:29.42	278.53	27.02	-39.2	-41.3	14.7	7.00e-07	0	61	0	609222656	50	4450
2026-01-29 11:21:32.45	279.46	26.92	-39.2	-41.3	14.7	0.00e+00	0	61	0	618659840	50	4449
2026-01-29 11:21:35.48	280.38	26.82	-39.3	-41.3	14.6	0.00e+00	0	61	0	628097024	50	4487
2026-01-29 11:21:38.52	281.30	26.71	-39.4	-41.5	14.5	7.00e-07	0	61	0	637534208	50	4551
2026-01-29 11:21:41.55	282.21	26.60	-39.3	-41.4	14.5	7.00e-07	0	61	0	648019968	50	4519
2026-01-29 11:21:44.58	283.12	26.48	-39.3	-41.3	14.6	0.00e+00	0	61	0	657457152	50	4482
2026-01-29 11:21:47.61	284.02	26.35	-39.3	-41.4	14.5	7.00e-07	0	61	0	666894336	50	4531
2026-01-29 11:21:50.64	284.91	26.21	-39.3	-41.4	14.5	0.00e+00	0	61	0	676331520	50	4507
2026-01-29 11:21:53.67	285.79	26.07	-39.4	-41.5	14.4	7.00e-07	0	61	0	685768704	50	4564
2026-01-29 11:21:56.70	286.66	25.92	-39.6	-41.8	14.1	3.00e-06	0	61	0	695205888	50	4737
2026-01-29 11:21:59.73	287.53	25.76	-39.6	-41.9	14.0	1.50e-06	0	61	0	704643072	50	4772
2026-01-29 11:22:02.76	288.39	25.60	-39.7	-42.0	13.9	6.10e-06	0	61	0	714080256	50	4825
2026-01-29 11:22:05.79	289.24	25.44	-39.6	-41.8	14.1	2.20e-06	0	61	0	723517440	50	4721
2026-01-29 11:22:08.82	290.08	25.27	-39.5	-41.6	14.3	2.20e-06	0	61	0	732954624	50	4645
2026-01-29 11:22:11.85	290.91	25.09	-39.4	-41.5	14.3	0.00e+00	0	61	0	742391808	50	4595
2026-01-29 11:22:14.89	291.73	24.91	-39.3	-41.4	14.5	2.20e-06	0	61	0	751828992	50	4537
2026-01-29 11:22:17.92	292.54	24.72	-39.4	-41.5	14.4	2.20e-06	0	61	0	761266176	50	4551
2026-01-29 11:22:20.94	293.34	24.53	-39.4	-41.5	14.4	0.00e+00	0	61	0	770703360	50	4564
2026-01-29 11:22:23.97	294.14	24.34	-39.2	-41.3	14.6	0.00e+00	0	61	0	780140544	50	4443
2026-01-29 11:22:27.00	294.92	24.14	-39.1	-41.2	14.7	0.00e+00	0	61	0	789577728	50	4405
2026-01-29 11:22:30.04	295.70	23.93	-39.1	-41.1	14.8	0.00e+00	0	61	0	799014912	50	4343
2026-01-29 11:22:33.07	296.46	23.73	-39.2	-41.2	14.6	0.00e+00	0	61	0	808452096	50	4437
2026-01-29 11:22:36.10	297.21	23.52	-39.4	-41.5	14.3	0.00e+00	0	61	0	817889280	50	4560
2026-01-29 11:22:39.13	297.96	23.30	-39.5	-41.6	14.2	2.20e-06	0	61	0	827326464	50	4635
2026-01-29 11:22:42.17	298.69	23.09	-39.4	-41.5	14.3	0.00e+00	0	61	0	836763648	50	4591
2026-01-29 11:22:45.19	299.41	22.87	-39.4	-41.5	14.3	2.20e-06	0	61	0	846200832	50	4579
2026-01-29 11:22:48.22	300.13	22.65	-39.5	-41.7	14.1	1.50e-06	0	61	0	855638016	50	4670
2026-01-29 11:22:51.25	300.83	22.42	-39.5	-41.7	14.1	1.50e-06	0	61	0	865075200	50	4670
2026-01-29 11:22:54.28	301.53	22.19	-39.5	-41.7	14.1	3.00e-06	0	61	0	874512384	50	4696
2026-01-29 11:22:57.32	302.21	21.97	-39.5	-41.7	14.1	3.00e-06	0	61	0	883949568	50	4700
2026-01-29 11:23:00.35	302.89	21.73	-39.4	-41.5	14.3	0.00e+00	0	61	0	893386752	50	4595
2026-01-29 11:23:03.38	303.55	21.50	-39.5	-41.7	14.1	2.20e-06	0	61	0	902823936	50	4663
2026-01-29 11:23:06.41	304.20	21.27	-39.4	-41.6	14.2	0.00e+00	0	61	0	912261120	50	4632
2026-01-29 11:23:09.44	304.85	21.03	-39.4	-41.6	14.2	7.00e-07	0	61	0	922746880	50	4631
2026-01-29 11:23:12.47	305.48	20.80	-39.4	-41.6	14.2	1.50e-06	0	61	0	931135488	50	4609
2026-01-29 11:23:15.50	306.11	20.56	-39.5	-41.7	14.0	3.00e-06	0	61	0	941621248	50	4694
2026-01-29 11:23:18.53	306.72	20.32	-39.6	-41.8	14.0	7.00e-07	0	61	0	950009856	50	4726
2026-01-29 11:23:21.56	307.33	20.08	-39.3	-41.4	14.3	1.50e-06	0	61	0	960495616	50	4539
2026-01-29 11:23:24.60	307.93	19.84	-39.3	-41.5	14.3	1.50e-06	0	61	0	969932800	50	4546
2026-01-29 11:23:27.63	308.52	19.60	-39.4	-41.6	14.1	7.00e-07	0	61	0	979369984	50	4640
2026-01-29 11:23:30.66	309.10	19.35	-39.5	-41.7	14.0	3.80e-06	0	61	0	988807168	50	4671
2026-01-29 11:23:33.69	309.67	19.11	-39.5	-41.7	14.0	7.00e-07	0	61	0	998244352	50	4682
2026-01-29 11:23:36.71	310.23	18.87	-39.6	-41.8	13.9	6.80e-06	0	61	0	1007681536	50	4737
2026-01-29 11:23:39.75	310.78	18.63	-39.6	-41.8	13.9	2.20e-06	0	61	0	1017118720	50	4745
2026-01-29 11:23:42.78	311.33	18.38	-39.6	-41.9	13.8	2.20e-06	0	61	0	1026555904	50	4776
2026-01-29 11:23:45.81	311.86	18.14	-39.8	-42.1	13.6	1.06e-05	0	61	0	1035993088	50	4895
2026-01-29 11:23:48.84	312.39	17.90	-39.8	-42.1	13.5	8.30e-06	0	61	0	1045430272	50	4926
2026-01-29 11:23:51.88	312.91	17.65	-39.7	-42.0	13.6	5.30e-06	0	61	0	1054867456	50	4865
2026-01-29 11:23:54.91	313.43	17.41	-39.9	-42.3	13.4	8.30e-06	0	61	0	1064304640	50	5000
2026-01-29 11:23:57.94	313.93	17.17	-39.8	-42.2	13.4	1.75e-05	0	61	0	1073741824	50	4957
2026-01-29 11:24:00.97	314.42	16.93	-39.9	-42.3	13.3	1.75e-05	0	61	0	1083179008	50	5003
2026-01-29 11:24:04.00	314.91	16.69	-39.9	-42.4	13.2	2.51e-05	0	61	0	1092616192	50	5046
2026-01-29 11:24:07.03	315.39	16.45	-39.8	-42.2	13.4	1.90e-05	0	61	0	1102053376	50	4968
2026-01-29 11:24:10.07	315.87	16.20	-40.0	-42.4	13.2	2.89e-05	0	61	0	1111490560	50	5096
2026-01-29 11:24:13.10	316.33	15.96	-40.0	-42.5	13.1	2.21e-05	0	61	0	1120927744	50	5124
2026-01-29 11:24:16.13	316.79	15.73	-39.9	-42.4	13.2	1.29e-05	0	61	0	1130364928	50	5056
2026-01-29 11:24:19.16	317.24	15.49	-40.0	-42.6	13.0	3.89e-05	0	61	0	1139802112	50	5160
2026-01-29 11:24:22.19	317.69	15.25	-40.2	-42.8	12.8	6.56e-05	0	61	0	1149239296	50	5310
2026-01-29 11:24:25.22	318.13	15.01	-40.2	-42.9	12.6	6.94e-05	0	61	0	1158676480	51	5066
2026-01-29 11:24:28.25	318.56	14.78	-40.2	-42.8	12.7	7.47e-05	0	61	0	1168113664	51	5010
2026-01-29 11:24:31.28	318.98	14.54	-40.2	-42.8	12.7	7.55e-05	0	61	0	1177550848	51	5036
2026-01-29 11:24:34.31	319.40	14.31	-40.1	-42.7	12.8	5.49e-05	0	61	0	1186988032	51	4981
2026-01-29 11:24:37.34	319.81	14.07	-40.0	-42.6	13.0	5.18e-05	0	61	0	1196425216	51	4874
2026-01-29 11:24:40.37	320.22	13.84	-40.1	-42.7	12.8	5.41e-05	0	61	0	1205862400	51	4970
2026-01-29 11:24:43.40	320.62	13.61	-40.3	-43.0	12.4	1.35e-04	0	61	0	1216348160	51	5154
2026-01-29 11:24:46.43	321.01	13.38	-40.4	-43.3	12.2	2.19e-04	0	61	0	1224736768	51	5281
2026-01-29 11:24:49.46	321.40	13.15	-40.4	-43.2	12.3	2.02e-04	0	61	0	1235222528	51	5248
2026-01-29 11:24:52.49	321.78	12.92	-40.3	-43.1	12.3	1.64e-04	0	61	0	1243611136	51	5197
2026-01-29 11:24:55.52	322.16	12.69	-40.4	-43.2	12.3	2.20e-04	0	61	0	1254096896	51	5231
2026-01-29 11:24:58.55	322.53	12.46	-40.3	-43.1	12.3	1.87e-04	0	61	0	1263534080	51	5192
2026-01-29 11:25:01.58	322.89	12.24	-40.3	-43.1	12.3	1.82e-04	0	61	0	1272971264	51	5212
2026-01-29 11:25:04.61	323.25	12.01	-40.5	-43.4	12.0	3.23e-04	0	61	0	1282408448	51	5357
2026-01-29 11:25:07.64	323.61	11.79	-40.5	-43.5	11.9	3.95e-04	0	61	0	1291845632	51	5423
2026-01-29 11:25:10.67	323.96	11.57	-40.5	-43.4	11.9	4.05e-04	0	61	0	1301282816	51	5392
2026-01-29 11:25:13.70	324.30	11.35	-40.5	-43.4	11.9	3.51e-04	0	61	0	1310720000	51	5378
2026-01-29 11:25:16.74	324.64	11.13	-40.5	-43.4	11.9	4.02e-04	0	61	0	1320157184	51	5390
2026-01-29 11:25:19.77	324.98	10.91	-40.5	-43.4	11.9	3.82e-04	0	61	0	1329594368	51	5392
2026-01-29 11:25:22.81	325.31	10.69	-40.4	-43.3	12.0	4.02e-04	0	61	0	1339031552	51	5328
2026-01-29 11:25:25.84	325.63	10.47	-40.4	-43.3	12.0	3.23e-04	0	61	0	1348468736	51	5311
2026-01-29 11:25:28.87	325.95	10.26	-40.5	-43.5	11.8	4.75e-04	0	61	0	1357905920	51	5420
2026-01-29 11:25:31.90	326.27	10.04	-40.6	-43.6	11.6	6.27e-04	0	61	0	1367343104	51	5487
2026-01-29 11:25:34.93	326.58	9.83	-40.7	-43.8	11.4	1.05e-03	0	61	0	1376780288	51	5624
2026-01-29 11:25:37.96	326.89	9.62	-40.7	-43.8	11.4	9.21e-04	0	61	0	1386217472	51	5616
2026-01-29 11:25:40.99	327.19	9.41	-40.6	-43.7	11.5	8.65e-04	0	61	0	1395654656	51	5563
2026-01-29 11:25:44.02	327.49	9.20	-40.6	-43.8	11.3	1.00e-03	0	61	0	1405091840	51	5603
2026-01-29 11:25:47.05	327.79	8.99	-40.5	-43.7	11.3	1.09e-03	0	61	0	1414529024	52	5241
2026-01-29 11:25:50.08	328.08	8.78	-40.6	-43.9	11.1	1.59e-03	0	61	0	1423966208	52	5368
2026-01-29 11:25:53.11	328.37	8.57	-40.7	-44.1	10.9	2.17e-03	0	61	0	1433403392	52	5470
2026-01-29 11:25:56.14	328.65	8.37	-40.7	-44.1	10.9	2.29e-03	0	61	0	1442840576	52	5471
2026-01-29 11:25:59.17	328.93	8.16	-40.7	-44.1	10.9	2.35e-03	0	61	0	1452277760	52	5467
2026-01-29 11:26:02.20	329.20	7.96	-44.2	-56.2	3.8	1.47e+00	0	61	104	1460666368	58	15630
2026-01-29 11:26:05.23	329.48	7.76	-44.8	-57.3	3.8	1.49e+00	0	61	104	1460666368	60	15940
2026-01-29 11:26:08.26	329.75	7.56	-45.0	-57.6	3.8	1.49e+00	0	61	104	1460666368	60	16490
2026-01-29 11:26:11.29	330.01	7.36	-45.0	-57.6	3.8	1.49e+00	0	61	104	1460666368	60	16445
2026-01-29 11:26:14.33	330.27	7.16	-44.9	-57.6	3.8	1.49e+00	0	61	104	1460666368	60	16378
2026-01-29 11:26:17.36	330.53	6.96	-44.9	-57.5	3.8	1.49e+00	0	61	104	1460666368	60	16262
2026-01-29 11:26:20.39	330.79	6.76	-44.8	-57.5	3.8	1.49e+00	0	61	104	1460666368	60	16260
2026-01-29 11:26:23.42	331.04	6.57	-44.8	-57.5	3.8	1.49e+00	0	61	104	1460666368	60	16221
2026-01-29 11:26:26.45	331.29	6.37	-44.8	-57.5	3.8	1.49e+00	0	61	104	1460666368	60	16155
2026-01-29 11:26:29.48	331.53	6.18	-44.8	-57.4	3.8	1.49e+00	0	61	104	1460666368	60	16111
2026-01-29 11:26:32.51	331.78	5.99	-44.8	-57.5	3.8	1.49e+00	0	61	104	1460666368	60	16131
2026-01-29 11:26:35.54	332.02	5.79	-44.4	-57.4	3.8	1.49e+00	0	61	104	1460666368	60	16109
2026-01-29 11:26:38.57	332.25	5.60	-44.0	-57.3	3.8	1.49e+00	0	61	104	1460666368	59	16719
2026-01-29 11:26:41.60	332.49	5.41	-44.8	-57.4	3.8	1.49e+00	0	61	104	1460666368	60	16116
2026-01-29 11:26:44.63	332.72	5.23	-44.8	-57.5	3.8	1.49e+00	0	61	104	1460666368	60	16157
2026-01-29 11:26:47.66	332.95	5.04	-44.7	-57.4	3.8	1.49e+00	0	61	104	1460666368	60	16121
2026-01-29 11:26:50.69	333.17	4.85	-44.7	-57.5	3.8	1.49e+00	0	61	104	1460666368	60	16139
2026-01-29 11:26:53.73	333.40	4.66	-44.8	-57.4	3.8	1.49e+00	0	61	104	1460666368	60	16108
2026-01-29 11:26:56.76	333.62	4.48	-44.8	-57.4	3.8	1.49e+00	0	61	104	1460666368	60	16041
2026-01-29 11:26:59.79	333.83	4.30	-44.8	-57.5	3.8	1.49e+00	0	61	104	1460666368	60	16148
2026-01-29 11:27:02.82	334.05	4.11	-44.8	-57.5	3.8	1.49e+00	0	61	104	1460666368	60	16160
2026-01-29 11:27:05.85	334.26	3.93	-44.4	-57.4	3.8	1.49e+00	0	61	104	1460666368	60	16073
2026-01-29 11:27:08.88	334.47	3.75	-44.8	-57.4	3.8	1.49e+00	0	61	104	1460666368	60	16081
2026-01-29 11:27:11.91	334.68	3.57	-44.7	-57.4	3.8	1.49e+00	0	61	104	1460666368	60	16040
2026-01-29 11:27:14.95	334.89	3.39	-44.8	-57.4	3.8	1.49e+00	0	61	104	1460666368	60	16086
2026-01-29 11:27:17.98	335.09	3.21	-44.8	-57.4	3.8	1.49e+00	0	61	104	1460666368	60	16090
2026-01-29 11:27:21.01	335.29	3.04	-44.6	-57.4	3.8	1.49e+00	0	61	104	1460666368	60	16054
2026-01-29 11:27:24.04	335.49	2.86	-44.7	-57.4	3.8	1.49e+00	0	61	104	1460666368	60	16076
2026-01-29 11:27:27.07	335.69	2.68	-44.7	-57.4	3.8	1.49e+00	0	61	104	1460666368	60	16095
2026-01-29 11:27:30.10	335.88	2.51	-44.8	-57.4	3.8	1.49e+00	0	61	104	1460666368	60	16078
2026-01-29 11:27:33.13	336.07	2.33	-44.4	-57.4	3.8	1.49e+00	0	61	104	1460666368	60	16076
2026-01-29 11:27:36.17	336.26	2.16	-44.8	-57.4	3.8	1.49e+00	0	61	104	1460666368	60	16105
2026-01-29 11:27:39.20	336.45	1.99	-44.8	-57.4	3.8	1.49e+00	0	61	104	1460666368	60	16049

#Closed at: 2026-01-29 11:27:40
#Recorded file [1460 MB]: D:/lorett/data/31039_260129_141729.dat