passes_logs/2026/01/29/R2.0S_Moscow/R2.0S_Moscow__20260129_160415_FENGYUN_3E_rec.log

#Pass ID: 20260129_160415_FENGYUN 3E
#Satellite: FENGYUN 3E
#Configuration: FENGYUN 3E
#almurnet v.1.7.20251203
#Start time: 2026-01-29 16:04:16

#Version: 2.2.20231116
#Station: R2.0S_Moscow
#Location: 37.707566 lon 55.798166 lat
#TLE: 1 49008U 21062A   26028.95833242 -.00000015  00000+0  13843-4 0  9995
#TLE: 2 49008  98.7500  33.9242 0002547 112.2873 247.8573 14.19887818236829

#Time	Az	El	Level	Level2	SNR	BER	BlckErr	Temp	State	Recorded	gain1	gain2
2026-01-29 16:04:16.39	218.43	2.07	-44.4	-55.1	3.8	8.46e-01	0	52	0	0	59	12352
2026-01-29 16:04:19.41	218.69	2.22	-44.4	-55.1	3.8	8.46e-01	0	52	104	0	59	12365
2026-01-29 16:04:22.45	218.96	2.38	-44.4	-55.1	3.8	8.45e-01	0	52	104	0	59	12334
2026-01-29 16:04:25.48	219.22	2.53	-44.4	-55.2	3.8	8.46e-01	0	53	104	0	59	12408
2026-01-29 16:04:28.51	219.49	2.68	-44.4	-55.1	3.8	8.46e-01	0	53	104	0	59	12371
2026-01-29 16:04:31.54	219.76	2.84	-44.4	-55.2	3.8	8.45e-01	0	53	104	0	59	12384
2026-01-29 16:04:34.58	220.04	2.99	-44.4	-55.1	3.8	8.46e-01	0	53	104	0	59	12325
2026-01-29 16:04:37.61	220.32	3.15	-44.4	-55.1	3.8	8.45e-01	0	53	104	0	59	12358
2026-01-29 16:04:40.64	220.60	3.30	-44.4	-55.1	3.8	8.46e-01	0	54	104	0	59	12360
2026-01-29 16:04:43.67	220.88	3.46	-44.4	-55.1	3.8	8.46e-01	0	54	104	0	59	12363
2026-01-29 16:04:46.70	221.17	3.62	-44.4	-55.2	3.8	8.46e-01	0	54	104	0	59	12383
2026-01-29 16:04:49.73	221.46	3.77	-44.4	-55.1	3.8	8.47e-01	0	54	104	0	59	12356
2026-01-29 16:04:52.76	221.75	3.93	-44.4	-55.1	3.8	8.47e-01	0	55	104	0	59	12368
2026-01-29 16:04:55.79	222.05	4.09	-44.4	-55.1	3.8	8.47e-01	0	55	104	0	59	12369
2026-01-29 16:04:58.83	222.35	4.24	-44.4	-55.1	3.8	8.47e-01	0	55	104	0	59	12357
2026-01-29 16:05:01.86	222.65	4.40	-44.4	-55.1	3.8	8.47e-01	0	55	104	0	59	12325
2026-01-29 16:05:04.89	222.95	4.56	-44.4	-55.1	3.8	8.46e-01	0	55	104	0	59	12321
2026-01-29 16:05:07.92	223.26	4.72	-44.4	-55.1	3.8	8.46e-01	0	55	104	0	59	12349
2026-01-29 16:05:10.95	223.57	4.88	-44.4	-55.1	3.8	8.46e-01	0	56	104	0	59	12336
2026-01-29 16:05:13.97	223.89	5.03	-44.4	-55.1	3.8	8.46e-01	0	56	104	0	59	12343
2026-01-29 16:05:17.01	224.21	5.19	-44.4	-55.1	3.8	8.46e-01	0	56	104	0	59	12367
2026-01-29 16:05:20.04	224.53	5.35	-44.4	-55.1	3.8	8.45e-01	0	56	104	0	59	12324
2026-01-29 16:05:23.07	224.85	5.51	-44.4	-55.1	3.8	8.46e-01	0	56	104	0	59	12329
2026-01-29 16:05:26.10	225.18	5.67	-44.4	-55.1	3.8	8.45e-01	0	57	104	0	59	12351
2026-01-29 16:05:29.13	225.51	5.83	-44.4	-55.1	3.8	8.46e-01	0	57	104	0	59	12325
2026-01-29 16:05:32.16	225.85	5.99	-44.4	-55.0	3.8	8.46e-01	0	57	104	0	59	12214
2026-01-29 16:05:35.19	226.19	6.15	-44.4	-55.1	3.8	8.46e-01	0	57	104	0	59	12366
2026-01-29 16:05:38.22	226.53	6.31	-44.4	-55.1	3.8	8.46e-01	0	57	104	0	59	12312
2026-01-29 16:05:41.25	226.88	6.47	-44.4	-54.6	3.8	8.46e-01	0	57	104	0	59	11567
2026-01-29 16:05:44.28	227.23	6.63	-44.2	-53.8	3.8	8.47e-01	0	57	104	0	59	10574
2026-01-29 16:05:47.32	227.58	6.79	-44.2	-53.1	3.8	8.45e-01	0	57	104	0	59	9755
2026-01-29 16:05:50.35	227.94	6.95	-44.0	-52.4	4.0	8.42e-01	0	57	104	0	59	9022
2026-01-29 16:05:53.38	228.30	7.11	-43.7	-50.7	4.5	8.26e-01	0	57	0	0	58	7810
2026-01-29 16:05:56.41	228.66	7.28	-43.0	-48.1	6.0	4.34e-01	0	57	0	2097152	56	6528
2026-01-29 16:05:59.44	229.03	7.44	-42.0	-45.8	7.8	8.31e-02	0	57	0	24117248	54	5643
2026-01-29 16:06:02.48	229.41	7.60	-41.4	-44.7	9.0	2.50e-02	0	58	0	46137344	53	5266
2026-01-29 16:06:05.51	229.78	7.76	-41.1	-44.3	9.4	1.60e-02	0	58	0	68157440	53	5001
2026-01-29 16:06:08.54	230.17	7.92	-40.7	-43.7	10.1	7.46e-03	0	58	0	90177536	52	4941
2026-01-29 16:06:11.58	230.55	8.08	-41.0	-44.0	9.9	5.54e-03	0	58	0	112197632	52	5117
2026-01-29 16:06:14.60	230.94	8.24	-42.5	-47.3	6.4	4.65e-01	0	58	0	133169152	55	6325
2026-01-29 16:06:17.63	231.33	8.40	-40.8	-43.7	10.2	5.50e-03	0	58	0	154140672	52	4949
2026-01-29 16:06:20.67	231.73	8.56	-40.9	-43.9	10.0	8.11e-03	0	58	0	176160768	52	5049
2026-01-29 16:06:23.70	232.13	8.72	-40.8	-43.7	10.2	5.82e-03	0	58	0	198180864	52	4940
2026-01-29 16:06:26.73	232.54	8.88	-40.8	-43.6	10.3	4.94e-03	0	58	0	220200960	52	4918
2026-01-29 16:06:29.76	232.95	9.04	-40.6	-43.4	10.6	3.29e-03	0	59	0	242221056	52	4765
2026-01-29 16:06:32.79	233.37	9.20	-40.6	-43.3	10.6	2.79e-03	0	58	0	264241152	52	4743
2026-01-29 16:06:35.82	233.78	9.36	-40.6	-43.3	10.7	2.52e-03	0	59	0	286261248	51	5035
2026-01-29 16:06:38.85	234.21	9.52	-40.7	-43.5	10.5	3.44e-03	0	58	0	308281344	51	5128
2026-01-29 16:06:41.88	234.64	9.68	-40.7	-43.4	10.6	2.73e-03	0	59	0	329252864	51	5085
2026-01-29 16:06:44.91	235.07	9.83	-40.5	-43.1	10.9	1.70e-03	0	59	0	351272960	51	4908
2026-01-29 16:06:47.94	235.51	9.99	-40.5	-43.1	11.0	1.68e-03	0	59	0	373293056	51	4878
2026-01-29 16:06:50.97	235.95	10.15	-40.5	-43.1	11.0	1.83e-03	0	59	0	395313152	51	4911
2026-01-29 16:06:54.00	236.39	10.31	-40.5	-43.1	11.0	1.49e-03	0	59	0	417333248	51	4912
2026-01-29 16:06:57.03	236.85	10.46	-40.3	-42.9	11.3	1.39e-03	0	59	0	439353344	51	4766
2026-01-29 16:07:00.07	237.30	10.62	-40.4	-43.0	11.2	1.33e-03	0	59	0	461373440	51	4842
2026-01-29 16:07:03.10	237.76	10.77	-40.4	-43.0	11.1	1.40e-03	0	59	0	483393536	51	4863
2026-01-29 16:07:06.13	238.23	10.93	-40.4	-42.9	11.2	1.09e-03	0	59	0	504365056	51	4810
2026-01-29 16:07:09.16	238.70	11.08	-40.3	-42.8	11.3	1.11e-03	0	59	0	526385152	51	4754
2026-01-29 16:07:12.19	239.17	11.23	-40.2	-42.6	11.6	5.31e-04	0	59	0	548405248	51	4635
2026-01-29 16:07:15.23	239.65	11.38	-40.2	-42.6	11.5	6.20e-04	0	59	0	570425344	51	4648
2026-01-29 16:07:18.26	240.14	11.53	-40.3	-42.7	11.5	7.99e-04	0	59	0	592445440	51	4692
2026-01-29 16:07:21.29	240.63	11.68	-40.3	-42.8	11.4	9.19e-04	0	59	0	614465536	51	4707
2026-01-29 16:07:24.32	241.12	11.83	-40.2	-42.6	11.7	5.98e-04	0	60	0	636485632	51	4601
2026-01-29 16:07:27.35	241.62	11.98	-40.1	-42.5	11.8	4.43e-04	0	60	0	658505728	51	4564
2026-01-29 16:07:30.38	242.12	12.13	-40.2	-42.6	11.7	4.54e-04	0	60	0	679477248	51	4624
2026-01-29 16:07:33.41	242.63	12.27	-40.2	-42.6	11.7	5.23e-04	0	60	0	701497344	51	4607
2026-01-29 16:07:36.44	243.15	12.42	-40.1	-42.5	11.8	5.83e-04	0	60	0	723517440	51	4559
2026-01-29 16:07:39.48	243.67	12.56	-40.0	-42.3	12.0	3.03e-04	0	60	0	745537536	51	4461
2026-01-29 16:07:42.51	244.19	12.70	-39.9	-42.2	12.1	2.55e-04	0	60	0	767557632	50	4677
2026-01-29 16:07:45.54	244.72	12.84	-40.0	-42.4	12.0	3.13e-04	0	60	0	789577728	50	4777
2026-01-29 16:07:48.57	245.25	12.98	-39.9	-42.1	12.2	1.98e-04	0	60	0	810549248	50	4650
2026-01-29 16:07:51.60	245.79	13.12	-39.9	-42.2	12.2	2.22e-04	0	60	0	832569344	50	4657
2026-01-29 16:07:54.63	246.33	13.26	-39.9	-42.2	12.1	2.51e-04	0	60	0	854589440	50	4695
2026-01-29 16:07:57.66	246.88	13.39	-39.9	-42.2	12.2	2.41e-04	0	60	0	876609536	50	4660
2026-01-29 16:08:00.69	247.43	13.52	-39.8	-42.0	12.4	9.49e-05	0	60	0	898629632	50	4582
2026-01-29 16:08:03.73	247.99	13.66	-39.8	-42.1	12.3	1.51e-04	0	60	0	920649728	50	4600
2026-01-29 16:08:06.76	248.55	13.79	-39.9	-42.1	12.3	1.50e-04	0	60	0	942669824	50	4645
2026-01-29 16:08:09.79	249.12	13.91	-39.7	-41.9	12.5	9.61e-05	0	60	0	963641344	50	4514
2026-01-29 16:08:12.82	249.69	14.04	-39.6	-41.7	12.7	7.66e-05	0	60	0	985661440	50	4429
2026-01-29 16:08:15.85	250.27	14.16	-39.7	-41.8	12.6	7.20e-05	0	60	0	1007681536	50	4479
2026-01-29 16:08:18.88	250.85	14.28	-39.6	-41.7	12.7	8.69e-05	0	60	0	1029701632	50	4436
2026-01-29 16:08:21.91	251.43	14.40	-39.6	-41.7	12.7	5.72e-05	0	60	0	1051721728	50	4435
2026-01-29 16:08:24.94	252.02	14.52	-39.7	-41.9	12.5	8.69e-05	0	60	0	1073741824	50	4504
2026-01-29 16:08:27.98	252.62	14.63	-39.7	-41.9	12.4	1.34e-04	0	60	0	1095761920	50	4545
2026-01-29 16:08:31.01	253.22	14.75	-39.7	-41.8	12.6	6.06e-05	0	60	0	1117782016	50	4483
2026-01-29 16:08:34.04	253.82	14.86	-39.7	-41.9	12.5	1.07e-04	0	60	0	1138753536	50	4517
2026-01-29 16:08:37.07	254.43	14.96	-39.7	-41.9	12.5	8.01e-05	0	60	0	1160773632	50	4499
2026-01-29 16:08:40.10	255.04	15.07	-39.7	-41.9	12.6	7.32e-05	0	60	0	1182793728	50	4498
2026-01-29 16:08:43.13	255.66	15.17	-39.6	-41.7	12.7	5.26e-05	0	60	0	1204813824	49	4675
2026-01-29 16:08:46.16	256.28	15.27	-39.4	-41.5	13.0	3.89e-05	0	60	0	1226833920	49	4553
2026-01-29 16:08:49.19	256.90	15.37	-39.5	-41.5	12.8	4.23e-05	0	60	0	1248854016	49	4598
2026-01-29 16:08:52.23	257.53	15.46	-39.5	-41.6	12.8	5.60e-05	0	61	0	1270874112	49	4625
2026-01-29 16:08:55.26	258.16	15.55	-39.5	-41.6	12.8	5.60e-05	0	61	0	1292894208	49	4613
2026-01-29 16:08:58.29	258.80	15.64	-39.4	-41.5	12.9	3.08e-05	0	60	0	1313865728	49	4580
2026-01-29 16:09:01.32	259.44	15.73	-39.5	-41.7	12.8	6.75e-05	0	60	0	1335885824	49	4653
2026-01-29 16:09:04.35	260.08	15.81	-39.4	-41.4	13.0	3.43e-05	0	61	0	1357905920	49	4540
2026-01-29 16:09:07.38	260.72	15.89	-39.3	-41.3	13.1	2.05e-05	0	61	0	1379926016	49	4449
2026-01-29 16:09:10.41	261.37	15.96	-39.3	-41.4	13.1	2.17e-05	0	61	0	1401946112	49	4503
2026-01-29 16:09:13.44	262.02	16.03	-39.4	-41.4	13.0	3.31e-05	0	61	0	1423966208	49	4523
2026-01-29 16:09:16.48	262.68	16.10	-39.5	-41.5	12.9	2.86e-05	0	61	0	1445986304	49	4591
2026-01-29 16:09:19.50	263.34	16.17	-39.2	-41.2	13.2	1.71e-05	0	61	0	1468006400	49	4432
2026-01-29 16:09:22.54	264.00	16.23	-39.3	-41.3	13.1	1.60e-05	0	61	0	1488977920	49	4483
2026-01-29 16:09:25.56	264.66	16.29	-39.5	-41.5	12.9	4.00e-05	0	61	0	1510998016	49	4582
2026-01-29 16:09:28.59	265.32	16.34	-39.5	-41.6	12.8	4.46e-05	0	61	0	1533018112	49	4627
2026-01-29 16:09:31.62	265.99	16.40	-39.3	-41.3	13.1	2.86e-05	0	61	0	1555038208	49	4471
2026-01-29 16:09:34.65	266.66	16.44	-39.3	-41.3	13.2	1.71e-05	0	61	0	1577058304	49	4443
2026-01-29 16:09:37.68	267.33	16.49	-39.4	-41.4	13.0	2.97e-05	0	61	0	1599078400	49	4522
2026-01-29 16:09:40.71	268.01	16.53	-39.5	-41.5	12.9	3.43e-05	0	61	0	1621098496	49	4592
2026-01-29 16:09:43.74	268.68	16.57	-39.4	-41.5	12.9	3.89e-05	0	61	0	1642070016	49	4556
2026-01-29 16:09:46.77	269.36	16.60	-39.5	-41.6	12.8	4.92e-05	0	61	0	1664090112	49	4621
2026-01-29 16:09:49.80	270.04	16.63	-39.4	-41.4	13.0	3.20e-05	0	61	0	1686110208	49	4522
2026-01-29 16:09:52.83	270.72	16.66	-39.4	-41.4	13.0	4.23e-05	0	61	0	1708130304	49	4535
2026-01-29 16:09:55.86	271.40	16.68	-39.3	-41.3	13.0	2.63e-05	0	61	0	1730150400	49	4485
2026-01-29 16:09:58.89	272.08	16.70	-39.2	-41.1	13.2	2.17e-05	0	61	0	1752170496	49	4388
2026-01-29 16:10:01.92	272.76	16.71	-39.2	-41.2	13.1	1.94e-05	0	61	0	1774190592	49	4432
2026-01-29 16:10:04.95	273.44	16.72	-39.3	-41.4	13.0	2.86e-05	0	61	0	1796210688	49	4522
2026-01-29 16:10:07.98	274.12	16.73	-39.3	-41.4	13.0	2.28e-05	0	61	0	1817182208	49	4500
2026-01-29 16:10:11.01	274.81	16.73	-39.3	-41.4	13.0	2.97e-05	0	61	0	1839202304	49	4506
2026-01-29 16:10:14.05	275.49	16.73	-39.3	-41.3	13.1	3.54e-05	0	61	0	1861222400	49	4461
2026-01-29 16:10:17.07	276.17	16.72	-39.2	-41.2	13.1	2.28e-05	0	61	0	1883242496	49	4432
2026-01-29 16:10:20.10	276.85	16.71	-39.1	-41.1	13.2	1.94e-05	0	61	0	1905262592	49	4379
2026-01-29 16:10:23.13	277.54	16.70	-39.2	-41.2	13.2	2.17e-05	0	61	0	1926234112	49	4417
2026-01-29 16:10:26.16	278.22	16.68	-39.2	-41.2	13.2	2.05e-05	0	61	0	1948254208	49	4411
2026-01-29 16:10:29.19	278.90	16.66	-39.4	-41.5	12.9	4.46e-05	0	61	0	1970274304	49	4546
2026-01-29 16:10:32.22	279.57	16.64	-39.4	-41.6	12.8	4.92e-05	0	61	0	1992294400	49	4606
2026-01-29 16:10:35.25	280.25	16.61	-39.4	-41.5	12.8	4.92e-05	0	61	0	2014314496	49	4569
2026-01-29 16:10:38.28	280.93	16.58	-39.3	-41.4	12.8	3.08e-05	0	61	0	2036334592	49	4528
2026-01-29 16:10:41.31	281.60	16.54	-39.3	-41.3	13.0	2.74e-05	0	61	0	2058354688	49	4466
2026-01-29 16:10:44.34	282.28	16.51	-39.3	-41.4	13.0	4.23e-05	0	61	0	2080374784	49	4495
2026-01-29 16:10:47.38	282.95	16.46	-39.4	-41.5	12.8	4.80e-05	0	61	0	2101346304	49	4560
2026-01-29 16:10:50.41	283.62	16.42	-39.3	-41.4	12.9	5.26e-05	0	61	0	2123366400	49	4511
2026-01-29 16:10:53.44	284.29	16.37	-39.3	-41.4	12.9	3.66e-05	0	61	0	2145386496	49	4503
2026-01-29 16:10:56.47	284.95	16.31	-39.3	-41.4	12.9	3.77e-05	0	61	0	2167406592	49	4527
2026-01-29 16:10:59.50	285.61	16.25	-39.5	-41.7	12.5	5.60e-05	0	61	0	2189426688	49	4659
2026-01-29 16:11:02.53	286.27	16.19	-39.5	-41.6	12.7	9.38e-05	0	61	0	2211446784	49	4626
2026-01-29 16:11:05.55	286.93	16.13	-39.4	-41.4	12.8	4.11e-05	0	61	0	2233466880	49	4543
2026-01-29 16:11:08.58	287.58	16.06	-39.5	-41.6	12.7	7.20e-05	0	61	0	2254438400	49	4625
2026-01-29 16:11:11.61	288.24	15.99	-39.4	-41.6	12.7	7.89e-05	0	61	0	2276458496	49	4602
2026-01-29 16:11:14.63	288.88	15.92	-39.4	-41.6	12.7	6.98e-05	0	61	0	2298478592	49	4606
2026-01-29 16:11:17.67	289.53	15.84	-39.4	-41.5	12.8	7.32e-05	0	61	0	2320498688	49	4579
2026-01-29 16:11:20.69	290.17	15.76	-39.3	-41.4	12.8	7.09e-05	0	61	0	2342518784	49	4516
2026-01-29 16:11:23.72	290.81	15.68	-39.4	-41.5	12.7	7.09e-05	0	61	0	2364538880	49	4596
2026-01-29 16:11:26.75	291.44	15.59	-39.5	-41.6	12.6	7.66e-05	0	61	0	2386558976	49	4622
2026-01-29 16:11:29.78	292.07	15.50	-39.5	-41.6	12.6	7.89e-05	0	61	0	2407530496	49	4644
2026-01-29 16:11:32.80	292.70	15.41	-39.6	-41.8	12.4	1.22e-04	0	61	0	2429550592	49	4746
2026-01-29 16:11:35.84	293.32	15.31	-39.7	-41.9	12.3	1.88e-04	0	61	0	2451570688	49	4807
2026-01-29 16:11:38.87	293.94	15.22	-39.7	-42.0	12.2	1.80e-04	0	61	0	2473590784	49	4836
2026-01-29 16:11:41.90	294.56	15.12	-39.6	-41.9	12.3	1.67e-04	0	61	0	2495610880	49	4763
2026-01-29 16:11:44.93	295.17	15.01	-39.6	-41.8	12.4	1.22e-04	0	61	0	2517630976	49	4739
2026-01-29 16:11:47.96	295.77	14.91	-39.5	-41.7	12.5	9.61e-05	0	61	0	2539651072	49	4681
2026-01-29 16:11:50.99	296.38	14.80	-39.6	-41.8	12.4	1.06e-04	0	61	0	2560622592	49	4710
2026-01-29 16:11:54.02	296.98	14.69	-39.6	-41.8	12.4	1.14e-04	0	61	0	2582642688	49	4727
2026-01-29 16:11:57.05	297.57	14.58	-39.6	-41.8	12.4	1.13e-04	0	61	0	2604662784	49	4726
2026-01-29 16:12:00.08	298.16	14.46	-39.7	-42.0	12.2	1.91e-04	0	61	0	2626682880	49	4843
2026-01-29 16:12:03.11	298.74	14.34	-39.9	-42.2	12.0	2.83e-04	0	62	0	2648702976	49	4954
2026-01-29 16:12:06.14	299.32	14.22	-39.9	-42.2	11.9	3.81e-04	0	61	0	2670723072	49	4965
2026-01-29 16:12:09.17	299.90	14.10	-39.8	-42.2	12.0	2.63e-04	0	61	0	2692743168	49	4939
2026-01-29 16:12:12.21	300.47	13.98	-39.9	-42.2	11.9	4.07e-04	0	61	0	2714763264	49	4975
2026-01-29 16:12:15.23	301.04	13.85	-39.8	-42.0	12.1	2.62e-04	0	62	0	2735734784	49	4861
2026-01-29 16:12:18.27	301.60	13.72	-39.8	-42.0	12.1	1.89e-04	0	61	0	2757754880	49	4866
2026-01-29 16:12:21.29	302.16	13.60	-39.9	-42.3	11.9	3.11e-04	0	61	0	2779774976	49	4984
2026-01-29 16:12:24.32	302.71	13.46	-40.0	-42.3	11.8	4.83e-04	0	61	0	2801795072	49	5039
2026-01-29 16:12:27.35	303.26	13.33	-39.8	-42.2	11.9	3.13e-04	0	61	0	2823815168	49	4935
2026-01-29 16:12:30.38	303.80	13.20	-39.9	-42.2	11.9	3.38e-04	0	61	0	2844786688	49	4943
2026-01-29 16:12:33.41	304.34	13.06	-39.9	-42.3	11.8	4.19e-04	0	62	0	2866806784	49	4999
2026-01-29 16:12:36.44	304.87	12.92	-40.0	-42.4	11.7	4.68e-04	0	61	0	2888826880	49	5070
2026-01-29 16:12:39.48	305.40	12.79	-40.1	-42.5	11.5	7.20e-04	0	61	0	2910846976	49	5154
2026-01-29 16:12:42.51	305.92	12.64	-40.1	-42.6	11.4	8.38e-04	0	62	0	2932867072	49	5210
2026-01-29 16:12:45.54	306.44	12.50	-40.0	-42.6	11.5	7.99e-04	0	61	0	2954887168	49	5166
2026-01-29 16:12:48.56	306.95	12.36	-40.1	-42.7	11.3	1.04e-03	0	61	0	2976907264	49	5266
2026-01-29 16:12:51.59	307.46	12.22	-40.3	-42.8	11.2	1.23e-03	0	61	0	2998927360	50	5025
2026-01-29 16:12:54.62	307.97	12.07	-40.3	-42.8	11.2	1.31e-03	0	61	0	3019898880	50	5016
2026-01-29 16:12:57.65	308.46	11.93	-40.3	-42.9	11.2	1.22e-03	0	62	0	3041918976	50	5047
2026-01-29 16:13:00.68	308.96	11.78	-40.2	-42.7	11.3	1.34e-03	0	61	0	3063939072	50	4965
2026-01-29 16:13:03.72	309.45	11.63	-40.3	-42.9	11.1	1.09e-03	0	61	0	3085959168	50	5046
2026-01-29 16:13:06.74	309.93	11.48	-40.4	-43.0	11.0	1.76e-03	0	62	0	3107979264	50	5130
2026-01-29 16:13:09.77	310.41	11.33	-40.4	-43.0	10.9	2.12e-03	0	62	0	3129999360	50	5158
2026-01-29 16:13:12.80	310.89	11.18	-40.4	-43.0	10.9	2.32e-03	0	61	0	3152019456	50	5134
2026-01-29 16:13:15.83	311.36	11.03	-40.3	-43.0	10.9	1.71e-03	0	62	0	3172990976	50	5111
2026-01-29 16:13:18.87	311.82	10.88	-40.3	-42.9	11.0	1.57e-03	0	61	0	3195011072	50	5052
2026-01-29 16:13:21.90	312.29	10.72	-40.4	-43.0	10.8	2.11e-03	0	62	0	3217031168	50	5152
2026-01-29 16:13:24.93	312.74	10.57	-40.4	-43.1	10.8	2.45e-03	0	61	0	3239051264	50	5184
2026-01-29 16:13:27.97	313.19	10.42	-40.6	-43.4	10.4	3.44e-03	0	61	0	3261071360	50	5391
2026-01-29 16:13:31.00	313.64	10.26	-40.7	-43.5	10.3	5.50e-03	0	61	0	3283091456	51	5129
2026-01-29 16:13:34.03	314.08	10.11	-40.6	-43.5	10.3	4.90e-03	0	61	0	3305111552	51	5113
2026-01-29 16:13:37.06	314.52	9.95	-40.6	-43.3	10.5	3.92e-03	0	61	0	3327131648	51	5038
2026-01-29 16:13:40.10	314.96	9.79	-40.4	-43.1	10.7	2.62e-03	0	61	0	3349151744	51	4920
2026-01-29 16:13:43.13	315.39	9.64	-40.3	-42.9	10.9	1.89e-03	0	61	0	3370123264	51	4810
2026-01-29 16:13:46.16	315.81	9.48	-40.4	-43.1	10.8	2.35e-03	0	61	0	3392143360	51	4879
2026-01-29 16:13:49.19	316.23	9.32	-40.5	-43.3	10.5	3.67e-03	0	62	0	3414163456	51	5012
2026-01-29 16:13:52.23	316.65	9.17	-40.8	-43.7	10.1	6.02e-03	0	62	0	3436183552	51	5256
2026-01-29 16:13:55.26	317.06	9.01	-40.9	-43.9	9.8	8.80e-03	0	62	0	3458203648	51	5382
2026-01-29 16:13:58.29	317.46	8.85	-40.9	-44.0	9.7	1.08e-02	0	62	0	3480223744	51	5445
2026-01-29 16:14:01.33	317.87	8.69	-40.9	-43.9	9.8	9.30e-03	0	62	0	3502243840	51	5370
2026-01-29 16:14:04.35	318.27	8.53	-40.8	-43.8	9.9	8.94e-03	0	62	0	3524263936	51	5337
2026-01-29 16:14:07.39	318.66	8.37	-40.7	-43.7	10.0	6.36e-03	0	62	0	3545235456	51	5226
2026-01-29 16:14:10.42	319.05	8.22	-40.6	-43.5	10.2	4.93e-03	0	61	0	3567255552	51	5120
2026-01-29 16:14:13.45	319.44	8.06	-40.6	-43.5	10.3	5.77e-03	0	62	0	3589275648	51	5106
2026-01-29 16:14:16.48	319.82	7.90	-44.9	-55.7	3.8	8.46e-01	0	61	104	3597664256	59	13119
2026-01-29 16:14:19.51	320.20	7.74	-45.3	-56.4	3.8	8.46e-01	0	62	104	3597664256	60	13454
2026-01-29 16:14:22.55	320.57	7.58	-45.5	-56.5	3.8	8.45e-01	0	62	104	3597664256	60	13657
2026-01-29 16:14:25.58	320.94	7.42	-45.3	-56.4	3.8	8.46e-01	0	62	104	3597664256	60	13490
2026-01-29 16:14:28.61	321.31	7.26	-45.3	-56.4	3.8	8.45e-01	0	61	104	3597664256	60	13522
2026-01-29 16:14:31.64	321.67	7.10	-45.3	-56.4	3.8	8.46e-01	0	62	104	3597664256	60	13424
2026-01-29 16:14:34.67	322.03	6.94	-45.3	-56.4	3.8	8.46e-01	0	61	104	3597664256	60	13447
2026-01-29 16:14:37.71	322.39	6.78	-45.3	-56.4	3.8	8.46e-01	0	62	104	3597664256	60	13448
2026-01-29 16:14:40.74	322.74	6.63	-45.2	-56.2	3.8	8.46e-01	0	62	104	3597664256	60	13238
2026-01-29 16:14:43.77	323.09	6.47	-45.3	-56.4	3.8	8.45e-01	0	62	104	3597664256	60	13425
2026-01-29 16:14:46.80	323.43	6.31	-45.3	-56.3	3.8	8.45e-01	0	61	104	3597664256	60	13403
2026-01-29 16:14:49.83	323.77	6.15	-45.3	-56.4	3.8	8.47e-01	0	62	104	3597664256	60	13422
2026-01-29 16:14:52.86	324.11	5.99	-45.3	-56.3	3.8	8.46e-01	0	62	104	3597664256	60	13385
2026-01-29 16:14:55.90	324.44	5.83	-45.3	-56.4	3.8	8.47e-01	0	62	104	3597664256	60	13420
2026-01-29 16:14:58.93	324.77	5.68	-45.3	-56.4	3.8	8.45e-01	0	62	104	3597664256	60	13415
2026-01-29 16:15:01.96	325.10	5.52	-45.3	-56.3	3.8	8.45e-01	0	62	104	3597664256	60	13380
2026-01-29 16:15:04.99	325.42	5.36	-45.3	-56.3	3.8	8.46e-01	0	62	104	3597664256	60	13413
2026-01-29 16:15:08.02	325.74	5.20	-45.3	-56.3	3.8	8.46e-01	0	62	104	3597664256	60	13379
2026-01-29 16:15:11.06	326.06	5.05	-45.3	-56.3	3.8	8.46e-01	0	62	104	3597664256	60	13401
2026-01-29 16:15:14.09	326.37	4.89	-45.3	-56.3	3.8	8.45e-01	0	62	104	3597664256	60	13391
2026-01-29 16:15:17.12	326.68	4.73	-45.3	-56.3	3.8	8.46e-01	0	62	104	3597664256	60	13393
2026-01-29 16:15:20.15	326.99	4.58	-45.3	-56.3	3.8	8.46e-01	0	62	104	3597664256	60	13381
2026-01-29 16:15:23.18	327.29	4.42	-45.2	-56.3	3.8	8.45e-01	0	62	104	3597664256	60	13392
2026-01-29 16:15:26.21	327.59	4.27	-45.3	-56.3	3.8	8.46e-01	0	62	104	3597664256	60	13381
2026-01-29 16:15:29.24	327.89	4.11	-45.2	-56.3	3.8	8.47e-01	0	62	104	3597664256	60	13358
2026-01-29 16:15:32.27	328.19	3.95	-45.3	-56.4	3.8	8.46e-01	0	62	104	3597664256	60	13419
2026-01-29 16:15:35.31	328.48	3.80	-45.2	-56.3	3.8	8.46e-01	0	62	104	3597664256	60	13398
2026-01-29 16:15:38.34	328.77	3.64	-45.2	-56.3	3.8	8.47e-01	0	62	104	3597664256	60	13383
2026-01-29 16:15:41.37	329.06	3.49	-45.3	-56.3	3.8	8.46e-01	0	62	104	3597664256	60	13382
2026-01-29 16:15:44.40	329.34	3.34	-45.2	-56.3	3.8	8.46e-01	0	62	104	3597664256	60	13336
2026-01-29 16:15:47.43	329.62	3.18	-45.3	-56.3	3.8	8.46e-01	0	62	104	3597664256	60	13390
2026-01-29 16:15:50.47	329.90	3.03	-45.3	-56.4	3.8	8.46e-01	0	62	104	3597664256	60	13462
2026-01-29 16:15:53.50	330.17	2.88	-45.3	-56.4	3.8	8.46e-01	0	62	104	3597664256	60	13416
2026-01-29 16:15:56.53	330.44	2.72	-45.2	-56.3	3.8	8.45e-01	0	62	104	3597664256	60	13345
2026-01-29 16:15:59.56	330.71	2.57	-45.2	-56.3	3.8	8.47e-01	0	62	104	3597664256	60	13364
2026-01-29 16:16:02.60	330.98	2.42	-45.3	-56.3	3.8	8.46e-01	0	62	104	3597664256	60	13395
2026-01-29 16:16:05.63	331.25	2.27	-45.2	-56.3	3.8	8.47e-01	0	62	104	3597664256	60	13323
2026-01-29 16:16:08.66	331.51	2.12	-45.2	-56.3	3.8	8.45e-01	0	62	104	3597664256	60	13336
2026-01-29 16:16:11.69	331.77	1.97	-45.3	-56.3	3.8	8.47e-01	0	62	104	3597664256	60	13408

#Closed at: 2026-01-29 16:16:12
#Recorded file [3597 MB]: D:/lorett/data/31039_260129_190416.dat