passes_logs/2026/01/29/R2.0S_Moscow/R2.0S_Moscow__20260129_232339_NOAA_21_JPSS-2_rec.log

#Pass ID: 20260129_232339_NOAA 21 (JPSS-2)
#Satellite: NOAA 21 (JPSS-2)
#Configuration: NOAA-21
#almurnet v.1.7.20251203
#Start time: 2026-01-29 23:23:42

#Version: 2.2.20231116
#Station: R2.0S_Moscow
#Location: 37.707566 lon 55.798166 lat
#TLE: 1 54234U 22150A   26028.89828222  .00000145  00000+0  89569-4 0  9997
#TLE: 2 54234  98.7511 329.6308 0000927 198.8651 161.2491 14.19540676166783

#Time	Az	El	Level	Level2	SNR	BER	BlckErr	Temp	State	Recorded	gain1	gain2
2026-01-29 23:23:42.03	17.46	2.13	-41.5	-53.7	3.8	1.49e+00	0	51	0	0	55	13948
2026-01-29 23:23:46.06	17.52	2.39	-41.5	-53.7	3.8	1.49e+00	0	52	104	0	54	14786
2026-01-29 23:23:50.10	17.59	2.65	-41.5	-53.7	3.8	1.49e+00	0	52	104	0	54	14767
2026-01-29 23:23:54.15	17.66	2.91	-41.5	-53.7	3.8	1.49e+00	0	53	104	0	54	14774
2026-01-29 23:23:58.19	17.73	3.18	-41.5	-53.7	3.8	1.49e+00	0	53	104	0	54	14753
2026-01-29 23:24:02.23	17.80	3.45	-41.5	-53.7	3.8	1.49e+00	0	53	104	0	54	14728
2026-01-29 23:24:06.27	17.87	3.72	-41.5	-53.7	3.8	1.49e+00	0	53	104	0	54	14747
2026-01-29 23:24:10.31	17.94	3.99	-41.5	-53.7	3.8	1.49e+00	0	54	104	0	54	14755
2026-01-29 23:24:14.36	18.01	4.27	-41.5	-53.7	3.8	1.49e+00	0	54	104	0	54	14728
2026-01-29 23:24:18.40	18.09	4.55	-41.5	-53.7	3.8	1.49e+00	0	54	104	0	54	14735
2026-01-29 23:24:22.44	18.16	4.83	-41.4	-53.6	3.8	1.49e+00	0	54	104	0	54	14675
2026-01-29 23:24:26.48	18.24	5.11	-41.4	-53.6	3.8	1.49e+00	0	55	104	0	54	14696
2026-01-29 23:24:30.52	18.31	5.40	-41.4	-53.7	3.8	1.49e+00	0	55	104	0	54	14713
2026-01-29 23:24:34.57	18.39	5.69	-41.4	-53.7	3.8	1.49e+00	0	55	104	0	54	14721
2026-01-29 23:24:38.61	18.47	5.99	-41.4	-53.6	3.8	1.49e+00	0	55	104	0	54	14686
2026-01-29 23:24:42.65	18.55	6.28	-41.4	-53.7	3.8	1.49e+00	0	55	104	0	54	14723
2026-01-29 23:24:46.69	18.63	6.58	-41.4	-53.6	3.8	1.49e+00	0	56	104	0	54	14658
2026-01-29 23:24:50.73	18.71	6.89	-41.4	-53.6	3.8	1.49e+00	0	56	104	0	54	14578
2026-01-29 23:24:54.78	18.80	7.20	-41.4	-53.4	3.8	1.49e+00	0	56	104	0	54	14251
2026-01-29 23:24:58.82	18.88	7.51	-41.4	-53.2	3.8	1.49e+00	0	56	104	0	54	14039
2026-01-29 23:25:02.86	18.97	7.82	-41.3	-52.5	3.8	1.49e+00	0	56	104	0	54	12900
2026-01-29 23:25:06.90	19.06	8.14	-41.2	-50.0	4.2	1.46e+00	0	56	104	0	54	9644
2026-01-29 23:25:10.95	19.15	8.47	-40.3	-43.9	10.1	3.15e-02	0	57	0	6291456	52	5385
2026-01-29 23:25:14.99	19.24	8.79	-40.9	-45.0	9.2	1.92e-02	0	57	0	18874368	52	6123
2026-01-29 23:25:19.03	19.34	9.13	-40.8	-44.6	9.7	1.03e-02	0	57	0	31457280	52	5851
2026-01-29 23:25:23.07	19.43	9.46	-40.7	-44.3	10.3	5.77e-03	0	57	0	44040192	52	5603
2026-01-29 23:25:27.11	19.53	9.80	-40.8	-44.4	10.2	6.10e-03	0	57	0	56623104	52	5683
2026-01-29 23:25:31.15	19.63	10.15	-40.6	-44.0	10.7	3.05e-03	0	57	0	70254592	52	5452
2026-01-29 23:25:35.20	19.73	10.50	-40.7	-44.1	10.6	3.53e-03	0	57	0	82837504	52	5518
2026-01-29 23:25:39.24	19.83	10.86	-40.7	-44.0	11.0	1.76e-03	0	58	0	95420416	52	5406
2026-01-29 23:25:43.28	19.94	11.22	-40.6	-43.8	11.3	1.43e-03	0	57	0	108003328	52	5287
2026-01-29 23:25:47.32	20.05	11.58	-40.5	-43.6	11.5	9.06e-04	0	58	0	120586240	52	5187
2026-01-29 23:25:51.36	20.16	11.95	-40.5	-43.5	11.6	6.69e-04	0	58	0	133169152	52	5135
2026-01-29 23:25:55.40	20.27	12.33	-40.5	-43.5	11.7	6.85e-04	0	58	0	145752064	52	5109
2026-01-29 23:25:59.44	20.38	12.71	-40.4	-43.3	11.9	4.06e-04	0	58	0	158334976	52	5019
2026-01-29 23:26:03.48	20.50	13.10	-40.3	-43.1	12.1	3.05e-04	0	58	0	170917888	52	4922
2026-01-29 23:26:07.52	20.62	13.50	-40.4	-43.2	12.0	3.13e-04	0	58	0	183500800	52	4970
2026-01-29 23:26:11.56	20.74	13.90	-40.5	-43.4	11.9	3.59e-04	0	58	0	196083712	52	5079
2026-01-29 23:26:15.60	20.87	14.31	-40.4	-43.3	12.0	3.26e-04	0	59	0	208666624	52	4993
2026-01-29 23:26:19.65	21.00	14.73	-40.4	-43.3	12.0	3.10e-04	0	58	0	221249536	52	4990
2026-01-29 23:26:23.69	21.13	15.15	-40.6	-43.5	11.9	4.10e-04	0	58	0	233832448	52	5120
2026-01-29 23:26:27.73	21.27	15.58	-40.6	-43.5	11.9	4.03e-04	0	59	0	246415360	52	5107
2026-01-29 23:26:31.77	21.41	16.02	-40.6	-43.5	11.9	4.20e-04	0	59	0	258998272	52	5123
2026-01-29 23:26:35.81	21.55	16.46	-40.6	-43.4	12.0	3.24e-04	0	59	0	271581184	52	5087
2026-01-29 23:26:39.85	21.70	16.92	-40.5	-43.3	12.1	2.78e-04	0	59	0	284164096	52	5032
2026-01-29 23:26:43.89	21.85	17.38	-40.6	-43.5	12.0	3.37e-04	0	59	0	296747008	52	5112
2026-01-29 23:26:47.93	22.00	17.85	-40.6	-43.5	12.0	3.13e-04	0	59	0	309329920	52	5107
2026-01-29 23:26:51.98	22.16	18.33	-40.5	-43.3	12.2	1.98e-04	0	59	0	322961408	52	5003
2026-01-29 23:26:56.02	22.32	18.82	-40.5	-43.2	12.3	2.13e-04	0	59	0	334495744	52	4954
2026-01-29 23:27:00.06	22.49	19.32	-40.3	-42.9	12.6	1.03e-04	0	59	0	347078656	52	4813
2026-01-29 23:27:04.10	22.66	19.83	-40.2	-42.8	12.8	4.88e-05	0	59	0	360710144	52	4743
2026-01-29 23:27:08.14	22.84	20.35	-40.2	-42.8	12.9	5.87e-05	0	59	0	373293056	52	4723
2026-01-29 23:27:12.18	23.03	20.88	-40.1	-42.6	13.0	3.28e-05	0	59	0	385875968	52	4640
2026-01-29 23:27:16.23	23.22	21.42	-40.0	-42.5	13.2	3.66e-05	0	59	0	398458880	52	4565
2026-01-29 23:27:20.27	23.42	21.98	-39.9	-42.3	13.5	1.22e-05	0	59	0	411041792	51	4716
2026-01-29 23:27:24.31	23.62	22.54	-39.7	-42.0	13.8	3.00e-06	0	59	0	423624704	51	4559
2026-01-29 23:27:28.35	23.83	23.12	-39.5	-41.7	14.1	7.00e-07	0	59	0	436207616	51	4416
2026-01-29 23:27:32.39	24.05	23.71	-39.4	-41.5	14.4	0.00e+00	0	59	0	448790528	50	4558
2026-01-29 23:27:36.44	24.27	24.32	-39.4	-41.5	14.4	0.00e+00	0	60	0	461373440	50	4572
2026-01-29 23:27:40.48	24.51	24.93	-39.6	-41.7	14.1	1.50e-06	0	60	0	473956352	50	4693
2026-01-29 23:27:44.52	24.75	25.57	-39.7	-42.0	13.9	1.50e-06	0	60	0	486539264	50	4826
2026-01-29 23:27:48.56	25.00	26.21	-40.1	-42.5	13.4	1.83e-05	0	60	0	499122176	50	5119
2026-01-29 23:27:52.60	25.26	26.88	-40.3	-42.7	13.2	1.98e-05	0	59	0	511705088	51	4963
2026-01-29 23:27:56.64	25.54	27.56	-40.6	-43.1	12.8	6.71e-05	0	59	0	524288000	51	5218
2026-01-29 23:28:00.68	25.82	28.25	-40.7	-43.5	12.3	1.36e-04	0	59	0	536870912	52	5130
2026-01-29 23:28:04.72	26.11	28.97	-40.9	-43.7	12.1	2.65e-04	0	60	0	549453824	52	5275
2026-01-29 23:28:08.76	26.42	29.70	-40.8	-43.6	12.2	1.81e-04	0	60	0	562036736	52	5216
2026-01-29 23:28:12.80	26.75	30.45	-40.3	-42.8	13.1	2.59e-05	0	60	0	574619648	52	4729
2026-01-29 23:28:16.84	27.08	31.22	-40.1	-42.4	13.5	1.37e-05	0	60	0	587202560	52	4536
2026-01-29 23:28:20.89	27.44	32.01	-40.2	-42.5	13.5	7.60e-06	0	60	0	599785472	51	4846
2026-01-29 23:28:24.93	27.81	32.82	-40.5	-43.0	13.0	3.20e-05	0	60	0	612368384	51	5132
2026-01-29 23:28:28.96	28.19	33.64	-40.5	-43.1	12.9	5.56e-05	0	60	0	624951296	51	5163
2026-01-29 23:28:33.00	28.60	34.50	-40.8	-43.6	12.4	1.60e-04	0	60	0	638582784	52	5161
2026-01-29 23:28:37.05	29.03	35.37	-41.1	-44.0	11.9	3.52e-04	0	60	0	651165696	52	5455
2026-01-29 23:28:41.09	29.48	36.27	-41.3	-44.3	11.6	8.30e-04	0	60	0	663748608	53	5281
2026-01-29 23:28:45.14	29.96	37.19	-41.2	-44.1	11.8	5.10e-04	0	60	0	676331520	53	5191
2026-01-29 23:28:49.18	30.47	38.14	-41.0	-43.9	12.0	3.17e-04	0	60	0	688914432	53	5062
2026-01-29 23:28:53.22	31.00	39.11	-41.1	-44.0	12.0	3.19e-04	0	60	0	701497344	53	5103
2026-01-29 23:28:57.26	31.57	40.10	-41.3	-44.2	11.7	5.35e-04	0	60	0	714080256	53	5264
2026-01-29 23:29:01.31	32.17	41.13	-41.8	-45.3	10.6	2.35e-03	0	60	0	726663168	54	5599
2026-01-29 23:29:05.35	32.81	42.18	-42.2	-45.9	10.0	6.95e-03	0	60	0	739246080	54	6028
2026-01-29 23:29:09.39	33.49	43.25	-42.2	-45.9	10.0	6.10e-03	0	60	0	751828992	55	5674
2026-01-29 23:29:13.43	34.22	44.35	-42.4	-46.3	9.7	1.20e-02	0	60	0	764411904	55	5937
2026-01-29 23:29:17.48	35.01	45.48	-42.2	-46.0	9.9	7.92e-03	0	60	0	776994816	55	5749
2026-01-29 23:29:21.52	35.85	46.64	-41.6	-44.8	11.1	1.93e-03	0	60	0	789577728	55	5028
2026-01-29 23:29:25.56	36.75	47.82	-41.4	-44.3	11.7	6.48e-04	0	61	0	802160640	54	5035
2026-01-29 23:29:29.60	37.72	49.02	-41.1	-43.8	12.2	2.09e-04	0	60	0	814743552	54	4759
2026-01-29 23:29:33.64	38.78	50.25	-41.5	-44.6	11.4	1.10e-03	0	60	0	827326464	54	5195
2026-01-29 23:29:37.68	39.92	51.50	-41.9	-45.4	10.7	2.72e-03	0	60	0	839909376	54	5673
2026-01-29 23:29:41.73	41.16	52.78	-41.4	-44.4	11.7	6.41e-04	0	60	0	852492288	54	5053
2026-01-29 23:29:45.77	42.52	54.07	-41.3	-44.3	11.7	5.21e-04	0	61	0	865075200	54	5025
2026-01-29 23:29:49.82	44.00	55.39	-41.2	-44.2	11.9	3.25e-04	0	60	0	877658112	54	4932
2026-01-29 23:29:53.86	45.63	56.71	-40.7	-43.3	12.8	7.47e-05	0	60	0	890241024	53	4726
2026-01-29 23:29:57.90	47.41	58.04	-40.4	-42.8	13.2	1.90e-05	0	60	0	903872512	52	4747
2026-01-29 23:30:01.95	49.39	59.37	-40.0	-42.3	13.9	3.00e-06	0	60	0	916455424	51	4721
2026-01-29 23:30:05.99	51.57	60.70	-39.6	-41.7	14.5	1.50e-06	0	61	0	929038336	51	4393
2026-01-29 23:30:10.03	54.00	62.01	-39.6	-41.6	14.6	7.00e-07	0	61	0	941621248	50	4631
2026-01-29 23:30:14.07	56.69	63.30	-39.3	-41.3	14.9	0.00e+00	0	61	0	954204160	50	4456
2026-01-29 23:30:18.11	59.69	64.56	-39.1	-41.0	15.1	7.00e-07	0	61	0	966787072	50	4318
2026-01-29 23:30:22.16	63.03	65.77	-38.9	-40.7	15.4	0.00e+00	0	61	0	979369984	49	4420
2026-01-29 23:30:26.20	66.75	66.91	-39.2	-41.1	15.0	0.00e+00	0	60	0	991952896	49	4633
2026-01-29 23:30:30.25	70.88	67.98	-38.9	-40.7	15.4	0.00e+00	0	61	0	1004535808	49	4438
2026-01-29 23:30:34.28	75.43	68.93	-38.8	-40.6	15.5	0.00e+00	0	61	0	1017118720	49	4386
2026-01-29 23:30:38.33	80.43	69.76	-39.4	-41.4	14.6	0.00e+00	0	60	0	1029701632	49	4805
2026-01-29 23:30:42.37	85.84	70.44	-38.9	-40.7	15.3	0.00e+00	0	61	0	1042284544	49	4438
2026-01-29 23:30:46.41	91.61	70.96	-38.7	-40.5	15.5	0.00e+00	0	60	0	1054867456	49	4325
2026-01-29 23:30:50.45	97.66	71.28	-39.1	-41.0	15.1	7.00e-07	0	61	0	1067450368	49	4589
2026-01-29 23:30:54.49	103.86	71.40	-39.0	-40.9	15.2	0.00e+00	0	61	0	1080033280	49	4513
2026-01-29 23:30:58.53	110.08	71.32	-39.6	-41.8	14.4	7.00e-07	0	61	0	1092616192	49	4991
2026-01-29 23:31:02.57	116.17	71.04	-39.2	-41.2	14.9	0.00e+00	0	61	0	1105199104	49	4679
2026-01-29 23:31:06.61	122.01	70.56	-39.3	-41.3	14.8	0.00e+00	0	61	0	1117782016	50	4474
2026-01-29 23:31:10.64	127.48	69.91	-39.7	-41.8	14.3	0.00e+00	0	61	0	1130364928	50	4735
2026-01-29 23:31:14.69	132.58	69.10	-39.1	-41.0	15.1	0.00e+00	0	61	0	1142947840	49	4574
2026-01-29 23:31:18.72	137.21	68.17	-38.8	-40.6	15.5	0.00e+00	0	61	0	1155530752	49	4377
2026-01-29 23:31:22.76	141.43	67.13	-39.9	-42.2	13.9	4.50e-06	0	61	0	1168113664	50	4965
2026-01-29 23:31:26.80	145.23	66.00	-38.7	-40.5	15.6	0.00e+00	0	61	0	1180696576	48	4582
2026-01-29 23:31:30.84	148.65	64.80	-39.3	-41.2	14.9	0.00e+00	0	60	0	1194328064	50	4437
2026-01-29 23:31:34.88	151.71	63.55	-40.5	-43.0	13.1	7.60e-06	0	60	0	1206910976	51	5148
2026-01-29 23:31:38.92	154.47	62.26	-39.0	-40.9	15.3	0.00e+00	0	61	0	1219493888	50	4264
2026-01-29 23:31:42.96	156.95	60.94	-40.7	-43.3	12.8	5.79e-05	0	61	0	1232076800	51	5327
2026-01-29 23:31:47.00	159.18	59.61	-38.9	-40.7	15.5	0.00e+00	0	61	0	1244659712	49	4423
2026-01-29 23:31:51.05	161.20	58.27	-41.1	-44.1	12.0	4.25e-04	0	61	0	1257242624	53	5163
2026-01-29 23:31:55.09	163.02	56.94	-39.5	-41.6	14.6	0.00e+00	0	61	0	1269825536	51	4362
2026-01-29 23:31:59.13	164.68	55.61	-41.6	-44.9	11.1	1.80e-03	0	61	0	1282408448	54	5365
2026-01-29 23:32:03.18	166.19	54.29	-40.0	-42.2	13.9	6.80e-06	0	61	0	1294991360	52	4436
2026-01-29 23:32:07.22	167.57	52.99	-41.5	-44.6	11.4	4.93e-04	0	61	0	1307574272	53	5506
2026-01-29 23:32:11.26	168.84	51.71	-41.4	-44.4	11.6	9.76e-04	0	61	0	1320157184	53	5396
2026-01-29 23:32:15.30	170.00	50.44	-41.2	-44.2	11.8	2.26e-04	0	61	0	1332740096	53	5237
2026-01-29 23:32:19.35	171.07	49.20	-42.1	-45.8	10.2	5.94e-03	0	61	0	1345323008	54	5946
2026-01-29 23:32:23.39	172.06	47.98	-41.5	-44.6	11.3	1.11e-03	0	61	0	1357905920	54	5187
2026-01-29 23:32:27.43	172.98	46.79	-41.7	-45.0	10.9	2.31e-03	0	61	0	1370488832	54	5406
2026-01-29 23:32:31.47	173.83	45.63	-41.9	-45.3	10.7	3.36e-03	0	61	0	1383071744	54	5618
2026-01-29 23:32:35.52	174.62	44.49	-42.5	-46.6	9.2	2.00e-02	0	61	0	1395654656	55	6187
2026-01-29 23:32:39.56	175.36	43.38	-41.9	-45.3	10.7	3.39e-03	0	61	0	1408237568	55	5313
2026-01-29 23:32:43.60	176.05	42.29	-41.9	-45.4	10.4	4.99e-03	0	61	0	1420820480	55	5370
2026-01-29 23:32:47.63	176.70	41.24	-41.3	-44.4	11.5	8.15e-04	0	61	0	1433403392	54	5048
2026-01-29 23:32:51.68	177.31	40.20	-41.8	-45.2	10.7	2.36e-03	0	61	0	1445986304	54	5588
2026-01-29 23:32:55.72	177.88	39.20	-41.6	-44.9	11.0	2.48e-03	0	61	0	1458569216	54	5402
2026-01-29 23:32:59.76	178.42	38.22	-41.2	-44.2	11.7	5.74e-04	0	61	0	1471152128	54	4963
2026-01-29 23:33:03.81	178.93	37.26	-41.0	-43.9	12.0	3.10e-04	0	61	0	1484783616	53	5065
2026-01-29 23:33:07.85	179.41	36.33	-41.0	-43.9	11.9	3.65e-04	0	61	0	1497366528	53	5098
2026-01-29 23:33:11.89	179.87	35.42	-40.7	-43.4	12.5	1.26e-04	0	61	0	1509949440	53	4800
2026-01-29 23:33:15.93	180.30	34.54	-41.3	-44.5	11.4	9.65e-04	0	61	0	1522532352	53	5414
2026-01-29 23:33:19.98	180.71	33.68	-41.3	-44.4	11.4	1.14e-03	0	61	0	1535115264	53	5389
2026-01-29 23:33:24.02	181.10	32.84	-40.5	-43.1	12.7	7.93e-05	0	61	0	1547698176	53	4643
2026-01-29 23:33:28.06	181.48	32.02	-40.3	-42.8	13.1	3.81e-05	0	61	0	1560281088	52	4720
2026-01-29 23:33:32.10	181.83	31.23	-40.2	-42.6	13.2	1.75e-05	0	61	0	1572864000	52	4645
2026-01-29 23:33:36.15	182.17	30.45	-39.9	-42.2	13.7	6.80e-06	0	61	0	1585446912	51	4679
2026-01-29 23:33:40.19	182.49	29.69	-40.0	-42.4	13.6	6.80e-06	0	61	0	1598029824	51	4764
2026-01-29 23:33:44.23	182.80	28.96	-40.3	-42.8	13.1	3.35e-05	0	61	0	1610612736	51	4993
2026-01-29 23:33:48.28	183.10	28.23	-40.2	-42.6	13.3	2.51e-05	0	61	0	1623195648	51	4908
2026-01-29 23:33:52.32	183.38	27.53	-40.2	-42.6	13.2	1.90e-05	0	61	0	1635778560	51	4916
2026-01-29 23:33:56.36	183.66	26.85	-40.2	-42.6	13.2	2.21e-05	0	61	0	1648361472	51	4910
2026-01-29 23:34:00.40	183.92	26.18	-40.1	-42.6	13.2	1.98e-05	0	61	0	1660944384	51	4879
2026-01-29 23:34:04.44	184.17	25.52	-40.0	-42.4	13.4	2.05e-05	0	61	0	1673527296	51	4807
2026-01-29 23:34:08.49	184.41	24.88	-40.0	-42.4	13.4	9.90e-06	0	61	0	1686110208	51	4781
2026-01-29 23:34:12.53	184.64	24.26	-40.1	-42.5	13.3	1.75e-05	0	61	0	1698693120	51	4869
2026-01-29 23:34:16.57	184.87	23.65	-40.1	-42.6	13.2	1.52e-05	0	61	0	1711276032	51	4898
2026-01-29 23:34:20.62	185.09	23.05	-40.0	-42.4	13.4	1.37e-05	0	61	0	1723858944	51	4769
2026-01-29 23:34:24.66	185.30	22.47	-39.8	-42.2	13.6	9.10e-06	0	61	0	1737490432	51	4656
2026-01-29 23:34:28.70	185.50	21.90	-39.8	-42.2	13.6	9.10e-06	0	61	0	1750073344	51	4659
2026-01-29 23:34:32.75	185.69	21.34	-39.8	-42.2	13.6	1.14e-05	0	61	0	1762656256	51	4661
2026-01-29 23:34:36.79	185.88	20.80	-39.8	-42.2	13.6	7.60e-06	0	61	0	1775239168	51	4662
2026-01-29 23:34:40.83	186.06	20.26	-39.8	-42.1	13.6	6.10e-06	0	61	0	1787822080	51	4637
2026-01-29 23:34:44.87	186.24	19.74	-40.0	-42.4	13.4	1.67e-05	0	61	0	1800404992	51	4768
2026-01-29 23:34:48.91	186.41	19.22	-40.3	-42.8	12.9	4.42e-05	0	61	0	1812987904	51	5023
2026-01-29 23:34:52.96	186.58	18.72	-40.4	-43.0	12.7	8.85e-05	0	61	0	1825570816	51	5152
2026-01-29 23:34:57.00	186.74	18.23	-40.5	-43.3	12.3	1.53e-04	0	61	0	1838153728	51	5315
2026-01-29 23:35:01.03	186.90	17.74	-40.5	-43.2	12.4	1.40e-04	0	61	0	1850736640	51	5273
2026-01-29 23:35:05.08	187.05	17.27	-40.6	-43.4	12.3	1.70e-04	0	61	0	1863319552	51	5342
2026-01-29 23:35:09.12	187.20	16.80	-40.7	-43.5	12.1	2.68e-04	0	61	0	1875902464	51	5459
2026-01-29 23:35:13.16	187.34	16.35	-40.6	-43.5	12.1	2.66e-04	0	61	0	1888485376	52	5102
2026-01-29 23:35:17.20	187.48	15.90	-40.5	-43.3	12.2	2.67e-04	0	61	0	1901068288	52	5015
2026-01-29 23:35:21.24	187.62	15.46	-40.6	-43.4	12.0	3.53e-04	0	61	0	1913651200	52	5088
2026-01-29 23:35:25.28	187.75	15.02	-40.4	-43.2	12.3	2.15e-04	0	61	0	1926234112	52	4958
2026-01-29 23:35:29.33	187.88	14.60	-40.5	-43.4	12.1	2.95e-04	0	61	0	1938817024	52	5047
2026-01-29 23:35:33.37	188.01	14.18	-40.6	-43.4	12.0	3.72e-04	0	61	0	1951399936	52	5091
2026-01-29 23:35:37.41	188.13	13.77	-40.5	-43.4	12.0	3.66e-04	0	61	0	1963982848	52	5050
2026-01-29 23:35:41.45	188.25	13.36	-40.6	-43.5	11.9	3.98e-04	0	61	0	1976565760	52	5141
2026-01-29 23:35:45.49	188.37	12.97	-40.6	-43.5	11.8	4.34e-04	0	61	0	1989148672	52	5131
2026-01-29 23:35:49.53	188.48	12.57	-40.5	-43.4	11.9	4.14e-04	0	61	0	2002780160	52	5064
2026-01-29 23:35:53.58	188.59	12.19	-40.5	-43.4	11.9	4.59e-04	0	61	0	2014314496	52	5098
2026-01-29 23:35:57.61	188.70	11.81	-40.6	-43.6	11.7	7.61e-04	0	61	0	2027945984	52	5166
2026-01-29 23:36:01.65	188.81	11.44	-40.6	-43.6	11.6	7.09e-04	0	61	0	2040528896	52	5211
2026-01-29 23:36:05.69	188.91	11.07	-40.6	-43.6	11.6	8.91e-04	0	61	0	2053111808	52	5203
2026-01-29 23:36:09.73	189.01	10.70	-40.7	-43.8	11.4	9.67e-04	0	61	0	2065694720	52	5311
2026-01-29 23:36:13.77	189.11	10.35	-40.7	-43.9	11.3	9.00e-04	0	61	0	2078277632	52	5342
2026-01-29 23:36:17.81	189.21	9.99	-40.8	-44.0	11.1	1.08e-03	0	61	0	2090860544	52	5427
2026-01-29 23:36:21.84	189.31	9.65	-40.8	-44.0	11.1	1.61e-03	0	61	0	2103443456	52	5427
2026-01-29 23:36:25.89	189.40	9.30	-40.8	-44.0	11.0	2.31e-03	0	61	0	2116026368	52	5461
2026-01-29 23:36:29.93	189.49	8.97	-40.8	-44.2	10.8	2.47e-03	0	61	0	2128609280	52	5575
2026-01-29 23:36:33.97	189.58	8.63	-41.0	-44.5	10.5	4.08e-03	0	61	0	2141192192	52	5756
2026-01-29 23:36:38.01	189.67	8.30	-40.9	-44.4	10.5	3.78e-03	0	61	0	2153775104	52	5696
2026-01-29 23:36:42.06	189.76	7.98	-44.2	-56.1	3.8	1.17e+00	0	61	104	2165309440	58	15512
2026-01-29 23:36:46.10	189.84	7.65	-44.9	-57.4	3.8	1.49e+00	0	61	104	2165309440	60	16102
2026-01-29 23:36:50.14	189.92	7.34	-45.1	-57.7	3.8	1.49e+00	0	61	104	2165309440	61	15704
2026-01-29 23:36:54.18	190.01	7.02	-45.0	-57.6	3.8	1.49e+00	0	61	104	2165309440	61	15500
2026-01-29 23:36:58.22	190.09	6.71	-44.9	-57.5	3.8	1.49e+00	0	61	104	2165309440	61	15371
2026-01-29 23:37:02.27	190.16	6.41	-44.9	-57.5	3.8	1.49e+00	0	61	104	2165309440	61	15266
2026-01-29 23:37:06.31	190.24	6.11	-44.8	-57.5	3.8	1.49e+00	0	61	104	2165309440	61	15262
2026-01-29 23:37:10.35	190.32	5.81	-44.8	-57.4	3.8	1.49e+00	0	62	104	2165309440	61	15193
2026-01-29 23:37:14.39	190.39	5.51	-44.8	-57.4	3.8	1.49e+00	0	61	104	2165309440	61	15208
2026-01-29 23:37:18.43	190.46	5.22	-44.8	-57.5	3.8	1.49e+00	0	61	104	2165309440	61	15227
2026-01-29 23:37:22.47	190.54	4.93	-44.8	-57.4	3.8	1.49e+00	0	61	104	2165309440	61	15181
2026-01-29 23:37:26.51	190.61	4.64	-44.8	-57.5	3.8	1.49e+00	0	61	104	2165309440	61	15237
2026-01-29 23:37:30.55	190.68	4.36	-44.8	-57.4	3.8	1.49e+00	0	61	104	2165309440	61	15148
2026-01-29 23:37:34.59	190.75	4.08	-44.8	-57.4	3.8	1.49e+00	0	61	104	2165309440	61	15074
2026-01-29 23:37:38.64	190.81	3.80	-44.8	-57.4	3.8	1.49e+00	0	61	104	2165309440	61	15178
2026-01-29 23:37:42.68	190.88	3.53	-44.8	-57.4	3.8	1.49e+00	0	61	104	2165309440	61	15078
2026-01-29 23:37:46.72	190.94	3.26	-44.8	-57.4	3.8	1.49e+00	0	61	104	2165309440	61	15089
2026-01-29 23:37:50.76	191.01	2.99	-44.7	-57.4	3.8	1.49e+00	0	62	104	2165309440	61	15096
2026-01-29 23:37:54.81	191.07	2.72	-44.8	-57.4	3.8	1.49e+00	0	61	104	2165309440	61	15103
2026-01-29 23:37:58.85	191.14	2.46	-44.8	-57.4	3.8	1.49e+00	0	61	104	2165309440	61	15131
2026-01-29 23:38:02.87	191.20	2.20	-44.7	-57.4	3.8	1.49e+00	0	61	104	2165309440	61	15083
2026-01-29 23:38:06.91	191.26	1.94	-44.7	-57.3	3.8	1.49e+00	0	61	104	2165309440	61	15044

#Closed at: 2026-01-29 23:38:08
#Recorded file [2165 MB]: D:/lorett/data/31039_260130_022341.dat