passes_logs/2026/01/29/R2.0S_Moscow/R2.0S_Moscow__20260129_082401_SUOMI_NPP_rec.log

#Pass ID: 20260129_082401_SUOMI NPP
#Satellite: SUOMI NPP
#Configuration: NPP
#almurnet v.1.7.20251203
#Start time: 2026-01-29 08:24:01

#Version: 2.2.20231116
#Station: R2.0S_Moscow
#Location: 37.707566 lon 55.798166 lat
#TLE: 1 37849U 11061A   26027.93236865  .00000148  00000+0  91411-4 0  9991
#TLE: 2 37849  98.7823 329.8704 0002085  41.3231 318.8102 14.19530777738546

#Time	Az	El	Level	Level2	SNR	BER	BlckErr	Temp	State	Recorded	gain1	gain2
2026-01-29 08:24:01.44	113.71	1.99	-36.2	-54.7	4.0	1.49e+00	0	48	0	0	48	23402
2026-01-29 08:24:04.46	113.51	2.16	-35.1	-53.2	3.8	1.49e+00	0	49	104	0	38	35016
2026-01-29 08:24:07.49	113.32	2.33	-33.8	-54.9	3.8	1.49e+00	0	49	104	0	37	45092
2026-01-29 08:24:10.52	113.12	2.51	-32.9	-53.5	3.7	1.49e+00	0	49	104	0	45	24240
2026-01-29 08:24:13.55	112.91	2.68	-33.7	-52.5	4.1	1.49e+00	0	49	104	0	36	36431
2026-01-29 08:24:16.58	112.71	2.86	-33.2	-53.4	4.2	1.49e+00	0	50	104	0	45	24119
2026-01-29 08:24:19.61	112.50	3.04	-37.4	-54.8	4.0	1.49e+00	0	50	104	0	46	26759
2026-01-29 08:24:22.64	112.29	3.21	-33.8	-53.6	4.1	1.49e+00	0	50	104	0	39	34875
2026-01-29 08:24:25.67	112.08	3.39	-38.1	-54.4	3.9	1.49e+00	0	50	104	0	45	26925
2026-01-29 08:24:28.70	111.86	3.57	-34.8	-53.6	3.7	1.49e+00	0	50	104	0	42	29230
2026-01-29 08:24:31.73	111.64	3.75	-32.1	-51.6	3.9	1.49e+00	0	51	104	0	38	29299
2026-01-29 08:24:34.76	111.42	3.93	-33.1	-53.9	3.5	1.49e+00	0	51	104	0	39	35908
2026-01-29 08:24:37.79	111.20	4.11	-38.6	-54.9	3.9	1.49e+00	0	51	104	0	50	21321
2026-01-29 08:24:40.82	110.97	4.29	-33.6	-53.7	3.9	1.49e+00	0	51	104	0	44	26236
2026-01-29 08:24:43.86	110.74	4.47	-40.7	-56.0	4.0	1.49e+00	0	51	104	0	50	24308
2026-01-29 08:24:46.89	110.50	4.66	-34.6	-54.1	3.9	1.49e+00	0	52	104	0	39	36750
2026-01-29 08:24:49.91	110.27	4.84	-36.6	-54.8	3.9	1.49e+00	0	52	104	0	46	26494
2026-01-29 08:24:52.94	110.03	5.03	-35.5	-52.9	4.2	1.49e+00	0	52	104	0	46	21350
2026-01-29 08:24:55.97	109.79	5.21	-32.2	-53.4	4.1	1.49e+00	0	52	104	0	39	34058
2026-01-29 08:24:59.00	109.54	5.40	-37.8	-54.4	4.0	1.49e+00	0	52	104	0	48	22625
2026-01-29 08:25:02.03	109.29	5.59	-39.8	-55.4	4.0	1.49e+00	0	52	104	0	43	33975
2026-01-29 08:25:05.06	109.04	5.78	-28.6	-51.3	3.9	1.49e+00	0	52	104	0	31	42093
2026-01-29 08:25:08.09	108.78	5.97	-35.7	-54.0	3.9	1.49e+00	0	53	104	0	43	28979
2026-01-29 08:25:11.12	108.53	6.16	-34.6	-53.2	4.0	1.49e+00	0	53	104	0	40	31304
2026-01-29 08:25:14.15	108.26	6.35	-32.3	-51.0	4.0	1.49e+00	0	53	104	0	30	43188
2026-01-29 08:25:17.18	108.00	6.54	-31.7	-51.9	3.8	1.50e+00	0	53	104	0	33	40430
2026-01-29 08:25:20.21	107.73	6.73	-40.4	-55.4	3.8	1.49e+00	0	53	104	0	49	23944
2026-01-29 08:25:23.24	107.45	6.92	-32.5	-54.4	3.8	1.49e+00	0	53	104	0	43	30355
2026-01-29 08:25:26.27	107.18	7.12	-37.9	-54.6	4.0	1.49e+00	0	53	104	0	47	24462
2026-01-29 08:25:29.30	106.90	7.31	-38.5	-54.7	3.9	1.49e+00	0	53	104	0	50	20800
2026-01-29 08:25:32.33	106.61	7.51	-36.8	-54.3	3.5	1.49e+00	0	53	104	0	45	26638
2026-01-29 08:25:35.36	106.32	7.71	-30.4	-50.5	3.7	1.49e+00	0	54	104	0	37	27176
2026-01-29 08:25:38.39	106.03	7.90	-31.0	-50.4	3.9	1.49e+00	0	54	104	0	32	35821
2026-01-29 08:25:41.41	105.73	8.10	-33.2	-49.5	4.3	1.49e+00	0	54	104	0	34	28725
2026-01-29 08:25:44.44	105.43	8.30	-31.7	-48.1	4.6	1.44e+00	0	54	104	1048576	40	17481
2026-01-29 08:25:47.47	105.13	8.50	-36.5	-48.7	4.4	1.47e+00	0	54	104	1048576	35	24841
2026-01-29 08:25:50.50	104.82	8.70	-26.1	-45.5	4.1	1.49e+00	0	54	104	1048576	23	34106
2026-01-29 08:25:53.53	104.50	8.90	-34.3	-49.9	4.2	1.48e+00	0	54	104	2097152	40	21371
2026-01-29 08:25:56.56	104.19	9.11	-31.6	-48.9	4.5	1.40e+00	0	55	104	2097152	38	21315
2026-01-29 08:25:59.59	103.86	9.31	-33.8	-50.3	4.6	1.33e+00	0	55	104	2097152	38	24990
2026-01-29 08:26:02.61	103.54	9.51	-39.4	-48.9	6.3	3.93e-01	0	55	0	3145728	45	14293
2026-01-29 08:26:05.64	103.20	9.72	-30.4	-47.4	5.9	5.08e-01	0	55	0	8388608	38	17945
2026-01-29 08:26:08.67	102.87	9.92	-36.8	-46.5	5.9	7.62e-01	0	55	0	13631488	36	18202
2026-01-29 08:26:11.69	102.53	10.13	-34.3	-48.7	4.5	1.49e+00	0	55	104	15728640	38	20885
2026-01-29 08:26:14.72	102.18	10.34	-25.8	-46.4	3.9	1.50e+00	0	55	104	15728640	22	40093
2026-01-29 08:26:17.74	101.83	10.54	-23.8	-43.9	4.0	1.49e+00	0	55	104	15728640	18	37953
2026-01-29 08:26:20.77	101.47	10.75	-26.7	-45.1	4.6	1.49e+00	0	55	104	15728640	26	27541
2026-01-29 08:26:23.80	101.11	10.96	-30.8	-46.1	4.1	1.50e+00	0	55	104	15728640	22	39042
2026-01-29 08:26:26.83	100.74	11.17	-24.7	-46.8	4.3	1.48e+00	0	55	104	15728640	28	29831
2026-01-29 08:26:29.86	100.37	11.38	-26.1	-48.8	3.9	1.49e+00	0	55	104	15728640	22	53399
2026-01-29 08:26:32.89	99.99	11.59	-29.0	-44.3	4.0	1.49e+00	0	55	104	15728640	20	35690
2026-01-29 08:26:35.92	99.60	11.80	-21.2	-43.8	4.1	1.46e+00	0	55	104	15728640	17	39681
2026-01-29 08:26:38.95	99.21	12.02	-21.5	-44.1	4.3	1.50e+00	0	55	104	15728640	16	43712
2026-01-29 08:26:41.97	98.82	12.23	-26.3	-44.2	4.2	1.49e+00	0	56	104	15728640	27	23540
2026-01-29 08:26:45.00	98.42	12.44	-26.8	-45.3	4.3	9.91e-01	0	56	0	16777216	26	28097
2026-01-29 08:26:48.03	98.01	12.66	-29.9	-45.9	4.0	1.49e+00	0	56	104	16777216	24	33975
2026-01-29 08:26:51.06	97.60	12.87	-24.3	-45.4	4.0	1.50e+00	0	56	104	16777216	19	42588
2026-01-29 08:26:54.09	97.18	13.09	-23.1	-45.7	3.9	1.48e+00	0	56	104	16777216	17	49818
2026-01-29 08:26:57.12	96.75	13.30	-27.1	-48.3	4.0	1.49e+00	0	56	104	16777216	25	42097
2026-01-29 08:27:00.15	96.32	13.52	-41.8	-47.6	9.3	5.63e-02	0	56	0	18874368	53	7724
2026-01-29 08:27:03.18	95.88	13.73	-40.7	-47.0	9.3	7.06e-02	0	56	0	24117248	49	9168
2026-01-29 08:27:06.21	95.44	13.95	-41.7	-47.0	10.0	5.11e-03	0	56	0	30408704	54	6870
2026-01-29 08:27:09.24	94.99	14.16	-41.9	-46.9	10.2	7.65e-03	0	56	0	35651584	54	6762
2026-01-29 08:27:12.26	94.53	14.38	-41.9	-46.8	10.3	4.66e-03	0	56	0	40894464	54	6688
2026-01-29 08:27:15.30	94.06	14.59	-42.2	-47.5	9.6	1.20e-02	0	56	0	47185920	55	6860
2026-01-29 08:27:18.33	93.59	14.81	-42.2	-47.5	9.6	1.39e-02	0	56	0	52428800	55	6876
2026-01-29 08:27:21.36	93.11	15.03	-42.0	-47.0	10.1	7.79e-03	0	56	0	58720256	55	6460
2026-01-29 08:27:24.38	92.63	15.24	-42.0	-47.1	10.1	5.83e-03	0	56	0	63963136	55	6508
2026-01-29 08:27:27.41	92.13	15.46	-42.0	-47.0	10.1	6.68e-03	0	56	0	70254592	55	6460
2026-01-29 08:27:30.44	91.63	15.67	-42.0	-46.9	10.3	5.67e-03	0	56	0	75497472	55	6359
2026-01-29 08:27:33.47	91.13	15.89	-41.9	-46.9	10.2	6.27e-03	0	56	0	80740352	55	6376
2026-01-29 08:27:36.50	90.61	16.10	-41.7	-46.6	10.4	4.87e-03	0	56	0	87031808	55	6133
2026-01-29 08:27:39.53	90.09	16.32	-42.0	-47.4	9.5	1.42e-02	0	56	0	92274688	55	6744
2026-01-29 08:27:42.56	89.56	16.53	-42.0	-47.5	9.3	1.82e-02	0	57	0	98566144	55	6824
2026-01-29 08:27:45.59	89.02	16.74	-42.1	-48.3	8.3	4.85e-02	0	57	0	103809024	55	7534
2026-01-29 08:27:48.62	88.47	16.95	-41.7	-48.2	7.9	6.18e-02	0	57	0	109051904	55	7449
2026-01-29 08:27:51.65	87.92	17.17	-41.5	-49.0	6.6	1.49e-01	0	57	0	115343360	54	8577
2026-01-29 08:27:54.68	87.36	17.38	-41.2	-47.7	7.7	9.43e-02	0	57	0	120586240	54	7419
2026-01-29 08:27:57.71	86.79	17.59	-41.4	-47.8	8.0	6.22e-02	0	57	0	126877696	54	7472
2026-01-29 08:28:00.74	86.21	17.79	-41.4	-47.5	8.4	4.07e-02	0	57	0	132120576	54	7271
2026-01-29 08:28:03.77	85.63	18.00	-41.1	-47.2	8.4	4.80e-02	0	57	0	138412032	54	6992
2026-01-29 08:28:06.79	85.04	18.20	-41.0	-46.8	8.9	3.40e-02	0	57	0	143654912	54	6657
2026-01-29 08:28:09.82	84.44	18.41	-41.1	-45.9	10.3	5.80e-03	0	57	0	148897792	53	6391
2026-01-29 08:28:12.85	83.83	18.61	-41.3	-45.8	11.1	1.84e-03	0	57	0	155189248	53	6333
2026-01-29 08:28:15.88	83.21	18.81	-41.0	-45.2	11.7	6.69e-04	0	57	0	160432128	53	5888
2026-01-29 08:28:18.91	82.58	19.01	-40.9	-45.1	11.6	6.19e-04	0	57	0	166723584	53	5848
2026-01-29 08:28:21.94	81.95	19.21	-41.0	-45.6	10.9	1.67e-03	0	57	0	171966464	53	6172
2026-01-29 08:28:24.97	81.31	19.40	-41.1	-46.1	10.1	4.40e-03	0	57	0	177209344	53	6495
2026-01-29 08:28:28.00	80.66	19.59	-41.2	-46.9	9.0	2.04e-02	0	57	0	183500800	53	7122
2026-01-29 08:28:31.03	80.00	19.78	-40.9	-46.0	9.8	1.08e-02	0	57	0	188743680	53	6485
2026-01-29 08:28:34.06	79.33	19.97	-40.9	-45.4	11.0	3.02e-03	0	57	0	195035136	53	6040
2026-01-29 08:28:37.09	78.66	20.15	-41.1	-45.5	11.2	1.21e-03	0	57	0	200278016	53	6086
2026-01-29 08:28:40.12	77.97	20.33	-40.8	-45.2	11.2	1.25e-03	0	57	0	206569472	53	5917
2026-01-29 08:28:43.15	77.28	20.51	-40.7	-45.0	11.6	6.91e-04	0	57	0	211812352	53	5739
2026-01-29 08:28:46.18	76.58	20.69	-40.6	-44.4	12.4	1.77e-04	0	57	0	217055232	53	5374
2026-01-29 08:28:49.21	75.88	20.86	-40.8	-44.6	12.5	1.25e-04	0	57	0	223346688	53	5476
2026-01-29 08:28:52.24	75.16	21.03	-40.7	-44.3	12.9	6.10e-05	0	57	0	228589568	53	5336
2026-01-29 08:28:55.27	74.44	21.19	-40.8	-44.5	12.7	1.04e-04	0	57	0	234881024	53	5445
2026-01-29 08:28:58.30	73.71	21.35	-41.0	-44.8	12.5	1.11e-04	0	57	0	240123904	53	5614
2026-01-29 08:29:01.32	72.97	21.51	-40.9	-44.8	12.4	1.38e-04	0	57	0	245366784	53	5632
2026-01-29 08:29:04.35	72.23	21.66	-40.8	-44.5	12.5	9.00e-05	0	57	0	251658240	53	5463
2026-01-29 08:29:07.38	71.48	21.81	-40.7	-44.3	13.0	8.39e-05	0	58	0	256901120	53	5290
2026-01-29 08:29:10.41	70.72	21.95	-40.7	-44.0	13.6	6.10e-06	0	58	0	263192576	53	5114
2026-01-29 08:29:13.44	69.95	22.09	-40.6	-43.9	13.7	1.22e-05	0	57	0	268435456	53	5057
2026-01-29 08:29:16.47	69.18	22.23	-40.6	-43.9	13.8	4.50e-06	0	57	0	274726912	53	5054
2026-01-29 08:29:19.50	68.40	22.36	-41.0	-44.4	13.2	1.37e-05	0	57	0	279969792	53	5390
2026-01-29 08:29:22.53	67.61	22.48	-41.3	-45.1	12.5	1.13e-04	0	58	0	285212672	53	5805
2026-01-29 08:29:25.56	66.82	22.60	-41.8	-46.2	11.4	5.93e-04	0	58	0	291504128	54	6241
2026-01-29 08:29:28.59	66.02	22.72	-41.9	-46.4	11.2	1.85e-03	0	57	0	296747008	54	6394
2026-01-29 08:29:31.62	65.21	22.82	-41.7	-46.0	11.6	8.62e-04	0	57	0	303038464	54	6091
2026-01-29 08:29:34.64	64.41	22.93	-41.6	-45.6	12.0	2.81e-04	0	58	0	308281344	54	5853
2026-01-29 08:29:37.67	63.59	23.02	-41.5	-45.5	12.1	2.39e-04	0	58	0	313524224	54	5771
2026-01-29 08:29:40.70	62.77	23.11	-41.5	-45.4	12.2	2.18e-04	0	58	0	319815680	54	5722
2026-01-29 08:29:43.73	61.95	23.20	-41.9	-46.3	11.3	7.77e-04	0	58	0	325058560	54	6323
2026-01-29 08:29:46.76	61.12	23.28	-41.7	-45.8	11.8	5.23e-04	0	58	0	331350016	54	5972
2026-01-29 08:29:49.79	60.29	23.35	-42.0	-46.5	11.2	7.09e-04	0	58	0	336592896	54	6430
2026-01-29 08:29:52.81	59.45	23.42	-41.9	-46.4	11.3	1.32e-03	0	58	0	342884352	54	6378
2026-01-29 08:29:55.84	58.61	23.48	-41.9	-46.3	11.4	1.38e-03	0	58	0	348127232	54	6283
2026-01-29 08:29:58.87	57.77	23.53	-42.1	-46.8	10.9	1.44e-03	0	58	0	353370112	54	6662
2026-01-29 08:30:01.90	56.93	23.57	-42.3	-47.3	10.4	5.72e-03	0	58	0	359661568	55	6707
2026-01-29 08:30:04.93	56.08	23.61	-42.2	-47.0	10.7	4.67e-03	0	58	0	364904448	55	6432
2026-01-29 08:30:07.96	55.23	23.65	-41.8	-46.0	11.7	1.08e-03	0	58	0	371195904	55	5786
2026-01-29 08:30:10.99	54.38	23.67	-41.4	-45.1	12.7	8.69e-05	0	58	0	376438784	54	5510
2026-01-29 08:30:14.02	53.53	23.69	-41.7	-45.8	12.0	2.45e-04	0	58	0	381681664	54	5961
2026-01-29 08:30:17.05	52.67	23.71	-41.7	-45.9	11.9	4.04e-04	0	58	0	387973120	54	6022
2026-01-29 08:30:20.08	51.82	23.71	-41.7	-45.8	12.0	2.17e-04	0	58	0	393216000	54	5931
2026-01-29 08:30:23.11	50.97	23.71	-41.7	-45.7	12.0	2.55e-04	0	58	0	399507456	54	5919
2026-01-29 08:30:26.14	50.11	23.70	-41.5	-45.4	12.4	1.52e-04	0	58	0	404750336	54	5662
2026-01-29 08:30:29.17	49.26	23.69	-41.4	-45.1	12.6	8.23e-05	0	58	0	411041792	54	5523
2026-01-29 08:30:32.20	48.41	23.67	-41.4	-45.1	12.7	7.62e-05	0	58	0	416284672	54	5516
2026-01-29 08:30:35.23	47.56	23.64	-41.4	-45.0	12.8	9.53e-05	0	58	0	421527552	54	5430
2026-01-29 08:30:38.25	46.71	23.60	-40.9	-44.1	13.8	9.10e-06	0	58	0	427819008	53	5185
2026-01-29 08:30:41.28	45.87	23.56	-40.7	-43.8	14.0	3.00e-06	0	58	0	433061888	53	5020
2026-01-29 08:30:44.31	45.02	23.51	-40.3	-43.1	14.8	0.00e+00	0	58	0	439353344	52	4890
2026-01-29 08:30:47.34	44.18	23.46	-40.4	-43.3	14.6	1.50e-06	0	58	0	444596224	52	5009
2026-01-29 08:30:50.37	43.34	23.40	-40.8	-44.0	13.9	2.20e-06	0	58	0	449839104	52	5417
2026-01-29 08:30:53.39	42.51	23.33	-40.8	-44.0	13.9	3.80e-06	0	58	0	456130560	52	5414
2026-01-29 08:30:56.42	41.68	23.26	-40.9	-44.1	13.7	9.10e-06	0	58	0	461373440	52	5482
2026-01-29 08:30:59.45	40.86	23.18	-40.9	-44.2	13.6	8.30e-06	0	58	0	467664896	52	5558
2026-01-29 08:31:02.48	40.04	23.09	-41.3	-44.8	13.0	5.56e-05	0	58	0	472907776	53	5617
2026-01-29 08:31:05.51	39.22	23.00	-41.3	-44.9	12.9	4.65e-05	0	58	0	479199232	53	5660
2026-01-29 08:31:08.54	38.41	22.90	-41.2	-44.7	13.1	3.81e-05	0	58	0	484442112	53	5559
2026-01-29 08:31:11.57	37.60	22.79	-41.6	-45.6	12.2	1.06e-04	0	58	0	489684992	53	6156
2026-01-29 08:31:14.60	36.80	22.69	-41.8	-46.0	11.7	6.06e-04	0	58	0	495976448	54	6111
2026-01-29 08:31:17.63	36.01	22.57	-41.9	-46.3	11.4	7.09e-04	0	58	0	501219328	54	6314
2026-01-29 08:31:20.66	35.22	22.45	-42.0	-46.5	11.2	1.63e-03	0	58	0	507510784	54	6471
2026-01-29 08:31:23.69	34.43	22.32	-41.9	-46.2	11.5	9.66e-04	0	58	0	512753664	54	6257
2026-01-29 08:31:26.72	33.66	22.19	-41.8	-46.1	11.6	6.79e-04	0	58	0	517996544	54	6179
2026-01-29 08:31:29.75	32.89	22.06	-42.2	-46.9	10.8	1.76e-03	0	58	0	524288000	54	6735
2026-01-29 08:31:32.77	32.13	21.92	-41.9	-46.2	11.5	8.99e-04	0	58	0	529530880	54	6260
2026-01-29 08:31:35.80	31.37	21.77	-42.0	-46.4	11.3	9.63e-04	0	58	0	535822336	54	6419
2026-01-29 08:31:38.83	30.63	21.62	-41.8	-46.0	11.8	5.01e-04	0	58	0	541065216	54	6065
2026-01-29 08:31:41.86	29.89	21.47	-42.2	-47.0	10.6	2.41e-03	0	58	0	547356672	54	6843
2026-01-29 08:31:44.89	29.15	21.31	-42.2	-46.9	10.7	3.35e-03	0	58	0	552599552	55	6397
2026-01-29 08:31:47.92	28.43	21.15	-41.9	-46.3	11.4	9.09e-04	0	58	0	557842432	55	5944
2026-01-29 08:31:50.95	27.71	20.99	-42.1	-46.9	10.7	2.16e-03	0	58	0	564133888	55	6400
2026-01-29 08:31:53.98	27.00	20.82	-42.5	-47.9	9.7	1.26e-02	0	58	0	569376768	55	7193
2026-01-29 08:31:57.01	26.30	20.65	-42.0	-46.7	11.0	1.85e-03	0	59	0	575668224	55	6249
2026-01-29 08:32:00.04	25.60	20.47	-41.8	-46.1	11.7	6.57e-04	0	59	0	580911104	55	5810
2026-01-29 08:32:03.07	24.92	20.29	-41.6	-45.7	12.0	2.43e-04	0	58	0	586153984	55	5529
2026-01-29 08:32:06.10	24.24	20.11	-41.3	-45.1	12.6	1.04e-04	0	59	0	592445440	54	5481
2026-01-29 08:32:09.13	23.57	19.93	-40.8	-44.2	13.5	1.83e-05	0	58	0	597688320	53	5251
2026-01-29 08:32:12.16	22.91	19.74	-40.5	-43.7	14.0	2.20e-06	0	59	0	603979776	53	4946
2026-01-29 08:32:15.19	22.26	19.55	-40.8	-44.3	13.4	8.30e-06	0	58	0	609222656	53	5280
2026-01-29 08:32:18.22	21.61	19.36	-41.4	-45.3	12.3	1.54e-04	0	59	0	614465536	53	5950
2026-01-29 08:32:21.24	20.98	19.17	-41.8	-46.3	11.4	5.86e-04	0	58	0	620756992	54	6313
2026-01-29 08:32:24.27	20.35	18.97	-41.7	-45.9	11.8	6.35e-04	0	58	0	625999872	54	6001
2026-01-29 08:32:27.30	19.73	18.77	-41.5	-45.5	12.2	1.88e-04	0	58	0	632291328	54	5738
2026-01-29 08:32:30.33	19.11	18.57	-41.2	-45.0	12.7	9.07e-05	0	58	0	637534208	54	5416
2026-01-29 08:32:33.37	18.51	18.37	-40.9	-44.4	13.3	2.82e-05	0	58	0	643825664	53	5381
2026-01-29 08:32:36.40	17.91	18.16	-41.4	-45.5	12.2	1.49e-04	0	59	0	649068544	53	6080
2026-01-29 08:32:39.43	17.33	17.96	-41.3	-45.2	12.4	2.20e-04	0	58	0	654311424	53	5915
2026-01-29 08:32:42.45	16.75	17.75	-41.3	-45.2	12.5	1.07e-04	0	58	0	660602880	53	5872
2026-01-29 08:32:45.48	16.18	17.55	-41.6	-45.9	11.7	4.90e-04	0	59	0	665845760	53	6370
2026-01-29 08:32:48.51	15.61	17.34	-41.4	-45.3	12.3	2.09e-04	0	59	0	672137216	53	5949
2026-01-29 08:32:51.55	15.06	17.13	-41.0	-44.6	13.0	4.19e-05	0	58	0	677380096	53	5488
2026-01-29 08:32:54.57	14.51	16.92	-40.9	-44.4	13.2	3.05e-05	0	58	0	682622976	53	5382
2026-01-29 08:32:57.61	13.97	16.71	-41.2	-44.9	12.8	4.42e-05	0	58	0	688914432	53	5661
2026-01-29 08:33:00.63	13.44	16.50	-41.4	-45.3	12.3	1.67e-04	0	58	0	694157312	53	5926
2026-01-29 08:33:03.67	12.91	16.28	-41.1	-44.6	12.9	5.64e-05	0	58	0	700448768	53	5517
2026-01-29 08:33:06.69	12.39	16.07	-40.6	-43.9	13.8	1.60e-05	0	59	0	705691648	53	5044
2026-01-29 08:33:09.73	11.88	15.85	-40.8	-44.2	13.4	1.14e-05	0	59	0	711983104	53	5224
2026-01-29 08:33:12.76	11.38	15.64	-41.0	-44.6	13.0	4.42e-05	0	59	0	717225984	53	5468
2026-01-29 08:33:15.78	10.89	15.43	-41.2	-44.9	12.6	9.15e-05	0	59	0	722468864	53	5691
2026-01-29 08:33:18.81	10.40	15.21	-40.8	-44.3	13.2	2.89e-05	0	59	0	728760320	53	5317
2026-01-29 08:33:21.85	9.92	15.00	-40.6	-43.9	13.6	8.30e-06	0	59	0	734003200	53	5059
2026-01-29 08:33:24.88	9.44	14.78	-41.0	-44.6	12.8	5.26e-05	0	59	0	740294656	53	5487
2026-01-29 08:33:27.91	8.98	14.57	-41.4	-45.6	11.8	4.60e-04	0	59	0	745537536	53	6181
2026-01-29 08:33:30.94	8.52	14.35	-41.4	-45.7	11.6	6.83e-04	0	59	0	750780416	53	6209
2026-01-29 08:33:33.97	8.06	14.14	-41.1	-45.1	12.1	3.00e-04	0	59	0	757071872	53	5812
2026-01-29 08:33:37.00	7.62	13.92	-40.8	-44.6	12.5	1.44e-04	0	59	0	762314752	53	5466
2026-01-29 08:33:40.02	7.18	13.71	-40.8	-44.9	11.9	2.25e-04	0	59	0	768606208	53	5699
2026-01-29 08:33:43.05	6.75	13.49	-40.8	-45.1	11.5	5.48e-04	0	59	0	773849088	53	5820
2026-01-29 08:33:46.08	6.32	13.28	-41.3	-46.6	9.7	9.32e-03	0	59	0	780140544	53	6904
2026-01-29 08:33:49.11	5.90	13.06	-41.1	-46.5	9.5	1.16e-02	0	59	0	785383424	53	6870
2026-01-29 08:33:52.14	5.48	12.85	-40.4	-45.2	10.5	6.88e-03	0	59	0	790626304	52	6229
2026-01-29 08:33:55.17	5.07	12.64	-39.4	-43.8	11.3	4.49e-04	0	59	0	796917760	50	5956
2026-01-29 08:33:58.20	4.67	12.43	-40.6	-48.9	5.8	1.91e-01	0	59	0	802160640	51	10085
2026-01-29 08:34:01.22	4.28	12.21	-40.6	-54.1	3.8	1.49e+00	0	59	104	804257792	52	17361
2026-01-29 08:34:04.25	3.89	12.00	-40.1	-54.5	3.8	1.49e+00	0	59	104	804257792	52	18141
2026-01-29 08:34:07.28	3.50	11.79	-39.9	-54.4	3.8	1.49e+00	0	59	104	804257792	51	18979
2026-01-29 08:34:10.31	3.12	11.58	-39.9	-54.3	3.8	1.49e+00	0	59	104	804257792	51	18887
2026-01-29 08:34:13.34	2.75	11.37	-40.3	-54.6	3.8	1.49e+00	0	59	104	804257792	51	19545
2026-01-29 08:34:16.37	2.38	11.16	-39.9	-54.3	3.8	1.49e+00	0	59	104	804257792	51	18817
2026-01-29 08:34:19.40	2.02	10.95	-39.9	-54.3	3.8	1.49e+00	0	59	104	804257792	51	18789
2026-01-29 08:34:22.43	1.66	10.74	-39.9	-54.3	3.8	1.49e+00	0	59	104	804257792	51	18892
2026-01-29 08:34:25.46	1.31	10.54	-39.9	-54.3	3.8	1.49e+00	0	59	104	804257792	51	18804
2026-01-29 08:34:28.49	0.96	10.33	-39.8	-54.2	3.8	1.49e+00	0	59	104	804257792	51	18729
2026-01-29 08:34:31.52	0.62	10.12	-39.8	-54.2	3.8	1.49e+00	0	59	104	804257792	51	18704
2026-01-29 08:34:34.55	0.28	9.92	-39.9	-54.2	3.8	1.49e+00	0	59	104	804257792	51	18729
2026-01-29 08:34:37.58	359.95	9.71	-39.8	-54.3	3.8	1.49e+00	0	59	104	804257792	51	18737
2026-01-29 08:34:40.61	359.62	9.51	-39.8	-54.2	3.8	1.49e+00	0	59	104	804257792	51	18673
2026-01-29 08:34:43.64	359.30	9.31	-39.8	-54.2	3.8	1.49e+00	0	59	104	804257792	51	18688
2026-01-29 08:34:46.67	358.98	9.10	-39.8	-54.3	3.8	1.49e+00	0	59	104	804257792	51	18761
2026-01-29 08:34:49.70	358.66	8.90	-39.8	-54.2	3.8	1.49e+00	0	59	104	804257792	51	18588
2026-01-29 08:34:52.73	358.35	8.70	-39.8	-54.2	3.8	1.49e+00	0	59	104	804257792	51	18631
2026-01-29 08:34:55.76	358.05	8.50	-39.7	-54.1	3.8	1.49e+00	0	59	104	804257792	51	18473
2026-01-29 08:34:58.79	357.75	8.30	-39.8	-54.2	3.8	1.49e+00	0	59	104	804257792	51	18536
2026-01-29 08:35:01.82	357.45	8.10	-39.8	-54.2	3.8	1.49e+00	0	59	104	804257792	51	18544
2026-01-29 08:35:04.85	357.16	7.91	-41.0	-55.4	3.8	1.49e+00	0	59	104	804257792	52	20072
2026-01-29 08:35:07.88	356.87	7.71	-44.9	-59.7	3.8	1.49e+00	0	59	104	804257792	60	20836
2026-01-29 08:35:10.91	356.59	7.51	-45.2	-60.0	3.8	1.49e+00	0	59	104	804257792	60	21549
2026-01-29 08:35:13.94	356.31	7.32	-45.0	-59.9	3.8	1.49e+00	0	59	104	804257792	60	21469
2026-01-29 08:35:16.97	356.03	7.13	-44.9	-59.8	3.8	1.49e+00	0	59	104	804257792	60	21221
2026-01-29 08:35:20.01	355.76	6.93	-44.8	-59.7	3.8	1.49e+00	0	59	104	804257792	60	20902
2026-01-29 08:35:23.04	355.49	6.74	-44.8	-59.7	3.8	1.49e+00	0	59	104	804257792	60	20793
2026-01-29 08:35:26.07	355.22	6.55	-44.7	-59.6	3.8	1.49e+00	0	59	104	804257792	60	20769
2026-01-29 08:35:29.10	354.96	6.36	-44.8	-59.6	3.8	1.49e+00	0	59	104	804257792	60	20633
2026-01-29 08:35:32.13	354.70	6.17	-44.8	-59.6	3.8	1.49e+00	0	59	104	804257792	60	20719
2026-01-29 08:35:35.16	354.45	5.98	-44.7	-59.6	3.8	1.49e+00	0	59	104	804257792	60	20650
2026-01-29 08:35:38.19	354.20	5.79	-44.7	-59.6	3.8	1.49e+00	0	59	104	804257792	60	20704
2026-01-29 08:35:41.22	353.95	5.60	-44.7	-59.6	3.8	1.49e+00	0	59	104	804257792	60	20601
2026-01-29 08:35:44.25	353.70	5.41	-44.7	-59.6	3.8	1.49e+00	0	59	104	804257792	60	20643
2026-01-29 08:35:47.29	353.46	5.23	-44.7	-59.6	3.8	1.49e+00	0	59	104	804257792	60	20596
2026-01-29 08:35:50.32	353.22	5.04	-44.7	-59.6	3.8	1.49e+00	0	59	104	804257792	60	20640
2026-01-29 08:35:53.35	352.99	4.86	-44.7	-59.6	3.8	1.49e+00	0	59	104	804257792	60	20670
2026-01-29 08:35:56.37	352.76	4.68	-44.7	-59.6	3.8	1.49e+00	0	59	104	804257792	60	20657
2026-01-29 08:35:59.40	352.53	4.49	-44.7	-59.6	3.8	1.49e+00	0	59	104	804257792	60	20610
2026-01-29 08:36:02.43	352.30	4.31	-44.7	-59.6	3.8	1.49e+00	0	59	104	804257792	60	20660
2026-01-29 08:36:05.46	352.08	4.13	-44.7	-59.6	3.8	1.49e+00	0	59	104	804257792	60	20607
2026-01-29 08:36:08.49	351.86	3.95	-44.7	-59.6	3.8	1.49e+00	0	59	104	804257792	60	20597
2026-01-29 08:36:11.52	351.64	3.77	-44.7	-59.6	3.8	1.49e+00	0	59	104	804257792	60	20610
2026-01-29 08:36:14.55	351.43	3.59	-44.7	-59.6	3.8	1.49e+00	0	59	104	804257792	60	20565
2026-01-29 08:36:17.58	351.22	3.41	-44.6	-59.6	3.8	1.49e+00	0	59	104	804257792	60	20606
2026-01-29 08:36:20.61	351.01	3.24	-44.7	-59.6	3.8	1.49e+00	0	59	104	804257792	60	20649
2026-01-29 08:36:23.64	350.80	3.06	-44.7	-59.6	3.8	1.49e+00	0	59	104	804257792	60	20598
2026-01-29 08:36:26.67	350.60	2.88	-44.7	-59.6	3.8	1.49e+00	0	59	104	804257792	60	20607
2026-01-29 08:36:29.70	350.40	2.71	-44.7	-59.6	3.8	1.49e+00	0	59	104	804257792	60	20589
2026-01-29 08:36:32.73	350.20	2.54	-44.7	-59.6	3.8	1.49e+00	0	59	104	804257792	60	20589
2026-01-29 08:36:35.76	350.00	2.36	-44.7	-59.6	3.8	1.49e+00	0	59	104	804257792	60	20599
2026-01-29 08:36:38.79	349.81	2.19	-44.7	-59.6	3.8	1.49e+00	0	59	104	804257792	60	20604
2026-01-29 08:36:41.82	349.62	2.02	-44.7	-59.6	3.8	1.49e+00	0	59	104	804257792	60	20574

#Closed at: 2026-01-29 08:36:42
#Recorded file [804 MB]: D:/lorett/data/31039_260129_112401.dat