passes_logs/2026/01/29/R2.0S_Moscow/R2.0S_Moscow__20260129_142154_FENGYUN_3E_rec.log

#Pass ID: 20260129_142154_FENGYUN 3E
#Satellite: FENGYUN 3E
#Configuration: FENGYUN 3E
#almurnet v.1.7.20251203
#Start time: 2026-01-29 14:21:54

#Version: 2.2.20231116
#Station: R2.0S_Moscow
#Location: 37.707566 lon 55.798166 lat
#TLE: 1 49008U 21062A   26028.95833242 -.00000015  00000+0  13843-4 0  9995
#TLE: 2 49008  98.7500  33.9242 0002547 112.2873 247.8573 14.19887818236829

#Time	Az	El	Level	Level2	SNR	BER	BlckErr	Temp	State	Recorded	gain1	gain2
2026-01-29 14:21:54.42	165.31	1.97	-44.4	-55.1	3.8	8.46e-01	0	51	0	0	59	12290
2026-01-29 14:21:58.46	165.35	2.23	-44.3	-55.1	3.8	8.46e-01	0	52	104	0	58	13037
2026-01-29 14:22:02.50	165.39	2.49	-44.3	-55.1	3.8	8.46e-01	0	52	104	0	58	13036
2026-01-29 14:22:06.54	165.43	2.76	-44.4	-55.1	3.8	8.46e-01	0	52	104	0	58	13041
2026-01-29 14:22:10.58	165.47	3.03	-44.3	-55.1	3.8	8.48e-01	0	53	104	0	58	13049
2026-01-29 14:22:14.63	165.51	3.30	-44.3	-55.1	3.8	8.47e-01	0	53	104	0	58	13019
2026-01-29 14:22:18.67	165.55	3.57	-44.3	-55.1	3.8	8.45e-01	0	53	104	0	58	13054
2026-01-29 14:22:22.71	165.59	3.85	-44.3	-55.1	3.8	8.46e-01	0	54	104	0	58	12987
2026-01-29 14:22:26.75	165.64	4.12	-44.4	-55.1	3.8	8.46e-01	0	54	104	0	58	13043
2026-01-29 14:22:30.79	165.68	4.41	-44.4	-55.1	3.8	8.47e-01	0	54	104	0	58	12995
2026-01-29 14:22:34.83	165.72	4.69	-44.4	-55.1	3.8	8.47e-01	0	54	104	0	58	13033
2026-01-29 14:22:38.87	165.77	4.98	-44.3	-55.0	3.8	8.46e-01	0	55	104	0	58	12849
2026-01-29 14:22:42.91	165.82	5.27	-44.2	-54.3	3.8	8.45e-01	0	55	104	0	58	11897
2026-01-29 14:22:46.96	165.86	5.56	-43.3	-51.4	4.2	8.38e-01	0	55	0	0	57	8993
2026-01-29 14:22:51.00	165.91	5.86	-42.7	-48.2	5.9	5.30e-01	0	55	0	1048576	56	6578
2026-01-29 14:22:55.04	165.96	6.16	-42.0	-46.7	7.0	1.81e-01	0	56	0	30408704	54	6247
2026-01-29 14:22:59.08	166.01	6.47	-41.3	-45.2	8.4	6.48e-02	0	56	0	59768832	53	5560
2026-01-29 14:23:03.13	166.06	6.77	-40.6	-44.2	9.4	2.28e-02	0	56	0	89128960	52	5231
2026-01-29 14:23:07.17	166.11	7.09	-40.6	-44.1	9.6	1.33e-02	0	56	0	117440512	51	5470
2026-01-29 14:23:11.21	166.16	7.40	-40.5	-44.1	9.6	1.18e-02	0	56	0	146800640	51	5467
2026-01-29 14:23:15.25	166.21	7.72	-40.1	-43.4	10.3	5.98e-03	0	56	0	176160768	50	5393
2026-01-29 14:23:19.30	166.26	8.05	-40.0	-43.4	10.3	7.95e-03	0	57	0	205520896	50	5356
2026-01-29 14:23:23.34	166.32	8.37	-41.1	-45.0	8.5	4.83e-01	0	56	0	233832448	53	5455
2026-01-29 14:23:27.38	166.37	8.71	-40.0	-43.2	10.6	3.76e-03	0	57	0	263192576	50	5279
2026-01-29 14:23:31.42	166.43	9.04	-40.0	-43.2	10.7	3.20e-03	0	57	0	291504128	50	5273
2026-01-29 14:23:35.46	166.48	9.38	-39.9	-43.0	11.0	2.37e-03	0	57	0	320864256	50	5115
2026-01-29 14:23:39.50	166.54	9.73	-39.7	-42.7	11.3	2.28e-03	0	57	0	350224384	50	4949
2026-01-29 14:23:43.54	166.60	10.08	-39.7	-42.6	11.4	1.36e-03	0	57	0	379584512	50	4925
2026-01-29 14:23:47.58	166.66	10.44	-39.7	-42.7	11.3	1.17e-03	0	57	0	408944640	50	4961
2026-01-29 14:23:51.63	166.73	10.80	-39.7	-42.6	11.4	9.93e-04	0	57	0	438304768	49	5200
2026-01-29 14:23:55.67	166.79	11.16	-39.5	-42.4	11.7	6.44e-04	0	58	0	466616320	49	5084
2026-01-29 14:23:59.71	166.85	11.54	-39.6	-42.5	11.7	6.80e-04	0	58	0	495976448	49	5131
2026-01-29 14:24:03.74	166.92	11.91	-39.5	-42.3	11.9	7.41e-04	0	58	0	525336576	49	5019
2026-01-29 14:24:07.78	166.99	12.30	-39.4	-42.1	12.1	3.17e-04	0	58	0	554696704	49	4915
2026-01-29 14:24:11.83	167.05	12.69	-39.2	-41.9	12.4	2.20e-04	0	58	0	584056832	49	4775
2026-01-29 14:24:15.87	167.12	13.08	-39.1	-41.7	12.6	1.28e-04	0	58	0	612368384	49	4666
2026-01-29 14:24:19.90	167.20	13.48	-38.9	-41.5	12.8	8.46e-05	0	58	0	641728512	48	4855
2026-01-29 14:24:23.95	167.27	13.89	-39.0	-41.5	12.8	6.86e-05	0	59	0	671088640	48	4858
2026-01-29 14:24:27.99	167.35	14.31	-38.8	-41.3	13.1	5.60e-05	0	58	0	700448768	48	4730
2026-01-29 14:24:32.03	167.42	14.74	-38.9	-41.4	13.0	6.40e-05	0	58	0	729808896	48	4798
2026-01-29 14:24:36.07	167.50	15.17	-39.0	-41.6	12.9	5.95e-05	0	59	0	759169024	48	4889
2026-01-29 14:24:40.11	167.58	15.61	-38.9	-41.5	12.9	5.26e-05	0	59	0	787480576	48	4847
2026-01-29 14:24:44.15	167.67	16.05	-39.0	-41.6	12.9	3.31e-05	0	59	0	816840704	48	4872
2026-01-29 14:24:48.20	167.75	16.51	-38.9	-41.4	13.1	2.63e-05	0	59	0	846200832	48	4791
2026-01-29 14:24:52.24	167.84	16.97	-38.7	-41.1	13.4	2.05e-05	0	59	0	875560960	48	4627
2026-01-29 14:24:56.28	167.93	17.45	-38.5	-40.9	13.6	1.60e-05	0	59	0	904921088	48	4523
2026-01-29 14:25:00.31	168.02	17.93	-38.5	-40.9	13.7	6.80e-06	0	59	0	933232640	48	4530
2026-01-29 14:25:04.35	168.12	18.42	-38.2	-40.6	13.8	6.80e-06	0	59	0	962592768	47	4612
2026-01-29 14:25:08.39	168.21	18.92	-38.1	-40.4	13.9	6.80e-06	0	59	0	991952896	47	4524
2026-01-29 14:25:12.43	168.31	19.43	-38.1	-40.4	14.0	3.40e-06	0	59	0	1021313024	46	4805
2026-01-29 14:25:16.47	168.42	19.96	-37.9	-40.2	14.2	4.50e-06	0	59	0	1050673152	46	4662
2026-01-29 14:25:20.51	168.52	20.49	-37.8	-40.1	14.3	1.10e-06	0	59	0	1078984704	46	4638
2026-01-29 14:25:24.55	168.63	21.03	-37.9	-40.2	14.2	1.10e-06	0	60	0	1108344832	46	4688
2026-01-29 14:25:28.60	168.75	21.59	-37.9	-40.3	14.1	2.20e-06	0	59	0	1137704960	46	4725
2026-01-29 14:25:32.63	168.87	22.16	-37.8	-40.2	14.1	3.40e-06	0	60	0	1167065088	46	4687
2026-01-29 14:25:36.67	168.99	22.75	-37.8	-40.3	14.0	2.20e-06	0	60	0	1196425216	46	4740
2026-01-29 14:25:40.71	169.11	23.34	-37.7	-40.1	14.2	1.10e-06	0	59	0	1224736768	46	4633
2026-01-29 14:25:44.75	169.24	23.95	-37.4	-39.8	14.5	1.10e-06	0	60	0	1254096896	45	4744
2026-01-29 14:25:48.79	169.38	24.58	-37.3	-39.6	14.8	0.00e+00	0	60	0	1283457024	45	4615
2026-01-29 14:25:52.83	169.52	25.22	-37.1	-39.4	15.0	0.00e+00	0	60	0	1312817152	45	4525
2026-01-29 14:25:56.87	169.66	25.87	-37.1	-39.4	15.0	0.00e+00	0	60	0	1342177280	45	4506
2026-01-29 14:26:00.91	169.82	26.55	-37.1	-39.3	15.2	0.00e+00	0	60	0	1370488832	44	4737
2026-01-29 14:26:04.95	169.97	27.24	-37.1	-39.2	15.2	0.00e+00	0	60	0	1399848960	44	4690
2026-01-29 14:26:08.99	170.14	27.94	-37.1	-39.2	15.3	0.00e+00	0	60	0	1429209088	44	4678
2026-01-29 14:26:13.02	170.31	28.67	-37.0	-39.1	15.4	0.00e+00	0	60	0	1458569216	44	4622
2026-01-29 14:26:17.06	170.48	29.41	-37.2	-39.4	15.1	0.00e+00	0	60	0	1487929344	44	4779
2026-01-29 14:26:21.10	170.67	30.17	-37.1	-39.2	15.3	0.00e+00	0	60	0	1516240896	44	4665
2026-01-29 14:26:25.14	170.86	30.96	-37.1	-39.2	15.2	0.00e+00	0	60	0	1545601024	44	4682
2026-01-29 14:26:29.18	171.07	31.77	-36.9	-39.1	15.3	0.00e+00	0	60	0	1574961152	44	4631
2026-01-29 14:26:33.22	171.28	32.59	-37.0	-39.3	15.1	1.10e-06	0	60	0	1604321280	44	4720
2026-01-29 14:26:37.27	171.50	33.45	-37.1	-39.5	14.9	1.10e-06	0	60	0	1633681408	44	4847
2026-01-29 14:26:41.31	171.74	34.32	-37.0	-39.3	15.1	0.00e+00	0	60	0	1661992960	44	4756
2026-01-29 14:26:45.35	171.98	35.22	-37.1	-39.3	15.2	0.00e+00	0	60	0	1691353088	44	4750
2026-01-29 14:26:49.40	172.25	36.15	-37.0	-39.2	15.4	0.00e+00	0	60	0	1720713216	44	4661
2026-01-29 14:26:53.43	172.52	37.10	-37.2	-39.4	15.1	0.00e+00	0	60	0	1750073344	44	4803
2026-01-29 14:26:57.47	172.81	38.08	-37.3	-39.7	14.9	1.10e-06	0	60	0	1779433472	44	4934
2026-01-29 14:27:01.51	173.12	39.09	-37.1	-39.3	15.2	0.00e+00	0	60	0	1808793600	44	4749
2026-01-29 14:27:05.55	173.45	40.13	-37.2	-39.4	15.2	0.00e+00	0	61	0	1837105152	44	4772
2026-01-29 14:27:09.59	173.80	41.20	-37.3	-39.5	15.1	2.20e-06	0	60	0	1866465280	44	4846
2026-01-29 14:27:13.64	174.17	42.30	-37.2	-39.2	15.4	0.00e+00	0	60	0	1895825408	44	4704
2026-01-29 14:27:17.67	174.57	43.43	-37.5	-39.7	14.9	0.00e+00	0	60	0	1925185536	44	4969
2026-01-29 14:27:21.71	175.00	44.60	-38.3	-39.9	15.0	1.10e-06	0	60	0	1954545664	46	4512
2026-01-29 14:27:25.75	175.45	45.80	-38.4	-40.1	14.8	0.00e+00	0	60	0	1982857216	46	4609
2026-01-29 14:27:29.79	175.95	47.03	-38.5	-40.2	14.7	1.10e-06	0	61	0	2012217344	46	4665
2026-01-29 14:27:33.84	176.48	48.31	-38.9	-40.7	14.2	0.00e+00	0	60	0	2041577472	47	4667
2026-01-29 14:27:37.88	177.06	49.61	-38.9	-40.7	14.1	2.20e-06	0	61	0	2070937600	47	4705
2026-01-29 14:27:41.92	177.69	50.95	-38.9	-40.7	14.2	3.40e-06	0	61	0	2100297728	47	4662
2026-01-29 14:27:45.96	178.38	52.32	-39.2	-41.1	13.9	3.40e-06	0	61	0	2129657856	48	4623
2026-01-29 14:27:50.00	179.14	53.73	-39.1	-41.0	14.1	1.10e-06	0	61	0	2157969408	48	4549
2026-01-29 14:27:54.05	179.97	55.18	-39.4	-41.4	13.7	5.70e-06	0	61	0	2187329536	48	4772
2026-01-29 14:27:58.09	180.89	56.66	-38.9	-40.7	14.3	2.20e-06	0	61	0	2216689664	48	4424
2026-01-29 14:28:02.13	181.92	58.17	-39.2	-41.1	14.0	1.10e-06	0	61	0	2246049792	49	4361
2026-01-29 14:28:06.17	183.07	59.71	-39.0	-40.8	14.3	0.00e+00	0	61	0	2275409920	48	4454
2026-01-29 14:28:10.22	184.36	61.28	-39.1	-40.9	14.2	4.50e-06	0	61	0	2304770048	48	4507
2026-01-29 14:28:14.26	185.83	62.88	-38.6	-40.2	14.8	0.00e+00	0	61	0	2333081600	48	4177
2026-01-29 14:28:18.30	187.50	64.49	-38.1	-39.7	15.2	0.00e+00	0	61	0	2362441728	46	4422
2026-01-29 14:28:22.34	189.42	66.11	-37.4	-38.8	16.0	0.00e+00	0	61	0	2391801856	45	4238
2026-01-29 14:28:26.39	191.67	67.74	-37.5	-39.0	15.8	1.10e-06	0	61	0	2421161984	45	4331
2026-01-29 14:28:30.43	194.29	69.37	-37.9	-39.4	15.3	0.00e+00	0	61	0	2450522112	45	4544
2026-01-29 14:28:34.46	197.37	70.97	-38.0	-39.7	15.1	0.00e+00	0	61	0	2479882240	46	4401
2026-01-29 14:28:38.51	201.08	72.54	-37.7	-39.2	15.5	1.48e-05	0	61	0	2508193792	46	4193
2026-01-29 14:28:42.55	205.52	74.04	-37.7	-39.2	15.6	0.00e+00	0	61	0	2537553920	45	4427
2026-01-29 14:28:46.59	210.90	75.45	-36.8	-38.2	16.6	0.00e+00	0	61	0	2566914048	44	4159
2026-01-29 14:28:50.63	217.42	76.73	-36.5	-37.8	16.8	2.20e-06	0	61	0	2596274176	43	4241
2026-01-29 14:28:54.67	225.24	77.81	-36.5	-37.9	16.7	1.33e-04	0	61	0	2625634304	43	4275
2026-01-29 14:28:58.71	234.42	78.64	-36.3	-37.7	16.9	0.00e+00	0	61	0	2654994432	42	4416
2026-01-29 14:29:02.75	244.77	79.15	-35.8	-37.1	17.5	0.00e+00	0	61	0	2683305984	42	4112
2026-01-29 14:29:06.79	255.76	79.28	-36.3	-37.7	16.9	0.00e+00	0	61	0	2712666112	42	4424
2026-01-29 14:29:10.83	266.63	79.03	-36.4	-37.8	16.7	0.00e+00	0	61	0	2742026240	42	4485
2026-01-29 14:29:14.87	276.66	78.42	-36.2	-37.6	17.0	9.26e-05	0	61	0	2771386368	42	4356
2026-01-29 14:29:18.92	285.45	77.51	-36.3	-37.7	16.7	3.08e-05	0	61	0	2800746496	42	4425
2026-01-29 14:29:22.96	292.85	76.36	-36.7	-38.2	16.5	4.50e-06	0	61	0	2829058048	43	4399
2026-01-29 14:29:27.00	298.99	75.04	-37.2	-38.7	16.0	4.50e-06	0	61	0	2858418176	43	4659
2026-01-29 14:29:31.05	304.07	73.59	-38.1	-39.8	15.0	6.17e-05	0	61	0	2887778304	45	4722
2026-01-29 14:29:35.09	308.26	72.07	-37.8	-39.7	15.0	1.10e-03	0	61	0	2917138432	45	4684
2026-01-29 14:29:39.13	311.76	70.49	-38.0	-39.5	15.2	2.20e-06	0	61	0	2946498560	46	4337
2026-01-29 14:29:43.17	314.69	68.88	-38.2	-39.8	15.0	1.48e-05	0	61	0	2975858688	46	4480
2026-01-29 14:29:47.21	317.19	67.26	-38.0	-39.6	15.1	6.98e-05	0	61	0	3004170240	45	4647
2026-01-29 14:29:51.25	319.32	65.63	-37.8	-39.3	15.5	4.50e-06	0	61	0	3033530368	45	4478
2026-01-29 14:29:55.29	321.16	64.02	-38.1	-39.8	15.1	0.00e+00	0	61	0	3062890496	45	4722
2026-01-29 14:29:59.33	322.77	62.42	-38.6	-40.4	14.5	0.00e+00	0	61	0	3092250624	46	4779
2026-01-29 14:30:03.37	324.17	60.84	-38.9	-40.7	14.1	2.20e-06	0	61	0	3121610752	47	4692
2026-01-29 14:30:07.42	325.42	59.28	-39.0	-40.8	14.1	0.00e+00	0	61	0	3150970880	47	4719
2026-01-29 14:30:11.46	326.53	57.75	-39.2	-41.1	13.8	5.70e-06	0	61	0	3179282432	47	4872
2026-01-29 14:30:15.50	327.52	56.25	-39.4	-41.3	13.8	6.80e-06	0	61	0	3208642560	49	4473
2026-01-29 14:30:19.54	328.42	54.79	-39.2	-41.0	14.1	0.00e+00	0	61	0	3238002688	49	4323
2026-01-29 14:30:23.58	329.22	53.36	-39.3	-41.1	14.0	3.40e-06	0	61	0	3267362816	49	4375
2026-01-29 14:30:27.62	329.96	51.96	-38.9	-40.7	14.3	2.20e-06	0	61	0	3296722944	48	4406
2026-01-29 14:30:31.66	330.63	50.60	-39.2	-41.3	13.8	4.50e-06	0	61	0	3325034496	48	4740
2026-01-29 14:30:35.70	331.25	49.28	-39.0	-40.8	14.3	2.20e-06	0	61	0	3354394624	48	4467
2026-01-29 14:30:39.74	331.81	47.99	-38.7	-40.4	14.6	1.10e-06	0	61	0	3383754752	48	4272
2026-01-29 14:30:43.78	332.33	46.74	-38.6	-40.2	14.9	0.00e+00	0	61	0	3413114880	48	4191
2026-01-29 14:30:47.82	332.82	45.52	-38.0	-39.6	15.3	0.00e+00	0	61	0	3442475008	46	4357
2026-01-29 14:30:51.86	333.27	44.33	-37.8	-39.3	15.6	0.00e+00	0	61	0	3470786560	46	4234
2026-01-29 14:30:55.90	333.69	43.18	-37.8	-39.4	15.5	0.00e+00	0	61	0	3500146688	46	4259
2026-01-29 14:30:59.94	334.08	42.06	-37.6	-39.1	15.8	0.00e+00	0	61	0	3529506816	45	4368
2026-01-29 14:31:03.98	334.44	40.97	-37.9	-39.5	15.4	0.00e+00	0	61	0	3558866944	45	4571
2026-01-29 14:31:08.03	334.79	39.92	-38.4	-40.0	14.8	0.00e+00	0	61	0	3588227072	46	4588
2026-01-29 14:31:12.07	335.11	38.89	-38.1	-39.7	15.2	0.00e+00	0	61	0	3617587200	46	4401
2026-01-29 14:31:16.11	335.42	37.89	-37.8	-39.3	15.5	0.00e+00	0	61	0	3646947328	46	4227
2026-01-29 14:31:20.15	335.71	36.92	-37.7	-39.2	15.7	0.00e+00	0	61	0	3675258880	46	4171
2026-01-29 14:31:24.19	335.98	35.98	-37.7	-39.2	15.6	0.00e+00	0	62	0	3704619008	46	4184
2026-01-29 14:31:28.23	336.24	35.07	-37.6	-39.1	15.8	0.00e+00	0	61	0	3733979136	46	4105
2026-01-29 14:31:32.27	336.48	34.18	-37.5	-39.0	15.8	0.00e+00	0	61	0	3763339264	45	4339
2026-01-29 14:31:36.31	336.72	33.31	-37.5	-39.0	15.8	0.00e+00	0	61	0	3791650816	45	4299
2026-01-29 14:31:40.35	336.94	32.47	-37.6	-39.1	15.7	0.00e+00	0	61	0	3821010944	45	4379
2026-01-29 14:31:44.39	337.15	31.65	-37.7	-39.2	15.5	0.00e+00	0	61	0	3850371072	45	4441
2026-01-29 14:31:48.43	337.35	30.85	-37.7	-39.3	15.5	0.00e+00	0	61	0	3879731200	45	4450
2026-01-29 14:31:52.47	337.54	30.08	-37.9	-39.4	15.3	0.00e+00	0	61	0	3909091328	45	4541
2026-01-29 14:31:56.51	337.73	29.32	-37.8	-39.4	15.3	0.00e+00	0	61	0	3938451456	45	4535
2026-01-29 14:32:00.56	337.91	28.58	-38.0	-39.6	15.1	0.00e+00	0	61	0	3966763008	45	4638
2026-01-29 14:32:04.60	338.08	27.87	-38.0	-39.7	15.0	0.00e+00	0	61	0	3996123136	45	4652
2026-01-29 14:32:08.64	338.24	27.17	-37.9	-39.6	15.1	0.00e+00	0	61	0	4025483264	45	4608
2026-01-29 14:32:12.69	338.40	26.48	-37.8	-39.5	15.2	0.00e+00	0	61	0	4054843392	45	4552
2026-01-29 14:32:16.73	338.55	25.82	-37.8	-39.4	15.2	0.00e+00	0	61	0	4084203520	45	4521
2026-01-29 14:32:20.77	338.70	25.17	-37.8	-39.3	15.2	0.00e+00	0	61	0	4113563648	45	4488
2026-01-29 14:32:24.81	338.84	24.53	-37.8	-39.4	15.1	0.00e+00	0	61	0	4141875200	45	4512
2026-01-29 14:32:28.86	338.97	23.91	-37.8	-39.4	15.1	0.00e+00	0	61	0	4171235328	45	4498
2026-01-29 14:32:32.90	339.11	23.31	-37.7	-39.3	15.1	0.00e+00	0	61	0	4200595456	45	4467
2026-01-29 14:32:36.94	339.23	22.72	-37.8	-39.5	14.7	0.00e+00	0	61	0	4229955584	45	4546
2026-01-29 14:32:40.98	339.36	22.14	-37.9	-39.6	14.4	2.20e-06	0	61	0	4259315712	45	4631
2026-01-29 14:32:45.02	339.48	21.58	-38.1	-39.9	13.8	6.80e-06	0	61	0	4288675840	45	4803
2026-01-29 14:32:49.06	339.59	21.03	-37.9	-39.7	13.8	4.50e-06	0	61	0	4316987392	45	4693
2026-01-29 14:32:53.09	339.70	20.49	-40.2	-43.4	9.6	1.07e-02	0	61	0	4346347520	49	5698
2026-01-29 14:32:57.13	339.81	19.96	-41.2	-46.4	6.1	2.85e-01	0	61	0	4375707648	52	6777
2026-01-29 14:33:01.17	339.92	19.44	-41.7	-49.5	4.2	8.26e-01	0	61	0	4385144832	53	9141
2026-01-29 14:33:05.22	340.02	18.93	-41.5	-51.3	3.8	8.44e-01	0	61	104	4385144832	54	10586
2026-01-29 14:33:09.26	340.12	18.43	-41.4	-51.4	3.8	8.46e-01	0	61	104	4385144832	53	11395
2026-01-29 14:33:13.30	340.22	17.95	-41.3	-51.4	3.8	8.46e-01	0	61	104	4385144832	52	12059
2026-01-29 14:33:17.34	340.31	17.47	-41.1	-51.5	3.8	8.45e-01	0	61	104	4385144832	52	12165
2026-01-29 14:33:21.38	340.40	17.00	-40.9	-51.5	3.8	8.46e-01	0	62	104	4385144832	52	12144
2026-01-29 14:33:25.43	340.49	16.54	-40.8	-51.6	3.8	8.46e-01	0	61	104	4385144832	52	12365
2026-01-29 14:33:29.47	340.58	16.09	-40.8	-51.6	3.8	8.46e-01	0	61	104	4385144832	52	12304
2026-01-29 14:33:33.51	340.67	15.64	-40.7	-51.6	3.8	8.46e-01	0	61	104	4385144832	52	12282
2026-01-29 14:33:37.54	340.75	15.21	-40.6	-51.5	3.8	8.46e-01	0	61	104	4385144832	52	12150
2026-01-29 14:33:41.59	340.83	14.78	-40.6	-51.5	3.8	8.46e-01	0	61	104	4385144832	52	12215
2026-01-29 14:33:45.63	340.91	14.36	-40.6	-51.6	3.8	8.47e-01	0	61	104	4385144832	52	12248
2026-01-29 14:33:49.67	340.99	13.95	-40.6	-51.5	3.8	8.47e-01	0	62	104	4385144832	52	12233
2026-01-29 14:33:53.71	341.07	13.54	-40.6	-51.5	3.8	8.45e-01	0	62	104	4385144832	52	12198
2026-01-29 14:33:57.74	341.14	13.14	-40.6	-51.6	3.8	8.45e-01	0	62	104	4385144832	52	12278
2026-01-29 14:34:01.78	341.22	12.75	-40.6	-51.6	3.8	8.45e-01	0	62	104	4385144832	52	12283
2026-01-29 14:34:05.82	341.29	12.36	-40.7	-51.6	3.8	8.46e-01	0	62	104	4385144832	52	12321
2026-01-29 14:34:09.86	341.36	11.98	-40.8	-51.7	3.8	8.46e-01	0	62	104	4385144832	51	13122
2026-01-29 14:34:13.90	341.43	11.61	-40.8	-51.7	3.8	8.47e-01	0	62	104	4385144832	51	13218
2026-01-29 14:34:17.94	341.50	11.24	-40.8	-51.7	3.8	8.47e-01	0	61	104	4385144832	51	13168
2026-01-29 14:34:21.99	341.56	10.87	-40.7	-51.6	3.8	8.46e-01	0	62	104	4385144832	51	13091
2026-01-29 14:34:26.02	341.63	10.51	-40.7	-51.6	3.8	8.45e-01	0	62	104	4385144832	51	12967
2026-01-29 14:34:30.06	341.69	10.16	-40.7	-51.5	3.8	8.46e-01	0	62	104	4385144832	51	12952
2026-01-29 14:34:34.10	341.76	9.81	-40.7	-51.6	3.8	8.47e-01	0	62	104	4385144832	51	13011
2026-01-29 14:34:38.14	341.82	9.47	-40.7	-51.6	3.8	8.45e-01	0	62	104	4385144832	51	12995
2026-01-29 14:34:42.18	341.88	9.13	-40.7	-51.6	3.8	8.47e-01	0	62	104	4385144832	51	13025
2026-01-29 14:34:46.22	341.94	8.79	-40.7	-51.6	3.8	8.46e-01	0	62	104	4385144832	51	13019
2026-01-29 14:34:50.26	342.00	8.47	-40.7	-51.6	3.8	8.46e-01	0	62	104	4385144832	51	12989
2026-01-29 14:34:54.30	342.06	8.14	-40.7	-51.6	3.8	8.46e-01	0	62	104	4385144832	51	13054
2026-01-29 14:34:58.34	342.11	7.82	-43.1	-54.0	3.8	8.46e-01	0	62	104	4385144832	55	13646
2026-01-29 14:35:02.38	342.17	7.50	-45.4	-56.5	3.8	8.47e-01	0	62	104	4385144832	60	13586
2026-01-29 14:35:06.42	342.23	7.19	-45.4	-56.6	3.8	8.47e-01	0	62	104	4385144832	60	13823
2026-01-29 14:35:10.46	342.28	6.88	-45.3	-56.5	3.8	8.46e-01	0	62	104	4385144832	60	13588
2026-01-29 14:35:14.51	342.34	6.57	-45.2	-56.4	3.8	8.46e-01	0	62	104	4385144832	60	13495
2026-01-29 14:35:18.55	342.39	6.27	-45.3	-56.4	3.8	8.46e-01	0	61	104	4385144832	60	13485
2026-01-29 14:35:22.59	342.44	5.97	-45.2	-56.4	3.8	8.46e-01	0	62	104	4385144832	60	13416
2026-01-29 14:35:26.63	342.49	5.67	-45.2	-56.3	3.8	8.46e-01	0	62	104	4385144832	60	13408
2026-01-29 14:35:30.68	342.54	5.38	-45.0	-56.2	3.8	8.46e-01	0	62	104	4385144832	60	13178
2026-01-29 14:35:34.72	342.60	5.09	-45.2	-56.3	3.8	8.46e-01	0	62	104	4385144832	60	13373
2026-01-29 14:35:38.76	342.65	4.81	-45.2	-56.3	3.8	8.47e-01	0	62	104	4385144832	60	13332
2026-01-29 14:35:42.80	342.69	4.52	-45.2	-56.3	3.8	8.46e-01	0	62	104	4385144832	60	13371
2026-01-29 14:35:46.84	342.74	4.24	-45.2	-56.3	3.8	8.46e-01	0	62	104	4385144832	60	13348
2026-01-29 14:35:50.88	342.79	3.97	-45.2	-56.3	3.8	8.46e-01	0	62	104	4385144832	60	13331
2026-01-29 14:35:54.92	342.84	3.69	-45.2	-56.3	3.8	8.47e-01	0	62	104	4385144832	60	13314
2026-01-29 14:35:58.96	342.89	3.42	-45.2	-56.3	3.8	8.46e-01	0	62	104	4385144832	60	13313
2026-01-29 14:36:03.00	342.93	3.15	-45.2	-56.3	3.8	8.46e-01	0	62	104	4385144832	60	13290
2026-01-29 14:36:07.05	342.98	2.88	-45.2	-56.3	3.8	8.46e-01	0	62	104	4385144832	60	13288
2026-01-29 14:36:11.09	343.02	2.62	-44.5	-56.0	3.8	8.46e-01	0	62	104	4385144832	60	12870
2026-01-29 14:36:15.13	343.07	2.36	-45.2	-56.3	3.8	8.46e-01	0	62	104	4385144832	60	13321
2026-01-29 14:36:19.17	343.11	2.10	-45.1	-56.3	3.8	8.47e-01	0	62	104	4385144832	60	13314
2026-01-29 14:36:23.21	343.16	1.84	-45.1	-56.3	3.8	8.46e-01	0	62	104	4385144832	60	13284

#Closed at: 2026-01-29 14:36:23
#Recorded file [4385 MB]: D:/lorett/data/31039_260129_172154.dat