passes_logs/2026/01/29/R2.0S_Moscow/R2.0S_Moscow__20260129_093308_NOAA_21_JPSS-2_rec.log

#Pass ID: 20260129_093308_NOAA 21 (JPSS-2)
#Satellite: NOAA 21 (JPSS-2)
#Configuration: NOAA-21
#almurnet v.1.7.20251203
#Start time: 2026-01-29 09:33:10

#Version: 2.2.20231116
#Station: R2.0S_Moscow
#Location: 37.707566 lon 55.798166 lat
#TLE: 1 54234U 22150A   26027.91149249  .00000141  00000+0  87546-4 0  9993
#TLE: 2 54234  98.7510 328.6558 0000880 202.8718 157.2419 14.19540177166642

#Time	Az	El	Level	Level2	SNR	BER	BlckErr	Temp	State	Recorded	gain1	gain2
2026-01-29 09:33:10.94	149.84	2.15	-43.5	-55.9	3.8	1.49e+00	0	50	0	0	57	16091
2026-01-29 09:33:14.97	149.78	2.41	-43.6	-55.9	3.8	1.49e+00	0	50	104	0	58	15145
2026-01-29 09:33:19.01	149.72	2.67	-43.6	-55.9	3.8	1.49e+00	0	51	104	0	58	15142
2026-01-29 09:33:23.05	149.66	2.94	-43.5	-55.9	3.8	1.49e+00	0	51	104	0	57	15984
2026-01-29 09:33:27.09	149.60	3.21	-43.5	-55.9	3.8	1.49e+00	0	51	104	0	57	15962
2026-01-29 09:33:31.13	149.54	3.48	-43.5	-55.9	3.8	1.49e+00	0	51	104	0	57	15978
2026-01-29 09:33:35.17	149.48	3.75	-43.6	-55.9	3.8	1.49e+00	0	52	104	0	57	15974
2026-01-29 09:33:39.21	149.41	4.03	-43.5	-55.9	3.8	1.49e+00	0	52	104	0	57	15987
2026-01-29 09:33:43.26	149.34	4.31	-43.5	-55.9	3.8	1.49e+00	0	52	104	0	57	15990
2026-01-29 09:33:47.29	149.28	4.59	-43.5	-55.9	3.8	1.49e+00	0	52	104	0	57	16042
2026-01-29 09:33:51.34	149.21	4.88	-43.5	-55.9	3.8	1.49e+00	0	53	104	0	57	16002
2026-01-29 09:33:55.38	149.14	5.17	-43.3	-55.8	3.8	1.49e+00	0	53	104	0	57	15763
2026-01-29 09:33:59.42	149.06	5.46	-43.2	-55.2	3.8	1.49e+00	0	53	104	0	57	14752
2026-01-29 09:34:03.46	148.99	5.75	-43.3	-53.5	4.0	1.49e+00	0	53	104	0	57	12166
2026-01-29 09:34:07.50	148.91	6.05	-43.1	-52.3	4.2	1.47e+00	0	53	104	0	57	10638
2026-01-29 09:34:11.54	148.83	6.35	-42.8	-50.9	4.7	1.09e+00	0	54	104	0	56	9538
2026-01-29 09:34:15.58	148.75	6.66	-42.5	-49.1	5.7	4.33e-01	0	54	0	8388608	56	7783
2026-01-29 09:34:19.62	148.67	6.96	-41.9	-47.3	7.1	1.50e-01	0	54	0	20971520	55	6715
2026-01-29 09:34:23.67	148.59	7.28	-41.3	-45.7	8.7	3.72e-02	0	54	0	33554432	54	5911
2026-01-29 09:34:27.71	148.50	7.59	-40.8	-44.6	9.8	1.03e-02	0	54	0	46137344	53	5519
2026-01-29 09:34:31.75	148.42	7.91	-40.5	-44.2	10.2	5.72e-03	0	55	0	58720256	52	5571
2026-01-29 09:34:35.79	148.33	8.24	-40.7	-44.6	10.0	6.95e-03	0	55	0	67108864	53	5487
2026-01-29 09:34:39.83	148.23	8.56	-40.6	-44.0	10.6	3.62e-03	0	55	0	79691776	52	5461
2026-01-29 09:34:43.87	148.14	8.90	-40.5	-43.8	11.1	1.60e-03	0	55	0	92274688	51	5600
2026-01-29 09:34:47.90	148.04	9.23	-40.3	-43.5	11.4	8.54e-04	0	55	0	104857600	51	5445
2026-01-29 09:34:51.94	147.94	9.57	-40.4	-43.3	11.7	6.13e-04	0	55	0	117440512	51	5337
2026-01-29 09:34:55.98	147.84	9.92	-40.2	-43.1	11.9	3.75e-04	0	55	0	130023424	51	5210
2026-01-29 09:35:00.02	147.73	10.27	-40.2	-43.0	12.1	3.11e-04	0	56	0	142606336	50	5427
2026-01-29 09:35:04.06	147.63	10.63	-40.0	-42.8	12.4	1.83e-04	0	56	0	155189248	50	5324
2026-01-29 09:35:08.10	147.52	10.99	-40.1	-42.8	12.4	1.59e-04	0	55	0	167772160	50	5337
2026-01-29 09:35:12.14	147.40	11.35	-40.0	-42.7	12.6	1.18e-04	0	56	0	180355072	50	5254
2026-01-29 09:35:16.18	147.29	11.72	-40.4	-42.8	12.6	2.33e-04	0	56	0	192937984	50	5284
2026-01-29 09:35:20.22	147.17	12.10	-39.9	-42.5	12.8	5.79e-05	0	56	0	205520896	50	5149
2026-01-29 09:35:24.26	147.04	12.48	-39.9	-42.4	12.9	3.12e-05	0	56	0	218103808	50	5080
2026-01-29 09:35:28.30	146.91	12.87	-39.7	-42.3	13.1	6.94e-05	0	56	0	230686720	50	5003
2026-01-29 09:35:32.35	146.78	13.27	-39.5	-42.2	13.1	2.74e-05	0	56	0	243269632	50	4958
2026-01-29 09:35:36.39	146.65	13.67	-39.8	-42.2	13.2	2.74e-05	0	56	0	255852544	50	4969
2026-01-29 09:35:40.43	146.51	14.08	-38.8	-42.0	13.3	2.05e-05	0	56	0	268435456	49	5154
2026-01-29 09:35:44.47	146.37	14.49	-39.1	-42.1	13.4	1.67e-05	0	56	0	281018368	49	5185
2026-01-29 09:35:48.51	146.22	14.91	-39.7	-42.1	13.4	9.90e-06	0	57	0	294649856	49	5178
2026-01-29 09:35:52.55	146.07	15.34	-39.6	-42.0	13.5	1.06e-05	0	57	0	307232768	49	5129
2026-01-29 09:35:56.60	145.91	15.78	-39.7	-42.1	13.5	1.06e-05	0	57	0	319815680	49	5173
2026-01-29 09:36:00.64	145.75	16.22	-39.7	-42.0	13.5	6.10e-06	0	57	0	332398592	49	5150
2026-01-29 09:36:04.68	145.58	16.67	-39.8	-42.2	13.5	9.10e-06	0	57	0	344981504	50	4927
2026-01-29 09:36:08.72	145.41	17.13	-39.7	-42.1	13.6	5.30e-06	0	57	0	357564416	49	5165
2026-01-29 09:36:12.76	145.23	17.60	-39.8	-42.1	13.6	7.60e-06	0	57	0	370147328	50	4925
2026-01-29 09:36:16.80	145.05	18.08	-39.8	-42.2	13.5	6.10e-06	0	57	0	382730240	50	4953
2026-01-29 09:36:20.84	144.86	18.57	-39.9	-42.2	13.5	1.29e-05	0	57	0	395313152	50	4975
2026-01-29 09:36:24.88	144.66	19.06	-39.9	-42.3	13.4	1.60e-05	0	57	0	407896064	50	5015
2026-01-29 09:36:28.92	144.46	19.57	-40.0	-42.4	13.4	1.67e-05	0	57	0	420478976	50	5074
2026-01-29 09:36:32.96	144.25	20.08	-39.8	-42.1	13.7	7.60e-06	0	57	0	433061888	50	4901
2026-01-29 09:36:37.00	144.03	20.61	-39.5	-41.7	14.0	5.30e-06	0	57	0	445644800	50	4700
2026-01-29 09:36:41.05	143.80	21.15	-39.3	-41.5	14.3	7.00e-07	0	58	0	458227712	50	4555
2026-01-29 09:36:45.09	143.57	21.69	-39.2	-41.3	14.5	0.00e+00	0	58	0	470810624	50	4471
2026-01-29 09:36:49.13	143.33	22.25	-39.0	-41.0	14.8	0.00e+00	0	57	0	483393536	49	4577
2026-01-29 09:36:53.17	143.07	22.83	-39.0	-40.9	14.9	0.00e+00	0	58	0	495976448	49	4530
2026-01-29 09:36:57.21	142.81	23.41	-38.8	-40.8	15.1	0.00e+00	0	58	0	508559360	49	4455
2026-01-29 09:37:01.23	142.54	24.00	-38.9	-40.8	15.1	7.00e-07	0	57	0	521142272	49	4490
2026-01-29 09:37:05.27	142.25	24.61	-38.9	-40.9	15.0	0.00e+00	0	58	0	533725184	49	4503
2026-01-29 09:37:09.32	141.95	25.24	-39.2	-41.2	14.7	0.00e+00	0	58	0	546308096	49	4673
2026-01-29 09:37:13.36	141.65	25.88	-39.4	-41.5	14.4	1.50e-06	0	58	0	558891008	49	4846
2026-01-29 09:37:17.39	141.32	26.53	-39.6	-41.8	14.1	1.50e-06	0	58	0	571473920	49	5039
2026-01-29 09:37:21.44	140.99	27.19	-39.8	-42.0	13.9	3.00e-06	0	58	0	584056832	50	4869
2026-01-29 09:37:25.48	140.64	27.88	-40.1	-42.4	13.6	6.10e-06	0	58	0	596639744	50	5065
2026-01-29 09:37:29.52	140.27	28.57	-40.0	-42.3	13.6	6.10e-06	0	58	0	610271232	50	5041
2026-01-29 09:37:33.56	139.88	29.29	-39.9	-42.2	13.8	4.50e-06	0	58	0	622854144	50	4931
2026-01-29 09:37:37.60	139.48	30.02	-39.6	-41.8	14.2	0.00e+00	0	58	0	635437056	50	4717
2026-01-29 09:37:41.65	139.06	30.77	-39.4	-41.5	14.5	7.00e-07	0	58	0	648019968	50	4563
2026-01-29 09:37:45.69	138.62	31.54	-39.5	-41.6	14.4	7.00e-07	0	58	0	660602880	50	4629
2026-01-29 09:37:49.73	138.15	32.33	-39.8	-42.0	14.0	3.00e-06	0	58	0	673185792	50	4858
2026-01-29 09:37:53.76	137.67	33.13	-39.9	-42.1	13.9	3.00e-06	0	58	0	685768704	50	4913
2026-01-29 09:37:57.80	137.15	33.95	-40.0	-42.3	13.8	2.20e-06	0	58	0	698351616	50	5012
2026-01-29 09:38:01.85	136.61	34.80	-40.4	-42.9	13.2	3.28e-05	0	58	0	710934528	51	5069
2026-01-29 09:38:05.89	136.04	35.66	-40.8	-43.5	12.4	1.11e-04	0	58	0	723517440	52	5129
2026-01-29 09:38:09.93	135.44	36.54	-41.1	-44.1	11.9	3.84e-04	0	58	0	736100352	52	5472
2026-01-29 09:38:13.97	134.80	37.45	-41.2	-44.2	11.8	4.32e-04	0	58	0	748683264	52	5537
2026-01-29 09:38:18.01	134.12	38.37	-41.4	-44.5	11.5	7.57e-04	0	58	0	761266176	53	5404
2026-01-29 09:38:22.05	133.41	39.32	-41.2	-44.1	11.9	3.88e-04	0	58	0	773849088	53	5191
2026-01-29 09:38:26.09	132.65	40.28	-41.5	-44.8	11.2	1.22e-03	0	58	0	786432000	53	5594
2026-01-29 09:38:30.13	131.84	41.27	-41.7	-45.1	10.8	2.25e-03	0	58	0	799014912	54	5503
2026-01-29 09:38:34.17	130.98	42.28	-41.4	-44.4	11.6	7.35e-04	0	59	0	811597824	54	5056
2026-01-29 09:38:38.22	130.07	43.31	-41.6	-44.8	11.1	1.49e-03	0	58	0	824180736	54	5340
2026-01-29 09:38:42.26	129.09	44.36	-41.7	-45.0	10.8	2.48e-03	0	58	0	836763648	54	5457
2026-01-29 09:38:46.30	128.04	45.42	-41.1	-43.9	12.1	2.65e-04	0	58	0	849346560	54	4793
2026-01-29 09:38:50.35	126.92	46.51	-41.3	-44.3	11.7	4.55e-04	0	58	0	861929472	53	5296
2026-01-29 09:38:54.39	125.72	47.61	-41.3	-44.2	11.8	4.78e-04	0	58	0	875560960	53	5269
2026-01-29 09:38:58.43	124.43	48.72	-41.1	-44.0	12.0	3.22e-04	0	59	0	887095296	53	5130
2026-01-29 09:39:02.46	123.05	49.84	-40.9	-43.7	12.4	1.61e-04	0	58	0	900726784	53	4949
2026-01-29 09:39:06.51	121.55	50.97	-40.6	-43.2	12.8	7.32e-05	0	58	0	913309696	53	4665
2026-01-29 09:39:10.54	119.94	52.11	-40.7	-43.3	12.7	5.79e-05	0	59	0	925892608	52	5027
2026-01-29 09:39:14.58	118.20	53.25	-40.2	-42.6	13.5	1.52e-05	0	59	0	938475520	52	4612
2026-01-29 09:39:18.62	116.32	54.38	-39.9	-42.1	14.0	3.00e-06	0	59	0	951058432	51	4648
2026-01-29 09:39:22.67	114.27	55.51	-39.6	-41.6	14.5	0.00e+00	0	58	0	963641344	51	4385
2026-01-29 09:39:26.71	112.06	56.62	-39.9	-42.2	14.0	2.20e-06	0	59	0	976224256	51	4662
2026-01-29 09:39:30.75	109.67	57.70	-40.0	-42.2	14.0	2.20e-06	0	59	0	988807168	51	4692
2026-01-29 09:39:34.79	107.08	58.76	-39.3	-41.2	15.0	0.00e+00	0	59	0	1001390080	50	4433
2026-01-29 09:39:38.83	104.28	59.77	-39.3	-41.2	15.0	7.00e-07	0	59	0	1013972992	50	4432
2026-01-29 09:39:42.88	101.25	60.73	-39.1	-41.0	15.1	0.00e+00	0	59	0	1026555904	49	4579
2026-01-29 09:39:46.92	97.99	61.63	-38.9	-40.8	15.4	0.00e+00	0	59	0	1039138816	49	4483
2026-01-29 09:39:50.96	94.50	62.45	-39.4	-41.5	14.7	7.00e-07	0	58	0	1051721728	49	4828
2026-01-29 09:39:55.00	90.78	63.19	-38.8	-40.6	15.5	0.00e+00	0	59	0	1064304640	49	4345
2026-01-29 09:39:59.05	86.82	63.82	-38.7	-40.6	15.6	0.00e+00	0	59	0	1076887552	48	4600
2026-01-29 09:40:03.09	82.68	64.35	-39.0	-40.9	15.2	0.00e+00	0	59	0	1089470464	48	4808
2026-01-29 09:40:07.13	78.36	64.75	-38.5	-40.2	15.9	0.00e+00	0	59	0	1102053376	48	4430
2026-01-29 09:40:11.18	73.90	65.01	-38.6	-40.4	15.7	0.00e+00	0	59	0	1114636288	48	4524
2026-01-29 09:40:15.22	69.38	65.14	-39.1	-41.1	15.1	7.00e-07	0	59	0	1127219200	48	4891
2026-01-29 09:40:19.26	64.83	65.13	-38.8	-40.7	15.5	0.00e+00	0	59	0	1139802112	48	4656
2026-01-29 09:40:23.30	60.32	64.98	-38.7	-40.5	15.6	0.00e+00	0	59	0	1153433600	48	4571
2026-01-29 09:40:27.34	55.89	64.69	-39.1	-41.1	15.0	0.00e+00	0	59	0	1166016512	49	4632
2026-01-29 09:40:31.39	51.59	64.27	-38.7	-40.5	15.6	0.00e+00	0	59	0	1178599424	49	4321
2026-01-29 09:40:35.43	47.48	63.73	-39.0	-40.9	15.2	0.00e+00	0	59	0	1191182336	49	4516
2026-01-29 09:40:39.47	43.58	63.07	-39.0	-40.9	15.2	0.00e+00	0	59	0	1203765248	49	4516
2026-01-29 09:40:43.51	39.90	62.33	-39.2	-41.1	15.1	0.00e+00	0	59	0	1216348160	49	4634
2026-01-29 09:40:47.56	36.44	61.49	-39.6	-41.7	14.5	7.00e-07	0	59	0	1228931072	49	4953
2026-01-29 09:40:51.60	33.23	60.58	-39.0	-40.9	15.2	0.00e+00	0	59	0	1241513984	49	4543
2026-01-29 09:40:55.64	30.25	59.61	-38.8	-40.6	15.5	0.00e+00	0	59	0	1254096896	49	4388
2026-01-29 09:40:59.69	27.48	58.59	-39.6	-41.7	14.4	0.00e+00	0	59	0	1266679808	49	4981
2026-01-29 09:41:03.73	24.93	57.54	-39.5	-41.6	14.5	7.00e-07	0	59	0	1279262720	49	4922
2026-01-29 09:41:07.77	22.57	56.45	-39.4	-41.3	14.8	1.50e-06	0	59	0	1291845632	50	4492
2026-01-29 09:41:11.81	20.40	55.34	-39.6	-41.7	14.4	7.00e-07	0	59	0	1304428544	49	4963
2026-01-29 09:41:15.85	18.39	54.22	-40.2	-42.5	13.5	1.98e-05	0	59	0	1317011456	52	4585
2026-01-29 09:41:19.90	16.53	53.08	-40.4	-42.9	13.3	1.14e-05	0	59	0	1329594368	51	5048
2026-01-29 09:41:23.94	14.81	51.95	-41.0	-43.8	12.2	1.96e-04	0	59	0	1342177280	52	5299
2026-01-29 09:41:27.99	13.22	50.81	-39.7	-41.8	14.3	1.50e-06	0	59	0	1354760192	50	4717
2026-01-29 09:41:32.03	11.75	49.69	-40.7	-43.4	12.4	1.69e-04	0	59	0	1367343104	52	5097
2026-01-29 09:41:36.07	10.38	48.57	-40.9	-43.7	12.2	1.80e-04	0	59	0	1379926016	52	5246
2026-01-29 09:41:40.11	9.11	47.46	-41.6	-45.0	10.7	2.78e-03	0	59	0	1392508928	53	5766
2026-01-29 09:41:44.15	7.93	46.37	-41.3	-44.3	11.6	1.08e-03	0	59	0	1405091840	53	5323
2026-01-29 09:41:48.19	6.82	45.30	-41.1	-44.0	11.9	4.39e-04	0	59	0	1418723328	52	5464
2026-01-29 09:41:52.23	5.79	44.24	-40.9	-43.6	12.3	1.88e-04	0	59	0	1430257664	53	4914
2026-01-29 09:41:56.27	4.83	43.20	-41.6	-45.0	10.8	2.28e-03	0	59	0	1443889152	53	5740
2026-01-29 09:42:00.31	3.93	42.18	-41.1	-44.0	11.8	4.61e-04	0	59	0	1456472064	53	5135
2026-01-29 09:42:04.35	3.08	41.18	-41.0	-44.0	11.9	4.03e-04	0	59	0	1469054976	52	5419
2026-01-29 09:42:08.40	2.28	40.20	-41.1	-44.0	11.8	4.20e-04	0	59	0	1481637888	52	5450
2026-01-29 09:42:12.44	1.53	39.24	-41.3	-44.5	11.3	1.29e-03	0	59	0	1494220800	53	5433
2026-01-29 09:42:16.48	0.83	38.30	-40.8	-43.5	12.3	2.04e-04	0	59	0	1506803712	52	5159
2026-01-29 09:42:20.52	0.16	37.38	-41.2	-44.2	11.6	6.09e-04	0	59	0	1519386624	52	5574
2026-01-29 09:42:24.56	359.53	36.48	-40.6	-43.4	12.4	1.65e-04	0	59	0	1531969536	52	5050
2026-01-29 09:42:28.60	358.94	35.61	-40.2	-42.7	13.1	4.19e-05	0	59	0	1544552448	52	4689
2026-01-29 09:42:32.64	358.37	34.75	-40.7	-43.4	12.3	1.50e-04	0	59	0	1557135360	52	5096
2026-01-29 09:42:36.69	357.84	33.91	-40.5	-43.1	12.7	9.15e-05	0	59	0	1569718272	52	4904
2026-01-29 09:42:40.73	357.33	33.09	-40.2	-42.7	13.1	3.12e-05	0	59	0	1582301184	52	4667
2026-01-29 09:42:44.77	356.85	32.29	-39.5	-41.6	14.3	1.50e-06	0	59	0	1594884096	50	4613
2026-01-29 09:42:48.81	356.39	31.52	-39.5	-41.6	14.3	7.00e-07	0	59	0	1607467008	50	4621
2026-01-29 09:42:52.85	355.95	30.75	-39.3	-41.4	14.5	7.00e-07	0	59	0	1620049920	50	4513
2026-01-29 09:42:56.89	355.54	30.01	-39.7	-42.0	13.9	1.50e-06	0	59	0	1632632832	50	4815
2026-01-29 09:43:00.93	355.14	29.28	-40.2	-42.7	13.1	2.59e-05	0	59	0	1645215744	50	5234
2026-01-29 09:43:04.97	354.76	28.58	-40.0	-42.4	13.4	1.90e-05	0	59	0	1657798656	51	4794
2026-01-29 09:43:09.01	354.40	27.88	-39.8	-42.1	13.6	8.30e-06	0	59	0	1670381568	51	4633
2026-01-29 09:43:13.05	354.05	27.20	-39.4	-41.5	14.2	1.50e-06	0	59	0	1682964480	50	4565
2026-01-29 09:43:17.09	353.72	26.54	-39.1	-41.1	14.5	0.00e+00	0	59	0	1695547392	50	4389
2026-01-29 09:43:21.14	353.40	25.89	-39.3	-41.4	14.3	7.00e-07	0	59	0	1709178880	50	4537
2026-01-29 09:43:25.18	353.10	25.26	-39.3	-41.4	14.3	0.00e+00	0	59	0	1720713216	50	4520
2026-01-29 09:43:29.23	352.81	24.64	-39.3	-41.4	14.2	2.20e-06	0	59	0	1734344704	50	4544
2026-01-29 09:43:33.26	352.53	24.04	-39.4	-41.6	14.0	1.50e-06	0	59	0	1746927616	50	4619
2026-01-29 09:43:37.31	352.26	23.44	-39.4	-41.7	13.6	9.10e-06	0	59	0	1759510528	50	4702
2026-01-29 09:43:41.35	352.00	22.86	-39.5	-42.0	13.0	2.44e-05	0	59	0	1772093440	50	4842
2026-01-29 09:43:45.39	351.75	22.30	-38.9	-41.4	13.1	3.12e-05	0	59	0	1784676352	49	4797
2026-01-29 09:43:49.43	351.51	21.74	-38.7	-41.5	12.2	1.38e-04	0	59	0	1797259264	48	5105
2026-01-29 09:43:53.47	351.28	21.19	-40.5	-46.4	6.4	1.72e-01	0	59	0	1809842176	51	7584
2026-01-29 09:43:57.51	351.06	20.66	-41.0	-51.2	3.8	1.49e+00	0	59	104	1814036480	52	12509
2026-01-29 09:44:01.55	350.84	20.14	-41.2	-52.3	3.8	1.49e+00	0	59	104	1814036480	54	12620
2026-01-29 09:44:05.59	350.64	19.63	-40.6	-52.5	3.8	1.49e+00	0	59	104	1814036480	52	14539
2026-01-29 09:44:09.63	350.44	19.12	-40.6	-52.6	3.8	1.49e+00	0	59	104	1814036480	52	14658
2026-01-29 09:44:13.67	350.24	18.63	-40.5	-52.6	3.8	1.49e+00	0	59	104	1814036480	52	14660
2026-01-29 09:44:17.71	350.06	18.15	-40.5	-52.7	3.8	1.49e+00	0	59	104	1814036480	52	14789
2026-01-29 09:44:21.74	349.88	17.67	-40.7	-52.9	3.8	1.49e+00	0	59	104	1814036480	52	15149
2026-01-29 09:44:25.78	349.71	17.21	-40.8	-53.1	3.8	1.49e+00	0	59	104	1814036480	52	15480
2026-01-29 09:44:29.82	349.54	16.75	-41.0	-53.3	3.8	1.49e+00	0	59	104	1814036480	52	15843
2026-01-29 09:44:33.85	349.38	16.30	-41.2	-53.5	3.8	1.49e+00	0	60	104	1814036480	52	16197
2026-01-29 09:44:37.89	349.22	15.86	-40.8	-53.0	3.8	1.49e+00	0	59	104	1814036480	53	14514
2026-01-29 09:44:41.93	349.07	15.43	-40.7	-52.9	3.8	1.49e+00	0	59	104	1814036480	53	14362
2026-01-29 09:44:45.97	348.92	15.00	-40.7	-52.9	3.8	1.49e+00	0	60	104	1814036480	53	14330
2026-01-29 09:44:50.01	348.78	14.58	-40.6	-52.9	3.8	1.49e+00	0	59	104	1814036480	53	14234
2026-01-29 09:44:54.05	348.64	14.17	-40.7	-53.0	3.8	1.49e+00	0	60	104	1814036480	53	14424
2026-01-29 09:44:58.08	348.50	13.77	-40.7	-53.0	3.8	1.49e+00	0	60	104	1814036480	53	14411
2026-01-29 09:45:02.12	348.37	13.37	-41.1	-53.5	3.8	1.49e+00	0	59	104	1814036480	53	15234
2026-01-29 09:45:06.16	348.25	12.97	-41.1	-53.4	3.8	1.49e+00	0	60	104	1814036480	53	15176
2026-01-29 09:45:10.20	348.12	12.59	-41.1	-53.4	3.8	1.49e+00	0	60	104	1814036480	53	15091
2026-01-29 09:45:14.24	348.00	12.21	-41.0	-53.3	3.8	1.49e+00	0	59	104	1814036480	53	14928
2026-01-29 09:45:18.28	347.89	11.83	-40.9	-53.2	3.8	1.49e+00	0	60	104	1814036480	53	14757
2026-01-29 09:45:22.31	347.78	11.46	-40.9	-53.2	3.8	1.49e+00	0	60	104	1814036480	53	14733
2026-01-29 09:45:26.35	347.67	11.10	-40.8	-53.2	3.8	1.49e+00	0	60	104	1814036480	53	14713
2026-01-29 09:45:30.39	347.56	10.74	-40.8	-53.1	3.8	1.49e+00	0	60	104	1814036480	53	14590
2026-01-29 09:45:34.42	347.46	10.39	-40.8	-53.1	3.8	1.49e+00	0	60	104	1814036480	53	14625
2026-01-29 09:45:38.46	347.36	10.04	-40.8	-53.2	3.8	1.49e+00	0	60	104	1814036480	53	14714
2026-01-29 09:45:42.50	347.26	9.69	-40.9	-53.3	3.8	1.49e+00	0	60	104	1814036480	53	14886
2026-01-29 09:45:46.54	347.16	9.35	-40.9	-53.3	3.8	1.49e+00	0	60	104	1814036480	53	14950
2026-01-29 09:45:50.58	347.07	9.02	-40.9	-53.2	3.8	1.49e+00	0	60	104	1814036480	53	14877
2026-01-29 09:45:54.62	346.98	8.69	-40.9	-53.2	3.8	1.49e+00	0	60	104	1814036480	53	14750
2026-01-29 09:45:58.66	346.89	8.36	-40.8	-53.1	3.8	1.49e+00	0	60	104	1814036480	53	14600
2026-01-29 09:46:02.69	346.81	8.04	-40.8	-53.0	3.8	1.49e+00	0	60	104	1814036480	53	14540
2026-01-29 09:46:06.73	346.72	7.72	-44.4	-56.8	3.8	1.49e+00	0	60	104	1814036480	59	15812
2026-01-29 09:46:10.77	346.64	7.41	-44.4	-57.5	3.8	1.49e+00	0	60	104	1814036480	60	16137
2026-01-29 09:46:14.81	346.56	7.10	-44.9	-57.5	3.8	1.49e+00	0	60	104	1814036480	60	16314
2026-01-29 09:46:18.85	346.49	6.79	-44.8	-57.5	3.8	1.49e+00	0	60	104	1814036480	60	16129
2026-01-29 09:46:22.89	346.41	6.49	-44.7	-57.4	3.8	1.49e+00	0	59	104	1814036480	60	16015
2026-01-29 09:46:26.93	346.34	6.18	-44.7	-57.4	3.8	1.49e+00	0	60	104	1814036480	60	15945
2026-01-29 09:46:30.97	346.27	5.89	-44.7	-57.3	3.8	1.49e+00	0	60	104	1814036480	60	15930
2026-01-29 09:46:35.01	346.20	5.59	-44.7	-57.3	3.8	1.49e+00	0	60	104	1814036480	60	15939
2026-01-29 09:46:39.06	346.13	5.30	-44.7	-57.4	3.8	1.49e+00	0	60	104	1814036480	60	15965
2026-01-29 09:46:43.10	346.06	5.02	-44.7	-57.4	3.8	1.49e+00	0	60	104	1814036480	60	15993
2026-01-29 09:46:47.14	346.00	4.73	-44.5	-57.3	3.8	1.49e+00	0	60	104	1814036480	60	15914
2026-01-29 09:46:51.18	345.94	4.45	-44.7	-57.3	3.8	1.49e+00	0	60	104	1814036480	60	15902
2026-01-29 09:46:55.22	345.87	4.17	-44.7	-57.3	3.8	1.49e+00	0	60	104	1814036480	60	15886
2026-01-29 09:46:59.26	345.81	3.90	-44.7	-57.3	3.8	1.49e+00	0	60	104	1814036480	60	15866
2026-01-29 09:47:03.30	345.76	3.62	-44.7	-57.3	3.8	1.49e+00	0	60	104	1814036480	60	15864
2026-01-29 09:47:07.35	345.70	3.35	-44.6	-57.3	3.8	1.49e+00	0	60	104	1814036480	60	15837
2026-01-29 09:47:11.39	345.64	3.09	-44.6	-57.3	3.8	1.49e+00	0	60	104	1814036480	60	15860
2026-01-29 09:47:15.43	345.59	2.82	-44.7	-57.3	3.8	1.49e+00	0	60	104	1814036480	60	15840
2026-01-29 09:47:19.47	345.54	2.56	-44.7	-57.3	3.8	1.49e+00	0	60	104	1814036480	60	15845
2026-01-29 09:47:23.51	345.48	2.30	-44.6	-57.3	3.8	1.49e+00	0	60	104	1814036480	60	15826
2026-01-29 09:47:27.55	345.43	2.04	-44.7	-57.3	3.8	1.49e+00	0	60	104	1814036480	60	15834

#Closed at: 2026-01-29 09:47:28
#Recorded file [1814 MB]: D:/lorett/data/31039_260129_123310.dat