passes_logs/2026/01/29/R2.0S_Moscow/R2.0S_Moscow__20260129_010854_FENGYUN_3D_rec.log

#Pass ID: 20260129_010854_FENGYUN 3D
#Satellite: FENGYUN 3D
#Configuration: FENGYUN 3D
#almurnet v.1.7.20251203
#Start time: 2026-01-29 01:08:53

#Version: 2.2.20231116
#Station: R2.0S_Moscow
#Location: 37.707566 lon 55.798166 lat
#TLE: 1 43010U 17072A   26027.90082829  .00000305  00000+0  16579-3 0  9998
#TLE: 2 43010  98.9960 359.9183 0002511  88.1058 272.0405 14.19701796425082

#Time	Az	El	Level	Level2	SNR	BER	BlckErr	Temp	State	Recorded	gain1	gain2
2026-01-29 01:08:53.62	19.72	1.97	-41.8	-53.2	3.8	8.46e-01	0	49	0	0	55	13217
2026-01-29 01:08:57.65	19.85	2.22	-41.7	-53.3	3.8	8.46e-01	0	49	104	0	55	13268
2026-01-29 01:09:01.69	19.98	2.47	-41.7	-53.3	3.8	8.46e-01	0	50	104	0	55	13288
2026-01-29 01:09:05.73	20.12	2.73	-41.7	-53.3	3.8	8.47e-01	0	50	104	0	55	13275
2026-01-29 01:09:09.78	20.26	2.98	-41.7	-53.2	3.8	8.48e-01	0	50	104	0	55	13234
2026-01-29 01:09:13.82	20.39	3.24	-41.8	-53.2	3.8	8.47e-01	0	51	104	0	55	13255
2026-01-29 01:09:17.86	20.54	3.51	-41.7	-53.2	3.8	8.45e-01	0	51	104	0	55	13257
2026-01-29 01:09:21.90	20.68	3.77	-41.7	-53.2	3.8	8.45e-01	0	51	104	0	55	13224
2026-01-29 01:09:25.94	20.82	4.04	-41.7	-53.2	3.8	8.46e-01	0	51	104	0	55	13176
2026-01-29 01:09:29.98	20.97	4.31	-41.7	-53.2	3.8	8.46e-01	0	52	104	0	55	13241
2026-01-29 01:09:34.02	21.12	4.58	-41.7	-53.2	3.8	8.46e-01	0	52	104	0	55	13253
2026-01-29 01:09:38.07	21.28	4.86	-41.7	-53.2	3.8	8.47e-01	0	52	104	0	55	13228
2026-01-29 01:09:42.11	21.43	5.14	-41.7	-53.3	3.8	8.45e-01	0	52	104	0	55	13278
2026-01-29 01:09:46.15	21.59	5.42	-41.7	-53.2	3.8	8.45e-01	0	53	104	0	55	13223
2026-01-29 01:09:50.19	21.75	5.70	-41.7	-53.2	3.8	8.47e-01	0	53	104	0	55	13247
2026-01-29 01:09:54.23	21.91	5.99	-41.7	-53.2	3.8	8.45e-01	0	53	104	0	55	13224
2026-01-29 01:09:58.27	22.08	6.28	-41.7	-53.2	3.8	8.45e-01	0	53	104	0	55	13196
2026-01-29 01:10:02.31	22.25	6.57	-41.7	-53.2	3.8	8.46e-01	0	53	104	0	55	13175
2026-01-29 01:10:06.35	22.42	6.86	-41.7	-53.1	3.8	8.46e-01	0	53	104	0	55	13031
2026-01-29 01:10:10.40	22.60	7.16	-41.7	-52.8	3.8	8.45e-01	0	54	104	0	55	12524
2026-01-29 01:10:14.44	22.78	7.47	-41.6	-52.1	3.8	8.47e-01	0	54	104	0	55	11683
2026-01-29 01:10:18.48	22.96	7.77	-41.3	-49.6	4.2	8.38e-01	0	54	0	0	54	9226
2026-01-29 01:10:22.52	23.15	8.08	-40.2	-44.8	7.4	1.71e-01	0	54	0	8388608	52	5976
2026-01-29 01:10:26.56	23.33	8.40	-38.1	-40.8	11.8	2.36e-01	0	54	0	30408704	48	4713
2026-01-29 01:10:30.60	23.53	8.71	-38.9	-41.6	12.0	4.12e-04	0	54	0	53477376	48	5184
2026-01-29 01:10:34.64	23.73	9.03	-38.7	-41.1	12.7	8.81e-05	0	55	0	76546048	48	4901
2026-01-29 01:10:38.68	23.93	9.36	-38.3	-40.6	13.4	2.51e-05	0	55	0	99614720	48	4617
2026-01-29 01:10:42.73	24.13	9.69	-38.5	-40.8	13.2	3.66e-05	0	55	0	121634816	48	4722
2026-01-29 01:10:46.77	24.34	10.02	-38.3	-40.4	13.7	1.48e-05	0	55	0	144703488	48	4542
2026-01-29 01:10:50.81	24.56	10.36	-38.1	-40.2	14.1	5.70e-06	0	55	0	167772160	48	4395
2026-01-29 01:10:54.85	24.77	10.70	-38.4	-40.5	13.9	5.70e-06	0	55	0	189792256	48	4582
2026-01-29 01:10:58.89	25.00	11.04	-38.2	-40.1	14.4	1.10e-06	0	56	0	212860928	48	4367
2026-01-29 01:11:02.93	25.23	11.40	-38.1	-40.0	14.6	1.10e-06	0	55	0	235929600	48	4310
2026-01-29 01:11:06.96	25.46	11.75	-38.0	-40.0	14.6	1.10e-06	0	56	0	257949696	47	4547
2026-01-29 01:11:11.01	25.70	12.11	-37.9	-39.8	14.7	0.00e+00	0	55	0	281018368	47	4465
2026-01-29 01:11:15.05	25.94	12.48	-37.9	-39.8	14.8	0.00e+00	0	56	0	304087040	47	4443
2026-01-29 01:11:19.09	26.19	12.85	-37.8	-39.6	14.9	0.00e+00	0	56	0	326107136	47	4378
2026-01-29 01:11:23.12	26.45	13.22	-37.7	-39.5	15.1	0.00e+00	0	56	0	349175808	47	4338
2026-01-29 01:11:27.16	26.71	13.60	-37.9	-39.8	14.9	0.00e+00	0	56	0	372244480	47	4447
2026-01-29 01:11:31.21	26.98	13.99	-37.7	-39.6	15.1	0.00e+00	0	56	0	394264576	47	4352
2026-01-29 01:11:35.25	27.25	14.38	-37.4	-39.1	15.6	0.00e+00	0	56	0	417333248	46	4384
2026-01-29 01:11:39.29	27.54	14.78	-37.3	-39.0	15.8	0.00e+00	0	56	0	440401920	46	4295
2026-01-29 01:11:43.33	27.83	15.18	-37.1	-38.8	16.0	0.00e+00	0	56	0	462422016	46	4198
2026-01-29 01:11:47.37	28.12	15.59	-37.2	-38.8	16.0	0.00e+00	0	56	0	485490688	46	4242
2026-01-29 01:11:51.41	28.43	16.01	-37.2	-38.8	16.0	0.00e+00	0	57	0	508559360	46	4226
2026-01-29 01:11:55.45	28.74	16.43	-36.9	-38.5	16.3	0.00e+00	0	57	0	530579456	45	4325
2026-01-29 01:11:59.50	29.06	16.87	-36.9	-38.4	16.4	0.00e+00	0	57	0	553648128	45	4285
2026-01-29 01:12:03.54	29.39	17.30	-36.9	-38.5	16.4	0.00e+00	0	57	0	576716800	45	4296
2026-01-29 01:12:07.58	29.73	17.75	-36.8	-38.3	16.6	0.00e+00	0	57	0	599785472	45	4225
2026-01-29 01:12:11.62	30.08	18.20	-36.6	-38.1	16.8	0.00e+00	0	57	0	621805568	45	4136
2026-01-29 01:12:15.66	30.44	18.66	-36.6	-38.1	17.0	0.00e+00	0	57	0	644874240	45	4099
2026-01-29 01:12:19.70	30.81	19.12	-36.6	-38.1	16.9	0.00e+00	0	57	0	666894336	45	4142
2026-01-29 01:12:23.74	31.19	19.60	-36.5	-38.0	17.0	0.00e+00	0	57	0	689963008	45	4076
2026-01-29 01:12:27.78	31.59	20.08	-36.4	-37.9	17.2	0.00e+00	0	57	0	713031680	44	4247
2026-01-29 01:12:31.82	31.99	20.57	-36.3	-37.8	17.3	0.00e+00	0	57	0	736100352	44	4194
2026-01-29 01:12:35.86	32.41	21.07	-36.4	-37.8	17.3	0.00e+00	0	57	0	758120448	44	4239
2026-01-29 01:12:39.90	32.84	21.58	-36.2	-37.6	17.5	0.00e+00	0	57	0	781189120	44	4106
2026-01-29 01:12:43.94	33.28	22.09	-35.8	-37.1	17.8	0.00e+00	0	57	0	804257792	43	4145
2026-01-29 01:12:47.99	33.74	22.62	-35.8	-37.1	17.9	0.00e+00	0	57	0	826277888	43	4133
2026-01-29 01:12:52.03	34.22	23.15	-35.9	-37.2	17.8	0.00e+00	0	57	0	849346560	43	4191
2026-01-29 01:12:56.06	34.71	23.70	-35.6	-36.9	18.1	0.00e+00	0	57	0	871366656	43	4027
2026-01-29 01:13:00.10	35.22	24.25	-35.6	-36.9	18.1	0.00e+00	0	57	0	894435328	43	4032
2026-01-29 01:13:04.15	35.74	24.81	-35.2	-36.5	18.5	0.00e+00	0	57	0	917504000	42	4093
2026-01-29 01:13:08.19	36.29	25.39	-35.3	-36.6	18.4	0.00e+00	0	57	0	940572672	42	4145
2026-01-29 01:13:12.24	36.85	25.97	-35.4	-36.7	18.4	0.00e+00	0	57	0	962592768	42	4177
2026-01-29 01:13:16.28	37.44	26.56	-35.3	-36.6	18.5	0.00e+00	0	57	0	985661440	42	4112
2026-01-29 01:13:20.32	38.04	27.17	-35.3	-36.6	18.5	0.00e+00	0	57	0	1008730112	42	4105
2026-01-29 01:13:24.37	38.67	27.78	-35.1	-36.4	18.7	0.00e+00	0	57	0	1030750208	42	4028
2026-01-29 01:13:28.41	39.32	28.41	-35.3	-36.6	18.5	0.00e+00	0	57	0	1053818880	42	4123
2026-01-29 01:13:32.45	40.00	29.04	-35.4	-36.6	18.5	0.00e+00	0	58	0	1076887552	42	4139
2026-01-29 01:13:36.49	40.71	29.69	-35.3	-36.6	18.6	0.00e+00	0	58	0	1098907648	42	4106
2026-01-29 01:13:40.53	41.44	30.34	-35.3	-36.5	18.6	0.00e+00	0	58	0	1121976320	42	4093
2026-01-29 01:13:44.57	42.21	31.00	-35.2	-36.5	18.7	0.00e+00	0	57	0	1145044992	42	4060
2026-01-29 01:13:48.61	43.00	31.68	-35.0	-36.2	18.9	0.00e+00	0	58	0	1167065088	42	3947
2026-01-29 01:13:52.65	43.83	32.36	-34.8	-36.1	18.8	0.00e+00	0	58	0	1190133760	41	4118
2026-01-29 01:13:56.70	44.69	33.06	-35.0	-36.4	18.5	0.00e+00	0	58	0	1213202432	41	4258
2026-01-29 01:14:00.74	45.60	33.76	-34.9	-36.2	18.7	0.00e+00	0	58	0	1236271104	41	4177
2026-01-29 01:14:04.78	46.54	34.47	-34.6	-36.0	18.9	0.00e+00	0	58	0	1258291200	41	4060
2026-01-29 01:14:08.82	47.52	35.19	-35.2	-36.6	18.3	0.00e+00	0	58	0	1281359872	41	4367
2026-01-29 01:14:12.87	48.54	35.92	-34.8	-36.2	18.7	0.00e+00	0	58	0	1304428544	41	4156
2026-01-29 01:14:16.91	49.62	36.65	-34.7	-36.0	18.9	0.00e+00	0	58	0	1326448640	41	4063
2026-01-29 01:14:20.95	50.74	37.38	-34.7	-36.0	19.0	0.00e+00	0	58	0	1349517312	41	4068
2026-01-29 01:14:25.00	51.91	38.13	-34.4	-35.7	19.3	0.00e+00	0	58	0	1372585984	40	4147
2026-01-29 01:14:29.04	53.14	38.87	-34.8	-36.1	18.9	0.00e+00	0	58	0	1394606080	40	4383
2026-01-29 01:14:33.08	54.42	39.62	-34.5	-35.8	19.2	0.00e+00	0	58	0	1417674752	40	4212
2026-01-29 01:14:37.12	55.76	40.36	-35.1	-36.5	18.5	0.00e+00	0	58	0	1440743424	40	4564
2026-01-29 01:14:41.16	57.16	41.10	-35.1	-36.4	18.6	0.00e+00	0	58	0	1462763520	40	4528
2026-01-29 01:14:45.20	58.63	41.84	-34.8	-36.2	18.9	0.00e+00	0	58	0	1485832192	40	4399
2026-01-29 01:14:49.24	60.17	42.57	-34.8	-36.2	18.9	0.00e+00	0	58	0	1508900864	40	4392
2026-01-29 01:14:53.29	61.78	43.30	-34.9	-36.2	18.8	0.00e+00	0	58	0	1530920960	40	4420
2026-01-29 01:14:57.33	63.46	44.01	-34.9	-36.3	18.8	0.00e+00	0	58	0	1553989632	40	4442
2026-01-29 01:15:01.37	65.21	44.70	-35.1	-36.5	18.6	0.00e+00	0	58	0	1577058304	40	4575
2026-01-29 01:15:05.42	67.05	45.38	-35.1	-36.4	18.6	0.00e+00	0	58	0	1599078400	41	4279
2026-01-29 01:15:09.46	68.96	46.03	-35.2	-36.6	18.5	0.00e+00	0	58	0	1622147072	41	4349
2026-01-29 01:15:13.50	70.95	46.66	-35.3	-36.6	18.5	0.00e+00	0	58	0	1645215744	41	4387
2026-01-29 01:15:17.54	73.01	47.26	-34.9	-36.2	18.9	0.00e+00	0	58	0	1668284416	41	4188
2026-01-29 01:15:21.58	75.16	47.83	-35.2	-36.5	18.6	0.00e+00	0	58	0	1690304512	41	4318
2026-01-29 01:15:25.62	77.38	48.36	-35.1	-36.5	18.7	0.00e+00	0	58	0	1713373184	41	4296
2026-01-29 01:15:29.66	79.68	48.85	-35.1	-36.4	18.8	0.00e+00	0	58	0	1735393280	41	4267
2026-01-29 01:15:33.70	82.05	49.29	-35.3	-36.6	18.6	0.00e+00	0	58	0	1758461952	41	4353
2026-01-29 01:15:37.74	84.48	49.69	-35.3	-36.6	18.5	0.00e+00	0	58	0	1781530624	41	4391
2026-01-29 01:15:41.79	86.98	50.03	-35.3	-36.6	18.5	0.00e+00	0	58	0	1804599296	41	4376
2026-01-29 01:15:45.83	89.52	50.32	-35.0	-36.3	18.9	0.00e+00	0	58	0	1826619392	41	4204
2026-01-29 01:15:49.87	92.11	50.55	-35.3	-36.6	18.6	0.00e+00	0	58	0	1849688064	41	4364
2026-01-29 01:15:53.91	94.73	50.72	-35.1	-36.4	18.8	0.00e+00	0	58	0	1872756736	41	4261
2026-01-29 01:15:57.95	97.38	50.82	-35.1	-36.4	18.7	0.00e+00	0	58	0	1894776832	41	4280
2026-01-29 01:16:01.99	100.04	50.87	-35.2	-36.5	18.7	0.00e+00	0	58	0	1917845504	41	4309
2026-01-29 01:16:06.04	102.71	50.85	-35.0	-36.3	18.8	0.00e+00	0	58	0	1940914176	41	4242
2026-01-29 01:16:10.08	105.36	50.76	-35.2	-36.5	18.7	0.00e+00	0	58	0	1962934272	41	4315
2026-01-29 01:16:14.12	108.00	50.61	-35.3	-36.7	18.5	0.00e+00	0	58	0	1986002944	41	4408
2026-01-29 01:16:18.17	110.61	50.40	-35.5	-36.9	18.3	0.00e+00	0	58	0	2009071616	41	4521
2026-01-29 01:16:22.21	113.17	50.14	-35.0	-36.3	18.8	0.00e+00	0	58	0	2031091712	41	4241
2026-01-29 01:16:26.25	115.69	49.81	-35.4	-36.7	18.4	0.00e+00	0	58	0	2054160384	41	4439
2026-01-29 01:16:30.29	118.14	49.43	-35.3	-36.6	18.5	0.00e+00	0	58	0	2077229056	41	4382
2026-01-29 01:16:34.34	120.54	49.00	-35.3	-36.7	18.5	0.00e+00	0	58	0	2100297728	41	4422
2026-01-29 01:16:38.38	122.87	48.53	-35.3	-36.7	18.5	0.00e+00	0	58	0	2122317824	41	4403
2026-01-29 01:16:42.43	125.13	48.01	-35.3	-36.7	18.5	0.00e+00	0	58	0	2145386496	41	4395
2026-01-29 01:16:46.47	127.30	47.45	-34.9	-36.2	18.9	0.00e+00	0	58	0	2168455168	41	4171
2026-01-29 01:16:50.51	129.40	46.86	-35.2	-36.5	18.6	0.00e+00	0	58	0	2190475264	41	4337
2026-01-29 01:16:54.56	131.42	46.24	-35.1	-36.5	18.7	0.00e+00	0	58	0	2213543936	41	4303
2026-01-29 01:16:58.60	133.37	45.59	-35.2	-36.5	18.6	0.00e+00	0	58	0	2236612608	41	4336
2026-01-29 01:17:02.64	135.23	44.92	-35.4	-36.8	18.3	0.00e+00	0	59	0	2258632704	41	4483
2026-01-29 01:17:06.68	137.01	44.22	-35.2	-36.6	18.4	0.00e+00	0	58	0	2281701376	41	4389
2026-01-29 01:17:10.71	138.71	43.52	-35.0	-36.3	18.7	0.00e+00	0	58	0	2303721472	41	4239
2026-01-29 01:17:14.75	140.35	42.79	-35.0	-36.4	18.7	0.00e+00	0	58	0	2326790144	41	4258
2026-01-29 01:17:18.79	141.91	42.06	-34.9	-36.3	18.7	0.00e+00	0	58	0	2349858816	41	4211
2026-01-29 01:17:22.83	143.41	41.32	-35.1	-36.5	18.6	0.00e+00	0	58	0	2372927488	41	4299
2026-01-29 01:17:26.87	144.84	40.58	-34.7	-36.0	19.0	0.00e+00	0	58	0	2394947584	41	4091
2026-01-29 01:17:30.92	146.20	39.83	-34.6	-35.9	19.1	0.00e+00	0	59	0	2418016256	41	4043
2026-01-29 01:17:34.96	147.51	39.08	-34.7	-36.1	19.0	0.00e+00	0	59	0	2441084928	41	4112
2026-01-29 01:17:39.00	148.75	38.33	-34.6	-35.9	19.1	0.00e+00	0	59	0	2463105024	41	4034
2026-01-29 01:17:43.04	149.95	37.59	-34.6	-35.9	19.1	0.00e+00	0	59	0	2486173696	41	4011
2026-01-29 01:17:47.08	151.09	36.84	-34.8	-36.1	18.9	0.00e+00	0	59	0	2509242368	41	4125
2026-01-29 01:17:51.12	152.17	36.10	-34.8	-36.1	18.9	0.00e+00	0	59	0	2531262464	41	4121
2026-01-29 01:17:55.16	153.22	35.37	-34.7	-36.1	18.9	0.00e+00	0	59	0	2554331136	41	4104
2026-01-29 01:17:59.21	154.22	34.65	-34.4	-35.8	19.2	0.00e+00	0	58	0	2577399808	40	4195
2026-01-29 01:18:03.25	155.17	33.93	-34.4	-35.7	19.2	0.00e+00	0	58	0	2599419904	40	4190
2026-01-29 01:18:07.29	156.09	33.22	-34.6	-35.9	19.0	0.00e+00	0	59	0	2622488576	40	4280
2026-01-29 01:18:11.33	156.96	32.52	-34.9	-36.2	18.7	0.00e+00	0	59	0	2645557248	40	4439
2026-01-29 01:18:15.37	157.80	31.83	-35.0	-36.4	18.5	0.00e+00	0	59	0	2668625920	40	4506
2026-01-29 01:18:19.41	158.61	31.15	-35.1	-36.5	18.3	0.00e+00	0	58	0	2690646016	40	4591
2026-01-29 01:18:23.45	159.38	30.48	-35.1	-36.5	18.3	0.00e+00	0	58	0	2713714688	41	4335
2026-01-29 01:18:27.49	160.13	29.81	-35.2	-36.7	18.2	0.00e+00	0	58	0	2735734784	41	4407
2026-01-29 01:18:31.53	160.84	29.16	-35.2	-36.7	18.2	0.00e+00	0	58	0	2758803456	41	4393
2026-01-29 01:18:35.57	161.53	28.52	-35.1	-36.5	18.4	0.00e+00	0	59	0	2781872128	41	4300
2026-01-29 01:18:39.62	162.19	27.89	-35.0	-36.4	18.5	0.00e+00	0	58	0	2804940800	41	4269
2026-01-29 01:18:43.66	162.83	27.27	-34.9	-36.3	18.6	0.00e+00	0	59	0	2826960896	41	4194
2026-01-29 01:18:47.70	163.44	26.66	-34.9	-36.3	18.6	0.00e+00	0	58	0	2850029568	41	4200
2026-01-29 01:18:51.75	164.03	26.06	-35.1	-36.5	18.4	0.00e+00	0	58	0	2873098240	41	4311
2026-01-29 01:18:55.79	164.60	25.47	-35.2	-36.6	18.2	0.00e+00	0	59	0	2895118336	41	4357
2026-01-29 01:18:59.82	165.15	24.89	-35.0	-36.4	18.4	0.00e+00	0	58	0	2918187008	41	4279
2026-01-29 01:19:03.86	165.68	24.32	-35.2	-36.6	18.2	0.00e+00	0	59	0	2940207104	41	4349
2026-01-29 01:19:07.90	166.20	23.76	-35.4	-36.8	17.9	0.00e+00	0	59	0	2963275776	41	4493
2026-01-29 01:19:11.94	166.69	23.21	-35.7	-37.2	17.6	0.00e+00	0	59	0	2986344448	41	4682
2026-01-29 01:19:15.98	167.17	22.67	-35.6	-37.1	17.6	0.00e+00	0	59	0	3009413120	41	4622
2026-01-29 01:19:20.03	167.63	22.14	-35.6	-37.1	17.6	0.00e+00	0	59	0	3031433216	41	4645
2026-01-29 01:19:24.07	168.08	21.62	-35.7	-37.2	17.5	0.00e+00	0	59	0	3054501888	41	4668
2026-01-29 01:19:28.11	168.51	21.10	-35.8	-37.3	17.4	0.00e+00	0	59	0	3077570560	42	4476
2026-01-29 01:19:32.15	168.93	20.60	-35.9	-37.4	17.3	0.00e+00	0	59	0	3099590656	42	4536
2026-01-29 01:19:36.19	169.34	20.10	-36.0	-37.5	17.2	0.00e+00	0	59	0	3122659328	42	4588
2026-01-29 01:19:40.23	169.74	19.62	-36.2	-37.8	17.0	0.00e+00	0	59	0	3145728000	42	4719
2026-01-29 01:19:44.27	170.12	19.14	-36.3	-37.9	16.8	0.00e+00	0	59	0	3167748096	43	4510
2026-01-29 01:19:48.31	170.49	18.66	-36.3	-37.9	16.8	0.00e+00	0	59	0	3190816768	43	4530
2026-01-29 01:19:52.35	170.85	18.20	-36.3	-37.8	16.8	0.00e+00	0	59	0	3213885440	43	4488
2026-01-29 01:19:56.40	171.20	17.74	-36.3	-37.9	16.7	0.00e+00	0	59	0	3235905536	43	4526
2026-01-29 01:20:00.44	171.54	17.30	-36.5	-38.2	16.5	0.00e+00	0	59	0	3258974208	43	4657
2026-01-29 01:20:04.48	171.87	16.85	-37.0	-38.8	16.0	0.00e+00	0	59	0	3282042880	44	4733
2026-01-29 01:20:08.53	172.20	16.42	-37.3	-39.1	15.7	0.00e+00	0	58	0	3305111552	45	4618
2026-01-29 01:20:12.57	172.51	15.99	-37.4	-39.3	15.5	0.00e+00	0	59	0	3327131648	45	4712
2026-01-29 01:20:16.61	172.81	15.57	-37.4	-39.2	15.5	0.00e+00	0	59	0	3350200320	45	4692
2026-01-29 01:20:20.65	173.11	15.16	-37.4	-39.3	15.4	0.00e+00	0	59	0	3372220416	45	4727
2026-01-29 01:20:24.69	173.40	14.75	-37.6	-39.5	15.2	0.00e+00	0	59	0	3395289088	45	4858
2026-01-29 01:20:28.73	173.68	14.35	-37.7	-39.7	15.0	0.00e+00	0	59	0	3418357760	46	4658
2026-01-29 01:20:32.78	173.96	13.95	-37.8	-39.8	14.8	2.20e-06	0	59	0	3441426432	46	4723
2026-01-29 01:20:36.82	174.23	13.56	-37.8	-39.8	14.8	0.00e+00	0	59	0	3463446528	46	4718
2026-01-29 01:20:40.86	174.49	13.17	-37.6	-39.5	15.1	1.10e-06	0	59	0	3486515200	46	4556
2026-01-29 01:20:44.91	174.74	12.79	-37.6	-39.6	15.0	1.10e-06	0	59	0	3509583872	46	4606
2026-01-29 01:20:48.94	174.99	12.42	-37.7	-39.6	14.9	0.00e+00	0	59	0	3531603968	46	4618
2026-01-29 01:20:52.98	175.23	12.05	-37.8	-39.8	14.7	0.00e+00	0	59	0	3554672640	46	4748
2026-01-29 01:20:57.02	175.47	11.69	-37.9	-40.0	14.5	0.00e+00	0	59	0	3577741312	46	4824
2026-01-29 01:21:01.06	175.70	11.33	-38.1	-40.2	14.3	3.40e-06	0	59	0	3599761408	46	4935
2026-01-29 01:21:05.10	175.93	10.98	-38.1	-40.2	14.2	0.00e+00	0	59	0	3622830080	46	4975
2026-01-29 01:21:09.14	176.15	10.63	-38.1	-40.3	14.1	8.00e-06	0	58	0	3645898752	46	5008
2026-01-29 01:21:13.19	176.37	10.28	-38.2	-40.4	13.9	6.80e-06	0	59	0	3667918848	47	4792
2026-01-29 01:21:17.23	176.58	9.94	-38.4	-40.6	13.6	1.02e-05	0	59	0	3690987520	47	4923
2026-01-29 01:21:21.27	176.79	9.61	-38.4	-40.6	13.6	1.48e-05	0	59	0	3714056192	47	4906
2026-01-29 01:21:25.31	176.99	9.28	-38.4	-40.7	13.5	2.17e-05	0	59	0	3737124864	47	4961
2026-01-29 01:21:29.35	177.19	8.95	-38.6	-41.0	13.2	3.20e-05	0	59	0	3759144960	47	5109
2026-01-29 01:21:33.40	177.38	8.62	-38.7	-41.1	13.1	5.60e-05	0	59	0	3782213632	48	4904
2026-01-29 01:21:37.44	177.57	8.31	-38.6	-41.0	13.2	3.66e-05	0	59	0	3804233728	48	4817
2026-01-29 01:21:41.49	177.76	7.99	-39.3	-41.9	12.4	5.83e-05	0	59	0	3827302400	48	5395
2026-01-29 01:21:45.53	177.94	7.68	-44.8	-56.7	3.8	8.44e-01	0	59	104	3829399552	60	14826
2026-01-29 01:21:49.57	178.12	7.37	-45.2	-57.1	3.8	8.46e-01	0	59	104	3829399552	60	15481
2026-01-29 01:21:53.61	178.30	7.06	-45.1	-57.1	3.8	8.46e-01	0	59	104	3829399552	60	15543
2026-01-29 01:21:57.66	178.47	6.76	-45.0	-57.0	3.8	8.47e-01	0	59	104	3829399552	60	15325
2026-01-29 01:22:01.70	178.64	6.46	-45.0	-57.0	3.8	8.46e-01	0	59	104	3829399552	60	15257
2026-01-29 01:22:05.74	178.81	6.17	-45.0	-57.0	3.8	8.45e-01	0	59	104	3829399552	60	15242
2026-01-29 01:22:09.78	178.97	5.88	-45.0	-56.9	3.8	8.45e-01	0	59	104	3829399552	60	15178
2026-01-29 01:22:13.82	179.13	5.59	-45.0	-56.9	3.8	8.47e-01	0	59	104	3829399552	60	15224
2026-01-29 01:22:17.86	179.29	5.30	-44.9	-56.9	3.8	8.46e-01	0	59	104	3829399552	60	15142
2026-01-29 01:22:21.91	179.44	5.02	-44.9	-56.9	3.8	8.46e-01	0	59	104	3829399552	60	15124
2026-01-29 01:22:25.95	179.59	4.74	-44.9	-56.9	3.8	8.46e-01	0	59	104	3829399552	60	15088
2026-01-29 01:22:29.99	179.74	4.46	-44.9	-56.8	3.8	8.46e-01	0	59	104	3829399552	60	15024
2026-01-29 01:22:34.03	179.89	4.19	-44.9	-56.9	3.8	8.47e-01	0	59	104	3829399552	60	15075
2026-01-29 01:22:38.06	180.03	3.91	-44.9	-56.9	3.8	8.46e-01	0	59	104	3829399552	60	15095
2026-01-29 01:22:42.11	180.17	3.64	-44.9	-56.8	3.8	8.45e-01	0	59	104	3829399552	60	15044
2026-01-29 01:22:46.15	180.31	3.38	-44.9	-56.8	3.8	8.47e-01	0	59	104	3829399552	60	15020
2026-01-29 01:22:50.19	180.45	3.11	-44.9	-56.8	3.8	8.46e-01	0	59	104	3829399552	60	15011
2026-01-29 01:22:54.23	180.58	2.85	-44.9	-56.8	3.8	8.46e-01	0	59	104	3829399552	60	15015
2026-01-29 01:22:58.27	180.71	2.59	-44.9	-56.9	3.8	8.45e-01	0	59	104	3829399552	60	15078
2026-01-29 01:23:02.31	180.84	2.33	-44.9	-56.9	3.8	8.45e-01	0	59	104	3829399552	60	15055
2026-01-29 01:23:06.36	180.97	2.08	-44.9	-56.8	3.8	8.46e-01	0	59	104	3829399552	60	14982
2026-01-29 01:23:10.40	181.10	1.83	-44.9	-56.8	3.8	8.47e-01	0	59	104	3829399552	60	15007

#Closed at: 2026-01-29 01:23:10
#Recorded file [3829 MB]: D:/lorett/data/31039_260129_040853.dat