passes_logs/2026/01/29/R2.0S_Moscow/R2.0S_Moscow__20260129_221323_SUOMI_NPP_rec.log

#Pass ID: 20260129_221323_SUOMI NPP
#Satellite: SUOMI NPP
#Configuration: NPP
#almurnet v.1.7.20251203
#Start time: 2026-01-29 22:13:26

#Version: 2.2.20231116
#Station: R2.0S_Moscow
#Location: 37.707566 lon 55.798166 lat
#TLE: 1 37849U 11061A   26028.91916408  .00000155  00000+0  94467-4 0  9990
#TLE: 2 37849  98.7824 330.8488 0002045  39.4457 320.6868 14.19531289738686

#Time	Az	El	Level	Level2	SNR	BER	BlckErr	Temp	State	Recorded	gain1	gain2
2026-01-29 22:13:26.10	25.69	2.12	-41.7	-56.1	3.8	1.49e+00	0	51	0	0	55	18430
2026-01-29 22:13:29.13	25.91	2.29	-41.7	-56.2	3.8	1.49e+00	0	52	104	0	55	18518
2026-01-29 22:13:32.16	26.14	2.45	-41.7	-56.1	3.8	1.49e+00	0	52	104	0	55	18486
2026-01-29 22:13:35.19	26.36	2.62	-41.7	-56.1	3.8	1.49e+00	0	52	104	0	55	18431
2026-01-29 22:13:38.23	26.59	2.79	-41.7	-56.1	3.8	1.49e+00	0	52	104	0	55	18478
2026-01-29 22:13:41.26	26.82	2.95	-41.7	-56.1	3.8	1.49e+00	0	52	104	0	55	18495
2026-01-29 22:13:44.29	27.06	3.12	-41.7	-56.1	3.8	1.49e+00	0	53	104	0	55	18434
2026-01-29 22:13:47.32	27.29	3.29	-41.7	-56.1	3.8	1.49e+00	0	53	104	0	55	18494
2026-01-29 22:13:50.35	27.53	3.46	-41.7	-56.1	3.8	1.49e+00	0	53	104	0	55	18440
2026-01-29 22:13:53.38	27.78	3.63	-41.7	-56.1	3.8	1.49e+00	0	53	104	0	55	18462
2026-01-29 22:13:56.41	28.02	3.80	-41.7	-56.1	3.8	1.49e+00	0	53	104	0	55	18420
2026-01-29 22:13:59.44	28.27	3.97	-41.7	-56.1	3.8	1.49e+00	0	54	104	0	55	18421
2026-01-29 22:14:02.47	28.52	4.14	-41.7	-56.1	3.8	1.49e+00	0	53	104	0	55	18408
2026-01-29 22:14:05.50	28.77	4.31	-41.7	-56.1	3.8	1.49e+00	0	54	104	0	55	18463
2026-01-29 22:14:08.53	29.02	4.49	-41.7	-56.1	3.8	1.49e+00	0	54	104	0	55	18413
2026-01-29 22:14:11.56	29.28	4.66	-41.7	-56.1	3.8	1.49e+00	0	54	104	0	55	18386
2026-01-29 22:14:14.59	29.54	4.83	-41.7	-56.1	3.8	1.49e+00	0	54	104	0	55	18448
2026-01-29 22:14:17.63	29.81	5.01	-41.7	-56.1	3.8	1.49e+00	0	55	104	0	55	18408
2026-01-29 22:14:20.66	30.08	5.18	-41.7	-56.1	3.8	1.49e+00	0	55	104	0	55	18378
2026-01-29 22:14:23.69	30.35	5.36	-41.7	-56.1	3.8	1.49e+00	0	55	104	0	55	18369
2026-01-29 22:14:26.72	30.62	5.54	-41.7	-56.1	3.8	1.49e+00	0	55	104	0	55	18371
2026-01-29 22:14:29.75	30.90	5.72	-41.7	-56.1	3.8	1.49e+00	0	55	104	0	55	18414
2026-01-29 22:14:32.78	31.18	5.89	-41.7	-56.1	3.8	1.49e+00	0	56	104	0	55	18440
2026-01-29 22:14:35.81	31.46	6.07	-41.7	-56.1	3.8	1.49e+00	0	55	104	0	55	18388
2026-01-29 22:14:38.84	31.74	6.25	-41.7	-56.1	3.8	1.49e+00	0	55	104	0	55	18306
2026-01-29 22:14:41.88	32.03	6.43	-41.7	-56.1	3.8	1.49e+00	0	56	104	0	55	18429
2026-01-29 22:14:44.91	32.33	6.61	-41.7	-56.0	3.8	1.49e+00	0	56	104	0	55	18299
2026-01-29 22:14:47.94	32.62	6.80	-41.7	-56.1	3.8	1.49e+00	0	56	104	0	55	18407
2026-01-29 22:14:50.97	32.92	6.98	-41.7	-56.0	3.8	1.49e+00	0	56	104	0	55	18170
2026-01-29 22:14:54.00	33.23	7.16	-41.6	-55.8	3.8	1.49e+00	0	56	104	0	55	17820
2026-01-29 22:14:57.03	33.54	7.35	-41.6	-54.8	3.8	1.49e+00	0	56	104	0	55	15806
2026-01-29 22:15:00.06	33.85	7.53	-41.2	-50.6	5.0	1.09e+00	0	56	0	1048576	54	10381
2026-01-29 22:15:03.09	34.16	7.71	-41.1	-49.7	5.5	4.45e-01	0	56	0	7340032	54	9371
2026-01-29 22:15:06.12	34.48	7.90	-41.1	-49.7	5.5	7.63e-01	0	57	0	12582912	54	9378
2026-01-29 22:15:09.15	34.80	8.09	-43.4	-54.8	4.1	4.14e-01	0	57	0	17825792	57	14071
2026-01-29 22:15:12.18	35.13	8.27	-42.1	-49.2	7.0	1.26e-01	0	57	0	24117248	55	8300
2026-01-29 22:15:15.21	35.46	8.46	-41.6	-48.0	7.9	6.43e-02	0	57	0	29360128	54	7718
2026-01-29 22:15:18.24	35.80	8.65	-41.8	-48.2	7.9	7.61e-02	0	57	0	34603008	54	7825
2026-01-29 22:15:21.27	36.13	8.84	-41.9	-48.2	8.0	7.47e-02	0	57	0	40894464	54	7893
2026-01-29 22:15:24.30	36.48	9.03	-42.1	-48.5	8.1	5.15e-02	0	57	0	46137344	54	8092
2026-01-29 22:15:27.33	36.83	9.22	-42.1	-48.1	8.5	3.84e-02	0	57	0	52428800	54	7787
2026-01-29 22:15:30.36	37.18	9.41	-42.1	-48.0	8.7	3.29e-02	0	57	0	57671680	54	7648
2026-01-29 22:15:33.39	37.53	9.60	-42.1	-47.9	8.9	2.67e-02	0	58	0	63963136	54	7618
2026-01-29 22:15:36.42	37.89	9.79	-42.2	-47.6	9.3	1.38e-02	0	58	0	69206016	54	7353
2026-01-29 22:15:39.45	38.26	9.98	-42.1	-47.5	9.5	1.42e-02	0	58	0	74448896	54	7277
2026-01-29 22:15:42.48	38.63	10.17	-42.1	-47.3	9.7	1.39e-02	0	58	0	80740352	55	6713
2026-01-29 22:15:45.51	39.00	10.37	-42.1	-47.3	9.8	9.98e-03	0	58	0	85983232	55	6654
2026-01-29 22:15:48.54	39.38	10.56	-42.1	-47.2	10.0	8.19e-03	0	58	0	92274688	55	6606
2026-01-29 22:15:51.57	39.77	10.75	-42.1	-47.1	10.1	7.24e-03	0	58	0	97517568	55	6528
2026-01-29 22:15:54.60	40.16	10.95	-42.1	-47.0	10.2	6.50e-03	0	58	0	102760448	55	6494
2026-01-29 22:15:57.62	40.55	11.14	-42.1	-47.0	10.3	5.28e-03	0	58	0	109051904	55	6438
2026-01-29 22:16:00.66	40.95	11.34	-42.2	-47.3	10.0	6.90e-03	0	58	0	114294784	55	6651
2026-01-29 22:16:03.69	41.36	11.53	-42.3	-47.4	9.9	9.49e-03	0	58	0	120586240	55	6771
2026-01-29 22:16:06.72	41.77	11.73	-42.3	-47.5	9.8	1.05e-02	0	58	0	125829120	55	6863
2026-01-29 22:16:09.75	42.18	11.93	-42.3	-47.4	10.0	8.66e-03	0	58	0	132120576	55	6782
2026-01-29 22:16:12.78	42.60	12.12	-42.3	-47.3	10.1	6.99e-03	0	58	0	137363456	55	6720
2026-01-29 22:16:15.81	43.03	12.32	-42.3	-47.2	10.2	5.67e-03	0	58	0	142606336	55	6579
2026-01-29 22:16:18.84	43.46	12.51	-42.3	-47.3	10.2	5.72e-03	0	58	0	148897792	55	6655
2026-01-29 22:16:21.87	43.90	12.71	-42.1	-46.8	10.7	3.62e-03	0	58	0	154140672	55	6307
2026-01-29 22:16:24.90	44.34	12.91	-41.9	-46.3	11.1	1.87e-03	0	58	0	160432128	55	5987
2026-01-29 22:16:27.93	44.79	13.10	-41.9	-46.3	11.2	1.21e-03	0	59	0	165675008	55	5968
2026-01-29 22:16:30.96	45.24	13.30	-41.9	-46.3	11.2	1.21e-03	0	58	0	171966464	55	5979
2026-01-29 22:16:34.00	45.71	13.50	-41.9	-46.3	11.3	1.39e-03	0	59	0	177209344	55	5940
2026-01-29 22:16:37.03	46.17	13.70	-42.0	-46.4	11.1	1.78e-03	0	59	0	182452224	55	6038
2026-01-29 22:16:40.06	46.65	13.89	-42.1	-46.6	10.9	2.49e-03	0	59	0	188743680	55	6179
2026-01-29 22:16:43.09	47.12	14.09	-42.0	-46.5	11.1	2.15e-03	0	59	0	193986560	55	6078
2026-01-29 22:16:46.12	47.61	14.28	-42.1	-46.7	10.9	2.13e-03	0	59	0	200278016	55	6219
2026-01-29 22:16:49.15	48.10	14.48	-42.3	-47.1	10.4	4.29e-03	0	59	0	205520896	55	6524
2026-01-29 22:16:52.18	48.60	14.68	-42.2	-46.9	10.6	3.50e-03	0	59	0	210763776	55	6386
2026-01-29 22:16:55.20	49.10	14.87	-42.0	-46.3	11.2	1.43e-03	0	59	0	217055232	55	5987
2026-01-29 22:16:58.23	49.61	15.06	-42.2	-46.7	10.9	1.36e-03	0	59	0	222298112	55	6263
2026-01-29 22:17:01.26	50.13	15.26	-42.2	-46.8	10.9	2.13e-03	0	59	0	228589568	55	6341
2026-01-29 22:17:04.29	50.65	15.45	-42.0	-46.4	11.1	1.35e-03	0	59	0	233832448	55	6058
2026-01-29 22:17:07.32	51.18	15.64	-41.9	-46.2	11.4	1.03e-03	0	59	0	240123904	55	5858
2026-01-29 22:17:10.35	51.72	15.84	-41.9	-46.1	11.6	7.99e-04	0	59	0	245366784	55	5796
2026-01-29 22:17:13.38	52.26	16.03	-41.9	-46.0	11.7	5.87e-04	0	59	0	250609664	55	5751
2026-01-29 22:17:16.41	52.81	16.22	-41.8	-45.9	11.7	4.46e-04	0	59	0	256901120	55	5718
2026-01-29 22:17:19.44	53.37	16.41	-41.8	-45.9	11.7	6.80e-04	0	59	0	262144000	55	5717
2026-01-29 22:17:22.46	53.93	16.59	-42.0	-46.3	11.4	8.22e-04	0	59	0	268435456	55	5937
2026-01-29 22:17:25.49	54.50	16.78	-41.9	-46.1	11.6	6.41e-04	0	59	0	273678336	55	5813
2026-01-29 22:17:28.52	55.08	16.96	-41.8	-45.9	11.8	4.78e-04	0	59	0	278921216	55	5663
2026-01-29 22:17:31.55	55.66	17.15	-41.9	-46.2	11.4	9.54e-04	0	59	0	285212672	55	5887
2026-01-29 22:17:34.58	56.25	17.33	-42.0	-46.4	11.3	1.66e-03	0	59	0	290455552	55	6008
2026-01-29 22:17:37.61	56.85	17.51	-41.9	-46.0	11.6	8.45e-04	0	60	0	296747008	55	5769
2026-01-29 22:17:40.64	57.46	17.69	-42.2	-46.7	11.0	1.28e-03	0	60	0	301989888	55	6229
2026-01-29 22:17:43.67	58.07	17.87	-42.3	-47.0	10.6	3.47e-03	0	59	0	308281344	55	6456
2026-01-29 22:17:46.70	58.69	18.04	-42.3	-46.9	10.7	2.88e-03	0	60	0	313524224	55	6387
2026-01-29 22:17:49.72	59.32	18.22	-42.5	-47.4	10.2	5.71e-03	0	59	0	318767104	55	6795
2026-01-29 22:17:52.75	59.95	18.39	-42.6	-47.8	9.8	7.98e-03	0	59	0	325058560	55	7052
2026-01-29 22:17:55.78	60.59	18.56	-42.9	-48.2	9.6	1.16e-02	0	60	0	330301440	56	7003
2026-01-29 22:17:58.81	61.24	18.72	-43.1	-48.7	9.1	2.15e-02	0	60	0	336592896	56	7412
2026-01-29 22:18:01.84	61.89	18.89	-42.9	-48.4	9.4	1.59e-02	0	60	0	341835776	56	7140
2026-01-29 22:18:04.87	62.56	19.05	-43.0	-48.5	9.4	1.68e-02	0	60	0	347078656	56	7246
2026-01-29 22:18:07.90	63.22	19.21	-42.9	-48.3	9.5	1.96e-02	0	60	0	353370112	56	7061
2026-01-29 22:18:10.93	63.90	19.37	-42.7	-47.8	10.0	1.03e-02	0	60	0	358612992	56	6700
2026-01-29 22:18:13.96	64.58	19.52	-42.8	-48.0	9.8	1.19e-02	0	60	0	364904448	56	6818
2026-01-29 22:18:17.00	65.27	19.67	-42.5	-47.2	10.6	3.52e-03	0	60	0	370147328	56	6239
2026-01-29 22:18:20.02	65.97	19.82	-42.3	-46.8	11.1	1.78e-03	0	60	0	376438784	56	5979
2026-01-29 22:18:23.06	66.67	19.96	-42.5	-47.3	10.5	3.57e-03	0	60	0	381681664	56	6332
2026-01-29 22:18:26.09	67.38	20.10	-42.4	-47.0	10.8	2.23e-03	0	60	0	386924544	56	6074
2026-01-29 22:18:29.12	68.09	20.24	-42.5	-47.1	10.7	2.11e-03	0	60	0	393216000	56	6174
2026-01-29 22:18:32.15	68.82	20.37	-42.4	-47.0	10.8	3.44e-03	0	60	0	398458880	56	6114
2026-01-29 22:18:35.18	69.54	20.50	-41.8	-46.0	11.7	5.28e-04	0	60	0	404750336	55	5731
2026-01-29 22:18:38.21	70.28	20.62	-41.8	-45.9	11.7	4.89e-04	0	60	0	409993216	55	5702
2026-01-29 22:18:41.24	71.01	20.75	-41.8	-46.1	11.4	1.03e-03	0	60	0	415236096	55	5806
2026-01-29 22:18:44.27	71.76	20.86	-41.9	-46.7	10.4	3.43e-03	0	60	0	421527552	55	6261
2026-01-29 22:18:47.31	72.51	20.98	-41.8	-46.8	10.0	7.92e-03	0	60	0	426770432	55	6314
2026-01-29 22:18:50.34	73.27	21.08	-41.8	-46.5	10.6	3.06e-03	0	60	0	433061888	55	6068
2026-01-29 22:18:53.37	74.03	21.19	-41.8	-46.1	11.3	1.37e-03	0	60	0	438304768	55	5852
2026-01-29 22:18:56.39	74.79	21.29	-41.7	-45.9	11.5	6.32e-04	0	60	0	444596224	55	5710
2026-01-29 22:18:59.42	75.56	21.38	-42.0	-46.6	10.8	1.97e-03	0	60	0	449839104	55	6187
2026-01-29 22:19:02.45	76.34	21.47	-41.8	-46.0	11.5	9.51e-04	0	60	0	455081984	55	5749
2026-01-29 22:19:05.48	77.11	21.55	-42.0	-46.6	10.9	1.47e-03	0	60	0	461373440	55	6143
2026-01-29 22:19:08.51	77.90	21.63	-42.2	-46.9	10.6	3.40e-03	0	60	0	466616320	55	6359
2026-01-29 22:19:11.53	78.68	21.71	-41.9	-46.2	11.5	9.06e-04	0	60	0	472907776	55	5865
2026-01-29 22:19:14.57	79.48	21.78	-42.3	-47.1	10.5	2.88e-03	0	60	0	478150656	55	6527
2026-01-29 22:19:17.59	80.27	21.84	-42.1	-46.5	11.1	1.64e-03	0	60	0	483393536	55	6121
2026-01-29 22:19:20.62	81.06	21.90	-42.1	-46.6	11.0	1.50e-03	0	60	0	489684992	55	6174
2026-01-29 22:19:23.65	81.86	21.95	-42.0	-46.3	11.4	1.24e-03	0	60	0	494927872	55	5924
2026-01-29 22:19:26.69	82.67	22.00	-42.0	-46.3	11.4	9.28e-04	0	60	0	501219328	55	5926
2026-01-29 22:19:29.71	83.47	22.04	-42.2	-46.8	10.7	2.89e-03	0	60	0	506462208	55	6342
2026-01-29 22:19:32.74	84.28	22.07	-41.9	-46.4	11.0	1.38e-03	0	60	0	512753664	55	6025
2026-01-29 22:19:35.77	85.09	22.10	-42.4	-47.7	9.5	9.80e-03	0	60	0	517996544	55	6999
2026-01-29 22:19:38.80	85.90	22.13	-42.5	-47.7	9.7	1.40e-02	0	60	0	523239424	55	6999
2026-01-29 22:19:41.83	86.71	22.15	-42.2	-47.0	10.4	6.61e-03	0	60	0	529530880	55	6490
2026-01-29 22:19:44.87	87.52	22.16	-42.0	-46.6	10.8	3.09e-03	0	60	0	534773760	55	6176
2026-01-29 22:19:47.90	88.34	22.17	-42.2	-46.9	10.7	3.12e-03	0	60	0	541065216	55	6369
2026-01-29 22:19:50.92	89.15	22.17	-42.2	-46.8	10.7	3.31e-03	0	60	0	546308096	55	6315
2026-01-29 22:19:53.95	89.96	22.16	-42.1	-46.5	11.1	1.73e-03	0	60	0	551550976	55	6071
2026-01-29 22:19:56.98	90.77	22.15	-42.0	-46.3	11.4	1.04e-03	0	60	0	557842432	55	5941
2026-01-29 22:20:00.01	91.58	22.14	-41.8	-45.9	11.8	5.01e-04	0	60	0	563085312	55	5698
2026-01-29 22:20:03.04	92.39	22.11	-42.0	-46.1	11.6	7.00e-04	0	60	0	569376768	55	5842
2026-01-29 22:20:06.07	93.20	22.09	-42.0	-46.2	11.5	8.39e-04	0	60	0	574619648	55	5883
2026-01-29 22:20:09.10	94.01	22.05	-41.9	-45.9	11.8	4.93e-04	0	60	0	580911104	55	5690
2026-01-29 22:20:12.14	94.82	22.01	-42.1	-46.4	11.3	1.19e-03	0	60	0	586153984	55	6023
2026-01-29 22:20:15.17	95.63	21.97	-42.0	-46.2	11.5	7.80e-04	0	60	0	591396864	55	5874
2026-01-29 22:20:18.20	96.43	21.92	-42.1	-46.5	11.2	1.15e-03	0	60	0	597688320	55	6118
2026-01-29 22:20:21.23	97.23	21.86	-42.2	-46.7	11.0	2.19e-03	0	60	0	602931200	55	6217
2026-01-29 22:20:24.26	98.02	21.80	-41.8	-45.7	12.0	4.55e-04	0	60	0	609222656	55	5562
2026-01-29 22:20:27.29	98.82	21.73	-41.9	-45.9	11.8	4.83e-04	0	60	0	614465536	55	5716
2026-01-29 22:20:30.32	99.61	21.66	-41.7	-45.7	12.1	3.55e-04	0	60	0	620756992	55	5535
2026-01-29 22:20:33.35	100.39	21.58	-41.7	-45.5	12.3	1.80e-04	0	61	0	625999872	55	5425
2026-01-29 22:20:36.38	101.18	21.50	-41.6	-45.5	12.3	2.10e-04	0	61	0	631242752	55	5410
2026-01-29 22:20:39.41	101.95	21.41	-41.8	-45.7	12.1	3.05e-04	0	60	0	637534208	55	5551
2026-01-29 22:20:42.44	102.73	21.32	-41.8	-45.7	12.1	2.23e-04	0	61	0	642777088	55	5551
2026-01-29 22:20:45.47	103.50	21.22	-42.0	-46.1	11.6	8.16e-04	0	60	0	649068544	55	5829
2026-01-29 22:20:48.49	104.26	21.12	-42.0	-46.1	11.8	5.16e-04	0	61	0	654311424	55	5810
2026-01-29 22:20:51.52	105.02	21.01	-41.8	-45.7	12.1	3.14e-04	0	60	0	659554304	55	5540
2026-01-29 22:20:54.55	105.77	20.90	-41.5	-45.2	12.6	6.56e-05	0	60	0	665845760	54	5549
2026-01-29 22:20:57.58	106.52	20.79	-41.5	-45.2	12.6	1.04e-04	0	61	0	671088640	54	5555
2026-01-29 22:21:00.61	107.26	20.67	-41.8	-45.7	12.1	2.43e-04	0	60	0	677380096	54	5886
2026-01-29 22:21:03.64	108.00	20.54	-41.8	-45.7	12.1	2.30e-04	0	60	0	682622976	54	5923
2026-01-29 22:21:06.67	108.73	20.41	-41.7	-45.6	12.2	1.65e-04	0	60	0	688914432	54	5790
2026-01-29 22:21:09.70	109.46	20.28	-41.9	-46.1	11.7	7.94e-04	0	60	0	694157312	54	6151
2026-01-29 22:21:12.73	110.18	20.14	-41.7	-45.7	12.1	2.88e-04	0	61	0	699400192	54	5868
2026-01-29 22:21:15.76	110.89	20.00	-41.5	-45.2	12.6	1.06e-04	0	60	0	705691648	54	5556
2026-01-29 22:21:18.78	111.60	19.86	-41.9	-46.0	11.7	2.16e-04	0	60	0	710934528	54	6111
2026-01-29 22:21:21.81	112.30	19.72	-42.4	-47.3	10.4	2.89e-03	0	60	0	717225984	55	6652
2026-01-29 22:21:24.84	112.99	19.57	-42.5	-47.4	10.2	5.88e-03	0	60	0	722468864	55	6770
2026-01-29 22:21:27.87	113.68	19.41	-42.4	-47.1	10.6	3.56e-03	0	61	0	727711744	55	6498
2026-01-29 22:21:30.90	114.36	19.26	-42.3	-46.8	10.9	2.68e-03	0	61	0	734003200	55	6325
2026-01-29 22:21:33.93	115.03	19.10	-42.1	-46.5	11.1	1.60e-03	0	61	0	739246080	55	6102
2026-01-29 22:21:36.96	115.70	18.94	-42.3	-46.8	10.8	2.41e-03	0	61	0	745537536	55	6337
2026-01-29 22:21:39.99	116.36	18.77	-42.1	-46.4	11.2	1.54e-03	0	60	0	750780416	55	6037
2026-01-29 22:21:43.02	117.01	18.60	-42.3	-47.0	10.6	3.38e-03	0	61	0	757071872	55	6477
2026-01-29 22:21:46.05	117.66	18.43	-43.0	-48.5	9.3	1.75e-02	0	61	0	762314752	56	7231
2026-01-29 22:21:49.08	118.30	18.26	-42.7	-47.7	10.0	1.41e-02	0	61	0	767557632	56	6642
2026-01-29 22:21:52.12	118.93	18.09	-42.4	-47.0	10.8	2.77e-03	0	61	0	773849088	56	6085
2026-01-29 22:21:55.15	119.56	17.91	-42.6	-47.6	10.1	5.63e-03	0	61	0	779091968	56	6517
2026-01-29 22:21:58.18	120.17	17.73	-42.6	-47.6	10.2	5.44e-03	0	61	0	785383424	56	6497
2026-01-29 22:22:01.21	120.78	17.55	-42.3	-46.8	11.0	2.37e-03	0	60	0	790626304	56	5949
2026-01-29 22:22:04.24	121.39	17.37	-42.3	-46.9	10.8	2.89e-03	0	60	0	795869184	56	6031
2026-01-29 22:22:07.27	121.98	17.19	-42.1	-46.6	11.0	2.05e-03	0	61	0	802160640	55	6162
2026-01-29 22:22:10.30	122.57	17.00	-42.1	-46.6	11.0	1.56e-03	0	60	0	807403520	54	6562
2026-01-29 22:22:13.33	123.16	16.82	-42.4	-47.3	10.2	6.26e-03	0	61	0	813694976	55	6680
2026-01-29 22:22:16.36	123.73	16.63	-41.8	-46.5	11.0	2.56e-03	0	61	0	818937856	54	6435
2026-01-29 22:22:19.39	124.30	16.44	-42.2	-46.2	11.4	9.40e-03	0	61	0	825229312	53	6591
2026-01-29 22:22:22.42	124.86	16.25	-41.4	-46.5	10.9	2.67e-02	0	61	0	830472192	54	6489
2026-01-29 22:22:25.45	125.42	16.06	-42.1	-47.0	10.2	6.39e-03	0	61	0	835715072	54	6872
2026-01-29 22:22:28.49	125.97	15.87	-41.2	-47.3	10.0	1.11e-02	0	60	0	842006528	54	7065
2026-01-29 22:22:31.51	126.50	15.67	-41.1	-47.6	9.4	2.24e-02	0	61	0	847249408	54	7332
2026-01-29 22:22:34.54	127.04	15.48	-37.2	-47.4	9.3	6.62e-02	0	61	0	853540864	47	10730
2026-01-29 22:22:37.58	127.57	15.28	-38.2	-45.9	10.0	2.88e-02	0	61	0	858783744	47	8967
2026-01-29 22:22:40.60	128.09	15.09	-36.8	-46.1	10.0	2.78e-02	0	61	0	864026624	48	8665
2026-01-29 22:22:43.63	128.60	14.89	-37.2	-46.9	8.5	1.53e-01	0	61	0	870318080	44	12009
2026-01-29 22:22:46.66	129.11	14.70	-35.0	-45.8	8.5	1.51e-01	0	61	0	875560960	42	11889
2026-01-29 22:22:49.69	129.61	14.50	-29.6	-43.9	6.5	3.93e-01	0	61	0	880803840	29	20187
2026-01-29 22:22:52.72	130.11	14.30	-36.7	-46.0	9.8	2.31e-01	0	61	0	886046720	47	9079
2026-01-29 22:22:55.75	130.59	14.10	-31.7	-45.6	7.2	3.57e-01	0	61	0	888143872	34	18501
2026-01-29 22:22:58.79	131.08	13.90	-31.6	-45.8	6.9	2.74e-01	0	61	0	892338176	36	16853
2026-01-29 22:23:01.82	131.55	13.71	-28.7	-44.3	4.9	6.66e-01	0	61	104	897581056	24	28053
2026-01-29 22:23:04.85	132.02	13.51	-24.7	-43.1	4.2	1.30e+00	0	61	104	900726784	17	36736
2026-01-29 22:23:07.88	132.49	13.31	-34.0	-45.9	6.7	2.93e-01	0	61	0	902823936	34	19161
2026-01-29 22:23:10.91	132.95	13.11	-34.0	-45.7	8.4	2.17e-01	0	61	0	909115392	38	14783
2026-01-29 22:23:13.94	133.40	12.91	-26.3	-44.1	5.5	5.94e-01	0	61	0	914358272	23	29084
2026-01-29 22:23:16.97	133.84	12.71	-40.2	-47.4	8.3	4.62e-01	0	61	0	919601152	39	16986
2026-01-29 22:23:20.00	134.28	12.51	-35.9	-47.0	5.2	7.19e-01	0	61	104	922746880	32	24357
2026-01-29 22:23:23.03	134.72	12.32	-33.4	-46.5	7.2	1.28e-01	0	61	0	924844032	31	24140
2026-01-29 22:23:26.05	135.15	12.12	-35.9	-47.3	8.3	3.42e-01	0	61	0	931135488	46	11161
2026-01-29 22:23:29.08	135.57	11.92	-34.7	-47.3	7.8	2.12e-01	0	61	0	936378368	40	15943
2026-01-29 22:23:32.11	135.99	11.72	-38.1	-47.1	9.0	1.43e-01	0	61	0	942669824	48	9736
2026-01-29 22:23:35.14	136.40	11.52	-34.0	-45.8	7.4	7.10e-02	0	61	0	947912704	37	15911
2026-01-29 22:23:38.17	136.81	11.33	-39.5	-46.6	9.6	3.71e-02	0	61	0	953155584	48	9274
2026-01-29 22:23:41.19	137.21	11.13	-38.4	-46.5	9.9	1.93e-02	0	61	0	959447040	52	7207
2026-01-29 22:23:44.22	137.60	10.93	-41.4	-47.7	8.4	7.49e-02	0	61	0	964689920	53	7834
2026-01-29 22:23:47.25	137.99	10.74	-40.8	-47.0	9.3	9.79e-03	0	61	0	970981376	51	8123
2026-01-29 22:23:50.28	138.38	10.54	-35.3	-49.9	5.8	2.27e-01	0	61	0	976224256	44	16953
2026-01-29 22:23:53.31	138.76	10.35	-42.6	-53.0	4.6	8.55e-01	0	61	0	982515712	55	12854
2026-01-29 22:23:56.34	139.14	10.15	-43.1	-53.1	4.7	1.02e+00	0	61	0	987758592	57	11641
2026-01-29 22:23:59.37	139.51	9.96	-42.2	-47.9	9.0	5.01e-02	0	61	0	993001472	56	6786
2026-01-29 22:24:02.40	139.88	9.76	-42.1	-47.9	8.9	3.93e-02	0	61	0	999292928	55	7146
2026-01-29 22:24:05.43	140.24	9.57	-42.1	-47.7	9.1	2.64e-02	0	61	0	1004535808	54	7389
2026-01-29 22:24:08.46	140.60	9.38	-42.2	-48.1	8.7	3.32e-02	0	61	0	1009778688	55	7335
2026-01-29 22:24:11.49	140.95	9.18	-42.4	-48.6	8.3	4.40e-02	0	61	0	1016070144	55	7748
2026-01-29 22:24:14.51	141.30	8.99	-42.4	-48.7	8.1	6.70e-02	0	61	0	1021313024	55	7884
2026-01-29 22:24:17.55	141.64	8.80	-42.6	-49.1	7.7	7.73e-02	0	61	0	1027604480	55	8220
2026-01-29 22:24:20.58	141.98	8.61	-42.4	-48.5	8.3	6.44e-02	0	61	0	1032847360	55	7703
2026-01-29 22:24:23.61	142.32	8.42	-42.3	-48.2	8.6	3.96e-02	0	61	0	1039138816	55	7452
2026-01-29 22:24:26.64	142.65	8.23	-42.3	-48.2	8.7	2.62e-02	0	61	0	1044381696	55	7412
2026-01-29 22:24:29.67	142.98	8.04	-42.2	-48.0	8.8	2.72e-02	0	61	0	1049624576	55	7263
2026-01-29 22:24:32.70	143.30	7.85	-44.8	-59.5	3.8	1.49e+00	0	61	104	1051721728	60	20321
2026-01-29 22:24:35.73	143.62	7.67	-45.3	-60.0	3.8	1.49e+00	0	61	104	1051721728	61	20454
2026-01-29 22:24:38.77	143.94	7.48	-45.4	-60.2	3.8	1.49e+00	0	61	104	1051721728	61	20818
2026-01-29 22:24:41.80	144.25	7.29	-45.1	-59.9	3.8	1.49e+00	0	61	104	1051721728	61	20276
2026-01-29 22:24:44.83	144.56	7.11	-45.0	-59.8	3.8	1.49e+00	0	61	104	1051721728	61	19978
2026-01-29 22:24:47.86	144.86	6.92	-44.9	-59.8	3.8	1.49e+00	0	61	104	1051721728	61	19907
2026-01-29 22:24:50.89	145.16	6.74	-44.9	-59.7	3.8	1.49e+00	0	61	104	1051721728	61	19800
2026-01-29 22:24:53.93	145.46	6.55	-44.9	-59.7	3.8	1.49e+00	0	61	104	1051721728	61	19837
2026-01-29 22:24:56.96	145.75	6.37	-44.9	-59.7	3.8	1.49e+00	0	61	104	1051721728	61	19754
2026-01-29 22:24:59.99	146.04	6.19	-44.9	-59.7	3.8	1.49e+00	0	61	104	1051721728	61	19735
2026-01-29 22:25:03.02	146.33	6.00	-44.9	-59.7	3.8	1.49e+00	0	61	104	1051721728	61	19717
2026-01-29 22:25:06.05	146.61	5.82	-44.9	-59.7	3.8	1.49e+00	0	61	104	1051721728	61	19743
2026-01-29 22:25:09.09	146.89	5.64	-44.9	-59.7	3.8	1.49e+00	0	61	104	1051721728	61	19750
2026-01-29 22:25:12.11	147.17	5.46	-44.9	-59.7	3.8	1.49e+00	0	61	104	1051721728	61	19732
2026-01-29 22:25:15.15	147.44	5.28	-44.8	-59.7	3.8	1.49e+00	0	61	104	1051721728	61	19699
2026-01-29 22:25:18.18	147.71	5.11	-44.9	-59.7	3.8	1.49e+00	0	61	104	1051721728	61	19693
2026-01-29 22:25:21.21	147.98	4.93	-44.8	-59.7	3.8	1.49e+00	0	61	104	1051721728	61	19678
2026-01-29 22:25:24.24	148.24	4.75	-44.8	-59.7	3.8	1.49e+00	0	61	104	1051721728	61	19724
2026-01-29 22:25:27.27	148.50	4.57	-44.8	-59.7	3.8	1.49e+00	0	61	104	1051721728	61	19643
2026-01-29 22:25:30.30	148.76	4.40	-44.8	-59.7	3.8	1.49e+00	0	61	104	1051721728	61	19633
2026-01-29 22:25:33.33	149.01	4.22	-44.8	-59.6	3.8	1.49e+00	0	61	104	1051721728	61	19593
2026-01-29 22:25:36.36	149.26	4.05	-44.8	-59.7	3.8	1.49e+00	0	61	104	1051721728	61	19621
2026-01-29 22:25:39.39	149.51	3.88	-44.8	-59.7	3.8	1.49e+00	0	61	104	1051721728	61	19622
2026-01-29 22:25:42.42	149.76	3.70	-44.8	-59.7	3.8	1.49e+00	0	61	104	1051721728	61	19631
2026-01-29 22:25:45.45	150.00	3.53	-44.8	-59.7	3.8	1.49e+00	0	61	104	1051721728	61	19641
2026-01-29 22:25:48.48	150.24	3.36	-44.8	-59.7	3.8	1.49e+00	0	61	104	1051721728	61	19616
2026-01-29 22:25:51.52	150.48	3.19	-44.7	-59.7	3.8	1.49e+00	0	61	104	1051721728	60	20786
2026-01-29 22:25:54.55	150.72	3.02	-44.8	-59.7	3.8	1.49e+00	0	61	104	1051721728	60	20778
2026-01-29 22:25:57.58	150.95	2.85	-44.8	-59.7	3.8	1.49e+00	0	61	104	1051721728	60	20785
2026-01-29 22:26:00.61	151.18	2.68	-44.8	-59.7	3.8	1.49e+00	0	61	104	1051721728	60	20823
2026-01-29 22:26:03.64	151.41	2.51	-44.8	-59.6	3.8	1.49e+00	0	61	104	1051721728	60	20738
2026-01-29 22:26:06.67	151.63	2.34	-44.8	-59.6	3.8	1.49e+00	0	61	104	1051721728	60	20773
2026-01-29 22:26:09.70	151.85	2.18	-44.8	-59.6	3.8	1.49e+00	0	61	104	1051721728	60	20775
2026-01-29 22:26:12.73	152.07	2.01	-44.8	-59.7	3.8	1.49e+00	0	61	104	1051721728	60	20819

#Closed at: 2026-01-29 22:26:13
#Recorded file [1051 MB]: D:/lorett/data/31039_260130_011325.dat