passes_logs/2026/01/29/R2.0S_Moscow/R2.0S_Moscow__20260129_102325_NOAA_20_JPSS-1_rec.log

#Pass ID: 20260129_102325_NOAA 20 (JPSS-1)
#Satellite: NOAA 20 (JPSS-1)
#Configuration: NOAA 20
#almurnet v.1.7.20251203
#Start time: 2026-01-29 10:23:27

#Version: 2.2.20231116
#Station: R2.0S_Moscow
#Location: 37.707566 lon 55.798166 lat
#TLE: 1 43013U 17073A   26027.94683596  .00000137  00000+0  85741-4 0  9995
#TLE: 2 43013  98.7648 328.7503 0000940  21.3928 338.7287 14.19541154424576

#Time	Az	El	Level	Level2	SNR	BER	BlckErr	Temp	State	Recorded	gain1	gain2
2026-01-29 10:23:27.14	174.28	2.08	-43.3	-57.9	3.8	1.49e+00	0	51	0	0	58	19140
2026-01-29 10:23:31.17	174.37	2.34	-43.3	-57.9	3.8	1.49e+00	0	52	104	0	58	19068
2026-01-29 10:23:35.22	174.47	2.60	-43.3	-57.9	3.8	1.49e+00	0	52	104	0	58	19139
2026-01-29 10:23:39.26	174.57	2.87	-43.3	-57.9	3.8	1.49e+00	0	52	104	0	58	19066
2026-01-29 10:23:43.30	174.67	3.13	-43.3	-57.9	3.8	1.49e+00	0	52	104	0	58	19097
2026-01-29 10:23:47.34	174.77	3.40	-43.3	-57.9	3.8	1.49e+00	0	53	104	0	58	19084
2026-01-29 10:23:51.39	174.88	3.67	-43.3	-57.9	3.8	1.49e+00	0	53	104	0	58	19123
2026-01-29 10:23:55.43	174.98	3.94	-43.3	-57.9	3.8	1.49e+00	0	53	104	0	58	19035
2026-01-29 10:23:59.47	175.09	4.22	-43.3	-57.9	3.8	1.49e+00	0	53	104	0	58	19070
2026-01-29 10:24:03.51	175.20	4.50	-43.3	-57.9	3.8	1.49e+00	0	54	104	0	58	19033
2026-01-29 10:24:07.56	175.31	4.78	-43.3	-57.9	3.8	1.49e+00	0	54	104	0	58	18993
2026-01-29 10:24:11.60	175.42	5.06	-43.3	-57.8	3.8	1.49e+00	0	54	104	0	58	18803
2026-01-29 10:24:15.64	175.54	5.35	-43.3	-57.7	3.8	1.49e+00	0	54	104	0	58	18525
2026-01-29 10:24:19.69	175.66	5.64	-43.3	-57.5	3.8	1.49e+00	0	54	104	0	58	18297
2026-01-29 10:24:23.72	175.77	5.94	-43.2	-56.2	3.8	1.49e+00	0	54	104	0	58	15700
2026-01-29 10:24:27.77	175.90	6.23	-43.0	-54.1	4.3	1.38e+00	0	55	0	0	58	12293
2026-01-29 10:24:31.81	176.02	6.53	-42.8	-52.2	5.0	7.61e-01	0	55	0	6291456	57	10525
2026-01-29 10:24:35.85	176.15	6.84	-42.5	-50.5	6.2	3.50e-01	0	55	0	13631488	57	8626
2026-01-29 10:24:39.89	176.28	7.15	-42.1	-48.8	7.8	8.52e-02	0	55	0	20971520	56	7465
2026-01-29 10:24:43.93	176.41	7.46	-41.6	-47.2	9.2	2.24e-02	0	55	0	28311552	55	6612
2026-01-29 10:24:47.98	176.54	7.77	-41.4	-46.8	9.7	1.15e-02	0	55	0	36700160	54	6661
2026-01-29 10:24:52.02	176.68	8.09	-42.5	-48.8	8.2	6.95e-03	0	56	0	44040192	55	7981
2026-01-29 10:24:56.06	176.82	8.41	-42.6	-55.2	3.8	5.42e-01	0	56	104	51380224	55	16576
2026-01-29 10:25:00.10	176.96	8.74	-41.7	-46.6	10.4	4.97e-03	0	56	0	57671680	55	6200
2026-01-29 10:25:04.14	177.10	9.07	-41.6	-46.3	10.8	2.42e-03	0	56	0	65011712	55	5951
2026-01-29 10:25:08.18	177.25	9.41	-41.6	-46.1	11.1	1.79e-03	0	56	0	72351744	55	5847
2026-01-29 10:25:12.22	177.40	9.75	-41.6	-45.9	11.3	1.21e-03	0	56	0	79691776	55	5704
2026-01-29 10:25:16.27	177.56	10.09	-41.6	-46.0	11.3	1.17e-03	0	56	0	88080384	55	5751
2026-01-29 10:25:20.31	177.72	10.44	-41.6	-45.9	11.5	7.39e-04	0	56	0	95420416	55	5673
2026-01-29 10:25:24.34	177.88	10.79	-41.7	-46.0	11.4	1.01e-03	0	57	0	102760448	55	5777
2026-01-29 10:25:28.38	178.04	11.15	-41.5	-45.7	11.8	5.28e-04	0	57	0	110100480	55	5534
2026-01-29 10:25:32.42	178.21	11.51	-41.5	-45.6	11.8	4.71e-04	0	57	0	118489088	55	5528
2026-01-29 10:25:36.45	178.38	11.88	-41.5	-45.6	11.8	4.36e-04	0	57	0	125829120	55	5516
2026-01-29 10:25:40.49	178.56	12.26	-41.5	-45.6	11.9	4.31e-04	0	57	0	133169152	55	5505
2026-01-29 10:25:44.53	178.74	12.64	-41.5	-45.5	12.0	2.89e-04	0	57	0	140509184	55	5459
2026-01-29 10:25:48.57	178.93	13.02	-41.5	-45.4	12.2	2.67e-04	0	57	0	147849216	54	5687
2026-01-29 10:25:52.61	179.12	13.41	-41.6	-45.6	12.0	2.81e-04	0	57	0	156237824	54	5803
2026-01-29 10:25:56.65	179.31	13.81	-41.5	-45.5	12.1	3.12e-04	0	57	0	163577856	54	5756
2026-01-29 10:26:00.68	179.51	14.22	-41.6	-45.7	12.0	3.28e-04	0	57	0	170917888	54	5859
2026-01-29 10:26:04.73	179.72	14.63	-41.6	-45.6	12.0	3.12e-04	0	57	0	178257920	54	5837
2026-01-29 10:26:08.77	179.93	15.05	-41.7	-45.8	11.8	3.92e-04	0	58	0	186646528	54	5979
2026-01-29 10:26:12.81	180.15	15.47	-41.7	-45.8	11.9	4.03e-04	0	58	0	193986560	54	5957
2026-01-29 10:26:16.85	180.37	15.90	-41.7	-45.7	12.1	2.75e-04	0	58	0	201326592	54	5856
2026-01-29 10:26:20.89	180.60	16.34	-41.7	-45.6	12.1	2.35e-04	0	58	0	208666624	54	5845
2026-01-29 10:26:24.93	180.83	16.79	-41.7	-45.7	12.1	3.18e-04	0	58	0	216006656	54	5884
2026-01-29 10:26:28.97	181.08	17.24	-41.7	-45.7	12.0	2.59e-04	0	58	0	224395264	54	5893
2026-01-29 10:26:33.01	181.33	17.71	-41.7	-45.7	12.1	2.94e-04	0	58	0	231735296	54	5891
2026-01-29 10:26:37.05	181.58	18.18	-41.8	-45.8	12.0	2.89e-04	0	58	0	239075328	54	5992
2026-01-29 10:26:41.09	181.85	18.66	-41.7	-45.6	12.2	2.30e-04	0	58	0	246415360	54	5828
2026-01-29 10:26:45.13	182.12	19.15	-41.7	-45.7	12.1	2.29e-04	0	58	0	254803968	54	5888
2026-01-29 10:26:49.17	182.40	19.64	-41.7	-45.6	12.3	2.04e-04	0	58	0	262144000	54	5801
2026-01-29 10:26:53.21	182.69	20.15	-41.8	-45.9	12.0	3.21e-04	0	58	0	269484032	54	6025
2026-01-29 10:26:57.26	182.99	20.67	-42.0	-46.1	11.7	5.14e-04	0	58	0	276824064	54	6182
2026-01-29 10:27:01.29	183.30	21.20	-41.8	-45.8	12.1	3.19e-04	0	58	0	284164096	54	5958
2026-01-29 10:27:05.33	183.62	21.74	-41.7	-45.6	12.3	1.92e-04	0	58	0	292552704	54	5849
2026-01-29 10:27:09.37	183.95	22.28	-41.7	-45.5	12.5	1.26e-04	0	59	0	299892736	54	5730
2026-01-29 10:27:13.41	184.29	22.84	-41.5	-45.2	12.7	7.09e-05	0	58	0	307232768	54	5553
2026-01-29 10:27:17.45	184.64	23.42	-41.5	-45.1	12.9	6.71e-05	0	58	0	314572800	54	5476
2026-01-29 10:27:21.49	185.01	24.00	-41.4	-44.9	13.1	2.74e-05	0	59	0	322961408	54	5395
2026-01-29 10:27:25.53	185.39	24.59	-41.2	-44.5	13.5	6.10e-06	0	59	0	330301440	54	5144
2026-01-29 10:27:29.56	185.78	25.20	-41.2	-44.5	13.5	9.10e-06	0	58	0	337641472	54	5132
2026-01-29 10:27:33.60	186.19	25.82	-41.0	-44.2	13.8	6.10e-06	0	59	0	344981504	54	4975
2026-01-29 10:27:37.64	186.62	26.45	-41.1	-44.3	13.8	1.50e-06	0	58	0	352321536	54	4999
2026-01-29 10:27:41.68	187.06	27.10	-41.2	-44.5	13.6	6.80e-06	0	59	0	360710144	54	5114
2026-01-29 10:27:45.72	187.52	27.76	-41.3	-44.7	13.4	1.83e-05	0	59	0	368050176	54	5236
2026-01-29 10:27:49.76	188.00	28.44	-41.5	-45.1	13.0	4.19e-05	0	59	0	375390208	54	5490
2026-01-29 10:27:53.80	188.49	29.13	-41.7	-45.4	12.7	8.01e-05	0	59	0	382730240	54	5720
2026-01-29 10:27:57.84	189.01	29.83	-41.9	-45.8	12.3	2.04e-04	0	59	0	391118848	54	5991
2026-01-29 10:28:01.87	189.56	30.55	-42.2	-46.3	11.8	3.95e-04	0	59	0	398458880	54	6297
2026-01-29 10:28:05.91	190.12	31.29	-42.6	-47.2	10.8	1.94e-03	0	59	0	405798912	55	6646
2026-01-29 10:28:09.95	190.72	32.04	-43.0	-48.1	10.1	6.24e-03	0	59	0	413138944	56	6893
2026-01-29 10:28:13.99	191.34	32.81	-43.2	-48.6	9.6	1.24e-02	0	59	0	420478976	56	7323
2026-01-29 10:28:18.03	191.99	33.59	-43.1	-48.2	10.0	8.03e-03	0	59	0	428867584	56	7027
2026-01-29 10:28:22.07	192.67	34.39	-43.1	-48.2	10.0	8.39e-03	0	59	0	436207616	56	7033
2026-01-29 10:28:26.11	193.39	35.21	-43.0	-48.1	10.2	5.79e-03	0	59	0	443547648	56	6911
2026-01-29 10:28:30.15	194.14	36.04	-43.2	-48.6	9.7	1.09e-02	0	59	0	450887680	56	7289
2026-01-29 10:28:34.18	194.93	36.89	-43.1	-48.4	9.9	9.53e-03	0	59	0	459276288	57	6734
2026-01-29 10:28:38.22	195.76	37.75	-43.2	-48.4	9.8	9.85e-03	0	59	0	466616320	57	6788
2026-01-29 10:28:42.25	196.63	38.63	-42.9	-47.7	10.7	3.64e-03	0	59	0	473956352	57	6203
2026-01-29 10:28:46.29	197.56	39.53	-43.0	-47.9	10.4	3.96e-03	0	59	0	481296384	57	6369
2026-01-29 10:28:50.33	198.54	40.44	-42.6	-47.3	11.1	1.88e-03	0	59	0	488636416	56	6301
2026-01-29 10:28:54.38	199.57	41.36	-42.3	-46.3	12.1	3.55e-04	0	59	0	497025024	56	5627
2026-01-29 10:28:58.42	200.67	42.30	-42.3	-46.2	12.2	1.67e-04	0	59	0	504365056	56	5562
2026-01-29 10:29:02.45	201.82	43.25	-42.4	-46.5	11.9	3.66e-04	0	59	0	511705088	56	5735
2026-01-29 10:29:06.50	203.05	44.21	-42.6	-47.0	11.5	5.89e-04	0	59	0	519045120	56	6084
2026-01-29 10:29:10.54	204.36	45.18	-42.9	-47.7	10.7	2.94e-03	0	59	0	527433728	56	6613
2026-01-29 10:29:14.57	205.74	46.16	-42.9	-47.7	10.7	3.31e-03	0	59	0	534773760	56	6594
2026-01-29 10:29:18.61	207.21	47.14	-43.2	-48.6	9.7	8.66e-03	0	59	0	542113792	57	6936
2026-01-29 10:29:22.65	208.78	48.12	-43.0	-47.9	10.4	4.45e-03	0	59	0	549453824	57	6378
2026-01-29 10:29:26.70	210.46	49.10	-43.5	-49.3	8.9	1.90e-02	0	59	0	556793856	57	7525
2026-01-29 10:29:30.74	212.23	50.07	-43.2	-48.4	9.9	1.16e-02	0	59	0	565182464	57	6777
2026-01-29 10:29:34.77	214.12	51.04	-43.0	-47.8	10.5	4.34e-03	0	59	0	572522496	57	6331
2026-01-29 10:29:38.82	216.14	51.99	-42.2	-46.2	12.2	2.21e-04	0	59	0	579862528	56	5540
2026-01-29 10:29:42.86	218.29	52.92	-41.7	-45.3	12.9	8.39e-05	0	59	0	587202560	55	5330
2026-01-29 10:29:46.90	220.58	53.82	-41.6	-45.0	13.3	7.60e-06	0	59	0	595591168	54	5427
2026-01-29 10:29:50.93	223.00	54.69	-41.4	-44.6	13.7	5.30e-06	0	59	0	602931200	54	5214
2026-01-29 10:29:54.97	225.57	55.52	-41.6	-45.4	12.9	4.34e-05	0	59	0	610271232	54	5669
2026-01-29 10:29:59.02	228.30	56.30	-41.9	-45.7	12.5	9.46e-05	0	59	0	617611264	54	5914
2026-01-29 10:30:03.06	231.18	57.03	-42.0	-45.9	12.3	1.87e-04	0	59	0	624951296	54	6043
2026-01-29 10:30:07.10	234.21	57.69	-42.3	-46.6	11.6	7.99e-04	0	59	0	633339904	55	6177
2026-01-29 10:30:11.14	237.38	58.29	-42.4	-46.7	11.5	8.15e-04	0	59	0	640679936	55	6216
2026-01-29 10:30:15.18	240.68	58.80	-41.6	-45.9	12.4	1.37e-04	0	59	0	648019968	55	5658
2026-01-29 10:30:19.22	244.10	59.23	-41.7	-45.4	12.9	5.95e-05	0	59	0	655360000	54	5700
2026-01-29 10:30:23.26	247.62	59.56	-42.3	-46.6	11.6	1.02e-03	0	59	0	663748608	55	6151
2026-01-29 10:30:27.30	251.22	59.80	-43.1	-48.2	10.2	3.62e-03	0	59	0	671088640	56	6975
2026-01-29 10:30:31.34	254.87	59.94	-42.7	-47.1	11.3	1.04e-03	0	59	0	678428672	56	6155
2026-01-29 10:30:35.38	258.55	59.97	-42.3	-46.4	12.0	4.91e-04	0	59	0	685768704	56	5686
2026-01-29 10:30:39.43	262.22	59.89	-41.8	-45.5	12.7	1.07e-04	0	60	0	693108736	55	5428
2026-01-29 10:30:43.46	265.84	59.72	-42.0	-45.8	12.5	1.46e-04	0	60	0	701497344	55	5603
2026-01-29 10:30:47.50	269.41	59.44	-42.5	-46.9	11.3	8.05e-04	0	60	0	708837376	55	6402
2026-01-29 10:30:51.54	272.89	59.07	-43.0	-47.9	10.4	6.42e-03	0	60	0	716177408	56	6780
2026-01-29 10:30:55.58	276.26	58.60	-43.4	-49.1	9.2	1.19e-02	0	60	0	723517440	57	7288
2026-01-29 10:30:59.62	279.51	58.06	-43.7	-49.9	8.4	3.54e-02	0	60	0	731906048	58	7583
2026-01-29 10:31:03.67	282.62	57.43	-43.5	-49.2	9.0	3.22e-02	0	60	0	739246080	58	7030
2026-01-29 10:31:07.71	285.58	56.74	-42.5	-46.6	11.8	9.67e-04	0	60	0	746586112	56	5830
2026-01-29 10:31:11.74	288.39	56.00	-41.8	-45.3	12.9	1.34e-04	0	60	0	753926144	55	5339
2026-01-29 10:31:15.78	291.05	55.20	-40.8	-43.7	14.6	0.00e+00	0	60	0	761266176	53	4950
2026-01-29 10:31:19.82	293.56	54.35	-40.6	-43.4	14.9	0.00e+00	0	60	0	769654784	52	5088
2026-01-29 10:31:23.86	295.92	53.47	-40.3	-42.9	15.5	0.00e+00	0	59	0	776994816	52	4779
2026-01-29 10:31:27.90	298.15	52.56	-41.0	-44.1	14.2	2.20e-06	0	60	0	784334848	53	5176
2026-01-29 10:31:31.94	300.24	51.63	-41.6	-45.2	13.1	1.52e-05	0	60	0	791674880	53	5880
2026-01-29 10:31:35.98	302.20	50.67	-41.7	-45.3	13.0	9.90e-06	0	60	0	800063488	54	5600
2026-01-29 10:31:40.02	304.04	49.71	-42.3	-46.3	11.9	6.94e-04	0	60	0	807403520	55	5974
2026-01-29 10:31:44.05	305.76	48.74	-44.0	-51.3	7.0	1.33e-01	0	60	0	814743552	58	8909
2026-01-29 10:31:48.09	307.39	47.76	-43.3	-48.6	9.7	8.40e-03	0	59	0	822083584	57	6939
2026-01-29 10:31:52.13	308.92	46.79	-44.0	-51.0	7.3	1.00e-01	0	60	0	829423616	58	8611
2026-01-29 10:31:56.17	310.35	45.81	-43.1	-48.0	10.4	3.31e-03	0	60	0	837812224	57	6460
2026-01-29 10:32:00.21	311.70	44.85	-43.4	-49.1	9.1	2.21e-02	0	60	0	845152256	58	6933
2026-01-29 10:32:04.25	312.97	43.88	-43.1	-48.2	10.1	5.79e-03	0	60	0	852492288	58	6254
2026-01-29 10:32:08.29	314.17	42.93	-43.5	-49.3	8.9	6.35e-02	0	60	0	859832320	58	7121
2026-01-29 10:32:12.33	315.30	41.99	-43.1	-48.2	10.1	3.45e-03	0	60	0	868220928	57	6637
2026-01-29 10:32:16.37	316.37	41.06	-43.1	-48.3	10.0	8.49e-03	0	60	0	875560960	57	6658
2026-01-29 10:32:20.41	317.38	40.15	-42.8	-47.5	10.8	1.87e-03	0	60	0	882900992	57	6090
2026-01-29 10:32:24.45	318.33	39.25	-42.8	-47.4	10.9	6.76e-03	0	60	0	890241024	57	6058
2026-01-29 10:32:28.50	319.24	38.36	-42.0	-45.7	12.5	2.67e-05	0	60	0	898629632	54	5920
2026-01-29 10:32:32.54	320.10	37.49	-42.9	-47.7	10.5	1.06e-02	0	60	0	905969664	57	6225
2026-01-29 10:32:36.57	320.91	36.64	-42.1	-45.9	12.5	1.42e-04	0	60	0	913309696	56	5359
2026-01-29 10:32:40.62	321.69	35.80	-42.5	-46.7	11.6	4.89e-04	0	60	0	920649728	56	5913
2026-01-29 10:32:44.65	322.43	34.98	-42.5	-46.8	11.4	9.89e-04	0	60	0	927989760	56	5988
2026-01-29 10:32:48.69	323.13	34.17	-42.2	-46.0	12.3	1.94e-04	0	60	0	936378368	56	5446
2026-01-29 10:32:52.74	323.80	33.38	-42.8	-47.6	10.7	2.80e-03	0	60	0	943718400	56	6524
2026-01-29 10:32:56.78	324.44	32.61	-43.1	-48.3	9.9	9.37e-03	0	60	0	951058432	56	7068
2026-01-29 10:33:00.82	325.05	31.85	-42.7	-47.3	10.9	2.65e-03	0	60	0	958398464	56	6299
2026-01-29 10:33:04.86	325.63	31.11	-42.8	-47.5	10.7	2.50e-03	0	60	0	966787072	56	6480
2026-01-29 10:33:08.90	326.19	30.39	-43.3	-49.0	9.1	1.75e-02	0	60	0	974127104	57	7226
2026-01-29 10:33:12.94	326.72	29.68	-43.2	-48.7	9.4	1.81e-02	0	60	0	981467136	57	7010
2026-01-29 10:33:16.98	327.24	28.98	-42.8	-47.7	10.4	5.32e-03	0	60	0	988807168	57	6262
2026-01-29 10:33:21.02	327.73	28.30	-42.8	-47.6	10.5	3.73e-03	0	60	0	996147200	57	6190
2026-01-29 10:33:25.06	328.20	27.63	-42.8	-47.6	10.6	3.67e-03	0	60	0	1004535808	57	6140
2026-01-29 10:33:29.10	328.65	26.98	-42.9	-48.0	10.0	6.53e-03	0	60	0	1011875840	57	6480
2026-01-29 10:33:33.14	329.09	26.34	-42.8	-47.8	10.3	6.19e-03	0	60	0	1019215872	57	6277
2026-01-29 10:33:37.17	329.51	25.72	-42.4	-46.9	11.3	1.62e-03	0	60	0	1026555904	56	5997
2026-01-29 10:33:41.21	329.91	25.11	-42.1	-46.1	11.9	4.00e-04	0	60	0	1034944512	56	5521
2026-01-29 10:33:45.25	330.30	24.51	-42.1	-46.2	11.8	3.99e-04	0	60	0	1042284544	56	5582
2026-01-29 10:33:49.29	330.68	23.92	-42.5	-47.1	11.0	1.84e-03	0	60	0	1049624576	56	6148
2026-01-29 10:33:53.33	331.04	23.34	-42.5	-47.1	10.9	2.46e-03	0	60	0	1056964608	56	6200
2026-01-29 10:33:57.37	331.40	22.78	-42.3	-46.6	11.4	1.07e-03	0	60	0	1064304640	56	5825
2026-01-29 10:34:01.41	331.73	22.23	-41.7	-45.6	12.1	2.87e-04	0	60	0	1072693248	55	5520
2026-01-29 10:34:05.45	332.06	21.69	-41.7	-45.6	12.3	1.71e-04	0	60	0	1080033280	55	5468
2026-01-29 10:34:09.49	332.38	21.15	-41.8	-45.8	11.9	3.04e-04	0	60	0	1087373312	55	5654
2026-01-29 10:34:13.53	332.69	20.63	-41.7	-45.7	12.1	2.75e-04	0	60	0	1094713344	55	5543
2026-01-29 10:34:17.56	332.98	20.12	-41.6	-45.4	12.4	1.59e-04	0	60	0	1103101952	55	5360
2026-01-29 10:34:21.61	333.27	19.62	-41.4	-45.1	12.7	9.84e-05	0	60	0	1110441984	54	5507
2026-01-29 10:34:25.64	333.55	19.13	-41.3	-44.9	12.9	5.18e-05	0	60	0	1117782016	54	5354
2026-01-29 10:34:29.69	333.82	18.65	-41.3	-44.8	12.9	4.11e-05	0	60	0	1125122048	54	5335
2026-01-29 10:34:33.73	334.09	18.17	-41.4	-45.1	12.7	7.01e-05	0	60	0	1132462080	54	5473
2026-01-29 10:34:37.77	334.34	17.70	-41.5	-45.3	12.4	1.51e-04	0	60	0	1140850688	54	5610
2026-01-29 10:34:41.81	334.59	17.25	-41.6	-45.6	12.0	2.92e-04	0	60	0	1148190720	54	5847
2026-01-29 10:34:45.85	334.84	16.80	-41.6	-45.6	11.9	3.81e-04	0	60	0	1155530752	54	5854
2026-01-29 10:34:49.88	335.07	16.36	-41.6	-45.7	11.8	4.28e-04	0	60	0	1162870784	54	5865
2026-01-29 10:34:53.92	335.30	15.92	-41.5	-45.4	12.2	2.43e-04	0	60	0	1171259392	54	5687
2026-01-29 10:34:57.96	335.52	15.50	-41.5	-45.5	12.1	2.43e-04	0	60	0	1178599424	54	5731
2026-01-29 10:35:02.01	335.74	15.07	-41.4	-45.3	12.2	2.37e-04	0	60	0	1185939456	54	5613
2026-01-29 10:35:06.05	335.95	14.66	-41.3	-45.2	12.3	1.84e-04	0	60	0	1193279488	54	5550
2026-01-29 10:35:10.09	336.16	14.25	-41.5	-45.6	11.6	5.32e-04	0	60	0	1200619520	54	5827
2026-01-29 10:35:14.13	336.36	13.85	-41.5	-45.6	11.6	7.74e-04	0	60	0	1209008128	54	5851
2026-01-29 10:35:18.17	336.56	13.46	-41.6	-46.0	11.3	1.04e-03	0	60	0	1216348160	54	6067
2026-01-29 10:35:22.21	336.75	13.07	-41.6	-46.0	11.1	1.44e-03	0	60	0	1223688192	54	6123
2026-01-29 10:35:26.26	336.94	12.69	-41.7	-46.5	10.6	3.95e-03	0	60	0	1231028224	54	6468
2026-01-29 10:35:30.30	337.12	12.31	-41.6	-46.3	10.8	2.71e-03	0	60	0	1239416832	54	6276
2026-01-29 10:35:34.34	337.30	11.94	-41.5	-46.3	10.5	3.49e-03	0	60	0	1246756864	54	6280
2026-01-29 10:35:38.38	337.48	11.58	-41.6	-46.6	10.1	6.98e-03	0	60	0	1254096896	54	6530
2026-01-29 10:35:42.42	337.65	11.22	-41.5	-46.5	10.1	7.59e-03	0	60	0	1261436928	54	6431
2026-01-29 10:35:46.46	337.82	10.86	-41.3	-46.2	10.3	5.09e-03	0	60	0	1269825536	54	6229
2026-01-29 10:35:50.50	337.98	10.51	-41.2	-46.3	10.1	5.85e-03	0	60	0	1277165568	54	6277
2026-01-29 10:35:54.54	338.14	10.17	-41.0	-45.9	10.3	5.31e-03	0	60	0	1284505600	54	6060
2026-01-29 10:35:58.58	338.30	9.82	-41.1	-46.1	10.1	7.17e-03	0	60	0	1291845632	54	6184
2026-01-29 10:36:02.61	338.45	9.49	-40.9	-45.9	10.1	5.75e-03	0	60	0	1299185664	53	6391
2026-01-29 10:36:06.66	338.60	9.16	-40.9	-46.2	9.6	1.18e-02	0	60	0	1307574272	53	6626
2026-01-29 10:36:10.70	338.75	8.83	-41.0	-46.9	8.6	3.61e-02	0	60	0	1314914304	53	7201
2026-01-29 10:36:14.73	338.90	8.51	-41.2	-47.9	7.5	1.00e-01	0	60	0	1322254336	53	8069
2026-01-29 10:36:18.77	339.04	8.19	-41.3	-49.2	6.2	2.55e-01	0	60	0	1329594368	53	9361
2026-01-29 10:36:22.81	339.18	7.87	-44.2	-58.8	3.8	1.49e+00	0	60	104	1333788672	58	21083
2026-01-29 10:36:26.85	339.31	7.56	-44.9	-59.7	3.8	1.49e+00	0	60	104	1333788672	60	21008
2026-01-29 10:36:30.89	339.45	7.25	-42.8	-59.6	4.0	1.49e+00	0	60	104	1333788672	56	25920
2026-01-29 10:36:34.93	339.58	6.94	-45.0	-59.9	3.8	1.49e+00	0	60	104	1333788672	60	21299
2026-01-29 10:36:38.97	339.71	6.64	-44.9	-59.8	3.8	1.49e+00	0	60	104	1333788672	60	21047
2026-01-29 10:36:43.01	339.84	6.35	-44.8	-59.7	3.8	1.49e+00	0	60	104	1333788672	60	20994
2026-01-29 10:36:47.04	339.96	6.05	-44.8	-59.7	3.8	1.49e+00	0	60	104	1333788672	60	20866
2026-01-29 10:36:51.08	340.09	5.76	-44.8	-59.7	3.8	1.49e+00	0	60	104	1333788672	60	20932
2026-01-29 10:36:55.12	340.21	5.47	-44.8	-59.7	3.8	1.49e+00	0	60	104	1333788672	60	20884
2026-01-29 10:36:59.16	340.33	5.19	-44.7	-59.7	3.8	1.49e+00	0	60	104	1333788672	60	20848
2026-01-29 10:37:03.18	340.44	4.91	-44.8	-59.7	3.8	1.49e+00	0	60	104	1333788672	60	20814
2026-01-29 10:37:07.22	340.56	4.63	-44.8	-59.7	3.8	1.49e+00	0	60	104	1333788672	60	20801
2026-01-29 10:37:11.26	340.67	4.35	-44.8	-59.6	3.8	1.49e+00	0	60	104	1333788672	60	20770
2026-01-29 10:37:15.30	340.78	4.08	-44.8	-59.6	3.8	1.49e+00	0	60	104	1333788672	60	20743
2026-01-29 10:37:19.34	340.89	3.80	-44.7	-59.7	3.8	1.49e+00	0	60	104	1333788672	60	20834
2026-01-29 10:37:23.38	341.00	3.54	-44.5	-59.6	3.8	1.49e+00	0	60	104	1333788672	60	20776
2026-01-29 10:37:27.42	341.11	3.27	-44.8	-59.7	3.8	1.49e+00	0	60	104	1333788672	60	20792
2026-01-29 10:37:31.46	341.21	3.01	-43.8	-59.7	3.8	1.49e+00	0	60	104	1333788672	60	20965
2026-01-29 10:37:35.49	341.32	2.75	-44.8	-59.6	3.8	1.49e+00	0	60	104	1333788672	60	20723
2026-01-29 10:37:39.53	341.42	2.49	-43.5	-59.5	3.8	1.49e+00	0	60	104	1333788672	59	21717
2026-01-29 10:37:43.57	341.52	2.23	-44.8	-59.6	3.8	1.49e+00	0	60	104	1333788672	60	20713
2026-01-29 10:37:47.61	341.62	1.98	-44.7	-59.6	3.8	1.49e+00	0	60	104	1333788672	60	20738

#Closed at: 2026-01-29 10:37:49
#Recorded file [1333 MB]: D:/lorett/data/31039_260129_132326.dat