passes_logs/2026/01/29/R2.0S_Moscow/R2.0S_Moscow__20260129_100249_SUOMI_NPP_rec.log

#Pass ID: 20260129_100249_SUOMI NPP
#Satellite: SUOMI NPP
#Configuration: NPP
#almurnet v.1.7.20251203
#Start time: 2026-01-29 10:02:49

#Version: 2.2.20231116
#Station: R2.0S_Moscow
#Location: 37.707566 lon 55.798166 lat
#TLE: 1 37849U 11061A   26027.93236865  .00000148  00000+0  91411-4 0  9991
#TLE: 2 37849  98.7823 329.8704 0002085  41.3231 318.8102 14.19530777738546

#Time	Az	El	Level	Level2	SNR	BER	BlckErr	Temp	State	Recorded	gain1	gain2
2026-01-29 10:02:49.11	161.96	2.00	-44.7	-59.3	3.8	1.49e+00	0	50	0	0	59	21247
2026-01-29 10:02:53.16	161.98	2.26	-44.6	-59.5	3.8	1.49e+00	0	50	104	0	60	20380
2026-01-29 10:02:57.20	162.00	2.52	-44.6	-59.5	3.8	1.49e+00	0	50	104	0	60	20417
2026-01-29 10:03:01.24	162.02	2.79	-44.6	-59.5	3.8	1.49e+00	0	51	104	0	60	20477
2026-01-29 10:03:05.28	162.04	3.06	-44.6	-59.5	3.8	1.49e+00	0	51	104	0	60	20420
2026-01-29 10:03:09.32	162.06	3.33	-44.6	-59.5	3.8	1.49e+00	0	51	104	0	60	20427
2026-01-29 10:03:13.37	162.08	3.61	-44.7	-59.5	3.8	1.49e+00	0	51	104	0	60	20427
2026-01-29 10:03:17.41	162.10	3.88	-44.7	-59.5	3.8	1.49e+00	0	52	104	0	60	20403
2026-01-29 10:03:21.45	162.12	4.16	-44.7	-59.5	3.8	1.49e+00	0	52	104	0	60	20452
2026-01-29 10:03:25.49	162.14	4.44	-44.7	-59.5	3.8	1.49e+00	0	52	104	0	60	20482
2026-01-29 10:03:29.54	162.16	4.73	-44.7	-59.5	3.8	1.49e+00	0	52	104	0	60	20439
2026-01-29 10:03:33.58	162.18	5.02	-44.7	-59.5	3.8	1.49e+00	0	53	104	0	60	20501
2026-01-29 10:03:37.62	162.20	5.31	-44.7	-59.5	3.8	1.49e+00	0	53	104	0	60	20500
2026-01-29 10:03:41.67	162.22	5.61	-44.7	-59.5	3.8	1.49e+00	0	53	104	0	60	20529
2026-01-29 10:03:45.71	162.24	5.91	-44.7	-59.5	3.8	1.49e+00	0	53	104	0	60	20487
2026-01-29 10:03:49.75	162.26	6.21	-44.7	-59.5	3.8	1.49e+00	0	53	104	0	60	20534
2026-01-29 10:03:53.79	162.28	6.51	-44.7	-59.6	3.8	1.49e+00	0	54	104	0	60	20547
2026-01-29 10:03:57.83	162.30	6.82	-44.7	-59.6	3.8	1.49e+00	0	54	104	0	60	20599
2026-01-29 10:04:01.87	162.33	7.14	-44.7	-59.6	3.8	1.49e+00	0	54	104	0	60	20578
2026-01-29 10:04:05.92	162.35	7.45	-44.7	-59.6	3.8	1.49e+00	0	54	104	0	60	20650
2026-01-29 10:04:09.96	162.37	7.78	-44.7	-59.6	3.8	1.49e+00	0	54	104	0	60	20662
2026-01-29 10:04:14.00	162.39	8.10	-44.7	-59.6	3.8	1.49e+00	0	54	104	0	60	20616
2026-01-29 10:04:18.05	162.42	8.43	-44.8	-59.6	3.8	1.49e+00	0	55	104	0	60	20724
2026-01-29 10:04:22.09	162.44	8.76	-44.8	-59.6	3.8	1.49e+00	0	55	104	0	60	20597
2026-01-29 10:04:26.13	162.46	9.10	-44.8	-59.6	3.8	1.49e+00	0	55	104	0	60	20698
2026-01-29 10:04:30.17	162.49	9.45	-44.8	-59.6	3.8	1.49e+00	0	55	104	0	60	20652
2026-01-29 10:04:34.22	162.51	9.79	-44.8	-59.6	3.8	1.49e+00	0	55	104	0	60	20719
2026-01-29 10:04:38.26	162.54	10.15	-44.8	-59.6	3.8	1.49e+00	0	55	104	0	60	20697
2026-01-29 10:04:42.30	162.56	10.51	-44.8	-59.6	3.8	1.49e+00	0	56	104	0	60	20765
2026-01-29 10:04:46.34	162.59	10.87	-44.8	-59.6	3.8	1.49e+00	0	55	104	0	60	20756
2026-01-29 10:04:50.38	162.61	11.24	-44.8	-59.7	3.8	1.49e+00	0	56	104	0	60	20791
2026-01-29 10:04:54.43	162.64	11.61	-44.8	-59.7	3.8	1.49e+00	0	56	104	0	60	20812
2026-01-29 10:04:58.47	162.66	11.99	-44.8	-59.7	3.8	1.49e+00	0	56	104	0	60	20816
2026-01-29 10:05:02.51	162.69	12.38	-44.8	-59.7	3.8	1.49e+00	0	56	104	0	60	20911
2026-01-29 10:05:06.55	162.72	12.77	-44.8	-59.7	3.8	1.49e+00	0	56	104	0	60	20809
2026-01-29 10:05:10.59	162.74	13.17	-44.9	-59.7	3.8	1.49e+00	0	56	104	0	60	20861
2026-01-29 10:05:14.64	162.77	13.58	-44.9	-59.7	3.8	1.49e+00	0	56	104	0	60	20913
2026-01-29 10:05:18.68	162.80	13.99	-44.9	-59.7	3.8	1.49e+00	0	56	104	0	60	20864
2026-01-29 10:05:22.72	162.83	14.41	-44.9	-59.7	3.8	1.49e+00	0	57	104	0	60	20865
2026-01-29 10:05:26.76	162.86	14.84	-44.9	-59.7	3.8	1.49e+00	0	57	104	0	60	20920
2026-01-29 10:05:30.81	162.89	15.27	-44.9	-59.7	3.8	1.49e+00	0	57	104	0	60	20945
2026-01-29 10:05:34.85	162.92	15.71	-44.9	-59.7	3.8	1.49e+00	0	57	104	0	60	21013
2026-01-29 10:05:38.89	162.95	16.17	-44.9	-59.7	3.8	1.49e+00	0	57	104	0	60	20942
2026-01-29 10:05:42.93	162.98	16.63	-44.9	-59.7	3.8	1.49e+00	0	57	104	0	60	21001
2026-01-29 10:05:46.97	163.01	17.09	-44.9	-59.7	3.8	1.49e+00	0	57	104	0	60	20945
2026-01-29 10:05:51.02	163.05	17.57	-44.9	-59.7	3.8	1.49e+00	0	57	104	0	60	20996
2026-01-29 10:05:55.06	163.08	18.06	-44.9	-59.7	3.8	1.49e+00	0	57	104	0	60	20983
2026-01-29 10:05:59.10	163.12	18.56	-44.9	-59.8	3.8	1.49e+00	0	57	104	0	60	21042
2026-01-29 10:06:03.14	163.15	19.06	-44.9	-59.8	3.8	1.49e+00	0	57	104	0	60	21018
2026-01-29 10:06:07.18	163.19	19.58	-44.9	-59.8	3.8	1.49e+00	0	57	104	0	60	21033
2026-01-29 10:06:11.23	163.22	20.11	-45.0	-59.8	3.8	1.49e+00	0	57	104	0	60	21041
2026-01-29 10:06:15.27	163.26	20.65	-44.9	-59.8	3.8	1.49e+00	0	57	104	0	60	21055
2026-01-29 10:06:19.31	163.30	21.20	-45.0	-59.8	3.8	1.49e+00	0	57	104	0	60	21056
2026-01-29 10:06:23.34	163.34	21.76	-45.0	-59.8	3.8	1.49e+00	0	58	104	0	60	21089
2026-01-29 10:06:27.38	163.38	22.34	-45.0	-59.7	3.8	1.49e+00	0	58	104	0	60	21012
2026-01-29 10:06:31.43	163.42	22.93	-45.0	-59.8	3.8	1.49e+00	0	58	104	0	60	21033
2026-01-29 10:06:35.47	163.46	23.54	-45.0	-59.8	3.8	1.49e+00	0	58	104	0	60	21025
2026-01-29 10:06:39.51	163.51	24.16	-45.0	-59.8	3.8	1.49e+00	0	58	104	0	60	21070
2026-01-29 10:06:43.55	163.55	24.79	-45.0	-59.8	3.8	1.49e+00	0	58	104	0	60	21068
2026-01-29 10:06:47.59	163.60	25.44	-45.0	-59.8	3.8	1.49e+00	0	58	104	0	60	21027
2026-01-29 10:06:51.63	163.65	26.11	-44.9	-59.8	3.8	1.49e+00	0	58	104	0	60	21078
2026-01-29 10:06:55.67	163.70	26.79	-45.0	-59.8	3.8	1.49e+00	0	58	104	0	60	21090
2026-01-29 10:06:59.71	163.75	27.49	-45.0	-59.8	3.8	1.49e+00	0	58	104	0	60	21052
2026-01-29 10:07:03.75	163.80	28.21	-45.0	-59.8	3.8	1.49e+00	0	58	104	0	60	21106
2026-01-29 10:07:07.79	163.86	28.95	-45.0	-59.8	3.8	1.49e+00	0	58	104	0	60	21082
2026-01-29 10:07:11.83	163.91	29.70	-45.0	-59.8	3.8	1.49e+00	0	58	104	0	60	21109
2026-01-29 10:07:15.87	163.97	30.48	-45.0	-59.8	3.8	1.49e+00	0	58	104	0	60	21106
2026-01-29 10:07:19.91	164.03	31.28	-45.0	-59.8	3.8	1.49e+00	0	58	104	0	60	21074
2026-01-29 10:07:23.95	164.10	32.10	-45.0	-59.8	3.8	1.49e+00	0	58	104	0	60	21103
2026-01-29 10:07:27.99	164.17	32.95	-45.0	-59.8	3.8	1.49e+00	0	58	104	0	60	21064
2026-01-29 10:07:32.03	164.24	33.82	-45.0	-59.8	3.8	1.49e+00	0	58	104	0	60	21063
2026-01-29 10:07:36.07	164.31	34.72	-45.0	-59.8	3.8	1.49e+00	0	58	104	0	60	21055
2026-01-29 10:07:40.11	164.38	35.64	-45.0	-59.8	3.8	1.49e+00	0	58	104	0	60	21031
2026-01-29 10:07:44.15	164.46	36.59	-45.0	-59.8	3.8	1.49e+00	0	58	104	0	60	21033
2026-01-29 10:07:48.19	164.55	37.56	-45.0	-59.8	3.8	1.49e+00	0	59	104	0	60	21067
2026-01-29 10:07:52.23	164.64	38.57	-45.0	-59.8	3.8	1.49e+00	0	59	104	0	60	21062
2026-01-29 10:07:56.28	164.73	39.61	-45.0	-59.7	3.8	1.49e+00	0	59	104	0	60	21006
2026-01-29 10:08:00.32	164.83	40.68	-45.0	-59.8	3.8	1.49e+00	0	59	104	0	60	21038
2026-01-29 10:08:04.36	164.93	41.78	-45.0	-59.7	3.8	1.49e+00	0	59	104	0	60	20995
2026-01-29 10:08:08.40	165.04	42.92	-45.0	-59.8	3.8	1.49e+00	0	59	104	0	60	21029
2026-01-29 10:08:12.44	165.16	44.09	-45.0	-59.7	3.8	1.49e+00	0	59	104	0	60	20972
2026-01-29 10:08:16.48	165.29	45.30	-45.0	-59.7	3.8	1.49e+00	0	58	104	0	60	20985
2026-01-29 10:08:20.52	165.43	46.54	-45.0	-59.8	3.8	1.49e+00	0	59	104	0	60	21036
2026-01-29 10:08:24.56	165.57	47.83	-45.0	-59.8	3.8	1.49e+00	0	59	104	0	60	21038
2026-01-29 10:08:28.60	165.73	49.15	-45.0	-59.8	3.8	1.49e+00	0	59	104	0	60	21021
2026-01-29 10:08:32.64	165.90	50.51	-45.0	-59.7	3.8	1.49e+00	0	59	104	0	60	21001
2026-01-29 10:08:36.68	166.09	51.92	-45.0	-59.7	3.8	1.49e+00	0	58	104	0	60	20920
2026-01-29 10:08:40.72	166.29	53.36	-45.0	-59.8	3.8	1.49e+00	0	59	104	0	60	21036
2026-01-29 10:08:44.76	166.51	54.85	-45.0	-59.7	3.8	1.49e+00	0	59	104	0	60	21001
2026-01-29 10:08:48.80	166.76	56.38	-45.0	-59.8	3.8	1.49e+00	0	59	104	0	60	21029
2026-01-29 10:08:52.84	167.03	57.95	-45.0	-59.7	3.8	1.49e+00	0	59	104	0	60	20904
2026-01-29 10:08:56.88	167.34	59.57	-44.9	-59.7	3.8	1.49e+00	0	59	104	0	60	20940
2026-01-29 10:09:00.92	167.69	61.23	-44.9	-59.7	3.8	1.49e+00	0	59	104	0	60	20921
2026-01-29 10:09:04.96	168.08	62.93	-44.9	-59.7	3.8	1.49e+00	0	59	104	0	60	20947
2026-01-29 10:09:09.00	168.54	64.67	-44.9	-59.7	3.8	1.49e+00	0	59	104	0	60	20963
2026-01-29 10:09:13.04	169.07	66.45	-44.9	-59.7	3.8	1.49e+00	0	59	104	0	60	20838
2026-01-29 10:09:17.08	169.69	68.27	-44.9	-59.7	3.8	1.49e+00	0	59	104	0	60	20917
2026-01-29 10:09:21.12	170.43	70.12	-44.9	-59.7	3.8	1.49e+00	0	59	104	0	60	20925
2026-01-29 10:09:25.16	171.34	72.01	-44.9	-59.7	3.8	1.49e+00	0	59	104	0	60	20927
2026-01-29 10:09:29.21	172.48	73.92	-44.9	-59.7	3.8	1.49e+00	0	59	104	0	60	20940
2026-01-29 10:09:33.25	173.93	75.86	-44.9	-59.7	3.8	1.49e+00	0	59	104	0	60	20909
2026-01-29 10:09:37.28	175.86	77.81	-44.9	-59.7	3.8	1.49e+00	0	59	104	0	60	20843
2026-01-29 10:09:41.32	178.54	79.76	-44.9	-59.7	3.8	1.49e+00	0	59	104	0	60	20853
2026-01-29 10:09:45.36	182.51	81.71	-44.9	-59.7	3.8	1.49e+00	0	59	104	0	60	20907
2026-01-29 10:09:49.40	188.89	83.61	-44.9	-59.7	3.8	1.49e+00	0	59	104	0	60	20898
2026-01-29 10:09:53.45	200.44	85.37	-44.9	-59.7	3.8	1.49e+00	0	59	104	0	60	20857
2026-01-29 10:09:57.49	223.66	86.75	-44.9	-59.7	3.8	1.49e+00	0	59	104	0	60	20849
2026-01-29 10:10:01.52	262.76	87.11	-44.9	-59.7	3.8	1.49e+00	0	59	104	0	60	20824
2026-01-29 10:10:05.56	295.03	86.16	-44.9	-59.7	3.8	1.49e+00	0	59	104	0	60	20882
2026-01-29 10:10:09.60	311.38	84.54	-44.9	-59.7	3.8	1.49e+00	0	59	104	0	60	20853
2026-01-29 10:10:13.64	319.88	82.69	-44.9	-59.7	3.8	1.49e+00	0	59	104	0	60	20857
2026-01-29 10:10:17.68	324.88	80.77	-44.9	-59.7	3.8	1.49e+00	0	59	104	0	60	20882
2026-01-29 10:10:21.71	328.13	78.82	-44.9	-59.7	3.8	1.49e+00	0	59	104	0	60	20830
2026-01-29 10:10:25.75	330.40	76.87	-44.9	-59.7	3.8	1.49e+00	0	59	104	0	60	20820
2026-01-29 10:10:29.79	332.07	74.93	-44.9	-59.7	3.8	1.49e+00	0	59	104	0	60	20835
2026-01-29 10:10:33.83	333.35	73.01	-44.9	-59.7	3.8	1.49e+00	0	59	104	0	60	20811
2026-01-29 10:10:37.87	334.37	71.11	-44.8	-59.7	3.8	1.49e+00	0	59	104	0	60	20821
2026-01-29 10:10:41.91	335.19	69.24	-44.9	-59.6	3.8	1.49e+00	0	59	104	0	60	20774
2026-01-29 10:10:45.95	335.87	67.41	-44.9	-59.7	3.8	1.49e+00	0	59	104	0	60	20802
2026-01-29 10:10:49.99	336.45	65.62	-44.9	-59.7	3.8	1.49e+00	0	59	104	0	60	20802
2026-01-29 10:10:54.03	336.94	63.86	-44.9	-59.6	3.8	1.49e+00	0	59	104	0	60	20755
2026-01-29 10:10:58.07	337.36	62.14	-44.8	-59.6	3.8	1.49e+00	0	59	104	0	60	20762
2026-01-29 10:11:02.12	337.74	60.47	-44.8	-59.6	3.8	1.49e+00	0	59	104	0	60	20771
2026-01-29 10:11:06.16	338.06	58.83	-44.9	-59.6	3.8	1.49e+00	0	59	104	0	60	20698
2026-01-29 10:11:10.20	338.36	57.24	-44.9	-59.7	3.8	1.49e+00	0	59	104	0	60	20784
2026-01-29 10:11:14.24	338.62	55.70	-44.3	-59.7	3.8	1.49e+00	0	59	104	0	60	20786
2026-01-29 10:11:18.28	338.85	54.19	-44.8	-59.6	3.8	1.49e+00	0	59	104	0	60	20759
2026-01-29 10:11:22.32	339.07	52.73	-44.7	-59.6	3.8	1.49e+00	0	59	104	0	60	20726
2026-01-29 10:11:26.35	339.26	51.31	-44.9	-59.6	3.8	1.49e+00	0	59	104	0	60	20654
2026-01-29 10:11:30.40	339.44	49.93	-44.8	-59.6	3.8	1.49e+00	0	59	104	0	60	20684
2026-01-29 10:11:34.44	339.61	48.59	-44.8	-59.6	3.8	1.49e+00	0	59	104	0	60	20661
2026-01-29 10:11:38.48	339.76	47.29	-44.8	-59.6	3.8	1.49e+00	0	59	104	0	60	20634
2026-01-29 10:11:42.52	339.90	46.03	-44.8	-59.6	3.8	1.49e+00	0	59	104	0	60	20577
2026-01-29 10:11:46.56	340.04	44.81	-44.5	-59.6	3.8	1.49e+00	0	59	104	0	60	20639
2026-01-29 10:11:50.61	340.16	43.62	-44.8	-59.6	3.8	1.49e+00	0	59	104	0	60	20633
2026-01-29 10:11:54.65	340.28	42.47	-44.8	-59.6	3.8	1.49e+00	0	59	104	0	60	20606
2026-01-29 10:11:58.69	340.39	41.36	-44.8	-59.6	3.8	1.49e+00	0	59	104	0	60	20570
2026-01-29 10:12:02.73	340.49	40.28	-44.8	-59.6	3.8	1.49e+00	0	59	104	0	60	20574
2026-01-29 10:12:06.77	340.59	39.23	-44.6	-59.5	3.8	1.49e+00	0	59	104	0	60	20471
2026-01-29 10:12:10.81	340.68	38.21	-44.8	-59.5	3.8	1.49e+00	0	59	104	0	60	20416
2026-01-29 10:12:14.85	340.77	37.22	-44.7	-59.5	3.8	1.49e+00	0	59	104	0	60	20432
2026-01-29 10:12:18.90	340.85	36.26	-44.7	-59.5	3.8	1.49e+00	0	60	104	0	60	20484
2026-01-29 10:12:22.94	340.93	35.32	-44.6	-59.5	3.8	1.49e+00	0	59	104	0	60	20373
2026-01-29 10:12:26.98	341.01	34.42	-44.7	-59.5	3.8	1.49e+00	0	59	104	0	60	20330
2026-01-29 10:12:31.02	341.08	33.54	-44.7	-59.5	3.8	1.49e+00	0	59	104	0	60	20440
2026-01-29 10:12:35.06	341.15	32.68	-44.7	-59.5	3.8	1.49e+00	0	60	104	0	60	20347
2026-01-29 10:12:39.11	341.22	31.85	-44.7	-59.5	3.8	1.49e+00	0	59	104	0	60	20346
2026-01-29 10:12:43.15	341.28	31.04	-44.4	-59.2	3.8	1.49e+00	0	59	104	0	59	20935
2026-01-29 10:12:47.19	341.35	30.25	-44.7	-59.5	3.8	1.49e+00	0	60	104	0	60	20309
2026-01-29 10:12:51.23	341.41	29.49	-44.7	-59.4	3.8	1.49e+00	0	60	104	0	60	20298
2026-01-29 10:12:55.27	341.46	28.74	-44.7	-59.4	3.8	1.49e+00	0	60	104	0	60	20278
2026-01-29 10:12:59.31	341.52	28.02	-44.6	-59.4	3.8	1.49e+00	0	60	104	0	60	20266
2026-01-29 10:13:03.35	341.57	27.31	-44.6	-59.4	3.8	1.49e+00	0	59	104	0	60	20277
2026-01-29 10:13:07.39	341.63	26.62	-44.6	-59.4	3.8	1.49e+00	0	59	104	0	60	20182
2026-01-29 10:13:11.43	341.68	25.95	-44.7	-59.3	3.8	1.49e+00	0	59	104	0	59	21098
2026-01-29 10:13:15.48	341.73	25.29	-44.7	-59.3	3.8	1.49e+00	0	59	104	0	59	21100
2026-01-29 10:13:19.52	341.78	24.65	-44.7	-59.3	3.8	1.49e+00	0	59	104	0	59	21092
2026-01-29 10:13:23.56	341.82	24.03	-44.7	-59.3	3.8	1.49e+00	0	59	104	0	59	21057
2026-01-29 10:13:27.60	341.87	23.42	-44.5	-59.2	3.8	1.49e+00	0	60	104	0	59	20968
2026-01-29 10:13:31.64	341.91	22.82	-44.6	-59.3	3.8	1.49e+00	0	59	104	0	59	21035
2026-01-29 10:13:35.68	341.96	22.24	-44.7	-59.2	3.8	1.49e+00	0	59	104	0	59	20939
2026-01-29 10:13:39.73	342.00	21.67	-44.6	-59.2	3.8	1.49e+00	0	59	104	0	59	20897
2026-01-29 10:13:43.77	342.04	21.11	-44.6	-59.2	3.8	1.49e+00	0	59	104	0	59	20864
2026-01-29 10:13:47.81	342.08	20.57	-44.5	-59.2	3.8	1.49e+00	0	60	104	0	59	20890
2026-01-29 10:13:51.85	342.12	20.04	-44.6	-59.2	3.8	1.49e+00	0	60	104	0	59	20873
2026-01-29 10:13:55.90	342.16	19.51	-44.6	-59.2	3.8	1.49e+00	0	59	104	0	59	20826
2026-01-29 10:13:59.94	342.20	19.00	-44.6	-59.2	3.8	1.49e+00	0	59	104	0	59	20816
2026-01-29 10:14:03.98	342.24	18.50	-44.6	-59.1	3.8	1.49e+00	0	60	104	0	59	20720
2026-01-29 10:14:08.02	342.28	18.01	-44.5	-59.1	3.8	1.49e+00	0	60	104	0	59	20712
2026-01-29 10:14:12.06	342.31	17.53	-44.5	-59.1	3.8	1.49e+00	0	60	104	0	59	20684
2026-01-29 10:14:16.10	342.35	17.06	-44.5	-59.1	3.8	1.49e+00	0	59	104	0	59	20645
2026-01-29 10:14:20.14	342.38	16.60	-44.5	-59.1	3.8	1.49e+00	0	59	104	0	59	20653
2026-01-29 10:14:24.18	342.42	16.14	-44.5	-59.0	3.8	1.49e+00	0	59	104	0	59	20537
2026-01-29 10:14:28.23	342.45	15.70	-44.4	-59.0	3.8	1.49e+00	0	59	104	0	59	20514
2026-01-29 10:14:32.27	342.49	15.26	-44.4	-59.0	3.8	1.49e+00	0	59	104	0	59	20507
2026-01-29 10:14:36.31	342.52	14.83	-44.4	-59.0	3.8	1.49e+00	0	59	104	0	59	20389
2026-01-29 10:14:40.35	342.55	14.41	-44.4	-59.0	3.8	1.49e+00	0	59	104	0	59	20382
2026-01-29 10:14:44.40	342.58	13.99	-44.3	-59.0	3.8	1.49e+00	0	59	104	0	59	20365
2026-01-29 10:14:48.44	342.62	13.58	-44.4	-58.9	3.8	1.49e+00	0	60	104	0	59	20243
2026-01-29 10:14:52.48	342.65	13.18	-44.2	-58.9	3.8	1.49e+00	0	60	104	0	59	20254
2026-01-29 10:14:56.52	342.68	12.79	-44.3	-58.9	3.8	1.49e+00	0	60	104	0	59	20091
2026-01-29 10:15:00.56	342.71	12.40	-44.3	-58.8	3.8	1.49e+00	0	59	104	0	59	20056
2026-01-29 10:15:04.60	342.74	12.02	-44.2	-58.8	3.8	1.49e+00	0	59	104	0	59	19986
2026-01-29 10:15:08.65	342.77	11.64	-44.2	-58.8	3.8	1.49e+00	0	60	104	0	59	19907
2026-01-29 10:15:12.69	342.80	11.27	-44.2	-58.8	3.8	1.49e+00	0	60	104	0	58	21062
2026-01-29 10:15:16.73	342.83	10.90	-44.1	-58.7	3.8	1.49e+00	0	60	104	0	58	20958
2026-01-29 10:15:20.77	342.86	10.54	-44.1	-58.7	3.8	1.49e+00	0	60	104	0	58	21012
2026-01-29 10:15:24.81	342.89	10.19	-44.1	-58.7	3.8	1.49e+00	0	60	104	0	58	20880
2026-01-29 10:15:28.86	342.91	9.84	-44.0	-58.6	3.8	1.49e+00	0	60	104	0	58	20766
2026-01-29 10:15:32.90	342.94	9.49	-44.0	-58.6	3.8	1.49e+00	0	59	104	0	58	20587
2026-01-29 10:15:36.94	342.97	9.16	-44.7	-59.4	3.8	1.49e+00	0	60	104	0	60	20266
2026-01-29 10:15:40.98	343.00	8.82	-45.1	-59.9	3.8	1.49e+00	0	60	104	0	60	21484
2026-01-29 10:15:45.02	343.03	8.49	-45.1	-59.9	3.8	1.49e+00	0	59	104	0	60	21400
2026-01-29 10:15:49.06	343.05	8.16	-44.9	-59.8	3.8	1.49e+00	0	60	104	0	60	21107
2026-01-29 10:15:53.11	343.08	7.84	-44.8	-59.7	3.8	1.49e+00	0	59	104	0	60	20888
2026-01-29 10:15:57.15	343.11	7.52	-44.8	-59.7	3.8	1.49e+00	0	60	104	0	60	20878
2026-01-29 10:16:01.19	343.13	7.21	-44.8	-59.7	3.8	1.49e+00	0	59	104	0	60	20815
2026-01-29 10:16:05.24	343.16	6.90	-44.8	-59.7	3.8	1.49e+00	0	60	104	0	60	20869
2026-01-29 10:16:09.28	343.19	6.59	-44.8	-59.7	3.8	1.49e+00	0	60	104	0	60	20872
2026-01-29 10:16:13.32	343.21	6.29	-44.8	-59.7	3.8	1.49e+00	0	60	104	0	60	20842
2026-01-29 10:16:17.36	343.24	5.99	-44.8	-59.7	3.8	1.49e+00	0	60	104	0	60	20790
2026-01-29 10:16:21.40	343.26	5.69	-44.8	-59.7	3.8	1.49e+00	0	59	104	0	60	20779
2026-01-29 10:16:25.45	343.29	5.40	-44.8	-59.7	3.8	1.49e+00	0	59	104	0	60	20813
2026-01-29 10:16:29.49	343.31	5.11	-44.7	-59.6	3.8	1.49e+00	0	59	104	0	60	20723
2026-01-29 10:16:33.53	343.34	4.82	-44.7	-59.6	3.8	1.49e+00	0	60	104	0	60	20711
2026-01-29 10:16:37.57	343.36	4.54	-44.7	-59.6	3.8	1.49e+00	0	60	104	0	60	20690
2026-01-29 10:16:41.61	343.39	4.26	-44.4	-59.6	3.9	1.49e+00	0	60	104	0	60	20728
2026-01-29 10:16:45.66	343.41	3.98	-44.7	-59.6	3.8	1.49e+00	0	59	104	0	60	20737
2026-01-29 10:16:49.70	343.44	3.70	-44.7	-59.6	3.8	1.49e+00	0	59	104	0	60	20666
2026-01-29 10:16:53.74	343.46	3.43	-44.7	-59.6	3.8	1.49e+00	0	59	104	0	60	20631
2026-01-29 10:16:57.78	343.49	3.16	-44.7	-59.6	3.8	1.49e+00	0	59	104	0	60	20626
2026-01-29 10:17:01.82	343.51	2.89	-44.7	-59.6	3.8	1.49e+00	0	59	104	0	60	20596
2026-01-29 10:17:05.86	343.54	2.63	-44.7	-59.6	3.8	1.49e+00	0	60	104	0	60	20635
2026-01-29 10:17:09.91	343.56	2.37	-44.5	-59.6	3.8	1.49e+00	0	60	104	0	60	20658
2026-01-29 10:17:13.95	343.59	2.11	-44.7	-59.6	3.8	1.49e+00	0	59	104	0	60	20685
2026-01-29 10:17:17.99	343.61	1.85	-44.1	-59.6	3.8	1.49e+00	0	60	104	0	60	20653

#Closed at: 2026-01-29 10:17:18
#Recorded file [0 MB]: D:/lorett/data/31039_260129_130248.dat