passes_logs/2026/01/29/R2.0S_Moscow/R2.0S_Moscow__20260129_015254_SUOMI_NPP_rec.log

#Pass ID: 20260129_015254_SUOMI NPP
#Satellite: SUOMI NPP
#Configuration: NPP
#almurnet v.1.7.20251203
#Start time: 2026-01-29 01:52:56

#Version: 2.2.20231116
#Station: R2.0S_Moscow
#Location: 37.707566 lon 55.798166 lat
#TLE: 1 37849U 11061A   26027.86188320  .00000172  00000+0  10275-3 0  9990
#TLE: 2 37849  98.7823 329.8005 0002088  41.4184 318.7150 14.19530883738530

#Time	Az	El	Level	Level2	SNR	BER	BlckErr	Temp	State	Recorded	gain1	gain2
2026-01-29 01:52:56.42	8.92	2.09	-39.8	-54.2	3.8	1.49e+00	0	49	0	0	51	18572
2026-01-29 01:52:59.44	8.67	2.25	-39.8	-54.2	3.8	1.49e+00	0	50	104	0	51	18518
2026-01-29 01:53:02.47	8.43	2.40	-39.8	-54.2	3.8	1.49e+00	0	50	104	0	51	18545
2026-01-29 01:53:05.50	8.18	2.56	-39.8	-54.2	3.8	1.49e+00	0	51	104	0	51	18523
2026-01-29 01:53:08.53	7.92	2.72	-39.8	-54.1	3.8	1.49e+00	0	51	104	0	51	18508
2026-01-29 01:53:11.56	7.67	2.88	-39.7	-54.2	3.8	1.49e+00	0	51	104	0	51	18518
2026-01-29 01:53:14.59	7.41	3.04	-39.7	-54.1	3.8	1.49e+00	0	51	104	0	51	18448
2026-01-29 01:53:17.63	7.14	3.20	-39.7	-54.1	3.8	1.49e+00	0	51	104	0	51	18471
2026-01-29 01:53:20.66	6.88	3.36	-39.7	-54.1	3.8	1.49e+00	0	51	104	0	51	18502
2026-01-29 01:53:23.69	6.61	3.52	-39.7	-54.1	3.8	1.49e+00	0	52	104	0	51	18476
2026-01-29 01:53:26.72	6.34	3.68	-39.7	-54.1	3.8	1.49e+00	0	52	104	0	51	18501
2026-01-29 01:53:29.75	6.07	3.84	-39.7	-54.1	3.8	1.49e+00	0	52	104	0	51	18515
2026-01-29 01:53:32.78	5.79	4.00	-39.7	-54.1	3.8	1.49e+00	0	52	104	0	51	18486
2026-01-29 01:53:35.81	5.51	4.16	-39.7	-54.1	3.8	1.49e+00	0	52	104	0	51	18488
2026-01-29 01:53:38.85	5.22	4.32	-39.7	-54.1	3.8	1.49e+00	0	52	104	0	51	18504
2026-01-29 01:53:41.88	4.94	4.48	-39.7	-54.1	3.8	1.49e+00	0	53	104	0	51	18445
2026-01-29 01:53:44.91	4.65	4.64	-39.7	-54.1	3.8	1.49e+00	0	53	104	0	51	18481
2026-01-29 01:53:47.94	4.35	4.81	-39.7	-54.1	3.8	1.49e+00	0	53	104	0	51	18478
2026-01-29 01:53:50.97	4.05	4.97	-39.7	-54.1	3.8	1.49e+00	0	53	104	0	51	18493
2026-01-29 01:53:54.00	3.75	5.13	-39.7	-54.1	3.8	1.49e+00	0	53	104	0	51	18454
2026-01-29 01:53:57.04	3.45	5.30	-39.7	-54.1	3.8	1.49e+00	0	53	104	0	51	18465
2026-01-29 01:54:00.07	3.14	5.46	-39.7	-54.1	3.8	1.49e+00	0	54	104	0	51	18431
2026-01-29 01:54:03.10	2.83	5.62	-39.7	-54.1	3.8	1.49e+00	0	54	104	0	51	18470
2026-01-29 01:54:06.13	2.51	5.79	-39.7	-54.1	3.8	1.49e+00	0	54	104	0	51	18486
2026-01-29 01:54:09.16	2.20	5.95	-39.7	-54.1	3.8	1.49e+00	0	54	104	0	51	18390
2026-01-29 01:54:12.19	1.87	6.11	-39.7	-54.1	3.8	1.49e+00	0	54	104	0	51	18467
2026-01-29 01:54:15.22	1.55	6.28	-39.7	-54.1	3.8	1.49e+00	0	54	104	0	51	18413
2026-01-29 01:54:18.25	1.22	6.44	-39.7	-54.1	3.8	1.49e+00	0	54	104	0	51	18372
2026-01-29 01:54:21.28	0.88	6.61	-39.7	-54.1	3.8	1.49e+00	0	54	104	0	51	18385
2026-01-29 01:54:24.32	0.55	6.77	-39.7	-54.1	3.8	1.49e+00	0	54	104	0	51	18344
2026-01-29 01:54:27.35	0.20	6.94	-39.7	-54.1	3.8	1.49e+00	0	54	104	0	51	18374
2026-01-29 01:54:30.37	359.86	7.10	-39.7	-54.1	3.8	1.49e+00	0	55	104	0	51	18353
2026-01-29 01:54:33.40	359.51	7.27	-39.7	-54.1	3.8	1.49e+00	0	54	104	0	51	18319
2026-01-29 01:54:36.43	359.16	7.43	-39.7	-54.1	3.8	1.49e+00	0	55	104	0	51	18338
2026-01-29 01:54:39.47	358.80	7.60	-39.7	-54.1	3.8	1.49e+00	0	55	104	0	51	18315
2026-01-29 01:54:42.50	358.43	7.76	-39.7	-54.0	3.8	1.49e+00	0	55	104	0	51	18260
2026-01-29 01:54:45.53	358.07	7.93	-39.6	-54.0	3.8	1.49e+00	0	55	104	0	51	18259
2026-01-29 01:54:48.56	357.70	8.09	-39.8	-54.2	3.8	1.49e+00	0	55	104	0	51	18670
2026-01-29 01:54:51.60	357.32	8.26	-39.9	-54.3	3.8	1.49e+00	0	55	104	0	51	18816
2026-01-29 01:54:54.62	356.94	8.42	-39.9	-54.3	3.8	1.49e+00	0	55	104	0	51	18820
2026-01-29 01:54:57.66	356.56	8.58	-39.8	-54.2	3.8	1.49e+00	0	55	104	0	51	18722
2026-01-29 01:55:00.68	356.17	8.75	-39.8	-54.2	3.8	1.49e+00	0	56	104	0	51	18690
2026-01-29 01:55:03.72	355.78	8.91	-39.9	-54.3	3.8	1.49e+00	0	56	104	0	51	18787
2026-01-29 01:55:06.75	355.38	9.08	-40.0	-54.4	3.8	1.49e+00	0	56	104	0	51	19093
2026-01-29 01:55:09.78	354.98	9.24	-40.1	-54.5	3.8	1.49e+00	0	56	104	0	51	19197
2026-01-29 01:55:12.81	354.57	9.40	-40.1	-54.5	3.8	1.49e+00	0	56	104	0	51	19186
2026-01-29 01:55:15.84	354.16	9.57	-40.0	-54.4	3.8	1.49e+00	0	56	104	0	51	19014
2026-01-29 01:55:18.87	353.74	9.73	-40.3	-54.7	3.8	1.49e+00	0	56	104	0	51	19702
2026-01-29 01:55:21.90	353.32	9.89	-40.2	-54.6	3.8	1.49e+00	0	56	104	0	51	19573
2026-01-29 01:55:24.94	352.89	10.05	-40.3	-54.7	3.8	1.49e+00	0	56	104	0	51	19625
2026-01-29 01:55:27.97	352.46	10.21	-40.3	-54.7	3.8	1.49e+00	0	56	104	0	51	19708
2026-01-29 01:55:31.00	352.03	10.37	-40.4	-54.8	3.8	1.49e+00	0	56	104	0	51	19944
2026-01-29 01:55:34.03	351.59	10.53	-40.5	-54.9	3.8	1.49e+00	0	56	104	0	51	20126
2026-01-29 01:55:37.06	351.14	10.69	-40.7	-55.1	3.8	1.49e+00	0	56	104	0	51	20639
2026-01-29 01:55:40.09	350.69	10.85	-40.4	-54.8	3.8	1.49e+00	0	56	104	0	51	19934
2026-01-29 01:55:43.12	350.24	11.01	-40.7	-55.1	3.8	1.49e+00	0	56	104	0	52	19507
2026-01-29 01:55:46.15	349.78	11.17	-40.4	-54.9	3.8	1.49e+00	0	56	104	0	52	19001
2026-01-29 01:55:49.18	349.31	11.32	-40.6	-55.1	3.8	1.49e+00	0	56	104	0	52	19393
2026-01-29 01:55:52.21	348.84	11.48	-40.7	-55.1	3.8	1.49e+00	0	56	104	0	52	19544
2026-01-29 01:55:55.24	348.36	11.63	-41.0	-55.5	3.8	1.49e+00	0	57	104	0	52	20426
2026-01-29 01:55:58.27	347.88	11.79	-40.9	-55.4	3.8	1.49e+00	0	57	104	0	52	20258
2026-01-29 01:56:01.30	347.40	11.94	-41.1	-55.6	3.8	1.49e+00	0	57	104	0	52	20738
2026-01-29 01:56:04.33	346.91	12.09	-41.0	-55.5	3.8	1.49e+00	0	57	104	0	52	20473
2026-01-29 01:56:07.36	346.41	12.24	-40.8	-55.3	3.8	1.49e+00	0	57	104	0	52	19992
2026-01-29 01:56:10.39	345.91	12.39	-40.6	-55.1	3.8	1.49e+00	0	57	104	0	52	19495
2026-01-29 01:56:13.42	345.40	12.54	-40.7	-55.2	3.8	1.49e+00	0	57	104	0	52	19734
2026-01-29 01:56:16.45	344.89	12.69	-40.7	-55.1	3.8	1.49e+00	0	57	104	0	52	19594
2026-01-29 01:56:19.48	344.37	12.83	-40.7	-55.1	3.8	1.49e+00	0	57	104	0	52	19576
2026-01-29 01:56:22.51	343.85	12.97	-40.5	-54.9	3.8	1.49e+00	0	57	104	0	52	19076
2026-01-29 01:56:25.54	343.33	13.12	-40.5	-55.0	3.8	1.49e+00	0	57	104	0	52	19216
2026-01-29 01:56:28.57	342.79	13.26	-40.6	-55.0	3.8	1.49e+00	0	57	104	0	52	19303
2026-01-29 01:56:31.59	342.26	13.40	-40.6	-55.0	3.8	1.49e+00	0	57	104	0	52	19265
2026-01-29 01:56:34.63	341.71	13.53	-40.2	-54.6	3.8	1.49e+00	0	57	104	0	52	18456
2026-01-29 01:56:37.66	341.16	13.67	-40.3	-54.7	3.8	1.49e+00	0	57	104	0	52	18546
2026-01-29 01:56:40.69	340.61	13.80	-40.3	-54.7	3.8	1.49e+00	0	57	104	0	52	18585
2026-01-29 01:56:43.72	340.05	13.93	-40.6	-54.6	3.8	1.49e+00	0	57	104	0	53	17475
2026-01-29 01:56:46.75	339.49	14.06	-42.1	-51.9	4.7	1.48e+00	0	57	0	0	54	12003
2026-01-29 01:56:49.78	338.92	14.19	-41.0	-46.9	8.7	8.00e-02	0	57	0	3145728	53	7175
2026-01-29 01:56:52.81	338.35	14.31	-40.6	-45.1	11.0	1.47e-03	0	57	0	8388608	52	6201
2026-01-29 01:56:55.84	337.77	14.44	-41.1	-46.0	10.5	3.80e-03	0	57	0	13631488	52	6868
2026-01-29 01:56:58.87	337.19	14.56	-40.5	-44.3	12.7	3.15e-04	0	58	0	19922944	53	5291
2026-01-29 01:57:01.90	336.60	14.68	-40.8	-44.5	12.8	3.28e-05	0	58	0	25165824	52	5742
2026-01-29 01:57:04.93	336.01	14.79	-41.3	-45.4	11.9	3.87e-04	0	57	0	31457280	53	6053
2026-01-29 01:57:07.96	335.41	14.90	-41.1	-45.0	12.5	1.37e-04	0	58	0	36700160	53	5739
2026-01-29 01:57:10.99	334.81	15.01	-40.8	-44.4	13.1	3.73e-05	0	58	0	41943040	53	5369
2026-01-29 01:57:14.02	334.21	15.12	-40.9	-44.6	12.9	4.65e-05	0	58	0	48234496	53	5471
2026-01-29 01:57:17.05	333.60	15.23	-40.8	-44.4	13.1	2.74e-05	0	57	0	53477376	53	5383
2026-01-29 01:57:20.08	332.98	15.33	-40.8	-44.4	13.2	3.12e-05	0	58	0	59768832	53	5372
2026-01-29 01:57:23.10	332.36	15.43	-41.0	-44.8	12.8	5.11e-05	0	58	0	65011712	53	5633
2026-01-29 01:57:26.13	331.74	15.52	-40.9	-44.5	13.1	3.05e-05	0	58	0	71303168	53	5404
2026-01-29 01:57:29.17	331.11	15.62	-40.6	-43.8	13.7	6.10e-06	0	58	0	76546048	53	5040
2026-01-29 01:57:32.20	330.48	15.71	-40.5	-43.8	13.8	4.50e-06	0	58	0	81788928	52	5290
2026-01-29 01:57:35.23	329.85	15.79	-40.5	-43.7	13.9	4.50e-06	0	58	0	88080384	52	5272
2026-01-29 01:57:38.25	329.21	15.88	-40.6	-43.8	13.8	3.80e-06	0	58	0	93323264	52	5311
2026-01-29 01:57:41.29	328.57	15.96	-40.7	-44.1	13.5	1.22e-05	0	58	0	99614720	52	5511
2026-01-29 01:57:44.31	327.92	16.03	-41.0	-44.7	12.9	3.66e-05	0	58	0	104857600	52	5865
2026-01-29 01:57:47.34	327.27	16.11	-40.8	-44.2	13.4	2.21e-05	0	57	0	110100480	52	5555
2026-01-29 01:57:50.37	326.62	16.18	-41.1	-44.7	13.0	3.20e-05	0	58	0	116391936	52	5880
2026-01-29 01:57:53.40	325.97	16.24	-41.1	-44.8	12.7	5.18e-05	0	58	0	121634816	53	5652
2026-01-29 01:57:56.43	325.31	16.31	-41.1	-44.8	12.8	5.41e-05	0	58	0	127926272	53	5614
2026-01-29 01:57:59.46	324.65	16.37	-41.0	-44.6	13.0	5.18e-05	0	58	0	133169152	53	5495
2026-01-29 01:58:02.49	323.99	16.42	-41.0	-44.5	13.1	1.83e-05	0	58	0	139460608	53	5448
2026-01-29 01:58:05.52	323.32	16.47	-41.0	-44.6	13.1	3.50e-05	0	58	0	144703488	53	5502
2026-01-29 01:58:08.55	322.65	16.52	-40.6	-43.9	13.7	5.30e-06	0	58	0	149946368	53	5093
2026-01-29 01:58:11.58	321.98	16.56	-40.7	-44.1	13.6	4.50e-06	0	58	0	156237824	53	5160
2026-01-29 01:58:14.62	321.31	16.60	-41.0	-44.6	13.0	2.89e-05	0	58	0	161480704	53	5520
2026-01-29 01:58:17.65	320.64	16.64	-41.0	-44.8	12.9	4.73e-05	0	58	0	167772160	53	5611
2026-01-29 01:58:20.68	319.96	16.67	-41.2	-45.1	12.5	1.12e-04	0	58	0	173015040	53	5800
2026-01-29 01:58:23.71	319.29	16.70	-41.4	-45.4	12.2	2.39e-04	0	58	0	178257920	53	6015
2026-01-29 01:58:26.74	318.61	16.72	-41.5	-45.8	11.9	4.77e-04	0	58	0	184549376	53	6275
2026-01-29 01:58:29.77	317.93	16.74	-41.4	-45.5	12.0	3.02e-04	0	58	0	189792256	53	6105
2026-01-29 01:58:32.80	317.25	16.76	-41.1	-44.8	12.8	7.62e-05	0	58	0	196083712	53	5632
2026-01-29 01:58:35.82	316.57	16.77	-41.1	-44.8	12.8	6.10e-05	0	58	0	201326592	53	5633
2026-01-29 01:58:38.86	315.89	16.77	-41.0	-44.7	13.0	3.96e-05	0	58	0	207618048	53	5534
2026-01-29 01:58:41.89	315.21	16.78	-40.8	-44.2	13.4	1.52e-05	0	58	0	212860928	53	5274
2026-01-29 01:58:44.92	314.53	16.78	-40.9	-44.5	13.1	3.96e-05	0	58	0	218103808	53	5460
2026-01-29 01:58:47.95	313.85	16.77	-41.1	-44.8	12.8	5.95e-05	0	58	0	224395264	53	5648
2026-01-29 01:58:50.98	313.17	16.76	-41.2	-45.0	12.6	9.23e-05	0	58	0	229638144	53	5777
2026-01-29 01:58:54.00	312.49	16.75	-41.0	-44.7	12.9	4.42e-05	0	58	0	235929600	53	5531
2026-01-29 01:58:57.03	311.81	16.73	-40.9	-44.5	13.1	2.82e-05	0	58	0	241172480	53	5460
2026-01-29 01:59:00.06	311.13	16.71	-41.2	-45.1	12.4	9.68e-05	0	58	0	246415360	53	5850
2026-01-29 01:59:03.09	310.45	16.68	-41.4	-45.4	12.2	2.23e-04	0	58	0	252706816	53	6035
2026-01-29 01:59:06.12	309.78	16.65	-41.5	-45.8	11.7	4.74e-04	0	58	0	257949696	53	6341
2026-01-29 01:59:09.14	309.11	16.62	-41.6	-45.9	11.6	5.09e-04	0	58	0	264241152	53	6415
2026-01-29 01:59:12.17	308.43	16.58	-41.4	-45.5	12.1	2.55e-04	0	58	0	269484032	53	6092
2026-01-29 01:59:15.20	307.76	16.54	-41.3	-45.3	12.3	1.53e-04	0	58	0	275775488	53	5943
2026-01-29 01:59:18.23	307.09	16.50	-41.1	-45.0	12.6	8.01e-05	0	58	0	281018368	53	5734
2026-01-29 01:59:21.26	306.42	16.45	-41.0	-44.7	12.8	4.27e-05	0	58	0	286261248	53	5585
2026-01-29 01:59:24.29	305.76	16.39	-41.0	-44.6	13.0	4.19e-05	0	59	0	292552704	53	5513
2026-01-29 01:59:27.32	305.10	16.34	-40.7	-43.9	13.7	3.80e-06	0	58	0	297795584	53	5081
2026-01-29 01:59:30.34	304.44	16.28	-40.6	-43.7	14.0	7.00e-07	0	58	0	304087040	52	5232
2026-01-29 01:59:33.38	303.78	16.21	-40.9	-44.2	13.4	6.80e-06	0	58	0	309329920	52	5554
2026-01-29 01:59:36.40	303.13	16.15	-40.9	-44.2	13.4	1.75e-05	0	58	0	314572800	52	5579
2026-01-29 01:59:39.43	302.47	16.07	-41.1	-44.6	13.0	4.42e-05	0	58	0	320864256	52	5838
2026-01-29 01:59:42.46	301.83	16.00	-41.1	-44.7	12.9	3.66e-05	0	58	0	326107136	52	5903
2026-01-29 01:59:45.49	301.18	15.92	-41.2	-44.9	12.7	8.92e-05	0	58	0	332398592	53	5696
2026-01-29 01:59:48.52	300.54	15.84	-40.9	-44.3	13.4	4.04e-05	0	58	0	337641472	53	5280
2026-01-29 01:59:51.55	299.90	15.75	-40.8	-44.1	13.6	1.06e-05	0	58	0	343932928	53	5184
2026-01-29 01:59:54.58	299.27	15.67	-40.8	-44.1	13.5	6.80e-06	0	58	0	349175808	53	5199
2026-01-29 01:59:57.61	298.64	15.57	-40.6	-43.8	13.8	2.20e-06	0	58	0	354418688	53	4985
2026-01-29 02:00:00.64	298.01	15.48	-40.9	-44.4	13.2	1.60e-05	0	58	0	360710144	53	5386
2026-01-29 02:00:03.67	297.39	15.38	-41.1	-44.8	12.8	3.89e-05	0	58	0	365953024	53	5606
2026-01-29 02:00:06.70	296.77	15.28	-41.1	-44.7	12.8	6.33e-05	0	58	0	372244480	53	5582
2026-01-29 02:00:09.73	296.16	15.18	-41.3	-45.2	12.3	1.71e-04	0	58	0	377487360	53	5872
2026-01-29 02:00:12.76	295.55	15.07	-41.5	-45.5	12.0	2.42e-04	0	58	0	382730240	53	6108
2026-01-29 02:00:15.79	294.94	14.96	-41.4	-45.3	12.2	2.49e-04	0	58	0	389021696	53	5940
2026-01-29 02:00:18.82	294.34	14.85	-41.2	-45.0	12.5	1.23e-04	0	58	0	394264576	53	5773
2026-01-29 02:00:21.85	293.74	14.74	-41.1	-44.9	12.6	9.84e-05	0	58	0	400556032	53	5667
2026-01-29 02:00:24.87	293.15	14.62	-41.1	-44.8	12.6	1.15e-04	0	59	0	405798912	53	5639
2026-01-29 02:00:27.90	292.57	14.50	-40.8	-44.2	13.2	2.74e-05	0	58	0	412090368	53	5259
2026-01-29 02:00:30.93	291.98	14.38	-40.6	-43.9	13.5	1.83e-05	0	59	0	417333248	53	5077
2026-01-29 02:00:33.96	291.41	14.25	-40.8	-44.2	13.2	1.52e-05	0	58	0	422576128	53	5264
2026-01-29 02:00:36.99	290.83	14.13	-40.9	-44.6	12.8	3.35e-05	0	59	0	428867584	53	5479
2026-01-29 02:00:40.02	290.27	14.00	-41.2	-45.3	12.0	1.66e-04	0	58	0	434110464	53	5945
2026-01-29 02:00:43.04	289.71	13.87	-41.6	-46.0	11.3	8.77e-04	0	58	0	440401920	53	6444
2026-01-29 02:00:46.08	289.15	13.74	-41.5	-45.9	11.4	8.87e-04	0	58	0	445644800	53	6386
2026-01-29 02:00:49.10	288.60	13.60	-41.3	-45.6	11.6	6.07e-04	0	58	0	450887680	53	6143
2026-01-29 02:00:52.13	288.05	13.46	-41.4	-45.8	11.3	1.24e-03	0	58	0	457179136	53	6323
2026-01-29 02:00:55.16	287.51	13.33	-41.4	-46.0	11.1	1.58e-03	0	58	0	462422016	53	6440
2026-01-29 02:00:58.19	286.97	13.19	-41.2	-45.4	11.4	1.16e-03	0	58	0	468713472	53	6059
2026-01-29 02:01:01.22	286.44	13.05	-41.3	-45.8	11.2	1.43e-03	0	59	0	473956352	53	6275
2026-01-29 02:01:04.25	285.91	12.90	-41.2	-45.6	11.1	1.48e-03	0	58	0	480247808	53	6183
2026-01-29 02:01:07.28	285.39	12.76	-40.7	-44.6	12.3	2.66e-04	0	58	0	485490688	53	5494
2026-01-29 02:01:10.31	284.87	12.61	-40.8	-44.8	12.1	2.45e-04	0	58	0	490733568	53	5609
2026-01-29 02:01:13.34	284.36	12.46	-41.1	-45.6	11.2	1.23e-03	0	58	0	497025024	53	6133
2026-01-29 02:01:16.37	283.85	12.32	-41.4	-46.3	10.4	3.56e-03	0	58	0	502267904	53	6653
2026-01-29 02:01:19.40	283.35	12.17	-41.3	-45.9	10.8	2.84e-03	0	58	0	508559360	53	6406
2026-01-29 02:01:22.43	282.86	12.01	-41.3	-45.8	11.0	1.37e-03	0	58	0	513802240	53	6347
2026-01-29 02:01:25.46	282.36	11.86	-41.4	-46.0	10.8	2.67e-03	0	59	0	519045120	53	6453
2026-01-29 02:01:28.49	281.88	11.71	-42.1	-48.0	8.9	1.54e-02	0	58	0	525336576	54	7648
2026-01-29 02:01:31.52	281.40	11.55	-42.6	-49.6	7.4	9.21e-02	0	59	0	530579456	55	8739
2026-01-29 02:01:34.55	280.92	11.40	-42.3	-48.4	8.5	4.90e-02	0	58	0	536870912	55	7623
2026-01-29 02:01:37.58	280.45	11.24	-42.2	-48.0	8.9	2.43e-02	0	58	0	542113792	55	7263
2026-01-29 02:01:40.60	279.99	11.09	-42.1	-47.8	9.1	2.23e-02	0	59	0	548405248	55	7076
2026-01-29 02:01:43.63	279.53	10.93	-41.7	-46.7	10.2	8.76e-03	0	59	0	553648128	55	6203
2026-01-29 02:01:46.66	279.07	10.77	-41.5	-46.3	10.5	3.95e-03	0	58	0	558891008	55	5992
2026-01-29 02:01:49.69	278.62	10.61	-41.5	-46.5	10.3	5.36e-03	0	59	0	565182464	54	6452
2026-01-29 02:01:52.72	278.18	10.45	-41.5	-46.5	10.1	6.80e-03	0	59	0	570425344	54	6458
2026-01-29 02:01:55.75	277.74	10.29	-41.3	-46.3	10.2	5.83e-03	0	59	0	576716800	54	6310
2026-01-29 02:01:58.78	277.30	10.13	-41.4	-46.8	9.5	1.21e-02	0	58	0	581959680	54	6696
2026-01-29 02:02:01.82	276.87	9.97	-41.4	-47.0	9.2	1.72e-02	0	58	0	587202560	54	6840
2026-01-29 02:02:04.84	276.44	9.80	-41.4	-47.7	8.1	6.36e-02	0	58	0	593494016	54	7451
2026-01-29 02:02:07.88	276.02	9.64	-41.6	-49.1	6.7	1.78e-01	0	58	0	598736896	54	8702
2026-01-29 02:02:10.91	275.60	9.48	-41.7	-50.3	5.5	4.18e-01	0	59	0	605028352	54	10043
2026-01-29 02:02:13.94	275.19	9.31	-41.2	-55.1	3.8	1.49e+00	0	59	104	607125504	52	19464
2026-01-29 02:02:16.97	274.78	9.15	-41.8	-51.5	4.8	7.26e-01	0	58	0	610271232	54	11530
2026-01-29 02:02:20.00	274.38	8.99	-41.6	-52.2	4.4	1.14e+00	0	59	0	615514112	54	12485
2026-01-29 02:02:23.03	273.98	8.82	-40.5	-54.8	3.8	1.49e+00	0	59	104	616562688	52	18774
2026-01-29 02:02:26.06	273.59	8.66	-39.8	-54.2	3.8	1.49e+00	0	58	104	616562688	51	18637
2026-01-29 02:02:29.08	273.20	8.49	-39.9	-54.2	3.8	1.49e+00	0	59	104	616562688	51	18543
2026-01-29 02:02:32.12	272.82	8.33	-40.1	-54.5	3.8	1.49e+00	0	59	104	616562688	51	19343
2026-01-29 02:02:35.14	272.44	8.16	-39.9	-54.2	3.8	1.49e+00	0	59	104	616562688	51	18583
2026-01-29 02:02:38.17	272.06	8.00	-39.7	-54.1	3.8	1.49e+00	0	58	104	616562688	51	18408
2026-01-29 02:02:41.20	271.69	7.83	-44.7	-59.3	3.8	1.49e+00	0	58	104	616562688	59	21191
2026-01-29 02:02:44.23	271.32	7.67	-45.0	-59.9	3.8	1.49e+00	0	59	104	616562688	60	21261
2026-01-29 02:02:47.26	270.96	7.50	-45.1	-59.9	3.8	1.49e+00	0	58	104	616562688	60	21399
2026-01-29 02:02:50.30	270.60	7.34	-45.1	-59.9	3.8	1.49e+00	0	59	104	616562688	60	21391
2026-01-29 02:02:53.33	270.25	7.17	-45.0	-59.9	3.8	1.49e+00	0	59	104	616562688	60	21379
2026-01-29 02:02:56.36	269.90	7.01	-45.0	-59.8	3.8	1.49e+00	0	59	104	616562688	60	21254
2026-01-29 02:02:59.39	269.55	6.84	-44.9	-59.8	3.8	1.49e+00	0	59	104	616562688	60	21176
2026-01-29 02:03:02.42	269.21	6.68	-44.9	-59.8	3.8	1.49e+00	0	59	104	616562688	60	21238
2026-01-29 02:03:05.45	268.87	6.51	-45.0	-59.8	3.8	1.49e+00	0	59	104	616562688	60	21167
2026-01-29 02:03:08.48	268.53	6.35	-44.9	-59.8	3.8	1.49e+00	0	59	104	616562688	60	21179
2026-01-29 02:03:11.51	268.20	6.18	-44.9	-59.8	3.8	1.49e+00	0	59	104	616562688	60	21182
2026-01-29 02:03:14.53	267.88	6.02	-44.9	-59.8	3.8	1.49e+00	0	59	104	616562688	60	21167
2026-01-29 02:03:17.56	267.55	5.85	-44.9	-59.8	3.8	1.49e+00	0	59	104	616562688	60	21148
2026-01-29 02:03:20.59	267.23	5.69	-44.9	-59.8	3.8	1.49e+00	0	59	104	616562688	60	21112
2026-01-29 02:03:23.62	266.92	5.53	-44.9	-59.8	3.8	1.49e+00	0	59	104	616562688	60	21151
2026-01-29 02:03:26.65	266.60	5.36	-44.9	-59.8	3.8	1.49e+00	0	59	104	616562688	60	21136
2026-01-29 02:03:29.68	266.30	5.20	-44.9	-59.8	3.8	1.49e+00	0	59	104	616562688	60	21123
2026-01-29 02:03:32.71	265.99	5.04	-44.9	-59.8	3.8	1.49e+00	0	59	104	616562688	60	21151
2026-01-29 02:03:35.74	265.69	4.87	-44.9	-59.8	3.8	1.49e+00	0	59	104	616562688	60	21107
2026-01-29 02:03:38.78	265.39	4.71	-44.9	-59.8	3.8	1.49e+00	0	59	104	616562688	60	21184
2026-01-29 02:03:41.81	265.09	4.55	-44.9	-59.8	3.8	1.49e+00	0	59	104	616562688	60	21140
2026-01-29 02:03:44.84	264.80	4.38	-44.9	-59.8	3.8	1.49e+00	0	59	104	616562688	60	21092
2026-01-29 02:03:47.87	264.51	4.22	-44.9	-59.8	3.8	1.49e+00	0	59	104	616562688	60	21191
2026-01-29 02:03:50.90	264.23	4.06	-44.9	-59.8	3.8	1.49e+00	0	59	104	616562688	60	21108
2026-01-29 02:03:53.93	263.95	3.90	-44.9	-59.8	3.8	1.49e+00	0	59	104	616562688	60	21166
2026-01-29 02:03:56.97	263.67	3.74	-44.9	-59.8	3.8	1.49e+00	0	59	104	616562688	60	21093
2026-01-29 02:04:00.00	263.39	3.58	-44.9	-59.8	3.8	1.49e+00	0	59	104	616562688	60	21102
2026-01-29 02:04:03.03	263.12	3.42	-44.9	-59.8	3.8	1.49e+00	0	59	104	616562688	60	21114
2026-01-29 02:04:06.06	262.85	3.26	-44.9	-59.8	3.8	1.49e+00	0	59	104	616562688	60	21098
2026-01-29 02:04:09.09	262.58	3.10	-44.9	-59.8	3.8	1.49e+00	0	59	104	616562688	60	21031
2026-01-29 02:04:12.12	262.32	2.94	-44.9	-59.8	3.8	1.49e+00	0	59	104	616562688	60	21072
2026-01-29 02:04:15.15	262.06	2.78	-44.9	-59.8	3.8	1.49e+00	0	59	104	616562688	60	21104
2026-01-29 02:04:18.18	261.80	2.62	-44.9	-59.7	3.8	1.49e+00	0	59	104	616562688	60	21002
2026-01-29 02:04:21.21	261.54	2.46	-44.9	-59.8	3.8	1.49e+00	0	59	104	616562688	60	21047
2026-01-29 02:04:24.25	261.29	2.31	-44.9	-59.7	3.8	1.49e+00	0	59	104	616562688	60	20943
2026-01-29 02:04:27.28	261.04	2.15	-44.9	-59.7	3.8	1.49e+00	0	59	104	616562688	60	20992
2026-01-29 02:04:30.31	260.79	1.99	-44.9	-59.8	3.8	1.49e+00	0	59	104	616562688	60	21057

#Closed at: 2026-01-29 02:04:31
#Recorded file [616 MB]: D:/lorett/data/31039_260129_045256.dat