passes_logs/2026/01/29/R2.0S_Moscow/R2.0S_Moscow__20260129_084354_NOAA_20_JPSS-1_rec.log

#Pass ID: 20260129_084354_NOAA 20 (JPSS-1)
#Satellite: NOAA 20 (JPSS-1)
#Configuration: NOAA 20
#almurnet v.1.7.20251203
#Start time: 2026-01-29 08:43:54

#Version: 2.2.20231116
#Station: R2.0S_Moscow
#Location: 37.707566 lon 55.798166 lat
#TLE: 1 43013U 17073A   26027.94683596  .00000137  00000+0  85741-4 0  9995
#TLE: 2 43013  98.7648 328.7503 0000940  21.3928 338.7287 14.19541154424576

#Time	Az	El	Level	Level2	SNR	BER	BlckErr	Temp	State	Recorded	gain1	gain2
2026-01-29 08:43:54.07	125.79	1.99	-14.3	-39.6	3.4	1.54e+00	0	50	0	0	0	65535
2026-01-29 08:43:58.10	125.60	2.23	-6.1	-38.3	5.0	1.53e+00	0	51	104	0	0	56479
2026-01-29 08:44:02.15	125.39	2.48	-19.3	-43.6	4.8	1.53e+00	0	51	104	0	8	65535
2026-01-29 08:44:06.19	125.19	2.73	-18.7	-41.2	-2.4	1.54e+00	0	51	104	0	4	62556
2026-01-29 08:44:10.22	124.98	2.98	-14.2	-42.1	6.2	1.54e+00	0	52	104	0	5	65535
2026-01-29 08:44:14.26	124.77	3.23	-12.3	-41.1	3.3	1.52e+00	0	52	104	0	3	65535
2026-01-29 08:44:18.31	124.55	3.48	-20.4	-41.6	4.6	1.54e+00	0	52	104	0	4	65535
2026-01-29 08:44:22.35	124.33	3.74	-18.7	-42.6	4.7	1.54e+00	0	52	104	0	6	65535
2026-01-29 08:44:26.39	124.11	3.99	-9.9	-42.9	6.4	1.54e+00	0	53	104	0	9	56856
2026-01-29 08:44:30.44	123.88	4.25	-12.7	-40.5	7.8	1.54e+00	0	53	104	0	2	64688
2026-01-29 08:44:34.48	123.65	4.52	-16.4	-40.6	3.7	1.53e+00	0	53	104	0	2	65535
2026-01-29 08:44:38.52	123.41	4.78	-7.5	-37.7	4.2	1.53e+00	0	53	104	0	0	52288
2026-01-29 08:44:42.57	123.17	5.05	-13.2	-40.1	5.7	1.55e+00	0	54	104	0	1	65535
2026-01-29 08:44:46.61	122.93	5.31	-14.1	-40.1	3.7	1.52e+00	0	54	104	0	1	65535
2026-01-29 08:44:50.65	122.68	5.58	-19.4	-43.1	5.0	1.52e+00	0	54	104	0	7	65530
2026-01-29 08:44:54.69	122.42	5.86	-14.0	-40.6	3.7	1.53e+00	0	54	104	0	2	65254
2026-01-29 08:44:58.73	122.16	6.13	-13.6	-40.6	3.2	1.53e+00	0	54	104	0	2	65531
2026-01-29 08:45:02.77	121.89	6.41	-11.6	-41.0	4.8	1.53e+00	0	54	104	0	3	64924
2026-01-29 08:45:06.82	121.62	6.69	-16.3	-41.6	4.1	1.53e+00	0	55	104	0	4	65535
2026-01-29 08:45:10.86	121.35	6.97	-17.3	-39.6	3.4	1.52e+00	0	55	104	0	0	65450
2026-01-29 08:45:14.90	121.06	7.25	-10.2	-39.2	3.7	1.51e+00	0	55	104	0	3	52283
2026-01-29 08:45:18.94	120.78	7.54	-18.9	-44.6	4.0	1.50e+00	0	55	104	0	10	65535
2026-01-29 08:45:22.99	120.48	7.83	-12.6	-39.6	3.5	1.53e+00	0	55	104	0	0	65535
2026-01-29 08:45:27.03	120.18	8.12	-35.8	-56.0	4.0	1.52e+00	0	55	104	0	40	43382
2026-01-29 08:45:31.07	119.88	8.42	-11.7	-41.5	5.0	1.51e+00	0	55	104	0	5	61240
2026-01-29 08:45:35.11	119.57	8.71	-17.1	-41.6	3.6	1.50e+00	0	55	104	0	4	65501
2026-01-29 08:45:39.15	119.25	9.01	-17.1	-42.1	3.6	1.50e+00	0	55	104	0	5	65509
2026-01-29 08:45:43.19	118.92	9.32	-14.2	-41.5	3.7	1.52e+00	0	56	104	0	4	64401
2026-01-29 08:45:47.22	118.59	9.62	-17.6	-42.6	3.8	1.51e+00	0	56	104	0	6	65535
2026-01-29 08:45:51.26	118.25	9.93	-19.9	-42.5	4.0	1.50e+00	0	56	104	0	9	54464
2026-01-29 08:45:55.30	117.90	10.24	-11.9	-41.8	3.7	1.50e+00	0	56	104	0	10	47158
2026-01-29 08:45:59.34	117.55	10.55	-17.2	-43.1	3.8	1.50e+00	0	56	104	0	8	61336
2026-01-29 08:46:03.38	117.18	10.87	-17.4	-42.3	3.9	1.50e+00	0	56	104	0	6	63212
2026-01-29 08:46:07.43	116.81	11.19	-18.8	-41.2	4.4	1.49e+00	0	56	104	0	13	36947
2026-01-29 08:46:11.47	116.43	11.52	-25.2	-46.0	4.4	1.48e+00	0	57	0	0	21	40975
2026-01-29 08:46:15.50	116.04	11.84	-27.0	-45.7	4.2	1.39e+00	0	57	104	0	26	29671
2026-01-29 08:46:19.54	115.65	12.17	-25.1	-46.0	4.2	1.48e+00	0	57	104	0	23	36480
2026-01-29 08:46:23.58	115.24	12.50	-24.4	-47.4	4.7	1.44e+00	0	57	104	0	29	30101
2026-01-29 08:46:27.63	114.82	12.84	-22.5	-44.9	7.8	5.95e-01	23	57	0	4194304	31	20119
2026-01-29 08:46:31.67	114.40	13.18	-35.0	-48.0	7.4	2.45e-01	6	57	0	7340032	40	17126
2026-01-29 08:46:35.71	113.96	13.52	-37.4	-48.2	7.6	1.19e-01	0	57	0	13631488	43	14810
2026-01-29 08:46:39.75	113.51	13.86	-35.0	-47.8	8.2	4.21e-02	0	57	0	20971520	47	11180
2026-01-29 08:46:43.79	113.06	14.21	-42.3	-48.1	9.1	2.82e-02	0	57	0	28311552	55	7300
2026-01-29 08:46:47.83	112.59	14.56	-42.1	-47.9	9.2	1.71e-02	0	57	0	35651584	55	7165
2026-01-29 08:46:51.87	112.11	14.92	-42.2	-48.2	9.0	2.60e-02	0	57	0	42991616	55	7383
2026-01-29 08:46:55.91	111.62	15.27	-42.2	-47.4	9.8	8.16e-03	0	57	0	51380224	55	6786
2026-01-29 08:46:59.95	111.11	15.63	-42.2	-47.5	9.8	1.10e-02	0	58	0	58720256	55	6843
2026-01-29 08:47:03.99	110.60	16.00	-41.8	-46.7	10.8	2.48e-03	0	58	0	66060288	54	6586
2026-01-29 08:47:08.03	110.07	16.36	-42.2	-47.1	10.4	4.95e-03	0	58	0	73400320	54	6902
2026-01-29 08:47:12.07	109.52	16.73	-42.0	-46.6	10.9	2.51e-03	0	58	0	81788928	54	6528
2026-01-29 08:47:16.11	108.97	17.11	-41.9	-46.3	11.3	1.42e-03	0	58	0	89128960	54	6278
2026-01-29 08:47:20.16	108.40	17.48	-41.7	-46.0	11.6	5.86e-04	0	58	0	96468992	54	6063
2026-01-29 08:47:24.20	107.81	17.86	-41.8	-46.0	11.6	7.28e-04	0	58	0	103809024	54	6082
2026-01-29 08:47:28.24	107.21	18.24	-41.8	-46.1	11.6	6.83e-04	0	58	0	112197632	54	6139
2026-01-29 08:47:32.28	106.60	18.62	-41.7	-45.8	11.9	4.03e-04	0	58	0	119537664	54	5933
2026-01-29 08:47:36.32	105.96	19.01	-41.8	-45.9	11.8	5.14e-04	0	58	0	126877696	54	6023
2026-01-29 08:47:40.36	105.32	19.40	-41.7	-45.7	11.9	4.10e-04	0	58	0	134217728	54	5919
2026-01-29 08:47:44.40	104.65	19.79	-41.7	-45.7	11.9	3.67e-04	0	58	0	141557760	54	5911
2026-01-29 08:47:48.44	103.97	20.18	-41.8	-46.2	11.4	8.86e-04	0	58	0	149946368	54	6251
2026-01-29 08:47:52.48	103.27	20.57	-41.9	-46.5	11.1	1.72e-03	0	58	0	157286400	54	6462
2026-01-29 08:47:56.51	102.55	20.97	-42.1	-46.6	11.0	1.62e-03	0	58	0	164626432	54	6517
2026-01-29 08:48:00.55	101.81	21.37	-42.0	-46.4	11.2	1.43e-03	0	58	0	171966464	54	6412
2026-01-29 08:48:04.59	101.06	21.76	-42.0	-46.5	11.1	1.63e-03	0	58	0	180355072	54	6488
2026-01-29 08:48:08.63	100.28	22.16	-41.9	-46.1	11.5	7.97e-04	0	58	0	187695104	54	6181
2026-01-29 08:48:12.66	99.49	22.56	-41.8	-45.9	11.8	5.39e-04	0	58	0	195035136	54	6050
2026-01-29 08:48:16.70	98.67	22.96	-41.7	-45.6	12.1	3.09e-04	0	58	0	202375168	54	5849
2026-01-29 08:48:20.74	97.83	23.36	-41.6	-45.5	12.3	1.78e-04	0	58	0	209715200	54	5751
2026-01-29 08:48:24.77	96.97	23.75	-41.4	-45.1	12.7	9.00e-05	0	58	0	218103808	54	5472
2026-01-29 08:48:28.81	96.09	24.15	-41.5	-45.2	12.6	9.30e-05	0	58	0	225443840	54	5540
2026-01-29 08:48:32.84	95.19	24.55	-41.5	-45.3	12.5	1.34e-04	0	58	0	232783872	54	5648
2026-01-29 08:48:36.88	94.26	24.94	-41.5	-45.2	12.6	1.11e-04	0	58	0	240123904	54	5553
2026-01-29 08:48:40.92	93.31	25.33	-41.4	-45.0	12.8	5.64e-05	0	59	0	247463936	54	5413
2026-01-29 08:48:44.95	92.33	25.72	-41.4	-44.9	12.9	8.31e-05	0	58	0	255852544	54	5390
2026-01-29 08:48:48.99	91.33	26.10	-41.5	-45.1	12.7	6.48e-05	0	58	0	263192576	54	5508
2026-01-29 08:48:53.03	90.31	26.48	-42.0	-46.1	11.7	4.04e-04	0	58	0	270532608	54	6192
2026-01-29 08:48:57.07	89.26	26.85	-42.0	-46.1	11.8	4.78e-04	0	59	0	277872640	54	6177
2026-01-29 08:49:01.11	88.19	27.22	-42.2	-46.5	11.4	1.17e-03	0	59	0	286261248	55	6102
2026-01-29 08:49:05.15	87.09	27.58	-42.3	-46.7	11.1	1.30e-03	0	59	0	293601280	55	6236
2026-01-29 08:49:09.18	85.97	27.94	-42.3	-46.9	11.0	1.76e-03	0	58	0	300941312	55	6385
2026-01-29 08:49:13.22	84.82	28.28	-42.5	-47.2	10.7	2.86e-03	0	59	0	308281344	55	6587
2026-01-29 08:49:17.26	83.64	28.62	-42.5	-47.2	10.8	2.51e-03	0	59	0	315621376	55	6573
2026-01-29 08:49:21.30	82.45	28.95	-42.4	-46.9	11.0	1.60e-03	0	59	0	324009984	55	6374
2026-01-29 08:49:25.34	81.22	29.27	-42.4	-46.8	11.1	2.44e-03	0	59	0	331350016	55	6337
2026-01-29 08:49:29.37	79.98	29.57	-42.4	-46.9	11.1	1.58e-03	0	59	0	338690048	55	6362
2026-01-29 08:49:33.41	78.71	29.87	-42.8	-47.4	10.7	2.43e-03	0	59	0	346030080	57	6049
2026-01-29 08:49:37.44	77.42	30.15	-42.7	-47.4	10.6	3.08e-03	0	59	0	354418688	57	6041
2026-01-29 08:49:41.48	76.11	30.41	-42.7	-47.4	10.6	2.84e-03	0	59	0	361758720	57	6052
2026-01-29 08:49:45.52	74.77	30.66	-42.9	-48.0	10.1	6.27e-03	0	59	0	369098752	57	6446
2026-01-29 08:49:49.55	73.42	30.90	-43.0	-48.0	10.1	6.72e-03	0	59	0	376438784	57	6462
2026-01-29 08:49:53.59	72.04	31.12	-42.7	-47.4	10.8	2.54e-03	0	59	0	383778816	57	6019
2026-01-29 08:49:57.63	70.65	31.32	-42.8	-47.5	10.7	3.85e-03	0	59	0	392167424	57	6114
2026-01-29 08:50:01.67	69.24	31.50	-42.6	-47.1	11.1	1.97e-03	0	59	0	399507456	57	5821
2026-01-29 08:50:05.70	67.82	31.67	-42.6	-47.0	11.2	1.03e-03	0	59	0	406847488	57	5751
2026-01-29 08:50:09.74	66.38	31.81	-42.8	-47.4	10.8	2.44e-03	0	59	0	414187520	57	6043
2026-01-29 08:50:13.78	64.93	31.94	-42.8	-47.6	10.6	4.05e-03	0	59	0	422576128	57	6161
2026-01-29 08:50:17.82	63.47	32.04	-43.0	-48.0	10.2	4.88e-03	0	59	0	429916160	57	6442
2026-01-29 08:50:21.86	62.00	32.13	-43.1	-48.2	9.9	7.75e-03	0	59	0	437256192	57	6636
2026-01-29 08:50:25.90	60.52	32.19	-43.1	-48.2	9.9	9.10e-03	0	59	0	444596224	57	6612
2026-01-29 08:50:29.94	59.04	32.23	-43.1	-48.3	9.9	8.68e-03	0	59	0	451936256	57	6673
2026-01-29 08:50:33.97	57.56	32.25	-42.9	-47.6	10.6	3.50e-03	0	59	0	460324864	57	6164
2026-01-29 08:50:38.01	56.08	32.25	-42.8	-47.4	10.8	2.68e-03	0	59	0	467664896	57	6026
2026-01-29 08:50:42.05	54.59	32.23	-43.0	-48.1	10.1	6.58e-03	0	59	0	475004928	57	6509
2026-01-29 08:50:46.09	53.11	32.18	-43.0	-47.9	10.2	6.37e-03	0	59	0	482344960	57	6380
2026-01-29 08:50:50.12	51.64	32.12	-43.1	-48.2	10.0	6.86e-03	0	59	0	490733568	57	6619
2026-01-29 08:50:54.15	50.18	32.03	-42.9	-47.7	10.5	4.71e-03	0	59	0	498073600	57	6247
2026-01-29 08:50:58.19	48.72	31.92	-42.9	-47.7	10.5	3.45e-03	0	59	0	505413632	57	6223
2026-01-29 08:51:02.23	47.27	31.79	-43.1	-48.2	10.0	8.77e-03	0	59	0	512753664	57	6600
2026-01-29 08:51:06.28	45.84	31.65	-43.1	-48.1	10.1	6.26e-03	0	59	0	520093696	57	6562
2026-01-29 08:51:10.32	44.42	31.48	-43.2	-48.5	9.7	1.08e-02	0	59	0	528482304	57	6836
2026-01-29 08:51:14.36	43.01	31.29	-43.3	-48.7	9.6	1.47e-02	0	59	0	535822336	57	6969
2026-01-29 08:51:18.40	41.62	31.09	-43.1	-48.3	9.9	9.64e-03	0	59	0	543162368	57	6655
2026-01-29 08:51:22.44	40.25	30.87	-43.4	-48.9	9.2	1.69e-02	0	59	0	550502400	57	7203
2026-01-29 08:51:26.48	38.90	30.63	-43.2	-48.5	9.7	1.29e-02	0	59	0	558891008	57	6814
2026-01-29 08:51:30.52	37.57	30.38	-43.3	-48.8	9.3	1.76e-02	0	59	0	566231040	57	7096
2026-01-29 08:51:34.55	36.27	30.11	-43.2	-48.4	9.7	1.21e-02	0	59	0	573571072	57	6790
2026-01-29 08:51:38.59	34.98	29.83	-43.1	-48.2	9.9	1.07e-02	0	59	0	580911104	57	6626
2026-01-29 08:51:42.63	33.72	29.53	-43.0	-47.9	10.3	5.61e-03	0	59	0	588251136	57	6372
2026-01-29 08:51:46.68	32.48	29.23	-43.0	-47.9	10.3	6.27e-03	0	59	0	596639744	57	6368
2026-01-29 08:51:50.71	31.27	28.91	-42.9	-47.8	10.3	5.15e-03	0	59	0	603979776	57	6331
2026-01-29 08:51:54.75	30.08	28.58	-43.0	-48.0	10.0	7.95e-03	0	59	0	611319808	57	6482
2026-01-29 08:51:58.79	28.91	28.24	-42.7	-47.3	10.8	2.51e-03	0	59	0	618659840	57	5991
2026-01-29 08:52:02.83	27.77	27.90	-42.6	-47.1	11.0	1.91e-03	0	59	0	627048448	57	5809
2026-01-29 08:52:06.87	26.66	27.54	-42.6	-47.2	10.9	2.57e-03	0	59	0	634388480	57	5915
2026-01-29 08:52:10.91	25.56	27.18	-42.6	-47.2	11.0	1.64e-03	0	59	0	641728512	57	5871
2026-01-29 08:52:14.95	24.50	26.81	-42.4	-46.6	11.6	7.11e-04	0	59	0	649068544	56	5811
2026-01-29 08:52:19.00	23.46	26.44	-42.1	-46.0	12.3	2.03e-04	0	59	0	656408576	56	5412
2026-01-29 08:52:23.04	22.44	26.06	-41.8	-45.5	12.5	1.30e-04	0	59	0	664797184	55	5415
2026-01-29 08:52:27.08	21.45	25.68	-41.4	-44.9	13.1	2.67e-05	0	59	0	672137216	54	5357
2026-01-29 08:52:31.12	20.48	25.29	-41.2	-44.5	13.5	8.30e-06	0	59	0	679477248	54	5116
2026-01-29 08:52:35.16	19.54	24.90	-41.0	-44.2	13.8	4.50e-06	0	59	0	686817280	54	4955
2026-01-29 08:52:39.20	18.62	24.51	-40.9	-44.0	14.0	3.80e-06	0	59	0	695205888	53	5106
2026-01-29 08:52:43.24	17.72	24.12	-40.7	-43.7	14.3	2.20e-06	0	59	0	702545920	53	4970
2026-01-29 08:52:47.28	16.84	23.72	-40.7	-43.6	14.5	0.00e+00	0	59	0	709885952	53	4892
2026-01-29 08:52:51.32	15.99	23.33	-40.8	-43.8	14.2	2.20e-06	0	59	0	717225984	53	5013
2026-01-29 08:52:55.36	15.16	22.93	-40.9	-44.0	13.9	1.50e-06	0	59	0	724566016	52	5413
2026-01-29 08:52:59.40	14.35	22.53	-41.0	-44.2	13.8	6.80e-06	0	59	0	732954624	52	5534
2026-01-29 08:53:03.44	13.56	22.14	-41.1	-44.3	13.6	8.30e-06	0	59	0	740294656	52	5627
2026-01-29 08:53:07.48	12.79	21.74	-41.2	-44.5	13.5	1.22e-05	0	59	0	747634688	53	5441
2026-01-29 08:53:11.51	12.05	21.34	-41.3	-44.8	13.2	1.98e-05	0	59	0	754974720	53	5597
2026-01-29 08:53:15.55	11.32	20.95	-41.3	-44.7	13.2	2.67e-05	0	59	0	763363328	53	5585
2026-01-29 08:53:19.59	10.61	20.56	-41.4	-45.0	12.9	5.49e-05	0	59	0	770703360	53	5742
2026-01-29 08:53:23.62	9.91	20.17	-41.4	-45.1	12.8	4.80e-05	0	59	0	778043392	53	5792
2026-01-29 08:53:27.66	9.24	19.78	-41.5	-45.1	12.8	5.49e-05	0	59	0	785383424	53	5819
2026-01-29 08:53:31.71	8.58	19.39	-41.6	-45.5	12.3	1.64e-04	0	59	0	792723456	53	6094
2026-01-29 08:53:35.74	7.94	19.00	-41.8	-45.8	12.0	3.01e-04	0	59	0	801112064	54	5938
2026-01-29 08:53:39.78	7.32	18.62	-42.0	-46.2	11.5	8.19e-04	0	59	0	808452096	54	6260
2026-01-29 08:53:43.82	6.71	18.24	-42.0	-46.3	11.4	1.17e-03	0	59	0	815792128	54	6318
2026-01-29 08:53:47.86	6.11	17.86	-42.0	-46.4	11.2	1.23e-03	0	59	0	823132160	54	6398
2026-01-29 08:53:51.90	5.54	17.48	-42.0	-46.4	11.3	1.13e-03	0	59	0	831520768	54	6361
2026-01-29 08:53:55.94	4.97	17.11	-41.9	-46.3	11.3	1.15e-03	0	59	0	838860800	54	6304
2026-01-29 08:53:59.98	4.42	16.74	-42.0	-46.6	11.0	1.70e-03	0	59	0	846200832	54	6502
2026-01-29 08:54:04.02	3.88	16.37	-42.0	-46.7	10.8	2.99e-03	0	59	0	853540864	54	6617
2026-01-29 08:54:08.06	3.36	16.01	-42.0	-46.7	10.7	2.69e-03	0	59	0	860880896	54	6631
2026-01-29 08:54:12.10	2.85	15.65	-41.9	-46.7	10.6	3.17e-03	0	59	0	869269504	54	6589
2026-01-29 08:54:16.14	2.35	15.29	-42.0	-47.0	10.1	6.33e-03	0	59	0	876609536	54	6855
2026-01-29 08:54:20.18	1.87	14.93	-41.8	-46.9	9.9	8.25e-03	0	59	0	883949568	54	6754
2026-01-29 08:54:24.22	1.39	14.58	-41.4	-46.7	9.6	1.05e-02	0	59	0	891289600	54	6607
2026-01-29 08:54:28.26	0.93	14.23	-41.4	-47.1	9.1	2.12e-02	0	59	0	899678208	54	6893
2026-01-29 08:54:32.30	0.48	13.89	-40.9	-46.3	9.5	1.47e-02	0	59	0	907018240	53	6689
2026-01-29 08:54:36.33	0.04	13.55	-41.1	-48.4	6.8	1.30e-01	0	59	0	914358272	53	8523
2026-01-29 08:54:40.37	359.61	13.21	-41.1	-51.8	4.3	8.93e-01	58	60	0	921698304	53	12654
2026-01-29 08:54:44.41	359.19	12.87	-41.1	-53.8	3.8	1.49e+00	0	59	104	921698304	52	16783
2026-01-29 08:54:48.45	358.78	12.54	-41.1	-54.6	3.8	1.49e+00	0	60	104	921698304	54	16399
2026-01-29 08:54:52.48	358.38	12.21	-39.8	-54.2	3.8	1.49e+00	0	59	104	921698304	51	18613
2026-01-29 08:54:56.52	357.99	11.88	-39.8	-54.2	3.8	1.49e+00	0	60	104	921698304	51	18521
2026-01-29 08:55:00.56	357.60	11.55	-39.8	-54.2	3.8	1.49e+00	0	60	104	921698304	51	18604
2026-01-29 08:55:04.60	357.23	11.23	-39.7	-54.1	3.8	1.49e+00	0	59	104	921698304	51	18462
2026-01-29 08:55:08.64	356.86	10.91	-39.8	-54.2	3.8	1.49e+00	0	59	104	921698304	51	18568
2026-01-29 08:55:12.69	356.50	10.60	-39.7	-54.1	3.8	1.49e+00	0	59	104	921698304	51	18398
2026-01-29 08:55:16.73	356.16	10.29	-39.8	-54.1	3.8	1.49e+00	0	59	104	921698304	51	18503
2026-01-29 08:55:20.76	355.81	9.98	-39.8	-54.1	3.8	1.49e+00	0	59	104	921698304	51	18470
2026-01-29 08:55:24.80	355.48	9.67	-39.8	-54.2	3.8	1.49e+00	0	59	104	921698304	51	18521
2026-01-29 08:55:28.84	355.15	9.37	-39.8	-54.1	3.8	1.49e+00	0	60	104	921698304	51	18477
2026-01-29 08:55:32.89	354.83	9.06	-39.8	-54.2	3.8	1.49e+00	0	60	104	921698304	51	18587
2026-01-29 08:55:36.93	354.52	8.77	-39.9	-54.3	3.8	1.49e+00	0	59	104	921698304	51	18740
2026-01-29 08:55:40.97	354.21	8.47	-39.9	-54.3	3.8	1.49e+00	0	60	104	921698304	51	18928
2026-01-29 08:55:45.01	353.91	8.18	-40.0	-54.4	3.8	1.49e+00	0	60	104	921698304	51	19058
2026-01-29 08:55:49.05	353.61	7.89	-42.7	-57.2	3.8	1.49e+00	0	60	104	921698304	55	20951
2026-01-29 08:55:53.09	353.33	7.60	-45.0	-59.9	3.8	1.49e+00	0	60	104	921698304	60	21266
2026-01-29 08:55:57.13	353.04	7.31	-45.1	-60.0	3.8	1.49e+00	0	60	104	921698304	60	21523
2026-01-29 08:56:01.17	352.77	7.03	-44.9	-59.8	3.8	1.49e+00	0	60	104	921698304	60	21103
2026-01-29 08:56:05.22	352.50	6.75	-44.8	-59.7	3.8	1.49e+00	0	60	104	921698304	60	20919
2026-01-29 08:56:09.26	352.23	6.47	-44.8	-59.7	3.8	1.49e+00	0	60	104	921698304	60	20823
2026-01-29 08:56:13.30	351.97	6.19	-44.8	-59.7	3.8	1.49e+00	0	60	104	921698304	60	20782
2026-01-29 08:56:17.34	351.72	5.92	-44.8	-59.7	3.8	1.49e+00	0	60	104	921698304	60	20805
2026-01-29 08:56:21.38	351.47	5.65	-44.8	-59.7	3.8	1.49e+00	0	60	104	921698304	60	20849
2026-01-29 08:56:25.42	351.22	5.38	-44.8	-59.6	3.8	1.49e+00	0	60	104	921698304	60	20731
2026-01-29 08:56:29.47	350.98	5.11	-44.8	-59.6	3.8	1.49e+00	0	59	104	921698304	60	20719
2026-01-29 08:56:33.51	350.74	4.85	-44.8	-59.6	3.8	1.49e+00	0	60	104	921698304	60	20672
2026-01-29 08:56:37.55	350.51	4.59	-44.8	-59.6	3.8	1.49e+00	0	60	104	921698304	60	20622
2026-01-29 08:56:41.59	350.29	4.33	-44.8	-59.6	3.8	1.49e+00	0	60	104	921698304	60	20743
2026-01-29 08:56:45.63	350.06	4.07	-44.7	-59.6	3.8	1.49e+00	0	59	104	921698304	60	20604
2026-01-29 08:56:49.68	349.84	3.81	-44.7	-59.6	3.8	1.49e+00	0	59	104	921698304	60	20621
2026-01-29 08:56:53.72	349.63	3.56	-44.8	-59.6	3.8	1.49e+00	0	59	104	921698304	60	20691
2026-01-29 08:56:57.76	349.42	3.30	-44.8	-59.6	3.8	1.49e+00	0	60	104	921698304	60	20679
2026-01-29 08:57:01.80	349.21	3.05	-44.8	-59.6	3.8	1.49e+00	0	60	104	921698304	60	20685
2026-01-29 08:57:05.85	349.01	2.80	-44.8	-59.6	3.8	1.49e+00	0	60	104	921698304	60	20712
2026-01-29 08:57:09.89	348.81	2.56	-44.8	-59.6	3.8	1.49e+00	0	59	104	921698304	60	20667
2026-01-29 08:57:13.93	348.62	2.31	-44.8	-59.6	3.8	1.49e+00	0	60	104	921698304	60	20695
2026-01-29 08:57:17.97	348.42	2.07	-44.7	-59.6	3.8	1.49e+00	0	60	104	921698304	60	20599

#Closed at: 2026-01-29 08:57:20
#Recorded file [921 MB]: D:/lorett/data/31039_260129_114353.dat