passes_logs/2026/01/29/R2.0S_Moscow/R2.0S_Moscow__20260129_001216_SUOMI_NPP_rec.log

#Pass ID: 20260129_001216_SUOMI NPP
#Satellite: SUOMI NPP
#Configuration: NPP
#almurnet v.1.7.20251203
#Start time: 2026-01-29 00:12:17

#Version: 2.2.20231116
#Station: R2.0S_Moscow
#Location: 37.707566 lon 55.798166 lat
#TLE: 1 37849U 11061A   26027.86188320  .00000172  00000+0  10275-3 0  9990
#TLE: 2 37849  98.7823 329.8005 0002088  41.4184 318.7150 14.19530883738530

#Time	Az	El	Level	Level2	SNR	BER	BlckErr	Temp	State	Recorded	gain1	gain2
2026-01-29 00:12:17.49	14.31	2.07	-42.9	-57.5	3.8	1.49e+00	0	50	0	0	57	19363
2026-01-29 00:12:21.53	14.25	2.33	-42.9	-57.5	3.8	1.49e+00	0	50	104	0	57	19285
2026-01-29 00:12:25.57	14.18	2.59	-42.9	-57.5	3.8	1.49e+00	0	51	104	0	57	19334
2026-01-29 00:12:29.61	14.11	2.85	-42.9	-57.5	3.8	1.49e+00	0	51	104	0	57	19274
2026-01-29 00:12:33.65	14.04	3.12	-42.9	-57.5	3.8	1.49e+00	0	51	104	0	57	19294
2026-01-29 00:12:37.69	13.97	3.38	-42.9	-57.4	3.8	1.49e+00	0	51	104	0	57	19075
2026-01-29 00:12:41.73	13.90	3.65	-42.9	-57.1	3.8	1.49e+00	0	52	104	0	57	18453
2026-01-29 00:12:45.77	13.83	3.92	-42.9	-57.0	3.8	1.49e+00	0	52	104	0	57	18260
2026-01-29 00:12:49.81	13.75	4.20	-42.9	-56.5	3.8	1.49e+00	0	52	104	0	57	17236
2026-01-29 00:12:53.84	13.67	4.48	-42.8	-55.9	3.8	1.49e+00	0	52	104	0	57	15978
2026-01-29 00:12:57.89	13.59	4.76	-42.8	-55.6	3.8	1.49e+00	0	53	104	0	57	15531
2026-01-29 00:13:01.93	13.51	5.04	-42.8	-55.6	3.8	1.49e+00	0	53	104	0	57	15411
2026-01-29 00:13:05.97	13.43	5.33	-42.8	-55.1	4.0	1.48e+00	0	53	104	0	57	14602
2026-01-29 00:13:10.01	13.35	5.62	-42.8	-55.7	3.8	1.49e+00	0	53	104	0	57	15747
2026-01-29 00:13:14.05	13.26	5.91	-42.8	-56.2	3.8	1.49e+00	0	53	104	0	57	16596
2026-01-29 00:13:18.09	13.17	6.21	-42.8	-55.5	3.8	1.48e+00	0	54	104	0	57	15331
2026-01-29 00:13:22.14	13.08	6.51	-42.5	-52.3	4.8	8.94e-01	0	54	0	2097152	57	10555
2026-01-29 00:13:26.18	12.98	6.81	-42.0	-49.5	6.8	2.30e-01	0	54	0	10485760	56	8084
2026-01-29 00:13:30.22	12.89	7.12	-41.3	-47.2	8.8	3.37e-02	0	54	0	17825792	54	7019
2026-01-29 00:13:34.26	12.79	7.43	-40.9	-46.0	10.0	8.24e-03	0	54	0	25165824	53	6449
2026-01-29 00:13:38.31	12.69	7.74	-40.8	-45.8	10.2	5.86e-03	0	54	0	32505856	53	6342
2026-01-29 00:13:42.35	12.59	8.06	-41.1	-46.4	9.7	1.17e-02	0	55	0	40894464	53	6788
2026-01-29 00:13:46.39	12.48	8.38	-40.8	-45.5	10.5	7.13e-03	0	55	0	48234496	53	6095
2026-01-29 00:13:50.43	12.37	8.71	-40.8	-45.5	10.5	3.86e-03	0	55	0	55574528	53	6119
2026-01-29 00:13:54.47	12.26	9.04	-40.4	-44.6	11.5	1.09e-03	0	55	0	62914560	52	5810
2026-01-29 00:13:58.51	12.14	9.37	-40.3	-44.5	11.6	7.21e-04	0	55	0	71303168	52	5758
2026-01-29 00:14:02.55	12.03	9.71	-40.3	-44.5	11.6	7.91e-04	0	55	0	78643200	52	5767
2026-01-29 00:14:06.60	11.91	10.05	-40.2	-44.2	11.9	4.86e-04	0	55	0	85983232	52	5554
2026-01-29 00:14:10.63	11.78	10.40	-40.0	-43.8	12.4	1.71e-04	0	56	0	93323264	51	5611
2026-01-29 00:14:14.67	11.65	10.75	-40.0	-43.6	12.7	6.71e-05	0	56	0	100663296	51	5494
2026-01-29 00:14:18.71	11.52	11.11	-40.2	-44.1	12.2	1.60e-04	0	56	0	109051904	51	5808
2026-01-29 00:14:22.75	11.39	11.47	-40.3	-43.9	12.6	1.28e-04	0	56	0	116391936	51	5715
2026-01-29 00:14:26.79	11.25	11.84	-40.1	-43.6	13.1	3.58e-05	0	56	0	123731968	51	5506
2026-01-29 00:14:30.83	11.11	12.21	-40.1	-43.4	13.4	1.52e-05	0	56	0	131072000	51	5362
2026-01-29 00:14:34.87	10.96	12.59	-40.2	-43.5	13.4	1.06e-05	0	56	0	139460608	51	5459
2026-01-29 00:14:38.91	10.81	12.98	-40.3	-43.4	13.8	3.80e-06	0	56	0	146800640	51	5370
2026-01-29 00:14:42.95	10.65	13.37	-40.4	-43.6	13.8	3.00e-06	0	56	0	154140672	51	5487
2026-01-29 00:14:46.99	10.49	13.76	-40.4	-43.5	14.0	3.80e-06	0	56	0	161480704	51	5441
2026-01-29 00:14:51.02	10.33	14.17	-40.5	-43.6	13.9	5.30e-06	0	56	0	168820736	51	5496
2026-01-29 00:14:55.05	10.16	14.58	-40.6	-43.8	13.7	3.00e-06	0	57	0	177209344	52	5330
2026-01-29 00:14:59.10	9.99	14.99	-40.6	-43.7	14.0	3.80e-06	0	57	0	184549376	52	5241
2026-01-29 00:15:03.14	9.81	15.42	-40.5	-43.5	14.1	7.00e-07	0	56	0	191889408	52	5155
2026-01-29 00:15:07.18	9.62	15.85	-40.3	-43.3	14.5	7.00e-07	0	57	0	199229440	52	4994
2026-01-29 00:15:11.22	9.43	16.28	-40.3	-43.3	14.5	0.00e+00	0	56	0	207618048	52	4987
2026-01-29 00:15:15.26	9.23	16.73	-40.3	-43.2	14.6	0.00e+00	0	57	0	214958080	52	4967
2026-01-29 00:15:19.30	9.02	17.18	-40.4	-43.3	14.5	0.00e+00	0	57	0	222298112	52	4990
2026-01-29 00:15:23.34	8.81	17.64	-40.4	-43.2	14.7	0.00e+00	0	57	0	229638144	52	4963
2026-01-29 00:15:27.37	8.59	18.11	-40.4	-43.3	14.5	0.00e+00	0	57	0	236978176	52	5030
2026-01-29 00:15:31.41	8.37	18.59	-40.4	-43.3	14.6	0.00e+00	0	57	0	245366784	52	5018
2026-01-29 00:15:35.45	8.14	19.08	-40.5	-43.4	14.4	0.00e+00	0	57	0	252706816	52	5090
2026-01-29 00:15:39.49	7.89	19.58	-40.7	-43.7	14.2	0.00e+00	0	57	0	260046848	52	5273
2026-01-29 00:15:43.53	7.64	20.08	-40.7	-43.7	14.2	1.50e-06	0	57	0	267386880	52	5274
2026-01-29 00:15:47.57	7.38	20.60	-40.8	-43.9	14.0	0.00e+00	0	57	0	275775488	52	5355
2026-01-29 00:15:51.60	7.12	21.12	-40.6	-43.6	14.4	0.00e+00	0	57	0	283115520	52	5184
2026-01-29 00:15:55.64	6.84	21.66	-41.0	-44.2	13.7	3.80e-06	0	57	0	290455552	52	5575
2026-01-29 00:15:59.68	6.55	22.21	-41.1	-44.4	13.5	1.06e-05	0	57	0	297795584	53	5385
2026-01-29 00:16:03.72	6.25	22.77	-41.1	-44.3	13.6	1.29e-05	0	57	0	305135616	53	5338
2026-01-29 00:16:07.76	5.94	23.34	-40.7	-43.6	14.4	1.50e-06	0	57	0	313524224	53	4922
2026-01-29 00:16:11.80	5.61	23.92	-41.1	-44.2	13.8	4.50e-06	0	58	0	320864256	53	5279
2026-01-29 00:16:15.84	5.27	24.52	-41.1	-44.3	13.6	1.60e-05	0	57	0	328204288	53	5335
2026-01-29 00:16:19.88	4.92	25.12	-41.5	-45.0	13.0	4.11e-05	0	57	0	335544320	53	5726
2026-01-29 00:16:23.92	4.56	25.74	-41.1	-44.3	13.7	2.36e-05	0	58	0	343932928	53	5303
2026-01-29 00:16:27.97	4.18	26.38	-41.7	-45.4	12.8	5.34e-05	0	57	0	351272960	53	6017
2026-01-29 00:16:32.01	3.78	27.03	-41.7	-45.3	12.7	1.06e-04	0	57	0	358612992	54	5641
2026-01-29 00:16:36.05	3.37	27.69	-41.8	-45.6	12.5	1.69e-04	0	58	0	365953024	54	5810
2026-01-29 00:16:40.09	2.93	28.36	-41.3	-44.5	13.5	3.20e-05	0	58	0	373293056	54	5142
2026-01-29 00:16:44.13	2.48	29.05	-41.2	-44.4	13.7	1.22e-05	0	58	0	381681664	54	5078
2026-01-29 00:16:48.17	2.01	29.76	-41.8	-45.5	12.7	6.56e-05	0	58	0	389021696	54	5750
2026-01-29 00:16:52.21	1.51	30.48	-42.4	-46.8	11.3	6.68e-04	0	58	0	396361728	55	6322
2026-01-29 00:16:56.25	1.00	31.22	-42.9	-47.7	10.5	2.72e-03	0	58	0	403701760	56	6586
2026-01-29 00:17:00.29	0.45	31.97	-43.0	-48.0	10.3	5.48e-03	0	58	0	412090368	56	6806
2026-01-29 00:17:04.33	359.88	32.74	-43.0	-47.9	10.3	5.33e-03	0	58	0	419430400	56	6774
2026-01-29 00:17:08.37	359.29	33.53	-43.1	-48.1	10.1	7.18e-03	0	58	0	426770432	56	6948
2026-01-29 00:17:12.41	358.66	34.33	-43.4	-49.1	9.1	1.26e-02	0	58	0	434110464	57	7370
2026-01-29 00:17:16.45	357.99	35.16	-43.6	-49.5	8.7	3.31e-02	0	58	0	441450496	57	7701
2026-01-29 00:17:20.49	357.30	35.99	-43.8	-50.4	7.9	6.20e-02	0	58	0	449839104	58	8035
2026-01-29 00:17:24.53	356.56	36.85	-42.9	-47.6	10.6	4.25e-03	0	58	0	457179136	57	6190
2026-01-29 00:17:28.57	355.79	37.72	-42.7	-47.1	11.3	6.61e-04	0	58	0	464519168	56	6138
2026-01-29 00:17:32.61	354.97	38.61	-42.5	-46.6	11.9	8.60e-04	0	58	0	471859200	56	5794
2026-01-29 00:17:36.65	354.10	39.52	-42.4	-46.3	12.1	2.03e-04	0	58	0	480247808	56	5642
2026-01-29 00:17:40.69	353.18	40.44	-42.7	-47.0	11.4	5.13e-04	0	58	0	487587840	56	6107
2026-01-29 00:17:44.73	352.21	41.38	-42.6	-46.8	11.5	9.81e-04	0	58	0	494927872	56	5970
2026-01-29 00:17:48.77	351.17	42.33	-42.4	-46.3	12.1	1.94e-04	0	58	0	502267904	56	5647
2026-01-29 00:17:52.81	350.08	43.30	-42.9	-47.6	10.7	2.09e-03	0	58	0	509607936	56	6561
2026-01-29 00:17:56.85	348.91	44.27	-42.4	-46.3	12.1	7.57e-04	0	58	0	517996544	56	5618
2026-01-29 00:18:00.88	347.67	45.26	-42.9	-47.4	11.0	1.43e-03	0	58	0	525336576	56	6420
2026-01-29 00:18:04.92	346.35	46.26	-42.8	-47.2	11.2	1.05e-03	0	58	0	532676608	56	6225
2026-01-29 00:18:08.97	344.94	47.26	-41.8	-45.2	13.1	3.12e-05	0	58	0	540016640	55	5253
2026-01-29 00:18:13.01	343.43	48.27	-42.0	-45.8	12.5	1.27e-04	0	58	0	548405248	55	5593
2026-01-29 00:18:17.05	341.82	49.28	-41.9	-45.5	12.8	3.58e-05	0	58	0	555745280	55	5440
2026-01-29 00:18:21.09	340.11	50.28	-41.8	-45.3	13.1	8.54e-05	0	58	0	563085312	55	5312
2026-01-29 00:18:25.13	338.27	51.28	-41.3	-44.3	14.0	3.80e-06	0	58	0	570425344	54	5040
2026-01-29 00:18:29.17	336.31	52.26	-40.1	-42.4	16.1	0.00e+00	0	58	0	577765376	51	4783
2026-01-29 00:18:33.21	334.21	53.23	-41.0	-44.0	14.5	0.00e+00	0	58	0	586153984	52	5430
2026-01-29 00:18:37.25	331.97	54.17	-42.1	-46.1	12.3	3.23e-04	0	58	0	593494016	55	5804
2026-01-29 00:18:41.28	329.58	55.08	-40.5	-43.1	15.3	0.00e+00	0	58	0	600834048	53	4648
2026-01-29 00:18:45.32	327.04	55.96	-41.8	-45.4	12.9	3.28e-05	0	58	0	608174080	54	5683
2026-01-29 00:18:49.36	324.33	56.79	-41.3	-44.4	14.0	7.00e-07	0	58	0	616562688	54	5076
2026-01-29 00:18:53.40	321.46	57.56	-41.3	-44.5	13.9	7.60e-06	0	58	0	623902720	54	5128
2026-01-29 00:18:57.44	318.42	58.27	-40.9	-43.9	14.5	7.00e-07	0	58	0	631242752	53	5042
2026-01-29 00:19:01.49	315.22	58.92	-41.6	-45.1	13.3	1.37e-05	0	58	0	638582784	54	5468
2026-01-29 00:19:05.52	311.88	59.48	-41.5	-44.8	13.5	1.60e-05	0	58	0	645922816	54	5313
2026-01-29 00:19:09.57	308.39	59.95	-42.0	-45.7	12.7	7.60e-06	0	58	0	654311424	54	5887
2026-01-29 00:19:13.61	304.79	60.32	-41.7	-45.3	13.2	1.06e-05	0	58	0	661651456	53	5924
2026-01-29 00:19:17.64	301.11	60.60	-41.1	-44.1	14.3	0.00e+00	0	58	0	668991488	54	4899
2026-01-29 00:19:21.68	297.35	60.76	-40.7	-43.5	14.9	0.00e+00	0	58	0	676331520	53	4817
2026-01-29 00:19:25.72	293.56	60.82	-39.7	-41.9	16.5	0.00e+00	0	58	0	684720128	51	4502
2026-01-29 00:19:29.76	289.77	60.77	-40.2	-42.6	15.8	0.00e+00	0	58	0	692060160	50	5193
2026-01-29 00:19:33.80	286.01	60.60	-39.5	-41.6	16.8	0.00e+00	0	58	0	699400192	50	4634
2026-01-29 00:19:37.84	282.32	60.33	-41.0	-43.9	14.5	7.00e-07	0	58	0	706740224	52	5388
2026-01-29 00:19:41.87	278.73	59.96	-39.6	-41.7	16.7	0.00e+00	0	58	0	714080256	50	4693
2026-01-29 00:19:45.91	275.24	59.49	-41.2	-44.3	14.2	0.00e+00	0	58	0	722468864	53	5338
2026-01-29 00:19:49.95	271.89	58.93	-42.3	-46.5	11.8	3.01e-04	0	58	0	729808896	55	6090
2026-01-29 00:19:53.99	268.69	58.29	-40.7	-43.5	14.8	0.00e+00	0	58	0	737148928	53	4844
2026-01-29 00:19:58.04	265.63	57.57	-40.4	-43.0	15.5	0.00e+00	0	59	0	744488960	52	4834
2026-01-29 00:20:02.08	262.75	56.80	-40.2	-42.7	15.7	0.00e+00	0	59	0	752877568	52	4687
2026-01-29 00:20:06.12	260.04	55.97	-40.2	-42.6	15.8	0.00e+00	0	58	0	760217600	51	4908
2026-01-29 00:20:10.16	257.48	55.09	-40.7	-43.4	15.0	0.00e+00	0	58	0	767557632	52	5087
2026-01-29 00:20:14.20	255.08	54.18	-41.3	-44.4	13.9	1.75e-05	0	58	0	774897664	53	5377
2026-01-29 00:20:18.24	252.84	53.23	-41.8	-45.4	13.1	4.65e-05	0	58	0	782237696	54	5666
2026-01-29 00:20:22.28	250.73	52.26	-40.8	-43.6	14.7	0.00e+00	0	59	0	790626304	53	4908
2026-01-29 00:20:26.32	248.76	51.28	-41.6	-45.1	13.2	9.00e-05	0	59	0	797966336	54	5518
2026-01-29 00:20:30.36	246.92	50.28	-41.4	-44.7	13.6	0.00e+00	0	58	0	805306368	53	5541
2026-01-29 00:20:34.40	245.20	49.27	-42.2	-46.1	12.2	3.05e-04	0	58	0	812646400	55	5791
2026-01-29 00:20:38.44	243.59	48.26	-42.6	-47.0	11.2	1.46e-03	0	58	0	821035008	55	6455
2026-01-29 00:20:42.48	242.08	47.25	-43.3	-48.5	10.0	1.07e-02	0	58	0	828375040	58	6433
2026-01-29 00:20:46.52	240.66	46.24	-42.7	-47.0	11.3	6.41e-04	0	58	0	835715072	56	6129
2026-01-29 00:20:50.55	239.34	45.24	-41.7	-45.2	13.1	6.40e-05	0	59	0	843055104	55	5265
2026-01-29 00:20:54.59	238.09	44.25	-42.6	-47.1	11.2	6.05e-04	0	58	0	851443712	55	6548
2026-01-29 00:20:58.63	236.92	43.27	-42.5	-46.7	12.0	6.68e-04	0	58	0	858783744	56	5866
2026-01-29 00:21:02.67	235.82	42.30	-42.6	-46.9	11.5	3.68e-04	0	59	0	866123776	56	6033
2026-01-29 00:21:06.71	234.78	41.34	-41.9	-45.5	12.7	4.88e-05	0	59	0	873463808	55	5421
2026-01-29 00:21:10.75	233.80	40.40	-42.7	-47.2	11.2	1.68e-03	0	59	0	880803840	56	6222
2026-01-29 00:21:14.79	232.88	39.48	-42.8	-47.4	11.0	4.36e-03	0	58	0	889192448	57	5994
2026-01-29 00:21:18.83	232.01	38.57	-43.0	-47.8	10.7	2.66e-03	0	59	0	896532480	57	6299
2026-01-29 00:21:22.87	231.19	37.67	-43.1	-48.1	10.3	4.25e-03	0	59	0	903872512	57	6545
2026-01-29 00:21:26.91	230.41	36.80	-42.6	-46.9	11.5	1.08e-03	0	58	0	911212544	57	5684
2026-01-29 00:21:30.95	229.67	35.94	-43.2	-48.3	10.0	4.35e-03	0	59	0	919601152	56	7110
2026-01-29 00:21:34.99	228.97	35.10	-42.7	-47.1	11.3	1.34e-03	0	59	0	926941184	56	6159
2026-01-29 00:21:39.03	228.31	34.27	-42.2	-46.1	12.3	2.68e-04	0	59	0	934281216	56	5486
2026-01-29 00:21:43.07	227.67	33.47	-42.4	-46.7	11.5	4.25e-04	0	59	0	941621248	55	6254
2026-01-29 00:21:47.11	227.07	32.68	-42.0	-45.7	12.7	1.38e-04	0	59	0	948961280	56	5224
2026-01-29 00:21:51.15	226.50	31.90	-43.3	-48.8	9.5	1.37e-02	0	59	0	957349888	57	7109
2026-01-29 00:21:55.19	225.95	31.14	-41.7	-45.2	13.0	7.09e-05	0	59	0	964689920	55	5273
2026-01-29 00:21:59.24	225.43	30.40	-42.0	-45.7	12.4	2.01e-04	0	59	0	972029952	55	5588
2026-01-29 00:22:03.27	224.93	29.68	-41.7	-45.2	13.0	1.29e-05	0	59	0	979369984	54	5578
2026-01-29 00:22:07.31	224.46	28.97	-42.7	-47.4	10.7	3.00e-03	0	59	0	987758592	55	6750
2026-01-29 00:22:11.35	224.00	28.28	-42.4	-46.6	11.8	5.34e-04	0	59	0	995098624	56	5807
2026-01-29 00:22:15.38	223.57	27.60	-42.4	-46.6	11.7	5.90e-04	0	59	0	1002438656	56	5822
2026-01-29 00:22:19.42	223.15	26.94	-41.5	-45.0	13.2	3.35e-05	0	59	0	1009778688	55	5115
2026-01-29 00:22:23.46	222.75	26.29	-42.1	-46.2	12.0	2.43e-04	0	59	0	1017118720	54	6246
2026-01-29 00:22:27.50	222.37	25.65	-42.5	-47.0	11.0	2.65e-03	0	59	0	1025507328	55	6489
2026-01-29 00:22:31.54	222.00	25.03	-42.3	-46.6	11.5	9.12e-04	0	59	0	1032847360	55	6184
2026-01-29 00:22:35.58	221.65	24.42	-42.4	-46.7	11.3	1.71e-03	0	59	0	1040187392	55	6257
2026-01-29 00:22:39.62	221.31	23.82	-41.9	-45.8	12.3	2.26e-04	0	59	0	1047527424	55	5630
2026-01-29 00:22:43.66	220.98	23.24	-41.8	-45.6	12.5	1.05e-04	0	59	0	1055916032	55	5470
2026-01-29 00:22:47.70	220.67	22.66	-41.7	-45.4	12.6	9.15e-05	0	59	0	1063256064	55	5396
2026-01-29 00:22:51.74	220.36	22.10	-41.3	-44.6	13.4	1.22e-05	0	59	0	1070596096	54	5184
2026-01-29 00:22:55.78	220.07	21.55	-41.3	-44.6	13.5	1.22e-05	0	59	0	1077936128	54	5195
2026-01-29 00:22:59.82	219.79	21.02	-41.9	-45.9	12.1	1.22e-04	0	59	0	1085276160	54	6025
2026-01-29 00:23:03.86	219.52	20.49	-42.4	-47.0	10.9	2.35e-03	0	59	0	1093664768	55	6480
2026-01-29 00:23:07.91	219.25	19.97	-42.5	-47.3	10.7	2.81e-03	0	59	0	1101004800	55	6669
2026-01-29 00:23:11.95	219.00	19.46	-42.4	-46.9	11.0	1.34e-03	0	59	0	1108344832	55	6408
2026-01-29 00:23:15.98	218.76	18.96	-41.6	-45.4	12.6	2.12e-04	0	59	0	1115684864	55	5357
2026-01-29 00:23:20.02	218.52	18.47	-41.3	-44.7	13.3	1.75e-05	0	59	0	1124073472	54	5219
2026-01-29 00:23:24.06	218.29	17.99	-41.1	-44.4	13.6	3.80e-06	0	59	0	1131413504	53	5366
2026-01-29 00:23:28.10	218.07	17.52	-41.1	-44.5	13.5	1.44e-05	0	59	0	1138753536	53	5412
2026-01-29 00:23:32.14	217.85	17.06	-41.5	-45.2	12.7	5.56e-05	0	59	0	1146093568	53	5881
2026-01-29 00:23:36.18	217.65	16.61	-41.7	-45.6	12.3	1.43e-04	0	58	0	1153433600	54	5817
2026-01-29 00:23:40.22	217.44	16.16	-41.8	-45.8	12.1	2.38e-04	0	59	0	1161822208	54	5938
2026-01-29 00:23:44.26	217.25	15.72	-41.9	-45.9	12.0	2.73e-04	0	59	0	1169162240	54	6013
2026-01-29 00:23:48.30	217.06	15.29	-41.7	-45.7	12.2	2.00e-04	0	59	0	1176502272	54	5859
2026-01-29 00:23:52.34	216.88	14.86	-41.9	-46.1	11.7	5.78e-04	0	59	0	1183842304	54	6170
2026-01-29 00:23:56.37	216.70	14.45	-42.3	-46.9	10.8	1.94e-03	0	59	0	1192230912	55	6394
2026-01-29 00:24:00.41	216.52	14.04	-42.3	-47.0	10.8	2.38e-03	0	59	0	1199570944	55	6421
2026-01-29 00:24:04.45	216.36	13.63	-42.3	-47.0	10.6	3.33e-03	0	59	0	1206910976	55	6487
2026-01-29 00:24:08.49	216.19	13.23	-42.0	-46.5	11.3	9.49e-04	0	59	0	1214251008	55	6070
2026-01-29 00:24:12.53	216.03	12.84	-41.6	-45.5	12.2	2.14e-04	0	59	0	1221591040	55	5427
2026-01-29 00:24:16.57	215.88	12.46	-41.4	-45.1	12.6	1.18e-04	0	59	0	1229979648	54	5508
2026-01-29 00:24:20.61	215.73	12.08	-41.3	-45.0	12.7	6.63e-05	0	59	0	1237319680	54	5451
2026-01-29 00:24:24.65	215.58	11.70	-41.4	-45.2	12.5	1.89e-04	0	59	0	1244659712	54	5561
2026-01-29 00:24:28.69	215.44	11.33	-41.6	-45.6	12.1	2.46e-04	0	59	0	1251999744	54	5802
2026-01-29 00:24:32.73	215.30	10.97	-41.7	-45.8	11.8	5.12e-04	0	59	0	1260388352	54	5958
2026-01-29 00:24:36.77	215.17	10.61	-41.8	-46.2	11.3	8.73e-04	0	59	0	1267728384	54	6223
2026-01-29 00:24:40.81	215.04	10.26	-41.9	-46.3	11.2	1.43e-03	0	59	0	1275068416	54	6310
2026-01-29 00:24:44.85	214.91	9.91	-41.8	-46.2	11.3	1.65e-03	0	59	0	1282408448	54	6216
2026-01-29 00:24:48.89	214.78	9.57	-41.9	-46.5	10.9	1.61e-03	0	59	0	1290797056	54	6488
2026-01-29 00:24:52.93	214.66	9.23	-42.0	-46.7	10.6	3.08e-03	0	59	0	1298137088	54	6636
2026-01-29 00:24:56.97	214.54	8.89	-42.0	-46.8	10.5	4.31e-03	0	59	0	1305477120	54	6710
2026-01-29 00:25:01.01	214.43	8.56	-42.1	-47.2	10.1	5.45e-03	0	59	0	1312817152	54	7019
2026-01-29 00:25:05.04	214.31	8.24	-42.1	-47.3	10.0	7.03e-03	0	59	0	1320157184	55	6686
2026-01-29 00:25:09.08	214.20	7.91	-44.7	-59.4	3.8	1.49e+00	0	59	104	1325400064	59	21329
2026-01-29 00:25:13.13	214.09	7.59	-45.1	-59.9	3.8	1.49e+00	0	59	104	1325400064	60	21497
2026-01-29 00:25:17.17	213.99	7.28	-45.1	-60.0	3.8	1.49e+00	0	59	104	1325400064	60	21606
2026-01-29 00:25:21.21	213.89	6.97	-45.1	-59.9	3.8	1.49e+00	0	59	104	1325400064	60	21418
2026-01-29 00:25:25.25	213.79	6.66	-45.0	-59.9	3.8	1.49e+00	0	59	104	1325400064	60	21390
2026-01-29 00:25:29.29	213.69	6.36	-45.0	-59.9	3.8	1.49e+00	0	59	104	1325400064	60	21368
2026-01-29 00:25:33.33	213.59	6.06	-45.0	-59.9	3.8	1.49e+00	0	59	104	1325400064	60	21330
2026-01-29 00:25:37.38	213.50	5.76	-45.0	-59.9	3.8	1.49e+00	0	59	104	1325400064	60	21344
2026-01-29 00:25:41.42	213.41	5.47	-45.0	-59.9	3.8	1.49e+00	0	59	104	1325400064	60	21322
2026-01-29 00:25:45.46	213.32	5.18	-45.0	-59.9	3.8	1.49e+00	0	59	104	1325400064	60	21295
2026-01-29 00:25:49.50	213.23	4.89	-45.0	-59.8	3.8	1.49e+00	0	59	104	1325400064	60	21248
2026-01-29 00:25:53.54	213.14	4.61	-45.0	-59.9	3.8	1.49e+00	0	59	104	1325400064	60	21324
2026-01-29 00:25:57.59	213.06	4.32	-45.0	-59.9	3.8	1.49e+00	0	59	104	1325400064	60	21337
2026-01-29 00:26:01.63	212.98	4.05	-45.0	-59.8	3.8	1.49e+00	0	59	104	1325400064	60	21245
2026-01-29 00:26:05.67	212.90	3.77	-45.0	-59.9	3.8	1.49e+00	0	59	104	1325400064	60	21313
2026-01-29 00:26:09.71	212.82	3.50	-45.0	-59.8	3.8	1.49e+00	0	59	104	1325400064	60	21158
2026-01-29 00:26:13.75	212.74	3.23	-45.0	-59.8	3.8	1.49e+00	0	59	104	1325400064	60	21205
2026-01-29 00:26:17.79	212.66	2.96	-45.0	-59.8	3.8	1.49e+00	0	59	104	1325400064	60	21175
2026-01-29 00:26:21.83	212.59	2.69	-45.0	-59.8	3.8	1.49e+00	0	59	104	1325400064	60	21240
2026-01-29 00:26:25.87	212.52	2.43	-44.9	-59.8	3.8	1.49e+00	0	59	104	1325400064	60	21143
2026-01-29 00:26:29.92	212.45	2.17	-44.9	-59.8	3.8	1.49e+00	0	59	104	1325400064	60	21114
2026-01-29 00:26:33.96	212.38	1.91	-44.9	-59.7	3.8	1.49e+00	0	59	104	1325400064	60	21014

#Closed at: 2026-01-29 00:26:35
#Recorded file [1325 MB]: D:/lorett/data/31039_260129_031217.dat