passes_logs/2026/01/29/R2.0S_Moscow/R2.0S_Moscow__20260129_114454_SUOMI_NPP_rec.log

#Pass ID: 20260129_114454_SUOMI NPP
#Satellite: SUOMI NPP
#Configuration: NPP
#almurnet v.1.7.20251203
#Start time: 2026-01-29 11:44:55

#Version: 2.2.20231116
#Station: R2.0S_Moscow
#Location: 37.707566 lon 55.798166 lat
#TLE: 1 37849U 11061A   26027.93236865  .00000148  00000+0  91411-4 0  9991
#TLE: 2 37849  98.7823 329.8704 0002085  41.3231 318.8102 14.19530777738546

#Time	Az	El	Level	Level2	SNR	BER	BlckErr	Temp	State	Recorded	gain1	gain2
2026-01-29 11:44:55.17	214.34	2.05	-44.1	-58.7	3.8	1.49e+00	0	51	0	0	59	19626
2026-01-29 11:44:58.19	214.58	2.21	-44.0	-58.7	3.8	1.49e+00	0	51	104	0	59	19631
2026-01-29 11:45:01.22	214.83	2.37	-44.1	-58.7	3.8	1.49e+00	0	51	104	0	59	19629
2026-01-29 11:45:04.25	215.08	2.53	-44.0	-58.7	3.8	1.49e+00	0	52	104	0	59	19646
2026-01-29 11:45:07.28	215.34	2.69	-44.0	-58.7	3.8	1.49e+00	0	52	104	0	59	19674
2026-01-29 11:45:10.31	215.59	2.85	-44.0	-58.6	3.8	1.49e+00	0	52	104	0	59	19611
2026-01-29 11:45:13.33	215.85	3.01	-44.0	-58.7	3.8	1.49e+00	0	52	104	0	59	19674
2026-01-29 11:45:16.36	216.12	3.17	-44.0	-58.7	3.8	1.49e+00	0	53	104	0	59	19621
2026-01-29 11:45:19.39	216.38	3.33	-44.0	-58.7	3.8	1.49e+00	0	52	104	0	59	19616
2026-01-29 11:45:22.42	216.65	3.50	-44.0	-58.7	3.8	1.49e+00	0	53	104	0	59	19634
2026-01-29 11:45:25.45	216.92	3.66	-44.0	-58.7	3.8	1.49e+00	0	53	104	0	59	19625
2026-01-29 11:45:28.47	217.19	3.82	-44.0	-58.7	3.8	1.49e+00	0	53	104	0	59	19615
2026-01-29 11:45:31.50	217.47	3.99	-44.0	-58.6	3.8	1.49e+00	0	53	104	0	59	19600
2026-01-29 11:45:34.53	217.75	4.15	-44.0	-58.7	3.8	1.49e+00	0	54	104	0	59	19615
2026-01-29 11:45:37.57	218.03	4.31	-44.0	-58.7	3.8	1.49e+00	0	54	104	0	59	19636
2026-01-29 11:45:40.59	218.32	4.48	-44.0	-58.6	3.8	1.49e+00	0	54	104	0	59	19592
2026-01-29 11:45:43.62	218.60	4.64	-44.0	-58.7	3.8	1.49e+00	0	54	104	0	59	19633
2026-01-29 11:45:46.65	218.90	4.81	-44.0	-58.6	3.8	1.49e+00	0	54	104	0	59	19576
2026-01-29 11:45:49.68	219.19	4.98	-44.0	-58.6	3.8	1.49e+00	0	54	104	0	59	19575
2026-01-29 11:45:52.71	219.49	5.14	-44.0	-58.7	3.8	1.49e+00	0	55	104	0	59	19635
2026-01-29 11:45:55.74	219.79	5.31	-44.0	-58.6	3.8	1.49e+00	0	54	104	0	59	19561
2026-01-29 11:45:58.77	220.10	5.48	-44.0	-58.6	3.8	1.49e+00	0	55	104	0	59	19536
2026-01-29 11:46:01.80	220.40	5.65	-44.0	-58.6	3.8	1.49e+00	0	55	104	0	59	19519
2026-01-29 11:46:04.82	220.72	5.81	-44.0	-58.6	3.8	1.49e+00	0	55	104	0	59	19609
2026-01-29 11:46:07.85	221.03	5.98	-44.0	-58.6	3.8	1.49e+00	0	55	104	0	59	19566
2026-01-29 11:46:10.88	221.35	6.15	-44.0	-58.6	3.8	1.49e+00	0	55	104	0	59	19417
2026-01-29 11:46:13.90	221.67	6.32	-44.0	-58.4	3.8	1.49e+00	0	55	104	0	59	19116
2026-01-29 11:46:16.93	222.00	6.49	-44.0	-58.1	3.8	1.49e+00	0	55	104	0	59	18428
2026-01-29 11:46:19.96	222.33	6.66	-44.0	-57.9	3.8	1.49e+00	0	56	104	0	59	18005
2026-01-29 11:46:22.99	222.66	6.83	-43.9	-57.1	3.8	1.49e+00	0	56	104	0	59	16479
2026-01-29 11:46:26.02	223.00	7.00	-43.8	-55.4	4.1	1.45e+00	0	56	0	0	59	13417
2026-01-29 11:46:29.06	223.34	7.17	-43.6	-53.2	4.9	8.62e-01	0	56	0	3145728	59	10495
2026-01-29 11:46:32.09	223.69	7.34	-43.3	-51.2	6.2	3.21e-01	0	56	0	8388608	58	8847
2026-01-29 11:46:35.12	224.03	7.52	-42.9	-49.7	7.6	9.73e-02	0	56	0	13631488	57	7858
2026-01-29 11:46:38.15	224.39	7.69	-42.5	-48.3	9.0	3.03e-02	0	56	0	19922944	57	6678
2026-01-29 11:46:41.18	224.75	7.86	-40.1	-47.8	9.2	3.27e-02	0	56	0	25165824	51	8902
2026-01-29 11:46:44.21	225.11	8.03	-40.8	-48.0	8.9	4.27e-02	0	56	0	31457280	52	8622
2026-01-29 11:46:47.24	225.47	8.20	-41.2	-53.9	4.5	8.98e-01	0	57	0	36700160	54	15116
2026-01-29 11:46:50.27	225.84	8.38	-41.0	-47.4	9.6	2.41e-02	0	57	0	42991616	53	7565
2026-01-29 11:46:53.30	226.21	8.55	-42.1	-47.1	10.2	6.78e-03	0	57	0	48234496	54	6922
2026-01-29 11:46:56.34	226.59	8.72	-42.0	-46.9	10.4	4.86e-03	0	57	0	53477376	54	6757
2026-01-29 11:46:59.37	226.98	8.90	-42.0	-46.8	10.5	4.91e-03	0	57	0	59768832	54	6713
2026-01-29 11:47:02.39	227.36	9.07	-41.9	-46.8	10.5	7.00e-03	0	57	0	65011712	54	6665
2026-01-29 11:47:05.43	227.76	9.24	-42.0	-46.8	10.4	9.32e-03	0	57	0	71303168	54	6673
2026-01-29 11:47:08.46	228.15	9.42	-41.9	-46.6	10.7	3.73e-03	0	57	0	76546048	54	6558
2026-01-29 11:47:11.49	228.55	9.59	-41.9	-46.7	10.7	3.72e-03	0	57	0	81788928	54	6572
2026-01-29 11:47:14.51	228.96	9.76	-41.9	-46.6	10.8	3.62e-03	0	57	0	88080384	54	6533
2026-01-29 11:47:17.54	229.37	9.94	-42.0	-46.8	10.5	4.08e-03	0	57	0	93323264	54	6720
2026-01-29 11:47:20.57	229.78	10.11	-42.1	-47.1	10.4	4.71e-03	0	57	0	99614720	54	6893
2026-01-29 11:47:23.60	230.20	10.28	-42.2	-47.1	10.3	4.71e-03	0	58	0	104857600	54	6944
2026-01-29 11:47:26.63	230.62	10.45	-42.1	-46.8	10.6	3.54e-03	0	57	0	111149056	55	6345
2026-01-29 11:47:29.66	231.05	10.63	-42.0	-46.7	10.8	2.50e-03	0	58	0	116391936	55	6222
2026-01-29 11:47:32.69	231.49	10.80	-42.1	-46.8	10.7	2.77e-03	0	58	0	121634816	55	6279
2026-01-29 11:47:35.72	231.92	10.97	-42.1	-46.9	10.6	2.88e-03	0	58	0	127926272	55	6357
2026-01-29 11:47:38.75	232.37	11.14	-42.1	-46.8	10.8	2.92e-03	0	58	0	133169152	55	6289
2026-01-29 11:47:41.78	232.82	11.32	-42.0	-46.5	11.1	2.06e-03	0	58	0	139460608	55	6070
2026-01-29 11:47:44.80	233.27	11.49	-41.9	-46.4	11.2	1.48e-03	0	58	0	144703488	55	5997
2026-01-29 11:47:47.83	233.73	11.66	-42.0	-46.6	10.9	1.64e-03	0	58	0	149946368	55	6160
2026-01-29 11:47:50.86	234.19	11.83	-42.0	-46.6	11.0	2.20e-03	0	58	0	156237824	55	6159
2026-01-29 11:47:53.89	234.66	12.00	-42.1	-46.7	10.8	2.76e-03	0	58	0	161480704	55	6273
2026-01-29 11:47:56.92	235.14	12.17	-42.1	-46.7	10.8	2.32e-03	0	58	0	167772160	55	6235
2026-01-29 11:47:59.95	235.62	12.33	-42.0	-46.5	11.1	1.52e-03	0	58	0	173015040	55	6066
2026-01-29 11:48:02.98	236.10	12.50	-41.9	-46.4	11.2	1.18e-03	0	58	0	179306496	55	6005
2026-01-29 11:48:06.01	236.59	12.67	-42.1	-46.6	10.9	1.41e-03	0	58	0	184549376	55	6198
2026-01-29 11:48:09.04	237.09	12.84	-41.8	-46.1	11.5	1.22e-03	0	58	0	189792256	55	5843
2026-01-29 11:48:12.07	237.59	13.00	-41.7	-45.7	11.9	4.21e-04	0	58	0	196083712	55	5565
2026-01-29 11:48:15.10	238.10	13.17	-41.5	-45.4	12.2	2.27e-04	0	58	0	201326592	55	5369
2026-01-29 11:48:18.13	238.61	13.33	-41.7	-45.8	11.9	4.32e-04	0	58	0	207618048	55	5627
2026-01-29 11:48:21.17	239.13	13.49	-41.8	-45.9	11.7	6.92e-04	0	58	0	212860928	55	5715
2026-01-29 11:48:24.19	239.65	13.65	-41.7	-45.8	11.8	4.83e-04	0	58	0	218103808	55	5627
2026-01-29 11:48:27.22	240.18	13.81	-41.6	-45.6	12.1	3.29e-04	0	58	0	224395264	55	5467
2026-01-29 11:48:30.25	240.72	13.97	-41.5	-45.4	12.3	1.74e-04	0	58	0	229638144	55	5343
2026-01-29 11:48:33.28	241.26	14.13	-41.6	-45.5	12.2	1.73e-04	0	58	0	235929600	54	5743
2026-01-29 11:48:36.31	241.81	14.29	-41.7	-45.7	12.0	2.99e-04	0	59	0	241172480	54	5872
2026-01-29 11:48:39.34	242.36	14.44	-41.8	-46.0	11.7	4.47e-04	0	59	0	247463936	54	6093
2026-01-29 11:48:42.37	242.91	14.60	-41.7	-45.7	12.0	4.39e-04	0	59	0	252706816	54	5916
2026-01-29 11:48:45.40	243.48	14.75	-41.6	-45.6	12.1	2.27e-04	0	59	0	257949696	54	5833
2026-01-29 11:48:48.43	244.05	14.90	-41.8	-46.0	11.7	4.02e-04	0	59	0	264241152	54	6111
2026-01-29 11:48:51.46	244.62	15.05	-42.0	-46.3	11.4	9.42e-04	0	59	0	269484032	54	6302
2026-01-29 11:48:54.49	245.20	15.19	-42.0	-46.3	11.4	8.60e-04	0	59	0	275775488	54	6310
2026-01-29 11:48:57.52	245.78	15.34	-42.1	-46.6	11.2	1.30e-03	0	59	0	281018368	54	6515
2026-01-29 11:49:00.55	246.37	15.48	-42.2	-46.8	10.9	2.73e-03	0	59	0	286261248	55	6305
2026-01-29 11:49:03.58	246.97	15.62	-42.2	-46.7	11.0	1.66e-03	0	59	0	292552704	55	6238
2026-01-29 11:49:06.61	247.57	15.76	-42.1	-46.5	11.2	1.29e-03	0	59	0	297795584	55	6128
2026-01-29 11:49:09.65	248.18	15.90	-42.0	-46.4	11.3	1.29e-03	0	59	0	304087040	55	6040
2026-01-29 11:49:12.68	248.79	16.03	-42.1	-46.6	11.1	1.28e-03	0	59	0	309329920	55	6184
2026-01-29 11:49:15.71	249.41	16.16	-42.3	-47.0	10.8	3.12e-03	0	59	0	315621376	55	6463
2026-01-29 11:49:18.74	250.03	16.29	-42.1	-46.6	11.1	1.94e-03	0	59	0	320864256	55	6175
2026-01-29 11:49:21.77	250.66	16.42	-42.2	-46.7	11.0	1.64e-03	0	59	0	326107136	55	6266
2026-01-29 11:49:24.80	251.29	16.54	-42.4	-47.3	10.4	4.26e-03	0	59	0	332398592	55	6694
2026-01-29 11:49:27.83	251.93	16.67	-42.3	-47.0	10.7	3.83e-03	0	59	0	337641472	55	6492
2026-01-29 11:49:30.86	252.58	16.78	-42.3	-47.0	10.7	2.32e-03	0	59	0	343932928	55	6450
2026-01-29 11:49:33.89	253.22	16.90	-42.1	-46.6	11.1	2.03e-03	0	59	0	349175808	55	6187
2026-01-29 11:49:36.92	253.88	17.01	-41.9	-46.1	11.6	8.80e-04	0	59	0	355467264	55	5826
2026-01-29 11:49:39.96	254.54	17.12	-42.3	-46.9	10.8	1.72e-03	0	59	0	360710144	55	6376
2026-01-29 11:49:42.99	255.20	17.23	-42.1	-46.6	11.1	1.61e-03	0	59	0	365953024	55	6151
2026-01-29 11:49:46.02	255.86	17.33	-41.8	-45.7	12.1	2.84e-04	0	59	0	372244480	55	5572
2026-01-29 11:49:49.05	256.53	17.43	-41.8	-45.9	11.9	3.25e-04	0	59	0	377487360	55	5670
2026-01-29 11:49:52.08	257.21	17.53	-42.1	-46.4	11.3	1.09e-03	0	59	0	383778816	55	6057
2026-01-29 11:49:55.11	257.89	17.62	-42.0	-46.3	11.4	7.96e-04	0	59	0	389021696	55	5924
2026-01-29 11:49:58.14	258.57	17.71	-41.9	-46.1	11.7	5.66e-04	0	59	0	394264576	55	5816
2026-01-29 11:50:01.17	259.26	17.80	-41.6	-45.5	12.3	2.07e-04	0	59	0	400556032	55	5430
2026-01-29 11:50:04.20	259.95	17.88	-41.7	-45.5	12.3	1.33e-04	0	59	0	405798912	54	5767
2026-01-29 11:50:07.23	260.64	17.96	-41.9	-46.1	11.7	5.25e-04	0	59	0	412090368	54	6139
2026-01-29 11:50:10.26	261.34	18.03	-41.9	-45.9	11.9	4.40e-04	0	60	0	417333248	54	6054
2026-01-29 11:50:13.29	262.04	18.10	-41.7	-45.6	12.2	2.68e-04	0	59	0	423624704	54	5826
2026-01-29 11:50:16.32	262.74	18.17	-41.4	-45.0	12.8	8.85e-05	0	59	0	428867584	54	5457
2026-01-29 11:50:19.34	263.45	18.23	-41.6	-45.5	12.3	8.85e-05	0	59	0	434110464	54	5736
2026-01-29 11:50:22.37	264.16	18.29	-41.7	-45.5	12.3	2.37e-04	0	59	0	440401920	54	5766
2026-01-29 11:50:25.40	264.87	18.34	-41.5	-45.3	12.5	9.38e-05	0	59	0	445644800	54	5619
2026-01-29 11:50:28.43	265.58	18.39	-42.0	-46.3	11.5	7.07e-04	0	59	0	451936256	54	6277
2026-01-29 11:50:31.46	266.30	18.44	-42.0	-46.4	11.5	8.65e-04	0	59	0	457179136	54	6351
2026-01-29 11:50:34.49	267.02	18.48	-42.1	-46.5	11.3	8.76e-04	0	60	0	462422016	54	6463
2026-01-29 11:50:37.52	267.74	18.52	-42.2	-46.7	11.0	2.38e-03	0	60	0	468713472	55	6274
2026-01-29 11:50:40.55	268.46	18.55	-42.0	-46.3	11.5	7.85e-04	0	60	0	473956352	55	5950
2026-01-29 11:50:43.59	269.18	18.58	-42.4	-47.2	10.5	3.22e-03	0	60	0	480247808	55	6601
2026-01-29 11:50:46.62	269.91	18.60	-42.4	-47.2	10.5	4.17e-03	0	60	0	485490688	55	6619
2026-01-29 11:50:49.65	270.63	18.62	-42.3	-46.9	10.8	2.44e-03	0	60	0	491782144	55	6388
2026-01-29 11:50:52.68	271.36	18.64	-42.1	-46.6	11.1	2.19e-03	0	59	0	497025024	55	6177
2026-01-29 11:50:55.71	272.09	18.65	-42.0	-46.3	11.5	8.67e-04	0	60	0	502267904	55	5956
2026-01-29 11:50:58.74	272.81	18.66	-42.0	-46.3	11.5	1.07e-03	0	59	0	508559360	55	5926
2026-01-29 11:51:01.77	273.54	18.66	-42.0	-46.2	11.5	8.80e-04	0	60	0	513802240	55	5889
2026-01-29 11:51:04.80	274.27	18.66	-42.0	-46.3	11.4	1.08e-03	0	60	0	520093696	55	5954
2026-01-29 11:51:07.82	274.99	18.65	-42.2	-46.8	11.0	1.79e-03	0	60	0	525336576	55	6289
2026-01-29 11:51:10.86	275.72	18.64	-42.2	-46.8	11.0	2.13e-03	0	60	0	530579456	55	6284
2026-01-29 11:51:13.87	276.44	18.62	-42.3	-47.0	10.6	3.35e-03	0	60	0	536870912	55	6482
2026-01-29 11:51:16.90	277.16	18.60	-42.1	-46.5	11.3	1.69e-03	0	60	0	542113792	55	6076
2026-01-29 11:51:19.93	277.89	18.57	-41.9	-46.0	11.7	5.66e-04	0	60	0	548405248	55	5763
2026-01-29 11:51:22.96	278.61	18.55	-42.1	-46.6	11.1	1.49e-03	0	60	0	553648128	55	6160
2026-01-29 11:51:25.99	279.33	18.51	-42.2	-46.6	11.0	1.92e-03	0	60	0	559939584	55	6196
2026-01-29 11:51:29.02	280.05	18.47	-42.4	-47.2	10.5	3.77e-03	0	60	0	565182464	55	6616
2026-01-29 11:51:32.05	280.76	18.43	-42.4	-47.3	10.4	4.73e-03	0	60	0	570425344	55	6666
2026-01-29 11:51:35.08	281.48	18.38	-42.3	-47.1	10.6	4.16e-03	0	60	0	576716800	55	6501
2026-01-29 11:51:38.11	282.19	18.33	-42.2	-46.7	10.9	1.98e-03	0	60	0	581959680	55	6269
2026-01-29 11:51:41.14	282.90	18.28	-42.0	-46.2	11.5	9.30e-04	0	60	0	588251136	55	5915
2026-01-29 11:51:44.17	283.61	18.22	-41.5	-45.3	12.5	2.29e-04	0	60	0	593494016	55	5308
2026-01-29 11:51:47.20	284.31	18.16	-41.7	-45.6	12.2	1.85e-04	0	60	0	598736896	54	5803
2026-01-29 11:51:50.23	285.01	18.09	-42.1	-46.5	11.3	9.67e-04	0	60	0	605028352	54	6435
2026-01-29 11:51:53.26	285.71	18.02	-42.2	-46.8	10.9	1.99e-03	0	60	0	610271232	54	6650
2026-01-29 11:51:56.29	286.41	17.94	-42.2	-46.7	10.9	2.14e-03	0	60	0	616562688	55	6262
2026-01-29 11:51:59.32	287.10	17.86	-41.9	-46.2	11.5	1.08e-03	0	60	0	621805568	55	5891
2026-01-29 11:52:02.35	287.79	17.78	-41.8	-45.9	11.8	3.91e-04	0	60	0	628097024	55	5704
2026-01-29 11:52:05.38	288.47	17.70	-42.0	-46.3	11.4	8.21e-04	0	60	0	633339904	55	5954
2026-01-29 11:52:08.41	289.15	17.61	-42.0	-46.4	11.3	1.19e-03	0	60	0	638582784	55	6015
2026-01-29 11:52:11.44	289.83	17.51	-41.8	-45.8	11.8	4.49e-04	0	60	0	644874240	55	5650
2026-01-29 11:52:14.47	290.50	17.42	-41.6	-45.6	12.1	2.26e-04	0	60	0	650117120	55	5487
2026-01-29 11:52:17.51	291.17	17.32	-41.7	-45.8	12.0	3.39e-04	0	60	0	656408576	55	5600
2026-01-29 11:52:20.53	291.83	17.21	-41.5	-45.3	12.4	1.43e-04	0	60	0	661651456	55	5312
2026-01-29 11:52:23.56	292.49	17.11	-41.4	-45.2	12.5	9.30e-05	0	60	0	667942912	54	5555
2026-01-29 11:52:26.59	293.14	17.00	-41.5	-45.3	12.4	1.23e-04	0	60	0	673185792	54	5632
2026-01-29 11:52:29.62	293.79	16.89	-41.4	-45.2	12.5	1.32e-04	0	60	0	678428672	54	5553
2026-01-29 11:52:32.65	294.43	16.77	-41.5	-45.3	12.4	1.59e-04	0	60	0	684720128	54	5641
2026-01-29 11:52:35.68	295.07	16.65	-41.5	-45.3	12.4	1.63e-04	0	60	0	689963008	54	5624
2026-01-29 11:52:38.71	295.71	16.53	-41.5	-45.3	12.4	1.94e-04	0	60	0	696254464	54	5627
2026-01-29 11:52:41.74	296.34	16.41	-41.6	-45.7	12.0	3.06e-04	0	60	0	701497344	54	5860
2026-01-29 11:52:44.77	296.96	16.28	-41.5	-45.4	12.2	2.66e-04	0	60	0	706740224	54	5688
2026-01-29 11:52:47.81	297.58	16.15	-41.4	-45.0	12.6	1.04e-04	0	60	0	713031680	54	5461
2026-01-29 11:52:50.84	298.19	16.02	-41.5	-45.3	12.3	1.51e-04	0	60	0	718274560	54	5607
2026-01-29 11:52:53.87	298.80	15.89	-41.5	-45.5	12.2	3.11e-04	0	60	0	724566016	54	5735
2026-01-29 11:52:56.90	299.41	15.75	-41.4	-45.2	12.5	1.58e-04	0	60	0	729808896	54	5547
2026-01-29 11:52:59.93	300.00	15.61	-41.9	-46.3	11.4	5.78e-04	0	60	0	736100352	54	6281
2026-01-29 11:53:02.96	300.60	15.47	-42.2	-47.0	10.6	3.92e-03	0	60	0	741343232	55	6435
2026-01-29 11:53:05.99	301.18	15.33	-42.0	-46.5	11.1	1.82e-03	0	60	0	746586112	55	6112
2026-01-29 11:53:09.02	301.76	15.19	-41.7	-45.8	11.9	4.36e-04	0	60	0	752877568	55	5594
2026-01-29 11:53:12.06	302.34	15.04	-41.7	-45.8	11.8	3.55e-04	0	60	0	758120448	55	5633
2026-01-29 11:53:15.09	302.91	14.89	-41.8	-46.0	11.5	8.06e-04	0	60	0	764411904	55	5786
2026-01-29 11:53:18.11	303.47	14.74	-42.0	-46.4	11.2	9.94e-04	0	60	0	769654784	55	6012
2026-01-29 11:53:21.14	304.03	14.59	-42.2	-47.0	10.6	4.11e-03	0	60	0	774897664	55	6469
2026-01-29 11:53:24.17	304.59	14.44	-42.5	-47.7	9.8	1.07e-02	0	60	0	781189120	55	6997
2026-01-29 11:53:27.21	305.14	14.29	-42.3	-47.2	10.3	6.61e-03	0	60	0	786432000	55	6634
2026-01-29 11:53:30.24	305.68	14.13	-42.2	-46.9	10.6	4.63e-03	0	60	0	792723456	55	6407
2026-01-29 11:53:33.27	306.22	13.97	-42.3	-47.1	10.5	3.60e-03	0	60	0	797966336	55	6539
2026-01-29 11:53:36.30	306.75	13.82	-42.1	-46.8	10.7	2.58e-03	0	60	0	804257792	55	6317
2026-01-29 11:53:39.33	307.27	13.66	-42.2	-46.9	10.6	2.56e-03	0	60	0	809500672	55	6404
2026-01-29 11:53:42.36	307.79	13.50	-42.2	-47.1	10.4	4.20e-03	0	60	0	814743552	55	6527
2026-01-29 11:53:45.39	308.31	13.34	-42.2	-47.1	10.4	4.62e-03	0	60	0	821035008	55	6506
2026-01-29 11:53:48.42	308.82	13.17	-42.3	-47.5	10.0	7.31e-03	0	60	0	826277888	55	6802
2026-01-29 11:53:51.45	309.32	13.01	-42.4	-47.6	9.8	9.40e-03	0	60	0	832569344	55	6953
2026-01-29 11:53:54.48	309.82	12.85	-42.2	-47.0	10.5	4.96e-03	0	60	0	837812224	55	6440
2026-01-29 11:53:57.51	310.31	12.68	-42.1	-46.8	10.6	3.35e-03	0	60	0	843055104	55	6312
2026-01-29 11:54:00.54	310.80	12.52	-42.2	-47.1	10.3	4.23e-03	0	60	0	849346560	55	6563
2026-01-29 11:54:03.57	311.28	12.35	-42.2	-47.0	10.4	4.39e-03	0	60	0	854589440	55	6452
2026-01-29 11:54:06.60	311.76	12.18	-41.8	-46.2	11.2	1.80e-03	0	60	0	860880896	55	5910
2026-01-29 11:54:09.63	312.23	12.02	-41.6	-45.8	11.7	8.29e-04	0	60	0	866123776	55	5603
2026-01-29 11:54:12.66	312.70	11.85	-41.8	-46.1	11.3	1.03e-03	0	60	0	872415232	55	5822
2026-01-29 11:54:15.69	313.16	11.68	-41.8	-46.2	11.2	1.23e-03	0	60	0	877658112	55	5892
2026-01-29 11:54:18.72	313.62	11.51	-41.7	-46.1	11.4	8.41e-04	0	60	0	882900992	55	5792
2026-01-29 11:54:21.75	314.07	11.34	-41.7	-46.0	11.5	7.41e-04	0	60	0	889192448	55	5728
2026-01-29 11:54:24.78	314.51	11.17	-41.8	-46.3	11.1	1.70e-03	0	60	0	894435328	55	5945
2026-01-29 11:54:27.81	314.95	11.00	-41.8	-46.3	11.1	1.50e-03	0	60	0	900726784	55	5957
2026-01-29 11:54:30.84	315.39	10.83	-41.6	-45.7	11.7	6.19e-04	0	60	0	905969664	55	5561
2026-01-29 11:54:33.86	315.82	10.66	-41.3	-45.2	12.2	2.67e-04	0	60	0	912261120	54	5549
2026-01-29 11:54:36.89	316.25	10.49	-41.4	-45.3	12.0	2.78e-04	0	60	0	917504000	54	5641
2026-01-29 11:54:39.93	316.67	10.32	-41.5	-45.5	11.8	5.13e-04	0	60	0	922746880	54	5788
2026-01-29 11:54:42.95	317.09	10.15	-41.6	-45.8	11.6	8.93e-04	0	60	0	929038336	54	5944
2026-01-29 11:54:45.98	317.50	9.98	-41.8	-46.3	11.0	1.48e-03	0	60	0	934281216	54	6311
2026-01-29 11:54:49.02	317.91	9.81	-41.9	-46.7	10.6	3.52e-03	0	60	0	940572672	54	6583
2026-01-29 11:54:52.05	318.31	9.63	-42.0	-47.0	10.3	4.55e-03	0	60	0	945815552	54	6816
2026-01-29 11:54:55.08	318.71	9.46	-41.9	-46.6	10.6	2.94e-03	0	60	0	951058432	54	6515
2026-01-29 11:54:58.10	319.10	9.29	-41.7	-46.1	11.2	1.37e-03	0	60	0	957349888	54	6181
2026-01-29 11:55:01.13	319.49	9.12	-41.5	-45.8	11.4	1.04e-03	0	60	0	962592768	54	5969
2026-01-29 11:55:04.16	319.88	8.95	-41.8	-46.5	10.7	2.24e-03	0	60	0	968884224	54	6425
2026-01-29 11:55:07.19	320.26	8.78	-42.0	-47.1	10.1	5.52e-03	0	60	0	974127104	54	6932
2026-01-29 11:55:10.22	320.63	8.61	-42.0	-47.1	10.1	7.77e-03	0	60	0	980418560	54	6883
2026-01-29 11:55:13.25	321.01	8.44	-42.0	-47.0	10.2	6.35e-03	0	60	0	985661440	54	6814
2026-01-29 11:55:16.29	321.38	8.27	-42.0	-47.1	10.0	7.16e-03	0	60	0	990904320	54	6942
2026-01-29 11:55:19.32	321.74	8.10	-42.1	-47.5	9.7	1.28e-02	0	60	0	997195776	54	7229
2026-01-29 11:55:22.35	322.10	7.93	-44.3	-58.9	3.8	1.48e+00	0	60	104	1001390080	59	20086
2026-01-29 11:55:25.38	322.46	7.76	-44.8	-59.6	3.8	1.49e+00	0	60	104	1001390080	60	20612
2026-01-29 11:55:28.41	322.81	7.59	-45.1	-59.9	3.8	1.49e+00	0	60	104	1001390080	60	21277
2026-01-29 11:55:31.45	323.16	7.42	-45.0	-59.8	3.8	1.49e+00	0	60	104	1001390080	60	21213
2026-01-29 11:55:34.48	323.50	7.25	-44.9	-59.8	3.8	1.49e+00	0	60	104	1001390080	60	21189
2026-01-29 11:55:37.51	323.84	7.08	-44.9	-59.8	3.8	1.49e+00	0	60	104	1001390080	60	21099
2026-01-29 11:55:40.54	324.18	6.91	-44.8	-59.8	3.8	1.49e+00	0	60	104	1001390080	60	21060
2026-01-29 11:55:43.57	324.51	6.74	-44.9	-59.8	3.8	1.49e+00	0	60	104	1001390080	60	21035
2026-01-29 11:55:46.60	324.84	6.57	-44.9	-59.7	3.8	1.49e+00	0	60	104	1001390080	60	21001
2026-01-29 11:55:49.64	325.17	6.40	-44.9	-59.7	3.8	1.49e+00	0	60	104	1001390080	60	21015
2026-01-29 11:55:52.67	325.49	6.24	-44.9	-59.8	3.8	1.49e+00	0	60	104	1001390080	60	21082
2026-01-29 11:55:55.70	325.81	6.07	-44.9	-59.7	3.8	1.49e+00	0	60	104	1001390080	60	20996
2026-01-29 11:55:58.73	326.12	5.90	-44.9	-59.7	3.8	1.49e+00	0	60	104	1001390080	60	20977
2026-01-29 11:56:01.76	326.43	5.74	-44.9	-59.7	3.8	1.49e+00	0	61	104	1001390080	60	20989
2026-01-29 11:56:04.79	326.74	5.57	-44.9	-59.7	3.8	1.49e+00	0	60	104	1001390080	60	20967
2026-01-29 11:56:07.82	327.05	5.41	-44.9	-59.7	3.8	1.49e+00	0	60	104	1001390080	60	20980
2026-01-29 11:56:10.86	327.35	5.24	-44.9	-59.7	3.8	1.49e+00	0	61	104	1001390080	60	20980
2026-01-29 11:56:13.89	327.65	5.08	-44.9	-59.7	3.8	1.49e+00	0	60	104	1001390080	60	20961
2026-01-29 11:56:16.91	327.94	4.91	-44.9	-59.7	3.8	1.49e+00	0	61	104	1001390080	60	21012
2026-01-29 11:56:19.95	328.24	4.75	-44.8	-59.7	3.8	1.49e+00	0	60	104	1001390080	60	20936
2026-01-29 11:56:22.98	328.53	4.58	-44.8	-59.7	3.8	1.49e+00	0	60	104	1001390080	60	20999
2026-01-29 11:56:26.01	328.81	4.42	-44.9	-59.7	3.8	1.49e+00	0	60	104	1001390080	60	20947
2026-01-29 11:56:29.04	329.09	4.26	-44.9	-59.7	3.8	1.49e+00	0	60	104	1001390080	60	20937
2026-01-29 11:56:32.06	329.37	4.10	-44.9	-59.7	3.8	1.49e+00	0	60	104	1001390080	60	20995
2026-01-29 11:56:35.09	329.65	3.93	-44.7	-59.7	3.8	1.49e+00	0	60	104	1001390080	60	20953
2026-01-29 11:56:38.12	329.92	3.77	-44.9	-59.7	3.8	1.49e+00	0	60	104	1001390080	60	20982
2026-01-29 11:56:41.15	330.20	3.61	-44.9	-59.7	3.8	1.49e+00	0	60	104	1001390080	60	20936
2026-01-29 11:56:44.18	330.46	3.45	-44.8	-59.7	3.8	1.49e+00	0	60	104	1001390080	60	20948
2026-01-29 11:56:47.21	330.73	3.29	-44.9	-59.7	3.8	1.49e+00	0	61	104	1001390080	60	20968
2026-01-29 11:56:50.24	330.99	3.13	-44.8	-59.7	3.8	1.49e+00	0	60	104	1001390080	60	20949
2026-01-29 11:56:53.28	331.25	2.97	-44.8	-59.7	3.8	1.49e+00	0	60	104	1001390080	60	20832
2026-01-29 11:56:56.31	331.51	2.82	-44.8	-59.7	3.8	1.49e+00	0	60	104	1001390080	60	20934
2026-01-29 11:56:59.33	331.77	2.66	-44.8	-59.7	3.8	1.49e+00	0	60	104	1001390080	60	20818
2026-01-29 11:57:02.36	332.02	2.50	-44.8	-59.7	3.8	1.49e+00	0	60	104	1001390080	60	20894
2026-01-29 11:57:05.39	332.27	2.34	-44.6	-59.7	3.8	1.49e+00	0	60	104	1001390080	60	20905
2026-01-29 11:57:08.42	332.52	2.19	-44.8	-59.7	3.8	1.49e+00	0	61	104	1001390080	60	20852
2026-01-29 11:57:11.45	332.76	2.03	-44.8	-59.7	3.8	1.49e+00	0	60	104	1001390080	60	20818

#Closed at: 2026-01-29 11:57:12
#Recorded file [1001 MB]: D:/lorett/data/31039_260129_144454.dat