passes_logs/2026/01/29/R2.0S_Moscow/R2.0S_Moscow__20260129_030847_AQUA_rec.log

#Pass ID: 20260129_030847_AQUA
#Satellite: AQUA
#Configuration: AQUA
#almurnet v.1.7.20251203
#Start time: 2026-01-29 03:08:49

#Version: 2.2.20231116
#Station: R2.0S_Moscow
#Location: 37.707566 lon 55.798166 lat
#TLE: 1 27424U 02022A   26027.88561574  .00001798  00000+0  36942-3 0  9997
#TLE: 2 27424  98.4102 354.5311 0001840  63.5604 322.5877 14.61868111262779

#Time	Az	El	Level	Level2	SNR	BER	BlckErr	Temp	State	Recorded	gain1	gain2
2026-01-29 03:08:49.43	5.70	2.13	-40.9	-59.7	3.8	7.47e-01	0	51	0	0	53	31433
2026-01-29 03:08:52.47	5.44	2.30	-40.9	-59.7	3.8	7.48e-01	0	51	104	0	52	33277
2026-01-29 03:08:55.50	5.18	2.46	-40.9	-59.7	3.8	7.47e-01	0	51	104	0	52	33240
2026-01-29 03:08:58.53	4.92	2.63	-40.8	-59.7	3.8	7.43e-01	0	52	104	0	52	33253
2026-01-29 03:09:01.56	4.65	2.80	-40.8	-59.7	3.8	7.51e-01	0	52	104	0	52	33229
2026-01-29 03:09:04.59	4.38	2.97	-40.8	-59.7	3.8	7.45e-01	0	52	104	0	52	33170
2026-01-29 03:09:07.62	4.10	3.15	-40.8	-59.7	3.8	7.47e-01	0	52	104	0	52	33173
2026-01-29 03:09:10.65	3.82	3.32	-40.8	-59.7	3.8	7.45e-01	0	52	104	0	52	33257
2026-01-29 03:09:13.68	3.54	3.49	-40.8	-59.7	3.8	7.46e-01	0	53	104	0	52	33192
2026-01-29 03:09:16.71	3.25	3.66	-40.8	-59.7	3.8	7.46e-01	0	53	104	0	52	33172
2026-01-29 03:09:19.74	2.96	3.84	-40.8	-59.7	3.8	7.45e-01	0	53	104	0	52	33081
2026-01-29 03:09:22.78	2.67	4.01	-40.8	-59.7	3.8	7.46e-01	0	53	104	0	52	33055
2026-01-29 03:09:25.80	2.37	4.18	-40.8	-59.7	3.8	7.47e-01	0	53	104	0	52	33013
2026-01-29 03:09:28.84	2.07	4.36	-40.8	-59.7	3.8	7.45e-01	0	54	104	0	52	32975
2026-01-29 03:09:31.87	1.76	4.54	-40.8	-59.7	3.8	7.46e-01	0	54	104	0	52	32972
2026-01-29 03:09:34.90	1.45	4.71	-40.8	-59.6	3.8	7.45e-01	0	54	104	0	52	32874
2026-01-29 03:09:37.93	1.14	4.89	-40.8	-59.6	3.8	7.47e-01	0	54	104	0	52	32879
2026-01-29 03:09:40.96	0.82	5.07	-40.8	-59.7	3.8	7.47e-01	0	54	104	0	52	33022
2026-01-29 03:09:44.00	0.49	5.24	-40.8	-59.7	3.8	7.48e-01	0	54	104	0	52	32952
2026-01-29 03:09:47.03	0.16	5.42	-40.8	-59.6	3.8	7.46e-01	0	54	104	0	52	32879
2026-01-29 03:09:50.06	359.83	5.60	-40.8	-59.6	3.8	7.48e-01	0	54	104	0	52	32822
2026-01-29 03:09:53.09	359.49	5.78	-40.7	-59.6	3.8	7.43e-01	0	54	104	0	52	32833
2026-01-29 03:09:56.13	359.15	5.96	-40.7	-59.6	3.8	7.44e-01	0	55	104	0	52	32886
2026-01-29 03:09:59.16	358.80	6.14	-40.7	-59.6	3.8	7.46e-01	0	55	104	0	52	32856
2026-01-29 03:10:02.19	358.45	6.32	-40.7	-59.6	3.8	7.44e-01	0	55	104	0	52	32828
2026-01-29 03:10:05.22	358.09	6.50	-40.7	-59.6	3.8	7.45e-01	0	55	104	0	52	32914
2026-01-29 03:10:08.25	357.73	6.68	-40.7	-59.6	3.8	7.46e-01	0	55	104	0	52	32835
2026-01-29 03:10:11.28	357.36	6.87	-40.7	-59.6	3.8	7.45e-01	0	55	104	0	52	32884
2026-01-29 03:10:14.31	356.99	7.05	-40.7	-59.6	3.8	7.47e-01	0	55	104	0	52	32855
2026-01-29 03:10:17.35	356.61	7.23	-40.8	-59.7	3.8	7.44e-01	0	55	104	0	52	32936
2026-01-29 03:10:20.38	356.23	7.41	-40.7	-59.6	3.8	7.43e-01	0	56	104	0	52	32898
2026-01-29 03:10:23.41	355.84	7.60	-40.8	-59.7	3.8	7.46e-01	0	56	104	0	52	32940
2026-01-29 03:10:26.44	355.45	7.78	-40.8	-59.7	3.8	7.45e-01	0	56	104	0	52	32947
2026-01-29 03:10:29.47	355.05	7.96	-40.8	-59.6	3.8	7.47e-01	0	56	104	0	52	32832
2026-01-29 03:10:32.50	354.64	8.15	-41.0	-59.8	3.8	7.44e-01	0	56	104	0	52	33667
2026-01-29 03:10:35.53	354.23	8.33	-41.0	-59.9	3.8	7.43e-01	0	56	104	0	52	33943
2026-01-29 03:10:38.55	353.82	8.52	-41.0	-59.9	3.8	7.46e-01	0	56	104	0	52	33756
2026-01-29 03:10:41.58	353.40	8.70	-41.1	-60.0	3.8	7.41e-01	0	56	104	0	53	32342
2026-01-29 03:10:44.61	352.97	8.89	-41.4	-60.3	3.8	7.43e-01	0	56	104	0	53	33434
2026-01-29 03:10:47.64	352.53	9.07	-41.3	-60.2	3.8	7.44e-01	0	56	104	0	53	33106
2026-01-29 03:10:50.67	352.09	9.25	-41.5	-60.4	3.8	7.44e-01	0	56	104	0	53	33719
2026-01-29 03:10:53.70	351.65	9.44	-41.5	-60.4	3.8	7.44e-01	0	56	104	0	53	33702
2026-01-29 03:10:56.73	351.19	9.62	-41.8	-61.0	3.8	7.46e-01	0	57	104	0	54	34209
2026-01-29 03:10:59.77	350.73	9.81	-41.6	-60.6	3.8	7.45e-01	0	56	104	0	54	32698
2026-01-29 03:11:02.79	350.27	9.99	-41.5	-60.4	3.8	7.43e-01	0	57	104	0	54	31843
2026-01-29 03:11:05.82	349.79	10.18	-41.6	-60.5	3.8	7.46e-01	0	57	104	0	54	32299
2026-01-29 03:11:08.85	349.32	10.36	-41.9	-60.8	3.8	7.45e-01	0	57	104	0	54	33453
2026-01-29 03:11:11.88	348.83	10.54	-41.9	-60.8	3.8	7.48e-01	0	57	104	0	54	33647
2026-01-29 03:11:14.91	348.34	10.73	-41.8	-60.7	3.8	7.45e-01	0	57	104	0	54	33232
2026-01-29 03:11:17.93	347.84	10.91	-41.9	-60.8	3.8	7.45e-01	0	57	104	0	54	33504
2026-01-29 03:11:20.96	347.33	11.09	-42.0	-60.8	3.8	7.43e-01	0	57	104	0	54	33627
2026-01-29 03:11:23.99	346.82	11.27	-41.8	-60.7	3.8	7.46e-01	0	57	104	0	54	33240
2026-01-29 03:11:27.02	346.30	11.45	-41.9	-60.7	3.8	7.41e-01	0	57	104	0	54	33294
2026-01-29 03:11:30.06	345.77	11.63	-41.9	-60.8	3.8	7.46e-01	0	57	104	0	54	33469
2026-01-29 03:11:33.09	345.24	11.81	-41.6	-60.5	3.8	7.43e-01	0	57	104	0	54	32180
2026-01-29 03:11:36.12	344.69	11.99	-41.6	-60.5	3.8	7.43e-01	0	57	104	0	54	32248
2026-01-29 03:11:39.15	344.15	12.17	-41.7	-60.6	3.8	7.46e-01	0	58	104	0	54	32705
2026-01-29 03:11:42.17	343.59	12.34	-41.6	-60.4	3.8	7.46e-01	0	58	104	0	54	32158
2026-01-29 03:11:45.20	343.03	12.52	-41.4	-60.2	3.8	7.45e-01	0	58	104	0	54	31396
2026-01-29 03:11:48.23	342.46	12.69	-41.4	-60.3	3.8	7.42e-01	0	58	104	0	54	31465
2026-01-29 03:11:51.26	341.88	12.87	-41.4	-60.2	3.8	7.48e-01	0	58	104	0	54	31357
2026-01-29 03:11:54.29	341.29	13.04	-41.3	-60.1	3.8	7.47e-01	0	58	104	0	54	30857
2026-01-29 03:11:57.31	340.70	13.21	-41.6	-59.9	3.8	7.47e-01	0	58	104	0	54	30168
2026-01-29 03:12:00.34	340.10	13.38	-41.7	-59.0	3.8	7.45e-01	0	58	104	0	54	27360
2026-01-29 03:12:03.37	339.49	13.54	-42.1	-53.6	6.4	6.77e-01	90	58	0	524288	54	14635
2026-01-29 03:12:06.40	338.88	13.71	-41.8	-48.2	12.8	6.02e-01	0	58	0	6291456	54	7817
2026-01-29 03:12:09.43	338.25	13.87	-41.5	-46.1	15.6	6.02e-01	0	58	0	12058624	54	6189
2026-01-29 03:12:12.46	337.62	14.03	-41.8	-46.2	16.0	6.05e-01	0	58	0	17825792	54	6250
2026-01-29 03:12:15.49	336.99	14.19	-41.8	-45.9	16.8	6.00e-01	0	58	0	23068672	54	5999
2026-01-29 03:12:18.52	336.34	14.34	-41.6	-45.2	17.9	6.04e-01	0	58	0	28835840	54	5541
2026-01-29 03:12:21.56	335.69	14.50	-41.6	-45.0	18.1	5.99e-01	0	58	0	34603008	54	5457
2026-01-29 03:12:24.59	335.03	14.65	-41.3	-44.5	18.7	6.04e-01	0	58	0	40370176	54	5127
2026-01-29 03:12:27.62	334.36	14.80	-41.2	-44.3	19.0	6.03e-01	0	58	0	46137344	54	4986
2026-01-29 03:12:30.65	333.69	14.95	-41.4	-44.6	18.8	6.02e-01	0	58	0	51904512	54	5167
2026-01-29 03:12:33.67	333.01	15.09	-41.1	-44.1	19.2	6.02e-01	0	58	0	57147392	54	4916
2026-01-29 03:12:36.70	332.32	15.23	-41.3	-44.3	19.0	6.00e-01	0	58	0	62914560	54	5041
2026-01-29 03:12:39.73	331.62	15.37	-41.0	-44.0	19.4	6.04e-01	0	58	0	68681728	54	4817
2026-01-29 03:12:42.76	330.92	15.50	-41.1	-44.1	19.3	6.02e-01	0	58	0	74448896	54	4898
2026-01-29 03:12:45.79	330.21	15.63	-41.3	-44.4	19.0	6.01e-01	0	58	0	80216064	54	5062
2026-01-29 03:12:48.82	329.49	15.76	-41.0	-43.9	19.5	6.03e-01	0	58	0	85983232	54	4801
2026-01-29 03:12:51.84	328.77	15.88	-41.2	-44.3	19.2	6.02e-01	0	58	0	91226112	54	5000
2026-01-29 03:12:54.87	328.05	16.00	-41.1	-44.1	19.3	6.04e-01	0	58	0	96993280	54	4897
2026-01-29 03:12:57.90	327.31	16.12	-41.2	-44.3	19.2	6.01e-01	0	58	0	102760448	54	4986
2026-01-29 03:13:00.93	326.57	16.23	-41.1	-44.1	19.4	6.04e-01	0	58	0	108527616	54	4882
2026-01-29 03:13:03.96	325.82	16.34	-41.3	-44.3	19.2	6.05e-01	0	58	0	114294784	54	5025
2026-01-29 03:13:06.99	325.07	16.44	-41.3	-44.3	19.1	6.02e-01	0	58	0	120061952	54	5018
2026-01-29 03:13:10.02	324.31	16.54	-41.3	-44.3	19.1	6.03e-01	0	58	0	125304832	54	5019
2026-01-29 03:13:13.05	323.55	16.63	-41.2	-44.1	19.3	6.00e-01	0	59	0	131072000	54	4910
2026-01-29 03:13:16.08	322.78	16.72	-41.2	-44.2	19.2	6.05e-01	0	59	0	136839168	54	4969
2026-01-29 03:13:19.11	322.01	16.81	-41.2	-44.2	19.2	6.03e-01	0	58	0	142606336	54	4973
2026-01-29 03:13:22.15	321.23	16.89	-41.3	-44.3	19.1	6.03e-01	0	59	0	148373504	54	5041
2026-01-29 03:13:25.17	320.45	16.96	-41.3	-44.3	19.2	6.02e-01	0	58	0	154140672	54	5011
2026-01-29 03:13:28.20	319.66	17.04	-41.5	-44.7	18.8	6.03e-01	0	59	0	159383552	54	5274
2026-01-29 03:13:31.23	318.87	17.10	-41.2	-44.2	19.3	6.02e-01	0	58	0	165150720	54	4968
2026-01-29 03:13:34.26	318.08	17.16	-41.3	-44.4	19.1	6.02e-01	0	59	0	170917888	54	5072
2026-01-29 03:13:37.29	317.28	17.22	-41.3	-44.4	19.2	6.03e-01	0	59	0	176685056	54	5049
2026-01-29 03:13:40.32	316.48	17.27	-41.3	-44.3	19.2	6.01e-01	0	59	0	182452224	54	5027
2026-01-29 03:13:43.35	315.67	17.31	-41.4	-44.4	19.1	6.05e-01	0	59	0	188219392	54	5092
2026-01-29 03:13:46.38	314.87	17.35	-41.2	-44.2	19.3	6.00e-01	0	58	0	193462272	54	4974
2026-01-29 03:13:49.41	314.06	17.38	-41.3	-44.4	19.2	5.99e-01	0	59	0	199229440	54	5043
2026-01-29 03:13:52.44	313.25	17.41	-41.2	-44.2	19.3	6.01e-01	0	59	0	204996608	54	4950
2026-01-29 03:13:55.47	312.44	17.44	-41.6	-44.8	18.7	6.03e-01	0	59	0	210763776	54	5322
2026-01-29 03:13:58.50	311.63	17.45	-41.3	-44.3	19.2	6.02e-01	0	59	0	216530944	54	4996
2026-01-29 03:14:01.53	310.81	17.46	-41.2	-44.2	19.2	6.01e-01	0	59	0	222298112	54	4975
2026-01-29 03:14:04.56	310.00	17.47	-41.6	-44.8	18.7	5.99e-01	0	59	0	227540992	54	5321
2026-01-29 03:14:07.59	309.19	17.47	-41.2	-44.2	19.4	6.01e-01	0	59	0	233308160	54	4932
2026-01-29 03:14:10.63	308.37	17.47	-41.2	-44.1	19.4	6.02e-01	0	59	0	239075328	54	4887
2026-01-29 03:14:13.66	307.56	17.45	-41.5	-44.7	18.7	6.03e-01	0	59	0	244842496	54	5267
2026-01-29 03:14:16.69	306.74	17.44	-41.5	-44.6	18.9	6.01e-01	0	59	0	250609664	54	5189
2026-01-29 03:14:19.72	305.93	17.42	-40.9	-43.7	19.7	6.02e-01	0	59	0	256376832	53	4948
2026-01-29 03:14:22.75	305.12	17.39	-41.3	-44.4	19.0	6.03e-01	0	59	0	262144000	53	5391
2026-01-29 03:14:25.78	304.31	17.35	-41.4	-44.6	18.9	6.03e-01	0	59	0	267386880	53	5489
2026-01-29 03:14:28.81	303.51	17.32	-41.2	-44.2	19.3	6.00e-01	0	59	0	273154048	53	5259
2026-01-29 03:14:31.84	302.70	17.27	-41.4	-44.6	18.8	6.02e-01	0	59	0	278921216	53	5492
2026-01-29 03:14:34.87	301.90	17.22	-41.3	-44.4	19.0	6.02e-01	0	59	0	284688384	53	5378
2026-01-29 03:14:37.90	301.10	17.17	-41.6	-44.9	18.5	6.01e-01	0	59	0	290455552	54	5366
2026-01-29 03:14:40.93	300.31	17.11	-41.4	-44.6	18.8	6.00e-01	0	59	0	295698432	54	5166
2026-01-29 03:14:43.96	299.51	17.04	-41.5	-44.7	18.7	6.01e-01	0	59	0	301465600	53	5569
2026-01-29 03:14:46.99	298.73	16.97	-41.7	-45.1	18.4	6.02e-01	0	59	0	307232768	53	5795
2026-01-29 03:14:50.02	297.94	16.90	-41.2	-44.2	19.2	5.99e-01	0	59	0	312999936	53	5234
2026-01-29 03:14:53.05	297.16	16.82	-41.4	-44.6	18.9	6.00e-01	0	59	0	318767104	53	5495
2026-01-29 03:14:56.08	296.39	16.73	-41.4	-44.7	18.8	6.04e-01	0	59	0	324534272	53	5531
2026-01-29 03:14:59.11	295.61	16.64	-41.1	-44.1	19.2	6.03e-01	0	59	0	330301440	53	5165
2026-01-29 03:15:02.14	294.85	16.55	-41.1	-44.0	19.4	6.04e-01	0	59	0	335544320	53	5121
2026-01-29 03:15:05.17	294.09	16.45	-41.1	-44.2	19.2	6.02e-01	0	59	0	341311488	53	5223
2026-01-29 03:15:08.20	293.33	16.34	-41.9	-45.5	17.9	6.03e-01	0	59	0	347078656	54	5736
2026-01-29 03:15:11.23	292.58	16.24	-41.3	-44.4	18.8	6.02e-01	0	59	0	352845824	53	5390
2026-01-29 03:15:14.27	291.84	16.12	-41.5	-44.7	18.6	6.02e-01	0	59	0	358612992	53	5578
2026-01-29 03:15:17.29	291.10	16.01	-41.0	-43.9	19.3	6.01e-01	0	59	0	364380160	54	4785
2026-01-29 03:15:20.32	290.37	15.89	-41.4	-44.6	18.8	6.02e-01	0	59	0	369623040	53	5509
2026-01-29 03:15:23.35	289.65	15.77	-41.6	-44.9	18.3	6.00e-01	0	59	0	375390208	54	5377
2026-01-29 03:15:26.38	288.93	15.64	-41.6	-44.9	18.5	6.04e-01	0	59	0	381157376	54	5341
2026-01-29 03:15:29.41	288.21	15.51	-41.6	-44.9	18.4	6.01e-01	0	59	0	386924544	54	5374
2026-01-29 03:15:32.44	287.51	15.37	-41.3	-44.5	18.7	6.01e-01	0	59	0	392691712	54	5153
2026-01-29 03:15:35.47	286.81	15.24	-41.2	-44.4	18.9	6.05e-01	0	59	0	398458880	54	5046
2026-01-29 03:15:38.50	286.12	15.10	-41.5	-44.9	18.4	6.01e-01	0	59	0	403701760	54	5350
2026-01-29 03:15:41.54	285.43	14.95	-41.6	-45.1	18.1	6.01e-01	0	59	0	409468928	54	5513
2026-01-29 03:15:44.57	284.75	14.81	-41.5	-44.9	18.3	6.02e-01	0	59	0	415236096	53	5659
2026-01-29 03:15:47.60	284.08	14.66	-41.6	-45.0	18.1	6.00e-01	0	59	0	421003264	53	5773
2026-01-29 03:15:50.62	283.42	14.51	-41.6	-45.1	18.1	6.01e-01	0	59	0	426770432	53	5808
2026-01-29 03:15:53.65	282.77	14.35	-41.6	-45.1	18.0	6.03e-01	0	59	0	432537600	53	5850
2026-01-29 03:15:56.68	282.12	14.20	-41.6	-45.2	18.0	6.02e-01	0	59	0	437780480	53	5863
2026-01-29 03:15:59.71	281.48	14.04	-41.4	-44.7	18.5	6.02e-01	0	59	0	443547648	53	5554
2026-01-29 03:16:02.74	280.84	13.88	-40.9	-43.9	19.3	6.05e-01	0	59	0	449314816	53	5060
2026-01-29 03:16:05.77	280.22	13.71	-41.1	-44.2	18.9	6.00e-01	0	59	0	455081984	53	5257
2026-01-29 03:16:08.80	279.60	13.55	-41.2	-44.4	18.7	6.04e-01	0	59	0	460849152	53	5393
2026-01-29 03:16:11.83	278.98	13.38	-41.4	-44.7	18.5	5.99e-01	0	59	0	466616320	53	5557
2026-01-29 03:16:14.86	278.38	13.21	-41.3	-44.5	18.7	6.01e-01	0	59	0	471859200	53	5441
2026-01-29 03:16:17.89	277.78	13.04	-41.2	-44.3	18.8	6.02e-01	0	59	0	477626368	53	5336
2026-01-29 03:16:20.92	277.19	12.87	-41.4	-44.7	18.4	6.00e-01	0	59	0	483393536	53	5576
2026-01-29 03:16:23.95	276.61	12.70	-41.2	-44.4	18.6	6.04e-01	0	59	0	489160704	53	5387
2026-01-29 03:16:26.98	276.04	12.52	-41.4	-44.8	18.3	6.01e-01	0	59	0	494927872	53	5608
2026-01-29 03:16:30.02	275.47	12.35	-41.2	-44.5	18.5	5.99e-01	0	59	0	500695040	53	5437
2026-01-29 03:16:33.04	274.91	12.17	-41.2	-44.5	18.6	6.03e-01	0	59	0	506462208	53	5414
2026-01-29 03:16:36.08	274.36	11.99	-41.4	-44.9	18.1	6.01e-01	0	59	0	511705088	53	5662
2026-01-29 03:16:39.11	273.81	11.81	-41.2	-44.5	18.5	6.04e-01	0	59	0	517472256	53	5406
2026-01-29 03:16:42.14	273.27	11.63	-41.3	-44.8	18.1	6.04e-01	0	59	0	523239424	53	5636
2026-01-29 03:16:45.17	272.74	11.45	-41.4	-44.9	17.9	6.01e-01	0	59	0	529006592	53	5704
2026-01-29 03:16:48.20	272.22	11.27	-41.4	-44.9	17.9	6.00e-01	0	59	0	534773760	53	5717
2026-01-29 03:16:51.22	271.70	11.09	-41.4	-45.0	17.8	6.01e-01	0	59	0	540016640	53	5735
2026-01-29 03:16:54.26	271.19	10.91	-41.4	-45.1	17.6	6.03e-01	0	59	0	545783808	53	5847
2026-01-29 03:16:57.29	270.69	10.72	-41.5	-45.4	17.3	6.02e-01	0	59	0	551550976	53	6018
2026-01-29 03:17:00.31	270.19	10.54	-41.6	-45.6	17.1	6.01e-01	0	59	0	557318144	53	6132
2026-01-29 03:17:03.34	269.70	10.35	-41.4	-45.1	17.5	6.02e-01	0	59	0	563085312	53	5842
2026-01-29 03:17:06.37	269.22	10.17	-41.2	-44.9	17.6	6.01e-01	0	59	0	568852480	53	5712
2026-01-29 03:17:09.40	268.74	9.99	-41.2	-45.1	17.3	6.02e-01	0	59	0	574619648	53	5808
2026-01-29 03:17:12.43	268.27	9.80	-41.1	-45.0	17.3	6.03e-01	0	59	0	579862528	53	5748
2026-01-29 03:17:15.46	267.81	9.62	-41.4	-45.6	16.5	6.02e-01	0	59	0	585629696	53	6190
2026-01-29 03:17:18.49	267.35	9.43	-41.4	-45.7	16.4	6.03e-01	0	59	0	591396864	53	6218
2026-01-29 03:17:21.52	266.90	9.25	-41.3	-45.4	16.7	6.02e-01	0	59	0	597164032	53	6014
2026-01-29 03:17:24.55	266.46	9.06	-41.3	-45.6	16.4	5.99e-01	0	59	0	602931200	53	6196
2026-01-29 03:17:27.58	266.02	8.87	-41.6	-46.2	15.7	6.02e-01	0	59	0	608698368	53	6615
2026-01-29 03:17:30.62	265.59	8.69	-41.8	-46.8	15.1	6.03e-01	0	59	0	613941248	54	6678
2026-01-29 03:17:33.64	265.16	8.50	-42.0	-47.3	14.4	6.04e-01	0	59	0	619708416	54	7088
2026-01-29 03:17:36.67	264.74	8.32	-42.1	-47.7	14.0	6.00e-01	0	59	0	625475584	54	7439
2026-01-29 03:17:39.70	264.33	8.13	-42.1	-47.5	14.3	6.03e-01	0	59	0	631242752	54	7278
2026-01-29 03:17:42.73	263.92	7.95	-45.3	-64.0	3.9	7.43e-01	0	59	104	634912768	61	32448
2026-01-29 03:17:45.76	263.52	7.77	-45.9	-64.8	3.8	7.45e-01	0	59	104	634912768	62	33464
2026-01-29 03:17:48.79	263.12	7.58	-46.1	-64.9	3.8	7.50e-01	0	59	104	634912768	62	33987
2026-01-29 03:17:51.82	262.73	7.40	-46.0	-64.8	3.8	7.43e-01	0	59	104	634912768	62	33675
2026-01-29 03:17:54.85	262.34	7.21	-46.0	-64.9	3.8	7.43e-01	0	59	104	634912768	62	33734
2026-01-29 03:17:57.89	261.96	7.03	-46.1	-64.9	3.8	7.45e-01	0	59	104	634912768	62	34054
2026-01-29 03:18:00.92	261.58	6.85	-46.0	-64.9	3.8	7.45e-01	0	59	104	634912768	62	34022
2026-01-29 03:18:03.95	261.21	6.66	-46.0	-64.9	3.8	7.44e-01	0	59	104	634912768	62	33798
2026-01-29 03:18:06.98	260.84	6.48	-45.9	-64.8	3.8	7.45e-01	0	59	104	634912768	62	33431
2026-01-29 03:18:10.01	260.48	6.30	-45.9	-64.8	3.8	7.46e-01	0	59	104	634912768	62	33474
2026-01-29 03:18:13.03	260.13	6.12	-45.9	-64.8	3.8	7.48e-01	0	59	104	634912768	62	33444
2026-01-29 03:18:16.06	259.78	5.94	-45.9	-64.8	3.8	7.46e-01	0	59	104	634912768	62	33540
2026-01-29 03:18:19.09	259.43	5.76	-45.9	-64.8	3.8	7.46e-01	0	59	104	634912768	62	33536
2026-01-29 03:18:22.12	259.09	5.58	-45.9	-64.8	3.8	7.46e-01	0	59	104	634912768	62	33486
2026-01-29 03:18:25.15	258.76	5.40	-45.9	-64.8	3.8	7.45e-01	0	59	104	634912768	62	33414
2026-01-29 03:18:28.18	258.42	5.22	-45.9	-64.8	3.8	7.50e-01	0	59	104	634912768	62	33423
2026-01-29 03:18:31.22	258.09	5.04	-45.9	-64.8	3.8	7.46e-01	0	59	104	634912768	62	33485
2026-01-29 03:18:34.25	257.77	4.86	-45.9	-64.8	3.8	7.45e-01	0	59	104	634912768	62	33455
2026-01-29 03:18:37.28	257.45	4.69	-45.9	-64.8	3.8	7.45e-01	0	59	104	634912768	62	33413
2026-01-29 03:18:40.31	257.14	4.51	-45.9	-64.8	3.8	7.47e-01	0	60	104	634912768	62	33372
2026-01-29 03:18:43.34	256.83	4.33	-45.9	-64.8	3.8	7.50e-01	0	59	104	634912768	62	33318
2026-01-29 03:18:46.37	256.52	4.16	-45.9	-64.8	3.8	7.47e-01	0	60	104	634912768	62	33452
2026-01-29 03:18:49.41	256.22	3.98	-45.9	-64.8	3.8	7.44e-01	0	60	104	634912768	62	33373
2026-01-29 03:18:52.44	255.92	3.81	-45.9	-64.8	3.8	7.45e-01	0	59	104	634912768	62	33384
2026-01-29 03:18:55.47	255.63	3.63	-45.9	-64.8	3.8	7.46e-01	0	59	104	634912768	62	33433
2026-01-29 03:18:58.50	255.34	3.46	-45.9	-64.8	3.8	7.44e-01	0	59	104	634912768	62	33388
2026-01-29 03:19:01.53	255.05	3.29	-45.9	-64.8	3.8	7.44e-01	0	60	104	634912768	62	33311
2026-01-29 03:19:04.56	254.77	3.12	-45.8	-64.7	3.8	7.45e-01	0	59	104	634912768	62	33257
2026-01-29 03:19:07.59	254.49	2.94	-45.8	-64.7	3.8	7.42e-01	0	59	104	634912768	62	33310
2026-01-29 03:19:10.62	254.21	2.77	-45.8	-64.8	3.8	7.47e-01	0	59	104	634912768	62	33327
2026-01-29 03:19:13.65	253.94	2.60	-45.8	-64.7	3.8	7.47e-01	0	59	104	634912768	62	33265
2026-01-29 03:19:16.68	253.67	2.43	-45.8	-64.7	3.8	7.47e-01	0	59	104	634912768	62	33229
2026-01-29 03:19:19.71	253.41	2.26	-45.8	-64.7	3.8	7.42e-01	0	59	104	634912768	62	33284
2026-01-29 03:19:22.75	253.15	2.09	-45.9	-64.7	3.8	7.46e-01	0	59	104	634912768	62	33249
2026-01-29 03:19:25.78	252.89	1.93	-45.8	-64.7	3.8	7.44e-01	0	59	104	634912768	62	33250

#Closed at: 2026-01-29 03:19:27
#Recorded file [634 MB]: D:/lorett/data/31039_260129_060849.dat