passes_logs/2026/01/29/R2.0S_Moscow/R2.0S_Moscow__20260129_012303_NOAA_21_JPSS-2_rec.log

#Pass ID: 20260129_012303_NOAA 21 (JPSS-2)
#Satellite: NOAA 21 (JPSS-2)
#Configuration: NOAA-21
#almurnet v.1.7.20251203
#Start time: 2026-01-29 01:23:17

#Version: 2.2.20231116
#Station: R2.0S_Moscow
#Location: 37.707566 lon 55.798166 lat
#TLE: 1 54234U 22150A   26027.77052245  .00000166  00000+0  99439-4 0  9997
#TLE: 2 54234  98.7510 328.5165 0000872 203.6403 156.4733 14.19540252166628

#Time	Az	El	Level	Level2	SNR	BER	BlckErr	Temp	State	Recorded	gain1	gain2
2026-01-29 01:23:17.79	9.11	2.83	-44.9	-56.8	3.8	8.45e-01	0	58	0	0	60	15005
2026-01-29 01:23:20.82	8.90	3.01	-45.3	-57.8	3.8	1.49e+00	0	59	104	0	62	15051
2026-01-29 01:23:23.85	8.68	3.18	-45.1	-57.7	3.8	1.49e+00	0	59	104	0	62	14713
2026-01-29 01:23:26.88	8.46	3.36	-41.4	-53.8	3.8	1.49e+00	0	59	104	0	55	14069
2026-01-29 01:23:29.91	8.24	3.53	-40.0	-52.2	3.8	1.49e+00	0	59	104	0	51	14759
2026-01-29 01:23:32.95	8.02	3.71	-40.0	-52.2	3.8	1.49e+00	0	59	104	0	51	14723
2026-01-29 01:23:35.98	7.79	3.88	-40.0	-52.1	3.8	1.49e+00	0	59	104	0	51	14690
2026-01-29 01:23:39.01	7.56	4.06	-39.9	-52.1	3.8	1.49e+00	0	59	104	0	51	14685
2026-01-29 01:23:42.04	7.33	4.24	-39.9	-52.1	3.8	1.49e+00	0	59	104	0	51	14667
2026-01-29 01:23:45.07	7.10	4.42	-39.9	-52.1	3.8	1.49e+00	0	59	104	0	51	14675
2026-01-29 01:23:48.10	6.86	4.60	-39.9	-52.1	3.8	1.49e+00	0	59	104	0	51	14630
2026-01-29 01:23:51.13	6.62	4.78	-39.9	-52.1	3.8	1.49e+00	0	59	104	0	51	14629
2026-01-29 01:23:54.16	6.37	4.96	-39.9	-52.1	3.8	1.49e+00	0	59	104	0	51	14598
2026-01-29 01:23:57.20	6.13	5.14	-39.9	-52.1	3.8	1.49e+00	0	59	104	0	51	14619
2026-01-29 01:24:00.23	5.88	5.32	-39.9	-52.1	3.8	1.49e+00	0	59	104	0	51	14604
2026-01-29 01:24:03.26	5.62	5.50	-39.9	-52.1	3.8	1.49e+00	0	59	104	0	51	14630
2026-01-29 01:24:06.28	5.36	5.69	-39.9	-52.1	3.8	1.49e+00	0	59	104	0	51	14614
2026-01-29 01:24:09.31	5.10	5.87	-39.9	-52.1	3.8	1.49e+00	0	59	104	0	51	14606
2026-01-29 01:24:12.34	4.84	6.05	-39.9	-52.0	3.8	1.49e+00	0	59	104	0	51	14499
2026-01-29 01:24:15.37	4.57	6.24	-39.9	-52.0	3.8	1.49e+00	0	59	104	0	51	14522
2026-01-29 01:24:18.40	4.30	6.43	-39.8	-52.0	3.8	1.49e+00	0	59	104	0	51	14508
2026-01-29 01:24:21.43	4.03	6.61	-39.8	-52.0	3.8	1.49e+00	0	59	104	0	51	14497
2026-01-29 01:24:24.46	3.75	6.80	-39.9	-52.0	3.8	1.49e+00	0	59	104	0	51	14522
2026-01-29 01:24:27.49	3.46	6.99	-39.9	-52.0	3.8	1.49e+00	0	59	104	0	51	14509
2026-01-29 01:24:30.52	3.18	7.18	-39.8	-52.0	3.8	1.49e+00	0	59	104	0	51	14484
2026-01-29 01:24:33.55	2.89	7.37	-39.8	-52.0	3.8	1.49e+00	0	59	104	0	51	14515
2026-01-29 01:24:36.58	2.59	7.56	-39.8	-52.0	3.8	1.49e+00	0	59	104	0	51	14491
2026-01-29 01:24:39.61	2.30	7.75	-39.8	-52.0	3.8	1.49e+00	0	59	104	0	51	14500
2026-01-29 01:24:42.64	1.99	7.94	-39.8	-52.0	3.8	1.49e+00	0	59	104	0	51	14521
2026-01-29 01:24:45.67	1.69	8.14	-40.0	-52.2	3.8	1.49e+00	0	59	104	0	51	14780
2026-01-29 01:24:48.69	1.38	8.33	-40.1	-52.2	3.8	1.49e+00	0	59	104	0	51	14858
2026-01-29 01:24:51.72	1.06	8.52	-40.0	-52.2	3.8	1.49e+00	0	59	104	0	51	14751
2026-01-29 01:24:54.75	0.74	8.72	-39.9	-52.1	3.8	1.49e+00	0	59	104	0	51	14648
2026-01-29 01:24:57.78	0.42	8.91	-40.0	-52.1	3.8	1.49e+00	0	59	104	0	51	14701
2026-01-29 01:25:00.80	0.09	9.11	-39.9	-52.1	3.8	1.49e+00	0	59	104	0	51	14686
2026-01-29 01:25:03.83	359.76	9.31	-39.9	-52.1	3.8	1.49e+00	0	59	104	0	51	14669
2026-01-29 01:25:06.86	359.42	9.50	-39.9	-52.2	3.8	1.49e+00	0	59	104	0	51	14712
2026-01-29 01:25:09.89	359.08	9.70	-39.9	-52.1	3.8	1.49e+00	0	59	104	0	51	14634
2026-01-29 01:25:12.92	358.73	9.90	-39.9	-52.1	3.8	1.49e+00	0	59	104	0	51	14656
2026-01-29 01:25:15.95	358.38	10.10	-39.9	-52.1	3.8	1.49e+00	0	59	104	0	51	14601
2026-01-29 01:25:18.98	358.02	10.30	-39.8	-52.0	3.8	1.49e+00	0	59	104	0	51	14422
2026-01-29 01:25:22.01	357.66	10.50	-40.1	-52.2	3.8	1.49e+00	0	59	104	0	51	14807
2026-01-29 01:25:25.03	357.29	10.70	-39.9	-52.1	3.8	1.49e+00	0	59	104	0	51	14593
2026-01-29 01:25:28.06	356.92	10.90	-40.1	-52.3	3.8	1.49e+00	0	59	104	0	51	14922
2026-01-29 01:25:31.09	356.54	11.10	-39.8	-52.0	3.8	1.49e+00	0	59	104	0	51	14403
2026-01-29 01:25:34.12	356.16	11.30	-39.9	-52.0	3.8	1.49e+00	0	59	104	0	51	14445
2026-01-29 01:25:37.15	355.77	11.50	-40.0	-52.2	3.8	1.49e+00	0	59	104	0	51	14752
2026-01-29 01:25:40.17	355.38	11.70	-40.1	-52.3	3.8	1.49e+00	0	59	104	0	52	14051
2026-01-29 01:25:43.20	354.98	11.91	-40.1	-52.3	3.8	1.49e+00	0	59	104	0	51	14914
2026-01-29 01:25:46.23	354.57	12.11	-40.1	-52.3	3.8	1.49e+00	0	59	104	0	51	14946
2026-01-29 01:25:49.26	354.16	12.31	-40.5	-52.7	3.8	1.49e+00	0	60	104	0	51	15586
2026-01-29 01:25:52.29	353.75	12.52	-40.5	-52.6	3.8	1.49e+00	0	59	104	0	51	15507
2026-01-29 01:25:55.32	353.32	12.72	-40.5	-52.7	3.8	1.49e+00	0	59	104	0	51	15618
2026-01-29 01:25:58.34	352.89	12.92	-40.6	-52.8	3.8	1.49e+00	0	59	104	0	51	15816
2026-01-29 01:26:01.37	352.46	13.13	-40.4	-52.6	3.8	1.49e+00	0	59	104	0	52	14662
2026-01-29 01:26:04.40	352.02	13.33	-40.7	-52.8	3.8	1.49e+00	0	59	104	0	52	15048
2026-01-29 01:26:07.43	351.57	13.54	-40.6	-52.8	3.8	1.49e+00	0	59	104	0	52	14895
2026-01-29 01:26:10.46	351.12	13.74	-40.6	-52.8	3.8	1.49e+00	0	59	104	0	52	14979
2026-01-29 01:26:13.49	350.66	13.94	-40.6	-52.8	3.8	1.49e+00	0	59	104	0	52	15013
2026-01-29 01:26:16.52	350.19	14.15	-40.8	-53.0	3.8	1.49e+00	0	59	104	0	52	15294
2026-01-29 01:26:19.55	349.72	14.35	-40.9	-53.1	3.8	1.49e+00	0	59	104	0	52	15513
2026-01-29 01:26:22.57	349.24	14.55	-40.9	-53.2	3.8	1.49e+00	0	59	104	0	52	15657
2026-01-29 01:26:25.60	348.75	14.76	-40.8	-53.0	3.8	1.49e+00	0	59	104	0	53	14473
2026-01-29 01:26:28.63	348.26	14.96	-41.1	-53.3	3.8	1.49e+00	0	60	104	0	53	15005
2026-01-29 01:26:31.66	347.76	15.16	-41.6	-53.9	3.8	1.49e+00	0	59	104	0	53	15968
2026-01-29 01:26:34.69	347.25	15.36	-41.5	-53.9	3.8	1.49e+00	0	59	104	0	53	15979
2026-01-29 01:26:37.72	346.73	15.56	-41.2	-53.5	3.8	1.49e+00	0	59	104	0	53	15363
2026-01-29 01:26:40.75	346.21	15.76	-40.9	-53.1	3.8	1.49e+00	0	60	104	0	53	14654
2026-01-29 01:26:43.79	345.68	15.96	-40.7	-52.9	3.8	1.49e+00	0	59	104	0	53	14363
2026-01-29 01:26:46.82	345.14	16.16	-41.0	-53.2	3.8	1.49e+00	0	59	104	0	53	14768
2026-01-29 01:26:49.85	344.60	16.36	-40.7	-52.9	3.8	1.49e+00	0	59	104	0	53	14279
2026-01-29 01:26:52.88	344.05	16.55	-40.8	-53.0	3.8	1.49e+00	0	59	104	0	53	14449
2026-01-29 01:26:55.91	343.49	16.75	-40.7	-52.9	3.8	1.49e+00	0	60	104	0	53	14259
2026-01-29 01:26:58.94	342.93	16.94	-40.7	-52.9	3.8	1.49e+00	0	59	104	0	53	14242
2026-01-29 01:27:01.97	342.36	17.13	-40.4	-52.5	3.8	1.49e+00	0	59	104	0	52	14512
2026-01-29 01:27:05.00	341.78	17.32	-40.3	-52.5	3.8	1.49e+00	0	59	104	0	52	14501
2026-01-29 01:27:08.03	341.19	17.51	-40.5	-52.6	3.8	1.49e+00	0	60	104	0	52	14609
2026-01-29 01:27:11.06	340.59	17.70	-40.4	-52.4	3.8	1.49e+00	0	60	104	0	52	14365
2026-01-29 01:27:14.09	339.99	17.88	-41.7	-51.9	3.9	1.49e+00	0	59	104	0	53	12779
2026-01-29 01:27:17.11	339.38	18.07	-42.0	-49.1	5.2	4.84e-01	0	59	0	0	54	8711
2026-01-29 01:27:20.15	338.76	18.25	-40.9	-45.0	9.4	1.70e-02	0	59	0	9437184	53	5729
2026-01-29 01:27:23.17	338.14	18.43	-40.7	-44.3	10.3	5.70e-03	0	59	0	18874368	53	5331
2026-01-29 01:27:26.20	337.51	18.61	-40.4	-43.5	11.6	6.03e-04	0	59	0	28311552	52	5126
2026-01-29 01:27:29.23	336.87	18.78	-39.8	-42.3	13.2	1.90e-05	0	59	0	37748736	51	4714
2026-01-29 01:27:32.26	336.22	18.95	-39.4	-41.7	14.0	3.80e-06	0	59	0	47185920	50	4652
2026-01-29 01:27:35.29	335.56	19.12	-39.3	-41.5	14.2	6.10e-06	0	59	0	56623104	50	4555
2026-01-29 01:27:38.32	334.90	19.29	-39.3	-41.5	14.2	7.00e-07	0	59	0	66060288	50	4548
2026-01-29 01:27:41.35	334.23	19.45	-39.2	-41.3	14.4	7.00e-07	0	60	0	75497472	50	4478
2026-01-29 01:27:44.38	333.55	19.61	-39.0	-41.0	14.7	7.00e-07	0	59	0	84934656	49	4594
2026-01-29 01:27:47.41	332.87	19.77	-39.0	-41.0	14.7	7.00e-07	0	60	0	95420416	49	4592
2026-01-29 01:27:50.44	332.18	19.92	-38.9	-40.9	14.8	0.00e+00	0	59	0	103809024	49	4518
2026-01-29 01:27:53.47	331.48	20.07	-38.7	-40.7	15.1	0.00e+00	0	60	0	114294784	49	4398
2026-01-29 01:27:56.50	330.78	20.22	-38.9	-40.9	14.9	0.00e+00	0	60	0	123731968	49	4519
2026-01-29 01:27:59.53	330.06	20.36	-38.9	-40.9	14.9	0.00e+00	0	59	0	133169152	49	4529
2026-01-29 01:28:02.56	329.34	20.50	-38.7	-40.6	15.2	0.00e+00	0	59	0	142606336	49	4373
2026-01-29 01:28:05.59	328.62	20.64	-38.8	-40.7	15.0	0.00e+00	0	60	0	152043520	49	4435
2026-01-29 01:28:08.62	327.89	20.77	-38.7	-40.7	15.1	0.00e+00	0	59	0	161480704	49	4407
2026-01-29 01:28:11.65	327.15	20.90	-38.5	-40.4	15.4	0.00e+00	0	59	0	170917888	49	4253
2026-01-29 01:28:14.68	326.41	21.02	-38.4	-40.2	15.5	0.00e+00	0	60	0	180355072	48	4437
2026-01-29 01:28:17.71	325.66	21.14	-38.4	-40.3	15.5	0.00e+00	0	59	0	189792256	48	4450
2026-01-29 01:28:20.74	324.90	21.25	-38.6	-40.5	15.4	0.00e+00	0	59	0	199229440	48	4547
2026-01-29 01:28:23.77	324.14	21.36	-38.6	-40.5	15.3	0.00e+00	0	59	0	208666624	48	4585
2026-01-29 01:28:26.80	323.37	21.46	-38.6	-40.5	15.3	0.00e+00	0	59	0	218103808	48	4584
2026-01-29 01:28:29.83	322.60	21.56	-38.5	-40.4	15.4	0.00e+00	0	59	0	227540992	48	4505
2026-01-29 01:28:32.86	321.82	21.65	-38.6	-40.5	15.3	0.00e+00	0	60	0	236978176	48	4546
2026-01-29 01:28:35.89	321.04	21.74	-38.6	-40.5	15.3	0.00e+00	0	59	0	246415360	48	4588
2026-01-29 01:28:38.92	320.26	21.82	-38.7	-40.6	15.2	0.00e+00	0	59	0	255852544	48	4631
2026-01-29 01:28:41.95	319.47	21.90	-38.6	-40.5	15.2	0.00e+00	0	59	0	265289728	48	4588
2026-01-29 01:28:44.98	318.67	21.97	-38.8	-40.7	15.0	0.00e+00	0	59	0	274726912	48	4700
2026-01-29 01:28:48.01	317.88	22.04	-38.7	-40.7	15.1	0.00e+00	0	60	0	284164096	48	4663
2026-01-29 01:28:51.04	317.08	22.10	-38.8	-40.7	15.0	0.00e+00	0	59	0	293601280	48	4691
2026-01-29 01:28:54.07	316.27	22.15	-38.8	-40.7	15.0	0.00e+00	0	59	0	303038464	48	4696
2026-01-29 01:28:57.10	315.47	22.20	-38.6	-40.5	15.2	0.00e+00	0	59	0	312475648	48	4594
2026-01-29 01:29:00.13	314.66	22.24	-38.8	-40.7	15.0	0.00e+00	0	59	0	321912832	48	4692
2026-01-29 01:29:03.16	313.85	22.27	-38.7	-40.6	15.2	0.00e+00	0	59	0	331350016	48	4620
2026-01-29 01:29:06.19	313.04	22.30	-38.7	-40.6	15.2	0.00e+00	0	59	0	340787200	48	4615
2026-01-29 01:29:09.21	312.23	22.33	-38.6	-40.5	15.2	0.00e+00	0	59	0	350224384	48	4593
2026-01-29 01:29:12.24	311.41	22.35	-38.5	-40.3	15.5	0.00e+00	0	59	0	359661568	48	4486
2026-01-29 01:29:15.27	310.60	22.36	-38.4	-40.3	15.6	0.00e+00	0	59	0	369098752	48	4445
2026-01-29 01:29:18.30	309.78	22.36	-38.6	-40.5	15.3	0.00e+00	0	60	0	378535936	48	4566
2026-01-29 01:29:21.33	308.96	22.36	-38.8	-40.8	15.0	0.00e+00	0	59	0	387973120	48	4737
2026-01-29 01:29:24.36	308.15	22.35	-38.7	-40.6	15.2	0.00e+00	0	59	0	397410304	48	4634
2026-01-29 01:29:27.39	307.33	22.34	-38.5	-40.4	15.4	0.00e+00	0	59	0	406847488	48	4522
2026-01-29 01:29:30.42	306.52	22.32	-38.5	-40.3	15.4	0.00e+00	0	60	0	416284672	48	4489
2026-01-29 01:29:33.45	305.70	22.29	-38.6	-40.5	15.3	0.00e+00	0	59	0	426770432	48	4598
2026-01-29 01:29:36.47	304.89	22.26	-38.5	-40.4	15.4	0.00e+00	0	59	0	436207616	48	4533
2026-01-29 01:29:39.50	304.08	22.22	-38.7	-40.6	15.2	0.00e+00	0	59	0	445644800	48	4635
2026-01-29 01:29:42.53	303.27	22.18	-38.9	-40.9	14.9	0.00e+00	0	59	0	455081984	48	4782
2026-01-29 01:29:45.55	302.47	22.13	-38.9	-40.9	14.9	0.00e+00	0	59	0	464519168	48	4767
2026-01-29 01:29:48.59	301.66	22.07	-38.7	-40.6	15.2	0.00e+00	0	59	0	473956352	48	4627
2026-01-29 01:29:51.61	300.87	22.01	-38.6	-40.6	15.2	0.00e+00	0	60	0	483393536	48	4603
2026-01-29 01:29:54.65	300.07	21.94	-38.6	-40.5	15.3	0.00e+00	0	59	0	492830720	48	4547
2026-01-29 01:29:57.68	299.27	21.87	-38.9	-40.9	14.9	0.00e+00	0	59	0	502267904	48	4790
2026-01-29 01:30:00.71	298.48	21.79	-38.9	-40.8	14.9	0.00e+00	0	59	0	511705088	48	4755
2026-01-29 01:30:03.74	297.70	21.71	-38.5	-40.3	15.4	0.00e+00	0	60	0	521142272	48	4480
2026-01-29 01:30:06.77	296.92	21.62	-38.5	-40.3	15.5	0.00e+00	0	59	0	530579456	48	4487
2026-01-29 01:30:09.80	296.14	21.52	-38.4	-40.2	15.6	0.00e+00	0	59	0	540016640	48	4399
2026-01-29 01:30:12.83	295.37	21.42	-38.5	-40.4	15.3	0.00e+00	0	59	0	549453824	48	4541
2026-01-29 01:30:15.86	294.60	21.32	-38.7	-40.7	15.1	0.00e+00	0	59	0	558891008	48	4664
2026-01-29 01:30:18.89	293.84	21.21	-38.9	-40.9	14.9	0.00e+00	0	59	0	568328192	48	4774
2026-01-29 01:30:21.92	293.09	21.09	-38.9	-40.9	14.9	7.00e-07	0	59	0	577765376	48	4797
2026-01-29 01:30:24.95	292.34	20.97	-39.0	-41.0	14.7	0.00e+00	0	60	0	587202560	48	4848
2026-01-29 01:30:27.98	291.59	20.85	-38.8	-40.7	15.1	0.00e+00	0	59	0	596639744	48	4685
2026-01-29 01:30:31.00	290.86	20.72	-38.7	-40.7	15.0	0.00e+00	0	60	0	606076928	48	4683
2026-01-29 01:30:34.03	290.13	20.59	-38.7	-40.6	15.1	0.00e+00	0	59	0	615514112	48	4631
2026-01-29 01:30:37.06	289.40	20.45	-38.8	-40.9	14.9	7.00e-07	0	59	0	624951296	48	4763
2026-01-29 01:30:40.09	288.68	20.31	-38.9	-40.9	14.8	0.00e+00	0	59	0	634388480	48	4776
2026-01-29 01:30:43.12	287.97	20.16	-38.9	-40.9	14.8	0.00e+00	0	59	0	643825664	48	4786
2026-01-29 01:30:46.15	287.27	20.01	-38.8	-40.8	14.9	0.00e+00	0	59	0	653262848	48	4726
2026-01-29 01:30:49.18	286.57	19.86	-38.6	-40.5	15.2	0.00e+00	0	60	0	662700032	48	4598
2026-01-29 01:30:52.20	285.88	19.71	-38.5	-40.4	15.2	0.00e+00	0	59	0	672137216	48	4537
2026-01-29 01:30:55.24	285.19	19.55	-38.7	-40.7	15.0	0.00e+00	0	59	0	681574400	48	4687
2026-01-29 01:30:58.27	284.51	19.38	-38.9	-40.9	14.8	0.00e+00	0	59	0	691011584	48	4769
2026-01-29 01:31:01.30	283.84	19.22	-39.0	-41.1	14.6	0.00e+00	0	59	0	700448768	48	4885
2026-01-29 01:31:04.33	283.18	19.05	-38.9	-41.0	14.7	0.00e+00	0	59	0	709885952	48	4833
2026-01-29 01:31:07.36	282.53	18.88	-39.1	-41.2	14.5	0.00e+00	0	59	0	719323136	48	4938
2026-01-29 01:31:10.39	281.88	18.71	-39.3	-41.4	14.2	1.50e-06	0	60	0	728760320	49	4814
2026-01-29 01:31:13.42	281.24	18.53	-39.4	-41.6	14.0	3.80e-06	0	59	0	738197504	49	4917
2026-01-29 01:31:16.45	280.61	18.35	-39.1	-41.3	14.3	3.00e-06	0	60	0	748683264	49	4718
2026-01-29 01:31:19.48	279.98	18.17	-39.1	-41.2	14.4	2.20e-06	0	60	0	757071872	49	4660
2026-01-29 01:31:22.50	279.37	17.99	-38.8	-40.8	14.8	0.00e+00	0	60	0	767557632	49	4489
2026-01-29 01:31:25.53	278.76	17.80	-38.7	-40.7	14.9	0.00e+00	0	59	0	776994816	49	4418
2026-01-29 01:31:28.56	278.15	17.61	-38.7	-40.6	14.9	0.00e+00	0	59	0	786432000	49	4391
2026-01-29 01:31:31.59	277.56	17.43	-38.8	-40.8	14.8	7.00e-07	0	59	0	795869184	49	4448
2026-01-29 01:31:34.62	276.97	17.24	-39.2	-41.3	14.2	2.20e-06	0	59	0	805306368	49	4753
2026-01-29 01:31:37.65	276.39	17.04	-39.4	-41.7	13.9	4.50e-06	0	60	0	814743552	49	4932
2026-01-29 01:31:40.67	275.82	16.85	-39.2	-41.4	14.1	2.20e-06	0	60	0	824180736	49	4811
2026-01-29 01:31:43.70	275.25	16.66	-39.3	-41.6	13.9	2.20e-06	0	59	0	833617920	49	4902
2026-01-29 01:31:46.73	274.69	16.46	-39.6	-42.0	13.5	4.50e-06	0	59	0	843055104	49	5141
2026-01-29 01:31:49.76	274.14	16.26	-39.5	-41.8	13.7	9.10e-06	0	59	0	852492288	49	5017
2026-01-29 01:31:52.79	273.60	16.06	-39.3	-41.5	14.0	4.50e-06	0	59	0	861929472	49	4853
2026-01-29 01:31:55.82	273.06	15.87	-39.4	-41.7	13.8	3.80e-06	0	59	0	871366656	49	4948
2026-01-29 01:31:58.85	272.53	15.67	-39.1	-41.3	14.2	1.50e-06	0	60	0	880803840	49	4732
2026-01-29 01:32:01.88	272.01	15.46	-38.9	-41.0	14.5	3.00e-06	0	60	0	890241024	49	4550
2026-01-29 01:32:04.91	271.50	15.26	-39.2	-41.3	14.1	3.00e-06	0	59	0	899678208	49	4750
2026-01-29 01:32:07.94	270.99	15.06	-39.3	-41.6	13.9	7.60e-06	0	59	0	909115392	49	4871
2026-01-29 01:32:10.97	270.49	14.86	-39.3	-41.6	13.9	2.20e-06	0	59	0	918552576	49	4890
2026-01-29 01:32:14.00	269.99	14.65	-39.4	-41.7	13.8	6.10e-06	0	60	0	927989760	49	4927
2026-01-29 01:32:17.03	269.50	14.45	-39.0	-41.1	14.3	0.00e+00	0	59	0	937426944	49	4632
2026-01-29 01:32:20.06	269.02	14.25	-38.7	-40.8	14.6	7.00e-07	0	59	0	946864128	49	4462
2026-01-29 01:32:23.09	268.55	14.04	-38.9	-41.0	14.4	1.50e-06	0	60	0	956301312	49	4556
2026-01-29 01:32:26.12	268.08	13.84	-39.2	-41.4	13.9	2.20e-06	0	59	0	965738496	49	4812
2026-01-29 01:32:29.15	267.62	13.63	-39.1	-41.3	14.0	3.00e-06	0	59	0	975175680	49	4745
2026-01-29 01:32:32.18	267.16	13.43	-39.1	-41.4	14.0	7.00e-07	0	60	0	984612864	49	4768
2026-01-29 01:32:35.20	266.72	13.22	-39.4	-41.7	13.6	6.10e-06	0	59	0	994050048	49	4972
2026-01-29 01:32:38.23	266.28	13.02	-39.4	-41.7	13.6	6.80e-06	0	60	0	1003487232	49	4980
2026-01-29 01:32:41.26	265.84	12.81	-39.3	-41.6	13.7	1.50e-06	0	59	0	1012924416	49	4884
2026-01-29 01:32:44.29	265.41	12.61	-39.1	-41.3	14.0	3.00e-06	0	59	0	1022361600	49	4716
2026-01-29 01:32:47.32	264.99	12.41	-39.1	-41.4	13.9	3.00e-06	0	59	0	1031798784	49	4774
2026-01-29 01:32:50.35	264.57	12.20	-39.6	-42.1	13.2	2.51e-05	0	59	0	1041235968	49	5183
2026-01-29 01:32:53.38	264.15	12.00	-39.9	-42.5	12.7	8.46e-05	0	59	0	1050673152	50	5149
2026-01-29 01:32:56.41	263.75	11.79	-39.8	-42.4	12.8	5.34e-05	0	59	0	1060110336	50	5076
2026-01-29 01:32:59.44	263.35	11.59	-39.4	-41.8	13.4	1.44e-05	0	59	0	1069547520	50	4751
2026-01-29 01:33:02.47	262.95	11.39	-39.3	-41.7	13.6	1.14e-05	0	60	0	1078984704	50	4679
2026-01-29 01:33:05.49	262.56	11.18	-39.7	-42.3	12.9	4.42e-05	0	59	0	1089470464	50	5017
2026-01-29 01:33:08.52	262.18	10.98	-40.2	-43.0	12.2	2.08e-04	0	59	0	1097859072	50	5438
2026-01-29 01:33:11.55	261.80	10.78	-40.4	-43.4	11.8	4.48e-04	0	59	0	1108344832	51	5369
2026-01-29 01:33:14.58	261.43	10.58	-40.3	-43.3	11.8	4.44e-04	0	59	0	1116733440	51	5305
2026-01-29 01:33:17.61	261.06	10.38	-40.0	-42.8	12.4	1.95e-04	0	60	0	1127219200	51	4990
2026-01-29 01:33:20.64	260.69	10.18	-39.9	-42.6	12.5	1.14e-04	0	59	0	1136656384	51	4904
2026-01-29 01:33:23.67	260.34	9.98	-40.1	-43.0	12.1	2.57e-04	0	60	0	1146093568	51	5107
2026-01-29 01:33:26.70	259.98	9.78	-40.3	-43.3	11.7	5.65e-04	0	59	0	1155530752	51	5327
2026-01-29 01:33:29.73	259.63	9.58	-40.3	-43.4	11.6	6.58e-04	0	60	0	1164967936	51	5371
2026-01-29 01:33:32.76	259.29	9.38	-40.2	-43.2	11.9	4.32e-04	0	60	0	1174405120	51	5236
2026-01-29 01:33:35.78	258.95	9.18	-40.1	-43.1	12.0	3.76e-04	0	59	0	1183842304	51	5162
2026-01-29 01:33:38.81	258.62	8.99	-40.1	-43.1	11.9	3.67e-04	0	59	0	1193279488	51	5183
2026-01-29 01:33:41.84	258.29	8.79	-40.3	-43.3	11.6	6.14e-04	0	60	0	1202716672	51	5337
2026-01-29 01:33:44.87	257.96	8.59	-40.3	-43.3	11.7	5.15e-04	0	60	0	1212153856	51	5298
2026-01-29 01:33:47.90	257.64	8.40	-40.1	-43.1	11.8	4.60e-04	0	59	0	1221591040	51	5196
2026-01-29 01:33:50.93	257.32	8.20	-40.1	-43.0	11.9	4.68e-04	0	60	0	1231028224	51	5139
2026-01-29 01:33:53.96	257.01	8.01	-40.1	-43.0	11.9	4.16e-04	0	60	0	1240465408	51	5127
2026-01-29 01:33:56.99	256.70	7.82	-44.7	-57.2	3.8	1.49e+00	0	60	104	1242562560	59	16504
2026-01-29 01:34:00.02	256.40	7.62	-45.0	-57.6	3.8	1.49e+00	0	60	104	1242562560	60	16405
2026-01-29 01:34:03.05	256.10	7.43	-45.0	-57.7	3.8	1.49e+00	0	60	104	1242562560	60	16569
2026-01-29 01:34:06.08	255.80	7.24	-45.1	-57.7	3.8	1.49e+00	0	60	104	1242562560	60	16589
2026-01-29 01:34:09.11	255.51	7.05	-45.0	-57.7	3.8	1.49e+00	0	60	104	1242562560	60	16562
2026-01-29 01:34:12.14	255.22	6.86	-44.9	-57.6	3.8	1.49e+00	0	60	104	1242562560	60	16374
2026-01-29 01:34:15.17	254.94	6.67	-44.9	-57.6	3.8	1.49e+00	0	60	104	1242562560	60	16392
2026-01-29 01:34:18.20	254.66	6.48	-44.9	-57.6	3.8	1.49e+00	0	60	104	1242562560	60	16330
2026-01-29 01:34:21.23	254.38	6.30	-44.9	-57.6	3.8	1.49e+00	0	60	104	1242562560	60	16382
2026-01-29 01:34:24.26	254.11	6.11	-45.0	-57.6	3.8	1.49e+00	0	60	104	1242562560	60	16458
2026-01-29 01:34:27.29	253.84	5.92	-44.9	-57.5	3.8	1.49e+00	0	60	104	1242562560	60	16279
2026-01-29 01:34:30.32	253.57	5.74	-44.9	-57.5	3.8	1.49e+00	0	60	104	1242562560	60	16272
2026-01-29 01:34:33.35	253.31	5.55	-44.9	-57.5	3.8	1.49e+00	0	60	104	1242562560	60	16237
2026-01-29 01:34:36.38	253.05	5.37	-44.9	-57.5	3.8	1.49e+00	0	60	104	1242562560	60	16280
2026-01-29 01:34:39.41	252.79	5.19	-44.9	-57.5	3.8	1.49e+00	0	60	104	1242562560	60	16261
2026-01-29 01:34:42.44	252.54	5.00	-44.9	-57.5	3.8	1.49e+00	0	60	104	1242562560	60	16243
2026-01-29 01:34:45.47	252.29	4.82	-44.9	-57.5	3.8	1.49e+00	0	60	104	1242562560	60	16266
2026-01-29 01:34:48.50	252.04	4.64	-44.9	-57.6	3.8	1.49e+00	0	60	104	1242562560	60	16323
2026-01-29 01:34:51.53	251.80	4.46	-44.9	-57.5	3.8	1.49e+00	0	60	104	1242562560	60	16268
2026-01-29 01:34:54.56	251.56	4.28	-44.9	-57.5	3.8	1.49e+00	0	60	104	1242562560	60	16268
2026-01-29 01:34:57.59	251.32	4.10	-44.9	-57.5	3.8	1.49e+00	0	60	104	1242562560	60	16280
2026-01-29 01:35:00.62	251.09	3.93	-44.9	-57.5	3.8	1.49e+00	0	60	104	1242562560	60	16231
2026-01-29 01:35:03.64	250.86	3.75	-44.9	-57.5	3.8	1.49e+00	0	60	104	1242562560	60	16291
2026-01-29 01:35:06.67	250.63	3.57	-44.9	-57.5	3.8	1.49e+00	0	60	104	1242562560	60	16244
2026-01-29 01:35:09.70	250.40	3.40	-44.9	-57.5	3.8	1.49e+00	0	60	104	1242562560	60	16291
2026-01-29 01:35:12.73	250.18	3.22	-44.9	-57.5	3.8	1.49e+00	0	60	104	1242562560	60	16234
2026-01-29 01:35:15.76	249.96	3.05	-44.9	-57.5	3.8	1.49e+00	0	60	104	1242562560	60	16282
2026-01-29 01:35:18.79	249.74	2.87	-44.9	-57.5	3.8	1.49e+00	0	60	104	1242562560	60	16167
2026-01-29 01:35:21.82	249.53	2.70	-44.9	-57.5	3.8	1.49e+00	0	60	104	1242562560	60	16252
2026-01-29 01:35:24.85	249.32	2.53	-44.8	-57.5	3.8	1.49e+00	0	60	104	1242562560	60	16184
2026-01-29 01:35:27.87	249.11	2.36	-44.8	-57.5	3.8	1.49e+00	0	60	104	1242562560	60	16181
2026-01-29 01:35:30.91	248.90	2.19	-44.8	-57.5	3.8	1.49e+00	0	60	104	1242562560	60	16164
2026-01-29 01:35:33.94	248.69	2.02	-44.8	-57.5	3.8	1.49e+00	0	60	104	1242562560	60	16159

#Closed at: 2026-01-29 01:35:35
#Recorded file [1242 MB]: D:/lorett/data/31039_260129_042317.dat