passes_logs/2026/01/13/PlanumMoscow/PlanumMoscow__20260113_100132_METOP-B_rec.log

#Pass ID: 20260113_100132_METOP-B
#Satellite: METOP-B
#Configuration: METOP-B
#Start time: 2026-01-13 10:01:37.996597

#LorettStation: 1.0.0 05.05.2024
#Station: PlanumMoscow
#Location: 37.6253844 lon 55.6713361 lat
#TLE: 1 38771U 12049A   25293.92766658  .00000266  00000+0  14193-3 0  9996
#TLE: 2 38771  98.6882 344.7603 0001609 341.5209  18.5909 14.21379342679275

#Time	Az	El	Level	SNR
2026-01-13 10:05:16.401336	323.8	10.4	-63.8	2.8
2026-01-13 10:05:17.524590	323.5	10.4	-64.1	2.7
2026-01-13 10:05:18.645851	323.3	10.4	-64.0	2.8
2026-01-13 10:05:19.768105	323.1	10.4	-64.3	1.8
2026-01-13 10:05:20.890358	322.9	10.4	-63.7	2.2
2026-01-13 10:05:22.013612	322.7	10.4	-64.0	2.0
2026-01-13 10:05:23.135370	322.5	10.4	-64.2	2.2
2026-01-13 10:05:24.257128	322.3	10.4	-64.2	1.8
2026-01-13 10:05:25.377896	322.1	10.4	-64.2	2.5
2026-01-13 10:05:26.499158	321.9	10.4	-64.0	3.2
2026-01-13 10:05:27.620915	321.7	10.4	-64.1	2.9
2026-01-13 10:05:28.743169	321.5	10.4	-64.1	3.2
2026-01-13 10:05:29.863934	321.3	10.4	-63.8	2.0
2026-01-13 10:05:30.986188	321.1	10.4	-64.6	2.6
2026-01-13 10:05:32.108441	320.9	10.4	-64.4	2.7
2026-01-13 10:05:33.230198	320.7	10.4	-64.1	2.2
2026-01-13 10:05:34.352460	320.5	10.4	-64.3	1.3
2026-01-13 10:05:35.475714	320.3	10.4	-63.5	0.6
2026-01-13 10:05:36.596976	320.1	10.4	-64.5	3.1
2026-01-13 10:05:37.718734	319.9	10.4	-64.1	2.6
2026-01-13 10:05:38.839500	319.7	10.4	-63.9	4.1
2026-01-13 10:05:39.961754	319.5	10.4	-64.2	2.7
2026-01-13 10:05:41.084007	319.3	10.3	-64.3	3.3
2026-01-13 10:05:42.206261	319.0	10.3	-63.9	1.0
2026-01-13 10:05:43.328019	318.8	10.3	-63.8	2.8
2026-01-13 10:05:44.449281	318.6	10.3	-64.0	2.6
2026-01-13 10:05:45.571534	318.4	10.3	-64.2	3.2
2026-01-13 10:05:46.692300	318.2	10.3	-64.3	1.9
2026-01-13 10:05:47.813067	318.0	10.3	-63.9	3.7
2026-01-13 10:05:48.934328	317.8	10.3	-64.2	2.8
2026-01-13 10:05:50.054600	317.6	10.3	-64.5	2.4
2026-01-13 10:05:51.175862	317.4	10.3	-64.1	1.8
2026-01-13 10:05:52.299629	317.2	10.3	-64.3	1.6
2026-01-13 10:05:53.421397	317.0	10.2	-64.0	0.4
2026-01-13 10:05:54.543650	316.8	10.2	-64.6	2.8
2026-01-13 10:05:55.664912	316.6	10.2	-64.2	2.6
2026-01-13 10:05:56.787166	316.4	10.2	-64.5	2.8
2026-01-13 10:05:57.908428	316.2	10.2	-64.3	2.4
2026-01-13 10:05:59.030186	316.0	10.2	-63.8	3.0
2026-01-13 10:06:00.155945	315.8	10.2	-64.1	2.7
2026-01-13 10:06:01.277207	315.6	10.2	-64.3	1.6
2026-01-13 10:06:02.399469	315.4	10.1	-64.5	2.2
2026-01-13 10:06:03.521226	315.2	10.1	-63.8	2.0
2026-01-13 10:06:04.642490	315.0	10.1	-64.6	3.1
2026-01-13 10:06:05.764743	314.8	10.1	-63.6	2.4
2026-01-13 10:06:06.886997	314.6	10.1	-64.6	2.4
2026-01-13 10:06:08.007764	314.4	10.1	-64.7	2.5
2026-01-13 10:06:09.130017	314.2	10.1	-64.0	1.6
2026-01-13 10:06:10.251776	314.0	10.0	-64.1	0.4
2026-01-13 10:06:11.374029	313.8	10.0	-64.3	1.7
2026-01-13 10:06:12.496282	313.6	10.0	-64.0	0.5
2026-01-13 10:06:13.618040	313.4	10.0	-63.8	2.4
2026-01-13 10:06:14.739798	313.2	10.0	-63.9	1.9
2026-01-13 10:06:15.860069	313.0	10.0	-63.7	3.2
2026-01-13 10:06:16.981826	312.8	9.9	-64.3	1.9
2026-01-13 10:06:18.102592	312.6	9.9	-64.1	2.7
2026-01-13 10:06:19.223358	312.4	9.9	-64.0	2.8
2026-01-13 10:06:20.345116	312.2	9.9	-64.2	2.7
2026-01-13 10:06:21.467369	312.0	9.9	-63.5	1.2
2026-01-13 10:06:22.589127	311.8	9.8	-63.8	1.3
2026-01-13 10:06:23.711381	311.6	9.8	-63.0	0.0
2026-01-13 10:06:24.834139	311.4	9.8	-63.1	3.2
2026-01-13 10:06:25.957392	311.2	9.8	-64.3	3.0
2026-01-13 10:06:27.078158	311.0	9.8	-63.3	1.8
2026-01-13 10:06:28.200419	310.8	9.7	-64.0	1.8
2026-01-13 10:06:29.321681	310.6	9.7	-63.6	2.4
2026-01-13 10:06:30.442944	310.4	9.7	-64.2	1.1
2026-01-13 10:06:31.564701	310.2	9.7	-63.2	0.6
2026-01-13 10:06:32.685476	310.1	9.7	-63.5	0.0
2026-01-13 10:06:33.806738	309.9	9.6	-64.1	0.3
2026-01-13 10:06:34.928000	309.7	9.6	-64.5	2.1
2026-01-13 10:06:36.049262	309.5	9.6	-64.2	2.1
2026-01-13 10:06:37.171020	309.3	9.6	-64.0	2.5
2026-01-13 10:06:38.293778	309.1	9.5	-63.8	2.2
2026-01-13 10:06:39.416032	308.9	9.5	-63.9	0.0
2026-01-13 10:06:40.538285	308.7	9.5	-63.8	0.0
2026-01-13 10:06:41.662539	308.5	9.5	-63.0	0.0
2026-01-13 10:06:42.784792	308.3	9.4	-63.8	2.0
2026-01-13 10:06:43.905579	308.1	9.4	-63.6	0.0
2026-01-13 10:06:45.028331	307.9	9.4	-62.8	0.0
2026-01-13 10:06:46.150584	307.7	9.4	-62.2	0.0
2026-01-13 10:06:47.271350	307.6	9.3	-62.7	0.0
2026-01-13 10:06:48.393108	307.4	9.3	-63.8	0.0
2026-01-13 10:06:49.516867	307.2	9.3	-63.9	0.0
2026-01-13 10:06:50.638624	307.0	9.3	-62.7	0.0
2026-01-13 10:06:51.760390	306.8	9.2	-63.3	0.0
2026-01-13 10:06:52.882148	306.6	9.2	-63.6	0.0
2026-01-13 10:06:54.003410	306.4	9.2	-63.5	0.0
2026-01-13 10:06:55.124176	306.2	9.2	-63.5	0.0
2026-01-13 10:06:56.245439	306.0	9.1	-63.9	0.0
2026-01-13 10:06:57.371694	305.9	9.1	-63.1	0.0
2026-01-13 10:06:58.493452	305.7	9.1	-62.8	0.0
2026-01-13 10:06:59.615705	305.5	9.0	-62.4	0.0
2026-01-13 10:07:00.737958	305.3	9.0	-62.2	0.0
2026-01-13 10:07:01.859716	305.1	9.0	-63.3	0.0
2026-01-13 10:07:02.981970	304.9	9.0	-63.6	0.0
2026-01-13 10:07:04.103727	304.7	8.9	-63.2	0.0
2026-01-13 10:07:05.227981	304.6	8.9	-63.4	0.0
2026-01-13 10:07:06.349739	304.4	8.9	-62.8	0.0
2026-01-13 10:07:07.471992	304.2	8.8	-63.6	0.0
2026-01-13 10:07:08.593254	304.0	8.8	-63.3	0.0
2026-01-13 10:07:09.715012	303.8	8.8	-62.9	0.0
2026-01-13 10:07:10.836770	303.6	8.7	-62.9	0.0
2026-01-13 10:07:11.958528	303.5	8.7	-62.5	0.0
2026-01-13 10:07:13.082287	303.3	8.7	-62.7	0.0
2026-01-13 10:07:14.203053	303.1	8.6	-61.8	0.0
2026-01-13 10:07:15.324315	302.9	8.6	-61.6	0.0
2026-01-13 10:07:16.445082	302.7	8.6	-61.5	0.0
2026-01-13 10:07:17.565848	302.5	8.5	-60.8	0.0
2026-01-13 10:07:18.686614	302.4	8.5	-62.4	0.0
2026-01-13 10:07:19.808373	302.2	8.5	-63.2	0.0
2026-01-13 10:07:20.930130	302.0	8.5	-60.7	0.0
2026-01-13 10:07:22.055384	301.8	8.4	-61.7	0.0
2026-01-13 10:07:23.176646	301.7	8.4	-61.4	0.0
2026-01-13 10:07:24.297909	301.5	8.3	-61.2	0.0
2026-01-13 10:07:25.419666	301.3	8.3	-62.6	0.0
2026-01-13 10:07:26.541920	301.1	8.3	-62.1	0.0
2026-01-13 10:07:27.663678	300.9	8.2	-61.4	0.0
2026-01-13 10:07:28.785435	300.8	8.2	-62.5	0.0
2026-01-13 10:07:29.912690	300.6	8.2	-60.0	0.0
2026-01-13 10:07:31.034943	300.4	8.1	-61.5	0.0
2026-01-13 10:07:32.156701	300.2	8.1	-62.4	0.0
2026-01-13 10:07:33.278458	300.1	8.1	-61.1	0.0
2026-01-13 10:07:34.400712	299.9	8.0	-62.2	0.0
2026-01-13 10:07:35.522966	299.7	8.0	-61.1	0.0
2026-01-13 10:07:36.644228	299.5	8.0	-62.5	0.0
2026-01-13 10:07:37.769490	299.4	7.9	-60.7	0.0
2026-01-13 10:07:38.891744	299.2	7.9	-62.0	0.0
2026-01-13 10:07:40.013006	299.0	7.9	-61.3	0.0
2026-01-13 10:07:41.133279	298.9	7.8	-61.4	0.0
2026-01-13 10:07:42.254046	298.7	7.8	-62.0	0.0
2026-01-13 10:07:43.374812	298.5	7.7	-62.8	0.0
2026-01-13 10:07:44.497065	298.3	7.7	-61.2	0.0
2026-01-13 10:07:45.623824	298.2	7.7	-61.3	0.0
2026-01-13 10:07:46.745582	298.0	7.6	-61.9	0.0
2026-01-13 10:07:47.867340	297.8	7.6	-61.1	0.0
2026-01-13 10:07:48.988107	297.7	7.6	-61.8	0.0
2026-01-13 10:07:50.109872	297.5	7.5	-61.2	0.0
2026-01-13 10:07:51.230639	297.3	7.5	-61.5	0.0
2026-01-13 10:07:52.352892	297.2	7.4	-62.0	0.0
2026-01-13 10:07:53.474651	297.0	7.4	-61.2	0.0
2026-01-13 10:07:54.596409	296.8	7.4	-61.3	0.0
2026-01-13 10:07:55.718166	296.7	7.3	-61.8	0.0
2026-01-13 10:07:56.839932	296.5	7.3	-62.7	0.0
2026-01-13 10:07:57.962194	296.3	7.2	-62.0	0.0
2026-01-13 10:07:59.083952	296.2	7.2	-63.2	0.0
2026-01-13 10:08:00.205710	296.0	7.2	-63.2	0.0
2026-01-13 10:08:01.326971	295.8	7.1	-62.7	0.0
2026-01-13 10:08:02.448233	295.7	7.1	-61.4	0.0
2026-01-13 10:08:03.569991	295.5	7.0	-62.3	0.0
2026-01-13 10:08:04.692244	295.4	7.0	-61.8	0.0
2026-01-13 10:08:05.814002	295.2	7.0	-62.5	0.0
2026-01-13 10:08:06.936255	295.0	6.9	-62.2	0.0
2026-01-13 10:08:08.057517	294.9	6.9	-62.1	0.0
2026-01-13 10:08:09.179275	294.7	6.8	-60.8	0.0
2026-01-13 10:08:10.301033	294.6	6.8	-61.3	0.0
2026-01-13 10:08:11.422295	294.4	6.8	-61.5	0.0
2026-01-13 10:08:12.544548	294.2	6.7	-62.3	0.0
2026-01-13 10:08:13.665810	294.1	6.7	-62.1	0.0
2026-01-13 10:08:14.788064	293.9	6.6	-60.8	0.0
2026-01-13 10:08:15.909821	293.8	6.6	-61.2	0.0
2026-01-13 10:08:17.032589	293.6	6.5	-61.0	0.0
2026-01-13 10:08:18.153851	293.5	6.5	-60.4	0.0
2026-01-13 10:08:19.275610	293.3	6.5	-60.3	0.0
2026-01-13 10:08:20.397864	293.1	6.4	-61.3	0.0
2026-01-13 10:08:21.520117	293.0	6.4	-60.7	0.0
2026-01-13 10:08:22.641875	292.8	6.3	-60.7	0.0
2026-01-13 10:08:23.764137	292.7	6.3	-60.1	0.0
2026-01-13 10:08:24.885894	292.5	6.3	-61.6	0.0
2026-01-13 10:08:26.007652	292.4	6.2	-61.6	0.0
2026-01-13 10:08:27.128913	292.2	6.2	-61.3	0.0
2026-01-13 10:08:28.251176	292.1	6.1	-61.4	0.0
2026-01-13 10:08:29.372933	291.9	6.1	-60.2	0.0
2026-01-13 10:08:30.494194	291.8	6.0	-60.8	0.0
2026-01-13 10:08:31.616448	291.6	6.0	-63.2	0.0
2026-01-13 10:08:32.737710	291.5	5.9	-65.2	0.0
2026-01-13 10:08:33.858476	291.3	5.9	-65.0	0.0
2026-01-13 10:08:34.979745	291.2	5.9	-63.6	0.0
2026-01-13 10:08:36.101503	291.0	5.8	-63.5	0.0
2026-01-13 10:08:37.222765	290.9	5.8	-65.4	0.0
2026-01-13 10:08:38.344026	290.7	5.7	-65.5	0.0
2026-01-13 10:08:39.465784	290.6	5.7	-66.4	0.0
2026-01-13 10:08:40.586552	290.4	5.6	-65.8	0.0
2026-01-13 10:08:41.707318	290.3	5.6	-66.0	0.0
2026-01-13 10:08:42.833087	290.1	5.6	-65.9	0.0
2026-01-13 10:08:43.955340	290.0	5.5	-66.4	0.0
2026-01-13 10:08:45.076612	289.8	5.5	-68.8	0.0
2026-01-13 10:08:46.181769	289.7	5.4	-68.4	0.0
2026-01-13 10:08:47.302535	289.5	5.4	-68.2	0.0
2026-01-13 10:08:48.424293	289.4	5.3	-68.4	0.0
2026-01-13 10:08:49.545060	289.3	5.3	-68.7	0.0
2026-01-13 10:08:50.668314	289.1	5.2	-68.8	0.0
2026-01-13 10:08:51.790567	289.0	5.2	-67.9	0.0
2026-01-13 10:08:52.912821	288.8	5.1	-67.7	0.0
2026-01-13 10:08:54.038579	288.7	5.1	-68.3	0.0
2026-01-13 10:08:55.160337	288.5	5.1	-66.6	0.0
2026-01-13 10:08:56.282590	288.4	5.0	-67.5	0.0
#Closed at: 2026-01-13 10:01:32.997837