passes_logs/2026/01/13/PlanumMoscow/PlanumMoscow__20260113_102927_METEOR-M2_4_rec.log

#Pass ID: 20260113_102927_METEOR-M2 4
#Satellite: METEOR-M2 4
#Configuration: METEOR-M2 4
#Start time: 2026-01-13 10:29:32.391948

#LorettStation: 1.0.0 05.05.2024
#Station: PlanumMoscow
#Location: 37.6253844 lon 55.6713361 lat
#TLE: 1 59051U 24039A   25293.94737965  .00000087  00000+0  58459-4 0  9998
#TLE: 2 59051  98.6671 251.7071 0007726 135.4772 224.7028 14.22388966 85257

#Time	Az	El	Level	SNR
2026-01-13 10:33:10.798111	115.8	26.3	-63.3	11.5
2026-01-13 10:33:13.043627	115.4	26.7	-63.7	10.2
2026-01-13 10:33:15.287638	115.0	27.0	-62.9	10.4
2026-01-13 10:33:17.531153	114.6	27.3	-63.5	11.1
2026-01-13 10:33:19.774670	114.2	27.6	-63.7	12.2
2026-01-13 10:33:22.018681	113.7	27.9	-62.1	9.6
2026-01-13 10:33:24.262197	113.3	28.2	-62.3	10.7
2026-01-13 10:33:26.505714	112.8	28.5	-62.8	11.6
2026-01-13 10:33:28.747742	112.3	28.9	-62.7	10.6
2026-01-13 10:33:30.990275	111.9	29.2	-62.8	12.1
2026-01-13 10:33:33.238296	111.4	29.5	-62.8	10.7
2026-01-13 10:33:35.482307	110.9	29.8	-62.2	11.9
2026-01-13 10:33:37.725823	110.4	30.2	-62.7	11.2
2026-01-13 10:33:39.969357	109.8	30.5	-62.6	11.1
2026-01-13 10:33:42.214378	109.3	30.8	-63.0	10.9
2026-01-13 10:33:44.458885	108.8	31.1	-62.6	10.1
2026-01-13 10:33:46.701905	108.2	31.5	-62.8	11.2
2026-01-13 10:33:48.946429	107.7	31.8	-62.8	10.4
2026-01-13 10:33:51.190441	107.1	32.1	-62.2	9.6
2026-01-13 10:33:53.434452	106.5	32.5	-62.2	9.8
2026-01-13 10:33:55.678464	105.9	32.8	-63.3	11.5
2026-01-13 10:33:57.925971	105.3	33.1	-61.7	7.8
2026-01-13 10:34:00.169983	104.7	33.5	-61.8	9.5
2026-01-13 10:34:02.413002	104.0	33.8	-63.0	10.1
2026-01-13 10:34:04.657022	103.4	34.1	-62.4	9.1
2026-01-13 10:34:06.899546	102.7	34.4	-61.0	6.2
2026-01-13 10:34:09.144061	102.0	34.8	-62.4	9.6
2026-01-13 10:34:11.387082	101.3	35.1	-61.0	6.2
2026-01-13 10:34:13.630101	100.6	35.4	-60.7	7.9
2026-01-13 10:34:15.874113	99.9	35.8	-62.3	8.1
2026-01-13 10:34:18.117142	99.2	36.1	-62.7	8.7
2026-01-13 10:34:20.360658	98.4	36.4	-62.0	8.7
2026-01-13 10:34:22.603183	97.7	36.7	-59.2	5.2
2026-01-13 10:34:24.845211	96.9	37.0	-60.6	8.2
2026-01-13 10:34:27.087746	96.1	37.3	-61.5	8.2
2026-01-13 10:34:29.331772	95.3	37.6	-61.9	7.7
2026-01-13 10:34:31.573802	94.5	37.9	-62.5	10.2
2026-01-13 10:34:33.816822	93.6	38.2	-60.3	4.9
2026-01-13 10:34:36.059345	92.8	38.5	-60.8	6.2
2026-01-13 10:34:38.302861	91.9	38.8	-61.3	6.0
2026-01-13 10:34:40.546385	91.0	39.1	-61.3	8.4
2026-01-13 10:34:42.790396	90.1	39.4	-61.6	7.5
2026-01-13 10:34:45.033911	89.2	39.7	-61.5	7.9
2026-01-13 10:34:47.277931	88.3	39.9	-60.6	3.0
2026-01-13 10:34:49.522446	87.3	40.2	-62.4	9.0
2026-01-13 10:34:51.766962	86.4	40.5	-61.0	5.6
2026-01-13 10:34:54.013469	85.4	40.7	-61.0	5.9
2026-01-13 10:34:56.254507	84.4	40.9	-60.2	4.2
2026-01-13 10:34:58.499022	83.4	41.2	-60.5	4.9
2026-01-13 10:35:00.742538	82.4	41.4	-59.3	2.4
2026-01-13 10:35:02.987045	81.3	41.6	-59.1	2.5
2026-01-13 10:35:05.230065	80.3	41.8	-60.1	4.3
2026-01-13 10:35:07.473585	79.2	42.0	-60.0	4.1
2026-01-13 10:35:09.717597	78.2	42.2	-61.5	5.9
2026-01-13 10:35:11.961608	77.1	42.3	-60.8	3.8
2026-01-13 10:35:14.206628	76.0	42.5	-59.4	0.8
2026-01-13 10:35:16.450639	74.9	42.7	-61.1	3.9
2026-01-13 10:35:18.695146	73.8	42.8	-60.6	3.6
2026-01-13 10:35:20.939670	72.6	42.9	-60.0	2.8
2026-01-13 10:35:23.183186	71.5	43.0	-59.8	3.0
2026-01-13 10:35:25.426702	70.4	43.1	-59.3	2.8
2026-01-13 10:35:27.670713	69.2	43.2	-58.7	2.7
2026-01-13 10:35:29.914724	68.1	43.3	-59.6	3.1
2026-01-13 10:35:32.158736	66.9	43.4	-59.9	4.8
2026-01-13 10:35:34.403243	65.7	43.4	-60.9	2.9
2026-01-13 10:35:36.646271	64.6	43.4	-58.6	4.2
2026-01-13 10:35:38.890283	63.4	43.5	-58.9	3.3
2026-01-13 10:35:41.134294	62.2	43.5	-60.7	3.2
2026-01-13 10:35:43.377810	61.1	43.5	-59.3	2.6
2026-01-13 10:35:45.621821	59.9	43.5	-60.3	2.3
2026-01-13 10:35:47.865840	58.7	43.4	-61.3	4.8
2026-01-13 10:35:50.108366	57.6	43.4	-59.8	4.4
2026-01-13 10:35:52.352873	56.4	43.3	-60.3	3.4
2026-01-13 10:35:54.595397	55.3	43.3	-57.4	0.0
2026-01-13 10:35:56.839904	54.1	43.2	-58.3	0.0
2026-01-13 10:35:59.083420	53.0	43.1	-59.7	2.1
2026-01-13 10:36:01.326441	51.8	43.0	-60.8	4.0
2026-01-13 10:36:03.570452	50.7	42.8	-59.7	0.0
2026-01-13 10:36:05.812480	49.6	42.7	-58.7	0.3
2026-01-13 10:36:08.056491	48.5	42.6	-61.0	5.2
2026-01-13 10:36:10.300007	47.4	42.4	-61.4	4.5
2026-01-13 10:36:12.543523	46.3	42.3	-60.4	1.7
2026-01-13 10:36:14.787534	45.2	42.1	-60.1	1.4
2026-01-13 10:36:17.031546	44.2	41.9	-60.3	0.0
2026-01-13 10:36:19.279558	43.1	41.7	-60.4	2.5
2026-01-13 10:36:21.523587	42.1	41.5	-60.0	2.6
2026-01-13 10:36:23.767598	41.1	41.3	-61.3	3.2
2026-01-13 10:36:26.011114	40.0	41.0	-61.5	3.0
2026-01-13 10:36:28.255125	39.0	40.8	-60.2	2.5
2026-01-13 10:36:30.498640	38.1	40.6	-60.8	2.3
2026-01-13 10:36:32.742652	37.1	40.3	-60.8	2.0
2026-01-13 10:36:34.986672	36.1	40.1	-61.6	2.7
2026-01-13 10:36:37.229692	35.2	39.8	-61.1	3.2
2026-01-13 10:36:39.472711	34.3	39.5	-60.7	2.8
2026-01-13 10:36:41.716721	33.4	39.3	-62.0	3.6
2026-01-13 10:36:43.961246	32.5	39.0	-60.4	4.6
2026-01-13 10:36:46.205257	31.6	38.7	-60.2	4.1
2026-01-13 10:36:48.449763	30.8	38.4	-60.1	4.3
2026-01-13 10:36:50.693280	29.9	38.1	-59.9	2.2
2026-01-13 10:36:52.937812	29.1	37.8	-61.5	3.6
2026-01-13 10:36:55.181825	28.3	37.5	-61.3	3.8
2026-01-13 10:36:57.425836	27.5	37.2	-61.0	4.1
2026-01-13 10:36:59.669359	26.7	36.9	-60.1	2.6
2026-01-13 10:37:01.912874	25.9	36.6	-61.7	6.7
2026-01-13 10:37:04.157894	25.2	36.2	-62.2	6.0
2026-01-13 10:37:06.400914	24.5	35.9	-60.1	3.7
2026-01-13 10:37:08.644926	23.7	35.6	-59.6	1.5
2026-01-13 10:37:10.888441	23.0	35.3	-60.0	5.9
2026-01-13 10:37:13.131462	22.3	35.0	-58.9	2.6
2026-01-13 10:37:15.374483	21.6	34.6	-58.8	1.6
2026-01-13 10:37:17.617999	21.0	34.3	-60.0	2.5
2026-01-13 10:37:19.861036	20.3	34.0	-60.1	4.5
2026-01-13 10:37:22.104551	19.7	33.6	-59.3	1.1
2026-01-13 10:37:24.348076	19.1	33.3	-60.0	1.5
2026-01-13 10:37:26.591096	18.4	33.0	-61.2	3.2
2026-01-13 10:37:28.834611	17.8	32.7	-59.4	3.4
2026-01-13 10:37:31.078138	17.3	32.3	-59.2	2.4
2026-01-13 10:37:33.324150	16.7	32.0	-60.1	3.4
2026-01-13 10:37:35.568161	16.1	31.7	-60.0	2.8
2026-01-13 10:37:37.811677	15.6	31.3	-60.3	3.4
2026-01-13 10:37:40.059204	15.0	31.0	-60.8	5.1
2026-01-13 10:37:42.301728	14.5	30.7	-61.2	2.8
2026-01-13 10:37:44.545262	14.0	30.4	-61.1	4.5
2026-01-13 10:37:46.789283	13.5	30.0	-59.5	3.2
2026-01-13 10:37:49.035321	13.0	29.7	-60.8	3.0
2026-01-13 10:37:51.279339	12.5	29.4	-58.2	0.0
2026-01-13 10:37:53.523345	12.0	29.1	-60.2	0.9
2026-01-13 10:37:55.771871	11.5	28.7	-60.0	1.9
2026-01-13 10:37:58.014900	11.0	28.4	-60.5	2.5
2026-01-13 10:38:00.258415	10.6	28.1	-59.9	1.5
2026-01-13 10:38:02.502931	10.2	27.8	-60.1	1.2
2026-01-13 10:38:04.749458	9.7	27.5	-61.2	2.1
2026-01-13 10:38:06.991992	9.3	27.2	-61.8	5.1
2026-01-13 10:38:09.234526	8.9	26.9	-59.2	0.0
2026-01-13 10:38:11.477050	8.5	26.6	-59.6	2.2
2026-01-13 10:38:13.722557	8.1	26.2	-61.0	4.8
2026-01-13 10:38:15.966072	7.7	25.9	-59.9	2.3
2026-01-13 10:38:18.210083	7.3	25.6	-61.0	3.9
2026-01-13 10:38:20.457104	6.9	25.3	-61.6	5.4
2026-01-13 10:38:22.700127	6.5	25.0	-59.7	0.4
2026-01-13 10:38:24.943642	6.2	24.7	-61.7	1.5
2026-01-13 10:38:27.186671	5.8	24.5	-60.4	3.0
2026-01-13 10:38:29.432186	5.5	24.2	-62.3	5.3
2026-01-13 10:38:31.675205	5.1	23.9	-62.1	5.0
2026-01-13 10:38:33.915747	4.8	23.6	-62.3	6.0
2026-01-13 10:38:36.160263	4.5	23.3	-61.7	5.4
2026-01-13 10:38:38.403778	4.1	23.0	-60.1	3.4
2026-01-13 10:38:40.647789	3.8	22.7	-61.3	2.9
2026-01-13 10:38:42.889324	3.5	22.5	-62.0	6.1
2026-01-13 10:38:45.131882	3.2	22.2	-62.2	5.6
2026-01-13 10:38:47.359163	2.9	21.9	-61.4	4.7
2026-01-13 10:38:49.603174	2.6	21.6	-61.6	2.1
2026-01-13 10:38:51.847681	2.3	21.4	-61.0	1.3
2026-01-13 10:38:54.091205	2.0	21.1	-60.8	0.0
2026-01-13 10:38:56.334225	1.7	20.8	-62.2	6.1
2026-01-13 10:38:58.577741	1.5	20.6	-61.6	2.3
2026-01-13 10:39:00.821255	1.2	20.3	-62.7	5.5
2026-01-13 10:39:03.066771	0.9	20.0	-62.3	3.2
2026-01-13 10:39:05.310782	0.7	19.8	-63.0	4.9
2026-01-13 10:39:07.555289	0.4	19.5	-61.6	4.1
2026-01-13 10:39:09.800309	0.1	19.3	-62.6	5.1
2026-01-13 10:39:12.043826	359.9	19.0	-61.7	4.6
2026-01-13 10:39:14.287846	359.7	18.8	-62.3	6.0
2026-01-13 10:39:16.531858	359.4	18.5	-63.3	5.5
2026-01-13 10:39:18.779365	359.2	18.3	-62.2	3.9
2026-01-13 10:39:21.022385	358.9	18.0	-62.0	3.3
2026-01-13 10:39:23.264909	358.7	17.8	-62.2	1.2
2026-01-13 10:39:25.509930	358.5	17.6	-63.6	5.6
2026-01-13 10:39:27.752968	358.3	17.3	-61.7	4.3
2026-01-13 10:39:29.996483	358.0	17.1	-62.1	5.7
2026-01-13 10:39:32.240999	357.8	16.8	-62.5	5.5
2026-01-13 10:39:34.484019	357.6	16.6	-63.5	4.8
2026-01-13 10:39:36.728526	357.4	16.4	-63.2	5.3
2026-01-13 10:39:38.973042	357.2	16.2	-60.4	1.2
2026-01-13 10:39:41.217549	357.0	15.9	-61.5	2.6
2026-01-13 10:39:43.466561	356.8	15.7	-61.7	2.4
2026-01-13 10:39:45.710572	356.6	15.5	-60.4	0.0
2026-01-13 10:39:47.955583	356.4	15.3	-61.7	4.0
2026-01-13 10:39:50.201605	356.2	15.0	-63.7	4.5
2026-01-13 10:39:52.445134	356.1	14.8	-61.2	0.0
2026-01-13 10:39:54.687163	355.9	14.6	-62.2	3.8
2026-01-13 10:39:56.928696	355.7	14.4	-61.8	3.7
2026-01-13 10:39:59.175717	355.5	14.2	-61.8	2.4
2026-01-13 10:40:01.416240	355.3	14.0	-61.7	2.3
2026-01-13 10:40:03.654754	355.2	13.7	-62.3	4.1
2026-01-13 10:40:05.892260	355.0	13.5	-62.1	4.2
2026-01-13 10:40:08.127277	354.8	13.3	-60.2	0.1
2026-01-13 10:40:10.363295	354.7	13.1	-61.9	2.1
2026-01-13 10:40:12.602305	354.5	12.9	-62.0	4.2
2026-01-13 10:40:14.838314	354.3	12.7	-60.9	0.0
2026-01-13 10:40:17.075828	354.2	12.5	-63.1	5.4
2026-01-13 10:40:19.308356	354.0	12.3	-61.7	3.6
2026-01-13 10:40:21.545861	353.9	12.1	-61.7	2.6
2026-01-13 10:40:23.781374	353.7	11.9	-63.3	6.2
2026-01-13 10:40:26.018888	353.6	11.7	-60.6	3.3
2026-01-13 10:40:28.256402	353.4	11.5	-62.4	1.4
2026-01-13 10:40:30.494924	353.3	11.3	-63.1	3.2
2026-01-13 10:40:32.737448	353.1	11.1	-60.9	0.0
2026-01-13 10:40:34.981973	353.0	10.9	-61.7	0.0
2026-01-13 10:40:37.224498	352.9	10.8	-61.7	0.5
2026-01-13 10:40:39.468511	352.7	10.6	-61.1	2.2
2026-01-13 10:40:41.712027	352.6	10.4	-63.6	1.8
2026-01-13 10:40:43.955057	352.5	10.2	-59.5	0.0
2026-01-13 10:40:46.199573	352.3	10.0	-59.5	0.0
2026-01-13 10:40:48.443087	352.2	9.8	-63.8	0.6
2026-01-13 10:40:50.682097	352.1	9.6	-63.7	0.0
2026-01-13 10:40:52.923613	351.9	9.5	-62.9	0.0
2026-01-13 10:40:55.160623	351.8	9.3	-61.5	0.0
2026-01-13 10:40:57.397632	351.7	9.1	-61.7	0.0
2026-01-13 10:40:59.635660	351.6	8.9	-62.5	0.0
2026-01-13 10:41:01.873173	351.5	8.8	-61.7	0.0
2026-01-13 10:41:04.109183	351.3	8.6	-61.8	0.0
2026-01-13 10:41:06.344697	351.2	8.4	-62.5	0.0
2026-01-13 10:41:08.579706	351.1	8.2	-62.1	0.0
2026-01-13 10:41:10.814219	351.0	8.1	-62.9	0.0
2026-01-13 10:41:13.055725	350.9	7.9	-60.8	0.0
2026-01-13 10:41:15.292735	350.8	7.7	-61.8	0.0
2026-01-13 10:41:17.529248	350.7	7.6	-62.0	0.0
2026-01-13 10:41:19.763257	350.5	7.4	-62.8	0.0
2026-01-13 10:41:21.997771	350.4	7.2	-62.7	0.0
2026-01-13 10:41:24.233275	350.3	7.1	-64.3	0.0
2026-01-13 10:41:26.467284	350.2	6.9	-65.1	0.0
2026-01-13 10:41:28.703797	350.1	6.7	-62.3	0.0
2026-01-13 10:41:30.941816	350.0	6.6	-62.1	0.0
2026-01-13 10:41:33.178329	349.9	6.4	-64.4	0.0
2026-01-13 10:41:35.413339	349.8	6.2	-63.9	0.0
2026-01-13 10:41:37.650348	349.7	6.1	-62.0	0.0
2026-01-13 10:41:39.888862	349.6	5.9	-65.6	0.0
2026-01-13 10:41:42.125383	349.5	5.8	-67.0	0.0
2026-01-13 10:41:44.359888	349.4	5.6	-67.4	0.0
2026-01-13 10:41:46.595401	349.4	5.5	-68.6	0.0
2026-01-13 10:41:48.828915	349.3	5.3	-70.1	0.0
2026-01-13 10:41:51.067925	349.2	5.1	-71.5	0.0
2026-01-13 10:41:53.302934	349.1	5.0	-70.9	0.0
#Closed at: 2026-01-13 10:29:27.393245