passes_logs/2026/01/13/PlanumMoscow/PlanumMoscow__20260113_003942_METEOR-M2_4_rec.log

#Pass ID: 20260113_003942_METEOR-M2 4
#Satellite: METEOR-M2 4
#Configuration: METEOR-M2 4
#Start time: 2026-01-13 00:39:47.292323

#LorettStation: 1.0.0 05.05.2024
#Station: PlanumMoscow
#Location: 37.6253844 lon 55.6713361 lat
#TLE: 1 59051U 24039A   25293.94737965  .00000087  00000+0  58459-4 0  9998
#TLE: 2 59051  98.6671 251.7071 0007726 135.4772 224.7028 14.22388966 85257

#Time	Az	El	Level	SNR
2026-01-13 00:43:25.753653	29.1	28.4	-64.1	12.4
2026-01-13 00:43:27.998169	29.3	28.8	-64.5	12.0
2026-01-13 00:43:30.246693	29.6	29.2	-64.4	11.9
2026-01-13 00:43:32.490705	29.8	29.6	-63.9	11.5
2026-01-13 00:43:34.734726	30.0	30.0	-63.8	11.5
2026-01-13 00:43:36.972735	30.3	30.4	-64.0	11.7
2026-01-13 00:43:39.210249	30.5	30.8	-64.5	11.5
2026-01-13 00:43:41.444266	30.8	31.2	-63.2	11.3
2026-01-13 00:43:43.679780	31.0	31.7	-64.1	11.3
2026-01-13 00:43:45.915293	31.3	32.1	-64.2	11.8
2026-01-13 00:43:48.152807	31.6	32.5	-64.2	11.2
2026-01-13 00:43:50.387824	31.9	33.0	-63.1	8.9
2026-01-13 00:43:52.627833	32.2	33.4	-63.7	11.0
2026-01-13 00:43:54.864851	32.5	33.9	-62.9	9.0
2026-01-13 00:43:57.103367	32.8	34.3	-63.6	10.9
2026-01-13 00:43:59.337880	33.1	34.8	-63.2	8.6
2026-01-13 00:44:01.574402	33.4	35.3	-63.9	9.9
2026-01-13 00:44:03.811917	33.8	35.8	-63.6	8.5
2026-01-13 00:44:06.048439	34.1	36.2	-63.6	9.9
2026-01-13 00:44:08.285449	34.5	36.7	-63.0	6.8
2026-01-13 00:44:10.521475	34.8	37.2	-62.4	7.1
2026-01-13 00:44:12.759494	35.2	37.7	-63.3	7.6
2026-01-13 00:44:14.998009	35.6	38.2	-62.8	6.4
2026-01-13 00:44:17.234018	36.0	38.8	-63.9	10.2
2026-01-13 00:44:19.469035	36.4	39.3	-62.7	7.6
2026-01-13 00:44:21.703548	36.8	39.8	-63.3	10.0
2026-01-13 00:44:23.943569	37.3	40.3	-62.8	10.8
2026-01-13 00:44:26.177083	37.7	40.9	-62.7	8.9
2026-01-13 00:44:28.411091	38.2	41.4	-61.7	7.4
2026-01-13 00:44:30.649604	38.7	42.0	-59.8	5.5
2026-01-13 00:44:32.888614	39.2	42.6	-61.5	6.5
2026-01-13 00:44:35.126128	39.7	43.1	-63.4	10.1
2026-01-13 00:44:37.364643	40.3	43.7	-63.1	8.4
2026-01-13 00:44:39.602653	40.8	44.3	-62.9	8.8
2026-01-13 00:44:41.845674	41.4	44.9	-63.7	9.0
2026-01-13 00:44:44.092696	42.0	45.4	-63.7	6.7
2026-01-13 00:44:46.334714	42.6	46.0	-62.5	5.1
2026-01-13 00:44:48.577725	43.3	46.6	-62.3	4.2
2026-01-13 00:44:50.816240	44.0	47.3	-61.6	5.6
2026-01-13 00:44:53.060251	44.7	47.9	-62.9	8.2
2026-01-13 00:44:55.303767	45.4	48.5	-63.3	7.1
2026-01-13 00:44:57.547282	46.2	49.1	-63.8	7.4
2026-01-13 00:44:59.784796	46.9	49.7	-64.7	9.4
2026-01-13 00:45:02.019310	47.8	50.3	-64.2	7.9
2026-01-13 00:45:04.263826	48.6	51.0	-63.7	6.9
2026-01-13 00:45:06.506349	49.5	51.6	-65.1	7.1
2026-01-13 00:45:08.754866	50.5	52.2	-65.0	6.9
2026-01-13 00:45:10.998877	51.4	52.9	-63.2	1.2
2026-01-13 00:45:13.241897	52.5	53.5	-65.8	7.1
2026-01-13 00:45:15.484421	53.5	54.1	-66.1	6.5
2026-01-13 00:45:17.726955	54.6	54.7	-66.0	9.0
2026-01-13 00:45:19.970974	55.8	55.4	-66.9	6.9
2026-01-13 00:45:22.214498	57.0	56.0	-66.2	6.3
2026-01-13 00:45:24.458023	58.2	56.6	-66.7	7.0
2026-01-13 00:45:26.702034	59.6	57.2	-65.8	7.9
2026-01-13 00:45:28.946045	60.9	57.8	-65.2	6.2
2026-01-13 00:45:31.188570	62.4	58.4	-66.9	9.0
2026-01-13 00:45:33.432086	63.9	59.0	-66.8	8.4
2026-01-13 00:45:35.675602	65.5	59.5	-64.7	6.5
2026-01-13 00:45:37.919117	67.1	60.1	-67.5	9.4
2026-01-13 00:45:40.161642	68.8	60.6	-67.5	9.6
2026-01-13 00:45:42.406149	70.6	61.1	-67.1	9.3
2026-01-13 00:45:44.649168	72.4	61.6	-67.4	9.8
2026-01-13 00:45:46.893180	74.4	62.1	-67.4	11.0
2026-01-13 00:45:49.137192	76.4	62.5	-67.8	10.0
2026-01-13 00:45:51.381211	78.4	62.9	-67.9	11.5
2026-01-13 00:45:53.624727	80.6	63.3	-67.8	10.7
2026-01-13 00:45:55.868250	82.8	63.6	-67.6	10.6
2026-01-13 00:45:58.112261	85.0	64.0	-67.9	10.0
2026-01-13 00:46:00.355319	87.4	64.2	-68.2	10.8
2026-01-13 00:46:02.598836	89.8	64.5	-68.1	11.3
2026-01-13 00:46:04.846361	92.2	64.7	-68.0	11.5
2026-01-13 00:46:07.088923	94.7	64.9	-68.2	12.5
2026-01-13 00:46:09.332934	97.2	65.0	-68.1	12.0
2026-01-13 00:46:11.579458	99.7	65.1	-67.9	12.2
2026-01-13 00:46:13.823976	102.2	65.1	-67.4	11.2
2026-01-13 00:46:16.067986	104.8	65.1	-68.3	11.1
2026-01-13 00:46:18.311998	107.3	65.0	-67.4	8.9
2026-01-13 00:46:20.557009	109.8	64.9	-68.9	10.7
2026-01-13 00:46:22.799531	112.3	64.8	-68.7	10.0
2026-01-13 00:46:25.043045	114.8	64.6	-68.5	10.8
2026-01-13 00:46:27.287057	117.2	64.4	-68.4	11.2
2026-01-13 00:46:29.535573	119.6	64.2	-68.8	12.2
2026-01-13 00:46:31.778097	121.9	63.9	-67.7	9.2
2026-01-13 00:46:34.022108	124.2	63.5	-68.7	12.2
2026-01-13 00:46:36.265623	126.3	63.2	-68.0	9.3
2026-01-13 00:46:38.508644	128.5	62.8	-68.9	11.4
2026-01-13 00:46:40.751663	130.5	62.3	-69.1	10.8
2026-01-13 00:46:42.996179	132.5	61.9	-68.7	11.3
2026-01-13 00:46:45.239695	134.4	61.4	-68.9	11.0
2026-01-13 00:46:47.483707	136.2	60.9	-68.7	11.7
2026-01-13 00:46:49.727223	138.0	60.4	-68.6	10.3
2026-01-13 00:46:51.970738	139.7	59.9	-68.9	12.0
2026-01-13 00:46:54.214254	141.3	59.3	-68.8	12.0
2026-01-13 00:46:56.458266	142.8	58.7	-69.0	11.6
2026-01-13 00:46:58.702277	144.3	58.2	-69.1	10.9
2026-01-13 00:47:00.945792	145.8	57.6	-68.5	11.2
2026-01-13 00:47:03.188812	147.1	57.0	-69.1	11.1
2026-01-13 00:47:05.430839	148.4	56.4	-69.3	11.7
2026-01-13 00:47:07.673858	149.7	55.7	-69.2	11.7
2026-01-13 00:47:09.917869	150.9	55.1	-69.2	12.1
2026-01-13 00:47:12.161385	152.0	54.5	-69.0	12.5
2026-01-13 00:47:14.404900	153.1	53.9	-69.0	12.2
2026-01-13 00:47:16.647425	154.1	53.2	-69.0	12.1
2026-01-13 00:47:18.891436	155.2	52.6	-68.9	12.5
2026-01-13 00:47:21.135447	156.1	52.0	-68.8	13.2
2026-01-13 00:47:23.377972	157.0	51.3	-68.7	13.6
2026-01-13 00:47:25.625507	157.9	50.7	-68.4	13.9
2026-01-13 00:47:27.869022	158.8	50.1	-68.4	13.6
2026-01-13 00:47:30.113530	159.6	49.4	-68.3	13.8
2026-01-13 00:47:32.357055	160.4	48.8	-68.3	13.6
2026-01-13 00:47:34.600074	161.1	48.2	-68.4	14.0
2026-01-13 00:47:36.843591	161.8	47.6	-68.4	13.5
2026-01-13 00:47:39.086115	162.5	47.0	-68.7	13.2
2026-01-13 00:47:41.328646	163.2	46.4	-68.6	13.2
2026-01-13 00:47:43.574162	163.8	45.8	-68.5	13.5
2026-01-13 00:47:45.818669	164.5	45.2	-68.4	13.0
2026-01-13 00:47:48.063186	165.1	44.6	-68.5	13.5
2026-01-13 00:47:50.305709	165.6	44.0	-68.2	13.0
2026-01-13 00:47:52.547738	166.2	43.4	-68.2	13.4
2026-01-13 00:47:54.790758	166.7	42.8	-68.3	13.6
2026-01-13 00:47:57.035777	167.3	42.2	-68.2	13.9
2026-01-13 00:47:59.279293	167.8	41.7	-68.1	14.7
2026-01-13 00:48:01.523304	168.2	41.1	-68.1	14.5
2026-01-13 00:48:03.767315	168.7	40.6	-68.0	14.3
2026-01-13 00:48:06.011326	169.2	40.0	-67.9	14.2
2026-01-13 00:48:08.255345	169.6	39.5	-68.0	14.5
2026-01-13 00:48:10.498364	170.0	39.0	-67.9	14.7
2026-01-13 00:48:12.742375	170.4	38.4	-67.9	13.8
2026-01-13 00:48:14.986882	170.8	37.9	-67.6	14.7
2026-01-13 00:48:17.231389	171.2	37.4	-67.4	13.6
2026-01-13 00:48:19.475896	171.6	36.9	-67.7	15.2
2026-01-13 00:48:21.718915	172.0	36.4	-67.5	13.9
2026-01-13 00:48:23.963422	172.3	35.9	-67.4	15.1
2026-01-13 00:48:26.207929	172.6	35.4	-67.7	13.8
2026-01-13 00:48:28.450950	173.0	34.9	-67.5	14.5
2026-01-13 00:48:30.697457	173.3	34.5	-67.5	15.4
2026-01-13 00:48:32.941964	173.6	34.0	-67.5	14.6
2026-01-13 00:48:35.186471	173.9	33.5	-67.4	15.3
2026-01-13 00:48:37.434979	174.2	33.1	-66.8	14.2
2026-01-13 00:48:39.678990	174.5	32.6	-67.6	15.2
2026-01-13 00:48:41.923496	174.8	32.2	-67.2	15.3
2026-01-13 00:48:44.168003	175.1	31.7	-67.0	15.0
2026-01-13 00:48:46.414519	175.3	31.3	-66.9	14.8
2026-01-13 00:48:48.659026	175.6	30.9	-67.0	14.7
2026-01-13 00:48:50.903533	175.9	30.5	-67.1	15.3
2026-01-13 00:48:53.147544	176.1	30.1	-66.8	15.7
2026-01-13 00:48:55.392051	176.3	29.6	-66.9	15.7
2026-01-13 00:48:57.636558	176.6	29.2	-66.6	14.6
2026-01-13 00:48:59.881064	176.8	28.8	-67.0	15.7
2026-01-13 00:49:02.125075	177.0	28.4	-66.9	15.4
2026-01-13 00:49:04.369581	177.3	28.1	-67.0	15.6
2026-01-13 00:49:06.613593	177.5	27.7	-67.1	15.4
2026-01-13 00:49:08.858604	177.7	27.3	-67.1	15.6
2026-01-13 00:49:11.103111	177.9	26.9	-66.9	16.1
2026-01-13 00:49:13.347618	178.1	26.5	-66.9	15.8
2026-01-13 00:49:15.592124	178.3	26.2	-66.8	15.2
2026-01-13 00:49:17.841632	178.5	25.8	-66.8	14.7
2026-01-13 00:49:20.086139	178.7	25.5	-66.8	13.6
2026-01-13 00:49:22.330655	178.8	25.1	-67.0	14.8
2026-01-13 00:49:24.574667	179.0	24.8	-66.7	14.6
2026-01-13 00:49:26.818678	179.2	24.4	-66.9	15.2
2026-01-13 00:49:29.062688	179.4	24.1	-66.8	14.7
2026-01-13 00:49:31.307195	179.5	23.7	-66.8	14.4
2026-01-13 00:49:33.551207	179.7	23.4	-67.1	15.2
2026-01-13 00:49:35.795218	179.9	23.1	-67.1	14.8
2026-01-13 00:49:38.039229	180.0	22.8	-66.9	15.1
2026-01-13 00:49:40.283240	180.2	22.4	-67.2	14.9
2026-01-13 00:49:42.527250	180.3	22.1	-66.9	14.4
2026-01-13 00:49:44.771757	180.5	21.8	-67.4	14.3
2026-01-13 00:49:47.016264	180.6	21.5	-67.1	14.0
2026-01-13 00:49:49.260770	180.8	21.2	-67.2	14.4
2026-01-13 00:49:51.504790	180.9	20.9	-67.2	14.1
2026-01-13 00:49:53.750803	181.1	20.6	-67.2	13.7
2026-01-13 00:49:55.995309	181.2	20.3	-67.5	14.3
2026-01-13 00:49:58.238825	181.3	20.0	-67.1	13.7
2026-01-13 00:50:00.484331	181.5	19.7	-67.2	14.1
2026-01-13 00:50:02.728838	181.6	19.5	-67.3	14.4
2026-01-13 00:50:04.973345	181.7	19.2	-67.0	14.3
2026-01-13 00:50:07.216365	181.9	18.9	-67.1	14.2
2026-01-13 00:50:09.460872	182.0	18.6	-67.4	15.2
2026-01-13 00:50:11.705378	182.1	18.3	-67.3	14.9
2026-01-13 00:50:13.948893	182.2	18.1	-67.4	14.6
2026-01-13 00:50:16.193400	182.3	17.8	-66.8	13.8
2026-01-13 00:50:18.437907	182.4	17.5	-66.7	13.5
2026-01-13 00:50:20.681918	182.6	17.3	-67.3	14.3
2026-01-13 00:50:22.928425	182.7	17.0	-67.1	13.7
2026-01-13 00:50:25.172932	182.8	16.8	-67.3	14.1
2026-01-13 00:50:27.417439	182.9	16.5	-67.3	13.1
2026-01-13 00:50:29.661946	183.0	16.3	-67.4	13.4
2026-01-13 00:50:31.905462	183.1	16.0	-67.1	13.2
2026-01-13 00:50:34.149969	183.2	15.8	-67.6	13.7
2026-01-13 00:50:36.395476	183.3	15.5	-66.7	12.6
2026-01-13 00:50:38.638993	183.4	15.3	-67.6	13.2
2026-01-13 00:50:40.883500	183.5	15.0	-67.2	12.8
2026-01-13 00:50:43.128007	183.6	14.8	-67.0	13.3
2026-01-13 00:50:45.372018	183.7	14.6	-67.4	13.0
2026-01-13 00:50:47.615038	183.8	14.3	-67.2	13.2
2026-01-13 00:50:49.859545	183.9	14.1	-67.2	13.0
2026-01-13 00:50:52.104061	184.0	13.9	-67.4	12.5
2026-01-13 00:50:54.348102	184.1	13.7	-67.5	13.1
2026-01-13 00:50:56.595123	184.2	13.4	-67.1	12.5
2026-01-13 00:50:58.839675	184.2	13.2	-66.8	11.8
2026-01-13 00:51:01.084182	184.3	13.0	-67.7	12.9
2026-01-13 00:51:03.328193	184.4	12.8	-67.4	12.6
2026-01-13 00:51:05.572700	184.5	12.6	-67.0	11.5
2026-01-13 00:51:07.818207	184.6	12.3	-67.5	12.5
2026-01-13 00:51:10.062714	184.7	12.1	-67.3	11.9
2026-01-13 00:51:12.308221	184.7	11.9	-66.7	10.2
2026-01-13 00:51:14.552728	184.8	11.7	-67.5	12.6
2026-01-13 00:51:16.797235	184.9	11.5	-67.2	12.0
2026-01-13 00:51:19.041742	185.0	11.3	-66.7	11.1
2026-01-13 00:51:21.286753	185.1	11.1	-66.9	11.2
2026-01-13 00:51:23.531260	185.1	10.9	-67.4	12.5
2026-01-13 00:51:25.775767	185.2	10.7	-67.5	11.5
2026-01-13 00:51:28.021778	185.3	10.5	-67.3	11.1
2026-01-13 00:51:30.266285	185.4	10.3	-67.3	11.7
2026-01-13 00:51:32.510793	185.4	10.1	-67.3	9.8
2026-01-13 00:51:34.755299	185.5	9.9	-67.8	11.0
2026-01-13 00:51:36.998815	185.6	9.7	-67.4	11.2
2026-01-13 00:51:39.243322	185.6	9.5	-67.3	11.3
2026-01-13 00:51:41.487333	185.7	9.3	-67.2	10.8
2026-01-13 00:51:43.731344	185.8	9.1	-66.9	10.6
2026-01-13 00:51:45.977851	185.8	9.0	-67.0	10.3
2026-01-13 00:51:48.222358	185.9	8.8	-67.2	10.5
2026-01-13 00:51:50.466865	186.0	8.6	-67.0	10.9
2026-01-13 00:51:52.710876	186.0	8.4	-67.2	10.1
2026-01-13 00:51:54.955383	186.1	8.2	-67.6	10.3
2026-01-13 00:51:57.199891	186.2	8.0	-67.4	10.1
2026-01-13 00:51:59.444397	186.2	7.9	-67.4	10.8
2026-01-13 00:52:01.691914	186.3	7.7	-67.6	9.5
2026-01-13 00:52:03.935429	186.4	7.5	-67.5	9.1
2026-01-13 00:52:06.179937	186.4	7.3	-67.6	10.5
2026-01-13 00:52:08.424443	186.5	7.2	-67.4	9.7
2026-01-13 00:52:10.670455	186.5	7.0	-67.5	9.4
2026-01-13 00:52:12.914962	186.6	6.8	-67.4	9.4
2026-01-13 00:52:15.159469	186.7	6.6	-67.2	9.5
2026-01-13 00:52:17.403975	186.7	6.5	-67.1	9.5
2026-01-13 00:52:19.647491	186.8	6.3	-66.8	8.7
2026-01-13 00:52:21.891997	186.8	6.1	-66.9	9.7
2026-01-13 00:52:24.136008	186.9	6.0	-67.3	8.8
2026-01-13 00:52:26.380516	186.9	5.8	-71.6	0.0
2026-01-13 00:52:28.629528	187.0	5.6	-72.2	0.0
2026-01-13 00:52:30.873586	187.0	5.5	-72.1	0.0
2026-01-13 00:52:33.117606	187.1	5.3	-72.7	0.0
2026-01-13 00:52:35.361121	187.2	5.2	-73.1	0.0
2026-01-13 00:52:37.605680	187.2	5.0	-72.3	0.0
#Closed at: 2026-01-13 00:39:42.294804