passes_logs/2026/01/13/PlanumMoscow/PlanumMoscow__20260113_071805_METOP-C_rec.log

#Pass ID: 20260113_071805_METOP-C
#Satellite: METOP-C
#Configuration: METOP-C
#Start time: 2026-01-13 07:18:10.695296

#LorettStation: 1.0.0 05.05.2024
#Station: PlanumMoscow
#Location: 37.6253844 lon 55.6713361 lat
#TLE: 1 43689U 18087A   25293.88981035  .00000265  00000+0  14109-3 0  9997
#TLE: 2 43689  98.7006 352.4487 0002041 122.1097 238.0279 14.21482740360838

#Time	Az	El	Level	SNR
2026-01-13 07:21:49.120493	32.3	28.0	-65.5	0.0
2026-01-13 07:21:51.364504	32.6	28.3	-65.6	0.0
2026-01-13 07:21:53.608020	32.9	28.7	-66.1	0.0
2026-01-13 07:21:55.851038	33.1	29.1	-65.6	0.0
2026-01-13 07:21:58.093066	33.4	29.5	-65.0	0.0
2026-01-13 07:22:00.336087	33.7	29.9	-65.2	0.0
2026-01-13 07:22:02.581612	34.0	30.3	-64.8	0.0
2026-01-13 07:22:04.825127	34.3	30.7	-65.0	0.0
2026-01-13 07:22:07.069634	34.7	31.1	-65.0	0.0
2026-01-13 07:22:09.313150	35.0	31.5	-65.1	0.0
2026-01-13 07:22:11.559168	35.3	31.9	-65.3	0.0
2026-01-13 07:22:13.803179	35.7	32.3	-64.2	0.0
2026-01-13 07:22:16.046199	36.0	32.7	-64.6	0.0
2026-01-13 07:22:18.290210	36.4	33.2	-64.3	0.0
2026-01-13 07:22:20.533231	36.8	33.6	-64.9	0.0
2026-01-13 07:22:22.775756	37.2	34.0	-64.3	0.0
2026-01-13 07:22:25.020775	37.6	34.5	-63.0	0.0
2026-01-13 07:22:27.263794	38.0	34.9	-63.1	0.0
2026-01-13 07:22:29.506317	38.4	35.4	-62.5	0.0
2026-01-13 07:22:31.748344	38.8	35.8	-62.6	0.0
2026-01-13 07:22:33.991867	39.2	36.3	-62.1	0.0
2026-01-13 07:22:36.235878	39.7	36.8	-62.1	0.0
2026-01-13 07:22:38.479889	40.2	37.2	-62.2	0.0
2026-01-13 07:22:40.723899	40.6	37.7	-62.3	0.0
2026-01-13 07:22:42.967413	41.1	38.2	-60.9	0.0
2026-01-13 07:22:45.211424	41.6	38.7	-62.2	0.0
2026-01-13 07:22:47.455940	42.2	39.2	-61.2	0.0
2026-01-13 07:22:49.699456	42.7	39.7	-61.3	0.0
2026-01-13 07:22:51.943476	43.2	40.2	-61.4	0.0
2026-01-13 07:22:54.187983	43.8	40.7	-61.3	0.0
2026-01-13 07:22:56.430010	44.4	41.2	-61.8	0.0
2026-01-13 07:22:58.673028	45.0	41.7	-60.8	0.0
2026-01-13 07:23:00.917552	45.6	42.2	-60.9	0.0
2026-01-13 07:23:03.160076	46.3	42.7	-61.3	0.0
2026-01-13 07:23:05.404086	47.0	43.3	-61.3	0.0
2026-01-13 07:23:07.647602	47.7	43.8	-61.6	0.0
2026-01-13 07:23:09.890631	48.4	44.3	-60.9	0.0
2026-01-13 07:23:12.134642	49.1	44.9	-59.8	0.0
2026-01-13 07:23:14.379158	49.9	45.4	-61.3	0.0
2026-01-13 07:23:16.622674	50.7	45.9	-60.3	0.0
2026-01-13 07:23:18.865691	51.5	46.5	-60.7	0.0
2026-01-13 07:23:21.109703	52.3	47.0	-61.5	0.0
2026-01-13 07:23:23.352225	53.2	47.5	-61.6	0.0
2026-01-13 07:23:25.596236	54.1	48.1	-61.5	0.0
2026-01-13 07:23:27.840247	55.0	48.6	-63.0	0.0
2026-01-13 07:23:30.084754	56.0	49.1	-62.3	0.0
2026-01-13 07:23:32.327773	57.0	49.7	-61.4	0.0
2026-01-13 07:23:34.570298	58.0	50.2	-62.6	0.0
2026-01-13 07:23:36.814309	59.1	50.7	-63.8	0.0
2026-01-13 07:23:39.058321	60.2	51.2	-61.9	0.0
2026-01-13 07:23:41.302847	61.4	51.8	-62.2	0.0
2026-01-13 07:23:43.545380	62.5	52.3	-62.6	0.0
2026-01-13 07:23:45.787902	63.8	52.8	-63.2	0.0
2026-01-13 07:23:48.032417	65.0	53.2	-62.7	0.0
2026-01-13 07:23:50.276943	66.4	53.7	-64.2	0.0
2026-01-13 07:23:52.520467	67.7	54.2	-64.6	0.0
2026-01-13 07:23:54.762990	69.1	54.7	-64.5	0.0
2026-01-13 07:23:57.005520	70.6	55.1	-64.6	0.0
2026-01-13 07:23:59.249044	72.1	55.5	-64.6	0.0
2026-01-13 07:24:01.492568	73.6	55.9	-65.4	0.0
2026-01-13 07:24:03.736084	75.2	56.3	-64.2	0.0
2026-01-13 07:24:05.979599	76.8	56.7	-64.6	0.0
2026-01-13 07:24:08.224106	78.5	57.1	-65.0	0.0
2026-01-13 07:24:10.467127	80.2	57.4	-64.3	0.0
2026-01-13 07:24:12.711138	81.9	57.7	-64.9	0.0
2026-01-13 07:24:14.953661	83.7	58.0	-64.7	0.0
2026-01-13 07:24:17.195690	85.6	58.3	-63.8	0.0
2026-01-13 07:24:19.439710	87.4	58.5	-64.1	0.0
2026-01-13 07:24:21.682234	89.3	58.7	-65.2	0.0
2026-01-13 07:24:23.926245	91.3	58.9	-64.5	0.0
2026-01-13 07:24:26.168769	93.2	59.1	-65.7	0.0
2026-01-13 07:24:28.412780	95.2	59.2	-65.2	0.0
2026-01-13 07:24:30.661297	97.2	59.3	-65.4	0.0
2026-01-13 07:24:32.905308	99.2	59.3	-65.2	0.0
2026-01-13 07:24:35.149319	101.2	59.4	-65.2	0.0
2026-01-13 07:24:37.392338	103.2	59.4	-64.5	0.0
2026-01-13 07:24:39.636359	105.2	59.3	-65.5	0.0
2026-01-13 07:24:41.880370	107.2	59.2	-65.1	0.0
2026-01-13 07:24:44.124877	109.2	59.2	-64.7	0.0
2026-01-13 07:24:46.368410	111.1	59.0	-66.3	0.0
2026-01-13 07:24:48.612917	113.1	58.9	-65.0	0.0
2026-01-13 07:24:50.856926	115.0	58.7	-66.0	0.0
2026-01-13 07:24:53.100939	116.9	58.5	-65.9	0.0
2026-01-13 07:24:55.344958	118.8	58.2	-66.2	0.0
2026-01-13 07:24:57.588969	120.6	57.9	-66.3	0.0
2026-01-13 07:24:59.830006	122.4	57.7	-66.7	0.0
2026-01-13 07:25:02.074016	124.1	57.3	-66.9	0.0
2026-01-13 07:25:04.318027	125.8	57.0	-67.0	0.0
2026-01-13 07:25:06.559038	127.5	56.6	-67.4	0.0
2026-01-13 07:25:08.797047	129.1	56.3	-67.6	0.0
2026-01-13 07:25:11.038580	130.7	55.9	-67.6	0.0
2026-01-13 07:25:13.283087	132.2	55.4	-67.4	0.0
2026-01-13 07:25:15.527098	133.7	55.0	-67.9	0.0
2026-01-13 07:25:17.769118	135.2	54.6	-67.8	0.0
2026-01-13 07:25:20.011137	136.5	54.1	-68.2	0.0
2026-01-13 07:25:22.245145	137.9	53.6	-68.7	0.0
2026-01-13 07:25:24.486661	139.2	53.1	-68.8	0.0
2026-01-13 07:25:26.730177	140.5	52.6	-69.2	0.0
2026-01-13 07:25:28.969690	141.7	52.1	-69.5	0.0
2026-01-13 07:25:31.203195	142.9	51.6	-69.6	0.0
2026-01-13 07:25:33.438204	144.0	51.1	-69.7	0.0
2026-01-13 07:25:35.678710	145.1	50.6	-69.4	0.0
2026-01-13 07:25:37.913246	146.2	50.1	-69.6	1.3
2026-01-13 07:25:40.148271	147.2	49.5	-69.7	1.3
2026-01-13 07:25:42.387785	148.2	49.0	-69.7	1.0
2026-01-13 07:25:44.620793	149.2	48.5	-69.7	0.0
2026-01-13 07:25:46.855306	150.1	47.9	-69.8	0.0
2026-01-13 07:25:49.092324	151.0	47.4	-69.7	2.2
2026-01-13 07:25:51.326837	151.8	46.9	-69.5	0.0
2026-01-13 07:25:53.564359	152.7	46.3	-69.8	0.6
2026-01-13 07:25:55.798871	153.5	45.8	-69.6	2.2
2026-01-13 07:25:58.033897	154.3	45.3	-69.4	1.0
2026-01-13 07:26:00.267409	155.0	44.7	-69.5	0.0
2026-01-13 07:26:02.500427	155.8	44.2	-69.3	0.0
2026-01-13 07:26:04.733940	156.5	43.7	-69.1	0.6
2026-01-13 07:26:06.968453	157.2	43.1	-68.9	0.0
2026-01-13 07:26:09.205470	157.8	42.6	-69.6	0.9
2026-01-13 07:26:11.438478	158.5	42.1	-69.5	0.0
2026-01-13 07:26:13.671494	159.1	41.6	-68.9	0.0
2026-01-13 07:26:15.905017	159.7	41.1	-68.3	0.0
2026-01-13 07:26:18.139521	160.3	40.5	-69.1	0.0
2026-01-13 07:26:20.373537	160.8	40.0	-68.5	0.0
2026-01-13 07:26:22.609546	161.4	39.5	-68.5	0.0
2026-01-13 07:26:24.841050	161.9	39.0	-68.5	0.0
2026-01-13 07:26:27.076571	162.4	38.6	-68.8	0.0
2026-01-13 07:26:29.314098	162.9	38.1	-68.8	0.0
2026-01-13 07:26:31.553622	163.4	37.6	-69.0	0.0
2026-01-13 07:26:33.797634	163.9	37.1	-69.2	0.0
2026-01-13 07:26:36.038662	164.4	36.6	-68.4	0.0
2026-01-13 07:26:38.280194	164.8	36.2	-68.8	0.0
2026-01-13 07:26:40.520716	165.3	35.7	-68.8	0.0
2026-01-13 07:26:42.764232	165.7	35.2	-69.4	0.0
2026-01-13 07:26:45.006754	166.1	34.8	-69.2	0.0
2026-01-13 07:26:47.250270	166.5	34.3	-69.3	0.0
2026-01-13 07:26:49.487775	166.9	33.9	-69.1	0.0
2026-01-13 07:26:51.732787	167.3	33.4	-68.6	0.0
2026-01-13 07:26:53.974806	167.7	33.0	-69.3	0.0
2026-01-13 07:26:56.215321	168.0	32.6	-68.8	0.0
2026-01-13 07:26:58.452331	168.4	32.1	-69.4	0.0
2026-01-13 07:27:00.690357	168.7	31.7	-68.7	0.0
2026-01-13 07:27:02.928871	169.0	31.3	-68.7	0.0
2026-01-13 07:27:05.162385	169.4	30.9	-69.1	0.0
2026-01-13 07:27:07.394393	169.7	30.5	-68.7	0.0
2026-01-13 07:27:09.629898	170.0	30.1	-69.6	0.0
2026-01-13 07:27:11.865403	170.3	29.7	-69.3	0.0
2026-01-13 07:27:14.100419	170.6	29.3	-69.1	0.0
2026-01-13 07:27:16.333428	170.9	28.9	-69.0	0.0
2026-01-13 07:27:18.568453	171.2	28.5	-68.7	0.0
2026-01-13 07:27:20.800478	171.5	28.2	-69.3	0.0
2026-01-13 07:27:23.034495	171.7	27.8	-68.3	0.0
2026-01-13 07:27:25.273028	172.0	27.4	-68.5	0.0
2026-01-13 07:27:27.507037	172.2	27.1	-68.9	0.0
2026-01-13 07:27:29.738046	172.5	26.7	-68.3	0.0
2026-01-13 07:27:31.971053	172.7	26.3	-68.8	0.0
2026-01-13 07:27:34.202063	173.0	26.0	-68.8	0.0
2026-01-13 07:27:36.437576	173.2	25.6	-68.2	0.0
2026-01-13 07:27:38.670592	173.5	25.3	-68.6	0.0
2026-01-13 07:27:40.902608	173.7	25.0	-68.3	0.0
2026-01-13 07:27:43.137617	173.9	24.6	-68.1	0.0
2026-01-13 07:27:45.373131	174.1	24.3	-68.3	0.0
2026-01-13 07:27:47.607148	174.3	24.0	-68.3	0.0
2026-01-13 07:27:49.840661	174.6	23.6	-68.3	1.3
2026-01-13 07:27:52.075670	174.8	23.3	-67.3	2.0
2026-01-13 07:27:54.311184	175.0	23.0	-66.9	0.0
2026-01-13 07:27:56.547211	175.2	22.7	-67.1	0.6
2026-01-13 07:27:58.791222	175.4	22.4	-67.2	0.6
2026-01-13 07:28:01.034232	175.5	22.1	-66.5	2.2
2026-01-13 07:28:03.276738	175.7	21.8	-67.2	3.0
2026-01-13 07:28:05.517261	175.9	21.5	-66.9	2.5
2026-01-13 07:28:07.759291	176.1	21.2	-66.8	0.2
2026-01-13 07:28:10.002321	176.3	20.9	-66.7	2.6
2026-01-13 07:28:12.245837	176.4	20.6	-66.2	3.7
2026-01-13 07:28:14.491344	176.6	20.3	-66.3	3.0
2026-01-13 07:28:16.733354	176.8	20.0	-66.0	3.4
2026-01-13 07:28:18.975869	177.0	19.7	-66.2	3.3
2026-01-13 07:28:21.219384	177.1	19.4	-66.1	4.4
2026-01-13 07:28:23.456394	177.3	19.2	-65.8	3.3
2026-01-13 07:28:25.692411	177.4	18.9	-64.8	0.0
2026-01-13 07:28:27.928925	177.6	18.6	-66.1	1.4
2026-01-13 07:28:30.163934	177.7	18.4	-66.2	2.3
2026-01-13 07:28:32.397447	177.9	18.1	-65.9	0.4
2026-01-13 07:28:34.633465	178.0	17.8	-66.2	3.4
2026-01-13 07:28:36.867978	178.2	17.6	-65.9	2.9
2026-01-13 07:28:39.102997	178.3	17.3	-65.5	2.7
2026-01-13 07:28:41.339015	178.5	17.1	-65.8	2.0
2026-01-13 07:28:43.573519	178.6	16.8	-65.8	3.0
2026-01-13 07:28:45.808528	178.7	16.6	-65.7	1.7
2026-01-13 07:28:48.044049	178.9	16.3	-65.8	2.2
2026-01-13 07:28:50.276066	179.0	16.1	-65.8	2.6
2026-01-13 07:28:52.515580	179.1	15.8	-64.8	1.8
2026-01-13 07:28:54.750093	179.2	15.6	-63.3	0.0
2026-01-13 07:28:56.984102	179.4	15.4	-65.4	3.1
2026-01-13 07:28:59.220121	179.5	15.1	-64.9	3.6
2026-01-13 07:29:01.458634	179.6	14.9	-61.3	0.0
2026-01-13 07:29:03.694139	179.7	14.7	-64.4	2.2
2026-01-13 07:29:05.928660	179.8	14.4	-65.0	3.9
2026-01-13 07:29:08.165670	180.0	14.2	-64.7	3.9
2026-01-13 07:29:10.398678	180.1	14.0	-65.1	1.3
2026-01-13 07:29:12.636193	180.2	13.8	-64.4	4.2
2026-01-13 07:29:14.869210	180.3	13.5	-63.6	0.0
2026-01-13 07:29:17.107715	180.4	13.3	-64.7	2.6
2026-01-13 07:29:19.340228	180.5	13.1	-64.8	3.2
2026-01-13 07:29:21.576733	180.6	12.9	-65.3	3.7
2026-01-13 07:29:23.816256	180.7	12.7	-64.9	1.2
2026-01-13 07:29:26.061267	180.8	12.5	-64.4	2.2
2026-01-13 07:29:28.305277	180.9	12.2	-63.9	0.3
2026-01-13 07:29:30.549793	181.0	12.0	-64.8	1.6
2026-01-13 07:29:32.793804	181.1	11.8	-64.3	1.6
2026-01-13 07:29:35.036824	181.2	11.6	-64.4	2.2
2026-01-13 07:29:37.280340	181.3	11.4	-64.2	3.3
2026-01-13 07:29:39.520352	181.4	11.2	-63.9	3.4
2026-01-13 07:29:41.759876	181.5	11.0	-63.7	2.5
2026-01-13 07:29:44.001382	181.6	10.8	-63.5	2.9
2026-01-13 07:29:46.241904	181.7	10.6	-64.2	2.6
2026-01-13 07:29:48.479928	181.8	10.4	-63.6	0.0
2026-01-13 07:29:50.714436	181.9	10.2	-64.4	3.3
2026-01-13 07:29:52.952445	182.0	10.0	-64.1	0.3
2026-01-13 07:29:55.190950	182.1	9.8	-64.1	0.0
2026-01-13 07:29:57.426464	182.2	9.7	-64.0	0.7
2026-01-13 07:29:59.663977	182.2	9.5	-63.5	0.0
2026-01-13 07:30:01.897499	182.3	9.3	-64.3	3.4
2026-01-13 07:30:04.141510	182.4	9.1	-63.8	0.8
2026-01-13 07:30:06.385024	182.5	8.9	-63.4	0.0
2026-01-13 07:30:08.629035	182.6	8.7	-62.0	0.0
2026-01-13 07:30:10.872054	182.7	8.5	-63.8	0.0
2026-01-13 07:30:13.118580	182.7	8.4	-62.9	0.0
2026-01-13 07:30:15.362591	182.8	8.2	-62.5	0.0
2026-01-13 07:30:17.605610	182.9	8.0	-63.7	1.6
2026-01-13 07:30:19.850116	183.0	7.8	-63.7	0.0
2026-01-13 07:30:22.091656	183.1	7.6	-64.2	1.7
2026-01-13 07:30:24.334676	183.1	7.5	-63.5	0.0
2026-01-13 07:30:26.578687	183.2	7.3	-63.2	1.5
2026-01-13 07:30:28.822698	183.3	7.1	-63.4	0.0
2026-01-13 07:30:31.066709	183.3	7.0	-63.0	0.0
2026-01-13 07:30:33.309232	183.4	6.8	-62.9	0.0
2026-01-13 07:30:35.552748	183.5	6.6	-63.4	0.0
2026-01-13 07:30:37.796759	183.6	6.4	-63.4	0.0
2026-01-13 07:30:40.040771	183.6	6.3	-62.7	0.0
2026-01-13 07:30:42.284782	183.7	6.1	-62.6	0.0
2026-01-13 07:30:44.528793	183.8	6.0	-63.7	2.0
2026-01-13 07:30:46.771823	183.8	5.8	-70.1	0.0
2026-01-13 07:30:49.015338	183.9	5.6	-70.6	0.0
2026-01-13 07:30:51.259845	184.0	5.5	-69.2	0.0
2026-01-13 07:30:53.502864	184.0	5.3	-70.3	0.0
2026-01-13 07:30:55.746379	184.1	5.1	-71.1	0.0
2026-01-13 07:30:57.990391	184.2	5.0	-71.5	0.0
#Closed at: 2026-01-13 07:18:05.696504