passes_logs/2026/01/13/PlanumMoscow/PlanumMoscow__20260113_075401_METEOR-M2_3_rec.log

#Pass ID: 20260113_075401_METEOR-M2 3
#Satellite: METEOR-M2 3
#Configuration: METEOR-M2 3
#Start time: 2026-01-13 07:54:06.526075

#LorettStation: 1.0.0 05.05.2024
#Station: PlanumMoscow
#Location: 37.6253844 lon 55.6713361 lat
#TLE: 1 57166U 23091A   25293.99389264  .00000062  00000+0  46113-4 0  9997
#TLE: 2 57166  98.6457 348.4330 0004759 135.3141 224.8422 14.24016546120475

#Time	Az	El	Level	SNR
2026-01-13 07:57:44.986601	3.1	28.6	-59.5	5.9
2026-01-13 07:57:47.224620	2.8	29.0	-59.7	6.3
2026-01-13 07:57:49.468136	2.6	29.4	-59.3	6.3
2026-01-13 07:57:51.716644	2.3	29.8	-58.8	4.6
2026-01-13 07:57:53.959666	2.1	30.2	-60.4	7.3
2026-01-13 07:57:56.202685	1.8	30.6	-60.8	8.0
2026-01-13 07:57:58.445713	1.5	31.1	-60.8	7.6
2026-01-13 07:58:00.687724	1.2	31.5	-60.6	7.8
2026-01-13 07:58:02.930743	0.9	31.9	-60.0	7.9
2026-01-13 07:58:05.170258	0.6	32.3	-59.5	7.0
2026-01-13 07:58:07.408764	0.3	32.8	-61.0	6.8
2026-01-13 07:58:09.651280	0.0	33.2	-61.2	6.5
2026-01-13 07:58:11.889299	359.7	33.7	-61.5	8.2
2026-01-13 07:58:14.132320	359.3	34.1	-60.4	6.3
2026-01-13 07:58:16.380339	359.0	34.6	-60.7	6.8
2026-01-13 07:58:18.617854	358.6	35.1	-59.9	5.2
2026-01-13 07:58:20.855872	358.3	35.5	-61.7	6.6
2026-01-13 07:58:23.098883	357.9	36.0	-60.6	5.8
2026-01-13 07:58:25.335397	357.5	36.5	-61.3	4.3
2026-01-13 07:58:27.571912	357.1	37.0	-62.3	7.0
2026-01-13 07:58:29.811922	356.7	37.5	-61.2	7.1
2026-01-13 07:58:32.051940	356.3	38.0	-62.7	9.2
2026-01-13 07:58:34.285958	355.8	38.5	-62.3	7.4
2026-01-13 07:58:36.521462	355.4	39.0	-62.4	6.5
2026-01-13 07:58:38.761482	354.9	39.5	-62.6	7.3
2026-01-13 07:58:41.000493	354.4	40.0	-63.5	9.6
2026-01-13 07:58:43.240503	353.9	40.6	-63.7	8.7
2026-01-13 07:58:45.477017	353.4	41.1	-63.4	9.8
2026-01-13 07:58:47.717036	352.8	41.6	-63.5	9.2
2026-01-13 07:58:49.957055	352.3	42.2	-62.8	9.9
2026-01-13 07:58:52.190568	351.7	42.7	-63.4	10.6
2026-01-13 07:58:54.429587	351.1	43.3	-64.2	10.4
2026-01-13 07:58:56.669101	350.5	43.8	-64.5	11.4
2026-01-13 07:58:58.908120	349.9	44.4	-64.0	11.8
2026-01-13 07:59:01.150635	349.2	45.0	-64.5	11.7
2026-01-13 07:59:03.384651	348.5	45.5	-64.5	11.0
2026-01-13 07:59:05.621669	347.8	46.1	-64.9	11.4
2026-01-13 07:59:07.861194	347.1	46.7	-65.2	11.3
2026-01-13 07:59:10.100706	346.3	47.3	-65.6	11.6
2026-01-13 07:59:12.338220	345.5	47.8	-65.4	11.1
2026-01-13 07:59:14.576725	344.7	48.4	-65.3	10.3
2026-01-13 07:59:16.815231	343.8	49.0	-65.6	12.0
2026-01-13 07:59:19.055737	342.9	49.6	-65.8	9.6
2026-01-13 07:59:21.290764	342.0	50.2	-65.3	10.4
2026-01-13 07:59:23.528792	341.0	50.8	-65.1	11.3
2026-01-13 07:59:25.765306	340.0	51.3	-65.2	11.2
2026-01-13 07:59:28.005822	339.0	51.9	-65.5	12.8
2026-01-13 07:59:30.242327	337.9	52.5	-65.4	12.9
2026-01-13 07:59:32.476831	336.8	53.1	-64.5	9.7
2026-01-13 07:59:34.713336	335.6	53.6	-64.5	9.5
2026-01-13 07:59:36.955852	334.4	54.2	-64.4	8.2
2026-01-13 07:59:39.199375	333.1	54.7	-64.9	9.7
2026-01-13 07:59:41.442395	331.8	55.3	-64.0	7.8
2026-01-13 07:59:43.685919	330.4	55.8	-64.2	9.3
2026-01-13 07:59:45.928939	329.0	56.3	-64.2	9.1
2026-01-13 07:59:48.166949	327.5	56.9	-64.7	10.7
2026-01-13 07:59:50.402463	325.9	57.3	-64.7	10.1
2026-01-13 07:59:52.639474	324.4	57.8	-64.4	10.2
2026-01-13 07:59:54.877987	322.7	58.3	-64.2	9.3
2026-01-13 07:59:57.112501	321.0	58.7	-65.5	9.8
2026-01-13 07:59:59.348015	319.2	59.1	-65.6	9.0
2026-01-13 08:00:01.587025	317.4	59.5	-64.6	7.2
2026-01-13 08:00:03.829549	315.6	59.9	-64.8	7.2
2026-01-13 08:00:06.073065	313.6	60.3	-65.9	8.9
2026-01-13 08:00:08.316581	311.6	60.6	-66.0	8.1
2026-01-13 08:00:10.559612	309.6	60.9	-65.0	5.6
2026-01-13 08:00:12.806648	307.5	61.1	-65.5	7.9
2026-01-13 08:00:15.048679	305.4	61.3	-66.0	6.5
2026-01-13 08:00:17.290212	303.3	61.5	-65.1	5.4
2026-01-13 08:00:19.533243	301.1	61.7	-65.6	7.5
2026-01-13 08:00:21.777786	298.9	61.8	-65.4	8.3
2026-01-13 08:00:24.020310	296.7	61.9	-64.4	7.2
2026-01-13 08:00:26.264321	294.4	61.9	-64.2	8.7
2026-01-13 08:00:28.506350	292.2	61.9	-64.7	6.5
2026-01-13 08:00:30.750362	289.9	61.9	-64.0	7.1
2026-01-13 08:00:32.994373	287.7	61.8	-64.6	7.9
2026-01-13 08:00:35.237907	285.5	61.7	-65.2	8.6
2026-01-13 08:00:37.481422	283.3	61.6	-64.8	8.3
2026-01-13 08:00:39.724453	281.1	61.4	-64.7	7.4
2026-01-13 08:00:41.967473	279.0	61.2	-64.7	7.4
2026-01-13 08:00:44.211484	276.9	61.0	-65.4	9.2
2026-01-13 08:00:46.457504	274.9	60.7	-64.9	8.6
2026-01-13 08:00:48.702011	272.9	60.4	-63.9	8.0
2026-01-13 08:00:50.946022	270.9	60.0	-64.7	8.2
2026-01-13 08:00:53.187556	269.0	59.7	-64.3	7.6
2026-01-13 08:00:55.430576	267.2	59.3	-64.2	7.0
2026-01-13 08:00:57.674586	265.4	58.9	-64.7	5.2
2026-01-13 08:00:59.918100	263.6	58.4	-64.7	7.4
2026-01-13 08:01:02.161616	262.0	58.0	-63.5	3.4
2026-01-13 08:01:04.406636	260.3	57.5	-64.4	8.1
2026-01-13 08:01:06.648675	258.8	57.0	-62.0	6.1
2026-01-13 08:01:08.891704	257.3	56.5	-63.8	7.5
2026-01-13 08:01:11.136725	255.8	56.0	-63.3	8.0
2026-01-13 08:01:13.380737	254.4	55.5	-63.1	7.6
2026-01-13 08:01:15.623757	253.1	54.9	-64.2	7.1
2026-01-13 08:01:17.867273	251.8	54.4	-63.0	4.7
2026-01-13 08:01:20.110293	250.5	53.8	-63.0	6.0
2026-01-13 08:01:22.354800	249.3	53.2	-63.7	4.5
2026-01-13 08:01:24.598316	248.2	52.7	-63.1	6.5
2026-01-13 08:01:26.841833	247.1	52.1	-63.1	4.0
2026-01-13 08:01:29.088359	246.0	51.5	-62.9	3.6
2026-01-13 08:01:31.331875	245.0	50.9	-62.4	4.8
2026-01-13 08:01:33.575391	244.0	50.3	-63.0	5.4
2026-01-13 08:01:35.818908	243.1	49.7	-62.3	5.9
2026-01-13 08:01:38.062919	242.2	49.1	-62.1	4.7
2026-01-13 08:01:40.307434	241.3	48.6	-61.5	4.6
2026-01-13 08:01:42.551445	240.4	48.0	-62.0	3.9
2026-01-13 08:01:44.798467	239.6	47.4	-61.0	3.1
2026-01-13 08:01:47.042478	238.9	46.8	-60.7	3.2
2026-01-13 08:01:49.286002	238.1	46.2	-61.6	4.9
2026-01-13 08:01:51.530013	237.4	45.6	-62.6	5.9
2026-01-13 08:01:53.771049	236.7	45.1	-61.6	6.3
2026-01-13 08:01:56.015567	236.0	44.5	-61.6	6.1
2026-01-13 08:01:58.257602	235.4	43.9	-61.6	6.9
2026-01-13 08:02:00.502118	234.7	43.4	-61.7	6.7
2026-01-13 08:02:02.745634	234.1	42.8	-60.9	5.6
2026-01-13 08:02:04.988654	233.5	42.3	-61.4	6.0
2026-01-13 08:02:07.232170	233.0	41.7	-60.9	5.1
2026-01-13 08:02:09.476181	232.4	41.2	-61.2	6.5
2026-01-13 08:02:11.723201	231.9	40.6	-61.1	6.4
2026-01-13 08:02:13.967708	231.4	40.1	-61.2	6.5
2026-01-13 08:02:16.211729	230.9	39.6	-61.8	7.6
2026-01-13 08:02:18.456253	230.4	39.0	-60.7	5.3
2026-01-13 08:02:20.701264	230.0	38.5	-61.7	6.7
2026-01-13 08:02:22.945274	229.5	38.0	-60.5	4.4
2026-01-13 08:02:25.188790	229.1	37.5	-61.1	7.2
2026-01-13 08:02:27.432811	228.7	37.0	-60.5	4.0
2026-01-13 08:02:29.677318	228.2	36.5	-61.3	7.6
2026-01-13 08:02:31.920835	227.9	36.0	-60.9	7.1
2026-01-13 08:02:34.164846	227.5	35.5	-60.4	6.8
2026-01-13 08:02:36.408857	227.1	35.1	-61.4	8.8
2026-01-13 08:02:38.651875	226.7	34.6	-61.3	7.4
2026-01-13 08:02:40.895391	226.4	34.1	-61.4	8.1
2026-01-13 08:02:43.142918	226.0	33.7	-60.7	7.7
2026-01-13 08:02:45.386928	225.7	33.2	-60.9	8.1
2026-01-13 08:02:47.629948	225.4	32.8	-60.7	5.7
2026-01-13 08:02:49.874473	225.1	32.3	-60.2	6.4
2026-01-13 08:02:52.119998	224.8	31.9	-60.5	8.3
2026-01-13 08:02:54.364009	224.5	31.5	-61.2	8.4
2026-01-13 08:02:56.607029	224.2	31.0	-61.3	8.6
2026-01-13 08:02:58.851041	223.9	30.6	-60.7	7.1
2026-01-13 08:03:01.094060	223.6	30.2	-60.7	7.2
2026-01-13 08:03:03.337577	223.4	29.8	-60.9	7.0
2026-01-13 08:03:05.581588	223.1	29.4	-61.2	8.0
2026-01-13 08:03:07.825599	222.8	29.0	-60.5	6.5
2026-01-13 08:03:10.072621	222.6	28.6	-60.1	6.5
2026-01-13 08:03:12.315650	222.4	28.2	-61.1	6.2
2026-01-13 08:03:14.558670	222.1	27.8	-61.2	7.5
2026-01-13 08:03:16.801204	221.9	27.4	-60.4	5.3
2026-01-13 08:03:19.043232	221.7	27.1	-59.9	5.7
2026-01-13 08:03:21.286747	221.5	26.7	-60.5	5.1
2026-01-13 08:03:23.530759	221.2	26.3	-60.3	4.2
2026-01-13 08:03:25.774284	221.0	26.0	-61.0	6.7
2026-01-13 08:03:28.018295	220.8	25.6	-60.7	5.6
2026-01-13 08:03:30.261811	220.6	25.2	-61.7	7.6
2026-01-13 08:03:32.505822	220.4	24.9	-61.4	7.9
2026-01-13 08:03:34.748843	220.2	24.6	-61.0	6.4
2026-01-13 08:03:36.992368	220.1	24.2	-61.7	7.0
2026-01-13 08:03:39.235892	219.9	23.9	-61.3	8.6
2026-01-13 08:03:41.477424	219.7	23.5	-60.2	6.3
2026-01-13 08:03:43.725445	219.5	23.2	-61.6	8.6
2026-01-13 08:03:45.969455	219.4	22.9	-62.8	8.4
2026-01-13 08:03:48.212980	219.2	22.6	-60.1	4.6
2026-01-13 08:03:50.455011	219.0	22.3	-63.5	9.8
2026-01-13 08:03:52.698032	218.9	21.9	-62.7	8.8
2026-01-13 08:03:54.942548	218.7	21.6	-63.7	9.6
2026-01-13 08:03:57.186572	218.6	21.3	-62.6	8.6
2026-01-13 08:03:59.430592	218.4	21.0	-61.6	5.7
2026-01-13 08:04:01.676604	218.3	20.7	-61.8	5.6
2026-01-13 08:04:03.920616	218.1	20.4	-63.6	9.3
2026-01-13 08:04:06.164131	218.0	20.1	-63.1	8.7
2026-01-13 08:04:08.411153	217.8	19.8	-63.5	9.6
2026-01-13 08:04:10.655164	217.7	19.6	-64.3	9.4
2026-01-13 08:04:12.899175	217.6	19.3	-64.1	9.8
2026-01-13 08:04:15.143188	217.4	19.0	-65.1	10.8
2026-01-13 08:04:17.385226	217.3	18.7	-64.5	10.6
2026-01-13 08:04:19.629239	217.2	18.4	-64.9	10.0
2026-01-13 08:04:21.872259	217.1	18.2	-64.1	7.6
2026-01-13 08:04:24.115279	216.9	17.9	-64.9	10.1
2026-01-13 08:04:26.359300	216.8	17.6	-64.5	10.3
2026-01-13 08:04:28.603807	216.7	17.4	-64.1	9.3
2026-01-13 08:04:30.847818	216.6	17.1	-64.8	10.5
2026-01-13 08:04:33.089847	216.5	16.9	-64.9	9.4
2026-01-13 08:04:35.333362	216.4	16.6	-64.7	9.8
2026-01-13 08:04:37.577384	216.2	16.4	-64.8	9.8
2026-01-13 08:04:39.821890	216.1	16.1	-63.8	8.5
2026-01-13 08:04:42.064911	216.0	15.9	-64.7	10.1
2026-01-13 08:04:44.309427	215.9	15.6	-64.7	8.7
2026-01-13 08:04:46.552942	215.8	15.4	-63.9	7.0
2026-01-13 08:04:48.796458	215.7	15.1	-64.1	7.0
2026-01-13 08:04:51.039982	215.6	14.9	-64.3	9.2
2026-01-13 08:04:53.283994	215.5	14.7	-64.8	6.4
2026-01-13 08:04:55.528005	215.4	14.4	-65.7	9.2
2026-01-13 08:04:57.771025	215.4	14.2	-62.2	6.8
2026-01-13 08:05:00.014046	215.3	14.0	-64.8	9.4
2026-01-13 08:05:02.255580	215.2	13.7	-65.0	8.1
2026-01-13 08:05:04.499096	215.1	13.5	-64.7	8.5
2026-01-13 08:05:06.743603	215.0	13.3	-64.9	8.9
2026-01-13 08:05:08.986625	214.9	13.1	-64.5	8.3
2026-01-13 08:05:11.230635	214.8	12.8	-64.2	9.4
2026-01-13 08:05:13.474647	214.7	12.6	-64.2	9.0
2026-01-13 08:05:15.719163	214.7	12.4	-65.2	8.4
2026-01-13 08:05:17.965183	214.6	12.2	-65.7	8.7
2026-01-13 08:05:20.208700	214.5	12.0	-65.1	8.3
2026-01-13 08:05:22.451720	214.4	11.8	-65.6	9.3
2026-01-13 08:05:24.695731	214.3	11.6	-65.8	9.9
2026-01-13 08:05:26.939751	214.3	11.4	-66.0	8.4
2026-01-13 08:05:29.184258	214.2	11.2	-65.9	9.9
2026-01-13 08:05:31.428269	214.1	11.0	-65.0	9.3
2026-01-13 08:05:33.671784	214.0	10.8	-65.5	9.4
2026-01-13 08:05:35.916300	214.0	10.6	-66.0	9.3
2026-01-13 08:05:38.159321	213.9	10.4	-65.8	9.2
2026-01-13 08:05:40.404341	213.8	10.2	-66.0	9.8
2026-01-13 08:05:42.648361	213.8	10.0	-65.7	8.7
2026-01-13 08:05:44.890896	213.7	9.8	-65.6	8.6
2026-01-13 08:05:47.135412	213.6	9.6	-65.7	8.8
2026-01-13 08:05:49.382441	213.6	9.4	-65.9	9.1
2026-01-13 08:05:51.626453	213.5	9.2	-65.8	8.1
2026-01-13 08:05:53.870464	213.4	9.0	-65.5	7.7
2026-01-13 08:05:56.114484	213.4	8.8	-64.8	6.9
2026-01-13 08:05:58.358001	213.3	8.6	-65.7	9.2
2026-01-13 08:06:00.602020	213.3	8.5	-65.1	7.0
2026-01-13 08:06:02.846536	213.2	8.3	-65.6	8.1
2026-01-13 08:06:05.090052	213.1	8.1	-65.3	6.5
2026-01-13 08:06:07.336594	213.1	7.9	-64.6	6.6
2026-01-13 08:06:09.580110	213.0	7.7	-64.9	7.1
2026-01-13 08:06:11.825121	213.0	7.6	-64.7	8.4
2026-01-13 08:06:14.068141	212.9	7.4	-64.9	6.9
2026-01-13 08:06:16.312648	212.8	7.2	-65.0	7.4
2026-01-13 08:06:18.557163	212.8	7.0	-65.3	7.6
2026-01-13 08:06:20.799193	212.7	6.9	-64.0	6.2
2026-01-13 08:06:23.042709	212.7	6.7	-65.7	5.6
2026-01-13 08:06:25.286225	212.6	6.5	-64.4	6.6
2026-01-13 08:06:27.531236	212.6	6.3	-65.7	7.2
2026-01-13 08:06:29.775247	212.5	6.2	-64.4	6.0
2026-01-13 08:06:32.018268	212.5	6.0	-63.9	3.7
2026-01-13 08:06:34.261784	212.4	5.8	-64.6	0.0
2026-01-13 08:06:36.506299	212.4	5.7	-65.3	0.0
2026-01-13 08:06:38.748824	212.3	5.5	-69.8	0.0
2026-01-13 08:06:40.991844	212.3	5.4	-71.7	0.0
2026-01-13 08:06:43.235865	212.2	5.2	-72.0	0.0
2026-01-13 08:06:45.479381	212.2	5.0	-71.3	0.0
#Closed at: 2026-01-13 07:54:01.527810