passes_logs/2026/01/13/PlanumMoscow/PlanumMoscow__20260113_181017_METOP-B_rec.log

#Pass ID: 20260113_181017_METOP-B
#Satellite: METOP-B
#Configuration: METOP-B
#Start time: 2026-01-13 18:10:22.955920

#LorettStation: 1.0.0 05.05.2024
#Station: PlanumMoscow
#Location: 37.6253844 lon 55.6713361 lat
#TLE: 1 38771U 12049A   25293.92766658  .00000266  00000+0  14193-3 0  9996
#TLE: 2 38771  98.6882 344.7603 0001609 341.5209  18.5909 14.21379342679275

#Time	Az	El	Level	SNR
2026-01-13 18:14:01.385467	198.9	27.2	-62.8	3.9
2026-01-13 18:14:03.624042	199.3	27.6	-61.7	5.2
2026-01-13 18:14:05.860051	199.7	27.9	-62.3	6.5
2026-01-13 18:14:08.104567	200.0	28.2	-62.5	5.9
2026-01-13 18:14:10.348119	200.4	28.6	-62.3	5.2
2026-01-13 18:14:12.590648	200.8	28.9	-62.7	6.0
2026-01-13 18:14:14.829724	201.2	29.3	-61.8	3.0
2026-01-13 18:14:17.065734	201.6	29.7	-62.2	5.0
2026-01-13 18:14:19.299786	202.1	30.0	-62.9	4.5
2026-01-13 18:14:21.536309	202.5	30.4	-62.1	4.8
2026-01-13 18:14:23.771830	202.9	30.7	-62.1	4.5
2026-01-13 18:14:26.008371	203.4	31.1	-60.8	2.3
2026-01-13 18:14:28.242893	203.8	31.5	-61.9	5.0
2026-01-13 18:14:30.480902	204.3	31.9	-62.2	6.4
2026-01-13 18:14:32.725418	204.8	32.2	-62.0	2.4
2026-01-13 18:14:34.969429	205.3	32.6	-62.5	4.9
2026-01-13 18:14:37.212944	205.8	33.0	-62.8	3.3
2026-01-13 18:14:39.457451	206.3	33.4	-60.9	0.0
2026-01-13 18:14:41.695980	206.8	33.8	-62.7	2.4
2026-01-13 18:14:43.930502	207.4	34.2	-64.3	6.0
2026-01-13 18:14:46.174008	207.9	34.6	-63.8	3.8
2026-01-13 18:14:48.414531	208.5	35.0	-63.4	3.2
2026-01-13 18:14:50.656056	209.1	35.4	-63.3	4.2
2026-01-13 18:14:52.899577	209.7	35.8	-62.8	2.9
2026-01-13 18:14:55.143597	210.3	36.2	-63.3	4.6
2026-01-13 18:14:57.379102	210.9	36.6	-63.5	4.3
2026-01-13 18:14:59.614606	211.5	37.0	-63.1	3.8
2026-01-13 18:15:01.847623	212.2	37.4	-64.1	5.1
2026-01-13 18:15:04.092139	212.8	37.8	-63.3	5.6
2026-01-13 18:15:06.335168	213.5	38.2	-63.3	3.4
2026-01-13 18:15:08.579675	214.2	38.6	-63.7	2.8
2026-01-13 18:15:10.822695	215.0	39.0	-63.7	3.8
2026-01-13 18:15:13.065716	215.7	39.4	-63.7	5.3
2026-01-13 18:15:15.309231	216.5	39.8	-62.9	4.1
2026-01-13 18:15:17.551261	217.2	40.2	-63.5	5.2
2026-01-13 18:15:19.800275	218.0	40.6	-62.8	2.5
2026-01-13 18:15:22.043790	218.9	41.0	-62.1	2.9
2026-01-13 18:15:24.286808	219.7	41.4	-62.6	3.3
2026-01-13 18:15:26.531324	220.5	41.8	-62.1	3.4
2026-01-13 18:15:28.774840	221.4	42.2	-63.1	3.2
2026-01-13 18:15:31.018366	222.3	42.6	-62.4	4.8
2026-01-13 18:15:33.260403	223.2	43.0	-63.4	4.3
2026-01-13 18:15:35.505918	224.2	43.3	-63.3	1.9
2026-01-13 18:15:37.748442	225.2	43.7	-62.6	2.6
2026-01-13 18:15:39.990966	226.1	44.1	-63.2	3.2
2026-01-13 18:15:42.234499	227.2	44.4	-63.6	2.6
2026-01-13 18:15:44.481024	228.2	44.8	-62.6	3.0
2026-01-13 18:15:46.725035	229.3	45.2	-63.1	3.2
2026-01-13 18:15:48.967064	230.3	45.5	-62.9	0.0
2026-01-13 18:15:51.209598	231.4	45.8	-63.6	1.2
2026-01-13 18:15:53.452123	232.6	46.2	-62.2	0.0
2026-01-13 18:15:55.695151	233.7	46.5	-62.5	0.7
2026-01-13 18:15:57.936683	234.9	46.8	-62.6	0.0
2026-01-13 18:16:00.178712	236.1	47.1	-62.9	1.2
2026-01-13 18:16:02.422227	237.3	47.4	-63.6	2.2
2026-01-13 18:16:04.665741	238.5	47.6	-63.9	0.0
2026-01-13 18:16:06.909257	239.8	47.9	-63.6	3.0
2026-01-13 18:16:09.152782	241.1	48.1	-64.2	2.7
2026-01-13 18:16:11.397298	242.4	48.4	-63.2	0.0
2026-01-13 18:16:13.641805	243.7	48.6	-63.2	0.5
2026-01-13 18:16:15.885329	245.0	48.8	-63.9	3.0
2026-01-13 18:16:18.128844	246.4	49.0	-63.0	0.7
2026-01-13 18:16:20.371386	247.7	49.1	-64.0	2.1
2026-01-13 18:16:22.614901	249.1	49.3	-64.4	1.2
2026-01-13 18:16:24.860425	250.5	49.4	-63.5	0.0
2026-01-13 18:16:27.104932	251.9	49.5	-63.6	0.5
2026-01-13 18:16:29.348456	253.3	49.6	-62.6	0.0
2026-01-13 18:16:31.592467	254.8	49.7	-64.0	0.0
2026-01-13 18:16:33.840489	256.2	49.8	-64.4	1.3
2026-01-13 18:16:36.082517	257.6	49.8	-62.9	0.0
2026-01-13 18:16:38.326033	259.1	49.9	-64.7	3.8
2026-01-13 18:16:40.569565	260.5	49.9	-64.3	3.4
2026-01-13 18:16:42.813080	261.9	49.8	-65.1	1.8
2026-01-13 18:16:45.057587	263.4	49.8	-64.7	1.7
2026-01-13 18:16:47.302599	264.8	49.8	-65.0	4.1
2026-01-13 18:16:49.546626	266.2	49.7	-64.6	1.7
2026-01-13 18:16:51.790141	267.7	49.6	-65.0	4.2
2026-01-13 18:16:54.032170	269.1	49.5	-65.2	1.7
2026-01-13 18:16:56.276182	270.5	49.4	-65.9	1.6
2026-01-13 18:16:58.519203	271.9	49.2	-65.4	3.4
2026-01-13 18:17:00.763214	273.2	49.1	-65.5	1.6
2026-01-13 18:17:03.007235	274.6	48.9	-65.2	2.5
2026-01-13 18:17:05.250750	275.9	48.7	-65.8	4.5
2026-01-13 18:17:07.493780	277.3	48.5	-65.8	3.7
2026-01-13 18:17:09.735809	278.6	48.3	-65.5	3.7
2026-01-13 18:17:11.978332	279.9	48.1	-65.3	4.0
2026-01-13 18:17:14.222343	281.1	47.8	-65.3	5.5
2026-01-13 18:17:16.466354	282.4	47.5	-65.9	4.2
2026-01-13 18:17:18.709869	283.6	47.3	-64.9	3.2
2026-01-13 18:17:20.955889	284.8	47.0	-66.2	5.1
2026-01-13 18:17:23.199405	286.0	46.7	-65.6	4.2
2026-01-13 18:17:25.442919	287.2	46.4	-65.1	3.9
2026-01-13 18:17:27.686444	288.3	46.1	-65.8	4.5
2026-01-13 18:17:29.929959	289.4	45.7	-65.7	5.2
2026-01-13 18:17:32.174466	290.5	45.4	-66.1	4.4
2026-01-13 18:17:34.417487	291.6	45.1	-66.1	5.8
2026-01-13 18:17:36.664527	292.6	44.7	-66.3	3.6
2026-01-13 18:17:38.908538	293.7	44.3	-65.3	3.3
2026-01-13 18:17:41.153044	294.7	44.0	-66.2	4.0
2026-01-13 18:17:43.397056	295.6	43.6	-66.1	5.0
2026-01-13 18:17:45.643581	296.6	43.2	-64.8	0.6
2026-01-13 18:17:47.886610	297.5	42.9	-65.5	3.5
2026-01-13 18:17:50.129631	298.4	42.5	-65.5	5.7
2026-01-13 18:17:52.372650	299.3	42.1	-65.5	5.5
2026-01-13 18:17:54.618662	300.2	41.7	-64.9	5.9
2026-01-13 18:17:56.862673	301.1	41.3	-65.1	5.1
2026-01-13 18:17:59.105699	301.9	40.9	-64.6	4.4
2026-01-13 18:18:01.349719	302.7	40.5	-64.7	5.7
2026-01-13 18:18:03.592242	303.5	40.1	-64.5	5.2
2026-01-13 18:18:05.836749	304.3	39.7	-65.0	5.0
2026-01-13 18:18:08.079768	305.0	39.3	-65.5	5.7
2026-01-13 18:18:10.322789	305.7	38.9	-65.3	4.8
2026-01-13 18:18:12.566800	306.5	38.5	-65.8	4.6
2026-01-13 18:18:14.811306	307.2	38.1	-65.0	3.5
2026-01-13 18:18:17.057814	307.8	37.7	-65.2	3.9
2026-01-13 18:18:19.301825	308.5	37.3	-65.1	5.0
2026-01-13 18:18:21.545837	309.1	36.9	-65.5	3.9
2026-01-13 18:18:23.790344	309.8	36.5	-64.7	4.6
2026-01-13 18:18:26.033859	310.4	36.1	-65.1	4.7
2026-01-13 18:18:28.278871	311.0	35.7	-65.4	5.8
2026-01-13 18:18:30.523378	311.6	35.3	-65.2	5.9
2026-01-13 18:18:32.767390	312.2	34.9	-65.2	6.1
2026-01-13 18:18:35.011896	312.7	34.5	-64.9	6.0
2026-01-13 18:18:37.256403	313.3	34.1	-64.5	4.6
2026-01-13 18:18:39.500910	313.8	33.7	-64.9	6.0
2026-01-13 18:18:41.744921	314.3	33.3	-64.9	6.3
2026-01-13 18:18:43.989428	314.9	33.0	-65.4	6.8
2026-01-13 18:18:46.233438	315.4	32.6	-65.2	7.0
2026-01-13 18:18:48.477450	315.8	32.2	-65.4	6.7
2026-01-13 18:18:50.721957	316.3	31.8	-65.3	7.0
2026-01-13 18:18:52.966464	316.8	31.4	-65.3	6.7
2026-01-13 18:18:55.210971	317.2	31.1	-65.2	5.0
2026-01-13 18:18:57.454487	317.7	30.7	-65.2	7.1
2026-01-13 18:18:59.700994	318.1	30.3	-65.3	6.5
2026-01-13 18:19:01.945005	318.6	30.0	-65.6	7.1
2026-01-13 18:19:04.190088	319.0	29.6	-65.7	6.3
2026-01-13 18:19:06.434594	319.4	29.3	-65.6	6.0
2026-01-13 18:19:08.679101	319.8	28.9	-65.4	6.9
2026-01-13 18:19:10.923608	320.2	28.6	-64.3	6.3
2026-01-13 18:19:13.171621	320.6	28.2	-65.1	7.0
2026-01-13 18:19:15.416128	320.9	27.9	-65.4	6.9
2026-01-13 18:19:17.660139	321.3	27.5	-65.5	6.8
2026-01-13 18:19:19.904647	321.7	27.2	-65.5	5.6
2026-01-13 18:19:22.148161	322.0	26.9	-65.7	5.7
2026-01-13 18:19:24.392668	322.4	26.5	-65.6	5.9
2026-01-13 18:19:26.636679	322.7	26.2	-65.9	6.7
2026-01-13 18:19:28.880690	323.0	25.9	-65.8	6.3
2026-01-13 18:19:31.124701	323.4	25.5	-65.0	6.5
2026-01-13 18:19:33.369208	323.7	25.2	-65.7	6.9
2026-01-13 18:19:35.613219	324.0	24.9	-66.0	6.7
2026-01-13 18:19:37.860737	324.3	24.6	-65.7	6.7
2026-01-13 18:19:40.105243	324.6	24.3	-65.9	6.6
2026-01-13 18:19:42.349750	324.9	24.0	-65.7	5.6
2026-01-13 18:19:44.594257	325.2	23.7	-65.9	5.9
2026-01-13 18:19:46.838268	325.5	23.4	-64.4	4.5
2026-01-13 18:19:49.082775	325.7	23.1	-66.0	6.4
2026-01-13 18:19:51.327282	326.0	22.8	-65.6	5.9
2026-01-13 18:19:53.571293	326.3	22.5	-65.2	5.5
2026-01-13 18:19:55.815304	326.5	22.2	-65.8	6.1
2026-01-13 18:19:58.059811	326.8	21.9	-65.5	5.7
2026-01-13 18:20:00.304317	327.1	21.6	-65.7	5.8
2026-01-13 18:20:02.548329	327.3	21.3	-65.5	4.9
2026-01-13 18:20:04.792835	327.6	21.1	-66.0	5.1
2026-01-13 18:20:07.037342	327.8	20.8	-65.5	3.3
2026-01-13 18:20:09.281354	328.0	20.5	-65.4	5.2
2026-01-13 18:20:11.526861	328.3	20.2	-65.3	5.1
2026-01-13 18:20:13.771367	328.5	20.0	-65.5	6.0
2026-01-13 18:20:16.015874	328.7	19.7	-65.7	5.7
2026-01-13 18:20:18.259391	329.0	19.4	-65.8	5.5
2026-01-13 18:20:20.503898	329.2	19.2	-65.7	5.5
2026-01-13 18:20:22.748405	329.4	18.9	-65.7	5.4
2026-01-13 18:20:24.992416	329.6	18.6	-66.1	5.6
2026-01-13 18:20:27.236923	329.8	18.4	-65.8	4.7
2026-01-13 18:20:29.481429	330.0	18.1	-65.7	5.1
2026-01-13 18:20:31.725936	330.2	17.9	-65.7	4.8
2026-01-13 18:20:33.969947	330.4	17.6	-66.1	4.5
2026-01-13 18:20:36.214454	330.6	17.4	-65.8	4.4
2026-01-13 18:20:38.458960	330.8	17.2	-66.3	5.3
2026-01-13 18:20:40.703468	331.0	16.9	-66.3	5.3
2026-01-13 18:20:42.949479	331.2	16.7	-65.9	5.5
2026-01-13 18:20:45.193986	331.4	16.4	-66.1	5.0
2026-01-13 18:20:47.438493	331.5	16.2	-66.0	4.9
2026-01-13 18:20:49.682503	331.7	16.0	-66.0	5.6
2026-01-13 18:20:51.938517	331.9	15.7	-66.0	3.7
2026-01-13 18:20:54.183024	332.1	15.5	-66.1	4.9
2026-01-13 18:20:56.427531	332.2	15.3	-66.3	4.7
2026-01-13 18:20:58.672050	332.4	15.0	-66.4	4.9
2026-01-13 18:21:00.916557	332.6	14.8	-66.1	4.6
2026-01-13 18:21:03.161063	332.7	14.6	-66.2	4.1
2026-01-13 18:21:05.405074	332.9	14.4	-65.6	3.1
2026-01-13 18:21:07.649581	333.1	14.2	-66.0	2.9
2026-01-13 18:21:09.894088	333.2	13.9	-65.8	3.0
2026-01-13 18:21:12.138595	333.4	13.7	-65.6	2.1
2026-01-13 18:21:14.382605	333.5	13.5	-65.7	3.2
2026-01-13 18:21:16.627112	333.7	13.3	-65.8	3.5
2026-01-13 18:21:18.871619	333.8	13.1	-65.6	2.7
2026-01-13 18:21:21.120631	334.0	12.9	-65.9	4.1
2026-01-13 18:21:23.364642	334.1	12.7	-66.0	3.2
2026-01-13 18:21:25.609149	334.3	12.5	-66.2	3.2
2026-01-13 18:21:27.853656	334.4	12.3	-66.1	2.7
2026-01-13 18:21:30.099667	334.5	12.1	-66.4	3.0
2026-01-13 18:21:32.344173	334.7	11.9	-66.4	3.4
2026-01-13 18:21:34.588680	334.8	11.7	-65.8	3.0
2026-01-13 18:21:36.832779	334.9	11.5	-65.8	2.7
2026-01-13 18:21:39.076703	335.1	11.3	-65.2	2.0
2026-01-13 18:21:41.321210	335.2	11.1	-65.2	2.7
2026-01-13 18:21:43.565717	335.3	10.9	-64.7	1.4
2026-01-13 18:21:45.809728	335.5	10.7	-64.4	0.0
2026-01-13 18:21:48.054235	335.6	10.5	-64.5	1.1
2026-01-13 18:21:50.298742	335.7	10.3	-64.3	0.0
2026-01-13 18:21:52.542753	335.8	10.1	-64.4	0.0
2026-01-13 18:21:54.786269	336.0	9.9	-63.8	0.0
2026-01-13 18:21:57.030776	336.1	9.8	-64.5	0.0
2026-01-13 18:21:59.275283	336.2	9.6	-64.8	0.0
2026-01-13 18:22:01.521800	336.3	9.4	-64.1	0.0
2026-01-13 18:22:03.766307	336.4	9.2	-66.0	0.0
2026-01-13 18:22:06.010814	336.5	9.0	-65.6	0.0
2026-01-13 18:22:08.254825	336.7	8.9	-65.2	0.0
2026-01-13 18:22:10.500836	336.8	8.7	-64.8	0.0
2026-01-13 18:22:12.745343	336.9	8.5	-64.9	0.1
2026-01-13 18:22:14.989850	337.0	8.3	-65.6	0.0
2026-01-13 18:22:17.234357	337.1	8.2	-65.3	0.0
2026-01-13 18:22:19.477376	337.2	8.0	-65.5	0.0
2026-01-13 18:22:21.721883	337.3	7.8	-65.1	0.0
2026-01-13 18:22:23.966390	337.4	7.6	-64.8	0.0
2026-01-13 18:22:26.210897	337.5	7.5	-64.8	0.0
2026-01-13 18:22:28.459932	337.6	7.3	-65.1	0.0
2026-01-13 18:22:30.703480	337.7	7.1	-64.2	0.0
2026-01-13 18:22:32.947491	337.8	7.0	-64.6	0.0
2026-01-13 18:22:35.190533	337.9	6.8	-63.4	0.0
2026-01-13 18:22:37.436048	338.0	6.6	-63.8	0.0
2026-01-13 18:22:39.680593	338.1	6.5	-64.0	0.0
2026-01-13 18:22:41.924605	338.2	6.3	-63.6	0.0
2026-01-13 18:22:44.172624	338.3	6.2	-63.8	0.0
2026-01-13 18:22:46.416170	338.4	6.0	-66.0	0.7
2026-01-13 18:22:48.660685	338.5	5.8	-68.3	0.0
2026-01-13 18:22:50.903752	338.6	5.7	-68.5	0.0
2026-01-13 18:22:53.149275	338.7	5.5	-69.1	0.0
2026-01-13 18:22:55.393782	338.8	5.4	-67.1	0.0
2026-01-13 18:22:57.637823	338.9	5.2	-66.7	0.0
2026-01-13 18:22:59.881873	339.0	5.0	-66.4	0.0
#Closed at: 2026-01-13 18:10:17.957113