passes_logs/2026/01/13/PlanumMoscow/PlanumMoscow__20260113_170818_METOP-C_rec.log

#Pass ID: 20260113_170818_METOP-C
#Satellite: METOP-C
#Configuration: METOP-C
#Start time: 2026-01-13 17:08:23.225324

#LorettStation: 1.0.0 05.05.2024
#Station: PlanumMoscow
#Location: 37.6253844 lon 55.6713361 lat
#TLE: 1 43689U 18087A   25293.88981035  .00000265  00000+0  14109-3 0  9997
#TLE: 2 43689  98.7006 352.4487 0002041 122.1097 238.0279 14.21482740360838

#Time	Az	El	Level	SNR
2026-01-13 17:12:01.623428	111.6	25.7	-64.4	1.4
2026-01-13 17:12:03.861438	111.2	26.0	-65.0	0.2
2026-01-13 17:12:06.098456	110.7	26.3	-66.0	3.7
2026-01-13 17:12:08.340475	110.3	26.6	-66.1	0.9
2026-01-13 17:12:10.577484	109.8	26.9	-64.1	0.0
2026-01-13 17:12:12.815006	109.4	27.2	-64.0	0.0
2026-01-13 17:12:15.050520	108.9	27.5	-65.3	0.8
2026-01-13 17:12:17.288034	108.4	27.7	-66.4	1.1
2026-01-13 17:12:19.524548	107.9	28.0	-65.9	2.3
2026-01-13 17:12:21.761557	107.4	28.3	-66.4	3.0
2026-01-13 17:12:24.000576	106.9	28.6	-66.0	1.5
2026-01-13 17:12:26.239594	106.4	28.9	-65.6	0.0
2026-01-13 17:12:28.476604	105.9	29.2	-64.5	0.0
2026-01-13 17:12:30.714127	105.4	29.5	-66.1	0.0
2026-01-13 17:12:32.948144	104.8	29.8	-65.7	0.0
2026-01-13 17:12:35.184178	104.3	30.1	-65.4	0.0
2026-01-13 17:12:37.417186	103.7	30.4	-63.5	0.0
2026-01-13 17:12:39.652205	103.1	30.7	-64.9	0.0
2026-01-13 17:12:41.885718	102.5	31.0	-64.0	0.0
2026-01-13 17:12:44.122223	101.9	31.3	-65.8	0.0
2026-01-13 17:12:46.355240	101.3	31.6	-65.2	0.0
2026-01-13 17:12:48.593753	100.7	31.9	-64.5	0.0
2026-01-13 17:12:50.834268	100.1	32.2	-64.8	0.0
2026-01-13 17:12:53.074782	99.4	32.5	-64.1	0.0
2026-01-13 17:12:55.318793	98.8	32.8	-64.7	0.0
2026-01-13 17:12:57.559309	98.1	33.1	-63.7	0.0
2026-01-13 17:12:59.797327	97.4	33.4	-62.6	0.0
2026-01-13 17:13:02.035850	96.7	33.7	-65.1	0.0
2026-01-13 17:13:04.274868	96.0	34.0	-63.5	0.0
2026-01-13 17:13:06.515382	95.3	34.2	-63.3	0.0
2026-01-13 17:13:08.756392	94.6	34.5	-63.5	0.0
2026-01-13 17:13:10.998421	93.8	34.8	-62.6	0.0
2026-01-13 17:13:13.240945	93.1	35.1	-62.7	0.0
2026-01-13 17:13:15.483972	92.3	35.4	-64.9	0.0
2026-01-13 17:13:17.726993	91.5	35.6	-62.3	0.0
2026-01-13 17:13:19.969010	90.7	35.9	-63.8	0.0
2026-01-13 17:13:22.204515	89.9	36.1	-63.4	0.0
2026-01-13 17:13:24.443532	89.1	36.4	-63.8	0.0
2026-01-13 17:13:26.685067	88.2	36.7	-65.2	0.0
2026-01-13 17:13:28.928087	87.4	36.9	-63.5	0.0
2026-01-13 17:13:31.164601	86.5	37.1	-61.9	0.0
2026-01-13 17:13:33.398114	85.7	37.4	-63.0	0.0
2026-01-13 17:13:35.636124	84.8	37.6	-63.9	0.0
2026-01-13 17:13:37.876647	83.9	37.8	-62.7	0.0
2026-01-13 17:13:40.114162	83.0	38.0	-62.6	0.0
2026-01-13 17:13:42.352685	82.1	38.2	-63.2	0.0
2026-01-13 17:13:44.590695	81.1	38.4	-60.2	0.0
2026-01-13 17:13:46.829226	80.2	38.6	-63.7	0.0
2026-01-13 17:13:49.066733	79.2	38.8	-62.7	0.0
2026-01-13 17:13:51.306247	78.3	39.0	-61.4	0.0
2026-01-13 17:13:53.545762	77.3	39.2	-59.8	0.0
2026-01-13 17:13:55.782292	76.3	39.3	-61.1	0.0
2026-01-13 17:13:58.020798	75.3	39.5	-61.7	0.0
2026-01-13 17:14:00.259304	74.3	39.6	-61.0	0.0
2026-01-13 17:14:02.494818	73.3	39.7	-61.4	0.0
2026-01-13 17:14:04.735342	72.3	39.9	-62.4	0.0
2026-01-13 17:14:06.972855	71.2	40.0	-60.9	0.0
2026-01-13 17:14:09.207864	70.2	40.1	-61.2	0.0
2026-01-13 17:14:11.445883	69.2	40.2	-62.4	0.0
2026-01-13 17:14:13.687389	68.1	40.3	-61.5	0.0
2026-01-13 17:14:15.924399	67.1	40.3	-61.4	0.0
2026-01-13 17:14:18.160409	66.0	40.4	-61.5	0.0
2026-01-13 17:14:20.401923	64.9	40.4	-60.8	0.0
2026-01-13 17:14:22.639437	63.9	40.5	-61.8	0.0
2026-01-13 17:14:24.876447	62.8	40.5	-61.8	0.0
2026-01-13 17:14:27.114457	61.8	40.5	-61.4	0.0
2026-01-13 17:14:29.353972	60.7	40.5	-61.2	0.0
2026-01-13 17:14:31.594999	59.6	40.5	-63.0	0.0
2026-01-13 17:14:33.837027	58.6	40.5	-63.0	0.0
2026-01-13 17:14:36.081039	57.5	40.5	-63.6	0.0
2026-01-13 17:14:38.325545	56.4	40.4	-62.8	0.0
2026-01-13 17:14:40.574557	55.4	40.4	-60.1	0.0
2026-01-13 17:14:42.819569	54.3	40.3	-63.7	0.0
2026-01-13 17:14:45.063084	53.3	40.2	-61.7	0.0
2026-01-13 17:14:47.301599	52.2	40.1	-61.9	0.0
2026-01-13 17:14:49.546106	51.2	40.0	-61.8	0.0
2026-01-13 17:14:51.785125	50.1	39.9	-62.9	0.0
2026-01-13 17:14:54.021134	49.1	39.8	-61.7	0.0
2026-01-13 17:14:56.262649	48.1	39.7	-59.8	0.0
2026-01-13 17:14:58.503667	47.1	39.6	-61.9	0.0
2026-01-13 17:15:00.739199	46.1	39.4	-62.5	0.0
2026-01-13 17:15:02.974217	45.1	39.3	-63.0	0.0
2026-01-13 17:15:05.218237	44.1	39.1	-61.2	0.0
2026-01-13 17:15:07.461760	43.2	38.9	-60.6	0.0
2026-01-13 17:15:09.705313	42.2	38.8	-61.2	0.0
2026-01-13 17:15:11.948829	41.2	38.6	-61.5	0.0
2026-01-13 17:15:14.192354	40.3	38.4	-62.1	0.0
2026-01-13 17:15:16.436409	39.4	38.2	-61.5	0.0
2026-01-13 17:15:18.680429	38.5	38.0	-64.3	0.0
2026-01-13 17:15:20.921496	37.6	37.7	-64.4	0.0
2026-01-13 17:15:23.165515	36.7	37.5	-63.8	0.0
2026-01-13 17:15:25.408088	35.8	37.3	-60.2	0.0
2026-01-13 17:15:27.651603	34.9	37.0	-63.0	0.0
2026-01-13 17:15:29.897165	34.1	36.8	-64.0	0.0
2026-01-13 17:15:32.140699	33.2	36.6	-63.6	0.0
2026-01-13 17:15:34.384721	32.4	36.3	-64.5	0.0
2026-01-13 17:15:36.628273	31.6	36.1	-65.0	0.0
2026-01-13 17:15:38.870310	30.8	35.8	-65.2	0.0
2026-01-13 17:15:41.111386	30.0	35.5	-63.1	0.0
2026-01-13 17:15:43.354924	29.2	35.3	-64.6	0.0
2026-01-13 17:15:45.597480	28.5	35.0	-63.2	0.0
2026-01-13 17:15:47.841491	27.7	34.7	-63.0	0.0
2026-01-13 17:15:50.084511	27.0	34.4	-63.8	0.0
2026-01-13 17:15:52.327531	26.2	34.1	-65.6	0.0
2026-01-13 17:15:54.571550	25.5	33.9	-64.8	0.0
2026-01-13 17:15:56.814593	24.8	33.6	-63.0	0.0
2026-01-13 17:15:59.058612	24.1	33.3	-63.9	0.0
2026-01-13 17:16:01.301670	23.5	33.0	-63.7	0.0
2026-01-13 17:16:03.548721	22.8	32.7	-62.2	0.0
2026-01-13 17:16:05.792244	22.1	32.4	-64.4	0.0
2026-01-13 17:16:08.035817	21.5	32.1	-65.3	0.0
2026-01-13 17:16:10.281379	20.9	31.8	-64.8	0.0
2026-01-13 17:16:12.524398	20.3	31.5	-63.3	0.0
2026-01-13 17:16:14.767920	19.7	31.2	-64.5	0.0
2026-01-13 17:16:17.010988	19.1	30.9	-62.9	0.0
2026-01-13 17:16:19.255007	18.5	30.6	-62.5	0.0
2026-01-13 17:16:21.499050	17.9	30.3	-61.9	0.0
2026-01-13 17:16:23.741573	17.4	30.0	-65.1	0.0
2026-01-13 17:16:25.984622	16.8	29.7	-61.5	0.0
2026-01-13 17:16:28.228708	16.3	29.4	-63.6	0.0
2026-01-13 17:16:30.472728	15.7	29.1	-62.8	0.0
2026-01-13 17:16:32.716267	15.2	28.8	-61.8	0.0
2026-01-13 17:16:34.961295	14.7	28.5	-62.4	0.0
2026-01-13 17:16:37.204345	14.2	28.2	-60.9	0.0
2026-01-13 17:16:39.448363	13.7	28.0	-63.4	0.0
2026-01-13 17:16:41.692878	13.2	27.7	-62.7	0.0
2026-01-13 17:16:43.939928	12.7	27.4	-64.3	0.0
2026-01-13 17:16:46.182966	12.3	27.1	-62.9	0.0
2026-01-13 17:16:48.426016	11.8	26.8	-63.3	0.0
2026-01-13 17:16:50.669103	11.4	26.5	-62.8	0.0
2026-01-13 17:16:52.915115	10.9	26.2	-63.8	0.0
2026-01-13 17:16:55.158662	10.5	25.9	-63.2	0.0
2026-01-13 17:16:57.403172	10.1	25.6	-62.8	0.0
2026-01-13 17:16:59.646727	9.7	25.3	-60.8	0.0
2026-01-13 17:17:01.890250	9.3	25.1	-62.7	0.0
2026-01-13 17:17:04.133300	8.9	24.8	-64.1	0.0
2026-01-13 17:17:06.376826	8.5	24.5	-61.7	0.0
2026-01-13 17:17:08.619883	8.1	24.2	-61.8	0.0
2026-01-13 17:17:10.863911	7.7	23.9	-62.3	0.0
2026-01-13 17:17:13.107966	7.3	23.7	-61.4	0.0
2026-01-13 17:17:15.351482	7.0	23.4	-62.4	0.0
2026-01-13 17:17:17.595005	6.6	23.1	-61.7	0.0
2026-01-13 17:17:19.838558	6.2	22.8	-63.5	0.0
2026-01-13 17:17:22.081592	5.9	22.6	-61.7	0.0
2026-01-13 17:17:24.324169	5.6	22.3	-62.1	1.0
2026-01-13 17:17:26.566693	5.2	22.0	-62.9	0.0
2026-01-13 17:17:28.809712	4.9	21.8	-61.5	0.0
2026-01-13 17:17:31.056762	4.6	21.5	-61.7	0.0
2026-01-13 17:17:33.300790	4.2	21.3	-61.6	0.0
2026-01-13 17:17:35.541859	3.9	21.0	-63.9	3.4
2026-01-13 17:17:37.784400	3.6	20.7	-62.7	0.0
2026-01-13 17:17:40.028970	3.3	20.5	-62.5	2.1
2026-01-13 17:17:42.272990	3.0	20.2	-62.8	2.4
2026-01-13 17:17:44.517002	2.7	20.0	-62.9	2.0
2026-01-13 17:17:46.760053	2.4	19.7	-63.8	0.0
2026-01-13 17:17:49.007074	2.2	19.5	-62.6	0.0
2026-01-13 17:17:51.250613	1.9	19.2	-61.8	0.0
2026-01-13 17:17:53.495127	1.6	19.0	-60.8	0.0
2026-01-13 17:17:55.737184	1.3	18.7	-61.8	0.0
2026-01-13 17:17:57.979742	1.1	18.5	-61.1	0.0
2026-01-13 17:18:00.223761	0.8	18.3	-61.4	0.0
2026-01-13 17:18:02.467802	0.6	18.0	-61.9	0.0
2026-01-13 17:18:04.712354	0.3	17.8	-62.3	0.3
2026-01-13 17:18:06.956365	0.1	17.6	-60.7	0.8
2026-01-13 17:18:09.199917	359.8	17.3	-61.5	0.8
2026-01-13 17:18:11.444424	359.6	17.1	-62.7	2.4
2026-01-13 17:18:13.688444	359.3	16.9	-62.1	1.4
2026-01-13 17:18:15.931990	359.1	16.6	-63.6	1.1
2026-01-13 17:18:18.176010	358.9	16.4	-63.1	3.3
2026-01-13 17:18:20.418548	358.7	16.2	-62.4	1.1
2026-01-13 17:18:22.663055	358.4	16.0	-62.2	1.2
2026-01-13 17:18:24.907074	358.2	15.7	-62.4	3.3
2026-01-13 17:18:27.151116	358.0	15.5	-62.1	0.0
2026-01-13 17:18:29.395136	357.8	15.3	-62.4	2.8
2026-01-13 17:18:31.639643	357.6	15.1	-62.8	3.2
2026-01-13 17:18:33.883685	357.4	14.9	-60.8	0.0
2026-01-13 17:18:36.127704	357.2	14.6	-60.6	0.0
2026-01-13 17:18:38.371746	357.0	14.4	-59.7	0.0
2026-01-13 17:18:40.615764	356.8	14.2	-60.7	0.0
2026-01-13 17:18:42.859817	356.6	14.0	-62.2	1.6
2026-01-13 17:18:45.103837	356.4	13.8	-61.1	0.1
2026-01-13 17:18:47.347886	356.2	13.6	-63.2	2.6
2026-01-13 17:18:49.592401	356.0	13.4	-62.2	0.0
2026-01-13 17:18:51.836908	355.8	13.2	-60.2	0.0
2026-01-13 17:18:54.080454	355.7	13.0	-60.6	0.0
2026-01-13 17:18:56.324961	355.5	12.8	-62.9	0.0
2026-01-13 17:18:58.568522	355.3	12.6	-61.7	1.7
2026-01-13 17:19:00.813037	355.1	12.4	-62.6	4.5
2026-01-13 17:19:03.057047	355.0	12.2	-62.9	1.9
2026-01-13 17:19:05.300604	354.8	12.0	-62.9	1.8
2026-01-13 17:19:07.544623	354.6	11.8	-62.5	2.8
2026-01-13 17:19:09.787689	354.5	11.6	-63.3	1.1
2026-01-13 17:19:12.031707	354.3	11.4	-63.1	4.0
2026-01-13 17:19:14.274756	354.1	11.2	-62.9	2.4
2026-01-13 17:19:16.519271	354.0	11.0	-61.0	0.0
2026-01-13 17:19:18.768313	353.8	10.9	-61.9	1.5
2026-01-13 17:19:21.012826	353.7	10.7	-62.7	0.0
2026-01-13 17:19:23.256837	353.5	10.5	-62.8	2.4
2026-01-13 17:19:25.501383	353.4	10.3	-62.9	2.2
2026-01-13 17:19:27.744907	353.2	10.1	-62.8	3.1
2026-01-13 17:19:29.988964	353.1	9.9	-64.0	3.7
2026-01-13 17:19:32.235984	352.9	9.8	-63.3	0.7
2026-01-13 17:19:34.480034	352.8	9.6	-63.0	0.0
2026-01-13 17:19:36.724054	352.7	9.4	-62.6	0.0
2026-01-13 17:19:38.968590	352.5	9.2	-63.0	0.0
2026-01-13 17:19:41.213097	352.4	9.0	-62.2	0.0
2026-01-13 17:19:43.461117	352.3	8.9	-62.7	0.0
2026-01-13 17:19:45.705670	352.1	8.7	-63.0	0.0
2026-01-13 17:19:47.949712	352.0	8.5	-62.7	0.0
2026-01-13 17:19:50.195724	351.9	8.3	-63.8	2.9
2026-01-13 17:19:52.440247	351.7	8.2	-63.2	1.9
2026-01-13 17:19:54.684303	351.6	8.0	-63.2	2.1
2026-01-13 17:19:56.928818	351.5	7.8	-63.5	1.3
2026-01-13 17:19:59.172829	351.4	7.7	-62.9	2.0
2026-01-13 17:20:01.418368	351.2	7.5	-62.6	2.1
2026-01-13 17:20:03.662425	351.1	7.3	-62.8	0.0
2026-01-13 17:20:05.906932	351.0	7.2	-63.2	1.5
2026-01-13 17:20:08.150951	350.9	7.0	-63.7	3.3
2026-01-13 17:20:10.394985	350.8	6.8	-63.0	0.0
2026-01-13 17:20:12.639500	350.7	6.7	-63.6	3.7
2026-01-13 17:20:14.884045	350.5	6.5	-63.4	4.2
2026-01-13 17:20:17.128065	350.4	6.4	-62.4	2.5
2026-01-13 17:20:19.372571	350.3	6.2	-62.9	2.1
2026-01-13 17:20:21.617117	350.2	6.0	-63.3	3.6
2026-01-13 17:20:23.860641	350.1	5.9	-62.4	0.0
2026-01-13 17:20:26.104690	350.0	5.7	-64.5	0.0
2026-01-13 17:20:28.349205	349.9	5.6	-65.3	0.0
2026-01-13 17:20:30.593258	349.8	5.4	-64.2	0.0
2026-01-13 17:20:32.838277	349.7	5.3	-63.2	0.0
2026-01-13 17:20:35.083289	349.6	5.1	-64.3	0.0
#Closed at: 2026-01-13 17:08:18.227305