passes_logs/2026/01/13/PlanumMoscow/PlanumMoscow__20260113_120930_METEOR-M2_4_rec.log

#Pass ID: 20260113_120930_METEOR-M2 4
#Satellite: METEOR-M2 4
#Configuration: METEOR-M2 4
#Start time: 2026-01-13 12:09:35.696571

#LorettStation: 1.0.0 05.05.2024
#Station: PlanumMoscow
#Location: 37.6253844 lon 55.6713361 lat
#TLE: 1 59051U 24039A   25293.94737965  .00000087  00000+0  58459-4 0  9998
#TLE: 2 59051  98.6671 251.7071 0007726 135.4772 224.7028 14.22388966 85257

#Time	Az	El	Level	SNR
2026-01-13 12:13:14.125285	209.3	25.6	-61.0	6.8
2026-01-13 12:13:16.367314	209.7	25.9	-60.2	5.5
2026-01-13 12:13:18.612822	210.1	26.2	-59.8	5.0
2026-01-13 12:13:20.856337	210.6	26.5	-61.1	6.1
2026-01-13 12:13:23.099852	211.0	26.8	-61.6	5.7
2026-01-13 12:13:25.344359	211.5	27.1	-60.9	6.0
2026-01-13 12:13:27.588370	211.9	27.4	-62.0	7.4
2026-01-13 12:13:29.833391	212.4	27.7	-60.4	4.9
2026-01-13 12:13:32.077402	212.9	28.0	-62.0	8.6
2026-01-13 12:13:34.321918	213.4	28.3	-61.9	7.8
2026-01-13 12:13:36.565433	213.9	28.6	-62.0	8.3
2026-01-13 12:13:38.808453	214.4	28.9	-61.5	7.0
2026-01-13 12:13:41.052465	214.9	29.2	-62.1	8.1
2026-01-13 12:13:43.295484	215.4	29.5	-62.3	6.5
2026-01-13 12:13:45.540001	216.0	29.8	-61.7	6.1
2026-01-13 12:13:47.785012	216.5	30.1	-61.5	6.0
2026-01-13 12:13:50.030023	217.1	30.5	-60.0	4.8
2026-01-13 12:13:52.275540	217.6	30.8	-60.9	6.8
2026-01-13 12:13:54.519559	218.2	31.1	-61.0	5.0
2026-01-13 12:13:56.763569	218.8	31.4	-60.8	5.1
2026-01-13 12:13:59.009597	219.4	31.7	-60.4	2.7
2026-01-13 12:14:01.252121	220.0	32.0	-61.3	5.9
2026-01-13 12:14:03.496132	220.7	32.3	-61.5	7.8
2026-01-13 12:14:05.742639	221.3	32.6	-60.0	4.7
2026-01-13 12:14:07.987668	221.9	32.9	-60.7	5.4
2026-01-13 12:14:10.229697	222.6	33.2	-60.6	3.6
2026-01-13 12:14:12.473212	223.3	33.5	-61.0	5.9
2026-01-13 12:14:14.717224	223.9	33.8	-60.4	3.6
2026-01-13 12:14:16.960739	224.6	34.1	-62.1	5.4
2026-01-13 12:14:19.204262	225.4	34.4	-61.2	4.2
2026-01-13 12:14:21.452275	226.1	34.7	-62.0	5.9
2026-01-13 12:14:23.696295	226.8	35.0	-60.3	1.4
2026-01-13 12:14:25.938819	227.6	35.3	-61.0	4.3
2026-01-13 12:14:28.181343	228.3	35.6	-61.5	4.7
2026-01-13 12:14:30.424362	229.1	35.9	-62.0	5.7
2026-01-13 12:14:32.668869	229.9	36.2	-61.5	5.0
2026-01-13 12:14:34.912383	230.7	36.4	-61.5	5.2
2026-01-13 12:14:37.155898	231.5	36.7	-59.9	2.6
2026-01-13 12:14:39.399422	232.3	37.0	-61.7	5.7
2026-01-13 12:14:41.643432	233.2	37.3	-62.2	4.6
2026-01-13 12:14:43.887464	234.0	37.5	-60.9	4.2
2026-01-13 12:14:46.131476	234.9	37.8	-60.2	1.7
2026-01-13 12:14:48.374991	235.8	38.0	-61.5	4.3
2026-01-13 12:14:50.623003	236.7	38.3	-61.4	4.1
2026-01-13 12:14:52.867014	237.6	38.5	-60.1	2.2
2026-01-13 12:14:55.109539	238.5	38.7	-60.0	0.7
2026-01-13 12:14:57.352559	239.4	39.0	-60.8	2.3
2026-01-13 12:14:59.595579	240.4	39.2	-59.9	4.0
2026-01-13 12:15:01.837094	241.3	39.4	-58.7	0.3
2026-01-13 12:15:04.081105	242.3	39.6	-60.2	0.0
2026-01-13 12:15:06.326117	243.3	39.8	-61.4	3.7
2026-01-13 12:15:08.570623	244.3	40.0	-58.4	0.3
2026-01-13 12:15:10.813148	245.3	40.2	-59.4	0.1
2026-01-13 12:15:13.059674	246.3	40.3	-60.5	0.7
2026-01-13 12:15:15.303199	247.3	40.5	-61.1	0.0
2026-01-13 12:15:17.547210	248.4	40.6	-59.8	0.5
2026-01-13 12:15:19.790726	249.4	40.8	-61.5	0.2
2026-01-13 12:15:22.033250	250.5	40.9	-62.0	2.8
2026-01-13 12:15:24.277261	251.5	41.0	-61.4	1.3
2026-01-13 12:15:26.520777	252.6	41.1	-61.9	2.3
2026-01-13 12:15:28.765293	253.7	41.2	-62.2	2.9
2026-01-13 12:15:31.008311	254.8	41.3	-61.0	1.9
2026-01-13 12:15:33.252818	255.8	41.4	-60.9	0.0
2026-01-13 12:15:35.496334	256.9	41.5	-62.0	3.6
2026-01-13 12:15:37.740849	258.0	41.5	-62.0	0.0
2026-01-13 12:15:39.983373	259.1	41.6	-62.9	2.9
2026-01-13 12:15:42.227392	260.2	41.6	-62.5	2.9
2026-01-13 12:15:44.471403	261.3	41.6	-62.0	4.3
2026-01-13 12:15:46.715414	262.4	41.6	-62.3	3.0
2026-01-13 12:15:48.959921	263.6	41.6	-61.8	1.8
2026-01-13 12:15:51.203931	264.7	41.6	-62.4	2.2
2026-01-13 12:15:53.447470	265.8	41.6	-63.1	5.5
2026-01-13 12:15:55.690489	266.9	41.5	-63.7	5.8
2026-01-13 12:15:57.934005	268.0	41.5	-62.7	0.7
2026-01-13 12:16:00.178033	269.1	41.4	-63.8	4.5
2026-01-13 12:16:02.421548	270.1	41.4	-63.1	5.6
2026-01-13 12:16:04.665559	271.2	41.3	-64.0	3.2
2026-01-13 12:16:06.909075	272.3	41.2	-63.9	5.6
2026-01-13 12:16:09.152591	273.4	41.1	-63.7	3.8
2026-01-13 12:16:11.395611	274.4	41.0	-64.0	6.0
2026-01-13 12:16:13.640118	275.5	40.8	-63.7	4.4
2026-01-13 12:16:15.883633	276.5	40.7	-62.7	3.2
2026-01-13 12:16:18.127654	277.6	40.6	-63.6	4.6
2026-01-13 12:16:20.374161	278.6	40.4	-63.1	3.5
2026-01-13 12:16:22.617676	279.6	40.2	-62.7	1.7
2026-01-13 12:16:24.861687	280.6	40.1	-61.7	2.9
2026-01-13 12:16:27.103716	281.6	39.9	-62.6	4.0
2026-01-13 12:16:29.347230	282.6	39.7	-62.7	0.9
2026-01-13 12:16:31.588770	283.6	39.5	-64.4	6.8
2026-01-13 12:16:33.832295	284.6	39.3	-63.7	4.3
2026-01-13 12:16:36.076307	285.5	39.1	-63.1	1.1
2026-01-13 12:16:38.320318	286.4	38.8	-62.0	3.0
2026-01-13 12:16:40.564330	287.4	38.6	-63.4	3.9
2026-01-13 12:16:42.807349	288.3	38.4	-64.2	4.1
2026-01-13 12:16:45.051359	289.2	38.1	-64.3	6.4
2026-01-13 12:16:47.296371	290.1	37.9	-62.5	3.5
2026-01-13 12:16:49.539886	290.9	37.6	-62.1	3.5
2026-01-13 12:16:51.782907	291.8	37.4	-62.9	3.8
2026-01-13 12:16:54.026422	292.6	37.1	-63.6	4.8
2026-01-13 12:16:56.269938	293.5	36.8	-64.7	6.1
2026-01-13 12:16:58.513958	294.3	36.6	-62.3	3.4
2026-01-13 12:17:00.757970	295.1	36.3	-63.8	7.0
2026-01-13 12:17:03.001981	295.9	36.0	-62.9	3.7
2026-01-13 12:17:05.245496	296.6	35.7	-63.3	4.7
2026-01-13 12:17:07.489012	297.4	35.5	-64.1	7.6
2026-01-13 12:17:09.732536	298.2	35.2	-63.9	6.6
2026-01-13 12:17:11.976059	298.9	34.9	-62.8	4.4
2026-01-13 12:17:14.217591	299.6	34.6	-62.9	6.8
2026-01-13 12:17:16.461602	300.3	34.3	-63.9	6.7
2026-01-13 12:17:18.705613	301.0	34.0	-63.4	7.4
2026-01-13 12:17:20.954626	301.7	33.7	-63.4	7.0
2026-01-13 12:17:23.197646	302.4	33.4	-64.2	8.5
2026-01-13 12:17:25.441160	303.1	33.1	-64.7	8.4
2026-01-13 12:17:27.685179	303.7	32.8	-65.4	9.7
2026-01-13 12:17:29.928696	304.3	32.5	-65.1	9.3
2026-01-13 12:17:32.173203	305.0	32.2	-65.0	8.8
2026-01-13 12:17:34.417214	305.6	31.9	-63.9	6.8
2026-01-13 12:17:36.664737	306.2	31.6	-65.4	9.2
2026-01-13 12:17:38.908748	306.8	31.3	-65.0	8.3
2026-01-13 12:17:41.153255	307.4	31.0	-65.4	8.6
2026-01-13 12:17:43.396771	307.9	30.6	-65.1	9.1
2026-01-13 12:17:45.640782	308.5	30.3	-65.5	9.2
2026-01-13 12:17:47.884794	309.0	30.0	-65.8	9.9
2026-01-13 12:17:50.128806	309.6	29.7	-65.4	10.2
2026-01-13 12:17:52.373321	310.1	29.4	-65.2	9.0
2026-01-13 12:17:54.617331	310.6	29.1	-65.3	10.2
2026-01-13 12:17:56.860350	311.1	28.8	-65.7	10.3
2026-01-13 12:17:59.104865	311.6	28.5	-64.6	8.1
2026-01-13 12:18:01.349381	312.1	28.2	-65.8	9.7
2026-01-13 12:18:03.592905	312.6	27.9	-65.4	9.8
2026-01-13 12:18:05.835925	313.1	27.6	-65.6	9.4
2026-01-13 12:18:08.080431	313.6	27.3	-65.7	10.0
2026-01-13 12:18:10.324443	314.0	27.0	-65.2	9.8
2026-01-13 12:18:12.567464	314.5	26.7	-65.4	10.3
2026-01-13 12:18:14.810979	314.9	26.5	-65.4	9.8
2026-01-13 12:18:17.054989	315.3	26.2	-65.5	10.2
2026-01-13 12:18:19.299496	315.8	25.9	-65.2	10.2
2026-01-13 12:18:21.543507	316.2	25.6	-65.9	10.9
2026-01-13 12:18:23.787518	316.6	25.3	-65.4	10.0
2026-01-13 12:18:26.031539	317.0	25.0	-65.9	10.4
2026-01-13 12:18:28.275550	317.4	24.7	-65.9	9.7
2026-01-13 12:18:30.519065	317.8	24.4	-65.1	8.6
2026-01-13 12:18:32.762589	318.2	24.2	-65.6	9.9
2026-01-13 12:18:35.005114	318.5	23.9	-66.1	10.4
2026-01-13 12:18:37.249620	318.9	23.6	-66.2	9.7
2026-01-13 12:18:39.493144	319.3	23.3	-65.9	9.0
2026-01-13 12:18:41.737155	319.6	23.1	-65.9	8.5
2026-01-13 12:18:43.981662	320.0	22.8	-64.4	9.3
2026-01-13 12:18:46.226177	320.3	22.5	-65.2	8.8
2026-01-13 12:18:48.469197	320.7	22.3	-65.9	9.8
2026-01-13 12:18:50.712227	321.0	22.0	-65.9	9.5
2026-01-13 12:18:52.956238	321.3	21.7	-65.6	8.5
2026-01-13 12:18:55.199258	321.7	21.5	-65.9	9.3
2026-01-13 12:18:57.441286	322.0	21.2	-65.4	9.6
2026-01-13 12:18:59.684802	322.3	21.0	-65.8	8.3
2026-01-13 12:19:01.927821	322.6	20.7	-65.5	8.7
2026-01-13 12:19:04.172328	322.9	20.4	-65.8	8.2
2026-01-13 12:19:06.416844	323.2	20.2	-65.7	8.9
2026-01-13 12:19:08.660359	323.5	19.9	-66.1	8.6
2026-01-13 12:19:10.904371	323.8	19.7	-65.7	9.0
2026-01-13 12:19:13.147894	324.1	19.4	-65.8	10.3
2026-01-13 12:19:15.391411	324.3	19.2	-65.3	8.6
2026-01-13 12:19:17.635918	324.6	19.0	-65.9	9.5
2026-01-13 12:19:19.879433	324.9	18.7	-65.6	9.1
2026-01-13 12:19:22.126950	325.2	18.5	-65.4	7.9
2026-01-13 12:19:24.370465	325.4	18.2	-65.0	7.3
2026-01-13 12:19:26.613500	325.7	18.0	-65.6	8.4
2026-01-13 12:19:28.857026	325.9	17.8	-65.8	8.3
2026-01-13 12:19:31.100046	326.2	17.5	-65.6	8.9
2026-01-13 12:19:33.343066	326.4	17.3	-64.5	7.4
2026-01-13 12:19:35.585091	326.7	17.1	-65.6	7.6
2026-01-13 12:19:37.830607	326.9	16.8	-65.0	7.1
2026-01-13 12:19:40.074122	327.2	16.6	-65.7	8.4
2026-01-13 12:19:42.317142	327.4	16.4	-65.3	8.0
2026-01-13 12:19:44.561657	327.6	16.2	-65.3	7.4
2026-01-13 12:19:46.804693	327.9	15.9	-65.6	8.0
2026-01-13 12:19:49.046729	328.1	15.7	-65.2	7.0
2026-01-13 12:19:51.290740	328.3	15.5	-65.7	8.0
2026-01-13 12:19:53.533769	328.5	15.3	-65.6	7.5
2026-01-13 12:19:55.777781	328.7	15.1	-65.8	8.0
2026-01-13 12:19:58.022296	328.9	14.9	-65.6	7.4
2026-01-13 12:20:00.265811	329.2	14.7	-66.2	8.0
2026-01-13 12:20:02.509327	329.4	14.4	-65.5	6.3
2026-01-13 12:20:04.753338	329.6	14.2	-66.0	7.0
2026-01-13 12:20:06.995862	329.8	14.0	-65.6	6.1
2026-01-13 12:20:09.239883	330.0	13.8	-65.6	6.3
2026-01-13 12:20:11.483409	330.2	13.6	-65.3	6.5
2026-01-13 12:20:13.726925	330.4	13.4	-66.2	6.9
2026-01-13 12:20:15.970448	330.5	13.2	-65.7	6.5
2026-01-13 12:20:18.214460	330.7	13.0	-65.8	6.3
2026-01-13 12:20:20.457976	330.9	12.8	-65.9	6.7
2026-01-13 12:20:22.700501	331.1	12.6	-65.8	6.7
2026-01-13 12:20:24.944030	331.3	12.4	-65.6	5.1
2026-01-13 12:20:27.189039	331.5	12.2	-65.7	6.7
2026-01-13 12:20:29.433049	331.6	12.0	-65.6	6.7
2026-01-13 12:20:31.675573	331.8	11.8	-65.9	7.5
2026-01-13 12:20:33.919088	332.0	11.6	-65.8	6.3
2026-01-13 12:20:36.162603	332.2	11.5	-65.5	6.1
2026-01-13 12:20:38.406615	332.3	11.3	-65.3	6.4
2026-01-13 12:20:40.650626	332.5	11.1	-65.8	6.8
2026-01-13 12:20:42.894658	332.7	10.9	-65.7	7.2
2026-01-13 12:20:45.137677	332.8	10.7	-65.3	7.3
2026-01-13 12:20:47.380698	333.0	10.5	-65.0	5.1
2026-01-13 12:20:49.625205	333.1	10.3	-65.2	5.2
2026-01-13 12:20:51.867727	333.3	10.2	-65.1	6.5
2026-01-13 12:20:54.112235	333.4	10.0	-64.5	4.7
2026-01-13 12:20:56.355750	333.6	9.8	-64.8	5.8
2026-01-13 12:20:58.599266	333.8	9.6	-64.7	4.8
2026-01-13 12:21:00.843781	333.9	9.5	-64.4	3.9
2026-01-13 12:21:03.087309	334.1	9.3	-65.0	5.1
2026-01-13 12:21:05.330824	334.2	9.1	-65.0	3.7
2026-01-13 12:21:07.576341	334.3	8.9	-64.5	3.1
2026-01-13 12:21:09.820352	334.5	8.8	-64.9	3.1
2026-01-13 12:21:12.064370	334.6	8.6	-64.6	3.1
2026-01-13 12:21:14.309913	334.8	8.4	-64.6	4.4
2026-01-13 12:21:16.551942	334.9	8.2	-64.5	6.0
2026-01-13 12:21:18.795466	335.0	8.1	-64.1	3.6
2026-01-13 12:21:21.038990	335.2	7.9	-63.7	4.7
2026-01-13 12:21:23.284001	335.3	7.7	-64.3	3.0
2026-01-13 12:21:25.527516	335.4	7.6	-63.9	4.8
2026-01-13 12:21:27.771033	335.6	7.4	-62.8	3.9
2026-01-13 12:21:30.014053	335.7	7.3	-62.9	3.3
2026-01-13 12:21:32.255588	335.8	7.1	-63.8	1.8
2026-01-13 12:21:34.499104	336.0	6.9	-63.2	0.0
2026-01-13 12:21:36.740140	336.1	6.8	-63.3	3.0
2026-01-13 12:21:38.984656	336.2	6.6	-63.6	1.8
2026-01-13 12:21:41.228666	336.3	6.4	-63.4	0.0
2026-01-13 12:21:43.472677	336.5	6.3	-63.2	0.0
2026-01-13 12:21:45.715698	336.6	6.1	-63.4	2.7
2026-01-13 12:21:47.959709	336.7	6.0	-65.7	0.0
2026-01-13 12:21:50.204720	336.8	5.8	-66.5	0.0
2026-01-13 12:21:52.448730	336.9	5.7	-66.7	0.0
2026-01-13 12:21:54.692751	337.1	5.5	-67.6	0.0
2026-01-13 12:21:56.936763	337.2	5.4	-66.5	0.0
2026-01-13 12:21:59.180774	337.3	5.2	-67.5	0.0
2026-01-13 12:22:01.427814	337.4	5.1	-67.1	0.0
#Closed at: 2026-01-13 12:09:30.698645