passes_logs/2026/01/13/PlanumMoscow/PlanumMoscow__20260113_064011_METOP-B_rec.log

#Pass ID: 20260113_064011_METOP-B
#Satellite: METOP-B
#Configuration: METOP-B
#Start time: 2026-01-13 06:40:16.781835

#LorettStation: 1.0.0 05.05.2024
#Station: PlanumMoscow
#Location: 37.6253844 lon 55.6713361 lat
#TLE: 1 38771U 12049A   25293.92766658  .00000266  00000+0  14193-3 0  9996
#TLE: 2 38771  98.6882 344.7603 0001609 341.5209  18.5909 14.21379342679275

#Time	Az	El	Level	SNR
2026-01-13 06:43:55.207987	35.7	27.4	-60.8	0.8
2026-01-13 06:43:57.454521	36.1	27.7	-61.7	1.8
2026-01-13 06:43:59.694540	36.4	28.1	-60.6	1.2
2026-01-13 06:44:01.938054	36.7	28.4	-60.8	1.2
2026-01-13 06:44:04.178072	37.1	28.8	-60.4	1.7
2026-01-13 06:44:06.412577	37.4	29.1	-60.8	1.4
2026-01-13 06:44:08.653093	37.8	29.5	-61.1	1.4
2026-01-13 06:44:10.897103	38.1	29.9	-60.7	0.0
2026-01-13 06:44:13.130112	38.5	30.3	-60.4	1.2
2026-01-13 06:44:15.361625	38.9	30.6	-60.1	0.0
2026-01-13 06:44:17.594153	39.3	31.0	-60.6	0.0
2026-01-13 06:44:19.827665	39.7	31.4	-59.7	0.0
2026-01-13 06:44:22.062169	40.1	31.8	-59.9	0.0
2026-01-13 06:44:24.294178	40.5	32.2	-60.1	0.0
2026-01-13 06:44:26.528682	41.0	32.6	-60.8	0.2
2026-01-13 06:44:28.759691	41.4	33.0	-60.7	0.0
2026-01-13 06:44:30.991203	41.9	33.4	-59.9	0.0
2026-01-13 06:44:33.224211	42.3	33.8	-59.9	0.0
2026-01-13 06:44:35.456724	42.8	34.2	-61.1	0.5
2026-01-13 06:44:37.693238	43.3	34.6	-61.1	0.0
2026-01-13 06:44:39.924750	43.8	35.1	-61.9	1.5
2026-01-13 06:44:42.162760	44.3	35.5	-61.1	0.0
2026-01-13 06:44:44.396274	44.8	35.9	-60.9	0.7
2026-01-13 06:44:46.628787	45.4	36.3	-60.5	0.0
2026-01-13 06:44:48.860290	45.9	36.8	-60.4	0.0
2026-01-13 06:44:51.093803	46.5	37.2	-60.9	0.0
2026-01-13 06:44:53.325307	47.1	37.6	-60.0	0.0
2026-01-13 06:44:55.557819	47.7	38.1	-60.3	0.0
2026-01-13 06:44:57.795332	48.3	38.5	-60.8	0.4
2026-01-13 06:45:00.029846	48.9	38.9	-61.2	2.3
2026-01-13 06:45:02.261854	49.6	39.4	-59.2	0.0
2026-01-13 06:45:04.504874	50.2	39.8	-59.4	0.8
2026-01-13 06:45:06.748885	50.9	40.3	-59.0	0.0
2026-01-13 06:45:08.991906	51.6	40.7	-59.2	1.6
2026-01-13 06:45:11.234926	52.4	41.2	-60.2	1.6
2026-01-13 06:45:13.479433	53.1	41.6	-60.8	1.3
2026-01-13 06:45:15.723960	53.9	42.1	-60.7	0.0
2026-01-13 06:45:17.967484	54.7	42.5	-60.6	0.0
2026-01-13 06:45:20.212000	55.5	43.0	-59.6	0.0
2026-01-13 06:45:22.455021	56.3	43.4	-59.9	0.0
2026-01-13 06:45:24.698545	57.2	43.9	-60.1	0.0
2026-01-13 06:45:26.942576	58.1	44.3	-60.3	0.0
2026-01-13 06:45:29.186092	59.0	44.8	-60.9	0.0
2026-01-13 06:45:31.433617	59.9	45.2	-60.6	2.9
2026-01-13 06:45:33.677143	60.9	45.7	-60.1	0.1
2026-01-13 06:45:35.921153	61.9	46.1	-61.2	1.0
2026-01-13 06:45:38.165165	62.9	46.5	-58.1	0.0
2026-01-13 06:45:40.408679	63.9	46.9	-61.5	1.4
2026-01-13 06:45:42.652196	65.0	47.4	-61.1	0.5
2026-01-13 06:45:44.895217	66.1	47.8	-61.4	3.1
2026-01-13 06:45:47.138733	67.2	48.2	-61.9	1.8
2026-01-13 06:45:49.383239	68.4	48.6	-61.7	0.9
2026-01-13 06:45:51.627756	69.6	49.0	-60.7	0.0
2026-01-13 06:45:53.872767	70.8	49.3	-61.9	1.6
2026-01-13 06:45:56.115301	72.0	49.7	-62.3	2.8
2026-01-13 06:45:58.358816	73.3	50.0	-61.6	2.6
2026-01-13 06:46:00.602828	74.6	50.4	-61.9	2.4
2026-01-13 06:46:02.845848	75.9	50.7	-61.9	3.7
2026-01-13 06:46:05.088878	77.3	51.0	-61.6	2.7
2026-01-13 06:46:07.331410	78.7	51.3	-62.2	4.1
2026-01-13 06:46:09.574432	80.1	51.6	-61.5	0.0
2026-01-13 06:46:11.821948	81.6	51.9	-62.3	3.5
2026-01-13 06:46:14.063979	83.0	52.1	-61.9	3.1
2026-01-13 06:46:16.307512	84.5	52.3	-61.8	2.8
2026-01-13 06:46:18.549045	86.0	52.6	-61.8	3.9
2026-01-13 06:46:20.794560	87.6	52.7	-61.8	2.3
2026-01-13 06:46:23.038076	89.1	52.9	-62.4	0.0
2026-01-13 06:46:25.282088	90.7	53.1	-62.2	0.0
2026-01-13 06:46:27.530611	92.3	53.2	-62.8	4.3
2026-01-13 06:46:29.774127	93.9	53.3	-61.5	0.0
2026-01-13 06:46:32.018139	95.5	53.4	-62.4	3.8
2026-01-13 06:46:34.263150	97.1	53.4	-60.5	0.0
2026-01-13 06:46:36.507162	98.7	53.5	-63.3	3.0
2026-01-13 06:46:38.751174	100.4	53.5	-62.4	2.6
2026-01-13 06:46:40.995681	102.0	53.5	-62.3	5.1
2026-01-13 06:46:43.238217	103.6	53.5	-63.8	2.4
2026-01-13 06:46:45.481246	105.2	53.4	-62.7	1.8
2026-01-13 06:46:47.724762	106.9	53.3	-63.0	3.0
2026-01-13 06:46:49.970269	108.5	53.2	-62.6	3.4
2026-01-13 06:46:52.216280	110.1	53.1	-63.7	6.0
2026-01-13 06:46:54.459301	111.6	53.0	-62.4	1.4
2026-01-13 06:46:56.702330	113.2	52.8	-64.2	4.4
2026-01-13 06:46:58.946342	114.7	52.6	-63.8	3.7
2026-01-13 06:47:01.191363	116.3	52.4	-63.8	4.7
2026-01-13 06:47:03.434888	117.8	52.2	-64.4	6.7
2026-01-13 06:47:05.679403	119.2	52.0	-63.2	3.7
2026-01-13 06:47:07.920442	120.7	51.7	-64.1	6.1
2026-01-13 06:47:10.164454	122.1	51.4	-63.8	5.9
2026-01-13 06:47:12.405988	123.5	51.1	-64.2	5.0
2026-01-13 06:47:14.648521	124.9	50.8	-63.0	5.9
2026-01-13 06:47:16.896038	126.2	50.5	-63.0	4.4
2026-01-13 06:47:19.139554	127.6	50.2	-63.9	5.4
2026-01-13 06:47:21.383577	128.8	49.8	-63.6	5.7
2026-01-13 06:47:23.626597	130.1	49.4	-64.8	6.3
2026-01-13 06:47:25.869616	131.3	49.1	-64.2	5.5
2026-01-13 06:47:28.111654	132.5	48.7	-63.8	5.3
2026-01-13 06:47:30.354674	133.7	48.3	-65.0	7.1
2026-01-13 06:47:32.598696	134.8	47.9	-64.6	7.7
2026-01-13 06:47:34.843213	136.0	47.5	-65.0	7.7
2026-01-13 06:47:37.086233	137.0	47.1	-64.7	7.5
2026-01-13 06:47:39.329253	138.1	46.6	-65.1	9.1
2026-01-13 06:47:41.573265	139.1	46.2	-64.9	9.0
2026-01-13 06:47:43.817277	140.1	45.8	-65.0	9.5
2026-01-13 06:47:46.060792	141.1	45.3	-65.0	9.4
2026-01-13 06:47:48.303318	142.0	44.9	-65.5	9.4
2026-01-13 06:47:50.547329	143.0	44.5	-65.5	8.5
2026-01-13 06:47:52.790844	143.8	44.0	-65.4	9.1
2026-01-13 06:47:55.034856	144.7	43.6	-65.3	9.1
2026-01-13 06:47:57.280877	145.6	43.1	-65.4	8.9
2026-01-13 06:47:59.525384	146.4	42.7	-65.6	8.9
2026-01-13 06:48:01.768403	147.2	42.2	-65.3	8.6
2026-01-13 06:48:04.013424	148.0	41.7	-65.4	9.5
2026-01-13 06:48:06.257435	148.7	41.3	-65.1	9.7
2026-01-13 06:48:08.501447	149.5	40.8	-65.2	9.4
2026-01-13 06:48:10.744466	150.2	40.4	-64.9	9.8
2026-01-13 06:48:12.988982	150.9	39.9	-64.7	9.8
2026-01-13 06:48:15.232994	151.6	39.5	-64.7	10.5
2026-01-13 06:48:17.476013	152.2	39.0	-65.0	10.1
2026-01-13 06:48:19.720034	152.9	38.6	-65.1	9.6
2026-01-13 06:48:21.965054	153.5	38.1	-64.9	9.9
2026-01-13 06:48:24.209074	154.1	37.7	-65.0	10.0
2026-01-13 06:48:26.453085	154.7	37.3	-65.0	9.9
2026-01-13 06:48:28.696601	155.3	36.8	-64.8	9.6
2026-01-13 06:48:30.939622	155.8	36.4	-64.5	9.9
2026-01-13 06:48:33.184129	156.4	35.9	-64.7	10.0
2026-01-13 06:48:35.427648	156.9	35.5	-64.6	10.5
2026-01-13 06:48:37.672710	157.4	35.1	-64.7	10.0
2026-01-13 06:48:39.916732	157.9	34.7	-65.0	10.3
2026-01-13 06:48:42.160248	158.4	34.2	-65.1	10.7
2026-01-13 06:48:44.402772	158.9	33.8	-64.9	10.4
2026-01-13 06:48:46.650346	159.4	33.4	-64.7	9.5
2026-01-13 06:48:48.893862	159.8	33.0	-64.4	9.6
2026-01-13 06:48:51.137377	160.3	32.6	-64.8	9.9
2026-01-13 06:48:53.381388	160.7	32.2	-65.0	10.0
2026-01-13 06:48:55.625903	161.1	31.8	-64.8	10.3
2026-01-13 06:48:57.869472	161.6	31.4	-64.8	10.4
2026-01-13 06:49:00.113989	162.0	31.0	-64.5	9.7
2026-01-13 06:49:02.357504	162.4	30.6	-65.1	9.2
2026-01-13 06:49:04.601516	162.7	30.2	-65.0	9.5
2026-01-13 06:49:06.845527	163.1	29.9	-65.0	9.8
2026-01-13 06:49:09.086071	163.5	29.5	-64.7	9.3
2026-01-13 06:49:11.330606	163.9	29.1	-65.0	10.1
2026-01-13 06:49:13.574121	164.2	28.7	-64.6	8.8
2026-01-13 06:49:15.818133	164.6	28.4	-64.5	9.9
2026-01-13 06:49:18.061153	164.9	28.0	-64.7	8.3
2026-01-13 06:49:20.305660	165.2	27.7	-64.7	9.8
2026-01-13 06:49:22.549176	165.6	27.3	-64.6	9.6
2026-01-13 06:49:24.791710	165.9	27.0	-64.8	9.1
2026-01-13 06:49:27.035225	166.2	26.6	-64.5	8.9
2026-01-13 06:49:29.279236	166.5	26.3	-64.6	9.6
2026-01-13 06:49:31.523743	166.8	25.9	-64.8	9.5
2026-01-13 06:49:33.767755	167.1	25.6	-64.7	9.5
2026-01-13 06:49:36.010776	167.4	25.3	-65.2	9.3
2026-01-13 06:49:38.252806	167.6	24.9	-65.1	9.2
2026-01-13 06:49:40.494339	167.9	24.6	-65.3	9.4
2026-01-13 06:49:42.739370	168.2	24.3	-65.0	7.6
2026-01-13 06:49:44.983876	168.4	24.0	-65.4	8.8
2026-01-13 06:49:47.227887	168.7	23.6	-65.1	8.7
2026-01-13 06:49:49.471402	169.0	23.3	-64.7	8.3
2026-01-13 06:49:51.715918	169.2	23.0	-64.8	7.7
2026-01-13 06:49:53.958939	169.4	22.7	-64.9	8.6
2026-01-13 06:49:56.200968	169.7	22.4	-64.6	8.4
2026-01-13 06:49:58.443998	169.9	22.1	-64.7	7.1
2026-01-13 06:50:00.688009	170.2	21.8	-64.9	9.3
2026-01-13 06:50:02.931525	170.4	21.5	-64.1	7.2
2026-01-13 06:50:05.175536	170.6	21.2	-64.7	7.7
2026-01-13 06:50:07.421557	170.8	20.9	-65.1	8.4
2026-01-13 06:50:09.665073	171.0	20.7	-64.9	7.2
2026-01-13 06:50:11.909093	171.2	20.4	-64.9	6.6
2026-01-13 06:50:14.152112	171.5	20.1	-64.6	7.7
2026-01-13 06:50:16.395629	171.7	19.8	-64.8	7.2
2026-01-13 06:50:18.637660	171.9	19.6	-63.3	5.4
2026-01-13 06:50:20.881184	172.1	19.3	-64.9	5.8
2026-01-13 06:50:23.129702	172.2	19.0	-65.2	7.7
2026-01-13 06:50:25.373219	172.4	18.7	-65.0	7.7
2026-01-13 06:50:27.617229	172.6	18.5	-65.0	7.5
2026-01-13 06:50:29.860250	172.8	18.2	-64.9	8.3
2026-01-13 06:50:32.104778	173.0	18.0	-65.0	6.4
2026-01-13 06:50:34.348790	173.2	17.7	-64.5	6.0
2026-01-13 06:50:36.592801	173.3	17.5	-64.9	7.0
2026-01-13 06:50:38.835345	173.5	17.2	-64.7	6.5
2026-01-13 06:50:41.079852	173.7	17.0	-64.7	6.1
2026-01-13 06:50:43.323863	173.9	16.7	-65.0	7.1
2026-01-13 06:50:45.567890	174.0	16.5	-65.1	6.6
2026-01-13 06:50:47.812426	174.2	16.2	-64.6	6.4
2026-01-13 06:50:50.055951	174.3	16.0	-64.3	3.6
2026-01-13 06:50:52.298971	174.5	15.7	-63.3	5.7
2026-01-13 06:50:54.546984	174.6	15.5	-64.0	4.1
2026-01-13 06:50:56.789013	174.8	15.3	-64.7	5.0
2026-01-13 06:50:59.032547	175.0	15.0	-64.4	4.5
2026-01-13 06:51:01.275568	175.1	14.8	-64.8	6.0
2026-01-13 06:51:03.520084	175.2	14.6	-64.5	4.7
2026-01-13 06:51:05.764095	175.4	14.4	-64.8	5.9
2026-01-13 06:51:08.007612	175.5	14.1	-64.5	4.0
2026-01-13 06:51:10.250631	175.7	13.9	-65.2	5.7
2026-01-13 06:51:12.494642	175.8	13.7	-65.2	5.3
2026-01-13 06:51:14.739149	175.9	13.5	-64.9	5.2
2026-01-13 06:51:16.983178	176.1	13.3	-64.4	3.6
2026-01-13 06:51:19.227189	176.2	13.0	-65.2	4.7
2026-01-13 06:51:21.469714	176.3	12.8	-64.7	4.0
2026-01-13 06:51:23.713725	176.5	12.6	-64.5	2.6
2026-01-13 06:51:25.957746	176.6	12.4	-64.6	2.5
2026-01-13 06:51:28.201775	176.7	12.2	-65.1	4.8
2026-01-13 06:51:30.444796	176.8	12.0	-64.6	3.7
2026-01-13 06:51:32.688322	177.0	11.8	-64.4	2.9
2026-01-13 06:51:34.934848	177.1	11.6	-64.4	3.8
2026-01-13 06:51:37.179859	177.2	11.4	-64.5	3.4
2026-01-13 06:51:39.424366	177.3	11.2	-64.2	2.1
2026-01-13 06:51:41.667387	177.4	11.0	-65.1	3.8
2026-01-13 06:51:43.910901	177.5	10.8	-65.1	3.1
2026-01-13 06:51:46.154921	177.7	10.6	-64.6	3.4
2026-01-13 06:51:48.398932	177.8	10.4	-64.9	3.1
2026-01-13 06:51:50.642952	177.9	10.2	-64.1	2.8
2026-01-13 06:51:52.885475	178.0	10.0	-63.8	0.0
2026-01-13 06:51:55.129982	178.1	9.8	-63.8	1.8
2026-01-13 06:51:57.373994	178.2	9.6	-64.6	1.2
2026-01-13 06:51:59.617510	178.3	9.5	-63.5	0.0
2026-01-13 06:52:01.862017	178.4	9.3	-64.5	2.7
2026-01-13 06:52:04.106038	178.5	9.1	-63.2	0.0
2026-01-13 06:52:06.350050	178.6	8.9	-64.4	0.0
2026-01-13 06:52:08.594572	178.7	8.7	-62.4	0.0
2026-01-13 06:52:10.838089	178.8	8.5	-64.0	1.4
2026-01-13 06:52:13.080117	178.9	8.4	-63.6	0.0
2026-01-13 06:52:15.323651	179.0	8.2	-64.2	0.0
2026-01-13 06:52:17.568688	179.1	8.0	-63.6	0.0
2026-01-13 06:52:19.811718	179.2	7.8	-64.3	0.0
2026-01-13 06:52:22.054739	179.3	7.7	-64.2	0.8
2026-01-13 06:52:24.295785	179.4	7.5	-64.0	0.0
2026-01-13 06:52:26.539796	179.5	7.3	-63.7	0.0
2026-01-13 06:52:28.783312	179.6	7.1	-64.2	0.0
2026-01-13 06:52:31.027323	179.7	7.0	-63.5	0.0
2026-01-13 06:52:33.271344	179.7	6.8	-62.6	0.0
2026-01-13 06:52:35.514859	179.8	6.6	-61.9	0.0
2026-01-13 06:52:37.759366	179.9	6.5	-63.5	0.0
2026-01-13 06:52:40.003378	180.0	6.3	-62.2	0.0
2026-01-13 06:52:42.245420	180.1	6.1	-61.4	0.0
2026-01-13 06:52:44.488440	180.2	6.0	-64.9	0.0
2026-01-13 06:52:46.731964	180.3	5.8	-69.8	0.0
2026-01-13 06:52:48.974488	180.3	5.7	-70.4	0.0
2026-01-13 06:52:51.217012	180.4	5.5	-68.9	0.0
2026-01-13 06:52:53.461033	180.5	5.3	-70.0	0.0
2026-01-13 06:52:55.704548	180.6	5.2	-71.3	0.0
2026-01-13 06:52:57.947073	180.7	5.0	-71.6	0.0
#Closed at: 2026-01-13 06:40:11.783271