passes_logs/2026/01/13/PlanumMoscow/PlanumMoscow__20260113_022003_METEOR-M2_4_rec.log

#Pass ID: 20260113_022003_METEOR-M2 4
#Satellite: METEOR-M2 4
#Configuration: METEOR-M2 4
#Start time: 2026-01-13 02:20:08.948113

#LorettStation: 1.0.0 05.05.2024
#Station: PlanumMoscow
#Location: 37.6253844 lon 55.6713361 lat
#TLE: 1 59051U 24039A   25293.94737965  .00000087  00000+0  58459-4 0  9998
#TLE: 2 59051  98.6671 251.7071 0007726 135.4772 224.7028 14.22388966 85257

#Time	Az	El	Level	SNR
2026-01-13 02:23:47.425125	341.9	22.4	-61.5	7.0
2026-01-13 02:23:48.547884	341.6	22.5	-61.7	7.0
2026-01-13 02:23:49.669154	341.4	22.6	-61.5	7.3
2026-01-13 02:23:50.790947	341.2	22.7	-61.6	7.0
2026-01-13 02:23:51.915707	340.9	22.8	-61.4	7.0
2026-01-13 02:23:53.037473	340.7	22.9	-61.7	7.1
2026-01-13 02:23:54.159231	340.4	23.0	-61.5	7.1
2026-01-13 02:23:55.281484	340.2	23.1	-61.6	7.0
2026-01-13 02:23:56.404248	339.9	23.2	-61.5	7.4
2026-01-13 02:23:57.527003	339.7	23.3	-61.4	6.8
2026-01-13 02:23:58.651766	339.4	23.4	-61.3	7.1
2026-01-13 02:23:59.775020	339.2	23.5	-61.2	7.2
2026-01-13 02:24:00.896777	338.9	23.6	-61.0	7.4
2026-01-13 02:24:02.020045	338.6	23.7	-60.8	7.1
2026-01-13 02:24:03.141830	338.4	23.8	-60.7	6.6
2026-01-13 02:24:04.263092	338.1	23.9	-60.5	6.6
2026-01-13 02:24:05.385345	337.9	24.0	-60.7	6.8
2026-01-13 02:24:06.506121	337.6	24.1	-60.6	6.4
2026-01-13 02:24:07.625896	337.3	24.2	-60.3	6.2
2026-01-13 02:24:08.747207	337.1	24.3	-60.4	6.3
2026-01-13 02:24:09.869461	336.8	24.3	-60.3	6.1
2026-01-13 02:24:10.990227	336.5	24.4	-60.6	5.5
2026-01-13 02:24:12.112480	336.2	24.5	-60.6	5.6
2026-01-13 02:24:13.234733	336.0	24.6	-60.4	5.9
2026-01-13 02:24:14.356027	335.7	24.7	-60.1	5.3
2026-01-13 02:24:15.478281	335.4	24.8	-60.3	5.2
2026-01-13 02:24:16.600088	335.1	24.9	-60.0	5.1
2026-01-13 02:24:17.722342	334.9	25.0	-59.9	4.8
2026-01-13 02:24:18.843146	334.6	25.1	-59.6	5.2
2026-01-13 02:24:19.964410	334.3	25.2	-59.6	4.4
2026-01-13 02:24:21.086167	334.0	25.3	-59.6	4.2
2026-01-13 02:24:22.207925	333.7	25.4	-59.7	4.6
2026-01-13 02:24:23.330179	333.4	25.5	-59.7	4.9
2026-01-13 02:24:24.451495	333.1	25.6	-59.6	4.3
2026-01-13 02:24:25.572757	332.8	25.6	-59.4	4.2
2026-01-13 02:24:26.694069	332.5	25.7	-59.4	4.5
2026-01-13 02:24:27.816828	332.2	25.8	-59.2	4.3
2026-01-13 02:24:28.938142	331.9	25.9	-59.2	4.8
2026-01-13 02:24:30.059900	331.6	26.0	-59.2	3.7
2026-01-13 02:24:31.182153	331.3	26.1	-59.4	3.9
2026-01-13 02:24:32.303911	331.0	26.2	-59.3	4.3
2026-01-13 02:24:33.424182	330.7	26.2	-58.9	3.4
2026-01-13 02:24:34.546436	330.4	26.3	-58.5	3.9
2026-01-13 02:24:35.668194	330.1	26.4	-58.4	3.8
2026-01-13 02:24:36.788465	329.8	26.5	-58.4	3.4
2026-01-13 02:24:37.909728	329.5	26.6	-58.4	3.2
2026-01-13 02:24:39.030495	329.2	26.7	-58.6	3.2
2026-01-13 02:24:40.152749	328.9	26.7	-58.6	3.3
2026-01-13 02:24:41.274516	328.6	26.8	-58.3	2.8
2026-01-13 02:24:42.395788	328.2	26.9	-58.2	2.8
2026-01-13 02:24:43.518050	327.9	27.0	-58.2	2.4
2026-01-13 02:24:44.640304	327.6	27.1	-58.1	2.5
2026-01-13 02:24:45.763062	327.3	27.1	-58.2	2.8
2026-01-13 02:24:46.884324	326.9	27.2	-58.0	2.7
2026-01-13 02:24:48.006577	326.6	27.3	-57.8	2.6
2026-01-13 02:24:49.128335	326.3	27.4	-57.8	2.8
2026-01-13 02:24:50.250093	326.0	27.4	-57.8	2.3
2026-01-13 02:24:51.374852	325.6	27.5	-57.9	3.2
2026-01-13 02:24:52.496610	325.3	27.6	-57.8	3.1
2026-01-13 02:24:53.618863	325.0	27.7	-58.0	2.5
2026-01-13 02:24:54.740621	324.6	27.7	-58.1	3.2
2026-01-13 02:24:55.862875	324.3	27.8	-58.0	3.1
2026-01-13 02:24:56.984634	324.0	27.9	-58.1	3.5
2026-01-13 02:24:58.106390	323.6	27.9	-58.2	2.3
2026-01-13 02:24:59.229653	323.3	28.0	-58.1	3.2
2026-01-13 02:25:00.351906	322.9	28.1	-57.8	2.9
2026-01-13 02:25:01.473671	322.6	28.1	-57.7	2.9
2026-01-13 02:25:02.595918	322.2	28.2	-57.7	2.9
2026-01-13 02:25:03.717676	321.9	28.3	-57.9	3.0
2026-01-13 02:25:04.839435	321.5	28.3	-57.7	1.9
2026-01-13 02:25:05.961688	321.2	28.4	-57.7	3.2
2026-01-13 02:25:07.080454	320.8	28.4	-57.5	2.2
2026-01-13 02:25:08.201220	320.5	28.5	-57.5	2.6
2026-01-13 02:25:09.322473	320.1	28.6	-57.7	1.9
2026-01-13 02:25:10.444727	319.8	28.6	-57.9	2.9
2026-01-13 02:25:11.566485	319.4	28.7	-58.1	2.3
2026-01-13 02:25:12.687747	319.1	28.7	-58.1	1.9
2026-01-13 02:25:13.810000	318.7	28.8	-58.1	2.3
2026-01-13 02:25:14.931263	318.3	28.8	-58.0	2.0
2026-01-13 02:25:16.052516	318.0	28.9	-57.9	1.7
2026-01-13 02:25:17.174274	317.6	28.9	-58.0	1.1
2026-01-13 02:25:18.296041	317.3	29.0	-57.9	2.5
2026-01-13 02:25:19.417807	316.9	29.0	-57.9	2.2
2026-01-13 02:25:20.540061	316.5	29.1	-58.1	1.9
2026-01-13 02:25:21.662314	316.2	29.1	-58.2	2.2
2026-01-13 02:25:22.783081	315.8	29.2	-58.4	2.3
2026-01-13 02:25:23.904344	315.4	29.2	-58.4	3.1
2026-01-13 02:25:25.025597	315.1	29.2	-58.4	2.4
2026-01-13 02:25:26.147354	314.7	29.3	-58.3	3.2
2026-01-13 02:25:27.269112	314.3	29.3	-58.5	3.1
2026-01-13 02:25:28.391375	313.9	29.4	-58.7	3.1
2026-01-13 02:25:29.513133	313.6	29.4	-58.8	3.7
2026-01-13 02:25:30.639387	313.2	29.4	-59.1	3.2
2026-01-13 02:25:31.761144	312.8	29.5	-59.0	3.3
2026-01-13 02:25:32.881902	312.4	29.5	-59.0	3.2
2026-01-13 02:25:34.004156	312.1	29.5	-58.8	3.6
2026-01-13 02:25:35.125418	311.7	29.6	-58.9	4.0
2026-01-13 02:25:36.248185	311.3	29.6	-59.2	3.8
2026-01-13 02:25:37.369447	310.9	29.6	-59.3	3.8
2026-01-13 02:25:38.491700	310.5	29.6	-59.6	3.7
2026-01-13 02:25:39.612964	310.2	29.7	-59.7	4.0
2026-01-13 02:25:40.735217	309.8	29.7	-59.7	4.1
2026-01-13 02:25:41.857470	309.4	29.7	-59.8	3.9
2026-01-13 02:25:42.979724	309.0	29.7	-59.8	4.8
2026-01-13 02:25:44.102482	308.6	29.7	-60.0	4.8
2026-01-13 02:25:45.223249	308.3	29.8	-60.1	4.7
2026-01-13 02:25:46.344511	307.9	29.8	-60.1	5.1
2026-01-13 02:25:47.466765	307.5	29.8	-60.2	5.1
2026-01-13 02:25:48.589018	307.1	29.8	-60.3	5.2
2026-01-13 02:25:49.713777	306.7	29.8	-60.4	5.0
2026-01-13 02:25:50.836030	306.3	29.8	-60.6	5.6
2026-01-13 02:25:51.958789	306.0	29.8	-61.0	5.9
2026-01-13 02:25:53.082547	305.6	29.8	-61.2	6.0
2026-01-13 02:25:54.204800	305.2	29.8	-61.5	6.6
2026-01-13 02:25:55.326558	304.8	29.8	-61.7	6.5
2026-01-13 02:25:56.448315	304.4	29.8	-61.8	6.5
2026-01-13 02:25:57.570073	304.0	29.8	-62.1	7.2
2026-01-13 02:25:58.691335	303.6	29.8	-61.9	7.3
2026-01-13 02:25:59.813093	303.3	29.8	-62.0	6.8
2026-01-13 02:26:00.933860	302.9	29.8	-62.1	7.5
2026-01-13 02:26:02.056113	302.5	29.8	-62.2	7.6
2026-01-13 02:26:03.177376	302.1	29.8	-62.4	8.3
2026-01-13 02:26:04.299629	301.7	29.8	-62.6	8.4
2026-01-13 02:26:05.420892	301.3	29.8	-62.4	8.8
2026-01-13 02:26:06.542145	301.0	29.8	-62.7	9.0
2026-01-13 02:26:07.664399	300.6	29.8	-62.9	9.5
2026-01-13 02:26:08.786157	300.2	29.8	-63.1	9.3
2026-01-13 02:26:09.907419	299.8	29.8	-63.5	9.8
2026-01-13 02:26:11.029177	299.4	29.7	-63.6	10.1
2026-01-13 02:26:12.151430	299.0	29.7	-63.7	10.4
2026-01-13 02:26:13.271702	298.7	29.7	-63.9	10.6
2026-01-13 02:26:14.392468	298.3	29.7	-64.0	10.9
2026-01-13 02:26:15.514225	297.9	29.7	-64.2	10.9
2026-01-13 02:26:16.635983	297.5	29.6	-64.3	11.2
2026-01-13 02:26:17.759236	297.1	29.6	-64.5	11.4
2026-01-13 02:26:18.881490	296.8	29.6	-64.7	11.9
2026-01-13 02:26:20.003743	296.4	29.6	-64.9	12.0
2026-01-13 02:26:21.125501	296.0	29.5	-65.2	12.5
2026-01-13 02:26:22.247755	295.6	29.5	-65.2	12.6
2026-01-13 02:26:23.370018	295.2	29.5	-65.3	13.0
2026-01-13 02:26:24.492271	294.9	29.4	-65.5	13.4
2026-01-13 02:26:25.615533	294.5	29.4	-65.6	13.5
2026-01-13 02:26:26.737291	294.1	29.4	-65.5	13.9
2026-01-13 02:26:27.859049	293.7	29.3	-65.7	14.2
2026-01-13 02:26:28.980807	293.4	29.3	-65.7	13.9
2026-01-13 02:26:30.101565	293.0	29.3	-65.9	14.6
2026-01-13 02:26:31.221322	292.6	29.2	-66.2	15.0
2026-01-13 02:26:32.343080	292.3	29.2	-65.9	14.8
2026-01-13 02:26:33.463342	291.9	29.1	-66.1	15.2
2026-01-13 02:26:34.584595	291.5	29.1	-66.2	15.2
2026-01-13 02:26:35.707353	291.2	29.0	-66.4	15.7
2026-01-13 02:26:36.829606	290.8	29.0	-66.4	15.7
2026-01-13 02:26:37.950859	290.4	28.9	-66.6	15.8
2026-01-13 02:26:39.071126	290.1	28.9	-66.4	15.9
2026-01-13 02:26:40.191379	289.7	28.8	-66.7	15.6
2026-01-13 02:26:41.312642	289.3	28.8	-66.4	16.0
2026-01-13 02:26:42.434400	289.0	28.7	-66.7	16.0
2026-01-13 02:26:43.555158	288.6	28.7	-67.0	15.6
2026-01-13 02:26:44.674915	288.3	28.6	-66.8	15.8
2026-01-13 02:26:45.796673	287.9	28.6	-67.0	15.7
2026-01-13 02:26:46.918927	287.6	28.5	-67.0	16.2
2026-01-13 02:26:48.040685	287.2	28.5	-66.9	15.8
2026-01-13 02:26:49.162442	286.8	28.4	-66.9	15.8
2026-01-13 02:26:50.283209	286.5	28.3	-66.7	15.0
2026-01-13 02:26:51.404471	286.1	28.3	-66.6	14.8
2026-01-13 02:26:52.525724	285.8	28.2	-66.6	15.3
2026-01-13 02:26:53.647978	285.4	28.1	-66.6	14.3
2026-01-13 02:26:54.769736	285.1	28.1	-66.7	14.7
2026-01-13 02:26:55.891989	284.8	28.0	-66.5	14.6
2026-01-13 02:26:57.013760	284.4	27.9	-66.8	13.8
2026-01-13 02:26:58.134518	284.1	27.9	-66.5	14.0
2026-01-13 02:26:59.256276	283.7	27.8	-66.6	14.0
2026-01-13 02:27:00.377529	283.4	27.7	-66.3	14.1
2026-01-13 02:27:01.498791	283.1	27.7	-66.2	13.8
2026-01-13 02:27:02.618558	282.7	27.6	-66.0	13.2
2026-01-13 02:27:03.739324	282.4	27.5	-65.8	12.5
2026-01-13 02:27:04.861577	282.1	27.5	-66.2	13.7
2026-01-13 02:27:05.986335	281.7	27.4	-66.1	13.3
2026-01-13 02:27:07.108094	281.4	27.3	-66.2	13.2
2026-01-13 02:27:08.229347	281.1	27.2	-66.5	12.2
2026-01-13 02:27:09.350600	280.7	27.2	-66.0	13.2
2026-01-13 02:27:10.471861	280.4	27.1	-66.1	13.0
2026-01-13 02:27:11.594115	280.1	27.0	-66.1	13.1
2026-01-13 02:27:12.716368	279.8	26.9	-65.9	13.1
2026-01-13 02:27:13.838126	279.4	26.8	-65.8	13.0
2026-01-13 02:27:14.960380	279.1	26.8	-65.2	13.0
2026-01-13 02:27:16.081138	278.8	26.7	-65.4	12.3
2026-01-13 02:27:17.202896	278.5	26.6	-64.3	11.0
2026-01-13 02:27:18.325149	278.2	26.5	-65.6	12.7
2026-01-13 02:27:19.447403	277.9	26.4	-65.6	12.7
2026-01-13 02:27:20.568160	277.6	26.3	-65.7	12.3
2026-01-13 02:27:21.690413	277.3	26.3	-65.4	12.6
2026-01-13 02:27:22.811666	276.9	26.2	-65.6	12.3
2026-01-13 02:27:23.933424	276.6	26.1	-65.4	12.1
2026-01-13 02:27:25.054677	276.3	26.0	-65.5	12.1
2026-01-13 02:27:26.176931	276.0	25.9	-65.5	12.0
2026-01-13 02:27:27.297698	275.7	25.8	-65.5	11.2
2026-01-13 02:27:28.419951	275.4	25.7	-65.5	11.6
2026-01-13 02:27:29.541214	275.1	25.6	-65.6	11.7
2026-01-13 02:27:30.664467	274.8	25.6	-65.3	10.6
2026-01-13 02:27:31.786224	274.5	25.5	-65.4	11.6
2026-01-13 02:27:32.907487	274.3	25.4	-65.2	11.3
2026-01-13 02:27:34.028245	274.0	25.3	-64.9	10.5
2026-01-13 02:27:35.150002	273.7	25.2	-64.8	10.8
2026-01-13 02:27:36.271760	273.4	25.1	-64.9	10.3
2026-01-13 02:27:37.393023	273.1	25.0	-65.2	11.4
2026-01-13 02:27:38.514286	272.8	24.9	-65.0	10.9
2026-01-13 02:27:39.636539	272.5	24.8	-64.9	11.4
2026-01-13 02:27:40.758297	272.3	24.7	-64.3	10.1
2026-01-13 02:27:41.880550	272.0	24.6	-64.7	10.8
2026-01-13 02:27:43.002804	271.7	24.5	-65.1	11.0
2026-01-13 02:27:44.124561	271.4	24.4	-65.0	11.2
2026-01-13 02:27:45.246815	271.2	24.3	-64.7	10.3
2026-01-13 02:27:46.368582	270.9	24.3	-64.6	10.1
2026-01-13 02:27:47.490835	270.6	24.2	-65.1	10.6
2026-01-13 02:27:48.612097	270.3	24.1	-65.0	10.1
2026-01-13 02:27:49.734360	270.1	24.0	-65.0	11.1
2026-01-13 02:27:50.856613	269.8	23.9	-64.7	9.9
2026-01-13 02:27:51.977875	269.5	23.8	-64.7	9.6
2026-01-13 02:27:53.097128	269.3	23.7	-65.0	10.7
2026-01-13 02:27:54.219885	269.0	23.6	-64.5	10.4
2026-01-13 02:27:55.340643	268.8	23.5	-64.7	9.5
2026-01-13 02:27:56.462897	268.5	23.4	-65.0	10.7
2026-01-13 02:27:57.585655	268.3	23.3	-65.1	10.5
2026-01-13 02:27:58.706412	268.0	23.2	-65.2	10.9
2026-01-13 02:27:59.825674	267.8	23.1	-65.4	10.3
2026-01-13 02:28:00.946433	267.5	23.0	-64.8	10.5
2026-01-13 02:28:02.072191	267.2	22.9	-64.6	10.3
2026-01-13 02:28:03.194949	267.0	22.8	-64.9	11.1
2026-01-13 02:28:04.315715	266.8	22.7	-64.9	10.3
2026-01-13 02:28:05.436977	266.5	22.6	-65.0	10.4
2026-01-13 02:28:06.559230	266.3	22.5	-64.4	10.5
2026-01-13 02:28:07.680988	266.0	22.4	-65.3	10.9
2026-01-13 02:28:08.803242	265.8	22.3	-64.3	10.2
2026-01-13 02:28:09.924504	265.6	22.2	-65.0	8.6
2026-01-13 02:28:11.046263	265.3	22.1	-64.9	10.4
2026-01-13 02:28:12.167525	265.1	22.0	-65.1	10.5
2026-01-13 02:28:13.289778	264.8	21.9	-65.0	10.5
2026-01-13 02:28:14.411041	264.6	21.8	-63.9	9.2
2026-01-13 02:28:15.533294	264.4	21.7	-63.2	8.4
2026-01-13 02:28:16.654061	264.2	21.6	-65.0	9.8
2026-01-13 02:28:17.775819	263.9	21.5	-64.3	9.4
2026-01-13 02:28:18.897577	263.7	21.4	-64.2	9.3
2026-01-13 02:28:20.018343	263.5	21.3	-64.8	9.2
2026-01-13 02:28:21.138100	263.3	21.2	-64.8	9.8
2026-01-13 02:28:22.260354	263.0	21.1	-65.0	10.0
2026-01-13 02:28:23.382112	262.8	21.0	-64.6	10.0
2026-01-13 02:28:24.503869	262.6	20.9	-64.7	9.4
2026-01-13 02:28:25.625628	262.4	20.8	-64.1	9.5
2026-01-13 02:28:26.744889	262.2	20.7	-64.0	8.2
2026-01-13 02:28:27.866647	261.9	20.6	-65.2	9.7
2026-01-13 02:28:28.988900	261.7	20.5	-64.8	9.7
2026-01-13 02:28:30.110153	261.5	20.4	-64.6	9.0
2026-01-13 02:28:31.230910	261.3	20.3	-64.7	9.0
2026-01-13 02:28:32.352669	261.1	20.1	-64.6	8.6
2026-01-13 02:28:33.474426	260.9	20.0	-64.8	9.4
2026-01-13 02:28:34.594688	260.7	19.9	-64.9	9.5
2026-01-13 02:28:35.715456	260.5	19.8	-63.8	7.2
2026-01-13 02:28:36.837710	260.3	19.7	-64.8	7.1
2026-01-13 02:28:37.957972	260.1	19.6	-64.7	9.2
2026-01-13 02:28:39.080225	259.9	19.5	-64.6	9.5
2026-01-13 02:28:40.201479	259.7	19.4	-64.7	9.1
2026-01-13 02:28:41.323732	259.5	19.3	-64.9	9.7
2026-01-13 02:28:42.442993	259.3	19.2	-64.2	7.9
2026-01-13 02:28:43.563255	259.1	19.1	-64.5	9.1
2026-01-13 02:28:44.684013	258.9	19.0	-64.4	7.9
2026-01-13 02:28:45.806266	258.7	18.9	-64.2	8.2
2026-01-13 02:28:46.927033	258.5	18.8	-63.7	6.0
2026-01-13 02:28:48.048801	258.3	18.7	-65.4	8.7
2026-01-13 02:28:49.171062	258.1	18.6	-65.2	9.0
2026-01-13 02:28:50.291333	258.0	18.5	-65.1	8.4
2026-01-13 02:28:51.411586	257.8	18.4	-65.1	8.6
2026-01-13 02:28:52.533345	257.6	18.3	-65.2	9.0
2026-01-13 02:28:53.655598	257.4	18.2	-64.9	7.2
2026-01-13 02:28:54.777852	257.2	18.1	-65.3	8.6
2026-01-13 02:28:55.899610	257.0	18.0	-63.0	6.0
2026-01-13 02:28:57.021864	256.9	17.9	-63.2	5.2
2026-01-13 02:28:58.143621	256.7	17.8	-64.0	7.4
2026-01-13 02:28:59.265378	256.5	17.7	-64.7	8.5
2026-01-13 02:29:00.387632	256.3	17.6	-64.3	6.8
2026-01-13 02:29:01.508894	256.1	17.5	-64.8	8.6
2026-01-13 02:29:02.631147	256.0	17.4	-65.1	8.2
2026-01-13 02:29:03.752905	255.8	17.3	-65.1	8.8
2026-01-13 02:29:04.875158	255.6	17.2	-65.1	8.3
2026-01-13 02:29:05.997412	255.5	17.1	-64.9	9.0
2026-01-13 02:29:07.118177	255.3	17.0	-62.9	5.6
2026-01-13 02:29:08.240431	255.1	16.9	-64.8	8.0
2026-01-13 02:29:09.361693	255.0	16.8	-65.4	8.0
2026-01-13 02:29:10.482451	254.8	16.7	-65.0	8.7
2026-01-13 02:29:11.604704	254.6	16.6	-65.0	7.8
2026-01-13 02:29:12.725957	254.5	16.5	-64.1	8.3
2026-01-13 02:29:13.846725	254.3	16.4	-64.9	9.0
2026-01-13 02:29:14.967987	254.1	16.3	-65.2	8.8
2026-01-13 02:29:16.089744	254.0	16.2	-63.7	4.8
2026-01-13 02:29:17.211503	253.8	16.1	-65.5	8.5
2026-01-13 02:29:18.332756	253.7	16.0	-65.5	8.7
2026-01-13 02:29:19.454514	253.5	16.0	-64.1	8.6
2026-01-13 02:29:20.574775	253.3	15.9	-64.5	7.0
2026-01-13 02:29:21.696037	253.2	15.8	-65.0	8.0
2026-01-13 02:29:22.818291	253.0	15.7	-64.8	7.7
2026-01-13 02:29:23.940567	252.9	15.6	-64.9	9.0
2026-01-13 02:29:25.062821	252.7	15.5	-64.9	7.3
2026-01-13 02:29:26.184579	252.6	15.4	-65.3	8.0
2026-01-13 02:29:27.306832	252.4	15.3	-63.7	5.2
2026-01-13 02:29:28.428599	252.3	15.2	-65.0	8.4
2026-01-13 02:29:29.550852	252.1	15.1	-64.8	7.6
2026-01-13 02:29:30.672105	252.0	15.0	-64.5	8.2
2026-01-13 02:29:31.797877	251.8	14.9	-64.8	8.4
2026-01-13 02:29:32.919635	251.7	14.8	-64.9	7.6
2026-01-13 02:29:34.040888	251.5	14.7	-65.0	8.5
2026-01-13 02:29:35.163150	251.4	14.6	-64.3	8.6
2026-01-13 02:29:36.284908	251.3	14.5	-64.2	8.1
2026-01-13 02:29:37.406170	251.1	14.4	-64.9	8.3
2026-01-13 02:29:38.526928	251.0	14.3	-64.9	8.6
2026-01-13 02:29:39.649181	250.8	14.2	-63.9	5.4
2026-01-13 02:29:40.769434	250.7	14.1	-64.7	7.7
2026-01-13 02:29:41.890201	250.6	14.0	-65.1	8.6
2026-01-13 02:29:43.011958	250.4	13.9	-65.0	7.9
2026-01-13 02:29:44.132716	250.3	13.9	-65.0	8.1
2026-01-13 02:29:45.254474	250.1	13.8	-64.7	6.4
2026-01-13 02:29:46.375727	250.0	13.7	-64.7	8.8
2026-01-13 02:29:47.496989	249.9	13.6	-63.7	6.4
2026-01-13 02:29:48.618251	249.7	13.5	-65.0	7.6
2026-01-13 02:29:49.740009	249.6	13.4	-65.7	8.6
2026-01-13 02:29:50.861262	249.5	13.3	-65.3	8.1
2026-01-13 02:29:51.981039	249.3	13.2	-65.7	9.0
2026-01-13 02:29:53.103798	249.2	13.1	-65.1	8.3
2026-01-13 02:29:54.225051	249.1	13.0	-65.0	6.5
2026-01-13 02:29:55.344808	249.0	12.9	-64.7	7.4
2026-01-13 02:29:56.465070	248.8	12.8	-66.0	8.9
2026-01-13 02:29:57.586828	248.7	12.8	-65.4	7.8
2026-01-13 02:29:58.709081	248.6	12.7	-65.0	6.5
2026-01-13 02:29:59.830839	248.5	12.6	-64.1	6.6
2026-01-13 02:30:00.948595	248.3	12.5	-64.8	7.5
2026-01-13 02:30:02.067857	248.2	12.4	-65.5	7.7
2026-01-13 02:30:03.189119	248.1	12.3	-65.3	8.1
2026-01-13 02:30:04.310877	248.0	12.2	-65.6	8.2
2026-01-13 02:30:05.433130	247.8	12.1	-65.0	7.1
2026-01-13 02:30:06.554888	247.7	12.0	-66.0	8.1
2026-01-13 02:30:07.676685	247.6	11.9	-64.5	5.4
2026-01-13 02:30:08.797947	247.5	11.9	-66.0	8.3
2026-01-13 02:30:09.918720	247.4	11.8	-65.4	6.8
2026-01-13 02:30:11.040974	247.3	11.7	-66.1	8.3
2026-01-13 02:30:12.163235	247.1	11.6	-65.8	7.6
2026-01-13 02:30:13.284040	247.0	11.5	-66.1	8.1
2026-01-13 02:30:14.406294	246.9	11.4	-65.9	8.3
2026-01-13 02:30:15.527563	246.8	11.3	-66.0	8.0
2026-01-13 02:30:16.649360	246.7	11.2	-65.5	8.0
2026-01-13 02:30:17.771126	246.6	11.2	-66.3	8.1
2026-01-13 02:30:18.891892	246.4	11.1	-66.1	8.1
2026-01-13 02:30:20.013660	246.3	11.0	-65.0	6.2
2026-01-13 02:30:21.135921	246.2	10.9	-65.9	7.6
2026-01-13 02:30:22.257679	246.1	10.8	-66.1	8.2
2026-01-13 02:30:23.379932	246.0	10.7	-65.7	6.4
2026-01-13 02:30:24.502186	245.9	10.6	-65.9	7.8
2026-01-13 02:30:25.623944	245.8	10.5	-65.5	8.0
2026-01-13 02:30:26.746726	245.7	10.5	-65.7	8.1
2026-01-13 02:30:27.869979	245.6	10.4	-65.5	8.2
2026-01-13 02:30:28.991746	245.5	10.3	-66.2	8.2
2026-01-13 02:30:30.114007	245.4	10.2	-65.7	7.3
2026-01-13 02:30:31.236260	245.3	10.1	-66.3	7.8
2026-01-13 02:30:32.358514	245.1	10.0	-64.9	7.0
2026-01-13 02:30:33.479831	245.0	10.0	-66.1	6.5
2026-01-13 02:30:34.601093	244.9	9.9	-66.0	7.7
2026-01-13 02:30:35.722362	244.8	9.8	-65.8	7.6
2026-01-13 02:30:36.844616	244.7	9.7	-66.3	8.4
2026-01-13 02:30:37.966374	244.6	9.6	-66.3	8.0
2026-01-13 02:30:39.088169	244.5	9.5	-66.5	7.1
2026-01-13 02:30:40.210423	244.4	9.4	-65.7	7.0
2026-01-13 02:30:41.332187	244.3	9.4	-66.3	8.5
2026-01-13 02:30:42.454441	244.2	9.3	-66.8	7.4
2026-01-13 02:30:43.575732	244.1	9.2	-66.5	7.8
2026-01-13 02:30:44.699501	244.0	9.1	-66.6	7.5
2026-01-13 02:30:45.821266	243.9	9.0	-66.6	7.6
2026-01-13 02:30:46.943187	243.8	9.0	-66.5	8.1
2026-01-13 02:30:48.064945	243.7	8.9	-66.7	7.2
2026-01-13 02:30:49.187199	243.6	8.8	-66.7	7.4
2026-01-13 02:30:50.308956	243.6	8.7	-66.4	7.6
2026-01-13 02:30:51.431218	243.5	8.6	-66.6	7.8
2026-01-13 02:30:52.552975	243.4	8.5	-65.8	6.6
2026-01-13 02:30:53.674770	243.3	8.5	-66.4	7.4
2026-01-13 02:30:54.795536	243.2	8.4	-66.6	7.6
2026-01-13 02:30:55.916805	243.1	8.3	-66.4	7.4
2026-01-13 02:30:57.038067	243.0	8.2	-66.7	6.9
2026-01-13 02:30:58.159834	242.9	8.1	-66.9	7.3
2026-01-13 02:30:59.282127	242.8	8.1	-66.4	7.9
2026-01-13 02:31:00.403884	242.7	8.0	-65.8	7.5
2026-01-13 02:31:01.526138	242.6	7.9	-66.2	8.3
2026-01-13 02:31:02.648400	242.5	7.8	-66.6	7.4
2026-01-13 02:31:03.768702	242.4	7.7	-66.7	6.9
2026-01-13 02:31:04.890964	242.4	7.7	-66.6	6.9
2026-01-13 02:31:06.013217	242.3	7.6	-66.9	6.9
2026-01-13 02:31:07.135478	242.2	7.5	-66.6	7.4
2026-01-13 02:31:08.258740	242.1	7.4	-66.5	7.9
2026-01-13 02:31:09.381031	242.0	7.4	-66.5	7.6
2026-01-13 02:31:10.502789	241.9	7.3	-66.6	7.1
2026-01-13 02:31:11.624051	241.8	7.2	-66.8	7.1
2026-01-13 02:31:12.746305	241.8	7.1	-66.1	5.6
2026-01-13 02:31:13.868063	241.7	7.0	-66.8	6.6
2026-01-13 02:31:14.990316	241.6	7.0	-66.4	6.8
2026-01-13 02:31:16.111585	241.5	6.9	-66.5	6.4
2026-01-13 02:31:17.232847	241.4	6.8	-66.8	7.6
2026-01-13 02:31:18.355100	241.3	6.7	-66.6	7.7
2026-01-13 02:31:19.476905	241.3	6.7	-66.7	6.9
2026-01-13 02:31:20.598166	241.2	6.6	-66.4	5.8
2026-01-13 02:31:21.719932	241.1	6.5	-66.7	5.6
2026-01-13 02:31:22.841689	241.0	6.4	-66.9	5.4
2026-01-13 02:31:23.963476	240.9	6.3	-66.4	5.9
2026-01-13 02:31:25.088752	240.8	6.3	-66.8	6.2
2026-01-13 02:31:26.210022	240.8	6.2	-66.5	6.7
2026-01-13 02:31:27.331780	240.7	6.1	-66.4	7.0
2026-01-13 02:31:28.453041	240.6	6.0	-66.4	7.6
2026-01-13 02:31:29.575334	240.5	6.0	-66.8	1.4
2026-01-13 02:31:30.697587	240.5	5.9	-66.4	0.0
2026-01-13 02:31:31.818850	240.4	5.8	-64.8	0.0
2026-01-13 02:31:32.941607	240.3	5.7	-64.3	0.0
2026-01-13 02:31:34.063374	240.2	5.7	-67.1	0.0
2026-01-13 02:31:35.184686	240.1	5.6	-68.8	0.0
2026-01-13 02:31:36.305961	240.1	5.5	-69.3	0.0
2026-01-13 02:31:37.426736	240.0	5.4	-69.7	0.0
2026-01-13 02:31:38.547999	239.9	5.4	-70.9	0.0
2026-01-13 02:31:39.669317	239.8	5.3	-72.0	0.0
2026-01-13 02:31:40.794580	239.8	5.2	-72.1	0.0
2026-01-13 02:31:41.915842	239.7	5.2	-71.6	0.0
2026-01-13 02:31:43.037600	239.6	5.1	-71.9	0.0
2026-01-13 02:31:44.159357	239.5	5.0	-71.9	0.0
#Closed at: 2026-01-13 02:20:03.950600