passes_logs/2026/01/13/PlanumMoscow/PlanumMoscow__20260113_082032_METOP-B_rec.log

#Pass ID: 20260113_082032_METOP-B
#Satellite: METOP-B
#Configuration: METOP-B
#Start time: 2026-01-13 08:20:37.395471

#LorettStation: 1.0.0 05.05.2024
#Station: PlanumMoscow
#Location: 37.6253844 lon 55.6713361 lat
#TLE: 1 38771U 12049A   25293.92766658  .00000266  00000+0  14193-3 0  9996
#TLE: 2 38771  98.6882 344.7603 0001609 341.5209  18.5909 14.21379342679275

#Time	Az	El	Level	SNR
2026-01-13 08:24:15.798178	345.8	24.1	-62.1	3.6
2026-01-13 08:24:16.920936	345.6	24.2	-62.3	3.1
2026-01-13 08:24:18.043693	345.3	24.4	-61.5	2.5
2026-01-13 08:24:19.165451	345.1	24.5	-61.6	2.0
2026-01-13 08:24:20.287208	344.9	24.6	-62.0	5.2
2026-01-13 08:24:21.408966	344.6	24.7	-61.8	3.8
2026-01-13 08:24:22.532219	344.4	24.8	-62.2	3.9
2026-01-13 08:24:23.653978	344.2	25.0	-61.4	2.9
2026-01-13 08:24:24.776231	343.9	25.1	-62.0	4.2
2026-01-13 08:24:25.898485	343.7	25.2	-61.5	3.0
2026-01-13 08:24:27.020241	343.4	25.3	-61.8	4.4
2026-01-13 08:24:28.142495	343.2	25.5	-61.9	3.8
2026-01-13 08:24:29.264252	342.9	25.6	-61.1	2.8
2026-01-13 08:24:30.385514	342.7	25.7	-61.9	3.3
2026-01-13 08:24:31.506292	342.4	25.8	-61.5	2.9
2026-01-13 08:24:32.627553	342.2	25.9	-61.5	3.5
2026-01-13 08:24:33.749806	341.9	26.1	-61.4	3.2
2026-01-13 08:24:34.871564	341.7	26.2	-61.3	3.7
2026-01-13 08:24:35.995819	341.4	26.3	-61.4	4.3
2026-01-13 08:24:37.118080	341.1	26.4	-61.7	4.9
2026-01-13 08:24:38.239341	340.9	26.6	-62.2	4.4
2026-01-13 08:24:39.361099	340.6	26.7	-61.3	3.6
2026-01-13 08:24:40.482856	340.3	26.8	-61.9	4.6
2026-01-13 08:24:41.604119	340.1	26.9	-61.6	4.8
2026-01-13 08:24:42.726372	339.8	27.0	-61.7	4.9
2026-01-13 08:24:43.848130	339.5	27.2	-61.7	3.6
2026-01-13 08:24:44.969896	339.2	27.3	-62.1	5.7
2026-01-13 08:24:46.091157	338.9	27.4	-61.3	4.5
2026-01-13 08:24:47.212915	338.7	27.5	-61.4	4.5
2026-01-13 08:24:48.334177	338.4	27.6	-61.6	4.9
2026-01-13 08:24:49.456431	338.1	27.8	-61.3	4.4
2026-01-13 08:24:50.577205	337.8	27.9	-61.1	5.5
2026-01-13 08:24:51.699458	337.5	28.0	-62.0	6.6
2026-01-13 08:24:52.821269	337.2	28.1	-61.2	5.3
2026-01-13 08:24:53.943027	336.9	28.2	-61.0	4.6
2026-01-13 08:24:55.068281	336.6	28.4	-61.1	6.7
2026-01-13 08:24:56.190039	336.3	28.5	-61.1	4.7
2026-01-13 08:24:57.312292	336.0	28.6	-61.7	5.8
2026-01-13 08:24:58.434546	335.7	28.7	-61.6	6.7
2026-01-13 08:24:59.556304	335.4	28.8	-61.5	6.1
2026-01-13 08:25:00.678061	335.1	28.9	-61.1	6.4
2026-01-13 08:25:01.794322	334.8	29.1	-61.3	4.9
2026-01-13 08:25:02.913078	334.5	29.2	-61.3	3.8
2026-01-13 08:25:04.031331	334.2	29.3	-61.1	4.9
2026-01-13 08:25:05.148583	333.8	29.4	-61.6	4.9
2026-01-13 08:25:06.266340	333.5	29.5	-60.6	4.2
2026-01-13 08:25:07.385096	333.2	29.6	-61.2	5.3
2026-01-13 08:25:08.503853	332.9	29.7	-61.0	4.2
2026-01-13 08:25:09.621610	332.5	29.8	-61.7	5.2
2026-01-13 08:25:10.739862	332.2	30.0	-61.4	5.7
2026-01-13 08:25:11.859621	331.9	30.1	-61.1	3.7
2026-01-13 08:25:12.979379	331.6	30.2	-62.1	4.6
2026-01-13 08:25:14.096640	331.2	30.3	-61.5	3.1
2026-01-13 08:25:15.213397	330.9	30.4	-61.8	5.7
2026-01-13 08:25:16.331154	330.5	30.5	-60.9	2.5
2026-01-13 08:25:17.448406	330.2	30.6	-60.7	3.6
2026-01-13 08:25:18.566658	329.9	30.7	-60.8	2.4
2026-01-13 08:25:19.687442	329.5	30.8	-60.9	2.8
2026-01-13 08:25:20.806199	329.2	30.9	-61.5	2.9
2026-01-13 08:25:21.926956	328.8	31.0	-60.4	1.3
2026-01-13 08:25:23.048209	328.4	31.1	-60.7	3.4
2026-01-13 08:25:24.170463	328.1	31.2	-61.0	3.5
2026-01-13 08:25:25.291725	327.7	31.3	-61.5	4.1
2026-01-13 08:25:26.413482	327.4	31.4	-61.6	5.9
2026-01-13 08:25:27.534239	327.0	31.5	-61.3	3.8
2026-01-13 08:25:28.655492	326.6	31.6	-61.1	3.4
2026-01-13 08:25:29.774249	326.3	31.7	-61.5	4.2
2026-01-13 08:25:30.893007	325.9	31.8	-61.3	3.8
2026-01-13 08:25:32.011772	325.5	31.9	-61.5	5.1
2026-01-13 08:25:33.129033	325.2	32.0	-61.4	4.6
2026-01-13 08:25:34.247285	324.8	32.1	-61.4	3.4
2026-01-13 08:25:35.367042	324.4	32.2	-61.3	3.9
2026-01-13 08:25:36.489305	324.0	32.3	-61.0	3.3
2026-01-13 08:25:37.611062	323.6	32.4	-61.2	3.5
2026-01-13 08:25:38.732819	323.2	32.5	-61.2	3.9
2026-01-13 08:25:39.854080	322.9	32.6	-61.3	3.7
2026-01-13 08:25:40.975837	322.5	32.6	-61.9	5.9
2026-01-13 08:25:42.097594	322.1	32.7	-62.2	4.5
2026-01-13 08:25:43.219848	321.7	32.8	-61.8	6.3
2026-01-13 08:25:44.341605	321.3	32.9	-62.3	5.4
2026-01-13 08:25:45.463363	320.9	33.0	-61.9	7.0
2026-01-13 08:25:46.585616	320.5	33.1	-61.7	7.0
2026-01-13 08:25:47.706373	320.1	33.1	-61.3	6.8
2026-01-13 08:25:48.822129	319.7	33.2	-61.4	6.7
2026-01-13 08:25:49.941382	319.3	33.3	-61.3	7.6
2026-01-13 08:25:51.061644	318.9	33.4	-61.1	5.5
2026-01-13 08:25:52.179401	318.5	33.4	-60.8	6.3
2026-01-13 08:25:53.298158	318.0	33.5	-61.4	7.4
2026-01-13 08:25:54.416915	317.6	33.6	-61.5	8.8
2026-01-13 08:25:55.534682	317.2	33.6	-61.9	7.6
2026-01-13 08:25:56.655942	316.8	33.7	-61.8	8.0
2026-01-13 08:25:57.776203	316.4	33.8	-60.5	4.7
2026-01-13 08:25:58.893959	316.0	33.8	-59.9	5.4
2026-01-13 08:26:00.015212	315.5	33.9	-61.2	7.1
2026-01-13 08:26:01.136969	315.1	33.9	-60.8	6.3
2026-01-13 08:26:02.259222	314.7	34.0	-60.2	4.9
2026-01-13 08:26:03.379980	314.3	34.1	-60.7	6.5
2026-01-13 08:26:04.502233	313.8	34.1	-60.6	5.8
2026-01-13 08:26:05.620486	313.4	34.2	-60.2	6.1
2026-01-13 08:26:06.740244	313.0	34.2	-60.0	5.1
2026-01-13 08:26:07.860497	312.6	34.3	-60.2	4.9
2026-01-13 08:26:08.979750	312.1	34.3	-60.1	4.7
2026-01-13 08:26:10.100516	311.7	34.4	-60.6	7.0
2026-01-13 08:26:11.221283	311.2	34.4	-60.4	4.9
2026-01-13 08:26:12.343536	310.8	34.5	-60.9	5.6
2026-01-13 08:26:13.463303	310.4	34.5	-60.6	5.8
2026-01-13 08:26:14.582565	309.9	34.5	-60.7	4.7
2026-01-13 08:26:15.700331	309.5	34.6	-60.2	4.9
2026-01-13 08:26:16.816583	309.1	34.6	-60.5	3.5
2026-01-13 08:26:17.935836	308.6	34.6	-61.2	4.3
2026-01-13 08:26:19.055089	308.2	34.7	-60.5	5.3
2026-01-13 08:26:20.175847	307.7	34.7	-60.1	4.3
2026-01-13 08:26:21.295603	307.3	34.7	-60.9	6.1
2026-01-13 08:26:22.412856	306.8	34.7	-60.8	6.1
2026-01-13 08:26:23.534117	306.4	34.8	-60.5	5.5
2026-01-13 08:26:24.651370	305.9	34.8	-60.3	5.1
2026-01-13 08:26:25.771126	305.5	34.8	-60.2	3.6
2026-01-13 08:26:26.890884	305.0	34.8	-60.4	1.8
2026-01-13 08:26:28.010137	304.6	34.8	-60.3	4.5
2026-01-13 08:26:29.127389	304.2	34.9	-60.2	4.8
2026-01-13 08:26:30.246642	303.7	34.9	-60.5	4.9
2026-01-13 08:26:31.364895	303.3	34.9	-60.4	5.4
2026-01-13 08:26:32.482652	302.8	34.9	-60.1	6.8
2026-01-13 08:26:33.607424	302.4	34.9	-60.5	5.5
2026-01-13 08:26:34.724684	301.9	34.9	-60.4	5.3
2026-01-13 08:26:35.842937	301.5	34.9	-59.7	5.1
2026-01-13 08:26:36.960693	301.0	34.9	-60.0	4.9
2026-01-13 08:26:38.079450	300.6	34.9	-60.0	3.1
2026-01-13 08:26:39.199207	300.1	34.9	-60.2	5.1
2026-01-13 08:26:40.316459	299.7	34.9	-59.9	4.7
2026-01-13 08:26:41.436217	299.2	34.9	-60.4	4.1
2026-01-13 08:26:42.557974	298.8	34.9	-60.2	5.1
2026-01-13 08:26:43.676226	298.3	34.8	-59.9	4.5
2026-01-13 08:26:44.795983	297.9	34.8	-59.8	5.8
2026-01-13 08:26:45.914740	297.4	34.8	-60.2	5.1
2026-01-13 08:26:47.035498	297.0	34.8	-60.1	5.1
2026-01-13 08:26:48.153750	296.5	34.8	-59.8	4.2
2026-01-13 08:26:49.271507	296.1	34.8	-59.6	5.9
2026-01-13 08:26:50.389768	295.6	34.7	-59.7	4.6
2026-01-13 08:26:51.513526	295.2	34.7	-59.6	5.5
2026-01-13 08:26:52.632779	294.7	34.7	-59.7	3.3
2026-01-13 08:26:53.753032	294.3	34.6	-59.8	5.0
2026-01-13 08:26:54.873285	293.9	34.6	-59.7	4.6
2026-01-13 08:26:55.991547	293.4	34.6	-59.8	3.5
2026-01-13 08:26:57.109799	293.0	34.5	-59.5	4.1
2026-01-13 08:26:58.226555	292.5	34.5	-59.8	3.8
2026-01-13 08:26:59.344319	292.1	34.5	-59.9	5.2
2026-01-13 08:27:00.467078	291.7	34.4	-59.5	4.5
2026-01-13 08:27:01.586330	291.2	34.4	-59.3	3.6
2026-01-13 08:27:02.704097	290.8	34.3	-59.1	4.5
2026-01-13 08:27:03.823854	290.4	34.3	-59.3	3.8
2026-01-13 08:27:04.942611	289.9	34.2	-59.1	4.8
2026-01-13 08:27:06.062369	289.5	34.2	-59.2	3.6
2026-01-13 08:27:07.182126	289.1	34.1	-59.2	3.3
2026-01-13 08:27:08.298883	288.6	34.1	-59.0	3.1
2026-01-13 08:27:09.416640	288.2	34.0	-58.8	3.1
2026-01-13 08:27:10.533396	287.8	34.0	-58.9	3.5
2026-01-13 08:27:11.653153	287.4	33.9	-59.0	3.5
2026-01-13 08:27:12.771406	286.9	33.8	-58.9	1.6
2026-01-13 08:27:13.890659	286.5	33.8	-58.3	1.7
2026-01-13 08:27:15.008414	286.1	33.7	-58.9	4.3
2026-01-13 08:27:16.125667	285.7	33.7	-59.0	4.0
2026-01-13 08:27:17.243919	285.3	33.6	-58.5	0.7
2026-01-13 08:27:18.363190	284.9	33.5	-59.3	3.8
2026-01-13 08:27:19.479956	284.4	33.4	-58.5	3.7
2026-01-13 08:27:20.598712	284.0	33.4	-58.3	4.5
2026-01-13 08:27:21.718974	283.6	33.3	-58.7	2.7
2026-01-13 08:27:22.837731	283.2	33.2	-58.1	2.7
2026-01-13 08:27:23.958488	282.8	33.2	-57.6	1.7
2026-01-13 08:27:25.078741	282.4	33.1	-57.3	0.0
2026-01-13 08:27:26.199002	282.0	33.0	-57.7	1.6
2026-01-13 08:27:27.316759	281.6	32.9	-57.5	1.6
2026-01-13 08:27:28.438516	281.2	32.8	-57.5	0.0
2026-01-13 08:27:29.558769	280.8	32.7	-57.1	0.2
2026-01-13 08:27:30.677021	280.4	32.7	-57.9	0.6
2026-01-13 08:27:31.798779	280.0	32.6	-57.8	2.3
2026-01-13 08:27:32.918536	279.6	32.5	-58.0	1.8
2026-01-13 08:27:34.039798	279.2	32.4	-58.4	1.1
2026-01-13 08:27:35.156563	278.9	32.3	-57.6	0.0
2026-01-13 08:27:36.277816	278.5	32.2	-57.2	0.6
2026-01-13 08:27:37.396068	278.1	32.1	-56.9	0.0
2026-01-13 08:27:38.512825	277.7	32.0	-57.4	0.0
2026-01-13 08:27:39.633582	277.3	31.9	-57.7	0.0
2026-01-13 08:27:40.752339	277.0	31.8	-57.7	0.0
2026-01-13 08:27:41.871599	276.6	31.8	-57.6	0.0
2026-01-13 08:27:42.991357	276.2	31.7	-57.0	0.0
2026-01-13 08:27:44.111619	275.9	31.6	-57.0	0.0
2026-01-13 08:27:45.229376	275.5	31.5	-57.2	0.0
2026-01-13 08:27:46.347628	275.1	31.4	-56.9	0.0
2026-01-13 08:27:47.464390	274.8	31.3	-57.8	0.0
2026-01-13 08:27:48.583638	274.4	31.2	-57.2	0.0
2026-01-13 08:27:49.703891	274.1	31.1	-57.3	0.4
2026-01-13 08:27:50.822153	273.7	30.9	-58.0	0.0
2026-01-13 08:27:51.940910	273.4	30.8	-57.6	0.0
2026-01-13 08:27:53.062163	273.0	30.7	-58.8	0.1
2026-01-13 08:27:54.180416	272.7	30.6	-58.4	2.3
2026-01-13 08:27:55.300669	272.3	30.5	-58.8	0.8
2026-01-13 08:27:56.422922	272.0	30.4	-58.4	0.0
2026-01-13 08:27:57.542680	271.6	30.3	-58.1	1.7
2026-01-13 08:27:58.660933	271.3	30.2	-57.7	0.0
2026-01-13 08:27:59.782186	271.0	30.1	-57.8	1.3
2026-01-13 08:28:00.901448	270.6	30.0	-58.9	1.7
2026-01-13 08:28:02.021205	270.3	29.9	-58.3	2.7
2026-01-13 08:28:03.143972	270.0	29.8	-57.9	0.0
2026-01-13 08:28:04.265224	269.6	29.6	-58.7	0.0
2026-01-13 08:28:05.383477	269.3	29.5	-55.8	0.0
2026-01-13 08:28:06.503235	269.0	29.4	-57.8	0.0
2026-01-13 08:28:07.622992	268.7	29.3	-57.5	0.0
2026-01-13 08:28:08.742253	268.4	29.2	-57.2	0.0
2026-01-13 08:28:09.861506	268.0	29.1	-57.8	0.0
2026-01-13 08:28:10.981264	267.7	29.0	-57.4	0.0
2026-01-13 08:28:12.098029	267.4	28.8	-56.3	0.0
2026-01-13 08:28:13.217281	267.1	28.7	-57.9	0.0
2026-01-13 08:28:14.337542	266.8	28.6	-58.4	0.0
2026-01-13 08:28:15.457299	266.5	28.5	-56.9	0.0
2026-01-13 08:28:16.576056	266.2	28.4	-58.3	0.0
2026-01-13 08:28:17.695319	265.9	28.3	-56.9	0.0
2026-01-13 08:28:18.813075	265.6	28.1	-58.5	0.0
2026-01-13 08:28:19.935833	265.3	28.0	-57.2	0.0
2026-01-13 08:28:21.059086	265.0	27.9	-58.2	0.0
2026-01-13 08:28:22.181340	264.7	27.8	-57.7	0.0
2026-01-13 08:28:23.303593	264.4	27.7	-58.1	0.0
2026-01-13 08:28:24.425847	264.1	27.5	-57.7	0.0
2026-01-13 08:28:25.547614	263.9	27.4	-57.0	0.0
2026-01-13 08:28:26.668381	263.6	27.3	-58.1	0.0
2026-01-13 08:28:27.791155	263.3	27.2	-58.0	0.0
2026-01-13 08:28:28.911920	263.0	27.1	-57.7	0.0
2026-01-13 08:28:30.033182	262.7	26.9	-57.7	0.0
2026-01-13 08:28:31.154443	262.5	26.8	-57.5	0.0
2026-01-13 08:28:32.275704	262.2	26.7	-56.0	0.0
2026-01-13 08:28:33.396965	261.9	26.6	-56.7	0.0
2026-01-13 08:28:34.518228	261.7	26.4	-56.6	0.0
2026-01-13 08:28:35.640986	261.4	26.3	-56.7	0.0
2026-01-13 08:28:36.763743	261.1	26.2	-57.1	0.0
2026-01-13 08:28:37.882996	260.9	26.1	-57.4	0.0
2026-01-13 08:28:39.000754	260.6	26.0	-57.2	0.0
2026-01-13 08:28:40.119006	260.4	25.8	-57.0	0.0
2026-01-13 08:28:41.239259	260.1	25.7	-57.1	0.0
2026-01-13 08:28:42.356520	259.8	25.6	-57.2	0.0
2026-01-13 08:28:43.473285	259.6	25.5	-56.4	0.0
2026-01-13 08:28:44.595546	259.3	25.3	-56.4	0.0
2026-01-13 08:28:45.721306	259.1	25.2	-56.8	0.0
2026-01-13 08:28:46.842559	258.9	25.1	-56.5	0.0
2026-01-13 08:28:47.962812	258.6	25.0	-56.8	0.0
2026-01-13 08:28:49.083569	258.4	24.8	-57.2	0.0
2026-01-13 08:28:50.204822	258.1	24.7	-58.1	0.0
2026-01-13 08:28:51.326084	257.9	24.6	-57.0	0.0
2026-01-13 08:28:52.443850	257.7	24.5	-57.2	0.0
2026-01-13 08:28:53.570112	257.4	24.4	-57.8	0.0
2026-01-13 08:28:54.688365	257.2	24.2	-56.8	0.0
2026-01-13 08:28:55.807626	257.0	24.1	-58.8	0.0
2026-01-13 08:28:56.925886	256.7	24.0	-56.3	0.0
2026-01-13 08:28:58.044643	256.5	23.9	-57.9	0.0
2026-01-13 08:28:59.163408	256.3	23.7	-56.8	0.0
2026-01-13 08:29:00.282660	256.1	23.6	-57.0	0.0
2026-01-13 08:29:01.401416	255.8	23.5	-57.9	0.0
2026-01-13 08:29:02.521670	255.6	23.4	-56.4	0.0
2026-01-13 08:29:03.642428	255.4	23.3	-57.4	0.0
2026-01-13 08:29:04.762185	255.2	23.1	-57.3	0.0
2026-01-13 08:29:05.881942	255.0	23.0	-57.7	0.0
2026-01-13 08:29:07.001203	254.8	22.9	-56.7	0.0
2026-01-13 08:29:08.118959	254.5	22.8	-57.6	0.0
2026-01-13 08:29:09.236220	254.3	22.7	-57.5	0.0
2026-01-13 08:29:10.355473	254.1	22.5	-57.8	0.0
2026-01-13 08:29:11.478230	253.9	22.4	-57.5	0.0
2026-01-13 08:29:12.594482	253.7	22.3	-58.4	0.0
2026-01-13 08:29:13.713735	253.5	22.2	-58.8	0.0
2026-01-13 08:29:14.834988	253.3	22.1	-56.6	0.0
2026-01-13 08:29:15.957242	253.1	21.9	-56.9	0.0
2026-01-13 08:29:17.074503	252.9	21.8	-56.8	0.0
2026-01-13 08:29:18.193260	252.7	21.7	-57.4	0.0
2026-01-13 08:29:19.311520	252.5	21.6	-57.6	0.0
2026-01-13 08:29:20.433774	252.3	21.5	-56.3	0.0
2026-01-13 08:29:21.554034	252.1	21.3	-57.0	0.0
2026-01-13 08:29:22.669790	251.9	21.2	-58.2	0.0
2026-01-13 08:29:23.789051	251.8	21.1	-57.1	0.0
2026-01-13 08:29:24.907303	251.6	21.0	-57.3	0.0
2026-01-13 08:29:26.026556	251.4	20.9	-57.7	0.0
2026-01-13 08:29:27.145817	251.2	20.7	-56.8	0.0
2026-01-13 08:29:28.264573	251.0	20.6	-57.1	0.0
2026-01-13 08:29:29.382843	250.8	20.5	-58.5	0.0
2026-01-13 08:29:30.502095	250.6	20.4	-56.7	0.0
2026-01-13 08:29:31.619852	250.5	20.3	-57.9	0.0
2026-01-13 08:29:32.739114	250.3	20.2	-56.6	0.0
2026-01-13 08:29:33.857375	250.1	20.0	-56.8	0.0
2026-01-13 08:29:34.977628	249.9	19.9	-57.5	0.0
2026-01-13 08:29:36.096881	249.8	19.8	-57.1	0.0
2026-01-13 08:29:37.214133	249.6	19.7	-57.1	0.0
2026-01-13 08:29:38.335394	249.4	19.6	-56.5	0.0
2026-01-13 08:29:39.452149	249.3	19.5	-56.6	0.0
2026-01-13 08:29:40.570906	249.1	19.4	-57.4	0.0
2026-01-13 08:29:41.687662	248.9	19.2	-57.8	0.0
2026-01-13 08:29:42.804923	248.8	19.1	-59.0	0.0
2026-01-13 08:29:43.922176	248.6	19.0	-56.2	0.0
2026-01-13 08:29:45.042429	248.4	18.9	-58.6	0.0
2026-01-13 08:29:46.158690	248.3	18.8	-59.4	0.0
2026-01-13 08:29:47.276447	248.1	18.7	-58.8	0.0
2026-01-13 08:29:48.395213	247.9	18.6	-59.0	0.0
2026-01-13 08:29:49.513465	247.8	18.4	-61.2	0.0
2026-01-13 08:29:50.630726	247.6	18.3	-61.5	0.0
2026-01-13 08:29:51.749987	247.5	18.2	-61.0	0.6
2026-01-13 08:29:52.867752	247.3	18.1	-60.9	0.0
2026-01-13 08:29:53.989014	247.2	18.0	-60.9	0.5
2026-01-13 08:29:55.107771	247.0	17.9	-60.7	0.0
2026-01-13 08:29:56.225033	246.9	17.8	-60.8	0.0
2026-01-13 08:29:57.343789	246.7	17.7	-60.5	0.0
2026-01-13 08:29:58.461546	246.6	17.6	-61.1	0.9
2026-01-13 08:29:59.580807	246.4	17.4	-60.8	0.0
2026-01-13 08:30:00.700067	246.3	17.3	-60.6	0.0
2026-01-13 08:30:01.815326	246.1	17.2	-61.0	0.0
2026-01-13 08:30:02.938579	246.0	17.1	-61.6	0.5
2026-01-13 08:30:04.060833	245.8	17.0	-60.1	0.0
2026-01-13 08:30:05.182590	245.7	16.9	-60.8	0.9
2026-01-13 08:30:06.303852	245.5	16.8	-61.2	2.5
2026-01-13 08:30:07.424618	245.4	16.7	-61.0	2.0
2026-01-13 08:30:08.545880	245.3	16.6	-61.6	2.1
2026-01-13 08:30:09.667639	245.1	16.5	-62.2	0.1
2026-01-13 08:30:10.789396	245.0	16.4	-61.8	1.5
2026-01-13 08:30:11.911154	244.8	16.3	-61.3	0.0
2026-01-13 08:30:13.033408	244.7	16.2	-61.2	0.0
2026-01-13 08:30:14.155166	244.6	16.0	-61.1	0.0
2026-01-13 08:30:15.276427	244.4	15.9	-61.0	0.2
2026-01-13 08:30:16.398185	244.3	15.8	-61.6	0.0
2026-01-13 08:30:17.520438	244.2	15.7	-60.8	0.0
2026-01-13 08:30:18.642196	244.0	15.6	-62.2	1.4
2026-01-13 08:30:19.762962	243.9	15.5	-62.8	1.6
2026-01-13 08:30:20.885215	243.8	15.4	-62.7	1.1
2026-01-13 08:30:22.006478	243.7	15.3	-62.9	2.5
2026-01-13 08:30:23.128731	243.5	15.2	-62.6	0.7
2026-01-13 08:30:24.250489	243.4	15.1	-62.6	0.0
2026-01-13 08:30:25.372742	243.3	15.0	-63.1	0.0
2026-01-13 08:30:26.495501	243.1	14.9	-62.0	0.4
2026-01-13 08:30:27.617754	243.0	14.8	-63.0	0.0
2026-01-13 08:30:28.739511	242.9	14.7	-62.6	0.0
2026-01-13 08:30:29.861764	242.8	14.6	-62.1	0.0
2026-01-13 08:30:30.984018	242.7	14.5	-62.7	0.6
2026-01-13 08:30:32.105280	242.5	14.4	-62.2	1.0
2026-01-13 08:30:33.226045	242.4	14.3	-61.8	0.0
2026-01-13 08:30:34.348299	242.3	14.2	-62.1	1.0
2026-01-13 08:30:35.470056	242.2	14.1	-62.1	0.0
2026-01-13 08:30:36.592309	242.1	14.0	-61.9	0.0
2026-01-13 08:30:37.714562	241.9	13.9	-62.3	0.0
2026-01-13 08:30:38.836321	241.8	13.8	-62.6	0.0
2026-01-13 08:30:39.958574	241.7	13.7	-62.6	0.0
2026-01-13 08:30:41.079836	241.6	13.6	-63.0	0.0
2026-01-13 08:30:42.202089	241.5	13.5	-62.9	1.8
2026-01-13 08:30:43.324343	241.4	13.4	-63.2	0.3
2026-01-13 08:30:44.446101	241.3	13.3	-62.7	0.0
2026-01-13 08:30:45.568354	241.1	13.2	-63.3	0.0
2026-01-13 08:30:46.690113	241.0	13.1	-63.5	0.0
2026-01-13 08:30:47.811871	240.9	13.0	-62.9	1.8
2026-01-13 08:30:48.933133	240.8	12.9	-62.8	0.0
2026-01-13 08:30:50.054890	240.7	12.8	-62.8	0.5
2026-01-13 08:30:51.176648	240.6	12.7	-63.1	0.0
2026-01-13 08:30:52.298415	240.5	12.6	-63.0	0.0
2026-01-13 08:30:53.420181	240.4	12.5	-61.8	0.0
2026-01-13 08:30:54.541443	240.3	12.4	-63.0	0.0
2026-01-13 08:30:55.662704	240.2	12.3	-63.2	0.0
2026-01-13 08:30:56.783966	240.1	12.2	-63.4	0.0
2026-01-13 08:30:57.906219	240.0	12.1	-63.5	0.0
2026-01-13 08:30:59.028472	239.9	12.0	-62.0	0.0
2026-01-13 08:31:00.150230	239.8	11.9	-63.3	0.0
2026-01-13 08:31:01.272484	239.7	11.9	-63.3	0.0
2026-01-13 08:31:02.393745	239.6	11.8	-63.3	0.0
2026-01-13 08:31:03.515998	239.5	11.7	-63.6	0.0
2026-01-13 08:31:04.637261	239.4	11.6	-63.3	0.0
2026-01-13 08:31:05.758026	239.3	11.5	-63.2	0.0
2026-01-13 08:31:06.879792	239.2	11.4	-63.3	0.0
2026-01-13 08:31:08.002046	239.1	11.3	-63.3	0.0
2026-01-13 08:31:09.124299	239.0	11.2	-63.4	0.0
2026-01-13 08:31:10.246553	238.9	11.1	-63.4	0.0
2026-01-13 08:31:11.367823	238.8	11.0	-63.4	0.0
2026-01-13 08:31:12.489589	238.7	10.9	-63.8	0.0
2026-01-13 08:31:13.610852	238.6	10.8	-63.3	0.0
2026-01-13 08:31:14.733105	238.5	10.7	-63.6	0.0
2026-01-13 08:31:15.854365	238.4	10.7	-62.6	0.0
2026-01-13 08:31:16.976123	238.3	10.6	-63.3	0.0
2026-01-13 08:31:18.097880	238.2	10.5	-63.6	0.0
2026-01-13 08:31:19.219638	238.1	10.4	-63.7	0.0
2026-01-13 08:31:20.341892	238.0	10.3	-63.3	0.0
2026-01-13 08:31:21.463648	238.0	10.2	-63.5	0.0
2026-01-13 08:31:22.586902	237.9	10.1	-63.5	0.0
2026-01-13 08:31:23.708659	237.8	10.0	-63.0	0.0
2026-01-13 08:31:24.830913	237.7	9.9	-62.7	0.0
2026-01-13 08:31:25.952670	237.6	9.9	-62.9	0.0
2026-01-13 08:31:27.074923	237.5	9.8	-63.1	0.0
2026-01-13 08:31:28.196185	237.4	9.7	-63.3	0.0
2026-01-13 08:31:29.317943	237.3	9.6	-63.1	0.0
2026-01-13 08:31:30.439710	237.3	9.5	-63.1	0.0
2026-01-13 08:31:31.561467	237.2	9.4	-63.1	0.0
2026-01-13 08:31:32.682728	237.1	9.3	-62.9	0.0
2026-01-13 08:31:33.804982	237.0	9.2	-62.8	0.0
2026-01-13 08:31:34.925251	236.9	9.2	-62.9	0.0
2026-01-13 08:31:36.046513	236.8	9.1	-63.0	0.0
2026-01-13 08:31:37.168270	236.7	9.0	-62.7	0.0
2026-01-13 08:31:38.292028	236.7	8.9	-62.0	0.0
2026-01-13 08:31:39.413786	236.6	8.8	-62.0	0.0
2026-01-13 08:31:40.536039	236.5	8.7	-62.7	0.0
2026-01-13 08:31:41.657301	236.4	8.6	-62.4	0.0
2026-01-13 08:31:42.779059	236.3	8.6	-62.0	0.0
2026-01-13 08:31:43.901312	236.3	8.5	-61.6	0.0
2026-01-13 08:31:45.023070	236.2	8.4	-61.4	0.0
2026-01-13 08:31:46.146331	236.1	8.3	-62.4	0.0
2026-01-13 08:31:47.267099	236.0	8.2	-61.7	0.0
2026-01-13 08:31:48.388856	235.9	8.1	-62.2	0.0
2026-01-13 08:31:49.510614	235.9	8.1	-62.2	0.0
2026-01-13 08:31:50.632372	235.8	8.0	-62.4	0.0
2026-01-13 08:31:51.754625	235.7	7.9	-62.5	0.0
2026-01-13 08:31:52.875885	235.6	7.8	-62.0	0.0
2026-01-13 08:31:53.998643	235.6	7.7	-62.5	0.0
2026-01-13 08:31:55.120905	235.5	7.6	-62.5	0.0
2026-01-13 08:31:56.242663	235.4	7.6	-61.6	0.0
2026-01-13 08:31:57.364916	235.3	7.5	-62.0	0.0
2026-01-13 08:31:58.486674	235.3	7.4	-62.3	0.0
2026-01-13 08:31:59.608928	235.2	7.3	-62.2	0.0
2026-01-13 08:32:00.730685	235.1	7.2	-62.2	0.0
2026-01-13 08:32:01.851947	235.0	7.2	-61.8	0.0
2026-01-13 08:32:02.980202	235.0	7.1	-61.7	0.0
2026-01-13 08:32:04.102455	234.9	7.0	-62.2	0.0
2026-01-13 08:32:05.224708	234.8	6.9	-61.4	0.0
2026-01-13 08:32:06.346466	234.8	6.8	-61.4	0.0
2026-01-13 08:32:07.468720	234.7	6.8	-61.7	0.0
2026-01-13 08:32:08.590477	234.6	6.7	-62.5	0.0
2026-01-13 08:32:09.712731	234.6	6.6	-62.2	0.0
2026-01-13 08:32:10.834488	234.5	6.5	-61.9	0.0
2026-01-13 08:32:11.956245	234.4	6.4	-61.8	0.0
2026-01-13 08:32:13.077013	234.3	6.4	-62.4	0.0
2026-01-13 08:32:14.199267	234.3	6.3	-61.8	0.0
2026-01-13 08:32:15.320529	234.2	6.2	-61.6	0.0
2026-01-13 08:32:16.442782	234.1	6.1	-61.6	0.0
2026-01-13 08:32:17.564045	234.1	6.0	-61.8	0.0
2026-01-13 08:32:18.685803	234.0	6.0	-64.4	0.0
2026-01-13 08:32:19.807084	233.9	5.9	-62.2	0.0
2026-01-13 08:32:20.928388	233.9	5.8	-59.3	0.0
2026-01-13 08:32:22.050641	233.8	5.7	-58.4	0.0
2026-01-13 08:32:23.172895	233.7	5.7	-61.1	0.0
2026-01-13 08:32:24.295148	233.7	5.6	-64.9	0.0
2026-01-13 08:32:25.417906	233.6	5.5	-64.8	0.0
2026-01-13 08:32:26.539664	233.5	5.4	-68.2	0.0
2026-01-13 08:32:27.660430	233.5	5.4	-70.4	0.0
2026-01-13 08:32:28.782692	233.4	5.3	-70.8	0.0
2026-01-13 08:32:29.903954	233.4	5.2	-71.3	0.0
2026-01-13 08:32:31.025711	233.3	5.1	-71.1	0.0
2026-01-13 08:32:32.147965	233.2	5.1	-70.9	0.0
2026-01-13 08:32:33.270218	233.2	5.0	-71.0	0.0
#Closed at: 2026-01-13 08:20:32.396173