passes_logs/2026/01/13/PlanumMoscow/PlanumMoscow__20260113_174237_METEOR-M2_3_rec.log

#Pass ID: 20260113_174237_METEOR-M2 3
#Satellite: METEOR-M2 3
#Configuration: METEOR-M2 3
#Start time: 2026-01-13 17:42:42.846247

#LorettStation: 1.0.0 05.05.2024
#Station: PlanumMoscow
#Location: 37.6253844 lon 55.6713361 lat
#TLE: 1 57166U 23091A   25293.99389264  .00000062  00000+0  46113-4 0  9997
#TLE: 2 57166  98.6457 348.4330 0004759 135.3141 224.8422 14.24016546120475

#Time	Az	El	Level	SNR
2026-01-13 17:46:21.318245	158.5	30.0	-64.8	14.1
2026-01-13 17:46:23.562267	158.5	30.4	-65.1	14.1
2026-01-13 17:46:25.805350	158.5	30.9	-65.0	14.3
2026-01-13 17:46:28.049371	158.4	31.3	-65.2	15.0
2026-01-13 17:46:30.291927	158.4	31.8	-65.4	15.7
2026-01-13 17:46:32.537949	158.4	32.2	-65.5	15.7
2026-01-13 17:46:34.781473	158.3	32.7	-65.3	15.7
2026-01-13 17:46:37.025038	158.3	33.2	-65.7	15.5
2026-01-13 17:46:39.269058	158.3	33.7	-65.8	16.0
2026-01-13 17:46:41.513110	158.2	34.2	-65.7	15.3
2026-01-13 17:46:43.756627	158.2	34.7	-65.6	15.1
2026-01-13 17:46:46.000639	158.1	35.2	-65.6	15.3
2026-01-13 17:46:48.244692	158.1	35.7	-65.3	15.3
2026-01-13 17:46:50.487256	158.0	36.3	-65.6	16.0
2026-01-13 17:46:52.730276	158.0	36.8	-65.4	15.1
2026-01-13 17:46:54.974288	157.9	37.3	-65.5	15.7
2026-01-13 17:46:57.218347	157.9	37.9	-65.9	15.4
2026-01-13 17:46:59.463873	157.8	38.5	-66.2	15.9
2026-01-13 17:47:01.706942	157.8	39.0	-66.2	15.8
2026-01-13 17:47:03.950467	157.7	39.6	-66.1	16.0
2026-01-13 17:47:06.196479	157.7	40.2	-66.3	16.1
2026-01-13 17:47:08.440531	157.6	40.8	-65.8	14.9
2026-01-13 17:47:10.682074	157.5	41.5	-66.4	16.0
2026-01-13 17:47:12.925124	157.5	42.1	-66.3	15.7
2026-01-13 17:47:15.167649	157.4	42.7	-66.2	16.0
2026-01-13 17:47:17.411668	157.3	43.4	-66.1	15.7
2026-01-13 17:47:19.655739	157.3	44.0	-66.3	15.6
2026-01-13 17:47:21.897766	157.2	44.7	-66.3	14.7
2026-01-13 17:47:24.142835	157.1	45.4	-66.7	15.5
2026-01-13 17:47:26.386856	157.0	46.1	-67.0	15.3
2026-01-13 17:47:28.629915	156.9	46.8	-66.9	15.2
2026-01-13 17:47:30.876455	156.8	47.5	-67.0	15.2
2026-01-13 17:47:33.120515	156.7	48.2	-67.4	15.6
2026-01-13 17:47:35.364039	156.6	49.0	-67.1	15.2
2026-01-13 17:47:37.607607	156.5	49.8	-67.0	14.7
2026-01-13 17:47:39.855123	156.4	50.5	-67.3	14.7
2026-01-13 17:47:42.098648	156.2	51.3	-67.1	14.6
2026-01-13 17:47:44.341707	156.1	52.1	-67.5	15.2
2026-01-13 17:47:46.583241	155.9	52.9	-67.6	14.4
2026-01-13 17:47:48.827796	155.8	53.7	-67.8	14.1
2026-01-13 17:47:51.072310	155.6	54.6	-68.1	14.1
2026-01-13 17:47:53.316825	155.5	55.4	-67.8	12.7
2026-01-13 17:47:55.558887	155.3	56.3	-68.2	12.5
2026-01-13 17:47:57.802907	155.1	57.2	-68.4	11.7
2026-01-13 17:48:00.046446	154.9	58.0	-68.6	12.1
2026-01-13 17:48:02.289970	154.7	58.9	-68.2	12.0
2026-01-13 17:48:04.533033	154.4	59.9	-68.6	12.7
2026-01-13 17:48:06.776061	154.2	60.8	-68.4	12.9
2026-01-13 17:48:09.020606	153.9	61.7	-68.0	13.4
2026-01-13 17:48:11.263635	153.6	62.7	-68.2	13.6
2026-01-13 17:48:13.508183	153.2	63.7	-67.7	13.4
2026-01-13 17:48:15.752690	152.9	64.6	-67.5	13.4
2026-01-13 17:48:17.996702	152.5	65.6	-67.7	12.8
2026-01-13 17:48:20.240754	152.1	66.6	-68.4	12.0
2026-01-13 17:48:22.485261	151.6	67.6	-68.4	12.6
2026-01-13 17:48:24.729321	151.1	68.7	-68.3	12.3
2026-01-13 17:48:26.973836	150.5	69.7	-67.9	11.5
2026-01-13 17:48:29.217888	149.9	70.7	-68.2	12.1
2026-01-13 17:48:31.462403	149.1	71.8	-68.5	12.2
2026-01-13 17:48:33.706950	148.3	72.9	-68.1	11.9
2026-01-13 17:48:35.950465	147.4	73.9	-68.0	12.7
2026-01-13 17:48:38.198982	146.3	75.0	-68.0	13.2
2026-01-13 17:48:40.442537	145.1	76.1	-68.3	13.9
2026-01-13 17:48:42.686084	143.6	77.1	-67.9	13.2
2026-01-13 17:48:44.930135	141.9	78.2	-68.0	13.9
2026-01-13 17:48:47.174650	139.8	79.3	-67.9	13.0
2026-01-13 17:48:49.418693	137.2	80.3	-67.6	13.4
2026-01-13 17:48:51.665720	134.0	81.4	-67.5	13.5
2026-01-13 17:48:53.910267	129.9	82.4	-67.6	13.3
2026-01-13 17:48:56.154773	124.6	83.3	-67.3	13.7
2026-01-13 17:48:58.398799	117.6	84.2	-67.6	13.5
2026-01-13 17:49:00.643347	108.3	85.0	-67.4	13.4
2026-01-13 17:49:02.886871	96.0	85.6	-67.2	12.2
2026-01-13 17:49:05.130410	80.9	85.9	-67.8	11.5
2026-01-13 17:49:07.374926	64.3	85.9	-68.2	11.8
2026-01-13 17:49:09.619473	48.9	85.6	-67.9	10.5
2026-01-13 17:49:11.863999	36.3	85.1	-67.2	10.9
2026-01-13 17:49:14.108505	26.7	84.3	-67.5	13.8
2026-01-13 17:49:16.352557	19.5	83.4	-67.6	14.6
2026-01-13 17:49:18.596081	14.0	82.5	-68.0	14.9
2026-01-13 17:49:20.839628	9.9	81.5	-67.7	13.5
2026-01-13 17:49:23.084144	6.6	80.4	-67.7	12.5
2026-01-13 17:49:25.328691	4.0	79.4	-67.4	10.4
2026-01-13 17:49:27.572703	1.8	78.3	-67.7	9.1
2026-01-13 17:49:29.817217	0.0	77.3	-68.0	11.4
2026-01-13 17:49:32.061259	358.5	76.2	-67.4	10.6
2026-01-13 17:49:34.305775	357.3	75.1	-66.3	12.1
2026-01-13 17:49:36.548834	356.2	74.1	-66.9	12.5
2026-01-13 17:49:38.793341	355.2	73.0	-66.8	12.1
2026-01-13 17:49:41.037390	354.4	71.9	-67.4	12.9
2026-01-13 17:49:43.281410	353.7	70.9	-67.1	11.6
2026-01-13 17:49:45.525422	353.0	69.8	-66.1	9.7
2026-01-13 17:49:47.769967	352.4	68.8	-67.3	11.2
2026-01-13 17:49:50.014482	351.9	67.8	-67.2	9.9
2026-01-13 17:49:52.259030	351.4	66.8	-66.2	9.6
2026-01-13 17:49:54.503545	351.0	65.8	-67.2	10.8
2026-01-13 17:49:56.747092	350.6	64.8	-66.3	11.4
2026-01-13 17:49:58.991608	350.3	63.8	-67.0	11.4
2026-01-13 17:50:01.235619	349.9	62.8	-66.0	9.2
2026-01-13 17:50:03.480167	349.6	61.9	-67.0	10.9
2026-01-13 17:50:05.723801	349.3	60.9	-67.0	10.9
2026-01-13 17:50:07.967853	349.1	60.0	-66.3	9.7
2026-01-13 17:50:10.223908	348.8	59.1	-66.8	10.4
2026-01-13 17:50:12.468415	348.6	58.2	-65.6	8.5
2026-01-13 17:50:14.711970	348.4	57.3	-66.0	8.6
2026-01-13 17:50:16.958982	348.2	56.4	-66.2	8.1
2026-01-13 17:50:19.203002	348.0	55.6	-66.6	8.4
2026-01-13 17:50:21.447509	347.9	54.7	-65.9	8.8
2026-01-13 17:50:23.692055	347.7	53.9	-66.1	8.8
2026-01-13 17:50:25.937582	347.5	53.1	-66.4	9.1
2026-01-13 17:50:28.182128	347.4	52.3	-66.3	9.5
2026-01-13 17:50:30.426642	347.3	51.5	-66.7	9.8
2026-01-13 17:50:32.670190	347.1	50.7	-66.7	9.6
2026-01-13 17:50:34.914209	347.0	49.9	-66.5	9.0
2026-01-13 17:50:37.158220	346.9	49.2	-66.1	9.0
2026-01-13 17:50:39.402767	346.8	48.4	-66.6	10.4
2026-01-13 17:50:41.648787	346.7	47.7	-66.5	11.1
2026-01-13 17:50:43.893333	346.6	47.0	-66.5	11.5
2026-01-13 17:50:46.137840	346.5	46.3	-66.3	11.0
2026-01-13 17:50:48.381901	346.4	45.6	-65.8	11.2
2026-01-13 17:50:50.628416	346.3	44.9	-65.7	11.3
2026-01-13 17:50:52.872452	346.2	44.2	-65.2	12.1
2026-01-13 17:50:55.116959	346.2	43.5	-65.6	12.1
2026-01-13 17:50:57.360978	346.1	42.9	-66.2	12.5
2026-01-13 17:50:59.605529	346.0	42.3	-65.6	11.9
2026-01-13 17:51:01.850044	345.9	41.6	-65.6	12.5
2026-01-13 17:51:04.093591	345.9	41.0	-65.7	13.0
2026-01-13 17:51:06.342099	345.8	40.4	-65.2	11.4
2026-01-13 17:51:08.586119	345.8	39.8	-65.6	11.3
2026-01-13 17:51:10.830162	345.7	39.2	-64.7	9.6
2026-01-13 17:51:13.074182	345.6	38.7	-65.1	11.5
2026-01-13 17:51:15.317250	345.6	38.1	-64.8	10.8
2026-01-13 17:51:17.561268	345.5	37.5	-65.1	10.7
2026-01-13 17:51:19.804830	345.5	37.0	-65.4	12.3
2026-01-13 17:51:22.048851	345.4	36.4	-64.3	10.3
2026-01-13 17:51:24.292892	345.4	35.9	-65.0	11.0
2026-01-13 17:51:26.537407	345.4	35.4	-64.3	10.4
2026-01-13 17:51:28.781914	345.3	34.9	-64.6	10.6
2026-01-13 17:51:31.029469	345.3	34.4	-64.5	11.0
2026-01-13 17:51:33.273985	345.2	33.9	-64.2	10.5
2026-01-13 17:51:35.517549	345.2	33.4	-64.3	9.9
2026-01-13 17:51:37.764056	345.2	32.9	-64.0	9.9
2026-01-13 17:51:40.011613	345.1	32.4	-64.4	11.6
2026-01-13 17:51:42.257138	345.1	32.0	-64.3	10.3
2026-01-13 17:51:44.501150	345.1	31.5	-64.6	9.0
2026-01-13 17:51:46.745698	345.0	31.1	-65.2	11.4
2026-01-13 17:51:48.989717	345.0	30.6	-65.4	10.5
2026-01-13 17:51:51.233760	345.0	30.2	-65.4	11.5
2026-01-13 17:51:53.478276	344.9	29.7	-64.4	10.4
2026-01-13 17:51:55.723831	344.9	29.3	-65.3	11.4
2026-01-13 17:51:57.968346	344.9	28.9	-65.5	12.0
2026-01-13 17:52:00.212382	344.9	28.5	-65.0	12.2
2026-01-13 17:52:02.456402	344.8	28.1	-65.1	11.1
2026-01-13 17:52:04.703917	344.8	27.7	-64.7	10.3
2026-01-13 17:52:06.947960	344.8	27.3	-65.1	10.9
2026-01-13 17:52:09.192475	344.8	26.9	-65.2	11.1
2026-01-13 17:52:11.440022	344.8	26.5	-65.5	10.6
2026-01-13 17:52:13.684034	344.7	26.1	-65.1	10.2
2026-01-13 17:52:15.928053	344.7	25.8	-65.1	10.8
2026-01-13 17:52:18.172065	344.7	25.4	-65.0	10.5
2026-01-13 17:52:20.415604	344.7	25.0	-65.0	10.6
2026-01-13 17:52:22.660111	344.7	24.7	-64.8	9.8
2026-01-13 17:52:24.904626	344.6	24.3	-65.9	10.2
2026-01-13 17:52:27.148669	344.6	24.0	-65.7	10.7
2026-01-13 17:52:29.395195	344.6	23.6	-65.6	10.3
2026-01-13 17:52:31.639740	344.6	23.3	-65.7	10.5
2026-01-13 17:52:33.884255	344.6	23.0	-65.4	9.9
2026-01-13 17:52:36.133267	344.6	22.6	-65.1	9.8
2026-01-13 17:52:38.376316	344.5	22.3	-65.0	9.0
2026-01-13 17:52:40.620335	344.5	22.0	-65.0	9.7
2026-01-13 17:52:42.864370	344.5	21.7	-64.8	8.7
2026-01-13 17:52:45.107895	344.5	21.4	-65.2	9.7
2026-01-13 17:52:47.352402	344.5	21.1	-65.2	9.9
2026-01-13 17:52:49.596435	344.5	20.7	-64.7	8.9
2026-01-13 17:52:51.840455	344.5	20.4	-65.1	8.9
2026-01-13 17:52:54.088504	344.5	20.1	-64.8	8.7
2026-01-13 17:52:56.333019	344.4	19.9	-64.9	8.8
2026-01-13 17:52:58.577526	344.4	19.6	-65.3	10.0
2026-01-13 17:53:00.821569	344.4	19.3	-65.0	9.1
2026-01-13 17:53:03.068093	344.4	19.0	-64.9	9.7
2026-01-13 17:53:05.312136	344.4	18.7	-64.4	8.0
2026-01-13 17:53:07.556652	344.4	18.4	-64.7	8.7
2026-01-13 17:53:09.801159	344.4	18.2	-64.5	7.4
2026-01-13 17:53:12.048707	344.4	17.9	-65.3	9.2
2026-01-13 17:53:14.293224	344.4	17.6	-64.5	7.2
2026-01-13 17:53:16.537268	344.4	17.3	-65.1	9.1
2026-01-13 17:53:18.780786	344.4	17.1	-64.9	7.6
2026-01-13 17:53:21.025300	344.4	16.8	-63.5	6.2
2026-01-13 17:53:23.270850	344.3	16.6	-63.9	6.8
2026-01-13 17:53:25.513902	344.3	16.3	-64.3	8.8
2026-01-13 17:53:27.759922	344.3	16.1	-62.6	4.7
2026-01-13 17:53:30.004430	344.3	15.8	-63.4	6.7
2026-01-13 17:53:32.247975	344.3	15.6	-64.0	8.4
2026-01-13 17:53:34.491492	344.3	15.3	-64.3	8.5
2026-01-13 17:53:36.738009	344.3	15.1	-64.2	7.9
2026-01-13 17:53:38.982060	344.3	14.8	-64.4	7.0
2026-01-13 17:53:41.225585	344.3	14.6	-64.2	6.2
2026-01-13 17:53:43.469164	344.3	14.4	-64.5	6.8
2026-01-13 17:53:45.715193	344.3	14.1	-64.3	6.8
2026-01-13 17:53:47.958740	344.3	13.9	-64.5	6.7
2026-01-13 17:53:50.201760	344.3	13.7	-65.0	6.9
2026-01-13 17:53:52.448276	344.3	13.4	-64.4	6.5
2026-01-13 17:53:54.692347	344.3	13.2	-63.8	6.4
2026-01-13 17:53:56.936367	344.3	13.0	-64.8	7.6
2026-01-13 17:53:59.179418	344.3	12.8	-64.6	7.5
2026-01-13 17:54:01.421950	344.3	12.6	-65.2	6.7
2026-01-13 17:54:03.664523	344.3	12.3	-63.9	6.5
2026-01-13 17:54:05.907048	344.3	12.1	-64.3	7.0
2026-01-13 17:54:08.151575	344.3	11.9	-63.4	5.1
2026-01-13 17:54:10.395625	344.3	11.7	-64.2	6.2
2026-01-13 17:54:12.638686	344.3	11.5	-64.7	7.4
2026-01-13 17:54:14.880715	344.3	11.3	-64.7	7.6
2026-01-13 17:54:17.125727	344.2	11.1	-64.6	6.5
2026-01-13 17:54:19.369738	344.2	10.9	-64.3	6.2
2026-01-13 17:54:21.612758	344.2	10.7	-64.0	6.7
2026-01-13 17:54:23.856769	344.2	10.5	-64.5	6.6
2026-01-13 17:54:26.102284	344.2	10.3	-62.6	3.9
2026-01-13 17:54:28.345801	344.2	10.1	-64.5	6.5
2026-01-13 17:54:30.589812	344.2	9.9	-64.2	5.8
2026-01-13 17:54:32.835833	344.2	9.7	-64.4	6.9
2026-01-13 17:54:35.080349	344.2	9.5	-63.7	5.8
2026-01-13 17:54:37.324856	344.2	9.3	-63.9	5.2
2026-01-13 17:54:39.567876	344.2	9.1	-62.6	4.4
2026-01-13 17:54:41.816393	344.2	8.9	-63.8	5.7
2026-01-13 17:54:44.059910	344.2	8.8	-63.1	6.3
2026-01-13 17:54:46.303425	344.2	8.6	-62.7	5.1
2026-01-13 17:54:48.551942	344.2	8.4	-61.9	4.4
2026-01-13 17:54:50.795954	344.2	8.2	-62.5	5.1
2026-01-13 17:54:53.039965	344.2	8.0	-61.8	2.7
2026-01-13 17:54:55.283481	344.2	7.8	-63.3	3.7
2026-01-13 17:54:57.530501	344.2	7.7	-63.2	4.6
2026-01-13 17:54:59.774512	344.2	7.5	-64.5	5.3
2026-01-13 17:55:02.017532	344.2	7.3	-64.2	5.2
2026-01-13 17:55:04.261047	344.2	7.1	-64.8	5.5
2026-01-13 17:55:06.505554	344.2	7.0	-63.9	3.1
2026-01-13 17:55:08.747078	344.2	6.8	-64.7	3.9
2026-01-13 17:55:10.992594	344.2	6.6	-64.2	3.7
2026-01-13 17:55:13.235111	344.2	6.5	-64.4	3.8
2026-01-13 17:55:15.479627	344.2	6.3	-65.1	3.1
2026-01-13 17:55:17.724639	344.2	6.1	-64.8	2.2
2026-01-13 17:55:19.968155	344.2	6.0	-65.0	1.6
2026-01-13 17:55:22.214680	344.3	5.8	-68.3	0.0
2026-01-13 17:55:24.457699	344.3	5.6	-66.4	0.0
2026-01-13 17:55:26.701214	344.3	5.5	-66.5	0.0
2026-01-13 17:55:28.943730	344.3	5.3	-65.8	0.0
2026-01-13 17:55:31.187741	344.3	5.1	-65.3	0.0
2026-01-13 17:55:33.431258	344.3	5.0	-65.0	0.0
#Closed at: 2026-01-13 17:42:37.847450