passes_logs/2025/01/27/XPeterburg/XPeterburg__20250127_142646_FENGYUN_3E_rec.log

#Pass ID: 20250127_142646_FENGYUN 3E
#Satellite: FENGYUN 3E
#Configuration: FENGYUN 3E
#Start time: 2025-01-27 14:26:42

#Version: 1.5.20200625
#Station: XPeterburg
#Location: 30.318091 lon 59.932769 lat
#TLE: 1 49008U 21062A   25027.09703354  .00000102  00000+0  68638-4 0  9996
#TLE: 2 49008  98.7401  31.4596 0002633 100.7949 259.3524 14.19836139184765

#Time	Az	El	Level	Level2	SNR	BER	Gain	Gain2
2025-01-27 14:26:42.04	132.54	68.51	-38.3	-39.3	3.3	8398292	95	5554
2025-01-27 14:26:42.45	132.31	68.68	-36.7	-46.9	4.1	8360641	73	15921
2025-01-27 14:26:42.85	132.07	68.84	-36.3	-36.5	4.4	8238624	90	5040
2025-01-27 14:26:43.25	131.83	69.01	-35.7	-35.5	5.1	7748817	89	4809
2025-01-27 14:26:43.65	131.59	69.17	-34.9	-34.1	6.0	5212543	88	4518
2025-01-27 14:26:44.05	131.34	69.34	-34.4	-33.6	6.8	2394184	87	4506
2025-01-27 14:26:44.46	131.08	69.51	-32.9	-32.0	8.3	1180858	84	4443
2025-01-27 14:26:44.86	130.83	69.67	-32.2	-31.6	9.3	394718	82	4595
2025-01-27 14:26:45.26	130.56	69.84	-31.5	-30.7	10.2	110927	81	4499
2025-01-27 14:26:45.66	130.30	70.00	-30.9	-29.9	11.1	32489	80	4410
2025-01-27 14:26:46.06	130.03	70.17	-30.3	-29.8	11.6	9864	78	4638
2025-01-27 14:26:46.47	129.75	70.34	-29.9	-29.0	12.0	6500	78	4447
2025-01-27 14:26:46.87	129.46	70.50	-29.8	-29.2	12.2	3822	77	4631
2025-01-27 14:26:47.27	129.18	70.67	-29.7	-29.1	12.3	2311	77	4586
2025-01-27 14:26:47.67	128.89	70.83	-29.6	-28.9	12.4	2082	77	4550
2025-01-27 14:26:48.07	128.59	70.99	-29.6	-28.9	12.4	1464	77	4509
2025-01-27 14:26:48.48	128.28	71.16	-29.5	-28.6	12.6	1419	77	4436
2025-01-27 14:26:48.88	127.97	71.32	-29.6	-29.0	12.4	1190	77	4552
2025-01-27 14:26:49.28	127.66	71.49	-29.5	-29.0	12.7	835	76	4679
2025-01-27 14:26:49.68	127.34	71.65	-28.9	-28.0	13.4	698	76	4396
2025-01-27 14:26:50.08	127.02	71.81	-29.1	-28.4	13.2	617	76	4520
2025-01-27 14:26:50.49	126.68	71.98	-29.0	-28.2	13.3	377	76	4496
2025-01-27 14:26:50.89	126.34	72.14	-29.1	-28.4	13.1	251	76	4542
2025-01-27 14:26:51.29	125.99	72.30	-29.1	-28.3	13.1	286	76	4508
2025-01-27 14:26:51.69	125.64	72.46	-29.0	-28.2	13.0	446	76	4470
2025-01-27 14:26:52.09	125.28	72.63	-28.9	-27.9	13.1	434	76	4409
2025-01-27 14:26:52.50	124.91	72.79	-28.5	-27.7	13.2	331	75	4494
2025-01-27 14:26:52.90	124.54	72.95	-28.5	-27.6	13.2	377	75	4434
2025-01-27 14:26:53.30	124.15	73.11	-28.3	-27.7	13.5	217	74	4618
2025-01-27 14:26:53.70	123.77	73.27	-28.1	-27.5	13.6	125	74	4556
2025-01-27 14:26:54.11	123.36	73.43	-28.2	-27.4	13.5	68	74	4494
2025-01-27 14:26:54.51	122.96	73.59	-27.9	-26.9	13.8	45	74	4361
2025-01-27 14:26:54.91	122.54	73.74	-27.6	-26.8	14.2	34	73	4472
2025-01-27 14:26:55.31	122.12	73.90	-27.6	-26.7	14.2	34	73	4440
2025-01-27 14:26:55.71	121.70	74.06	-27.5	-26.6	14.3	22	73	4419
2025-01-27 14:26:56.12	121.25	74.22	-27.5	-26.4	14.4	0	73	4367
2025-01-27 14:26:56.52	120.80	74.37	-27.5	-26.5	14.4	0	73	4396
2025-01-27 14:26:56.92	120.34	74.52	-27.4	-26.3	14.6	22	73	4347
2025-01-27 14:26:57.32	119.88	74.68	-27.4	-26.4	14.6	11	73	4367
2025-01-27 14:26:57.72	119.40	74.83	-27.5	-26.6	14.5	0	73	4406
2025-01-27 14:26:58.13	118.90	74.98	-27.4	-26.2	14.7	0	73	4329
2025-01-27 14:26:58.53	118.40	75.14	-27.3	-26.8	14.8	0	72	4640
2025-01-27 14:26:58.93	117.90	75.28	-27.4	-27.0	14.8	0	72	4687
2025-01-27 14:26:59.33	117.38	75.43	-27.3	-26.8	14.9	0	72	4650
2025-01-27 14:26:59.73	116.85	75.58	-27.1	-26.3	15.2	0	72	4513
2025-01-27 14:27:00.14	116.30	75.73	-27.0	-26.1	15.3	0	72	4446
2025-01-27 14:27:00.54	115.74	75.88	-27.1	-26.3	15.3	0	72	4524
2025-01-27 14:27:00.94	115.18	76.02	-27.0	-26.1	15.4	0	72	4471
2025-01-27 14:27:01.34	114.60	76.16	-27.0	-26.2	15.4	0	72	4478
2025-01-27 14:27:01.75	114.00	76.31	-27.0	-26.2	15.4	0	72	4477
2025-01-27 14:27:02.15	113.40	76.45	-26.8	-25.9	15.6	0	72	4405
2025-01-27 14:27:02.55	112.78	76.59	-26.8	-25.8	15.7	0	72	4399
2025-01-27 14:27:02.95	112.16	76.72	-26.8	-25.9	15.7	0	72	4406
2025-01-27 14:27:03.35	111.52	76.86	-26.6	-25.9	15.8	0	71	4546
2025-01-27 14:27:03.75	110.86	77.00	-26.6	-26.0	15.8	0	71	4555
2025-01-27 14:27:04.16	110.17	77.13	-26.6	-26.0	15.8	0	71	4576
2025-01-27 14:27:04.56	109.49	77.26	-26.7	-26.2	15.6	0	71	4621
2025-01-27 14:27:04.96	108.79	77.39	-26.5	-25.8	15.9	0	71	4512
2025-01-27 14:27:05.36	108.08	77.52	-26.6	-26.0	15.7	0	71	4569
2025-01-27 14:27:05.76	107.35	77.65	-26.7	-26.1	15.7	0	71	4591
2025-01-27 14:27:06.17	106.59	77.77	-26.8	-26.3	15.5	0	71	4659
2025-01-27 14:27:06.57	105.83	77.90	-26.7	-26.1	15.6	0	71	4612
2025-01-27 14:27:06.97	105.06	78.02	-26.5	-25.8	15.7	0	71	4522
2025-01-27 14:27:07.37	104.26	78.13	-26.5	-25.6	15.8	0	71	4479
2025-01-27 14:27:07.77	103.46	78.25	-26.3	-25.8	16.0	0	70	4643
2025-01-27 14:27:08.18	102.61	78.37	-26.2	-25.7	16.0	0	70	4622
2025-01-27 14:27:08.58	101.77	78.48	-26.1	-25.3	16.1	0	70	4529
2025-01-27 14:27:08.98	100.92	78.59	-26.0	-25.1	16.1	0	70	4457
2025-01-27 14:27:09.38	100.04	78.69	-25.9	-24.9	16.2	0	70	4396
2025-01-27 14:27:09.78	99.15	78.80	-25.7	-25.2	16.3	0	69	4604
2025-01-27 14:27:10.18	98.24	78.90	-25.9	-25.4	16.2	0	69	4674
2025-01-27 14:27:10.59	97.30	79.00	-26.0	-25.6	16.0	0	69	4732
2025-01-27 14:27:10.99	96.36	79.09	-26.1	-25.8	15.9	0	69	4784
2025-01-27 14:27:11.39	95.40	79.19	-26.0	-25.6	16.0	0	69	4720
2025-01-27 14:27:11.79	94.42	79.28	-26.0	-25.6	16.0	0	69	4710
2025-01-27 14:27:12.20	93.41	79.36	-25.9	-25.5	16.1	0	69	4695
2025-01-27 14:27:12.60	92.40	79.45	-25.8	-25.2	16.1	0	69	4620
2025-01-27 14:27:13.00	91.38	79.53	-25.8	-25.3	16.1	0	69	4633
2025-01-27 14:27:13.40	90.34	79.60	-25.8	-25.3	16.1	0	69	4630
2025-01-27 14:27:13.80	89.28	79.68	-25.9	-25.4	16.1	0	69	4656
2025-01-27 14:27:14.20	88.21	79.75	-26.0	-25.5	16.0	0	69	4691
2025-01-27 14:27:14.61	87.10	79.82	-26.0	-25.6	16.0	0	69	4703
2025-01-27 14:27:15.01	86.00	79.88	-26.1	-25.9	15.8	0	69	4784
2025-01-27 14:27:15.41	84.89	79.94	-26.3	-26.2	15.7	0	69	4886
2025-01-27 14:27:15.81	83.76	79.99	-26.2	-26.0	15.8	0	69	4813
2025-01-27 14:27:16.22	82.60	80.05	-26.4	-26.4	15.6	0	69	4930
2025-01-27 14:27:16.62	81.45	80.09	-26.4	-26.4	15.7	0	69	4927
2025-01-27 14:27:17.02	80.29	80.14	-26.3	-26.3	15.7	0	69	4899
2025-01-27 14:27:17.42	79.12	80.18	-26.3	-26.3	15.7	0	69	4918
2025-01-27 14:27:17.82	77.94	80.21	-26.3	-26.3	15.7	0	69	4898
2025-01-27 14:27:18.23	76.72	80.24	-26.4	-26.4	15.6	0	69	4932
2025-01-27 14:27:18.63	75.53	80.27	-26.3	-26.3	15.6	0	69	4911
2025-01-27 14:27:19.03	74.32	80.29	-26.3	-26.2	15.8	0	69	4869
2025-01-27 14:27:19.43	73.12	80.31	-26.3	-26.3	15.7	0	69	4908
2025-01-27 14:27:19.83	71.91	80.32	-26.3	-26.3	15.7	0	69	4894
2025-01-27 14:27:20.24	70.66	80.34	-26.3	-26.2	15.8	0	69	4868
2025-01-27 14:27:20.64	69.45	80.34	-26.3	-26.3	15.7	0	69	4917
2025-01-27 14:27:21.04	68.23	80.34	-26.3	-26.3	15.7	0	69	4890
2025-01-27 14:27:21.44	67.02	80.34	-26.3	-26.3	15.7	0	69	4919
2025-01-27 14:27:21.84	65.80	80.33	-26.4	-26.4	15.6	0	69	4933
2025-01-27 14:27:22.25	64.56	80.32	-26.7	-26.5	15.4	0	70	4828
2025-01-27 14:27:22.65	63.35	80.30	-26.7	-26.5	15.4	0	70	4836
2025-01-27 14:27:23.05	62.15	80.28	-26.9	-26.9	15.1	0	70	4948
2025-01-27 14:27:23.45	60.95	80.26	-26.9	-27.0	15.1	0	70	4971
2025-01-27 14:27:23.86	59.73	80.23	-26.9	-26.6	15.0	0	71	4719
2025-01-27 14:27:24.26	58.54	80.20	-26.8	-26.2	15.1	0	71	4623
2025-01-27 14:27:24.66	57.37	80.16	-26.8	-26.2	15.1	0	71	4601
2025-01-27 14:27:25.06	56.20	80.12	-26.9	-26.4	15.1	0	71	4650
2025-01-27 14:27:25.46	55.04	80.07	-26.7	-26.1	15.2	0	71	4585
2025-01-27 14:27:25.87	53.87	80.02	-26.8	-26.3	15.0	0	71	4639
2025-01-27 14:27:26.27	52.74	79.97	-26.8	-26.2	15.1	0	71	4619
2025-01-27 14:27:26.67	51.62	79.92	-26.7	-26.2	15.1	0	71	4604
2025-01-27 14:27:27.07	50.51	79.86	-26.7	-26.2	15.0	11	71	4599
2025-01-27 14:27:27.47	49.42	79.79	-26.8	-26.4	14.9	0	71	4651
2025-01-27 14:27:27.88	48.31	79.72	-27.0	-26.7	14.7	0	71	4733
2025-01-27 14:27:28.28	47.25	79.65	-27.0	-26.6	14.7	0	71	4720
2025-01-27 14:27:28.68	46.20	79.58	-26.9	-26.5	14.8	0	71	4698
2025-01-27 14:27:29.08	45.17	79.50	-26.9	-26.5	14.8	0	71	4703
2025-01-27 14:27:29.48	44.15	79.42	-26.9	-26.5	14.8	0	71	4680
2025-01-27 14:27:29.89	43.12	79.33	-26.9	-26.4	14.8	0	71	4666
2025-01-27 14:27:30.29	42.14	79.24	-27.1	-26.8	14.6	0	71	4770
2025-01-27 14:27:30.69	41.17	79.15	-26.9	-26.4	14.8	0	71	4662
2025-01-27 14:27:31.09	40.22	79.06	-27.1	-26.8	14.6	11	71	4775
2025-01-27 14:27:31.50	39.26	78.96	-27.1	-26.9	14.6	0	71	4800
2025-01-27 14:27:31.90	38.34	78.86	-27.2	-27.0	14.5	11	71	4837
2025-01-27 14:27:32.30	37.44	78.76	-27.2	-27.2	14.5	0	71	4884
2025-01-27 14:27:32.70	36.56	78.65	-27.3	-27.3	14.4	11	71	4907
2025-01-27 14:27:33.10	35.69	78.55	-27.4	-27.4	14.3	0	71	4953
2025-01-27 14:27:33.51	34.82	78.43	-27.4	-27.5	14.3	0	71	4989
2025-01-27 14:27:33.91	33.99	78.32	-27.3	-27.4	14.5	0	71	4946
2025-01-27 14:27:34.31	33.17	78.21	-27.4	-27.6	14.4	0	71	5014
2025-01-27 14:27:34.71	32.37	78.09	-27.7	-27.6	14.4	0	72	4862
2025-01-27 14:27:35.11	31.59	77.97	-27.8	-27.7	14.4	34	72	4905
2025-01-27 14:27:35.52	30.80	77.85	-27.8	-27.7	14.4	11	72	4908
2025-01-27 14:27:35.92	30.05	77.73	-27.8	-27.9	14.3	11	72	4968
2025-01-27 14:27:36.32	29.31	77.60	-27.8	-27.9	14.3	11	72	4961
2025-01-27 14:27:36.72	28.59	77.47	-27.9	-28.0	14.3	0	72	4988
2025-01-27 14:27:37.12	27.88	77.35	-27.9	-28.0	14.4	0	72	4991
2025-01-27 14:27:37.52	27.19	77.22	-27.8	-27.8	14.5	11	72	4933
2025-01-27 14:27:37.93	26.49	77.08	-27.7	-27.6	14.6	0	72	4882
2025-01-27 14:27:38.33	25.83	76.95	-27.6	-27.4	14.7	0	72	4797
2025-01-27 14:27:38.73	25.18	76.81	-27.5	-27.1	14.7	11	72	4743
2025-01-27 14:27:39.13	24.54	76.68	-27.5	-27.1	14.6	0	72	4719
2025-01-27 14:27:39.53	23.92	76.54	-27.5	-27.2	14.6	0	72	4740
2025-01-27 14:27:39.94	23.30	76.39	-27.5	-27.1	14.6	0	72	4706
2025-01-27 14:27:40.34	22.70	76.25	-27.6	-27.4	14.4	0	72	4807
2025-01-27 14:27:40.74	22.12	76.11	-27.8	-27.8	14.2	11	72	4918
2025-01-27 14:27:41.14	21.55	75.97	-27.9	-27.9	14.1	57	72	4958
2025-01-27 14:27:41.54	20.99	75.82	-28.0	-28.1	14.0	34	72	5020
2025-01-27 14:27:41.95	20.43	75.68	-28.0	-28.1	14.0	22	72	5015
2025-01-27 14:27:42.35	19.89	75.53	-27.9	-27.4	13.9	68	73	4667
2025-01-27 14:27:42.75	19.37	75.38	-27.9	-27.4	13.9	57	73	4655
2025-01-27 14:27:43.15	18.85	75.23	-27.9	-27.4	13.8	22	73	4665
2025-01-27 14:27:43.55	18.35	75.08	-27.8	-27.2	14.0	45	73	4601
2025-01-27 14:27:43.96	17.85	74.93	-27.7	-27.1	14.0	45	73	4589
2025-01-27 14:27:44.36	17.36	74.78	-27.9	-27.4	13.9	137	73	4657
2025-01-27 14:27:44.76	16.89	74.63	-28.0	-27.6	13.7	57	73	4728
2025-01-27 14:27:45.16	16.43	74.47	-28.1	-27.9	13.5	114	73	4811
2025-01-27 14:27:45.56	15.98	74.32	-28.1	-27.9	13.5	114	73	4813
2025-01-27 14:27:45.96	15.53	74.16	-28.3	-28.3	13.3	91	73	4908
2025-01-27 14:27:46.37	15.09	74.00	-28.1	-27.9	13.5	125	73	4785
2025-01-27 14:27:46.77	14.66	73.85	-27.9	-27.5	13.6	125	73	4673
2025-01-27 14:27:47.17	14.24	73.69	-28.0	-27.6	13.6	125	73	4732
2025-01-27 14:27:47.57	13.84	73.53	-27.9	-27.5	13.6	68	73	4688
2025-01-27 14:27:47.98	13.43	73.37	-28.0	-27.6	13.6	125	73	4702
2025-01-27 14:27:48.38	13.03	73.21	-28.0	-27.6	13.6	114	73	4730
2025-01-27 14:27:48.78	12.65	73.06	-28.1	-27.8	13.6	91	73	4788
2025-01-27 14:27:49.18	12.27	72.90	-28.3	-28.3	13.4	91	73	4936
2025-01-27 14:27:49.58	11.90	72.74	-28.3	-28.4	13.4	183	73	4941
2025-01-27 14:27:49.98	11.54	72.58	-28.6	-28.5	13.1	205	74	4854
2025-01-27 14:27:50.39	11.17	72.41	-29.0	-29.3	12.8	331	74	5079
2025-01-27 14:27:50.79	10.82	72.25	-28.8	-28.2	13.1	320	75	4602
2025-01-27 14:27:51.19	10.48	72.09	-28.9	-28.4	13.0	377	75	4663
2025-01-27 14:27:51.59	10.15	71.93	-28.9	-28.4	13.0	595	75	4649
2025-01-27 14:27:52.00	9.81	71.76	-28.8	-28.3	12.9	629	75	4623
2025-01-27 14:27:52.40	9.49	71.60	-28.9	-28.3	12.9	720	75	4623
2025-01-27 14:27:52.80	9.17	71.44	-29.0	-28.5	12.8	743	75	4674
2025-01-27 14:27:53.20	8.86	71.27	-28.8	-28.2	12.9	709	75	4584
2025-01-27 14:27:53.60	8.55	71.11	-28.7	-28.0	12.9	514	75	4530
2025-01-27 14:27:54.01	8.25	70.94	-28.6	-27.8	13.0	766	75	4484
2025-01-27 14:27:54.41	7.95	70.78	-28.6	-27.8	12.9	709	75	4476
2025-01-27 14:27:54.81	7.66	70.61	-28.7	-27.9	12.8	652	75	4513
2025-01-27 14:27:55.21	7.38	70.45	-29.4	-29.5	12.1	503	75	4977

#Closed at: 2025-01-27 14:27:55