passes_logs/2025/01/27/XPeterburg/XPeterburg__20250127_112043_AQUA_rec.log

#Pass ID: 20250127_112043_AQUA
#Satellite: AQUA
#Configuration: AQUA
#Start time: 2025-01-27 11:20:36

#Version: 1.5.20200625
#Station: XPeterburg
#Location: 30.318091 lon 59.932769 lat
#TLE: 1 27424U 02022A   25027.13595682  .00002183  00000+0  45736-3 0  9991
#TLE: 2 27424  98.3601 343.9109 0002120  98.2224 351.3793 14.60746235209391

#Time	Az	El	Level	Level2	SNR	BER	Gain	Gain2
2025-01-27 11:20:36.46	135.80	66.84	-35.2	-44.1	3.3	7700805	88	1648
2025-01-27 11:20:36.66	135.68	66.94	-34.2	-64.0	3.5	7595977	47	18523
2025-01-27 11:20:36.86	135.56	67.04	-35.0	-52.7	3.5	7587890	73	4605
2025-01-27 11:20:37.06	135.44	67.14	-35.3	-46.1	3.4	7584838	87	2081
2025-01-27 11:20:37.27	135.31	67.25	-35.3	-46.0	3.4	7658691	87	2040
2025-01-27 11:20:37.47	135.19	67.34	-35.3	-46.6	3.4	7563629	87	2206
2025-01-27 11:20:37.67	135.07	67.44	-35.3	-46.7	3.5	7597503	87	2218
2025-01-27 11:20:37.87	134.94	67.54	-35.3	-46.5	3.5	7594299	87	2177
2025-01-27 11:20:38.07	134.81	67.64	-35.3	-46.3	3.4	7614746	87	2119
2025-01-27 11:20:38.27	134.69	67.74	-35.3	-46.8	3.2	7567901	87	2241
2025-01-27 11:20:38.47	134.56	67.84	-35.3	-46.8	3.5	7609710	87	2233
2025-01-27 11:20:38.67	134.43	67.94	-35.3	-46.6	3.5	7613677	87	2179
2025-01-27 11:20:38.88	134.29	68.04	-35.3	-46.1	3.4	7583770	87	2081
2025-01-27 11:20:39.08	134.16	68.14	-35.3	-45.9	3.4	7618560	87	2017
2025-01-27 11:20:39.28	134.02	68.24	-35.3	-46.4	3.5	7557067	87	2148
2025-01-27 11:20:39.48	133.89	68.34	-35.3	-46.1	3.5	7563171	87	2072
2025-01-27 11:20:39.68	133.75	68.44	-35.2	-45.6	3.5	7626037	87	1968
2025-01-27 11:20:39.88	133.61	68.54	-35.2	-45.0	3.4	7604827	87	1854
2025-01-27 11:20:40.08	133.47	68.64	-35.2	-45.3	3.5	7540130	87	1916
2025-01-27 11:20:40.28	133.33	68.74	-35.1	-44.8	3.6	7569274	87	1811
2025-01-27 11:20:40.48	133.19	68.84	-35.1	-43.9	3.5	7613067	87	1652
2025-01-27 11:20:40.69	133.04	68.94	-35.0	-43.2	3.5	7590026	87	1532
2025-01-27 11:20:40.89	132.90	69.04	-34.9	-43.2	3.6	7558135	87	1554
2025-01-27 11:20:41.09	132.75	69.14	-34.8	-42.5	3.7	7465362	87	1441
2025-01-27 11:20:41.29	132.60	69.24	-34.8	-41.6	4.4	7314453	87	1321
2025-01-27 11:20:41.49	132.45	69.34	-34.7	-40.9	4.6	7243957	87	1219
2025-01-27 11:20:41.69	132.30	69.44	-34.6	-41.1	4.3	7457427	87	1261
2025-01-27 11:20:41.89	132.15	69.54	-34.5	-40.6	3.8	7462921	87	1208
2025-01-27 11:20:42.09	131.99	69.64	-34.3	-39.5	5.6	6964721	87	1081
2025-01-27 11:20:42.29	131.84	69.73	-33.9	-38.3	6.1	6900634	86	994
2025-01-27 11:20:42.49	131.68	69.83	-33.7	-37.8	6.8	6742553	85	958
2025-01-27 11:20:42.70	131.51	69.94	-33.4	-36.6	7.5	6614685	85	864
2025-01-27 11:20:42.90	131.35	70.04	-33.1	-36.0	8.2	6496734	84	840
2025-01-27 11:20:43.10	131.19	70.14	-32.9	-35.5	8.7	6462249	84	804
2025-01-27 11:20:43.30	131.02	70.23	-32.8	-35.5	9.1	6401977	83	822
2025-01-27 11:20:43.50	130.86	70.33	-32.7	-35.3	9.4	6389617	83	804
2025-01-27 11:20:43.70	130.69	70.43	-32.5	-34.7	9.8	6343231	83	770
2025-01-27 11:20:43.90	130.52	70.53	-32.4	-34.4	10.1	6318206	83	752
2025-01-27 11:20:44.10	130.35	70.63	-32.3	-34.2	10.2	6257629	83	741
2025-01-27 11:20:44.31	130.16	70.73	-32.3	-34.7	10.4	6268768	82	786
2025-01-27 11:20:44.51	129.99	70.83	-32.4	-34.7	10.3	6306762	82	785
2025-01-27 11:20:44.71	129.81	70.93	-32.4	-34.9	10.3	6295928	82	793
2025-01-27 11:20:44.91	129.63	71.03	-32.4	-34.9	10.3	6283569	82	794
2025-01-27 11:20:45.11	129.45	71.13	-32.4	-34.8	10.4	6285247	82	790
2025-01-27 11:20:45.31	129.26	71.22	-32.5	-35.2	10.1	6326446	82	812
2025-01-27 11:20:45.51	129.08	71.32	-32.6	-35.5	9.9	6319580	82	830
2025-01-27 11:20:45.71	128.89	71.42	-32.6	-35.4	9.8	6341400	82	827
2025-01-27 11:20:45.91	128.70	71.52	-32.5	-35.0	10.2	6315917	82	797
2025-01-27 11:20:46.11	128.51	71.61	-32.4	-34.8	10.3	6295928	82	788
2025-01-27 11:20:46.31	128.31	71.71	-32.2	-34.2	10.7	6238708	82	752
2025-01-27 11:20:46.52	128.11	71.81	-32.1	-34.0	10.9	6216735	82	744
2025-01-27 11:20:46.72	127.91	71.91	-32.1	-33.9	11.1	6204986	82	738
2025-01-27 11:20:46.92	127.71	72.01	-32.1	-34.0	11.1	6208801	82	741
2025-01-27 11:20:47.12	127.50	72.11	-32.1	-34.1	11.0	6221466	82	749
2025-01-27 11:20:47.32	127.30	72.20	-32.2	-34.3	11.0	6234741	82	761
2025-01-27 11:20:47.52	127.09	72.30	-32.3	-34.6	10.8	6260833	82	781
2025-01-27 11:20:47.72	126.88	72.40	-32.4	-35.0	10.6	6278686	82	800
2025-01-27 11:20:47.92	126.66	72.49	-32.5	-35.2	10.5	6252288	82	818
2025-01-27 11:20:48.12	126.45	72.59	-32.6	-35.6	10.3	6300811	82	841
2025-01-27 11:20:48.32	126.23	72.69	-32.8	-36.0	10.1	6307830	82	864
2025-01-27 11:20:48.53	126.00	72.79	-32.7	-35.9	10.1	6290130	82	863
2025-01-27 11:20:48.73	125.77	72.88	-32.7	-35.9	10.2	6312408	82	859
2025-01-27 11:20:48.93	125.55	72.98	-32.7	-35.7	10.3	6288604	82	850
2025-01-27 11:20:49.13	125.32	73.07	-32.6	-35.4	10.7	6254119	82	828
2025-01-27 11:20:49.33	125.09	73.17	-32.4	-34.8	11.1	6225738	82	793
2025-01-27 11:20:49.53	124.85	73.26	-32.3	-34.6	11.4	6201782	82	779
2025-01-27 11:20:49.73	124.62	73.36	-32.3	-34.6	11.4	6219940	82	783
2025-01-27 11:20:49.93	124.38	73.45	-32.4	-35.0	11.2	6217346	82	811
2025-01-27 11:20:50.13	124.13	73.55	-32.6	-35.6	10.8	6236419	82	845
2025-01-27 11:20:50.34	123.87	73.65	-32.7	-36.0	10.5	6258087	82	871
2025-01-27 11:20:50.54	123.63	73.74	-32.8	-36.3	10.3	6284790	82	891
2025-01-27 11:20:50.74	123.37	73.84	-32.8	-36.2	10.2	6290130	82	887
2025-01-27 11:20:50.94	123.12	73.93	-32.8	-36.1	10.3	6265106	82	875
2025-01-27 11:20:51.14	122.86	74.02	-32.7	-35.8	10.5	6253356	82	857
2025-01-27 11:20:51.34	122.60	74.12	-32.5	-35.3	10.8	6251525	82	825
2025-01-27 11:20:51.54	122.33	74.21	-32.4	-35.1	11.0	6230316	82	808
2025-01-27 11:20:51.74	122.06	74.30	-32.3	-34.8	11.1	6253356	82	790
2025-01-27 11:20:51.94	121.79	74.40	-32.3	-34.8	11.2	6202087	82	792
2025-01-27 11:20:52.14	121.52	74.49	-32.3	-34.8	11.2	6213226	82	790
2025-01-27 11:20:52.34	121.24	74.58	-32.3	-34.8	11.1	6228027	82	790
2025-01-27 11:20:52.55	120.94	74.68	-32.3	-34.7	11.1	6228942	82	785
2025-01-27 11:20:52.75	120.66	74.77	-32.3	-34.5	11.2	6206817	82	775
2025-01-27 11:20:52.95	120.37	74.86	-32.2	-34.2	11.4	6206665	82	759
2025-01-27 11:20:53.15	120.08	74.95	-32.0	-33.7	11.7	6214599	82	730
2025-01-27 11:20:53.35	119.78	75.04	-32.0	-33.7	11.7	6193389	82	729
2025-01-27 11:20:53.55	119.48	75.13	-32.0	-33.7	11.7	6186523	82	732
2025-01-27 11:20:53.75	119.18	75.22	-32.0	-33.9	11.5	6188964	82	740
2025-01-27 11:20:53.95	118.87	75.31	-32.1	-34.0	11.4	6202087	82	745
2025-01-27 11:20:54.15	118.56	75.40	-32.1	-34.1	11.3	6222991	82	752
2025-01-27 11:20:54.35	118.24	75.49	-32.0	-33.8	11.3	6216583	82	734
2025-01-27 11:20:54.55	117.92	75.57	-32.0	-33.6	11.4	6177825	82	724
2025-01-27 11:20:54.76	117.58	75.67	-31.8	-33.2	11.7	6179962	82	701
2025-01-27 11:20:54.96	117.25	75.75	-31.6	-33.2	11.9	6192626	81	719
2025-01-27 11:20:55.16	116.92	75.84	-31.4	-32.6	12.4	6163330	81	687
2025-01-27 11:20:55.36	116.58	75.93	-31.3	-32.8	12.6	6147766	80	712
2025-01-27 11:20:55.56	116.24	76.01	-31.2	-32.5	12.8	6153411	80	698
2025-01-27 11:20:55.76	115.90	76.10	-31.0	-32.2	13.1	6147003	80	682
2025-01-27 11:20:55.96	115.55	76.19	-31.1	-32.4	12.9	6127166	80	695
2025-01-27 11:20:56.16	115.19	76.27	-31.2	-32.6	12.8	6133880	80	702
2025-01-27 11:20:56.36	114.83	76.36	-31.3	-33.0	12.6	6149444	80	720
2025-01-27 11:20:56.56	114.47	76.44	-31.5	-33.3	12.3	6171264	80	739
2025-01-27 11:20:56.76	114.10	76.52	-31.6	-33.5	12.1	6163024	80	749
2025-01-27 11:20:56.97	113.71	76.61	-31.5	-33.5	12.1	6173858	80	746
2025-01-27 11:20:57.17	113.33	76.69	-31.4	-33.1	12.4	6147460	80	726
2025-01-27 11:20:57.37	112.95	76.77	-31.2	-32.6	12.8	6136169	80	701
2025-01-27 11:20:57.57	112.56	76.86	-31.1	-32.3	12.9	6145782	80	688
2025-01-27 11:20:57.77	112.17	76.94	-31.0	-32.2	13.2	6131286	80	683
2025-01-27 11:20:57.97	111.77	77.02	-30.9	-31.9	13.3	6127166	80	667
2025-01-27 11:20:58.17	111.37	77.10	-30.9	-31.8	13.5	6106567	80	663
2025-01-27 11:20:58.38	110.94	77.18	-30.8	-31.7	13.6	6115570	80	661
2025-01-27 11:20:58.58	110.53	77.26	-31.0	-32.1	13.4	6120300	80	679
2025-01-27 11:20:58.78	110.11	77.34	-31.1	-32.5	13.2	6141204	80	698
2025-01-27 11:20:58.98	109.69	77.41	-31.1	-32.5	13.1	6134490	80	699
2025-01-27 11:20:59.18	109.26	77.49	-31.1	-32.4	13.2	6115570	80	695
2025-01-27 11:20:59.38	108.82	77.57	-31.0	-32.1	13.4	6131591	80	677
2025-01-27 11:20:59.58	108.38	77.64	-30.9	-32.0	13.5	6110839	80	675
2025-01-27 11:20:59.78	107.94	77.72	-30.9	-32.0	13.5	6109161	80	675
2025-01-27 11:20:59.98	107.48	77.79	-30.9	-32.1	13.5	6101226	80	679
2025-01-27 11:21:00.18	107.03	77.86	-31.0	-32.2	13.5	6117706	80	683
2025-01-27 11:21:00.39	106.54	77.94	-31.1	-32.4	13.3	6105957	80	694
2025-01-27 11:21:00.59	106.07	78.01	-31.2	-32.7	13.1	6125793	80	708
2025-01-27 11:21:00.79	105.60	78.08	-31.2	-32.7	13.1	6108703	80	709
2025-01-27 11:21:00.99	105.12	78.15	-31.1	-32.4	13.3	6146087	80	694
2025-01-27 11:21:01.19	104.63	78.22	-31.0	-32.0	13.6	6141815	80	677
2025-01-27 11:21:01.39	104.14	78.29	-30.5	-31.6	14.0	6114349	79	675
2025-01-27 11:21:01.59	103.64	78.36	-30.4	-31.4	14.1	6109313	79	665
2025-01-27 11:21:01.79	103.14	78.43	-30.4	-31.2	14.2	6092376	79	660
2025-01-27 11:21:01.99	102.63	78.49	-30.4	-31.4	14.1	6093597	79	667
2025-01-27 11:21:02.19	102.11	78.56	-30.5	-31.6	14.0	6103210	79	676
2025-01-27 11:21:02.40	101.57	78.62	-30.6	-31.8	13.9	6108398	79	686
2025-01-27 11:21:02.60	101.04	78.69	-30.6	-31.9	13.8	6123199	79	693
2025-01-27 11:21:02.80	100.50	78.75	-30.7	-32.2	13.7	6112365	79	706
2025-01-27 11:21:03.00	99.96	78.81	-30.9	-32.6	13.4	6113739	79	724
2025-01-27 11:21:03.20	99.42	78.87	-31.1	-33.0	13.2	6133575	79	745
2025-01-27 11:21:03.40	98.87	78.93	-31.0	-32.9	13.1	6138153	79	742
2025-01-27 11:21:03.60	98.31	78.99	-30.9	-32.6	13.4	6121215	79	727
2025-01-27 11:21:03.80	97.74	79.05	-30.7	-32.1	13.7	6115722	79	701
2025-01-27 11:21:04.00	97.17	79.10	-30.5	-31.5	14.1	6090698	79	673
2025-01-27 11:21:04.21	96.57	79.16	-30.3	-31.0	14.4	6095123	79	650
2025-01-27 11:21:04.41	95.99	79.22	-30.1	-31.2	14.7	6076507	78	675
2025-01-27 11:21:04.61	95.40	79.27	-30.1	-31.2	14.8	6106109	78	675
2025-01-27 11:21:04.81	94.80	79.32	-30.3	-31.6	14.6	6080169	78	693
2025-01-27 11:21:05.01	94.20	79.37	-30.7	-32.5	14.0	6079254	78	739
2025-01-27 11:21:05.21	93.60	79.42	-30.9	-33.1	13.6	6097412	78	768
2025-01-27 11:21:05.41	92.98	79.47	-31.0	-32.8	13.4	6123504	79	737
2025-01-27 11:21:05.61	92.37	79.52	-30.9	-32.6	13.5	6130218	79	725
2025-01-27 11:21:05.81	91.74	79.56	-30.8	-32.5	13.6	6120910	79	719
2025-01-27 11:21:06.02	91.08	79.61	-30.8	-32.4	13.6	6098327	79	716
2025-01-27 11:21:06.22	90.45	79.66	-30.7	-32.2	13.8	6080322	79	707
2025-01-27 11:21:06.42	89.81	79.70	-30.6	-32.0	13.9	6104125	79	695
2025-01-27 11:21:06.62	89.16	79.74	-30.6	-31.8	14.0	6094360	79	686
2025-01-27 11:21:06.82	88.51	79.78	-30.4	-31.3	14.3	6108398	79	665
2025-01-27 11:21:07.02	87.86	79.82	-30.3	-31.0	14.4	6095886	79	653
2025-01-27 11:21:07.22	87.20	79.86	-30.3	-31.6	14.5	6110382	78	693
2025-01-27 11:21:07.42	86.53	79.89	-30.3	-31.5	14.5	6097106	78	691
2025-01-27 11:21:07.62	85.86	79.93	-30.4	-31.7	14.4	6095428	78	700
2025-01-27 11:21:07.82	85.18	79.96	-30.5	-32.1	14.2	6088714	78	717
2025-01-27 11:21:08.03	84.47	79.99	-30.7	-32.5	14.0	6110229	78	738
2025-01-27 11:21:08.23	83.79	80.02	-30.7	-32.5	13.9	6103820	78	739
2025-01-27 11:21:08.43	83.10	80.05	-30.6	-32.4	14.0	6091461	78	730
2025-01-27 11:21:08.63	82.41	80.08	-30.5	-32.1	14.1	6070556	78	715
2025-01-27 11:21:08.83	81.71	80.11	-30.3	-31.6	14.4	6104125	78	695
2025-01-27 11:21:09.03	81.01	80.13	-30.3	-31.6	14.5	6076202	78	693
2025-01-27 11:21:09.23	80.31	80.15	-30.5	-32.0	14.2	6108093	78	713
2025-01-27 11:21:09.43	79.60	80.18	-30.6	-32.4	14.0	6115264	78	733
2025-01-27 11:21:09.63	78.89	80.20	-30.5	-32.2	14.0	6105651	78	722
2025-01-27 11:21:09.84	78.14	80.22	-30.4	-31.9	14.2	6095428	78	707
2025-01-27 11:21:10.04	77.43	80.23	-30.3	-31.5	14.4	6072387	78	691
2025-01-27 11:21:10.24	76.71	80.25	-30.2	-31.4	14.5	6102294	78	687
2025-01-27 11:21:10.44	75.99	80.26	-30.3	-31.5	14.4	6099853	78	690
2025-01-27 11:21:10.64	75.27	80.28	-30.3	-31.7	14.3	6090698	78	698
2025-01-27 11:21:10.84	74.55	80.29	-30.4	-31.8	14.1	6107788	78	706
2025-01-27 11:21:11.04	73.82	80.30	-30.5	-32.0	14.1	6107330	78	714
2025-01-27 11:21:11.24	73.09	80.31	-30.5	-32.0	14.0	6108245	78	714
2025-01-27 11:21:11.44	72.36	80.31	-30.5	-32.2	13.8	6128082	78	721
2025-01-27 11:21:11.64	71.64	80.32	-30.6	-32.4	13.7	6122131	78	734
2025-01-27 11:21:11.85	70.87	80.32	-30.7	-32.6	13.7	6137542	78	742
2025-01-27 11:21:12.05	70.14	80.32	-30.8	-32.9	13.4	6114807	78	759
2025-01-27 11:21:12.25	69.41	80.32	-30.8	-33.0	13.3	6107635	78	765
2025-01-27 11:21:12.45	68.68	80.32	-30.6	-32.4	13.6	6110534	78	732
2025-01-27 11:21:12.65	67.95	80.32	-30.4	-32.0	13.8	6113739	78	713
2025-01-27 11:21:12.85	67.22	80.32	-30.4	-31.8	13.9	6100921	78	707
2025-01-27 11:21:13.05	66.49	80.31	-30.5	-32.0	13.9	6100769	78	716
2025-01-27 11:21:13.25	65.77	80.30	-30.7	-32.6	13.6	6094818	78	745
2025-01-27 11:21:13.45	65.04	80.29	-30.8	-32.8	13.5	6115264	78	754
2025-01-27 11:21:13.66	64.28	80.28	-30.9	-33.1	13.3	6121826	78	772
2025-01-27 11:21:13.86	63.56	80.27	-30.9	-33.1	13.3	6120910	78	769
2025-01-27 11:21:14.06	62.83	80.26	-30.8	-32.8	13.4	6124572	78	754
2025-01-27 11:21:14.26	62.12	80.24	-30.9	-33.2	13.2	6115722	78	777
2025-01-27 11:21:14.46	61.40	80.23	-31.0	-33.0	13.0	6142883	79	749
2025-01-27 11:21:14.66	60.69	80.21	-31.1	-33.1	12.8	6151580	79	756
2025-01-27 11:21:14.86	59.97	80.19	-31.1	-33.3	12.8	6125793	79	765
2025-01-27 11:21:15.06	59.27	80.17	-31.2	-33.3	12.7	6125183	79	767
2025-01-27 11:21:15.27	58.53	80.14	-31.1	-33.2	12.7	6149597	79	762
2025-01-27 11:21:15.47	57.83	80.12	-31.2	-33.5	12.5	6137237	79	774
2025-01-27 11:21:15.67	57.13	80.09	-31.2	-33.3	12.7	6147308	79	764
2025-01-27 11:21:15.87	56.43	80.07	-31.1	-33.2	12.7	6117858	79	759
2025-01-27 11:21:16.07	55.74	80.04	-31.2	-33.2	12.7	6125640	79	760
2025-01-27 11:21:16.27	55.06	80.01	-31.2	-33.4	12.7	6140747	79	769
2025-01-27 11:21:16.47	54.38	79.98	-31.2	-33.4	12.6	6144104	79	772
2025-01-27 11:21:16.67	53.70	79.94	-31.2	-33.4	12.6	6140899	79	771
2025-01-27 11:21:16.87	53.03	79.91	-31.2	-33.4	12.7	6159667	79	772
2025-01-27 11:21:17.07	52.36	79.88	-31.2	-33.3	12.8	6117858	79	761
2025-01-27 11:21:17.28	51.66	79.84	-31.3	-33.6	12.7	6151885	79	778
2025-01-27 11:21:17.48	51.00	79.80	-31.4	-34.0	12.4	6147766	79	804
2025-01-27 11:21:17.68	50.35	79.76	-31.8	-34.2	12.1	6185760	80	793
2025-01-27 11:21:17.88	49.70	79.72	-31.9	-34.6	11.8	6200103	80	813
2025-01-27 11:21:18.08	49.06	79.68	-31.9	-34.5	11.8	6188812	80	808
2025-01-27 11:21:18.28	48.42	79.63	-31.9	-34.6	11.8	6181182	80	812
2025-01-27 11:21:18.48	47.79	79.59	-31.8	-34.3	11.9	6173095	80	798
2025-01-27 11:21:18.68	47.16	79.54	-31.8	-34.3	11.9	6187744	80	797
2025-01-27 11:21:18.89	46.51	79.50	-31.9	-34.7	11.8	6178741	80	818
2025-01-27 11:21:19.09	45.90	79.45	-31.9	-34.5	11.8	6166687	80	809
2025-01-27 11:21:19.29	45.29	79.40	-31.8	-34.4	11.9	6185913	80	801
2025-01-27 11:21:19.49	44.69	79.35	-31.7	-34.1	12.1	6178588	80	787
2025-01-27 11:21:19.69	44.09	79.30	-31.7	-34.0	12.3	6146697	80	777
2025-01-27 11:21:19.89	43.50	79.24	-31.8	-34.3	12.2	6157531	80	797
2025-01-27 11:21:20.09	42.91	79.19	-31.9	-34.6	11.9	6174163	80	816
2025-01-27 11:21:20.29	42.33	79.14	-31.9	-34.2	11.7	6180572	81	777
2025-01-27 11:21:20.49	41.76	79.08	-32.0	-34.5	11.5	6211700	81	797
2025-01-27 11:21:20.69	41.19	79.02	-32.2	-34.8	11.3	6193389	81	810
2025-01-27 11:21:20.90	40.60	78.96	-32.2	-35.0	11.1	6211090	81	821
2025-01-27 11:21:21.10	40.05	78.90	-32.2	-34.9	11.1	6214752	81	818
2025-01-27 11:21:21.30	39.50	78.84	-32.1	-34.6	11.3	6206359	81	797
2025-01-27 11:21:21.50	38.96	78.78	-32.0	-34.3	11.4	6200408	81	779
2025-01-27 11:21:21.70	38.42	78.72	-31.9	-34.1	11.6	6212005	81	767
2025-01-27 11:21:21.90	37.89	78.66	-31.8	-33.9	11.8	6177520	81	758
2025-01-27 11:21:22.10	37.36	78.59	-31.8	-33.9	11.8	6190185	81	757
2025-01-27 11:21:22.30	36.85	78.53	-31.8	-33.9	11.8	6186676	81	758
2025-01-27 11:21:22.50	36.33	78.46	-31.9	-34.2	11.6	6193695	81	773
2025-01-27 11:21:22.71	35.80	78.39	-32.1	-34.6	11.3	6209259	81	797
2025-01-27 11:21:22.91	35.30	78.33	-32.2	-34.9	11.0	6228637	81	817
2025-01-27 11:21:23.11	34.81	78.26	-32.2	-34.9	11.0	6236419	81	816
2025-01-27 11:21:23.31	34.32	78.19	-32.2	-34.8	11.0	6227569	81	808
2025-01-27 11:21:23.51	33.83	78.12	-32.0	-34.4	11.3	6206512	81	782
2025-01-27 11:21:23.71	33.36	78.05	-32.1	-34.4	11.2	6209716	81	787
2025-01-27 11:21:23.91	32.89	77.98	-32.1	-34.7	11.1	6230468	81	800
2025-01-27 11:21:24.11	32.42	77.91	-32.2	-34.8	10.9	6255493	81	810
2025-01-27 11:21:24.31	31.96	77.83	-32.1	-34.7	11.1	6249389	81	800
2025-01-27 11:21:24.51	31.51	77.76	-32.1	-34.5	11.1	6227416	81	788
2025-01-27 11:21:24.72	31.04	77.68	-32.1	-34.7	11.0	6227111	81	799
2025-01-27 11:21:24.92	30.59	77.61	-32.1	-34.6	11.0	6228179	81	794
2025-01-27 11:21:25.12	30.16	77.53	-32.2	-34.8	10.8	6220550	81	806
2025-01-27 11:21:25.32	29.72	77.46	-32.1	-34.5	11.1	6219024	81	787
2025-01-27 11:21:25.52	29.30	77.38	-32.0	-34.2	11.1	6211242	81	770
2025-01-27 11:21:25.72	28.88	77.30	-32.0	-34.2	11.2	6219635	81	770
2025-01-27 11:21:25.92	28.46	77.22	-31.9	-33.9	11.3	6218261	81	755
2025-01-27 11:21:26.12	28.05	77.14	-31.9	-34.1	11.3	6215209	81	762
2025-01-27 11:21:26.32	27.64	77.06	-32.0	-34.1	11.2	6188201	81	767
2025-01-27 11:21:26.53	27.22	76.98	-32.1	-34.5	11.0	6214599	81	788
2025-01-27 11:21:26.73	26.83	76.90	-32.3	-35.0	10.6	6265563	81	817
2025-01-27 11:21:26.93	26.44	76.82	-32.4	-35.4	10.2	6277923	81	843
2025-01-27 11:21:27.13	26.05	76.74	-32.5	-35.5	10.1	6289215	81	851
2025-01-27 11:21:27.33	25.67	76.66	-32.4	-35.2	10.3	6278228	81	833
2025-01-27 11:21:27.53	25.30	76.57	-32.4	-35.2	10.3	6286773	81	828
2025-01-27 11:21:27.73	24.93	76.49	-32.4	-35.5	10.2	6289672	81	846
2025-01-27 11:21:27.93	24.56	76.41	-32.5	-35.6	10.1	6287994	81	856
2025-01-27 11:21:28.13	24.20	76.32	-32.5	-35.2	10.0	6312866	82	816
2025-01-27 11:21:28.33	23.84	76.24	-32.5	-35.1	10.1	6296386	82	811
2025-01-27 11:21:28.54	23.48	76.15	-32.4	-35.0	10.1	6314544	82	800
2025-01-27 11:21:28.74	23.13	76.06	-32.5	-35.2	10.1	6304779	82	811
2025-01-27 11:21:28.94	22.78	75.98	-32.7	-35.6	9.8	6362152	82	843
2025-01-27 11:21:29.14	22.45	75.89	-32.8	-36.1	9.4	6392059	82	875
2025-01-27 11:21:29.34	22.11	75.80	-32.8	-36.1	9.3	6365814	82	876
2025-01-27 11:21:29.54	21.78	75.72	-32.7	-35.9	9.5	6393280	82	857
2025-01-27 11:21:29.74	21.46	75.63	-32.7	-35.7	9.7	6357879	82	848
2025-01-27 11:21:29.94	21.13	75.54	-32.7	-35.8	9.6	6332550	82	853
2025-01-27 11:21:30.14	20.82	75.45	-32.8	-36.1	9.5	6341552	82	870
2025-01-27 11:21:30.34	20.50	75.36	-32.8	-36.2	9.4	6389465	82	880
2025-01-27 11:21:30.54	20.19	75.27	-32.8	-36.2	9.3	6371154	82	883
2025-01-27 11:21:30.75	19.87	75.18	-32.8	-36.0	9.5	6344299	82	872
2025-01-27 11:21:30.95	19.57	75.09	-32.6	-35.7	9.8	6327209	82	846
2025-01-27 11:21:31.15	19.27	75.00	-32.6	-35.4	10.0	6318817	82	834
2025-01-27 11:21:31.35	18.98	74.91	-32.5	-35.3	10.2	6303863	82	825
2025-01-27 11:21:31.55	18.69	74.82	-32.5	-35.2	10.3	6304931	82	817
2025-01-27 11:21:31.75	18.40	74.73	-32.6	-35.6	10.1	6300964	82	843
2025-01-27 11:21:31.95	18.12	74.64	-32.7	-36.0	9.9	6323089	82	869
2025-01-27 11:21:32.15	17.84	74.55	-32.8	-36.2	9.6	6356353	82	887
2025-01-27 11:21:32.35	17.56	74.45	-32.8	-36.2	9.6	6352386	82	887
2025-01-27 11:21:32.56	17.27	74.36	-32.6	-35.8	9.9	6328430	82	856
2025-01-27 11:21:32.76	17.00	74.26	-32.6	-35.5	10.2	6304016	82	840
2025-01-27 11:21:32.96	16.74	74.17	-32.5	-35.4	10.4	6290893	82	832
2025-01-27 11:21:33.16	16.47	74.08	-32.5	-35.2	10.6	6279907	82	824
2025-01-27 11:21:33.36	16.21	73.98	-32.5	-35.3	10.6	6263275	82	827
2025-01-27 11:21:33.56	15.96	73.89	-32.5	-35.3	10.7	6275787	82	830
2025-01-27 11:21:33.76	15.70	73.80	-32.5	-35.5	10.5	6268463	82	842
2025-01-27 11:21:33.96	15.45	73.70	-32.5	-35.5	10.5	6269531	82	844
2025-01-27 11:21:34.16	15.20	73.61	-32.6	-35.7	10.3	6290130	82	856
2025-01-27 11:21:34.36	14.96	73.52	-32.6	-35.7	10.3	6289825	82	858
2025-01-27 11:21:34.57	14.71	73.42	-32.6	-35.7	10.3	6287689	82	858
2025-01-27 11:21:34.77	14.47	73.32	-32.6	-35.8	10.1	6300201	82	860
2025-01-27 11:21:34.97	14.23	73.23	-32.6	-35.9	10.0	6303863	82	867
2025-01-27 11:21:35.17	14.00	73.13	-32.6	-35.8	10.0	6339721	82	859
2025-01-27 11:21:35.37	13.77	73.04	-32.5	-35.4	10.2	6301574	82	833
2025-01-27 11:21:35.57	13.54	72.94	-32.5	-35.4	10.2	6305389	82	835
2025-01-27 11:21:35.77	13.32	72.84	-32.6	-35.6	9.9	6302185	82	846
2025-01-27 11:21:35.97	13.09	72.75	-32.7	-35.8	9.8	6335449	82	854
2025-01-27 11:21:36.17	12.87	72.65	-32.7	-35.7	9.7	6339263	82	853
2025-01-27 11:21:36.37	12.66	72.56	-32.6	-35.5	9.9	6319580	82	836
2025-01-27 11:21:36.58	12.43	72.46	-32.5	-35.4	9.9	6314544	82	828
2025-01-27 11:21:36.78	12.22	72.36	-32.4	-35.0	10.2	6308593	82	805
2025-01-27 11:21:36.98	12.01	72.26	-32.4	-35.0	10.3	6276245	82	805
2025-01-27 11:21:37.18	11.80	72.17	-32.4	-34.9	10.4	6307525	82	798
2025-01-27 11:21:37.38	11.60	72.07	-32.4	-34.9	10.3	6281738	82	800
2025-01-27 11:21:37.58	11.40	71.97	-32.3	-34.6	10.3	6276702	82	783
2025-01-27 11:21:37.78	11.20	71.87	-32.2	-34.4	10.6	6256103	82	771
2025-01-27 11:21:37.98	11.00	71.78	-32.2	-34.5	10.4	6275634	82	776
2025-01-27 11:21:38.19	10.79	71.67	-32.3	-34.7	10.3	6280822	82	786
2025-01-27 11:21:38.39	10.60	71.58	-32.5	-35.2	9.9	6322479	82	818
2025-01-27 11:21:38.59	10.41	71.48	-32.6	-35.4	9.7	6359863	82	827
2025-01-27 11:21:38.79	10.22	71.38	-32.8	-36.0	9.4	6377563	82	864
2025-01-27 11:21:38.99	10.03	71.28	-32.7	-35.9	9.3	6421508	82	863
2025-01-27 11:21:39.19	9.85	71.19	-32.8	-36.2	9.2	6398162	82	880
2025-01-27 11:21:39.39	9.67	71.09	-32.9	-36.4	9.2	6428985	82	895
2025-01-27 11:21:39.59	9.48	70.99	-33.0	-36.3	8.9	6434173	83	873
2025-01-27 11:21:39.79	9.31	70.89	-33.0	-36.2	8.8	6439361	83	872
2025-01-27 11:21:39.99	9.13	70.79	-33.0	-36.5	8.8	6460418	83	892
2025-01-27 11:21:40.20	8.95	70.69	-33.3	-37.3	8.7	6500091	83	946

#Closed at: 2025-01-27 11:21:40