passes_logs/2025/01/21/LEX_Murmansk/LEX_Murmansk__20250121_074626_NOAA_19_rec.log

#Pass ID: 20250121_074626_NOAA 19
#Satellite: NOAA 19
#Configuration: NOAA 19
#Start time: 2025-01-21 07:46:21.295746

#LorettStation: 1.0.0 05.05.2024
#Station: LEX_Murmansk
#Location: 33.156738 lon 68.926811 lat
#TLE: 1 33591U 09005A   25020.17232911  .00000399  00000+0  23710-3 0  9996
#TLE: 2 33591  99.0187  83.9745 0014303  43.5990 316.6309 14.13263973822272

#Time	Az	El	Level	SNR
2025-01-21 07:46:33.540455	31.5	16.2	-90.8	1.1
2025-01-21 07:46:34.712399	31.6	16.3	-91.1	2.4
2025-01-21 07:46:35.868083	31.7	16.5	-91.0	3.0
2025-01-21 07:46:37.030325	31.8	16.6	-90.9	0.9
2025-01-21 07:46:38.199159	31.9	16.7	-90.9	2.4
2025-01-21 07:46:39.369524	32.0	16.8	-90.7	3.5
2025-01-21 07:46:40.534210	32.1	16.9	-90.8	0.5
2025-01-21 07:46:41.696969	32.2	17.1	-90.8	2.9
2025-01-21 07:46:42.857436	32.3	17.2	-90.7	2.0
2025-01-21 07:46:44.026650	32.4	17.3	-91.2	3.8
2025-01-21 07:46:45.190928	32.6	17.4	-90.6	1.1
2025-01-21 07:46:46.357494	32.7	17.6	-90.4	2.6
2025-01-21 07:46:47.519441	32.8	17.7	-90.6	5.7
2025-01-21 07:46:48.684591	32.9	17.8	-90.3	3.3
2025-01-21 07:46:49.846470	33.0	17.9	-90.1	2.7
2025-01-21 07:46:51.012854	33.1	18.1	-90.9	2.4
2025-01-21 07:46:52.178099	33.2	18.2	-90.6	3.0
2025-01-21 07:46:53.356436	33.3	18.3	-90.6	1.5
2025-01-21 07:46:54.518496	33.5	18.4	-90.4	0.4
2025-01-21 07:46:55.686444	33.6	18.6	-90.9	0.5
2025-01-21 07:46:56.853132	33.7	18.7	-91.1	2.6
2025-01-21 07:46:58.019974	33.8	18.8	-91.2	6.9
2025-01-21 07:46:59.185589	33.9	19.0	-91.1	5.1
2025-01-21 07:47:00.339106	34.0	19.1	-90.4	3.1
2025-01-21 07:47:01.500180	34.2	19.2	-91.3	4.7
2025-01-21 07:47:02.666271	34.3	19.3	-91.2	3.2
2025-01-21 07:47:03.829128	34.4	19.5	-91.2	5.1
2025-01-21 07:47:04.995861	34.5	19.6	-91.1	6.7
2025-01-21 07:47:06.157769	34.7	19.7	-90.9	3.9
2025-01-21 07:47:07.322529	34.8	19.9	-91.0	3.7
2025-01-21 07:47:08.487964	34.9	20.0	-91.2	3.1
2025-01-21 07:47:09.656727	35.0	20.1	-90.9	2.4
2025-01-21 07:47:10.818028	35.2	20.3	-91.0	2.4
2025-01-21 07:47:11.981839	35.3	20.4	-91.0	4.2
2025-01-21 07:47:13.144039	35.4	20.6	-91.0	1.8
2025-01-21 07:47:14.306066	35.6	20.7	-90.9	5.4
2025-01-21 07:47:15.474093	35.7	20.8	-91.3	10.0
2025-01-21 07:47:16.634198	35.8	21.0	-91.3	7.0
2025-01-21 07:47:17.793932	36.0	21.1	-90.8	5.3
2025-01-21 07:47:18.957178	36.1	21.2	-91.3	5.6
2025-01-21 07:47:20.118171	36.2	21.4	-91.1	6.2
2025-01-21 07:47:21.284991	36.4	21.5	-90.7	4.7
2025-01-21 07:47:22.446725	36.5	21.7	-90.7	5.2
2025-01-21 07:47:23.613555	36.6	21.8	-90.5	6.2
2025-01-21 07:47:24.779607	36.8	21.9	-90.3	5.4
2025-01-21 07:47:25.941852	36.9	22.1	-90.7	5.7
2025-01-21 07:47:27.098650	37.1	22.2	-90.6	4.2
2025-01-21 07:47:28.382923	37.2	22.4	-91.2	2.8
2025-01-21 07:47:29.548809	37.4	22.5	-91.2	3.5
2025-01-21 07:47:30.697928	37.5	22.7	-91.1	3.2
2025-01-21 07:47:31.855455	37.7	22.8	-91.1	6.5
2025-01-21 07:47:33.020569	37.8	23.0	-91.5	7.8
2025-01-21 07:47:34.190658	38.0	23.1	-91.2	13.3
2025-01-21 07:47:35.355577	38.1	23.3	-91.2	8.3
2025-01-21 07:47:36.525279	38.3	23.4	-91.1	7.8
2025-01-21 07:47:37.687800	38.5	23.6	-91.1	5.8
2025-01-21 07:47:38.857036	38.6	23.7	-91.4	3.6
2025-01-21 07:47:40.020692	38.8	23.9	-91.4	8.8
2025-01-21 07:47:41.187171	38.9	24.0	-91.2	8.9
2025-01-21 07:47:42.357362	39.1	24.2	-91.0	9.0
2025-01-21 07:47:43.519039	39.3	24.3	-91.0	5.9
2025-01-21 07:47:44.699379	39.4	24.5	-91.0	3.3
2025-01-21 07:47:45.864724	39.6	24.6	-91.1	3.1
2025-01-21 07:47:47.021725	39.8	24.8	-91.2	3.7
2025-01-21 07:47:48.184434	39.9	25.0	-90.9	3.4
2025-01-21 07:47:49.348768	40.1	25.1	-90.9	6.0
2025-01-21 07:47:50.514600	40.3	25.3	-91.2	7.8
2025-01-21 07:47:51.683756	40.5	25.4	-91.2	11.9
2025-01-21 07:47:52.846040	40.6	25.6	-91.2	8.1
2025-01-21 07:47:54.018426	40.8	25.7	-91.3	6.8
2025-01-21 07:47:55.179044	41.0	25.9	-91.1	4.4
2025-01-21 07:47:56.348087	41.2	26.1	-91.0	3.9
2025-01-21 07:47:57.511785	41.4	26.2	-91.1	6.9
2025-01-21 07:47:58.679728	41.6	26.4	-91.2	6.2
2025-01-21 07:47:59.839565	41.8	26.5	-91.1	7.3
2025-01-21 07:48:00.991469	41.9	26.7	-91.1	8.6
2025-01-21 07:48:02.161753	42.1	26.9	-91.2	7.3
2025-01-21 07:48:03.323413	42.3	27.0	-91.3	4.4
2025-01-21 07:48:04.491950	42.5	27.2	-91.1	3.7
2025-01-21 07:48:05.656300	42.7	27.4	-90.9	3.6
2025-01-21 07:48:06.823460	42.9	27.5	-91.1	2.6
2025-01-21 07:48:07.988603	43.1	27.7	-91.2	6.3
2025-01-21 07:48:09.146313	43.3	27.9	-91.4	4.9
2025-01-21 07:48:10.317504	43.5	28.0	-91.1	4.1
2025-01-21 07:48:11.477648	43.7	28.2	-91.2	9.1
2025-01-21 07:48:12.647057	44.0	28.4	-90.9	9.7
2025-01-21 07:48:13.813482	44.2	28.5	-90.7	4.8
2025-01-21 07:48:14.982666	44.4	28.7	-90.4	6.2
2025-01-21 07:48:16.146840	44.6	28.9	-90.6	4.9
2025-01-21 07:48:17.311992	44.8	29.1	-91.1	6.8
2025-01-21 07:48:18.475798	45.0	29.2	-91.2	9.8
2025-01-21 07:48:19.639351	45.3	29.4	-91.2	6.2
2025-01-21 07:48:20.798620	45.5	29.6	-91.3	5.5
2025-01-21 07:48:21.964085	45.7	29.7	-91.3	3.4
2025-01-21 07:48:23.132424	46.0	29.9	-91.2	3.3
2025-01-21 07:48:24.296948	46.2	30.1	-91.1	0.2
2025-01-21 07:48:25.448532	46.4	30.3	-91.4	3.7
2025-01-21 07:48:26.609516	46.7	30.4	-91.3	3.0
2025-01-21 07:48:27.764405	46.9	30.6	-91.0	3.2
2025-01-21 07:48:28.929785	47.1	30.8	-90.9	5.5
2025-01-21 07:48:30.103270	47.4	31.0	-91.1	9.3
2025-01-21 07:48:31.271432	47.6	31.2	-90.9	8.0
2025-01-21 07:48:32.436234	47.9	31.3	-90.9	10.6
2025-01-21 07:48:33.600037	48.1	31.5	-91.2	6.6
2025-01-21 07:48:34.765873	48.4	31.7	-91.1	4.5
2025-01-21 07:48:35.931966	48.7	31.9	-91.2	9.6
2025-01-21 07:48:37.097421	48.9	32.1	-91.1	11.4
2025-01-21 07:48:38.261198	49.2	32.2	-91.1	11.7
2025-01-21 07:48:39.424634	49.5	32.4	-91.2	7.9
2025-01-21 07:48:40.592375	49.7	32.6	-91.3	7.9
2025-01-21 07:48:41.755948	50.0	32.8	-91.0	6.8
2025-01-21 07:48:42.923002	50.3	33.0	-91.2	6.1
2025-01-21 07:48:44.087993	50.6	33.2	-91.4	5.6
2025-01-21 07:48:45.256828	50.9	33.3	-91.1	3.3
2025-01-21 07:48:46.417316	51.1	33.5	-90.9	5.3
2025-01-21 07:48:47.581758	51.4	33.7	-91.0	7.1
2025-01-21 07:48:48.747075	51.7	33.9	-91.2	7.6
2025-01-21 07:48:49.912444	52.0	34.1	-91.3	14.7
2025-01-21 07:48:51.077427	52.3	34.3	-91.2	17.0
2025-01-21 07:48:52.243684	52.6	34.4	-91.2	19.3
2025-01-21 07:48:53.407879	52.9	34.6	-91.3	15.9
2025-01-21 07:48:54.575739	53.2	34.8	-91.2	10.5
2025-01-21 07:48:55.737097	53.6	35.0	-91.4	7.6
2025-01-21 07:48:56.905576	53.9	35.2	-91.3	7.8
2025-01-21 07:48:58.057529	54.2	35.4	-91.0	11.8
2025-01-21 07:48:59.214278	54.5	35.6	-91.0	10.3
2025-01-21 07:49:00.374798	54.8	35.7	-91.2	13.8
2025-01-21 07:49:01.528894	55.2	35.9	-91.1	15.6
2025-01-21 07:49:02.691607	55.5	36.1	-91.1	14.5
2025-01-21 07:49:03.860619	55.8	36.3	-90.9	11.1
2025-01-21 07:49:05.022451	56.2	36.5	-91.2	11.4
2025-01-21 07:49:06.187881	56.5	36.7	-91.1	3.5
2025-01-21 07:49:07.350263	56.9	36.9	-91.1	2.2
2025-01-21 07:49:08.506393	57.2	37.0	-91.2	5.0
2025-01-21 07:49:09.672296	57.6	37.2	-91.2	5.0
2025-01-21 07:49:10.835100	58.0	37.4	-91.2	5.0
2025-01-21 07:49:12.004256	58.3	37.6	-91.2	10.5
2025-01-21 07:49:13.164509	58.7	37.8	-90.9	14.1
2025-01-21 07:49:14.329244	59.1	38.0	-90.8	18.4
2025-01-21 07:49:15.500010	59.4	38.2	-91.3	14.5
2025-01-21 07:49:16.655839	59.8	38.3	-91.4	15.6
2025-01-21 07:49:17.814124	60.2	38.5	-91.4	11.9
2025-01-21 07:49:18.980765	60.6	38.7	-91.3	11.1
2025-01-21 07:49:20.145272	61.0	38.9	-91.1	9.2
2025-01-21 07:49:21.307463	61.4	39.1	-91.0	6.8
2025-01-21 07:49:22.472432	61.8	39.2	-91.0	10.1
2025-01-21 07:49:23.637091	62.2	39.4	-91.0	12.8
2025-01-21 07:49:24.805219	62.6	39.6	-91.3	16.2
2025-01-21 07:49:25.970707	63.0	39.8	-91.3	17.5
2025-01-21 07:49:27.140712	63.5	40.0	-91.3	17.0
2025-01-21 07:49:28.299154	63.9	40.1	-91.4	15.1
2025-01-21 07:49:29.466861	64.3	40.3	-91.3	14.2
2025-01-21 07:49:30.628049	64.8	40.5	-91.3	9.9
2025-01-21 07:49:31.792429	65.2	40.7	-91.2	4.8
2025-01-21 07:49:32.953329	65.7	40.8	-90.9	7.9
2025-01-21 07:49:34.113580	66.1	41.0	-91.3	4.5
2025-01-21 07:49:35.279839	66.6	41.2	-91.5	0.8
2025-01-21 07:49:36.444915	67.0	41.4	-91.4	7.9
2025-01-21 07:49:37.599767	67.5	41.5	-91.1	5.4
2025-01-21 07:49:38.764763	68.0	41.7	-91.2	10.5
2025-01-21 07:49:39.929152	68.4	41.9	-91.4	13.0
2025-01-21 07:49:41.099962	68.9	42.0	-91.2	16.1
2025-01-21 07:49:42.263819	69.4	42.2	-91.1	16.9
2025-01-21 07:49:43.437405	69.9	42.4	-91.4	16.0
2025-01-21 07:49:44.594862	70.4	42.5	-91.2	9.8
2025-01-21 07:49:45.760130	70.9	42.7	-91.2	5.9
2025-01-21 07:49:46.921007	71.4	42.8	-91.7	9.2
2025-01-21 07:49:48.078678	71.9	43.0	-91.5	10.2
2025-01-21 07:49:49.244112	72.4	43.1	-91.4	6.6
2025-01-21 07:49:50.408344	72.9	43.3	-91.5	8.0
2025-01-21 07:49:51.574264	73.4	43.4	-91.4	8.8
2025-01-21 07:49:52.748607	74.0	43.6	-91.4	9.7
2025-01-21 07:49:53.907845	74.5	43.7	-91.3	11.6
2025-01-21 07:49:55.073367	75.0	43.9	-91.2	13.6
2025-01-21 07:49:56.245700	75.6	44.0	-91.2	10.9
2025-01-21 07:49:57.410619	76.1	44.2	-91.1	12.2
2025-01-21 07:49:58.573568	76.7	44.3	-91.1	10.0
2025-01-21 07:49:59.738426	77.2	44.4	-91.4	10.1
2025-01-21 07:50:00.888901	77.8	44.6	-91.0	7.9
2025-01-21 07:50:02.067005	78.4	44.7	-91.4	5.0
2025-01-21 07:50:03.230840	78.9	44.8	-91.4	2.1
2025-01-21 07:50:04.397654	79.5	44.9	-91.1	3.7
2025-01-21 07:50:05.563841	80.1	45.1	-91.3	3.0
2025-01-21 07:50:06.727593	80.7	45.2	-91.1	1.9
2025-01-21 07:50:07.895642	81.3	45.3	-91.4	1.7
2025-01-21 07:50:09.064402	81.9	45.4	-91.4	2.9
2025-01-21 07:50:10.225257	82.5	45.5	-91.2	3.0
2025-01-21 07:50:11.389431	83.1	45.6	-91.3	3.7
2025-01-21 07:50:12.550831	83.7	45.7	-91.2	5.8
2025-01-21 07:50:13.713592	84.3	45.8	-91.1	6.0
2025-01-21 07:50:14.877739	84.9	45.9	-91.1	6.6
2025-01-21 07:50:16.041911	85.5	46.0	-91.2	4.6
2025-01-21 07:50:17.205518	86.1	46.1	-91.4	5.8
2025-01-21 07:50:18.377624	86.7	46.2	-91.5	13.2
2025-01-21 07:50:19.541734	87.4	46.3	-91.4	11.5
2025-01-21 07:50:20.710059	88.0	46.3	-91.0	13.0
2025-01-21 07:50:21.874818	88.6	46.4	-90.9	10.6
2025-01-21 07:50:23.040065	89.3	46.5	-91.1	9.3
2025-01-21 07:50:24.195428	89.9	46.6	-90.7	7.1
2025-01-21 07:50:25.360091	90.5	46.6	-90.7	13.8
2025-01-21 07:50:26.529472	91.2	46.7	-91.2	9.2
2025-01-21 07:50:27.693748	91.8	46.7	-91.1	12.7
2025-01-21 07:50:28.857207	92.5	46.8	-91.4	11.7
2025-01-21 07:50:30.019000	93.1	46.8	-91.2	5.7
2025-01-21 07:50:31.178171	93.8	46.9	-91.1	5.7
2025-01-21 07:50:32.346149	94.4	46.9	-91.0	5.6
2025-01-21 07:50:33.509338	95.1	47.0	-91.2	7.1
2025-01-21 07:50:34.678856	95.7	47.0	-91.4	12.3
2025-01-21 07:50:35.844761	96.4	47.0	-91.5	14.2
2025-01-21 07:50:37.010935	97.0	47.1	-91.0	6.7
2025-01-21 07:50:38.166497	97.7	47.1	-91.2	5.1
2025-01-21 07:50:39.331882	98.4	47.1	-91.5	8.9
2025-01-21 07:50:40.491215	99.0	47.1	-91.2	14.0
2025-01-21 07:50:41.626081	99.7	47.1	-90.9	10.9
2025-01-21 07:50:42.789514	100.3	47.1	-91.0	15.5
2025-01-21 07:50:43.957104	101.0	47.1	-91.4	10.0
2025-01-21 07:50:45.126376	101.6	47.1	-91.3	12.4
2025-01-21 07:50:46.288032	102.3	47.1	-91.2	17.0
2025-01-21 07:50:47.455923	103.0	47.1	-91.3	6.9
2025-01-21 07:50:48.615822	103.6	47.1	-91.1	7.3
2025-01-21 07:50:49.785038	104.3	47.1	-91.5	12.3
2025-01-21 07:50:50.949480	104.9	47.1	-91.6	12.1
2025-01-21 07:50:52.117942	105.6	47.0	-91.3	4.8
2025-01-21 07:50:53.280841	106.3	47.0	-91.1	14.2
2025-01-21 07:50:54.439522	106.9	47.0	-91.4	11.3
2025-01-21 07:50:55.619956	107.6	46.9	-91.2	10.7
2025-01-21 07:50:56.785771	108.2	46.9	-91.4	15.8
2025-01-21 07:50:57.950553	108.9	46.8	-91.4	9.6
2025-01-21 07:50:59.113192	109.5	46.8	-91.1	9.8
2025-01-21 07:51:00.271189	110.2	46.7	-91.3	16.7
2025-01-21 07:51:01.431684	110.8	46.7	-91.4	11.3
2025-01-21 07:51:02.589226	111.5	46.6	-91.4	8.0
2025-01-21 07:51:03.757741	112.1	46.5	-91.1	12.7
2025-01-21 07:51:04.920874	112.7	46.5	-91.1	7.2
2025-01-21 07:51:06.087603	113.4	46.4	-91.2	4.2
2025-01-21 07:51:07.243444	114.0	46.3	-91.3	11.3
2025-01-21 07:51:08.412495	114.6	46.2	-91.4	4.5
2025-01-21 07:51:09.575895	115.2	46.2	-91.6	6.6
2025-01-21 07:51:10.738241	115.9	46.1	-91.3	8.4
2025-01-21 07:51:11.908408	116.5	46.0	-91.0	5.3
2025-01-21 07:51:13.076137	117.1	45.9	-90.9	5.0
2025-01-21 07:51:14.239113	117.7	45.8	-90.9	3.9
2025-01-21 07:51:15.394453	118.3	45.7	-90.9	3.7
2025-01-21 07:51:16.553645	118.9	45.6	-90.9	3.4
2025-01-21 07:51:17.706685	119.5	45.5	-91.5	5.2
2025-01-21 07:51:18.835983	120.1	45.4	-90.9	5.6
2025-01-21 07:51:19.956837	120.6	45.3	-91.4	4.2
2025-01-21 07:51:21.077962	121.2	45.1	-91.2	8.5
2025-01-21 07:51:22.198551	121.8	45.0	-91.2	11.1
2025-01-21 07:51:23.319051	122.3	44.9	-91.0	12.5
2025-01-21 07:51:24.439494	122.9	44.8	-91.1	6.7
2025-01-21 07:51:25.560502	123.4	44.7	-91.5	5.7
2025-01-21 07:51:26.680868	124.0	44.6	-91.1	9.3
2025-01-21 07:51:27.824976	124.5	44.4	-91.2	11.4
2025-01-21 07:51:28.983904	125.1	44.3	-91.0	8.7
2025-01-21 07:51:30.146831	125.6	44.2	-91.0	13.8
2025-01-21 07:51:31.312129	126.2	44.0	-90.8	14.2
2025-01-21 07:51:32.478056	126.7	43.9	-91.2	6.6
2025-01-21 07:51:33.658106	127.3	43.7	-91.2	12.4
2025-01-21 07:51:34.823725	127.8	43.6	-91.1	10.8
2025-01-21 07:51:35.989660	128.3	43.4	-91.1	7.0
2025-01-21 07:51:37.154505	128.8	43.3	-91.2	12.5
2025-01-21 07:51:38.313638	129.4	43.1	-91.1	12.1
2025-01-21 07:51:39.475128	129.9	43.0	-91.3	7.1
2025-01-21 07:51:40.640055	130.4	42.8	-91.5	12.4
2025-01-21 07:51:41.790971	130.9	42.7	-90.8	13.2
2025-01-21 07:51:42.955397	131.4	42.5	-91.0	9.1
2025-01-21 07:51:44.124260	131.9	42.4	-90.8	9.0
2025-01-21 07:51:45.287568	132.4	42.2	-91.0	15.6
2025-01-21 07:51:46.457122	132.8	42.0	-90.8	9.6
2025-01-21 07:51:47.619529	133.3	41.9	-91.3	10.4
2025-01-21 07:51:48.778818	133.8	41.7	-91.0	14.2
2025-01-21 07:51:49.933196	134.3	41.5	-91.1	10.4
2025-01-21 07:51:51.095872	134.7	41.4	-90.8	12.3
2025-01-21 07:51:52.259224	135.2	41.2	-90.7	14.8
2025-01-21 07:51:53.421285	135.6	41.0	-90.8	14.9
2025-01-21 07:51:54.586669	136.1	40.8	-90.9	15.3
2025-01-21 07:51:55.748335	136.5	40.7	-91.1	16.1
2025-01-21 07:51:56.915772	137.0	40.5	-91.2	15.5
2025-01-21 07:51:58.081217	137.4	40.3	-91.0	15.9
2025-01-21 07:51:59.239428	137.8	40.1	-91.3	15.6
2025-01-21 07:52:00.404841	138.3	40.0	-91.0	15.6
2025-01-21 07:52:01.562068	138.7	39.8	-90.9	14.7
2025-01-21 07:52:02.722525	139.1	39.6	-91.2	14.0
2025-01-21 07:52:03.886635	139.5	39.4	-90.8	12.0
2025-01-21 07:52:05.056808	139.9	39.2	-90.8	10.5
2025-01-21 07:52:06.221485	140.3	39.1	-91.0	14.1
2025-01-21 07:52:07.389866	140.7	38.9	-91.2	10.3
2025-01-21 07:52:08.554957	141.1	38.7	-91.4	9.4
2025-01-21 07:52:09.716090	141.5	38.5	-90.7	12.0
2025-01-21 07:52:10.883505	141.9	38.3	-91.2	9.0
2025-01-21 07:52:12.045585	142.3	38.1	-91.2	7.6
2025-01-21 07:52:13.211646	142.7	38.0	-91.1	12.5
2025-01-21 07:52:14.376771	143.1	37.8	-91.4	7.8
2025-01-21 07:52:15.544692	143.4	37.6	-91.1	6.2
2025-01-21 07:52:16.705633	143.8	37.4	-91.5	14.3
2025-01-21 07:52:17.870427	144.2	37.2	-91.0	11.7
2025-01-21 07:52:19.027920	144.5	37.0	-91.2	9.1
2025-01-21 07:52:20.187683	144.9	36.9	-91.3	15.3
2025-01-21 07:52:21.356084	145.2	36.7	-91.4	14.2
2025-01-21 07:52:22.521649	145.6	36.5	-91.0	8.4
2025-01-21 07:52:23.689447	145.9	36.3	-91.4	13.1
2025-01-21 07:52:24.850992	146.2	36.1	-91.4	13.3
2025-01-21 07:52:26.015786	146.6	35.9	-91.2	10.6
2025-01-21 07:52:27.184573	146.9	35.7	-91.3	14.3
2025-01-21 07:52:28.343011	147.2	35.5	-90.5	12.6
2025-01-21 07:52:29.505875	147.6	35.4	-91.3	10.2
2025-01-21 07:52:30.670298	147.9	35.2	-91.7	10.7
2025-01-21 07:52:31.834216	148.2	35.0	-91.6	12.4
2025-01-21 07:52:32.992147	148.5	34.8	-91.0	10.0
2025-01-21 07:52:34.161536	148.8	34.6	-91.3	11.7
2025-01-21 07:52:35.328130	149.1	34.4	-91.4	11.2
2025-01-21 07:52:36.491142	149.4	34.2	-91.4	9.7
2025-01-21 07:52:37.658126	149.7	34.1	-91.3	9.0
2025-01-21 07:52:38.825688	150.0	33.9	-91.5	8.1
2025-01-21 07:52:39.985634	150.3	33.7	-91.3	5.2
2025-01-21 07:52:41.149384	150.6	33.5	-91.3	6.3
2025-01-21 07:52:42.326757	150.9	33.3	-91.3	10.7
2025-01-21 07:52:43.494980	151.2	33.1	-91.2	5.4
2025-01-21 07:52:44.659548	151.5	33.0	-91.7	10.3
2025-01-21 07:52:45.826304	151.7	32.8	-91.7	7.0
2025-01-21 07:52:46.975147	152.0	32.6	-91.1	2.7
2025-01-21 07:52:48.143356	152.3	32.4	-91.2	4.9
2025-01-21 07:52:49.301490	152.5	32.2	-91.4	8.6
2025-01-21 07:52:50.471693	152.8	32.0	-91.6	6.2
2025-01-21 07:52:51.636353	153.1	31.9	-91.5	9.8
2025-01-21 07:52:52.802686	153.3	31.7	-91.2	9.9
2025-01-21 07:52:53.968234	153.6	31.5	-91.2	9.4
2025-01-21 07:52:55.138509	153.9	31.3	-91.5	7.3
2025-01-21 07:52:56.298427	154.1	31.1	-91.6	5.6
2025-01-21 07:52:57.458540	154.3	31.0	-91.6	4.5
2025-01-21 07:52:58.620538	154.6	30.8	-91.3	6.1
2025-01-21 07:52:59.786176	154.8	30.6	-91.5	8.6
2025-01-21 07:53:00.947547	155.1	30.4	-91.3	7.2
2025-01-21 07:53:02.106825	155.3	30.3	-91.4	8.6
2025-01-21 07:53:03.267724	155.6	30.1	-91.5	12.4
2025-01-21 07:53:04.436271	155.8	29.9	-91.3	4.7
2025-01-21 07:53:05.594151	156.0	29.7	-91.4	5.6
2025-01-21 07:53:06.755617	156.2	29.6	-91.5	11.0
2025-01-21 07:53:07.919178	156.5	29.4	-91.1	3.5
2025-01-21 07:53:09.079150	156.7	29.2	-91.1	4.6
2025-01-21 07:53:10.240237	156.9	29.0	-91.5	10.4
2025-01-21 07:53:11.402782	157.1	28.9	-91.6	8.6
2025-01-21 07:53:12.567316	157.3	28.7	-91.7	9.9
2025-01-21 07:53:13.738771	157.6	28.5	-91.5	12.7
2025-01-21 07:53:14.902866	157.8	28.4	-91.4	10.5
2025-01-21 07:53:16.070749	158.0	28.2	-91.2	9.1
2025-01-21 07:53:17.233033	158.2	28.0	-91.2	8.9
2025-01-21 07:53:18.392268	158.4	27.9	-91.3	11.4
2025-01-21 07:53:19.553986	158.6	27.7	-91.2	9.7
2025-01-21 07:53:20.714409	158.8	27.5	-91.4	8.2
2025-01-21 07:53:21.885789	159.0	27.4	-91.0	6.5
2025-01-21 07:53:23.048385	159.2	27.2	-91.1	5.2
2025-01-21 07:53:24.211765	159.4	27.0	-90.9	7.9
2025-01-21 07:53:25.381604	159.6	26.9	-90.7	7.9
2025-01-21 07:53:26.546473	159.8	26.7	-90.7	4.2
2025-01-21 07:53:27.710047	160.0	26.5	-91.0	7.1
2025-01-21 07:53:28.868737	160.2	26.4	-91.5	9.6
2025-01-21 07:53:30.031528	160.3	26.2	-91.5	8.0
2025-01-21 07:53:31.193560	160.5	26.1	-91.3	13.3
2025-01-21 07:53:32.356204	160.7	25.9	-91.4	11.8
2025-01-21 07:53:33.524517	160.9	25.7	-91.5	9.6
2025-01-21 07:53:34.690662	161.1	25.6	-91.3	9.7
2025-01-21 07:53:35.858829	161.3	25.4	-91.7	8.8
2025-01-21 07:53:37.020231	161.4	25.3	-91.2	7.8
2025-01-21 07:53:38.185164	161.6	25.1	-91.3	7.3
2025-01-21 07:53:39.342768	161.8	24.9	-91.2	8.0
2025-01-21 07:53:40.516136	161.9	24.8	-91.3	4.9
2025-01-21 07:53:41.681730	162.1	24.6	-91.1	7.7
2025-01-21 07:53:42.846642	162.3	24.5	-91.0	7.7
2025-01-21 07:53:44.012507	162.5	24.3	-90.9	3.7
2025-01-21 07:53:45.183801	162.6	24.2	-91.1	8.4
2025-01-21 07:53:46.347251	162.8	24.0	-91.3	8.8
2025-01-21 07:53:47.509653	162.9	23.9	-91.5	6.1
2025-01-21 07:53:48.664969	163.1	23.7	-91.2	9.1
2025-01-21 07:53:49.825343	163.3	23.6	-91.3	9.3
2025-01-21 07:53:50.994160	163.4	23.4	-91.2	9.2
2025-01-21 07:53:52.158623	163.6	23.3	-91.0	7.9
2025-01-21 07:53:53.328008	163.7	23.1	-91.2	8.6
2025-01-21 07:53:54.493501	163.9	23.0	-91.4	4.0
2025-01-21 07:53:55.658186	164.0	22.8	-91.2	5.4
2025-01-21 07:53:56.825135	164.2	22.7	-91.6	5.1
2025-01-21 07:53:57.981308	164.3	22.5	-91.3	2.3
2025-01-21 07:53:59.137897	164.5	22.4	-91.5	3.0
2025-01-21 07:54:00.295642	164.6	22.2	-91.4	5.7
2025-01-21 07:54:01.460463	164.8	22.1	-91.4	3.2
2025-01-21 07:54:02.627587	164.9	22.0	-91.2	4.0
2025-01-21 07:54:03.790879	165.1	21.8	-91.1	5.8
2025-01-21 07:54:04.958135	165.2	21.7	-91.1	4.4
2025-01-21 07:54:06.121809	165.3	21.5	-91.3	5.6
2025-01-21 07:54:07.288901	165.5	21.4	-91.5	6.3
2025-01-21 07:54:08.450171	165.6	21.2	-91.4	4.0
2025-01-21 07:54:09.605315	165.7	21.1	-91.6	6.2
2025-01-21 07:54:10.770546	165.9	21.0	-91.4	1.7
2025-01-21 07:54:11.936258	166.0	20.8	-91.4	2.2
2025-01-21 07:54:13.098048	166.1	20.7	-91.4	2.5
2025-01-21 07:54:14.259957	166.3	20.6	-91.2	3.2
2025-01-21 07:54:15.426310	166.4	20.4	-91.2	2.2
2025-01-21 07:54:16.590198	166.5	20.3	-91.3	1.9
2025-01-21 07:54:17.756667	166.7	20.1	-91.4	7.4
2025-01-21 07:54:18.917508	166.8	20.0	-91.2	4.0
2025-01-21 07:54:20.084204	166.9	19.9	-91.2	2.7
2025-01-21 07:54:21.239626	167.0	19.7	-91.1	6.1
2025-01-21 07:54:22.402043	167.2	19.6	-91.2	3.6
2025-01-21 07:54:23.562308	167.3	19.5	-91.2	6.1
2025-01-21 07:54:24.727583	167.4	19.3	-91.4	7.2
2025-01-21 07:54:25.897494	167.5	19.2	-91.5	6.8
2025-01-21 07:54:27.061201	167.7	19.1	-91.4	5.4
2025-01-21 07:54:28.223860	167.8	19.0	-91.6	8.2
2025-01-21 07:54:29.378220	167.9	18.8	-91.0	4.0
2025-01-21 07:54:30.542569	168.0	18.7	-91.3	1.8
2025-01-21 07:54:31.704295	168.1	18.6	-91.5	2.5
2025-01-21 07:54:32.868560	168.2	18.4	-91.6	2.0
2025-01-21 07:54:34.034010	168.4	18.3	-91.5	1.3
2025-01-21 07:54:35.200019	168.5	18.2	-91.4	1.9
2025-01-21 07:54:36.365502	168.6	18.1	-91.0	1.9
2025-01-21 07:54:37.530404	168.7	17.9	-91.6	2.9
2025-01-21 07:54:38.694490	168.8	17.8	-91.6	1.8
2025-01-21 07:54:39.855397	168.9	17.7	-91.3	2.2
2025-01-21 07:54:41.020048	169.0	17.6	-91.4	3.2
2025-01-21 07:54:42.185752	169.1	17.4	-91.2	3.5
2025-01-21 07:54:43.359114	169.2	17.3	-91.3	3.1
2025-01-21 07:54:44.525576	169.3	17.2	-91.6	3.1
2025-01-21 07:54:45.686128	169.4	17.1	-91.3	2.6
2025-01-21 07:54:46.848573	169.6	16.9	-91.5	0.9
2025-01-21 07:54:48.008954	169.7	16.8	-91.5	3.1
2025-01-21 07:54:49.171119	169.8	16.7	-91.5	3.4
2025-01-21 07:54:50.335705	169.9	16.6	-91.0	2.1
2025-01-21 07:54:51.503914	170.0	16.5	-91.5	3.5
2025-01-21 07:54:52.665779	170.1	16.3	-91.5	2.4
2025-01-21 07:54:53.822669	170.2	16.2	-91.6	2.9
2025-01-21 07:54:54.990066	170.3	16.1	-91.4	2.5
2025-01-21 07:54:56.151165	170.4	16.0	-91.3	1.8
2025-01-21 07:54:57.319099	170.5	15.9	-91.2	0.4
2025-01-21 07:54:58.478936	170.6	15.8	-91.4	2.2
2025-01-21 07:54:59.642295	170.7	15.6	-91.6	2.0
2025-01-21 07:55:00.803293	170.7	15.5	-91.7	2.7
2025-01-21 07:55:01.958686	170.8	15.4	-91.7	2.5
2025-01-21 07:55:03.115574	170.9	15.3	-91.3	1.6
2025-01-21 07:55:04.289569	171.0	15.2	-91.2	3.0
2025-01-21 07:55:05.455255	171.1	15.1	-91.4	2.3
2025-01-21 07:55:06.613066	171.2	14.9	-89.7	5.2
2025-01-21 07:55:07.782622	171.3	14.8	-89.7	4.2
2025-01-21 07:55:08.942261	171.4	14.7	-89.9	3.0
2025-01-21 07:55:10.102638	171.5	14.6	-91.7	5.5
2025-01-21 07:55:11.316449	171.6	14.5	-91.7	5.5
#Closed at: 2025-01-21 07:46:26.334521