passes_logs/2025/01/21/LEX_Murmansk/LEX_Murmansk__20250121_195110_NOAA_18_rec.log

#Pass ID: 20250121_195110_NOAA 18
#Satellite: NOAA 18
#Configuration: NOAA 18
#Start time: 2025-01-21 19:51:05.771644

#LorettStation: 1.0.0 05.05.2024
#Station: LEX_Murmansk
#Location: 33.156738 lon 68.926811 lat
#TLE: 1 28654U 05018A   25021.17963601  .00000484  00000+0  28040-3 0  9994
#TLE: 2 28654  98.8557 102.1724 0014626 162.0619 198.1073 14.13492794 14053

#Time	Az	El	Level	SNR
2025-01-21 19:51:17.907034	183.2	16.2	-92.1	4.0
2025-01-21 19:51:20.227097	183.4	16.5	-91.6	6.5
2025-01-21 19:51:22.544633	183.5	16.7	-92.0	3.3
2025-01-21 19:51:24.886300	183.7	17.0	-92.2	4.4
2025-01-21 19:51:27.212024	183.9	17.2	-91.1	4.2
2025-01-21 19:51:29.543728	184.1	17.5	-91.8	7.2
2025-01-21 19:51:31.863454	184.2	17.7	-92.2	8.2
2025-01-21 19:51:34.196576	184.4	18.0	-91.6	6.2
2025-01-21 19:51:36.512761	184.6	18.3	-91.8	5.9
2025-01-21 19:51:38.838503	184.8	18.5	-92.1	7.3
2025-01-21 19:51:41.166423	185.0	18.8	-91.7	4.9
2025-01-21 19:51:43.491613	185.2	19.1	-92.3	9.5
2025-01-21 19:51:45.817377	185.4	19.3	-91.9	10.0
2025-01-21 19:51:48.141532	185.6	19.6	-91.3	9.0
2025-01-21 19:51:50.460441	185.8	19.9	-92.0	10.3
2025-01-21 19:51:52.783414	186.0	20.2	-91.1	9.3
2025-01-21 19:51:55.116831	186.2	20.4	-91.5	4.2
2025-01-21 19:51:57.438549	186.4	20.7	-92.2	5.3
2025-01-21 19:51:59.763105	186.6	21.0	-92.1	5.9
2025-01-21 19:52:02.077325	186.8	21.3	-91.8	7.7
2025-01-21 19:52:04.405861	187.1	21.6	-91.8	6.0
2025-01-21 19:52:06.731485	187.3	21.9	-92.4	13.7
2025-01-21 19:52:09.049427	187.5	22.2	-91.8	11.8
2025-01-21 19:52:11.382731	187.8	22.5	-91.9	8.7
2025-01-21 19:52:13.705050	188.0	22.8	-92.4	10.3
2025-01-21 19:52:16.029053	188.3	23.1	-92.0	8.7
2025-01-21 19:52:18.350771	188.5	23.4	-91.6	12.3
2025-01-21 19:52:20.686606	188.8	23.7	-91.8	11.6
2025-01-21 19:52:23.020270	189.0	24.0	-92.1	9.9
2025-01-21 19:52:25.341866	189.3	24.4	-91.6	8.2
2025-01-21 19:52:27.658491	189.6	24.7	-91.7	10.7
2025-01-21 19:52:29.978015	189.9	25.0	-92.7	7.4
2025-01-21 19:52:32.296140	190.1	25.3	-91.8	9.7
2025-01-21 19:52:34.622168	190.4	25.7	-92.5	9.4
2025-01-21 19:52:36.938042	190.7	26.0	-92.3	11.3
2025-01-21 19:52:39.262158	191.0	26.4	-91.5	10.4
2025-01-21 19:52:41.580514	191.3	26.7	-92.2	7.1
2025-01-21 19:52:43.905637	191.6	27.1	-92.4	10.4
2025-01-21 19:52:46.228404	192.0	27.4	-91.9	8.1
2025-01-21 19:52:48.549849	192.3	27.8	-92.4	4.4
2025-01-21 19:52:50.875930	192.6	28.1	-92.4	7.6
2025-01-21 19:52:53.202389	193.0	28.5	-91.8	10.4
2025-01-21 19:52:55.535802	193.3	28.8	-91.9	12.1
2025-01-21 19:52:57.865459	193.7	29.2	-92.6	7.5
2025-01-21 19:53:00.192199	194.1	29.6	-92.4	6.1
2025-01-21 19:53:02.509826	194.4	30.0	-91.9	6.2
2025-01-21 19:53:04.838582	194.8	30.3	-91.8	9.5
2025-01-21 19:53:07.154235	195.2	30.7	-91.8	7.4
2025-01-21 19:53:09.477853	195.6	31.1	-92.1	4.8
2025-01-21 19:53:11.807673	196.0	31.5	-92.2	7.1
2025-01-21 19:53:14.138913	196.4	31.9	-91.3	9.1
2025-01-21 19:53:16.470931	196.9	32.3	-92.5	5.1
2025-01-21 19:53:18.795875	197.3	32.7	-91.9	12.9
2025-01-21 19:53:21.121157	197.8	33.1	-92.0	10.0
2025-01-21 19:53:23.447418	198.2	33.5	-92.6	6.1
2025-01-21 19:53:25.766350	198.7	33.9	-92.1	8.9
2025-01-21 19:53:28.086209	199.2	34.4	-92.4	6.4
2025-01-21 19:53:30.412905	199.7	34.8	-91.8	10.3
2025-01-21 19:53:32.737101	200.2	35.2	-91.7	7.4
2025-01-21 19:53:35.064947	200.7	35.6	-92.1	4.6
2025-01-21 19:53:37.387484	201.3	36.0	-92.3	10.7
2025-01-21 19:53:39.710489	201.8	36.5	-92.3	19.6
2025-01-21 19:53:42.042000	202.4	36.9	-92.2	16.5
2025-01-21 19:53:44.367483	203.0	37.4	-92.4	9.7
2025-01-21 19:53:46.693898	203.6	37.8	-92.5	13.2
2025-01-21 19:53:49.017341	204.2	38.2	-92.5	9.0
2025-01-21 19:53:51.333445	204.8	38.7	-91.6	9.9
2025-01-21 19:53:53.663536	205.5	39.1	-92.5	12.8
2025-01-21 19:53:55.985906	206.1	39.6	-92.3	14.8
2025-01-21 19:53:58.311623	206.8	40.0	-92.1	14.4
2025-01-21 19:54:00.635061	207.5	40.5	-89.6	12.3
2025-01-21 19:54:02.960410	208.2	40.9	-90.1	14.9
2025-01-21 19:54:05.285774	209.0	41.4	-91.7	14.9
2025-01-21 19:54:07.607067	209.7	41.8	-88.2	7.9
2025-01-21 19:54:10.743456	210.8	42.4	-88.7	10.7
2025-01-21 19:54:13.071335	211.6	42.9	-92.3	8.0
2025-01-21 19:54:15.395937	212.4	43.3	-87.5	10.8
2025-01-21 19:54:17.713995	213.3	43.8	-87.9	12.0
2025-01-21 19:54:20.040140	214.2	44.2	-92.5	10.8
2025-01-21 19:54:22.367761	215.1	44.7	-92.2	8.8
2025-01-21 19:54:24.692600	216.0	45.1	-92.9	12.8
2025-01-21 19:54:27.035025	217.0	45.5	-91.9	9.9
2025-01-21 19:54:29.362065	218.0	46.0	-92.1	7.2
2025-01-21 19:54:31.690500	219.0	46.4	-92.8	15.2
2025-01-21 19:54:34.010825	220.0	46.8	-92.7	8.0
2025-01-21 19:54:36.338950	221.1	47.2	-92.1	7.6
2025-01-21 19:54:38.666991	222.2	47.6	-92.5	13.2
2025-01-21 19:54:40.996402	223.3	48.1	-92.4	14.9
2025-01-21 19:54:43.315678	224.5	48.4	-91.9	15.1
2025-01-21 19:54:45.645979	225.7	48.8	-92.6	19.9
2025-01-21 19:54:47.961611	226.9	49.2	-92.4	18.0
2025-01-21 19:54:50.295549	228.1	49.6	-91.9	17.2
2025-01-21 19:54:52.618282	229.4	49.9	-92.4	15.7
2025-01-21 19:54:54.941196	230.7	50.3	-92.4	9.0
2025-01-21 19:54:57.263377	232.0	50.6	-91.9	16.5
2025-01-21 19:54:59.601165	233.4	50.9	-92.5	10.1
2025-01-21 19:55:01.925660	234.8	51.2	-92.6	12.8
2025-01-21 19:55:04.254095	236.2	51.5	-92.0	12.1
2025-01-21 19:55:06.586214	237.6	51.7	-92.8	7.4
2025-01-21 19:55:08.907475	239.1	52.0	-92.8	8.0
2025-01-21 19:55:11.232017	240.5	52.2	-92.1	16.6
2025-01-21 19:55:13.556758	242.0	52.4	-92.5	7.7
2025-01-21 19:55:15.880392	243.6	52.6	-92.3	12.1
2025-01-21 19:55:18.204675	245.1	52.8	-91.7	7.2
2025-01-21 19:55:20.543048	246.7	52.9	-92.2	14.8
2025-01-21 19:55:22.872583	248.3	53.1	-92.3	8.4
2025-01-21 19:55:25.199272	249.9	53.2	-91.7	12.5
2025-01-21 19:55:27.519210	251.5	53.3	-92.7	6.8
2025-01-21 19:55:29.841166	253.1	53.3	-92.1	14.9
2025-01-21 19:55:32.163114	254.7	53.4	-92.3	10.6
2025-01-21 19:55:34.490678	256.3	53.4	-93.0	14.0
2025-01-21 19:55:36.820549	257.9	53.4	-92.1	13.9
2025-01-21 19:55:39.146878	259.5	53.3	-91.7	18.4
2025-01-21 19:55:41.472528	261.1	53.3	-91.9	15.0
2025-01-21 19:55:43.797486	262.7	53.2	-92.6	21.7
2025-01-21 19:55:46.125735	264.3	53.1	-92.1	14.3
2025-01-21 19:55:48.445822	265.9	53.0	-91.0	14.9
2025-01-21 19:55:50.766785	267.5	52.9	-91.7	24.9
2025-01-21 19:55:53.097667	269.0	52.7	-92.0	19.7
2025-01-21 19:55:55.417818	270.6	52.5	-91.5	14.2
2025-01-21 19:55:57.739929	272.1	52.3	-92.6	17.1
2025-01-21 19:56:00.054557	273.6	52.1	-91.8	14.9
2025-01-21 19:56:02.301621	275.0	51.9	-92.2	19.7
2025-01-21 19:56:04.543332	276.4	51.6	-92.5	8.8
2025-01-21 19:56:06.785345	277.8	51.4	-92.6	13.5
2025-01-21 19:56:09.027121	279.1	51.1	-92.5	13.6
2025-01-21 19:56:11.306087	280.5	50.8	-91.7	16.6
2025-01-21 19:56:13.637030	281.8	50.5	-92.2	13.4
2025-01-21 19:56:15.945326	283.1	50.1	-92.4	18.8
2025-01-21 19:56:18.269670	284.4	49.8	-91.7	8.2
2025-01-21 19:56:20.606326	285.7	49.4	-91.5	16.1
2025-01-21 19:56:22.936713	286.9	49.1	-92.1	8.7
2025-01-21 19:56:25.270636	288.1	48.7	-92.1	15.2
2025-01-21 19:56:27.586872	289.3	48.3	-92.3	9.1
2025-01-21 19:56:29.907118	290.4	47.9	-92.6	6.0
2025-01-21 19:56:32.235290	291.5	47.5	-92.1	10.1
2025-01-21 19:56:34.557736	292.6	47.1	-91.9	9.4
2025-01-21 19:56:36.883883	293.7	46.7	-92.1	9.5
2025-01-21 19:56:39.213849	294.7	46.3	-91.8	17.6
2025-01-21 19:56:41.541811	295.7	45.8	-92.3	9.2
2025-01-21 19:56:43.865849	296.7	45.4	-92.5	9.2
2025-01-21 19:56:46.183059	297.7	45.0	-91.9	15.1
2025-01-21 19:56:48.500758	298.6	44.5	-92.3	8.7
2025-01-21 19:56:50.822955	299.5	44.1	-92.0	8.1
2025-01-21 19:56:53.144469	300.4	43.6	-91.8	9.1
2025-01-21 19:56:55.474201	301.2	43.2	-92.2	11.2
2025-01-21 19:56:57.794245	302.0	42.7	-92.3	18.3
2025-01-21 19:57:00.115872	302.8	42.3	-92.0	20.5
2025-01-21 19:57:02.435290	303.6	41.8	-92.5	14.9
2025-01-21 19:57:04.762888	304.4	41.4	-92.6	13.9
2025-01-21 19:57:07.080766	305.1	40.9	-92.5	17.5
2025-01-21 19:57:09.410819	305.9	40.5	-92.3	13.8
2025-01-21 19:57:11.739251	306.6	40.0	-92.9	15.7
2025-01-21 19:57:14.078373	307.3	39.6	-92.5	9.6
2025-01-21 19:57:16.400889	307.9	39.1	-92.1	9.7
2025-01-21 19:57:18.721199	308.6	38.7	-92.2	9.3
2025-01-21 19:57:21.051777	309.2	38.3	-92.6	11.8
2025-01-21 19:57:23.371116	309.8	37.8	-92.5	11.2
2025-01-21 19:57:25.698562	310.4	37.4	-92.6	20.1
2025-01-21 19:57:28.023795	311.0	36.9	-88.7	8.2
2025-01-21 19:57:30.343628	311.6	36.5	-91.7	16.9
2025-01-21 19:57:32.665487	312.1	36.1	-92.2	11.8
2025-01-21 19:57:34.994845	312.7	35.6	-92.0	10.8
2025-01-21 19:57:37.319277	313.2	35.2	-92.0	14.6
2025-01-21 19:57:39.645510	313.7	34.8	-92.5	14.6
2025-01-21 19:57:41.969995	314.2	34.4	-92.2	8.2
2025-01-21 19:57:44.287205	314.7	34.0	-91.5	14.3
2025-01-21 19:57:46.611093	315.2	33.5	-92.6	16.1
2025-01-21 19:57:48.934501	315.6	33.1	-92.4	17.6
2025-01-21 19:57:51.260923	316.1	32.7	-92.1	16.8
2025-01-21 19:57:53.588107	316.5	32.3	-92.4	13.8
2025-01-21 19:57:55.908572	317.0	31.9	-92.4	13.3
2025-01-21 19:57:58.233328	317.4	31.5	-92.6	14.4
2025-01-21 19:58:00.552964	317.8	31.1	-92.6	8.2
2025-01-21 19:58:02.876316	318.2	30.8	-92.4	10.7
2025-01-21 19:58:05.202159	318.6	30.4	-91.9	12.4
2025-01-21 19:58:07.536180	319.0	30.0	-92.3	12.3
2025-01-21 19:58:09.862007	319.4	29.6	-92.7	12.2
2025-01-21 19:58:12.188099	319.7	29.2	-92.2	14.5
2025-01-21 19:58:14.509372	320.1	28.9	-92.1	7.3
2025-01-21 19:58:16.838081	320.4	28.5	-92.5	10.8
2025-01-21 19:58:19.162476	320.8	28.1	-92.3	12.4
2025-01-21 19:58:21.483743	321.1	27.8	-92.4	7.8
2025-01-21 19:58:23.801841	321.4	27.4	-92.4	12.8
2025-01-21 19:58:26.120579	321.8	27.1	-91.9	13.4
2025-01-21 19:58:28.445679	322.1	26.7	-91.7	12.9
2025-01-21 19:58:30.773541	322.4	26.4	-92.5	13.8
2025-01-21 19:58:33.094363	322.7	26.0	-91.7	9.6
2025-01-21 19:58:35.413804	323.0	25.7	-92.1	4.8
2025-01-21 19:58:37.737104	323.3	25.4	-92.5	13.0
2025-01-21 19:58:40.056896	323.6	25.0	-91.8	7.2
2025-01-21 19:58:42.381443	323.8	24.7	-91.7	11.7
2025-01-21 19:58:44.706581	324.1	24.4	-92.3	18.0
2025-01-21 19:58:47.033777	324.4	24.1	-92.3	11.7
2025-01-21 19:58:49.356309	324.6	23.7	-91.7	11.1
2025-01-21 19:58:51.684597	324.9	23.4	-92.3	10.1
2025-01-21 19:58:53.990366	325.2	23.1	-92.4	7.1
2025-01-21 19:58:56.312203	325.4	22.8	-91.6	10.4
2025-01-21 19:58:58.640439	325.7	22.5	-91.1	12.6
2025-01-21 19:59:00.962144	325.9	22.2	-91.5	7.9
2025-01-21 19:59:03.290558	326.1	21.9	-90.4	10.3
2025-01-21 19:59:05.610950	326.4	21.6	-90.9	7.6
2025-01-21 19:59:07.940919	326.6	21.3	-89.5	4.2
2025-01-21 19:59:10.262048	326.8	21.0	-91.2	4.2
2025-01-21 19:59:12.584745	327.0	20.7	-92.5	5.6
2025-01-21 19:59:14.906481	327.2	20.5	-92.3	3.9
2025-01-21 19:59:17.229963	327.5	20.2	-91.9	5.4
2025-01-21 19:59:19.562391	327.7	19.9	-91.9	3.8
2025-01-21 19:59:21.885345	327.9	19.6	-91.5	4.0
2025-01-21 19:59:24.223479	328.1	19.3	-91.4	8.0
2025-01-21 19:59:26.546866	328.3	19.1	-91.5	5.3
2025-01-21 19:59:28.876811	328.5	18.8	-92.4	5.4
2025-01-21 19:59:31.211262	328.7	18.5	-91.5	6.2
2025-01-21 19:59:33.543783	328.8	18.3	-92.0	6.9
2025-01-21 19:59:35.872243	329.0	18.0	-92.5	4.7
2025-01-21 19:59:38.198539	329.2	17.8	-91.6	12.7
2025-01-21 19:59:40.524347	329.4	17.5	-92.5	4.3
2025-01-21 19:59:42.875309	329.6	17.2	-92.4	5.0
2025-01-21 19:59:45.200806	329.8	17.0	-91.7	5.7
2025-01-21 19:59:47.526822	329.9	16.7	-92.5	4.6
2025-01-21 19:59:49.850233	330.1	16.5	-91.8	6.0
2025-01-21 19:59:52.174232	330.3	16.3	-91.8	5.3
2025-01-21 19:59:54.497195	330.4	16.0	-92.1	4.6
2025-01-21 19:59:56.827176	330.6	15.8	-92.3	5.8
2025-01-21 19:59:59.147083	330.7	15.5	-91.9	5.4
2025-01-21 20:00:01.467045	330.9	15.3	-92.5	5.7
2025-01-21 20:00:03.795971	331.1	15.1	-92.1	7.1
2025-01-21 20:00:06.128249	331.2	14.8	-91.3	5.4
2025-01-21 20:00:08.451948	331.4	14.6	-92.0	4.8
#Closed at: 2025-01-21 19:51:10.715908