passes_logs/2025/01/21/LEX_Murmansk/LEX_Murmansk__20250121_163057_NOAA_18_rec.log

#Pass ID: 20250121_163057_NOAA 18
#Satellite: NOAA 18
#Configuration: NOAA 18
#Start time: 2025-01-21 16:30:52.069693

#LorettStation: 1.0.0 05.05.2024
#Station: LEX_Murmansk
#Location: 33.156738 lon 68.926811 lat
#TLE: 1 28654U 05018A   25021.17963601  .00000484  00000+0  28040-3 0  9994
#TLE: 2 28654  98.8557 102.1724 0014626 162.0619 198.1073 14.13492794 14053

#Time	Az	El	Level	SNR
2025-01-21 16:31:04.249211	83.7	16.1	-89.9	6.7
2025-01-21 16:31:05.412485	83.5	16.2	-90.2	6.3
2025-01-21 16:31:06.572992	83.4	16.3	-89.8	6.2
2025-01-21 16:31:07.732679	83.2	16.4	-89.9	6.5
2025-01-21 16:31:08.897536	83.1	16.5	-90.0	5.9
2025-01-21 16:31:10.060678	82.9	16.6	-88.9	4.7
2025-01-21 16:31:11.227038	82.8	16.7	-89.7	7.4
2025-01-21 16:31:12.391171	82.6	16.8	-90.1	7.0
2025-01-21 16:31:13.555797	82.5	16.9	-90.0	7.9
2025-01-21 16:31:14.716914	82.3	17.0	-90.2	6.7
2025-01-21 16:31:15.884176	82.2	17.1	-90.1	7.6
2025-01-21 16:31:17.037995	82.0	17.2	-90.2	7.4
2025-01-21 16:31:18.202167	81.9	17.3	-89.9	7.3
2025-01-21 16:31:19.367545	81.7	17.4	-89.9	12.8
2025-01-21 16:31:20.539597	81.5	17.6	-90.2	14.0
2025-01-21 16:31:21.705889	81.4	17.7	-90.1	7.7
2025-01-21 16:31:22.870414	81.2	17.8	-90.3	9.0
2025-01-21 16:31:24.035606	81.0	17.9	-90.1	7.7
2025-01-21 16:31:25.196782	80.9	18.0	-90.1	9.0
2025-01-21 16:31:26.360189	80.7	18.1	-90.3	7.1
2025-01-21 16:31:27.515304	80.6	18.2	-90.5	5.9
2025-01-21 16:31:28.681846	80.4	18.3	-90.4	9.7
2025-01-21 16:31:29.846225	80.2	18.4	-90.5	8.0
2025-01-21 16:31:31.011998	80.0	18.5	-90.5	10.9
2025-01-21 16:31:32.180046	79.9	18.6	-90.2	15.9
2025-01-21 16:31:33.332222	79.7	18.7	-90.0	10.4
2025-01-21 16:31:34.496859	79.5	18.9	-89.7	7.6
2025-01-21 16:31:35.654116	79.4	19.0	-90.2	10.8
2025-01-21 16:31:36.816181	79.2	19.1	-90.0	7.7
2025-01-21 16:31:37.976406	79.0	19.2	-90.6	6.2
2025-01-21 16:31:39.140085	78.8	19.3	-90.3	9.6
2025-01-21 16:31:40.292979	78.6	19.4	-90.2	9.2
2025-01-21 16:31:41.460068	78.5	19.5	-90.5	10.2
2025-01-21 16:31:42.623983	78.3	19.6	-90.4	8.9
2025-01-21 16:31:43.790173	78.1	19.7	-89.4	8.1
2025-01-21 16:31:44.953310	77.9	19.9	-89.7	5.9
2025-01-21 16:31:46.120672	77.7	20.0	-89.1	7.4
2025-01-21 16:31:47.277912	77.5	20.1	-89.4	14.9
2025-01-21 16:31:48.440673	77.3	20.2	-89.5	7.2
2025-01-21 16:31:49.607699	77.1	20.3	-89.6	12.4
2025-01-21 16:31:50.771019	77.0	20.4	-90.7	11.7
2025-01-21 16:31:51.937455	76.8	20.5	-90.1	13.6
2025-01-21 16:31:53.096953	76.6	20.6	-90.4	12.0
2025-01-21 16:31:54.259279	76.4	20.8	-90.5	12.7
2025-01-21 16:31:55.414566	76.2	20.9	-90.5	11.6
2025-01-21 16:31:56.576320	76.0	21.0	-90.7	11.8
2025-01-21 16:31:57.734328	75.8	21.1	-90.8	13.7
2025-01-21 16:31:58.902565	75.6	21.2	-90.4	15.7
2025-01-21 16:32:00.066535	75.4	21.3	-90.1	14.2
2025-01-21 16:32:01.218969	75.2	21.4	-90.2	12.2
2025-01-21 16:32:02.379178	74.9	21.5	-90.5	9.7
2025-01-21 16:32:03.537935	74.7	21.7	-90.5	6.6
2025-01-21 16:32:04.704176	74.5	21.8	-90.4	13.5
2025-01-21 16:32:05.864964	74.3	21.9	-90.5	8.5
2025-01-21 16:32:07.026760	74.1	22.0	-90.5	7.4
2025-01-21 16:32:08.191243	73.9	22.1	-90.4	11.3
2025-01-21 16:32:09.355810	73.7	22.2	-90.3	14.2
2025-01-21 16:32:10.513597	73.5	22.3	-90.4	10.9
2025-01-21 16:32:11.691764	73.2	22.5	-90.2	14.8
2025-01-21 16:32:12.858001	73.0	22.6	-90.0	11.5
2025-01-21 16:32:14.024318	72.8	22.7	-90.3	8.9
2025-01-21 16:32:15.189637	72.6	22.8	-90.3	10.8
2025-01-21 16:32:16.357171	72.3	22.9	-90.5	12.5
2025-01-21 16:32:17.521191	72.1	23.0	-90.5	7.6
2025-01-21 16:32:18.682341	71.9	23.1	-90.7	10.1
2025-01-21 16:32:19.853888	71.6	23.3	-90.6	11.6
2025-01-21 16:32:21.019628	71.4	23.4	-90.6	15.4
2025-01-21 16:32:22.183049	71.2	23.5	-90.2	11.7
2025-01-21 16:32:23.348582	70.9	23.6	-90.3	10.2
2025-01-21 16:32:24.512833	70.7	23.7	-90.4	6.6
2025-01-21 16:32:25.689213	70.4	23.8	-90.3	7.2
2025-01-21 16:32:26.853552	70.2	23.9	-90.3	7.0
2025-01-21 16:32:28.005852	70.0	24.1	-90.2	4.6
2025-01-21 16:32:29.169225	69.7	24.2	-90.2	9.5
2025-01-21 16:32:30.337345	69.5	24.3	-90.1	9.7
2025-01-21 16:32:31.503675	69.2	24.4	-90.2	8.8
2025-01-21 16:32:32.662853	69.0	24.5	-91.0	10.9
2025-01-21 16:32:33.829878	68.7	24.6	-90.8	10.4
2025-01-21 16:32:34.984923	68.5	24.7	-91.0	6.1
2025-01-21 16:32:36.147691	68.2	24.8	-90.4	8.1
2025-01-21 16:32:37.303115	67.9	25.0	-90.1	7.2
2025-01-21 16:32:38.466435	67.7	25.1	-90.4	5.6
2025-01-21 16:32:39.628846	67.4	25.2	-89.9	5.3
2025-01-21 16:32:40.797830	67.2	25.3	-89.0	5.5
2025-01-21 16:32:41.956723	66.9	25.4	-85.1	7.1
2025-01-21 16:32:43.120689	66.6	25.5	-89.7	9.6
2025-01-21 16:32:44.279291	66.3	25.6	-90.2	8.7
2025-01-21 16:32:45.445679	66.1	25.7	-89.9	5.7
2025-01-21 16:32:46.610144	65.8	25.9	-89.7	4.8
2025-01-21 16:32:47.756544	65.5	26.0	-90.1	6.5
2025-01-21 16:32:48.918229	65.3	26.1	-89.9	5.2
2025-01-21 16:32:50.081196	65.0	26.2	-89.8	5.3
2025-01-21 16:32:51.246074	64.7	26.3	-89.3	7.4
2025-01-21 16:32:52.406832	64.4	26.4	-90.0	5.1
2025-01-21 16:32:53.569230	64.1	26.5	-89.8	5.7
2025-01-21 16:32:54.733268	63.8	26.6	-90.4	3.7
2025-01-21 16:32:55.893147	63.5	26.7	-90.7	5.6
2025-01-21 16:32:57.058766	63.3	26.8	-90.6	5.3
2025-01-21 16:32:58.222938	63.0	27.0	-90.2	5.3
2025-01-21 16:32:59.388850	62.7	27.1	-90.7	5.8
2025-01-21 16:33:00.547534	62.4	27.2	-90.2	6.9
2025-01-21 16:33:01.712506	62.1	27.3	-90.4	8.0
2025-01-21 16:33:02.873573	61.8	27.4	-90.7	6.1
2025-01-21 16:33:04.040809	61.5	27.5	-90.4	5.5
2025-01-21 16:33:05.198075	61.2	27.6	-90.5	5.8
2025-01-21 16:33:06.366435	60.8	27.7	-90.4	6.1
2025-01-21 16:33:07.526356	60.5	27.8	-90.7	8.2
2025-01-21 16:33:08.694901	60.2	27.9	-90.5	6.5
2025-01-21 16:33:09.858142	59.9	28.0	-90.3	6.9
2025-01-21 16:33:11.021862	59.6	28.1	-90.8	5.3
2025-01-21 16:33:12.189946	59.3	28.2	-90.6	6.0
2025-01-21 16:33:13.353689	58.9	28.3	-90.2	5.2
2025-01-21 16:33:14.519718	58.6	28.4	-90.7	6.8
2025-01-21 16:33:15.683641	58.3	28.5	-90.4	7.9
2025-01-21 16:33:16.842631	58.0	28.6	-90.2	7.2
2025-01-21 16:33:17.998774	57.7	28.7	-90.7	3.6
2025-01-21 16:33:19.158506	57.3	28.8	-90.3	7.1
2025-01-21 16:33:20.320869	57.0	28.9	-90.5	8.8
2025-01-21 16:33:21.481179	56.7	29.0	-90.4	9.5
2025-01-21 16:33:22.646116	56.3	29.1	-90.5	7.2
2025-01-21 16:33:23.814227	56.0	29.2	-90.1	8.8
2025-01-21 16:33:24.979854	55.6	29.3	-90.4	8.9
2025-01-21 16:33:26.142553	55.3	29.4	-90.2	8.2
2025-01-21 16:33:27.303414	55.0	29.5	-90.4	8.6
2025-01-21 16:33:28.466451	54.6	29.6	-90.5	8.3
2025-01-21 16:33:29.632024	54.3	29.6	-90.6	7.8
2025-01-21 16:33:30.795655	53.9	29.7	-90.1	6.0
2025-01-21 16:33:31.961132	53.6	29.8	-90.3	7.2
2025-01-21 16:33:33.124063	53.2	29.9	-90.1	8.8
2025-01-21 16:33:34.284178	52.8	30.0	-90.3	11.4
2025-01-21 16:33:35.451927	52.5	30.1	-90.2	10.2
2025-01-21 16:33:36.616518	52.1	30.2	-90.7	13.0
2025-01-21 16:33:37.779554	51.8	30.2	-90.2	11.6
2025-01-21 16:33:38.944423	51.4	30.3	-90.3	13.4
2025-01-21 16:33:40.104799	51.0	30.4	-90.3	11.1
2025-01-21 16:33:41.269793	50.7	30.5	-90.1	10.7
2025-01-21 16:33:42.429849	50.3	30.6	-90.1	7.0
2025-01-21 16:33:43.594868	49.9	30.6	-90.7	8.0
2025-01-21 16:33:44.758956	49.6	30.7	-90.7	11.6
2025-01-21 16:33:45.923677	49.2	30.8	-90.4	6.5
2025-01-21 16:33:47.085830	48.8	30.9	-90.5	8.3
2025-01-21 16:33:48.245133	48.4	30.9	-90.4	13.0
2025-01-21 16:33:49.402407	48.1	31.0	-90.4	8.5
2025-01-21 16:33:50.563948	47.7	31.1	-90.4	9.9
2025-01-21 16:33:51.724904	47.3	31.2	-90.5	12.2
2025-01-21 16:33:52.888645	46.9	31.2	-90.5	9.1
2025-01-21 16:33:54.046298	46.5	31.3	-90.1	8.8
2025-01-21 16:33:55.208606	46.1	31.4	-90.1	7.9
2025-01-21 16:33:56.373633	45.7	31.4	-90.2	12.3
2025-01-21 16:33:57.536863	45.4	31.5	-89.8	14.7
2025-01-21 16:33:58.702427	45.0	31.5	-90.0	15.6
2025-01-21 16:33:59.860513	44.6	31.6	-90.0	14.2
2025-01-21 16:34:01.020328	44.2	31.7	-90.1	13.4
2025-01-21 16:34:02.181112	43.8	31.7	-89.8	12.3
2025-01-21 16:34:03.345916	43.4	31.8	-90.1	13.4
2025-01-21 16:34:04.502743	43.0	31.8	-90.4	8.8
2025-01-21 16:34:05.667176	42.6	31.9	-90.5	13.0
2025-01-21 16:34:06.827646	42.2	31.9	-90.6	14.5
2025-01-21 16:34:07.989890	41.8	32.0	-90.6	9.3
2025-01-21 16:34:09.152423	41.4	32.0	-90.4	15.1
2025-01-21 16:34:10.317392	41.0	32.1	-90.4	15.4
2025-01-21 16:34:11.482136	40.6	32.1	-90.4	12.1
2025-01-21 16:34:12.642532	40.1	32.2	-90.5	14.0
2025-01-21 16:34:13.806746	39.7	32.2	-90.3	11.1
2025-01-21 16:34:14.970227	39.3	32.2	-90.4	12.5
2025-01-21 16:34:16.136135	38.9	32.3	-90.3	13.0
2025-01-21 16:34:17.300143	38.5	32.3	-90.3	13.7
2025-01-21 16:34:18.461975	38.1	32.4	-90.5	15.9
2025-01-21 16:34:19.620644	37.7	32.4	-90.7	17.3
2025-01-21 16:34:20.790058	37.3	32.4	-90.6	14.3
2025-01-21 16:34:21.949943	36.8	32.5	-90.7	12.8
2025-01-21 16:34:23.119577	36.4	32.5	-90.8	10.8
2025-01-21 16:34:24.284188	36.0	32.5	-90.4	12.6
2025-01-21 16:34:25.442998	35.6	32.5	-90.5	8.4
2025-01-21 16:34:26.624795	35.2	32.6	-90.7	8.7
2025-01-21 16:34:27.781188	34.8	32.6	-90.7	10.9
2025-01-21 16:34:28.943569	34.3	32.6	-90.6	6.5
2025-01-21 16:34:30.102167	33.9	32.6	-90.5	6.6
2025-01-21 16:34:31.270028	33.5	32.6	-90.2	10.9
2025-01-21 16:34:32.431733	33.1	32.6	-90.7	5.5
2025-01-21 16:34:33.591510	32.7	32.7	-90.6	7.4
2025-01-21 16:34:34.758526	32.2	32.7	-90.3	14.1
2025-01-21 16:34:35.918924	31.8	32.7	-90.3	9.5
2025-01-21 16:34:37.086175	31.4	32.7	-90.4	8.4
2025-01-21 16:34:38.241687	31.0	32.7	-90.4	12.9
2025-01-21 16:34:39.407064	30.5	32.7	-91.0	7.7
2025-01-21 16:34:40.568078	30.1	32.7	-90.9	8.8
2025-01-21 16:34:41.728150	29.7	32.7	-91.0	13.2
2025-01-21 16:34:42.894202	29.3	32.7	-90.9	9.1
2025-01-21 16:34:44.052863	28.9	32.7	-90.5	10.6
2025-01-21 16:34:45.222191	28.4	32.7	-90.2	10.9
2025-01-21 16:34:46.381052	28.0	32.7	-90.7	10.2
2025-01-21 16:34:47.560294	27.6	32.7	-90.7	13.1
2025-01-21 16:34:48.719136	27.2	32.7	-90.6	13.0
2025-01-21 16:34:49.878493	26.7	32.7	-91.1	13.3
2025-01-21 16:34:51.039852	26.3	32.6	-90.9	11.8
2025-01-21 16:34:52.203777	25.9	32.6	-90.6	10.6
2025-01-21 16:34:53.367207	25.5	32.6	-90.6	8.1
2025-01-21 16:34:54.536917	25.1	32.6	-91.0	8.8
2025-01-21 16:34:55.702052	24.6	32.6	-90.6	10.0
2025-01-21 16:34:56.858366	24.2	32.5	-91.1	10.1
2025-01-21 16:34:58.019983	23.8	32.5	-90.6	10.3
2025-01-21 16:34:59.183187	23.4	32.5	-90.8	12.7
2025-01-21 16:35:00.345268	23.0	32.5	-91.2	13.0
2025-01-21 16:35:01.508731	22.6	32.4	-91.1	8.7
2025-01-21 16:35:02.668421	22.1	32.4	-91.3	11.7
2025-01-21 16:35:03.828868	21.7	32.4	-91.2	11.2
2025-01-21 16:35:04.992320	21.3	32.3	-91.3	9.2
2025-01-21 16:35:06.156154	20.9	32.3	-90.6	7.0
2025-01-21 16:35:07.323939	20.5	32.3	-90.7	9.2
2025-01-21 16:35:08.490623	20.1	32.2	-90.7	8.7
2025-01-21 16:35:09.654441	19.7	32.2	-90.8	11.3
2025-01-21 16:35:10.819870	19.3	32.1	-90.8	13.1
2025-01-21 16:35:11.981137	18.9	32.1	-91.1	9.6
2025-01-21 16:35:13.145419	18.4	32.1	-90.9	13.2
2025-01-21 16:35:14.308774	18.0	32.0	-90.7	12.4
2025-01-21 16:35:15.472977	17.6	32.0	-91.0	7.0
2025-01-21 16:35:16.634351	17.2	31.9	-91.1	10.5
2025-01-21 16:35:17.796852	16.8	31.9	-90.9	11.3
2025-01-21 16:35:18.962371	16.4	31.8	-90.9	9.5
2025-01-21 16:35:20.117957	16.0	31.7	-90.4	11.8
2025-01-21 16:35:21.284408	15.6	31.7	-90.4	13.6
2025-01-21 16:35:22.441136	15.2	31.6	-90.3	7.8
2025-01-21 16:35:23.604564	14.8	31.6	-91.0	8.1
2025-01-21 16:35:24.775831	14.5	31.5	-91.0	10.7
2025-01-21 16:35:25.942925	14.1	31.5	-91.3	6.7
2025-01-21 16:35:27.107577	13.7	31.4	-90.3	8.2
2025-01-21 16:35:28.271448	13.3	31.3	-90.8	13.8
2025-01-21 16:35:29.435196	12.9	31.3	-91.3	8.1
2025-01-21 16:35:30.608468	12.5	31.2	-91.5	9.2
2025-01-21 16:35:31.772213	12.1	31.1	-91.3	13.0
2025-01-21 16:35:32.926976	11.7	31.1	-91.2	8.4
2025-01-21 16:35:34.093987	11.4	31.0	-90.6	8.6
2025-01-21 16:35:35.257770	11.0	30.9	-90.9	14.5
2025-01-21 16:35:36.425267	10.6	30.8	-91.2	7.8
2025-01-21 16:35:37.586145	10.2	30.8	-91.3	8.4
2025-01-21 16:35:38.750391	9.8	30.7	-91.0	10.5
2025-01-21 16:35:39.915507	9.5	30.6	-91.2	9.4
2025-01-21 16:35:41.080079	9.1	30.5	-91.0	7.7
2025-01-21 16:35:42.243761	8.7	30.4	-90.8	13.7
2025-01-21 16:35:43.402776	8.4	30.4	-90.9	8.3
2025-01-21 16:35:44.569904	8.0	30.3	-91.1	9.3
2025-01-21 16:35:45.733313	7.6	30.2	-91.1	11.9
2025-01-21 16:35:46.900159	7.3	30.1	-91.0	10.3
2025-01-21 16:35:48.059137	6.9	30.0	-90.8	7.5
2025-01-21 16:35:49.223286	6.6	29.9	-90.4	11.2
2025-01-21 16:35:50.388517	6.2	29.9	-91.1	7.6
2025-01-21 16:35:51.549709	5.9	29.8	-91.4	5.7
2025-01-21 16:35:52.715414	5.5	29.7	-90.9	6.4
2025-01-21 16:35:53.858211	5.2	29.6	-90.9	6.5
2025-01-21 16:35:54.991009	4.8	29.5	-91.1	4.7
2025-01-21 16:35:56.154358	4.5	29.4	-90.8	6.3
2025-01-21 16:35:57.319376	4.1	29.3	-90.6	4.3
2025-01-21 16:35:58.476879	3.8	29.2	-91.2	4.6
2025-01-21 16:35:59.639176	3.5	29.1	-90.9	7.2
2025-01-21 16:36:00.807479	3.1	29.0	-91.2	8.6
2025-01-21 16:36:01.972489	2.8	28.9	-91.2	7.9
2025-01-21 16:36:03.140396	2.4	28.8	-91.0	10.5
2025-01-21 16:36:04.302808	2.1	28.7	-90.9	9.5
2025-01-21 16:36:05.463611	1.8	28.7	-91.1	7.8
2025-01-21 16:36:06.638280	1.4	28.6	-90.8	10.6
2025-01-21 16:36:07.805817	1.1	28.5	-91.0	13.7
2025-01-21 16:36:08.960609	0.8	28.4	-90.8	12.6
2025-01-21 16:36:10.125322	0.5	28.3	-90.6	10.3
2025-01-21 16:36:11.290019	0.2	28.1	-90.8	14.3
2025-01-21 16:36:12.456801	359.8	28.0	-91.2	13.6
2025-01-21 16:36:13.617056	359.5	27.9	-91.3	9.7
2025-01-21 16:36:14.783843	359.2	27.8	-91.3	8.1
2025-01-21 16:36:15.943935	358.9	27.7	-91.0	7.0
2025-01-21 16:36:17.111842	358.6	27.6	-90.5	7.2
2025-01-21 16:36:18.275034	358.3	27.5	-90.7	7.3
2025-01-21 16:36:19.429522	358.0	27.4	-90.9	6.3
2025-01-21 16:36:20.595346	357.7	27.3	-90.8	8.1
2025-01-21 16:36:21.757800	357.4	27.2	-91.0	8.8
2025-01-21 16:36:22.923640	357.1	27.1	-90.6	9.9
2025-01-21 16:36:24.085058	356.8	27.0	-90.5	4.4
2025-01-21 16:36:25.248481	356.5	26.9	-90.5	10.6
2025-01-21 16:36:26.403402	356.2	26.8	-90.9	7.8
2025-01-21 16:36:27.576245	355.9	26.7	-90.8	8.2
2025-01-21 16:36:28.736381	355.6	26.6	-90.7	13.5
2025-01-21 16:36:29.908547	355.3	26.5	-90.7	9.1
2025-01-21 16:36:31.074213	355.0	26.3	-90.7	8.4
2025-01-21 16:36:32.235784	354.7	26.2	-90.9	12.7
2025-01-21 16:36:33.406604	354.5	26.1	-90.8	10.0
2025-01-21 16:36:34.570514	354.2	26.0	-91.0	10.5
2025-01-21 16:36:35.738880	353.9	25.9	-90.6	17.1
2025-01-21 16:36:36.904850	353.6	25.8	-90.8	11.9
2025-01-21 16:36:38.071498	353.4	25.7	-91.0	11.6
2025-01-21 16:36:39.241910	353.1	25.6	-90.5	14.8
2025-01-21 16:36:40.401805	352.8	25.4	-91.1	11.7
2025-01-21 16:36:41.564792	352.5	25.3	-90.9	10.4
2025-01-21 16:36:42.726327	352.3	25.2	-90.8	15.3
2025-01-21 16:36:43.889687	352.0	25.1	-90.9	14.3
2025-01-21 16:36:45.051296	351.8	25.0	-90.6	14.9
2025-01-21 16:36:46.222120	351.5	24.9	-90.8	14.9
2025-01-21 16:36:47.400035	351.2	24.8	-90.8	15.1
2025-01-21 16:36:48.562819	351.0	24.7	-91.1	16.8
2025-01-21 16:36:49.727395	350.7	24.5	-90.8	15.8
2025-01-21 16:36:50.895557	350.5	24.4	-90.8	12.4
2025-01-21 16:36:52.056729	350.2	24.3	-90.6	10.1
2025-01-21 16:36:53.218272	350.0	24.2	-90.5	7.7
2025-01-21 16:36:54.392394	349.7	24.1	-90.3	7.0
2025-01-21 16:36:55.556021	349.5	24.0	-90.7	9.4
2025-01-21 16:36:56.716206	349.2	23.9	-90.7	10.8
2025-01-21 16:36:57.872985	349.0	23.7	-91.3	7.6
2025-01-21 16:36:59.028141	348.7	23.6	-91.1	8.4
2025-01-21 16:37:00.191303	348.5	23.5	-90.6	14.9
2025-01-21 16:37:01.331073	348.3	23.4	-90.5	11.8
2025-01-21 16:37:02.494824	348.0	23.3	-90.9	7.3
2025-01-21 16:37:03.660616	347.8	23.2	-90.7	11.9
2025-01-21 16:37:04.823114	347.6	23.1	-91.1	10.4
2025-01-21 16:37:06.314729	347.3	22.9	-90.7	9.5
2025-01-21 16:37:07.478420	347.1	22.8	-90.6	9.1
2025-01-21 16:37:08.630974	346.8	22.7	-91.2	10.9
2025-01-21 16:37:09.784295	346.6	22.6	-91.2	5.9
2025-01-21 16:37:10.945495	346.4	22.5	-90.8	8.3
2025-01-21 16:37:12.105923	346.2	22.3	-90.9	8.9
2025-01-21 16:37:13.273063	345.9	22.2	-91.1	9.9
2025-01-21 16:37:14.434668	345.7	22.1	-91.1	7.2
2025-01-21 16:37:15.599211	345.5	22.0	-91.4	7.3
2025-01-21 16:37:16.769794	345.3	21.9	-90.9	14.1
2025-01-21 16:37:17.929938	345.1	21.8	-91.1	9.8
2025-01-21 16:37:19.081638	344.9	21.7	-90.9	7.4
2025-01-21 16:37:20.249962	344.7	21.5	-90.9	8.9
2025-01-21 16:37:21.414461	344.5	21.4	-91.3	12.7
2025-01-21 16:37:22.577735	344.2	21.3	-91.4	9.2
2025-01-21 16:37:23.738182	344.0	21.2	-91.2	12.3
2025-01-21 16:37:24.902879	343.8	21.1	-91.3	16.4
2025-01-21 16:37:26.064892	343.6	21.0	-91.1	8.7
2025-01-21 16:37:27.228945	343.4	20.9	-91.2	5.1
2025-01-21 16:37:28.392732	343.2	20.7	-91.1	6.1
2025-01-21 16:37:29.550805	343.0	20.6	-91.5	4.1
2025-01-21 16:37:30.715151	342.8	20.5	-91.3	6.3
2025-01-21 16:37:31.878099	342.6	20.4	-91.0	5.1
2025-01-21 16:37:33.042108	342.5	20.3	-90.8	5.0
2025-01-21 16:37:34.208326	342.3	20.2	-91.2	4.6
2025-01-21 16:37:35.369630	342.1	20.1	-91.4	5.4
2025-01-21 16:37:36.535593	341.9	20.0	-91.5	4.4
2025-01-21 16:37:37.699126	341.7	19.8	-91.3	7.5
2025-01-21 16:37:38.855342	341.5	19.7	-91.3	5.2
2025-01-21 16:37:40.017382	341.3	19.6	-91.2	6.8
2025-01-21 16:37:41.188750	341.1	19.5	-90.8	6.1
2025-01-21 16:37:42.354359	341.0	19.4	-91.2	6.6
2025-01-21 16:37:43.516950	340.8	19.3	-91.0	6.0
2025-01-21 16:37:44.681885	340.6	19.2	-91.2	5.4
2025-01-21 16:37:45.848230	340.4	19.1	-91.6	8.8
2025-01-21 16:37:47.011981	340.2	19.0	-91.3	8.3
2025-01-21 16:37:48.180398	340.1	18.8	-91.2	3.8
2025-01-21 16:37:49.340804	339.9	18.7	-91.2	8.7
2025-01-21 16:37:50.511494	339.7	18.6	-91.2	5.1
2025-01-21 16:37:51.668302	339.5	18.5	-91.0	8.6
2025-01-21 16:37:52.834127	339.4	18.4	-91.5	6.7
2025-01-21 16:37:53.994384	339.2	18.3	-91.6	5.4
2025-01-21 16:37:55.154848	339.0	18.2	-91.1	3.6
2025-01-21 16:37:56.315086	338.9	18.1	-91.1	4.9
2025-01-21 16:37:57.477093	338.7	18.0	-91.7	5.1
2025-01-21 16:37:58.634073	338.5	17.9	-91.7	7.6
2025-01-21 16:37:59.796582	338.4	17.8	-91.4	8.2
2025-01-21 16:38:00.949142	338.2	17.6	-91.2	5.0
2025-01-21 16:38:02.094837	338.1	17.5	-91.1	6.2
2025-01-21 16:38:03.215789	337.9	17.4	-91.1	4.5
2025-01-21 16:38:04.336477	337.8	17.3	-91.1	4.4
2025-01-21 16:38:05.456921	337.6	17.2	-91.4	6.0
2025-01-21 16:38:06.577396	337.4	17.1	-91.4	3.0
2025-01-21 16:38:07.697689	337.3	17.0	-91.1	3.0
2025-01-21 16:38:08.818708	337.1	16.9	-91.1	5.2
2025-01-21 16:38:09.940048	337.0	16.8	-91.2	4.5
2025-01-21 16:38:11.065717	336.9	16.7	-91.2	4.4
2025-01-21 16:38:12.194718	336.7	16.6	-91.4	3.0
2025-01-21 16:38:13.356688	336.6	16.5	-91.5	3.9
2025-01-21 16:38:14.516753	336.4	16.4	-91.6	3.3
2025-01-21 16:38:15.681309	336.3	16.3	-90.9	3.3
2025-01-21 16:38:16.830131	336.1	16.2	-91.4	2.7
2025-01-21 16:38:17.991778	336.0	16.1	-91.2	4.2
2025-01-21 16:38:19.148509	335.8	16.0	-90.9	6.4
2025-01-21 16:38:20.314125	335.7	15.9	-91.0	6.1
2025-01-21 16:38:21.477238	335.5	15.8	-91.6	3.6
2025-01-21 16:38:22.640189	335.4	15.7	-91.6	6.1
2025-01-21 16:38:23.803847	335.3	15.6	-91.7	4.6
2025-01-21 16:38:24.970996	335.1	15.5	-91.6	5.3
2025-01-21 16:38:26.129335	335.0	15.4	-91.5	4.5
2025-01-21 16:38:27.290833	334.8	15.3	-91.3	5.9
2025-01-21 16:38:28.458288	334.7	15.2	-91.1	5.3
2025-01-21 16:38:29.614055	334.6	15.1	-91.1	4.0
2025-01-21 16:38:30.778748	334.4	15.0	-91.1	6.2
2025-01-21 16:38:31.940176	334.3	14.9	-91.8	6.9
2025-01-21 16:38:33.102213	334.2	14.8	-91.0	5.7
2025-01-21 16:38:34.266493	334.0	14.7	-90.9	4.4
2025-01-21 16:38:35.421873	333.9	14.6	-91.3	5.9
#Closed at: 2025-01-21 16:30:57.034668