passes_logs/2025/01/21/LEX_Murmansk/LEX_Murmansk__20250121_113148_NOAA_18_rec.log

#Pass ID: 20250121_113148_NOAA 18
#Satellite: NOAA 18
#Configuration: NOAA 18
#Start time: 2025-01-21 11:31:43.646760

#LorettStation: 1.0.0 05.05.2024
#Station: LEX_Murmansk
#Location: 33.156738 lon 68.926811 lat
#TLE: 1 28654U 05018A   25020.18862715  .00000449  00000+0  26167-3 0  9997
#TLE: 2 28654  98.8558 101.1913 0014575 164.8261 195.3351 14.13491567 13918

#Time	Az	El	Level	SNR
2025-01-21 11:31:55.895339	22.9	16.2	-90.0	5.0
2025-01-21 11:31:57.058052	22.8	16.3	-89.6	5.5
2025-01-21 11:31:58.215118	22.7	16.5	-89.5	5.0
2025-01-21 11:31:59.371276	22.6	16.6	-89.8	5.2
2025-01-21 11:32:00.526661	22.5	16.7	-89.9	4.9
2025-01-21 11:32:01.684366	22.4	16.8	-89.7	5.0
2025-01-21 11:32:02.841312	22.3	16.9	-89.7	5.8
2025-01-21 11:32:03.991258	22.2	17.0	-89.8	4.9
2025-01-21 11:32:05.144555	22.1	17.2	-89.5	2.8
2025-01-21 11:32:06.307046	22.0	17.3	-89.2	3.9
2025-01-21 11:32:07.466304	21.9	17.4	-89.8	3.8
2025-01-21 11:32:08.627858	21.8	17.5	-90.1	4.1
2025-01-21 11:32:09.777607	21.7	17.7	-89.6	6.3
2025-01-21 11:32:10.938066	21.6	17.8	-89.7	4.4
2025-01-21 11:32:12.088575	21.4	17.9	-90.1	5.5
2025-01-21 11:32:13.251890	21.3	18.0	-89.9	9.2
2025-01-21 11:32:14.409445	21.2	18.2	-89.6	11.8
2025-01-21 11:32:15.572205	21.1	18.3	-89.6	10.3
2025-01-21 11:32:16.732444	21.0	18.4	-89.7	13.6
2025-01-21 11:32:17.891392	20.9	18.5	-89.8	9.3
2025-01-21 11:32:19.054151	20.8	18.7	-89.4	7.8
2025-01-21 11:32:20.213032	20.7	18.8	-89.4	11.0
2025-01-21 11:32:21.372184	20.5	18.9	-89.5	12.3
2025-01-21 11:32:22.533633	20.4	19.0	-90.0	10.6
2025-01-21 11:32:23.688249	20.3	19.2	-89.9	7.5
2025-01-21 11:32:24.854995	20.2	19.3	-89.9	10.9
2025-01-21 11:32:26.013781	20.1	19.4	-89.9	5.1
2025-01-21 11:32:27.170688	19.9	19.6	-90.0	7.8
2025-01-21 11:32:28.331154	19.8	19.7	-89.7	8.3
2025-01-21 11:32:29.487498	19.7	19.8	-89.8	6.6
2025-01-21 11:32:30.643076	19.6	20.0	-89.6	7.4
2025-01-21 11:32:31.807861	19.4	20.1	-90.2	7.9
2025-01-21 11:32:32.956353	19.3	20.2	-89.7	5.4
2025-01-21 11:32:34.119487	19.2	20.4	-89.4	7.2
2025-01-21 11:32:35.282085	19.0	20.5	-89.6	9.2
2025-01-21 11:32:36.444777	18.9	20.6	-89.5	6.5
2025-01-21 11:32:37.614468	18.8	20.8	-89.1	6.9
2025-01-21 11:32:38.763484	18.6	20.9	-88.9	9.3
2025-01-21 11:32:39.931992	18.5	21.1	-89.0	5.1
2025-01-21 11:32:41.088119	18.4	21.2	-89.1	4.6
2025-01-21 11:32:42.246402	18.2	21.3	-89.8	8.1
2025-01-21 11:32:43.399720	18.1	21.5	-89.2	2.9
2025-01-21 11:32:44.553726	18.0	21.6	-89.7	3.6
2025-01-21 11:32:45.716576	17.8	21.7	-88.9	7.0
2025-01-21 11:32:46.876013	17.7	21.9	-88.7	8.0
2025-01-21 11:32:48.038182	17.5	22.0	-88.8	8.7
2025-01-21 11:32:49.191993	17.4	22.2	-88.7	7.5
2025-01-21 11:32:50.351178	17.2	22.3	-89.1	7.5
2025-01-21 11:32:51.507717	17.1	22.5	-89.5	8.3
2025-01-21 11:32:52.664039	16.9	22.6	-89.8	11.0
2025-01-21 11:32:53.815637	16.8	22.7	-90.0	9.7
2025-01-21 11:32:54.976736	16.6	22.9	-90.0	9.3
2025-01-21 11:32:56.137211	16.5	23.0	-90.1	9.1
2025-01-21 11:32:57.297113	16.3	23.2	-89.8	11.0
2025-01-21 11:32:58.458945	16.2	23.3	-90.2	8.3
2025-01-21 11:32:59.617974	16.0	23.5	-90.3	7.9
2025-01-21 11:33:00.772677	15.8	23.6	-90.2	9.9
2025-01-21 11:33:01.923255	15.7	23.8	-90.1	6.5
2025-01-21 11:33:03.079770	15.5	23.9	-90.1	6.3
2025-01-21 11:33:04.243648	15.4	24.1	-90.2	9.9
2025-01-21 11:33:05.403639	15.2	24.2	-90.5	9.5
2025-01-21 11:33:06.558127	15.0	24.4	-90.5	8.3
2025-01-21 11:33:07.725879	14.8	24.5	-90.3	11.6
2025-01-21 11:33:08.887894	14.7	24.7	-90.4	10.1
2025-01-21 11:33:10.046778	14.5	24.8	-90.2	8.1
2025-01-21 11:33:11.206613	14.3	25.0	-90.1	10.7
2025-01-21 11:33:12.369970	14.1	25.1	-90.0	10.8
2025-01-21 11:33:13.526538	14.0	25.3	-90.2	11.1
2025-01-21 11:33:14.687911	13.8	25.4	-90.4	10.5
2025-01-21 11:33:15.847424	13.6	25.6	-89.6	9.8
2025-01-21 11:33:17.010243	13.4	25.7	-90.2	10.0
2025-01-21 11:33:18.167032	13.2	25.9	-89.7	7.8
2025-01-21 11:33:19.330543	13.0	26.1	-90.0	8.3
2025-01-21 11:33:20.486877	12.9	26.2	-90.1	4.8
2025-01-21 11:33:21.640196	12.7	26.4	-90.2	5.8
2025-01-21 11:33:22.806293	12.5	26.5	-89.6	6.5
2025-01-21 11:33:23.962053	12.3	26.7	-89.4	5.4
2025-01-21 11:33:25.127540	12.1	26.9	-89.3	8.3
2025-01-21 11:33:26.302221	11.9	27.0	-89.2	6.1
2025-01-21 11:33:27.460020	11.7	27.2	-89.2	7.8
2025-01-21 11:33:28.617169	11.5	27.3	-90.6	8.4
2025-01-21 11:33:29.777337	11.3	27.5	-90.5	9.6
2025-01-21 11:33:30.932913	11.1	27.7	-90.2	4.9
2025-01-21 11:33:32.089391	10.9	27.8	-90.1	7.1
2025-01-21 11:33:33.248762	10.6	28.0	-90.1	10.0
2025-01-21 11:33:34.406770	10.4	28.1	-90.1	7.2
2025-01-21 11:33:35.565133	10.2	28.3	-89.8	4.2
2025-01-21 11:33:36.728619	10.0	28.5	-90.0	5.2
2025-01-21 11:33:37.885590	9.8	28.6	-90.3	5.7
2025-01-21 11:33:39.043240	9.5	28.8	-89.8	2.8
2025-01-21 11:33:40.202579	9.3	29.0	-89.9	3.9
2025-01-21 11:33:41.352730	9.1	29.1	-90.0	7.0
2025-01-21 11:33:42.505933	8.9	29.3	-90.0	4.6
2025-01-21 11:33:43.660516	8.6	29.5	-90.2	7.9
2025-01-21 11:33:44.805089	8.4	29.6	-89.8	7.2
2025-01-21 11:33:45.971098	8.2	29.8	-90.0	7.4
2025-01-21 11:33:47.117372	7.9	30.0	-89.6	8.8
2025-01-21 11:33:48.277955	7.7	30.1	-89.4	9.2
2025-01-21 11:33:49.436969	7.4	30.3	-89.6	6.2
2025-01-21 11:33:50.595929	7.2	30.5	-90.2	5.4
2025-01-21 11:33:51.759155	6.9	30.7	-90.1	8.1
2025-01-21 11:33:52.909929	6.7	30.8	-90.2	10.8
2025-01-21 11:33:54.060829	6.4	31.0	-90.0	9.1
2025-01-21 11:33:55.221805	6.2	31.2	-90.2	11.4
2025-01-21 11:33:56.382516	5.9	31.3	-90.2	9.0
2025-01-21 11:33:57.539434	5.6	31.5	-90.5	7.7
2025-01-21 11:33:58.693855	5.4	31.7	-90.2	9.7
2025-01-21 11:33:59.852428	5.1	31.9	-90.5	8.2
2025-01-21 11:34:00.985744	4.8	32.0	-90.1	5.7
2025-01-21 11:34:02.124166	4.6	32.2	-90.3	7.3
2025-01-21 11:34:03.279986	4.3	32.4	-90.5	10.3
2025-01-21 11:34:04.433113	4.0	32.5	-90.6	11.2
2025-01-21 11:34:05.583859	3.7	32.7	-90.3	8.4
2025-01-21 11:34:06.736865	3.4	32.9	-90.4	10.4
2025-01-21 11:34:07.899349	3.1	33.1	-90.6	7.9
2025-01-21 11:34:09.052098	2.8	33.2	-90.2	6.5
2025-01-21 11:34:10.208583	2.5	33.4	-90.0	11.1
2025-01-21 11:34:11.370286	2.2	33.6	-90.2	10.0
2025-01-21 11:34:12.528891	1.9	33.8	-90.3	8.0
2025-01-21 11:34:13.686158	1.6	33.9	-90.3	11.9
2025-01-21 11:34:14.835286	1.3	34.1	-90.7	12.4
2025-01-21 11:34:15.993576	1.0	34.3	-90.6	11.2
2025-01-21 11:34:17.145572	0.7	34.5	-90.4	15.6
2025-01-21 11:34:18.312056	0.4	34.6	-90.3	14.2
2025-01-21 11:34:19.472808	0.0	34.8	-90.7	13.7
2025-01-21 11:34:20.626724	359.7	35.0	-90.5	13.0
2025-01-21 11:34:21.788161	359.4	35.2	-90.1	16.1
2025-01-21 11:34:22.941994	359.0	35.3	-90.4	11.3
2025-01-21 11:34:24.093138	358.7	35.5	-90.2	12.1
2025-01-21 11:34:25.255230	358.4	35.7	-90.2	10.8
2025-01-21 11:34:26.414807	358.0	35.9	-90.0	11.4
2025-01-21 11:34:27.575352	357.7	36.0	-90.3	13.6
2025-01-21 11:34:28.739329	357.3	36.2	-90.3	12.1
2025-01-21 11:34:29.891308	356.9	36.4	-90.6	9.5
2025-01-21 11:34:31.051031	356.6	36.6	-90.4	8.8
2025-01-21 11:34:32.205466	356.2	36.7	-90.2	12.3
2025-01-21 11:34:33.362098	355.8	36.9	-90.4	11.9
2025-01-21 11:34:34.524679	355.5	37.1	-90.8	7.7
2025-01-21 11:34:35.683494	355.1	37.2	-90.0	10.3
2025-01-21 11:34:36.848456	354.7	37.4	-90.6	13.2
2025-01-21 11:34:38.004199	354.3	37.6	-90.6	12.9
2025-01-21 11:34:39.164416	353.9	37.7	-90.6	15.2
2025-01-21 11:34:40.334530	353.5	37.9	-90.5	14.1
2025-01-21 11:34:41.487674	353.1	38.1	-90.5	16.1
2025-01-21 11:34:42.641969	352.7	38.2	-90.7	14.6
2025-01-21 11:34:43.797868	352.3	38.4	-91.1	15.1
2025-01-21 11:34:44.960237	351.9	38.6	-90.7	12.1
2025-01-21 11:34:46.113647	351.5	38.7	-90.3	13.7
2025-01-21 11:34:47.274196	351.1	38.9	-90.1	16.3
2025-01-21 11:34:48.428700	350.7	39.1	-90.2	12.1
2025-01-21 11:34:49.584852	350.2	39.2	-90.5	13.0
2025-01-21 11:34:50.745348	349.8	39.4	-90.5	15.6
2025-01-21 11:34:51.898445	349.4	39.5	-90.4	17.0
2025-01-21 11:34:53.059159	348.9	39.7	-89.9	15.4
2025-01-21 11:34:54.223054	348.5	39.9	-90.3	15.2
2025-01-21 11:34:55.373317	348.0	40.0	-90.2	14.4
2025-01-21 11:34:56.525084	347.6	40.2	-90.5	12.2
2025-01-21 11:34:57.690697	347.1	40.3	-90.2	16.4
2025-01-21 11:34:58.842981	346.7	40.5	-90.4	15.7
2025-01-21 11:35:00.002905	346.2	40.6	-90.5	8.7
2025-01-21 11:35:01.166225	345.7	40.8	-90.2	14.6
2025-01-21 11:35:02.314932	345.3	40.9	-89.9	17.2
2025-01-21 11:35:03.482193	344.8	41.1	-90.5	10.7
2025-01-21 11:35:04.638594	344.3	41.2	-90.5	15.0
2025-01-21 11:35:05.798943	343.8	41.3	-90.4	16.2
2025-01-21 11:35:06.968072	343.3	41.5	-90.0	17.6
2025-01-21 11:35:08.133636	342.8	41.6	-90.0	17.4
2025-01-21 11:35:09.293282	342.3	41.8	-89.9	17.3
2025-01-21 11:35:10.457035	341.8	41.9	-90.4	17.9
2025-01-21 11:35:11.612293	341.3	42.0	-89.8	17.1
2025-01-21 11:35:12.776462	340.8	42.1	-89.5	16.9
2025-01-21 11:35:13.926437	340.3	42.3	-89.7	16.6
2025-01-21 11:35:15.089297	339.7	42.4	-89.6	13.9
2025-01-21 11:35:16.246454	339.2	42.5	-89.8	17.6
2025-01-21 11:35:17.410283	338.7	42.6	-89.7	12.1
2025-01-21 11:35:18.570689	338.1	42.8	-89.8	11.9
2025-01-21 11:35:19.729919	337.6	42.9	-90.1	15.3
2025-01-21 11:35:20.894212	337.1	43.0	-89.9	11.3
2025-01-21 11:35:22.048824	336.5	43.1	-89.9	14.4
2025-01-21 11:35:23.208248	336.0	43.2	-89.5	18.4
2025-01-21 11:35:24.367318	335.4	43.3	-90.0	18.2
2025-01-21 11:35:25.524854	334.9	43.4	-89.8	19.8
2025-01-21 11:35:26.685916	334.3	43.5	-89.8	21.7
2025-01-21 11:35:27.841286	333.7	43.6	-90.0	18.1
2025-01-21 11:35:29.010991	333.2	43.7	-90.1	19.2
2025-01-21 11:35:30.178532	332.6	43.8	-90.2	18.1
2025-01-21 11:35:31.327820	332.0	43.9	-90.3	17.8
2025-01-21 11:35:32.485639	331.4	44.0	-90.2	12.2
2025-01-21 11:35:33.643628	330.9	44.0	-90.4	15.3
2025-01-21 11:35:34.803049	330.3	44.1	-90.4	17.4
2025-01-21 11:35:35.962868	329.7	44.2	-90.4	8.2
2025-01-21 11:35:37.123723	329.1	44.3	-90.0	10.3
2025-01-21 11:35:38.280319	328.5	44.3	-89.8	15.2
2025-01-21 11:35:39.431254	327.9	44.4	-90.0	9.4
2025-01-21 11:35:40.590656	327.3	44.5	-90.1	9.9
2025-01-21 11:35:41.736319	326.7	44.5	-90.4	15.2
2025-01-21 11:35:42.898151	326.1	44.6	-90.4	10.6
2025-01-21 11:35:44.048606	325.5	44.6	-90.3	9.2
2025-01-21 11:35:45.206793	324.9	44.7	-90.5	14.1
2025-01-21 11:35:46.345406	324.3	44.7	-90.0	16.5
2025-01-21 11:35:47.506415	323.7	44.7	-90.2	15.2
2025-01-21 11:35:48.663461	323.1	44.8	-90.2	16.4
2025-01-21 11:35:49.830900	322.5	44.8	-90.2	17.2
2025-01-21 11:35:50.989400	321.9	44.8	-90.2	11.9
2025-01-21 11:35:52.150330	321.3	44.9	-90.0	17.9
2025-01-21 11:35:53.309387	320.7	44.9	-90.0	17.3
2025-01-21 11:35:54.468497	320.1	44.9	-90.0	16.3
2025-01-21 11:35:55.622212	319.4	44.9	-90.4	16.1
2025-01-21 11:35:56.783313	318.8	44.9	-90.0	15.1
2025-01-21 11:35:57.939748	318.2	44.9	-90.2	14.7
2025-01-21 11:35:59.095726	317.6	45.0	-90.2	12.4
2025-01-21 11:36:00.242115	317.0	45.0	-90.1	15.8
2025-01-21 11:36:01.397796	316.4	45.0	-90.1	10.7
2025-01-21 11:36:02.545299	315.8	44.9	-90.4	9.5
2025-01-21 11:36:03.691236	315.2	44.9	-90.5	14.8
2025-01-21 11:36:04.848908	314.5	44.9	-90.2	18.5
2025-01-21 11:36:06.005954	313.9	44.9	-90.7	12.9
2025-01-21 11:36:07.176666	313.3	44.9	-89.9	17.0
2025-01-21 11:36:08.337147	312.7	44.9	-90.1	15.4
2025-01-21 11:36:09.498545	312.1	44.8	-90.2	12.3
2025-01-21 11:36:10.653915	311.5	44.8	-90.4	16.0
2025-01-21 11:36:11.802817	310.9	44.8	-90.5	13.7
2025-01-21 11:36:12.967734	310.3	44.7	-90.5	7.0
2025-01-21 11:36:14.117671	309.7	44.7	-90.2	6.3
2025-01-21 11:36:15.284107	309.0	44.6	-90.1	9.1
2025-01-21 11:36:16.436563	308.4	44.6	-90.1	7.4
2025-01-21 11:36:17.600287	307.8	44.5	-90.3	10.9
2025-01-21 11:36:18.751066	307.2	44.5	-90.5	14.3
2025-01-21 11:36:19.916757	306.6	44.4	-90.5	11.3
2025-01-21 11:36:21.071168	306.1	44.3	-90.4	9.8
2025-01-21 11:36:22.237170	305.5	44.3	-90.1	12.2
2025-01-21 11:36:23.396972	304.9	44.2	-90.0	9.2
2025-01-21 11:36:24.559014	304.3	44.1	-90.3	12.7
2025-01-21 11:36:25.723156	303.7	44.1	-90.1	15.9
2025-01-21 11:36:26.893134	303.1	44.0	-90.0	11.2
2025-01-21 11:36:28.040953	302.5	43.9	-90.1	12.3
2025-01-21 11:36:29.198863	302.0	43.8	-89.9	18.9
2025-01-21 11:36:30.353983	301.4	43.7	-90.0	15.6
2025-01-21 11:36:31.520954	300.8	43.6	-90.2	10.5
2025-01-21 11:36:32.683918	300.2	43.5	-89.8	15.5
2025-01-21 11:36:33.834549	299.7	43.4	-89.9	12.8
2025-01-21 11:36:35.001218	299.1	43.3	-89.7	10.9
2025-01-21 11:36:36.162431	298.6	43.2	-89.6	14.5
2025-01-21 11:36:37.322825	298.0	43.1	-89.7	15.3
2025-01-21 11:36:38.474597	297.5	43.0	-89.8	8.4
2025-01-21 11:36:39.630684	296.9	42.9	-90.0	11.2
2025-01-21 11:36:40.793489	296.4	42.8	-90.2	16.6
2025-01-21 11:36:41.953476	295.9	42.7	-89.9	14.1
2025-01-21 11:36:43.117587	295.3	42.5	-90.1	13.5
2025-01-21 11:36:44.274009	294.8	42.4	-90.0	19.8
2025-01-21 11:36:45.425284	294.3	42.3	-90.4	11.3
2025-01-21 11:36:46.581066	293.7	42.2	-90.3	12.6
2025-01-21 11:36:47.739983	293.2	42.0	-90.3	17.4
2025-01-21 11:36:48.895176	292.7	41.9	-90.1	13.3
2025-01-21 11:36:50.046289	292.2	41.8	-89.8	13.4
2025-01-21 11:36:51.208315	291.7	41.7	-89.9	18.0
2025-01-21 11:36:52.361166	291.2	41.5	-89.9	17.4
2025-01-21 11:36:53.515350	290.7	41.4	-89.9	10.5
2025-01-21 11:36:54.673528	290.2	41.2	-90.4	10.9
2025-01-21 11:36:55.834141	289.7	41.1	-90.2	18.1
2025-01-21 11:36:56.996829	289.3	40.9	-90.5	12.2
2025-01-21 11:36:58.165227	288.8	40.8	-90.4	14.8
2025-01-21 11:36:59.323314	288.3	40.7	-90.1	19.5
2025-01-21 11:37:00.479215	287.8	40.5	-90.5	12.2
2025-01-21 11:37:01.636989	287.4	40.4	-90.4	16.2
2025-01-21 11:37:02.800843	286.9	40.2	-90.3	16.1
2025-01-21 11:37:03.957470	286.4	40.0	-90.6	11.6
2025-01-21 11:37:05.122994	286.0	39.9	-90.2	15.2
2025-01-21 11:37:06.276692	285.5	39.7	-90.2	14.7
2025-01-21 11:37:07.441980	285.1	39.6	-90.6	8.8
2025-01-21 11:37:08.599720	284.7	39.4	-90.2	8.0
2025-01-21 11:37:09.758415	284.2	39.3	-90.4	15.3
2025-01-21 11:37:10.919968	283.8	39.1	-90.2	11.9
2025-01-21 11:37:12.079720	283.4	38.9	-90.2	9.3
2025-01-21 11:37:13.242936	282.9	38.8	-89.9	16.0
2025-01-21 11:37:14.401944	282.5	38.6	-90.2	11.8
2025-01-21 11:37:15.553718	282.1	38.4	-90.2	7.6
2025-01-21 11:37:16.710986	281.7	38.3	-90.7	15.6
2025-01-21 11:37:17.869243	281.3	38.1	-90.1	14.7
2025-01-21 11:37:19.031642	280.9	37.9	-90.2	10.1
2025-01-21 11:37:20.197873	280.5	37.8	-90.1	14.3
2025-01-21 11:37:21.352817	280.1	37.6	-90.2	13.1
2025-01-21 11:37:22.504567	279.7	37.4	-89.9	11.7
2025-01-21 11:37:23.670513	279.3	37.3	-90.3	12.2
2025-01-21 11:37:24.830741	278.9	37.1	-90.2	13.9
2025-01-21 11:37:25.990383	278.6	36.9	-90.4	14.6
2025-01-21 11:37:27.151205	278.2	36.7	-90.3	15.4
2025-01-21 11:37:28.304513	277.8	36.6	-90.2	15.4
2025-01-21 11:37:29.461349	277.5	36.4	-90.6	9.2
2025-01-21 11:37:30.621146	277.1	36.2	-90.5	9.4
2025-01-21 11:37:31.775301	276.7	36.1	-89.9	12.9
2025-01-21 11:37:32.933470	276.4	35.9	-90.0	13.4
2025-01-21 11:37:34.089150	276.0	35.7	-90.0	13.0
2025-01-21 11:37:35.241328	275.7	35.5	-90.1	15.4
2025-01-21 11:37:36.390614	275.4	35.4	-90.3	7.9
2025-01-21 11:37:37.547709	275.0	35.2	-90.0	8.0
2025-01-21 11:37:38.706799	274.7	35.0	-90.4	17.0
2025-01-21 11:37:39.867682	274.4	34.8	-90.3	11.2
2025-01-21 11:37:41.031952	274.0	34.7	-90.4	9.9
2025-01-21 11:37:42.185929	273.7	34.5	-90.1	11.8
2025-01-21 11:37:43.346696	273.4	34.3	-90.3	10.8
2025-01-21 11:37:44.520610	273.1	34.1	-89.9	8.3
2025-01-21 11:37:45.690704	272.7	33.9	-90.4	12.7
2025-01-21 11:37:46.843247	272.4	33.8	-90.7	13.6
2025-01-21 11:37:48.001058	272.1	33.6	-90.5	10.2
2025-01-21 11:37:49.156587	271.8	33.4	-90.1	12.7
2025-01-21 11:37:50.323395	271.5	33.2	-90.1	14.2
2025-01-21 11:37:51.482650	271.2	33.1	-90.6	13.0
2025-01-21 11:37:52.641745	270.9	32.9	-90.2	16.0
2025-01-21 11:37:53.800539	270.6	32.7	-89.9	13.3
2025-01-21 11:37:54.960592	270.3	32.5	-90.0	14.8
2025-01-21 11:37:56.120863	270.1	32.4	-89.6	13.1
2025-01-21 11:37:57.279949	269.8	32.2	-90.2	16.3
2025-01-21 11:37:58.438437	269.5	32.0	-90.2	12.1
2025-01-21 11:37:59.593460	269.2	31.8	-89.8	10.4
2025-01-21 11:38:00.744458	269.0	31.7	-90.6	11.9
2025-01-21 11:38:01.900833	268.7	31.5	-90.5	6.9
2025-01-21 11:38:03.061855	268.4	31.3	-90.3	5.2
2025-01-21 11:38:04.225094	268.2	31.1	-90.1	10.3
2025-01-21 11:38:05.385178	267.9	31.0	-90.4	7.3
2025-01-21 11:38:06.544149	267.6	30.8	-90.4	4.5
2025-01-21 11:38:07.704776	267.4	30.6	-90.5	7.3
2025-01-21 11:38:08.866291	267.1	30.5	-90.1	6.6
2025-01-21 11:38:10.024261	266.9	30.3	-90.4	4.7
2025-01-21 11:38:11.182099	266.6	30.1	-90.1	5.1
2025-01-21 11:38:12.340613	266.4	29.9	-90.3	5.3
2025-01-21 11:38:13.486704	266.1	29.8	-90.4	6.7
2025-01-21 11:38:14.639397	265.9	29.6	-90.6	6.8
2025-01-21 11:38:15.798767	265.7	29.4	-90.7	7.3
2025-01-21 11:38:16.959209	265.4	29.3	-90.6	7.8
2025-01-21 11:38:18.118221	265.2	29.1	-90.6	6.3
2025-01-21 11:38:19.276135	265.0	28.9	-90.4	9.5
2025-01-21 11:38:20.429416	264.7	28.8	-90.8	9.6
2025-01-21 11:38:21.591578	264.5	28.6	-90.3	7.0
2025-01-21 11:38:22.754979	264.3	28.4	-90.5	6.4
2025-01-21 11:38:23.910433	264.1	28.3	-90.6	5.4
2025-01-21 11:38:25.072783	263.9	28.1	-90.4	5.2
2025-01-21 11:38:26.233605	263.6	27.9	-90.3	5.0
2025-01-21 11:38:27.393547	263.4	27.8	-90.3	5.1
2025-01-21 11:38:28.546544	263.2	27.6	-90.7	5.5
2025-01-21 11:38:29.707085	263.0	27.4	-90.3	5.3
2025-01-21 11:38:30.864597	262.8	27.3	-90.5	5.1
2025-01-21 11:38:32.018371	262.6	27.1	-90.5	5.3
2025-01-21 11:38:33.174988	262.4	27.0	-90.3	7.1
2025-01-21 11:38:34.321904	262.2	26.8	-90.3	7.9
2025-01-21 11:38:35.481988	262.0	26.6	-90.6	5.4
2025-01-21 11:38:36.634545	261.8	26.5	-90.7	9.5
2025-01-21 11:38:37.786946	261.6	26.3	-90.6	10.7
2025-01-21 11:38:38.949138	261.4	26.2	-90.6	9.8
2025-01-21 11:38:40.095668	261.2	26.0	-90.3	10.1
2025-01-21 11:38:41.262425	261.0	25.8	-90.2	8.2
2025-01-21 11:38:42.421459	260.8	25.7	-90.2	9.5
2025-01-21 11:38:43.585114	260.7	25.5	-90.3	7.8
2025-01-21 11:38:44.741676	260.5	25.4	-90.5	7.1
2025-01-21 11:38:45.895133	260.3	25.2	-90.6	5.7
2025-01-21 11:38:47.054537	260.1	25.1	-90.5	4.2
2025-01-21 11:38:48.217118	259.9	24.9	-90.5	10.0
2025-01-21 11:38:49.368977	259.8	24.7	-90.4	8.8
2025-01-21 11:38:50.532977	259.6	24.6	-90.8	7.0
2025-01-21 11:38:51.692192	259.4	24.4	-90.6	12.4
2025-01-21 11:38:52.854746	259.2	24.3	-90.5	11.3
2025-01-21 11:38:54.011988	259.1	24.1	-90.5	8.4
2025-01-21 11:38:55.163911	258.9	24.0	-90.2	11.2
2025-01-21 11:38:56.310806	258.7	23.8	-90.0	10.1
2025-01-21 11:38:57.431854	258.6	23.7	-90.6	10.1
2025-01-21 11:38:58.574689	258.4	23.5	-90.7	8.4
2025-01-21 11:38:59.730093	258.3	23.4	-90.5	9.8
2025-01-21 11:39:00.894014	258.1	23.2	-90.5	9.0
2025-01-21 11:39:02.049010	257.9	23.1	-90.7	7.1
2025-01-21 11:39:03.206752	257.8	23.0	-90.6	7.6
2025-01-21 11:39:04.362408	257.6	22.8	-90.1	8.4
2025-01-21 11:39:05.517578	257.5	22.7	-90.5	6.2
2025-01-21 11:39:06.667654	257.3	22.5	-90.2	10.7
2025-01-21 11:39:07.824195	257.2	22.4	-90.5	11.5
2025-01-21 11:39:08.980536	257.0	22.2	-90.5	8.7
2025-01-21 11:39:10.141255	256.9	22.1	-90.2	7.4
2025-01-21 11:39:11.301036	256.7	21.9	-90.3	6.6
2025-01-21 11:39:12.455477	256.6	21.8	-90.6	8.2
2025-01-21 11:39:13.611187	256.4	21.7	-90.6	7.5
2025-01-21 11:39:14.767044	256.3	21.5	-90.9	7.3
2025-01-21 11:39:15.928702	256.2	21.4	-91.0	7.8
2025-01-21 11:39:17.086427	256.0	21.2	-90.8	6.6
2025-01-21 11:39:18.243475	255.9	21.1	-90.6	7.9
2025-01-21 11:39:19.409063	255.7	21.0	-90.6	7.8
2025-01-21 11:39:20.567672	255.6	20.8	-90.8	4.8
2025-01-21 11:39:21.726712	255.5	20.7	-90.7	8.1
2025-01-21 11:39:22.884464	255.3	20.5	-90.6	7.0
2025-01-21 11:39:24.048846	255.2	20.4	-90.6	5.0
2025-01-21 11:39:25.197996	255.1	20.3	-90.7	9.7
2025-01-21 11:39:26.358645	254.9	20.1	-90.4	8.9
2025-01-21 11:39:27.518147	254.8	20.0	-90.7	7.9
2025-01-21 11:39:28.675179	254.7	19.9	-91.0	9.7
2025-01-21 11:39:29.831310	254.5	19.7	-90.9	9.4
2025-01-21 11:39:30.989853	254.4	19.6	-90.5	8.4
2025-01-21 11:39:32.156611	254.3	19.5	-90.5	6.7
2025-01-21 11:39:33.305218	254.2	19.3	-90.6	3.9
2025-01-21 11:39:34.470416	254.1	19.2	-90.8	6.8
2025-01-21 11:39:35.632841	253.9	19.1	-90.8	5.9
2025-01-21 11:39:36.803087	253.8	18.9	-90.5	6.2
2025-01-21 11:39:37.957436	253.7	18.8	-90.8	5.0
2025-01-21 11:39:39.122320	253.6	18.7	-90.0	5.5
2025-01-21 11:39:40.281487	253.5	18.6	-90.7	10.8
2025-01-21 11:39:41.439675	253.3	18.4	-90.5	11.7
2025-01-21 11:39:42.589145	253.2	18.3	-90.8	10.8
2025-01-21 11:39:43.753947	253.1	18.2	-90.6	10.3
2025-01-21 11:39:44.909641	253.0	18.0	-90.6	10.8
2025-01-21 11:39:46.064192	252.9	17.9	-90.2	7.8
2025-01-21 11:39:47.213905	252.8	17.8	-90.2	9.6
2025-01-21 11:39:48.366855	252.7	17.7	-90.2	8.1
2025-01-21 11:39:49.526913	252.5	17.6	-90.3	7.3
2025-01-21 11:39:50.692066	252.4	17.4	-90.4	10.8
2025-01-21 11:39:51.848876	252.3	17.3	-90.4	8.3
2025-01-21 11:39:53.018023	252.2	17.2	-90.8	6.4
2025-01-21 11:39:54.174381	252.1	17.1	-90.1	6.0
2025-01-21 11:39:55.337886	252.0	16.9	-90.3	8.5
2025-01-21 11:39:56.493478	251.9	16.8	-90.9	5.7
2025-01-21 11:39:57.651590	251.8	16.7	-90.6	8.3
2025-01-21 11:39:58.809774	251.7	16.6	-90.3	11.2
2025-01-21 11:39:59.973018	251.6	16.5	-90.4	11.9
2025-01-21 11:40:01.125281	251.5	16.3	-90.8	11.8
2025-01-21 11:40:02.292114	251.4	16.2	-90.8	8.7
2025-01-21 11:40:03.453376	251.3	16.1	-90.5	9.0
2025-01-21 11:40:04.612554	251.2	16.0	-90.6	8.7
2025-01-21 11:40:05.763121	251.1	15.9	-90.7	10.2
2025-01-21 11:40:06.918873	251.0	15.7	-90.6	7.7
2025-01-21 11:40:08.079947	250.9	15.6	-90.2	7.2
2025-01-21 11:40:09.234897	250.8	15.5	-90.4	11.4
2025-01-21 11:40:10.390034	250.7	15.4	-90.4	6.3
2025-01-21 11:40:11.540815	250.6	15.3	-91.0	8.7
2025-01-21 11:40:12.699526	250.5	15.2	-90.8	12.7
2025-01-21 11:40:13.855430	250.4	15.0	-90.6	9.5
2025-01-21 11:40:15.004345	250.4	14.9	-90.6	11.9
2025-01-21 11:40:16.168354	250.3	14.8	-90.9	14.0
2025-01-21 11:40:17.327458	250.2	14.7	-90.5	12.1
2025-01-21 11:40:18.485770	250.1	14.6	-90.6	8.7
2025-01-21 11:40:19.628744	250.0	14.5	-90.3	8.9
#Closed at: 2025-01-21 11:31:48.695496