passes_logs/2025/01/21/LEX_Murmansk/LEX_Murmansk__20250121_124816_NOAA_19_rec.log

#Pass ID: 20250121_124816_NOAA 19
#Satellite: NOAA 19
#Configuration: NOAA 19
#Start time: 2025-01-21 12:48:11.508017

#LorettStation: 1.0.0 05.05.2024
#Station: LEX_Murmansk
#Location: 33.156738 lon 68.926811 lat
#TLE: 1 33591U 09005A   25020.17232911  .00000399  00000+0  23710-3 0  9996
#TLE: 2 33591  99.0187  83.9745 0014303  43.5990 316.6309 14.13263973822272

#Time	Az	El	Level	SNR
2025-01-21 12:48:23.600470	34.2	15.9	-89.7	0.7
2025-01-21 12:48:24.757413	34.0	16.0	-89.4	1.6
2025-01-21 12:48:25.908556	33.8	16.1	-89.3	2.6
2025-01-21 12:48:27.058003	33.6	16.2	-89.5	2.7
2025-01-21 12:48:28.209032	33.4	16.2	-89.3	1.8
2025-01-21 12:48:29.361578	33.2	16.3	-89.3	2.9
2025-01-21 12:48:30.511293	33.0	16.4	-90.0	2.4
2025-01-21 12:48:31.662517	32.9	16.5	-89.2	2.3
2025-01-21 12:48:32.813689	32.7	16.6	-90.0	1.7
2025-01-21 12:48:33.968220	32.5	16.7	-89.8	3.4
2025-01-21 12:48:35.119570	32.3	16.8	-89.8	2.1
2025-01-21 12:48:36.272967	32.1	16.8	-89.3	2.9
2025-01-21 12:48:37.421045	31.9	16.9	-89.8	2.4
2025-01-21 12:48:38.686224	31.7	17.0	-90.2	4.1
2025-01-21 12:48:39.834515	31.5	17.1	-90.3	1.8
2025-01-21 12:48:40.989175	31.3	17.2	-90.2	3.3
2025-01-21 12:48:42.138600	31.1	17.3	-89.7	3.9
2025-01-21 12:48:43.294236	30.9	17.4	-89.9	6.7
2025-01-21 12:48:44.438406	30.7	17.4	-90.0	7.8
2025-01-21 12:48:45.591180	30.5	17.5	-90.4	6.4
2025-01-21 12:48:46.739101	30.3	17.6	-90.1	2.3
2025-01-21 12:48:47.892259	30.1	17.7	-90.4	1.4
2025-01-21 12:48:49.046001	29.9	17.8	-90.1	4.2
2025-01-21 12:48:50.196425	29.7	17.9	-89.9	4.6
2025-01-21 12:48:51.348644	29.5	17.9	-90.0	6.8
2025-01-21 12:48:52.500415	29.2	18.0	-90.3	7.6
2025-01-21 12:48:53.664185	29.0	18.1	-90.3	5.9
2025-01-21 12:48:54.813171	28.8	18.2	-90.3	3.2
2025-01-21 12:48:55.972785	28.6	18.3	-90.0	3.1
2025-01-21 12:48:57.123196	28.4	18.4	-89.7	2.4
2025-01-21 12:48:58.275557	28.2	18.5	-89.6	1.0
2025-01-21 12:48:59.429206	28.0	18.5	-90.0	3.5
2025-01-21 12:49:00.579843	27.7	18.6	-90.1	2.8
2025-01-21 12:49:01.728735	27.5	18.7	-90.0	5.1
2025-01-21 12:49:02.876157	27.3	18.8	-90.5	2.8
2025-01-21 12:49:04.029764	27.1	18.9	-90.0	2.7
2025-01-21 12:49:05.186106	26.9	19.0	-90.0	5.3
2025-01-21 12:49:06.333898	26.6	19.0	-90.0	6.6
2025-01-21 12:49:07.492192	26.4	19.1	-90.7	6.2
2025-01-21 12:49:08.641676	26.2	19.2	-90.1	5.7
2025-01-21 12:49:09.796661	26.0	19.3	-89.5	3.4
2025-01-21 12:49:10.955291	25.7	19.4	-90.2	5.8
2025-01-21 12:49:12.103386	25.5	19.4	-90.2	7.6
2025-01-21 12:49:13.257770	25.3	19.5	-89.8	6.4
2025-01-21 12:49:14.405030	25.0	19.6	-89.5	9.0
2025-01-21 12:49:15.556790	24.8	19.7	-89.8	8.8
2025-01-21 12:49:16.709120	24.6	19.8	-89.5	5.1
2025-01-21 12:49:17.858816	24.3	19.8	-90.0	4.2
2025-01-21 12:49:19.008634	24.1	19.9	-90.0	1.3
2025-01-21 12:49:20.171297	23.8	20.0	-89.9	2.9
2025-01-21 12:49:21.321891	23.6	20.1	-89.7	2.7
2025-01-21 12:49:22.468320	23.4	20.2	-89.8	1.4
2025-01-21 12:49:23.623117	23.1	20.2	-89.9	3.2
2025-01-21 12:49:24.773429	22.9	20.3	-90.5	2.3
2025-01-21 12:49:25.931663	22.6	20.4	-90.4	3.1
2025-01-21 12:49:27.086469	22.4	20.5	-90.3	4.0
2025-01-21 12:49:28.240271	22.1	20.6	-90.0	7.5
2025-01-21 12:49:29.396542	21.9	20.6	-90.7	8.2
2025-01-21 12:49:30.550046	21.6	20.7	-89.5	7.7
2025-01-21 12:49:31.695506	21.4	20.8	-89.8	5.9
2025-01-21 12:49:32.848386	21.1	20.9	-90.3	6.9
2025-01-21 12:49:34.006216	20.9	20.9	-90.2	6.8
2025-01-21 12:49:35.156505	20.6	21.0	-89.7	3.2
2025-01-21 12:49:36.303310	20.4	21.1	-89.7	1.3
2025-01-21 12:49:37.455805	20.1	21.2	-89.9	3.8
2025-01-21 12:49:38.613210	19.9	21.2	-90.0	4.6
2025-01-21 12:49:39.772801	19.6	21.3	-90.3	4.2
2025-01-21 12:49:40.929278	19.3	21.4	-89.8	4.2
2025-01-21 12:49:42.083501	19.1	21.5	-90.3	6.9
2025-01-21 12:49:43.239743	18.8	21.5	-90.1	5.5
2025-01-21 12:49:44.398855	18.5	21.6	-90.0	3.4
2025-01-21 12:49:45.548213	18.3	21.7	-90.3	4.4
2025-01-21 12:49:46.704062	18.0	21.7	-90.2	2.6
2025-01-21 12:49:47.855257	17.7	21.8	-90.1	2.2
2025-01-21 12:49:49.014532	17.5	21.9	-90.2	2.0
2025-01-21 12:49:50.169898	17.2	22.0	-90.1	3.4
2025-01-21 12:49:51.325479	16.9	22.0	-90.1	2.5
2025-01-21 12:49:52.489113	16.6	22.1	-90.0	3.8
2025-01-21 12:49:53.639076	16.4	22.2	-90.5	5.5
2025-01-21 12:49:54.786024	16.1	22.2	-90.1	3.3
2025-01-21 12:49:55.939175	15.8	22.3	-90.2	3.3
2025-01-21 12:49:57.093715	15.5	22.4	-90.1	5.3
2025-01-21 12:49:58.248448	15.3	22.4	-90.0	6.3
2025-01-21 12:49:59.413194	15.0	22.5	-89.9	4.7
2025-01-21 12:50:00.566140	14.7	22.6	-90.2	6.3
2025-01-21 12:50:01.714099	14.4	22.6	-90.3	5.7
2025-01-21 12:50:02.860430	14.1	22.7	-90.2	4.6
2025-01-21 12:50:04.023408	13.8	22.7	-90.2	6.0
2025-01-21 12:50:05.175324	13.5	22.8	-90.4	4.5
2025-01-21 12:50:06.328362	13.3	22.9	-90.2	5.5
2025-01-21 12:50:07.480773	13.0	22.9	-90.6	5.3
2025-01-21 12:50:08.635528	12.7	23.0	-90.4	8.7
2025-01-21 12:50:09.795079	12.4	23.1	-90.7	7.7
2025-01-21 12:50:10.952001	12.1	23.1	-90.5	7.9
2025-01-21 12:50:12.102754	11.8	23.2	-90.1	9.2
2025-01-21 12:50:13.259070	11.5	23.2	-90.4	10.9
2025-01-21 12:50:14.412231	11.2	23.3	-90.2	8.7
2025-01-21 12:50:15.569443	10.9	23.3	-90.1	7.6
2025-01-21 12:50:16.719822	10.6	23.4	-90.2	5.2
2025-01-21 12:50:17.874143	10.3	23.4	-90.0	6.6
2025-01-21 12:50:19.026796	10.0	23.5	-90.4	4.4
2025-01-21 12:50:20.181396	9.7	23.6	-90.3	3.2
2025-01-21 12:50:21.337974	9.4	23.6	-90.5	3.6
2025-01-21 12:50:22.485364	9.1	23.7	-90.3	3.8
2025-01-21 12:50:23.637352	8.8	23.7	-90.1	2.6
2025-01-21 12:50:24.794551	8.5	23.8	-90.3	2.8
2025-01-21 12:50:25.952500	8.2	23.8	-90.0	4.8
2025-01-21 12:50:27.103575	7.9	23.9	-90.1	5.2
2025-01-21 12:50:28.259803	7.6	23.9	-90.1	5.4
2025-01-21 12:50:29.412787	7.3	24.0	-90.2	7.3
2025-01-21 12:50:30.571071	7.0	24.0	-90.1	9.4
2025-01-21 12:50:31.724622	6.6	24.0	-90.3	9.9
2025-01-21 12:50:32.872564	6.3	24.1	-90.5	11.9
2025-01-21 12:50:34.027098	6.0	24.1	-90.5	7.2
2025-01-21 12:50:35.184078	5.7	24.2	-90.6	7.2
2025-01-21 12:50:36.344970	5.4	24.2	-90.1	6.3
2025-01-21 12:50:37.496907	5.1	24.3	-90.4	7.7
2025-01-21 12:50:38.655796	4.8	24.3	-90.4	6.8
2025-01-21 12:50:39.803996	4.4	24.3	-90.4	5.1
2025-01-21 12:50:40.951809	4.1	24.4	-90.3	5.6
2025-01-21 12:50:42.106129	3.8	24.4	-90.0	8.8
2025-01-21 12:50:43.260017	3.5	24.4	-90.2	5.9
2025-01-21 12:50:44.415777	3.2	24.5	-90.1	5.8
2025-01-21 12:50:45.575034	2.8	24.5	-90.4	6.8
2025-01-21 12:50:46.731999	2.5	24.6	-90.5	7.7
2025-01-21 12:50:47.874532	2.2	24.6	-90.0	8.5
2025-01-21 12:50:49.012687	1.9	24.6	-90.4	10.8
2025-01-21 12:50:50.157311	1.6	24.6	-89.8	8.6
2025-01-21 12:50:51.312277	1.2	24.7	-90.2	8.1
2025-01-21 12:50:52.471027	0.9	24.7	-90.2	7.5
2025-01-21 12:50:53.626790	0.6	24.7	-89.7	9.7
2025-01-21 12:50:54.784995	0.3	24.8	-90.2	10.7
2025-01-21 12:50:55.941658	359.9	24.8	-90.0	9.7
2025-01-21 12:50:57.106339	359.6	24.8	-89.7	7.5
2025-01-21 12:50:58.261394	359.3	24.8	-90.0	5.8
2025-01-21 12:50:59.414656	359.0	24.9	-90.1	7.2
2025-01-21 12:51:00.568372	358.6	24.9	-90.5	5.8
2025-01-21 12:51:01.715879	358.3	24.9	-90.3	4.0
2025-01-21 12:51:02.861577	358.0	24.9	-90.5	2.8
2025-01-21 12:51:04.012936	357.6	24.9	-90.5	1.9
2025-01-21 12:51:05.170829	357.3	25.0	-90.3	6.8
2025-01-21 12:51:06.327426	357.0	25.0	-90.2	3.6
2025-01-21 12:51:07.479090	356.7	25.0	-90.5	4.1
2025-01-21 12:51:08.640942	356.3	25.0	-90.5	5.1
2025-01-21 12:51:09.798323	356.0	25.0	-90.4	3.4
2025-01-21 12:51:10.958808	355.7	25.0	-90.2	6.4
2025-01-21 12:51:12.110297	355.3	25.0	-90.5	5.4
2025-01-21 12:51:13.260384	355.0	25.1	-90.3	4.7
2025-01-21 12:51:14.416706	354.7	25.1	-90.3	9.3
2025-01-21 12:51:15.576449	354.3	25.1	-90.1	7.2
2025-01-21 12:51:16.724614	354.0	25.1	-90.2	5.7
2025-01-21 12:51:17.885089	353.7	25.1	-90.4	7.8
2025-01-21 12:51:19.041715	353.3	25.1	-90.4	8.4
2025-01-21 12:51:20.196786	353.0	25.1	-90.6	6.9
2025-01-21 12:51:21.358651	352.7	25.1	-90.6	7.6
2025-01-21 12:51:22.519117	352.3	25.1	-90.6	10.7
2025-01-21 12:51:23.677198	352.0	25.1	-90.5	8.3
2025-01-21 12:51:24.829671	351.7	25.1	-90.4	8.2
2025-01-21 12:51:25.981032	351.3	25.1	-90.6	12.6
2025-01-21 12:51:27.139152	351.0	25.1	-90.2	9.7
2025-01-21 12:51:28.298502	350.7	25.1	-90.2	10.6
2025-01-21 12:51:29.452438	350.3	25.1	-90.5	10.8
2025-01-21 12:51:30.611150	350.0	25.1	-90.1	9.9
2025-01-21 12:51:31.762665	349.7	25.1	-90.6	8.2
2025-01-21 12:51:32.913809	349.3	25.1	-90.3	8.5
2025-01-21 12:51:34.069565	349.0	25.1	-90.1	7.7
2025-01-21 12:51:35.235591	348.7	25.1	-90.2	6.0
2025-01-21 12:51:36.392168	348.3	25.0	-90.1	4.3
2025-01-21 12:51:37.542419	348.0	25.0	-90.7	3.5
2025-01-21 12:51:38.693596	347.7	25.0	-90.1	4.4
2025-01-21 12:51:39.852285	347.3	25.0	-89.9	2.2
2025-01-21 12:51:41.002847	347.0	25.0	-90.2	4.6
2025-01-21 12:51:42.152485	346.7	25.0	-90.3	2.8
2025-01-21 12:51:43.311481	346.3	25.0	-90.4	3.2
2025-01-21 12:51:44.470753	346.0	24.9	-90.4	4.3
2025-01-21 12:51:45.622339	345.7	24.9	-90.7	6.6
2025-01-21 12:51:46.786637	345.4	24.9	-90.3	2.4
2025-01-21 12:51:47.939650	345.0	24.9	-90.5	2.5
2025-01-21 12:51:49.094848	344.7	24.9	-90.3	4.5
2025-01-21 12:51:50.242636	344.4	24.8	-90.1	2.7
2025-01-21 12:51:51.394885	344.0	24.8	-89.9	3.2
2025-01-21 12:51:52.545180	343.7	24.8	-89.9	5.2
2025-01-21 12:51:53.700320	343.4	24.8	-90.3	3.2
2025-01-21 12:51:54.849741	343.1	24.7	-90.5	4.1
2025-01-21 12:51:56.007386	342.7	24.7	-90.3	6.5
2025-01-21 12:51:57.158078	342.4	24.7	-90.1	4.4
2025-01-21 12:51:58.318099	342.1	24.6	-89.7	1.5
2025-01-21 12:51:59.466288	341.8	24.6	-90.0	4.5
2025-01-21 12:52:00.610881	341.5	24.6	-90.2	4.1
2025-01-21 12:52:01.763830	341.1	24.5	-89.9	3.8
2025-01-21 12:52:02.916687	340.8	24.5	-89.7	3.4
2025-01-21 12:52:04.074195	340.5	24.5	-90.0	4.5
2025-01-21 12:52:05.230222	340.2	24.4	-89.7	3.1
2025-01-21 12:52:06.378530	339.9	24.4	-90.1	4.9
2025-01-21 12:52:07.532596	339.5	24.4	-90.4	5.4
2025-01-21 12:52:08.685596	339.2	24.3	-90.2	2.4
2025-01-21 12:52:09.840250	338.9	24.3	-90.1	4.4
2025-01-21 12:52:10.997673	338.6	24.3	-90.3	2.3
2025-01-21 12:52:12.148728	338.3	24.2	-89.9	4.0
2025-01-21 12:52:13.298361	338.0	24.2	-90.3	3.6
2025-01-21 12:52:14.454698	337.7	24.1	-90.6	5.1
2025-01-21 12:52:15.609548	337.3	24.1	-90.3	5.4
2025-01-21 12:52:16.764919	337.0	24.0	-90.4	3.6
2025-01-21 12:52:17.918142	336.7	24.0	-90.0	4.8
2025-01-21 12:52:19.071638	336.4	23.9	-90.4	3.7
2025-01-21 12:52:20.229781	336.1	23.9	-90.5	2.3
2025-01-21 12:52:21.384068	335.8	23.9	-90.0	4.3
2025-01-21 12:52:22.532787	335.5	23.8	-90.1	4.3
2025-01-21 12:52:23.690959	335.2	23.8	-90.3	4.0
2025-01-21 12:52:24.841991	334.9	23.7	-90.5	3.8
2025-01-21 12:52:26.001415	334.6	23.7	-90.5	5.9
2025-01-21 12:52:27.155197	334.3	23.6	-90.4	3.4
2025-01-21 12:52:28.304700	334.0	23.5	-90.1	4.0
2025-01-21 12:52:29.460262	333.7	23.5	-90.2	5.4
2025-01-21 12:52:30.616717	333.4	23.4	-90.6	6.2
2025-01-21 12:52:31.769000	333.1	23.4	-90.3	3.5
2025-01-21 12:52:32.920047	332.8	23.3	-90.5	5.6
2025-01-21 12:52:34.068780	332.5	23.3	-89.9	5.3
2025-01-21 12:52:35.220490	332.2	23.2	-90.5	2.8
2025-01-21 12:52:36.378310	331.9	23.2	-90.1	2.9
2025-01-21 12:52:37.536157	331.6	23.1	-90.0	2.1
2025-01-21 12:52:38.695326	331.3	23.0	-90.3	1.7
2025-01-21 12:52:39.848648	331.0	23.0	-90.3	2.8
2025-01-21 12:52:41.003698	330.7	22.9	-90.3	4.6
2025-01-21 12:52:42.153212	330.4	22.9	-90.3	5.2
2025-01-21 12:52:43.303658	330.1	22.8	-90.2	3.0
2025-01-21 12:52:44.454682	329.9	22.7	-90.2	2.7
2025-01-21 12:52:45.604090	329.6	22.7	-90.2	3.2
2025-01-21 12:52:46.768064	329.3	22.6	-90.4	1.5
2025-01-21 12:52:47.916094	329.0	22.5	-90.4	3.7
2025-01-21 12:52:49.063293	328.7	22.5	-89.9	3.1
2025-01-21 12:52:50.213771	328.4	22.4	-89.8	2.3
2025-01-21 12:52:51.370428	328.2	22.4	-90.0	1.7
2025-01-21 12:52:52.520095	327.9	22.3	-90.5	0.9
2025-01-21 12:52:53.678133	327.6	22.2	-90.4	4.1
2025-01-21 12:52:54.834406	327.3	22.2	-90.5	1.9
2025-01-21 12:52:55.986281	327.1	22.1	-90.7	3.8
2025-01-21 12:52:57.136282	326.8	22.0	-90.1	2.2
2025-01-21 12:52:58.293288	326.5	21.9	-90.3	2.2
2025-01-21 12:52:59.451746	326.2	21.9	-90.1	4.9
2025-01-21 12:53:00.607161	326.0	21.8	-90.4	3.7
2025-01-21 12:53:01.755881	325.7	21.7	-90.3	3.0
2025-01-21 12:53:02.904501	325.4	21.7	-90.4	3.6
2025-01-21 12:53:04.059827	325.2	21.6	-90.4	3.4
2025-01-21 12:53:05.213266	324.9	21.5	-90.4	3.0
2025-01-21 12:53:06.368851	324.6	21.5	-90.4	1.4
2025-01-21 12:53:07.523694	324.4	21.4	-90.4	5.1
2025-01-21 12:53:08.673564	324.1	21.3	-90.5	3.1
2025-01-21 12:53:09.824069	323.9	21.2	-90.3	2.4
2025-01-21 12:53:10.976691	323.6	21.2	-90.7	3.2
2025-01-21 12:53:12.134078	323.4	21.1	-89.9	1.4
2025-01-21 12:53:13.289132	323.1	21.0	-90.5	1.6
2025-01-21 12:53:14.446595	322.8	20.9	-90.7	4.0
2025-01-21 12:53:15.604292	322.6	20.9	-90.3	3.6
2025-01-21 12:53:16.766967	322.3	20.8	-90.5	1.4
2025-01-21 12:53:17.918772	322.1	20.7	-90.2	3.7
2025-01-21 12:53:19.063072	321.8	20.6	-90.3	1.8
2025-01-21 12:53:20.210871	321.6	20.6	-90.0	0.2
2025-01-21 12:53:21.367902	321.3	20.5	-90.5	2.0
2025-01-21 12:53:22.528441	321.1	20.4	-90.8	3.9
2025-01-21 12:53:23.679752	320.8	20.3	-90.2	2.8
2025-01-21 12:53:24.837154	320.6	20.2	-90.1	2.4
2025-01-21 12:53:25.990369	320.4	20.2	-90.7	0.8
2025-01-21 12:53:27.141378	320.1	20.1	-90.5	2.0
2025-01-21 12:53:28.292209	319.9	20.0	-90.4	1.8
2025-01-21 12:53:29.442896	319.6	19.9	-90.6	1.2
2025-01-21 12:53:30.597263	319.4	19.8	-90.2	1.7
2025-01-21 12:53:31.755199	319.2	19.8	-90.2	0.3
2025-01-21 12:53:32.908637	318.9	19.7	-90.1	2.4
2025-01-21 12:53:34.065821	318.7	19.6	-90.3	3.1
2025-01-21 12:53:35.217127	318.5	19.5	-90.5	0.8
2025-01-21 12:53:36.375662	318.2	19.4	-90.5	4.7
2025-01-21 12:53:37.533012	318.0	19.4	-90.6	4.8
2025-01-21 12:53:38.684677	317.8	19.3	-90.9	4.5
2025-01-21 12:53:39.835786	317.6	19.2	-90.5	3.5
2025-01-21 12:53:40.996559	317.3	19.1	-90.4	2.5
2025-01-21 12:53:42.147139	317.1	19.0	-90.2	3.9
2025-01-21 12:53:43.300319	316.9	19.0	-90.2	3.4
2025-01-21 12:53:44.454698	316.7	18.9	-90.6	3.7
2025-01-21 12:53:45.618378	316.4	18.8	-90.6	5.2
2025-01-21 12:53:46.765804	316.2	18.7	-90.1	4.8
2025-01-21 12:53:47.926559	316.0	18.6	-90.2	7.5
2025-01-21 12:53:49.073898	315.8	18.5	-89.7	3.0
2025-01-21 12:53:50.232583	315.6	18.5	-90.0	3.9
2025-01-21 12:53:51.381885	315.3	18.4	-89.3	3.7
2025-01-21 12:53:52.532074	315.1	18.3	-90.0	3.3
2025-01-21 12:53:53.685111	314.9	18.2	-89.9	4.1
2025-01-21 12:53:54.838299	314.7	18.1	-90.4	3.4
2025-01-21 12:53:55.991388	314.5	18.0	-90.4	3.1
2025-01-21 12:53:57.142304	314.3	18.0	-90.7	4.3
2025-01-21 12:53:58.295784	314.1	17.9	-90.2	3.8
2025-01-21 12:53:59.442381	313.9	17.8	-90.5	4.9
2025-01-21 12:54:00.598659	313.7	17.7	-90.5	2.8
2025-01-21 12:54:01.747908	313.5	17.6	-90.8	4.4
2025-01-21 12:54:02.898649	313.3	17.5	-90.5	4.3
2025-01-21 12:54:04.052651	313.1	17.4	-90.5	3.1
2025-01-21 12:54:05.207931	312.9	17.4	-90.5	3.1
2025-01-21 12:54:06.356736	312.7	17.3	-90.6	3.0
2025-01-21 12:54:07.512025	312.5	17.2	-90.7	3.3
2025-01-21 12:54:08.665148	312.3	17.1	-90.9	2.0
2025-01-21 12:54:09.819522	312.1	17.0	-90.4	2.4
2025-01-21 12:54:10.971356	311.9	16.9	-90.3	0.2
2025-01-21 12:54:12.122484	311.7	16.9	-90.3	5.4
2025-01-21 12:54:13.267489	311.5	16.8	-90.2	6.3
2025-01-21 12:54:14.421665	311.3	16.7	-90.7	5.3
2025-01-21 12:54:15.566804	311.1	16.6	-90.7	6.9
2025-01-21 12:54:16.725650	310.9	16.5	-90.6	4.6
2025-01-21 12:54:17.880097	310.7	16.4	-90.6	5.8
2025-01-21 12:54:19.033257	310.5	16.3	-90.6	8.5
2025-01-21 12:54:20.182260	310.4	16.3	-90.5	7.6
2025-01-21 12:54:21.333905	310.2	16.2	-90.1	5.5
2025-01-21 12:54:22.492603	310.0	16.1	-90.5	8.0
2025-01-21 12:54:23.643192	309.8	16.0	-90.6	6.4
2025-01-21 12:54:24.797731	309.6	15.9	-90.4	3.7
2025-01-21 12:54:25.954794	309.4	15.8	-90.6	5.6
2025-01-21 12:54:27.116752	309.3	15.7	-90.4	4.8
2025-01-21 12:54:28.272111	309.1	15.7	-90.0	2.4
2025-01-21 12:54:29.429145	308.9	15.6	-90.5	1.9
2025-01-21 12:54:30.588335	308.7	15.5	-90.9	3.3
2025-01-21 12:54:31.745114	308.5	15.4	-90.7	2.3
2025-01-21 12:54:32.895434	308.4	15.3	-90.8	4.3
2025-01-21 12:54:34.056418	308.2	15.2	-90.6	3.9
2025-01-21 12:54:35.212638	308.0	15.1	-90.3	1.7
2025-01-21 12:54:36.370598	307.8	15.1	-90.5	4.2
2025-01-21 12:54:37.524189	307.7	15.0	-90.6	3.2
2025-01-21 12:54:38.676332	307.5	14.9	-90.4	3.5
2025-01-21 12:54:39.829684	307.3	14.8	-90.7	1.9
2025-01-21 12:54:40.985278	307.2	14.7	-90.8	5.1
2025-01-21 12:54:42.140681	307.0	14.6	-90.6	7.3
#Closed at: 2025-01-21 12:48:16.423467