passes_logs/2025/01/21/LEX_Murmansk/LEX_Murmansk__20250121_160627_NOAA_19_rec.log

#Pass ID: 20250121_160627_NOAA 19
#Satellite: NOAA 19
#Configuration: NOAA 19
#Start time: 2025-01-21 16:06:22.209633

#LorettStation: 1.0.0 05.05.2024
#Station: LEX_Murmansk
#Location: 33.156738 lon 68.926811 lat
#TLE: 1 33591U 09005A   25021.16349212  .00000417  00000+0  24660-3 0  9995
#TLE: 2 33591  99.0186  84.9732 0014271  40.9333 319.2908 14.13264918822414

#Time	Az	El	Level	SNR
2025-01-21 16:06:34.399132	104.1	16.2	-89.8	5.3
2025-01-21 16:06:35.560296	104.0	16.3	-89.9	6.9
2025-01-21 16:06:36.718138	103.9	16.4	-88.7	4.3
2025-01-21 16:06:37.865446	103.8	16.6	-89.3	5.7
2025-01-21 16:06:39.028801	103.7	16.7	-89.4	1.3
2025-01-21 16:06:40.193282	103.6	16.8	-89.7	2.7
2025-01-21 16:06:41.349700	103.5	16.9	-89.4	2.8
2025-01-21 16:06:42.518260	103.4	17.0	-89.2	2.7
2025-01-21 16:06:43.683351	103.3	17.2	-89.0	3.8
2025-01-21 16:06:44.845719	103.1	17.3	-89.1	2.8
2025-01-21 16:06:46.008199	103.0	17.4	-89.5	2.7
2025-01-21 16:06:47.165292	102.9	17.5	-89.4	5.1
2025-01-21 16:06:48.327900	102.8	17.6	-89.2	3.5
2025-01-21 16:06:49.502977	102.7	17.8	-89.7	2.9
2025-01-21 16:06:50.661822	102.5	17.9	-89.8	3.4
2025-01-21 16:06:51.826087	102.4	18.0	-89.2	3.9
2025-01-21 16:06:52.984352	102.3	18.1	-89.7	3.3
2025-01-21 16:06:54.148475	102.2	18.3	-89.7	4.0
2025-01-21 16:06:55.311219	102.1	18.4	-90.0	3.6
2025-01-21 16:06:56.476751	101.9	18.5	-90.2	2.3
2025-01-21 16:06:57.633148	101.8	18.6	-90.5	3.8
2025-01-21 16:06:58.901115	101.7	18.8	-90.0	4.8
2025-01-21 16:07:00.066172	101.5	18.9	-89.9	1.2
2025-01-21 16:07:01.216977	101.4	19.0	-90.1	3.1
2025-01-21 16:07:02.376358	101.3	19.2	-90.4	6.9
2025-01-21 16:07:03.540415	101.1	19.3	-90.1	9.7
2025-01-21 16:07:04.702186	101.0	19.4	-89.9	6.8
2025-01-21 16:07:05.869143	100.9	19.6	-90.3	7.7
2025-01-21 16:07:07.027222	100.7	19.7	-90.5	6.4
2025-01-21 16:07:08.189441	100.6	19.8	-90.3	6.1
2025-01-21 16:07:09.350836	100.5	19.9	-90.3	8.4
2025-01-21 16:07:10.505207	100.3	20.1	-90.0	10.3
2025-01-21 16:07:11.662767	100.2	20.2	-90.5	11.3
2025-01-21 16:07:12.828680	100.0	20.3	-90.4	7.5
2025-01-21 16:07:13.994749	99.9	20.5	-90.3	3.8
2025-01-21 16:07:15.157793	99.7	20.6	-90.0	1.3
2025-01-21 16:07:16.317048	99.6	20.7	-89.9	3.5
2025-01-21 16:07:17.480359	99.5	20.9	-90.2	2.6
2025-01-21 16:07:18.644585	99.3	21.0	-90.0	5.8
2025-01-21 16:07:19.801553	99.2	21.2	-90.2	8.7
2025-01-21 16:07:20.957809	99.0	21.3	-90.3	9.8
2025-01-21 16:07:22.114723	98.9	21.4	-89.8	8.7
2025-01-21 16:07:23.274022	98.7	21.6	-89.8	5.8
2025-01-21 16:07:24.440959	98.5	21.7	-90.1	8.5
2025-01-21 16:07:25.605741	98.4	21.8	-90.0	8.2
2025-01-21 16:07:26.765453	98.2	22.0	-90.2	7.0
2025-01-21 16:07:27.929761	98.1	22.1	-90.4	8.6
2025-01-21 16:07:29.088538	97.9	22.3	-90.1	10.9
2025-01-21 16:07:30.252443	97.7	22.4	-90.1	6.7
2025-01-21 16:07:31.418091	97.6	22.5	-90.0	4.2
2025-01-21 16:07:32.574762	97.4	22.7	-90.3	2.5
2025-01-21 16:07:33.738337	97.2	22.8	-89.9	2.9
2025-01-21 16:07:34.892686	97.1	23.0	-90.3	1.6
2025-01-21 16:07:36.050342	96.9	23.1	-89.9	2.2
2025-01-21 16:07:37.211860	96.7	23.3	-90.1	2.7
2025-01-21 16:07:38.369716	96.6	23.4	-90.1	2.1
2025-01-21 16:07:39.533036	96.4	23.5	-90.3	5.9
2025-01-21 16:07:40.696517	96.2	23.7	-90.3	5.6
2025-01-21 16:07:41.861201	96.0	23.8	-90.0	2.4
2025-01-21 16:07:43.030470	95.9	24.0	-90.3	4.0
2025-01-21 16:07:44.196951	95.7	24.1	-90.5	1.5
2025-01-21 16:07:45.355004	95.5	24.3	-90.2	2.5
2025-01-21 16:07:46.523662	95.3	24.4	-90.2	3.1
2025-01-21 16:07:47.688279	95.1	24.6	-90.3	5.1
2025-01-21 16:07:48.851029	94.9	24.7	-89.7	3.2
2025-01-21 16:07:50.013047	94.7	24.9	-89.4	3.3
2025-01-21 16:07:51.174103	94.5	25.0	-88.9	0.3
2025-01-21 16:07:52.330945	94.3	25.2	-89.4	2.9
2025-01-21 16:07:53.496238	94.2	25.3	-89.4	1.9
2025-01-21 16:07:54.656455	94.0	25.5	-89.7	1.8
2025-01-21 16:07:55.820919	93.8	25.6	-90.0	4.1
2025-01-21 16:07:56.986261	93.6	25.8	-90.2	5.6
2025-01-21 16:07:58.153265	93.3	25.9	-90.3	5.4
2025-01-21 16:07:59.319859	93.1	26.1	-90.3	3.5
2025-01-21 16:08:00.478173	92.9	26.2	-90.8	3.9
2025-01-21 16:08:01.641543	92.7	26.4	-90.2	6.2
2025-01-21 16:08:02.803246	92.5	26.5	-90.0	1.4
2025-01-21 16:08:03.968041	92.3	26.7	-90.2	4.3
2025-01-21 16:08:05.135784	92.1	26.9	-89.9	3.8
2025-01-21 16:08:06.299385	91.9	27.0	-90.1	6.5
2025-01-21 16:08:07.461920	91.6	27.2	-90.4	5.5
2025-01-21 16:08:08.620900	91.4	27.3	-89.9	2.3
2025-01-21 16:08:09.783793	91.2	27.5	-90.3	3.3
2025-01-21 16:08:10.944360	91.0	27.6	-90.3	0.9
2025-01-21 16:08:12.108767	90.7	27.8	-90.2	0.7
2025-01-21 16:08:13.266990	90.5	28.0	-90.4	2.7
2025-01-21 16:08:14.432039	90.3	28.1	-90.2	2.5
2025-01-21 16:08:15.594338	90.0	28.3	-90.3	2.2
2025-01-21 16:08:16.758392	89.8	28.4	-90.2	4.9
2025-01-21 16:08:17.920346	89.5	28.6	-90.1	10.0
2025-01-21 16:08:19.081797	89.3	28.8	-89.9	12.4
2025-01-21 16:08:20.244670	89.1	28.9	-90.0	5.0
2025-01-21 16:08:21.403302	88.8	29.1	-90.6	8.8
2025-01-21 16:08:22.564367	88.6	29.2	-90.6	9.2
2025-01-21 16:08:23.729308	88.3	29.4	-90.4	7.2
2025-01-21 16:08:24.890556	88.0	29.6	-90.2	13.0
2025-01-21 16:08:26.048290	87.8	29.7	-90.0	11.8
2025-01-21 16:08:27.217061	87.5	29.9	-90.2	10.4
2025-01-21 16:08:28.376293	87.3	30.0	-90.1	12.8
2025-01-21 16:08:29.537347	87.0	30.2	-90.4	10.1
2025-01-21 16:08:30.698807	86.7	30.4	-90.4	5.7
2025-01-21 16:08:31.859443	86.5	30.5	-90.3	5.8
2025-01-21 16:08:33.020632	86.2	30.7	-90.2	5.3
2025-01-21 16:08:34.192156	85.9	30.9	-90.1	1.3
2025-01-21 16:08:35.358285	85.6	31.0	-89.8	4.7
2025-01-21 16:08:36.517405	85.3	31.2	-90.7	7.7
2025-01-21 16:08:37.679495	85.0	31.3	-90.5	6.7
2025-01-21 16:08:38.844835	84.8	31.5	-90.3	14.9
2025-01-21 16:08:40.012530	84.5	31.7	-90.6	10.4
2025-01-21 16:08:41.173395	84.2	31.8	-90.3	13.0
2025-01-21 16:08:42.343390	83.9	32.0	-90.1	7.8
2025-01-21 16:08:43.508891	83.6	32.2	-90.5	11.5
2025-01-21 16:08:44.656843	83.3	32.3	-90.4	7.9
2025-01-21 16:08:45.819632	83.0	32.5	-90.0	5.4
2025-01-21 16:08:46.981881	82.6	32.7	-90.0	12.1
2025-01-21 16:08:48.143163	82.3	32.8	-90.4	10.3
2025-01-21 16:08:49.302286	82.0	33.0	-90.2	16.2
2025-01-21 16:08:50.469248	81.7	33.1	-90.6	14.4
2025-01-21 16:08:51.627957	81.4	33.3	-90.6	9.5
2025-01-21 16:08:52.788354	81.0	33.5	-90.6	7.4
2025-01-21 16:08:53.947741	80.7	33.6	-90.4	5.6
2025-01-21 16:08:55.109039	80.4	33.8	-90.3	5.7
2025-01-21 16:08:56.274973	80.0	33.9	-90.2	4.2
2025-01-21 16:08:57.439520	79.7	34.1	-90.2	5.6
2025-01-21 16:08:58.603927	79.4	34.3	-90.2	10.3
2025-01-21 16:08:59.763611	79.0	34.4	-90.3	9.7
2025-01-21 16:09:00.927943	78.7	34.6	-90.2	12.2
2025-01-21 16:09:02.082512	78.3	34.8	-90.0	14.7
2025-01-21 16:09:03.248207	78.0	34.9	-89.8	14.8
2025-01-21 16:09:04.405423	77.6	35.1	-90.3	12.8
2025-01-21 16:09:05.570845	77.2	35.2	-90.2	11.7
2025-01-21 16:09:06.733441	76.9	35.4	-90.1	8.5
2025-01-21 16:09:07.892713	76.5	35.5	-90.4	9.1
2025-01-21 16:09:09.053235	76.1	35.7	-90.6	12.3
2025-01-21 16:09:10.208762	75.7	35.9	-90.2	10.0
2025-01-21 16:09:11.367320	75.4	36.0	-90.3	13.6
2025-01-21 16:09:12.536616	75.0	36.2	-90.5	16.5
2025-01-21 16:09:13.699204	74.6	36.3	-90.3	15.2
2025-01-21 16:09:14.862180	74.2	36.5	-90.4	13.4
2025-01-21 16:09:16.027800	73.8	36.6	-90.1	14.7
2025-01-21 16:09:17.188469	73.4	36.8	-90.2	10.9
2025-01-21 16:09:18.352715	73.0	36.9	-90.1	8.6
2025-01-21 16:09:19.514158	72.6	37.1	-90.4	7.9
2025-01-21 16:09:20.678918	72.2	37.2	-90.3	4.9
2025-01-21 16:09:21.831653	71.7	37.4	-90.1	2.5
2025-01-21 16:09:22.996207	71.3	37.5	-90.0	4.3
2025-01-21 16:09:24.154207	70.9	37.7	-90.2	4.8
2025-01-21 16:09:25.329583	70.5	37.8	-90.6	5.7
2025-01-21 16:09:26.492286	70.0	37.9	-90.3	11.4
2025-01-21 16:09:27.653651	69.6	38.1	-90.7	13.1
2025-01-21 16:09:28.813075	69.2	38.2	-90.4	16.4
2025-01-21 16:09:29.983753	68.7	38.4	-90.5	17.0
2025-01-21 16:09:31.151106	68.3	38.5	-90.5	15.3
2025-01-21 16:09:32.310996	67.8	38.6	-90.4	15.8
2025-01-21 16:09:33.467151	67.4	38.8	-90.4	12.2
2025-01-21 16:09:34.629023	66.9	38.9	-90.0	11.2
2025-01-21 16:09:35.791856	66.5	39.0	-90.4	8.0
2025-01-21 16:09:36.953784	66.0	39.2	-89.9	8.0
2025-01-21 16:09:38.109420	65.5	39.3	-89.4	9.6
2025-01-21 16:09:39.250208	65.1	39.4	-89.4	6.9
2025-01-21 16:09:40.423289	64.6	39.5	-89.8	11.9
2025-01-21 16:09:41.577686	64.1	39.7	-89.4	11.9
2025-01-21 16:09:42.720466	63.6	39.8	-90.0	18.0
2025-01-21 16:09:43.883991	63.1	39.9	-89.7	13.3
2025-01-21 16:09:45.043612	62.7	40.0	-89.9	16.7
2025-01-21 16:09:46.207685	62.2	40.1	-90.1	14.2
2025-01-21 16:09:47.367066	61.7	40.2	-90.4	14.1
2025-01-21 16:09:48.527285	61.2	40.4	-90.5	12.4
2025-01-21 16:09:49.694755	60.7	40.5	-90.4	9.6
2025-01-21 16:09:50.857425	60.2	40.6	-90.2	6.4
2025-01-21 16:09:52.018089	59.6	40.7	-90.1	7.0
2025-01-21 16:09:53.192255	59.1	40.8	-90.2	4.5
2025-01-21 16:09:54.356248	58.6	40.9	-90.3	5.7
2025-01-21 16:09:55.518216	58.1	41.0	-90.2	8.5
2025-01-21 16:09:56.674208	57.6	41.1	-90.1	5.1
2025-01-21 16:09:57.839352	57.0	41.2	-90.4	5.8
2025-01-21 16:09:59.000874	56.5	41.2	-90.4	11.9
2025-01-21 16:10:00.160327	56.0	41.3	-90.2	12.5
2025-01-21 16:10:01.317166	55.5	41.4	-90.1	11.5
2025-01-21 16:10:02.479551	54.9	41.5	-90.0	13.4
2025-01-21 16:10:03.636443	54.4	41.6	-90.3	15.0
2025-01-21 16:10:04.800192	53.8	41.6	-90.2	14.4
2025-01-21 16:10:05.965619	53.3	41.7	-90.4	13.7
2025-01-21 16:10:07.124407	52.7	41.8	-89.1	17.2
2025-01-21 16:10:08.280169	52.2	41.9	-89.4	14.6
2025-01-21 16:10:09.445246	51.6	41.9	-89.6	14.0
2025-01-21 16:10:10.610011	51.1	42.0	-89.9	13.7
2025-01-21 16:10:11.766694	50.5	42.0	-90.0	10.1
2025-01-21 16:10:12.930872	50.0	42.1	-89.9	11.0
2025-01-21 16:10:14.092853	49.4	42.2	-90.3	11.0
2025-01-21 16:10:15.256645	48.9	42.2	-90.1	5.7
2025-01-21 16:10:16.420271	48.3	42.2	-90.3	8.4
2025-01-21 16:10:17.584445	47.7	42.3	-90.3	9.3
2025-01-21 16:10:18.744565	47.2	42.3	-89.9	6.7
2025-01-21 16:10:19.905246	46.6	42.4	-90.1	6.5
2025-01-21 16:10:21.067543	46.0	42.4	-89.9	11.1
2025-01-21 16:10:22.226981	45.5	42.4	-89.9	9.8
2025-01-21 16:10:23.391274	44.9	42.5	-90.2	13.5
2025-01-21 16:10:24.553997	44.3	42.5	-90.1	13.0
2025-01-21 16:10:25.679885	43.8	42.5	-90.4	13.6
2025-01-21 16:10:26.801252	43.2	42.5	-89.9	13.1
2025-01-21 16:10:27.921910	42.6	42.5	-90.4	16.5
2025-01-21 16:10:29.042621	42.1	42.5	-90.1	19.8
2025-01-21 16:10:30.162331	41.5	42.6	-90.2	18.8
2025-01-21 16:10:31.283005	41.0	42.6	-90.1	18.0
2025-01-21 16:10:32.404048	40.4	42.6	-90.2	18.4
2025-01-21 16:10:33.529172	39.9	42.6	-90.4	17.4
2025-01-21 16:10:34.653273	39.3	42.6	-90.4	15.0
2025-01-21 16:10:35.803347	38.8	42.6	-90.4	13.7
2025-01-21 16:10:36.962066	38.2	42.5	-89.9	11.3
2025-01-21 16:10:38.113449	37.6	42.5	-89.8	13.1
2025-01-21 16:10:39.270571	37.0	42.5	-89.8	11.8
2025-01-21 16:10:40.422408	36.5	42.5	-90.1	10.7
2025-01-21 16:10:41.579749	35.9	42.5	-90.1	11.3
2025-01-21 16:10:42.742264	35.3	42.4	-90.4	7.7
2025-01-21 16:10:43.906389	34.8	42.4	-90.4	7.6
2025-01-21 16:10:45.069057	34.2	42.4	-90.1	9.3
2025-01-21 16:10:46.232306	33.6	42.3	-90.3	6.5
2025-01-21 16:10:47.396431	33.1	42.3	-90.4	5.0
2025-01-21 16:10:48.559083	32.5	42.3	-90.8	8.7
2025-01-21 16:10:49.722224	31.9	42.2	-90.2	5.0
2025-01-21 16:10:50.881461	31.4	42.2	-90.4	5.8
2025-01-21 16:10:52.037662	30.8	42.1	-90.0	8.0
2025-01-21 16:10:53.197455	30.3	42.1	-90.1	4.0
2025-01-21 16:10:54.360453	29.7	42.0	-90.5	5.1
2025-01-21 16:10:55.531418	29.1	41.9	-90.5	7.2
2025-01-21 16:10:56.694277	28.6	41.9	-90.4	4.7
2025-01-21 16:10:57.855558	28.0	41.8	-90.4	4.9
2025-01-21 16:10:59.021903	27.5	41.8	-90.3	7.5
2025-01-21 16:11:00.181856	26.9	41.7	-90.1	4.6
2025-01-21 16:11:01.345203	26.4	41.6	-90.2	4.0
2025-01-21 16:11:02.501900	25.9	41.5	-90.3	6.2
2025-01-21 16:11:03.666323	25.3	41.4	-90.0	4.8
2025-01-21 16:11:04.828852	24.8	41.4	-90.5	4.6
2025-01-21 16:11:05.993241	24.3	41.3	-91.0	6.5
2025-01-21 16:11:07.154522	23.7	41.2	-90.5	5.7
2025-01-21 16:11:08.318817	23.2	41.1	-90.9	5.5
2025-01-21 16:11:09.482609	22.7	41.0	-90.8	7.8
2025-01-21 16:11:10.646030	22.2	40.9	-90.9	6.6
2025-01-21 16:11:11.802879	21.6	40.8	-90.9	5.6
2025-01-21 16:11:12.963088	21.1	40.7	-90.9	5.6
2025-01-21 16:11:14.125157	20.6	40.6	-90.7	9.8
2025-01-21 16:11:15.284028	20.1	40.5	-90.6	4.0
2025-01-21 16:11:16.447711	19.6	40.4	-90.8	5.8
2025-01-21 16:11:17.611593	19.1	40.3	-90.6	7.1
2025-01-21 16:11:18.766165	18.6	40.2	-90.9	5.6
2025-01-21 16:11:19.933994	18.1	40.1	-90.7	7.8
2025-01-21 16:11:21.093949	17.6	40.0	-91.0	6.0
2025-01-21 16:11:22.255120	17.1	39.8	-90.5	3.4
2025-01-21 16:11:23.414752	16.7	39.7	-90.9	5.6
2025-01-21 16:11:24.575181	16.2	39.6	-90.6	7.0
2025-01-21 16:11:25.727343	15.7	39.5	-91.0	4.0
2025-01-21 16:11:26.892772	15.2	39.3	-90.7	5.9
2025-01-21 16:11:28.055162	14.8	39.2	-90.7	6.5
2025-01-21 16:11:29.219549	14.3	39.1	-90.5	2.4
2025-01-21 16:11:30.384001	13.8	39.0	-90.9	3.1
2025-01-21 16:11:31.545479	13.4	38.8	-91.0	6.0
2025-01-21 16:11:32.709160	12.9	38.7	-90.9	6.4
2025-01-21 16:11:33.873772	12.5	38.6	-91.1	6.1
2025-01-21 16:11:35.042833	12.0	38.4	-90.8	7.0
2025-01-21 16:11:36.203446	11.6	38.3	-90.9	6.1
2025-01-21 16:11:37.366023	11.2	38.2	-90.7	7.6
2025-01-21 16:11:38.533797	10.7	38.0	-90.9	6.8
2025-01-21 16:11:39.691904	10.3	37.9	-91.1	4.2
2025-01-21 16:11:40.849077	9.9	37.7	-91.1	6.1
2025-01-21 16:11:42.010331	9.4	37.6	-91.1	9.0
2025-01-21 16:11:43.175398	9.0	37.4	-90.9	7.6
2025-01-21 16:11:44.331056	8.6	37.3	-91.1	5.4
2025-01-21 16:11:45.492136	8.2	37.1	-90.7	8.8
2025-01-21 16:11:46.657537	7.8	37.0	-90.7	8.8
2025-01-21 16:11:47.815625	7.4	36.8	-90.8	10.5
2025-01-21 16:11:48.979166	7.0	36.7	-90.5	10.1
2025-01-21 16:11:50.141250	6.6	36.5	-90.5	10.0
2025-01-21 16:11:51.301468	6.2	36.4	-90.2	11.9
2025-01-21 16:11:52.479353	5.8	36.2	-90.7	14.3
2025-01-21 16:11:53.638709	5.4	36.1	-90.7	15.1
2025-01-21 16:11:54.801953	5.0	35.9	-91.1	13.3
2025-01-21 16:11:55.963554	4.6	35.8	-90.6	12.7
2025-01-21 16:11:57.125591	4.3	35.6	-90.7	12.1
2025-01-21 16:11:58.285045	3.9	35.5	-90.4	11.0
2025-01-21 16:11:59.442637	3.5	35.3	-90.6	12.2
2025-01-21 16:12:00.596415	3.2	35.2	-90.8	13.5
2025-01-21 16:12:01.761470	2.8	35.0	-90.9	9.9
2025-01-21 16:12:02.919310	2.5	34.8	-90.9	12.7
2025-01-21 16:12:04.082143	2.1	34.7	-90.6	9.2
2025-01-21 16:12:05.243971	1.7	34.5	-90.6	5.4
2025-01-21 16:12:06.403597	1.4	34.4	-90.8	2.3
2025-01-21 16:12:07.567731	1.1	34.2	-90.6	5.2
2025-01-21 16:12:08.728149	0.7	34.0	-90.5	4.3
2025-01-21 16:12:09.890779	0.4	33.9	-90.7	4.0
2025-01-21 16:12:11.047857	0.1	33.7	-90.6	7.0
2025-01-21 16:12:12.204487	359.7	33.6	-90.5	1.7
2025-01-21 16:12:13.362731	359.4	33.4	-90.5	7.2
2025-01-21 16:12:14.518028	359.1	33.2	-90.4	5.0
2025-01-21 16:12:15.679479	358.8	33.1	-90.7	4.1
2025-01-21 16:12:16.847530	358.4	32.9	-90.8	2.2
2025-01-21 16:12:18.009260	358.1	32.8	-90.8	6.1
2025-01-21 16:12:19.165787	357.8	32.6	-90.3	3.3
2025-01-21 16:12:20.328839	357.5	32.4	-90.4	2.0
2025-01-21 16:12:21.491692	357.2	32.3	-90.5	5.1
2025-01-21 16:12:22.645123	356.9	32.1	-90.0	4.2
2025-01-21 16:12:23.804276	356.6	31.9	-90.6	4.8
2025-01-21 16:12:24.965035	356.3	31.8	-90.6	6.8
2025-01-21 16:12:26.120423	356.0	31.6	-90.4	7.1
2025-01-21 16:12:27.284189	355.7	31.5	-90.0	9.4
2025-01-21 16:12:28.442928	355.4	31.3	-90.1	6.0
2025-01-21 16:12:29.603966	355.2	31.1	-90.2	5.5
2025-01-21 16:12:30.771699	354.9	31.0	-90.2	3.9
2025-01-21 16:12:31.927314	354.6	30.8	-90.1	3.2
2025-01-21 16:12:33.088895	354.3	30.6	-90.6	4.3
2025-01-21 16:12:34.245736	354.1	30.5	-90.0	3.9
2025-01-21 16:12:35.408894	353.8	30.3	-89.8	4.4
2025-01-21 16:12:36.573644	353.5	30.2	-90.8	6.3
2025-01-21 16:12:37.727489	353.3	30.0	-90.5	3.6
2025-01-21 16:12:38.902123	353.0	29.8	-90.7	3.1
2025-01-21 16:12:40.067234	352.7	29.7	-90.0	3.5
2025-01-21 16:12:41.330467	352.4	29.5	-90.7	3.7
2025-01-21 16:12:42.492672	352.2	29.3	-90.3	2.3
2025-01-21 16:12:43.658965	351.9	29.2	-90.7	3.2
2025-01-21 16:12:44.834487	351.7	29.0	-90.7	3.4
2025-01-21 16:12:45.999358	351.4	28.9	-90.8	4.4
2025-01-21 16:12:47.161045	351.2	28.7	-90.6	5.3
2025-01-21 16:12:48.318833	351.0	28.5	-90.7	4.2
2025-01-21 16:12:49.477378	350.7	28.4	-90.7	5.4
2025-01-21 16:12:50.644410	350.5	28.2	-90.8	4.3
2025-01-21 16:12:51.807727	350.3	28.1	-90.7	4.8
2025-01-21 16:12:52.965139	350.0	27.9	-90.8	6.9
2025-01-21 16:12:54.125705	349.8	27.8	-90.5	5.5
2025-01-21 16:12:55.281850	349.6	27.6	-90.5	3.7
2025-01-21 16:12:56.447244	349.3	27.4	-90.8	5.1
2025-01-21 16:12:57.610078	349.1	27.3	-90.4	2.4
2025-01-21 16:12:58.775694	348.9	27.1	-90.5	3.3
2025-01-21 16:12:59.937211	348.7	27.0	-90.4	2.4
2025-01-21 16:13:01.091502	348.5	26.8	-90.1	2.6
2025-01-21 16:13:02.249155	348.2	26.7	-90.4	2.3
2025-01-21 16:13:03.407131	348.0	26.5	-90.5	4.9
2025-01-21 16:13:04.569174	347.8	26.4	-90.4	4.1
2025-01-21 16:13:05.738080	347.6	26.2	-90.7	3.6
2025-01-21 16:13:06.903058	347.4	26.1	-90.4	7.8
2025-01-21 16:13:08.065315	347.2	25.9	-90.1	5.0
2025-01-21 16:13:09.223790	347.0	25.8	-90.4	8.8
2025-01-21 16:13:10.386476	346.8	25.6	-90.5	3.6
2025-01-21 16:13:11.555697	346.6	25.5	-90.3	3.1
2025-01-21 16:13:12.707886	346.4	25.3	-90.6	5.4
2025-01-21 16:13:13.866463	346.2	25.2	-90.8	4.5
2025-01-21 16:13:15.027122	346.0	25.0	-90.8	6.0
2025-01-21 16:13:16.191078	345.8	24.9	-90.3	5.7
2025-01-21 16:13:17.359176	345.6	24.7	-90.4	6.0
2025-01-21 16:13:18.517272	345.5	24.6	-90.6	5.6
2025-01-21 16:13:19.681808	345.3	24.4	-90.0	3.7
2025-01-21 16:13:20.846289	345.1	24.3	-90.7	3.7
2025-01-21 16:13:22.007486	344.9	24.1	-90.1	3.9
2025-01-21 16:13:23.166023	344.7	24.0	-89.4	2.9
2025-01-21 16:13:24.328950	344.6	23.8	-89.6	2.5
2025-01-21 16:13:25.493195	344.4	23.7	-89.9	2.9
2025-01-21 16:13:26.660700	344.2	23.5	-90.4	2.7
2025-01-21 16:13:27.819905	344.0	23.4	-90.5	4.7
2025-01-21 16:13:28.988670	343.9	23.2	-90.8	11.0
2025-01-21 16:13:30.148345	343.7	23.1	-90.2	1.6
2025-01-21 16:13:31.306452	343.5	23.0	-90.5	8.2
2025-01-21 16:13:32.467787	343.3	22.8	-90.5	6.2
2025-01-21 16:13:33.626828	343.2	22.7	-90.4	4.0
2025-01-21 16:13:34.789104	343.0	22.5	-90.6	3.7
2025-01-21 16:13:35.963735	342.9	22.4	-90.9	5.2
2025-01-21 16:13:37.123052	342.7	22.3	-90.7	3.5
2025-01-21 16:13:38.288461	342.5	22.1	-90.6	0.4
2025-01-21 16:13:39.451319	342.4	22.0	-90.6	4.1
2025-01-21 16:13:40.625025	342.2	21.8	-90.7	7.3
2025-01-21 16:13:41.781160	342.1	21.7	-90.6	4.9
2025-01-21 16:13:42.940668	341.9	21.6	-90.2	5.3
2025-01-21 16:13:44.107089	341.8	21.4	-90.5	2.7
2025-01-21 16:13:45.269703	341.6	21.3	-90.5	7.3
2025-01-21 16:13:46.433145	341.5	21.2	-90.5	7.7
2025-01-21 16:13:47.596011	341.3	21.0	-90.8	9.6
2025-01-21 16:13:48.756138	341.2	20.9	-90.8	3.3
2025-01-21 16:13:49.917985	341.0	20.8	-91.0	4.7
2025-01-21 16:13:51.078017	340.9	20.6	-90.5	5.8
2025-01-21 16:13:52.243256	340.7	20.5	-90.4	3.2
2025-01-21 16:13:53.402095	340.6	20.4	-90.9	3.5
2025-01-21 16:13:54.563552	340.4	20.2	-90.6	3.2
2025-01-21 16:13:55.724207	340.3	20.1	-90.8	2.3
2025-01-21 16:13:56.885115	340.2	20.0	-90.4	3.5
2025-01-21 16:13:58.050255	340.0	19.8	-90.6	3.9
2025-01-21 16:13:59.219062	339.9	19.7	-90.9	2.9
2025-01-21 16:14:00.380503	339.8	19.6	-90.5	1.7
2025-01-21 16:14:01.546717	339.6	19.4	-90.6	2.6
2025-01-21 16:14:02.709911	339.5	19.3	-90.8	5.2
2025-01-21 16:14:03.871112	339.4	19.2	-90.2	1.9
2025-01-21 16:14:05.032302	339.2	19.1	-90.6	3.9
2025-01-21 16:14:06.191705	339.1	18.9	-90.2	1.1
2025-01-21 16:14:07.356445	339.0	18.8	-90.5	2.4
2025-01-21 16:14:08.518105	338.9	18.7	-90.4	2.4
2025-01-21 16:14:09.681862	338.7	18.6	-90.4	0.7
2025-01-21 16:14:10.840063	338.6	18.4	-90.2	3.0
2025-01-21 16:14:12.002608	338.5	18.3	-90.0	2.2
2025-01-21 16:14:13.162610	338.4	18.2	-90.1	2.9
2025-01-21 16:14:14.319579	338.2	18.1	-90.1	1.0
2025-01-21 16:14:15.480577	338.1	17.9	-90.0	3.2
2025-01-21 16:14:16.648271	338.0	17.8	-90.1	1.0
2025-01-21 16:14:17.815007	337.9	17.7	-90.3	3.1
2025-01-21 16:14:18.975756	337.8	17.6	-90.3	4.7
2025-01-21 16:14:20.136657	337.6	17.4	-91.0	3.7
2025-01-21 16:14:21.299409	337.5	17.3	-90.6	2.7
2025-01-21 16:14:22.459581	337.4	17.2	-90.8	5.6
2025-01-21 16:14:23.622662	337.3	17.1	-90.9	1.9
2025-01-21 16:14:24.790808	337.2	17.0	-90.8	2.2
2025-01-21 16:14:25.954532	337.1	16.8	-90.3	2.7
2025-01-21 16:14:27.118918	337.0	16.7	-89.7	4.4
2025-01-21 16:14:28.287503	336.9	16.6	-90.4	1.5
2025-01-21 16:14:29.449611	336.7	16.5	-90.3	0.9
2025-01-21 16:14:30.613463	336.6	16.4	-90.2	3.8
2025-01-21 16:14:31.775085	336.5	16.3	-90.1	1.4
2025-01-21 16:14:32.929758	336.4	16.1	-90.5	3.2
2025-01-21 16:14:34.093640	336.3	16.0	-90.2	4.8
2025-01-21 16:14:35.257914	336.2	15.9	-90.4	1.0
2025-01-21 16:14:36.424695	336.1	15.8	-90.9	2.3
2025-01-21 16:14:37.589320	336.0	15.7	-91.0	2.4
2025-01-21 16:14:38.749643	335.9	15.6	-90.7	1.2
2025-01-21 16:14:39.911010	335.8	15.5	-90.7	3.0
2025-01-21 16:14:41.069054	335.7	15.3	-90.8	2.8
2025-01-21 16:14:42.231818	335.6	15.2	-90.6	1.8
2025-01-21 16:14:43.391523	335.5	15.1	-90.5	2.4
2025-01-21 16:14:44.558363	335.4	15.0	-90.5	4.8
2025-01-21 16:14:45.718353	335.3	14.9	-90.7	3.8
2025-01-21 16:14:46.877605	335.2	14.8	-90.4	4.0
2025-01-21 16:14:48.039335	335.1	14.7	-90.8	4.6
2025-01-21 16:14:49.199677	335.0	14.6	-90.6	5.3
#Closed at: 2025-01-21 16:06:27.187676