passes_logs/2025/01/21/LEX_Murmansk/LEX_Murmansk__20250121_142731_NOAA_19_rec.log

#Pass ID: 20250121_142731_NOAA 19
#Satellite: NOAA 19
#Configuration: NOAA 19
#Start time: 2025-01-21 14:27:26.673038

#LorettStation: 1.0.0 05.05.2024
#Station: LEX_Murmansk
#Location: 33.156738 lon 68.926811 lat
#TLE: 1 33591U 09005A   25021.16349212  .00000417  00000+0  24660-3 0  9995
#TLE: 2 33591  99.0186  84.9732 0014271  40.9333 319.2908 14.13264918822414

#Time	Az	El	Level	SNR
2025-01-21 14:27:40.858333	61.4	16.1	-89.2	3.4
2025-01-21 14:27:42.023177	61.2	16.2	-89.2	2.2
2025-01-21 14:27:43.184627	61.1	16.3	-89.3	3.9
2025-01-21 14:27:44.348759	60.9	16.4	-89.5	3.0
2025-01-21 14:27:45.512965	60.7	16.5	-90.0	1.3
2025-01-21 14:27:46.671689	60.5	16.6	-89.4	4.1
2025-01-21 14:27:47.838296	60.3	16.7	-89.8	1.4
2025-01-21 14:27:49.002487	60.2	16.8	-90.4	3.9
2025-01-21 14:27:50.168665	60.0	16.9	-90.2	9.5
2025-01-21 14:27:51.331709	59.8	16.9	-90.1	3.4
2025-01-21 14:27:52.496936	59.6	17.0	-90.2	3.1
2025-01-21 14:27:53.661299	59.4	17.1	-89.8	5.6
2025-01-21 14:27:54.826448	59.2	17.2	-90.3	7.0
2025-01-21 14:27:55.989880	59.0	17.3	-90.5	6.4
2025-01-21 14:27:57.146618	58.8	17.4	-90.4	9.8
2025-01-21 14:27:58.309273	58.6	17.5	-90.3	5.6
2025-01-21 14:27:59.472909	58.4	17.6	-90.5	7.1
2025-01-21 14:28:00.634522	58.3	17.7	-90.4	6.1
2025-01-21 14:28:01.797297	58.1	17.8	-90.6	2.9
2025-01-21 14:28:02.964987	57.9	17.9	-90.4	2.0
2025-01-21 14:28:04.128463	57.7	18.0	-90.2	4.2
2025-01-21 14:28:05.289623	57.5	18.1	-90.0	2.8
2025-01-21 14:28:06.449648	57.3	18.2	-90.5	5.0
2025-01-21 14:28:07.615527	57.1	18.2	-90.4	12.0
2025-01-21 14:28:08.775126	56.8	18.3	-90.4	6.9
2025-01-21 14:28:09.940118	56.6	18.4	-90.5	5.1
2025-01-21 14:28:11.105481	56.4	18.5	-90.4	7.7
2025-01-21 14:28:12.268895	56.2	18.6	-90.2	7.9
2025-01-21 14:28:13.436788	56.0	18.7	-90.0	5.4
2025-01-21 14:28:14.598972	55.8	18.8	-90.4	6.8
2025-01-21 14:28:15.755134	55.6	18.9	-90.4	5.1
2025-01-21 14:28:16.915406	55.4	19.0	-90.5	3.5
2025-01-21 14:28:18.080521	55.2	19.1	-90.3	6.3
2025-01-21 14:28:19.245455	54.9	19.2	-90.0	8.4
2025-01-21 14:28:20.410251	54.7	19.3	-90.6	7.9
2025-01-21 14:28:21.575876	54.5	19.3	-90.6	9.4
2025-01-21 14:28:22.738805	54.3	19.4	-90.6	5.4
2025-01-21 14:28:23.900979	54.1	19.5	-90.4	4.5
2025-01-21 14:28:25.069096	53.8	19.6	-90.0	0.6
2025-01-21 14:28:26.229169	53.6	19.7	-90.2	3.0
2025-01-21 14:28:27.389526	53.4	19.8	-90.0	5.0
2025-01-21 14:28:28.564544	53.2	19.9	-89.9	4.5
2025-01-21 14:28:29.730266	52.9	20.0	-89.2	6.7
2025-01-21 14:28:30.901621	52.7	20.1	-89.6	6.0
2025-01-21 14:28:32.062006	52.5	20.2	-89.5	10.1
2025-01-21 14:28:33.223512	52.2	20.3	-89.4	4.6
2025-01-21 14:28:34.387350	52.0	20.3	-89.6	6.1
2025-01-21 14:28:35.551806	51.8	20.4	-89.7	6.1
2025-01-21 14:28:36.715055	51.5	20.5	-90.1	3.6
2025-01-21 14:28:37.879799	51.3	20.6	-89.9	5.3
2025-01-21 14:28:39.047098	51.1	20.7	-89.8	6.8
2025-01-21 14:28:40.205626	50.8	20.8	-89.5	5.8
2025-01-21 14:28:41.352005	50.6	20.9	-89.4	7.2
2025-01-21 14:28:42.518047	50.3	21.0	-89.9	11.8
2025-01-21 14:28:43.683555	50.1	21.1	-89.8	5.3
2025-01-21 14:28:44.846792	49.9	21.1	-89.7	6.0
2025-01-21 14:28:46.004393	49.6	21.2	-89.5	4.2
2025-01-21 14:28:47.167016	49.4	21.3	-90.0	5.7
2025-01-21 14:28:48.332183	49.1	21.4	-89.8	2.7
2025-01-21 14:28:49.495322	48.9	21.5	-90.2	4.5
2025-01-21 14:28:50.664494	48.6	21.6	-90.4	4.0
2025-01-21 14:28:51.823437	48.3	21.7	-90.5	4.0
2025-01-21 14:28:52.996858	48.1	21.8	-90.3	7.3
2025-01-21 14:28:54.163354	47.8	21.8	-90.0	8.1
2025-01-21 14:28:55.330611	47.6	21.9	-89.9	8.3
2025-01-21 14:28:56.490833	47.3	22.0	-89.5	10.3
2025-01-21 14:28:57.664056	47.0	22.1	-90.5	9.8
2025-01-21 14:28:58.830704	46.8	22.2	-90.3	7.3
2025-01-21 14:28:59.991891	46.5	22.3	-90.7	8.4
2025-01-21 14:29:01.160798	46.3	22.3	-90.0	6.2
2025-01-21 14:29:02.323122	46.0	22.4	-89.9	4.3
2025-01-21 14:29:03.486988	45.7	22.5	-90.0	6.6
2025-01-21 14:29:04.635613	45.4	22.6	-90.3	8.4
2025-01-21 14:29:05.801745	45.2	22.7	-90.2	11.6
2025-01-21 14:29:06.962380	44.9	22.8	-90.0	9.9
2025-01-21 14:29:08.123866	44.6	22.8	-89.8	12.4
2025-01-21 14:29:09.284211	44.4	22.9	-90.0	9.2
2025-01-21 14:29:10.448150	44.1	23.0	-90.4	10.8
2025-01-21 14:29:11.617404	43.8	23.1	-90.9	6.5
2025-01-21 14:29:12.780609	43.5	23.2	-90.6	4.0
2025-01-21 14:29:13.953321	43.2	23.2	-90.2	3.2
2025-01-21 14:29:15.117266	43.0	23.3	-89.9	2.9
2025-01-21 14:29:16.277279	42.7	23.4	-90.3	2.2
2025-01-21 14:29:17.442432	42.4	23.5	-90.7	4.4
2025-01-21 14:29:18.597428	42.1	23.5	-90.3	5.2
2025-01-21 14:29:19.766812	41.8	23.6	-90.3	5.3
2025-01-21 14:29:20.929535	41.5	23.7	-90.4	6.3
2025-01-21 14:29:22.094674	41.2	23.8	-90.3	4.7
2025-01-21 14:29:23.259365	40.9	23.8	-90.1	8.1
2025-01-21 14:29:24.417111	40.6	23.9	-90.5	11.8
2025-01-21 14:29:25.582061	40.3	24.0	-90.5	6.1
2025-01-21 14:29:26.744275	40.0	24.1	-90.3	9.6
2025-01-21 14:29:27.911376	39.7	24.1	-90.6	6.3
2025-01-21 14:29:29.076217	39.4	24.2	-90.5	6.7
2025-01-21 14:29:30.235828	39.1	24.3	-90.2	4.2
2025-01-21 14:29:31.394446	38.8	24.3	-90.3	4.2
2025-01-21 14:29:32.558749	38.5	24.4	-90.8	5.3
2025-01-21 14:29:33.720833	38.2	24.5	-90.7	5.6
2025-01-21 14:29:34.887229	37.9	24.5	-90.9	7.4
2025-01-21 14:29:36.051827	37.6	24.6	-90.5	11.4
2025-01-21 14:29:37.214440	37.3	24.7	-90.3	10.7
2025-01-21 14:29:38.378775	37.0	24.7	-90.1	8.8
2025-01-21 14:29:39.541826	36.7	24.8	-90.5	10.0
2025-01-21 14:29:40.709346	36.4	24.9	-90.7	7.7
2025-01-21 14:29:41.874099	36.1	24.9	-90.6	6.9
2025-01-21 14:29:43.040485	35.7	25.0	-90.2	6.2
2025-01-21 14:29:44.199460	35.4	25.1	-90.1	4.5
2025-01-21 14:29:45.363789	35.1	25.1	-90.3	1.7
2025-01-21 14:29:46.521086	34.8	25.2	-90.4	4.5
2025-01-21 14:29:47.684681	34.5	25.2	-90.7	4.5
2025-01-21 14:29:48.847937	34.2	25.3	-90.3	3.1
2025-01-21 14:29:50.014070	33.8	25.3	-90.4	3.1
2025-01-21 14:29:51.172342	33.5	25.4	-89.8	6.1
2025-01-21 14:29:52.336097	33.2	25.5	-90.1	4.6
2025-01-21 14:29:53.500252	32.9	25.5	-90.3	6.6
2025-01-21 14:29:54.665319	32.5	25.6	-90.8	8.6
2025-01-21 14:29:55.828077	32.2	25.6	-90.5	9.2
2025-01-21 14:29:56.989016	31.9	25.7	-90.7	10.2
2025-01-21 14:29:58.153889	31.5	25.7	-90.4	9.3
2025-01-21 14:29:59.318749	31.2	25.8	-90.4	10.0
2025-01-21 14:30:00.477409	30.9	25.8	-90.5	7.7
2025-01-21 14:30:01.641064	30.5	25.9	-90.5	8.1
2025-01-21 14:30:02.800446	30.2	25.9	-90.2	7.1
2025-01-21 14:30:03.968898	29.9	26.0	-90.4	4.7
2025-01-21 14:30:05.122954	29.5	26.0	-90.4	5.8
2025-01-21 14:30:06.285771	29.2	26.0	-90.4	2.3
2025-01-21 14:30:07.446800	28.9	26.1	-90.4	2.6
2025-01-21 14:30:08.608439	28.5	26.1	-90.3	6.5
2025-01-21 14:30:09.772149	28.2	26.2	-90.4	5.0
2025-01-21 14:30:10.939582	27.9	26.2	-90.6	9.4
2025-01-21 14:30:12.102257	27.5	26.2	-90.4	11.2
2025-01-21 14:30:13.269895	27.2	26.3	-90.2	9.5
2025-01-21 14:30:14.434032	26.8	26.3	-90.4	12.4
2025-01-21 14:30:15.600815	26.5	26.4	-90.3	11.1
2025-01-21 14:30:16.760545	26.1	26.4	-90.4	8.4
2025-01-21 14:30:17.924020	25.8	26.4	-90.6	7.0
2025-01-21 14:30:19.092061	25.4	26.5	-90.4	6.4
2025-01-21 14:30:20.255841	25.1	26.5	-90.3	8.9
2025-01-21 14:30:21.423515	24.7	26.5	-89.9	7.1
2025-01-21 14:30:22.582575	24.4	26.5	-90.0	7.1
2025-01-21 14:30:23.740755	24.1	26.6	-90.1	6.0
2025-01-21 14:30:24.901780	23.7	26.6	-90.5	4.1
2025-01-21 14:30:26.062419	23.4	26.6	-90.3	3.8
2025-01-21 14:30:27.226498	23.0	26.6	-90.1	3.6
2025-01-21 14:30:28.390914	22.7	26.7	-90.5	1.3
2025-01-21 14:30:29.558422	22.3	26.7	-90.7	1.9
2025-01-21 14:30:30.722636	22.0	26.7	-90.7	3.9
2025-01-21 14:30:31.879662	21.6	26.7	-90.3	4.2
2025-01-21 14:30:33.044131	21.3	26.7	-90.5	4.5
2025-01-21 14:30:34.209454	20.9	26.8	-90.3	3.2
2025-01-21 14:30:35.377700	20.5	26.8	-90.2	4.0
2025-01-21 14:30:36.536176	20.2	26.8	-90.3	3.8
2025-01-21 14:30:37.699598	19.8	26.8	-90.3	4.4
2025-01-21 14:30:38.863655	19.5	26.8	-90.6	4.1
2025-01-21 14:30:40.023688	19.1	26.8	-90.8	6.6
2025-01-21 14:30:41.181739	18.8	26.8	-90.1	5.2
2025-01-21 14:30:42.352489	18.4	26.8	-90.5	4.1
2025-01-21 14:30:43.513174	18.1	26.8	-90.6	5.3
2025-01-21 14:30:44.681529	17.7	26.9	-90.5	7.6
2025-01-21 14:30:45.845140	17.4	26.9	-90.3	6.8
2025-01-21 14:30:47.002956	17.0	26.9	-90.3	8.9
2025-01-21 14:30:48.170586	16.6	26.9	-90.1	5.2
2025-01-21 14:30:49.329852	16.3	26.9	-90.2	4.7
2025-01-21 14:30:50.497402	15.9	26.9	-90.8	6.4
2025-01-21 14:30:51.659263	15.6	26.9	-90.7	9.2
2025-01-21 14:30:52.826345	15.2	26.9	-90.8	7.9
2025-01-21 14:30:53.972897	14.9	26.9	-90.3	5.2
2025-01-21 14:30:55.136563	14.5	26.8	-90.3	6.2
2025-01-21 14:30:56.300679	14.2	26.8	-90.4	3.3
2025-01-21 14:30:57.464107	13.8	26.8	-90.7	3.9
2025-01-21 14:30:58.628690	13.5	26.8	-90.6	5.6
2025-01-21 14:30:59.791144	13.1	26.8	-90.3	4.1
2025-01-21 14:31:00.952959	12.8	26.8	-90.5	3.5
2025-01-21 14:31:02.109216	12.4	26.8	-90.2	4.4
2025-01-21 14:31:03.278267	12.0	26.8	-90.1	1.4
2025-01-21 14:31:04.441005	11.7	26.8	-90.3	3.6
2025-01-21 14:31:05.612361	11.3	26.7	-90.3	3.8
2025-01-21 14:31:06.767771	11.0	26.7	-90.5	2.5
2025-01-21 14:31:07.930828	10.6	26.7	-90.8	4.0
2025-01-21 14:31:09.090883	10.3	26.7	-90.7	5.2
2025-01-21 14:31:10.255736	9.9	26.7	-90.3	1.9
2025-01-21 14:31:11.420539	9.6	26.6	-90.6	3.9
2025-01-21 14:31:12.584494	9.2	26.6	-90.5	4.9
2025-01-21 14:31:13.749437	8.9	26.6	-90.4	3.3
2025-01-21 14:31:14.917632	8.5	26.6	-90.2	2.3
2025-01-21 14:31:16.077073	8.2	26.5	-90.3	4.6
2025-01-21 14:31:17.235196	7.8	26.5	-90.3	4.0
2025-01-21 14:31:18.410350	7.5	26.5	-90.2	2.9
2025-01-21 14:31:19.579802	7.1	26.5	-90.6	4.8
2025-01-21 14:31:20.738416	6.8	26.4	-90.4	3.2
2025-01-21 14:31:21.903541	6.5	26.4	-90.5	3.9
2025-01-21 14:31:23.075457	6.1	26.4	-90.3	6.0
2025-01-21 14:31:24.236372	5.8	26.3	-89.5	5.0
2025-01-21 14:31:25.403193	5.4	26.3	-89.7	6.7
2025-01-21 14:31:26.568081	5.1	26.3	-89.9	5.4
2025-01-21 14:31:27.726798	4.7	26.2	-89.8	3.8
2025-01-21 14:31:28.892821	4.4	26.2	-89.6	5.9
2025-01-21 14:31:30.049852	4.1	26.1	-89.8	4.6
2025-01-21 14:31:31.201078	3.7	26.1	-89.8	5.5
2025-01-21 14:31:32.369513	3.4	26.1	-89.8	6.3
2025-01-21 14:31:33.535398	3.1	26.0	-90.0	7.4
2025-01-21 14:31:34.700738	2.7	26.0	-89.8	2.8
2025-01-21 14:31:35.864249	2.4	25.9	-90.8	5.2
2025-01-21 14:31:37.023844	2.0	25.9	-90.8	8.4
2025-01-21 14:31:38.186566	1.7	25.8	-90.4	6.1
2025-01-21 14:31:39.347625	1.4	25.8	-90.5	5.8
2025-01-21 14:31:40.512831	1.1	25.7	-90.6	7.0
2025-01-21 14:31:41.677664	0.7	25.7	-90.4	6.2
2025-01-21 14:31:42.844695	0.4	25.6	-90.3	8.3
2025-01-21 14:31:44.009314	0.1	25.6	-90.4	6.0
2025-01-21 14:31:45.176225	359.7	25.5	-90.3	7.8
2025-01-21 14:31:46.341044	359.4	25.5	-90.4	8.5
2025-01-21 14:31:47.498559	359.1	25.4	-90.6	8.2
2025-01-21 14:31:48.655080	358.8	25.4	-91.0	5.4
2025-01-21 14:31:49.830191	358.4	25.3	-90.9	6.8
2025-01-21 14:31:50.997545	358.1	25.3	-90.5	6.3
2025-01-21 14:31:52.161499	357.8	25.2	-90.5	6.7
2025-01-21 14:31:53.325460	357.5	25.1	-90.5	7.3
2025-01-21 14:31:54.490743	357.2	25.1	-90.9	6.1
2025-01-21 14:31:55.654443	356.8	25.0	-90.7	10.4
2025-01-21 14:31:56.815544	356.5	25.0	-90.6	6.7
2025-01-21 14:31:57.978289	356.2	24.9	-91.0	6.9
2025-01-21 14:31:59.141752	355.9	24.8	-90.7	10.0
2025-01-21 14:32:00.302342	355.6	24.8	-90.8	6.4
2025-01-21 14:32:01.468471	355.3	24.7	-91.0	7.7
2025-01-21 14:32:02.627757	355.0	24.6	-90.6	8.0
2025-01-21 14:32:03.795491	354.7	24.6	-90.6	3.4
2025-01-21 14:32:04.958586	354.4	24.5	-91.0	7.9
2025-01-21 14:32:06.126059	354.1	24.4	-90.9	10.3
2025-01-21 14:32:07.283536	353.8	24.4	-90.7	5.6
2025-01-21 14:32:08.446289	353.5	24.3	-90.6	6.5
2025-01-21 14:32:09.612094	353.2	24.2	-90.8	7.0
2025-01-21 14:32:10.774938	352.9	24.2	-90.6	5.4
2025-01-21 14:32:11.941346	352.6	24.1	-90.8	6.2
2025-01-21 14:32:13.105920	352.3	24.0	-90.6	8.2
2025-01-21 14:32:14.272562	352.0	23.9	-90.4	2.1
2025-01-21 14:32:15.433614	351.7	23.9	-90.6	5.3
2025-01-21 14:32:16.577381	351.4	23.8	-90.7	5.2
2025-01-21 14:32:17.698056	351.1	23.7	-90.9	4.3
2025-01-21 14:32:18.861593	350.8	23.7	-90.7	4.1
2025-01-21 14:32:20.026732	350.5	23.6	-90.7	3.3
2025-01-21 14:32:21.196728	350.2	23.5	-90.4	3.7
2025-01-21 14:32:22.360409	350.0	23.4	-90.6	5.7
2025-01-21 14:32:23.538096	349.7	23.3	-90.7	5.6
2025-01-21 14:32:24.704009	349.4	23.3	-90.9	5.8
2025-01-21 14:32:25.867950	349.1	23.2	-91.0	5.2
2025-01-21 14:32:27.029998	348.8	23.1	-90.7	4.7
2025-01-21 14:32:28.196131	348.5	23.0	-91.0	4.8
2025-01-21 14:32:29.361282	348.3	23.0	-90.4	2.7
2025-01-21 14:32:30.522366	348.0	22.9	-90.6	5.5
2025-01-21 14:32:31.681276	347.7	22.8	-90.3	5.3
2025-01-21 14:32:32.844504	347.4	22.7	-90.4	2.5
2025-01-21 14:32:34.026175	347.2	22.6	-90.7	4.5
2025-01-21 14:32:35.190066	346.9	22.5	-90.3	4.4
2025-01-21 14:32:36.357747	346.6	22.5	-90.0	7.7
2025-01-21 14:32:37.516525	346.4	22.4	-90.2	6.1
2025-01-21 14:32:38.676390	346.1	22.3	-90.3	6.7
2025-01-21 14:32:39.843126	345.8	22.2	-90.3	8.3
2025-01-21 14:32:41.007486	345.6	22.1	-90.1	7.3
2025-01-21 14:32:42.174276	345.3	22.0	-89.7	9.4
2025-01-21 14:32:43.340343	345.1	22.0	-90.5	12.0
2025-01-21 14:32:44.515027	344.8	21.9	-90.4	6.6
2025-01-21 14:32:45.684005	344.5	21.8	-90.5	10.8
2025-01-21 14:32:46.854250	344.3	21.7	-90.8	12.6
2025-01-21 14:32:48.002928	344.0	21.6	-90.6	11.9
2025-01-21 14:32:49.163688	343.8	21.5	-90.6	7.1
2025-01-21 14:32:50.331303	343.5	21.4	-90.4	7.5
2025-01-21 14:32:51.493242	343.3	21.4	-90.8	10.1
2025-01-21 14:32:52.660659	343.0	21.3	-90.8	5.5
2025-01-21 14:32:53.823637	342.8	21.2	-90.8	6.9
2025-01-21 14:32:54.986681	342.5	21.1	-91.0	6.3
2025-01-21 14:32:56.153986	342.3	21.0	-90.9	2.1
2025-01-21 14:32:57.313136	342.0	20.9	-90.4	1.2
2025-01-21 14:32:58.478605	341.8	20.8	-90.4	2.0
2025-01-21 14:32:59.637952	341.6	20.7	-90.6	3.6
2025-01-21 14:33:00.794569	341.3	20.7	-90.1	2.9
2025-01-21 14:33:01.953480	341.1	20.6	-89.9	2.0
2025-01-21 14:33:03.115341	340.9	20.5	-89.7	3.3
2025-01-21 14:33:04.275325	340.6	20.4	-89.9	1.8
2025-01-21 14:33:05.453874	340.4	20.3	-90.3	3.4
2025-01-21 14:33:06.618047	340.2	20.2	-90.1	3.5
2025-01-21 14:33:07.776335	339.9	20.1	-90.2	2.7
2025-01-21 14:33:08.935029	339.7	20.0	-90.4	2.0
2025-01-21 14:33:10.100155	339.5	19.9	-89.6	1.4
2025-01-21 14:33:11.268352	339.2	19.9	-90.2	2.1
2025-01-21 14:33:12.432554	339.0	19.8	-90.7	3.8
2025-01-21 14:33:13.597650	338.8	19.7	-91.0	3.9
2025-01-21 14:33:14.764734	338.6	19.6	-91.0	2.8
2025-01-21 14:33:15.929940	338.4	19.5	-90.7	2.0
2025-01-21 14:33:17.093625	338.1	19.4	-90.5	2.9
2025-01-21 14:33:18.239645	337.9	19.3	-90.5	3.3
2025-01-21 14:33:19.400144	337.7	19.2	-90.7	4.5
2025-01-21 14:33:20.559483	337.5	19.1	-91.0	4.4
2025-01-21 14:33:21.723471	337.3	19.0	-90.9	3.9
2025-01-21 14:33:22.882281	337.1	18.9	-91.0	4.4
2025-01-21 14:33:24.049321	336.8	18.9	-90.6	1.9
2025-01-21 14:33:25.213926	336.6	18.8	-90.4	2.7
2025-01-21 14:33:26.377190	336.4	18.7	-90.6	2.4
2025-01-21 14:33:27.534404	336.2	18.6	-90.6	2.1
2025-01-21 14:33:28.701143	336.0	18.5	-90.6	3.1
2025-01-21 14:33:29.853791	335.8	18.4	-90.9	1.0
2025-01-21 14:33:31.016483	335.6	18.3	-90.4	2.7
2025-01-21 14:33:32.182553	335.4	18.2	-90.1	1.0
2025-01-21 14:33:33.343374	335.2	18.1	-90.9	2.0
2025-01-21 14:33:34.496400	335.0	18.0	-91.1	2.0
2025-01-21 14:33:35.659785	334.8	17.9	-90.9	3.9
2025-01-21 14:33:36.824140	334.6	17.8	-90.6	2.8
2025-01-21 14:33:37.980976	334.4	17.8	-91.0	3.3
2025-01-21 14:33:39.152405	334.2	17.7	-90.7	0.1
2025-01-21 14:33:40.312797	334.0	17.6	-89.7	1.9
2025-01-21 14:33:41.485184	333.8	17.5	-89.5	4.3
2025-01-21 14:33:42.650976	333.6	17.4	-90.2	4.2
2025-01-21 14:33:43.817395	333.4	17.3	-90.1	2.7
2025-01-21 14:33:44.983250	333.3	17.2	-89.9	4.8
2025-01-21 14:33:46.137605	333.1	17.1	-89.9	3.5
2025-01-21 14:33:47.304338	332.9	17.0	-89.4	3.0
2025-01-21 14:33:48.463254	332.7	16.9	-90.6	2.5
2025-01-21 14:33:49.630522	332.5	16.8	-90.7	3.6
2025-01-21 14:33:50.790534	332.3	16.7	-90.4	3.3
2025-01-21 14:33:51.957641	332.1	16.6	-90.6	3.2
2025-01-21 14:33:53.123912	332.0	16.6	-90.8	5.3
2025-01-21 14:33:54.288089	331.8	16.5	-90.7	2.1
2025-01-21 14:33:55.455563	331.6	16.4	-90.8	2.6
2025-01-21 14:33:56.614274	331.4	16.3	-90.8	3.4
2025-01-21 14:33:57.776571	331.2	16.2	-90.5	3.5
2025-01-21 14:33:58.940706	331.1	16.1	-90.5	6.3
2025-01-21 14:34:00.108415	330.9	16.0	-90.3	6.6
2025-01-21 14:34:01.269998	330.7	15.9	-90.4	2.6
2025-01-21 14:34:02.432492	330.5	15.8	-90.8	3.4
2025-01-21 14:34:03.601033	330.4	15.7	-90.5	3.0
2025-01-21 14:34:04.760784	330.2	15.6	-90.6	5.6
2025-01-21 14:34:05.928784	330.0	15.5	-90.7	2.8
2025-01-21 14:34:07.093344	329.9	15.5	-90.7	1.1
2025-01-21 14:34:08.253289	329.7	15.4	-90.5	1.0
2025-01-21 14:34:09.418734	329.5	15.3	-90.7	2.1
2025-01-21 14:34:10.577587	329.4	15.2	-90.4	2.8
2025-01-21 14:34:11.747765	329.2	15.1	-91.1	3.0
2025-01-21 14:34:12.909118	329.0	15.0	-91.0	2.1
2025-01-21 14:34:14.075545	328.9	14.9	-91.0	3.6
2025-01-21 14:34:15.244074	328.7	14.8	-90.5	3.6
2025-01-21 14:34:16.400785	328.6	14.7	-90.6	3.1
2025-01-21 14:34:17.556181	328.4	14.6	-90.7	3.6
#Closed at: 2025-01-21 14:27:31.651926