passes_logs/2025/01/21/LEX_Murmansk/LEX_Murmansk__20250121_145206_NOAA_18_rec.log

#Pass ID: 20250121_145206_NOAA 18
#Satellite: NOAA 18
#Configuration: NOAA 18
#Start time: 2025-01-21 14:52:01.153834

#LorettStation: 1.0.0 05.05.2024
#Station: LEX_Murmansk
#Location: 33.156738 lon 68.926811 lat
#TLE: 1 28654U 05018A   25021.17963601  .00000484  00000+0  28040-3 0  9994
#TLE: 2 28654  98.8557 102.1724 0014626 162.0619 198.1073 14.13492794 14053

#Time	Az	El	Level	SNR
2025-01-21 14:52:13.288840	46.6	15.9	-90.4	3.8
2025-01-21 14:52:14.456041	46.4	16.0	-90.9	5.4
2025-01-21 14:52:15.614055	46.2	16.0	-91.0	1.0
2025-01-21 14:52:16.774487	46.0	16.1	-90.7	6.7
2025-01-21 14:52:17.938825	45.8	16.2	-90.8	5.5
2025-01-21 14:52:19.101532	45.6	16.3	-90.4	4.7
2025-01-21 14:52:20.267524	45.4	16.4	-90.8	6.4
2025-01-21 14:52:21.434417	45.2	16.5	-90.8	7.5
2025-01-21 14:52:22.592179	45.0	16.5	-90.8	6.3
2025-01-21 14:52:23.753238	44.8	16.6	-91.2	6.2
2025-01-21 14:52:24.931179	44.6	16.7	-90.0	3.7
2025-01-21 14:52:26.095427	44.4	16.8	-89.8	4.5
2025-01-21 14:52:27.258804	44.2	16.9	-89.9	7.0
2025-01-21 14:52:28.422913	44.0	17.0	-89.7	4.9
2025-01-21 14:52:29.593638	43.8	17.0	-89.8	5.4
2025-01-21 14:52:30.753828	43.6	17.1	-89.5	4.1
2025-01-21 14:52:31.916098	43.4	17.2	-90.0	5.3
2025-01-21 14:52:33.074303	43.2	17.3	-90.6	3.7
2025-01-21 14:52:34.238781	43.0	17.4	-90.5	3.3
2025-01-21 14:52:35.398822	42.8	17.5	-90.7	4.6
2025-01-21 14:52:36.553346	42.6	17.5	-90.9	4.7
2025-01-21 14:52:37.714412	42.4	17.6	-91.2	6.8
2025-01-21 14:52:38.876111	42.2	17.7	-90.9	5.2
2025-01-21 14:52:40.036156	42.0	17.8	-90.8	4.8
2025-01-21 14:52:41.200385	41.8	17.9	-90.6	5.4
2025-01-21 14:52:42.359998	41.6	17.9	-90.8	6.9
2025-01-21 14:52:43.522884	41.4	18.0	-91.2	8.3
2025-01-21 14:52:44.686304	41.1	18.1	-91.1	10.6
2025-01-21 14:52:45.845927	40.9	18.2	-91.0	9.9
2025-01-21 14:52:47.010023	40.7	18.3	-90.7	7.8
2025-01-21 14:52:48.174986	40.5	18.3	-90.6	9.9
2025-01-21 14:52:49.339068	40.3	18.4	-90.4	9.2
2025-01-21 14:52:50.506586	40.0	18.5	-90.5	8.3
2025-01-21 14:52:51.675546	39.8	18.6	-90.8	10.4
2025-01-21 14:52:52.833061	39.6	18.7	-91.0	13.3
2025-01-21 14:52:53.995711	39.4	18.7	-90.9	12.0
2025-01-21 14:52:55.153274	39.1	18.8	-90.1	10.7
2025-01-21 14:52:56.316480	38.9	18.9	-90.8	9.8
2025-01-21 14:52:57.475913	38.7	19.0	-90.0	5.4
2025-01-21 14:52:58.636579	38.5	19.1	-90.9	7.7
2025-01-21 14:52:59.801574	38.2	19.1	-90.7	7.8
2025-01-21 14:53:00.956552	38.0	19.2	-90.7	6.0
2025-01-21 14:53:02.122016	37.8	19.3	-90.3	7.4
2025-01-21 14:53:03.282832	37.5	19.4	-90.2	10.4
2025-01-21 14:53:04.447974	37.3	19.5	-90.6	10.1
2025-01-21 14:53:05.612238	37.0	19.5	-90.4	10.4
2025-01-21 14:53:06.774825	36.8	19.6	-90.5	12.9
2025-01-21 14:53:07.937456	36.6	19.7	-90.7	10.2
2025-01-21 14:53:09.094894	36.3	19.8	-90.5	10.8
2025-01-21 14:53:10.255946	36.1	19.8	-90.7	11.9
2025-01-21 14:53:11.422411	35.8	19.9	-91.1	6.5
2025-01-21 14:53:12.577230	35.6	20.0	-90.7	7.9
2025-01-21 14:53:13.746468	35.4	20.1	-90.6	8.8
2025-01-21 14:53:14.905215	35.1	20.1	-90.9	7.6
2025-01-21 14:53:16.069843	34.9	20.2	-91.0	8.0
2025-01-21 14:53:17.234762	34.6	20.3	-90.5	10.1
2025-01-21 14:53:18.396003	34.4	20.4	-90.2	10.4
2025-01-21 14:53:19.561995	34.1	20.4	-91.0	9.0
2025-01-21 14:53:20.732357	33.9	20.5	-90.6	8.7
2025-01-21 14:53:21.892764	33.6	20.6	-90.8	7.1
2025-01-21 14:53:23.054386	33.3	20.7	-90.8	8.7
2025-01-21 14:53:24.218564	33.1	20.7	-90.4	11.4
2025-01-21 14:53:25.382305	32.8	20.8	-90.9	5.9
2025-01-21 14:53:26.550572	32.6	20.9	-90.6	6.6
2025-01-21 14:53:27.711720	32.3	20.9	-90.6	10.5
2025-01-21 14:53:28.879707	32.0	21.0	-90.9	7.6
2025-01-21 14:53:30.033799	31.8	21.1	-90.8	9.3
2025-01-21 14:53:31.191366	31.5	21.1	-90.6	8.9
2025-01-21 14:53:32.354381	31.3	21.2	-90.4	11.5
2025-01-21 14:53:33.516871	31.0	21.3	-90.6	12.6
2025-01-21 14:53:34.680170	30.7	21.4	-90.9	11.3
2025-01-21 14:53:35.839243	30.5	21.4	-90.7	11.7
2025-01-21 14:53:37.001413	30.2	21.5	-90.8	9.3
2025-01-21 14:53:38.163740	29.9	21.6	-90.7	12.9
2025-01-21 14:53:39.322043	29.6	21.6	-89.8	11.5
2025-01-21 14:53:40.480846	29.4	21.7	-89.6	7.0
2025-01-21 14:53:41.649362	29.1	21.7	-89.4	12.2
2025-01-21 14:53:42.808509	28.8	21.8	-89.8	8.5
2025-01-21 14:53:43.972832	28.5	21.9	-89.6	9.3
2025-01-21 14:53:45.124725	28.3	21.9	-89.9	10.8
2025-01-21 14:53:46.279508	28.0	22.0	-89.9	10.0
2025-01-21 14:53:47.445741	27.7	22.1	-90.1	11.5
2025-01-21 14:53:48.605331	27.4	22.1	-89.8	10.9
2025-01-21 14:53:49.774894	27.2	22.2	-90.1	12.2
2025-01-21 14:53:50.935752	26.9	22.2	-90.1	9.2
2025-01-21 14:53:52.099531	26.6	22.3	-89.6	7.8
2025-01-21 14:53:53.254360	26.3	22.4	-89.6	13.4
2025-01-21 14:53:54.415867	26.0	22.4	-89.9	8.3
2025-01-21 14:53:55.577562	25.7	22.5	-89.9	6.6
2025-01-21 14:53:56.746392	25.4	22.5	-91.1	10.1
2025-01-21 14:53:57.903030	25.1	22.6	-90.9	8.4
2025-01-21 14:53:59.070548	24.9	22.6	-90.9	8.7
2025-01-21 14:54:00.225556	24.6	22.7	-90.4	13.1
2025-01-21 14:54:01.385415	24.3	22.8	-90.9	11.6
2025-01-21 14:54:02.545886	24.0	22.8	-91.0	13.7
2025-01-21 14:54:03.706139	23.7	22.9	-91.1	15.2
2025-01-21 14:54:04.863952	23.4	22.9	-90.7	15.8
2025-01-21 14:54:06.020001	23.1	23.0	-91.0	13.9
2025-01-21 14:54:07.181922	22.8	23.0	-90.8	12.1
2025-01-21 14:54:08.344140	22.5	23.1	-91.0	13.2
2025-01-21 14:54:09.506842	22.2	23.1	-91.3	9.6
2025-01-21 14:54:10.670278	21.9	23.2	-91.1	14.8
2025-01-21 14:54:11.832622	21.6	23.2	-91.0	14.2
2025-01-21 14:54:12.985228	21.3	23.3	-91.3	9.9
2025-01-21 14:54:14.144894	21.0	23.3	-90.9	13.5
2025-01-21 14:54:15.304710	20.7	23.3	-90.6	12.4
2025-01-21 14:54:16.470709	20.4	23.4	-90.7	9.5
2025-01-21 14:54:17.631016	20.1	23.4	-90.6	11.7
2025-01-21 14:54:18.803094	19.8	23.5	-91.0	13.6
2025-01-21 14:54:19.972821	19.5	23.5	-90.0	12.7
2025-01-21 14:54:21.135632	19.1	23.6	-90.0	11.8
2025-01-21 14:54:22.301150	18.8	23.6	-89.8	12.8
2025-01-21 14:54:23.462606	18.5	23.6	-89.8	9.9
2025-01-21 14:54:24.632144	18.2	23.7	-89.6	10.4
2025-01-21 14:54:25.793578	17.9	23.7	-89.6	11.2
2025-01-21 14:54:26.961966	17.6	23.8	-89.9	6.8
2025-01-21 14:54:28.129940	17.3	23.8	-90.1	7.8
2025-01-21 14:54:29.288643	17.0	23.8	-89.9	11.2
2025-01-21 14:54:30.447563	16.6	23.9	-90.1	7.2
2025-01-21 14:54:31.605981	16.3	23.9	-89.8	6.5
2025-01-21 14:54:32.767407	16.0	23.9	-90.2	10.6
2025-01-21 14:54:33.931391	15.7	24.0	-90.1	8.6
2025-01-21 14:54:35.094946	15.4	24.0	-89.9	6.5
2025-01-21 14:54:36.252636	15.1	24.0	-90.0	11.9
2025-01-21 14:54:37.419289	14.7	24.0	-90.3	8.4
2025-01-21 14:54:38.582614	14.4	24.1	-91.0	7.2
2025-01-21 14:54:39.742182	14.1	24.1	-90.6	12.9
2025-01-21 14:54:40.904352	13.8	24.1	-90.7	8.2
2025-01-21 14:54:42.065309	13.5	24.1	-90.9	9.4
2025-01-21 14:54:43.235833	13.1	24.2	-90.8	11.0
2025-01-21 14:54:44.395876	12.8	24.2	-91.2	9.6
2025-01-21 14:54:45.564676	12.5	24.2	-90.9	12.3
2025-01-21 14:54:46.722760	12.2	24.2	-91.0	12.0
2025-01-21 14:54:47.884226	11.9	24.3	-90.8	10.0
2025-01-21 14:54:49.042831	11.5	24.3	-91.0	9.3
2025-01-21 14:54:50.207825	11.2	24.3	-90.7	6.2
2025-01-21 14:54:51.369871	10.9	24.3	-89.9	5.5
2025-01-21 14:54:52.535886	10.6	24.3	-89.6	4.3
2025-01-21 14:54:53.704439	10.2	24.3	-90.0	8.8
2025-01-21 14:54:54.867920	9.9	24.4	-89.8	4.0
2025-01-21 14:54:56.034314	9.6	24.4	-90.2	5.5
2025-01-21 14:54:57.198264	9.3	24.4	-90.0	7.9
2025-01-21 14:54:58.363228	8.9	24.4	-90.4	6.8
2025-01-21 14:54:59.525021	8.6	24.4	-90.9	7.3
2025-01-21 14:55:00.684685	8.3	24.4	-91.0	9.1
2025-01-21 14:55:01.845422	7.9	24.4	-91.1	9.0
2025-01-21 14:55:03.009567	7.6	24.4	-90.9	6.1
2025-01-21 14:55:04.178868	7.3	24.4	-90.9	12.6
2025-01-21 14:55:05.339649	7.0	24.4	-90.8	12.2
2025-01-21 14:55:06.506848	6.6	24.4	-91.1	9.6
2025-01-21 14:55:07.670562	6.3	24.4	-90.6	10.6
2025-01-21 14:55:08.829993	6.0	24.4	-90.7	13.9
2025-01-21 14:55:09.984598	5.7	24.4	-90.9	12.1
2025-01-21 14:55:11.148555	5.3	24.4	-90.5	9.5
2025-01-21 14:55:12.312788	5.0	24.4	-90.5	12.4
2025-01-21 14:55:13.477067	4.7	24.4	-91.0	12.0
2025-01-21 14:55:14.638314	4.3	24.4	-91.0	13.2
2025-01-21 14:55:15.805144	4.0	24.4	-90.9	11.9
2025-01-21 14:55:16.967343	3.7	24.4	-91.2	9.5
2025-01-21 14:55:18.130311	3.4	24.4	-91.3	12.5
2025-01-21 14:55:19.296237	3.0	24.4	-91.2	13.9
2025-01-21 14:55:20.459374	2.7	24.4	-90.9	12.9
2025-01-21 14:55:21.625969	2.4	24.4	-90.8	12.4
2025-01-21 14:55:22.784598	2.1	24.4	-91.3	10.6
2025-01-21 14:55:23.941473	1.7	24.4	-90.3	9.2
2025-01-21 14:55:25.107821	1.4	24.4	-90.6	11.7
2025-01-21 14:55:26.270922	1.1	24.3	-90.6	10.7
2025-01-21 14:55:27.434190	0.8	24.3	-91.0	8.1
2025-01-21 14:55:28.596453	0.4	24.3	-91.3	10.1
2025-01-21 14:55:29.754289	0.1	24.3	-91.4	12.4
2025-01-21 14:55:30.925201	359.8	24.3	-91.2	9.1
2025-01-21 14:55:32.086467	359.5	24.3	-91.0	10.7
2025-01-21 14:55:33.245737	359.1	24.2	-90.7	14.0
2025-01-21 14:55:34.420326	358.8	24.2	-90.7	6.9
2025-01-21 14:55:35.584217	358.5	24.2	-91.1	10.4
2025-01-21 14:55:36.757747	358.2	24.2	-91.1	13.9
2025-01-21 14:55:37.917399	357.8	24.2	-90.8	8.7
2025-01-21 14:55:39.075493	357.5	24.1	-90.9	7.6
2025-01-21 14:55:40.227398	357.2	24.1	-90.8	14.5
2025-01-21 14:55:41.391751	356.9	24.1	-91.0	10.9
2025-01-21 14:55:42.555753	356.6	24.1	-91.1	7.9
2025-01-21 14:55:43.712865	356.2	24.0	-91.2	15.5
2025-01-21 14:55:44.876468	355.9	24.0	-90.9	10.7
2025-01-21 14:55:46.040730	355.6	24.0	-90.7	6.2
2025-01-21 14:55:47.199846	355.3	23.9	-90.4	10.2
2025-01-21 14:55:48.359336	355.0	23.9	-90.6	11.7
2025-01-21 14:55:49.521485	354.7	23.9	-90.7	8.9
2025-01-21 14:55:50.692028	354.3	23.8	-90.9	16.1
2025-01-21 14:55:51.846194	354.0	23.8	-91.0	15.6
2025-01-21 14:55:52.998379	353.7	23.8	-90.3	8.3
2025-01-21 14:55:54.156930	353.4	23.7	-90.8	15.0
2025-01-21 14:55:55.325107	353.1	23.7	-90.6	14.7
2025-01-21 14:55:56.483258	352.8	23.7	-90.9	8.5
2025-01-21 14:55:57.651296	352.5	23.6	-90.7	14.4
2025-01-21 14:55:58.813933	352.1	23.6	-90.6	14.3
2025-01-21 14:55:59.976734	351.8	23.5	-90.7	7.5
2025-01-21 14:56:01.136031	351.5	23.5	-90.1	7.4
2025-01-21 14:56:02.301524	351.2	23.5	-90.1	8.2
2025-01-21 14:56:03.457547	350.9	23.4	-90.2	6.3
2025-01-21 14:56:04.626104	350.6	23.4	-90.1	10.2
2025-01-21 14:56:05.790712	350.3	23.3	-90.1	12.8
2025-01-21 14:56:06.953303	350.0	23.3	-90.0	7.4
2025-01-21 14:56:08.118438	349.7	23.2	-90.0	9.8
2025-01-21 14:56:09.284813	349.4	23.2	-89.6	11.9
2025-01-21 14:56:10.458304	349.1	23.1	-90.4	7.1
2025-01-21 14:56:11.621981	348.8	23.1	-90.5	10.6
2025-01-21 14:56:12.783005	348.5	23.0	-90.4	12.1
2025-01-21 14:56:13.942280	348.2	23.0	-90.3	6.9
2025-01-21 14:56:15.108643	347.9	22.9	-89.5	7.8
2025-01-21 14:56:16.273249	347.6	22.9	-89.8	12.5
2025-01-21 14:56:17.431367	347.3	22.8	-91.1	6.2
2025-01-21 14:56:18.598512	347.0	22.8	-91.2	3.2
2025-01-21 14:56:19.760079	346.7	22.7	-91.3	7.9
2025-01-21 14:56:20.928380	346.4	22.7	-91.3	6.5
2025-01-21 14:56:22.085638	346.1	22.6	-90.9	6.9
2025-01-21 14:56:23.247273	345.8	22.6	-90.7	7.9
2025-01-21 14:56:24.402802	345.5	22.5	-91.2	7.3
2025-01-21 14:56:25.561895	345.3	22.4	-91.2	7.4
2025-01-21 14:56:26.721955	345.0	22.4	-91.2	9.3
2025-01-21 14:56:27.878602	344.7	22.3	-91.0	9.7
2025-01-21 14:56:29.039709	344.4	22.3	-90.9	7.1
2025-01-21 14:56:30.208334	344.1	22.2	-90.1	8.4
2025-01-21 14:56:31.370776	343.8	22.1	-90.7	12.1
2025-01-21 14:56:32.528783	343.5	22.1	-91.2	7.9
2025-01-21 14:56:33.688027	343.3	22.0	-91.1	13.0
2025-01-21 14:56:34.846546	343.0	22.0	-91.0	12.2
2025-01-21 14:56:36.012741	342.7	21.9	-90.9	6.3
2025-01-21 14:56:37.176793	342.4	21.8	-90.6	11.9
2025-01-21 14:56:38.336653	342.1	21.8	-90.2	13.6
2025-01-21 14:56:39.496081	341.9	21.7	-90.9	8.3
2025-01-21 14:56:40.659905	341.6	21.6	-91.0	8.5
2025-01-21 14:56:41.824611	341.3	21.6	-91.4	7.8
2025-01-21 14:56:42.986189	341.1	21.5	-91.2	10.3
2025-01-21 14:56:44.141251	340.8	21.4	-90.7	9.5
2025-01-21 14:56:45.308269	340.5	21.4	-90.9	10.0
2025-01-21 14:56:46.470769	340.2	21.3	-91.0	7.3
2025-01-21 14:56:47.626303	340.0	21.2	-90.9	8.9
2025-01-21 14:56:48.786654	339.7	21.2	-91.2	11.0
2025-01-21 14:56:49.946028	339.4	21.1	-91.1	8.5
2025-01-21 14:56:51.109239	339.2	21.0	-91.0	8.8
2025-01-21 14:56:52.272907	338.9	21.0	-90.8	10.7
2025-01-21 14:56:53.434410	338.7	20.9	-91.0	9.7
2025-01-21 14:56:54.592784	338.4	20.8	-91.1	10.2
2025-01-21 14:56:55.735376	338.1	20.7	-91.3	11.8
2025-01-21 14:56:56.856787	337.9	20.7	-91.4	10.0
2025-01-21 14:56:57.977164	337.6	20.6	-91.3	5.6
2025-01-21 14:56:59.098221	337.4	20.5	-90.8	8.2
2025-01-21 14:57:00.218974	337.2	20.5	-90.9	6.4
2025-01-21 14:57:01.339974	336.9	20.4	-91.1	5.7
2025-01-21 14:57:02.460586	336.7	20.3	-91.2	8.2
2025-01-21 14:57:03.581524	336.4	20.3	-91.4	5.6
2025-01-21 14:57:04.702249	336.2	20.2	-91.5	5.1
2025-01-21 14:57:05.832120	335.9	20.1	-91.2	3.6
2025-01-21 14:57:06.994339	335.7	20.0	-91.3	4.3
2025-01-21 14:57:08.148888	335.5	20.0	-90.4	3.9
2025-01-21 14:57:09.315322	335.2	19.9	-90.9	4.2
2025-01-21 14:57:10.473308	335.0	19.8	-91.0	3.3
2025-01-21 14:57:11.636139	334.7	19.7	-91.1	4.3
2025-01-21 14:57:12.798300	334.5	19.7	-91.0	5.2
2025-01-21 14:57:13.955221	334.2	19.6	-90.9	3.5
2025-01-21 14:57:15.117353	334.0	19.5	-90.5	6.8
2025-01-21 14:57:16.281487	333.8	19.4	-90.2	7.3
2025-01-21 14:57:17.435768	333.5	19.3	-91.0	4.7
2025-01-21 14:57:18.603125	333.3	19.3	-90.8	2.8
2025-01-21 14:57:19.763651	333.1	19.2	-90.8	8.2
2025-01-21 14:57:20.927593	332.8	19.1	-91.1	5.1
2025-01-21 14:57:22.095411	332.6	19.0	-91.1	4.9
2025-01-21 14:57:23.254618	332.4	19.0	-90.7	4.9
2025-01-21 14:57:24.416203	332.1	18.9	-91.5	3.3
2025-01-21 14:57:25.572310	331.9	18.8	-91.5	3.2
2025-01-21 14:57:26.734160	331.7	18.7	-91.4	6.6
2025-01-21 14:57:27.892704	331.5	18.6	-91.4	4.1
2025-01-21 14:57:29.061975	331.2	18.6	-90.9	3.5
2025-01-21 14:57:30.218316	331.0	18.5	-89.9	4.9
2025-01-21 14:57:31.391023	330.8	18.4	-89.6	3.9
2025-01-21 14:57:32.551035	330.6	18.3	-89.9	5.7
2025-01-21 14:57:33.709822	330.3	18.2	-90.1	4.3
2025-01-21 14:57:34.870156	330.1	18.1	-90.0	7.1
2025-01-21 14:57:36.022571	329.9	18.1	-90.0	6.0
2025-01-21 14:57:37.186318	329.7	18.0	-90.2	4.9
2025-01-21 14:57:38.349197	329.5	17.9	-90.6	2.8
2025-01-21 14:57:39.516651	329.3	17.8	-91.1	2.4
2025-01-21 14:57:40.681049	329.1	17.7	-91.3	4.0
2025-01-21 14:57:41.844618	328.8	17.7	-91.1	5.7
2025-01-21 14:57:43.005543	328.6	17.6	-90.8	3.4
2025-01-21 14:57:44.161561	328.4	17.5	-91.0	3.9
2025-01-21 14:57:45.329762	328.2	17.4	-90.4	3.7
2025-01-21 14:57:46.484796	328.0	17.3	-90.7	4.4
2025-01-21 14:57:47.646164	327.8	17.2	-91.1	5.4
2025-01-21 14:57:48.810341	327.6	17.2	-90.9	5.5
2025-01-21 14:57:49.972072	327.4	17.1	-90.7	4.6
2025-01-21 14:57:51.128854	327.2	17.0	-90.0	6.4
2025-01-21 14:57:52.296941	327.0	16.9	-90.2	6.3
2025-01-21 14:57:53.457094	326.8	16.8	-90.6	6.4
2025-01-21 14:57:54.620283	326.6	16.7	-90.6	8.5
2025-01-21 14:57:55.782526	326.4	16.7	-90.2	9.1
2025-01-21 14:57:56.945655	326.2	16.6	-90.3	5.2
2025-01-21 14:57:58.104545	326.0	16.5	-91.0	7.5
2025-01-21 14:57:59.268189	325.8	16.4	-90.8	5.1
2025-01-21 14:58:00.431377	325.6	16.3	-91.2	5.7
2025-01-21 14:58:01.588859	325.4	16.2	-91.4	5.1
2025-01-21 14:58:02.749586	325.2	16.2	-91.2	6.7
2025-01-21 14:58:03.915732	325.0	16.1	-91.0	10.8
2025-01-21 14:58:05.079644	324.8	16.0	-91.0	6.5
2025-01-21 14:58:06.232470	324.7	15.9	-90.8	6.6
2025-01-21 14:58:07.401978	324.5	15.8	-91.0	6.1
2025-01-21 14:58:08.560503	324.3	15.7	-91.4	8.2
2025-01-21 14:58:09.727885	324.1	15.7	-91.1	11.4
2025-01-21 14:58:10.887017	323.9	15.6	-90.8	6.1
2025-01-21 14:58:12.046317	323.7	15.5	-90.5	5.4
2025-01-21 14:58:13.212874	323.6	15.4	-90.9	4.9
2025-01-21 14:58:14.372254	323.4	15.3	-90.6	9.0
2025-01-21 14:58:15.540947	323.2	15.2	-91.3	5.1
2025-01-21 14:58:16.696969	323.0	15.2	-91.1	11.5
2025-01-21 14:58:17.859962	322.8	15.1	-90.9	10.1
2025-01-21 14:58:19.026632	322.7	15.0	-91.2	6.2
2025-01-21 14:58:20.197699	322.5	14.9	-91.0	8.3
2025-01-21 14:58:21.366389	322.3	14.8	-91.1	11.3
2025-01-21 14:58:22.530363	322.1	14.7	-91.3	5.9
2025-01-21 14:58:23.721627	322.0	14.6	-90.8	7.9
#Closed at: 2025-01-21 14:52:06.078878