passes_logs/2025/01/21/LEX_Murmansk/LEX_Murmansk__20250121_213456_NOAA_18_rec.log

#Pass ID: 20250121_213456_NOAA 18
#Satellite: NOAA 18
#Configuration: NOAA 18
#Start time: 2025-01-21 21:34:51.916365

#LorettStation: 1.0.0 05.05.2024
#Station: LEX_Murmansk
#Location: 33.156738 lon 68.926811 lat
#TLE: 1 28654U 05018A   25021.17963601  .00000484  00000+0  28040-3 0  9994
#TLE: 2 28654  98.8557 102.1724 0014626 162.0619 198.1073 14.13492794 14053

#Time	Az	El	Level	SNR
2025-01-21 21:35:04.189814	248.7	15.7	-91.0	9.7
2025-01-21 21:35:05.352624	248.9	15.7	-91.7	18.0
2025-01-21 21:35:06.513825	249.1	15.8	-92.1	9.7
2025-01-21 21:35:07.677103	249.3	15.9	-91.9	10.7
2025-01-21 21:35:08.835926	249.5	15.9	-92.1	14.2
2025-01-21 21:35:09.997924	249.7	16.0	-91.9	9.1
2025-01-21 21:35:11.163372	250.0	16.0	-91.5	10.9
2025-01-21 21:35:12.321681	250.2	16.1	-91.9	12.7
2025-01-21 21:35:13.489469	250.4	16.2	-92.0	12.9
2025-01-21 21:35:14.654627	250.6	16.2	-92.2	9.0
2025-01-21 21:35:15.821634	250.8	16.3	-92.0	11.3
2025-01-21 21:35:16.980482	251.1	16.3	-92.3	10.2
2025-01-21 21:35:18.132593	251.3	16.4	-91.6	8.0
2025-01-21 21:35:19.292301	251.5	16.5	-91.7	12.6
2025-01-21 21:35:20.445024	251.7	16.5	-92.0	6.7
2025-01-21 21:35:21.607341	252.0	16.6	-92.4	10.0
2025-01-21 21:35:22.770032	252.2	16.6	-92.3	13.2
2025-01-21 21:35:23.924103	252.4	16.7	-92.5	4.5
2025-01-21 21:35:25.073202	252.6	16.7	-91.8	5.2
2025-01-21 21:35:26.231603	252.9	16.8	-91.4	13.0
2025-01-21 21:35:27.396498	253.1	16.9	-91.8	5.4
2025-01-21 21:35:28.558538	253.3	16.9	-92.1	11.4
2025-01-21 21:35:29.717921	253.6	17.0	-92.5	10.5
2025-01-21 21:35:30.876093	253.8	17.0	-92.4	12.7
2025-01-21 21:35:32.033677	254.0	17.1	-91.9	4.7
2025-01-21 21:35:33.188430	254.3	17.1	-91.7	8.2
2025-01-21 21:35:34.352323	254.5	17.2	-92.2	12.4
2025-01-21 21:35:35.517184	254.7	17.3	-92.7	5.3
2025-01-21 21:35:36.676966	255.0	17.3	-92.2	14.5
2025-01-21 21:35:37.830867	255.2	17.4	-92.4	9.5
2025-01-21 21:35:38.993516	255.5	17.4	-92.5	7.7
2025-01-21 21:35:40.152224	255.7	17.5	-92.1	5.6
2025-01-21 21:35:41.309106	255.9	17.5	-91.6	6.9
2025-01-21 21:35:42.461955	256.2	17.6	-92.5	8.2
2025-01-21 21:35:43.617845	256.4	17.6	-92.3	7.5
2025-01-21 21:35:44.778329	256.7	17.7	-92.2	8.0
2025-01-21 21:35:45.940836	256.9	17.7	-92.0	5.3
2025-01-21 21:35:47.104401	257.1	17.8	-92.2	5.4
2025-01-21 21:35:48.264912	257.4	17.8	-92.4	5.3
2025-01-21 21:35:49.426839	257.6	17.9	-92.6	3.8
2025-01-21 21:35:50.585635	257.9	17.9	-92.3	5.8
2025-01-21 21:35:51.749265	258.1	18.0	-92.4	5.5
2025-01-21 21:35:52.902693	258.4	18.0	-92.6	5.2
2025-01-21 21:35:54.064552	258.6	18.1	-92.5	5.4
2025-01-21 21:35:55.226880	258.9	18.1	-92.3	4.1
2025-01-21 21:35:56.383697	259.1	18.2	-92.0	3.2
2025-01-21 21:35:57.547550	259.4	18.2	-92.6	5.1
2025-01-21 21:35:58.707491	259.6	18.3	-92.3	6.2
2025-01-21 21:35:59.858437	259.9	18.3	-92.5	3.4
2025-01-21 21:36:00.996196	260.1	18.4	-92.6	4.6
2025-01-21 21:36:02.155225	260.4	18.4	-92.0	4.0
2025-01-21 21:36:03.314401	260.6	18.4	-92.0	6.2
2025-01-21 21:36:04.473397	260.9	18.5	-92.6	4.8
2025-01-21 21:36:05.642488	261.2	18.5	-92.3	4.4
2025-01-21 21:36:06.802102	261.4	18.6	-92.6	3.5
2025-01-21 21:36:07.965404	261.7	18.6	-92.5	2.6
2025-01-21 21:36:09.121684	261.9	18.7	-92.1	3.3
2025-01-21 21:36:10.284597	262.2	18.7	-91.8	2.9
2025-01-21 21:36:11.444187	262.4	18.7	-92.5	7.2
2025-01-21 21:36:12.602915	262.7	18.8	-92.1	3.3
2025-01-21 21:36:13.764014	263.0	18.8	-92.5	3.6
2025-01-21 21:36:14.932498	263.2	18.9	-92.8	3.5
2025-01-21 21:36:16.092001	263.5	18.9	-92.2	5.4
2025-01-21 21:36:17.262505	263.8	18.9	-91.9	5.7
2025-01-21 21:36:18.422480	264.0	19.0	-92.0	4.1
2025-01-21 21:36:19.580213	264.3	19.0	-92.7	3.6
2025-01-21 21:36:20.743111	264.6	19.1	-92.6	4.5
2025-01-21 21:36:21.908314	264.8	19.1	-92.3	4.1
2025-01-21 21:36:23.066262	265.1	19.1	-92.3	3.5
2025-01-21 21:36:24.222815	265.4	19.2	-92.1	4.4
2025-01-21 21:36:25.381975	265.6	19.2	-92.1	4.6
2025-01-21 21:36:26.538064	265.9	19.2	-92.1	4.3
2025-01-21 21:36:27.704753	266.2	19.3	-92.4	4.2
2025-01-21 21:36:28.864748	266.4	19.3	-92.5	2.6
2025-01-21 21:36:30.024531	266.7	19.3	-91.9	6.3
2025-01-21 21:36:31.174337	267.0	19.4	-92.3	3.5
2025-01-21 21:36:32.329117	267.2	19.4	-92.5	7.0
2025-01-21 21:36:33.453826	267.5	19.4	-92.5	5.4
2025-01-21 21:36:34.575180	267.8	19.5	-92.4	5.1
2025-01-21 21:36:35.695991	268.0	19.5	-92.5	8.2
2025-01-21 21:36:36.815774	268.3	19.5	-92.2	5.7
2025-01-21 21:36:37.937016	268.6	19.5	-92.5	7.6
2025-01-21 21:36:39.058028	268.8	19.6	-92.4	7.4
2025-01-21 21:36:40.179745	269.1	19.6	-92.2	5.5
2025-01-21 21:36:41.300955	269.4	19.6	-91.8	9.0
2025-01-21 21:36:42.424291	269.6	19.7	-92.5	7.2
2025-01-21 21:36:43.569790	269.9	19.7	-92.6	6.0
2025-01-21 21:36:44.732702	270.2	19.7	-92.9	5.7
2025-01-21 21:36:45.888351	270.4	19.7	-92.8	4.0
2025-01-21 21:36:47.046629	270.7	19.7	-92.4	3.2
2025-01-21 21:36:48.201673	271.0	19.8	-92.6	4.5
2025-01-21 21:36:49.363570	271.3	19.8	-92.5	5.6
2025-01-21 21:36:50.525909	271.6	19.8	-92.7	3.6
2025-01-21 21:36:51.681655	271.8	19.8	-92.3	4.5
2025-01-21 21:36:52.839923	272.1	19.9	-92.5	5.9
2025-01-21 21:36:53.998836	272.4	19.9	-92.8	7.0
2025-01-21 21:36:55.159301	272.7	19.9	-92.3	6.2
2025-01-21 21:36:56.313464	272.9	19.9	-91.8	3.7
2025-01-21 21:36:57.476513	273.2	19.9	-92.5	6.1
2025-01-21 21:36:58.631576	273.5	20.0	-92.7	6.3
2025-01-21 21:36:59.797166	273.8	20.0	-92.8	11.0
2025-01-21 21:37:00.959148	274.1	20.0	-92.5	7.4
2025-01-21 21:37:02.111358	274.4	20.0	-92.7	5.5
2025-01-21 21:37:03.263143	274.6	20.0	-91.8	3.5
2025-01-21 21:37:04.430441	274.9	20.0	-92.3	4.7
2025-01-21 21:37:05.589046	275.2	20.0	-92.5	4.5
2025-01-21 21:37:06.748058	275.5	20.1	-92.8	5.1
2025-01-21 21:37:07.908766	275.8	20.1	-92.4	6.3
2025-01-21 21:37:09.067007	276.0	20.1	-92.5	2.9
2025-01-21 21:37:10.228771	276.3	20.1	-92.1	5.1
2025-01-21 21:37:11.384948	276.6	20.1	-92.7	7.5
2025-01-21 21:37:12.542903	276.9	20.1	-92.7	4.4
2025-01-21 21:37:13.709045	277.2	20.1	-92.9	8.2
2025-01-21 21:37:14.868704	277.5	20.1	-92.8	5.2
2025-01-21 21:37:16.029512	277.7	20.1	-92.5	3.4
2025-01-21 21:37:17.194806	278.0	20.1	-92.4	4.7
2025-01-21 21:37:18.354319	278.3	20.1	-92.2	4.0
2025-01-21 21:37:19.510705	278.6	20.1	-92.7	6.0
2025-01-21 21:37:20.668576	278.9	20.1	-92.6	8.5
2025-01-21 21:37:21.830745	279.2	20.2	-92.5	7.8
2025-01-21 21:37:22.992148	279.5	20.2	-92.2	9.9
2025-01-21 21:37:24.153011	279.7	20.2	-92.6	8.6
2025-01-21 21:37:25.313539	280.0	20.2	-92.3	6.0
2025-01-21 21:37:26.472455	280.3	20.2	-92.7	7.0
2025-01-21 21:37:27.632461	280.6	20.2	-92.5	8.6
2025-01-21 21:37:28.791513	280.9	20.2	-92.5	9.8
2025-01-21 21:37:29.947869	281.2	20.2	-92.8	6.8
2025-01-21 21:37:31.108170	281.4	20.2	-92.5	8.4
2025-01-21 21:37:32.277471	281.7	20.2	-92.2	14.8
2025-01-21 21:37:33.434067	282.0	20.1	-92.4	13.6
2025-01-21 21:37:34.594846	282.3	20.1	-92.3	14.5
2025-01-21 21:37:35.752420	282.6	20.1	-92.8	7.6
2025-01-21 21:37:36.910707	282.9	20.1	-92.4	9.9
2025-01-21 21:37:38.075756	283.2	20.1	-92.0	17.0
2025-01-21 21:37:39.245501	283.4	20.1	-92.4	16.3
2025-01-21 21:37:40.403201	283.7	20.1	-92.5	14.0
2025-01-21 21:37:41.564308	284.0	20.1	-92.8	12.9
2025-01-21 21:37:42.725095	284.3	20.1	-92.4	12.7
2025-01-21 21:37:43.888701	284.6	20.1	-91.3	10.2
2025-01-21 21:37:45.039497	284.9	20.1	-90.6	9.6
2025-01-21 21:37:46.203437	285.1	20.1	-91.9	7.6
2025-01-21 21:37:47.364503	285.4	20.1	-92.5	10.8
2025-01-21 21:37:48.526756	285.7	20.0	-92.6	11.7
2025-01-21 21:37:49.686741	286.0	20.0	-92.7	10.4
2025-01-21 21:37:50.847315	286.3	20.0	-92.5	16.3
2025-01-21 21:37:52.009211	286.6	20.0	-92.7	10.9
2025-01-21 21:37:53.163822	286.8	20.0	-92.1	7.0
2025-01-21 21:37:54.322779	287.1	20.0	-92.1	9.3
2025-01-21 21:37:55.497369	287.4	20.0	-92.0	6.7
2025-01-21 21:37:56.661783	287.7	19.9	-92.3	9.7
2025-01-21 21:37:57.821610	288.0	19.9	-92.2	9.8
2025-01-21 21:37:58.985735	288.2	19.9	-92.5	8.2
2025-01-21 21:38:00.153869	288.5	19.9	-92.1	11.7
2025-01-21 21:38:01.315292	288.8	19.9	-92.1	11.3
2025-01-21 21:38:02.469802	289.1	19.8	-92.5	8.5
2025-01-21 21:38:03.627737	289.4	19.8	-92.5	9.6
2025-01-21 21:38:04.788171	289.6	19.8	-92.7	12.6
2025-01-21 21:38:05.953385	289.9	19.8	-92.4	13.5
2025-01-21 21:38:07.113129	290.2	19.7	-92.3	6.9
2025-01-21 21:38:08.270294	290.5	19.7	-92.3	13.9
2025-01-21 21:38:09.432156	290.8	19.7	-92.7	8.4
2025-01-21 21:38:10.590873	291.0	19.7	-92.6	7.1
2025-01-21 21:38:11.745386	291.3	19.6	-92.6	16.0
2025-01-21 21:38:12.906356	291.6	19.6	-93.0	14.4
2025-01-21 21:38:14.075662	291.9	19.6	-92.6	7.9
2025-01-21 21:38:15.235322	292.1	19.6	-92.0	16.1
2025-01-21 21:38:16.399665	292.4	19.5	-90.0	10.7
2025-01-21 21:38:17.559609	292.7	19.5	-86.2	9.3
2025-01-21 21:38:18.722394	293.0	19.5	-91.1	15.2
2025-01-21 21:38:19.876532	293.2	19.5	-92.4	7.7
2025-01-21 21:38:21.036559	293.5	19.4	-92.5	9.0
2025-01-21 21:38:22.200703	293.8	19.4	-92.4	6.8
2025-01-21 21:38:23.364886	294.0	19.4	-92.4	11.3
2025-01-21 21:38:24.524784	294.3	19.3	-92.2	6.0
2025-01-21 21:38:25.698312	294.6	19.3	-91.8	9.6
2025-01-21 21:38:26.865518	294.9	19.3	-91.8	5.1
2025-01-21 21:38:28.028180	295.1	19.2	-92.7	9.7
2025-01-21 21:38:29.201454	295.4	19.2	-92.3	6.3
2025-01-21 21:38:30.359052	295.7	19.2	-92.2	12.7
2025-01-21 21:38:31.518827	295.9	19.1	-92.3	8.2
2025-01-21 21:38:32.679967	296.2	19.1	-92.2	6.4
2025-01-21 21:38:33.835288	296.5	19.0	-92.8	4.6
2025-01-21 21:38:34.999860	296.7	19.0	-92.5	6.9
2025-01-21 21:38:36.169129	297.0	19.0	-92.7	7.3
2025-01-21 21:38:37.329595	297.3	18.9	-91.8	4.7
2025-01-21 21:38:38.487268	297.5	18.9	-92.7	6.4
2025-01-21 21:38:39.650342	297.8	18.9	-92.8	8.2
2025-01-21 21:38:40.806629	298.0	18.8	-92.4	7.1
2025-01-21 21:38:41.965467	298.3	18.8	-92.6	9.7
2025-01-21 21:38:43.122737	298.6	18.7	-92.6	7.9
2025-01-21 21:38:44.284285	298.8	18.7	-92.1	10.3
2025-01-21 21:38:45.443560	299.1	18.6	-92.6	12.2
2025-01-21 21:38:46.611863	299.3	18.6	-87.6	7.7
2025-01-21 21:38:47.773992	299.6	18.6	-91.9	7.8
2025-01-21 21:38:48.944199	299.9	18.5	-92.4	6.6
2025-01-21 21:38:50.100690	300.1	18.5	-92.1	7.6
2025-01-21 21:38:51.263016	300.4	18.4	-92.0	12.9
2025-01-21 21:38:52.421142	300.6	18.4	-91.8	7.1
2025-01-21 21:38:53.578834	300.9	18.3	-92.2	4.2
2025-01-21 21:38:54.748082	301.1	18.3	-92.6	8.9
2025-01-21 21:38:55.902080	301.4	18.2	-92.6	7.5
2025-01-21 21:38:57.046168	301.6	18.2	-92.7	7.7
2025-01-21 21:38:58.204851	301.9	18.2	-92.3	11.3
2025-01-21 21:38:59.361705	302.1	18.1	-92.0	11.7
2025-01-21 21:39:00.515603	302.4	18.1	-92.5	8.6
2025-01-21 21:39:01.669717	302.6	18.0	-92.7	7.9
2025-01-21 21:39:02.838891	302.9	18.0	-92.3	6.6
2025-01-21 21:39:03.997781	303.1	17.9	-92.6	4.9
2025-01-21 21:39:05.167291	303.4	17.9	-91.6	6.9
2025-01-21 21:39:06.325549	303.6	17.8	-91.9	11.3
2025-01-21 21:39:07.487481	303.9	17.8	-92.3	6.4
2025-01-21 21:39:08.647318	304.1	17.7	-92.0	9.9
2025-01-21 21:39:09.803785	304.4	17.7	-92.6	4.3
2025-01-21 21:39:10.966046	304.6	17.6	-92.2	5.3
2025-01-21 21:39:12.125948	304.8	17.6	-92.2	6.9
2025-01-21 21:39:13.289266	305.1	17.5	-92.2	6.9
2025-01-21 21:39:14.440315	305.3	17.4	-92.4	6.7
2025-01-21 21:39:15.600894	305.6	17.4	-92.2	6.4
2025-01-21 21:39:16.759964	305.8	17.3	-92.4	7.9
2025-01-21 21:39:17.923664	306.0	17.3	-92.1	4.9
2025-01-21 21:39:19.087791	306.3	17.2	-91.6	3.9
2025-01-21 21:39:20.245010	306.5	17.2	-91.3	6.6
2025-01-21 21:39:21.404927	306.7	17.1	-92.0	4.9
2025-01-21 21:39:22.565152	307.0	17.1	-91.9	6.9
2025-01-21 21:39:23.717063	307.2	17.0	-92.3	9.9
2025-01-21 21:39:24.883392	307.4	17.0	-92.4	7.3
2025-01-21 21:39:26.034969	307.7	16.9	-92.4	6.4
2025-01-21 21:39:27.194830	307.9	16.8	-92.1	7.5
2025-01-21 21:39:28.347134	308.1	16.8	-92.2	10.2
2025-01-21 21:39:29.504882	308.4	16.7	-93.0	5.8
2025-01-21 21:39:30.664657	308.6	16.7	-92.6	10.6
2025-01-21 21:39:31.816725	308.8	16.6	-92.9	10.0
2025-01-21 21:39:32.977991	309.0	16.6	-92.6	5.6
2025-01-21 21:39:34.140342	309.3	16.5	-92.6	5.7
2025-01-21 21:39:35.298513	309.5	16.4	-92.7	5.4
2025-01-21 21:39:36.461678	309.7	16.4	-92.6	9.7
2025-01-21 21:39:37.619850	309.9	16.3	-92.7	9.2
2025-01-21 21:39:38.779898	310.2	16.3	-92.5	9.6
2025-01-21 21:39:39.935210	310.4	16.2	-92.3	11.3
2025-01-21 21:39:41.095122	310.6	16.1	-92.3	8.8
2025-01-21 21:39:42.257805	310.8	16.1	-92.4	7.4
2025-01-21 21:39:43.417962	311.0	16.0	-92.5	11.9
2025-01-21 21:39:44.571990	311.3	16.0	-91.7	7.8
2025-01-21 21:39:45.738301	311.5	15.9	-92.3	13.8
2025-01-21 21:39:46.896290	311.7	15.8	-92.4	8.4
2025-01-21 21:39:48.056264	311.9	15.8	-91.8	11.9
2025-01-21 21:39:49.224449	312.1	15.7	-92.0	8.2
2025-01-21 21:39:50.383241	312.3	15.6	-92.1	9.7
2025-01-21 21:39:51.539951	312.6	15.6	-92.8	9.0
2025-01-21 21:39:52.700884	312.8	15.5	-92.3	8.9
2025-01-21 21:39:53.857076	313.0	15.5	-92.6	12.3
2025-01-21 21:39:55.016040	313.2	15.4	-92.7	9.7
2025-01-21 21:39:56.176987	313.4	15.3	-92.0	10.1
2025-01-21 21:39:57.334058	313.6	15.3	-92.2	8.4
2025-01-21 21:39:58.492974	313.8	15.2	-92.0	6.1
2025-01-21 21:39:59.651075	314.0	15.1	-92.5	8.1
2025-01-21 21:40:00.808433	314.2	15.1	-92.5	7.6
2025-01-21 21:40:01.967154	314.4	15.0	-92.4	4.9
2025-01-21 21:40:03.127862	314.6	15.0	-92.0	4.0
2025-01-21 21:40:04.286619	314.8	14.9	-92.0	7.6
2025-01-21 21:40:05.444870	315.0	14.8	-91.8	6.4
2025-01-21 21:40:06.606558	315.2	14.8	-92.5	3.9
2025-01-21 21:40:07.786584	315.5	14.7	-92.7	6.6
#Closed at: 2025-01-21 21:34:56.976650