passes_logs/2025/01/21/LEX_Murmansk/LEX_Murmansk__20250121_110759_NOAA_19_rec.log

#Pass ID: 20250121_110759_NOAA 19
#Satellite: NOAA 19
#Configuration: NOAA 19
#Start time: 2025-01-21 11:07:54.364824

#LorettStation: 1.0.0 05.05.2024
#Station: LEX_Murmansk
#Location: 33.156738 lon 68.926811 lat
#TLE: 1 33591U 09005A   25020.17232911  .00000399  00000+0  23710-3 0  9996
#TLE: 2 33591  99.0187  83.9745 0014303  43.5990 316.6309 14.13263973822272

#Time	Az	El	Level	SNR
2025-01-21 11:08:06.492835	24.2	16.1	-90.3	2.2
2025-01-21 11:08:07.662221	24.1	16.2	-90.3	0.7
2025-01-21 11:08:08.828407	24.0	16.3	-90.3	4.6
2025-01-21 11:08:09.986780	23.8	16.4	-90.4	3.9
2025-01-21 11:08:11.142729	23.7	16.5	-90.2	2.4
2025-01-21 11:08:12.311545	23.6	16.7	-90.6	2.6
2025-01-21 11:08:13.477787	23.4	16.8	-90.6	5.6
2025-01-21 11:08:14.641373	23.3	16.9	-90.4	4.9
2025-01-21 11:08:15.805631	23.1	17.0	-90.4	5.7
2025-01-21 11:08:16.971205	23.0	17.1	-90.5	8.1
2025-01-21 11:08:18.138074	22.8	17.2	-90.4	4.9
2025-01-21 11:08:19.290117	22.7	17.3	-90.7	4.2
2025-01-21 11:08:20.456016	22.5	17.4	-90.8	3.4
2025-01-21 11:08:21.618704	22.4	17.5	-90.8	2.5
2025-01-21 11:08:22.784259	22.2	17.7	-91.1	3.0
2025-01-21 11:08:23.948422	22.1	17.8	-90.9	2.8
2025-01-21 11:08:25.115322	21.9	17.9	-90.8	4.3
2025-01-21 11:08:26.276141	21.8	18.0	-90.3	4.9
2025-01-21 11:08:27.436992	21.6	18.1	-90.9	8.4
2025-01-21 11:08:28.603272	21.5	18.2	-91.3	7.3
2025-01-21 11:08:29.766591	21.3	18.3	-90.9	5.0
2025-01-21 11:08:30.933632	21.2	18.5	-90.9	5.0
2025-01-21 11:08:32.095322	21.0	18.6	-90.6	3.4
2025-01-21 11:08:33.247588	20.8	18.7	-91.0	3.6
2025-01-21 11:08:34.407534	20.7	18.8	-90.9	3.9
2025-01-21 11:08:35.577155	20.5	18.9	-91.3	6.9
2025-01-21 11:08:36.737352	20.3	19.0	-91.0	6.5
2025-01-21 11:08:37.920979	20.2	19.1	-91.1	5.0
2025-01-21 11:08:39.085914	20.0	19.3	-90.9	2.6
2025-01-21 11:08:40.255156	19.8	19.4	-91.0	1.6
2025-01-21 11:08:41.419067	19.7	19.5	-91.1	1.4
2025-01-21 11:08:42.580419	19.5	19.6	-91.4	2.4
2025-01-21 11:08:43.745854	19.3	19.7	-91.2	2.4
2025-01-21 11:08:44.909960	19.2	19.8	-91.3	1.3
2025-01-21 11:08:46.086896	19.0	20.0	-91.0	5.7
2025-01-21 11:08:47.248996	18.8	20.1	-91.0	5.4
2025-01-21 11:08:48.397229	18.6	20.2	-91.0	4.6
2025-01-21 11:08:49.562950	18.4	20.3	-91.0	3.9
2025-01-21 11:08:50.728092	18.3	20.4	-91.4	4.1
2025-01-21 11:08:51.896662	18.1	20.6	-91.2	6.8
2025-01-21 11:08:53.061443	17.9	20.7	-91.3	6.2
2025-01-21 11:08:54.230205	17.7	20.8	-91.0	5.9
2025-01-21 11:08:55.396462	17.5	20.9	-90.8	5.4
2025-01-21 11:08:56.559428	17.3	21.0	-91.2	6.0
2025-01-21 11:08:57.748545	17.1	21.2	-90.9	1.2
2025-01-21 11:08:58.918471	17.0	21.3	-91.1	3.4
2025-01-21 11:09:00.082402	16.8	21.4	-91.1	1.9
2025-01-21 11:09:01.240760	16.6	21.5	-91.3	1.0
2025-01-21 11:09:02.407106	16.4	21.6	-91.4	1.1
2025-01-21 11:09:03.573400	16.2	21.8	-91.2	6.5
2025-01-21 11:09:04.737879	16.0	21.9	-91.0	5.6
2025-01-21 11:09:05.908035	15.8	22.0	-90.7	6.0
2025-01-21 11:09:07.068834	15.6	22.1	-91.4	3.7
2025-01-21 11:09:08.245996	15.4	22.3	-91.1	4.8
2025-01-21 11:09:09.411645	15.2	22.4	-91.0	4.0
2025-01-21 11:09:10.572427	15.0	22.5	-91.0	4.5
2025-01-21 11:09:11.740408	14.7	22.6	-91.0	4.4
2025-01-21 11:09:12.906030	14.5	22.8	-91.2	5.8
2025-01-21 11:09:14.071149	14.3	22.9	-91.3	5.3
2025-01-21 11:09:15.236222	14.1	23.0	-91.2	6.8
2025-01-21 11:09:16.399781	13.9	23.1	-91.3	5.7
2025-01-21 11:09:17.562438	13.7	23.2	-91.3	6.2
2025-01-21 11:09:18.729985	13.5	23.4	-90.9	3.9
2025-01-21 11:09:19.894672	13.2	23.5	-91.4	3.7
2025-01-21 11:09:21.064666	13.0	23.6	-91.6	4.0
2025-01-21 11:09:22.224533	12.8	23.7	-91.3	3.0
2025-01-21 11:09:23.388258	12.6	23.9	-91.2	7.1
2025-01-21 11:09:24.556972	12.3	24.0	-91.1	5.8
2025-01-21 11:09:25.717594	12.1	24.1	-91.1	9.1
2025-01-21 11:09:26.881992	11.9	24.2	-90.9	8.0
2025-01-21 11:09:28.046394	11.6	24.4	-90.6	7.9
2025-01-21 11:09:29.211126	11.4	24.5	-91.1	3.8
2025-01-21 11:09:30.388128	11.2	24.6	-91.4	4.4
2025-01-21 11:09:31.553473	10.9	24.7	-91.0	4.7
2025-01-21 11:09:32.723514	10.7	24.9	-91.5	5.0
2025-01-21 11:09:33.887695	10.4	25.0	-91.1	4.2
2025-01-21 11:09:35.046024	10.2	25.1	-91.0	8.7
2025-01-21 11:09:36.210566	9.9	25.2	-91.2	7.3
2025-01-21 11:09:37.370963	9.7	25.4	-91.2	5.5
2025-01-21 11:09:38.544466	9.4	25.5	-91.2	3.8
2025-01-21 11:09:39.710332	9.2	25.6	-91.2	3.0
2025-01-21 11:09:40.875675	8.9	25.7	-90.9	4.0
2025-01-21 11:09:42.032579	8.7	25.9	-91.0	1.9
2025-01-21 11:09:43.192659	8.4	26.0	-91.0	3.1
2025-01-21 11:09:44.360446	8.2	26.1	-91.1	3.9
2025-01-21 11:09:45.518760	7.9	26.2	-91.4	4.5
2025-01-21 11:09:46.683604	7.6	26.4	-90.9	6.0
2025-01-21 11:09:47.851306	7.4	26.5	-91.4	7.8
2025-01-21 11:09:49.013291	7.1	26.6	-91.6	6.9
2025-01-21 11:09:50.183133	6.8	26.7	-91.2	4.6
2025-01-21 11:09:51.347574	6.6	26.9	-91.0	4.0
2025-01-21 11:09:52.514563	6.3	27.0	-91.1	5.6
2025-01-21 11:09:53.676510	6.0	27.1	-91.1	3.1
2025-01-21 11:09:54.838969	5.7	27.2	-90.9	6.0
2025-01-21 11:09:56.009782	5.4	27.4	-90.9	7.8
2025-01-21 11:09:57.168287	5.2	27.5	-90.9	8.2
2025-01-21 11:09:58.336106	4.9	27.6	-90.8	8.3
2025-01-21 11:09:59.501642	4.6	27.7	-90.7	7.4
2025-01-21 11:10:00.661076	4.3	27.8	-91.6	4.4
2025-01-21 11:10:01.823687	4.0	28.0	-91.2	2.2
2025-01-21 11:10:02.987921	3.7	28.1	-91.2	3.7
2025-01-21 11:10:04.159694	3.4	28.2	-91.3	3.0
2025-01-21 11:10:05.320722	3.1	28.3	-90.9	2.0
2025-01-21 11:10:06.487526	2.8	28.5	-91.2	0.2
2025-01-21 11:10:07.649422	2.5	28.6	-90.9	3.3
2025-01-21 11:10:08.818692	2.2	28.7	-91.3	2.4
2025-01-21 11:10:09.983960	1.9	28.8	-91.0	5.7
2025-01-21 11:10:11.147771	1.6	28.9	-91.2	5.0
2025-01-21 11:10:12.313487	1.2	29.0	-90.8	7.0
2025-01-21 11:10:13.477989	0.9	29.2	-91.1	8.1
2025-01-21 11:10:14.646126	0.6	29.3	-90.8	6.6
2025-01-21 11:10:15.810941	0.3	29.4	-91.0	4.6
2025-01-21 11:10:16.971260	360.0	29.5	-91.2	5.5
2025-01-21 11:10:18.140239	359.6	29.6	-90.7	2.9
2025-01-21 11:10:19.305402	359.3	29.7	-91.0	3.0
2025-01-21 11:10:20.473162	359.0	29.9	-91.0	3.4
2025-01-21 11:10:21.637542	358.7	30.0	-91.0	4.8
2025-01-21 11:10:22.804374	358.3	30.1	-91.1	5.7
2025-01-21 11:10:23.970130	358.0	30.2	-91.1	6.3
2025-01-21 11:10:25.130242	357.6	30.3	-90.9	6.4
2025-01-21 11:10:26.297177	357.3	30.4	-91.0	6.6
2025-01-21 11:10:27.455376	357.0	30.5	-91.2	5.6
2025-01-21 11:10:28.618820	356.6	30.6	-91.3	4.5
2025-01-21 11:10:29.784205	356.3	30.8	-91.3	3.6
2025-01-21 11:10:30.937457	355.9	30.9	-90.7	3.3
2025-01-21 11:10:32.100103	355.6	31.0	-91.1	2.3
2025-01-21 11:10:33.269976	355.2	31.1	-90.8	3.0
2025-01-21 11:10:34.427971	354.8	31.2	-90.4	2.9
2025-01-21 11:10:35.590187	354.5	31.3	-90.9	4.9
2025-01-21 11:10:36.744432	354.1	31.4	-90.5	4.4
2025-01-21 11:10:37.902549	353.8	31.5	-90.5	5.0
2025-01-21 11:10:39.062610	353.4	31.6	-90.1	3.4
2025-01-21 11:10:40.230922	353.0	31.7	-90.1	4.0
2025-01-21 11:10:41.388768	352.7	31.8	-90.9	3.6
2025-01-21 11:10:42.550978	352.3	31.9	-90.9	4.1
2025-01-21 11:10:43.727797	351.9	32.0	-91.2	2.2
2025-01-21 11:10:44.892136	351.5	32.1	-91.1	4.0
2025-01-21 11:10:46.058455	351.1	32.2	-91.6	3.7
2025-01-21 11:10:47.228107	350.7	32.3	-91.0	3.9
2025-01-21 11:10:48.388752	350.4	32.4	-91.0	2.7
2025-01-21 11:10:49.553010	350.0	32.5	-91.2	2.4
2025-01-21 11:10:50.726404	349.6	32.5	-90.8	5.3
2025-01-21 11:10:51.889356	349.2	32.6	-90.8	4.9
2025-01-21 11:10:53.058158	348.8	32.7	-91.0	6.4
2025-01-21 11:10:54.227033	348.4	32.8	-90.8	7.2
2025-01-21 11:10:55.387086	348.0	32.9	-91.1	6.0
2025-01-21 11:10:56.555739	347.6	33.0	-91.1	4.1
2025-01-21 11:10:57.716456	347.2	33.1	-90.9	6.9
2025-01-21 11:10:58.880738	346.8	33.1	-91.1	3.1
2025-01-21 11:11:00.046008	346.4	33.2	-91.2	4.2
2025-01-21 11:11:01.207466	346.0	33.3	-91.1	2.5
2025-01-21 11:11:02.371850	345.6	33.4	-90.9	3.0
2025-01-21 11:11:03.537629	345.2	33.4	-90.9	3.7
2025-01-21 11:11:04.707534	344.7	33.5	-90.9	3.7
2025-01-21 11:11:05.873288	344.3	33.6	-91.1	3.5
2025-01-21 11:11:07.041001	343.9	33.7	-91.0	4.1
2025-01-21 11:11:08.202424	343.5	33.7	-90.7	3.8
2025-01-21 11:11:09.366431	343.1	33.8	-90.9	5.7
2025-01-21 11:11:10.540039	342.6	33.9	-91.0	8.5
2025-01-21 11:11:11.704533	342.2	33.9	-91.3	8.7
2025-01-21 11:11:12.872812	341.8	34.0	-91.4	10.8
2025-01-21 11:11:14.038070	341.3	34.1	-90.9	11.9
2025-01-21 11:11:15.217026	340.9	34.1	-90.8	12.4
2025-01-21 11:11:16.378047	340.5	34.2	-90.8	11.5
2025-01-21 11:11:17.538592	340.0	34.2	-91.1	10.1
2025-01-21 11:11:18.714026	339.6	34.3	-91.4	10.0
2025-01-21 11:11:19.883054	339.2	34.3	-91.2	9.2
2025-01-21 11:11:21.043571	338.7	34.4	-91.1	9.5
2025-01-21 11:11:22.209957	338.3	34.4	-90.9	4.7
2025-01-21 11:11:23.371742	337.9	34.5	-90.8	6.4
2025-01-21 11:11:24.534487	337.4	34.5	-91.0	7.7
2025-01-21 11:11:25.700783	337.0	34.6	-90.8	6.0
2025-01-21 11:11:26.871193	336.5	34.6	-90.7	5.3
2025-01-21 11:11:28.034674	336.1	34.6	-91.2	8.7
2025-01-21 11:11:29.200793	335.6	34.7	-90.5	6.9
2025-01-21 11:11:30.367082	335.2	34.7	-90.7	8.0
2025-01-21 11:11:31.530921	334.7	34.7	-91.3	11.6
2025-01-21 11:11:32.697508	334.3	34.8	-91.1	7.6
2025-01-21 11:11:33.863397	333.8	34.8	-90.8	10.0
2025-01-21 11:11:35.032111	333.4	34.8	-90.7	14.0
2025-01-21 11:11:36.198130	332.9	34.9	-90.5	11.8
2025-01-21 11:11:37.356686	332.5	34.9	-90.5	11.1
2025-01-21 11:11:38.529082	332.0	34.9	-90.9	12.4
2025-01-21 11:11:39.695124	331.6	34.9	-91.0	11.0
2025-01-21 11:11:40.862645	331.1	34.9	-90.8	10.8
2025-01-21 11:11:42.031215	330.7	34.9	-90.7	10.9
2025-01-21 11:11:43.189392	330.2	35.0	-90.7	11.7
2025-01-21 11:11:44.345879	329.8	35.0	-90.4	10.7
2025-01-21 11:11:45.511454	329.3	35.0	-90.4	11.2
2025-01-21 11:11:46.676943	328.9	35.0	-90.5	12.2
2025-01-21 11:11:47.834439	328.4	35.0	-90.7	9.5
2025-01-21 11:11:49.003451	328.0	35.0	-90.8	9.3
2025-01-21 11:11:50.169055	327.5	35.0	-90.8	7.3
2025-01-21 11:11:51.334252	327.0	35.0	-90.7	6.4
2025-01-21 11:11:52.499419	326.6	35.0	-91.1	5.2
2025-01-21 11:11:53.658654	326.1	35.0	-90.8	7.6
2025-01-21 11:11:54.827220	325.7	35.0	-91.0	4.2
2025-01-21 11:11:55.983803	325.2	35.0	-90.8	5.3
2025-01-21 11:11:57.110744	324.8	34.9	-90.8	5.6
2025-01-21 11:11:58.231084	324.4	34.9	-90.8	3.0
2025-01-21 11:11:59.354507	323.9	34.9	-90.8	3.9
2025-01-21 11:12:00.475096	323.5	34.9	-91.1	4.3
2025-01-21 11:12:01.595848	323.0	34.9	-90.9	7.1
2025-01-21 11:12:02.716047	322.6	34.9	-90.8	2.7
2025-01-21 11:12:03.836284	322.2	34.8	-90.8	2.0
2025-01-21 11:12:04.956633	321.7	34.8	-91.2	2.2
2025-01-21 11:12:06.077906	321.3	34.8	-91.0	7.0
2025-01-21 11:12:07.198913	320.9	34.8	-91.2	2.9
2025-01-21 11:12:08.320415	320.4	34.7	-90.7	3.5
2025-01-21 11:12:09.441209	320.0	34.7	-91.2	4.2
2025-01-21 11:12:10.561044	319.6	34.7	-91.2	7.3
2025-01-21 11:12:11.682918	319.2	34.6	-91.1	6.2
2025-01-21 11:12:12.828849	318.7	34.6	-91.1	4.4
2025-01-21 11:12:13.998664	318.3	34.5	-91.2	7.8
2025-01-21 11:12:15.157853	317.8	34.5	-90.9	4.6
2025-01-21 11:12:16.319769	317.4	34.5	-90.5	4.8
2025-01-21 11:12:17.475932	317.0	34.4	-91.1	11.3
2025-01-21 11:12:18.633533	316.5	34.4	-91.4	9.9
2025-01-21 11:12:19.792432	316.1	34.3	-91.0	6.7
2025-01-21 11:12:20.960788	315.7	34.3	-91.2	7.4
2025-01-21 11:12:22.125927	315.2	34.2	-90.8	7.0
2025-01-21 11:12:23.294732	314.8	34.1	-90.9	5.7
2025-01-21 11:12:24.459598	314.4	34.1	-91.2	4.0
2025-01-21 11:12:25.626670	313.9	34.0	-91.4	7.6
2025-01-21 11:12:26.786900	313.5	34.0	-90.8	8.5
2025-01-21 11:12:27.946606	313.1	33.9	-91.0	9.5
2025-01-21 11:12:29.115518	312.6	33.8	-90.6	8.9
2025-01-21 11:12:30.276087	312.2	33.8	-91.1	7.9
2025-01-21 11:12:31.443823	311.8	33.7	-90.8	9.0
2025-01-21 11:12:32.609527	311.4	33.6	-91.0	9.8
2025-01-21 11:12:33.777141	311.0	33.6	-90.7	6.9
2025-01-21 11:12:34.931988	310.5	33.5	-91.0	11.3
2025-01-21 11:12:36.092094	310.1	33.4	-90.9	9.8
2025-01-21 11:12:37.257977	309.7	33.4	-91.1	8.4
2025-01-21 11:12:38.418986	309.3	33.3	-90.6	9.4
2025-01-21 11:12:39.585176	308.9	33.2	-91.1	11.0
2025-01-21 11:12:40.751070	308.5	33.1	-91.2	9.4
2025-01-21 11:12:41.914090	308.1	33.0	-91.1	10.3
2025-01-21 11:12:43.081227	307.7	33.0	-90.7	6.7
2025-01-21 11:12:44.244335	307.3	32.9	-90.8	7.7
2025-01-21 11:12:45.427891	306.9	32.8	-91.3	4.4
2025-01-21 11:12:46.593144	306.5	32.7	-91.0	6.8
2025-01-21 11:12:47.754536	306.1	32.6	-91.3	6.0
2025-01-21 11:12:48.918572	305.7	32.5	-91.1	3.5
2025-01-21 11:12:50.084222	305.3	32.4	-90.8	8.5
2025-01-21 11:12:51.252050	304.9	32.3	-91.1	6.3
2025-01-21 11:12:52.416254	304.5	32.2	-91.1	7.6
2025-01-21 11:12:53.584615	304.2	32.1	-91.3	7.5
2025-01-21 11:12:54.749386	303.8	32.1	-91.2	5.0
2025-01-21 11:12:55.917574	303.4	32.0	-91.4	7.1
2025-01-21 11:12:57.076313	303.0	31.9	-90.9	6.7
2025-01-21 11:12:58.235208	302.7	31.8	-90.9	3.1
2025-01-21 11:12:59.403355	302.3	31.7	-91.3	6.9
2025-01-21 11:13:00.557549	301.9	31.6	-91.4	7.0
2025-01-21 11:13:01.725437	301.5	31.5	-90.9	4.7
2025-01-21 11:13:02.889833	301.2	31.4	-91.0	6.9
2025-01-21 11:13:04.051551	300.8	31.3	-91.2	6.2
2025-01-21 11:13:05.216658	300.5	31.1	-90.8	3.8
2025-01-21 11:13:06.382658	300.1	31.0	-91.0	3.3
2025-01-21 11:13:07.547887	299.8	30.9	-91.0	5.6
2025-01-21 11:13:08.717059	299.4	30.8	-91.4	2.9
2025-01-21 11:13:09.882285	299.0	30.7	-91.7	6.2
2025-01-21 11:13:11.050276	298.7	30.6	-91.2	5.2
2025-01-21 11:13:12.216915	298.3	30.5	-91.2	3.6
2025-01-21 11:13:13.383915	298.0	30.4	-91.0	3.6
2025-01-21 11:13:14.547633	297.7	30.3	-91.1	5.2
2025-01-21 11:13:15.715141	297.3	30.2	-91.2	4.6
2025-01-21 11:13:16.879855	297.0	30.1	-91.3	3.2
2025-01-21 11:13:18.042061	296.7	29.9	-91.3	4.3
2025-01-21 11:13:19.204386	296.3	29.8	-91.0	4.2
2025-01-21 11:13:20.374986	296.0	29.7	-90.9	2.6
2025-01-21 11:13:21.537987	295.7	29.6	-91.1	3.7
2025-01-21 11:13:22.700197	295.3	29.5	-91.3	4.2
2025-01-21 11:13:23.868334	295.0	29.4	-91.3	6.9
2025-01-21 11:13:25.035106	294.7	29.3	-91.1	3.3
2025-01-21 11:13:26.196491	294.4	29.1	-91.0	5.1
2025-01-21 11:13:27.361030	294.1	29.0	-91.0	9.1
2025-01-21 11:13:28.529690	293.8	28.9	-91.0	9.4
2025-01-21 11:13:29.699933	293.4	28.8	-90.8	8.2
2025-01-21 11:13:30.862434	293.1	28.7	-91.3	10.7
2025-01-21 11:13:32.021411	292.8	28.5	-91.4	8.3
2025-01-21 11:13:33.189588	292.5	28.4	-91.1	6.3
2025-01-21 11:13:34.358176	292.2	28.3	-91.0	12.1
2025-01-21 11:13:35.521985	291.9	28.2	-91.3	7.0
2025-01-21 11:13:36.688208	291.6	28.1	-91.6	7.7
2025-01-21 11:13:37.851012	291.3	27.9	-91.5	6.4
2025-01-21 11:13:39.012869	291.0	27.8	-91.4	6.4
2025-01-21 11:13:40.178537	290.7	27.7	-91.3	3.4
2025-01-21 11:13:41.342048	290.5	27.6	-91.0	4.9
2025-01-21 11:13:42.509194	290.2	27.5	-91.3	7.6
2025-01-21 11:13:43.671062	289.9	27.3	-91.1	3.6
2025-01-21 11:13:44.835255	289.6	27.2	-91.0	2.9
2025-01-21 11:13:45.996067	289.3	27.1	-91.3	5.2
2025-01-21 11:13:47.164909	289.1	27.0	-91.4	4.5
2025-01-21 11:13:48.326072	288.8	26.8	-91.3	3.5
2025-01-21 11:13:49.488494	288.5	26.7	-91.5	6.2
2025-01-21 11:13:50.655287	288.2	26.6	-91.6	2.8
2025-01-21 11:13:51.815405	288.0	26.5	-91.5	3.1
2025-01-21 11:13:52.980878	287.7	26.3	-91.4	4.0
2025-01-21 11:13:54.140748	287.4	26.2	-91.1	8.0
2025-01-21 11:13:55.298291	287.2	26.1	-90.8	6.8
2025-01-21 11:13:56.463621	286.9	26.0	-90.8	7.9
2025-01-21 11:13:57.623868	286.7	25.8	-91.3	6.8
2025-01-21 11:13:58.781433	286.4	25.7	-91.3	8.7
2025-01-21 11:13:59.954173	286.2	25.6	-91.4	9.9
2025-01-21 11:14:01.119155	285.9	25.5	-91.3	7.0
2025-01-21 11:14:02.279734	285.6	25.3	-91.0	6.9
2025-01-21 11:14:03.442389	285.4	25.2	-91.0	4.2
2025-01-21 11:14:04.608293	285.2	25.1	-90.9	7.0
2025-01-21 11:14:05.772811	284.9	25.0	-91.0	7.7
2025-01-21 11:14:06.937707	284.7	24.8	-91.0	5.3
2025-01-21 11:14:08.097124	284.4	24.7	-91.0	4.1
2025-01-21 11:14:09.262677	284.2	24.6	-91.0	8.5
2025-01-21 11:14:10.430892	284.0	24.5	-91.4	4.7
2025-01-21 11:14:11.595565	283.7	24.4	-91.7	3.4
2025-01-21 11:14:12.761110	283.5	24.2	-91.4	6.5
2025-01-21 11:14:13.928428	283.3	24.1	-91.2	2.6
2025-01-21 11:14:15.091439	283.0	24.0	-90.8	2.0
2025-01-21 11:14:16.255578	282.8	23.9	-91.1	2.3
2025-01-21 11:14:17.419036	282.6	23.7	-91.4	4.3
2025-01-21 11:14:18.582650	282.4	23.6	-91.4	5.1
2025-01-21 11:14:19.751990	282.1	23.5	-91.7	5.2
2025-01-21 11:14:20.911971	281.9	23.4	-91.3	5.1
2025-01-21 11:14:22.079966	281.7	23.2	-91.3	3.1
2025-01-21 11:14:23.244451	281.5	23.1	-91.0	4.0
2025-01-21 11:14:24.411026	281.3	23.0	-91.4	5.5
2025-01-21 11:14:25.569642	281.0	22.9	-90.8	6.9
2025-01-21 11:14:26.734536	280.8	22.7	-91.3	6.3
2025-01-21 11:14:27.901682	280.6	22.6	-91.2	6.6
2025-01-21 11:14:29.062465	280.4	22.5	-90.9	4.6
2025-01-21 11:14:30.231421	280.2	22.4	-90.9	9.7
2025-01-21 11:14:31.392432	280.0	22.2	-90.8	2.9
2025-01-21 11:14:32.558678	279.8	22.1	-91.0	5.4
2025-01-21 11:14:33.717283	279.6	22.0	-91.2	8.1
2025-01-21 11:14:34.881639	279.4	21.9	-91.3	8.5
2025-01-21 11:14:36.048358	279.2	21.8	-91.3	4.6
2025-01-21 11:14:37.212096	279.0	21.6	-90.9	6.9
2025-01-21 11:14:38.368791	278.8	21.5	-91.2	6.3
2025-01-21 11:14:39.534211	278.6	21.4	-91.0	4.7
2025-01-21 11:14:40.693444	278.4	21.3	-91.4	9.6
2025-01-21 11:14:41.856964	278.2	21.2	-91.2	9.4
2025-01-21 11:14:43.025954	278.0	21.0	-90.8	6.6
2025-01-21 11:14:44.188062	277.9	20.9	-90.8	7.4
2025-01-21 11:14:45.355087	277.7	20.8	-91.1	6.7
2025-01-21 11:14:46.520573	277.5	20.7	-91.2	7.6
2025-01-21 11:14:47.689977	277.3	20.6	-91.3	7.3
2025-01-21 11:14:48.854417	277.1	20.4	-91.2	5.3
2025-01-21 11:14:50.007597	276.9	20.3	-91.2	4.5
2025-01-21 11:14:51.175522	276.8	20.2	-90.9	4.9
2025-01-21 11:14:52.341099	276.6	20.1	-90.4	6.5
2025-01-21 11:14:53.509868	276.4	20.0	-91.0	1.4
2025-01-21 11:14:54.674422	276.2	19.8	-91.0	3.4
2025-01-21 11:14:55.838932	276.1	19.7	-91.0	4.1
2025-01-21 11:14:57.006315	275.9	19.6	-91.3	6.2
2025-01-21 11:14:58.169778	275.7	19.5	-91.1	3.0
2025-01-21 11:14:59.331817	275.5	19.4	-90.8	4.1
2025-01-21 11:15:00.489737	275.4	19.3	-91.1	3.7
2025-01-21 11:15:01.655530	275.2	19.1	-90.8	4.8
2025-01-21 11:15:02.820007	275.0	19.0	-90.8	4.8
2025-01-21 11:15:03.980193	274.9	18.9	-91.1	3.9
2025-01-21 11:15:05.145399	274.7	18.8	-91.2	2.5
2025-01-21 11:15:06.309480	274.6	18.7	-91.1	3.2
2025-01-21 11:15:07.480999	274.4	18.6	-91.4	3.8
2025-01-21 11:15:08.645595	274.2	18.5	-91.2	2.3
2025-01-21 11:15:09.808356	274.1	18.3	-91.3	7.6
2025-01-21 11:15:10.966896	273.9	18.2	-91.1	2.8
2025-01-21 11:15:12.146073	273.8	18.1	-91.3	3.9
2025-01-21 11:15:13.309747	273.6	18.0	-91.1	5.3
2025-01-21 11:15:14.473617	273.5	17.9	-91.3	4.5
2025-01-21 11:15:15.639152	273.3	17.8	-90.5	6.5
2025-01-21 11:15:16.807562	273.1	17.7	-90.7	9.2
2025-01-21 11:15:17.968399	273.0	17.6	-91.1	4.3
2025-01-21 11:15:19.129459	272.9	17.4	-90.6	6.8
2025-01-21 11:15:20.292153	272.7	17.3	-90.9	6.7
2025-01-21 11:15:21.454218	272.6	17.2	-91.4	7.4
2025-01-21 11:15:22.617875	272.4	17.1	-91.2	5.6
2025-01-21 11:15:23.786556	272.3	17.0	-90.8	7.8
2025-01-21 11:15:24.949914	272.1	16.9	-90.7	6.5
2025-01-21 11:15:26.111515	272.0	16.8	-91.1	3.9
2025-01-21 11:15:27.275737	271.8	16.7	-90.9	7.0
2025-01-21 11:15:28.441798	271.7	16.6	-91.2	4.6
2025-01-21 11:15:29.605989	271.6	16.4	-91.2	4.2
2025-01-21 11:15:30.773524	271.4	16.3	-90.4	5.6
2025-01-21 11:15:31.937963	271.3	16.2	-91.1	3.2
2025-01-21 11:15:33.104245	271.1	16.1	-90.7	6.9
2025-01-21 11:15:34.273308	271.0	16.0	-90.8	5.6
2025-01-21 11:15:35.434268	270.9	15.9	-91.1	6.8
2025-01-21 11:15:36.602615	270.7	15.8	-91.1	6.3
2025-01-21 11:15:37.766204	270.6	15.7	-90.0	6.1
2025-01-21 11:15:38.924351	270.5	15.6	-91.3	6.8
2025-01-21 11:15:40.090139	270.4	15.5	-91.1	4.3
2025-01-21 11:15:41.253656	270.2	15.4	-91.1	8.7
2025-01-21 11:15:42.422931	270.1	15.3	-91.1	4.8
2025-01-21 11:15:43.585322	270.0	15.2	-91.0	3.6
2025-01-21 11:15:44.749240	269.8	15.1	-91.2	4.7
2025-01-21 11:15:45.914629	269.7	15.0	-91.5	1.9
2025-01-21 11:15:47.080159	269.6	14.8	-91.5	2.1
2025-01-21 11:15:48.238780	269.5	14.7	-91.1	6.8
2025-01-21 11:15:49.397327	269.3	14.6	-91.5	1.0
2025-01-21 11:15:50.567912	269.2	14.5	-91.4	3.2
#Closed at: 2025-01-21 11:07:59.311613