passes_logs/2025/01/21/LEX_Murmansk/LEX_Murmansk__20250121_192825_NOAA_19_rec.log

#Pass ID: 20250121_192825_NOAA 19
#Satellite: NOAA 19
#Configuration: NOAA 19
#Start time: 2025-01-21 19:28:20.062464

#LorettStation: 1.0.0 05.05.2024
#Station: LEX_Murmansk
#Location: 33.156738 lon 68.926811 lat
#TLE: 1 33591U 09005A   25021.16349212  .00000417  00000+0  24660-3 0  9995
#TLE: 2 33591  99.0186  84.9732 0014271  40.9333 319.2908 14.13264918822414

#Time	Az	El	Level	SNR
2025-01-21 19:28:36.321776	211.1	16.4	-91.8	3.7
2025-01-21 19:28:37.482123	211.2	16.6	-92.0	5.2
2025-01-21 19:28:38.647094	211.4	16.7	-91.9	6.1
2025-01-21 19:28:39.810518	211.5	16.8	-91.8	6.0
2025-01-21 19:28:40.970417	211.7	16.9	-91.7	4.6
2025-01-21 19:28:42.134786	211.8	17.0	-91.8	2.4
2025-01-21 19:28:43.298933	212.0	17.1	-91.7	1.9
2025-01-21 19:28:44.467103	212.2	17.2	-91.8	4.5
2025-01-21 19:28:45.628440	212.3	17.3	-91.8	4.3
2025-01-21 19:28:46.794556	212.5	17.4	-92.2	5.3
2025-01-21 19:28:47.958214	212.6	17.5	-92.4	4.8
2025-01-21 19:28:49.117166	212.8	17.6	-92.1	4.8
2025-01-21 19:28:50.281379	213.0	17.7	-92.1	1.2
2025-01-21 19:28:51.554502	213.2	17.9	-91.9	3.6
2025-01-21 19:28:52.700345	213.3	18.0	-92.2	2.9
2025-01-21 19:28:53.862935	213.5	18.1	-92.1	4.5
2025-01-21 19:28:55.027342	213.7	18.2	-92.1	7.1
2025-01-21 19:28:56.185876	213.8	18.3	-92.0	7.8
2025-01-21 19:28:57.347973	214.0	18.4	-92.1	8.5
2025-01-21 19:28:58.499324	214.2	18.5	-92.3	7.6
2025-01-21 19:28:59.644240	214.3	18.6	-91.9	5.4
2025-01-21 19:29:00.804703	214.5	18.7	-92.0	2.9
2025-01-21 19:29:01.968784	214.7	18.8	-92.3	5.2
2025-01-21 19:29:03.130448	214.9	18.9	-91.6	5.7
2025-01-21 19:29:04.289739	215.1	19.1	-91.2	5.5
2025-01-21 19:29:05.451264	215.2	19.2	-91.2	7.0
2025-01-21 19:29:06.617422	215.4	19.3	-91.7	9.4
2025-01-21 19:29:07.779372	215.6	19.4	-91.8	4.8
2025-01-21 19:29:08.935852	215.8	19.5	-91.7	6.3
2025-01-21 19:29:10.098847	216.0	19.6	-91.6	2.9
2025-01-21 19:29:11.263510	216.2	19.7	-91.3	0.0
2025-01-21 19:29:12.425777	216.3	19.8	-91.3	2.2
2025-01-21 19:29:13.583780	216.5	20.0	-91.7	5.5
2025-01-21 19:29:14.743845	216.7	20.1	-91.9	8.2
2025-01-21 19:29:15.909811	216.9	20.2	-91.8	9.6
2025-01-21 19:29:17.074628	217.1	20.3	-91.4	10.0
2025-01-21 19:29:18.239094	217.3	20.4	-92.1	7.7
2025-01-21 19:29:19.407727	217.5	20.5	-92.3	8.3
2025-01-21 19:29:20.574282	217.7	20.6	-92.2	7.7
2025-01-21 19:29:21.733497	217.9	20.8	-92.2	5.3
2025-01-21 19:29:22.897839	218.1	20.9	-92.2	7.3
2025-01-21 19:29:24.068408	218.3	21.0	-92.1	8.8
2025-01-21 19:29:25.233504	218.5	21.1	-92.0	8.3
2025-01-21 19:29:26.397104	218.7	21.2	-91.6	6.4
2025-01-21 19:29:27.561534	218.9	21.3	-92.3	7.7
2025-01-21 19:29:28.722596	219.1	21.4	-92.4	3.7
2025-01-21 19:29:29.884717	219.3	21.6	-92.4	2.1
2025-01-21 19:29:31.049296	219.6	21.7	-92.3	2.4
2025-01-21 19:29:32.205439	219.8	21.8	-92.0	1.9
2025-01-21 19:29:33.371796	220.0	21.9	-91.6	5.2
2025-01-21 19:29:34.533984	220.2	22.0	-91.8	9.5
2025-01-21 19:29:35.703252	220.4	22.1	-92.2	9.4
2025-01-21 19:29:36.864781	220.6	22.3	-92.0	11.2
2025-01-21 19:29:38.029118	220.9	22.4	-91.9	11.7
2025-01-21 19:29:39.199033	221.1	22.5	-91.5	3.9
2025-01-21 19:29:40.356858	221.3	22.6	-92.1	4.6
2025-01-21 19:29:41.519879	221.5	22.7	-92.1	7.7
2025-01-21 19:29:42.680245	221.8	22.8	-92.3	8.9
2025-01-21 19:29:43.847619	222.0	23.0	-91.8	9.2
2025-01-21 19:29:45.008614	222.2	23.1	-91.8	8.7
2025-01-21 19:29:46.172465	222.5	23.2	-92.0	8.0
2025-01-21 19:29:47.338343	222.7	23.3	-92.1	12.0
2025-01-21 19:29:48.503850	222.9	23.4	-92.2	7.1
2025-01-21 19:29:49.660386	223.2	23.5	-92.2	5.0
2025-01-21 19:29:50.832305	223.4	23.7	-92.1	2.0
2025-01-21 19:29:52.003910	223.6	23.8	-92.2	3.6
2025-01-21 19:29:53.166543	223.9	23.9	-91.7	1.5
2025-01-21 19:29:54.327177	224.1	24.0	-91.4	2.6
2025-01-21 19:29:55.492357	224.4	24.1	-91.8	10.7
2025-01-21 19:29:56.662450	224.6	24.2	-91.8	9.1
2025-01-21 19:29:57.828511	224.9	24.4	-92.2	5.9
2025-01-21 19:29:58.999747	225.1	24.5	-92.4	13.8
2025-01-21 19:30:00.146921	225.4	24.6	-92.2	12.9
2025-01-21 19:30:01.305005	225.6	24.7	-92.0	8.3
2025-01-21 19:30:02.474058	225.9	24.8	-92.1	5.2
2025-01-21 19:30:03.636762	226.2	24.9	-92.4	3.5
2025-01-21 19:30:04.805574	226.4	25.1	-92.4	4.6
2025-01-21 19:30:05.967538	226.7	25.2	-92.3	4.3
2025-01-21 19:30:07.131401	226.9	25.3	-92.4	7.6
2025-01-21 19:30:08.300536	227.2	25.4	-91.5	4.5
2025-01-21 19:30:09.464894	227.5	25.5	-91.9	3.0
2025-01-21 19:30:10.628927	227.8	25.6	-91.9	3.5
2025-01-21 19:30:11.788524	228.0	25.8	-91.8	3.4
2025-01-21 19:30:12.958292	228.3	25.9	-91.8	1.7
2025-01-21 19:30:14.119871	228.6	26.0	-92.1	1.7
2025-01-21 19:30:15.277831	228.9	26.1	-92.1	1.7
2025-01-21 19:30:16.442303	229.1	26.2	-92.3	2.4
2025-01-21 19:30:17.607216	229.4	26.3	-92.4	1.5
2025-01-21 19:30:18.772948	229.7	26.4	-92.1	1.3
2025-01-21 19:30:19.934710	230.0	26.6	-92.2	3.6
2025-01-21 19:30:21.088964	230.3	26.7	-92.0	3.8
2025-01-21 19:30:22.244729	230.6	26.8	-91.9	2.6
2025-01-21 19:30:23.422009	230.9	26.9	-91.9	0.5
2025-01-21 19:30:24.594633	231.2	27.0	-92.3	2.7
2025-01-21 19:30:25.752527	231.5	27.1	-92.3	3.2
2025-01-21 19:30:26.919132	231.8	27.2	-92.3	1.6
2025-01-21 19:30:28.077699	232.1	27.4	-92.2	2.7
2025-01-21 19:30:29.235167	232.4	27.5	-92.3	3.1
2025-01-21 19:30:30.392334	232.7	27.6	-91.7	5.6
2025-01-21 19:30:31.547157	233.0	27.7	-92.3	9.4
2025-01-21 19:30:32.700416	233.3	27.8	-92.1	8.6
2025-01-21 19:30:33.862288	233.6	27.9	-92.3	10.4
2025-01-21 19:30:35.020742	233.9	28.0	-92.5	4.4
2025-01-21 19:30:36.186432	234.2	28.1	-92.4	4.1
2025-01-21 19:30:37.348467	234.5	28.2	-91.9	4.4
2025-01-21 19:30:38.511701	234.8	28.3	-92.4	2.8
2025-01-21 19:30:39.670631	235.2	28.4	-92.0	3.1
2025-01-21 19:30:40.840103	235.5	28.6	-92.3	3.2
2025-01-21 19:30:42.001453	235.8	28.7	-92.3	2.1
2025-01-21 19:30:43.170122	236.1	28.8	-91.9	3.8
2025-01-21 19:30:44.335564	236.5	28.9	-92.1	3.3
2025-01-21 19:30:45.501239	236.8	29.0	-92.2	7.9
2025-01-21 19:30:46.679095	237.1	29.1	-92.2	9.9
2025-01-21 19:30:47.851484	237.5	29.2	-92.2	7.3
2025-01-21 19:30:49.008884	237.8	29.3	-92.4	12.2
2025-01-21 19:30:50.165895	238.1	29.4	-91.8	6.2
2025-01-21 19:30:51.343328	238.5	29.5	-92.2	5.7
2025-01-21 19:30:52.508448	238.8	29.6	-92.1	6.5
2025-01-21 19:30:53.674314	239.2	29.7	-92.2	5.5
2025-01-21 19:30:54.840953	239.5	29.8	-92.4	4.3
2025-01-21 19:30:56.007367	239.9	29.9	-92.4	6.7
2025-01-21 19:30:57.166678	240.2	30.0	-92.1	7.0
2025-01-21 19:30:58.328204	240.6	30.1	-91.7	8.3
2025-01-21 19:30:59.487576	240.9	30.2	-92.2	11.9
2025-01-21 19:31:00.639679	241.3	30.3	-91.5	12.4
2025-01-21 19:31:01.789051	241.7	30.4	-91.5	15.0
2025-01-21 19:31:02.957342	242.0	30.5	-92.1	14.4
2025-01-21 19:31:04.114698	242.4	30.5	-92.1	13.5
2025-01-21 19:31:05.276068	242.8	30.6	-92.1	9.8
2025-01-21 19:31:06.433401	243.1	30.7	-92.0	11.5
2025-01-21 19:31:07.585247	243.5	30.8	-92.3	9.7
2025-01-21 19:31:08.746522	243.9	30.9	-92.0	3.4
2025-01-21 19:31:09.911152	244.2	31.0	-92.2	6.4
2025-01-21 19:31:11.072096	244.6	31.1	-91.9	7.4
2025-01-21 19:31:12.233097	245.0	31.2	-91.7	3.7
2025-01-21 19:31:13.394551	245.4	31.2	-92.0	8.4
2025-01-21 19:31:14.558498	245.7	31.3	-92.4	14.3
2025-01-21 19:31:15.732913	246.1	31.4	-92.3	12.6
2025-01-21 19:31:16.885888	246.5	31.5	-92.4	17.3
2025-01-21 19:31:18.051297	246.9	31.6	-92.0	18.8
2025-01-21 19:31:19.211782	247.3	31.6	-91.9	18.3
2025-01-21 19:31:20.376802	247.7	31.7	-91.9	15.9
2025-01-21 19:31:21.539362	248.1	31.8	-92.1	19.7
2025-01-21 19:31:22.694860	248.5	31.9	-92.1	14.5
2025-01-21 19:31:23.851644	248.9	31.9	-92.0	10.8
2025-01-21 19:31:24.977092	249.3	32.0	-91.9	13.3
2025-01-21 19:31:26.098127	249.6	32.1	-91.9	11.9
2025-01-21 19:31:27.220463	250.0	32.1	-92.1	6.2
2025-01-21 19:31:28.341113	250.4	32.2	-91.9	8.6
2025-01-21 19:31:29.461184	250.8	32.3	-92.2	9.2
2025-01-21 19:31:30.581887	251.2	32.3	-91.9	16.5
2025-01-21 19:31:31.702955	251.6	32.4	-92.1	14.6
2025-01-21 19:31:32.825068	252.0	32.4	-92.1	14.2
2025-01-21 19:31:33.946679	252.4	32.5	-92.1	14.0
2025-01-21 19:31:35.093043	252.8	32.6	-92.0	17.7
2025-01-21 19:31:36.261463	253.2	32.6	-91.8	14.3
2025-01-21 19:31:37.418266	253.6	32.7	-91.8	20.9
2025-01-21 19:31:38.584732	254.0	32.7	-92.3	16.9
2025-01-21 19:31:39.730828	254.4	32.8	-92.2	20.2
2025-01-21 19:31:40.894941	254.9	32.8	-92.1	16.0
2025-01-21 19:31:42.052974	255.3	32.9	-92.1	11.7
2025-01-21 19:31:43.217682	255.7	32.9	-91.7	11.6
2025-01-21 19:31:44.381123	256.1	33.0	-92.1	12.6
2025-01-21 19:31:45.537217	256.5	33.0	-92.0	8.9
2025-01-21 19:31:46.703453	257.0	33.1	-92.5	7.3
2025-01-21 19:31:47.864778	257.4	33.1	-92.2	7.8
2025-01-21 19:31:49.027750	257.8	33.1	-92.4	7.8
2025-01-21 19:31:50.187586	258.2	33.2	-91.7	3.8
2025-01-21 19:31:51.350810	258.7	33.2	-92.0	6.7
2025-01-21 19:31:52.504806	259.1	33.2	-92.5	7.9
2025-01-21 19:31:53.671167	259.5	33.3	-92.0	8.3
2025-01-21 19:31:54.843033	260.0	33.3	-92.0	5.6
2025-01-21 19:31:56.008195	260.4	33.3	-92.0	10.5
2025-01-21 19:31:57.161324	260.8	33.4	-92.0	15.6
2025-01-21 19:31:58.329423	261.3	33.4	-92.1	11.2
2025-01-21 19:31:59.490618	261.7	33.4	-92.2	14.5
2025-01-21 19:32:00.649813	262.1	33.4	-92.1	14.2
2025-01-21 19:32:01.805867	262.6	33.5	-91.7	17.9
2025-01-21 19:32:02.963426	263.0	33.5	-92.3	16.3
2025-01-21 19:32:04.119682	263.4	33.5	-92.4	14.9
2025-01-21 19:32:05.279711	263.9	33.5	-92.1	12.8
2025-01-21 19:32:06.441858	264.3	33.5	-92.2	19.3
2025-01-21 19:32:07.603760	264.7	33.5	-92.4	13.4
2025-01-21 19:32:08.766090	265.2	33.5	-92.5	9.8
2025-01-21 19:32:09.930699	265.6	33.6	-91.0	7.9
2025-01-21 19:32:11.095964	266.1	33.6	-92.3	8.2
2025-01-21 19:32:12.251741	266.5	33.6	-92.3	7.9
2025-01-21 19:32:13.419866	266.9	33.6	-92.2	6.1
2025-01-21 19:32:14.580672	267.4	33.6	-92.7	12.8
2025-01-21 19:32:15.743470	267.8	33.6	-92.4	6.6
2025-01-21 19:32:16.905739	268.2	33.6	-92.3	12.0
2025-01-21 19:32:18.070740	268.7	33.6	-92.3	8.5
2025-01-21 19:32:19.235740	269.1	33.5	-92.2	3.4
2025-01-21 19:32:20.392541	269.5	33.5	-92.0	3.5
2025-01-21 19:32:21.543422	270.0	33.5	-92.2	6.9
2025-01-21 19:32:22.704700	270.4	33.5	-92.4	4.6
2025-01-21 19:32:23.870498	270.9	33.5	-92.8	3.0
2025-01-21 19:32:25.030347	271.3	33.5	-92.3	8.1
2025-01-21 19:32:26.201670	271.7	33.5	-92.4	5.9
2025-01-21 19:32:27.365731	272.2	33.4	-92.2	1.8
2025-01-21 19:32:28.528259	272.6	33.4	-92.1	7.3
2025-01-21 19:32:29.697366	273.0	33.4	-92.4	4.1
2025-01-21 19:32:30.859826	273.5	33.4	-92.4	1.7
2025-01-21 19:32:32.016281	273.9	33.4	-92.5	6.0
2025-01-21 19:32:33.177676	274.3	33.3	-92.4	6.2
2025-01-21 19:32:34.333173	274.8	33.3	-92.2	3.8
2025-01-21 19:32:35.481343	275.2	33.3	-92.4	6.8
2025-01-21 19:32:36.636237	275.6	33.2	-92.6	7.8
2025-01-21 19:32:37.809695	276.0	33.2	-92.7	4.6
2025-01-21 19:32:38.971072	276.5	33.2	-92.2	5.6
2025-01-21 19:32:40.126324	276.9	33.1	-92.0	2.0
2025-01-21 19:32:41.306655	277.3	33.1	-92.4	3.9
2025-01-21 19:32:42.465157	277.7	33.0	-92.4	3.9
2025-01-21 19:32:43.627607	278.2	33.0	-92.1	3.3
2025-01-21 19:32:44.777509	278.6	32.9	-91.8	4.9
2025-01-21 19:32:45.943196	279.0	32.9	-92.1	2.6
2025-01-21 19:32:47.111482	279.4	32.9	-92.3	5.2
2025-01-21 19:32:48.269537	279.8	32.8	-92.1	2.7
2025-01-21 19:32:49.438072	280.3	32.8	-92.6	2.4
2025-01-21 19:32:50.594547	280.7	32.7	-92.2	3.5
2025-01-21 19:32:51.745707	281.1	32.6	-92.4	6.1
2025-01-21 19:32:52.904623	281.5	32.6	-92.4	5.9
2025-01-21 19:32:54.071054	281.9	32.5	-92.3	7.6
2025-01-21 19:32:55.227370	282.3	32.5	-92.3	5.8
2025-01-21 19:32:56.389149	282.7	32.4	-92.4	3.0
2025-01-21 19:32:57.553276	283.1	32.3	-92.4	5.5
2025-01-21 19:32:58.717632	283.5	32.3	-92.2	4.4
2025-01-21 19:32:59.883607	283.9	32.2	-92.0	4.3
2025-01-21 19:33:01.041910	284.3	32.2	-92.0	7.4
2025-01-21 19:33:02.195759	284.7	32.1	-91.5	7.3
2025-01-21 19:33:03.354023	285.1	32.0	-92.2	3.2
2025-01-21 19:33:04.516658	285.5	31.9	-92.2	8.0
2025-01-21 19:33:05.676800	285.9	31.9	-92.1	9.2
2025-01-21 19:33:06.843742	286.3	31.8	-92.1	4.2
2025-01-21 19:33:08.009348	286.7	31.7	-92.3	9.2
2025-01-21 19:33:09.171364	287.1	31.7	-92.2	7.3
2025-01-21 19:33:10.330747	287.5	31.6	-92.3	6.8
2025-01-21 19:33:11.494819	287.9	31.5	-92.2	8.0
2025-01-21 19:33:12.618869	288.3	31.4	-92.4	13.4
2025-01-21 19:33:13.740343	288.6	31.3	-92.2	7.8
2025-01-21 19:33:14.860554	289.0	31.3	-92.4	13.9
2025-01-21 19:33:15.981527	289.4	31.2	-92.4	5.8
2025-01-21 19:33:17.102287	289.7	31.1	-92.4	7.3
2025-01-21 19:33:18.223947	290.1	31.0	-92.1	10.3
2025-01-21 19:33:19.345607	290.4	30.9	-92.4	3.6
2025-01-21 19:33:20.466752	290.8	30.9	-92.3	10.3
2025-01-21 19:33:21.589147	291.2	30.8	-92.1	6.1
2025-01-21 19:33:22.737006	291.5	30.7	-92.5	8.6
2025-01-21 19:33:23.901695	291.9	30.6	-92.6	6.4
2025-01-21 19:33:25.063607	292.3	30.5	-92.1	10.1
2025-01-21 19:33:26.229399	292.6	30.4	-92.3	9.2
2025-01-21 19:33:27.384487	293.0	30.3	-92.1	8.2
2025-01-21 19:33:28.552428	293.3	30.2	-92.2	11.3
2025-01-21 19:33:29.712287	293.7	30.1	-92.5	6.1
2025-01-21 19:33:30.874090	294.0	30.0	-92.4	6.6
2025-01-21 19:33:32.029818	294.4	29.9	-92.0	3.6
2025-01-21 19:33:33.192838	294.7	29.8	-92.1	4.2
2025-01-21 19:33:34.348139	295.1	29.8	-92.0	5.8
2025-01-21 19:33:35.508496	295.4	29.7	-92.0	3.4
2025-01-21 19:33:36.670952	295.8	29.6	-92.1	2.2
2025-01-21 19:33:37.830011	296.1	29.5	-92.4	1.6
2025-01-21 19:33:38.989746	296.5	29.4	-92.4	9.0
2025-01-21 19:33:40.157838	296.8	29.3	-92.3	4.1
2025-01-21 19:33:41.316153	297.1	29.2	-91.8	3.2
2025-01-21 19:33:42.470814	297.5	29.0	-92.5	3.7
2025-01-21 19:33:43.632750	297.8	28.9	-92.4	6.1
2025-01-21 19:33:44.801891	298.1	28.8	-92.4	5.9
2025-01-21 19:33:45.964710	298.4	28.7	-92.4	9.4
2025-01-21 19:33:47.127315	298.8	28.6	-91.9	8.0
2025-01-21 19:33:48.290770	299.1	28.5	-92.4	5.5
2025-01-21 19:33:49.453177	299.4	28.4	-92.3	6.3
2025-01-21 19:33:50.616916	299.7	28.3	-92.4	1.2
2025-01-21 19:33:51.771111	300.1	28.2	-92.6	6.0
2025-01-21 19:33:52.935467	300.4	28.1	-92.3	7.0
2025-01-21 19:33:54.092257	300.7	28.0	-92.1	10.2
2025-01-21 19:33:55.253527	301.0	27.9	-91.9	7.9
2025-01-21 19:33:56.413966	301.3	27.8	-92.1	8.2
2025-01-21 19:33:57.578553	301.6	27.7	-91.8	9.1
2025-01-21 19:33:58.743948	301.9	27.6	-92.3	9.1
2025-01-21 19:33:59.892327	302.2	27.4	-92.2	5.1
2025-01-21 19:34:01.053293	302.5	27.3	-92.0	14.0
2025-01-21 19:34:02.211243	302.8	27.2	-91.8	9.2
2025-01-21 19:34:03.373082	303.1	27.1	-92.3	9.8
2025-01-21 19:34:04.538758	303.4	27.0	-92.7	9.7
2025-01-21 19:34:05.699832	303.7	26.9	-92.3	3.6
2025-01-21 19:34:06.858503	304.0	26.8	-92.0	4.9
2025-01-21 19:34:08.023102	304.3	26.7	-92.5	5.0
2025-01-21 19:34:09.183418	304.5	26.5	-92.2	5.6
2025-01-21 19:34:10.354534	304.8	26.4	-92.3	6.7
2025-01-21 19:34:11.512382	305.1	26.3	-92.2	5.7
2025-01-21 19:34:12.671914	305.4	26.2	-92.5	3.6
2025-01-21 19:34:13.834493	305.7	26.1	-92.2	5.7
2025-01-21 19:34:15.001863	305.9	26.0	-92.4	8.8
2025-01-21 19:34:16.163196	306.2	25.9	-92.1	3.1
2025-01-21 19:34:17.330659	306.5	25.8	-91.9	3.7
2025-01-21 19:34:18.499582	306.8	25.6	-92.3	3.9
2025-01-21 19:34:19.664584	307.0	25.5	-91.8	3.5
2025-01-21 19:34:20.824384	307.3	25.4	-92.2	4.4
2025-01-21 19:34:21.990035	307.6	25.3	-92.1	5.6
2025-01-21 19:34:23.150612	307.8	25.2	-91.8	4.5
2025-01-21 19:34:24.314297	308.1	25.1	-91.6	3.2
2025-01-21 19:34:25.482236	308.3	24.9	-92.1	7.8
2025-01-21 19:34:26.646208	308.6	24.8	-92.4	4.5
2025-01-21 19:34:27.811960	308.9	24.7	-92.2	8.1
2025-01-21 19:34:28.976242	309.1	24.6	-92.1	7.7
2025-01-21 19:34:30.139152	309.4	24.5	-92.4	2.4
2025-01-21 19:34:31.310808	309.6	24.4	-92.2	6.2
2025-01-21 19:34:32.469311	309.9	24.2	-92.3	4.8
2025-01-21 19:34:33.634177	310.1	24.1	-92.4	13.1
2025-01-21 19:34:34.802207	310.4	24.0	-92.2	7.5
2025-01-21 19:34:35.963438	310.6	23.9	-92.4	8.5
2025-01-21 19:34:37.128015	310.8	23.8	-92.1	7.2
2025-01-21 19:34:38.292279	311.1	23.7	-92.1	4.7
2025-01-21 19:34:39.460196	311.3	23.6	-92.3	4.6
2025-01-21 19:34:40.622794	311.6	23.4	-92.2	2.0
2025-01-21 19:34:41.790854	311.8	23.3	-91.9	1.4
2025-01-21 19:34:42.941363	312.0	23.2	-92.3	1.7
2025-01-21 19:34:44.101768	312.2	23.1	-92.4	3.1
2025-01-21 19:34:45.260147	312.5	23.0	-92.0	0.7
2025-01-21 19:34:46.414183	312.7	22.9	-92.0	1.5
2025-01-21 19:34:47.571920	312.9	22.7	-92.3	0.5
2025-01-21 19:34:48.739178	313.2	22.6	-92.4	3.1
2025-01-21 19:34:49.906832	313.4	22.5	-92.6	3.6
2025-01-21 19:34:51.061241	313.6	22.4	-92.0	0.5
2025-01-21 19:34:52.219204	313.8	22.3	-92.1	4.8
2025-01-21 19:34:53.369766	314.0	22.2	-92.3	8.3
2025-01-21 19:34:54.532671	314.2	22.1	-92.4	5.4
2025-01-21 19:34:55.696970	314.5	21.9	-92.2	7.9
2025-01-21 19:34:56.856947	314.7	21.8	-92.1	7.5
2025-01-21 19:34:58.023091	314.9	21.7	-92.1	6.0
2025-01-21 19:34:59.202116	315.1	21.6	-91.8	4.8
2025-01-21 19:35:00.360767	315.3	21.5	-91.9	5.4
2025-01-21 19:35:01.532909	315.5	21.4	-92.1	6.3
2025-01-21 19:35:02.693724	315.7	21.2	-91.9	10.2
2025-01-21 19:35:03.869112	315.9	21.1	-92.3	6.4
2025-01-21 19:35:05.035058	316.1	21.0	-92.5	3.7
2025-01-21 19:35:06.191335	316.3	20.9	-91.9	0.9
2025-01-21 19:35:07.354613	316.5	20.8	-92.0	1.0
2025-01-21 19:35:08.475500	316.7	20.7	-92.3	2.1
2025-01-21 19:35:09.595725	316.9	20.6	-92.1	1.1
2025-01-21 19:35:10.715954	317.1	20.5	-91.5	2.6
2025-01-21 19:35:11.837099	317.3	20.4	-92.4	3.3
2025-01-21 19:35:12.957782	317.5	20.2	-92.3	3.5
2025-01-21 19:35:14.078749	317.7	20.1	-92.3	4.6
2025-01-21 19:35:15.198850	317.8	20.0	-91.9	4.1
2025-01-21 19:35:16.323976	318.0	19.9	-92.0	6.9
2025-01-21 19:35:17.456823	318.2	19.8	-92.3	2.1
2025-01-21 19:35:18.617578	318.4	19.7	-92.0	5.1
2025-01-21 19:35:19.782978	318.6	19.6	-92.4	6.3
2025-01-21 19:35:20.948136	318.8	19.5	-92.5	3.9
2025-01-21 19:35:22.105836	318.9	19.4	-92.0	2.3
2025-01-21 19:35:23.266322	319.1	19.3	-92.3	2.0
2025-01-21 19:35:24.432622	319.3	19.1	-92.1	1.0
2025-01-21 19:35:25.589603	319.5	19.0	-92.1	3.0
2025-01-21 19:35:26.756278	319.7	18.9	-91.8	2.0
2025-01-21 19:35:27.913201	319.8	18.8	-92.0	2.5
2025-01-21 19:35:29.074236	320.0	18.7	-92.0	0.4
2025-01-21 19:35:30.227896	320.2	18.6	-89.7	0.9
2025-01-21 19:35:31.388310	320.4	18.5	-92.2	3.7
2025-01-21 19:35:32.547926	320.5	18.4	-92.4	2.4
2025-01-21 19:35:33.712664	320.7	18.3	-92.6	1.8
2025-01-21 19:35:34.881352	320.9	18.2	-92.7	2.9
2025-01-21 19:35:36.043490	321.0	18.1	-90.5	1.3
2025-01-21 19:35:37.205656	321.2	17.9	-92.4	2.3
2025-01-21 19:35:38.369352	321.4	17.8	-92.1	0.9
2025-01-21 19:35:39.535416	321.5	17.7	-92.5	3.9
2025-01-21 19:35:40.695077	321.7	17.6	-92.1	5.3
2025-01-21 19:35:41.860915	321.9	17.5	-91.7	4.3
2025-01-21 19:35:43.015979	322.0	17.4	-92.2	1.9
2025-01-21 19:35:44.180059	322.2	17.3	-91.8	1.8
2025-01-21 19:35:45.342201	322.3	17.2	-92.1	1.6
2025-01-21 19:35:46.495669	322.5	17.1	-92.3	2.0
2025-01-21 19:35:47.663813	322.7	17.0	-92.2	5.0
2025-01-21 19:35:48.824172	322.8	16.9	-91.6	2.7
2025-01-21 19:35:49.983154	323.0	16.8	-89.3	5.7
2025-01-21 19:35:51.145962	323.1	16.7	-91.0	2.5
2025-01-21 19:35:52.319156	323.3	16.6	-92.3	0.5
2025-01-21 19:35:53.475285	323.4	16.5	-92.5	1.4
2025-01-21 19:35:54.639224	323.6	16.4	-92.2	4.4
2025-01-21 19:35:55.799788	323.7	16.3	-92.7	8.0
2025-01-21 19:35:56.968770	323.9	16.2	-92.3	4.5
2025-01-21 19:35:58.109252	324.0	16.1	-88.4	2.7
2025-01-21 19:35:59.259723	324.2	15.9	-91.0	1.7
2025-01-21 19:36:00.412636	324.3	15.8	-92.0	3.9
2025-01-21 19:36:01.565409	324.5	15.7	-92.1	2.0
2025-01-21 19:36:02.718755	324.6	15.6	-92.6	0.7
2025-01-21 19:36:03.876747	324.7	15.5	-92.1	2.6
2025-01-21 19:36:05.031933	324.9	15.4	-92.5	2.4
2025-01-21 19:36:06.196228	325.0	15.3	-91.7	1.9
2025-01-21 19:36:07.364840	325.2	15.2	-88.5	2.6
2025-01-21 19:36:08.534521	325.3	15.1	-92.3	3.8
2025-01-21 19:36:09.697022	325.4	15.0	-92.3	1.0
2025-01-21 19:36:10.863873	325.6	14.9	-92.6	3.7
2025-01-21 19:36:12.030220	325.7	14.8	-92.0	6.4
2025-01-21 19:36:13.189186	325.9	14.7	-92.3	3.5
2025-01-21 19:36:14.349391	326.0	14.6	-92.0	5.5
#Closed at: 2025-01-21 19:28:25.118207