passes_logs/2025/01/21/LEX_Murmansk/LEX_Murmansk__20250121_131224_NOAA_18_rec.log

#Pass ID: 20250121_131224_NOAA 18
#Satellite: NOAA 18
#Configuration: NOAA 18
#Start time: 2025-01-21 13:12:19.083699

#LorettStation: 1.0.0 05.05.2024
#Station: LEX_Murmansk
#Location: 33.156738 lon 68.926811 lat
#TLE: 1 28654U 05018A   25020.18862715  .00000449  00000+0  26167-3 0  9997
#TLE: 2 28654  98.8558 101.1913 0014575 164.8261 195.3351 14.13491567 13918

#Time	Az	El	Level	SNR
2025-01-21 13:12:31.302542	27.3	16.0	-90.0	4.5
2025-01-21 13:12:32.466890	27.2	16.1	-90.3	2.3
2025-01-21 13:12:33.628406	27.0	16.2	-90.1	7.1
2025-01-21 13:12:34.788465	26.8	16.2	-90.3	4.9
2025-01-21 13:12:35.945754	26.7	16.3	-90.2	4.7
2025-01-21 13:12:37.118849	26.5	16.4	-89.8	5.1
2025-01-21 13:12:38.278115	26.3	16.5	-90.0	8.3
2025-01-21 13:12:39.438870	26.1	16.6	-90.3	8.3
2025-01-21 13:12:40.603194	25.9	16.7	-90.3	6.8
2025-01-21 13:12:41.783969	25.8	16.8	-90.3	6.7
2025-01-21 13:12:42.941642	25.6	16.9	-90.3	6.2
2025-01-21 13:12:44.112594	25.4	17.0	-89.8	8.5
2025-01-21 13:12:45.273516	25.2	17.1	-89.9	6.5
2025-01-21 13:12:46.435208	25.0	17.2	-90.1	4.6
2025-01-21 13:12:47.596613	24.8	17.3	-90.1	5.5
2025-01-21 13:12:48.760280	24.7	17.4	-90.0	6.7
2025-01-21 13:12:49.922517	24.5	17.5	-90.0	7.3
2025-01-21 13:12:51.079216	24.3	17.5	-90.1	6.8
2025-01-21 13:12:52.242817	24.1	17.6	-89.9	9.7
2025-01-21 13:12:53.409623	23.9	17.7	-89.9	4.1
2025-01-21 13:12:54.568659	23.7	17.8	-89.9	5.3
2025-01-21 13:12:55.731231	23.5	17.9	-90.1	9.7
2025-01-21 13:12:56.895264	23.3	18.0	-90.3	9.5
2025-01-21 13:12:58.056160	23.1	18.1	-90.3	8.5
2025-01-21 13:12:59.221140	22.9	18.2	-89.8	5.0
2025-01-21 13:13:00.380369	22.7	18.3	-90.1	8.4
2025-01-21 13:13:01.542912	22.5	18.4	-90.1	7.9
2025-01-21 13:13:02.707650	22.3	18.5	-90.1	6.7
2025-01-21 13:13:03.874740	22.1	18.6	-90.7	5.8
2025-01-21 13:13:05.036468	21.9	18.7	-90.3	6.5
2025-01-21 13:13:06.217483	21.7	18.8	-90.2	9.5
2025-01-21 13:13:07.374526	21.5	18.9	-90.4	9.5
2025-01-21 13:13:08.539223	21.3	18.9	-90.4	4.6
2025-01-21 13:13:09.699566	21.1	19.0	-90.1	11.0
2025-01-21 13:13:10.857345	20.9	19.1	-89.8	9.5
2025-01-21 13:13:12.017779	20.7	19.2	-90.1	9.1
2025-01-21 13:13:13.181042	20.4	19.3	-90.4	8.7
2025-01-21 13:13:14.344219	20.2	19.4	-90.2	9.8
2025-01-21 13:13:15.509224	20.0	19.5	-89.9	4.7
2025-01-21 13:13:16.673281	19.8	19.6	-89.8	11.1
2025-01-21 13:13:17.834786	19.6	19.7	-89.8	5.8
2025-01-21 13:13:18.998061	19.4	19.8	-89.6	7.9
2025-01-21 13:13:20.159992	19.1	19.9	-89.2	11.2
2025-01-21 13:13:21.324425	18.9	20.0	-89.5	9.7
2025-01-21 13:13:22.486973	18.7	20.1	-89.7	6.6
2025-01-21 13:13:23.651281	18.5	20.2	-90.6	9.8
2025-01-21 13:13:24.818660	18.2	20.2	-90.8	10.3
2025-01-21 13:13:25.978544	18.0	20.3	-90.7	5.1
2025-01-21 13:13:27.141151	17.8	20.4	-90.0	10.0
2025-01-21 13:13:28.302773	17.6	20.5	-90.0	10.3
2025-01-21 13:13:29.463793	17.3	20.6	-90.4	8.3
2025-01-21 13:13:30.630432	17.1	20.7	-90.3	10.8
2025-01-21 13:13:31.794966	16.9	20.8	-90.4	7.9
2025-01-21 13:13:32.962692	16.6	20.9	-90.0	7.6
2025-01-21 13:13:34.123851	16.4	21.0	-90.1	6.7
2025-01-21 13:13:35.291981	16.1	21.1	-90.1	9.9
2025-01-21 13:13:36.452857	15.9	21.2	-90.4	4.7
2025-01-21 13:13:37.607545	15.7	21.2	-90.2	3.7
2025-01-21 13:13:38.772539	15.4	21.3	-90.2	7.6
2025-01-21 13:13:39.937889	15.2	21.4	-90.5	3.5
2025-01-21 13:13:41.102526	14.9	21.5	-90.1	7.4
2025-01-21 13:13:42.269483	14.7	21.6	-89.9	7.2
2025-01-21 13:13:43.438603	14.4	21.7	-90.1	6.6
2025-01-21 13:13:44.596956	14.2	21.8	-90.2	6.6
2025-01-21 13:13:45.765784	13.9	21.9	-90.4	8.6
2025-01-21 13:13:46.926249	13.7	22.0	-90.3	10.2
2025-01-21 13:13:48.088983	13.4	22.0	-90.2	5.4
2025-01-21 13:13:49.248667	13.2	22.1	-90.1	15.5
2025-01-21 13:13:50.413837	12.9	22.2	-90.6	10.8
2025-01-21 13:13:51.576262	12.6	22.3	-90.4	8.6
2025-01-21 13:13:52.737117	12.4	22.4	-90.4	13.1
2025-01-21 13:13:53.900411	12.1	22.5	-90.4	10.6
2025-01-21 13:13:55.057924	11.9	22.6	-90.0	8.3
2025-01-21 13:13:56.221119	11.6	22.6	-90.3	11.1
2025-01-21 13:13:57.381556	11.3	22.7	-90.5	14.2
2025-01-21 13:13:58.544020	11.1	22.8	-90.1	8.6
2025-01-21 13:13:59.709281	10.8	22.9	-90.4	9.6
2025-01-21 13:14:00.868987	10.5	23.0	-90.3	11.5
2025-01-21 13:14:02.032202	10.2	23.1	-90.5	9.8
2025-01-21 13:14:03.200962	10.0	23.1	-90.2	10.8
2025-01-21 13:14:04.360394	9.7	23.2	-90.4	9.6
2025-01-21 13:14:05.527524	9.4	23.3	-90.3	6.6
2025-01-21 13:14:06.691970	9.1	23.4	-90.4	10.9
2025-01-21 13:14:07.845090	8.9	23.5	-90.6	12.1
2025-01-21 13:14:09.013234	8.6	23.5	-90.6	11.3
2025-01-21 13:14:10.179775	8.3	23.6	-90.2	15.8
2025-01-21 13:14:11.339478	8.0	23.7	-90.0	15.4
2025-01-21 13:14:12.499694	7.7	23.8	-90.2	11.7
2025-01-21 13:14:13.668295	7.4	23.9	-90.3	11.8
2025-01-21 13:14:14.831847	7.1	23.9	-90.7	12.1
2025-01-21 13:14:15.996592	6.9	24.0	-90.6	10.3
2025-01-21 13:14:17.166606	6.6	24.1	-90.0	10.0
2025-01-21 13:14:18.323841	6.3	24.2	-90.0	10.0
2025-01-21 13:14:19.501080	6.0	24.2	-90.8	8.4
2025-01-21 13:14:20.663202	5.7	24.3	-90.6	9.4
2025-01-21 13:14:21.825688	5.4	24.4	-90.7	10.8
2025-01-21 13:14:22.993514	5.1	24.5	-90.5	8.3
2025-01-21 13:14:24.157411	4.8	24.5	-90.1	15.1
2025-01-21 13:14:25.324012	4.5	24.6	-90.2	10.5
2025-01-21 13:14:26.482218	4.2	24.7	-90.3	10.4
2025-01-21 13:14:27.642411	3.9	24.7	-90.5	14.0
2025-01-21 13:14:28.814966	3.6	24.8	-90.9	11.8
2025-01-21 13:14:29.979387	3.3	24.9	-90.8	9.2
2025-01-21 13:14:31.142146	2.9	25.0	-89.9	11.0
2025-01-21 13:14:32.307410	2.6	25.0	-90.1	10.1
2025-01-21 13:14:33.476241	2.3	25.1	-90.8	4.7
2025-01-21 13:14:34.640017	2.0	25.2	-90.5	11.1
2025-01-21 13:14:35.800063	1.7	25.2	-90.4	13.9
2025-01-21 13:14:36.973591	1.4	25.3	-89.8	7.8
2025-01-21 13:14:38.137676	1.1	25.3	-89.5	12.6
2025-01-21 13:14:39.298931	0.8	25.4	-89.8	11.2
2025-01-21 13:14:40.459670	0.4	25.5	-90.0	10.5
2025-01-21 13:14:41.623010	0.1	25.5	-89.8	11.2
2025-01-21 13:14:42.788695	359.8	25.6	-90.0	9.1
2025-01-21 13:14:43.952840	359.5	25.7	-90.1	9.0
2025-01-21 13:14:45.115835	359.1	25.7	-89.1	11.9
2025-01-21 13:14:46.279604	358.8	25.8	-89.3	9.9
2025-01-21 13:14:47.441372	358.5	25.8	-89.4	10.1
2025-01-21 13:14:48.597669	358.2	25.9	-89.9	7.9
2025-01-21 13:14:49.762697	357.8	25.9	-90.9	10.9
2025-01-21 13:14:50.931305	357.5	26.0	-90.3	8.3
2025-01-21 13:14:52.094267	357.2	26.0	-90.3	12.5
2025-01-21 13:14:53.255413	356.8	26.1	-90.0	12.3
2025-01-21 13:14:54.597171	356.5	26.2	-90.5	9.6
2025-01-21 13:14:55.772605	356.1	26.2	-90.6	12.3
2025-01-21 13:14:56.937192	355.8	26.3	-90.3	8.3
2025-01-21 13:14:58.097566	355.5	26.3	-90.1	11.6
2025-01-21 13:14:59.260402	355.1	26.3	-90.1	9.2
2025-01-21 13:15:00.675904	354.7	26.4	-90.8	11.6
2025-01-21 13:15:01.843706	354.4	26.4	-91.0	10.6
2025-01-21 13:15:03.011751	354.0	26.5	-90.8	11.8
2025-01-21 13:15:04.167612	353.7	26.5	-89.5	11.0
2025-01-21 13:15:05.335678	353.3	26.6	-89.4	10.4
2025-01-21 13:15:06.495769	353.0	26.6	-89.2	8.5
2025-01-21 13:15:07.659952	352.7	26.7	-89.5	8.9
2025-01-21 13:15:08.813220	352.3	26.7	-89.8	6.8
2025-01-21 13:15:09.975044	352.0	26.7	-90.7	4.7
2025-01-21 13:15:11.133062	351.6	26.8	-90.5	8.7
2025-01-21 13:15:12.300015	351.3	26.8	-90.2	10.6
2025-01-21 13:15:13.460675	350.9	26.8	-90.3	5.8
2025-01-21 13:15:14.631297	350.6	26.9	-90.7	10.3
2025-01-21 13:15:15.795462	350.2	26.9	-90.3	11.2
2025-01-21 13:15:16.958973	349.9	26.9	-90.8	7.7
2025-01-21 13:15:18.115067	349.5	27.0	-90.8	11.1
2025-01-21 13:15:19.281388	349.2	27.0	-90.4	11.6
2025-01-21 13:15:20.449864	348.8	27.0	-90.7	7.7
2025-01-21 13:15:21.609024	348.5	27.0	-90.4	6.8
2025-01-21 13:15:22.775345	348.1	27.1	-90.7	6.9
2025-01-21 13:15:23.937156	347.8	27.1	-90.6	5.8
2025-01-21 13:15:25.104916	347.4	27.1	-90.6	9.9
2025-01-21 13:15:26.265863	347.1	27.1	-90.4	9.5
2025-01-21 13:15:27.427197	346.7	27.2	-90.6	8.6
2025-01-21 13:15:28.589912	346.3	27.2	-90.2	8.5
2025-01-21 13:15:29.753863	346.0	27.2	-90.6	10.2
2025-01-21 13:15:30.917954	345.6	27.2	-90.6	9.8
2025-01-21 13:15:32.080237	345.3	27.2	-90.8	10.2
2025-01-21 13:15:33.245377	344.9	27.2	-90.0	14.6
2025-01-21 13:15:34.401017	344.6	27.2	-90.6	9.5
2025-01-21 13:15:35.563106	344.2	27.3	-90.6	8.1
2025-01-21 13:15:36.727272	343.9	27.3	-90.6	12.5
2025-01-21 13:15:37.892123	343.5	27.3	-90.6	8.5
2025-01-21 13:15:39.050404	343.1	27.3	-90.5	6.6
2025-01-21 13:15:40.214496	342.8	27.3	-90.0	9.1
2025-01-21 13:15:41.378097	342.4	27.3	-90.6	7.1
2025-01-21 13:15:42.537119	342.1	27.3	-90.4	7.7
2025-01-21 13:15:43.704711	341.7	27.3	-90.9	10.9
2025-01-21 13:15:44.868065	341.3	27.3	-90.8	6.6
2025-01-21 13:15:46.033986	341.0	27.3	-90.5	7.1
2025-01-21 13:15:47.193504	340.6	27.3	-90.3	6.5
2025-01-21 13:15:48.354296	340.3	27.3	-90.2	7.0
2025-01-21 13:15:49.515835	339.9	27.3	-90.7	8.3
2025-01-21 13:15:50.679242	339.5	27.3	-90.7	9.4
2025-01-21 13:15:51.844919	339.2	27.3	-91.1	9.8
2025-01-21 13:15:53.003843	338.8	27.3	-90.4	6.8
2025-01-21 13:15:54.168129	338.5	27.3	-90.3	5.7
2025-01-21 13:15:55.332207	338.1	27.3	-90.1	7.2
2025-01-21 13:15:56.496763	337.8	27.2	-90.3	7.3
2025-01-21 13:15:57.661396	337.4	27.2	-90.6	7.4
2025-01-21 13:15:58.822604	337.0	27.2	-90.5	8.9
2025-01-21 13:15:59.986028	336.7	27.2	-89.8	9.0
2025-01-21 13:16:01.138721	336.3	27.2	-90.0	5.1
2025-01-21 13:16:02.301209	336.0	27.2	-89.7	5.9
2025-01-21 13:16:03.460727	335.6	27.1	-90.0	7.2
2025-01-21 13:16:04.623959	335.3	27.1	-89.9	8.4
2025-01-21 13:16:05.789010	334.9	27.1	-89.9	6.8
2025-01-21 13:16:06.957489	334.6	27.1	-90.2	5.0
2025-01-21 13:16:08.112913	334.2	27.1	-90.0	7.9
2025-01-21 13:16:09.280172	333.8	27.0	-90.0	9.3
2025-01-21 13:16:10.440545	333.5	27.0	-90.1	7.8
2025-01-21 13:16:11.603498	333.1	27.0	-89.9	8.3
2025-01-21 13:16:12.766598	332.8	27.0	-89.9	8.0
2025-01-21 13:16:13.926197	332.4	26.9	-90.0	5.1
2025-01-21 13:16:15.092506	332.1	26.9	-89.9	4.7
2025-01-21 13:16:16.252356	331.7	26.9	-89.9	7.1
2025-01-21 13:16:17.412477	331.4	26.8	-90.0	6.5
2025-01-21 13:16:18.572422	331.0	26.8	-90.4	5.5
2025-01-21 13:16:19.735068	330.7	26.8	-90.4	9.1
2025-01-21 13:16:20.893355	330.4	26.7	-90.7	7.2
2025-01-21 13:16:22.057678	330.0	26.7	-90.6	7.5
2025-01-21 13:16:23.221836	329.7	26.7	-90.6	11.1
2025-01-21 13:16:24.379922	329.3	26.6	-90.3	6.2
2025-01-21 13:16:25.542703	329.0	26.6	-90.4	5.8
2025-01-21 13:16:26.702650	328.6	26.5	-90.9	10.7
2025-01-21 13:16:27.851234	328.3	26.5	-90.5	8.6
2025-01-21 13:16:29.010971	328.0	26.4	-90.4	8.5
2025-01-21 13:16:30.170799	327.6	26.4	-90.1	8.2
2025-01-21 13:16:31.335245	327.3	26.4	-90.2	8.8
2025-01-21 13:16:32.500144	326.9	26.3	-90.5	6.9
2025-01-21 13:16:33.663036	326.6	26.3	-90.7	11.7
2025-01-21 13:16:34.828846	326.3	26.2	-90.7	10.9
2025-01-21 13:16:35.992620	325.9	26.2	-90.5	7.1
2025-01-21 13:16:37.160116	325.6	26.1	-90.0	9.0
2025-01-21 13:16:38.313629	325.3	26.1	-89.8	9.3
2025-01-21 13:16:39.474305	324.9	26.0	-90.4	5.4
2025-01-21 13:16:40.634617	324.6	25.9	-90.4	6.8
2025-01-21 13:16:41.789166	324.3	25.9	-90.2	11.6
2025-01-21 13:16:42.950535	323.9	25.8	-90.4	7.6
2025-01-21 13:16:44.114799	323.6	25.8	-90.3	10.2
2025-01-21 13:16:45.275008	323.3	25.7	-90.2	12.0
2025-01-21 13:16:46.409154	323.0	25.7	-90.6	7.3
2025-01-21 13:16:47.572087	322.7	25.6	-90.8	6.3
2025-01-21 13:16:48.733303	322.3	25.5	-90.8	9.3
2025-01-21 13:16:49.887670	322.0	25.5	-90.7	7.1
2025-01-21 13:16:51.051998	321.7	25.4	-90.6	7.7
2025-01-21 13:16:52.215165	321.4	25.4	-90.3	8.5
2025-01-21 13:16:53.382260	321.1	25.3	-90.2	6.6
2025-01-21 13:16:54.546806	320.7	25.2	-90.3	8.2
2025-01-21 13:16:55.712960	320.4	25.2	-90.3	11.3
2025-01-21 13:16:56.876314	320.1	25.1	-90.5	8.4
2025-01-21 13:16:58.037890	319.8	25.0	-90.2	10.2
2025-01-21 13:16:59.200796	319.5	25.0	-90.3	10.3
2025-01-21 13:17:00.354630	319.2	24.9	-90.2	9.7
2025-01-21 13:17:01.518508	318.9	24.8	-90.3	8.0
2025-01-21 13:17:02.677995	318.6	24.8	-90.8	11.7
2025-01-21 13:17:03.840838	318.3	24.7	-90.6	14.6
2025-01-21 13:17:05.002539	318.0	24.6	-90.4	10.0
2025-01-21 13:17:06.177045	317.7	24.6	-90.4	14.8
2025-01-21 13:17:07.340578	317.3	24.5	-90.3	13.1
2025-01-21 13:17:08.503722	317.0	24.4	-90.6	11.8
2025-01-21 13:17:09.669116	316.8	24.3	-90.7	13.4
2025-01-21 13:17:10.842768	316.5	24.3	-90.7	10.4
2025-01-21 13:17:12.002285	316.2	24.2	-90.8	8.9
2025-01-21 13:17:13.164702	315.9	24.1	-90.5	10.0
2025-01-21 13:17:14.327955	315.6	24.0	-90.5	11.5
2025-01-21 13:17:15.491740	315.3	24.0	-90.6	8.2
2025-01-21 13:17:16.658890	315.0	23.9	-90.5	9.8
2025-01-21 13:17:17.824751	314.7	23.8	-90.4	12.3
2025-01-21 13:17:18.985087	314.4	23.7	-90.8	9.0
2025-01-21 13:17:20.147160	314.1	23.6	-90.4	11.0
2025-01-21 13:17:21.311791	313.8	23.6	-90.2	12.6
2025-01-21 13:17:22.475854	313.6	23.5	-90.9	10.7
2025-01-21 13:17:23.635137	313.3	23.4	-90.7	9.2
2025-01-21 13:17:24.797695	313.0	23.3	-90.6	8.3
2025-01-21 13:17:25.963776	312.7	23.2	-90.6	6.5
2025-01-21 13:17:27.124199	312.4	23.2	-90.4	6.9
2025-01-21 13:17:28.282534	312.2	23.1	-90.1	6.5
2025-01-21 13:17:29.440747	311.9	23.0	-90.7	7.2
2025-01-21 13:17:30.602006	311.6	22.9	-90.8	6.3
2025-01-21 13:17:31.778885	311.3	22.8	-91.0	9.1
2025-01-21 13:17:32.940970	311.1	22.7	-90.9	5.6
2025-01-21 13:17:34.104492	310.8	22.7	-90.6	5.1
2025-01-21 13:17:35.260088	310.5	22.6	-90.7	6.9
2025-01-21 13:17:36.424078	310.3	22.5	-90.8	4.8
2025-01-21 13:17:37.587645	310.0	22.4	-90.7	5.1
2025-01-21 13:17:38.744637	309.8	22.3	-90.6	7.4
2025-01-21 13:17:39.904508	309.5	22.2	-90.5	5.5
2025-01-21 13:17:41.067606	309.2	22.1	-90.5	4.9
2025-01-21 13:17:42.224083	309.0	22.0	-90.3	5.7
2025-01-21 13:17:43.390502	308.7	22.0	-90.4	5.5
2025-01-21 13:17:44.551218	308.5	21.9	-90.6	5.8
2025-01-21 13:17:45.714557	308.2	21.8	-90.8	8.4
2025-01-21 13:17:46.874693	308.0	21.7	-90.5	8.0
2025-01-21 13:17:48.036608	307.7	21.6	-90.5	5.5
2025-01-21 13:17:49.195829	307.5	21.5	-90.3	5.7
2025-01-21 13:17:50.371293	307.2	21.4	-90.6	6.4
2025-01-21 13:17:51.534461	307.0	21.3	-90.7	5.3
2025-01-21 13:17:52.693995	306.7	21.2	-90.8	5.3
2025-01-21 13:17:53.858585	306.5	21.2	-90.7	6.9
2025-01-21 13:17:55.032661	306.2	21.1	-90.6	5.5
2025-01-21 13:17:56.197793	306.0	21.0	-90.5	5.8
2025-01-21 13:17:57.351275	305.7	20.9	-90.6	8.2
2025-01-21 13:17:58.517221	305.5	20.8	-90.8	10.3
2025-01-21 13:17:59.677738	305.3	20.7	-90.9	7.1
2025-01-21 13:18:00.840015	305.0	20.6	-90.9	9.1
2025-01-21 13:18:02.000052	304.8	20.5	-90.8	6.6
2025-01-21 13:18:03.158988	304.6	20.4	-90.6	5.1
2025-01-21 13:18:04.321096	304.3	20.3	-90.6	5.9
2025-01-21 13:18:05.484107	304.1	20.2	-90.6	6.9
2025-01-21 13:18:06.652669	303.9	20.2	-90.6	5.2
2025-01-21 13:18:07.811097	303.7	20.1	-90.5	8.2
2025-01-21 13:18:08.973338	303.4	20.0	-90.3	7.6
2025-01-21 13:18:10.136949	303.2	19.9	-89.8	8.4
2025-01-21 13:18:11.296871	303.0	19.8	-90.0	10.0
2025-01-21 13:18:12.462441	302.8	19.7	-89.8	5.0
2025-01-21 13:18:13.630234	302.5	19.6	-89.9	10.4
2025-01-21 13:18:14.795504	302.3	19.5	-90.0	10.1
2025-01-21 13:18:15.964619	302.1	19.4	-89.9	5.2
2025-01-21 13:18:17.126380	301.9	19.3	-90.5	7.9
2025-01-21 13:18:18.290065	301.7	19.2	-90.1	10.1
2025-01-21 13:18:19.460959	301.5	19.1	-90.7	7.3
2025-01-21 13:18:20.622978	301.2	19.0	-91.0	9.4
2025-01-21 13:18:21.788176	301.0	18.9	-90.9	9.8
2025-01-21 13:18:22.947217	300.8	18.8	-90.8	6.7
2025-01-21 13:18:24.111723	300.6	18.8	-90.3	10.9
2025-01-21 13:18:25.277532	300.4	18.7	-90.4	6.0
2025-01-21 13:18:26.450057	300.2	18.6	-90.6	8.3
2025-01-21 13:18:27.623681	300.0	18.5	-90.6	6.1
2025-01-21 13:18:28.781743	299.8	18.4	-90.7	6.0
2025-01-21 13:18:29.942145	299.6	18.3	-90.7	5.7
2025-01-21 13:18:31.107992	299.4	18.2	-90.3	7.9
2025-01-21 13:18:32.274752	299.2	18.1	-90.3	5.6
2025-01-21 13:18:33.437764	299.0	18.0	-90.6	4.8
2025-01-21 13:18:34.598106	298.8	17.9	-90.6	5.8
2025-01-21 13:18:35.764892	298.6	17.8	-90.8	9.9
2025-01-21 13:18:36.921431	298.4	17.7	-90.6	4.2
2025-01-21 13:18:38.066829	298.2	17.6	-90.6	6.4
2025-01-21 13:18:39.226596	298.0	17.5	-90.3	8.1
2025-01-21 13:18:40.390213	297.8	17.4	-90.5	5.1
2025-01-21 13:18:41.548692	297.6	17.3	-90.4	7.5
2025-01-21 13:18:42.711238	297.5	17.2	-90.8	7.6
2025-01-21 13:18:43.872992	297.3	17.2	-90.4	7.4
2025-01-21 13:18:45.037890	297.1	17.1	-90.2	7.5
2025-01-21 13:18:46.198388	296.9	17.0	-90.3	4.4
2025-01-21 13:18:47.367318	296.7	16.9	-90.4	8.4
2025-01-21 13:18:48.527196	296.5	16.8	-90.8	9.8
2025-01-21 13:18:49.683171	296.3	16.7	-90.6	10.1
2025-01-21 13:18:50.851988	296.2	16.6	-90.8	8.1
2025-01-21 13:18:52.013754	296.0	16.5	-90.5	8.7
2025-01-21 13:18:53.182394	295.8	16.4	-90.2	4.6
2025-01-21 13:18:54.348830	295.6	16.3	-90.8	11.9
2025-01-21 13:18:55.515627	295.5	16.2	-91.0	5.5
2025-01-21 13:18:56.681694	295.3	16.1	-90.5	3.1
2025-01-21 13:18:57.845249	295.1	16.0	-90.8	5.6
2025-01-21 13:18:59.007937	294.9	15.9	-90.9	3.4
2025-01-21 13:19:00.167649	294.8	15.8	-90.8	6.8
2025-01-21 13:19:01.329066	294.6	15.8	-90.6	5.5
2025-01-21 13:19:02.492403	294.4	15.7	-90.4	2.6
2025-01-21 13:19:03.653118	294.3	15.6	-90.5	2.9
2025-01-21 13:19:04.813059	294.1	15.5	-90.6	5.2
2025-01-21 13:19:05.978220	293.9	15.4	-90.6	4.2
2025-01-21 13:19:07.138873	293.8	15.3	-90.2	4.8
2025-01-21 13:19:08.305446	293.6	15.2	-90.5	8.5
2025-01-21 13:19:09.464932	293.4	15.1	-90.6	9.3
2025-01-21 13:19:10.624635	293.3	15.0	-90.6	9.8
2025-01-21 13:19:11.792237	293.1	14.9	-90.1	5.5
2025-01-21 13:19:12.950188	292.9	14.8	-89.6	5.6
2025-01-21 13:19:14.117945	292.8	14.7	-89.5	6.5
2025-01-21 13:19:15.277215	292.6	14.6	-89.8	4.4
#Closed at: 2025-01-21 13:12:24.115379