passes_logs/2025/01/21/LEX_Murmansk/LEX_Murmansk__20250121_081026_NOAA_18_rec.log

#Pass ID: 20250121_081026_NOAA 18
#Satellite: NOAA 18
#Configuration: NOAA 18
#Start time: 2025-01-21 08:10:21.283109

#LorettStation: 1.0.0 05.05.2024
#Station: LEX_Murmansk
#Location: 33.156738 lon 68.926811 lat
#TLE: 1 28654U 05018A   25020.18862715  .00000449  00000+0  26167-3 0  9997
#TLE: 2 28654  98.8558 101.1913 0014575 164.8261 195.3351 14.13491567 13918

#Time	Az	El	Level	SNR
2025-01-21 08:10:33.449137	36.9	16.0	-91.4	4.0
2025-01-21 08:10:34.600757	37.1	16.1	-90.7	3.8
2025-01-21 08:10:35.750000	37.3	16.2	-90.3	2.5
2025-01-21 08:10:36.897826	37.4	16.3	-90.7	5.4
2025-01-21 08:10:38.058119	37.6	16.4	-90.4	4.3
2025-01-21 08:10:39.206246	37.7	16.5	-90.6	4.9
2025-01-21 08:10:40.358070	37.9	16.6	-90.3	4.6
2025-01-21 08:10:41.521424	38.1	16.7	-90.7	5.7
2025-01-21 08:10:42.680314	38.2	16.8	-90.8	3.5
2025-01-21 08:10:43.835147	38.4	16.9	-90.5	4.1
2025-01-21 08:10:44.992737	38.6	17.0	-90.5	5.5
2025-01-21 08:10:46.147263	38.7	17.1	-90.4	7.2
2025-01-21 08:10:47.295647	38.9	17.2	-90.5	6.8
2025-01-21 08:10:48.452716	39.1	17.3	-90.6	4.9
2025-01-21 08:10:49.604105	39.2	17.4	-91.5	5.6
2025-01-21 08:10:50.759350	39.4	17.5	-90.7	5.1
2025-01-21 08:10:51.910215	39.6	17.6	-91.4	6.0
2025-01-21 08:10:53.065855	39.8	17.7	-91.0	5.7
2025-01-21 08:10:54.216036	39.9	17.8	-91.2	5.4
2025-01-21 08:10:55.367607	40.1	17.9	-91.1	6.9
2025-01-21 08:10:56.520569	40.3	18.0	-91.3	7.0
2025-01-21 08:10:57.674130	40.5	18.1	-89.5	8.1
2025-01-21 08:10:58.821785	40.7	18.2	-89.5	8.6
2025-01-21 08:10:59.974131	40.8	18.3	-91.1	7.1
2025-01-21 08:11:01.123547	41.0	18.4	-91.2	5.7
2025-01-21 08:11:02.275515	41.2	18.5	-90.1	7.3
2025-01-21 08:11:03.428870	41.4	18.6	-90.6	4.3
2025-01-21 08:11:04.584684	41.6	18.7	-90.5	4.1
2025-01-21 08:11:05.734802	41.8	18.8	-90.7	7.3
2025-01-21 08:11:06.882996	42.0	18.9	-90.6	7.9
2025-01-21 08:11:08.044270	42.1	19.0	-90.7	10.5
2025-01-21 08:11:09.200104	42.3	19.1	-91.3	9.3
2025-01-21 08:11:10.346746	42.5	19.2	-91.0	13.1
2025-01-21 08:11:11.502331	42.7	19.3	-91.5	7.6
2025-01-21 08:11:12.655627	42.9	19.4	-91.4	9.4
2025-01-21 08:11:13.804184	43.1	19.5	-91.2	10.1
2025-01-21 08:11:14.954046	43.3	19.6	-91.5	9.7
2025-01-21 08:11:16.106799	43.5	19.7	-91.1	11.5
2025-01-21 08:11:17.254535	43.7	19.8	-90.5	10.6
2025-01-21 08:11:18.403428	43.9	19.9	-91.0	10.6
2025-01-21 08:11:19.560667	44.1	20.0	-90.9	6.7
2025-01-21 08:11:20.703328	44.3	20.1	-90.5	10.8
2025-01-21 08:11:21.862444	44.5	20.2	-90.7	6.1
2025-01-21 08:11:23.008623	44.7	20.3	-90.7	4.8
2025-01-21 08:11:24.170639	44.9	20.4	-90.7	5.5
2025-01-21 08:11:25.319863	45.2	20.6	-91.3	8.2
2025-01-21 08:11:26.473213	45.4	20.7	-91.6	10.5
2025-01-21 08:11:27.621929	45.6	20.8	-91.4	10.6
2025-01-21 08:11:28.771015	45.8	20.9	-91.4	12.1
2025-01-21 08:11:29.914109	46.0	21.0	-91.4	6.5
2025-01-21 08:11:31.060813	46.2	21.1	-91.2	8.1
2025-01-21 08:11:32.212283	46.4	21.2	-91.3	10.9
2025-01-21 08:11:33.364449	46.7	21.3	-91.1	9.2
2025-01-21 08:11:34.525849	46.9	21.4	-91.3	6.5
2025-01-21 08:11:35.671903	47.1	21.5	-91.3	10.4
2025-01-21 08:11:36.820378	47.3	21.6	-91.4	12.4
2025-01-21 08:11:37.971023	47.5	21.7	-91.2	13.5
2025-01-21 08:11:39.118332	47.8	21.8	-91.1	14.7
2025-01-21 08:11:40.273844	48.0	21.9	-91.3	14.4
2025-01-21 08:11:41.424501	48.2	22.0	-91.4	9.7
2025-01-21 08:11:42.581819	48.5	22.1	-91.1	6.2
2025-01-21 08:11:43.729464	48.7	22.2	-91.1	13.2
2025-01-21 08:11:44.881811	48.9	22.3	-91.3	7.1
2025-01-21 08:11:46.027751	49.2	22.4	-91.1	8.1
2025-01-21 08:11:47.185727	49.4	22.5	-91.7	13.2
2025-01-21 08:11:48.336975	49.6	22.6	-91.0	16.7
2025-01-21 08:11:49.486896	49.9	22.7	-91.2	15.7
2025-01-21 08:11:50.641438	50.1	22.8	-91.1	9.8
2025-01-21 08:11:51.792913	50.4	22.9	-91.5	13.5
2025-01-21 08:11:52.944334	50.6	23.0	-91.4	10.0
2025-01-21 08:11:54.088232	50.9	23.1	-91.5	8.3
2025-01-21 08:11:55.234303	51.1	23.2	-91.4	14.2
2025-01-21 08:11:56.388210	51.3	23.3	-91.3	13.8
2025-01-21 08:11:57.534187	51.6	23.4	-91.4	9.2
2025-01-21 08:11:58.682872	51.9	23.5	-91.4	13.9
2025-01-21 08:11:59.831327	52.1	23.6	-91.4	11.9
2025-01-21 08:12:00.984402	52.4	23.7	-91.3	15.8
2025-01-21 08:12:02.140936	52.6	23.8	-91.3	14.0
2025-01-21 08:12:03.289792	52.9	23.9	-90.8	12.5
2025-01-21 08:12:04.441557	53.1	24.0	-91.2	8.5
2025-01-21 08:12:05.592969	53.4	24.1	-91.1	7.1
2025-01-21 08:12:06.746701	53.7	24.2	-91.4	15.2
2025-01-21 08:12:07.897871	53.9	24.3	-91.4	7.3
2025-01-21 08:12:09.046986	54.2	24.4	-91.2	6.1
2025-01-21 08:12:10.192842	54.5	24.5	-91.1	11.6
2025-01-21 08:12:11.341595	54.7	24.6	-91.2	10.4
2025-01-21 08:12:12.493888	55.0	24.7	-91.5	7.5
2025-01-21 08:12:13.649686	55.3	24.8	-91.2	12.0
2025-01-21 08:12:14.798311	55.6	24.9	-91.4	13.4
2025-01-21 08:12:15.949005	55.8	25.0	-91.2	7.0
2025-01-21 08:12:17.096912	56.1	25.1	-91.4	10.3
2025-01-21 08:12:18.254095	56.4	25.2	-91.3	9.0
2025-01-21 08:12:19.413815	56.7	25.3	-91.5	7.8
2025-01-21 08:12:20.568061	57.0	25.4	-91.8	7.4
2025-01-21 08:12:21.725791	57.3	25.5	-91.3	13.6
2025-01-21 08:12:22.877978	57.5	25.6	-91.4	14.4
2025-01-21 08:12:24.024801	57.8	25.7	-91.2	14.7
2025-01-21 08:12:25.171918	58.1	25.8	-91.4	12.6
2025-01-21 08:12:26.331952	58.4	25.9	-91.4	12.4
2025-01-21 08:12:27.482759	58.7	26.0	-91.5	10.6
2025-01-21 08:12:28.637083	59.0	26.1	-91.2	10.1
2025-01-21 08:12:29.782416	59.3	26.2	-91.5	10.9
2025-01-21 08:12:30.940747	59.6	26.3	-91.3	5.0
2025-01-21 08:12:32.094385	59.9	26.4	-91.4	2.7
2025-01-21 08:12:33.237805	60.2	26.5	-91.1	3.5
2025-01-21 08:12:34.390751	60.5	26.5	-91.4	3.3
2025-01-21 08:12:35.537534	60.8	26.6	-91.5	4.5
2025-01-21 08:12:36.687621	61.1	26.7	-90.6	4.6
2025-01-21 08:12:37.840069	61.4	26.8	-91.0	6.5
2025-01-21 08:12:38.987518	61.7	26.9	-90.8	4.9
2025-01-21 08:12:40.140487	62.1	27.0	-90.7	6.1
2025-01-21 08:12:41.287769	62.4	27.1	-90.8	6.2
2025-01-21 08:12:42.443677	62.7	27.2	-91.1	7.6
2025-01-21 08:12:43.617534	63.0	27.3	-90.9	5.8
2025-01-21 08:12:44.769868	63.3	27.3	-91.4	6.7
2025-01-21 08:12:45.917850	63.7	27.4	-91.6	5.7
2025-01-21 08:12:47.073220	64.0	27.5	-91.3	3.0
2025-01-21 08:12:48.225709	64.3	27.6	-91.0	4.7
2025-01-21 08:12:49.377661	64.6	27.7	-91.4	4.7
2025-01-21 08:12:50.525271	65.0	27.8	-91.5	3.4
2025-01-21 08:12:51.679962	65.3	27.8	-91.4	7.1
2025-01-21 08:12:52.837439	65.6	27.9	-91.5	6.6
2025-01-21 08:12:53.985915	66.0	28.0	-91.2	5.6
2025-01-21 08:12:55.137072	66.3	28.1	-91.3	4.8
2025-01-21 08:12:56.294288	66.6	28.2	-91.6	3.6
2025-01-21 08:12:57.445495	67.0	28.2	-91.6	4.2
2025-01-21 08:12:58.601125	67.3	28.3	-91.7	5.8
2025-01-21 08:12:59.751953	67.6	28.4	-91.5	9.3
2025-01-21 08:13:00.898767	68.0	28.5	-91.4	5.7
2025-01-21 08:13:02.056960	68.3	28.5	-91.5	5.1
2025-01-21 08:13:03.212311	68.7	28.6	-91.3	8.7
2025-01-21 08:13:04.361774	69.0	28.7	-91.3	10.7
2025-01-21 08:13:05.511814	69.4	28.8	-91.6	7.8
2025-01-21 08:13:06.661335	69.7	28.8	-91.2	9.4
2025-01-21 08:13:07.809890	70.1	28.9	-91.5	11.4
2025-01-21 08:13:08.963890	70.4	29.0	-91.4	9.1
2025-01-21 08:13:10.124248	70.8	29.0	-91.3	11.0
2025-01-21 08:13:11.279279	71.2	29.1	-90.6	7.2
2025-01-21 08:13:12.429469	71.5	29.2	-91.7	13.4
2025-01-21 08:13:13.582664	71.9	29.2	-91.0	9.9
2025-01-21 08:13:14.734577	72.2	29.3	-91.3	7.9
2025-01-21 08:13:15.887035	72.6	29.4	-91.5	6.6
2025-01-21 08:13:17.044907	73.0	29.4	-91.1	9.2
2025-01-21 08:13:18.194690	73.3	29.5	-91.4	10.4
2025-01-21 08:13:19.353232	73.7	29.5	-91.0	14.7
2025-01-21 08:13:20.496371	74.1	29.6	-91.3	10.3
2025-01-21 08:13:21.650637	74.4	29.6	-91.5	12.1
2025-01-21 08:13:22.799624	74.8	29.7	-91.4	15.1
2025-01-21 08:13:23.949527	75.2	29.8	-91.5	8.4
2025-01-21 08:13:25.100729	75.5	29.8	-91.0	7.2
2025-01-21 08:13:26.248108	75.9	29.9	-90.9	14.6
2025-01-21 08:13:27.400209	76.3	29.9	-91.3	10.3
2025-01-21 08:13:28.549550	76.7	30.0	-91.4	11.0
2025-01-21 08:13:29.711214	77.0	30.0	-91.2	16.7
2025-01-21 08:13:30.862885	77.4	30.1	-91.4	16.8
2025-01-21 08:13:32.008577	77.8	30.1	-91.1	15.8
2025-01-21 08:13:33.156326	78.2	30.1	-91.2	13.6
2025-01-21 08:13:34.308275	78.6	30.2	-91.5	13.7
2025-01-21 08:13:35.461947	78.9	30.2	-91.6	13.8
2025-01-21 08:13:36.605586	79.3	30.3	-91.3	14.9
2025-01-21 08:13:37.757356	79.7	30.3	-91.2	13.9
2025-01-21 08:13:38.908337	80.1	30.3	-91.5	12.6
2025-01-21 08:13:40.068095	80.5	30.4	-91.3	8.6
2025-01-21 08:13:41.215208	80.9	30.4	-91.4	15.2
2025-01-21 08:13:42.368147	81.3	30.4	-91.1	13.3
2025-01-21 08:13:43.528874	81.7	30.5	-91.2	6.5
2025-01-21 08:13:44.676755	82.0	30.5	-91.2	14.2
2025-01-21 08:13:45.828579	82.4	30.5	-91.2	14.3
2025-01-21 08:13:46.983000	82.8	30.6	-91.3	9.3
2025-01-21 08:13:48.137794	83.2	30.6	-91.1	7.8
2025-01-21 08:13:49.291207	83.6	30.6	-91.1	19.4
2025-01-21 08:13:50.445895	84.0	30.6	-90.8	9.5
2025-01-21 08:13:51.594601	84.4	30.7	-91.2	6.7
2025-01-21 08:13:52.745471	84.8	30.7	-91.0	19.0
2025-01-21 08:13:53.895062	85.2	30.7	-91.3	12.4
2025-01-21 08:13:55.051545	85.6	30.7	-91.0	14.8
2025-01-21 08:13:56.195604	86.0	30.7	-91.1	15.1
2025-01-21 08:13:57.358771	86.4	30.8	-91.0	14.4
2025-01-21 08:13:58.515031	86.8	30.8	-90.9	17.0
2025-01-21 08:13:59.671481	87.2	30.8	-91.1	17.7
2025-01-21 08:14:00.823457	87.6	30.8	-91.2	16.2
2025-01-21 08:14:01.972395	88.0	30.8	-91.6	16.7
2025-01-21 08:14:03.129307	88.4	30.8	-91.3	16.2
2025-01-21 08:14:04.274689	88.8	30.8	-91.2	16.4
2025-01-21 08:14:05.426355	89.2	30.8	-91.1	19.1
2025-01-21 08:14:06.578929	89.6	30.8	-91.4	15.3
2025-01-21 08:14:07.736902	90.0	30.8	-91.4	15.5
2025-01-21 08:14:08.890580	90.4	30.8	-91.6	16.3
2025-01-21 08:14:10.050933	90.8	30.8	-91.3	14.2
2025-01-21 08:14:11.203828	91.2	30.8	-91.1	20.7
2025-01-21 08:14:12.359358	91.6	30.8	-90.8	19.2
2025-01-21 08:14:13.509113	92.0	30.8	-90.4	7.6
2025-01-21 08:14:14.655275	92.3	30.8	-90.6	19.8
2025-01-21 08:14:15.807913	92.7	30.8	-90.6	15.3
2025-01-21 08:14:16.959335	93.1	30.8	-90.6	7.7
2025-01-21 08:14:18.112117	93.5	30.8	-90.2	13.6
2025-01-21 08:14:19.261449	93.9	30.8	-90.8	22.2
2025-01-21 08:14:20.416740	94.3	30.7	-90.9	11.8
2025-01-21 08:14:21.568146	94.7	30.7	-91.4	9.0
2025-01-21 08:14:22.720185	95.1	30.7	-91.3	17.2
2025-01-21 08:14:23.874608	95.5	30.7	-91.3	12.8
2025-01-21 08:14:25.032611	95.9	30.7	-91.3	12.3
2025-01-21 08:14:26.181272	96.3	30.6	-91.1	21.4
2025-01-21 08:14:27.340693	96.7	30.6	-90.9	18.4
2025-01-21 08:14:28.490616	97.1	30.6	-91.2	11.7
2025-01-21 08:14:29.638545	97.5	30.6	-91.6	15.8
2025-01-21 08:14:30.798602	97.9	30.5	-91.7	21.7
2025-01-21 08:14:31.947112	98.3	30.5	-90.9	15.8
2025-01-21 08:14:33.114297	98.7	30.5	-91.2	16.4
2025-01-21 08:14:34.263800	99.1	30.4	-91.6	18.6
2025-01-21 08:14:35.417696	99.5	30.4	-91.3	17.2
2025-01-21 08:14:36.568869	99.8	30.4	-91.6	12.2
2025-01-21 08:14:37.721582	100.2	30.3	-91.7	16.6
2025-01-21 08:14:38.876466	100.6	30.3	-91.7	13.3
2025-01-21 08:14:40.024873	101.0	30.3	-91.4	19.3
2025-01-21 08:14:41.166419	101.4	30.2	-91.4	23.1
2025-01-21 08:14:42.312704	101.8	30.2	-91.6	18.1
2025-01-21 08:14:43.463088	102.1	30.1	-91.3	13.1
2025-01-21 08:14:44.609270	102.5	30.1	-91.4	11.5
2025-01-21 08:14:45.762104	102.9	30.1	-91.7	14.1
2025-01-21 08:14:46.922299	103.3	30.0	-91.6	18.7
2025-01-21 08:14:48.068660	103.7	30.0	-91.5	18.3
2025-01-21 08:14:49.220069	104.0	29.9	-91.6	17.0
2025-01-21 08:14:50.377562	104.4	29.9	-91.1	17.9
2025-01-21 08:14:51.536360	104.8	29.8	-91.2	17.9
2025-01-21 08:14:52.687143	105.2	29.8	-91.5	18.3
2025-01-21 08:14:53.834674	105.5	29.7	-91.4	13.9
2025-01-21 08:14:54.982764	105.9	29.6	-91.4	14.6
2025-01-21 08:14:56.131286	106.3	29.6	-91.0	15.8
2025-01-21 08:14:57.280001	106.7	29.5	-91.2	14.0
2025-01-21 08:14:58.440060	107.0	29.5	-91.3	16.2
2025-01-21 08:14:59.590652	107.4	29.4	-91.0	18.4
2025-01-21 08:15:00.734965	107.8	29.3	-91.4	14.3
2025-01-21 08:15:01.879356	108.1	29.3	-91.2	13.7
2025-01-21 08:15:03.028377	108.5	29.2	-91.7	14.8
2025-01-21 08:15:04.177981	108.8	29.2	-91.8	15.6
2025-01-21 08:15:05.330556	109.2	29.1	-91.3	14.3
2025-01-21 08:15:06.480919	109.6	29.0	-91.7	12.3
2025-01-21 08:15:07.629343	109.9	29.0	-91.5	11.8
2025-01-21 08:15:08.778744	110.3	28.9	-91.4	12.1
2025-01-21 08:15:09.934151	110.6	28.8	-91.4	12.0
2025-01-21 08:15:11.084326	111.0	28.7	-91.1	12.3
2025-01-21 08:15:12.241844	111.3	28.7	-91.1	12.3
2025-01-21 08:15:13.395062	111.7	28.6	-91.4	10.4
2025-01-21 08:15:14.542860	112.0	28.5	-91.7	9.7
2025-01-21 08:15:15.689953	112.4	28.5	-91.3	11.0
2025-01-21 08:15:16.845236	112.7	28.4	-91.2	7.5
2025-01-21 08:15:17.997254	113.1	28.3	-91.4	4.4
2025-01-21 08:15:19.150763	113.4	28.2	-91.4	5.0
2025-01-21 08:15:20.307847	113.7	28.1	-91.3	6.0
2025-01-21 08:15:21.454526	114.1	28.1	-91.7	6.7
2025-01-21 08:15:22.604813	114.4	28.0	-91.5	7.9
2025-01-21 08:15:23.757249	114.7	27.9	-91.4	9.0
2025-01-21 08:15:24.910360	115.1	27.8	-91.5	7.5
2025-01-21 08:15:26.061822	115.4	27.7	-91.6	7.1
2025-01-21 08:15:27.211333	115.7	27.7	-91.3	8.1
2025-01-21 08:15:28.370944	116.1	27.6	-91.5	4.7
2025-01-21 08:15:29.516235	116.4	27.5	-91.4	7.6
2025-01-21 08:15:30.666334	116.7	27.4	-91.7	6.2
2025-01-21 08:15:31.819595	117.0	27.3	-91.4	6.7
2025-01-21 08:15:32.968687	117.4	27.2	-91.7	6.0
2025-01-21 08:15:34.122311	117.7	27.2	-91.4	5.0
2025-01-21 08:15:35.272759	118.0	27.1	-91.4	7.1
2025-01-21 08:15:36.427236	118.3	27.0	-91.5	5.6
2025-01-21 08:15:37.578451	118.6	26.9	-91.0	4.8
2025-01-21 08:15:38.728183	118.9	26.8	-91.0	6.0
2025-01-21 08:15:39.882879	119.3	26.7	-91.1	4.8
2025-01-21 08:15:41.041832	119.6	26.6	-91.1	4.7
2025-01-21 08:15:42.187956	119.9	26.5	-91.1	5.4
2025-01-21 08:15:43.345161	120.2	26.4	-91.0	5.1
2025-01-21 08:15:44.499109	120.5	26.3	-91.4	4.6
2025-01-21 08:15:45.661680	120.8	26.2	-91.7	9.5
2025-01-21 08:15:46.817294	121.1	26.1	-91.8	8.0
2025-01-21 08:15:47.970616	121.4	26.1	-91.7	5.0
2025-01-21 08:15:49.132583	121.7	26.0	-91.5	7.0
2025-01-21 08:15:50.285765	122.0	25.9	-91.7	5.6
2025-01-21 08:15:51.444479	122.3	25.8	-91.7	4.3
2025-01-21 08:15:52.592574	122.6	25.7	-91.8	6.0
2025-01-21 08:15:53.739027	122.9	25.6	-91.4	10.4
2025-01-21 08:15:54.886180	123.2	25.5	-91.4	7.7
2025-01-21 08:15:56.039206	123.5	25.4	-91.6	8.4
2025-01-21 08:15:57.197058	123.7	25.3	-91.5	10.4
2025-01-21 08:15:58.353148	124.0	25.2	-91.4	9.7
2025-01-21 08:15:59.505485	124.3	25.1	-91.4	8.8
2025-01-21 08:16:00.656769	124.6	25.0	-91.3	10.2
2025-01-21 08:16:01.801113	124.9	24.9	-90.8	10.4
2025-01-21 08:16:02.951723	125.1	24.8	-91.0	13.4
2025-01-21 08:16:04.099853	125.4	24.7	-90.5	13.2
2025-01-21 08:16:05.245396	125.7	24.6	-90.6	14.7
2025-01-21 08:16:06.400731	126.0	24.5	-90.9	13.9
2025-01-21 08:16:07.557039	126.2	24.4	-91.0	12.1
2025-01-21 08:16:08.706222	126.5	24.3	-91.3	15.1
2025-01-21 08:16:09.857071	126.8	24.2	-91.0	14.6
2025-01-21 08:16:11.007685	127.0	24.1	-91.5	14.1
2025-01-21 08:16:12.159239	127.3	24.0	-91.1	15.0
2025-01-21 08:16:13.312477	127.6	23.9	-91.4	13.4
2025-01-21 08:16:14.466142	127.8	23.8	-91.5	11.4
2025-01-21 08:16:15.620095	128.1	23.7	-91.1	12.1
2025-01-21 08:16:16.773294	128.3	23.6	-91.3	18.4
2025-01-21 08:16:17.928893	128.6	23.5	-91.4	11.6
2025-01-21 08:16:19.075953	128.8	23.4	-91.1	11.6
2025-01-21 08:16:20.225791	129.1	23.3	-91.2	16.6
2025-01-21 08:16:21.373942	129.3	23.2	-91.1	14.7
2025-01-21 08:16:22.522557	129.6	23.1	-91.3	11.2
2025-01-21 08:16:23.675389	129.8	23.0	-91.3	17.3
2025-01-21 08:16:24.826620	130.1	22.9	-91.3	17.5
2025-01-21 08:16:25.981950	130.3	22.8	-91.2	11.2
2025-01-21 08:16:27.128842	130.6	22.7	-91.4	13.6
2025-01-21 08:16:28.286126	130.8	22.5	-91.5	16.5
2025-01-21 08:16:29.444511	131.1	22.4	-91.3	13.8
2025-01-21 08:16:30.600763	131.3	22.3	-91.4	13.8
2025-01-21 08:16:31.749130	131.5	22.2	-91.7	17.1
2025-01-21 08:16:32.908820	131.8	22.1	-91.7	18.2
2025-01-21 08:16:34.063762	132.0	22.0	-91.5	18.3
2025-01-21 08:16:35.210598	132.2	21.9	-91.1	18.0
2025-01-21 08:16:36.366184	132.5	21.8	-90.9	18.3
2025-01-21 08:16:37.497813	132.7	21.7	-91.3	17.2
2025-01-21 08:16:38.646270	132.9	21.6	-91.2	17.9
2025-01-21 08:16:39.799441	133.1	21.5	-91.3	18.0
2025-01-21 08:16:40.955847	133.4	21.4	-91.3	13.9
2025-01-21 08:16:42.109325	133.6	21.3	-91.4	12.0
2025-01-21 08:16:43.260205	133.8	21.2	-91.5	17.5
2025-01-21 08:16:44.409365	134.0	21.1	-91.1	8.5
2025-01-21 08:16:45.562289	134.3	21.0	-91.4	8.6
2025-01-21 08:16:46.710546	134.5	20.9	-91.4	16.3
2025-01-21 08:16:47.866878	134.7	20.8	-91.5	14.8
2025-01-21 08:16:49.026002	134.9	20.7	-91.4	10.2
2025-01-21 08:16:50.181218	135.1	20.6	-91.5	13.5
2025-01-21 08:16:51.334957	135.3	20.5	-91.6	11.5
2025-01-21 08:16:52.481715	135.5	20.4	-91.4	8.3
2025-01-21 08:16:53.632316	135.8	20.3	-91.7	13.1
2025-01-21 08:16:54.781410	136.0	20.1	-91.2	12.4
2025-01-21 08:16:55.933869	136.2	20.0	-91.5	7.9
2025-01-21 08:16:57.083031	136.4	19.9	-91.5	8.6
2025-01-21 08:16:58.234232	136.6	19.8	-91.2	9.5
2025-01-21 08:16:59.389163	136.8	19.7	-91.4	10.9
2025-01-21 08:17:00.536577	137.0	19.6	-91.7	9.6
2025-01-21 08:17:01.692005	137.2	19.5	-91.8	13.0
2025-01-21 08:17:02.842665	137.4	19.4	-91.3	10.2
2025-01-21 08:17:04.000122	137.6	19.3	-91.6	7.9
2025-01-21 08:17:05.154828	137.8	19.2	-91.3	11.3
2025-01-21 08:17:06.306340	138.0	19.1	-91.3	11.2
2025-01-21 08:17:07.458896	138.2	19.0	-91.5	10.1
2025-01-21 08:17:08.612155	138.4	18.9	-91.7	8.1
2025-01-21 08:17:09.773868	138.5	18.8	-91.7	10.8
2025-01-21 08:17:10.918937	138.7	18.7	-91.2	7.7
2025-01-21 08:17:12.075474	138.9	18.6	-91.1	7.2
2025-01-21 08:17:13.230637	139.1	18.5	-90.8	11.7
2025-01-21 08:17:14.392049	139.3	18.4	-90.7	8.8
2025-01-21 08:17:15.537287	139.5	18.3	-90.9	8.7
2025-01-21 08:17:16.691124	139.7	18.2	-91.2	6.7
2025-01-21 08:17:17.853782	139.8	18.1	-91.2	7.9
2025-01-21 08:17:19.005484	140.0	18.0	-91.0	9.3
2025-01-21 08:17:20.155243	140.2	17.9	-90.6	9.5
2025-01-21 08:17:21.302978	140.4	17.8	-90.4	9.6
2025-01-21 08:17:22.455946	140.6	17.7	-91.2	9.7
2025-01-21 08:17:23.602571	140.7	17.6	-91.6	9.0
2025-01-21 08:17:24.749070	140.9	17.5	-91.4	6.6
2025-01-21 08:17:25.896211	141.1	17.4	-91.8	5.1
2025-01-21 08:17:27.048192	141.3	17.3	-91.6	5.1
2025-01-21 08:17:28.202176	141.4	17.2	-91.3	3.1
2025-01-21 08:17:29.355771	141.6	17.1	-91.2	4.5
2025-01-21 08:17:30.512019	141.8	17.0	-91.5	4.2
2025-01-21 08:17:31.664986	141.9	16.9	-91.0	4.8
2025-01-21 08:17:32.818927	142.1	16.8	-91.3	4.2
2025-01-21 08:17:33.969851	142.3	16.7	-90.8	3.5
2025-01-21 08:17:35.127670	142.4	16.6	-90.2	6.4
2025-01-21 08:17:36.280452	142.6	16.5	-91.2	4.1
2025-01-21 08:17:37.433071	142.8	16.4	-91.3	4.3
2025-01-21 08:17:38.579907	142.9	16.3	-91.3	4.7
2025-01-21 08:17:39.734965	143.1	16.2	-91.3	4.4
2025-01-21 08:17:40.887928	143.3	16.1	-91.2	5.5
2025-01-21 08:17:42.034789	143.4	16.0	-91.3	6.4
2025-01-21 08:17:43.181880	143.6	15.9	-91.1	6.0
2025-01-21 08:17:44.330603	143.7	15.8	-91.1	7.6
2025-01-21 08:17:45.479903	143.9	15.7	-91.7	5.2
2025-01-21 08:17:46.626207	144.0	15.6	-90.9	6.5
2025-01-21 08:17:47.773760	144.2	15.5	-90.3	5.2
2025-01-21 08:17:48.929579	144.4	15.4	-90.7	4.9
2025-01-21 08:17:50.081647	144.5	15.3	-90.7	2.7
2025-01-21 08:17:51.237807	144.7	15.2	-90.5	5.4
2025-01-21 08:17:52.390861	144.8	15.1	-90.7	5.0
2025-01-21 08:17:53.537118	145.0	15.0	-91.2	5.5
2025-01-21 08:17:54.685357	145.1	14.9	-91.5	5.3
2025-01-21 08:17:55.834195	145.3	14.8	-91.1	3.4
2025-01-21 08:17:56.983586	145.4	14.7	-91.7	7.8
2025-01-21 08:17:58.139763	145.5	14.6	-91.8	8.4
#Closed at: 2025-01-21 08:10:26.258580