passes_logs/2026/01/14/R4.6S_Anadyr/R4.6S_Anadyr__20260114_021638_FENGYUN_3D_rec.log

#Pass ID: 20260114_021638_FENGYUN 3D
#Satellite: FENGYUN 3D
#Configuration: FENGYUN 3D
#almurnet v.1.7.20251203
#Start time: 2026-01-14 02:16:43

#Version: 2.2.20231116
#Station: R4.6S_Anadyr
#Location: 177.4865 lon 64.73178 lat
#TLE: 1 43010U 17072A   26013.59402220  .00000029  00000+0  35477-4 0  9991
#TLE: 2 43010  98.9934 345.3884 0002280 110.7757 249.3663 14.19695359423056

#Time	Az	El	Level	Level2	SNR	BER	BlckErr	Temp	State	Recorded	gain1	gain2
2026-01-14 02:16:43.59	156.64	0.29	-45.1	-46.5	5.7	0.00e+00	0	25	0	0	60	25982
2026-01-14 02:16:47.63	156.66	0.53	-48.5	-60.6	3.6	8.45e-01	0	26	104	0	60	38649
2026-01-14 02:16:51.67	156.67	0.78	-47.9	-60.0	3.6	8.45e-01	0	26	104	0	60	36220
2026-01-14 02:16:55.71	156.69	1.03	-46.5	-58.6	3.6	8.46e-01	0	26	104	0	60	30796
2026-01-14 02:16:59.75	156.71	1.28	-46.5	-58.4	3.6	8.46e-01	0	26	104	0	60	30198
2026-01-14 02:17:03.79	156.73	1.54	-46.5	-58.4	3.6	8.45e-01	0	26	104	0	60	30042
2026-01-14 02:17:07.83	156.75	1.80	-46.4	-58.2	3.6	8.45e-01	0	26	104	0	60	29282
2026-01-14 02:17:11.87	156.77	2.05	-46.4	-58.4	3.6	8.45e-01	0	26	104	0	60	30027
2026-01-14 02:17:15.91	156.79	2.32	-46.4	-57.8	3.6	8.46e-01	0	26	104	0	60	27972
2026-01-14 02:17:19.95	156.81	2.58	-46.4	-57.7	3.6	8.45e-01	0	26	104	0	60	27657
2026-01-14 02:17:23.99	156.83	2.85	-46.4	-58.2	3.6	8.45e-01	0	26	104	0	60	29287
2026-01-14 02:17:28.03	156.85	3.11	-44.9	-49.1	7.6	1.53e-01	0	26	0	4194304	60	10336
2026-01-14 02:17:32.07	156.87	3.39	-41.0	-42.7	14.9	0.00e+00	0	27	0	26214400	56	6188
2026-01-14 02:17:36.10	156.89	3.66	-39.4	-40.8	16.7	0.00e+00	0	26	0	49283072	52	6267
2026-01-14 02:17:40.15	156.91	3.94	-43.9	-46.9	12.4	1.26e-02	0	27	0	65011712	60	7958
2026-01-14 02:17:44.19	156.93	4.22	-39.7	-41.2	15.9	6.25e-01	0	26	104	72351744	54	5829
2026-01-14 02:17:48.23	156.95	4.50	-36.9	-37.9	20.0	0.00e+00	0	27	0	92274688	48	5670
2026-01-14 02:17:52.27	156.98	4.79	-35.4	-36.2	21.7	0.00e+00	0	27	0	114294784	44	5892
2026-01-14 02:17:56.31	157.00	5.07	-35.3	-36.1	21.9	0.00e+00	0	27	0	137363456	44	5808
2026-01-14 02:18:00.35	157.02	5.37	-34.9	-35.7	22.2	0.00e+00	0	27	0	160432128	44	5554
2026-01-14 02:18:04.39	157.04	5.66	-34.9	-35.7	22.3	0.00e+00	0	27	0	182452224	44	5547
2026-01-14 02:18:08.43	157.06	5.96	-35.0	-35.8	22.4	0.00e+00	0	26	0	205520896	44	5578
2026-01-14 02:18:12.47	157.08	6.26	-34.4	-35.1	23.0	0.00e+00	0	27	0	228589568	42	5804
2026-01-14 02:18:16.51	157.11	6.57	-34.1	-34.8	23.3	0.00e+00	0	27	0	251658240	42	5617
2026-01-14 02:18:20.55	157.13	6.88	-34.0	-34.8	23.4	0.00e+00	0	27	0	273678336	42	5585
2026-01-14 02:18:24.59	157.15	7.19	-33.9	-34.7	23.6	0.00e+00	0	27	0	296747008	42	5528
2026-01-14 02:18:28.63	157.18	7.51	-33.9	-34.6	23.6	0.00e+00	0	27	0	318767104	42	5470
2026-01-14 02:18:32.67	157.20	7.83	-33.6	-34.3	23.9	0.00e+00	0	27	0	341835776	40	5930
2026-01-14 02:18:36.72	157.22	8.15	-33.6	-34.3	23.9	0.00e+00	0	27	0	364904448	40	5898
2026-01-14 02:18:40.76	157.25	8.48	-33.5	-34.2	24.0	0.00e+00	0	27	0	387973120	40	5879
2026-01-14 02:18:44.80	157.27	8.82	-33.4	-34.1	24.2	0.00e+00	0	27	0	409993216	40	5795
2026-01-14 02:18:48.84	157.29	9.16	-33.3	-34.0	24.3	0.00e+00	0	27	0	433061888	40	5742
2026-01-14 02:18:52.88	157.32	9.50	-33.4	-34.1	24.3	0.00e+00	0	27	0	456130560	40	5787
2026-01-14 02:18:56.92	157.34	9.85	-33.4	-34.1	24.3	0.00e+00	0	27	0	478150656	40	5787
2026-01-14 02:19:00.96	157.37	10.20	-33.1	-33.8	24.5	0.00e+00	0	27	0	501219328	40	5612
2026-01-14 02:19:05.00	157.39	10.56	-33.0	-33.7	24.7	0.00e+00	0	27	0	523239424	40	5557
2026-01-14 02:19:09.05	157.42	10.92	-33.2	-33.9	24.6	0.00e+00	0	27	0	546308096	40	5643
2026-01-14 02:19:13.09	157.44	11.29	-32.9	-33.6	24.8	0.00e+00	0	27	0	569376768	40	5464
2026-01-14 02:19:17.13	157.47	11.67	-32.8	-33.5	25.0	0.00e+00	0	27	0	592445440	40	5396
2026-01-14 02:19:21.17	157.50	12.05	-32.7	-33.4	25.0	0.00e+00	0	27	0	614465536	38	5984
2026-01-14 02:19:25.21	157.52	12.43	-32.6	-33.2	25.2	0.00e+00	0	27	0	637534208	38	5878
2026-01-14 02:19:29.25	157.55	12.82	-32.4	-33.1	25.3	0.00e+00	0	27	0	660602880	38	5799
2026-01-14 02:19:33.29	157.58	13.22	-32.4	-33.1	25.5	0.00e+00	0	27	0	682622976	38	5768
2026-01-14 02:19:37.33	157.61	13.63	-31.9	-32.6	25.8	0.00e+00	0	27	0	705691648	38	5473
2026-01-14 02:19:41.37	157.64	14.04	-31.8	-32.4	26.0	0.00e+00	0	27	0	728760320	36	5987
2026-01-14 02:19:45.42	157.66	14.46	-31.6	-32.3	26.0	0.00e+00	0	27	0	750780416	36	5904
2026-01-14 02:19:49.46	157.69	14.89	-31.6	-32.3	26.1	0.00e+00	0	27	0	773849088	36	5909
2026-01-14 02:19:53.50	157.72	15.32	-31.5	-32.2	26.0	0.00e+00	0	27	0	796917760	36	5852
2026-01-14 02:19:57.54	157.75	15.77	-31.3	-32.0	26.4	0.00e+00	0	27	0	818937856	36	5703
2026-01-14 02:20:01.58	157.78	16.22	-31.2	-31.9	26.5	0.00e+00	0	27	0	842006528	36	5658
2026-01-14 02:20:05.62	157.82	16.68	-31.2	-31.8	26.6	0.00e+00	0	27	0	865075200	36	5585
2026-01-14 02:20:09.66	157.85	17.14	-31.0	-31.6	26.6	0.00e+00	0	27	0	888143872	36	5500
2026-01-14 02:20:13.70	157.88	17.62	-30.8	-31.5	26.8	0.00e+00	0	27	0	910163968	36	5400
2026-01-14 02:20:17.74	157.91	18.11	-31.0	-31.6	26.8	0.00e+00	0	27	0	933232640	34	6160
2026-01-14 02:20:21.78	157.95	18.60	-30.6	-31.3	27.0	0.00e+00	0	27	0	955252736	34	5924
2026-01-14 02:20:25.82	157.98	19.11	-30.7	-31.4	26.9	0.00e+00	0	27	0	978321408	34	5981
2026-01-14 02:20:29.86	158.02	19.63	-30.6	-31.3	27.1	0.00e+00	0	27	0	1001390080	34	5933
2026-01-14 02:20:33.90	158.05	20.16	-30.4	-31.0	27.3	0.00e+00	0	27	0	1023410176	34	5718
2026-01-14 02:20:37.94	158.09	20.69	-30.4	-31.0	27.2	0.00e+00	0	27	0	1046478848	34	5744
2026-01-14 02:20:41.98	158.13	21.25	-30.3	-30.9	27.4	0.00e+00	0	27	0	1069547520	34	5634
2026-01-14 02:20:46.02	158.17	21.81	-30.3	-30.9	27.5	0.00e+00	0	27	0	1092616192	34	5658
2026-01-14 02:20:50.07	158.20	22.39	-30.3	-30.9	27.4	0.00e+00	0	27	0	1114636288	34	5683
2026-01-14 02:20:54.11	158.24	22.98	-30.1	-30.7	27.5	0.00e+00	0	27	0	1137704960	34	5535
2026-01-14 02:20:58.15	158.29	23.58	-29.9	-30.6	27.6	0.00e+00	0	27	0	1159725056	34	5445
2026-01-14 02:21:02.19	158.33	24.20	-29.5	-30.1	28.0	0.00e+00	0	27	0	1182793728	32	5811
2026-01-14 02:21:06.23	158.37	24.83	-29.4	-30.1	27.9	0.00e+00	0	27	0	1205862400	32	5772
2026-01-14 02:21:10.27	158.42	25.48	-29.6	-30.2	27.9	0.00e+00	0	27	0	1228931072	32	5888
2026-01-14 02:21:14.32	158.46	26.15	-29.5	-30.1	28.0	0.00e+00	0	27	0	1250951168	32	5778
2026-01-14 02:21:18.36	158.51	26.83	-29.6	-30.2	28.1	0.00e+00	0	27	0	1274019840	32	5855
2026-01-14 02:21:22.40	158.56	27.53	-29.6	-30.2	28.1	0.00e+00	0	27	0	1297088512	32	5852
2026-01-14 02:21:26.44	158.61	28.25	-29.4	-30.1	28.2	0.00e+00	0	27	0	1319108608	32	5779
2026-01-14 02:21:30.48	158.66	28.99	-29.4	-30.0	28.1	0.00e+00	0	27	0	1342177280	32	5756
2026-01-14 02:21:34.52	158.71	29.74	-29.2	-29.8	28.3	0.00e+00	0	27	0	1365245952	32	5620
2026-01-14 02:21:38.56	158.77	30.52	-29.2	-29.8	28.4	0.00e+00	0	27	0	1387266048	32	5613
2026-01-14 02:21:42.60	158.83	31.32	-29.0	-29.7	28.5	0.00e+00	0	27	0	1410334720	32	5508
2026-01-14 02:21:46.64	158.89	32.14	-29.2	-29.8	28.3	0.00e+00	0	27	0	1433403392	32	5589
2026-01-14 02:21:50.68	158.95	32.99	-29.2	-29.8	28.3	0.00e+00	0	27	0	1455423488	32	5627
2026-01-14 02:21:54.73	159.02	33.86	-28.8	-29.4	28.7	0.00e+00	0	27	0	1478492160	30	5986
2026-01-14 02:21:58.77	159.08	34.75	-28.9	-29.5	28.6	0.00e+00	0	27	0	1501560832	30	6054
2026-01-14 02:22:02.79	159.16	35.67	-28.5	-29.2	28.8	0.00e+00	0	27	0	1523580928	30	5839
2026-01-14 02:22:06.82	159.23	36.61	-28.5	-29.2	28.7	0.00e+00	0	27	0	1546649600	30	5845
2026-01-14 02:22:10.87	159.31	37.59	-28.8	-29.4	28.7	0.00e+00	0	27	0	1569718272	30	5973
2026-01-14 02:22:14.91	159.39	38.60	-29.0	-29.6	28.5	0.00e+00	0	27	0	1591738368	30	6160
2026-01-14 02:22:18.96	159.48	39.63	-29.2	-29.8	28.4	0.00e+00	0	27	0	1614807040	30	6291
2026-01-14 02:22:23.00	159.57	40.70	-29.1	-29.7	28.5	0.00e+00	0	27	0	1637875712	30	6204
2026-01-14 02:22:27.04	159.66	41.80	-29.4	-30.0	28.2	0.00e+00	0	27	0	1659895808	30	6437
2026-01-14 02:22:31.08	159.77	42.94	-29.5	-30.1	28.2	0.00e+00	0	27	0	1682964480	30	6512
2026-01-14 02:22:35.13	159.87	44.11	-29.3	-29.9	28.3	0.00e+00	0	27	0	1706033152	30	6385
2026-01-14 02:22:39.17	159.99	45.31	-29.4	-30.0	28.2	0.00e+00	0	27	0	1729101824	30	6422
2026-01-14 02:22:43.21	160.11	46.56	-29.7	-30.3	28.1	0.00e+00	0	27	0	1751121920	30	6657
2026-01-14 02:22:47.25	160.25	47.84	-29.2	-29.8	28.4	0.00e+00	0	27	0	1774190592	30	6265
2026-01-14 02:22:51.29	160.39	49.16	-28.8	-29.4	28.7	0.00e+00	0	27	0	1796210688	30	6020
2026-01-14 02:22:55.33	160.55	50.52	-30.3	-31.0	27.6	0.00e+00	0	27	0	1819279360	32	6400
2026-01-14 02:22:59.37	160.72	51.92	-30.8	-31.4	27.1	0.00e+00	0	27	0	1842348032	32	6748
2026-01-14 02:23:03.41	160.90	53.36	-30.1	-30.7	27.8	0.00e+00	0	27	0	1865416704	34	5525
2026-01-14 02:23:07.45	161.10	54.85	-30.3	-30.9	27.6	0.00e+00	0	27	0	1887436800	34	5637
2026-01-14 02:23:11.50	161.33	56.38	-30.4	-31.1	27.5	0.00e+00	0	27	0	1910505472	34	5763
2026-01-14 02:23:15.54	161.57	57.95	-30.0	-30.7	27.7	0.00e+00	0	27	0	1933574144	34	5513
2026-01-14 02:23:19.58	161.85	59.56	-29.4	-30.1	28.1	0.00e+00	0	27	0	1955594240	32	5773
2026-01-14 02:23:23.62	162.16	61.22	-29.2	-29.9	28.3	0.00e+00	0	27	0	1978662912	32	5647
2026-01-14 02:23:27.66	162.52	62.91	-29.0	-29.6	28.5	0.00e+00	0	27	0	2001731584	32	5445
2026-01-14 02:23:31.70	162.93	64.65	-29.1	-29.7	28.4	0.00e+00	0	27	0	2023751680	32	5545
2026-01-14 02:23:35.74	163.40	66.43	-28.6	-29.2	28.8	0.00e+00	0	27	0	2046820352	30	5852
2026-01-14 02:23:39.78	163.96	68.25	-28.2	-28.8	29.1	0.00e+00	0	27	0	2069889024	30	5578
2026-01-14 02:23:43.83	164.62	70.10	-27.9	-28.4	29.2	0.00e+00	0	27	0	2091909120	30	5377
2026-01-14 02:23:47.87	165.44	71.99	-27.9	-28.5	29.3	0.00e+00	0	27	0	2114977792	30	5415
2026-01-14 02:23:51.91	166.45	73.90	-27.9	-28.5	29.2	0.00e+00	0	27	0	2138046464	28	6076
2026-01-14 02:23:55.95	167.74	75.84	-27.6	-28.2	29.4	0.00e+00	0	27	0	2160066560	28	5852
2026-01-14 02:23:59.99	169.46	77.80	-26.8	-27.4	29.9	0.00e+00	0	27	0	2183135232	28	5337
2026-01-14 02:24:04.03	171.86	79.76	-26.9	-27.5	29.8	0.00e+00	0	27	0	2206203904	26	6034
2026-01-14 02:24:08.07	175.40	81.72	-26.3	-26.9	30.2	0.00e+00	0	27	0	2228224000	26	5671
2026-01-14 02:24:12.11	181.15	83.65	-26.1	-26.6	30.4	0.00e+00	0	27	0	2251292672	26	5482
2026-01-14 02:24:16.15	191.70	85.47	-26.8	-27.5	29.9	0.00e+00	0	27	0	2274361344	26	6070
2026-01-14 02:24:20.19	214.22	86.96	-27.1	-27.7	29.7	0.00e+00	0	27	0	2296381440	26	6227
2026-01-14 02:24:24.23	256.70	87.43	-27.1	-27.7	29.7	0.00e+00	0	27	0	2319450112	26	6193
2026-01-14 02:24:28.27	292.06	86.45	-26.7	-27.3	29.7	0.00e+00	0	27	0	2342518784	26	5927
2026-01-14 02:24:32.32	308.65	84.78	-26.1	-26.7	30.2	0.00e+00	0	27	0	2364538880	26	5536
2026-01-14 02:24:36.36	316.83	82.91	-26.4	-27.0	30.2	0.00e+00	0	27	0	2387607552	26	5731
2026-01-14 02:24:40.40	321.53	80.96	-26.3	-26.9	30.2	0.00e+00	0	27	0	2410676224	26	5686
2026-01-14 02:24:44.44	324.54	79.00	-27.0	-27.6	29.7	0.00e+00	0	27	0	2432696320	26	6155
2026-01-14 02:24:48.49	326.64	77.03	-27.3	-27.9	29.7	0.00e+00	0	27	0	2455764992	26	6348
2026-01-14 02:24:52.53	328.17	75.09	-27.7	-28.2	29.4	0.00e+00	0	27	0	2478833664	26	6577
2026-01-14 02:24:56.57	329.34	73.16	-27.7	-28.4	29.3	0.00e+00	0	27	0	2501902336	28	5980
2026-01-14 02:25:00.61	330.27	71.26	-27.5	-28.1	29.5	0.00e+00	0	27	0	2523922432	28	5776
2026-01-14 02:25:04.64	331.01	69.39	-27.9	-28.6	29.2	0.00e+00	0	27	0	2546991104	28	6133
2026-01-14 02:25:08.68	331.63	67.56	-28.4	-29.1	28.8	0.00e+00	0	27	0	2569011200	28	6474
2026-01-14 02:25:12.72	332.16	65.76	-28.6	-29.3	28.6	0.00e+00	0	27	0	2592079872	28	6655
2026-01-14 02:25:16.76	332.60	64.00	-28.2	-28.9	28.9	0.00e+00	0	27	0	2615148544	28	6343
2026-01-14 02:25:20.80	332.99	62.28	-28.6	-29.2	28.6	0.00e+00	0	27	0	2637168640	28	6568
2026-01-14 02:25:24.85	333.33	60.60	-28.8	-29.5	28.5	0.00e+00	0	27	0	2660237312	30	6080
2026-01-14 02:25:28.89	333.63	58.97	-29.4	-30.1	28.1	0.00e+00	0	27	0	2683305984	30	6509
2026-01-14 02:25:32.93	333.89	57.37	-29.8	-30.4	27.6	0.00e+00	0	27	0	2706374656	32	6014
2026-01-14 02:25:36.97	334.13	55.82	-30.1	-30.7	27.3	0.00e+00	0	27	0	2728394752	32	6217
2026-01-14 02:25:41.01	334.35	54.32	-30.2	-30.8	27.5	0.00e+00	0	27	0	2751463424	32	6288
2026-01-14 02:25:45.05	334.54	52.85	-30.0	-30.6	27.6	0.00e+00	0	27	0	2773483520	32	6109
2026-01-14 02:25:49.09	334.72	51.43	-29.6	-30.1	28.0	0.00e+00	0	27	0	2796552192	32	5809
2026-01-14 02:25:53.13	334.88	50.05	-29.4	-29.9	28.2	0.00e+00	0	27	0	2819620864	32	5694
2026-01-14 02:25:57.17	335.04	48.71	-29.1	-29.7	28.4	0.00e+00	0	27	0	2842689536	32	5510
2026-01-14 02:26:01.21	335.18	47.40	-28.9	-29.5	28.5	0.00e+00	0	27	0	2864709632	32	5425
2026-01-14 02:26:05.26	335.31	46.14	-29.0	-29.5	28.5	0.00e+00	0	27	0	2887778304	30	6066
2026-01-14 02:26:09.30	335.43	44.91	-29.2	-29.9	28.3	0.00e+00	0	27	0	2910846976	30	6383
2026-01-14 02:26:13.34	335.54	43.73	-28.9	-29.4	28.6	0.00e+00	0	27	0	2932867072	30	5995
2026-01-14 02:26:17.38	335.65	42.57	-28.9	-29.6	28.5	0.00e+00	0	27	0	2955935744	30	6134
2026-01-14 02:26:21.42	335.75	41.46	-28.9	-29.6	28.5	0.00e+00	0	27	0	2979004416	30	6138
2026-01-14 02:26:25.46	335.85	40.37	-28.8	-29.3	28.6	0.00e+00	0	27	0	3001024512	30	5961
2026-01-14 02:26:29.50	335.94	39.32	-29.0	-29.6	28.4	0.00e+00	0	27	0	3024093184	30	6112
2026-01-14 02:26:33.54	336.02	38.30	-28.5	-29.0	28.7	0.00e+00	0	27	0	3047161856	30	5758
2026-01-14 02:26:37.58	336.10	37.31	-28.3	-28.8	28.9	0.00e+00	0	27	0	3069181952	30	5581
2026-01-14 02:26:41.63	336.18	36.34	-28.4	-28.9	28.8	0.00e+00	0	27	0	3092250624	30	5682
2026-01-14 02:26:45.67	336.26	35.41	-28.3	-28.9	28.8	0.00e+00	0	27	0	3115319296	30	5639
2026-01-14 02:26:49.71	336.33	34.50	-28.6	-29.1	28.7	0.00e+00	0	27	0	3138387968	30	5790
2026-01-14 02:26:53.75	336.40	33.62	-28.7	-29.3	28.7	0.00e+00	0	27	0	3160408064	30	5962
2026-01-14 02:26:57.79	336.46	32.76	-28.7	-29.3	28.6	0.00e+00	0	27	0	3183476736	30	5922
2026-01-14 02:27:01.83	336.52	31.93	-28.9	-29.5	28.5	0.00e+00	0	27	0	3205496832	30	6053
2026-01-14 02:27:05.87	336.58	31.12	-29.2	-29.7	28.3	0.00e+00	0	27	0	3228565504	30	6219
2026-01-14 02:27:09.91	336.64	30.33	-29.2	-29.7	28.3	0.00e+00	0	27	0	3251634176	30	6227
2026-01-14 02:27:13.95	336.70	29.56	-29.5	-30.0	28.1	0.00e+00	0	27	0	3273654272	30	6455
2026-01-14 02:27:17.99	336.75	28.81	-29.3	-29.9	28.1	0.00e+00	0	27	0	3296722944	30	6354
2026-01-14 02:27:22.03	336.81	28.08	-29.0	-29.7	28.3	0.00e+00	0	27	0	3319791616	30	6210
2026-01-14 02:27:26.07	336.86	27.38	-28.9	-29.4	28.4	0.00e+00	0	27	0	3342860288	30	6005
2026-01-14 02:27:30.11	336.91	26.68	-29.1	-29.6	28.3	0.00e+00	0	27	0	3364880384	30	6127
2026-01-14 02:27:34.15	336.96	26.01	-29.3	-29.8	28.2	0.00e+00	0	27	0	3387949056	30	6301
2026-01-14 02:27:38.19	337.00	25.35	-29.5	-30.1	28.0	0.00e+00	0	27	0	3409969152	30	6499
2026-01-14 02:27:42.23	337.05	24.71	-29.6	-30.2	27.9	0.00e+00	0	27	0	3433037824	32	5839
2026-01-14 02:27:46.27	337.10	24.09	-29.7	-30.2	27.8	0.00e+00	0	27	0	3456106496	32	5888
2026-01-14 02:27:50.32	337.14	23.47	-29.5	-30.1	28.0	0.00e+00	0	27	0	3479175168	32	5763
2026-01-14 02:27:54.36	337.18	22.88	-29.6	-30.1	27.9	0.00e+00	0	27	0	3501195264	32	5803
2026-01-14 02:27:58.40	337.22	22.29	-29.7	-30.2	27.8	0.00e+00	0	27	0	3524263936	32	5874
2026-01-14 02:28:02.44	337.26	21.72	-29.8	-30.3	27.8	0.00e+00	0	27	0	3547332608	32	5936
2026-01-14 02:28:06.48	337.30	21.16	-30.1	-30.6	27.5	0.00e+00	0	27	0	3569352704	32	6139
2026-01-14 02:28:10.52	337.34	20.62	-30.1	-30.6	27.5	0.00e+00	0	27	0	3592421376	32	6161
2026-01-14 02:28:14.56	337.38	20.09	-30.2	-30.8	27.4	0.00e+00	0	27	0	3615490048	32	6272
2026-01-14 02:28:18.59	337.42	19.56	-30.3	-30.9	27.2	0.00e+00	0	27	0	3637510144	32	6327
2026-01-14 02:28:22.63	337.46	19.05	-30.5	-31.1	27.1	0.00e+00	0	27	0	3660578816	32	6484
2026-01-14 02:28:26.68	337.49	18.55	-30.7	-31.2	27.0	0.00e+00	0	27	0	3683647488	32	6607
2026-01-14 02:28:30.72	337.53	18.06	-31.0	-31.5	26.7	0.00e+00	0	27	0	3705667584	34	6083
2026-01-14 02:28:34.76	337.56	17.58	-31.1	-31.6	26.6	0.00e+00	0	27	0	3728736256	34	6159
2026-01-14 02:28:38.80	337.60	17.10	-31.3	-31.8	26.4	0.00e+00	0	27	0	3751804928	34	6313
2026-01-14 02:28:42.84	337.63	16.64	-31.4	-31.9	26.3	0.00e+00	0	27	0	3773825024	34	6390
2026-01-14 02:28:46.89	337.67	16.18	-31.7	-32.3	26.1	0.00e+00	0	27	0	3796893696	34	6660
2026-01-14 02:28:50.93	337.70	15.74	-31.7	-32.5	26.0	0.00e+00	0	27	0	3819962368	36	6060
2026-01-14 02:28:54.97	337.73	15.30	-31.9	-32.7	25.9	0.00e+00	0	27	0	3841982464	36	6176
2026-01-14 02:28:59.01	337.76	14.87	-32.0	-32.6	25.8	0.00e+00	0	27	0	3865051136	36	6108
2026-01-14 02:29:03.04	337.80	14.44	-32.1	-32.6	25.7	0.00e+00	0	27	0	3888119808	36	6169
2026-01-14 02:29:07.09	337.83	14.03	-32.2	-33.0	25.6	0.00e+00	0	27	0	3910139904	36	6405
2026-01-14 02:29:11.12	337.86	13.62	-32.2	-32.8	25.6	0.00e+00	0	27	0	3933208576	36	6275
2026-01-14 02:29:15.16	337.89	13.22	-32.3	-32.9	25.5	0.00e+00	0	27	0	3956277248	36	6321
2026-01-14 02:29:19.21	337.92	12.82	-32.4	-33.0	25.4	0.00e+00	0	27	0	3979345920	36	6392
2026-01-14 02:29:23.25	337.95	12.43	-32.5	-33.2	25.3	0.00e+00	0	27	0	4001366016	36	6604
2026-01-14 02:29:27.30	337.98	12.05	-32.6	-33.3	25.2	0.00e+00	0	27	0	4024434688	36	6671
2026-01-14 02:29:31.34	338.01	11.67	-32.7	-33.4	25.1	0.00e+00	0	27	0	4046454784	38	6029
2026-01-14 02:29:35.38	338.04	11.30	-32.8	-33.6	24.9	0.00e+00	0	27	0	4069523456	38	6113
2026-01-14 02:29:39.42	338.07	10.93	-32.8	-33.5	24.8	0.00e+00	0	27	0	4092592128	38	6034
2026-01-14 02:29:43.47	338.09	10.57	-33.0	-33.7	24.7	0.00e+00	0	27	0	4115660800	38	6245
2026-01-14 02:29:47.51	338.12	10.22	-33.1	-33.9	24.6	0.00e+00	0	27	0	4137680896	38	6344
2026-01-14 02:29:51.55	338.15	9.87	-33.3	-33.9	24.4	0.00e+00	0	27	0	4160749568	38	6377
2026-01-14 02:29:55.59	338.18	9.52	-33.4	-34.0	24.2	0.00e+00	0	27	0	4183818240	38	6459
2026-01-14 02:29:59.64	338.21	9.18	-33.5	-34.2	24.2	0.00e+00	0	27	0	4205838336	38	6610
2026-01-14 02:30:03.68	338.23	8.84	-33.7	-34.5	23.8	0.00e+00	0	27	0	4228907008	40	6092
2026-01-14 02:30:07.71	338.26	8.51	-33.7	-34.5	23.9	0.00e+00	0	27	0	4251975680	40	6062
2026-01-14 02:30:11.76	338.29	8.18	-33.7	-34.5	23.9	0.00e+00	0	27	0	4273995776	40	6081
2026-01-14 02:30:15.80	338.31	7.86	-33.8	-34.5	23.7	0.00e+00	0	27	0	4297064448	40	6076
2026-01-14 02:30:19.84	338.34	7.54	-34.2	-35.1	23.2	0.00e+00	0	27	0	4320133120	40	6481
2026-01-14 02:30:23.88	338.37	7.23	-34.2	-34.9	23.4	0.00e+00	0	27	0	4342153216	40	6325
2026-01-14 02:30:27.92	338.39	6.92	-34.2	-34.9	23.2	0.00e+00	0	27	0	4365221888	40	6383
2026-01-14 02:30:31.96	338.42	6.61	-34.4	-35.1	23.0	0.00e+00	0	27	0	4388290560	42	5802
2026-01-14 02:30:36.00	338.44	6.31	-34.3	-35.1	23.0	0.00e+00	0	27	0	4410310656	42	5824
2026-01-14 02:30:40.05	338.47	6.00	-34.3	-35.1	22.9	0.00e+00	0	27	0	4433379328	42	5775
2026-01-14 02:30:44.09	338.49	5.71	-34.4	-35.2	22.6	0.00e+00	0	27	0	4456448000	42	5829
2026-01-14 02:30:48.13	338.52	5.41	-35.3	-36.2	21.2	0.00e+00	0	27	0	4478468096	42	6602
2026-01-14 02:30:52.17	338.54	5.12	-36.6	-37.6	19.3	0.00e+00	0	27	0	4501536768	44	6884
2026-01-14 02:30:56.21	338.57	4.84	-38.3	-39.8	16.3	0.00e+00	0	27	0	4524605440	48	7011
2026-01-14 02:31:00.25	338.59	4.55	-40.3	-42.6	12.8	5.14e-05	0	27	0	4546625536	52	7684
2026-01-14 02:31:04.29	338.62	4.27	-42.0	-45.7	8.6	3.11e-02	0	27	0	4569694208	56	8775
2026-01-14 02:31:08.33	338.64	3.99	-43.0	-49.2	4.7	8.13e-01	0	27	0	4588568576	58	11732
2026-01-14 02:31:12.37	338.67	3.72	-43.2	-53.5	3.7	8.44e-01	0	27	104	4588568576	58	19168
2026-01-14 02:31:16.41	338.69	3.45	-43.3	-54.8	3.6	8.44e-01	0	27	104	4588568576	58	22248
2026-01-14 02:31:20.45	338.72	3.18	-43.4	-55.3	3.6	8.46e-01	0	27	104	4588568576	58	23559
2026-01-14 02:31:24.49	338.74	2.91	-47.3	-59.4	3.6	8.45e-01	0	27	104	4588568576	60	33709
2026-01-14 02:31:28.52	338.77	2.64	-48.4	-60.4	3.5	8.45e-01	0	27	104	4588568576	60	37969
2026-01-14 02:31:32.56	338.79	2.38	-48.4	-60.6	3.6	8.46e-01	0	27	104	4588568576	60	38877
2026-01-14 02:31:36.60	338.81	2.12	-48.3	-60.5	3.6	8.45e-01	0	27	104	4588568576	60	38182
2026-01-14 02:31:40.65	338.84	1.86	-48.5	-60.5	3.6	8.46e-01	0	27	104	4588568576	60	38483
2026-01-14 02:31:44.69	338.86	1.61	-48.4	-60.5	3.6	8.45e-01	0	27	104	4588568576	60	38451
2026-01-14 02:31:48.72	338.88	1.36	-48.4	-60.5	3.6	8.46e-01	0	27	104	4588568576	60	38270
2026-01-14 02:31:52.76	338.91	1.11	-48.4	-60.5	3.6	8.46e-01	0	27	104	4588568576	60	38326
2026-01-14 02:31:56.80	338.93	0.86	-48.4	-60.5	3.6	8.45e-01	0	27	104	4588568576	60	38143
2026-01-14 02:32:00.84	338.95	0.61	-48.4	-60.5	3.6	8.45e-01	0	27	104	4588568576	60	38147
2026-01-14 02:32:04.88	338.98	0.37	-48.4	-60.5	3.6	8.44e-01	0	27	104	4588568576	60	38078
2026-01-14 02:32:08.91	339.00	0.12	-48.4	-60.4	3.6	8.46e-01	0	27	104	4588568576	60	38012

#Closed at: 2026-01-14 02:32:12
#Recorded file [4588 MB]: D:/lorett/data/35029_260114_141643.dat