passes_logs/2026/01/14/R4.6S_Anadyr/R4.6S_Anadyr__20260114_211057_NOAA_21_JPSS-2_rec.log

#Pass ID: 20260114_211057_NOAA 21 (JPSS-2)
#Satellite: NOAA 21 (JPSS-2)
#Configuration: NOAA-21
#almurnet v.1.7.20251203
#Start time: 2026-01-14 21:10:58

#Version: 2.2.20231116
#Station: R4.6S_Anadyr
#Location: 177.4865 lon 64.73178 lat
#TLE: 1 54234U 22150A   26014.58979933  .00000039  00000+0  39403-4 0  9998
#TLE: 2 54234  98.7497 315.4945 0000653 294.6373  65.4735 14.19534652164756

#Time	Az	El	Level	Level2	SNR	BER	BlckErr	Temp	State	Recorded	gain1	gain2
2026-01-14 21:10:58.95	84.99	0.10	-48.8	-63.7	3.6	1.51e+00	0	26	0	0	60	55514
2026-01-14 21:11:02.99	84.73	0.31	-48.8	-61.6	3.5	1.51e+00	0	28	104	0	60	42322
2026-01-14 21:11:07.02	84.46	0.52	-48.7	-61.7	3.5	1.51e+00	0	28	104	0	60	42705
2026-01-14 21:11:11.06	84.19	0.73	-48.7	-61.6	3.5	1.51e+00	0	28	104	0	60	42298
2026-01-14 21:11:15.10	83.92	0.94	-47.6	-60.5	3.5	1.52e+00	0	28	104	0	60	37285
2026-01-14 21:11:19.14	83.64	1.16	-46.8	-59.9	3.5	1.52e+00	0	28	104	0	60	34820
2026-01-14 21:11:23.18	83.36	1.37	-46.8	-59.9	3.5	1.52e+00	0	28	104	0	60	34861
2026-01-14 21:11:27.22	83.07	1.59	-46.8	-59.9	3.5	1.52e+00	0	28	104	0	60	34588
2026-01-14 21:11:31.26	82.78	1.81	-46.8	-60.0	3.5	1.51e+00	0	28	104	0	60	34936
2026-01-14 21:11:35.29	82.48	2.02	-46.8	-59.7	3.5	1.52e+00	0	28	104	0	60	33996
2026-01-14 21:11:39.33	82.18	2.24	-46.8	-59.5	3.5	1.52e+00	0	28	104	0	60	33080
2026-01-14 21:11:43.37	81.88	2.46	-46.8	-59.9	3.5	1.52e+00	0	28	104	0	60	34610
2026-01-14 21:11:47.41	81.57	2.68	-46.8	-59.4	3.5	1.51e+00	0	29	104	0	60	32910
2026-01-14 21:11:51.44	81.26	2.90	-46.8	-59.4	3.5	1.51e+00	0	28	104	0	60	32891
2026-01-14 21:11:55.48	80.94	3.13	-43.3	-46.1	13.1	1.45e-04	123	28	0	5242880	60	7091
2026-01-14 21:11:59.52	80.61	3.35	-42.4	-45.2	14.9	7.97e-01	123	29	104	15728640	60	6367
2026-01-14 21:12:03.55	80.29	3.57	-38.1	-39.7	18.6	0.00e+00	122	29	104	20971520	50	6049
2026-01-14 21:12:07.59	79.95	3.80	-38.0	-39.2	19.9	0.00e+00	122	29	0	32505856	48	6373
2026-01-14 21:12:11.63	79.61	4.03	-37.8	-39.0	20.1	0.00e+00	122	29	0	45088768	48	6239
2026-01-14 21:12:15.67	79.27	4.25	-37.6	-38.8	20.3	0.00e+00	123	29	0	57671680	48	6084
2026-01-14 21:12:19.70	78.92	4.48	-37.6	-38.8	20.4	0.00e+00	122	29	0	70254592	48	6069
2026-01-14 21:12:23.74	78.56	4.71	-37.4	-38.5	20.5	0.00e+00	123	29	0	82837504	48	5924
2026-01-14 21:12:27.79	78.19	4.94	-37.5	-38.7	20.5	0.00e+00	123	29	0	95420416	48	6034
2026-01-14 21:12:31.83	77.83	5.17	-37.5	-38.6	20.7	0.00e+00	122	29	0	108003328	48	5971
2026-01-14 21:12:35.86	77.45	5.40	-37.3	-38.4	20.9	0.00e+00	123	29	0	120586240	48	5848
2026-01-14 21:12:39.90	77.07	5.63	-37.0	-38.1	21.2	0.00e+00	123	29	0	133169152	48	5607
2026-01-14 21:12:43.94	76.68	5.87	-37.1	-38.2	21.1	0.00e+00	120	29	0	146800640	48	5699
2026-01-14 21:12:47.97	76.29	6.10	-37.2	-38.3	21.0	0.00e+00	120	29	0	159383552	48	5753
2026-01-14 21:12:52.01	75.89	6.34	-37.4	-38.5	20.8	0.00e+00	123	29	0	171966464	48	5880
2026-01-14 21:12:56.05	75.49	6.57	-37.2	-38.3	21.1	0.00e+00	123	29	0	184549376	48	5789
2026-01-14 21:13:00.09	75.07	6.81	-37.0	-38.1	21.3	0.00e+00	120	29	0	197132288	48	5632
2026-01-14 21:13:04.13	74.65	7.05	-37.1	-38.2	21.3	0.00e+00	120	29	0	209715200	48	5683
2026-01-14 21:13:08.17	74.22	7.28	-36.8	-37.9	21.5	0.00e+00	122	29	0	222298112	46	6155
2026-01-14 21:13:12.20	73.79	7.52	-36.7	-37.8	21.5	0.00e+00	123	29	0	234881024	46	6082
2026-01-14 21:13:16.24	73.35	7.76	-37.0	-38.1	21.3	0.00e+00	123	29	0	247463936	46	6334
2026-01-14 21:13:20.28	72.90	8.00	-36.9	-38.0	21.6	0.00e+00	122	29	0	260046848	46	6245
2026-01-14 21:13:24.31	72.44	8.24	-36.4	-37.4	22.0	0.00e+00	122	29	0	272629760	46	5819
2026-01-14 21:13:28.35	71.98	8.48	-36.3	-37.3	22.0	0.00e+00	122	29	0	285212672	46	5752
2026-01-14 21:13:32.39	71.50	8.72	-36.5	-37.5	21.9	0.00e+00	123	29	0	297795584	46	5918
2026-01-14 21:13:36.43	71.02	8.97	-35.9	-36.9	22.5	0.00e+00	122	29	0	310378496	46	5526
2026-01-14 21:13:40.47	70.53	9.21	-35.9	-36.9	22.5	0.00e+00	122	29	0	322961408	44	6162
2026-01-14 21:13:44.51	70.04	9.45	-35.5	-36.5	22.8	0.00e+00	123	29	0	335544320	44	5869
2026-01-14 21:13:48.55	69.53	9.69	-35.4	-36.4	22.9	0.00e+00	123	29	0	348127232	44	5824
2026-01-14 21:13:52.59	69.01	9.94	-35.3	-36.2	23.0	0.00e+00	123	29	0	360710144	44	5714
2026-01-14 21:13:56.62	68.49	10.18	-35.2	-36.2	23.0	0.00e+00	123	29	0	373293056	44	5683
2026-01-14 21:14:00.66	67.96	10.42	-35.0	-35.9	23.3	0.00e+00	122	29	0	385875968	44	5524
2026-01-14 21:14:04.70	67.42	10.66	-35.1	-36.1	23.1	0.00e+00	123	29	0	398458880	44	5615
2026-01-14 21:14:08.73	66.87	10.91	-35.0	-35.9	23.4	0.00e+00	123	29	0	411041792	44	5521
2026-01-14 21:14:12.78	66.31	11.15	-35.0	-35.9	23.4	0.00e+00	123	29	0	423624704	44	5506
2026-01-14 21:14:16.82	65.74	11.39	-34.8	-35.7	23.6	0.00e+00	122	29	0	436207616	44	5388
2026-01-14 21:14:20.85	65.16	11.63	-34.9	-35.9	23.5	0.00e+00	123	29	0	448790528	42	6151
2026-01-14 21:14:24.89	64.57	11.87	-35.0	-36.0	23.4	0.00e+00	120	29	0	461373440	42	6217
2026-01-14 21:14:28.94	63.97	12.11	-35.2	-36.1	23.3	0.00e+00	120	29	0	473956352	42	6336
2026-01-14 21:14:32.97	63.36	12.35	-34.9	-35.9	23.5	0.00e+00	123	29	0	487587840	42	6159
2026-01-14 21:14:37.01	62.74	12.59	-35.0	-36.0	23.4	0.00e+00	120	29	0	499122176	42	6228
2026-01-14 21:14:41.05	62.11	12.83	-34.9	-35.9	23.5	0.00e+00	123	29	0	512753664	42	6141
2026-01-14 21:14:45.09	61.47	13.07	-35.2	-36.1	23.3	0.00e+00	123	29	0	525336576	42	6329
2026-01-14 21:14:49.12	60.82	13.30	-35.1	-36.0	23.3	0.00e+00	123	29	0	537919488	42	6251
2026-01-14 21:14:53.16	60.16	13.54	-35.0	-35.9	23.4	0.00e+00	122	29	0	550502400	42	6187
2026-01-14 21:14:57.20	59.49	13.77	-35.2	-36.1	23.3	0.00e+00	123	29	0	563085312	42	6332
2026-01-14 21:15:01.24	58.81	14.00	-35.2	-36.2	23.3	0.00e+00	122	29	0	575668224	42	6381
2026-01-14 21:15:05.28	58.12	14.23	-35.0	-36.0	23.6	0.00e+00	122	29	0	588251136	42	6230
2026-01-14 21:15:09.32	57.41	14.45	-35.2	-36.1	23.4	0.00e+00	123	29	0	600834048	42	6320
2026-01-14 21:15:13.36	56.70	14.68	-35.1	-36.0	23.5	0.00e+00	122	29	0	613416960	42	6244
2026-01-14 21:15:17.40	55.97	14.90	-35.0	-36.0	23.5	0.00e+00	123	29	0	625999872	42	6215
2026-01-14 21:15:21.44	55.24	15.12	-35.3	-36.2	23.4	0.00e+00	120	29	0	638582784	42	6390
2026-01-14 21:15:25.47	54.49	15.33	-35.1	-36.1	23.4	0.00e+00	123	29	0	651165696	42	6297
2026-01-14 21:15:29.51	53.73	15.54	-35.2	-36.1	23.4	0.00e+00	120	29	0	663748608	42	6339
2026-01-14 21:15:33.55	52.96	15.75	-34.8	-35.8	23.7	0.00e+00	122	29	0	676331520	42	6080
2026-01-14 21:15:37.59	52.18	15.96	-34.9	-35.8	23.7	0.00e+00	123	29	0	688914432	42	6095
2026-01-14 21:15:41.64	51.39	16.16	-34.6	-35.6	23.8	0.00e+00	123	29	0	701497344	42	5928
2026-01-14 21:15:45.68	50.59	16.36	-34.9	-35.9	23.5	0.00e+00	122	29	0	714080256	42	6144
2026-01-14 21:15:49.72	49.78	16.55	-35.1	-36.0	23.4	0.00e+00	123	29	0	726663168	42	6269
2026-01-14 21:15:53.76	48.96	16.74	-35.0	-35.9	23.7	0.00e+00	123	29	0	739246080	42	6176
2026-01-14 21:15:57.80	48.12	16.93	-34.6	-35.6	24.0	0.00e+00	121	29	0	751828992	42	5942
2026-01-14 21:16:01.84	47.28	17.11	-34.3	-35.2	24.1	0.00e+00	122	29	0	764411904	42	5698
2026-01-14 21:16:05.87	46.43	17.28	-34.2	-35.2	24.1	0.00e+00	122	29	0	776994816	42	5669
2026-01-14 21:16:09.91	45.57	17.45	-34.0	-34.9	24.3	0.00e+00	120	29	0	789577728	42	5495
2026-01-14 21:16:13.95	44.69	17.61	-34.2	-35.2	24.1	0.00e+00	123	29	0	802160640	42	5660
2026-01-14 21:16:17.98	43.81	17.77	-34.3	-35.2	24.2	0.00e+00	122	29	0	814743552	42	5712
2026-01-14 21:16:22.02	42.92	17.92	-34.2	-35.1	24.2	0.00e+00	123	29	0	828375040	42	5619
2026-01-14 21:16:26.06	42.02	18.07	-33.9	-34.8	24.5	0.00e+00	123	29	0	839909376	42	5419
2026-01-14 21:16:30.10	41.11	18.21	-34.1	-35.0	24.4	0.00e+00	122	29	0	853540864	42	5594
2026-01-14 21:16:34.13	40.20	18.34	-34.0	-34.9	24.3	0.00e+00	120	29	0	866123776	42	5487
2026-01-14 21:16:38.17	39.28	18.46	-34.0	-34.9	24.2	0.00e+00	123	29	0	878706688	42	5519
2026-01-14 21:16:42.21	38.34	18.58	-34.1	-35.0	24.1	0.00e+00	123	29	0	891289600	42	5563
2026-01-14 21:16:46.25	37.41	18.69	-34.4	-35.3	24.1	0.00e+00	123	29	0	903872512	42	5749
2026-01-14 21:16:50.30	36.46	18.79	-34.2	-35.1	24.2	0.00e+00	122	29	0	916455424	42	5625
2026-01-14 21:16:54.33	35.51	18.89	-34.2	-35.1	24.2	0.00e+00	122	29	0	929038336	42	5646
2026-01-14 21:16:58.37	34.55	18.97	-34.2	-35.1	24.3	0.00e+00	122	29	0	941621248	42	5642
2026-01-14 21:17:02.41	33.59	19.05	-34.6	-35.6	23.8	0.00e+00	123	29	0	954204160	42	5946
2026-01-14 21:17:06.44	32.63	19.12	-34.6	-35.5	24.0	0.00e+00	123	29	0	966787072	42	5900
2026-01-14 21:17:10.48	31.65	19.19	-34.3	-35.2	24.2	0.00e+00	122	29	0	979369984	42	5692
2026-01-14 21:17:14.52	30.68	19.24	-34.3	-35.2	24.2	0.00e+00	122	29	0	991952896	42	5708
2026-01-14 21:17:18.55	29.70	19.28	-34.3	-35.2	24.3	0.00e+00	123	29	0	1004535808	42	5678
2026-01-14 21:17:22.59	28.72	19.32	-34.3	-35.2	24.2	0.00e+00	123	29	0	1017118720	42	5684
2026-01-14 21:17:26.63	27.74	19.35	-34.3	-35.2	24.1	0.00e+00	122	29	0	1029701632	42	5715
2026-01-14 21:17:30.67	26.76	19.37	-34.1	-35.0	24.3	0.00e+00	123	29	0	1042284544	42	5542
2026-01-14 21:17:34.71	25.77	19.38	-33.9	-34.8	24.5	0.00e+00	123	29	0	1054867456	42	5439
2026-01-14 21:17:38.74	24.79	19.38	-34.1	-34.9	24.3	0.00e+00	121	29	0	1067450368	42	5530
2026-01-14 21:17:42.78	23.80	19.37	-34.4	-35.3	24.0	0.00e+00	120	29	0	1080033280	42	5780
2026-01-14 21:17:46.82	22.82	19.35	-34.2	-35.1	24.1	0.00e+00	120	29	0	1092616192	42	5608
2026-01-14 21:17:50.85	21.84	19.33	-34.2	-35.2	24.1	0.00e+00	123	29	0	1105199104	42	5660
2026-01-14 21:17:54.89	20.86	19.29	-34.0	-34.9	24.3	0.00e+00	122	29	0	1117782016	42	5529
2026-01-14 21:17:58.93	19.88	19.25	-34.1	-35.0	24.2	0.00e+00	123	29	0	1130364928	42	5531
2026-01-14 21:18:02.98	18.90	19.20	-34.1	-35.0	24.3	0.00e+00	122	29	0	1142947840	42	5590
2026-01-14 21:18:07.02	17.93	19.14	-34.3	-35.3	24.1	0.00e+00	123	29	0	1155530752	42	5727
2026-01-14 21:18:11.05	16.96	19.07	-34.2	-35.2	24.0	0.00e+00	120	29	0	1168113664	42	5665
2026-01-14 21:18:15.10	16.00	19.00	-34.0	-34.9	24.4	0.00e+00	122	29	0	1180696576	42	5515
2026-01-14 21:18:19.13	15.04	18.91	-34.3	-35.2	24.2	0.00e+00	122	29	0	1194328064	42	5688
2026-01-14 21:18:23.17	14.09	18.82	-33.8	-34.6	24.7	0.00e+00	122	29	0	1206910976	42	5335
2026-01-14 21:18:27.21	13.14	18.72	-33.9	-34.8	24.5	0.00e+00	123	29	0	1219493888	40	6084
2026-01-14 21:18:31.25	12.20	18.61	-33.9	-34.8	24.5	0.00e+00	123	29	0	1232076800	40	6131
2026-01-14 21:18:35.29	11.27	18.49	-34.1	-35.0	24.4	0.00e+00	122	29	0	1244659712	40	6242
2026-01-14 21:18:39.33	10.35	18.37	-34.5	-35.4	24.1	0.00e+00	122	29	0	1257242624	40	6547
2026-01-14 21:18:43.37	9.43	18.24	-34.3	-35.2	24.2	0.00e+00	123	29	0	1269825536	40	6389
2026-01-14 21:18:47.41	8.52	18.10	-34.5	-35.4	24.1	0.00e+00	123	29	0	1282408448	40	6520
2026-01-14 21:18:51.45	7.62	17.96	-34.1	-35.0	24.3	0.00e+00	123	29	0	1294991360	40	6273
2026-01-14 21:18:55.49	6.73	17.81	-34.1	-35.0	24.4	0.00e+00	127	29	0	1307574272	40	6266
2026-01-14 21:18:59.53	5.85	17.66	-34.2	-35.1	24.3	0.00e+00	123	29	0	1320157184	40	6314
2026-01-14 21:19:03.57	4.97	17.49	-34.3	-35.2	24.2	0.00e+00	120	29	0	1332740096	40	6398
2026-01-14 21:19:07.61	4.11	17.33	-34.1	-35.0	24.3	0.00e+00	123	29	0	1345323008	40	6255
2026-01-14 21:19:11.65	3.25	17.15	-34.0	-34.9	24.3	0.00e+00	123	29	0	1357905920	40	6176
2026-01-14 21:19:15.69	2.41	16.98	-34.2	-35.1	24.3	0.00e+00	123	29	0	1370488832	40	6317
2026-01-14 21:19:19.73	1.58	16.79	-34.4	-35.3	24.1	0.00e+00	123	29	0	1383071744	40	6440
2026-01-14 21:19:23.77	0.75	16.60	-34.4	-35.3	23.9	0.00e+00	120	29	0	1395654656	40	6474
2026-01-14 21:19:27.81	359.94	16.41	-34.2	-35.1	24.1	0.00e+00	120	29	0	1408237568	40	6317
2026-01-14 21:19:31.85	359.14	16.22	-34.5	-35.4	24.0	0.00e+00	122	30	0	1420820480	40	6536
2026-01-14 21:19:35.88	358.35	16.02	-34.5	-35.4	24.0	0.00e+00	123	29	0	1433403392	40	6550
2026-01-14 21:19:39.93	357.56	15.81	-34.6	-35.6	23.8	0.00e+00	123	29	0	1445986304	40	6665
2026-01-14 21:19:43.96	356.80	15.60	-34.6	-35.5	23.8	0.00e+00	123	29	0	1458569216	42	5900
2026-01-14 21:19:48.00	356.04	15.39	-34.7	-35.6	23.8	0.00e+00	122	29	0	1471152128	42	5964
2026-01-14 21:19:52.04	355.29	15.18	-34.9	-35.9	23.6	0.00e+00	120	29	0	1483735040	42	6143
2026-01-14 21:19:56.08	354.55	14.96	-34.9	-35.9	23.5	0.00e+00	122	29	0	1496317952	42	6159
2026-01-14 21:20:00.11	353.83	14.74	-35.0	-35.9	23.5	0.00e+00	123	29	0	1508900864	42	6198
2026-01-14 21:20:04.15	353.11	14.52	-35.1	-36.1	23.5	0.00e+00	124	29	0	1521483776	42	6308
2026-01-14 21:20:08.18	352.41	14.29	-35.1	-36.0	23.6	0.00e+00	120	29	0	1535115264	42	6262
2026-01-14 21:20:12.22	351.72	14.06	-35.0	-35.9	23.6	0.00e+00	123	29	0	1547698176	42	6188
2026-01-14 21:20:16.26	351.03	13.84	-34.8	-35.7	23.7	0.00e+00	120	30	0	1560281088	42	6036
2026-01-14 21:20:20.30	350.36	13.60	-34.9	-35.8	23.5	0.00e+00	122	29	0	1572864000	42	6128
2026-01-14 21:20:24.33	349.70	13.37	-34.8	-35.8	23.6	0.00e+00	122	29	0	1585446912	42	6086
2026-01-14 21:20:28.37	349.05	13.14	-34.9	-35.8	23.5	0.00e+00	123	29	0	1598029824	42	6130
2026-01-14 21:20:32.41	348.41	12.90	-35.1	-36.1	23.3	0.00e+00	122	29	0	1610612736	42	6283
2026-01-14 21:20:36.44	347.78	12.66	-34.9	-35.9	23.5	0.00e+00	123	29	0	1623195648	42	6156
2026-01-14 21:20:40.48	347.16	12.43	-35.0	-35.9	23.5	0.00e+00	123	29	0	1635778560	42	6169
2026-01-14 21:20:44.51	346.55	12.19	-35.4	-36.3	23.1	0.00e+00	123	29	0	1648361472	42	6487
2026-01-14 21:20:48.55	345.95	11.95	-35.5	-36.4	23.0	0.00e+00	122	29	0	1660944384	42	6567
2026-01-14 21:20:52.59	345.36	11.71	-35.5	-36.4	23.0	0.00e+00	122	29	0	1673527296	42	6563
2026-01-14 21:20:56.63	344.78	11.47	-35.7	-36.7	22.8	0.00e+00	122	29	0	1686110208	42	6748
2026-01-14 21:21:00.67	344.21	11.23	-35.6	-36.6	22.8	0.00e+00	123	29	0	1698693120	42	6664
2026-01-14 21:21:04.70	343.65	10.98	-35.6	-36.5	22.9	0.00e+00	123	29	0	1711276032	42	6631
2026-01-14 21:21:08.74	343.10	10.74	-35.9	-36.9	22.6	0.00e+00	123	29	0	1723858944	44	6184
2026-01-14 21:21:12.78	342.56	10.50	-36.2	-37.2	22.3	0.00e+00	122	29	0	1736441856	44	6361
2026-01-14 21:21:16.82	342.03	10.26	-36.1	-37.1	22.4	0.00e+00	122	29	0	1749024768	44	6297
2026-01-14 21:21:20.85	341.50	10.01	-35.8	-36.8	22.7	0.00e+00	123	29	0	1761607680	44	6082
2026-01-14 21:21:24.89	340.99	9.77	-36.1	-37.1	22.4	0.00e+00	122	29	0	1774190592	44	6301
2026-01-14 21:21:28.93	340.48	9.53	-36.5	-37.5	22.0	0.00e+00	121	29	0	1786773504	44	6637
2026-01-14 21:21:32.97	339.98	9.29	-36.7	-37.7	21.7	0.00e+00	121	29	0	1799356416	46	6063
2026-01-14 21:21:37.01	339.49	9.05	-36.4	-37.4	22.0	0.00e+00	122	30	0	1811939328	46	5830
2026-01-14 21:21:41.04	339.01	8.81	-36.5	-37.6	22.0	0.00e+00	120	29	0	1824522240	46	5936
2026-01-14 21:21:45.08	338.54	8.56	-36.7	-37.8	21.8	0.00e+00	123	29	0	1837105152	46	6104
2026-01-14 21:21:49.12	338.08	8.32	-36.8	-37.9	21.6	0.00e+00	122	29	0	1849688064	46	6146
2026-01-14 21:21:53.15	337.62	8.08	-36.4	-37.4	22.0	0.00e+00	122	29	0	1862270976	46	5821
2026-01-14 21:21:57.19	337.17	7.84	-36.5	-37.5	21.9	0.00e+00	123	29	0	1874853888	46	5915
2026-01-14 21:22:01.23	336.73	7.61	-36.7	-37.7	21.8	0.00e+00	123	29	0	1887436800	46	6036
2026-01-14 21:22:05.26	336.29	7.37	-37.0	-38.1	21.3	0.00e+00	122	29	0	1900019712	46	6320
2026-01-14 21:22:09.30	335.87	7.13	-37.0	-38.1	21.2	0.00e+00	119	29	0	1912602624	46	6333
2026-01-14 21:22:13.34	335.45	6.89	-36.7	-37.8	21.5	0.00e+00	122	29	0	1925185536	46	6088
2026-01-14 21:22:17.37	335.03	6.66	-36.5	-37.5	21.6	0.00e+00	123	29	0	1938817024	46	5921
2026-01-14 21:22:21.41	334.63	6.42	-37.1	-38.2	21.0	0.00e+00	123	29	0	1950351360	46	6405
2026-01-14 21:22:25.44	334.23	6.19	-37.9	-39.1	20.0	0.00e+00	123	29	0	1963982848	48	6341
2026-01-14 21:22:29.48	333.83	5.95	-38.2	-39.6	19.3	0.00e+00	122	30	0	1976565760	48	6655
2026-01-14 21:22:33.52	333.45	5.72	-38.0	-39.2	19.5	0.00e+00	123	29	0	1989148672	48	6415
2026-01-14 21:22:37.56	333.07	5.49	-37.8	-39.1	19.3	0.00e+00	123	30	0	2001731584	48	6319
2026-01-14 21:22:41.59	332.69	5.26	-37.9	-39.1	19.6	0.00e+00	120	30	0	2014314496	48	6311
2026-01-14 21:22:45.63	332.33	5.03	-38.2	-39.5	19.3	0.00e+00	122	29	0	2026897408	48	6621
2026-01-14 21:22:49.67	331.96	4.80	-38.6	-39.9	19.0	0.00e+00	123	29	0	2039480320	48	6930
2026-01-14 21:22:53.71	331.61	4.57	-38.2	-39.4	19.6	0.00e+00	123	29	0	2052063232	48	6569
2026-01-14 21:22:57.74	331.26	4.34	-37.5	-38.7	20.2	0.00e+00	120	29	0	2064646144	48	6013
2026-01-14 21:23:01.78	330.91	4.11	-37.3	-38.5	20.5	0.00e+00	123	29	0	2077229056	48	5864
2026-01-14 21:23:05.82	330.57	3.89	-37.4	-38.6	20.2	7.00e-07	122	29	0	2089811968	48	5956
2026-01-14 21:23:09.85	330.24	3.66	-37.6	-38.8	19.9	0.00e+00	123	29	0	2102394880	48	6109
2026-01-14 21:23:13.89	329.91	3.44	-38.4	-39.7	19.0	0.00e+00	120	29	0	2114977792	48	6788
2026-01-14 21:23:17.93	329.59	3.21	-39.2	-40.7	17.7	0.00e+00	122	29	0	2127560704	50	6768
2026-01-14 21:23:21.97	329.27	2.99	-47.6	-60.3	3.5	1.53e+00	0	30	104	2139095040	60	36530
2026-01-14 21:23:26.01	328.96	2.77	-48.7	-61.5	3.5	1.52e+00	0	30	104	2139095040	60	41775
2026-01-14 21:23:30.04	328.65	2.55	-48.8	-61.7	3.5	1.52e+00	0	30	104	2139095040	60	42863
2026-01-14 21:23:34.08	328.34	2.33	-48.7	-61.6	3.5	1.52e+00	0	30	104	2139095040	60	42221
2026-01-14 21:23:38.12	328.05	2.11	-49.1	-62.0	3.5	1.52e+00	0	30	104	2139095040	60	44020
2026-01-14 21:23:42.16	327.75	1.89	-48.9	-61.7	3.5	1.52e+00	0	29	104	2139095040	60	42679
2026-01-14 21:23:46.19	327.46	1.68	-48.8	-61.7	3.5	1.52e+00	0	30	104	2139095040	60	42543
2026-01-14 21:23:50.23	327.18	1.46	-48.8	-61.7	3.5	1.52e+00	0	30	104	2139095040	60	42684
2026-01-14 21:23:54.28	326.89	1.25	-48.8	-61.6	3.5	1.52e+00	0	30	104	2139095040	60	42238
2026-01-14 21:23:58.31	326.62	1.03	-48.8	-61.6	3.5	1.52e+00	0	30	104	2139095040	60	42326
2026-01-14 21:24:02.35	326.34	0.82	-48.8	-61.6	3.5	1.52e+00	0	30	104	2139095040	60	42371
2026-01-14 21:24:06.39	326.08	0.61	-48.8	-61.6	3.5	1.51e+00	0	30	104	2139095040	60	42135
2026-01-14 21:24:10.43	325.81	0.40	-48.8	-61.6	3.5	1.52e+00	0	29	104	2139095040	60	42238
2026-01-14 21:24:14.47	325.55	0.19	-48.8	-61.6	3.5	1.52e+00	0	30	104	2139095040	60	42089
2026-01-14 21:24:18.51	325.29	-0.02	-48.7	-61.6	3.5	1.52e+00	0	30	104	2139095040	60	42179

#Closed at: 2026-01-14 21:24:20
#Recorded file [2139 MB]: D:/lorett/data/35029_260115_091058.dat