passes_logs/2026/01/14/R4.6S_Anadyr/R4.6S_Anadyr__20260114_202206_NOAA_20_JPSS-1_rec.log

#Pass ID: 20260114_202206_NOAA 20 (JPSS-1)
#Satellite: NOAA 20 (JPSS-1)
#Configuration: NOAA 20
#almurnet v.1.7.20251203
#Start time: 2026-01-14 20:22:07

#Version: 2.2.20231116
#Station: R4.6S_Anadyr
#Location: 177.4865 lon 64.73178 lat
#TLE: 1 43013U 17073A   26013.84982170  .00000053  00000+0  46215-4 0  9999
#TLE: 2 43013  98.7633 314.8013 0001544  40.9009 319.2282 14.19535753422575

#Time	Az	El	Level	Level2	SNR	BER	BlckErr	Temp	State	Recorded	gain1	gain2
2026-01-14 20:22:07.34	68.76	0.06	-48.8	-63.7	3.5	1.51e+00	0	26	0	0	60	55270
2026-01-14 20:22:10.36	68.54	0.21	-48.8	-64.0	3.6	1.51e+00	0	28	104	0	60	57306
2026-01-14 20:22:13.39	68.32	0.36	-48.8	-64.0	3.6	1.51e+00	0	28	104	0	60	57276
2026-01-14 20:22:16.42	68.10	0.51	-48.8	-64.0	3.6	1.51e+00	0	28	104	0	60	57234
2026-01-14 20:22:19.45	67.87	0.66	-48.6	-63.8	3.6	1.51e+00	0	28	104	0	60	56291
2026-01-14 20:22:22.48	67.64	0.81	-48.1	-63.3	3.6	1.51e+00	0	28	104	0	60	52751
2026-01-14 20:22:25.51	67.40	0.96	-47.1	-62.3	3.6	1.51e+00	0	28	104	0	60	46946
2026-01-14 20:22:28.54	67.17	1.12	-47.1	-62.2	3.6	1.51e+00	0	28	104	0	60	46797
2026-01-14 20:22:31.57	66.93	1.27	-47.1	-62.2	3.6	1.51e+00	0	28	104	0	60	46724
2026-01-14 20:22:34.60	66.69	1.42	-47.1	-62.2	3.6	1.51e+00	0	28	104	0	60	46554
2026-01-14 20:22:37.63	66.45	1.57	-47.1	-62.1	3.6	1.51e+00	0	28	104	0	60	46181
2026-01-14 20:22:40.65	66.20	1.73	-47.1	-62.2	3.6	1.51e+00	0	28	104	0	60	46539
2026-01-14 20:22:43.68	65.96	1.88	-47.0	-62.1	3.6	1.51e+00	0	28	104	0	60	46170
2026-01-14 20:22:46.72	65.70	2.04	-47.0	-61.9	3.6	1.51e+00	0	28	104	0	60	44755
2026-01-14 20:22:49.74	65.45	2.19	-47.0	-61.9	3.6	1.51e+00	0	28	104	0	60	44783
2026-01-14 20:22:52.77	65.20	2.34	-47.0	-62.2	3.6	1.51e+00	0	28	104	0	60	46353
2026-01-14 20:22:55.80	64.94	2.50	-47.0	-62.2	3.6	1.51e+00	0	28	104	0	60	46513
2026-01-14 20:22:58.83	64.67	2.65	-47.0	-61.2	3.6	1.51e+00	0	28	104	0	60	41393
2026-01-14 20:23:01.86	64.41	2.81	-47.0	-61.1	3.6	1.51e+00	0	28	104	0	60	40984
2026-01-14 20:23:04.89	64.14	2.97	-45.9	-51.7	9.2	5.99e-02	92	28	0	3145728	60	13860
2026-01-14 20:23:07.92	63.87	3.12	-45.4	-49.6	11.7	5.51e-01	91	28	0	7340032	60	10916
2026-01-14 20:23:10.95	63.60	3.28	-44.7	-48.6	12.5	2.44e-01	0	28	0	9437184	60	9691
2026-01-14 20:23:13.97	63.32	3.43	-44.4	-47.8	13.7	4.04e-05	90	28	0	14680064	60	8836
2026-01-14 20:23:17.00	63.04	3.59	-42.5	-44.7	16.8	0.00e+00	92	28	0	20971520	58	7001
2026-01-14 20:23:20.02	62.76	3.75	-42.9	-45.2	16.4	0.00e+00	0	28	0	26214400	58	7358
2026-01-14 20:23:23.05	62.47	3.91	-42.4	-44.5	17.0	0.00e+00	82	28	0	31457280	58	6772
2026-01-14 20:23:26.08	62.18	4.06	-42.3	-44.3	17.1	0.00e+00	90	28	0	37748736	58	6687
2026-01-14 20:23:29.11	61.89	4.22	-42.7	-44.9	16.9	0.00e+00	92	29	0	42991616	58	7122
2026-01-14 20:23:32.14	61.60	4.38	-42.3	-44.3	17.2	0.00e+00	0	28	0	49283072	58	6616
2026-01-14 20:23:35.17	61.30	4.54	-42.4	-44.5	17.0	0.00e+00	92	28	0	54525952	58	6777
2026-01-14 20:23:38.19	61.00	4.69	-42.0	-43.8	17.8	0.00e+00	91	28	0	59768832	58	6301
2026-01-14 20:23:41.22	60.69	4.85	-41.8	-43.6	18.1	0.00e+00	5	28	0	66060288	58	6119
2026-01-14 20:23:44.25	60.38	5.01	-41.8	-43.6	18.1	0.00e+00	90	29	0	71303168	56	6873
2026-01-14 20:23:47.27	60.07	5.17	-41.8	-43.5	18.2	0.00e+00	91	29	0	77594624	56	6841
2026-01-14 20:23:50.30	59.75	5.33	-41.6	-43.3	18.5	0.00e+00	0	29	0	82837504	56	6660
2026-01-14 20:23:53.33	59.43	5.49	-41.6	-43.3	18.4	0.00e+00	92	28	0	88080384	56	6681
2026-01-14 20:23:56.35	59.11	5.65	-41.4	-43.0	18.8	0.00e+00	92	28	0	94371840	56	6393
2026-01-14 20:23:59.38	58.78	5.81	-41.2	-42.8	19.1	0.00e+00	0	29	0	99614720	56	6263
2026-01-14 20:24:02.40	58.46	5.97	-41.3	-42.9	18.9	0.00e+00	2	29	0	105906176	56	6330
2026-01-14 20:24:05.43	58.12	6.13	-41.3	-42.9	19.0	0.00e+00	92	29	0	111149056	56	6319
2026-01-14 20:24:08.45	57.78	6.29	-41.1	-42.6	19.2	0.00e+00	92	29	0	117440512	56	6170
2026-01-14 20:24:11.49	57.44	6.45	-41.3	-42.9	19.1	0.00e+00	0	29	0	122683392	56	6319
2026-01-14 20:24:14.52	57.10	6.61	-40.9	-42.3	19.4	0.00e+00	92	29	0	127926272	56	5935
2026-01-14 20:24:17.54	56.75	6.76	-40.6	-42.0	19.8	0.00e+00	91	29	0	134217728	54	6452
2026-01-14 20:24:20.57	56.39	6.92	-40.6	-42.0	19.8	0.00e+00	10	29	0	139460608	54	6406
2026-01-14 20:24:23.60	56.04	7.08	-40.7	-42.1	19.8	0.00e+00	10	29	0	145752064	54	6495
2026-01-14 20:24:26.62	55.67	7.24	-40.7	-42.1	19.7	0.00e+00	91	29	0	150994944	54	6529
2026-01-14 20:24:29.65	55.31	7.40	-40.7	-42.1	19.8	0.00e+00	0	29	0	156237824	54	6493
2026-01-14 20:24:32.68	54.94	7.56	-40.7	-42.2	19.8	0.00e+00	68	29	0	162529280	54	6549
2026-01-14 20:24:35.71	54.56	7.72	-40.5	-41.9	20.1	0.00e+00	92	29	0	167772160	54	6324
2026-01-14 20:24:38.74	54.19	7.88	-40.7	-42.1	19.7	0.00e+00	76	29	0	174063616	54	6507
2026-01-14 20:24:41.77	53.80	8.04	-40.6	-41.9	20.0	0.00e+00	4	29	0	179306496	54	6375
2026-01-14 20:24:44.80	53.42	8.20	-40.5	-41.9	20.1	0.00e+00	92	29	0	184549376	54	6321
2026-01-14 20:24:47.82	53.03	8.35	-40.4	-41.7	20.2	0.00e+00	92	29	0	190840832	54	6244
2026-01-14 20:24:50.85	52.63	8.51	-40.5	-41.8	20.2	0.00e+00	0	29	0	196083712	54	6290
2026-01-14 20:24:53.88	52.23	8.67	-40.4	-41.7	20.3	0.00e+00	92	29	0	202375168	54	6209
2026-01-14 20:24:56.91	51.83	8.83	-40.4	-41.8	20.1	0.00e+00	92	29	0	207618048	54	6272
2026-01-14 20:24:59.94	51.42	8.98	-40.4	-41.7	20.3	0.00e+00	0	29	0	213909504	54	6223
2026-01-14 20:25:02.97	51.01	9.14	-40.3	-41.6	20.4	0.00e+00	6	29	0	219152384	54	6152
2026-01-14 20:25:05.99	50.59	9.30	-40.1	-41.4	20.6	0.00e+00	91	29	0	224395264	54	5985
2026-01-14 20:25:09.02	50.17	9.45	-40.0	-41.3	20.7	0.00e+00	0	29	0	230686720	54	5920
2026-01-14 20:25:12.05	49.74	9.61	-40.1	-41.3	20.7	0.00e+00	67	29	0	235929600	54	5945
2026-01-14 20:25:15.08	49.31	9.76	-40.1	-41.4	20.6	0.00e+00	90	29	0	242221056	54	5985
2026-01-14 20:25:18.10	48.87	9.91	-40.1	-41.4	20.7	0.00e+00	92	29	0	247463936	54	5974
2026-01-14 20:25:21.13	48.43	10.07	-40.2	-41.5	20.6	0.00e+00	0	29	0	252706816	54	6037
2026-01-14 20:25:24.16	47.99	10.22	-40.1	-41.4	20.7	0.00e+00	41	29	0	258998272	54	5980
2026-01-14 20:25:27.19	47.54	10.37	-39.9	-41.2	21.0	0.00e+00	92	29	0	264241152	54	5830
2026-01-14 20:25:30.22	47.08	10.52	-39.6	-40.8	21.3	0.00e+00	12	29	0	270532608	52	6277
2026-01-14 20:25:33.24	46.62	10.67	-39.5	-40.6	21.4	0.00e+00	68	29	0	275775488	52	6156
2026-01-14 20:25:36.27	46.16	10.82	-39.2	-40.3	21.8	0.00e+00	92	29	0	282066944	52	5912
2026-01-14 20:25:39.30	45.69	10.97	-39.0	-40.0	22.1	0.00e+00	0	29	0	287309824	52	5738
2026-01-14 20:25:42.33	45.22	11.11	-38.9	-40.0	22.1	0.00e+00	0	29	0	292552704	52	5697
2026-01-14 20:25:45.36	44.74	11.26	-38.5	-39.5	22.4	0.00e+00	92	29	0	298844160	50	6089
2026-01-14 20:25:48.39	44.25	11.40	-38.7	-39.7	22.3	0.00e+00	0	29	0	304087040	50	6210
2026-01-14 20:25:51.41	43.77	11.55	-38.7	-39.7	22.4	0.00e+00	69	29	0	310378496	50	6197
2026-01-14 20:25:54.44	43.27	11.69	-39.2	-40.3	21.9	0.00e+00	91	29	0	315621376	50	6616
2026-01-14 20:25:57.47	42.77	11.83	-38.4	-39.4	22.6	0.00e+00	90	29	0	320864256	50	5967
2026-01-14 20:26:00.48	42.27	11.97	-38.2	-39.1	22.9	0.00e+00	66	29	0	327155712	50	5816
2026-01-14 20:26:03.50	41.77	12.11	-38.1	-39.1	22.9	0.00e+00	0	29	0	332398592	50	5771
2026-01-14 20:26:06.53	41.26	12.24	-38.0	-39.0	22.9	0.00e+00	92	29	0	338690048	50	5731
2026-01-14 20:26:09.56	40.74	12.38	-37.9	-38.9	23.1	0.00e+00	0	29	0	343932928	50	5644
2026-01-14 20:26:12.58	40.22	12.51	-37.8	-38.7	23.2	0.00e+00	11	29	0	349175808	48	6211
2026-01-14 20:26:15.61	39.69	12.64	-37.8	-38.7	23.3	0.00e+00	79	29	0	355467264	48	6223
2026-01-14 20:26:18.64	39.16	12.78	-37.9	-38.8	23.2	0.00e+00	0	29	0	360710144	48	6278
2026-01-14 20:26:21.67	38.62	12.90	-38.0	-38.9	23.1	0.00e+00	0	29	0	367001600	48	6351
2026-01-14 20:26:24.69	38.08	13.03	-38.1	-39.1	22.9	0.00e+00	0	29	0	372244480	48	6501
2026-01-14 20:26:27.72	37.53	13.16	-38.2	-39.2	22.8	0.00e+00	3	29	0	378535936	48	6563
2026-01-14 20:26:30.75	36.98	13.28	-38.2	-39.2	22.7	0.00e+00	0	29	0	383778816	48	6572
2026-01-14 20:26:33.78	36.43	13.40	-38.2	-39.2	22.8	0.00e+00	6	29	0	389021696	48	6582
2026-01-14 20:26:36.81	35.87	13.52	-38.2	-39.2	22.9	0.00e+00	91	29	0	395313152	48	6545
2026-01-14 20:26:39.83	35.31	13.63	-38.0	-39.0	23.0	0.00e+00	73	29	0	400556032	48	6418
2026-01-14 20:26:42.86	34.74	13.75	-38.0	-38.9	23.1	0.00e+00	0	29	0	406847488	48	6364
2026-01-14 20:26:45.88	34.16	13.86	-37.9	-38.9	23.2	0.00e+00	90	29	0	412090368	48	6337
2026-01-14 20:26:48.91	33.59	13.97	-38.0	-38.9	23.2	0.00e+00	0	29	0	417333248	48	6372
2026-01-14 20:26:51.93	33.01	14.08	-37.7	-38.6	23.4	0.00e+00	6	29	0	423624704	48	6132
2026-01-14 20:26:54.96	32.42	14.18	-37.8	-38.7	23.3	0.00e+00	14	29	0	428867584	48	6210
2026-01-14 20:26:57.99	31.83	14.28	-37.5	-38.5	23.5	0.00e+00	7	29	0	435159040	48	6036
2026-01-14 20:27:01.01	31.24	14.38	-37.5	-38.5	23.5	0.00e+00	68	29	0	440401920	48	6035
2026-01-14 20:27:04.04	30.64	14.48	-37.3	-38.2	23.8	0.00e+00	13	29	0	445644800	48	5856
2026-01-14 20:27:07.07	30.04	14.57	-37.6	-38.5	23.5	0.00e+00	92	29	0	451936256	48	6045
2026-01-14 20:27:10.10	29.43	14.66	-37.5	-38.4	23.6	0.00e+00	0	29	0	457179136	48	5975
2026-01-14 20:27:13.12	28.82	14.75	-37.7	-38.6	23.5	0.00e+00	0	29	0	463470592	48	6114
2026-01-14 20:27:16.15	28.21	14.84	-37.6	-38.5	23.5	0.00e+00	92	29	0	468713472	48	6036
2026-01-14 20:27:19.18	27.59	14.92	-37.6	-38.5	23.4	0.00e+00	0	29	0	475004928	48	6092
2026-01-14 20:27:22.21	26.97	15.00	-38.1	-39.0	23.0	0.00e+00	12	29	0	480247808	48	6427
2026-01-14 20:27:25.23	26.35	15.08	-37.8	-38.7	23.3	0.00e+00	92	29	0	485490688	48	6244
2026-01-14 20:27:28.26	25.72	15.15	-38.1	-39.0	23.1	0.00e+00	0	29	0	491782144	48	6427
2026-01-14 20:27:31.28	25.10	15.22	-38.0	-39.0	23.2	0.00e+00	0	29	0	497025024	48	6417
2026-01-14 20:27:34.31	24.46	15.28	-38.4	-39.4	22.8	0.00e+00	18	29	0	503316480	48	6722
2026-01-14 20:27:37.34	23.83	15.35	-38.4	-39.4	22.8	0.00e+00	0	29	0	508559360	48	6750
2026-01-14 20:27:40.36	23.19	15.41	-38.7	-39.7	22.3	0.00e+00	0	29	0	513802240	48	6986
2026-01-14 20:27:43.39	22.55	15.46	-38.2	-39.2	22.9	0.00e+00	0	29	0	520093696	50	5859
2026-01-14 20:27:46.42	21.91	15.51	-38.0	-38.9	23.1	0.00e+00	92	29	0	525336576	50	5680
2026-01-14 20:27:49.45	21.26	15.56	-38.1	-39.0	23.2	0.00e+00	13	29	0	531628032	50	5721
2026-01-14 20:27:52.47	20.62	15.61	-38.0	-39.0	23.1	0.00e+00	0	29	0	536870912	50	5701
2026-01-14 20:27:55.50	19.97	15.65	-38.1	-39.1	23.1	0.00e+00	62	29	0	543162368	50	5764
2026-01-14 20:27:58.53	19.32	15.69	-38.2	-39.1	23.0	0.00e+00	2	29	0	548405248	50	5827
2026-01-14 20:28:01.55	18.67	15.72	-38.1	-39.0	23.1	0.00e+00	2	29	0	553648128	50	5743
2026-01-14 20:28:04.58	18.02	15.75	-38.2	-39.2	22.9	0.00e+00	89	29	0	559939584	50	5829
2026-01-14 20:28:07.61	17.36	15.78	-38.3	-39.2	22.9	0.00e+00	0	29	0	565182464	50	5892
2026-01-14 20:28:10.64	16.70	15.80	-38.3	-39.2	22.9	0.00e+00	0	29	0	571473920	50	5881
2026-01-14 20:28:13.67	16.05	15.82	-38.5	-39.5	22.7	0.00e+00	67	29	0	576716800	50	6080
2026-01-14 20:28:16.69	15.39	15.84	-38.1	-39.1	23.0	0.00e+00	9	29	0	581959680	50	5763
2026-01-14 20:28:19.72	14.73	15.85	-38.1	-39.1	23.1	0.00e+00	5	29	0	588251136	50	5767
2026-01-14 20:28:22.75	14.08	15.86	-38.4	-39.4	22.8	0.00e+00	7	29	0	593494016	50	6018
2026-01-14 20:28:25.78	13.42	15.86	-38.5	-39.5	22.7	0.00e+00	92	29	0	599785472	50	6042
2026-01-14 20:28:28.80	12.76	15.86	-38.4	-39.3	22.8	0.00e+00	4	29	0	605028352	50	5960
2026-01-14 20:28:31.83	12.10	15.86	-38.3	-39.2	22.3	0.00e+00	5	29	0	610271232	50	5872
2026-01-14 20:28:34.86	11.44	15.85	-38.3	-39.2	22.7	0.00e+00	92	29	0	616562688	50	5886
2026-01-14 20:28:37.89	10.78	15.84	-38.6	-39.6	22.7	0.00e+00	73	29	0	621805568	50	6114
2026-01-14 20:28:40.91	10.13	15.83	-38.8	-39.8	22.4	0.00e+00	6	29	0	628097024	50	6266
2026-01-14 20:28:43.94	9.47	15.81	-38.5	-39.5	22.6	0.00e+00	21	29	0	633339904	50	6096
2026-01-14 20:28:46.97	8.81	15.78	-38.3	-39.3	22.9	0.00e+00	1	29	0	639631360	50	5900
2026-01-14 20:28:50.00	8.16	15.76	-38.1	-39.0	23.1	0.00e+00	13	29	0	644874240	50	5760
2026-01-14 20:28:53.03	7.51	15.73	-38.3	-39.3	22.9	0.00e+00	70	29	0	650117120	50	5930
2026-01-14 20:28:56.05	6.86	15.69	-38.4	-39.4	22.8	0.00e+00	92	29	0	656408576	50	5984
2026-01-14 20:28:59.08	6.20	15.66	-38.2	-39.2	23.0	0.00e+00	0	29	0	661651456	50	5837
2026-01-14 20:29:02.11	5.56	15.62	-38.0	-39.0	23.2	0.00e+00	0	29	0	667942912	50	5705
2026-01-14 20:29:05.14	4.91	15.57	-37.9	-38.9	23.2	0.00e+00	92	29	0	673185792	50	5652
2026-01-14 20:29:08.17	4.26	15.52	-37.8	-38.7	23.3	0.00e+00	2	29	0	678428672	50	5559
2026-01-14 20:29:11.19	3.62	15.47	-37.7	-38.7	23.4	0.00e+00	13	29	0	684720128	48	6204
2026-01-14 20:29:14.22	2.98	15.41	-37.5	-38.4	23.7	0.00e+00	69	29	0	689963008	48	5977
2026-01-14 20:29:17.25	2.34	15.36	-37.9	-38.8	23.4	0.00e+00	0	29	0	696254464	48	6304
2026-01-14 20:29:20.28	1.71	15.29	-37.8	-38.7	23.4	0.00e+00	0	29	0	701497344	48	6236
2026-01-14 20:29:23.31	1.08	15.23	-37.9	-38.8	23.4	0.00e+00	0	29	0	707788800	48	6265
2026-01-14 20:29:26.33	0.45	15.16	-37.8	-38.8	23.4	0.00e+00	15	29	0	713031680	48	6257
2026-01-14 20:29:29.36	359.82	15.09	-38.0	-38.9	23.2	0.00e+00	0	29	0	718274560	48	6390
2026-01-14 20:29:32.39	359.20	15.01	-38.2	-39.1	23.1	0.00e+00	2	29	0	724566016	48	6521
2026-01-14 20:29:35.42	358.58	14.93	-38.2	-39.2	22.9	0.00e+00	91	29	0	729808896	48	6551
2026-01-14 20:29:38.45	357.96	14.85	-38.3	-39.3	22.9	0.00e+00	0	29	0	736100352	48	6653
2026-01-14 20:29:41.47	357.35	14.77	-38.1	-39.1	23.1	0.00e+00	0	29	0	741343232	48	6501
2026-01-14 20:29:44.50	356.74	14.68	-38.2	-39.2	23.0	0.00e+00	92	29	0	746586112	48	6542
2026-01-14 20:29:47.53	356.13	14.59	-38.2	-39.2	22.9	0.00e+00	0	29	0	752877568	48	6574
2026-01-14 20:29:50.56	355.53	14.49	-37.9	-38.9	23.2	0.00e+00	10	29	0	758120448	48	6354
2026-01-14 20:29:53.58	354.94	14.40	-37.9	-38.9	23.1	0.00e+00	92	29	0	764411904	48	6359
2026-01-14 20:29:56.61	354.34	14.30	-38.0	-39.0	23.1	0.00e+00	0	29	0	769654784	48	6415
2026-01-14 20:29:59.63	353.75	14.20	-37.9	-38.8	23.2	0.00e+00	6	29	0	774897664	48	6316
2026-01-14 20:30:02.66	353.17	14.09	-37.8	-38.8	23.3	0.00e+00	0	29	0	781189120	48	6266
2026-01-14 20:30:05.69	352.58	13.99	-37.8	-38.7	23.3	0.00e+00	92	29	0	786432000	48	6234
2026-01-14 20:30:08.72	352.01	13.88	-38.1	-39.0	23.0	0.00e+00	0	29	0	792723456	48	6451
2026-01-14 20:30:11.75	351.43	13.77	-38.0	-38.9	23.1	0.00e+00	5	29	0	797966336	48	6354
2026-01-14 20:30:14.78	350.86	13.65	-38.0	-38.9	23.0	0.00e+00	92	29	0	804257792	48	6384
2026-01-14 20:30:17.80	350.30	13.54	-38.0	-38.9	23.1	0.00e+00	5	29	0	809500672	48	6390
2026-01-14 20:30:20.83	349.74	13.42	-38.2	-39.1	22.9	0.00e+00	10	29	0	814743552	48	6533
2026-01-14 20:30:23.86	349.19	13.30	-38.1	-39.0	23.0	0.00e+00	92	29	0	821035008	48	6462
2026-01-14 20:30:26.89	348.64	13.17	-38.0	-39.0	23.1	0.00e+00	80	29	0	826277888	48	6412
2026-01-14 20:30:29.92	348.09	13.05	-38.4	-39.4	22.7	0.00e+00	0	29	0	832569344	48	6711
2026-01-14 20:30:32.95	347.55	12.92	-38.7	-39.8	22.0	0.00e+00	91	29	0	837812224	48	7015
2026-01-14 20:30:35.97	347.01	12.80	-38.8	-39.8	22.3	0.00e+00	17	29	0	843055104	50	6277
2026-01-14 20:30:39.00	346.48	12.67	-39.2	-40.2	21.9	0.00e+00	7	29	0	849346560	50	6615
2026-01-14 20:30:42.03	345.95	12.53	-38.9	-40.0	22.1	0.00e+00	72	29	0	854589440	50	6430
2026-01-14 20:30:45.05	345.43	12.40	-39.3	-40.4	21.7	0.00e+00	92	29	0	860880896	50	6717
2026-01-14 20:30:48.08	344.92	12.27	-39.6	-40.8	21.3	0.00e+00	0	29	0	866123776	50	7017
2026-01-14 20:30:51.11	344.40	12.13	-39.8	-41.0	21.1	0.00e+00	2	29	0	872415232	52	6459
2026-01-14 20:30:54.13	343.90	11.99	-40.1	-41.3	20.9	0.00e+00	92	29	0	877658112	52	6686
2026-01-14 20:30:57.17	343.39	11.85	-40.2	-41.4	20.7	0.00e+00	9	29	0	882900992	52	6745
2026-01-14 20:31:00.20	342.89	11.71	-40.1	-41.3	20.9	0.00e+00	0	29	0	889192448	52	6676
2026-01-14 20:31:03.22	342.40	11.57	-40.4	-41.7	20.5	0.00e+00	92	29	0	894435328	52	7001
2026-01-14 20:31:06.25	341.91	11.43	-40.6	-41.9	20.3	0.00e+00	75	29	0	900726784	54	6373
2026-01-14 20:31:09.28	341.43	11.28	-40.6	-41.9	20.3	0.00e+00	0	29	0	905969664	54	6370
2026-01-14 20:31:12.31	340.95	11.14	-40.8	-42.2	20.1	0.00e+00	0	29	0	911212544	54	6547
2026-01-14 20:31:15.33	340.48	10.99	-40.9	-42.3	19.9	0.00e+00	13	29	0	917504000	54	6645
2026-01-14 20:31:18.36	340.01	10.84	-41.0	-42.4	19.8	0.00e+00	0	29	0	922746880	54	6723
2026-01-14 20:31:21.39	339.55	10.69	-40.8	-42.2	20.0	0.00e+00	2	29	0	929038336	54	6577
2026-01-14 20:31:24.42	339.09	10.55	-40.8	-42.2	19.9	0.00e+00	92	29	0	934281216	54	6542
2026-01-14 20:31:27.44	338.63	10.40	-40.8	-42.1	20.0	0.00e+00	4	29	0	939524096	54	6523
2026-01-14 20:31:30.47	338.18	10.24	-40.9	-42.3	19.8	0.00e+00	0	29	0	945815552	54	6647
2026-01-14 20:31:33.50	337.74	10.09	-40.8	-42.2	19.9	0.00e+00	92	29	0	951058432	54	6541
2026-01-14 20:31:36.53	337.30	9.94	-40.4	-41.7	20.3	0.00e+00	0	29	0	957349888	54	6240
2026-01-14 20:31:39.56	336.86	9.79	-40.2	-41.5	20.6	0.00e+00	0	29	0	962592768	54	6046
2026-01-14 20:31:42.59	336.43	9.63	-40.2	-41.5	20.6	0.00e+00	64	29	0	968884224	54	6042
2026-01-14 20:31:45.62	336.00	9.48	-40.1	-41.3	20.8	0.00e+00	5	29	0	974127104	54	5947
2026-01-14 20:31:48.65	335.58	9.32	-39.9	-41.2	20.9	0.00e+00	75	29	0	979369984	54	5851
2026-01-14 20:31:51.68	335.16	9.17	-39.9	-41.1	20.9	0.00e+00	79	29	0	985661440	54	5820
2026-01-14 20:31:54.71	334.75	9.01	-39.7	-40.9	21.0	0.00e+00	92	29	0	990904320	52	6361
2026-01-14 20:31:57.74	334.34	8.85	-39.6	-40.8	21.3	0.00e+00	5	29	0	997195776	52	6246
2026-01-14 20:32:00.77	333.94	8.70	-39.3	-40.4	21.5	0.00e+00	7	29	0	1002438656	52	6004
2026-01-14 20:32:03.79	333.54	8.54	-39.1	-40.2	21.7	0.00e+00	90	29	0	1007681536	52	5877
2026-01-14 20:32:06.83	333.15	8.38	-38.9	-40.0	21.9	0.00e+00	86	29	0	1013972992	52	5727
2026-01-14 20:32:09.86	332.75	8.22	-38.8	-39.8	22.0	0.00e+00	0	29	0	1019215872	50	6313
2026-01-14 20:32:12.89	332.37	8.07	-38.7	-39.8	22.1	0.00e+00	92	29	0	1025507328	50	6286
2026-01-14 20:32:15.92	331.99	7.91	-38.6	-39.7	21.9	0.00e+00	6	29	0	1030750208	50	6199
2026-01-14 20:32:18.95	331.61	7.75	-38.7	-39.7	22.1	0.00e+00	7	29	0	1037041664	50	6224
2026-01-14 20:32:21.97	331.24	7.59	-38.7	-39.8	22.1	0.00e+00	3	29	0	1042284544	50	6251
2026-01-14 20:32:25.00	330.87	7.43	-38.9	-40.0	21.9	0.00e+00	13	29	0	1047527424	50	6406
2026-01-14 20:32:28.03	330.50	7.27	-39.0	-40.1	21.7	0.00e+00	6	29	0	1053818880	50	6486
2026-01-14 20:32:31.06	330.14	7.11	-38.8	-39.9	21.9	0.00e+00	81	29	0	1059061760	50	6363
2026-01-14 20:32:34.09	329.78	6.95	-38.8	-39.9	21.9	0.00e+00	92	29	0	1065353216	50	6349
2026-01-14 20:32:37.11	329.43	6.79	-39.2	-40.4	21.5	0.00e+00	0	29	0	1070596096	50	6700
2026-01-14 20:32:40.14	329.08	6.64	-39.2	-40.4	21.5	0.00e+00	0	29	0	1075838976	50	6710
2026-01-14 20:32:43.17	328.74	6.48	-39.5	-40.6	21.2	3.00e-06	92	29	0	1082130432	50	6919
2026-01-14 20:32:46.20	328.39	6.32	-39.2	-40.4	21.4	0.00e+00	0	29	0	1087373312	50	6718
2026-01-14 20:32:49.22	328.06	6.16	-39.1	-40.2	21.5	0.00e+00	6	29	0	1093664768	50	6600
2026-01-14 20:32:52.25	327.72	6.00	-39.2	-40.4	21.3	0.00e+00	92	29	0	1098907648	50	6719
2026-01-14 20:32:55.27	327.39	5.84	-39.3	-40.5	21.3	0.00e+00	81	29	0	1105199104	50	6775
2026-01-14 20:32:58.30	327.07	5.68	-39.5	-40.7	21.1	0.00e+00	0	29	0	1110441984	50	6928
2026-01-14 20:33:01.33	326.74	5.52	-39.9	-41.2	20.6	0.00e+00	0	29	0	1115684864	52	6551
2026-01-14 20:33:04.36	326.43	5.36	-39.9	-41.2	20.6	0.00e+00	92	29	0	1121976320	52	6572
2026-01-14 20:33:07.38	326.11	5.20	-40.0	-41.3	20.4	0.00e+00	0	29	0	1127219200	52	6688
2026-01-14 20:33:10.41	325.80	5.04	-40.1	-41.4	20.3	0.00e+00	80	29	0	1133510656	52	6700
2026-01-14 20:33:13.44	325.49	4.89	-40.7	-42.1	19.7	0.00e+00	91	29	0	1138753536	52	7287
2026-01-14 20:33:16.47	325.18	4.73	-40.6	-42.0	19.7	0.00e+00	74	29	0	1143996416	54	6454
2026-01-14 20:33:19.50	324.88	4.57	-40.7	-42.1	19.5	0.00e+00	2	29	0	1150287872	54	6527
2026-01-14 20:33:22.53	324.58	4.41	-40.9	-42.5	19.2	0.00e+00	90	29	0	1155530752	54	6790
2026-01-14 20:33:25.55	324.29	4.25	-41.0	-42.5	19.1	0.00e+00	0	29	0	1161822208	54	6821
2026-01-14 20:33:28.58	324.00	4.10	-41.1	-42.7	18.9	0.00e+00	0	29	0	1167065088	54	6939
2026-01-14 20:33:31.61	323.71	3.94	-41.1	-42.7	18.8	0.00e+00	0	29	0	1173356544	54	6996
2026-01-14 20:33:34.64	323.42	3.78	-41.0	-42.6	18.9	0.00e+00	0	29	0	1178599424	54	6900
2026-01-14 20:33:37.67	323.14	3.62	-41.1	-42.7	18.9	0.00e+00	3	29	0	1183842304	54	6963
2026-01-14 20:33:40.70	322.86	3.47	-41.4	-43.1	18.4	0.00e+00	5	29	0	1190133760	54	7261
2026-01-14 20:33:43.73	322.59	3.31	-41.5	-43.2	18.3	0.00e+00	92	29	0	1195376640	56	6605
2026-01-14 20:33:46.75	322.31	3.16	-41.6	-43.4	18.1	0.00e+00	5	29	0	1201668096	56	6720
2026-01-14 20:33:49.78	322.04	3.00	-47.4	-62.2	3.6	0.00e+00	0	29	104	1206910976	60	46328
2026-01-14 20:33:52.81	321.78	2.84	-48.6	-63.8	3.6	1.51e+00	0	29	104	1206910976	60	56187
2026-01-14 20:33:55.84	321.51	2.69	-48.9	-64.1	3.6	1.51e+00	0	29	104	1206910976	60	57976
2026-01-14 20:33:58.87	321.25	2.53	-48.9	-64.1	3.6	1.51e+00	0	29	104	1206910976	60	58152
2026-01-14 20:34:01.90	320.99	2.38	-48.9	-64.2	3.6	1.51e+00	0	29	104	1206910976	60	58629
2026-01-14 20:34:04.93	320.74	2.22	-48.8	-64.0	3.6	1.51e+00	0	29	104	1206910976	60	57212
2026-01-14 20:34:07.96	320.48	2.07	-49.0	-64.1	3.6	1.51e+00	0	29	104	1206910976	60	58219
2026-01-14 20:34:10.98	320.24	1.92	-48.9	-64.1	3.6	1.51e+00	0	29	104	1206910976	60	57783
2026-01-14 20:34:14.01	319.99	1.76	-48.9	-64.1	3.6	1.51e+00	0	29	104	1206910976	60	57857
2026-01-14 20:34:17.04	319.74	1.61	-48.9	-64.0	3.6	1.51e+00	0	29	104	1206910976	60	57471
2026-01-14 20:34:20.07	319.50	1.46	-48.9	-64.0	3.6	1.51e+00	0	29	104	1206910976	60	57350
2026-01-14 20:34:23.10	319.26	1.30	-48.9	-64.0	3.6	1.51e+00	0	29	104	1206910976	60	57165
2026-01-14 20:34:26.13	319.02	1.15	-48.8	-64.0	3.6	1.51e+00	0	29	104	1206910976	60	57216
2026-01-14 20:34:29.16	318.79	1.00	-48.8	-64.0	3.6	1.51e+00	0	29	104	1206910976	60	57116
2026-01-14 20:34:32.19	318.56	0.85	-48.8	-64.0	3.6	1.51e+00	0	29	104	1206910976	60	57243
2026-01-14 20:34:35.22	318.33	0.70	-48.8	-64.0	3.6	1.51e+00	0	29	104	1206910976	60	57157
2026-01-14 20:34:38.25	318.10	0.55	-48.8	-64.0	3.5	1.51e+00	0	29	104	1206910976	60	57214
2026-01-14 20:34:41.28	317.88	0.40	-48.8	-64.0	3.6	1.51e+00	0	29	104	1206910976	60	57238
2026-01-14 20:34:44.31	317.65	0.25	-48.8	-63.9	3.6	1.51e+00	0	29	104	1206910976	60	56958
2026-01-14 20:34:47.34	317.43	0.10	-48.8	-64.0	3.6	1.51e+00	0	29	104	1206910976	60	57425
2026-01-14 20:34:50.37	317.22	-0.05	-48.8	-64.0	3.6	1.51e+00	0	29	104	1206910976	60	56998

#Closed at: 2026-01-14 20:34:51
#Recorded file [1206 MB]: D:/lorett/data/35029_260115_082207.dat