passes_logs/2026/01/14/R4.6S_Anadyr/R4.6S_Anadyr__20260114_214002_SUOMI_NPP_rec.log

#Pass ID: 20260114_214002_SUOMI NPP
#Satellite: SUOMI NPP
#Configuration: NPP
#almurnet v.1.7.20251203
#Start time: 2026-01-14 21:40:04

#Version: 2.2.20231116
#Station: R4.6S_Anadyr
#Location: 177.4865 lon 64.73178 lat
#TLE: 1 37849U 11061A   26014.61059675  .00000037  00000+0  38639-4 0  9994
#TLE: 2 37849  98.7810 316.6625 0002460  64.3781 295.7649 14.19525105736658

#Time	Az	El	Level	Level2	SNR	BER	BlckErr	Temp	State	Recorded	gain1	gain2
2026-01-14 21:40:04.46	93.86	0.09	-48.7	-61.2	3.4	1.51e+00	0	26	0	0	60	40352
2026-01-14 21:40:08.50	93.62	0.31	-48.7	-63.9	3.6	1.51e+00	0	27	104	0	60	56618
2026-01-14 21:40:12.54	93.38	0.53	-48.7	-64.0	3.6	1.51e+00	0	27	104	0	60	57195
2026-01-14 21:40:16.58	93.13	0.75	-48.6	-63.9	3.6	1.51e+00	0	28	104	0	60	56650
2026-01-14 21:40:20.61	92.89	0.97	-47.8	-63.1	3.6	1.51e+00	0	28	104	0	60	51768
2026-01-14 21:40:24.65	92.63	1.19	-46.9	-62.1	3.6	1.51e+00	0	28	104	0	60	45895
2026-01-14 21:40:28.69	92.38	1.41	-46.9	-62.1	3.6	1.51e+00	0	28	104	0	60	46291
2026-01-14 21:40:32.72	92.12	1.63	-46.9	-62.2	3.6	1.51e+00	0	28	104	0	60	46450
2026-01-14 21:40:36.76	91.85	1.86	-46.9	-62.2	3.6	1.51e+00	0	28	104	0	60	46390
2026-01-14 21:40:40.80	91.58	2.09	-46.9	-61.9	3.5	1.51e+00	0	28	104	0	60	44736
2026-01-14 21:40:44.83	91.31	2.31	-46.9	-62.1	3.6	1.51e+00	0	28	104	0	60	45937
2026-01-14 21:40:48.87	91.03	2.54	-46.9	-62.2	3.6	1.51e+00	0	28	104	0	60	46567
2026-01-14 21:40:52.91	90.75	2.77	-46.9	-61.3	3.6	1.51e+00	0	28	104	0	60	41955
2026-01-14 21:40:56.95	90.46	3.00	-46.8	-60.1	3.7	1.51e+00	0	28	104	0	60	36682
2026-01-14 21:41:00.99	90.17	3.23	-44.4	-48.0	13.2	1.62e-04	90	28	0	6291456	60	9080
2026-01-14 21:41:05.02	89.87	3.47	-45.1	-49.7	9.8	6.63e-05	0	28	0	13631488	60	11077
2026-01-14 21:41:09.06	89.57	3.70	-41.8	-43.9	17.3	0.00e+00	0	28	0	16777216	56	7151
2026-01-14 21:41:13.10	89.27	3.94	-40.5	-42.1	19.0	0.00e+00	90	28	0	24117248	54	6490
2026-01-14 21:41:17.14	88.95	4.17	-40.9	-42.6	18.4	0.00e+00	91	28	0	32505856	54	6876
2026-01-14 21:41:21.17	88.64	4.41	-41.3	-43.1	18.0	0.00e+00	0	28	0	39845888	54	7301
2026-01-14 21:41:25.21	88.32	4.65	-41.3	-43.1	18.1	0.00e+00	83	28	0	47185920	54	7303
2026-01-14 21:41:29.25	87.99	4.89	-41.5	-43.3	18.0	0.00e+00	81	28	0	54525952	56	6690
2026-01-14 21:41:33.28	87.65	5.14	-41.7	-43.6	17.9	0.00e+00	92	28	0	62914560	56	6879
2026-01-14 21:41:37.32	87.31	5.38	-41.1	-42.8	18.6	0.00e+00	0	28	0	70254592	56	6294
2026-01-14 21:41:41.35	86.97	5.62	-40.9	-42.6	18.9	0.00e+00	80	28	0	77594624	56	6119
2026-01-14 21:41:45.39	86.62	5.87	-41.1	-42.8	18.8	0.00e+00	92	28	0	84934656	56	6279
2026-01-14 21:41:49.43	86.26	6.12	-40.5	-42.0	19.6	0.00e+00	0	28	0	92274688	54	6402
2026-01-14 21:41:53.46	85.90	6.37	-40.7	-42.3	19.1	0.00e+00	0	28	0	100663296	54	6642
2026-01-14 21:41:57.50	85.53	6.62	-40.3	-41.7	19.9	0.00e+00	92	28	0	108003328	54	6200
2026-01-14 21:42:01.53	85.15	6.87	-40.1	-41.4	20.0	0.00e+00	92	29	0	115343360	54	6018
2026-01-14 21:42:05.57	84.77	7.12	-39.9	-41.2	20.3	0.00e+00	0	29	0	122683392	54	5853
2026-01-14 21:42:09.61	84.38	7.37	-39.8	-41.0	20.4	0.00e+00	0	28	0	130023424	52	6440
2026-01-14 21:42:13.65	83.98	7.63	-41.0	-42.6	19.4	0.00e+00	92	28	0	138412032	54	6879
2026-01-14 21:42:17.69	83.57	7.88	-40.6	-42.0	19.6	0.00e+00	92	29	0	145752064	54	6443
2026-01-14 21:42:21.72	83.16	8.14	-41.0	-42.6	19.1	0.00e+00	0	29	0	153092096	54	6868
2026-01-14 21:42:25.76	82.74	8.40	-40.9	-42.5	19.2	0.00e+00	83	29	0	160432128	54	6786
2026-01-14 21:42:29.79	82.31	8.66	-40.3	-41.7	19.9	0.00e+00	78	29	0	168820736	54	6174
2026-01-14 21:42:33.83	81.88	8.92	-40.1	-41.4	20.2	0.00e+00	92	28	0	176160768	54	6021
2026-01-14 21:42:37.87	81.43	9.18	-40.2	-41.5	20.2	0.00e+00	0	29	0	183500800	54	6069
2026-01-14 21:42:41.91	80.98	9.45	-40.4	-41.8	20.0	0.00e+00	92	29	0	190840832	52	7025
2026-01-14 21:42:45.95	80.52	9.71	-40.0	-41.3	20.4	0.00e+00	92	29	0	198180864	52	6632
2026-01-14 21:42:49.99	80.05	9.98	-40.0	-41.3	20.3	0.00e+00	0	29	0	206569472	52	6667
2026-01-14 21:42:54.03	79.57	10.24	-40.1	-41.5	20.3	0.00e+00	0	29	0	213909504	52	6813
2026-01-14 21:42:58.06	79.09	10.51	-39.4	-40.6	21.1	0.00e+00	61	29	0	221249536	52	6126
2026-01-14 21:43:02.10	78.59	10.78	-39.3	-40.5	21.2	0.00e+00	91	29	0	228589568	52	6034
2026-01-14 21:43:06.14	78.09	11.04	-39.2	-40.3	21.3	0.00e+00	0	29	0	236978176	52	5942
2026-01-14 21:43:10.18	77.57	11.31	-39.2	-40.4	21.4	0.00e+00	0	29	0	244318208	52	5982
2026-01-14 21:43:14.22	77.05	11.58	-39.3	-40.4	21.3	0.00e+00	92	29	0	251658240	52	6032
2026-01-14 21:43:18.25	76.51	11.85	-39.7	-41.0	20.9	0.00e+00	92	29	0	258998272	52	6426
2026-01-14 21:43:22.29	75.97	12.13	-39.5	-40.7	20.6	0.00e+00	0	29	0	266338304	52	6215
2026-01-14 21:43:26.33	75.41	12.40	-39.6	-40.8	21.0	0.00e+00	90	29	0	274726912	52	6291
2026-01-14 21:43:30.37	74.85	12.67	-39.3	-40.4	21.3	0.00e+00	89	29	0	282066944	52	6025
2026-01-14 21:43:34.41	74.27	12.94	-39.2	-40.3	21.4	0.00e+00	0	29	0	289406976	52	5929
2026-01-14 21:43:38.45	73.68	13.21	-39.0	-40.1	21.5	0.00e+00	0	29	0	296747008	52	5807
2026-01-14 21:43:42.48	73.08	13.48	-39.2	-40.4	21.4	0.00e+00	92	29	0	305135616	52	5997
2026-01-14 21:43:46.52	72.48	13.76	-39.7	-40.9	21.0	0.00e+00	91	29	0	312475648	52	6379
2026-01-14 21:43:50.56	71.85	14.03	-39.6	-40.8	21.1	0.00e+00	0	29	0	319815680	52	6276
2026-01-14 21:43:54.60	71.22	14.30	-39.1	-40.2	21.7	0.00e+00	25	29	0	327155712	52	5841
2026-01-14 21:43:58.64	70.58	14.57	-39.6	-40.8	21.0	0.00e+00	53	29	0	334495744	52	6275
2026-01-14 21:44:02.68	69.92	14.84	-39.2	-40.4	21.5	0.00e+00	51	29	0	342884352	52	6004
2026-01-14 21:44:06.72	69.25	15.11	-39.6	-40.8	21.1	0.00e+00	0	29	0	350224384	52	6263
2026-01-14 21:44:10.75	68.57	15.38	-39.2	-40.3	21.4	0.00e+00	80	29	0	357564416	52	5944
2026-01-14 21:44:14.79	67.88	15.64	-39.4	-40.6	21.3	0.00e+00	92	29	0	364904448	52	6153
2026-01-14 21:44:18.83	67.17	15.91	-39.8	-41.1	21.0	0.00e+00	0	29	0	372244480	52	6465
2026-01-14 21:44:22.86	66.45	16.17	-39.1	-40.3	21.5	0.00e+00	0	29	0	380633088	52	5938
2026-01-14 21:44:26.89	65.72	16.43	-38.6	-39.7	22.0	0.00e+00	92	29	0	387973120	50	6198
2026-01-14 21:44:30.93	64.98	16.69	-38.3	-39.3	22.3	0.00e+00	90	29	0	395313152	50	5964
2026-01-14 21:44:34.97	64.22	16.95	-38.0	-39.0	22.6	0.00e+00	0	29	0	402653184	50	5751
2026-01-14 21:44:39.00	63.45	17.20	-37.8	-38.8	22.8	0.00e+00	0	29	0	411041792	48	6271
2026-01-14 21:44:43.05	62.67	17.46	-37.5	-38.5	23.0	0.00e+00	88	29	0	418381824	48	6070
2026-01-14 21:44:47.08	61.87	17.71	-37.1	-38.0	23.4	0.00e+00	2	29	0	425721856	48	5737
2026-01-14 21:44:51.12	61.06	17.95	-36.9	-37.8	23.6	0.00e+00	0	29	0	433061888	48	5593
2026-01-14 21:44:55.15	60.24	18.19	-36.8	-37.6	23.6	0.00e+00	10	29	0	440401920	46	6171
2026-01-14 21:44:59.19	59.40	18.43	-37.2	-38.1	23.3	0.00e+00	90	29	0	448790528	46	6529
2026-01-14 21:45:03.23	58.55	18.66	-37.6	-38.6	23.0	0.00e+00	0	29	0	456130560	48	6132
2026-01-14 21:45:07.27	57.69	18.89	-37.2	-38.1	23.4	0.00e+00	0	29	0	463470592	48	5803
2026-01-14 21:45:11.31	56.81	19.12	-37.1	-38.0	23.3	0.00e+00	92	29	0	470810624	48	5747
2026-01-14 21:45:15.34	55.92	19.34	-36.6	-37.5	23.8	0.00e+00	84	29	0	479199232	46	6074
2026-01-14 21:45:19.38	55.02	19.55	-36.0	-36.8	24.4	0.00e+00	0	29	0	486539264	46	5610
2026-01-14 21:45:23.41	54.11	19.76	-36.1	-36.9	24.2	0.00e+00	0	29	0	493879296	46	5663
2026-01-14 21:45:27.45	53.18	19.96	-36.8	-37.6	23.7	0.00e+00	0	29	0	501219328	46	6157
2026-01-14 21:45:31.49	52.24	20.16	-36.8	-37.7	23.7	0.00e+00	84	29	0	508559360	46	6220
2026-01-14 21:45:35.53	51.29	20.35	-36.7	-37.6	23.6	0.00e+00	0	29	0	516947968	46	6168
2026-01-14 21:45:39.56	50.33	20.53	-36.3	-37.2	24.0	0.00e+00	0	29	0	524288000	46	5832
2026-01-14 21:45:43.60	49.35	20.70	-36.0	-36.9	24.4	0.00e+00	84	29	0	531628032	46	5635
2026-01-14 21:45:47.64	48.37	20.87	-36.3	-37.2	24.0	0.00e+00	0	29	0	538968064	46	5860
2026-01-14 21:45:51.68	47.37	21.03	-36.3	-37.2	24.1	0.00e+00	0	29	0	547356672	46	5849
2026-01-14 21:45:55.72	46.37	21.18	-36.7	-37.6	23.8	0.00e+00	87	29	0	554696704	46	6150
2026-01-14 21:45:59.76	45.35	21.32	-37.8	-38.8	22.7	0.00e+00	92	29	0	562036736	48	6280
2026-01-14 21:46:03.80	44.33	21.46	-38.0	-39.0	22.7	0.00e+00	0	29	0	569376768	48	6432
2026-01-14 21:46:07.84	43.29	21.58	-37.8	-38.7	22.7	0.00e+00	0	29	0	576716800	48	6242
2026-01-14 21:46:11.88	42.25	21.69	-37.7	-38.7	23.0	0.00e+00	43	29	0	585105408	48	6192
2026-01-14 21:46:15.91	41.21	21.80	-38.4	-39.5	22.3	0.00e+00	77	29	0	592445440	48	6815
2026-01-14 21:46:19.95	40.15	21.89	-38.1	-39.1	22.8	0.00e+00	0	29	0	599785472	50	5762
2026-01-14 21:46:23.98	39.09	21.98	-37.9	-38.9	22.8	0.00e+00	0	29	0	607125504	48	6338
2026-01-14 21:46:28.02	38.02	22.05	-38.5	-39.5	22.3	0.00e+00	88	29	0	615514112	48	6792
2026-01-14 21:46:32.06	36.95	22.12	-38.1	-39.1	22.6	0.00e+00	49	29	0	622854144	48	6515
2026-01-14 21:46:36.10	35.88	22.17	-39.1	-40.3	21.7	0.00e+00	0	29	0	630194176	50	6643
2026-01-14 21:46:40.13	34.80	22.21	-39.7	-41.0	21.1	0.00e+00	51	29	0	637534208	50	7190
2026-01-14 21:46:44.16	33.72	22.24	-38.4	-39.5	22.4	0.00e+00	58	29	0	644874240	50	6039
2026-01-14 21:46:48.20	32.64	22.27	-37.8	-38.8	22.9	0.00e+00	0	29	0	653262848	48	6279
2026-01-14 21:46:52.24	31.55	22.28	-37.5	-38.4	23.2	0.00e+00	0	29	0	660602880	48	5997
2026-01-14 21:46:56.27	30.47	22.27	-37.6	-38.5	23.1	0.00e+00	91	29	0	667942912	48	6095
2026-01-14 21:47:00.31	29.39	22.26	-37.7	-38.7	22.9	0.00e+00	0	29	0	675282944	48	6223
2026-01-14 21:47:04.35	28.30	22.24	-37.1	-38.0	23.5	0.00e+00	0	29	0	683671552	48	5731
2026-01-14 21:47:08.39	27.22	22.21	-37.3	-38.2	23.3	0.00e+00	0	29	0	691011584	46	6580
2026-01-14 21:47:12.43	26.14	22.16	-36.4	-37.2	24.0	0.00e+00	92	29	0	698351616	46	5874
2026-01-14 21:47:16.46	25.07	22.11	-36.7	-37.6	23.7	0.00e+00	0	29	0	705691648	46	6159
2026-01-14 21:47:20.50	24.00	22.04	-36.2	-37.0	24.2	0.00e+00	0	29	0	713031680	46	5761
2026-01-14 21:47:24.54	22.94	21.96	-36.3	-37.1	24.1	0.00e+00	0	29	0	721420288	46	5813
2026-01-14 21:47:28.57	21.88	21.88	-36.6	-37.5	23.8	0.00e+00	84	29	0	728760320	46	6042
2026-01-14 21:47:32.61	20.83	21.78	-36.7	-37.5	23.9	0.00e+00	0	29	0	736100352	46	6093
2026-01-14 21:47:36.65	19.78	21.67	-36.0	-36.9	24.2	0.00e+00	0	29	0	743440384	46	5637
2026-01-14 21:47:40.69	18.74	21.56	-36.6	-37.5	23.9	0.00e+00	4	29	0	751828992	46	6059
2026-01-14 21:47:44.72	17.71	21.43	-37.1	-38.0	23.6	0.00e+00	0	29	0	759169024	46	6431
2026-01-14 21:47:48.76	16.69	21.30	-36.7	-37.6	23.8	0.00e+00	0	29	0	766509056	46	6108
2026-01-14 21:47:52.80	15.68	21.15	-37.9	-38.9	22.8	0.00e+00	0	29	0	773849088	48	6333
2026-01-14 21:47:56.83	14.68	21.00	-38.5	-39.6	22.3	0.00e+00	91	29	0	781189120	48	6861
2026-01-14 21:48:00.87	13.69	20.84	-38.5	-39.6	22.2	0.00e+00	0	29	0	789577728	50	6112
2026-01-14 21:48:04.91	12.70	20.67	-37.8	-38.8	22.9	0.00e+00	0	29	0	796917760	48	6249
2026-01-14 21:48:08.95	11.73	20.50	-38.2	-39.2	22.7	0.00e+00	0	29	0	804257792	48	6559
2026-01-14 21:48:12.99	10.77	20.32	-37.9	-38.8	22.9	0.00e+00	92	29	0	811597824	48	6295
2026-01-14 21:48:17.02	9.83	20.13	-37.0	-37.8	23.6	0.00e+00	0	29	0	818937856	48	5610
2026-01-14 21:48:21.06	8.89	19.93	-37.6	-38.6	23.0	0.00e+00	0	29	0	827326464	48	6133
2026-01-14 21:48:25.10	7.97	19.73	-39.3	-40.5	21.5	0.00e+00	56	29	0	834666496	50	6806
2026-01-14 21:48:29.13	7.06	19.52	-38.7	-39.8	22.1	0.00e+00	0	29	0	842006528	50	6281
2026-01-14 21:48:33.17	6.16	19.30	-40.4	-41.8	20.4	0.00e+00	0	29	0	849346560	52	7050
2026-01-14 21:48:37.21	5.28	19.08	-39.9	-41.3	20.9	0.00e+00	0	29	0	857735168	52	6619
2026-01-14 21:48:41.24	4.41	18.86	-37.9	-38.9	22.9	0.00e+00	78	29	0	865075200	50	5665
2026-01-14 21:48:45.28	3.55	18.63	-37.0	-37.9	23.5	0.00e+00	0	29	0	872415232	48	5689
2026-01-14 21:48:49.32	2.70	18.40	-37.3	-38.2	23.3	0.00e+00	0	29	0	879755264	48	5846
2026-01-14 21:48:53.35	1.87	18.16	-36.9	-37.8	23.6	0.00e+00	0	29	0	887095296	48	5618
2026-01-14 21:48:57.39	1.05	17.92	-37.4	-38.4	23.1	0.00e+00	87	29	0	895483904	46	6719
2026-01-14 21:49:01.42	0.25	17.67	-39.2	-40.4	21.5	0.00e+00	0	29	0	902823936	50	6695
2026-01-14 21:49:05.46	359.46	17.42	-38.8	-39.9	22.1	0.00e+00	0	29	0	910163968	50	6343
2026-01-14 21:49:09.50	358.68	17.17	-37.4	-38.3	23.2	0.00e+00	0	29	0	917504000	48	5951
2026-01-14 21:49:13.54	357.91	16.91	-37.1	-38.0	23.4	0.00e+00	8	29	0	925892608	48	5726
2026-01-14 21:49:17.58	357.16	16.66	-37.7	-38.7	23.0	0.00e+00	0	29	0	933232640	48	6190
2026-01-14 21:49:21.62	356.42	16.40	-38.6	-39.7	22.0	0.00e+00	0	29	0	940572672	48	6979
2026-01-14 21:49:25.65	355.69	16.14	-38.3	-39.4	22.3	0.00e+00	83	29	0	947912704	48	6708
2026-01-14 21:49:29.69	354.98	15.87	-38.3	-39.4	22.3	0.00e+00	0	29	0	955252736	48	6711
2026-01-14 21:49:33.73	354.28	15.61	-38.5	-39.6	22.1	0.00e+00	0	29	0	963641344	48	6914
2026-01-14 21:49:37.77	353.59	15.34	-37.4	-38.4	23.1	0.00e+00	0	29	0	970981376	48	5984
2026-01-14 21:49:41.80	352.91	15.08	-37.0	-37.9	23.4	0.00e+00	83	29	0	978321408	48	5666
2026-01-14 21:49:45.84	352.25	14.81	-37.0	-37.9	23.6	0.00e+00	33	29	0	985661440	48	5635
2026-01-14 21:49:49.88	351.60	14.54	-36.2	-37.0	24.1	0.00e+00	0	29	0	994050048	46	5716
2026-01-14 21:49:53.91	350.96	14.27	-36.6	-37.5	23.7	0.00e+00	0	29	0	1001390080	46	6077
2026-01-14 21:49:57.95	350.33	14.00	-37.4	-38.4	23.1	0.00e+00	83	29	0	1008730112	46	6709
2026-01-14 21:50:01.99	349.71	13.73	-37.1	-38.0	23.3	0.00e+00	0	29	0	1016070144	46	6463
2026-01-14 21:50:06.03	349.11	13.45	-36.5	-37.3	23.9	0.00e+00	0	29	0	1023410176	46	5937
2026-01-14 21:50:10.07	348.51	13.18	-37.2	-38.1	23.2	0.00e+00	65	29	0	1031798784	46	6491
2026-01-14 21:50:14.11	347.93	12.91	-37.8	-38.9	22.6	0.00e+00	0	29	0	1039138816	48	6318
2026-01-14 21:50:18.14	347.36	12.64	-37.8	-38.8	22.7	0.00e+00	0	29	0	1046478848	48	6300
2026-01-14 21:50:22.18	346.80	12.37	-37.6	-38.5	22.8	0.00e+00	0	29	0	1053818880	48	6099
2026-01-14 21:50:26.22	346.25	12.10	-36.9	-37.8	23.4	0.00e+00	31	29	0	1061158912	48	5605
2026-01-14 21:50:30.25	345.71	11.83	-37.7	-38.6	22.1	0.00e+00	0	29	0	1069547520	46	6925
2026-01-14 21:50:34.29	345.18	11.56	-39.1	-40.3	21.5	0.00e+00	0	29	0	1076887552	50	6627
2026-01-14 21:50:38.33	344.65	11.29	-38.6	-39.7	21.9	0.00e+00	0	29	0	1084227584	50	6190
2026-01-14 21:50:42.37	344.14	11.02	-38.2	-39.3	22.2	0.00e+00	85	29	0	1091567616	50	5914
2026-01-14 21:50:46.41	343.64	10.75	-38.3	-39.4	22.1	0.00e+00	0	29	0	1099956224	50	5997
2026-01-14 21:50:50.45	343.15	10.49	-38.2	-39.2	22.3	0.00e+00	0	29	0	1107296256	50	5854
2026-01-14 21:50:54.49	342.67	10.22	-38.5	-39.6	21.9	0.00e+00	73	29	0	1114636288	50	6140
2026-01-14 21:50:58.52	342.19	9.96	-39.1	-40.3	21.4	0.00e+00	60	29	0	1121976320	50	6620
2026-01-14 21:51:02.56	341.73	9.69	-38.9	-40.0	21.5	0.00e+00	0	29	0	1129316352	50	6430
2026-01-14 21:51:06.60	341.27	9.43	-38.9	-40.0	21.5	0.00e+00	0	29	0	1137704960	50	6442
2026-01-14 21:51:10.64	340.82	9.17	-39.6	-40.8	20.8	0.00e+00	77	29	0	1145044992	50	7057
2026-01-14 21:51:14.68	340.38	8.90	-39.8	-41.1	20.5	0.00e+00	0	29	0	1152385024	52	6512
2026-01-14 21:51:18.72	339.95	8.64	-39.1	-40.2	21.3	0.00e+00	0	29	0	1159725056	52	5883
2026-01-14 21:51:22.75	339.53	8.39	-38.7	-39.7	21.6	0.00e+00	0	29	0	1168113664	50	6237
2026-01-14 21:51:26.79	339.11	8.13	-39.3	-40.5	21.0	0.00e+00	79	29	0	1175453696	50	6797
2026-01-14 21:51:30.83	338.70	7.87	-39.8	-41.0	20.6	0.00e+00	0	29	0	1182793728	50	7232
2026-01-14 21:51:34.87	338.30	7.62	-39.5	-40.8	20.7	0.00e+00	0	29	0	1190133760	52	6246
2026-01-14 21:51:38.91	337.91	7.36	-39.1	-40.3	21.2	0.00e+00	0	29	0	1197473792	52	5927
2026-01-14 21:51:42.95	337.52	7.11	-39.5	-40.7	20.7	0.00e+00	81	29	0	1205862400	52	6209
2026-01-14 21:51:46.99	337.14	6.86	-39.8	-41.1	20.4	0.00e+00	0	29	0	1213202432	52	6537
2026-01-14 21:51:51.03	336.77	6.61	-40.1	-41.5	19.8	0.00e+00	0	29	0	1220542464	52	6834
2026-01-14 21:51:55.07	336.40	6.36	-40.9	-42.4	19.0	0.00e+00	73	29	0	1227882496	54	6755
2026-01-14 21:51:59.11	336.04	6.11	-41.4	-43.1	18.2	0.00e+00	0	29	0	1236271104	54	7306
2026-01-14 21:52:03.14	335.68	5.86	-41.9	-44.1	16.9	0.00e+00	0	29	0	1243611136	56	7260
2026-01-14 21:52:07.18	335.34	5.62	-42.6	-45.4	14.8	7.00e-07	0	29	0	1250951168	56	8474
2026-01-14 21:52:11.22	334.99	5.37	-43.0	-47.4	11.2	5.38e-04	74	29	0	1258291200	58	9474
2026-01-14 21:52:15.26	334.66	5.13	-43.4	-50.0	7.5	7.73e-02	33	29	0	1265631232	58	12768
2026-01-14 21:52:19.30	334.33	4.89	-43.5	-51.9	5.1	5.44e-01	0	29	0	1274019840	58	15937
2026-01-14 21:52:23.33	334.00	4.65	-43.6	-53.7	3.9	1.30e+00	31	29	0	1280311296	58	19740
2026-01-14 21:52:27.37	333.68	4.41	-43.6	-55.4	4.0	1.47e+00	0	29	104	1281359872	58	23767
2026-01-14 21:52:31.41	333.37	4.17	-43.7	-53.9	4.0	1.35e+00	80	29	0	1281359872	58	20008
2026-01-14 21:52:35.45	333.06	3.93	-43.7	-52.7	4.6	7.33e-01	0	29	0	1288699904	60	15542
2026-01-14 21:52:39.49	332.76	3.70	-43.8	-51.8	5.3	4.40e-01	71	29	0	1296039936	60	14093
2026-01-14 21:52:43.53	332.46	3.46	-44.0	-51.8	5.9	3.15e-01	42	29	0	1304428544	60	14036
2026-01-14 21:52:47.57	332.17	3.23	-44.2	-51.9	5.9	3.04e-01	0	29	0	1311768576	60	14156
2026-01-14 21:52:51.60	331.88	3.00	-46.5	-60.0	3.6	4.30e-01	0	29	104	1319108608	60	35961
2026-01-14 21:52:55.64	331.60	2.77	-48.6	-63.8	3.6	1.51e+00	0	29	104	1319108608	60	56043
2026-01-14 21:52:59.68	331.32	2.54	-48.8	-64.0	3.6	1.51e+00	0	29	104	1319108608	60	57178
2026-01-14 21:53:03.72	331.04	2.31	-48.7	-64.0	3.6	1.51e+00	0	29	104	1319108608	60	57046
2026-01-14 21:53:07.76	330.77	2.09	-49.1	-64.3	3.6	1.51e+00	0	29	104	1319108608	60	59041
2026-01-14 21:53:11.80	330.51	1.86	-48.9	-64.1	3.6	1.51e+00	0	29	104	1319108608	60	57660
2026-01-14 21:53:15.84	330.25	1.64	-48.8	-64.0	3.6	1.51e+00	0	29	104	1319108608	60	57220
2026-01-14 21:53:19.87	329.99	1.41	-48.8	-64.0	3.6	1.51e+00	0	29	104	1319108608	60	57114
2026-01-14 21:53:23.91	329.74	1.19	-48.8	-64.0	3.5	1.51e+00	0	29	104	1319108608	60	57016
2026-01-14 21:53:27.95	329.49	0.97	-48.8	-64.0	3.6	1.51e+00	0	29	104	1319108608	60	57032
2026-01-14 21:53:31.99	329.24	0.75	-48.7	-63.9	3.6	1.51e+00	0	29	104	1319108608	60	56783
2026-01-14 21:53:36.03	329.00	0.53	-48.7	-63.9	3.6	1.51e+00	0	29	104	1319108608	60	56903
2026-01-14 21:53:40.07	328.76	0.31	-48.7	-63.9	3.6	1.51e+00	0	29	104	1319108608	60	56522
2026-01-14 21:53:44.11	328.53	0.10	-48.7	-63.9	3.6	1.51e+00	0	29	104	1319108608	60	56409

#Closed at: 2026-01-14 21:53:47
#Recorded file [1319 MB]: D:/lorett/data/35029_260115_094004.dat