passes_logs/2026/01/14/R4.6S_Anadyr/R4.6S_Anadyr__20260114_073740_TY-42_rec.log

#Pass ID: 20260114_073740_TY-42
#Satellite: TY-42
#Configuration: TY-42_900M
#almurnet v.1.7.20251203
#Start time: 2026-01-14 07:38:13

#Version: 2.2.20231116
#Station: R4.6S_Anadyr
#Location: 177.4865 lon 64.73178 lat
#TLE: 1 64048U 25103A   26014.26833333  .00008011  00000-0  38191-3 0 09992
#TLE: 2 64048 097.4118 089.6996 0001685 091.1025 050.2393 15.19172418 36706

#Time	Az	El	Level	Level2	SNR	BER	BlckErr	Temp	State	Recorded	gain1	gain2
2026-01-14 07:38:13.26	107.50	1.96	-49.0	-66.8	3.5	3.02e+01	0	26	0	0	60	83744
2026-01-14 07:38:16.28	107.24	2.14	-46.6	-49.3	6.1	0.00e+00	0	27	104	0	60	35568
2026-01-14 07:38:19.31	106.97	2.33	-46.6	-49.3	6.1	0.00e+00	0	27	104	0	60	35594
2026-01-14 07:38:22.34	106.69	2.52	-46.6	-49.2	6.1	0.00e+00	0	27	104	0	60	35433
2026-01-14 07:38:25.36	106.41	2.71	-46.6	-49.2	6.1	0.00e+00	0	27	104	0	60	35480
2026-01-14 07:38:28.39	106.13	2.90	-46.6	-49.3	6.1	0.00e+00	0	28	104	0	60	35623
2026-01-14 07:38:31.42	105.84	3.09	-46.6	-49.3	6.1	0.00e+00	0	28	104	0	60	35628
2026-01-14 07:38:34.45	105.55	3.29	-46.6	-49.3	6.1	0.00e+00	0	28	104	0	60	35644
2026-01-14 07:38:37.48	105.25	3.48	-46.6	-49.3	6.1	0.00e+00	0	28	104	0	60	35580
2026-01-14 07:38:40.50	104.94	3.68	-46.6	-49.3	6.1	0.00e+00	0	28	104	0	60	35593
2026-01-14 07:38:43.53	104.63	3.88	-46.6	-49.3	6.1	0.00e+00	0	28	104	0	60	35725
2026-01-14 07:38:46.55	104.32	4.07	-46.6	-49.3	6.1	0.00e+00	0	28	104	0	60	35850
2026-01-14 07:38:49.58	104.00	4.27	-47.0	-49.6	6.1	0.00e+00	0	28	104	0	60	36908
2026-01-14 07:38:52.60	103.67	4.47	-47.1	-49.7	6.1	0.00e+00	0	28	104	0	60	37432
2026-01-14 07:38:55.63	103.34	4.68	-46.9	-49.5	6.1	0.00e+00	0	28	104	0	60	36629
2026-01-14 07:38:58.66	103.00	4.88	-46.9	-49.6	6.1	0.00e+00	0	28	104	0	60	37012
2026-01-14 07:39:01.69	102.66	5.08	-47.4	-50.0	6.1	0.00e+00	0	28	104	0	60	38627
2026-01-14 07:39:04.72	102.31	5.29	-47.3	-49.9	6.1	0.00e+00	0	28	104	0	60	38410
2026-01-14 07:39:07.74	101.95	5.50	-47.1	-49.7	6.1	0.00e+00	0	29	104	0	60	37456
2026-01-14 07:39:10.77	101.59	5.70	-47.0	-49.6	6.1	0.00e+00	0	29	104	0	60	36977
2026-01-14 07:39:13.79	101.22	5.91	-33.0	-33.4	10.4	0.00e+00	579	29	104	0	38	20252
2026-01-14 07:39:16.82	100.84	6.13	-28.0	-28.5	15.8	3.47e-03	0	29	0	125829120	32	16393
2026-01-14 07:39:19.85	100.46	6.34	-27.6	-28.2	16.0	1.13e-03	0	29	0	469762048	30	17606
2026-01-14 07:39:22.87	100.07	6.55	-27.4	-27.9	16.1	5.78e-04	0	29	0	805306368	30	17159
2026-01-14 07:39:25.90	99.67	6.77	-27.5	-27.9	16.0	6.76e-04	0	29	0	1149239296	30	17185
2026-01-14 07:39:28.93	99.26	6.98	-27.1	-27.6	16.4	3.16e-04	0	29	0	1493172224	30	16441
2026-01-14 07:39:31.96	98.84	7.20	-26.8	-27.3	16.3	2.62e-04	0	29	0	1828716544	30	15963
2026-01-14 07:39:34.98	98.42	7.42	-26.8	-27.2	16.5	3.11e-04	0	29	0	2172649472	28	17800
2026-01-14 07:39:38.01	97.99	7.64	-26.7	-27.2	16.4	1.91e-04	0	29	0	2508193792	28	17750
2026-01-14 07:39:41.04	97.55	7.86	-26.6	-27.1	16.3	2.40e-04	0	29	0	2852126720	28	17550
2026-01-14 07:39:44.07	97.11	8.08	-26.6	-27.1	16.6	1.69e-04	0	29	0	3196059648	28	17493
2026-01-14 07:39:47.10	96.65	8.31	-26.4	-26.9	16.5	1.74e-04	0	30	0	3531603968	28	17131
2026-01-14 07:39:50.13	96.19	8.53	-26.4	-26.8	16.5	1.47e-04	0	30	0	3875536896	28	16948
2026-01-14 07:39:53.16	95.71	8.76	-26.3	-26.8	16.6	8.71e-05	0	30	0	4211081216	28	16899
2026-01-14 07:39:56.18	95.23	8.98	-26.3	-26.8	16.7	1.25e-04	0	30	0	4555014144	28	16854
2026-01-14 07:39:59.21	94.74	9.21	-26.1	-26.6	16.5	6.53e-05	0	30	0	4890558464	28	16482
2026-01-14 07:40:02.24	94.23	9.44	-25.9	-26.4	16.5	9.80e-05	0	30	0	5234491392	28	16116
2026-01-14 07:40:05.27	93.72	9.67	-25.8	-26.3	16.7	1.09e-04	0	30	0	5570035712	28	15965
2026-01-14 07:40:08.30	93.20	9.90	-25.9	-26.4	16.7	5.44e-05	0	30	0	5913968640	26	18040
2026-01-14 07:40:11.33	92.67	10.13	-25.5	-26.0	16.9	3.26e-05	0	30	0	6257901568	26	17276
2026-01-14 07:40:14.36	92.12	10.36	-25.6	-26.1	17.0	2.17e-05	0	30	0	6593445888	26	17578
2026-01-14 07:40:17.39	91.57	10.60	-25.5	-25.9	17.0	5.40e-06	0	30	0	6937378816	26	17192
2026-01-14 07:40:20.42	91.00	10.83	-25.3	-25.8	16.9	2.17e-05	0	30	0	7281311744	26	16833
2026-01-14 07:40:23.45	90.43	11.07	-25.1	-25.6	16.9	5.40e-06	0	30	0	7616856064	26	16540
2026-01-14 07:40:26.48	89.84	11.30	-25.1	-25.6	17.0	5.40e-06	0	30	0	7960788992	26	16567
2026-01-14 07:40:29.50	89.24	11.54	-24.9	-25.4	17.0	1.08e-05	0	30	0	8304721920	26	16144
2026-01-14 07:40:32.53	88.63	11.77	-24.6	-25.1	17.1	0.00e+00	0	30	0	8648654848	24	17528
2026-01-14 07:40:35.56	88.01	12.01	-24.7	-25.2	17.0	0.00e+00	0	30	0	8984199168	24	17731
2026-01-14 07:40:38.59	87.37	12.24	-24.6	-25.1	17.0	5.40e-06	0	30	0	9328132096	24	17516
2026-01-14 07:40:41.61	86.73	12.48	-24.4	-24.9	17.1	1.08e-05	0	30	0	9663676416	24	17070
2026-01-14 07:40:44.64	86.06	12.71	-24.3	-24.8	17.1	1.08e-05	0	30	0	10007609344	24	16871
2026-01-14 07:40:47.67	85.39	12.95	-24.4	-24.8	17.1	5.40e-06	0	30	0	10351542272	24	16959
2026-01-14 07:40:50.70	84.70	13.18	-24.2	-24.6	17.1	0.00e+00	0	30	0	10687086592	24	16607
2026-01-14 07:40:53.73	84.00	13.42	-24.1	-24.5	17.1	0.00e+00	0	30	0	11031019520	24	16426
2026-01-14 07:40:56.75	83.29	13.65	-24.3	-24.8	17.1	0.00e+00	0	30	0	11366563840	24	16906
2026-01-14 07:40:59.78	82.57	13.88	-24.1	-24.5	17.2	0.00e+00	0	30	0	11710496768	24	16384
2026-01-14 07:41:02.81	81.83	14.11	-24.4	-24.8	17.1	0.00e+00	0	30	0	12046041088	24	16923
2026-01-14 07:41:05.84	81.07	14.34	-24.4	-24.9	17.1	5.40e-06	0	30	0	12389974016	24	17074
2026-01-14 07:41:08.87	80.30	14.57	-24.0	-24.4	17.0	0.00e+00	0	30	0	12725518336	24	16222
2026-01-14 07:41:11.90	79.52	14.80	-23.6	-24.1	16.7	5.40e-06	0	30	0	13069451264	22	17429
2026-01-14 07:41:14.93	78.72	15.02	-23.6	-24.1	17.1	0.00e+00	0	30	0	13413384192	22	17425
2026-01-14 07:41:17.96	77.91	15.25	-23.6	-24.0	17.2	0.00e+00	0	30	0	13748928512	22	17378
2026-01-14 07:41:20.99	77.09	15.47	-23.4	-23.9	16.6	5.40e-06	0	30	0	14092861440	22	17040
2026-01-14 07:41:24.02	76.25	15.68	-23.4	-23.9	16.6	1.63e-05	0	30	0	14436794368	22	17036
2026-01-14 07:41:27.05	75.39	15.90	-23.4	-23.8	17.2	5.40e-06	0	31	0	14772338688	22	16948
2026-01-14 07:41:30.08	74.53	16.11	-23.4	-23.8	17.2	5.40e-06	0	31	0	15116271616	22	16947
2026-01-14 07:41:33.11	73.64	16.31	-23.2	-23.7	17.3	0.00e+00	0	31	0	15460204544	22	16653
2026-01-14 07:41:36.14	72.75	16.52	-23.1	-23.5	17.1	0.00e+00	0	31	0	15795748864	22	16346
2026-01-14 07:41:39.17	71.84	16.71	-23.1	-23.5	16.8	0.00e+00	0	31	0	16139681792	22	16374
2026-01-14 07:41:42.19	70.91	16.91	-22.9	-23.4	16.8	1.63e-05	0	31	0	16483614720	22	16102
2026-01-14 07:41:45.22	69.97	17.10	-23.1	-23.5	17.2	0.00e+00	0	31	0	16827547648	22	16375
2026-01-14 07:41:48.25	69.02	17.28	-23.0	-23.4	17.1	0.00e+00	0	31	0	17163091968	22	16186
2026-01-14 07:41:51.28	68.06	17.46	-22.8	-23.2	17.2	0.00e+00	0	31	0	17507024896	20	17701
2026-01-14 07:41:54.30	67.08	17.63	-22.6	-23.0	17.1	0.00e+00	0	31	0	17842569216	20	17337
2026-01-14 07:41:57.33	66.09	17.79	-22.8	-23.3	16.6	0.00e+00	0	31	0	18186502144	20	17837
2026-01-14 07:42:00.36	65.09	17.95	-22.7	-23.1	17.0	0.00e+00	0	31	0	18522046464	20	17576
2026-01-14 07:42:03.39	64.07	18.11	-22.5	-23.0	17.1	0.00e+00	0	31	0	18865979392	20	17311
2026-01-14 07:42:06.41	63.05	18.25	-22.7	-23.2	17.1	0.00e+00	0	31	0	19201523712	20	17636
2026-01-14 07:42:09.44	62.01	18.39	-22.5	-22.9	17.0	0.00e+00	0	31	0	19545456640	20	17177
2026-01-14 07:42:12.47	60.96	18.52	-22.5	-22.9	16.6	0.00e+00	0	31	0	19881000960	20	17079
2026-01-14 07:42:15.50	59.90	18.64	-22.5	-22.9	16.1	0.00e+00	0	31	0	20224933888	20	17051
2026-01-14 07:42:18.52	58.84	18.76	-22.4	-22.9	16.9	5.40e-06	0	31	0	20568866816	20	17109
2026-01-14 07:42:21.55	57.76	18.86	-22.5	-22.9	16.6	0.00e+00	0	31	0	20904411136	20	17137
2026-01-14 07:42:24.58	56.67	18.96	-22.5	-23.0	16.6	5.40e-06	0	31	0	21248344064	20	17215
2026-01-14 07:42:27.61	55.58	19.04	-22.6	-23.1	16.8	5.40e-06	0	31	0	21583888384	20	17435
2026-01-14 07:42:30.63	54.48	19.12	-22.5	-23.0	16.8	0.00e+00	0	31	0	21927821312	20	17209
2026-01-14 07:42:33.66	53.38	19.19	-22.5	-23.0	16.7	5.40e-06	0	31	0	22271754240	20	17217
2026-01-14 07:42:36.68	52.27	19.25	-22.9	-23.3	16.6	0.00e+00	0	31	0	22615687168	20	17943
2026-01-14 07:42:39.71	51.16	19.30	-22.9	-23.3	16.7	0.00e+00	0	31	0	22951231488	20	17821
2026-01-14 07:42:42.74	50.04	19.33	-22.7	-23.1	16.7	0.00e+00	0	31	0	23295164416	20	17573
2026-01-14 07:42:45.77	48.92	19.36	-22.7	-23.1	16.7	0.00e+00	0	31	0	23630708736	20	17532
2026-01-14 07:42:48.79	47.80	19.38	-22.7	-23.1	16.8	0.00e+00	0	31	0	23974641664	20	17500
2026-01-14 07:42:51.82	46.67	19.39	-22.8	-23.2	16.8	0.00e+00	0	31	0	24310185984	20	17654
2026-01-14 07:42:54.85	45.55	19.39	-22.5	-22.9	16.9	0.00e+00	0	31	0	24654118912	20	17168
2026-01-14 07:42:57.88	44.42	19.38	-22.5	-22.9	16.9	0.00e+00	0	31	0	24998051840	20	17100
2026-01-14 07:43:00.91	43.30	19.35	-22.5	-22.9	17.0	0.00e+00	0	31	0	25333596160	20	17179
2026-01-14 07:43:03.94	42.18	19.32	-22.5	-22.9	17.1	1.08e-05	0	31	0	25677529088	20	17110
2026-01-14 07:43:06.97	41.06	19.28	-22.6	-23.1	17.0	0.00e+00	0	31	0	26021462016	20	17414
2026-01-14 07:43:10.00	39.95	19.22	-22.6	-23.0	17.0	0.00e+00	0	31	0	26357006336	20	17341
2026-01-14 07:43:13.03	38.84	19.16	-22.6	-23.1	17.0	0.00e+00	0	31	0	26700939264	20	17555
2026-01-14 07:43:16.06	37.74	19.09	-22.5	-23.0	17.2	0.00e+00	0	31	0	27036483584	20	17309
2026-01-14 07:43:19.08	36.65	19.01	-22.7	-23.2	17.0	0.00e+00	0	31	0	27380416512	20	17688
2026-01-14 07:43:22.11	35.56	18.92	-22.5	-23.1	17.2	0.00e+00	0	31	0	27715960832	20	17407
2026-01-14 07:43:25.14	34.48	18.82	-22.5	-23.0	17.0	0.00e+00	0	31	0	28059893760	20	17354
2026-01-14 07:43:28.16	33.41	18.71	-22.6	-23.1	17.2	0.00e+00	0	31	0	28395438080	20	17583
2026-01-14 07:43:31.19	32.35	18.59	-22.7	-23.2	17.2	0.00e+00	0	31	0	28739371008	20	17779
2026-01-14 07:43:34.22	31.30	18.47	-22.6	-23.1	17.2	0.00e+00	0	31	0	29083303936	20	17504
2026-01-14 07:43:37.25	30.26	18.33	-22.7	-23.2	17.1	0.00e+00	0	31	0	29427236864	20	17785
2026-01-14 07:43:40.28	29.22	18.19	-22.7	-23.2	17.1	0.00e+00	0	31	0	29762781184	20	17725
2026-01-14 07:43:43.30	28.21	18.05	-22.8	-23.3	17.1	0.00e+00	0	31	0	30106714112	20	17865
2026-01-14 07:43:46.34	27.20	17.89	-22.8	-23.4	17.1	0.00e+00	0	31	0	30450647040	20	18046
2026-01-14 07:43:49.37	26.20	17.73	-23.0	-23.5	17.1	0.00e+00	0	31	0	30786191360	20	18370
2026-01-14 07:43:52.40	25.22	17.56	-23.0	-23.5	17.2	0.00e+00	0	31	0	31130124288	20	18252
2026-01-14 07:43:55.43	24.25	17.39	-23.0	-23.5	17.1	0.00e+00	0	31	0	31474057216	20	18321
2026-01-14 07:43:58.46	23.29	17.21	-22.9	-23.4	17.2	0.00e+00	0	31	0	31809601536	20	18132
2026-01-14 07:44:01.48	22.35	17.02	-22.9	-23.4	17.3	0.00e+00	0	31	0	32153534464	20	18120
2026-01-14 07:44:04.51	21.42	16.83	-22.9	-23.4	17.2	0.00e+00	0	31	0	32489078784	20	18047
2026-01-14 07:44:07.54	20.50	16.64	-23.1	-23.6	17.2	0.00e+00	0	31	0	32833011712	20	18572
2026-01-14 07:44:10.57	19.60	16.44	-22.9	-23.4	17.3	0.00e+00	0	31	0	33168556032	20	18113
2026-01-14 07:44:13.60	18.72	16.23	-23.0	-23.5	17.3	0.00e+00	0	31	0	33512488960	20	18373
2026-01-14 07:44:16.63	17.84	16.03	-23.1	-23.7	17.3	0.00e+00	0	31	0	33856421888	20	18660
2026-01-14 07:44:19.66	16.98	15.81	-23.3	-23.8	17.3	0.00e+00	0	31	0	34191966208	20	18902
2026-01-14 07:44:22.68	16.14	15.60	-23.2	-23.8	17.3	0.00e+00	0	31	0	34535899136	20	18895
2026-01-14 07:44:25.71	15.31	15.38	-23.3	-23.8	17.3	0.00e+00	0	31	0	34871443456	20	19044
2026-01-14 07:44:28.74	14.50	15.16	-23.4	-23.9	17.3	0.00e+00	0	31	0	35215376384	20	19290
2026-01-14 07:44:31.77	13.69	14.94	-23.6	-24.1	17.3	0.00e+00	0	31	0	35550920704	20	19574
2026-01-14 07:44:34.79	12.91	14.72	-23.8	-24.3	17.3	5.40e-06	0	31	0	35894853632	20	20066
2026-01-14 07:44:37.82	12.14	14.49	-23.9	-24.4	17.3	0.00e+00	0	31	0	36238786560	22	18100
2026-01-14 07:44:40.85	11.38	14.26	-23.9	-24.4	17.2	0.00e+00	0	31	0	36574330880	22	18169
2026-01-14 07:44:43.88	10.63	14.04	-24.0	-24.5	17.2	0.00e+00	0	31	0	36918263808	22	18307
2026-01-14 07:44:46.90	9.90	13.81	-24.1	-24.6	17.3	0.00e+00	0	31	0	37262196736	22	18600
2026-01-14 07:44:49.93	9.19	13.57	-24.2	-24.7	17.3	0.00e+00	0	31	0	37606129664	22	18752
2026-01-14 07:44:52.96	8.48	13.34	-24.2	-24.7	17.2	0.00e+00	0	31	0	37941673984	22	18824
2026-01-14 07:44:55.99	7.79	13.11	-24.4	-24.8	17.2	0.00e+00	0	31	0	38285606912	22	19069
2026-01-14 07:44:59.02	7.11	12.87	-24.4	-24.8	17.3	0.00e+00	0	31	0	38621151232	22	19060
2026-01-14 07:45:02.04	6.45	12.64	-24.5	-24.9	17.3	5.40e-06	0	31	0	38965084160	22	19289
2026-01-14 07:45:05.08	5.80	12.40	-24.6	-25.1	17.3	0.00e+00	0	31	0	39309017088	22	19662
2026-01-14 07:45:08.10	5.16	12.17	-24.5	-25.0	17.3	1.63e-05	0	31	0	39644561408	22	19442
2026-01-14 07:45:11.13	4.53	11.93	-24.6	-25.1	17.2	0.00e+00	0	31	0	39988494336	22	19553
2026-01-14 07:45:14.16	3.92	11.70	-24.8	-25.2	17.2	0.00e+00	0	31	0	40324038656	24	17789
2026-01-14 07:45:17.19	3.31	11.47	-24.9	-25.3	17.2	0.00e+00	0	31	0	40667971584	24	17991
2026-01-14 07:45:20.22	2.72	11.23	-25.0	-25.4	17.2	0.00e+00	0	31	0	41003515904	24	18180
2026-01-14 07:45:23.25	2.14	11.00	-25.3	-25.7	17.1	5.40e-06	0	31	0	41347448832	24	18852
2026-01-14 07:45:26.28	1.57	10.76	-25.5	-25.9	17.0	0.00e+00	0	31	0	41691381760	24	19230
2026-01-14 07:45:29.31	1.02	10.53	-25.4	-25.8	17.0	0.00e+00	0	31	0	42026926080	24	18998
2026-01-14 07:45:32.33	0.47	10.30	-25.4	-25.8	17.1	2.17e-05	0	31	0	42370859008	24	18988
2026-01-14 07:45:35.36	359.93	10.07	-25.4	-25.9	17.1	1.08e-05	0	31	0	42706403328	24	19138
2026-01-14 07:45:38.38	359.41	9.84	-25.7	-26.1	17.0	1.63e-05	0	31	0	43050336256	24	19722
2026-01-14 07:45:41.41	358.90	9.61	-25.7	-26.1	17.0	1.08e-05	0	31	0	43385880576	26	17547
2026-01-14 07:45:44.44	358.39	9.38	-25.9	-26.3	17.0	4.35e-05	0	31	0	43729813504	26	17946
2026-01-14 07:45:47.47	357.89	9.15	-26.0	-26.5	16.9	2.17e-05	0	31	0	44073746432	26	18226
2026-01-14 07:45:50.50	357.41	8.93	-48.1	-50.6	6.1	2.17e-05	0	31	104	44174409728	60	41539
2026-01-14 07:45:53.53	356.93	8.70	-48.1	-50.6	6.1	2.17e-05	0	31	104	44174409728	60	41501
2026-01-14 07:45:56.56	356.47	8.48	-48.1	-50.5	6.1	0.00e+00	0	31	104	44174409728	60	41147
2026-01-14 07:45:59.59	356.01	8.25	-48.1	-50.6	6.1	0.00e+00	0	31	104	44174409728	60	41609
2026-01-14 07:46:02.62	355.56	8.03	-48.1	-50.6	6.1	0.00e+00	0	31	104	44174409728	60	41497
2026-01-14 07:46:05.65	355.12	7.81	-48.1	-50.6	6.1	0.00e+00	0	31	104	44174409728	60	41428
2026-01-14 07:46:08.67	354.68	7.59	-48.0	-50.5	6.1	0.00e+00	0	31	104	44174409728	60	40956
2026-01-14 07:46:11.70	354.26	7.37	-48.0	-50.5	6.1	0.00e+00	0	31	104	44174409728	60	40905
2026-01-14 07:46:14.73	353.84	7.16	-48.2	-50.7	6.1	0.00e+00	0	31	104	44174409728	60	41781
2026-01-14 07:46:17.76	353.44	6.94	-48.1	-50.6	6.1	0.00e+00	0	31	104	44174409728	60	41686
2026-01-14 07:46:20.78	353.04	6.72	-47.9	-50.4	6.1	0.00e+00	0	31	104	44174409728	60	40594
2026-01-14 07:46:23.81	352.64	6.51	-47.8	-50.3	6.1	0.00e+00	0	31	104	44174409728	60	40119
2026-01-14 07:46:26.84	352.26	6.30	-48.0	-50.5	6.1	0.00e+00	0	31	104	44174409728	60	41111
2026-01-14 07:46:29.87	351.88	6.09	-47.9	-50.4	6.1	0.00e+00	0	31	104	44174409728	60	40720
2026-01-14 07:46:32.89	351.51	5.88	-47.8	-50.3	6.1	0.00e+00	0	31	104	44174409728	60	40090
2026-01-14 07:46:35.92	351.14	5.67	-47.7	-50.2	6.1	0.00e+00	0	31	104	44174409728	60	39760
2026-01-14 07:46:38.95	350.78	5.46	-47.9	-50.4	6.1	0.00e+00	0	31	104	44174409728	60	40680
2026-01-14 07:46:41.98	350.43	5.26	-47.9	-50.4	6.1	0.00e+00	0	31	104	44174409728	60	40444
2026-01-14 07:46:45.00	350.09	5.05	-47.8	-50.3	6.1	0.00e+00	0	31	104	44174409728	60	40029
2026-01-14 07:46:48.03	349.75	4.85	-47.8	-50.2	6.1	0.00e+00	0	31	104	44174409728	60	39632
2026-01-14 07:46:51.06	349.41	4.65	-47.8	-50.3	6.1	0.00e+00	0	31	104	44174409728	60	40324
2026-01-14 07:46:54.08	349.09	4.45	-47.7	-50.2	6.1	0.00e+00	0	31	104	44174409728	60	39727
2026-01-14 07:46:57.11	348.77	4.25	-47.1	-49.6	6.1	0.00e+00	0	31	104	44174409728	60	36840
2026-01-14 07:47:00.14	348.45	4.05	-46.6	-49.1	6.1	0.00e+00	0	31	104	44174409728	60	34864
2026-01-14 07:47:03.17	348.14	3.85	-45.7	-48.2	6.1	0.00e+00	0	31	104	44174409728	60	31619
2026-01-14 07:47:06.20	347.83	3.65	-45.0	-47.5	6.1	0.00e+00	0	30	104	44174409728	60	28892
2026-01-14 07:47:09.22	347.54	3.46	-44.6	-47.1	6.1	0.00e+00	0	31	104	44174409728	60	27706
2026-01-14 07:47:12.25	347.24	3.27	-44.1	-46.6	6.1	0.00e+00	0	31	104	44174409728	60	26309
2026-01-14 07:47:15.28	346.95	3.07	-44.2	-46.7	6.1	0.00e+00	0	31	104	44174409728	60	26396
2026-01-14 07:47:18.30	346.67	2.88	-47.7	-50.3	6.1	0.00e+00	0	31	104	44174409728	60	40266
2026-01-14 07:47:21.33	346.39	2.69	-48.8	-51.3	6.1	0.00e+00	0	31	104	44174409728	60	45139
2026-01-14 07:47:24.36	346.11	2.50	-49.1	-51.6	6.1	0.00e+00	0	31	104	44174409728	60	46747
2026-01-14 07:47:27.39	345.84	2.32	-48.9	-51.4	6.1	0.00e+00	0	31	104	44174409728	60	45459
2026-01-14 07:47:30.41	345.58	2.13	-49.0	-51.5	6.1	0.00e+00	0	31	104	44174409728	60	46061
2026-01-14 07:47:33.44	345.32	1.94	-49.0	-51.5	6.1	0.00e+00	0	31	104	44174409728	60	46076
2026-01-14 07:47:36.47	345.06	1.76	-49.0	-51.4	6.1	0.00e+00	0	31	104	44174409728	60	45651
2026-01-14 07:47:39.50	344.81	1.58	-48.9	-51.4	6.1	0.00e+00	0	31	104	44174409728	60	45527
2026-01-14 07:47:42.53	344.56	1.39	-49.0	-51.4	6.1	0.00e+00	0	31	104	44174409728	60	45534
2026-01-14 07:47:45.56	344.31	1.21	-49.0	-51.4	6.1	0.00e+00	0	31	104	44174409728	60	45476
2026-01-14 07:47:48.59	344.07	1.03	-49.0	-51.4	6.1	0.00e+00	0	31	104	44174409728	60	45637
2026-01-14 07:47:51.61	343.84	0.85	-48.9	-51.5	6.1	0.00e+00	0	31	104	44174409728	60	45873
2026-01-14 07:47:54.64	343.61	0.68	-48.9	-51.4	6.1	0.00e+00	0	30	104	44174409728	60	45750
2026-01-14 07:47:57.67	343.38	0.50	-49.0	-51.4	6.1	0.00e+00	0	30	104	44174409728	60	45745
2026-01-14 07:48:00.69	343.15	0.32	-49.0	-51.4	6.1	0.00e+00	0	31	104	44174409728	60	45569
2026-01-14 07:48:03.73	342.93	0.15	-48.9	-51.4	6.1	0.00e+00	0	31	104	44174409728	60	45471
2026-01-14 07:48:06.76	342.71	-0.03	-48.9	-51.4	6.1	0.00e+00	0	31	104	44174409728	60	45643

#Closed at: 2026-01-14 07:48:07
#Recorded file [44174 MB]: D:/lorett/data/35029_260114_193813.dat