passes_logs/2026/01/14/R4.6S_Anadyr/R4.6S_Anadyr__20260114_032231_NOAA_20_JPSS-1_rec.log

#Pass ID: 20260114_032231_NOAA 20 (JPSS-1)
#Satellite: NOAA 20 (JPSS-1)
#Configuration: NOAA 20
#almurnet v.1.7.20251203
#Start time: 2026-01-14 03:22:34

#Version: 2.2.20231116
#Station: R4.6S_Anadyr
#Location: 177.4865 lon 64.73178 lat
#TLE: 1 43013U 17073A   26013.56788096  .00000060  00000+0  49292-4 0  9995
#TLE: 2 43013  98.7633 314.5224 0001558  41.3934 318.7360 14.19535692422532

#Time	Az	El	Level	Level2	SNR	BER	BlckErr	Temp	State	Recorded	gain1	gain2
2026-01-14 03:22:34.28	242.07	0.13	-48.6	-62.4	3.3	1.54e+00	0	29	0	0	60	47581
2026-01-14 03:22:37.31	242.36	0.25	-48.6	-63.8	3.6	1.51e+00	0	29	104	0	60	55898
2026-01-14 03:22:40.34	242.65	0.38	-48.8	-63.9	3.6	1.51e+00	0	29	104	0	60	56883
2026-01-14 03:22:43.37	242.95	0.50	-48.7	-63.9	3.6	1.51e+00	0	29	104	0	60	56649
2026-01-14 03:22:46.40	243.24	0.62	-48.4	-63.6	3.6	1.51e+00	0	29	104	0	60	54683
2026-01-14 03:22:49.43	243.54	0.75	-47.1	-62.2	3.6	1.51e+00	0	29	104	0	60	46574
2026-01-14 03:22:52.46	243.84	0.87	-47.1	-62.2	3.6	1.51e+00	0	29	104	0	60	46726
2026-01-14 03:22:55.49	244.14	0.99	-47.1	-62.2	3.6	1.51e+00	0	29	104	0	60	46447
2026-01-14 03:22:58.52	244.45	1.12	-47.1	-62.1	3.6	1.51e+00	0	29	104	0	60	46193
2026-01-14 03:23:01.55	244.75	1.24	-47.0	-62.1	3.6	1.51e+00	0	29	104	0	60	46275
2026-01-14 03:23:04.58	245.06	1.36	-47.1	-62.2	3.6	1.51e+00	0	29	104	0	60	46516
2026-01-14 03:23:07.61	245.38	1.48	-47.0	-62.2	3.6	1.51e+00	0	29	104	0	60	46382
2026-01-14 03:23:10.63	245.69	1.61	-47.0	-62.2	3.6	1.51e+00	0	29	104	0	60	46305
2026-01-14 03:23:13.67	246.01	1.73	-47.0	-62.1	3.6	1.51e+00	0	29	104	0	60	46193
2026-01-14 03:23:16.70	246.33	1.85	-47.0	-62.2	3.6	1.51e+00	0	29	104	0	60	46409
2026-01-14 03:23:19.72	246.65	1.97	-47.0	-62.1	3.6	1.51e+00	0	29	104	0	60	46074
2026-01-14 03:23:22.75	246.97	2.09	-47.0	-62.1	3.6	1.51e+00	0	29	104	0	60	46022
2026-01-14 03:23:25.78	247.30	2.22	-47.0	-62.1	3.6	1.51e+00	0	29	104	0	60	46047
2026-01-14 03:23:28.81	247.63	2.34	-47.0	-62.1	3.6	1.51e+00	0	30	104	0	60	46001
2026-01-14 03:23:31.84	247.96	2.46	-47.0	-61.8	3.6	1.51e+00	0	29	104	0	60	44500
2026-01-14 03:23:34.87	248.30	2.58	-47.0	-61.8	3.6	1.51e+00	0	29	104	0	60	44352
2026-01-14 03:23:37.91	248.64	2.70	-46.9	-60.0	3.7	1.51e+00	0	29	104	0	60	36125
2026-01-14 03:23:40.94	248.98	2.82	-46.8	-58.3	3.8	1.50e+00	0	29	104	0	60	29684
2026-01-14 03:23:43.97	249.32	2.94	-44.9	-49.1	11.8	2.53e-03	91	29	0	3145728	60	10324
2026-01-14 03:23:46.99	249.67	3.06	-47.4	-61.8	3.6	5.08e-01	0	30	104	8388608	60	44503
2026-01-14 03:23:50.02	250.01	3.18	-46.8	-60.1	3.7	1.49e+00	0	29	104	8388608	60	36714
2026-01-14 03:23:53.05	250.37	3.30	-40.7	-42.2	19.1	0.00e+00	92	29	0	11534336	54	6559
2026-01-14 03:23:56.08	250.72	3.42	-40.4	-41.8	19.5	0.00e+00	92	29	0	16777216	54	6306
2026-01-14 03:23:59.11	251.08	3.53	-40.5	-41.9	19.2	0.00e+00	92	29	0	23068672	54	6386
2026-01-14 03:24:02.13	251.43	3.65	-40.6	-42.1	19.4	0.00e+00	92	29	0	28311552	54	6487
2026-01-14 03:24:05.16	251.80	3.77	-40.3	-41.7	19.8	0.00e+00	92	29	0	34603008	54	6179
2026-01-14 03:24:08.20	252.16	3.89	-40.3	-41.7	19.6	0.00e+00	30	29	0	39845888	54	6241
2026-01-14 03:24:11.22	252.53	4.00	-40.5	-41.9	19.4	0.00e+00	92	29	0	45088768	54	6387
2026-01-14 03:24:14.25	252.90	4.12	-40.4	-41.8	19.7	0.00e+00	92	29	0	51380224	54	6300
2026-01-14 03:24:17.29	253.27	4.23	-40.1	-41.5	19.9	0.00e+00	0	29	0	56623104	54	6066
2026-01-14 03:24:20.31	253.65	4.35	-40.0	-41.3	20.1	0.00e+00	92	29	0	62914560	54	5924
2026-01-14 03:24:23.34	254.03	4.46	-40.1	-41.5	20.0	0.00e+00	91	29	0	68157440	54	6069
2026-01-14 03:24:26.37	254.41	4.58	-40.2	-41.5	20.0	0.00e+00	0	29	0	73400320	54	6064
2026-01-14 03:24:29.40	254.79	4.69	-40.1	-41.4	20.2	0.00e+00	91	29	0	79691776	54	6028
2026-01-14 03:24:32.43	255.18	4.80	-40.0	-41.3	20.3	0.00e+00	92	29	0	84934656	54	5902
2026-01-14 03:24:35.46	255.57	4.92	-39.9	-41.2	20.4	0.00e+00	90	29	0	91226112	54	5868
2026-01-14 03:24:38.49	255.97	5.03	-40.0	-41.3	20.4	0.00e+00	32	29	0	96468992	54	5937
2026-01-14 03:24:41.52	256.36	5.14	-39.8	-41.0	20.6	0.00e+00	92	29	0	102760448	52	6434
2026-01-14 03:24:44.55	256.76	5.25	-39.8	-41.1	20.4	0.00e+00	92	29	0	108003328	52	6506
2026-01-14 03:24:47.58	257.16	5.36	-39.8	-41.0	20.7	0.00e+00	56	29	0	113246208	52	6420
2026-01-14 03:24:50.61	257.57	5.47	-40.1	-41.4	20.3	0.00e+00	92	29	0	119537664	52	6701
2026-01-14 03:24:53.64	257.98	5.58	-40.1	-41.4	20.2	0.00e+00	92	29	0	124780544	52	6767
2026-01-14 03:24:56.67	258.39	5.68	-40.0	-41.3	20.4	0.00e+00	0	29	0	131072000	52	6652
2026-01-14 03:24:59.70	258.80	5.79	-40.4	-41.8	19.9	0.00e+00	90	29	0	136314880	52	7011
2026-01-14 03:25:02.73	259.22	5.90	-40.4	-41.8	19.9	0.00e+00	90	29	0	141557760	52	7058
2026-01-14 03:25:05.76	259.64	6.00	-40.2	-41.5	20.3	0.00e+00	92	29	0	147849216	52	6820
2026-01-14 03:25:08.78	260.06	6.11	-40.3	-41.6	20.2	0.00e+00	92	29	0	153092096	52	6892
2026-01-14 03:25:11.81	260.48	6.21	-40.1	-41.3	20.4	0.00e+00	90	29	0	159383552	52	6692
2026-01-14 03:25:14.84	260.91	6.31	-40.1	-41.4	20.5	0.00e+00	92	29	0	164626432	52	6699
2026-01-14 03:25:17.87	261.34	6.41	-40.2	-41.5	20.3	0.00e+00	0	29	0	170917888	52	6771
2026-01-14 03:25:20.90	261.78	6.51	-39.9	-41.2	20.7	0.00e+00	92	29	0	176160768	52	6573
2026-01-14 03:25:23.93	262.21	6.61	-40.1	-41.4	20.4	0.00e+00	90	29	0	181403648	52	6722
2026-01-14 03:25:26.96	262.65	6.71	-40.0	-41.3	20.6	0.00e+00	20	29	0	187695104	52	6653
2026-01-14 03:25:29.99	263.09	6.81	-39.9	-41.2	20.6	0.00e+00	92	29	0	192937984	52	6554
2026-01-14 03:25:33.02	263.54	6.90	-39.7	-40.9	20.9	0.00e+00	92	29	0	199229440	52	6340
2026-01-14 03:25:36.05	263.99	7.00	-39.7	-40.9	20.9	0.00e+00	75	29	0	204472320	52	6362
2026-01-14 03:25:39.08	264.44	7.09	-39.9	-41.2	20.6	0.00e+00	0	29	0	209715200	52	6572
2026-01-14 03:25:42.10	264.89	7.19	-40.2	-41.5	20.6	0.00e+00	92	29	0	216006656	54	6060
2026-01-14 03:25:45.13	265.35	7.28	-39.9	-41.2	20.7	0.00e+00	90	29	0	221249536	54	5831
2026-01-14 03:25:48.16	265.81	7.37	-39.9	-41.1	20.8	0.00e+00	58	29	0	227540992	54	5821
2026-01-14 03:25:51.19	266.27	7.46	-40.0	-41.3	20.6	0.00e+00	92	29	0	232783872	54	5924
2026-01-14 03:25:54.22	266.73	7.54	-40.0	-41.2	20.7	0.00e+00	92	29	0	238026752	54	5872
2026-01-14 03:25:57.24	267.20	7.63	-40.0	-41.2	20.7	0.00e+00	8	29	0	244318208	54	5874
2026-01-14 03:26:00.27	267.67	7.72	-40.2	-41.5	20.5	0.00e+00	92	29	0	249561088	54	6065
2026-01-14 03:26:03.30	268.14	7.80	-40.2	-41.4	20.5	0.00e+00	92	29	0	255852544	54	6026
2026-01-14 03:26:06.33	268.62	7.88	-40.3	-41.6	20.4	0.00e+00	0	29	0	261095424	54	6105
2026-01-14 03:26:09.36	269.09	7.96	-40.4	-41.7	20.3	0.00e+00	92	29	0	267386880	54	6180
2026-01-14 03:26:12.39	269.57	8.04	-40.3	-41.6	20.3	0.00e+00	90	29	0	272629760	54	6158
2026-01-14 03:26:15.41	270.05	8.12	-40.2	-41.5	20.5	0.00e+00	92	29	0	277872640	54	6077
2026-01-14 03:26:18.44	270.54	8.20	-40.1	-41.4	20.5	0.00e+00	11	29	0	284164096	54	5997
2026-01-14 03:26:21.48	271.03	8.27	-40.1	-41.3	20.6	0.00e+00	92	29	0	289406976	54	5933
2026-01-14 03:26:24.50	271.52	8.35	-40.0	-41.2	20.7	0.00e+00	92	29	0	295698432	54	5873
2026-01-14 03:26:27.53	272.01	8.42	-40.3	-41.6	20.4	0.00e+00	0	29	0	300941312	54	6113
2026-01-14 03:26:30.56	272.50	8.49	-40.4	-41.7	20.3	0.00e+00	91	29	0	306184192	54	6186
2026-01-14 03:26:33.59	273.00	8.56	-40.2	-41.5	20.5	0.00e+00	92	29	0	312475648	54	6044
2026-01-14 03:26:36.62	273.50	8.62	-39.9	-41.1	20.9	0.00e+00	22	29	0	317718528	54	5766
2026-01-14 03:26:39.65	274.00	8.69	-39.9	-41.1	20.9	0.00e+00	92	29	0	324009984	54	5765
2026-01-14 03:26:42.67	274.50	8.75	-40.1	-41.3	20.7	0.00e+00	92	29	0	329252864	54	5954
2026-01-14 03:26:45.70	275.01	8.81	-40.2	-41.4	20.6	0.00e+00	65	29	0	335544320	54	6017
2026-01-14 03:26:48.73	275.51	8.87	-40.1	-41.4	20.6	0.00e+00	91	29	0	340787200	54	5981
2026-01-14 03:26:51.76	276.02	8.93	-40.0	-41.2	20.7	0.00e+00	92	29	0	346030080	54	5867
2026-01-14 03:26:54.79	276.54	8.99	-39.9	-41.1	20.9	0.00e+00	92	29	0	352321536	54	5795
2026-01-14 03:26:57.82	277.05	9.04	-39.9	-41.1	20.8	0.00e+00	28	29	0	357564416	54	5828
2026-01-14 03:27:00.85	277.56	9.10	-39.8	-41.0	20.9	0.00e+00	92	29	0	363855872	54	5750
2026-01-14 03:27:03.89	278.08	9.15	-39.8	-41.0	21.0	0.00e+00	90	29	0	369098752	54	5731
2026-01-14 03:27:06.92	278.60	9.20	-39.7	-40.9	21.1	0.00e+00	4	29	0	374341632	52	6371
2026-01-14 03:27:09.95	279.12	9.24	-39.8	-41.0	21.0	0.00e+00	90	29	0	380633088	52	6411
2026-01-14 03:27:12.98	279.64	9.29	-39.9	-41.1	21.0	0.00e+00	92	29	0	385875968	52	6473
2026-01-14 03:27:16.01	280.17	9.33	-40.0	-41.2	20.8	0.00e+00	0	29	0	392167424	52	6550
2026-01-14 03:27:19.04	280.69	9.37	-39.9	-41.1	20.9	0.00e+00	92	29	0	397410304	52	6533
2026-01-14 03:27:22.07	281.22	9.41	-40.1	-41.4	20.7	0.00e+00	90	29	0	403701760	52	6699
2026-01-14 03:27:25.10	281.74	9.45	-40.1	-41.4	20.7	0.00e+00	92	29	0	408944640	52	6696
2026-01-14 03:27:28.13	282.27	9.48	-40.2	-41.4	20.7	0.00e+00	62	29	0	414187520	52	6750
2026-01-14 03:27:31.17	282.80	9.51	-40.3	-41.6	20.5	0.00e+00	92	29	0	420478976	52	6860
2026-01-14 03:27:34.19	283.33	9.55	-40.7	-42.0	20.1	0.00e+00	90	29	0	425721856	52	7204
2026-01-14 03:27:37.23	283.86	9.57	-40.8	-42.1	20.0	0.00e+00	8	29	0	432013312	54	6539
2026-01-14 03:27:40.26	284.40	9.60	-41.0	-42.4	19.6	0.00e+00	92	29	0	437256192	54	6750
2026-01-14 03:27:43.29	284.93	9.62	-41.0	-42.4	19.6	0.00e+00	92	29	0	442499072	54	6748
2026-01-14 03:27:46.32	285.46	9.65	-40.8	-42.1	20.0	0.00e+00	2	29	0	448790528	54	6535
2026-01-14 03:27:49.35	286.00	9.67	-40.6	-41.9	20.1	0.00e+00	92	29	0	454033408	54	6373
2026-01-14 03:27:52.38	286.54	9.68	-40.6	-41.9	20.2	0.00e+00	90	29	0	460324864	54	6343
2026-01-14 03:27:55.41	287.07	9.70	-41.0	-42.4	19.7	0.00e+00	44	28	0	465567744	54	6735
2026-01-14 03:27:58.43	287.61	9.71	-40.9	-42.3	19.9	0.00e+00	92	29	0	471859200	54	6639
2026-01-14 03:28:01.46	288.14	9.72	-40.5	-41.8	20.2	0.00e+00	92	29	0	477102080	54	6297
2026-01-14 03:28:04.49	288.68	9.73	-40.5	-41.8	20.3	0.00e+00	92	29	0	482344960	54	6268
2026-01-14 03:28:07.52	289.22	9.74	-40.4	-41.6	20.6	0.00e+00	0	29	0	488636416	54	6173
2026-01-14 03:28:10.54	289.75	9.74	-40.2	-41.4	20.6	0.00e+00	92	29	0	493879296	54	6013
2026-01-14 03:28:13.58	290.29	9.75	-40.3	-41.5	20.6	0.00e+00	90	29	0	500170752	54	6101
2026-01-14 03:28:16.60	290.83	9.75	-40.3	-41.5	20.6	0.00e+00	22	29	0	505413632	54	6096
2026-01-14 03:28:19.63	291.37	9.75	-40.2	-41.5	20.4	0.00e+00	13	29	0	510656512	54	6075
2026-01-14 03:28:22.66	291.91	9.74	-39.9	-41.1	21.0	0.00e+00	92	29	0	516947968	54	5772
2026-01-14 03:28:25.69	292.44	9.74	-39.6	-40.7	21.3	0.00e+00	0	29	0	522190848	52	6224
2026-01-14 03:28:28.72	292.98	9.73	-39.4	-40.6	21.5	0.00e+00	0	29	0	528482304	52	6106
2026-01-14 03:28:31.75	293.52	9.72	-39.6	-40.8	21.3	0.00e+00	92	29	0	533725184	52	6268
2026-01-14 03:28:34.79	294.06	9.70	-39.5	-40.6	21.4	0.00e+00	92	29	0	540016640	52	6154
2026-01-14 03:28:37.82	294.59	9.69	-39.3	-40.4	21.6	0.00e+00	7	29	0	545259520	52	6003
2026-01-14 03:28:40.85	295.13	9.67	-38.9	-40.0	22.1	0.00e+00	92	29	0	550502400	52	5699
2026-01-14 03:28:43.88	295.66	9.65	-39.0	-40.0	22.0	0.00e+00	91	29	0	556793856	52	5746
2026-01-14 03:28:46.90	296.19	9.63	-39.2	-40.3	21.7	0.00e+00	0	29	0	562036736	52	5919
2026-01-14 03:28:49.93	296.73	9.61	-39.1	-40.2	21.9	0.00e+00	92	29	0	568328192	52	5831
2026-01-14 03:28:52.96	297.26	9.58	-39.0	-40.1	21.9	0.00e+00	92	28	0	573571072	52	5812
2026-01-14 03:28:55.99	297.79	9.55	-39.0	-40.1	21.8	0.00e+00	63	29	0	578813952	52	5796
2026-01-14 03:28:59.02	298.32	9.52	-38.8	-39.9	22.0	0.00e+00	0	29	0	585105408	52	5659
2026-01-14 03:29:02.05	298.85	9.49	-39.1	-40.2	21.8	0.00e+00	92	29	0	590348288	52	5878
2026-01-14 03:29:05.08	299.38	9.46	-39.0	-40.0	21.9	0.00e+00	0	29	0	596639744	52	5753
2026-01-14 03:29:08.11	299.90	9.42	-38.9	-39.9	22.0	0.00e+00	63	29	0	601882624	52	5684
2026-01-14 03:29:11.14	300.43	9.38	-39.0	-40.0	22.0	0.00e+00	92	29	0	608174080	52	5742
2026-01-14 03:29:14.17	300.95	9.34	-39.1	-40.2	21.7	0.00e+00	91	29	0	613416960	52	5850
2026-01-14 03:29:17.20	301.47	9.30	-39.2	-40.3	21.7	0.00e+00	0	29	0	618659840	52	5902
2026-01-14 03:29:20.23	301.99	9.26	-39.3	-40.4	21.5	0.00e+00	92	29	0	624951296	52	6032
2026-01-14 03:29:23.26	302.51	9.21	-39.4	-40.6	21.4	0.00e+00	92	29	0	630194176	52	6129
2026-01-14 03:29:26.29	303.03	9.16	-39.6	-40.7	21.3	0.00e+00	0	29	0	636485632	52	6221
2026-01-14 03:29:29.32	303.55	9.11	-39.3	-40.5	21.5	0.00e+00	0	28	0	641728512	52	6044
2026-01-14 03:29:32.35	304.06	9.06	-39.5	-40.7	21.4	0.00e+00	92	29	0	648019968	52	6184
2026-01-14 03:29:35.38	304.57	9.00	-39.2	-40.3	21.6	0.00e+00	0	28	0	653262848	52	5922
2026-01-14 03:29:38.41	305.08	8.95	-39.3	-40.4	21.6	0.00e+00	5	29	0	658505728	52	6014
2026-01-14 03:29:41.44	305.59	8.89	-39.3	-40.5	21.5	0.00e+00	92	29	0	664797184	52	6053
2026-01-14 03:29:44.47	306.10	8.83	-39.2	-40.3	21.6	0.00e+00	92	29	0	670040064	52	5943
2026-01-14 03:29:47.50	306.60	8.77	-39.1	-40.2	21.8	0.00e+00	59	29	0	676331520	52	5833
2026-01-14 03:29:50.53	307.10	8.71	-38.8	-39.9	22.0	0.00e+00	92	28	0	681574400	52	5661
2026-01-14 03:29:53.56	307.60	8.64	-38.8	-39.8	22.0	0.00e+00	92	28	0	686817280	50	6303
2026-01-14 03:29:56.59	308.10	8.58	-38.7	-39.8	22.1	0.00e+00	25	28	0	693108736	50	6261
2026-01-14 03:29:59.62	308.60	8.51	-38.6	-39.6	22.2	0.00e+00	56	28	0	698351616	50	6138
2026-01-14 03:30:02.64	309.09	8.44	-38.8	-39.9	22.0	0.00e+00	96	28	0	704643072	50	6324
2026-01-14 03:30:05.67	309.58	8.37	-39.0	-40.0	21.8	0.00e+00	0	28	0	709885952	50	6459
2026-01-14 03:30:08.70	310.07	8.30	-39.0	-40.1	21.8	0.00e+00	62	28	0	716177408	50	6480
2026-01-14 03:30:11.73	310.56	8.22	-39.0	-40.1	21.7	0.00e+00	92	29	0	721420288	50	6522
2026-01-14 03:30:14.76	311.04	8.15	-38.9	-40.0	21.8	0.00e+00	61	28	0	726663168	50	6424
2026-01-14 03:30:17.79	311.52	8.07	-38.8	-39.9	21.9	0.00e+00	61	28	0	732954624	50	6356
2026-01-14 03:30:20.83	312.00	7.99	-38.5	-39.5	22.3	0.00e+00	92	28	0	738197504	50	6072
2026-01-14 03:30:23.86	312.48	7.91	-38.7	-39.8	22.0	0.00e+00	92	28	0	744488960	50	6255
2026-01-14 03:30:26.89	312.95	7.83	-39.2	-40.3	21.6	0.00e+00	0	29	0	749731840	50	6664
2026-01-14 03:30:29.91	313.42	7.75	-39.6	-40.8	21.1	0.00e+00	0	29	0	754974720	50	7041
2026-01-14 03:30:32.95	313.89	7.66	-39.7	-40.9	20.9	0.00e+00	91	29	0	761266176	52	6355
2026-01-14 03:30:35.97	314.36	7.58	-39.6	-40.8	21.1	0.00e+00	22	28	0	766509056	52	6297
2026-01-14 03:30:39.00	314.82	7.49	-39.4	-40.6	21.2	0.00e+00	2	28	0	772800512	52	6145
2026-01-14 03:30:42.03	315.28	7.40	-39.6	-40.8	21.0	0.00e+00	92	28	0	778043392	52	6309
2026-01-14 03:30:45.06	315.74	7.31	-39.9	-41.1	20.7	0.00e+00	9	28	0	784334848	52	6494
2026-01-14 03:30:48.09	316.19	7.22	-40.0	-41.3	20.6	0.00e+00	0	28	0	789577728	52	6650
2026-01-14 03:30:51.12	316.65	7.13	-40.5	-41.9	19.9	0.00e+00	92	28	0	794820608	52	7132
2026-01-14 03:30:54.15	317.10	7.04	-41.2	-42.8	19.1	0.00e+00	92	28	0	801112064	54	7011
2026-01-14 03:30:57.18	317.54	6.94	-41.3	-42.9	18.9	0.00e+00	20	28	0	806354944	54	7125
2026-01-14 03:31:00.21	317.99	6.85	-40.9	-42.4	19.4	0.00e+00	60	28	0	812646400	54	6750
2026-01-14 03:31:03.23	318.43	6.75	-40.9	-42.4	19.3	0.00e+00	92	28	0	817889280	54	6743
2026-01-14 03:31:06.26	318.87	6.66	-40.7	-42.1	19.6	0.00e+00	0	28	0	823132160	54	6529
2026-01-14 03:31:09.29	319.30	6.56	-40.5	-41.9	19.8	0.00e+00	0	28	0	829423616	54	6387
2026-01-14 03:31:12.32	319.73	6.46	-40.9	-42.3	19.4	0.00e+00	92	28	0	834666496	54	6691
2026-01-14 03:31:15.35	320.16	6.36	-41.6	-43.3	18.4	0.00e+00	0	28	0	840957952	54	7447
2026-01-14 03:31:18.38	320.59	6.26	-42.3	-44.1	17.8	0.00e+00	60	28	0	846200832	56	7333
2026-01-14 03:31:21.41	321.02	6.15	-42.6	-44.6	17.2	0.00e+00	5	28	0	852492288	56	7730
2026-01-14 03:31:24.44	321.44	6.05	-42.5	-44.4	17.3	0.00e+00	22	28	0	857735168	56	7588
2026-01-14 03:31:27.47	321.86	5.95	-42.4	-44.3	17.5	0.00e+00	6	28	0	862978048	56	7439
2026-01-14 03:31:30.50	322.27	5.84	-42.1	-43.9	17.9	0.00e+00	59	28	0	869269504	56	7133
2026-01-14 03:31:33.53	322.68	5.74	-41.9	-43.7	18.1	0.00e+00	91	28	0	874512384	56	6931
2026-01-14 03:31:36.56	323.09	5.63	-41.9	-43.7	18.1	0.00e+00	59	28	0	880803840	56	6938
2026-01-14 03:31:39.59	323.50	5.52	-42.0	-43.8	17.9	0.00e+00	59	28	0	886046720	56	7072
2026-01-14 03:31:42.62	323.90	5.42	-41.9	-43.7	18.0	0.00e+00	92	28	0	891289600	56	6955
2026-01-14 03:31:45.65	324.31	5.31	-41.8	-43.5	18.1	0.00e+00	7	28	0	897581056	56	6836
2026-01-14 03:31:48.68	324.70	5.20	-41.5	-43.1	18.5	0.00e+00	5	28	0	902823936	56	6516
2026-01-14 03:31:51.72	325.10	5.09	-41.7	-43.4	18.3	0.00e+00	74	28	0	909115392	56	6702
2026-01-14 03:31:54.74	325.49	4.98	-42.2	-44.1	17.5	0.00e+00	0	28	0	914358272	56	7288
2026-01-14 03:31:57.77	325.88	4.87	-42.4	-44.3	17.2	0.00e+00	60	28	0	920649728	56	7496
2026-01-14 03:32:00.81	326.27	4.76	-41.8	-43.6	17.9	0.00e+00	2	28	0	925892608	56	6922
2026-01-14 03:32:03.83	326.65	4.64	-41.4	-43.0	18.5	0.00e+00	90	28	0	931135488	56	6460
2026-01-14 03:32:06.87	327.03	4.53	-41.1	-42.8	18.7	0.00e+00	2	28	0	937426944	56	6257
2026-01-14 03:32:09.89	327.41	4.42	-41.4	-43.1	18.5	0.00e+00	0	28	0	942669824	56	6474
2026-01-14 03:32:12.92	327.79	4.30	-41.3	-43.0	18.5	0.00e+00	90	28	0	948961280	56	6432
2026-01-14 03:32:15.95	328.16	4.19	-41.3	-43.0	18.4	0.00e+00	58	28	0	954204160	56	6426
2026-01-14 03:32:18.97	328.53	4.08	-41.4	-43.1	18.3	0.00e+00	4	28	0	959447040	56	6511
2026-01-14 03:32:22.00	328.90	3.96	-41.3	-43.0	18.3	0.00e+00	92	28	0	965738496	56	6448
2026-01-14 03:32:25.03	329.26	3.84	-41.4	-43.1	18.1	0.00e+00	0	28	0	970981376	56	6524
2026-01-14 03:32:28.06	329.62	3.73	-41.3	-43.0	18.0	0.00e+00	0	28	0	977272832	56	6463
2026-01-14 03:32:31.09	329.98	3.61	-41.2	-42.9	18.1	0.00e+00	0	28	0	982515712	56	6381
2026-01-14 03:32:34.12	330.34	3.50	-41.0	-42.8	17.9	0.00e+00	92	28	0	988807168	56	6317
2026-01-14 03:32:37.15	330.69	3.38	-41.6	-43.7	16.8	0.00e+00	57	28	0	994050048	56	6942
2026-01-14 03:32:40.18	331.04	3.26	-42.4	-45.2	14.8	0.00e+00	60	28	0	999292928	56	8305
2026-01-14 03:32:43.21	331.39	3.14	-43.1	-47.3	11.7	2.97e-04	90	28	0	1005584384	58	9416
2026-01-14 03:32:46.24	331.74	3.02	-43.6	-50.5	7.5	9.17e-02	0	28	0	1010827264	58	13537
2026-01-14 03:32:49.27	332.08	2.91	-48.3	-63.5	3.6	1.51e+00	0	28	104	1011875840	60	53990
2026-01-14 03:32:52.30	332.42	2.79	-48.7	-63.8	3.6	1.51e+00	0	29	104	1011875840	60	55707
2026-01-14 03:32:55.33	332.76	2.67	-48.7	-63.9	3.6	1.51e+00	0	28	104	1011875840	60	56347
2026-01-14 03:32:58.36	333.09	2.55	-48.7	-63.9	3.6	1.51e+00	0	29	104	1011875840	60	56565
2026-01-14 03:33:01.39	333.42	2.43	-48.6	-63.7	3.6	1.51e+00	0	28	104	1011875840	60	55469
2026-01-14 03:33:04.42	333.75	2.31	-48.7	-63.8	3.6	1.51e+00	0	29	104	1011875840	60	56302
2026-01-14 03:33:07.45	334.08	2.19	-48.6	-63.8	3.6	1.51e+00	0	28	104	1011875840	60	56222
2026-01-14 03:33:10.49	334.41	2.07	-48.6	-63.8	3.6	1.51e+00	0	28	104	1011875840	60	56062
2026-01-14 03:33:13.51	334.73	1.95	-48.6	-63.8	3.6	1.51e+00	0	28	104	1011875840	60	55878
2026-01-14 03:33:16.54	335.05	1.83	-48.6	-63.8	3.6	1.51e+00	0	28	104	1011875840	60	56018
2026-01-14 03:33:19.57	335.37	1.71	-48.6	-63.7	3.6	1.51e+00	0	28	104	1011875840	60	55544
2026-01-14 03:33:22.60	335.68	1.59	-48.6	-63.7	3.6	1.51e+00	0	28	104	1011875840	60	55487
2026-01-14 03:33:25.63	335.99	1.46	-48.6	-63.7	3.6	1.51e+00	0	28	104	1011875840	60	55452
2026-01-14 03:33:28.66	336.30	1.34	-48.6	-63.8	3.6	1.51e+00	0	29	104	1011875840	60	55777
2026-01-14 03:33:31.69	336.61	1.22	-48.6	-63.8	3.6	1.51e+00	0	28	104	1011875840	60	55881
2026-01-14 03:33:34.72	336.92	1.10	-48.6	-63.7	3.6	1.51e+00	0	28	104	1011875840	60	55625
2026-01-14 03:33:37.75	337.22	0.98	-48.6	-63.7	3.6	1.51e+00	0	28	104	1011875840	60	55495
2026-01-14 03:33:40.78	337.52	0.86	-48.6	-63.7	3.6	1.51e+00	0	29	104	1011875840	60	55453
2026-01-14 03:33:43.81	337.82	0.73	-48.6	-63.7	3.6	1.51e+00	0	28	104	1011875840	60	55358
2026-01-14 03:33:46.84	338.11	0.61	-48.6	-63.7	3.6	1.51e+00	0	28	104	1011875840	60	55177
2026-01-14 03:33:49.87	338.41	0.49	-48.6	-63.7	3.6	1.51e+00	0	28	104	1011875840	60	55445
2026-01-14 03:33:52.90	338.70	0.37	-48.6	-63.7	3.6	1.51e+00	0	29	104	1011875840	60	55483
2026-01-14 03:33:55.93	338.99	0.25	-48.5	-63.7	3.6	1.51e+00	0	28	104	1011875840	60	55548
2026-01-14 03:33:58.96	339.28	0.12	-48.6	-63.7	3.6	1.51e+00	0	28	104	1011875840	60	55386
2026-01-14 03:34:01.99	339.56	0.00	-48.5	-63.7	3.6	1.51e+00	0	28	104	1011875840	60	55362

#Closed at: 2026-01-14 03:34:02
#Recorded file [1011 MB]: D:/lorett/data/35029_260114_152234.dat