passes_logs/2026/01/14/R4.6S_Anadyr/R4.6S_Anadyr__20260114_132254_SUOMI_NPP_rec.log

#Pass ID: 20260114_132254_SUOMI NPP
#Satellite: SUOMI NPP
#Configuration: NPP
#almurnet v.1.7.20251203
#Start time: 2026-01-14 13:22:55

#Version: 2.2.20231116
#Station: R4.6S_Anadyr
#Location: 177.4865 lon 64.73178 lat
#TLE: 1 37849U 11061A   26013.83525404  .00000052  00000+0  45495-4 0  9990
#TLE: 2 37849  98.7808 315.8939 0002471  65.6575 294.4859 14.19524986736544

#Time	Az	El	Level	Level2	SNR	BER	BlckErr	Temp	State	Recorded	gain1	gain2
2026-01-14 13:22:55.44	18.84	0.05	-48.7	-61.2	3.4	1.52e+00	0	26	0	0	60	40070
2026-01-14 13:22:59.48	19.03	0.27	-48.8	-63.9	3.6	1.51e+00	0	27	104	0	60	56843
2026-01-14 13:23:03.52	19.22	0.50	-48.8	-64.0	3.6	1.51e+00	0	27	104	0	60	57047
2026-01-14 13:23:07.56	19.42	0.73	-48.4	-63.6	3.6	1.51e+00	0	27	104	0	60	54411
2026-01-14 13:23:11.60	19.61	0.96	-47.4	-62.6	3.6	1.51e+00	0	27	104	0	60	48592
2026-01-14 13:23:15.64	19.81	1.19	-47.1	-62.3	3.6	1.51e+00	0	27	104	0	60	46862
2026-01-14 13:23:19.68	20.02	1.42	-47.1	-62.2	3.6	1.51e+00	0	27	104	0	60	46547
2026-01-14 13:23:23.72	20.22	1.65	-47.1	-62.2	3.6	1.51e+00	0	27	104	0	60	46379
2026-01-14 13:23:27.75	20.43	1.89	-47.1	-62.2	3.6	1.51e+00	0	27	104	0	60	46735
2026-01-14 13:23:31.79	20.64	2.13	-47.1	-62.2	3.6	1.51e+00	0	27	104	0	60	46598
2026-01-14 13:23:35.83	20.85	2.37	-47.0	-61.6	3.6	1.51e+00	0	27	104	0	60	43244
2026-01-14 13:23:39.87	21.07	2.61	-47.1	-61.8	3.6	1.51e+00	0	28	104	0	60	44522
2026-01-14 13:23:43.91	21.29	2.85	-45.3	-50.0	11.2	6.10e-03	5	28	0	4194304	60	11409
2026-01-14 13:23:47.95	21.52	3.10	-42.0	-44.1	17.0	0.00e+00	35	28	0	11534336	58	6487
2026-01-14 13:23:51.99	21.75	3.34	-43.0	-45.5	15.5	0.00e+00	0	28	0	18874368	58	7667
2026-01-14 13:23:56.03	21.98	3.59	-44.3	-47.9	12.4	1.02e-01	0	28	104	24117248	60	8954
2026-01-14 13:24:00.06	22.21	3.84	-44.2	-47.5	13.9	3.00e-06	63	27	0	27262976	60	8603
2026-01-14 13:24:04.08	22.45	4.10	-42.6	-44.9	16.3	0.00e+00	0	28	0	34603008	58	7112
2026-01-14 13:24:08.11	22.69	4.35	-41.8	-43.7	17.5	0.00e+00	0	28	0	41943040	58	6192
2026-01-14 13:24:12.15	22.94	4.61	-41.4	-43.1	18.3	0.00e+00	0	27	0	49283072	56	6535
2026-01-14 13:24:16.19	23.19	4.87	-41.1	-42.7	18.7	0.00e+00	62	28	0	56623104	56	6226
2026-01-14 13:24:20.23	23.44	5.13	-41.0	-42.6	18.8	0.00e+00	0	28	0	65011712	56	6162
2026-01-14 13:24:24.26	23.70	5.39	-40.7	-42.2	19.1	0.00e+00	0	28	0	72351744	54	6590
2026-01-14 13:24:28.30	23.96	5.65	-41.0	-42.5	18.9	0.00e+00	0	28	0	79691776	54	6844
2026-01-14 13:24:32.34	24.23	5.92	-40.6	-42.1	19.4	0.00e+00	90	28	0	87031808	54	6477
2026-01-14 13:24:36.37	24.50	6.19	-40.5	-42.0	19.5	0.00e+00	0	28	0	95420416	54	6395
2026-01-14 13:24:40.41	24.78	6.46	-40.2	-41.6	19.8	0.00e+00	0	28	0	102760448	54	6121
2026-01-14 13:24:44.45	25.06	6.74	-40.3	-41.7	19.7	0.00e+00	65	28	0	110100480	54	6190
2026-01-14 13:24:48.49	25.35	7.01	-40.2	-41.5	20.0	0.00e+00	0	28	0	117440512	54	6092
2026-01-14 13:24:52.53	25.64	7.29	-40.1	-41.4	20.1	0.00e+00	0	28	0	124780544	54	6000
2026-01-14 13:24:56.57	25.94	7.58	-39.7	-41.0	20.5	0.00e+00	0	28	0	133169152	52	6413
2026-01-14 13:25:00.61	26.24	7.86	-39.6	-40.9	20.6	0.00e+00	70	28	0	140509184	52	6328
2026-01-14 13:25:04.64	26.55	8.15	-39.1	-40.2	21.3	0.00e+00	0	28	0	147849216	52	5882
2026-01-14 13:25:08.69	26.86	8.44	-38.9	-40.1	21.4	0.00e+00	0	28	0	155189248	52	5778
2026-01-14 13:25:12.72	27.18	8.73	-38.9	-40.0	21.4	0.00e+00	0	28	0	163577856	52	5756
2026-01-14 13:25:16.75	27.51	9.02	-38.7	-39.8	21.7	0.00e+00	67	28	0	170917888	50	6255
2026-01-14 13:25:20.79	27.84	9.32	-38.4	-39.5	22.0	0.00e+00	0	28	0	178257920	50	6048
2026-01-14 13:25:24.83	28.18	9.62	-38.3	-39.3	22.1	0.00e+00	0	28	0	185597952	50	5943
2026-01-14 13:25:28.86	28.52	9.92	-38.0	-39.0	22.4	0.00e+00	63	28	0	192937984	50	5756
2026-01-14 13:25:32.91	28.88	10.23	-38.0	-39.1	22.4	0.00e+00	0	28	0	201326592	50	5765
2026-01-14 13:25:36.95	29.24	10.54	-38.1	-39.1	22.3	0.00e+00	0	28	0	208666624	50	5792
2026-01-14 13:25:40.98	29.60	10.85	-38.3	-39.3	22.1	0.00e+00	0	28	0	216006656	50	5963
2026-01-14 13:25:45.02	29.98	11.17	-38.1	-39.2	22.3	0.00e+00	0	28	0	223346688	50	5850
2026-01-14 13:25:49.05	30.36	11.49	-37.9	-38.9	22.5	0.00e+00	0	28	0	230686720	50	5636
2026-01-14 13:25:53.09	30.75	11.81	-37.5	-38.4	22.9	0.00e+00	0	28	0	239075328	48	6024
2026-01-14 13:25:57.14	31.15	12.13	-37.6	-38.6	22.9	0.00e+00	0	28	0	246415360	48	6132
2026-01-14 13:26:01.17	31.55	12.46	-37.7	-38.7	22.6	0.00e+00	67	28	0	253755392	48	6188
2026-01-14 13:26:05.21	31.97	12.79	-37.5	-38.4	22.9	0.00e+00	0	28	0	261095424	48	6032
2026-01-14 13:26:09.25	32.39	13.12	-37.8	-38.8	22.7	0.00e+00	0	28	0	269484032	48	6314
2026-01-14 13:26:13.29	32.83	13.46	-38.0	-39.0	22.3	0.00e+00	0	28	0	276824064	48	6437
2026-01-14 13:26:17.33	33.27	13.80	-38.0	-39.1	22.5	0.00e+00	92	28	0	284164096	48	6478
2026-01-14 13:26:21.37	33.72	14.15	-37.7	-38.6	22.8	0.00e+00	0	28	0	291504128	48	6166
2026-01-14 13:26:25.41	34.19	14.49	-37.6	-38.5	22.9	0.00e+00	0	28	0	299892736	48	6066
2026-01-14 13:26:29.44	34.66	14.84	-38.0	-39.0	22.6	0.00e+00	18	28	0	307232768	48	6427
2026-01-14 13:26:33.48	35.15	15.20	-38.3	-39.3	22.3	0.00e+00	1	28	0	314572800	48	6679
2026-01-14 13:26:37.51	35.64	15.55	-38.1	-39.1	22.4	0.00e+00	0	28	0	321912832	48	6539
2026-01-14 13:26:41.55	36.15	15.91	-38.2	-39.2	22.5	0.00e+00	0	28	0	329252864	48	6584
2026-01-14 13:26:45.59	36.67	16.28	-38.4	-39.4	22.3	0.00e+00	60	28	0	337641472	48	6734
2026-01-14 13:26:49.63	37.20	16.64	-38.6	-39.7	22.1	0.00e+00	0	28	0	344981504	50	6193
2026-01-14 13:26:53.66	37.74	17.01	-39.0	-40.1	21.7	0.00e+00	0	28	0	352321536	50	6523
2026-01-14 13:26:57.70	38.30	17.39	-38.9	-40.0	21.9	0.00e+00	0	28	0	359661568	50	6398
2026-01-14 13:27:01.73	38.87	17.76	-38.4	-39.4	22.3	0.00e+00	61	28	0	367001600	50	6003
2026-01-14 13:27:05.77	39.46	18.14	-38.4	-39.4	22.2	0.00e+00	0	28	0	375390208	50	6008
2026-01-14 13:27:09.81	40.06	18.52	-37.8	-38.7	22.9	0.00e+00	0	28	0	382730240	50	5555
2026-01-14 13:27:13.84	40.67	18.91	-37.4	-38.3	23.2	0.00e+00	0	28	0	390070272	48	5916
2026-01-14 13:27:17.88	41.30	19.30	-37.6	-38.5	23.1	0.00e+00	64	28	0	397410304	48	6073
2026-01-14 13:27:21.92	41.95	19.69	-37.3	-38.2	23.3	0.00e+00	0	28	0	405798912	48	5871
2026-01-14 13:27:25.96	42.61	20.08	-37.2	-38.1	23.0	0.00e+00	0	28	0	413138944	48	5822
2026-01-14 13:27:29.99	43.28	20.48	-37.4	-38.3	23.2	0.00e+00	35	28	0	420478976	48	5958
2026-01-14 13:27:34.03	43.98	20.88	-37.0	-37.9	23.6	0.00e+00	0	28	0	427819008	48	5656
2026-01-14 13:27:38.07	44.69	21.28	-37.3	-38.2	23.4	0.00e+00	0	28	0	435159040	48	5863
2026-01-14 13:27:42.11	45.43	21.68	-36.9	-37.8	23.6	0.00e+00	0	28	0	443547648	48	5616
2026-01-14 13:27:46.15	46.18	22.09	-36.3	-37.1	24.2	0.00e+00	88	28	0	450887680	46	5808
2026-01-14 13:27:50.18	46.95	22.49	-35.5	-36.3	24.8	0.00e+00	0	28	0	458227712	44	5925
2026-01-14 13:27:54.22	47.74	22.90	-35.2	-36.0	25.0	0.00e+00	0	28	0	465567744	44	5698
2026-01-14 13:27:58.26	48.55	23.31	-35.5	-36.3	24.6	0.00e+00	33	28	0	473956352	44	5952
2026-01-14 13:28:02.30	49.38	23.72	-36.4	-37.3	23.9	0.00e+00	90	28	0	481296384	44	6651
2026-01-14 13:28:06.34	50.23	24.12	-36.5	-37.3	24.1	0.00e+00	0	28	0	488636416	44	6662
2026-01-14 13:28:10.38	51.11	24.53	-36.3	-37.2	24.2	0.00e+00	0	28	0	495976448	44	6547
2026-01-14 13:28:14.41	52.00	24.94	-36.5	-37.3	24.0	0.00e+00	69	28	0	503316480	44	6679
2026-01-14 13:28:18.45	52.92	25.35	-36.6	-37.5	23.8	0.00e+00	0	28	0	511705088	44	6789
2026-01-14 13:28:22.49	53.87	25.75	-36.9	-37.8	23.7	0.00e+00	0	28	0	519045120	46	6286
2026-01-14 13:28:26.52	54.83	26.16	-36.9	-37.8	23.7	0.00e+00	0	28	0	526385152	46	6250
2026-01-14 13:28:30.56	55.82	26.56	-37.8	-38.7	22.9	0.00e+00	70	28	0	533725184	46	6980
2026-01-14 13:28:34.60	56.84	26.95	-38.1	-39.1	22.7	0.00e+00	0	28	0	541065216	48	6525
2026-01-14 13:28:38.63	57.88	27.35	-37.8	-38.8	23.0	0.00e+00	0	28	0	549453824	48	6267
2026-01-14 13:28:42.67	58.95	27.74	-37.8	-38.7	23.0	0.00e+00	0	28	0	556793856	48	6218
2026-01-14 13:28:46.70	60.04	28.12	-38.9	-40.0	22.0	0.00e+00	90	28	0	564133888	50	6431
2026-01-14 13:28:50.74	61.16	28.50	-38.7	-39.7	22.3	0.00e+00	0	28	0	571473920	50	6219
2026-01-14 13:28:54.78	62.30	28.87	-39.1	-40.1	21.9	0.00e+00	0	28	0	579862528	50	6528
2026-01-14 13:28:58.82	63.47	29.23	-38.4	-39.4	22.5	0.00e+00	68	28	0	587202560	50	6006
2026-01-14 13:29:02.85	64.67	29.59	-39.1	-40.1	21.8	0.00e+00	67	28	0	594542592	50	6521
2026-01-14 13:29:06.89	65.89	29.93	-39.6	-40.7	21.4	0.00e+00	0	28	0	601882624	52	6239
2026-01-14 13:29:10.93	67.14	30.27	-39.1	-40.2	21.9	0.00e+00	33	28	0	609222656	50	6608
2026-01-14 13:29:14.97	68.41	30.59	-39.5	-40.7	21.4	0.00e+00	67	28	0	617611264	50	6934
2026-01-14 13:29:19.01	69.71	30.91	-39.4	-40.5	21.6	0.00e+00	0	28	0	624951296	52	6103
2026-01-14 13:29:23.04	71.04	31.21	-40.0	-41.2	21.0	0.00e+00	0	28	0	632291328	52	6565
2026-01-14 13:29:27.08	72.38	31.49	-40.4	-41.6	20.6	0.00e+00	0	28	0	639631360	54	6166
2026-01-14 13:29:31.12	73.75	31.76	-38.5	-39.5	22.5	0.00e+00	90	28	0	648019968	50	6034
2026-01-14 13:29:35.16	75.15	32.02	-39.8	-41.0	21.2	0.00e+00	0	28	0	655360000	52	6418
2026-01-14 13:29:39.20	76.56	32.26	-39.3	-40.3	21.6	0.00e+00	0	28	0	662700032	52	5944
2026-01-14 13:29:43.24	78.00	32.48	-38.8	-39.8	22.3	0.00e+00	0	28	0	670040064	52	5616
2026-01-14 13:29:47.27	79.45	32.68	-41.8	-43.4	18.8	0.00e+00	92	28	0	677380096	56	6739
2026-01-14 13:29:51.31	80.92	32.87	-40.6	-41.9	20.4	0.00e+00	0	28	0	685768704	54	6327
2026-01-14 13:29:55.34	82.40	33.03	-39.4	-40.6	21.5	0.00e+00	0	28	0	693108736	52	6112
2026-01-14 13:29:59.38	83.90	33.18	-40.2	-41.4	20.9	0.00e+00	40	28	0	700448768	52	6736
2026-01-14 13:30:03.42	85.41	33.30	-39.4	-40.5	21.5	0.00e+00	7	28	0	707788800	52	6067
2026-01-14 13:30:07.46	86.94	33.40	-39.6	-40.7	21.4	0.00e+00	0	28	0	716177408	52	6230
2026-01-14 13:30:11.50	88.47	33.48	-40.9	-42.3	20.0	0.00e+00	0	28	0	723517440	54	6619
2026-01-14 13:30:15.53	90.00	33.54	-40.3	-41.6	20.7	0.00e+00	62	28	0	730857472	54	6154
2026-01-14 13:30:19.57	91.54	33.58	-39.9	-41.0	20.8	0.00e+00	0	28	0	738197504	54	5756
2026-01-14 13:30:23.61	93.09	33.59	-40.7	-42.0	20.3	0.00e+00	0	28	0	745537536	52	7203
2026-01-14 13:30:27.64	94.63	33.58	-40.9	-42.4	20.0	0.00e+00	0	28	0	753926144	54	6705
2026-01-14 13:30:31.68	96.18	33.55	-38.3	-39.3	22.7	0.00e+00	77	28	0	761266176	50	5944
2026-01-14 13:30:35.71	97.71	33.49	-39.7	-40.9	21.2	0.00e+00	0	28	0	768606208	50	7119
2026-01-14 13:30:39.75	99.25	33.41	-41.7	-43.3	19.0	0.00e+00	0	28	0	775946240	54	7463
2026-01-14 13:30:43.79	100.77	33.31	-39.5	-40.6	21.5	0.00e+00	0	28	0	784334848	52	6144
2026-01-14 13:30:47.83	102.29	33.19	-39.7	-40.8	21.6	0.00e+00	37	28	0	791674880	52	6292
2026-01-14 13:30:51.86	103.79	33.05	-39.2	-40.3	21.7	0.00e+00	0	28	0	799014912	50	6668
2026-01-14 13:30:55.90	105.28	32.89	-38.8	-39.9	22.2	0.00e+00	0	28	0	806354944	50	6333
2026-01-14 13:30:59.94	106.75	32.71	-39.6	-40.7	21.5	0.00e+00	25	28	0	813694976	52	6236
2026-01-14 13:31:03.97	108.21	32.50	-38.9	-39.9	22.1	0.00e+00	0	28	0	822083584	50	6365
2026-01-14 13:31:08.00	109.64	32.29	-38.3	-39.3	22.5	0.00e+00	0	28	0	829423616	50	5927
2026-01-14 13:31:12.04	111.06	32.05	-39.3	-40.4	21.7	0.00e+00	0	28	0	836763648	50	6767
2026-01-14 13:31:16.08	112.46	31.79	-37.8	-38.7	23.0	0.00e+00	65	28	0	844103680	50	5559
2026-01-14 13:31:20.12	113.84	31.52	-36.2	-37.0	24.4	0.00e+00	0	28	0	852492288	46	5723
2026-01-14 13:31:24.15	115.19	31.24	-37.5	-38.4	23.3	0.00e+00	0	28	0	859832320	48	6019
2026-01-14 13:31:28.19	116.52	30.94	-37.4	-38.3	23.3	0.00e+00	0	28	0	867172352	46	6661
2026-01-14 13:31:32.22	117.82	30.63	-37.1	-38.0	23.7	0.00e+00	91	28	0	874512384	48	5748
2026-01-14 13:31:36.26	119.10	30.30	-38.4	-39.4	22.4	0.00e+00	0	28	0	881852416	48	6727
2026-01-14 13:31:40.30	120.36	29.97	-38.6	-39.6	22.3	0.00e+00	0	28	0	890241024	48	6871
2026-01-14 13:31:44.34	121.58	29.62	-37.5	-38.5	23.3	0.00e+00	0	28	0	897581056	48	6046
2026-01-14 13:31:48.37	122.79	29.26	-38.4	-39.5	22.4	0.00e+00	1	28	0	904921088	48	6774
2026-01-14 13:31:52.41	123.96	28.90	-37.6	-38.5	23.3	0.00e+00	0	28	0	912261120	48	6046
2026-01-14 13:31:56.45	125.11	28.53	-38.6	-39.7	22.4	0.00e+00	0	28	0	919601152	50	6187
2026-01-14 13:32:00.49	126.24	28.15	-38.2	-39.1	22.6	0.00e+00	92	28	0	927989760	48	6538
2026-01-14 13:32:04.52	127.34	27.76	-38.6	-39.7	22.3	0.00e+00	0	28	0	935329792	50	6180
2026-01-14 13:32:08.56	128.41	27.37	-39.8	-41.1	21.3	0.00e+00	0	28	0	942669824	50	7256
2026-01-14 13:32:12.59	129.46	26.98	-39.5	-40.7	21.4	0.00e+00	0	28	0	950009856	52	6188
2026-01-14 13:32:16.63	130.48	26.58	-40.1	-41.4	20.7	0.00e+00	92	28	0	958398464	52	6718
2026-01-14 13:32:20.68	131.48	26.17	-39.3	-40.4	21.6	0.00e+00	0	28	0	965738496	52	5997
2026-01-14 13:32:24.71	132.45	25.77	-41.8	-43.5	19.1	0.00e+00	0	28	0	973078528	56	6805
2026-01-14 13:32:28.75	133.40	25.36	-39.0	-40.0	21.9	0.00e+00	49	28	0	980418560	52	5761
2026-01-14 13:32:32.79	134.32	24.95	-40.1	-41.4	20.8	0.00e+00	92	28	0	987758592	52	6752
2026-01-14 13:32:36.82	135.22	24.54	-38.6	-39.6	22.2	0.00e+00	0	28	0	996147200	50	6132
2026-01-14 13:32:40.86	136.10	24.13	-40.1	-41.5	20.7	0.00e+00	0	28	0	1003487232	52	6771
2026-01-14 13:32:44.90	136.96	23.72	-38.0	-38.9	22.8	0.00e+00	35	28	0	1010827264	50	5693
2026-01-14 13:32:48.93	137.80	23.31	-38.5	-39.5	22.3	0.00e+00	0	28	0	1018167296	50	6100
2026-01-14 13:32:52.97	138.61	22.90	-36.0	-36.8	24.5	0.00e+00	0	28	0	1026555904	46	5615
2026-01-14 13:32:57.01	139.41	22.49	-37.2	-38.1	23.4	0.00e+00	0	28	0	1033895936	46	6496
2026-01-14 13:33:01.04	140.18	22.08	-37.6	-38.6	23.1	0.00e+00	92	28	0	1041235968	48	6106
2026-01-14 13:33:05.08	140.93	21.67	-36.8	-37.7	23.7	0.00e+00	0	28	0	1048576000	48	5534
2026-01-14 13:33:09.12	141.67	21.27	-37.1	-38.1	23.4	0.00e+00	0	28	0	1055916032	48	5763
2026-01-14 13:33:13.15	142.38	20.87	-36.8	-37.7	23.7	0.00e+00	0	28	0	1064304640	46	6218
2026-01-14 13:33:17.19	143.08	20.46	-36.5	-37.3	23.9	0.00e+00	92	28	0	1071644672	46	5960
2026-01-14 13:33:21.22	143.76	20.07	-37.1	-38.0	22.7	0.00e+00	0	28	0	1078984704	46	6451
2026-01-14 13:33:25.26	144.43	19.67	-37.1	-38.0	23.4	0.00e+00	0	28	0	1086324736	46	6408
2026-01-14 13:33:29.29	145.08	19.28	-36.4	-37.2	24.1	0.00e+00	57	28	0	1093664768	46	5883
2026-01-14 13:33:33.33	145.71	18.89	-36.5	-37.4	23.9	0.00e+00	90	28	0	1102053376	46	5998
2026-01-14 13:33:37.37	146.32	18.50	-36.3	-37.2	24.0	0.00e+00	0	28	0	1109393408	46	5836
2026-01-14 13:33:41.40	146.93	18.11	-36.7	-37.5	23.8	0.00e+00	0	28	0	1116733440	46	6095
2026-01-14 13:33:45.44	147.51	17.73	-37.8	-38.7	22.7	0.00e+00	61	28	0	1124073472	46	6994
2026-01-14 13:33:49.48	148.09	17.35	-39.1	-40.3	21.6	0.00e+00	0	28	0	1132462080	50	6623
2026-01-14 13:33:53.51	148.64	16.97	-39.2	-40.3	21.6	0.00e+00	0	28	0	1139802112	50	6671
2026-01-14 13:33:57.55	149.19	16.60	-38.2	-39.2	22.6	0.00e+00	0	28	0	1147142144	50	5847
2026-01-14 13:34:01.59	149.72	16.23	-38.0	-39.0	22.6	0.00e+00	92	28	0	1154482176	48	6423
2026-01-14 13:34:05.63	150.25	15.87	-38.8	-39.9	21.9	0.00e+00	0	28	0	1161822208	50	6366
2026-01-14 13:34:09.66	150.75	15.50	-38.3	-39.3	22.3	0.00e+00	0	28	0	1170210816	50	5931
2026-01-14 13:34:13.70	151.25	15.14	-37.5	-38.5	23.0	0.00e+00	0	28	0	1177550848	48	6034
2026-01-14 13:34:17.73	151.73	14.79	-37.5	-38.4	22.8	0.00e+00	92	28	0	1184890880	48	5999
2026-01-14 13:34:21.77	152.21	14.44	-37.7	-38.7	22.8	0.00e+00	0	28	0	1192230912	48	6187
2026-01-14 13:34:25.81	152.67	14.09	-37.7	-38.6	22.7	0.00e+00	0	28	0	1200619520	48	6172
2026-01-14 13:34:29.85	153.13	13.74	-37.6	-38.5	22.8	0.00e+00	14	28	0	1207959552	48	6069
2026-01-14 13:34:33.89	153.57	13.40	-39.0	-40.2	21.1	0.00e+00	0	28	0	1215299584	50	6573
2026-01-14 13:34:37.92	154.00	13.06	-40.5	-42.0	19.1	0.00e+00	0	28	0	1222639616	52	7206
2026-01-14 13:34:41.96	154.43	12.72	-42.0	-44.1	16.8	0.00e+00	0	28	0	1229979648	56	7305
2026-01-14 13:34:46.00	154.84	12.39	-41.8	-43.8	17.2	0.00e+00	92	28	0	1238368256	56	7044
2026-01-14 13:34:50.03	155.25	12.06	-41.8	-43.7	17.5	0.00e+00	0	28	0	1245708288	56	7004
2026-01-14 13:34:54.07	155.65	11.73	-40.7	-42.3	18.9	0.00e+00	0	28	0	1253048320	54	6641
2026-01-14 13:34:58.11	156.04	11.41	-40.2	-41.7	19.7	0.00e+00	0	28	0	1260388352	54	6185
2026-01-14 13:35:02.15	156.42	11.09	-39.7	-40.9	20.5	0.00e+00	90	28	0	1267728384	52	6384
2026-01-14 13:35:06.19	156.79	10.77	-38.9	-40.0	21.5	0.00e+00	0	28	0	1276116992	50	6439
2026-01-14 13:35:10.23	157.16	10.46	-37.8	-38.8	22.5	0.00e+00	0	28	0	1283457024	50	5592
2026-01-14 13:35:14.27	157.52	10.14	-37.7	-38.7	22.5	0.00e+00	5	28	0	1290797056	48	6180
2026-01-14 13:35:18.30	157.87	9.84	-37.5	-38.5	22.7	0.00e+00	67	28	0	1298137088	48	6083
2026-01-14 13:35:22.34	158.21	9.53	-38.0	-39.0	22.2	0.00e+00	0	28	0	1306525696	48	6432
2026-01-14 13:35:26.38	158.55	9.23	-38.3	-39.3	22.0	0.00e+00	0	28	0	1313865728	48	6671
2026-01-14 13:35:30.42	158.88	8.93	-38.5	-39.5	21.8	0.00e+00	54	28	0	1321205760	48	6844
2026-01-14 13:35:34.45	159.21	8.63	-38.7	-39.8	21.4	0.00e+00	0	28	0	1328545792	50	6247
2026-01-14 13:35:38.49	159.52	8.34	-39.0	-40.2	21.3	0.00e+00	0	28	0	1335885824	50	6540
2026-01-14 13:35:42.53	159.84	8.05	-39.4	-40.5	20.9	0.00e+00	0	28	0	1344274432	50	6847
2026-01-14 13:35:46.58	160.14	7.76	-39.8	-41.1	20.4	0.00e+00	92	28	0	1351614464	52	6492
2026-01-14 13:35:50.61	160.44	7.47	-39.9	-41.3	20.3	0.00e+00	0	28	0	1358954496	52	6617
2026-01-14 13:35:54.64	160.74	7.19	-39.9	-41.2	20.3	0.00e+00	0	28	0	1366294528	52	6569
2026-01-14 13:35:58.42	161.01	6.92	-39.9	-41.2	20.3	0.00e+00	0	28	0	1374683136	52	6549
2026-01-14 13:36:02.46	161.30	6.65	-39.8	-41.0	20.4	0.00e+00	90	28	0	1382023168	52	6461
2026-01-14 13:36:06.50	161.58	6.37	-40.1	-41.4	20.0	0.00e+00	0	28	0	1389363200	52	6729
2026-01-14 13:36:10.53	161.85	6.10	-40.0	-41.4	20.0	0.00e+00	0	28	0	1396703232	52	6695
2026-01-14 13:36:14.57	162.12	5.82	-40.6	-42.0	19.4	0.00e+00	52	28	0	1404043264	52	7214
2026-01-14 13:36:18.60	162.39	5.55	-41.0	-42.6	18.8	0.00e+00	0	28	0	1412431872	54	6899
2026-01-14 13:36:22.64	162.65	5.29	-41.4	-43.1	18.2	0.00e+00	0	28	0	1419771904	54	7325
2026-01-14 13:36:26.68	162.90	5.02	-42.2	-44.2	17.3	0.00e+00	0	28	0	1427111936	56	7390
2026-01-14 13:36:30.71	163.16	4.76	-42.4	-44.5	16.9	0.00e+00	50	28	0	1434451968	56	7623
2026-01-14 13:36:34.75	163.40	4.50	-42.5	-44.7	16.7	0.00e+00	0	28	0	1442840576	58	6941
2026-01-14 13:36:38.79	163.65	4.24	-42.7	-45.0	16.2	0.00e+00	0	28	0	1450180608	58	7213
2026-01-14 13:36:42.83	163.89	3.98	-43.0	-45.5	15.5	0.00e+00	0	28	0	1457520640	58	7607
2026-01-14 13:36:46.86	164.12	3.73	-43.1	-45.7	15.4	0.00e+00	92	28	0	1464860672	58	7804
2026-01-14 13:36:50.90	164.36	3.48	-42.9	-45.4	15.8	0.00e+00	0	28	0	1472200704	58	7543
2026-01-14 13:36:54.94	164.58	3.23	-42.6	-44.9	16.0	0.00e+00	0	28	0	1480589312	58	7115
2026-01-14 13:36:58.97	164.81	2.98	-47.3	-62.4	3.6	4.45e-01	0	28	104	1486880768	60	47421
2026-01-14 13:37:03.01	165.03	2.73	-48.5	-63.7	3.6	1.51e+00	0	28	104	1486880768	60	55152
2026-01-14 13:37:07.05	165.25	2.49	-48.8	-63.9	3.6	1.51e+00	0	28	104	1486880768	60	56822
2026-01-14 13:37:11.09	165.46	2.24	-48.7	-63.9	3.6	1.51e+00	0	29	104	1486880768	60	56628
2026-01-14 13:37:15.12	165.67	2.00	-48.7	-63.9	3.6	1.51e+00	0	29	104	1486880768	60	56379
2026-01-14 13:37:19.16	165.88	1.76	-48.6	-63.8	3.6	1.51e+00	0	28	104	1486880768	60	56041
2026-01-14 13:37:23.21	166.09	1.53	-48.6	-63.8	3.6	1.51e+00	0	28	104	1486880768	60	56229
2026-01-14 13:37:27.24	166.29	1.29	-48.6	-63.8	3.6	1.51e+00	0	29	104	1486880768	60	56248
2026-01-14 13:37:31.28	166.49	1.06	-48.6	-63.8	3.6	1.51e+00	0	29	104	1486880768	60	55921
2026-01-14 13:37:35.32	166.68	0.82	-48.6	-63.8	3.6	1.51e+00	0	29	104	1486880768	60	55929
2026-01-14 13:37:39.36	166.88	0.59	-48.6	-63.8	3.6	1.51e+00	0	28	104	1486880768	60	56054
2026-01-14 13:37:43.40	167.07	0.36	-48.6	-63.8	3.6	1.51e+00	0	28	104	1486880768	60	55987
2026-01-14 13:37:47.44	167.26	0.13	-48.6	-63.8	3.6	1.51e+00	0	29	104	1486880768	60	55983

#Closed at: 2026-01-14 13:37:51
#Recorded file [1486 MB]: D:/lorett/data/35029_260115_012255.dat