passes_logs/2026/01/14/R4.6S_Anadyr/R4.6S_Anadyr__20260114_174249_FENGYUN_3D_rec.log

#Pass ID: 20260114_174249_FENGYUN 3D
#Satellite: FENGYUN 3D
#Configuration: FENGYUN 3D
#almurnet v.1.7.20251203
#Start time: 2026-01-14 17:42:50

#Version: 2.2.20231116
#Station: R4.6S_Anadyr
#Location: 177.4865 lon 64.73178 lat
#TLE: 1 43010U 17072A   26013.94640698 -.00000044  00000+0  88349-6 0  9999
#TLE: 2 43010  98.9934 345.7464 0002313 110.9627 249.1796 14.19695403423100

#Time	Az	El	Level	Level2	SNR	BER	BlckErr	Temp	State	Recorded	gain1	gain2
2026-01-14 17:42:50.36	23.48	0.05	-48.6	-60.8	3.6	8.45e-01	0	27	104	0	60	39423
2026-01-14 17:42:54.61	23.39	0.30	-48.7	-60.8	3.6	8.45e-01	0	27	104	0	60	39717
2026-01-14 17:42:58.65	23.31	0.54	-48.8	-60.9	3.6	8.45e-01	0	27	104	0	60	40155
2026-01-14 17:43:02.69	23.23	0.78	-48.7	-60.8	3.6	8.45e-01	0	27	104	0	60	39428
2026-01-14 17:43:06.73	23.14	1.03	-48.0	-60.2	3.6	8.45e-01	0	28	104	0	60	37004
2026-01-14 17:43:10.76	23.05	1.28	-47.2	-59.3	3.6	8.44e-01	0	28	104	0	60	33214
2026-01-14 17:43:14.80	22.96	1.52	-47.2	-59.0	3.6	8.45e-01	0	28	104	0	60	32302
2026-01-14 17:43:18.84	22.87	1.78	-47.1	-58.7	3.6	8.44e-01	0	28	104	0	60	31058
2026-01-14 17:43:22.87	22.78	2.03	-47.2	-59.2	3.6	8.45e-01	0	28	104	0	60	33139
2026-01-14 17:43:26.92	22.69	2.28	-47.2	-58.8	3.6	8.45e-01	0	28	104	0	60	31596
2026-01-14 17:43:30.95	22.59	2.54	-47.1	-57.6	3.6	8.45e-01	0	28	104	0	60	27572
2026-01-14 17:43:34.99	22.49	2.80	-47.1	-58.2	3.6	8.46e-01	0	28	104	0	60	29446
2026-01-14 17:43:39.02	22.39	3.06	-45.6	-49.8	8.0	1.72e-01	0	28	0	5242880	60	11109
2026-01-14 17:43:43.06	22.29	3.33	-41.7	-43.4	15.0	1.10e-06	0	28	0	27262976	56	6700
2026-01-14 17:43:47.10	22.18	3.59	-40.7	-42.2	15.9	0.00e+00	0	28	0	49283072	54	6583
2026-01-14 17:43:51.13	22.07	3.86	-47.0	-57.5	3.6	7.11e-01	0	28	104	62914560	60	27066
2026-01-14 17:43:55.17	21.97	4.14	-37.3	-38.2	20.3	0.00e+00	0	28	0	76546048	48	5862
2026-01-14 17:43:59.20	21.85	4.41	-36.3	-37.1	21.4	0.00e+00	0	28	0	99614720	46	5828
2026-01-14 17:44:03.23	21.74	4.69	-35.6	-36.4	21.9	0.00e+00	0	28	0	122683392	44	6006
2026-01-14 17:44:07.27	21.62	4.97	-35.5	-36.3	22.1	0.00e+00	0	28	0	144703488	44	5942
2026-01-14 17:44:11.31	21.50	5.25	-35.4	-36.2	22.2	0.00e+00	0	28	0	167772160	44	5883
2026-01-14 17:44:15.34	21.38	5.54	-35.4	-36.2	22.3	0.00e+00	0	28	0	189792256	44	5857
2026-01-14 17:44:19.38	21.26	5.82	-35.4	-36.3	22.2	0.00e+00	0	28	0	212860928	44	5900
2026-01-14 17:44:23.42	21.13	6.12	-35.3	-36.1	22.4	0.00e+00	0	28	0	235929600	44	5802
2026-01-14 17:44:27.46	21.00	6.41	-35.3	-36.1	22.5	0.00e+00	0	28	0	257949696	44	5787
2026-01-14 17:44:31.50	20.86	6.71	-35.2	-35.9	22.6	0.00e+00	0	28	0	281018368	44	5685
2026-01-14 17:44:35.54	20.72	7.01	-35.0	-35.8	22.9	0.00e+00	0	28	0	304087040	44	5595
2026-01-14 17:44:39.58	20.58	7.32	-34.8	-35.6	23.2	0.00e+00	0	28	0	327155712	42	6106
2026-01-14 17:44:43.61	20.44	7.63	-35.1	-35.8	23.0	0.00e+00	0	28	0	349175808	42	6292
2026-01-14 17:44:47.65	20.29	7.94	-34.6	-35.3	23.5	0.00e+00	0	28	0	372244480	42	5921
2026-01-14 17:44:51.70	20.14	8.25	-34.5	-35.3	23.4	0.00e+00	0	28	0	394264576	42	5924
2026-01-14 17:44:55.73	19.99	8.57	-34.3	-35.0	23.8	0.00e+00	0	28	0	417333248	42	5727
2026-01-14 17:44:59.77	19.83	8.90	-34.1	-34.8	23.9	0.00e+00	0	28	0	440401920	42	5603
2026-01-14 17:45:03.81	19.67	9.22	-34.1	-34.8	23.9	0.00e+00	0	28	0	462422016	42	5622
2026-01-14 17:45:07.85	19.50	9.56	-33.8	-34.5	24.3	0.00e+00	0	28	0	485490688	42	5390
2026-01-14 17:45:11.89	19.33	9.89	-33.8	-34.5	24.2	0.00e+00	0	28	0	508559360	40	6086
2026-01-14 17:45:15.93	19.16	10.23	-33.6	-34.3	24.4	0.00e+00	0	28	0	531628032	40	5947
2026-01-14 17:45:19.97	18.98	10.58	-33.6	-34.3	24.5	0.00e+00	0	28	0	553648128	40	5943
2026-01-14 17:45:24.01	18.79	10.93	-33.5	-34.2	24.5	0.00e+00	0	28	0	576716800	40	5873
2026-01-14 17:45:28.04	18.60	11.28	-33.6	-34.3	24.6	0.00e+00	0	28	0	598736896	40	5904
2026-01-14 17:45:32.08	18.41	11.64	-33.5	-34.2	24.6	0.00e+00	0	28	0	621805568	40	5872
2026-01-14 17:45:36.11	18.21	12.00	-33.3	-34.0	24.8	0.00e+00	0	28	0	644874240	40	5727
2026-01-14 17:45:40.15	18.01	12.37	-33.6	-34.3	24.6	0.00e+00	0	28	0	666894336	40	5915
2026-01-14 17:45:44.19	17.80	12.75	-33.2	-33.8	25.0	0.00e+00	0	28	0	689963008	40	5613
2026-01-14 17:45:48.23	17.58	13.13	-33.1	-33.8	25.1	0.00e+00	0	28	0	713031680	40	5605
2026-01-14 17:45:52.27	17.36	13.51	-32.9	-33.5	25.3	0.00e+00	0	29	0	736100352	40	5428
2026-01-14 17:45:56.31	17.13	13.90	-33.0	-33.6	25.3	0.00e+00	0	28	0	758120448	40	5499
2026-01-14 17:46:00.35	16.89	14.30	-32.8	-33.5	25.4	0.00e+00	0	28	0	781189120	40	5383
2026-01-14 17:46:04.39	16.65	14.70	-32.9	-33.6	25.4	0.00e+00	0	28	0	803209216	38	6108
2026-01-14 17:46:08.43	16.40	15.11	-32.7	-33.3	25.6	0.00e+00	0	28	0	826277888	38	5960
2026-01-14 17:46:12.46	16.15	15.53	-32.6	-33.3	25.6	0.00e+00	0	28	0	849346560	38	5925
2026-01-14 17:46:16.50	15.88	15.95	-32.5	-33.2	25.8	0.00e+00	0	28	0	871366656	38	5835
2026-01-14 17:46:20.54	15.61	16.38	-31.9	-32.5	26.3	0.00e+00	0	28	0	894435328	38	5417
2026-01-14 17:46:24.58	15.33	16.81	-31.7	-32.3	26.5	0.00e+00	0	28	0	917504000	36	5946
2026-01-14 17:46:28.62	15.04	17.26	-31.6	-32.2	26.6	0.00e+00	0	28	0	939524096	36	5873
2026-01-14 17:46:32.65	14.74	17.71	-31.6	-32.2	26.6	0.00e+00	0	28	0	962592768	36	5883
2026-01-14 17:46:36.69	14.43	18.16	-31.7	-32.4	26.5	0.00e+00	0	28	0	985661440	36	5968
2026-01-14 17:46:40.73	14.11	18.63	-31.7	-32.3	26.6	0.00e+00	0	28	0	1007681536	36	5936
2026-01-14 17:46:44.77	13.79	19.10	-31.4	-32.1	26.8	0.00e+00	0	29	0	1030750208	36	5775
2026-01-14 17:46:48.81	13.45	19.58	-31.4	-32.1	26.8	0.00e+00	0	28	0	1053818880	36	5784
2026-01-14 17:46:52.85	13.10	20.07	-31.2	-31.8	27.0	0.00e+00	0	28	0	1075838976	36	5616
2026-01-14 17:46:56.89	12.73	20.57	-31.0	-31.6	27.1	0.00e+00	0	29	0	1098907648	36	5497
2026-01-14 17:47:00.93	12.36	21.08	-30.9	-31.5	27.2	0.00e+00	0	29	0	1121976320	36	5414
2026-01-14 17:47:04.97	11.97	21.60	-30.9	-31.5	27.2	0.00e+00	0	29	0	1145044992	34	6051
2026-01-14 17:47:09.01	11.56	22.12	-30.6	-31.3	27.4	0.00e+00	0	29	0	1167065088	34	5926
2026-01-14 17:47:13.05	11.15	22.66	-30.8	-31.4	27.4	0.00e+00	0	29	0	1190133760	34	6005
2026-01-14 17:47:17.08	10.72	23.20	-30.4	-31.0	27.6	0.00e+00	0	29	0	1212153856	34	5744
2026-01-14 17:47:21.12	10.27	23.76	-30.3	-30.9	27.7	0.00e+00	0	29	0	1235222528	34	5654
2026-01-14 17:47:25.16	9.80	24.32	-30.3	-31.0	27.7	0.00e+00	0	29	0	1258291200	34	5696
2026-01-14 17:47:29.19	9.32	24.90	-30.2	-30.8	27.7	0.00e+00	0	29	0	1280311296	34	5601
2026-01-14 17:47:33.23	8.82	25.48	-30.3	-30.9	27.8	0.00e+00	0	29	0	1303379968	34	5671
2026-01-14 17:47:37.27	8.30	26.08	-30.6	-31.2	27.6	0.00e+00	0	29	0	1326448640	34	5853
2026-01-14 17:47:41.31	7.75	26.68	-30.4	-31.1	27.7	0.00e+00	0	29	0	1348468736	34	5781
2026-01-14 17:47:45.33	7.19	27.30	-30.2	-30.9	27.9	0.00e+00	0	29	0	1371537408	34	5632
2026-01-14 17:47:49.37	6.61	27.93	-30.1	-30.8	28.0	0.00e+00	0	29	0	1394606080	34	5572
2026-01-14 17:47:53.41	6.00	28.57	-30.3	-30.9	27.8	0.00e+00	0	29	0	1416626176	34	5672
2026-01-14 17:47:57.44	5.36	29.22	-29.9	-30.5	28.1	0.00e+00	0	29	0	1439694848	34	5405
2026-01-14 17:48:01.47	4.70	29.88	-29.8	-30.4	28.2	0.00e+00	0	29	0	1462763520	32	5992
2026-01-14 17:48:05.51	4.01	30.55	-29.8	-30.4	28.2	0.00e+00	0	29	0	1484783616	32	6032
2026-01-14 17:48:09.55	3.28	31.23	-29.6	-30.3	28.3	0.00e+00	0	29	0	1507852288	32	5900
2026-01-14 17:48:13.58	2.53	31.92	-29.6	-30.3	28.3	0.00e+00	0	29	0	1530920960	32	5897
2026-01-14 17:48:17.61	1.74	32.63	-29.5	-30.2	28.4	0.00e+00	0	29	0	1552941056	32	5834
2026-01-14 17:48:21.66	0.92	33.34	-29.3	-29.9	28.6	0.00e+00	0	29	0	1576009728	32	5652
2026-01-14 17:48:25.69	0.06	34.07	-29.1	-29.7	28.8	0.00e+00	0	29	0	1598029824	32	5503
2026-01-14 17:48:29.72	359.16	34.80	-29.4	-30.0	28.4	0.00e+00	0	29	0	1621098496	32	5731
2026-01-14 17:48:33.76	358.21	35.54	-29.6	-30.3	28.4	0.00e+00	0	29	0	1644167168	32	5901
2026-01-14 17:48:37.80	357.22	36.30	-29.7	-30.4	28.2	0.00e+00	0	29	0	1666187264	32	5976
2026-01-14 17:48:41.84	356.19	37.06	-29.6	-30.2	28.4	0.00e+00	0	29	0	1689255936	32	5876
2026-01-14 17:48:45.88	355.10	37.82	-29.5	-30.2	28.4	0.00e+00	0	29	0	1712324608	32	5836
2026-01-14 17:48:49.91	353.96	38.59	-29.8	-30.4	28.2	0.00e+00	0	29	0	1734344704	32	5979
2026-01-14 17:48:53.95	352.76	39.36	-29.6	-30.2	28.4	0.00e+00	0	29	0	1757413376	32	5858
2026-01-14 17:48:57.99	351.51	40.14	-29.6	-30.3	28.4	0.00e+00	0	29	0	1780482048	32	5903
2026-01-14 17:49:02.02	350.19	40.92	-29.6	-30.2	28.4	0.00e+00	0	29	0	1802502144	32	5862
2026-01-14 17:49:06.06	348.81	41.69	-29.4	-30.1	28.5	0.00e+00	0	29	0	1825570816	32	5763
2026-01-14 17:49:10.09	347.36	42.46	-29.7	-30.3	28.3	0.00e+00	0	29	0	1848639488	32	5900
2026-01-14 17:49:14.13	345.83	43.23	-29.4	-30.1	28.6	0.00e+00	0	29	0	1870659584	32	5771
2026-01-14 17:49:18.17	344.24	43.99	-29.6	-30.2	28.3	0.00e+00	0	29	0	1893728256	32	5839
2026-01-14 17:49:22.20	342.56	44.73	-29.9	-30.5	28.2	0.00e+00	0	29	0	1916796928	32	6062
2026-01-14 17:49:26.24	340.81	45.46	-29.9	-30.4	28.2	0.00e+00	0	29	0	1938817024	32	6026
2026-01-14 17:49:30.28	338.97	46.18	-29.8	-30.4	28.2	0.00e+00	0	29	0	1961885696	32	6020
2026-01-14 17:49:34.31	337.05	46.87	-30.0	-30.6	28.1	0.00e+00	0	29	0	1983905792	32	6110
2026-01-14 17:49:38.35	335.03	47.53	-30.6	-31.2	27.6	0.00e+00	0	29	0	2006974464	32	6600
2026-01-14 17:49:42.39	332.94	48.17	-30.6	-31.2	27.6	0.00e+00	0	29	0	2030043136	34	5894
2026-01-14 17:49:46.43	330.75	48.77	-30.7	-31.4	27.5	0.00e+00	0	29	0	2053111808	34	5978
2026-01-14 17:49:50.47	328.49	49.33	-30.8	-31.4	27.4	0.00e+00	0	29	0	2075131904	34	6010
2026-01-14 17:49:54.51	326.14	49.84	-31.1	-31.8	27.2	0.00e+00	0	29	0	2098200576	34	6268
2026-01-14 17:49:58.55	323.71	50.31	-30.7	-31.4	27.5	0.00e+00	0	29	0	2121269248	34	5985
2026-01-14 17:50:02.58	321.22	50.73	-30.4	-31.0	27.8	0.00e+00	0	29	0	2143289344	34	5732
2026-01-14 17:50:06.62	318.65	51.09	-30.8	-31.5	27.4	0.00e+00	0	29	0	2166358016	34	6063
2026-01-14 17:50:10.66	316.02	51.40	-30.6	-31.2	27.5	0.00e+00	0	29	0	2188378112	34	5873
2026-01-14 17:50:14.69	313.36	51.63	-30.5	-31.2	27.6	0.00e+00	0	29	0	2211446784	34	5851
2026-01-14 17:50:18.73	310.65	51.81	-30.9	-31.5	27.3	0.00e+00	0	29	0	2234515456	34	6041
2026-01-14 17:50:22.77	307.91	51.92	-30.4	-31.1	27.8	0.00e+00	0	29	0	2256535552	34	5792
2026-01-14 17:50:26.80	305.17	51.96	-30.6	-31.3	27.5	0.00e+00	0	29	0	2279604224	34	5906
2026-01-14 17:50:30.84	302.42	51.93	-31.0	-31.7	27.3	0.00e+00	0	29	0	2302672896	34	6178
2026-01-14 17:50:34.88	299.68	51.83	-30.5	-31.2	27.5	0.00e+00	0	29	0	2325741568	34	5856
2026-01-14 17:50:38.91	296.97	51.66	-30.4	-31.0	27.7	0.00e+00	0	29	0	2347761664	34	5732
2026-01-14 17:50:42.95	294.29	51.43	-30.4	-30.9	27.8	0.00e+00	0	29	0	2370830336	34	5687
2026-01-14 17:50:46.99	291.65	51.14	-30.2	-30.8	28.0	0.00e+00	0	29	0	2392850432	34	5623
2026-01-14 17:50:51.03	289.07	50.78	-30.4	-31.0	27.8	0.00e+00	0	29	0	2415919104	34	5739
2026-01-14 17:50:55.06	286.57	50.37	-30.6	-31.3	27.6	0.00e+00	0	29	0	2438987776	34	5904
2026-01-14 17:50:59.10	284.13	49.91	-30.4	-31.0	27.9	0.00e+00	0	29	0	2461007872	34	5712
2026-01-14 17:51:03.14	281.76	49.40	-30.2	-30.7	27.9	0.00e+00	0	29	0	2484076544	34	5539
2026-01-14 17:51:07.18	279.48	48.84	-29.8	-30.4	28.2	0.00e+00	0	29	0	2507145216	34	5348
2026-01-14 17:51:11.21	277.29	48.25	-30.2	-30.8	27.9	0.00e+00	0	29	0	2529165312	34	5627
2026-01-14 17:51:15.25	275.18	47.61	-30.3	-31.0	27.8	0.00e+00	0	29	0	2552233984	34	5749
2026-01-14 17:51:19.28	273.16	46.95	-29.8	-30.4	28.3	0.00e+00	0	29	0	2575302656	32	6000
2026-01-14 17:51:23.32	271.21	46.26	-29.7	-30.4	28.4	0.00e+00	0	29	0	2597322752	32	5965
2026-01-14 17:51:27.35	269.36	45.55	-30.2	-30.8	28.1	0.00e+00	0	29	0	2620391424	32	6308
2026-01-14 17:51:31.39	267.59	44.82	-29.3	-29.9	28.6	0.00e+00	0	29	0	2643460096	32	5667
2026-01-14 17:51:35.43	265.90	44.08	-29.4	-29.9	28.5	0.00e+00	0	29	0	2665480192	32	5668
2026-01-14 17:51:39.46	264.29	43.32	-29.6	-30.1	28.5	0.00e+00	0	29	0	2688548864	32	5799
2026-01-14 17:51:43.50	262.75	42.55	-29.2	-29.9	28.7	0.00e+00	0	29	0	2711617536	32	5632
2026-01-14 17:51:47.54	261.29	41.78	-29.3	-29.9	28.6	0.00e+00	0	29	0	2733637632	32	5650
2026-01-14 17:51:51.57	259.89	41.00	-29.8	-30.4	28.2	0.00e+00	0	29	0	2756706304	32	5990
2026-01-14 17:51:55.61	258.56	40.22	-29.6	-30.3	28.3	0.00e+00	0	29	0	2778726400	32	5909
2026-01-14 17:51:59.65	257.30	39.44	-29.3	-29.9	28.5	0.00e+00	0	29	0	2801795072	32	5633
2026-01-14 17:52:03.69	256.09	38.66	-29.5	-30.1	28.4	0.00e+00	0	29	0	2824863744	32	5777
2026-01-14 17:52:07.72	254.94	37.89	-29.5	-30.0	28.3	0.00e+00	0	29	0	2847932416	32	5726
2026-01-14 17:52:11.76	253.84	37.12	-29.5	-30.2	28.4	0.00e+00	0	29	0	2869952512	32	5845
2026-01-14 17:52:15.80	252.80	36.36	-29.2	-29.9	28.6	0.00e+00	0	29	0	2893021184	32	5675
2026-01-14 17:52:19.84	251.80	35.60	-29.3	-29.8	28.5	0.00e+00	0	29	0	2916089856	32	5607
2026-01-14 17:52:23.88	250.84	34.86	-29.1	-29.8	28.7	0.00e+00	0	29	0	2938109952	32	5608
2026-01-14 17:52:27.91	249.93	34.12	-29.1	-29.6	28.7	0.00e+00	0	29	0	2961178624	32	5472
2026-01-14 17:52:31.95	249.06	33.39	-29.2	-29.9	28.6	0.00e+00	0	29	0	2983198720	32	5663
2026-01-14 17:52:35.99	248.23	32.67	-29.6	-30.3	28.3	0.00e+00	0	29	0	3006267392	32	5963
2026-01-14 17:52:40.02	247.44	31.96	-29.1	-29.6	28.7	0.00e+00	0	29	0	3029336064	32	5494
2026-01-14 17:52:44.06	246.68	31.27	-29.7	-30.4	28.3	0.00e+00	0	29	0	3051356160	32	6028
2026-01-14 17:52:48.10	245.95	30.58	-29.9	-30.6	27.9	0.00e+00	0	29	0	3074424832	32	6162
2026-01-14 17:52:52.14	245.25	29.90	-30.0	-30.7	27.8	0.00e+00	0	29	0	3097493504	32	6220
2026-01-14 17:52:56.18	244.58	29.24	-30.1	-30.6	27.7	0.00e+00	0	29	0	3120562176	32	6164
2026-01-14 17:53:00.21	243.94	28.58	-30.0	-30.6	27.8	0.00e+00	0	29	0	3142582272	32	6127
2026-01-14 17:53:04.25	243.32	27.94	-30.1	-30.7	27.7	0.00e+00	0	29	0	3165650944	32	6192
2026-01-14 17:53:08.29	242.73	27.31	-30.1	-30.7	27.6	0.00e+00	0	29	0	3187671040	32	6208
2026-01-14 17:53:12.33	242.16	26.69	-30.0	-30.6	27.7	0.00e+00	0	29	0	3210739712	32	6168
2026-01-14 17:53:16.37	241.61	26.08	-30.1	-30.6	27.7	0.00e+00	0	29	0	3233808384	32	6150
2026-01-14 17:53:20.41	241.09	25.48	-30.3	-31.0	27.6	0.00e+00	0	29	0	3255828480	32	6433
2026-01-14 17:53:24.44	240.58	24.89	-30.2	-30.7	27.6	0.00e+00	0	29	0	3278897152	32	6233
2026-01-14 17:53:28.48	240.10	24.31	-30.3	-31.0	27.6	0.00e+00	0	29	0	3301965824	32	6426
2026-01-14 17:53:32.52	239.63	23.74	-30.3	-31.0	27.5	0.00e+00	0	29	0	3325034496	32	6446
2026-01-14 17:53:36.56	239.17	23.19	-30.3	-30.9	27.5	0.00e+00	0	29	0	3347054592	32	6338
2026-01-14 17:53:40.60	238.74	22.64	-30.3	-30.9	27.6	0.00e+00	0	29	0	3370123264	32	6390
2026-01-14 17:53:44.64	238.32	22.10	-30.1	-30.8	27.7	0.00e+00	0	29	0	3392143360	32	6301
2026-01-14 17:53:48.68	237.91	21.57	-30.3	-31.0	27.6	0.00e+00	0	29	0	3415212032	32	6443
2026-01-14 17:53:52.72	237.52	21.05	-30.5	-31.0	27.5	0.00e+00	0	29	0	3438280704	32	6463
2026-01-14 17:53:56.76	237.14	20.54	-30.9	-31.6	27.1	0.00e+00	0	29	0	3460300800	34	6119
2026-01-14 17:54:00.80	236.77	20.04	-31.2	-31.9	26.8	0.00e+00	0	29	0	3483369472	34	6382
2026-01-14 17:54:04.84	236.41	19.55	-31.2	-31.8	26.8	0.00e+00	0	29	0	3506438144	34	6267
2026-01-14 17:54:08.88	236.07	19.07	-31.2	-31.9	26.8	0.00e+00	0	29	0	3528458240	34	6368
2026-01-14 17:54:12.92	235.74	18.59	-31.6	-32.2	26.5	0.00e+00	0	29	0	3551526912	34	6572
2026-01-14 17:54:16.96	235.42	18.12	-31.5	-32.1	26.5	0.00e+00	0	29	0	3574595584	34	6491
2026-01-14 17:54:20.99	235.11	17.66	-31.7	-32.2	26.5	0.00e+00	0	29	0	3596615680	36	5894
2026-01-14 17:54:25.03	234.80	17.21	-31.5	-32.0	26.6	0.00e+00	0	29	0	3619684352	36	5752
2026-01-14 17:54:29.07	234.51	16.76	-31.8	-32.3	26.3	0.00e+00	0	29	0	3642753024	36	5961
2026-01-14 17:54:33.11	234.23	16.33	-32.2	-32.8	25.9	0.00e+00	0	29	0	3664773120	36	6275
2026-01-14 17:54:37.15	233.95	15.90	-32.5	-33.1	25.7	0.00e+00	0	29	0	3687841792	36	6517
2026-01-14 17:54:41.18	233.68	15.47	-32.6	-33.2	25.5	0.00e+00	0	29	0	3710910464	38	5893
2026-01-14 17:54:45.22	233.42	15.06	-32.8	-33.5	25.3	0.00e+00	0	29	0	3732930560	38	6043
2026-01-14 17:54:49.26	233.17	14.64	-32.7	-33.4	25.5	0.00e+00	0	29	0	3755999232	38	5987
2026-01-14 17:54:53.29	232.93	14.24	-32.9	-33.6	25.3	0.00e+00	0	29	0	3779067904	38	6116
2026-01-14 17:54:57.33	232.69	13.84	-33.2	-33.8	25.0	0.00e+00	0	29	0	3801088000	38	6263
2026-01-14 17:55:01.36	232.46	13.45	-33.5	-34.1	24.7	0.00e+00	0	29	0	3824156672	38	6503
2026-01-14 17:55:05.40	232.23	13.06	-33.9	-34.7	24.3	0.00e+00	0	29	0	3847225344	40	6176
2026-01-14 17:55:09.44	232.01	12.68	-34.1	-34.8	24.1	0.00e+00	0	29	0	3869245440	40	6250
2026-01-14 17:55:13.47	231.80	12.31	-34.6	-35.3	23.7	0.00e+00	0	29	0	3892314112	40	6626
2026-01-14 17:55:17.51	231.59	11.94	-34.8	-35.5	23.4	0.00e+00	0	29	0	3914334208	42	6085
2026-01-14 17:55:21.55	231.39	11.57	-35.4	-36.1	22.9	0.00e+00	0	29	0	3937402880	42	6508
2026-01-14 17:55:25.59	231.19	11.21	-35.5	-36.4	22.7	0.00e+00	0	29	0	3960471552	42	6703
2026-01-14 17:55:29.62	231.00	10.86	-35.6	-36.3	22.5	0.00e+00	0	29	0	3983540224	44	5938
2026-01-14 17:55:33.65	230.81	10.51	-35.9	-36.6	22.2	0.00e+00	0	29	0	4005560320	44	6173
2026-01-14 17:55:37.69	230.63	10.16	-36.2	-36.9	21.9	0.00e+00	0	29	0	4028628992	44	6375
2026-01-14 17:55:41.73	230.45	9.82	-36.6	-37.6	21.4	0.00e+00	0	29	0	4051697664	44	6849
2026-01-14 17:55:45.77	230.28	9.48	-36.9	-37.9	21.2	0.00e+00	0	29	0	4073717760	46	6330
2026-01-14 17:55:49.80	230.11	9.15	-37.4	-38.2	20.6	0.00e+00	0	29	0	4096786432	46	6602
2026-01-14 17:55:53.84	229.94	8.82	-37.6	-38.5	20.4	0.00e+00	0	29	0	4118806528	46	6801
2026-01-14 17:55:57.88	229.78	8.49	-37.9	-38.8	19.9	0.00e+00	0	29	0	4141875200	48	6305
2026-01-14 17:56:01.92	229.62	8.17	-38.3	-39.3	19.5	0.00e+00	0	29	0	4164943872	48	6621
2026-01-14 17:56:05.95	229.47	7.86	-38.6	-39.7	19.2	0.00e+00	0	29	0	4186963968	48	6952
2026-01-14 17:56:09.99	229.32	7.54	-39.0	-40.0	18.5	0.00e+00	0	29	0	4210032640	50	6445
2026-01-14 17:56:14.03	229.17	7.23	-39.2	-40.3	18.2	0.00e+00	0	29	0	4233101312	50	6663
2026-01-14 17:56:18.07	229.03	6.93	-39.4	-40.6	17.6	0.00e+00	0	29	0	4256169984	50	6901
2026-01-14 17:56:22.11	228.89	6.62	-39.6	-40.8	17.7	0.00e+00	0	29	0	4278190080	50	7014
2026-01-14 17:56:26.14	228.75	6.33	-39.9	-41.2	17.3	0.00e+00	0	29	0	4301258752	52	6550
2026-01-14 17:56:30.18	228.61	6.03	-40.2	-41.5	16.7	0.00e+00	0	29	0	4323278848	52	6797
2026-01-14 17:56:34.22	228.48	5.74	-40.5	-41.9	16.0	0.00e+00	0	29	0	4346347520	54	6349
2026-01-14 17:56:38.26	228.35	5.45	-40.6	-42.1	15.9	0.00e+00	0	29	0	4369416192	54	6496
2026-01-14 17:56:42.30	228.23	5.16	-40.9	-42.5	15.6	0.00e+00	0	29	0	4391436288	54	6816
2026-01-14 17:56:46.33	228.10	4.88	-41.1	-42.8	15.1	0.00e+00	0	29	0	4414504960	54	7059
2026-01-14 17:56:50.37	227.98	4.60	-41.1	-42.8	14.9	0.00e+00	0	29	0	4437573632	54	7036
2026-01-14 17:56:54.41	227.87	4.32	-41.3	-43.1	14.2	0.00e+00	0	29	0	4459593728	54	7335
2026-01-14 17:56:58.45	227.75	4.04	-41.3	-43.3	13.7	6.80e-06	0	29	0	4482662400	54	7438
2026-01-14 17:57:02.48	227.64	3.77	-41.7	-43.9	13.2	4.57e-05	0	29	0	4505731072	56	7099
2026-01-14 17:57:06.52	227.53	3.50	-42.0	-44.2	12.9	4.00e-05	0	29	0	4527751168	56	7409
2026-01-14 17:57:10.56	227.42	3.23	-42.1	-44.3	12.7	1.21e-04	0	29	0	4550819840	56	7444
2026-01-14 17:57:14.60	227.31	2.97	-46.6	-58.6	3.6	5.26e-01	0	29	104	4572839936	60	30628
2026-01-14 17:57:18.64	227.21	2.70	-48.8	-60.9	3.6	8.45e-01	0	29	104	4572839936	60	40073
2026-01-14 17:57:22.68	227.10	2.44	-48.9	-61.0	3.6	8.45e-01	0	29	104	4572839936	60	40528
2026-01-14 17:57:26.72	227.00	2.18	-48.8	-61.1	3.6	8.45e-01	0	29	104	4572839936	60	40886
2026-01-14 17:57:30.76	226.90	1.93	-48.7	-60.8	3.6	8.46e-01	0	29	104	4572839936	60	39858
2026-01-14 17:57:34.81	226.81	1.67	-48.8	-60.9	3.6	8.45e-01	0	29	104	4572839936	60	40245
2026-01-14 17:57:38.84	226.71	1.42	-48.8	-60.9	3.6	8.45e-01	0	29	104	4572839936	60	40140
2026-01-14 17:57:42.88	226.62	1.17	-48.8	-60.9	3.6	8.45e-01	0	29	104	4572839936	60	39887
2026-01-14 17:57:46.92	226.53	0.92	-48.8	-60.9	3.6	8.45e-01	0	29	104	4572839936	60	39896
2026-01-14 17:57:50.96	226.44	0.68	-48.8	-60.9	3.6	8.45e-01	0	29	104	4572839936	60	39898
2026-01-14 17:57:55.00	226.35	0.44	-48.7	-60.9	3.6	8.46e-01	0	29	104	4572839936	60	39954
2026-01-14 17:57:59.04	226.26	0.19	-48.7	-60.8	3.6	8.46e-01	0	29	104	4572839936	60	39769
2026-01-14 17:58:03.09	226.18	-0.05	-48.7	-60.8	3.6	8.45e-01	0	29	104	4572839936	60	39745

#Closed at: 2026-01-14 17:58:03
#Recorded file [4572 MB]: D:/lorett/data/35029_260115_054250.dat