passes_logs/2026/01/14/R4.6S_Anadyr/R4.6S_Anadyr__20260114_012943_AQUA_rec.log

#Pass ID: 20260114_012943_AQUA
#Satellite: AQUA
#Configuration: AQUA
#almurnet v.1.7.20251203
#Start time: 2026-01-14 01:29:46

#Version: 2.2.20231116
#Station: R4.6S_Anadyr
#Location: 177.4865 lon 64.73178 lat
#TLE: 1 27424U 02022A   26013.58555111  .00000773  00000+0  16469-3 0  9993
#TLE: 2 27424  98.4079 339.9892 0002045  80.0365 334.6894 14.61818766260681

#Time	Az	El	Level	Level2	SNR	BER	BlckErr	Temp	State	Recorded	gain1	gain2
2026-01-14 01:29:46.57	144.65	0.21	-48.8	-65.3	3.3	7.68e-01	0	26	0	0	60	70626
2026-01-14 01:29:50.61	144.60	0.46	-48.9	-66.9	3.5	7.68e-01	0	26	104	0	60	85375
2026-01-14 01:29:54.65	144.54	0.72	-48.6	-66.5	3.5	7.68e-01	0	26	104	0	60	81366
2026-01-14 01:29:58.69	144.49	0.97	-47.5	-65.4	3.5	7.68e-01	0	26	104	0	60	72051
2026-01-14 01:30:02.73	144.43	1.23	-46.8	-64.8	3.5	7.68e-01	0	26	104	0	60	66843
2026-01-14 01:30:06.77	144.37	1.49	-46.8	-64.4	3.5	7.68e-01	0	26	104	0	60	63666
2026-01-14 01:30:10.81	144.31	1.76	-46.8	-64.5	3.5	7.68e-01	0	26	104	0	60	64890
2026-01-14 01:30:14.85	144.25	2.02	-46.8	-64.8	3.5	7.68e-01	0	26	104	0	60	66627
2026-01-14 01:30:18.89	144.19	2.29	-46.8	-64.7	3.5	7.68e-01	0	26	104	0	60	65837
2026-01-14 01:30:22.93	144.12	2.57	-46.8	-64.5	3.5	7.68e-01	0	26	104	0	60	64449
2026-01-14 01:30:26.97	144.05	2.84	-46.8	-64.7	3.5	7.68e-01	0	26	104	0	60	65784
2026-01-14 01:30:31.01	143.99	3.12	-46.7	-62.3	3.6	7.68e-01	0	26	104	0	60	49990
2026-01-14 01:30:35.05	143.92	3.40	-45.3	-51.5	12.7	7.68e-01	92	26	0	5242880	60	14386
2026-01-14 01:30:39.09	143.84	3.69	-43.0	-46.2	18.0	7.68e-01	91	26	0	12582912	60	7884
2026-01-14 01:30:43.13	143.77	3.97	-39.8	-41.7	22.8	7.68e-01	92	26	0	17825792	54	6631
2026-01-14 01:30:47.17	143.70	4.26	-41.5	-44.1	20.1	7.68e-01	89	26	0	23068672	58	6903
2026-01-14 01:30:51.21	143.62	4.56	-40.0	-42.1	22.5	7.68e-01	90	26	0	30408704	56	6143
2026-01-14 01:30:55.25	143.54	4.86	-38.7	-40.5	24.0	7.68e-01	92	26	0	38273024	52	6434
2026-01-14 01:30:59.29	143.46	5.16	-38.8	-40.5	24.0	7.68e-01	92	26	0	45613056	52	6496
2026-01-14 01:31:03.33	143.38	5.46	-38.6	-40.4	24.1	7.68e-01	90	26	0	53477376	52	6355
2026-01-14 01:31:07.37	143.29	5.77	-38.6	-40.3	24.2	7.68e-01	92	27	0	60817408	52	6318
2026-01-14 01:31:11.41	143.20	6.09	-38.6	-40.3	24.3	7.68e-01	92	26	0	68681728	52	6297
2026-01-14 01:31:15.45	143.11	6.41	-38.5	-40.1	24.5	7.68e-01	92	26	0	76021760	52	6183
2026-01-14 01:31:19.49	143.02	6.73	-38.2	-39.8	24.8	7.68e-01	92	26	0	83886080	52	5937
2026-01-14 01:31:23.53	142.92	7.05	-38.1	-39.8	24.9	7.68e-01	92	27	0	91226112	52	5932
2026-01-14 01:31:27.56	142.83	7.39	-37.8	-39.3	25.4	7.68e-01	92	26	0	98566144	50	6326
2026-01-14 01:31:31.60	142.72	7.72	-37.6	-39.1	25.6	7.68e-01	89	26	0	106430464	50	6152
2026-01-14 01:31:35.64	142.62	8.06	-37.3	-38.7	26.0	7.68e-01	92	27	0	113770496	50	5893
2026-01-14 01:31:39.68	142.51	8.41	-37.1	-38.6	26.1	7.68e-01	90	27	0	121634816	50	5817
2026-01-14 01:31:43.72	142.40	8.76	-37.0	-38.5	26.3	7.68e-01	92	27	0	128974848	50	5735
2026-01-14 01:31:47.75	142.29	9.12	-36.9	-38.3	26.5	7.68e-01	90	26	0	136839168	48	6334
2026-01-14 01:31:51.79	142.18	9.48	-36.9	-38.3	26.4	7.68e-01	92	27	0	144179200	48	6328
2026-01-14 01:31:55.83	142.06	9.85	-37.3	-47.7	3.6	7.68e-01	0	27	104	148897792	48	18561
2026-01-14 01:31:59.87	141.93	10.22	-46.7	-62.8	3.5	7.68e-01	0	27	104	148897792	60	52833
2026-01-14 01:32:03.91	141.80	10.60	-37.9	-48.4	3.3	7.68e-01	0	27	104	148897792	52	16122
2026-01-14 01:32:07.95	141.67	10.99	-40.7	-51.8	3.6	7.68e-01	0	27	104	148897792	54	21216
2026-01-14 01:32:11.99	141.54	11.39	-40.6	-51.6	4.0	7.68e-01	0	27	104	148897792	56	18373
2026-01-14 01:32:16.03	141.40	11.79	-38.5	-49.2	3.5	7.68e-01	0	27	104	148897792	50	19829
2026-01-14 01:32:20.07	141.25	12.20	-46.4	-63.1	3.5	7.68e-01	0	27	104	148897792	60	55128
2026-01-14 01:32:24.11	141.10	12.61	-37.4	-48.0	3.5	7.68e-01	0	27	104	148897792	50	17202
2026-01-14 01:32:28.15	140.95	13.04	-47.8	-65.3	3.5	7.68e-01	0	27	104	148897792	60	70970
2026-01-14 01:32:32.19	140.79	13.47	-36.0	-46.3	3.5	7.68e-01	0	27	104	148897792	46	17879
2026-01-14 01:32:36.23	140.62	13.91	-48.3	-66.1	3.5	7.68e-01	0	27	104	148897792	60	77821
2026-01-14 01:32:40.26	140.45	14.36	-39.0	-49.5	3.5	7.68e-01	0	27	104	148897792	54	16321
2026-01-14 01:32:44.30	140.27	14.81	-39.8	-50.5	3.5	7.68e-01	0	27	104	148897792	56	16191
2026-01-14 01:32:48.35	140.09	15.28	-36.3	-46.6	3.5	7.68e-01	0	27	104	148897792	48	16457
2026-01-14 01:32:52.39	139.90	15.76	-39.4	-49.9	3.5	7.68e-01	0	27	104	148897792	54	17059
2026-01-14 01:32:56.42	139.70	16.25	-39.5	-50.1	3.6	7.68e-01	0	27	104	148897792	54	17294
2026-01-14 01:33:00.46	139.50	16.75	-34.6	-44.9	3.5	7.68e-01	0	27	104	148897792	44	16902
2026-01-14 01:33:04.50	139.28	17.26	-39.5	-50.2	3.5	7.68e-01	0	27	104	148897792	56	15589
2026-01-14 01:33:08.54	139.06	17.78	-38.7	-49.2	3.5	7.68e-01	0	27	104	148897792	52	17607
2026-01-14 01:33:12.58	138.83	18.31	-45.7	-58.5	3.5	7.68e-01	0	27	104	148897792	60	32338
2026-01-14 01:33:16.62	138.59	18.86	-34.8	-45.0	3.5	7.68e-01	0	27	104	148897792	44	17263
2026-01-14 01:33:20.66	138.34	19.41	-37.1	-47.4	3.5	7.68e-01	0	27	104	148897792	46	20283
2026-01-14 01:33:24.70	138.09	19.99	-38.2	-48.6	3.5	7.68e-01	0	27	104	148897792	52	16498
2026-01-14 01:33:28.74	137.82	20.57	-36.6	-47.0	3.5	7.68e-01	0	27	104	148897792	44	21548
2026-01-14 01:33:32.78	137.53	21.17	-41.4	-52.2	3.5	7.68e-01	0	27	104	148897792	60	15717
2026-01-14 01:33:36.82	137.24	21.79	-37.2	-47.5	3.5	7.68e-01	0	27	104	148897792	48	18256
2026-01-14 01:33:40.86	136.93	22.42	-36.0	-46.3	3.5	7.68e-01	0	27	104	148897792	44	19894
2026-01-14 01:33:44.89	136.61	23.07	-35.6	-45.9	3.5	7.68e-01	0	27	104	148897792	46	17013
2026-01-14 01:33:48.93	136.27	23.73	-42.2	-53.2	3.5	7.68e-01	0	27	104	148897792	60	17503
2026-01-14 01:33:52.98	135.92	24.42	-35.1	-45.3	3.5	7.68e-01	0	27	104	148897792	46	15931
2026-01-14 01:33:57.02	135.55	25.12	-48.6	-66.4	3.5	7.68e-01	0	27	104	148897792	60	80865
2026-01-14 01:34:01.06	135.16	25.84	-37.6	-47.9	3.5	7.68e-01	0	27	104	148897792	50	17072
2026-01-14 01:34:05.09	134.75	26.58	-48.1	-64.2	3.5	7.68e-01	0	27	104	148897792	60	62731
2026-01-14 01:34:09.13	134.32	27.34	-36.2	-46.5	3.5	7.68e-01	0	27	104	148897792	48	16176
2026-01-14 01:34:13.17	133.87	28.13	-35.5	-45.8	3.5	7.68e-01	0	27	104	148897792	46	16864
2026-01-14 01:34:17.21	133.40	28.93	-47.4	-61.8	3.6	7.68e-01	0	27	104	148897792	60	47132
2026-01-14 01:34:21.25	132.89	29.76	-34.2	-44.4	3.5	7.68e-01	0	27	104	148897792	44	15969
2026-01-14 01:34:25.29	132.36	30.61	-40.4	-51.0	3.6	7.68e-01	0	27	104	148897792	60	13646
2026-01-14 01:34:29.33	131.80	31.49	-37.1	-47.4	3.5	7.68e-01	0	27	104	148897792	48	17982
2026-01-14 01:34:33.37	131.21	32.39	-44.8	-56.7	3.5	7.68e-01	0	27	104	148897792	60	26466
2026-01-14 01:34:37.41	130.57	33.32	-35.8	-46.0	3.5	7.68e-01	0	27	104	148897792	46	17252
2026-01-14 01:34:41.45	129.90	34.28	-35.9	-46.1	3.5	7.68e-01	0	27	104	148897792	50	13836
2026-01-14 01:34:45.49	129.19	35.26	-36.8	-47.2	3.5	7.68e-01	0	27	104	148897792	48	17564
2026-01-14 01:34:49.52	128.43	36.27	-37.6	-48.0	3.7	7.68e-01	0	27	104	148897792	54	13582
2026-01-14 01:34:53.55	127.62	37.31	-44.5	-56.2	3.5	7.68e-01	0	27	104	148897792	60	24897
2026-01-14 01:34:57.60	126.75	38.38	-39.4	-49.9	3.5	7.68e-01	0	27	104	148897792	52	19131
2026-01-14 01:35:01.64	125.82	39.48	-37.4	-47.8	3.2	7.68e-01	0	27	104	148897792	54	13299
2026-01-14 01:35:05.68	124.82	40.60	-36.7	-47.1	3.5	7.68e-01	0	27	104	148897792	48	17365
2026-01-14 01:35:09.72	123.75	41.76	-46.4	-59.4	3.5	7.68e-01	0	27	104	148897792	60	35997
2026-01-14 01:35:13.76	122.59	42.94	-37.7	-48.0	3.5	7.68e-01	0	27	104	148897792	50	17170
2026-01-14 01:35:17.80	121.35	44.14	-45.7	-58.2	3.5	7.68e-01	0	27	104	148897792	54	43983
2026-01-14 01:35:21.84	120.00	45.37	-37.1	-47.5	3.5	7.68e-01	0	27	104	148897792	48	18187
2026-01-14 01:35:25.88	118.54	46.62	-36.7	-47.1	3.5	7.68e-01	0	27	104	148897792	46	19447
2026-01-14 01:35:29.92	116.95	47.89	-39.9	-50.4	3.5	7.68e-01	0	27	104	148897792	56	16116
2026-01-14 01:35:33.96	115.23	49.17	-45.6	-58.1	3.5	7.68e-01	0	27	104	148897792	60	30826
2026-01-14 01:35:38.00	113.35	50.46	-38.0	-48.4	3.5	7.68e-01	0	27	104	148897792	46	22745
2026-01-14 01:35:42.04	111.31	51.75	-34.6	-44.9	3.5	7.68e-01	0	27	104	148897792	44	16951
2026-01-14 01:35:46.08	109.07	53.03	-45.6	-57.8	3.5	7.68e-01	0	27	104	148897792	60	29913
2026-01-14 01:35:50.05	106.68	54.28	-34.3	-44.4	3.5	7.68e-01	0	27	104	148897792	44	16044
2026-01-14 01:35:54.09	104.01	55.53	-48.6	-65.7	3.5	7.68e-01	0	27	104	148897792	60	74083
2026-01-14 01:35:58.13	101.10	56.74	-37.5	-47.8	3.5	7.68e-01	0	27	104	148897792	50	16818
2026-01-14 01:36:02.17	97.93	57.89	-38.8	-49.2	3.5	7.68e-01	0	27	104	148897792	50	19839
2026-01-14 01:36:06.21	94.48	58.98	-38.7	-49.0	3.6	7.68e-01	0	27	104	148897792	52	17103
2026-01-14 01:36:10.25	90.73	59.99	-41.0	-51.7	3.6	7.68e-01	0	27	104	148897792	58	16518
2026-01-14 01:36:14.28	86.71	60.89	-40.2	-50.9	3.5	7.68e-01	0	27	104	148897792	54	19001
2026-01-14 01:36:18.32	82.40	61.67	-36.8	-47.2	3.5	7.68e-01	0	27	104	148897792	48	17496
2026-01-14 01:36:22.36	77.84	62.30	-40.5	-51.3	3.3	7.68e-01	0	27	104	148897792	60	14082
2026-01-14 01:36:26.40	73.06	62.78	-38.8	-49.3	3.6	7.68e-01	0	27	104	148897792	52	17766
2026-01-14 01:36:30.44	68.11	63.09	-48.5	-65.3	3.5	7.68e-01	0	27	104	148897792	60	71161
2026-01-14 01:36:34.48	63.08	63.22	-39.6	-50.3	3.5	7.68e-01	0	27	104	148897792	54	17864
2026-01-14 01:36:38.52	58.03	63.17	-42.4	-53.4	3.8	7.68e-01	0	27	104	148897792	50	31897
2026-01-14 01:36:42.56	53.04	62.93	-41.5	-52.4	3.5	7.68e-01	0	27	104	148897792	56	20300
2026-01-14 01:36:46.60	48.19	62.52	-47.5	-62.2	3.5	7.68e-01	0	27	104	148897792	60	49570
2026-01-14 01:36:50.64	43.53	61.95	-39.4	-49.7	3.5	7.68e-01	0	27	104	148897792	54	16649
2026-01-14 01:36:54.68	39.11	61.23	-40.4	-51.0	3.5	7.68e-01	0	27	104	148897792	50	24302
2026-01-14 01:36:58.72	34.97	60.37	-44.7	-56.4	3.5	7.68e-01	0	27	104	148897792	58	28595
2026-01-14 01:37:02.76	31.11	59.41	-39.9	-50.5	3.5	7.68e-01	0	27	104	148897792	54	18276
2026-01-14 01:37:06.80	27.55	58.36	-48.6	-66.0	3.5	7.68e-01	0	27	104	148897792	60	76646
2026-01-14 01:37:10.83	24.28	57.23	-37.5	-47.9	3.5	7.68e-01	0	27	104	148897792	48	19113
2026-01-14 01:37:14.87	21.26	56.04	-48.6	-65.4	3.5	7.68e-01	0	27	104	148897792	60	71979
2026-01-14 01:37:18.91	18.50	54.82	-37.9	-48.3	3.5	7.68e-01	0	27	104	148897792	50	17712
2026-01-14 01:37:22.95	15.98	53.56	-35.8	-46.2	3.5	7.68e-01	0	27	104	148897792	44	19636
2026-01-14 01:37:26.99	13.67	52.28	-38.8	-49.3	3.5	7.68e-01	0	27	104	148897792	54	15947
2026-01-14 01:37:31.03	11.55	50.99	-40.3	-50.7	3.6	7.68e-01	0	27	104	148897792	56	16617
2026-01-14 01:37:35.07	9.61	49.71	-46.0	-58.4	3.5	7.68e-01	0	27	104	148897792	60	31891
2026-01-14 01:37:39.11	7.84	48.43	-35.2	-45.7	3.5	7.68e-01	0	27	104	148897792	46	16520
2026-01-14 01:37:43.15	6.20	47.16	-46.9	-60.4	3.5	7.68e-01	0	27	104	148897792	60	40484
2026-01-14 01:37:47.19	4.69	45.90	-37.6	-47.6	3.5	7.68e-01	0	27	104	148897792	50	16434
2026-01-14 01:37:51.24	3.30	44.67	-48.2	-64.0	3.5	7.68e-01	0	27	104	148897792	60	60916
2026-01-14 01:37:55.28	2.02	43.46	-35.3	-45.5	3.5	7.68e-01	0	27	104	148897792	46	16139
2026-01-14 01:37:59.32	0.83	42.27	-35.4	-45.8	3.3	7.68e-01	0	27	104	148897792	48	14891
2026-01-14 01:38:03.35	359.73	41.12	-37.2	-47.4	3.5	7.68e-01	0	27	104	148897792	48	17958
2026-01-14 01:38:07.39	358.71	39.98	-39.5	-50.0	3.5	7.68e-01	0	27	104	148897792	56	15402
2026-01-14 01:38:11.43	357.75	38.88	-46.5	-59.4	3.5	7.68e-01	0	27	104	148897792	60	35942
2026-01-14 01:38:15.47	356.86	37.80	-37.1	-47.5	3.5	7.68e-01	0	27	104	148897792	50	16268
2026-01-14 01:38:19.51	356.03	36.76	-36.7	-47.3	3.5	7.68e-01	0	27	104	148897792	48	17824
2026-01-14 01:38:23.55	355.25	35.74	-35.7	-45.9	3.5	7.68e-01	0	27	104	148897792	46	16996
2026-01-14 01:38:27.59	354.52	34.74	-44.3	-55.9	3.6	7.68e-01	0	27	104	148897792	60	24019
2026-01-14 01:38:31.62	353.84	33.78	-34.3	-35.4	29.9	7.68e-01	59	27	0	153616384	44	5724
2026-01-14 01:38:35.65	353.19	32.85	-34.4	-35.6	29.9	7.68e-01	56	27	0	160956416	44	5834
2026-01-14 01:38:39.69	352.59	31.94	-34.2	-35.4	30.0	7.68e-01	60	27	0	168820736	44	5664
2026-01-14 01:38:43.73	352.01	31.05	-33.8	-35.0	30.2	7.68e-01	57	27	0	176160768	42	6079
2026-01-14 01:38:47.77	351.47	30.19	-34.1	-35.3	30.0	7.68e-01	58	27	0	184025088	42	6311
2026-01-14 01:38:51.82	350.96	29.35	-33.9	-35.1	30.2	7.68e-01	54	27	0	191365120	42	6148
2026-01-14 01:38:55.85	350.47	28.54	-34.0	-35.2	30.0	7.68e-01	61	27	0	199229440	42	6258
2026-01-14 01:38:59.89	350.01	27.75	-34.1	-35.3	30.1	7.68e-01	44	27	0	206569472	42	6279
2026-01-14 01:39:03.93	349.58	26.98	-34.4	-35.6	29.8	7.68e-01	61	27	0	214433792	42	6499
2026-01-14 01:39:07.97	349.16	26.24	-34.4	-35.6	29.7	7.68e-01	49	27	0	221773824	42	6518
2026-01-14 01:39:12.01	348.77	25.51	-34.9	-36.1	29.4	7.68e-01	57	27	0	229113856	42	6913
2026-01-14 01:39:16.04	348.39	24.80	-34.8	-36.0	29.4	7.68e-01	45	27	0	236978176	44	6124
2026-01-14 01:39:20.09	348.04	24.11	-34.9	-36.1	29.2	7.68e-01	55	27	0	244318208	44	6150
2026-01-14 01:39:24.12	347.70	23.45	-34.6	-35.8	29.4	7.68e-01	61	27	0	252182528	44	5975
2026-01-14 01:39:28.16	347.37	22.79	-34.6	-35.8	29.5	7.68e-01	59	27	0	259522560	44	5953
2026-01-14 01:39:32.20	347.06	22.16	-34.8	-36.1	29.3	7.68e-01	58	27	0	267386880	44	6140
2026-01-14 01:39:36.24	346.76	21.54	-34.6	-35.8	29.5	7.68e-01	57	27	0	274726912	44	5982
2026-01-14 01:39:40.28	346.47	20.93	-34.5	-35.7	29.7	7.68e-01	60	27	0	282591232	44	5863
2026-01-14 01:39:44.32	346.20	20.34	-34.7	-35.9	29.4	7.68e-01	59	27	0	289931264	44	6023
2026-01-14 01:39:48.36	345.94	19.76	-34.7	-35.9	29.3	7.68e-01	59	27	0	297271296	44	6018
2026-01-14 01:39:52.39	345.69	19.20	-34.8	-36.0	29.2	7.68e-01	59	27	0	305135616	44	6117
2026-01-14 01:39:56.43	345.45	18.65	-34.6	-35.8	29.4	7.68e-01	60	27	0	312475648	44	5985
2026-01-14 01:40:00.47	345.22	18.12	-34.7	-35.9	29.3	7.68e-01	60	27	0	320339968	44	6024
2026-01-14 01:40:04.51	344.99	17.59	-34.7	-36.0	29.3	7.68e-01	59	27	0	327680000	44	6068
2026-01-14 01:40:08.55	344.78	17.08	-34.7	-35.9	29.2	7.68e-01	52	27	0	335544320	44	6033
2026-01-14 01:40:12.59	344.57	16.58	-34.7	-35.9	29.2	7.68e-01	58	27	0	342884352	44	6035
2026-01-14 01:40:16.63	344.38	16.09	-34.7	-35.9	29.2	7.68e-01	60	27	0	350748672	44	6025
2026-01-14 01:40:20.67	344.18	15.61	-34.6	-35.8	29.3	7.68e-01	60	27	0	358088704	44	5987
2026-01-14 01:40:24.71	344.00	15.13	-34.8	-36.0	29.1	7.68e-01	59	27	0	365953024	44	6113
2026-01-14 01:40:28.75	343.82	14.67	-34.5	-35.7	29.4	7.68e-01	59	27	0	373293056	44	5865
2026-01-14 01:40:32.79	343.65	14.22	-34.4	-35.6	29.5	7.68e-01	60	27	0	380633088	44	5833
2026-01-14 01:40:36.83	343.49	13.78	-34.8	-36.0	29.1	7.68e-01	55	27	0	388497408	44	6118
2026-01-14 01:40:40.87	343.33	13.34	-34.8	-36.1	29.0	7.68e-01	51	27	0	395837440	44	6162
2026-01-14 01:40:44.91	343.17	12.92	-34.8	-36.0	29.0	7.68e-01	58	27	0	403701760	44	6120
2026-01-14 01:40:48.95	343.02	12.50	-34.9	-36.2	29.0	7.68e-01	58	27	0	411041792	44	6207
2026-01-14 01:40:52.99	342.88	12.09	-34.8	-36.1	28.9	7.68e-01	60	27	0	418906112	44	6151
2026-01-14 01:40:57.03	342.74	11.69	-34.9	-36.2	28.9	7.68e-01	52	27	0	426246144	44	6219
2026-01-14 01:41:01.06	342.60	11.29	-35.0	-36.2	28.8	7.68e-01	63	27	0	433586176	44	6271
2026-01-14 01:41:05.10	342.47	10.90	-35.1	-36.3	28.8	7.68e-01	55	27	0	441450496	44	6329
2026-01-14 01:41:09.14	342.35	10.52	-35.2	-36.5	28.6	7.68e-01	57	27	0	448790528	44	6437
2026-01-14 01:41:13.18	342.22	10.14	-35.2	-36.5	28.5	7.68e-01	45	27	0	456654848	44	6446
2026-01-14 01:41:17.21	342.11	9.77	-35.4	-36.6	28.5	7.68e-01	59	27	0	463994880	44	6546
2026-01-14 01:41:21.25	341.99	9.41	-35.4	-36.7	28.3	7.68e-01	46	27	0	471859200	44	6601
2026-01-14 01:41:25.29	341.88	9.05	-35.5	-36.8	28.2	7.68e-01	52	27	0	479199232	44	6668
2026-01-14 01:41:29.33	341.77	8.70	-35.6	-36.9	28.1	7.68e-01	55	27	0	487063552	44	6788
2026-01-14 01:41:33.37	341.66	8.35	-35.7	-37.0	28.0	7.68e-01	60	27	0	494403584	44	6869
2026-01-14 01:41:37.40	341.56	8.01	-35.8	-37.1	27.9	7.68e-01	45	27	0	501743616	44	6926
2026-01-14 01:41:41.44	341.46	7.67	-36.1	-37.4	27.6	7.68e-01	59	27	0	509607936	46	6387
2026-01-14 01:41:45.48	341.37	7.34	-36.1	-37.4	27.6	7.68e-01	59	27	0	516947968	46	6398
2026-01-14 01:41:49.51	341.27	7.01	-36.2	-37.5	27.4	7.68e-01	58	27	0	524812288	46	6487
2026-01-14 01:41:53.55	341.18	6.68	-36.3	-37.6	27.3	7.68e-01	60	27	0	532152320	46	6568
2026-01-14 01:41:57.59	341.10	6.37	-36.4	-37.8	26.9	7.68e-01	58	27	0	540016640	46	6710
2026-01-14 01:42:01.62	341.01	6.05	-36.6	-38.0	26.7	7.68e-01	58	27	0	547356672	46	6842
2026-01-14 01:42:05.66	340.93	5.74	-37.4	-38.9	25.6	7.68e-01	61	27	0	554696704	48	6737
2026-01-14 01:42:09.70	340.84	5.43	-38.7	-40.5	23.6	7.68e-01	57	27	0	562561024	50	7245
2026-01-14 01:42:13.74	340.77	5.13	-40.3	-42.7	20.6	7.68e-01	60	27	0	569901056	54	7407
2026-01-14 01:42:17.78	340.69	4.83	-42.2	-45.9	16.9	7.68e-01	60	27	0	577765376	58	8478
2026-01-14 01:42:21.82	340.61	4.54	-43.5	-49.6	12.5	7.68e-01	62	27	0	585105408	60	11652
2026-01-14 01:42:25.86	340.54	4.24	-44.1	-53.3	7.9	7.68e-01	82	27	0	592969728	60	17815
2026-01-14 01:42:29.90	340.47	3.96	-44.3	-57.9	4.6	7.68e-01	0	27	104	596115456	60	30263
2026-01-14 01:42:33.93	340.40	3.67	-44.3	-60.7	3.6	7.68e-01	0	27	104	596115456	60	41603
2026-01-14 01:42:37.97	340.33	3.39	-44.4	-61.0	3.5	7.68e-01	0	27	104	596115456	60	43293
2026-01-14 01:42:42.01	340.27	3.11	-44.4	-62.2	3.5	7.68e-01	0	27	104	596115456	60	49812
2026-01-14 01:42:46.05	340.21	2.83	-48.3	-66.3	3.5	7.68e-01	0	27	104	596115456	60	79881
2026-01-14 01:42:50.09	340.14	2.56	-48.9	-66.8	3.5	7.68e-01	0	27	104	596115456	60	84317
2026-01-14 01:42:54.14	340.08	2.29	-48.5	-66.8	3.5	7.68e-01	0	27	104	596115456	60	84364
2026-01-14 01:42:58.18	340.02	2.02	-48.7	-66.8	3.5	7.68e-01	0	27	104	596115456	60	83764
2026-01-14 01:43:02.22	339.97	1.76	-48.8	-66.8	3.5	7.68e-01	0	27	104	596115456	60	84036
2026-01-14 01:43:06.25	339.91	1.50	-48.8	-66.8	3.5	7.68e-01	0	27	104	596115456	60	83975
2026-01-14 01:43:10.29	339.86	1.24	-48.8	-66.7	3.5	7.68e-01	0	27	104	596115456	60	83352
2026-01-14 01:43:14.33	339.80	0.98	-48.8	-66.7	3.5	7.68e-01	0	27	104	596115456	60	83414
2026-01-14 01:43:18.37	339.75	0.73	-48.8	-66.7	3.5	7.68e-01	0	27	104	596115456	60	83456
2026-01-14 01:43:22.41	339.70	0.47	-48.7	-66.7	3.5	7.68e-01	0	27	104	596115456	60	83160
2026-01-14 01:43:26.45	339.65	0.22	-48.8	-66.7	3.5	7.68e-01	0	27	104	596115456	60	83064
2026-01-14 01:43:30.49	339.60	-0.02	-48.7	-66.7	3.5	7.68e-01	0	27	104	596115456	60	83120

#Closed at: 2026-01-14 01:43:32
#Recorded file [596 MB]: D:/lorett/data/35029_260114_132946.dat