passes_logs/2026/01/14/R4.6S_Anadyr/R4.6S_Anadyr__20260114_035802_FENGYUN_3D_rec.log

#Pass ID: 20260114_035802_FENGYUN 3D
#Satellite: FENGYUN 3D
#Configuration: FENGYUN 3D
#almurnet v.1.7.20251203
#Start time: 2026-01-14 03:58:04

#Version: 2.2.20231116
#Station: R4.6S_Anadyr
#Location: 177.4865 lon 64.73178 lat
#TLE: 1 43010U 17072A   26013.59402220  .00000029  00000+0  35477-4 0  9991
#TLE: 2 43010  98.9934 345.3884 0002280 110.7757 249.3663 14.19695359423056

#Time	Az	El	Level	Level2	SNR	BER	BlckErr	Temp	State	Recorded	gain1	gain2
2026-01-14 03:58:04.32	200.18	0.09	-48.5	-63.5	3.6	1.51e+00	0	25	0	0	60	53926
2026-01-14 03:58:08.35	200.40	0.31	-48.7	-60.8	3.6	8.46e-01	0	26	104	0	60	39822
2026-01-14 03:58:12.38	200.63	0.53	-48.7	-60.8	3.6	8.46e-01	0	26	104	0	60	39583
2026-01-14 03:58:16.42	200.86	0.75	-48.3	-60.4	3.6	8.45e-01	0	26	104	0	60	37914
2026-01-14 03:58:20.46	201.09	0.98	-47.3	-59.4	3.6	8.45e-01	0	26	104	0	60	33680
2026-01-14 03:58:24.51	201.33	1.20	-47.3	-59.1	3.6	8.44e-01	0	27	104	0	60	32728
2026-01-14 03:58:28.54	201.57	1.43	-47.3	-59.3	3.6	8.45e-01	0	27	104	0	60	33427
2026-01-14 03:58:32.58	201.81	1.66	-47.3	-59.4	3.6	8.44e-01	0	27	104	0	60	33694
2026-01-14 03:58:36.62	202.06	1.89	-47.3	-59.2	3.6	8.45e-01	0	27	104	0	60	32847
2026-01-14 03:58:40.66	202.31	2.12	-47.3	-59.2	3.6	8.45e-01	0	27	104	0	60	33104
2026-01-14 03:58:44.70	202.57	2.36	-47.3	-59.4	3.6	8.45e-01	0	27	104	0	60	33556
2026-01-14 03:58:48.74	202.82	2.59	-47.0	-56.3	3.9	8.41e-01	0	27	104	0	60	23518
2026-01-14 03:58:52.78	203.09	2.83	-47.3	-58.9	3.6	8.45e-01	0	27	104	0	60	31702
2026-01-14 03:58:56.82	203.35	3.06	-41.4	-43.0	15.5	1.10e-06	0	27	0	10485760	56	6439
2026-01-14 03:59:00.87	203.62	3.30	-38.1	-39.1	19.2	0.00e+00	0	27	0	33554432	50	5825
2026-01-14 03:59:04.91	203.90	3.55	-37.2	-38.2	20.0	1.48e-05	0	27	0	49283072	44	7341
2026-01-14 03:59:08.95	204.18	3.79	-36.4	-37.3	21.2	0.00e+00	0	27	0	71303168	46	5919
2026-01-14 03:59:12.99	204.46	4.03	-35.6	-36.4	22.0	0.00e+00	0	27	0	94371840	44	5989
2026-01-14 03:59:17.03	204.75	4.28	-35.3	-36.1	22.4	0.00e+00	0	27	0	117440512	44	5803
2026-01-14 03:59:21.06	205.04	4.53	-35.4	-36.1	22.4	0.00e+00	0	27	0	139460608	44	5812
2026-01-14 03:59:25.10	205.34	4.78	-35.2	-35.9	22.6	0.00e+00	0	27	0	162529280	44	5688
2026-01-14 03:59:29.14	205.64	5.03	-35.3	-36.0	22.5	0.00e+00	0	27	0	185597952	44	5748
2026-01-14 03:59:33.18	205.95	5.28	-35.1	-35.8	22.7	0.00e+00	0	27	0	207618048	44	5621
2026-01-14 03:59:37.22	206.26	5.53	-35.1	-35.9	22.7	0.00e+00	0	27	0	230686720	44	5679
2026-01-14 03:59:41.26	206.58	5.79	-35.0	-35.8	22.9	0.00e+00	0	27	0	253755392	44	5569
2026-01-14 03:59:45.30	206.90	6.05	-34.9	-35.6	23.1	0.00e+00	0	27	0	275775488	42	6153
2026-01-14 03:59:49.35	207.23	6.31	-34.7	-35.4	23.3	0.00e+00	0	27	0	298844160	42	6015
2026-01-14 03:59:53.38	207.56	6.57	-34.9	-35.6	23.2	0.00e+00	0	27	0	321912832	42	6139
2026-01-14 03:59:57.43	207.90	6.84	-34.7	-35.5	23.3	0.00e+00	0	27	0	343932928	42	6035
2026-01-14 04:00:01.47	208.25	7.10	-34.8	-35.5	23.3	0.00e+00	0	27	0	367001600	42	6069
2026-01-14 04:00:05.51	208.60	7.37	-34.2	-35.0	23.8	0.00e+00	0	27	0	390070272	42	5715
2026-01-14 04:00:09.55	208.96	7.64	-34.1	-34.8	24.0	0.00e+00	0	27	0	413138944	42	5599
2026-01-14 04:00:13.59	209.32	7.91	-34.1	-34.8	24.1	0.00e+00	0	27	0	435159040	42	5615
2026-01-14 04:00:17.64	209.70	8.18	-33.9	-34.6	24.2	0.00e+00	0	27	0	458227712	42	5476
2026-01-14 04:00:21.68	210.07	8.46	-33.9	-34.6	24.2	0.00e+00	0	27	0	481296384	42	5480
2026-01-14 04:00:25.72	210.46	8.74	-33.9	-34.6	24.2	0.00e+00	0	27	0	503316480	42	5489
2026-01-14 04:00:29.76	210.85	9.02	-33.9	-34.7	24.3	0.00e+00	0	27	0	526385152	42	5514
2026-01-14 04:00:33.80	211.25	9.30	-33.8	-34.5	24.4	0.00e+00	0	27	0	549453824	42	5388
2026-01-14 04:00:37.84	211.66	9.58	-33.6	-34.3	24.6	0.00e+00	0	27	0	571473920	40	5917
2026-01-14 04:00:41.88	212.07	9.87	-33.7	-34.4	24.5	0.00e+00	0	27	0	594542592	40	5988
2026-01-14 04:00:45.92	212.49	10.15	-33.5	-34.2	24.7	0.00e+00	0	27	0	617611264	40	5864
2026-01-14 04:00:49.96	212.92	10.44	-33.3	-34.0	24.9	0.00e+00	0	27	0	639631360	40	5727
2026-01-14 04:00:54.00	213.36	10.74	-33.3	-34.0	24.9	0.00e+00	0	27	0	662700032	40	5722
2026-01-14 04:00:58.04	213.81	11.03	-33.1	-33.8	25.1	0.00e+00	0	27	0	685768704	40	5596
2026-01-14 04:01:02.08	214.27	11.32	-33.0	-33.7	25.2	0.00e+00	0	27	0	707788800	40	5527
2026-01-14 04:01:06.12	214.73	11.62	-33.0	-33.6	25.3	0.00e+00	0	27	0	730857472	40	5491
2026-01-14 04:01:10.16	215.20	11.92	-33.0	-33.6	25.3	0.00e+00	0	27	0	753926144	40	5493
2026-01-14 04:01:14.20	215.69	12.22	-33.0	-33.7	25.2	0.00e+00	0	27	0	775946240	40	5533
2026-01-14 04:01:18.24	216.18	12.53	-32.9	-33.6	25.4	0.00e+00	0	27	0	799014912	40	5463
2026-01-14 04:01:22.28	216.68	12.83	-32.9	-33.5	25.4	0.00e+00	0	27	0	822083584	40	5437
2026-01-14 04:01:26.32	217.20	13.14	-32.8	-33.5	25.4	0.00e+00	0	27	0	844103680	40	5421
2026-01-14 04:01:30.36	217.72	13.45	-32.8	-33.5	25.5	0.00e+00	0	27	0	867172352	38	6039
2026-01-14 04:01:34.41	218.26	13.76	-32.3	-33.0	26.0	0.00e+00	0	27	0	890241024	38	5732
2026-01-14 04:01:38.45	218.80	14.07	-32.5	-33.2	25.7	0.00e+00	0	27	0	912261120	38	5837
2026-01-14 04:01:42.48	219.36	14.38	-32.5	-33.1	25.8	0.00e+00	0	27	0	935329792	38	5828
2026-01-14 04:01:46.52	219.92	14.70	-32.3	-32.9	26.0	0.00e+00	0	27	0	958398464	38	5692
2026-01-14 04:01:50.56	220.50	15.02	-32.3	-32.9	25.9	0.00e+00	0	28	0	980418560	38	5671
2026-01-14 04:01:54.60	221.10	15.33	-32.0	-32.6	26.2	0.00e+00	0	27	0	1003487232	38	5475
2026-01-14 04:01:58.64	221.70	15.65	-32.1	-32.7	26.2	0.00e+00	0	28	0	1026555904	38	5548
2026-01-14 04:02:02.69	222.32	15.97	-32.0	-32.6	26.3	0.00e+00	0	27	0	1049624576	38	5469
2026-01-14 04:02:06.73	222.95	16.30	-31.7	-32.4	26.5	0.00e+00	0	27	0	1071644672	36	5973
2026-01-14 04:02:10.77	223.59	16.62	-31.6	-32.2	26.6	0.00e+00	0	27	0	1094713344	36	5896
2026-01-14 04:02:14.81	224.25	16.94	-31.6	-32.3	26.7	0.00e+00	0	27	0	1116733440	36	5911
2026-01-14 04:02:18.86	224.92	17.27	-31.6	-32.3	26.6	0.00e+00	0	27	0	1139802112	36	5935
2026-01-14 04:02:22.90	225.60	17.59	-31.6	-32.3	26.6	0.00e+00	0	27	0	1162870784	36	5926
2026-01-14 04:02:26.94	226.30	17.92	-31.4	-32.0	26.8	0.00e+00	0	27	0	1185939456	36	5748
2026-01-14 04:02:30.98	227.02	18.24	-31.4	-32.1	26.8	0.00e+00	0	27	0	1207959552	36	5783
2026-01-14 04:02:35.02	227.74	18.57	-31.4	-32.0	26.9	0.00e+00	0	27	0	1231028224	36	5714
2026-01-14 04:02:39.06	228.49	18.89	-31.2	-31.8	27.0	0.00e+00	0	28	0	1254096896	36	5630
2026-01-14 04:02:43.10	229.25	19.22	-31.2	-31.8	27.0	0.00e+00	0	27	0	1276116992	36	5600
2026-01-14 04:02:47.14	230.02	19.54	-31.0	-31.6	27.1	0.00e+00	0	28	0	1299185664	36	5446
2026-01-14 04:02:51.18	230.81	19.86	-30.9	-31.5	27.2	0.00e+00	0	27	0	1322254336	36	5388
2026-01-14 04:02:55.22	231.62	20.18	-30.9	-31.5	27.3	0.00e+00	0	27	0	1344274432	36	5424
2026-01-14 04:02:59.26	232.45	20.50	-31.1	-31.7	27.1	0.00e+00	0	27	0	1367343104	36	5528
2026-01-14 04:03:03.31	233.29	20.82	-30.7	-31.3	27.5	0.00e+00	0	27	0	1390411776	34	5956
2026-01-14 04:03:07.35	234.15	21.14	-30.8	-31.4	27.4	0.00e+00	0	27	0	1412431872	34	5992
2026-01-14 04:03:11.39	235.02	21.45	-30.9	-31.6	27.3	0.00e+00	0	27	0	1435500544	34	6104
2026-01-14 04:03:15.43	235.92	21.76	-30.5	-31.2	27.5	0.00e+00	0	28	0	1458569216	34	5840
2026-01-14 04:03:19.47	236.83	22.07	-30.4	-31.0	27.7	0.00e+00	0	27	0	1480589312	34	5748
2026-01-14 04:03:23.51	237.75	22.37	-30.3	-30.9	27.8	0.00e+00	0	27	0	1503657984	34	5656
2026-01-14 04:03:27.55	238.70	22.67	-30.5	-31.2	27.6	0.00e+00	0	28	0	1526726656	34	5853
2026-01-14 04:03:31.59	239.66	22.96	-30.6	-31.3	27.4	0.00e+00	0	27	0	1548746752	34	5914
2026-01-14 04:03:35.64	240.64	23.25	-30.1	-30.8	27.8	0.00e+00	0	27	0	1571815424	34	5592
2026-01-14 04:03:39.68	241.64	23.54	-30.4	-31.1	27.6	0.00e+00	0	27	0	1594884096	34	5785
2026-01-14 04:03:43.72	242.66	23.81	-30.0	-30.6	28.0	0.00e+00	0	27	0	1616904192	34	5487
2026-01-14 04:03:47.76	243.69	24.08	-30.0	-30.7	27.9	0.00e+00	0	27	0	1639972864	34	5517
2026-01-14 04:03:51.80	244.74	24.35	-29.6	-30.3	28.2	0.00e+00	0	27	0	1663041536	32	5914
2026-01-14 04:03:55.84	245.81	24.61	-30.0	-30.6	28.0	0.00e+00	0	27	0	1686110208	32	6149
2026-01-14 04:03:59.88	246.90	24.85	-29.9	-30.5	28.0	0.00e+00	0	28	0	1708130304	32	6079
2026-01-14 04:04:03.92	248.00	25.09	-29.8	-30.4	28.1	0.00e+00	0	27	0	1731198976	32	6027
2026-01-14 04:04:07.96	249.11	25.32	-29.9	-30.5	28.1	0.00e+00	0	28	0	1753219072	32	6065
2026-01-14 04:04:12.00	250.25	25.55	-29.9	-30.5	28.1	0.00e+00	0	27	0	1776287744	32	6100
2026-01-14 04:04:16.05	251.40	25.76	-29.7	-30.3	28.2	0.00e+00	0	27	0	1799356416	32	5928
2026-01-14 04:04:20.09	252.56	25.96	-29.6	-30.2	28.3	0.00e+00	0	27	0	1822425088	32	5854
2026-01-14 04:04:24.13	253.74	26.15	-29.6	-30.2	28.3	0.00e+00	0	27	0	1844445184	32	5887
2026-01-14 04:04:28.16	254.93	26.33	-29.7	-30.3	28.2	0.00e+00	0	27	0	1867513856	32	5940
2026-01-14 04:04:32.20	256.13	26.49	-29.7	-30.3	28.2	0.00e+00	0	27	0	1890582528	32	5951
2026-01-14 04:04:36.24	257.34	26.65	-29.6	-30.2	28.2	0.00e+00	0	28	0	1912602624	32	5892
2026-01-14 04:04:40.28	258.57	26.79	-29.8	-30.4	28.2	0.00e+00	0	27	0	1935671296	32	5981
2026-01-14 04:04:44.32	259.81	26.92	-29.5	-30.1	28.3	0.00e+00	0	28	0	1957691392	32	5824
2026-01-14 04:04:48.36	261.05	27.03	-29.3	-29.9	28.5	0.00e+00	0	27	0	1980760064	32	5661
2026-01-14 04:04:52.40	262.31	27.13	-29.4	-30.0	28.5	0.00e+00	0	27	0	2003828736	32	5696
2026-01-14 04:04:56.44	263.57	27.22	-29.5	-30.2	28.4	0.00e+00	0	27	0	2026897408	32	5834
2026-01-14 04:05:00.49	264.84	27.29	-31.3	-31.9	27.9	1.10e-06	0	28	0	2048917504	36	5681
2026-01-14 04:05:04.53	266.11	27.35	-29.7	-30.4	28.2	0.00e+00	0	28	0	2071986176	32	5979
2026-01-14 04:05:08.57	267.38	27.39	-29.6	-30.2	28.3	0.00e+00	0	28	0	2095054848	32	5868
2026-01-14 04:05:12.60	268.66	27.41	-29.6	-30.1	28.4	0.00e+00	0	27	0	2117074944	32	5810
2026-01-14 04:05:16.64	269.94	27.43	-29.4	-30.0	28.5	0.00e+00	0	28	0	2140143616	32	5713
2026-01-14 04:05:20.68	271.22	27.42	-29.4	-30.0	28.5	0.00e+00	0	28	0	2163212288	32	5732
2026-01-14 04:05:24.73	272.50	27.41	-29.6	-30.2	28.3	0.00e+00	0	27	0	2185232384	32	5863
2026-01-14 04:05:28.77	273.77	27.37	-29.5	-30.1	27.9	0.00e+00	0	28	0	2208301056	32	5777
2026-01-14 04:05:32.81	275.05	27.32	-29.6	-30.1	28.2	0.00e+00	0	28	0	2231369728	32	5796
2026-01-14 04:05:36.85	276.32	27.26	-29.3	-29.9	28.5	0.00e+00	0	28	0	2253389824	32	5645
2026-01-14 04:05:40.89	277.58	27.18	-29.8	-30.4	28.1	0.00e+00	0	28	0	2276458496	32	5997
2026-01-14 04:05:44.93	278.84	27.09	-29.9	-30.5	28.2	0.00e+00	0	27	0	2299527168	32	6085
2026-01-14 04:05:48.97	280.08	26.99	-29.7	-30.3	28.2	0.00e+00	0	27	0	2321547264	32	5909
2026-01-14 04:05:53.01	281.32	26.87	-29.7	-30.3	28.2	0.00e+00	0	28	0	2344615936	32	5952
2026-01-14 04:05:57.05	282.55	26.74	-29.7	-30.3	28.2	0.00e+00	0	28	0	2367684608	32	5962
2026-01-14 04:06:01.09	283.77	26.59	-29.7	-30.3	28.2	0.00e+00	0	28	0	2389704704	32	5935
2026-01-14 04:06:05.14	284.99	26.43	-29.5	-30.1	28.3	0.00e+00	0	28	0	2412773376	32	5805
2026-01-14 04:06:09.18	286.18	26.26	-29.9	-30.5	28.1	0.00e+00	0	28	0	2435842048	32	6087
2026-01-14 04:06:13.22	287.36	26.08	-29.9	-30.6	27.9	0.00e+00	0	27	0	2457862144	32	6148
2026-01-14 04:06:17.26	288.53	25.89	-29.9	-30.4	28.0	0.00e+00	0	28	0	2480930816	32	6031
2026-01-14 04:06:21.30	289.69	25.68	-29.6	-30.2	28.2	0.00e+00	0	28	0	2503999488	32	5874
2026-01-14 04:06:25.34	290.83	25.47	-29.9	-30.5	28.0	0.00e+00	0	28	0	2527068160	32	6100
2026-01-14 04:06:29.38	291.95	25.24	-30.0	-30.6	28.0	0.00e+00	0	27	0	2549088256	32	6164
2026-01-14 04:06:33.42	293.06	25.01	-29.9	-30.6	28.0	0.00e+00	0	27	0	2572156928	32	6138
2026-01-14 04:06:37.46	294.15	24.77	-30.2	-30.8	27.8	0.00e+00	0	27	0	2594177024	32	6316
2026-01-14 04:06:41.50	295.23	24.52	-30.0	-30.7	27.9	0.00e+00	0	28	0	2617245696	32	6189
2026-01-14 04:06:45.54	296.29	24.26	-30.1	-30.7	27.9	0.00e+00	0	27	0	2640314368	32	6223
2026-01-14 04:06:49.59	297.33	23.99	-30.3	-30.8	27.7	0.00e+00	0	27	0	2663383040	32	6301
2026-01-14 04:06:53.63	298.35	23.72	-30.4	-31.0	27.7	0.00e+00	0	28	0	2685403136	32	6407
2026-01-14 04:06:57.67	299.36	23.44	-30.1	-30.8	27.9	0.00e+00	0	28	0	2708471808	32	6256
2026-01-14 04:07:01.71	300.35	23.16	-30.4	-31.0	27.6	0.00e+00	0	27	0	2731540480	32	6462
2026-01-14 04:07:05.74	301.32	22.87	-30.6	-31.2	27.4	0.00e+00	0	27	0	2753560576	32	6557
2026-01-14 04:07:09.78	302.27	22.57	-30.6	-31.3	27.4	0.00e+00	0	27	0	2776629248	32	6672
2026-01-14 04:07:13.82	303.20	22.28	-30.6	-31.2	27.5	0.00e+00	0	27	0	2798649344	32	6615
2026-01-14 04:07:17.86	304.12	21.97	-30.7	-31.4	27.4	0.00e+00	0	28	0	2821718016	34	5977
2026-01-14 04:07:21.91	305.03	21.67	-30.4	-31.1	27.6	0.00e+00	0	28	0	2844786688	34	5786
2026-01-14 04:07:25.95	305.91	21.36	-30.7	-31.3	27.2	0.00e+00	0	28	0	2867855360	34	5935
2026-01-14 04:07:29.99	306.77	21.05	-30.9	-31.6	27.2	0.00e+00	0	28	0	2889875456	34	6113
2026-01-14 04:07:34.03	307.62	20.73	-31.2	-31.8	26.7	0.00e+00	0	28	0	2912944128	34	6246
2026-01-14 04:07:38.07	308.46	20.42	-31.4	-32.0	26.6	0.00e+00	0	28	0	2934964224	34	6396
2026-01-14 04:07:42.11	309.27	20.10	-31.5	-32.1	26.5	0.00e+00	0	28	0	2958032896	34	6489
2026-01-14 04:07:46.15	310.07	19.78	-31.0	-31.6	26.9	0.00e+00	0	27	0	2981101568	34	6121
2026-01-14 04:07:50.19	310.85	19.46	-31.1	-31.9	26.8	0.00e+00	0	28	0	3004170240	34	6319
2026-01-14 04:07:54.23	311.62	19.13	-31.6	-32.2	26.5	0.00e+00	0	28	0	3026190336	34	6562
2026-01-14 04:07:58.27	312.37	18.81	-31.7	-32.3	26.4	0.00e+00	0	28	0	3049259008	34	6658
2026-01-14 04:08:02.31	313.11	18.49	-31.7	-32.3	26.4	0.00e+00	0	27	0	3072327680	34	6631
2026-01-14 04:08:06.35	313.83	18.17	-31.8	-32.5	26.4	0.00e+00	0	27	0	3094347776	36	6043
2026-01-14 04:08:10.39	314.53	17.84	-31.8	-32.4	26.4	0.00e+00	0	28	0	3117416448	36	5991
2026-01-14 04:08:14.44	315.23	17.52	-32.0	-32.7	26.2	0.00e+00	0	28	0	3140485120	36	6209
2026-01-14 04:08:18.48	315.91	17.20	-32.4	-33.0	25.9	0.00e+00	0	28	0	3162505216	36	6446
2026-01-14 04:08:22.52	316.57	16.88	-32.3	-33.0	26.0	0.00e+00	0	28	0	3185573888	36	6409
2026-01-14 04:08:26.56	317.22	16.56	-31.8	-32.4	26.3	0.00e+00	0	28	0	3208642560	36	5984
2026-01-14 04:08:30.59	317.85	16.24	-32.0	-32.7	26.1	0.00e+00	0	28	0	3230662656	36	6228
2026-01-14 04:08:34.63	318.48	15.92	-32.4	-33.1	25.8	0.00e+00	0	28	0	3253731328	36	6503
2026-01-14 04:08:38.68	319.09	15.60	-32.2	-32.9	26.0	0.00e+00	0	27	0	3276800000	36	6390
2026-01-14 04:08:42.72	319.69	15.28	-32.2	-32.8	26.0	0.00e+00	0	28	0	3298820096	36	6305
2026-01-14 04:08:46.76	320.28	14.97	-32.5	-33.2	25.7	0.00e+00	0	27	0	3321888768	36	6597
2026-01-14 04:08:50.80	320.85	14.65	-32.8	-33.5	25.5	0.00e+00	0	28	0	3344957440	36	6818
2026-01-14 04:08:54.85	321.41	14.34	-32.7	-33.3	25.5	0.00e+00	0	28	0	3366977536	38	5957
2026-01-14 04:08:58.89	321.97	14.03	-32.8	-33.4	25.4	0.00e+00	0	28	0	3390046208	38	5981
2026-01-14 04:09:02.93	322.51	13.72	-32.8	-33.5	25.4	0.00e+00	0	28	0	3413114880	38	6065
2026-01-14 04:09:06.97	323.04	13.41	-33.2	-33.8	25.0	0.00e+00	0	27	0	3435134976	38	6255
2026-01-14 04:09:11.01	323.56	13.11	-33.2	-33.9	25.0	0.00e+00	0	28	0	3458203648	38	6365
2026-01-14 04:09:15.05	324.07	12.80	-33.2	-33.9	25.0	0.00e+00	0	27	0	3481272320	38	6371
2026-01-14 04:09:19.10	324.57	12.50	-33.1	-33.7	25.2	0.00e+00	0	28	0	3504340992	38	6222
2026-01-14 04:09:23.14	325.06	12.20	-33.2	-33.8	25.0	0.00e+00	0	27	0	3526361088	38	6278
2026-01-14 04:09:27.18	325.54	11.90	-33.0	-33.7	25.1	0.00e+00	0	27	0	3549429760	38	6232
2026-01-14 04:09:31.22	326.01	11.60	-33.3	-34.1	24.8	0.00e+00	0	27	0	3571449856	38	6499
2026-01-14 04:09:35.26	326.47	11.31	-33.5	-34.3	24.6	0.00e+00	0	28	0	3594518528	38	6627
2026-01-14 04:09:39.31	326.92	11.01	-33.6	-34.3	24.5	0.00e+00	0	28	0	3617587200	38	6624
2026-01-14 04:09:43.35	327.37	10.72	-33.6	-34.2	24.5	0.00e+00	0	28	0	3640655872	40	5876
2026-01-14 04:09:47.39	327.80	10.44	-33.6	-34.2	24.5	0.00e+00	0	27	0	3662675968	40	5855
2026-01-14 04:09:51.43	328.23	10.15	-33.7	-34.4	24.3	0.00e+00	0	27	0	3685744640	40	6017
2026-01-14 04:09:55.47	328.65	9.86	-33.9	-34.7	24.1	0.00e+00	0	27	0	3708813312	40	6233
2026-01-14 04:09:59.51	329.06	9.58	-34.1	-34.7	24.0	0.00e+00	0	28	0	3730833408	40	6234
2026-01-14 04:10:03.54	329.47	9.30	-34.1	-34.9	23.9	0.00e+00	0	27	0	3753902080	40	6387
2026-01-14 04:10:07.57	329.86	9.02	-34.4	-35.0	23.6	0.00e+00	0	28	0	3775922176	40	6454
2026-01-14 04:10:11.61	330.25	8.75	-34.5	-35.1	23.6	0.00e+00	0	27	0	3798990848	42	5816
2026-01-14 04:10:15.66	330.64	8.47	-35.0	-35.7	23.1	0.00e+00	0	28	0	3822059520	42	6199
2026-01-14 04:10:19.70	331.02	8.20	-34.9	-35.8	23.0	0.00e+00	0	28	0	3845128192	42	6278
2026-01-14 04:10:23.73	331.38	7.93	-35.3	-36.0	22.7	0.00e+00	0	27	0	3867148288	42	6438
2026-01-14 04:10:27.78	331.75	7.66	-35.0	-35.7	22.9	0.00e+00	0	28	0	3890216960	42	6196
2026-01-14 04:10:31.81	332.11	7.39	-34.8	-35.6	23.1	0.00e+00	0	28	0	3913285632	42	6171
2026-01-14 04:10:35.86	332.46	7.13	-34.9	-35.7	22.9	0.00e+00	0	28	0	3935305728	42	6243
2026-01-14 04:10:39.90	332.80	6.86	-35.1	-36.0	22.7	0.00e+00	0	28	0	3958374400	42	6398
2026-01-14 04:10:43.94	333.14	6.60	-34.8	-35.6	23.0	0.00e+00	0	28	0	3981443072	42	6140
2026-01-14 04:10:47.98	333.48	6.34	-35.1	-36.0	22.6	0.00e+00	0	28	0	4003463168	42	6421
2026-01-14 04:10:52.02	333.81	6.08	-35.3	-36.2	22.0	0.00e+00	0	28	0	4026531840	42	6567
2026-01-14 04:10:56.06	334.13	5.83	-36.5	-37.4	20.1	0.00e+00	0	28	0	4049600512	44	6706
2026-01-14 04:11:00.10	334.45	5.57	-38.2	-39.5	17.0	0.00e+00	0	28	0	4071620608	48	6848
2026-01-14 04:11:04.14	334.76	5.32	-40.1	-42.2	13.5	6.80e-06	0	28	0	4094689280	52	7351
2026-01-14 04:11:08.18	335.07	5.07	-41.5	-44.6	10.4	3.29e-03	0	28	0	4117757952	54	8642
2026-01-14 04:11:12.22	335.37	4.82	-42.6	-46.9	7.4	9.45e-02	0	28	0	4139778048	56	10064
2026-01-14 04:11:16.26	335.67	4.58	-43.1	-48.5	5.4	4.56e-01	0	28	0	4162846720	58	10784
2026-01-14 04:11:20.30	335.96	4.33	-43.5	-50.7	4.0	8.25e-01	0	28	0	4165992448	58	13847
2026-01-14 04:11:24.34	336.25	4.09	-43.6	-53.1	3.6	8.42e-01	0	28	104	4165992448	58	18334
2026-01-14 04:11:28.38	336.53	3.84	-43.6	-54.2	3.7	8.45e-01	0	28	104	4165992448	58	20689
2026-01-14 04:11:32.42	336.81	3.60	-43.7	-55.7	3.6	8.45e-01	0	28	104	4165992448	58	24639
2026-01-14 04:11:36.46	337.09	3.37	-43.7	-55.4	3.6	8.45e-01	0	28	104	4165992448	58	23783
2026-01-14 04:11:40.49	337.36	3.13	-43.8	-55.8	3.6	8.45e-01	0	28	104	4165992448	60	22296
2026-01-14 04:11:44.53	337.63	2.89	-48.1	-60.1	3.6	8.45e-01	0	28	104	4165992448	60	36750
2026-01-14 04:11:48.57	337.89	2.66	-48.7	-60.8	3.6	8.45e-01	0	28	104	4165992448	60	39764
2026-01-14 04:11:52.61	338.15	2.43	-48.6	-60.9	3.6	8.46e-01	0	28	104	4165992448	60	39991
2026-01-14 04:11:56.65	338.41	2.19	-48.6	-60.8	3.6	8.44e-01	0	28	104	4165992448	60	39482
2026-01-14 04:12:00.68	338.66	1.97	-48.8	-60.8	3.6	8.45e-01	0	28	104	4165992448	60	39681
2026-01-14 04:12:04.72	338.91	1.74	-48.7	-60.8	3.6	8.45e-01	0	28	104	4165992448	60	39774
2026-01-14 04:12:08.76	339.16	1.51	-48.7	-60.8	3.6	8.45e-01	0	28	104	4165992448	60	39518
2026-01-14 04:12:12.80	339.40	1.28	-48.7	-60.8	3.6	8.45e-01	0	28	104	4165992448	60	39529
2026-01-14 04:12:16.83	339.64	1.06	-48.7	-60.7	3.6	8.45e-01	0	28	104	4165992448	60	39369
2026-01-14 04:12:20.88	339.87	0.84	-48.7	-60.7	3.6	8.46e-01	0	28	104	4165992448	60	39246
2026-01-14 04:12:24.91	340.10	0.62	-48.7	-60.8	3.6	8.45e-01	0	28	104	4165992448	60	39591
2026-01-14 04:12:28.95	340.33	0.40	-48.7	-60.8	3.6	8.46e-01	0	28	104	4165992448	60	39525
2026-01-14 04:12:33.00	340.56	0.18	-48.7	-60.8	3.6	8.45e-01	0	28	104	4165992448	60	39451
2026-01-14 04:12:37.03	340.78	-0.04	-48.7	-60.7	3.6	8.45e-01	0	28	104	4165992448	60	39354

#Closed at: 2026-01-14 04:12:37
#Recorded file [4165 MB]: D:/lorett/data/35029_260114_155804.dat