passes_logs/2026/01/14/R4.6S_Anadyr/R4.6S_Anadyr__20260114_194359_AQUA_rec.log

#Pass ID: 20260114_194359_AQUA
#Satellite: AQUA
#Configuration: AQUA
#almurnet v.1.7.20251203
#Start time: 2026-01-14 19:44:00

#Version: 2.2.20231116
#Station: R4.6S_Anadyr
#Location: 177.4865 lon 64.73178 lat
#TLE: 1 27424U 02022A   26013.85306262  .00000759  00000+0  16188-3 0  9996
#TLE: 2 27424  98.4079 340.2612 0002043  79.8220 301.8652 14.61819210260728

#Time	Az	El	Level	Level2	SNR	BER	BlckErr	Temp	State	Recorded	gain1	gain2
2026-01-14 19:44:00.64	32.44	0.03	-48.7	-60.3	3.5	8.45e-01	0	26	0	0	60	37508
2026-01-14 19:44:03.67	32.19	0.19	-49.1	-67.0	3.5	3.03e+01	0	28	104	0	60	86357
2026-01-14 19:44:06.70	31.93	0.34	-49.1	-67.0	3.5	3.03e+01	0	28	104	0	60	86465
2026-01-14 19:44:09.73	31.68	0.49	-48.9	-66.9	3.5	3.03e+01	0	28	104	0	60	85503
2026-01-14 19:44:12.76	31.42	0.64	-48.7	-66.6	3.5	3.03e+01	0	28	104	0	60	82223
2026-01-14 19:44:15.79	31.15	0.80	-48.1	-66.1	3.5	3.03e+01	0	28	104	0	60	77994
2026-01-14 19:44:18.82	30.89	0.95	-47.4	-65.2	3.5	3.03e+01	0	28	104	0	60	70269
2026-01-14 19:44:21.85	30.62	1.10	-47.3	-65.3	3.5	3.03e+01	0	28	104	0	60	70752
2026-01-14 19:44:24.88	30.34	1.26	-47.3	-65.2	3.5	3.03e+01	0	28	104	0	60	70393
2026-01-14 19:44:27.91	30.07	1.41	-47.3	-65.2	3.5	3.03e+01	0	28	104	0	60	70432
2026-01-14 19:44:30.94	29.79	1.57	-47.3	-65.2	3.5	3.03e+01	0	28	104	0	60	70300
2026-01-14 19:44:33.97	29.51	1.72	-47.3	-65.2	3.5	3.03e+01	0	28	104	0	60	70372
2026-01-14 19:44:36.99	29.22	1.88	-47.3	-65.2	3.5	3.03e+01	0	28	104	0	60	70392
2026-01-14 19:44:40.02	28.93	2.03	-47.3	-65.2	3.5	3.03e+01	0	28	104	0	60	69654
2026-01-14 19:44:43.05	28.64	2.19	-47.3	-64.9	3.5	3.03e+01	0	28	104	0	60	67567
2026-01-14 19:44:46.07	28.34	2.35	-47.3	-65.1	3.5	3.03e+01	0	28	104	0	60	69522
2026-01-14 19:44:49.10	28.04	2.50	-47.3	-65.1	3.5	3.03e+01	0	28	104	0	60	69010
2026-01-14 19:44:52.13	27.74	2.66	-47.2	-64.7	3.5	3.03e+01	0	28	104	0	60	65949
2026-01-14 19:44:55.16	27.43	2.82	-47.2	-64.8	3.5	3.03e+01	0	28	104	0	60	67139
2026-01-14 19:44:58.18	27.12	2.97	-44.7	-57.4	3.5	3.03e+01	0	28	104	0	60	28369
2026-01-14 19:45:01.21	26.81	3.13	-47.2	-64.7	3.5	3.03e+01	0	28	104	0	60	66187
2026-01-14 19:45:04.24	26.49	3.29	-47.2	-64.6	3.5	3.03e+01	0	28	104	0	60	65298
2026-01-14 19:45:07.27	26.16	3.45	-39.5	-50.3	3.6	3.03e+01	0	28	104	0	54	17734
2026-01-14 19:45:10.30	25.84	3.61	-44.5	-57.1	3.5	3.03e+01	0	28	104	0	60	27533
2026-01-14 19:45:13.32	25.51	3.76	-47.4	-65.0	3.5	3.03e+01	0	28	104	0	60	68628
2026-01-14 19:45:16.35	25.17	3.92	-38.7	-49.3	3.5	3.03e+01	0	28	104	0	52	17782
2026-01-14 19:45:19.38	24.83	4.08	-40.4	-51.2	3.5	3.03e+01	0	28	104	0	58	15612
2026-01-14 19:45:22.41	24.49	4.24	-40.5	-51.4	3.5	3.03e+01	0	28	104	0	56	17997
2026-01-14 19:45:25.44	24.14	4.40	-39.3	-50.0	3.5	3.03e+01	0	28	104	0	52	19379
2026-01-14 19:45:28.47	23.79	4.56	-43.8	-55.8	3.5	3.03e+01	0	28	104	0	60	23788
2026-01-14 19:45:31.49	23.44	4.72	-47.5	-65.1	3.5	3.03e+01	0	28	104	0	60	69123
2026-01-14 19:45:34.52	23.08	4.88	-42.9	-54.3	3.5	3.03e+01	0	29	104	0	60	19949
2026-01-14 19:45:37.55	22.71	5.04	-47.1	-62.9	3.5	3.03e+01	0	28	104	0	60	53695
2026-01-14 19:45:40.58	22.34	5.20	-47.5	-64.6	3.5	3.03e+01	0	29	104	0	60	65045
2026-01-14 19:45:43.60	21.97	5.35	-37.7	-48.1	3.5	3.03e+01	0	28	104	0	50	17323
2026-01-14 19:45:46.63	21.59	5.51	-41.2	-52.2	3.5	3.03e+01	0	29	104	0	60	15643
2026-01-14 19:45:49.66	21.21	5.67	-47.3	-63.4	3.5	3.03e+01	0	29	104	0	60	56838
2026-01-14 19:45:52.69	20.82	5.83	-38.0	-48.4	3.6	3.03e+01	0	29	104	0	52	16126
2026-01-14 19:45:55.72	20.43	5.99	-39.4	-50.0	3.5	3.03e+01	0	29	104	0	52	19265
2026-01-14 19:45:58.75	20.03	6.15	-41.6	-52.5	3.5	3.03e+01	0	29	104	0	58	18293
2026-01-14 19:46:01.78	19.63	6.31	-39.5	-50.1	3.6	3.03e+01	0	29	104	0	54	17463
2026-01-14 19:46:04.81	19.22	6.47	-40.9	-51.7	3.3	3.03e+01	0	29	104	0	54	21021
2026-01-14 19:46:07.84	18.81	6.63	-47.5	-63.4	3.5	3.03e+01	0	29	104	0	60	56977
2026-01-14 19:46:10.87	18.39	6.79	-37.9	-48.4	3.5	3.03e+01	0	29	104	0	50	17936
2026-01-14 19:46:13.90	17.97	6.94	-45.9	-59.1	3.5	3.03e+01	0	29	104	0	58	38805
2026-01-14 19:46:16.92	17.54	7.10	-37.7	-48.1	3.5	3.03e+01	0	29	104	0	50	17435
2026-01-14 19:46:19.96	17.11	7.26	-37.2	-47.6	3.5	3.03e+01	0	29	104	0	50	16443
2026-01-14 19:46:22.98	16.67	7.42	-44.5	-56.5	3.5	3.03e+01	0	29	104	0	56	32450
2026-01-14 19:46:26.01	16.23	7.57	-42.5	-53.6	3.5	3.03e+01	0	29	104	0	60	18384
2026-01-14 19:46:29.04	15.78	7.73	-40.5	-51.3	3.6	3.03e+01	0	29	104	0	56	17829
2026-01-14 19:46:32.07	15.33	7.88	-47.1	-62.1	3.5	3.03e+01	0	29	104	0	60	48900
2026-01-14 19:46:35.09	14.87	8.04	-41.7	-52.7	3.5	3.03e+01	0	29	104	0	60	16529
2026-01-14 19:46:38.12	14.40	8.19	-38.0	-48.4	3.5	3.03e+01	0	29	104	0	52	16114
2026-01-14 19:46:41.15	13.93	8.35	-48.0	-65.3	3.5	3.03e+01	0	29	104	0	60	70643
2026-01-14 19:46:44.18	13.46	8.50	-37.0	-47.3	3.5	3.03e+01	0	29	104	0	48	17831
2026-01-14 19:46:47.20	12.98	8.65	-36.4	-46.8	3.5	3.03e+01	0	29	104	0	48	16748
2026-01-14 19:46:50.24	12.49	8.80	-48.0	-65.4	3.5	3.03e+01	0	29	104	0	60	72033
2026-01-14 19:46:53.26	12.00	8.95	-42.5	-53.6	3.5	3.03e+01	0	29	104	0	60	18404
2026-01-14 19:46:56.29	11.50	9.10	-40.6	-51.3	3.5	3.03e+01	0	29	104	0	56	17858
2026-01-14 19:46:59.32	11.00	9.25	-48.0	-64.9	3.5	3.03e+01	0	29	104	0	60	67408
2026-01-14 19:47:02.35	10.49	9.40	-39.5	-50.1	3.5	3.03e+01	0	29	104	0	54	17365
2026-01-14 19:47:05.38	9.97	9.55	-37.8	-48.2	3.5	3.03e+01	0	29	104	0	52	15718
2026-01-14 19:47:08.41	9.45	9.69	-47.9	-64.3	3.5	3.03e+01	0	29	104	0	60	63094
2026-01-14 19:47:11.43	8.93	9.84	-37.3	-47.7	3.5	3.03e+01	0	29	104	0	50	16619
2026-01-14 19:47:14.46	8.40	9.98	-36.6	-47.0	3.5	3.03e+01	0	29	104	0	48	17138
2026-01-14 19:47:17.49	7.86	10.12	-47.8	-64.3	3.5	3.03e+01	0	29	104	0	60	62888
2026-01-14 19:47:20.51	7.32	10.26	-39.9	-50.5	3.5	3.03e+01	0	29	104	0	54	18182
2026-01-14 19:47:23.54	6.77	10.40	-39.8	-50.4	3.5	3.03e+01	0	29	104	0	54	18000
2026-01-14 19:47:26.57	6.21	10.54	-46.4	-59.7	3.5	3.03e+01	0	29	104	0	60	37076
2026-01-14 19:47:29.60	5.65	10.67	-39.2	-49.8	3.5	3.03e+01	0	29	104	0	54	16786
2026-01-14 19:47:32.63	5.09	10.81	-38.1	-48.4	3.5	3.03e+01	0	29	104	0	48	20293
2026-01-14 19:47:35.66	4.51	10.94	-48.2	-65.1	3.5	3.03e+01	0	29	104	0	60	69319
2026-01-14 19:47:38.69	3.94	11.07	-36.8	-47.1	3.5	3.03e+01	0	29	104	0	48	17328
2026-01-14 19:47:41.72	3.35	11.20	-35.9	-46.2	3.5	3.03e+01	0	29	104	0	46	17518
2026-01-14 19:47:44.74	2.77	11.32	-48.1	-65.1	3.5	3.03e+01	0	29	104	0	60	69547
2026-01-14 19:47:47.77	2.17	11.45	-39.6	-50.2	3.6	3.03e+01	0	29	104	0	56	15608
2026-01-14 19:47:50.80	1.57	11.57	-36.4	-46.7	3.5	3.03e+01	0	29	104	0	48	16663
2026-01-14 19:47:53.83	0.97	11.69	-41.5	-52.4	3.6	3.03e+01	0	29	104	0	60	16014
2026-01-14 19:47:56.86	0.36	11.80	-38.2	-48.6	3.5	3.03e+01	0	29	104	0	52	16511
2026-01-14 19:47:59.89	359.74	11.92	-46.0	-59.0	3.5	3.03e+01	0	29	104	0	60	34178
2026-01-14 19:48:02.91	359.12	12.03	-46.4	-59.5	3.6	3.03e+01	0	29	104	0	60	36537
2026-01-14 19:48:05.94	358.49	12.14	-36.6	-46.9	3.5	3.03e+01	0	29	104	0	48	17091
2026-01-14 19:48:08.97	357.86	12.25	-38.4	-48.8	3.5	3.03e+01	0	29	104	0	48	21153
2026-01-14 19:48:11.99	357.23	12.35	-47.8	-63.1	3.5	3.03e+01	0	29	104	0	60	54983
2026-01-14 19:48:15.02	356.59	12.45	-38.9	-49.3	3.5	3.03e+01	0	29	104	0	52	17866
2026-01-14 19:48:18.05	355.94	12.55	-36.0	-46.3	3.5	3.03e+01	0	29	104	0	48	15791
2026-01-14 19:48:21.08	355.29	12.65	-40.0	-50.7	3.5	3.03e+01	0	29	104	0	56	16529
2026-01-14 19:48:24.11	354.64	12.74	-37.2	-47.6	3.5	3.03e+01	0	29	104	0	50	16332
2026-01-14 19:48:27.13	353.98	12.83	-46.6	-60.0	3.5	3.03e+01	0	29	104	0	60	38282
2026-01-14 19:48:30.16	353.31	12.92	-44.3	-47.6	17.8	3.03e+01	59	29	104	0	60	9284
2026-01-14 19:48:33.19	352.65	13.00	-35.7	-36.9	28.6	3.03e+01	56	29	0	4718592	46	6046
2026-01-14 19:48:36.21	351.98	13.08	-35.6	-36.8	28.7	3.03e+01	52	29	0	10485760	46	5963
2026-01-14 19:48:39.24	351.30	13.15	-35.8	-37.1	28.4	3.03e+01	58	29	0	16252928	46	6144
2026-01-14 19:48:42.26	350.62	13.23	-35.4	-36.7	28.7	3.03e+01	56	29	0	22020096	46	5878
2026-01-14 19:48:45.29	349.94	13.30	-35.6	-36.8	28.6	3.03e+01	58	29	0	27787264	46	5974
2026-01-14 19:48:48.32	349.25	13.36	-35.6	-36.9	28.5	3.03e+01	60	29	0	33030144	46	6015
2026-01-14 19:48:51.35	348.56	13.42	-35.6	-36.8	28.6	3.03e+01	57	29	0	38797312	46	5985
2026-01-14 19:48:54.38	347.87	13.48	-35.6	-36.9	28.5	3.03e+01	59	29	0	44564480	46	6013
2026-01-14 19:48:57.40	347.18	13.54	-35.9	-37.2	28.3	3.03e+01	56	29	0	50331648	46	6248
2026-01-14 19:49:00.43	346.48	13.59	-35.7	-37.0	28.5	3.03e+01	58	29	0	56098816	46	6092
2026-01-14 19:49:03.46	345.78	13.63	-35.8	-37.0	28.4	3.03e+01	57	29	0	61865984	46	6112
2026-01-14 19:49:06.48	345.08	13.68	-36.0	-37.3	28.2	3.03e+01	59	29	0	67108864	46	6305
2026-01-14 19:49:09.51	344.37	13.71	-35.7	-37.0	28.5	3.03e+01	59	29	0	72876032	46	6105
2026-01-14 19:49:12.54	343.67	13.75	-35.9	-37.2	28.4	3.03e+01	59	29	0	78643200	46	6212
2026-01-14 19:49:15.57	342.96	13.78	-35.8	-37.0	28.4	3.03e+01	59	29	0	84410368	46	6112
2026-01-14 19:49:18.60	342.25	13.81	-35.8	-37.0	28.4	3.03e+01	53	29	0	90177536	46	6111
2026-01-14 19:49:21.62	341.54	13.83	-35.7	-37.0	28.5	3.03e+01	46	29	0	95944704	46	6077
2026-01-14 19:49:24.66	340.82	13.85	-35.7	-37.0	28.5	3.03e+01	58	29	0	101187584	46	6093
2026-01-14 19:49:27.68	340.11	13.86	-35.6	-36.9	28.6	3.03e+01	60	29	0	106954752	46	6005
2026-01-14 19:49:30.71	339.40	13.87	-35.9	-37.1	28.4	3.03e+01	58	29	0	112721920	46	6190
2026-01-14 19:49:33.74	338.68	13.88	-36.1	-37.3	28.3	3.03e+01	60	29	0	118489088	46	6347
2026-01-14 19:49:36.77	337.97	13.88	-35.9	-37.1	28.4	3.03e+01	59	29	0	124256256	46	6204
2026-01-14 19:49:39.80	337.25	13.88	-36.2	-37.5	28.2	3.03e+01	48	29	0	129499136	46	6441
2026-01-14 19:49:42.82	336.54	13.87	-36.1	-37.4	28.2	3.03e+01	38	29	0	135266304	46	6360
2026-01-14 19:49:45.84	335.83	13.86	-36.2	-37.5	28.1	3.03e+01	56	29	0	141033472	46	6429
2026-01-14 19:49:48.87	335.11	13.84	-36.1	-37.4	28.1	3.03e+01	56	29	0	146800640	46	6390
2026-01-14 19:49:51.90	334.40	13.82	-36.2	-37.5	28.2	3.03e+01	57	29	0	152567808	46	6431
2026-01-14 19:49:54.93	333.69	13.80	-35.8	-37.1	28.6	3.03e+01	58	29	0	158334976	46	6167
2026-01-14 19:49:57.95	332.98	13.77	-35.8	-37.1	28.4	3.03e+01	57	29	0	164102144	46	6175
2026-01-14 19:50:00.98	332.27	13.74	-35.5	-36.8	28.7	3.03e+01	56	29	0	169345024	46	5935
2026-01-14 19:50:04.01	331.57	13.70	-35.9	-37.2	28.3	3.03e+01	54	29	0	175112192	46	6216
2026-01-14 19:50:07.04	330.86	13.66	-36.2	-37.5	28.1	3.03e+01	45	29	0	180879360	46	6452
2026-01-14 19:50:10.06	330.16	13.62	-36.5	-37.8	27.8	3.03e+01	57	29	0	186646528	46	6675
2026-01-14 19:50:13.09	329.46	13.57	-36.6	-37.9	27.7	3.03e+01	60	29	0	192413696	48	6004
2026-01-14 19:50:16.12	328.76	13.52	-36.9	-38.2	27.5	3.03e+01	60	29	0	197656576	48	6259
2026-01-14 19:50:19.15	328.07	13.47	-36.3	-37.6	27.9	3.03e+01	60	29	0	203423744	48	5839
2026-01-14 19:50:22.17	327.38	13.41	-35.9	-37.2	28.4	3.03e+01	60	29	0	209190912	46	6225
2026-01-14 19:50:25.20	326.69	13.34	-36.7	-38.0	27.6	3.03e+01	57	29	0	214958080	48	6077
2026-01-14 19:50:28.22	326.00	13.28	-36.1	-37.4	28.1	3.03e+01	47	29	0	220725248	48	5668
2026-01-14 19:50:31.25	325.32	13.21	-36.5	-37.8	27.8	3.03e+01	60	29	0	225968128	46	6663
2026-01-14 19:50:34.28	324.64	13.13	-35.9	-37.2	28.4	3.03e+01	57	29	0	231735296	46	6214
2026-01-14 19:50:37.31	323.97	13.06	-36.2	-37.5	28.1	3.03e+01	60	29	0	237502464	46	6455
2026-01-14 19:50:40.34	323.29	12.98	-36.0	-37.2	28.2	3.03e+01	61	29	0	243269632	46	6252
2026-01-14 19:50:43.37	322.63	12.89	-36.1	-37.4	28.2	3.03e+01	56	29	0	249036800	46	6360
2026-01-14 19:50:46.40	321.96	12.80	-36.3	-37.6	27.9	3.03e+01	52	29	0	254803968	46	6571
2026-01-14 19:50:49.43	321.30	12.71	-35.9	-37.1	28.4	3.03e+01	48	29	0	260571136	46	6199
2026-01-14 19:50:52.46	320.65	12.62	-36.1	-37.4	28.2	3.03e+01	58	29	0	265814016	46	6408
2026-01-14 19:50:55.49	320.00	12.52	-36.5	-37.8	27.7	3.03e+01	59	29	0	271581184	46	6712
2026-01-14 19:50:58.52	319.35	12.42	-35.9	-37.1	28.3	3.03e+01	59	29	0	277348352	46	6201
2026-01-14 19:51:01.55	318.71	12.32	-36.9	-38.2	27.4	3.03e+01	61	29	0	283115520	46	7041
2026-01-14 19:51:04.57	318.08	12.22	-35.3	-36.5	28.7	3.03e+01	57	29	0	288882688	46	5749
2026-01-14 19:51:07.60	317.45	12.11	-36.5	-37.8	27.6	3.03e+01	58	29	0	294125568	46	6720
2026-01-14 19:51:10.63	316.82	12.00	-36.7	-38.0	27.6	3.03e+01	50	29	0	299892736	46	6836
2026-01-14 19:51:13.66	316.20	11.89	-35.5	-36.7	28.6	3.03e+01	46	29	0	305659904	46	5872
2026-01-14 19:51:16.68	315.59	11.77	-36.1	-37.4	28.2	3.03e+01	58	29	0	311427072	46	6379
2026-01-14 19:51:19.71	314.98	11.65	-36.5	-37.9	27.7	3.03e+01	62	29	0	317194240	46	6747
2026-01-14 19:51:22.74	314.37	11.53	-37.0	-38.4	27.1	3.03e+01	60	29	0	322961408	48	6381
2026-01-14 19:51:25.76	313.78	11.41	-38.7	-40.2	25.4	3.03e+01	60	29	0	328728576	50	6993
2026-01-14 19:51:28.79	313.18	11.29	-36.9	-38.2	27.4	3.03e+01	59	29	0	333971456	50	5536
2026-01-14 19:51:31.82	312.59	11.16	-36.1	-37.3	28.2	3.03e+01	46	29	0	339738624	48	5653
2026-01-14 19:51:34.85	312.01	11.03	-36.8	-38.1	27.5	3.03e+01	49	29	0	345505792	48	6163
2026-01-14 19:51:37.87	311.44	10.90	-36.3	-37.6	28.1	3.03e+01	59	29	0	351272960	48	5796
2026-01-14 19:51:40.90	310.86	10.77	-36.2	-37.5	28.1	3.03e+01	56	29	0	357040128	48	5752
2026-01-14 19:51:43.93	310.30	10.63	-36.6	-38.0	27.7	3.03e+01	57	29	0	362283008	48	6076
2026-01-14 19:51:46.96	309.74	10.50	-37.2	-38.6	26.9	3.03e+01	53	29	0	368050176	48	6528
2026-01-14 19:51:49.98	309.19	10.36	-37.6	-39.0	26.7	3.03e+01	59	29	0	373817344	50	6117
2026-01-14 19:51:53.00	308.64	10.22	-36.3	-37.6	27.9	3.03e+01	58	29	0	379584512	48	5792
2026-01-14 19:51:56.03	308.10	10.08	-36.4	-37.7	27.8	3.03e+01	54	29	0	385351680	48	5926
2026-01-14 19:51:59.06	307.56	9.94	-37.0	-38.4	27.1	3.03e+01	57	29	0	391118848	48	6359
2026-01-14 19:52:02.08	307.03	9.79	-37.5	-38.9	26.5	3.03e+01	59	29	0	396361728	48	6742
2026-01-14 19:52:05.11	306.50	9.65	-37.3	-38.7	26.8	3.03e+01	59	29	0	402128896	48	6602
2026-01-14 19:52:08.14	305.98	9.50	-37.1	-38.6	26.9	3.03e+01	55	29	0	407896064	48	6529
2026-01-14 19:52:11.17	305.47	9.36	-37.2	-38.6	27.0	3.03e+01	59	29	0	413663232	48	6557
2026-01-14 19:52:14.20	304.96	9.21	-36.9	-38.3	27.3	3.03e+01	59	29	0	419430400	48	6318
2026-01-14 19:52:17.23	304.45	9.06	-37.3	-38.7	26.9	3.03e+01	59	29	0	425197568	48	6611
2026-01-14 19:52:20.26	303.96	8.91	-37.1	-38.4	27.0	3.03e+01	49	29	0	430440448	48	6417
2026-01-14 19:52:23.28	303.47	8.76	-37.0	-38.3	27.2	3.03e+01	62	29	0	436207616	48	6317
2026-01-14 19:52:26.31	302.98	8.61	-36.8	-38.1	27.4	3.03e+01	59	29	0	441974784	48	6182
2026-01-14 19:52:29.34	302.50	8.45	-36.9	-38.2	27.3	3.03e+01	58	29	0	447741952	48	6227
2026-01-14 19:52:32.37	302.02	8.30	-36.8	-38.2	27.4	3.03e+01	59	29	0	453509120	48	6222
2026-01-14 19:52:35.40	301.55	8.15	-37.1	-38.4	27.0	3.03e+01	57	29	0	458752000	48	6403
2026-01-14 19:52:38.43	301.09	7.99	-36.9	-38.3	27.1	3.03e+01	52	29	0	464519168	48	6305
2026-01-14 19:52:41.46	300.63	7.84	-37.4	-38.8	26.8	3.03e+01	45	29	0	470286336	48	6660
2026-01-14 19:52:44.48	300.18	7.68	-36.9	-38.2	27.2	3.03e+01	59	29	0	476053504	48	6247
2026-01-14 19:52:47.51	299.73	7.52	-37.4	-38.8	26.7	3.03e+01	58	29	0	481820672	48	6667
2026-01-14 19:52:50.53	299.29	7.37	-37.2	-38.6	26.8	3.03e+01	60	29	0	487587840	48	6555
2026-01-14 19:52:53.56	298.85	7.21	-37.0	-38.3	27.1	3.03e+01	59	29	0	493355008	48	6349
2026-01-14 19:52:56.59	298.42	7.05	-37.4	-38.8	26.7	3.03e+01	59	29	0	498597888	48	6677
2026-01-14 19:52:59.62	297.99	6.89	-37.5	-38.9	26.5	3.03e+01	60	29	0	504365056	48	6763
2026-01-14 19:53:02.64	297.57	6.74	-37.3	-38.7	26.7	3.03e+01	53	29	0	510132224	48	6605
2026-01-14 19:53:05.66	297.15	6.58	-37.6	-39.0	26.4	3.03e+01	48	29	0	515899392	48	6859
2026-01-14 19:53:08.69	296.74	6.42	-37.6	-39.0	26.5	3.03e+01	59	29	0	521666560	48	6811
2026-01-14 19:53:11.72	296.33	6.26	-37.7	-39.1	26.3	3.03e+01	57	29	0	526909440	48	6896
2026-01-14 19:53:14.75	295.93	6.10	-37.7	-39.1	26.2	3.03e+01	57	29	0	532676608	48	6942
2026-01-14 19:53:17.78	295.54	5.94	-37.8	-39.2	26.2	3.03e+01	57	29	0	538443776	48	7004
2026-01-14 19:53:20.81	295.14	5.78	-38.1	-39.5	25.9	3.03e+01	59	29	0	544210944	50	6491
2026-01-14 19:53:23.83	294.76	5.62	-38.0	-39.4	26.0	3.03e+01	53	29	0	549978112	50	6400
2026-01-14 19:53:26.86	294.37	5.46	-37.8	-39.2	26.1	3.03e+01	49	29	0	555745280	50	6266
2026-01-14 19:53:29.88	294.00	5.30	-38.1	-39.5	25.8	3.03e+01	58	29	0	560988160	50	6474
2026-01-14 19:53:32.91	293.62	5.14	-38.0	-39.5	25.8	3.03e+01	56	29	0	566755328	50	6443
2026-01-14 19:53:35.94	293.25	4.98	-37.8	-39.2	26.0	3.03e+01	54	29	0	572522496	50	6275
2026-01-14 19:53:38.97	292.89	4.82	-38.4	-39.9	25.4	3.03e+01	59	29	0	578289664	50	6787
2026-01-14 19:53:42.00	292.53	4.66	-38.5	-40.0	25.2	3.03e+01	58	29	0	584056832	50	6872
2026-01-14 19:53:45.03	292.17	4.51	-38.2	-39.7	25.4	3.03e+01	60	29	0	589824000	50	6629
2026-01-14 19:53:48.05	291.82	4.35	-38.7	-40.2	25.0	3.03e+01	49	29	0	595066880	50	7013
2026-01-14 19:53:51.08	291.47	4.19	-38.2	-39.7	25.4	3.03e+01	55	29	0	600834048	50	6603
2026-01-14 19:53:54.11	291.13	4.03	-38.2	-39.7	25.4	3.03e+01	56	29	0	606601216	50	6590
2026-01-14 19:53:57.14	290.79	3.87	-38.5	-40.1	25.1	3.03e+01	60	29	0	612368384	50	6885
2026-01-14 19:54:00.17	290.46	3.71	-38.7	-40.3	24.9	3.03e+01	61	29	0	618135552	50	7046
2026-01-14 19:54:03.20	290.12	3.55	-38.9	-40.5	24.6	3.03e+01	59	29	0	623378432	52	6442
2026-01-14 19:54:06.23	289.80	3.39	-38.8	-40.4	24.6	3.03e+01	57	29	0	629145600	52	6402
2026-01-14 19:54:09.26	289.47	3.23	-38.6	-40.2	24.8	3.03e+01	59	29	0	634912768	52	6222
2026-01-14 19:54:12.29	289.16	3.08	-38.7	-40.3	24.6	3.03e+01	51	29	0	640679936	52	6284
2026-01-14 19:54:15.32	288.84	2.92	-48.8	-66.6	3.5	3.03e+01	0	29	104	643301376	60	82121
2026-01-14 19:54:18.35	288.53	2.76	-49.2	-67.0	3.5	3.03e+01	0	29	104	643301376	60	85966
2026-01-14 19:54:21.37	288.22	2.60	-49.2	-67.1	3.5	3.03e+01	0	29	104	643301376	60	86989
2026-01-14 19:54:24.40	287.92	2.45	-49.0	-67.1	3.5	3.03e+01	0	29	104	643301376	60	86954
2026-01-14 19:54:27.43	287.62	2.29	-49.1	-67.0	3.5	3.03e+01	0	29	104	643301376	60	86252
2026-01-14 19:54:30.46	287.32	2.13	-49.0	-67.0	3.5	3.03e+01	0	29	104	643301376	60	85969
2026-01-14 19:54:33.49	287.03	1.98	-49.2	-67.1	3.5	3.03e+01	0	29	104	643301376	60	87381
2026-01-14 19:54:36.52	286.74	1.82	-49.1	-67.0	3.5	3.03e+01	0	29	104	643301376	60	86485
2026-01-14 19:54:39.54	286.45	1.67	-49.1	-67.0	3.5	3.03e+01	0	29	104	643301376	60	86374
2026-01-14 19:54:42.57	286.17	1.51	-49.1	-67.0	3.5	3.03e+01	0	29	104	643301376	60	85932
2026-01-14 19:54:45.60	285.89	1.36	-49.1	-67.0	3.5	3.03e+01	0	29	104	643301376	60	85942
2026-01-14 19:54:48.63	285.61	1.20	-49.1	-67.0	3.5	3.03e+01	0	29	104	643301376	60	85731
2026-01-14 19:54:51.66	285.34	1.05	-49.1	-67.0	3.5	3.03e+01	0	29	104	643301376	60	86067
2026-01-14 19:54:54.69	285.07	0.89	-49.1	-66.9	3.5	3.03e+01	0	29	104	643301376	60	85446
2026-01-14 19:54:57.72	284.80	0.74	-49.1	-67.0	3.5	3.03e+01	0	29	104	643301376	60	85867
2026-01-14 19:55:00.75	284.54	0.59	-49.1	-66.9	3.5	3.03e+01	0	29	104	643301376	60	85631
2026-01-14 19:55:03.78	284.28	0.43	-49.1	-66.9	3.5	3.03e+01	0	29	104	643301376	60	85578
2026-01-14 19:55:06.81	284.02	0.28	-49.1	-67.0	3.5	3.03e+01	0	29	104	643301376	60	85989
2026-01-14 19:55:09.84	283.76	0.13	-49.0	-66.9	3.5	3.03e+01	0	29	104	643301376	60	85481
2026-01-14 19:55:12.87	283.51	-0.02	-49.0	-67.0	3.5	3.03e+01	0	29	104	643301376	60	86088

#Closed at: 2026-01-14 19:55:13
#Recorded file [643 MB]: D:/lorett/data/35029_260115_074400.dat