passes_logs/2026/01/14/R4.6S_Anadyr/R4.6S_Anadyr__20260114_192251_FENGYUN_3D_rec.log

#Pass ID: 20260114_192251_FENGYUN 3D
#Satellite: FENGYUN 3D
#Configuration: FENGYUN 3D
#almurnet v.1.7.20251203
#Start time: 2026-01-14 19:22:53

#Version: 2.2.20231116
#Station: R4.6S_Anadyr
#Location: 177.4865 lon 64.73178 lat
#TLE: 1 43010U 17072A   26013.94640698 -.00000044  00000+0  88349-6 0  9999
#TLE: 2 43010  98.9934 345.7464 0002313 110.9627 249.1796 14.19695403423100

#Time	Az	El	Level	Level2	SNR	BER	BlckErr	Temp	State	Recorded	gain1	gain2
2026-01-14 19:22:53.51	31.57	0.12	-48.8	-63.7	3.5	1.51e+00	0	26	0	0	60	55261
2026-01-14 19:22:57.55	31.35	0.33	-48.8	-60.9	3.6	8.46e-01	0	27	104	0	60	40200
2026-01-14 19:23:01.59	31.12	0.55	-48.6	-60.7	3.6	8.45e-01	0	28	104	0	60	39247
2026-01-14 19:23:05.62	30.88	0.77	-48.2	-60.3	3.6	8.46e-01	0	28	104	0	60	37517
2026-01-14 19:23:09.66	30.64	1.00	-47.1	-59.1	3.6	8.45e-01	0	28	104	0	60	32553
2026-01-14 19:23:13.70	30.40	1.22	-47.1	-59.0	3.6	8.45e-01	0	28	104	0	60	32267
2026-01-14 19:23:17.74	30.16	1.44	-47.0	-59.0	3.5	8.46e-01	0	28	104	0	60	32155
2026-01-14 19:23:21.77	29.91	1.67	-47.1	-59.1	3.6	8.46e-01	0	28	104	0	60	32654
2026-01-14 19:23:25.82	29.65	1.89	-47.0	-59.1	3.6	8.46e-01	0	28	104	0	60	32734
2026-01-14 19:23:29.86	29.39	2.12	-47.0	-58.2	3.6	8.46e-01	0	28	104	0	60	29380
2026-01-14 19:23:33.90	29.13	2.35	-47.0	-59.0	3.6	8.45e-01	0	28	104	0	60	32304
2026-01-14 19:23:37.94	28.87	2.58	-47.0	-59.1	3.6	8.45e-01	0	28	104	0	60	32627
2026-01-14 19:23:41.98	28.59	2.81	-46.9	-57.6	3.6	8.44e-01	0	28	104	0	60	27289
2026-01-14 19:23:46.02	28.32	3.05	-46.4	-54.2	4.8	8.33e-01	0	28	104	0	60	18496
2026-01-14 19:23:50.05	28.04	3.28	-41.7	-43.4	14.7	1.10e-06	0	28	0	18874368	56	6752
2026-01-14 19:23:54.08	27.75	3.52	-44.7	-48.3	10.1	1.34e-02	0	28	0	39845888	60	9382
2026-01-14 19:23:58.12	27.46	3.75	-36.0	-36.9	21.4	0.00e+00	0	28	0	50331648	46	5637
2026-01-14 19:24:02.16	27.17	3.99	-35.5	-36.3	21.9	0.00e+00	0	28	0	73400320	44	5915
2026-01-14 19:24:06.20	26.87	4.23	-35.8	-36.7	21.6	0.00e+00	0	28	0	96468992	44	6189
2026-01-14 19:24:10.24	26.56	4.47	-35.7	-36.5	21.8	0.00e+00	0	28	0	119537664	44	6080
2026-01-14 19:24:14.28	26.25	4.72	-35.7	-36.5	21.8	0.00e+00	0	28	0	141557760	44	6096
2026-01-14 19:24:18.32	25.94	4.96	-35.6	-36.4	22.0	0.00e+00	0	28	0	164626432	44	5992
2026-01-14 19:24:22.35	25.61	5.20	-35.4	-36.2	22.2	0.00e+00	0	28	0	186646528	44	5832
2026-01-14 19:24:26.39	25.29	5.45	-35.0	-35.8	22.6	0.00e+00	0	28	0	209715200	44	5579
2026-01-14 19:24:30.42	24.95	5.70	-35.1	-35.9	22.6	0.00e+00	0	28	0	232783872	44	5649
2026-01-14 19:24:34.45	24.62	5.95	-35.0	-35.8	22.7	0.00e+00	0	28	0	254803968	44	5597
2026-01-14 19:24:38.50	24.27	6.20	-35.0	-35.8	22.7	0.00e+00	0	28	0	277872640	44	5610
2026-01-14 19:24:42.53	23.92	6.45	-34.9	-35.7	22.9	0.00e+00	0	28	0	300941312	42	6184
2026-01-14 19:24:46.57	23.56	6.71	-35.1	-35.8	22.7	0.00e+00	0	29	0	322961408	42	6313
2026-01-14 19:24:50.61	23.20	6.96	-34.9	-35.7	22.9	0.00e+00	0	28	0	346030080	42	6204
2026-01-14 19:24:54.64	22.82	7.22	-34.9	-35.6	23.0	0.00e+00	0	29	0	369098752	42	6159
2026-01-14 19:24:58.68	22.45	7.47	-34.9	-35.6	23.0	0.00e+00	0	29	0	391118848	42	6138
2026-01-14 19:25:02.69	22.06	7.73	-34.7	-35.4	23.2	0.00e+00	0	29	0	414187520	42	6031
2026-01-14 19:25:06.72	21.67	7.99	-34.5	-35.3	23.5	0.00e+00	0	29	0	436207616	42	5908
2026-01-14 19:25:10.76	21.27	8.25	-34.2	-35.0	23.7	0.00e+00	0	29	0	459276288	42	5697
2026-01-14 19:25:14.80	20.86	8.52	-34.1	-34.8	24.0	0.00e+00	0	29	0	482344960	42	5572
2026-01-14 19:25:18.84	20.45	8.78	-34.2	-34.9	23.8	0.00e+00	0	29	0	505413632	42	5687
2026-01-14 19:25:22.88	20.03	9.05	-34.2	-34.9	23.8	0.00e+00	0	29	0	527433728	42	5673
2026-01-14 19:25:26.91	19.59	9.32	-33.9	-34.7	24.1	0.00e+00	0	29	0	550502400	42	5510
2026-01-14 19:25:30.95	19.16	9.58	-34.1	-34.8	23.9	0.00e+00	0	29	0	572522496	42	5626
2026-01-14 19:25:34.99	18.71	9.85	-34.2	-34.9	23.8	0.00e+00	0	29	0	595591168	42	5674
2026-01-14 19:25:39.03	18.25	10.12	-34.1	-34.8	24.0	0.00e+00	0	29	0	618659840	42	5610
2026-01-14 19:25:43.07	17.79	10.40	-33.8	-34.5	24.3	0.00e+00	0	29	0	640679936	42	5405
2026-01-14 19:25:47.11	17.31	10.67	-33.4	-34.1	24.6	0.00e+00	0	29	0	663748608	40	5817
2026-01-14 19:25:51.16	16.83	10.95	-33.6	-34.4	24.5	0.00e+00	0	29	0	686817280	40	5965
2026-01-14 19:25:55.20	16.33	11.22	-33.5	-34.2	24.6	0.00e+00	0	29	0	709885952	40	5840
2026-01-14 19:25:59.24	15.83	11.50	-33.3	-34.1	24.7	0.00e+00	0	29	0	731906048	40	5768
2026-01-14 19:26:03.28	15.32	11.77	-33.3	-34.0	24.8	0.00e+00	0	29	0	754974720	40	5701
2026-01-14 19:26:07.32	14.79	12.05	-33.1	-33.8	25.0	0.00e+00	0	29	0	776994816	40	5572
2026-01-14 19:26:11.36	14.26	12.33	-33.2	-33.9	24.8	0.00e+00	0	29	0	800063488	40	5649
2026-01-14 19:26:15.40	13.72	12.61	-33.1	-33.8	25.0	0.00e+00	0	29	0	823132160	40	5592
2026-01-14 19:26:19.44	13.16	12.89	-32.8	-33.5	25.3	0.00e+00	0	29	0	846200832	38	6055
2026-01-14 19:26:23.48	12.60	13.17	-32.8	-33.5	25.3	0.00e+00	0	29	0	868220928	38	6094
2026-01-14 19:26:27.52	12.02	13.45	-32.7	-33.3	25.5	0.00e+00	0	29	0	891289600	38	5930
2026-01-14 19:26:31.56	11.43	13.73	-32.7	-33.4	25.4	0.00e+00	0	29	0	914358272	38	6001
2026-01-14 19:26:35.60	10.84	14.02	-32.7	-33.4	25.4	0.00e+00	0	29	0	936378368	38	5998
2026-01-14 19:26:39.64	10.22	14.30	-32.7	-33.3	25.6	0.00e+00	0	29	0	959447040	38	5960
2026-01-14 19:26:43.67	9.60	14.58	-32.4	-33.1	25.7	0.00e+00	0	29	0	981467136	38	5809
2026-01-14 19:26:47.71	8.97	14.86	-32.3	-33.0	25.8	0.00e+00	0	29	0	1004535808	38	5721
2026-01-14 19:26:51.76	8.32	15.14	-32.4	-33.0	25.8	0.00e+00	0	29	0	1027604480	38	5756
2026-01-14 19:26:55.80	7.66	15.42	-32.2	-32.9	25.9	0.00e+00	0	29	0	1050673152	38	5656
2026-01-14 19:26:59.84	6.99	15.70	-32.3	-33.0	25.9	0.00e+00	0	29	0	1072693248	38	5697
2026-01-14 19:27:03.87	6.30	15.98	-32.1	-32.7	26.1	0.00e+00	0	29	0	1095761920	38	5521
2026-01-14 19:27:07.91	5.61	16.26	-32.1	-32.8	26.0	0.00e+00	0	29	0	1118830592	38	5567
2026-01-14 19:27:11.95	4.89	16.53	-32.3	-32.9	25.9	0.00e+00	0	29	0	1140850688	38	5681
2026-01-14 19:27:15.99	4.17	16.81	-32.0	-32.6	26.2	0.00e+00	0	29	0	1163919360	38	5495
2026-01-14 19:27:20.03	3.43	17.08	-31.8	-32.4	26.4	0.00e+00	0	29	0	1186988032	36	5993
2026-01-14 19:27:24.06	2.68	17.35	-31.8	-32.5	26.4	0.00e+00	0	29	0	1209008128	36	6042
2026-01-14 19:27:28.10	1.91	17.62	-31.6	-32.2	26.6	0.00e+00	0	29	0	1232076800	36	5877
2026-01-14 19:27:32.14	1.13	17.89	-31.7	-32.3	26.5	0.00e+00	0	29	0	1255145472	36	5952
2026-01-14 19:27:36.19	0.34	18.15	-31.6	-32.2	26.6	0.00e+00	0	29	0	1277165568	36	5876
2026-01-14 19:27:40.23	359.53	18.41	-31.5	-32.1	26.7	0.00e+00	0	29	0	1300234240	36	5788
2026-01-14 19:27:44.26	358.71	18.67	-31.6	-32.2	26.5	0.00e+00	0	29	0	1323302912	36	5889
2026-01-14 19:27:48.30	357.87	18.92	-31.5	-32.1	26.7	0.00e+00	0	29	0	1345323008	36	5794
2026-01-14 19:27:52.33	357.02	19.17	-31.2	-31.9	26.9	0.00e+00	0	29	0	1368391680	36	5638
2026-01-14 19:27:56.37	356.16	19.42	-31.3	-32.0	26.7	0.00e+00	0	29	0	1390411776	36	5697
2026-01-14 19:28:00.42	355.28	19.66	-31.2	-31.9	26.8	0.00e+00	0	29	0	1413480448	36	5647
2026-01-14 19:28:04.45	354.39	19.89	-31.1	-31.8	26.9	0.00e+00	0	29	0	1436549120	36	5568
2026-01-14 19:28:08.50	353.48	20.13	-31.1	-31.8	26.9	0.00e+00	0	29	0	1459617792	36	5581
2026-01-14 19:28:12.53	352.56	20.35	-31.0	-31.7	27.1	0.00e+00	0	29	0	1481637888	36	5520
2026-01-14 19:28:16.57	351.63	20.57	-31.0	-31.6	27.1	0.00e+00	0	29	0	1504706560	36	5482
2026-01-14 19:28:20.62	350.68	20.78	-30.6	-31.2	27.4	0.00e+00	0	29	0	1527775232	34	5850
2026-01-14 19:28:24.65	349.72	20.99	-30.7	-31.4	27.3	0.00e+00	0	29	0	1549795328	34	5997
2026-01-14 19:28:28.69	348.74	21.19	-30.7	-31.4	27.2	0.00e+00	0	29	0	1572864000	34	5978
2026-01-14 19:28:32.73	347.76	21.38	-30.8	-31.4	27.2	0.00e+00	0	29	0	1595932672	34	6021
2026-01-14 19:28:36.77	346.76	21.56	-30.5	-31.1	27.4	0.00e+00	0	29	0	1617952768	34	5824
2026-01-14 19:28:40.80	345.75	21.74	-30.5	-31.1	27.5	0.00e+00	0	29	0	1641021440	34	5809
2026-01-14 19:28:44.84	344.73	21.91	-30.5	-31.2	27.5	0.00e+00	0	29	0	1664090112	34	5853
2026-01-14 19:28:48.88	343.70	22.07	-30.6	-31.1	27.4	0.00e+00	0	29	0	1686110208	34	5821
2026-01-14 19:28:52.91	342.66	22.21	-30.4	-31.0	27.5	0.00e+00	0	29	0	1709178880	34	5739
2026-01-14 19:28:56.94	341.61	22.35	-30.3	-31.0	27.6	0.00e+00	0	29	0	1732247552	34	5718
2026-01-14 19:29:00.98	340.54	22.49	-30.6	-31.3	27.3	0.00e+00	0	29	0	1754267648	34	5909
2026-01-14 19:29:05.02	339.47	22.61	-30.7	-31.3	27.3	0.00e+00	0	29	0	1777336320	34	5926
2026-01-14 19:29:09.06	338.39	22.72	-30.5	-31.1	27.5	0.00e+00	0	29	0	1799356416	34	5811
2026-01-14 19:29:13.09	337.31	22.82	-30.5	-31.1	27.6	0.00e+00	0	29	0	1822425088	34	5815
2026-01-14 19:29:17.13	336.22	22.90	-29.9	-30.6	28.0	0.00e+00	0	29	0	1845493760	34	5460
2026-01-14 19:29:21.17	335.12	22.98	-30.0	-30.6	27.9	0.00e+00	0	29	0	1867513856	34	5495
2026-01-14 19:29:25.21	334.01	23.05	-30.1	-30.7	27.8	0.00e+00	0	29	0	1890582528	34	5549
2026-01-14 19:29:29.24	332.91	23.10	-30.1	-30.7	27.8	0.00e+00	0	29	0	1913651200	34	5529
2026-01-14 19:29:33.28	331.80	23.15	-30.1	-30.8	27.8	0.00e+00	0	29	0	1936719872	34	5589
2026-01-14 19:29:37.32	330.68	23.18	-30.2	-30.9	27.7	0.00e+00	0	29	0	1958739968	34	5689
2026-01-14 19:29:41.36	329.56	23.20	-30.0	-30.7	27.8	0.00e+00	0	29	0	1981808640	34	5515
2026-01-14 19:29:45.41	328.44	23.21	-29.9	-30.6	27.9	0.00e+00	0	29	0	2003828736	34	5450
2026-01-14 19:29:49.45	327.32	23.21	-30.2	-30.9	27.7	0.00e+00	0	29	0	2026897408	34	5651
2026-01-14 19:29:53.49	326.21	23.19	-30.1	-30.7	27.8	0.00e+00	0	29	0	2049966080	34	5538
2026-01-14 19:29:57.53	325.09	23.16	-30.3	-31.0	27.5	0.00e+00	0	29	0	2073034752	34	5709
2026-01-14 19:30:01.57	323.97	23.13	-30.4	-31.0	27.6	0.00e+00	0	29	0	2095054848	34	5759
2026-01-14 19:30:05.60	322.87	23.08	-30.0	-30.6	27.9	0.00e+00	0	29	0	2118123520	34	5468
2026-01-14 19:30:09.64	321.76	23.02	-30.2	-30.7	27.8	0.00e+00	0	29	0	2141192192	34	5556
2026-01-14 19:30:13.68	320.66	22.94	-30.2	-30.8	27.8	0.00e+00	0	29	0	2163212288	34	5589
2026-01-14 19:30:17.72	319.56	22.86	-30.2	-30.8	27.8	0.00e+00	0	29	0	2186280960	34	5578
2026-01-14 19:30:21.76	318.47	22.77	-30.2	-30.8	27.9	0.00e+00	0	29	0	2208301056	34	5625
2026-01-14 19:30:25.79	317.39	22.66	-30.3	-30.9	27.8	0.00e+00	0	29	0	2231369728	34	5682
2026-01-14 19:30:29.83	316.31	22.54	-30.2	-30.9	27.7	0.00e+00	0	29	0	2254438400	34	5657
2026-01-14 19:30:33.87	315.24	22.42	-30.3	-30.9	27.7	0.00e+00	0	29	0	2276458496	34	5666
2026-01-14 19:30:37.91	314.19	22.28	-30.2	-30.8	27.7	0.00e+00	0	29	0	2299527168	34	5597
2026-01-14 19:30:41.94	313.14	22.14	-30.5	-31.1	27.5	0.00e+00	0	29	0	2322595840	34	5768
2026-01-14 19:30:45.98	312.10	21.98	-30.3	-31.0	27.7	0.00e+00	0	29	0	2345664512	34	5704
2026-01-14 19:30:50.02	311.07	21.82	-30.4	-31.1	27.6	0.00e+00	0	29	0	2367684608	34	5766
2026-01-14 19:30:54.06	310.05	21.65	-30.3	-30.9	27.6	0.00e+00	0	29	0	2390753280	34	5662
2026-01-14 19:30:58.09	309.05	21.47	-30.4	-31.1	27.6	0.00e+00	0	29	0	2412773376	34	5776
2026-01-14 19:31:02.13	308.06	21.28	-30.4	-31.0	27.6	0.00e+00	0	29	0	2435842048	34	5705
2026-01-14 19:31:06.16	307.08	21.08	-30.5	-31.1	27.4	0.00e+00	0	29	0	2458910720	34	5785
2026-01-14 19:31:10.20	306.11	20.88	-30.7	-31.3	27.4	0.00e+00	0	29	0	2480930816	34	5944
2026-01-14 19:31:14.24	305.15	20.67	-30.4	-31.1	27.6	0.00e+00	0	29	0	2503999488	34	5762
2026-01-14 19:31:18.28	304.21	20.45	-30.6	-31.3	27.4	0.00e+00	0	29	0	2527068160	34	5932
2026-01-14 19:31:22.32	303.28	20.23	-30.6	-31.3	27.4	0.00e+00	0	29	0	2549088256	34	5918
2026-01-14 19:31:26.36	302.36	20.00	-30.8	-31.4	27.3	0.00e+00	0	29	0	2572156928	34	5974
2026-01-14 19:31:30.39	301.46	19.77	-31.0	-31.6	27.1	0.00e+00	0	29	0	2595225600	34	6108
2026-01-14 19:31:34.43	300.58	19.53	-30.9	-31.6	27.2	0.00e+00	0	29	0	2617245696	34	6170
2026-01-14 19:31:38.47	299.70	19.29	-31.1	-31.7	27.0	0.00e+00	0	29	0	2640314368	34	6216
2026-01-14 19:31:42.51	298.84	19.04	-30.9	-31.6	27.2	0.00e+00	0	29	0	2663383040	34	6114
2026-01-14 19:31:46.55	298.00	18.79	-31.0	-31.7	27.1	0.00e+00	0	29	0	2685403136	34	6242
2026-01-14 19:31:50.59	297.17	18.53	-31.3	-32.0	26.8	0.00e+00	0	29	0	2708471808	34	6447
2026-01-14 19:31:54.63	296.35	18.27	-31.7	-32.3	26.4	0.00e+00	0	29	0	2731540480	34	6685
2026-01-14 19:31:58.67	295.55	18.01	-31.7	-32.2	26.4	0.00e+00	0	29	0	2753560576	36	5882
2026-01-14 19:32:02.70	294.76	17.74	-31.7	-32.4	26.3	0.00e+00	0	29	0	2776629248	36	6007
2026-01-14 19:32:06.74	293.98	17.47	-31.3	-31.9	26.6	0.00e+00	0	29	0	2799697920	36	5659
2026-01-14 19:32:10.77	293.22	17.20	-31.6	-32.3	26.3	0.00e+00	0	29	0	2821718016	36	5960
2026-01-14 19:32:14.81	292.48	16.93	-31.4	-32.1	26.5	0.00e+00	0	29	0	2844786688	36	5770
2026-01-14 19:32:18.85	291.74	16.66	-31.7	-32.3	26.2	0.00e+00	0	29	0	2867855360	36	5932
2026-01-14 19:32:22.89	291.02	16.38	-31.6	-32.1	26.4	0.00e+00	0	29	0	2889875456	36	5823
2026-01-14 19:32:26.92	290.32	16.10	-31.6	-32.2	26.4	0.00e+00	0	29	0	2912944128	36	5864
2026-01-14 19:32:30.96	289.62	15.82	-31.6	-32.2	26.4	0.00e+00	0	29	0	2934964224	36	5857
2026-01-14 19:32:35.00	288.94	15.54	-31.7	-32.2	26.3	0.00e+00	0	29	0	2958032896	36	5892
2026-01-14 19:32:39.04	288.27	15.26	-32.0	-32.6	26.1	0.00e+00	0	29	0	2981101568	36	6124
2026-01-14 19:32:43.08	287.62	14.98	-32.3	-32.9	25.8	0.00e+00	0	29	0	3004170240	36	6356
2026-01-14 19:32:47.12	286.97	14.70	-32.4	-33.2	25.7	0.00e+00	0	29	0	3026190336	36	6547
2026-01-14 19:32:51.15	286.34	14.42	-32.5	-33.1	25.7	0.00e+00	0	29	0	3049259008	36	6537
2026-01-14 19:32:55.19	285.72	14.14	-32.4	-32.9	25.7	0.00e+00	0	29	0	3072327680	36	6385
2026-01-14 19:32:59.23	285.12	13.85	-32.4	-33.1	25.7	0.00e+00	0	29	0	3094347776	36	6505
2026-01-14 19:33:03.26	284.52	13.57	-32.5	-33.0	25.6	0.00e+00	0	29	0	3117416448	36	6464
2026-01-14 19:33:07.30	283.94	13.29	-32.6	-33.2	25.5	0.00e+00	0	29	0	3139436544	36	6583
2026-01-14 19:33:11.34	283.37	13.01	-32.8	-33.5	25.3	0.00e+00	0	29	0	3162505216	38	6092
2026-01-14 19:33:15.37	282.81	12.73	-33.0	-33.7	25.2	0.00e+00	0	29	0	3185573888	38	6200
2026-01-14 19:33:19.41	282.25	12.45	-32.9	-33.5	25.2	0.00e+00	0	29	0	3207593984	38	6066
2026-01-14 19:33:23.45	281.71	12.17	-33.0	-33.6	25.1	0.00e+00	0	29	0	3230662656	38	6128
2026-01-14 19:33:27.49	281.18	11.89	-33.3	-34.0	24.8	0.00e+00	0	29	0	3253731328	38	6403
2026-01-14 19:33:31.53	280.66	11.61	-33.3	-34.0	24.9	0.00e+00	0	29	0	3276800000	38	6447
2026-01-14 19:33:35.56	280.16	11.33	-33.5	-34.1	24.6	0.00e+00	0	29	0	3298820096	38	6533
2026-01-14 19:33:39.59	279.66	11.06	-33.7	-34.3	24.5	0.00e+00	0	29	0	3321888768	40	5913
2026-01-14 19:33:43.63	279.17	10.78	-33.5	-34.3	24.6	0.00e+00	0	29	0	3343908864	40	5919
2026-01-14 19:33:47.67	278.68	10.51	-33.6	-34.3	24.6	0.00e+00	0	29	0	3366977536	40	5944
2026-01-14 19:33:51.71	278.21	10.23	-33.7	-34.5	24.4	0.00e+00	0	29	0	3390046208	40	6045
2026-01-14 19:33:55.75	277.75	9.96	-33.7	-34.4	24.4	0.00e+00	0	29	0	3412066304	40	5984
2026-01-14 19:33:59.79	277.29	9.69	-33.9	-34.5	24.2	0.00e+00	0	29	0	3435134976	40	6090
2026-01-14 19:34:03.83	276.85	9.42	-34.0	-34.8	24.1	0.00e+00	0	29	0	3458203648	40	6290
2026-01-14 19:34:07.87	276.41	9.15	-34.2	-34.8	23.9	0.00e+00	0	29	0	3480223744	40	6283
2026-01-14 19:34:11.91	275.98	8.88	-34.4	-35.1	23.7	0.00e+00	0	29	0	3503292416	40	6516
2026-01-14 19:34:15.95	275.56	8.62	-34.2	-34.9	23.8	0.00e+00	0	29	0	3526361088	40	6328
2026-01-14 19:34:19.99	275.14	8.35	-34.5	-35.3	23.5	0.00e+00	0	29	0	3548381184	40	6679
2026-01-14 19:34:24.01	274.74	8.09	-34.2	-34.8	23.8	0.00e+00	0	29	0	3571449856	40	6312
2026-01-14 19:34:28.05	274.34	7.83	-34.5	-35.1	23.5	0.00e+00	0	29	0	3594518528	40	6537
2026-01-14 19:34:32.09	273.95	7.57	-34.6	-35.3	23.4	0.00e+00	0	29	0	3616538624	40	6673
2026-01-14 19:34:36.13	273.57	7.31	-34.5	-35.3	23.5	0.00e+00	0	29	0	3639607296	40	6633
2026-01-14 19:34:40.17	273.19	7.05	-34.6	-35.2	23.3	0.00e+00	0	29	0	3662675968	40	6609
2026-01-14 19:34:44.21	272.82	6.79	-34.8	-35.5	23.1	0.00e+00	0	29	0	3684696064	42	6078
2026-01-14 19:34:48.24	272.46	6.54	-34.8	-35.5	23.1	0.00e+00	0	29	0	3707764736	42	6080
2026-01-14 19:34:52.29	272.10	6.29	-34.8	-35.5	23.0	0.00e+00	0	29	0	3730833408	42	6072
2026-01-14 19:34:56.33	271.75	6.03	-35.0	-35.7	22.8	0.00e+00	0	29	0	3752853504	42	6199
2026-01-14 19:35:00.36	271.40	5.78	-35.1	-36.0	22.7	0.00e+00	0	29	0	3775922176	42	6402
2026-01-14 19:35:04.39	271.06	5.54	-35.2	-35.9	22.5	0.00e+00	0	29	0	3798990848	42	6372
2026-01-14 19:35:08.43	270.73	5.29	-35.4	-36.2	22.4	0.00e+00	0	29	0	3821010944	42	6590
2026-01-14 19:35:12.47	270.40	5.04	-35.1	-35.8	22.6	0.00e+00	0	29	0	3844079616	42	6315
2026-01-14 19:35:16.50	270.08	4.80	-35.1	-35.8	22.6	0.00e+00	0	29	0	3867148288	42	6269
2026-01-14 19:35:20.54	269.77	4.55	-35.5	-36.2	22.2	0.00e+00	0	29	0	3889168384	42	6561
2026-01-14 19:35:24.58	269.46	4.31	-35.3	-36.0	22.3	0.00e+00	0	29	0	3912237056	42	6416
2026-01-14 19:35:28.62	269.15	4.07	-35.7	-36.5	21.1	0.00e+00	0	29	0	3934257152	42	6797
2026-01-14 19:35:32.66	268.85	3.83	-35.8	-36.7	21.5	0.00e+00	0	29	0	3957325824	44	6233
2026-01-14 19:35:36.70	268.56	3.59	-35.5	-36.2	21.9	0.00e+00	0	29	0	3980394496	44	5885
2026-01-14 19:35:40.74	268.27	3.35	-35.4	-36.3	21.8	0.00e+00	0	29	0	4003463168	44	5934
2026-01-14 19:35:44.77	267.98	3.12	-36.0	-36.8	21.3	0.00e+00	0	29	0	4025483264	44	6293
2026-01-14 19:35:48.80	267.70	2.89	-48.5	-60.5	3.6	8.44e-01	0	29	104	4034920448	60	38354
2026-01-14 19:35:52.84	267.43	2.65	-48.7	-60.9	3.6	8.45e-01	0	29	104	4034920448	60	40045
2026-01-14 19:35:56.88	267.15	2.42	-48.6	-60.9	3.6	8.45e-01	0	29	104	4034920448	60	40230
2026-01-14 19:36:00.88	266.89	2.19	-48.6	-60.8	3.6	8.45e-01	0	29	104	4034920448	60	39634
2026-01-14 19:36:04.92	266.63	1.97	-48.8	-60.9	3.6	8.46e-01	0	29	104	4034920448	60	40116
2026-01-14 19:36:08.96	266.37	1.74	-48.8	-60.9	3.6	8.45e-01	0	29	104	4034920448	60	39912
2026-01-14 19:36:13.00	266.11	1.51	-48.8	-60.9	3.6	8.45e-01	0	29	104	4034920448	60	39938
2026-01-14 19:36:17.03	265.86	1.29	-48.7	-60.8	3.6	8.46e-01	0	29	104	4034920448	60	39443
2026-01-14 19:36:21.07	265.62	1.06	-48.7	-60.8	3.6	8.45e-01	0	29	104	4034920448	60	39755
2026-01-14 19:36:25.11	265.38	0.84	-48.7	-60.8	3.6	8.45e-01	0	29	104	4034920448	60	39514
2026-01-14 19:36:29.15	265.14	0.62	-48.7	-60.8	3.6	8.46e-01	0	29	104	4034920448	60	39644
2026-01-14 19:36:33.19	264.90	0.40	-48.7	-60.8	3.6	8.46e-01	0	29	104	4034920448	60	39436
2026-01-14 19:36:37.23	264.67	0.18	-48.7	-60.8	3.6	8.45e-01	0	29	104	4034920448	60	39542

#Closed at: 2026-01-14 19:36:40
#Recorded file [4034 MB]: D:/lorett/data/35029_260115_072253.dat