passes_logs/2026/01/14/R4.6S_Anadyr/R4.6S_Anadyr__20260114_004752_NOAA_21_JPSS-2_rec.log

#Pass ID: 20260114_004752_NOAA 21 (JPSS-2)
#Satellite: NOAA 21 (JPSS-2)
#Configuration: NOAA-21
#almurnet v.1.7.20251203
#Start time: 2026-01-14 00:47:55

#Version: 2.2.20231116
#Station: R4.6S_Anadyr
#Location: 177.4865 lon 64.73178 lat
#TLE: 1 54234U 22150A   26013.60300550  .00000047  00000+0  43143-4 0  9998
#TLE: 2 54234  98.7496 314.5197 0000681 301.0337  59.0772 14.19534502164617

#Time	Az	El	Level	Level2	SNR	BER	BlckErr	Temp	State	Recorded	gain1	gain2
2026-01-14 00:47:55.17	170.90	0.18	-48.6	-60.0	3.2	1.54e+00	0	26	0	0	60	34924
2026-01-14 00:47:59.21	170.99	0.42	-48.6	-61.5	3.5	1.52e+00	0	26	104	0	60	41773
2026-01-14 00:48:03.25	171.07	0.67	-48.5	-61.4	3.5	1.52e+00	0	26	104	0	60	41062
2026-01-14 00:48:07.29	171.16	0.91	-48.0	-60.8	3.5	1.52e+00	0	27	104	0	60	38528
2026-01-14 00:48:11.33	171.25	1.16	-47.1	-59.8	3.5	1.52e+00	0	27	104	0	60	34107
2026-01-14 00:48:15.37	171.34	1.41	-47.1	-59.9	3.5	1.52e+00	0	27	104	0	60	34535
2026-01-14 00:48:19.41	171.43	1.66	-47.0	-59.5	3.5	1.51e+00	0	27	104	0	60	33208
2026-01-14 00:48:23.45	171.52	1.92	-47.1	-59.8	3.5	1.52e+00	0	27	104	0	60	34123
2026-01-14 00:48:27.48	171.61	2.17	-47.0	-59.6	3.5	1.52e+00	0	27	104	0	60	33698
2026-01-14 00:48:31.52	171.71	2.43	-47.0	-58.8	3.5	1.52e+00	0	27	104	0	60	30652
2026-01-14 00:48:35.56	171.80	2.69	-47.0	-59.5	3.5	1.52e+00	0	27	104	0	60	33249
2026-01-14 00:48:39.60	171.90	2.96	-45.5	-50.3	8.2	7.27e-02	120	27	0	2097152	60	11463
2026-01-14 00:48:43.63	172.00	3.22	-40.6	-42.3	16.8	0.00e+00	123	27	0	14680064	54	6445
2026-01-14 00:48:47.67	172.10	3.49	-38.7	-40.0	18.9	0.00e+00	122	27	0	27262976	50	6242
2026-01-14 00:48:51.72	172.20	3.76	-42.8	-45.1	14.3	3.46e-04	123	27	0	39845888	60	6348
2026-01-14 00:48:55.76	172.31	4.03	-41.5	-43.3	16.2	6.82e-03	123	27	0	48234496	58	5778
2026-01-14 00:48:59.80	172.41	4.31	-39.9	-41.4	17.9	0.00e+00	123	27	0	60817408	54	5819
2026-01-14 00:49:03.85	172.52	4.59	-37.6	-38.7	20.3	0.00e+00	122	27	0	73400320	48	6056
2026-01-14 00:49:07.89	172.63	4.87	-37.4	-38.6	20.4	0.00e+00	121	27	0	85983232	48	5956
2026-01-14 00:49:11.93	172.74	5.16	-37.3	-38.4	20.6	0.00e+00	123	27	0	98566144	48	5824
2026-01-14 00:49:15.97	172.86	5.45	-37.3	-38.5	20.7	0.00e+00	123	27	0	111149056	48	5860
2026-01-14 00:49:20.01	172.97	5.74	-37.0	-38.1	21.0	0.00e+00	123	27	0	123731968	48	5622
2026-01-14 00:49:24.05	173.09	6.03	-36.8	-37.9	21.2	0.00e+00	123	27	0	136314880	48	5519
2026-01-14 00:49:28.09	173.21	6.33	-36.9	-38.0	21.0	0.00e+00	120	27	0	148897792	46	6209
2026-01-14 00:49:32.14	173.33	6.63	-36.6	-37.7	21.4	0.00e+00	122	27	0	161480704	46	6041
2026-01-14 00:49:36.18	173.45	6.94	-36.6	-37.7	21.5	0.00e+00	123	27	0	174063616	46	6016
2026-01-14 00:49:40.22	173.58	7.24	-36.4	-37.5	21.6	0.00e+00	121	27	0	186646528	46	5880
2026-01-14 00:49:44.26	173.71	7.56	-36.5	-37.6	21.6	0.00e+00	123	27	0	199229440	46	5963
2026-01-14 00:49:48.30	173.84	7.87	-36.4	-37.4	21.7	0.00e+00	118	27	0	211812352	46	5843
2026-01-14 00:49:52.34	173.98	8.19	-36.2	-37.3	21.9	0.00e+00	123	27	0	224395264	46	5757
2026-01-14 00:49:56.38	174.11	8.51	-36.0	-37.0	22.1	0.00e+00	122	27	0	236978176	46	5567
2026-01-14 00:50:00.42	174.25	8.84	-35.9	-36.9	22.2	0.00e+00	122	27	0	249561088	46	5513
2026-01-14 00:50:04.46	174.39	9.17	-35.6	-36.7	22.4	0.00e+00	120	27	0	263192576	44	5999
2026-01-14 00:50:08.50	174.54	9.51	-35.6	-36.6	22.5	0.00e+00	122	27	0	275775488	44	5951
2026-01-14 00:50:12.54	174.69	9.85	-35.5	-36.5	22.5	0.00e+00	123	27	0	288358400	44	5900
2026-01-14 00:50:16.59	174.84	10.20	-35.6	-36.6	22.5	0.00e+00	123	28	0	300941312	44	5938
2026-01-14 00:50:20.63	174.99	10.55	-35.1	-36.1	22.9	0.00e+00	123	27	0	313524224	44	5637
2026-01-14 00:50:24.67	175.15	10.90	-35.0	-36.0	23.0	0.00e+00	121	28	0	326107136	44	5547
2026-01-14 00:50:28.71	175.31	11.26	-34.9	-35.9	23.1	0.00e+00	123	27	0	338690048	44	5486
2026-01-14 00:50:32.75	175.48	11.63	-34.8	-35.7	23.3	0.00e+00	123	27	0	351272960	42	6047
2026-01-14 00:50:36.79	175.65	12.00	-34.6	-35.5	23.5	0.00e+00	120	27	0	363855872	42	5921
2026-01-14 00:50:40.83	175.82	12.37	-34.6	-35.5	23.5	0.00e+00	120	27	0	376438784	42	5901
2026-01-14 00:50:44.88	176.00	12.76	-34.4	-35.3	23.7	0.00e+00	123	28	0	389021696	42	5758
2026-01-14 00:50:48.91	176.18	13.14	-34.4	-35.4	23.7	0.00e+00	120	27	0	401604608	42	5801
2026-01-14 00:50:52.95	176.37	13.53	-34.3	-35.2	23.9	0.00e+00	123	27	0	414187520	42	5687
2026-01-14 00:50:56.99	176.56	13.93	-34.2	-35.1	24.0	0.00e+00	122	27	0	426770432	42	5653
2026-01-14 00:51:01.04	176.76	14.34	-34.2	-35.1	24.0	0.00e+00	123	27	0	439353344	42	5603
2026-01-14 00:51:05.08	176.96	14.75	-34.2	-35.1	24.0	0.00e+00	123	27	0	451936256	42	5612
2026-01-14 00:51:09.12	177.16	15.17	-34.3	-35.2	23.9	0.00e+00	123	27	0	464519168	42	5693
2026-01-14 00:51:13.16	177.37	15.60	-34.2	-35.1	24.0	0.00e+00	123	28	0	477102080	42	5603
2026-01-14 00:51:17.20	177.59	16.03	-34.2	-35.1	24.1	0.00e+00	123	27	0	489684992	42	5597
2026-01-14 00:51:21.23	177.81	16.47	-34.4	-35.3	24.0	0.00e+00	122	28	0	502267904	42	5759
2026-01-14 00:51:25.27	178.04	16.92	-34.5	-35.4	23.8	0.00e+00	122	28	0	514850816	42	5807
2026-01-14 00:51:29.30	178.28	17.38	-34.6	-35.5	23.7	0.00e+00	122	28	0	527433728	42	5923
2026-01-14 00:51:33.34	178.52	17.84	-34.7	-35.6	23.6	0.00e+00	123	28	0	540016640	42	5969
2026-01-14 00:51:37.38	178.77	18.32	-34.6	-35.5	23.8	0.00e+00	123	28	0	552599552	42	5898
2026-01-14 00:51:41.42	179.03	18.80	-34.5	-35.4	23.8	0.00e+00	122	28	0	565182464	42	5840
2026-01-14 00:51:45.46	179.30	19.29	-34.3	-35.2	24.1	0.00e+00	123	28	0	578813952	42	5670
2026-01-14 00:51:49.51	179.57	19.79	-34.1	-35.0	24.2	0.00e+00	123	28	0	591396864	42	5567
2026-01-14 00:51:53.54	179.85	20.30	-33.8	-34.7	24.4	0.00e+00	122	28	0	603979776	42	5373
2026-01-14 00:51:57.58	180.14	20.82	-33.7	-34.6	24.4	0.00e+00	122	28	0	616562688	40	5964
2026-01-14 00:52:01.63	180.44	21.35	-33.2	-34.1	24.8	0.00e+00	122	28	0	629145600	40	5627
2026-01-14 00:52:05.66	180.75	21.89	-32.9	-33.8	25.1	0.00e+00	123	28	0	641728512	40	5433
2026-01-14 00:52:09.70	181.08	22.45	-33.0	-33.8	25.1	0.00e+00	122	28	0	654311424	40	5455
2026-01-14 00:52:13.74	181.41	23.01	-32.9	-33.8	25.2	0.00e+00	122	28	0	666894336	38	6093
2026-01-14 00:52:17.78	181.75	23.58	-32.9	-33.7	25.1	0.00e+00	123	28	0	679477248	38	6045
2026-01-14 00:52:21.82	182.11	24.17	-32.8	-33.7	25.2	0.00e+00	122	28	0	692060160	38	6006
2026-01-14 00:52:25.86	182.48	24.77	-33.0	-33.9	25.2	0.00e+00	125	28	0	704643072	38	6145
2026-01-14 00:52:29.90	182.86	25.38	-33.3	-34.2	24.9	0.00e+00	122	28	0	717225984	38	6381
2026-01-14 00:52:33.94	183.26	26.01	-33.6	-34.5	24.6	0.00e+00	120	28	0	729808896	38	6584
2026-01-14 00:52:37.98	183.68	26.65	-33.8	-34.7	24.6	0.00e+00	122	28	0	742391808	40	6027
2026-01-14 00:52:42.02	184.11	27.30	-34.0	-34.9	24.5	0.00e+00	120	28	0	754974720	40	6195
2026-01-14 00:52:46.06	184.55	27.97	-34.3	-35.2	24.1	0.00e+00	120	28	0	767557632	40	6413
2026-01-14 00:52:50.10	185.02	28.65	-34.4	-35.4	24.1	0.00e+00	120	28	0	780140544	40	6505
2026-01-14 00:52:54.14	185.51	29.34	-34.2	-35.1	24.3	0.00e+00	121	28	0	792723456	40	6287
2026-01-14 00:52:58.18	186.01	30.05	-34.0	-34.9	24.5	0.00e+00	122	28	0	805306368	40	6173
2026-01-14 00:53:02.22	186.54	30.78	-34.0	-34.8	24.5	0.00e+00	122	28	0	817889280	40	6132
2026-01-14 00:53:06.26	187.10	31.52	-33.8	-34.7	24.6	0.00e+00	122	28	0	830472192	40	6029
2026-01-14 00:53:10.30	187.67	32.28	-33.9	-34.8	24.6	0.00e+00	123	28	0	843055104	40	6066
2026-01-14 00:53:14.33	188.28	33.06	-34.0	-34.9	24.4	0.00e+00	120	28	0	855638016	40	6167
2026-01-14 00:53:18.37	188.91	33.85	-34.2	-35.1	24.3	0.00e+00	122	28	0	868220928	40	6301
2026-01-14 00:53:22.41	189.58	34.66	-34.8	-35.7	23.9	0.00e+00	122	28	0	880803840	40	6748
2026-01-14 00:53:26.45	190.28	35.48	-35.7	-36.7	23.2	0.00e+00	123	28	0	894435328	42	6752
2026-01-14 00:53:30.49	191.01	36.33	-36.2	-37.2	22.7	0.00e+00	123	28	0	907018240	44	6357
2026-01-14 00:53:34.54	191.79	37.19	-36.2	-37.2	22.7	0.00e+00	122	28	0	919601152	44	6353
2026-01-14 00:53:38.58	192.60	38.06	-36.1	-37.1	22.8	0.00e+00	123	28	0	932184064	44	6303
2026-01-14 00:53:42.61	193.46	38.96	-36.0	-37.0	22.8	0.00e+00	122	28	0	944766976	44	6208
2026-01-14 00:53:46.65	194.36	39.87	-35.7	-36.6	23.1	0.00e+00	123	28	0	957349888	44	5988
2026-01-14 00:53:50.69	195.32	40.79	-36.1	-37.0	22.8	0.00e+00	120	28	0	969932800	44	6271
2026-01-14 00:53:54.73	196.34	41.73	-35.6	-36.6	23.2	0.00e+00	123	28	0	982515712	44	5930
2026-01-14 00:53:58.77	197.41	42.69	-36.6	-37.6	22.3	0.00e+00	123	28	0	995098624	44	6722
2026-01-14 00:54:02.82	198.55	43.66	-37.4	-38.5	21.6	0.00e+00	123	28	0	1007681536	46	6594
2026-01-14 00:54:06.86	199.76	44.63	-37.4	-38.5	21.5	0.00e+00	122	28	0	1020264448	48	5873
2026-01-14 00:54:10.91	201.05	45.63	-37.8	-38.9	21.1	0.00e+00	122	28	0	1032847360	48	6160
2026-01-14 00:54:14.95	202.42	46.62	-36.6	-37.6	22.3	0.00e+00	122	28	0	1045430272	46	5956
2026-01-14 00:54:18.99	203.87	47.63	-35.9	-36.8	22.9	0.00e+00	123	28	0	1058013184	46	5442
2026-01-14 00:54:23.03	205.42	48.63	-36.4	-37.4	22.5	0.00e+00	123	28	0	1070596096	44	6534
2026-01-14 00:54:27.07	207.08	49.64	-36.1	-37.1	22.7	0.00e+00	122	28	0	1083179008	44	6337
2026-01-14 00:54:31.11	208.85	50.64	-36.0	-36.9	22.9	0.00e+00	121	28	0	1095761920	44	6198
2026-01-14 00:54:35.15	210.73	51.63	-35.8	-36.8	22.9	0.00e+00	122	28	0	1108344832	44	6126
2026-01-14 00:54:39.19	212.74	52.61	-35.3	-36.3	23.3	0.00e+00	120	28	0	1120927744	44	5750
2026-01-14 00:54:43.23	214.89	53.57	-35.2	-36.1	23.5	0.00e+00	123	28	0	1133510656	44	5653
2026-01-14 00:54:47.27	217.19	54.50	-34.3	-35.2	24.2	0.00e+00	120	28	0	1146093568	42	5678
2026-01-14 00:54:51.31	219.63	55.40	-34.6	-35.5	24.0	0.00e+00	122	28	0	1158676480	42	5871
2026-01-14 00:54:55.35	222.23	56.27	-34.3	-35.2	24.1	0.00e+00	120	28	0	1172307968	42	5693
2026-01-14 00:54:59.39	224.99	57.08	-34.0	-34.9	24.4	0.00e+00	123	28	0	1184890880	42	5525
2026-01-14 00:55:03.43	227.91	57.84	-33.4	-34.3	24.4	0.00e+00	123	28	0	1197473792	40	5751
2026-01-14 00:55:07.47	230.99	58.54	-33.8	-34.7	24.0	0.00e+00	122	28	0	1210056704	40	6031
2026-01-14 00:55:11.50	234.22	59.16	-33.8	-34.7	24.5	0.00e+00	123	28	0	1222639616	40	6023
2026-01-14 00:55:15.54	237.61	59.70	-33.5	-34.4	24.8	0.00e+00	120	28	0	1235222528	40	5817
2026-01-14 00:55:19.58	241.13	60.16	-33.4	-34.3	24.7	0.00e+00	122	28	0	1247805440	40	5766
2026-01-14 00:55:23.63	244.76	60.52	-33.1	-34.0	25.1	0.00e+00	123	28	0	1260388352	40	5535
2026-01-14 00:55:27.67	248.48	60.77	-33.3	-34.2	24.5	0.00e+00	123	28	0	1272971264	40	5697
2026-01-14 00:55:31.71	252.26	60.92	-33.4	-34.3	24.5	0.00e+00	120	28	0	1285554176	40	5728
2026-01-14 00:55:35.75	256.06	60.96	-33.6	-34.5	24.7	0.00e+00	120	28	0	1298137088	40	5890
2026-01-14 00:55:39.80	259.87	60.89	-33.4	-34.2	24.5	0.00e+00	122	28	0	1310720000	40	5723
2026-01-14 00:55:43.84	263.64	60.72	-33.0	-33.8	25.1	0.00e+00	123	28	0	1323302912	40	5462
2026-01-14 00:55:47.88	267.33	60.43	-33.4	-34.3	24.7	0.00e+00	123	28	0	1335885824	38	6454
2026-01-14 00:55:51.92	270.93	60.05	-33.7	-34.6	24.6	0.00e+00	120	28	0	1348468736	40	5967
2026-01-14 00:55:55.96	274.41	59.57	-33.9	-34.8	24.5	0.00e+00	123	28	0	1361051648	40	6104
2026-01-14 00:56:00.00	277.76	59.01	-33.7	-34.6	24.8	0.00e+00	123	28	0	1373634560	40	5949
2026-01-14 00:56:04.04	280.95	58.37	-34.1	-35.0	24.3	0.00e+00	121	28	0	1386217472	40	6247
2026-01-14 00:56:08.08	283.99	57.65	-34.2	-35.1	24.2	0.00e+00	122	28	0	1398800384	40	6317
2026-01-14 00:56:12.13	286.87	56.88	-34.7	-35.6	23.7	0.00e+00	123	28	0	1411383296	40	6713
2026-01-14 00:56:16.17	289.59	56.05	-34.4	-35.3	24.1	0.00e+00	123	28	0	1423966208	42	5774
2026-01-14 00:56:20.21	292.14	55.18	-33.7	-34.6	24.4	0.00e+00	120	28	0	1436549120	40	5960
2026-01-14 00:56:24.25	294.54	54.27	-34.2	-35.1	24.2	0.00e+00	123	28	0	1449132032	40	6313
2026-01-14 00:56:28.29	296.79	53.33	-35.2	-36.1	23.5	0.00e+00	120	28	0	1462763520	42	6344
2026-01-14 00:56:32.33	298.90	52.37	-35.2	-36.1	23.6	0.00e+00	120	28	0	1474297856	42	6311
2026-01-14 00:56:36.37	300.87	51.39	-35.3	-36.2	23.5	0.00e+00	120	28	0	1487929344	42	6394
2026-01-14 00:56:40.42	302.73	50.40	-35.3	-36.3	23.4	0.00e+00	122	28	0	1500512256	42	6463
2026-01-14 00:56:44.46	304.46	49.40	-36.2	-37.2	22.6	0.00e+00	122	28	0	1513095168	44	6380
2026-01-14 00:56:48.50	306.08	48.40	-37.8	-39.0	20.8	0.00e+00	122	28	0	1525678080	48	6210
2026-01-14 00:56:52.54	307.61	47.40	-36.7	-37.7	21.8	0.00e+00	122	28	0	1538260992	46	6033
2026-01-14 00:56:56.58	309.04	46.40	-36.9	-37.9	22.1	0.00e+00	123	28	0	1550843904	48	5516
2026-01-14 00:57:00.61	310.38	45.41	-35.7	-36.7	23.0	0.00e+00	122	28	0	1563426816	46	5365
2026-01-14 00:57:04.65	311.64	44.43	-36.7	-37.7	21.8	0.00e+00	122	28	0	1576009728	46	6022
2026-01-14 00:57:08.70	312.83	43.46	-37.4	-38.4	21.4	0.00e+00	122	28	0	1588592640	46	6564
2026-01-14 00:57:12.73	313.95	42.50	-36.2	-37.2	22.7	0.00e+00	123	28	0	1601175552	46	5676
2026-01-14 00:57:16.77	315.01	41.55	-36.7	-37.7	22.1	0.00e+00	122	28	0	1613758464	44	6798
2026-01-14 00:57:20.82	316.01	40.62	-37.1	-38.1	21.8	0.00e+00	123	28	0	1626341376	46	6331
2026-01-14 00:57:24.86	316.95	39.70	-35.8	-36.8	22.9	0.00e+00	122	28	0	1638924288	44	6083
2026-01-14 00:57:28.89	317.84	38.80	-36.3	-37.3	22.6	0.00e+00	122	28	0	1651507200	44	6445
2026-01-14 00:57:32.93	318.69	37.91	-36.2	-37.2	22.8	0.00e+00	123	28	0	1664090112	44	6368
2026-01-14 00:57:36.98	319.50	37.04	-35.3	-36.2	23.3	0.00e+00	122	28	0	1676673024	44	5720
2026-01-14 00:57:41.01	320.26	36.19	-34.3	-35.2	24.1	0.00e+00	123	28	0	1689255936	42	5698
2026-01-14 00:57:45.06	320.98	35.36	-35.6	-36.6	23.0	0.00e+00	123	28	0	1701838848	42	6698
2026-01-14 00:57:49.09	321.67	34.54	-35.4	-36.4	23.1	0.00e+00	123	28	0	1714421760	44	5816
2026-01-14 00:57:53.13	322.33	33.74	-34.7	-35.6	23.9	0.00e+00	123	28	0	1727004672	42	5993
2026-01-14 00:57:57.18	322.96	32.95	-35.6	-36.5	23.2	0.00e+00	123	28	0	1739587584	42	6646
2026-01-14 00:58:01.22	323.56	32.19	-35.0	-35.9	23.6	0.00e+00	122	28	0	1752170496	42	6174
2026-01-14 00:58:05.26	324.13	31.43	-34.5	-35.4	23.6	0.00e+00	122	28	0	1764753408	42	5838
2026-01-14 00:58:09.30	324.68	30.70	-34.2	-35.2	23.8	0.00e+00	120	28	0	1778384896	42	5668
2026-01-14 00:58:13.34	325.20	29.98	-34.1	-35.0	24.2	0.00e+00	122	28	0	1790967808	42	5584
2026-01-14 00:58:17.38	325.70	29.28	-33.8	-34.7	24.2	0.00e+00	122	28	0	1803550720	40	6062
2026-01-14 00:58:21.42	326.19	28.59	-34.1	-35.0	24.2	0.00e+00	122	28	0	1816133632	40	6265
2026-01-14 00:58:25.46	326.65	27.91	-34.0	-35.0	24.3	0.00e+00	123	28	0	1828716544	40	6219
2026-01-14 00:58:29.50	327.09	27.25	-33.8	-34.7	24.6	0.00e+00	123	28	0	1841299456	40	5997
2026-01-14 00:58:33.54	327.52	26.61	-33.5	-34.4	24.7	0.00e+00	120	28	0	1853882368	40	5814
2026-01-14 00:58:37.58	327.93	25.97	-33.5	-34.3	24.8	0.00e+00	116	28	0	1866465280	40	5770
2026-01-14 00:58:41.62	328.33	25.35	-33.3	-34.1	24.9	0.00e+00	122	28	0	1879048192	40	5648
2026-01-14 00:58:45.66	328.71	24.75	-33.3	-34.2	24.8	0.00e+00	122	28	0	1891631104	40	5696
2026-01-14 00:58:49.71	329.08	24.15	-33.4	-34.3	24.7	0.00e+00	123	28	0	1904214016	40	5733
2026-01-14 00:58:53.75	329.43	23.57	-33.6	-34.5	24.6	0.00e+00	123	28	0	1916796928	40	5916
2026-01-14 00:58:57.79	329.77	23.00	-33.7	-34.5	24.6	0.00e+00	122	28	0	1929379840	40	5923
2026-01-14 00:59:01.83	330.11	22.44	-33.8	-34.7	24.5	0.00e+00	123	28	0	1941962752	40	6045
2026-01-14 00:59:05.87	330.43	21.90	-34.0	-34.9	24.3	0.00e+00	122	28	0	1954545664	40	6156
2026-01-14 00:59:09.91	330.74	21.36	-34.1	-35.1	24.1	0.00e+00	123	28	0	1967128576	40	6287
2026-01-14 00:59:13.95	331.04	20.83	-34.1	-35.1	24.1	0.00e+00	123	28	0	1979711488	40	6293
2026-01-14 00:59:17.99	331.33	20.32	-33.7	-34.6	24.4	0.00e+00	123	28	0	1992294400	40	5983
2026-01-14 00:59:22.04	331.61	19.81	-33.6	-34.5	24.6	0.00e+00	123	28	0	2004877312	40	5870
2026-01-14 00:59:26.08	331.88	19.31	-33.5	-34.4	24.6	0.00e+00	123	28	0	2017460224	40	5825
2026-01-14 00:59:30.12	332.15	18.83	-33.7	-34.6	24.4	0.00e+00	122	28	0	2030043136	40	5944
2026-01-14 00:59:34.16	332.41	18.35	-34.0	-34.9	24.2	0.00e+00	123	28	0	2042626048	40	6140
2026-01-14 00:59:38.20	332.66	17.88	-33.9	-34.9	24.1	0.00e+00	123	28	0	2055208960	40	6144
2026-01-14 00:59:42.24	332.90	17.42	-34.3	-35.2	24.0	0.00e+00	122	28	0	2068840448	40	6372
2026-01-14 00:59:46.28	333.14	16.96	-34.6	-35.5	23.7	0.00e+00	123	28	0	2080374784	40	6646
2026-01-14 00:59:50.32	333.37	16.52	-34.5	-35.4	23.8	0.00e+00	120	28	0	2094006272	40	6561
2026-01-14 00:59:54.36	333.59	16.08	-34.6	-35.5	23.7	0.00e+00	120	28	0	2106589184	40	6627
2026-01-14 00:59:58.40	333.81	15.65	-34.8	-35.7	23.6	0.00e+00	121	28	0	2119172096	42	6026
2026-01-14 01:00:02.44	334.02	15.23	-34.9	-35.8	23.5	0.00e+00	122	28	0	2131755008	42	6107
2026-01-14 01:00:06.48	334.23	14.81	-34.9	-35.8	23.4	0.00e+00	123	28	0	2144337920	42	6126
2026-01-14 01:00:10.52	334.43	14.40	-35.0	-35.9	23.3	0.00e+00	123	28	0	2156920832	42	6200
2026-01-14 01:00:14.56	334.63	14.00	-35.1	-36.1	23.2	0.00e+00	123	28	0	2169503744	42	6316
2026-01-14 01:00:18.60	334.82	13.60	-35.2	-36.2	23.1	0.00e+00	122	28	0	2182086656	42	6366
2026-01-14 01:00:22.63	335.01	13.21	-35.3	-36.2	23.1	0.00e+00	120	27	0	2194669568	42	6409
2026-01-14 01:00:26.68	335.19	12.83	-35.3	-36.3	23.0	0.00e+00	122	28	0	2207252480	42	6440
2026-01-14 01:00:30.72	335.37	12.45	-35.3	-36.3	23.0	0.00e+00	118	28	0	2219835392	42	6471
2026-01-14 01:00:34.76	335.54	12.08	-35.3	-36.3	23.0	0.00e+00	120	28	0	2232418304	42	6466
2026-01-14 01:00:38.80	335.72	11.71	-35.6	-36.6	22.7	0.00e+00	122	28	0	2245001216	42	6679
2026-01-14 01:00:42.84	335.88	11.35	-35.5	-36.5	22.7	0.00e+00	122	28	0	2257584128	42	6631
2026-01-14 01:00:46.88	336.05	10.99	-35.6	-36.6	22.6	0.00e+00	123	28	0	2270167040	42	6726
2026-01-14 01:00:50.93	336.21	10.64	-35.7	-36.7	22.6	0.00e+00	123	28	0	2282749952	42	6731
2026-01-14 01:00:54.97	336.36	10.29	-35.8	-36.8	22.4	0.00e+00	123	28	0	2295332864	44	6091
2026-01-14 01:00:59.00	336.52	9.95	-35.7	-36.8	22.4	0.00e+00	120	28	0	2307915776	44	6072
2026-01-14 01:01:03.05	336.67	9.61	-36.0	-37.0	22.2	0.00e+00	123	28	0	2320498688	44	6250
2026-01-14 01:01:07.09	336.82	9.27	-36.1	-37.1	22.1	0.00e+00	122	28	0	2333081600	44	6311
2026-01-14 01:01:11.13	336.96	8.94	-36.0	-37.0	22.2	0.00e+00	123	28	0	2345664512	44	6231
2026-01-14 01:01:15.17	337.10	8.62	-36.1	-37.1	22.1	0.00e+00	122	28	0	2358247424	44	6305
2026-01-14 01:01:19.21	337.24	8.30	-36.0	-37.0	22.1	0.00e+00	123	28	0	2370830336	44	6277
2026-01-14 01:01:23.26	337.38	7.98	-35.9	-36.9	22.2	0.00e+00	123	28	0	2384461824	44	6143
2026-01-14 01:01:27.30	337.51	7.66	-36.2	-37.2	22.0	0.00e+00	123	28	0	2397044736	44	6375
2026-01-14 01:01:31.34	337.65	7.35	-36.1	-37.2	21.9	0.00e+00	122	28	0	2409627648	44	6369
2026-01-14 01:01:35.38	337.77	7.05	-36.2	-37.3	21.8	0.00e+00	120	28	0	2422210560	44	6449
2026-01-14 01:01:39.42	337.90	6.75	-36.4	-37.5	21.6	0.00e+00	119	28	0	2434793472	44	6612
2026-01-14 01:01:43.46	338.03	6.45	-36.4	-37.5	21.5	0.00e+00	122	28	0	2447376384	44	6613
2026-01-14 01:01:47.51	338.15	6.15	-36.6	-37.7	21.3	0.00e+00	122	28	0	2459959296	44	6741
2026-01-14 01:01:51.55	338.27	5.86	-36.5	-37.6	21.2	0.00e+00	122	28	0	2472542208	44	6716
2026-01-14 01:01:55.59	338.39	5.57	-37.3	-38.5	20.2	0.00e+00	120	28	0	2485125120	46	6612
2026-01-14 01:01:59.63	338.50	5.28	-38.1	-39.5	18.7	0.00e+00	123	28	0	2497708032	48	6603
2026-01-14 01:02:03.67	338.62	5.00	-39.5	-41.3	16.5	0.00e+00	122	28	0	2510290944	50	7241
2026-01-14 01:02:07.71	338.73	4.72	-41.0	-43.5	13.4	7.60e-06	123	28	0	2522873856	54	7458
2026-01-14 01:02:11.75	338.84	4.44	-42.5	-46.8	9.4	9.52e-03	120	28	0	2535456768	56	9621
2026-01-14 01:02:15.79	338.95	4.16	-43.2	-51.3	5.3	4.88e-01	120	28	104	2545942528	58	14408
2026-01-14 01:02:19.84	339.06	3.89	-43.4	-54.5	3.5	1.50e+00	0	28	104	2545942528	58	20923
2026-01-14 01:02:23.88	339.17	3.62	-43.5	-55.7	3.5	1.52e+00	0	28	104	2545942528	58	23923
2026-01-14 01:02:27.91	339.27	3.36	-43.5	-56.0	3.5	1.52e+00	0	28	104	2545942528	58	24967
2026-01-14 01:02:31.95	339.37	3.09	-43.6	-56.5	3.5	1.52e+00	0	28	104	2545942528	58	26222
2026-01-14 01:02:35.98	339.47	2.83	-48.1	-60.9	3.5	1.52e+00	0	28	104	2545942528	60	38860
2026-01-14 01:02:40.02	339.57	2.57	-48.6	-61.4	3.5	1.52e+00	0	28	104	2545942528	60	41156
2026-01-14 01:02:44.07	339.67	2.31	-48.2	-61.4	3.5	1.52e+00	0	28	104	2545942528	60	41153
2026-01-14 01:02:48.11	339.77	2.06	-48.5	-61.3	3.5	1.52e+00	0	28	104	2545942528	60	40741
2026-01-14 01:02:52.15	339.87	1.80	-48.5	-61.4	3.5	1.52e+00	0	28	104	2545942528	60	41049
2026-01-14 01:02:56.19	339.96	1.55	-48.5	-61.3	3.6	1.52e+00	0	28	104	2545942528	60	40841
2026-01-14 01:03:00.23	340.05	1.30	-48.5	-61.3	3.5	1.52e+00	0	28	104	2545942528	60	40847
2026-01-14 01:03:04.27	340.15	1.06	-48.5	-61.3	3.5	1.51e+00	0	28	104	2545942528	60	40704
2026-01-14 01:03:08.31	340.24	0.81	-48.5	-61.3	3.5	1.52e+00	0	28	104	2545942528	60	40931
2026-01-14 01:03:12.35	340.33	0.57	-48.5	-61.3	3.5	1.52e+00	0	28	104	2545942528	60	40725
2026-01-14 01:03:16.39	340.42	0.33	-48.5	-61.3	3.5	1.52e+00	0	28	104	2545942528	60	40874
2026-01-14 01:03:20.43	340.50	0.09	-48.5	-61.3	3.5	1.52e+00	0	28	104	2545942528	60	40903

#Closed at: 2026-01-14 01:03:23
#Recorded file [2545 MB]: D:/lorett/data/35029_260114_124755.dat