passes_logs/2026/01/14/R4.6S_Anadyr/R4.6S_Anadyr__20260114_220246_TY-42_rec.log

#Pass ID: 20260114_220246_TY-42
#Satellite: TY-42
#Configuration: TY-42_900M
#almurnet v.1.7.20251203
#Start time: 2026-01-14 22:03:17

#Version: 2.2.20231116
#Station: R4.6S_Anadyr
#Location: 177.4865 lon 64.73178 lat
#TLE: 1 64048U 25103A   26014.69425926  .00008005  00000-0  38191-3 0 09997
#TLE: 2 64048 097.4117 090.1174 0001564 091.0855 218.1626 15.19145944 36760

#Time	Az	El	Level	Level2	SNR	BER	BlckErr	Temp	State	Recorded	gain1	gain2
2026-01-14 22:03:17.66	23.98	1.83	-48.7	-63.6	3.6	1.51e+00	0	26	0	0	60	54533
2026-01-14 22:03:20.68	24.25	2.01	-47.3	-49.8	6.1	0.00e+00	0	28	104	0	60	37943
2026-01-14 22:03:23.71	24.52	2.20	-47.3	-49.8	6.1	0.00e+00	0	28	104	0	60	37915
2026-01-14 22:03:26.74	24.79	2.38	-47.3	-49.8	6.1	0.00e+00	0	28	104	0	60	37775
2026-01-14 22:03:29.77	25.07	2.57	-47.3	-49.8	6.1	0.00e+00	0	28	104	0	60	37953
2026-01-14 22:03:32.80	25.35	2.76	-47.3	-49.7	6.1	0.00e+00	0	29	104	0	60	37621
2026-01-14 22:03:35.83	25.64	2.95	-47.3	-49.8	6.1	0.00e+00	0	29	104	0	60	37731
2026-01-14 22:03:38.85	25.93	3.14	-47.3	-49.7	6.1	0.00e+00	0	29	104	0	60	37618
2026-01-14 22:03:41.88	26.22	3.33	-47.3	-49.8	6.1	0.00e+00	0	29	104	0	60	37757
2026-01-14 22:03:44.91	26.53	3.52	-47.3	-49.8	6.1	0.00e+00	0	29	104	0	60	37738
2026-01-14 22:03:47.94	26.83	3.72	-47.3	-49.8	6.1	0.00e+00	0	29	104	0	60	37939
2026-01-14 22:03:50.96	27.14	3.91	-47.4	-49.9	6.1	0.00e+00	0	29	104	0	60	38271
2026-01-14 22:03:53.99	27.46	4.11	-47.3	-49.8	6.1	0.00e+00	0	29	104	0	60	38030
2026-01-14 22:03:57.02	27.78	4.31	-47.3	-49.8	6.1	0.00e+00	0	29	104	0	60	37804
2026-01-14 22:04:00.05	28.10	4.50	-47.4	-49.8	6.1	0.00e+00	0	29	104	0	60	37990
2026-01-14 22:04:03.07	28.43	4.70	-47.3	-49.8	6.1	0.00e+00	0	29	104	0	60	37967
2026-01-14 22:04:06.10	28.77	4.91	-47.7	-50.2	6.1	0.00e+00	0	29	104	0	60	39413
2026-01-14 22:04:09.12	29.11	5.11	-47.5	-50.0	6.1	0.00e+00	0	30	104	0	60	38794
2026-01-14 22:04:12.15	29.46	5.31	-47.2	-49.7	6.1	0.00e+00	0	29	104	0	60	37514
2026-01-14 22:04:15.18	29.82	5.52	-47.5	-50.0	6.1	0.00e+00	0	30	104	0	60	38871
2026-01-14 22:04:18.21	30.18	5.73	-47.7	-50.2	6.1	0.00e+00	0	30	104	0	60	39820
2026-01-14 22:04:21.23	30.54	5.94	-47.5	-50.0	6.1	0.00e+00	0	30	104	0	60	38907
2026-01-14 22:04:24.26	30.92	6.15	-47.6	-50.1	6.1	0.00e+00	0	30	104	0	60	39374
2026-01-14 22:04:27.29	31.30	6.36	-47.6	-50.2	6.1	0.00e+00	0	30	104	0	60	39520
2026-01-14 22:04:30.31	31.68	6.57	-47.8	-50.2	6.1	0.00e+00	0	30	104	0	60	39684
2026-01-14 22:04:33.34	32.08	6.78	-47.8	-50.3	6.1	0.00e+00	0	30	104	0	60	40217
2026-01-14 22:04:36.37	32.48	7.00	-48.0	-50.4	6.1	0.00e+00	0	30	104	0	60	40765
2026-01-14 22:04:39.39	32.88	7.22	-48.1	-50.5	6.1	0.00e+00	0	30	104	0	60	41146
2026-01-14 22:04:42.42	33.30	7.43	-48.0	-50.5	6.1	0.00e+00	0	30	104	0	60	40924
2026-01-14 22:04:45.45	33.72	7.65	-48.0	-50.4	6.1	0.00e+00	0	30	104	0	60	40642
2026-01-14 22:04:48.48	34.15	7.88	-47.8	-50.3	6.1	0.00e+00	0	30	104	0	60	39957
2026-01-14 22:04:51.51	34.59	8.10	-48.0	-50.5	6.1	0.00e+00	0	30	104	0	60	41157
2026-01-14 22:04:54.53	35.04	8.32	-47.9	-50.4	6.1	0.00e+00	0	30	104	0	60	40611
2026-01-14 22:04:57.56	35.49	8.55	-47.8	-50.3	6.0	0.00e+00	0	30	104	0	60	40213
2026-01-14 22:05:00.59	35.95	8.77	-47.2	-49.8	6.1	0.00e+00	0	30	104	0	60	37907
2026-01-14 22:05:03.61	36.42	9.00	-47.6	-50.1	6.1	0.00e+00	0	30	104	0	60	39366
2026-01-14 22:05:06.64	36.91	9.23	-47.4	-50.0	6.1	0.00e+00	0	30	104	0	60	38914
2026-01-14 22:05:09.67	37.40	9.46	-48.1	-50.6	6.1	0.00e+00	0	30	104	0	60	41460
2026-01-14 22:05:12.69	37.89	9.69	-47.6	-50.2	6.0	0.00e+00	0	30	104	0	60	39488
2026-01-14 22:05:15.72	38.40	9.93	-47.9	-50.4	6.1	0.00e+00	0	30	104	0	60	40571
2026-01-14 22:05:18.75	38.92	10.16	-48.2	-50.7	6.1	0.00e+00	0	30	104	0	60	42192
2026-01-14 22:05:21.78	39.45	10.40	-48.0	-50.5	6.1	0.00e+00	0	30	104	0	60	41116
2026-01-14 22:05:24.81	39.99	10.64	-48.0	-50.6	6.1	0.00e+00	0	30	104	0	60	41270
2026-01-14 22:05:27.84	40.54	10.87	-48.2	-50.7	6.1	0.00e+00	0	30	104	0	60	41834
2026-01-14 22:05:30.86	41.10	11.11	-47.3	-50.0	6.1	0.00e+00	0	30	104	0	60	38660
2026-01-14 22:05:33.89	41.67	11.35	-46.7	-49.4	6.1	0.00e+00	0	31	104	0	60	36116
2026-01-14 22:05:36.92	42.25	11.59	-48.2	-50.7	6.1	0.00e+00	0	31	104	0	60	42056
2026-01-14 22:05:39.94	42.84	11.83	-48.0	-50.5	6.1	0.00e+00	0	31	104	0	60	40976
2026-01-14 22:05:42.98	43.45	12.08	-47.1	-49.8	6.1	0.00e+00	0	31	104	0	60	37960
2026-01-14 22:05:46.00	44.07	12.32	-43.3	-44.2	7.7	8.65e-03	0	31	104	0	60	19842
2026-01-14 22:05:49.02	44.69	12.56	-22.9	-23.4	17.1	1.18e-02	0	31	0	159383552	22	16156
2026-01-14 22:05:52.05	45.34	12.80	-23.0	-23.5	17.1	0.00e+00	0	31	0	503316480	22	16276
2026-01-14 22:05:55.07	45.99	13.05	-23.1	-23.6	17.2	0.00e+00	0	31	0	838860800	22	16450
2026-01-14 22:05:58.10	46.66	13.29	-23.1	-23.6	17.2	0.00e+00	0	31	0	1182793728	22	16528
2026-01-14 22:06:01.13	47.34	13.54	-23.0	-23.5	17.2	0.00e+00	0	31	0	1526726656	22	16320
2026-01-14 22:06:04.16	48.03	13.78	-23.1	-23.6	17.3	0.00e+00	0	31	0	1862270976	22	16503
2026-01-14 22:06:07.19	48.74	14.02	-23.3	-23.7	17.2	0.00e+00	0	31	0	2206203904	22	16801
2026-01-14 22:06:10.22	49.46	14.27	-23.3	-23.8	17.2	0.00e+00	0	31	0	2541748224	22	16921
2026-01-14 22:06:13.25	50.19	14.51	-23.2	-23.7	17.3	0.00e+00	0	31	0	2885681152	22	16672
2026-01-14 22:06:16.28	50.94	14.75	-23.0	-23.5	17.3	0.00e+00	0	31	0	3229614080	22	16415
2026-01-14 22:06:19.30	51.70	14.99	-22.9	-23.4	17.2	0.00e+00	0	31	0	3565158400	22	16116
2026-01-14 22:06:22.33	52.48	15.23	-22.9	-23.4	17.2	0.00e+00	0	31	0	3909091328	22	16169
2026-01-14 22:06:25.36	53.27	15.47	-22.8	-23.3	17.3	0.00e+00	0	31	0	4244635648	22	15950
2026-01-14 22:06:28.38	54.07	15.71	-22.7	-23.2	17.1	0.00e+00	0	31	0	4588568576	20	17689
2026-01-14 22:06:31.41	54.89	15.94	-22.6	-23.1	17.2	0.00e+00	0	31	0	4924112896	20	17573
2026-01-14 22:06:34.44	55.73	16.18	-22.6	-23.1	17.2	0.00e+00	0	31	0	5268045824	20	17465
2026-01-14 22:06:37.47	56.58	16.41	-22.6	-23.1	17.2	0.00e+00	0	31	0	5603590144	20	17426
2026-01-14 22:06:40.50	57.45	16.64	-22.4	-22.9	17.2	0.00e+00	0	31	0	5947523072	20	17056
2026-01-14 22:06:43.52	58.33	16.86	-22.4	-22.9	16.9	0.00e+00	0	31	0	6291456000	20	17116
2026-01-14 22:06:46.55	59.22	17.08	-22.3	-22.8	17.2	0.00e+00	0	31	0	6627000320	20	16900
2026-01-14 22:06:49.58	60.13	17.30	-22.1	-22.6	17.1	0.00e+00	0	31	0	6970933248	20	16568
2026-01-14 22:06:52.61	61.06	17.52	-22.2	-22.7	16.9	0.00e+00	0	31	0	7314866176	20	16632
2026-01-14 22:06:55.64	62.00	17.73	-22.1	-22.6	17.2	0.00e+00	0	31	0	7658799104	20	16433
2026-01-14 22:06:58.66	62.96	17.93	-22.0	-22.5	17.3	0.00e+00	0	31	0	7994343424	20	16282
2026-01-14 22:07:01.69	63.93	18.13	-21.9	-22.4	17.3	0.00e+00	0	31	0	8338276352	20	16138
2026-01-14 22:07:04.73	64.92	18.33	-21.4	-21.9	17.3	0.00e+00	0	31	0	8682209280	18	17181
2026-01-14 22:07:07.75	65.92	18.52	-21.4	-21.8	17.0	0.00e+00	0	31	0	9017753600	18	16984
2026-01-14 22:07:10.78	66.93	18.70	-21.4	-21.9	17.3	0.00e+00	0	32	0	9361686528	18	17129
2026-01-14 22:07:13.81	67.96	18.88	-21.4	-21.9	17.2	0.00e+00	0	31	0	9697230848	18	17127
2026-01-14 22:07:16.84	69.00	19.05	-21.4	-21.9	17.3	0.00e+00	0	31	0	10041163776	18	17126
2026-01-14 22:07:19.87	70.06	19.21	-21.4	-21.8	17.2	0.00e+00	0	32	0	10376708096	18	16996
2026-01-14 22:07:22.89	71.12	19.37	-21.3	-21.8	17.3	0.00e+00	0	31	0	10720641024	18	16954
2026-01-14 22:07:25.92	72.20	19.52	-21.4	-21.8	17.0	0.00e+00	0	32	0	11056185344	18	16965
2026-01-14 22:07:28.95	73.29	19.66	-21.2	-21.7	17.2	0.00e+00	0	31	0	11400118272	18	16754
2026-01-14 22:07:31.98	74.40	19.79	-21.2	-21.7	17.2	0.00e+00	0	32	0	11744051200	18	16717
2026-01-14 22:07:35.01	75.51	19.91	-21.3	-21.8	17.3	0.00e+00	0	31	0	12079595520	18	16841
2026-01-14 22:07:38.03	76.63	20.03	-21.3	-21.8	17.2	0.00e+00	0	32	0	12423528448	18	16938
2026-01-14 22:07:41.06	77.76	20.13	-21.1	-21.6	17.2	0.00e+00	0	32	0	12759072768	18	16500
2026-01-14 22:07:44.09	78.90	20.23	-21.1	-21.6	17.1	0.00e+00	0	32	0	13103005696	18	16568
2026-01-14 22:07:47.12	80.05	20.31	-21.1	-21.6	17.2	0.00e+00	0	32	0	13446938624	18	16546
2026-01-14 22:07:50.14	81.20	20.39	-21.2	-21.7	17.1	0.00e+00	0	32	0	13782482944	18	16676
2026-01-14 22:07:53.17	82.37	20.45	-21.3	-21.8	17.2	0.00e+00	0	32	0	14126415872	18	16908
2026-01-14 22:07:56.20	83.53	20.51	-21.1	-21.6	17.1	0.00e+00	0	32	0	14470348800	18	16472
2026-01-14 22:07:59.23	84.70	20.55	-21.2	-21.7	17.1	0.00e+00	0	32	0	14805893120	18	16681
2026-01-14 22:08:02.25	85.87	20.59	-21.0	-21.5	17.0	0.00e+00	0	31	0	15149826048	18	16300
2026-01-14 22:08:05.28	87.05	20.61	-21.2	-21.6	17.0	0.00e+00	0	32	0	15493758976	18	16522
2026-01-14 22:08:08.31	88.23	20.62	-21.1	-21.6	17.1	0.00e+00	0	32	0	15829303296	18	16447
2026-01-14 22:08:11.34	89.41	20.62	-21.1	-21.6	17.0	0.00e+00	0	32	0	16173236224	18	16440
2026-01-14 22:08:14.36	90.58	20.61	-21.1	-21.5	17.0	0.00e+00	0	32	0	16508780544	18	16367
2026-01-14 22:08:17.39	91.76	20.59	-21.2	-21.7	17.0	0.00e+00	0	32	0	16852713472	18	16698
2026-01-14 22:08:20.42	92.94	20.56	-21.3	-21.7	16.9	0.00e+00	0	32	0	17188257792	18	16722
2026-01-14 22:08:23.45	94.11	20.51	-21.3	-21.7	16.9	0.00e+00	0	32	0	17532190720	18	16797
2026-01-14 22:08:26.48	95.28	20.46	-21.4	-21.8	16.9	0.00e+00	0	32	0	17876123648	18	16999
2026-01-14 22:08:29.51	96.44	20.39	-21.4	-21.8	16.9	0.00e+00	0	32	0	18211667968	18	16990
2026-01-14 22:08:32.54	97.60	20.32	-21.3	-21.8	16.9	0.00e+00	0	32	0	18555600896	18	16856
2026-01-14 22:08:35.57	98.75	20.23	-21.4	-21.8	16.9	0.00e+00	0	32	0	18891145216	18	16906
2026-01-14 22:08:38.60	99.90	20.14	-21.3	-21.7	16.9	0.00e+00	0	32	0	19235078144	18	16751
2026-01-14 22:08:41.62	101.03	20.03	-21.4	-21.8	16.9	0.00e+00	0	32	0	19570622464	18	16942
2026-01-14 22:08:44.65	102.15	19.92	-21.3	-21.7	17.0	0.00e+00	0	32	0	19914555392	18	16769
2026-01-14 22:08:47.68	103.27	19.80	-21.5	-21.9	17.0	0.00e+00	0	32	0	20258488320	18	17186
2026-01-14 22:08:50.71	104.38	19.66	-21.5	-21.9	17.1	0.00e+00	0	32	0	20594032640	18	17107
2026-01-14 22:08:53.74	105.47	19.52	-21.5	-21.9	17.1	0.00e+00	0	32	0	20937965568	18	17054
2026-01-14 22:08:56.76	106.55	19.37	-21.5	-21.9	17.1	0.00e+00	0	32	0	21281898496	18	17170
2026-01-14 22:08:59.78	107.62	19.22	-21.7	-22.1	17.1	0.00e+00	0	32	0	21617442816	18	17478
2026-01-14 22:09:02.81	108.68	19.05	-21.9	-22.3	17.2	0.00e+00	0	32	0	21961375744	18	17895
2026-01-14 22:09:05.84	109.73	18.88	-21.9	-22.3	17.3	0.00e+00	0	32	0	22305308672	18	17836
2026-01-14 22:09:08.87	110.76	18.70	-22.3	-22.8	17.2	0.00e+00	0	32	0	22640852992	18	18864
2026-01-14 22:09:11.90	111.78	18.52	-22.6	-23.0	17.3	0.00e+00	0	32	0	22984785920	18	19478
2026-01-14 22:09:14.93	112.79	18.33	-22.4	-22.8	17.2	0.00e+00	0	32	0	23328718848	18	18960
2026-01-14 22:09:17.96	113.78	18.13	-22.0	-22.4	17.4	0.00e+00	0	32	0	23664263168	18	18179
2026-01-14 22:09:20.98	114.75	17.93	-22.0	-22.5	17.5	0.00e+00	0	32	0	24008196096	18	18233
2026-01-14 22:09:24.01	115.71	17.72	-22.1	-22.5	17.5	0.00e+00	0	32	0	24343740416	18	18310
2026-01-14 22:09:27.04	116.66	17.51	-22.1	-22.5	17.4	0.00e+00	0	32	0	24687673344	18	18260
2026-01-14 22:09:30.07	117.59	17.30	-22.1	-22.5	17.5	0.00e+00	0	32	0	25023217664	18	18424
2026-01-14 22:09:33.10	118.51	17.08	-22.3	-22.7	17.5	0.00e+00	0	32	0	25367150592	18	18775
2026-01-14 22:09:36.13	119.41	16.85	-22.3	-22.7	17.5	0.00e+00	0	32	0	25711083520	18	18849
2026-01-14 22:09:39.16	120.30	16.63	-22.4	-22.8	17.5	0.00e+00	0	32	0	26046627840	18	18987
2026-01-14 22:09:42.19	121.17	16.40	-22.3	-22.7	17.6	0.00e+00	0	32	0	26390560768	18	18803
2026-01-14 22:09:45.21	122.02	16.16	-22.4	-22.8	17.6	0.00e+00	0	32	0	26726105088	18	19065
2026-01-14 22:09:48.24	122.86	15.93	-22.5	-22.9	17.6	0.00e+00	0	32	0	27070038016	18	19276
2026-01-14 22:09:51.27	123.69	15.69	-22.5	-22.9	17.6	0.00e+00	0	32	0	27405582336	18	19300
2026-01-14 22:09:54.30	124.50	15.45	-22.7	-23.1	17.6	0.00e+00	0	32	0	27749515264	20	17501
2026-01-14 22:09:57.32	125.29	15.21	-22.9	-23.3	17.6	0.00e+00	0	32	0	28093448192	20	17932
2026-01-14 22:10:00.35	126.07	14.97	-23.0	-23.5	17.6	0.00e+00	0	32	0	28428992512	20	18304
2026-01-14 22:10:03.38	126.84	14.73	-23.0	-23.4	17.6	0.00e+00	0	32	0	28772925440	20	18140
2026-01-14 22:10:06.41	127.59	14.49	-23.1	-23.6	17.6	0.00e+00	0	32	0	29116858368	20	18496
2026-01-14 22:10:09.44	128.33	14.24	-23.1	-23.5	17.6	0.00e+00	0	32	0	29460791296	20	18423
2026-01-14 22:10:12.47	129.06	13.99	-23.2	-23.7	17.5	0.00e+00	0	32	0	29796335616	20	18706
2026-01-14 22:10:15.50	129.77	13.75	-23.2	-23.7	17.5	0.00e+00	0	32	0	30140268544	20	18767
2026-01-14 22:10:18.53	130.47	13.50	-23.6	-24.0	17.5	0.00e+00	0	32	0	30484201472	20	19465
2026-01-14 22:10:21.55	131.15	13.26	-23.4	-23.8	17.5	0.00e+00	0	32	0	30819745792	20	19071
2026-01-14 22:10:24.58	131.82	13.01	-23.5	-24.0	17.5	0.00e+00	0	32	0	31163678720	20	19302
2026-01-14 22:10:27.61	132.48	12.76	-23.5	-24.0	17.5	0.00e+00	0	32	0	31499223040	20	19451
2026-01-14 22:10:30.64	133.12	12.52	-23.7	-24.2	17.4	0.00e+00	0	32	0	31843155968	20	19826
2026-01-14 22:10:33.67	133.75	12.27	-23.8	-24.3	17.4	0.00e+00	0	32	0	32178700288	22	17839
2026-01-14 22:10:36.69	134.37	12.03	-23.8	-24.3	17.4	0.00e+00	0	32	0	32522633216	22	17926
2026-01-14 22:10:39.72	134.98	11.78	-24.0	-24.4	17.3	0.00e+00	0	32	0	32858177536	22	18219
2026-01-14 22:10:42.75	135.58	11.54	-24.0	-24.5	17.3	0.00e+00	0	32	0	33202110464	22	18314
2026-01-14 22:10:45.78	136.16	11.30	-24.0	-24.5	17.2	0.00e+00	0	32	0	33546043392	22	18358
2026-01-14 22:10:48.81	136.74	11.06	-24.2	-24.7	17.1	0.00e+00	0	32	0	33881587712	22	18679
2026-01-14 22:10:51.83	137.30	10.82	-24.4	-24.8	17.1	0.00e+00	0	32	0	34225520640	22	19059
2026-01-14 22:10:54.86	137.85	10.58	-24.3	-24.8	17.1	0.00e+00	0	32	0	34561064960	22	18963
2026-01-14 22:10:57.89	138.39	10.34	-24.6	-25.0	17.0	0.00e+00	0	32	0	34904997888	22	19515
2026-01-14 22:11:00.92	138.92	10.10	-24.8	-25.2	17.0	0.00e+00	0	32	0	35248930816	24	17696
2026-01-14 22:11:03.95	139.45	9.86	-25.5	-25.9	16.8	0.00e+00	0	32	0	35584475136	24	19196
2026-01-14 22:11:06.98	139.96	9.63	-26.0	-26.5	16.6	5.40e-06	0	32	0	35928408064	26	18297
2026-01-14 22:11:10.00	140.46	9.39	-27.1	-27.5	16.3	3.81e-05	0	32	0	36272340992	28	18341
2026-01-14 22:11:13.02	140.95	9.16	-27.5	-27.9	16.0	5.44e-05	0	32	0	36607885312	28	19293
2026-01-14 22:11:16.05	141.43	8.93	-27.6	-28.0	16.0	5.18e-04	0	32	0	36951818240	30	17281
2026-01-14 22:11:19.08	141.90	8.70	-27.5	-27.9	16.1	2.62e-04	0	32	0	37295751168	30	17096
2026-01-14 22:11:22.11	142.37	8.47	-26.7	-27.2	16.3	8.71e-05	0	32	0	37631295488	28	17604
2026-01-14 22:11:25.14	142.83	8.24	-26.4	-26.9	16.4	5.44e-05	0	32	0	37975228416	28	17031
2026-01-14 22:11:28.16	143.27	8.02	-26.1	-26.5	16.4	3.81e-05	0	32	0	38310772736	28	16331
2026-01-14 22:11:31.19	143.71	7.79	-26.0	-26.5	16.5	3.81e-05	0	32	0	38654705664	28	16276
2026-01-14 22:11:34.22	144.14	7.57	-25.9	-26.3	16.5	2.72e-05	0	32	0	38990249984	28	16024
2026-01-14 22:11:37.25	144.57	7.35	-25.8	-26.3	16.5	1.08e-05	0	32	0	39334182912	26	17881
2026-01-14 22:11:40.28	144.98	7.13	-26.0	-26.5	16.5	5.40e-06	0	32	0	39678115840	26	18242
2026-01-14 22:11:43.31	145.39	6.91	-25.8	-26.3	16.6	5.40e-06	0	32	0	40013660160	26	17837
2026-01-14 22:11:46.34	145.79	6.69	-25.7	-26.1	16.6	5.40e-06	0	32	0	40357593088	26	17584
2026-01-14 22:11:49.37	146.19	6.48	-25.5	-26.0	16.6	1.63e-05	0	32	0	40693137408	26	17301
2026-01-14 22:11:52.40	146.58	6.26	-25.7	-26.2	16.5	5.40e-06	0	32	0	41037070336	26	17752
2026-01-14 22:11:55.42	146.96	6.05	-25.8	-26.3	16.5	5.40e-06	0	32	0	41381003264	26	17935
2026-01-14 22:11:58.45	147.33	5.84	-26.0	-26.5	16.5	3.81e-05	0	32	0	41716547584	26	18365
2026-01-14 22:12:01.48	147.70	5.63	-25.8	-26.3	16.5	2.17e-05	0	32	0	42060480512	26	17826
2026-01-14 22:12:04.51	148.06	5.42	-25.7	-26.2	16.5	0.00e+00	0	32	0	42396024832	26	17737
2026-01-14 22:12:07.53	148.41	5.21	-26.0	-26.5	16.5	3.26e-05	0	32	0	42739957760	26	18380
2026-01-14 22:12:10.56	148.76	5.00	-26.2	-26.7	16.4	3.81e-05	0	32	0	43083890688	26	18743
2026-01-14 22:12:13.59	149.10	4.80	-26.5	-27.0	16.3	3.81e-05	0	32	0	43419435008	26	19309
2026-01-14 22:12:16.62	149.44	4.60	-26.5	-27.0	16.3	5.44e-05	0	32	0	43763367936	26	19417
2026-01-14 22:12:19.65	149.77	4.39	-26.5	-27.0	16.3	8.71e-05	0	32	0	44107300864	28	17304
2026-01-14 22:12:22.67	150.10	4.19	-26.6	-27.1	16.3	1.91e-04	0	32	0	44442845184	28	17565
2026-01-14 22:12:25.70	150.42	3.99	-27.0	-27.5	16.1	1.58e-04	0	32	0	44786778112	28	18404
2026-01-14 22:12:28.73	150.73	3.80	-47.4	-49.9	6.1	2.18e-04	0	32	104	44862275584	60	38187
2026-01-14 22:12:31.76	151.04	3.60	-47.2	-49.7	6.1	2.18e-04	0	32	104	44862275584	60	37370
2026-01-14 22:12:34.79	151.35	3.40	-46.9	-49.4	6.1	2.72e-05	0	32	104	44862275584	60	36157
2026-01-14 22:12:37.81	151.65	3.21	-46.3	-48.8	6.1	0.00e+00	0	32	104	44862275584	60	33844
2026-01-14 22:12:40.84	151.94	3.02	-47.1	-49.6	6.1	0.00e+00	0	32	104	44862275584	60	37178
2026-01-14 22:12:43.87	152.24	2.83	-47.1	-49.7	6.1	0.00e+00	0	32	104	44862275584	60	37507
2026-01-14 22:12:46.90	152.52	2.64	-48.8	-51.3	6.1	0.00e+00	0	32	104	44862275584	60	44933
2026-01-14 22:12:49.93	152.80	2.45	-49.0	-51.5	6.1	0.00e+00	0	32	104	44862275584	60	46118
2026-01-14 22:12:52.97	153.08	2.26	-49.1	-51.6	6.1	0.00e+00	0	32	104	44862275584	60	46641
2026-01-14 22:12:56.00	153.36	2.07	-49.0	-51.4	6.1	0.00e+00	0	32	104	44862275584	60	45735
2026-01-14 22:12:59.02	153.62	1.89	-48.9	-51.4	6.1	0.00e+00	0	32	104	44862275584	60	45566
2026-01-14 22:13:02.05	153.89	1.70	-48.9	-51.4	6.1	0.00e+00	0	32	104	44862275584	60	45298
2026-01-14 22:13:05.08	154.15	1.52	-48.9	-51.3	6.1	0.00e+00	0	32	104	44862275584	60	45231
2026-01-14 22:13:08.11	154.41	1.34	-48.9	-51.4	6.1	0.00e+00	0	32	104	44862275584	60	45387
2026-01-14 22:13:11.14	154.66	1.15	-48.9	-51.3	6.1	0.00e+00	0	32	104	44862275584	60	45135
2026-01-14 22:13:14.17	154.91	0.97	-48.9	-51.3	6.1	0.00e+00	0	32	104	44862275584	60	45098
2026-01-14 22:13:17.20	155.16	0.80	-48.9	-51.3	6.1	0.00e+00	0	32	104	44862275584	60	45111
2026-01-14 22:13:20.22	155.40	0.62	-48.9	-51.4	6.1	0.00e+00	0	32	104	44862275584	60	45469
2026-01-14 22:13:23.25	155.64	0.44	-48.9	-51.3	6.1	0.00e+00	0	32	104	44862275584	60	45239
2026-01-14 22:13:26.28	155.87	0.27	-48.9	-51.3	6.1	0.00e+00	0	32	104	44862275584	60	44912
2026-01-14 22:13:29.31	156.11	0.09	-48.8	-51.3	6.1	0.00e+00	0	32	104	44862275584	60	45124

#Closed at: 2026-01-14 22:13:32
#Recorded file [44862 MB]: D:/lorett/data/35029_260115_100317.dat