passes_logs/2026/01/14/R4.6S_Anadyr/R4.6S_Anadyr__20260114_044757_AQUA_rec.log

#Pass ID: 20260114_044757_AQUA
#Satellite: AQUA
#Configuration: AQUA
#almurnet v.1.7.20251203
#Start time: 2026-01-14 04:48:00

#Version: 2.2.20231116
#Station: R4.6S_Anadyr
#Location: 177.4865 lon 64.73178 lat
#TLE: 1 27424U 02022A   26013.58555111  .00000773  00000+0  16469-3 0  9993
#TLE: 2 27424  98.4079 339.9892 0002045  80.0365 334.6894 14.61818766260681

#Time	Az	El	Level	Level2	SNR	BER	BlckErr	Temp	State	Recorded	gain1	gain2
2026-01-14 04:48:00.07	237.30	0.12	-48.7	-60.3	3.5	8.46e-01	0	25	0	0	60	37342
2026-01-14 04:48:03.10	237.61	0.25	-49.1	-67.1	3.5	3.02e+01	0	26	104	0	60	87002
2026-01-14 04:48:06.12	237.93	0.38	-49.2	-67.1	3.5	3.02e+01	0	26	104	0	60	87309
2026-01-14 04:48:09.15	238.25	0.51	-49.3	-67.2	3.5	3.02e+01	0	26	104	0	60	88106
2026-01-14 04:48:12.18	238.57	0.64	-49.2	-67.1	3.5	3.02e+01	0	26	104	0	60	87143
2026-01-14 04:48:15.21	238.89	0.78	-49.0	-66.8	3.5	3.02e+01	0	26	104	0	60	84364
2026-01-14 04:48:18.24	239.22	0.91	-47.3	-65.2	3.5	3.02e+01	0	26	104	0	60	70128
2026-01-14 04:48:21.26	239.55	1.04	-47.3	-65.2	3.5	3.02e+01	0	27	104	0	60	69956
2026-01-14 04:48:24.29	239.88	1.17	-47.3	-65.2	3.5	3.02e+01	0	26	104	0	60	69762
2026-01-14 04:48:27.32	240.22	1.30	-47.3	-65.1	3.5	3.02e+01	0	27	104	0	60	69589
2026-01-14 04:48:30.35	240.56	1.43	-47.2	-64.9	3.5	3.02e+01	0	27	104	0	60	67542
2026-01-14 04:48:33.38	240.90	1.56	-47.3	-65.0	3.5	3.02e+01	0	27	104	0	60	68214
2026-01-14 04:48:36.41	241.24	1.69	-47.2	-65.1	3.5	3.02e+01	0	27	104	0	60	68959
2026-01-14 04:48:39.44	241.59	1.82	-47.2	-64.9	3.5	3.02e+01	0	27	104	0	60	67980
2026-01-14 04:48:42.47	241.94	1.95	-47.2	-64.8	3.5	3.02e+01	0	27	104	0	60	66795
2026-01-14 04:48:45.50	242.30	2.08	-47.2	-64.5	3.5	3.02e+01	0	27	104	0	60	64921
2026-01-14 04:48:48.53	242.66	2.21	-47.2	-64.2	3.5	3.02e+01	0	27	104	0	60	62301
2026-01-14 04:48:51.56	243.02	2.34	-47.2	-63.3	3.6	3.02e+01	0	27	104	0	60	56499
2026-01-14 04:48:54.59	243.39	2.47	-47.2	-62.9	3.7	3.02e+01	0	27	104	0	60	53942
2026-01-14 04:48:57.62	243.76	2.60	-47.2	-64.3	3.5	3.02e+01	0	27	104	0	60	62786
2026-01-14 04:49:00.66	244.13	2.73	-46.9	-58.5	6.2	3.02e+01	92	27	104	0	60	32449
2026-01-14 04:49:03.68	244.50	2.86	-46.3	-53.7	10.5	3.02e+01	90	27	0	4718592	60	18656
2026-01-14 04:49:06.71	244.88	2.99	-46.1	-53.0	11.5	3.02e+01	90	27	0	10485760	60	17094
2026-01-14 04:49:09.74	245.27	3.12	-46.5	-55.0	9.0	3.02e+01	89	27	0	16252928	60	21561
2026-01-14 04:49:12.77	245.65	3.25	-42.0	-44.3	20.7	3.02e+01	92	27	0	17825792	58	7119
2026-01-14 04:49:15.80	246.04	3.37	-41.2	-43.3	21.6	3.02e+01	91	27	0	23592960	56	7105
2026-01-14 04:49:18.83	246.44	3.50	-40.8	-42.8	22.2	3.02e+01	91	27	0	28835840	56	6704
2026-01-14 04:49:21.86	246.83	3.63	-40.4	-42.3	22.8	3.02e+01	91	27	0	34603008	56	6319
2026-01-14 04:49:24.89	247.23	3.75	-40.0	-41.8	23.4	3.02e+01	90	27	0	40370176	54	6705
2026-01-14 04:49:27.92	247.64	3.88	-40.1	-41.9	23.2	3.02e+01	90	27	0	46137344	54	6786
2026-01-14 04:49:30.96	248.05	4.01	-39.5	-41.2	24.0	3.02e+01	92	27	0	51904512	54	6269
2026-01-14 04:49:33.99	248.46	4.13	-39.5	-41.1	24.2	3.02e+01	92	27	0	57671680	54	6195
2026-01-14 04:49:37.01	248.87	4.26	-39.1	-40.8	24.4	3.02e+01	90	27	0	62914560	54	5931
2026-01-14 04:49:40.04	249.29	4.38	-39.1	-40.7	24.5	3.02e+01	91	27	0	68681728	52	6616
2026-01-14 04:49:43.06	249.71	4.50	-38.4	-39.9	25.4	3.02e+01	92	27	0	74448896	52	6041
2026-01-14 04:49:46.09	250.14	4.63	-38.5	-40.1	25.2	3.02e+01	91	27	0	80216064	52	6137
2026-01-14 04:49:49.12	250.57	4.75	-38.5	-40.1	25.3	3.02e+01	92	27	0	85983232	52	6154
2026-01-14 04:49:52.15	251.00	4.87	-38.2	-39.6	25.7	3.02e+01	92	27	0	91750400	52	5847
2026-01-14 04:49:55.18	251.44	4.99	-38.3	-39.8	25.6	3.02e+01	91	27	0	96993280	52	5956
2026-01-14 04:49:58.22	251.89	5.11	-38.0	-39.5	25.8	3.02e+01	91	27	0	102760448	52	5736
2026-01-14 04:50:01.24	252.33	5.23	-37.8	-39.2	26.1	3.02e+01	90	27	0	108527616	50	6270
2026-01-14 04:50:04.28	252.78	5.35	-38.1	-39.6	25.8	3.02e+01	92	27	0	114294784	50	6525
2026-01-14 04:50:07.31	253.24	5.47	-38.0	-39.4	25.9	3.02e+01	92	27	0	120061952	50	6407
2026-01-14 04:50:10.34	253.69	5.59	-37.8	-39.3	26.1	3.02e+01	87	27	0	125829120	50	6285
2026-01-14 04:50:13.37	254.15	5.70	-38.0	-39.4	25.9	3.02e+01	91	27	0	131072000	50	6419
2026-01-14 04:50:16.40	254.62	5.82	-37.8	-39.2	26.1	3.02e+01	91	27	0	136839168	50	6245
2026-01-14 04:50:19.43	255.09	5.93	-37.7	-39.1	26.2	3.02e+01	92	27	0	142606336	50	6201
2026-01-14 04:50:22.46	255.56	6.05	-37.8	-39.2	26.2	3.02e+01	92	27	0	148373504	50	6264
2026-01-14 04:50:25.49	256.04	6.16	-37.7	-39.1	26.3	3.02e+01	92	27	0	154140672	50	6157
2026-01-14 04:50:28.52	256.52	6.27	-37.7	-39.1	26.3	3.02e+01	92	27	0	159907840	50	6165
2026-01-14 04:50:31.55	257.00	6.38	-37.6	-39.0	26.4	3.02e+01	89	27	0	165150720	50	6094
2026-01-14 04:50:34.58	257.49	6.49	-37.6	-39.0	26.5	3.02e+01	92	27	0	170917888	50	6084
2026-01-14 04:50:37.61	257.98	6.60	-37.5	-38.9	26.5	3.02e+01	92	27	0	176685056	50	6010
2026-01-14 04:50:40.64	258.48	6.71	-37.5	-38.9	26.5	3.02e+01	92	27	0	182452224	50	6033
2026-01-14 04:50:43.67	258.98	6.81	-37.4	-38.7	26.7	3.02e+01	91	27	0	188219392	50	5916
2026-01-14 04:50:46.70	259.48	6.92	-37.5	-38.9	26.6	3.02e+01	91	27	0	193986560	50	6023
2026-01-14 04:50:49.73	259.99	7.02	-37.4	-38.8	26.7	3.02e+01	90	27	0	199229440	50	5964
2026-01-14 04:50:52.76	260.50	7.12	-37.3	-38.7	26.7	3.02e+01	91	27	0	204996608	50	5897
2026-01-14 04:50:55.79	261.01	7.22	-37.2	-38.6	26.9	3.02e+01	91	27	0	210763776	50	5829
2026-01-14 04:50:58.81	261.53	7.32	-37.2	-38.6	26.9	3.02e+01	92	27	0	216530944	50	5831
2026-01-14 04:51:01.85	262.06	7.42	-37.1	-38.4	27.0	3.02e+01	92	27	0	222298112	50	5694
2026-01-14 04:51:04.88	262.58	7.51	-37.3	-38.6	26.8	3.02e+01	92	27	0	228065280	50	5837
2026-01-14 04:51:07.91	263.11	7.61	-37.2	-38.5	27.0	3.02e+01	91	27	0	233308160	50	5785
2026-01-14 04:51:10.94	263.64	7.70	-37.3	-38.6	26.9	3.02e+01	90	28	0	239075328	50	5848
2026-01-14 04:51:13.97	264.18	7.79	-36.9	-38.2	27.3	3.02e+01	92	27	0	244842496	48	6243
2026-01-14 04:51:17.00	264.72	7.88	-37.0	-38.3	27.2	3.02e+01	92	27	0	250609664	48	6323
2026-01-14 04:51:20.03	265.26	7.97	-36.9	-38.3	27.2	3.02e+01	91	27	0	256376832	48	6284
2026-01-14 04:51:23.06	265.81	8.06	-36.9	-38.2	27.3	3.02e+01	90	27	0	262144000	48	6240
2026-01-14 04:51:26.09	266.36	8.14	-36.9	-38.3	27.2	3.02e+01	92	28	0	267911168	48	6297
2026-01-14 04:51:29.12	266.91	8.22	-36.9	-38.2	27.2	3.02e+01	90	27	0	273154048	48	6233
2026-01-14 04:51:32.16	267.47	8.30	-36.8	-38.1	27.4	3.02e+01	92	28	0	278921216	48	6177
2026-01-14 04:51:35.19	268.03	8.38	-36.8	-38.1	27.3	3.02e+01	91	27	0	284688384	48	6189
2026-01-14 04:51:38.22	268.60	8.46	-36.9	-38.2	27.2	3.02e+01	91	27	0	290455552	48	6266
2026-01-14 04:51:41.24	269.16	8.53	-36.7	-38.0	27.4	3.02e+01	92	27	0	296222720	48	6092
2026-01-14 04:51:44.27	269.73	8.60	-36.7	-38.0	27.4	3.02e+01	92	27	0	301465600	48	6122
2026-01-14 04:51:47.30	270.30	8.67	-36.8	-38.1	27.4	3.02e+01	91	27	0	307232768	48	6162
2026-01-14 04:51:50.33	270.88	8.74	-36.6	-37.9	27.5	3.02e+01	92	27	0	312999936	48	6038
2026-01-14 04:51:53.36	271.45	8.81	-36.6	-37.9	27.5	3.02e+01	91	27	0	318767104	48	6029
2026-01-14 04:51:56.39	272.03	8.87	-36.5	-37.8	27.6	3.02e+01	89	27	0	324534272	48	5983
2026-01-14 04:51:59.42	272.62	8.93	-36.7	-38.0	27.5	3.02e+01	92	27	0	330301440	48	6102
2026-01-14 04:52:02.45	273.20	8.99	-36.5	-37.8	27.7	3.02e+01	90	27	0	336068608	48	5934
2026-01-14 04:52:05.48	273.79	9.05	-36.4	-37.7	27.7	3.02e+01	92	27	0	341311488	48	5867
2026-01-14 04:52:08.51	274.38	9.11	-36.4	-37.8	27.7	3.02e+01	91	27	0	347078656	48	5927
2026-01-14 04:52:11.54	274.97	9.16	-36.6	-37.9	27.6	3.02e+01	92	27	0	352845824	48	6022
2026-01-14 04:52:14.56	275.57	9.21	-36.4	-37.7	27.8	3.02e+01	92	27	0	358612992	48	5887
2026-01-14 04:52:17.58	276.16	9.25	-36.3	-37.6	27.8	3.02e+01	92	27	0	364380160	48	5846
2026-01-14 04:52:20.61	276.76	9.30	-36.3	-37.6	27.9	3.02e+01	91	27	0	369623040	48	5815
2026-01-14 04:52:23.65	277.36	9.34	-36.4	-37.7	27.8	3.02e+01	91	27	0	375390208	48	5867
2026-01-14 04:52:26.68	277.96	9.38	-36.7	-38.0	27.7	3.02e+01	91	27	0	381157376	48	6091
2026-01-14 04:52:29.71	278.57	9.42	-36.3	-37.6	27.9	3.02e+01	92	27	0	386924544	48	5819
2026-01-14 04:52:32.74	279.17	9.45	-36.2	-37.5	28.0	3.02e+01	91	28	0	392691712	48	5789
2026-01-14 04:52:35.77	279.78	9.49	-36.5	-37.8	27.7	3.02e+01	92	27	0	398458880	48	5935
2026-01-14 04:52:38.80	280.39	9.52	-36.3	-37.6	28.0	3.02e+01	92	27	0	404226048	48	5802
2026-01-14 04:52:41.83	281.00	9.54	-36.5	-37.8	27.8	3.02e+01	92	28	0	409468928	48	5961
2026-01-14 04:52:44.86	281.61	9.57	-36.2	-37.5	28.0	3.02e+01	91	27	0	415236096	48	5758
2026-01-14 04:52:47.89	282.22	9.59	-36.3	-37.6	27.9	3.02e+01	90	27	0	421003264	48	5827
2026-01-14 04:52:50.92	282.83	9.61	-36.2	-37.5	28.0	3.02e+01	92	27	0	426770432	48	5754
2026-01-14 04:52:53.95	283.44	9.62	-36.3	-37.6	27.9	3.02e+01	91	27	0	432537600	48	5799
2026-01-14 04:52:56.98	284.06	9.64	-36.1	-37.4	28.1	3.02e+01	92	27	0	437780480	48	5688
2026-01-14 04:53:00.01	284.67	9.65	-36.2	-37.5	28.1	3.02e+01	92	27	0	443547648	48	5747
2026-01-14 04:53:03.04	285.29	9.65	-36.3	-37.6	27.9	3.02e+01	89	27	0	449314816	48	5799
2026-01-14 04:53:06.07	285.90	9.66	-36.2	-37.5	28.0	3.02e+01	88	28	0	455081984	48	5747
2026-01-14 04:53:09.10	286.51	9.66	-36.2	-37.4	28.0	3.02e+01	87	27	0	460849152	48	5723
2026-01-14 04:53:12.13	287.13	9.66	-36.3	-37.6	27.9	3.02e+01	91	27	0	466616320	48	5844
2026-01-14 04:53:15.15	287.74	9.66	-36.4	-37.6	27.9	3.02e+01	92	27	0	472383488	48	5849
2026-01-14 04:53:18.18	288.36	9.65	-36.1	-37.4	28.1	3.02e+01	92	27	0	477626368	48	5691
2026-01-14 04:53:21.21	288.97	9.65	-36.2	-37.5	28.0	3.02e+01	91	27	0	483393536	48	5734
2026-01-14 04:53:24.23	289.58	9.63	-36.1	-37.4	28.0	3.02e+01	93	28	0	489160704	48	5698
2026-01-14 04:53:27.27	290.20	9.62	-36.1	-37.4	28.1	3.02e+01	92	27	0	494927872	48	5712
2026-01-14 04:53:30.30	290.81	9.60	-36.3	-37.6	28.0	3.02e+01	92	28	0	500695040	48	5793
2026-01-14 04:53:33.33	291.42	9.58	-36.1	-37.4	28.0	3.02e+01	90	28	0	505937920	48	5700
2026-01-14 04:53:36.36	292.03	9.56	-36.2	-37.5	28.0	3.02e+01	92	27	0	511705088	48	5767
2026-01-14 04:53:39.39	292.64	9.54	-36.1	-37.4	28.0	3.02e+01	92	28	0	517472256	48	5705
2026-01-14 04:53:42.42	293.25	9.51	-36.2	-37.4	28.1	3.02e+01	91	28	0	523239424	48	5724
2026-01-14 04:53:45.45	293.86	9.48	-36.2	-37.5	28.0	3.02e+01	91	27	0	529006592	48	5737
2026-01-14 04:53:48.48	294.46	9.45	-36.2	-37.5	28.0	3.02e+01	92	28	0	534773760	48	5745
2026-01-14 04:53:51.50	295.06	9.41	-36.2	-37.4	28.1	3.02e+01	91	27	0	540540928	48	5718
2026-01-14 04:53:54.53	295.67	9.38	-36.2	-37.5	27.9	3.02e+01	91	28	0	545783808	48	5767
2026-01-14 04:53:57.56	296.27	9.34	-36.3	-37.6	27.9	3.02e+01	92	28	0	551550976	48	5797
2026-01-14 04:54:00.60	296.87	9.29	-36.2	-37.5	28.0	3.02e+01	90	28	0	557318144	48	5767
2026-01-14 04:54:03.63	297.46	9.25	-36.2	-37.6	28.0	3.02e+01	92	28	0	563085312	48	5798
2026-01-14 04:54:06.66	298.06	9.20	-36.3	-37.6	27.9	3.02e+01	36	28	0	568852480	48	5803
2026-01-14 04:54:09.69	298.65	9.15	-36.3	-37.6	27.9	3.02e+01	60	28	0	574619648	48	5801
2026-01-14 04:54:12.72	299.24	9.10	-36.2	-37.5	28.0	3.02e+01	59	28	0	579862528	48	5727
2026-01-14 04:54:15.75	299.83	9.04	-36.2	-37.5	27.9	3.02e+01	60	28	0	585629696	48	5773
2026-01-14 04:54:18.77	300.42	8.99	-36.3	-37.6	27.8	3.02e+01	57	28	0	591396864	48	5829
2026-01-14 04:54:21.80	301.00	8.93	-36.3	-37.6	27.9	3.02e+01	60	28	0	597164032	48	5814
2026-01-14 04:54:24.83	301.58	8.87	-36.2	-37.5	27.9	3.02e+01	54	28	0	602931200	48	5762
2026-01-14 04:54:27.86	302.16	8.80	-36.3	-37.6	27.8	3.02e+01	46	28	0	608698368	48	5832
2026-01-14 04:54:30.90	302.74	8.74	-36.3	-37.6	27.8	3.02e+01	56	28	0	613941248	48	5810
2026-01-14 04:54:33.92	303.31	8.67	-36.2	-37.5	27.8	3.02e+01	56	28	0	619708416	48	5766
2026-01-14 04:54:36.95	303.88	8.60	-36.3	-37.6	27.9	3.02e+01	59	28	0	625475584	48	5818
2026-01-14 04:54:39.98	304.44	8.52	-36.3	-37.7	27.7	3.02e+01	61	28	0	631242752	48	5869
2026-01-14 04:54:43.01	305.01	8.45	-36.5	-37.8	27.6	3.02e+01	61	28	0	637009920	48	5960
2026-01-14 04:54:46.04	305.57	8.37	-36.3	-37.6	27.8	3.02e+01	60	28	0	642777088	48	5849
2026-01-14 04:54:49.07	306.12	8.30	-36.3	-37.6	27.7	3.02e+01	46	28	0	648019968	48	5858
2026-01-14 04:54:52.10	306.68	8.22	-36.6	-38.0	27.5	3.02e+01	45	28	0	653787136	48	6072
2026-01-14 04:54:55.13	307.23	8.13	-36.5	-37.8	27.6	3.02e+01	62	28	0	659554304	48	5987
2026-01-14 04:54:58.17	307.78	8.05	-36.4	-37.7	27.6	3.02e+01	59	28	0	665321472	48	5883
2026-01-14 04:55:01.20	308.32	7.96	-36.4	-37.7	27.6	3.02e+01	58	28	0	671088640	48	5887
2026-01-14 04:55:04.23	308.86	7.88	-36.7	-38.1	27.2	3.02e+01	57	28	0	676855808	48	6151
2026-01-14 04:55:07.26	309.40	7.79	-36.8	-38.2	27.2	3.02e+01	53	27	0	682098688	48	6222
2026-01-14 04:55:10.29	309.93	7.70	-36.5	-37.8	27.5	3.02e+01	64	28	0	687865856	48	5992
2026-01-14 04:55:13.32	310.47	7.60	-36.5	-37.9	27.5	3.02e+01	54	28	0	693633024	48	6016
2026-01-14 04:55:16.35	310.99	7.51	-36.6	-37.9	27.5	3.02e+01	62	28	0	699400192	48	6057
2026-01-14 04:55:19.38	311.51	7.41	-36.6	-37.9	27.4	3.02e+01	62	28	0	705167360	48	6039
2026-01-14 04:55:22.41	312.03	7.32	-36.7	-38.0	27.4	3.02e+01	58	28	0	710934528	48	6109
2026-01-14 04:55:25.44	312.55	7.22	-36.5	-37.9	27.5	3.02e+01	59	28	0	716701696	48	6001
2026-01-14 04:55:28.47	313.06	7.12	-36.8	-38.1	27.3	3.02e+01	60	28	0	721944576	48	6193
2026-01-14 04:55:31.50	313.57	7.02	-36.7	-38.1	27.2	3.02e+01	46	28	0	727711744	48	6172
2026-01-14 04:55:34.53	314.07	6.92	-37.0	-38.4	27.0	3.02e+01	47	28	0	733478912	48	6371
2026-01-14 04:55:37.56	314.58	6.81	-36.8	-38.1	27.1	3.02e+01	59	28	0	739246080	48	6186
2026-01-14 04:55:40.59	315.07	6.71	-36.7	-38.0	27.3	3.02e+01	60	27	0	745013248	48	6091
2026-01-14 04:55:43.62	315.57	6.60	-36.8	-38.2	27.1	3.02e+01	61	28	0	750256128	48	6233
2026-01-14 04:55:46.64	316.05	6.49	-36.9	-38.3	27.0	3.02e+01	59	28	0	756023296	48	6308
2026-01-14 04:55:49.67	316.54	6.38	-37.0	-38.4	26.9	3.02e+01	60	28	0	761790464	48	6382
2026-01-14 04:55:52.70	317.02	6.27	-37.0	-38.3	26.9	3.02e+01	61	28	0	767557632	48	6327
2026-01-14 04:55:55.73	317.50	6.16	-36.8	-38.2	27.0	3.02e+01	44	28	0	773324800	48	6231
2026-01-14 04:55:58.76	317.97	6.05	-36.9	-38.2	27.0	3.02e+01	56	28	0	779091968	48	6275
2026-01-14 04:56:01.79	318.44	5.94	-37.2	-38.6	26.6	3.02e+01	61	28	0	784859136	48	6551
2026-01-14 04:56:04.81	318.91	5.83	-37.5	-38.9	26.4	3.02e+01	53	27	0	790102016	48	6787
2026-01-14 04:56:07.84	319.37	5.71	-37.1	-38.5	26.7	3.02e+01	58	28	0	795869184	48	6468
2026-01-14 04:56:10.87	319.83	5.60	-37.1	-38.5	26.7	3.02e+01	60	27	0	801636352	48	6437
2026-01-14 04:56:13.90	320.28	5.48	-37.1	-38.5	26.6	3.02e+01	59	28	0	807403520	48	6484
2026-01-14 04:56:16.93	320.73	5.36	-37.3	-38.7	26.4	3.02e+01	50	28	0	813170688	48	6612
2026-01-14 04:56:19.96	321.18	5.24	-37.4	-38.8	26.3	3.02e+01	49	27	0	818413568	48	6675
2026-01-14 04:56:22.99	321.62	5.13	-37.4	-38.8	26.2	3.02e+01	60	27	0	824180736	48	6703
2026-01-14 04:56:26.01	322.06	5.01	-37.3	-38.7	26.3	3.02e+01	59	28	0	829947904	48	6646
2026-01-14 04:56:29.04	322.50	4.89	-37.4	-38.9	26.2	3.02e+01	61	27	0	835715072	48	6729
2026-01-14 04:56:32.07	322.93	4.77	-37.5	-39.0	26.1	3.02e+01	59	28	0	841482240	48	6837
2026-01-14 04:56:35.10	323.36	4.65	-37.6	-39.1	26.0	3.02e+01	60	28	0	847249408	48	6890
2026-01-14 04:56:38.12	323.78	4.52	-37.8	-39.4	25.6	3.02e+01	49	28	0	852492288	48	7141
2026-01-14 04:56:41.15	324.20	4.40	-37.7	-39.2	25.8	3.02e+01	51	27	0	858259456	48	7036
2026-01-14 04:56:44.18	324.62	4.28	-37.5	-39.0	25.9	3.02e+01	59	28	0	864026624	48	6850
2026-01-14 04:56:47.21	325.03	4.15	-37.7	-39.1	25.8	3.02e+01	58	28	0	869793792	48	6962
2026-01-14 04:56:50.24	325.44	4.03	-38.3	-48.3	3.4	3.02e+01	45	28	104	875560960	48	20052
2026-01-14 04:56:53.27	325.85	3.91	-38.2	-48.6	3.6	3.02e+01	0	28	104	875560960	50	18377
2026-01-14 04:56:56.29	326.25	3.78	-47.3	-64.1	3.5	3.02e+01	0	28	104	875560960	60	61514
2026-01-14 04:56:59.33	326.65	3.66	-40.8	-51.6	3.5	3.02e+01	0	28	104	875560960	56	18326
2026-01-14 04:57:02.35	327.04	3.53	-39.0	-49.4	3.4	3.02e+01	0	28	104	875560960	54	16062
2026-01-14 04:57:05.39	327.44	3.40	-46.8	-63.4	3.5	3.02e+01	0	28	104	875560960	60	56679
2026-01-14 04:57:08.42	327.82	3.28	-39.3	-49.8	3.5	3.02e+01	0	28	104	875560960	54	16868
2026-01-14 04:57:11.45	328.21	3.15	-40.3	-51.2	3.5	3.02e+01	0	28	104	875560960	52	22173
2026-01-14 04:57:14.47	328.59	3.02	-44.8	-60.0	3.5	3.02e+01	0	28	104	875560960	60	38605
2026-01-14 04:57:17.50	328.97	2.90	-48.5	-66.4	3.5	3.02e+01	0	28	104	875560960	60	80697
2026-01-14 04:57:20.53	329.34	2.77	-48.9	-67.0	3.5	3.02e+01	0	28	104	875560960	60	86041
2026-01-14 04:57:23.56	329.71	2.64	-49.0	-67.0	3.5	3.02e+01	0	28	104	875560960	60	86533
2026-01-14 04:57:26.59	330.08	2.51	-49.0	-67.0	3.5	3.02e+01	0	28	104	875560960	60	86302
2026-01-14 04:57:29.62	330.44	2.38	-49.0	-66.9	3.5	3.02e+01	0	28	104	875560960	60	84996
2026-01-14 04:57:32.65	330.80	2.26	-49.1	-67.1	3.5	3.02e+01	0	28	104	875560960	60	86728
2026-01-14 04:57:35.68	331.16	2.13	-49.1	-67.0	3.5	3.02e+01	0	28	104	875560960	60	85709
2026-01-14 04:57:38.71	331.52	2.00	-49.1	-67.0	3.5	3.02e+01	0	28	104	875560960	60	85777
2026-01-14 04:57:41.74	331.87	1.87	-49.0	-67.0	3.5	3.02e+01	0	28	104	875560960	60	85679
2026-01-14 04:57:44.76	332.21	1.74	-49.0	-66.9	3.5	3.02e+01	0	28	104	875560960	60	85541
2026-01-14 04:57:47.79	332.56	1.61	-49.0	-66.9	3.5	3.02e+01	0	28	104	875560960	60	85548
2026-01-14 04:57:50.82	332.90	1.48	-49.0	-66.9	3.5	3.02e+01	0	28	104	875560960	60	85195
2026-01-14 04:57:53.85	333.24	1.35	-49.0	-66.9	3.5	3.02e+01	0	28	104	875560960	60	85260
2026-01-14 04:57:56.88	333.57	1.22	-49.0	-66.9	3.5	3.02e+01	0	28	104	875560960	60	85381
2026-01-14 04:57:59.91	333.90	1.09	-49.0	-66.9	3.5	3.02e+01	0	28	104	875560960	60	84954
2026-01-14 04:58:02.94	334.23	0.96	-49.0	-66.9	3.5	3.02e+01	0	28	104	875560960	60	84690
2026-01-14 04:58:05.97	334.56	0.83	-49.0	-66.9	3.5	3.02e+01	0	28	104	875560960	60	85064
2026-01-14 04:58:09.00	334.88	0.70	-49.0	-66.9	3.5	3.02e+01	0	28	104	875560960	60	85559
2026-01-14 04:58:12.03	335.20	0.57	-49.0	-66.8	3.5	3.02e+01	0	28	104	875560960	60	84627
2026-01-14 04:58:15.06	335.52	0.44	-49.0	-66.9	3.5	3.02e+01	0	28	104	875560960	60	85412
2026-01-14 04:58:18.09	335.84	0.31	-49.0	-66.9	3.5	3.02e+01	0	28	104	875560960	60	85039
2026-01-14 04:58:21.12	336.15	0.18	-49.0	-66.9	3.5	3.02e+01	0	28	104	875560960	60	84978
2026-01-14 04:58:24.15	336.46	0.05	-49.0	-66.9	3.5	3.02e+01	0	28	104	875560960	60	84827

#Closed at: 2026-01-14 04:58:26
#Recorded file [875 MB]: D:/lorett/data/35029_260114_164800.dat