passes_logs/2026/01/14/R4.6S_Anadyr/R4.6S_Anadyr__20260114_170411_NOAA_20_JPSS-1_rec.log

#Pass ID: 20260114_170411_NOAA 20 (JPSS-1)
#Satellite: NOAA 20 (JPSS-1)
#Configuration: NOAA 20
#almurnet v.1.7.20251203
#Start time: 2026-01-14 17:04:14

#Version: 2.2.20231116
#Station: R4.6S_Anadyr
#Location: 177.4865 lon 64.73178 lat
#TLE: 1 43013U 17073A   26013.84982170  .00000053  00000+0  46215-4 0  9999
#TLE: 2 43013  98.7633 314.8013 0001544  40.9009 319.2282 14.19535753422575

#Time	Az	El	Level	Level2	SNR	BER	BlckErr	Temp	State	Recorded	gain1	gain2
2026-01-14 17:04:14.13	29.42	0.13	-49.1	-66.8	3.5	3.02e+01	0	26	0	0	60	84241
2026-01-14 17:04:18.16	29.21	0.35	-48.8	-64.0	3.6	1.51e+00	0	27	104	0	60	57019
2026-01-14 17:04:22.20	28.99	0.57	-48.7	-63.9	3.6	1.51e+00	0	28	104	0	60	56685
2026-01-14 17:04:26.24	28.77	0.79	-48.3	-63.5	3.6	1.51e+00	0	27	104	0	60	53923
2026-01-14 17:04:30.28	28.55	1.02	-47.2	-62.3	3.6	1.51e+00	0	27	104	0	60	47277
2026-01-14 17:04:34.32	28.32	1.24	-47.1	-62.3	3.6	1.51e+00	0	27	104	0	60	46921
2026-01-14 17:04:38.35	28.09	1.47	-47.1	-62.3	3.6	1.51e+00	0	28	104	0	60	47174
2026-01-14 17:04:42.39	27.85	1.70	-47.1	-62.3	3.6	1.51e+00	0	28	104	0	60	46891
2026-01-14 17:04:46.43	27.61	1.93	-47.1	-62.3	3.6	1.51e+00	0	28	104	0	60	47192
2026-01-14 17:04:50.47	27.37	2.16	-47.1	-62.1	3.6	1.51e+00	0	28	104	0	60	45814
2026-01-14 17:04:54.51	27.12	2.40	-47.1	-62.3	3.6	1.51e+00	0	28	104	0	60	46993
2026-01-14 17:04:58.55	26.87	2.63	-47.1	-62.3	3.6	1.51e+00	0	28	104	0	60	46863
2026-01-14 17:05:02.59	26.62	2.87	-47.1	-61.5	3.6	1.51e+00	0	28	104	0	60	43163
2026-01-14 17:05:06.62	26.36	3.10	-47.0	-60.0	3.7	1.51e+00	0	28	104	0	60	36090
2026-01-14 17:05:10.64	26.10	3.34	-45.4	-50.1	10.8	7.31e-03	7	28	0	5242880	60	11608
2026-01-14 17:05:14.68	25.83	3.58	-45.3	-50.2	9.7	1.33e+00	6	28	104	11534336	60	11634
2026-01-14 17:05:18.72	25.55	3.82	-41.8	-43.7	17.7	0.00e+00	0	28	0	13631488	56	6942
2026-01-14 17:05:22.76	25.27	4.07	-41.5	-43.2	18.3	0.00e+00	92	28	0	20971520	56	6573
2026-01-14 17:05:26.80	24.99	4.31	-41.9	-43.8	17.8	0.00e+00	23	28	0	28311552	56	7041
2026-01-14 17:05:30.83	24.70	4.56	-41.6	-43.4	18.2	0.00e+00	21	28	0	35651584	56	6696
2026-01-14 17:05:34.87	24.41	4.81	-41.5	-43.2	18.4	0.00e+00	0	28	0	44040192	56	6589
2026-01-14 17:05:38.91	24.11	5.06	-41.4	-43.1	18.6	0.00e+00	92	28	0	51380224	56	6473
2026-01-14 17:05:42.95	23.81	5.31	-41.1	-42.7	19.0	0.00e+00	65	28	0	58720256	56	6221
2026-01-14 17:05:46.99	23.50	5.56	-41.2	-42.8	18.9	0.00e+00	0	28	0	66060288	56	6268
2026-01-14 17:05:51.02	23.18	5.81	-41.0	-42.5	19.2	0.00e+00	2	28	0	74448896	56	6085
2026-01-14 17:05:55.06	22.86	6.07	-40.9	-42.4	19.4	0.00e+00	92	28	0	81788928	56	5993
2026-01-14 17:05:59.09	22.53	6.33	-40.8	-42.2	19.5	0.00e+00	0	28	0	89128960	54	6584
2026-01-14 17:06:03.13	22.20	6.59	-40.7	-42.1	19.7	0.00e+00	0	28	0	96468992	54	6485
2026-01-14 17:06:07.17	21.86	6.85	-40.7	-42.1	19.8	0.00e+00	50	28	0	103809024	54	6489
2026-01-14 17:06:11.20	21.51	7.11	-40.5	-41.9	19.9	0.00e+00	10	28	0	112197632	54	6336
2026-01-14 17:06:15.24	21.16	7.37	-40.6	-42.0	19.8	0.00e+00	0	28	0	119537664	54	6455
2026-01-14 17:06:19.27	20.80	7.64	-40.6	-42.0	19.8	0.00e+00	0	28	0	126877696	54	6419
2026-01-14 17:06:23.31	20.44	7.91	-40.7	-42.2	19.7	0.00e+00	59	28	0	134217728	54	6545
2026-01-14 17:06:27.35	20.06	8.18	-40.5	-41.9	20.1	0.00e+00	0	28	0	142606336	54	6337
2026-01-14 17:06:31.39	19.68	8.45	-40.4	-41.7	20.3	0.00e+00	23	28	0	149946368	54	6212
2026-01-14 17:06:35.43	19.29	8.72	-40.3	-41.6	20.4	0.00e+00	5	28	0	157286400	54	6155
2026-01-14 17:06:39.47	18.90	8.99	-40.3	-41.6	20.4	0.00e+00	92	28	0	164626432	54	6116
2026-01-14 17:06:43.51	18.49	9.27	-40.2	-41.5	20.5	0.00e+00	63	28	0	171966464	54	6076
2026-01-14 17:06:47.54	18.08	9.55	-40.3	-41.6	20.5	0.00e+00	20	28	0	180355072	54	6133
2026-01-14 17:06:51.58	17.66	9.83	-40.3	-41.6	20.5	0.00e+00	25	28	0	187695104	54	6155
2026-01-14 17:06:55.62	17.23	10.11	-40.1	-41.4	20.7	0.00e+00	89	28	0	195035136	54	6008
2026-01-14 17:06:59.66	16.80	10.39	-39.9	-41.1	21.0	0.00e+00	7	28	0	202375168	54	5769
2026-01-14 17:07:03.69	16.35	10.67	-39.8	-40.9	21.1	0.00e+00	65	28	0	210763776	52	6386
2026-01-14 17:07:07.72	15.90	10.96	-39.9	-41.1	21.1	0.00e+00	67	28	0	218103808	52	6471
2026-01-14 17:07:11.77	15.43	11.25	-39.7	-40.9	21.2	0.00e+00	92	28	0	225443840	52	6349
2026-01-14 17:07:15.80	14.96	11.53	-39.9	-41.1	21.1	0.00e+00	16	28	0	232783872	52	6465
2026-01-14 17:07:19.83	14.48	11.82	-39.8	-41.0	21.1	0.00e+00	15	29	0	240123904	52	6450
2026-01-14 17:07:23.87	13.98	12.11	-39.7	-40.8	21.3	0.00e+00	0	28	0	248512512	52	6309
2026-01-14 17:07:27.91	13.48	12.41	-39.6	-40.7	21.5	0.00e+00	92	28	0	255852544	52	6195
2026-01-14 17:07:31.94	12.97	12.70	-39.5	-40.6	21.6	0.00e+00	61	28	0	263192576	52	6148
2026-01-14 17:07:35.98	12.44	13.00	-39.4	-40.6	21.6	0.00e+00	14	28	0	270532608	52	6120
2026-01-14 17:07:40.02	11.91	13.29	-39.5	-40.6	21.6	0.00e+00	16	28	0	277872640	52	6153
2026-01-14 17:07:44.05	11.36	13.59	-39.2	-40.3	21.9	0.00e+00	90	28	0	286261248	52	5934
2026-01-14 17:07:48.09	10.81	13.89	-39.2	-40.3	21.9	0.00e+00	0	28	0	293601280	52	5900
2026-01-14 17:07:52.13	10.24	14.19	-39.2	-40.2	21.8	0.00e+00	0	28	0	300941312	52	5890
2026-01-14 17:07:56.16	9.66	14.49	-38.9	-39.9	22.2	0.00e+00	0	29	0	308281344	52	5692
2026-01-14 17:08:00.20	9.06	14.79	-38.8	-39.8	22.4	0.00e+00	92	28	0	316669952	52	5593
2026-01-14 17:08:04.24	8.46	15.09	-38.7	-39.7	22.5	0.00e+00	0	28	0	324009984	50	6200
2026-01-14 17:08:08.28	7.84	15.39	-38.5	-39.4	22.7	0.00e+00	0	28	0	331350016	50	6031
2026-01-14 17:08:12.32	7.21	15.69	-38.8	-39.9	22.4	0.00e+00	88	29	0	338690048	50	6320
2026-01-14 17:08:16.35	6.57	15.99	-38.9	-39.9	22.2	0.00e+00	12	29	0	346030080	50	6373
2026-01-14 17:08:20.39	5.91	16.29	-39.2	-40.3	22.0	0.00e+00	14	29	0	354418688	50	6617
2026-01-14 17:08:24.42	5.24	16.59	-39.1	-40.1	22.1	0.00e+00	14	29	0	361758720	50	6532
2026-01-14 17:08:28.46	4.55	16.89	-39.3	-40.3	21.9	0.00e+00	92	28	0	369098752	50	6692
2026-01-14 17:08:32.50	3.85	17.20	-39.2	-40.2	22.1	0.00e+00	68	28	0	376438784	50	6603
2026-01-14 17:08:36.54	3.14	17.49	-39.2	-40.2	22.1	0.00e+00	0	28	0	384827392	50	6583
2026-01-14 17:08:40.57	2.42	17.79	-39.3	-40.4	22.0	0.00e+00	66	28	0	392167424	50	6717
2026-01-14 17:08:44.61	1.67	18.09	-39.2	-40.2	22.1	0.00e+00	90	29	0	399507456	50	6587
2026-01-14 17:08:48.64	0.92	18.39	-39.0	-40.1	22.3	0.00e+00	6	28	0	406847488	50	6482
2026-01-14 17:08:52.68	0.14	18.68	-39.0	-40.1	22.3	0.00e+00	6	29	0	414187520	50	6482
2026-01-14 17:08:56.72	359.36	18.97	-38.9	-39.9	22.4	0.00e+00	68	29	0	422576128	50	6381
2026-01-14 17:09:00.76	358.55	19.26	-38.7	-39.7	22.6	0.00e+00	92	29	0	429916160	50	6179
2026-01-14 17:09:04.79	357.74	19.55	-38.4	-39.4	22.9	0.00e+00	12	29	0	437256192	50	6014
2026-01-14 17:09:08.83	356.90	19.83	-38.0	-38.9	23.5	0.00e+00	13	28	0	444596224	50	5663
2026-01-14 17:09:12.87	356.05	20.11	-37.4	-38.3	23.9	0.00e+00	0	29	0	452984832	48	5933
2026-01-14 17:09:16.90	355.19	20.39	-36.9	-37.8	24.3	0.00e+00	92	29	0	460324864	48	5595
2026-01-14 17:09:20.93	354.31	20.66	-37.0	-37.9	24.2	0.00e+00	67	28	0	467664896	48	5655
2026-01-14 17:09:24.97	353.41	20.93	-36.8	-37.7	24.5	0.00e+00	68	29	0	475004928	46	6190
2026-01-14 17:09:29.00	352.50	21.19	-36.7	-37.5	24.5	0.00e+00	13	28	0	482344960	46	6095
2026-01-14 17:09:33.04	351.57	21.45	-36.5	-37.4	24.7	0.00e+00	91	28	0	490733568	46	5966
2026-01-14 17:09:37.08	350.63	21.70	-36.6	-37.4	24.7	0.00e+00	0	29	0	498073600	46	5991
2026-01-14 17:09:41.11	349.67	21.95	-36.6	-37.5	24.7	0.00e+00	70	28	0	505413632	46	6036
2026-01-14 17:09:45.15	348.69	22.19	-36.9	-37.7	24.5	0.00e+00	51	29	0	512753664	46	6197
2026-01-14 17:09:49.19	347.70	22.42	-36.9	-37.7	24.5	0.00e+00	92	29	0	520093696	46	6204
2026-01-14 17:09:53.23	346.70	22.65	-37.0	-37.9	24.3	0.00e+00	0	29	0	528482304	46	6326
2026-01-14 17:09:57.26	345.68	22.87	-36.6	-37.4	24.7	0.00e+00	0	29	0	535822336	46	6032
2026-01-14 17:10:01.30	344.64	23.08	-36.6	-37.4	24.6	0.00e+00	85	29	0	543162368	46	5988
2026-01-14 17:10:05.34	343.59	23.28	-36.8	-37.6	24.5	0.00e+00	5	29	0	550502400	46	6136
2026-01-14 17:10:09.38	342.53	23.47	-36.2	-37.0	25.0	0.00e+00	62	29	0	558891008	46	5743
2026-01-14 17:10:13.41	341.46	23.65	-36.2	-36.9	25.0	0.00e+00	14	29	0	566231040	46	5687
2026-01-14 17:10:17.45	340.37	23.83	-36.4	-37.2	24.9	0.00e+00	92	29	0	573571072	46	5852
2026-01-14 17:10:21.49	339.27	23.99	-36.9	-37.7	24.4	0.00e+00	67	29	0	580911104	46	6222
2026-01-14 17:10:25.53	338.16	24.14	-36.7	-37.5	24.6	0.00e+00	0	29	0	588251136	46	6099
2026-01-14 17:10:29.56	337.04	24.29	-37.3	-38.2	24.1	0.00e+00	16	29	0	596639744	46	6547
2026-01-14 17:10:33.60	335.91	24.42	-37.6	-38.5	23.7	0.00e+00	92	29	0	603979776	46	6835
2026-01-14 17:10:37.63	334.77	24.54	-38.2	-39.1	23.3	0.00e+00	6	29	0	611319808	48	6490
2026-01-14 17:10:41.67	333.62	24.64	-38.4	-39.3	23.1	0.00e+00	0	29	0	618659840	48	6687
2026-01-14 17:10:45.70	332.47	24.74	-38.5	-39.5	22.9	0.00e+00	68	28	0	627048448	48	6812
2026-01-14 17:10:49.74	331.31	24.82	-38.4	-39.3	23.0	0.00e+00	91	29	0	634388480	48	6685
2026-01-14 17:10:53.77	330.14	24.89	-38.8	-39.8	22.7	0.00e+00	12	29	0	641728512	50	6310
2026-01-14 17:10:57.81	328.97	24.94	-38.5	-39.5	23.0	0.00e+00	13	29	0	649068544	50	6069
2026-01-14 17:11:01.85	327.79	24.99	-38.5	-39.5	23.0	0.00e+00	0	29	0	656408576	50	6071
2026-01-14 17:11:05.88	326.61	25.02	-38.9	-39.8	22.6	0.00e+00	92	29	0	664797184	50	6317
2026-01-14 17:11:09.92	325.43	25.04	-38.6	-39.5	23.0	0.00e+00	69	29	0	672137216	50	6088
2026-01-14 17:11:13.96	324.25	25.04	-38.3	-39.2	23.3	0.00e+00	13	29	0	679477248	50	5860
2026-01-14 17:11:18.00	323.07	25.03	-38.3	-39.2	23.2	0.00e+00	16	29	0	686817280	50	5850
2026-01-14 17:11:22.03	321.89	25.01	-37.9	-38.8	23.5	0.00e+00	92	29	0	694157312	50	5606
2026-01-14 17:11:26.06	320.71	24.97	-37.8	-38.7	23.7	0.00e+00	0	29	0	702545920	48	6202
2026-01-14 17:11:30.10	319.54	24.92	-37.2	-38.0	24.4	0.00e+00	2	29	0	709885952	48	5720
2026-01-14 17:11:34.13	318.37	24.86	-36.7	-37.5	24.8	0.00e+00	0	29	0	717225984	46	6064
2026-01-14 17:11:38.17	317.20	24.78	-36.1	-36.9	25.2	0.00e+00	0	29	0	724566016	46	5644
2026-01-14 17:11:42.21	316.04	24.70	-36.1	-36.9	25.2	0.00e+00	13	29	0	732954624	46	5655
2026-01-14 17:11:46.24	314.89	24.60	-36.0	-36.8	25.3	0.00e+00	0	29	0	740294656	46	5577
2026-01-14 17:11:50.29	313.74	24.48	-36.2	-37.0	25.2	0.00e+00	57	29	0	747634688	46	5710
2026-01-14 17:11:54.33	312.60	24.36	-36.3	-37.1	24.8	0.00e+00	0	29	0	754974720	46	5811
2026-01-14 17:11:58.36	311.48	24.22	-36.4	-37.2	25.0	0.00e+00	22	29	0	762314752	46	5829
2026-01-14 17:12:02.40	310.36	24.08	-36.9	-37.7	24.6	0.00e+00	0	29	0	770703360	46	6213
2026-01-14 17:12:06.44	309.25	23.92	-37.4	-38.2	24.1	0.00e+00	92	29	0	778043392	46	6597
2026-01-14 17:12:10.47	308.16	23.75	-37.5	-38.3	24.0	0.00e+00	5	29	0	785383424	46	6668
2026-01-14 17:12:14.51	307.07	23.57	-37.7	-38.5	23.8	0.00e+00	0	29	0	792723456	46	6844
2026-01-14 17:12:18.54	306.01	23.39	-38.0	-38.8	23.6	0.00e+00	67	29	0	801112064	48	6317
2026-01-14 17:12:22.58	304.95	23.19	-38.2	-39.2	23.3	0.00e+00	92	29	0	808452096	48	6549
2026-01-14 17:12:26.61	303.91	22.98	-38.3	-39.2	23.0	0.00e+00	23	29	0	815792128	48	6569
2026-01-14 17:12:30.65	302.88	22.77	-38.6	-39.5	22.9	0.00e+00	7	28	0	823132160	48	6831
2026-01-14 17:12:34.69	301.86	22.55	-38.4	-39.3	22.9	0.00e+00	6	29	0	830472192	48	6648
2026-01-14 17:12:38.72	300.86	22.32	-38.2	-39.2	23.3	0.00e+00	92	28	0	838860800	48	6543
2026-01-14 17:12:42.76	299.87	22.08	-38.9	-39.9	22.6	0.00e+00	67	29	0	846200832	50	6382
2026-01-14 17:12:46.79	298.91	21.84	-38.4	-39.4	23.1	0.00e+00	0	29	0	853540864	50	5965
2026-01-14 17:12:50.83	297.95	21.59	-38.3	-39.2	23.2	0.00e+00	15	29	0	860880896	50	5867
2026-01-14 17:12:54.86	297.01	21.33	-38.4	-39.3	23.1	0.00e+00	92	28	0	868220928	50	5932
2026-01-14 17:12:58.90	296.09	21.07	-38.0	-38.9	23.5	0.00e+00	4	29	0	876609536	50	5684
2026-01-14 17:13:02.94	295.18	20.81	-38.0	-38.9	23.5	0.00e+00	0	29	0	883949568	50	5651
2026-01-14 17:13:06.98	294.29	20.53	-37.8	-38.6	23.7	0.00e+00	0	28	0	891289600	48	6170
2026-01-14 17:13:11.02	293.41	20.26	-37.8	-38.7	23.6	0.00e+00	92	29	0	898629632	48	6190
2026-01-14 17:13:15.05	292.55	19.98	-37.8	-38.7	23.7	0.00e+00	0	29	0	907018240	48	6188
2026-01-14 17:13:19.09	291.71	19.70	-37.8	-38.7	23.6	0.00e+00	66	29	0	914358272	48	6204
2026-01-14 17:13:23.13	290.88	19.41	-37.8	-38.7	23.5	0.00e+00	0	28	0	921698304	48	6220
2026-01-14 17:13:27.17	290.06	19.12	-37.9	-38.8	23.5	0.00e+00	91	29	0	929038336	48	6258
2026-01-14 17:13:31.20	289.26	18.83	-37.8	-38.7	23.6	0.00e+00	0	29	0	936378368	48	6229
2026-01-14 17:13:35.24	288.48	18.54	-37.9	-38.8	23.6	0.00e+00	0	29	0	944766976	48	6257
2026-01-14 17:13:39.27	287.71	18.25	-37.6	-38.5	23.7	0.00e+00	92	28	0	952107008	48	6090
2026-01-14 17:13:43.31	286.96	17.95	-37.6	-38.5	23.8	0.00e+00	22	29	0	959447040	48	6043
2026-01-14 17:13:47.35	286.22	17.65	-37.4	-38.2	24.0	0.00e+00	0	29	0	966787072	48	5880
2026-01-14 17:13:51.39	285.50	17.35	-37.0	-37.9	24.3	0.00e+00	64	29	0	975175680	48	5633
2026-01-14 17:13:55.42	284.79	17.05	-37.1	-38.0	24.1	0.00e+00	92	29	0	982515712	48	5708
2026-01-14 17:13:59.46	284.10	16.75	-37.1	-37.9	24.2	0.00e+00	5	29	0	989855744	48	5686
2026-01-14 17:14:03.50	283.42	16.45	-36.9	-37.7	24.3	0.00e+00	0	29	0	997195776	48	5560
2026-01-14 17:14:07.53	282.75	16.15	-36.9	-37.8	24.3	0.00e+00	64	29	0	1004535808	48	5576
2026-01-14 17:14:11.58	282.09	15.84	-37.1	-38.0	24.2	0.00e+00	92	29	0	1012924416	48	5720
2026-01-14 17:14:15.61	281.45	15.54	-37.1	-37.9	23.9	0.00e+00	26	29	0	1020264448	48	5663
2026-01-14 17:14:19.65	280.83	15.24	-37.0	-37.8	24.2	0.00e+00	0	29	0	1027604480	48	5599
2026-01-14 17:14:23.68	280.21	14.94	-37.0	-37.8	24.3	0.00e+00	0	29	0	1034944512	48	5626
2026-01-14 17:14:27.72	279.61	14.64	-37.3	-38.2	23.9	0.00e+00	92	29	0	1043333120	48	5832
2026-01-14 17:14:31.75	279.02	14.33	-37.6	-38.5	23.6	0.00e+00	57	29	0	1050673152	48	6041
2026-01-14 17:14:35.79	278.44	14.03	-37.9	-38.8	23.3	0.00e+00	19	29	0	1058013184	48	6288
2026-01-14 17:14:39.82	277.88	13.74	-37.8	-38.7	23.4	0.00e+00	19	29	0	1065353216	48	6225
2026-01-14 17:14:43.86	277.32	13.44	-37.8	-38.7	23.4	0.00e+00	92	29	0	1072693248	48	6185
2026-01-14 17:14:47.90	276.78	13.14	-37.9	-38.9	23.3	0.00e+00	0	29	0	1081081856	48	6329
2026-01-14 17:14:51.94	276.25	12.84	-38.2	-39.1	23.0	0.00e+00	61	29	0	1088421888	48	6510
2026-01-14 17:14:55.98	275.73	12.55	-38.3	-39.2	22.9	0.00e+00	35	29	0	1095761920	48	6596
2026-01-14 17:15:00.02	275.21	12.25	-38.5	-39.5	22.7	0.00e+00	91	29	0	1103101952	48	6789
2026-01-14 17:15:04.05	274.71	11.96	-38.3	-39.2	22.9	0.00e+00	2	29	0	1111490560	48	6611
2026-01-14 17:15:08.09	274.22	11.67	-38.4	-39.3	22.8	0.00e+00	0	29	0	1118830592	48	6673
2026-01-14 17:15:12.12	273.74	11.38	-38.8	-39.9	22.3	0.00e+00	0	29	0	1126170624	50	6328
2026-01-14 17:15:16.16	273.27	11.09	-39.1	-40.1	22.1	0.00e+00	86	29	0	1133510656	50	6520
2026-01-14 17:15:20.20	272.81	10.81	-38.8	-39.9	22.3	0.00e+00	0	29	0	1140850688	50	6326
2026-01-14 17:15:24.23	272.36	10.52	-39.0	-40.1	22.0	0.00e+00	2	29	0	1149239296	50	6499
2026-01-14 17:15:28.26	271.91	10.24	-39.0	-40.0	22.1	0.00e+00	92	29	0	1156579328	50	6445
2026-01-14 17:15:32.31	271.48	9.96	-39.3	-40.4	21.8	0.00e+00	60	29	0	1163919360	50	6707
2026-01-14 17:15:36.34	271.05	9.68	-39.5	-40.6	21.6	0.00e+00	0	29	0	1171259392	50	6867
2026-01-14 17:15:40.38	270.63	9.40	-39.8	-41.0	21.1	0.00e+00	22	29	0	1178599424	52	6433
2026-01-14 17:15:44.42	270.22	9.12	-39.8	-41.0	21.1	0.00e+00	92	29	0	1186988032	52	6432
2026-01-14 17:15:48.45	269.82	8.84	-40.2	-41.4	20.7	0.00e+00	0	28	0	1194328064	52	6723
2026-01-14 17:15:52.49	269.43	8.57	-40.4	-41.7	20.5	0.00e+00	6	29	0	1201668096	52	6928
2026-01-14 17:15:56.53	269.04	8.30	-40.2	-41.5	20.6	0.00e+00	0	29	0	1209008128	52	6800
2026-01-14 17:16:00.56	268.66	8.03	-40.1	-41.3	20.7	0.00e+00	92	29	0	1217396736	52	6666
2026-01-14 17:16:04.60	268.29	7.76	-40.3	-41.5	20.6	0.00e+00	28	29	0	1224736768	52	6842
2026-01-14 17:16:08.64	267.92	7.49	-40.5	-41.8	20.3	0.00e+00	6	29	0	1232076800	52	7042
2026-01-14 17:16:12.67	267.56	7.23	-40.6	-41.9	20.0	0.00e+00	6	29	0	1239416832	52	7165
2026-01-14 17:16:16.71	267.21	6.96	-40.7	-42.1	19.9	0.00e+00	92	29	0	1246756864	54	6481
2026-01-14 17:16:20.75	266.86	6.70	-40.8	-42.2	19.8	0.00e+00	58	29	0	1255145472	54	6548
2026-01-14 17:16:24.78	266.52	6.44	-41.1	-42.5	19.4	0.00e+00	27	29	0	1262485504	54	6822
2026-01-14 17:16:28.82	266.19	6.18	-41.1	-42.6	19.2	0.00e+00	2	29	0	1269825536	54	6913
2026-01-14 17:16:32.86	265.86	5.92	-41.2	-42.7	19.1	0.00e+00	90	29	0	1277165568	54	6958
2026-01-14 17:16:36.90	265.54	5.67	-41.4	-43.0	18.8	0.00e+00	0	29	0	1285554176	54	7195
2026-01-14 17:16:40.94	265.23	5.41	-41.4	-43.0	18.8	0.00e+00	0	29	0	1292894208	54	7228
2026-01-14 17:16:44.97	264.92	5.16	-41.4	-43.0	18.7	0.00e+00	46	29	0	1300234240	54	7214
2026-01-14 17:16:49.00	264.61	4.91	-41.6	-43.3	18.4	0.00e+00	92	29	0	1307574272	54	7448
2026-01-14 17:16:53.04	264.32	4.66	-41.5	-43.2	18.6	0.00e+00	2	29	0	1314914304	56	6549
2026-01-14 17:16:57.07	264.02	4.41	-41.7	-43.4	18.3	0.00e+00	0	29	0	1323302912	56	6710
2026-01-14 17:17:01.11	263.73	4.17	-41.6	-43.3	18.3	0.00e+00	51	29	0	1330642944	56	6666
2026-01-14 17:17:05.15	263.45	3.92	-41.7	-43.5	18.0	0.00e+00	92	29	0	1337982976	56	6809
2026-01-14 17:17:09.18	263.17	3.68	-42.2	-44.2	17.3	0.00e+00	24	29	0	1345323008	56	7345
2026-01-14 17:17:13.22	262.90	3.44	-42.4	-44.5	16.9	0.00e+00	25	29	0	1352663040	56	7630
2026-01-14 17:17:17.26	262.63	3.20	-42.4	-44.6	16.8	0.00e+00	92	29	0	1361051648	56	7709
2026-01-14 17:17:21.30	262.36	2.96	-48.0	-63.2	3.6	1.51e+00	0	29	104	1366294528	60	52379
2026-01-14 17:17:25.34	262.10	2.72	-48.7	-63.9	3.6	1.51e+00	0	29	104	1366294528	60	56474
2026-01-14 17:17:29.38	261.85	2.49	-48.8	-64.0	3.6	1.51e+00	0	29	104	1366294528	60	57333
2026-01-14 17:17:33.42	261.59	2.25	-48.7	-63.9	3.6	1.51e+00	0	29	104	1366294528	60	56802
2026-01-14 17:17:37.46	261.35	2.02	-48.7	-63.9	3.6	1.51e+00	0	29	104	1366294528	60	56536
2026-01-14 17:17:41.50	261.10	1.79	-48.8	-63.9	3.6	1.51e+00	0	29	104	1366294528	60	56636
2026-01-14 17:17:45.53	260.86	1.56	-48.7	-63.9	3.6	1.51e+00	0	29	104	1366294528	60	56668
2026-01-14 17:17:49.57	260.63	1.33	-48.7	-63.9	3.6	1.51e+00	0	29	104	1366294528	60	56461
2026-01-14 17:17:53.61	260.39	1.10	-48.7	-63.9	3.6	1.51e+00	0	29	104	1366294528	60	56722
2026-01-14 17:17:57.65	260.17	0.88	-48.7	-63.9	3.6	1.51e+00	0	29	104	1366294528	60	56567
2026-01-14 17:18:01.69	259.94	0.65	-48.7	-63.9	3.6	1.51e+00	0	29	104	1366294528	60	56604
2026-01-14 17:18:05.73	259.72	0.43	-48.7	-63.9	3.6	1.51e+00	0	29	104	1366294528	60	56611
2026-01-14 17:18:09.77	259.50	0.21	-48.7	-63.9	3.6	1.51e+00	0	29	104	1366294528	60	56441
2026-01-14 17:18:13.81	259.29	-0.02	-48.7	-63.9	3.6	1.51e+00	0	29	104	1366294528	60	56330

#Closed at: 2026-01-14 17:18:15
#Recorded file [1366 MB]: D:/lorett/data/35029_260115_050414.dat