passes_logs/2026/01/14/R4.6S_Anadyr/R4.6S_Anadyr__20260114_184338_NOAA_20_JPSS-1_rec.log

#Pass ID: 20260114_184338_NOAA 20 (JPSS-1)
#Satellite: NOAA 20 (JPSS-1)
#Configuration: NOAA 20
#almurnet v.1.7.20251203
#Start time: 2026-01-14 18:43:39

#Version: 2.2.20231116
#Station: R4.6S_Anadyr
#Location: 177.4865 lon 64.73178 lat
#TLE: 1 43013U 17073A   26013.84982170  .00000053  00000+0  46215-4 0  9999
#TLE: 2 43013  98.7633 314.8013 0001544  40.9009 319.2282 14.19535753422575

#Time	Az	El	Level	Level2	SNR	BER	BlckErr	Temp	State	Recorded	gain1	gain2
2026-01-14 18:43:39.89	43.81	0.09	-48.8	-63.7	3.5	1.51e+00	0	26	0	0	60	55590
2026-01-14 18:43:42.92	43.59	0.24	-48.8	-64.0	3.6	1.51e+00	0	28	104	0	60	57310
2026-01-14 18:43:45.95	43.37	0.38	-48.9	-64.1	3.6	1.51e+00	0	28	104	0	60	57932
2026-01-14 18:43:48.98	43.14	0.53	-48.7	-63.9	3.6	1.51e+00	0	28	104	0	60	56834
2026-01-14 18:43:52.01	42.91	0.68	-48.5	-63.8	3.6	1.51e+00	0	28	104	0	60	55666
2026-01-14 18:43:55.03	42.68	0.83	-48.0	-63.1	3.6	1.51e+00	0	28	104	0	60	51921
2026-01-14 18:43:58.06	42.45	0.99	-47.1	-62.2	3.6	1.51e+00	0	28	104	0	60	46792
2026-01-14 18:44:01.09	42.21	1.14	-47.1	-62.2	3.6	1.51e+00	0	28	104	0	60	46596
2026-01-14 18:44:04.12	41.97	1.29	-47.1	-62.2	3.6	1.51e+00	0	28	104	0	60	46734
2026-01-14 18:44:07.15	41.73	1.44	-47.1	-62.2	3.6	1.51e+00	0	28	104	0	60	46528
2026-01-14 18:44:10.18	41.48	1.59	-47.1	-62.2	3.6	1.51e+00	0	28	104	0	60	46489
2026-01-14 18:44:13.21	41.24	1.74	-47.0	-62.2	3.6	1.51e+00	0	28	104	0	60	46703
2026-01-14 18:44:16.24	40.99	1.90	-47.0	-62.1	3.6	1.51e+00	0	28	104	0	60	45977
2026-01-14 18:44:19.26	40.73	2.05	-47.0	-61.8	3.6	1.51e+00	0	28	104	0	60	44617
2026-01-14 18:44:22.29	40.48	2.20	-47.0	-62.1	3.6	1.51e+00	0	28	104	0	60	45927
2026-01-14 18:44:25.32	40.22	2.36	-47.0	-62.2	3.6	1.51e+00	0	28	104	0	60	46408
2026-01-14 18:44:28.35	39.96	2.51	-47.0	-62.1	3.6	1.51e+00	0	28	104	0	60	46056
2026-01-14 18:44:31.37	39.70	2.66	-47.0	-61.2	3.6	1.51e+00	0	28	104	0	60	41560
2026-01-14 18:44:34.40	39.43	2.82	-46.9	-58.8	4.1	1.48e+00	0	28	104	0	60	31654
2026-01-14 18:44:37.43	39.16	2.97	-45.6	-50.9	10.1	1.24e-02	92	28	0	5242880	60	12660
2026-01-14 18:44:40.46	38.89	3.13	-45.4	-50.4	11.0	8.22e-01	5	28	104	7340032	60	11922
2026-01-14 18:44:43.49	38.61	3.28	-46.8	-58.0	4.2	1.51e+00	0	29	104	10485760	60	28819
2026-01-14 18:44:46.52	38.33	3.44	-42.5	-44.7	16.5	0.00e+00	92	28	0	13631488	58	6969
2026-01-14 18:44:49.54	38.05	3.59	-42.3	-44.3	17.1	0.00e+00	6	29	0	18874368	58	6679
2026-01-14 18:44:52.57	37.77	3.75	-42.5	-44.6	16.8	0.00e+00	71	29	0	25165824	58	6885
2026-01-14 18:44:55.60	37.48	3.91	-42.2	-44.2	17.3	0.00e+00	92	29	0	30408704	58	6615
2026-01-14 18:44:58.63	37.19	4.06	-42.4	-44.5	17.0	0.00e+00	0	29	0	36700160	58	6808
2026-01-14 18:45:01.66	36.90	4.22	-42.7	-44.9	16.7	0.00e+00	4	29	0	41943040	58	7116
2026-01-14 18:45:04.69	36.60	4.38	-42.4	-44.4	17.3	0.00e+00	4	29	0	47185920	58	6730
2026-01-14 18:45:07.72	36.30	4.53	-42.3	-44.3	17.4	0.00e+00	92	29	0	53477376	58	6679
2026-01-14 18:45:10.74	35.99	4.69	-42.2	-44.1	17.3	0.00e+00	64	29	0	58720256	58	6530
2026-01-14 18:45:13.77	35.69	4.85	-42.5	-44.5	17.2	0.00e+00	0	29	0	65011712	58	6791
2026-01-14 18:45:16.79	35.38	5.00	-42.5	-44.6	17.1	0.00e+00	92	29	0	70254592	58	6865
2026-01-14 18:45:19.82	35.06	5.16	-42.5	-44.5	17.1	0.00e+00	0	29	0	76546048	58	6792
2026-01-14 18:45:22.86	34.74	5.32	-41.8	-43.6	18.1	0.00e+00	2	29	0	81788928	58	6114
2026-01-14 18:45:25.89	34.42	5.48	-41.5	-43.2	18.6	0.00e+00	91	29	0	87031808	56	6566
2026-01-14 18:45:28.91	34.10	5.63	-41.5	-43.1	18.6	0.00e+00	0	29	0	93323264	56	6514
2026-01-14 18:45:31.94	33.77	5.79	-41.3	-42.9	18.7	0.00e+00	16	29	0	98566144	56	6337
2026-01-14 18:45:34.97	33.44	5.95	-41.2	-42.8	18.9	0.00e+00	64	29	0	104857600	56	6246
2026-01-14 18:45:38.00	33.10	6.11	-41.3	-42.9	18.9	0.00e+00	2	28	0	110100480	56	6374
2026-01-14 18:45:41.03	32.76	6.27	-41.5	-43.1	18.7	0.00e+00	0	29	0	115343360	56	6519
2026-01-14 18:45:44.05	32.42	6.42	-41.0	-42.5	19.4	0.00e+00	0	29	0	121634816	56	6064
2026-01-14 18:45:47.07	32.07	6.58	-41.1	-42.6	19.3	0.00e+00	92	29	0	126877696	56	6124
2026-01-14 18:45:50.10	31.72	6.74	-40.7	-42.1	19.7	0.00e+00	18	29	0	133169152	54	6487
2026-01-14 18:45:53.13	31.36	6.90	-40.6	-42.0	19.8	0.00e+00	66	29	0	138412032	54	6447
2026-01-14 18:45:56.16	31.00	7.05	-40.9	-42.3	19.6	0.00e+00	92	29	0	143654912	54	6648
2026-01-14 18:45:59.18	30.64	7.21	-40.9	-42.3	19.5	0.00e+00	0	29	0	149946368	54	6681
2026-01-14 18:46:02.21	30.27	7.37	-41.0	-42.4	19.5	0.00e+00	0	29	0	155189248	54	6755
2026-01-14 18:46:05.24	29.90	7.53	-40.9	-42.3	19.6	0.00e+00	60	29	0	161480704	54	6689
2026-01-14 18:46:08.26	29.53	7.68	-40.6	-41.9	20.0	0.00e+00	0	29	0	166723584	54	6380
2026-01-14 18:46:11.29	29.15	7.84	-40.6	-41.9	20.0	0.00e+00	0	29	0	173015040	54	6389
2026-01-14 18:46:14.32	28.76	8.00	-40.3	-41.6	20.3	0.00e+00	16	29	0	178257920	54	6139
2026-01-14 18:46:17.35	28.38	8.15	-40.5	-41.8	20.2	0.00e+00	18	29	0	183500800	54	6278
2026-01-14 18:46:20.38	27.98	8.31	-40.4	-41.7	20.3	0.00e+00	0	29	0	189792256	54	6212
2026-01-14 18:46:23.40	27.59	8.46	-40.5	-41.8	20.3	0.00e+00	0	29	0	195035136	54	6283
2026-01-14 18:46:26.43	27.19	8.62	-40.3	-41.7	20.3	0.00e+00	92	29	0	201326592	54	6178
2026-01-14 18:46:29.45	26.78	8.77	-40.3	-41.6	20.3	0.00e+00	2	29	0	206569472	54	6168
2026-01-14 18:46:32.48	26.37	8.93	-40.5	-41.8	20.2	0.00e+00	16	29	0	211812352	54	6306
2026-01-14 18:46:35.51	25.96	9.08	-40.6	-41.9	20.2	0.00e+00	82	29	0	218103808	54	6375
2026-01-14 18:46:38.54	25.54	9.23	-40.2	-41.4	20.6	0.00e+00	72	29	0	223346688	54	6031
2026-01-14 18:46:41.57	25.11	9.39	-40.1	-41.4	20.7	0.00e+00	3	29	0	229638144	54	5978
2026-01-14 18:46:44.59	24.69	9.54	-40.2	-41.4	20.7	0.00e+00	37	29	0	234881024	54	6027
2026-01-14 18:46:47.62	24.25	9.69	-40.3	-41.5	20.4	0.00e+00	0	29	0	241172480	54	6092
2026-01-14 18:46:50.65	23.82	9.84	-40.2	-41.4	20.6	0.00e+00	4	29	0	246415360	54	6016
2026-01-14 18:46:53.68	23.38	9.99	-40.2	-41.5	20.6	0.00e+00	14	29	0	251658240	54	6079
2026-01-14 18:46:56.71	22.93	10.14	-40.1	-41.4	20.6	0.00e+00	92	29	0	257949696	54	5995
2026-01-14 18:46:59.73	22.48	10.29	-40.0	-41.2	20.9	0.00e+00	12	29	0	263192576	54	5858
2026-01-14 18:47:02.76	22.02	10.44	-39.8	-41.0	21.1	0.00e+00	63	29	0	269484032	52	6434
2026-01-14 18:47:05.78	21.56	10.58	-39.8	-41.0	21.1	0.00e+00	91	29	0	274726912	52	6436
2026-01-14 18:47:08.81	21.10	10.73	-39.5	-40.7	21.4	0.00e+00	0	29	0	279969792	52	6190
2026-01-14 18:47:11.84	20.63	10.88	-39.4	-40.5	21.6	0.00e+00	0	29	0	286261248	52	6057
2026-01-14 18:47:14.87	20.15	11.02	-39.2	-40.3	21.7	0.00e+00	92	29	0	291504128	52	5953
2026-01-14 18:47:17.89	19.68	11.16	-39.1	-40.2	21.9	0.00e+00	0	29	0	297795584	52	5870
2026-01-14 18:47:20.92	19.19	11.30	-38.8	-39.8	22.3	0.00e+00	64	29	0	303038464	52	5594
2026-01-14 18:47:23.94	18.70	11.44	-38.6	-39.6	22.4	0.00e+00	13	29	0	308281344	50	6140
2026-01-14 18:47:26.97	18.21	11.58	-38.6	-39.6	22.4	0.00e+00	2	29	0	314572800	50	6173
2026-01-14 18:47:30.00	17.71	11.72	-38.6	-39.6	22.5	0.00e+00	0	29	0	319815680	50	6140
2026-01-14 18:47:33.03	17.21	11.86	-38.4	-39.4	22.7	0.00e+00	0	29	0	326107136	50	5980
2026-01-14 18:47:36.05	16.70	11.99	-38.4	-39.4	22.7	0.00e+00	90	29	0	331350016	50	5975
2026-01-14 18:47:39.08	16.19	12.13	-38.5	-39.5	22.6	0.00e+00	0	29	0	337641472	50	6059
2026-01-14 18:47:42.11	15.67	12.26	-37.8	-38.8	23.2	0.00e+00	19	29	0	342884352	50	5567
2026-01-14 18:47:45.14	15.15	12.39	-37.7	-38.6	23.3	0.00e+00	92	29	0	348127232	50	5495
2026-01-14 18:47:48.17	14.62	12.52	-37.8	-38.7	23.3	0.00e+00	63	29	0	354418688	48	6207
2026-01-14 18:47:51.19	14.09	12.64	-37.8	-38.7	23.3	0.00e+00	2	29	0	359661568	48	6221
2026-01-14 18:47:54.22	13.56	12.77	-38.0	-39.0	23.0	0.00e+00	47	29	0	365953024	48	6433
2026-01-14 18:47:57.25	13.02	12.89	-38.0	-39.0	23.1	0.00e+00	0	29	0	371195904	48	6408
2026-01-14 18:48:00.27	12.47	13.01	-38.1	-39.1	22.9	0.00e+00	12	29	0	376438784	48	6500
2026-01-14 18:48:03.30	11.92	13.13	-38.4	-39.4	22.8	0.00e+00	0	29	0	382730240	48	6743
2026-01-14 18:48:06.33	11.37	13.25	-38.4	-39.4	22.7	0.00e+00	91	29	0	387973120	48	6744
2026-01-14 18:48:09.36	10.81	13.36	-38.1	-39.1	23.0	0.00e+00	63	29	0	394264576	48	6514
2026-01-14 18:48:12.39	10.24	13.48	-38.1	-39.1	22.9	0.00e+00	1	29	0	399507456	48	6470
2026-01-14 18:48:15.42	9.68	13.59	-38.2	-39.1	23.0	0.00e+00	92	29	0	405798912	48	6516
2026-01-14 18:48:18.45	9.11	13.70	-38.0	-39.0	23.1	0.00e+00	6	29	0	411041792	48	6400
2026-01-14 18:48:21.48	8.53	13.80	-38.0	-39.0	23.0	0.00e+00	5	29	0	416284672	48	6410
2026-01-14 18:48:24.51	7.95	13.91	-38.1	-39.0	23.0	0.00e+00	92	29	0	422576128	48	6447
2026-01-14 18:48:27.53	7.37	14.01	-37.8	-38.7	23.3	0.00e+00	11	29	0	427819008	48	6213
2026-01-14 18:48:30.56	6.78	14.11	-38.0	-38.9	23.1	0.00e+00	75	29	0	434110464	48	6362
2026-01-14 18:48:33.59	6.19	14.20	-37.9	-38.8	23.4	0.00e+00	4	29	0	439353344	48	6271
2026-01-14 18:48:36.62	5.59	14.29	-37.8	-38.7	23.4	0.00e+00	2	29	0	444596224	48	6192
2026-01-14 18:48:39.65	4.99	14.38	-37.7	-38.6	23.5	0.00e+00	3	29	0	450887680	48	6123
2026-01-14 18:48:42.67	4.39	14.47	-37.9	-38.9	23.2	0.00e+00	2	29	0	456130560	48	6322
2026-01-14 18:48:45.70	3.78	14.56	-37.8	-38.7	23.4	0.00e+00	90	29	0	462422016	48	6219
2026-01-14 18:48:48.73	3.17	14.64	-37.7	-38.6	23.6	0.00e+00	63	29	0	467664896	48	6116
2026-01-14 18:48:51.75	2.56	14.72	-37.7	-38.6	23.4	0.00e+00	19	29	0	472907776	48	6127
2026-01-14 18:48:54.78	1.94	14.79	-38.0	-39.0	23.2	0.00e+00	92	29	0	479199232	48	6399
2026-01-14 18:48:57.81	1.32	14.86	-38.0	-39.0	23.3	0.00e+00	69	29	0	484442112	48	6401
2026-01-14 18:49:00.83	0.70	14.93	-38.0	-38.9	23.3	0.00e+00	0	29	0	490733568	48	6366
2026-01-14 18:49:03.86	0.08	15.00	-38.3	-39.2	23.0	0.00e+00	92	29	0	495976448	48	6606
2026-01-14 18:49:06.88	359.45	15.06	-38.2	-39.1	23.1	0.00e+00	0	29	0	502267904	48	6523
2026-01-14 18:49:09.91	358.82	15.12	-38.6	-39.6	22.6	0.00e+00	63	29	0	507510784	48	6919
2026-01-14 18:49:12.94	358.18	15.18	-38.6	-39.6	22.6	0.00e+00	19	29	0	512753664	48	6899
2026-01-14 18:49:15.97	357.55	15.23	-38.0	-39.0	23.1	0.00e+00	87	29	0	519045120	48	6396
2026-01-14 18:49:19.00	356.91	15.28	-38.0	-39.0	23.2	0.00e+00	0	29	0	524288000	48	6403
2026-01-14 18:49:22.02	356.27	15.33	-37.8	-38.7	23.4	0.00e+00	0	29	0	530579456	48	6216
2026-01-14 18:49:25.05	355.63	15.37	-37.9	-38.8	23.3	0.00e+00	92	29	0	535822336	48	6307
2026-01-14 18:49:28.08	354.98	15.41	-38.3	-39.3	22.9	0.00e+00	20	29	0	541065216	48	6630
2026-01-14 18:49:31.11	354.34	15.44	-38.1	-39.0	23.2	0.00e+00	0	29	0	547356672	48	6420
2026-01-14 18:49:34.13	353.69	15.47	-38.2	-39.2	23.0	0.00e+00	92	29	0	552599552	48	6546
2026-01-14 18:49:37.16	353.04	15.50	-38.3	-39.3	23.0	0.00e+00	64	29	0	558891008	48	6625
2026-01-14 18:49:40.19	352.40	15.52	-38.2	-39.1	23.1	0.00e+00	0	29	0	564133888	48	6530
2026-01-14 18:49:43.22	351.74	15.54	-38.2	-39.2	23.0	0.00e+00	47	29	0	570425344	48	6592
2026-01-14 18:49:46.25	351.09	15.56	-38.5	-39.4	22.8	0.00e+00	0	29	0	575668224	48	6760
2026-01-14 18:49:49.28	350.44	15.57	-38.2	-39.2	23.0	0.00e+00	1	29	0	580911104	48	6557
2026-01-14 18:49:52.31	349.79	15.58	-38.1	-39.0	23.1	0.00e+00	17	29	0	587202560	48	6433
2026-01-14 18:49:55.34	349.14	15.59	-38.1	-39.1	23.1	0.00e+00	92	29	0	592445440	48	6503
2026-01-14 18:49:58.37	348.48	15.59	-38.2	-39.1	23.0	0.00e+00	0	29	0	598736896	48	6509
2026-01-14 18:50:01.40	347.83	15.59	-38.3	-39.3	22.9	0.00e+00	63	29	0	603979776	48	6648
2026-01-14 18:50:04.43	347.18	15.58	-38.0	-38.9	23.2	0.00e+00	91	29	0	609222656	48	6383
2026-01-14 18:50:07.46	346.52	15.57	-38.1	-39.0	23.1	0.00e+00	6	29	0	615514112	48	6456
2026-01-14 18:50:10.49	345.87	15.56	-38.3	-39.3	22.9	0.00e+00	6	29	0	620756992	48	6624
2026-01-14 18:50:13.52	345.22	15.54	-38.4	-39.4	22.7	0.00e+00	90	29	0	627048448	48	6715
2026-01-14 18:50:16.55	344.57	15.52	-38.5	-39.5	22.6	0.00e+00	17	29	0	632291328	48	6825
2026-01-14 18:50:19.58	343.92	15.49	-38.4	-39.4	22.8	0.00e+00	75	29	0	638582784	48	6760
2026-01-14 18:50:22.61	343.27	15.47	-38.3	-39.3	22.9	0.00e+00	2	29	0	643825664	48	6635
2026-01-14 18:50:25.64	342.63	15.43	-38.1	-39.1	23.1	0.00e+00	0	29	0	649068544	48	6465
2026-01-14 18:50:28.66	341.98	15.40	-38.3	-39.3	22.8	0.00e+00	14	29	0	655360000	48	6630
2026-01-14 18:50:31.69	341.34	15.36	-38.4	-39.4	22.8	0.00e+00	4	29	0	660602880	48	6724
2026-01-14 18:50:34.72	340.70	15.32	-38.4	-39.5	22.6	0.00e+00	90	29	0	666894336	48	6771
2026-01-14 18:50:37.75	340.06	15.27	-38.1	-39.1	23.0	0.00e+00	69	29	0	672137216	48	6513
2026-01-14 18:50:40.78	339.42	15.22	-38.0	-39.0	23.1	0.00e+00	0	29	0	677380096	48	6455
2026-01-14 18:50:43.81	338.78	15.17	-37.9	-38.8	23.3	0.00e+00	92	29	0	683671552	48	6304
2026-01-14 18:50:46.84	338.15	15.11	-37.8	-38.8	23.4	0.00e+00	0	29	0	688914432	48	6255
2026-01-14 18:50:49.87	337.52	15.05	-37.8	-38.8	23.4	0.00e+00	16	29	0	695205888	48	6256
2026-01-14 18:50:52.90	336.89	14.99	-38.2	-39.1	23.0	0.00e+00	82	29	0	700448768	48	6536
2026-01-14 18:50:55.93	336.26	14.92	-38.2	-39.1	23.0	0.00e+00	0	29	0	706740224	48	6524
2026-01-14 18:50:58.96	335.64	14.85	-38.2	-39.1	23.1	0.00e+00	4	29	0	711983104	48	6519
2026-01-14 18:51:01.99	335.02	14.78	-38.2	-39.1	23.0	0.00e+00	0	29	0	717225984	48	6515
2026-01-14 18:51:05.01	334.41	14.70	-38.1	-39.1	23.0	0.00e+00	92	29	0	723517440	48	6474
2026-01-14 18:51:08.04	333.79	14.62	-38.3	-39.3	22.8	0.00e+00	0	29	0	728760320	48	6645
2026-01-14 18:51:11.07	333.18	14.54	-38.5	-39.5	22.6	0.00e+00	19	29	0	735051776	48	6825
2026-01-14 18:51:14.10	332.58	14.45	-38.7	-39.7	22.5	0.00e+00	92	29	0	740294656	48	6969
2026-01-14 18:51:17.12	331.98	14.37	-38.6	-39.5	22.7	0.00e+00	67	29	0	745537536	50	6101
2026-01-14 18:51:20.15	331.38	14.28	-38.6	-39.6	22.7	0.00e+00	62	29	0	751828992	50	6132
2026-01-14 18:51:23.18	330.78	14.18	-38.5	-39.5	22.8	0.00e+00	68	29	0	757071872	50	6066
2026-01-14 18:51:26.21	330.19	14.09	-38.3	-39.2	23.0	0.00e+00	0	29	0	763363328	50	5892
2026-01-14 18:51:29.24	329.60	13.99	-38.1	-39.1	23.0	0.00e+00	0	29	0	768606208	50	5773
2026-01-14 18:51:32.27	329.02	13.88	-38.1	-39.0	23.1	0.00e+00	29	29	0	774897664	50	5754
2026-01-14 18:51:35.29	328.44	13.78	-38.4	-39.3	22.8	0.00e+00	16	29	0	780140544	50	5964
2026-01-14 18:51:38.32	327.86	13.67	-38.1	-39.1	23.1	0.00e+00	0	29	0	785383424	50	5801
2026-01-14 18:51:41.35	327.29	13.57	-38.2	-39.2	23.0	0.00e+00	70	29	0	791674880	50	5853
2026-01-14 18:51:44.38	326.73	13.45	-38.2	-39.2	22.9	0.00e+00	92	29	0	796917760	50	5869
2026-01-14 18:51:47.41	326.16	13.34	-38.2	-39.2	22.9	0.00e+00	0	29	0	803209216	50	5859
2026-01-14 18:51:50.43	325.61	13.23	-38.3	-39.3	23.0	0.00e+00	6	29	0	808452096	50	5897
2026-01-14 18:51:53.47	325.05	13.11	-38.1	-39.1	23.1	0.00e+00	90	29	0	813694976	50	5775
2026-01-14 18:51:56.50	324.50	12.99	-38.1	-39.1	23.1	0.00e+00	6	29	0	819986432	50	5782
2026-01-14 18:51:59.52	323.96	12.87	-38.1	-39.1	23.1	0.00e+00	72	29	0	825229312	50	5765
2026-01-14 18:52:02.56	323.42	12.74	-38.2	-39.2	23.0	0.00e+00	69	29	0	831520768	50	5841
2026-01-14 18:52:05.58	322.88	12.62	-38.6	-39.6	22.6	0.00e+00	0	29	0	836763648	50	6157
2026-01-14 18:52:08.61	322.35	12.49	-38.9	-39.9	22.3	0.00e+00	1	29	0	843055104	50	6372
2026-01-14 18:52:11.64	321.83	12.36	-39.0	-40.1	22.2	0.00e+00	0	29	0	848297984	50	6470
2026-01-14 18:52:14.66	321.31	12.23	-39.1	-40.1	22.1	0.00e+00	92	29	0	853540864	50	6516
2026-01-14 18:52:17.69	320.79	12.10	-39.2	-40.2	22.0	0.00e+00	4	29	0	859832320	50	6611
2026-01-14 18:52:20.72	320.28	11.96	-39.5	-40.6	21.7	0.00e+00	67	29	0	865075200	50	6857
2026-01-14 18:52:23.75	319.77	11.83	-39.7	-40.9	21.4	0.00e+00	92	29	0	871366656	50	7119
2026-01-14 18:52:26.78	319.27	11.69	-40.1	-41.3	21.1	0.00e+00	2	29	0	876609536	52	6669
2026-01-14 18:52:29.81	318.77	11.55	-40.3	-41.6	20.8	0.00e+00	0	29	0	881852416	52	6854
2026-01-14 18:52:32.84	318.27	11.41	-40.3	-41.5	20.9	0.00e+00	91	29	0	888143872	52	6797
2026-01-14 18:52:35.87	317.79	11.27	-40.4	-41.6	20.8	0.00e+00	0	29	0	893386752	52	6895
2026-01-14 18:52:38.90	317.30	11.13	-40.5	-41.8	20.6	0.00e+00	0	29	0	899678208	52	7043
2026-01-14 18:52:41.92	316.83	10.99	-40.8	-42.2	20.2	0.00e+00	13	29	0	904921088	54	6544
2026-01-14 18:52:44.95	316.35	10.84	-40.8	-42.2	20.2	0.00e+00	0	29	0	910163968	54	6547
2026-01-14 18:52:47.98	315.88	10.70	-41.2	-42.6	19.7	0.00e+00	69	29	0	916455424	54	6919
2026-01-14 18:52:51.00	315.42	10.55	-40.9	-42.2	20.0	0.00e+00	0	29	0	921698304	54	6614
2026-01-14 18:52:54.03	314.96	10.41	-41.0	-42.4	19.9	0.00e+00	92	29	0	927989760	54	6756
2026-01-14 18:52:57.06	314.50	10.26	-41.1	-42.5	19.9	0.00e+00	2	29	0	933232640	54	6802
2026-01-14 18:53:00.08	314.05	10.11	-40.9	-42.3	20.0	0.00e+00	2	29	0	939524096	54	6660
2026-01-14 18:53:03.11	313.61	9.96	-41.0	-42.3	20.0	0.00e+00	91	29	0	944766976	54	6686
2026-01-14 18:53:06.14	313.17	9.81	-41.2	-42.6	19.7	0.00e+00	0	29	0	950009856	54	6894
2026-01-14 18:53:09.17	312.73	9.66	-41.2	-42.6	19.6	0.00e+00	0	29	0	956301312	54	6903
2026-01-14 18:53:12.20	312.30	9.51	-40.6	-41.9	20.3	0.00e+00	91	29	0	961544192	54	6383
2026-01-14 18:53:15.22	311.87	9.35	-40.6	-41.9	20.4	0.00e+00	0	29	0	967835648	54	6363
2026-01-14 18:53:18.25	311.45	9.20	-40.4	-41.7	20.5	0.00e+00	0	29	0	973078528	54	6199
2026-01-14 18:53:21.28	311.03	9.05	-40.4	-41.6	20.6	0.00e+00	11	29	0	978321408	54	6155
2026-01-14 18:53:24.30	310.62	8.89	-40.3	-41.5	20.7	0.00e+00	0	29	0	984612864	54	6085
2026-01-14 18:53:27.33	310.21	8.74	-40.3	-41.5	20.7	0.00e+00	73	29	0	989855744	54	6076
2026-01-14 18:53:30.35	309.80	8.58	-40.3	-41.5	20.7	0.00e+00	2	29	0	996147200	54	6079
2026-01-14 18:53:33.38	309.40	8.43	-40.1	-41.3	20.8	0.00e+00	90	29	0	1001390080	54	5924
2026-01-14 18:53:36.41	309.01	8.27	-39.7	-40.9	21.3	0.00e+00	6	29	0	1007681536	52	6334
2026-01-14 18:53:39.44	308.61	8.12	-39.4	-40.6	21.6	0.00e+00	0	29	0	1012924416	52	6120
2026-01-14 18:53:42.46	308.23	7.96	-39.4	-40.5	21.6	0.00e+00	91	29	0	1018167296	52	6056
2026-01-14 18:53:45.49	307.84	7.80	-39.2	-40.3	21.8	0.00e+00	6	29	0	1024458752	52	5900
2026-01-14 18:53:48.52	307.46	7.65	-39.1	-40.2	21.8	0.00e+00	9	29	0	1029701632	52	5844
2026-01-14 18:53:51.55	307.09	7.49	-39.0	-40.1	22.0	0.00e+00	92	29	0	1035993088	52	5792
2026-01-14 18:53:54.57	306.72	7.33	-38.9	-40.0	21.8	0.00e+00	0	29	0	1041235968	52	5719
2026-01-14 18:53:57.60	306.35	7.18	-38.9	-40.0	22.0	0.00e+00	81	29	0	1046478848	52	5704
2026-01-14 18:54:00.62	305.99	7.02	-39.0	-40.0	21.9	0.00e+00	0	29	0	1052770304	52	5747
2026-01-14 18:54:03.66	305.63	6.86	-38.9	-40.0	21.9	0.00e+00	91	29	0	1058013184	52	5737
2026-01-14 18:54:06.69	305.27	6.70	-39.2	-40.3	21.7	0.00e+00	12	29	0	1064304640	52	5936
2026-01-14 18:54:09.71	304.92	6.55	-39.0	-40.1	21.9	0.00e+00	11	29	0	1069547520	52	5788
2026-01-14 18:54:12.74	304.58	6.39	-39.0	-40.1	21.7	0.00e+00	92	29	0	1074790400	52	5764
2026-01-14 18:54:15.77	304.23	6.23	-39.1	-40.2	21.7	0.00e+00	0	29	0	1081081856	52	5894
2026-01-14 18:54:18.80	303.89	6.07	-39.3	-40.4	21.5	0.00e+00	71	29	0	1086324736	52	6012
2026-01-14 18:54:21.83	303.56	5.91	-39.5	-40.6	21.3	0.00e+00	92	29	0	1092616192	52	6171
2026-01-14 18:54:24.86	303.22	5.76	-39.7	-40.9	21.1	0.00e+00	0	29	0	1097859072	52	6351
2026-01-14 18:54:27.88	302.90	5.60	-39.4	-40.6	21.2	0.00e+00	5	29	0	1104150528	52	6134
2026-01-14 18:54:30.91	302.57	5.44	-39.4	-40.6	21.2	0.00e+00	6	29	0	1109393408	52	6150
2026-01-14 18:54:33.94	302.25	5.28	-39.4	-40.6	21.2	0.00e+00	0	29	0	1114636288	52	6132
2026-01-14 18:54:36.97	301.93	5.13	-39.7	-40.9	21.0	0.00e+00	71	29	0	1120927744	52	6337
2026-01-14 18:54:39.99	301.62	4.97	-40.1	-41.4	20.4	0.00e+00	71	29	0	1126170624	52	6745
2026-01-14 18:54:43.02	301.31	4.81	-40.0	-41.3	20.5	0.00e+00	91	29	0	1132462080	52	6624
2026-01-14 18:54:46.05	301.00	4.65	-40.3	-41.6	20.1	0.00e+00	0	29	0	1137704960	52	6890
2026-01-14 18:54:49.08	300.70	4.50	-40.3	-41.7	20.1	0.00e+00	0	29	0	1142947840	52	6955
2026-01-14 18:54:52.10	300.40	4.34	-40.7	-42.2	19.5	0.00e+00	92	29	0	1149239296	54	6576
2026-01-14 18:54:55.12	300.10	4.18	-40.5	-42.0	19.7	0.00e+00	77	29	0	1154482176	54	6406
2026-01-14 18:54:58.15	299.81	4.03	-40.6	-42.0	19.6	0.00e+00	0	29	0	1160773632	54	6458
2026-01-14 18:55:01.17	299.52	3.87	-40.8	-42.3	19.4	0.00e+00	90	29	0	1166016512	54	6623
2026-01-14 18:55:04.20	299.23	3.72	-41.0	-42.5	19.2	0.00e+00	0	29	0	1171259392	54	6810
2026-01-14 18:55:07.23	298.94	3.56	-41.2	-42.9	18.7	0.00e+00	0	29	0	1177550848	54	7113
2026-01-14 18:55:10.26	298.66	3.40	-41.3	-43.0	18.5	0.00e+00	2	29	0	1182793728	54	7218
2026-01-14 18:55:13.29	298.38	3.25	-41.4	-43.1	18.4	0.00e+00	0	29	0	1189085184	54	7317
2026-01-14 18:55:16.32	298.11	3.09	-41.4	-43.1	18.4	0.00e+00	8	29	0	1194328064	54	7308
2026-01-14 18:55:19.35	297.84	2.94	-48.2	-63.3	3.6	1.51e+00	0	29	104	1198522368	60	53063
2026-01-14 18:55:22.37	297.57	2.78	-48.8	-64.0	3.6	1.51e+00	0	29	104	1198522368	60	57214
2026-01-14 18:55:25.40	297.30	2.63	-48.9	-64.1	3.6	1.51e+00	0	29	104	1198522368	60	58153
2026-01-14 18:55:28.43	297.04	2.48	-48.9	-64.2	3.5	1.51e+00	0	29	104	1198522368	60	58547
2026-01-14 18:55:31.46	296.78	2.32	-48.8	-64.1	3.6	1.51e+00	0	29	104	1198522368	60	57853
2026-01-14 18:55:34.49	296.52	2.17	-48.8	-64.0	3.6	1.51e+00	0	29	104	1198522368	60	57156
2026-01-14 18:55:37.52	296.26	2.02	-49.0	-64.1	3.6	1.51e+00	0	29	104	1198522368	60	58176
2026-01-14 18:55:40.55	296.01	1.86	-48.9	-64.1	3.6	1.51e+00	0	29	104	1198522368	60	57640
2026-01-14 18:55:43.58	295.76	1.71	-48.9	-64.0	3.6	1.51e+00	0	29	104	1198522368	60	57540
2026-01-14 18:55:46.61	295.51	1.56	-48.9	-64.0	3.6	1.51e+00	0	29	104	1198522368	60	57307
2026-01-14 18:55:49.64	295.27	1.41	-48.9	-64.1	3.6	1.51e+00	0	29	104	1198522368	60	57744
2026-01-14 18:55:52.67	295.03	1.25	-48.9	-64.0	3.6	1.51e+00	0	29	104	1198522368	60	57425
2026-01-14 18:55:55.69	294.79	1.10	-48.8	-64.0	3.6	1.51e+00	0	29	104	1198522368	60	57054
2026-01-14 18:55:58.72	294.55	0.95	-48.8	-64.0	3.6	1.51e+00	0	29	104	1198522368	60	57554
2026-01-14 18:56:01.75	294.32	0.80	-48.8	-64.0	3.6	1.51e+00	0	29	104	1198522368	60	57403
2026-01-14 18:56:04.78	294.09	0.65	-48.8	-64.0	3.6	1.51e+00	0	29	104	1198522368	60	57316
2026-01-14 18:56:07.81	293.86	0.50	-48.8	-64.0	3.6	1.51e+00	0	29	104	1198522368	60	57262
2026-01-14 18:56:10.84	293.63	0.35	-48.8	-64.0	3.6	1.51e+00	0	29	104	1198522368	60	57105
2026-01-14 18:56:13.88	293.40	0.20	-48.8	-63.9	3.6	1.51e+00	0	29	104	1198522368	60	56856
2026-01-14 18:56:16.91	293.18	0.05	-48.8	-64.0	3.6	1.51e+00	0	29	104	1198522368	60	57298
2026-01-14 18:56:19.93	292.96	-0.10	-48.8	-64.0	3.6	1.51e+00	0	29	104	1198522368	60	57089

#Closed at: 2026-01-14 18:56:20
#Recorded file [1198 MB]: D:/lorett/data/35029_260115_064339.dat