passes_logs/2026/01/14/R4.6S_Anadyr/R4.6S_Anadyr__20260114_160226_FENGYUN_3D_rec.log

#Pass ID: 20260114_160226_FENGYUN 3D
#Satellite: FENGYUN 3D
#Configuration: FENGYUN 3D
#almurnet v.1.7.20251203
#Start time: 2026-01-14 16:02:30

#Version: 2.2.20231116
#Station: R4.6S_Anadyr
#Location: 177.4865 lon 64.73178 lat
#TLE: 1 43010U 17072A   26013.94640698 -.00000044  00000+0  88349-6 0  9999
#TLE: 2 43010  98.9934 345.7464 0002313 110.9627 249.1796 14.19695403423100

#Time	Az	El	Level	Level2	SNR	BER	BlckErr	Temp	State	Recorded	gain1	gain2
2026-01-14 16:02:30.18	19.90	0.19	-48.7	-59.4	3.3	8.39e-01	0	27	0	0	60	33839
2026-01-14 16:02:34.21	20.01	0.43	-48.7	-60.8	3.6	8.46e-01	0	27	104	0	60	39806
2026-01-14 16:02:38.25	20.12	0.67	-48.4	-60.4	3.6	8.45e-01	0	27	104	0	60	38024
2026-01-14 16:02:42.29	20.24	0.91	-47.4	-59.5	3.6	8.45e-01	0	27	104	0	60	34002
2026-01-14 16:02:46.33	20.35	1.16	-47.2	-59.2	3.6	8.46e-01	0	27	104	0	60	33105
2026-01-14 16:02:50.37	20.47	1.40	-47.2	-59.1	3.6	8.45e-01	0	27	104	0	60	32561
2026-01-14 16:02:54.41	20.59	1.65	-47.1	-59.2	3.6	8.46e-01	0	27	104	0	60	32807
2026-01-14 16:02:58.45	20.71	1.90	-47.2	-59.1	3.6	8.44e-01	0	27	104	0	60	32727
2026-01-14 16:03:02.49	20.83	2.15	-47.1	-58.5	3.6	8.46e-01	0	28	104	0	60	30284
2026-01-14 16:03:06.53	20.96	2.40	-46.8	-56.0	3.8	8.40e-01	0	28	0	0	60	22895
2026-01-14 16:03:10.57	21.08	2.66	-46.4	-52.4	5.0	8.17e-01	0	28	0	0	60	15036
2026-01-14 16:03:14.60	21.21	2.92	-39.9	-41.2	17.0	0.00e+00	0	28	0	20971520	54	5890
2026-01-14 16:03:18.64	21.34	3.18	-36.7	-37.6	20.7	0.00e+00	0	28	0	44040192	46	6110
2026-01-14 16:03:22.69	21.48	3.44	-37.8	-38.8	19.3	0.00e+00	0	28	0	67108864	46	7035
2026-01-14 16:03:26.72	21.61	3.70	-43.1	-45.6	12.0	0.00e+00	0	28	0	89128960	54	9743
2026-01-14 16:03:30.76	21.75	3.97	-44.2	-47.2	12.1	4.47e-01	0	28	104	105906176	60	8282
2026-01-14 16:03:34.80	21.89	4.24	-40.4	-41.7	16.7	0.00e+00	0	28	0	127926272	54	6219
2026-01-14 16:03:38.84	22.03	4.51	-36.6	-37.5	20.9	0.00e+00	0	28	0	150994944	46	6080
2026-01-14 16:03:42.87	22.17	4.79	-35.5	-36.3	22.0	0.00e+00	0	28	0	173015040	44	5937
2026-01-14 16:03:46.91	22.32	5.07	-35.3	-36.1	22.3	0.00e+00	0	28	0	196083712	44	5783
2026-01-14 16:03:50.95	22.46	5.35	-34.9	-35.6	22.7	0.00e+00	0	28	0	219152384	44	5478
2026-01-14 16:03:54.99	22.61	5.63	-35.0	-35.8	22.7	0.00e+00	0	28	0	241172480	44	5592
2026-01-14 16:03:59.03	22.77	5.92	-34.8	-35.5	23.0	0.00e+00	0	28	0	264241152	42	6059
2026-01-14 16:04:03.07	22.92	6.21	-34.6	-35.3	23.2	0.00e+00	0	28	0	287309824	42	5948
2026-01-14 16:04:07.11	23.08	6.50	-34.3	-35.0	23.5	0.00e+00	0	28	0	309329920	42	5755
2026-01-14 16:04:11.15	23.24	6.80	-34.3	-35.0	23.4	0.00e+00	0	28	0	332398592	42	5747
2026-01-14 16:04:15.19	23.41	7.10	-34.3	-35.0	23.6	0.00e+00	0	28	0	355467264	42	5745
2026-01-14 16:04:19.23	23.58	7.40	-34.2	-34.9	23.7	0.00e+00	0	28	0	377487360	42	5651
2026-01-14 16:04:23.26	23.75	7.71	-34.2	-34.9	23.7	0.00e+00	0	28	0	400556032	42	5672
2026-01-14 16:04:27.30	23.92	8.02	-34.0	-34.7	24.0	0.00e+00	0	28	0	423624704	42	5536
2026-01-14 16:04:31.34	24.10	8.33	-33.9	-34.6	24.1	0.00e+00	0	28	0	445644800	42	5470
2026-01-14 16:04:35.38	24.28	8.65	-33.7	-34.4	24.4	0.00e+00	0	28	0	468713472	40	5973
2026-01-14 16:04:39.41	24.46	8.97	-33.6	-34.3	24.4	0.00e+00	0	28	0	491782144	40	5948
2026-01-14 16:04:43.45	24.65	9.30	-33.5	-34.1	24.5	0.00e+00	0	28	0	513802240	40	5824
2026-01-14 16:04:47.49	24.84	9.62	-33.3	-34.0	24.7	0.00e+00	0	28	0	536870912	40	5710
2026-01-14 16:04:51.53	25.04	9.96	-33.3	-34.0	24.8	0.00e+00	0	28	0	559939584	40	5697
2026-01-14 16:04:55.57	25.24	10.30	-33.3	-34.0	24.7	0.00e+00	0	28	0	581959680	40	5721
2026-01-14 16:04:59.60	25.44	10.64	-33.1	-33.8	24.9	0.00e+00	0	28	0	605028352	40	5598
2026-01-14 16:05:03.64	25.65	10.98	-33.2	-33.8	24.9	0.00e+00	0	28	0	628097024	40	5620
2026-01-14 16:05:07.68	25.87	11.34	-33.2	-33.9	24.9	0.00e+00	0	28	0	650117120	40	5665
2026-01-14 16:05:11.72	26.08	11.69	-33.1	-33.8	25.0	0.00e+00	0	28	0	673185792	40	5576
2026-01-14 16:05:15.75	26.31	12.05	-33.2	-33.9	24.9	0.00e+00	0	28	0	696254464	40	5651
2026-01-14 16:05:19.79	26.53	12.42	-33.1	-33.8	25.0	0.00e+00	0	28	0	718274560	40	5580
2026-01-14 16:05:23.83	26.77	12.79	-32.9	-33.6	25.3	0.00e+00	0	28	0	741343232	40	5443
2026-01-14 16:05:27.87	27.01	13.17	-32.9	-33.6	25.3	0.00e+00	0	28	0	764411904	40	5451
2026-01-14 16:05:31.91	27.25	13.55	-32.8	-33.5	25.4	0.00e+00	0	28	0	786432000	40	5385
2026-01-14 16:05:35.94	27.50	13.94	-32.8	-33.4	25.5	0.00e+00	0	28	0	809500672	40	5365
2026-01-14 16:05:39.98	27.76	14.33	-32.7	-33.3	25.5	0.00e+00	0	28	0	831520768	38	5957
2026-01-14 16:05:44.02	28.02	14.73	-32.4	-33.1	25.8	0.00e+00	0	28	0	854589440	38	5792
2026-01-14 16:05:48.06	28.29	15.14	-32.4	-33.1	25.8	0.00e+00	0	28	0	877658112	38	5778
2026-01-14 16:05:52.09	28.57	15.55	-32.3	-32.9	26.0	0.00e+00	0	28	0	900726784	38	5653
2026-01-14 16:05:56.13	28.85	15.97	-32.1	-32.7	26.1	0.00e+00	0	28	0	922746880	38	5532
2026-01-14 16:06:00.17	29.15	16.40	-31.8	-32.4	26.4	0.00e+00	0	28	0	945815552	36	6023
2026-01-14 16:06:04.20	29.44	16.83	-31.4	-32.0	26.7	0.00e+00	0	28	0	968884224	36	5758
2026-01-14 16:06:08.25	29.75	17.27	-31.4	-32.0	26.7	0.00e+00	0	28	0	990904320	36	5737
2026-01-14 16:06:12.28	30.07	17.71	-31.4	-32.1	26.7	0.00e+00	0	28	0	1013972992	36	5789
2026-01-14 16:06:16.32	30.40	18.17	-31.5	-32.1	26.7	0.00e+00	0	29	0	1035993088	36	5776
2026-01-14 16:06:20.36	30.73	18.63	-31.1	-31.8	26.9	0.00e+00	0	28	0	1059061760	36	5582
2026-01-14 16:06:24.40	31.08	19.10	-31.3	-32.0	26.8	0.00e+00	0	28	0	1082130432	36	5702
2026-01-14 16:06:28.43	31.43	19.58	-31.2	-31.8	27.0	0.00e+00	0	28	0	1104150528	36	5602
2026-01-14 16:06:32.47	31.80	20.07	-31.1	-31.7	27.1	0.00e+00	0	28	0	1127219200	36	5554
2026-01-14 16:06:36.51	32.18	20.56	-30.8	-31.4	27.3	0.00e+00	0	28	0	1150287872	36	5355
2026-01-14 16:06:40.54	32.56	21.07	-30.7	-31.3	27.4	0.00e+00	0	28	0	1173356544	34	5952
2026-01-14 16:06:44.58	32.97	21.58	-30.9	-31.4	27.2	0.00e+00	0	28	0	1195376640	34	6031
2026-01-14 16:06:48.62	33.38	22.10	-30.5	-31.1	27.5	0.00e+00	0	28	0	1218445312	34	5807
2026-01-14 16:06:52.66	33.81	22.63	-30.5	-31.1	27.5	0.00e+00	0	28	0	1240465408	34	5808
2026-01-14 16:06:56.70	34.25	23.18	-30.4	-31.0	27.6	0.00e+00	0	28	0	1263534080	34	5736
2026-01-14 16:07:00.74	34.71	23.73	-30.1	-30.7	27.8	0.00e+00	0	28	0	1286602752	34	5518
2026-01-14 16:07:04.78	35.19	24.29	-30.2	-30.8	27.7	0.00e+00	0	28	0	1308622848	34	5630
2026-01-14 16:07:08.82	35.68	24.86	-30.1	-30.7	27.8	0.00e+00	0	28	0	1331691520	34	5547
2026-01-14 16:07:12.86	36.19	25.44	-30.1	-30.7	27.8	0.00e+00	0	28	0	1354760192	34	5530
2026-01-14 16:07:16.90	36.71	26.04	-30.0	-30.6	27.9	0.00e+00	0	28	0	1377828864	34	5462
2026-01-14 16:07:20.93	37.26	26.64	-30.0	-30.6	27.9	0.00e+00	0	28	0	1399848960	34	5500
2026-01-14 16:07:24.97	37.83	27.26	-29.9	-30.5	28.0	0.00e+00	0	28	0	1422917632	34	5415
2026-01-14 16:07:29.00	38.41	27.88	-29.9	-30.5	28.0	0.00e+00	0	28	0	1444937728	34	5422
2026-01-14 16:07:33.04	39.03	28.52	-29.7	-30.3	28.2	0.00e+00	0	28	0	1468006400	32	5959
2026-01-14 16:07:37.08	39.66	29.17	-30.0	-30.6	27.9	0.00e+00	0	28	0	1491075072	32	6134
2026-01-14 16:07:41.12	40.32	29.83	-29.9	-30.5	28.0	0.00e+00	0	28	0	1513095168	32	6096
2026-01-14 16:07:45.15	41.01	30.50	-29.8	-30.4	28.1	0.00e+00	0	28	0	1536163840	32	6017
2026-01-14 16:07:49.19	41.73	31.19	-29.6	-30.2	28.3	0.00e+00	0	28	0	1559232512	32	5862
2026-01-14 16:07:53.23	42.48	31.88	-29.7	-30.3	28.2	0.00e+00	0	28	0	1581252608	32	5899
2026-01-14 16:07:57.27	43.26	32.59	-29.5	-30.1	28.4	0.00e+00	0	28	0	1604321280	32	5781
2026-01-14 16:08:01.30	44.07	33.30	-29.7	-30.2	28.3	0.00e+00	0	28	0	1627389952	32	5893
2026-01-14 16:08:05.34	44.92	34.03	-29.7	-30.3	28.3	0.00e+00	0	28	0	1649410048	32	5933
2026-01-14 16:08:09.38	45.81	34.77	-29.5	-30.1	28.4	0.00e+00	0	28	0	1672478720	32	5810
2026-01-14 16:08:13.41	46.74	35.52	-29.4	-30.0	28.3	0.00e+00	0	28	0	1695547392	32	5749
2026-01-14 16:08:17.45	47.72	36.28	-29.4	-29.9	28.5	0.00e+00	0	28	0	1717567488	32	5690
2026-01-14 16:08:21.48	48.73	37.04	-29.0	-29.6	28.8	0.00e+00	0	28	0	1740636160	32	5452
2026-01-14 16:08:25.52	49.80	37.82	-29.6	-30.3	28.3	0.00e+00	0	28	0	1763704832	32	5924
2026-01-14 16:08:29.56	50.92	38.60	-29.2	-29.8	28.5	0.00e+00	0	28	0	1785724928	32	5609
2026-01-14 16:08:33.59	52.09	39.38	-29.3	-30.0	28.5	0.00e+00	0	28	0	1808793600	32	5702
2026-01-14 16:08:37.64	53.32	40.18	-29.2	-29.8	28.6	0.00e+00	0	28	0	1830813696	32	5573
2026-01-14 16:08:41.67	54.61	40.97	-29.6	-30.2	28.4	0.00e+00	0	28	0	1853882368	32	5830
2026-01-14 16:08:45.71	55.97	41.76	-29.6	-30.2	28.3	0.00e+00	0	28	0	1876951040	32	5851
2026-01-14 16:08:49.75	57.39	42.56	-29.5	-30.1	28.4	0.00e+00	0	28	0	1900019712	32	5817
2026-01-14 16:08:53.79	58.88	43.35	-29.5	-30.1	28.4	0.00e+00	0	28	0	1922039808	32	5804
2026-01-14 16:08:57.82	60.45	44.13	-29.7	-30.4	28.2	0.00e+00	0	28	0	1945108480	32	5965
2026-01-14 16:09:01.86	62.10	44.91	-29.6	-30.1	28.2	0.00e+00	0	28	0	1968177152	32	5826
2026-01-14 16:09:05.90	63.82	45.67	-29.7	-30.3	28.2	0.00e+00	0	28	0	1990197248	32	5951
2026-01-14 16:09:09.93	65.63	46.42	-30.2	-30.8	27.8	0.00e+00	0	28	0	2013265920	32	6298
2026-01-14 16:09:13.97	67.53	47.15	-29.8	-30.4	28.2	0.00e+00	0	28	0	2035286016	32	5991
2026-01-14 16:09:18.01	69.52	47.86	-29.6	-30.2	28.3	0.00e+00	0	28	0	2058354688	32	5868
2026-01-14 16:09:22.05	71.59	48.54	-29.7	-30.3	28.3	0.00e+00	0	28	0	2081423360	32	5911
2026-01-14 16:09:26.08	73.76	49.19	-29.9	-30.5	28.0	0.00e+00	0	28	0	2103443456	32	6070
2026-01-14 16:09:30.12	76.02	49.81	-29.7	-30.3	28.2	0.00e+00	0	28	0	2126512128	32	5955
2026-01-14 16:09:34.16	78.36	50.38	-30.4	-31.0	27.8	0.00e+00	0	28	0	2149580800	32	6442
2026-01-14 16:09:38.20	80.80	50.91	-30.2	-30.8	28.0	0.00e+00	0	29	0	2172649472	32	6261
2026-01-14 16:09:42.24	83.32	51.39	-30.1	-30.7	27.9	0.00e+00	0	28	0	2194669568	32	6212
2026-01-14 16:09:46.27	85.91	51.81	-30.6	-31.3	27.7	0.00e+00	0	28	0	2217738240	32	6617
2026-01-14 16:09:50.31	88.57	52.18	-30.5	-31.1	27.7	0.00e+00	0	28	0	2239758336	32	6506
2026-01-14 16:09:54.35	91.30	52.49	-30.1	-30.8	27.9	0.00e+00	0	28	0	2262827008	32	6251
2026-01-14 16:09:58.39	94.08	52.73	-30.1	-30.7	27.9	0.00e+00	0	28	0	2285895680	32	6202
2026-01-14 16:10:02.42	96.89	52.90	-30.8	-31.3	27.4	0.00e+00	0	28	0	2307915776	32	6674
2026-01-14 16:10:06.46	99.73	53.00	-30.4	-31.0	27.7	0.00e+00	0	28	0	2330984448	34	5743
2026-01-14 16:10:10.50	102.59	53.03	-30.6	-31.3	27.5	0.00e+00	0	28	0	2354053120	34	5937
2026-01-14 16:10:14.54	105.44	52.99	-30.2	-30.8	27.9	0.00e+00	0	29	0	2376073216	34	5593
2026-01-14 16:10:18.57	108.28	52.88	-30.3	-30.9	27.6	0.00e+00	0	28	0	2399141888	34	5669
2026-01-14 16:10:22.62	111.10	52.70	-30.7	-31.3	27.3	0.00e+00	0	28	0	2422210560	34	5928
2026-01-14 16:10:26.65	113.86	52.45	-30.4	-31.0	27.7	0.00e+00	0	28	0	2444230656	34	5736
2026-01-14 16:10:30.69	116.59	52.14	-30.5	-31.1	27.7	0.00e+00	0	28	0	2467299328	34	5786
2026-01-14 16:10:34.73	119.25	51.76	-30.2	-30.8	27.9	0.00e+00	0	28	0	2490368000	34	5592
2026-01-14 16:10:38.76	121.83	51.33	-30.2	-30.9	27.8	0.00e+00	0	28	0	2512388096	34	5631
2026-01-14 16:10:42.80	124.34	50.84	-30.7	-31.3	27.5	0.00e+00	0	28	0	2535456768	34	5940
2026-01-14 16:10:46.84	126.77	50.31	-29.9	-30.6	28.0	0.00e+00	0	28	0	2558525440	32	6137
2026-01-14 16:10:50.88	129.11	49.72	-30.0	-30.7	27.9	0.00e+00	0	28	0	2580545536	32	6188
2026-01-14 16:10:54.92	131.36	49.10	-29.6	-30.2	28.3	0.00e+00	0	28	0	2603614208	32	5892
2026-01-14 16:10:58.96	133.52	48.45	-29.6	-30.2	28.4	0.00e+00	0	28	0	2626682880	32	5889
2026-01-14 16:11:03.00	135.59	47.76	-30.0	-30.7	28.0	0.00e+00	0	28	0	2648702976	32	6184
2026-01-14 16:11:07.04	137.57	47.04	-30.0	-30.7	28.0	0.00e+00	0	28	0	2671771648	32	6186
2026-01-14 16:11:11.08	139.46	46.31	-29.7	-30.2	28.3	0.00e+00	0	28	0	2694840320	32	5883
2026-01-14 16:11:15.12	141.27	45.55	-30.3	-30.9	27.9	0.00e+00	0	28	0	2716860416	32	6346
2026-01-14 16:11:19.16	142.99	44.78	-29.9	-30.5	28.1	0.00e+00	0	28	0	2739929088	32	6090
2026-01-14 16:11:23.20	144.63	44.00	-29.7	-30.2	28.3	0.00e+00	0	28	0	2762997760	32	5887
2026-01-14 16:11:27.23	146.19	43.22	-29.8	-30.3	28.2	0.00e+00	0	28	0	2785017856	32	5960
2026-01-14 16:11:31.27	147.67	42.42	-29.7	-30.3	28.4	0.00e+00	0	28	0	2808086528	32	5934
2026-01-14 16:11:35.30	149.09	41.62	-29.5	-30.1	28.4	0.00e+00	0	28	0	2831155200	32	5768
2026-01-14 16:11:39.34	150.44	40.83	-29.4	-29.9	28.2	0.00e+00	0	28	0	2853175296	32	5687
2026-01-14 16:11:43.38	151.72	40.03	-29.7	-30.3	28.0	0.00e+00	0	28	0	2876243968	32	5912
2026-01-14 16:11:47.42	152.95	39.23	-29.2	-29.8	28.5	0.00e+00	0	29	0	2899312640	32	5577
2026-01-14 16:11:51.46	154.11	38.44	-29.0	-29.5	28.7	0.00e+00	0	28	0	2921332736	32	5416
2026-01-14 16:11:55.50	155.23	37.66	-29.4	-30.1	28.5	0.00e+00	0	28	0	2944401408	32	5791
2026-01-14 16:11:59.54	156.29	36.88	-29.5	-30.1	28.4	0.00e+00	0	28	0	2967470080	32	5804
2026-01-14 16:12:03.57	157.30	36.11	-29.2	-29.8	28.6	0.00e+00	0	28	0	2989490176	32	5622
2026-01-14 16:12:07.61	158.27	35.35	-29.0	-29.5	28.8	0.00e+00	0	28	0	3012558848	32	5395
2026-01-14 16:12:11.65	159.20	34.60	-29.2	-29.7	28.5	0.00e+00	0	28	0	3035627520	32	5535
2026-01-14 16:12:15.68	160.08	33.86	-29.3	-29.8	28.4	0.00e+00	0	28	0	3057647616	32	5597
2026-01-14 16:12:19.72	160.93	33.13	-29.2	-29.9	28.5	0.00e+00	0	29	0	3080716288	32	5645
2026-01-14 16:12:23.76	161.74	32.41	-29.4	-30.1	28.4	0.00e+00	0	29	0	3103784960	32	5787
2026-01-14 16:12:27.80	162.51	31.70	-29.5	-30.0	28.4	0.00e+00	0	28	0	3125805056	32	5724
2026-01-14 16:12:31.84	163.26	31.01	-29.7	-30.3	28.1	0.00e+00	0	28	0	3148873728	32	5914
2026-01-14 16:12:35.88	163.97	30.32	-29.5	-30.0	28.3	0.00e+00	0	28	0	3171942400	32	5739
2026-01-14 16:12:39.92	164.66	29.65	-29.4	-30.1	28.3	0.00e+00	0	28	0	3193962496	32	5776
2026-01-14 16:12:43.96	165.32	28.98	-29.8	-30.5	28.1	0.00e+00	0	28	0	3217031168	32	6052
2026-01-14 16:12:48.01	165.95	28.33	-29.8	-30.3	28.0	0.00e+00	0	28	0	3240099840	32	5940
2026-01-14 16:12:52.05	166.56	27.69	-29.6	-30.3	28.2	0.00e+00	0	28	0	3262119936	32	5903
2026-01-14 16:12:56.08	167.14	27.07	-29.6	-30.1	28.2	0.00e+00	0	28	0	3285188608	32	5787
2026-01-14 16:13:00.12	167.71	26.45	-29.7	-30.2	28.1	0.00e+00	0	28	0	3308257280	32	5891
2026-01-14 16:13:04.16	168.25	25.84	-29.7	-30.4	28.1	0.00e+00	0	28	0	3330277376	32	5978
2026-01-14 16:13:08.20	168.78	25.25	-29.9	-30.6	27.9	0.00e+00	0	29	0	3353346048	32	6105
2026-01-14 16:13:12.24	169.28	24.67	-29.8	-30.5	28.0	0.00e+00	0	29	0	3376414720	32	6062
2026-01-14 16:13:16.28	169.77	24.09	-30.0	-30.7	27.8	0.00e+00	0	28	0	3398434816	32	6225
2026-01-14 16:13:20.32	170.24	23.53	-30.1	-30.7	27.8	0.00e+00	0	28	0	3421503488	32	6183
2026-01-14 16:13:24.36	170.69	22.98	-30.2	-30.7	27.7	0.00e+00	0	28	0	3444572160	32	6223
2026-01-14 16:13:28.39	171.13	22.43	-30.2	-30.7	27.7	0.00e+00	0	28	0	3466592256	32	6236
2026-01-14 16:13:32.43	171.56	21.90	-30.3	-30.8	27.6	0.00e+00	0	28	0	3489660928	32	6302
2026-01-14 16:13:36.47	171.97	21.38	-30.6	-31.1	27.3	0.00e+00	0	29	0	3512729600	32	6539
2026-01-14 16:13:40.50	172.37	20.86	-30.8	-31.3	27.2	0.00e+00	0	28	0	3534749696	34	5936
2026-01-14 16:13:44.54	172.76	20.36	-30.8	-31.3	27.2	0.00e+00	0	28	0	3557818368	34	5959
2026-01-14 16:13:48.58	173.13	19.86	-30.7	-31.3	27.2	0.00e+00	0	29	0	3580887040	34	5920
2026-01-14 16:13:52.62	173.49	19.38	-30.6	-31.3	27.3	0.00e+00	0	29	0	3602907136	34	5964
2026-01-14 16:13:56.66	173.85	18.90	-30.8	-31.3	27.2	0.00e+00	0	28	0	3625975808	34	5956
2026-01-14 16:14:00.69	174.19	18.43	-31.1	-31.8	26.9	0.00e+00	0	29	0	3649044480	34	6257
2026-01-14 16:14:04.73	174.52	17.96	-31.4	-31.9	26.7	0.00e+00	0	29	0	3671064576	34	6377
2026-01-14 16:14:08.77	174.84	17.51	-31.6	-32.2	26.5	0.00e+00	0	28	0	3694133248	36	5859
2026-01-14 16:14:12.81	175.16	17.06	-31.9	-32.6	26.2	0.00e+00	0	29	0	3717201920	36	6166
2026-01-14 16:14:16.85	175.46	16.62	-32.0	-32.7	26.2	0.00e+00	0	28	0	3739222016	36	6183
2026-01-14 16:14:20.89	175.76	16.18	-32.1	-32.9	26.0	0.00e+00	0	29	0	3762290688	36	6340
2026-01-14 16:14:24.93	176.05	15.76	-32.3	-33.0	25.9	0.00e+00	0	29	0	3785359360	36	6429
2026-01-14 16:14:28.97	176.33	15.34	-32.5	-33.1	25.6	0.00e+00	0	29	0	3807379456	36	6485
2026-01-14 16:14:33.00	176.60	14.93	-32.4	-33.0	25.7	0.00e+00	0	29	0	3830448128	36	6400
2026-01-14 16:14:37.04	176.87	14.52	-32.4	-33.2	25.7	0.00e+00	0	28	0	3853516800	36	6555
2026-01-14 16:14:41.08	177.13	14.12	-32.3	-32.9	25.7	0.00e+00	0	29	0	3875536896	36	6371
2026-01-14 16:14:45.12	177.38	13.72	-32.5	-33.1	25.6	0.00e+00	0	29	0	3898605568	36	6492
2026-01-14 16:14:49.15	177.63	13.34	-32.5	-33.2	25.6	0.00e+00	0	29	0	3921674240	36	6592
2026-01-14 16:14:53.19	177.87	12.95	-32.8	-33.4	25.4	0.00e+00	0	28	0	3943694336	38	5986
2026-01-14 16:14:57.23	178.11	12.57	-32.9	-33.5	25.3	0.00e+00	0	29	0	3966763008	38	6044
2026-01-14 16:15:01.27	178.34	12.20	-33.1	-33.7	24.9	0.00e+00	0	28	0	3989831680	38	6230
2026-01-14 16:15:05.30	178.56	11.84	-33.2	-33.8	24.9	0.00e+00	0	29	0	4011851776	38	6298
2026-01-14 16:15:09.34	178.78	11.47	-33.2	-33.8	24.9	0.00e+00	0	28	0	4034920448	38	6314
2026-01-14 16:15:13.38	178.99	11.12	-33.4	-34.2	24.7	0.00e+00	0	28	0	4056940544	38	6552
2026-01-14 16:15:17.42	179.20	10.76	-33.3	-34.1	24.7	0.00e+00	0	29	0	4080009216	38	6508
2026-01-14 16:15:21.46	179.41	10.42	-33.5	-34.2	24.5	0.00e+00	0	28	0	4103077888	38	6548
2026-01-14 16:15:25.49	179.61	10.08	-33.7	-34.3	24.3	0.00e+00	0	28	0	4126146560	40	5951
2026-01-14 16:15:29.53	179.81	9.74	-33.8	-34.4	24.2	0.00e+00	0	28	0	4148166656	40	6025
2026-01-14 16:15:33.57	180.00	9.40	-33.9	-34.6	24.1	0.00e+00	0	28	0	4171235328	40	6119
2026-01-14 16:15:37.61	180.19	9.07	-33.8	-34.4	24.2	0.00e+00	0	28	0	4194304000	40	6017
2026-01-14 16:15:41.65	180.37	8.75	-33.8	-34.5	24.2	0.00e+00	0	28	0	4216324096	40	6041
2026-01-14 16:15:45.69	180.55	8.42	-33.8	-34.4	24.1	0.00e+00	0	29	0	4239392768	40	6021
2026-01-14 16:15:49.73	180.73	8.11	-34.0	-34.6	24.0	0.00e+00	0	29	0	4261412864	40	6166
2026-01-14 16:15:53.76	180.90	7.79	-34.2	-34.9	23.8	0.00e+00	0	29	0	4284481536	40	6384
2026-01-14 16:15:57.80	181.07	7.48	-34.2	-34.8	23.7	0.00e+00	0	29	0	4307550208	40	6314
2026-01-14 16:16:01.84	181.24	7.18	-34.3	-35.0	23.6	0.00e+00	0	29	0	4330618880	40	6403
2026-01-14 16:16:05.88	181.40	6.87	-34.5	-35.3	23.4	0.00e+00	0	29	0	4352638976	40	6660
2026-01-14 16:16:09.91	181.57	6.57	-34.5	-35.2	23.3	0.00e+00	0	28	0	4375707648	40	6590
2026-01-14 16:16:13.95	181.72	6.28	-34.7	-35.3	23.3	0.00e+00	0	29	0	4398776320	42	5958
2026-01-14 16:16:17.98	181.88	5.98	-34.9	-35.6	23.0	0.00e+00	0	29	0	4420796416	42	6155
2026-01-14 16:16:22.02	182.03	5.69	-35.3	-36.0	22.5	0.00e+00	0	28	0	4443865088	42	6449
2026-01-14 16:16:26.07	182.18	5.40	-35.2	-36.1	22.4	0.00e+00	0	29	0	4465885184	42	6480
2026-01-14 16:16:30.10	182.33	5.12	-35.3	-36.1	22.5	0.00e+00	0	29	0	4488953856	42	6508
2026-01-14 16:16:34.14	182.47	4.84	-35.2	-35.9	22.5	0.00e+00	0	28	0	4512022528	42	6335
2026-01-14 16:16:38.18	182.61	4.56	-35.4	-36.2	22.3	0.00e+00	0	29	0	4534042624	42	6544
2026-01-14 16:16:42.21	182.75	4.28	-35.4	-36.2	22.3	0.00e+00	0	29	0	4557111296	42	6611
2026-01-14 16:16:46.25	182.89	4.01	-35.6	-36.3	21.9	0.00e+00	0	28	0	4580179968	44	5941
2026-01-14 16:16:50.29	183.02	3.74	-35.9	-36.7	21.6	0.00e+00	0	28	0	4603248640	44	6192
2026-01-14 16:16:54.32	183.15	3.47	-35.7	-36.5	21.8	0.00e+00	0	29	0	4625268736	44	6080
2026-01-14 16:16:58.36	183.28	3.21	-35.6	-36.3	21.7	0.00e+00	0	29	0	4648337408	44	5960
2026-01-14 16:17:02.40	183.41	2.94	-47.8	-59.6	3.6	8.45e-01	0	29	104	4665114624	60	34610
2026-01-14 16:17:06.44	183.54	2.68	-48.6	-60.7	3.6	8.47e-01	0	29	104	4665114624	60	39379
2026-01-14 16:17:10.48	183.66	2.42	-48.8	-60.9	3.6	8.45e-01	0	29	104	4665114624	60	40045
2026-01-14 16:17:14.52	183.79	2.17	-48.7	-60.8	3.6	8.45e-01	0	29	104	4665114624	60	39587
2026-01-14 16:17:18.56	183.91	1.91	-48.8	-60.9	3.6	8.45e-01	0	29	104	4665114624	60	39931
2026-01-14 16:17:22.60	184.02	1.66	-48.8	-60.8	3.6	8.45e-01	0	29	104	4665114624	60	39736
2026-01-14 16:17:26.64	184.14	1.41	-48.7	-60.8	3.6	8.45e-01	0	29	104	4665114624	60	39716
2026-01-14 16:17:30.68	184.26	1.16	-48.7	-60.8	3.6	8.45e-01	0	29	104	4665114624	60	39734
2026-01-14 16:17:34.72	184.37	0.92	-48.7	-60.8	3.6	8.45e-01	0	29	104	4665114624	60	39730
2026-01-14 16:17:38.76	184.48	0.67	-48.7	-60.8	3.6	8.45e-01	0	29	104	4665114624	60	39684
2026-01-14 16:17:42.80	184.59	0.43	-48.7	-60.8	3.6	8.46e-01	0	29	104	4665114624	60	39425
2026-01-14 16:17:46.85	184.70	0.19	-48.7	-60.8	3.6	8.45e-01	0	29	104	4665114624	60	39658
2026-01-14 16:17:50.88	184.81	-0.05	-48.7	-60.8	3.6	8.45e-01	0	29	104	4665114624	60	39513

#Closed at: 2026-01-14 16:17:53
#Recorded file [4665 MB]: D:/lorett/data/35029_260115_040230.dat