passes_logs/2026/01/14/R4.6S_Anadyr/R4.6S_Anadyr__20260114_030736_AQUA_rec.log

#Pass ID: 20260114_030736_AQUA
#Satellite: AQUA
#Configuration: AQUA
#almurnet v.1.7.20251203
#Start time: 2026-01-14 03:07:38

#Version: 2.2.20231116
#Station: R4.6S_Anadyr
#Location: 177.4865 lon 64.73178 lat
#TLE: 1 27424U 02022A   26013.58555111  .00000773  00000+0  16469-3 0  9993
#TLE: 2 27424  98.4079 339.9892 0002045  80.0365 334.6894 14.61818766260681

#Time	Az	El	Level	Level2	SNR	BER	BlckErr	Temp	State	Recorded	gain1	gain2
2026-01-14 03:07:38.15	187.91	0.08	-48.3	-60.0	3.5	8.45e-01	0	24	0	0	60	36100
2026-01-14 03:07:42.18	188.09	0.32	-48.7	-66.9	3.5	3.04e+01	0	25	104	0	60	84780
2026-01-14 03:07:46.22	188.27	0.56	-48.9	-66.9	3.5	3.04e+01	0	25	104	0	60	84880
2026-01-14 03:07:50.27	188.46	0.81	-48.4	-66.4	3.5	3.04e+01	0	25	104	0	60	80466
2026-01-14 03:07:54.31	188.65	1.05	-47.6	-65.4	3.5	3.04e+01	0	26	104	0	60	71284
2026-01-14 03:07:58.35	188.85	1.30	-47.6	-65.1	3.5	3.04e+01	0	25	104	0	60	69520
2026-01-14 03:08:02.39	189.05	1.55	-47.6	-65.5	3.5	3.04e+01	0	26	104	0	60	72282
2026-01-14 03:08:06.43	189.25	1.80	-47.6	-65.5	3.5	3.04e+01	0	26	104	0	60	72414
2026-01-14 03:08:10.47	189.45	2.05	-47.6	-65.3	3.5	3.04e+01	0	26	104	0	60	70524
2026-01-14 03:08:14.50	189.66	2.31	-47.6	-65.4	3.5	3.04e+01	0	26	104	0	60	72050
2026-01-14 03:08:18.54	189.87	2.56	-47.6	-65.4	3.5	3.04e+01	0	26	104	0	60	71580
2026-01-14 03:08:22.58	190.09	2.82	-47.5	-63.1	3.6	3.04e+01	0	26	104	0	60	55069
2026-01-14 03:08:26.62	190.31	3.09	-47.4	-61.3	4.8	3.04e+01	0	26	104	0	60	44869
2026-01-14 03:08:30.66	190.53	3.35	-42.6	-45.2	19.8	3.04e+01	92	26	0	6815744	60	7027
2026-01-14 03:08:34.70	190.76	3.62	-39.3	-41.0	23.8	3.04e+01	92	26	0	14155776	54	6111
2026-01-14 03:08:38.74	190.99	3.89	-38.5	-40.4	22.7	3.04e+01	85	26	104	19922944	52	6379
2026-01-14 03:08:42.78	191.23	4.16	-40.4	-42.3	22.7	3.04e+01	92	26	0	26738688	56	6286
2026-01-14 03:08:46.82	191.47	4.44	-39.1	-40.7	24.3	3.04e+01	92	26	0	34603008	54	5914
2026-01-14 03:08:50.86	191.72	4.72	-37.8	-39.3	25.7	3.04e+01	88	26	0	41943040	50	6300
2026-01-14 03:08:54.90	191.97	5.00	-37.8	-39.2	25.7	3.04e+01	91	26	0	49807360	50	6266
2026-01-14 03:08:58.94	192.23	5.28	-37.2	-38.6	26.5	3.04e+01	92	26	0	57147392	50	5822
2026-01-14 03:09:02.98	192.49	5.57	-37.1	-38.5	26.6	3.04e+01	92	26	0	65011712	50	5765
2026-01-14 03:09:07.02	192.76	5.86	-37.2	-38.6	26.5	3.04e+01	91	26	0	72351744	48	6553
2026-01-14 03:09:11.06	193.03	6.16	-36.9	-38.3	26.8	3.04e+01	92	26	0	79691776	48	6347
2026-01-14 03:09:15.10	193.31	6.45	-36.8	-38.2	26.9	3.04e+01	92	26	0	87556096	48	6249
2026-01-14 03:09:19.14	193.59	6.75	-36.7	-38.1	27.0	3.04e+01	91	26	0	94896128	48	6169
2026-01-14 03:09:23.18	193.88	7.06	-36.7	-38.0	27.2	3.04e+01	92	26	0	102760448	48	6115
2026-01-14 03:09:27.22	194.18	7.37	-36.9	-38.3	27.0	3.04e+01	92	26	0	110100480	48	6280
2026-01-14 03:09:31.26	194.49	7.68	-36.8	-38.1	27.1	3.04e+01	92	26	0	117964800	48	6204
2026-01-14 03:09:35.30	194.80	7.99	-36.4	-37.8	27.5	3.04e+01	91	26	0	125304832	48	5939
2026-01-14 03:09:39.34	195.11	8.31	-36.5	-37.8	27.4	3.04e+01	88	26	0	133169152	48	5979
2026-01-14 03:09:43.38	195.44	8.63	-36.5	-37.8	27.5	3.04e+01	91	26	0	140509184	48	5959
2026-01-14 03:09:47.42	195.77	8.96	-36.2	-37.5	27.8	3.04e+01	92	26	0	148373504	48	5768
2026-01-14 03:09:51.46	196.11	9.29	-36.1	-37.4	27.8	3.04e+01	92	26	0	155713536	48	5698
2026-01-14 03:09:55.50	196.46	9.62	-35.8	-37.1	28.2	3.04e+01	92	26	0	163053568	46	6183
2026-01-14 03:09:59.54	196.82	9.96	-36.0	-37.2	28.0	3.04e+01	90	26	0	170917888	46	6269
2026-01-14 03:10:03.58	197.18	10.30	-36.0	-37.3	28.1	3.04e+01	92	26	0	178257920	46	6282
2026-01-14 03:10:07.63	197.56	10.65	-35.8	-37.1	28.2	3.04e+01	92	26	0	186122240	46	6155
2026-01-14 03:10:11.67	197.94	11.00	-35.9	-37.2	28.1	3.04e+01	92	26	0	193462272	46	6229
2026-01-14 03:10:15.71	198.33	11.36	-35.7	-36.9	28.3	3.04e+01	92	26	0	201326592	46	6045
2026-01-14 03:10:19.75	198.74	11.72	-35.6	-36.8	28.5	3.04e+01	92	26	0	208666624	46	5982
2026-01-14 03:10:23.79	199.15	12.09	-35.5	-36.7	28.6	3.04e+01	92	26	0	216530944	46	5913
2026-01-14 03:10:27.82	199.58	12.46	-35.6	-36.9	28.4	3.04e+01	89	26	0	223870976	46	6033
2026-01-14 03:10:31.86	200.01	12.83	-35.4	-36.6	28.7	3.04e+01	90	26	0	231735296	46	5836
2026-01-14 03:10:35.91	200.46	13.21	-35.3	-36.6	28.8	3.04e+01	90	26	0	239075328	46	5813
2026-01-14 03:10:39.95	200.92	13.60	-35.5	-36.8	28.7	3.04e+01	92	26	0	246415360	46	5928
2026-01-14 03:10:43.99	201.39	13.99	-35.0	-36.2	29.0	3.04e+01	91	26	0	254279680	46	5583
2026-01-14 03:10:48.03	201.88	14.39	-35.1	-36.4	28.9	3.04e+01	89	26	0	261619712	46	5672
2026-01-14 03:10:52.07	202.38	14.79	-35.0	-36.3	29.0	3.04e+01	92	26	0	269484032	44	6296
2026-01-14 03:10:56.11	202.89	15.20	-35.0	-36.2	29.1	3.04e+01	86	26	0	276824064	44	6228
2026-01-14 03:11:00.15	203.42	15.61	-34.9	-36.1	29.1	3.04e+01	92	26	0	284688384	44	6198
2026-01-14 03:11:04.19	203.96	16.03	-34.8	-36.0	29.3	3.04e+01	92	26	0	292028416	44	6108
2026-01-14 03:11:08.23	204.52	16.45	-34.9	-36.2	29.2	3.04e+01	92	26	0	299892736	44	6210
2026-01-14 03:11:12.27	205.10	16.88	-35.0	-36.2	29.1	3.04e+01	92	26	0	307232768	44	6232
2026-01-14 03:11:16.31	205.69	17.32	-34.8	-36.0	29.4	3.04e+01	92	26	0	314572800	44	6081
2026-01-14 03:11:20.35	206.30	17.76	-34.8	-36.0	29.3	3.04e+01	92	26	0	322437120	44	6099
2026-01-14 03:11:24.38	206.93	18.21	-34.9	-36.1	29.2	3.04e+01	92	26	0	329777152	44	6147
2026-01-14 03:11:28.42	207.58	18.66	-34.8	-36.0	29.3	3.04e+01	92	26	0	337641472	44	6081
2026-01-14 03:11:32.46	208.25	19.12	-34.9	-36.1	29.3	3.04e+01	91	26	0	344981504	44	6195
2026-01-14 03:11:36.49	208.94	19.58	-34.8	-36.0	29.4	3.04e+01	91	26	0	352845824	44	6108
2026-01-14 03:11:40.53	209.65	20.05	-34.8	-36.1	29.3	3.04e+01	90	26	0	360185856	44	6146
2026-01-14 03:11:44.57	210.39	20.53	-35.0	-36.2	29.2	3.04e+01	91	26	0	368050176	44	6234
2026-01-14 03:11:48.61	211.15	21.01	-35.1	-36.3	29.1	3.04e+01	94	26	0	375390208	44	6326
2026-01-14 03:11:52.65	211.93	21.50	-35.1	-36.4	29.1	3.04e+01	92	26	0	382730240	44	6359
2026-01-14 03:11:56.69	212.74	21.99	-34.8	-36.0	29.4	3.04e+01	92	26	0	390594560	44	6118
2026-01-14 03:12:00.73	213.58	22.49	-34.9	-36.1	29.3	3.04e+01	92	26	0	397934592	44	6174
2026-01-14 03:12:04.77	214.45	22.99	-35.2	-36.4	29.1	3.04e+01	92	26	0	405798912	44	6374
2026-01-14 03:12:08.80	215.34	23.49	-35.1	-36.3	29.2	3.04e+01	90	26	0	413138944	44	6333
2026-01-14 03:12:12.84	216.26	24.00	-35.2	-36.4	29.1	3.04e+01	91	26	0	421003264	44	6386
2026-01-14 03:12:16.87	217.22	24.51	-35.3	-36.6	29.0	3.04e+01	90	26	0	428343296	44	6505
2026-01-14 03:12:20.91	218.20	25.02	-35.1	-36.3	29.2	3.04e+01	92	26	0	436207616	44	6348
2026-01-14 03:12:24.95	219.22	25.54	-35.3	-36.6	29.0	3.04e+01	90	26	0	443547648	44	6511
2026-01-14 03:12:28.99	220.28	26.06	-35.4	-36.6	28.9	3.04e+01	91	27	0	450887680	44	6531
2026-01-14 03:12:33.03	221.37	26.58	-35.1	-36.3	29.2	3.04e+01	92	26	0	458752000	44	6334
2026-01-14 03:12:37.07	222.50	27.09	-35.1	-36.3	29.2	3.04e+01	92	26	0	466092032	44	6344
2026-01-14 03:12:41.12	223.67	27.61	-35.2	-36.4	29.1	3.04e+01	92	26	0	473956352	44	6381
2026-01-14 03:12:45.16	224.87	28.13	-35.3	-36.6	29.0	3.04e+01	90	26	0	481296384	44	6510
2026-01-14 03:12:49.20	226.12	28.64	-35.2	-36.4	29.1	3.04e+01	92	26	0	489160704	44	6407
2026-01-14 03:12:53.24	227.40	29.14	-35.3	-36.5	29.1	3.04e+01	92	26	0	496500736	44	6471
2026-01-14 03:12:57.28	228.73	29.65	-35.2	-36.4	29.1	3.04e+01	92	26	0	504365056	44	6421
2026-01-14 03:13:01.32	230.10	30.14	-35.3	-36.5	29.2	3.04e+01	92	26	0	511705088	44	6435
2026-01-14 03:13:05.36	231.51	30.62	-35.3	-36.5	29.1	3.04e+01	91	26	0	519045120	44	6444
2026-01-14 03:13:09.40	232.96	31.10	-35.3	-36.5	29.1	3.04e+01	92	26	0	526909440	44	6457
2026-01-14 03:13:13.44	234.46	31.56	-35.2	-36.5	29.1	3.04e+01	88	27	0	534249472	44	6424
2026-01-14 03:13:17.48	236.00	32.01	-35.0	-36.2	29.3	3.04e+01	92	26	0	542113792	44	6251
2026-01-14 03:13:21.52	237.59	32.44	-35.1	-36.3	29.2	3.04e+01	91	26	0	549453824	44	6327
2026-01-14 03:13:25.57	239.22	32.86	-35.0	-36.2	29.3	3.04e+01	92	26	0	557318144	44	6249
2026-01-14 03:13:29.60	240.88	33.26	-35.2	-36.4	29.1	3.04e+01	92	26	0	564658176	44	6398
2026-01-14 03:13:33.65	242.60	33.63	-35.3	-36.5	28.9	3.04e+01	92	26	0	572522496	44	6472
2026-01-14 03:13:37.68	244.34	33.98	-35.0	-36.2	29.3	3.04e+01	92	27	0	579862528	44	6270
2026-01-14 03:13:41.72	246.13	34.31	-34.7	-35.9	29.6	3.04e+01	92	26	0	587726848	44	6025
2026-01-14 03:13:45.76	247.95	34.61	-34.7	-35.9	29.6	3.04e+01	90	27	0	595066880	44	6016
2026-01-14 03:13:49.80	249.80	34.88	-35.0	-36.2	29.4	3.04e+01	90	26	0	602406912	44	6208
2026-01-14 03:13:53.84	251.68	35.12	-34.8	-36.0	29.5	3.04e+01	88	26	0	610271232	44	6088
2026-01-14 03:13:57.88	253.59	35.32	-34.8	-36.0	29.5	3.04e+01	91	27	0	617611264	44	6087
2026-01-14 03:14:01.92	255.52	35.50	-34.6	-35.8	29.7	3.04e+01	92	27	0	625475584	44	5938
2026-01-14 03:14:05.96	257.47	35.64	-34.8	-36.0	29.5	3.04e+01	90	27	0	632815616	44	6100
2026-01-14 03:14:10.00	259.43	35.74	-34.7	-35.9	29.6	3.04e+01	90	27	0	640679936	44	6035
2026-01-14 03:14:14.04	261.40	35.81	-34.7	-35.8	29.6	3.04e+01	88	27	0	648019968	44	5991
2026-01-14 03:14:18.09	263.39	35.84	-34.4	-35.6	29.8	3.04e+01	92	27	0	655884288	44	5792
2026-01-14 03:14:22.13	265.37	35.83	-34.5	-35.6	29.8	3.04e+01	92	27	0	663224320	44	5847
2026-01-14 03:14:26.17	267.34	35.79	-34.5	-35.7	29.8	3.04e+01	91	27	0	670564352	44	5864
2026-01-14 03:14:30.20	269.31	35.71	-34.5	-35.7	29.8	3.04e+01	92	27	0	678428672	44	5878
2026-01-14 03:14:34.24	271.26	35.59	-34.4	-35.6	29.8	3.04e+01	92	27	0	685768704	44	5836
2026-01-14 03:14:38.29	273.21	35.44	-34.3	-35.5	30.0	3.04e+01	92	27	0	693633024	44	5755
2026-01-14 03:14:42.33	275.13	35.25	-34.2	-35.4	30.0	3.04e+01	91	27	0	700973056	44	5710
2026-01-14 03:14:46.37	277.02	35.03	-34.0	-35.1	30.3	3.04e+01	91	27	0	708837376	44	5525
2026-01-14 03:14:50.41	278.89	34.78	-33.9	-35.1	30.3	3.04e+01	92	27	0	716177408	42	6139
2026-01-14 03:14:54.45	280.73	34.50	-33.8	-35.0	30.4	3.04e+01	92	27	0	724041728	42	6077
2026-01-14 03:14:58.49	282.53	34.20	-33.8	-35.0	30.4	3.04e+01	92	27	0	731381760	42	6107
2026-01-14 03:15:02.53	284.30	33.86	-33.8	-34.9	30.4	3.04e+01	91	27	0	738721792	42	6052
2026-01-14 03:15:06.57	286.03	33.50	-33.7	-34.8	30.5	3.04e+01	92	27	0	746586112	42	5966
2026-01-14 03:15:10.61	287.72	33.12	-33.9	-35.1	30.4	3.04e+01	89	27	0	753926144	42	6147
2026-01-14 03:15:14.64	289.36	32.72	-33.4	-34.6	30.8	3.04e+01	92	27	0	761790464	42	5823
2026-01-14 03:15:18.68	290.97	32.30	-33.4	-34.5	30.8	3.04e+01	92	27	0	769130496	42	5758
2026-01-14 03:15:22.72	292.54	31.86	-33.5	-34.6	30.6	3.04e+01	91	27	0	776994816	42	5851
2026-01-14 03:15:26.76	294.06	31.41	-33.5	-34.7	30.6	3.04e+01	92	27	0	784334848	42	5889
2026-01-14 03:15:30.80	295.54	30.95	-33.4	-34.5	30.7	3.04e+01	91	27	0	792199168	42	5781
2026-01-14 03:15:34.84	296.97	30.47	-33.4	-34.6	30.6	3.04e+01	57	27	0	799539200	42	5825
2026-01-14 03:15:38.88	298.36	29.99	-33.7	-34.8	30.5	3.04e+01	62	27	0	806879232	42	5991
2026-01-14 03:15:42.92	299.71	29.49	-33.7	-34.9	30.4	3.04e+01	58	27	0	814743552	42	6015
2026-01-14 03:15:46.96	301.02	28.99	-33.6	-34.8	30.6	3.04e+01	57	27	0	822083584	42	5934
2026-01-14 03:15:51.00	302.29	28.48	-33.7	-34.9	30.5	3.04e+01	58	27	0	829947904	42	6003
2026-01-14 03:15:55.04	303.51	27.98	-33.7	-34.9	30.4	3.04e+01	59	27	0	837287936	42	6029
2026-01-14 03:15:59.08	304.70	27.46	-33.8	-34.9	30.4	3.04e+01	57	27	0	845152256	42	6042
2026-01-14 03:16:03.12	305.85	26.95	-34.0	-35.2	30.2	3.04e+01	60	28	0	852492288	42	6238
2026-01-14 03:16:07.16	306.96	26.43	-34.0	-35.2	30.1	3.04e+01	60	28	0	860356608	42	6246
2026-01-14 03:16:11.20	308.04	25.92	-34.2	-35.4	30.0	3.04e+01	62	28	0	867696640	42	6351
2026-01-14 03:16:15.24	309.08	25.40	-34.0	-35.2	30.2	3.04e+01	59	28	0	875036672	42	6218
2026-01-14 03:16:19.27	310.08	24.89	-34.5	-35.7	29.7	3.04e+01	58	28	0	882900992	42	6606
2026-01-14 03:16:23.31	311.05	24.38	-34.2	-35.4	30.0	3.04e+01	57	28	0	890241024	42	6391
2026-01-14 03:16:27.35	311.99	23.88	-34.3	-35.5	29.9	3.04e+01	60	28	0	898105344	42	6441
2026-01-14 03:16:31.39	312.90	23.37	-34.2	-35.3	30.0	3.04e+01	52	28	0	905445376	42	6336
2026-01-14 03:16:35.43	313.79	22.87	-34.3	-35.5	29.9	3.04e+01	58	28	0	913309696	42	6462
2026-01-14 03:16:39.47	314.64	22.38	-34.2	-35.4	30.0	3.04e+01	59	28	0	920649728	42	6371
2026-01-14 03:16:43.51	315.47	21.88	-34.2	-35.4	29.9	3.04e+01	45	28	0	927989760	42	6387
2026-01-14 03:16:47.55	316.26	21.40	-34.1	-35.3	30.0	3.04e+01	59	28	0	935854080	42	6280
2026-01-14 03:16:51.59	317.04	20.92	-34.0	-35.2	30.1	3.04e+01	57	28	0	943194112	42	6230
2026-01-14 03:16:55.63	317.79	20.44	-34.1	-35.3	30.1	3.04e+01	59	28	0	951058432	42	6280
2026-01-14 03:16:59.67	318.52	19.97	-34.1	-35.3	30.0	3.04e+01	44	28	0	958398464	42	6292
2026-01-14 03:17:03.71	319.22	19.50	-33.9	-35.1	30.2	3.04e+01	58	28	0	966262784	42	6186
2026-01-14 03:17:07.75	319.90	19.04	-33.8	-35.0	30.2	3.04e+01	47	28	0	973602816	42	6103
2026-01-14 03:17:11.79	320.56	18.59	-34.0	-35.2	30.1	3.04e+01	58	28	0	981467136	42	6213
2026-01-14 03:17:15.82	321.20	18.14	-34.1	-35.3	29.9	3.04e+01	56	28	0	988807168	42	6328
2026-01-14 03:17:19.86	321.83	17.70	-34.1	-35.2	30.0	3.04e+01	58	28	0	996671488	42	6268
2026-01-14 03:17:23.90	322.43	17.26	-34.1	-35.3	30.1	3.04e+01	47	28	0	1004011520	42	6319
2026-01-14 03:17:27.94	323.02	16.83	-34.0	-35.2	30.0	3.04e+01	60	28	0	1011351552	42	6234
2026-01-14 03:17:31.99	323.59	16.40	-34.2	-35.4	29.9	3.04e+01	45	28	0	1019215872	42	6380
2026-01-14 03:17:36.03	324.14	15.98	-33.9	-35.1	30.1	3.04e+01	59	28	0	1026555904	42	6167
2026-01-14 03:17:40.07	324.68	15.57	-34.1	-35.3	29.9	3.04e+01	43	28	0	1034420224	42	6282
2026-01-14 03:17:44.11	325.20	15.16	-34.1	-35.3	29.8	3.04e+01	60	28	0	1041760256	42	6322
2026-01-14 03:17:48.15	325.71	14.76	-34.3	-35.5	29.7	3.04e+01	54	28	0	1049624576	42	6444
2026-01-14 03:17:52.19	326.21	14.36	-34.3	-35.5	29.7	3.04e+01	60	28	0	1056964608	42	6426
2026-01-14 03:17:56.23	326.69	13.97	-34.2	-35.3	29.8	3.04e+01	57	28	0	1064828928	42	6337
2026-01-14 03:18:00.27	327.16	13.58	-34.3	-35.5	29.7	3.04e+01	57	28	0	1072168960	42	6449
2026-01-14 03:18:04.31	327.61	13.20	-34.3	-35.4	29.7	3.04e+01	61	28	0	1079508992	42	6417
2026-01-14 03:18:08.34	328.06	12.82	-34.4	-35.6	29.6	3.04e+01	61	28	0	1087373312	42	6513
2026-01-14 03:18:12.38	328.49	12.45	-34.5	-35.7	29.5	3.04e+01	60	29	0	1094713344	42	6635
2026-01-14 03:18:16.42	328.91	12.08	-34.8	-36.0	29.2	3.04e+01	58	29	0	1102577664	42	6843
2026-01-14 03:18:20.46	329.32	11.72	-34.8	-36.0	29.1	3.04e+01	60	28	0	1109917696	44	6116
2026-01-14 03:18:24.50	329.73	11.36	-34.7	-35.9	29.2	3.04e+01	57	29	0	1117782016	44	6063
2026-01-14 03:18:28.54	330.12	11.01	-34.8	-36.1	29.0	3.04e+01	60	29	0	1125122048	44	6140
2026-01-14 03:18:32.59	330.50	10.66	-34.9	-36.1	29.0	3.04e+01	61	29	0	1132986368	44	6172
2026-01-14 03:18:36.63	330.87	10.32	-34.9	-36.2	28.8	3.04e+01	58	29	0	1140326400	44	6222
2026-01-14 03:18:40.67	331.24	9.98	-35.0	-36.3	28.8	3.04e+01	56	29	0	1148190720	44	6281
2026-01-14 03:18:44.71	331.59	9.64	-35.2	-36.4	28.7	3.04e+01	60	29	0	1155530752	44	6394
2026-01-14 03:18:48.75	331.94	9.31	-35.6	-45.8	3.6	3.04e+01	0	29	104	1162346496	44	18906
2026-01-14 03:18:52.79	332.28	8.99	-38.2	-48.7	3.4	3.04e+01	0	29	104	1162346496	48	20999
2026-01-14 03:18:56.83	332.61	8.66	-37.2	-47.4	3.6	3.04e+01	0	29	104	1162346496	50	16094
2026-01-14 03:19:00.87	332.93	8.34	-36.5	-46.6	3.6	3.04e+01	0	29	104	1162346496	48	16498
2026-01-14 03:19:04.91	333.25	8.03	-37.7	-48.1	3.8	3.04e+01	0	29	104	1162346496	48	19428
2026-01-14 03:19:08.95	333.56	7.72	-37.9	-48.3	3.5	3.04e+01	0	29	104	1162346496	50	17767
2026-01-14 03:19:12.99	333.86	7.41	-47.4	-63.9	3.5	3.04e+01	0	29	104	1162346496	60	60174
2026-01-14 03:19:17.03	334.16	7.10	-39.1	-49.7	3.5	3.04e+01	0	29	104	1162346496	54	16560
2026-01-14 03:19:21.07	334.45	6.80	-47.1	-63.5	3.5	3.04e+01	0	29	104	1162346496	60	57449
2026-01-14 03:19:25.11	334.74	6.51	-37.8	-48.2	3.5	3.04e+01	0	29	104	1162346496	50	17611
2026-01-14 03:19:29.14	335.02	6.21	-40.0	-50.8	3.5	3.04e+01	0	29	104	1162346496	54	18794
2026-01-14 03:19:33.18	335.29	5.92	-38.9	-49.6	3.5	3.04e+01	0	29	104	1162346496	52	18384
2026-01-14 03:19:37.21	335.56	5.63	-40.7	-52.0	3.5	3.04e+01	0	29	104	1162346496	56	19323
2026-01-14 03:19:41.25	335.82	5.35	-43.0	-55.9	3.5	3.04e+01	0	29	104	1162346496	60	23947
2026-01-14 03:19:45.29	336.08	5.07	-42.8	-55.7	3.5	3.04e+01	0	29	104	1162346496	60	23482
2026-01-14 03:19:49.33	336.33	4.79	-43.8	-59.8	3.5	3.04e+01	0	29	104	1162346496	60	37605
2026-01-14 03:19:53.37	336.58	4.51	-43.8	-58.4	3.5	3.04e+01	0	29	104	1162346496	60	31843
2026-01-14 03:19:57.41	336.82	4.24	-44.1	-61.7	3.5	3.04e+01	0	29	104	1162346496	60	46715
2026-01-14 03:20:01.45	337.06	3.97	-44.1	-61.0	3.5	3.04e+01	0	29	104	1162346496	60	43096
2026-01-14 03:20:05.49	337.29	3.70	-44.1	-61.8	3.5	3.04e+01	0	29	104	1162346496	60	47290
2026-01-14 03:20:09.53	337.52	3.43	-44.2	-62.0	3.5	3.04e+01	0	29	104	1162346496	60	48645
2026-01-14 03:20:13.57	337.75	3.17	-44.2	-62.1	3.5	3.04e+01	0	29	104	1162346496	60	48935
2026-01-14 03:20:17.61	337.97	2.91	-48.0	-66.0	3.5	3.04e+01	0	29	104	1162346496	60	76690
2026-01-14 03:20:21.65	338.19	2.65	-48.9	-66.8	3.5	3.04e+01	0	29	104	1162346496	60	84314
2026-01-14 03:20:25.69	338.40	2.39	-48.8	-66.9	3.5	3.04e+01	0	29	104	1162346496	60	85431
2026-01-14 03:20:29.73	338.61	2.14	-48.8	-66.8	3.5	3.04e+01	0	29	104	1162346496	60	84136
2026-01-14 03:20:33.76	338.82	1.89	-49.0	-66.9	3.5	3.04e+01	0	29	104	1162346496	60	85001
2026-01-14 03:20:37.80	339.02	1.64	-48.9	-66.8	3.5	3.04e+01	0	30	104	1162346496	60	84654
2026-01-14 03:20:41.84	339.22	1.39	-48.9	-66.8	3.5	3.04e+01	0	30	104	1162346496	60	84396
2026-01-14 03:20:45.88	339.42	1.15	-48.9	-66.8	3.5	3.04e+01	0	30	104	1162346496	60	84275
2026-01-14 03:20:49.92	339.62	0.91	-48.9	-66.8	3.5	3.04e+01	0	30	104	1162346496	60	84113
2026-01-14 03:20:53.96	339.81	0.66	-48.9	-66.8	3.5	3.04e+01	0	30	104	1162346496	60	84036
2026-01-14 03:20:58.00	339.99	0.43	-48.9	-66.8	3.5	3.04e+01	0	30	104	1162346496	60	84136
2026-01-14 03:21:02.04	340.18	0.19	-48.9	-66.7	3.5	3.04e+01	0	30	104	1162346496	60	83557
2026-01-14 03:21:06.08	340.36	-0.05	-48.9	-66.8	3.5	3.04e+01	0	30	104	1162346496	60	83901

#Closed at: 2026-01-14 03:21:07
#Recorded file [1162 MB]: D:/lorett/data/35029_260114_150738.dat