passes_logs/2026/01/14/R4.6S_Anadyr/R4.6S_Anadyr__20260114_200158_SUOMI_NPP_rec.log

#Pass ID: 20260114_200158_SUOMI NPP
#Satellite: SUOMI NPP
#Configuration: NPP
#almurnet v.1.7.20251203
#Start time: 2026-01-14 20:01:59

#Version: 2.2.20231116
#Station: R4.6S_Anadyr
#Location: 177.4865 lon 64.73178 lat
#TLE: 1 37849U 11061A   26013.83525404  .00000052  00000+0  45495-4 0  9990
#TLE: 2 37849  98.7808 315.8939 0002471  65.6575 294.4859 14.19524986736544

#Time	Az	El	Level	Level2	SNR	BER	BlckErr	Temp	State	Recorded	gain1	gain2
2026-01-14 20:01:59.62	61.50	0.07	-49.0	-66.8	3.5	3.03e+01	0	26	0	0	60	84546
2026-01-14 20:02:02.64	61.27	0.22	-48.8	-64.1	3.6	1.51e+00	0	28	104	0	60	57709
2026-01-14 20:02:05.67	61.04	0.36	-48.8	-64.0	3.6	1.51e+00	0	28	104	0	60	57470
2026-01-14 20:02:08.70	60.81	0.51	-48.8	-64.0	3.6	1.51e+00	0	28	104	0	60	57114
2026-01-14 20:02:11.73	60.58	0.66	-48.7	-63.8	3.6	1.51e+00	0	28	104	0	60	56165
2026-01-14 20:02:14.76	60.34	0.81	-48.3	-63.5	3.6	1.51e+00	0	28	104	0	60	53778
2026-01-14 20:02:17.79	60.10	0.96	-47.1	-62.2	3.6	1.51e+00	0	28	104	0	60	46694
2026-01-14 20:02:20.82	59.86	1.11	-47.1	-62.2	3.6	1.51e+00	0	28	104	0	60	46695
2026-01-14 20:02:23.85	59.62	1.26	-47.1	-62.2	3.6	1.51e+00	0	28	104	0	60	46620
2026-01-14 20:02:26.88	59.37	1.41	-47.1	-62.1	3.6	1.51e+00	0	28	104	0	60	46295
2026-01-14 20:02:29.91	59.12	1.56	-47.1	-62.2	3.6	1.51e+00	0	28	104	0	60	46538
2026-01-14 20:02:32.93	58.87	1.71	-47.1	-62.2	3.6	1.51e+00	0	28	104	0	60	46550
2026-01-14 20:02:35.96	58.61	1.86	-47.0	-62.1	3.6	1.51e+00	0	28	104	0	60	46291
2026-01-14 20:02:39.00	58.35	2.01	-47.0	-62.0	3.6	1.51e+00	0	28	104	0	60	45265
2026-01-14 20:02:42.02	58.09	2.16	-47.0	-61.8	3.6	1.51e+00	0	28	104	0	60	44526
2026-01-14 20:02:45.05	57.83	2.31	-47.0	-62.2	3.6	1.51e+00	0	28	104	0	60	46740
2026-01-14 20:02:48.08	57.56	2.47	-47.0	-62.2	3.6	1.51e+00	0	28	104	0	60	46466
2026-01-14 20:02:51.11	57.29	2.62	-47.0	-61.4	3.6	1.51e+00	0	28	104	0	60	42246
2026-01-14 20:02:54.14	57.02	2.77	-47.0	-61.8	3.6	1.51e+00	0	28	104	0	60	44577
2026-01-14 20:02:57.17	56.75	2.92	-46.3	-53.0	7.4	2.69e-01	92	28	0	2097152	60	16238
2026-01-14 20:03:00.20	56.47	3.08	-47.4	-62.2	3.6	8.53e-01	0	29	104	6291456	60	46763
2026-01-14 20:03:03.23	56.19	3.23	-42.9	-45.4	15.9	7.00e-07	0	28	0	8388608	58	7510
2026-01-14 20:03:06.26	55.91	3.38	-42.2	-44.3	16.8	0.00e+00	0	28	0	9437184	56	7431
2026-01-14 20:03:09.29	55.62	3.54	-42.4	-44.6	16.6	0.00e+00	76	28	0	15728640	56	7751
2026-01-14 20:03:12.32	55.33	3.69	-42.2	-44.3	17.0	0.00e+00	0	28	0	20971520	56	7432
2026-01-14 20:03:15.35	55.04	3.84	-42.4	-44.5	16.9	0.00e+00	0	28	0	27262976	56	7625
2026-01-14 20:03:18.37	54.74	4.00	-42.1	-44.0	17.3	0.00e+00	92	28	0	32505856	56	7235
2026-01-14 20:03:21.40	54.44	4.15	-42.1	-44.1	17.4	0.00e+00	54	28	0	37748736	56	7278
2026-01-14 20:03:24.43	54.14	4.31	-41.9	-43.8	17.5	0.00e+00	0	28	0	44040192	56	7045
2026-01-14 20:03:27.46	53.83	4.46	-42.1	-44.1	17.3	0.00e+00	92	28	0	49283072	56	7282
2026-01-14 20:03:30.49	53.52	4.61	-42.0	-43.9	17.7	0.00e+00	69	29	0	55574528	56	7156
2026-01-14 20:03:33.52	53.21	4.77	-42.1	-44.1	17.4	0.00e+00	0	29	0	60817408	56	7307
2026-01-14 20:03:36.55	52.89	4.92	-41.7	-43.5	18.0	0.00e+00	0	28	0	66060288	56	6806
2026-01-14 20:03:39.58	52.57	5.08	-41.6	-43.3	18.2	0.00e+00	68	28	0	72351744	56	6679
2026-01-14 20:03:42.61	52.25	5.23	-41.6	-43.3	18.2	0.00e+00	9	28	0	77594624	56	6673
2026-01-14 20:03:45.64	51.92	5.39	-41.7	-43.5	18.0	0.00e+00	0	28	0	83886080	56	6834
2026-01-14 20:03:48.67	51.59	5.54	-41.5	-43.3	18.3	0.00e+00	92	29	0	89128960	56	6623
2026-01-14 20:03:51.70	51.26	5.70	-41.3	-42.9	18.7	0.00e+00	92	28	0	95420416	56	6360
2026-01-14 20:03:54.73	50.92	5.85	-41.0	-42.5	19.1	0.00e+00	0	28	0	100663296	56	6097
2026-01-14 20:03:57.76	50.58	6.01	-40.6	-42.1	19.5	0.00e+00	56	28	0	105906176	54	6472
2026-01-14 20:04:00.79	50.23	6.16	-40.4	-41.8	19.6	0.00e+00	49	29	0	112197632	54	6282
2026-01-14 20:04:03.82	49.88	6.32	-40.3	-41.7	19.8	0.00e+00	0	29	0	117440512	54	6231
2026-01-14 20:04:06.85	49.53	6.47	-40.5	-41.9	19.7	0.00e+00	0	29	0	123731968	54	6360
2026-01-14 20:04:09.88	49.18	6.63	-40.4	-41.8	19.7	0.00e+00	92	29	0	128974848	54	6274
2026-01-14 20:04:12.91	48.81	6.78	-40.4	-41.8	19.8	0.00e+00	0	29	0	134217728	54	6250
2026-01-14 20:04:15.93	48.45	6.93	-40.5	-41.9	19.6	0.00e+00	0	29	0	140509184	54	6380
2026-01-14 20:04:18.96	48.08	7.09	-40.8	-42.3	19.3	0.00e+00	92	29	0	145752064	54	6662
2026-01-14 20:04:21.99	47.71	7.24	-40.6	-42.0	19.6	0.00e+00	92	29	0	152043520	54	6411
2026-01-14 20:04:25.02	47.33	7.39	-40.7	-42.2	19.5	0.00e+00	0	29	0	157286400	54	6572
2026-01-14 20:04:28.05	46.95	7.55	-40.8	-42.4	19.3	0.00e+00	0	29	0	163577856	54	6693
2026-01-14 20:04:31.08	46.57	7.70	-40.9	-42.4	19.4	0.00e+00	36	29	0	168820736	54	6720
2026-01-14 20:04:34.10	46.18	7.85	-40.7	-42.1	19.6	0.00e+00	0	29	0	174063616	54	6528
2026-01-14 20:04:37.13	45.79	8.01	-40.6	-42.1	19.5	0.00e+00	0	29	0	180355072	54	6498
2026-01-14 20:04:40.15	45.39	8.16	-40.3	-41.7	19.9	0.00e+00	81	29	0	185597952	54	6223
2026-01-14 20:04:43.17	44.99	8.31	-40.2	-41.5	20.1	0.00e+00	9	29	0	191889408	54	6058
2026-01-14 20:04:46.20	44.59	8.46	-40.2	-41.6	20.0	0.00e+00	0	29	0	197132288	54	6128
2026-01-14 20:04:49.23	44.18	8.61	-40.8	-42.3	19.5	0.00e+00	90	29	0	202375168	54	6654
2026-01-14 20:04:52.26	43.76	8.76	-40.8	-42.3	19.5	0.00e+00	84	29	0	208666624	54	6655
2026-01-14 20:04:55.29	43.34	8.91	-40.7	-42.3	19.5	0.00e+00	0	29	0	213909504	54	6617
2026-01-14 20:04:58.31	42.92	9.06	-40.6	-42.1	19.6	0.00e+00	0	29	0	220200960	54	6469
2026-01-14 20:05:01.34	42.49	9.21	-40.2	-41.6	20.2	0.00e+00	92	29	0	225443840	54	6110
2026-01-14 20:05:04.37	42.06	9.35	-40.2	-41.6	20.2	0.00e+00	0	29	0	230686720	54	6122
2026-01-14 20:05:07.40	41.63	9.50	-39.7	-40.9	20.8	0.00e+00	0	29	0	236978176	52	6373
2026-01-14 20:05:10.42	41.19	9.65	-39.7	-40.9	20.7	0.00e+00	92	29	0	242221056	52	6368
2026-01-14 20:05:13.45	40.74	9.79	-39.5	-40.7	21.0	0.00e+00	55	29	0	248512512	52	6183
2026-01-14 20:05:16.48	40.29	9.94	-39.1	-40.3	21.3	0.00e+00	0	29	0	253755392	52	5917
2026-01-14 20:05:19.51	39.84	10.08	-39.0	-40.1	21.5	0.00e+00	92	29	0	260046848	52	5823
2026-01-14 20:05:22.54	39.38	10.22	-38.4	-39.4	22.1	0.00e+00	53	29	0	265289728	50	6011
2026-01-14 20:05:25.56	38.91	10.36	-38.8	-39.9	21.7	0.00e+00	0	29	0	270532608	50	6385
2026-01-14 20:05:28.59	38.45	10.50	-39.0	-40.2	21.5	0.00e+00	0	29	0	276824064	50	6581
2026-01-14 20:05:31.62	37.97	10.64	-38.7	-39.8	21.7	0.00e+00	92	29	0	282066944	50	6296
2026-01-14 20:05:34.65	37.50	10.78	-38.8	-39.9	21.7	0.00e+00	0	29	0	288358400	50	6350
2026-01-14 20:05:37.68	37.01	10.92	-38.3	-39.3	22.2	0.00e+00	0	29	0	293601280	50	5928
2026-01-14 20:05:40.71	36.53	11.05	-37.9	-38.9	22.5	0.00e+00	0	29	0	298844160	50	5680
2026-01-14 20:05:43.74	36.04	11.19	-37.8	-38.8	22.6	0.00e+00	30	29	0	305135616	50	5592
2026-01-14 20:05:46.76	35.54	11.32	-38.2	-39.2	22.4	0.00e+00	0	29	0	310378496	48	6592
2026-01-14 20:05:49.79	35.04	11.45	-38.2	-39.3	22.2	0.00e+00	0	29	0	316669952	48	6641
2026-01-14 20:05:52.82	34.54	11.58	-37.8	-38.7	22.7	0.00e+00	58	29	0	321912832	48	6235
2026-01-14 20:05:55.84	34.03	11.71	-37.4	-38.4	23.0	0.00e+00	0	29	0	328204288	48	5969
2026-01-14 20:05:58.87	33.52	11.84	-37.5	-38.5	22.9	0.00e+00	0	29	0	333447168	48	6060
2026-01-14 20:06:01.90	33.00	11.97	-37.7	-38.7	22.7	0.00e+00	90	29	0	338690048	48	6176
2026-01-14 20:06:04.93	32.48	12.09	-38.3	-39.3	22.3	0.00e+00	0	29	0	344981504	48	6673
2026-01-14 20:06:07.96	31.95	12.21	-38.4	-39.4	22.1	0.00e+00	0	29	0	350224384	48	6761
2026-01-14 20:06:10.99	31.42	12.33	-38.1	-39.2	22.4	0.00e+00	0	29	0	356515840	48	6550
2026-01-14 20:06:14.01	30.88	12.45	-38.3	-39.4	22.2	0.00e+00	47	29	0	361758720	48	6710
2026-01-14 20:06:17.04	30.34	12.57	-38.8	-39.9	21.8	0.00e+00	0	29	0	367001600	50	6328
2026-01-14 20:06:20.07	29.80	12.68	-38.4	-39.5	22.1	0.00e+00	0	29	0	373293056	50	6073
2026-01-14 20:06:23.09	29.25	12.80	-38.4	-39.5	22.0	0.00e+00	92	29	0	378535936	50	6055
2026-01-14 20:06:26.12	28.70	12.91	-37.6	-38.5	22.9	0.00e+00	0	29	0	384827392	48	6080
2026-01-14 20:06:29.15	28.14	13.02	-38.0	-39.0	22.6	0.00e+00	0	29	0	390070272	48	6422
2026-01-14 20:06:32.18	27.58	13.12	-37.9	-38.9	22.6	0.00e+00	0	29	0	396361728	48	6346
2026-01-14 20:06:35.20	27.01	13.23	-38.0	-39.0	22.5	0.00e+00	0	29	0	401604608	48	6400
2026-01-14 20:06:38.23	26.44	13.33	-37.5	-38.5	22.7	0.00e+00	0	29	0	406847488	48	6064
2026-01-14 20:06:41.25	25.87	13.43	-38.3	-39.4	22.2	0.00e+00	0	29	0	413138944	48	6720
2026-01-14 20:06:44.28	25.29	13.52	-38.8	-39.9	21.8	0.00e+00	32	29	0	418381824	50	6360
2026-01-14 20:06:47.31	24.71	13.62	-38.0	-39.0	22.6	0.00e+00	0	29	0	424673280	50	5707
2026-01-14 20:06:50.34	24.13	13.71	-37.5	-38.4	22.9	0.00e+00	0	29	0	429916160	48	6023
2026-01-14 20:06:53.37	23.54	13.80	-37.4	-38.3	23.1	0.00e+00	89	29	0	435159040	48	5956
2026-01-14 20:06:56.40	22.95	13.88	-37.4	-38.3	23.1	0.00e+00	0	29	0	441450496	48	5960
2026-01-14 20:06:59.42	22.35	13.97	-37.4	-38.3	23.2	0.00e+00	0	29	0	446693376	48	5931
2026-01-14 20:07:02.45	21.75	14.05	-37.1	-38.0	23.4	0.00e+00	0	29	0	452984832	48	5710
2026-01-14 20:07:05.48	21.15	14.13	-37.3	-38.2	23.1	0.00e+00	56	29	0	458227712	48	5894
2026-01-14 20:07:08.51	20.55	14.20	-38.0	-39.0	22.6	0.00e+00	0	29	0	463470592	48	6443
2026-01-14 20:07:11.54	19.94	14.27	-38.2	-39.3	22.3	0.00e+00	0	29	0	469762048	48	6625
2026-01-14 20:07:14.57	19.33	14.34	-38.3	-39.3	22.4	0.00e+00	64	29	0	475004928	48	6648
2026-01-14 20:07:17.60	18.71	14.41	-38.4	-39.4	21.9	0.00e+00	0	29	0	481296384	48	6738
2026-01-14 20:07:20.63	18.10	14.47	-38.5	-39.5	22.1	0.00e+00	0	29	0	486539264	48	6840
2026-01-14 20:07:23.66	17.48	14.53	-38.4	-39.4	22.3	0.00e+00	92	29	0	492830720	48	6740
2026-01-14 20:07:26.68	16.86	14.59	-38.1	-39.1	22.6	0.00e+00	0	29	0	498073600	48	6504
2026-01-14 20:07:29.71	16.23	14.64	-37.6	-38.5	22.9	0.00e+00	0	29	0	503316480	48	6055
2026-01-14 20:07:32.74	15.61	14.69	-37.7	-38.6	22.9	0.00e+00	0	29	0	509607936	48	6149
2026-01-14 20:07:35.77	14.98	14.74	-37.8	-38.7	22.7	0.00e+00	52	29	0	514850816	48	6222
2026-01-14 20:07:38.80	14.35	14.78	-38.1	-39.1	22.5	0.00e+00	0	29	0	521142272	48	6480
2026-01-14 20:07:41.83	13.72	14.82	-37.7	-38.7	22.8	0.00e+00	0	29	0	526385152	48	6201
2026-01-14 20:07:44.86	13.08	14.85	-37.9	-38.9	22.7	0.00e+00	92	29	0	531628032	48	6335
2026-01-14 20:07:47.89	12.45	14.89	-38.4	-39.4	22.3	0.00e+00	0	29	0	537919488	48	6753
2026-01-14 20:07:50.91	11.81	14.92	-38.3	-39.3	22.3	0.00e+00	0	29	0	543162368	48	6666
2026-01-14 20:07:53.94	11.18	14.94	-38.0	-39.0	22.6	0.00e+00	59	29	0	549453824	48	6430
2026-01-14 20:07:56.96	10.54	14.96	-38.0	-39.0	22.6	0.00e+00	0	29	0	554696704	48	6412
2026-01-14 20:07:59.99	9.90	14.98	-38.5	-39.5	22.3	0.00e+00	0	29	0	560988160	48	6828
2026-01-14 20:08:03.02	9.26	15.00	-37.6	-38.6	22.9	0.00e+00	0	29	0	566231040	48	6115
2026-01-14 20:08:06.04	8.62	15.01	-38.0	-39.0	22.6	0.00e+00	28	29	0	571473920	48	6396
2026-01-14 20:08:09.07	7.98	15.02	-38.3	-39.4	22.3	0.00e+00	0	29	0	577765376	48	6719
2026-01-14 20:08:12.10	7.34	15.02	-38.2	-39.3	22.4	0.00e+00	0	29	0	583008256	48	6619
2026-01-14 20:08:15.13	6.70	15.02	-37.6	-38.5	23.0	0.00e+00	91	29	0	589299712	48	6099
2026-01-14 20:08:18.16	6.06	15.02	-37.6	-38.5	22.9	0.00e+00	0	29	0	594542592	48	6070
2026-01-14 20:08:21.18	5.42	15.01	-37.7	-38.6	22.7	0.00e+00	0	29	0	599785472	48	6146
2026-01-14 20:08:24.22	4.78	15.00	-38.2	-39.3	22.4	0.00e+00	92	29	0	606076928	48	6616
2026-01-14 20:08:27.25	4.13	14.99	-38.6	-39.6	22.0	0.00e+00	0	29	0	611319808	48	6908
2026-01-14 20:08:30.27	3.50	14.97	-38.9	-40.0	21.4	0.00e+00	0	29	0	617611264	50	6411
2026-01-14 20:08:33.30	2.86	14.95	-38.7	-39.8	21.9	0.00e+00	0	29	0	622854144	50	6294
2026-01-14 20:08:36.32	2.22	14.92	-38.3	-39.3	22.4	0.00e+00	9	29	0	628097024	50	5956
2026-01-14 20:08:39.35	1.59	14.90	-38.3	-39.3	22.3	0.00e+00	0	29	0	634388480	50	5934
2026-01-14 20:08:42.38	0.95	14.86	-38.0	-39.0	22.8	0.00e+00	0	29	0	639631360	50	5698
2026-01-14 20:08:45.40	0.32	14.83	-38.0	-39.0	22.5	0.00e+00	90	29	0	645922816	48	6438
2026-01-14 20:08:48.43	359.69	14.79	-38.1	-39.1	22.7	0.00e+00	0	29	0	651165696	48	6498
2026-01-14 20:08:51.46	359.06	14.75	-37.4	-38.3	23.2	0.00e+00	0	29	0	657457152	48	5928
2026-01-14 20:08:54.49	358.43	14.70	-37.5	-38.4	23.0	0.00e+00	16	29	0	662700032	48	6007
2026-01-14 20:08:57.52	357.80	14.66	-37.7	-38.6	22.8	0.00e+00	0	29	0	667942912	48	6172
2026-01-14 20:09:00.55	357.18	14.60	-37.9	-38.9	22.6	0.00e+00	0	29	0	674234368	48	6332
2026-01-14 20:09:03.58	356.55	14.55	-38.3	-39.3	22.3	0.00e+00	0	29	0	679477248	48	6666
2026-01-14 20:09:06.60	355.94	14.49	-38.3	-39.4	22.3	0.00e+00	55	29	0	685768704	48	6732
2026-01-14 20:09:09.63	355.32	14.43	-38.3	-39.4	22.3	0.00e+00	0	29	0	691011584	48	6695
2026-01-14 20:09:12.66	354.71	14.36	-37.9	-39.0	22.7	0.00e+00	0	29	0	696254464	48	6391
2026-01-14 20:09:15.68	354.10	14.30	-37.5	-38.5	22.9	0.00e+00	67	29	0	702545920	48	6059
2026-01-14 20:09:18.71	353.49	14.22	-37.6	-38.5	22.8	0.00e+00	0	29	0	707788800	48	6094
2026-01-14 20:09:21.74	352.88	14.15	-37.5	-38.5	23.0	0.00e+00	0	29	0	714080256	48	6039
2026-01-14 20:09:24.77	352.28	14.07	-37.4	-38.3	23.2	0.00e+00	0	29	0	719323136	48	5963
2026-01-14 20:09:27.80	351.68	13.99	-37.7	-38.7	22.9	0.00e+00	0	29	0	725614592	48	6191
2026-01-14 20:09:30.82	351.08	13.91	-38.0	-39.0	22.5	0.00e+00	0	29	0	730857472	48	6460
2026-01-14 20:09:33.85	350.49	13.83	-38.5	-39.5	22.2	0.00e+00	0	29	0	736100352	48	6841
2026-01-14 20:09:36.88	349.90	13.74	-38.4	-39.5	22.2	0.00e+00	49	29	0	742391808	48	6781
2026-01-14 20:09:39.91	349.32	13.65	-38.5	-39.6	22.2	0.00e+00	0	29	0	747634688	48	6861
2026-01-14 20:09:42.93	348.74	13.55	-38.0	-39.0	22.7	0.00e+00	0	29	0	753926144	48	6410
2026-01-14 20:09:45.96	348.16	13.46	-37.9	-38.9	22.6	0.00e+00	74	29	0	759169024	48	6354
2026-01-14 20:09:48.98	347.58	13.36	-38.0	-39.0	22.5	0.00e+00	0	29	0	764411904	48	6443
2026-01-14 20:09:52.01	347.01	13.26	-38.2	-39.2	22.4	0.00e+00	0	29	0	770703360	48	6563
2026-01-14 20:09:55.04	346.45	13.16	-36.8	-37.7	23.5	0.00e+00	0	29	0	775946240	48	5517
2026-01-14 20:09:58.06	345.89	13.05	-36.7	-37.5	23.6	0.00e+00	9	29	0	782237696	46	6096
2026-01-14 20:10:01.09	345.33	12.94	-37.3	-38.2	23.2	0.00e+00	0	29	0	787480576	46	6613
2026-01-14 20:10:04.12	344.77	12.83	-37.7	-38.7	22.7	0.00e+00	0	29	0	792723456	48	6237
2026-01-14 20:10:07.15	344.22	12.72	-38.2	-39.3	22.3	0.00e+00	92	29	0	799014912	48	6644
2026-01-14 20:10:10.18	343.68	12.61	-38.8	-39.9	21.7	0.00e+00	0	29	0	804257792	50	6368
2026-01-14 20:10:13.20	343.14	12.49	-38.7	-39.8	21.9	0.00e+00	0	29	0	810549248	50	6250
2026-01-14 20:10:16.23	342.60	12.37	-38.5	-39.6	22.0	0.00e+00	92	29	0	815792128	50	6142
2026-01-14 20:10:19.26	342.07	12.25	-38.8	-39.9	21.8	0.00e+00	0	29	0	822083584	50	6337
2026-01-14 20:10:22.29	341.54	12.13	-38.8	-39.9	21.8	0.00e+00	0	29	0	827326464	50	6367
2026-01-14 20:10:25.32	341.02	12.01	-38.9	-40.0	21.7	0.00e+00	9	29	0	832569344	50	6432
2026-01-14 20:10:28.34	340.50	11.88	-39.0	-40.2	21.6	0.00e+00	19	29	0	838860800	50	6554
2026-01-14 20:10:31.37	339.98	11.76	-39.1	-40.2	21.6	0.00e+00	0	29	0	844103680	50	6564
2026-01-14 20:10:34.40	339.47	11.63	-38.4	-39.4	22.2	0.00e+00	33	29	0	850395136	50	6006
2026-01-14 20:10:37.43	338.97	11.50	-38.2	-39.3	22.1	0.00e+00	92	29	0	855638016	50	5904
2026-01-14 20:10:40.45	338.47	11.37	-38.8	-39.9	21.8	0.00e+00	33	29	0	860880896	50	6374
2026-01-14 20:10:43.48	337.97	11.23	-39.8	-41.1	20.7	0.00e+00	0	29	0	867172352	52	6514
2026-01-14 20:10:46.50	337.48	11.10	-40.2	-41.5	20.4	0.00e+00	92	29	0	872415232	52	6787
2026-01-14 20:10:49.52	337.00	10.96	-39.8	-41.1	20.8	0.00e+00	0	29	0	878706688	52	6474
2026-01-14 20:10:52.54	336.52	10.83	-39.4	-40.6	21.2	0.00e+00	0	29	0	883949568	52	6112
2026-01-14 20:10:55.57	336.04	10.69	-40.8	-42.2	19.6	0.00e+00	10	29	0	889192448	54	6599
2026-01-14 20:10:58.60	335.56	10.55	-42.0	-43.8	18.1	0.00e+00	0	29	0	895483904	56	7030
2026-01-14 20:11:01.63	335.09	10.41	-42.0	-43.7	18.3	0.00e+00	0	29	0	900726784	56	6961
2026-01-14 20:11:04.65	334.63	10.27	-42.0	-43.7	18.4	0.00e+00	0	29	0	907018240	56	7003
2026-01-14 20:11:07.68	334.17	10.13	-41.4	-42.9	19.1	0.00e+00	50	29	0	912261120	56	6348
2026-01-14 20:11:10.71	333.72	9.98	-41.1	-42.6	19.3	0.00e+00	0	29	0	918552576	56	6122
2026-01-14 20:11:13.73	333.27	9.84	-40.5	-41.8	20.0	0.00e+00	0	29	0	923795456	54	6308
2026-01-14 20:11:16.76	332.82	9.70	-40.3	-41.6	20.1	0.00e+00	46	29	0	929038336	54	6160
2026-01-14 20:11:19.79	332.38	9.55	-40.5	-41.9	19.9	0.00e+00	0	29	0	935329792	54	6318
2026-01-14 20:11:22.82	331.94	9.40	-39.8	-41.0	20.6	0.00e+00	0	29	0	940572672	54	5742
2026-01-14 20:11:25.84	331.51	9.26	-39.7	-40.9	20.9	0.00e+00	0	29	0	946864128	52	6379
2026-01-14 20:11:28.87	331.08	9.11	-39.5	-40.6	21.0	0.00e+00	25	29	0	952107008	52	6172
2026-01-14 20:11:31.90	330.66	8.96	-39.7	-40.9	20.9	0.00e+00	0	29	0	957349888	52	6336
2026-01-14 20:11:34.93	330.24	8.81	-39.9	-41.2	20.6	0.00e+00	0	29	0	963641344	52	6558
2026-01-14 20:11:37.95	329.82	8.66	-40.2	-41.5	20.3	0.00e+00	91	29	0	968884224	52	6806
2026-01-14 20:11:40.98	329.41	8.51	-40.3	-41.6	20.1	0.00e+00	0	29	0	975175680	52	6882
2026-01-14 20:11:44.00	329.01	8.36	-40.1	-41.3	20.2	0.00e+00	0	29	0	980418560	52	6677
2026-01-14 20:11:47.03	328.60	8.21	-39.8	-41.0	20.6	0.00e+00	92	29	0	986710016	52	6431
2026-01-14 20:11:50.05	328.21	8.06	-39.7	-41.0	20.7	0.00e+00	0	29	0	991952896	52	6396
2026-01-14 20:11:53.08	327.81	7.91	-39.5	-40.7	21.0	0.00e+00	0	29	0	997195776	52	6197
2026-01-14 20:11:56.11	327.42	7.76	-38.7	-39.8	21.6	0.00e+00	0	29	0	1003487232	50	6273
2026-01-14 20:11:59.13	327.04	7.60	-38.5	-39.5	21.9	0.00e+00	51	29	0	1008730112	50	6075
2026-01-14 20:12:02.16	326.66	7.45	-38.6	-39.7	21.8	0.00e+00	0	29	0	1015021568	50	6185
2026-01-14 20:12:05.19	326.28	7.30	-39.1	-40.3	21.2	0.00e+00	0	29	0	1020264448	50	6657
2026-01-14 20:12:08.21	325.91	7.14	-39.0	-40.1	21.3	0.00e+00	87	29	0	1025507328	50	6509
2026-01-14 20:12:11.23	325.54	6.99	-38.5	-39.5	21.9	0.00e+00	0	29	0	1031798784	50	6091
2026-01-14 20:12:14.26	325.18	6.84	-38.6	-39.7	21.6	0.00e+00	0	29	0	1037041664	50	6206
2026-01-14 20:12:17.29	324.82	6.68	-38.9	-40.0	21.4	0.00e+00	75	29	0	1043333120	50	6445
2026-01-14 20:12:20.32	324.46	6.53	-39.2	-40.4	21.1	0.00e+00	0	29	0	1048576000	50	6707
2026-01-14 20:12:23.34	324.11	6.37	-39.3	-40.5	21.0	0.00e+00	0	29	0	1053818880	50	6787
2026-01-14 20:12:26.37	323.76	6.22	-39.5	-40.7	20.7	0.00e+00	0	29	0	1060110336	50	6961
2026-01-14 20:12:29.40	323.41	6.06	-39.5	-40.7	20.8	0.00e+00	57	29	0	1065353216	50	6991
2026-01-14 20:12:32.43	323.07	5.91	-39.6	-40.8	20.7	0.00e+00	0	29	0	1071644672	50	7050
2026-01-14 20:12:35.45	322.73	5.76	-39.6	-40.8	20.5	0.00e+00	0	29	0	1076887552	52	6278
2026-01-14 20:12:38.48	322.40	5.60	-39.2	-40.4	20.9	0.00e+00	86	29	0	1083179008	52	5989
2026-01-14 20:12:41.50	322.07	5.45	-38.9	-40.1	20.8	0.00e+00	0	29	0	1088421888	52	5782
2026-01-14 20:12:44.54	321.74	5.29	-38.7	-39.8	21.4	0.00e+00	0	29	0	1093664768	50	6272
2026-01-14 20:12:47.56	321.41	5.14	-39.0	-40.2	21.1	0.00e+00	91	29	0	1099956224	50	6566
2026-01-14 20:12:50.59	321.09	4.98	-39.4	-40.7	20.6	0.00e+00	0	29	0	1105199104	50	6933
2026-01-14 20:12:53.61	320.78	4.83	-39.9	-41.3	20.1	0.00e+00	33	29	0	1111490560	52	6624
2026-01-14 20:12:56.64	320.46	4.67	-40.3	-41.6	19.8	0.00e+00	0	29	0	1116733440	52	6919
2026-01-14 20:12:59.67	320.15	4.52	-40.0	-41.3	20.1	0.00e+00	48	29	0	1121976320	52	6648
2026-01-14 20:13:02.70	319.85	4.37	-39.7	-41.0	20.3	0.00e+00	0	29	0	1128267776	52	6425
2026-01-14 20:13:05.72	319.54	4.21	-39.6	-40.8	20.6	0.00e+00	0	29	0	1133510656	52	6293
2026-01-14 20:13:08.75	319.24	4.06	-39.2	-40.4	20.7	0.00e+00	58	29	0	1139802112	52	5978
2026-01-14 20:13:11.78	318.95	3.90	-39.2	-40.4	20.8	0.00e+00	0	29	0	1145044992	52	6024
2026-01-14 20:13:14.80	318.65	3.75	-39.5	-40.8	20.3	0.00e+00	0	29	0	1150287872	52	6283
2026-01-14 20:13:17.83	318.36	3.60	-40.1	-41.5	19.7	0.00e+00	92	29	0	1156579328	52	6802
2026-01-14 20:13:20.86	318.08	3.44	-40.6	-42.2	19.1	0.00e+00	0	29	0	1161822208	52	7344
2026-01-14 20:13:23.88	317.79	3.29	-41.0	-42.7	18.5	0.00e+00	0	29	0	1168113664	54	6932
2026-01-14 20:13:26.90	317.51	3.14	-41.1	-42.8	18.4	0.00e+00	0	29	0	1173356544	54	7065
2026-01-14 20:13:29.93	317.23	2.99	-47.5	-62.7	3.5	7.50e-01	0	29	104	1178599424	60	49069
2026-01-14 20:13:32.96	316.96	2.83	-48.7	-63.8	3.6	1.51e+00	0	29	104	1178599424	60	55962
2026-01-14 20:13:35.99	316.69	2.68	-48.9	-64.1	3.6	1.51e+00	0	29	104	1178599424	60	57744
2026-01-14 20:13:39.02	316.42	2.53	-48.9	-64.1	3.6	1.51e+00	0	29	104	1178599424	60	57880
2026-01-14 20:13:42.04	316.15	2.38	-48.9	-64.1	3.6	1.51e+00	0	29	104	1178599424	60	58068
2026-01-14 20:13:45.08	315.89	2.23	-48.8	-63.9	3.6	1.51e+00	0	29	104	1178599424	60	56728
2026-01-14 20:13:48.11	315.63	2.07	-48.9	-64.1	3.6	1.51e+00	0	29	104	1178599424	60	57787
2026-01-14 20:13:51.13	315.37	1.92	-48.9	-64.1	3.6	1.51e+00	0	29	104	1178599424	60	57648
2026-01-14 20:13:54.16	315.11	1.77	-48.9	-64.0	3.6	1.51e+00	0	29	104	1178599424	60	57326
2026-01-14 20:13:57.19	314.86	1.62	-48.8	-64.0	3.6	1.51e+00	0	29	104	1178599424	60	57187
2026-01-14 20:14:00.22	314.61	1.47	-48.8	-64.0	3.6	1.51e+00	0	29	104	1178599424	60	57286
2026-01-14 20:14:03.25	314.36	1.32	-48.8	-64.0	3.6	1.51e+00	0	29	104	1178599424	60	57026
2026-01-14 20:14:06.28	314.12	1.17	-48.8	-64.0	3.6	1.51e+00	0	29	104	1178599424	60	57229
2026-01-14 20:14:09.30	313.88	1.02	-48.8	-64.0	3.5	1.51e+00	0	29	104	1178599424	60	57142
2026-01-14 20:14:12.33	313.64	0.87	-48.8	-63.9	3.6	1.51e+00	0	29	104	1178599424	60	56833
2026-01-14 20:14:15.36	313.40	0.72	-48.8	-63.9	3.6	1.51e+00	0	29	104	1178599424	60	56834
2026-01-14 20:14:18.39	313.16	0.58	-48.8	-64.0	3.6	1.51e+00	0	29	104	1178599424	60	57137
2026-01-14 20:14:21.42	312.93	0.43	-48.8	-64.0	3.6	1.51e+00	0	29	104	1178599424	60	57124
2026-01-14 20:14:24.45	312.70	0.28	-48.8	-63.9	3.6	1.51e+00	0	29	104	1178599424	60	56949
2026-01-14 20:14:27.48	312.47	0.13	-48.8	-63.9	3.6	1.51e+00	0	29	104	1178599424	60	56731
2026-01-14 20:14:30.51	312.25	-0.02	-48.8	-63.9	3.6	1.51e+00	0	29	104	1178599424	60	56868

#Closed at: 2026-01-14 20:14:31
#Recorded file [1178 MB]: D:/lorett/data/35029_260115_080159.dat