passes_logs/2026/01/14/R4.6S_Anadyr/R4.6S_Anadyr__20260114_114238_SUOMI_NPP_rec.log

#Pass ID: 20260114_114238_SUOMI NPP
#Satellite: SUOMI NPP
#Configuration: NPP
#almurnet v.1.7.20251203
#Start time: 2026-01-14 11:42:41

#Version: 2.2.20231116
#Station: R4.6S_Anadyr
#Location: 177.4865 lon 64.73178 lat
#TLE: 1 37849U 11061A   26013.83525404  .00000052  00000+0  45495-4 0  9990
#TLE: 2 37849  98.7808 315.8939 0002471  65.6575 294.4859 14.19524986736544

#Time	Az	El	Level	Level2	SNR	BER	BlckErr	Temp	State	Recorded	gain1	gain2
2026-01-14 11:42:41.47	20.82	0.14	-48.9	-50.5	5.7	0.00e+00	0	26	0	0	60	41020
2026-01-14 11:42:44.49	21.10	0.26	-48.8	-63.9	3.6	1.51e+00	0	27	104	0	60	56796
2026-01-14 11:42:47.52	21.39	0.38	-48.6	-63.8	3.6	1.51e+00	0	27	104	0	60	55706
2026-01-14 11:42:50.55	21.69	0.50	-48.2	-63.4	3.6	1.51e+00	0	27	104	0	60	53606
2026-01-14 11:42:53.58	21.98	0.63	-47.4	-62.5	3.6	1.51e+00	0	28	104	0	60	48445
2026-01-14 11:42:56.61	22.28	0.75	-47.0	-62.1	3.6	1.51e+00	0	28	104	0	60	46150
2026-01-14 11:42:59.64	22.57	0.87	-47.0	-62.1	3.6	1.51e+00	0	28	104	0	60	46177
2026-01-14 11:43:02.67	22.88	0.99	-47.0	-62.1	3.6	1.51e+00	0	28	104	0	60	46159
2026-01-14 11:43:05.70	23.18	1.11	-46.9	-62.1	3.6	1.51e+00	0	28	104	0	60	45901
2026-01-14 11:43:08.72	23.48	1.23	-47.0	-62.1	3.6	1.51e+00	0	28	104	0	60	45925
2026-01-14 11:43:11.75	23.79	1.36	-46.9	-62.1	3.6	1.51e+00	0	28	104	0	60	45917
2026-01-14 11:43:14.79	24.10	1.48	-46.9	-62.1	3.6	1.51e+00	0	28	104	0	60	45889
2026-01-14 11:43:17.82	24.42	1.60	-46.9	-62.0	3.6	1.51e+00	0	28	104	0	60	45720
2026-01-14 11:43:20.85	24.73	1.72	-46.9	-62.0	3.6	1.51e+00	0	28	104	0	60	45652
2026-01-14 11:43:23.88	25.05	1.84	-46.9	-62.0	3.6	1.51e+00	0	28	104	0	60	45648
2026-01-14 11:43:26.91	25.37	1.96	-46.9	-62.1	3.6	1.51e+00	0	28	104	0	60	46158
2026-01-14 11:43:29.94	25.69	2.08	-46.9	-62.1	3.6	1.51e+00	0	28	104	0	60	45807
2026-01-14 11:43:32.97	26.02	2.20	-46.9	-62.1	3.6	1.51e+00	0	28	104	0	60	46031
2026-01-14 11:43:36.00	26.34	2.32	-46.9	-62.0	3.6	1.51e+00	0	28	104	0	60	45500
2026-01-14 11:43:39.03	26.67	2.44	-46.9	-62.0	3.6	1.51e+00	0	28	104	0	60	45532
2026-01-14 11:43:42.06	27.01	2.56	-46.9	-61.9	3.6	1.51e+00	0	28	104	0	60	45061
2026-01-14 11:43:45.09	27.34	2.68	-46.9	-61.0	3.6	1.51e+00	0	28	104	0	60	40728
2026-01-14 11:43:48.12	27.68	2.80	-45.2	-49.8	11.1	2.73e-02	0	28	0	1048576	60	11149
2026-01-14 11:43:51.15	28.02	2.92	-41.2	-43.0	17.9	0.00e+00	37	28	0	7340032	56	6454
2026-01-14 11:43:54.18	28.36	3.04	-42.0	-44.1	17.9	0.00e+00	0	28	0	12582912	58	6480
2026-01-14 11:43:57.21	28.71	3.16	-43.9	-46.9	14.3	6.80e-06	0	28	0	13631488	60	8004
2026-01-14 11:44:00.24	29.06	3.28	-41.0	-42.7	18.4	0.00e+00	61	28	0	18874368	56	6185
2026-01-14 11:44:03.27	29.41	3.39	-40.6	-42.2	18.6	0.00e+00	0	28	0	25165824	54	6571
2026-01-14 11:44:06.29	29.76	3.51	-40.6	-42.1	19.0	0.00e+00	0	28	0	30408704	54	6521
2026-01-14 11:44:09.32	30.12	3.63	-40.2	-41.7	19.3	0.00e+00	0	28	0	35651584	54	6235
2026-01-14 11:44:12.35	30.48	3.75	-40.2	-41.6	19.3	0.00e+00	32	28	0	41943040	54	6171
2026-01-14 11:44:15.37	30.84	3.86	-40.5	-42.0	19.0	0.00e+00	0	28	0	47185920	54	6433
2026-01-14 11:44:18.40	31.21	3.98	-40.4	-42.0	19.1	0.00e+00	0	28	0	53477376	54	6394
2026-01-14 11:44:21.43	31.57	4.09	-40.1	-41.5	19.6	0.00e+00	92	28	0	58720256	54	6087
2026-01-14 11:44:24.46	31.94	4.21	-40.0	-41.4	19.9	0.00e+00	0	28	0	63963136	54	5967
2026-01-14 11:44:27.48	32.32	4.32	-39.7	-41.0	20.1	0.00e+00	0	28	0	70254592	52	6446
2026-01-14 11:44:30.51	32.69	4.44	-39.8	-41.1	20.0	0.00e+00	92	28	0	75497472	52	6531
2026-01-14 11:44:33.54	33.07	4.55	-39.9	-41.3	19.8	0.00e+00	0	28	0	81788928	52	6681
2026-01-14 11:44:36.56	33.45	4.66	-39.9	-41.3	19.9	0.00e+00	0	28	0	87031808	52	6633
2026-01-14 11:44:39.59	33.84	4.77	-39.8	-41.1	20.0	0.00e+00	0	28	0	93323264	52	6510
2026-01-14 11:44:42.62	34.22	4.89	-40.1	-41.4	19.8	0.00e+00	0	28	0	98566144	52	6760
2026-01-14 11:44:45.64	34.61	5.00	-40.3	-41.8	19.5	0.00e+00	0	28	0	103809024	52	7014
2026-01-14 11:44:48.67	35.00	5.11	-40.3	-41.7	19.5	0.00e+00	0	28	0	110100480	52	6951
2026-01-14 11:44:51.70	35.40	5.22	-40.2	-41.7	19.6	0.00e+00	92	28	0	115343360	52	6945
2026-01-14 11:44:54.73	35.80	5.33	-40.0	-41.4	19.9	0.00e+00	0	28	0	121634816	52	6704
2026-01-14 11:44:57.75	36.20	5.43	-40.2	-41.7	19.5	0.00e+00	0	28	0	126877696	52	6941
2026-01-14 11:45:00.78	36.60	5.54	-40.4	-41.8	19.6	0.00e+00	92	28	0	132120576	52	7085
2026-01-14 11:45:03.81	37.01	5.65	-40.4	-41.9	19.4	0.00e+00	0	28	0	138412032	52	7097
2026-01-14 11:45:06.83	37.42	5.75	-40.3	-41.7	19.7	0.00e+00	0	28	0	143654912	52	6951
2026-01-14 11:45:09.86	37.83	5.86	-40.0	-41.4	20.0	0.00e+00	0	28	0	149946368	52	6697
2026-01-14 11:45:12.89	38.25	5.96	-39.8	-41.1	20.1	0.00e+00	54	28	0	155189248	52	6534
2026-01-14 11:45:15.92	38.67	6.07	-40.1	-41.5	19.9	0.00e+00	0	28	0	160432128	52	6801
2026-01-14 11:45:18.94	39.09	6.17	-40.3	-41.7	19.6	0.00e+00	0	28	0	166723584	52	6977
2026-01-14 11:45:21.97	39.51	6.27	-40.3	-41.7	19.8	0.00e+00	92	28	0	171966464	52	6948
2026-01-14 11:45:25.00	39.94	6.38	-40.3	-41.7	19.8	0.00e+00	0	28	0	178257920	52	6942
2026-01-14 11:45:28.02	40.37	6.48	-40.4	-41.8	19.7	0.00e+00	0	28	0	183500800	52	7024
2026-01-14 11:45:31.04	40.80	6.57	-40.6	-42.1	19.4	0.00e+00	92	28	0	189792256	52	7278
2026-01-14 11:45:34.07	41.24	6.67	-40.5	-42.0	19.5	0.00e+00	0	28	0	195035136	52	7180
2026-01-14 11:45:37.10	41.68	6.77	-40.4	-41.8	19.6	0.00e+00	0	28	0	200278016	52	7023
2026-01-14 11:45:40.13	42.12	6.87	-40.1	-41.5	20.0	0.00e+00	0	28	0	206569472	52	6792
2026-01-14 11:45:43.15	42.56	6.96	-40.2	-41.6	19.8	0.00e+00	39	28	0	211812352	52	6860
2026-01-14 11:45:46.18	43.01	7.06	-40.0	-41.3	20.2	0.00e+00	0	28	0	218103808	52	6678
2026-01-14 11:45:49.20	43.46	7.15	-40.3	-41.7	19.8	0.00e+00	0	28	0	223346688	52	6980
2026-01-14 11:45:52.23	43.91	7.24	-40.7	-42.1	19.5	0.00e+00	92	28	0	228589568	52	7325
2026-01-14 11:45:55.26	44.37	7.33	-40.5	-41.9	19.7	0.00e+00	0	28	0	234881024	52	7144
2026-01-14 11:45:58.29	44.82	7.42	-40.3	-41.7	20.0	0.00e+00	0	28	0	240123904	52	6986
2026-01-14 11:46:01.32	45.29	7.51	-40.0	-41.3	20.2	0.00e+00	92	28	0	246415360	52	6667
2026-01-14 11:46:04.34	45.75	7.60	-40.6	-42.1	19.6	0.00e+00	0	29	0	251658240	52	7254
2026-01-14 11:46:07.37	46.21	7.68	-40.8	-42.3	19.4	0.00e+00	0	28	0	256901120	54	6620
2026-01-14 11:46:10.40	46.68	7.77	-40.5	-41.9	19.7	0.00e+00	0	28	0	263192576	54	6342
2026-01-14 11:46:13.43	47.16	7.85	-40.7	-42.2	19.5	0.00e+00	26	28	0	268435456	54	6550
2026-01-14 11:46:16.46	47.63	7.93	-40.6	-42.1	19.6	0.00e+00	0	29	0	274726912	54	6503
2026-01-14 11:46:19.49	48.11	8.01	-40.3	-41.7	19.9	0.00e+00	0	28	0	279969792	54	6188
2026-01-14 11:46:22.52	48.59	8.09	-40.2	-41.5	20.1	0.00e+00	68	28	0	286261248	54	6093
2026-01-14 11:46:25.54	49.07	8.17	-40.2	-41.6	20.0	0.00e+00	0	28	0	291504128	54	6104
2026-01-14 11:46:28.57	49.55	8.24	-41.1	-42.6	19.1	0.00e+00	0	29	0	296747008	54	6914
2026-01-14 11:46:31.59	50.04	8.32	-41.5	-43.2	18.6	0.00e+00	33	28	0	303038464	54	7370
2026-01-14 11:46:34.61	50.52	8.39	-41.3	-42.8	19.0	0.00e+00	0	28	0	308281344	56	6286
2026-01-14 11:46:37.64	51.02	8.46	-40.4	-41.8	19.9	0.00e+00	0	29	0	314572800	54	6247
2026-01-14 11:46:40.67	51.51	8.53	-40.3	-41.7	19.8	0.00e+00	0	29	0	319815680	54	6183
2026-01-14 11:46:43.70	52.01	8.60	-40.4	-41.7	19.9	0.00e+00	38	28	0	325058560	54	6241
2026-01-14 11:46:46.72	52.50	8.66	-40.1	-41.4	20.2	0.00e+00	0	29	0	331350016	54	6028
2026-01-14 11:46:49.75	53.00	8.73	-39.8	-41.1	20.5	0.00e+00	0	29	0	336592896	54	5790
2026-01-14 11:46:52.78	53.51	8.79	-40.5	-41.9	19.7	0.00e+00	50	28	0	342884352	54	6378
2026-01-14 11:46:55.80	54.01	8.85	-40.7	-42.2	19.4	0.00e+00	0	29	0	348127232	54	6589
2026-01-14 11:46:58.83	54.52	8.91	-39.8	-41.0	20.6	0.00e+00	0	29	0	354418688	54	5728
2026-01-14 11:47:01.86	55.03	8.97	-39.9	-41.2	20.5	0.00e+00	90	29	0	359661568	52	6594
2026-01-14 11:47:04.89	55.54	9.02	-40.4	-41.8	19.8	0.00e+00	0	29	0	364904448	52	7064
2026-01-14 11:47:07.92	56.05	9.08	-40.0	-41.3	20.4	0.00e+00	0	29	0	371195904	52	6617
2026-01-14 11:47:10.95	56.56	9.13	-39.6	-40.8	20.7	0.00e+00	0	28	0	376438784	52	6300
2026-01-14 11:47:13.97	57.08	9.18	-39.9	-41.2	20.5	0.00e+00	42	28	0	382730240	52	6551
2026-01-14 11:47:17.00	57.60	9.23	-39.9	-41.1	20.5	0.00e+00	0	28	0	387973120	52	6518
2026-01-14 11:47:20.03	58.12	9.27	-39.8	-41.1	20.5	0.00e+00	0	28	0	393216000	52	6467
2026-01-14 11:47:23.06	58.64	9.32	-40.6	-42.1	19.6	0.00e+00	47	28	0	399507456	54	6484
2026-01-14 11:47:26.09	59.16	9.36	-41.6	-43.3	18.6	0.00e+00	0	28	0	404750336	56	6648
2026-01-14 11:47:29.11	59.68	9.40	-41.5	-43.2	18.7	0.00e+00	0	28	0	411041792	56	6567
2026-01-14 11:47:32.14	60.21	9.44	-41.1	-42.7	19.1	0.00e+00	0	28	0	416284672	56	6187
2026-01-14 11:47:35.18	60.74	9.48	-41.3	-42.9	19.0	0.00e+00	31	29	0	421527552	56	6348
2026-01-14 11:47:38.20	61.26	9.51	-41.4	-42.9	19.0	0.00e+00	0	29	0	427819008	56	6376
2026-01-14 11:47:41.23	61.79	9.54	-41.1	-42.7	19.1	0.00e+00	0	29	0	433061888	56	6191
2026-01-14 11:47:44.26	62.32	9.57	-41.2	-42.7	19.2	0.00e+00	92	29	0	439353344	56	6224
2026-01-14 11:47:47.29	62.86	9.60	-41.3	-42.9	19.1	0.00e+00	0	29	0	444596224	56	6324
2026-01-14 11:47:50.32	63.39	9.63	-41.0	-42.5	19.4	0.00e+00	0	29	0	450887680	56	6087
2026-01-14 11:47:53.35	63.92	9.65	-40.6	-42.1	19.7	0.00e+00	47	29	0	456130560	54	6479
2026-01-14 11:47:56.37	64.45	9.67	-40.5	-41.9	19.9	0.00e+00	0	28	0	461373440	54	6323
2026-01-14 11:47:59.40	64.99	9.69	-40.3	-41.7	20.0	0.00e+00	0	28	0	467664896	54	6178
2026-01-14 11:48:02.43	65.52	9.71	-40.1	-41.4	20.3	0.00e+00	7	29	0	472907776	54	6022
2026-01-14 11:48:05.46	66.06	9.72	-40.2	-41.6	20.0	0.00e+00	34	29	0	479199232	54	6124
2026-01-14 11:48:08.48	66.60	9.74	-40.6	-42.1	19.7	0.00e+00	0	29	0	484442112	54	6468
2026-01-14 11:48:11.51	67.13	9.75	-40.0	-41.4	20.3	0.00e+00	0	29	0	489684992	54	5966
2026-01-14 11:48:14.54	67.67	9.75	-39.4	-40.6	21.0	0.00e+00	34	29	0	495976448	52	6161
2026-01-14 11:48:17.56	68.21	9.76	-39.5	-40.7	20.9	0.00e+00	0	29	0	501219328	52	6237
2026-01-14 11:48:20.59	68.74	9.77	-39.3	-40.5	21.2	0.00e+00	0	28	0	507510784	52	6043
2026-01-14 11:48:23.62	69.28	9.77	-38.9	-40.0	21.6	0.00e+00	80	28	0	512753664	52	5700
2026-01-14 11:48:26.64	69.82	9.77	-39.1	-40.2	21.2	0.00e+00	0	28	0	519045120	52	5886
2026-01-14 11:48:29.67	70.36	9.76	-39.6	-40.8	20.8	0.00e+00	0	29	0	524288000	52	6305
2026-01-14 11:48:32.70	70.90	9.76	-39.3	-40.5	21.0	0.00e+00	0	29	0	529530880	52	6067
2026-01-14 11:48:35.72	71.43	9.75	-39.3	-40.5	21.0	0.00e+00	35	29	0	535822336	52	6083
2026-01-14 11:48:38.75	71.97	9.74	-39.3	-40.5	21.0	0.00e+00	0	28	0	541065216	52	6071
2026-01-14 11:48:41.78	72.51	9.73	-39.4	-40.7	20.9	0.00e+00	0	29	0	547356672	52	6190
2026-01-14 11:48:44.81	73.04	9.72	-39.1	-40.2	21.3	0.00e+00	92	29	0	552599552	52	5894
2026-01-14 11:48:47.84	73.58	9.70	-38.9	-40.0	21.3	0.00e+00	0	29	0	557842432	52	5731
2026-01-14 11:48:50.86	74.12	9.69	-38.9	-40.0	21.4	0.00e+00	0	29	0	564133888	52	5747
2026-01-14 11:48:53.89	74.65	9.67	-38.4	-39.4	21.9	0.00e+00	92	28	0	569376768	50	6015
2026-01-14 11:48:56.92	75.19	9.64	-37.7	-38.7	22.6	0.00e+00	0	29	0	575668224	50	5533
2026-01-14 11:48:59.95	75.72	9.62	-38.0	-39.0	22.3	0.00e+00	0	29	0	580911104	48	6436
2026-01-14 11:49:02.97	76.25	9.59	-38.4	-39.5	21.9	0.00e+00	0	28	0	586153984	48	6790
2026-01-14 11:49:06.00	76.78	9.56	-38.5	-39.6	21.7	0.00e+00	41	29	0	592445440	48	6885
2026-01-14 11:49:09.03	77.31	9.53	-38.4	-39.5	22.0	0.00e+00	0	29	0	597688320	48	6791
2026-01-14 11:49:12.06	77.84	9.50	-38.6	-39.7	21.7	0.00e+00	0	29	0	603979776	48	6987
2026-01-14 11:49:15.09	78.37	9.47	-38.6	-39.7	21.7	0.00e+00	90	28	0	609222656	48	6943
2026-01-14 11:49:18.11	78.90	9.43	-38.4	-39.5	21.7	0.00e+00	31	28	0	615514112	48	6837
2026-01-14 11:49:21.14	79.42	9.39	-38.6	-39.8	21.7	0.00e+00	0	29	0	620756992	48	7009
2026-01-14 11:49:24.17	79.95	9.35	-38.8	-40.0	21.5	0.00e+00	92	29	0	625999872	50	6410
2026-01-14 11:49:27.19	80.47	9.31	-39.3	-40.5	21.1	0.00e+00	33	28	0	632291328	50	6810
2026-01-14 11:49:30.22	80.99	9.26	-39.5	-40.7	20.8	0.00e+00	0	29	0	637534208	50	6966
2026-01-14 11:49:33.24	81.51	9.22	-38.9	-40.1	21.3	0.00e+00	0	28	0	643825664	50	6489
2026-01-14 11:49:36.27	82.03	9.17	-38.6	-39.7	21.5	0.00e+00	40	29	0	649068544	50	6181
2026-01-14 11:49:39.30	82.55	9.12	-38.3	-39.3	22.0	0.00e+00	0	28	0	654311424	50	5943
2026-01-14 11:49:42.33	83.06	9.06	-37.6	-38.5	22.6	0.00e+00	0	29	0	660602880	48	6089
2026-01-14 11:49:45.36	83.57	9.01	-37.6	-38.6	22.5	0.00e+00	78	29	0	665845760	48	6133
2026-01-14 11:49:48.39	84.09	8.95	-37.6	-38.6	22.5	0.00e+00	0	28	0	672137216	48	6134
2026-01-14 11:49:51.41	84.59	8.89	-37.8	-38.8	22.3	0.00e+00	0	29	0	677380096	48	6306
2026-01-14 11:49:54.44	85.10	8.83	-37.9	-38.9	22.1	0.00e+00	0	29	0	683671552	48	6338
2026-01-14 11:49:57.47	85.61	8.77	-38.0	-39.0	22.3	0.00e+00	0	29	0	688914432	48	6411
2026-01-14 11:50:00.50	86.11	8.71	-38.1	-39.1	22.1	0.00e+00	0	28	0	694157312	48	6530
2026-01-14 11:50:03.53	86.61	8.64	-38.4	-39.5	21.8	0.00e+00	0	28	0	700448768	48	6793
2026-01-14 11:50:06.55	87.11	8.58	-38.2	-39.2	22.1	0.00e+00	34	28	0	705691648	48	6603
2026-01-14 11:50:09.58	87.61	8.51	-37.4	-38.3	22.8	0.00e+00	0	28	0	711983104	48	5953
2026-01-14 11:50:12.61	88.10	8.44	-37.2	-38.2	22.9	0.00e+00	0	28	0	717225984	48	5846
2026-01-14 11:50:15.63	88.59	8.37	-37.9	-38.9	22.2	0.00e+00	92	28	0	722468864	48	6384
2026-01-14 11:50:18.66	89.08	8.29	-38.0	-39.0	22.1	0.00e+00	0	29	0	728760320	48	6462
2026-01-14 11:50:21.69	89.57	8.22	-38.1	-39.2	22.0	0.00e+00	0	28	0	734003200	48	6567
2026-01-14 11:50:24.72	90.06	8.14	-38.1	-39.2	22.0	0.00e+00	92	28	0	740294656	48	6567
2026-01-14 11:50:27.74	90.54	8.06	-38.7	-39.9	21.4	0.00e+00	37	28	0	745537536	48	7147
2026-01-14 11:50:30.78	91.02	7.98	-39.5	-40.8	20.7	0.00e+00	0	28	0	750780416	50	7045
2026-01-14 11:50:33.80	91.50	7.90	-39.9	-41.2	20.3	0.00e+00	0	28	0	757071872	52	6603
2026-01-14 11:50:36.83	91.97	7.82	-39.7	-41.0	20.3	0.00e+00	36	28	0	762314752	52	6458
2026-01-14 11:50:39.85	92.44	7.74	-39.9	-41.2	20.2	0.00e+00	0	29	0	768606208	52	6587
2026-01-14 11:50:42.88	92.91	7.65	-40.0	-41.4	20.0	0.00e+00	0	28	0	773849088	52	6739
2026-01-14 11:50:45.91	93.38	7.56	-39.7	-41.1	20.4	0.00e+00	76	28	0	780140544	52	6484
2026-01-14 11:50:48.94	93.84	7.48	-39.8	-41.1	20.2	0.00e+00	0	28	0	785383424	52	6496
2026-01-14 11:50:51.97	94.31	7.39	-40.0	-41.5	19.9	0.00e+00	0	28	0	790626304	52	6774
2026-01-14 11:50:55.00	94.77	7.30	-40.3	-41.7	19.6	0.00e+00	0	28	0	796917760	52	6968
2026-01-14 11:50:58.02	95.22	7.20	-41.1	-42.7	18.9	0.00e+00	9	28	0	802160640	54	6999
2026-01-14 11:51:01.05	95.67	7.11	-41.6	-43.4	18.3	0.00e+00	0	29	0	808452096	54	7553
2026-01-14 11:51:04.08	96.12	7.02	-42.3	-44.4	17.2	0.00e+00	0	28	0	813694976	56	7558
2026-01-14 11:51:07.11	96.57	6.92	-41.9	-43.8	17.7	0.00e+00	90	28	0	818937856	56	7029
2026-01-14 11:51:10.13	97.02	6.83	-41.4	-43.0	18.5	0.00e+00	0	28	0	825229312	56	6464
2026-01-14 11:51:13.16	97.46	6.73	-40.9	-42.5	18.8	0.00e+00	33	28	0	830472192	56	6043
2026-01-14 11:51:16.19	97.90	6.63	-40.8	-42.4	18.9	0.00e+00	92	28	0	836763648	54	6700
2026-01-14 11:51:19.22	98.34	6.53	-41.0	-42.7	18.7	0.00e+00	0	29	0	842006528	54	6951
2026-01-14 11:51:22.25	98.77	6.43	-41.3	-43.0	18.5	0.00e+00	0	29	0	848297984	54	7232
2026-01-14 11:51:25.27	99.20	6.33	-41.2	-42.9	18.5	0.00e+00	61	28	0	853540864	54	7169
2026-01-14 11:51:28.30	99.63	6.23	-41.2	-42.9	18.5	0.00e+00	15	28	0	858783744	54	7157
2026-01-14 11:51:31.33	100.05	6.12	-40.7	-42.3	19.0	0.00e+00	0	28	0	865075200	54	6689
2026-01-14 11:51:34.35	100.47	6.02	-41.0	-42.6	18.7	0.00e+00	0	29	0	870318080	54	6888
2026-01-14 11:51:37.38	100.89	5.92	-40.7	-42.3	19.0	0.00e+00	92	29	0	876609536	54	6671
2026-01-14 11:51:40.41	101.31	5.81	-40.9	-42.6	18.9	0.00e+00	0	29	0	881852416	54	6880
2026-01-14 11:51:43.44	101.72	5.70	-40.6	-42.4	18.8	0.00e+00	0	29	0	887095296	54	6725
2026-01-14 11:51:46.47	102.13	5.60	-39.9	-41.8	19.4	0.00e+00	90	29	0	893386752	54	6264
2026-01-14 11:51:49.49	102.54	5.49	-40.2	-41.7	19.6	0.00e+00	0	29	0	898629632	54	6180
2026-01-14 11:51:52.52	102.95	5.38	-40.1	-41.6	19.6	0.00e+00	0	29	0	904921088	54	6121
2026-01-14 11:51:55.55	103.35	5.27	-40.0	-41.4	19.8	0.00e+00	0	29	0	910163968	54	5992
2026-01-14 11:51:58.58	103.75	5.16	-40.2	-41.7	19.5	0.00e+00	40	29	0	915406848	54	6205
2026-01-14 11:52:01.60	104.14	5.05	-40.2	-41.7	19.5	0.00e+00	0	29	0	921698304	54	6231
2026-01-14 11:52:04.63	104.54	4.94	-40.7	-42.4	18.9	0.00e+00	0	29	0	926941184	54	6715
2026-01-14 11:52:07.66	104.93	4.82	-40.2	-42.1	19.0	0.00e+00	64	29	0	933232640	54	6497
2026-01-14 11:52:10.69	105.31	4.71	-40.2	-41.9	19.2	0.00e+00	0	29	0	938475520	54	6388
2026-01-14 11:52:13.72	105.70	4.60	-39.4	-40.9	20.1	0.00e+00	0	29	0	944766976	52	6337
2026-01-14 11:52:16.75	106.08	4.48	-39.6	-41.2	19.6	0.00e+00	65	29	0	950009856	52	6555
2026-01-14 11:52:19.77	106.46	4.37	-39.6	-41.1	19.8	0.00e+00	0	29	0	955252736	52	6490
2026-01-14 11:52:22.80	106.83	4.25	-39.9	-41.4	19.1	0.00e+00	0	29	0	961544192	52	6755
2026-01-14 11:52:25.83	107.21	4.14	-39.7	-41.2	19.5	0.00e+00	0	29	0	966787072	52	6614
2026-01-14 11:52:28.86	107.58	4.02	-39.6	-41.1	19.5	0.00e+00	38	29	0	973078528	52	6506
2026-01-14 11:52:31.89	107.95	3.90	-39.9	-41.4	19.1	0.00e+00	0	29	0	978321408	52	6716
2026-01-14 11:52:34.92	108.31	3.79	-39.9	-41.9	18.6	0.00e+00	0	29	0	983564288	52	7125
2026-01-14 11:52:37.95	108.67	3.67	-40.4	-42.5	18.0	0.00e+00	92	29	0	989855744	52	7665
2026-01-14 11:52:40.98	109.03	3.55	-40.7	-42.5	17.8	0.00e+00	0	29	0	995098624	54	6832
2026-01-14 11:52:44.01	109.39	3.43	-41.0	-42.9	17.6	0.00e+00	0	29	0	1001390080	54	7091
2026-01-14 11:52:47.03	109.74	3.32	-41.0	-43.1	17.3	0.00e+00	32	29	0	1006632960	54	7261
2026-01-14 11:52:50.06	110.09	3.20	-41.8	-44.1	16.2	0.00e+00	0	29	0	1012924416	56	7324
2026-01-14 11:52:53.08	110.44	3.08	-41.5	-44.1	16.2	0.00e+00	0	29	0	1018167296	56	7314
2026-01-14 11:52:56.10	110.79	2.96	-47.0	-62.7	3.6	1.51e+00	0	29	104	1022361600	60	49092
2026-01-14 11:52:59.13	111.13	2.84	-48.4	-63.6	3.6	1.51e+00	0	29	104	1022361600	60	54737
2026-01-14 11:53:02.16	111.47	2.72	-48.6	-63.8	3.6	1.51e+00	0	29	104	1022361600	60	56064
2026-01-14 11:53:05.19	111.81	2.60	-48.7	-63.9	3.6	1.51e+00	0	29	104	1022361600	60	56591
2026-01-14 11:53:08.21	112.14	2.48	-48.7	-63.9	3.6	1.51e+00	0	29	104	1022361600	60	56353
2026-01-14 11:53:11.24	112.47	2.36	-48.6	-63.9	3.6	1.51e+00	0	29	104	1022361600	60	56353
2026-01-14 11:53:14.27	112.80	2.23	-48.6	-63.8	3.6	1.51e+00	0	29	104	1022361600	60	56221
2026-01-14 11:53:17.30	113.13	2.11	-48.6	-63.8	3.6	1.51e+00	0	29	104	1022361600	60	55937
2026-01-14 11:53:20.33	113.46	1.99	-48.6	-63.8	3.6	1.51e+00	0	29	104	1022361600	60	55917
2026-01-14 11:53:23.36	113.78	1.87	-48.6	-63.8	3.6	1.51e+00	0	29	104	1022361600	60	55942
2026-01-14 11:53:26.39	114.10	1.75	-48.6	-63.8	3.6	1.51e+00	0	29	104	1022361600	60	56088
2026-01-14 11:53:29.41	114.41	1.63	-48.6	-63.8	3.6	1.51e+00	0	29	104	1022361600	60	55877
2026-01-14 11:53:32.44	114.73	1.50	-48.6	-63.8	3.6	1.51e+00	0	29	104	1022361600	60	55918
2026-01-14 11:53:35.47	115.04	1.38	-48.6	-63.8	3.6	1.51e+00	0	29	104	1022361600	60	56005
2026-01-14 11:53:38.50	115.35	1.26	-48.6	-63.8	3.6	1.51e+00	0	29	104	1022361600	60	55946
2026-01-14 11:53:41.53	115.66	1.13	-48.6	-63.8	3.6	1.51e+00	0	29	104	1022361600	60	56052
2026-01-14 11:53:44.56	115.96	1.01	-48.6	-63.8	3.6	1.51e+00	0	29	104	1022361600	60	56056
2026-01-14 11:53:47.59	116.26	0.89	-48.7	-63.9	3.6	1.51e+00	0	29	104	1022361600	60	56324
2026-01-14 11:53:50.62	116.56	0.77	-48.6	-63.8	3.6	1.51e+00	0	29	104	1022361600	60	56225
2026-01-14 11:53:53.65	116.86	0.64	-48.6	-63.8	3.6	1.51e+00	0	29	104	1022361600	60	55983
2026-01-14 11:53:56.68	117.16	0.52	-48.6	-63.8	3.6	1.51e+00	0	29	104	1022361600	60	56073
2026-01-14 11:53:59.71	117.45	0.39	-48.6	-63.8	3.6	1.51e+00	0	29	104	1022361600	60	56045
2026-01-14 11:54:02.74	117.74	0.27	-48.6	-63.9	3.6	1.51e+00	0	29	104	1022361600	60	56370
2026-01-14 11:54:05.77	118.03	0.15	-48.6	-63.8	3.6	1.51e+00	0	29	104	1022361600	60	56086
2026-01-14 11:54:08.80	118.32	0.02	-48.6	-63.8	3.6	1.51e+00	0	29	104	1022361600	60	55940

#Closed at: 2026-01-14 11:54:11
#Recorded file [1022 MB]: D:/lorett/data/35029_260114_234241.dat