passes_logs/2026/01/14/R4.6S_Anadyr/R4.6S_Anadyr__20260114_120314_NOAA_20_JPSS-1_rec.log

#Pass ID: 20260114_120314_NOAA 20 (JPSS-1)
#Satellite: NOAA 20 (JPSS-1)
#Configuration: NOAA 20
#almurnet v.1.7.20251203
#Start time: 2026-01-14 12:03:17

#Version: 2.2.20231116
#Station: R4.6S_Anadyr
#Location: 177.4865 lon 64.73178 lat
#TLE: 1 43013U 17073A   26013.84982170  .00000053  00000+0  46215-4 0  9999
#TLE: 2 43013  98.7633 314.8013 0001544  40.9009 319.2282 14.19535753422575

#Time	Az	El	Level	Level2	SNR	BER	BlckErr	Temp	State	Recorded	gain1	gain2
2026-01-14 12:03:17.81	19.73	0.15	-48.6	-62.3	3.3	1.54e+00	0	27	0	0	60	47278
2026-01-14 12:03:20.84	19.98	0.29	-48.8	-63.9	3.6	1.51e+00	0	27	104	0	60	56813
2026-01-14 12:03:23.86	20.23	0.43	-48.8	-64.0	3.6	1.51e+00	0	27	104	0	60	57101
2026-01-14 12:03:26.89	20.49	0.57	-48.6	-63.9	3.6	1.51e+00	0	27	104	0	60	56617
2026-01-14 12:03:29.92	20.75	0.71	-48.4	-63.6	3.6	1.51e+00	0	28	104	0	60	54604
2026-01-14 12:03:32.95	21.01	0.84	-47.9	-63.1	3.6	1.51e+00	0	28	104	0	60	51749
2026-01-14 12:03:35.97	21.27	0.98	-47.0	-62.2	3.6	1.51e+00	0	28	104	0	60	46510
2026-01-14 12:03:39.00	21.54	1.12	-47.0	-62.1	3.6	1.51e+00	0	28	104	0	60	46222
2026-01-14 12:03:42.03	21.81	1.26	-47.0	-62.1	3.6	1.51e+00	0	28	104	0	60	46204
2026-01-14 12:03:45.06	22.08	1.40	-47.0	-62.1	3.6	1.51e+00	0	28	104	0	60	46246
2026-01-14 12:03:48.09	22.35	1.54	-47.0	-62.1	3.6	1.51e+00	0	28	104	0	60	46271
2026-01-14 12:03:51.12	22.63	1.68	-47.0	-62.1	3.6	1.51e+00	0	28	104	0	60	46271
2026-01-14 12:03:54.15	22.91	1.82	-46.8	-62.1	3.6	1.51e+00	0	28	104	0	60	46211
2026-01-14 12:03:57.17	23.19	1.96	-46.9	-62.1	3.6	1.51e+00	0	28	104	0	60	46201
2026-01-14 12:04:00.20	23.47	2.10	-47.0	-62.0	3.6	1.51e+00	0	28	104	0	60	45711
2026-01-14 12:04:03.23	23.76	2.24	-47.0	-62.1	3.6	1.51e+00	0	28	104	0	60	46029
2026-01-14 12:04:06.26	24.05	2.38	-47.0	-62.1	3.6	1.51e+00	0	28	104	0	60	45989
2026-01-14 12:04:09.29	24.34	2.52	-46.9	-60.8	3.6	1.51e+00	0	28	104	0	60	39737
2026-01-14 12:04:12.32	24.63	2.67	-46.4	-54.8	6.5	1.15e+00	0	28	104	0	60	19833
2026-01-14 12:04:15.35	24.93	2.81	-43.0	-45.5	15.8	0.00e+00	40	28	0	5242880	60	6832
2026-01-14 12:04:18.38	25.23	2.95	-42.1	-44.2	16.9	0.00e+00	35	28	0	10485760	56	7407
2026-01-14 12:04:21.41	25.53	3.09	-44.1	-47.5	12.8	0.00e+00	6	28	0	15728640	58	9603
2026-01-14 12:04:24.43	25.83	3.23	-41.5	-43.2	16.9	0.00e+00	0	28	0	17825792	56	6612
2026-01-14 12:04:27.46	26.14	3.37	-40.9	-42.5	18.9	0.00e+00	92	28	0	20971520	56	6063
2026-01-14 12:04:30.49	26.45	3.51	-40.8	-42.4	18.9	0.00e+00	39	28	0	27262976	54	6711
2026-01-14 12:04:33.52	26.77	3.66	-41.0	-42.6	18.7	0.00e+00	5	28	0	32505856	54	6923
2026-01-14 12:04:36.55	27.08	3.80	-41.0	-42.6	18.8	0.00e+00	90	28	0	37748736	54	6876
2026-01-14 12:04:39.57	27.40	3.94	-41.0	-42.7	18.7	0.00e+00	37	28	0	44040192	54	6944
2026-01-14 12:04:42.60	27.72	4.08	-40.9	-42.5	18.8	0.00e+00	6	28	0	49283072	54	6814
2026-01-14 12:04:45.62	28.05	4.22	-41.2	-42.9	19.0	0.00e+00	90	28	0	55574528	54	7123
2026-01-14 12:04:48.65	28.37	4.36	-41.5	-43.2	18.5	0.00e+00	6	28	0	60817408	54	7408
2026-01-14 12:04:51.67	28.70	4.51	-42.0	-43.9	18.1	0.00e+00	7	28	0	66060288	56	7090
2026-01-14 12:04:54.70	29.04	4.65	-42.6	-44.6	17.1	0.00e+00	41	28	0	72351744	56	7759
2026-01-14 12:04:57.73	29.38	4.79	-41.5	-43.2	18.5	0.00e+00	91	28	0	77594624	56	6567
2026-01-14 12:05:00.76	29.72	4.93	-40.3	-41.7	19.8	0.00e+00	34	28	0	83886080	54	6202
2026-01-14 12:05:03.78	30.06	5.07	-40.0	-41.4	20.1	0.00e+00	43	28	0	89128960	54	5982
2026-01-14 12:05:06.81	30.41	5.21	-40.7	-42.2	19.3	0.00e+00	92	28	0	94371840	54	6545
2026-01-14 12:05:09.84	30.76	5.36	-40.3	-41.6	19.9	0.00e+00	0	28	0	100663296	54	6165
2026-01-14 12:05:12.87	31.11	5.50	-40.1	-41.5	20.1	0.00e+00	0	28	0	105906176	54	6066
2026-01-14 12:05:15.90	31.47	5.64	-39.8	-41.1	20.5	0.00e+00	92	28	0	112197632	54	5763
2026-01-14 12:05:18.92	31.82	5.78	-39.9	-41.1	20.5	0.00e+00	39	28	0	117440512	52	6517
2026-01-14 12:05:21.95	32.19	5.92	-39.6	-40.8	20.8	0.00e+00	41	28	0	123731968	52	6302
2026-01-14 12:05:24.98	32.55	6.06	-39.6	-40.9	20.8	0.00e+00	2	28	0	128974848	52	6342
2026-01-14 12:05:28.00	32.92	6.20	-39.6	-40.9	20.8	0.00e+00	73	28	0	134217728	52	6342
2026-01-14 12:05:31.03	33.30	6.34	-39.1	-40.3	21.4	0.00e+00	0	28	0	140509184	52	5901
2026-01-14 12:05:34.05	33.67	6.48	-39.4	-40.6	21.1	0.00e+00	0	28	0	145752064	52	6123
2026-01-14 12:05:37.08	34.05	6.62	-39.3	-40.5	21.1	0.00e+00	92	28	0	152043520	52	6087
2026-01-14 12:05:40.11	34.44	6.76	-39.5	-40.7	21.1	0.00e+00	37	28	0	157286400	52	6188
2026-01-14 12:05:43.14	34.82	6.90	-39.6	-40.8	20.9	0.00e+00	40	28	0	162529280	52	6298
2026-01-14 12:05:46.16	35.21	7.04	-39.0	-40.1	21.6	0.00e+00	92	28	0	168820736	52	5813
2026-01-14 12:05:49.19	35.61	7.18	-38.9	-40.0	21.7	0.00e+00	0	28	0	174063616	52	5758
2026-01-14 12:05:52.22	36.01	7.32	-38.9	-40.1	21.7	0.00e+00	39	28	0	180355072	52	5764
2026-01-14 12:05:55.25	36.41	7.45	-39.1	-40.2	21.5	0.00e+00	0	28	0	185597952	52	5844
2026-01-14 12:05:58.28	36.81	7.59	-38.9	-40.0	21.7	0.00e+00	0	28	0	191889408	52	5739
2026-01-14 12:06:01.30	37.22	7.73	-38.9	-40.0	21.8	0.00e+00	39	28	0	197132288	52	5750
2026-01-14 12:06:04.33	37.63	7.87	-39.0	-40.1	21.7	0.00e+00	35	28	0	202375168	52	5812
2026-01-14 12:06:07.36	38.05	8.00	-38.9	-40.0	21.8	0.00e+00	38	28	0	208666624	52	5750
2026-01-14 12:06:10.39	38.47	8.14	-39.0	-40.1	21.7	0.00e+00	6	28	0	213909504	52	5774
2026-01-14 12:06:13.41	38.89	8.27	-39.0	-40.1	21.7	0.00e+00	4	28	0	220200960	52	5828
2026-01-14 12:06:16.44	39.32	8.40	-39.1	-40.2	21.7	0.00e+00	90	28	0	225443840	52	5837
2026-01-14 12:06:19.47	39.75	8.54	-39.0	-40.1	21.8	0.00e+00	0	28	0	230686720	52	5774
2026-01-14 12:06:22.50	40.19	8.67	-39.1	-40.2	21.6	0.00e+00	40	28	0	236978176	52	5875
2026-01-14 12:06:25.53	40.63	8.80	-39.2	-40.3	21.5	0.00e+00	91	28	0	242221056	52	5945
2026-01-14 12:06:28.55	41.07	8.93	-39.3	-40.4	21.5	0.00e+00	39	28	0	248512512	52	6002
2026-01-14 12:06:31.58	41.52	9.06	-39.1	-40.2	21.7	0.00e+00	45	28	0	253755392	52	5873
2026-01-14 12:06:34.61	41.97	9.19	-39.0	-40.1	21.8	0.00e+00	48	28	0	258998272	52	5812
2026-01-14 12:06:37.64	42.42	9.32	-39.2	-40.3	21.7	0.00e+00	4	28	0	265289728	52	5911
2026-01-14 12:06:40.66	42.88	9.45	-39.4	-40.5	21.5	0.00e+00	0	29	0	270532608	52	6080
2026-01-14 12:06:43.69	43.34	9.58	-39.4	-40.6	21.3	0.00e+00	42	29	0	276824064	52	6142
2026-01-14 12:06:46.72	43.81	9.70	-39.4	-40.6	21.4	0.00e+00	18	28	0	282066944	52	6109
2026-01-14 12:06:49.74	44.28	9.83	-39.4	-40.6	21.4	0.00e+00	41	28	0	288358400	52	6104
2026-01-14 12:06:52.77	44.75	9.95	-39.6	-40.7	21.2	0.00e+00	36	29	0	293601280	52	6243
2026-01-14 12:06:55.80	45.23	10.08	-39.5	-40.6	21.3	0.00e+00	90	29	0	298844160	52	6163
2026-01-14 12:06:58.83	45.72	10.20	-39.6	-40.7	21.2	0.00e+00	0	29	0	305135616	52	6239
2026-01-14 12:07:01.85	46.20	10.32	-39.5	-40.7	21.1	0.00e+00	0	29	0	310378496	52	6180
2026-01-14 12:07:04.88	46.69	10.44	-39.5	-40.6	21.4	0.00e+00	92	29	0	316669952	52	6168
2026-01-14 12:07:07.91	47.18	10.56	-39.7	-40.9	21.1	0.00e+00	0	28	0	321912832	52	6357
2026-01-14 12:07:10.93	47.68	10.67	-39.8	-41.0	21.1	0.00e+00	40	29	0	327155712	52	6417
2026-01-14 12:07:13.97	48.18	10.79	-39.7	-40.9	21.1	0.00e+00	40	28	0	333447168	52	6366
2026-01-14 12:07:16.99	48.69	10.90	-39.5	-40.6	21.5	0.00e+00	29	29	0	338690048	52	6135
2026-01-14 12:07:20.02	49.20	11.01	-39.3	-40.4	21.5	0.00e+00	40	29	0	344981504	52	6030
2026-01-14 12:07:23.05	49.71	11.12	-39.5	-40.6	21.5	0.00e+00	0	29	0	350224384	52	6139
2026-01-14 12:07:26.08	50.23	11.23	-39.6	-40.7	21.4	0.00e+00	92	28	0	356515840	52	6230
2026-01-14 12:07:29.10	50.74	11.34	-39.8	-41.0	21.1	0.00e+00	0	29	0	361758720	52	6415
2026-01-14 12:07:32.13	51.27	11.45	-39.7	-40.8	21.3	0.00e+00	40	28	0	367001600	52	6286
2026-01-14 12:07:35.16	51.80	11.55	-39.6	-40.7	21.4	0.00e+00	92	29	0	373293056	52	6228
2026-01-14 12:07:38.19	52.33	11.66	-39.6	-40.7	21.3	0.00e+00	2	29	0	378535936	52	6226
2026-01-14 12:07:41.22	52.86	11.76	-39.5	-40.7	21.5	0.00e+00	2	29	0	384827392	52	6212
2026-01-14 12:07:44.24	53.40	11.86	-39.6	-40.8	21.3	0.00e+00	22	29	0	390070272	52	6254
2026-01-14 12:07:47.27	53.94	11.95	-39.9	-41.2	21.0	0.00e+00	0	28	0	395313152	52	6540
2026-01-14 12:07:50.30	54.49	12.05	-39.9	-41.1	21.0	0.00e+00	39	28	0	401604608	52	6506
2026-01-14 12:07:53.33	55.04	12.14	-39.5	-40.7	21.2	0.00e+00	47	29	0	406847488	52	6197
2026-01-14 12:07:56.36	55.59	12.23	-39.2	-40.2	21.8	0.00e+00	35	29	0	413138944	52	5892
2026-01-14 12:07:59.38	56.14	12.32	-39.2	-40.3	21.8	0.00e+00	5	28	0	418381824	52	5900
2026-01-14 12:08:02.42	56.71	12.41	-39.1	-40.2	21.9	0.00e+00	0	28	0	423624704	52	5850
2026-01-14 12:08:05.44	57.27	12.50	-39.2	-40.3	21.8	0.00e+00	91	28	0	429916160	52	5940
2026-01-14 12:08:08.47	57.83	12.58	-39.1	-40.2	21.8	0.00e+00	6	28	0	435159040	52	5852
2026-01-14 12:08:11.50	58.40	12.66	-38.8	-39.8	22.2	0.00e+00	38	28	0	441450496	52	5612
2026-01-14 12:08:14.53	58.97	12.74	-38.6	-39.6	22.4	0.00e+00	92	29	0	446693376	50	6113
2026-01-14 12:08:17.56	59.55	12.81	-38.7	-39.7	22.4	0.00e+00	4	29	0	452984832	50	6217
2026-01-14 12:08:20.59	60.12	12.89	-39.0	-40.1	22.1	0.00e+00	6	29	0	458227712	50	6468
2026-01-14 12:08:23.61	60.70	12.96	-39.4	-40.5	21.6	0.00e+00	92	29	0	463470592	50	6792
2026-01-14 12:08:26.64	61.28	13.03	-39.5	-40.7	21.4	0.00e+00	0	29	0	469762048	50	6957
2026-01-14 12:08:29.67	61.87	13.09	-39.5	-40.6	21.5	0.00e+00	0	28	0	475004928	50	6890
2026-01-14 12:08:32.69	62.46	13.16	-39.7	-40.8	21.3	0.00e+00	43	28	0	481296384	50	7084
2026-01-14 12:08:35.72	63.05	13.22	-39.8	-40.9	21.2	0.00e+00	92	28	0	486539264	52	6386
2026-01-14 12:08:38.75	63.64	13.28	-39.8	-40.9	21.2	0.00e+00	41	29	0	491782144	52	6383
2026-01-14 12:08:41.78	64.24	13.33	-39.8	-40.9	21.4	0.00e+00	2	29	0	498073600	52	6378
2026-01-14 12:08:44.81	64.83	13.39	-39.7	-40.8	21.3	0.00e+00	92	29	0	503316480	52	6296
2026-01-14 12:08:47.84	65.43	13.44	-39.6	-40.7	21.4	0.00e+00	0	29	0	509607936	52	6218
2026-01-14 12:08:50.86	66.03	13.49	-39.4	-40.5	21.5	0.00e+00	0	29	0	514850816	52	6074
2026-01-14 12:08:53.88	66.63	13.53	-39.3	-40.4	21.7	0.00e+00	92	28	0	521142272	52	5999
2026-01-14 12:08:56.91	67.24	13.57	-39.5	-40.6	21.5	0.00e+00	0	29	0	526385152	52	6151
2026-01-14 12:08:59.94	67.84	13.61	-39.4	-40.5	21.7	0.00e+00	48	28	0	531628032	52	6055
2026-01-14 12:09:02.96	68.45	13.65	-39.2	-40.3	21.9	0.00e+00	42	29	0	537919488	52	5903
2026-01-14 12:09:05.99	69.06	13.68	-39.0	-40.1	22.0	0.00e+00	12	28	0	543162368	52	5806
2026-01-14 12:09:09.02	69.67	13.71	-39.0	-40.0	22.2	0.00e+00	40	29	0	549453824	52	5754
2026-01-14 12:09:12.05	70.28	13.74	-39.0	-40.1	22.1	0.00e+00	0	29	0	554696704	52	5769
2026-01-14 12:09:15.08	70.90	13.76	-39.1	-40.1	22.0	0.00e+00	92	28	0	559939584	52	5816
2026-01-14 12:09:18.11	71.51	13.79	-38.9	-40.0	22.1	0.00e+00	41	28	0	566231040	52	5701
2026-01-14 12:09:21.13	72.12	13.81	-38.6	-39.6	22.4	0.00e+00	43	29	0	571473920	50	6171
2026-01-14 12:09:24.16	72.74	13.82	-38.8	-39.8	22.4	0.00e+00	91	28	0	577765376	50	6290
2026-01-14 12:09:27.19	73.36	13.83	-38.8	-39.9	22.2	0.00e+00	46	29	0	583008256	50	6346
2026-01-14 12:09:30.22	73.97	13.84	-38.8	-39.9	22.3	0.00e+00	0	28	0	588251136	50	6323
2026-01-14 12:09:33.25	74.59	13.85	-38.8	-39.8	22.3	0.00e+00	92	29	0	594542592	50	6303
2026-01-14 12:09:36.28	75.21	13.85	-38.9	-39.9	21.9	0.00e+00	0	29	0	599785472	50	6371
2026-01-14 12:09:39.30	75.82	13.85	-39.3	-40.4	21.8	0.00e+00	0	29	0	606076928	50	6743
2026-01-14 12:09:42.33	76.44	13.85	-38.8	-39.9	22.2	0.00e+00	39	29	0	611319808	50	6351
2026-01-14 12:09:45.35	77.06	13.85	-38.4	-39.4	22.6	0.00e+00	41	29	0	617611264	50	5965
2026-01-14 12:09:48.38	77.67	13.84	-38.4	-39.3	22.6	0.00e+00	6	29	0	622854144	50	5964
2026-01-14 12:09:51.41	78.29	13.82	-37.9	-38.9	23.0	0.00e+00	42	29	0	628097024	50	5645
2026-01-14 12:09:54.44	78.91	13.81	-37.9	-38.8	22.9	0.00e+00	92	28	0	634388480	48	6288
2026-01-14 12:09:57.46	79.52	13.79	-38.0	-39.0	23.1	0.00e+00	5	29	0	639631360	48	6400
2026-01-14 12:10:00.49	80.14	13.77	-38.5	-39.5	22.4	0.00e+00	35	28	0	645922816	48	6783
2026-01-14 12:10:03.52	80.75	13.75	-38.7	-39.8	22.2	0.00e+00	92	29	0	651165696	50	6253
2026-01-14 12:10:06.55	81.36	13.72	-38.1	-39.1	23.0	0.00e+00	40	29	0	656408576	50	5771
2026-01-14 12:10:09.57	81.97	13.69	-38.2	-39.2	22.9	0.00e+00	7	28	0	662700032	50	5847
2026-01-14 12:10:12.61	82.59	13.66	-38.1	-39.1	22.8	0.00e+00	54	29	0	667942912	50	5783
2026-01-14 12:10:15.64	83.20	13.62	-37.7	-38.6	23.3	0.00e+00	0	29	0	674234368	48	6171
2026-01-14 12:10:18.67	83.80	13.58	-37.8	-38.8	23.1	0.00e+00	0	29	0	679477248	48	6288
2026-01-14 12:10:21.69	84.41	13.54	-38.7	-39.8	22.2	0.00e+00	0	29	0	685768704	50	6248
2026-01-14 12:10:24.72	85.01	13.50	-38.4	-39.5	22.5	0.00e+00	92	28	0	691011584	50	6051
2026-01-14 12:10:27.75	85.62	13.45	-38.1	-39.1	22.9	0.00e+00	47	28	0	696254464	50	5766
2026-01-14 12:10:30.78	86.22	13.40	-37.5	-38.5	23.4	0.00e+00	0	29	0	702545920	48	6051
2026-01-14 12:10:33.80	86.81	13.35	-37.4	-38.3	23.5	0.00e+00	92	28	0	707788800	48	5926
2026-01-14 12:10:36.83	87.41	13.29	-37.2	-38.1	23.7	0.00e+00	0	28	0	714080256	48	5827
2026-01-14 12:10:39.86	88.01	13.24	-37.4	-38.3	23.5	0.00e+00	0	29	0	719323136	48	5940
2026-01-14 12:10:42.89	88.60	13.18	-37.6	-38.6	23.4	0.00e+00	91	29	0	724566016	48	6135
2026-01-14 12:10:45.92	89.19	13.11	-37.7	-38.6	23.3	0.00e+00	0	28	0	730857472	48	6142
2026-01-14 12:10:48.95	89.78	13.05	-37.3	-38.2	23.6	0.00e+00	40	29	0	736100352	48	5895
2026-01-14 12:10:51.97	90.36	12.98	-37.1	-38.0	23.9	0.00e+00	40	28	0	742391808	48	5728
2026-01-14 12:10:55.00	90.94	12.91	-37.3	-38.2	23.6	0.00e+00	15	29	0	747634688	48	5887
2026-01-14 12:10:58.03	91.52	12.83	-37.3	-38.2	23.6	0.00e+00	0	29	0	753926144	48	5870
2026-01-14 12:11:01.06	92.10	12.76	-37.5	-38.5	23.4	0.00e+00	0	29	0	759169024	48	6041
2026-01-14 12:11:04.09	92.67	12.68	-37.6	-38.6	23.3	0.00e+00	92	29	0	764411904	48	6129
2026-01-14 12:11:07.11	93.24	12.60	-37.3	-38.2	23.6	0.00e+00	0	29	0	770703360	48	5874
2026-01-14 12:11:10.15	93.81	12.52	-37.3	-38.2	23.6	0.00e+00	41	29	0	775946240	48	5880
2026-01-14 12:11:13.17	94.38	12.43	-37.4	-38.3	23.6	0.00e+00	92	29	0	782237696	48	5907
2026-01-14 12:11:16.20	94.94	12.34	-37.5	-38.4	23.5	0.00e+00	0	29	0	787480576	48	6009
2026-01-14 12:11:19.23	95.50	12.25	-37.8	-38.8	23.2	0.00e+00	0	28	0	792723456	48	6257
2026-01-14 12:11:22.26	96.05	12.16	-38.2	-39.2	22.6	0.00e+00	63	28	0	799014912	48	6611
2026-01-14 12:11:25.29	96.60	12.07	-38.2	-39.2	22.6	0.00e+00	0	29	0	804257792	48	6597
2026-01-14 12:11:28.32	97.15	11.97	-38.4	-39.4	22.5	0.00e+00	0	28	0	810549248	48	6748
2026-01-14 12:11:31.34	97.69	11.88	-38.9	-39.9	21.9	0.00e+00	0	29	0	815792128	50	6365
2026-01-14 12:11:34.37	98.24	11.78	-39.0	-40.1	21.9	0.00e+00	90	29	0	821035008	50	6519
2026-01-14 12:11:37.40	98.77	11.68	-38.7	-39.8	22.1	0.00e+00	43	28	0	827326464	50	6291
2026-01-14 12:11:40.42	99.31	11.57	-39.0	-40.1	21.9	0.00e+00	5	29	0	832569344	50	6498
2026-01-14 12:11:43.45	99.84	11.47	-39.7	-40.9	21.1	0.00e+00	91	29	0	838860800	50	7090
2026-01-14 12:11:46.48	100.36	11.36	-40.2	-41.5	20.5	0.00e+00	0	28	0	844103680	52	6809
2026-01-14 12:11:49.50	100.89	11.25	-40.5	-41.9	20.1	0.00e+00	38	29	0	850395136	52	7089
2026-01-14 12:11:52.53	101.41	11.14	-41.0	-42.5	19.6	0.00e+00	92	29	0	855638016	54	6786
2026-01-14 12:11:55.56	101.92	11.03	-40.6	-42.0	20.0	0.00e+00	55	29	0	860880896	54	6460
2026-01-14 12:11:58.59	102.43	10.92	-40.2	-41.6	20.4	0.00e+00	56	28	0	867172352	54	6150
2026-01-14 12:12:01.61	102.94	10.81	-39.9	-41.3	20.7	0.00e+00	41	29	0	872415232	54	5943
2026-01-14 12:12:04.64	103.44	10.69	-40.0	-41.4	20.6	0.00e+00	2	29	0	878706688	54	5971
2026-01-14 12:12:07.66	103.94	10.57	-40.4	-41.8	20.2	0.00e+00	0	29	0	883949568	54	6274
2026-01-14 12:12:10.69	104.44	10.45	-40.9	-42.4	19.6	0.00e+00	0	29	0	889192448	54	6715
2026-01-14 12:12:13.72	104.93	10.33	-40.7	-42.2	19.8	0.00e+00	91	29	0	895483904	54	6607
2026-01-14 12:12:16.75	105.42	10.21	-40.1	-41.4	20.6	0.00e+00	39	29	0	900726784	54	5966
2026-01-14 12:12:19.78	105.91	10.09	-40.0	-41.2	20.7	0.00e+00	43	28	0	907018240	54	5882
2026-01-14 12:12:22.81	106.39	9.97	-40.4	-41.7	20.2	0.00e+00	92	28	0	912261120	54	6216
2026-01-14 12:12:25.84	106.87	9.84	-39.8	-41.0	20.8	0.00e+00	0	29	0	918552576	54	5755
2026-01-14 12:12:28.86	107.34	9.72	-39.2	-40.3	21.6	0.00e+00	0	28	0	923795456	52	5934
2026-01-14 12:12:31.89	107.81	9.59	-39.2	-40.4	21.5	0.00e+00	90	28	0	929038336	52	5972
2026-01-14 12:12:34.92	108.27	9.46	-39.5	-40.7	21.2	0.00e+00	0	29	0	935329792	52	6215
2026-01-14 12:12:37.95	108.73	9.33	-39.7	-41.0	20.8	0.00e+00	31	29	0	940572672	52	6400
2026-01-14 12:12:40.98	109.19	9.20	-39.7	-41.1	20.9	0.00e+00	0	29	0	946864128	52	6487
2026-01-14 12:12:44.01	109.65	9.07	-39.6	-41.0	20.9	0.00e+00	92	28	0	952107008	52	6415
2026-01-14 12:12:47.04	110.09	8.94	-39.3	-40.6	21.3	0.00e+00	2	29	0	957349888	52	6116
2026-01-14 12:12:50.07	110.54	8.81	-39.0	-40.1	21.8	0.00e+00	0	29	0	963641344	52	5810
2026-01-14 12:12:53.09	110.98	8.68	-38.4	-39.5	22.2	0.00e+00	92	29	0	968884224	50	6047
2026-01-14 12:12:56.12	111.42	8.54	-38.6	-39.8	22.0	0.00e+00	33	29	0	975175680	50	6269
2026-01-14 12:12:59.14	111.85	8.41	-38.9	-40.1	21.5	0.00e+00	0	28	0	980418560	50	6488
2026-01-14 12:13:02.17	112.28	8.27	-39.0	-40.0	21.7	0.00e+00	90	29	0	986710016	50	6461
2026-01-14 12:13:05.20	112.71	8.14	-38.6	-39.6	22.1	0.00e+00	2	29	0	991952896	50	6143
2026-01-14 12:13:08.23	113.13	8.00	-38.9	-40.0	21.7	0.00e+00	0	29	0	997195776	50	6405
2026-01-14 12:13:11.26	113.55	7.87	-39.0	-40.2	21.5	0.00e+00	90	29	0	1003487232	50	6600
2026-01-14 12:13:14.28	113.97	7.73	-38.9	-40.0	21.7	0.00e+00	0	28	0	1008730112	50	6439
2026-01-14 12:13:17.31	114.38	7.59	-38.8	-39.8	21.8	0.00e+00	35	29	0	1015021568	50	6303
2026-01-14 12:13:20.34	114.78	7.45	-39.0	-40.2	21.5	0.00e+00	44	28	0	1020264448	50	6556
2026-01-14 12:13:23.36	115.19	7.31	-39.0	-40.2	21.4	0.00e+00	91	29	0	1025507328	50	6601
2026-01-14 12:13:26.39	115.59	7.17	-39.1	-40.3	21.4	0.00e+00	6	29	0	1031798784	50	6618
2026-01-14 12:13:29.42	115.98	7.03	-38.8	-39.9	21.7	0.00e+00	6	29	0	1037041664	50	6380
2026-01-14 12:13:32.45	116.38	6.89	-38.8	-39.9	21.7	0.00e+00	92	29	0	1043333120	50	6341
2026-01-14 12:13:35.48	116.77	6.75	-39.0	-40.2	21.4	0.00e+00	0	29	0	1048576000	50	6580
2026-01-14 12:13:38.51	117.15	6.61	-39.3	-40.5	21.2	0.00e+00	0	29	0	1053818880	50	6832
2026-01-14 12:13:41.54	117.53	6.47	-39.6	-40.8	20.8	0.00e+00	92	29	0	1060110336	50	7056
2026-01-14 12:13:44.56	117.91	6.33	-39.4	-40.6	21.1	0.00e+00	52	29	0	1065353216	50	6898
2026-01-14 12:13:47.59	118.29	6.19	-39.3	-40.5	21.1	0.00e+00	54	29	0	1071644672	50	6783
2026-01-14 12:13:50.62	118.66	6.05	-39.6	-40.8	20.8	0.00e+00	92	29	0	1076887552	50	7074
2026-01-14 12:13:53.65	119.03	5.90	-39.8	-41.1	20.5	0.00e+00	14	29	0	1083179008	52	6468
2026-01-14 12:13:56.68	119.39	5.76	-39.8	-41.1	20.4	0.00e+00	29	29	0	1088421888	52	6531
2026-01-14 12:13:59.71	119.75	5.62	-39.8	-41.1	20.5	0.00e+00	29	29	0	1093664768	52	6538
2026-01-14 12:14:02.73	120.11	5.48	-39.8	-41.1	20.4	0.00e+00	92	29	0	1099956224	52	6520
2026-01-14 12:14:05.76	120.46	5.33	-39.9	-41.3	20.2	0.00e+00	47	28	0	1105199104	52	6667
2026-01-14 12:14:08.79	120.82	5.19	-40.1	-41.5	19.9	0.00e+00	46	28	0	1111490560	52	6790
2026-01-14 12:14:11.82	121.16	5.05	-40.5	-42.0	19.5	0.00e+00	92	29	0	1116733440	52	7209
2026-01-14 12:14:14.85	121.51	4.90	-40.5	-41.9	19.6	0.00e+00	0	29	0	1121976320	52	7138
2026-01-14 12:14:17.87	121.85	4.76	-40.4	-41.9	19.6	0.00e+00	0	28	0	1128267776	52	7102
2026-01-14 12:14:20.90	122.19	4.62	-40.6	-42.2	19.2	0.00e+00	91	29	0	1133510656	52	7362
2026-01-14 12:14:23.93	122.52	4.48	-40.7	-42.3	19.1	0.00e+00	0	29	0	1139802112	54	6616
2026-01-14 12:14:26.96	122.86	4.33	-40.7	-42.2	19.2	0.00e+00	0	28	0	1145044992	54	6578
2026-01-14 12:14:29.99	123.18	4.19	-40.6	-42.1	19.2	0.00e+00	0	29	0	1151336448	54	6525
2026-01-14 12:14:33.02	123.51	4.05	-40.9	-42.5	18.8	0.00e+00	91	29	0	1156579328	54	6792
2026-01-14 12:14:36.05	123.83	3.90	-41.2	-43.0	18.4	0.00e+00	0	29	0	1161822208	54	7176
2026-01-14 12:14:39.08	124.15	3.76	-40.7	-42.3	18.8	0.00e+00	0	29	0	1168113664	54	6688
2026-01-14 12:14:42.11	124.47	3.62	-40.8	-42.4	18.8	0.00e+00	92	29	0	1173356544	54	6741
2026-01-14 12:14:45.14	124.78	3.47	-41.0	-42.7	18.5	0.00e+00	47	29	0	1179648000	54	6997
2026-01-14 12:14:48.17	125.09	3.33	-41.0	-42.7	18.4	0.00e+00	47	29	0	1184890880	54	6968
2026-01-14 12:14:51.20	125.40	3.19	-41.1	-42.8	18.2	0.00e+00	80	29	0	1190133760	54	7083
2026-01-14 12:14:54.23	125.71	3.04	-41.3	-43.2	17.8	0.00e+00	0	29	0	1196425216	54	7342
2026-01-14 12:14:57.26	126.01	2.90	-48.0	-63.2	3.6	1.51e+00	0	29	104	1198522368	60	52528
2026-01-14 12:15:00.29	126.31	2.76	-48.6	-63.7	3.6	1.51e+00	0	29	104	1198522368	60	55541
2026-01-14 12:15:03.31	126.61	2.62	-48.5	-63.9	3.6	1.51e+00	0	29	104	1198522368	60	56793
2026-01-14 12:15:06.34	126.90	2.47	-48.7	-63.9	3.6	1.51e+00	0	29	104	1198522368	60	56575
2026-01-14 12:15:09.37	127.19	2.33	-48.7	-64.0	3.6	1.51e+00	0	29	104	1198522368	60	57010
2026-01-14 12:15:12.39	127.48	2.19	-48.7	-63.9	3.6	1.51e+00	0	29	104	1198522368	60	56653
2026-01-14 12:15:15.42	127.77	2.05	-48.7	-63.8	3.6	1.51e+00	0	29	104	1198522368	60	56105
2026-01-14 12:15:18.45	128.05	1.90	-48.7	-63.8	3.6	1.51e+00	0	29	104	1198522368	60	56299
2026-01-14 12:15:21.48	128.33	1.76	-48.7	-63.8	3.6	1.51e+00	0	29	104	1198522368	60	55962
2026-01-14 12:15:24.51	128.61	1.62	-48.7	-63.8	3.6	1.51e+00	0	29	104	1198522368	60	56179
2026-01-14 12:15:27.53	128.88	1.48	-48.7	-63.8	3.6	1.51e+00	0	29	104	1198522368	60	56062
2026-01-14 12:15:30.57	129.16	1.34	-48.7	-63.8	3.6	1.51e+00	0	29	104	1198522368	60	56202
2026-01-14 12:15:33.59	129.43	1.20	-48.6	-63.8	3.6	1.51e+00	0	29	104	1198522368	60	56025
2026-01-14 12:15:36.62	129.70	1.06	-48.6	-63.8	3.6	1.51e+00	0	29	104	1198522368	60	56167
2026-01-14 12:15:39.65	129.96	0.92	-48.7	-63.9	3.6	1.51e+00	0	29	104	1198522368	60	56386
2026-01-14 12:15:42.68	130.23	0.78	-48.7	-63.8	3.5	1.51e+00	0	29	104	1198522368	60	56131
2026-01-14 12:15:45.71	130.49	0.64	-48.7	-63.9	3.6	1.51e+00	0	29	104	1198522368	60	56412
2026-01-14 12:15:48.74	130.75	0.49	-48.7	-63.9	3.6	1.51e+00	0	29	104	1198522368	60	56490
2026-01-14 12:15:51.77	131.01	0.35	-48.6	-63.9	3.6	1.51e+00	0	29	104	1198522368	60	56310
2026-01-14 12:15:54.80	131.26	0.22	-48.6	-63.8	3.6	1.51e+00	0	29	104	1198522368	60	56000
2026-01-14 12:15:57.83	131.51	0.08	-48.6	-63.8	3.6	1.51e+00	0	29	104	1198522368	60	56274
2026-01-14 12:16:00.86	131.76	-0.06	-48.7	-63.9	3.6	1.51e+00	0	29	104	1198522368	60	56407

#Closed at: 2026-01-14 12:16:01
#Recorded file [1198 MB]: D:/lorett/data/35029_260115_000317.dat