passes_logs/2026/01/14/R4.6S_Anadyr/R4.6S_Anadyr__20260114_152403_NOAA_20_JPSS-1_rec.log

#Pass ID: 20260114_152403_NOAA 20 (JPSS-1)
#Satellite: NOAA 20 (JPSS-1)
#Configuration: NOAA 20
#almurnet v.1.7.20251203
#Start time: 2026-01-14 15:24:05

#Version: 2.2.20231116
#Station: R4.6S_Anadyr
#Location: 177.4865 lon 64.73178 lat
#TLE: 1 43013U 17073A   26013.84982170  .00000053  00000+0  46215-4 0  9999
#TLE: 2 43013  98.7633 314.8013 0001544  40.9009 319.2282 14.19535753422575

#Time	Az	El	Level	Level2	SNR	BER	BlckErr	Temp	State	Recorded	gain1	gain2
2026-01-14 15:24:05.15	22.18	0.10	-48.7	-63.6	3.5	1.51e+00	0	26	0	0	60	54898
2026-01-14 15:24:09.19	22.12	0.34	-48.7	-63.9	3.6	1.51e+00	0	27	104	0	60	56905
2026-01-14 15:24:13.23	22.06	0.59	-48.8	-64.0	3.6	1.51e+00	0	27	104	0	60	57327
2026-01-14 15:24:17.27	22.00	0.83	-48.7	-63.9	3.6	1.51e+00	0	27	104	0	60	56610
2026-01-14 15:24:21.31	21.94	1.08	-48.2	-63.4	3.6	1.51e+00	0	27	104	0	60	53412
2026-01-14 15:24:25.34	21.88	1.33	-47.3	-62.4	3.6	1.51e+00	0	27	104	0	60	47772
2026-01-14 15:24:29.38	21.81	1.58	-47.2	-62.1	3.6	1.51e+00	0	28	104	0	60	45909
2026-01-14 15:24:33.42	21.75	1.83	-47.2	-62.0	3.6	1.51e+00	0	28	104	0	60	45614
2026-01-14 15:24:37.46	21.68	2.09	-47.2	-62.4	3.6	1.51e+00	0	28	104	0	60	47598
2026-01-14 15:24:41.50	21.61	2.35	-47.2	-62.1	3.6	1.51e+00	0	28	104	0	60	46065
2026-01-14 15:24:45.54	21.54	2.61	-47.2	-60.9	3.6	1.51e+00	0	28	104	0	60	40220
2026-01-14 15:24:49.58	21.47	2.87	-47.2	-61.5	3.6	1.51e+00	0	28	104	0	60	42949
2026-01-14 15:24:53.61	21.40	3.13	-46.5	-53.4	7.1	2.49e-01	0	28	0	2097152	60	16880
2026-01-14 15:24:57.65	21.32	3.40	-44.4	-47.8	13.5	1.37e-05	0	28	0	10485760	60	8875
2026-01-14 15:25:01.68	21.24	3.67	-44.0	-47.0	14.4	7.00e-07	37	28	0	17825792	60	8084
2026-01-14 15:25:05.71	21.17	3.94	-45.2	-49.8	5.8	0.00e+00	92	28	0	25165824	58	12512
2026-01-14 15:25:09.75	21.09	4.21	-42.3	-44.3	17.2	0.00e+00	7	28	0	28311552	58	6640
2026-01-14 15:25:13.78	21.00	4.49	-40.0	-41.3	20.1	0.00e+00	0	28	0	35651584	54	5956
2026-01-14 15:25:17.82	20.92	4.77	-40.0	-41.4	20.1	0.00e+00	0	28	0	44040192	54	5982
2026-01-14 15:25:21.86	20.83	5.06	-39.9	-41.2	20.4	0.00e+00	92	28	0	51380224	54	5891
2026-01-14 15:25:25.89	20.75	5.34	-39.6	-40.8	20.8	0.00e+00	27	28	0	58720256	52	6308
2026-01-14 15:25:29.92	20.66	5.63	-39.5	-40.7	21.0	0.00e+00	0	28	0	66060288	52	6212
2026-01-14 15:25:33.96	20.56	5.92	-39.4	-40.6	21.1	0.00e+00	0	28	0	73400320	52	6134
2026-01-14 15:25:38.00	20.47	6.22	-39.3	-40.4	21.2	0.00e+00	78	28	0	81788928	52	6030
2026-01-14 15:25:42.03	20.37	6.52	-39.2	-40.4	21.4	0.00e+00	22	28	0	89128960	52	5985
2026-01-14 15:25:46.07	20.27	6.82	-38.9	-40.0	21.8	0.00e+00	24	28	0	96468992	52	5740
2026-01-14 15:25:50.11	20.17	7.13	-38.9	-40.0	21.7	0.00e+00	28	28	0	103809024	52	5756
2026-01-14 15:25:54.15	20.07	7.44	-38.8	-39.9	21.9	0.00e+00	0	28	0	112197632	52	5680
2026-01-14 15:25:58.19	19.96	7.75	-38.6	-39.6	22.1	0.00e+00	0	28	0	119537664	50	6172
2026-01-14 15:26:02.23	19.85	8.07	-38.6	-39.6	22.3	0.00e+00	0	28	0	126877696	50	6125
2026-01-14 15:26:06.26	19.74	8.39	-38.4	-39.4	22.4	0.00e+00	90	28	0	134217728	50	5998
2026-01-14 15:26:10.30	19.62	8.71	-38.1	-39.1	22.7	0.00e+00	0	28	0	141557760	50	5814
2026-01-14 15:26:14.34	19.50	9.04	-38.1	-39.1	22.7	0.00e+00	0	28	0	149946368	50	5805
2026-01-14 15:26:18.37	19.38	9.37	-38.0	-39.0	22.9	0.00e+00	0	28	0	157286400	50	5708
2026-01-14 15:26:22.41	19.26	9.71	-37.8	-38.8	23.1	0.00e+00	92	28	0	164626432	50	5596
2026-01-14 15:26:26.45	19.13	10.06	-37.7	-38.7	23.2	0.00e+00	2	28	0	171966464	48	6187
2026-01-14 15:26:30.48	19.00	10.40	-37.8	-38.8	23.2	0.00e+00	23	28	0	180355072	48	6264
2026-01-14 15:26:34.52	18.86	10.75	-37.5	-38.4	23.4	0.00e+00	0	28	0	187695104	48	6008
2026-01-14 15:26:38.55	18.73	11.11	-37.5	-38.4	23.5	0.00e+00	92	28	0	195035136	48	6012
2026-01-14 15:26:42.59	18.58	11.47	-37.3	-38.2	23.6	0.00e+00	59	28	0	202375168	48	5872
2026-01-14 15:26:46.63	18.44	11.84	-37.3	-38.2	23.7	0.00e+00	28	28	0	209715200	48	5840
2026-01-14 15:26:50.67	18.29	12.21	-37.2	-38.0	23.9	0.00e+00	26	28	0	218103808	48	5754
2026-01-14 15:26:54.70	18.13	12.59	-37.3	-38.2	23.6	0.00e+00	91	28	0	225443840	48	5859
2026-01-14 15:26:58.74	17.97	12.97	-37.4	-38.2	23.7	0.00e+00	0	28	0	232783872	48	5893
2026-01-14 15:27:02.77	17.81	13.36	-37.2	-38.1	23.8	0.00e+00	0	28	0	240123904	48	5787
2026-01-14 15:27:06.80	17.64	13.75	-37.1	-37.9	24.0	0.00e+00	0	28	0	247463936	48	5679
2026-01-14 15:27:10.84	17.47	14.16	-37.1	-37.9	24.0	0.00e+00	92	28	0	255852544	48	5684
2026-01-14 15:27:14.88	17.29	14.56	-37.0	-37.8	24.2	0.00e+00	20	28	0	263192576	48	5622
2026-01-14 15:27:18.91	17.10	14.98	-36.9	-37.8	24.2	0.00e+00	22	28	0	270532608	48	5585
2026-01-14 15:27:22.95	16.91	15.40	-36.9	-37.8	24.2	0.00e+00	0	28	0	277872640	48	5587
2026-01-14 15:27:26.98	16.72	15.83	-36.8	-37.6	24.3	0.00e+00	92	28	0	286261248	48	5495
2026-01-14 15:27:31.02	16.51	16.26	-36.8	-37.6	24.4	0.00e+00	4	28	0	293601280	46	6140
2026-01-14 15:27:35.05	16.30	16.71	-36.8	-37.7	24.3	0.00e+00	21	28	0	300941312	46	6180
2026-01-14 15:27:39.09	16.09	17.16	-36.8	-37.6	24.4	0.00e+00	76	28	0	308281344	46	6160
2026-01-14 15:27:43.13	15.87	17.62	-36.8	-37.7	24.4	0.00e+00	88	28	0	315621376	46	6195
2026-01-14 15:27:47.17	15.64	18.08	-36.8	-37.7	24.4	0.00e+00	0	28	0	324009984	46	6175
2026-01-14 15:27:51.20	15.40	18.56	-36.8	-37.6	24.4	0.00e+00	0	28	0	331350016	46	6156
2026-01-14 15:27:55.24	15.15	19.04	-36.8	-37.7	24.4	0.00e+00	92	28	0	338690048	46	6199
2026-01-14 15:27:59.27	14.90	19.54	-36.7	-37.5	24.5	0.00e+00	0	28	0	346030080	46	6099
2026-01-14 15:28:03.31	14.63	20.04	-36.7	-37.5	24.6	0.00e+00	0	28	0	353370112	46	6091
2026-01-14 15:28:07.35	14.36	20.55	-36.6	-37.4	24.7	0.00e+00	2	28	0	361758720	46	5976
2026-01-14 15:28:11.38	14.08	21.07	-36.4	-37.2	24.8	0.00e+00	92	28	0	369098752	46	5890
2026-01-14 15:28:15.42	13.79	21.61	-36.6	-37.4	24.7	0.00e+00	0	28	0	376438784	46	5967
2026-01-14 15:28:19.45	13.48	22.15	-36.5	-37.3	24.8	0.00e+00	0	28	0	383778816	46	5909
2026-01-14 15:28:23.49	13.17	22.70	-36.8	-37.6	24.5	0.00e+00	6	28	0	392167424	46	6166
2026-01-14 15:28:27.53	12.84	23.27	-36.9	-37.8	24.4	0.00e+00	92	28	0	399507456	46	6247
2026-01-14 15:28:31.57	12.50	23.85	-37.1	-37.9	24.0	0.00e+00	0	28	0	406847488	46	6375
2026-01-14 15:28:35.60	12.14	24.44	-37.2	-38.1	24.1	0.00e+00	0	28	0	414187520	46	6484
2026-01-14 15:28:39.64	11.78	25.04	-37.4	-38.3	24.0	0.00e+00	57	28	0	421527552	46	6647
2026-01-14 15:28:43.67	11.39	25.65	-37.9	-38.8	23.6	0.00e+00	92	28	0	429916160	48	6255
2026-01-14 15:28:47.71	10.99	26.28	-38.4	-39.3	23.1	0.00e+00	31	28	0	437256192	48	6667
2026-01-14 15:28:51.74	10.58	26.91	-39.1	-40.1	22.4	0.00e+00	0	28	0	444596224	50	6482
2026-01-14 15:28:55.78	10.15	27.57	-39.4	-40.4	22.2	0.00e+00	0	28	0	451936256	50	6754
2026-01-14 15:28:59.82	9.69	28.24	-39.8	-40.9	21.8	0.00e+00	92	28	0	460324864	52	6373
2026-01-14 15:29:03.86	9.22	28.92	-40.0	-41.1	21.5	0.00e+00	22	28	0	467664896	52	6531
2026-01-14 15:29:07.90	8.73	29.62	-40.2	-41.3	21.4	0.00e+00	0	28	0	475004928	52	6675
2026-01-14 15:29:11.93	8.21	30.32	-40.1	-41.2	21.5	0.00e+00	0	28	0	482344960	52	6573
2026-01-14 15:29:15.97	7.67	31.05	-40.4	-41.5	21.2	0.00e+00	90	28	0	489684992	52	6838
2026-01-14 15:29:20.01	7.10	31.79	-40.3	-41.5	21.1	0.00e+00	64	28	0	498073600	52	6816
2026-01-14 15:29:24.04	6.51	32.55	-40.1	-41.3	21.5	0.00e+00	18	28	0	505413632	52	6638
2026-01-14 15:29:28.08	5.89	33.32	-40.2	-41.4	21.3	0.00e+00	92	28	0	512753664	52	6717
2026-01-14 15:29:32.12	5.23	34.11	-40.5	-41.7	21.0	0.00e+00	0	28	0	520093696	52	6996
2026-01-14 15:29:36.16	4.54	34.92	-40.4	-41.6	21.2	0.00e+00	0	28	0	527433728	52	6860
2026-01-14 15:29:40.20	3.82	35.74	-40.7	-41.9	20.7	0.00e+00	0	28	0	535822336	52	7160
2026-01-14 15:29:44.23	3.06	36.57	-40.4	-41.6	21.1	0.00e+00	92	28	0	543162368	54	6142
2026-01-14 15:29:48.27	2.25	37.43	-40.3	-41.4	21.1	0.00e+00	2	29	0	550502400	54	6017
2026-01-14 15:29:52.30	1.41	38.29	-40.1	-41.2	21.5	0.00e+00	0	28	0	557842432	54	5892
2026-01-14 15:29:56.34	0.51	39.18	-40.0	-41.1	21.5	0.00e+00	0	28	0	566231040	54	5811
2026-01-14 15:30:00.38	359.56	40.08	-40.2	-41.4	21.3	0.00e+00	92	28	0	573571072	54	5983
2026-01-14 15:30:04.41	358.56	40.99	-40.3	-41.5	21.2	0.00e+00	0	28	0	580911104	54	6094
2026-01-14 15:30:08.45	357.50	41.91	-40.4	-41.6	21.1	0.00e+00	63	28	0	588251136	54	6159
2026-01-14 15:30:12.49	356.37	42.85	-40.6	-41.9	20.9	0.00e+00	7	28	0	596639744	54	6334
2026-01-14 15:30:16.52	355.18	43.79	-39.0	-40.0	22.6	0.00e+00	92	28	0	603979776	52	5744
2026-01-14 15:30:20.56	353.91	44.75	-39.0	-40.0	22.6	0.00e+00	5	28	0	611319808	50	6407
2026-01-14 15:30:24.60	352.57	45.71	-39.4	-40.5	22.1	0.00e+00	0	28	0	618659840	50	6783
2026-01-14 15:30:28.64	351.13	46.67	-40.0	-41.1	21.6	0.00e+00	28	28	0	625999872	52	6531
2026-01-14 15:30:32.68	349.61	47.64	-40.2	-41.3	21.4	0.00e+00	91	28	0	634388480	52	6664
2026-01-14 15:30:36.71	347.99	48.60	-39.1	-40.2	22.6	0.00e+00	22	28	0	641728512	52	5838
2026-01-14 15:30:40.75	346.26	49.56	-39.1	-40.1	22.6	0.00e+00	0	28	0	649068544	52	5795
2026-01-14 15:30:44.79	344.41	50.51	-38.9	-39.9	22.8	0.00e+00	0	28	0	656408576	52	5643
2026-01-14 15:30:48.83	342.45	51.45	-37.8	-38.7	23.7	0.00e+00	91	28	0	663748608	48	6193
2026-01-14 15:30:52.87	340.36	52.36	-37.0	-37.8	24.5	0.00e+00	2	29	0	672137216	48	5624
2026-01-14 15:30:56.90	338.14	53.25	-36.9	-37.7	24.4	0.00e+00	0	28	0	679477248	46	6196
2026-01-14 15:31:00.94	335.78	54.11	-36.1	-36.9	25.1	0.00e+00	0	28	0	686817280	46	5666
2026-01-14 15:31:04.98	333.28	54.93	-37.2	-38.1	24.3	0.00e+00	64	28	0	694157312	46	6488
2026-01-14 15:31:09.01	330.64	55.70	-37.0	-37.9	24.4	0.00e+00	65	28	0	702545920	46	6368
2026-01-14 15:31:13.05	327.84	56.43	-39.2	-40.3	22.4	0.00e+00	64	28	0	709885952	50	6649
2026-01-14 15:31:17.08	324.91	57.09	-39.0	-40.0	22.6	0.00e+00	91	28	0	717225984	50	6432
2026-01-14 15:31:21.12	321.84	57.68	-38.8	-39.9	22.7	0.00e+00	35	28	0	724566016	50	6319
2026-01-14 15:31:25.15	318.64	58.19	-39.3	-40.4	22.2	0.00e+00	0	28	0	731906048	50	6718
2026-01-14 15:31:29.19	315.32	58.62	-39.0	-40.0	22.7	0.00e+00	0	28	0	740294656	50	6440
2026-01-14 15:31:33.22	311.90	58.97	-38.6	-39.7	22.9	0.00e+00	92	28	0	747634688	50	6174
2026-01-14 15:31:37.26	308.40	59.21	-37.7	-38.7	23.7	0.00e+00	65	28	0	754974720	48	6181
2026-01-14 15:31:41.30	304.85	59.36	-37.0	-37.8	24.5	0.00e+00	2	28	0	762314752	48	5630
2026-01-14 15:31:45.33	301.28	59.41	-36.6	-37.5	25.0	0.00e+00	0	28	0	770703360	46	6035
2026-01-14 15:31:49.37	297.70	59.35	-36.3	-37.1	24.9	0.00e+00	92	28	0	778043392	46	5827
2026-01-14 15:31:53.40	294.16	59.20	-36.2	-37.0	25.1	0.00e+00	0	28	0	785383424	46	5740
2026-01-14 15:31:57.45	290.66	58.94	-35.6	-36.4	25.7	0.00e+00	22	28	0	792723456	44	5977
2026-01-14 15:32:01.48	287.25	58.59	-36.1	-36.9	25.3	0.00e+00	6	28	0	800063488	44	6327
2026-01-14 15:32:05.52	283.93	58.15	-36.7	-37.5	24.8	0.00e+00	91	28	0	808452096	44	6802
2026-01-14 15:32:09.56	280.74	57.63	-37.0	-37.8	24.4	0.00e+00	5	28	0	815792128	46	6316
2026-01-14 15:32:13.59	277.67	57.03	-37.3	-38.2	24.1	0.00e+00	0	28	0	823132160	46	6566
2026-01-14 15:32:17.62	274.75	56.36	-37.5	-38.4	24.0	0.00e+00	0	28	0	830472192	48	5992
2026-01-14 15:32:21.66	271.97	55.64	-36.5	-37.3	24.9	0.00e+00	91	28	0	837812224	46	5962
2026-01-14 15:32:25.70	269.33	54.85	-36.5	-37.3	25.1	0.00e+00	0	28	0	846200832	46	5915
2026-01-14 15:32:29.73	266.84	54.03	-35.9	-36.7	25.3	0.00e+00	6	28	0	853540864	46	5509
2026-01-14 15:32:33.77	264.49	53.17	-37.2	-38.1	24.3	0.00e+00	0	28	0	860880896	46	6473
2026-01-14 15:32:37.80	262.28	52.27	-37.2	-38.1	24.3	0.00e+00	92	28	0	868220928	46	6470
2026-01-14 15:32:41.84	260.20	51.35	-38.6	-39.6	23.1	0.00e+00	18	28	0	876609536	50	6120
2026-01-14 15:32:45.87	258.25	50.42	-39.8	-40.8	22.0	0.00e+00	17	28	0	883949568	50	7081
2026-01-14 15:32:49.91	256.41	49.46	-40.6	-41.9	21.0	0.00e+00	71	28	0	891289600	54	6327
2026-01-14 15:32:53.95	254.69	48.50	-40.8	-42.1	20.6	0.00e+00	92	28	0	898629632	54	6493
2026-01-14 15:32:57.99	253.07	47.53	-41.1	-42.4	20.4	0.00e+00	59	28	0	905969664	54	6724
2026-01-14 15:33:02.03	251.55	46.56	-41.3	-42.6	20.4	0.00e+00	62	28	0	914358272	56	6150
2026-01-14 15:33:06.07	250.12	45.59	-39.8	-40.8	21.9	0.00e+00	92	28	0	921698304	54	5616
2026-01-14 15:33:10.10	248.78	44.63	-39.8	-40.9	21.8	0.00e+00	71	28	0	929038336	52	6333
2026-01-14 15:33:14.14	247.52	43.68	-39.5	-40.6	22.2	0.00e+00	2	28	0	936378368	52	6127
2026-01-14 15:33:18.18	246.33	42.73	-39.8	-40.9	21.9	0.00e+00	0	28	0	944766976	52	6319
2026-01-14 15:33:22.22	245.20	41.79	-39.8	-40.8	21.9	0.00e+00	92	28	0	952107008	52	6291
2026-01-14 15:33:26.26	244.15	40.86	-40.4	-41.5	21.3	0.00e+00	72	28	0	959447040	52	6837
2026-01-14 15:33:30.29	243.15	39.95	-40.7	-41.9	21.0	0.00e+00	0	28	0	966787072	54	6382
2026-01-14 15:33:34.33	242.20	39.05	-41.4	-42.8	20.2	0.00e+00	0	28	0	974127104	54	7022
2026-01-14 15:33:38.36	241.31	38.17	-40.8	-42.0	20.8	0.00e+00	90	28	0	982515712	54	6448
2026-01-14 15:33:42.40	240.46	37.30	-40.6	-41.9	21.1	0.00e+00	0	28	0	989855744	54	6322
2026-01-14 15:33:46.44	239.66	36.45	-40.4	-41.6	21.2	0.00e+00	0	29	0	997195776	54	6115
2026-01-14 15:33:50.47	238.90	35.61	-40.6	-41.8	21.0	0.00e+00	21	28	0	1004535808	54	6298
2026-01-14 15:33:54.51	238.18	34.79	-40.7	-41.9	20.9	0.00e+00	92	28	0	1011875840	54	6380
2026-01-14 15:33:58.55	237.49	33.98	-41.1	-42.3	20.5	0.00e+00	9	28	0	1020264448	54	6692
2026-01-14 15:34:02.58	236.84	33.19	-40.9	-42.2	20.6	0.00e+00	55	28	0	1027604480	54	6584
2026-01-14 15:34:06.62	236.22	32.42	-40.6	-41.7	21.0	0.00e+00	44	28	0	1034944512	54	6243
2026-01-14 15:34:10.65	235.62	31.66	-40.2	-41.3	21.5	0.00e+00	92	28	0	1042284544	54	5925
2026-01-14 15:34:14.68	235.06	30.92	-39.7	-40.8	21.9	0.00e+00	6	28	0	1050673152	52	6246
2026-01-14 15:34:18.72	234.52	30.19	-40.2	-41.4	21.4	0.00e+00	0	28	0	1058013184	52	6698
2026-01-14 15:34:22.76	234.00	29.48	-40.2	-41.4	21.4	0.00e+00	5	28	0	1065353216	52	6701
2026-01-14 15:34:26.79	233.51	28.78	-40.2	-41.4	21.3	0.00e+00	93	28	0	1072693248	52	6736
2026-01-14 15:34:30.83	233.04	28.10	-40.1	-41.2	21.5	0.00e+00	27	28	0	1080033280	52	6603
2026-01-14 15:34:34.87	232.58	27.43	-39.8	-40.9	21.8	0.00e+00	23	28	0	1088421888	52	6331
2026-01-14 15:34:38.91	232.15	26.78	-39.3	-40.3	22.4	0.00e+00	55	28	0	1095761920	52	5947
2026-01-14 15:34:42.95	231.73	26.14	-39.0	-40.0	22.6	0.00e+00	85	28	0	1103101952	52	5740
2026-01-14 15:34:46.98	231.33	25.51	-39.2	-40.2	22.4	0.00e+00	0	28	0	1110441984	52	5867
2026-01-14 15:34:51.02	230.95	24.90	-39.1	-40.1	22.5	0.00e+00	0	28	0	1118830592	52	5827
2026-01-14 15:34:55.05	230.58	24.30	-39.1	-40.1	22.5	0.00e+00	54	28	0	1126170624	52	5764
2026-01-14 15:34:59.09	230.23	23.71	-39.2	-40.2	22.4	0.00e+00	33	28	0	1133510656	52	5857
2026-01-14 15:35:03.13	229.89	23.13	-39.3	-40.4	22.2	0.00e+00	0	28	0	1140850688	52	5979
2026-01-14 15:35:07.17	229.56	22.56	-39.1	-40.2	22.5	0.00e+00	0	28	0	1148190720	52	5838
2026-01-14 15:35:11.20	229.24	22.01	-38.9	-39.9	22.6	0.00e+00	92	29	0	1156579328	52	5685
2026-01-14 15:35:15.24	228.94	21.47	-38.7	-39.7	22.8	0.00e+00	0	28	0	1163919360	50	6206
2026-01-14 15:35:19.28	228.64	20.93	-38.7	-39.7	22.9	0.00e+00	0	28	0	1171259392	50	6206
2026-01-14 15:35:23.31	228.36	20.41	-38.6	-39.6	22.9	0.00e+00	0	28	0	1178599424	50	6124
2026-01-14 15:35:27.34	228.08	19.90	-38.6	-39.5	22.9	0.00e+00	92	28	0	1185939456	50	6084
2026-01-14 15:35:31.38	227.82	19.39	-38.6	-39.6	22.9	0.00e+00	0	29	0	1194328064	50	6115
2026-01-14 15:35:35.41	227.56	18.90	-38.6	-39.6	22.8	0.00e+00	0	28	0	1201668096	50	6120
2026-01-14 15:35:39.45	227.32	18.42	-38.7	-39.7	22.7	0.00e+00	0	28	0	1209008128	50	6204
2026-01-14 15:35:43.49	227.08	17.94	-38.9	-39.9	22.6	0.00e+00	92	28	0	1216348160	50	6327
2026-01-14 15:35:47.52	226.85	17.47	-38.7	-39.7	22.7	0.00e+00	0	28	0	1224736768	50	6227
2026-01-14 15:35:51.56	226.62	17.01	-38.9	-39.9	22.5	0.00e+00	5	28	0	1232076800	50	6358
2026-01-14 15:35:55.60	226.40	16.56	-38.8	-39.8	22.6	0.00e+00	19	28	0	1239416832	50	6267
2026-01-14 15:35:59.58	226.20	16.12	-38.9	-40.0	22.5	0.00e+00	92	28	0	1246756864	50	6398
2026-01-14 15:36:03.62	225.99	15.69	-39.2	-40.2	22.3	0.00e+00	35	28	0	1254096896	50	6582
2026-01-14 15:36:07.66	225.79	15.26	-39.4	-40.4	22.0	0.00e+00	6	29	0	1262485504	50	6762
2026-01-14 15:36:11.69	225.60	14.84	-39.3	-40.4	22.0	0.00e+00	6	28	0	1269825536	50	6744
2026-01-14 15:36:15.73	225.41	14.42	-39.5	-40.5	21.8	0.00e+00	90	28	0	1277165568	50	6846
2026-01-14 15:36:19.77	225.23	14.01	-39.4	-40.5	21.9	0.00e+00	27	28	0	1284505600	50	6782
2026-01-14 15:36:23.81	225.06	13.61	-39.5	-40.6	21.8	0.00e+00	33	29	0	1292894208	50	6872
2026-01-14 15:36:27.85	224.89	13.22	-39.5	-40.6	21.8	0.00e+00	73	29	0	1300234240	50	6892
2026-01-14 15:36:31.89	224.72	12.83	-39.5	-40.6	21.7	0.00e+00	92	28	0	1307574272	50	6920
2026-01-14 15:36:35.92	224.56	12.44	-39.7	-40.8	21.6	0.00e+00	54	28	0	1314914304	52	6285
2026-01-14 15:36:39.96	224.40	12.07	-39.8	-40.9	21.4	0.00e+00	54	28	0	1322254336	52	6387
2026-01-14 15:36:44.00	224.25	11.69	-39.9	-41.0	21.3	0.00e+00	92	28	0	1330642944	52	6460
2026-01-14 15:36:48.04	224.10	11.33	-40.0	-41.2	21.1	0.00e+00	41	28	0	1337982976	52	6591
2026-01-14 15:36:52.07	223.95	10.96	-40.3	-41.5	20.8	0.00e+00	0	28	0	1345323008	52	6831
2026-01-14 15:36:56.11	223.81	10.61	-40.5	-41.7	20.6	0.00e+00	49	28	0	1352663040	52	6985
2026-01-14 15:37:00.15	223.68	10.26	-40.5	-41.8	20.5	0.00e+00	90	28	0	1361051648	54	6315
2026-01-14 15:37:04.18	223.54	9.91	-40.7	-42.1	20.2	0.00e+00	53	28	0	1368391680	54	6469
2026-01-14 15:37:08.22	223.41	9.57	-41.0	-42.3	19.9	0.00e+00	2	28	0	1375731712	54	6685
2026-01-14 15:37:12.26	223.28	9.23	-41.2	-42.6	19.6	0.00e+00	26	28	0	1383071744	54	6874
2026-01-14 15:37:16.29	223.16	8.89	-41.3	-42.7	19.5	0.00e+00	90	28	0	1390411776	54	6995
2026-01-14 15:37:20.33	223.04	8.57	-41.4	-42.9	19.3	0.00e+00	0	28	0	1398800384	54	7143
2026-01-14 15:37:24.36	222.92	8.24	-41.5	-43.0	19.1	0.00e+00	45	28	0	1406140416	54	7235
2026-01-14 15:37:28.40	222.81	7.92	-41.9	-43.6	18.6	0.00e+00	37	28	0	1413480448	56	6880
2026-01-14 15:37:32.44	222.69	7.60	-42.0	-43.7	18.5	0.00e+00	92	29	0	1420820480	56	6983
2026-01-14 15:37:36.48	222.58	7.29	-42.1	-43.8	18.3	0.00e+00	5	28	0	1429209088	56	7068
2026-01-14 15:37:40.51	222.48	6.98	-42.1	-43.8	18.2	0.00e+00	51	29	0	1436549120	56	7087
2026-01-14 15:37:44.55	222.37	6.67	-42.2	-44.0	18.1	0.00e+00	0	29	0	1443889152	56	7208
2026-01-14 15:37:48.59	222.27	6.37	-42.3	-44.2	17.8	0.00e+00	92	28	0	1451229184	56	7367
2026-01-14 15:37:52.62	222.17	6.07	-42.4	-44.3	17.7	0.00e+00	7	28	0	1458569216	56	7443
2026-01-14 15:37:56.66	222.07	5.77	-42.6	-44.5	17.3	0.00e+00	0	28	0	1466957824	56	7642
2026-01-14 15:38:00.70	221.98	5.48	-42.9	-45.0	16.9	0.00e+00	0	28	0	1474297856	58	7203
2026-01-14 15:38:04.74	221.88	5.19	-42.5	-44.6	17.0	0.00e+00	90	29	0	1481637888	58	6894
2026-01-14 15:38:08.77	221.79	4.91	-42.5	-44.5	17.2	0.00e+00	32	28	0	1488977920	58	6814
2026-01-14 15:38:12.81	221.70	4.62	-42.6	-44.8	16.8	0.00e+00	49	28	0	1496317952	58	7019
2026-01-14 15:38:16.84	221.62	4.34	-42.7	-45.0	16.6	0.00e+00	92	29	0	1504706560	58	7172
2026-01-14 15:38:20.88	221.53	4.06	-42.8	-45.1	16.3	0.00e+00	90	29	0	1512046592	58	7262
2026-01-14 15:38:24.92	221.45	3.79	-43.1	-45.5	15.8	0.00e+00	0	28	0	1519386624	58	7656
2026-01-14 15:38:28.96	221.36	3.52	-43.2	-45.8	15.5	0.00e+00	0	29	0	1526726656	58	7889
2026-01-14 15:38:32.99	221.28	3.25	-43.0	-45.4	15.6	0.00e+00	85	29	0	1535115264	58	7569
2026-01-14 15:38:37.03	221.21	2.98	-47.6	-62.8	3.6	1.51e+00	0	28	104	1541406720	60	49694
2026-01-14 15:38:41.06	221.13	2.72	-48.9	-64.1	3.6	1.51e+00	0	29	104	1541406720	60	57722
2026-01-14 15:38:45.10	221.05	2.45	-48.9	-64.1	3.6	1.51e+00	0	29	104	1541406720	60	57975
2026-01-14 15:38:49.14	220.98	2.19	-48.9	-64.0	3.6	1.51e+00	0	29	104	1541406720	60	57409
2026-01-14 15:38:53.17	220.91	1.94	-48.8	-64.0	3.6	1.51e+00	0	29	104	1541406720	60	56986
2026-01-14 15:38:57.21	220.84	1.68	-48.8	-64.1	3.6	1.51e+00	0	29	104	1541406720	60	57672
2026-01-14 15:39:01.25	220.77	1.43	-48.8	-64.0	3.6	1.51e+00	0	29	104	1541406720	60	57451
2026-01-14 15:39:05.29	220.70	1.18	-48.8	-64.0	3.6	1.51e+00	0	29	104	1541406720	60	57422
2026-01-14 15:39:09.33	220.63	0.93	-48.8	-64.0	3.6	1.51e+00	0	29	104	1541406720	60	57043
2026-01-14 15:39:13.37	220.57	0.68	-48.8	-64.0	3.6	1.51e+00	0	29	104	1541406720	60	57004
2026-01-14 15:39:17.41	220.50	0.43	-48.8	-63.9	3.6	1.51e+00	0	29	104	1541406720	60	56889
2026-01-14 15:39:21.45	220.44	0.19	-48.8	-63.9	3.6	1.51e+00	0	29	104	1541406720	60	56692
2026-01-14 15:39:25.49	220.38	-0.05	-48.8	-63.9	3.6	1.51e+00	0	29	104	1541406720	60	56933

#Closed at: 2026-01-14 15:39:26
#Recorded file [1541 MB]: D:/lorett/data/35029_260115_032405.dat