passes_logs/2026/01/14/R4.6S_Anadyr/R4.6S_Anadyr__20260114_125313_NOAA_21_JPSS-2_rec.log

#Pass ID: 20260114_125313_NOAA 21 (JPSS-2)
#Satellite: NOAA 21 (JPSS-2)
#Configuration: NOAA-21
#almurnet v.1.7.20251203
#Start time: 2026-01-14 12:53:14

#Version: 2.2.20231116
#Station: R4.6S_Anadyr
#Location: 177.4865 lon 64.73178 lat
#TLE: 1 54234U 22150A   26013.88494661  .00000045  00000+0  42271-4 0  9994
#TLE: 2 54234  98.7497 314.7982 0000672 299.1935  60.9174 14.19534564164652

#Time	Az	El	Level	Level2	SNR	BER	BlckErr	Temp	State	Recorded	gain1	gain2
2026-01-14 12:53:14.60	18.71	0.05	-48.7	-63.6	3.5	1.51e+00	0	26	0	0	60	54581
2026-01-14 12:53:18.64	18.95	0.26	-48.7	-61.6	3.5	1.52e+00	0	27	104	0	60	42258
2026-01-14 12:53:22.68	19.19	0.48	-48.7	-61.5	3.5	1.52e+00	0	27	104	0	60	41952
2026-01-14 12:53:26.71	19.43	0.70	-48.3	-61.2	3.5	1.52e+00	0	27	104	0	60	40256
2026-01-14 12:53:30.75	19.68	0.91	-47.3	-60.1	3.5	1.52e+00	0	27	104	0	60	35706
2026-01-14 12:53:34.79	19.93	1.13	-47.0	-59.7	3.5	1.52e+00	0	28	104	0	60	34027
2026-01-14 12:53:38.83	20.19	1.35	-47.0	-59.8	3.5	1.52e+00	0	28	104	0	60	34444
2026-01-14 12:53:42.87	20.45	1.58	-47.0	-59.8	3.5	1.51e+00	0	28	104	0	60	34426
2026-01-14 12:53:46.90	20.71	1.80	-47.0	-59.7	3.5	1.52e+00	0	28	104	0	60	33839
2026-01-14 12:53:50.94	20.97	2.02	-47.0	-59.8	3.5	1.51e+00	0	28	104	0	60	34122
2026-01-14 12:53:54.98	21.24	2.25	-47.0	-59.6	3.5	1.52e+00	0	28	104	0	60	33565
2026-01-14 12:53:59.02	21.51	2.48	-46.9	-58.3	3.5	1.51e+00	0	28	104	0	60	28894
2026-01-14 12:54:03.06	21.79	2.71	-44.8	-48.7	10.0	1.40e-02	123	28	0	4194304	60	9602
2026-01-14 12:54:07.10	22.07	2.94	-39.5	-41.0	18.2	0.00e+00	120	28	0	16777216	52	6207
2026-01-14 12:54:11.14	22.36	3.17	-40.3	-42.0	17.0	0.00e+00	120	28	0	29360128	52	6999
2026-01-14 12:54:15.17	22.65	3.40	-43.2	-45.8	12.7	0.00e+00	123	28	0	37748736	56	8633
2026-01-14 12:54:19.21	22.94	3.63	-39.2	-40.6	18.4	0.00e+00	123	28	0	44040192	52	5972
2026-01-14 12:54:23.25	23.24	3.87	-39.4	-40.8	18.6	0.00e+00	123	28	0	56623104	52	6134
2026-01-14 12:54:27.28	23.54	4.10	-39.4	-40.8	18.5	0.00e+00	123	28	0	69206016	52	6088
2026-01-14 12:54:31.32	23.85	4.34	-38.5	-39.8	19.4	0.00e+00	123	28	0	81788928	50	6101
2026-01-14 12:54:35.36	24.16	4.58	-37.7	-38.8	20.3	0.00e+00	120	28	0	94371840	48	6134
2026-01-14 12:54:39.40	24.47	4.82	-37.4	-38.6	20.5	0.00e+00	122	28	0	106954752	48	5962
2026-01-14 12:54:43.44	24.80	5.07	-37.3	-38.4	20.8	0.00e+00	123	28	0	119537664	48	5836
2026-01-14 12:54:47.48	25.12	5.31	-37.0	-38.1	21.1	0.00e+00	122	28	0	132120576	48	5655
2026-01-14 12:54:51.52	25.46	5.56	-37.0	-38.1	21.1	0.00e+00	123	28	0	144703488	46	6342
2026-01-14 12:54:55.56	25.79	5.80	-36.8	-37.9	21.3	0.00e+00	121	28	0	157286400	46	6171
2026-01-14 12:54:59.60	26.14	6.05	-36.7	-37.7	21.5	0.00e+00	122	28	0	169869312	46	6062
2026-01-14 12:55:03.63	26.48	6.30	-36.4	-37.5	21.8	0.00e+00	122	28	0	183500800	46	5878
2026-01-14 12:55:07.67	26.84	6.56	-36.5	-37.5	21.8	0.00e+00	122	28	0	195035136	46	5891
2026-01-14 12:55:11.70	27.20	6.81	-36.4	-37.5	21.8	0.00e+00	120	28	0	207618048	46	5876
2026-01-14 12:55:15.74	27.56	7.06	-36.4	-37.4	21.9	0.00e+00	120	28	0	221249536	46	5847
2026-01-14 12:55:19.78	27.93	7.32	-36.4	-37.5	21.8	0.00e+00	123	28	0	233832448	46	5893
2026-01-14 12:55:23.81	28.31	7.58	-36.3	-37.3	21.9	0.00e+00	120	28	0	246415360	46	5781
2026-01-14 12:55:27.85	28.69	7.84	-36.2	-37.2	22.1	0.00e+00	123	28	0	258998272	46	5724
2026-01-14 12:55:31.89	29.09	8.10	-36.0	-37.0	22.3	0.00e+00	123	28	0	271581184	46	5547
2026-01-14 12:55:35.93	29.48	8.37	-36.0	-37.0	22.4	0.00e+00	123	29	0	284164096	46	5555
2026-01-14 12:55:39.96	29.89	8.63	-36.0	-37.0	22.4	0.00e+00	122	29	0	296747008	46	5588
2026-01-14 12:55:44.00	30.30	8.90	-36.0	-37.0	22.4	0.00e+00	123	28	0	309329920	46	5559
2026-01-14 12:55:48.04	30.72	9.16	-35.6	-36.6	22.7	0.00e+00	122	28	0	321912832	44	5993
2026-01-14 12:55:52.07	31.14	9.43	-35.5	-36.4	22.8	0.00e+00	123	28	0	334495744	44	5855
2026-01-14 12:55:56.11	31.58	9.71	-35.6	-36.6	22.9	0.00e+00	122	29	0	347078656	44	5953
2026-01-14 12:56:00.15	32.02	9.98	-35.4	-36.3	23.0	0.00e+00	123	28	0	359661568	44	5782
2026-01-14 12:56:04.18	32.47	10.25	-35.2	-36.2	23.1	0.00e+00	123	29	0	372244480	44	5673
2026-01-14 12:56:08.22	32.93	10.53	-35.2	-36.2	23.2	0.00e+00	123	28	0	384827392	44	5660
2026-01-14 12:56:12.25	33.39	10.81	-35.0	-35.9	23.4	0.00e+00	123	28	0	397410304	44	5515
2026-01-14 12:56:16.29	33.87	11.09	-34.9	-35.9	23.5	0.00e+00	120	29	0	409993216	44	5483
2026-01-14 12:56:20.33	34.35	11.37	-34.9	-35.8	23.5	0.00e+00	120	29	0	422576128	44	5462
2026-01-14 12:56:24.37	34.84	11.65	-34.7	-35.6	23.6	0.00e+00	122	28	0	435159040	42	5968
2026-01-14 12:56:28.41	35.35	11.93	-35.1	-36.0	23.5	0.00e+00	123	28	0	447741952	42	6270
2026-01-14 12:56:32.45	35.86	12.22	-34.8	-35.8	23.6	0.00e+00	123	29	0	460324864	42	6082
2026-01-14 12:56:36.48	36.38	12.50	-34.5	-35.4	23.9	0.00e+00	121	29	0	472907776	42	5828
2026-01-14 12:56:40.52	36.91	12.79	-34.5	-35.4	23.9	0.00e+00	123	29	0	485490688	42	5837
2026-01-14 12:56:44.56	37.45	13.08	-34.3	-35.2	24.0	0.00e+00	122	29	0	498073600	42	5695
2026-01-14 12:56:48.59	38.00	13.37	-34.5	-35.4	23.9	0.00e+00	122	28	0	510656512	42	5837
2026-01-14 12:56:52.63	38.56	13.66	-34.3	-35.3	24.1	0.00e+00	123	28	0	523239424	42	5729
2026-01-14 12:56:56.67	39.13	13.95	-34.4	-35.3	23.9	0.00e+00	123	29	0	535822336	42	5778
2026-01-14 12:57:00.70	39.71	14.24	-34.6	-35.5	23.9	0.00e+00	123	29	0	548405248	42	5875
2026-01-14 12:57:04.74	40.31	14.54	-34.4	-35.3	24.0	0.00e+00	123	29	0	560988160	42	5784
2026-01-14 12:57:08.78	40.92	14.83	-34.4	-35.4	24.0	0.00e+00	121	29	0	573571072	42	5803
2026-01-14 12:57:12.82	41.53	15.13	-34.5	-35.4	24.0	0.00e+00	122	28	0	586153984	42	5849
2026-01-14 12:57:16.85	42.16	15.42	-34.5	-35.4	24.0	0.00e+00	122	29	0	598736896	42	5819
2026-01-14 12:57:20.89	42.80	15.72	-34.4	-35.3	23.9	0.00e+00	123	29	0	612368384	42	5788
2026-01-14 12:57:24.93	43.46	16.01	-34.6	-35.5	23.9	0.00e+00	122	29	0	624951296	42	5887
2026-01-14 12:57:28.97	44.13	16.31	-34.6	-35.6	23.8	0.00e+00	123	29	0	637534208	42	5945
2026-01-14 12:57:33.00	44.80	16.60	-34.6	-35.5	23.9	0.00e+00	122	29	0	650117120	42	5909
2026-01-14 12:57:37.04	45.50	16.90	-34.5	-35.4	24.0	0.00e+00	123	29	0	662700032	42	5825
2026-01-14 12:57:41.08	46.20	17.20	-34.4	-35.3	24.0	0.00e+00	122	29	0	675282944	42	5783
2026-01-14 12:57:45.12	46.92	17.49	-34.2	-35.1	24.2	0.00e+00	123	29	0	687865856	42	5652
2026-01-14 12:57:49.15	47.66	17.78	-34.4	-35.3	24.2	0.00e+00	122	29	0	700448768	42	5742
2026-01-14 12:57:53.19	48.40	18.08	-34.5	-35.4	24.1	0.00e+00	122	29	0	713031680	42	5807
2026-01-14 12:57:57.23	49.17	18.37	-34.2	-35.0	24.4	0.00e+00	123	29	0	725614592	42	5586
2026-01-14 12:58:01.27	49.94	18.66	-34.2	-35.1	24.3	0.00e+00	123	29	0	738197504	42	5646
2026-01-14 12:58:05.31	50.73	18.95	-34.3	-35.2	24.2	0.00e+00	121	29	0	750780416	42	5721
2026-01-14 12:58:09.35	51.54	19.23	-34.4	-35.3	24.2	0.00e+00	123	29	0	763363328	42	5737
2026-01-14 12:58:13.39	52.36	19.52	-34.6	-35.6	24.0	0.00e+00	123	29	0	775946240	42	5935
2026-01-14 12:58:17.43	53.19	19.80	-34.5	-35.4	24.0	0.00e+00	122	29	0	788529152	42	5815
2026-01-14 12:58:21.46	54.04	20.08	-34.3	-35.3	24.2	0.00e+00	122	29	0	801112064	42	5733
2026-01-14 12:58:25.50	54.91	20.35	-34.4	-35.3	24.1	0.00e+00	122	29	0	813694976	42	5773
2026-01-14 12:58:29.54	55.79	20.62	-34.2	-35.1	24.2	0.00e+00	122	29	0	826277888	42	5644
2026-01-14 12:58:33.58	56.68	20.89	-34.4	-35.3	24.0	0.00e+00	123	29	0	838860800	42	5780
2026-01-14 12:58:37.61	57.59	21.16	-34.2	-35.1	24.3	0.00e+00	122	29	0	851443712	42	5603
2026-01-14 12:58:41.65	58.52	21.41	-33.7	-34.6	24.6	0.00e+00	120	29	0	864026624	42	5323
2026-01-14 12:58:45.69	59.46	21.67	-33.9	-34.8	24.4	0.00e+00	123	29	0	876609536	40	6120
2026-01-14 12:58:49.73	60.42	21.92	-33.9	-34.8	24.5	0.00e+00	123	29	0	889192448	40	6095
2026-01-14 12:58:53.77	61.39	22.16	-33.8	-34.7	24.6	0.00e+00	121	28	0	901775360	40	6007
2026-01-14 12:58:57.80	62.38	22.40	-33.9	-34.7	24.6	0.00e+00	120	29	0	914358272	40	6064
2026-01-14 12:59:01.84	63.38	22.63	-33.6	-34.5	24.7	0.00e+00	123	29	0	926941184	40	5884
2026-01-14 12:59:05.87	64.39	22.85	-33.7	-34.6	24.7	0.00e+00	122	29	0	939524096	40	5958
2026-01-14 12:59:09.91	65.42	23.07	-33.8	-34.6	24.7	0.00e+00	122	29	0	952107008	40	5975
2026-01-14 12:59:13.95	66.46	23.28	-33.9	-34.8	24.5	0.00e+00	122	29	0	964689920	40	6109
2026-01-14 12:59:17.99	67.52	23.48	-34.1	-35.0	24.5	0.00e+00	123	29	0	978321408	40	6206
2026-01-14 12:59:22.02	68.59	23.67	-34.0	-34.9	24.6	0.00e+00	123	29	0	990904320	40	6136
2026-01-14 12:59:26.06	69.67	23.85	-33.9	-34.8	24.6	0.00e+00	123	29	0	1003487232	40	6099
2026-01-14 12:59:30.10	70.77	24.02	-33.7	-34.6	24.6	0.00e+00	123	29	0	1016070144	40	5962
2026-01-14 12:59:34.14	71.88	24.19	-33.8	-34.7	24.7	0.00e+00	122	29	0	1028653056	40	6006
2026-01-14 12:59:38.17	72.99	24.34	-33.7	-34.6	24.7	0.00e+00	122	29	0	1041235968	40	5984
2026-01-14 12:59:42.21	74.12	24.48	-33.6	-34.5	24.9	0.00e+00	122	29	0	1053818880	40	5881
2026-01-14 12:59:46.25	75.26	24.62	-33.6	-34.5	24.8	0.00e+00	123	29	0	1066401792	40	5894
2026-01-14 12:59:50.29	76.41	24.74	-33.5	-34.4	24.9	0.00e+00	123	29	0	1078984704	40	5795
2026-01-14 12:59:54.33	77.56	24.85	-33.4	-34.3	25.0	0.00e+00	123	29	0	1091567616	40	5726
2026-01-14 12:59:58.37	78.73	24.95	-33.3	-34.2	24.9	0.00e+00	122	29	0	1104150528	40	5676
2026-01-14 13:00:02.40	79.89	25.03	-33.2	-34.1	25.0	0.00e+00	123	29	0	1116733440	40	5637
2026-01-14 13:00:06.44	81.07	25.11	-33.3	-34.2	24.9	0.00e+00	122	29	0	1129316352	40	5677
2026-01-14 13:00:10.48	82.25	25.17	-33.7	-34.6	24.7	0.00e+00	123	29	0	1141899264	40	5949
2026-01-14 13:00:14.52	83.44	25.22	-33.6	-34.5	24.7	0.00e+00	123	29	0	1154482176	40	5875
2026-01-14 13:00:18.55	84.62	25.25	-33.4	-34.2	25.0	0.00e+00	123	29	0	1167065088	40	5717
2026-01-14 13:00:22.59	85.82	25.28	-33.4	-34.3	24.9	0.00e+00	122	29	0	1179648000	40	5756
2026-01-14 13:00:26.63	87.01	25.29	-33.3	-34.2	24.9	0.00e+00	122	29	0	1192230912	40	5696
2026-01-14 13:00:30.67	88.20	25.29	-33.2	-34.1	25.0	0.00e+00	122	29	0	1204813824	40	5620
2026-01-14 13:00:34.71	89.39	25.27	-33.3	-34.2	25.1	0.00e+00	123	29	0	1217396736	40	5665
2026-01-14 13:00:38.74	90.58	25.24	-33.1	-34.0	25.1	0.00e+00	122	29	0	1229979648	40	5551
2026-01-14 13:00:42.78	91.77	25.20	-33.5	-34.3	24.9	0.00e+00	123	29	0	1242562560	40	5777
2026-01-14 13:00:46.82	92.96	25.15	-33.4	-34.3	24.8	0.00e+00	120	29	0	1255145472	40	5730
2026-01-14 13:00:50.86	94.14	25.08	-33.4	-34.3	25.0	0.00e+00	123	29	0	1267728384	40	5732
2026-01-14 13:00:54.90	95.31	25.00	-33.2	-34.1	25.0	0.00e+00	120	29	0	1280311296	40	5605
2026-01-14 13:00:58.93	96.48	24.91	-33.6	-34.5	24.8	0.00e+00	123	29	0	1292894208	40	5877
2026-01-14 13:01:02.97	97.65	24.81	-33.2	-34.1	25.0	0.00e+00	122	29	0	1305477120	40	5612
2026-01-14 13:01:07.01	98.80	24.70	-33.3	-34.2	25.0	0.00e+00	121	29	0	1318060032	40	5671
2026-01-14 13:01:11.04	99.94	24.57	-33.6	-34.5	24.8	0.00e+00	120	29	0	1330642944	40	5868
2026-01-14 13:01:15.08	101.08	24.44	-33.5	-34.4	24.9	0.00e+00	123	29	0	1344274432	40	5825
2026-01-14 13:01:19.13	102.21	24.29	-33.6	-34.5	24.8	0.00e+00	122	29	0	1356857344	40	5877
2026-01-14 13:01:23.16	103.33	24.13	-33.7	-34.6	24.8	0.00e+00	123	29	0	1369440256	40	5934
2026-01-14 13:01:27.20	104.43	23.96	-33.6	-34.5	24.8	0.00e+00	122	29	0	1382023168	40	5895
2026-01-14 13:01:31.23	105.53	23.79	-33.5	-34.4	24.9	0.00e+00	123	29	0	1394606080	40	5837
2026-01-14 13:01:35.27	106.61	23.60	-33.6	-34.5	24.9	0.00e+00	123	29	0	1407188992	40	5860
2026-01-14 13:01:39.32	107.68	23.40	-33.6	-34.5	24.8	0.00e+00	123	29	0	1419771904	40	5918
2026-01-14 13:01:43.36	108.74	23.20	-33.9	-34.8	24.5	0.00e+00	122	29	0	1432354816	40	6113
2026-01-14 13:01:47.40	109.78	22.99	-33.6	-34.5	24.7	0.00e+00	122	29	0	1444937728	40	5864
2026-01-14 13:01:51.44	110.81	22.77	-33.7	-34.5	24.7	0.00e+00	122	29	0	1457520640	40	5923
2026-01-14 13:01:55.48	111.82	22.54	-33.6	-34.5	24.6	0.00e+00	122	29	0	1470103552	40	5905
2026-01-14 13:01:59.51	112.82	22.31	-33.8	-34.7	24.6	0.00e+00	122	29	0	1482686464	40	6028
2026-01-14 13:02:03.55	113.80	22.07	-34.0	-34.8	24.5	0.00e+00	122	29	0	1495269376	40	6131
2026-01-14 13:02:07.59	114.77	21.82	-33.7	-34.6	24.5	0.00e+00	123	29	0	1507852288	40	5970
2026-01-14 13:02:11.63	115.73	21.57	-33.6	-34.5	24.7	0.00e+00	121	29	0	1520435200	40	5893
2026-01-14 13:02:15.67	116.67	21.31	-33.9	-34.8	24.5	0.00e+00	122	29	0	1533018112	40	6134
2026-01-14 13:02:19.71	117.59	21.05	-33.9	-34.8	24.3	0.00e+00	122	29	0	1545601024	40	6120
2026-01-14 13:02:23.75	118.50	20.78	-33.6	-34.5	24.6	0.00e+00	120	29	0	1558183936	40	5865
2026-01-14 13:02:27.79	119.40	20.51	-33.7	-34.5	24.7	0.00e+00	122	29	0	1570766848	40	5913
2026-01-14 13:02:31.83	120.28	20.23	-33.8	-34.7	24.6	0.00e+00	123	29	0	1583349760	40	6050
2026-01-14 13:02:35.87	121.14	19.96	-33.8	-34.7	24.7	0.00e+00	123	29	0	1595932672	40	5999
2026-01-14 13:02:39.91	121.99	19.67	-33.9	-34.8	24.5	0.00e+00	122	29	0	1608515584	40	6088
2026-01-14 13:02:43.94	122.82	19.39	-33.7	-34.5	24.7	0.00e+00	122	29	0	1621098496	40	5918
2026-01-14 13:02:47.98	123.64	19.10	-34.0	-34.9	24.5	0.00e+00	123	29	0	1633681408	40	6144
2026-01-14 13:02:52.03	124.44	18.81	-34.0	-34.9	24.4	0.00e+00	120	29	0	1646264320	40	6144
2026-01-14 13:02:56.07	125.23	18.52	-33.9	-34.8	24.5	0.00e+00	123	29	0	1659895808	40	6110
2026-01-14 13:03:00.11	126.01	18.23	-33.9	-34.8	24.4	0.00e+00	123	29	0	1671430144	40	6125
2026-01-14 13:03:04.14	126.76	17.94	-34.0	-34.9	24.3	0.00e+00	122	29	0	1685061632	40	6200
2026-01-14 13:03:08.17	127.51	17.64	-34.0	-34.9	24.4	0.00e+00	123	29	0	1697644544	40	6196
2026-01-14 13:03:12.21	128.24	17.34	-34.2	-35.1	24.1	0.00e+00	123	29	0	1710227456	40	6328
2026-01-14 13:03:16.25	128.96	17.05	-34.5	-35.4	23.9	0.00e+00	123	29	0	1722810368	40	6543
2026-01-14 13:03:20.29	129.66	16.75	-34.6	-35.5	23.8	0.00e+00	123	29	0	1735393280	40	6645
2026-01-14 13:03:24.32	130.35	16.45	-34.5	-35.5	24.0	0.00e+00	121	29	0	1747976192	42	5871
2026-01-14 13:03:28.36	131.03	16.15	-34.5	-35.5	23.9	0.00e+00	122	29	0	1760559104	42	5866
2026-01-14 13:03:32.40	131.69	15.85	-34.5	-35.4	24.0	0.00e+00	122	29	0	1773142016	42	5829
2026-01-14 13:03:36.44	132.34	15.56	-34.5	-35.4	23.9	0.00e+00	122	29	0	1785724928	42	5819
2026-01-14 13:03:40.48	132.98	15.26	-34.9	-35.8	23.5	0.00e+00	122	29	0	1798307840	42	6096
2026-01-14 13:03:44.52	133.61	14.96	-35.0	-36.0	23.4	0.00e+00	123	29	0	1810890752	42	6235
2026-01-14 13:03:48.56	134.23	14.66	-35.1	-36.0	23.4	0.00e+00	123	29	0	1823473664	42	6247
2026-01-14 13:03:52.60	134.83	14.37	-34.9	-35.8	23.6	0.00e+00	123	29	0	1836056576	42	6086
2026-01-14 13:03:56.64	135.42	14.07	-34.8	-35.7	23.7	0.00e+00	123	29	0	1848639488	42	6041
2026-01-14 13:04:00.68	136.00	13.78	-35.1	-36.0	23.4	0.00e+00	123	29	0	1861222400	42	6241
2026-01-14 13:04:04.71	136.57	13.48	-35.3	-36.2	23.2	0.00e+00	123	29	0	1873805312	42	6411
2026-01-14 13:04:08.75	137.13	13.19	-35.2	-36.2	23.2	0.00e+00	122	29	0	1886388224	42	6370
2026-01-14 13:04:12.78	137.68	12.90	-35.1	-36.1	23.2	0.00e+00	122	29	0	1898971136	42	6298
2026-01-14 13:04:16.82	138.21	12.61	-35.4	-36.4	23.0	0.00e+00	123	29	0	1911554048	42	6505
2026-01-14 13:04:20.86	138.74	12.32	-35.5	-36.5	22.9	0.00e+00	122	29	0	1924136960	42	6643
2026-01-14 13:04:24.89	139.26	12.03	-35.9	-36.9	22.5	0.00e+00	123	29	0	1936719872	44	6183
2026-01-14 13:04:28.93	139.77	11.74	-36.6	-37.6	21.7	0.00e+00	122	29	0	1949302784	44	6723
2026-01-14 13:04:32.97	140.27	11.46	-37.3	-38.5	20.7	0.00e+00	123	29	0	1961885696	46	6610
2026-01-14 13:04:37.01	140.76	11.17	-38.0	-39.3	19.7	0.00e+00	123	29	0	1974468608	48	6437
2026-01-14 13:04:41.04	141.24	10.89	-38.4	-39.8	19.1	0.00e+00	122	29	0	1987051520	48	6806
2026-01-14 13:04:45.08	141.71	10.61	-38.1	-39.4	19.6	0.00e+00	123	29	0	1999634432	48	6516
2026-01-14 13:04:49.11	142.17	10.33	-37.9	-39.1	20.1	0.00e+00	122	29	0	2012217344	48	6286
2026-01-14 13:04:53.15	142.63	10.05	-37.3	-38.5	20.8	0.00e+00	123	29	0	2024800256	48	5877
2026-01-14 13:04:57.18	143.07	9.78	-36.9	-38.1	21.2	0.00e+00	123	29	0	2037383168	48	5606
2026-01-14 13:05:01.22	143.51	9.50	-36.8	-37.9	21.3	0.00e+00	123	29	0	2049966080	46	6154
2026-01-14 13:05:05.26	143.94	9.23	-37.1	-38.2	21.0	0.00e+00	122	29	0	2062548992	46	6375
2026-01-14 13:05:09.30	144.36	8.96	-37.0	-38.1	21.1	0.00e+00	123	29	0	2075131904	46	6292
2026-01-14 13:05:13.34	144.78	8.69	-37.2	-38.3	21.1	0.00e+00	122	29	0	2088763392	46	6443
2026-01-14 13:05:17.38	145.19	8.42	-37.0	-38.2	21.2	0.00e+00	122	29	0	2101346304	46	6355
2026-01-14 13:05:21.42	145.59	8.15	-36.9	-38.0	21.4	0.00e+00	120	29	0	2113929216	46	6231
2026-01-14 13:05:25.46	145.99	7.89	-36.6	-37.7	21.5	0.00e+00	123	29	0	2126512128	46	6031
2026-01-14 13:05:29.50	146.37	7.63	-36.9	-38.0	21.3	0.00e+00	123	29	0	2139095040	46	6249
2026-01-14 13:05:33.53	146.75	7.36	-37.0	-38.1	21.2	0.00e+00	122	29	0	2151677952	46	6294
2026-01-14 13:05:37.56	147.13	7.10	-37.0	-38.1	21.2	0.00e+00	122	29	0	2164260864	46	6316
2026-01-14 13:05:41.60	147.50	6.85	-36.9	-38.0	21.3	0.00e+00	123	29	0	2176843776	46	6249
2026-01-14 13:05:45.63	147.86	6.59	-37.1	-38.2	21.1	0.00e+00	123	29	0	2189426688	46	6382
2026-01-14 13:05:49.67	148.21	6.33	-37.2	-38.3	20.9	0.00e+00	123	29	0	2202009600	46	6484
2026-01-14 13:05:53.71	148.56	6.08	-37.4	-38.5	20.8	0.00e+00	121	29	0	2214592512	46	6633
2026-01-14 13:05:57.74	148.91	5.83	-37.4	-38.5	20.7	0.00e+00	122	29	0	2227175424	46	6613
2026-01-14 13:06:01.78	149.25	5.58	-37.2	-38.4	20.9	0.00e+00	122	29	0	2239758336	46	6514
2026-01-14 13:06:05.82	149.58	5.33	-36.9	-38.0	21.1	0.00e+00	118	29	0	2252341248	46	6266
2026-01-14 13:06:09.85	149.91	5.08	-37.2	-38.4	20.8	0.00e+00	122	29	0	2264924160	46	6508
2026-01-14 13:06:13.89	150.23	4.84	-37.6	-38.7	20.4	0.00e+00	122	29	0	2277507072	46	6798
2026-01-14 13:06:17.93	150.55	4.59	-37.8	-39.0	20.1	0.00e+00	123	29	0	2290089984	46	6967
2026-01-14 13:06:21.96	150.86	4.35	-37.6	-38.8	20.2	0.00e+00	122	29	0	2302672896	48	6107
2026-01-14 13:06:26.00	151.17	4.11	-37.9	-39.2	19.8	0.00e+00	120	29	0	2315255808	48	6363
2026-01-14 13:06:30.04	151.47	3.87	-37.9	-39.1	19.8	0.00e+00	123	29	0	2327838720	48	6331
2026-01-14 13:06:34.08	151.77	3.63	-38.2	-39.5	19.4	0.00e+00	123	29	0	2340421632	48	6604
2026-01-14 13:06:38.12	152.06	3.40	-38.5	-39.8	18.9	0.00e+00	122	29	0	2353004544	48	6828
2026-01-14 13:06:42.15	152.35	3.16	-39.4	-40.9	17.8	0.00e+00	123	29	0	2365587456	50	6930
2026-01-14 13:06:46.20	152.64	2.93	-47.6	-60.4	3.5	1.52e+00	0	29	104	2373976064	60	36840
2026-01-14 13:06:50.24	152.92	2.69	-48.6	-61.4	3.5	1.52e+00	0	29	104	2373976064	60	41300
2026-01-14 13:06:54.28	153.20	2.46	-48.7	-61.6	3.5	1.52e+00	0	29	104	2373976064	60	42101
2026-01-14 13:06:58.32	153.47	2.23	-48.8	-61.6	3.5	1.52e+00	0	29	104	2373976064	60	42245
2026-01-14 13:07:02.35	153.74	2.01	-48.7	-61.6	3.5	1.52e+00	0	29	104	2373976064	60	42017
2026-01-14 13:07:06.39	154.00	1.78	-48.7	-61.5	3.5	1.52e+00	0	29	104	2373976064	60	41911
2026-01-14 13:07:10.43	154.26	1.55	-48.7	-61.5	3.5	1.52e+00	0	29	104	2373976064	60	41905
2026-01-14 13:07:14.47	154.52	1.33	-48.7	-61.5	3.5	1.52e+00	0	29	104	2373976064	60	41713
2026-01-14 13:07:18.51	154.77	1.11	-48.7	-61.5	3.5	1.51e+00	0	29	104	2373976064	60	41781
2026-01-14 13:07:22.55	155.03	0.88	-48.7	-61.5	3.5	1.52e+00	0	29	104	2373976064	60	41877
2026-01-14 13:07:26.60	155.27	0.66	-48.7	-61.5	3.5	1.52e+00	0	29	104	2373976064	60	41660
2026-01-14 13:07:30.64	155.52	0.44	-48.7	-61.5	3.5	1.52e+00	0	29	104	2373976064	60	41797
2026-01-14 13:07:34.68	155.76	0.22	-48.6	-61.5	3.5	1.51e+00	0	29	104	2373976064	60	41658
2026-01-14 13:07:38.72	155.99	0.01	-48.6	-61.5	3.5	1.51e+00	0	29	104	2373976064	60	41593

#Closed at: 2026-01-14 13:07:40
#Recorded file [2373 MB]: D:/lorett/data/35029_260115_005314.dat