passes_logs/2026/01/14/R4.6S_Anadyr/R4.6S_Anadyr__20260114_162926_AQUA_rec.log

#Pass ID: 20260114_162926_AQUA
#Satellite: AQUA
#Configuration: AQUA
#almurnet v.1.7.20251203
#Start time: 2026-01-14 16:29:29

#Version: 2.2.20231116
#Station: R4.6S_Anadyr
#Location: 177.4865 lon 64.73178 lat
#TLE: 1 27424U 02022A   26013.85306262  .00000759  00000+0  16188-3 0  9996
#TLE: 2 27424  98.4079 340.2612 0002043  79.8220 301.8652 14.61819210260728

#Time	Az	El	Level	Level2	SNR	BER	BlckErr	Temp	State	Recorded	gain1	gain2
2026-01-14 16:29:29.57	19.92	0.21	-49.1	-65.6	3.3	3.02e+01	0	28	0	0	60	72911
2026-01-14 16:29:33.61	19.92	0.46	-49.1	-67.0	3.5	3.02e+01	0	28	104	0	60	86574
2026-01-14 16:29:37.65	19.92	0.71	-48.8	-66.7	3.5	3.02e+01	0	28	104	0	60	82905
2026-01-14 16:29:41.69	19.93	0.96	-48.0	-65.9	3.5	3.02e+01	0	28	104	0	60	75808
2026-01-14 16:29:45.73	19.93	1.22	-47.6	-65.5	3.5	3.02e+01	0	29	104	0	60	72447
2026-01-14 16:29:49.78	19.93	1.48	-47.6	-64.9	3.5	3.02e+01	0	29	104	0	60	67630
2026-01-14 16:29:53.82	19.93	1.75	-47.6	-64.5	3.5	3.02e+01	0	29	104	0	60	64582
2026-01-14 16:29:57.86	19.93	2.01	-47.6	-65.3	3.5	3.02e+01	0	29	104	0	60	71005
2026-01-14 16:30:01.90	19.94	2.28	-47.6	-65.0	3.5	3.02e+01	0	29	104	0	60	68685
2026-01-14 16:30:05.94	19.94	2.55	-47.3	-59.2	5.3	3.02e+01	25	29	0	0	60	34979
2026-01-14 16:30:09.98	19.94	2.83	-47.2	-57.3	6.6	3.02e+01	90	29	0	6291456	60	28152
2026-01-14 16:30:14.02	19.94	3.10	-44.5	-48.3	16.8	3.02e+01	62	29	0	14155776	60	10023
2026-01-14 16:30:18.06	19.94	3.38	-41.1	-43.2	21.9	3.02e+01	54	29	0	21495808	58	6217
2026-01-14 16:30:22.10	19.94	3.67	-41.3	-43.4	21.6	3.02e+01	58	29	0	29360128	56	7159
2026-01-14 16:30:26.14	19.93	3.95	-40.5	-42.4	22.7	3.02e+01	58	29	0	36700160	54	7191
2026-01-14 16:30:30.17	19.93	4.24	-39.2	-40.9	24.0	3.02e+01	50	29	0	39845888	54	6007
2026-01-14 16:30:34.21	19.93	4.54	-39.2	-40.8	24.1	3.02e+01	56	29	0	47710208	54	5980
2026-01-14 16:30:38.25	19.93	4.84	-37.3	-38.8	26.3	3.02e+01	53	29	0	55050240	50	5930
2026-01-14 16:30:42.28	19.93	5.14	-37.7	-39.1	26.0	3.02e+01	59	29	0	62914560	50	6182
2026-01-14 16:30:46.32	19.92	5.44	-36.9	-38.3	26.8	3.02e+01	59	29	0	70254592	48	6294
2026-01-14 16:30:50.35	19.92	5.75	-37.0	-38.4	26.7	3.02e+01	62	29	0	78118912	48	6407
2026-01-14 16:30:54.39	19.91	6.06	-36.7	-38.1	27.0	3.02e+01	50	29	0	85458944	48	6152
2026-01-14 16:30:58.43	19.91	6.38	-36.7	-38.0	27.1	3.02e+01	59	29	0	93323264	48	6113
2026-01-14 16:31:02.48	19.90	6.70	-36.7	-38.0	27.2	3.02e+01	54	29	0	100663296	48	6108
2026-01-14 16:31:06.52	19.90	7.03	-36.4	-37.7	27.5	3.02e+01	58	29	0	108003328	48	5905
2026-01-14 16:31:10.56	19.89	7.36	-36.5	-37.8	27.5	3.02e+01	50	29	0	115867648	48	5969
2026-01-14 16:31:14.60	19.88	7.70	-36.3	-37.6	27.6	3.02e+01	64	29	0	123207680	48	5838
2026-01-14 16:31:18.63	19.88	8.04	-36.2	-37.5	27.7	3.02e+01	53	29	0	131072000	48	5780
2026-01-14 16:31:22.67	19.87	8.38	-36.1	-37.5	27.8	3.02e+01	57	29	0	138412032	48	5726
2026-01-14 16:31:26.71	19.86	8.73	-36.3	-37.6	27.7	3.02e+01	51	29	0	146276352	48	5812
2026-01-14 16:31:30.75	19.85	9.09	-36.1	-37.4	27.9	3.02e+01	61	29	0	153616384	48	5716
2026-01-14 16:31:34.79	19.84	9.45	-36.0	-37.3	28.1	3.02e+01	51	29	0	161480704	46	6312
2026-01-14 16:31:38.82	19.83	9.82	-36.0	-37.2	28.1	3.02e+01	60	29	0	168820736	46	6277
2026-01-14 16:31:42.86	19.82	10.20	-35.7	-36.9	28.4	3.02e+01	60	29	0	176160768	46	6052
2026-01-14 16:31:46.90	19.80	10.58	-35.6	-36.9	28.5	3.02e+01	60	29	0	184025088	46	5998
2026-01-14 16:31:50.93	19.79	10.97	-35.3	-36.5	28.8	3.02e+01	61	29	0	191365120	46	5782
2026-01-14 16:31:54.97	19.78	11.36	-35.1	-36.4	29.0	3.02e+01	59	29	0	199229440	46	5661
2026-01-14 16:31:59.01	19.76	11.76	-35.1	-36.3	29.1	3.02e+01	59	29	0	206569472	46	5638
2026-01-14 16:32:03.05	19.74	12.17	-35.0	-36.3	29.0	3.02e+01	60	29	0	214433792	44	6289
2026-01-14 16:32:07.09	19.73	12.59	-35.0	-36.2	29.1	3.02e+01	56	29	0	221773824	44	6227
2026-01-14 16:32:11.12	19.71	13.01	-35.0	-36.3	29.1	3.02e+01	60	29	0	229113856	44	6282
2026-01-14 16:32:15.16	19.69	13.45	-35.0	-36.2	29.1	3.02e+01	58	29	0	236978176	44	6236
2026-01-14 16:32:19.20	19.67	13.89	-34.9	-36.1	29.3	3.02e+01	59	29	0	244318208	44	6176
2026-01-14 16:32:23.24	19.64	14.34	-34.9	-36.1	29.3	3.02e+01	61	29	0	252182528	44	6175
2026-01-14 16:32:27.27	19.62	14.80	-34.8	-36.0	29.4	3.02e+01	57	29	0	259522560	44	6084
2026-01-14 16:32:31.31	19.60	15.28	-34.8	-36.0	29.4	3.02e+01	60	29	0	267386880	44	6087
2026-01-14 16:32:35.35	19.57	15.76	-34.6	-35.8	29.6	3.02e+01	60	29	0	274726912	44	5962
2026-01-14 16:32:39.38	19.54	16.25	-34.6	-35.8	29.5	3.02e+01	58	29	0	282591232	44	5972
2026-01-14 16:32:43.42	19.51	16.75	-34.7	-35.9	29.5	3.02e+01	62	29	0	289931264	44	6012
2026-01-14 16:32:47.45	19.48	17.27	-35.0	-36.2	29.3	3.02e+01	58	29	0	297271296	44	6253
2026-01-14 16:32:51.49	19.45	17.80	-34.7	-35.9	29.5	3.02e+01	59	29	0	305135616	44	6046
2026-01-14 16:32:55.53	19.41	18.34	-34.6	-35.8	29.7	3.02e+01	63	29	0	312475648	44	5929
2026-01-14 16:32:59.56	19.38	18.89	-34.8	-36.0	29.5	3.02e+01	46	29	0	320339968	44	6081
2026-01-14 16:33:03.60	19.34	19.46	-34.7	-35.9	29.6	3.02e+01	59	29	0	327680000	44	6032
2026-01-14 16:33:07.64	19.30	20.04	-34.9	-36.1	29.5	3.02e+01	56	29	0	335544320	44	6185
2026-01-14 16:33:11.68	19.25	20.64	-35.0	-36.2	29.4	3.02e+01	58	29	0	342884352	44	6236
2026-01-14 16:33:15.71	19.21	21.25	-35.1	-36.3	29.3	3.02e+01	57	29	0	350224384	44	6314
2026-01-14 16:33:19.75	19.16	21.88	-35.3	-36.5	29.1	3.02e+01	61	29	0	358088704	44	6489
2026-01-14 16:33:23.78	19.11	22.53	-35.3	-36.5	29.2	3.02e+01	57	29	0	365428736	44	6445
2026-01-14 16:33:27.82	19.05	23.19	-35.4	-36.7	29.0	3.02e+01	57	29	0	373293056	44	6596
2026-01-14 16:33:31.85	18.99	23.88	-35.4	-36.6	29.1	3.02e+01	46	29	0	380633088	44	6514
2026-01-14 16:33:35.88	18.93	24.58	-35.5	-36.8	28.9	3.02e+01	59	29	0	388497408	44	6661
2026-01-14 16:33:39.92	18.87	25.31	-35.3	-36.5	29.2	3.02e+01	44	29	0	395837440	44	6467
2026-01-14 16:33:43.96	18.80	26.06	-35.0	-36.3	29.4	3.02e+01	60	29	0	403177472	44	6279
2026-01-14 16:33:48.00	18.72	26.83	-34.9	-36.1	29.5	3.02e+01	48	29	0	411041792	44	6196
2026-01-14 16:33:52.04	18.65	27.63	-34.8	-36.0	29.7	3.02e+01	59	29	0	418381824	44	6090
2026-01-14 16:33:56.07	18.56	28.45	-34.9	-36.1	29.6	3.02e+01	46	29	0	426246144	44	6179
2026-01-14 16:34:00.11	18.47	29.30	-35.0	-36.2	29.5	3.02e+01	61	29	0	433586176	44	6242
2026-01-14 16:34:04.14	18.38	30.17	-34.6	-35.8	29.8	3.02e+01	46	29	0	441450496	44	5975
2026-01-14 16:34:08.18	18.28	31.08	-34.6	-35.8	29.8	3.02e+01	58	29	0	448790528	44	5956
2026-01-14 16:34:12.22	18.17	32.02	-34.9	-36.1	29.6	3.02e+01	61	29	0	456130560	44	6155
2026-01-14 16:34:16.26	18.05	32.99	-34.8	-36.0	29.8	3.02e+01	57	29	0	463994880	44	6069
2026-01-14 16:34:20.29	17.93	33.99	-35.2	-36.4	29.3	3.02e+01	58	29	0	471334912	44	6366
2026-01-14 16:34:24.33	17.79	35.03	-35.4	-36.6	29.2	3.02e+01	59	29	0	479199232	44	6551
2026-01-14 16:34:28.37	17.65	36.11	-36.3	-37.5	28.4	3.02e+01	55	29	0	486539264	46	6475
2026-01-14 16:34:32.40	17.49	37.23	-36.6	-37.9	28.2	3.02e+01	61	29	0	494403584	46	6731
2026-01-14 16:34:36.44	17.32	38.39	-37.1	-38.4	27.7	3.02e+01	55	29	0	501743616	48	6410
2026-01-14 16:34:40.48	17.14	39.59	-36.9	-38.2	27.9	3.02e+01	59	29	0	509083648	48	6214
2026-01-14 16:34:44.52	16.94	40.84	-36.4	-37.6	28.3	3.02e+01	60	29	0	516947968	48	5844
2026-01-14 16:34:48.55	16.73	42.13	-36.6	-37.8	28.2	3.02e+01	62	29	0	524288000	48	5987
2026-01-14 16:34:52.58	16.49	43.48	-35.9	-37.1	28.8	3.02e+01	61	29	0	532152320	46	6185
2026-01-14 16:34:56.61	16.23	44.87	-35.1	-36.3	29.5	3.02e+01	60	29	0	539492352	46	5658
2026-01-14 16:35:00.65	15.95	46.32	-35.1	-36.3	29.5	3.02e+01	58	29	0	547356672	44	6305
2026-01-14 16:35:04.68	15.63	47.82	-35.4	-36.7	29.2	3.02e+01	58	29	0	554696704	44	6575
2026-01-14 16:35:08.71	15.28	49.37	-35.1	-36.3	29.4	3.02e+01	59	29	0	562561024	44	6299
2026-01-14 16:35:12.75	14.89	50.99	-35.1	-36.3	29.4	3.02e+01	63	29	0	569901056	44	6320
2026-01-14 16:35:16.79	14.45	52.67	-34.3	-35.5	30.1	3.02e+01	61	29	0	577241088	44	5753
2026-01-14 16:35:20.82	13.96	54.40	-34.3	-35.5	30.1	3.02e+01	60	29	0	585105408	44	5752
2026-01-14 16:35:24.86	13.39	56.19	-34.5	-35.7	29.9	3.02e+01	61	29	0	592445440	44	5882
2026-01-14 16:35:28.89	12.75	58.04	-35.4	-36.6	29.0	3.02e+01	45	29	0	600309760	44	6557
2026-01-14 16:35:32.93	12.01	59.95	-36.0	-37.3	28.6	3.02e+01	60	29	0	607649792	46	6295
2026-01-14 16:35:36.97	11.14	61.93	-37.0	-38.3	27.7	3.02e+01	60	29	0	615514112	48	6282
2026-01-14 16:35:41.00	10.11	63.95	-37.6	-38.9	27.1	3.02e+01	60	29	0	622854144	48	6793
2026-01-14 16:35:45.04	8.88	66.02	-38.6	-40.1	26.1	3.02e+01	45	29	0	630718464	50	6890
2026-01-14 16:35:49.07	7.39	68.14	-39.6	-41.1	25.1	3.02e+01	60	29	0	638058496	52	6957
2026-01-14 16:35:53.11	5.53	70.30	-39.8	-41.4	24.8	3.02e+01	46	29	0	645398528	54	6384
2026-01-14 16:35:57.09	3.22	72.45	-38.9	-40.4	25.8	3.02e+01	58	29	0	653262848	52	6354
2026-01-14 16:36:01.13	0.15	74.64	-38.5	-39.9	26.2	3.02e+01	60	29	0	660602880	52	6027
2026-01-14 16:36:05.16	356.03	76.80	-38.5	-40.0	26.2	3.02e+01	62	29	0	668467200	52	6078
2026-01-14 16:36:09.20	350.24	78.91	-37.3	-38.6	27.4	3.02e+01	45	29	0	675807232	50	5810
2026-01-14 16:36:13.24	341.76	80.88	-35.8	-37.0	28.8	3.02e+01	58	29	0	683671552	46	6098
2026-01-14 16:36:17.27	329.01	82.57	-35.9	-37.1	28.6	3.02e+01	50	29	0	691011584	46	6192
2026-01-14 16:36:21.31	310.23	83.70	-36.4	-37.7	28.1	3.02e+01	60	29	0	698351616	46	6639
2026-01-14 16:36:25.35	286.86	83.96	-36.5	-37.8	28.1	3.02e+01	46	29	0	706215936	46	6697
2026-01-14 16:36:29.38	265.29	83.23	-36.6	-37.9	27.9	3.02e+01	62	29	0	713555968	46	6794
2026-01-14 16:36:33.42	249.63	81.77	-35.5	-36.7	29.0	3.02e+01	49	29	0	721420288	46	5923
2026-01-14 16:36:37.45	239.26	79.92	-36.0	-37.3	28.7	3.02e+01	59	29	0	728760320	46	6292
2026-01-14 16:36:41.49	232.28	77.87	-37.9	-39.3	26.6	3.02e+01	60	29	0	736624640	48	7109
2026-01-14 16:36:45.52	227.42	75.72	-39.3	-40.9	25.3	3.02e+01	59	29	0	743964672	52	6748
2026-01-14 16:36:49.56	223.88	73.53	-38.2	-39.6	26.5	3.02e+01	59	29	0	751304704	52	5819
2026-01-14 16:36:53.60	221.20	71.34	-39.4	-40.9	25.2	3.02e+01	57	29	0	759169024	52	6769
2026-01-14 16:36:57.63	219.13	69.17	-40.6	-42.3	23.8	3.02e+01	61	29	0	766509056	54	7100
2026-01-14 16:37:01.67	217.47	67.03	-41.0	-42.8	23.3	3.02e+01	59	29	0	774373376	56	6675
2026-01-14 16:37:05.70	216.12	64.93	-39.3	-40.8	25.3	3.02e+01	57	29	0	781713408	52	6695
2026-01-14 16:37:09.74	215.00	62.88	-36.8	-38.1	27.8	3.02e+01	59	29	0	789577728	48	6163
2026-01-14 16:37:13.78	214.06	60.87	-37.1	-38.4	27.6	3.02e+01	59	29	0	796917760	48	6401
2026-01-14 16:37:17.82	213.26	58.93	-36.3	-37.6	28.3	3.02e+01	58	29	0	804257792	48	5808
2026-01-14 16:37:21.86	212.57	57.04	-35.5	-36.7	29.1	3.02e+01	59	29	0	812122112	46	5917
2026-01-14 16:37:25.89	211.97	55.21	-34.3	-35.5	30.1	3.02e+01	60	29	0	819462144	44	5789
2026-01-14 16:37:29.93	211.44	53.45	-34.0	-35.1	30.4	3.02e+01	61	29	0	827326464	42	6197
2026-01-14 16:37:33.97	210.97	51.74	-34.6	-35.8	29.8	3.02e+01	59	29	0	834666496	42	6722
2026-01-14 16:37:38.01	210.56	50.09	-34.8	-36.0	29.7	3.02e+01	61	29	0	842530816	42	6843
2026-01-14 16:37:42.05	210.19	48.50	-35.3	-36.5	29.2	3.02e+01	59	29	0	849870848	44	6449
2026-01-14 16:37:46.08	209.86	46.97	-35.0	-36.2	29.5	3.02e+01	58	29	0	857735168	44	6220
2026-01-14 16:37:50.12	209.56	45.49	-35.0	-36.2	29.5	3.02e+01	48	29	0	865075200	44	6216
2026-01-14 16:37:54.16	209.28	44.06	-35.0	-36.2	29.4	3.02e+01	56	28	0	872415232	44	6274
2026-01-14 16:37:58.20	209.04	42.69	-35.5	-36.7	29.0	3.02e+01	51	29	0	880279552	44	6636
2026-01-14 16:38:02.23	208.81	41.37	-35.9	-37.2	28.7	3.02e+01	57	29	0	887619584	44	6971
2026-01-14 16:38:06.27	208.60	40.10	-36.5	-37.8	28.2	3.02e+01	50	28	0	895483904	46	6686
2026-01-14 16:38:10.31	208.41	38.87	-36.7	-38.0	28.0	3.02e+01	59	29	0	902823936	46	6827
2026-01-14 16:38:14.34	208.23	37.69	-36.8	-38.1	27.9	3.02e+01	53	29	0	910688256	46	6885
2026-01-14 16:38:18.38	208.07	36.54	-36.8	-38.0	27.8	3.02e+01	60	28	0	918028288	48	6134
2026-01-14 16:38:22.42	207.92	35.44	-35.8	-37.0	28.8	3.02e+01	54	28	0	925368320	46	6130
2026-01-14 16:38:26.45	207.78	34.38	-35.1	-36.3	29.4	3.02e+01	63	29	0	933232640	46	5652
2026-01-14 16:38:30.49	207.65	33.36	-35.1	-36.3	29.5	3.02e+01	47	29	0	940572672	46	5635
2026-01-14 16:38:34.53	207.53	32.37	-34.5	-35.7	29.7	3.02e+01	58	29	0	948436992	44	5872
2026-01-14 16:38:38.56	207.42	31.41	-34.2	-35.3	30.1	3.02e+01	46	29	0	955777024	44	5654
2026-01-14 16:38:42.60	207.31	30.49	-34.1	-35.3	30.3	3.02e+01	56	29	0	963641344	42	6280
2026-01-14 16:38:46.64	207.21	29.60	-34.4	-35.6	30.2	3.02e+01	44	29	0	970981376	42	6499
2026-01-14 16:38:50.67	207.12	28.73	-34.7	-35.9	29.9	3.02e+01	61	28	0	978321408	42	6742
2026-01-14 16:38:54.71	207.03	27.90	-34.9	-36.1	29.5	3.02e+01	45	28	0	986185728	42	6942
2026-01-14 16:38:58.75	206.95	27.09	-35.1	-36.4	29.4	3.02e+01	60	29	0	993525760	44	6357
2026-01-14 16:39:02.78	206.87	26.30	-35.2	-36.4	29.2	3.02e+01	57	29	0	1001390080	44	6397
2026-01-14 16:39:06.83	206.80	25.54	-35.0	-36.1	29.5	3.02e+01	60	29	0	1008730112	44	6203
2026-01-14 16:39:10.86	206.73	24.80	-35.1	-36.3	29.3	3.02e+01	57	29	0	1016594432	44	6343
2026-01-14 16:39:14.90	206.66	24.08	-35.3	-36.5	29.2	3.02e+01	58	29	0	1023934464	44	6443
2026-01-14 16:39:18.94	206.60	23.39	-35.3	-36.6	29.1	3.02e+01	59	29	0	1031798784	44	6506
2026-01-14 16:39:22.98	206.54	22.71	-35.7	-36.9	28.8	3.02e+01	61	29	0	1039138816	44	6788
2026-01-14 16:39:27.01	206.49	22.05	-35.5	-36.8	28.9	3.02e+01	62	29	0	1046478848	44	6666
2026-01-14 16:39:31.05	206.44	21.41	-35.5	-36.7	28.9	3.02e+01	60	29	0	1054343168	44	6642
2026-01-14 16:39:35.09	206.39	20.79	-35.4	-36.6	28.9	3.02e+01	57	29	0	1061683200	44	6567
2026-01-14 16:39:39.12	206.34	20.19	-35.0	-36.2	29.4	3.02e+01	57	28	0	1069547520	44	6248
2026-01-14 16:39:43.16	206.30	19.59	-34.9	-36.1	29.4	3.02e+01	57	29	0	1076887552	44	6177
2026-01-14 16:39:47.20	206.26	19.02	-35.0	-36.2	29.4	3.02e+01	59	28	0	1084751872	44	6259
2026-01-14 16:39:51.23	206.22	18.46	-35.1	-36.3	29.4	3.02e+01	58	29	0	1092091904	44	6286
2026-01-14 16:39:55.27	206.18	17.91	-35.3	-36.5	29.1	3.02e+01	59	28	0	1099431936	44	6471
2026-01-14 16:39:59.31	206.14	17.38	-35.3	-36.6	29.1	3.02e+01	58	28	0	1107296256	44	6512
2026-01-14 16:40:03.35	206.11	16.85	-35.3	-36.6	29.1	3.02e+01	64	29	0	1114636288	44	6514
2026-01-14 16:40:07.38	206.08	16.34	-35.5	-36.7	28.9	3.02e+01	58	28	0	1122500608	44	6630
2026-01-14 16:40:11.42	206.05	15.85	-35.4	-36.7	29.0	3.02e+01	58	28	0	1129840640	44	6586
2026-01-14 16:40:15.46	206.02	15.36	-35.7	-36.9	28.8	3.02e+01	62	29	0	1137704960	44	6773
2026-01-14 16:40:19.50	205.99	14.88	-35.3	-36.6	29.0	3.02e+01	44	28	0	1145044992	44	6522
2026-01-14 16:40:23.53	205.96	14.41	-35.4	-36.6	28.9	3.02e+01	51	29	0	1152909312	44	6563
2026-01-14 16:40:27.57	205.94	13.96	-35.2	-36.4	29.0	3.02e+01	56	29	0	1160249344	44	6422
2026-01-14 16:40:31.61	205.91	13.51	-35.4	-36.6	28.9	3.02e+01	58	29	0	1167589376	44	6536
2026-01-14 16:40:35.65	205.89	13.07	-35.1	-36.3	29.1	3.02e+01	58	29	0	1175453696	44	6345
2026-01-14 16:40:39.68	205.87	12.64	-35.0	-36.2	29.2	3.02e+01	59	29	0	1182793728	44	6236
2026-01-14 16:40:43.72	205.85	12.22	-35.2	-36.4	29.0	3.02e+01	46	29	0	1190658048	44	6377
2026-01-14 16:40:47.75	205.83	11.80	-35.1	-36.3	29.1	3.02e+01	58	29	0	1197998080	44	6342
2026-01-14 16:40:51.79	205.81	11.40	-35.2	-36.4	29.0	3.02e+01	55	29	0	1205862400	44	6391
2026-01-14 16:40:55.82	205.79	11.00	-35.2	-36.5	29.0	3.02e+01	58	29	0	1213202432	44	6432
2026-01-14 16:40:59.86	205.78	10.61	-35.4	-36.7	28.8	3.02e+01	46	29	0	1220542464	44	6588
2026-01-14 16:41:03.89	205.76	10.22	-35.5	-36.7	28.8	3.02e+01	58	29	0	1228406784	44	6611
2026-01-14 16:41:07.94	205.75	9.84	-35.6	-36.9	28.5	3.02e+01	53	29	0	1235746816	44	6758
2026-01-14 16:41:11.98	205.73	9.47	-35.9	-37.1	28.4	3.02e+01	58	29	0	1243611136	44	6933
2026-01-14 16:41:16.01	205.72	9.11	-35.7	-37.0	28.4	3.02e+01	53	29	0	1250951168	44	6829
2026-01-14 16:41:20.05	205.70	8.75	-35.9	-37.1	28.2	3.02e+01	59	29	0	1258815488	44	6953
2026-01-14 16:41:24.09	205.69	8.39	-36.0	-37.3	28.1	3.02e+01	46	28	0	1266155520	46	6293
2026-01-14 16:41:28.12	205.68	8.04	-36.1	-37.4	28.0	3.02e+01	60	28	0	1274019840	46	6386
2026-01-14 16:41:32.16	205.67	7.70	-36.1	-37.4	28.0	3.02e+01	56	29	0	1281359872	46	6385
2026-01-14 16:41:36.19	205.66	7.36	-36.2	-37.5	27.9	3.02e+01	59	28	0	1288699904	46	6434
2026-01-14 16:41:40.23	205.65	7.03	-36.3	-37.6	27.8	3.02e+01	59	29	0	1296564224	46	6502
2026-01-14 16:41:44.27	205.64	6.70	-36.3	-37.6	27.8	3.02e+01	55	29	0	1303904256	46	6500
2026-01-14 16:41:48.31	205.63	6.37	-36.3	-37.6	27.7	3.02e+01	57	29	0	1311768576	46	6565
2026-01-14 16:41:52.35	205.62	6.05	-36.5	-37.8	27.5	3.02e+01	60	29	0	1319108608	46	6682
2026-01-14 16:41:56.38	205.62	5.74	-36.6	-37.9	27.3	3.02e+01	61	29	0	1326972928	46	6783
2026-01-14 16:42:00.43	205.61	5.43	-36.8	-38.1	27.2	3.02e+01	62	29	0	1334312960	46	6908
2026-01-14 16:42:04.46	205.60	5.12	-37.0	-38.4	26.9	3.02e+01	60	29	0	1342177280	48	6370
2026-01-14 16:42:08.50	205.60	4.82	-37.4	-38.7	26.5	3.02e+01	62	28	0	1349517312	48	6641
2026-01-14 16:42:12.54	205.59	4.52	-37.2	-38.5	26.6	3.02e+01	61	29	0	1356857344	48	6491
2026-01-14 16:42:16.57	205.58	4.22	-37.6	-39.1	26.2	3.02e+01	58	29	0	1364721664	48	6890
2026-01-14 16:42:20.61	205.58	3.93	-37.9	-39.4	25.8	3.02e+01	60	29	0	1372061696	48	7128
2026-01-14 16:42:24.64	205.57	3.64	-37.7	-39.1	25.9	3.02e+01	59	29	0	1379926016	50	6173
2026-01-14 16:42:28.67	205.57	3.36	-38.1	-39.6	25.4	3.02e+01	59	29	0	1387266048	50	6500
2026-01-14 16:42:32.71	205.57	3.07	-38.4	-39.9	25.1	3.02e+01	59	29	0	1395130368	50	6793
2026-01-14 16:42:36.75	205.56	2.79	-48.7	-66.9	3.5	3.02e+01	0	29	104	1396178944	60	85056
2026-01-14 16:42:40.78	205.56	2.52	-49.2	-67.1	3.5	3.02e+01	0	29	104	1396178944	60	87034
2026-01-14 16:42:44.82	205.56	2.25	-49.1	-67.0	3.5	3.02e+01	0	29	104	1396178944	60	86200
2026-01-14 16:42:48.86	205.55	1.98	-48.6	-67.0	3.5	3.02e+01	0	29	104	1396178944	60	85811
2026-01-14 16:42:52.90	205.55	1.71	-49.2	-67.0	3.5	3.02e+01	0	29	104	1396178944	60	86469
2026-01-14 16:42:56.94	205.55	1.44	-49.1	-67.0	3.5	3.02e+01	0	29	104	1396178944	60	86136
2026-01-14 16:43:00.97	205.55	1.18	-49.1	-67.0	3.5	3.02e+01	0	29	104	1396178944	60	86318
2026-01-14 16:43:05.01	205.55	0.92	-49.1	-67.0	3.5	3.02e+01	0	29	104	1396178944	60	85948
2026-01-14 16:43:09.05	205.54	0.66	-49.1	-67.0	3.5	3.02e+01	0	29	104	1396178944	60	86144
2026-01-14 16:43:13.09	205.54	0.41	-49.1	-66.9	3.5	3.02e+01	0	29	104	1396178944	60	85658
2026-01-14 16:43:17.12	205.54	0.16	-49.1	-67.0	3.5	3.02e+01	0	29	104	1396178944	60	85713
2026-01-14 16:43:21.16	205.54	-0.09	-49.1	-67.0	3.5	3.02e+01	0	29	104	1396178944	60	86030

#Closed at: 2026-01-14 16:43:22
#Recorded file [1396 MB]: D:/lorett/data/35029_260115_042929.dat