passes_logs/2026/01/14/R4.6S_Anadyr/R4.6S_Anadyr__20260114_224918_NOAA_21_JPSS-2_rec.log

#Pass ID: 20260114_224918_NOAA 21 (JPSS-2)
#Satellite: NOAA 21 (JPSS-2)
#Configuration: NOAA-21
#almurnet v.1.7.20251203
#Start time: 2026-01-14 22:49:23

#Version: 2.2.20231116
#Station: R4.6S_Anadyr
#Location: 177.4865 lon 64.73178 lat
#TLE: 1 54234U 22150A   26014.58979933  .00000039  00000+0  39403-4 0  9998
#TLE: 2 54234  98.7497 315.4945 0000653 294.6373  65.4735 14.19534652164756

#Time	Az	El	Level	Level2	SNR	BER	BlckErr	Temp	State	Recorded	gain1	gain2
2026-01-14 22:49:23.47	122.12	0.31	-48.8	-50.5	5.7	0.00e+00	0	26	0	0	60	40812
2026-01-14 22:49:27.38	121.98	0.54	-48.9	-61.7	3.5	1.51e+00	0	28	104	0	60	42903
2026-01-14 22:49:31.30	121.84	0.77	-48.6	-61.6	3.5	1.51e+00	0	28	104	0	60	42398
2026-01-14 22:49:35.23	121.70	1.01	-47.9	-60.8	3.5	1.52e+00	0	28	104	0	60	38534
2026-01-14 22:49:39.15	121.56	1.24	-46.6	-60.0	3.5	1.51e+00	0	29	104	0	60	35144
2026-01-14 22:49:43.06	121.42	1.48	-46.6	-60.0	3.5	1.51e+00	0	28	104	0	60	34989
2026-01-14 22:49:46.98	121.27	1.72	-46.6	-60.0	3.5	1.51e+00	0	28	104	0	60	35081
2026-01-14 22:49:50.89	121.12	1.95	-46.6	-59.9	3.5	1.52e+00	0	29	104	0	60	34862
2026-01-14 22:49:54.80	120.97	2.20	-46.6	-59.8	3.5	1.52e+00	0	29	104	0	60	34494
2026-01-14 22:49:58.72	120.82	2.44	-46.6	-60.0	3.5	1.52e+00	0	29	104	0	60	35204
2026-01-14 22:50:02.64	120.66	2.69	-46.6	-60.0	3.5	1.52e+00	0	29	104	0	60	34993
2026-01-14 22:50:06.56	120.50	2.93	-46.6	-59.5	3.5	1.52e+00	0	29	104	0	60	33325
2026-01-14 22:50:10.48	120.34	3.18	-46.5	-57.7	3.6	1.51e+00	0	29	104	0	60	27057
2026-01-14 22:50:14.41	120.17	3.44	-43.3	-46.3	13.1	1.42e-04	0	29	0	5242880	60	7230
2026-01-14 22:50:18.40	120.00	3.69	-41.8	-44.2	12.7	0.00e+00	0	29	0	17825792	54	7997
2026-01-14 22:50:22.42	119.82	3.96	-42.3	-45.0	15.0	1.10e-01	0	29	104	18874368	60	6258
2026-01-14 22:50:26.40	119.64	4.22	-39.4	-40.9	18.3	0.00e+00	0	29	0	30408704	52	6163
2026-01-14 22:50:30.39	119.46	4.49	-39.2	-40.6	18.7	0.00e+00	0	29	0	42991616	50	6699
2026-01-14 22:50:34.39	119.27	4.75	-38.7	-40.1	18.9	0.00e+00	0	29	0	54525952	50	6278
2026-01-14 22:50:38.43	119.08	5.03	-38.1	-39.4	20.0	0.00e+00	0	29	0	68157440	50	5821
2026-01-14 22:50:42.47	118.88	5.30	-37.7	-39.0	20.4	0.00e+00	0	29	0	79691776	48	6213
2026-01-14 22:50:46.51	118.68	5.58	-37.4	-38.6	20.8	0.00e+00	0	29	0	93323264	48	5978
2026-01-14 22:50:50.54	118.48	5.86	-37.3	-38.4	21.0	0.00e+00	0	29	0	105906176	48	5833
2026-01-14 22:50:54.58	118.27	6.15	-37.2	-38.3	21.1	0.00e+00	0	29	0	118489088	48	5744
2026-01-14 22:50:58.62	118.06	6.43	-36.8	-37.9	21.4	0.00e+00	0	29	0	131072000	48	5529
2026-01-14 22:51:02.66	117.84	6.72	-36.8	-37.9	21.4	0.00e+00	0	29	0	143654912	48	5515
2026-01-14 22:51:06.70	117.62	7.01	-36.9	-38.0	21.3	0.00e+00	0	29	0	156237824	48	5558
2026-01-14 22:51:10.73	117.39	7.31	-36.8	-37.9	21.5	0.00e+00	0	29	0	168820736	46	6187
2026-01-14 22:51:14.77	117.16	7.61	-36.7	-37.8	21.7	0.00e+00	0	29	0	181403648	46	6081
2026-01-14 22:51:18.81	116.93	7.91	-36.4	-37.4	22.0	0.00e+00	0	29	0	193986560	46	5850
2026-01-14 22:51:22.84	116.69	8.21	-36.4	-37.4	22.1	0.00e+00	0	29	0	206569472	46	5841
2026-01-14 22:51:26.87	116.44	8.52	-36.2	-37.2	22.3	0.00e+00	0	29	0	219152384	46	5680
2026-01-14 22:51:30.90	116.19	8.83	-35.7	-36.7	22.7	0.00e+00	0	29	0	231735296	44	6023
2026-01-14 22:51:34.94	115.93	9.14	-35.7	-36.7	22.6	0.00e+00	0	29	0	244318208	44	6051
2026-01-14 22:51:38.98	115.66	9.46	-35.6	-36.6	22.6	0.00e+00	0	29	0	256901120	44	5991
2026-01-14 22:51:43.02	115.39	9.78	-35.7	-36.7	22.7	0.00e+00	0	29	0	269484032	44	6003
2026-01-14 22:51:47.06	115.12	10.11	-35.3	-36.3	23.0	0.00e+00	0	29	0	282066944	44	5748
2026-01-14 22:51:51.10	114.83	10.43	-35.3	-36.3	23.1	0.00e+00	0	29	0	294649856	44	5729
2026-01-14 22:51:55.14	114.54	10.77	-35.0	-35.9	23.3	0.00e+00	0	29	0	307232768	44	5519
2026-01-14 22:51:59.17	114.25	11.10	-35.0	-36.0	23.3	0.00e+00	0	29	0	319815680	44	5560
2026-01-14 22:52:03.22	113.94	11.44	-34.9	-35.8	23.3	0.00e+00	0	29	0	332398592	44	5464
2026-01-14 22:52:07.25	113.63	11.78	-35.0	-36.0	23.2	0.00e+00	0	29	0	344981504	44	5541
2026-01-14 22:52:11.29	113.32	12.13	-34.7	-35.7	23.5	0.00e+00	0	29	0	357564416	42	6037
2026-01-14 22:52:15.33	112.99	12.48	-34.8	-35.8	23.6	0.00e+00	0	29	0	370147328	42	6073
2026-01-14 22:52:19.36	112.65	12.84	-34.5	-35.4	23.9	0.00e+00	0	29	0	382730240	42	5854
2026-01-14 22:52:23.39	112.31	13.19	-34.4	-35.3	24.0	0.00e+00	0	29	0	395313152	42	5774
2026-01-14 22:52:27.44	111.96	13.56	-34.4	-35.3	23.9	0.00e+00	0	29	0	407896064	42	5773
2026-01-14 22:52:31.47	111.60	13.93	-34.6	-35.5	23.8	0.00e+00	0	29	0	420478976	42	5924
2026-01-14 22:52:35.51	111.23	14.30	-34.6	-35.5	23.8	0.00e+00	0	29	0	433061888	42	5920
2026-01-14 22:52:39.55	110.85	14.68	-34.7	-35.7	23.8	0.00e+00	0	29	0	445644800	42	5995
2026-01-14 22:52:43.59	110.46	15.06	-34.4	-35.3	24.0	0.00e+00	0	29	0	459276288	42	5772
2026-01-14 22:52:47.62	110.06	15.45	-34.6	-35.5	23.8	0.00e+00	0	29	0	470810624	42	5923
2026-01-14 22:52:51.66	109.64	15.84	-34.7	-35.6	23.8	0.00e+00	0	29	0	483393536	42	5974
2026-01-14 22:52:55.69	109.22	16.23	-34.7	-35.7	23.8	0.00e+00	0	29	0	497025024	42	5996
2026-01-14 22:52:59.73	108.79	16.63	-34.8	-35.7	23.7	0.00e+00	0	29	0	509607936	42	6061
2026-01-14 22:53:03.77	108.34	17.04	-35.0	-35.9	23.6	0.00e+00	0	29	0	522190848	42	6175
2026-01-14 22:53:07.81	107.88	17.45	-34.8	-35.7	23.8	0.00e+00	0	29	0	534773760	42	6063
2026-01-14 22:53:11.84	107.41	17.86	-34.8	-35.8	23.7	0.00e+00	0	29	0	547356672	42	6077
2026-01-14 22:53:15.88	106.93	18.28	-35.0	-36.0	23.6	0.00e+00	0	29	0	559939584	42	6224
2026-01-14 22:53:19.92	106.43	18.71	-34.8	-35.7	23.8	0.00e+00	0	30	0	572522496	42	6025
2026-01-14 22:53:23.95	105.91	19.14	-34.8	-35.7	23.8	0.00e+00	0	29	0	585105408	42	6054
2026-01-14 22:53:27.99	105.38	19.57	-34.6	-35.5	23.9	0.00e+00	0	29	0	597688320	42	5900
2026-01-14 22:53:32.02	104.84	20.01	-34.4	-35.4	24.0	0.00e+00	0	30	0	610271232	42	5852
2026-01-14 22:53:36.05	104.28	20.46	-34.2	-35.1	24.2	0.00e+00	0	29	0	622854144	42	5652
2026-01-14 22:53:40.09	103.70	20.91	-34.1	-35.0	24.3	0.00e+00	0	29	0	635437056	42	5551
2026-01-14 22:53:44.13	103.11	21.36	-34.0	-34.9	24.2	0.00e+00	0	29	0	648019968	42	5514
2026-01-14 22:53:48.17	102.49	21.83	-34.0	-35.0	24.3	0.00e+00	0	29	0	660602880	42	5532
2026-01-14 22:53:52.20	101.86	22.29	-33.7	-34.6	24.7	0.00e+00	0	30	0	673185792	40	5937
2026-01-14 22:53:56.24	101.21	22.76	-33.4	-34.3	24.9	0.00e+00	0	30	0	685768704	40	5769
2026-01-14 22:54:00.28	100.54	23.23	-33.3	-34.2	25.0	0.00e+00	0	30	0	698351616	40	5695
2026-01-14 22:54:04.32	99.84	23.71	-33.4	-34.2	24.9	0.00e+00	0	30	0	710934528	40	5717
2026-01-14 22:54:08.35	99.13	24.19	-33.4	-34.2	25.0	0.00e+00	0	30	0	723517440	40	5717
2026-01-14 22:54:12.39	98.39	24.68	-33.5	-34.4	24.8	0.00e+00	0	29	0	736100352	40	5832
2026-01-14 22:54:16.42	97.63	25.17	-33.7	-34.6	24.6	0.00e+00	0	30	0	748683264	40	5989
2026-01-14 22:54:20.46	96.85	25.66	-33.9	-34.8	24.7	0.00e+00	0	30	0	761266176	40	6073
2026-01-14 22:54:24.50	96.03	26.16	-33.8	-34.7	24.5	0.00e+00	0	30	0	773849088	40	6047
2026-01-14 22:54:28.53	95.20	26.66	-34.1	-35.0	24.3	0.00e+00	0	30	0	786432000	40	6269
2026-01-14 22:54:32.58	94.33	27.16	-34.2	-35.1	24.4	0.00e+00	0	30	0	799014912	40	6344
2026-01-14 22:54:36.62	93.44	27.66	-34.2	-35.1	24.2	0.00e+00	0	30	0	811597824	40	6314
2026-01-14 22:54:40.65	92.52	28.17	-34.9	-35.8	24.0	0.00e+00	0	30	0	824180736	42	6092
2026-01-14 22:54:44.69	91.57	28.67	-34.3	-35.2	24.3	0.00e+00	0	30	0	836763648	42	5709
2026-01-14 22:54:48.72	90.59	29.17	-34.5	-35.4	24.1	0.00e+00	0	30	0	849346560	42	5824
2026-01-14 22:54:52.77	89.58	29.68	-34.7	-35.7	23.9	0.00e+00	0	30	0	861929472	42	6010
2026-01-14 22:54:56.80	88.54	30.18	-35.0	-36.0	23.7	0.00e+00	0	30	0	874512384	42	6221
2026-01-14 22:55:00.84	87.46	30.68	-34.9	-35.8	24.0	0.00e+00	0	30	0	888143872	42	6105
2026-01-14 22:55:04.88	86.35	31.18	-34.8	-35.7	24.1	0.00e+00	0	30	0	900726784	42	6026
2026-01-14 22:55:08.91	85.20	31.67	-34.4	-35.3	24.3	0.00e+00	0	30	0	913309696	42	5752
2026-01-14 22:55:12.95	84.02	32.16	-34.4	-35.3	24.2	0.00e+00	0	30	0	925892608	42	5770
2026-01-14 22:55:16.99	82.80	32.64	-34.6	-35.5	24.1	0.00e+00	0	30	0	938475520	42	5900
2026-01-14 22:55:21.03	81.55	33.11	-34.7	-35.6	24.0	0.00e+00	0	29	0	951058432	42	5961
2026-01-14 22:55:25.07	80.26	33.58	-35.0	-36.0	23.5	0.00e+00	0	29	0	963641344	42	6230
2026-01-14 22:55:29.11	78.93	34.03	-35.0	-36.0	23.6	0.00e+00	0	30	0	976224256	42	6216
2026-01-14 22:55:33.14	77.56	34.47	-34.9	-35.9	23.9	0.00e+00	0	30	0	988807168	42	6149
2026-01-14 22:55:37.18	76.16	34.90	-35.4	-36.3	23.4	0.00e+00	0	29	0	1001390080	42	6466
2026-01-14 22:55:41.22	74.72	35.32	-35.4	-36.4	23.6	0.00e+00	0	29	0	1013972992	42	6500
2026-01-14 22:55:45.27	73.24	35.72	-35.1	-36.1	23.6	0.00e+00	0	30	0	1026555904	42	6299
2026-01-14 22:55:49.31	71.73	36.10	-35.8	-36.7	23.1	0.00e+00	0	30	0	1039138816	42	6791
2026-01-14 22:55:53.35	70.18	36.46	-36.0	-37.0	23.0	0.00e+00	0	30	0	1051721728	44	6252
2026-01-14 22:55:57.38	68.60	36.80	-35.7	-36.7	23.3	0.00e+00	0	29	0	1064304640	44	5996
2026-01-14 22:56:01.42	66.99	37.12	-35.8	-36.7	23.3	0.00e+00	0	30	0	1076887552	44	6062
2026-01-14 22:56:05.46	65.35	37.42	-35.7	-36.6	23.4	0.00e+00	0	30	0	1089470464	44	5994
2026-01-14 22:56:09.50	63.67	37.69	-35.8	-36.7	23.3	0.00e+00	0	30	0	1102053376	44	6047
2026-01-14 22:56:13.54	61.97	37.93	-36.3	-37.3	22.9	0.00e+00	0	30	0	1114636288	44	6442
2026-01-14 22:56:17.58	60.25	38.15	-36.3	-37.3	22.9	0.00e+00	0	30	0	1127219200	44	6468
2026-01-14 22:56:21.62	58.50	38.34	-35.9	-36.8	23.2	0.00e+00	0	30	0	1139802112	44	6134
2026-01-14 22:56:25.66	56.74	38.50	-35.8	-36.8	23.1	0.00e+00	0	30	0	1152385024	44	6102
2026-01-14 22:56:29.69	54.96	38.63	-36.6	-37.6	22.6	0.00e+00	0	30	0	1164967936	44	6658
2026-01-14 22:56:33.73	53.17	38.72	-36.4	-37.4	22.6	0.00e+00	0	30	0	1177550848	44	6521
2026-01-14 22:56:37.76	51.37	38.79	-36.3	-37.3	22.8	0.00e+00	0	30	0	1190133760	44	6438
2026-01-14 22:56:41.80	49.57	38.82	-36.4	-37.4	22.6	0.00e+00	0	30	0	1202716672	44	6522
2026-01-14 22:56:45.84	47.76	38.82	-36.6	-37.6	22.6	0.00e+00	0	30	0	1215299584	46	5931
2026-01-14 22:56:49.87	45.96	38.79	-36.3	-37.4	22.3	0.00e+00	0	30	0	1227882496	46	5828
2026-01-14 22:56:53.91	44.16	38.72	-36.4	-37.4	22.6	0.00e+00	0	30	0	1240465408	46	5799
2026-01-14 22:56:57.95	42.37	38.63	-36.1	-37.1	22.8	0.00e+00	0	30	0	1254096896	46	5634
2026-01-14 22:57:01.99	40.59	38.50	-35.8	-36.8	23.2	0.00e+00	0	30	0	1266679808	46	5422
2026-01-14 22:57:06.03	38.82	38.34	-35.8	-36.7	23.2	0.00e+00	0	30	0	1279262720	44	6051
2026-01-14 22:57:10.07	37.08	38.15	-35.9	-36.8	23.0	0.00e+00	0	30	0	1291845632	44	6129
2026-01-14 22:57:14.11	35.36	37.94	-36.1	-37.1	22.7	0.00e+00	0	30	0	1304428544	44	6328
2026-01-14 22:57:18.15	33.66	37.69	-37.2	-38.2	21.8	0.00e+00	0	30	0	1317011456	46	6420
2026-01-14 22:57:22.18	31.99	37.42	-36.1	-37.0	23.1	0.00e+00	0	29	0	1329594368	46	5575
2026-01-14 22:57:26.22	30.35	37.13	-37.2	-38.2	22.1	0.00e+00	0	30	0	1342177280	46	6421
2026-01-14 22:57:30.26	28.74	36.81	-36.6	-37.6	22.6	0.00e+00	0	30	0	1354760192	46	5972
2026-01-14 22:57:34.30	27.16	36.47	-36.1	-37.1	23.0	0.00e+00	0	30	0	1367343104	44	6321
2026-01-14 22:57:38.33	25.62	36.11	-35.7	-36.7	23.3	0.00e+00	0	30	0	1379926016	44	6021
2026-01-14 22:57:42.37	24.11	35.73	-35.6	-36.5	23.4	0.00e+00	0	30	0	1392508928	44	5919
2026-01-14 22:57:46.41	22.64	35.33	-35.3	-36.2	23.8	0.00e+00	0	30	0	1405091840	44	5695
2026-01-14 22:57:50.45	21.20	34.91	-36.1	-37.1	22.7	0.00e+00	0	30	0	1417674752	44	6297
2026-01-14 22:57:54.49	19.80	34.49	-35.4	-36.3	23.5	0.00e+00	0	30	0	1430257664	44	5754
2026-01-14 22:57:58.52	18.44	34.05	-35.7	-36.7	23.4	0.00e+00	0	30	0	1442840576	44	5999
2026-01-14 22:58:02.56	17.11	33.59	-34.8	-35.8	23.9	0.00e+00	0	30	0	1455423488	44	5417
2026-01-14 22:58:06.60	15.83	33.13	-35.4	-36.4	23.6	0.00e+00	0	30	0	1468006400	42	6501
2026-01-14 22:58:10.64	14.57	32.66	-34.1	-35.0	24.7	0.00e+00	0	30	0	1480589312	42	5543
2026-01-14 22:58:14.67	13.36	32.18	-34.5	-35.4	24.3	0.00e+00	0	30	0	1493172224	42	5827
2026-01-14 22:58:18.71	12.18	31.70	-34.3	-35.2	24.4	0.00e+00	0	30	0	1505755136	42	5701
2026-01-14 22:58:22.75	11.04	31.20	-34.2	-35.1	24.6	0.00e+00	0	30	0	1518338048	42	5625
2026-01-14 22:58:26.79	9.93	30.71	-35.4	-36.4	23.5	0.00e+00	0	30	0	1530920960	42	6532
2026-01-14 22:58:30.83	8.85	30.21	-34.1	-35.0	24.6	0.00e+00	0	30	0	1543503872	42	5551
2026-01-14 22:58:34.87	7.81	29.71	-34.4	-35.3	24.4	0.00e+00	0	30	0	1556086784	42	5733
2026-01-14 22:58:38.91	6.80	29.21	-34.4	-35.3	24.3	0.00e+00	0	30	0	1568669696	42	5776
2026-01-14 22:58:42.95	5.82	28.70	-34.6	-35.5	24.2	0.00e+00	0	30	0	1581252608	42	5875
2026-01-14 22:58:46.99	4.88	28.20	-34.1	-35.0	24.5	0.00e+00	0	30	0	1594884096	42	5547
2026-01-14 22:58:51.02	3.96	27.70	-34.0	-34.8	24.7	0.00e+00	0	30	0	1606418432	42	5461
2026-01-14 22:58:55.07	3.07	27.20	-34.4	-35.3	24.1	0.00e+00	0	30	0	1620049920	42	5787
2026-01-14 22:58:59.11	2.21	26.70	-33.9	-34.8	24.6	0.00e+00	0	30	0	1632632832	42	5426
2026-01-14 22:59:03.14	1.37	26.20	-33.7	-34.6	24.8	0.00e+00	0	29	0	1645215744	40	5966
2026-01-14 22:59:07.18	0.57	25.71	-34.2	-35.1	24.3	0.00e+00	0	29	0	1657798656	40	6310
2026-01-14 22:59:11.22	359.78	25.22	-34.5	-35.4	24.1	0.00e+00	0	30	0	1670381568	40	6540
2026-01-14 22:59:15.26	359.02	24.73	-34.4	-35.3	24.2	0.00e+00	0	30	0	1682964480	40	6450
2026-01-14 22:59:19.30	358.29	24.24	-34.2	-35.1	24.5	0.00e+00	0	30	0	1695547392	40	6284
2026-01-14 22:59:23.34	357.58	23.76	-33.6	-34.4	24.9	0.00e+00	0	30	0	1708130304	40	5848
2026-01-14 22:59:27.37	356.89	23.29	-33.5	-34.3	25.0	0.00e+00	0	30	0	1720713216	40	5790
2026-01-14 22:59:31.42	356.22	22.81	-34.0	-34.9	24.5	0.00e+00	0	30	0	1733296128	40	6153
2026-01-14 22:59:35.46	355.57	22.34	-34.1	-35.0	24.4	0.00e+00	0	30	0	1745879040	40	6240
2026-01-14 22:59:39.49	354.94	21.88	-33.7	-34.6	24.6	0.00e+00	0	30	0	1758461952	40	5964
2026-01-14 22:59:43.53	354.33	21.42	-34.0	-34.9	24.4	0.00e+00	0	30	0	1771044864	40	6170
2026-01-14 22:59:47.57	353.73	20.97	-34.0	-34.9	24.3	0.00e+00	0	30	0	1783627776	40	6196
2026-01-14 22:59:51.60	353.16	20.52	-33.7	-34.6	24.5	0.00e+00	0	30	0	1796210688	40	5976
2026-01-14 22:59:55.64	352.60	20.08	-33.9	-34.8	24.5	0.00e+00	0	30	0	1808793600	40	6084
2026-01-14 22:59:59.68	352.06	19.64	-34.2	-35.1	24.2	0.00e+00	0	30	0	1821376512	40	6344
2026-01-14 23:00:03.72	351.53	19.20	-34.4	-35.3	24.0	0.00e+00	0	30	0	1833959424	40	6495
2026-01-14 23:00:07.76	351.02	18.77	-34.0	-34.9	24.3	0.00e+00	0	30	0	1846542336	40	6172
2026-01-14 23:00:11.80	350.52	18.35	-34.2	-35.1	24.2	0.00e+00	0	30	0	1859125248	40	6278
2026-01-14 23:00:15.83	350.04	17.93	-34.3	-35.2	24.2	0.00e+00	0	30	0	1871708160	40	6388
2026-01-14 23:00:19.87	349.57	17.52	-34.4	-35.3	24.1	0.00e+00	0	30	0	1884291072	40	6475
2026-01-14 23:00:23.91	349.11	17.11	-35.0	-35.9	23.6	0.00e+00	0	30	0	1896873984	42	6187
2026-01-14 23:00:27.95	348.67	16.70	-34.6	-35.6	23.7	0.00e+00	0	30	0	1909456896	42	5954
2026-01-14 23:00:31.99	348.24	16.30	-34.2	-35.1	24.0	0.00e+00	0	30	0	1922039808	42	5609
2026-01-14 23:00:36.02	347.82	15.91	-33.9	-34.7	24.4	0.00e+00	0	30	0	1934622720	42	5404
2026-01-14 23:00:40.06	347.41	15.52	-34.0	-34.9	24.4	0.00e+00	0	30	0	1947205632	42	5479
2026-01-14 23:00:44.10	347.01	15.14	-34.4	-35.3	24.0	0.00e+00	0	30	0	1960837120	42	5770
2026-01-14 23:00:48.14	346.62	14.75	-34.6	-35.5	23.9	0.00e+00	0	30	0	1973420032	42	5900
2026-01-14 23:00:52.18	346.24	14.38	-34.7	-35.7	23.6	0.00e+00	0	30	0	1986002944	42	6006
2026-01-14 23:00:56.22	345.88	14.01	-34.6	-35.5	23.6	0.00e+00	0	30	0	1998585856	42	5897
2026-01-14 23:01:00.26	345.52	13.64	-34.5	-35.5	23.6	0.00e+00	0	30	0	2011168768	42	5882
2026-01-14 23:01:04.30	345.17	13.28	-34.6	-35.5	23.6	0.00e+00	0	30	0	2023751680	42	5905
2026-01-14 23:01:08.34	344.83	12.92	-34.6	-35.6	23.7	0.00e+00	0	30	0	2036334592	42	5930
2026-01-14 23:01:12.38	344.50	12.56	-34.8	-35.8	23.5	0.00e+00	0	30	0	2048917504	42	6094
2026-01-14 23:01:16.42	344.17	12.21	-35.0	-36.0	23.4	0.00e+00	0	30	0	2061500416	42	6214
2026-01-14 23:01:20.46	343.86	11.87	-35.3	-36.3	23.1	0.00e+00	0	30	0	2074083328	42	6478
2026-01-14 23:01:24.49	343.55	11.52	-35.5	-36.5	23.0	0.00e+00	0	30	0	2086666240	42	6592
2026-01-14 23:01:28.53	343.25	11.19	-35.7	-36.7	22.8	0.00e+00	0	30	0	2099249152	42	6736
2026-01-14 23:01:32.57	342.95	10.85	-35.9	-36.9	22.5	0.00e+00	0	30	0	2111832064	44	6155
2026-01-14 23:01:36.62	342.66	10.52	-36.1	-37.1	22.4	0.00e+00	0	30	0	2124414976	44	6322
2026-01-14 23:01:40.65	342.39	10.19	-35.9	-36.9	22.5	0.00e+00	0	30	0	2136997888	44	6202
2026-01-14 23:01:44.69	342.11	9.87	-36.3	-37.3	22.2	0.00e+00	0	30	0	2149580800	44	6483
2026-01-14 23:01:48.73	341.84	9.55	-36.4	-37.5	22.0	0.00e+00	0	30	0	2162163712	44	6589
2026-01-14 23:01:52.77	341.58	9.23	-36.4	-37.5	22.0	0.00e+00	0	30	0	2174746624	44	6580
2026-01-14 23:01:56.81	341.33	8.92	-36.7	-37.7	21.7	0.00e+00	0	30	0	2187329536	44	6777
2026-01-14 23:02:00.85	341.08	8.61	-36.6	-37.7	21.7	0.00e+00	0	30	0	2199912448	44	6740
2026-01-14 23:02:04.89	340.83	8.30	-36.9	-38.0	21.6	0.00e+00	0	30	0	2212495360	46	6220
2026-01-14 23:02:08.92	340.60	8.00	-36.8	-37.9	21.5	0.00e+00	0	30	0	2225078272	46	6184
2026-01-14 23:02:12.96	340.36	7.70	-36.9	-38.0	21.5	0.00e+00	0	30	0	2237661184	46	6217
2026-01-14 23:02:17.00	340.13	7.40	-37.1	-38.2	21.2	0.00e+00	0	30	0	2250244096	46	6381
2026-01-14 23:02:21.03	339.91	7.11	-37.4	-38.5	21.0	0.00e+00	0	29	0	2262827008	46	6588
2026-01-14 23:02:25.07	339.69	6.82	-37.4	-38.5	20.9	0.00e+00	0	30	0	2275409920	46	6608
2026-01-14 23:02:29.11	339.48	6.53	-37.3	-38.4	21.0	0.00e+00	0	30	0	2287992832	46	6514
2026-01-14 23:02:33.15	339.27	6.24	-37.2	-38.4	20.9	0.00e+00	0	30	0	2300575744	46	6504
2026-01-14 23:02:37.19	339.06	5.96	-37.3	-38.4	20.8	0.00e+00	0	30	0	2314207232	46	6552
2026-01-14 23:02:41.22	338.86	5.68	-37.5	-38.7	20.4	0.00e+00	0	30	0	2325741568	46	6742
2026-01-14 23:02:45.26	338.67	5.40	-38.2	-39.5	19.4	0.00e+00	0	30	0	2339373056	48	6595
2026-01-14 23:02:49.30	338.47	5.13	-39.2	-40.8	17.5	0.00e+00	0	30	0	2351955968	50	6836
2026-01-14 23:02:53.34	338.28	4.85	-40.8	-43.0	14.6	0.00e+00	0	30	0	2364538880	54	7039
2026-01-14 23:02:57.37	338.10	4.58	-42.3	-45.9	10.7	1.35e-03	0	30	0	2377121792	56	8671
2026-01-14 23:03:01.42	337.92	4.31	-43.2	-48.9	6.5	2.16e-01	0	30	0	2389704704	58	11015
2026-01-14 23:03:05.46	337.74	4.05	-43.6	-53.6	4.0	1.48e+00	0	30	104	2390753280	58	18813
2026-01-14 23:03:09.49	337.56	3.79	-43.7	-56.3	3.5	1.52e+00	0	30	104	2390753280	60	23016
2026-01-14 23:03:13.53	337.39	3.52	-43.8	-56.0	3.5	1.51e+00	0	30	104	2390753280	60	22216
2026-01-14 23:03:17.57	337.22	3.27	-43.7	-56.5	3.5	1.52e+00	0	30	104	2390753280	60	23531
2026-01-14 23:03:21.61	337.06	3.01	-43.7	-56.5	3.5	1.52e+00	0	30	104	2390753280	60	23424
2026-01-14 23:03:25.65	336.90	2.75	-48.6	-61.4	3.5	1.52e+00	0	30	104	2390753280	60	41404
2026-01-14 23:03:29.68	336.74	2.50	-48.9	-61.7	3.5	1.52e+00	0	30	104	2390753280	60	42780
2026-01-14 23:03:33.72	336.59	2.25	-48.7	-61.7	3.5	1.51e+00	0	30	104	2390753280	60	42476
2026-01-14 23:03:37.76	336.43	2.00	-49.0	-61.8	3.5	1.52e+00	0	30	104	2390753280	60	43336
2026-01-14 23:03:41.79	336.28	1.76	-48.9	-61.7	3.5	1.52e+00	0	30	104	2390753280	60	42614
2026-01-14 23:03:45.83	336.14	1.51	-48.8	-61.7	3.5	1.52e+00	0	30	104	2390753280	60	42768
2026-01-14 23:03:49.87	335.99	1.27	-48.8	-61.7	3.5	1.52e+00	0	30	104	2390753280	60	42494
2026-01-14 23:03:53.91	335.85	1.03	-48.8	-61.6	3.5	1.52e+00	0	30	104	2390753280	60	42268
2026-01-14 23:03:57.95	335.71	0.79	-48.8	-61.6	3.5	1.52e+00	0	30	104	2390753280	60	42375
2026-01-14 23:04:01.99	335.57	0.55	-48.8	-61.6	3.5	1.52e+00	0	30	104	2390753280	60	42239
2026-01-14 23:04:06.02	335.44	0.32	-48.8	-61.6	3.5	1.52e+00	0	30	104	2390753280	60	42109
2026-01-14 23:04:10.06	335.31	0.08	-48.8	-61.6	3.5	1.52e+00	0	30	104	2390753280	60	42390

#Closed at: 2026-01-14 23:04:13
#Recorded file [2390 MB]: D:/lorett/data/35029_260115_104923.dat