passes_logs/2026/01/14/R4.6S_Anadyr/R4.6S_Anadyr__20260114_150322_SUOMI_NPP_rec.log

#Pass ID: 20260114_150322_SUOMI NPP
#Satellite: SUOMI NPP
#Configuration: NPP
#almurnet v.1.7.20251203
#Start time: 2026-01-14 15:03:24

#Version: 2.2.20231116
#Station: R4.6S_Anadyr
#Location: 177.4865 lon 64.73178 lat
#TLE: 1 37849U 11061A   26013.83525404  .00000052  00000+0  45495-4 0  9990
#TLE: 2 37849  98.7808 315.8939 0002471  65.6575 294.4859 14.19524986736544

#Time	Az	El	Level	Level2	SNR	BER	BlckErr	Temp	State	Recorded	gain1	gain2
2026-01-14 15:03:24.34	21.11	0.14	-48.7	-61.2	3.4	1.52e+00	0	26	0	0	60	40277
2026-01-14 15:03:28.38	21.10	0.38	-48.8	-64.0	3.6	1.51e+00	0	27	104	0	60	57091
2026-01-14 15:03:32.42	21.09	0.62	-48.8	-63.9	3.5	1.51e+00	0	27	104	0	60	56943
2026-01-14 15:03:36.46	21.08	0.87	-48.4	-63.6	3.6	1.51e+00	0	27	104	0	60	54448
2026-01-14 15:03:40.50	21.07	1.12	-47.4	-62.5	3.6	1.51e+00	0	27	104	0	60	48120
2026-01-14 15:03:44.54	21.05	1.37	-47.2	-62.4	3.6	1.51e+00	0	27	104	0	60	47533
2026-01-14 15:03:48.58	21.04	1.62	-47.2	-62.2	3.6	1.51e+00	0	27	104	0	60	46738
2026-01-14 15:03:52.62	21.03	1.88	-47.2	-62.4	3.6	1.51e+00	0	27	104	0	60	47559
2026-01-14 15:03:56.66	21.01	2.14	-47.2	-62.4	3.6	1.51e+00	0	28	104	0	60	47507
2026-01-14 15:04:00.70	21.00	2.40	-47.2	-62.1	3.6	1.51e+00	0	28	104	0	60	45813
2026-01-14 15:04:04.74	20.98	2.66	-47.2	-61.1	3.6	1.51e+00	0	28	104	0	60	40857
2026-01-14 15:04:08.78	20.96	2.92	-47.1	-59.8	3.7	1.50e+00	0	28	104	0	60	35477
2026-01-14 15:04:12.82	20.95	3.19	-46.0	-51.7	9.3	5.09e-02	0	28	0	5242880	60	13840
2026-01-14 15:04:16.86	20.93	3.46	-44.5	-48.0	13.2	3.50e-05	0	28	0	12582912	60	9115
2026-01-14 15:04:20.90	20.91	3.73	-44.9	-48.9	12.1	1.56e-04	82	28	0	19922944	60	10084
2026-01-14 15:04:24.93	20.89	4.01	-47.2	-61.9	3.6	1.46e-01	0	28	104	27262976	60	44926
2026-01-14 15:04:28.97	20.87	4.29	-43.1	-45.6	16.0	0.00e+00	0	28	0	27262976	60	6850
2026-01-14 15:04:33.00	20.85	4.57	-42.8	-45.1	16.3	0.00e+00	0	28	0	34603008	58	7276
2026-01-14 15:04:37.04	20.83	4.85	-42.3	-44.4	16.9	0.00e+00	90	28	0	41943040	58	6730
2026-01-14 15:04:41.08	20.81	5.14	-42.2	-44.2	17.4	0.00e+00	0	28	0	50331648	58	6577
2026-01-14 15:04:45.12	20.78	5.43	-42.3	-44.3	17.2	0.00e+00	0	28	0	57671680	58	6655
2026-01-14 15:04:49.15	20.76	5.72	-41.9	-43.8	17.8	0.00e+00	0	28	0	65011712	58	6277
2026-01-14 15:04:53.19	20.74	6.02	-41.9	-43.7	17.8	0.00e+00	92	28	0	72351744	58	6231
2026-01-14 15:04:57.23	20.71	6.32	-41.9	-43.7	18.0	0.00e+00	0	28	0	79691776	56	6945
2026-01-14 15:05:01.26	20.68	6.62	-41.9	-43.7	18.1	0.00e+00	0	28	0	88080384	56	6931
2026-01-14 15:05:05.30	20.66	6.93	-41.5	-43.2	18.5	0.00e+00	46	28	0	95420416	56	6556
2026-01-14 15:05:09.34	20.63	7.24	-41.7	-43.5	18.4	0.00e+00	0	28	0	102760448	56	6791
2026-01-14 15:05:13.38	20.60	7.56	-41.5	-43.2	18.6	0.00e+00	0	28	0	110100480	56	6546
2026-01-14 15:05:17.41	20.57	7.87	-41.4	-43.1	18.8	0.00e+00	0	28	0	118489088	56	6477
2026-01-14 15:05:21.45	20.54	8.20	-41.2	-42.8	19.0	0.00e+00	31	28	0	125829120	56	6293
2026-01-14 15:05:25.49	20.51	8.52	-41.1	-42.7	19.3	0.00e+00	0	28	0	133169152	56	6206
2026-01-14 15:05:29.53	20.47	8.86	-40.7	-42.2	19.6	0.00e+00	0	28	0	140509184	54	6569
2026-01-14 15:05:33.56	20.44	9.19	-40.8	-42.3	19.6	0.00e+00	0	28	0	147849216	54	6635
2026-01-14 15:05:37.60	20.40	9.53	-40.6	-42.0	19.8	0.00e+00	70	28	0	156237824	54	6408
2026-01-14 15:05:41.64	20.37	9.88	-40.3	-41.7	20.2	0.00e+00	0	28	0	163577856	54	6175
2026-01-14 15:05:45.68	20.33	10.23	-40.1	-41.4	20.4	0.00e+00	0	28	0	170917888	54	5976
2026-01-14 15:05:49.71	20.29	10.58	-39.9	-41.2	20.5	0.00e+00	34	28	0	178257920	54	5853
2026-01-14 15:05:53.75	20.25	10.94	-39.8	-41.0	20.7	0.00e+00	69	28	0	185597952	52	6448
2026-01-14 15:05:57.78	20.20	11.31	-39.6	-40.8	20.9	0.00e+00	0	28	0	193986560	52	6285
2026-01-14 15:06:01.82	20.16	11.68	-39.2	-40.4	21.4	0.00e+00	0	28	0	201326592	52	5981
2026-01-14 15:06:05.86	20.11	12.05	-38.9	-40.0	21.6	0.00e+00	90	28	0	208666624	52	5741
2026-01-14 15:06:09.89	20.07	12.43	-38.9	-40.0	21.7	0.00e+00	0	28	0	216006656	52	5711
2026-01-14 15:06:13.93	20.02	12.82	-38.9	-39.9	21.7	0.00e+00	0	28	0	224395264	50	6383
2026-01-14 15:06:17.96	19.97	13.22	-38.5	-39.6	22.1	0.00e+00	0	28	0	231735296	50	6107
2026-01-14 15:06:22.00	19.91	13.62	-38.7	-39.7	22.0	0.00e+00	72	28	0	239075328	50	6221
2026-01-14 15:06:26.04	19.86	14.03	-38.4	-39.4	22.2	0.00e+00	0	28	0	246415360	50	6007
2026-01-14 15:06:30.08	19.80	14.44	-38.2	-39.1	22.5	0.00e+00	0	28	0	253755392	50	5819
2026-01-14 15:06:34.11	19.74	14.86	-38.2	-39.2	22.4	0.00e+00	5	28	0	262144000	50	5849
2026-01-14 15:06:38.15	19.68	15.29	-37.9	-38.8	22.8	0.00e+00	28	28	0	269484032	48	6283
2026-01-14 15:06:42.19	19.62	15.73	-37.6	-38.5	22.7	0.00e+00	0	28	0	276824064	48	6056
2026-01-14 15:06:46.23	19.55	16.18	-37.5	-38.4	22.7	0.00e+00	0	28	0	284164096	48	6031
2026-01-14 15:06:50.26	19.48	16.63	-37.5	-38.4	23.2	0.00e+00	72	28	0	292552704	48	5995
2026-01-14 15:06:54.30	19.41	17.09	-37.6	-38.6	23.0	0.00e+00	17	28	0	299892736	48	6113
2026-01-14 15:06:58.34	19.34	17.56	-37.5	-38.5	23.0	0.00e+00	0	28	0	307232768	48	6059
2026-01-14 15:07:02.38	19.26	18.04	-37.6	-38.5	23.1	0.00e+00	0	28	0	314572800	48	6090
2026-01-14 15:07:06.42	19.18	18.53	-37.7	-38.6	23.0	0.00e+00	92	28	0	321912832	48	6152
2026-01-14 15:07:10.45	19.10	19.03	-37.5	-38.4	23.2	0.00e+00	0	28	0	330301440	48	6023
2026-01-14 15:07:14.49	19.02	19.54	-37.7	-38.7	23.1	0.00e+00	0	28	0	337641472	48	6176
2026-01-14 15:07:18.53	18.93	20.06	-38.0	-39.0	22.8	0.00e+00	0	28	0	344981504	48	6409
2026-01-14 15:07:22.57	18.83	20.59	-38.2	-39.2	22.6	0.00e+00	71	28	0	352321536	48	6572
2026-01-14 15:07:26.60	18.74	21.13	-37.9	-38.9	22.9	0.00e+00	0	28	0	359661568	48	6379
2026-01-14 15:07:30.64	18.64	21.69	-38.3	-39.3	22.5	0.00e+00	0	28	0	368050176	48	6683
2026-01-14 15:07:34.67	18.53	22.25	-38.1	-39.1	22.8	0.00e+00	37	28	0	375390208	48	6477
2026-01-14 15:07:38.71	18.42	22.83	-38.1	-39.1	22.7	0.00e+00	0	28	0	382730240	48	6524
2026-01-14 15:07:42.75	18.30	23.42	-37.6	-38.5	23.2	0.00e+00	0	28	0	390070272	48	6080
2026-01-14 15:07:46.79	18.18	24.03	-37.5	-38.4	23.4	0.00e+00	0	28	0	398458880	48	6015
2026-01-14 15:07:50.82	18.06	24.65	-37.5	-38.4	23.3	0.00e+00	92	28	0	405798912	48	5986
2026-01-14 15:07:54.86	17.93	25.29	-37.9	-38.9	23.1	0.00e+00	0	28	0	413138944	48	6325
2026-01-14 15:07:58.89	17.79	25.93	-37.6	-38.5	23.3	0.00e+00	0	28	0	420478976	48	6052
2026-01-14 15:08:02.93	17.65	26.60	-38.0	-39.0	22.9	0.00e+00	0	28	0	427819008	48	6416
2026-01-14 15:08:06.97	17.50	27.29	-38.5	-39.5	22.5	0.00e+00	49	28	0	436207616	50	6061
2026-01-14 15:08:11.01	17.34	27.99	-38.7	-39.8	22.4	0.00e+00	0	28	0	443547648	50	6275
2026-01-14 15:08:15.04	17.17	28.70	-38.2	-39.1	22.7	0.00e+00	0	28	0	450887680	50	5815
2026-01-14 15:08:19.08	17.00	29.44	-39.0	-40.1	22.0	0.00e+00	15	28	0	458227712	50	6488
2026-01-14 15:08:23.11	16.82	30.20	-39.7	-40.8	21.3	0.00e+00	89	28	0	466616320	52	6296
2026-01-14 15:08:27.15	16.62	30.98	-39.6	-40.7	21.6	0.00e+00	0	28	0	473956352	52	6178
2026-01-14 15:08:31.18	16.42	31.77	-40.7	-42.0	20.2	0.00e+00	0	28	0	481296384	54	6401
2026-01-14 15:08:35.21	16.21	32.59	-42.0	-43.5	19.0	0.00e+00	51	28	0	488636416	56	6844
2026-01-14 15:08:39.25	15.98	33.43	-41.1	-42.4	20.1	0.00e+00	0	28	0	495976448	56	6014
2026-01-14 15:08:43.29	15.74	34.30	-40.6	-41.9	20.6	0.00e+00	0	28	0	504365056	54	6335
2026-01-14 15:08:47.33	15.49	35.19	-38.6	-39.6	22.5	0.00e+00	0	28	0	511705088	50	6150
2026-01-14 15:08:51.37	15.22	36.10	-37.2	-38.1	23.6	0.00e+00	91	28	0	519045120	48	5803
2026-01-14 15:08:55.41	14.93	37.05	-36.5	-37.3	24.3	0.00e+00	0	28	0	526385152	46	5916
2026-01-14 15:08:59.44	14.63	38.01	-36.4	-37.2	24.3	0.00e+00	0	28	0	534773760	46	5895
2026-01-14 15:09:03.48	14.30	39.01	-38.1	-39.1	23.0	0.00e+00	0	28	0	542113792	48	6506
2026-01-14 15:09:07.52	13.96	40.03	-39.4	-40.6	21.6	0.00e+00	91	28	0	549453824	50	6871
2026-01-14 15:09:11.55	13.59	41.08	-39.8	-41.1	21.2	0.00e+00	0	28	0	556793856	52	6485
2026-01-14 15:09:15.59	13.19	42.17	-39.7	-40.8	21.4	0.00e+00	0	28	0	564133888	52	6316
2026-01-14 15:09:19.63	12.77	43.28	-40.2	-41.5	21.2	0.00e+00	41	28	0	572522496	54	6054
2026-01-14 15:09:23.66	12.31	44.43	-40.7	-42.1	20.2	0.00e+00	0	28	0	579862528	54	6482
2026-01-14 15:09:27.70	11.82	45.61	-39.9	-41.1	21.1	0.00e+00	0	28	0	587202560	54	5798
2026-01-14 15:09:31.74	11.29	46.82	-39.7	-40.8	21.4	0.00e+00	0	28	0	594542592	52	6298
2026-01-14 15:09:35.78	10.71	48.06	-38.9	-39.9	22.5	0.00e+00	51	28	0	602931200	52	5672
2026-01-14 15:09:39.82	10.08	49.34	-37.5	-38.4	23.4	0.00e+00	0	28	0	610271232	48	5996
2026-01-14 15:09:43.85	9.40	50.65	-37.6	-38.5	23.1	0.00e+00	0	28	0	617611264	48	6095
2026-01-14 15:09:47.88	8.65	51.99	-36.9	-37.8	24.0	0.00e+00	0	28	0	624951296	46	6269
2026-01-14 15:09:51.91	7.83	53.36	-37.2	-38.1	23.7	0.00e+00	86	28	0	632291328	48	5810
2026-01-14 15:09:55.95	6.93	54.77	-36.5	-37.4	24.1	0.00e+00	0	28	0	640679936	46	5992
2026-01-14 15:09:59.98	5.93	56.21	-37.7	-38.7	23.0	0.00e+00	0	28	0	648019968	48	6221
2026-01-14 15:10:04.01	4.82	57.67	-39.0	-40.1	22.1	0.00e+00	0	28	0	655360000	50	6472
2026-01-14 15:10:08.05	3.57	59.17	-37.4	-38.2	23.5	0.00e+00	82	28	0	662700032	48	5880
2026-01-14 15:10:12.08	2.17	60.68	-36.0	-36.8	24.5	0.00e+00	0	28	0	670040064	44	6271
2026-01-14 15:10:16.11	0.60	62.22	-36.1	-36.9	24.7	0.00e+00	0	28	0	678428672	46	5641
2026-01-14 15:10:20.15	358.80	63.77	-37.1	-38.0	23.6	0.00e+00	17	28	0	685768704	48	5730
2026-01-14 15:10:24.19	356.75	65.32	-35.8	-36.5	24.7	0.00e+00	92	28	0	693108736	44	6081
2026-01-14 15:10:28.22	354.39	66.88	-37.5	-38.5	23.3	0.00e+00	0	28	0	700448768	46	6783
2026-01-14 15:10:32.26	351.65	68.42	-38.4	-39.4	22.6	0.00e+00	0	28	0	708837376	48	6752
2026-01-14 15:10:36.30	348.44	69.93	-39.8	-41.0	21.3	0.00e+00	40	28	0	716177408	52	6451
2026-01-14 15:10:40.34	344.69	71.40	-37.4	-38.3	23.6	0.00e+00	0	28	0	723517440	48	5922
2026-01-14 15:10:44.37	340.27	72.80	-40.3	-41.6	20.8	0.00e+00	0	28	0	730857472	52	6865
2026-01-14 15:10:48.42	335.03	74.10	-36.1	-36.9	24.4	0.00e+00	0	28	0	738197504	46	5662
2026-01-14 15:10:52.45	328.90	75.26	-39.0	-40.1	22.0	0.00e+00	92	28	0	746586112	50	6485
2026-01-14 15:10:56.49	321.75	76.24	-38.2	-39.2	22.8	0.00e+00	0	28	0	753926144	50	5895
2026-01-14 15:11:00.53	313.62	76.98	-38.7	-39.7	22.2	0.00e+00	0	28	0	761266176	50	6207
2026-01-14 15:11:04.56	304.68	77.45	-40.3	-41.5	20.9	0.00e+00	0	28	0	768606208	54	6078
2026-01-14 15:11:08.60	295.27	77.60	-38.9	-39.9	22.1	0.00e+00	91	28	0	775946240	50	6387
2026-01-14 15:11:12.64	285.88	77.41	-38.1	-39.0	22.9	0.00e+00	0	28	0	784334848	50	5756
2026-01-14 15:11:16.68	277.00	76.92	-40.2	-41.6	20.7	0.00e+00	0	28	0	791674880	50	7698
2026-01-14 15:11:20.72	268.96	76.14	-37.0	-37.8	23.9	0.00e+00	38	28	0	799014912	48	5595
2026-01-14 15:11:24.75	261.94	75.14	-40.1	-41.3	20.8	0.00e+00	7	28	0	806354944	52	6643
2026-01-14 15:11:28.79	255.89	73.96	-40.2	-41.5	20.6	0.00e+00	0	28	0	814743552	52	6813
2026-01-14 15:11:32.83	250.76	72.65	-39.8	-41.0	21.4	0.00e+00	0	28	0	822083584	54	5708
2026-01-14 15:11:36.87	246.40	71.24	-41.5	-43.1	19.4	0.00e+00	92	28	0	829423616	54	7263
2026-01-14 15:11:40.90	242.72	69.77	-40.9	-42.2	20.4	0.00e+00	0	28	0	836763648	56	5863
2026-01-14 15:11:44.94	239.57	68.24	-39.7	-40.8	21.3	0.00e+00	0	28	0	844103680	52	6312
2026-01-14 15:11:48.98	236.87	66.70	-40.2	-41.4	20.5	0.00e+00	0	28	0	852492288	52	6769
2026-01-14 15:11:53.01	234.55	65.14	-37.3	-38.2	23.5	0.00e+00	61	28	0	859832320	48	5885
2026-01-14 15:11:57.05	232.52	63.58	-34.7	-35.4	25.3	0.00e+00	0	28	0	867172352	42	6007
2026-01-14 15:12:01.09	230.75	62.03	-37.4	-38.4	23.4	0.00e+00	0	28	0	874512384	46	6702
2026-01-14 15:12:05.13	229.19	60.49	-41.1	-42.6	20.1	0.00e+00	15	28	0	882900992	54	6870
2026-01-14 15:12:09.16	227.81	58.98	-41.1	-42.5	20.5	0.00e+00	91	28	0	890241024	56	6081
2026-01-14 15:12:13.20	226.58	57.48	-38.0	-38.9	23.1	0.00e+00	0	28	0	897581056	50	5679
2026-01-14 15:12:17.23	225.48	56.01	-37.8	-38.7	23.2	0.00e+00	33	28	0	904921088	48	6203
2026-01-14 15:12:21.27	224.48	54.57	-37.6	-38.6	23.3	0.00e+00	66	28	0	912261120	48	6108
2026-01-14 15:12:25.31	223.59	53.17	-37.4	-38.4	23.4	0.00e+00	0	28	0	920649728	48	5974
2026-01-14 15:12:29.34	222.78	51.79	-38.8	-39.9	22.3	0.00e+00	0	28	0	927989760	50	6342
2026-01-14 15:12:33.38	222.03	50.45	-40.2	-41.4	21.0	0.00e+00	0	28	0	935329792	54	6017
2026-01-14 15:12:37.42	221.36	49.14	-39.3	-40.5	21.7	0.00e+00	90	28	0	942669824	50	6791
2026-01-14 15:12:41.45	220.73	47.86	-39.1	-40.1	21.9	0.00e+00	0	28	0	950009856	50	6524
2026-01-14 15:12:45.49	220.16	46.62	-39.5	-40.7	21.6	0.00e+00	0	28	0	958398464	50	6947
2026-01-14 15:12:49.53	219.63	45.41	-39.4	-40.5	21.9	0.00e+00	0	28	0	965738496	52	6077
2026-01-14 15:12:53.57	219.14	44.23	-39.6	-40.8	21.4	0.00e+00	92	28	0	973078528	50	7059
2026-01-14 15:12:57.61	218.69	43.08	-39.9	-41.0	21.2	0.00e+00	0	28	0	980418560	52	6442
2026-01-14 15:13:01.64	218.27	41.97	-38.3	-39.3	22.7	0.00e+00	0	28	0	988807168	48	6639
2026-01-14 15:13:05.68	217.87	40.89	-41.8	-43.4	19.4	0.00e+00	36	28	0	996147200	58	5965
2026-01-14 15:13:09.72	217.51	39.84	-38.4	-39.4	22.7	0.00e+00	0	28	0	1003487232	50	5988
2026-01-14 15:13:13.76	217.16	38.81	-39.6	-40.8	21.5	0.00e+00	0	28	0	1010827264	50	7081
2026-01-14 15:13:17.79	216.84	37.82	-39.5	-40.6	21.8	0.00e+00	0	28	0	1018167296	50	6882
2026-01-14 15:13:21.83	216.54	36.85	-38.8	-39.8	22.2	0.00e+00	35	28	0	1026555904	52	5625
2026-01-14 15:13:25.87	216.25	35.91	-39.4	-40.5	21.8	0.00e+00	0	28	0	1033895936	50	6787
2026-01-14 15:13:29.90	215.98	35.00	-40.7	-42.1	20.2	0.00e+00	0	28	0	1041235968	54	6488
2026-01-14 15:13:33.94	215.73	34.11	-39.5	-40.6	21.7	0.00e+00	0	28	0	1048576000	52	6157
2026-01-14 15:13:37.98	215.49	33.24	-39.0	-40.0	22.2	0.00e+00	59	28	0	1056964608	52	5758
2026-01-14 15:13:42.01	215.26	32.40	-40.0	-41.2	21.2	0.00e+00	0	28	0	1064304640	52	6541
2026-01-14 15:13:46.05	215.05	31.58	-41.6	-43.0	19.2	0.00e+00	0	28	0	1071644672	54	7244
2026-01-14 15:13:50.09	214.85	30.79	-39.8	-41.0	21.4	0.00e+00	12	28	0	1078984704	54	5698
2026-01-14 15:13:54.12	214.65	30.01	-39.1	-40.2	22.0	0.00e+00	75	28	0	1086324736	52	5836
2026-01-14 15:13:58.15	214.47	29.26	-39.2	-40.2	22.0	0.00e+00	0	28	0	1094713344	52	5888
2026-01-14 15:14:02.19	214.29	28.52	-38.9	-39.9	22.2	0.00e+00	0	28	0	1102053376	52	5683
2026-01-14 15:14:06.23	214.13	27.80	-38.5	-39.5	22.6	0.00e+00	33	28	0	1109393408	50	6067
2026-01-14 15:14:10.26	213.97	27.10	-40.1	-41.3	21.0	0.00e+00	0	28	0	1116733440	52	6667
2026-01-14 15:14:14.30	213.82	26.42	-39.5	-40.6	21.6	0.00e+00	0	28	0	1125122048	52	6153
2026-01-14 15:14:18.34	213.67	25.75	-38.1	-39.1	23.0	0.00e+00	0	28	0	1132462080	50	5772
2026-01-14 15:14:22.37	213.54	25.10	-37.9	-38.8	23.1	0.00e+00	92	28	0	1139802112	48	6313
2026-01-14 15:14:26.40	213.40	24.47	-38.5	-39.4	22.8	0.00e+00	0	28	0	1147142144	48	6758
2026-01-14 15:14:30.44	213.28	23.85	-38.2	-39.1	22.9	0.00e+00	0	28	0	1154482176	48	6504
2026-01-14 15:14:34.47	213.16	23.24	-38.5	-39.5	22.5	0.00e+00	0	28	0	1162870784	48	6806
2026-01-14 15:14:38.51	213.04	22.65	-38.8	-39.9	22.1	0.00e+00	74	28	0	1170210816	50	6339
2026-01-14 15:14:42.54	212.93	22.07	-39.0	-40.1	22.1	0.00e+00	0	28	0	1177550848	50	6471
2026-01-14 15:14:46.58	212.82	21.50	-39.1	-40.2	22.0	0.00e+00	0	28	0	1184890880	50	6609
2026-01-14 15:14:50.62	212.72	20.95	-40.0	-41.2	21.1	0.00e+00	32	28	0	1193279488	52	6586
2026-01-14 15:14:54.66	212.62	20.41	-40.1	-41.3	21.0	0.00e+00	87	28	0	1200619520	52	6673
2026-01-14 15:14:58.70	212.53	19.88	-40.0	-41.2	21.2	0.00e+00	0	28	0	1207959552	52	6571
2026-01-14 15:15:02.73	212.43	19.36	-39.2	-40.3	21.9	0.00e+00	0	28	0	1215299584	52	5936
2026-01-14 15:15:06.77	212.35	18.85	-38.7	-39.7	22.4	0.00e+00	39	28	0	1222639616	50	6188
2026-01-14 15:15:10.80	212.26	18.35	-38.9	-40.0	22.1	0.00e+00	0	28	0	1231028224	50	6403
2026-01-14 15:15:14.83	212.18	17.86	-39.0	-40.0	22.1	0.00e+00	0	28	0	1238368256	50	6410
2026-01-14 15:15:18.87	212.10	17.38	-39.6	-40.7	21.4	0.00e+00	0	28	0	1245708288	50	6942
2026-01-14 15:15:22.91	212.03	16.91	-40.2	-41.3	20.9	0.00e+00	92	28	0	1253048320	52	6676
2026-01-14 15:15:26.95	211.95	16.45	-40.2	-41.4	20.8	0.00e+00	0	28	0	1260388352	52	6696
2026-01-14 15:15:30.99	211.88	16.00	-40.7	-41.9	20.3	0.00e+00	0	28	0	1268776960	54	6375
2026-01-14 15:15:35.03	211.82	15.55	-40.3	-41.5	20.7	0.00e+00	31	28	0	1276116992	54	6076
2026-01-14 15:15:39.06	211.75	15.11	-40.3	-41.5	20.8	0.00e+00	92	28	0	1283457024	54	6059
2026-01-14 15:15:43.09	211.69	14.69	-40.4	-41.6	20.6	0.00e+00	0	28	0	1290797056	54	6144
2026-01-14 15:15:47.13	211.63	14.26	-40.3	-41.6	20.7	0.00e+00	0	28	0	1299185664	54	6108
2026-01-14 15:15:51.17	211.57	13.85	-40.5	-41.8	20.4	0.00e+00	86	28	0	1306525696	54	6272
2026-01-14 15:15:55.21	211.51	13.44	-40.2	-41.4	20.7	0.00e+00	3	28	0	1313865728	54	6005
2026-01-14 15:15:59.24	211.46	13.04	-40.4	-41.7	20.5	0.00e+00	0	28	0	1321205760	54	6176
2026-01-14 15:16:03.28	211.40	12.65	-40.5	-41.8	20.4	0.00e+00	0	28	0	1328545792	54	6260
2026-01-14 15:16:07.32	211.35	12.26	-40.6	-42.0	20.2	0.00e+00	44	28	0	1336934400	54	6401
2026-01-14 15:16:11.35	211.30	11.88	-40.7	-42.1	20.0	0.00e+00	0	28	0	1344274432	54	6501
2026-01-14 15:16:15.39	211.25	11.50	-40.7	-42.1	20.1	0.00e+00	0	28	0	1351614464	54	6468
2026-01-14 15:16:19.43	211.21	11.13	-40.9	-42.3	19.8	0.00e+00	0	28	0	1358954496	54	6662
2026-01-14 15:16:23.46	211.16	10.76	-41.0	-42.4	19.7	0.00e+00	92	28	0	1367343104	54	6766
2026-01-14 15:16:27.50	211.12	10.40	-41.0	-42.5	19.7	0.00e+00	0	28	0	1374683136	54	6775
2026-01-14 15:16:31.53	211.07	10.05	-41.1	-42.6	19.3	0.00e+00	0	28	0	1382023168	54	6907
2026-01-14 15:16:35.57	211.03	9.70	-41.3	-42.8	19.4	0.00e+00	24	28	0	1389363200	54	7039
2026-01-14 15:16:39.61	210.99	9.35	-41.0	-42.5	19.5	0.00e+00	62	28	0	1396703232	54	6786
2026-01-14 15:16:43.65	210.95	9.01	-41.0	-42.4	19.6	0.00e+00	0	28	0	1405091840	54	6766
2026-01-14 15:16:47.68	210.92	8.68	-40.7	-42.2	19.9	0.00e+00	0	28	0	1412431872	54	6545
2026-01-14 15:16:51.72	210.88	8.35	-40.8	-42.3	19.7	0.00e+00	91	29	0	1419771904	54	6629
2026-01-14 15:16:55.76	210.84	8.02	-40.8	-42.2	19.7	0.00e+00	0	28	0	1427111936	54	6589
2026-01-14 15:16:59.79	210.81	7.70	-40.9	-42.3	19.7	0.00e+00	0	28	0	1434451968	54	6640
2026-01-14 15:17:03.83	210.78	7.38	-40.7	-42.1	19.8	0.00e+00	0	28	0	1442840576	54	6520
2026-01-14 15:17:07.87	210.74	7.06	-40.8	-42.2	19.7	0.00e+00	92	28	0	1450180608	54	6563
2026-01-14 15:17:11.91	210.71	6.75	-40.9	-42.3	19.4	0.00e+00	0	28	0	1457520640	54	6655
2026-01-14 15:17:15.94	210.68	6.45	-41.0	-42.4	19.4	0.00e+00	0	28	0	1464860672	54	6750
2026-01-14 15:17:19.98	210.65	6.14	-40.7	-42.1	19.7	0.00e+00	27	28	0	1473249280	54	6487
2026-01-14 15:17:24.01	210.62	5.84	-40.9	-42.4	19.4	0.00e+00	92	28	0	1480589312	54	6709
2026-01-14 15:17:28.04	210.60	5.55	-40.9	-42.4	19.3	0.00e+00	0	28	0	1487929344	54	6693
2026-01-14 15:17:32.07	210.57	5.25	-40.9	-42.3	19.3	0.00e+00	0	28	0	1495269376	54	6683
2026-01-14 15:17:36.12	210.54	4.96	-40.9	-42.3	19.2	0.00e+00	57	28	0	1502609408	54	6692
2026-01-14 15:17:40.15	210.52	4.67	-41.2	-42.7	18.8	0.00e+00	52	28	0	1510998016	54	7004
2026-01-14 15:17:44.19	210.49	4.39	-41.2	-42.8	18.7	0.00e+00	0	28	0	1518338048	54	7063
2026-01-14 15:17:48.23	210.47	4.11	-41.3	-42.9	18.5	0.00e+00	10	28	0	1525678080	54	7153
2026-01-14 15:17:52.27	210.44	3.83	-41.3	-42.9	18.5	0.00e+00	92	28	0	1533018112	54	7162
2026-01-14 15:17:56.30	210.42	3.56	-41.7	-43.5	17.8	0.00e+00	0	28	0	1540358144	54	7602
2026-01-14 15:18:00.34	210.40	3.28	-41.6	-43.4	18.0	0.00e+00	0	28	0	1548746752	56	6698
2026-01-14 15:18:04.37	210.38	3.01	-42.0	-43.9	13.1	0.00e+00	0	28	0	1556086784	56	7162
2026-01-14 15:18:08.41	210.36	2.75	-48.7	-64.0	3.6	1.51e+00	0	29	104	1556086784	60	57241
2026-01-14 15:18:12.44	210.34	2.48	-48.8	-64.1	3.5	1.51e+00	0	28	104	1556086784	60	57858
2026-01-14 15:18:16.48	210.32	2.22	-48.9	-64.1	3.6	1.51e+00	0	29	104	1556086784	60	57960
2026-01-14 15:18:20.52	210.30	1.96	-48.7	-63.9	3.6	1.51e+00	0	29	104	1556086784	60	56951
2026-01-14 15:18:24.56	210.28	1.70	-48.8	-64.0	3.6	1.51e+00	0	29	104	1556086784	60	57220
2026-01-14 15:18:28.60	210.26	1.45	-48.8	-64.0	3.6	1.51e+00	0	28	104	1556086784	60	57034
2026-01-14 15:18:32.63	210.24	1.19	-48.8	-64.0	3.6	1.51e+00	0	29	104	1556086784	60	57032
2026-01-14 15:18:36.67	210.23	0.94	-48.8	-64.0	3.5	1.51e+00	0	29	104	1556086784	60	57268
2026-01-14 15:18:40.71	210.21	0.69	-48.7	-63.9	3.6	1.51e+00	0	29	104	1556086784	60	56623
2026-01-14 15:18:44.75	210.19	0.45	-48.8	-63.9	3.6	1.51e+00	0	29	104	1556086784	60	56591
2026-01-14 15:18:48.79	210.18	0.20	-48.8	-63.9	3.6	1.51e+00	0	29	104	1556086784	60	56645
2026-01-14 15:18:52.83	210.16	-0.04	-48.7	-63.9	3.6	1.51e+00	0	29	104	1556086784	60	56703

#Closed at: 2026-01-14 15:18:53
#Recorded file [1556 MB]: D:/lorett/data/35029_260115_030324.dat