passes_logs/2026/01/14/R4.6S_Anadyr/R4.6S_Anadyr__20260114_143341_NOAA_21_JPSS-2_rec.log

#Pass ID: 20260114_143341_NOAA 21 (JPSS-2)
#Satellite: NOAA 21 (JPSS-2)
#Configuration: NOAA-21
#almurnet v.1.7.20251203
#Start time: 2026-01-14 14:33:42

#Version: 2.2.20231116
#Station: R4.6S_Anadyr
#Location: 177.4865 lon 64.73178 lat
#TLE: 1 54234U 22150A   26013.88494661  .00000045  00000+0  42271-4 0  9994
#TLE: 2 54234  98.7497 314.7982 0000672 299.1935  60.9174 14.19534564164652

#Time	Az	El	Level	Level2	SNR	BER	BlckErr	Temp	State	Recorded	gain1	gain2
2026-01-14 14:33:42.37	20.17	0.06	-48.6	-63.5	3.5	1.51e+00	0	26	0	0	60	54059
2026-01-14 14:33:46.41	20.21	0.31	-48.7	-61.6	3.5	1.52e+00	0	27	104	0	60	42252
2026-01-14 14:33:50.45	20.24	0.55	-48.7	-61.5	3.5	1.52e+00	0	27	104	0	60	41796
2026-01-14 14:33:54.49	20.28	0.79	-48.3	-61.2	3.5	1.52e+00	0	27	104	0	60	40079
2026-01-14 14:33:58.53	20.32	1.04	-47.3	-60.0	3.5	1.51e+00	0	27	104	0	60	34974
2026-01-14 14:34:02.57	20.36	1.29	-47.2	-59.9	3.5	1.52e+00	0	27	104	0	60	34677
2026-01-14 14:34:06.61	20.39	1.54	-47.2	-59.9	3.5	1.52e+00	0	28	104	0	60	34628
2026-01-14 14:34:10.65	20.43	1.80	-47.2	-60.0	3.5	1.52e+00	0	28	104	0	60	34948
2026-01-14 14:34:14.68	20.47	2.05	-47.2	-60.0	3.5	1.52e+00	0	28	104	0	60	35169
2026-01-14 14:34:18.72	20.51	2.31	-47.0	-58.5	3.5	1.51e+00	0	28	104	0	60	29391
2026-01-14 14:34:22.76	20.55	2.57	-46.9	-57.3	3.6	1.48e+00	0	28	104	0	60	25721
2026-01-14 14:34:26.80	20.59	2.83	-45.9	-51.3	7.3	1.84e-01	122	28	0	2097152	60	12839
2026-01-14 14:34:30.84	20.63	3.10	-42.2	-44.4	15.0	0.00e+00	122	28	0	14680064	58	6528
2026-01-14 14:34:34.88	20.67	3.37	-39.6	-41.1	18.1	0.00e+00	122	28	0	27262976	52	6315
2026-01-14 14:34:38.92	20.72	3.64	-41.3	-43.2	16.0	0.00e+00	123	28	0	39845888	54	7135
2026-01-14 14:34:42.96	20.76	3.91	-47.0	-57.2	3.5	9.09e-03	0	28	104	52428800	60	25328
2026-01-14 14:34:46.99	20.80	4.19	-39.2	-40.6	18.8	0.00e+00	120	28	0	55574528	52	5979
2026-01-14 14:34:51.03	20.84	4.47	-38.5	-39.8	19.4	0.00e+00	123	28	0	68157440	50	6073
2026-01-14 14:34:55.07	20.89	4.75	-38.2	-39.4	20.0	0.00e+00	123	28	0	80740352	50	5853
2026-01-14 14:34:59.11	20.93	5.04	-37.6	-38.8	20.5	0.00e+00	123	28	0	93323264	48	6102
2026-01-14 14:35:03.15	20.97	5.32	-37.4	-38.6	20.7	0.00e+00	123	28	0	105906176	48	5947
2026-01-14 14:35:07.18	21.02	5.62	-37.6	-38.7	20.7	0.00e+00	123	28	0	118489088	48	6051
2026-01-14 14:35:11.22	21.06	5.91	-37.2	-38.3	21.0	0.00e+00	118	28	0	131072000	48	5789
2026-01-14 14:35:15.26	21.11	6.21	-37.2	-38.3	21.1	0.00e+00	122	28	0	143654912	48	5739
2026-01-14 14:35:19.30	21.16	6.51	-37.1	-38.2	21.2	0.00e+00	123	28	0	156237824	48	5699
2026-01-14 14:35:23.33	21.20	6.81	-36.9	-37.9	21.5	0.00e+00	120	28	0	168820736	48	5526
2026-01-14 14:35:27.37	21.25	7.12	-36.7	-37.7	21.7	0.00e+00	123	28	0	181403648	46	6054
2026-01-14 14:35:31.41	21.30	7.44	-36.7	-37.7	21.7	0.00e+00	123	28	0	193986560	46	6027
2026-01-14 14:35:35.44	21.35	7.75	-36.5	-37.6	21.9	0.00e+00	123	28	0	206569472	46	5947
2026-01-14 14:35:39.49	21.40	8.07	-36.5	-37.5	21.9	0.00e+00	123	28	0	219152384	46	5906
2026-01-14 14:35:43.52	21.45	8.40	-36.3	-37.3	22.1	0.00e+00	120	28	0	231735296	46	5786
2026-01-14 14:35:47.56	21.50	8.73	-36.4	-37.4	22.0	0.00e+00	122	28	0	244318208	46	5834
2026-01-14 14:35:51.60	21.55	9.06	-36.3	-37.4	22.1	0.00e+00	123	28	0	256901120	46	5799
2026-01-14 14:35:55.64	21.61	9.40	-36.1	-37.1	22.4	0.00e+00	123	28	0	269484032	46	5612
2026-01-14 14:35:59.68	21.66	9.74	-35.9	-36.9	22.6	0.00e+00	122	28	0	282066944	46	5529
2026-01-14 14:36:03.72	21.71	10.09	-35.7	-36.7	22.7	0.00e+00	120	29	0	294649856	44	6042
2026-01-14 14:36:07.75	21.77	10.44	-35.6	-36.6	22.8	0.00e+00	123	28	0	307232768	44	5936
2026-01-14 14:36:11.79	21.83	10.79	-35.4	-36.4	23.0	0.00e+00	122	28	0	319815680	44	5819
2026-01-14 14:36:15.82	21.88	11.15	-35.3	-36.2	23.1	0.00e+00	123	28	0	332398592	44	5712
2026-01-14 14:36:19.87	21.94	11.52	-35.1	-36.1	23.2	0.00e+00	123	28	0	344981504	44	5629
2026-01-14 14:36:23.90	22.00	11.90	-35.0	-35.9	23.3	0.00e+00	122	28	0	357564416	44	5524
2026-01-14 14:36:27.94	22.06	12.28	-34.9	-35.8	23.5	0.00e+00	121	28	0	370147328	44	5433
2026-01-14 14:36:31.97	22.12	12.66	-34.8	-35.7	23.6	0.00e+00	123	29	0	382730240	42	6045
2026-01-14 14:36:36.01	22.18	13.05	-34.8	-35.7	23.6	0.00e+00	123	28	0	395313152	42	6024
2026-01-14 14:36:40.05	22.25	13.45	-34.7	-35.6	23.8	0.00e+00	123	28	0	408944640	42	5959
2026-01-14 14:36:44.09	22.31	13.85	-34.8	-35.7	23.7	0.00e+00	123	28	0	421527552	42	6042
2026-01-14 14:36:48.13	22.38	14.26	-34.8	-35.8	23.7	0.00e+00	123	29	0	434110464	42	6069
2026-01-14 14:36:52.17	22.45	14.68	-34.8	-35.7	23.8	0.00e+00	123	28	0	446693376	42	6019
2026-01-14 14:36:56.21	22.52	15.11	-34.8	-35.7	23.8	0.00e+00	123	28	0	459276288	42	6037
2026-01-14 14:37:00.25	22.59	15.54	-34.7	-35.6	23.8	0.00e+00	123	28	0	471859200	42	5975
2026-01-14 14:37:04.28	22.66	15.98	-34.7	-35.6	23.9	0.00e+00	120	28	0	484442112	42	5970
2026-01-14 14:37:08.32	22.73	16.43	-34.8	-35.8	23.7	0.00e+00	123	29	0	497025024	42	6077
2026-01-14 14:37:12.35	22.81	16.88	-34.8	-35.8	23.7	0.00e+00	123	28	0	509607936	42	6068
2026-01-14 14:37:16.39	22.89	17.35	-35.0	-36.0	23.6	0.00e+00	123	28	0	522190848	42	6209
2026-01-14 14:37:20.43	22.96	17.83	-34.8	-35.8	23.8	0.00e+00	123	29	0	534773760	42	6067
2026-01-14 14:37:24.47	23.05	18.31	-34.8	-35.7	23.8	0.00e+00	123	29	0	547356672	42	6014
2026-01-14 14:37:28.51	23.13	18.80	-34.8	-35.7	23.8	0.00e+00	123	29	0	559939584	42	6025
2026-01-14 14:37:32.55	23.22	19.31	-34.6	-35.5	24.0	0.00e+00	122	29	0	572522496	42	5903
2026-01-14 14:37:36.59	23.30	19.82	-34.5	-35.4	24.1	0.00e+00	122	28	0	585105408	42	5806
2026-01-14 14:37:40.63	23.39	20.35	-34.1	-35.0	24.3	0.00e+00	122	28	0	597688320	42	5578
2026-01-14 14:37:44.67	23.49	20.88	-33.9	-34.7	24.6	0.00e+00	123	29	0	610271232	42	5396
2026-01-14 14:37:48.71	23.58	21.43	-33.7	-34.6	24.7	0.00e+00	122	28	0	622854144	40	5955
2026-01-14 14:37:52.76	23.68	21.99	-33.5	-34.4	24.9	0.00e+00	120	28	0	635437056	40	5815
2026-01-14 14:37:56.80	23.78	22.57	-33.2	-34.1	25.0	0.00e+00	122	29	0	648019968	40	5609
2026-01-14 14:38:00.84	23.89	23.15	-33.1	-34.0	25.1	0.00e+00	122	29	0	660602880	40	5541
2026-01-14 14:38:04.88	24.00	23.75	-33.2	-34.1	24.9	0.00e+00	123	29	0	673185792	40	5602
2026-01-14 14:38:08.92	24.11	24.37	-33.1	-33.9	25.1	0.00e+00	123	29	0	685768704	40	5521
2026-01-14 14:38:12.96	24.22	25.00	-33.3	-34.2	25.0	0.00e+00	120	29	0	698351616	40	5664
2026-01-14 14:38:17.00	24.34	25.64	-33.5	-34.4	24.8	0.00e+00	120	28	0	710934528	40	5815
2026-01-14 14:38:21.03	24.47	26.30	-33.8	-34.7	24.7	0.00e+00	120	29	0	724566016	40	6013
2026-01-14 14:38:25.07	24.59	26.97	-34.0	-34.8	24.6	0.00e+00	123	28	0	736100352	40	6129
2026-01-14 14:38:29.11	24.73	27.67	-34.4	-35.3	24.2	0.00e+00	123	29	0	749731840	40	6452
2026-01-14 14:38:33.15	24.87	28.38	-34.8	-35.8	23.9	0.00e+00	120	28	0	762314752	42	6073
2026-01-14 14:38:37.19	25.01	29.11	-35.0	-35.9	23.7	0.00e+00	122	29	0	774897664	42	6190
2026-01-14 14:38:41.23	25.16	29.86	-35.0	-35.9	23.7	0.00e+00	123	29	0	787480576	42	6156
2026-01-14 14:38:45.26	25.32	30.62	-34.1	-35.0	24.4	0.00e+00	123	28	0	800063488	42	5569
2026-01-14 14:38:49.30	25.48	31.41	-33.9	-34.8	24.7	0.00e+00	122	29	0	812646400	42	5410
2026-01-14 14:38:53.34	25.65	32.23	-33.8	-34.7	24.7	0.00e+00	122	29	0	825229312	40	6007
2026-01-14 14:38:57.38	25.83	33.06	-34.2	-35.1	24.4	0.00e+00	122	29	0	837812224	40	6296
2026-01-14 14:39:01.42	26.02	33.92	-34.5	-35.4	24.3	0.00e+00	122	29	0	850395136	40	6563
2026-01-14 14:39:05.45	26.22	34.80	-35.2	-36.1	23.8	0.00e+00	123	29	0	862978048	42	6313
2026-01-14 14:39:09.49	26.42	35.70	-36.0	-36.9	23.1	0.00e+00	120	29	0	875560960	44	6169
2026-01-14 14:39:13.53	26.64	36.64	-36.7	-37.7	22.4	0.00e+00	123	29	0	888143872	44	6750
2026-01-14 14:39:17.57	26.87	37.60	-36.3	-37.3	22.6	0.00e+00	122	29	0	900726784	44	6477
2026-01-14 14:39:21.61	27.11	38.59	-36.0	-36.9	22.9	0.00e+00	122	29	0	913309696	44	6202
2026-01-14 14:39:25.66	27.37	39.61	-36.4	-37.5	22.2	0.00e+00	120	29	0	925892608	44	6577
2026-01-14 14:39:29.70	27.65	40.65	-36.8	-37.8	22.0	0.00e+00	122	28	0	938475520	46	6134
2026-01-14 14:39:33.74	27.94	41.73	-37.1	-38.2	21.9	0.00e+00	123	29	0	951058432	46	6377
2026-01-14 14:39:37.78	28.25	42.84	-37.8	-38.9	21.2	0.00e+00	122	29	0	963641344	48	6188
2026-01-14 14:39:41.81	28.58	43.98	-37.8	-38.9	21.3	0.00e+00	123	29	0	976224256	48	6173
2026-01-14 14:39:45.85	28.94	45.16	-37.7	-38.7	21.5	0.00e+00	123	29	0	988807168	48	6049
2026-01-14 14:39:49.89	29.32	46.37	-37.6	-38.7	21.7	0.00e+00	122	29	0	1001390080	48	6046
2026-01-14 14:39:53.92	29.73	47.62	-36.9	-37.9	22.3	0.00e+00	123	29	0	1013972992	48	5481
2026-01-14 14:39:57.96	30.17	48.90	-35.9	-36.9	23.3	0.00e+00	120	29	0	1026555904	46	5483
2026-01-14 14:40:02.00	30.66	50.22	-35.8	-36.8	23.2	0.00e+00	123	29	0	1039138816	44	6078
2026-01-14 14:40:06.04	31.18	51.58	-35.8	-36.8	22.8	0.00e+00	122	29	0	1051721728	44	6087
2026-01-14 14:40:10.07	31.76	52.97	-35.4	-36.4	23.4	0.00e+00	123	29	0	1064304640	44	5817
2026-01-14 14:40:14.11	32.39	54.40	-35.6	-36.6	23.2	0.00e+00	121	29	0	1076887552	44	5971
2026-01-14 14:40:18.15	33.09	55.87	-34.8	-35.8	23.9	0.00e+00	122	29	0	1090519040	42	6079
2026-01-14 14:40:22.19	33.86	57.37	-34.8	-35.7	23.5	0.00e+00	120	29	0	1103101952	42	6039
2026-01-14 14:40:26.23	34.73	58.91	-34.5	-35.4	24.2	0.00e+00	123	29	0	1115684864	42	5800
2026-01-14 14:40:30.26	35.70	60.48	-33.7	-34.6	24.5	0.00e+00	122	29	0	1128267776	40	5952
2026-01-14 14:40:34.30	36.79	62.09	-33.2	-34.1	24.8	0.00e+00	121	29	0	1140850688	40	5614
2026-01-14 14:40:38.34	38.05	63.72	-33.3	-34.2	24.8	0.00e+00	123	29	0	1153433600	40	5686
2026-01-14 14:40:42.38	39.49	65.38	-32.5	-33.3	25.2	0.00e+00	123	29	0	1166016512	38	5765
2026-01-14 14:40:46.42	41.16	67.06	-32.9	-33.7	25.3	0.00e+00	123	29	0	1178599424	38	6042
2026-01-14 14:40:50.46	43.12	68.75	-32.9	-33.7	25.0	0.00e+00	122	29	0	1191182336	38	6056
2026-01-14 14:40:54.50	45.44	70.45	-32.5	-33.3	25.5	0.00e+00	122	29	0	1203765248	38	5773
2026-01-14 14:40:58.54	48.24	72.14	-33.2	-34.1	24.6	0.00e+00	123	29	0	1216348160	38	6306
2026-01-14 14:41:02.57	51.64	73.80	-32.8	-33.6	25.5	0.00e+00	120	29	0	1228931072	38	5991
2026-01-14 14:41:06.61	55.86	75.43	-32.3	-33.1	25.8	0.00e+00	123	29	0	1241513984	38	5656
2026-01-14 14:41:10.65	61.15	76.98	-32.9	-33.7	25.5	0.00e+00	123	29	0	1254096896	38	6063
2026-01-14 14:41:14.69	67.83	78.40	-32.6	-33.4	25.7	0.00e+00	122	29	0	1266679808	38	5824
2026-01-14 14:41:18.72	76.27	79.64	-32.0	-32.9	25.5	0.00e+00	123	29	0	1279262720	38	5483
2026-01-14 14:41:22.76	86.79	80.61	-32.9	-33.7	25.2	0.00e+00	123	29	0	1291845632	38	6063
2026-01-14 14:41:26.79	99.21	81.21	-32.7	-33.6	25.4	0.00e+00	122	29	0	1304428544	38	5931
2026-01-14 14:41:30.83	112.78	81.36	-32.5	-33.3	25.8	0.00e+00	122	29	0	1317011456	38	5749
2026-01-14 14:41:34.87	126.06	81.03	-32.3	-33.1	25.9	0.00e+00	123	29	0	1329594368	38	5634
2026-01-14 14:41:38.91	137.82	80.28	-32.5	-33.3	25.7	0.00e+00	122	29	0	1342177280	38	5784
2026-01-14 14:41:42.94	147.51	79.19	-32.2	-33.0	25.8	0.00e+00	123	29	0	1354760192	38	5592
2026-01-14 14:41:46.98	155.24	77.87	-31.9	-32.8	25.6	0.00e+00	122	29	0	1367343104	38	5410
2026-01-14 14:41:51.02	161.34	76.38	-33.1	-34.0	24.7	0.00e+00	123	29	0	1379926016	38	6256
2026-01-14 14:41:55.06	166.18	74.80	-33.0	-33.8	25.4	0.00e+00	122	29	0	1392508928	38	6122
2026-01-14 14:41:59.10	170.06	73.15	-33.2	-34.1	25.0	0.00e+00	120	29	0	1405091840	38	6319
2026-01-14 14:42:03.14	173.21	71.47	-32.1	-32.9	26.0	0.00e+00	122	29	0	1417674752	38	5524
2026-01-14 14:42:07.18	175.81	69.77	-31.8	-32.6	25.7	0.00e+00	123	29	0	1430257664	38	5311
2026-01-14 14:42:11.22	177.98	68.07	-34.0	-34.9	24.6	0.00e+00	120	29	0	1442840576	40	6194
2026-01-14 14:42:15.26	179.82	66.38	-32.3	-33.1	25.7	0.00e+00	123	29	0	1456472064	38	5653
2026-01-14 14:42:19.29	181.39	64.71	-34.2	-35.2	24.5	0.00e+00	122	29	0	1469054976	40	6358
2026-01-14 14:42:23.33	182.76	63.05	-32.1	-32.9	25.8	0.00e+00	123	29	0	1481637888	38	5475
2026-01-14 14:42:27.37	183.94	61.43	-36.9	-38.1	22.1	0.00e+00	123	29	0	1494220800	46	6328
2026-01-14 14:42:31.40	184.99	59.83	-32.7	-33.5	25.7	0.00e+00	122	29	0	1506803712	38	5906
2026-01-14 14:42:35.44	185.91	58.27	-35.0	-35.9	24.0	0.00e+00	123	29	0	1519386624	42	6195
2026-01-14 14:42:39.48	186.74	56.74	-33.9	-34.9	23.9	0.00e+00	122	29	0	1531969536	42	5481
2026-01-14 14:42:43.52	187.49	55.24	-35.0	-36.0	23.5	0.00e+00	121	29	0	1544552448	42	6217
2026-01-14 14:42:47.55	188.15	53.79	-35.6	-36.6	23.3	0.00e+00	122	29	0	1557135360	42	6695
2026-01-14 14:42:51.59	188.76	52.37	-35.0	-35.9	23.7	0.00e+00	128	29	0	1569718272	42	6171
2026-01-14 14:42:55.63	189.32	50.98	-37.6	-38.7	21.5	0.00e+00	122	29	0	1582301184	46	6775
2026-01-14 14:42:59.66	189.83	49.64	-36.8	-37.8	22.3	0.00e+00	123	29	0	1594884096	48	5427
2026-01-14 14:43:03.70	190.29	48.33	-36.2	-37.3	22.0	0.00e+00	123	29	0	1607467008	46	5738
2026-01-14 14:43:07.74	190.72	47.06	-36.1	-37.0	22.8	0.00e+00	123	29	0	1620049920	46	5580
2026-01-14 14:43:11.78	191.12	45.82	-37.8	-39.0	21.6	0.00e+00	120	29	0	1632632832	48	6222
2026-01-14 14:43:15.82	191.49	44.62	-37.2	-38.2	22.1	0.00e+00	123	29	0	1645215744	48	5711
2026-01-14 14:43:19.85	191.84	43.45	-37.3	-38.4	21.3	0.00e+00	123	29	0	1657798656	48	5830
2026-01-14 14:43:23.89	192.16	42.32	-36.4	-37.4	22.5	0.00e+00	123	29	0	1670381568	46	5817
2026-01-14 14:43:27.93	192.46	41.22	-36.3	-37.3	22.7	0.00e+00	123	29	0	1682964480	46	5767
2026-01-14 14:43:31.97	192.75	40.15	-37.4	-38.4	21.9	0.00e+00	120	29	0	1695547392	46	6560
2026-01-14 14:43:36.00	193.01	39.11	-37.0	-38.1	22.0	0.00e+00	123	29	0	1708130304	46	6303
2026-01-14 14:43:40.04	193.26	38.10	-37.0	-38.0	22.2	0.00e+00	122	29	0	1720713216	46	6231
2026-01-14 14:43:44.08	193.50	37.12	-36.0	-37.0	22.3	0.00e+00	122	29	0	1733296128	46	5556
2026-01-14 14:43:48.12	193.72	36.17	-34.9	-35.8	23.7	0.00e+00	123	29	0	1745879040	44	5445
2026-01-14 14:43:52.15	193.94	35.24	-35.1	-36.0	23.8	0.00e+00	123	29	0	1758461952	44	5547
2026-01-14 14:43:56.19	194.14	34.34	-35.2	-36.1	23.7	0.00e+00	122	29	0	1771044864	44	5642
2026-01-14 14:44:00.23	194.33	33.47	-35.3	-36.2	23.6	0.00e+00	123	29	0	1783627776	44	5679
2026-01-14 14:44:04.26	194.51	32.62	-34.8	-35.7	24.0	0.00e+00	118	29	0	1796210688	44	5390
2026-01-14 14:44:08.30	194.69	31.79	-34.5	-35.4	24.3	0.00e+00	123	29	0	1808793600	42	5835
2026-01-14 14:44:12.34	194.85	30.99	-34.2	-35.1	24.5	0.00e+00	123	29	0	1822425088	42	5624
2026-01-14 14:44:16.38	195.01	30.20	-34.5	-35.4	24.2	0.00e+00	123	29	0	1833959424	42	5846
2026-01-14 14:44:20.41	195.16	29.44	-34.9	-35.8	23.9	0.00e+00	122	29	0	1847590912	42	6122
2026-01-14 14:44:24.44	195.31	28.70	-35.0	-36.0	23.4	0.00e+00	120	29	0	1860173824	42	6212
2026-01-14 14:44:28.48	195.45	27.97	-35.1	-36.0	23.4	0.00e+00	123	29	0	1871708160	42	6268
2026-01-14 14:44:32.52	195.59	27.27	-34.8	-35.7	23.6	0.00e+00	122	29	0	1885339648	42	6056
2026-01-14 14:44:36.56	195.72	26.58	-33.8	-34.7	24.5	0.00e+00	123	29	0	1897922560	42	5351
2026-01-14 14:44:40.59	195.84	25.91	-33.7	-34.6	24.6	0.00e+00	122	29	0	1910505472	40	5983
2026-01-14 14:44:44.63	195.96	25.25	-33.4	-34.3	24.8	0.00e+00	121	29	0	1923088384	40	5757
2026-01-14 14:44:48.67	196.08	24.61	-33.8	-34.7	24.7	0.00e+00	123	29	0	1935671296	40	6050
2026-01-14 14:44:52.71	196.19	23.99	-33.8	-34.7	24.7	0.00e+00	122	29	0	1948254208	40	6046
2026-01-14 14:44:56.75	196.30	23.38	-33.7	-34.6	24.8	0.00e+00	123	29	0	1960837120	40	5937
2026-01-14 14:45:00.79	196.40	22.78	-33.7	-34.6	24.9	0.00e+00	122	29	0	1973420032	40	5936
2026-01-14 14:45:04.83	196.50	22.20	-34.0	-34.9	24.6	0.00e+00	123	29	0	1986002944	40	6160
2026-01-14 14:45:08.87	196.60	21.63	-34.1	-35.0	24.5	0.00e+00	121	29	0	1998585856	40	6247
2026-01-14 14:45:12.91	196.70	21.07	-34.2	-35.1	24.5	0.00e+00	123	29	0	2011168768	40	6307
2026-01-14 14:45:16.95	196.79	20.53	-34.3	-35.2	24.4	0.00e+00	123	29	0	2023751680	40	6355
2026-01-14 14:45:20.99	196.88	20.00	-34.2	-35.1	24.4	0.00e+00	122	29	0	2036334592	40	6342
2026-01-14 14:45:25.02	196.97	19.47	-34.1	-35.0	24.5	0.00e+00	122	29	0	2048917504	40	6210
2026-01-14 14:45:29.07	197.05	18.96	-34.1	-35.0	24.5	0.00e+00	123	29	0	2061500416	40	6229
2026-01-14 14:45:33.10	197.14	18.46	-34.2	-35.1	24.3	0.00e+00	123	29	0	2074083328	40	6311
2026-01-14 14:45:37.14	197.22	17.97	-34.5	-35.5	24.0	0.00e+00	123	29	0	2086666240	40	6578
2026-01-14 14:45:41.18	197.29	17.49	-34.7	-35.6	23.8	0.00e+00	120	29	0	2099249152	42	5991
2026-01-14 14:45:45.22	197.37	17.01	-35.0	-35.9	23.5	0.00e+00	123	29	0	2111832064	42	6204
2026-01-14 14:45:49.25	197.44	16.55	-35.2	-36.2	23.4	0.00e+00	123	29	0	2124414976	42	6364
2026-01-14 14:45:53.28	197.52	16.10	-35.2	-36.2	23.3	0.00e+00	123	29	0	2136997888	42	6400
2026-01-14 14:45:57.32	197.59	15.65	-35.1	-36.1	23.4	0.00e+00	120	29	0	2149580800	42	6298
2026-01-14 14:46:01.37	197.66	15.21	-35.2	-36.2	23.4	0.00e+00	120	29	0	2162163712	42	6383
2026-01-14 14:46:05.41	197.72	14.78	-35.1	-36.1	23.4	0.00e+00	120	29	0	2174746624	42	6297
2026-01-14 14:46:09.45	197.79	14.36	-35.1	-36.0	23.4	0.00e+00	120	29	0	2187329536	42	6276
2026-01-14 14:46:13.48	197.85	13.94	-35.2	-36.1	23.4	0.00e+00	122	29	0	2199912448	42	6326
2026-01-14 14:46:17.52	197.92	13.53	-35.2	-36.1	23.4	0.00e+00	123	29	0	2212495360	42	6328
2026-01-14 14:46:21.56	197.98	13.13	-35.2	-36.1	23.4	0.00e+00	122	29	0	2226126848	42	6311
2026-01-14 14:46:25.60	198.04	12.73	-35.2	-36.1	23.4	0.00e+00	123	29	0	2238709760	42	6335
2026-01-14 14:46:29.63	198.10	12.34	-35.3	-36.2	23.4	0.00e+00	123	29	0	2251292672	42	6381
2026-01-14 14:46:33.67	198.16	11.96	-35.2	-36.1	23.4	0.00e+00	123	29	0	2263875584	42	6307
2026-01-14 14:46:37.71	198.21	11.58	-35.2	-36.1	23.4	0.00e+00	122	29	0	2276458496	42	6313
2026-01-14 14:46:41.75	198.27	11.21	-35.2	-36.2	23.3	0.00e+00	122	29	0	2289041408	42	6377
2026-01-14 14:46:45.79	198.33	10.84	-35.3	-36.2	23.3	0.00e+00	123	29	0	2301624320	42	6397
2026-01-14 14:46:49.82	198.38	10.48	-35.4	-36.3	23.3	0.00e+00	123	29	0	2314207232	42	6473
2026-01-14 14:46:53.86	198.43	10.13	-35.5	-36.5	23.0	0.00e+00	123	29	0	2326790144	42	6605
2026-01-14 14:46:57.90	198.48	9.78	-35.7	-36.6	22.9	0.00e+00	122	29	0	2339373056	44	5993
2026-01-14 14:47:01.93	198.53	9.43	-35.8	-36.8	22.8	0.00e+00	123	29	0	2351955968	44	6104
2026-01-14 14:47:05.96	198.58	9.09	-36.0	-37.0	22.7	0.00e+00	122	29	0	2364538880	44	6213
2026-01-14 14:47:10.00	198.63	8.76	-36.1	-37.1	22.4	0.00e+00	122	29	0	2377121792	44	6336
2026-01-14 14:47:14.04	198.68	8.42	-36.4	-37.4	22.2	0.00e+00	122	29	0	2389704704	44	6527
2026-01-14 14:47:18.07	198.73	8.10	-36.5	-37.6	22.1	0.00e+00	123	29	0	2402287616	44	6654
2026-01-14 14:47:22.11	198.78	7.77	-36.7	-37.8	21.9	0.00e+00	122	29	0	2414870528	44	6815
2026-01-14 14:47:26.14	198.82	7.45	-36.9	-38.0	21.7	0.00e+00	122	29	0	2427453440	46	6252
2026-01-14 14:47:30.18	198.87	7.14	-37.1	-38.2	21.4	0.00e+00	122	29	0	2440036352	46	6408
2026-01-14 14:47:34.22	198.91	6.83	-37.4	-38.6	21.1	0.00e+00	123	29	0	2452619264	46	6651
2026-01-14 14:47:38.26	198.96	6.52	-37.4	-38.5	21.0	0.00e+00	122	29	0	2465202176	46	6644
2026-01-14 14:47:42.30	199.00	6.21	-37.8	-38.9	20.7	0.00e+00	123	29	0	2477785088	48	6196
2026-01-14 14:47:46.34	199.04	5.91	-37.7	-38.8	20.6	0.00e+00	118	29	0	2490368000	48	6125
2026-01-14 14:47:50.38	199.09	5.61	-38.0	-39.2	20.4	0.00e+00	120	29	0	2502950912	48	6404
2026-01-14 14:47:54.42	199.13	5.32	-38.2	-39.4	20.2	0.00e+00	123	29	0	2515533824	48	6524
2026-01-14 14:47:58.46	199.17	5.03	-38.7	-39.9	19.6	0.00e+00	123	29	0	2528116736	48	6933
2026-01-14 14:48:02.50	199.21	4.74	-38.4	-39.6	19.9	0.00e+00	122	29	0	2540699648	48	6686
2026-01-14 14:48:06.54	199.25	4.46	-39.0	-40.3	19.4	0.00e+00	120	29	0	2553282560	50	6438
2026-01-14 14:48:10.57	199.29	4.18	-38.8	-40.1	19.3	0.00e+00	121	29	0	2565865472	50	6347
2026-01-14 14:48:14.61	199.33	3.90	-39.0	-40.4	19.0	0.00e+00	123	29	0	2578448384	50	6518
2026-01-14 14:48:18.64	199.36	3.62	-39.1	-40.5	18.9	0.00e+00	123	29	0	2592079872	50	6610
2026-01-14 14:48:22.68	199.40	3.35	-39.3	-40.8	18.5	0.00e+00	123	29	0	2604662784	50	6806
2026-01-14 14:48:26.72	199.44	3.08	-39.4	-40.9	18.4	0.00e+00	120	29	0	2617245696	50	6886
2026-01-14 14:48:30.76	199.48	2.81	-48.6	-61.4	3.5	1.52e+00	0	29	104	2619342848	60	41268
2026-01-14 14:48:34.79	199.51	2.55	-48.8	-61.7	3.5	1.52e+00	0	29	104	2619342848	60	42546
2026-01-14 14:48:38.83	199.55	2.28	-48.9	-61.8	3.5	1.52e+00	0	29	104	2619342848	60	43028
2026-01-14 14:48:42.87	199.59	2.02	-48.7	-61.5	3.5	1.52e+00	0	29	104	2619342848	60	41946
2026-01-14 14:48:46.91	199.62	1.76	-48.8	-61.6	3.5	1.52e+00	0	29	104	2619342848	60	42373
2026-01-14 14:48:50.94	199.66	1.51	-48.8	-61.6	3.5	1.52e+00	0	29	104	2619342848	60	42326
2026-01-14 14:48:54.98	199.69	1.26	-48.8	-61.6	3.5	1.52e+00	0	29	104	2619342848	60	42003
2026-01-14 14:48:59.02	199.72	1.00	-48.7	-61.6	3.5	1.52e+00	0	29	104	2619342848	60	42220
2026-01-14 14:49:03.06	199.76	0.75	-48.7	-61.6	3.5	1.52e+00	0	29	104	2619342848	60	42174
2026-01-14 14:49:07.10	199.79	0.51	-48.7	-61.6	3.5	1.52e+00	0	29	104	2619342848	60	42001
2026-01-14 14:49:11.14	199.82	0.26	-48.7	-61.6	3.5	1.52e+00	0	29	104	2619342848	60	41969
2026-01-14 14:49:15.17	199.86	0.02	-48.7	-61.6	3.5	1.51e+00	0	29	104	2619342848	60	41992

#Closed at: 2026-01-14 14:49:17
#Recorded file [2619 MB]: D:/lorett/data/35029_260115_023342.dat