passes_logs/2026/01/14/R4.6S_Anadyr/R4.6S_Anadyr__20260114_180656_AQUA_rec.log

#Pass ID: 20260114_180656_AQUA
#Satellite: AQUA
#Configuration: AQUA
#almurnet v.1.7.20251203
#Start time: 2026-01-14 18:06:57

#Version: 2.2.20231116
#Station: R4.6S_Anadyr
#Location: 177.4865 lon 64.73178 lat
#TLE: 1 27424U 02022A   26013.85306262  .00000759  00000+0  16188-3 0  9996
#TLE: 2 27424  98.4079 340.2612 0002043  79.8220 301.8652 14.61819210260728

#Time	Az	El	Level	Level2	SNR	BER	BlckErr	Temp	State	Recorded	gain1	gain2
2026-01-14 18:06:57.74	23.39	0.08	-48.7	-60.4	3.5	8.44e-01	0	26	0	0	60	37726
2026-01-14 18:07:00.77	23.24	0.26	-49.1	-67.0	3.5	3.02e+01	0	27	104	0	60	86083
2026-01-14 18:07:03.80	23.09	0.43	-49.2	-67.1	3.5	3.02e+01	0	28	104	0	60	87135
2026-01-14 18:07:06.83	22.93	0.61	-49.1	-67.0	3.5	3.02e+01	0	28	104	0	60	85687
2026-01-14 18:07:09.86	22.78	0.79	-48.5	-66.5	3.5	3.02e+01	0	28	104	0	60	81770
2026-01-14 18:07:12.89	22.62	0.97	-48.0	-65.9	3.5	3.02e+01	0	28	104	0	60	75899
2026-01-14 18:07:15.93	22.45	1.15	-47.5	-65.5	3.5	3.02e+01	0	28	104	0	60	72512
2026-01-14 18:07:18.96	22.29	1.33	-47.5	-65.5	3.5	3.02e+01	0	28	104	0	60	72211
2026-01-14 18:07:21.99	22.12	1.51	-47.5	-65.5	3.5	3.02e+01	0	28	104	0	60	72775
2026-01-14 18:07:25.02	21.96	1.70	-47.5	-65.5	3.5	3.02e+01	0	28	104	0	60	72513
2026-01-14 18:07:28.04	21.79	1.88	-47.5	-65.5	3.5	3.02e+01	0	28	104	0	60	72210
2026-01-14 18:07:31.07	21.61	2.07	-47.5	-65.5	3.5	3.02e+01	0	28	104	0	60	72733
2026-01-14 18:07:34.11	21.43	2.25	-47.5	-65.3	3.5	3.02e+01	0	28	104	0	60	71030
2026-01-14 18:07:37.13	21.26	2.44	-47.5	-65.4	3.5	3.02e+01	0	28	104	0	60	71610
2026-01-14 18:07:40.16	21.08	2.63	-47.5	-65.5	3.5	3.02e+01	0	28	104	0	60	72260
2026-01-14 18:07:43.19	20.89	2.82	-47.5	-65.4	3.5	3.02e+01	0	28	104	0	60	71701
2026-01-14 18:07:46.22	20.70	3.01	-47.4	-64.9	3.5	3.02e+01	0	28	104	0	60	67647
2026-01-14 18:07:49.25	20.51	3.20	-47.4	-64.8	3.5	3.02e+01	0	28	104	0	60	67052
2026-01-14 18:07:52.28	20.32	3.40	-44.9	-57.5	3.5	3.02e+01	0	28	104	0	60	28811
2026-01-14 18:07:55.31	20.13	3.59	-43.5	-55.3	3.5	3.02e+01	0	28	104	0	60	22388
2026-01-14 18:07:58.33	19.93	3.78	-47.6	-65.3	3.5	3.02e+01	0	28	104	0	60	70475
2026-01-14 18:08:01.36	19.72	3.98	-40.3	-51.0	3.5	3.02e+01	0	28	104	0	56	17220
2026-01-14 18:08:04.39	19.52	4.18	-38.0	-48.4	3.5	3.02e+01	0	28	104	0	52	15978
2026-01-14 18:08:07.42	19.31	4.38	-47.5	-64.0	3.5	3.02e+01	0	28	104	0	60	61198
2026-01-14 18:08:10.45	19.10	4.58	-40.1	-50.9	3.5	3.02e+01	0	28	104	0	54	19038
2026-01-14 18:08:13.47	18.89	4.78	-37.8	-48.3	3.5	3.02e+01	0	28	104	0	50	17798
2026-01-14 18:08:16.50	18.67	4.99	-47.2	-62.5	3.5	3.02e+01	0	28	104	0	60	51370
2026-01-14 18:08:19.53	18.44	5.19	-39.0	-49.6	3.5	3.02e+01	0	28	104	0	54	16327
2026-01-14 18:08:22.56	18.22	5.40	-37.8	-48.2	3.5	3.02e+01	0	28	104	0	50	17674
2026-01-14 18:08:25.59	17.99	5.61	-47.6	-64.2	3.5	3.02e+01	0	28	104	0	60	62606
2026-01-14 18:08:28.62	17.76	5.81	-42.4	-53.5	3.5	3.02e+01	0	28	104	0	58	20395
2026-01-14 18:08:31.64	17.52	6.02	-39.3	-49.8	3.5	3.02e+01	0	28	104	0	54	16848
2026-01-14 18:08:34.67	17.28	6.24	-42.3	-53.4	3.5	3.02e+01	0	28	104	0	60	17981
2026-01-14 18:08:37.70	17.03	6.45	-41.2	-52.0	3.5	3.02e+01	0	28	104	0	58	17159
2026-01-14 18:08:40.72	16.78	6.66	-45.6	-58.3	3.5	3.02e+01	0	28	104	0	60	31493
2026-01-14 18:08:43.75	16.53	6.88	-46.0	-59.3	3.5	3.02e+01	0	28	104	0	60	35308
2026-01-14 18:08:46.77	16.27	7.10	-38.1	-48.5	3.5	3.02e+01	0	28	104	0	50	18197
2026-01-14 18:08:49.80	16.01	7.32	-41.9	-52.9	3.4	3.02e+01	0	28	104	0	56	21358
2026-01-14 18:08:52.83	15.74	7.54	-44.8	-57.1	3.5	3.02e+01	0	29	104	0	60	27496
2026-01-14 18:08:55.86	15.47	7.76	-44.5	-56.4	3.5	3.02e+01	0	28	104	0	60	25333
2026-01-14 18:08:58.88	15.20	7.99	-48.1	-65.2	3.5	3.02e+01	0	29	104	0	60	70338
2026-01-14 18:09:01.92	14.92	8.21	-37.4	-47.7	3.5	3.02e+01	0	29	104	0	48	18674
2026-01-14 18:09:04.94	14.63	8.44	-37.9	-48.3	3.5	3.02e+01	0	28	104	0	50	17860
2026-01-14 18:09:07.97	14.34	8.67	-46.4	-59.7	3.5	3.02e+01	0	28	104	0	60	37236
2026-01-14 18:09:11.00	14.04	8.90	-41.7	-52.6	3.5	3.02e+01	0	28	104	0	58	18475
2026-01-14 18:09:14.02	13.74	9.13	-40.8	-51.6	3.5	3.02e+01	0	29	104	0	56	18358
2026-01-14 18:09:17.05	13.44	9.36	-41.6	-52.6	3.6	3.02e+01	0	28	104	0	56	20681
2026-01-14 18:09:20.08	13.12	9.60	-37.2	-47.5	3.5	3.02e+01	0	28	104	0	46	20367
2026-01-14 18:09:23.11	12.80	9.84	-41.1	-51.9	3.5	3.02e+01	0	29	104	0	56	19011
2026-01-14 18:09:26.14	12.48	10.08	-41.4	-52.3	3.5	3.02e+01	0	29	104	0	56	19981
2026-01-14 18:09:29.16	12.15	10.32	-40.0	-50.5	3.5	3.02e+01	0	29	104	0	58	14499
2026-01-14 18:09:32.19	11.81	10.56	-40.3	-50.9	3.6	3.02e+01	0	29	104	0	56	16942
2026-01-14 18:09:35.22	11.47	10.80	-48.4	-65.6	3.6	3.02e+01	0	29	104	0	60	73728
2026-01-14 18:09:38.24	11.12	11.05	-44.7	-56.6	3.5	3.02e+01	0	29	104	0	60	26149
2026-01-14 18:09:41.27	10.77	11.30	-36.4	-46.7	3.5	3.02e+01	0	29	104	0	48	16587
2026-01-14 18:09:44.30	10.40	11.55	-36.1	-46.4	3.6	3.02e+01	0	29	104	0	48	15969
2026-01-14 18:09:47.32	10.04	11.80	-38.0	-48.3	3.5	3.02e+01	0	29	104	0	52	15934
2026-01-14 18:09:50.35	9.66	12.05	-38.9	-49.3	3.5	3.02e+01	0	29	104	0	54	15881
2026-01-14 18:09:53.38	9.28	12.31	-46.6	-59.8	3.5	3.02e+01	0	29	104	0	60	37746
2026-01-14 18:09:56.41	8.88	12.56	-39.9	-50.5	3.4	3.02e+01	0	29	104	0	58	14433
2026-01-14 18:09:59.44	8.49	12.82	-37.7	-48.0	3.5	3.02e+01	0	29	104	0	50	17239
2026-01-14 18:10:02.47	8.08	13.08	-35.7	-46.0	3.5	3.02e+01	0	29	104	0	46	17202
2026-01-14 18:10:05.50	7.66	13.34	-40.1	-50.6	3.6	3.02e+01	0	29	104	0	50	23155
2026-01-14 18:10:08.53	7.24	13.61	-36.7	-47.0	3.5	3.02e+01	0	29	104	0	48	17115
2026-01-14 18:10:11.55	6.81	13.87	-39.0	-49.4	3.5	3.02e+01	0	29	104	0	56	14374
2026-01-14 18:10:14.58	6.37	14.14	-38.7	-49.1	3.5	3.02e+01	0	29	104	0	54	15581
2026-01-14 18:10:17.61	5.92	14.41	-40.1	-50.7	3.5	3.02e+01	0	29	104	0	54	18697
2026-01-14 18:10:20.63	5.47	14.67	-42.4	-53.4	3.6	3.02e+01	0	28	104	0	56	22553
2026-01-14 18:10:23.66	5.00	14.95	-47.6	-62.0	3.5	3.02e+01	0	29	104	0	60	48449
2026-01-14 18:10:26.68	4.53	15.22	-39.4	-49.9	3.5	3.02e+01	0	29	104	0	54	17068
2026-01-14 18:10:29.71	4.04	15.49	-45.2	-57.4	3.5	3.02e+01	0	29	104	0	60	28446
2026-01-14 18:10:32.74	3.55	15.77	-48.3	-65.0	3.5	3.02e+01	0	29	104	0	60	68734
2026-01-14 18:10:35.77	3.04	16.05	-35.7	-46.0	3.5	3.02e+01	0	29	104	0	46	17203
2026-01-14 18:10:38.79	2.53	16.32	-39.7	-50.2	3.6	3.02e+01	0	29	104	0	54	17512
2026-01-14 18:10:41.82	2.00	16.60	-42.5	-53.5	3.5	3.02e+01	0	29	104	0	54	25679
2026-01-14 18:10:44.85	1.46	16.88	-39.2	-49.7	3.5	3.02e+01	0	29	104	0	52	18532
2026-01-14 18:10:47.88	0.92	17.16	-44.2	-55.8	3.5	3.02e+01	0	29	104	0	60	23739
2026-01-14 18:10:50.91	0.36	17.45	-48.6	-65.6	3.5	3.02e+01	0	29	104	0	60	73156
2026-01-14 18:10:53.94	359.79	17.73	-40.2	-50.7	3.5	3.02e+01	0	29	104	0	56	16662
2026-01-14 18:10:56.96	359.21	18.01	-46.4	-59.3	3.5	3.02e+01	0	29	104	0	60	35567
2026-01-14 18:10:59.99	358.61	18.30	-48.4	-64.1	3.5	3.02e+01	0	29	104	0	60	61794
2026-01-14 18:11:03.02	358.01	18.58	-35.3	-45.5	3.5	3.02e+01	0	29	104	0	46	16251
2026-01-14 18:11:06.05	357.39	18.87	-38.0	-48.3	3.5	3.02e+01	0	29	104	0	52	15941
2026-01-14 18:11:09.08	356.76	19.16	-46.0	-58.6	3.5	3.02e+01	0	29	104	0	60	32854
2026-01-14 18:11:12.11	356.11	19.44	-39.1	-49.6	3.6	3.02e+01	0	29	104	0	54	16366
2026-01-14 18:11:15.13	355.46	19.73	-46.0	-58.6	3.5	3.02e+01	0	29	104	0	60	32723
2026-01-14 18:11:18.16	354.79	20.01	-48.8	-66.0	3.5	3.02e+01	0	29	104	0	60	77066
2026-01-14 18:11:21.19	354.10	20.30	-40.3	-50.9	3.5	3.02e+01	0	29	104	0	54	18987
2026-01-14 18:11:24.22	353.41	20.58	-43.3	-54.5	3.5	3.02e+01	0	29	104	0	60	20393
2026-01-14 18:11:27.24	352.70	20.87	-48.6	-65.2	3.5	3.02e+01	0	29	104	0	60	70035
2026-01-14 18:11:30.28	351.97	21.15	-35.8	-46.0	3.5	3.02e+01	0	29	104	0	46	17152
2026-01-14 18:11:33.30	351.23	21.43	-36.6	-46.9	3.6	3.02e+01	0	29	104	0	50	15078
2026-01-14 18:11:36.33	350.48	21.71	-46.2	-58.9	3.5	3.02e+01	0	29	104	0	60	33995
2026-01-14 18:11:39.36	349.71	21.99	-38.7	-49.1	3.6	3.02e+01	0	29	104	0	52	17394
2026-01-14 18:11:42.38	348.93	22.26	-41.6	-52.4	3.6	3.02e+01	0	29	104	0	60	15979
2026-01-14 18:11:45.40	348.13	22.53	-48.6	-65.1	3.6	3.02e+01	0	29	104	0	60	68940
2026-01-14 18:11:48.43	347.32	22.80	-40.4	-51.0	3.5	3.02e+01	0	29	104	0	54	19336
2026-01-14 18:11:51.45	346.50	23.07	-38.8	-49.2	3.5	3.02e+01	0	29	104	0	56	14031
2026-01-14 18:11:54.48	345.65	23.34	-47.5	-61.5	3.6	3.02e+01	0	29	104	0	60	45922
2026-01-14 18:11:57.51	344.80	23.60	-36.1	-46.3	3.5	3.02e+01	0	29	104	0	48	15845
2026-01-14 18:12:00.53	343.93	23.85	-37.4	-47.7	3.5	3.02e+01	0	29	104	0	46	20825
2026-01-14 18:12:03.56	343.04	24.10	-47.5	-61.7	3.5	3.02e+01	0	29	104	0	60	46600
2026-01-14 18:12:06.59	342.13	24.35	-41.9	-52.7	3.5	3.02e+01	0	29	104	0	60	16524
2026-01-14 18:12:09.62	341.22	24.59	-35.4	-45.6	3.4	3.02e+01	0	29	104	0	48	14650
2026-01-14 18:12:12.64	340.29	24.83	-40.0	-50.6	3.5	3.02e+01	0	29	104	0	56	16328
2026-01-14 18:12:15.67	339.34	25.06	-39.0	-49.4	3.5	3.02e+01	0	29	104	0	52	18091
2026-01-14 18:12:18.70	338.38	25.29	-45.6	-57.7	3.4	3.02e+01	0	29	104	0	54	41619
2026-01-14 18:12:21.73	337.40	25.50	-38.6	-49.0	3.6	3.02e+01	0	29	104	0	54	15334
2026-01-14 18:12:24.76	336.41	25.71	-36.5	-46.8	3.5	3.02e+01	0	29	104	0	48	16732
2026-01-14 18:12:27.79	335.41	25.92	-46.7	-59.6	3.5	3.02e+01	0	29	104	0	58	41124
2026-01-14 18:12:30.81	334.39	26.11	-44.4	-55.8	3.5	3.02e+01	0	29	104	0	60	23763
2026-01-14 18:12:33.84	333.36	26.30	-41.0	-51.6	3.5	3.02e+01	0	29	104	0	58	16323
2026-01-14 18:12:36.87	332.32	26.48	-38.1	-48.4	3.5	3.02e+01	0	29	104	0	46	22789
2026-01-14 18:12:39.90	331.26	26.65	-39.3	-49.7	3.5	3.02e+01	0	29	104	0	54	16548
2026-01-14 18:12:42.93	330.20	26.81	-39.4	-49.9	3.5	3.02e+01	0	29	104	0	54	17000
2026-01-14 18:12:45.96	329.12	26.96	-48.7	-65.4	3.5	3.02e+01	0	29	104	0	60	72073
2026-01-14 18:12:48.99	328.03	27.10	-37.2	-47.5	3.5	3.02e+01	0	29	104	0	50	16184
2026-01-14 18:12:52.01	326.94	27.23	-36.2	-46.4	3.5	3.02e+01	0	29	104	0	48	16000
2026-01-14 18:12:55.04	325.83	27.35	-48.8	-65.4	3.5	3.02e+01	0	29	104	0	60	71292
2026-01-14 18:12:58.07	324.71	27.46	-43.7	-54.9	3.5	3.02e+01	0	29	104	0	60	21353
2026-01-14 18:13:01.10	323.59	27.55	-42.8	-45.3	5.1	3.02e+01	29	29	104	0	60	7054
2026-01-14 18:13:04.13	322.46	27.64	-43.6	-45.9	21.0	3.02e+01	57	29	0	4194304	60	7634
2026-01-14 18:13:07.15	321.33	27.71	-38.9	-40.3	26.0	3.02e+01	62	29	0	9437184	52	6342
2026-01-14 18:13:10.18	320.19	27.77	-38.3	-39.6	26.5	3.02e+01	44	29	0	15204352	52	5852
2026-01-14 18:13:13.22	319.04	27.82	-36.8	-38.1	28.1	3.02e+01	44	29	0	20971520	50	5492
2026-01-14 18:13:16.25	317.89	27.86	-36.1	-37.4	28.6	3.02e+01	59	29	0	26738688	48	5661
2026-01-14 18:13:19.27	316.75	27.89	-36.1	-37.3	28.8	3.02e+01	58	29	0	32505856	46	6320
2026-01-14 18:13:22.30	315.59	27.90	-35.2	-36.4	29.6	3.02e+01	59	29	0	38273024	46	5664
2026-01-14 18:13:25.33	314.44	27.90	-35.5	-36.7	29.3	3.02e+01	61	29	0	43515904	46	5887
2026-01-14 18:13:28.36	313.29	27.89	-36.0	-37.2	28.7	3.02e+01	61	29	0	49283072	46	6274
2026-01-14 18:13:31.39	312.14	27.86	-35.2	-36.4	29.4	3.02e+01	63	29	0	55050240	46	5711
2026-01-14 18:13:34.42	310.99	27.82	-36.0	-37.3	28.7	3.02e+01	44	29	0	60817408	46	6315
2026-01-14 18:13:37.45	309.84	27.77	-35.3	-36.5	29.3	3.02e+01	55	29	0	66584576	46	5777
2026-01-14 18:13:40.48	308.70	27.71	-35.4	-36.6	29.1	3.02e+01	59	29	0	72351744	46	5843
2026-01-14 18:13:43.50	307.57	27.64	-36.4	-37.7	28.1	3.02e+01	60	29	0	77594624	46	6620
2026-01-14 18:13:46.53	306.44	27.55	-36.3	-37.6	28.1	3.02e+01	61	29	0	83361792	46	6539
2026-01-14 18:13:49.56	305.32	27.46	-35.5	-36.7	29.4	3.02e+01	60	29	0	89128960	46	5873
2026-01-14 18:13:52.59	304.20	27.35	-34.9	-36.1	29.7	3.02e+01	61	29	0	94896128	46	5490
2026-01-14 18:13:55.62	303.09	27.23	-36.1	-37.4	28.5	3.02e+01	52	29	0	100663296	46	6396
2026-01-14 18:13:58.65	301.99	27.10	-36.0	-37.2	28.3	3.02e+01	47	29	0	106430464	46	6250
2026-01-14 18:14:01.67	300.91	26.96	-35.1	-36.3	29.6	3.02e+01	59	29	0	111673344	46	5607
2026-01-14 18:14:04.70	299.83	26.81	-35.7	-36.9	28.9	3.02e+01	60	29	0	117440512	46	6056
2026-01-14 18:14:07.73	298.76	26.65	-35.7	-36.9	29.1	3.02e+01	62	29	0	123207680	46	6030
2026-01-14 18:14:10.76	297.70	26.48	-35.7	-36.9	28.9	3.02e+01	59	29	0	128974848	46	6050
2026-01-14 18:14:13.79	296.66	26.30	-35.4	-36.6	29.1	3.02e+01	60	29	0	134742016	46	5848
2026-01-14 18:14:16.81	295.63	26.11	-35.7	-36.9	29.0	3.02e+01	44	29	0	140509184	46	6008
2026-01-14 18:14:19.84	294.61	25.91	-35.6	-36.8	29.1	3.02e+01	44	29	0	145752064	46	5928
2026-01-14 18:14:22.87	293.60	25.71	-35.5	-36.7	29.0	3.02e+01	57	29	0	151519232	46	5919
2026-01-14 18:14:25.90	292.61	25.50	-36.4	-37.7	27.7	3.02e+01	59	29	0	157286400	48	5869
2026-01-14 18:14:28.93	291.63	25.28	-36.6	-37.9	27.9	3.02e+01	62	29	0	163053568	46	6756
2026-01-14 18:14:31.96	290.67	25.05	-36.6	-38.0	28.0	3.02e+01	60	29	0	168820736	46	6818
2026-01-14 18:14:34.99	289.72	24.82	-35.7	-36.9	28.7	3.02e+01	53	29	0	174587904	46	6019
2026-01-14 18:14:38.02	288.78	24.58	-35.8	-37.0	28.6	3.02e+01	61	29	0	179830784	46	6082
2026-01-14 18:14:41.05	287.86	24.34	-36.8	-38.1	28.2	3.02e+01	49	29	0	185597952	46	6917
2026-01-14 18:14:44.08	286.96	24.09	-35.7	-36.9	29.0	3.02e+01	50	29	0	191365120	46	6020
2026-01-14 18:14:47.11	286.07	23.84	-36.4	-37.7	28.2	3.02e+01	61	29	0	197132288	46	6609
2026-01-14 18:14:50.13	285.19	23.58	-35.5	-36.7	28.9	3.02e+01	59	29	0	202899456	46	5904
2026-01-14 18:14:53.16	284.33	23.32	-36.2	-37.4	28.4	3.02e+01	60	29	0	208666624	46	6411
2026-01-14 18:14:56.19	283.49	23.06	-35.9	-37.1	28.8	3.02e+01	59	29	0	213909504	46	6204
2026-01-14 18:14:59.22	282.66	22.79	-35.8	-37.0	28.8	3.02e+01	60	29	0	219676672	46	6099
2026-01-14 18:15:02.24	281.85	22.52	-35.9	-37.1	28.8	3.02e+01	44	29	0	225443840	46	6199
2026-01-14 18:15:05.27	281.05	22.24	-36.2	-37.5	28.4	3.02e+01	53	29	0	231211008	46	6437
2026-01-14 18:15:08.30	280.26	21.97	-35.8	-37.1	28.7	3.02e+01	59	29	0	236978176	46	6137
2026-01-14 18:15:11.33	279.49	21.69	-36.0	-37.3	28.6	3.02e+01	60	29	0	242745344	46	6283
2026-01-14 18:15:14.36	278.73	21.41	-36.1	-37.3	28.4	3.02e+01	61	29	0	247988224	46	6338
2026-01-14 18:15:17.39	277.99	21.13	-36.2	-37.4	28.4	3.02e+01	59	29	0	253755392	46	6398
2026-01-14 18:15:20.41	277.27	20.84	-36.0	-37.3	28.7	3.02e+01	60	29	0	259522560	46	6294
2026-01-14 18:15:23.44	276.55	20.56	-35.8	-37.1	28.8	3.02e+01	62	29	0	265289728	46	6138
2026-01-14 18:15:26.47	275.86	20.27	-35.6	-36.7	29.0	3.02e+01	52	29	0	271056896	46	5921
2026-01-14 18:15:29.50	275.17	19.99	-36.0	-37.2	28.3	3.02e+01	59	29	0	276299776	46	6239
2026-01-14 18:15:32.53	274.50	19.70	-36.5	-37.8	28.2	3.02e+01	59	29	0	282066944	46	6663
2026-01-14 18:15:35.56	273.84	19.41	-35.1	-36.3	29.4	3.02e+01	54	29	0	287834112	46	5634
2026-01-14 18:15:38.59	273.19	19.13	-36.0	-37.3	28.5	3.02e+01	54	29	0	293601280	46	6333
2026-01-14 18:15:41.62	272.56	18.84	-35.8	-36.9	28.9	3.02e+01	57	29	0	299368448	46	6061
2026-01-14 18:15:44.65	271.94	18.55	-36.1	-37.4	28.5	3.02e+01	58	29	0	305135616	46	6361
2026-01-14 18:15:47.68	271.33	18.27	-35.7	-36.9	28.9	3.02e+01	54	29	0	310902784	46	6064
2026-01-14 18:15:50.71	270.73	17.98	-35.8	-37.0	28.8	3.02e+01	44	29	0	316145664	46	6129
2026-01-14 18:15:53.74	270.15	17.69	-35.6	-36.9	29.0	3.02e+01	61	29	0	321912832	46	5998
2026-01-14 18:15:56.77	269.58	17.41	-35.7	-37.0	28.9	3.02e+01	59	29	0	327680000	46	6065
2026-01-14 18:15:59.80	269.02	17.13	-35.7	-36.9	28.8	3.02e+01	60	29	0	333447168	46	6063
2026-01-14 18:16:02.82	268.47	16.84	-35.7	-36.9	28.8	3.02e+01	57	29	0	339214336	46	6016
2026-01-14 18:16:05.85	267.93	16.56	-35.5	-36.8	29.0	3.02e+01	62	29	0	344457216	46	5934
2026-01-14 18:16:08.88	267.40	16.28	-35.8	-37.0	28.7	3.02e+01	45	29	0	350224384	46	6109
2026-01-14 18:16:11.91	266.88	16.00	-35.9	-37.1	28.6	3.02e+01	53	29	0	355991552	46	6203
2026-01-14 18:16:14.94	266.38	15.73	-35.7	-37.0	28.8	3.02e+01	60	29	0	361758720	46	6072
2026-01-14 18:16:17.96	265.88	15.45	-35.7	-36.9	28.8	3.02e+01	59	29	0	367525888	46	6023
2026-01-14 18:16:20.99	265.39	15.17	-35.6	-36.9	28.8	3.02e+01	61	29	0	373293056	46	6013
2026-01-14 18:16:24.02	264.91	14.90	-35.7	-37.0	28.7	3.02e+01	57	29	0	379060224	46	6074
2026-01-14 18:16:27.05	264.45	14.63	-36.0	-37.2	28.6	3.02e+01	59	29	0	384303104	46	6251
2026-01-14 18:16:30.08	263.99	14.36	-35.7	-36.9	28.7	3.02e+01	62	29	0	390070272	46	6045
2026-01-14 18:16:33.11	263.54	14.09	-35.7	-36.9	28.7	3.02e+01	54	29	0	395837440	46	6012
2026-01-14 18:16:36.13	263.10	13.82	-35.9	-37.2	28.4	3.02e+01	51	29	0	401604608	46	6231
2026-01-14 18:16:39.16	262.66	13.56	-35.9	-37.2	28.5	3.02e+01	58	29	0	407371776	46	6227
2026-01-14 18:16:42.19	262.24	13.29	-35.7	-36.9	28.7	3.02e+01	58	29	0	412614656	46	6021
2026-01-14 18:16:45.22	261.82	13.03	-35.8	-37.1	28.6	3.02e+01	57	29	0	418381824	46	6136
2026-01-14 18:16:48.25	261.41	12.77	-36.2	-37.5	28.1	3.02e+01	56	29	0	424148992	46	6442
2026-01-14 18:16:51.27	261.01	12.51	-36.2	-37.4	28.2	3.02e+01	57	29	0	429916160	46	6417
2026-01-14 18:16:54.29	260.62	12.25	-35.9	-37.2	28.4	3.02e+01	55	29	0	435683328	46	6210
2026-01-14 18:16:57.32	260.24	12.00	-36.0	-37.3	28.4	3.02e+01	44	29	0	441450496	46	6300
2026-01-14 18:17:00.35	259.86	11.74	-36.0	-37.3	28.2	3.02e+01	59	29	0	446693376	46	6304
2026-01-14 18:17:03.37	259.49	11.49	-36.1	-37.4	28.2	3.02e+01	59	29	0	452460544	46	6360
2026-01-14 18:17:06.40	259.12	11.24	-36.2	-37.4	28.1	3.02e+01	60	29	0	458227712	46	6408
2026-01-14 18:17:09.43	258.76	10.99	-36.3	-37.6	28.1	3.02e+01	55	29	0	463994880	46	6507
2026-01-14 18:17:12.46	258.41	10.75	-36.4	-37.7	28.0	3.02e+01	59	29	0	469762048	46	6583
2026-01-14 18:17:15.48	258.07	10.50	-36.5	-37.8	27.9	3.02e+01	48	29	0	475529216	46	6676
2026-01-14 18:17:18.51	257.73	10.26	-36.4	-37.7	28.0	3.02e+01	47	29	0	480772096	46	6594
2026-01-14 18:17:21.54	257.40	10.02	-36.5	-37.8	27.8	3.02e+01	60	29	0	486539264	46	6659
2026-01-14 18:17:24.57	257.07	9.78	-36.7	-38.0	27.6	3.02e+01	61	29	0	492306432	46	6855
2026-01-14 18:17:27.60	256.75	9.54	-36.6	-37.9	27.6	3.02e+01	57	29	0	498073600	46	6730
2026-01-14 18:17:30.62	256.44	9.30	-36.6	-37.9	27.7	3.02e+01	58	29	0	503840768	46	6754
2026-01-14 18:17:33.65	256.13	9.07	-36.7	-38.0	27.5	3.02e+01	59	29	0	509083648	46	6845
2026-01-14 18:17:36.68	255.83	8.84	-37.0	-38.3	27.3	3.02e+01	51	29	0	514850816	48	6313
2026-01-14 18:17:39.71	255.53	8.60	-36.9	-38.3	27.2	3.02e+01	56	29	0	520617984	48	6289
2026-01-14 18:17:42.74	255.23	8.37	-36.8	-38.1	27.3	3.02e+01	46	29	0	526385152	48	6159
2026-01-14 18:17:45.77	254.95	8.15	-36.7	-38.0	27.4	3.02e+01	60	29	0	532152320	48	6077
2026-01-14 18:17:48.80	254.66	7.92	-36.9	-38.2	27.2	3.02e+01	57	29	0	537919488	48	6257
2026-01-14 18:17:51.83	254.39	7.70	-37.1	-38.5	27.0	3.02e+01	57	29	0	543686656	48	6430
2026-01-14 18:17:54.86	254.11	7.47	-37.3	-38.6	26.8	3.02e+01	62	29	0	548929536	48	6564
2026-01-14 18:17:57.88	253.84	7.25	-37.1	-38.5	26.9	3.02e+01	59	29	0	554696704	48	6472
2026-01-14 18:18:00.91	253.58	7.03	-37.3	-38.6	26.8	3.02e+01	54	29	0	560463872	48	6560
2026-01-14 18:18:03.94	253.32	6.81	-37.4	-38.8	26.6	3.02e+01	45	29	0	566231040	48	6662
2026-01-14 18:18:06.97	253.06	6.60	-37.5	-38.9	26.5	3.02e+01	60	29	0	571998208	48	6735
2026-01-14 18:18:10.00	252.81	6.38	-37.4	-38.8	26.5	3.02e+01	60	29	0	577241088	48	6674
2026-01-14 18:18:13.03	252.57	6.17	-37.5	-38.8	26.5	3.02e+01	62	29	0	583008256	48	6717
2026-01-14 18:18:16.05	252.32	5.95	-37.4	-38.8	26.5	3.02e+01	59	29	0	588775424	48	6711
2026-01-14 18:18:19.08	252.08	5.74	-37.7	-39.1	26.2	3.02e+01	60	29	0	594542592	48	6925
2026-01-14 18:18:22.10	251.85	5.53	-37.8	-39.2	26.2	3.02e+01	60	29	0	600309760	48	6994
2026-01-14 18:18:25.13	251.62	5.33	-37.7	-39.1	26.2	3.02e+01	53	29	0	606076928	50	6192
2026-01-14 18:18:28.16	251.39	5.12	-37.7	-39.1	26.2	3.02e+01	49	29	0	611319808	50	6193
2026-01-14 18:18:31.19	251.17	4.91	-37.9	-39.4	25.9	3.02e+01	61	29	0	617086976	50	6353
2026-01-14 18:18:34.21	250.95	4.71	-37.9	-39.4	25.8	3.02e+01	58	29	0	622854144	50	6400
2026-01-14 18:18:37.24	250.73	4.51	-37.9	-39.4	25.8	3.02e+01	60	29	0	628621312	50	6377
2026-01-14 18:18:40.27	250.52	4.31	-38.1	-39.6	25.5	3.02e+01	59	29	0	634388480	50	6536
2026-01-14 18:18:43.30	250.30	4.11	-37.9	-39.4	25.7	3.02e+01	59	29	0	640155648	50	6379
2026-01-14 18:18:46.32	250.10	3.91	-38.1	-39.6	25.4	3.02e+01	61	29	0	645398528	50	6549
2026-01-14 18:18:49.35	249.89	3.71	-38.3	-39.8	25.2	3.02e+01	45	29	0	651165696	50	6689
2026-01-14 18:18:52.38	249.69	3.51	-38.6	-40.2	24.7	3.02e+01	57	29	0	656932864	50	7029
2026-01-14 18:18:55.41	249.50	3.32	-38.8	-40.4	24.6	3.02e+01	64	29	0	662700032	52	6385
2026-01-14 18:18:58.43	249.30	3.13	-38.8	-40.4	24.5	3.02e+01	59	29	0	668467200	52	6388
2026-01-14 18:19:01.46	249.11	2.93	-48.6	-66.5	3.5	3.02e+01	0	29	104	672137216	60	81043
2026-01-14 18:19:04.49	248.92	2.74	-49.1	-67.0	3.5	3.02e+01	0	29	104	672137216	60	86262
2026-01-14 18:19:07.51	248.73	2.55	-49.2	-67.1	3.5	3.02e+01	0	29	104	672137216	60	86882
2026-01-14 18:19:10.54	248.55	2.36	-49.2	-67.2	3.5	3.02e+01	0	29	104	672137216	60	87912
2026-01-14 18:19:13.57	248.37	2.18	-49.1	-67.0	3.5	3.02e+01	0	29	104	672137216	60	86352
2026-01-14 18:19:16.60	248.19	1.99	-48.5	-67.0	3.5	3.02e+01	0	29	104	672137216	60	86252
2026-01-14 18:19:19.63	248.01	1.80	-49.2	-67.1	3.5	3.02e+01	0	29	104	672137216	60	86951
2026-01-14 18:19:22.66	247.84	1.62	-49.2	-67.0	3.5	3.02e+01	0	29	104	672137216	60	86399
2026-01-14 18:19:25.69	247.67	1.44	-49.1	-67.0	3.5	3.02e+01	0	29	104	672137216	60	86408
2026-01-14 18:19:28.72	247.50	1.25	-49.1	-67.0	3.6	3.02e+01	0	29	104	672137216	60	86473
2026-01-14 18:19:31.74	247.34	1.07	-49.1	-67.0	3.5	3.02e+01	0	29	104	672137216	60	86445
2026-01-14 18:19:34.77	247.17	0.89	-49.1	-67.0	3.5	3.02e+01	0	29	104	672137216	60	86130
2026-01-14 18:19:37.80	247.01	0.71	-49.1	-67.0	3.5	3.02e+01	0	29	104	672137216	60	86260
2026-01-14 18:19:40.83	246.85	0.53	-49.1	-67.0	3.5	3.02e+01	0	29	104	672137216	60	85848
2026-01-14 18:19:43.86	246.69	0.36	-49.1	-67.0	3.5	3.02e+01	0	29	104	672137216	60	85765
2026-01-14 18:19:46.89	246.54	0.18	-49.1	-67.0	3.5	3.02e+01	0	29	104	672137216	60	85883
2026-01-14 18:19:49.92	246.39	0.00	-49.1	-67.0	3.5	3.02e+01	0	29	104	672137216	60	86098

#Closed at: 2026-01-14 18:19:52
#Recorded file [672 MB]: D:/lorett/data/35029_260115_060657.dat