passes_logs/2026/01/14/R4.6S_Anadyr/R4.6S_Anadyr__20260114_233905_NOAA_20_JPSS-1_rec.log

#Pass ID: 20260114_233905_NOAA 20 (JPSS-1)
#Satellite: NOAA 20 (JPSS-1)
#Configuration: NOAA 20
#almurnet v.1.7.20251203
#Start time: 2026-01-14 23:39:06

#Version: 2.2.20231116
#Station: R4.6S_Anadyr
#Location: 177.4865 lon 64.73178 lat
#TLE: 1 43013U 17073A   26014.55467351  .00000038  00000+0  38801-4 0  9992
#TLE: 2 43013  98.7635 315.4987 0001517  39.9279 320.2008 14.19535859422677

#Time	Az	El	Level	Level2	SNR	BER	BlckErr	Temp	State	Recorded	gain1	gain2
2026-01-14 23:39:06.05	142.27	0.03	-48.8	-63.7	3.5	1.51e+00	0	27	0	0	60	55029
2026-01-14 23:39:10.09	142.22	0.28	-48.9	-64.1	3.6	1.51e+00	0	28	104	0	60	57888
2026-01-14 23:39:14.13	142.16	0.52	-48.9	-64.1	3.6	1.51e+00	0	28	104	0	60	57725
2026-01-14 23:39:18.16	142.11	0.77	-48.5	-63.7	3.6	1.51e+00	0	28	104	0	60	55357
2026-01-14 23:39:22.20	142.06	1.02	-45.8	-61.0	3.6	1.51e+00	0	28	104	0	60	40331
2026-01-14 23:39:26.24	142.00	1.27	-45.5	-60.5	3.6	1.51e+00	0	28	104	0	60	38375
2026-01-14 23:39:30.29	141.95	1.52	-45.6	-60.7	3.7	1.51e+00	0	28	104	0	60	39355
2026-01-14 23:39:34.33	141.89	1.77	-45.6	-60.5	3.6	1.51e+00	0	28	104	0	60	38347
2026-01-14 23:39:38.37	141.83	2.03	-45.6	-60.7	3.6	1.51e+00	0	28	104	0	60	39304
2026-01-14 23:39:42.41	141.77	2.29	-45.6	-60.5	3.6	1.51e+00	0	29	104	0	60	38268
2026-01-14 23:39:46.44	141.71	2.55	-45.6	-60.5	3.6	1.51e+00	0	29	104	0	60	38267
2026-01-14 23:39:50.49	141.65	2.82	-45.6	-60.4	3.6	1.51e+00	0	29	104	0	60	38016
2026-01-14 23:39:54.52	141.59	3.08	-45.6	-60.1	3.6	1.51e+00	0	29	104	0	60	36652
2026-01-14 23:39:58.56	141.52	3.35	-45.6	-60.0	3.6	1.51e+00	0	29	104	0	60	36211
2026-01-14 23:40:02.60	141.46	3.63	-45.5	-58.7	3.6	1.51e+00	0	29	104	0	60	31198
2026-01-14 23:40:06.64	141.39	3.90	-45.2	-60.2	3.6	1.14e+00	0	29	104	0	60	37178
2026-01-14 23:40:10.68	141.32	4.18	-45.0	-53.2	5.5	5.50e-01	41	29	0	1048576	60	16428
2026-01-14 23:40:14.72	141.25	4.46	-45.1	-53.1	5.6	2.99e-01	92	29	0	8388608	60	16297
2026-01-14 23:40:18.75	141.18	4.74	-45.1	-52.1	6.6	1.56e-01	92	29	0	15728640	60	14638
2026-01-14 23:40:22.79	141.11	5.03	-44.9	-51.5	7.4	1.07e-01	92	29	0	24117248	60	13609
2026-01-14 23:40:26.83	141.03	5.32	-44.6	-50.5	7.8	9.31e-02	0	29	0	31457280	60	12169
2026-01-14 23:40:30.87	140.95	5.61	-44.6	-50.1	7.7	1.31e-01	92	29	0	38797312	60	11508
2026-01-14 23:40:34.90	140.87	5.91	-44.4	-49.3	10.4	5.71e-02	90	29	0	46137344	60	10535
2026-01-14 23:40:38.94	140.79	6.20	-44.1	-48.4	11.3	1.60e-02	92	29	0	54525952	60	9521
2026-01-14 23:40:42.98	140.71	6.51	-43.6	-47.2	11.2	1.13e-02	0	29	0	61865984	60	8261
2026-01-14 23:40:47.02	140.62	6.81	-42.9	-45.8	14.1	3.13e-03	92	29	0	69206016	60	7081
2026-01-14 23:40:51.05	140.54	7.12	-42.2	-44.6	13.9	1.64e-03	92	29	0	76546048	58	6906
2026-01-14 23:40:55.08	140.45	7.43	-41.8	-44.0	14.5	1.40e-04	92	29	0	83886080	58	6417
2026-01-14 23:40:59.12	140.36	7.75	-41.0	-42.8	17.9	0.00e+00	19	29	0	92274688	56	6291
2026-01-14 23:41:03.16	140.26	8.07	-41.0	-42.6	18.4	0.00e+00	91	29	0	99614720	56	6167
2026-01-14 23:41:07.20	140.17	8.40	-39.9	-41.2	20.1	0.00e+00	91	29	0	106954752	54	5854
2026-01-14 23:41:11.24	140.07	8.73	-39.6	-40.9	20.4	0.00e+00	90	29	0	114294784	52	6352
2026-01-14 23:41:15.28	139.97	9.06	-38.9	-40.0	21.5	0.00e+00	86	29	0	122683392	52	5718
2026-01-14 23:41:19.32	139.86	9.40	-38.6	-39.7	22.0	0.00e+00	92	29	0	130023424	50	6183
2026-01-14 23:41:23.35	139.76	9.74	-38.5	-39.6	22.1	0.00e+00	92	29	0	137363456	50	6105
2026-01-14 23:41:27.39	139.65	10.09	-38.5	-39.6	21.8	0.00e+00	7	29	0	144703488	50	6119
2026-01-14 23:41:31.44	139.54	10.44	-38.2	-39.2	22.4	0.00e+00	92	29	0	152043520	50	5890
2026-01-14 23:41:35.48	139.42	10.80	-37.9	-38.8	22.9	0.00e+00	91	29	0	160432128	50	5607
2026-01-14 23:41:39.51	139.30	11.16	-37.7	-38.7	23.0	0.00e+00	92	29	0	167772160	48	6179
2026-01-14 23:41:43.55	139.18	11.53	-37.7	-38.7	23.2	0.00e+00	38	29	0	175112192	48	6182
2026-01-14 23:41:47.59	139.06	11.90	-37.6	-38.5	23.3	0.00e+00	92	29	0	182452224	48	6103
2026-01-14 23:41:51.63	138.93	12.28	-37.2	-38.0	23.7	0.00e+00	90	29	0	190840832	48	5759
2026-01-14 23:41:55.66	138.80	12.66	-37.0	-37.9	24.0	0.00e+00	92	29	0	198180864	48	5648
2026-01-14 23:41:59.70	138.66	13.05	-36.9	-37.8	24.1	0.00e+00	44	29	0	205520896	48	5573
2026-01-14 23:42:03.73	138.52	13.45	-36.8	-37.7	24.2	0.00e+00	91	29	0	212860928	48	5532
2026-01-14 23:42:07.77	138.38	13.85	-36.7	-37.5	24.3	0.00e+00	92	29	0	220200960	46	6081
2026-01-14 23:42:11.81	138.23	14.26	-36.8	-37.6	24.3	0.00e+00	92	29	0	228589568	46	6170
2026-01-14 23:42:15.85	138.07	14.68	-36.8	-37.6	24.4	0.00e+00	7	29	0	235929600	46	6143
2026-01-14 23:42:19.89	137.92	15.10	-36.8	-37.6	24.3	0.00e+00	92	29	0	243269632	46	6160
2026-01-14 23:42:23.93	137.75	15.53	-36.7	-37.6	24.3	0.00e+00	92	29	0	250609664	46	6130
2026-01-14 23:42:27.97	137.58	15.97	-36.8	-37.7	24.3	0.00e+00	38	29	0	258998272	46	6174
2026-01-14 23:42:32.01	137.41	16.41	-37.0	-37.8	24.2	0.00e+00	45	29	0	266338304	46	6302
2026-01-14 23:42:36.04	137.23	16.87	-36.8	-37.7	24.3	0.00e+00	92	29	0	273678336	46	6193
2026-01-14 23:42:40.08	137.05	17.33	-36.8	-37.6	24.4	0.00e+00	92	29	0	281018368	46	6163
2026-01-14 23:42:44.12	136.86	17.80	-36.7	-37.6	24.5	0.00e+00	40	29	0	288358400	46	6125
2026-01-14 23:42:48.15	136.66	18.28	-36.6	-37.4	24.5	0.00e+00	37	29	0	296747008	46	6023
2026-01-14 23:42:52.19	136.45	18.77	-36.7	-37.5	24.4	0.00e+00	91	29	0	304087040	46	6057
2026-01-14 23:42:56.23	136.24	19.26	-36.7	-37.6	24.5	0.00e+00	92	29	0	311427072	46	6118
2026-01-14 23:43:00.26	136.02	19.77	-36.6	-37.4	24.6	0.00e+00	0	29	0	318767104	46	6002
2026-01-14 23:43:04.30	135.80	20.29	-36.5	-37.3	24.6	0.00e+00	16	29	0	326107136	46	5961
2026-01-14 23:43:08.34	135.56	20.82	-36.5	-37.3	24.7	0.00e+00	92	29	0	334495744	46	5933
2026-01-14 23:43:12.37	135.32	21.35	-36.4	-37.2	24.7	0.00e+00	92	29	0	341835776	46	5892
2026-01-14 23:43:16.41	135.07	21.90	-36.5	-37.3	24.8	0.00e+00	92	29	0	349175808	46	5944
2026-01-14 23:43:20.44	134.80	22.46	-36.6	-37.4	24.7	0.00e+00	91	29	0	356515840	46	6004
2026-01-14 23:43:24.48	134.53	23.04	-36.8	-37.7	24.5	0.00e+00	90	29	0	364904448	46	6189
2026-01-14 23:43:28.52	134.25	23.62	-37.0	-37.9	24.3	0.00e+00	90	29	0	372244480	46	6338
2026-01-14 23:43:32.55	133.95	24.22	-37.1	-37.9	24.3	0.00e+00	70	29	0	379584512	46	6383
2026-01-14 23:43:36.59	133.65	24.83	-37.2	-38.1	24.1	0.00e+00	92	29	0	386924544	46	6484
2026-01-14 23:43:40.62	133.33	25.45	-37.4	-38.3	24.0	0.00e+00	92	29	0	394264576	46	6644
2026-01-14 23:43:44.66	132.99	26.09	-38.0	-38.9	23.5	0.00e+00	92	29	0	402653184	48	6375
2026-01-14 23:43:48.70	132.65	26.74	-38.7	-39.7	22.7	0.00e+00	42	29	0	409993216	48	6966
2026-01-14 23:43:52.73	132.29	27.41	-39.0	-40.0	22.5	0.00e+00	92	29	0	417333248	50	6417
2026-01-14 23:43:56.77	131.91	28.09	-39.0	-40.0	22.5	0.00e+00	92	29	0	424673280	50	6460
2026-01-14 23:44:00.81	131.51	28.79	-39.5	-40.5	22.1	0.00e+00	92	29	0	433061888	50	6836
2026-01-14 23:44:04.85	131.10	29.51	-39.8	-40.9	21.7	0.00e+00	0	29	0	440401920	52	6347
2026-01-14 23:44:08.88	130.66	30.23	-40.0	-41.1	21.5	0.00e+00	92	29	0	447741952	52	6513
2026-01-14 23:44:12.92	130.21	30.98	-40.2	-41.4	21.4	0.00e+00	92	29	0	455081984	52	6699
2026-01-14 23:44:16.96	129.73	31.75	-40.6	-41.8	20.9	0.00e+00	90	29	0	462422016	54	6303
2026-01-14 23:44:21.00	129.23	32.53	-40.6	-41.8	21.0	0.00e+00	0	29	0	470810624	54	6301
2026-01-14 23:44:25.03	128.71	33.33	-40.5	-41.7	20.9	0.00e+00	92	29	0	478150656	54	6218
2026-01-14 23:44:29.07	128.15	34.15	-40.7	-41.9	20.9	0.00e+00	93	29	0	485490688	54	6353
2026-01-14 23:44:33.10	127.57	34.99	-41.2	-42.5	20.2	0.00e+00	92	29	0	492830720	54	6843
2026-01-14 23:44:37.14	126.96	35.85	-40.8	-42.1	20.7	0.00e+00	0	29	0	501219328	54	6508
2026-01-14 23:44:41.18	126.31	36.73	-40.5	-41.7	21.0	0.00e+00	92	29	0	508559360	54	6234
2026-01-14 23:44:45.21	125.62	37.62	-39.9	-41.0	21.7	0.00e+00	92	29	0	515899392	54	5722
2026-01-14 23:44:49.25	124.90	38.54	-39.8	-40.8	21.9	0.00e+00	92	29	0	523239424	52	6301
2026-01-14 23:44:53.29	124.13	39.47	-39.6	-40.7	22.0	0.00e+00	92	29	0	530579456	52	6180
2026-01-14 23:44:57.32	123.31	40.43	-39.8	-40.9	21.8	0.00e+00	92	29	0	538968064	52	6326
2026-01-14 23:45:01.36	122.45	41.40	-39.8	-40.9	21.7	0.00e+00	92	29	0	546308096	52	6367
2026-01-14 23:45:05.40	121.52	42.39	-39.8	-40.9	21.8	0.00e+00	92	29	0	553648128	52	6346
2026-01-14 23:45:09.44	120.54	43.41	-39.6	-40.7	22.0	0.00e+00	92	29	0	560988160	52	6193
2026-01-14 23:45:13.48	119.50	44.43	-38.9	-39.9	22.7	0.00e+00	90	29	0	569376768	52	5655
2026-01-14 23:45:17.52	118.38	45.48	-39.0	-40.0	22.5	0.00e+00	90	29	0	576716800	50	6425
2026-01-14 23:45:21.55	117.19	46.53	-39.1	-40.1	22.5	0.00e+00	0	29	0	584056832	50	6480
2026-01-14 23:45:25.59	115.91	47.60	-39.1	-40.1	22.5	0.00e+00	92	29	0	591396864	50	6513
2026-01-14 23:45:29.63	114.53	48.68	-39.1	-40.1	22.5	0.00e+00	91	29	0	598736896	50	6503
2026-01-14 23:45:33.67	113.06	49.77	-38.5	-39.4	23.2	0.00e+00	91	29	0	607125504	50	5994
2026-01-14 23:45:37.71	111.48	50.86	-37.8	-38.7	23.7	0.00e+00	0	29	0	614465536	50	5559
2026-01-14 23:45:41.75	109.78	51.96	-37.9	-38.9	23.7	0.00e+00	90	29	0	621805568	50	5633
2026-01-14 23:45:45.79	107.94	53.05	-37.1	-38.0	24.3	0.00e+00	90	29	0	629145600	48	5699
2026-01-14 23:45:49.83	105.97	54.13	-37.2	-38.0	24.3	0.00e+00	90	29	0	637534208	46	6459
2026-01-14 23:45:53.87	103.84	55.19	-37.2	-38.0	24.2	0.00e+00	0	29	0	644874240	46	6450
2026-01-14 23:45:57.90	101.55	56.23	-38.8	-39.8	22.8	0.00e+00	92	29	0	652214272	50	6267
2026-01-14 23:46:01.93	99.08	57.24	-39.2	-40.2	22.4	0.00e+00	92	29	0	659554304	50	6584
2026-01-14 23:46:05.97	96.42	58.22	-39.7	-40.8	21.9	0.00e+00	90	29	0	666894336	50	7063
2026-01-14 23:46:10.00	93.57	59.14	-39.6	-40.6	22.0	0.00e+00	58	29	0	675282944	52	6170
2026-01-14 23:46:14.03	90.52	60.01	-38.9	-39.9	22.6	0.00e+00	92	29	0	682622976	52	5633
2026-01-14 23:46:18.07	87.26	60.82	-37.8	-38.7	23.7	0.00e+00	92	29	0	689963008	48	6195
2026-01-14 23:46:22.10	83.80	61.54	-36.4	-37.2	24.9	0.00e+00	70	29	0	697303040	46	5858
2026-01-14 23:46:26.14	80.13	62.18	-35.6	-36.3	25.6	0.00e+00	92	29	0	704643072	44	5949
2026-01-14 23:46:30.18	76.28	62.72	-35.6	-36.4	25.5	0.00e+00	92	29	0	713031680	44	5997
2026-01-14 23:46:34.21	72.29	63.14	-35.1	-35.8	26.2	0.00e+00	92	29	0	720371712	44	5604
2026-01-14 23:46:38.25	68.16	63.45	-35.0	-35.8	26.2	0.00e+00	7	29	0	727711744	42	6248
2026-01-14 23:46:42.29	63.95	63.63	-35.1	-35.8	26.1	0.00e+00	92	29	0	735051776	42	6295
2026-01-14 23:46:46.32	59.70	63.68	-34.0	-34.7	26.9	0.00e+00	92	29	0	743440384	42	5547
2026-01-14 23:46:50.36	55.45	63.61	-34.8	-35.5	26.2	0.00e+00	90	29	0	750780416	42	6059
2026-01-14 23:46:54.40	51.24	63.40	-35.5	-36.3	25.7	0.00e+00	6	29	0	758120448	42	6644
2026-01-14 23:46:58.44	47.13	63.08	-35.5	-36.3	25.7	0.00e+00	92	29	0	765460480	44	5911
2026-01-14 23:47:02.48	43.16	62.63	-35.2	-36.0	26.0	0.00e+00	92	29	0	772800512	44	5697
2026-01-14 23:47:06.51	39.35	62.08	-35.1	-35.8	26.0	0.00e+00	0	29	0	781189120	44	5609
2026-01-14 23:47:10.55	35.72	61.43	-35.9	-36.7	25.3	0.00e+00	43	29	0	788529152	44	6210
2026-01-14 23:47:14.58	32.30	60.69	-36.9	-37.8	24.4	0.00e+00	92	29	0	795869184	46	6260
2026-01-14 23:47:18.63	29.07	59.87	-38.7	-39.6	22.8	0.00e+00	92	29	0	803209216	48	6915
2026-01-14 23:47:22.67	26.05	58.99	-40.5	-41.6	21.0	0.00e+00	50	29	0	811597824	52	6920
2026-01-14 23:47:26.70	23.24	58.06	-41.1	-42.5	20.4	0.00e+00	0	29	0	818937856	54	6771
2026-01-14 23:47:30.74	20.62	57.08	-39.8	-40.9	21.8	0.00e+00	92	29	0	826277888	54	5691
2026-01-14 23:47:34.78	18.18	56.06	-38.9	-39.9	22.7	0.00e+00	90	29	0	833617920	52	5658
2026-01-14 23:47:38.81	15.93	55.02	-38.1	-39.0	23.6	0.00e+00	32	29	0	840957952	50	5742
2026-01-14 23:47:42.84	13.83	53.96	-37.6	-38.5	23.8	0.00e+00	0	29	0	849346560	48	6091
2026-01-14 23:47:46.88	11.89	52.88	-38.4	-39.4	23.1	0.00e+00	91	29	0	856686592	48	6713
2026-01-14 23:47:50.92	10.08	51.79	-39.3	-40.3	22.4	0.00e+00	91	29	0	864026624	50	6654
2026-01-14 23:47:54.95	8.40	50.70	-39.8	-40.9	21.7	0.00e+00	3	29	0	871366656	50	7156
2026-01-14 23:47:58.99	6.84	49.62	-39.3	-40.3	22.3	0.00e+00	38	29	0	878706688	52	5948
2026-01-14 23:48:03.02	5.40	48.54	-39.6	-40.7	22.1	0.00e+00	92	29	0	887095296	52	6203
2026-01-14 23:48:07.06	4.04	47.46	-38.9	-39.9	22.6	0.00e+00	92	29	0	894435328	52	5651
2026-01-14 23:48:11.10	2.78	46.40	-38.7	-39.6	23.0	0.00e+00	0	29	0	901775360	50	6167
2026-01-14 23:48:15.14	1.60	45.34	-38.7	-39.7	22.8	0.00e+00	48	29	0	909115392	50	6192
2026-01-14 23:48:19.17	0.50	44.31	-39.7	-40.8	21.8	0.00e+00	92	29	0	917504000	50	7056
2026-01-14 23:48:23.21	359.47	43.29	-40.0	-41.1	21.6	0.00e+00	2	29	0	924844032	52	6531
2026-01-14 23:48:27.25	358.50	42.28	-40.9	-42.2	20.6	0.00e+00	0	29	0	932184064	54	6543
2026-01-14 23:48:31.29	357.59	41.30	-41.7	-43.2	19.6	0.00e+00	91	29	0	939524096	56	6556
2026-01-14 23:48:35.32	356.73	40.33	-42.1	-43.8	19.1	0.00e+00	92	29	0	946864128	56	7023
2026-01-14 23:48:39.36	355.93	39.38	-42.1	-43.7	19.3	0.00e+00	45	29	0	955252736	56	6939
2026-01-14 23:48:43.40	355.17	38.45	-41.7	-43.2	19.7	0.00e+00	0	29	0	962592768	56	6588
2026-01-14 23:48:47.43	354.45	37.54	-41.0	-42.4	20.5	0.00e+00	92	29	0	969932800	56	5978
2026-01-14 23:48:51.46	353.78	36.65	-40.8	-42.1	20.7	0.00e+00	18	29	0	977272832	54	6492
2026-01-14 23:48:55.50	353.13	35.78	-40.4	-41.6	21.0	0.00e+00	0	29	0	984612864	54	6144
2026-01-14 23:48:59.53	352.53	34.93	-39.6	-40.7	22.0	0.00e+00	42	29	0	993001472	54	5519
2026-01-14 23:49:03.57	351.95	34.10	-39.7	-40.8	21.8	0.00e+00	92	29	0	1000341504	52	6313
2026-01-14 23:49:07.61	351.40	33.28	-40.3	-41.6	21.2	0.00e+00	6	29	0	1007681536	52	6863
2026-01-14 23:49:11.65	350.88	32.49	-40.5	-41.7	21.0	0.00e+00	7	29	0	1015021568	52	6945
2026-01-14 23:49:15.68	350.39	31.71	-41.1	-42.4	20.3	0.00e+00	0	29	0	1023410176	54	6727
2026-01-14 23:49:19.72	349.92	30.95	-41.6	-43.1	19.8	0.00e+00	92	29	0	1030750208	56	6477
2026-01-14 23:49:23.75	349.47	30.21	-41.7	-43.1	19.7	0.00e+00	37	29	0	1038090240	56	6528
2026-01-14 23:49:27.79	349.04	29.49	-42.0	-43.6	19.2	0.00e+00	36	29	0	1045430272	56	6888
2026-01-14 23:49:31.83	348.63	28.78	-42.3	-44.0	18.9	0.00e+00	0	29	0	1052770304	56	7191
2026-01-14 23:49:35.86	348.24	28.08	-41.6	-43.0	19.8	0.00e+00	92	29	0	1061158912	56	6461
2026-01-14 23:49:39.90	347.87	27.41	-40.8	-42.1	20.6	0.00e+00	0	29	0	1068498944	56	5810
2026-01-14 23:49:43.94	347.51	26.74	-41.2	-42.5	20.3	0.00e+00	44	29	0	1075838976	56	6064
2026-01-14 23:49:47.98	347.17	26.09	-40.8	-42.1	20.6	0.00e+00	12	29	0	1083179008	56	5805
2026-01-14 23:49:52.01	346.84	25.46	-40.3	-41.5	21.1	0.00e+00	90	29	0	1091567616	54	6037
2026-01-14 23:49:56.05	346.52	24.84	-40.0	-41.2	21.5	0.00e+00	0	29	0	1098907648	54	5830
2026-01-14 23:50:00.09	346.22	24.23	-39.8	-41.0	21.6	0.00e+00	0	29	0	1106247680	54	5710
2026-01-14 23:50:04.12	345.93	23.64	-39.6	-40.7	21.9	0.00e+00	92	29	0	1113587712	52	6217
2026-01-14 23:50:08.16	345.65	23.06	-39.1	-40.1	22.4	0.00e+00	37	29	0	1120927744	52	5800
2026-01-14 23:50:12.20	345.38	22.49	-38.7	-39.8	22.7	0.00e+00	0	29	0	1129316352	50	6270
2026-01-14 23:50:16.24	345.12	21.93	-38.6	-39.6	22.8	0.00e+00	0	29	0	1136656384	50	6156
2026-01-14 23:50:20.28	344.87	21.39	-38.8	-39.8	22.6	0.00e+00	90	29	0	1143996416	50	6311
2026-01-14 23:50:24.32	344.63	20.85	-38.8	-39.9	22.5	0.00e+00	0	29	0	1151336448	50	6321
2026-01-14 23:50:28.35	344.40	20.33	-38.8	-39.8	22.4	0.00e+00	41	29	0	1159725056	50	6259
2026-01-14 23:50:32.39	344.18	19.81	-39.0	-40.0	22.4	0.00e+00	39	29	0	1167065088	50	6450
2026-01-14 23:50:36.42	343.96	19.31	-38.9	-39.9	22.5	0.00e+00	92	29	0	1174405120	50	6366
2026-01-14 23:50:40.46	343.75	18.81	-38.7	-39.7	22.6	0.00e+00	6	29	0	1181745152	50	6227
2026-01-14 23:50:44.50	343.55	18.33	-38.8	-39.8	22.5	0.00e+00	41	29	0	1189085184	50	6282
2026-01-14 23:50:48.53	343.36	17.85	-38.8	-39.8	22.4	0.00e+00	48	29	0	1197473792	50	6270
2026-01-14 23:50:52.57	343.17	17.38	-39.0	-40.0	22.3	0.00e+00	92	29	0	1204813824	50	6412
2026-01-14 23:50:56.61	342.99	16.93	-38.9	-39.9	22.4	0.00e+00	6	29	0	1212153856	50	6380
2026-01-14 23:51:00.64	342.81	16.48	-39.1	-40.1	22.2	0.00e+00	0	29	0	1219493888	50	6526
2026-01-14 23:51:04.67	342.64	16.03	-39.3	-40.4	21.9	0.00e+00	0	29	0	1227882496	50	6748
2026-01-14 23:51:08.71	342.48	15.60	-39.4	-40.6	21.6	0.00e+00	92	29	0	1235222528	50	6855
2026-01-14 23:51:12.74	342.32	15.17	-39.4	-40.7	21.6	0.00e+00	41	29	0	1242562560	50	6939
2026-01-14 23:51:16.78	342.17	14.75	-39.4	-40.6	21.8	0.00e+00	0	29	0	1249902592	50	6864
2026-01-14 23:51:20.81	342.02	14.34	-39.4	-40.7	21.6	0.00e+00	41	29	0	1257242624	50	6949
2026-01-14 23:51:24.85	341.87	13.93	-39.7	-41.0	21.3	0.00e+00	92	29	0	1265631232	50	7173
2026-01-14 23:51:28.89	341.73	13.53	-39.8	-41.1	21.3	0.00e+00	0	29	0	1272971264	52	6465
2026-01-14 23:51:32.93	341.59	13.13	-39.9	-41.2	21.1	0.00e+00	37	29	0	1280311296	52	6590
2026-01-14 23:51:36.97	341.46	12.74	-40.0	-41.2	21.0	0.00e+00	11	29	0	1287651328	52	6598
2026-01-14 23:51:41.00	341.33	12.36	-40.0	-41.3	21.0	0.00e+00	92	29	0	1294991360	52	6647
2026-01-14 23:51:45.04	341.21	11.99	-40.3	-41.5	20.7	0.00e+00	0	29	0	1303379968	52	6845
2026-01-14 23:51:49.08	341.08	11.61	-40.1	-41.4	20.9	0.00e+00	0	29	0	1310720000	52	6708
2026-01-14 23:51:53.11	340.97	11.25	-40.3	-41.7	20.6	0.00e+00	14	29	0	1318060032	52	6933
2026-01-14 23:51:57.15	340.85	10.89	-40.2	-41.5	20.7	0.00e+00	48	29	0	1325400064	52	6830
2026-01-14 23:52:01.19	340.74	10.53	-40.5	-41.8	20.4	0.00e+00	0	29	0	1333788672	52	7037
2026-01-14 23:52:05.23	340.63	10.18	-40.3	-41.7	20.5	0.00e+00	0	29	0	1341128704	52	6933
2026-01-14 23:52:09.27	340.52	9.84	-40.4	-41.7	20.4	0.00e+00	90	29	0	1348468736	52	6978
2026-01-14 23:52:13.30	340.42	9.50	-40.6	-41.9	20.2	0.00e+00	0	29	0	1355808768	52	7147
2026-01-14 23:52:17.34	340.32	9.16	-40.5	-41.8	20.3	0.00e+00	34	29	0	1363148800	54	6282
2026-01-14 23:52:21.38	340.22	8.83	-40.6	-42.0	20.1	0.00e+00	46	29	0	1371537408	54	6391
2026-01-14 23:52:25.42	340.13	8.50	-40.7	-42.0	19.9	0.00e+00	90	29	0	1378877440	54	6461
2026-01-14 23:52:29.45	340.04	8.18	-40.9	-42.4	19.7	0.00e+00	0	29	0	1386217472	54	6712
2026-01-14 23:52:33.49	339.95	7.86	-41.0	-42.4	19.6	0.00e+00	0	29	0	1393557504	54	6750
2026-01-14 23:52:37.53	339.86	7.54	-41.1	-42.6	19.2	0.00e+00	36	29	0	1401946112	54	6911
2026-01-14 23:52:41.57	339.77	7.23	-41.1	-42.6	19.3	0.00e+00	93	29	0	1409286144	54	6903
2026-01-14 23:52:45.61	339.69	6.92	-41.3	-42.9	18.9	0.00e+00	52	29	0	1416626176	54	7162
2026-01-14 23:52:49.64	339.61	6.62	-41.1	-42.7	19.1	0.00e+00	6	29	0	1423966208	54	6974
2026-01-14 23:52:53.68	339.53	6.31	-41.3	-43.0	18.8	0.00e+00	0	29	0	1431306240	54	7196
2026-01-14 23:52:57.72	339.45	6.02	-41.2	-42.8	18.9	0.00e+00	90	29	0	1439694848	54	7045
2026-01-14 23:53:01.76	339.37	5.72	-41.5	-43.2	18.2	0.00e+00	35	29	0	1447034880	54	7414
2026-01-14 23:53:05.79	339.30	5.43	-42.0	-44.1	16.9	0.00e+00	0	29	0	1454374912	56	7288
2026-01-14 23:53:09.83	339.23	5.14	-42.7	-45.5	15.1	0.00e+00	0	29	0	1461714944	58	7607
2026-01-14 23:53:13.87	339.16	4.86	-43.5	-47.6	12.2	5.26e-05	32	29	0	1470103552	58	9719
2026-01-14 23:53:17.91	339.09	4.57	-43.9	-49.8	8.9	2.47e-02	0	29	0	1477443584	60	11142
2026-01-14 23:53:21.95	339.02	4.29	-44.1	-52.6	5.1	4.56e-01	33	29	0	1484783616	60	15459
2026-01-14 23:53:25.98	338.96	4.02	-44.0	-56.7	3.8	1.48e+00	0	29	104	1488977920	60	24599
2026-01-14 23:53:30.01	338.90	3.75	-43.9	-58.2	3.6	1.51e+00	0	29	104	1488977920	60	29315
2026-01-14 23:53:34.05	338.83	3.47	-44.0	-59.3	3.6	1.51e+00	0	29	104	1488977920	60	33180
2026-01-14 23:53:38.08	338.77	3.21	-43.9	-59.1	3.6	1.51e+00	0	29	104	1488977920	60	32735
2026-01-14 23:53:42.12	338.71	2.94	-43.9	-59.0	3.6	1.51e+00	0	29	104	1488977920	60	32339
2026-01-14 23:53:46.16	338.66	2.68	-48.8	-64.0	3.6	1.51e+00	0	29	104	1488977920	60	56976
2026-01-14 23:53:50.20	338.60	2.42	-48.9	-64.2	3.6	1.51e+00	0	29	104	1488977920	60	58349
2026-01-14 23:53:54.24	338.54	2.16	-48.7	-64.0	3.6	1.51e+00	0	29	104	1488977920	60	57193
2026-01-14 23:53:58.28	338.49	1.90	-49.0	-64.3	3.6	1.51e+00	0	29	104	1488977920	60	58973
2026-01-14 23:54:02.32	338.44	1.65	-49.0	-64.1	3.6	1.51e+00	0	29	104	1488977920	60	58013
2026-01-14 23:54:06.36	338.39	1.39	-48.9	-64.1	3.6	1.51e+00	0	29	104	1488977920	60	57958
2026-01-14 23:54:10.40	338.33	1.14	-48.9	-64.1	3.6	1.51e+00	0	29	104	1488977920	60	57786
2026-01-14 23:54:14.44	338.29	0.90	-48.9	-64.1	3.6	1.51e+00	0	29	104	1488977920	60	57740
2026-01-14 23:54:18.48	338.24	0.65	-48.9	-64.1	3.6	1.51e+00	0	29	104	1488977920	60	57846
2026-01-14 23:54:22.52	338.19	0.41	-48.9	-64.1	3.6	1.51e+00	0	29	104	1488977920	60	57818
2026-01-14 23:54:26.56	338.14	0.16	-48.9	-64.1	3.6	1.51e+00	0	29	104	1488977920	60	57894
2026-01-14 23:54:30.60	338.10	-0.08	-48.8	-64.0	3.6	1.51e+00	0	29	104	1488977920	60	57531

#Closed at: 2026-01-14 23:54:32
#Recorded file [1488 MB]: D:/lorett/data/35029_260115_113906.dat