passes_logs/2026/01/14/R4.6S_Anadyr/R4.6S_Anadyr__20260114_182316_SUOMI_NPP_rec.log

#Pass ID: 20260114_182316_SUOMI NPP
#Satellite: SUOMI NPP
#Configuration: NPP
#almurnet v.1.7.20251203
#Start time: 2026-01-14 18:23:19

#Version: 2.2.20231116
#Station: R4.6S_Anadyr
#Location: 177.4865 lon 64.73178 lat
#TLE: 1 37849U 11061A   26013.83525404  .00000052  00000+0  45495-4 0  9990
#TLE: 2 37849  98.7808 315.8939 0002471  65.6575 294.4859 14.19524986736544

#Time	Az	El	Level	Level2	SNR	BER	BlckErr	Temp	State	Recorded	gain1	gain2
2026-01-14 18:23:19.73	39.24	0.17	-48.8	-62.5	3.3	1.54e+00	0	28	0	0	60	48270
2026-01-14 18:23:23.76	38.95	0.38	-48.8	-64.0	3.6	1.51e+00	0	28	104	0	60	57459
2026-01-14 18:23:27.80	38.66	0.58	-48.6	-63.8	3.6	1.51e+00	0	28	104	0	60	55921
2026-01-14 18:23:31.84	38.37	0.78	-48.0	-63.1	3.6	1.51e+00	0	28	104	0	60	51873
2026-01-14 18:23:35.88	38.07	0.99	-47.1	-62.3	3.6	1.51e+00	0	28	104	0	60	46850
2026-01-14 18:23:39.92	37.77	1.20	-47.1	-62.2	3.6	1.51e+00	0	28	104	0	60	46586
2026-01-14 18:23:43.96	37.46	1.40	-47.1	-62.2	3.6	1.51e+00	0	28	104	0	60	46300
2026-01-14 18:23:48.00	37.15	1.61	-47.1	-62.2	3.6	1.51e+00	0	28	104	0	60	46592
2026-01-14 18:23:52.04	36.83	1.82	-47.1	-62.2	3.6	1.51e+00	0	28	104	0	60	46465
2026-01-14 18:23:56.07	36.51	2.03	-47.1	-61.8	3.6	1.51e+00	0	28	104	0	60	44705
2026-01-14 18:24:00.12	36.19	2.24	-47.1	-62.2	3.6	1.51e+00	0	28	104	0	60	46617
2026-01-14 18:24:04.15	35.86	2.45	-47.1	-62.2	3.6	1.51e+00	0	28	104	0	60	46444
2026-01-14 18:24:08.19	35.52	2.66	-47.0	-61.1	3.6	1.51e+00	0	28	104	0	60	40926
2026-01-14 18:24:12.23	35.18	2.87	-46.5	-54.2	6.3	6.26e-01	0	29	0	0	60	18568
2026-01-14 18:24:16.27	34.84	3.08	-47.1	-61.8	3.6	1.32e+00	0	29	104	6291456	60	44285
2026-01-14 18:24:20.31	34.49	3.30	-46.9	-61.1	3.6	1.51e+00	0	29	104	8388608	60	40995
2026-01-14 18:24:24.35	34.13	3.51	-41.1	-42.8	18.4	0.00e+00	0	28	0	12582912	56	6276
2026-01-14 18:24:28.38	33.77	3.72	-41.6	-43.3	17.9	0.00e+00	0	29	0	20971520	56	6690
2026-01-14 18:24:32.41	33.41	3.94	-42.3	-44.3	17.1	0.00e+00	24	29	0	28311552	56	7485
2026-01-14 18:24:36.45	33.03	4.15	-42.0	-43.9	17.6	0.00e+00	92	29	0	35651584	56	7117
2026-01-14 18:24:40.49	32.65	4.37	-42.5	-44.5	17.0	0.00e+00	0	28	0	42991616	56	7682
2026-01-14 18:24:44.53	32.27	4.59	-41.7	-43.5	17.9	0.00e+00	0	29	0	51380224	56	6813
2026-01-14 18:24:48.56	31.88	4.80	-41.7	-43.4	18.1	0.00e+00	22	29	0	58720256	56	6748
2026-01-14 18:24:52.60	31.49	5.02	-41.3	-42.9	18.6	0.00e+00	0	29	0	66060288	56	6320
2026-01-14 18:24:56.64	31.08	5.24	-41.4	-43.1	18.3	0.00e+00	0	29	0	73400320	56	6479
2026-01-14 18:25:00.66	30.68	5.46	-41.5	-43.2	18.4	0.00e+00	0	29	0	80740352	56	6542
2026-01-14 18:25:04.69	30.26	5.68	-41.7	-43.5	18.2	0.00e+00	92	29	0	89128960	56	6822
2026-01-14 18:25:08.73	29.84	5.89	-41.5	-43.2	18.3	0.00e+00	0	29	0	96468992	56	6594
2026-01-14 18:25:12.76	29.41	6.11	-41.3	-43.0	18.7	0.00e+00	0	29	0	103809024	56	6411
2026-01-14 18:25:16.80	28.98	6.33	-41.4	-43.1	18.4	0.00e+00	0	29	0	111149056	56	6479
2026-01-14 18:25:20.84	28.54	6.55	-41.0	-42.6	19.0	0.00e+00	79	29	0	118489088	56	6123
2026-01-14 18:25:24.88	28.09	6.77	-41.3	-42.9	18.7	0.00e+00	0	29	0	126877696	56	6346
2026-01-14 18:25:28.91	27.64	6.99	-40.7	-42.2	19.4	0.00e+00	0	29	0	134217728	54	6568
2026-01-14 18:25:32.95	27.17	7.22	-41.1	-42.7	19.0	0.00e+00	17	29	0	141557760	54	6972
2026-01-14 18:25:36.99	26.70	7.44	-41.1	-42.7	19.0	0.00e+00	92	29	0	148897792	54	7001
2026-01-14 18:25:41.02	26.23	7.66	-41.0	-42.6	19.2	0.00e+00	0	29	0	157286400	54	6857
2026-01-14 18:25:45.06	25.74	7.88	-41.0	-42.5	19.2	0.00e+00	0	29	0	164626432	54	6841
2026-01-14 18:25:49.10	25.25	8.10	-40.2	-41.5	20.1	0.00e+00	31	29	0	171966464	54	6090
2026-01-14 18:25:53.14	24.75	8.32	-40.0	-41.3	20.3	0.00e+00	0	29	0	179306496	54	5905
2026-01-14 18:25:57.17	24.24	8.54	-39.8	-41.0	20.5	0.00e+00	0	29	0	186646528	54	5750
2026-01-14 18:26:01.21	23.73	8.76	-40.1	-41.5	20.2	0.00e+00	6	29	0	195035136	54	6040
2026-01-14 18:26:05.24	23.21	8.98	-40.2	-41.6	20.0	0.00e+00	92	29	0	202375168	54	6130
2026-01-14 18:26:09.28	22.67	9.20	-40.4	-41.7	20.0	0.00e+00	0	29	0	209715200	54	6223
2026-01-14 18:26:13.32	22.13	9.42	-40.3	-41.7	20.1	0.00e+00	0	29	0	217055232	54	6191
2026-01-14 18:26:17.35	21.59	9.64	-40.2	-41.5	20.2	0.00e+00	0	29	0	225443840	54	6062
2026-01-14 18:26:21.39	21.03	9.85	-40.1	-41.4	20.3	0.00e+00	73	29	0	232783872	54	6015
2026-01-14 18:26:25.43	20.46	10.07	-39.9	-41.2	20.6	0.00e+00	0	29	0	240123904	54	5859
2026-01-14 18:26:29.47	19.89	10.29	-40.1	-41.3	20.4	0.00e+00	0	29	0	247463936	54	5961
2026-01-14 18:26:33.51	19.31	10.50	-40.0	-41.3	20.4	0.00e+00	17	29	0	254803968	54	5928
2026-01-14 18:26:37.55	18.71	10.72	-40.4	-41.8	20.0	0.00e+00	4	29	0	263192576	54	6262
2026-01-14 18:26:41.58	18.12	10.93	-40.7	-42.1	19.8	0.00e+00	0	29	0	270532608	54	6519
2026-01-14 18:26:45.62	17.51	11.14	-40.1	-41.4	20.3	0.00e+00	0	29	0	277872640	54	5991
2026-01-14 18:26:49.65	16.89	11.35	-40.0	-41.3	20.6	0.00e+00	28	29	0	285212672	54	5915
2026-01-14 18:26:53.69	16.26	11.56	-39.4	-40.6	21.2	0.00e+00	0	29	0	293601280	52	6115
2026-01-14 18:26:57.73	15.62	11.77	-39.7	-41.0	20.6	0.00e+00	0	29	0	300941312	52	6423
2026-01-14 18:27:01.77	14.98	11.97	-38.8	-39.8	21.8	0.00e+00	0	29	0	308281344	52	5615
2026-01-14 18:27:05.80	14.32	12.17	-38.4	-39.5	22.2	0.00e+00	74	29	0	315621376	50	6041
2026-01-14 18:27:09.84	13.66	12.38	-38.2	-39.2	22.5	0.00e+00	0	29	0	322961408	50	5883
2026-01-14 18:27:13.88	12.99	12.57	-38.5	-39.6	22.0	0.00e+00	0	29	0	331350016	50	6161
2026-01-14 18:27:17.92	12.30	12.77	-38.2	-39.2	22.4	0.00e+00	30	29	0	338690048	50	5875
2026-01-14 18:27:21.95	11.61	12.96	-38.3	-39.3	22.3	0.00e+00	79	29	0	346030080	50	5958
2026-01-14 18:27:25.99	10.91	13.16	-38.3	-39.3	22.5	0.00e+00	0	29	0	353370112	50	5953
2026-01-14 18:27:30.03	10.20	13.34	-38.7	-39.8	21.9	0.00e+00	0	29	0	360710144	50	6263
2026-01-14 18:27:34.07	9.48	13.53	-38.4	-39.5	22.1	0.00e+00	89	29	0	369098752	50	6083
2026-01-14 18:27:38.11	8.75	13.71	-37.3	-38.2	23.1	0.00e+00	0	29	0	376438784	48	5885
2026-01-14 18:27:42.15	8.01	13.89	-37.0	-37.9	23.5	0.00e+00	30	29	0	383778816	48	5683
2026-01-14 18:27:46.18	7.27	14.07	-37.4	-38.3	23.0	0.00e+00	0	29	0	391118848	48	5917
2026-01-14 18:27:50.22	6.51	14.24	-38.1	-39.1	22.6	0.00e+00	91	29	0	399507456	48	6498
2026-01-14 18:27:54.25	5.75	14.41	-37.8	-38.7	22.9	0.00e+00	0	29	0	406847488	48	6237
2026-01-14 18:27:58.29	4.98	14.57	-38.3	-39.4	22.4	0.00e+00	0	29	0	414187520	48	6696
2026-01-14 18:28:02.33	4.19	14.73	-38.5	-39.6	22.3	0.00e+00	0	29	0	421527552	50	6107
2026-01-14 18:28:06.36	3.41	14.89	-38.1	-39.1	22.6	0.00e+00	72	29	0	428867584	50	5828
2026-01-14 18:28:10.39	2.61	15.04	-37.9	-38.9	22.8	0.00e+00	0	29	0	437256192	48	6358
2026-01-14 18:28:14.42	1.80	15.18	-38.2	-39.2	22.6	0.00e+00	0	29	0	444596224	48	6596
2026-01-14 18:28:18.46	0.99	15.32	-37.3	-38.2	23.3	0.00e+00	31	29	0	451936256	48	5880
2026-01-14 18:28:22.50	0.17	15.46	-37.8	-38.7	22.9	0.00e+00	0	29	0	459276288	48	6227
2026-01-14 18:28:26.54	359.34	15.59	-36.9	-37.8	23.3	0.00e+00	0	29	0	466616320	48	5607
2026-01-14 18:28:30.57	358.50	15.72	-37.0	-37.9	23.6	0.00e+00	0	29	0	475004928	48	5642
2026-01-14 18:28:34.61	357.66	15.84	-37.3	-38.2	23.3	0.00e+00	55	29	0	482344960	48	5886
2026-01-14 18:28:38.65	356.81	15.95	-37.8	-38.7	22.8	0.00e+00	0	29	0	489684992	48	6242
2026-01-14 18:28:42.68	355.95	16.06	-37.5	-38.4	23.2	0.00e+00	0	29	0	497025024	48	6033
2026-01-14 18:28:46.72	355.09	16.16	-37.9	-38.9	22.8	0.00e+00	0	29	0	505413632	48	6365
2026-01-14 18:28:50.76	354.22	16.25	-37.6	-38.5	23.0	0.00e+00	92	29	0	512753664	48	6100
2026-01-14 18:28:54.80	353.34	16.34	-38.3	-39.3	22.5	0.00e+00	0	29	0	520093696	48	6639
2026-01-14 18:28:58.83	352.47	16.43	-37.5	-38.4	23.3	0.00e+00	0	29	0	527433728	48	6027
2026-01-14 18:29:02.87	351.58	16.50	-37.6	-38.5	23.1	0.00e+00	0	29	0	534773760	48	6094
2026-01-14 18:29:06.91	350.69	16.57	-37.1	-37.9	23.5	0.00e+00	85	29	0	543162368	48	5687
2026-01-14 18:29:10.94	349.80	16.63	-37.7	-38.7	22.9	0.00e+00	0	29	0	550502400	48	6196
2026-01-14 18:29:14.98	348.90	16.69	-38.0	-39.0	22.7	0.00e+00	0	29	0	557842432	48	6402
2026-01-14 18:29:19.02	348.01	16.74	-38.9	-40.0	22.0	0.00e+00	0	29	0	565182464	50	6400
2026-01-14 18:29:23.05	347.10	16.78	-38.7	-39.8	22.3	0.00e+00	0	29	0	573571072	50	6248
2026-01-14 18:29:27.09	346.20	16.81	-38.1	-39.0	22.7	0.00e+00	0	29	0	580911104	50	5759
2026-01-14 18:29:31.12	345.30	16.84	-38.3	-39.3	22.3	0.00e+00	0	29	0	588251136	50	5938
2026-01-14 18:29:35.16	344.39	16.86	-37.7	-38.7	23.0	0.00e+00	21	29	0	595591168	48	6211
2026-01-14 18:29:39.20	343.48	16.87	-38.0	-39.0	22.7	0.00e+00	5	29	0	602931200	48	6451
2026-01-14 18:29:43.24	342.57	16.87	-38.4	-39.4	22.4	0.00e+00	0	29	0	611319808	48	6747
2026-01-14 18:29:47.28	341.66	16.87	-38.1	-39.1	22.6	0.00e+00	0	29	0	618659840	48	6524
2026-01-14 18:29:51.31	340.75	16.86	-37.6	-38.5	23.1	0.00e+00	91	29	0	625999872	48	6071
2026-01-14 18:29:55.35	339.85	16.84	-37.6	-38.6	23.0	0.00e+00	0	29	0	633339904	48	6168
2026-01-14 18:29:59.38	338.94	16.82	-38.3	-39.3	22.3	0.00e+00	0	29	0	640679936	48	6676
2026-01-14 18:30:03.43	338.03	16.79	-38.6	-39.7	22.2	0.00e+00	24	29	0	649068544	50	6228
2026-01-14 18:30:07.46	337.13	16.75	-38.0	-39.1	22.7	0.00e+00	50	29	0	656408576	50	5772
2026-01-14 18:30:11.50	336.23	16.70	-38.0	-39.0	22.8	0.00e+00	0	29	0	663748608	48	6397
2026-01-14 18:30:15.53	335.34	16.65	-37.8	-38.8	23.0	0.00e+00	0	29	0	671088640	48	6284
2026-01-14 18:30:19.57	334.44	16.59	-38.2	-39.3	22.7	0.00e+00	25	29	0	679477248	48	6638
2026-01-14 18:30:23.61	333.55	16.52	-37.3	-38.3	23.3	0.00e+00	0	29	0	686817280	48	5906
2026-01-14 18:30:27.64	332.67	16.45	-37.3	-38.2	23.4	0.00e+00	0	29	0	694157312	48	5895
2026-01-14 18:30:31.68	331.79	16.37	-37.5	-38.5	23.2	0.00e+00	0	29	0	701497344	48	6045
2026-01-14 18:30:35.72	330.91	16.28	-38.0	-39.0	22.8	0.00e+00	92	29	0	708837376	48	6393
2026-01-14 18:30:39.76	330.04	16.18	-38.0	-39.0	22.6	0.00e+00	0	29	0	717225984	48	6461
2026-01-14 18:30:43.80	329.17	16.08	-37.9	-38.8	22.9	0.00e+00	0	29	0	724566016	48	6310
2026-01-14 18:30:47.84	328.31	15.98	-37.7	-38.6	23.1	0.00e+00	0	29	0	731906048	48	6147
2026-01-14 18:30:51.88	327.46	15.86	-37.7	-38.6	23.1	0.00e+00	55	29	0	739246080	48	6136
2026-01-14 18:30:55.92	326.61	15.75	-37.8	-38.7	23.0	0.00e+00	0	29	0	747634688	48	6232
2026-01-14 18:30:59.95	325.78	15.62	-37.9	-38.9	22.9	0.00e+00	0	29	0	754974720	48	6319
2026-01-14 18:31:03.99	324.94	15.49	-38.4	-39.5	22.5	0.00e+00	37	29	0	762314752	48	6786
2026-01-14 18:31:08.02	324.12	15.36	-38.6	-39.6	22.4	0.00e+00	25	29	0	769654784	50	6128
2026-01-14 18:31:12.06	323.30	15.22	-38.5	-39.5	22.4	0.00e+00	0	29	0	776994816	50	6088
2026-01-14 18:31:16.09	322.50	15.07	-38.3	-39.3	22.6	0.00e+00	22	29	0	785383424	50	5912
2026-01-14 18:31:20.13	321.69	14.92	-38.5	-39.5	22.3	0.00e+00	88	29	0	792723456	50	6087
2026-01-14 18:31:24.17	320.90	14.77	-37.5	-38.4	23.1	0.00e+00	0	29	0	800063488	48	6023
2026-01-14 18:31:28.20	320.12	14.61	-37.6	-38.5	23.1	0.00e+00	0	29	0	807403520	48	6069
2026-01-14 18:31:32.24	319.34	14.45	-37.8	-38.8	22.9	0.00e+00	2	29	0	815792128	48	6277
2026-01-14 18:31:36.27	318.57	14.28	-39.0	-40.1	21.9	0.00e+00	90	29	0	823132160	50	6486
2026-01-14 18:31:40.31	317.82	14.11	-39.3	-40.5	21.3	0.00e+00	0	29	0	830472192	50	6802
2026-01-14 18:31:44.35	317.07	13.94	-38.8	-39.9	22.0	0.00e+00	0	29	0	837812224	50	6333
2026-01-14 18:31:48.39	316.32	13.76	-39.0	-40.1	21.9	0.00e+00	0	29	0	845152256	50	6469
2026-01-14 18:31:52.42	315.59	13.58	-38.8	-39.8	22.1	0.00e+00	92	29	0	853540864	50	6309
2026-01-14 18:31:56.46	314.87	13.39	-39.4	-40.5	21.5	0.00e+00	0	29	0	860880896	50	6820
2026-01-14 18:32:00.50	314.16	13.20	-38.3	-39.3	22.6	0.00e+00	0	29	0	868220928	50	5902
2026-01-14 18:32:04.53	313.45	13.01	-38.2	-39.1	22.7	0.00e+00	43	29	0	875560960	50	5815
2026-01-14 18:32:08.57	312.76	12.82	-39.0	-40.1	21.8	0.00e+00	0	29	0	883949568	50	6474
2026-01-14 18:32:12.61	312.07	12.62	-39.0	-40.0	21.9	0.00e+00	0	29	0	891289600	50	6448
2026-01-14 18:32:16.65	311.40	12.42	-38.9	-40.0	22.0	0.00e+00	0	29	0	898629632	50	6398
2026-01-14 18:32:20.68	310.73	12.22	-40.5	-41.8	20.3	0.00e+00	27	29	0	905969664	52	7040
2026-01-14 18:32:24.72	310.07	12.02	-42.6	-44.5	17.8	0.00e+00	0	29	0	913309696	56	7637
2026-01-14 18:32:28.76	309.42	11.82	-41.9	-43.5	18.6	0.00e+00	0	29	0	921698304	56	6780
2026-01-14 18:32:32.80	308.78	11.61	-41.1	-42.5	19.8	0.00e+00	17	29	0	929038336	56	6099
2026-01-14 18:32:36.84	308.15	11.40	-40.1	-41.3	20.8	0.00e+00	92	29	0	936378368	54	5959
2026-01-14 18:32:40.88	307.53	11.19	-39.8	-40.9	21.1	0.00e+00	0	29	0	943718400	52	6387
2026-01-14 18:32:44.91	306.92	10.98	-40.0	-41.2	20.9	0.00e+00	0	29	0	952107008	52	6605
2026-01-14 18:32:48.95	306.31	10.77	-39.8	-40.9	21.1	0.00e+00	55	29	0	959447040	52	6361
2026-01-14 18:32:52.99	305.72	10.55	-39.4	-40.5	21.6	0.00e+00	0	29	0	966787072	52	6039
2026-01-14 18:32:57.03	305.13	10.34	-39.3	-40.4	21.5	0.00e+00	0	29	0	974127104	52	6006
2026-01-14 18:33:01.06	304.56	10.12	-39.8	-40.9	21.0	0.00e+00	0	29	0	981467136	52	6370
2026-01-14 18:33:05.10	303.99	9.90	-39.8	-41.0	20.9	0.00e+00	66	29	0	989855744	52	6445
2026-01-14 18:33:09.14	303.43	9.69	-39.7	-40.9	21.1	0.00e+00	0	29	0	997195776	52	6319
2026-01-14 18:33:13.18	302.88	9.47	-39.6	-40.7	21.2	0.00e+00	7	29	0	1004535808	52	6239
2026-01-14 18:33:17.22	302.33	9.25	-38.7	-39.7	22.1	0.00e+00	0	29	0	1011875840	50	6214
2026-01-14 18:33:21.26	301.80	9.03	-37.8	-38.7	22.8	0.00e+00	88	29	0	1020264448	50	5563
2026-01-14 18:33:25.30	301.27	8.81	-38.1	-39.1	22.5	0.00e+00	0	29	0	1027604480	50	5767
2026-01-14 18:33:29.33	300.75	8.59	-38.3	-39.3	22.3	0.00e+00	0	29	0	1034944512	50	5947
2026-01-14 18:33:33.36	300.24	8.37	-38.1	-39.1	22.6	0.00e+00	26	29	0	1042284544	50	5818
2026-01-14 18:33:37.40	299.74	8.15	-38.1	-39.1	22.4	0.00e+00	49	29	0	1049624576	50	5777
2026-01-14 18:33:41.44	299.24	7.93	-38.9	-40.0	21.7	0.00e+00	0	29	0	1058013184	50	6446
2026-01-14 18:33:45.48	298.76	7.71	-38.7	-39.8	21.8	0.00e+00	0	29	0	1065353216	50	6299
2026-01-14 18:33:49.51	298.28	7.49	-39.0	-40.1	21.6	0.00e+00	69	29	0	1072693248	50	6503
2026-01-14 18:33:53.55	297.80	7.27	-39.3	-40.5	21.2	0.00e+00	0	29	0	1080033280	50	6771
2026-01-14 18:33:57.59	297.34	7.04	-39.3	-40.4	21.1	0.00e+00	0	29	0	1087373312	50	6744
2026-01-14 18:34:01.62	296.88	6.82	-38.9	-39.9	21.7	0.00e+00	0	29	0	1095761920	50	6388
2026-01-14 18:34:05.66	296.43	6.60	-38.7	-39.8	21.7	0.00e+00	92	29	0	1103101952	50	6296
2026-01-14 18:34:09.70	295.99	6.38	-39.3	-40.4	21.2	0.00e+00	0	29	0	1110441984	50	6741
2026-01-14 18:34:13.73	295.55	6.16	-39.9	-41.1	20.6	0.00e+00	0	29	0	1117782016	52	6497
2026-01-14 18:34:17.77	295.12	5.94	-39.9	-41.2	20.5	0.00e+00	0	29	0	1126170624	52	6567
2026-01-14 18:34:21.80	294.70	5.72	-39.3	-40.5	21.1	0.00e+00	76	29	0	1133510656	52	6060
2026-01-14 18:34:25.84	294.28	5.51	-39.0	-40.2	21.3	0.00e+00	0	29	0	1140850688	52	5834
2026-01-14 18:34:29.88	293.87	5.29	-38.9	-40.1	21.4	0.00e+00	0	29	0	1148190720	52	5769
2026-01-14 18:34:33.91	293.46	5.07	-39.6	-40.8	20.8	0.00e+00	23	29	0	1155530752	52	6255
2026-01-14 18:34:37.95	293.06	4.85	-40.0	-41.3	20.3	0.00e+00	39	29	0	1163919360	52	6641
2026-01-14 18:34:41.99	292.67	4.63	-40.5	-41.9	19.7	0.00e+00	0	29	0	1171259392	52	7164
2026-01-14 18:34:46.03	292.28	4.42	-40.8	-42.3	19.2	0.00e+00	0	29	0	1178599424	54	6657
2026-01-14 18:34:50.06	291.90	4.20	-40.6	-42.0	19.5	0.00e+00	85	29	0	1185939456	54	6414
2026-01-14 18:34:54.11	291.53	3.99	-40.8	-42.3	19.2	0.00e+00	0	29	0	1194328064	54	6631
2026-01-14 18:34:58.15	291.16	3.77	-41.3	-42.9	18.8	0.00e+00	0	29	0	1201668096	54	7133
2026-01-14 18:35:02.18	290.80	3.56	-42.0	-43.9	17.6	0.00e+00	0	29	0	1209008128	56	7142
2026-01-14 18:35:06.22	290.44	3.34	-42.1	-44.1	17.3	0.00e+00	92	29	0	1216348160	56	7282
2026-01-14 18:35:10.26	290.08	3.13	-41.8	-43.7	17.8	0.00e+00	0	29	0	1223688192	56	6955
2026-01-14 18:35:14.29	289.74	2.92	-48.5	-63.7	3.6	1.51e+00	0	29	104	1227882496	60	55072
2026-01-14 18:35:18.33	289.39	2.70	-48.9	-64.1	3.6	1.51e+00	0	29	104	1227882496	60	58001
2026-01-14 18:35:22.37	289.06	2.49	-48.8	-64.1	3.6	1.51e+00	0	29	104	1227882496	60	57727
2026-01-14 18:35:26.41	288.72	2.28	-48.9	-64.0	3.6	1.51e+00	0	29	104	1227882496	60	57412
2026-01-14 18:35:30.45	288.40	2.07	-49.0	-64.2	3.6	1.51e+00	0	29	104	1227882496	60	58641
2026-01-14 18:35:34.49	288.07	1.86	-48.9	-64.1	3.6	1.51e+00	0	29	104	1227882496	60	57903
2026-01-14 18:35:38.52	287.76	1.65	-48.9	-64.0	3.6	1.51e+00	0	29	104	1227882496	60	57617
2026-01-14 18:35:42.56	287.44	1.45	-48.9	-64.0	3.6	1.51e+00	0	29	104	1227882496	60	57475
2026-01-14 18:35:46.60	287.13	1.24	-48.9	-64.0	3.6	1.51e+00	0	29	104	1227882496	60	57545
2026-01-14 18:35:50.64	286.83	1.03	-48.8	-64.0	3.6	1.51e+00	0	29	104	1227882496	60	57456
2026-01-14 18:35:54.67	286.53	0.83	-48.8	-64.0	3.6	1.51e+00	0	29	104	1227882496	60	57367
2026-01-14 18:35:58.69	286.23	0.62	-48.8	-64.0	3.6	1.51e+00	0	29	104	1227882496	60	57278
2026-01-14 18:36:02.73	285.94	0.42	-48.8	-64.0	3.6	1.51e+00	0	29	104	1227882496	60	57397
2026-01-14 18:36:06.77	285.65	0.21	-48.8	-64.0	3.6	1.51e+00	0	29	104	1227882496	60	57195
2026-01-14 18:36:10.81	285.37	0.01	-48.8	-64.0	3.6	1.51e+00	0	29	104	1227882496	60	57336

#Closed at: 2026-01-14 18:36:11
#Recorded file [1227 MB]: D:/lorett/data/35029_260115_062319.dat