passes_logs/2026/01/14/R4.6S_Anadyr/R4.6S_Anadyr__20260114_134337_NOAA_20_JPSS-1_rec.log

#Pass ID: 20260114_134337_NOAA 20 (JPSS-1)
#Satellite: NOAA 20 (JPSS-1)
#Configuration: NOAA 20
#almurnet v.1.7.20251203
#Start time: 2026-01-14 13:43:40

#Version: 2.2.20231116
#Station: R4.6S_Anadyr
#Location: 177.4865 lon 64.73178 lat
#TLE: 1 43013U 17073A   26013.84982170  .00000053  00000+0  46215-4 0  9999
#TLE: 2 43013  98.7633 314.8013 0001544  40.9009 319.2282 14.19535753422575

#Time	Az	El	Level	Level2	SNR	BER	BlckErr	Temp	State	Recorded	gain1	gain2
2026-01-14 13:43:40.57	19.14	0.20	-48.6	-62.3	3.3	1.54e+00	0	27	0	0	60	47340
2026-01-14 13:43:44.60	19.28	0.43	-48.7	-63.9	3.6	1.51e+00	0	27	104	0	60	56815
2026-01-14 13:43:48.64	19.42	0.67	-48.7	-63.9	3.6	1.51e+00	0	27	104	0	60	56371
2026-01-14 13:43:52.68	19.56	0.90	-48.2	-63.4	3.6	1.51e+00	0	27	104	0	60	53670
2026-01-14 13:43:56.71	19.71	1.14	-47.2	-62.4	3.6	1.51e+00	0	27	104	0	60	47538
2026-01-14 13:44:00.75	19.85	1.38	-47.1	-62.2	3.6	1.51e+00	0	27	104	0	60	46590
2026-01-14 13:44:04.79	20.00	1.63	-47.1	-62.2	3.6	1.51e+00	0	27	104	0	60	46422
2026-01-14 13:44:08.83	20.15	1.87	-47.1	-62.3	3.6	1.51e+00	0	28	104	0	60	46893
2026-01-14 13:44:12.87	20.31	2.12	-47.1	-62.1	3.6	1.51e+00	0	27	104	0	60	46073
2026-01-14 13:44:16.91	20.46	2.37	-47.1	-61.3	3.6	1.51e+00	0	28	104	0	60	41746
2026-01-14 13:44:20.95	20.62	2.62	-46.9	-59.2	3.7	1.51e+00	0	28	104	0	60	32949
2026-01-14 13:44:24.99	20.78	2.88	-44.2	-47.6	13.6	8.39e-05	92	28	0	5242880	60	8687
2026-01-14 13:44:29.03	20.94	3.13	-41.6	-43.5	17.8	0.00e+00	43	28	0	13631488	56	6807
2026-01-14 13:44:33.06	21.11	3.39	-43.0	-45.5	15.6	0.00e+00	2	28	0	20971520	58	7596
2026-01-14 13:44:37.10	21.27	3.65	-46.9	-58.6	3.7	7.33e-02	0	28	104	28311552	60	30652
2026-01-14 13:44:41.14	21.45	3.91	-44.1	-47.3	14.0	1.49e+00	92	28	104	30408704	60	8380
2026-01-14 13:44:45.18	21.62	4.18	-42.3	-44.4	17.1	0.00e+00	49	28	0	36700160	58	6700
2026-01-14 13:44:49.21	21.79	4.44	-41.9	-43.7	18.0	0.00e+00	33	28	0	44040192	56	6958
2026-01-14 13:44:53.25	21.97	4.71	-41.1	-42.6	18.9	0.00e+00	37	28	0	51380224	56	6162
2026-01-14 13:44:57.29	22.15	4.99	-40.8	-42.3	19.2	0.00e+00	92	28	0	59768832	54	6685
2026-01-14 13:45:01.32	22.34	5.26	-41.0	-42.6	19.1	0.00e+00	0	28	0	67108864	54	6854
2026-01-14 13:45:05.36	22.53	5.54	-40.7	-42.2	19.4	0.00e+00	47	28	0	74448896	54	6557
2026-01-14 13:45:09.40	22.72	5.82	-40.6	-42.0	19.6	0.00e+00	43	28	0	81788928	54	6436
2026-01-14 13:45:13.44	22.91	6.10	-40.4	-41.8	19.8	0.00e+00	91	28	0	89128960	54	6315
2026-01-14 13:45:17.48	23.11	6.39	-40.4	-41.7	19.9	0.00e+00	38	28	0	97517568	54	6240
2026-01-14 13:45:21.52	23.31	6.68	-40.4	-41.8	19.9	0.00e+00	0	28	0	104857600	54	6275
2026-01-14 13:45:25.56	23.52	6.97	-40.2	-41.5	20.3	0.00e+00	0	28	0	112197632	54	6078
2026-01-14 13:45:29.60	23.73	7.26	-40.2	-41.5	20.3	0.00e+00	92	28	0	119537664	54	6100
2026-01-14 13:45:33.63	23.94	7.56	-40.0	-41.3	20.5	0.00e+00	6	28	0	127926272	54	5917
2026-01-14 13:45:37.67	24.16	7.86	-40.1	-41.4	20.5	0.00e+00	0	28	0	135266304	54	5968
2026-01-14 13:45:41.70	24.38	8.17	-39.6	-40.7	21.1	0.00e+00	2	28	0	142606336	52	6244
2026-01-14 13:45:45.74	24.60	8.48	-39.6	-40.8	21.1	0.00e+00	51	28	0	149946368	52	6250
2026-01-14 13:45:49.78	24.83	8.79	-39.5	-40.6	21.2	0.00e+00	0	28	0	157286400	52	6157
2026-01-14 13:45:53.82	25.07	9.10	-39.4	-40.5	21.4	0.00e+00	30	28	0	165675008	52	6071
2026-01-14 13:45:57.86	25.31	9.42	-39.2	-40.3	21.5	0.00e+00	35	28	0	173015040	52	5951
2026-01-14 13:46:01.89	25.55	9.74	-39.1	-40.2	21.7	0.00e+00	0	28	0	180355072	52	5872
2026-01-14 13:46:05.93	25.80	10.07	-39.2	-40.3	21.6	0.00e+00	46	28	0	187695104	52	5931
2026-01-14 13:46:09.97	26.05	10.40	-39.1	-40.2	21.7	0.00e+00	51	28	0	195035136	52	5870
2026-01-14 13:46:14.00	26.31	10.74	-39.0	-40.1	21.8	0.00e+00	92	28	0	203423744	52	5800
2026-01-14 13:46:18.04	26.58	11.07	-39.0	-40.1	21.9	0.00e+00	29	28	0	210763776	52	5768
2026-01-14 13:46:22.07	26.85	11.42	-38.9	-40.0	22.1	0.00e+00	0	28	0	218103808	52	5726
2026-01-14 13:46:26.10	27.12	11.76	-38.6	-39.6	22.3	0.00e+00	0	28	0	225443840	50	6168
2026-01-14 13:46:30.14	27.41	12.11	-38.4	-39.4	22.5	0.00e+00	92	28	0	233832448	50	6018
2026-01-14 13:46:34.17	27.70	12.47	-38.6	-39.6	22.4	0.00e+00	0	28	0	241172480	50	6133
2026-01-14 13:46:38.20	27.99	12.83	-38.3	-39.3	22.7	0.00e+00	47	28	0	248512512	50	5917
2026-01-14 13:46:42.24	28.29	13.20	-38.2	-39.2	22.8	0.00e+00	0	28	0	255852544	50	5850
2026-01-14 13:46:46.27	28.60	13.56	-38.1	-39.1	22.9	0.00e+00	91	28	0	263192576	50	5802
2026-01-14 13:46:50.31	28.92	13.94	-37.9	-38.8	23.2	0.00e+00	0	28	0	271581184	50	5614
2026-01-14 13:46:54.34	29.25	14.32	-37.9	-38.8	23.1	0.00e+00	0	28	0	278921216	48	6297
2026-01-14 13:46:58.38	29.58	14.71	-37.7	-38.6	23.4	0.00e+00	0	28	0	286261248	48	6136
2026-01-14 13:47:02.41	29.92	15.10	-37.9	-38.9	23.1	0.00e+00	92	28	0	293601280	48	6355
2026-01-14 13:47:06.45	30.27	15.49	-38.1	-39.0	23.0	0.00e+00	5	28	0	300941312	48	6433
2026-01-14 13:47:10.49	30.63	15.90	-38.2	-39.2	22.9	0.00e+00	0	28	0	309329920	48	6566
2026-01-14 13:47:14.53	31.00	16.30	-38.5	-39.5	22.5	0.00e+00	0	28	0	316669952	48	6811
2026-01-14 13:47:18.56	31.38	16.72	-38.2	-39.1	23.0	0.00e+00	92	28	0	324009984	48	6539
2026-01-14 13:47:22.59	31.77	17.14	-38.3	-39.2	22.9	0.00e+00	52	28	0	331350016	48	6602
2026-01-14 13:47:26.63	32.17	17.56	-38.1	-39.1	23.0	0.00e+00	41	28	0	339738624	48	6496
2026-01-14 13:47:30.67	32.58	17.99	-37.9	-38.9	23.3	0.00e+00	0	28	0	347078656	48	6331
2026-01-14 13:47:34.70	33.00	18.43	-38.1	-39.1	23.0	0.00e+00	92	28	0	354418688	48	6474
2026-01-14 13:47:38.74	33.43	18.88	-38.1	-39.0	23.1	0.00e+00	55	28	0	361758720	48	6438
2026-01-14 13:47:42.78	33.87	19.33	-38.0	-38.9	23.3	0.00e+00	54	28	0	369098752	48	6373
2026-01-14 13:47:46.81	34.33	19.78	-38.1	-39.0	23.1	0.00e+00	48	28	0	377487360	48	6420
2026-01-14 13:47:50.85	34.80	20.25	-38.2	-39.1	22.9	0.00e+00	6	28	0	384827392	48	6503
2026-01-14 13:47:54.88	35.29	20.72	-38.5	-39.5	22.8	0.00e+00	0	28	0	392167424	48	6789
2026-01-14 13:47:58.92	35.79	21.20	-38.5	-39.5	22.8	0.00e+00	0	28	0	399507456	48	6777
2026-01-14 13:48:02.96	36.31	21.69	-38.7	-39.6	22.6	0.00e+00	90	28	0	407896064	48	6923
2026-01-14 13:48:06.99	36.84	22.18	-38.6	-39.6	22.7	0.00e+00	53	28	0	415236096	50	6128
2026-01-14 13:48:11.03	37.38	22.68	-38.5	-39.4	22.9	0.00e+00	0	28	0	422576128	50	6012
2026-01-14 13:48:15.07	37.95	23.19	-38.5	-39.4	22.7	0.00e+00	27	28	0	429916160	50	6027
2026-01-14 13:48:19.11	38.54	23.70	-38.3	-39.2	22.9	0.00e+00	92	28	0	437256192	50	5880
2026-01-14 13:48:23.14	39.14	24.22	-38.2	-39.1	23.1	0.00e+00	0	28	0	445644800	50	5820
2026-01-14 13:48:27.18	39.76	24.75	-38.5	-39.5	22.9	0.00e+00	0	28	0	452984832	50	6064
2026-01-14 13:48:31.22	40.40	25.29	-38.7	-39.7	22.7	0.00e+00	27	28	0	460324864	50	6210
2026-01-14 13:48:35.26	41.07	25.83	-38.5	-39.5	22.8	0.00e+00	92	28	0	467664896	50	6048
2026-01-14 13:48:39.29	41.76	26.38	-38.7	-39.7	22.8	0.00e+00	0	28	0	476053504	50	6201
2026-01-14 13:48:43.33	42.47	26.94	-38.2	-39.1	23.2	0.00e+00	0	28	0	483393536	50	5789
2026-01-14 13:48:47.36	43.20	27.51	-38.4	-39.3	23.0	0.00e+00	53	28	0	490733568	50	5940
2026-01-14 13:48:51.40	43.97	28.08	-38.9	-39.9	22.5	0.00e+00	92	28	0	498073600	50	6332
2026-01-14 13:48:55.43	44.75	28.66	-39.4	-40.5	21.8	0.00e+00	32	28	0	505413632	50	6812
2026-01-14 13:48:59.47	45.57	29.24	-39.8	-41.0	21.5	0.00e+00	0	28	0	513802240	52	6404
2026-01-14 13:49:03.51	46.42	29.83	-39.3	-40.4	22.1	0.00e+00	6	28	0	521142272	52	5985
2026-01-14 13:49:07.54	47.30	30.43	-39.5	-40.6	21.7	0.00e+00	92	28	0	528482304	52	6151
2026-01-14 13:49:11.58	48.21	31.03	-39.7	-40.8	21.7	0.00e+00	31	28	0	535822336	52	6284
2026-01-14 13:49:15.62	49.16	31.64	-39.6	-40.7	21.8	0.00e+00	33	28	0	543162368	52	6175
2026-01-14 13:49:19.66	50.14	32.25	-39.4	-40.4	22.2	0.00e+00	0	28	0	551550976	52	6000
2026-01-14 13:49:23.69	51.15	32.86	-38.7	-39.7	22.7	0.00e+00	46	28	0	558891008	50	6208
2026-01-14 13:49:27.73	52.21	33.47	-38.9	-39.9	22.6	0.00e+00	0	28	0	566231040	50	6364
2026-01-14 13:49:31.78	53.31	34.09	-39.2	-40.2	22.2	0.00e+00	56	28	0	573571072	50	6602
2026-01-14 13:49:35.82	54.45	34.71	-38.8	-39.8	22.7	0.00e+00	0	28	0	581959680	50	6260
2026-01-14 13:49:39.85	55.63	35.33	-38.4	-39.4	23.0	0.00e+00	0	28	0	589299712	50	5982
2026-01-14 13:49:43.89	56.86	35.94	-38.8	-39.8	22.6	0.00e+00	2	28	0	596639744	50	6281
2026-01-14 13:49:47.92	58.13	36.55	-38.5	-39.5	22.9	0.00e+00	0	28	0	603979776	50	6062
2026-01-14 13:49:51.96	59.45	37.16	-39.3	-40.3	22.1	0.00e+00	92	28	0	611319808	50	6668
2026-01-14 13:49:56.00	60.82	37.76	-39.3	-40.4	22.2	0.00e+00	32	28	0	619708416	50	6704
2026-01-14 13:50:00.04	62.24	38.36	-39.8	-40.9	21.7	0.00e+00	2	28	0	627048448	52	6338
2026-01-14 13:50:04.07	63.71	38.94	-40.4	-41.6	21.0	0.00e+00	26	28	0	634388480	52	6915
2026-01-14 13:50:08.11	65.23	39.51	-39.6	-40.7	21.9	0.00e+00	90	28	0	641728512	52	6198
2026-01-14 13:50:12.14	66.81	40.07	-39.5	-40.5	22.0	0.00e+00	50	28	0	650117120	52	6070
2026-01-14 13:50:16.18	68.44	40.62	-39.2	-40.2	22.3	0.00e+00	0	28	0	657457152	52	5882
2026-01-14 13:50:20.22	70.13	41.14	-40.6	-41.8	20.8	0.00e+00	24	28	0	664797184	52	7031
2026-01-14 13:50:24.26	71.87	41.64	-39.8	-40.9	21.6	0.00e+00	92	28	0	672137216	52	6388
2026-01-14 13:50:28.29	73.66	42.12	-41.9	-43.4	19.5	0.00e+00	2	28	0	679477248	56	6740
2026-01-14 13:50:32.33	75.50	42.58	-40.3	-41.5	21.0	0.00e+00	0	28	0	687865856	54	6039
2026-01-14 13:50:36.37	77.40	43.01	-41.0	-42.3	20.4	0.00e+00	0	28	0	695205888	54	6619
2026-01-14 13:50:40.41	79.35	43.40	-39.7	-40.8	21.7	0.00e+00	92	28	0	702545920	52	6252
2026-01-14 13:50:44.45	81.34	43.77	-39.3	-40.3	22.3	0.00e+00	5	28	0	709885952	52	5939
2026-01-14 13:50:48.48	83.37	44.09	-39.1	-40.1	22.3	0.00e+00	28	28	0	717225984	50	6525
2026-01-14 13:50:52.52	85.45	44.38	-39.7	-40.8	21.8	0.00e+00	0	28	0	725614592	52	6271
2026-01-14 13:50:56.55	87.55	44.64	-39.9	-41.0	21.6	0.00e+00	92	28	0	732954624	52	6434
2026-01-14 13:51:00.59	89.69	44.85	-40.3	-41.4	21.2	0.00e+00	54	28	0	740294656	52	6749
2026-01-14 13:51:04.63	91.86	45.01	-38.9	-39.9	22.6	0.00e+00	55	28	0	747634688	52	5674
2026-01-14 13:51:08.66	94.04	45.13	-39.2	-40.3	22.4	0.00e+00	52	28	0	756023296	52	5908
2026-01-14 13:51:12.70	96.25	45.21	-38.4	-39.3	23.2	0.00e+00	87	28	0	763363328	50	5952
2026-01-14 13:51:16.74	98.45	45.24	-38.1	-39.0	23.3	0.00e+00	0	28	0	770703360	48	6428
2026-01-14 13:51:20.77	100.66	45.23	-38.1	-39.0	23.3	0.00e+00	0	28	0	778043392	50	5723
2026-01-14 13:51:24.81	102.86	45.17	-38.3	-39.3	23.1	0.00e+00	91	28	0	785383424	48	6635
2026-01-14 13:51:28.84	105.05	45.06	-39.1	-40.1	22.4	0.00e+00	64	28	0	793772032	50	6471
2026-01-14 13:51:32.88	107.23	44.91	-40.1	-41.2	21.4	0.00e+00	26	28	0	801112064	52	6574
2026-01-14 13:51:36.92	109.38	44.72	-39.2	-40.2	22.3	0.00e+00	0	28	0	808452096	52	5877
2026-01-14 13:51:40.95	111.50	44.48	-39.3	-40.4	22.2	0.00e+00	92	28	0	815792128	52	5976
2026-01-14 13:51:44.99	113.60	44.21	-40.4	-41.7	20.9	0.00e+00	78	28	0	824180736	52	6953
2026-01-14 13:51:49.02	115.65	43.89	-39.8	-40.9	21.7	0.00e+00	27	28	0	831520768	52	6350
2026-01-14 13:51:53.06	117.66	43.54	-38.1	-39.0	23.4	0.00e+00	33	28	0	838860800	50	5703
2026-01-14 13:51:57.10	119.63	43.16	-37.9	-38.8	23.6	0.00e+00	90	28	0	846200832	50	5593
2026-01-14 13:52:01.13	121.54	42.74	-38.2	-39.1	23.2	0.00e+00	53	28	0	853540864	48	6528
2026-01-14 13:52:05.17	123.41	42.29	-36.2	-37.0	25.1	0.00e+00	0	28	0	861929472	46	5697
2026-01-14 13:52:09.20	125.22	41.82	-36.3	-37.0	24.9	0.00e+00	55	28	0	869269504	46	5761
2026-01-14 13:52:13.24	126.99	41.32	-36.8	-37.7	24.5	0.00e+00	91	28	0	876609536	46	6180
2026-01-14 13:52:17.27	128.69	40.81	-36.8	-37.7	24.3	0.00e+00	27	28	0	883949568	46	6181
2026-01-14 13:52:21.31	130.35	40.27	-37.3	-38.2	24.2	0.00e+00	0	28	0	891289600	46	6571
2026-01-14 13:52:25.35	131.95	39.71	-37.1	-37.9	24.3	0.00e+00	38	28	0	899678208	46	6366
2026-01-14 13:52:29.38	133.50	39.14	-37.3	-38.1	24.3	0.00e+00	92	28	0	907018240	48	5786
2026-01-14 13:52:33.41	134.99	38.56	-39.0	-40.0	22.5	0.00e+00	31	28	0	914358272	50	6450
2026-01-14 13:52:37.45	136.43	37.97	-37.7	-38.6	23.8	0.00e+00	5	28	0	921698304	48	6128
2026-01-14 13:52:41.48	137.82	37.37	-37.1	-38.0	24.3	0.00e+00	5	28	0	930086912	48	5697
2026-01-14 13:52:45.52	139.17	36.76	-39.2	-40.2	22.3	0.00e+00	92	28	0	937426944	50	6594
2026-01-14 13:52:49.56	140.46	36.15	-37.9	-38.8	23.4	0.00e+00	0	28	0	944766976	48	6292
2026-01-14 13:52:53.60	141.71	35.53	-39.0	-40.1	22.6	0.00e+00	38	28	0	952107008	52	5782
2026-01-14 13:52:57.63	142.90	34.91	-37.6	-38.5	23.7	0.00e+00	5	28	0	959447040	48	6075
2026-01-14 13:53:01.67	144.06	34.29	-38.7	-39.7	22.8	0.00e+00	92	28	0	967835648	52	5543
2026-01-14 13:53:05.71	145.18	33.67	-40.1	-41.3	21.3	0.00e+00	7	28	0	975175680	52	6680
2026-01-14 13:53:09.74	146.25	33.05	-38.0	-38.9	23.5	0.00e+00	53	28	0	982515712	50	5671
2026-01-14 13:53:13.78	147.28	32.43	-39.0	-40.1	22.2	0.00e+00	6	28	0	989855744	50	6481
2026-01-14 13:53:17.82	148.28	31.82	-39.9	-41.1	21.5	0.00e+00	92	28	0	998244352	54	5795
2026-01-14 13:53:21.85	149.24	31.21	-39.3	-40.4	22.0	0.00e+00	0	28	0	1005584384	50	6707
2026-01-14 13:53:25.90	150.17	30.60	-41.1	-42.5	20.3	0.00e+00	0	28	0	1012924416	56	6057
2026-01-14 13:53:29.93	151.06	30.00	-37.7	-38.5	23.8	0.00e+00	92	28	0	1020264448	50	5423
2026-01-14 13:53:33.97	151.92	29.40	-39.5	-40.6	21.7	0.00e+00	92	28	0	1027604480	50	6915
2026-01-14 13:53:38.00	152.75	28.81	-38.8	-39.8	22.7	0.00e+00	29	28	0	1035993088	52	5571
2026-01-14 13:53:42.04	153.55	28.23	-38.5	-39.5	22.9	0.00e+00	0	28	0	1043333120	50	6043
2026-01-14 13:53:46.08	154.32	27.65	-38.9	-40.0	22.4	0.00e+00	92	28	0	1050673152	50	6408
2026-01-14 13:53:50.11	155.07	27.08	-37.4	-38.2	24.0	0.00e+00	0	28	0	1058013184	48	5871
2026-01-14 13:53:54.15	155.79	26.52	-37.4	-38.2	24.0	0.00e+00	2	28	0	1066401792	46	6577
2026-01-14 13:53:58.19	156.49	25.96	-38.1	-39.0	23.2	0.00e+00	34	28	0	1073741824	48	6451
2026-01-14 13:54:02.23	157.16	25.41	-37.7	-38.6	23.7	0.00e+00	92	28	0	1081081856	48	6113
2026-01-14 13:54:06.27	157.81	24.87	-37.3	-38.2	24.0	0.00e+00	30	28	0	1088421888	48	5832
2026-01-14 13:54:10.31	158.44	24.33	-37.7	-38.6	23.6	0.00e+00	0	28	0	1095761920	48	6139
2026-01-14 13:54:14.34	159.05	23.81	-39.0	-40.0	22.3	0.00e+00	0	28	0	1104150528	50	6431
2026-01-14 13:54:18.38	159.64	23.29	-38.7	-39.7	22.6	0.00e+00	90	28	0	1111490560	50	6212
2026-01-14 13:54:22.41	160.22	22.77	-37.8	-38.7	23.5	0.00e+00	48	28	0	1118830592	50	5531
2026-01-14 13:54:26.45	160.77	22.27	-38.4	-39.4	22.8	0.00e+00	0	28	0	1126170624	50	5975
2026-01-14 13:54:30.49	161.31	21.77	-38.1	-39.0	23.2	0.00e+00	0	28	0	1134559232	50	5744
2026-01-14 13:54:34.53	161.83	21.28	-37.7	-38.6	23.5	0.00e+00	92	28	0	1141899264	48	6116
2026-01-14 13:54:38.56	162.33	20.80	-37.7	-38.6	23.5	0.00e+00	0	28	0	1149239296	48	6158
2026-01-14 13:54:42.60	162.82	20.32	-37.9	-38.8	23.4	0.00e+00	45	28	0	1156579328	48	6277
2026-01-14 13:54:46.63	163.30	19.85	-38.2	-39.2	23.0	0.00e+00	22	28	0	1163919360	48	6567
2026-01-14 13:54:50.67	163.76	19.39	-38.7	-39.7	22.5	0.00e+00	92	28	0	1172307968	48	6983
2026-01-14 13:54:54.70	164.21	18.93	-38.6	-39.6	22.7	0.00e+00	7	28	0	1179648000	50	6131
2026-01-14 13:54:58.74	164.65	18.48	-38.3	-39.2	23.0	0.00e+00	44	28	0	1186988032	50	5872
2026-01-14 13:55:02.78	165.07	18.04	-38.1	-39.0	23.2	0.00e+00	63	28	0	1194328064	50	5741
2026-01-14 13:55:06.81	165.48	17.60	-38.3	-39.3	22.9	0.00e+00	92	28	0	1201668096	50	5915
2026-01-14 13:55:10.85	165.88	17.17	-38.4	-39.3	22.8	0.00e+00	0	28	0	1210056704	50	5951
2026-01-14 13:55:14.89	166.28	16.75	-38.0	-39.0	23.1	0.00e+00	2	28	0	1217396736	50	5707
2026-01-14 13:55:18.92	166.66	16.33	-37.7	-38.6	23.3	0.00e+00	90	28	0	1224736768	50	5496
2026-01-14 13:55:22.96	167.03	15.92	-38.0	-38.9	23.1	0.00e+00	0	28	0	1232076800	48	6336
2026-01-14 13:55:27.00	167.39	15.51	-38.3	-39.3	22.8	0.00e+00	39	28	0	1240465408	48	6653
2026-01-14 13:55:31.03	167.74	15.11	-38.8	-39.8	22.3	0.00e+00	2	28	0	1247805440	48	7081
2026-01-14 13:55:35.07	168.08	14.72	-38.8	-39.8	22.3	0.00e+00	92	28	0	1255145472	50	6314
2026-01-14 13:55:39.11	168.42	14.33	-38.2	-39.2	22.9	0.00e+00	0	28	0	1262485504	50	5864
2026-01-14 13:55:43.15	168.74	13.95	-37.9	-38.9	23.1	0.00e+00	46	28	0	1269825536	50	5631
2026-01-14 13:55:47.18	169.06	13.57	-37.6	-38.5	23.5	0.00e+00	0	28	0	1278214144	48	6060
2026-01-14 13:55:51.22	169.37	13.19	-38.0	-39.0	23.0	0.00e+00	92	28	0	1285554176	48	6392
2026-01-14 13:55:55.26	169.68	12.82	-38.5	-39.6	22.4	0.00e+00	0	28	0	1292894208	48	6849
2026-01-14 13:55:59.30	169.97	12.46	-39.2	-40.2	21.7	0.00e+00	0	28	0	1300234240	50	6611
2026-01-14 13:56:03.33	170.26	12.10	-39.5	-40.7	21.3	0.00e+00	0	28	0	1308622848	50	6940
2026-01-14 13:56:07.37	170.55	11.75	-39.6	-40.8	21.3	0.00e+00	90	28	0	1315962880	50	7016
2026-01-14 13:56:11.41	170.82	11.40	-39.5	-40.6	21.3	0.00e+00	0	28	0	1323302912	50	6893
2026-01-14 13:56:15.45	171.09	11.05	-39.0	-40.1	21.7	0.00e+00	39	28	0	1330642944	50	6499
2026-01-14 13:56:19.48	171.36	10.71	-38.7	-39.7	22.2	0.00e+00	0	28	0	1337982976	50	6229
2026-01-14 13:56:23.52	171.62	10.37	-38.8	-39.8	22.1	0.00e+00	92	28	0	1346371584	50	6296
2026-01-14 13:56:27.56	171.87	10.04	-38.6	-39.6	22.2	0.00e+00	38	28	0	1353711616	50	6167
2026-01-14 13:56:31.59	172.12	9.71	-38.9	-40.0	21.9	0.00e+00	43	28	0	1361051648	50	6394
2026-01-14 13:56:35.63	172.36	9.38	-39.2	-40.3	21.5	0.00e+00	0	28	0	1368391680	50	6657
2026-01-14 13:56:39.67	172.60	9.06	-39.5	-40.7	21.1	0.00e+00	90	28	0	1375731712	50	6983
2026-01-14 13:56:43.70	172.83	8.75	-39.8	-41.0	20.9	0.00e+00	7	28	0	1384120320	52	6463
2026-01-14 13:56:47.74	173.06	8.43	-40.1	-41.3	20.6	0.00e+00	43	28	0	1391460352	52	6669
2026-01-14 13:56:51.78	173.29	8.12	-40.1	-41.4	20.5	0.00e+00	87	28	0	1398800384	52	6695
2026-01-14 13:56:55.82	173.50	7.81	-40.1	-41.3	20.5	0.00e+00	66	28	0	1406140416	52	6686
2026-01-14 13:56:59.85	173.72	7.51	-39.9	-41.1	20.7	0.00e+00	2	28	0	1414529024	52	6537
2026-01-14 13:57:03.89	173.93	7.21	-39.8	-41.0	20.8	0.00e+00	0	28	0	1421869056	52	6433
2026-01-14 13:57:07.93	174.14	6.91	-39.6	-40.8	20.9	0.00e+00	92	28	0	1429209088	52	6312
2026-01-14 13:57:11.97	174.34	6.62	-39.6	-40.8	20.9	0.00e+00	38	28	0	1436549120	52	6278
2026-01-14 13:57:16.00	174.54	6.33	-39.3	-40.5	21.2	0.00e+00	40	28	0	1443889152	52	6046
2026-01-14 13:57:20.04	174.74	6.04	-39.6	-40.8	20.8	0.00e+00	40	28	0	1452277760	52	6277
2026-01-14 13:57:24.07	174.93	5.75	-39.6	-40.8	20.6	0.00e+00	92	28	0	1459617792	52	6311
2026-01-14 13:57:28.11	175.12	5.47	-39.8	-41.1	20.5	0.00e+00	0	28	0	1466957824	52	6479
2026-01-14 13:57:32.15	175.30	5.19	-40.0	-41.3	20.2	0.00e+00	0	28	0	1474297856	52	6648
2026-01-14 13:57:36.18	175.49	4.91	-40.2	-41.6	19.9	0.00e+00	38	28	0	1482686464	52	6899
2026-01-14 13:57:40.22	175.66	4.64	-40.6	-42.1	19.4	0.00e+00	92	28	0	1490026496	52	7318
2026-01-14 13:57:44.26	175.84	4.37	-40.6	-42.1	19.4	0.00e+00	0	28	0	1497366528	54	6478
2026-01-14 13:57:48.30	176.01	4.10	-40.9	-42.5	18.8	0.00e+00	0	28	0	1504706560	54	6833
2026-01-14 13:57:52.33	176.18	3.83	-40.9	-42.5	18.7	0.00e+00	0	28	0	1512046592	54	6842
2026-01-14 13:57:56.37	176.35	3.57	-41.3	-43.1	18.3	0.00e+00	90	28	0	1520435200	54	7287
2026-01-14 13:58:00.40	176.52	3.31	-41.3	-43.0	18.1	0.00e+00	46	28	0	1527775232	54	7231
2026-01-14 13:58:04.44	176.68	3.05	-41.9	-43.9	17.2	0.00e+00	42	28	0	1535115264	56	7149
2026-01-14 13:58:08.48	176.84	2.79	-48.4	-63.5	3.6	1.51e+00	0	28	104	1537212416	60	53958
2026-01-14 13:58:12.52	176.99	2.53	-48.8	-64.0	3.6	1.51e+00	0	28	104	1537212416	60	57229
2026-01-14 13:58:16.56	177.15	2.28	-48.8	-63.9	3.6	1.51e+00	0	28	104	1537212416	60	56763
2026-01-14 13:58:20.60	177.30	2.03	-48.6	-63.9	3.6	1.51e+00	0	29	104	1537212416	60	56332
2026-01-14 13:58:24.64	177.45	1.78	-48.7	-63.9	3.6	1.51e+00	0	28	104	1537212416	60	56620
2026-01-14 13:58:28.68	177.60	1.53	-48.7	-63.8	3.6	1.51e+00	0	28	104	1537212416	60	56250
2026-01-14 13:58:32.72	177.74	1.29	-48.7	-63.8	3.6	1.51e+00	0	28	104	1537212416	60	56240
2026-01-14 13:58:36.76	177.89	1.04	-48.7	-63.8	3.6	1.51e+00	0	29	104	1537212416	60	56203
2026-01-14 13:58:40.79	178.03	0.80	-48.6	-63.8	3.6	1.51e+00	0	29	104	1537212416	60	55963
2026-01-14 13:58:44.84	178.17	0.56	-48.6	-63.8	3.5	1.51e+00	0	29	104	1537212416	60	56188
2026-01-14 13:58:48.87	178.30	0.33	-48.6	-63.8	3.6	1.51e+00	0	28	104	1537212416	60	56250
2026-01-14 13:58:52.91	178.44	0.09	-48.6	-63.8	3.6	1.51e+00	0	29	104	1537212416	60	56075

#Closed at: 2026-01-14 13:58:56
#Recorded file [1537 MB]: D:/lorett/data/35029_260115_014340.dat