passes_logs/2026/01/14/R4.6S_Anadyr/R4.6S_Anadyr__20260114_231838_SUOMI_NPP_rec.log

#Pass ID: 20260114_231838_SUOMI NPP
#Satellite: SUOMI NPP
#Configuration: NPP
#almurnet v.1.7.20251203
#Start time: 2026-01-14 23:18:40

#Version: 2.2.20231116
#Station: R4.6S_Anadyr
#Location: 177.4865 lon 64.73178 lat
#TLE: 1 37849U 11061A   26014.61059675  .00000037  00000+0  38639-4 0  9994
#TLE: 2 37849  98.7810 316.6625 0002460  64.3781 295.7649 14.19525105736658

#Time	Az	El	Level	Level2	SNR	BER	BlckErr	Temp	State	Recorded	gain1	gain2
2026-01-14 23:18:40.75	132.17	0.13	-48.8	-61.2	3.5	1.52e+00	0	27	0	0	60	40497
2026-01-14 23:18:44.78	132.07	0.37	-48.8	-64.1	3.6	1.51e+00	0	28	104	0	60	57693
2026-01-14 23:18:48.82	131.97	0.61	-48.8	-64.0	3.6	1.51e+00	0	28	104	0	60	57373
2026-01-14 23:18:52.86	131.87	0.86	-48.5	-63.7	3.6	1.51e+00	0	28	104	0	60	55098
2026-01-14 23:18:56.91	131.77	1.10	-47.4	-62.6	3.6	1.51e+00	0	28	104	0	60	48598
2026-01-14 23:19:00.94	131.67	1.35	-47.0	-62.3	3.6	1.51e+00	0	28	104	0	60	46990
2026-01-14 23:19:04.98	131.57	1.60	-47.0	-62.4	3.6	1.51e+00	0	28	104	0	60	47501
2026-01-14 23:19:09.02	131.46	1.85	-47.0	-62.2	3.6	1.51e+00	0	28	104	0	60	46569
2026-01-14 23:19:13.06	131.35	2.11	-47.0	-62.1	3.6	1.51e+00	0	29	104	0	60	46185
2026-01-14 23:19:17.09	131.24	2.36	-47.0	-62.4	3.6	1.51e+00	0	28	104	0	60	47432
2026-01-14 23:19:21.13	131.13	2.62	-47.0	-61.9	3.6	1.51e+00	0	28	104	0	60	44900
2026-01-14 23:19:25.17	131.01	2.88	-46.9	-61.2	3.6	1.51e+00	0	28	104	0	60	41523
2026-01-14 23:19:29.21	130.90	3.15	-46.9	-59.7	3.7	1.51e+00	0	28	104	0	60	34926
2026-01-14 23:19:33.25	130.78	3.41	-44.1	-47.4	14.0	1.90e-04	79	28	0	5242880	60	8433
2026-01-14 23:19:37.29	130.65	3.68	-41.9	-43.9	17.3	0.00e+00	91	29	0	12582912	56	7163
2026-01-14 23:19:41.32	130.53	3.95	-45.5	-50.7	11.4	2.19e-01	0	29	0	15728640	60	12367
2026-01-14 23:19:45.36	130.40	4.22	-40.7	-42.4	18.7	0.00e+00	92	29	0	18874368	54	6727
2026-01-14 23:19:49.39	130.27	4.50	-39.4	-40.7	20.4	0.00e+00	83	29	0	26214400	52	6213
2026-01-14 23:19:53.42	130.14	4.78	-39.6	-40.9	20.2	0.00e+00	58	29	0	33554432	52	6362
2026-01-14 23:19:57.46	130.01	5.06	-40.0	-41.5	20.0	0.00e+00	0	28	0	40894464	52	6816
2026-01-14 23:20:01.49	129.87	5.34	-39.8	-41.3	20.1	0.00e+00	92	29	0	48234496	52	6642
2026-01-14 23:20:05.53	129.73	5.63	-39.0	-40.2	21.0	0.00e+00	92	29	0	56623104	52	5836
2026-01-14 23:20:09.56	129.58	5.92	-38.7	-39.9	21.4	0.00e+00	0	29	0	63963136	50	6339
2026-01-14 23:20:13.60	129.44	6.21	-39.1	-40.3	21.0	0.00e+00	0	29	0	71303168	50	6674
2026-01-14 23:20:17.64	129.28	6.51	-39.3	-40.6	20.7	0.00e+00	24	29	0	78643200	50	6869
2026-01-14 23:20:21.67	129.13	6.81	-38.7	-39.8	21.4	0.00e+00	92	29	0	87031808	50	6316
2026-01-14 23:20:25.71	128.97	7.11	-38.5	-39.6	21.6	0.00e+00	0	29	0	94371840	50	6172
2026-01-14 23:20:29.75	128.81	7.42	-38.9	-40.1	21.1	0.00e+00	81	29	0	101711872	50	6484
2026-01-14 23:20:33.79	128.65	7.73	-39.1	-40.3	21.2	0.00e+00	70	29	0	109051904	50	6651
2026-01-14 23:20:37.83	128.48	8.04	-38.6	-39.7	21.4	0.00e+00	32	29	0	116391936	50	6227
2026-01-14 23:20:41.86	128.31	8.36	-38.6	-39.7	21.5	0.00e+00	0	29	0	124780544	50	6242
2026-01-14 23:20:45.89	128.13	8.68	-38.9	-40.0	21.4	0.00e+00	92	29	0	132120576	50	6456
2026-01-14 23:20:49.93	127.95	9.00	-38.4	-39.5	21.9	0.00e+00	90	29	0	139460608	50	6070
2026-01-14 23:20:53.97	127.77	9.33	-38.7	-39.8	21.7	0.00e+00	0	29	0	146800640	50	6304
2026-01-14 23:20:58.01	127.58	9.67	-38.4	-39.5	21.9	0.00e+00	0	29	0	154140672	50	6079
2026-01-14 23:21:02.05	127.38	10.00	-38.4	-39.4	22.0	0.00e+00	90	29	0	162529280	50	6030
2026-01-14 23:21:06.08	127.18	10.34	-37.9	-38.9	22.4	0.00e+00	64	29	0	169869312	50	5657
2026-01-14 23:21:10.12	126.98	10.69	-37.9	-38.9	22.6	0.00e+00	0	29	0	177209344	50	5655
2026-01-14 23:21:14.16	126.77	11.04	-38.3	-39.3	22.1	0.00e+00	0	29	0	184549376	50	5932
2026-01-14 23:21:18.20	126.55	11.40	-38.3	-39.4	22.2	0.00e+00	59	29	0	192937984	50	5968
2026-01-14 23:21:22.23	126.33	11.76	-37.7	-38.7	22.6	0.00e+00	90	29	0	200278016	48	6213
2026-01-14 23:21:26.27	126.11	12.12	-37.8	-38.7	22.7	0.00e+00	0	29	0	207618048	48	6238
2026-01-14 23:21:30.31	125.88	12.49	-37.8	-38.7	22.7	0.00e+00	0	29	0	214958080	48	6237
2026-01-14 23:21:34.35	125.64	12.87	-37.6	-38.6	22.8	0.00e+00	90	29	0	222298112	48	6124
2026-01-14 23:21:38.38	125.39	13.24	-37.9	-38.9	22.7	0.00e+00	0	29	0	230686720	48	6380
2026-01-14 23:21:42.42	125.14	13.63	-38.3	-39.3	22.3	0.00e+00	0	29	0	238026752	48	6660
2026-01-14 23:21:46.46	124.88	14.02	-37.5	-38.4	23.0	0.00e+00	92	29	0	245366784	48	6023
2026-01-14 23:21:50.49	124.62	14.42	-38.4	-39.4	22.2	0.00e+00	91	29	0	252706816	48	6762
2026-01-14 23:21:54.52	124.35	14.82	-37.8	-38.8	22.8	0.00e+00	0	29	0	261095424	48	6258
2026-01-14 23:21:58.56	124.07	15.23	-37.9	-38.9	22.7	0.00e+00	0	29	0	268435456	48	6364
2026-01-14 23:22:02.60	123.78	15.65	-37.6	-38.6	22.8	0.00e+00	92	29	0	275775488	48	6145
2026-01-14 23:22:06.63	123.48	16.07	-37.8	-38.8	22.7	0.00e+00	92	29	0	283115520	48	6264
2026-01-14 23:22:10.66	123.17	16.49	-37.6	-38.6	22.9	0.00e+00	0	29	0	290455552	48	6136
2026-01-14 23:22:14.70	122.86	16.93	-37.9	-38.9	22.7	0.00e+00	0	29	0	298844160	48	6368
2026-01-14 23:22:18.74	122.53	17.37	-37.6	-38.5	23.0	0.00e+00	78	29	0	306184192	48	6070
2026-01-14 23:22:22.77	122.20	17.82	-37.5	-38.5	23.1	0.00e+00	92	29	0	313524224	48	6055
2026-01-14 23:22:26.81	121.85	18.28	-37.5	-38.5	23.2	0.00e+00	0	29	0	320864256	48	6043
2026-01-14 23:22:30.85	121.49	18.74	-37.1	-38.1	23.4	0.00e+00	92	29	0	328204288	48	5777
2026-01-14 23:22:34.88	121.12	19.21	-37.5	-38.5	23.0	0.00e+00	92	29	0	336592896	48	6062
2026-01-14 23:22:38.92	120.74	19.69	-37.9	-38.9	22.9	0.00e+00	69	29	0	343932928	48	6340
2026-01-14 23:22:42.96	120.35	20.18	-38.2	-39.1	22.6	0.00e+00	0	29	0	351272960	48	6537
2026-01-14 23:22:46.99	119.94	20.67	-38.7	-39.7	22.2	0.00e+00	92	29	0	358612992	50	6231
2026-01-14 23:22:51.03	119.52	21.17	-38.3	-39.3	22.5	0.00e+00	92	29	0	367001600	50	5904
2026-01-14 23:22:55.07	119.09	21.69	-38.1	-39.0	22.8	0.00e+00	0	29	0	374341632	50	5760
2026-01-14 23:22:59.11	118.64	22.21	-38.0	-39.0	22.8	0.00e+00	0	29	0	381681664	50	5698
2026-01-14 23:23:03.15	118.17	22.74	-38.3	-39.3	22.4	0.00e+00	92	29	0	389021696	50	5962
2026-01-14 23:23:07.18	117.69	23.27	-38.7	-39.7	22.1	0.00e+00	90	29	0	396361728	50	6243
2026-01-14 23:23:11.22	117.19	23.82	-38.6	-39.6	22.3	0.00e+00	0	29	0	404750336	50	6170
2026-01-14 23:23:15.26	116.67	24.38	-38.7	-39.8	22.1	0.00e+00	0	29	0	412090368	50	6282
2026-01-14 23:23:19.30	116.14	24.94	-38.8	-39.9	22.0	0.00e+00	92	29	0	419430400	50	6356
2026-01-14 23:23:23.33	115.58	25.52	-39.1	-40.2	21.8	0.00e+00	92	29	0	426770432	50	6587
2026-01-14 23:23:27.37	115.00	26.10	-38.2	-39.1	22.7	0.00e+00	0	29	0	435159040	50	5824
2026-01-14 23:23:31.41	114.40	26.70	-37.7	-38.6	23.1	0.00e+00	92	29	0	442499072	48	6155
2026-01-14 23:23:35.44	113.78	27.30	-38.3	-39.3	22.3	0.00e+00	91	29	0	449839104	48	6648
2026-01-14 23:23:39.48	113.13	27.92	-38.5	-39.5	22.5	0.00e+00	65	29	0	457179136	50	6100
2026-01-14 23:23:43.52	112.46	28.54	-38.5	-39.5	22.2	0.00e+00	0	29	0	464519168	50	6074
2026-01-14 23:23:47.56	111.75	29.17	-38.9	-40.0	22.0	0.00e+00	91	29	0	472907776	50	6451
2026-01-14 23:23:51.59	111.02	29.81	-39.1	-40.2	22.0	0.00e+00	91	29	0	480247808	50	6582
2026-01-14 23:23:55.63	110.26	30.46	-39.6	-40.7	21.6	0.00e+00	0	29	0	487587840	50	6944
2026-01-14 23:23:59.67	109.47	31.12	-39.1	-40.2	21.9	0.00e+00	0	29	0	494927872	50	6568
2026-01-14 23:24:03.70	108.65	31.79	-39.9	-41.1	21.2	0.00e+00	88	29	0	503316480	52	6466
2026-01-14 23:24:07.74	107.78	32.47	-39.5	-40.6	21.7	0.00e+00	90	29	0	510656512	52	6167
2026-01-14 23:24:11.76	106.89	33.15	-39.5	-40.6	21.6	0.00e+00	0	29	0	517996544	52	6143
2026-01-14 23:24:15.80	105.95	33.84	-40.1	-41.2	21.3	0.00e+00	86	29	0	525336576	52	6613
2026-01-14 23:24:19.83	104.97	34.54	-39.2	-40.3	21.8	0.00e+00	91	29	0	532676608	52	5926
2026-01-14 23:24:23.87	103.95	35.24	-39.6	-40.7	21.5	0.00e+00	21	29	0	541065216	52	6224
2026-01-14 23:24:27.91	102.88	35.95	-41.0	-42.4	20.1	0.00e+00	0	29	0	548405248	54	6748
2026-01-14 23:24:31.94	101.77	36.66	-41.1	-42.5	20.3	0.00e+00	92	29	0	555745280	54	6813
2026-01-14 23:24:35.98	100.60	37.37	-39.3	-40.3	21.8	0.00e+00	90	29	0	563085312	52	5961
2026-01-14 23:24:40.01	99.38	38.09	-39.4	-40.5	21.8	0.00e+00	0	29	0	571473920	50	6834
2026-01-14 23:24:44.04	98.11	38.80	-39.6	-40.7	21.6	0.00e+00	0	29	0	578813952	52	6211
2026-01-14 23:24:48.08	96.78	39.51	-40.2	-41.5	20.8	0.00e+00	92	29	0	586153984	52	6788
2026-01-14 23:24:52.12	95.39	40.22	-40.1	-41.3	21.1	0.00e+00	92	29	0	593494016	54	5903
2026-01-14 23:24:56.15	93.94	40.92	-39.5	-40.7	21.5	0.00e+00	0	29	0	600834048	52	6189
2026-01-14 23:25:00.18	92.42	41.62	-39.2	-40.3	21.9	0.00e+00	89	29	0	609222656	52	5930
2026-01-14 23:25:04.22	90.84	42.30	-39.5	-40.6	21.6	0.00e+00	79	29	0	616562688	50	6849
2026-01-14 23:25:08.26	89.19	42.97	-40.6	-42.1	20.3	0.00e+00	90	29	0	623902720	52	7298
2026-01-14 23:25:12.30	87.46	43.63	-38.7	-39.7	22.4	0.00e+00	0	29	0	631242752	52	5535
2026-01-14 23:25:16.34	85.67	44.26	-36.6	-37.4	24.2	0.00e+00	90	29	0	638582784	46	5996
2026-01-14 23:25:20.37	83.81	44.87	-39.4	-40.7	21.7	0.00e+00	92	29	0	646971392	50	6938
2026-01-14 23:25:24.41	81.87	45.46	-38.0	-39.0	22.7	0.00e+00	0	29	0	654311424	48	6442
2026-01-14 23:25:28.45	79.86	46.01	-38.4	-39.4	22.6	0.00e+00	0	29	0	661651456	48	6716
2026-01-14 23:25:32.48	77.79	46.53	-38.0	-38.9	23.0	0.00e+00	92	29	0	668991488	48	6348
2026-01-14 23:25:36.52	75.64	47.02	-40.1	-41.3	20.8	0.00e+00	92	29	0	677380096	52	6656
2026-01-14 23:25:40.56	73.43	47.46	-42.6	-44.6	18.4	0.00e+00	0	29	0	684720128	58	6850
2026-01-14 23:25:44.60	71.15	47.86	-41.0	-42.4	20.1	0.00e+00	0	29	0	692060160	56	6003
2026-01-14 23:25:48.63	68.83	48.22	-39.8	-41.0	21.5	0.00e+00	41	29	0	699400192	52	6400
2026-01-14 23:25:52.66	66.46	48.52	-39.7	-41.0	21.2	0.00e+00	92	29	0	706740224	52	6422
2026-01-14 23:25:56.69	64.04	48.77	-38.1	-39.0	22.8	0.00e+00	0	29	0	715128832	48	6452
2026-01-14 23:26:00.72	61.59	48.97	-37.7	-38.7	23.4	0.00e+00	87	29	0	722468864	48	6184
2026-01-14 23:26:04.76	59.10	49.11	-36.3	-37.2	24.1	0.00e+00	88	29	0	729808896	44	6544
2026-01-14 23:26:08.79	56.61	49.19	-39.1	-40.3	21.9	0.00e+00	0	29	0	737148928	50	6683
2026-01-14 23:26:12.82	54.10	49.21	-38.5	-39.6	22.6	0.00e+00	0	29	0	744488960	50	6149
2026-01-14 23:26:16.85	51.60	49.18	-37.6	-38.6	23.2	0.00e+00	88	29	0	752877568	48	6142
2026-01-14 23:26:20.89	49.10	49.08	-37.1	-38.0	23.8	0.00e+00	90	29	0	760217600	48	5751
2026-01-14 23:26:24.93	46.62	48.93	-37.9	-38.9	22.9	0.00e+00	0	29	0	767557632	48	6349
2026-01-14 23:26:28.96	44.18	48.72	-38.9	-40.0	22.4	0.00e+00	0	29	0	774897664	50	6429
2026-01-14 23:26:33.00	41.76	48.46	-39.1	-40.3	21.8	0.00e+00	92	29	0	782237696	50	6653
2026-01-14 23:26:37.03	39.40	48.15	-38.4	-39.4	22.6	0.00e+00	75	29	0	790626304	50	6008
2026-01-14 23:26:41.07	37.09	47.78	-39.7	-40.9	21.3	0.00e+00	0	29	0	797966336	52	6346
2026-01-14 23:26:45.10	34.84	47.37	-38.9	-39.9	22.2	0.00e+00	49	29	0	805306368	52	5631
2026-01-14 23:26:49.14	32.64	46.92	-39.3	-40.4	21.7	0.00e+00	58	29	0	812646400	50	6719
2026-01-14 23:26:53.18	30.51	46.43	-39.8	-41.0	21.4	0.00e+00	2	29	0	821035008	52	6408
2026-01-14 23:26:57.21	28.45	45.90	-39.8	-41.0	21.5	0.00e+00	0	29	0	828375040	52	6423
2026-01-14 23:27:01.25	26.46	45.34	-39.0	-40.2	22.1	0.00e+00	86	29	0	835715072	50	6548
2026-01-14 23:27:05.28	24.55	44.75	-39.3	-40.5	21.7	0.00e+00	90	29	0	843055104	50	6807
2026-01-14 23:27:09.31	22.71	44.14	-38.8	-39.9	22.3	0.00e+00	0	29	0	850395136	50	6337
2026-01-14 23:27:13.35	20.93	43.50	-38.4	-39.4	22.5	0.00e+00	0	29	0	858783744	50	6002
2026-01-14 23:27:17.39	19.23	42.84	-37.4	-38.3	23.5	0.00e+00	91	29	0	866123776	48	5958
2026-01-14 23:27:21.42	17.60	42.17	-37.6	-38.5	23.3	0.00e+00	92	29	0	873463808	46	6829
2026-01-14 23:27:25.46	16.03	41.49	-38.2	-39.2	23.0	0.00e+00	0	29	0	880803840	48	6575
2026-01-14 23:27:29.50	14.53	40.80	-41.4	-42.9	19.6	0.00e+00	0	29	0	889192448	54	7160
2026-01-14 23:27:33.53	13.09	40.09	-39.2	-40.3	21.9	0.00e+00	32	29	0	896532480	52	5919
2026-01-14 23:27:37.57	11.72	39.39	-39.6	-40.7	21.4	0.00e+00	0	29	0	903872512	52	6242
2026-01-14 23:27:41.61	10.40	38.68	-40.2	-41.5	21.1	0.00e+00	0	29	0	911212544	52	6783
2026-01-14 23:27:45.64	9.15	37.96	-40.5	-41.9	20.4	0.00e+00	73	29	0	918552576	52	7142
2026-01-14 23:27:49.68	7.94	37.25	-42.0	-43.6	19.1	0.00e+00	91	29	0	926941184	56	6896
2026-01-14 23:27:53.72	6.79	36.54	-43.1	-45.1	17.8	0.00e+00	0	29	0	934281216	58	7295
2026-01-14 23:27:57.75	5.69	35.83	-39.9	-41.1	21.3	0.00e+00	0	29	0	941621248	52	6474
2026-01-14 23:28:01.79	4.63	35.13	-39.0	-40.1	21.9	0.00e+00	85	29	0	948961280	50	6468
2026-01-14 23:28:05.82	3.62	34.43	-39.8	-41.0	21.4	0.00e+00	92	29	0	957349888	52	6394
2026-01-14 23:28:09.86	2.66	33.73	-41.5	-43.1	19.4	0.00e+00	0	29	0	964689920	56	6486
2026-01-14 23:28:13.90	1.73	33.05	-39.6	-40.7	21.5	0.00e+00	0	29	0	972029952	52	6195
2026-01-14 23:28:17.93	0.84	32.37	-38.4	-39.4	22.6	0.00e+00	57	29	0	979369984	50	5968
2026-01-14 23:28:21.96	359.99	31.70	-41.3	-42.8	19.4	0.00e+00	0	29	0	986710016	54	7012
2026-01-14 23:28:26.00	359.18	31.03	-38.8	-39.9	22.2	0.00e+00	0	29	0	995098624	52	5652
2026-01-14 23:28:30.04	358.39	30.38	-38.7	-39.7	22.3	0.00e+00	0	29	0	1002438656	50	6224
2026-01-14 23:28:34.07	357.64	29.73	-41.0	-42.4	20.1	0.00e+00	92	29	0	1009778688	54	6727
2026-01-14 23:28:38.10	356.92	29.10	-39.5	-40.6	21.5	0.00e+00	0	29	0	1017118720	52	6156
2026-01-14 23:28:42.14	356.23	28.47	-39.9	-41.2	21.2	0.00e+00	0	29	0	1024458752	52	6540
2026-01-14 23:28:46.18	355.56	27.85	-39.6	-40.7	21.5	0.00e+00	15	29	0	1032847360	52	6228
2026-01-14 23:28:50.21	354.92	27.24	-37.8	-38.7	22.9	0.00e+00	12	29	0	1040187392	50	5527
2026-01-14 23:28:54.25	354.31	26.64	-39.3	-40.5	21.6	0.00e+00	0	29	0	1047527424	50	6844
2026-01-14 23:28:58.28	353.71	26.05	-40.7	-42.2	20.1	0.00e+00	0	29	0	1054867456	54	6565
2026-01-14 23:29:02.32	353.14	25.47	-39.5	-40.7	21.4	0.00e+00	85	29	0	1063256064	52	6215
2026-01-14 23:29:06.36	352.59	24.90	-38.4	-39.4	22.6	0.00e+00	0	29	0	1070596096	50	6008
2026-01-14 23:29:10.40	352.06	24.34	-38.1	-39.1	22.8	0.00e+00	0	29	0	1077936128	50	5779
2026-01-14 23:29:14.43	351.55	23.78	-39.4	-40.6	21.5	0.00e+00	0	29	0	1085276160	50	6915
2026-01-14 23:29:18.46	351.06	23.24	-38.5	-39.6	22.3	0.00e+00	51	29	0	1092616192	50	6133
2026-01-14 23:29:22.49	350.58	22.71	-38.1	-39.0	22.9	0.00e+00	0	29	0	1101004800	50	5744
2026-01-14 23:29:26.52	350.12	22.18	-37.9	-38.8	23.0	0.00e+00	0	29	0	1108344832	48	6310
2026-01-14 23:29:30.56	349.68	21.67	-38.4	-39.4	22.5	0.00e+00	0	29	0	1115684864	48	6727
2026-01-14 23:29:34.60	349.25	21.16	-39.4	-40.6	21.5	0.00e+00	30	29	0	1123024896	50	6856
2026-01-14 23:29:38.63	348.84	20.66	-38.9	-40.0	21.9	0.00e+00	0	29	0	1130364928	50	6415
2026-01-14 23:29:42.67	348.44	20.17	-38.4	-39.4	22.4	0.00e+00	0	29	0	1138753536	50	5974
2026-01-14 23:29:46.71	348.05	19.68	-38.8	-39.9	22.0	0.00e+00	1	29	0	1146093568	50	6333
2026-01-14 23:29:50.74	347.67	19.21	-38.8	-39.9	22.1	0.00e+00	0	29	0	1153433600	50	6341
2026-01-14 23:29:54.78	347.31	18.74	-38.5	-39.6	22.3	0.00e+00	0	29	0	1160773632	50	6104
2026-01-14 23:29:58.81	346.96	18.28	-38.1	-39.1	22.7	0.00e+00	0	29	0	1169162240	50	5797
2026-01-14 23:30:02.85	346.61	17.82	-37.2	-38.1	23.3	0.00e+00	72	29	0	1176502272	48	5804
2026-01-14 23:30:06.89	346.28	17.38	-37.2	-38.1	23.3	0.00e+00	0	29	0	1183842304	48	5764
2026-01-14 23:30:10.92	345.96	16.94	-38.2	-39.2	22.5	0.00e+00	0	29	0	1191182336	48	6543
2026-01-14 23:30:14.96	345.65	16.51	-39.6	-40.8	21.1	0.00e+00	0	29	0	1198522368	50	7087
2026-01-14 23:30:19.00	345.35	16.08	-40.6	-42.0	20.1	0.00e+00	46	29	0	1206910976	54	6433
2026-01-14 23:30:23.03	345.05	15.66	-40.7	-42.1	20.0	0.00e+00	0	29	0	1214251008	54	6485
2026-01-14 23:30:27.07	344.77	15.25	-40.3	-41.7	20.4	0.00e+00	0	29	0	1221591040	54	6182
2026-01-14 23:30:31.10	344.49	14.84	-39.6	-40.9	21.0	0.00e+00	49	29	0	1228931072	52	6348
2026-01-14 23:30:35.13	344.22	14.44	-39.6	-40.9	21.0	0.00e+00	0	29	0	1236271104	52	6368
2026-01-14 23:30:39.17	343.96	14.05	-40.3	-41.7	20.5	0.00e+00	0	29	0	1244659712	52	6975
2026-01-14 23:30:43.21	343.71	13.66	-40.1	-41.5	20.5	0.00e+00	0	29	0	1251999744	52	6815
2026-01-14 23:30:47.25	343.46	13.28	-40.0	-41.4	20.6	0.00e+00	80	29	0	1259339776	52	6743
2026-01-14 23:30:51.28	343.22	12.90	-39.7	-41.0	20.9	0.00e+00	0	29	0	1266679808	52	6415
2026-01-14 23:30:55.32	342.99	12.53	-39.7	-40.9	20.9	0.00e+00	0	29	0	1275068416	52	6375
2026-01-14 23:30:59.36	342.76	12.16	-40.0	-41.4	20.6	0.00e+00	0	29	0	1282408448	52	6706
2026-01-14 23:31:03.39	342.54	11.79	-40.4	-41.8	20.1	0.00e+00	82	29	0	1289748480	52	7028
2026-01-14 23:31:07.42	342.32	11.44	-40.7	-42.2	19.8	0.00e+00	0	29	0	1297088512	54	6594
2026-01-14 23:31:11.46	342.11	11.08	-41.0	-42.5	19.7	0.00e+00	0	29	0	1304428544	54	6794
2026-01-14 23:31:15.50	341.90	10.74	-40.8	-42.3	19.6	0.00e+00	25	29	0	1312817152	54	6665
2026-01-14 23:31:19.53	341.70	10.39	-40.4	-41.8	20.2	0.00e+00	55	29	0	1320157184	54	6269
2026-01-14 23:31:23.56	341.51	10.05	-39.8	-41.0	20.8	0.00e+00	0	29	0	1327497216	54	5724
2026-01-14 23:31:27.60	341.32	9.72	-39.9	-41.2	20.6	0.00e+00	0	29	0	1334837248	52	6548
2026-01-14 23:31:31.63	341.13	9.39	-39.9	-41.1	20.5	0.00e+00	77	29	0	1342177280	52	6536
2026-01-14 23:31:35.67	340.95	9.06	-40.0	-41.2	20.2	0.00e+00	0	29	0	1350565888	52	6604
2026-01-14 23:31:39.71	340.77	8.74	-40.2	-41.5	20.1	0.00e+00	0	29	0	1357905920	52	6848
2026-01-14 23:31:43.74	340.60	8.42	-40.3	-41.6	20.0	0.00e+00	0	29	0	1365245952	52	6911
2026-01-14 23:31:47.78	340.43	8.10	-40.4	-41.7	20.0	0.00e+00	76	29	0	1372585984	52	6977
2026-01-14 23:31:51.82	340.27	7.79	-40.1	-41.4	20.2	0.00e+00	0	29	0	1380974592	52	6760
2026-01-14 23:31:55.86	340.11	7.48	-40.4	-41.8	19.8	0.00e+00	0	29	0	1388314624	52	7047
2026-01-14 23:31:59.90	339.95	7.17	-40.5	-41.9	19.6	0.00e+00	0	29	0	1395654656	52	7115
2026-01-14 23:32:03.93	339.80	6.87	-40.9	-42.4	19.2	0.00e+00	79	29	0	1402994688	54	6764
2026-01-14 23:32:07.97	339.65	6.58	-41.1	-42.7	18.9	0.00e+00	0	29	0	1410334720	54	6953
2026-01-14 23:32:12.01	339.50	6.28	-41.2	-42.8	18.6	0.00e+00	0	29	0	1418723328	54	7066
2026-01-14 23:32:16.04	339.36	5.99	-41.5	-43.2	18.1	0.00e+00	0	29	0	1426063360	54	7380
2026-01-14 23:32:20.08	339.22	5.70	-42.2	-44.2	17.3	0.00e+00	43	29	0	1433403392	56	7394
2026-01-14 23:32:24.11	339.08	5.41	-42.5	-44.9	16.3	0.00e+00	0	29	0	1440743424	56	7963
2026-01-14 23:32:28.15	338.94	5.13	-43.0	-45.9	14.8	0.00e+00	0	29	0	1449132032	58	8005
2026-01-14 23:32:32.19	338.81	4.85	-43.6	-47.8	11.9	1.20e-04	73	29	0	1456472064	58	9961
2026-01-14 23:32:36.23	338.68	4.57	-44.1	-49.7	9.4	1.40e-02	0	29	0	1463812096	60	11020
2026-01-14 23:32:40.26	338.56	4.30	-44.2	-52.2	5.8	2.65e-01	0	29	0	1471152128	60	14646
2026-01-14 23:32:44.30	338.44	4.03	-44.1	-54.5	3.8	1.34e+00	0	29	0	1477443584	60	19254
2026-01-14 23:32:48.34	338.31	3.76	-43.9	-58.1	3.6	1.51e+00	0	29	104	1477443584	60	29054
2026-01-14 23:32:52.37	338.20	3.49	-43.8	-59.1	3.6	1.51e+00	0	29	104	1477443584	60	32406
2026-01-14 23:32:56.41	338.08	3.22	-43.9	-59.1	3.6	1.51e+00	0	29	104	1477443584	60	32528
2026-01-14 23:33:00.44	337.97	2.96	-47.7	-62.9	3.6	1.51e+00	0	29	104	1477443584	60	50227
2026-01-14 23:33:04.48	337.86	2.70	-48.8	-64.0	3.6	1.51e+00	0	29	104	1477443584	60	57183
2026-01-14 23:33:08.52	337.75	2.44	-48.8	-64.1	3.6	1.51e+00	0	30	104	1477443584	60	58002
2026-01-14 23:33:12.56	337.64	2.19	-48.7	-64.0	3.6	1.51e+00	0	29	104	1477443584	60	57068
2026-01-14 23:33:16.60	337.54	1.93	-49.0	-64.1	3.6	1.51e+00	0	29	104	1477443584	60	58230
2026-01-14 23:33:20.65	337.43	1.68	-48.9	-64.1	3.6	1.51e+00	0	29	104	1477443584	60	58052
2026-01-14 23:33:24.68	337.33	1.43	-48.9	-64.0	3.6	1.51e+00	0	29	104	1477443584	60	57566
2026-01-14 23:33:28.73	337.23	1.19	-48.9	-64.1	3.6	1.51e+00	0	29	104	1477443584	60	57651
2026-01-14 23:33:32.76	337.14	0.94	-48.8	-64.0	3.6	1.51e+00	0	29	104	1477443584	60	57183
2026-01-14 23:33:36.80	337.04	0.70	-48.8	-64.0	3.6	1.51e+00	0	30	104	1477443584	60	57242
2026-01-14 23:33:40.84	336.95	0.46	-48.8	-64.0	3.6	1.51e+00	0	29	104	1477443584	60	57215
2026-01-14 23:33:44.88	336.86	0.22	-48.8	-64.0	3.6	1.51e+00	0	29	104	1477443584	60	56999
2026-01-14 23:33:48.92	336.77	-0.02	-48.8	-64.0	3.6	1.51e+00	0	29	104	1477443584	60	57130

#Closed at: 2026-01-14 23:33:51
#Recorded file [1477 MB]: D:/lorett/data/35029_260115_111840.dat