passes_logs/2026/01/30/R4.6S_Anadyr/R4.6S_Anadyr__20260130_035528_FENGYUN_3D_rec.log

#Pass ID: 20260130_035528_FENGYUN 3D
#Satellite: FENGYUN 3D
#Configuration: FENGYUN 3D
#almurnet v.1.7.20251203
#Start time: 2026-01-30 03:55:29

#Version: 2.2.20231116
#Station: R4.6S_Anadyr
#Location: 177.4865 lon 64.73178 lat
#TLE: 1 43010U 17072A   26029.52179110  .00000394  00000+0  20818-3 0  9997
#TLE: 2 43010  98.9957   1.5649 0002507  83.7772 276.3689 14.19703315425310

#Time	Az	El	Level	Level2	SNR	BER	BlckErr	Temp	State	Recorded	gain1	gain2
2026-01-30 03:55:29.10	198.15	0.06	-50.0	-67.7	3.5	3.02e+01	0	37	0	0	60	93844
2026-01-30 03:55:33.14	198.36	0.28	-49.5	-61.7	3.6	8.45e-01	0	38	104	0	60	43779
2026-01-30 03:55:37.18	198.58	0.50	-49.5	-61.7	3.6	8.45e-01	0	38	104	0	60	43930
2026-01-30 03:55:41.22	198.80	0.73	-49.5	-61.7	3.6	8.45e-01	0	38	104	0	60	44050
2026-01-30 03:55:45.26	199.03	0.95	-49.5	-61.7	3.6	8.46e-01	0	38	104	0	60	43861
2026-01-30 03:55:49.30	199.25	1.18	-49.5	-61.7	3.6	8.45e-01	0	38	104	0	60	43952
2026-01-30 03:55:53.34	199.48	1.41	-49.5	-61.7	3.6	8.46e-01	0	38	104	0	60	43838
2026-01-30 03:55:57.37	199.72	1.64	-49.5	-61.7	3.6	8.45e-01	0	38	104	0	60	43977
2026-01-30 03:56:01.41	199.95	1.88	-49.5	-61.7	3.6	8.45e-01	0	38	104	0	60	44006
2026-01-30 03:56:05.45	200.19	2.11	-49.5	-61.7	3.6	8.45e-01	0	38	104	0	60	43999
2026-01-30 03:56:09.49	200.44	2.35	-49.5	-61.7	3.6	8.44e-01	0	38	104	0	60	43903
2026-01-30 03:56:13.53	200.69	2.58	-49.5	-61.7	3.6	8.46e-01	0	38	104	0	60	43783
2026-01-30 03:56:17.58	200.94	2.82	-49.5	-61.7	3.6	8.46e-01	0	38	104	0	60	44099
2026-01-30 03:56:21.62	201.19	3.06	-49.5	-61.7	3.6	8.45e-01	0	39	104	0	60	43888
2026-01-30 03:56:25.66	201.45	3.31	-49.5	-61.7	3.6	8.46e-01	0	39	104	0	60	44122
2026-01-30 03:56:29.70	201.72	3.55	-49.5	-61.7	3.6	8.46e-01	0	39	104	0	60	44044
2026-01-30 03:56:33.74	201.98	3.80	-49.5	-61.7	3.6	8.46e-01	0	39	104	0	60	43759
2026-01-30 03:56:37.78	202.26	4.04	-49.5	-61.7	3.6	8.44e-01	0	39	104	0	60	43837
2026-01-30 03:56:41.81	202.53	4.29	-49.5	-61.6	3.6	8.46e-01	0	39	104	0	60	43572
2026-01-30 03:56:45.86	202.81	4.54	-49.5	-61.7	3.6	8.45e-01	0	39	104	0	60	43819
2026-01-30 03:56:49.90	203.10	4.80	-49.5	-61.7	3.6	8.43e-01	0	39	104	0	60	43789
2026-01-30 03:56:53.94	203.39	5.05	-49.5	-61.7	3.6	8.46e-01	0	39	104	0	60	43805
2026-01-30 03:56:57.98	203.69	5.31	-49.5	-61.7	3.6	8.46e-01	0	39	104	0	60	43960
2026-01-30 03:57:02.02	203.99	5.56	-49.5	-61.7	3.6	8.45e-01	0	39	104	0	60	44051
2026-01-30 03:57:06.06	204.29	5.83	-49.5	-61.7	3.6	8.44e-01	0	39	104	0	60	43837
2026-01-30 03:57:10.10	204.60	6.09	-49.5	-61.7	3.6	8.46e-01	0	39	104	0	60	43886
2026-01-30 03:57:14.14	204.92	6.35	-49.5	-61.7	3.6	8.45e-01	0	39	104	0	60	44066
2026-01-30 03:57:18.18	205.24	6.62	-49.5	-61.7	3.5	8.45e-01	0	39	104	0	60	43760
2026-01-30 03:57:22.22	205.57	6.89	-49.5	-61.7	3.6	8.46e-01	0	39	104	0	60	43982
2026-01-30 03:57:26.27	205.90	7.16	-49.5	-61.7	3.6	8.44e-01	0	39	104	0	60	43798
2026-01-30 03:57:30.31	206.24	7.43	-49.5	-61.6	3.6	8.45e-01	0	39	104	0	60	43650
2026-01-30 03:57:34.34	206.59	7.70	-49.5	-61.7	3.6	8.45e-01	0	39	104	0	60	44071
2026-01-30 03:57:38.38	206.94	7.98	-49.5	-61.7	3.6	8.46e-01	0	39	104	0	60	43843
2026-01-30 03:57:42.42	207.30	8.26	-49.5	-61.7	3.6	8.45e-01	0	39	104	0	60	43981
2026-01-30 03:57:46.47	207.66	8.54	-49.5	-61.7	3.6	8.45e-01	0	39	104	0	60	43943
2026-01-30 03:57:50.51	208.03	8.82	-49.5	-61.7	3.6	8.44e-01	0	39	104	0	60	43852
2026-01-30 03:57:54.55	208.41	9.11	-49.5	-61.7	3.6	8.45e-01	0	39	104	0	60	43887
2026-01-30 03:57:58.59	208.80	9.40	-49.5	-61.7	3.6	8.45e-01	0	39	104	0	60	44121
2026-01-30 03:58:02.63	209.19	9.69	-49.5	-61.7	3.6	8.46e-01	0	39	104	0	60	44190
2026-01-30 03:58:06.67	209.59	9.98	-49.5	-61.7	3.6	8.45e-01	0	39	104	0	60	43846
2026-01-30 03:58:10.71	210.00	10.27	-49.5	-61.7	3.6	8.46e-01	0	39	104	0	60	44054
2026-01-30 03:58:14.75	210.42	10.57	-49.5	-61.7	3.6	8.45e-01	0	39	104	0	60	43885
2026-01-30 03:58:18.79	210.84	10.87	-49.5	-61.7	3.6	8.45e-01	0	39	104	0	60	43903
2026-01-30 03:58:22.84	211.27	11.17	-49.5	-61.7	3.6	8.45e-01	0	39	104	0	60	43798
2026-01-30 03:58:26.87	211.71	11.47	-49.5	-61.7	3.6	8.45e-01	0	39	104	0	60	44011
2026-01-30 03:58:30.92	212.17	11.78	-49.5	-61.7	3.6	8.44e-01	0	39	104	0	60	44085
2026-01-30 03:58:34.95	212.63	12.09	-49.5	-61.7	3.6	8.45e-01	0	39	104	0	60	43983
2026-01-30 03:58:38.99	213.09	12.40	-49.5	-61.7	3.6	8.46e-01	0	39	104	0	60	43765
2026-01-30 03:58:43.03	213.57	12.71	-49.5	-61.7	3.6	8.45e-01	0	39	104	0	60	44029
2026-01-30 03:58:47.08	214.06	13.02	-49.5	-61.7	3.6	8.47e-01	0	39	104	0	60	43850
2026-01-30 03:58:51.12	214.56	13.34	-49.5	-61.7	3.6	8.46e-01	0	39	104	0	60	43866
2026-01-30 03:58:55.16	215.07	13.66	-49.5	-61.7	3.6	8.45e-01	0	39	104	0	60	43914
2026-01-30 03:58:59.20	215.59	13.98	-49.5	-61.7	3.6	8.45e-01	0	39	104	0	60	43879
2026-01-30 03:59:03.24	216.12	14.30	-49.5	-61.7	3.6	8.45e-01	0	39	104	0	60	43926
2026-01-30 03:59:07.28	216.66	14.63	-49.5	-61.7	3.6	8.45e-01	0	39	104	0	60	43906
2026-01-30 03:59:11.32	217.22	14.96	-49.5	-61.7	3.6	8.45e-01	0	39	104	0	60	44114
2026-01-30 03:59:15.36	217.78	15.29	-49.5	-61.7	3.6	8.44e-01	0	39	104	0	60	43877
2026-01-30 03:59:19.40	218.36	15.62	-49.5	-61.7	3.6	8.45e-01	0	39	104	0	60	43995
2026-01-30 03:59:23.44	218.95	15.95	-49.5	-61.7	3.5	8.46e-01	0	39	104	0	60	44096
2026-01-30 03:59:27.49	219.56	16.29	-49.5	-61.7	3.6	8.44e-01	0	39	104	0	60	43835
2026-01-30 03:59:31.53	220.18	16.62	-49.5	-61.7	3.6	8.45e-01	0	39	104	0	60	44117
2026-01-30 03:59:35.57	220.81	16.96	-49.5	-61.7	3.5	8.45e-01	0	39	104	0	60	43724
2026-01-30 03:59:39.61	221.45	17.30	-49.5	-61.7	3.6	8.46e-01	0	39	104	0	60	43988
2026-01-30 03:59:43.65	222.11	17.64	-49.5	-61.7	3.6	8.45e-01	0	39	104	0	60	43988
2026-01-30 03:59:47.69	222.78	17.98	-49.5	-61.7	3.6	8.46e-01	0	39	104	0	60	43824
2026-01-30 03:59:51.73	223.47	18.32	-49.5	-61.6	3.6	8.45e-01	0	39	104	0	60	43672
2026-01-30 03:59:55.77	224.17	18.66	-49.5	-61.7	3.6	8.45e-01	0	39	104	0	60	43872
2026-01-30 03:59:59.81	224.89	19.01	-49.5	-61.7	3.6	8.45e-01	0	39	104	0	60	43823
2026-01-30 04:00:03.85	225.63	19.35	-49.5	-61.7	3.6	8.46e-01	0	39	104	0	60	43827
2026-01-30 04:00:07.89	226.38	19.69	-49.5	-61.7	3.6	8.45e-01	0	39	104	0	60	43847
2026-01-30 04:00:11.93	227.14	20.04	-49.5	-61.7	3.6	8.45e-01	0	39	104	0	60	43993
2026-01-30 04:00:15.98	227.93	20.38	-49.5	-61.7	3.6	8.45e-01	0	39	104	0	60	43893
2026-01-30 04:00:20.02	228.73	20.72	-49.5	-61.7	3.6	8.46e-01	0	39	104	0	60	43830
2026-01-30 04:00:24.06	229.55	21.07	-49.5	-61.7	3.6	8.45e-01	0	39	104	0	60	43896
2026-01-30 04:00:28.10	230.39	21.41	-49.5	-61.7	3.6	8.46e-01	0	39	104	0	60	43840
2026-01-30 04:00:32.15	231.24	21.75	-49.5	-61.7	3.6	8.45e-01	0	39	104	0	60	44040
2026-01-30 04:00:36.19	232.12	22.08	-49.5	-61.7	3.6	8.45e-01	0	39	104	0	60	43898
2026-01-30 04:00:40.23	233.01	22.42	-49.5	-61.7	3.6	8.45e-01	0	39	104	0	60	43963
2026-01-30 04:00:44.27	233.92	22.75	-49.5	-61.7	3.6	8.46e-01	0	39	104	0	60	43965
2026-01-30 04:00:48.32	234.85	23.08	-49.5	-61.7	3.6	8.45e-01	0	39	104	0	60	43709
2026-01-30 04:00:52.36	235.80	23.40	-49.5	-61.7	3.6	8.45e-01	0	39	104	0	60	43854
2026-01-30 04:00:56.40	236.77	23.72	-49.5	-61.7	3.6	8.46e-01	0	39	104	0	60	43717
2026-01-30 04:01:00.44	237.76	24.04	-49.5	-61.7	3.6	8.44e-01	0	39	104	0	60	43809
2026-01-30 04:01:04.48	238.76	24.35	-49.5	-61.7	3.6	8.44e-01	0	39	104	0	60	44038
2026-01-30 04:01:08.53	239.79	24.65	-49.5	-61.7	3.6	8.46e-01	0	39	104	0	60	44015
2026-01-30 04:01:12.57	240.84	24.95	-49.5	-61.7	3.6	8.45e-01	0	39	104	0	60	43775
2026-01-30 04:01:16.61	241.90	25.24	-49.5	-61.7	3.6	8.46e-01	0	39	104	0	60	44133
2026-01-30 04:01:20.65	242.99	25.53	-49.5	-61.7	3.6	8.46e-01	0	39	104	0	60	44044
2026-01-30 04:01:24.69	244.09	25.80	-49.5	-61.7	3.6	8.46e-01	0	39	104	0	60	44098
2026-01-30 04:01:28.73	245.21	26.07	-49.5	-61.7	3.6	8.45e-01	0	39	104	0	60	43767
2026-01-30 04:01:32.77	246.35	26.33	-49.5	-61.7	3.6	8.46e-01	0	39	104	0	60	43927
2026-01-30 04:01:36.81	247.51	26.58	-49.5	-61.7	3.6	8.44e-01	0	39	104	0	60	43829
2026-01-30 04:01:40.85	248.68	26.82	-49.5	-61.7	3.6	8.46e-01	0	39	104	0	60	43976
2026-01-30 04:01:44.89	249.87	27.05	-49.5	-61.7	3.6	8.45e-01	0	39	104	0	60	43947
2026-01-30 04:01:48.93	251.08	27.26	-49.5	-61.7	3.6	8.45e-01	0	39	104	0	60	43736
2026-01-30 04:01:52.97	252.31	27.47	-49.5	-61.7	3.6	8.44e-01	0	39	104	0	60	44031
2026-01-30 04:01:57.01	253.55	27.66	-49.5	-61.7	3.6	8.47e-01	0	39	104	0	60	43848
2026-01-30 04:02:01.05	254.80	27.84	-49.5	-61.7	3.6	8.45e-01	0	39	104	0	60	43782
2026-01-30 04:02:05.10	256.07	28.01	-49.5	-61.6	3.6	8.44e-01	0	39	104	0	60	43630
2026-01-30 04:02:09.14	257.35	28.16	-49.5	-61.7	3.6	8.45e-01	0	40	104	0	60	43808
2026-01-30 04:02:13.18	258.64	28.29	-49.5	-61.7	3.6	8.45e-01	0	39	104	0	60	43884
2026-01-30 04:02:17.21	259.94	28.42	-49.5	-61.7	3.6	8.45e-01	0	39	104	0	60	43976
2026-01-30 04:02:21.26	261.25	28.52	-49.5	-61.7	3.6	8.46e-01	0	39	104	0	60	43924
2026-01-30 04:02:25.30	262.57	28.61	-49.5	-61.7	3.6	8.45e-01	0	39	104	0	60	43792
2026-01-30 04:02:29.34	263.89	28.69	-49.5	-61.7	3.6	8.46e-01	0	39	104	0	60	44019
2026-01-30 04:02:33.38	265.22	28.75	-49.5	-61.7	3.6	8.45e-01	0	39	104	0	60	43989
2026-01-30 04:02:37.42	266.55	28.79	-49.5	-61.7	3.6	8.46e-01	0	39	104	0	60	43946
2026-01-30 04:02:41.46	267.89	28.82	-49.5	-61.6	3.6	8.44e-01	0	39	104	0	60	43696
2026-01-30 04:02:45.50	269.23	28.83	-49.5	-61.7	3.6	8.45e-01	0	39	104	0	60	43987
2026-01-30 04:02:49.54	270.56	28.82	-49.5	-61.7	3.6	8.44e-01	0	39	104	0	60	43881
2026-01-30 04:02:53.58	271.90	28.80	-49.5	-61.7	3.6	8.45e-01	0	39	104	0	60	43790
2026-01-30 04:02:57.62	273.23	28.76	-49.5	-61.6	3.6	8.44e-01	0	39	104	0	60	43685
2026-01-30 04:03:01.66	274.56	28.70	-49.5	-61.7	3.6	8.46e-01	0	40	104	0	60	43887
2026-01-30 04:03:05.70	275.88	28.63	-49.5	-61.7	3.6	8.46e-01	0	39	104	0	60	44020
2026-01-30 04:03:09.74	277.20	28.54	-49.5	-61.7	3.6	8.45e-01	0	39	104	0	60	43849
2026-01-30 04:03:13.78	278.51	28.43	-49.5	-61.7	3.6	8.45e-01	0	39	104	0	60	43758
2026-01-30 04:03:17.82	279.81	28.31	-49.5	-61.7	3.6	8.45e-01	0	39	104	0	60	43857
2026-01-30 04:03:21.86	281.10	28.18	-49.5	-61.7	3.6	8.46e-01	0	39	104	0	60	43944
2026-01-30 04:03:25.91	282.38	28.03	-49.5	-61.7	3.6	8.45e-01	0	40	104	0	60	43924
2026-01-30 04:03:29.95	283.65	27.87	-49.5	-61.7	3.6	8.44e-01	0	39	104	0	60	43898
2026-01-30 04:03:33.99	284.90	27.69	-49.5	-61.7	3.6	8.45e-01	0	40	104	0	60	43874
2026-01-30 04:03:38.03	286.14	27.50	-49.5	-61.7	3.6	8.46e-01	0	39	104	0	60	43763
2026-01-30 04:03:42.07	287.36	27.30	-49.5	-61.7	3.6	8.45e-01	0	39	104	0	60	43856
2026-01-30 04:03:46.11	288.57	27.08	-49.5	-61.7	3.6	8.45e-01	0	39	104	0	60	43791
2026-01-30 04:03:50.15	289.76	26.86	-49.5	-61.7	3.6	8.46e-01	0	39	104	0	60	43861
2026-01-30 04:03:54.19	290.94	26.62	-49.5	-61.7	3.6	8.45e-01	0	40	104	0	60	43791
2026-01-30 04:03:58.23	292.10	26.37	-49.5	-61.7	3.6	8.46e-01	0	40	104	0	60	43822
2026-01-30 04:04:02.26	293.23	26.12	-49.5	-61.7	3.6	8.46e-01	0	40	104	0	60	43862
2026-01-30 04:04:06.31	294.36	25.85	-49.5	-61.7	3.6	8.46e-01	0	40	104	0	60	43877
2026-01-30 04:04:10.35	295.46	25.58	-49.5	-61.7	3.6	8.45e-01	0	40	104	0	60	43957
2026-01-30 04:04:14.39	296.54	25.30	-49.5	-61.7	3.6	8.47e-01	0	40	104	0	60	44037
2026-01-30 04:04:18.43	297.61	25.01	-49.5	-61.7	3.6	8.46e-01	0	40	104	0	60	44000
2026-01-30 04:04:22.47	298.65	24.71	-49.5	-61.7	3.6	8.46e-01	0	39	104	0	60	43939
2026-01-30 04:04:26.51	299.68	24.41	-49.5	-61.7	3.6	8.45e-01	0	39	104	0	60	43852
2026-01-30 04:04:30.55	300.68	24.10	-49.5	-61.7	3.6	8.45e-01	0	40	104	0	60	44113
2026-01-30 04:04:34.59	301.67	23.79	-49.5	-61.7	3.6	8.44e-01	0	39	104	0	60	43822
2026-01-30 04:04:38.63	302.64	23.47	-49.5	-61.6	3.6	8.46e-01	0	40	104	0	60	43583
2026-01-30 04:04:42.67	303.59	23.15	-49.5	-61.7	3.6	8.45e-01	0	40	104	0	60	43760
2026-01-30 04:04:46.72	304.52	22.82	-49.5	-61.7	3.6	8.44e-01	0	40	104	0	60	43846
2026-01-30 04:04:50.76	305.43	22.50	-49.5	-61.6	3.6	8.45e-01	0	40	104	0	60	43600
2026-01-30 04:04:54.80	306.32	22.16	-49.5	-61.7	3.6	8.45e-01	0	39	104	0	60	43853
2026-01-30 04:04:58.84	307.19	21.83	-49.5	-61.7	3.6	8.46e-01	0	40	104	0	60	43864
2026-01-30 04:05:02.88	308.05	21.50	-49.5	-61.7	3.6	8.45e-01	0	40	104	0	60	43844
2026-01-30 04:05:06.92	308.89	21.16	-49.5	-61.6	3.5	8.45e-01	0	40	104	0	60	43560
2026-01-30 04:05:10.96	309.70	20.82	-49.5	-61.7	3.6	8.45e-01	0	40	104	0	60	43869
2026-01-30 04:05:15.00	310.51	20.48	-49.5	-61.7	3.6	8.45e-01	0	40	104	0	60	43929
2026-01-30 04:05:19.05	311.29	20.14	-49.5	-61.7	3.6	8.44e-01	0	40	104	0	60	43873
2026-01-30 04:05:23.09	312.06	19.80	-49.5	-61.7	3.6	8.46e-01	0	40	104	0	60	43895
2026-01-30 04:05:27.13	312.81	19.46	-49.5	-61.7	3.6	8.45e-01	0	40	104	0	60	43973
2026-01-30 04:05:31.17	313.55	19.11	-49.5	-61.7	3.6	8.46e-01	0	40	104	0	60	43865
2026-01-30 04:05:35.21	314.27	18.77	-49.5	-61.7	3.6	8.46e-01	0	40	104	0	60	43862
2026-01-30 04:05:39.25	314.97	18.43	-49.5	-61.7	3.6	8.45e-01	0	40	104	0	60	44021
2026-01-30 04:05:43.29	315.66	18.09	-49.5	-61.7	3.6	8.45e-01	0	40	104	0	60	43887
2026-01-30 04:05:47.33	316.33	17.75	-49.5	-61.7	3.6	8.45e-01	0	40	104	0	60	43731
2026-01-30 04:05:51.37	316.99	17.42	-49.5	-61.7	3.6	8.46e-01	0	40	104	0	60	43996
2026-01-30 04:05:55.41	317.64	17.08	-49.5	-61.7	3.6	8.46e-01	0	40	104	0	60	44048
2026-01-30 04:05:59.45	318.27	16.74	-49.5	-61.7	3.6	8.46e-01	0	40	104	0	60	43810
2026-01-30 04:06:03.49	318.89	16.41	-49.5	-61.7	3.6	8.45e-01	0	40	104	0	60	43942
2026-01-30 04:06:07.53	319.49	16.08	-49.5	-61.7	3.6	8.46e-01	0	40	104	0	60	43788
2026-01-30 04:06:11.58	320.09	15.75	-49.5	-61.7	3.6	8.45e-01	0	40	104	0	60	43742
2026-01-30 04:06:15.62	320.66	15.42	-49.5	-61.7	3.6	8.46e-01	0	40	104	0	60	43750
2026-01-30 04:06:19.66	321.23	15.09	-49.5	-61.6	3.6	8.46e-01	0	40	104	0	60	43665
2026-01-30 04:06:23.70	321.79	14.77	-49.5	-61.7	3.6	8.46e-01	0	40	104	0	60	43804
2026-01-30 04:06:27.74	322.33	14.44	-49.5	-61.7	3.6	8.44e-01	0	39	104	0	60	43727
2026-01-30 04:06:31.78	322.86	14.12	-49.5	-61.6	3.6	8.45e-01	0	40	104	0	60	43639
2026-01-30 04:06:35.82	323.39	13.80	-49.5	-61.7	3.6	8.44e-01	0	40	104	0	60	43902
2026-01-30 04:06:39.86	323.90	13.48	-49.5	-61.7	3.6	8.45e-01	0	40	104	0	60	44050
2026-01-30 04:06:43.90	324.40	13.17	-49.5	-61.7	3.6	8.44e-01	0	40	104	0	60	43884
2026-01-30 04:06:47.95	324.89	12.86	-49.5	-61.7	3.6	8.45e-01	0	40	104	0	60	43811
2026-01-30 04:06:51.99	325.37	12.55	-49.5	-61.6	3.6	8.44e-01	0	40	104	0	60	43698
2026-01-30 04:06:56.03	325.84	12.24	-49.5	-61.7	3.6	8.46e-01	0	40	104	0	60	44110
2026-01-30 04:07:00.07	326.30	11.93	-49.5	-61.7	3.6	8.46e-01	0	40	104	0	60	43804
2026-01-30 04:07:04.11	326.75	11.63	-49.5	-61.7	3.6	8.46e-01	0	40	104	0	60	43794
2026-01-30 04:07:08.15	327.20	11.33	-49.5	-61.7	3.6	8.46e-01	0	40	104	0	60	43789
2026-01-30 04:07:12.19	327.63	11.03	-49.5	-61.6	3.6	8.45e-01	0	40	104	0	60	43658
2026-01-30 04:07:16.23	328.06	10.73	-49.5	-61.7	3.6	8.45e-01	0	40	104	0	60	44029
2026-01-30 04:07:20.27	328.48	10.43	-49.5	-61.7	3.6	8.45e-01	0	40	104	0	60	44142
2026-01-30 04:07:24.31	328.89	10.14	-49.5	-61.7	3.6	8.45e-01	0	40	104	0	60	43986
2026-01-30 04:07:28.35	329.29	9.85	-49.5	-61.7	3.6	8.44e-01	0	40	104	0	60	44030
2026-01-30 04:07:32.39	329.69	9.56	-49.5	-61.7	3.6	8.44e-01	0	40	104	0	60	44025
2026-01-30 04:07:36.44	330.08	9.28	-49.5	-61.7	3.6	8.45e-01	0	40	104	0	60	44048
2026-01-30 04:07:40.48	330.46	8.99	-49.5	-61.7	3.6	8.44e-01	0	40	104	0	60	44015
2026-01-30 04:07:44.51	330.83	8.71	-49.5	-61.7	3.6	8.46e-01	0	40	104	0	60	43862
2026-01-30 04:07:48.55	331.20	8.43	-49.5	-61.7	3.6	8.45e-01	0	40	104	0	60	43982
2026-01-30 04:07:52.59	331.56	8.16	-49.5	-61.7	3.6	8.45e-01	0	40	104	0	60	44084
2026-01-30 04:07:56.63	331.91	7.88	-49.5	-61.7	3.6	8.46e-01	0	40	104	0	60	43728
2026-01-30 04:08:00.67	332.26	7.61	-49.5	-61.7	3.6	8.44e-01	0	40	104	0	60	43881
2026-01-30 04:08:04.71	332.60	7.34	-49.5	-61.7	3.6	8.46e-01	0	40	104	0	60	43863
2026-01-30 04:08:08.76	332.94	7.07	-49.5	-61.7	3.6	8.45e-01	0	40	104	0	60	43924
2026-01-30 04:08:12.80	333.27	6.80	-49.5	-61.8	3.6	8.46e-01	0	40	104	0	60	44219
2026-01-30 04:08:16.84	333.60	6.54	-49.5	-61.7	3.6	8.44e-01	0	40	104	0	60	43986
2026-01-30 04:08:20.88	333.91	6.27	-49.5	-61.7	3.6	8.45e-01	0	40	104	0	60	43968
2026-01-30 04:08:24.92	334.23	6.01	-49.5	-61.7	3.6	8.45e-01	0	40	104	0	60	43981
2026-01-30 04:08:28.96	334.54	5.75	-49.5	-61.7	3.6	8.46e-01	0	40	104	0	60	44016
2026-01-30 04:08:33.00	334.84	5.50	-49.5	-61.7	3.6	8.45e-01	0	40	104	0	60	43953
2026-01-30 04:08:37.04	335.14	5.24	-49.5	-61.7	3.6	8.44e-01	0	40	104	0	60	44061
2026-01-30 04:08:41.08	335.43	4.99	-49.5	-61.7	3.6	8.45e-01	0	40	104	0	60	43926
2026-01-30 04:08:45.13	335.72	4.74	-49.5	-61.7	3.6	8.46e-01	0	40	104	0	60	43946
2026-01-30 04:08:49.17	336.01	4.49	-49.5	-61.7	3.6	8.45e-01	0	40	104	0	60	44178
2026-01-30 04:08:53.21	336.29	4.24	-49.5	-61.7	3.6	8.44e-01	0	39	104	0	60	43994
2026-01-30 04:08:57.25	336.56	3.99	-49.5	-61.7	3.6	8.45e-01	0	40	104	0	60	43827
2026-01-30 04:09:01.29	336.84	3.75	-49.5	-61.7	3.6	8.46e-01	0	40	104	0	60	44006
2026-01-30 04:09:05.33	337.10	3.51	-49.5	-61.7	3.6	8.46e-01	0	40	104	0	60	44076
2026-01-30 04:09:09.37	337.37	3.27	-49.5	-61.7	3.6	8.44e-01	0	40	104	0	60	43873
2026-01-30 04:09:13.42	337.63	3.03	-49.5	-61.7	3.6	8.45e-01	0	40	104	0	60	43805
2026-01-30 04:09:17.46	337.88	2.79	-49.5	-61.7	3.6	8.46e-01	0	40	104	0	60	43941
2026-01-30 04:09:21.50	338.13	2.55	-49.5	-61.7	3.6	8.46e-01	0	40	104	0	60	44004
2026-01-30 04:09:25.54	338.38	2.32	-49.5	-61.7	3.6	8.46e-01	0	39	104	0	60	44053
2026-01-30 04:09:29.58	338.63	2.08	-49.5	-61.7	3.6	8.45e-01	0	40	104	0	60	44142
2026-01-30 04:09:33.62	338.87	1.85	-49.5	-61.7	3.6	8.46e-01	0	40	104	0	60	44017
2026-01-30 04:09:37.66	339.10	1.62	-49.6	-61.7	3.6	8.46e-01	0	40	104	0	60	44140
2026-01-30 04:09:41.70	339.34	1.39	-49.5	-61.7	3.6	8.46e-01	0	39	104	0	60	43928
2026-01-30 04:09:45.74	339.57	1.17	-49.5	-61.7	3.6	8.44e-01	0	39	104	0	60	43733
2026-01-30 04:09:49.79	339.80	0.94	-49.5	-61.7	3.5	8.44e-01	0	39	104	0	60	44027
2026-01-30 04:09:53.83	340.02	0.72	-49.5	-61.7	3.6	8.46e-01	0	39	104	0	60	44122
2026-01-30 04:09:57.87	340.24	0.49	-49.5	-61.7	3.6	8.44e-01	0	40	104	0	60	44048
2026-01-30 04:10:01.88	340.46	0.27	-49.5	-61.7	3.6	8.46e-01	0	39	104	0	60	44119
2026-01-30 04:10:05.92	340.68	0.05	-49.5	-61.7	3.6	8.46e-01	0	40	104	0	60	44003

#Closed at: 2026-01-30 04:10:09
#Recorded file [0 MB]: D:/lorett/data/35029_260130_155529.dat