passes_logs/2026/01/30/R4.6S_Anadyr/R4.6S_Anadyr__20260130_150340_SUOMI_NPP_rec.log

#Pass ID: 20260130_150340_SUOMI NPP
#Satellite: SUOMI NPP
#Configuration: NPP
#almurnet v.1.7.20251203
#Start time: 2026-01-30 15:03:44

#Version: 2.2.20231116
#Station: R4.6S_Anadyr
#Location: 177.4865 lon 64.73178 lat
#TLE: 1 37849U 11061A   26029.48304708  .00000140  00000+0  87283-4 0  9999
#TLE: 2 37849  98.7824 331.4079 0002024  38.4342 321.6978 14.19531488738761

#Time	Az	El	Level	Level2	SNR	BER	BlckErr	Temp	State	Recorded	gain1	gain2
2026-01-30 15:03:44.06	21.11	0.20	-49.5	-63.3	3.3	1.54e+00	0	40	0	0	60	52954
2026-01-30 15:03:48.10	21.10	0.45	-49.5	-64.8	3.6	1.51e+00	0	40	104	0	60	62901
2026-01-30 15:03:52.14	21.09	0.69	-49.6	-64.8	3.6	1.51e+00	0	40	104	0	60	62821
2026-01-30 15:03:56.18	21.08	0.94	-49.4	-64.6	3.6	1.51e+00	0	40	104	0	60	61726
2026-01-30 15:04:00.22	21.07	1.19	-48.9	-64.2	3.6	1.51e+00	0	40	104	0	60	58893
2026-01-30 15:04:04.26	21.05	1.44	-48.4	-63.6	3.6	1.51e+00	0	40	104	0	60	54679
2026-01-30 15:04:08.30	21.04	1.69	-48.2	-63.3	3.6	1.51e+00	0	40	104	0	60	52572
2026-01-30 15:04:12.34	21.02	1.95	-48.2	-63.4	3.6	1.51e+00	0	40	104	0	60	53311
2026-01-30 15:04:16.39	21.01	2.21	-48.2	-63.3	3.6	1.51e+00	0	40	104	0	60	52837
2026-01-30 15:04:20.43	21.00	2.47	-48.1	-62.3	3.6	1.51e+00	0	40	104	0	60	47322
2026-01-30 15:04:24.47	20.98	2.73	-48.1	-62.2	3.6	1.51e+00	0	40	104	0	60	46581
2026-01-30 15:04:28.51	20.96	3.00	-47.9	-58.6	4.6	1.50e+00	92	41	104	0	60	30838
2026-01-30 15:04:32.55	20.95	3.27	-46.3	-50.8	11.3	1.81e-03	0	40	0	6291456	60	12475
2026-01-30 15:04:36.59	20.93	3.54	-45.2	-48.5	13.8	6.80e-06	0	41	0	13631488	60	9642
2026-01-30 15:04:40.62	20.91	3.81	-43.5	-45.7	16.5	0.00e+00	0	40	0	22020096	60	6973
2026-01-30 15:04:44.66	20.89	4.09	-47.6	-56.3	4.9	9.24e-01	0	41	104	24117248	60	23524
2026-01-30 15:04:48.70	20.87	4.36	-43.4	-45.6	16.7	0.00e+00	0	41	0	28311552	60	6885
2026-01-30 15:04:52.74	20.85	4.65	-42.9	-44.9	17.6	0.00e+00	0	41	0	36700160	60	6337
2026-01-30 15:04:56.78	20.83	4.93	-42.9	-44.8	17.8	0.00e+00	4	40	0	44040192	60	6294
2026-01-30 15:05:00.81	20.81	5.22	-42.5	-44.3	18.1	0.00e+00	92	41	0	51380224	58	6674
2026-01-30 15:05:04.85	20.78	5.51	-42.7	-44.6	17.9	0.00e+00	0	41	0	58720256	58	6884
2026-01-30 15:05:08.89	20.76	5.80	-43.0	-44.9	17.8	0.00e+00	0	41	0	66060288	58	7104
2026-01-30 15:05:12.93	20.74	6.10	-42.5	-44.3	18.3	0.00e+00	75	41	0	74448896	58	6650
2026-01-30 15:05:16.97	20.71	6.40	-42.6	-44.4	18.3	0.00e+00	0	41	0	81788928	58	6718
2026-01-30 15:05:21.01	20.68	6.71	-42.3	-44.0	18.6	0.00e+00	0	41	0	89128960	58	6423
2026-01-30 15:05:25.05	20.66	7.02	-42.1	-43.7	18.9	0.00e+00	0	41	0	96468992	58	6241
2026-01-30 15:05:29.09	20.63	7.33	-42.1	-43.7	19.0	0.00e+00	69	41	0	104857600	58	6176
2026-01-30 15:05:33.13	20.60	7.64	-42.1	-43.7	18.9	0.00e+00	0	41	0	112197632	58	6222
2026-01-30 15:05:37.17	20.57	7.96	-42.0	-43.6	19.1	0.00e+00	0	41	0	119537664	58	6133
2026-01-30 15:05:41.21	20.54	8.29	-41.8	-43.3	19.4	0.00e+00	0	41	0	126877696	56	6644
2026-01-30 15:05:45.25	20.51	8.62	-41.7	-43.1	19.7	0.00e+00	65	41	0	134217728	56	6508
2026-01-30 15:05:49.28	20.47	8.95	-41.7	-43.1	19.6	0.00e+00	0	41	0	142606336	56	6504
2026-01-30 15:05:53.33	20.44	9.29	-41.3	-42.7	20.1	0.00e+00	11	41	0	149946368	56	6206
2026-01-30 15:05:57.37	20.40	9.63	-41.5	-42.9	20.0	0.00e+00	10	41	0	157286400	56	6366
2026-01-30 15:06:01.41	20.36	9.97	-41.3	-42.7	20.2	0.00e+00	28	41	0	164626432	56	6176
2026-01-30 15:06:05.45	20.33	10.33	-41.1	-42.4	20.4	0.00e+00	0	41	0	173015040	56	5989
2026-01-30 15:06:09.49	20.29	10.68	-40.9	-42.2	20.5	0.00e+00	0	41	0	180355072	56	5850
2026-01-30 15:06:13.53	20.24	11.04	-40.6	-41.8	20.9	0.00e+00	92	41	0	187695104	54	6272
2026-01-30 15:06:17.57	20.20	11.41	-40.1	-41.2	21.3	0.00e+00	0	41	0	195035136	54	5893
2026-01-30 15:06:21.60	20.16	11.78	-40.0	-41.1	21.6	0.00e+00	0	41	0	202375168	54	5798
2026-01-30 15:06:25.64	20.11	12.16	-39.7	-40.8	21.8	0.00e+00	0	41	0	210763776	52	6271
2026-01-30 15:06:29.68	20.06	12.54	-39.7	-40.8	21.8	0.00e+00	92	41	0	218103808	52	6290
2026-01-30 15:06:33.72	20.01	12.93	-39.6	-40.7	22.0	0.00e+00	0	41	0	225443840	52	6215
2026-01-30 15:06:37.76	19.96	13.33	-39.5	-40.6	22.1	0.00e+00	0	41	0	232783872	52	6133
2026-01-30 15:06:41.80	19.91	13.73	-39.0	-40.0	22.5	0.00e+00	6	41	0	241172480	52	5729
2026-01-30 15:06:45.84	19.86	14.14	-39.1	-40.1	22.5	0.00e+00	12	41	0	248512512	52	5770
2026-01-30 15:06:49.88	19.80	14.56	-38.9	-39.8	22.6	0.00e+00	0	41	0	255852544	52	5617
2026-01-30 15:06:53.92	19.74	14.98	-38.8	-39.7	22.7	0.00e+00	0	41	0	263192576	52	5566
2026-01-30 15:06:57.96	19.68	15.42	-38.8	-39.8	22.9	0.00e+00	79	41	0	270532608	50	6247
2026-01-30 15:07:02.00	19.62	15.86	-38.2	-39.1	23.1	0.00e+00	0	41	0	278921216	50	5815
2026-01-30 15:07:06.04	19.55	16.30	-38.2	-39.2	23.2	0.00e+00	0	41	0	286261248	50	5836
2026-01-30 15:07:10.07	19.48	16.76	-38.4	-39.4	23.1	0.00e+00	0	41	0	293601280	50	5978
2026-01-30 15:07:14.11	19.41	17.22	-38.4	-39.4	23.2	0.00e+00	92	41	0	300941312	50	5986
2026-01-30 15:07:18.15	19.34	17.70	-38.6	-39.6	22.9	0.00e+00	0	41	0	309329920	50	6131
2026-01-30 15:07:22.19	19.26	18.18	-38.4	-39.3	23.2	0.00e+00	0	41	0	316669952	50	5922
2026-01-30 15:07:26.23	19.18	18.67	-38.3	-39.3	23.1	0.00e+00	0	41	0	324009984	50	5925
2026-01-30 15:07:30.26	19.10	19.17	-38.2	-39.2	23.3	0.00e+00	92	41	0	331350016	50	5848
2026-01-30 15:07:34.31	19.01	19.68	-38.5	-39.4	23.2	0.00e+00	0	41	0	338690048	50	6010
2026-01-30 15:07:38.34	18.92	20.21	-38.7	-39.7	23.0	0.00e+00	0	41	0	347078656	50	6196
2026-01-30 15:07:42.38	18.83	20.74	-38.7	-39.7	23.0	0.00e+00	92	41	0	354418688	50	6193
2026-01-30 15:07:46.42	18.73	21.29	-38.8	-39.8	23.0	0.00e+00	0	41	0	361758720	50	6257
2026-01-30 15:07:50.46	18.63	21.84	-38.7	-39.7	23.0	0.00e+00	0	41	0	369098752	50	6211
2026-01-30 15:07:54.50	18.52	22.41	-38.6	-39.5	23.1	0.00e+00	0	41	0	377487360	50	6102
2026-01-30 15:07:58.54	18.41	23.00	-38.6	-39.5	23.1	0.00e+00	68	41	0	384827392	50	6085
2026-01-30 15:08:02.58	18.30	23.59	-38.1	-39.0	23.5	0.00e+00	0	41	0	392167424	50	5727
2026-01-30 15:08:06.62	18.18	24.20	-37.9	-38.8	23.7	0.00e+00	0	41	0	399507456	50	5610
2026-01-30 15:08:10.66	18.05	24.83	-38.3	-39.2	23.4	0.00e+00	0	41	0	406847488	50	5861
2026-01-30 15:08:14.70	17.92	25.47	-38.2	-39.1	23.5	0.00e+00	92	41	0	415236096	50	5824
2026-01-30 15:08:18.74	17.78	26.12	-38.3	-39.2	23.4	0.00e+00	0	41	0	422576128	50	5845
2026-01-30 15:08:22.78	17.64	26.79	-38.3	-39.2	23.4	0.00e+00	0	41	0	429916160	50	5886
2026-01-30 15:08:26.82	17.48	27.48	-39.5	-40.5	22.3	0.00e+00	10	41	0	437256192	50	6809
2026-01-30 15:08:30.86	17.32	28.19	-39.0	-40.0	22.8	0.00e+00	0	41	0	445644800	50	6443
2026-01-30 15:08:34.90	17.16	28.91	-39.1	-40.1	22.7	0.00e+00	0	41	0	452984832	50	6487
2026-01-30 15:08:38.94	16.98	29.66	-40.0	-41.1	21.8	0.00e+00	0	41	0	460324864	52	6505
2026-01-30 15:08:42.98	16.80	30.42	-40.7	-41.8	21.3	0.00e+00	15	41	0	467664896	54	6298
2026-01-30 15:08:47.02	16.60	31.20	-41.3	-42.6	20.7	0.00e+00	0	41	0	475004928	54	6865
2026-01-30 15:08:51.06	16.40	32.00	-42.3	-43.7	19.7	0.00e+00	0	41	0	483393536	56	6992
2026-01-30 15:08:55.10	16.18	32.83	-41.9	-43.3	20.2	0.00e+00	0	41	0	490733568	56	6643
2026-01-30 15:08:59.14	15.95	33.68	-41.5	-42.8	20.6	0.00e+00	70	41	0	498073600	56	6264
2026-01-30 15:09:03.18	15.71	34.55	-40.8	-42.0	21.3	0.00e+00	0	41	0	505413632	56	5720
2026-01-30 15:09:07.22	15.45	35.45	-39.7	-40.7	22.4	0.00e+00	0	41	0	513802240	52	6203
2026-01-30 15:09:11.26	15.18	36.37	-38.0	-38.9	23.9	0.00e+00	0	41	0	521142272	50	5643
2026-01-30 15:09:15.30	14.89	37.32	-37.7	-38.5	24.1	0.00e+00	50	41	0	528482304	48	6098
2026-01-30 15:09:19.34	14.59	38.29	-37.8	-38.7	24.0	0.00e+00	0	41	0	535822336	48	6182
2026-01-30 15:09:23.37	14.26	39.30	-39.0	-40.0	22.8	0.00e+00	0	41	0	544210944	50	6448
2026-01-30 15:09:27.41	13.91	40.33	-40.3	-41.5	21.5	0.00e+00	17	41	0	551550976	52	6825
2026-01-30 15:09:31.45	13.53	41.39	-41.1	-42.4	20.8	0.00e+00	0	41	0	558891008	54	6737
2026-01-30 15:09:35.49	13.13	42.48	-40.3	-41.4	21.8	0.00e+00	0	41	0	566231040	54	6014
2026-01-30 15:09:39.53	12.70	43.60	-41.4	-42.8	20.4	0.00e+00	0	41	0	573571072	54	7022
2026-01-30 15:09:43.56	12.24	44.76	-40.9	-42.1	21.1	0.00e+00	92	41	0	581959680	54	6511
2026-01-30 15:09:47.60	11.74	45.94	-40.8	-42.0	21.4	0.00e+00	0	41	0	589299712	54	6438
2026-01-30 15:09:51.64	11.20	47.16	-40.7	-41.9	20.9	0.00e+00	0	41	0	596639744	54	6363
2026-01-30 15:09:55.68	10.61	48.42	-39.5	-40.5	22.4	0.00e+00	9	41	0	603979776	52	6090
2026-01-30 15:09:59.72	9.98	49.70	-37.8	-38.7	23.8	0.00e+00	92	41	0	611319808	50	5507
2026-01-30 15:10:03.76	9.28	51.02	-37.8	-38.6	23.8	0.00e+00	0	41	0	619708416	50	5485
2026-01-30 15:10:07.80	8.52	52.38	-37.7	-38.6	23.9	0.00e+00	0	41	0	627048448	48	6151
2026-01-30 15:10:11.83	7.68	53.76	-37.6	-38.5	24.0	0.00e+00	66	41	0	634388480	48	6049
2026-01-30 15:10:15.87	6.75	55.18	-37.4	-38.2	24.2	0.00e+00	0	41	0	641728512	48	5896
2026-01-30 15:10:19.91	5.73	56.62	-38.5	-39.4	23.3	0.00e+00	0	41	0	650117120	48	6737
2026-01-30 15:10:23.95	4.58	58.10	-39.9	-41.0	21.9	0.00e+00	0	41	0	657457152	52	6436
2026-01-30 15:10:27.99	3.31	59.60	-38.7	-39.6	23.2	0.00e+00	36	41	0	664797184	50	6144
2026-01-30 15:10:32.03	1.87	61.13	-36.9	-37.7	24.4	0.00e+00	0	41	0	672137216	46	6244
2026-01-30 15:10:36.06	0.24	62.66	-37.9	-38.8	23.8	0.00e+00	0	41	0	679477248	48	6252
2026-01-30 15:10:40.10	358.39	64.22	-38.1	-39.0	23.9	0.00e+00	0	41	0	687865856	50	5752
2026-01-30 15:10:44.14	356.27	65.78	-36.5	-37.3	24.8	0.00e+00	86	41	0	695205888	46	5925
2026-01-30 15:10:48.18	353.81	67.33	-38.4	-39.3	23.4	0.00e+00	0	41	0	702545920	48	6630
2026-01-30 15:10:52.22	350.96	68.87	-39.2	-40.2	22.6	0.00e+00	11	41	0	709885952	50	6593
2026-01-30 15:10:56.26	347.63	70.38	-39.6	-40.6	22.4	0.00e+00	0	41	0	718274560	54	5483
2026-01-30 15:11:00.29	343.73	71.83	-37.9	-38.7	23.8	0.00e+00	0	41	0	725614592	48	6209
2026-01-30 15:11:04.33	339.10	73.21	-40.7	-41.9	20.8	0.00e+00	0	41	0	732954624	54	6388
2026-01-30 15:11:08.37	333.64	74.48	-38.7	-39.6	23.0	0.00e+00	0	41	0	740294656	48	6921
2026-01-30 15:11:12.41	327.23	75.60	-40.1	-41.3	21.7	0.00e+00	92	41	0	747634688	52	6673
2026-01-30 15:11:16.45	319.79	76.52	-38.6	-39.5	23.2	0.00e+00	0	41	0	756023296	50	6087
2026-01-30 15:11:20.48	311.41	77.20	-40.0	-41.1	21.8	0.00e+00	0	41	0	763363328	52	6516
2026-01-30 15:11:24.52	302.26	77.59	-40.1	-41.1	22.1	0.00e+00	0	41	0	770703360	54	5794
2026-01-30 15:11:28.56	292.76	77.65	-38.9	-39.9	22.8	0.00e+00	67	41	0	778043392	52	5635
2026-01-30 15:11:32.60	283.42	77.38	-39.0	-40.0	22.8	0.00e+00	0	41	0	786432000	50	6447
2026-01-30 15:11:36.64	274.70	76.80	-40.8	-42.1	21.1	0.00e+00	0	41	0	793772032	54	6509
2026-01-30 15:11:40.68	266.89	75.96	-37.6	-38.4	23.8	0.00e+00	15	41	0	801112064	48	6026
2026-01-30 15:11:44.71	260.12	74.91	-41.9	-43.4	19.8	0.00e+00	92	41	0	808452096	54	7545
2026-01-30 15:11:48.75	254.32	73.69	-42.3	-43.9	19.5	0.00e+00	0	41	0	815792128	56	7106
2026-01-30 15:11:52.79	249.40	72.34	-41.4	-42.6	20.6	0.00e+00	0	41	0	824180736	54	6925
2026-01-30 15:11:56.83	245.24	70.91	-42.6	-44.1	19.6	0.00e+00	22	41	0	831520768	58	6503
2026-01-30 15:12:00.86	241.71	69.42	-41.2	-42.4	21.1	0.00e+00	0	41	0	838860800	56	5993
2026-01-30 15:12:04.90	238.69	67.89	-41.4	-42.7	20.3	0.00e+00	0	41	0	846200832	54	6994
2026-01-30 15:12:08.94	236.10	66.34	-39.6	-40.7	22.4	0.00e+00	0	41	0	854589440	52	6175
2026-01-30 15:12:12.97	233.87	64.78	-36.9	-37.7	24.4	0.00e+00	56	41	0	861929472	48	5559
2026-01-30 15:12:17.00	231.92	63.22	-37.2	-38.1	23.8	0.00e+00	0	41	0	869269504	46	6492
2026-01-30 15:12:21.04	230.21	61.67	-40.0	-41.1	22.1	0.00e+00	0	41	0	876609536	52	6516
2026-01-30 15:12:25.07	228.71	60.14	-42.0	-43.5	19.9	0.00e+00	0	41	0	883949568	56	6796
2026-01-30 15:12:29.11	227.37	58.63	-42.3	-43.7	19.7	0.00e+00	92	41	0	892338176	56	6992
2026-01-30 15:12:33.15	226.18	57.14	-39.5	-40.5	22.3	0.00e+00	0	41	0	899678208	52	6097
2026-01-30 15:12:37.19	225.11	55.68	-38.1	-39.0	23.3	0.00e+00	0	41	0	907018240	48	6442
2026-01-30 15:12:41.23	224.15	54.25	-38.3	-39.3	23.3	0.00e+00	36	41	0	914358272	48	6655
2026-01-30 15:12:45.27	223.28	52.84	-37.8	-38.8	23.8	0.00e+00	41	41	0	921698304	48	6251
2026-01-30 15:12:49.30	222.49	51.48	-39.7	-40.8	22.2	0.00e+00	0	41	0	930086912	52	6314
2026-01-30 15:12:53.34	221.77	50.14	-40.0	-41.1	21.9	0.00e+00	0	41	0	937426944	54	5791
2026-01-30 15:12:57.38	221.11	48.84	-39.9	-41.0	22.1	0.00e+00	92	41	0	944766976	52	6419
2026-01-30 15:13:01.42	220.50	47.57	-39.5	-40.5	22.5	0.00e+00	15	41	0	952107008	52	6064
2026-01-30 15:13:05.45	219.95	46.34	-40.8	-42.0	21.3	0.00e+00	0	41	0	960495616	52	7227
2026-01-30 15:13:09.49	219.43	45.14	-39.0	-39.9	22.6	0.00e+00	0	41	0	967835648	52	5692
2026-01-30 15:13:13.53	218.95	43.97	-41.1	-42.4	20.8	0.00e+00	61	41	0	975175680	54	6702
2026-01-30 15:13:17.57	218.51	42.83	-41.3	-42.5	20.7	0.00e+00	0	41	0	982515712	54	6846
2026-01-30 15:13:21.60	218.10	41.73	-40.8	-42.1	21.2	0.00e+00	0	41	0	989855744	52	7304
2026-01-30 15:13:25.64	217.71	40.65	-41.9	-43.2	20.4	0.00e+00	0	41	0	998244352	56	6605
2026-01-30 15:13:29.67	217.35	39.61	-39.7	-40.8	22.2	0.00e+00	90	41	0	1005584384	52	6279
2026-01-30 15:13:33.70	217.02	38.59	-39.8	-40.9	22.0	0.00e+00	0	41	0	1012924416	52	6344
2026-01-30 15:13:37.74	216.70	37.60	-40.0	-41.1	22.1	0.00e+00	0	41	0	1020264448	52	6469
2026-01-30 15:13:41.78	216.40	36.64	-39.8	-40.9	22.3	0.00e+00	10	41	0	1028653056	52	6338
2026-01-30 15:13:45.81	216.12	35.71	-41.2	-42.5	20.8	0.00e+00	79	41	0	1035993088	54	6772
2026-01-30 15:13:49.85	215.86	34.80	-41.9	-43.3	20.1	0.00e+00	0	41	0	1043333120	56	6616
2026-01-30 15:13:53.89	215.61	33.92	-39.8	-40.8	22.2	0.00e+00	0	41	0	1050673152	54	5629
2026-01-30 15:13:57.94	215.38	33.06	-39.5	-40.4	22.6	0.00e+00	91	41	0	1058013184	52	6013
2026-01-30 15:14:01.96	215.16	32.22	-40.4	-41.5	21.7	0.00e+00	0	41	0	1066401792	52	6781
2026-01-30 15:14:06.00	214.94	31.41	-42.0	-43.4	20.1	0.00e+00	0	41	0	1073741824	56	6712
2026-01-30 15:14:10.04	214.74	30.62	-40.5	-41.6	21.6	0.00e+00	0	41	0	1081081856	54	6130
2026-01-30 15:14:14.07	214.56	29.85	-39.5	-40.5	22.5	0.00e+00	92	41	0	1088421888	52	6071
2026-01-30 15:14:18.11	214.37	29.10	-39.9	-40.9	22.2	0.00e+00	0	41	0	1095761920	52	6361
2026-01-30 15:14:22.15	214.20	28.36	-39.2	-40.2	22.7	0.00e+00	0	41	0	1104150528	52	5848
2026-01-30 15:14:26.19	214.04	27.65	-39.5	-40.5	22.5	0.00e+00	57	41	0	1111490560	50	6824
2026-01-30 15:14:30.23	213.88	26.95	-40.8	-42.0	21.3	0.00e+00	92	41	0	1118830592	54	6399
2026-01-30 15:14:34.27	213.73	26.27	-39.3	-40.3	22.6	0.00e+00	0	41	0	1126170624	52	5920
2026-01-30 15:14:38.30	213.59	25.61	-38.5	-39.5	23.3	0.00e+00	0	41	0	1134559232	50	6043
2026-01-30 15:14:42.34	213.46	24.96	-38.7	-39.7	22.9	0.00e+00	88	41	0	1141899264	50	6184
2026-01-30 15:14:46.37	213.33	24.33	-38.8	-39.7	23.1	0.00e+00	0	41	0	1149239296	50	6223
2026-01-30 15:14:50.40	213.20	23.72	-38.9	-39.8	23.0	0.00e+00	0	41	0	1156579328	50	6310
2026-01-30 15:14:54.44	213.08	23.11	-39.2	-40.2	22.7	0.00e+00	0	41	0	1163919360	50	6606
2026-01-30 15:14:58.48	212.97	22.53	-39.3	-40.4	22.5	0.00e+00	91	41	0	1172307968	50	6739
2026-01-30 15:15:02.52	212.86	21.95	-39.5	-40.5	22.4	0.00e+00	0	41	0	1179648000	50	6847
2026-01-30 15:15:06.56	212.75	21.39	-40.0	-41.2	21.9	0.00e+00	0	41	0	1186988032	52	6564
2026-01-30 15:15:10.59	212.65	20.84	-40.4	-41.6	21.5	0.00e+00	0	41	0	1194328064	52	6883
2026-01-30 15:15:14.63	212.56	20.30	-40.6	-41.8	21.3	0.00e+00	92	41	0	1202716672	54	6293
2026-01-30 15:15:18.67	212.46	19.77	-40.3	-41.5	21.5	0.00e+00	0	41	0	1210056704	54	6103
2026-01-30 15:15:22.71	212.37	19.25	-40.1	-41.2	21.9	0.00e+00	0	41	0	1217396736	54	5851
2026-01-30 15:15:26.75	212.29	18.74	-39.2	-40.2	22.7	0.00e+00	65	41	0	1224736768	52	5863
2026-01-30 15:15:30.79	212.20	18.25	-39.7	-40.7	22.2	0.00e+00	0	41	0	1232076800	52	6186
2026-01-30 15:15:34.83	212.12	17.76	-39.8	-40.8	22.0	0.00e+00	0	41	0	1240465408	52	6313
2026-01-30 15:15:38.86	212.05	17.28	-40.4	-41.5	21.4	0.00e+00	0	41	0	1247805440	52	6770
2026-01-30 15:15:42.90	211.97	16.81	-40.5	-41.6	21.3	0.00e+00	7	41	0	1255145472	54	6169
2026-01-30 15:15:46.93	211.90	16.36	-41.1	-42.4	20.7	0.00e+00	0	41	0	1262485504	54	6693
2026-01-30 15:15:50.97	211.83	15.90	-40.8	-42.0	21.1	0.00e+00	0	41	0	1269825536	54	6440
2026-01-30 15:15:55.01	211.76	15.46	-41.0	-42.2	20.8	0.00e+00	0	41	0	1278214144	54	6568
2026-01-30 15:15:59.05	211.70	15.02	-41.2	-42.4	20.6	0.00e+00	92	41	0	1285554176	54	6728
2026-01-30 15:16:03.08	211.64	14.60	-41.2	-42.4	20.7	0.00e+00	0	41	0	1292894208	54	6745
2026-01-30 15:16:07.12	211.58	14.18	-41.4	-42.7	20.4	0.00e+00	0	41	0	1300234240	54	6978
2026-01-30 15:16:11.16	211.52	13.76	-41.0	-42.2	20.8	0.00e+00	0	41	0	1308622848	54	6582
2026-01-30 15:16:15.20	211.46	13.36	-41.0	-42.2	20.9	0.00e+00	92	41	0	1315962880	54	6564
2026-01-30 15:16:19.24	211.41	12.96	-41.1	-42.3	20.7	0.00e+00	21	41	0	1323302912	54	6667
2026-01-30 15:16:23.27	211.36	12.57	-41.0	-42.2	20.7	0.00e+00	0	41	0	1330642944	54	6609
2026-01-30 15:16:27.31	211.30	12.18	-40.9	-42.1	20.8	0.00e+00	83	41	0	1337982976	54	6522
2026-01-30 15:16:31.35	211.26	11.80	-41.2	-42.4	20.7	0.00e+00	0	41	0	1346371584	54	6765
2026-01-30 15:16:35.38	211.21	11.42	-41.5	-42.9	20.1	0.00e+00	0	41	0	1353711616	54	7134
2026-01-30 15:16:39.42	211.16	11.05	-41.5	-42.8	20.3	0.00e+00	7	41	0	1361051648	54	7055
2026-01-30 15:16:43.46	211.12	10.69	-41.7	-43.1	20.1	0.00e+00	93	41	0	1368391680	56	6481
2026-01-30 15:16:47.50	211.07	10.33	-41.6	-42.9	20.1	0.00e+00	0	41	0	1376780288	56	6383
2026-01-30 15:16:51.53	211.03	9.98	-41.9	-43.3	19.8	0.00e+00	0	41	0	1384120320	56	6631
2026-01-30 15:16:55.57	210.99	9.63	-41.9	-43.3	19.8	0.00e+00	0	41	0	1391460352	56	6643
2026-01-30 15:16:59.61	210.95	9.28	-41.6	-42.9	20.0	0.00e+00	89	41	0	1398800384	56	6382
2026-01-30 15:17:03.65	210.91	8.94	-41.6	-43.0	20.1	0.00e+00	0	41	0	1406140416	56	6437
2026-01-30 15:17:07.68	210.88	8.61	-41.6	-43.0	19.9	0.00e+00	0	41	0	1414529024	56	6436
2026-01-30 15:17:11.72	210.84	8.28	-41.5	-42.9	20.1	0.00e+00	65	41	0	1421869056	56	6321
2026-01-30 15:17:15.76	210.81	7.95	-41.7	-43.1	19.9	0.00e+00	92	41	0	1429209088	56	6488
2026-01-30 15:17:19.80	210.77	7.63	-41.3	-42.6	20.1	0.00e+00	0	41	0	1436549120	56	6113
2026-01-30 15:17:23.83	210.74	7.31	-41.5	-42.9	20.0	0.00e+00	0	41	0	1444937728	56	6353
2026-01-30 15:17:27.87	210.71	7.00	-41.4	-42.8	20.0	0.00e+00	30	41	0	1452277760	56	6271
2026-01-30 15:17:31.91	210.68	6.69	-41.3	-42.7	20.2	0.00e+00	0	41	0	1459617792	56	6227
2026-01-30 15:17:35.94	210.65	6.38	-41.5	-42.9	19.9	0.00e+00	0	41	0	1466957824	56	6366
2026-01-30 15:17:39.98	210.62	6.08	-41.7	-43.1	19.6	0.00e+00	0	41	0	1474297856	56	6515
2026-01-30 15:17:44.02	210.59	5.78	-41.6	-43.0	19.8	0.00e+00	92	41	0	1482686464	56	6425
2026-01-30 15:17:48.06	210.56	5.48	-41.5	-42.9	19.8	0.00e+00	0	41	0	1490026496	56	6346
2026-01-30 15:17:52.09	210.53	5.19	-41.6	-43.0	19.6	0.00e+00	0	41	0	1497366528	56	6427
2026-01-30 15:17:56.13	210.51	4.90	-42.0	-43.5	19.1	0.00e+00	5	41	0	1504706560	56	6773
2026-01-30 15:18:00.17	210.48	4.62	-41.8	-43.3	19.3	0.00e+00	92	41	0	1513095168	56	6642
2026-01-30 15:18:04.20	210.46	4.33	-42.2	-43.8	18.8	0.00e+00	0	41	0	1520435200	56	7070
2026-01-30 15:18:08.24	210.43	4.05	-42.2	-43.8	18.7	0.00e+00	0	41	0	1527775232	56	7011
2026-01-30 15:18:12.28	210.41	3.77	-42.4	-44.1	18.4	0.00e+00	77	41	0	1535115264	56	7257
2026-01-30 15:18:16.32	210.39	3.50	-42.5	-44.2	18.2	0.00e+00	0	41	0	1542455296	58	6606
2026-01-30 15:18:20.35	210.37	3.23	-42.9	-44.8	17.5	0.00e+00	0	41	0	1550843904	58	7073
2026-01-30 15:18:24.39	210.35	2.96	-48.7	-63.8	3.6	1.51e+00	0	41	104	1556086784	60	56185
2026-01-30 15:18:28.43	210.33	2.69	-48.9	-64.6	3.6	1.51e+00	0	41	104	1556086784	60	61717
2026-01-30 15:18:32.47	210.31	2.43	-49.7	-64.9	3.6	1.51e+00	0	41	104	1556086784	60	63466
2026-01-30 15:18:36.51	210.29	2.16	-49.6	-64.8	3.6	1.51e+00	0	41	104	1556086784	60	63142
2026-01-30 15:18:40.55	210.27	1.91	-49.5	-64.8	3.6	1.51e+00	0	41	104	1556086784	60	62926
2026-01-30 15:18:44.59	210.25	1.65	-49.5	-64.8	3.6	1.51e+00	0	41	104	1556086784	60	62499
2026-01-30 15:18:48.63	210.23	1.39	-49.6	-64.9	3.6	1.51e+00	0	41	104	1556086784	60	63243
2026-01-30 15:18:52.67	210.21	1.14	-49.6	-64.8	3.6	1.51e+00	0	41	104	1556086784	60	62845
2026-01-30 15:18:56.71	210.20	0.89	-49.6	-64.8	3.6	1.51e+00	0	41	104	1556086784	60	62668
2026-01-30 15:19:00.75	210.18	0.64	-49.6	-64.8	3.6	1.51e+00	0	41	104	1556086784	60	62968
2026-01-30 15:19:04.79	210.16	0.39	-49.6	-64.7	3.6	1.51e+00	0	41	104	1556086784	60	62389
2026-01-30 15:19:08.83	210.15	0.15	-49.6	-64.8	3.6	1.51e+00	0	41	104	1556086784	60	62875
2026-01-30 15:19:12.87	210.13	-0.09	-49.6	-64.7	3.6	1.51e+00	0	41	104	1556086784	60	62374

#Closed at: 2026-01-30 15:19:13
#Recorded file [1556 MB]: D:/lorett/data/35029_260131_030344.dat