passes_logs/2026/01/30/R4.6S_Anadyr/R4.6S_Anadyr__20260130_134348_NOAA_20_JPSS-1_rec.log

#Pass ID: 20260130_134348_NOAA 20 (JPSS-1)
#Satellite: NOAA 20 (JPSS-1)
#Configuration: NOAA 20
#almurnet v.1.7.20251203
#Start time: 2026-01-30 13:43:51

#Version: 2.2.20231116
#Station: R4.6S_Anadyr
#Location: 177.4865 lon 64.73178 lat
#TLE: 1 43013U 17073A   26029.42702672  .00000137  00000+0  85918-4 0  9993
#TLE: 2 43013  98.7646 330.2153 0000804  19.9045 340.2162 14.19525092424781

#Time	Az	El	Level	Level2	SNR	BER	BlckErr	Temp	State	Recorded	gain1	gain2
2026-01-30 13:43:51.49	19.14	0.20	-49.6	-63.3	3.3	1.54e+00	0	40	0	0	60	52871
2026-01-30 13:43:55.51	19.28	0.43	-49.6	-64.8	3.6	1.51e+00	0	40	104	0	60	62951
2026-01-30 13:43:59.55	19.42	0.67	-49.6	-64.8	3.6	1.51e+00	0	40	104	0	60	63119
2026-01-30 13:44:03.60	19.56	0.91	-49.5	-64.7	3.6	1.51e+00	0	40	104	0	60	61742
2026-01-30 13:44:07.64	19.71	1.14	-49.0	-64.3	3.6	1.51e+00	0	40	104	0	60	59345
2026-01-30 13:44:11.68	19.85	1.39	-48.5	-63.7	3.6	1.51e+00	0	40	104	0	60	55507
2026-01-30 13:44:15.72	20.00	1.63	-48.2	-63.2	3.6	1.51e+00	0	40	104	0	60	52226
2026-01-30 13:44:19.76	20.15	1.88	-48.2	-63.3	3.5	1.51e+00	0	40	104	0	60	52934
2026-01-30 13:44:23.80	20.31	2.12	-48.2	-63.3	3.6	1.51e+00	0	40	104	0	60	53011
2026-01-30 13:44:27.84	20.46	2.37	-48.1	-62.6	3.6	1.51e+00	0	41	104	0	60	48696
2026-01-30 13:44:31.88	20.62	2.62	-48.1	-62.5	3.5	1.51e+00	0	41	104	0	60	48267
2026-01-30 13:44:35.92	20.78	2.88	-46.3	-50.7	11.5	1.28e-02	79	41	0	3145728	60	12335
2026-01-30 13:44:39.96	20.94	3.13	-43.1	-45.1	17.3	0.00e+00	4	40	0	10485760	60	6507
2026-01-30 13:44:44.00	21.11	3.39	-43.7	-46.0	16.3	0.00e+00	91	41	0	17825792	58	8072
2026-01-30 13:44:48.04	21.27	3.65	-47.7	-57.3	5.5	6.86e-02	0	41	0	26214400	60	26344
2026-01-30 13:44:52.09	21.45	3.91	-45.1	-48.3	14.0	1.14e+00	0	40	104	30408704	60	9376
2026-01-30 13:44:56.13	21.62	4.18	-44.4	-47.0	15.3	0.00e+00	65	41	0	36700160	60	8133
2026-01-30 13:45:00.16	21.79	4.45	-43.8	-46.1	16.6	0.00e+00	92	41	0	44040192	60	7272
2026-01-30 13:45:04.20	21.97	4.72	-42.2	-43.8	18.7	0.00e+00	2	41	0	51380224	58	6272
2026-01-30 13:45:08.24	22.15	4.99	-41.9	-43.4	19.0	0.00e+00	2	41	0	58720256	58	6025
2026-01-30 13:45:12.28	22.34	5.26	-41.9	-43.4	19.2	0.00e+00	0	41	0	67108864	58	6009
2026-01-30 13:45:16.32	22.53	5.54	-41.3	-42.7	20.0	0.00e+00	92	41	0	74448896	56	6209
2026-01-30 13:45:20.36	22.72	5.82	-41.3	-42.7	20.1	0.00e+00	2	41	0	81788928	56	6190
2026-01-30 13:45:24.40	22.91	6.10	-41.4	-42.8	20.1	0.00e+00	3	41	0	89128960	56	6266
2026-01-30 13:45:28.44	23.11	6.39	-41.0	-42.3	20.4	0.00e+00	70	41	0	96468992	56	5954
2026-01-30 13:45:32.48	23.31	6.68	-41.3	-42.6	20.3	0.00e+00	0	41	0	104857600	56	6146
2026-01-30 13:45:36.52	23.52	6.97	-41.1	-42.4	20.4	0.00e+00	0	41	0	112197632	56	5987
2026-01-30 13:45:40.56	23.73	7.27	-40.9	-42.1	20.8	0.00e+00	72	41	0	119537664	56	5791
2026-01-30 13:45:44.60	23.94	7.56	-40.6	-41.8	21.0	0.00e+00	92	41	0	126877696	54	6284
2026-01-30 13:45:48.64	24.16	7.87	-40.4	-41.6	21.2	0.00e+00	6	41	0	135266304	54	6146
2026-01-30 13:45:52.68	24.38	8.17	-40.5	-41.7	21.1	0.00e+00	6	41	0	142606336	54	6229
2026-01-30 13:45:56.72	24.61	8.48	-40.3	-41.5	21.4	0.00e+00	0	41	0	149946368	54	6037
2026-01-30 13:46:00.76	24.84	8.79	-40.2	-41.3	21.5	0.00e+00	92	41	0	157286400	54	5921
2026-01-30 13:46:04.80	25.07	9.11	-40.2	-41.3	21.6	0.00e+00	0	41	0	165675008	54	5964
2026-01-30 13:46:08.83	25.31	9.42	-40.1	-41.2	21.7	0.00e+00	0	41	0	173015040	54	5843
2026-01-30 13:46:12.87	25.55	9.75	-40.0	-41.1	21.8	0.00e+00	0	41	0	180355072	54	5801
2026-01-30 13:46:16.91	25.80	10.07	-39.9	-41.0	22.0	0.00e+00	92	41	0	187695104	52	6431
2026-01-30 13:46:20.94	26.06	10.40	-39.9	-40.9	22.1	0.00e+00	0	41	0	195035136	52	6381
2026-01-30 13:46:24.98	26.32	10.74	-39.7	-40.8	22.2	0.00e+00	0	41	0	203423744	52	6268
2026-01-30 13:46:29.02	26.58	11.08	-39.6	-40.6	22.3	0.00e+00	0	41	0	210763776	52	6161
2026-01-30 13:46:33.06	26.85	11.42	-39.6	-40.6	22.4	0.00e+00	91	41	0	218103808	52	6160
2026-01-30 13:46:37.09	27.13	11.77	-39.4	-40.4	22.7	0.00e+00	81	41	0	225443840	52	5979
2026-01-30 13:46:41.13	27.41	12.12	-39.3	-40.3	22.7	0.00e+00	82	41	0	232783872	52	5943
2026-01-30 13:46:45.17	27.70	12.47	-39.2	-40.2	22.9	0.00e+00	82	41	0	241172480	52	5846
2026-01-30 13:46:49.21	28.00	12.83	-39.1	-40.0	23.0	0.00e+00	92	41	0	248512512	52	5757
2026-01-30 13:46:53.25	28.30	13.20	-39.1	-40.0	23.1	0.00e+00	0	41	0	255852544	52	5735
2026-01-30 13:46:57.29	28.61	13.57	-38.9	-39.8	23.2	0.00e+00	0	41	0	263192576	52	5592
2026-01-30 13:47:01.32	28.93	13.94	-38.6	-39.6	23.4	0.00e+00	0	41	0	271581184	50	6108
2026-01-30 13:47:05.36	29.26	14.32	-38.6	-39.5	23.6	0.00e+00	67	41	0	278921216	50	6060
2026-01-30 13:47:09.40	29.59	14.71	-38.6	-39.6	23.5	0.00e+00	6	41	0	286261248	50	6105
2026-01-30 13:47:13.43	29.93	15.10	-38.7	-39.7	23.4	0.00e+00	1	41	0	293601280	50	6190
2026-01-30 13:47:17.47	30.28	15.50	-38.8	-39.8	23.3	0.00e+00	92	41	0	300941312	50	6268
2026-01-30 13:47:21.51	30.64	15.90	-39.2	-40.1	22.9	0.00e+00	23	41	0	309329920	50	6528
2026-01-30 13:47:25.55	31.01	16.31	-39.2	-40.1	22.9	0.00e+00	84	41	0	316669952	50	6520
2026-01-30 13:47:29.59	31.39	16.72	-39.1	-40.1	23.1	0.00e+00	5	41	0	324009984	50	6475
2026-01-30 13:47:33.62	31.78	17.14	-39.0	-40.0	23.2	0.00e+00	92	41	0	331350016	50	6413
2026-01-30 13:47:37.66	32.18	17.57	-39.0	-39.9	23.2	0.00e+00	7	41	0	339738624	50	6342
2026-01-30 13:47:41.69	32.59	18.00	-39.1	-40.0	23.2	0.00e+00	0	41	0	347078656	50	6434
2026-01-30 13:47:45.73	33.01	18.43	-38.8	-39.7	23.4	0.00e+00	81	41	0	354418688	50	6231
2026-01-30 13:47:49.77	33.44	18.88	-38.8	-39.8	23.3	0.00e+00	91	41	0	361758720	50	6255
2026-01-30 13:47:53.81	33.89	19.33	-38.9	-39.8	23.4	0.00e+00	0	41	0	369098752	50	6271
2026-01-30 13:47:57.85	34.35	19.79	-38.8	-39.7	23.4	0.00e+00	0	41	0	377487360	50	6232
2026-01-30 13:48:01.89	34.82	20.25	-38.9	-39.8	23.3	0.00e+00	0	41	0	384827392	50	6315
2026-01-30 13:48:05.92	35.30	20.72	-39.2	-40.1	23.1	0.00e+00	92	41	0	392167424	50	6539
2026-01-30 13:48:09.96	35.80	21.20	-39.4	-40.4	22.9	0.00e+00	0	41	0	399507456	50	6735
2026-01-30 13:48:14.00	36.32	21.69	-39.4	-40.4	22.9	0.00e+00	0	41	0	407896064	50	6723
2026-01-30 13:48:18.04	36.85	22.18	-39.3	-40.3	23.0	0.00e+00	0	41	0	415236096	50	6625
2026-01-30 13:48:22.07	37.40	22.68	-39.3	-40.3	23.0	0.00e+00	90	41	0	422576128	50	6635
2026-01-30 13:48:26.11	37.97	23.19	-39.3	-40.2	22.8	0.00e+00	0	41	0	429916160	50	6595
2026-01-30 13:48:30.15	38.55	23.70	-39.0	-40.0	23.3	0.00e+00	81	41	0	437256192	50	6411
2026-01-30 13:48:34.19	39.15	24.22	-39.1	-40.0	23.2	0.00e+00	0	41	0	445644800	50	6446
2026-01-30 13:48:38.23	39.78	24.75	-39.2	-40.2	23.1	0.00e+00	92	41	0	452984832	50	6556
2026-01-30 13:48:42.27	40.42	25.29	-39.5	-40.4	22.9	0.00e+00	0	41	0	460324864	50	6765
2026-01-30 13:48:46.31	41.09	25.83	-39.4	-40.4	22.7	0.00e+00	81	41	0	467664896	50	6704
2026-01-30 13:48:50.34	41.77	26.38	-39.4	-40.4	22.9	0.00e+00	90	41	0	476053504	50	6726
2026-01-30 13:48:54.38	42.49	26.94	-39.1	-40.1	23.3	0.00e+00	33	41	0	483393536	50	6474
2026-01-30 13:48:58.42	43.22	27.51	-39.1	-40.0	23.3	0.00e+00	0	41	0	490733568	50	6454
2026-01-30 13:49:02.46	43.99	28.08	-39.6	-40.6	22.8	0.00e+00	7	41	0	498073600	50	6901
2026-01-30 13:49:06.50	44.78	28.66	-40.3	-41.4	22.1	0.00e+00	92	41	0	505413632	52	6693
2026-01-30 13:49:10.54	45.60	29.24	-40.7	-41.8	21.6	0.00e+00	2	41	0	513802240	54	6308
2026-01-30 13:49:14.57	46.44	29.83	-40.2	-41.2	22.2	0.00e+00	0	41	0	521142272	54	5863
2026-01-30 13:49:18.62	47.33	30.43	-40.6	-41.7	21.8	0.00e+00	5	41	0	528482304	54	6192
2026-01-30 13:49:22.66	48.24	31.03	-40.7	-41.8	21.8	0.00e+00	90	41	0	535822336	54	6271
2026-01-30 13:49:26.69	49.18	31.63	-40.5	-41.6	21.9	0.00e+00	81	41	0	544210944	54	6150
2026-01-30 13:49:30.73	50.16	32.24	-39.9	-40.9	22.6	0.00e+00	81	41	0	551550976	54	5672
2026-01-30 13:49:34.77	51.18	32.86	-39.7	-40.6	22.8	0.00e+00	0	41	0	558891008	52	6168
2026-01-30 13:49:38.81	52.24	33.47	-39.6	-40.6	22.8	0.00e+00	90	41	0	566231040	52	6128
2026-01-30 13:49:42.85	53.34	34.09	-40.0	-41.0	22.3	0.00e+00	2	41	0	573571072	52	6457
2026-01-30 13:49:46.88	54.47	34.70	-39.8	-40.8	22.7	0.00e+00	0	41	0	581959680	52	6260
2026-01-30 13:49:50.92	55.65	35.32	-39.4	-40.4	23.0	0.00e+00	0	41	0	589299712	52	5988
2026-01-30 13:49:54.96	56.88	35.93	-39.7	-40.7	22.7	0.00e+00	92	41	0	596639744	52	6197
2026-01-30 13:49:59.00	58.15	36.55	-39.5	-40.4	22.9	0.00e+00	0	41	0	603979776	52	6012
2026-01-30 13:50:03.03	59.47	37.15	-40.2	-41.3	22.2	0.00e+00	0	41	0	612368384	52	6641
2026-01-30 13:50:07.07	60.84	37.75	-40.2	-41.2	22.3	0.00e+00	0	41	0	619708416	52	6569
2026-01-30 13:50:11.11	62.26	38.35	-40.6	-41.7	21.9	0.00e+00	92	41	0	627048448	52	6930
2026-01-30 13:50:15.15	63.73	38.93	-41.4	-42.6	20.9	0.00e+00	0	41	0	634388480	54	6916
2026-01-30 13:50:19.19	65.26	39.50	-40.2	-41.2	22.2	0.00e+00	0	41	0	641728512	54	5850
2026-01-30 13:50:23.23	66.83	40.06	-40.5	-41.5	22.0	0.00e+00	61	41	0	650117120	54	6083
2026-01-30 13:50:27.26	68.46	40.60	-39.7	-40.7	22.8	0.00e+00	0	41	0	657457152	52	6176
2026-01-30 13:50:31.30	70.15	41.12	-41.3	-42.5	21.1	0.00e+00	0	41	0	664797184	54	6807
2026-01-30 13:50:35.34	71.89	41.63	-40.5	-41.6	21.9	0.00e+00	0	41	0	672137216	54	6154
2026-01-30 13:50:39.38	73.68	42.11	-42.5	-43.9	19.8	0.00e+00	88	41	0	680525824	56	7162
2026-01-30 13:50:43.42	75.53	42.56	-41.2	-42.4	21.2	0.00e+00	5	41	0	687865856	56	6004
2026-01-30 13:50:47.46	77.42	42.99	-41.8	-43.0	20.7	0.00e+00	5	41	0	695205888	56	6439
2026-01-30 13:50:51.50	79.37	43.38	-40.7	-41.8	21.6	0.00e+00	84	41	0	702545920	54	6299
2026-01-30 13:50:55.54	81.36	43.74	-40.0	-41.0	22.5	0.00e+00	92	41	0	709885952	54	5717
2026-01-30 13:50:59.58	83.39	44.07	-39.8	-40.8	22.7	0.00e+00	84	41	0	718274560	52	6296
2026-01-30 13:51:03.62	85.46	44.36	-40.6	-41.6	22.0	0.00e+00	6	41	0	725614592	54	6165
2026-01-30 13:51:07.66	87.57	44.61	-40.9	-42.1	21.6	0.00e+00	0	41	0	732954624	54	6474
2026-01-30 13:51:11.69	89.71	44.82	-40.7	-41.8	21.9	0.00e+00	92	41	0	740294656	54	6249
2026-01-30 13:51:15.72	91.87	44.99	-39.5	-40.5	23.1	0.00e+00	82	41	0	748683264	52	6083
2026-01-30 13:51:19.76	94.05	45.11	-40.0	-41.0	22.5	0.00e+00	81	41	0	756023296	52	6434
2026-01-30 13:51:23.80	96.25	45.18	-39.4	-40.3	23.1	0.00e+00	2	41	0	763363328	52	5945
2026-01-30 13:51:27.84	98.46	45.22	-38.8	-39.7	23.5	0.00e+00	92	41	0	770703360	50	6224
2026-01-30 13:51:31.88	100.66	45.20	-39.2	-40.2	23.2	0.00e+00	0	41	0	778043392	50	6551
2026-01-30 13:51:35.92	102.87	45.14	-39.1	-40.0	23.4	0.00e+00	0	41	0	786432000	50	6416
2026-01-30 13:51:39.96	105.06	45.03	-39.8	-40.8	22.6	0.00e+00	0	41	0	793772032	52	6311
2026-01-30 13:51:44.00	107.23	44.88	-40.8	-41.9	21.5	0.00e+00	90	41	0	801112064	54	6384
2026-01-30 13:51:48.04	109.38	44.69	-40.5	-41.6	22.0	0.00e+00	0	41	0	808452096	54	6114
2026-01-30 13:51:52.07	111.50	44.45	-40.2	-41.2	22.3	0.00e+00	0	41	0	816840704	54	5879
2026-01-30 13:51:56.11	113.59	44.18	-40.9	-42.0	21.6	0.00e+00	88	41	0	824180736	54	6445
2026-01-30 13:52:00.14	115.63	43.86	-39.8	-40.8	22.7	0.00e+00	90	41	0	831520768	52	6259
2026-01-30 13:52:04.19	117.65	43.51	-39.1	-40.0	23.5	0.00e+00	0	41	0	838860800	52	5737
2026-01-30 13:52:08.23	119.61	43.13	-39.3	-40.3	23.2	0.00e+00	0	41	0	846200832	50	6642
2026-01-30 13:52:12.26	121.53	42.71	-38.1	-38.9	24.2	0.00e+00	92	41	0	854589440	48	6359
2026-01-30 13:52:16.30	123.39	42.27	-37.3	-38.1	25.0	0.00e+00	70	41	0	861929472	48	5810
2026-01-30 13:52:20.34	125.21	41.79	-36.8	-37.6	25.0	0.00e+00	0	41	0	869269504	48	5446
2026-01-30 13:52:24.38	126.97	41.30	-37.4	-38.2	25.0	0.00e+00	0	41	0	876609536	48	5847
2026-01-30 13:52:28.42	128.68	40.78	-37.8	-38.7	24.5	0.00e+00	92	41	0	884998144	48	6197
2026-01-30 13:52:32.45	130.33	40.24	-38.3	-39.2	24.1	0.00e+00	5	41	0	892338176	48	6564
2026-01-30 13:52:36.49	131.93	39.69	-37.9	-38.7	24.6	0.00e+00	6	41	0	899678208	48	6222
2026-01-30 13:52:40.53	133.48	39.12	-38.4	-39.2	24.2	0.00e+00	81	41	0	907018240	48	6588
2026-01-30 13:52:44.57	134.97	38.53	-40.2	-41.2	22.3	0.00e+00	92	41	0	914358272	52	6600
2026-01-30 13:52:48.61	136.41	37.94	-38.7	-39.6	23.7	0.00e+00	4	41	0	922746880	50	6111
2026-01-30 13:52:52.65	137.80	37.34	-37.7	-38.5	24.7	0.00e+00	7	41	0	930086912	48	6053
2026-01-30 13:52:56.68	139.14	36.73	-40.2	-41.3	22.2	0.00e+00	5	41	0	937426944	52	6670
2026-01-30 13:53:00.72	140.43	36.12	-38.9	-39.8	23.6	0.00e+00	91	41	0	944766976	50	6273
2026-01-30 13:53:04.76	141.68	35.50	-39.7	-40.7	23.0	0.00e+00	0	41	0	953155584	52	6209
2026-01-30 13:53:08.80	142.88	34.88	-39.0	-39.9	23.4	0.00e+00	0	41	0	960495616	50	6389
2026-01-30 13:53:12.83	144.03	34.27	-40.5	-41.6	22.0	0.00e+00	0	41	0	967835648	54	6116
2026-01-30 13:53:16.86	145.14	33.65	-42.1	-43.4	20.2	0.00e+00	92	41	0	975175680	56	6760
2026-01-30 13:53:20.90	146.22	33.03	-39.2	-40.2	23.3	0.00e+00	0	41	0	982515712	52	5833
2026-01-30 13:53:24.94	147.25	32.41	-40.3	-41.4	22.1	0.00e+00	0	41	0	990904320	52	6754
2026-01-30 13:53:28.98	148.25	31.80	-40.4	-41.5	22.0	0.00e+00	0	41	0	998244352	54	6092
2026-01-30 13:53:33.01	149.21	31.19	-39.7	-40.7	21.6	0.00e+00	92	41	0	1005584384	50	6987
2026-01-30 13:53:37.05	150.13	30.58	-41.8	-43.1	20.5	0.00e+00	0	41	0	1012924416	58	5813
2026-01-30 13:53:41.09	151.02	29.98	-38.1	-38.9	24.3	0.00e+00	80	41	0	1021313024	50	5644
2026-01-30 13:53:45.13	151.89	29.39	-40.2	-41.3	22.1	0.00e+00	79	41	0	1028653056	52	6623
2026-01-30 13:53:49.16	152.71	28.80	-40.1	-41.1	22.3	0.00e+00	92	41	0	1035993088	52	6518
2026-01-30 13:53:53.20	153.51	28.21	-39.4	-40.3	23.0	0.00e+00	0	41	0	1043333120	52	5946
2026-01-30 13:53:57.24	154.29	27.64	-39.6	-40.6	22.9	0.00e+00	0	41	0	1050673152	52	6109
2026-01-30 13:54:01.27	155.03	27.07	-38.0	-38.8	24.3	0.00e+00	92	41	0	1059061760	50	5619
2026-01-30 13:54:05.31	155.76	26.50	-38.3	-39.1	23.9	0.00e+00	0	41	0	1066401792	50	5815
2026-01-30 13:54:09.35	156.45	25.95	-39.0	-39.9	23.3	0.00e+00	0	41	0	1073741824	50	6371
2026-01-30 13:54:13.39	157.13	25.40	-38.4	-39.3	23.9	0.00e+00	3	41	0	1081081856	50	5936
2026-01-30 13:54:17.43	157.78	24.86	-38.1	-38.9	24.2	0.00e+00	92	41	0	1088421888	50	5695
2026-01-30 13:54:21.47	158.41	24.32	-38.4	-39.2	23.9	0.00e+00	0	41	0	1096810496	50	5881
2026-01-30 13:54:25.51	159.02	23.79	-39.7	-40.8	22.5	0.00e+00	0	41	0	1104150528	50	7017
2026-01-30 13:54:29.55	159.61	23.27	-39.4	-40.4	22.8	0.00e+00	82	41	0	1111490560	52	6012
2026-01-30 13:54:33.58	160.18	22.76	-38.8	-39.7	23.5	0.00e+00	90	41	0	1118830592	50	6188
2026-01-30 13:54:37.62	160.74	22.26	-39.1	-40.0	23.2	0.00e+00	2	41	0	1127219200	50	6444
2026-01-30 13:54:41.66	161.27	21.76	-39.0	-39.9	23.3	0.00e+00	6	41	0	1134559232	50	6380
2026-01-30 13:54:45.70	161.80	21.27	-38.6	-39.5	23.6	0.00e+00	0	41	0	1141899264	50	6071
2026-01-30 13:54:49.73	162.30	20.79	-38.6	-39.5	23.6	0.00e+00	92	41	0	1149239296	50	6077
2026-01-30 13:54:53.77	162.79	20.31	-38.7	-39.6	23.6	0.00e+00	81	41	0	1156579328	50	6112
2026-01-30 13:54:57.80	163.27	19.84	-39.0	-40.0	23.2	0.00e+00	0	41	0	1164967936	50	6398
2026-01-30 13:55:01.84	163.73	19.38	-39.4	-40.4	22.9	0.00e+00	0	41	0	1172307968	50	6712
2026-01-30 13:55:05.88	164.18	18.92	-39.6	-40.5	22.7	0.00e+00	90	41	0	1179648000	50	6848
2026-01-30 13:55:09.92	164.61	18.47	-39.0	-39.9	23.3	0.00e+00	0	41	0	1186988032	50	6382
2026-01-30 13:55:13.96	165.04	18.03	-38.9	-39.9	23.3	0.00e+00	4	41	0	1195376640	50	6330
2026-01-30 13:55:18.00	165.45	17.59	-39.0	-40.0	23.2	0.00e+00	59	41	0	1202716672	50	6392
2026-01-30 13:55:22.03	165.85	17.16	-39.0	-40.0	23.2	0.00e+00	90	41	0	1210056704	50	6425
2026-01-30 13:55:26.06	166.24	16.74	-39.0	-40.0	23.1	0.00e+00	0	41	0	1217396736	50	6426
2026-01-30 13:55:30.10	166.62	16.32	-38.7	-39.6	23.3	0.00e+00	0	41	0	1224736768	50	6164
2026-01-30 13:55:34.14	166.99	15.91	-38.7	-39.6	23.4	0.00e+00	92	41	0	1233125376	50	6147
2026-01-30 13:55:38.18	167.36	15.51	-39.1	-40.0	23.1	0.00e+00	71	41	0	1240465408	50	6448
2026-01-30 13:55:42.21	167.71	15.11	-39.5	-40.5	22.7	0.00e+00	2	41	0	1247805440	50	6806
2026-01-30 13:55:46.25	168.05	14.71	-39.5	-40.5	22.6	0.00e+00	0	41	0	1255145472	50	6830
2026-01-30 13:55:50.29	168.39	14.32	-39.3	-40.3	22.9	0.00e+00	92	41	0	1262485504	50	6635
2026-01-30 13:55:54.33	168.71	13.94	-38.7	-39.7	23.3	0.00e+00	0	41	0	1270874112	50	6176
2026-01-30 13:55:58.36	169.03	13.56	-38.5	-39.3	23.6	0.00e+00	2	41	0	1278214144	50	5964
2026-01-30 13:56:02.40	169.34	13.19	-38.8	-39.7	23.2	0.00e+00	0	41	0	1285554176	50	6203
2026-01-30 13:56:06.44	169.65	12.82	-39.3	-40.3	22.7	0.00e+00	90	41	0	1292894208	50	6684
2026-01-30 13:56:10.48	169.94	12.45	-40.0	-41.1	22.0	0.00e+00	6	41	0	1301282816	52	6475
2026-01-30 13:56:14.52	170.23	12.09	-40.5	-41.6	21.5	0.00e+00	0	41	0	1308622848	52	6893
2026-01-30 13:56:18.55	170.52	11.74	-40.4	-41.6	21.4	0.00e+00	78	41	0	1315962880	52	6868
2026-01-30 13:56:22.58	170.79	11.39	-40.1	-41.2	21.8	0.00e+00	92	41	0	1323302912	52	6582
2026-01-30 13:56:26.62	171.06	11.04	-39.8	-40.8	22.2	0.00e+00	6	41	0	1330642944	52	6295
2026-01-30 13:56:30.66	171.33	10.70	-39.5	-40.5	22.4	0.00e+00	7	41	0	1339031552	52	6103
2026-01-30 13:56:34.70	171.59	10.37	-39.5	-40.5	22.5	0.00e+00	0	41	0	1346371584	52	6055
2026-01-30 13:56:38.74	171.84	10.03	-39.5	-40.5	22.4	0.00e+00	92	41	0	1353711616	52	6091
2026-01-30 13:56:42.78	172.09	9.70	-39.8	-40.8	22.1	0.00e+00	72	41	0	1361051648	52	6304
2026-01-30 13:56:46.82	172.33	9.38	-40.0	-41.1	21.8	0.00e+00	9	41	0	1369440256	52	6487
2026-01-30 13:56:50.86	172.57	9.06	-40.2	-41.4	21.5	0.00e+00	0	41	0	1376780288	52	6709
2026-01-30 13:56:54.90	172.80	8.74	-40.7	-41.9	21.0	0.00e+00	91	41	0	1384120320	52	7139
2026-01-30 13:56:58.94	173.03	8.42	-40.7	-41.9	21.0	0.00e+00	4	41	0	1391460352	54	6378
2026-01-30 13:57:02.98	173.26	8.11	-40.9	-42.2	20.7	0.00e+00	5	41	0	1398800384	54	6556
2026-01-30 13:57:07.02	173.48	7.81	-40.8	-42.1	20.8	0.00e+00	79	41	0	1407188992	54	6478
2026-01-30 13:57:11.06	173.69	7.50	-40.9	-42.1	20.7	0.00e+00	92	41	0	1414529024	54	6527
2026-01-30 13:57:15.10	173.90	7.20	-40.6	-41.9	20.9	0.00e+00	0	41	0	1421869056	54	6328
2026-01-30 13:57:19.14	174.11	6.90	-40.6	-41.8	21.0	0.00e+00	3	41	0	1429209088	54	6282
2026-01-30 13:57:23.18	174.31	6.61	-40.1	-41.3	21.4	0.00e+00	90	41	0	1437597696	54	5932
2026-01-30 13:57:27.22	174.51	6.32	-40.6	-41.8	21.0	0.00e+00	4	41	0	1444937728	54	6262
2026-01-30 13:57:31.26	174.71	6.03	-40.3	-41.5	21.2	0.00e+00	0	41	0	1452277760	54	6069
2026-01-30 13:57:35.30	174.90	5.74	-40.6	-41.8	20.8	0.00e+00	75	41	0	1459617792	54	6316
2026-01-30 13:57:39.34	175.09	5.46	-40.5	-41.7	21.0	0.00e+00	91	41	0	1468006400	54	6189
2026-01-30 13:57:43.38	175.28	5.18	-40.7	-42.0	20.5	0.00e+00	68	41	0	1475346432	54	6438
2026-01-30 13:57:47.42	175.46	4.91	-41.0	-42.4	20.1	0.00e+00	0	41	0	1482686464	54	6701
2026-01-30 13:57:51.46	175.64	4.63	-41.4	-42.8	19.8	0.00e+00	0	41	0	1490026496	54	7082
2026-01-30 13:57:55.50	175.82	4.36	-41.6	-43.1	19.4	0.00e+00	92	41	0	1497366528	54	7315
2026-01-30 13:57:59.54	175.99	4.09	-42.0	-43.6	18.9	0.00e+00	73	41	0	1505755136	56	6899
2026-01-30 13:58:03.57	176.16	3.82	-42.3	-43.9	18.7	0.00e+00	12	41	0	1513095168	56	7170
2026-01-30 13:58:07.61	176.33	3.56	-42.1	-43.8	18.6	0.00e+00	0	41	0	1520435200	56	7045
2026-01-30 13:58:11.65	176.49	3.30	-42.1	-43.8	18.6	0.00e+00	92	41	0	1527775232	56	7010
2026-01-30 13:58:15.69	176.65	3.04	-42.4	-44.1	18.2	0.00e+00	0	41	0	1535115264	58	6522
2026-01-30 13:58:19.72	176.81	2.78	-49.2	-64.4	3.6	1.51e+00	0	41	104	1537212416	60	59815
2026-01-30 13:58:23.76	176.97	2.52	-49.5	-64.8	3.6	1.51e+00	0	41	104	1537212416	60	62455
2026-01-30 13:58:27.80	177.12	2.27	-49.6	-64.8	3.6	1.51e+00	0	41	104	1537212416	60	63022
2026-01-30 13:58:31.85	177.28	2.02	-49.6	-64.9	3.6	1.51e+00	0	41	104	1537212416	60	63368
2026-01-30 13:58:35.89	177.43	1.77	-49.6	-64.8	3.6	1.51e+00	0	41	104	1537212416	60	62923
2026-01-30 13:58:39.93	177.57	1.52	-49.6	-64.8	3.6	1.51e+00	0	41	104	1537212416	60	62503
2026-01-30 13:58:43.97	177.72	1.28	-49.5	-64.8	3.6	1.51e+00	0	41	104	1537212416	60	62702
2026-01-30 13:58:48.01	177.86	1.04	-49.5	-64.8	3.6	1.51e+00	0	41	104	1537212416	60	62609
2026-01-30 13:58:52.05	178.00	0.79	-49.5	-64.8	3.6	1.51e+00	0	41	104	1537212416	60	62699
2026-01-30 13:58:56.09	178.14	0.55	-49.5	-64.8	3.6	1.51e+00	0	41	104	1537212416	60	62771
2026-01-30 13:59:00.13	178.28	0.32	-49.5	-64.8	3.6	1.51e+00	0	41	104	1537212416	60	62532
2026-01-30 13:59:04.17	178.42	0.08	-49.5	-64.7	3.6	1.51e+00	0	41	104	1537212416	60	62378

#Closed at: 2026-01-30 13:59:05
#Recorded file [1537 MB]: D:/lorett/data/35029_260131_014351.dat