passes_logs/2026/01/30/R4.6S_Anadyr/R4.6S_Anadyr__20260130_015641_KOSAR1-5_rec.log

#Pass ID: 20260130_015641_KOSAR1-5
#Satellite: KOSAR1-5
#Configuration: KOSAR1-5
#almurnet v.1.7.20251203
#Start time: 2026-01-30 01:56:42

#Version: 2.2.20231116
#Station: R4.6S_Anadyr
#Location: 177.4865 lon 64.73178 lat
#TLE: 1 67264U 25313S   26028.94615568  .00012050  00000+0  55467-3 0  9998
#TLE: 2 67264  97.4180 105.8864 0016576 134.5684 225.6907 15.20338860  4779

#Time	Az	El	Level	Level2	SNR	BER	BlckErr	Temp	State	Recorded	gain1	gain2
2026-01-30 01:56:42.43	17.64	0.03	-49.4	-64.4	3.5	1.51e+00	0	35	0	0	60	59967
2026-01-30 01:56:45.46	17.36	0.19	-46.0	-60.7	3.6	1.51e+00	0	37	104	0	60	43765
2026-01-30 01:56:48.49	17.08	0.36	-46.0	-60.6	3.6	1.51e+00	0	37	104	0	60	43655
2026-01-30 01:56:51.52	16.79	0.52	-46.0	-60.7	3.6	1.51e+00	0	37	104	0	60	43726
2026-01-30 01:56:54.55	16.50	0.69	-46.0	-60.7	3.6	1.51e+00	0	37	104	0	60	43887
2026-01-30 01:56:57.58	16.21	0.85	-46.0	-60.6	3.6	1.51e+00	0	37	104	0	60	43701
2026-01-30 01:57:00.60	15.91	1.02	-45.9	-60.7	3.6	1.51e+00	0	37	104	0	60	43862
2026-01-30 01:57:03.64	15.60	1.19	-46.0	-60.7	3.6	1.51e+00	0	37	104	0	60	43904
2026-01-30 01:57:06.67	15.29	1.35	-45.9	-60.7	3.6	1.51e+00	0	37	104	0	60	43720
2026-01-30 01:57:09.70	14.98	1.52	-45.9	-60.6	3.6	1.51e+00	0	37	104	0	60	43704
2026-01-30 01:57:12.73	14.66	1.69	-46.0	-60.7	3.6	1.51e+00	0	37	104	0	60	43921
2026-01-30 01:57:15.76	14.34	1.86	-46.0	-60.7	3.6	1.51e+00	0	37	104	0	60	43831
2026-01-30 01:57:18.79	14.01	2.03	-45.9	-60.7	3.6	1.51e+00	0	37	104	0	60	43737
2026-01-30 01:57:21.82	13.68	2.20	-46.0	-60.7	3.6	1.51e+00	0	37	104	0	60	43960
2026-01-30 01:57:24.85	13.34	2.37	-46.0	-60.7	3.6	1.51e+00	0	37	104	0	60	43936
2026-01-30 01:57:27.88	13.00	2.54	-46.0	-60.6	3.6	1.51e+00	0	37	104	0	60	43681
2026-01-30 01:57:30.91	12.65	2.71	-46.0	-60.7	3.6	1.51e+00	0	37	104	0	60	43827
2026-01-30 01:57:33.94	12.29	2.89	-46.0	-60.7	3.6	1.51e+00	0	37	104	0	60	43840
2026-01-30 01:57:36.97	11.93	3.06	-46.0	-60.7	3.6	1.51e+00	0	37	104	0	60	43976
2026-01-30 01:57:40.00	11.57	3.24	-46.0	-60.7	3.6	1.51e+00	0	37	104	0	60	43786
2026-01-30 01:57:43.03	11.20	3.41	-46.0	-60.6	3.6	1.51e+00	0	38	104	0	60	43452
2026-01-30 01:57:46.06	10.82	3.58	-46.0	-60.7	3.6	1.51e+00	0	38	104	0	60	43988
2026-01-30 01:57:49.09	10.44	3.76	-46.0	-60.7	3.6	1.51e+00	0	38	104	0	60	44029
2026-01-30 01:57:52.12	10.05	3.94	-46.0	-60.7	3.6	1.51e+00	0	38	104	0	60	43826
2026-01-30 01:57:55.16	9.65	4.11	-46.0	-60.7	3.6	1.51e+00	0	38	104	0	60	43932
2026-01-30 01:57:58.19	9.25	4.29	-46.0	-60.7	3.6	1.51e+00	0	38	104	0	60	43833
2026-01-30 01:58:01.22	8.84	4.47	-46.0	-60.7	3.6	1.51e+00	0	38	104	0	60	43963
2026-01-30 01:58:04.25	8.42	4.65	-46.0	-60.6	3.6	1.51e+00	0	38	104	0	60	43638
2026-01-30 01:58:07.28	8.00	4.82	-46.0	-60.7	3.6	1.51e+00	0	38	104	0	60	43896
2026-01-30 01:58:10.30	7.58	5.00	-46.0	-60.7	3.6	1.51e+00	0	38	104	0	60	43799
2026-01-30 01:58:13.33	7.14	5.18	-46.0	-60.7	3.6	1.51e+00	0	38	104	0	60	44163
2026-01-30 01:58:16.36	6.70	5.36	-46.0	-60.7	3.6	1.51e+00	0	38	104	0	60	43738
2026-01-30 01:58:19.40	6.25	5.54	-46.0	-60.7	3.6	1.51e+00	0	38	104	0	60	43961
2026-01-30 01:58:22.43	5.79	5.72	-46.0	-60.7	3.6	1.51e+00	0	38	104	0	60	43935
2026-01-30 01:58:25.46	5.33	5.90	-46.0	-60.7	3.6	1.51e+00	0	38	104	0	60	43871
2026-01-30 01:58:28.49	4.85	6.08	-46.0	-60.7	3.6	1.51e+00	0	38	104	0	60	43947
2026-01-30 01:58:31.52	4.37	6.26	-46.0	-60.7	3.6	1.51e+00	0	38	104	0	60	43853
2026-01-30 01:58:34.55	3.89	6.44	-46.0	-60.7	3.6	1.51e+00	0	38	104	0	60	43803
2026-01-30 01:58:37.59	3.39	6.63	-46.0	-60.7	3.6	1.51e+00	0	38	104	0	60	43973
2026-01-30 01:58:40.62	2.89	6.81	-46.0	-60.7	3.6	1.51e+00	0	38	104	0	60	43938
2026-01-30 01:58:43.65	2.38	6.99	-46.0	-60.7	3.6	1.51e+00	0	38	104	0	60	44035
2026-01-30 01:58:46.68	1.86	7.17	-46.0	-60.7	3.6	1.51e+00	0	38	104	0	60	43778
2026-01-30 01:58:49.71	1.33	7.35	-46.0	-60.7	3.6	1.51e+00	0	38	104	0	60	43787
2026-01-30 01:58:52.74	0.79	7.53	-46.0	-60.7	3.6	1.51e+00	0	38	104	0	60	43887
2026-01-30 01:58:55.77	0.25	7.71	-46.0	-60.7	3.6	1.51e+00	0	38	104	0	60	43807
2026-01-30 01:58:58.80	359.69	7.89	-46.0	-60.7	3.6	1.51e+00	0	38	104	0	60	43804
2026-01-30 01:59:01.83	359.13	8.07	-46.0	-60.7	3.6	1.51e+00	0	38	104	0	60	43989
2026-01-30 01:59:04.86	358.56	8.24	-46.0	-60.7	3.6	1.51e+00	0	38	104	0	60	43800
2026-01-30 01:59:07.89	357.98	8.42	-46.0	-60.7	3.6	1.51e+00	0	38	104	0	60	43764
2026-01-30 01:59:10.92	357.39	8.60	-46.0	-60.7	3.6	1.51e+00	0	38	104	0	60	43794
2026-01-30 01:59:13.96	356.79	8.78	-46.0	-60.6	3.6	1.51e+00	0	38	104	0	60	43653
2026-01-30 01:59:16.99	356.18	8.95	-46.0	-60.7	3.6	1.51e+00	0	38	104	0	60	43946
2026-01-30 01:59:20.02	355.56	9.13	-46.0	-60.6	3.6	1.51e+00	0	38	104	0	60	43614
2026-01-30 01:59:23.05	354.94	9.30	-46.0	-60.7	3.6	1.51e+00	0	38	104	0	60	44049
2026-01-30 01:59:26.08	354.30	9.47	-46.0	-60.7	3.6	1.51e+00	0	38	104	0	60	43840
2026-01-30 01:59:29.10	353.66	9.64	-46.0	-60.7	3.6	1.51e+00	0	38	104	0	60	44028
2026-01-30 01:59:32.13	353.00	9.81	-46.0	-60.7	3.6	1.51e+00	0	38	104	0	60	43723
2026-01-30 01:59:35.17	352.33	9.98	-46.0	-60.7	3.6	1.51e+00	0	38	104	0	60	43979
2026-01-30 01:59:38.20	351.66	10.15	-46.0	-60.7	3.6	1.51e+00	0	38	104	0	60	43937
2026-01-30 01:59:41.23	350.98	10.31	-46.0	-60.6	3.6	1.51e+00	0	38	104	0	60	43699
2026-01-30 01:59:44.26	350.28	10.47	-46.0	-60.7	3.6	1.51e+00	0	38	104	0	60	43782
2026-01-30 01:59:47.29	349.58	10.63	-46.0	-60.6	3.6	1.51e+00	0	38	104	0	60	43670
2026-01-30 01:59:50.32	348.87	10.79	-46.0	-60.7	3.6	1.51e+00	0	38	104	0	60	44033
2026-01-30 01:59:53.35	348.14	10.95	-46.0	-60.7	3.6	1.51e+00	0	38	104	0	60	44029
2026-01-30 01:59:56.38	347.41	11.10	-46.0	-60.7	3.6	1.51e+00	0	38	104	0	60	43746
2026-01-30 01:59:59.41	346.67	11.25	-46.0	-60.7	3.6	1.51e+00	0	38	104	0	60	43909
2026-01-30 02:00:02.45	345.92	11.40	-46.0	-60.7	3.6	1.51e+00	0	38	104	0	60	43758
2026-01-30 02:00:05.48	345.15	11.55	-46.0	-60.7	3.6	1.51e+00	0	38	104	0	60	43934
2026-01-30 02:00:08.51	344.38	11.69	-46.0	-60.7	3.6	1.51e+00	0	38	104	0	60	43934
2026-01-30 02:00:11.54	343.60	11.83	-46.0	-60.7	3.6	1.51e+00	0	38	104	0	60	43957
2026-01-30 02:00:14.57	342.82	11.96	-46.0	-60.7	3.6	1.51e+00	0	38	104	0	60	43918
2026-01-30 02:00:17.60	342.02	12.09	-46.0	-60.7	3.6	1.51e+00	0	38	104	0	60	43817
2026-01-30 02:00:20.63	341.21	12.22	-46.0	-60.7	3.6	1.51e+00	0	38	104	0	60	43837
2026-01-30 02:00:23.66	340.40	12.35	-46.0	-60.7	3.6	1.51e+00	0	38	104	0	60	43921
2026-01-30 02:00:26.69	339.58	12.47	-46.0	-60.7	3.6	1.51e+00	0	38	104	0	60	44084
2026-01-30 02:00:29.72	338.74	12.58	-46.0	-60.7	3.6	1.51e+00	0	38	104	0	60	43906
2026-01-30 02:00:32.75	337.90	12.69	-46.0	-60.7	3.6	1.51e+00	0	38	104	0	60	43742
2026-01-30 02:00:35.78	337.06	12.80	-46.0	-60.7	3.6	1.51e+00	0	38	104	0	60	44052
2026-01-30 02:00:38.81	336.20	12.90	-46.0	-60.7	3.6	1.51e+00	0	38	104	0	60	43754
2026-01-30 02:00:41.85	335.34	13.00	-46.0	-60.7	3.6	1.51e+00	0	38	104	0	60	43738
2026-01-30 02:00:44.88	334.47	13.09	-46.0	-60.7	3.6	1.51e+00	0	38	104	0	60	43913
2026-01-30 02:00:47.91	333.60	13.18	-46.0	-60.7	3.6	1.51e+00	0	38	104	0	60	43728
2026-01-30 02:00:50.94	332.71	13.26	-46.0	-60.7	3.6	1.51e+00	0	38	104	0	60	43772
2026-01-30 02:00:53.97	331.83	13.34	-46.0	-60.7	3.6	1.51e+00	0	38	104	0	60	44079
2026-01-30 02:00:57.00	330.93	13.41	-46.0	-60.7	3.6	1.51e+00	0	38	104	0	60	43994
2026-01-30 02:01:00.03	330.04	13.47	-46.0	-60.6	3.6	1.51e+00	0	38	104	0	60	43681
2026-01-30 02:01:03.06	329.13	13.53	-46.0	-60.7	3.6	1.51e+00	0	38	104	0	60	43787
2026-01-30 02:01:06.09	328.23	13.59	-46.0	-60.7	3.6	1.51e+00	0	38	104	0	60	43923
2026-01-30 02:01:09.12	327.32	13.63	-46.0	-60.7	3.6	1.51e+00	0	38	104	0	60	43890
2026-01-30 02:01:12.15	326.40	13.68	-46.0	-60.7	3.6	1.51e+00	0	38	104	0	60	43744
2026-01-30 02:01:15.18	325.49	13.71	-46.0	-60.7	3.6	1.51e+00	0	38	104	0	60	43917
2026-01-30 02:01:18.22	324.56	13.74	-46.0	-60.7	3.6	1.51e+00	0	38	104	0	60	43978
2026-01-30 02:01:21.25	323.64	13.76	-46.0	-60.7	3.6	1.51e+00	0	38	104	0	60	43842
2026-01-30 02:01:24.28	322.72	13.78	-46.0	-60.7	3.6	1.51e+00	0	38	104	0	60	43903
2026-01-30 02:01:27.31	321.80	13.79	-46.0	-60.7	3.6	1.51e+00	0	38	104	0	60	44010
2026-01-30 02:01:30.34	320.87	13.79	-46.0	-60.7	3.6	1.51e+00	0	38	104	0	60	43896
2026-01-30 02:01:33.37	319.95	13.79	-46.0	-60.7	3.6	1.51e+00	0	38	104	0	60	43863
2026-01-30 02:01:36.40	319.02	13.78	-46.0	-60.7	3.6	1.51e+00	0	38	104	0	60	43923
2026-01-30 02:01:39.43	318.10	13.77	-46.0	-60.7	3.6	1.51e+00	0	38	104	0	60	43942
2026-01-30 02:01:42.46	317.17	13.75	-46.0	-60.6	3.6	1.51e+00	0	38	104	0	60	43533
2026-01-30 02:01:45.49	316.25	13.72	-46.0	-60.7	3.6	1.51e+00	0	38	104	0	60	44073
2026-01-30 02:01:48.52	315.33	13.68	-46.0	-60.7	3.6	1.51e+00	0	38	104	0	60	43822
2026-01-30 02:01:51.55	314.42	13.64	-46.0	-60.7	3.5	1.51e+00	0	38	104	0	60	44028
2026-01-30 02:01:54.59	313.50	13.60	-46.0	-60.7	3.6	1.51e+00	0	38	104	0	60	43875
2026-01-30 02:01:57.62	312.59	13.55	-46.0	-60.7	3.6	1.51e+00	0	38	104	0	60	43733
2026-01-30 02:02:00.65	311.69	13.49	-46.0	-60.7	3.6	1.51e+00	0	38	104	0	60	44022
2026-01-30 02:02:03.68	310.79	13.42	-46.0	-60.7	3.6	1.51e+00	0	38	104	0	60	43812
2026-01-30 02:02:06.71	309.89	13.35	-46.0	-60.7	3.6	1.51e+00	0	38	104	0	60	43716
2026-01-30 02:02:09.74	309.00	13.28	-46.0	-60.7	3.6	1.51e+00	0	38	104	0	60	43986
2026-01-30 02:02:12.78	308.11	13.20	-46.0	-60.7	3.6	1.51e+00	0	38	104	0	60	43879
2026-01-30 02:02:15.81	307.23	13.11	-46.0	-60.7	3.6	1.51e+00	0	38	104	0	60	43951
2026-01-30 02:02:18.84	306.36	13.02	-46.0	-60.7	3.6	1.51e+00	0	38	104	0	60	43783
2026-01-30 02:02:21.87	305.49	12.92	-46.0	-60.7	3.6	1.51e+00	0	38	104	0	60	44117
2026-01-30 02:02:24.90	304.63	12.82	-46.0	-60.7	3.6	1.51e+00	0	38	104	0	60	43994
2026-01-30 02:02:27.93	303.78	12.72	-46.0	-60.6	3.6	1.51e+00	0	38	104	0	60	43636
2026-01-30 02:02:30.95	302.94	12.60	-46.0	-60.7	3.6	1.51e+00	0	38	104	0	60	43798
2026-01-30 02:02:33.99	302.10	12.49	-46.0	-60.7	3.6	1.51e+00	0	38	104	0	60	44069
2026-01-30 02:02:37.01	301.27	12.37	-46.0	-60.7	3.6	1.51e+00	0	38	104	0	60	44093
2026-01-30 02:02:40.04	300.45	12.25	-46.0	-60.7	3.6	1.51e+00	0	38	104	0	60	43863
2026-01-30 02:02:43.07	299.64	12.12	-46.0	-60.7	3.6	1.51e+00	0	38	104	0	60	43769
2026-01-30 02:02:46.11	298.83	11.99	-46.0	-60.7	3.6	1.51e+00	0	38	104	0	60	43976
2026-01-30 02:02:49.14	298.04	11.85	-46.0	-60.7	3.6	1.51e+00	0	38	104	0	60	43932
2026-01-30 02:02:52.17	297.25	11.71	-46.0	-60.7	3.6	1.51e+00	0	38	104	0	60	43785
2026-01-30 02:02:55.20	296.48	11.57	-46.0	-60.7	3.6	1.51e+00	0	38	104	0	60	43933
2026-01-30 02:02:58.23	295.71	11.42	-46.0	-60.7	3.6	1.51e+00	0	38	104	0	60	43839
2026-01-30 02:03:01.25	294.95	11.28	-46.0	-60.7	3.6	1.51e+00	0	38	104	0	60	44098
2026-01-30 02:03:04.29	294.20	11.12	-46.0	-60.7	3.6	1.51e+00	0	38	104	0	60	43980
2026-01-30 02:03:07.32	293.46	10.97	-46.0	-60.7	3.6	1.51e+00	0	38	104	0	60	43866
2026-01-30 02:03:10.35	292.73	10.81	-46.0	-60.7	3.6	1.51e+00	0	38	104	0	60	43867
2026-01-30 02:03:13.38	292.01	10.66	-46.0	-60.7	3.6	1.51e+00	0	38	104	0	60	43935
2026-01-30 02:03:16.41	291.30	10.49	-46.0	-60.7	3.6	1.51e+00	0	38	104	0	60	44207
2026-01-30 02:03:19.44	290.60	10.33	-46.0	-60.7	3.6	1.51e+00	0	38	104	0	60	43761
2026-01-30 02:03:22.47	289.91	10.17	-46.0	-60.7	3.6	1.51e+00	0	38	104	0	60	43786
2026-01-30 02:03:25.50	289.23	10.00	-46.0	-60.7	3.6	1.51e+00	0	38	104	0	60	43825
2026-01-30 02:03:28.53	288.56	9.83	-46.0	-60.7	3.6	1.51e+00	0	38	104	0	60	43956
2026-01-30 02:03:31.56	287.90	9.66	-46.0	-60.7	3.6	1.51e+00	0	38	104	0	60	43925
2026-01-30 02:03:34.59	287.24	9.49	-46.0	-60.7	3.6	1.51e+00	0	38	104	0	60	44072
2026-01-30 02:03:37.62	286.60	9.31	-46.0	-60.7	3.6	1.51e+00	0	38	104	0	60	43918
2026-01-30 02:03:40.65	285.97	9.14	-46.0	-60.7	3.6	1.51e+00	0	38	104	0	60	43979
2026-01-30 02:03:43.68	285.34	8.96	-46.0	-60.7	3.6	1.51e+00	0	38	104	0	60	44054
2026-01-30 02:03:46.71	284.73	8.79	-46.0	-60.7	3.6	1.51e+00	0	38	104	0	60	43886
2026-01-30 02:03:49.75	284.12	8.61	-46.0	-60.7	3.5	1.51e+00	0	38	104	0	60	43991
2026-01-30 02:03:52.78	283.52	8.43	-46.0	-60.7	3.6	1.51e+00	0	38	104	0	60	44040
2026-01-30 02:03:55.81	282.94	8.25	-46.0	-60.7	3.6	1.51e+00	0	38	104	0	60	44077
2026-01-30 02:03:58.85	282.36	8.07	-46.0	-60.7	3.6	1.51e+00	0	38	104	0	60	43839
2026-01-30 02:04:01.88	281.79	7.89	-46.0	-60.7	3.6	1.51e+00	0	38	104	0	60	43741
2026-01-30 02:04:04.91	281.23	7.71	-46.0	-60.7	3.6	1.51e+00	0	38	104	0	60	43957
2026-01-30 02:04:07.94	280.68	7.53	-46.0	-60.7	3.6	1.51e+00	0	38	104	0	60	44145
2026-01-30 02:04:10.97	280.13	7.35	-46.0	-60.7	3.6	1.51e+00	0	38	104	0	60	43938
2026-01-30 02:04:14.00	279.60	7.17	-46.0	-60.7	3.6	1.51e+00	0	38	104	0	60	44068
2026-01-30 02:04:17.02	279.07	6.99	-46.0	-60.7	3.6	1.51e+00	0	38	104	0	60	43891
2026-01-30 02:04:20.06	278.55	6.80	-46.0	-60.7	3.6	1.51e+00	0	38	104	0	60	44035
2026-01-30 02:04:23.09	278.04	6.62	-46.0	-60.7	3.6	1.51e+00	0	38	104	0	60	44112
2026-01-30 02:04:26.12	277.54	6.44	-46.0	-60.7	3.6	1.51e+00	0	38	104	0	60	44180
2026-01-30 02:04:29.15	277.05	6.26	-46.0	-60.7	3.6	1.51e+00	0	38	104	0	60	43946
2026-01-30 02:04:32.19	276.56	6.08	-46.0	-60.7	3.6	1.51e+00	0	38	104	0	60	44085
2026-01-30 02:04:35.22	276.08	5.89	-46.0	-60.7	3.6	1.51e+00	0	38	104	0	60	44005
2026-01-30 02:04:38.25	275.61	5.71	-46.0	-60.7	3.6	1.51e+00	0	38	104	0	60	43856
2026-01-30 02:04:41.28	275.15	5.53	-46.0	-60.7	3.6	1.51e+00	0	38	104	0	60	44168
2026-01-30 02:04:44.31	274.70	5.35	-46.0	-60.7	3.6	1.51e+00	0	38	104	0	60	44048
2026-01-30 02:04:47.34	274.25	5.17	-46.0	-60.7	3.6	1.51e+00	0	38	104	0	60	43717
2026-01-30 02:04:50.37	273.81	4.99	-46.0	-60.7	3.6	1.51e+00	0	38	104	0	60	43746
2026-01-30 02:04:53.40	273.37	4.81	-46.0	-60.7	3.6	1.51e+00	0	38	104	0	60	43947
2026-01-30 02:04:56.43	272.94	4.63	-46.0	-60.8	3.6	1.51e+00	0	38	104	0	60	44244
2026-01-30 02:04:59.46	272.52	4.45	-46.0	-60.7	3.6	1.51e+00	0	38	104	0	60	43804
2026-01-30 02:05:02.49	272.11	4.27	-46.0	-60.7	3.6	1.51e+00	0	38	104	0	60	43866
2026-01-30 02:05:05.52	271.70	4.09	-46.0	-60.7	3.6	1.51e+00	0	38	104	0	60	43881
2026-01-30 02:05:08.55	271.30	3.91	-46.0	-60.7	3.6	1.51e+00	0	38	104	0	60	43911
2026-01-30 02:05:11.58	270.91	3.74	-46.0	-60.8	3.5	1.51e+00	0	38	104	0	60	44231
2026-01-30 02:05:14.61	270.52	3.56	-46.0	-60.7	3.6	1.51e+00	0	38	104	0	60	43806
2026-01-30 02:05:17.64	270.14	3.38	-46.0	-60.7	3.6	1.51e+00	0	38	104	0	60	43871
2026-01-30 02:05:20.68	269.76	3.21	-46.0	-60.7	3.6	1.51e+00	0	38	104	0	60	44008
2026-01-30 02:05:23.71	269.39	3.03	-46.0	-60.7	3.6	1.51e+00	0	38	104	0	60	43863
2026-01-30 02:05:26.74	269.02	2.86	-46.0	-60.7	3.6	1.51e+00	0	38	104	0	60	43813
2026-01-30 02:05:29.77	268.66	2.68	-46.0	-60.7	3.6	1.51e+00	0	38	104	0	60	43857
2026-01-30 02:05:32.80	268.31	2.51	-46.0	-60.7	3.6	1.51e+00	0	38	104	0	60	43796
2026-01-30 02:05:35.83	267.96	2.34	-46.0	-60.7	3.6	1.51e+00	0	38	104	0	60	44104
2026-01-30 02:05:38.86	267.62	2.16	-46.0	-60.7	3.6	1.51e+00	0	38	104	0	60	43944
2026-01-30 02:05:41.89	267.28	1.99	-46.0	-60.7	3.6	1.51e+00	0	38	104	0	60	43971
2026-01-30 02:05:44.92	266.95	1.82	-46.0	-60.7	3.6	1.51e+00	0	38	104	0	60	44089
2026-01-30 02:05:47.95	266.62	1.65	-46.0	-60.7	3.6	1.51e+00	0	38	104	0	60	43916
2026-01-30 02:05:50.98	266.30	1.48	-46.0	-60.7	3.6	1.51e+00	0	38	104	0	60	43875
2026-01-30 02:05:54.01	265.98	1.31	-46.0	-60.7	3.6	1.51e+00	0	38	104	0	60	44116
2026-01-30 02:05:57.04	265.67	1.14	-46.0	-60.7	3.6	1.51e+00	0	38	104	0	60	43963
2026-01-30 02:06:00.08	265.36	0.98	-46.0	-60.7	3.6	1.51e+00	0	38	104	0	60	43987
2026-01-30 02:06:03.11	265.06	0.81	-46.0	-60.7	3.6	1.51e+00	0	38	104	0	60	43873
2026-01-30 02:06:06.14	264.76	0.64	-46.0	-60.7	3.6	1.51e+00	0	38	104	0	60	43822
2026-01-30 02:06:09.17	264.46	0.48	-46.0	-60.7	3.6	1.51e+00	0	38	104	0	60	43898
2026-01-30 02:06:12.20	264.17	0.31	-46.0	-60.7	3.6	1.51e+00	0	38	104	0	60	43950
2026-01-30 02:06:15.23	263.88	0.15	-46.0	-60.7	3.6	1.51e+00	0	38	104	0	60	44102
2026-01-30 02:06:18.26	263.60	-0.02	-46.0	-60.6	3.6	1.51e+00	0	38	104	0	60	43612

#Closed at: 2026-01-30 02:06:20
#Recorded file [0 MB]: D:/lorett/data/35029_260130_135642.dat