passes_logs/2026/01/30/R4.6S_Anadyr/R4.6S_Anadyr__20260130_184349_NOAA_20_JPSS-1_rec.log

#Pass ID: 20260130_184349_NOAA 20 (JPSS-1)
#Satellite: NOAA 20 (JPSS-1)
#Configuration: NOAA 20
#almurnet v.1.7.20251203
#Start time: 2026-01-30 18:43:50

#Version: 2.2.20231116
#Station: R4.6S_Anadyr
#Location: 177.4865 lon 64.73178 lat
#TLE: 1 43013U 17073A   26030.48431242  .00000108  00000+0  72277-4 0  9995
#TLE: 2 43013  98.7650 331.2614 0000741  18.6512 341.4691 14.19525335424931

#Time	Az	El	Level	Level2	SNR	BER	BlckErr	Temp	State	Recorded	gain1	gain2
2026-01-30 18:43:50.18	43.87	0.05	-50.0	-67.7	3.5	3.02e+01	0	39	0	0	60	93438
2026-01-30 18:43:53.21	43.65	0.20	-49.6	-64.9	3.6	1.51e+00	0	40	104	0	60	63551
2026-01-30 18:43:56.24	43.43	0.35	-49.7	-65.0	3.6	1.51e+00	0	40	104	0	60	63976
2026-01-30 18:43:59.27	43.20	0.50	-49.8	-65.0	3.6	1.51e+00	0	41	104	0	60	63994
2026-01-30 18:44:02.30	42.97	0.65	-49.7	-65.0	3.6	1.51e+00	0	41	104	0	60	63911
2026-01-30 18:44:05.33	42.74	0.80	-49.7	-64.9	3.6	1.51e+00	0	41	104	0	60	63342
2026-01-30 18:44:08.36	42.51	0.95	-49.5	-64.8	3.6	1.51e+00	0	41	104	0	60	62692
2026-01-30 18:44:11.39	42.27	1.10	-49.4	-64.6	3.5	1.51e+00	0	41	104	0	60	61172
2026-01-30 18:44:14.42	42.03	1.25	-48.9	-64.0	3.6	1.51e+00	0	41	104	0	60	57499
2026-01-30 18:44:17.45	41.79	1.41	-48.1	-63.4	3.6	1.51e+00	0	41	104	0	60	53586
2026-01-30 18:44:20.48	41.55	1.56	-48.1	-63.3	3.6	1.51e+00	0	41	104	0	60	52930
2026-01-30 18:44:23.51	41.30	1.71	-48.1	-63.3	3.6	1.51e+00	0	41	104	0	60	53098
2026-01-30 18:44:26.54	41.05	1.86	-48.1	-63.3	3.6	1.51e+00	0	41	104	0	60	53033
2026-01-30 18:44:29.57	40.80	2.02	-48.1	-63.3	3.5	1.51e+00	0	41	104	0	60	52666
2026-01-30 18:44:32.60	40.55	2.17	-48.1	-63.2	3.6	1.51e+00	0	41	104	0	60	52465
2026-01-30 18:44:35.63	40.29	2.32	-48.1	-63.3	3.6	1.51e+00	0	41	104	0	60	52750
2026-01-30 18:44:38.66	40.03	2.48	-48.1	-63.3	3.6	1.51e+00	0	41	104	0	60	52715
2026-01-30 18:44:41.69	39.77	2.63	-48.1	-62.8	3.6	1.51e+00	0	41	104	0	60	49708
2026-01-30 18:44:44.72	39.50	2.79	-48.1	-62.0	3.6	1.51e+00	0	41	104	0	60	45379
2026-01-30 18:44:47.75	39.23	2.94	-46.3	-50.7	11.4	1.76e-02	92	41	0	3145728	60	12439
2026-01-30 18:44:50.78	38.96	3.09	-47.0	-53.0	5.3	1.50e+00	0	41	104	6291456	60	16096
2026-01-30 18:44:53.81	38.68	3.25	-44.4	-47.1	14.7	1.39e+00	74	41	104	6291456	60	8213
2026-01-30 18:44:56.84	38.41	3.41	-44.0	-46.4	16.0	0.00e+00	92	41	0	10485760	60	7578
2026-01-30 18:44:59.87	38.13	3.56	-43.2	-45.2	17.3	0.00e+00	92	41	0	15728640	60	6602
2026-01-30 18:45:02.90	37.84	3.72	-43.1	-45.1	17.5	0.00e+00	0	41	0	22020096	60	6494
2026-01-30 18:45:05.92	37.56	3.87	-43.1	-45.0	17.7	0.00e+00	48	41	0	27262976	60	6441
2026-01-30 18:45:08.95	37.27	4.03	-43.1	-45.0	17.7	0.00e+00	92	41	0	32505856	60	6454
2026-01-30 18:45:11.98	36.97	4.19	-43.0	-44.9	17.8	0.00e+00	0	41	0	38797312	60	6350
2026-01-30 18:45:15.01	36.68	4.34	-43.1	-45.0	17.7	0.00e+00	0	41	0	44040192	60	6402
2026-01-30 18:45:18.04	36.38	4.50	-43.1	-45.0	17.8	0.00e+00	91	41	0	50331648	60	6425
2026-01-30 18:45:21.07	36.07	4.66	-42.8	-44.6	18.2	0.00e+00	0	41	0	55574528	60	6120
2026-01-30 18:45:24.10	35.77	4.81	-42.9	-44.7	18.1	0.00e+00	0	41	0	60817408	60	6211
2026-01-30 18:45:27.13	35.46	4.97	-43.0	-44.9	17.9	0.00e+00	90	41	0	67108864	60	6319
2026-01-30 18:45:30.16	35.14	5.13	-42.6	-44.3	18.5	0.00e+00	90	41	0	72351744	58	6634
2026-01-30 18:45:33.19	34.83	5.29	-42.4	-44.0	18.7	0.00e+00	0	41	0	78643200	58	6439
2026-01-30 18:45:36.22	34.51	5.44	-42.5	-44.2	18.6	0.00e+00	90	41	0	83886080	58	6580
2026-01-30 18:45:39.25	34.18	5.60	-42.3	-43.9	19.0	0.00e+00	90	41	0	90177536	58	6335
2026-01-30 18:45:42.28	33.86	5.76	-42.4	-44.0	18.8	0.00e+00	0	41	0	95420416	58	6404
2026-01-30 18:45:45.31	33.52	5.92	-41.9	-43.4	19.4	0.00e+00	0	41	0	100663296	58	6029
2026-01-30 18:45:48.34	33.19	6.08	-41.9	-43.4	19.5	0.00e+00	90	41	0	106954752	58	6016
2026-01-30 18:45:51.37	32.85	6.23	-42.0	-43.5	19.4	0.00e+00	0	41	0	112197632	58	6055
2026-01-30 18:45:54.40	32.51	6.39	-41.8	-43.2	19.7	0.00e+00	6	41	0	118489088	56	6578
2026-01-30 18:45:57.43	32.16	6.55	-41.6	-43.0	20.0	0.00e+00	34	41	0	123731968	56	6421
2026-01-30 18:46:00.46	31.81	6.71	-41.5	-42.9	20.0	0.00e+00	0	41	0	128974848	56	6363
2026-01-30 18:46:03.49	31.46	6.87	-41.3	-42.6	20.3	0.00e+00	0	41	0	135266304	56	6172
2026-01-30 18:46:06.52	31.10	7.02	-41.4	-42.8	20.3	0.00e+00	81	41	0	140509184	56	6254
2026-01-30 18:46:09.55	30.74	7.18	-41.6	-42.9	20.1	0.00e+00	92	41	0	146800640	56	6377
2026-01-30 18:46:12.57	30.37	7.34	-41.6	-43.0	20.1	0.00e+00	79	41	0	152043520	56	6399
2026-01-30 18:46:15.61	30.00	7.50	-41.5	-42.9	20.1	0.00e+00	5	41	0	158334976	56	6318
2026-01-30 18:46:18.63	29.63	7.65	-41.6	-42.9	20.1	0.00e+00	91	41	0	163577856	56	6388
2026-01-30 18:46:21.66	29.25	7.81	-41.5	-42.8	20.2	0.00e+00	0	41	0	168820736	56	6276
2026-01-30 18:46:24.69	28.86	7.97	-41.5	-42.8	20.2	0.00e+00	7	41	0	175112192	56	6317
2026-01-30 18:46:27.72	28.48	8.12	-41.3	-42.6	20.4	0.00e+00	25	41	0	180355072	56	6173
2026-01-30 18:46:30.75	28.09	8.28	-41.3	-42.5	20.5	0.00e+00	0	41	0	186646528	56	6103
2026-01-30 18:46:33.78	27.69	8.43	-41.2	-42.5	20.7	0.00e+00	81	41	0	191889408	56	6049
2026-01-30 18:46:36.81	27.29	8.59	-41.1	-42.4	20.7	0.00e+00	0	41	0	197132288	56	5973
2026-01-30 18:46:39.84	26.89	8.74	-41.3	-42.6	20.6	0.00e+00	92	41	0	203423744	56	6106
2026-01-30 18:46:42.87	26.48	8.90	-41.1	-42.4	20.8	0.00e+00	0	41	0	208666624	56	5969
2026-01-30 18:46:45.91	26.06	9.05	-41.2	-42.5	20.7	0.00e+00	0	41	0	214958080	56	6058
2026-01-30 18:46:48.93	25.65	9.21	-41.0	-42.3	20.8	0.00e+00	92	41	0	220200960	56	5914
2026-01-30 18:46:51.96	25.22	9.36	-40.8	-42.0	21.0	0.00e+00	0	41	0	226492416	56	5761
2026-01-30 18:46:54.99	24.80	9.51	-41.0	-42.2	20.9	0.00e+00	0	41	0	231735296	56	5847
2026-01-30 18:46:58.02	24.36	9.66	-40.9	-42.1	21.0	0.00e+00	91	41	0	236978176	54	6495
2026-01-30 18:47:01.05	23.93	9.82	-40.9	-42.2	20.9	0.00e+00	0	41	0	243269632	54	6542
2026-01-30 18:47:04.08	23.49	9.97	-40.9	-42.1	20.9	0.00e+00	2	41	0	248512512	54	6512
2026-01-30 18:47:07.11	23.04	10.12	-40.9	-42.1	21.0	0.00e+00	0	41	0	254803968	54	6479
2026-01-30 18:47:10.15	22.59	10.27	-40.8	-42.0	21.1	0.00e+00	82	41	0	260046848	54	6408
2026-01-30 18:47:13.17	22.14	10.41	-40.6	-41.8	21.3	0.00e+00	82	41	0	265289728	54	6281
2026-01-30 18:47:16.20	21.68	10.56	-40.3	-41.5	21.5	0.00e+00	0	41	0	271581184	54	6048
2026-01-30 18:47:19.23	21.22	10.71	-40.2	-41.3	21.7	0.00e+00	92	41	0	276824064	54	5964
2026-01-30 18:47:22.26	20.75	10.85	-40.0	-41.1	22.0	0.00e+00	0	41	0	283115520	54	5763
2026-01-30 18:47:25.29	20.27	11.00	-39.8	-40.9	22.3	0.00e+00	0	41	0	288358400	54	5640
2026-01-30 18:47:28.32	19.79	11.14	-39.5	-40.5	22.6	0.00e+00	92	41	0	294649856	52	6047
2026-01-30 18:47:31.35	19.31	11.28	-39.5	-40.5	22.6	0.00e+00	0	41	0	299892736	52	6062
2026-01-30 18:47:34.38	18.82	11.42	-39.5	-40.5	22.6	0.00e+00	0	41	0	305135616	52	6064
2026-01-30 18:47:37.41	18.33	11.56	-39.5	-40.5	22.6	0.00e+00	7	41	0	311427072	52	6043
2026-01-30 18:47:40.44	17.83	11.70	-39.5	-40.5	22.6	0.00e+00	0	41	0	316669952	52	6049
2026-01-30 18:47:43.47	17.33	11.84	-39.3	-40.3	22.8	0.00e+00	0	41	0	322961408	52	5912
2026-01-30 18:47:46.50	16.83	11.97	-39.0	-40.0	23.0	0.00e+00	83	41	0	328204288	52	5717
2026-01-30 18:47:49.53	16.31	12.11	-38.8	-39.7	23.3	0.00e+00	92	41	0	333447168	52	5552
2026-01-30 18:47:52.56	15.80	12.24	-38.8	-39.8	23.2	0.00e+00	83	41	0	339738624	52	5583
2026-01-30 18:47:55.59	15.28	12.37	-38.6	-39.5	23.5	0.00e+00	84	41	0	344981504	50	6035
2026-01-30 18:47:58.61	14.75	12.50	-38.5	-39.4	23.6	0.00e+00	92	41	0	351272960	50	6030
2026-01-30 18:48:01.64	14.22	12.63	-38.6	-39.6	23.5	0.00e+00	8	41	0	356515840	50	6111
2026-01-30 18:48:04.67	13.69	12.75	-38.7	-39.6	23.4	0.00e+00	0	41	0	362807296	50	6117
2026-01-30 18:48:07.70	13.15	12.88	-38.9	-39.8	23.2	0.00e+00	92	41	0	368050176	50	6300
2026-01-30 18:48:10.73	12.60	13.00	-38.8	-39.8	23.3	0.00e+00	0	41	0	373293056	50	6252
2026-01-30 18:48:13.75	12.06	13.12	-39.1	-40.0	23.0	0.00e+00	1	41	0	379584512	50	6443
2026-01-30 18:48:16.79	11.50	13.24	-38.9	-39.9	23.1	0.00e+00	81	41	0	384827392	50	6348
2026-01-30 18:48:19.81	10.95	13.35	-39.1	-40.1	23.1	0.00e+00	77	41	0	391118848	50	6483
2026-01-30 18:48:22.84	10.38	13.47	-38.9	-39.9	23.2	0.00e+00	0	41	0	396361728	50	6333
2026-01-30 18:48:25.87	9.82	13.58	-38.7	-39.6	23.4	0.00e+00	0	41	0	401604608	50	6173
2026-01-30 18:48:28.90	9.25	13.69	-38.9	-39.8	23.2	0.00e+00	91	41	0	407896064	50	6273
2026-01-30 18:48:31.93	8.67	13.79	-38.7	-39.6	23.5	0.00e+00	0	41	0	413138944	50	6126
2026-01-30 18:48:34.96	8.09	13.90	-38.9	-39.8	22.7	0.00e+00	3	41	0	419430400	50	6264
2026-01-30 18:48:37.99	7.51	14.00	-38.7	-39.6	23.4	0.00e+00	91	41	0	424673280	50	6145
2026-01-30 18:48:41.01	6.92	14.10	-38.7	-39.6	23.4	0.00e+00	0	41	0	430964736	50	6145
2026-01-30 18:48:44.04	6.33	14.19	-38.6	-39.5	23.6	0.00e+00	2	41	0	436207616	50	6077
2026-01-30 18:48:47.07	5.74	14.29	-38.5	-39.4	23.6	0.00e+00	92	41	0	441450496	50	6022
2026-01-30 18:48:50.09	5.14	14.38	-38.5	-39.4	23.7	0.00e+00	2	41	0	447741952	50	5989
2026-01-30 18:48:53.12	4.54	14.47	-38.5	-39.4	23.7	0.00e+00	0	41	0	452984832	50	5980
2026-01-30 18:48:56.15	3.93	14.55	-38.7	-39.6	23.6	0.00e+00	0	41	0	459276288	50	6128
2026-01-30 18:48:59.18	3.32	14.63	-38.6	-39.5	23.6	0.00e+00	88	41	0	464519168	50	6103
2026-01-30 18:49:02.21	2.71	14.71	-38.9	-39.8	23.2	0.00e+00	0	41	0	469762048	50	6277
2026-01-30 18:49:05.24	2.09	14.79	-39.0	-39.9	23.3	0.00e+00	0	41	0	476053504	50	6344
2026-01-30 18:49:08.27	1.47	14.86	-38.7	-39.6	23.6	0.00e+00	92	41	0	481296384	50	6140
2026-01-30 18:49:11.29	0.85	14.93	-39.0	-39.9	23.5	0.00e+00	0	41	0	487587840	50	6371
2026-01-30 18:49:14.32	0.23	15.00	-38.9	-39.8	23.4	0.00e+00	0	41	0	492830720	50	6297
2026-01-30 18:49:17.35	359.60	15.06	-39.1	-40.0	23.1	0.00e+00	92	41	0	499122176	50	6461
2026-01-30 18:49:20.38	358.97	15.12	-39.3	-40.3	23.0	0.00e+00	0	41	0	504365056	50	6646
2026-01-30 18:49:23.41	358.34	15.18	-39.2	-40.1	23.2	0.00e+00	5	41	0	509607936	50	6532
2026-01-30 18:49:26.44	357.70	15.24	-39.2	-40.2	23.0	0.00e+00	6	41	0	515899392	50	6546
2026-01-30 18:49:29.47	357.06	15.29	-39.0	-40.0	23.3	0.00e+00	0	41	0	521142272	50	6396
2026-01-30 18:49:32.50	356.42	15.33	-38.8	-39.7	23.5	0.00e+00	0	41	0	527433728	50	6239
2026-01-30 18:49:35.52	355.78	15.37	-39.0	-39.9	23.3	0.00e+00	0	41	0	532676608	50	6342
2026-01-30 18:49:38.55	355.14	15.41	-38.8	-39.7	23.4	0.00e+00	92	41	0	537919488	50	6236
2026-01-30 18:49:41.58	354.49	15.45	-39.1	-40.0	23.2	0.00e+00	5	41	0	544210944	50	6427
2026-01-30 18:49:44.61	353.85	15.48	-39.1	-40.1	23.2	0.00e+00	7	41	0	549453824	50	6474
2026-01-30 18:49:47.64	353.20	15.51	-38.9	-39.8	23.3	0.00e+00	90	41	0	555745280	50	6295
2026-01-30 18:49:50.67	352.55	15.54	-39.1	-40.0	23.2	0.00e+00	0	41	0	560988160	50	6433
2026-01-30 18:49:53.69	351.90	15.56	-39.1	-40.0	23.2	0.00e+00	8	41	0	566231040	50	6429
2026-01-30 18:49:56.73	351.25	15.57	-39.1	-40.1	23.2	0.00e+00	90	41	0	572522496	50	6470
2026-01-30 18:49:59.76	350.60	15.59	-39.0	-39.9	23.2	0.00e+00	15	41	0	577765376	50	6380
2026-01-30 18:50:02.79	349.94	15.60	-39.3	-40.3	23.0	0.00e+00	0	41	0	584056832	50	6662
2026-01-30 18:50:05.82	349.29	15.60	-39.0	-39.9	23.3	0.00e+00	3	41	0	589299712	50	6370
2026-01-30 18:50:08.85	348.64	15.61	-39.1	-40.0	23.2	0.00e+00	92	41	0	595591168	50	6444
2026-01-30 18:50:11.88	347.98	15.61	-39.2	-40.2	23.0	0.00e+00	0	41	0	600834048	50	6583
2026-01-30 18:50:14.91	347.33	15.60	-38.9	-39.8	23.3	0.00e+00	80	41	0	606076928	50	6312
2026-01-30 18:50:17.94	346.68	15.59	-38.8	-39.8	23.4	0.00e+00	92	41	0	612368384	50	6247
2026-01-30 18:50:20.97	346.03	15.58	-39.1	-40.0	23.2	0.00e+00	81	41	0	617611264	50	6456
2026-01-30 18:50:24.00	345.38	15.56	-39.2	-40.1	23.1	0.00e+00	0	41	0	623902720	50	6521
2026-01-30 18:50:27.03	344.72	15.54	-39.2	-40.2	23.0	0.00e+00	90	41	0	629145600	50	6548
2026-01-30 18:50:30.06	344.07	15.52	-39.4	-40.4	22.9	0.00e+00	0	41	0	635437056	50	6716
2026-01-30 18:50:33.09	343.43	15.49	-39.3	-40.3	23.0	0.00e+00	0	41	0	640679936	50	6621
2026-01-30 18:50:36.12	342.78	15.46	-39.0	-39.9	23.1	0.00e+00	82	41	0	645922816	50	6350
2026-01-30 18:50:39.15	342.13	15.43	-39.2	-40.2	23.0	0.00e+00	0	41	0	652214272	50	6580
2026-01-30 18:50:42.18	341.49	15.39	-39.5	-40.5	22.8	0.00e+00	0	41	0	657457152	50	6809
2026-01-30 18:50:45.21	340.85	15.35	-39.1	-40.1	23.1	0.00e+00	0	41	0	663748608	50	6519
2026-01-30 18:50:48.24	340.21	15.30	-38.9	-39.8	23.2	0.00e+00	92	41	0	668991488	50	6304
2026-01-30 18:50:51.28	339.56	15.25	-39.0	-39.9	23.3	0.00e+00	0	41	0	674234368	50	6383
2026-01-30 18:50:54.31	338.93	15.20	-38.8	-39.8	23.5	0.00e+00	0	41	0	680525824	50	6256
2026-01-30 18:50:57.33	338.30	15.14	-38.6	-39.5	23.6	0.00e+00	92	41	0	685768704	50	6066
2026-01-30 18:51:00.36	337.66	15.08	-38.8	-39.7	23.2	0.00e+00	82	41	0	692060160	50	6198
2026-01-30 18:51:03.39	337.04	15.02	-39.1	-40.0	23.2	0.00e+00	0	41	0	697303040	50	6438
2026-01-30 18:51:06.42	336.41	14.95	-38.9	-39.8	23.5	0.00e+00	7	41	0	703594496	50	6289
2026-01-30 18:51:09.45	335.79	14.89	-38.8	-39.7	23.5	0.00e+00	5	41	0	708837376	50	6230
2026-01-30 18:51:12.48	335.16	14.81	-39.0	-39.9	23.4	0.00e+00	0	41	0	714080256	50	6335
2026-01-30 18:51:15.51	334.55	14.74	-39.4	-40.4	22.7	0.00e+00	0	41	0	720371712	50	6716
2026-01-30 18:51:18.54	333.93	14.66	-39.6	-40.5	22.8	0.00e+00	62	41	0	725614592	52	6100
2026-01-30 18:51:21.57	333.32	14.58	-39.4	-40.4	22.9	0.00e+00	0	41	0	731906048	52	5995
2026-01-30 18:51:24.60	332.71	14.49	-39.6	-40.6	22.7	0.00e+00	6	41	0	737148928	52	6160
2026-01-30 18:51:27.63	332.11	14.41	-39.4	-40.4	22.9	0.00e+00	92	41	0	742391808	52	5987
2026-01-30 18:51:30.66	331.51	14.32	-39.5	-40.5	22.8	0.00e+00	6	41	0	748683264	52	6056
2026-01-30 18:51:33.68	330.92	14.22	-39.5	-40.4	22.9	0.00e+00	0	41	0	753926144	52	6018
2026-01-30 18:51:36.71	330.32	14.13	-39.1	-40.1	23.2	0.00e+00	92	41	0	760217600	52	5773
2026-01-30 18:51:39.74	329.73	14.03	-39.0	-40.0	23.3	0.00e+00	77	41	0	765460480	52	5707
2026-01-30 18:51:42.77	329.15	13.93	-39.1	-40.1	23.1	0.00e+00	0	41	0	771751936	52	5784
2026-01-30 18:51:45.80	328.57	13.82	-39.4	-40.3	23.0	0.00e+00	4	41	0	776994816	52	5946
2026-01-30 18:51:48.83	327.99	13.72	-39.0	-40.0	23.2	0.00e+00	76	41	0	782237696	52	5697
2026-01-30 18:51:51.85	327.42	13.61	-39.0	-40.0	23.3	0.00e+00	2	41	0	788529152	52	5713
2026-01-30 18:51:54.88	326.85	13.50	-39.1	-40.0	23.2	0.00e+00	0	41	0	793772032	52	5754
2026-01-30 18:51:57.91	326.29	13.39	-39.0	-40.0	23.2	0.00e+00	91	41	0	800063488	52	5703
2026-01-30 18:52:00.94	325.73	13.27	-39.1	-40.0	23.2	0.00e+00	82	41	0	805306368	52	5748
2026-01-30 18:52:03.97	325.18	13.15	-39.0	-40.0	23.4	0.00e+00	0	41	0	810549248	52	5707
2026-01-30 18:52:07.00	324.62	13.03	-38.9	-39.9	23.3	0.00e+00	90	41	0	816840704	52	5632
2026-01-30 18:52:10.03	324.08	12.91	-38.9	-39.8	23.5	0.00e+00	4	41	0	822083584	52	5607
2026-01-30 18:52:13.05	323.54	12.79	-39.0	-40.0	23.3	0.00e+00	0	41	0	828375040	52	5700
2026-01-30 18:52:16.08	323.00	12.66	-39.4	-40.4	22.9	0.00e+00	92	41	0	833617920	52	5995
2026-01-30 18:52:19.11	322.47	12.54	-39.7	-40.7	22.6	0.00e+00	0	41	0	839909376	52	6226
2026-01-30 18:52:22.14	321.94	12.41	-39.9	-40.9	22.4	0.00e+00	81	41	0	845152256	52	6375
2026-01-30 18:52:25.16	321.42	12.28	-39.9	-41.0	22.4	0.00e+00	82	41	0	850395136	52	6391
2026-01-30 18:52:28.19	320.90	12.15	-40.1	-41.2	22.2	0.00e+00	80	41	0	856686592	52	6562
2026-01-30 18:52:31.23	320.39	12.01	-40.3	-41.3	22.0	0.00e+00	1	41	0	861929472	52	6689
2026-01-30 18:52:34.25	319.88	11.88	-40.7	-41.8	21.6	0.00e+00	0	41	0	868220928	52	7085
2026-01-30 18:52:37.28	319.38	11.74	-40.9	-42.0	21.4	0.00e+00	92	41	0	873463808	54	6435
2026-01-30 18:52:40.31	318.88	11.60	-41.1	-42.3	21.2	0.00e+00	81	41	0	878706688	54	6632
2026-01-30 18:52:43.34	318.38	11.46	-41.1	-42.3	21.0	0.00e+00	0	41	0	884998144	54	6674
2026-01-30 18:52:46.37	317.89	11.32	-40.9	-42.1	21.3	0.00e+00	92	41	0	890241024	54	6487
2026-01-30 18:52:49.40	317.41	11.18	-41.3	-42.5	20.9	0.00e+00	5	41	0	896532480	54	6815
2026-01-30 18:52:52.43	316.93	11.04	-41.7	-43.0	20.5	0.00e+00	1	41	0	901775360	54	7171
2026-01-30 18:52:55.46	316.45	10.89	-41.8	-43.1	20.5	0.00e+00	5	41	0	908066816	56	6472
2026-01-30 18:52:58.49	315.98	10.75	-41.7	-42.9	20.6	0.00e+00	8	41	0	913309696	56	6386
2026-01-30 18:53:01.52	315.52	10.60	-41.8	-43.1	20.4	0.00e+00	0	41	0	918552576	56	6537
2026-01-30 18:53:04.55	315.06	10.46	-41.8	-43.1	20.3	0.00e+00	82	41	0	924844032	56	6533
2026-01-30 18:53:07.58	314.60	10.31	-42.1	-43.4	20.1	0.00e+00	90	41	0	930086912	56	6752
2026-01-30 18:53:10.61	314.15	10.16	-42.2	-43.6	19.7	0.00e+00	6	41	0	936378368	56	6921
2026-01-30 18:53:13.64	313.70	10.01	-41.8	-43.4	18.7	0.00e+00	0	41	0	941621248	56	6714
2026-01-30 18:53:16.67	313.26	9.86	-41.8	-43.4	18.9	0.00e+00	92	41	0	946864128	56	6755
2026-01-30 18:53:19.70	312.82	9.71	-41.9	-43.2	20.2	0.00e+00	0	41	0	953155584	56	6588
2026-01-30 18:53:22.73	312.39	9.56	-41.6	-42.9	20.6	0.00e+00	0	41	0	958398464	56	6347
2026-01-30 18:53:25.76	311.96	9.40	-41.7	-43.0	20.4	0.00e+00	88	41	0	964689920	56	6393
2026-01-30 18:53:28.78	311.53	9.25	-41.5	-42.7	20.7	0.00e+00	76	41	0	969932800	56	6224
2026-01-30 18:53:31.81	311.11	9.10	-41.5	-42.8	20.6	0.00e+00	2	41	0	976224256	56	6287
2026-01-30 18:53:34.84	310.70	8.94	-41.1	-42.4	21.1	0.00e+00	0	41	0	981467136	56	5970
2026-01-30 18:53:37.87	310.29	8.79	-41.1	-42.3	21.0	0.00e+00	80	41	0	986710016	56	5952
2026-01-30 18:53:40.90	309.88	8.63	-41.2	-42.4	21.1	0.00e+00	81	41	0	993001472	56	5985
2026-01-30 18:53:43.92	309.48	8.48	-40.9	-42.0	21.3	0.00e+00	80	41	0	998244352	56	5757
2026-01-30 18:53:46.96	309.08	8.32	-40.5	-41.7	21.5	0.00e+00	92	41	0	1004535808	54	6178
2026-01-30 18:53:49.98	308.69	8.17	-40.2	-41.3	21.9	0.00e+00	81	41	0	1009778688	54	5930
2026-01-30 18:53:53.01	308.30	8.01	-40.1	-41.1	22.0	0.00e+00	1	41	0	1015021568	54	5824
2026-01-30 18:53:56.04	307.92	7.85	-40.0	-41.0	22.1	0.00e+00	90	41	0	1021313024	54	5750
2026-01-30 18:53:59.07	307.54	7.70	-40.0	-41.1	21.9	0.00e+00	0	41	0	1026555904	54	5799
2026-01-30 18:54:02.10	307.16	7.54	-39.9	-40.9	22.1	0.00e+00	0	41	0	1032847360	54	5659
2026-01-30 18:54:05.13	306.79	7.38	-39.8	-40.8	22.1	0.00e+00	35	41	0	1038090240	52	6286
2026-01-30 18:54:08.16	306.42	7.23	-39.6	-40.7	22.4	0.00e+00	0	41	0	1044381696	52	6185
2026-01-30 18:54:11.19	306.06	7.07	-39.8	-40.8	22.2	0.00e+00	0	41	0	1049624576	52	6271
2026-01-30 18:54:14.22	305.70	6.91	-39.8	-40.8	22.3	0.00e+00	3	41	0	1054867456	52	6301
2026-01-30 18:54:17.24	305.34	6.75	-39.9	-41.0	22.1	0.00e+00	92	41	0	1061158912	52	6415
2026-01-30 18:54:20.27	304.99	6.59	-39.9	-41.0	22.1	0.00e+00	0	41	0	1066401792	52	6434
2026-01-30 18:54:23.30	304.64	6.44	-40.0	-41.0	22.0	0.00e+00	78	41	0	1072693248	52	6453
2026-01-30 18:54:26.33	304.30	6.28	-40.0	-41.1	21.9	0.00e+00	92	41	0	1077936128	52	6484
2026-01-30 18:54:29.36	303.96	6.12	-40.2	-41.3	21.7	0.00e+00	81	41	0	1083179008	52	6683
2026-01-30 18:54:32.39	303.62	5.96	-40.2	-41.3	21.7	0.00e+00	79	41	0	1089470464	52	6670
2026-01-30 18:54:35.42	303.29	5.80	-40.6	-41.8	21.2	0.00e+00	5	41	0	1094713344	52	7074
2026-01-30 18:54:38.45	302.96	5.65	-40.4	-41.5	21.5	0.00e+00	0	41	0	1101004800	52	6837
2026-01-30 18:54:41.48	302.63	5.49	-40.4	-41.6	21.3	0.00e+00	5	41	0	1106247680	54	6107
2026-01-30 18:54:44.51	302.31	5.33	-40.3	-41.4	21.5	0.00e+00	0	41	0	1112539136	54	5986
2026-01-30 18:54:47.54	301.99	5.17	-40.4	-41.5	21.4	0.00e+00	17	41	0	1117782016	54	6079
2026-01-30 18:54:50.57	301.67	5.02	-40.7	-41.9	21.0	0.00e+00	5	41	0	1123024896	54	6331
2026-01-30 18:54:53.59	301.36	4.86	-40.7	-41.9	20.9	0.00e+00	8	41	0	1129316352	54	6388
2026-01-30 18:54:56.62	301.06	4.70	-41.1	-42.4	20.4	0.00e+00	92	41	0	1134559232	54	6715
2026-01-30 18:54:59.65	300.75	4.54	-41.1	-42.4	20.5	0.00e+00	0	41	0	1140850688	54	6696
2026-01-30 18:55:02.68	300.45	4.39	-41.3	-42.7	20.2	0.00e+00	7	41	0	1146093568	54	6933
2026-01-30 18:55:05.71	300.15	4.23	-41.4	-42.8	20.0	0.00e+00	92	41	0	1151336448	54	7012
2026-01-30 18:55:08.74	299.86	4.07	-41.3	-42.7	20.0	0.00e+00	78	41	0	1157627904	54	6958
2026-01-30 18:55:11.77	299.56	3.92	-41.6	-43.0	19.8	0.00e+00	73	41	0	1162870784	54	7218
2026-01-30 18:55:14.80	299.28	3.76	-41.8	-43.3	19.5	0.00e+00	0	41	0	1169162240	56	6660
2026-01-30 18:55:17.83	298.99	3.60	-42.0	-43.5	19.2	0.00e+00	21	41	0	1174405120	56	6839
2026-01-30 18:55:20.86	298.71	3.45	-42.4	-44.0	18.8	0.00e+00	0	41	0	1180696576	56	7252
2026-01-30 18:55:23.89	298.43	3.29	-42.3	-43.9	18.6	0.00e+00	0	41	0	1185939456	58	6385
2026-01-30 18:55:26.92	298.15	3.14	-42.1	-43.8	18.9	0.00e+00	91	41	0	1191182336	58	6249
2026-01-30 18:55:29.95	297.88	2.98	-48.9	-64.0	3.6	1.55e+00	0	41	104	1196425216	60	57378
2026-01-30 18:55:32.98	297.61	2.83	-49.7	-64.8	3.5	1.51e+00	0	41	104	1196425216	60	63083
2026-01-30 18:55:36.01	297.34	2.67	-49.8	-65.0	3.6	1.51e+00	0	41	104	1196425216	60	64535
2026-01-30 18:55:39.04	297.08	2.52	-49.9	-65.1	3.6	1.51e+00	0	41	104	1196425216	60	64899
2026-01-30 18:55:42.07	296.82	2.37	-49.9	-65.0	3.6	1.51e+00	0	41	104	1196425216	60	64552
2026-01-30 18:55:45.10	296.56	2.21	-49.8	-65.0	3.6	1.51e+00	0	41	104	1196425216	60	64593
2026-01-30 18:55:48.13	296.30	2.06	-49.7	-65.0	3.6	1.51e+00	0	41	104	1196425216	60	64010
2026-01-30 18:55:51.17	296.05	1.90	-49.6	-64.9	3.6	1.51e+00	0	41	104	1196425216	60	63886
2026-01-30 18:55:54.20	295.80	1.75	-49.6	-64.9	3.6	1.51e+00	0	41	104	1196425216	60	63871
2026-01-30 18:55:57.23	295.55	1.60	-49.8	-65.0	3.6	1.51e+00	0	41	104	1196425216	60	63954
2026-01-30 18:56:00.26	295.30	1.45	-49.7	-64.9	3.6	1.51e+00	0	41	104	1196425216	60	63818
2026-01-30 18:56:03.29	295.06	1.30	-49.7	-65.0	3.6	1.51e+00	0	41	104	1196425216	60	64182
2026-01-30 18:56:06.32	294.82	1.14	-49.7	-64.9	3.6	1.51e+00	0	41	104	1196425216	60	63822
2026-01-30 18:56:09.35	294.58	0.99	-49.7	-64.9	3.6	1.51e+00	0	41	104	1196425216	60	63766
2026-01-30 18:56:12.38	294.35	0.84	-49.7	-64.9	3.6	1.51e+00	0	41	104	1196425216	60	63506
2026-01-30 18:56:15.41	294.12	0.69	-49.7	-64.9	3.6	1.51e+00	0	41	104	1196425216	60	63710
2026-01-30 18:56:18.45	293.89	0.54	-49.7	-64.9	3.6	1.51e+00	0	41	104	1196425216	60	63814
2026-01-30 18:56:21.48	293.66	0.39	-49.7	-65.0	3.6	1.51e+00	0	41	104	1196425216	60	63921
2026-01-30 18:56:24.51	293.43	0.24	-49.7	-64.9	3.6	1.51e+00	0	41	104	1196425216	60	63748
2026-01-30 18:56:27.54	293.21	0.09	-49.7	-65.0	3.6	1.51e+00	0	41	104	1196425216	60	63933
2026-01-30 18:56:30.57	292.99	-0.06	-49.7	-64.9	3.6	1.51e+00	0	41	104	1196425216	60	63629

#Closed at: 2026-01-30 18:56:32
#Recorded file [1196 MB]: D:/lorett/data/35029_260131_064350.dat