passes_logs/2026/01/30/R4.6S_Anadyr/R4.6S_Anadyr__20260130_152414_NOAA_20_JPSS-1_rec.log

#Pass ID: 20260130_152414_NOAA 20 (JPSS-1)
#Satellite: NOAA 20 (JPSS-1)
#Configuration: NOAA 20
#almurnet v.1.7.20251203
#Start time: 2026-01-30 15:24:16

#Version: 2.2.20231116
#Station: R4.6S_Anadyr
#Location: 177.4865 lon 64.73178 lat
#TLE: 1 43013U 17073A   26029.42702672  .00000137  00000+0  85918-4 0  9993
#TLE: 2 43013  98.7646 330.2153 0000804  19.9045 340.2162 14.19525092424781

#Time	Az	El	Level	Level2	SNR	BER	BlckErr	Temp	State	Recorded	gain1	gain2
2026-01-30 15:24:16.70	22.17	0.14	-49.6	-64.5	3.5	1.51e+00	0	39	0	0	60	60524
2026-01-30 15:24:20.74	22.11	0.38	-49.5	-64.8	3.6	1.51e+00	0	40	104	0	60	62722
2026-01-30 15:24:24.78	22.06	0.63	-49.6	-64.8	3.6	1.51e+00	0	40	104	0	60	62967
2026-01-30 15:24:28.82	21.99	0.87	-49.6	-64.8	3.6	1.51e+00	0	40	104	0	60	63129
2026-01-30 15:24:32.86	21.93	1.12	-49.4	-64.6	3.6	1.51e+00	0	40	104	0	60	61488
2026-01-30 15:24:36.90	21.87	1.37	-49.0	-64.2	3.6	1.51e+00	0	40	104	0	60	58900
2026-01-30 15:24:40.94	21.81	1.62	-48.2	-63.3	3.6	1.51e+00	0	40	104	0	60	52566
2026-01-30 15:24:44.98	21.74	1.87	-48.2	-63.1	3.5	1.51e+00	0	40	104	0	60	51366
2026-01-30 15:24:49.01	21.67	2.13	-48.2	-63.4	3.6	1.51e+00	0	40	104	0	60	53294
2026-01-30 15:24:53.05	21.60	2.38	-48.2	-63.4	3.6	1.51e+00	0	40	104	0	60	53201
2026-01-30 15:24:57.09	21.53	2.65	-48.1	-62.1	3.6	1.51e+00	0	40	104	0	60	45892
2026-01-30 15:25:01.14	21.46	2.91	-48.1	-62.0	3.6	1.51e+00	0	40	104	0	60	45461
2026-01-30 15:25:05.18	21.39	3.17	-47.8	-56.7	5.0	8.60e-01	92	40	0	1048576	60	24843
2026-01-30 15:25:09.22	21.31	3.44	-45.5	-49.0	13.4	6.17e-05	74	40	0	8388608	60	10169
2026-01-30 15:25:13.26	21.24	3.71	-44.4	-47.1	15.4	0.00e+00	0	40	0	15728640	60	8149
2026-01-30 15:25:17.29	21.16	3.98	-48.0	-62.1	3.6	9.55e-01	0	41	104	23068672	60	46104
2026-01-30 15:25:21.33	21.08	4.26	-40.9	-42.2	20.4	0.00e+00	9	40	0	24117248	56	5851
2026-01-30 15:25:25.37	21.00	4.54	-40.9	-42.3	20.3	0.00e+00	72	40	0	32505856	56	5907
2026-01-30 15:25:29.41	20.91	4.82	-40.8	-42.1	20.4	0.00e+00	73	40	0	39845888	54	6486
2026-01-30 15:25:33.44	20.83	5.10	-40.3	-41.5	20.9	0.00e+00	92	41	0	47185920	54	6072
2026-01-30 15:25:37.47	20.74	5.39	-40.3	-41.5	21.0	0.00e+00	38	41	0	54525952	54	6061
2026-01-30 15:25:41.51	20.65	5.68	-40.2	-41.4	21.2	0.00e+00	2	41	0	61865984	54	5965
2026-01-30 15:25:45.55	20.55	5.97	-39.9	-41.1	21.5	0.00e+00	2	41	0	70254592	54	5775
2026-01-30 15:25:49.59	20.46	6.27	-39.8	-40.9	21.7	0.00e+00	92	41	0	77594624	52	6352
2026-01-30 15:25:53.62	20.36	6.57	-39.7	-40.8	21.9	0.00e+00	5	41	0	84934656	52	6274
2026-01-30 15:25:57.66	20.26	6.87	-39.6	-40.7	22.1	0.00e+00	0	41	0	92274688	52	6186
2026-01-30 15:26:01.69	20.16	7.18	-39.5	-40.6	22.2	0.00e+00	0	41	0	100663296	52	6104
2026-01-30 15:26:05.73	20.06	7.49	-39.3	-40.4	22.3	0.00e+00	92	41	0	108003328	52	5980
2026-01-30 15:26:09.77	19.95	7.80	-39.1	-40.1	22.6	0.00e+00	6	41	0	115343360	52	5805
2026-01-30 15:26:13.81	19.84	8.12	-39.3	-40.3	22.5	0.00e+00	5	41	0	122683392	52	5921
2026-01-30 15:26:17.85	19.73	8.44	-39.1	-40.1	22.6	0.00e+00	0	41	0	130023424	52	5805
2026-01-30 15:26:21.88	19.61	8.76	-38.9	-39.9	22.8	0.00e+00	92	41	0	138412032	52	5663
2026-01-30 15:26:25.92	19.49	9.09	-39.0	-39.9	22.9	0.00e+00	8	41	0	145752064	52	5676
2026-01-30 15:26:29.96	19.37	9.43	-38.7	-39.6	23.2	0.00e+00	12	41	0	153092096	50	6152
2026-01-30 15:26:34.00	19.25	9.77	-38.7	-39.6	23.2	0.00e+00	75	41	0	160432128	50	6138
2026-01-30 15:26:38.04	19.12	10.11	-38.6	-39.5	23.3	0.00e+00	92	41	0	168820736	50	6050
2026-01-30 15:26:42.08	18.99	10.46	-38.5	-39.4	23.4	0.00e+00	0	41	0	176160768	50	5991
2026-01-30 15:26:46.11	18.85	10.81	-38.2	-39.1	23.7	0.00e+00	0	41	0	183500800	50	5804
2026-01-30 15:26:50.15	18.71	11.17	-38.2	-39.1	23.8	0.00e+00	2	41	0	190840832	50	5786
2026-01-30 15:26:54.19	18.57	11.53	-38.2	-39.0	23.7	0.00e+00	92	41	0	198180864	50	5760
2026-01-30 15:26:58.23	18.43	11.90	-38.1	-39.0	23.9	0.00e+00	0	41	0	206569472	50	5723
2026-01-30 15:27:02.27	18.27	12.27	-38.0	-38.8	24.0	0.00e+00	0	41	0	213909504	50	5623
2026-01-30 15:27:06.30	18.12	12.65	-37.9	-38.7	24.0	0.00e+00	91	41	0	221249536	50	5565
2026-01-30 15:27:10.34	17.96	13.03	-37.9	-38.7	24.2	0.00e+00	70	41	0	228589568	50	5537
2026-01-30 15:27:14.38	17.80	13.42	-37.8	-38.6	24.3	0.00e+00	0	41	0	236978176	48	6161
2026-01-30 15:27:18.42	17.63	13.82	-37.8	-38.6	24.2	0.00e+00	0	41	0	244318208	48	6147
2026-01-30 15:27:22.46	17.45	14.22	-37.8	-38.7	24.2	0.00e+00	92	41	0	251658240	48	6192
2026-01-30 15:27:26.50	17.27	14.63	-37.7	-38.5	24.4	0.00e+00	39	41	0	258998272	48	6080
2026-01-30 15:27:30.53	17.09	15.05	-37.6	-38.5	24.5	0.00e+00	0	41	0	266338304	48	6042
2026-01-30 15:27:34.57	16.90	15.47	-37.6	-38.4	24.5	0.00e+00	69	41	0	274726912	48	5995
2026-01-30 15:27:38.61	16.70	15.90	-37.6	-38.5	24.4	0.00e+00	92	41	0	282066944	48	6056
2026-01-30 15:27:42.65	16.50	16.34	-37.8	-38.6	24.4	0.00e+00	78	41	0	289406976	48	6156
2026-01-30 15:27:46.68	16.29	16.78	-37.6	-38.4	24.5	0.00e+00	5	41	0	296747008	48	6027
2026-01-30 15:27:50.72	16.07	17.23	-37.5	-38.3	24.6	0.00e+00	5	41	0	305135616	48	5913
2026-01-30 15:27:54.76	15.85	17.69	-37.5	-38.3	24.5	0.00e+00	92	41	0	312475648	48	5911
2026-01-30 15:27:58.80	15.62	18.16	-37.4	-38.3	24.7	0.00e+00	77	41	0	319815680	48	5897
2026-01-30 15:28:02.83	15.38	18.64	-37.5	-38.4	24.5	0.00e+00	0	41	0	327155712	48	5968
2026-01-30 15:28:06.87	15.13	19.12	-37.8	-38.6	24.5	0.00e+00	6	41	0	334495744	48	6128
2026-01-30 15:28:10.91	14.88	19.62	-37.3	-38.1	24.8	0.00e+00	90	41	0	342884352	48	5811
2026-01-30 15:28:14.95	14.61	20.12	-37.5	-38.3	24.7	0.00e+00	4	41	0	350224384	48	5932
2026-01-30 15:28:18.98	14.34	20.64	-37.2	-38.0	25.0	0.00e+00	14	41	0	357564416	48	5748
2026-01-30 15:28:23.03	14.06	21.16	-37.0	-37.8	25.1	0.00e+00	0	41	0	364904448	48	5618
2026-01-30 15:28:27.07	13.76	21.70	-37.1	-37.9	25.1	0.00e+00	92	41	0	373293056	48	5671
2026-01-30 15:28:31.11	13.46	22.24	-37.3	-38.1	24.9	0.00e+00	2	41	0	380633088	48	5819
2026-01-30 15:28:35.14	13.14	22.80	-37.3	-38.1	24.9	0.00e+00	3	41	0	387973120	48	5788
2026-01-30 15:28:39.18	12.81	23.36	-37.7	-38.5	24.6	0.00e+00	0	41	0	395313152	48	6061
2026-01-30 15:28:43.22	12.47	23.94	-37.8	-38.6	24.5	0.00e+00	65	41	0	402653184	48	6139
2026-01-30 15:28:47.26	12.11	24.53	-37.9	-38.8	24.4	0.00e+00	66	41	0	411041792	48	6268
2026-01-30 15:28:51.29	11.75	25.14	-38.3	-39.1	24.0	0.00e+00	0	41	0	418381824	48	6525
2026-01-30 15:28:55.33	11.36	25.75	-38.7	-39.6	23.7	0.00e+00	92	41	0	425721856	48	6869
2026-01-30 15:28:59.37	10.96	26.38	-39.4	-40.3	23.0	0.00e+00	0	41	0	433061888	50	6682
2026-01-30 15:29:03.40	10.54	27.02	-40.0	-41.1	22.4	0.00e+00	65	41	0	440401920	52	6488
2026-01-30 15:29:07.45	10.11	27.68	-40.3	-41.3	22.0	0.00e+00	2	41	0	448790528	52	6674
2026-01-30 15:29:11.48	9.65	28.35	-40.6	-41.8	21.7	0.00e+00	92	41	0	456130560	52	7021
2026-01-30 15:29:15.52	9.18	29.03	-40.9	-42.1	21.6	0.00e+00	0	41	0	463470592	54	6465
2026-01-30 15:29:19.56	8.68	29.73	-40.7	-41.8	21.8	0.00e+00	0	41	0	470810624	54	6269
2026-01-30 15:29:23.60	8.16	30.44	-41.0	-42.1	21.5	0.00e+00	0	41	0	479199232	54	6535
2026-01-30 15:29:27.63	7.62	31.17	-41.0	-42.2	21.5	0.00e+00	92	41	0	486539264	54	6558
2026-01-30 15:29:31.67	7.05	31.92	-41.2	-42.4	21.3	0.00e+00	4	41	0	493879296	54	6707
2026-01-30 15:29:35.71	6.45	32.68	-41.0	-42.2	21.5	0.00e+00	1	41	0	501219328	54	6584
2026-01-30 15:29:39.75	5.83	33.45	-41.1	-42.3	21.3	0.00e+00	3	41	0	508559360	54	6636
2026-01-30 15:29:43.79	5.17	34.24	-41.2	-42.4	21.2	0.00e+00	92	41	0	516947968	54	6716
2026-01-30 15:29:47.83	4.48	35.05	-41.0	-42.1	21.5	0.00e+00	3	41	0	524288000	54	6538
2026-01-30 15:29:51.87	3.75	35.88	-41.4	-42.7	21.0	0.00e+00	3	41	0	531628032	54	6947
2026-01-30 15:29:55.91	2.98	36.72	-40.9	-42.1	21.6	0.00e+00	5	41	0	538968064	54	6479
2026-01-30 15:29:59.95	2.17	37.57	-40.7	-41.8	21.8	0.00e+00	90	41	0	547356672	54	6302
2026-01-30 15:30:03.99	1.32	38.44	-40.9	-42.0	21.6	0.00e+00	17	41	0	554696704	54	6430
2026-01-30 15:30:08.03	0.42	39.33	-40.8	-42.0	21.7	0.00e+00	64	41	0	562036736	54	6397
2026-01-30 15:30:12.06	359.46	40.23	-40.9	-42.0	21.7	0.00e+00	69	41	0	569376768	54	6395
2026-01-30 15:30:16.09	358.46	41.14	-41.1	-42.3	21.3	0.00e+00	92	41	0	576716800	54	6644
2026-01-30 15:30:20.13	357.39	42.07	-41.3	-42.4	21.3	0.00e+00	12	41	0	585105408	54	6759
2026-01-30 15:30:24.17	356.25	43.01	-40.9	-42.0	21.5	0.00e+00	17	41	0	592445440	54	6455
2026-01-30 15:30:28.21	355.05	43.95	-39.8	-40.8	22.7	0.00e+00	92	41	0	599785472	52	6288
2026-01-30 15:30:32.24	353.78	44.91	-40.1	-41.1	22.4	0.00e+00	92	41	0	607125504	52	6532
2026-01-30 15:30:36.29	352.41	45.87	-40.2	-41.2	22.3	0.00e+00	0	41	0	615514112	52	6604
2026-01-30 15:30:40.32	350.97	46.84	-40.6	-41.6	21.9	0.00e+00	0	41	0	622854144	52	6927
2026-01-30 15:30:44.36	349.43	47.81	-40.4	-41.5	22.1	0.00e+00	92	41	0	630194176	52	6784
2026-01-30 15:30:48.40	347.80	48.77	-39.6	-40.6	22.9	0.00e+00	60	41	0	637534208	52	6124
2026-01-30 15:30:52.43	346.06	49.73	-39.8	-40.8	22.7	0.00e+00	0	41	0	644874240	52	6296
2026-01-30 15:30:56.47	344.20	50.68	-39.4	-40.4	23.1	0.00e+00	0	41	0	653262848	52	5997
2026-01-30 15:31:00.51	342.22	51.61	-38.3	-39.2	24.1	0.00e+00	92	41	0	660602880	50	5851
2026-01-30 15:31:04.55	340.11	52.53	-37.7	-38.5	24.6	0.00e+00	0	41	0	667942912	48	6059
2026-01-30 15:31:08.59	337.87	53.42	-37.6	-38.4	24.8	0.00e+00	19	41	0	675282944	48	6017
2026-01-30 15:31:12.63	335.49	54.27	-36.9	-37.7	25.4	0.00e+00	70	41	0	683671552	46	6203
2026-01-30 15:31:16.67	332.97	55.09	-38.0	-38.9	24.3	0.00e+00	92	41	0	691011584	48	6367
2026-01-30 15:31:20.71	330.30	55.86	-37.9	-38.8	24.5	0.00e+00	5	41	0	698351616	48	6250
2026-01-30 15:31:24.75	327.48	56.57	-39.9	-40.9	22.5	0.00e+00	19	41	0	705691648	52	6379
2026-01-30 15:31:28.79	324.52	57.23	-39.7	-40.7	22.9	0.00e+00	79	41	0	713031680	52	6210
2026-01-30 15:31:32.83	321.42	57.81	-40.0	-41.2	22.3	0.00e+00	90	41	0	721420288	52	6547
2026-01-30 15:31:36.86	318.20	58.31	-40.2	-41.3	22.1	0.00e+00	66	41	0	728760320	52	6678
2026-01-30 15:31:40.90	314.86	58.73	-38.9	-39.9	23.4	0.00e+00	1	41	0	736100352	52	5675
2026-01-30 15:31:44.94	311.42	59.06	-39.4	-40.5	23.1	0.00e+00	7	41	0	743440384	50	6772
2026-01-30 15:31:48.98	307.90	59.30	-39.0	-40.0	23.4	0.00e+00	90	41	0	751828992	50	6418
2026-01-30 15:31:53.01	304.35	59.43	-37.4	-38.2	24.8	0.00e+00	61	41	0	759169024	48	5883
2026-01-30 15:31:57.05	300.76	59.47	-37.0	-37.8	25.2	0.00e+00	63	41	0	766509056	48	5598
2026-01-30 15:32:01.09	297.18	59.40	-36.8	-37.6	25.3	0.00e+00	75	41	0	773849088	48	5459
2026-01-30 15:32:05.12	293.64	59.22	-36.6	-37.4	25.5	0.00e+00	37	41	0	781189120	46	5993
2026-01-30 15:32:09.16	290.15	58.95	-36.5	-37.3	25.6	0.00e+00	0	41	0	789577728	46	5929
2026-01-30 15:32:13.20	286.74	58.59	-36.8	-37.6	25.4	0.00e+00	69	41	0	796917760	46	6120
2026-01-30 15:32:17.23	283.44	58.14	-37.3	-38.1	25.0	0.00e+00	92	41	0	804257792	46	6480
2026-01-30 15:32:21.27	280.26	57.60	-37.8	-38.7	24.5	0.00e+00	48	41	0	811597824	48	6216
2026-01-30 15:32:25.31	277.20	56.99	-38.1	-38.9	24.3	0.00e+00	2	41	0	818937856	48	6360
2026-01-30 15:32:29.35	274.29	56.31	-38.1	-38.9	24.4	0.00e+00	0	41	0	827326464	48	6370
2026-01-30 15:32:33.39	271.52	55.58	-37.5	-38.3	24.9	0.00e+00	92	41	0	834666496	48	5924
2026-01-30 15:32:37.43	268.90	54.79	-37.3	-38.1	24.8	0.00e+00	61	41	0	842006528	48	5826
2026-01-30 15:32:41.47	266.43	53.95	-36.9	-37.7	25.4	0.00e+00	0	41	0	849346560	48	5536
2026-01-30 15:32:45.51	264.10	53.08	-40.3	-41.5	21.1	0.00e+00	0	41	0	857735168	50	7682
2026-01-30 15:32:49.55	261.90	52.18	-38.5	-39.4	24.1	0.00e+00	92	41	0	865075200	50	5967
2026-01-30 15:32:53.59	259.84	51.26	-39.5	-40.4	23.1	0.00e+00	64	41	0	872415232	52	6010
2026-01-30 15:32:57.63	257.90	50.32	-40.7	-41.7	21.9	0.00e+00	67	41	0	879755264	52	7003
2026-01-30 15:33:01.67	256.09	49.36	-41.2	-42.3	21.2	0.00e+00	0	41	0	888143872	54	6668
2026-01-30 15:33:05.71	254.38	48.39	-41.6	-42.8	21.0	0.00e+00	92	41	0	895483904	56	6248
2026-01-30 15:33:09.75	252.77	47.42	-42.1	-43.4	20.2	0.00e+00	18	41	0	902823936	56	6748
2026-01-30 15:33:13.79	251.27	46.45	-42.0	-43.3	20.6	0.00e+00	0	41	0	910163968	58	5906
2026-01-30 15:33:17.82	249.86	45.49	-40.4	-41.5	22.2	0.00e+00	76	41	0	917504000	54	6070
2026-01-30 15:33:21.86	248.53	44.52	-40.7	-41.8	22.0	0.00e+00	91	41	0	925892608	54	6250
2026-01-30 15:33:25.90	247.27	43.57	-40.7	-41.8	22.0	0.00e+00	4	41	0	933232640	54	6283
2026-01-30 15:33:29.94	246.09	42.62	-40.4	-41.4	22.2	0.00e+00	4	41	0	940572672	54	6028
2026-01-30 15:33:33.98	244.98	41.68	-40.8	-41.9	21.8	0.00e+00	92	41	0	947912704	54	6367
2026-01-30 15:33:38.02	243.93	40.76	-40.8	-41.8	21.8	0.00e+00	92	41	0	955252736	54	6309
2026-01-30 15:33:42.06	242.94	39.84	-41.5	-42.8	20.9	0.00e+00	69	41	0	963641344	54	7008
2026-01-30 15:33:46.09	242.01	38.95	-42.2	-43.5	20.3	0.00e+00	0	41	0	970981376	56	6840
2026-01-30 15:33:50.13	241.12	38.06	-41.6	-42.9	21.0	0.00e+00	92	41	0	978321408	56	6327
2026-01-30 15:33:54.17	240.28	37.20	-41.3	-42.4	21.4	0.00e+00	65	41	0	985661440	56	6012
2026-01-30 15:33:58.20	239.49	36.35	-41.1	-42.2	21.6	0.00e+00	10	41	0	994050048	56	5864
2026-01-30 15:34:02.24	238.74	35.51	-41.5	-42.7	21.2	0.00e+00	2	41	0	1001390080	56	6194
2026-01-30 15:34:06.29	238.02	34.69	-41.9	-43.2	20.7	0.00e+00	92	41	0	1008730112	56	6554
2026-01-30 15:34:10.32	237.34	33.88	-41.5	-42.7	21.1	0.00e+00	0	41	0	1016070144	56	6221
2026-01-30 15:34:14.36	236.69	33.09	-42.1	-43.4	20.4	0.00e+00	10	41	0	1023410176	56	6755
2026-01-30 15:34:18.40	236.07	32.32	-41.6	-42.7	21.2	0.00e+00	0	41	0	1031798784	56	6241
2026-01-30 15:34:22.44	235.48	31.57	-40.6	-41.6	22.0	0.00e+00	92	41	0	1039138816	54	6133
2026-01-30 15:34:26.48	234.92	30.82	-40.7	-41.8	21.9	0.00e+00	0	41	0	1046478848	54	6249
2026-01-30 15:34:30.52	234.39	30.10	-41.0	-42.1	21.4	0.00e+00	0	41	0	1053818880	54	6522
2026-01-30 15:34:34.56	233.87	29.39	-41.1	-42.2	21.3	0.00e+00	0	41	0	1062207488	54	6593
2026-01-30 15:34:38.60	233.38	28.69	-41.0	-42.2	21.5	0.00e+00	92	41	0	1069547520	54	6574
2026-01-30 15:34:42.64	232.91	28.01	-41.0	-42.2	21.4	0.00e+00	0	41	0	1076887552	54	6570
2026-01-30 15:34:46.67	232.47	27.35	-40.3	-41.3	22.3	0.00e+00	5	41	0	1084227584	54	5931
2026-01-30 15:34:50.71	232.04	26.69	-39.8	-40.8	22.7	0.00e+00	0	41	0	1091567616	52	6292
2026-01-30 15:34:54.75	231.62	26.05	-40.0	-41.0	22.6	0.00e+00	92	41	0	1099956224	52	6425
2026-01-30 15:34:58.79	231.23	25.43	-39.7	-40.7	22.8	0.00e+00	13	41	0	1107296256	52	6176
2026-01-30 15:35:02.83	230.85	24.82	-39.5	-40.4	23.0	0.00e+00	72	41	0	1114636288	52	6015
2026-01-30 15:35:06.87	230.48	24.22	-39.6	-40.6	22.8	0.00e+00	81	41	0	1121976320	52	6157
2026-01-30 15:35:10.90	230.13	23.63	-40.3	-41.4	22.1	0.00e+00	92	41	0	1130364928	52	6699
2026-01-30 15:35:14.94	229.79	23.05	-40.2	-41.3	22.3	0.00e+00	8	41	0	1137704960	52	6623
2026-01-30 15:35:18.99	229.46	22.49	-39.6	-40.6	22.9	0.00e+00	69	41	0	1145044992	52	6136
2026-01-30 15:35:23.03	229.15	21.93	-39.4	-40.4	23.1	0.00e+00	92	41	0	1152385024	52	5973
2026-01-30 15:35:27.07	228.85	21.39	-39.7	-40.8	22.7	0.00e+00	92	41	0	1160773632	52	6246
2026-01-30 15:35:31.11	228.55	20.86	-39.4	-40.4	23.0	0.00e+00	0	41	0	1168113664	52	5998
2026-01-30 15:35:35.15	228.27	20.34	-39.3	-40.3	23.0	0.00e+00	14	41	0	1175453696	52	5938
2026-01-30 15:35:39.18	228.00	19.83	-39.2	-40.2	23.1	0.00e+00	92	41	0	1182793728	52	5865
2026-01-30 15:35:43.22	227.74	19.32	-39.2	-40.1	23.2	0.00e+00	0	41	0	1190133760	52	5800
2026-01-30 15:35:47.26	227.48	18.83	-39.4	-40.4	22.8	0.00e+00	0	41	0	1198522368	52	5979
2026-01-30 15:35:51.29	227.24	18.35	-39.6	-40.6	22.8	0.00e+00	0	41	0	1205862400	52	6141
2026-01-30 15:35:55.33	227.00	17.87	-39.7	-40.8	22.6	0.00e+00	92	41	0	1213202432	52	6255
2026-01-30 15:35:59.37	226.77	17.41	-39.4	-40.4	23.0	0.00e+00	70	41	0	1220542464	52	6020
2026-01-30 15:36:03.41	226.55	16.95	-39.4	-40.3	23.1	0.00e+00	0	41	0	1227882496	52	5951
2026-01-30 15:36:07.45	226.33	16.50	-39.5	-40.5	22.8	0.00e+00	0	41	0	1236271104	52	6068
2026-01-30 15:36:11.49	226.12	16.05	-39.7	-40.8	22.7	0.00e+00	92	41	0	1243611136	52	6251
2026-01-30 15:36:15.53	225.92	15.62	-40.0	-41.1	22.3	0.00e+00	0	41	0	1250951168	52	6477
2026-01-30 15:36:19.57	225.72	15.19	-40.0	-41.1	22.3	0.00e+00	0	41	0	1258291200	52	6492
2026-01-30 15:36:23.61	225.53	14.77	-40.1	-41.2	22.2	0.00e+00	0	41	0	1266679808	52	6540
2026-01-30 15:36:27.64	225.34	14.36	-39.9	-41.0	22.3	0.00e+00	61	41	0	1274019840	52	6399
2026-01-30 15:36:31.68	225.16	13.95	-40.0	-41.1	22.3	0.00e+00	0	41	0	1281359872	52	6472
2026-01-30 15:36:35.72	224.99	13.55	-40.0	-41.0	22.2	0.00e+00	6	41	0	1288699904	52	6433
2026-01-30 15:36:39.76	224.82	13.15	-40.3	-41.4	21.9	0.00e+00	0	41	0	1296039936	52	6729
2026-01-30 15:36:43.79	224.65	12.77	-40.4	-41.5	21.7	0.00e+00	89	41	0	1304428544	52	6792
2026-01-30 15:36:47.82	224.49	12.38	-40.6	-41.7	21.6	0.00e+00	0	41	0	1311768576	52	6965
2026-01-30 15:36:51.86	224.34	12.01	-40.6	-41.8	21.5	0.00e+00	0	41	0	1319108608	54	6258
2026-01-30 15:36:55.90	224.19	11.63	-40.7	-41.9	21.4	0.00e+00	90	41	0	1326448640	54	6358
2026-01-30 15:36:59.94	224.04	11.27	-40.9	-42.1	21.3	0.00e+00	69	41	0	1334837248	54	6476
2026-01-30 15:37:03.98	223.89	10.91	-40.9	-42.1	21.2	0.00e+00	73	41	0	1342177280	54	6477
2026-01-30 15:37:07.82	223.76	10.57	-41.2	-42.4	20.8	0.00e+00	71	41	0	1349517312	54	6720
2026-01-30 15:37:11.86	223.62	10.22	-41.3	-42.6	20.7	0.00e+00	91	41	0	1356857344	54	6868
2026-01-30 15:37:15.90	223.49	9.87	-41.4	-42.7	20.5	0.00e+00	0	41	0	1364197376	54	6974
2026-01-30 15:37:19.94	223.36	9.53	-41.9	-43.2	20.0	0.00e+00	2	41	0	1372585984	56	6586
2026-01-30 15:37:23.97	223.24	9.19	-42.1	-43.5	19.6	0.00e+00	6	41	0	1379926016	56	6826
2026-01-30 15:37:28.01	223.11	8.86	-42.2	-43.7	19.5	0.00e+00	92	41	0	1387266048	56	6969
2026-01-30 15:37:32.05	222.99	8.53	-42.4	-44.0	19.2	0.00e+00	0	41	0	1394606080	56	7180
2026-01-30 15:37:36.09	222.87	8.20	-42.5	-44.1	19.1	0.00e+00	0	41	0	1402994688	56	7256
2026-01-30 15:37:40.13	222.76	7.88	-42.6	-44.2	18.8	0.00e+00	2	41	0	1410334720	58	6544
2026-01-30 15:37:44.17	222.65	7.56	-42.8	-44.4	18.7	0.00e+00	92	41	0	1417674752	58	6764
2026-01-30 15:37:48.20	222.54	7.25	-43.0	-44.8	18.2	0.00e+00	79	41	0	1425014784	58	7027
2026-01-30 15:37:52.24	222.43	6.94	-42.9	-44.7	18.4	0.00e+00	71	41	0	1432354816	58	6950
2026-01-30 15:37:56.28	222.33	6.64	-42.8	-44.6	18.4	0.00e+00	0	41	0	1440743424	58	6864
2026-01-30 15:38:00.32	222.23	6.33	-42.8	-44.6	18.3	0.00e+00	92	41	0	1448083456	58	6859
2026-01-30 15:38:04.36	222.13	6.04	-43.1	-45.0	17.9	0.00e+00	2	41	0	1455423488	58	7181
2026-01-30 15:38:08.40	222.03	5.74	-43.2	-45.1	17.7	0.00e+00	75	41	0	1462763520	58	7276
2026-01-30 15:38:12.43	221.93	5.45	-43.1	-44.9	17.8	0.00e+00	57	41	0	1471152128	58	7158
2026-01-30 15:38:16.47	221.84	5.16	-43.4	-45.4	17.2	0.00e+00	92	41	0	1478492160	58	7589
2026-01-30 15:38:20.51	221.75	4.87	-43.4	-45.5	17.1	0.00e+00	7	41	0	1485832192	58	7611
2026-01-30 15:38:24.55	221.66	4.59	-43.6	-45.8	16.8	0.00e+00	4	41	0	1493172224	58	7904
2026-01-30 15:38:28.59	221.57	4.31	-43.5	-45.6	16.9	0.00e+00	89	41	0	1500512256	60	6917
2026-01-30 15:38:32.62	221.49	4.03	-43.5	-45.6	16.9	0.00e+00	91	41	0	1508900864	60	6917
2026-01-30 15:38:36.66	221.41	3.76	-43.8	-46.2	16.1	0.00e+00	83	41	0	1516240896	60	7372
2026-01-30 15:38:40.69	221.33	3.48	-43.8	-46.1	16.2	0.00e+00	7	41	0	1523580928	60	7322
2026-01-30 15:38:44.73	221.25	3.21	-44.2	-46.8	15.4	0.00e+00	87	41	0	1530920960	60	7904
2026-01-30 15:38:48.77	221.17	2.95	-48.7	-63.9	3.6	1.51e+00	0	41	104	1536163840	60	56437
2026-01-30 15:38:52.80	221.09	2.68	-49.6	-64.8	3.6	1.51e+00	0	41	104	1536163840	60	62710
2026-01-30 15:38:56.84	221.02	2.42	-49.8	-65.0	3.6	1.51e+00	0	41	104	1536163840	60	64088
2026-01-30 15:39:00.88	220.94	2.16	-49.7	-65.0	3.6	1.51e+00	0	41	104	1536163840	60	64115
2026-01-30 15:39:04.92	220.87	1.90	-49.4	-64.9	3.6	1.51e+00	0	41	104	1536163840	60	63429
2026-01-30 15:39:08.96	220.80	1.65	-49.6	-64.9	3.6	1.51e+00	0	41	104	1536163840	60	63255
2026-01-30 15:39:13.01	220.73	1.39	-49.8	-64.9	3.6	1.51e+00	0	41	104	1536163840	60	63658
2026-01-30 15:39:17.05	220.66	1.14	-49.7	-64.9	3.6	1.51e+00	0	41	104	1536163840	60	63424
2026-01-30 15:39:21.08	220.60	0.89	-49.7	-64.8	3.6	1.51e+00	0	41	104	1536163840	60	63023
2026-01-30 15:39:25.12	220.53	0.65	-49.6	-64.9	3.6	1.51e+00	0	41	104	1536163840	60	63212
2026-01-30 15:39:29.16	220.47	0.40	-49.6	-64.8	3.5	1.51e+00	0	41	104	1536163840	60	62936
2026-01-30 15:39:33.20	220.40	0.16	-49.6	-64.8	3.6	1.51e+00	0	41	104	1536163840	60	62959

#Closed at: 2026-01-30 15:39:36
#Recorded file [1536 MB]: D:/lorett/data/35029_260131_032416.dat