passes_logs/2026/01/30/R4.6S_Anadyr/R4.6S_Anadyr__20260130_165307_AQUA_rec.log

#Pass ID: 20260130_165307_AQUA
#Satellite: AQUA
#Configuration: AQUA
#almurnet v.1.7.20251203
#Start time: 2026-01-30 16:53:10

#Version: 2.2.20231116
#Station: R4.6S_Anadyr
#Location: 177.4865 lon 64.73178 lat
#TLE: 1 27424U 02022A   26029.54575153  .00001738  00000+0  35736-3 0  9994
#TLE: 2 27424  98.4104 356.2197 0001804  61.7823  56.0643 14.61874165263019

#Time	Az	El	Level	Level2	SNR	BER	BlckErr	Temp	State	Recorded	gain1	gain2
2026-01-30 16:53:10.68	20.33	0.20	-49.9	-66.3	3.3	3.02e+01	0	39	0	0	60	79360
2026-01-30 16:53:14.71	20.29	0.45	-49.9	-67.8	3.5	3.02e+01	0	40	104	0	60	94953
2026-01-30 16:53:18.75	20.24	0.70	-49.8	-67.9	3.5	3.02e+01	0	40	104	0	60	95213
2026-01-30 16:53:22.79	20.19	0.95	-49.8	-67.7	3.5	3.02e+01	0	40	104	0	60	93045
2026-01-30 16:53:26.83	20.14	1.21	-49.3	-67.2	3.5	3.02e+01	0	40	104	0	60	88631
2026-01-30 16:53:30.88	20.09	1.47	-48.8	-66.6	3.5	3.02e+01	0	40	104	0	60	82748
2026-01-30 16:53:34.92	20.04	1.73	-48.6	-65.1	3.5	3.02e+01	0	40	104	0	60	69326
2026-01-30 16:53:38.96	19.98	2.00	-48.6	-65.5	3.5	3.02e+01	0	40	104	0	60	72478
2026-01-30 16:53:43.00	19.92	2.27	-48.6	-66.2	3.5	3.02e+01	0	40	104	0	60	78603
2026-01-30 16:53:47.04	19.87	2.54	-48.6	-64.4	3.6	3.02e+01	0	40	104	0	60	64018
2026-01-30 16:53:51.08	19.81	2.81	-48.3	-59.3	5.8	3.02e+01	92	40	0	524288	60	35301
2026-01-30 16:53:55.13	19.75	3.08	-48.4	-60.8	5.6	3.02e+01	4	40	104	2097152	60	42001
2026-01-30 16:53:59.17	19.69	3.36	-44.4	-47.3	18.7	3.02e+01	61	40	0	8388608	60	8957
2026-01-30 16:54:03.21	19.62	3.65	-41.9	-43.9	22.0	3.02e+01	61	40	0	16252928	58	6757
2026-01-30 16:54:07.25	19.56	3.93	-45.8	-50.2	17.6	3.02e+01	60	40	104	20971520	60	12434
2026-01-30 16:54:11.29	19.49	4.22	-39.2	-40.7	25.1	3.02e+01	60	40	0	22544384	54	5913
2026-01-30 16:54:15.33	19.42	4.51	-38.1	-39.6	26.4	3.02e+01	59	40	0	30408704	50	6501
2026-01-30 16:54:19.37	19.35	4.81	-37.8	-39.2	26.7	3.02e+01	59	40	0	37748736	50	6233
2026-01-30 16:54:23.40	19.28	5.11	-37.5	-38.9	27.1	3.02e+01	60	40	0	45088768	50	6029
2026-01-30 16:54:27.44	19.20	5.41	-37.4	-38.7	27.2	3.02e+01	59	40	0	52953088	50	5918
2026-01-30 16:54:31.48	19.12	5.72	-37.3	-38.7	27.3	3.02e+01	60	40	0	60293120	50	5880
2026-01-30 16:54:35.52	19.04	6.03	-37.3	-38.7	27.4	3.02e+01	60	40	0	68157440	50	5868
2026-01-30 16:54:39.56	18.96	6.34	-37.3	-38.7	27.4	3.02e+01	56	40	0	75497472	50	5872
2026-01-30 16:54:43.59	18.88	6.66	-36.8	-38.1	27.9	3.02e+01	49	40	0	83361792	48	6148
2026-01-30 16:54:47.62	18.79	6.98	-36.6	-37.9	28.1	3.02e+01	60	40	0	90701824	48	6032
2026-01-30 16:54:51.66	18.70	7.31	-36.7	-38.0	28.1	3.02e+01	56	40	0	98566144	48	6073
2026-01-30 16:54:55.70	18.61	7.64	-36.8	-38.1	28.0	3.02e+01	60	40	0	105906176	48	6140
2026-01-30 16:54:59.74	18.52	7.98	-36.5	-37.8	28.3	3.02e+01	48	40	0	113246208	48	5938
2026-01-30 16:55:03.78	18.42	8.32	-36.5	-37.8	28.3	3.02e+01	58	41	0	121110528	48	5960
2026-01-30 16:55:07.81	18.32	8.67	-36.4	-37.6	28.5	3.02e+01	53	40	0	128450560	48	5852
2026-01-30 16:55:11.86	18.22	9.02	-36.2	-37.4	28.7	3.02e+01	60	41	0	136314880	48	5693
2026-01-30 16:55:15.89	18.11	9.38	-36.2	-37.5	28.7	3.02e+01	52	41	0	143654912	48	5735
2026-01-30 16:55:19.93	18.00	9.75	-36.1	-37.3	28.8	3.02e+01	62	41	0	151519232	46	6328
2026-01-30 16:55:23.98	17.89	10.12	-35.9	-37.1	29.1	3.02e+01	46	41	0	158859264	46	6171
2026-01-30 16:55:28.01	17.77	10.49	-35.9	-37.1	29.1	3.02e+01	59	41	0	166723584	46	6178
2026-01-30 16:55:32.05	17.65	10.87	-35.9	-37.1	29.1	3.02e+01	52	41	0	174063616	46	6184
2026-01-30 16:55:36.09	17.52	11.26	-35.8	-37.0	29.2	3.02e+01	59	40	0	181403648	46	6091
2026-01-30 16:55:40.13	17.39	11.66	-35.9	-37.2	29.0	3.02e+01	46	40	0	189267968	46	6207
2026-01-30 16:55:44.17	17.26	12.06	-35.9	-37.1	29.2	3.02e+01	55	40	0	196608000	46	6174
2026-01-30 16:55:48.21	17.12	12.47	-35.7	-36.9	29.3	3.02e+01	57	41	0	204472320	46	6009
2026-01-30 16:55:52.24	16.98	12.89	-35.6	-36.8	29.4	3.02e+01	61	40	0	211812352	46	5928
2026-01-30 16:55:56.28	16.83	13.32	-35.4	-36.6	29.6	3.02e+01	55	41	0	219676672	46	5846
2026-01-30 16:56:00.32	16.68	13.75	-35.4	-36.6	29.6	3.02e+01	57	41	0	227016704	46	5805
2026-01-30 16:56:04.35	16.52	14.19	-35.4	-36.6	29.7	3.02e+01	60	41	0	234881024	46	5802
2026-01-30 16:56:08.39	16.36	14.65	-35.3	-36.5	29.8	3.02e+01	61	41	0	242221056	46	5743
2026-01-30 16:56:12.43	16.19	15.11	-35.3	-36.5	29.8	3.02e+01	59	41	0	249561088	46	5726
2026-01-30 16:56:16.47	16.01	15.58	-35.2	-36.4	29.9	3.02e+01	58	41	0	257425408	46	5699
2026-01-30 16:56:20.51	15.83	16.06	-35.3	-36.4	29.8	3.02e+01	59	41	0	264765440	46	5723
2026-01-30 16:56:24.55	15.64	16.55	-35.5	-36.7	29.6	3.02e+01	59	41	0	272629760	46	5888
2026-01-30 16:56:28.59	15.44	17.05	-35.4	-36.6	29.7	3.02e+01	62	41	0	279969792	46	5822
2026-01-30 16:56:32.63	15.24	17.57	-35.3	-36.5	29.8	3.02e+01	56	41	0	287834112	46	5777
2026-01-30 16:56:36.66	15.02	18.09	-35.3	-36.5	29.7	3.02e+01	59	41	0	295174144	46	5784
2026-01-30 16:56:40.70	14.80	18.63	-35.3	-36.5	29.7	3.02e+01	63	41	0	303038464	46	5755
2026-01-30 16:56:44.74	14.57	19.18	-35.3	-36.5	29.8	3.02e+01	60	41	0	310378496	46	5727
2026-01-30 16:56:48.77	14.33	19.74	-35.5	-36.7	29.7	3.02e+01	56	41	0	317718528	46	5881
2026-01-30 16:56:52.81	14.08	20.31	-35.7	-36.9	29.5	3.02e+01	58	41	0	325582848	46	6050
2026-01-30 16:56:56.85	13.82	20.90	-35.6	-36.8	29.6	3.02e+01	64	41	0	332922880	46	5936
2026-01-30 16:57:00.89	13.55	21.51	-35.4	-36.6	29.8	3.02e+01	54	41	0	340787200	46	5810
2026-01-30 16:57:04.93	13.26	22.13	-35.4	-36.5	29.8	3.02e+01	45	41	0	348127232	46	5790
2026-01-30 16:57:08.97	12.96	22.77	-35.6	-36.8	29.7	3.02e+01	58	41	0	355991552	46	5947
2026-01-30 16:57:13.01	12.65	23.42	-35.9	-37.1	29.5	3.02e+01	58	41	0	363331584	46	6136
2026-01-30 16:57:17.04	12.32	24.09	-36.2	-37.5	29.2	3.02e+01	60	41	0	371195904	46	6425
2026-01-30 16:57:21.08	11.98	24.78	-36.0	-37.2	29.4	3.02e+01	44	41	0	378535936	46	6224
2026-01-30 16:57:25.12	11.62	25.49	-35.7	-36.9	29.6	3.02e+01	56	41	0	385875968	46	6003
2026-01-30 16:57:29.16	11.24	26.22	-35.9	-37.1	29.4	3.02e+01	51	41	0	393740288	46	6163
2026-01-30 16:57:33.20	10.84	26.97	-35.7	-36.9	29.7	3.02e+01	57	41	0	401080320	46	6019
2026-01-30 16:57:37.24	10.43	27.74	-35.6	-36.7	29.8	3.02e+01	52	41	0	408944640	46	5916
2026-01-30 16:57:41.27	9.99	28.53	-35.1	-36.3	30.2	3.02e+01	56	41	0	416284672	46	5633
2026-01-30 16:57:45.31	9.52	29.34	-35.7	-36.9	29.6	3.02e+01	45	41	0	424148992	46	6017
2026-01-30 16:57:49.35	9.03	30.18	-35.1	-36.3	30.2	3.02e+01	60	41	0	431489024	46	5630
2026-01-30 16:57:53.39	8.51	31.05	-35.2	-36.4	30.2	3.02e+01	49	41	0	438829056	46	5683
2026-01-30 16:57:57.43	7.96	31.94	-35.0	-36.1	30.4	3.02e+01	58	41	0	446693376	46	5523
2026-01-30 16:58:01.46	7.38	32.85	-35.2	-36.4	30.2	3.02e+01	47	41	0	454033408	46	5664
2026-01-30 16:58:05.50	6.76	33.79	-35.5	-36.7	29.9	3.02e+01	60	41	0	461897728	46	5874
2026-01-30 16:58:09.54	6.10	34.76	-36.1	-37.3	29.4	3.02e+01	59	41	0	469237760	46	6304
2026-01-30 16:58:13.58	5.39	35.76	-36.3	-37.5	29.2	3.02e+01	60	41	0	477102080	46	6495
2026-01-30 16:58:17.62	4.64	36.79	-36.8	-38.1	28.6	3.02e+01	59	41	0	484442112	48	6147
2026-01-30 16:58:21.65	3.85	37.84	-37.4	-38.7	28.1	3.02e+01	58	41	0	492306432	48	6613
2026-01-30 16:58:25.69	2.99	38.92	-37.3	-38.5	28.4	3.02e+01	59	41	0	499646464	48	6484
2026-01-30 16:58:29.73	2.07	40.04	-37.5	-38.8	28.1	3.02e+01	59	41	0	506986496	48	6659
2026-01-30 16:58:33.77	1.08	41.18	-37.4	-38.7	28.2	3.02e+01	59	41	0	514850816	48	6591
2026-01-30 16:58:37.81	0.01	42.36	-36.6	-37.9	28.8	3.02e+01	64	41	0	522190848	48	6014
2026-01-30 16:58:41.85	358.87	43.56	-36.9	-38.2	28.6	3.02e+01	57	41	0	530055168	48	6236
2026-01-30 16:58:45.88	357.63	44.78	-36.8	-38.1	28.8	3.02e+01	59	41	0	537395200	48	6138
2026-01-30 16:58:49.92	356.28	46.03	-36.9	-38.2	28.6	3.02e+01	58	41	0	545259520	48	6220
2026-01-30 16:58:53.96	354.82	47.31	-36.7	-38.0	28.7	3.02e+01	57	41	0	552599552	48	6085
2026-01-30 16:58:57.99	353.24	48.60	-36.3	-37.6	29.0	3.02e+01	61	41	0	560463872	46	6510
2026-01-30 16:59:02.03	351.51	49.90	-36.2	-37.4	29.3	3.02e+01	60	41	0	567803904	48	5679
2026-01-30 16:59:06.07	349.62	51.22	-35.7	-36.9	29.6	3.02e+01	62	41	0	575143936	46	6032
2026-01-30 16:59:10.11	347.55	52.54	-35.2	-36.4	30.1	3.02e+01	65	41	0	583008256	46	5662
2026-01-30 16:59:14.15	345.28	53.85	-35.2	-36.4	30.1	3.02e+01	59	41	0	590348288	46	5701
2026-01-30 16:59:18.18	342.81	55.15	-35.4	-36.5	30.0	3.02e+01	59	41	0	598212608	46	5784
2026-01-30 16:59:22.22	340.09	56.42	-36.0	-37.2	29.3	3.02e+01	60	41	0	605552640	46	6221
2026-01-30 16:59:26.26	337.11	57.66	-36.6	-37.8	28.8	3.02e+01	47	41	0	613416960	46	6693
2026-01-30 16:59:30.29	333.85	58.84	-37.1	-38.4	28.3	3.02e+01	58	41	0	620756992	48	6400
2026-01-30 16:59:34.33	330.29	59.95	-36.8	-38.0	28.6	3.02e+01	47	41	0	628097024	48	6118
2026-01-30 16:59:38.37	326.41	60.97	-36.8	-38.0	28.7	3.02e+01	61	41	0	635961344	48	6128
2026-01-30 16:59:42.41	322.22	61.88	-37.3	-38.5	28.1	3.02e+01	47	41	0	643301376	48	6492
2026-01-30 16:59:46.45	317.74	62.66	-37.8	-39.1	27.7	3.02e+01	59	41	0	651165696	48	6906
2026-01-30 16:59:50.48	312.99	63.29	-38.3	-39.7	27.2	3.02e+01	46	41	0	658505728	50	6599
2026-01-30 16:59:54.52	308.00	63.75	-38.2	-39.5	27.4	3.02e+01	58	41	0	666370048	50	6485
2026-01-30 16:59:58.56	302.84	64.03	-38.5	-39.9	26.8	3.02e+01	52	41	0	673710080	52	6062
2026-01-30 17:00:02.60	297.61	64.13	-39.4	-40.9	26.1	3.02e+01	60	41	0	681574400	52	6729
2026-01-30 17:00:06.64	292.37	64.03	-39.4	-40.9	26.2	3.02e+01	49	41	0	688914432	52	6735
2026-01-30 17:00:10.67	287.23	63.74	-39.0	-40.4	26.5	3.02e+01	61	41	0	696254464	52	6389
2026-01-30 17:00:14.71	282.25	63.26	-39.1	-40.5	26.6	3.02e+01	46	41	0	704118784	52	6451
2026-01-30 17:00:18.75	277.50	62.62	-39.0	-40.4	26.6	3.02e+01	59	41	0	711458816	52	6386
2026-01-30 17:00:22.79	273.02	61.84	-38.4	-39.8	27.3	3.02e+01	44	41	0	719323136	52	5928
2026-01-30 17:00:26.82	268.85	60.92	-37.5	-38.7	28.0	3.02e+01	63	41	0	726663168	50	5920
2026-01-30 17:00:30.87	264.97	59.89	-37.5	-38.8	28.1	3.02e+01	54	41	0	734527488	50	5974
2026-01-30 17:00:34.90	261.43	58.78	-37.3	-38.6	28.2	3.02e+01	59	41	0	741867520	50	5813
2026-01-30 17:00:38.94	258.17	57.59	-35.9	-37.1	29.4	3.02e+01	59	41	0	749731840	48	5514
2026-01-30 17:00:42.98	255.20	56.36	-35.9	-37.1	29.5	3.02e+01	56	41	0	757071872	46	6180
2026-01-30 17:00:47.02	252.48	55.08	-35.3	-36.5	30.0	3.02e+01	57	41	0	764411904	46	5750
2026-01-30 17:00:51.06	250.01	53.77	-35.5	-36.7	30.0	3.02e+01	60	41	0	772276224	46	5889
2026-01-30 17:00:55.10	247.75	52.46	-35.4	-36.6	29.9	3.02e+01	58	41	0	779616256	46	5795
2026-01-30 17:00:59.14	245.69	51.13	-35.3	-36.5	30.0	3.02e+01	59	41	0	787480576	44	6427
2026-01-30 17:01:03.17	243.81	49.82	-35.3	-36.5	30.0	3.02e+01	59	41	0	794820608	44	6489
2026-01-30 17:01:07.22	242.08	48.50	-35.6	-36.8	29.7	3.02e+01	60	41	0	802684928	44	6715
2026-01-30 17:01:11.25	240.50	47.21	-35.5	-36.6	29.8	3.02e+01	61	41	0	810024960	44	6564
2026-01-30 17:01:15.29	239.04	45.93	-36.5	-37.8	29.0	3.02e+01	61	41	0	817364992	46	6698
2026-01-30 17:01:19.32	237.70	44.68	-35.4	-36.6	29.9	3.02e+01	59	41	0	825229312	46	5804
2026-01-30 17:01:23.37	236.46	43.45	-36.1	-37.3	29.4	3.02e+01	60	41	0	832569344	46	6292
2026-01-30 17:01:27.40	235.32	42.25	-36.2	-37.4	29.3	3.02e+01	63	41	0	840433664	46	6359
2026-01-30 17:01:31.44	234.25	41.07	-37.2	-38.5	28.4	3.02e+01	58	41	0	847773696	48	6425
2026-01-30 17:01:35.48	233.27	39.93	-37.1	-38.3	28.5	3.02e+01	59	41	0	855638016	48	6330
2026-01-30 17:01:39.52	232.35	38.81	-37.6	-38.9	28.1	3.02e+01	50	41	0	862978048	48	6744
2026-01-30 17:01:43.56	231.49	37.72	-37.3	-38.6	28.2	3.02e+01	61	41	0	870842368	48	6535
2026-01-30 17:01:47.60	230.69	36.67	-37.7	-39.0	27.9	3.02e+01	49	41	0	878182400	48	6879
2026-01-30 17:01:51.63	229.95	35.64	-37.1	-38.3	28.5	3.02e+01	60	41	0	885522432	48	6327
2026-01-30 17:01:55.67	229.24	34.64	-36.4	-37.6	29.1	3.02e+01	57	41	0	893386752	48	5856
2026-01-30 17:01:59.71	228.58	33.67	-36.1	-37.3	29.4	3.02e+01	60	41	0	900726784	48	5640
2026-01-30 17:02:03.74	227.97	32.73	-35.6	-36.7	29.9	3.02e+01	49	41	0	908591104	46	5924
2026-01-30 17:02:07.78	227.38	31.81	-35.3	-36.5	30.1	3.02e+01	56	41	0	915931136	46	5726
2026-01-30 17:02:11.82	226.83	30.92	-35.6	-36.8	29.8	3.02e+01	53	41	0	923795456	46	5972
2026-01-30 17:02:15.86	226.31	30.06	-35.2	-36.3	30.2	3.02e+01	61	41	0	931135488	46	5638
2026-01-30 17:02:19.90	225.82	29.22	-35.6	-36.8	29.7	3.02e+01	50	41	0	938999808	46	5934
2026-01-30 17:02:23.93	225.35	28.40	-35.3	-36.5	29.9	3.02e+01	58	41	0	946339840	46	5755
2026-01-30 17:02:27.97	224.91	27.61	-35.5	-36.7	29.9	3.02e+01	47	41	0	953679872	46	5891
2026-01-30 17:02:32.01	224.49	26.84	-35.9	-37.1	29.5	3.02e+01	59	41	0	961544192	46	6191
2026-01-30 17:02:36.05	224.09	26.09	-35.9	-37.0	29.5	3.02e+01	48	41	0	968884224	46	6134
2026-01-30 17:02:40.09	223.72	25.36	-36.2	-37.4	29.2	3.02e+01	57	41	0	976748544	46	6397
2026-01-30 17:02:44.13	223.36	24.65	-36.1	-37.3	29.3	3.02e+01	45	41	0	984088576	46	6298
2026-01-30 17:02:48.17	223.01	23.96	-36.2	-37.4	29.3	3.02e+01	57	41	0	991952896	46	6380
2026-01-30 17:02:52.21	222.68	23.28	-36.2	-37.4	29.3	3.02e+01	56	41	0	999292928	46	6379
2026-01-30 17:02:56.25	222.37	22.63	-36.0	-37.2	29.4	3.02e+01	60	41	0	1007157248	46	6260
2026-01-30 17:03:00.29	222.07	21.99	-36.1	-37.4	29.2	3.02e+01	57	41	0	1014497280	46	6353
2026-01-30 17:03:04.33	221.78	21.37	-36.2	-37.5	29.2	3.02e+01	59	41	0	1021837312	46	6426
2026-01-30 17:03:08.36	221.51	20.77	-36.5	-37.7	28.9	3.02e+01	58	41	0	1029701632	46	6603
2026-01-30 17:03:12.40	221.25	20.17	-36.2	-37.4	29.3	3.02e+01	57	41	0	1037041664	46	6367
2026-01-30 17:03:16.44	220.99	19.60	-35.9	-37.1	29.4	3.02e+01	60	41	0	1044905984	46	6188
2026-01-30 17:03:20.48	220.75	19.03	-36.0	-37.2	29.3	3.02e+01	59	41	0	1052246016	46	6233
2026-01-30 17:03:24.52	220.52	18.48	-36.0	-37.2	29.3	3.02e+01	59	41	0	1060110336	46	6224
2026-01-30 17:03:28.55	220.30	17.95	-36.0	-37.2	29.4	3.02e+01	59	41	0	1067450368	46	6209
2026-01-30 17:03:32.59	220.08	17.42	-35.9	-37.0	29.4	3.02e+01	59	41	0	1075314688	46	6132
2026-01-30 17:03:36.63	219.88	16.91	-35.8	-37.0	29.4	3.02e+01	57	41	0	1082654720	46	6091
2026-01-30 17:03:40.67	219.68	16.40	-35.9	-37.1	29.4	3.02e+01	59	41	0	1089994752	46	6172
2026-01-30 17:03:44.71	219.49	15.91	-35.9	-37.1	29.4	3.02e+01	62	41	0	1097859072	46	6152
2026-01-30 17:03:48.75	219.30	15.43	-36.2	-37.4	29.0	3.02e+01	56	41	0	1105199104	46	6371
2026-01-30 17:03:52.78	219.12	14.96	-36.0	-37.2	29.2	3.02e+01	59	41	0	1113063424	46	6274
2026-01-30 17:03:56.82	218.95	14.50	-36.1	-37.3	29.1	3.02e+01	61	41	0	1120403456	46	6302
2026-01-30 17:04:00.86	218.79	14.05	-36.2	-37.4	29.1	3.02e+01	38	41	0	1128267776	46	6400
2026-01-30 17:04:04.89	218.63	13.61	-36.1	-37.3	29.2	3.02e+01	59	41	0	1135607808	46	6336
2026-01-30 17:04:08.92	218.47	13.17	-36.0	-37.2	29.1	3.02e+01	45	41	0	1142947840	46	6253
2026-01-30 17:04:12.96	218.32	12.74	-36.1	-37.3	29.0	3.02e+01	58	41	0	1150812160	46	6348
2026-01-30 17:04:16.99	218.18	12.33	-36.3	-37.5	28.7	3.02e+01	56	41	0	1158152192	46	6494
2026-01-30 17:04:21.03	218.04	11.92	-36.1	-37.3	28.9	3.02e+01	62	41	0	1166016512	46	6341
2026-01-30 17:04:25.07	217.90	11.51	-36.2	-37.4	28.9	3.02e+01	47	41	0	1173356544	46	6363
2026-01-30 17:04:29.10	217.77	11.12	-36.2	-37.4	29.0	3.02e+01	56	41	0	1181220864	46	6388
2026-01-30 17:04:33.14	217.64	10.73	-36.2	-37.4	28.9	3.02e+01	52	41	0	1188560896	46	6363
2026-01-30 17:04:37.18	217.52	10.34	-36.4	-37.6	28.7	3.02e+01	58	41	0	1195900928	46	6528
2026-01-30 17:04:41.22	217.40	9.97	-36.5	-37.8	28.6	3.02e+01	49	41	0	1203765248	46	6672
2026-01-30 17:04:45.26	217.28	9.60	-36.6	-37.8	28.6	3.02e+01	63	41	0	1211105280	46	6682
2026-01-30 17:04:49.30	217.17	9.23	-36.7	-38.0	28.3	3.02e+01	49	41	0	1218969600	46	6827
2026-01-30 17:04:53.34	217.06	8.87	-36.8	-38.1	28.2	3.02e+01	59	41	0	1226309632	48	6150
2026-01-30 17:04:57.38	216.96	8.52	-36.7	-38.0	28.3	3.02e+01	45	41	0	1234173952	48	6108
2026-01-30 17:05:01.41	216.85	8.17	-36.8	-38.1	28.2	3.02e+01	60	41	0	1241513984	48	6156
2026-01-30 17:05:05.45	216.75	7.83	-37.0	-38.3	28.0	3.02e+01	46	41	0	1249378304	48	6312
2026-01-30 17:05:09.49	216.66	7.49	-37.1	-38.4	27.9	3.02e+01	57	41	0	1256718336	48	6387
2026-01-30 17:05:13.53	216.56	7.16	-37.2	-38.5	27.7	3.02e+01	58	41	0	1264058368	48	6497
2026-01-30 17:05:17.56	216.47	6.83	-37.5	-38.8	27.5	3.02e+01	59	41	0	1271922688	48	6692
2026-01-30 17:05:21.61	216.38	6.51	-37.6	-38.9	27.3	3.02e+01	60	41	0	1279262720	48	6797
2026-01-30 17:05:25.64	216.29	6.19	-37.7	-39.0	27.2	3.02e+01	57	41	0	1287127040	48	6876
2026-01-30 17:05:29.68	216.21	5.87	-37.7	-39.1	27.1	3.02e+01	59	41	0	1294467072	48	6925
2026-01-30 17:05:33.73	216.13	5.56	-37.7	-39.1	27.1	3.02e+01	60	41	0	1302331392	48	6896
2026-01-30 17:05:37.77	216.05	5.25	-37.7	-39.0	27.1	3.02e+01	60	41	0	1309671424	50	6103
2026-01-30 17:05:41.81	215.97	4.95	-37.6	-38.9	27.1	3.02e+01	60	41	0	1317535744	50	6031
2026-01-30 17:05:45.85	215.89	4.65	-38.3	-39.7	26.4	3.02e+01	57	41	0	1324875776	50	6580
2026-01-30 17:05:49.88	215.82	4.36	-38.3	-39.7	26.1	3.02e+01	59	41	0	1332215808	50	6579
2026-01-30 17:05:53.92	215.75	4.06	-38.3	-39.7	26.3	3.02e+01	57	41	0	1340080128	52	5888
2026-01-30 17:05:57.96	215.67	3.77	-38.5	-39.9	25.9	3.02e+01	61	41	0	1347420160	52	6032
2026-01-30 17:06:02.00	215.61	3.49	-39.1	-40.5	25.5	3.02e+01	52	41	0	1355284480	52	6495
2026-01-30 17:06:06.04	215.54	3.21	-38.4	-39.9	25.9	3.02e+01	60	41	0	1362624512	52	6008
2026-01-30 17:06:10.08	215.47	2.93	-48.7	-66.6	3.5	3.02e+01	0	41	104	1369440256	60	81942
2026-01-30 17:06:14.12	215.41	2.65	-49.7	-67.6	3.5	3.02e+01	0	41	104	1369440256	60	92483
2026-01-30 17:06:18.16	215.35	2.38	-50.0	-67.8	3.5	3.02e+01	0	41	104	1369440256	60	94788
2026-01-30 17:06:22.20	215.29	2.11	-50.0	-67.9	3.5	3.02e+01	0	41	104	1369440256	60	95394
2026-01-30 17:06:26.24	215.23	1.84	-49.8	-67.8	3.5	3.02e+01	0	41	104	1369440256	60	94453
2026-01-30 17:06:30.28	215.17	1.58	-49.5	-67.8	3.5	3.02e+01	0	41	104	1369440256	60	94281
2026-01-30 17:06:34.32	215.11	1.31	-49.8	-67.8	3.5	3.02e+01	0	41	104	1369440256	60	94301
2026-01-30 17:06:38.37	215.06	1.05	-49.9	-67.8	3.5	3.02e+01	0	41	104	1369440256	60	94142
2026-01-30 17:06:42.41	215.00	0.80	-49.9	-67.8	3.5	3.02e+01	0	41	104	1369440256	60	93934
2026-01-30 17:06:46.44	214.95	0.54	-49.9	-67.8	3.5	3.02e+01	0	41	104	1369440256	60	94238
2026-01-30 17:06:50.48	214.90	0.29	-49.9	-67.8	3.5	3.02e+01	0	41	104	1369440256	60	94096
2026-01-30 17:06:54.53	214.85	0.04	-49.9	-67.7	3.5	3.02e+01	0	41	104	1369440256	60	93787

#Closed at: 2026-01-30 17:06:56
#Recorded file [1369 MB]: D:/lorett/data/35029_260131_045310.dat