passes_logs/2026/01/30/R4.6S_Anadyr/R4.6S_Anadyr__20260130_021410_FENGYUN_3D_rec.log

#Pass ID: 20260130_021410_FENGYUN 3D
#Satellite: FENGYUN 3D
#Configuration: FENGYUN 3D
#almurnet v.1.7.20251203
#Start time: 2026-01-30 02:14:11

#Version: 2.2.20231116
#Station: R4.6S_Anadyr
#Location: 177.4865 lon 64.73178 lat
#TLE: 1 43010U 17072A   26029.52179110  .00000394  00000+0  20818-3 0  9997
#TLE: 2 43010  98.9957   1.5649 0002507  83.7772 276.3689 14.19703315425310

#Time	Az	El	Level	Level2	SNR	BER	BlckErr	Temp	State	Recorded	gain1	gain2
2026-01-30 02:14:11.41	154.80	0.07	-46.0	-60.4	3.5	1.51e+00	0	35	0	0	60	42507
2026-01-30 02:14:15.45	154.81	0.31	-49.4	-61.6	3.6	8.45e-01	0	37	104	0	60	43243
2026-01-30 02:14:19.49	154.82	0.56	-49.4	-61.5	3.6	8.46e-01	0	37	104	0	60	43195
2026-01-30 02:14:23.53	154.83	0.81	-49.4	-61.5	3.6	8.46e-01	0	37	104	0	60	43061
2026-01-30 02:14:27.57	154.84	1.06	-49.4	-61.6	3.6	8.45e-01	0	37	104	0	60	43501
2026-01-30 02:14:31.60	154.85	1.31	-49.4	-61.6	3.6	8.45e-01	0	37	104	0	60	43436
2026-01-30 02:14:35.65	154.86	1.57	-49.4	-61.6	3.6	8.45e-01	0	37	104	0	60	43279
2026-01-30 02:14:39.69	154.87	1.82	-49.4	-61.6	3.6	8.45e-01	0	37	104	0	60	43255
2026-01-30 02:14:43.73	154.88	2.08	-49.4	-61.5	3.6	8.45e-01	0	37	104	0	60	43093
2026-01-30 02:14:47.77	154.89	2.34	-49.4	-61.6	3.6	8.45e-01	0	37	104	0	60	43266
2026-01-30 02:14:51.81	154.90	2.61	-49.4	-61.6	3.6	8.46e-01	0	37	104	0	60	43367
2026-01-30 02:14:55.85	154.91	2.87	-49.4	-61.6	3.6	8.46e-01	0	38	104	0	60	43620
2026-01-30 02:14:59.89	154.92	3.14	-49.4	-61.6	3.6	8.45e-01	0	37	104	0	60	43356
2026-01-30 02:15:03.93	154.93	3.42	-49.4	-61.6	3.6	8.45e-01	0	37	104	0	60	43349
2026-01-30 02:15:07.97	154.94	3.69	-49.4	-61.6	3.6	8.45e-01	0	38	104	0	60	43249
2026-01-30 02:15:12.01	154.95	3.97	-49.4	-61.6	3.6	8.44e-01	0	37	104	0	60	43299
2026-01-30 02:15:16.05	154.96	4.25	-49.4	-61.5	3.6	8.45e-01	0	38	104	0	60	43197
2026-01-30 02:15:20.09	154.97	4.53	-49.4	-61.6	3.6	8.45e-01	0	38	104	0	60	43216
2026-01-30 02:15:24.13	154.98	4.82	-49.4	-61.6	3.6	8.44e-01	0	38	104	0	60	43384
2026-01-30 02:15:28.17	154.99	5.11	-49.4	-61.6	3.6	8.45e-01	0	38	104	0	60	43258
2026-01-30 02:15:32.21	155.00	5.40	-49.4	-61.6	3.6	8.46e-01	0	38	104	0	60	43320
2026-01-30 02:15:36.25	155.01	5.70	-49.4	-61.6	3.6	8.44e-01	0	38	104	0	60	43386
2026-01-30 02:15:40.29	155.02	5.99	-49.4	-61.6	3.6	8.46e-01	0	38	104	0	60	43368
2026-01-30 02:15:44.33	155.03	6.30	-49.4	-61.6	3.6	8.46e-01	0	38	104	0	60	43289
2026-01-30 02:15:48.37	155.04	6.60	-49.4	-61.6	3.6	8.44e-01	0	38	104	0	60	43476
2026-01-30 02:15:52.42	155.05	6.92	-49.4	-61.6	3.6	8.45e-01	0	38	104	0	60	43338
2026-01-30 02:15:56.46	155.06	7.23	-49.4	-61.5	3.5	8.45e-01	0	38	104	0	60	43139
2026-01-30 02:16:00.50	155.07	7.55	-49.4	-61.6	3.6	8.45e-01	0	38	104	0	60	43396
2026-01-30 02:16:04.54	155.07	7.87	-49.4	-61.5	3.6	8.46e-01	0	38	104	0	60	43158
2026-01-30 02:16:08.58	155.08	8.19	-49.4	-61.6	3.6	8.45e-01	0	38	104	0	60	43419
2026-01-30 02:16:12.62	155.09	8.52	-49.4	-61.6	3.6	8.46e-01	0	38	104	0	60	43335
2026-01-30 02:16:16.66	155.10	8.86	-49.4	-61.5	3.6	8.45e-01	0	38	104	0	60	43152
2026-01-30 02:16:20.70	155.11	9.20	-49.4	-61.6	3.6	8.45e-01	0	38	104	0	60	43519
2026-01-30 02:16:24.74	155.12	9.54	-49.4	-61.6	3.6	8.45e-01	0	38	104	0	60	43215
2026-01-30 02:16:28.78	155.13	9.89	-49.4	-61.6	3.6	8.45e-01	0	38	104	0	60	43433
2026-01-30 02:16:32.82	155.13	10.25	-49.4	-61.6	3.6	8.44e-01	0	38	104	0	60	43298
2026-01-30 02:16:36.86	155.14	10.60	-49.4	-61.6	3.6	8.46e-01	0	38	104	0	60	43345
2026-01-30 02:16:40.90	155.15	10.97	-49.4	-61.6	3.5	8.46e-01	0	38	104	0	60	43324
2026-01-30 02:16:44.95	155.16	11.34	-49.4	-61.6	3.6	8.46e-01	0	38	104	0	60	43502
2026-01-30 02:16:48.99	155.17	11.71	-49.4	-61.6	3.6	8.46e-01	0	38	104	0	60	43318
2026-01-30 02:16:53.03	155.17	12.10	-49.4	-61.6	3.6	8.46e-01	0	38	104	0	60	43568
2026-01-30 02:16:57.07	155.18	12.48	-49.4	-61.6	3.6	8.45e-01	0	38	104	0	60	43502
2026-01-30 02:17:01.11	155.19	12.88	-49.4	-61.6	3.6	8.45e-01	0	38	104	0	60	43562
2026-01-30 02:17:05.15	155.20	13.28	-49.4	-61.6	3.6	8.45e-01	0	38	104	0	60	43427
2026-01-30 02:17:09.20	155.20	13.69	-49.4	-61.6	3.6	8.45e-01	0	38	104	0	60	43356
2026-01-30 02:17:13.24	155.21	14.10	-49.4	-61.6	3.6	8.45e-01	0	38	104	0	60	43456
2026-01-30 02:17:17.28	155.22	14.52	-49.4	-61.6	3.6	8.44e-01	0	38	104	0	60	43468
2026-01-30 02:17:21.32	155.22	14.95	-49.4	-61.6	3.6	8.44e-01	0	38	104	0	60	43462
2026-01-30 02:17:25.36	155.23	15.38	-49.4	-61.6	3.6	8.46e-01	0	38	104	0	60	43490
2026-01-30 02:17:29.41	155.24	15.83	-49.4	-61.6	3.6	8.45e-01	0	38	104	0	60	43477
2026-01-30 02:17:33.45	155.24	16.28	-49.4	-61.6	3.6	8.45e-01	0	38	104	0	60	43456
2026-01-30 02:17:37.49	155.25	16.74	-49.4	-61.6	3.6	8.46e-01	0	38	104	0	60	43434
2026-01-30 02:17:41.53	155.25	17.21	-49.4	-61.6	3.6	8.44e-01	0	38	104	0	60	43490
2026-01-30 02:17:45.57	155.26	17.69	-49.4	-61.6	3.6	8.46e-01	0	38	104	0	60	43639
2026-01-30 02:17:49.61	155.26	18.18	-49.4	-61.6	3.6	8.46e-01	0	38	104	0	60	43469
2026-01-30 02:17:53.65	155.27	18.68	-49.4	-61.6	3.6	8.45e-01	0	38	104	0	60	43519
2026-01-30 02:17:57.69	155.27	19.19	-49.4	-61.6	3.6	8.45e-01	0	38	104	0	60	43449
2026-01-30 02:18:01.73	155.28	19.71	-49.4	-61.5	3.6	8.45e-01	0	38	104	0	60	43184
2026-01-30 02:18:05.77	155.28	20.24	-49.4	-61.6	3.6	8.46e-01	0	38	104	0	60	43364
2026-01-30 02:18:09.81	155.28	20.78	-49.4	-61.6	3.6	8.45e-01	0	38	104	0	60	43442
2026-01-30 02:18:13.85	155.29	21.33	-49.4	-61.6	3.6	8.46e-01	0	38	104	0	60	43269
2026-01-30 02:18:17.89	155.29	21.90	-49.4	-61.6	3.6	8.45e-01	0	38	104	0	60	43444
2026-01-30 02:18:21.93	155.29	22.48	-49.4	-61.6	3.6	8.45e-01	0	38	104	0	60	43419
2026-01-30 02:18:25.97	155.29	23.07	-49.4	-61.6	3.6	8.45e-01	0	38	104	0	60	43385
2026-01-30 02:18:30.01	155.29	23.68	-49.4	-61.6	3.5	8.46e-01	0	38	104	0	60	43545
2026-01-30 02:18:34.06	155.29	24.30	-49.4	-61.6	3.6	8.44e-01	0	38	104	0	60	43341
2026-01-30 02:18:38.09	155.29	24.94	-49.4	-61.6	3.6	8.45e-01	0	38	104	0	60	43382
2026-01-30 02:18:42.14	155.29	25.59	-49.4	-61.6	3.6	8.45e-01	0	38	104	0	60	43389
2026-01-30 02:18:46.18	155.29	26.26	-49.4	-61.5	3.6	8.43e-01	0	38	104	0	60	43169
2026-01-30 02:18:50.22	155.29	26.95	-49.5	-61.6	3.6	8.45e-01	0	38	104	0	60	43527
2026-01-30 02:18:54.26	155.29	27.65	-49.4	-61.5	3.6	8.46e-01	0	38	104	0	60	43194
2026-01-30 02:18:58.30	155.28	28.37	-49.5	-61.6	3.6	8.45e-01	0	38	104	0	60	43509
2026-01-30 02:19:02.34	155.28	29.12	-49.4	-61.6	3.6	8.45e-01	0	38	104	0	60	43400
2026-01-30 02:19:06.38	155.28	29.88	-49.5	-61.6	3.6	8.46e-01	0	38	104	0	60	43624
2026-01-30 02:19:10.42	155.27	30.66	-49.4	-61.5	3.6	8.45e-01	0	38	104	0	60	43182
2026-01-30 02:19:14.46	155.26	31.46	-49.4	-61.6	3.6	8.45e-01	0	38	104	0	60	43313
2026-01-30 02:19:18.50	155.26	32.29	-49.4	-61.6	3.6	8.48e-01	0	38	104	0	60	43472
2026-01-30 02:19:22.54	155.25	33.14	-49.5	-61.6	3.6	8.45e-01	0	38	104	0	60	43476
2026-01-30 02:19:26.58	155.24	34.02	-49.4	-61.6	3.6	8.46e-01	0	38	104	0	60	43451
2026-01-30 02:19:30.62	155.23	34.92	-49.4	-61.6	3.6	8.45e-01	0	38	104	0	60	43391
2026-01-30 02:19:34.67	155.21	35.84	-49.4	-61.6	3.6	8.46e-01	0	38	104	0	60	43319
2026-01-30 02:19:38.71	155.20	36.80	-49.4	-61.6	3.6	8.46e-01	0	38	104	0	60	43433
2026-01-30 02:19:42.74	155.18	37.78	-49.4	-61.6	3.6	8.46e-01	0	38	104	0	60	43282
2026-01-30 02:19:46.78	155.16	38.79	-49.4	-61.6	3.6	8.45e-01	0	38	104	0	60	43435
2026-01-30 02:19:50.82	155.14	39.84	-49.5	-61.6	3.6	8.46e-01	0	38	104	0	60	43665
2026-01-30 02:19:54.87	155.12	40.91	-49.4	-61.6	3.6	8.45e-01	0	38	104	0	60	43318
2026-01-30 02:19:58.91	155.09	42.02	-49.5	-61.6	3.6	8.46e-01	0	38	104	0	60	43468
2026-01-30 02:20:02.94	155.07	43.16	-49.4	-61.6	3.6	8.45e-01	0	38	104	0	60	43406
2026-01-30 02:20:06.99	155.03	44.35	-49.4	-61.6	3.6	8.46e-01	0	38	104	0	60	43582
2026-01-30 02:20:11.03	155.00	45.56	-49.4	-61.6	3.6	8.45e-01	0	38	104	0	60	43567
2026-01-30 02:20:15.07	154.96	46.81	-49.4	-61.6	3.6	8.46e-01	0	38	104	0	60	43293
2026-01-30 02:20:19.11	154.92	48.11	-49.4	-61.6	3.6	8.45e-01	0	38	104	0	60	43377
2026-01-30 02:20:23.15	154.87	49.44	-49.4	-61.6	3.6	8.44e-01	0	38	104	0	60	43690
2026-01-30 02:20:27.19	154.81	50.81	-49.4	-61.6	3.6	8.45e-01	0	38	104	0	60	43372
2026-01-30 02:20:31.23	154.75	52.22	-49.4	-61.6	3.6	8.46e-01	0	38	104	0	60	43369
2026-01-30 02:20:35.27	154.68	53.68	-49.4	-61.6	3.6	8.45e-01	0	38	104	0	60	43370
2026-01-30 02:20:39.31	154.61	55.18	-49.4	-61.6	3.6	8.45e-01	0	38	104	0	60	43354
2026-01-30 02:20:43.35	154.52	56.72	-49.4	-61.6	3.6	8.45e-01	0	38	104	0	60	43401
2026-01-30 02:20:47.39	154.42	58.30	-49.4	-61.6	3.6	8.45e-01	0	38	104	0	60	43515
2026-01-30 02:20:51.43	154.30	59.93	-49.4	-61.6	3.6	8.46e-01	0	38	104	0	60	43246
2026-01-30 02:20:55.47	154.17	61.60	-49.4	-61.6	3.6	8.45e-01	0	38	104	0	60	43486
2026-01-30 02:20:59.51	154.01	63.32	-49.4	-61.6	3.6	8.46e-01	0	38	104	0	60	43373
2026-01-30 02:21:03.55	153.83	65.07	-49.4	-61.6	3.6	8.46e-01	0	38	104	0	60	43696
2026-01-30 02:21:07.59	153.62	66.87	-49.4	-61.6	3.6	8.45e-01	0	38	104	0	60	43239
2026-01-30 02:21:11.63	153.36	68.70	-49.4	-61.6	3.6	8.45e-01	0	38	104	0	60	43494
2026-01-30 02:21:15.68	153.04	70.58	-49.5	-61.6	3.6	8.46e-01	0	38	104	0	60	43532
2026-01-30 02:21:19.72	152.65	72.49	-49.4	-61.6	3.6	8.45e-01	0	39	104	0	60	43319
2026-01-30 02:21:23.76	152.15	74.43	-49.5	-61.5	3.6	8.45e-01	0	39	104	0	60	43005
2026-01-30 02:21:27.80	151.50	76.40	-49.4	-61.6	3.6	8.46e-01	0	38	104	0	60	43502
2026-01-30 02:21:31.84	150.61	78.39	-49.4	-61.4	3.6	8.45e-01	0	38	104	0	60	42602
2026-01-30 02:21:35.88	149.33	80.41	-49.4	-61.4	3.6	8.45e-01	0	38	104	0	60	42282
2026-01-30 02:21:39.93	147.34	82.44	-49.4	-61.5	3.6	8.46e-01	0	38	104	0	60	42907
2026-01-30 02:21:43.97	143.87	84.46	-49.4	-61.4	3.6	8.45e-01	0	39	104	0	60	42528
2026-01-30 02:21:48.01	136.41	86.46	-49.4	-61.6	3.6	8.44e-01	0	38	104	0	60	43422
2026-01-30 02:21:52.05	112.00	88.25	-49.4	-61.6	3.6	8.45e-01	0	38	104	0	60	43476
2026-01-30 02:21:56.09	32.23	88.51	-49.4	-61.6	3.6	8.47e-01	0	38	104	0	60	43422
2026-01-30 02:22:00.13	359.47	86.83	-49.4	-61.4	3.5	8.45e-01	0	38	104	0	60	42450
2026-01-30 02:22:04.17	350.50	84.85	-49.4	-61.3	3.6	8.45e-01	0	38	104	0	60	42156
2026-01-30 02:22:08.21	346.57	82.83	-49.4	-61.6	3.6	8.46e-01	0	38	104	0	60	43474
2026-01-30 02:22:12.25	344.38	80.80	-49.4	-61.5	3.5	8.45e-01	0	38	104	0	60	43066
2026-01-30 02:22:16.29	343.00	78.79	-49.5	-61.6	3.6	8.45e-01	0	38	104	0	60	43397
2026-01-30 02:22:20.33	342.05	76.79	-49.4	-61.6	3.6	8.45e-01	0	38	104	0	60	43296
2026-01-30 02:22:24.37	341.36	74.82	-49.4	-61.5	3.6	8.44e-01	0	38	104	0	60	43029
2026-01-30 02:22:28.41	340.83	72.88	-49.5	-61.6	3.6	8.46e-01	0	38	104	0	60	43508
2026-01-30 02:22:32.46	340.42	70.96	-49.4	-61.6	3.6	8.45e-01	0	38	104	0	60	43494
2026-01-30 02:22:36.50	340.09	69.08	-49.5	-61.6	3.6	8.45e-01	0	38	104	0	60	43269
2026-01-30 02:22:40.54	339.83	67.24	-49.5	-61.6	3.6	8.44e-01	0	39	104	0	60	43316
2026-01-30 02:22:44.58	339.60	65.44	-49.4	-61.6	3.6	8.47e-01	0	39	104	0	60	43599
2026-01-30 02:22:48.62	339.42	63.68	-49.4	-61.6	3.6	8.44e-01	0	38	104	0	60	43450
2026-01-30 02:22:52.66	339.26	61.96	-49.4	-61.6	3.6	8.46e-01	0	39	104	0	60	43572
2026-01-30 02:22:56.71	339.12	60.28	-49.4	-61.6	3.6	8.47e-01	0	38	104	0	60	43363
2026-01-30 02:23:00.75	339.00	58.65	-49.4	-61.6	3.6	8.45e-01	0	39	104	0	60	43434
2026-01-30 02:23:04.79	338.90	57.06	-49.4	-61.6	3.6	8.45e-01	0	39	104	0	60	43529
2026-01-30 02:23:08.83	338.81	55.52	-49.4	-61.6	3.6	8.45e-01	0	38	104	0	60	43455
2026-01-30 02:23:12.87	338.73	54.01	-49.4	-61.6	3.6	8.46e-01	0	38	104	0	60	43451
2026-01-30 02:23:16.91	338.66	52.55	-49.4	-61.6	3.6	8.46e-01	0	39	104	0	60	43547
2026-01-30 02:23:20.95	338.60	51.14	-49.4	-61.6	3.6	8.46e-01	0	38	104	0	60	43447
2026-01-30 02:23:24.99	338.54	49.76	-49.4	-61.5	3.6	8.46e-01	0	39	104	0	60	43010
2026-01-30 02:23:29.03	338.50	48.43	-49.4	-61.6	3.6	8.46e-01	0	38	104	0	60	43259
2026-01-30 02:23:33.07	338.45	47.13	-49.4	-61.6	3.6	8.45e-01	0	39	104	0	60	43293
2026-01-30 02:23:37.12	338.41	45.87	-49.4	-61.6	3.6	8.44e-01	0	39	104	0	60	43493
2026-01-30 02:23:41.15	338.38	44.65	-49.4	-61.5	3.6	8.45e-01	0	39	104	0	60	43169
2026-01-30 02:23:45.20	338.35	43.47	-49.4	-61.6	3.6	8.46e-01	0	38	104	0	60	43337
2026-01-30 02:23:49.23	338.32	42.33	-49.4	-61.6	3.6	8.46e-01	0	38	104	0	60	43524
2026-01-30 02:23:53.27	338.29	41.21	-49.4	-61.6	3.6	8.46e-01	0	38	104	0	60	43460
2026-01-30 02:23:57.31	338.27	40.13	-49.4	-61.6	3.6	8.45e-01	0	38	104	0	60	43280
2026-01-30 02:24:01.35	338.25	39.09	-49.4	-61.6	3.6	8.45e-01	0	38	104	0	60	43253
2026-01-30 02:24:05.39	338.24	38.07	-49.4	-61.6	3.6	8.45e-01	0	38	104	0	60	43351
2026-01-30 02:24:09.43	338.22	37.09	-49.4	-61.6	3.6	8.45e-01	0	39	104	0	60	43310
2026-01-30 02:24:13.47	338.21	36.13	-49.4	-61.6	3.6	8.46e-01	0	38	104	0	60	43538
2026-01-30 02:24:17.52	338.19	35.20	-49.4	-61.6	3.6	8.46e-01	0	39	104	0	60	43387
2026-01-30 02:24:21.56	338.18	34.29	-49.5	-61.6	3.6	8.45e-01	0	39	104	0	60	43579
2026-01-30 02:24:25.60	338.17	33.42	-49.4	-61.6	3.6	8.45e-01	0	39	104	0	60	43530
2026-01-30 02:24:29.64	338.17	32.56	-49.4	-61.6	3.6	8.46e-01	0	38	104	0	60	43505
2026-01-30 02:24:33.68	338.16	31.73	-49.4	-61.6	3.6	8.46e-01	0	39	104	0	60	43370
2026-01-30 02:24:37.73	338.15	30.93	-49.4	-61.6	3.6	8.47e-01	0	39	104	0	60	43596
2026-01-30 02:24:41.77	338.15	30.14	-49.5	-61.6	3.6	8.45e-01	0	39	104	0	60	43450
2026-01-30 02:24:45.81	338.15	29.38	-49.4	-61.6	3.6	8.44e-01	0	39	104	0	60	43540
2026-01-30 02:24:49.85	338.14	28.63	-49.4	-61.6	3.6	8.45e-01	0	39	104	0	60	43527
2026-01-30 02:24:53.89	338.14	27.91	-49.4	-61.6	3.6	8.45e-01	0	39	104	0	60	43393
2026-01-30 02:24:57.93	338.14	27.21	-49.4	-61.6	3.6	8.44e-01	0	39	104	0	60	43487
2026-01-30 02:25:01.97	338.14	26.52	-49.4	-61.6	3.6	8.46e-01	0	39	104	0	60	43586
2026-01-30 02:25:06.01	338.14	25.85	-49.5	-61.6	3.6	8.45e-01	0	39	104	0	60	43584
2026-01-30 02:25:10.05	338.14	25.19	-49.4	-61.6	3.6	8.45e-01	0	39	104	0	60	43590
2026-01-30 02:25:14.09	338.15	24.56	-49.4	-61.6	3.6	8.45e-01	0	39	104	0	60	43429
2026-01-30 02:25:18.13	338.15	23.93	-49.4	-61.6	3.6	8.46e-01	0	38	104	0	60	43325
2026-01-30 02:25:22.17	338.15	23.32	-49.4	-61.6	3.6	8.46e-01	0	38	104	0	60	43389
2026-01-30 02:25:26.21	338.15	22.73	-49.5	-61.6	3.6	8.45e-01	0	38	104	0	60	43428
2026-01-30 02:25:30.25	338.16	22.15	-49.4	-61.6	3.6	8.46e-01	0	39	104	0	60	43544
2026-01-30 02:25:34.29	338.16	21.58	-49.5	-61.6	3.6	8.45e-01	0	38	104	0	60	43442
2026-01-30 02:25:38.33	338.17	21.03	-49.4	-61.6	3.6	8.45e-01	0	38	104	0	60	43555
2026-01-30 02:25:42.37	338.17	20.48	-49.4	-61.6	3.6	8.47e-01	0	39	104	0	60	43482
2026-01-30 02:25:46.41	338.18	19.95	-49.4	-61.6	3.6	8.45e-01	0	39	104	0	60	43553
2026-01-30 02:25:50.45	338.18	19.43	-49.5	-61.6	3.6	8.45e-01	0	39	104	0	60	43340
2026-01-30 02:25:54.50	338.19	18.92	-49.4	-61.6	3.6	8.44e-01	0	38	104	0	60	43479
2026-01-30 02:25:58.54	338.20	18.42	-49.5	-61.6	3.6	8.46e-01	0	39	104	0	60	43552
2026-01-30 02:26:02.58	338.20	17.93	-49.5	-61.6	3.6	8.45e-01	0	39	104	0	60	43571
2026-01-30 02:26:06.62	338.21	17.45	-49.5	-61.6	3.6	8.46e-01	0	39	104	0	60	43628
2026-01-30 02:26:10.65	338.22	16.98	-49.5	-61.6	3.6	8.45e-01	0	39	104	0	60	43620
2026-01-30 02:26:14.70	338.23	16.52	-49.5	-61.6	3.6	8.44e-01	0	39	104	0	60	43435
2026-01-30 02:26:18.74	338.24	16.07	-49.5	-61.6	3.6	8.45e-01	0	39	104	0	60	43471
2026-01-30 02:26:22.78	338.24	15.62	-49.5	-61.7	3.6	8.45e-01	0	39	104	0	60	43813
2026-01-30 02:26:26.82	338.25	15.18	-49.5	-61.6	3.6	8.46e-01	0	39	104	0	60	43554
2026-01-30 02:26:30.86	338.26	14.76	-49.5	-61.6	3.6	8.46e-01	0	39	104	0	60	43657
2026-01-30 02:26:34.90	338.27	14.33	-49.4	-61.6	3.6	8.46e-01	0	38	104	0	60	43354
2026-01-30 02:26:38.94	338.28	13.92	-49.5	-61.6	3.6	8.46e-01	0	38	104	0	60	43589
2026-01-30 02:26:42.98	338.29	13.51	-49.5	-61.6	3.6	8.46e-01	0	38	104	0	60	43311
2026-01-30 02:26:47.03	338.30	13.11	-49.5	-61.6	3.6	8.46e-01	0	38	104	0	60	43343
2026-01-30 02:26:51.07	338.31	12.72	-49.5	-61.6	3.6	8.45e-01	0	38	104	0	60	43539
2026-01-30 02:26:55.11	338.32	12.33	-49.5	-61.6	3.6	8.45e-01	0	38	104	0	60	43685
2026-01-30 02:26:59.15	338.33	11.95	-49.5	-61.6	3.6	8.45e-01	0	38	104	0	60	43397
2026-01-30 02:27:03.19	338.34	11.57	-49.5	-61.6	3.6	8.46e-01	0	39	104	0	60	43588
2026-01-30 02:27:07.23	338.35	11.20	-49.5	-61.6	3.6	8.45e-01	0	39	104	0	60	43413
2026-01-30 02:27:11.27	338.36	10.84	-49.5	-61.6	3.6	8.47e-01	0	39	104	0	60	43589
2026-01-30 02:27:15.31	338.37	10.48	-49.5	-61.6	3.6	8.46e-01	0	39	104	0	60	43453
2026-01-30 02:27:19.35	338.39	10.12	-49.5	-61.6	3.6	8.47e-01	0	38	104	0	60	43408
2026-01-30 02:27:23.38	338.40	9.77	-49.5	-61.6	3.6	8.44e-01	0	39	104	0	60	43294
2026-01-30 02:27:27.42	338.41	9.43	-49.5	-61.6	3.6	8.46e-01	0	39	104	0	60	43427
2026-01-30 02:27:31.46	338.42	9.09	-49.5	-61.6	3.6	8.45e-01	0	39	104	0	60	43470
2026-01-30 02:27:35.50	338.43	8.76	-49.5	-61.6	3.6	8.45e-01	0	38	104	0	60	43358
2026-01-30 02:27:39.54	338.44	8.42	-49.5	-61.6	3.6	8.46e-01	0	38	104	0	60	43409
2026-01-30 02:27:43.58	338.46	8.10	-49.5	-61.6	3.6	8.44e-01	0	38	104	0	60	43253
2026-01-30 02:27:47.63	338.47	7.78	-49.4	-61.6	3.6	8.45e-01	0	39	104	0	60	43552
2026-01-30 02:27:51.67	338.48	7.46	-49.5	-61.6	3.6	8.46e-01	0	39	104	0	60	43531
2026-01-30 02:27:55.71	338.49	7.14	-49.4	-61.6	3.6	8.46e-01	0	39	104	0	60	43505
2026-01-30 02:27:59.75	338.51	6.83	-49.5	-61.6	3.6	8.45e-01	0	39	104	0	60	43441
2026-01-30 02:28:03.79	338.52	6.53	-49.5	-61.6	3.6	8.45e-01	0	39	104	0	60	43674
2026-01-30 02:28:07.83	338.53	6.22	-49.5	-61.6	3.6	8.45e-01	0	39	104	0	60	43438
2026-01-30 02:28:11.87	338.54	5.92	-49.5	-61.7	3.6	8.45e-01	0	39	104	0	60	43739
2026-01-30 02:28:15.91	338.56	5.63	-49.5	-61.7	3.6	8.45e-01	0	39	104	0	60	43717
2026-01-30 02:28:19.95	338.57	5.34	-49.5	-61.6	3.6	8.46e-01	0	39	104	0	60	43587
2026-01-30 02:28:23.99	338.58	5.05	-49.5	-61.6	3.6	8.46e-01	0	38	104	0	60	43422
2026-01-30 02:28:28.03	338.60	4.76	-49.5	-61.6	3.6	8.44e-01	0	39	104	0	60	43518
2026-01-30 02:28:32.07	338.61	4.48	-49.5	-61.6	3.6	8.46e-01	0	39	104	0	60	43478
2026-01-30 02:28:36.12	338.62	4.19	-49.5	-61.6	3.6	8.44e-01	0	39	104	0	60	43469
2026-01-30 02:28:40.15	338.64	3.92	-49.5	-61.6	3.6	8.45e-01	0	39	104	0	60	43505
2026-01-30 02:28:44.20	338.65	3.64	-49.5	-61.6	3.6	8.45e-01	0	39	104	0	60	43428
2026-01-30 02:28:48.24	338.66	3.37	-49.5	-61.6	3.6	8.45e-01	0	39	104	0	60	43589
2026-01-30 02:28:52.28	338.68	3.10	-49.5	-61.6	3.6	8.46e-01	0	39	104	0	60	43443
2026-01-30 02:28:56.32	338.69	2.83	-49.5	-61.7	3.6	8.44e-01	0	39	104	0	60	43711
2026-01-30 02:29:00.36	338.71	2.57	-49.5	-61.6	3.6	8.46e-01	0	38	104	0	60	43471
2026-01-30 02:29:04.40	338.72	2.31	-49.5	-61.6	3.6	8.45e-01	0	38	104	0	60	43677
2026-01-30 02:29:08.44	338.73	2.05	-49.5	-61.6	3.6	8.45e-01	0	39	104	0	60	43570
2026-01-30 02:29:12.48	338.75	1.79	-49.5	-61.6	3.6	8.45e-01	0	39	104	0	60	43579
2026-01-30 02:29:16.52	338.76	1.54	-49.5	-61.6	3.6	8.46e-01	0	39	104	0	60	43605
2026-01-30 02:29:20.56	338.78	1.29	-49.5	-61.6	3.6	8.44e-01	0	39	104	0	60	43430
2026-01-30 02:29:24.60	338.79	1.03	-49.5	-61.7	3.6	8.45e-01	0	39	104	0	60	43771
2026-01-30 02:29:28.64	338.81	0.79	-49.5	-61.6	3.6	8.46e-01	0	38	104	0	60	43484
2026-01-30 02:29:32.68	338.82	0.54	-49.5	-61.6	3.6	8.45e-01	0	39	104	0	60	43510
2026-01-30 02:29:36.72	338.84	0.30	-49.5	-61.6	3.6	8.45e-01	0	39	104	0	60	43517
2026-01-30 02:29:40.76	338.85	0.05	-49.5	-61.6	3.6	8.44e-01	0	39	104	0	60	43392

#Closed at: 2026-01-30 02:29:44
#Recorded file [0 MB]: D:/lorett/data/35029_260130_141411.dat