passes_logs/2026/01/30/R4.6S_Anadyr/R4.6S_Anadyr__20260130_093855_KOSAR1-5_rec.log

#Pass ID: 20260130_093855_KOSAR1-5
#Satellite: KOSAR1-5
#Configuration: KOSAR1-5
#almurnet v.1.7.20251203
#Start time: 2026-01-30 09:38:58

#Version: 2.2.20231116
#Station: R4.6S_Anadyr
#Location: 177.4865 lon 64.73178 lat
#TLE: 1 67264U 25313S   26028.94615568  .00012050  00000+0  55467-3 0  9998
#TLE: 2 67264  97.4180 105.8864 0016576 134.5684 225.6907 15.20338860  4779

#Time	Az	El	Level	Level2	SNR	BER	BlckErr	Temp	State	Recorded	gain1	gain2
2026-01-30 09:38:58.33	163.37	0.16	-46.4	-60.8	3.5	1.51e+00	0	39	0	0	60	44511
2026-01-30 09:39:01.36	163.40	0.36	-46.3	-61.0	3.6	1.51e+00	0	40	104	0	60	45617
2026-01-30 09:39:04.39	163.43	0.56	-46.3	-61.1	3.6	1.51e+00	0	40	104	0	60	45884
2026-01-30 09:39:07.42	163.46	0.76	-46.5	-61.1	3.6	1.51e+00	0	40	104	0	60	46296
2026-01-30 09:39:10.45	163.49	0.96	-46.4	-61.1	3.6	1.51e+00	0	40	104	0	60	46034
2026-01-30 09:39:13.48	163.52	1.16	-46.3	-61.0	3.6	1.51e+00	0	40	104	0	60	45532
2026-01-30 09:39:16.50	163.55	1.36	-46.0	-60.8	3.6	1.51e+00	0	40	104	0	60	44487
2026-01-30 09:39:19.53	163.58	1.57	-45.4	-60.2	3.6	1.51e+00	0	40	104	0	60	41278
2026-01-30 09:39:22.56	163.61	1.78	-45.2	-59.9	3.6	1.51e+00	0	41	104	0	60	40247
2026-01-30 09:39:25.59	163.65	1.99	-45.1	-59.8	3.6	1.51e+00	0	40	104	0	60	39774
2026-01-30 09:39:28.62	163.68	2.20	-45.1	-59.8	3.6	1.51e+00	0	40	104	0	60	39820
2026-01-30 09:39:31.65	163.71	2.42	-45.1	-59.8	3.6	1.51e+00	0	40	104	0	60	39803
2026-01-30 09:39:34.69	163.74	2.63	-45.1	-59.8	3.6	1.51e+00	0	41	104	0	60	39653
2026-01-30 09:39:37.72	163.78	2.85	-45.1	-59.8	3.6	1.51e+00	0	40	104	0	60	39577
2026-01-30 09:39:40.75	163.81	3.07	-45.1	-59.8	3.6	1.51e+00	0	41	104	0	60	39747
2026-01-30 09:39:43.78	163.85	3.30	-45.1	-59.8	3.6	1.51e+00	0	41	104	0	60	39633
2026-01-30 09:39:46.81	163.88	3.52	-45.1	-59.8	3.6	1.51e+00	0	41	104	0	60	39530
2026-01-30 09:39:49.84	163.92	3.75	-45.1	-59.8	3.6	1.51e+00	0	41	104	0	60	39532
2026-01-30 09:39:52.88	163.95	3.98	-45.1	-59.8	3.6	1.51e+00	0	41	104	0	60	39512
2026-01-30 09:39:55.91	163.99	4.22	-45.1	-59.8	3.6	1.51e+00	0	41	104	0	60	39560
2026-01-30 09:39:58.93	164.03	4.45	-45.2	-59.9	3.6	1.51e+00	0	41	104	0	60	40285
2026-01-30 09:40:01.96	164.06	4.69	-45.3	-60.0	3.6	1.51e+00	0	41	104	0	60	40388
2026-01-30 09:40:04.99	164.10	4.93	-45.3	-60.0	3.6	1.51e+00	0	41	104	0	60	40327
2026-01-30 09:40:08.02	164.14	5.18	-45.5	-60.2	3.6	1.51e+00	0	41	104	0	60	41364
2026-01-30 09:40:11.05	164.18	5.43	-45.4	-60.1	3.6	1.51e+00	0	41	104	0	60	41035
2026-01-30 09:40:14.08	164.22	5.68	-45.4	-60.2	3.6	1.51e+00	0	41	104	0	60	41309
2026-01-30 09:40:17.11	164.26	5.93	-45.4	-60.2	3.6	1.51e+00	0	41	104	0	60	41668
2026-01-30 09:40:20.14	164.30	6.19	-45.6	-60.3	3.6	1.51e+00	0	41	104	0	60	41879
2026-01-30 09:40:23.17	164.35	6.45	-45.4	-60.2	3.6	1.51e+00	0	41	104	0	60	41508
2026-01-30 09:40:26.20	164.39	6.72	-45.6	-60.3	3.6	1.51e+00	0	41	104	0	60	42122
2026-01-30 09:40:29.23	164.43	6.99	-45.5	-60.4	3.6	1.51e+00	0	41	104	0	60	42333
2026-01-30 09:40:32.26	164.48	7.26	-45.7	-60.3	3.6	1.51e+00	0	41	104	0	60	42118
2026-01-30 09:40:35.29	164.52	7.54	-45.4	-60.3	3.6	1.51e+00	0	41	104	0	60	41923
2026-01-30 09:40:38.32	164.57	7.82	-45.7	-60.4	3.6	1.51e+00	0	41	104	0	60	42535
2026-01-30 09:40:41.35	164.62	8.10	-45.9	-60.5	3.6	1.51e+00	0	41	104	0	60	43111
2026-01-30 09:40:44.38	164.67	8.39	-45.8	-60.5	3.6	1.51e+00	0	41	104	0	60	42853
2026-01-30 09:40:47.41	164.72	8.69	-45.8	-60.4	3.6	1.51e+00	0	41	104	0	60	42582
2026-01-30 09:40:50.44	164.77	8.98	-45.8	-60.5	3.6	1.51e+00	0	41	104	0	60	42724
2026-01-30 09:40:53.47	164.82	9.29	-45.8	-60.5	3.6	1.51e+00	0	41	104	0	60	42787
2026-01-30 09:40:56.50	164.87	9.60	-45.7	-60.5	3.6	1.51e+00	0	41	104	0	60	42804
2026-01-30 09:40:59.53	164.92	9.91	-45.8	-60.5	3.6	1.51e+00	0	41	104	0	60	43033
2026-01-30 09:41:02.55	164.98	10.23	-45.8	-60.5	3.6	1.51e+00	0	41	104	0	60	42859
2026-01-30 09:41:05.58	165.03	10.55	-45.9	-60.5	3.6	1.51e+00	0	41	104	0	60	43114
2026-01-30 09:41:08.61	165.09	10.88	-45.9	-60.6	3.6	1.51e+00	0	41	104	0	60	43552
2026-01-30 09:41:11.64	165.15	11.22	-45.6	-60.7	3.6	1.51e+00	0	41	104	0	60	44201
2026-01-30 09:41:14.67	165.21	11.56	-45.5	-60.7	3.6	1.51e+00	0	41	104	0	60	43740
2026-01-30 09:41:17.69	165.27	11.91	-45.6	-60.6	3.6	1.51e+00	0	41	104	0	60	43654
2026-01-30 09:41:20.73	165.33	12.26	-45.6	-60.6	3.6	1.51e+00	0	41	104	0	60	43276
2026-01-30 09:41:23.75	165.39	12.62	-45.8	-60.6	3.6	1.51e+00	0	41	104	0	60	43520
2026-01-30 09:41:26.78	165.46	12.99	-45.7	-60.5	3.6	1.51e+00	0	41	104	0	60	43101
2026-01-30 09:41:29.81	165.53	13.37	-45.9	-60.6	3.6	1.51e+00	0	41	104	0	60	43468
2026-01-30 09:41:32.84	165.60	13.76	-45.7	-60.6	3.6	1.51e+00	0	41	104	0	60	43506
2026-01-30 09:41:35.86	165.67	14.15	-45.9	-60.6	3.5	1.51e+00	0	41	104	0	60	43524
2026-01-30 09:41:38.89	165.74	14.55	-45.9	-60.6	3.5	1.51e+00	0	41	104	0	60	43500
2026-01-30 09:41:41.93	165.82	14.96	-46.0	-60.7	3.6	1.51e+00	0	41	104	0	60	43726
2026-01-30 09:41:44.95	165.89	15.38	-46.0	-60.7	3.6	1.51e+00	0	41	104	0	60	43920
2026-01-30 09:41:47.98	165.97	15.81	-46.2	-60.9	3.6	1.51e+00	0	41	104	0	60	44770
2026-01-30 09:41:51.01	166.05	16.25	-46.2	-60.9	3.6	1.51e+00	0	41	104	0	60	44810
2026-01-30 09:41:54.03	166.14	16.70	-46.1	-60.8	3.6	1.51e+00	0	42	104	0	60	44376
2026-01-30 09:41:57.06	166.23	17.16	-46.0	-60.7	3.6	1.51e+00	0	41	104	0	60	43868
2026-01-30 09:42:00.09	166.32	17.63	-46.1	-60.7	3.6	1.51e+00	0	41	104	0	60	44142
2026-01-30 09:42:03.12	166.41	18.11	-46.1	-60.7	3.6	1.51e+00	0	41	104	0	60	44137
2026-01-30 09:42:06.15	166.50	18.61	-46.1	-60.7	3.6	1.51e+00	0	41	104	0	60	44119
2026-01-30 09:42:09.18	166.60	19.12	-46.1	-60.7	3.6	1.51e+00	0	41	104	0	60	43996
2026-01-30 09:42:12.21	166.71	19.64	-46.0	-60.7	3.6	1.51e+00	0	41	104	0	60	44040
2026-01-30 09:42:15.23	166.81	20.17	-46.0	-60.7	3.6	1.51e+00	0	41	104	0	60	44001
2026-01-30 09:42:18.26	166.92	20.73	-46.0	-60.7	3.6	1.51e+00	0	41	104	0	60	44196
2026-01-30 09:42:21.29	167.04	21.29	-46.0	-60.7	3.6	1.51e+00	0	41	104	0	60	44067
2026-01-30 09:42:24.32	167.16	21.88	-46.1	-60.8	3.6	1.51e+00	0	41	104	0	60	44582
2026-01-30 09:42:27.34	167.28	22.47	-46.1	-60.8	3.6	1.51e+00	0	41	104	0	60	44514
2026-01-30 09:42:30.37	167.41	23.09	-46.1	-60.8	3.6	1.51e+00	0	42	104	0	60	44469
2026-01-30 09:42:33.40	167.54	23.73	-46.1	-60.8	3.6	1.51e+00	0	41	104	0	60	44443
2026-01-30 09:42:36.43	167.68	24.39	-46.1	-60.8	3.6	1.51e+00	0	41	104	0	60	44654
2026-01-30 09:42:39.46	167.83	25.06	-46.2	-60.9	3.6	1.51e+00	0	41	104	0	60	44752
2026-01-30 09:42:42.48	167.98	25.76	-46.1	-60.8	3.6	1.51e+00	0	41	104	0	60	44597
2026-01-30 09:42:45.51	168.14	26.48	-46.2	-60.8	3.6	1.51e+00	0	41	104	0	60	44680
2026-01-30 09:42:48.54	168.31	27.23	-46.2	-60.8	3.6	1.51e+00	0	42	104	0	60	44679
2026-01-30 09:42:51.56	168.49	28.00	-46.2	-60.9	3.6	1.51e+00	0	41	104	0	60	44910
2026-01-30 09:42:54.59	168.67	28.80	-46.2	-60.9	3.6	1.51e+00	0	42	104	0	60	44983
2026-01-30 09:42:57.62	168.87	29.62	-46.1	-60.8	3.6	1.51e+00	0	41	104	0	60	44639
2026-01-30 09:43:00.65	169.07	30.48	-46.0	-60.9	3.6	1.51e+00	0	41	104	0	60	45219
2026-01-30 09:43:03.68	169.29	31.36	-45.9	-60.9	3.6	1.51e+00	0	41	104	0	60	45057
2026-01-30 09:43:06.71	169.52	32.28	-46.0	-60.9	3.6	1.51e+00	0	41	104	0	60	45056
2026-01-30 09:43:09.74	169.77	33.23	-46.0	-60.9	3.6	1.51e+00	0	41	104	0	60	44874
2026-01-30 09:43:12.77	170.03	34.22	-46.1	-60.9	3.5	1.51e+00	0	41	104	0	60	44870
2026-01-30 09:43:15.80	170.30	35.24	-46.2	-60.9	3.6	1.51e+00	0	41	104	0	60	45202
2026-01-30 09:43:18.82	170.60	36.30	-46.1	-60.9	3.6	1.51e+00	0	42	104	0	60	45217
2026-01-30 09:43:21.85	170.91	37.41	-46.2	-61.0	3.5	1.51e+00	0	42	104	0	60	45250
2026-01-30 09:43:24.88	171.25	38.55	-46.2	-60.9	3.6	1.51e+00	0	42	104	0	60	44834
2026-01-30 09:43:27.91	171.62	39.75	-46.3	-61.0	3.6	1.51e+00	0	41	104	0	60	45713
2026-01-30 09:43:30.93	172.01	40.98	-46.3	-61.0	3.6	1.51e+00	0	41	104	0	60	45381
2026-01-30 09:43:33.96	172.44	42.27	-46.3	-61.0	3.6	1.51e+00	0	41	104	0	60	45355
2026-01-30 09:43:36.99	172.90	43.61	-46.3	-61.0	3.6	1.51e+00	0	41	104	0	60	45507
2026-01-30 09:43:40.01	173.40	45.00	-46.3	-61.0	3.6	1.51e+00	0	42	104	0	60	45501
2026-01-30 09:43:43.04	173.95	46.44	-46.3	-61.0	3.6	1.51e+00	0	42	104	0	60	45468
2026-01-30 09:43:46.07	174.56	47.94	-46.3	-60.9	3.6	1.51e+00	0	41	104	0	60	45158
2026-01-30 09:43:49.09	175.23	49.50	-46.2	-60.9	3.6	1.51e+00	0	41	104	0	60	45117
2026-01-30 09:43:52.12	175.97	51.11	-46.3	-61.0	3.5	1.51e+00	0	41	104	0	60	45469
2026-01-30 09:43:55.15	176.81	52.79	-46.2	-61.0	3.6	1.51e+00	0	41	104	0	60	45401
2026-01-30 09:43:58.18	177.74	54.52	-46.3	-61.0	3.6	1.51e+00	0	41	104	0	60	45628
2026-01-30 09:44:01.21	178.80	56.31	-46.2	-60.9	3.6	1.51e+00	0	42	104	0	60	45206
2026-01-30 09:44:04.24	180.01	58.15	-46.2	-61.0	3.6	1.51e+00	0	42	104	0	60	45536
2026-01-30 09:44:07.26	181.39	60.04	-46.3	-61.0	3.6	1.51e+00	0	42	104	0	60	45650
2026-01-30 09:44:10.29	183.01	61.98	-46.2	-61.0	3.6	1.51e+00	0	42	104	0	60	45505
2026-01-30 09:44:13.32	184.91	63.97	-46.2	-61.0	3.6	1.51e+00	0	42	104	0	60	45518
2026-01-30 09:44:16.35	187.16	65.98	-46.3	-61.0	3.6	1.51e+00	0	41	104	0	60	45749
2026-01-30 09:44:19.38	189.88	68.00	-46.1	-61.0	3.6	1.51e+00	0	42	104	0	60	45587
2026-01-30 09:44:22.41	193.21	70.03	-46.1	-61.0	3.6	1.51e+00	0	41	104	0	60	45577
2026-01-30 09:44:25.44	197.33	72.02	-45.8	-61.0	3.6	1.51e+00	0	42	104	0	60	45599
2026-01-30 09:44:28.47	202.53	73.93	-46.1	-61.0	3.6	1.51e+00	0	41	104	0	60	45503
2026-01-30 09:44:31.50	209.16	75.72	-45.8	-61.1	3.6	1.51e+00	0	42	104	0	60	45841
2026-01-30 09:44:34.52	217.59	77.29	-46.0	-61.1	3.6	1.51e+00	0	42	104	0	60	46051
2026-01-30 09:44:37.55	228.22	78.54	-46.2	-61.0	3.6	1.51e+00	0	42	104	0	60	45396
2026-01-30 09:44:40.58	240.96	79.33	-46.4	-61.1	3.6	1.51e+00	0	42	104	0	60	46121
2026-01-30 09:44:43.61	254.96	79.54	-46.4	-61.2	3.6	1.51e+00	0	42	104	0	60	46374
2026-01-30 09:44:46.64	268.70	79.13	-46.4	-61.2	3.6	1.51e+00	0	42	104	0	60	46428
2026-01-30 09:44:49.67	280.81	78.18	-46.4	-61.1	3.6	1.51e+00	0	42	104	0	60	46173
2026-01-30 09:44:52.70	290.71	76.81	-46.4	-61.1	3.6	1.51e+00	0	42	104	0	60	46092
2026-01-30 09:44:55.73	298.52	75.15	-46.4	-61.1	3.6	1.51e+00	0	42	104	0	60	46233
2026-01-30 09:44:58.76	304.63	73.32	-46.4	-61.1	3.6	1.51e+00	0	42	104	0	60	46203
2026-01-30 09:45:01.79	309.44	71.37	-46.4	-61.1	3.6	1.51e+00	0	42	104	0	60	46016
2026-01-30 09:45:04.81	313.27	69.37	-46.2	-61.1	3.6	1.51e+00	0	42	104	0	60	45775
2026-01-30 09:45:07.85	316.39	67.34	-46.3	-61.0	3.6	1.51e+00	0	42	104	0	60	45605
2026-01-30 09:45:10.88	318.94	65.32	-46.3	-61.1	3.6	1.51e+00	0	42	104	0	60	45798
2026-01-30 09:45:13.91	321.07	63.31	-46.2	-61.1	3.6	1.51e+00	0	42	104	0	60	45974
2026-01-30 09:45:16.94	322.87	61.34	-46.3	-61.1	3.6	1.51e+00	0	42	104	0	60	45776
2026-01-30 09:45:19.96	324.40	59.42	-46.3	-61.1	3.6	1.51e+00	0	42	104	0	60	46285
2026-01-30 09:45:22.99	325.73	57.54	-46.4	-61.1	3.6	1.51e+00	0	42	104	0	60	46015
2026-01-30 09:45:26.02	326.88	55.72	-46.4	-61.1	3.6	1.51e+00	0	42	104	0	60	46070
2026-01-30 09:45:29.04	327.90	53.95	-46.4	-61.1	3.6	1.51e+00	0	42	104	0	60	46149
2026-01-30 09:45:32.07	328.80	52.24	-46.4	-61.2	3.6	1.51e+00	0	42	104	0	60	46470
2026-01-30 09:45:35.10	329.60	50.58	-46.4	-61.2	3.6	1.51e+00	0	41	104	0	60	46443
2026-01-30 09:45:38.13	330.32	48.99	-46.4	-61.2	3.6	1.51e+00	0	42	104	0	60	46402
2026-01-30 09:45:41.16	330.97	47.45	-46.4	-61.1	3.6	1.51e+00	0	42	104	0	60	45931
2026-01-30 09:45:44.18	331.56	45.97	-46.5	-61.2	3.6	1.51e+00	0	42	104	0	60	46319
2026-01-30 09:45:47.21	332.09	44.54	-46.4	-61.2	3.6	1.51e+00	0	42	104	0	60	46570
2026-01-30 09:45:50.24	332.58	43.17	-46.4	-61.1	3.6	1.51e+00	0	42	104	0	60	46114
2026-01-30 09:45:53.27	333.03	41.85	-46.4	-61.1	3.6	1.51e+00	0	42	104	0	60	46154
2026-01-30 09:45:56.29	333.45	40.58	-46.3	-61.2	3.6	1.51e+00	0	42	104	0	60	46635
2026-01-30 09:45:59.32	333.83	39.35	-46.3	-61.1	3.6	1.51e+00	0	42	104	0	60	46016
2026-01-30 09:46:02.35	334.19	38.18	-46.4	-61.2	3.6	1.51e+00	0	42	104	0	60	46358
2026-01-30 09:46:05.38	334.52	37.04	-46.4	-61.1	3.6	1.51e+00	0	41	104	0	60	46213
2026-01-30 09:46:08.40	334.83	35.96	-46.3	-61.1	3.6	1.51e+00	0	42	104	0	60	46224
2026-01-30 09:46:11.44	335.12	34.90	-46.3	-61.1	3.6	1.51e+00	0	42	104	0	60	46064
2026-01-30 09:46:14.47	335.39	33.89	-46.4	-61.2	3.6	1.51e+00	0	42	104	0	60	46359
2026-01-30 09:46:17.50	335.65	32.91	-46.4	-61.1	3.6	1.51e+00	0	42	104	0	60	46200
2026-01-30 09:46:20.52	335.89	31.98	-46.3	-61.1	3.6	1.51e+00	0	42	104	0	60	46075
2026-01-30 09:46:23.55	336.11	31.07	-46.4	-61.1	3.6	1.51e+00	0	42	104	0	60	46052
2026-01-30 09:46:26.58	336.33	30.20	-46.3	-61.1	3.5	1.51e+00	0	42	104	0	60	46009
2026-01-30 09:46:29.61	336.53	29.35	-46.4	-61.1	3.6	1.51e+00	0	42	104	0	60	45824
2026-01-30 09:46:32.64	336.72	28.54	-46.3	-61.0	3.6	1.51e+00	0	41	104	0	60	45486
2026-01-30 09:46:35.67	336.91	27.75	-46.4	-61.0	3.6	1.51e+00	0	42	104	0	60	45605
2026-01-30 09:46:38.69	337.08	26.99	-46.3	-61.0	3.6	1.51e+00	0	42	104	0	60	45573
2026-01-30 09:46:41.72	337.25	26.25	-46.4	-61.0	3.6	1.51e+00	0	41	104	0	60	45686
2026-01-30 09:46:44.75	337.41	25.53	-46.3	-61.0	3.6	1.51e+00	0	42	104	0	60	45700
2026-01-30 09:46:47.78	337.56	24.84	-46.4	-61.0	3.6	1.51e+00	0	42	104	0	60	45676
2026-01-30 09:46:50.81	337.70	24.17	-46.3	-61.1	3.6	1.51e+00	0	42	104	0	60	45775
2026-01-30 09:46:53.84	337.84	23.52	-46.2	-61.0	3.6	1.51e+00	0	42	104	0	60	45461
2026-01-30 09:46:56.86	337.98	22.89	-46.3	-61.0	3.6	1.51e+00	0	42	104	0	60	45390
2026-01-30 09:46:59.89	338.10	22.28	-46.3	-61.0	3.6	1.51e+00	0	42	104	0	60	45447
2026-01-30 09:47:02.92	338.23	21.69	-46.2	-61.0	3.6	1.51e+00	0	42	104	0	60	45514
2026-01-30 09:47:05.95	338.35	21.11	-46.3	-61.0	3.6	1.51e+00	0	42	104	0	60	45387
2026-01-30 09:47:08.97	338.46	20.55	-46.2	-61.0	3.6	1.51e+00	0	42	104	0	60	45464
2026-01-30 09:47:12.00	338.57	20.00	-46.2	-61.0	3.6	1.51e+00	0	41	104	0	60	45349
2026-01-30 09:47:15.03	338.68	19.47	-46.1	-60.9	3.6	1.51e+00	0	42	104	0	60	45128
2026-01-30 09:47:18.06	338.78	18.95	-46.1	-60.9	3.6	1.51e+00	0	42	104	0	60	44768
2026-01-30 09:47:21.09	338.88	18.45	-46.1	-60.9	3.5	1.51e+00	0	42	104	0	60	45062
2026-01-30 09:47:24.12	338.97	17.96	-46.1	-60.9	3.6	1.51e+00	0	42	104	0	60	44897
2026-01-30 09:47:27.14	339.07	17.48	-46.1	-60.9	3.6	1.51e+00	0	42	104	0	60	44934
2026-01-30 09:47:30.17	339.16	17.01	-46.1	-60.8	3.6	1.51e+00	0	42	104	0	60	44713
2026-01-30 09:47:33.20	339.24	16.55	-46.2	-60.9	3.6	1.51e+00	0	42	104	0	60	44872
2026-01-30 09:47:36.23	339.33	16.11	-46.1	-60.8	3.6	1.51e+00	0	42	104	0	60	44665
2026-01-30 09:47:39.26	339.41	15.67	-46.1	-60.8	3.6	1.51e+00	0	42	104	0	60	44596
2026-01-30 09:47:42.29	339.49	15.25	-46.1	-60.9	3.6	1.51e+00	0	42	104	0	60	44768
2026-01-30 09:47:45.31	339.57	14.83	-46.1	-60.8	3.6	1.51e+00	0	42	104	0	60	44574
2026-01-30 09:47:48.34	339.65	14.42	-46.1	-60.8	3.6	1.51e+00	0	42	104	0	60	44402
2026-01-30 09:47:51.37	339.72	14.03	-46.1	-60.8	3.6	1.51e+00	0	42	104	0	60	44636
2026-01-30 09:47:54.40	339.79	13.64	-46.1	-60.8	3.6	1.51e+00	0	42	104	0	60	44598
2026-01-30 09:47:57.42	339.86	13.25	-46.1	-60.8	3.6	1.51e+00	0	42	104	0	60	44710
2026-01-30 09:48:00.45	339.93	12.88	-46.0	-60.8	3.6	1.51e+00	0	42	104	0	60	44512
2026-01-30 09:48:03.48	340.00	12.51	-46.0	-60.8	3.6	1.51e+00	0	42	104	0	60	44320
2026-01-30 09:48:06.51	340.06	12.15	-46.1	-60.8	3.6	1.51e+00	0	42	104	0	60	44497
2026-01-30 09:48:09.54	340.12	11.80	-46.1	-60.8	3.6	1.51e+00	0	42	104	0	60	44366
2026-01-30 09:48:12.57	340.19	11.45	-46.0	-60.7	3.6	1.51e+00	0	42	104	0	60	44088
2026-01-30 09:48:15.60	340.25	11.11	-45.9	-60.6	3.6	1.51e+00	0	42	104	0	60	43672
2026-01-30 09:48:18.63	340.31	10.78	-46.0	-60.7	3.6	1.51e+00	0	42	104	0	60	44027
2026-01-30 09:48:21.66	340.37	10.45	-45.9	-60.7	3.6	1.51e+00	0	42	104	0	60	43794
2026-01-30 09:48:24.68	340.42	10.13	-46.0	-60.7	3.6	1.51e+00	0	42	104	0	60	43820
2026-01-30 09:48:27.71	340.48	9.81	-45.8	-60.5	3.6	1.51e+00	0	42	104	0	60	43171
2026-01-30 09:48:30.74	340.53	9.50	-45.7	-60.6	3.6	1.51e+00	0	42	104	0	60	43510
2026-01-30 09:48:33.77	340.59	9.19	-45.8	-60.5	3.6	1.51e+00	0	42	104	0	60	43196
2026-01-30 09:48:36.80	340.64	8.89	-45.8	-60.6	3.6	1.51e+00	0	42	104	0	60	43539
2026-01-30 09:48:39.83	340.69	8.60	-45.7	-60.4	3.6	1.51e+00	0	42	104	0	60	42548
2026-01-30 09:48:42.85	340.74	8.30	-45.8	-60.5	3.6	1.51e+00	0	42	104	0	60	42886
2026-01-30 09:48:45.88	340.79	8.02	-45.7	-60.5	3.6	1.51e+00	0	42	104	0	60	42742
2026-01-30 09:48:48.91	340.84	7.73	-45.8	-60.5	3.6	1.51e+00	0	42	104	0	60	42824
2026-01-30 09:48:51.94	340.89	7.45	-45.6	-60.3	3.6	1.51e+00	0	42	104	0	60	42084
2026-01-30 09:48:54.96	340.93	7.18	-45.7	-60.4	3.6	1.51e+00	0	42	104	0	60	42448
2026-01-30 09:48:57.99	340.98	6.91	-45.6	-60.3	3.6	1.51e+00	0	42	104	0	60	42027
2026-01-30 09:49:01.02	341.03	6.64	-45.7	-60.4	3.6	1.51e+00	0	42	104	0	60	42424
2026-01-30 09:49:04.05	341.07	6.38	-44.6	-59.4	3.6	1.51e+00	0	42	104	0	60	37845
2026-01-30 09:49:07.08	341.12	6.12	-44.3	-59.0	3.6	1.51e+00	0	42	104	0	60	36141
2026-01-30 09:49:10.11	341.16	5.86	-43.5	-58.3	3.6	1.51e+00	0	42	104	0	60	33166
2026-01-30 09:49:13.14	341.20	5.61	-43.2	-57.9	3.6	1.51e+00	0	42	104	0	60	31771
2026-01-30 09:49:16.17	341.24	5.36	-42.4	-57.0	3.6	1.51e+00	0	42	104	0	60	28793
2026-01-30 09:49:19.20	341.29	5.11	-44.3	-58.9	3.6	1.51e+00	0	42	104	0	60	35913
2026-01-30 09:49:22.23	341.33	4.87	-42.1	-56.8	3.6	1.51e+00	0	42	104	0	60	28099
2026-01-30 09:49:25.26	341.37	4.62	-42.1	-56.8	3.6	1.51e+00	0	42	104	0	60	27912
2026-01-30 09:49:28.29	341.41	4.39	-42.1	-56.8	3.6	1.51e+00	0	42	104	0	60	28092
2026-01-30 09:49:31.31	341.45	4.15	-41.9	-56.6	3.6	1.51e+00	0	42	104	0	60	27371
2026-01-30 09:49:34.33	341.48	3.92	-41.9	-56.6	3.6	1.51e+00	0	42	104	0	60	27306
2026-01-30 09:49:37.36	341.52	3.69	-41.9	-56.7	3.6	1.51e+00	0	42	104	0	60	27693
2026-01-30 09:49:40.39	341.56	3.46	-42.0	-56.7	3.6	1.51e+00	0	42	104	0	60	27643
2026-01-30 09:49:43.42	341.60	3.24	-42.1	-56.8	3.6	1.51e+00	0	42	104	0	58	31346
2026-01-30 09:49:46.45	341.63	3.01	-41.8	-56.5	3.6	1.51e+00	0	42	104	0	58	30352
2026-01-30 09:49:49.48	341.67	2.79	-45.9	-60.6	3.6	1.51e+00	0	42	104	0	60	43258
2026-01-30 09:49:52.51	341.71	2.57	-46.0	-61.0	3.6	1.51e+00	0	42	104	0	60	45356
2026-01-30 09:49:55.54	341.74	2.36	-46.5	-61.2	3.6	1.51e+00	0	42	104	0	60	46654
2026-01-30 09:49:58.57	341.78	2.14	-46.6	-61.3	3.6	1.51e+00	0	42	104	0	60	47187
2026-01-30 09:50:01.60	341.81	1.93	-46.6	-61.3	3.6	1.51e+00	0	42	104	0	60	47111
2026-01-30 09:50:04.63	341.85	1.72	-46.5	-61.3	3.6	1.51e+00	0	42	104	0	60	46982
2026-01-30 09:50:07.66	341.88	1.52	-46.2	-61.0	3.6	1.51e+00	0	42	104	0	60	45762
2026-01-30 09:50:10.69	341.91	1.31	-46.4	-61.1	3.6	1.51e+00	0	42	104	0	60	45921
2026-01-30 09:50:13.72	341.95	1.11	-46.4	-61.0	3.6	1.51e+00	0	42	104	0	60	45707
2026-01-30 09:50:16.75	341.98	0.90	-46.3	-61.0	3.6	1.51e+00	0	42	104	0	60	45671
2026-01-30 09:50:19.78	342.01	0.70	-46.3	-61.0	3.6	1.51e+00	0	42	104	0	60	45523
2026-01-30 09:50:22.81	342.05	0.51	-46.3	-61.0	3.6	1.51e+00	0	42	104	0	60	45502
2026-01-30 09:50:25.85	342.08	0.31	-46.3	-61.0	3.6	1.51e+00	0	42	104	0	60	45388
2026-01-30 09:50:28.87	342.11	0.11	-46.3	-61.0	3.6	1.51e+00	0	42	104	0	60	45286
2026-01-30 09:50:31.90	342.14	-0.08	-46.3	-61.0	3.6	1.51e+00	0	42	104	0	60	45615

#Closed at: 2026-01-30 09:50:32
#Recorded file [0 MB]: D:/lorett/data/35029_260130_213858.dat