passes_logs/2026/01/30/R4.6S_Anadyr/R4.6S_Anadyr__20260130_132313_SUOMI_NPP_rec.log

#Pass ID: 20260130_132313_SUOMI NPP
#Satellite: SUOMI NPP
#Configuration: NPP
#almurnet v.1.7.20251203
#Start time: 2026-01-30 13:23:14

#Version: 2.2.20231116
#Station: R4.6S_Anadyr
#Location: 177.4865 lon 64.73178 lat
#TLE: 1 37849U 11061A   26029.48304708  .00000140  00000+0  87283-4 0  9999
#TLE: 2 37849  98.7824 331.4079 0002024  38.4342 321.6978 14.19531488738761

#Time	Az	El	Level	Level2	SNR	BER	BlckErr	Temp	State	Recorded	gain1	gain2
2026-01-30 13:23:14.54	18.86	0.07	-49.5	-62.1	3.4	1.52e+00	0	38	0	0	60	44519
2026-01-30 13:23:18.58	19.05	0.30	-49.6	-64.8	3.6	1.51e+00	0	39	104	0	60	62621
2026-01-30 13:23:22.62	19.24	0.52	-49.6	-64.9	3.6	1.51e+00	0	40	104	0	60	63498
2026-01-30 13:23:26.66	19.43	0.75	-49.6	-64.7	3.6	1.51e+00	0	40	104	0	60	62318
2026-01-30 13:23:30.70	19.63	0.98	-49.3	-64.5	3.6	1.51e+00	0	40	104	0	60	60905
2026-01-30 13:23:34.74	19.83	1.21	-48.8	-64.1	3.6	1.51e+00	0	40	104	0	60	57841
2026-01-30 13:23:38.79	20.03	1.45	-48.1	-63.3	3.6	1.51e+00	0	40	104	0	60	52944
2026-01-30 13:23:42.82	20.24	1.68	-48.1	-63.2	3.6	1.51e+00	0	40	104	0	60	52067
2026-01-30 13:23:46.86	20.45	1.92	-48.1	-63.3	3.6	1.51e+00	0	40	104	0	60	52780
2026-01-30 13:23:50.90	20.66	2.16	-48.1	-63.3	3.6	1.51e+00	0	40	104	0	60	52953
2026-01-30 13:23:54.94	20.87	2.40	-48.1	-62.7	3.6	1.51e+00	0	40	104	0	60	49077
2026-01-30 13:23:58.98	21.09	2.64	-48.1	-62.8	3.6	1.51e+00	0	40	104	0	60	49935
2026-01-30 13:24:03.02	21.31	2.88	-45.8	-49.8	12.6	1.32e-03	0	40	0	3145728	60	11217
2026-01-30 13:24:07.06	21.54	3.13	-42.6	-44.5	17.6	0.00e+00	25	40	0	10485760	58	6838
2026-01-30 13:24:11.10	21.77	3.37	-44.4	-47.1	15.0	0.00e+00	45	40	0	17825792	60	8228
2026-01-30 13:24:15.14	22.00	3.62	-48.0	-63.0	3.6	7.18e-01	0	40	104	24117248	60	50808
2026-01-30 13:24:19.18	22.23	3.87	-43.7	-45.9	16.2	0.00e+00	0	40	0	28311552	60	7130
2026-01-30 13:24:23.22	22.47	4.13	-42.6	-44.4	17.9	0.00e+00	56	40	0	35651584	60	5988
2026-01-30 13:24:27.26	22.71	4.38	-42.3	-44.0	18.2	0.00e+00	0	40	0	44040192	58	6462
2026-01-30 13:24:31.29	22.96	4.64	-42.3	-44.0	18.5	0.00e+00	0	40	0	51380224	58	6414
2026-01-30 13:24:35.33	23.21	4.90	-42.0	-43.6	18.8	0.00e+00	0	40	0	58720256	58	6163
2026-01-30 13:24:39.37	23.47	5.16	-41.8	-43.4	19.1	0.00e+00	92	40	0	66060288	56	6732
2026-01-30 13:24:43.41	23.73	5.42	-41.5	-43.0	19.5	0.00e+00	0	41	0	73400320	56	6405
2026-01-30 13:24:47.45	23.99	5.69	-41.6	-43.0	19.5	0.00e+00	0	41	0	81788928	56	6464
2026-01-30 13:24:51.49	24.26	5.95	-41.3	-42.7	19.7	0.00e+00	0	40	0	89128960	56	6189
2026-01-30 13:24:55.53	24.53	6.22	-41.5	-42.9	19.7	0.00e+00	91	40	0	96468992	56	6383
2026-01-30 13:24:59.56	24.81	6.50	-41.2	-42.5	20.0	0.00e+00	0	40	0	103809024	56	6100
2026-01-30 13:25:03.60	25.09	6.77	-41.0	-42.3	20.2	0.00e+00	0	41	0	112197632	56	5908
2026-01-30 13:25:07.65	25.38	7.05	-41.1	-42.5	20.1	0.00e+00	14	40	0	119537664	56	6046
2026-01-30 13:25:11.68	25.67	7.33	-40.9	-42.2	20.4	0.00e+00	0	41	0	126877696	54	6608
2026-01-30 13:25:15.72	25.97	7.61	-40.3	-41.5	21.0	0.00e+00	0	41	0	134217728	54	6053
2026-01-30 13:25:19.76	26.27	7.89	-40.2	-41.3	21.1	0.00e+00	0	41	0	141557760	54	5955
2026-01-30 13:25:23.80	26.58	8.18	-39.9	-41.1	21.4	0.00e+00	60	41	0	149946368	52	6485
2026-01-30 13:25:27.83	26.89	8.47	-39.8	-40.9	21.5	0.00e+00	0	41	0	157286400	52	6374
2026-01-30 13:25:31.88	27.21	8.76	-39.5	-40.6	21.8	0.00e+00	0	40	0	164626432	52	6161
2026-01-30 13:25:35.92	27.54	9.06	-39.3	-40.4	22.1	0.00e+00	0	41	0	171966464	52	5981
2026-01-30 13:25:39.96	27.87	9.36	-39.2	-40.2	22.2	0.00e+00	65	41	0	180355072	52	5870
2026-01-30 13:25:44.00	28.21	9.66	-39.0	-40.0	22.4	0.00e+00	0	41	0	187695104	52	5759
2026-01-30 13:25:48.04	28.56	9.96	-38.7	-39.6	22.7	0.00e+00	0	41	0	195035136	50	6143
2026-01-30 13:25:52.08	28.91	10.27	-38.7	-39.6	22.7	0.00e+00	41	41	0	202375168	50	6161
2026-01-30 13:25:56.11	29.27	10.58	-39.2	-40.2	22.3	0.00e+00	33	40	0	209715200	50	6580
2026-01-30 13:26:00.15	29.64	10.89	-39.4	-40.5	22.0	0.00e+00	0	41	0	218103808	50	6796
2026-01-30 13:26:04.19	30.01	11.21	-38.9	-40.0	22.4	0.00e+00	0	41	0	225443840	50	6395
2026-01-30 13:26:08.23	30.40	11.52	-38.8	-39.8	22.5	0.00e+00	21	41	0	232783872	50	6275
2026-01-30 13:26:12.27	30.79	11.85	-38.4	-39.3	23.0	0.00e+00	0	41	0	240123904	50	5953
2026-01-30 13:26:16.30	31.19	12.17	-38.0	-38.9	23.1	0.00e+00	0	41	0	248512512	50	5660
2026-01-30 13:26:20.34	31.59	12.50	-38.3	-39.3	23.1	0.00e+00	0	41	0	255852544	50	5914
2026-01-30 13:26:24.38	32.01	12.83	-38.5	-39.4	23.0	0.00e+00	74	41	0	263192576	50	6026
2026-01-30 13:26:28.41	32.43	13.16	-38.6	-39.6	22.7	0.00e+00	0	41	0	270532608	50	6143
2026-01-30 13:26:32.45	32.87	13.50	-38.9	-39.9	22.6	0.00e+00	0	41	0	277872640	50	6356
2026-01-30 13:26:36.49	33.31	13.84	-38.7	-39.7	22.7	0.00e+00	0	41	0	286261248	50	6198
2026-01-30 13:26:40.52	33.77	14.18	-38.2	-39.1	23.3	0.00e+00	44	41	0	293601280	50	5799
2026-01-30 13:26:44.57	34.23	14.53	-38.4	-39.4	23.1	0.00e+00	0	41	0	300941312	50	5967
2026-01-30 13:26:48.61	34.71	14.88	-38.9	-40.0	22.6	0.00e+00	0	41	0	308281344	50	6392
2026-01-30 13:26:52.64	35.19	15.23	-39.3	-40.4	22.4	0.00e+00	64	41	0	315621376	50	6699
2026-01-30 13:26:56.68	35.69	15.59	-39.1	-40.1	22.5	0.00e+00	0	41	0	324009984	50	6523
2026-01-30 13:27:00.72	36.20	15.95	-39.2	-40.3	22.4	0.00e+00	0	41	0	331350016	50	6626
2026-01-30 13:27:04.75	36.72	16.32	-39.5	-40.6	22.1	0.00e+00	0	41	0	338690048	50	6894
2026-01-30 13:27:08.79	37.25	16.68	-39.7	-40.8	22.0	0.00e+00	63	41	0	346030080	52	6262
2026-01-30 13:27:12.83	37.80	17.05	-39.8	-40.9	22.1	0.00e+00	0	41	0	354418688	52	6362
2026-01-30 13:27:16.87	38.36	17.43	-39.3	-40.3	22.4	0.00e+00	0	41	0	361758720	52	5921
2026-01-30 13:27:20.91	38.93	17.80	-39.0	-39.9	22.5	0.00e+00	0	41	0	369098752	52	5676
2026-01-30 13:27:24.94	39.51	18.18	-38.7	-39.7	22.9	0.00e+00	76	41	0	376438784	50	6198
2026-01-30 13:27:28.98	40.11	18.57	-38.3	-39.2	23.3	0.00e+00	0	41	0	383778816	50	5836
2026-01-30 13:27:33.02	40.73	18.95	-38.0	-38.9	23.5	0.00e+00	0	41	0	392167424	50	5682
2026-01-30 13:27:37.06	41.36	19.34	-38.4	-39.3	23.2	0.00e+00	32	41	0	399507456	50	5944
2026-01-30 13:27:41.10	42.01	19.73	-38.1	-39.0	23.5	0.00e+00	42	41	0	406847488	50	5720
2026-01-30 13:27:45.14	42.67	20.12	-38.1	-39.0	23.4	0.00e+00	0	41	0	414187520	50	5732
2026-01-30 13:27:49.18	43.35	20.52	-38.1	-39.0	23.6	0.00e+00	0	41	0	422576128	50	5711
2026-01-30 13:27:53.22	44.05	20.92	-38.0	-38.9	23.5	0.00e+00	91	41	0	429916160	48	6328
2026-01-30 13:27:57.26	44.77	21.32	-38.0	-38.9	23.6	0.00e+00	0	41	0	437256192	48	6336
2026-01-30 13:28:01.30	45.50	21.72	-37.5	-38.3	23.0	0.00e+00	0	41	0	444596224	48	5949
2026-01-30 13:28:05.34	46.25	22.13	-37.1	-38.0	24.3	0.00e+00	0	41	0	451936256	48	5711
2026-01-30 13:28:09.38	47.02	22.53	-36.3	-37.1	24.9	0.00e+00	92	41	0	460324864	46	5776
2026-01-30 13:28:13.42	47.81	22.94	-36.2	-37.0	25.0	0.00e+00	0	41	0	467664896	46	5700
2026-01-30 13:28:17.46	48.63	23.35	-36.6	-37.4	24.6	0.00e+00	0	41	0	475004928	46	5994
2026-01-30 13:28:21.50	49.46	23.76	-37.4	-38.3	24.1	0.00e+00	0	41	0	482344960	46	6623
2026-01-30 13:28:25.54	50.31	24.17	-37.3	-38.2	24.2	0.00e+00	90	41	0	490733568	46	6541
2026-01-30 13:28:29.58	51.19	24.57	-37.3	-38.1	24.2	0.00e+00	0	41	0	498073600	46	6502
2026-01-30 13:28:33.60	52.09	24.98	-37.3	-38.1	24.2	0.00e+00	0	41	0	505413632	46	6523
2026-01-30 13:28:37.65	53.01	25.39	-37.4	-38.3	24.0	0.00e+00	61	41	0	512753664	46	6631
2026-01-30 13:28:41.69	53.96	25.79	-37.5	-38.3	24.0	0.00e+00	0	41	0	520093696	48	5960
2026-01-30 13:28:45.73	54.92	26.20	-37.6	-38.4	23.5	0.00e+00	0	41	0	528482304	48	5996
2026-01-30 13:28:49.77	55.92	26.60	-38.7	-39.7	22.9	0.00e+00	0	41	0	535822336	48	6954
2026-01-30 13:28:53.81	56.94	26.99	-39.0	-40.0	22.6	0.00e+00	92	41	0	543162368	50	6419
2026-01-30 13:28:57.85	57.98	27.39	-38.4	-39.3	23.2	0.00e+00	0	41	0	550502400	50	5944
2026-01-30 13:29:01.88	59.05	27.77	-38.9	-39.9	22.9	0.00e+00	0	41	0	558891008	50	6360
2026-01-30 13:29:05.92	60.14	28.16	-39.7	-40.7	22.2	0.00e+00	0	41	0	566231040	52	6242
2026-01-30 13:29:09.95	61.26	28.53	-39.6	-40.6	22.3	0.00e+00	58	41	0	573571072	52	6166
2026-01-30 13:29:13.98	62.40	28.90	-39.6	-40.6	22.2	0.00e+00	0	41	0	580911104	52	6145
2026-01-30 13:29:18.03	63.58	29.27	-39.5	-40.5	22.4	0.00e+00	0	41	0	588251136	52	6074
2026-01-30 13:29:22.06	64.77	29.62	-40.1	-41.2	21.8	0.00e+00	22	41	0	596639744	52	6582
2026-01-30 13:29:26.11	66.00	29.96	-40.1	-41.2	21.8	0.00e+00	0	41	0	603979776	54	5867
2026-01-30 13:29:30.14	67.25	30.30	-40.3	-41.5	21.4	0.00e+00	33	41	0	611319808	52	6784
2026-01-30 13:29:34.18	68.52	30.62	-41.7	-43.0	20.3	0.00e+00	0	41	0	618659840	54	7232
2026-01-30 13:29:38.22	69.82	30.93	-40.0	-41.0	22.1	0.00e+00	74	41	0	627048448	54	5750
2026-01-30 13:29:42.26	71.15	31.23	-41.5	-42.8	20.5	0.00e+00	0	41	0	634388480	54	7077
2026-01-30 13:29:46.30	72.50	31.52	-41.1	-42.3	21.0	0.00e+00	0	41	0	641728512	56	5933
2026-01-30 13:29:50.34	73.87	31.79	-39.3	-40.3	22.5	0.00e+00	0	41	0	649068544	52	5914
2026-01-30 13:29:54.38	75.26	32.04	-40.7	-41.9	21.2	0.00e+00	92	41	0	656408576	52	7127
2026-01-30 13:29:58.41	76.67	32.28	-40.3	-41.4	21.7	0.00e+00	0	41	0	664797184	52	6725
2026-01-30 13:30:02.45	78.11	32.50	-39.9	-40.9	22.1	0.00e+00	0	41	0	672137216	52	6376
2026-01-30 13:30:06.49	79.56	32.70	-42.9	-44.5	18.9	0.00e+00	0	41	0	679477248	58	6825
2026-01-30 13:30:10.53	81.03	32.88	-41.2	-42.4	20.8	0.00e+00	70	41	0	686817280	56	6027
2026-01-30 13:30:14.56	82.52	33.04	-40.4	-41.5	21.6	0.00e+00	0	41	0	695205888	54	6085
2026-01-30 13:30:18.60	84.02	33.19	-40.8	-42.0	21.2	0.00e+00	0	41	0	702545920	54	6393
2026-01-30 13:30:22.64	85.53	33.31	-40.2	-41.4	21.6	0.00e+00	72	41	0	709885952	54	5965
2026-01-30 13:30:26.68	87.05	33.41	-40.7	-41.9	21.3	0.00e+00	0	41	0	717225984	54	6331
2026-01-30 13:30:30.71	88.58	33.49	-41.6	-43.0	20.2	0.00e+00	0	41	0	724566016	54	7190
2026-01-30 13:30:34.75	90.11	33.54	-41.1	-42.3	21.0	0.00e+00	0	41	0	732954624	56	5954
2026-01-30 13:30:38.79	91.66	33.58	-40.4	-41.5	21.7	0.00e+00	68	41	0	740294656	54	6066
2026-01-30 13:30:42.83	93.20	33.59	-41.9	-43.3	20.0	0.00e+00	0	41	0	747634688	54	7475
2026-01-30 13:30:46.87	94.74	33.58	-41.6	-42.9	20.3	0.00e+00	0	41	0	754974720	56	6389
2026-01-30 13:30:50.90	96.28	33.54	-38.3	-39.1	23.4	0.00e+00	73	41	0	763363328	50	5817
2026-01-30 13:30:54.94	97.82	33.49	-40.4	-41.6	21.6	0.00e+00	91	41	0	770703360	52	6866
2026-01-30 13:30:58.97	99.35	33.41	-42.3	-43.8	19.5	0.00e+00	0	41	0	778043392	56	7084
2026-01-30 13:31:03.01	100.87	33.31	-40.1	-41.2	21.9	0.00e+00	0	41	0	785383424	54	5854
2026-01-30 13:31:07.04	102.38	33.18	-39.7	-40.8	22.3	0.00e+00	0	41	0	792723456	54	5580
2026-01-30 13:31:11.08	103.88	33.04	-40.2	-41.3	21.7	0.00e+00	0	41	0	801112064	52	6643
2026-01-30 13:31:15.12	105.37	32.88	-40.0	-41.0	21.9	0.00e+00	0	41	0	808452096	52	6449
2026-01-30 13:31:19.15	106.84	32.69	-39.7	-40.7	22.2	0.00e+00	0	41	0	815792128	54	5560
2026-01-30 13:31:23.19	108.29	32.49	-39.6	-40.6	22.3	0.00e+00	64	41	0	823132160	52	6134
2026-01-30 13:31:27.23	109.73	32.27	-39.0	-40.0	23.0	0.00e+00	0	41	0	830472192	52	5700
2026-01-30 13:31:31.27	111.15	32.03	-39.8	-40.8	22.3	0.00e+00	0	41	0	838860800	52	6306
2026-01-30 13:31:35.31	112.54	31.77	-38.7	-39.6	23.1	0.00e+00	0	41	0	846200832	50	6146
2026-01-30 13:31:39.34	113.91	31.50	-37.2	-38.1	24.3	0.00e+00	92	41	0	853540864	48	5764
2026-01-30 13:31:43.38	115.26	31.22	-38.3	-39.2	23.4	0.00e+00	0	41	0	860880896	48	6549
2026-01-30 13:31:47.42	116.59	30.92	-38.6	-39.6	23.1	0.00e+00	0	41	0	869269504	48	6875
2026-01-30 13:31:51.46	117.89	30.60	-37.5	-38.3	24.1	0.00e+00	4	41	0	876609536	48	5956
2026-01-30 13:31:55.50	119.17	30.28	-38.9	-39.9	22.9	0.00e+00	65	41	0	883949568	50	6345
2026-01-30 13:31:59.54	120.42	29.94	-39.1	-40.0	22.7	0.00e+00	0	41	0	891289600	50	6457
2026-01-30 13:32:03.58	121.65	29.59	-38.3	-39.2	23.3	0.00e+00	0	41	0	898629632	50	5852
2026-01-30 13:32:07.61	122.85	29.24	-39.4	-40.4	22.4	0.00e+00	25	41	0	907018240	50	6766
2026-01-30 13:32:11.64	124.02	28.88	-38.1	-39.0	23.6	0.00e+00	0	41	0	914358272	50	5709
2026-01-30 13:32:15.68	125.17	28.50	-39.0	-40.0	22.8	0.00e+00	0	41	0	921698304	50	6398
2026-01-30 13:32:19.72	126.29	28.12	-40.0	-41.1	22.0	0.00e+00	0	41	0	929038336	52	6471
2026-01-30 13:32:23.76	127.39	27.74	-39.1	-40.1	22.7	0.00e+00	67	41	0	937426944	52	5772
2026-01-30 13:32:27.80	128.46	27.35	-40.6	-41.8	21.3	0.00e+00	0	41	0	944766976	52	7020
2026-01-30 13:32:31.84	129.50	26.95	-39.8	-40.9	22.1	0.00e+00	0	41	0	952107008	54	5632
2026-01-30 13:32:35.88	130.52	26.55	-41.0	-42.4	20.7	0.00e+00	0	41	0	959447040	54	6744
2026-01-30 13:32:39.92	131.52	26.15	-40.2	-41.3	21.6	0.00e+00	92	41	0	966787072	54	5964
2026-01-30 13:32:43.95	132.49	25.75	-42.6	-44.3	19.1	0.00e+00	33	41	0	975175680	58	6664
2026-01-30 13:32:47.99	133.44	25.34	-39.7	-40.7	22.1	0.00e+00	0	41	0	982515712	52	6244
2026-01-30 13:32:52.04	134.36	24.93	-40.7	-42.0	21.1	0.00e+00	5	41	0	989855744	54	6421
2026-01-30 13:32:56.07	135.26	24.52	-39.6	-40.7	22.1	0.00e+00	0	41	0	997195776	52	6214
2026-01-30 13:33:00.11	136.14	24.11	-41.1	-42.4	20.7	0.00e+00	0	41	0	1005584384	54	6730
2026-01-30 13:33:04.15	136.99	23.70	-38.8	-39.8	22.9	0.00e+00	0	41	0	1012924416	50	6248
2026-01-30 13:33:08.19	137.83	23.29	-39.3	-40.3	22.5	0.00e+00	92	41	0	1020264448	50	6633
2026-01-30 13:33:12.23	138.64	22.88	-37.1	-37.9	24.3	0.00e+00	0	41	0	1027604480	48	5636
2026-01-30 13:33:16.26	139.43	22.47	-38.4	-39.3	23.2	0.00e+00	0	41	0	1034944512	48	6674
2026-01-30 13:33:20.30	140.20	22.06	-38.3	-39.3	23.3	0.00e+00	0	41	0	1043333120	50	5923
2026-01-30 13:33:24.34	140.96	21.65	-37.7	-38.5	23.8	0.00e+00	92	41	0	1050673152	48	6093
2026-01-30 13:33:28.37	141.69	21.25	-37.9	-38.8	23.7	0.00e+00	0	41	0	1058013184	48	6271
2026-01-30 13:33:32.41	142.40	20.84	-37.4	-38.3	24.0	0.00e+00	0	41	0	1065353216	48	5916
2026-01-30 13:33:36.44	143.10	20.44	-37.3	-38.2	24.0	0.00e+00	0	41	0	1072693248	48	5833
2026-01-30 13:33:40.48	143.78	20.05	-37.9	-38.8	23.5	0.00e+00	92	41	0	1081081856	48	6280
2026-01-30 13:33:44.52	144.44	19.65	-37.4	-38.2	23.9	0.00e+00	0	41	0	1088421888	48	5887
2026-01-30 13:33:48.56	145.09	19.26	-37.1	-38.0	24.2	0.00e+00	0	41	0	1095761920	48	5724
2026-01-30 13:33:52.60	145.72	18.86	-37.1	-38.0	24.2	0.00e+00	61	41	0	1103101952	48	5713
2026-01-30 13:33:56.64	146.34	18.48	-36.9	-37.8	24.3	0.00e+00	0	41	0	1111490560	48	5587
2026-01-30 13:34:00.68	146.94	18.09	-37.3	-38.1	24.0	0.00e+00	0	41	0	1118830592	48	5795
2026-01-30 13:34:04.72	147.53	17.71	-38.6	-39.6	22.9	0.00e+00	0	41	0	1126170624	48	6901
2026-01-30 13:34:08.76	148.10	17.33	-39.8	-40.9	21.8	0.00e+00	92	41	0	1133510656	52	6379
2026-01-30 13:34:12.79	148.66	16.96	-39.9	-41.0	21.7	0.00e+00	0	41	0	1140850688	52	6446
2026-01-30 13:34:16.83	149.20	16.58	-38.7	-39.7	22.9	0.00e+00	0	41	0	1149239296	50	6194
2026-01-30 13:34:20.87	149.73	16.21	-38.8	-39.7	22.8	0.00e+00	17	41	0	1156579328	50	6232
2026-01-30 13:34:24.90	150.25	15.85	-39.5	-40.6	22.1	0.00e+00	92	41	0	1163919360	50	6870
2026-01-30 13:34:28.94	150.76	15.49	-39.0	-40.0	22.6	0.00e+00	0	41	0	1171259392	50	6453
2026-01-30 13:34:32.98	151.26	15.13	-38.1	-39.0	23.3	0.00e+00	0	41	0	1179648000	50	5726
2026-01-30 13:34:37.01	151.74	14.77	-38.3	-39.2	23.1	0.00e+00	25	41	0	1186988032	50	5870
2026-01-30 13:34:41.05	152.21	14.42	-38.6	-39.6	22.8	0.00e+00	0	41	0	1194328064	50	6143
2026-01-30 13:34:45.09	152.68	14.07	-38.4	-39.3	23.1	0.00e+00	0	41	0	1201668096	50	5959
2026-01-30 13:34:49.13	153.13	13.72	-38.4	-39.3	22.8	0.00e+00	0	41	0	1209008128	50	5940
2026-01-30 13:34:53.17	153.57	13.38	-39.7	-40.9	21.3	0.00e+00	92	41	0	1217396736	50	7097
2026-01-30 13:34:57.20	154.01	13.04	-41.4	-43.0	19.0	0.00e+00	0	41	0	1224736768	54	7216
2026-01-30 13:35:01.24	154.43	12.71	-42.5	-44.4	17.5	0.00e+00	0	41	0	1232076800	56	7538
2026-01-30 13:35:05.28	154.84	12.37	-42.7	-44.7	17.3	0.00e+00	0	41	0	1239416832	58	6990
2026-01-30 13:35:09.32	155.25	12.04	-42.3	-44.2	18.0	0.00e+00	91	41	0	1247805440	58	6570
2026-01-30 13:35:13.36	155.65	11.72	-41.8	-43.3	19.0	0.00e+00	0	41	0	1255145472	56	6686
2026-01-30 13:35:17.40	156.04	11.39	-41.1	-42.5	20.1	0.00e+00	0	41	0	1262485504	56	6065
2026-01-30 13:35:21.43	156.42	11.07	-40.3	-41.5	20.9	0.00e+00	0	41	0	1269825536	54	6094
2026-01-30 13:35:25.47	156.79	10.76	-39.4	-40.4	22.0	0.00e+00	47	41	0	1277165568	52	6033
2026-01-30 13:35:29.51	157.16	10.44	-38.8	-39.8	22.4	0.00e+00	0	41	0	1285554176	52	5614
2026-01-30 13:35:33.54	157.51	10.13	-38.2	-39.1	23.0	0.00e+00	0	41	0	1292894208	50	5808
2026-01-30 13:35:37.58	157.86	9.82	-38.6	-39.6	22.6	0.00e+00	57	41	0	1300234240	50	6160
2026-01-30 13:35:41.62	158.21	9.52	-38.5	-39.4	22.7	0.00e+00	0	41	0	1307574272	50	6020
2026-01-30 13:35:45.66	158.55	9.22	-38.9	-39.9	22.3	0.00e+00	0	41	0	1315962880	50	6329
2026-01-30 13:35:49.69	158.88	8.92	-39.4	-40.4	22.0	0.00e+00	0	41	0	1323302912	50	6733
2026-01-30 13:35:53.73	159.20	8.62	-39.7	-40.8	21.5	0.00e+00	74	41	0	1330642944	52	6303
2026-01-30 13:35:57.76	159.52	8.33	-39.8	-40.9	21.5	0.00e+00	0	41	0	1337982976	52	6378
2026-01-30 13:36:01.80	159.83	8.04	-40.4	-41.6	20.9	0.00e+00	0	41	0	1345323008	52	6851
2026-01-30 13:36:05.84	160.14	7.75	-40.5	-41.8	20.6	0.00e+00	25	41	0	1353711616	54	6252
2026-01-30 13:36:09.88	160.44	7.46	-40.8	-42.1	20.3	0.00e+00	64	41	0	1361051648	54	6496
2026-01-30 13:36:13.91	160.73	7.18	-40.7	-41.9	20.5	0.00e+00	0	41	0	1368391680	54	6367
2026-01-30 13:36:17.95	161.02	6.90	-40.7	-42.0	20.4	0.00e+00	0	41	0	1375731712	54	6424
2026-01-30 13:36:21.99	161.31	6.62	-40.5	-41.8	20.5	0.00e+00	37	41	0	1383071744	54	6250
2026-01-30 13:36:26.03	161.59	6.34	-40.6	-41.9	20.5	0.00e+00	29	41	0	1391460352	54	6366
2026-01-30 13:36:30.07	161.86	6.07	-41.0	-42.3	20.1	0.00e+00	0	41	0	1398800384	54	6642
2026-01-30 13:36:34.10	162.13	5.80	-41.4	-42.8	19.6	0.00e+00	0	41	0	1406140416	54	7034
2026-01-30 13:36:38.14	162.39	5.53	-42.0	-43.6	18.9	0.00e+00	92	41	0	1413480448	56	6888
2026-01-30 13:36:42.18	162.65	5.26	-42.2	-43.8	18.8	0.00e+00	33	41	0	1421869056	56	7069
2026-01-30 13:36:46.22	162.91	5.00	-42.6	-44.4	17.9	0.00e+00	0	41	0	1429209088	58	6706
2026-01-30 13:36:50.26	163.16	4.73	-43.2	-45.2	17.1	0.00e+00	0	41	0	1436549120	58	7407
2026-01-30 13:36:54.29	163.41	4.47	-43.5	-45.7	16.7	0.00e+00	92	41	0	1443889152	58	7840
2026-01-30 13:36:58.33	163.65	4.22	-43.7	-45.9	16.6	0.00e+00	0	41	0	1451229184	60	7139
2026-01-30 13:37:02.36	163.89	3.96	-43.8	-46.2	16.4	0.00e+00	0	41	0	1459617792	60	7340
2026-01-30 13:37:06.39	164.13	3.71	-43.5	-45.7	16.5	0.00e+00	54	41	0	1466957824	60	6973
2026-01-30 13:37:10.42	164.36	3.46	-43.4	-45.6	16.5	0.00e+00	90	41	0	1474297856	60	6914
2026-01-30 13:37:14.46	164.59	3.20	-43.8	-46.3	15.9	0.00e+00	0	41	0	1481637888	60	7431
2026-01-30 13:37:18.50	164.81	2.96	-48.4	-63.6	3.6	1.51e+00	0	41	104	1487929344	60	54613
2026-01-30 13:37:22.54	165.03	2.71	-49.2	-64.4	3.6	1.51e+00	0	41	104	1487929344	60	59803
2026-01-30 13:37:26.59	165.25	2.46	-49.5	-64.7	3.6	1.51e+00	0	41	104	1487929344	60	62309
2026-01-30 13:37:30.63	165.46	2.22	-49.7	-64.9	3.6	1.51e+00	0	41	104	1487929344	60	63671
2026-01-30 13:37:34.67	165.68	1.98	-49.6	-64.8	3.5	1.51e+00	0	41	104	1487929344	60	62968
2026-01-30 13:37:38.71	165.88	1.74	-49.4	-64.8	3.6	1.51e+00	0	41	104	1487929344	60	62807
2026-01-30 13:37:42.75	166.09	1.50	-49.4	-64.7	3.6	1.51e+00	0	41	104	1487929344	60	62417
2026-01-30 13:37:46.79	166.29	1.27	-49.4	-64.8	3.6	1.51e+00	0	41	104	1487929344	60	62481
2026-01-30 13:37:50.83	166.49	1.03	-49.4	-64.7	3.6	1.51e+00	0	41	104	1487929344	60	62371
2026-01-30 13:37:54.87	166.68	0.80	-49.4	-64.7	3.6	1.51e+00	0	41	104	1487929344	60	62045
2026-01-30 13:37:58.91	166.88	0.57	-49.4	-64.7	3.6	1.51e+00	0	41	104	1487929344	60	62260
2026-01-30 13:38:02.95	167.07	0.34	-49.4	-64.7	3.6	1.51e+00	0	41	104	1487929344	60	61842
2026-01-30 13:38:06.99	167.26	0.11	-49.4	-64.7	3.6	1.51e+00	0	41	104	1487929344	60	62237

#Closed at: 2026-01-30 13:38:10
#Recorded file [1487 MB]: D:/lorett/data/35029_260131_012314.dat