passes_logs/2026/01/30/R4.6S_Anadyr/R4.6S_Anadyr__20260130_033142_AQUA_rec.log

#Pass ID: 20260130_033142_AQUA
#Satellite: AQUA
#Configuration: AQUA
#almurnet v.1.7.20251203
#Start time: 2026-01-30 03:31:44

#Version: 2.2.20231116
#Station: R4.6S_Anadyr
#Location: 177.4865 lon 64.73178 lat
#TLE: 1 27424U 02022A   26029.54575153  .00001738  00000+0  35736-3 0  9994
#TLE: 2 27424  98.4104 356.2197 0001804  61.7823  56.0643 14.61874165263019

#Time	Az	El	Level	Level2	SNR	BER	BlckErr	Temp	State	Recorded	gain1	gain2
2026-01-30 03:31:44.69	198.21	0.15	-49.6	-64.6	3.6	1.51e+00	0	36	0	0	60	61293
2026-01-30 03:31:47.71	198.38	0.32	-50.1	-67.9	3.5	3.02e+01	0	38	104	0	60	95783
2026-01-30 03:31:50.75	198.56	0.49	-50.1	-67.9	3.5	3.02e+01	0	38	104	0	60	95651
2026-01-30 03:31:53.77	198.75	0.67	-50.1	-68.0	3.5	3.02e+01	0	38	104	0	60	96170
2026-01-30 03:31:56.81	198.93	0.84	-50.1	-67.9	3.5	3.02e+01	0	38	104	0	60	95907
2026-01-30 03:31:59.84	199.12	1.02	-50.1	-67.9	3.5	3.02e+01	0	38	104	0	60	96095
2026-01-30 03:32:02.86	199.30	1.20	-50.1	-68.0	3.5	3.02e+01	0	38	104	0	60	96199
2026-01-30 03:32:05.89	199.50	1.37	-50.1	-67.9	3.5	3.02e+01	0	38	104	0	60	95941
2026-01-30 03:32:08.92	199.69	1.55	-50.1	-67.9	3.5	3.02e+01	0	38	104	0	60	96067
2026-01-30 03:32:11.96	199.88	1.73	-50.1	-67.9	3.5	3.02e+01	0	38	104	0	60	96019
2026-01-30 03:32:14.99	200.08	1.92	-50.1	-67.9	3.5	3.02e+01	0	38	104	0	60	95833
2026-01-30 03:32:18.02	200.28	2.10	-50.1	-68.0	3.5	3.02e+01	0	38	104	0	60	96223
2026-01-30 03:32:21.05	200.49	2.28	-50.1	-67.9	3.5	3.02e+01	0	38	104	0	60	95851
2026-01-30 03:32:24.08	200.69	2.47	-50.1	-67.9	3.5	3.02e+01	0	38	104	0	60	96018
2026-01-30 03:32:27.11	200.90	2.65	-50.1	-67.9	3.5	3.02e+01	0	38	104	0	60	95834
2026-01-30 03:32:30.14	201.11	2.84	-50.1	-68.0	3.5	3.02e+01	0	38	104	0	60	96256
2026-01-30 03:32:33.17	201.33	3.03	-50.1	-67.9	3.5	3.02e+01	0	38	104	0	60	95625
2026-01-30 03:32:36.20	201.55	3.21	-50.1	-68.0	3.5	3.02e+01	0	38	104	0	60	96316
2026-01-30 03:32:39.23	201.77	3.40	-50.1	-67.9	3.5	3.02e+01	0	38	104	0	60	95701
2026-01-30 03:32:42.27	201.99	3.60	-50.1	-68.0	3.5	3.02e+01	0	38	104	0	60	96211
2026-01-30 03:32:45.30	202.22	3.79	-50.1	-68.0	3.5	3.02e+01	0	38	104	0	60	96144
2026-01-30 03:32:48.33	202.45	3.98	-50.1	-68.0	3.5	3.02e+01	0	38	104	0	60	96170
2026-01-30 03:32:51.36	202.68	4.18	-50.1	-67.9	3.5	3.02e+01	0	38	104	0	60	95479
2026-01-30 03:32:54.39	202.91	4.37	-50.1	-67.9	3.5	3.02e+01	0	39	104	0	60	95415
2026-01-30 03:32:57.42	203.15	4.57	-50.1	-68.0	3.5	3.02e+01	0	39	104	0	60	96626
2026-01-30 03:33:00.45	203.40	4.77	-50.1	-67.9	3.5	3.02e+01	0	38	104	0	60	95971
2026-01-30 03:33:03.48	203.64	4.97	-50.1	-68.0	3.5	3.02e+01	0	38	104	0	60	96184
2026-01-30 03:33:06.51	203.89	5.17	-50.1	-67.9	3.5	3.02e+01	0	39	104	0	60	95743
2026-01-30 03:33:09.54	204.14	5.37	-50.1	-67.9	3.5	3.02e+01	0	38	104	0	60	96084
2026-01-30 03:33:12.57	204.40	5.57	-50.1	-68.0	3.5	3.02e+01	0	39	104	0	60	96130
2026-01-30 03:33:15.60	204.66	5.78	-50.1	-67.9	3.5	3.02e+01	0	39	104	0	60	95972
2026-01-30 03:33:18.64	204.93	5.99	-50.1	-68.0	3.5	3.02e+01	0	39	104	0	60	96173
2026-01-30 03:33:21.67	205.20	6.19	-50.1	-68.0	3.5	3.02e+01	0	39	104	0	60	96374
2026-01-30 03:33:24.70	205.47	6.40	-50.1	-67.9	3.5	3.02e+01	0	39	104	0	60	96065
2026-01-30 03:33:27.73	205.74	6.61	-50.1	-68.0	3.5	3.02e+01	0	39	104	0	60	96490
2026-01-30 03:33:30.76	206.03	6.82	-50.1	-67.9	3.5	3.02e+01	0	39	104	0	60	95835
2026-01-30 03:33:33.79	206.31	7.04	-50.1	-68.0	3.5	3.02e+01	0	39	104	0	60	96351
2026-01-30 03:33:36.82	206.60	7.25	-50.1	-67.9	3.5	3.02e+01	0	39	104	0	60	95835
2026-01-30 03:33:39.85	206.89	7.47	-50.1	-67.9	3.5	3.02e+01	0	39	104	0	60	96084
2026-01-30 03:33:42.88	207.19	7.69	-50.1	-68.0	3.5	3.02e+01	0	39	104	0	60	96264
2026-01-30 03:33:45.91	207.50	7.90	-50.1	-68.0	3.5	3.02e+01	0	39	104	0	60	96365
2026-01-30 03:33:48.94	207.80	8.13	-50.1	-67.9	3.5	3.02e+01	0	39	104	0	60	96066
2026-01-30 03:33:51.98	208.12	8.35	-50.1	-67.9	3.5	3.02e+01	0	39	104	0	60	95989
2026-01-30 03:33:55.01	208.44	8.57	-50.1	-67.9	3.5	3.02e+01	0	39	104	0	60	95960
2026-01-30 03:33:58.04	208.76	8.80	-50.1	-67.9	3.5	3.02e+01	0	39	104	0	60	96016
2026-01-30 03:34:01.07	209.09	9.02	-50.1	-67.9	3.5	3.02e+01	0	39	104	0	60	95736
2026-01-30 03:34:04.10	209.42	9.25	-50.1	-68.0	3.5	3.02e+01	0	39	104	0	60	96357
2026-01-30 03:34:07.13	209.76	9.48	-50.1	-67.9	3.5	3.02e+01	0	39	104	0	60	95800
2026-01-30 03:34:10.16	210.11	9.71	-50.1	-68.0	3.5	3.02e+01	0	39	104	0	60	96174
2026-01-30 03:34:13.19	210.46	9.94	-50.1	-68.0	3.5	3.02e+01	0	39	104	0	60	96200
2026-01-30 03:34:16.22	210.81	10.18	-50.1	-67.9	3.5	3.02e+01	0	39	104	0	60	96084
2026-01-30 03:34:19.25	211.17	10.41	-50.1	-68.0	3.5	3.02e+01	0	39	104	0	60	96318
2026-01-30 03:34:22.28	211.54	10.65	-50.1	-67.9	3.5	3.02e+01	0	39	104	0	60	95930
2026-01-30 03:34:25.31	211.92	10.89	-50.1	-67.9	3.5	3.02e+01	0	39	104	0	60	95942
2026-01-30 03:34:28.34	212.30	11.13	-50.1	-67.9	3.5	3.02e+01	0	39	104	0	60	95528
2026-01-30 03:34:31.37	212.69	11.37	-50.1	-68.0	3.5	3.02e+01	0	39	104	0	60	96410
2026-01-30 03:34:34.41	213.08	11.62	-50.1	-67.9	3.5	3.02e+01	0	39	104	0	60	95740
2026-01-30 03:34:37.44	213.49	11.86	-50.1	-68.0	3.5	3.02e+01	0	39	104	0	60	96338
2026-01-30 03:34:40.47	213.89	12.11	-50.1	-68.0	3.5	3.02e+01	0	39	104	0	60	96299
2026-01-30 03:34:43.50	214.31	12.36	-50.1	-67.9	3.5	3.02e+01	0	39	104	0	60	95972
2026-01-30 03:34:46.53	214.73	12.61	-50.1	-67.9	3.5	3.02e+01	0	39	104	0	60	96066
2026-01-30 03:34:49.56	215.16	12.86	-50.1	-67.9	3.5	3.02e+01	0	39	104	0	60	95898
2026-01-30 03:34:52.59	215.60	13.11	-50.1	-67.9	3.5	3.02e+01	0	39	104	0	60	96071
2026-01-30 03:34:55.62	216.05	13.37	-50.1	-67.9	3.5	3.02e+01	0	39	104	0	60	96002
2026-01-30 03:34:58.65	216.50	13.62	-50.1	-67.9	3.5	3.02e+01	0	39	104	0	60	95847
2026-01-30 03:35:01.68	216.97	13.88	-50.1	-67.9	3.5	3.02e+01	0	39	104	0	60	96087
2026-01-30 03:35:04.71	217.44	14.14	-50.1	-67.9	3.5	3.02e+01	0	39	104	0	60	95735
2026-01-30 03:35:07.74	217.92	14.40	-50.1	-68.0	3.5	3.02e+01	0	39	104	0	60	96191
2026-01-30 03:35:10.77	218.41	14.66	-50.1	-67.9	3.5	3.02e+01	0	39	104	0	60	95839
2026-01-30 03:35:13.80	218.90	14.92	-50.1	-67.9	3.5	3.02e+01	0	39	104	0	60	96034
2026-01-30 03:35:16.83	219.41	15.19	-50.1	-67.9	3.5	3.02e+01	0	39	104	0	60	96094
2026-01-30 03:35:19.86	219.93	15.45	-50.1	-68.0	3.5	3.02e+01	0	39	104	0	60	96149
2026-01-30 03:35:22.89	220.45	15.72	-50.1	-67.9	3.5	3.02e+01	0	39	104	0	60	96033
2026-01-30 03:35:25.92	220.99	15.98	-50.1	-67.9	3.5	3.02e+01	0	39	104	0	60	95907
2026-01-30 03:35:28.96	221.53	16.25	-50.1	-67.9	3.5	3.02e+01	0	39	104	0	60	95567
2026-01-30 03:35:31.99	222.09	16.52	-50.1	-67.9	3.5	3.02e+01	0	39	104	0	60	96105
2026-01-30 03:35:35.02	222.66	16.79	-50.1	-67.9	3.5	3.02e+01	0	39	104	0	60	96058
2026-01-30 03:35:38.05	223.23	17.06	-50.1	-68.0	3.5	3.02e+01	0	39	104	0	60	96291
2026-01-30 03:35:41.08	223.82	17.33	-50.1	-67.9	3.5	3.02e+01	0	39	104	0	60	95337
2026-01-30 03:35:44.11	224.42	17.60	-50.1	-68.0	3.5	3.02e+01	0	39	104	0	60	96460
2026-01-30 03:35:47.14	225.03	17.88	-50.1	-67.9	3.5	3.02e+01	0	39	104	0	60	95908
2026-01-30 03:35:50.17	225.65	18.15	-50.1	-68.0	3.5	3.02e+01	0	39	104	0	60	96329
2026-01-30 03:35:53.20	226.28	18.42	-50.1	-67.9	3.5	3.02e+01	0	39	104	0	60	96029
2026-01-30 03:35:56.23	226.93	18.69	-50.1	-67.9	3.5	3.02e+01	0	39	104	0	60	96042
2026-01-30 03:35:59.26	227.58	18.96	-50.1	-67.9	3.5	3.02e+01	0	39	104	0	60	95852
2026-01-30 03:36:02.29	228.25	19.24	-50.1	-68.0	3.5	3.02e+01	0	39	104	0	60	96374
2026-01-30 03:36:05.32	228.93	19.51	-50.1	-67.9	3.5	3.02e+01	0	39	104	0	60	95934
2026-01-30 03:36:08.35	229.63	19.78	-50.1	-67.9	3.5	3.02e+01	0	39	104	0	60	95680
2026-01-30 03:36:11.38	230.33	20.05	-50.1	-68.0	3.5	3.02e+01	0	39	104	0	60	96310
2026-01-30 03:36:14.41	231.05	20.32	-50.1	-68.0	3.5	3.02e+01	0	39	104	0	60	96154
2026-01-30 03:36:17.44	231.78	20.58	-50.1	-67.9	3.5	3.02e+01	0	39	104	0	60	96109
2026-01-30 03:36:20.47	232.53	20.85	-50.1	-68.0	3.5	3.02e+01	0	39	104	0	60	96193
2026-01-30 03:36:23.50	233.29	21.11	-50.1	-67.9	3.5	3.02e+01	0	39	104	0	60	96033
2026-01-30 03:36:26.53	234.06	21.38	-50.1	-67.9	3.5	3.02e+01	0	39	104	0	60	95987
2026-01-30 03:36:29.56	234.84	21.64	-50.1	-67.9	3.5	3.02e+01	0	39	104	0	60	95702
2026-01-30 03:36:32.59	235.64	21.90	-50.1	-67.9	3.5	3.02e+01	0	39	104	0	60	95901
2026-01-30 03:36:35.62	236.45	22.15	-50.1	-67.9	3.5	3.02e+01	0	39	104	0	60	95912
2026-01-30 03:36:38.65	237.28	22.40	-50.1	-68.0	3.5	3.02e+01	0	39	104	0	60	96260
2026-01-30 03:36:41.68	238.12	22.65	-50.1	-67.9	3.5	3.02e+01	0	39	104	0	60	95819
2026-01-30 03:36:44.71	238.97	22.90	-50.1	-67.9	3.5	3.02e+01	0	39	104	0	60	95695
2026-01-30 03:36:47.74	239.84	23.14	-50.1	-67.9	3.5	3.02e+01	0	39	104	0	60	95713
2026-01-30 03:36:50.77	240.72	23.38	-50.1	-68.0	3.5	3.02e+01	0	39	104	0	60	96225
2026-01-30 03:36:53.80	241.62	23.61	-50.1	-68.0	3.5	3.02e+01	0	39	104	0	60	96464
2026-01-30 03:36:56.83	242.53	23.84	-50.1	-67.9	3.5	3.02e+01	0	39	104	0	60	95862
2026-01-30 03:36:59.86	243.45	24.06	-50.1	-68.0	3.5	3.02e+01	0	39	104	0	60	96225
2026-01-30 03:37:02.89	244.38	24.28	-50.1	-67.9	3.5	3.02e+01	0	39	104	0	60	95995
2026-01-30 03:37:05.91	245.33	24.49	-50.1	-68.0	3.5	3.02e+01	0	39	104	0	60	96222
2026-01-30 03:37:08.94	246.29	24.70	-50.1	-67.9	3.5	3.02e+01	0	39	104	0	60	95570
2026-01-30 03:37:11.98	247.27	24.90	-50.1	-67.9	3.5	3.02e+01	0	39	104	0	60	95737
2026-01-30 03:37:15.01	248.25	25.09	-50.1	-67.9	3.5	3.02e+01	0	39	104	0	60	95782
2026-01-30 03:37:18.04	249.25	25.27	-50.1	-67.9	3.5	3.02e+01	0	39	104	0	60	96103
2026-01-30 03:37:21.07	250.26	25.45	-50.1	-67.9	3.6	3.02e+01	0	39	104	0	60	95733
2026-01-30 03:37:24.10	251.28	25.62	-50.1	-67.9	3.5	3.02e+01	0	39	104	0	60	95522
2026-01-30 03:37:27.13	252.31	25.78	-50.1	-67.9	3.5	3.02e+01	0	39	104	0	60	96099
2026-01-30 03:37:30.16	253.36	25.93	-50.1	-67.9	3.5	3.02e+01	0	39	104	0	60	95538
2026-01-30 03:37:33.19	254.41	26.08	-50.1	-67.9	3.5	3.02e+01	0	39	104	0	60	95663
2026-01-30 03:37:36.22	255.47	26.21	-50.1	-67.9	3.5	3.02e+01	0	39	104	0	60	95759
2026-01-30 03:37:39.26	256.55	26.34	-50.1	-67.9	3.4	3.02e+01	0	39	104	0	60	95763
2026-01-30 03:37:42.28	257.62	26.45	-50.1	-67.9	3.5	3.02e+01	0	39	104	0	60	95941
2026-01-30 03:37:45.32	258.71	26.56	-50.1	-67.9	3.5	3.02e+01	0	39	104	0	60	95991
2026-01-30 03:37:48.35	259.81	26.66	-50.1	-67.9	3.5	3.02e+01	0	39	104	0	60	95463
2026-01-30 03:37:51.38	260.91	26.74	-50.1	-67.9	3.5	3.02e+01	0	39	104	0	60	95682
2026-01-30 03:37:54.41	262.01	26.82	-50.1	-67.9	3.5	3.02e+01	0	39	104	0	60	95811
2026-01-30 03:37:57.44	263.12	26.88	-50.1	-67.9	3.5	3.02e+01	0	39	104	0	60	95400
2026-01-30 03:38:00.47	264.24	26.93	-50.1	-67.9	3.5	3.02e+01	0	39	104	0	60	95751
2026-01-30 03:38:03.50	265.36	26.97	-50.1	-67.9	3.5	3.02e+01	0	39	104	0	60	95986
2026-01-30 03:38:06.53	266.48	27.00	-50.1	-67.9	3.5	3.02e+01	0	39	104	0	60	95564
2026-01-30 03:38:09.56	267.60	27.02	-50.1	-67.9	3.5	3.02e+01	0	39	104	0	60	95877
2026-01-30 03:38:12.59	268.72	27.03	-50.1	-67.9	3.5	3.02e+01	0	39	104	0	60	95958
2026-01-30 03:38:15.62	269.84	27.03	-50.1	-67.9	3.5	3.02e+01	0	39	104	0	60	95429
2026-01-30 03:38:18.65	270.97	27.01	-50.1	-67.9	3.5	3.02e+01	0	39	104	0	60	95455
2026-01-30 03:38:21.68	272.09	26.99	-50.1	-67.9	3.5	3.02e+01	0	39	104	0	60	95353
2026-01-30 03:38:24.71	273.21	26.95	-50.1	-67.9	3.5	3.02e+01	0	39	104	0	60	95367
2026-01-30 03:38:27.74	274.32	26.90	-50.1	-67.9	3.5	3.02e+01	0	39	104	0	60	95085
2026-01-30 03:38:30.77	275.43	26.84	-50.1	-67.9	3.5	3.02e+01	0	39	104	0	60	95352
2026-01-30 03:38:33.81	276.54	26.77	-50.1	-67.9	3.5	3.02e+01	0	39	104	0	60	95729
2026-01-30 03:38:36.84	277.64	26.69	-50.1	-67.9	3.5	3.02e+01	0	39	104	0	60	95806
2026-01-30 03:38:39.87	278.74	26.60	-50.1	-67.9	3.5	3.02e+01	0	39	104	0	60	95774
2026-01-30 03:38:42.90	279.83	26.50	-50.1	-67.9	3.5	3.02e+01	0	39	104	0	60	95817
2026-01-30 03:38:45.93	280.91	26.39	-50.1	-67.9	3.5	3.02e+01	0	39	104	0	60	95986
2026-01-30 03:38:48.96	281.98	26.27	-50.1	-67.9	3.5	3.02e+01	0	39	104	0	60	95577
2026-01-30 03:38:51.99	283.04	26.14	-50.1	-67.9	3.5	3.02e+01	0	39	104	0	60	95974
2026-01-30 03:38:55.02	284.10	26.00	-50.1	-67.9	3.5	3.02e+01	0	39	104	0	60	95275
2026-01-30 03:38:58.05	285.14	25.85	-50.1	-67.9	3.5	3.02e+01	0	39	104	0	60	95764
2026-01-30 03:39:01.09	286.18	25.69	-50.1	-67.9	3.5	3.02e+01	0	39	104	0	60	95536
2026-01-30 03:39:04.11	287.20	25.53	-50.1	-67.8	3.5	3.02e+01	0	39	104	0	60	94976
2026-01-30 03:39:07.15	288.22	25.35	-50.1	-67.9	3.5	3.02e+01	0	39	104	0	60	95515
2026-01-30 03:39:10.18	289.22	25.17	-50.1	-67.8	3.5	3.02e+01	0	39	104	0	60	95002
2026-01-30 03:39:13.21	290.20	24.98	-50.1	-67.9	3.5	3.02e+01	0	39	104	0	60	95317
2026-01-30 03:39:16.24	291.18	24.79	-50.1	-67.9	3.5	3.02e+01	0	39	104	0	60	95548
2026-01-30 03:39:19.27	292.14	24.59	-50.1	-67.9	3.5	3.02e+01	0	39	104	0	60	95676
2026-01-30 03:39:22.30	293.09	24.38	-50.1	-67.9	3.5	3.02e+01	0	39	104	0	60	95661
2026-01-30 03:39:25.33	294.03	24.17	-50.1	-67.9	3.5	3.02e+01	0	39	104	0	60	95757
2026-01-30 03:39:28.36	294.96	23.95	-50.1	-68.0	3.5	3.02e+01	0	39	104	0	60	96407
2026-01-30 03:39:31.40	295.87	23.72	-50.1	-67.9	3.5	3.02e+01	0	39	104	0	60	95531
2026-01-30 03:39:34.42	296.76	23.49	-50.1	-67.9	3.5	3.02e+01	0	39	104	0	60	95708
2026-01-30 03:39:37.46	297.65	23.26	-50.1	-67.9	3.5	3.02e+01	0	39	104	0	60	95858
2026-01-30 03:39:40.49	298.52	23.02	-50.1	-67.9	3.5	3.02e+01	0	39	104	0	60	95541
2026-01-30 03:39:43.52	299.38	22.78	-50.1	-67.9	3.5	3.02e+01	0	39	104	0	60	95779
2026-01-30 03:39:46.55	300.22	22.53	-50.1	-67.9	3.5	3.02e+01	0	39	104	0	60	95832
2026-01-30 03:39:49.58	301.05	22.28	-50.1	-67.9	3.5	3.02e+01	0	39	104	0	60	95647
2026-01-30 03:39:52.61	301.86	22.03	-50.1	-67.9	3.5	3.02e+01	0	39	104	0	60	95364
2026-01-30 03:39:55.64	302.67	21.77	-50.1	-67.9	3.5	3.02e+01	0	39	104	0	60	95844
2026-01-30 03:39:58.67	303.45	21.52	-50.1	-67.9	3.5	3.02e+01	0	39	104	0	60	95309
2026-01-30 03:40:01.69	304.23	21.26	-50.1	-67.9	3.5	3.02e+01	0	39	104	0	60	95463
2026-01-30 03:40:04.72	304.99	20.99	-50.1	-67.9	3.5	3.02e+01	0	39	104	0	60	95385
2026-01-30 03:40:07.76	305.74	20.73	-50.1	-67.9	3.5	3.02e+01	0	39	104	0	60	95869
2026-01-30 03:40:10.79	306.47	20.47	-50.1	-67.9	3.5	3.02e+01	0	39	104	0	60	95719
2026-01-30 03:40:13.82	307.19	20.20	-50.1	-67.9	3.5	3.02e+01	0	39	104	0	60	95470
2026-01-30 03:40:16.85	307.90	19.93	-50.1	-67.9	3.5	3.02e+01	0	39	104	0	60	95458
2026-01-30 03:40:19.88	308.60	19.66	-50.1	-67.9	3.5	3.02e+01	0	39	104	0	60	95523
2026-01-30 03:40:22.91	309.28	19.39	-50.1	-67.9	3.5	3.02e+01	0	39	104	0	60	95148
2026-01-30 03:40:25.94	309.95	19.12	-50.1	-67.9	3.5	3.02e+01	0	39	104	0	60	95014
2026-01-30 03:40:28.97	310.61	18.85	-50.1	-67.9	3.5	3.02e+01	0	39	104	0	60	95710
2026-01-30 03:40:32.00	311.26	18.58	-50.1	-67.9	3.5	3.02e+01	0	39	104	0	60	95164
2026-01-30 03:40:35.03	311.89	18.31	-50.1	-67.9	3.5	3.02e+01	0	39	104	0	60	95081
2026-01-30 03:40:38.07	312.52	18.04	-50.1	-67.9	3.5	3.02e+01	0	39	104	0	60	95377
2026-01-30 03:40:41.09	313.13	17.77	-50.1	-67.9	3.5	3.02e+01	0	39	104	0	60	95683
2026-01-30 03:40:44.13	313.73	17.50	-50.1	-68.0	3.5	3.02e+01	0	39	104	0	60	96166
2026-01-30 03:40:47.16	314.32	17.23	-50.1	-67.9	3.5	3.02e+01	0	39	104	0	60	95910
2026-01-30 03:40:50.19	314.90	16.97	-50.1	-67.9	3.5	3.02e+01	0	39	104	0	60	95537
2026-01-30 03:40:53.22	315.47	16.70	-50.1	-67.9	3.5	3.02e+01	0	39	104	0	60	96021
2026-01-30 03:40:56.25	316.03	16.43	-50.1	-67.9	3.5	3.02e+01	0	39	104	0	60	95254
2026-01-30 03:40:59.28	316.58	16.17	-50.1	-67.9	3.5	3.02e+01	0	39	104	0	60	95326
2026-01-30 03:41:02.31	317.11	15.90	-50.1	-67.9	3.5	3.02e+01	0	39	104	0	60	95466
2026-01-30 03:41:05.35	317.64	15.63	-50.1	-67.9	3.5	3.02e+01	0	39	104	0	60	95786
2026-01-30 03:41:08.38	318.16	15.37	-50.1	-67.9	3.6	3.02e+01	0	39	104	0	60	95354
2026-01-30 03:41:11.41	318.67	15.11	-50.1	-67.9	3.5	3.02e+01	0	39	104	0	60	95865
2026-01-30 03:41:14.44	319.17	14.85	-50.1	-67.9	3.5	3.02e+01	0	39	104	0	60	95537
2026-01-30 03:41:17.46	319.66	14.59	-50.1	-67.9	3.5	3.02e+01	0	39	104	0	60	95601
2026-01-30 03:41:20.49	320.14	14.33	-50.1	-67.9	3.5	3.02e+01	0	39	104	0	60	95782
2026-01-30 03:41:23.52	320.62	14.07	-50.1	-67.9	3.5	3.02e+01	0	39	104	0	60	95858
2026-01-30 03:41:26.55	321.08	13.82	-50.1	-67.9	3.5	3.02e+01	0	39	104	0	60	95542
2026-01-30 03:41:29.59	321.54	13.56	-50.1	-67.9	3.5	3.02e+01	0	39	104	0	60	95450
2026-01-30 03:41:32.62	321.99	13.31	-50.1	-67.9	3.5	3.02e+01	0	39	104	0	60	95532
2026-01-30 03:41:35.65	322.43	13.06	-50.1	-67.9	3.5	3.02e+01	0	39	104	0	60	95689
2026-01-30 03:41:38.68	322.87	12.81	-50.1	-67.9	3.5	3.02e+01	0	39	104	0	60	95346
2026-01-30 03:41:41.71	323.29	12.56	-50.1	-67.9	3.5	3.02e+01	0	39	104	0	60	95727
2026-01-30 03:41:44.74	323.71	12.31	-50.1	-67.8	3.5	3.02e+01	0	39	104	0	60	94930
2026-01-30 03:41:47.77	324.12	12.07	-50.1	-67.9	3.5	3.02e+01	0	39	104	0	60	95289
2026-01-30 03:41:50.80	324.53	11.82	-50.1	-67.9	3.5	3.02e+01	0	39	104	0	60	95501
2026-01-30 03:41:53.83	324.92	11.58	-50.1	-67.9	3.5	3.02e+01	0	39	104	0	60	95147
2026-01-30 03:41:56.87	325.32	11.34	-50.1	-67.9	3.5	3.02e+01	0	39	104	0	60	95255
2026-01-30 03:41:59.90	325.70	11.10	-50.1	-67.9	3.5	3.02e+01	0	39	104	0	60	95436
2026-01-30 03:42:02.93	326.08	10.86	-50.1	-67.9	3.5	3.02e+01	0	39	104	0	60	95608
2026-01-30 03:42:05.96	326.45	10.62	-50.1	-67.9	3.5	3.02e+01	0	39	104	0	60	95175
2026-01-30 03:42:08.99	326.81	10.39	-50.1	-67.9	3.5	3.02e+01	0	39	104	0	60	95072
2026-01-30 03:42:12.02	327.17	10.16	-50.1	-67.9	3.5	3.02e+01	0	39	104	0	60	95559
2026-01-30 03:42:15.05	327.53	9.92	-50.1	-67.9	3.4	3.02e+01	0	39	104	0	60	95648
2026-01-30 03:42:18.08	327.87	9.69	-50.1	-67.9	3.5	3.02e+01	0	39	104	0	60	95119
2026-01-30 03:42:21.11	328.22	9.47	-50.1	-67.9	3.5	3.02e+01	0	39	104	0	60	95580
2026-01-30 03:42:24.14	328.55	9.24	-50.1	-67.9	3.5	3.02e+01	0	39	104	0	60	95428
2026-01-30 03:42:27.17	328.88	9.01	-50.1	-67.9	3.5	3.02e+01	0	39	104	0	60	95198
2026-01-30 03:42:30.20	329.21	8.79	-50.1	-67.9	3.5	3.02e+01	0	39	104	0	60	95296
2026-01-30 03:42:33.23	329.53	8.57	-50.1	-67.9	3.5	3.02e+01	0	39	104	0	60	95655
2026-01-30 03:42:36.27	329.85	8.34	-50.1	-67.9	3.5	3.02e+01	0	39	104	0	60	95697
2026-01-30 03:42:39.30	330.16	8.13	-50.1	-67.9	3.5	3.02e+01	0	39	104	0	60	95078
2026-01-30 03:42:42.33	330.46	7.91	-50.1	-67.9	3.5	3.02e+01	0	39	104	0	60	95053
2026-01-30 03:42:45.36	330.76	7.69	-50.1	-67.9	3.5	3.02e+01	0	39	104	0	60	95213
2026-01-30 03:42:48.39	331.06	7.48	-50.1	-67.9	3.5	3.02e+01	0	39	104	0	60	96068
2026-01-30 03:42:51.42	331.35	7.26	-50.1	-67.9	3.5	3.02e+01	0	39	104	0	60	95135
2026-01-30 03:42:54.45	331.64	7.05	-50.1	-67.9	3.5	3.02e+01	0	39	104	0	60	95514
2026-01-30 03:42:57.48	331.92	6.84	-50.1	-67.9	3.5	3.02e+01	0	39	104	0	60	95016
2026-01-30 03:43:00.51	332.20	6.63	-50.1	-67.9	3.5	3.02e+01	0	39	104	0	60	95120
2026-01-30 03:43:03.54	332.48	6.42	-50.1	-67.9	3.5	3.02e+01	0	39	104	0	60	95896
2026-01-30 03:43:06.57	332.75	6.21	-50.1	-67.9	3.5	3.02e+01	0	39	104	0	60	95458
2026-01-30 03:43:09.60	333.02	6.01	-50.1	-67.9	3.5	3.02e+01	0	39	104	0	60	95495
2026-01-30 03:43:12.63	333.28	5.80	-50.1	-67.9	3.5	3.02e+01	0	39	104	0	60	95449
2026-01-30 03:43:15.66	333.54	5.60	-50.0	-67.9	3.5	3.02e+01	0	39	104	0	60	95342
2026-01-30 03:43:18.69	333.80	5.40	-50.0	-67.9	3.5	3.02e+01	0	39	104	0	60	95297
2026-01-30 03:43:21.72	334.05	5.20	-50.1	-67.9	3.5	3.02e+01	0	39	104	0	60	95343
2026-01-30 03:43:24.75	334.30	5.00	-50.0	-67.9	3.5	3.02e+01	0	39	104	0	60	95573
2026-01-30 03:43:27.78	334.54	4.80	-50.0	-67.9	3.5	3.02e+01	0	39	104	0	60	95412
2026-01-30 03:43:30.81	334.79	4.61	-50.1	-67.9	3.5	3.02e+01	0	39	104	0	60	95545
2026-01-30 03:43:33.85	335.03	4.41	-50.1	-67.9	3.5	3.02e+01	0	39	104	0	60	95480
2026-01-30 03:43:36.87	335.26	4.22	-50.1	-67.9	3.5	3.02e+01	0	39	104	0	60	95467
2026-01-30 03:43:39.90	335.49	4.03	-50.1	-67.9	3.5	3.02e+01	0	39	104	0	60	95100
2026-01-30 03:43:42.94	335.72	3.83	-50.0	-67.9	3.5	3.02e+01	0	39	104	0	60	95616
2026-01-30 03:43:45.97	335.95	3.64	-50.0	-67.9	3.5	3.02e+01	0	39	104	0	60	95407
2026-01-30 03:43:49.00	336.17	3.45	-50.1	-67.9	3.5	3.02e+01	0	39	104	0	60	95978
2026-01-30 03:43:52.03	336.39	3.27	-50.0	-67.9	3.5	3.02e+01	0	39	104	0	60	95507
2026-01-30 03:43:55.06	336.61	3.08	-50.0	-67.9	3.5	3.02e+01	0	39	104	0	60	95211
2026-01-30 03:43:58.09	336.82	2.89	-50.0	-67.9	3.5	3.02e+01	0	39	104	0	60	95176
2026-01-30 03:44:01.12	337.04	2.71	-50.0	-67.9	3.5	3.02e+01	0	39	104	0	60	95645
2026-01-30 03:44:04.15	337.25	2.52	-50.0	-67.9	3.5	3.02e+01	0	39	104	0	60	95292
2026-01-30 03:44:07.18	337.45	2.34	-50.0	-67.9	3.5	3.02e+01	0	39	104	0	60	95241
2026-01-30 03:44:10.21	337.66	2.16	-50.0	-67.9	3.5	3.02e+01	0	39	104	0	60	95310
2026-01-30 03:44:13.24	337.86	1.98	-50.1	-67.9	3.5	3.02e+01	0	39	104	0	60	95574
2026-01-30 03:44:16.27	338.06	1.80	-50.0	-67.8	3.5	3.02e+01	0	39	104	0	60	94947
2026-01-30 03:44:19.30	338.25	1.62	-50.1	-67.9	3.5	3.02e+01	0	39	104	0	60	95297
2026-01-30 03:44:22.33	338.45	1.44	-50.0	-67.9	3.5	3.02e+01	0	39	104	0	60	95322
2026-01-30 03:44:25.36	338.64	1.27	-50.0	-67.9	3.5	3.02e+01	0	39	104	0	60	95081
2026-01-30 03:44:28.39	338.83	1.09	-50.0	-67.8	3.5	3.02e+01	0	39	104	0	60	94961
2026-01-30 03:44:31.43	339.02	0.92	-50.0	-67.8	3.5	3.02e+01	0	39	104	0	60	95007
2026-01-30 03:44:34.46	339.20	0.74	-50.0	-67.9	3.5	3.02e+01	0	39	104	0	60	95373
2026-01-30 03:44:37.49	339.38	0.57	-50.1	-67.9	3.5	3.02e+01	0	39	104	0	60	95585
2026-01-30 03:44:40.52	339.57	0.40	-50.0	-67.9	3.5	3.02e+01	0	39	104	0	60	95298
2026-01-30 03:44:43.55	339.74	0.23	-50.1	-67.9	3.5	3.02e+01	0	39	104	0	60	95434
2026-01-30 03:44:46.59	339.92	0.06	-50.1	-67.9	3.5	3.02e+01	0	39	104	0	60	95318
2026-01-30 03:44:49.62	340.10	-0.11	-50.1	-67.9	3.5	3.02e+01	0	39	104	0	60	95157

#Closed at: 2026-01-30 03:44:50
#Recorded file [0 MB]: D:/lorett/data/35029_260130_153144.dat