passes_logs/2026/01/30/R4.6S_Anadyr/R4.6S_Anadyr__20260130_074544_TY-42_rec.log

#Pass ID: 20260130_074544_TY-42
#Satellite: TY-42
#Configuration: TY-42_900M
#almurnet v.1.7.20251203
#Start time: 2026-01-30 07:46:17

#Version: 2.2.20231116
#Station: R4.6S_Anadyr
#Location: 177.4865 lon 64.73178 lat
#TLE: 1 64048U 25103A   26029.59629630  .00008015  00000-0  38191-3 0 09991
#TLE: 2 64048 097.4120 104.7398 0001761 095.4017 301.3163 15.19189348 39031

#Time	Az	El	Level	Level2	SNR	BER	BlckErr	Temp	State	Recorded	gain1	gain2
2026-01-30 07:46:17.67	111.44	2.03	-46.5	-60.9	3.5	1.51e+00	0	38	0	0	60	45053
2026-01-30 07:46:20.69	111.20	2.22	-47.8	-50.4	6.1	0.00e+00	0	40	104	0	60	40445
2026-01-30 07:46:23.71	110.94	2.41	-47.8	-50.4	6.1	0.00e+00	0	40	104	0	60	40615
2026-01-30 07:46:26.73	110.69	2.61	-47.8	-50.4	6.1	0.00e+00	0	40	104	0	60	40523
2026-01-30 07:46:29.75	110.43	2.80	-47.8	-50.4	6.1	0.00e+00	0	40	104	0	60	40553
2026-01-30 07:46:32.78	110.16	3.00	-47.8	-50.4	6.1	0.00e+00	0	40	104	0	60	40608
2026-01-30 07:46:35.81	109.89	3.19	-47.8	-50.4	6.1	0.00e+00	0	40	104	0	60	40612
2026-01-30 07:46:38.83	109.61	3.39	-47.8	-50.4	6.1	0.00e+00	0	41	104	0	60	40607
2026-01-30 07:46:41.86	109.33	3.59	-47.8	-50.4	6.1	0.00e+00	0	41	104	0	60	40464
2026-01-30 07:46:44.88	109.05	3.79	-47.8	-50.4	6.1	0.00e+00	0	41	104	0	60	40495
2026-01-30 07:46:47.91	108.76	4.00	-47.8	-50.3	6.1	0.00e+00	0	41	104	0	60	40285
2026-01-30 07:46:50.94	108.46	4.20	-47.6	-50.2	6.1	0.00e+00	0	41	104	0	60	39470
2026-01-30 07:46:53.97	108.16	4.41	-47.6	-50.2	6.1	0.00e+00	0	41	104	0	60	39651
2026-01-30 07:46:56.99	107.85	4.61	-48.4	-51.0	6.1	0.00e+00	0	41	104	0	60	43371
2026-01-30 07:47:00.02	107.54	4.82	-47.7	-50.3	6.1	0.00e+00	0	41	104	0	60	40065
2026-01-30 07:47:03.05	107.22	5.03	-48.5	-51.0	6.1	0.00e+00	0	41	104	0	60	43681
2026-01-30 07:47:06.08	106.89	5.24	-48.3	-50.9	6.1	0.00e+00	0	41	104	0	60	43112
2026-01-30 07:47:09.11	106.56	5.46	-48.7	-51.3	6.1	0.00e+00	0	41	104	0	60	44799
2026-01-30 07:47:12.14	106.23	5.67	-48.5	-51.1	6.0	0.00e+00	0	41	104	0	60	43996
2026-01-30 07:47:15.17	105.88	5.89	-36.3	-36.6	10.9	0.00e+00	1050	41	104	0	48	16575
2026-01-30 07:47:18.20	105.53	6.11	-36.3	-36.7	12.0	2.67e-01	0	42	0	268435456	48	16775
2026-01-30 07:47:21.22	105.18	6.33	-30.4	-30.9	15.3	1.76e-02	0	42	0	603979776	36	17080
2026-01-30 07:47:24.25	104.81	6.55	-28.2	-28.7	16.0	2.25e-03	0	42	0	947912704	32	16759
2026-01-30 07:47:27.29	104.44	6.77	-27.7	-28.3	16.3	1.47e-04	0	42	0	1291845632	30	17826
2026-01-30 07:47:30.31	104.06	6.99	-28.1	-28.6	16.3	1.42e-04	0	42	0	1627389952	30	18478
2026-01-30 07:47:33.34	103.67	7.22	-27.6	-28.2	16.4	6.53e-05	0	42	0	1971322880	30	17645
2026-01-30 07:47:36.37	103.28	7.45	-27.4	-27.9	16.5	3.81e-05	0	42	0	2306867200	30	17071
2026-01-30 07:47:39.40	102.88	7.68	-27.2	-27.7	16.4	4.90e-05	0	42	0	2650800128	30	16771
2026-01-30 07:47:42.43	102.47	7.91	-27.2	-27.7	16.5	1.03e-04	0	42	0	2994733056	30	16667
2026-01-30 07:47:45.46	102.05	8.14	-27.1	-27.6	16.6	5.44e-05	0	42	0	3338665984	30	16527
2026-01-30 07:47:48.49	101.62	8.37	-27.1	-27.5	16.6	4.35e-05	0	42	0	3674210304	30	16426
2026-01-30 07:47:51.52	101.19	8.61	-27.1	-27.6	16.7	1.08e-05	0	42	0	4018143232	30	16434
2026-01-30 07:47:54.55	100.74	8.84	-27.0	-27.4	16.7	3.26e-05	0	42	0	4362076160	30	16208
2026-01-30 07:47:57.57	100.29	9.08	-26.7	-27.2	16.8	4.90e-05	0	42	0	4697620480	28	17750
2026-01-30 07:48:00.60	99.83	9.32	-26.8	-27.3	16.8	1.08e-05	0	42	0	5041553408	28	17829
2026-01-30 07:48:03.63	99.36	9.56	-26.6	-27.1	16.8	2.17e-05	0	42	0	5377097728	28	17430
2026-01-30 07:48:06.66	98.87	9.81	-26.6	-27.1	16.9	2.17e-05	0	43	0	5721030656	28	17448
2026-01-30 07:48:09.69	98.38	10.05	-26.6	-27.0	16.6	1.63e-05	0	43	0	6064963584	28	17366
2026-01-30 07:48:12.72	97.88	10.30	-26.4	-26.9	16.6	6.53e-05	0	43	0	6400507904	28	17022
2026-01-30 07:48:15.75	97.36	10.55	-26.3	-26.8	16.7	3.81e-05	0	43	0	6744440832	28	16928
2026-01-30 07:48:18.78	96.84	10.79	-26.2	-26.7	17.0	3.26e-05	0	43	0	7079985152	28	16637
2026-01-30 07:48:21.81	96.30	11.04	-26.1	-26.6	17.1	1.08e-05	0	43	0	7423918080	28	16502
2026-01-30 07:48:24.84	95.76	11.30	-26.0	-26.5	17.1	0.00e+00	0	43	0	7767851008	28	16296
2026-01-30 07:48:27.87	95.20	11.55	-25.9	-26.4	17.0	0.00e+00	0	43	0	8103395328	28	16223
2026-01-30 07:48:30.90	94.63	11.80	-25.6	-26.1	17.1	5.40e-06	0	43	0	8447328256	26	17489
2026-01-30 07:48:33.93	94.05	12.06	-25.5	-26.0	17.0	5.40e-06	0	43	0	8782872576	26	17358
2026-01-30 07:48:36.96	93.45	12.31	-25.3	-25.8	17.2	0.00e+00	0	43	0	9126805504	26	16964
2026-01-30 07:48:39.99	92.84	12.57	-25.3	-25.8	17.2	0.00e+00	0	43	0	9470738432	26	16851
2026-01-30 07:48:43.02	92.22	12.83	-25.2	-25.7	17.1	0.00e+00	0	43	0	9806282752	26	16690
2026-01-30 07:48:46.04	91.59	13.08	-25.3	-25.8	17.0	0.00e+00	0	43	0	10150215680	26	16879
2026-01-30 07:48:49.07	90.94	13.34	-25.0	-25.5	17.2	0.00e+00	0	43	0	10485760000	26	16240
2026-01-30 07:48:52.10	90.28	13.60	-24.9	-25.4	17.2	0.00e+00	0	43	0	10829692928	26	16137
2026-01-30 07:48:55.13	89.61	13.86	-24.9	-25.4	17.3	0.00e+00	0	43	0	11173625856	26	16062
2026-01-30 07:48:58.16	88.92	14.12	-24.8	-25.2	17.2	0.00e+00	0	43	0	11517558784	24	17746
2026-01-30 07:49:01.19	88.21	14.38	-24.6	-25.1	17.3	0.00e+00	0	43	0	11853103104	24	17414
2026-01-30 07:49:04.22	87.50	14.63	-24.4	-24.9	17.2	0.00e+00	0	43	0	12197036032	24	17065
2026-01-30 07:49:07.25	86.76	14.89	-24.4	-24.8	17.2	0.00e+00	0	43	0	12540968960	24	16924
2026-01-30 07:49:10.28	86.01	15.15	-24.3	-24.8	17.3	0.00e+00	0	43	0	12876513280	24	16906
2026-01-30 07:49:13.31	85.25	15.41	-24.3	-24.8	17.2	0.00e+00	0	43	0	13220446208	24	16891
2026-01-30 07:49:16.34	84.47	15.66	-24.1	-24.5	17.4	0.00e+00	0	43	0	13564379136	24	16382
2026-01-30 07:49:19.37	83.67	15.91	-24.0	-24.4	17.3	0.00e+00	0	43	0	13899923456	24	16196
2026-01-30 07:49:22.41	82.86	16.17	-23.9	-24.3	17.3	0.00e+00	0	43	0	14243856384	24	15964
2026-01-30 07:49:25.44	82.03	16.42	-23.8	-24.3	17.3	0.00e+00	0	43	0	14587789312	24	15925
2026-01-30 07:49:28.47	81.19	16.67	-23.7	-24.2	17.0	0.00e+00	0	43	0	14923333632	24	15746
2026-01-30 07:49:31.50	80.33	16.91	-23.7	-24.1	17.2	0.00e+00	0	43	0	15267266560	22	17491
2026-01-30 07:49:34.53	79.45	17.15	-23.7	-24.1	17.3	0.00e+00	0	43	0	15602810880	22	17557
2026-01-30 07:49:37.56	78.56	17.39	-23.8	-24.2	17.3	0.00e+00	0	43	0	15946743808	22	17662
2026-01-30 07:49:40.59	77.65	17.63	-23.6	-24.0	17.0	0.00e+00	0	43	0	16290676736	22	17353
2026-01-30 07:49:43.62	76.72	17.86	-23.7	-24.1	17.3	0.00e+00	0	43	0	16626221056	22	17527
2026-01-30 07:49:46.65	75.78	18.09	-23.4	-23.8	17.4	0.00e+00	0	43	0	16970153984	22	16917
2026-01-30 07:49:49.68	74.82	18.31	-23.4	-23.9	17.3	0.00e+00	0	43	0	17305698304	22	17048
2026-01-30 07:49:52.71	73.84	18.53	-23.3	-23.8	17.4	0.00e+00	0	43	0	17649631232	22	16886
2026-01-30 07:49:55.74	72.85	18.75	-49.5	-52.1	6.1	0.00e+00	0	43	104	17691574272	60	49193
2026-01-30 07:49:58.78	71.84	18.95	-49.2	-51.7	6.1	0.00e+00	0	43	104	17691574272	60	47313
2026-01-30 07:50:01.80	70.82	19.15	-49.1	-51.7	6.1	0.00e+00	0	43	104	17691574272	60	47029
2026-01-30 07:50:04.83	69.78	19.35	-49.5	-52.0	6.1	0.00e+00	0	43	104	17691574272	60	48904
2026-01-30 07:50:07.86	68.73	19.54	-49.5	-52.0	6.1	0.00e+00	0	43	104	17691574272	60	48836
2026-01-30 07:50:10.89	67.66	19.72	-49.5	-52.0	6.1	0.00e+00	0	43	104	17691574272	60	48641
2026-01-30 07:50:13.92	66.58	19.89	-46.7	-49.6	6.2	0.00e+00	0	43	104	17691574272	60	36861
2026-01-30 07:50:16.95	65.48	20.05	-48.4	-51.1	6.1	0.00e+00	0	43	104	17691574272	60	44063
2026-01-30 07:50:19.98	64.37	20.21	-49.7	-52.1	6.1	0.00e+00	0	43	104	17691574272	60	49379
2026-01-30 07:50:23.01	63.25	20.35	-49.8	-52.2	6.1	0.00e+00	0	43	104	17691574272	60	50066
2026-01-30 07:50:26.04	62.12	20.49	-49.6	-52.1	6.1	0.00e+00	0	43	104	17691574272	60	49248
2026-01-30 07:50:29.07	60.97	20.62	-49.2	-51.8	6.1	0.00e+00	0	43	104	17691574272	60	47605
2026-01-30 07:50:32.10	59.82	20.73	-46.2	-49.0	6.4	0.00e+00	0	43	104	17691574272	60	34426
2026-01-30 07:50:35.13	58.66	20.84	-49.6	-52.2	6.1	0.00e+00	0	43	104	17691574272	60	49706
2026-01-30 07:50:38.16	57.48	20.94	-49.5	-52.0	6.1	0.00e+00	0	43	104	17691574272	60	48815
2026-01-30 07:50:41.19	56.30	21.02	-49.2	-51.8	6.1	0.00e+00	0	43	104	17691574272	60	47797
2026-01-30 07:50:44.22	55.11	21.09	-47.9	-50.6	6.1	0.00e+00	0	43	104	17691574272	60	41519
2026-01-30 07:50:47.24	53.93	21.16	-48.8	-51.5	6.1	0.00e+00	0	43	104	17691574272	60	46109
2026-01-30 07:50:50.27	52.73	21.21	-49.5	-52.0	6.1	0.00e+00	0	43	104	17691574272	60	48654
2026-01-30 07:50:53.30	51.53	21.24	-49.3	-51.8	6.1	0.00e+00	0	43	104	17691574272	60	47849
2026-01-30 07:50:56.33	50.32	21.27	-49.0	-51.6	6.1	0.00e+00	0	43	104	17691574272	60	46496
2026-01-30 07:50:59.36	49.12	21.28	-48.9	-51.5	6.1	0.00e+00	0	43	104	17691574272	60	46092
2026-01-30 07:51:02.39	47.91	21.29	-49.0	-51.6	6.1	0.00e+00	0	43	104	17691574272	60	46679
2026-01-30 07:51:05.42	46.70	21.28	-49.8	-52.3	6.1	0.00e+00	0	43	104	17691574272	60	50249
2026-01-30 07:51:08.45	45.50	21.25	-49.6	-52.1	6.1	0.00e+00	0	43	104	17691574272	60	49498
2026-01-30 07:51:11.48	44.30	21.22	-49.5	-52.0	6.1	0.00e+00	0	43	104	17691574272	60	48905
2026-01-30 07:51:14.51	43.10	21.17	-49.3	-51.9	6.1	0.00e+00	0	43	104	17691574272	60	48131
2026-01-30 07:51:17.53	41.91	21.12	-49.6	-52.1	6.1	0.00e+00	0	43	104	17691574272	60	49297
2026-01-30 07:51:20.56	40.72	21.05	-49.5	-52.0	6.1	0.00e+00	0	43	104	17691574272	60	48644
2026-01-30 07:51:23.59	39.54	20.97	-49.6	-52.1	6.1	0.00e+00	0	43	104	17691574272	60	49308
2026-01-30 07:51:26.62	38.37	20.87	-49.4	-51.9	6.1	0.00e+00	0	43	104	17691574272	60	48310
2026-01-30 07:51:29.65	37.20	20.77	-49.5	-52.0	6.1	0.00e+00	0	43	104	17691574272	60	48942
2026-01-30 07:51:32.68	36.05	20.66	-49.8	-52.2	6.1	0.00e+00	0	43	104	17691574272	60	50028
2026-01-30 07:51:35.71	34.90	20.54	-49.7	-52.2	6.1	0.00e+00	0	43	104	17691574272	60	49626
2026-01-30 07:51:38.74	33.76	20.40	-49.8	-52.3	6.1	0.00e+00	0	43	104	17691574272	60	50225
2026-01-30 07:51:41.77	32.64	20.26	-49.6	-52.1	6.1	0.00e+00	0	43	104	17691574272	60	49252
2026-01-30 07:51:44.80	31.53	20.11	-49.7	-52.2	6.1	0.00e+00	0	43	104	17691574272	60	49856
2026-01-30 07:51:47.83	30.43	19.95	-49.4	-51.9	6.1	0.00e+00	0	43	104	17691574272	60	48308
2026-01-30 07:51:50.86	29.35	19.78	-49.5	-52.1	6.1	0.00e+00	0	43	104	17691574272	60	49044
2026-01-30 07:51:53.89	28.28	19.60	-49.8	-52.2	6.1	0.00e+00	0	43	104	17691574272	60	49919
2026-01-30 07:51:56.92	27.22	19.42	-49.6	-52.1	6.1	0.00e+00	0	43	104	17691574272	60	49600
2026-01-30 07:51:59.95	26.18	19.22	-49.8	-52.3	6.1	0.00e+00	0	43	104	17691574272	60	50254
2026-01-30 07:52:02.97	25.16	19.03	-49.7	-52.2	6.1	0.00e+00	0	43	104	17691574272	60	49707
2026-01-30 07:52:06.00	24.15	18.82	-49.5	-52.0	6.1	0.00e+00	0	43	104	17691574272	60	48845
2026-01-30 07:52:09.03	23.16	18.61	-49.7	-52.2	6.1	0.00e+00	0	43	104	17691574272	60	50101
2026-01-30 07:52:12.06	22.18	18.40	-49.7	-52.2	6.1	0.00e+00	0	43	104	17691574272	60	49653
2026-01-30 07:52:15.09	21.22	18.17	-49.6	-52.1	6.1	0.00e+00	0	43	104	17691574272	60	49521
2026-01-30 07:52:18.12	20.27	17.95	-49.6	-52.1	6.1	0.00e+00	0	43	104	17691574272	60	49173
2026-01-30 07:52:21.14	19.35	17.72	-49.7	-52.1	6.1	0.00e+00	0	43	104	17691574272	60	49595
2026-01-30 07:52:24.17	18.44	17.49	-49.7	-52.2	6.1	0.00e+00	0	43	104	17691574272	60	49902
2026-01-30 07:52:27.20	17.54	17.25	-49.6	-52.1	6.1	0.00e+00	0	43	104	17691574272	60	49141
2026-01-30 07:52:30.23	16.66	17.01	-49.5	-52.0	6.1	0.00e+00	0	43	104	17691574272	60	48643
2026-01-30 07:52:33.26	15.80	16.76	-49.7	-52.2	6.1	0.00e+00	0	43	104	17691574272	60	49706
2026-01-30 07:52:36.29	14.95	16.52	-49.6	-52.1	6.1	0.00e+00	0	43	104	17691574272	60	49534
2026-01-30 07:52:39.32	14.12	16.27	-49.4	-52.0	6.1	0.00e+00	0	43	104	17691574272	60	48543
2026-01-30 07:52:42.34	13.31	16.02	-49.5	-52.0	6.1	0.00e+00	0	43	104	17691574272	60	48639
2026-01-30 07:52:45.37	12.51	15.77	-49.6	-52.1	6.1	0.00e+00	0	43	104	17691574272	60	49420
2026-01-30 07:52:48.39	11.74	15.51	-49.7	-52.2	6.1	0.00e+00	0	43	104	17691574272	60	49658
2026-01-30 07:52:51.43	10.97	15.26	-49.7	-52.1	6.1	0.00e+00	0	43	104	17691574272	60	49380
2026-01-30 07:52:54.45	10.22	15.00	-49.6	-52.1	6.1	0.00e+00	0	43	104	17691574272	60	49295
2026-01-30 07:52:57.48	9.48	14.75	-49.6	-52.1	6.1	0.00e+00	0	43	104	17691574272	60	49350
2026-01-30 07:53:00.51	8.76	14.49	-49.6	-52.0	6.1	0.00e+00	0	43	104	17691574272	60	48961
2026-01-30 07:53:03.54	8.06	14.23	-49.4	-52.0	6.1	0.00e+00	0	43	104	17691574272	60	48578
2026-01-30 07:53:06.57	7.37	13.97	-49.6	-52.1	6.1	0.00e+00	0	43	104	17691574272	60	49374
2026-01-30 07:53:09.60	6.69	13.72	-49.6	-52.1	6.1	0.00e+00	0	43	104	17691574272	60	49067
2026-01-30 07:53:12.63	6.03	13.46	-49.6	-52.1	6.1	0.00e+00	0	43	104	17691574272	60	49217
2026-01-30 07:53:15.65	5.38	13.20	-49.5	-52.0	6.1	0.00e+00	0	43	104	17691574272	60	48766
2026-01-30 07:53:18.68	4.75	12.95	-49.6	-52.0	6.1	0.00e+00	0	43	104	17691574272	60	48903
2026-01-30 07:53:21.71	4.12	12.69	-49.6	-52.0	6.1	0.00e+00	0	43	104	17691574272	60	48778
2026-01-30 07:53:24.74	3.52	12.43	-49.6	-52.1	6.1	0.00e+00	0	43	104	17691574272	60	49061
2026-01-30 07:53:27.76	2.92	12.18	-49.6	-52.0	6.1	0.00e+00	0	43	104	17691574272	60	48867
2026-01-30 07:53:30.79	2.34	11.93	-49.5	-51.9	6.1	0.00e+00	0	43	104	17691574272	60	48294
2026-01-30 07:53:33.82	1.77	11.67	-49.5	-51.9	6.1	0.00e+00	0	43	104	17691574272	60	48357
2026-01-30 07:53:36.85	1.21	11.42	-49.5	-52.0	6.1	0.00e+00	0	43	104	17691574272	60	48933
2026-01-30 07:53:39.88	0.66	11.17	-49.5	-51.9	6.1	0.00e+00	0	43	104	17691574272	60	48358
2026-01-30 07:53:42.91	0.12	10.92	-49.5	-52.0	6.1	0.00e+00	0	43	104	17691574272	60	48692
2026-01-30 07:53:45.93	359.60	10.68	-49.5	-52.0	6.1	0.00e+00	0	43	104	17691574272	60	48770
2026-01-30 07:53:48.96	359.08	10.43	-49.4	-51.9	6.1	0.00e+00	0	43	104	17691574272	60	48301
2026-01-30 07:53:51.99	358.58	10.18	-49.4	-51.9	6.1	0.00e+00	0	43	104	17691574272	60	48074
2026-01-30 07:53:55.02	358.09	9.94	-49.4	-51.9	6.1	0.00e+00	0	43	104	17691574272	60	47939
2026-01-30 07:53:58.05	357.60	9.70	-49.3	-51.8	6.1	0.00e+00	0	43	104	17691574272	60	47625
2026-01-30 07:54:01.07	357.13	9.46	-49.4	-51.9	6.1	0.00e+00	0	43	104	17691574272	60	47992
2026-01-30 07:54:04.10	356.67	9.22	-49.4	-51.9	6.1	0.00e+00	0	43	104	17691574272	60	47938
2026-01-30 07:54:07.13	356.22	8.98	-49.2	-51.7	6.1	0.00e+00	0	43	104	17691574272	60	47071
2026-01-30 07:54:10.17	355.77	8.74	-49.3	-51.7	6.1	0.00e+00	0	43	104	17691574272	60	47084
2026-01-30 07:54:13.19	355.33	8.51	-49.3	-51.8	6.1	0.00e+00	0	43	104	17691574272	60	47639
2026-01-30 07:54:16.22	354.91	8.27	-49.3	-51.8	6.1	0.00e+00	0	43	104	17691574272	60	47377
2026-01-30 07:54:19.25	354.49	8.04	-49.2	-51.7	6.1	0.00e+00	0	43	104	17691574272	60	47275
2026-01-30 07:54:22.27	354.08	7.81	-49.1	-51.6	6.1	0.00e+00	0	43	104	17691574272	60	46532
2026-01-30 07:54:25.30	353.68	7.58	-49.3	-51.8	6.1	0.00e+00	0	43	104	17691574272	60	47661
2026-01-30 07:54:28.33	353.28	7.36	-49.3	-51.8	6.1	0.00e+00	0	43	104	17691574272	60	47686
2026-01-30 07:54:31.36	352.90	7.13	-49.2	-51.8	6.1	0.00e+00	0	43	104	17691574272	60	47398
2026-01-30 07:54:34.39	352.52	6.91	-49.1	-51.6	6.1	0.00e+00	0	43	104	17691574272	60	46681
2026-01-30 07:54:37.42	352.15	6.68	-49.2	-51.7	6.1	0.00e+00	0	43	104	17691574272	60	46888
2026-01-30 07:54:40.44	351.78	6.46	-49.2	-51.7	6.1	0.00e+00	0	43	104	17691574272	60	46874
2026-01-30 07:54:43.47	351.43	6.24	-49.1	-51.7	6.1	0.00e+00	0	43	104	17691574272	60	46846
2026-01-30 07:54:46.51	351.07	6.03	-49.0	-51.5	6.1	0.00e+00	0	43	104	17691574272	60	46115
2026-01-30 07:54:49.54	350.73	5.81	-49.1	-51.5	6.1	0.00e+00	0	43	104	17691574272	60	46281
2026-01-30 07:54:52.57	350.39	5.59	-49.1	-51.7	6.1	0.00e+00	0	43	104	17691574272	60	46862
2026-01-30 07:54:55.60	350.06	5.38	-49.1	-51.6	6.1	0.00e+00	0	43	104	17691574272	60	46425
2026-01-30 07:54:58.62	349.74	5.17	-49.0	-51.4	6.1	0.00e+00	0	43	104	17691574272	60	45632
2026-01-30 07:55:01.65	349.42	4.96	-48.9	-51.4	6.1	0.00e+00	0	43	104	17691574272	60	45641
2026-01-30 07:55:04.67	349.11	4.75	-49.0	-51.4	6.1	0.00e+00	0	43	104	17691574272	60	45757
2026-01-30 07:55:07.71	348.80	4.55	-48.9	-51.4	6.1	0.00e+00	0	43	104	17691574272	60	45330
2026-01-30 07:55:10.73	348.50	4.34	-47.9	-50.4	6.1	0.00e+00	0	43	104	17691574272	60	40673
2026-01-30 07:55:13.76	348.20	4.14	-47.4	-49.8	6.1	0.00e+00	0	43	104	17691574272	60	38061
2026-01-30 07:55:16.79	347.91	3.93	-46.4	-48.9	6.0	0.00e+00	0	43	104	17691574272	60	34016
2026-01-30 07:55:19.82	347.63	3.73	-45.8	-48.2	6.1	0.00e+00	0	43	104	17691574272	60	31627
2026-01-30 07:55:22.85	347.35	3.53	-45.3	-47.8	6.1	0.00e+00	0	43	104	17691574272	60	29937
2026-01-30 07:55:25.88	347.07	3.33	-46.0	-48.5	6.1	0.00e+00	0	43	104	17691574272	60	32453
2026-01-30 07:55:28.91	346.80	3.14	-45.2	-47.7	6.1	0.00e+00	0	43	104	17691574272	60	29753
2026-01-30 07:55:31.94	346.54	2.94	-45.4	-47.9	6.1	0.00e+00	0	43	104	17691574272	60	30477
2026-01-30 07:55:34.97	346.28	2.74	-49.6	-52.1	6.1	0.00e+00	0	43	104	17691574272	60	49290
2026-01-30 07:55:38.00	346.02	2.55	-50.0	-52.4	6.1	0.00e+00	0	43	104	17691574272	60	51216
2026-01-30 07:55:41.03	345.77	2.36	-50.1	-52.5	6.1	0.00e+00	0	43	104	17691574272	60	51831
2026-01-30 07:55:44.06	345.52	2.17	-50.2	-52.7	6.1	0.00e+00	0	43	104	17691574272	60	52750
2026-01-30 07:55:47.09	345.28	1.98	-50.1	-52.5	6.1	0.00e+00	0	43	104	17691574272	60	51901
2026-01-30 07:55:50.12	345.04	1.79	-49.8	-52.3	6.1	0.00e+00	0	43	104	17691574272	60	50220
2026-01-30 07:55:53.14	344.80	1.60	-50.0	-52.5	6.1	0.00e+00	0	43	104	17691574272	60	51624
2026-01-30 07:55:56.17	344.57	1.42	-50.0	-52.5	6.1	0.00e+00	0	43	104	17691574272	60	51815
2026-01-30 07:55:59.20	344.34	1.23	-50.0	-52.5	6.1	0.00e+00	0	43	104	17691574272	60	51581
2026-01-30 07:56:02.22	344.12	1.05	-50.0	-52.5	6.1	0.00e+00	0	43	104	17691574272	60	51602
2026-01-30 07:56:05.25	343.90	0.87	-50.0	-52.5	6.1	0.00e+00	0	43	104	17691574272	60	51394
2026-01-30 07:56:08.28	343.68	0.69	-50.0	-52.5	6.1	0.00e+00	0	43	104	17691574272	60	51555
2026-01-30 07:56:11.31	343.47	0.51	-50.0	-52.5	6.1	0.00e+00	0	43	104	17691574272	60	51495
2026-01-30 07:56:14.34	343.26	0.33	-50.0	-52.5	6.1	0.00e+00	0	43	104	17691574272	60	51556
2026-01-30 07:56:17.37	343.06	0.15	-50.0	-52.5	6.1	0.00e+00	0	43	104	17691574272	60	51765
2026-01-30 07:56:20.40	342.85	-0.03	-50.0	-52.4	6.0	0.00e+00	0	43	104	17691574272	60	51337

#Closed at: 2026-01-30 07:56:21
#Recorded file [17691 MB]: D:/lorett/data/35029_260130_194617.dat