passes_logs/2026/01/30/R4.6S_Anadyr/R4.6S_Anadyr__20260130_183033_AQUA_rec.log

#Pass ID: 20260130_183033_AQUA
#Satellite: AQUA
#Configuration: AQUA
#almurnet v.1.7.20251203
#Start time: 2026-01-30 18:30:36

#Version: 2.2.20231116
#Station: R4.6S_Anadyr
#Location: 177.4865 lon 64.73178 lat
#TLE: 1 27424U 02022A   26030.50290335  .00001607  00000+0  33112-3 0  9999
#TLE: 2 27424  98.4106 357.1932 0001780  60.8833  51.2416 14.61876947263152

#Time	Az	El	Level	Level2	SNR	BER	BlckErr	Temp	State	Recorded	gain1	gain2
2026-01-30 18:30:36.37	24.72	0.16	-49.5	-61.2	3.5	8.45e-01	0	38	0	0	60	41712
2026-01-30 18:30:39.39	24.54	0.33	-50.0	-67.9	3.5	3.02e+01	0	40	104	0	60	95568
2026-01-30 18:30:42.41	24.36	0.50	-50.0	-68.0	3.5	3.02e+01	0	40	104	0	60	96475
2026-01-30 18:30:45.44	24.17	0.67	-50.1	-68.0	3.5	3.02e+01	0	40	104	0	60	96629
2026-01-30 18:30:48.48	23.99	0.84	-50.0	-67.9	3.5	3.02e+01	0	40	104	0	60	95957
2026-01-30 18:30:51.51	23.80	1.02	-49.9	-67.9	3.5	3.02e+01	0	40	104	0	60	95215
2026-01-30 18:30:54.54	23.61	1.19	-49.6	-67.6	3.5	3.02e+01	0	40	104	0	60	92241
2026-01-30 18:30:57.57	23.41	1.37	-49.2	-67.2	3.5	3.02e+01	0	40	104	0	60	87804
2026-01-30 18:31:00.60	23.21	1.55	-48.8	-66.6	3.5	3.02e+01	0	40	104	0	60	82369
2026-01-30 18:31:03.63	23.01	1.72	-48.7	-66.5	3.5	3.02e+01	0	40	104	0	60	81300
2026-01-30 18:31:06.66	22.81	1.90	-48.7	-66.5	3.5	3.02e+01	0	40	104	0	60	81154
2026-01-30 18:31:09.69	22.61	2.08	-48.7	-66.5	3.5	3.02e+01	0	40	104	0	60	81024
2026-01-30 18:31:12.71	22.40	2.26	-48.7	-66.5	3.5	3.02e+01	0	40	104	0	60	81332
2026-01-30 18:31:15.74	22.19	2.44	-48.7	-66.4	3.5	3.02e+01	0	40	104	0	60	80412
2026-01-30 18:31:18.77	21.97	2.62	-48.7	-66.5	3.5	3.02e+01	0	40	104	0	60	81641
2026-01-30 18:31:21.81	21.75	2.81	-48.7	-66.4	3.5	3.02e+01	0	40	104	0	60	80753
2026-01-30 18:31:24.84	21.53	2.99	-48.6	-66.3	3.5	3.02e+01	0	40	104	0	60	79664
2026-01-30 18:31:27.87	21.31	3.18	-48.6	-66.2	3.5	3.02e+01	0	40	104	0	60	78892
2026-01-30 18:31:30.90	21.08	3.36	-47.0	-60.6	3.5	3.02e+01	0	40	104	0	60	41344
2026-01-30 18:31:33.93	20.85	3.55	-42.9	-54.1	3.5	3.02e+01	0	40	104	0	60	19414
2026-01-30 18:31:36.96	20.62	3.74	-48.5	-66.2	3.5	3.02e+01	0	40	104	0	60	78311
2026-01-30 18:31:39.99	20.38	3.93	-41.6	-52.4	3.5	3.02e+01	0	40	104	0	58	18013
2026-01-30 18:31:43.01	20.14	4.12	-39.2	-49.7	3.5	3.02e+01	0	40	104	0	54	16528
2026-01-30 18:31:46.04	19.89	4.31	-42.0	-52.8	3.5	3.02e+01	0	40	104	0	60	16842
2026-01-30 18:31:49.07	19.65	4.50	-39.4	-49.8	3.5	3.02e+01	0	40	104	0	54	16879
2026-01-30 18:31:52.10	19.39	4.69	-42.6	-53.6	3.5	3.02e+01	0	40	104	0	60	18437
2026-01-30 18:31:55.13	19.14	4.89	-44.2	-55.7	3.5	3.02e+01	0	40	104	0	60	23534
2026-01-30 18:31:58.16	18.88	5.08	-43.5	-54.7	3.5	3.02e+01	0	40	104	0	60	20848
2026-01-30 18:32:01.19	18.61	5.28	-48.6	-65.0	3.5	3.02e+01	0	40	104	0	60	68640
2026-01-30 18:32:04.22	18.35	5.47	-43.3	-54.4	3.5	3.02e+01	0	40	104	0	60	20303
2026-01-30 18:32:07.25	18.07	5.67	-49.0	-66.6	3.5	3.02e+01	0	40	104	0	60	82462
2026-01-30 18:32:10.28	17.80	5.87	-38.6	-49.0	3.5	3.02e+01	0	40	104	0	52	17147
2026-01-30 18:32:13.30	17.52	6.07	-38.2	-48.5	3.5	3.02e+01	0	40	104	0	52	16171
2026-01-30 18:32:16.33	17.23	6.27	-40.5	-51.0	3.6	3.02e+01	0	40	104	0	58	15369
2026-01-30 18:32:19.36	16.94	6.48	-47.4	-61.1	3.5	3.02e+01	0	40	104	0	60	43682
2026-01-30 18:32:22.39	16.65	6.68	-44.9	-56.5	3.5	3.02e+01	0	40	104	0	60	25595
2026-01-30 18:32:25.41	16.35	6.88	-47.9	-62.2	3.5	3.02e+01	0	40	104	0	60	49858
2026-01-30 18:32:28.44	16.05	7.09	-43.3	-54.3	3.5	3.02e+01	0	40	104	0	60	20061
2026-01-30 18:32:31.47	15.74	7.30	-45.0	-56.7	3.5	3.02e+01	0	40	104	0	60	26456
2026-01-30 18:32:34.51	15.42	7.51	-38.0	-48.4	3.5	3.02e+01	0	41	104	0	50	17902
2026-01-30 18:32:37.54	15.10	7.72	-37.6	-47.9	3.5	3.02e+01	0	40	104	0	50	16913
2026-01-30 18:32:40.57	14.78	7.93	-40.8	-51.4	3.5	3.02e+01	0	41	104	0	56	17906
2026-01-30 18:32:43.60	14.45	8.14	-47.6	-61.1	3.6	3.02e+01	0	41	104	0	60	43800
2026-01-30 18:32:46.63	14.12	8.35	-43.5	-54.7	3.5	3.02e+01	0	40	104	0	56	26463
2026-01-30 18:32:49.66	13.78	8.57	-48.4	-65.1	3.5	3.02e+01	0	41	104	0	60	69007
2026-01-30 18:32:52.69	13.43	8.78	-39.7	-50.2	3.5	3.02e+01	0	41	104	0	54	17578
2026-01-30 18:32:55.72	13.08	9.00	-40.4	-51.0	3.5	3.02e+01	0	41	104	0	54	19246
2026-01-30 18:32:58.75	12.72	9.21	-48.6	-64.0	3.5	3.02e+01	0	41	104	0	60	60725
2026-01-30 18:33:01.78	12.36	9.43	-41.3	-51.9	3.5	3.02e+01	0	40	104	0	58	17085
2026-01-30 18:33:04.81	11.99	9.65	-40.2	-50.7	3.5	3.02e+01	0	41	104	0	54	18654
2026-01-30 18:33:07.84	11.61	9.87	-38.4	-48.7	3.5	3.02e+01	0	41	104	0	54	14870
2026-01-30 18:33:10.87	11.23	10.09	-46.8	-59.6	3.5	3.02e+01	0	41	104	0	60	36663
2026-01-30 18:33:13.90	10.84	10.31	-45.1	-56.7	3.5	3.02e+01	0	41	104	0	60	26222
2026-01-30 18:33:16.93	10.45	10.54	-44.7	-56.0	3.5	3.02e+01	0	41	104	0	60	24277
2026-01-30 18:33:19.96	10.04	10.76	-49.3	-66.6	3.5	3.02e+01	0	41	104	0	60	82361
2026-01-30 18:33:22.99	9.63	10.99	-49.3	-66.3	3.5	3.02e+01	0	41	104	0	60	79121
2026-01-30 18:33:26.02	9.22	11.21	-37.3	-47.5	3.5	3.02e+01	0	41	104	0	50	16279
2026-01-30 18:33:29.05	8.79	11.44	-49.5	-66.7	3.5	3.02e+01	0	41	104	0	60	83653
2026-01-30 18:33:32.08	8.36	11.67	-39.9	-50.4	3.5	3.02e+01	0	41	104	0	56	15976
2026-01-30 18:33:35.11	7.93	11.90	-49.4	-67.2	3.5	3.02e+01	0	41	104	0	60	87863
2026-01-30 18:33:38.14	7.48	12.13	-48.4	-63.0	3.6	3.02e+01	0	41	104	0	60	54437
2026-01-30 18:33:41.17	7.03	12.36	-38.0	-48.3	3.5	3.02e+01	0	41	104	0	50	17765
2026-01-30 18:33:44.20	6.57	12.59	-42.3	-53.1	3.5	3.02e+01	0	41	104	0	60	17390
2026-01-30 18:33:47.23	6.10	12.82	-49.1	-65.3	3.5	3.02e+01	0	41	104	0	60	70701
2026-01-30 18:33:50.26	5.62	13.05	-42.1	-52.8	3.6	3.02e+01	0	41	104	0	58	18908
2026-01-30 18:33:53.29	5.13	13.29	-42.2	-52.9	3.6	3.02e+01	0	41	104	0	60	17051
2026-01-30 18:33:56.31	4.64	13.52	-37.3	-47.6	3.5	3.02e+01	0	41	104	0	50	16382
2026-01-30 18:33:59.34	4.14	13.75	-43.8	-54.8	3.5	3.02e+01	0	41	104	0	60	21154
2026-01-30 18:34:02.37	3.63	13.99	-37.0	-47.2	3.5	3.02e+01	0	41	104	0	50	15765
2026-01-30 18:34:05.40	3.11	14.22	-36.7	-47.0	3.5	3.02e+01	0	41	104	0	48	17109
2026-01-30 18:34:08.43	2.58	14.46	-37.0	-47.1	3.5	3.02e+01	0	41	104	0	50	15575
2026-01-30 18:34:11.47	2.04	14.69	-42.9	-53.8	3.5	3.02e+01	0	41	104	0	60	18840
2026-01-30 18:34:14.50	1.49	14.93	-39.7	-50.1	3.5	3.02e+01	0	41	104	0	56	15479
2026-01-30 18:34:17.53	0.93	15.16	-44.6	-56.0	3.5	3.02e+01	0	41	104	0	60	24147
2026-01-30 18:34:20.56	0.37	15.40	-40.8	-51.3	3.5	3.02e+01	0	41	104	0	56	17855
2026-01-30 18:34:23.59	359.79	15.63	-49.7	-67.1	3.5	3.02e+01	0	41	104	0	60	86733
2026-01-30 18:34:26.62	359.20	15.86	-40.0	-50.3	3.5	3.02e+01	0	41	104	0	48	25157
2026-01-30 18:34:29.65	358.61	16.10	-36.5	-46.7	3.5	3.02e+01	0	41	104	0	48	16618
2026-01-30 18:34:32.67	358.00	16.33	-46.3	-58.3	3.5	3.02e+01	0	41	104	0	56	39992
2026-01-30 18:34:35.70	357.38	16.56	-42.1	-52.8	3.6	3.02e+01	0	41	104	0	60	16759
2026-01-30 18:34:38.73	356.76	16.79	-39.5	-49.8	3.5	3.02e+01	0	41	104	0	54	16851
2026-01-30 18:34:41.77	356.12	17.02	-41.7	-52.4	3.5	3.02e+01	0	41	104	0	60	16104
2026-01-30 18:34:44.80	355.47	17.25	-40.6	-51.1	3.6	3.02e+01	0	41	104	0	56	17422
2026-01-30 18:34:47.83	354.81	17.48	-48.1	-61.9	3.5	3.02e+01	0	41	104	0	60	48168
2026-01-30 18:34:50.86	354.14	17.71	-49.4	-66.6	3.5	3.02e+01	0	41	104	0	60	82131
2026-01-30 18:34:53.89	353.46	17.93	-36.7	-46.9	3.5	3.02e+01	0	41	104	0	48	16990
2026-01-30 18:34:56.91	352.77	18.15	-46.1	-58.0	3.5	3.02e+01	0	41	104	0	60	30602
2026-01-30 18:34:59.95	352.07	18.38	-39.1	-49.5	3.6	3.02e+01	0	41	104	0	54	16169
2026-01-30 18:35:02.98	351.35	18.59	-49.5	-65.9	3.5	3.02e+01	0	41	104	0	60	75748
2026-01-30 18:35:06.01	350.63	18.81	-48.0	-61.7	3.5	3.02e+01	0	41	104	0	60	46805
2026-01-30 18:35:09.04	349.89	19.02	-38.9	-49.2	3.5	3.02e+01	0	41	104	0	54	15741
2026-01-30 18:35:12.07	349.15	19.23	-45.5	-57.1	3.5	3.02e+01	0	41	104	0	60	27660
2026-01-30 18:35:15.10	348.39	19.44	-49.6	-66.2	3.5	3.02e+01	0	41	104	0	60	78248
2026-01-30 18:35:18.13	347.62	19.65	-39.0	-49.4	3.5	3.02e+01	0	41	104	0	54	15977
2026-01-30 18:35:21.15	346.84	19.85	-46.0	-57.9	3.5	3.02e+01	0	41	104	0	60	30054
2026-01-30 18:35:24.18	346.05	20.05	-40.5	-51.0	3.5	3.02e+01	0	41	104	0	56	17198
2026-01-30 18:35:27.21	345.25	20.24	-39.7	-50.1	3.5	3.02e+01	0	41	104	0	54	17351
2026-01-30 18:35:30.24	344.44	20.43	-42.8	-53.6	3.6	3.02e+01	0	41	104	0	60	18376
2026-01-30 18:35:33.27	343.62	20.61	-41.8	-52.5	3.5	3.02e+01	0	41	104	0	58	18262
2026-01-30 18:35:36.30	342.79	20.79	-44.2	-55.4	3.5	3.02e+01	0	41	104	0	60	22626
2026-01-30 18:35:39.33	341.94	20.97	-49.7	-66.9	3.5	3.02e+01	0	41	104	0	60	85364
2026-01-30 18:35:42.36	341.09	21.14	-38.2	-48.4	3.5	3.02e+01	0	41	104	0	52	16132
2026-01-30 18:35:45.38	340.23	21.31	-44.9	-56.3	3.5	3.02e+01	0	41	104	0	60	25106
2026-01-30 18:35:48.41	339.36	21.47	-39.5	-49.9	3.5	3.02e+01	0	41	104	0	54	16940
2026-01-30 18:35:51.44	338.47	21.62	-47.6	-60.7	3.5	3.02e+01	0	41	104	0	60	41772
2026-01-30 18:35:54.47	337.58	21.77	-37.1	-47.4	3.5	3.02e+01	0	41	104	0	50	15971
2026-01-30 18:35:57.50	336.68	21.91	-45.0	-56.4	3.5	3.02e+01	0	41	104	0	60	25321
2026-01-30 18:36:00.52	335.77	22.04	-39.8	-50.2	3.5	3.02e+01	0	41	104	0	58	13931
2026-01-30 18:36:03.56	334.85	22.17	-49.3	-65.2	3.5	3.02e+01	0	41	104	0	60	69678
2026-01-30 18:36:06.59	333.93	22.30	-48.0	-61.5	3.4	3.02e+01	0	41	104	0	60	45551
2026-01-30 18:36:09.61	333.00	22.41	-40.8	-51.3	3.5	3.02e+01	0	41	104	0	60	14189
2026-01-30 18:36:12.64	332.06	22.52	-40.7	-51.1	3.5	3.02e+01	0	41	104	0	56	17403
2026-01-30 18:36:15.67	331.11	22.62	-38.6	-48.9	3.5	3.02e+01	0	41	104	0	50	18989
2026-01-30 18:36:18.70	330.16	22.71	-46.1	-58.0	3.4	3.02e+01	0	41	104	0	54	42954
2026-01-30 18:36:21.73	329.20	22.79	-40.3	-50.8	3.5	3.02e+01	0	41	104	0	54	18799
2026-01-30 18:36:24.77	328.23	22.87	-40.1	-50.5	3.5	3.02e+01	0	41	104	0	56	16241
2026-01-30 18:36:27.79	327.27	22.94	-43.1	-53.8	3.4	3.02e+01	0	41	104	0	60	18947
2026-01-30 18:36:30.82	326.30	23.00	-38.5	-39.8	27.1	3.02e+01	60	41	0	1048576	50	6671
2026-01-30 18:36:33.85	325.32	23.05	-38.4	-39.7	27.3	3.02e+01	60	41	0	6291456	50	6610
2026-01-30 18:36:36.88	324.34	23.09	-36.4	-37.6	29.1	3.02e+01	59	41	0	12058624	48	5828
2026-01-30 18:36:39.91	323.36	23.12	-36.6	-37.9	28.9	3.02e+01	58	41	0	17825792	48	6022
2026-01-30 18:36:42.94	322.37	23.15	-36.6	-37.9	29.0	3.02e+01	60	41	0	23592960	48	6005
2026-01-30 18:36:45.97	321.39	23.16	-36.7	-37.9	28.9	3.02e+01	59	41	0	29360128	48	6053
2026-01-30 18:36:49.00	320.40	23.17	-36.6	-37.8	29.1	3.02e+01	58	41	0	34603008	48	5958
2026-01-30 18:36:52.03	319.42	23.17	-36.6	-37.9	28.9	3.02e+01	52	41	0	40370176	48	6000
2026-01-30 18:36:55.06	318.43	23.16	-36.7	-37.9	28.9	3.02e+01	58	41	0	46137344	48	6049
2026-01-30 18:36:58.09	317.44	23.14	-36.6	-37.8	29.0	3.02e+01	61	41	0	51904512	48	5961
2026-01-30 18:37:01.12	316.46	23.11	-36.9	-38.1	28.7	3.02e+01	58	41	0	57671680	48	6177
2026-01-30 18:37:04.14	315.48	23.08	-36.9	-38.1	28.8	3.02e+01	58	41	0	63438848	48	6172
2026-01-30 18:37:07.10	314.53	23.03	-36.7	-37.9	28.9	3.02e+01	60	41	0	68681728	48	6022
2026-01-30 18:37:10.12	313.55	22.98	-37.0	-38.2	28.8	3.02e+01	56	41	0	74448896	48	6253
2026-01-30 18:37:13.15	312.58	22.92	-36.6	-37.8	29.0	3.02e+01	44	41	0	80216064	48	5970
2026-01-30 18:37:16.19	311.61	22.85	-36.9	-38.1	28.8	3.02e+01	57	41	0	85983232	48	6167
2026-01-30 18:37:19.22	310.65	22.77	-37.8	-39.1	27.8	3.02e+01	60	41	0	91750400	48	6919
2026-01-30 18:37:22.24	309.69	22.68	-36.9	-38.1	28.7	3.02e+01	58	41	0	97517568	48	6205
2026-01-30 18:37:25.27	308.74	22.59	-36.8	-38.0	28.8	3.02e+01	57	41	0	102760448	48	6103
2026-01-30 18:37:28.30	307.79	22.49	-36.4	-37.6	29.2	3.02e+01	60	41	0	108527616	48	5830
2026-01-30 18:37:31.33	306.85	22.38	-36.8	-38.0	28.8	3.02e+01	58	41	0	114294784	48	6090
2026-01-30 18:37:34.36	305.92	22.26	-36.1	-37.3	29.3	3.02e+01	54	41	0	120061952	48	5603
2026-01-30 18:37:37.39	305.00	22.14	-36.6	-37.8	29.0	3.02e+01	46	41	0	125829120	48	5940
2026-01-30 18:37:40.43	304.08	22.01	-35.8	-37.0	29.4	3.02e+01	60	41	0	131596288	46	6074
2026-01-30 18:37:43.46	303.17	21.87	-37.2	-38.5	28.4	3.02e+01	61	41	0	137363456	48	6482
2026-01-30 18:37:46.49	302.27	21.73	-36.7	-37.9	29.0	3.02e+01	60	41	0	142606336	50	5396
2026-01-30 18:37:49.52	301.38	21.58	-38.2	-39.5	27.5	3.02e+01	59	41	0	148373504	50	6430
2026-01-30 18:37:52.55	300.50	21.42	-37.0	-38.2	28.3	3.02e+01	60	41	0	154140672	48	6233
2026-01-30 18:37:55.58	299.62	21.26	-37.7	-39.0	28.1	3.02e+01	57	41	0	159907840	48	6820
2026-01-30 18:37:58.61	298.76	21.09	-37.0	-38.2	28.3	3.02e+01	48	41	0	165675008	48	6265
2026-01-30 18:38:01.64	297.91	20.92	-36.8	-38.0	28.7	3.02e+01	58	41	0	170917888	48	6097
2026-01-30 18:38:04.67	297.07	20.74	-37.0	-38.3	28.6	3.02e+01	58	41	0	176685056	48	6284
2026-01-30 18:38:07.70	296.24	20.56	-37.3	-38.6	28.3	3.02e+01	59	41	0	182452224	48	6539
2026-01-30 18:38:10.73	295.41	20.37	-36.1	-37.2	29.4	3.02e+01	54	41	0	188219392	48	5561
2026-01-30 18:38:13.76	294.60	20.18	-36.4	-37.5	29.2	3.02e+01	62	41	0	193986560	48	5782
2026-01-30 18:38:16.79	293.80	19.99	-37.3	-38.6	28.2	3.02e+01	60	41	0	199753728	48	6540
2026-01-30 18:38:19.82	293.01	19.79	-37.6	-38.9	27.8	3.02e+01	54	41	0	205520896	48	6766
2026-01-30 18:38:22.85	292.24	19.58	-36.8	-38.0	28.3	3.02e+01	56	41	0	210763776	48	6092
2026-01-30 18:38:25.88	291.47	19.38	-37.4	-38.6	28.2	3.02e+01	59	41	0	216530944	50	5858
2026-01-30 18:38:28.91	290.71	19.17	-37.0	-38.3	28.5	3.02e+01	60	41	0	222298112	48	6326
2026-01-30 18:38:31.94	289.97	18.96	-36.9	-38.2	28.5	3.02e+01	60	41	0	228065280	48	6207
2026-01-30 18:38:34.98	289.23	18.74	-37.8	-39.1	27.5	3.02e+01	58	41	0	233832448	50	6149
2026-01-30 18:38:38.00	288.51	18.52	-36.4	-37.6	29.0	3.02e+01	61	41	0	239599616	48	5821
2026-01-30 18:38:41.03	287.80	18.30	-36.8	-38.0	28.8	3.02e+01	53	41	0	244842496	48	6134
2026-01-30 18:38:44.06	287.10	18.08	-36.7	-37.9	28.8	3.02e+01	54	41	0	250609664	48	6018
2026-01-30 18:38:47.09	286.40	17.86	-36.7	-37.9	28.9	3.02e+01	61	41	0	256376832	48	6034
2026-01-30 18:38:50.12	285.73	17.63	-36.4	-37.6	29.1	3.02e+01	59	41	0	262144000	48	5837
2026-01-30 18:38:53.15	285.06	17.40	-36.7	-37.9	28.8	3.02e+01	59	41	0	267911168	48	6020
2026-01-30 18:38:56.18	284.40	17.18	-36.9	-38.1	28.6	3.02e+01	61	41	0	273678336	48	6199
2026-01-30 18:38:59.21	283.75	16.95	-36.7	-37.9	28.8	3.02e+01	58	41	0	278921216	48	6047
2026-01-30 18:39:02.24	283.11	16.71	-36.8	-38.1	28.6	3.02e+01	57	41	0	284688384	48	6149
2026-01-30 18:39:05.27	282.49	16.48	-36.5	-37.8	29.0	3.02e+01	53	41	0	290455552	48	5929
2026-01-30 18:39:08.31	281.87	16.25	-36.6	-37.8	29.0	3.02e+01	54	41	0	296222720	48	5938
2026-01-30 18:39:11.33	281.27	16.02	-36.5	-37.7	28.9	3.02e+01	54	41	0	301989888	48	5913
2026-01-30 18:39:14.36	280.67	15.78	-37.0	-38.2	28.5	3.02e+01	58	41	0	307757056	48	6223
2026-01-30 18:39:17.40	280.08	15.55	-36.9	-38.1	28.6	3.02e+01	60	41	0	312999936	48	6165
2026-01-30 18:39:20.43	279.51	15.31	-37.1	-38.4	28.4	3.02e+01	62	41	0	318767104	48	6368
2026-01-30 18:39:23.46	278.94	15.07	-36.7	-37.9	28.8	3.02e+01	50	41	0	324534272	48	6023
2026-01-30 18:39:26.48	278.38	14.84	-36.5	-37.7	28.9	3.02e+01	50	41	0	330301440	48	5925
2026-01-30 18:39:29.51	277.84	14.60	-36.7	-37.9	28.6	3.02e+01	59	41	0	336068608	48	6064
2026-01-30 18:39:32.54	277.30	14.37	-37.3	-38.5	28.3	3.02e+01	58	41	0	341835776	48	6492
2026-01-30 18:39:35.57	276.77	14.13	-36.9	-38.1	28.5	3.02e+01	60	41	0	347078656	48	6192
2026-01-30 18:39:38.61	276.25	13.90	-37.2	-38.5	28.1	3.02e+01	56	41	0	352845824	48	6455
2026-01-30 18:39:41.64	275.74	13.66	-36.7	-38.0	28.7	3.02e+01	60	41	0	358612992	48	6073
2026-01-30 18:39:44.67	275.24	13.43	-36.7	-37.9	28.6	3.02e+01	56	41	0	364380160	48	6042
2026-01-30 18:39:47.70	274.74	13.20	-37.5	-38.8	27.9	3.02e+01	44	41	0	370147328	48	6691
2026-01-30 18:39:50.73	274.26	12.96	-36.7	-37.9	28.5	3.02e+01	45	41	0	375914496	48	6051
2026-01-30 18:39:53.75	273.78	12.73	-37.0	-38.2	28.5	3.02e+01	57	41	0	381681664	48	6257
2026-01-30 18:39:56.78	273.31	12.50	-36.8	-38.0	28.4	3.02e+01	59	41	0	386924544	48	6115
2026-01-30 18:39:59.81	272.85	12.27	-36.7	-37.9	28.6	3.02e+01	58	41	0	392691712	48	6063
2026-01-30 18:40:02.84	272.40	12.04	-37.1	-38.4	28.3	3.02e+01	58	41	0	398458880	48	6386
2026-01-30 18:40:05.87	271.95	11.81	-36.7	-38.0	28.6	3.02e+01	57	41	0	404226048	48	6069
2026-01-30 18:40:08.90	271.51	11.58	-36.9	-38.2	28.5	3.02e+01	55	41	0	409993216	48	6216
2026-01-30 18:40:11.92	271.08	11.35	-37.1	-38.4	28.2	3.02e+01	51	41	0	415236096	48	6363
2026-01-30 18:40:14.95	270.66	11.12	-37.1	-38.4	28.2	3.02e+01	61	41	0	421003264	48	6381
2026-01-30 18:40:17.98	270.24	10.89	-37.1	-38.3	28.2	3.02e+01	59	41	0	426770432	48	6350
2026-01-30 18:40:21.01	269.84	10.67	-37.1	-38.4	28.2	3.02e+01	60	41	0	432537600	48	6374
2026-01-30 18:40:24.04	269.43	10.44	-37.4	-38.7	27.9	3.02e+01	61	41	0	438304768	48	6628
2026-01-30 18:40:27.07	269.04	10.22	-37.5	-38.8	27.8	3.02e+01	58	41	0	444071936	48	6690
2026-01-30 18:40:30.10	268.65	10.00	-37.2	-38.5	28.1	3.02e+01	57	41	0	449839104	48	6460
2026-01-30 18:40:33.13	268.27	9.78	-37.2	-38.5	28.1	3.02e+01	53	41	0	455081984	48	6442
2026-01-30 18:40:36.16	267.89	9.56	-37.5	-38.8	27.8	3.02e+01	56	41	0	460849152	48	6679
2026-01-30 18:40:39.19	267.52	9.34	-37.6	-38.9	27.7	3.02e+01	56	41	0	466616320	48	6792
2026-01-30 18:40:42.22	267.16	9.12	-37.6	-38.9	27.6	3.02e+01	57	41	0	472383488	48	6801
2026-01-30 18:40:45.25	266.80	8.90	-37.5	-38.8	27.8	3.02e+01	60	41	0	478150656	48	6674
2026-01-30 18:40:48.28	266.45	8.68	-37.5	-38.8	27.7	3.02e+01	58	41	0	483393536	48	6683
2026-01-30 18:40:51.31	266.10	8.47	-37.5	-38.8	27.7	3.02e+01	60	41	0	489160704	48	6708
2026-01-30 18:40:54.34	265.76	8.25	-37.8	-39.1	27.4	3.02e+01	47	41	0	494927872	48	6904
2026-01-30 18:40:57.37	265.42	8.04	-37.7	-39.0	27.5	3.02e+01	47	41	0	500695040	50	6119
2026-01-30 18:41:00.40	265.09	7.83	-37.7	-39.0	27.5	3.02e+01	57	41	0	506462208	50	6107
2026-01-30 18:41:03.43	264.77	7.62	-37.9	-39.2	27.3	3.02e+01	58	41	0	512229376	50	6220
2026-01-30 18:41:06.46	264.45	7.41	-38.1	-39.4	27.1	3.02e+01	62	41	0	517996544	50	6402
2026-01-30 18:41:09.49	264.14	7.20	-38.1	-39.5	27.0	3.02e+01	52	41	0	523239424	50	6426
2026-01-30 18:41:12.52	263.83	6.99	-38.0	-39.4	27.0	3.02e+01	58	41	0	529006592	50	6358
2026-01-30 18:41:15.55	263.52	6.79	-38.0	-39.3	27.2	3.02e+01	49	41	0	534773760	50	6316
2026-01-30 18:41:18.58	263.22	6.58	-38.2	-39.5	26.9	3.02e+01	48	41	0	540540928	50	6485
2026-01-30 18:41:21.61	262.93	6.38	-38.5	-39.9	26.5	3.02e+01	56	41	0	546308096	50	6796
2026-01-30 18:41:24.64	262.64	6.18	-38.3	-39.7	26.7	3.02e+01	55	41	0	551550976	50	6592
2026-01-30 18:41:27.67	262.35	5.97	-38.3	-39.6	26.8	3.02e+01	58	41	0	557318144	50	6572
2026-01-30 18:41:30.70	262.07	5.77	-38.6	-40.0	26.3	3.02e+01	59	41	0	563085312	50	6848
2026-01-30 18:41:33.72	261.79	5.57	-38.9	-40.4	26.0	3.02e+01	59	41	0	568852480	52	6362
2026-01-30 18:41:36.75	261.52	5.38	-38.8	-40.3	26.1	3.02e+01	51	41	0	574619648	52	6290
2026-01-30 18:41:39.78	261.25	5.18	-39.0	-40.5	25.7	3.02e+01	57	41	0	580386816	52	6437
2026-01-30 18:41:42.81	260.99	4.98	-39.1	-40.6	25.7	3.02e+01	59	41	0	586153984	52	6506
2026-01-30 18:41:45.84	260.72	4.79	-39.1	-40.5	25.9	3.02e+01	58	41	0	591396864	52	6473
2026-01-30 18:41:48.87	260.47	4.59	-39.3	-40.9	25.4	3.02e+01	60	41	0	597164032	52	6730
2026-01-30 18:41:51.90	260.21	4.40	-38.9	-40.3	25.9	3.02e+01	60	41	0	602931200	52	6312
2026-01-30 18:41:54.93	259.96	4.21	-39.1	-40.6	25.6	3.02e+01	57	41	0	608698368	52	6502
2026-01-30 18:41:57.96	259.72	4.02	-39.2	-40.7	25.5	3.02e+01	59	41	0	614465536	52	6578
2026-01-30 18:42:00.99	259.48	3.83	-39.0	-40.5	25.6	3.02e+01	52	41	0	619708416	52	6489
2026-01-30 18:42:04.02	259.24	3.64	-39.2	-40.7	25.3	3.02e+01	46	41	0	625475584	52	6625
2026-01-30 18:42:07.05	259.00	3.45	-39.6	-41.2	24.7	3.02e+01	59	41	0	631242752	52	7006
2026-01-30 18:42:10.08	258.77	3.26	-39.2	-40.8	25.2	3.02e+01	51	41	0	637009920	54	5928
2026-01-30 18:42:13.11	258.54	3.08	-39.3	-40.8	25.0	3.02e+01	60	41	0	642777088	52	6675
2026-01-30 18:42:16.14	258.32	2.89	-49.7	-67.4	3.5	3.02e+01	0	41	104	645398528	60	90531
2026-01-30 18:42:19.17	258.10	2.71	-50.0	-67.8	3.5	3.02e+01	0	41	104	645398528	60	94886
2026-01-30 18:42:22.20	257.88	2.52	-50.2	-68.0	3.5	3.02e+01	0	41	104	645398528	60	96286
2026-01-30 18:42:25.24	257.66	2.34	-50.1	-68.0	3.5	3.02e+01	0	41	104	645398528	60	96606
2026-01-30 18:42:28.27	257.45	2.16	-50.1	-68.0	3.5	3.02e+01	0	41	104	645398528	60	96179
2026-01-30 18:42:31.30	257.24	1.98	-49.7	-67.9	3.5	3.02e+01	0	41	104	645398528	60	95723
2026-01-30 18:42:34.33	257.03	1.80	-50.0	-68.0	3.5	3.02e+01	0	41	104	645398528	60	96397
2026-01-30 18:42:37.35	256.83	1.62	-50.0	-67.8	3.5	3.02e+01	0	41	104	645398528	60	94591
2026-01-30 18:42:40.39	256.63	1.44	-50.2	-68.0	3.5	3.02e+01	0	41	104	645398528	60	96790
2026-01-30 18:42:43.42	256.43	1.27	-50.0	-67.9	3.5	3.02e+01	0	41	104	645398528	60	95349
2026-01-30 18:42:46.45	256.23	1.09	-50.0	-67.9	3.5	3.02e+01	0	41	104	645398528	60	95180
2026-01-30 18:42:49.48	256.04	0.92	-50.0	-67.8	3.5	3.02e+01	0	41	104	645398528	60	94996
2026-01-30 18:42:52.51	255.85	0.74	-50.0	-67.9	3.5	3.02e+01	0	41	104	645398528	60	95074
2026-01-30 18:42:55.54	255.66	0.57	-50.0	-67.8	3.5	3.02e+01	0	41	104	645398528	60	94828
2026-01-30 18:42:58.57	255.47	0.40	-50.0	-67.8	3.5	3.02e+01	0	41	104	645398528	60	94898
2026-01-30 18:43:01.60	255.29	0.23	-50.0	-67.8	3.5	3.02e+01	0	41	104	645398528	60	94944
2026-01-30 18:43:04.63	255.11	0.05	-50.0	-67.9	3.5	3.02e+01	0	41	104	645398528	60	95070

#Closed at: 2026-01-30 18:43:07
#Recorded file [645 MB]: D:/lorett/data/35029_260131_063036.dat