passes_logs/2026/01/30/R4.6S_Anadyr/R4.6S_Anadyr__20260130_174020_FENGYUN_3D_rec.log

#Pass ID: 20260130_174020_FENGYUN 3D
#Satellite: FENGYUN 3D
#Configuration: FENGYUN 3D
#almurnet v.1.7.20251203
#Start time: 2026-01-30 17:40:23

#Version: 2.2.20231116
#Station: R4.6S_Anadyr
#Location: 177.4865 lon 64.73178 lat
#TLE: 1 43010U 17072A   26030.50846455  .00000095  00000+0  66593-4 0  9999
#TLE: 2 43010  98.9956   2.5669 0002528  82.5135 277.6327 14.19702589425455

#Time	Az	El	Level	Level2	SNR	BER	BlckErr	Temp	State	Recorded	gain1	gain2
2026-01-30 17:40:23.40	23.20	0.17	-49.5	-60.1	3.3	8.40e-01	0	39	0	0	60	36759
2026-01-30 17:40:27.43	23.13	0.41	-49.5	-61.7	3.6	8.46e-01	0	40	104	0	60	44074
2026-01-30 17:40:31.47	23.05	0.65	-49.6	-61.7	3.6	8.45e-01	0	40	104	0	60	43992
2026-01-30 17:40:35.51	22.98	0.90	-49.4	-61.5	3.6	8.45e-01	0	40	104	0	60	43199
2026-01-30 17:40:39.55	22.90	1.14	-49.1	-61.2	3.6	8.45e-01	0	40	104	0	60	41546
2026-01-30 17:40:43.60	22.82	1.39	-48.6	-60.6	3.6	8.45e-01	0	40	104	0	60	38896
2026-01-30 17:40:47.64	22.74	1.64	-48.1	-59.8	3.6	8.45e-01	0	40	104	0	60	35129
2026-01-30 17:40:51.68	22.65	1.90	-48.1	-60.1	3.6	8.46e-01	0	40	104	0	60	36609
2026-01-30 17:40:55.72	22.57	2.15	-48.1	-60.2	3.6	8.45e-01	0	40	104	0	60	37041
2026-01-30 17:40:59.76	22.48	2.41	-48.0	-59.5	3.6	8.45e-01	0	40	104	0	60	34225
2026-01-30 17:41:03.79	22.39	2.67	-47.8	-57.1	3.9	8.43e-01	0	40	104	0	60	25942
2026-01-30 17:41:07.83	22.30	2.93	-47.9	-57.7	3.7	8.45e-01	0	40	104	0	60	27804
2026-01-30 17:41:11.87	22.21	3.19	-43.9	-46.1	13.4	4.91e-04	0	40	0	15728640	60	7302
2026-01-30 17:41:15.91	22.12	3.46	-40.3	-41.5	17.7	0.00e+00	0	40	0	37748736	54	6097
2026-01-30 17:41:19.95	22.02	3.73	-46.8	-51.4	7.1	8.34e-01	0	40	0	52428800	60	13382
2026-01-30 17:41:23.99	21.92	4.00	-36.9	-37.8	6.1	8.09e-01	0	40	104	60817408	48	5571
2026-01-30 17:41:28.03	21.82	4.28	-36.0	-36.8	22.4	0.00e+00	0	40	0	78643200	46	5617
2026-01-30 17:41:32.07	21.72	4.55	-36.2	-37.0	22.3	0.00e+00	0	40	0	101711872	46	5710
2026-01-30 17:41:36.12	21.61	4.84	-36.0	-36.8	22.5	0.00e+00	0	40	0	124780544	46	5614
2026-01-30 17:41:40.16	21.50	5.12	-36.4	-37.2	22.1	0.00e+00	0	40	0	146800640	46	5879
2026-01-30 17:41:44.20	21.39	5.40	-36.1	-36.8	22.5	0.00e+00	0	41	0	169869312	46	5618
2026-01-30 17:41:48.24	21.28	5.69	-35.8	-36.6	22.9	0.00e+00	0	40	0	192937984	46	5464
2026-01-30 17:41:52.29	21.17	5.98	-35.9	-36.7	22.8	0.00e+00	0	41	0	214958080	46	5549
2026-01-30 17:41:56.33	21.05	6.28	-35.9	-36.6	22.9	0.00e+00	0	41	0	238026752	46	5492
2026-01-30 17:42:00.37	20.93	6.58	-35.7	-36.5	23.1	0.00e+00	0	41	0	261095424	44	6044
2026-01-30 17:42:04.41	20.80	6.88	-35.7	-36.5	23.1	0.00e+00	0	41	0	284164096	44	6039
2026-01-30 17:42:08.45	20.68	7.19	-35.6	-36.3	23.2	0.00e+00	0	41	0	306184192	44	5950
2026-01-30 17:42:12.49	20.55	7.49	-35.8	-36.5	23.0	0.00e+00	0	41	0	329252864	44	6079
2026-01-30 17:42:16.53	20.41	7.81	-35.4	-36.2	23.5	0.00e+00	0	41	0	352321536	44	5842
2026-01-30 17:42:20.57	20.28	8.12	-35.3	-36.1	23.5	0.00e+00	0	41	0	374341632	44	5773
2026-01-30 17:42:24.61	20.14	8.44	-34.9	-35.7	24.0	0.00e+00	0	41	0	397410304	44	5512
2026-01-30 17:42:28.65	19.99	8.77	-34.9	-35.6	24.0	0.00e+00	0	41	0	419430400	44	5486
2026-01-30 17:42:32.70	19.85	9.09	-34.9	-35.6	23.9	0.00e+00	0	41	0	442499072	44	5467
2026-01-30 17:42:36.74	19.70	9.43	-34.8	-35.5	24.2	0.00e+00	0	41	0	465567744	42	6075
2026-01-30 17:42:40.78	19.54	9.76	-34.8	-35.5	24.1	0.00e+00	0	41	0	488636416	42	6093
2026-01-30 17:42:44.82	19.38	10.10	-34.5	-35.2	24.5	0.00e+00	0	41	0	510656512	42	5884
2026-01-30 17:42:48.86	19.22	10.45	-34.3	-35.0	24.7	0.00e+00	0	41	0	533725184	42	5739
2026-01-30 17:42:52.90	19.05	10.80	-34.2	-34.9	24.7	0.00e+00	0	41	0	556793856	42	5668
2026-01-30 17:42:56.94	18.88	11.15	-34.1	-34.8	24.9	0.00e+00	0	41	0	578813952	42	5610
2026-01-30 17:43:00.98	18.71	11.51	-34.3	-35.0	24.8	0.00e+00	0	41	0	601882624	42	5703
2026-01-30 17:43:05.02	18.53	11.88	-34.3	-35.0	24.8	0.00e+00	0	41	0	624951296	42	5758
2026-01-30 17:43:09.06	18.34	12.24	-34.1	-34.8	24.9	0.00e+00	0	41	0	646971392	42	5583
2026-01-30 17:43:13.10	18.15	12.62	-34.0	-34.7	25.0	0.00e+00	0	41	0	670040064	42	5521
2026-01-30 17:43:17.14	17.95	13.00	-33.8	-34.5	25.3	0.00e+00	0	41	0	693108736	42	5421
2026-01-30 17:43:21.19	17.75	13.39	-33.7	-34.4	25.3	0.00e+00	0	41	0	715128832	40	6000
2026-01-30 17:43:25.23	17.55	13.78	-33.6	-34.3	25.4	0.00e+00	0	41	0	738197504	40	5937
2026-01-30 17:43:29.26	17.33	14.18	-33.4	-34.1	25.7	0.00e+00	0	41	0	761266176	40	5809
2026-01-30 17:43:33.30	17.11	14.58	-33.3	-33.9	25.8	0.00e+00	0	41	0	783286272	40	5694
2026-01-30 17:43:37.34	16.89	14.99	-33.3	-34.0	25.8	0.00e+00	0	41	0	806354944	40	5699
2026-01-30 17:43:41.39	16.65	15.41	-33.1	-33.7	26.0	0.00e+00	0	41	0	829423616	40	5536
2026-01-30 17:43:45.42	16.41	15.83	-33.0	-33.7	26.1	0.00e+00	0	41	0	851443712	40	5520
2026-01-30 17:43:49.46	16.16	16.26	-32.7	-33.4	26.3	0.00e+00	0	41	0	874512384	38	5974
2026-01-30 17:43:53.50	15.91	16.70	-32.6	-33.2	26.4	0.00e+00	0	41	0	897581056	38	5883
2026-01-30 17:43:57.54	15.65	17.15	-32.2	-32.9	26.8	0.00e+00	0	41	0	919601152	38	5657
2026-01-30 17:44:01.58	15.37	17.60	-32.2	-32.9	26.8	0.00e+00	0	41	0	942669824	38	5638
2026-01-30 17:44:05.62	15.09	18.06	-32.0	-32.6	27.0	0.00e+00	0	41	0	965738496	38	5499
2026-01-30 17:44:09.66	14.80	18.53	-32.0	-32.6	27.0	0.00e+00	0	41	0	988807168	38	5488
2026-01-30 17:44:13.70	14.50	19.00	-31.9	-32.6	27.0	0.00e+00	0	41	0	1010827264	38	5456
2026-01-30 17:44:17.74	14.19	19.49	-32.1	-32.7	27.0	0.00e+00	0	41	0	1033895936	38	5532
2026-01-30 17:44:21.78	13.87	19.98	-31.9	-32.5	27.0	0.00e+00	0	41	0	1055916032	38	5423
2026-01-30 17:44:25.82	13.54	20.49	-32.1	-32.8	27.0	0.00e+00	0	41	0	1078984704	38	5577
2026-01-30 17:44:29.86	13.20	21.00	-32.1	-32.7	27.1	0.00e+00	0	41	0	1102053376	38	5527
2026-01-30 17:44:33.90	12.84	21.52	-31.5	-32.1	27.4	0.00e+00	0	41	0	1124073472	36	5823
2026-01-30 17:44:37.94	12.48	22.05	-31.6	-32.3	27.4	0.00e+00	0	41	0	1147142144	36	5899
2026-01-30 17:44:41.98	12.09	22.59	-31.5	-32.1	27.4	0.00e+00	0	41	0	1170210816	36	5821
2026-01-30 17:44:46.03	11.70	23.15	-31.4	-32.0	27.6	0.00e+00	0	41	0	1193279488	36	5722
2026-01-30 17:44:50.06	11.29	23.71	-31.1	-31.7	27.8	0.00e+00	0	41	0	1215299584	36	5548
2026-01-30 17:44:54.11	10.86	24.28	-31.0	-31.6	27.9	0.00e+00	0	41	0	1238368256	36	5464
2026-01-30 17:44:58.15	10.42	24.86	-31.1	-31.8	27.7	0.00e+00	0	41	0	1260388352	36	5580
2026-01-30 17:45:02.19	9.96	25.46	-31.2	-31.8	27.7	0.00e+00	0	41	0	1283457024	36	5591
2026-01-30 17:45:06.23	9.48	26.07	-30.8	-31.4	28.0	0.00e+00	0	41	0	1306525696	36	5371
2026-01-30 17:45:10.27	8.98	26.68	-30.7	-31.4	28.1	0.00e+00	0	41	0	1329594368	34	5975
2026-01-30 17:45:14.31	8.46	27.31	-30.7	-31.3	28.1	0.00e+00	0	41	0	1351614464	34	5919
2026-01-30 17:45:18.35	7.92	27.95	-30.8	-31.4	28.0	0.00e+00	0	41	0	1374683136	34	5995
2026-01-30 17:45:22.39	7.36	28.61	-30.7	-31.3	28.3	0.00e+00	0	41	0	1397751808	34	5898
2026-01-30 17:45:26.43	6.77	29.28	-30.3	-30.9	28.5	0.00e+00	0	41	0	1419771904	34	5632
2026-01-30 17:45:30.47	6.16	29.95	-30.5	-31.1	28.3	0.00e+00	0	41	0	1442840576	34	5818
2026-01-30 17:45:34.52	5.52	30.65	-30.3	-30.8	28.5	0.00e+00	0	41	0	1465909248	34	5617
2026-01-30 17:45:38.55	4.85	31.35	-30.2	-30.8	28.5	0.00e+00	0	41	0	1487929344	34	5575
2026-01-30 17:45:42.60	4.15	32.07	-30.1	-30.7	28.6	0.00e+00	0	41	0	1510998016	34	5540
2026-01-30 17:45:46.64	3.42	32.80	-30.1	-30.7	28.6	0.00e+00	0	41	0	1534066688	34	5517
2026-01-30 17:45:50.68	2.65	33.54	-30.1	-30.6	28.6	0.00e+00	0	41	0	1556086784	34	5483
2026-01-30 17:45:54.72	1.85	34.29	-29.9	-30.5	28.8	0.00e+00	0	41	0	1579155456	34	5418
2026-01-30 17:45:58.76	1.00	35.06	-29.9	-30.5	28.8	0.00e+00	0	41	0	1602224128	34	5424
2026-01-30 17:46:02.80	0.12	35.83	-30.1	-30.7	28.6	0.00e+00	0	41	0	1624244224	34	5553
2026-01-30 17:46:06.84	359.19	36.62	-30.0	-30.6	28.7	0.00e+00	0	41	0	1647312896	34	5462
2026-01-30 17:46:10.88	358.22	37.42	-30.5	-31.1	28.3	0.00e+00	0	41	0	1670381568	34	5804
2026-01-30 17:46:14.92	357.19	38.22	-30.3	-30.9	28.5	0.00e+00	0	41	0	1692401664	34	5659
2026-01-30 17:46:18.96	356.11	39.04	-30.1	-30.7	28.6	0.00e+00	0	41	0	1715470336	34	5556
2026-01-30 17:46:23.01	354.98	39.86	-30.2	-30.8	28.6	0.00e+00	0	41	0	1738539008	34	5571
2026-01-30 17:46:27.05	353.78	40.69	-30.4	-31.0	28.3	0.00e+00	0	41	0	1760559104	34	5738
2026-01-30 17:46:31.09	352.52	41.53	-30.5	-31.1	28.3	0.00e+00	0	41	0	1783627776	34	5775
2026-01-30 17:46:35.13	351.20	42.36	-30.5	-31.2	28.3	0.00e+00	0	41	0	1806696448	34	5862
2026-01-30 17:46:39.17	349.80	43.20	-30.2	-30.8	28.5	0.00e+00	0	41	0	1829765120	34	5614
2026-01-30 17:46:43.22	348.32	44.03	-30.4	-30.9	28.4	0.00e+00	0	41	0	1851785216	34	5679
2026-01-30 17:46:47.26	346.77	44.86	-30.5	-31.1	28.3	0.00e+00	0	41	0	1874853888	34	5805
2026-01-30 17:46:51.31	345.13	45.69	-30.6	-31.2	28.1	0.00e+00	0	41	0	1896873984	34	5881
2026-01-30 17:46:55.35	343.41	46.50	-30.8	-31.4	28.1	0.00e+00	0	41	0	1919942656	34	5984
2026-01-30 17:46:59.39	341.59	47.29	-30.9	-31.5	28.0	0.00e+00	0	41	0	1943011328	34	6093
2026-01-30 17:47:03.43	339.68	48.07	-31.1	-31.7	27.9	0.00e+00	0	41	0	1966080000	34	6200
2026-01-30 17:47:07.47	337.68	48.83	-31.5	-32.1	27.5	0.00e+00	0	41	0	1988100096	34	6495
2026-01-30 17:47:11.51	335.57	49.55	-31.0	-31.6	28.0	0.00e+00	0	41	0	2011168768	34	6156
2026-01-30 17:47:15.55	333.36	50.25	-31.8	-32.4	27.3	0.00e+00	0	41	0	2034237440	36	5996
2026-01-30 17:47:19.59	331.05	50.91	-31.9	-32.5	27.2	0.00e+00	0	41	0	2056257536	36	6073
2026-01-30 17:47:23.63	328.64	51.52	-31.3	-31.9	27.6	0.00e+00	0	41	0	2079326208	36	5675
2026-01-30 17:47:27.67	326.13	52.09	-31.2	-31.9	27.8	0.00e+00	0	41	0	2102394880	36	5634
2026-01-30 17:47:31.71	323.53	52.61	-31.2	-31.7	27.8	0.00e+00	0	41	0	2124414976	36	5562
2026-01-30 17:47:35.76	320.83	53.06	-30.9	-31.5	28.1	0.00e+00	0	41	0	2147483648	36	5392
2026-01-30 17:47:39.80	318.06	53.45	-30.8	-31.5	28.0	0.00e+00	0	41	0	2170552320	34	6044
2026-01-30 17:47:43.84	315.22	53.78	-31.2	-31.8	27.7	0.00e+00	0	41	0	2192572416	34	6312
2026-01-30 17:47:47.89	312.31	54.03	-31.3	-31.9	27.6	0.00e+00	0	41	0	2215641088	34	6343
2026-01-30 17:47:51.93	309.37	54.21	-31.6	-32.2	27.4	0.00e+00	0	41	0	2238709760	36	5885
2026-01-30 17:47:55.97	306.40	54.32	-31.3	-32.0	27.7	0.00e+00	0	41	0	2261778432	36	5716
2026-01-30 17:48:00.01	303.41	54.34	-31.0	-31.6	27.9	0.00e+00	0	41	0	2283798528	36	5501
2026-01-30 17:48:04.05	300.43	54.29	-31.9	-32.6	27.2	0.00e+00	0	41	0	2306867200	36	6110
2026-01-30 17:48:08.10	297.46	54.15	-31.3	-31.9	27.7	0.00e+00	0	41	0	2328887296	36	5649
2026-01-30 17:48:12.14	294.53	53.95	-31.0	-31.6	27.9	0.00e+00	0	41	0	2351955968	36	5482
2026-01-30 17:48:16.18	291.65	53.67	-31.4	-32.1	27.6	0.00e+00	0	41	0	2375024640	36	5787
2026-01-30 17:48:20.23	288.82	53.31	-31.1	-31.7	27.8	0.00e+00	0	41	0	2398093312	36	5563
2026-01-30 17:48:24.27	286.08	52.90	-31.0	-31.6	28.1	0.00e+00	0	41	0	2420113408	36	5477
2026-01-30 17:48:28.31	283.42	52.42	-31.2	-31.9	27.7	0.00e+00	0	41	0	2443182080	36	5641
2026-01-30 17:48:32.35	280.85	51.88	-30.9	-31.4	28.0	0.00e+00	0	41	0	2466250752	34	6008
2026-01-30 17:48:36.39	278.37	51.29	-31.1	-31.7	27.8	0.00e+00	0	41	0	2488270848	34	6190
2026-01-30 17:48:40.43	275.99	50.66	-31.0	-31.6	28.0	0.00e+00	0	41	0	2511339520	34	6149
2026-01-30 17:48:44.47	273.72	49.99	-30.9	-31.5	28.0	0.00e+00	0	41	0	2534408192	34	6043
2026-01-30 17:48:48.51	271.54	49.28	-31.1	-31.8	27.9	0.00e+00	0	41	0	2556428288	34	6271
2026-01-30 17:48:52.55	269.47	48.54	-30.5	-31.2	28.4	0.00e+00	0	41	0	2579496960	34	5852
2026-01-30 17:48:56.59	267.50	47.77	-30.5	-31.1	28.4	0.00e+00	0	41	0	2602565632	34	5776
2026-01-30 17:49:00.63	265.62	46.98	-30.3	-30.9	28.5	0.00e+00	0	41	0	2624585728	34	5692
2026-01-30 17:49:04.67	263.84	46.18	-30.7	-31.3	28.4	0.00e+00	0	41	0	2647654400	34	5955
2026-01-30 17:49:08.71	262.15	45.36	-30.2	-30.9	28.5	0.00e+00	0	41	0	2670723072	34	5653
2026-01-30 17:49:12.75	260.54	44.53	-30.1	-30.7	28.7	0.00e+00	0	41	0	2692743168	34	5556
2026-01-30 17:49:16.79	259.01	43.70	-30.2	-30.8	28.5	0.00e+00	0	41	0	2715811840	34	5618
2026-01-30 17:49:20.83	257.57	42.86	-29.9	-30.6	28.6	0.00e+00	0	41	0	2738880512	34	5457
2026-01-30 17:49:24.88	256.19	42.02	-30.1	-30.6	28.4	0.00e+00	0	41	0	2760900608	34	5466
2026-01-30 17:49:28.92	254.89	41.18	-30.1	-30.7	28.4	0.00e+00	0	41	0	2783969280	34	5563
2026-01-30 17:49:32.96	253.65	40.35	-30.0	-30.5	28.7	0.00e+00	0	41	0	2807037952	34	5424
2026-01-30 17:49:37.00	252.48	39.52	-30.0	-30.5	28.7	0.00e+00	0	41	0	2829058048	34	5413
2026-01-30 17:49:41.04	251.36	38.70	-30.1	-30.6	28.7	0.00e+00	0	41	0	2852126720	34	5449
2026-01-30 17:49:45.08	250.30	37.88	-29.8	-30.3	28.8	0.00e+00	0	41	0	2875195392	34	5312
2026-01-30 17:49:49.13	249.29	37.08	-30.1	-30.8	28.6	0.00e+00	0	41	0	2898264064	34	5591
2026-01-30 17:49:53.17	248.33	36.28	-30.3	-30.9	28.3	0.00e+00	0	41	0	2920284160	34	5637
2026-01-30 17:49:57.21	247.42	35.49	-29.7	-30.3	28.8	0.00e+00	0	41	0	2943352832	32	5934
2026-01-30 17:50:01.25	246.55	34.72	-30.0	-30.7	28.6	0.00e+00	0	41	0	2965372928	32	6183
2026-01-30 17:50:05.29	245.72	33.96	-29.9	-30.4	28.7	0.00e+00	0	41	0	2988441600	32	6011
2026-01-30 17:50:09.33	244.93	33.20	-29.9	-30.6	28.8	0.00e+00	0	41	0	3011510272	32	6139
2026-01-30 17:50:13.37	244.17	32.47	-29.9	-30.4	28.7	0.00e+00	0	41	0	3034578944	32	6008
2026-01-30 17:50:17.41	243.45	31.74	-30.2	-30.8	28.5	0.00e+00	0	41	0	3056599040	32	6307
2026-01-30 17:50:21.46	242.76	31.02	-30.1	-30.6	28.6	0.00e+00	0	41	0	3079667712	32	6159
2026-01-30 17:50:25.50	242.10	30.32	-30.4	-31.0	28.4	0.00e+00	0	41	0	3101687808	32	6405
2026-01-30 17:50:29.54	241.47	29.63	-30.6	-31.2	28.0	0.00e+00	0	41	0	3124756480	32	6548
2026-01-30 17:50:33.58	240.86	28.96	-30.6	-31.1	28.0	0.00e+00	0	41	0	3147825152	32	6511
2026-01-30 17:50:37.62	240.28	28.29	-30.4	-31.1	28.1	0.00e+00	0	41	0	3170893824	32	6474
2026-01-30 17:50:41.66	239.72	27.64	-30.7	-31.4	27.8	0.00e+00	0	41	0	3192913920	34	6012
2026-01-30 17:50:45.70	239.19	27.00	-30.9	-31.4	27.9	0.00e+00	0	41	0	3215982592	34	5997
2026-01-30 17:50:49.74	238.68	26.38	-30.7	-31.4	27.9	0.00e+00	0	41	0	3239051264	34	6003
2026-01-30 17:50:53.78	238.19	25.76	-30.6	-31.1	28.0	0.00e+00	0	41	0	3261071360	34	5807
2026-01-30 17:50:57.83	237.71	25.16	-30.6	-31.3	28.0	0.00e+00	0	41	0	3284140032	34	5944
2026-01-30 17:51:01.87	237.26	24.56	-30.8	-31.3	27.8	0.00e+00	0	41	0	3307208704	34	5961
2026-01-30 17:51:05.91	236.82	23.98	-30.8	-31.3	27.8	0.00e+00	0	41	0	3329228800	34	5935
2026-01-30 17:51:09.95	236.39	23.41	-30.8	-31.4	27.8	0.00e+00	0	41	0	3352297472	34	5975
2026-01-30 17:51:14.00	235.99	22.85	-31.1	-31.8	27.6	0.00e+00	0	41	0	3375366144	34	6303
2026-01-30 17:51:18.04	235.59	22.30	-31.2	-31.8	27.5	0.00e+00	0	41	0	3397386240	34	6255
2026-01-30 17:51:22.08	235.22	21.76	-31.3	-31.9	27.4	0.00e+00	0	41	0	3420454912	34	6330
2026-01-30 17:51:26.12	234.85	21.23	-31.4	-32.1	27.4	0.00e+00	0	41	0	3443523584	34	6473
2026-01-30 17:51:30.16	234.50	20.71	-31.4	-32.1	27.3	0.00e+00	0	41	0	3465543680	34	6512
2026-01-30 17:51:34.20	234.16	20.20	-31.5	-32.1	27.3	0.00e+00	0	41	0	3488612352	34	6493
2026-01-30 17:51:38.24	233.83	19.70	-31.6	-32.1	27.2	0.00e+00	0	41	0	3511681024	34	6533
2026-01-30 17:51:42.29	233.51	19.21	-31.7	-32.3	27.1	0.00e+00	0	41	0	3533701120	36	5912
2026-01-30 17:51:46.33	233.20	18.73	-32.1	-32.8	26.8	0.00e+00	0	41	0	3556769792	36	6262
2026-01-30 17:51:50.37	232.90	18.25	-32.1	-32.8	26.8	0.00e+00	0	41	0	3579838464	36	6267
2026-01-30 17:51:54.41	232.61	17.79	-32.2	-32.8	26.7	0.00e+00	0	41	0	3601858560	36	6293
2026-01-30 17:51:58.45	232.33	17.33	-32.2	-33.0	26.7	0.00e+00	0	41	0	3624927232	36	6399
2026-01-30 17:52:02.49	232.06	16.88	-32.4	-33.1	26.6	0.00e+00	0	41	0	3647995904	36	6485
2026-01-30 17:52:06.54	231.80	16.43	-32.5	-33.1	26.5	0.00e+00	0	41	0	3671064576	36	6467
2026-01-30 17:52:10.58	231.55	16.00	-32.7	-33.3	26.2	0.00e+00	0	41	0	3693084672	38	5931
2026-01-30 17:52:14.62	231.30	15.57	-32.9	-33.4	26.1	0.00e+00	0	41	0	3716153344	38	6023
2026-01-30 17:52:18.66	231.06	15.15	-33.2	-33.8	25.9	0.00e+00	0	41	0	3739222016	38	6287
2026-01-30 17:52:22.70	230.83	14.73	-33.4	-34.0	25.7	0.00e+00	0	41	0	3761242112	38	6412
2026-01-30 17:52:26.74	230.60	14.32	-33.7	-34.4	25.4	0.00e+00	0	41	0	3784310784	38	6722
2026-01-30 17:52:30.78	230.38	13.92	-33.8	-34.4	25.3	0.00e+00	0	41	0	3807379456	40	6017
2026-01-30 17:52:34.83	230.17	13.52	-34.2	-34.8	24.9	0.00e+00	0	41	0	3829399552	40	6291
2026-01-30 17:52:38.87	229.96	13.13	-34.2	-35.0	24.9	0.00e+00	0	41	0	3852468224	40	6401
2026-01-30 17:52:42.91	229.76	12.75	-34.6	-35.3	24.5	0.00e+00	0	41	0	3875536896	40	6691
2026-01-30 17:52:46.95	229.56	12.37	-34.5	-35.3	24.6	0.00e+00	0	41	0	3897556992	40	6627
2026-01-30 17:52:50.99	229.37	11.99	-34.8	-35.4	24.3	0.00e+00	0	41	0	3920625664	42	5993
2026-01-30 17:52:55.03	229.18	11.62	-35.0	-35.6	24.2	0.00e+00	0	41	0	3943694336	42	6125
2026-01-30 17:52:59.07	229.00	11.26	-35.3	-35.9	23.8	0.00e+00	0	41	0	3965714432	42	6352
2026-01-30 17:53:03.11	228.82	10.90	-35.6	-36.2	23.5	0.00e+00	0	41	0	3988783104	42	6603
2026-01-30 17:53:07.15	228.65	10.55	-35.8	-36.6	23.2	0.00e+00	0	41	0	4011851776	44	6160
2026-01-30 17:53:11.19	228.48	10.20	-36.3	-37.0	22.7	0.00e+00	0	41	0	4033871872	44	6436
2026-01-30 17:53:15.24	228.32	9.86	-36.2	-37.1	22.8	0.00e+00	0	41	0	4056940544	44	6473
2026-01-30 17:53:19.28	228.16	9.52	-36.5	-37.3	22.5	0.00e+00	0	41	0	4080009216	44	6630
2026-01-30 17:53:23.32	228.00	9.18	-36.9	-37.7	22.1	0.00e+00	0	41	0	4103077888	46	6177
2026-01-30 17:53:27.36	227.85	8.85	-37.3	-38.0	21.7	0.00e+00	0	41	0	4125097984	46	6444
2026-01-30 17:53:31.40	227.70	8.52	-37.5	-38.4	21.4	0.00e+00	0	41	0	4148166656	46	6723
2026-01-30 17:53:35.45	227.56	8.20	-37.9	-38.7	20.8	0.00e+00	0	41	0	4170186752	48	6242
2026-01-30 17:53:39.49	227.42	7.88	-38.1	-39.0	20.6	0.00e+00	0	41	0	4193255424	48	6392
2026-01-30 17:53:43.53	227.28	7.57	-38.3	-39.2	20.3	0.00e+00	0	41	0	4216324096	48	6582
2026-01-30 17:53:47.57	227.15	7.26	-38.3	-39.2	20.3	0.00e+00	0	41	0	4239392768	48	6611
2026-01-30 17:53:51.61	227.01	6.95	-38.5	-39.4	19.6	0.00e+00	0	41	0	4261412864	48	6769
2026-01-30 17:53:55.65	226.89	6.64	-38.9	-40.0	18.8	0.00e+00	0	41	0	4284481536	50	6404
2026-01-30 17:53:59.69	226.76	6.34	-39.2	-40.2	18.6	0.00e+00	0	41	0	4307550208	50	6610
2026-01-30 17:54:03.73	226.64	6.05	-39.2	-40.3	18.4	0.00e+00	0	41	0	4329570304	50	6626
2026-01-30 17:54:07.78	226.52	5.75	-39.4	-40.6	18.1	0.00e+00	0	41	0	4352638976	50	6868
2026-01-30 17:54:11.82	226.40	5.46	-39.5	-40.6	18.3	0.00e+00	0	41	0	4375707648	50	6870
2026-01-30 17:54:15.86	226.28	5.17	-39.8	-41.0	17.6	0.00e+00	0	41	0	4397727744	52	6448
2026-01-30 17:54:19.91	226.17	4.89	-39.9	-41.1	17.2	0.00e+00	0	41	0	4420796416	52	6478
2026-01-30 17:54:23.95	226.06	4.60	-40.2	-41.5	16.8	0.00e+00	0	41	0	4443865088	52	6777
2026-01-30 17:54:27.99	225.95	4.32	-40.3	-41.7	16.2	0.00e+00	0	41	0	4465885184	52	6951
2026-01-30 17:54:32.04	225.85	4.05	-40.8	-42.3	15.9	0.00e+00	0	41	0	4488953856	54	6666
2026-01-30 17:54:36.08	225.74	3.77	-40.4	-41.8	16.4	0.00e+00	0	41	0	4512022528	54	6259
2026-01-30 17:54:40.12	225.64	3.50	-41.2	-42.7	15.3	0.00e+00	0	41	0	4535091200	54	6989
2026-01-30 17:54:44.16	225.54	3.23	-40.9	-42.3	15.9	0.00e+00	0	41	0	4557111296	54	6684
2026-01-30 17:54:48.20	225.45	2.97	-47.9	-59.9	3.6	8.45e-01	0	41	104	4575985664	60	35652
2026-01-30 17:54:52.23	225.35	2.70	-49.5	-61.6	3.6	8.45e-01	0	41	104	4575985664	60	43306
2026-01-30 17:54:56.27	225.26	2.44	-49.7	-61.8	3.6	8.44e-01	0	41	104	4575985664	60	44540
2026-01-30 17:55:00.31	225.17	2.18	-49.7	-61.8	3.6	8.45e-01	0	41	104	4575985664	60	44586
2026-01-30 17:55:04.35	225.08	1.93	-49.6	-61.7	3.6	8.45e-01	0	41	104	4575985664	60	44155
2026-01-30 17:55:08.39	224.99	1.67	-49.4	-61.7	3.6	8.46e-01	0	41	104	4575985664	60	43744
2026-01-30 17:55:12.43	224.90	1.42	-49.5	-61.7	3.6	8.45e-01	0	41	104	4575985664	60	43868
2026-01-30 17:55:16.47	224.82	1.17	-49.6	-61.7	3.6	8.44e-01	0	41	104	4575985664	60	43801
2026-01-30 17:55:20.51	224.73	0.92	-49.5	-61.7	3.6	8.46e-01	0	41	104	4575985664	60	43756
2026-01-30 17:55:24.55	224.65	0.68	-49.6	-61.7	3.6	8.45e-01	0	41	104	4575985664	60	43827
2026-01-30 17:55:28.59	224.57	0.43	-49.5	-61.6	3.6	8.46e-01	0	41	104	4575985664	60	43526
2026-01-30 17:55:32.63	224.49	0.19	-49.5	-61.7	3.6	8.45e-01	0	41	104	4575985664	60	43976
2026-01-30 17:55:36.67	224.42	-0.05	-49.5	-61.7	3.6	8.47e-01	0	41	104	4575985664	60	43753

#Closed at: 2026-01-30 17:55:38
#Recorded file [4575 MB]: D:/lorett/data/35029_260131_054023.dat