passes_logs/2026/01/30/R4.6S_Anadyr/R4.6S_Anadyr__20260130_011804_SUOMI_NPP_rec.log

#Pass ID: 20260130_011804_SUOMI NPP
#Satellite: SUOMI NPP
#Configuration: NPP
#almurnet v.1.7.20251203
#Start time: 2026-01-30 01:18:06

#Version: 2.2.20231116
#Station: R4.6S_Anadyr
#Location: 177.4865 lon 64.73178 lat
#TLE: 1 37849U 11061A   26029.48304708  .00000140  00000+0  87283-4 0  9999
#TLE: 2 37849  98.7824 331.4079 0002024  38.4342 321.6978 14.19531488738761

#Time	Az	El	Level	Level2	SNR	BER	BlckErr	Temp	State	Recorded	gain1	gain2
2026-01-30 01:18:06.99	181.73	0.12	-49.4	-62.0	3.4	1.52e+00	0	34	0	0	60	44013
2026-01-30 01:18:11.02	181.87	0.36	-49.4	-64.6	3.6	1.51e+00	0	36	104	0	60	61622
2026-01-30 01:18:15.06	182.01	0.60	-49.4	-64.7	3.6	1.51e+00	0	36	104	0	60	62004
2026-01-30 01:18:19.10	182.15	0.84	-49.4	-64.6	3.6	1.51e+00	0	36	104	0	60	61540
2026-01-30 01:18:23.15	182.29	1.08	-49.4	-64.6	3.6	1.51e+00	0	36	104	0	60	61568
2026-01-30 01:18:27.19	182.43	1.32	-49.4	-64.6	3.6	1.51e+00	0	36	104	0	60	61681
2026-01-30 01:18:31.23	182.58	1.57	-49.4	-64.7	3.6	1.51e+00	0	36	104	0	60	62080
2026-01-30 01:18:35.27	182.73	1.82	-49.4	-64.7	3.6	1.51e+00	0	36	104	0	60	61770
2026-01-30 01:18:39.31	182.88	2.07	-49.4	-64.7	3.6	1.51e+00	0	36	104	0	60	62013
2026-01-30 01:18:43.35	183.04	2.32	-49.4	-64.7	3.6	1.51e+00	0	36	104	0	60	61904
2026-01-30 01:18:47.40	183.19	2.57	-49.4	-64.7	3.6	1.51e+00	0	36	104	0	60	62210
2026-01-30 01:18:51.44	183.35	2.83	-49.4	-64.7	3.6	1.51e+00	0	36	104	0	60	61852
2026-01-30 01:18:55.48	183.51	3.09	-49.4	-64.7	3.6	1.51e+00	0	36	104	0	60	61821
2026-01-30 01:18:59.52	183.68	3.35	-49.4	-64.7	3.6	1.51e+00	0	37	104	0	60	61855
2026-01-30 01:19:03.56	183.84	3.61	-49.4	-64.7	3.6	1.51e+00	0	37	104	0	60	62055
2026-01-30 01:19:07.60	184.01	3.87	-49.4	-64.7	3.6	1.51e+00	0	37	104	0	60	62011
2026-01-30 01:19:11.64	184.18	4.14	-49.4	-64.6	3.6	1.51e+00	0	37	104	0	60	61712
2026-01-30 01:19:15.68	184.36	4.41	-49.4	-64.7	3.6	1.51e+00	0	37	104	0	60	61855
2026-01-30 01:19:19.72	184.54	4.68	-49.4	-64.6	3.6	1.51e+00	0	37	104	0	60	61678
2026-01-30 01:19:23.76	184.72	4.96	-49.4	-64.7	3.6	1.51e+00	0	37	104	0	60	61896
2026-01-30 01:19:27.80	184.90	5.24	-49.4	-64.7	3.6	1.51e+00	0	37	104	0	60	61866
2026-01-30 01:19:31.84	185.09	5.52	-49.4	-64.6	3.6	1.51e+00	0	37	104	0	60	61343
2026-01-30 01:19:35.88	185.28	5.80	-49.4	-64.7	3.6	1.51e+00	0	37	104	0	60	61947
2026-01-30 01:19:39.92	185.48	6.09	-49.4	-64.6	3.6	1.51e+00	0	37	104	0	60	61693
2026-01-30 01:19:43.96	185.68	6.37	-49.4	-64.7	3.6	1.51e+00	0	37	104	0	60	61924
2026-01-30 01:19:48.00	185.88	6.67	-49.4	-64.7	3.6	1.51e+00	0	37	104	0	60	61878
2026-01-30 01:19:52.04	186.08	6.96	-49.4	-64.7	3.6	1.51e+00	0	37	104	0	60	61855
2026-01-30 01:19:56.08	186.29	7.26	-49.4	-64.7	3.6	1.51e+00	0	37	104	0	60	62025
2026-01-30 01:20:00.13	186.51	7.56	-49.4	-64.7	3.6	1.51e+00	0	37	104	0	60	61797
2026-01-30 01:20:04.17	186.73	7.87	-49.4	-64.7	3.6	1.51e+00	0	37	104	0	60	61964
2026-01-30 01:20:08.21	186.95	8.17	-49.4	-64.7	3.6	1.51e+00	0	37	104	0	60	61980
2026-01-30 01:20:12.25	187.18	8.49	-49.4	-64.7	3.6	1.51e+00	0	37	104	0	60	62305
2026-01-30 01:20:16.28	187.41	8.80	-49.4	-64.7	3.6	1.51e+00	0	37	104	0	60	61970
2026-01-30 01:20:20.32	187.64	9.12	-49.4	-64.7	3.6	1.51e+00	0	37	104	0	60	62326
2026-01-30 01:20:24.36	187.88	9.44	-49.4	-64.7	3.6	1.51e+00	0	37	104	0	60	61965
2026-01-30 01:20:28.40	188.13	9.77	-49.4	-64.7	3.6	1.51e+00	0	37	104	0	60	61971
2026-01-30 01:20:32.44	188.38	10.10	-49.4	-64.7	3.6	1.51e+00	0	37	104	0	60	62268
2026-01-30 01:20:36.48	188.64	10.43	-49.4	-64.7	3.6	1.51e+00	0	37	104	0	60	61841
2026-01-30 01:20:40.52	188.90	10.77	-49.4	-64.7	3.6	1.51e+00	0	37	104	0	60	61969
2026-01-30 01:20:44.56	189.17	11.11	-49.4	-64.7	3.6	1.51e+00	0	37	104	0	60	61905
2026-01-30 01:20:48.60	189.44	11.46	-49.4	-64.7	3.6	1.51e+00	0	37	104	0	60	61894
2026-01-30 01:20:52.65	189.73	11.81	-49.4	-64.7	3.6	1.51e+00	0	37	104	0	60	61934
2026-01-30 01:20:56.69	190.01	12.17	-49.4	-64.7	3.6	1.51e+00	0	37	104	0	60	61884
2026-01-30 01:21:00.73	190.31	12.53	-49.4	-64.7	3.6	1.51e+00	0	37	104	0	60	61885
2026-01-30 01:21:04.77	190.61	12.89	-49.4	-64.6	3.6	1.51e+00	0	37	104	0	60	61627
2026-01-30 01:21:08.81	190.91	13.26	-49.4	-64.7	3.5	1.51e+00	0	37	104	0	60	62005
2026-01-30 01:21:12.85	191.23	13.64	-49.4	-64.7	3.6	1.51e+00	0	37	104	0	60	61931
2026-01-30 01:21:16.89	191.55	14.02	-49.4	-64.6	3.6	1.51e+00	0	37	104	0	60	61689
2026-01-30 01:21:20.93	191.88	14.40	-49.4	-64.7	3.6	1.51e+00	0	37	104	0	60	61994
2026-01-30 01:21:24.98	192.22	14.79	-49.4	-64.7	3.6	1.51e+00	0	37	104	0	60	62180
2026-01-30 01:21:29.02	192.57	15.19	-49.4	-64.7	3.6	1.51e+00	0	37	104	0	60	62090
2026-01-30 01:21:33.06	192.93	15.59	-49.4	-64.7	3.6	1.51e+00	0	37	104	0	60	62033
2026-01-30 01:21:37.10	193.30	16.00	-49.4	-64.7	3.6	1.51e+00	0	37	104	0	60	62216
2026-01-30 01:21:41.14	193.67	16.41	-49.4	-64.7	3.6	1.51e+00	0	37	104	0	60	62126
2026-01-30 01:21:45.18	194.06	16.83	-49.4	-64.6	3.6	1.51e+00	0	37	104	0	60	61693
2026-01-30 01:21:49.22	194.46	17.26	-49.4	-64.7	3.6	1.51e+00	0	37	104	0	60	62130
2026-01-30 01:21:53.26	194.86	17.69	-49.4	-64.6	3.6	1.51e+00	0	37	104	0	60	61622
2026-01-30 01:21:57.30	195.28	18.13	-49.4	-64.7	3.6	1.51e+00	0	37	104	0	60	61807
2026-01-30 01:22:01.34	195.71	18.57	-49.4	-64.7	3.6	1.51e+00	0	37	104	0	60	62003
2026-01-30 01:22:05.38	196.16	19.02	-49.4	-64.7	3.6	1.51e+00	0	37	104	0	60	62305
2026-01-30 01:22:09.42	196.61	19.48	-49.4	-64.7	3.6	1.51e+00	0	37	104	0	60	62091
2026-01-30 01:22:13.46	197.08	19.94	-49.4	-64.7	3.6	1.51e+00	0	37	104	0	60	62067
2026-01-30 01:22:17.50	197.57	20.41	-49.4	-64.7	3.6	1.51e+00	0	37	104	0	60	62080
2026-01-30 01:22:21.54	198.06	20.89	-49.4	-64.6	3.6	1.51e+00	0	37	104	0	60	61652
2026-01-30 01:22:25.58	198.58	21.38	-49.4	-64.6	3.6	1.51e+00	0	37	104	0	60	61672
2026-01-30 01:22:29.62	199.11	21.87	-49.4	-64.7	3.6	1.51e+00	0	37	104	0	60	61762
2026-01-30 01:22:33.66	199.65	22.37	-49.4	-64.7	3.6	1.51e+00	0	37	104	0	60	61772
2026-01-30 01:22:37.70	200.22	22.87	-49.4	-64.7	3.6	1.51e+00	0	37	104	0	60	62023
2026-01-30 01:22:41.74	200.80	23.39	-49.4	-64.7	3.6	1.51e+00	0	37	104	0	60	61772
2026-01-30 01:22:45.79	201.40	23.91	-49.4	-64.7	3.6	1.51e+00	0	37	104	0	60	62025
2026-01-30 01:22:49.83	202.02	24.44	-49.4	-64.7	3.6	1.51e+00	0	37	104	0	60	62061
2026-01-30 01:22:53.87	202.66	24.97	-49.4	-64.7	3.6	1.51e+00	0	37	104	0	60	62113
2026-01-30 01:22:57.91	203.32	25.52	-49.4	-64.7	3.6	1.51e+00	0	37	104	0	60	61952
2026-01-30 01:23:01.95	204.01	26.07	-49.4	-64.7	3.6	1.51e+00	0	37	104	0	60	61882
2026-01-30 01:23:05.99	204.72	26.62	-49.4	-64.6	3.6	1.51e+00	0	37	104	0	60	61667
2026-01-30 01:23:10.03	205.45	27.19	-49.4	-64.7	3.6	1.51e+00	0	37	104	0	60	61974
2026-01-30 01:23:14.07	206.21	27.76	-49.4	-64.7	3.6	1.51e+00	0	37	104	0	60	61883
2026-01-30 01:23:18.11	207.00	28.34	-49.4	-64.7	3.6	1.51e+00	0	37	104	0	60	62079
2026-01-30 01:23:22.15	207.81	28.92	-49.4	-64.7	3.6	1.51e+00	0	38	104	0	60	62048
2026-01-30 01:23:26.20	208.66	29.51	-49.4	-64.7	3.6	1.51e+00	0	37	104	0	60	61862
2026-01-30 01:23:30.24	209.53	30.11	-49.4	-64.6	3.6	1.51e+00	0	37	104	0	60	61604
2026-01-30 01:23:34.28	210.44	30.71	-49.4	-64.7	3.6	1.51e+00	0	37	104	0	60	62080
2026-01-30 01:23:38.32	211.38	31.31	-49.4	-64.7	3.6	1.51e+00	0	38	104	0	60	61847
2026-01-30 01:23:42.36	212.36	31.92	-49.4	-64.7	3.6	1.51e+00	0	38	104	0	60	61974
2026-01-30 01:23:46.41	213.37	32.53	-49.4	-64.7	3.6	1.51e+00	0	38	104	0	60	61826
2026-01-30 01:23:50.45	214.42	33.15	-49.4	-64.7	3.6	1.51e+00	0	38	104	0	60	62069
2026-01-30 01:23:54.49	215.51	33.77	-49.4	-64.7	3.6	1.51e+00	0	38	104	0	60	61919
2026-01-30 01:23:58.53	216.65	34.38	-49.4	-64.7	3.6	1.51e+00	0	38	104	0	60	62012
2026-01-30 01:24:02.57	217.82	35.00	-49.4	-64.7	3.6	1.51e+00	0	37	104	0	60	62047
2026-01-30 01:24:06.61	219.04	35.61	-49.4	-64.7	3.6	1.51e+00	0	38	104	0	60	62027
2026-01-30 01:24:10.65	220.30	36.22	-49.4	-64.6	3.6	1.51e+00	0	37	104	0	60	61735
2026-01-30 01:24:14.69	221.62	36.83	-49.4	-64.7	3.6	1.51e+00	0	37	104	0	60	61977
2026-01-30 01:24:18.73	222.98	37.43	-49.4	-64.7	3.6	1.51e+00	0	38	104	0	60	62026
2026-01-30 01:24:22.76	224.38	38.03	-49.4	-64.7	3.6	1.51e+00	0	38	104	0	60	61763
2026-01-30 01:24:26.81	225.85	38.61	-49.4	-64.7	3.6	1.51e+00	0	37	104	0	60	61936
2026-01-30 01:24:30.85	227.36	39.18	-49.4	-64.6	3.6	1.51e+00	0	38	104	0	60	61519
2026-01-30 01:24:34.89	228.93	39.74	-49.4	-64.7	3.6	1.51e+00	0	38	104	0	60	62247
2026-01-30 01:24:38.93	230.55	40.29	-49.4	-64.7	3.6	1.51e+00	0	38	104	0	60	61758
2026-01-30 01:24:42.97	232.22	40.81	-49.4	-64.7	3.6	1.51e+00	0	38	104	0	60	62370
2026-01-30 01:24:47.01	233.95	41.32	-49.4	-64.7	3.6	1.51e+00	0	37	104	0	60	61811
2026-01-30 01:24:51.05	235.73	41.80	-49.4	-64.7	3.6	1.51e+00	0	37	104	0	60	61922
2026-01-30 01:24:55.09	237.56	42.26	-49.4	-64.7	3.6	1.51e+00	0	37	104	0	60	61841
2026-01-30 01:24:59.13	239.45	42.69	-49.4	-64.7	3.6	1.51e+00	0	37	104	0	60	61942
2026-01-30 01:25:03.17	241.38	43.09	-49.4	-64.7	3.6	1.51e+00	0	37	104	0	60	61807
2026-01-30 01:25:07.21	243.35	43.46	-49.4	-64.7	3.6	1.51e+00	0	38	104	0	60	62178
2026-01-30 01:25:11.26	245.38	43.79	-49.4	-64.6	3.6	1.51e+00	0	38	104	0	60	61683
2026-01-30 01:25:15.30	247.44	44.09	-49.4	-64.7	3.6	1.51e+00	0	38	104	0	60	61905
2026-01-30 01:25:19.33	249.53	44.34	-49.4	-64.7	3.6	1.51e+00	0	37	104	0	60	62021
2026-01-30 01:25:23.37	251.65	44.56	-49.4	-64.7	3.6	1.51e+00	0	38	104	0	60	62002
2026-01-30 01:25:27.41	253.80	44.73	-49.4	-64.7	3.6	1.51e+00	0	38	104	0	60	61755
2026-01-30 01:25:31.46	255.98	44.86	-49.4	-64.7	3.6	1.51e+00	0	37	104	0	60	62206
2026-01-30 01:25:35.50	258.16	44.95	-49.4	-64.7	3.6	1.51e+00	0	37	104	0	60	61930
2026-01-30 01:25:39.54	260.36	44.99	-49.4	-64.7	3.6	1.51e+00	0	37	104	0	60	61763
2026-01-30 01:25:43.58	262.55	44.98	-49.4	-64.7	3.6	1.51e+00	0	37	104	0	60	61944
2026-01-30 01:25:47.62	264.74	44.93	-49.4	-64.7	3.6	1.51e+00	0	38	104	0	60	61926
2026-01-30 01:25:51.66	266.93	44.83	-49.4	-64.7	3.6	1.51e+00	0	38	104	0	60	62177
2026-01-30 01:25:55.70	269.09	44.69	-49.4	-64.7	3.6	1.51e+00	0	38	104	0	60	61802
2026-01-30 01:25:59.74	271.23	44.51	-49.4	-64.6	3.6	1.51e+00	0	37	104	0	60	61676
2026-01-30 01:26:03.78	273.35	44.29	-49.4	-64.7	3.6	1.51e+00	0	37	104	0	60	62068
2026-01-30 01:26:07.82	275.43	44.02	-49.4	-64.7	3.6	1.51e+00	0	38	104	0	60	61942
2026-01-30 01:26:11.86	277.48	43.72	-49.4	-64.7	3.6	1.51e+00	0	38	104	0	60	61898
2026-01-30 01:26:15.90	279.49	43.38	-49.4	-64.7	3.6	1.51e+00	0	38	104	0	60	62307
2026-01-30 01:26:19.94	281.45	43.00	-49.4	-64.7	3.6	1.51e+00	0	38	104	0	60	61802
2026-01-30 01:26:23.98	283.36	42.60	-49.4	-64.7	3.6	1.51e+00	0	38	104	0	60	61893
2026-01-30 01:26:28.03	285.24	42.16	-49.4	-64.7	3.6	1.51e+00	0	38	104	0	60	62026
2026-01-30 01:26:32.07	287.05	41.70	-49.4	-64.7	3.6	1.51e+00	0	38	104	0	60	62212
2026-01-30 01:26:36.11	288.81	41.21	-49.4	-64.7	3.6	1.51e+00	0	38	104	0	60	62094
2026-01-30 01:26:40.15	290.52	40.70	-49.4	-64.7	3.6	1.51e+00	0	38	104	0	60	62269
2026-01-30 01:26:44.19	292.18	40.17	-49.4	-64.7	3.6	1.51e+00	0	38	104	0	60	62056
2026-01-30 01:26:48.23	293.78	39.63	-49.4	-64.6	3.6	1.51e+00	0	38	104	0	60	61719
2026-01-30 01:26:52.28	295.34	39.07	-49.4	-64.7	3.6	1.51e+00	0	38	104	0	60	61952
2026-01-30 01:26:56.32	296.84	38.49	-49.4	-64.6	3.6	1.51e+00	0	38	104	0	60	61473
2026-01-30 01:27:00.36	298.28	37.91	-49.4	-64.7	3.6	1.51e+00	0	38	104	0	60	61848
2026-01-30 01:27:04.40	299.68	37.32	-49.4	-64.7	3.6	1.51e+00	0	38	104	0	60	61842
2026-01-30 01:27:08.44	301.02	36.72	-49.4	-64.6	3.6	1.51e+00	0	38	104	0	60	61481
2026-01-30 01:27:12.48	302.32	36.11	-49.4	-64.7	3.6	1.51e+00	0	38	104	0	60	61920
2026-01-30 01:27:16.52	303.57	35.50	-49.4	-64.7	3.6	1.51e+00	0	38	104	0	60	61828
2026-01-30 01:27:20.56	304.78	34.89	-49.4	-64.7	3.6	1.51e+00	0	38	104	0	60	61820
2026-01-30 01:27:24.60	305.94	34.28	-49.4	-64.7	3.6	1.51e+00	0	38	104	0	60	62215
2026-01-30 01:27:28.65	307.06	33.66	-49.4	-64.7	3.6	1.51e+00	0	38	104	0	60	62098
2026-01-30 01:27:32.68	308.14	33.05	-49.4	-64.6	3.6	1.51e+00	0	38	104	0	60	61736
2026-01-30 01:27:36.73	309.18	32.44	-49.4	-64.7	3.6	1.51e+00	0	38	104	0	60	62089
2026-01-30 01:27:40.77	310.18	31.83	-49.4	-64.7	3.6	1.51e+00	0	38	104	0	60	61941
2026-01-30 01:27:44.81	311.15	31.23	-49.4	-64.7	3.6	1.51e+00	0	38	104	0	60	62024
2026-01-30 01:27:48.85	312.08	30.63	-49.4	-64.7	3.6	1.51e+00	0	38	104	0	60	62204
2026-01-30 01:27:52.89	312.97	30.03	-49.4	-64.7	3.6	1.51e+00	0	38	104	0	60	61771
2026-01-30 01:27:56.93	313.84	29.44	-49.4	-64.6	3.6	1.51e+00	0	38	104	0	60	61711
2026-01-30 01:28:00.97	314.68	28.86	-49.4	-64.6	3.6	1.51e+00	0	38	104	0	60	61635
2026-01-30 01:28:05.01	315.48	28.28	-49.4	-64.7	3.6	1.51e+00	0	38	104	0	60	61931
2026-01-30 01:28:09.05	316.26	27.71	-49.4	-64.7	3.6	1.51e+00	0	38	104	0	60	61835
2026-01-30 01:28:13.10	317.02	27.14	-49.4	-64.7	3.6	1.51e+00	0	38	104	0	60	61979
2026-01-30 01:28:17.14	317.74	26.58	-49.4	-64.7	3.6	1.51e+00	0	38	104	0	60	61888
2026-01-30 01:28:21.18	318.45	26.03	-49.4	-64.7	3.6	1.51e+00	0	38	104	0	60	62245
2026-01-30 01:28:25.22	319.12	25.48	-49.4	-64.7	3.6	1.51e+00	0	38	104	0	60	61937
2026-01-30 01:28:29.26	319.78	24.95	-49.4	-64.7	3.6	1.51e+00	0	38	104	0	60	61794
2026-01-30 01:28:33.30	320.42	24.41	-49.4	-64.7	3.6	1.51e+00	0	38	104	0	60	61990
2026-01-30 01:28:37.34	321.03	23.89	-49.4	-64.7	3.6	1.51e+00	0	38	104	0	60	61946
2026-01-30 01:28:41.38	321.63	23.37	-49.4	-64.7	3.6	1.51e+00	0	38	104	0	60	61858
2026-01-30 01:28:45.43	322.21	22.86	-49.4	-64.6	3.6	1.51e+00	0	38	104	0	60	61697
2026-01-30 01:28:49.47	322.77	22.36	-49.4	-64.7	3.6	1.51e+00	0	38	104	0	60	61912
2026-01-30 01:28:53.51	323.31	21.87	-49.4	-64.7	3.6	1.51e+00	0	38	104	0	60	61869
2026-01-30 01:28:57.55	323.83	21.38	-49.4	-64.7	3.6	1.51e+00	0	38	104	0	60	61962
2026-01-30 01:29:01.59	324.34	20.90	-49.4	-64.7	3.6	1.51e+00	0	38	104	0	60	61757
2026-01-30 01:29:05.63	324.84	20.43	-49.4	-64.6	3.6	1.51e+00	0	38	104	0	60	61635
2026-01-30 01:29:09.67	325.32	19.96	-49.4	-64.6	3.6	1.51e+00	0	38	104	0	60	61738
2026-01-30 01:29:13.71	325.79	19.50	-49.4	-64.7	3.6	1.51e+00	0	38	104	0	60	61858
2026-01-30 01:29:17.75	326.24	19.05	-49.4	-64.7	3.6	1.51e+00	0	38	104	0	60	61822
2026-01-30 01:29:21.79	326.68	18.60	-49.4	-64.7	3.6	1.51e+00	0	38	104	0	60	62040
2026-01-30 01:29:25.83	327.11	18.16	-49.4	-64.7	3.6	1.51e+00	0	37	104	0	60	61940
2026-01-30 01:29:29.87	327.53	17.72	-49.4	-64.7	3.6	1.51e+00	0	38	104	0	60	61909
2026-01-30 01:29:33.91	327.94	17.30	-49.4	-64.6	3.6	1.51e+00	0	38	104	0	60	61723
2026-01-30 01:29:37.96	328.33	16.87	-49.4	-64.7	3.6	1.51e+00	0	38	104	0	60	61754
2026-01-30 01:29:42.00	328.72	16.46	-49.4	-64.7	3.6	1.51e+00	0	38	104	0	60	62015
2026-01-30 01:29:46.04	329.09	16.05	-49.4	-64.7	3.6	1.51e+00	0	37	104	0	60	62033
2026-01-30 01:29:50.08	329.46	15.65	-49.4	-64.7	3.6	1.51e+00	0	37	104	0	60	61914
2026-01-30 01:29:54.12	329.82	15.25	-49.4	-64.6	3.6	1.51e+00	0	38	104	0	60	61721
2026-01-30 01:29:58.16	330.16	14.85	-49.4	-64.7	3.6	1.51e+00	0	37	104	0	60	62073
2026-01-30 01:30:02.19	330.50	14.47	-49.4	-64.7	3.6	1.51e+00	0	38	104	0	60	61800
2026-01-30 01:30:06.24	330.83	14.08	-49.4	-64.7	3.6	1.51e+00	0	37	104	0	60	61923
2026-01-30 01:30:10.28	331.16	13.71	-49.4	-64.7	3.6	1.51e+00	0	38	104	0	60	61984
2026-01-30 01:30:14.32	331.47	13.34	-49.4	-64.7	3.6	1.51e+00	0	38	104	0	60	61907
2026-01-30 01:30:18.36	331.78	12.97	-49.4	-64.7	3.6	1.51e+00	0	38	104	0	60	61868
2026-01-30 01:30:22.40	332.08	12.61	-49.4	-64.6	3.6	1.51e+00	0	37	104	0	60	61688
2026-01-30 01:30:26.44	332.38	12.25	-49.4	-64.7	3.6	1.51e+00	0	38	104	0	60	62151
2026-01-30 01:30:30.48	332.67	11.90	-49.4	-64.7	3.6	1.51e+00	0	38	104	0	60	62209
2026-01-30 01:30:34.52	332.95	11.55	-49.4	-64.7	3.6	1.51e+00	0	38	104	0	60	61907
2026-01-30 01:30:38.56	333.22	11.20	-49.4	-64.7	3.6	1.51e+00	0	38	104	0	60	61771
2026-01-30 01:30:42.61	333.49	10.86	-49.4	-64.7	3.6	1.51e+00	0	38	104	0	60	61844
2026-01-30 01:30:46.65	333.76	10.53	-49.4	-64.7	3.6	1.51e+00	0	38	104	0	60	61990
2026-01-30 01:30:50.69	334.01	10.20	-49.4	-64.7	3.6	1.51e+00	0	38	104	0	60	61825
2026-01-30 01:30:54.73	334.27	9.87	-49.4	-64.7	3.6	1.51e+00	0	38	104	0	60	61810
2026-01-30 01:30:58.77	334.51	9.54	-49.4	-64.7	3.6	1.51e+00	0	38	104	0	60	62109
2026-01-30 01:31:02.81	334.76	9.22	-49.4	-64.7	3.6	1.51e+00	0	38	104	0	60	62296
2026-01-30 01:31:06.86	335.00	8.91	-49.4	-64.6	3.6	1.51e+00	0	38	104	0	60	61554
2026-01-30 01:31:10.90	335.23	8.59	-49.4	-64.6	3.6	1.51e+00	0	38	104	0	60	61698
2026-01-30 01:31:14.94	335.46	8.28	-49.4	-64.7	3.6	1.51e+00	0	38	104	0	60	61867
2026-01-30 01:31:18.98	335.68	7.98	-49.4	-64.7	3.6	1.51e+00	0	38	104	0	60	61818
2026-01-30 01:31:23.02	335.90	7.68	-49.4	-64.6	3.6	1.51e+00	0	38	104	0	60	61583
2026-01-30 01:31:27.06	336.12	7.38	-49.4	-64.6	3.6	1.51e+00	0	38	104	0	60	61567
2026-01-30 01:31:31.10	336.33	7.08	-49.4	-64.7	3.6	1.51e+00	0	38	104	0	60	61811
2026-01-30 01:31:35.14	336.54	6.79	-49.4	-64.6	3.6	1.51e+00	0	38	104	0	60	61694
2026-01-30 01:31:39.18	336.74	6.50	-49.4	-64.7	3.6	1.51e+00	0	37	104	0	60	61816
2026-01-30 01:31:43.23	336.94	6.21	-49.4	-64.7	3.6	1.51e+00	0	38	104	0	60	62068
2026-01-30 01:31:47.26	337.14	5.93	-49.4	-64.7	3.6	1.51e+00	0	38	104	0	60	61775
2026-01-30 01:31:51.30	337.33	5.65	-49.4	-64.7	3.6	1.51e+00	0	38	104	0	60	61811
2026-01-30 01:31:55.34	337.52	5.37	-49.4	-64.7	3.6	1.51e+00	0	38	104	0	60	62086
2026-01-30 01:31:59.38	337.71	5.09	-49.4	-64.6	3.6	1.51e+00	0	38	104	0	60	61585
2026-01-30 01:32:03.42	337.90	4.82	-49.4	-64.6	3.6	1.51e+00	0	38	104	0	60	61693
2026-01-30 01:32:07.46	338.08	4.55	-49.4	-64.7	3.6	1.51e+00	0	38	104	0	60	61923
2026-01-30 01:32:11.50	338.26	4.28	-49.4	-64.7	3.5	1.51e+00	0	38	104	0	60	61980
2026-01-30 01:32:15.54	338.43	4.01	-49.4	-64.7	3.6	1.51e+00	0	38	104	0	60	61861
2026-01-30 01:32:19.58	338.60	3.75	-49.4	-64.7	3.6	1.51e+00	0	37	104	0	60	62002
2026-01-30 01:32:23.63	338.77	3.49	-49.4	-64.6	3.6	1.51e+00	0	38	104	0	60	61559
2026-01-30 01:32:27.66	338.94	3.23	-49.4	-64.7	3.6	1.51e+00	0	38	104	0	60	61870
2026-01-30 01:32:31.71	339.10	2.97	-49.4	-64.6	3.6	1.51e+00	0	38	104	0	60	61627
2026-01-30 01:32:35.75	339.27	2.72	-49.4	-64.7	3.5	1.51e+00	0	38	104	0	60	62061
2026-01-30 01:32:39.79	339.43	2.47	-49.4	-64.7	3.6	1.51e+00	0	38	104	0	60	61888
2026-01-30 01:32:43.83	339.58	2.22	-49.4	-64.7	3.6	1.51e+00	0	38	104	0	60	61995
2026-01-30 01:32:47.87	339.74	1.97	-49.4	-64.6	3.6	1.51e+00	0	38	104	0	60	61658
2026-01-30 01:32:51.91	339.89	1.72	-49.4	-64.7	3.6	1.51e+00	0	38	104	0	60	61931
2026-01-30 01:32:55.96	340.04	1.48	-49.4	-64.7	3.6	1.51e+00	0	38	104	0	60	62056
2026-01-30 01:33:00.00	340.19	1.24	-49.4	-64.6	3.6	1.51e+00	0	38	104	0	60	61593
2026-01-30 01:33:04.03	340.34	1.00	-49.4	-64.7	3.6	1.51e+00	0	38	104	0	60	61873
2026-01-30 01:33:08.07	340.48	0.76	-49.4	-64.6	3.6	1.51e+00	0	38	104	0	60	61728
2026-01-30 01:33:12.12	340.62	0.52	-49.4	-64.7	3.6	1.51e+00	0	38	104	0	60	62014
2026-01-30 01:33:16.15	340.76	0.29	-49.4	-64.7	3.6	1.51e+00	0	38	104	0	60	62024
2026-01-30 01:33:20.20	340.90	0.05	-49.4	-64.7	3.6	1.51e+00	0	38	104	0	60	62104

#Closed at: 2026-01-30 01:33:22
#Recorded file [0 MB]: D:/lorett/data/35029_260130_131806.dat