passes_logs/2026/01/30/R4.6S_Anadyr/R4.6S_Anadyr__20260130_002245_KOSAR1-5_rec.log

#Pass ID: 20260130_002245_KOSAR1-5
#Satellite: KOSAR1-5
#Configuration: KOSAR1-5
#almurnet v.1.7.20251203
#Start time: 2026-01-30 00:22:47

#Version: 2.2.20231116
#Station: R4.6S_Anadyr
#Location: 177.4865 lon 64.73178 lat
#TLE: 1 67264U 25313S   26028.94615568  .00012050  00000+0  55467-3 0  9998
#TLE: 2 67264  97.4180 105.8864 0016576 134.5684 225.6907 15.20338860  4779

#Time	Az	El	Level	Level2	SNR	BER	BlckErr	Temp	State	Recorded	gain1	gain2
2026-01-30 00:22:47.62	16.81	0.12	-49.3	-64.3	3.5	1.51e+00	0	34	0	0	60	59462
2026-01-30 00:22:50.65	16.71	0.31	-45.9	-60.6	3.6	1.51e+00	0	35	104	0	60	43673
2026-01-30 00:22:53.68	16.62	0.51	-45.9	-60.7	3.6	1.51e+00	0	36	104	0	60	43901
2026-01-30 00:22:56.71	16.52	0.70	-45.9	-60.6	3.6	1.51e+00	0	36	104	0	60	43664
2026-01-30 00:22:59.74	16.43	0.90	-45.9	-60.7	3.6	1.51e+00	0	36	104	0	60	43797
2026-01-30 00:23:02.77	16.33	1.09	-45.9	-60.6	3.6	1.51e+00	0	36	104	0	60	43694
2026-01-30 00:23:05.80	16.22	1.29	-45.9	-60.7	3.6	1.51e+00	0	36	104	0	60	43756
2026-01-30 00:23:08.83	16.12	1.49	-45.9	-60.7	3.6	1.51e+00	0	36	104	0	60	43744
2026-01-30 00:23:11.87	16.01	1.70	-45.9	-60.7	3.6	1.51e+00	0	36	104	0	60	43819
2026-01-30 00:23:14.90	15.91	1.90	-45.9	-60.6	3.6	1.51e+00	0	36	104	0	60	43692
2026-01-30 00:23:17.93	15.80	2.11	-45.9	-60.7	3.6	1.51e+00	0	36	104	0	60	43771
2026-01-30 00:23:20.96	15.68	2.32	-45.9	-60.6	3.6	1.51e+00	0	36	104	0	60	43638
2026-01-30 00:23:23.99	15.57	2.53	-45.9	-60.6	3.6	1.51e+00	0	36	104	0	60	43643
2026-01-30 00:23:27.02	15.45	2.74	-45.9	-60.7	3.6	1.51e+00	0	36	104	0	60	43848
2026-01-30 00:23:30.05	15.33	2.96	-45.9	-60.7	3.6	1.51e+00	0	36	104	0	60	43785
2026-01-30 00:23:33.08	15.21	3.17	-45.9	-60.7	3.6	1.51e+00	0	36	104	0	60	43758
2026-01-30 00:23:36.11	15.09	3.39	-45.9	-60.6	3.6	1.51e+00	0	36	104	0	60	43627
2026-01-30 00:23:39.14	14.96	3.61	-45.9	-60.6	3.6	1.51e+00	0	36	104	0	60	43577
2026-01-30 00:23:42.17	14.83	3.84	-45.9	-60.6	3.6	1.51e+00	0	36	104	0	60	43635
2026-01-30 00:23:45.19	14.70	4.06	-45.9	-60.7	3.6	1.51e+00	0	36	104	0	60	43800
2026-01-30 00:23:48.23	14.56	4.29	-45.9	-60.7	3.6	1.51e+00	0	36	104	0	60	43921
2026-01-30 00:23:51.26	14.42	4.52	-45.9	-60.7	3.6	1.51e+00	0	36	104	0	60	43719
2026-01-30 00:23:54.29	14.28	4.75	-45.9	-60.6	3.6	1.51e+00	0	37	104	0	60	43543
2026-01-30 00:23:57.32	14.14	4.99	-45.9	-60.7	3.6	1.51e+00	0	37	104	0	60	43750
2026-01-30 00:24:00.35	13.99	5.23	-45.9	-60.6	3.6	1.51e+00	0	36	104	0	60	43598
2026-01-30 00:24:03.38	13.84	5.47	-45.9	-60.7	3.6	1.51e+00	0	36	104	0	60	43788
2026-01-30 00:24:06.41	13.68	5.71	-46.0	-60.6	3.6	1.51e+00	0	36	104	0	60	43661
2026-01-30 00:24:09.43	13.52	5.96	-45.9	-60.7	3.6	1.51e+00	0	36	104	0	60	43744
2026-01-30 00:24:12.47	13.36	6.21	-45.9	-60.7	3.6	1.51e+00	0	37	104	0	60	44055
2026-01-30 00:24:15.50	13.19	6.46	-45.9	-60.6	3.6	1.51e+00	0	36	104	0	60	43708
2026-01-30 00:24:18.53	13.02	6.72	-46.0	-60.6	3.6	1.51e+00	0	37	104	0	60	43641
2026-01-30 00:24:21.56	12.85	6.98	-46.0	-60.7	3.6	1.51e+00	0	37	104	0	60	43745
2026-01-30 00:24:24.59	12.67	7.24	-46.0	-60.7	3.6	1.51e+00	0	37	104	0	60	43739
2026-01-30 00:24:27.62	12.49	7.51	-45.9	-60.6	3.6	1.51e+00	0	37	104	0	60	43671
2026-01-30 00:24:30.65	12.30	7.78	-46.0	-60.7	3.6	1.51e+00	0	37	104	0	60	44169
2026-01-30 00:24:33.69	12.11	8.05	-46.0	-60.7	3.6	1.51e+00	0	37	104	0	60	43805
2026-01-30 00:24:36.71	11.91	8.33	-45.9	-60.7	3.6	1.51e+00	0	37	104	0	60	43812
2026-01-30 00:24:39.75	11.71	8.61	-45.9	-60.7	3.6	1.51e+00	0	36	104	0	60	43724
2026-01-30 00:24:42.78	11.50	8.89	-45.9	-60.6	3.6	1.51e+00	0	37	104	0	60	43632
2026-01-30 00:24:45.81	11.29	9.18	-45.9	-60.6	3.6	1.51e+00	0	37	104	0	60	43534
2026-01-30 00:24:48.84	11.07	9.48	-46.0	-60.7	3.6	1.51e+00	0	37	104	0	60	43758
2026-01-30 00:24:51.87	10.84	9.77	-46.0	-60.7	3.6	1.51e+00	0	37	104	0	60	43848
2026-01-30 00:24:54.90	10.61	10.08	-45.9	-60.6	3.6	1.51e+00	0	37	104	0	60	43705
2026-01-30 00:24:57.93	10.38	10.38	-46.0	-60.7	3.6	1.51e+00	0	37	104	0	60	43822
2026-01-30 00:25:00.96	10.13	10.69	-46.0	-60.7	3.6	1.51e+00	0	37	104	0	60	43981
2026-01-30 00:25:03.99	9.88	11.01	-45.9	-60.7	3.6	1.51e+00	0	37	104	0	60	43722
2026-01-30 00:25:07.02	9.62	11.33	-46.0	-60.7	3.6	1.51e+00	0	37	104	0	60	43842
2026-01-30 00:25:10.05	9.36	11.66	-45.9	-60.7	3.6	1.51e+00	0	37	104	0	60	43779
2026-01-30 00:25:13.08	9.09	11.99	-45.9	-60.6	3.6	1.51e+00	0	37	104	0	60	43581
2026-01-30 00:25:16.12	8.80	12.33	-46.0	-60.7	3.6	1.51e+00	0	37	104	0	60	44058
2026-01-30 00:25:19.15	8.52	12.67	-45.9	-60.7	3.6	1.51e+00	0	37	104	0	60	44022
2026-01-30 00:25:22.18	8.22	13.02	-46.0	-60.7	3.6	1.51e+00	0	37	104	0	60	43756
2026-01-30 00:25:25.21	7.91	13.38	-46.0	-60.7	3.6	1.51e+00	0	37	104	0	60	43792
2026-01-30 00:25:28.24	7.60	13.74	-46.0	-60.7	3.6	1.51e+00	0	37	104	0	60	43848
2026-01-30 00:25:31.26	7.27	14.10	-46.0	-60.7	3.6	1.51e+00	0	37	104	0	60	44027
2026-01-30 00:25:34.29	6.93	14.48	-46.0	-60.7	3.6	1.51e+00	0	37	104	0	60	44122
2026-01-30 00:25:37.32	6.59	14.86	-46.0	-60.6	3.6	1.51e+00	0	37	104	0	60	43705
2026-01-30 00:25:40.35	6.23	15.25	-46.0	-60.7	3.6	1.51e+00	0	37	104	0	60	43997
2026-01-30 00:25:43.38	5.86	15.64	-46.0	-60.7	3.6	1.51e+00	0	37	104	0	60	43806
2026-01-30 00:25:46.41	5.48	16.05	-46.0	-60.7	3.6	1.51e+00	0	37	104	0	60	44027
2026-01-30 00:25:49.44	5.08	16.46	-46.0	-60.7	3.6	1.51e+00	0	37	104	0	60	43801
2026-01-30 00:25:52.47	4.68	16.88	-46.0	-60.6	3.6	1.51e+00	0	37	104	0	60	43675
2026-01-30 00:25:55.50	4.25	17.30	-46.0	-60.7	3.6	1.51e+00	0	37	104	0	60	43888
2026-01-30 00:25:58.54	3.81	17.74	-46.0	-60.7	3.6	1.51e+00	0	37	104	0	60	43797
2026-01-30 00:26:01.56	3.36	18.18	-46.0	-60.7	3.6	1.51e+00	0	37	104	0	60	43784
2026-01-30 00:26:04.60	2.89	18.63	-46.0	-60.7	3.6	1.51e+00	0	37	104	0	60	43815
2026-01-30 00:26:07.63	2.41	19.10	-46.0	-60.7	3.6	1.51e+00	0	37	104	0	60	43713
2026-01-30 00:26:10.66	1.90	19.57	-46.0	-60.7	3.6	1.51e+00	0	37	104	0	60	44090
2026-01-30 00:26:13.69	1.38	20.05	-46.0	-60.7	3.6	1.51e+00	0	37	104	0	60	43832
2026-01-30 00:26:16.72	0.84	20.54	-46.0	-60.7	3.6	1.51e+00	0	37	104	0	60	44055
2026-01-30 00:26:19.75	0.28	21.03	-46.0	-60.6	3.6	1.51e+00	0	37	104	0	60	43654
2026-01-30 00:26:22.78	359.69	21.54	-46.0	-60.7	3.6	1.51e+00	0	37	104	0	60	43798
2026-01-30 00:26:25.81	359.08	22.06	-46.0	-60.7	3.6	1.51e+00	0	37	104	0	60	43814
2026-01-30 00:26:28.84	358.45	22.59	-46.0	-60.7	3.6	1.51e+00	0	37	104	0	60	43718
2026-01-30 00:26:31.87	357.80	23.13	-46.0	-60.7	3.6	1.51e+00	0	37	104	0	60	43963
2026-01-30 00:26:34.90	357.11	23.68	-46.0	-60.7	3.6	1.51e+00	0	37	104	0	60	43982
2026-01-30 00:26:37.93	356.40	24.24	-46.0	-60.7	3.6	1.51e+00	0	37	104	0	60	43919
2026-01-30 00:26:40.97	355.66	24.82	-46.0	-60.7	3.6	1.51e+00	0	37	104	0	60	43941
2026-01-30 00:26:44.00	354.88	25.40	-46.0	-60.7	3.6	1.51e+00	0	37	104	0	60	43785
2026-01-30 00:26:47.03	354.08	25.99	-46.0	-60.7	3.6	1.51e+00	0	37	104	0	60	44214
2026-01-30 00:26:50.06	353.24	26.59	-46.0	-60.7	3.6	1.51e+00	0	37	104	0	60	43938
2026-01-30 00:26:53.09	352.36	27.21	-46.0	-60.7	3.6	1.51e+00	0	37	104	0	60	43846
2026-01-30 00:26:56.12	351.44	27.83	-46.0	-60.7	3.6	1.51e+00	0	37	104	0	60	43948
2026-01-30 00:26:59.15	350.48	28.46	-46.0	-60.7	3.6	1.51e+00	0	37	104	0	60	43954
2026-01-30 00:27:02.18	349.48	29.10	-46.0	-60.7	3.6	1.51e+00	0	37	104	0	60	44007
2026-01-30 00:27:05.21	348.44	29.75	-46.0	-60.7	3.6	1.51e+00	0	37	104	0	60	43916
2026-01-30 00:27:08.24	347.34	30.41	-46.0	-60.7	3.6	1.51e+00	0	37	104	0	60	43874
2026-01-30 00:27:11.27	346.20	31.07	-46.0	-60.7	3.6	1.51e+00	0	37	104	0	60	43946
2026-01-30 00:27:14.31	345.00	31.74	-46.0	-60.7	3.6	1.51e+00	0	37	104	0	60	43895
2026-01-30 00:27:17.34	343.75	32.42	-46.0	-60.7	3.5	1.51e+00	0	37	104	0	60	43872
2026-01-30 00:27:20.36	342.44	33.09	-46.0	-60.7	3.6	1.51e+00	0	37	104	0	60	43872
2026-01-30 00:27:23.40	341.07	33.77	-46.0	-60.7	3.6	1.51e+00	0	37	104	0	60	43823
2026-01-30 00:27:26.43	339.64	34.44	-46.0	-60.6	3.6	1.51e+00	0	37	104	0	60	43695
2026-01-30 00:27:29.46	338.14	35.12	-46.0	-60.7	3.6	1.51e+00	0	37	104	0	60	43817
2026-01-30 00:27:32.49	336.58	35.78	-46.0	-60.7	3.6	1.51e+00	0	37	104	0	60	43940
2026-01-30 00:27:35.52	334.94	36.44	-46.0	-60.7	3.5	1.51e+00	0	37	104	0	60	43940
2026-01-30 00:27:38.55	333.24	37.09	-46.0	-60.7	3.6	1.51e+00	0	37	104	0	60	43993
2026-01-30 00:27:41.58	331.46	37.73	-46.0	-60.7	3.6	1.51e+00	0	37	104	0	60	43779
2026-01-30 00:27:44.61	329.60	38.34	-46.0	-60.7	3.6	1.51e+00	0	37	104	0	60	43839
2026-01-30 00:27:47.64	327.67	38.94	-46.0	-60.7	3.6	1.51e+00	0	37	104	0	60	43983
2026-01-30 00:27:50.67	325.67	39.51	-46.0	-60.7	3.6	1.51e+00	0	37	104	0	60	44085
2026-01-30 00:27:53.70	323.59	40.05	-46.0	-60.7	3.5	1.51e+00	0	37	104	0	60	44194
2026-01-30 00:27:56.73	321.45	40.56	-46.0	-60.7	3.6	1.51e+00	0	37	104	0	60	43942
2026-01-30 00:27:59.76	319.23	41.03	-46.0	-60.7	3.6	1.51e+00	0	37	104	0	60	43924
2026-01-30 00:28:02.79	316.94	41.45	-46.0	-60.7	3.6	1.51e+00	0	37	104	0	60	44044
2026-01-30 00:28:05.82	314.60	41.84	-46.0	-60.7	3.6	1.51e+00	0	37	104	0	60	43795
2026-01-30 00:28:08.85	312.20	42.17	-46.0	-60.7	3.6	1.51e+00	0	37	104	0	60	44030
2026-01-30 00:28:11.88	309.74	42.45	-46.0	-60.7	3.6	1.51e+00	0	37	104	0	60	43847
2026-01-30 00:28:14.91	307.25	42.68	-46.0	-60.7	3.6	1.51e+00	0	37	104	0	60	43910
2026-01-30 00:28:17.94	304.73	42.84	-46.0	-60.7	3.6	1.51e+00	0	37	104	0	60	43833
2026-01-30 00:28:20.97	302.18	42.95	-46.0	-60.7	3.6	1.51e+00	0	37	104	0	60	44054
2026-01-30 00:28:24.00	299.62	42.99	-46.0	-60.7	3.6	1.51e+00	0	37	104	0	60	43756
2026-01-30 00:28:27.02	297.07	42.98	-46.0	-60.7	3.6	1.51e+00	0	37	104	0	60	43940
2026-01-30 00:28:30.05	294.52	42.90	-46.0	-60.7	3.6	1.51e+00	0	37	104	0	60	44051
2026-01-30 00:28:33.09	291.97	42.76	-46.0	-60.7	3.6	1.51e+00	0	37	104	0	60	43890
2026-01-30 00:28:36.11	289.47	42.56	-46.0	-60.7	3.6	1.51e+00	0	37	104	0	60	43795
2026-01-30 00:28:39.15	286.99	42.30	-46.0	-60.7	3.6	1.51e+00	0	37	104	0	60	43716
2026-01-30 00:28:42.18	284.56	41.99	-46.0	-60.7	3.6	1.51e+00	0	37	104	0	60	43966
2026-01-30 00:28:45.20	282.19	41.63	-46.0	-60.7	3.6	1.51e+00	0	37	104	0	60	43923
2026-01-30 00:28:48.24	279.87	41.22	-46.0	-60.7	3.6	1.51e+00	0	37	104	0	60	44069
2026-01-30 00:28:51.27	277.61	40.77	-46.0	-60.7	3.6	1.51e+00	0	37	104	0	60	44027
2026-01-30 00:28:54.30	275.43	40.27	-46.0	-60.7	3.6	1.51e+00	0	37	104	0	60	43957
2026-01-30 00:28:57.33	273.31	39.75	-46.0	-60.7	3.6	1.51e+00	0	37	104	0	60	44061
2026-01-30 00:29:00.36	271.27	39.19	-46.0	-60.7	3.6	1.51e+00	0	37	104	0	60	43859
2026-01-30 00:29:03.39	269.30	38.60	-46.0	-60.7	3.6	1.51e+00	0	37	104	0	60	43946
2026-01-30 00:29:06.42	267.40	37.99	-46.0	-60.7	3.6	1.51e+00	0	37	104	0	60	43898
2026-01-30 00:29:09.45	265.59	37.36	-46.0	-60.6	3.6	1.51e+00	0	37	104	0	60	43688
2026-01-30 00:29:12.48	263.84	36.71	-46.0	-60.7	3.6	1.51e+00	0	37	104	0	60	43894
2026-01-30 00:29:15.51	262.17	36.05	-46.0	-60.7	3.6	1.51e+00	0	37	104	0	60	44042
2026-01-30 00:29:18.54	260.57	35.38	-46.0	-60.7	3.5	1.51e+00	0	37	104	0	60	43748
2026-01-30 00:29:21.57	259.03	34.71	-46.0	-60.7	3.6	1.51e+00	0	37	104	0	60	43861
2026-01-30 00:29:24.61	257.56	34.03	-46.0	-60.7	3.6	1.51e+00	0	37	104	0	60	44022
2026-01-30 00:29:27.63	256.16	33.35	-46.0	-60.7	3.6	1.51e+00	0	37	104	0	60	43882
2026-01-30 00:29:30.67	254.82	32.67	-46.0	-60.7	3.6	1.51e+00	0	37	104	0	60	43744
2026-01-30 00:29:33.70	253.53	31.99	-46.0	-60.6	3.6	1.51e+00	0	37	104	0	60	43663
2026-01-30 00:29:36.72	252.31	31.31	-46.0	-60.7	3.6	1.51e+00	0	37	104	0	60	44149
2026-01-30 00:29:39.75	251.14	30.64	-46.0	-60.7	3.6	1.51e+00	0	37	104	0	60	44162
2026-01-30 00:29:42.78	250.02	29.98	-46.0	-60.7	3.6	1.51e+00	0	37	104	0	60	43981
2026-01-30 00:29:45.81	248.95	29.32	-46.0	-60.8	3.6	1.51e+00	0	37	104	0	60	44252
2026-01-30 00:29:48.84	247.92	28.67	-46.0	-60.7	3.6	1.51e+00	0	37	104	0	60	44105
2026-01-30 00:29:51.87	246.94	28.03	-46.0	-60.7	3.6	1.51e+00	0	37	104	0	60	43976
2026-01-30 00:29:54.90	246.01	27.40	-46.0	-60.7	3.6	1.51e+00	0	37	104	0	60	43921
2026-01-30 00:29:57.93	245.11	26.78	-46.0	-60.7	3.6	1.51e+00	0	37	104	0	60	44002
2026-01-30 00:30:00.96	244.25	26.17	-46.0	-60.7	3.6	1.51e+00	0	37	104	0	60	43938
2026-01-30 00:30:03.99	243.42	25.57	-46.0	-60.7	3.6	1.51e+00	0	37	104	0	60	43936
2026-01-30 00:30:07.02	242.63	24.98	-46.0	-60.7	3.6	1.51e+00	0	37	104	0	60	44059
2026-01-30 00:30:10.05	241.87	24.40	-46.0	-60.7	3.6	1.51e+00	0	37	104	0	60	43755
2026-01-30 00:30:13.08	241.14	23.83	-46.0	-60.7	3.6	1.51e+00	0	37	104	0	60	43941
2026-01-30 00:30:16.11	240.44	23.27	-46.0	-60.7	3.6	1.51e+00	0	37	104	0	60	43902
2026-01-30 00:30:19.15	239.77	22.72	-46.0	-60.7	3.6	1.51e+00	0	37	104	0	60	43919
2026-01-30 00:30:22.18	239.12	22.18	-46.0	-60.7	3.5	1.51e+00	0	37	104	0	60	43829
2026-01-30 00:30:25.20	238.50	21.66	-46.0	-60.7	3.6	1.51e+00	0	37	104	0	60	43956
2026-01-30 00:30:28.24	237.90	21.14	-46.0	-60.7	3.6	1.51e+00	0	37	104	0	60	43971
2026-01-30 00:30:31.27	237.33	20.63	-46.0	-60.7	3.6	1.51e+00	0	37	104	0	60	43954
2026-01-30 00:30:34.30	236.77	20.14	-46.0	-60.7	3.6	1.51e+00	0	37	104	0	60	43920
2026-01-30 00:30:37.33	236.24	19.65	-46.0	-60.7	3.6	1.51e+00	0	37	104	0	60	43947
2026-01-30 00:30:40.36	235.73	19.17	-46.0	-60.7	3.6	1.51e+00	0	37	104	0	60	43829
2026-01-30 00:30:43.39	235.23	18.71	-46.0	-60.7	3.6	1.51e+00	0	37	104	0	60	44109
2026-01-30 00:30:46.42	234.75	18.25	-46.0	-60.7	3.6	1.51e+00	0	37	104	0	60	44210
2026-01-30 00:30:49.45	234.29	17.80	-46.0	-60.7	3.6	1.51e+00	0	37	104	0	60	43763
2026-01-30 00:30:52.49	233.84	17.36	-46.0	-60.7	3.6	1.51e+00	0	37	104	0	60	43950
2026-01-30 00:30:55.52	233.41	16.92	-46.0	-60.7	3.6	1.51e+00	0	37	104	0	60	44094
2026-01-30 00:30:58.55	232.99	16.50	-46.0	-60.7	3.6	1.51e+00	0	37	104	0	60	44194
2026-01-30 00:31:01.58	232.59	16.08	-46.0	-60.7	3.6	1.51e+00	0	37	104	0	60	43932
2026-01-30 00:31:04.61	232.20	15.67	-46.0	-60.7	3.6	1.51e+00	0	37	104	0	60	43898
2026-01-30 00:31:07.64	231.82	15.27	-46.0	-60.7	3.6	1.51e+00	0	37	104	0	60	43919
2026-01-30 00:31:10.67	231.46	14.88	-46.0	-60.7	3.6	1.51e+00	0	37	104	0	60	43994
2026-01-30 00:31:13.70	231.10	14.49	-46.0	-60.7	3.6	1.51e+00	0	37	104	0	60	43876
2026-01-30 00:31:16.73	230.76	14.11	-46.0	-60.7	3.6	1.51e+00	0	37	104	0	60	43926
2026-01-30 00:31:19.76	230.43	13.74	-46.0	-60.7	3.6	1.51e+00	0	37	104	0	60	43936
2026-01-30 00:31:22.79	230.11	13.38	-46.0	-60.7	3.6	1.51e+00	0	37	104	0	60	43924
2026-01-30 00:31:25.81	229.79	13.02	-46.0	-60.7	3.6	1.51e+00	0	37	104	0	60	43999
2026-01-30 00:31:28.85	229.49	12.66	-46.0	-60.7	3.6	1.51e+00	0	37	104	0	60	44120
2026-01-30 00:31:31.87	229.20	12.32	-46.0	-60.7	3.6	1.51e+00	0	37	104	0	60	43967
2026-01-30 00:31:34.91	228.91	11.97	-46.0	-60.7	3.6	1.51e+00	0	37	104	0	60	44010
2026-01-30 00:31:37.94	228.63	11.64	-46.0	-60.7	3.6	1.51e+00	0	37	104	0	60	43888
2026-01-30 00:31:40.97	228.36	11.31	-46.0	-60.7	3.6	1.51e+00	0	37	104	0	60	43956
2026-01-30 00:31:44.00	228.10	10.98	-46.0	-60.7	3.6	1.51e+00	0	37	104	0	60	44031
2026-01-30 00:31:47.03	227.84	10.66	-46.0	-60.7	3.6	1.51e+00	0	37	104	0	60	43834
2026-01-30 00:31:50.06	227.59	10.35	-46.0	-60.7	3.6	1.51e+00	0	37	104	0	60	43771
2026-01-30 00:31:53.09	227.35	10.04	-46.0	-60.6	3.6	1.51e+00	0	37	104	0	60	43632
2026-01-30 00:31:56.12	227.11	9.73	-46.0	-60.7	3.6	1.51e+00	0	37	104	0	60	43764
2026-01-30 00:31:59.15	226.89	9.43	-46.0	-60.7	3.6	1.51e+00	0	37	104	0	60	44042
2026-01-30 00:32:02.18	226.66	9.13	-46.0	-60.6	3.6	1.51e+00	0	37	104	0	60	43690
2026-01-30 00:32:05.22	226.44	8.84	-46.0	-60.7	3.5	1.51e+00	0	37	104	0	60	43900
2026-01-30 00:32:08.25	226.23	8.55	-46.0	-60.7	3.6	1.51e+00	0	37	104	0	60	43947
2026-01-30 00:32:11.27	226.03	8.27	-46.0	-60.7	3.6	1.51e+00	0	37	104	0	60	43877
2026-01-30 00:32:14.30	225.82	7.99	-46.0	-60.7	3.6	1.51e+00	0	37	104	0	60	43722
2026-01-30 00:32:17.33	225.63	7.72	-46.0	-60.7	3.6	1.51e+00	0	37	104	0	60	43957
2026-01-30 00:32:20.36	225.44	7.44	-46.0	-60.7	3.6	1.51e+00	0	37	104	0	60	44030
2026-01-30 00:32:23.40	225.25	7.17	-46.0	-60.7	3.6	1.51e+00	0	37	104	0	60	44199
2026-01-30 00:32:26.42	225.07	6.91	-46.0	-60.7	3.6	1.51e+00	0	37	104	0	60	43947
2026-01-30 00:32:29.45	224.89	6.65	-46.0	-60.7	3.6	1.51e+00	0	37	104	0	60	44012
2026-01-30 00:32:32.48	224.71	6.39	-46.0	-60.7	3.6	1.51e+00	0	37	104	0	60	43987
2026-01-30 00:32:35.51	224.54	6.13	-46.0	-60.7	3.6	1.51e+00	0	37	104	0	60	44018
2026-01-30 00:32:38.55	224.38	5.88	-46.0	-60.7	3.6	1.51e+00	0	37	104	0	60	44080
2026-01-30 00:32:41.58	224.21	5.63	-46.0	-60.7	3.6	1.51e+00	0	37	104	0	60	43853
2026-01-30 00:32:44.61	224.05	5.39	-46.0	-60.7	3.6	1.51e+00	0	37	104	0	60	44085
2026-01-30 00:32:47.64	223.90	5.14	-46.0	-60.7	3.6	1.51e+00	0	37	104	0	60	44114
2026-01-30 00:32:50.67	223.75	4.90	-46.0	-60.7	3.6	1.51e+00	0	37	104	0	60	44035
2026-01-30 00:32:53.70	223.60	4.66	-46.0	-60.7	3.6	1.51e+00	0	37	104	0	60	43855
2026-01-30 00:32:56.73	223.45	4.43	-46.0	-60.7	3.6	1.51e+00	0	37	104	0	60	44096
2026-01-30 00:32:59.76	223.31	4.20	-46.0	-60.7	3.6	1.51e+00	0	37	104	0	60	44104
2026-01-30 00:33:02.79	223.17	3.97	-46.0	-60.7	3.6	1.51e+00	0	37	104	0	60	44111
2026-01-30 00:33:05.82	223.04	3.74	-46.0	-60.8	3.6	1.51e+00	0	37	104	0	60	44307
2026-01-30 00:33:08.85	222.90	3.51	-46.0	-60.7	3.6	1.51e+00	0	37	104	0	60	44019
2026-01-30 00:33:11.89	222.77	3.29	-46.0	-60.7	3.6	1.51e+00	0	37	104	0	60	43928
2026-01-30 00:33:14.92	222.64	3.07	-46.0	-60.7	3.6	1.51e+00	0	37	104	0	60	43978
2026-01-30 00:33:17.95	222.52	2.85	-46.0	-60.7	3.6	1.51e+00	0	37	104	0	60	44067
2026-01-30 00:33:20.98	222.39	2.64	-46.0	-60.7	3.6	1.51e+00	0	37	104	0	60	43997
2026-01-30 00:33:24.01	222.27	2.42	-46.0	-60.7	3.6	1.51e+00	0	37	104	0	60	44000
2026-01-30 00:33:27.04	222.16	2.21	-46.0	-60.7	3.6	1.51e+00	0	37	104	0	60	43859
2026-01-30 00:33:30.07	222.04	2.00	-46.0	-60.7	3.6	1.51e+00	0	37	104	0	60	43840
2026-01-30 00:33:33.10	221.93	1.79	-46.0	-60.7	3.6	1.51e+00	0	37	104	0	60	43991
2026-01-30 00:33:36.13	221.82	1.59	-46.0	-60.7	3.6	1.51e+00	0	37	104	0	60	44053
2026-01-30 00:33:39.16	221.71	1.38	-46.0	-60.7	3.6	1.51e+00	0	37	104	0	60	43994
2026-01-30 00:33:42.20	221.60	1.18	-46.0	-60.7	3.6	1.51e+00	0	37	104	0	60	43941
2026-01-30 00:33:45.23	221.50	0.98	-46.0	-60.7	3.6	1.51e+00	0	37	104	0	60	44028
2026-01-30 00:33:48.26	221.39	0.78	-46.0	-60.7	3.6	1.51e+00	0	37	104	0	60	44015
2026-01-30 00:33:51.29	221.29	0.58	-46.0	-60.7	3.6	1.51e+00	0	37	104	0	60	44055
2026-01-30 00:33:54.32	221.19	0.39	-46.0	-60.7	3.6	1.51e+00	0	37	104	0	60	44086
2026-01-30 00:33:57.35	221.09	0.19	-46.0	-60.7	3.6	1.51e+00	0	37	104	0	60	43861
2026-01-30 00:34:00.38	221.00	-0.00	-46.0	-60.7	3.6	1.51e+00	0	37	104	0	60	44086

#Closed at: 2026-01-30 00:34:02
#Recorded file [0 MB]: D:/lorett/data/35029_260130_122247.dat