passes_logs/2026/01/30/R4.6S_Anadyr/R4.6S_Anadyr__20260130_143352_NOAA_21_JPSS-2_rec.log

#Pass ID: 20260130_143352_NOAA 21 (JPSS-2)
#Satellite: NOAA 21 (JPSS-2)
#Configuration: NOAA-21
#almurnet v.1.7.20251203
#Start time: 2026-01-30 14:33:54

#Version: 2.2.20231116
#Station: R4.6S_Anadyr
#Location: 177.4865 lon 64.73178 lat
#TLE: 1 54234U 22150A   26029.46216196  .00000141  00000+0  87503-4 0  9994
#TLE: 2 54234  98.7512 330.1880 0000955 196.3413 163.7732 14.19540905166865

#Time	Az	El	Level	Level2	SNR	BER	BlckErr	Temp	State	Recorded	gain1	gain2
2026-01-30 14:33:54.50	20.19	0.15	-49.5	-61.1	3.5	8.45e-01	0	39	0	0	60	41186
2026-01-30 14:33:58.54	20.22	0.39	-49.6	-62.5	3.5	1.52e+00	0	40	104	0	60	46782
2026-01-30 14:34:02.58	20.26	0.63	-49.7	-62.5	3.5	1.52e+00	0	41	104	0	60	46973
2026-01-30 14:34:06.62	20.30	0.88	-49.6	-62.5	3.5	1.52e+00	0	41	104	0	60	46996
2026-01-30 14:34:10.66	20.34	1.13	-49.4	-62.3	3.5	1.52e+00	0	41	104	0	60	45671
2026-01-30 14:34:14.70	20.37	1.38	-49.0	-61.8	3.5	1.52e+00	0	41	104	0	60	43350
2026-01-30 14:34:18.75	20.41	1.63	-48.2	-60.9	3.5	1.52e+00	0	41	104	0	60	38986
2026-01-30 14:34:22.79	20.45	1.88	-48.2	-60.9	3.5	1.52e+00	0	41	104	0	60	39119
2026-01-30 14:34:26.83	20.49	2.14	-48.2	-61.1	3.5	1.52e+00	0	41	104	0	60	39770
2026-01-30 14:34:30.87	20.53	2.40	-48.1	-60.1	3.5	1.51e+00	0	41	104	0	60	35574
2026-01-30 14:34:34.91	20.57	2.66	-47.9	-58.4	3.6	1.48e+00	0	41	104	0	60	29038
2026-01-30 14:34:38.95	20.61	2.93	-47.7	-56.6	4.7	1.42e+00	120	41	104	0	60	23656
2026-01-30 14:34:42.99	20.65	3.19	-43.8	-46.2	14.2	5.30e-06	123	41	0	8388608	60	7175
2026-01-30 14:34:47.03	20.69	3.46	-40.7	-42.1	18.2	0.00e+00	123	41	0	20971520	56	5651
2026-01-30 14:34:51.08	20.73	3.73	-41.5	-43.2	16.9	0.00e+00	123	41	0	33554432	54	7179
2026-01-30 14:34:55.12	20.78	4.01	-48.1	-60.1	3.5	1.51e+00	0	41	104	45088768	60	35342
2026-01-30 14:34:59.15	20.82	4.29	-41.0	-42.5	18.2	0.00e+00	123	41	0	48234496	56	5862
2026-01-30 14:35:03.19	20.86	4.57	-39.7	-41.0	19.4	0.00e+00	123	41	0	60817408	52	6216
2026-01-30 14:35:07.23	20.91	4.85	-39.2	-40.4	19.9	0.00e+00	122	41	0	73400320	52	5842
2026-01-30 14:35:11.27	20.95	5.14	-38.3	-39.4	21.0	0.00e+00	123	41	0	85983232	50	5853
2026-01-30 14:35:15.31	20.99	5.43	-38.2	-39.3	21.0	0.00e+00	123	41	0	98566144	50	5778
2026-01-30 14:35:19.35	21.04	5.72	-37.9	-39.1	21.2	0.00e+00	123	41	0	111149056	50	5599
2026-01-30 14:35:23.39	21.09	6.01	-37.8	-38.9	21.5	0.00e+00	122	41	0	123731968	48	6168
2026-01-30 14:35:27.43	21.13	6.31	-37.7	-38.8	21.5	0.00e+00	122	41	0	137363456	48	6077
2026-01-30 14:35:31.46	21.18	6.62	-37.5	-38.6	21.7	0.00e+00	120	41	0	148897792	48	5943
2026-01-30 14:35:35.49	21.23	6.92	-37.7	-38.8	21.7	0.00e+00	123	41	0	161480704	48	6096
2026-01-30 14:35:39.53	21.27	7.23	-37.4	-38.4	21.9	0.00e+00	120	41	0	175112192	48	5841
2026-01-30 14:35:43.57	21.32	7.55	-37.3	-38.3	22.0	0.00e+00	120	41	0	187695104	48	5766
2026-01-30 14:35:47.61	21.37	7.86	-37.2	-38.3	22.1	0.00e+00	122	41	0	200278016	48	5727
2026-01-30 14:35:51.65	21.42	8.18	-36.9	-38.0	22.4	0.00e+00	123	41	0	212860928	48	5538
2026-01-30 14:35:55.69	21.47	8.51	-36.9	-38.0	22.5	0.00e+00	123	42	0	225443840	48	5532
2026-01-30 14:35:59.73	21.52	8.84	-36.9	-37.9	22.5	0.00e+00	120	41	0	238026752	48	5504
2026-01-30 14:36:03.77	21.58	9.18	-36.7	-37.7	22.6	0.00e+00	120	41	0	250609664	46	6043
2026-01-30 14:36:07.80	21.63	9.51	-36.6	-37.5	22.8	0.00e+00	122	41	0	263192576	46	5916
2026-01-30 14:36:11.84	21.68	9.86	-36.6	-37.6	22.9	0.00e+00	122	41	0	275775488	46	5938
2026-01-30 14:36:15.88	21.74	10.21	-36.3	-37.2	23.1	0.00e+00	122	41	0	288358400	46	5720
2026-01-30 14:36:19.92	21.79	10.56	-36.3	-37.3	23.1	0.00e+00	123	41	0	300941312	46	5739
2026-01-30 14:36:23.96	21.85	10.92	-36.1	-37.1	23.3	0.00e+00	120	41	0	313524224	46	5599
2026-01-30 14:36:27.99	21.91	11.28	-35.9	-36.9	23.4	0.00e+00	120	42	0	326107136	46	5469
2026-01-30 14:36:32.03	21.96	11.65	-35.8	-36.7	23.6	0.00e+00	122	41	0	338690048	46	5376
2026-01-30 14:36:36.07	22.02	12.03	-35.6	-36.5	23.7	0.00e+00	122	41	0	351272960	44	5921
2026-01-30 14:36:40.11	22.08	12.41	-35.6	-36.5	23.6	0.00e+00	120	42	0	363855872	44	5907
2026-01-30 14:36:44.15	22.15	12.80	-35.5	-36.4	23.9	0.00e+00	123	41	0	376438784	44	5830
2026-01-30 14:36:48.19	22.21	13.19	-35.5	-36.5	23.8	0.00e+00	123	41	0	389021696	44	5863
2026-01-30 14:36:52.23	22.27	13.59	-35.4	-36.3	23.9	0.00e+00	122	41	0	401604608	44	5785
2026-01-30 14:36:56.27	22.34	14.00	-35.4	-36.3	24.0	0.00e+00	123	41	0	414187520	44	5789
2026-01-30 14:37:00.31	22.41	14.41	-35.5	-36.4	23.9	0.00e+00	122	41	0	426770432	44	5817
2026-01-30 14:37:04.35	22.47	14.83	-35.6	-36.5	23.9	0.00e+00	123	41	0	439353344	44	5909
2026-01-30 14:37:08.35	22.54	15.25	-35.4	-36.3	24.0	0.00e+00	123	41	0	450887680	44	5789
2026-01-30 14:37:12.39	22.61	15.69	-35.5	-36.4	24.0	0.00e+00	123	41	0	464519168	44	5816
2026-01-30 14:37:16.42	22.69	16.13	-35.4	-36.3	23.9	0.00e+00	123	41	0	477102080	44	5784
2026-01-30 14:37:20.47	22.76	16.59	-35.6	-36.5	23.9	0.00e+00	123	41	0	489684992	44	5877
2026-01-30 14:37:24.51	22.84	17.05	-35.6	-36.5	23.9	0.00e+00	123	41	0	502267904	44	5901
2026-01-30 14:37:28.55	22.92	17.51	-35.5	-36.5	24.0	0.00e+00	122	41	0	514850816	44	5859
2026-01-30 14:37:32.59	23.00	17.99	-35.7	-36.6	23.8	0.00e+00	123	41	0	527433728	44	5967
2026-01-30 14:37:36.63	23.08	18.48	-35.6	-36.5	23.9	0.00e+00	120	41	0	540016640	44	5886
2026-01-30 14:37:40.67	23.16	18.98	-35.4	-36.4	24.1	0.00e+00	121	41	0	552599552	44	5793
2026-01-30 14:37:44.71	23.25	19.49	-35.3	-36.2	24.1	0.00e+00	123	42	0	565182464	44	5722
2026-01-30 14:37:48.75	23.34	20.00	-35.1	-36.0	24.3	0.00e+00	120	42	0	577765376	44	5554
2026-01-30 14:37:52.79	23.43	20.53	-35.0	-35.9	24.5	0.00e+00	122	42	0	590348288	44	5469
2026-01-30 14:37:56.83	23.52	21.07	-34.6	-35.4	24.8	0.00e+00	122	41	0	602931200	42	5851
2026-01-30 14:38:00.87	23.62	21.63	-34.5	-35.4	24.8	0.00e+00	122	42	0	615514112	42	5819
2026-01-30 14:38:04.90	23.72	22.19	-34.1	-35.0	25.0	0.00e+00	123	42	0	628097024	42	5565
2026-01-30 14:38:08.94	23.82	22.77	-34.0	-34.8	25.2	0.00e+00	123	42	0	640679936	42	5446
2026-01-30 14:38:12.98	23.93	23.36	-33.9	-34.8	25.3	0.00e+00	123	41	0	653262848	42	5429
2026-01-30 14:38:17.02	24.04	23.96	-34.1	-35.0	25.1	0.00e+00	122	41	0	665845760	42	5532
2026-01-30 14:38:21.05	24.15	24.58	-33.9	-34.8	25.2	0.00e+00	122	42	0	678428672	42	5422
2026-01-30 14:38:25.10	24.27	25.22	-34.1	-35.0	25.1	0.00e+00	122	42	0	691011584	42	5548
2026-01-30 14:38:29.14	24.39	25.87	-34.5	-35.3	24.9	0.00e+00	123	42	0	703594496	42	5782
2026-01-30 14:38:33.18	24.51	26.53	-34.6	-35.5	24.8	0.00e+00	122	42	0	716177408	42	5870
2026-01-30 14:38:37.21	24.64	27.21	-34.9	-35.7	24.7	0.00e+00	123	41	0	728760320	42	6054
2026-01-30 14:38:41.24	24.78	27.91	-35.3	-36.2	24.3	0.00e+00	123	42	0	741343232	42	6402
2026-01-30 14:38:45.29	24.92	28.63	-35.7	-36.6	24.0	0.00e+00	122	42	0	753926144	42	6708
2026-01-30 14:38:49.32	25.06	29.36	-35.7	-36.6	24.0	0.00e+00	122	42	0	766509056	44	5980
2026-01-30 14:38:53.36	25.22	30.12	-35.6	-36.5	24.1	0.00e+00	123	42	0	779091968	44	5917
2026-01-30 14:38:57.40	25.38	30.90	-34.9	-35.8	24.6	0.00e+00	123	42	0	791674880	44	5428
2026-01-30 14:39:01.44	25.54	31.69	-34.6	-35.5	24.9	0.00e+00	122	42	0	805306368	42	5877
2026-01-30 14:39:05.48	25.72	32.51	-34.7	-35.6	24.8	0.00e+00	123	42	0	817889280	42	5952
2026-01-30 14:39:09.52	25.90	33.36	-35.1	-36.0	24.6	0.00e+00	123	42	0	830472192	42	6237
2026-01-30 14:39:13.56	26.09	34.22	-35.6	-36.5	24.1	0.00e+00	122	42	0	843055104	42	6634
2026-01-30 14:39:17.60	26.29	35.11	-36.2	-37.1	23.7	0.00e+00	123	42	0	855638016	44	6318
2026-01-30 14:39:21.64	26.50	36.03	-37.1	-38.0	23.0	0.00e+00	123	42	0	868220928	46	6254
2026-01-30 14:39:25.68	26.72	36.97	-37.5	-38.5	22.4	0.00e+00	122	42	0	880803840	46	6624
2026-01-30 14:39:29.72	26.96	37.94	-36.9	-37.9	23.0	0.00e+00	120	42	0	893386752	46	6168
2026-01-30 14:39:33.76	27.20	38.94	-37.0	-38.0	22.9	0.00e+00	122	42	0	905969664	46	6227
2026-01-30 14:39:37.80	27.47	39.97	-37.3	-38.3	22.3	0.00e+00	123	41	0	918552576	46	6492
2026-01-30 14:39:41.84	27.75	41.03	-37.8	-38.9	22.1	0.00e+00	122	42	0	931135488	48	6159
2026-01-30 14:39:45.88	28.05	42.12	-38.0	-39.1	22.0	0.00e+00	123	42	0	943718400	48	6310
2026-01-30 14:39:49.91	28.36	43.24	-38.8	-39.9	21.2	0.00e+00	122	42	0	956301312	50	6181
2026-01-30 14:39:53.95	28.70	44.40	-38.3	-39.4	21.7	0.00e+00	123	42	0	968884224	50	5825
2026-01-30 14:39:57.99	29.07	45.59	-38.6	-39.7	21.6	0.00e+00	122	42	0	981467136	50	6012
2026-01-30 14:40:02.03	29.46	46.81	-38.2	-39.2	22.0	0.00e+00	122	42	0	994050048	50	5710
2026-01-30 14:40:06.07	29.88	48.08	-37.2	-38.1	22.9	0.00e+00	122	42	0	1006632960	48	5651
2026-01-30 14:40:10.12	30.34	49.38	-36.5	-37.4	23.4	0.00e+00	123	42	0	1019215872	46	5835
2026-01-30 14:40:14.15	30.84	50.71	-36.3	-37.3	23.7	0.00e+00	122	42	0	1031798784	46	5729
2026-01-30 14:40:18.19	31.38	52.08	-36.7	-37.7	23.0	0.00e+00	123	41	0	1044381696	46	6034
2026-01-30 14:40:22.24	31.98	53.49	-36.4	-37.4	23.0	0.00e+00	123	42	0	1056964608	46	5827
2026-01-30 14:40:26.27	32.63	54.93	-35.9	-36.8	23.9	0.00e+00	123	42	0	1069547520	46	5441
2026-01-30 14:40:30.31	33.36	56.42	-35.7	-36.6	23.9	0.00e+00	123	42	0	1082130432	44	5939
2026-01-30 14:40:34.35	34.16	57.93	-35.5	-36.4	24.0	0.00e+00	123	42	0	1094713344	44	5848
2026-01-30 14:40:38.39	35.07	59.49	-35.1	-36.0	24.5	0.00e+00	122	41	0	1107296256	44	5575
2026-01-30 14:40:42.43	36.08	61.07	-34.5	-35.4	24.7	0.00e+00	122	42	0	1120927744	42	5804
2026-01-30 14:40:46.47	37.23	62.69	-34.0	-34.8	24.9	0.00e+00	123	41	0	1133510656	42	5462
2026-01-30 14:40:50.51	38.55	64.34	-33.8	-34.6	25.4	0.00e+00	122	42	0	1146093568	40	5982
2026-01-30 14:40:54.55	40.07	66.01	-33.7	-34.5	25.2	0.00e+00	122	42	0	1158676480	40	5917
2026-01-30 14:40:58.59	41.84	67.69	-33.9	-34.7	25.4	0.00e+00	123	42	0	1171259392	40	6044
2026-01-30 14:41:02.63	43.93	69.39	-33.5	-34.4	25.0	0.00e+00	123	42	0	1183842304	40	5829
2026-01-30 14:41:06.68	46.43	71.09	-33.5	-34.4	25.2	0.00e+00	120	42	0	1196425216	40	5825
2026-01-30 14:41:10.71	49.43	72.77	-34.2	-35.1	25.1	0.00e+00	123	42	0	1209008128	40	6329
2026-01-30 14:41:14.75	53.12	74.43	-33.8	-34.7	25.4	0.00e+00	122	42	0	1221591040	40	6031
2026-01-30 14:41:18.79	57.71	76.03	-33.2	-34.1	25.8	0.00e+00	123	42	0	1234173952	40	5609
2026-01-30 14:41:22.83	63.49	77.54	-33.4	-34.3	25.8	0.00e+00	123	42	0	1246756864	40	5736
2026-01-30 14:41:26.87	70.82	78.91	-33.0	-33.8	26.0	0.00e+00	122	42	0	1259339776	40	5426
2026-01-30 14:41:30.91	80.06	80.06	-33.3	-34.1	25.6	0.00e+00	120	42	0	1271922688	38	6324
2026-01-30 14:41:34.95	91.39	80.90	-33.5	-34.3	25.5	0.00e+00	120	42	0	1284505600	40	5776
2026-01-30 14:41:38.99	104.43	81.34	-33.6	-34.4	25.5	0.00e+00	123	42	0	1297088512	40	5844
2026-01-30 14:41:43.03	118.09	81.30	-33.3	-34.2	25.7	0.00e+00	122	42	0	1309671424	40	5665
2026-01-30 14:41:47.07	130.91	80.79	-33.6	-34.5	25.5	0.00e+00	122	42	0	1322254336	40	5879
2026-01-30 14:41:51.11	141.90	79.89	-34.0	-34.8	25.4	0.00e+00	123	42	0	1334837248	40	6130
2026-01-30 14:41:55.15	150.81	78.69	-33.2	-34.0	25.9	0.00e+00	123	42	0	1347420160	40	5592
2026-01-30 14:41:59.19	157.86	77.30	-32.4	-33.2	26.1	0.00e+00	123	42	0	1360003072	38	5717
2026-01-30 14:42:03.23	163.42	75.77	-33.7	-34.6	25.2	0.00e+00	123	42	0	1372585984	40	5941
2026-01-30 14:42:07.27	167.85	74.15	-33.1	-33.9	26.0	0.00e+00	122	42	0	1385168896	40	5503
2026-01-30 14:42:11.30	171.41	72.49	-33.8	-34.6	25.5	0.00e+00	122	42	0	1397751808	40	5988
2026-01-30 14:42:15.34	174.33	70.80	-33.3	-34.1	25.8	0.00e+00	123	42	0	1410334720	38	6329
2026-01-30 14:42:19.38	176.74	69.10	-32.7	-33.5	26.2	0.00e+00	123	42	0	1422917632	38	5888
2026-01-30 14:42:23.42	178.77	67.40	-34.2	-35.2	24.5	0.00e+00	123	42	0	1436549120	42	5666
2026-01-30 14:42:27.45	180.50	65.71	-33.1	-33.9	25.7	0.00e+00	122	42	0	1448083456	40	5500
2026-01-30 14:42:31.49	181.98	64.04	-33.8	-34.7	25.2	0.00e+00	123	42	0	1461714944	42	5373
2026-01-30 14:42:35.53	183.27	62.40	-33.3	-34.1	25.9	0.00e+00	120	42	0	1474297856	38	6306
2026-01-30 14:42:39.57	184.40	60.78	-36.0	-37.0	23.8	0.00e+00	123	42	0	1486880768	46	5563
2026-01-30 14:42:43.61	185.39	59.19	-33.6	-34.4	25.6	0.00e+00	123	42	0	1499463680	40	5819
2026-01-30 14:42:47.65	186.28	57.64	-35.6	-36.6	23.9	0.00e+00	123	42	0	1512046592	44	5960
2026-01-30 14:42:51.69	187.07	56.12	-34.9	-35.8	24.8	0.00e+00	122	42	0	1524629504	42	6068
2026-01-30 14:42:55.74	187.79	54.64	-36.1	-37.0	23.8	0.00e+00	123	42	0	1537212416	44	6226
2026-01-30 14:42:59.77	188.43	53.20	-36.2	-37.2	22.9	0.00e+00	123	42	0	1549795328	44	6395
2026-01-30 14:43:03.81	189.01	51.79	-36.2	-37.1	23.8	0.00e+00	123	41	0	1562378240	44	6327
2026-01-30 14:43:07.85	189.55	50.42	-39.1	-40.3	21.0	0.00e+00	123	42	0	1574961152	50	6472
2026-01-30 14:43:11.89	190.04	49.09	-37.1	-38.1	22.6	0.00e+00	123	41	0	1587544064	48	5652
2026-01-30 14:43:15.93	190.49	47.79	-37.2	-38.1	22.7	0.00e+00	122	41	0	1600126976	46	6349
2026-01-30 14:43:19.97	190.91	46.53	-37.7	-38.7	21.8	0.00e+00	122	41	0	1612709888	48	6058
2026-01-30 14:43:24.01	191.30	45.31	-38.6	-39.6	21.7	0.00e+00	123	42	0	1625292800	50	5967
2026-01-30 14:43:28.05	191.66	44.12	-37.9	-38.9	22.3	0.00e+00	123	41	0	1637875712	48	6146
2026-01-30 14:43:32.10	191.99	42.96	-37.7	-38.8	21.5	0.00e+00	123	41	0	1650458624	48	6125
2026-01-30 14:43:36.13	192.30	41.85	-36.7	-37.6	23.4	0.00e+00	123	41	0	1663041536	46	5950
2026-01-30 14:43:40.17	192.60	40.76	-37.5	-38.5	22.5	0.00e+00	123	42	0	1675624448	46	6638
2026-01-30 14:43:44.21	192.87	39.70	-37.9	-38.9	22.3	0.00e+00	123	42	0	1688207360	48	6178
2026-01-30 14:43:48.25	193.13	38.67	-38.0	-39.0	21.9	0.00e+00	122	42	0	1700790272	48	6271
2026-01-30 14:43:52.29	193.38	37.67	-37.0	-38.0	22.7	0.00e+00	123	41	0	1713373184	48	5570
2026-01-30 14:43:56.32	193.61	36.71	-36.3	-37.3	23.0	0.00e+00	123	42	0	1725956096	46	5755
2026-01-30 14:44:00.36	193.83	35.77	-35.6	-36.5	24.0	0.00e+00	120	42	0	1738539008	44	5908
2026-01-30 14:44:04.39	194.04	34.85	-36.0	-36.9	23.8	0.00e+00	122	42	0	1751121920	44	6155
2026-01-30 14:44:08.42	194.23	33.96	-36.0	-36.9	23.9	0.00e+00	123	41	0	1763704832	44	6150
2026-01-30 14:44:12.46	194.42	33.10	-35.9	-36.8	24.0	0.00e+00	120	42	0	1776287744	44	6087
2026-01-30 14:44:16.50	194.60	32.26	-35.7	-36.6	24.2	0.00e+00	123	42	0	1788870656	44	5947
2026-01-30 14:44:20.54	194.77	31.44	-35.5	-36.4	24.4	0.00e+00	123	42	0	1802502144	44	5831
2026-01-30 14:44:24.58	194.93	30.64	-35.1	-36.0	24.4	0.00e+00	120	42	0	1815085056	44	5535
2026-01-30 14:44:28.62	195.09	29.87	-35.5	-36.5	24.1	0.00e+00	123	42	0	1827667968	44	5867
2026-01-30 14:44:32.66	195.24	29.11	-35.5	-36.4	24.0	0.00e+00	120	42	0	1840250880	44	5858
2026-01-30 14:44:36.70	195.38	28.37	-35.5	-36.5	23.7	0.00e+00	123	42	0	1852833792	44	5897
2026-01-30 14:44:40.74	195.52	27.66	-35.7	-36.7	23.5	0.00e+00	123	42	0	1865416704	44	6042
2026-01-30 14:44:44.78	195.65	26.96	-34.9	-35.8	24.3	0.00e+00	120	42	0	1877999616	44	5433
2026-01-30 14:44:48.82	195.78	26.28	-34.5	-35.4	24.6	0.00e+00	123	41	0	1890582528	42	5800
2026-01-30 14:44:52.86	195.91	25.61	-34.4	-35.3	24.9	0.00e+00	123	42	0	1903165440	42	5738
2026-01-30 14:44:56.89	196.02	24.97	-34.3	-35.1	24.9	0.00e+00	120	41	0	1915748352	42	5643
2026-01-30 14:45:00.93	196.14	24.33	-34.7	-35.6	24.9	0.00e+00	120	41	0	1928331264	42	5947
2026-01-30 14:45:04.97	196.25	23.71	-34.5	-35.3	25.0	0.00e+00	123	42	0	1940914176	42	5765
2026-01-30 14:45:09.01	196.36	23.11	-34.4	-35.2	25.1	0.00e+00	122	42	0	1953497088	42	5714
2026-01-30 14:45:13.05	196.46	22.52	-34.5	-35.4	25.1	0.00e+00	123	42	0	1966080000	42	5796
2026-01-30 14:45:17.09	196.56	21.94	-34.8	-35.7	24.7	0.00e+00	122	42	0	1978662912	42	6002
2026-01-30 14:45:21.13	196.66	21.38	-34.9	-35.8	24.7	0.00e+00	123	42	0	1991245824	42	6119
2026-01-30 14:45:25.18	196.75	20.82	-34.9	-35.8	24.7	0.00e+00	123	42	0	2003828736	42	6109
2026-01-30 14:45:29.22	196.84	20.28	-35.1	-36.0	24.5	0.00e+00	123	42	0	2016411648	42	6252
2026-01-30 14:45:33.26	196.93	19.76	-34.8	-35.6	24.8	0.00e+00	122	42	0	2028994560	42	5978
2026-01-30 14:45:37.29	197.02	19.24	-34.9	-35.8	24.6	0.00e+00	122	41	0	2041577472	42	6083
2026-01-30 14:45:41.32	197.10	18.73	-34.9	-35.7	24.7	0.00e+00	122	42	0	2054160384	42	6064
2026-01-30 14:45:45.36	197.18	18.23	-35.0	-35.9	24.3	0.00e+00	122	42	0	2066743296	42	6179
2026-01-30 14:45:49.40	197.26	17.75	-35.3	-36.3	24.0	0.00e+00	123	41	0	2079326208	42	6426
2026-01-30 14:45:53.45	197.34	17.27	-35.6	-36.5	23.8	0.00e+00	122	42	0	2091909120	42	6647
2026-01-30 14:45:57.49	197.41	16.80	-35.7	-36.6	23.7	0.00e+00	122	42	0	2104492032	42	6718
2026-01-30 14:46:01.52	197.49	16.34	-35.8	-36.8	23.7	0.00e+00	122	41	0	2118123520	44	6079
2026-01-30 14:46:05.56	197.56	15.89	-35.7	-36.7	23.7	0.00e+00	123	42	0	2129657856	44	6046
2026-01-30 14:46:09.60	197.63	15.45	-35.8	-36.8	23.6	0.00e+00	123	41	0	2143289344	44	6068
2026-01-30 14:46:13.64	197.70	15.01	-35.7	-36.7	23.7	0.00e+00	123	41	0	2155872256	44	6017
2026-01-30 14:46:17.68	197.76	14.58	-35.7	-36.6	23.7	0.00e+00	122	42	0	2168455168	44	5986
2026-01-30 14:46:21.71	197.83	14.16	-35.8	-36.8	23.6	0.00e+00	123	42	0	2181038080	44	6080
2026-01-30 14:46:25.75	197.89	13.75	-35.9	-36.8	23.7	0.00e+00	123	42	0	2193620992	44	6112
2026-01-30 14:46:29.79	197.96	13.34	-35.8	-36.7	23.6	0.00e+00	120	42	0	2206203904	44	6058
2026-01-30 14:46:33.83	198.02	12.94	-35.8	-36.8	23.6	0.00e+00	123	41	0	2218786816	44	6069
2026-01-30 14:46:37.86	198.08	12.55	-35.8	-36.7	23.7	0.00e+00	123	42	0	2231369728	44	6054
2026-01-30 14:46:41.90	198.14	12.16	-35.8	-36.7	23.7	0.00e+00	123	42	0	2243952640	44	6064
2026-01-30 14:46:45.94	198.19	11.78	-35.8	-36.8	23.6	0.00e+00	123	42	0	2256535552	44	6073
2026-01-30 14:46:49.98	198.25	11.41	-35.8	-36.7	23.6	0.00e+00	122	42	0	2269118464	44	6063
2026-01-30 14:46:54.02	198.30	11.04	-35.9	-36.8	23.6	0.00e+00	123	42	0	2281701376	44	6121
2026-01-30 14:46:58.06	198.36	10.67	-35.9	-36.8	23.5	0.00e+00	120	42	0	2294284288	44	6134
2026-01-30 14:47:02.09	198.41	10.32	-36.1	-37.0	23.4	0.00e+00	123	42	0	2306867200	44	6246
2026-01-30 14:47:06.13	198.46	9.96	-36.2	-37.2	23.2	0.00e+00	122	42	0	2319450112	44	6365
2026-01-30 14:47:10.17	198.52	9.61	-36.3	-37.3	23.1	0.00e+00	120	42	0	2332033024	44	6465
2026-01-30 14:47:14.21	198.57	9.27	-36.5	-37.5	23.1	0.00e+00	123	42	0	2344615936	44	6597
2026-01-30 14:47:18.25	198.62	8.93	-36.8	-37.8	22.7	0.00e+00	122	42	0	2357198848	46	6092
2026-01-30 14:47:22.29	198.67	8.60	-36.9	-37.8	22.6	0.00e+00	122	42	0	2369781760	46	6134
2026-01-30 14:47:26.33	198.71	8.27	-37.3	-38.3	22.2	0.00e+00	122	42	0	2382364672	46	6495
2026-01-30 14:47:30.37	198.76	7.94	-37.2	-38.2	22.3	0.00e+00	120	42	0	2394947584	46	6407
2026-01-30 14:47:34.41	198.81	7.62	-37.6	-38.6	21.9	0.00e+00	123	42	0	2407530496	46	6715
2026-01-30 14:47:38.45	198.85	7.30	-37.5	-38.6	21.9	0.00e+00	122	42	0	2420113408	48	5952
2026-01-30 14:47:42.49	198.90	6.99	-37.9	-39.0	21.6	0.00e+00	123	42	0	2432696320	48	6214
2026-01-30 14:47:46.53	198.94	6.68	-38.0	-39.0	21.5	0.00e+00	122	42	0	2445279232	48	6265
2026-01-30 14:47:50.57	198.99	6.37	-38.3	-39.4	21.2	0.00e+00	123	42	0	2458910720	48	6530
2026-01-30 14:47:54.61	199.03	6.07	-38.3	-39.5	21.0	0.00e+00	122	42	0	2470445056	48	6581
2026-01-30 14:47:58.65	199.07	5.77	-38.5	-39.7	20.9	0.00e+00	123	42	0	2484076544	48	6762
2026-01-30 14:48:02.69	199.11	5.47	-38.7	-39.9	20.7	0.00e+00	120	42	0	2496659456	50	6146
2026-01-30 14:48:06.73	199.15	5.18	-39.1	-40.3	20.3	0.00e+00	123	42	0	2509242368	50	6427
2026-01-30 14:48:10.77	199.20	4.89	-39.1	-40.3	20.2	0.00e+00	122	42	0	2521825280	50	6446
2026-01-30 14:48:14.81	199.24	4.60	-39.1	-40.3	20.1	0.00e+00	123	42	0	2534408192	50	6451
2026-01-30 14:48:18.85	199.28	4.32	-39.3	-40.6	19.7	0.00e+00	123	42	0	2546991104	50	6667
2026-01-30 14:48:22.89	199.31	4.04	-39.5	-40.7	19.7	0.00e+00	123	42	0	2559574016	52	6048
2026-01-30 14:48:26.93	199.35	3.76	-39.5	-40.7	19.5	0.00e+00	123	42	0	2572156928	52	6049
2026-01-30 14:48:30.97	199.39	3.49	-40.1	-41.5	18.7	0.00e+00	123	42	0	2584739840	52	6585
2026-01-30 14:48:35.01	199.43	3.21	-40.0	-41.4	19.0	0.00e+00	123	42	0	2597322752	54	5806
2026-01-30 14:48:39.06	199.47	2.94	-48.5	-61.1	3.5	7.77e-01	0	42	104	2608857088	60	39998
2026-01-30 14:48:43.10	199.50	2.68	-49.3	-62.2	3.5	1.52e+00	0	42	104	2608857088	60	45387
2026-01-30 14:48:47.13	199.54	2.41	-49.0	-62.4	3.5	1.52e+00	0	42	104	2608857088	60	46521
2026-01-30 14:48:51.17	199.57	2.15	-49.3	-62.5	3.5	1.52e+00	0	42	104	2608857088	60	46753
2026-01-30 14:48:55.21	199.61	1.89	-49.5	-62.5	3.5	1.52e+00	0	42	104	2608857088	60	46650
2026-01-30 14:48:59.25	199.65	1.64	-49.5	-62.4	3.5	1.52e+00	0	42	104	2608857088	60	46309
2026-01-30 14:49:03.29	199.68	1.38	-49.7	-62.5	3.5	1.52e+00	0	42	104	2608857088	60	46823
2026-01-30 14:49:07.33	199.71	1.13	-49.5	-62.4	3.5	1.52e+00	0	42	104	2608857088	60	46425
2026-01-30 14:49:11.37	199.75	0.88	-49.5	-62.4	3.5	1.52e+00	0	42	104	2608857088	60	46307
2026-01-30 14:49:15.41	199.78	0.63	-49.5	-62.4	3.5	1.52e+00	0	42	104	2608857088	60	46093
2026-01-30 14:49:19.45	199.81	0.38	-49.5	-62.4	3.5	1.52e+00	0	42	104	2608857088	60	46262
2026-01-30 14:49:23.49	199.85	0.14	-49.5	-62.4	3.5	1.52e+00	0	42	104	2608857088	60	46146

#Closed at: 2026-01-30 14:49:26
#Recorded file [2608 MB]: D:/lorett/data/35029_260131_023354.dat