passes_logs/2026/01/30/R4.6S_Anadyr/R4.6S_Anadyr__20260130_111402_KOSAR1-5_rec.log

#Pass ID: 20260130_111402_KOSAR1-5
#Satellite: KOSAR1-5
#Configuration: KOSAR1-5
#almurnet v.1.7.20251203
#Start time: 2026-01-30 11:14:05

#Version: 2.2.20231116
#Station: R4.6S_Anadyr
#Location: 177.4865 lon 64.73178 lat
#TLE: 1 67264U 25313S   26028.94615568  .00012050  00000+0  55467-3 0  9998
#TLE: 2 67264  97.4180 105.8864 0016576 134.5684 225.6907 15.20338860  4779

#Time	Az	El	Level	Level2	SNR	BER	BlckErr	Temp	State	Recorded	gain1	gain2
2026-01-30 11:14:05.08	210.87	0.16	-46.1	-59.7	3.3	1.54e+00	0	40	0	0	60	39079
2026-01-30 11:14:08.11	211.14	0.33	-46.4	-61.4	3.6	1.51e+00	0	40	104	0	60	47706
2026-01-30 11:14:11.14	211.41	0.50	-46.3	-61.3	3.6	1.51e+00	0	40	104	0	60	47205
2026-01-30 11:14:14.17	211.69	0.67	-46.6	-61.3	3.6	1.51e+00	0	40	104	0	60	46896
2026-01-30 11:14:17.20	211.96	0.84	-46.4	-61.1	3.6	1.51e+00	0	40	104	0	60	46153
2026-01-30 11:14:20.23	212.25	1.01	-46.3	-61.1	3.6	1.51e+00	0	40	104	0	60	45989
2026-01-30 11:14:23.26	212.53	1.18	-46.1	-60.9	3.6	1.51e+00	0	40	104	0	60	44833
2026-01-30 11:14:26.29	212.82	1.35	-45.6	-60.3	3.6	1.51e+00	0	40	104	0	60	42161
2026-01-30 11:14:29.32	213.12	1.53	-44.9	-59.7	3.6	1.51e+00	0	40	104	0	60	39279
2026-01-30 11:14:32.35	213.42	1.70	-44.9	-59.7	3.6	1.51e+00	0	40	104	0	60	39143
2026-01-30 11:14:35.38	213.72	1.88	-44.9	-59.7	3.6	1.51e+00	0	40	104	0	60	39272
2026-01-30 11:14:38.42	214.03	2.05	-44.9	-59.7	3.6	1.51e+00	0	40	104	0	60	39276
2026-01-30 11:14:41.45	214.34	2.23	-44.9	-59.7	3.6	1.51e+00	0	41	104	0	60	39221
2026-01-30 11:14:44.47	214.66	2.41	-44.9	-59.7	3.6	1.51e+00	0	41	104	0	60	39209
2026-01-30 11:14:47.51	214.98	2.59	-44.9	-59.7	3.6	1.51e+00	0	41	104	0	60	39187
2026-01-30 11:14:50.54	215.31	2.77	-44.9	-59.6	3.6	1.51e+00	0	41	104	0	60	38890
2026-01-30 11:14:53.57	215.64	2.95	-44.9	-59.7	3.6	1.51e+00	0	41	104	0	60	39180
2026-01-30 11:14:56.60	215.98	3.13	-44.9	-59.7	3.6	1.51e+00	0	41	104	0	60	39004
2026-01-30 11:14:59.62	216.32	3.31	-44.9	-59.7	3.6	1.51e+00	0	41	104	0	60	39257
2026-01-30 11:15:02.65	216.67	3.50	-45.0	-59.7	3.6	1.51e+00	0	41	104	0	60	39225
2026-01-30 11:15:05.68	217.02	3.68	-45.0	-59.7	3.6	1.51e+00	0	41	104	0	60	39399
2026-01-30 11:15:08.70	217.38	3.86	-44.9	-59.8	3.6	1.51e+00	0	41	104	0	60	39636
2026-01-30 11:15:11.73	217.74	4.05	-44.4	-59.7	3.5	1.51e+00	0	41	104	0	60	39205
2026-01-30 11:15:14.76	218.11	4.24	-44.9	-59.8	3.6	1.51e+00	0	41	104	0	60	39687
2026-01-30 11:15:17.78	218.49	4.43	-45.0	-60.0	3.6	1.51e+00	0	41	104	0	60	40376
2026-01-30 11:15:20.81	218.87	4.61	-45.2	-60.0	3.6	1.51e+00	0	41	104	0	60	40380
2026-01-30 11:15:23.84	219.26	4.80	-44.9	-59.8	3.6	1.51e+00	0	41	104	0	60	39591
2026-01-30 11:15:26.87	219.65	4.99	-45.0	-59.9	3.6	1.51e+00	0	41	104	0	60	39983
2026-01-30 11:15:29.90	220.05	5.19	-44.9	-59.9	3.6	1.51e+00	0	41	104	0	60	40181
2026-01-30 11:15:32.93	220.46	5.38	-45.2	-60.0	3.6	1.51e+00	0	41	104	0	60	40597
2026-01-30 11:15:35.95	220.87	5.57	-44.2	-59.7	3.6	1.51e+00	0	41	104	0	60	39235
2026-01-30 11:15:38.98	221.29	5.77	-44.8	-59.8	3.6	1.51e+00	0	41	104	0	60	39861
2026-01-30 11:15:42.01	221.72	5.96	-44.0	-59.9	3.6	1.51e+00	0	41	104	0	60	39965
2026-01-30 11:15:45.04	222.16	6.16	-44.9	-60.0	3.6	1.51e+00	0	41	104	0	60	40531
2026-01-30 11:15:48.06	222.60	6.35	-42.7	-59.8	3.6	1.51e+00	0	41	104	0	60	39768
2026-01-30 11:15:51.09	223.04	6.55	-43.2	-59.9	3.5	1.51e+00	0	41	104	0	60	40033
2026-01-30 11:15:54.12	223.50	6.75	-43.6	-59.9	3.6	1.51e+00	0	41	104	0	60	39987
2026-01-30 11:15:57.15	223.97	6.95	-43.8	-60.0	3.6	1.51e+00	0	41	104	0	60	40771
2026-01-30 11:16:00.18	224.44	7.15	-42.3	-59.7	3.6	1.51e+00	0	41	104	0	60	39328
2026-01-30 11:16:03.21	224.92	7.35	-42.6	-59.9	3.6	1.51e+00	0	41	104	0	60	39887
2026-01-30 11:16:06.24	225.41	7.55	-43.1	-59.9	3.6	1.51e+00	0	41	104	0	60	40066
2026-01-30 11:16:09.26	225.90	7.75	-44.1	-60.0	3.6	1.51e+00	0	41	104	0	60	40778
2026-01-30 11:16:12.29	226.41	7.95	-42.6	-59.8	3.6	1.51e+00	0	41	104	0	60	39771
2026-01-30 11:16:15.32	226.92	8.15	-44.1	-60.0	3.6	1.51e+00	0	41	104	0	60	40675
2026-01-30 11:16:18.35	227.44	8.36	-43.9	-60.1	3.6	1.51e+00	0	41	104	0	60	40799
2026-01-30 11:16:21.39	227.97	8.56	-44.7	-60.1	3.6	1.51e+00	0	41	104	0	60	41259
2026-01-30 11:16:24.41	228.51	8.76	-43.5	-59.9	3.6	1.51e+00	0	41	104	0	60	40283
2026-01-30 11:16:27.44	229.06	8.97	-45.2	-60.0	3.6	1.51e+00	0	41	104	0	60	40617
2026-01-30 11:16:30.47	229.62	9.17	-45.2	-60.0	3.6	1.51e+00	0	41	104	0	60	40588
2026-01-30 11:16:33.50	230.19	9.38	-45.4	-60.1	3.6	1.51e+00	0	41	104	0	60	40862
2026-01-30 11:16:36.52	230.76	9.58	-45.4	-59.9	3.6	1.51e+00	0	41	104	0	60	39863
2026-01-30 11:16:39.55	231.35	9.78	-45.3	-59.8	3.6	1.51e+00	0	41	104	0	60	39614
2026-01-30 11:16:42.58	231.95	9.99	-45.1	-59.7	3.6	1.51e+00	0	41	104	0	60	39163
2026-01-30 11:16:45.60	232.56	10.19	-45.3	-60.0	3.6	1.51e+00	0	41	104	0	60	40445
2026-01-30 11:16:48.63	233.17	10.40	-45.4	-60.1	3.6	1.51e+00	0	41	104	0	60	41126
2026-01-30 11:16:51.66	233.80	10.60	-45.3	-60.2	3.6	1.51e+00	0	41	104	0	60	41372
2026-01-30 11:16:54.69	234.44	10.80	-45.4	-60.2	3.6	1.51e+00	0	41	104	0	60	41594
2026-01-30 11:16:57.72	235.09	11.01	-45.5	-60.1	3.6	1.51e+00	0	41	104	0	60	40948
2026-01-30 11:17:00.74	235.75	11.21	-45.4	-60.2	3.6	1.51e+00	0	41	104	0	60	41550
2026-01-30 11:17:03.76	236.42	11.41	-45.2	-60.2	3.6	1.51e+00	0	41	104	0	60	41319
2026-01-30 11:17:06.79	237.10	11.61	-45.3	-60.1	3.6	1.51e+00	0	41	104	0	60	41110
2026-01-30 11:17:09.82	237.79	11.81	-45.3	-60.2	3.6	1.51e+00	0	41	104	0	60	41390
2026-01-30 11:17:12.85	238.50	12.01	-45.5	-60.1	3.6	1.51e+00	0	41	104	0	60	41248
2026-01-30 11:17:15.88	239.21	12.20	-45.6	-60.2	3.5	1.51e+00	0	41	104	0	60	41734
2026-01-30 11:17:18.90	239.94	12.40	-45.6	-60.3	3.6	1.51e+00	0	41	104	0	60	41956
2026-01-30 11:17:21.93	240.68	12.59	-45.6	-60.3	3.6	1.51e+00	0	41	104	0	60	42132
2026-01-30 11:17:24.96	241.43	12.78	-45.7	-60.4	3.6	1.51e+00	0	41	104	0	60	42270
2026-01-30 11:17:27.99	242.19	12.97	-45.8	-60.5	3.6	1.51e+00	0	41	104	0	60	42999
2026-01-30 11:17:31.02	242.96	13.16	-45.9	-60.6	3.6	1.51e+00	0	41	104	0	60	43437
2026-01-30 11:17:34.05	243.75	13.35	-45.8	-60.5	3.6	1.51e+00	0	41	104	0	60	42997
2026-01-30 11:17:37.07	244.54	13.53	-45.9	-60.6	3.6	1.51e+00	0	41	104	0	60	43594
2026-01-30 11:17:40.10	245.35	13.71	-46.0	-60.7	3.6	1.51e+00	0	41	104	0	60	43714
2026-01-30 11:17:43.13	246.17	13.89	-46.0	-60.7	3.6	1.51e+00	0	41	104	0	60	43932
2026-01-30 11:17:46.16	247.00	14.06	-45.9	-60.6	3.6	1.51e+00	0	41	104	0	60	43594
2026-01-30 11:17:49.19	247.84	14.23	-45.9	-60.6	3.6	1.51e+00	0	41	104	0	60	43653
2026-01-30 11:17:52.21	248.69	14.40	-46.0	-60.7	3.6	1.51e+00	0	41	104	0	60	43789
2026-01-30 11:17:55.24	249.56	14.56	-46.0	-60.7	3.6	1.51e+00	0	41	104	0	60	43927
2026-01-30 11:17:58.26	250.43	14.72	-46.0	-60.7	3.6	1.51e+00	0	41	104	0	60	43845
2026-01-30 11:18:01.29	251.32	14.87	-46.0	-60.7	3.6	1.51e+00	0	41	104	0	60	43787
2026-01-30 11:18:04.32	252.22	15.02	-46.0	-60.7	3.6	1.51e+00	0	41	104	0	60	43860
2026-01-30 11:18:07.35	253.12	15.17	-46.0	-60.7	3.6	1.51e+00	0	41	104	0	60	44171
2026-01-30 11:18:10.38	254.04	15.31	-46.0	-60.7	3.6	1.51e+00	0	41	104	0	60	44124
2026-01-30 11:18:13.40	254.97	15.45	-46.0	-60.7	3.6	1.51e+00	0	41	104	0	60	43918
2026-01-30 11:18:16.43	255.90	15.58	-46.1	-60.7	3.6	1.51e+00	0	41	104	0	60	44117
2026-01-30 11:18:19.46	256.85	15.70	-46.1	-60.8	3.6	1.51e+00	0	41	104	0	60	44328
2026-01-30 11:18:22.49	257.81	15.82	-46.1	-60.7	3.6	1.51e+00	0	41	104	0	60	44063
2026-01-30 11:18:25.52	258.77	15.93	-46.0	-60.7	3.6	1.51e+00	0	41	104	0	60	43955
2026-01-30 11:18:28.55	259.74	16.04	-46.1	-60.7	3.6	1.51e+00	0	41	104	0	60	44193
2026-01-30 11:18:31.58	260.72	16.14	-46.1	-60.8	3.6	1.51e+00	0	41	104	0	60	44321
2026-01-30 11:18:34.61	261.71	16.23	-46.1	-60.8	3.6	1.51e+00	0	41	104	0	60	44318
2026-01-30 11:18:37.63	262.70	16.32	-46.0	-60.7	3.6	1.51e+00	0	41	104	0	60	44032
2026-01-30 11:18:40.66	263.70	16.40	-46.1	-60.7	3.5	1.51e+00	0	41	104	0	60	44168
2026-01-30 11:18:43.69	264.71	16.47	-46.1	-60.7	3.6	1.51e+00	0	42	104	0	60	44028
2026-01-30 11:18:46.72	265.72	16.54	-46.1	-60.8	3.6	1.51e+00	0	41	104	0	60	44317
2026-01-30 11:18:49.75	266.74	16.60	-46.0	-60.7	3.6	1.51e+00	0	42	104	0	60	43828
2026-01-30 11:18:52.78	267.76	16.65	-46.1	-60.8	3.6	1.51e+00	0	41	104	0	60	44225
2026-01-30 11:18:55.81	268.78	16.69	-46.1	-60.8	3.6	1.51e+00	0	41	104	0	60	44468
2026-01-30 11:18:58.84	269.81	16.72	-46.1	-60.7	3.6	1.51e+00	0	41	104	0	60	44186
2026-01-30 11:19:01.86	270.84	16.75	-46.1	-60.7	3.6	1.51e+00	0	41	104	0	60	44063
2026-01-30 11:19:04.89	271.87	16.77	-46.1	-60.7	3.6	1.51e+00	0	41	104	0	60	44092
2026-01-30 11:19:07.92	272.91	16.78	-46.1	-60.8	3.6	1.51e+00	0	41	104	0	60	44348
2026-01-30 11:19:10.95	273.94	16.79	-46.1	-60.8	3.5	1.51e+00	0	41	104	0	60	44328
2026-01-30 11:19:13.98	274.97	16.78	-46.1	-60.7	3.6	1.51e+00	0	41	104	0	60	44036
2026-01-30 11:19:17.01	276.01	16.77	-46.1	-60.8	3.6	1.51e+00	0	41	104	0	60	44358
2026-01-30 11:19:20.03	277.03	16.75	-46.1	-60.8	3.6	1.51e+00	0	41	104	0	60	44638
2026-01-30 11:19:23.06	278.06	16.72	-46.1	-60.8	3.6	1.51e+00	0	42	104	0	60	44334
2026-01-30 11:19:26.09	279.09	16.69	-46.0	-60.7	3.6	1.51e+00	0	41	104	0	60	44211
2026-01-30 11:19:29.12	280.12	16.64	-46.1	-60.7	3.6	1.51e+00	0	41	104	0	60	44177
2026-01-30 11:19:32.15	281.14	16.59	-46.1	-60.8	3.6	1.51e+00	0	41	104	0	60	44459
2026-01-30 11:19:35.18	282.15	16.53	-46.1	-60.8	3.6	1.51e+00	0	41	104	0	60	44415
2026-01-30 11:19:38.20	283.16	16.47	-46.1	-60.8	3.6	1.51e+00	0	41	104	0	60	44243
2026-01-30 11:19:41.23	284.17	16.39	-46.1	-60.7	3.6	1.51e+00	0	42	104	0	60	44198
2026-01-30 11:19:44.26	285.17	16.31	-46.1	-60.8	3.6	1.51e+00	0	42	104	0	60	44721
2026-01-30 11:19:47.29	286.16	16.23	-46.1	-60.9	3.6	1.51e+00	0	42	104	0	60	44824
2026-01-30 11:19:50.31	287.15	16.13	-46.1	-60.8	3.6	1.51e+00	0	42	104	0	60	44236
2026-01-30 11:19:53.34	288.13	16.03	-46.1	-60.7	3.6	1.51e+00	0	41	104	0	60	44211
2026-01-30 11:19:56.38	289.10	15.92	-46.1	-60.8	3.6	1.51e+00	0	42	104	0	60	44376
2026-01-30 11:19:59.40	290.06	15.81	-46.1	-60.8	3.6	1.51e+00	0	41	104	0	60	44364
2026-01-30 11:20:02.43	291.02	15.69	-46.1	-60.8	3.6	1.51e+00	0	42	104	0	60	44216
2026-01-30 11:20:05.46	291.96	15.57	-46.1	-60.7	3.6	1.51e+00	0	41	104	0	60	44103
2026-01-30 11:20:08.48	292.89	15.44	-46.0	-60.8	3.6	1.51e+00	0	42	104	0	60	44503
2026-01-30 11:20:11.51	293.82	15.30	-46.1	-60.8	3.6	1.51e+00	0	41	104	0	60	44489
2026-01-30 11:20:14.54	294.74	15.16	-46.0	-60.7	3.6	1.51e+00	0	41	104	0	60	44201
2026-01-30 11:20:17.57	295.64	15.01	-46.0	-60.8	3.6	1.51e+00	0	41	104	0	60	44235
2026-01-30 11:20:20.59	296.54	14.86	-46.0	-60.8	3.6	1.51e+00	0	42	104	0	60	44446
2026-01-30 11:20:23.62	297.42	14.71	-46.0	-60.7	3.6	1.51e+00	0	42	104	0	60	44109
2026-01-30 11:20:26.65	298.30	14.55	-46.0	-60.8	3.6	1.51e+00	0	41	104	0	60	44302
2026-01-30 11:20:29.68	299.16	14.38	-46.0	-60.7	3.6	1.51e+00	0	41	104	0	60	44033
2026-01-30 11:20:32.71	300.01	14.22	-45.9	-60.8	3.6	1.51e+00	0	41	104	0	60	44348
2026-01-30 11:20:35.73	300.85	14.05	-45.8	-60.8	3.6	1.51e+00	0	42	104	0	60	44351
2026-01-30 11:20:38.76	301.68	13.87	-45.8	-60.7	3.6	1.51e+00	0	42	104	0	60	43965
2026-01-30 11:20:41.77	302.50	13.70	-45.9	-60.7	3.6	1.51e+00	0	41	104	0	60	44068
2026-01-30 11:20:44.81	303.31	13.52	-45.7	-60.7	3.6	1.51e+00	0	41	104	0	60	43965
2026-01-30 11:20:47.84	304.10	13.33	-45.6	-60.7	3.6	1.51e+00	0	42	104	0	60	44198
2026-01-30 11:20:50.86	304.88	13.15	-45.4	-60.7	3.6	1.51e+00	0	42	104	0	60	44157
2026-01-30 11:20:53.90	305.66	12.96	-45.5	-60.7	3.6	1.51e+00	0	42	104	0	60	43846
2026-01-30 11:20:56.93	306.42	12.77	-45.5	-60.7	3.6	1.51e+00	0	42	104	0	60	43971
2026-01-30 11:20:59.96	307.17	12.58	-45.8	-60.7	3.6	1.51e+00	0	42	104	0	60	43945
2026-01-30 11:21:02.98	307.90	12.39	-45.7	-60.7	3.6	1.51e+00	0	42	104	0	60	43899
2026-01-30 11:21:06.01	308.63	12.19	-45.8	-60.7	3.6	1.51e+00	0	42	104	0	60	43721
2026-01-30 11:21:09.04	309.34	11.99	-45.9	-60.7	3.6	1.51e+00	0	42	104	0	60	43803
2026-01-30 11:21:12.06	310.05	11.80	-46.0	-60.7	3.6	1.51e+00	0	41	104	0	60	43742
2026-01-30 11:21:15.09	310.74	11.60	-46.0	-60.6	3.6	1.51e+00	0	42	104	0	60	43692
2026-01-30 11:21:18.12	311.42	11.40	-45.9	-60.6	3.6	1.51e+00	0	42	104	0	60	43401
2026-01-30 11:21:21.15	312.09	11.20	-45.8	-60.6	3.6	1.51e+00	0	41	104	0	60	43485
2026-01-30 11:21:24.18	312.75	10.99	-45.8	-60.6	3.6	1.51e+00	0	42	104	0	60	43584
2026-01-30 11:21:27.21	313.40	10.79	-45.9	-60.7	3.6	1.51e+00	0	42	104	0	60	43739
2026-01-30 11:21:30.23	314.04	10.59	-45.7	-60.6	3.6	1.51e+00	0	42	104	0	60	43305
2026-01-30 11:21:33.26	314.66	10.39	-45.6	-60.6	3.6	1.51e+00	0	42	104	0	60	43238
2026-01-30 11:21:36.29	315.28	10.18	-45.8	-60.5	3.6	1.51e+00	0	42	104	0	60	43035
2026-01-30 11:21:39.32	315.89	9.98	-45.9	-60.6	3.6	1.51e+00	0	42	104	0	60	43252
2026-01-30 11:21:42.35	316.49	9.77	-45.8	-60.5	3.6	1.51e+00	0	41	104	0	60	42942
2026-01-30 11:21:45.37	317.07	9.57	-45.8	-60.5	3.6	1.51e+00	0	42	104	0	60	42961
2026-01-30 11:21:48.40	317.65	9.37	-45.6	-60.5	3.6	1.51e+00	0	42	104	0	60	42777
2026-01-30 11:21:51.43	318.22	9.16	-45.6	-60.5	3.6	1.51e+00	0	42	104	0	60	42999
2026-01-30 11:21:54.46	318.78	8.96	-45.7	-60.4	3.6	1.51e+00	0	42	104	0	60	42584
2026-01-30 11:21:57.49	319.32	8.75	-45.7	-60.4	3.6	1.51e+00	0	42	104	0	60	42600
2026-01-30 11:22:00.52	319.86	8.55	-45.7	-60.4	3.5	1.51e+00	0	42	104	0	60	42527
2026-01-30 11:22:03.55	320.40	8.35	-45.7	-60.4	3.6	1.51e+00	0	42	104	0	60	42556
2026-01-30 11:22:06.58	320.92	8.15	-45.7	-60.4	3.6	1.51e+00	0	42	104	0	60	42507
2026-01-30 11:22:09.61	321.43	7.94	-45.6	-60.3	3.6	1.51e+00	0	42	104	0	60	42176
2026-01-30 11:22:12.64	321.94	7.74	-45.7	-60.3	3.6	1.51e+00	0	42	104	0	60	42137
2026-01-30 11:22:15.67	322.43	7.54	-45.6	-60.4	3.6	1.51e+00	0	42	104	0	60	42287
2026-01-30 11:22:18.70	322.92	7.34	-45.5	-60.3	3.6	1.51e+00	0	42	104	0	60	41958
2026-01-30 11:22:21.73	323.40	7.14	-45.4	-60.2	3.6	1.51e+00	0	42	104	0	60	41586
2026-01-30 11:22:24.76	323.87	6.94	-45.4	-60.3	3.6	1.51e+00	0	42	104	0	60	41824
2026-01-30 11:22:27.79	324.34	6.74	-45.5	-60.2	3.6	1.51e+00	0	42	104	0	60	41692
2026-01-30 11:22:30.82	324.80	6.55	-45.6	-60.2	3.5	1.51e+00	0	42	104	0	60	41677
2026-01-30 11:22:33.85	325.25	6.35	-45.4	-60.1	3.6	1.51e+00	0	42	104	0	60	41262
2026-01-30 11:22:36.88	325.69	6.15	-45.4	-60.2	3.6	1.51e+00	0	42	104	0	60	41300
2026-01-30 11:22:39.91	326.12	5.96	-45.3	-60.1	3.6	1.51e+00	0	42	104	0	60	41111
2026-01-30 11:22:42.94	326.55	5.76	-45.1	-60.2	3.6	1.51e+00	0	42	104	0	60	41329
2026-01-30 11:22:45.97	326.97	5.57	-45.3	-60.0	3.6	1.51e+00	0	42	104	0	60	40696
2026-01-30 11:22:49.00	327.39	5.38	-45.4	-60.1	3.6	1.51e+00	0	42	104	0	60	41013
2026-01-30 11:22:52.02	327.79	5.19	-45.2	-60.0	3.6	1.51e+00	0	41	104	0	60	40621
2026-01-30 11:22:55.05	328.19	4.99	-45.3	-60.1	3.6	1.51e+00	0	42	104	0	60	41120
2026-01-30 11:22:58.08	328.59	4.80	-45.1	-59.9	3.6	1.51e+00	0	42	104	0	60	39908
2026-01-30 11:23:01.11	328.98	4.62	-45.3	-60.0	3.6	1.51e+00	0	42	104	0	60	40416
2026-01-30 11:23:04.14	329.36	4.43	-45.1	-59.8	3.6	1.51e+00	0	42	104	0	60	39685
2026-01-30 11:23:07.18	329.74	4.24	-45.2	-60.0	3.6	1.51e+00	0	42	104	0	60	40533
2026-01-30 11:23:10.20	330.11	4.05	-44.3	-59.0	3.6	1.51e+00	0	42	104	0	60	36204
2026-01-30 11:23:13.23	330.47	3.87	-44.2	-58.9	3.6	1.51e+00	0	42	104	0	60	35637
2026-01-30 11:23:16.26	330.83	3.68	-41.8	-56.5	3.6	1.51e+00	0	42	104	0	60	27174
2026-01-30 11:23:19.29	331.19	3.50	-44.0	-58.7	3.6	1.51e+00	0	42	104	0	60	35006
2026-01-30 11:23:22.32	331.54	3.32	-41.7	-56.4	3.6	1.51e+00	0	42	104	0	60	26943
2026-01-30 11:23:25.35	331.88	3.13	-41.5	-56.2	3.6	1.51e+00	0	42	104	0	58	29317
2026-01-30 11:23:28.38	332.22	2.95	-45.3	-60.1	3.6	1.51e+00	0	42	104	0	60	40954
2026-01-30 11:23:31.41	332.55	2.77	-46.0	-60.7	3.6	1.51e+00	0	41	104	0	60	44158
2026-01-30 11:23:34.44	332.88	2.59	-46.4	-61.2	3.6	1.51e+00	0	41	104	0	60	46345
2026-01-30 11:23:37.47	333.20	2.41	-46.5	-61.3	3.6	1.51e+00	0	42	104	0	60	47034
2026-01-30 11:23:40.50	333.52	2.24	-45.8	-61.3	3.6	1.51e+00	0	41	104	0	60	47254
2026-01-30 11:23:43.53	333.84	2.06	-46.4	-61.2	3.6	1.51e+00	0	42	104	0	60	46385
2026-01-30 11:23:46.56	334.15	1.88	-46.5	-61.2	3.6	1.51e+00	0	42	104	0	60	46757
2026-01-30 11:23:49.58	334.45	1.71	-46.2	-61.0	3.6	1.51e+00	0	42	104	0	60	45475
2026-01-30 11:23:52.61	334.75	1.54	-46.3	-61.0	3.6	1.51e+00	0	42	104	0	60	45428
2026-01-30 11:23:55.64	335.05	1.36	-46.2	-61.0	3.6	1.51e+00	0	42	104	0	60	45354
2026-01-30 11:23:58.68	335.34	1.19	-44.9	-60.8	3.6	1.51e+00	0	42	104	0	60	44715
2026-01-30 11:24:01.70	335.63	1.02	-44.0	-60.8	3.7	1.51e+00	0	41	104	0	60	44713
2026-01-30 11:24:04.74	335.91	0.85	-46.2	-60.9	3.6	1.51e+00	0	41	104	0	60	45043
2026-01-30 11:24:07.77	336.19	0.68	-46.2	-60.9	3.6	1.51e+00	0	41	104	0	60	44843
2026-01-30 11:24:10.80	336.47	0.51	-46.2	-60.9	3.6	1.51e+00	0	41	104	0	60	44983
2026-01-30 11:24:13.83	336.74	0.34	-46.2	-60.9	3.6	1.51e+00	0	42	104	0	60	45126
2026-01-30 11:24:16.86	337.01	0.17	-46.2	-60.9	3.6	1.51e+00	0	42	104	0	60	44868
2026-01-30 11:24:19.89	337.28	0.01	-46.2	-60.9	3.6	1.51e+00	0	42	104	0	60	44747

#Closed at: 2026-01-30 11:24:22
#Recorded file [0 MB]: D:/lorett/data/35029_260130_231405.dat