passes_logs/2026/01/30/R4.6S_Anadyr/R4.6S_Anadyr__20260130_125324_NOAA_21_JPSS-2_rec.log

#Pass ID: 20260130_125324_NOAA 21 (JPSS-2)
#Satellite: NOAA 21 (JPSS-2)
#Configuration: NOAA-21
#almurnet v.1.7.20251203
#Start time: 2026-01-30 12:53:25

#Version: 2.2.20231116
#Station: R4.6S_Anadyr
#Location: 177.4865 lon 64.73178 lat
#TLE: 1 54234U 22150A   26029.46216196  .00000141  00000+0  87503-4 0  9994
#TLE: 2 54234  98.7512 330.1880 0000955 196.3413 163.7732 14.19540905166865

#Time	Az	El	Level	Level2	SNR	BER	BlckErr	Temp	State	Recorded	gain1	gain2
2026-01-30 12:53:25.97	18.75	0.08	-49.5	-64.5	3.5	1.51e+00	0	38	0	0	60	60704
2026-01-30 12:53:30.01	18.99	0.29	-49.7	-62.6	3.5	1.51e+00	0	40	104	0	60	47142
2026-01-30 12:53:34.05	19.23	0.51	-49.7	-62.6	3.5	1.52e+00	0	40	104	0	60	47570
2026-01-30 12:53:38.09	19.48	0.73	-49.7	-62.6	3.5	1.52e+00	0	40	104	0	60	47172
2026-01-30 12:53:42.13	19.73	0.95	-49.5	-62.4	3.5	1.52e+00	0	40	104	0	60	46398
2026-01-30 12:53:46.17	19.98	1.17	-49.1	-62.0	3.5	1.52e+00	0	40	104	0	60	44290
2026-01-30 12:53:50.21	20.23	1.39	-48.5	-61.4	3.5	1.52e+00	0	40	104	0	60	41168
2026-01-30 12:53:54.25	20.49	1.61	-48.2	-61.1	3.5	1.52e+00	0	40	104	0	60	39676
2026-01-30 12:53:58.29	20.75	1.83	-48.2	-60.8	3.5	1.51e+00	0	40	104	0	60	38485
2026-01-30 12:54:02.33	21.02	2.06	-48.2	-60.9	3.5	1.52e+00	0	40	104	0	60	39046
2026-01-30 12:54:06.37	21.29	2.28	-48.2	-60.9	3.5	1.51e+00	0	40	104	0	60	38980
2026-01-30 12:54:10.41	21.56	2.51	-48.1	-60.3	3.5	1.52e+00	0	40	104	0	60	36183
2026-01-30 12:54:14.45	21.84	2.74	-46.0	-50.0	10.1	2.44e-02	0	40	0	1048576	60	11101
2026-01-30 12:54:18.48	22.12	2.97	-40.2	-41.6	18.5	0.00e+00	0	41	0	13631488	54	5946
2026-01-30 12:54:22.52	22.41	3.20	-40.8	-42.3	17.8	0.00e+00	0	40	0	26214400	54	6482
2026-01-30 12:54:26.56	22.70	3.43	-44.2	-46.9	10.7	0.00e+00	0	40	0	38797312	56	9804
2026-01-30 12:54:30.60	22.99	3.67	-42.4	-44.3	16.4	0.00e+00	0	41	0	45088768	58	6426
2026-01-30 12:54:34.64	23.29	3.90	-42.8	-44.8	15.6	0.00e+00	0	41	0	57671680	58	6862
2026-01-30 12:54:38.67	23.59	4.14	-41.6	-43.2	17.1	0.00e+00	0	40	0	70254592	56	6361
2026-01-30 12:54:42.71	23.90	4.38	-39.7	-41.0	19.3	0.00e+00	0	41	0	82837504	52	6251
2026-01-30 12:54:46.75	24.21	4.62	-38.6	-39.8	20.4	0.00e+00	0	41	0	96468992	50	6117
2026-01-30 12:54:50.79	24.53	4.86	-38.0	-39.1	21.2	0.00e+00	0	41	0	109051904	50	5648
2026-01-30 12:54:54.83	24.85	5.10	-37.9	-39.0	21.2	0.00e+00	0	41	0	121634816	50	5563
2026-01-30 12:54:58.87	25.18	5.35	-37.9	-38.9	21.3	0.00e+00	0	41	0	134217728	48	6201
2026-01-30 12:55:02.90	25.51	5.59	-38.0	-39.1	21.2	0.00e+00	0	41	0	146800640	48	6334
2026-01-30 12:55:06.94	25.85	5.84	-37.4	-38.5	21.8	0.00e+00	0	41	0	159383552	48	5901
2026-01-30 12:55:10.98	26.20	6.09	-37.5	-38.6	21.8	0.00e+00	0	41	0	171966464	48	5962
2026-01-30 12:55:15.01	26.54	6.34	-37.2	-38.3	22.0	0.00e+00	0	41	0	184549376	48	5743
2026-01-30 12:55:19.05	26.90	6.59	-37.0	-38.0	22.3	0.00e+00	0	41	0	197132288	48	5588
2026-01-30 12:55:23.09	27.26	6.85	-37.5	-38.5	21.9	0.00e+00	0	41	0	209715200	48	5915
2026-01-30 12:55:27.13	27.63	7.10	-37.3	-38.3	22.0	0.00e+00	0	41	0	222298112	48	5771
2026-01-30 12:55:31.17	28.00	7.36	-37.2	-38.3	22.1	0.00e+00	0	41	0	234881024	48	5732
2026-01-30 12:55:35.21	28.38	7.62	-36.9	-38.0	22.4	0.00e+00	0	41	0	247463936	48	5541
2026-01-30 12:55:39.25	28.76	7.88	-36.7	-37.7	22.6	0.00e+00	0	41	0	260046848	48	5397
2026-01-30 12:55:43.29	29.16	8.14	-37.0	-38.0	22.4	0.00e+00	0	41	0	272629760	46	6216
2026-01-30 12:55:47.33	29.55	8.40	-36.9	-37.9	22.5	0.00e+00	0	41	0	285212672	46	6185
2026-01-30 12:55:51.36	29.96	8.67	-36.7	-37.7	22.6	0.00e+00	0	41	0	297795584	46	6057
2026-01-30 12:55:55.40	30.37	8.93	-36.5	-37.5	22.8	0.00e+00	0	41	0	310378496	46	5898
2026-01-30 12:55:59.45	30.79	9.20	-36.4	-37.4	23.0	0.00e+00	0	41	0	322961408	46	5827
2026-01-30 12:56:03.48	31.22	9.47	-36.4	-37.4	23.0	0.00e+00	0	41	0	335544320	46	5835
2026-01-30 12:56:07.52	31.66	9.75	-36.3	-37.3	23.1	0.00e+00	0	41	0	348127232	46	5765
2026-01-30 12:56:11.55	32.10	10.02	-36.3	-37.2	23.2	0.00e+00	0	41	0	360710144	46	5702
2026-01-30 12:56:15.59	32.55	10.29	-36.1	-37.0	23.3	0.00e+00	0	41	0	373293056	46	5587
2026-01-30 12:56:19.64	33.01	10.57	-36.0	-36.9	23.4	0.00e+00	0	41	0	385875968	46	5520
2026-01-30 12:56:23.68	33.48	10.85	-36.2	-37.2	23.3	0.00e+00	0	41	0	398458880	46	5661
2026-01-30 12:56:27.72	33.96	11.13	-35.7	-36.6	23.7	0.00e+00	0	41	0	411041792	44	5989
2026-01-30 12:56:31.76	34.44	11.41	-35.6	-36.6	23.7	0.00e+00	0	41	0	423624704	44	5943
2026-01-30 12:56:35.80	34.94	11.69	-35.6	-36.5	23.7	0.00e+00	0	41	0	437256192	44	5912
2026-01-30 12:56:39.84	35.44	11.97	-35.6	-36.5	23.8	0.00e+00	0	41	0	449839104	44	5886
2026-01-30 12:56:43.88	35.95	12.26	-35.3	-36.3	24.0	0.00e+00	0	41	0	462422016	44	5739
2026-01-30 12:56:47.91	36.47	12.55	-35.2	-36.1	24.1	0.00e+00	0	41	0	475004928	44	5620
2026-01-30 12:56:51.96	37.01	12.83	-35.2	-36.1	24.2	0.00e+00	0	41	0	487587840	44	5621
2026-01-30 12:56:55.99	37.55	13.12	-35.3	-36.2	24.1	0.00e+00	0	41	0	500170752	44	5686
2026-01-30 12:57:00.03	38.10	13.41	-35.1	-36.0	24.2	0.00e+00	0	41	0	512753664	44	5549
2026-01-30 12:57:04.07	38.67	13.70	-35.1	-36.0	24.2	0.00e+00	0	41	0	525336576	44	5545
2026-01-30 12:57:08.12	39.24	14.00	-35.4	-36.3	24.1	0.00e+00	0	41	0	537919488	44	5740
2026-01-30 12:57:12.16	39.83	14.29	-35.3	-36.2	24.2	0.00e+00	0	41	0	550502400	44	5676
2026-01-30 12:57:16.20	40.42	14.58	-35.2	-36.1	24.2	0.00e+00	0	41	0	563085312	44	5641
2026-01-30 12:57:20.23	41.03	14.88	-35.3	-36.2	24.1	0.00e+00	0	41	0	575668224	44	5685
2026-01-30 12:57:24.27	41.65	15.17	-35.4	-36.3	24.1	0.00e+00	0	41	0	588251136	44	5740
2026-01-30 12:57:28.31	42.28	15.47	-35.4	-36.3	24.0	0.00e+00	0	41	0	600834048	44	5773
2026-01-30 12:57:32.35	42.93	15.76	-35.2	-36.1	24.2	0.00e+00	0	41	0	613416960	44	5627
2026-01-30 12:57:36.38	43.58	16.06	-35.4	-36.3	24.0	0.00e+00	0	41	0	625999872	44	5786
2026-01-30 12:57:40.42	44.25	16.35	-35.5	-36.4	23.9	0.00e+00	0	41	0	638582784	44	5836
2026-01-30 12:57:44.46	44.94	16.65	-35.3	-36.2	24.1	0.00e+00	0	41	0	651165696	44	5701
2026-01-30 12:57:48.50	45.63	16.95	-35.2	-36.2	24.1	0.00e+00	0	41	0	663748608	44	5667
2026-01-30 12:57:52.54	46.34	17.24	-35.1	-36.0	24.3	0.00e+00	0	41	0	676331520	44	5570
2026-01-30 12:57:56.57	47.06	17.53	-35.1	-36.0	24.3	0.00e+00	0	41	0	688914432	44	5550
2026-01-30 12:58:00.62	47.80	17.83	-35.1	-36.0	24.4	0.00e+00	0	41	0	701497344	44	5551
2026-01-30 12:58:04.66	48.55	18.12	-35.0	-35.9	24.3	0.00e+00	0	41	0	714080256	44	5479
2026-01-30 12:58:08.70	49.32	18.41	-35.2	-36.0	24.4	0.00e+00	0	41	0	726663168	44	5590
2026-01-30 12:58:12.74	50.10	18.70	-35.2	-36.1	24.3	0.00e+00	0	41	0	739246080	44	5652
2026-01-30 12:58:16.78	50.89	18.99	-35.3	-36.2	24.3	0.00e+00	0	41	0	751828992	44	5684
2026-01-30 12:58:20.82	51.70	19.28	-35.1	-36.0	24.4	0.00e+00	0	41	0	764411904	44	5585
2026-01-30 12:58:24.86	52.52	19.56	-35.2	-36.1	24.2	0.00e+00	0	41	0	778043392	44	5610
2026-01-30 12:58:28.90	53.36	19.84	-35.2	-36.1	24.3	0.00e+00	0	41	0	790626304	44	5628
2026-01-30 12:58:32.94	54.21	20.12	-35.4	-36.3	24.2	0.00e+00	0	41	0	803209216	44	5734
2026-01-30 12:58:36.98	55.08	20.39	-35.1	-36.0	24.3	0.00e+00	0	41	0	815792128	44	5587
2026-01-30 12:58:41.02	55.97	20.66	-35.0	-35.9	24.3	0.00e+00	0	41	0	828375040	44	5493
2026-01-30 12:58:45.06	56.86	20.93	-35.3	-36.3	24.1	0.00e+00	0	41	0	840957952	44	5740
2026-01-30 12:58:49.10	57.78	21.19	-35.0	-35.9	24.3	0.00e+00	0	41	0	853540864	44	5483
2026-01-30 12:58:53.14	58.71	21.45	-34.5	-35.3	24.7	0.00e+00	0	41	0	866123776	42	5776
2026-01-30 12:58:57.18	59.65	21.71	-34.8	-35.8	24.5	0.00e+00	0	41	0	878706688	42	6080
2026-01-30 12:59:01.22	60.61	21.95	-34.7	-35.6	24.8	0.00e+00	0	41	0	891289600	42	5976
2026-01-30 12:59:05.25	61.59	22.20	-34.9	-35.8	24.5	0.00e+00	0	41	0	903872512	42	6099
2026-01-30 12:59:09.29	62.58	22.43	-34.6	-35.5	24.8	0.00e+00	0	41	0	916455424	42	5909
2026-01-30 12:59:13.33	63.58	22.66	-34.6	-35.4	24.8	0.00e+00	0	41	0	929038336	42	5840
2026-01-30 12:59:17.36	64.60	22.88	-34.7	-35.5	24.8	0.00e+00	0	41	0	941621248	42	5910
2026-01-30 12:59:21.40	65.63	23.10	-34.5	-35.4	24.8	0.00e+00	0	41	0	954204160	42	5802
2026-01-30 12:59:25.45	66.68	23.30	-34.8	-35.7	24.6	0.00e+00	0	41	0	966787072	42	6027
2026-01-30 12:59:29.49	67.74	23.50	-34.8	-35.7	24.8	0.00e+00	0	41	0	979369984	42	5999
2026-01-30 12:59:33.53	68.81	23.69	-34.8	-35.7	24.5	0.00e+00	0	41	0	991952896	42	6038
2026-01-30 12:59:37.57	69.90	23.87	-34.7	-35.5	24.8	0.00e+00	0	41	0	1004535808	42	5915
2026-01-30 12:59:41.61	71.00	24.05	-34.7	-35.6	24.7	0.00e+00	0	41	0	1017118720	42	5944
2026-01-30 12:59:45.65	72.11	24.21	-34.7	-35.5	24.8	0.00e+00	0	41	0	1029701632	42	5919
2026-01-30 12:59:49.68	73.23	24.36	-34.5	-35.4	24.7	0.00e+00	0	41	0	1042284544	42	5849
2026-01-30 12:59:53.73	74.36	24.50	-34.3	-35.1	25.1	0.00e+00	0	41	0	1054867456	42	5648
2026-01-30 12:59:57.76	75.50	24.63	-34.5	-35.3	24.8	0.00e+00	0	41	0	1067450368	42	5788
2026-01-30 13:00:01.80	76.65	24.75	-34.2	-35.1	25.0	0.00e+00	0	41	0	1080033280	42	5607
2026-01-30 13:00:05.84	77.81	24.86	-34.3	-35.2	25.1	0.00e+00	0	41	0	1093664768	42	5669
2026-01-30 13:00:09.88	78.97	24.95	-34.1	-35.0	24.9	0.00e+00	0	41	0	1105199104	42	5572
2026-01-30 13:00:13.92	80.15	25.03	-34.1	-35.0	25.1	0.00e+00	0	41	0	1118830592	42	5556
2026-01-30 13:00:17.95	81.32	25.11	-34.2	-35.1	24.8	0.00e+00	0	41	0	1131413504	42	5624
2026-01-30 13:00:21.99	82.50	25.17	-34.3	-35.2	24.9	0.00e+00	0	41	0	1143996416	42	5676
2026-01-30 13:00:26.03	83.69	25.21	-34.4	-35.3	24.9	0.00e+00	0	41	0	1156579328	42	5729
2026-01-30 13:00:30.07	84.88	25.25	-34.0	-34.9	25.1	0.00e+00	0	41	0	1169162240	42	5476
2026-01-30 13:00:34.11	86.07	25.27	-34.2	-35.1	25.0	0.00e+00	0	41	0	1181745152	42	5608
2026-01-30 13:00:38.15	87.27	25.27	-34.3	-35.2	24.9	0.00e+00	0	41	0	1194328064	42	5676
2026-01-30 13:00:42.19	88.46	25.27	-34.0	-34.9	25.1	0.00e+00	0	41	0	1206910976	42	5472
2026-01-30 13:00:46.23	89.65	25.25	-34.0	-34.9	25.2	0.00e+00	0	41	0	1219493888	42	5488
2026-01-30 13:00:50.27	90.84	25.22	-34.0	-34.9	25.1	0.00e+00	0	41	0	1232076800	42	5495
2026-01-30 13:00:54.31	92.03	25.18	-34.2	-35.0	25.2	0.00e+00	0	41	0	1244659712	42	5590
2026-01-30 13:00:58.35	93.22	25.12	-34.3	-35.2	24.9	0.00e+00	0	41	0	1257242624	42	5673
2026-01-30 13:01:02.39	94.40	25.05	-34.0	-34.9	25.2	0.00e+00	0	41	0	1269825536	42	5471
2026-01-30 13:01:06.43	95.57	24.97	-34.0	-34.9	25.2	0.00e+00	0	41	0	1282408448	42	5495
2026-01-30 13:01:10.48	96.75	24.88	-34.2	-35.0	25.0	0.00e+00	0	41	0	1294991360	42	5576
2026-01-30 13:01:14.52	97.91	24.77	-34.2	-35.1	25.1	0.00e+00	0	41	0	1307574272	42	5614
2026-01-30 13:01:18.56	99.06	24.66	-34.3	-35.1	25.1	0.00e+00	0	41	0	1320157184	42	5640
2026-01-30 13:01:22.60	100.21	24.53	-34.3	-35.1	25.0	0.00e+00	0	41	0	1332740096	42	5655
2026-01-30 13:01:26.64	101.34	24.39	-34.3	-35.2	25.1	0.00e+00	0	41	0	1345323008	42	5660
2026-01-30 13:01:30.68	102.47	24.24	-34.4	-35.3	25.0	0.00e+00	0	41	0	1357905920	42	5773
2026-01-30 13:01:34.72	103.58	24.08	-34.5	-35.4	24.8	0.00e+00	0	41	0	1370488832	42	5811
2026-01-30 13:01:38.76	104.69	23.91	-34.5	-35.4	24.9	0.00e+00	0	41	0	1383071744	42	5807
2026-01-30 13:01:42.80	105.78	23.73	-34.4	-35.3	24.9	0.00e+00	0	41	0	1395654656	42	5759
2026-01-30 13:01:46.85	106.86	23.54	-34.5	-35.4	25.0	0.00e+00	0	41	0	1409286144	42	5794
2026-01-30 13:01:50.88	107.93	23.34	-34.8	-35.7	24.6	0.00e+00	0	41	0	1421869056	42	6012
2026-01-30 13:01:54.92	108.98	23.14	-34.8	-35.6	24.6	0.00e+00	0	41	0	1434451968	42	5992
2026-01-30 13:01:58.96	110.02	22.92	-34.6	-35.4	24.7	0.00e+00	0	41	0	1447034880	42	5858
2026-01-30 13:02:03.00	111.05	22.70	-34.3	-35.2	24.9	0.00e+00	0	41	0	1459617792	42	5676
2026-01-30 13:02:07.04	112.06	22.47	-34.4	-35.2	24.8	0.00e+00	0	41	0	1472200704	42	5717
2026-01-30 13:02:11.08	113.05	22.24	-34.6	-35.5	24.8	0.00e+00	0	41	0	1484783616	42	5869
2026-01-30 13:02:15.12	114.04	22.00	-34.7	-35.6	24.6	0.00e+00	0	41	0	1497366528	42	5979
2026-01-30 13:02:19.16	115.00	21.75	-34.3	-35.2	24.9	0.00e+00	0	41	0	1509949440	42	5670
2026-01-30 13:02:23.20	115.95	21.49	-34.5	-35.3	24.8	0.00e+00	0	41	0	1522532352	42	5788
2026-01-30 13:02:27.24	116.89	21.23	-34.7	-35.6	24.5	0.00e+00	0	41	0	1535115264	42	5982
2026-01-30 13:02:31.28	117.81	20.97	-34.4	-35.3	24.7	0.00e+00	0	41	0	1547698176	42	5742
2026-01-30 13:02:35.32	118.72	20.70	-34.4	-35.2	24.6	0.00e+00	0	41	0	1560281088	42	5716
2026-01-30 13:02:39.36	119.61	20.43	-34.5	-35.4	24.8	0.00e+00	0	41	0	1572864000	42	5813
2026-01-30 13:02:43.40	120.49	20.15	-34.8	-35.7	24.6	0.00e+00	0	41	0	1585446912	42	6033
2026-01-30 13:02:47.44	121.35	19.88	-34.6	-35.5	24.7	0.00e+00	0	41	0	1598029824	42	5901
2026-01-30 13:02:51.48	122.19	19.59	-34.7	-35.5	24.8	0.00e+00	0	41	0	1610612736	42	5915
2026-01-30 13:02:55.52	123.02	19.31	-34.7	-35.6	24.7	0.00e+00	0	41	0	1623195648	42	5946
2026-01-30 13:02:59.56	123.84	19.02	-34.8	-35.7	24.7	0.00e+00	0	41	0	1635778560	42	6007
2026-01-30 13:03:03.59	124.63	18.73	-34.9	-35.8	24.5	0.00e+00	0	41	0	1648361472	42	6104
2026-01-30 13:03:07.63	125.42	18.44	-34.9	-35.7	24.5	0.00e+00	0	41	0	1660944384	42	6058
2026-01-30 13:03:11.67	126.19	18.15	-34.7	-35.6	24.6	0.00e+00	0	41	0	1673527296	42	5966
2026-01-30 13:03:15.71	126.95	17.85	-34.9	-35.8	24.5	0.00e+00	0	41	0	1686110208	42	6074
2026-01-30 13:03:19.75	127.69	17.56	-34.9	-35.8	24.4	0.00e+00	0	41	0	1698693120	42	6073
2026-01-30 13:03:23.79	128.42	17.26	-35.1	-36.0	24.1	0.00e+00	0	41	0	1711276032	42	6259
2026-01-30 13:03:27.83	129.13	16.96	-35.4	-36.3	24.0	0.00e+00	0	41	0	1723858944	42	6442
2026-01-30 13:03:31.87	129.83	16.66	-35.4	-36.4	24.0	0.00e+00	0	41	0	1736441856	42	6501
2026-01-30 13:03:35.92	130.52	16.36	-35.4	-36.3	24.0	0.00e+00	0	41	0	1750073344	42	6443
2026-01-30 13:03:39.96	131.20	16.07	-35.3	-36.3	23.9	0.00e+00	0	41	0	1762656256	42	6444
2026-01-30 13:03:44.00	131.86	15.77	-35.3	-36.2	24.1	0.00e+00	0	41	0	1775239168	42	6383
2026-01-30 13:03:48.04	132.51	15.47	-35.4	-36.3	23.9	0.00e+00	0	41	0	1787822080	42	6492
2026-01-30 13:03:52.07	133.14	15.17	-35.7	-36.6	23.6	0.00e+00	0	41	0	1800404992	42	6689
2026-01-30 13:03:56.12	133.77	14.87	-35.9	-36.9	23.5	0.00e+00	0	41	0	1812987904	44	6136
2026-01-30 13:04:00.16	134.38	14.58	-35.8	-36.7	23.6	0.00e+00	0	41	0	1825570816	44	6047
2026-01-30 13:04:04.19	134.98	14.28	-35.5	-36.4	23.9	0.00e+00	0	41	0	1838153728	44	5841
2026-01-30 13:04:08.23	135.57	13.98	-35.5	-36.4	23.8	0.00e+00	0	41	0	1850736640	44	5850
2026-01-30 13:04:12.27	136.15	13.69	-36.0	-36.9	23.5	0.00e+00	0	41	0	1863319552	44	6174
2026-01-30 13:04:16.31	136.72	13.40	-35.9	-36.8	23.6	0.00e+00	0	41	0	1875902464	44	6121
2026-01-30 13:04:20.34	137.27	13.10	-35.9	-36.9	23.4	0.00e+00	0	41	0	1888485376	44	6152
2026-01-30 13:04:24.38	137.82	12.81	-35.9	-36.9	23.2	0.00e+00	0	41	0	1901068288	44	6138
2026-01-30 13:04:28.42	138.35	12.52	-36.0	-37.0	23.2	0.00e+00	0	41	0	1913651200	44	6243
2026-01-30 13:04:32.46	138.88	12.23	-36.5	-37.5	23.0	0.00e+00	0	41	0	1926234112	44	6577
2026-01-30 13:04:36.49	139.39	11.95	-36.7	-37.7	22.6	0.00e+00	0	41	0	1938817024	44	6783
2026-01-30 13:04:40.53	139.90	11.66	-37.5	-38.6	21.7	0.00e+00	0	41	0	1951399936	46	6700
2026-01-30 13:04:44.57	140.40	11.37	-38.2	-39.4	20.7	0.00e+00	0	41	0	1963982848	48	6515
2026-01-30 13:04:48.61	140.89	11.09	-38.8	-40.0	18.0	1.22e-05	0	41	0	1976565760	48	7004
2026-01-30 13:04:52.65	141.36	10.81	-38.9	-40.1	19.6	7.00e-07	0	41	0	1989148672	50	6347
2026-01-30 13:04:56.69	141.83	10.53	-38.8	-40.1	20.0	0.00e+00	0	41	0	2001731584	50	6293
2026-01-30 13:05:00.73	142.30	10.25	-38.5	-39.6	20.3	0.00e+00	0	41	0	2014314496	50	5993
2026-01-30 13:05:04.77	142.75	9.97	-37.9	-39.0	21.2	0.00e+00	0	41	0	2026897408	50	5584
2026-01-30 13:05:08.81	143.19	9.69	-37.5	-38.6	21.5	0.00e+00	0	41	0	2039480320	48	5945
2026-01-30 13:05:12.85	143.63	9.42	-37.4	-38.5	21.7	0.00e+00	0	41	0	2052063232	48	5877
2026-01-30 13:05:16.90	144.06	9.15	-37.4	-38.5	21.7	0.00e+00	0	41	0	2065694720	48	5886
2026-01-30 13:05:20.94	144.48	8.88	-37.8	-38.9	21.4	0.00e+00	0	41	0	2078277632	48	6148
2026-01-30 13:05:24.98	144.90	8.61	-37.7	-38.8	21.4	0.00e+00	0	41	0	2090860544	48	6109
2026-01-30 13:05:29.02	145.30	8.34	-37.7	-38.8	21.5	0.00e+00	0	41	0	2103443456	48	6109
2026-01-30 13:05:33.06	145.70	8.07	-37.4	-38.5	21.7	0.00e+00	0	41	0	2116026368	48	5898
2026-01-30 13:05:37.10	146.10	7.81	-37.6	-38.7	21.5	0.00e+00	0	41	0	2128609280	48	6040
2026-01-30 13:05:41.13	146.48	7.54	-37.7	-38.8	21.4	0.00e+00	0	41	0	2141192192	48	6066
2026-01-30 13:05:45.17	146.86	7.28	-37.6	-38.7	21.6	0.00e+00	0	41	0	2153775104	48	6017
2026-01-30 13:05:49.21	147.23	7.02	-37.5	-38.6	21.6	0.00e+00	0	41	0	2166358016	48	5967
2026-01-30 13:05:53.25	147.60	6.77	-37.8	-38.8	21.5	0.00e+00	0	41	0	2178940928	48	6123
2026-01-30 13:05:57.30	147.96	6.51	-38.0	-39.1	21.2	0.00e+00	0	41	0	2191523840	48	6289
2026-01-30 13:06:01.34	148.32	6.25	-38.0	-39.1	21.2	0.00e+00	0	41	0	2204106752	48	6316
2026-01-30 13:06:05.38	148.67	6.00	-38.0	-39.1	21.1	0.00e+00	0	41	0	2216689664	48	6313
2026-01-30 13:06:09.42	149.01	5.75	-38.0	-39.1	21.0	0.00e+00	0	41	0	2229272576	48	6337
2026-01-30 13:06:13.46	149.35	5.50	-37.9	-39.0	21.1	0.00e+00	0	41	0	2241855488	48	6237
2026-01-30 13:06:17.50	149.68	5.25	-37.7	-38.8	21.3	0.00e+00	0	41	0	2254438400	48	6080
2026-01-30 13:06:21.55	150.01	5.00	-37.8	-38.9	21.2	0.00e+00	0	41	0	2267021312	48	6170
2026-01-30 13:06:25.58	150.33	4.76	-38.1	-39.2	21.0	0.00e+00	0	41	0	2279604224	48	6389
2026-01-30 13:06:29.63	150.64	4.51	-38.4	-39.6	20.5	0.00e+00	0	41	0	2292187136	48	6692
2026-01-30 13:06:33.67	150.96	4.27	-38.4	-39.6	20.5	0.00e+00	0	41	0	2304770048	48	6702
2026-01-30 13:06:37.71	151.26	4.03	-38.6	-39.7	20.2	0.00e+00	0	41	0	2317352960	50	6057
2026-01-30 13:06:41.75	151.56	3.79	-39.5	-40.8	19.3	0.00e+00	0	41	0	2329935872	50	6860
2026-01-30 13:06:45.79	151.86	3.55	-39.7	-41.0	19.1	0.00e+00	0	41	0	2342518784	52	6245
2026-01-30 13:06:49.83	152.15	3.32	-39.7	-41.0	18.7	0.00e+00	0	41	0	2356150272	52	6260
2026-01-30 13:06:53.87	152.44	3.08	-39.5	-40.9	18.8	0.00e+00	0	41	0	2367684608	52	6172
2026-01-30 13:06:57.91	152.73	2.85	-48.6	-61.5	3.5	1.52e+00	0	41	104	2372927488	60	41906
2026-01-30 13:07:01.95	153.01	2.62	-49.3	-62.3	3.5	1.52e+00	0	42	104	2372927488	60	45644
2026-01-30 13:07:05.98	153.28	2.39	-49.6	-62.5	3.5	1.52e+00	0	41	104	2372927488	60	46719
2026-01-30 13:07:10.02	153.55	2.16	-49.6	-62.5	3.5	1.52e+00	0	41	104	2372927488	60	46752
2026-01-30 13:07:14.06	153.82	1.93	-49.7	-62.5	3.5	1.52e+00	0	42	104	2372927488	60	46983
2026-01-30 13:07:18.10	154.09	1.70	-49.6	-62.5	3.5	1.52e+00	0	42	104	2372927488	60	46737
2026-01-30 13:07:22.14	154.35	1.48	-49.5	-62.4	3.5	1.52e+00	0	41	104	2372927488	60	46526
2026-01-30 13:07:26.18	154.60	1.25	-49.5	-62.4	3.5	1.52e+00	0	42	104	2372927488	60	46446
2026-01-30 13:07:30.22	154.85	1.03	-49.5	-62.4	3.5	1.52e+00	0	42	104	2372927488	60	46269
2026-01-30 13:07:34.26	155.10	0.81	-49.5	-62.4	3.5	1.52e+00	0	41	104	2372927488	60	46476
2026-01-30 13:07:38.30	155.35	0.59	-49.5	-62.4	3.5	1.51e+00	0	42	104	2372927488	60	46465
2026-01-30 13:07:42.34	155.59	0.37	-49.5	-62.4	3.5	1.52e+00	0	41	104	2372927488	60	46360
2026-01-30 13:07:46.38	155.83	0.15	-49.5	-62.4	3.5	1.52e+00	0	42	104	2372927488	60	46447
2026-01-30 13:07:50.42	156.07	-0.07	-49.5	-62.4	3.5	1.52e+00	0	42	104	2372927488	60	46439

#Closed at: 2026-01-30 13:07:51
#Recorded file [2372 MB]: D:/lorett/data/35029_260131_005325.dat