passes_logs/2026/01/30/R4.6S_Anadyr/R4.6S_Anadyr__20260130_155957_FENGYUN_3D_rec.log

#Pass ID: 20260130_155957_FENGYUN 3D
#Satellite: FENGYUN 3D
#Configuration: FENGYUN 3D
#almurnet v.1.7.20251203
#Start time: 2026-01-30 15:59:57

#Version: 2.2.20231116
#Station: R4.6S_Anadyr
#Location: 177.4865 lon 64.73178 lat
#TLE: 1 43010U 17072A   26029.52179110  .00000394  00000+0  20818-3 0  9997
#TLE: 2 43010  98.9957   1.5649 0002507  83.7772 276.3689 14.19703315425310

#Time	Az	El	Level	Level2	SNR	BER	BlckErr	Temp	State	Recorded	gain1	gain2
2026-01-30 15:59:57.94	19.75	0.04	-49.6	-64.5	3.5	1.51e+00	0	39	0	0	60	60596
2026-01-30 16:00:01.97	19.87	0.27	-49.6	-61.8	3.6	8.47e-01	0	40	104	0	60	44321
2026-01-30 16:00:06.01	19.99	0.51	-49.7	-61.8	3.6	8.46e-01	0	40	104	0	60	44405
2026-01-30 16:00:10.05	20.11	0.75	-49.7	-61.7	3.6	8.44e-01	0	40	104	0	60	44170
2026-01-30 16:00:14.08	20.24	0.99	-49.4	-61.6	3.6	8.44e-01	0	40	104	0	60	43225
2026-01-30 16:00:18.13	20.36	1.23	-49.0	-61.1	3.6	8.45e-01	0	40	104	0	60	40921
2026-01-30 16:00:22.17	20.49	1.48	-48.2	-60.3	3.6	8.45e-01	0	40	104	0	60	37264
2026-01-30 16:00:26.21	20.62	1.72	-48.2	-60.1	3.6	8.45e-01	0	40	104	0	60	36653
2026-01-30 16:00:30.25	20.75	1.97	-48.2	-60.3	3.6	8.47e-01	0	40	104	0	60	37305
2026-01-30 16:00:34.29	20.89	2.22	-48.2	-60.3	3.6	8.44e-01	0	40	104	0	60	37392
2026-01-30 16:00:38.33	21.02	2.48	-48.0	-58.1	3.6	8.43e-01	0	40	104	0	60	28919
2026-01-30 16:00:42.37	21.16	2.73	-47.9	-57.4	3.9	8.45e-01	0	40	104	0	60	26858
2026-01-30 16:00:46.41	21.30	2.99	-42.3	-43.9	15.6	0.00e+00	0	40	0	18874368	58	6381
2026-01-30 16:00:50.45	21.44	3.25	-37.8	-38.7	20.5	0.00e+00	0	40	0	40894464	48	6226
2026-01-30 16:00:54.49	21.59	3.51	-38.7	-39.7	19.5	0.00e+00	0	40	0	63963136	48	7000
2026-01-30 16:00:58.53	21.73	3.78	-40.2	-41.3	18.2	1.25e-05	0	40	0	87031808	56	5294
2026-01-30 16:01:02.57	21.88	4.04	-41.0	-42.4	16.3	1.07e-01	0	41	104	98566144	56	5990
2026-01-30 16:01:06.61	22.03	4.31	-39.3	-40.3	19.1	0.00e+00	0	41	0	119537664	52	5964
2026-01-30 16:01:10.65	22.19	4.59	-37.4	-38.2	21.2	0.00e+00	0	41	0	142606336	48	5884
2026-01-30 16:01:14.69	22.34	4.86	-36.3	-37.1	22.3	0.00e+00	0	41	0	164626432	46	5772
2026-01-30 16:01:18.73	22.50	5.14	-36.0	-36.7	22.7	0.00e+00	0	41	0	187695104	46	5562
2026-01-30 16:01:22.77	22.66	5.42	-35.8	-36.6	23.0	0.00e+00	0	41	0	210763776	44	6106
2026-01-30 16:01:26.81	22.83	5.70	-35.6	-36.4	23.2	0.00e+00	0	41	0	233832448	44	5976
2026-01-30 16:01:30.85	22.99	5.99	-35.4	-36.2	23.3	0.00e+00	0	41	0	255852544	44	5844
2026-01-30 16:01:34.89	23.16	6.28	-35.5	-36.2	23.3	0.00e+00	0	41	0	278921216	44	5885
2026-01-30 16:01:38.93	23.34	6.57	-35.1	-35.9	23.6	0.00e+00	0	41	0	301989888	44	5637
2026-01-30 16:01:42.97	23.51	6.86	-35.2	-35.9	23.7	0.00e+00	0	41	0	324009984	44	5638
2026-01-30 16:01:47.01	23.69	7.16	-34.8	-35.5	24.0	0.00e+00	0	41	0	347078656	44	5412
2026-01-30 16:01:51.05	23.88	7.47	-34.8	-35.5	24.0	0.00e+00	0	41	0	370147328	44	5410
2026-01-30 16:01:55.09	24.06	7.77	-34.9	-35.6	24.1	0.00e+00	0	41	0	392167424	42	6172
2026-01-30 16:01:59.12	24.25	8.08	-34.7	-35.4	24.3	0.00e+00	0	41	0	415236096	42	5984
2026-01-30 16:02:03.16	24.45	8.39	-34.6	-35.3	24.3	0.00e+00	0	41	0	438304768	42	5964
2026-01-30 16:02:07.20	24.64	8.71	-34.6	-35.3	24.4	0.00e+00	0	41	0	460324864	42	5899
2026-01-30 16:02:11.24	24.84	9.03	-34.4	-35.1	24.6	0.00e+00	0	41	0	483393536	42	5809
2026-01-30 16:02:15.28	25.05	9.35	-34.5	-35.2	24.6	0.00e+00	0	41	0	506462208	42	5858
2026-01-30 16:02:19.33	25.26	9.68	-34.2	-34.9	24.8	0.00e+00	0	41	0	528482304	42	5684
2026-01-30 16:02:23.36	25.47	10.01	-34.2	-34.9	24.8	0.00e+00	0	41	0	551550976	42	5661
2026-01-30 16:02:27.40	25.69	10.35	-34.0	-34.7	25.1	0.00e+00	0	41	0	573571072	42	5503
2026-01-30 16:02:31.44	25.91	10.69	-33.8	-34.5	25.2	0.00e+00	0	41	0	596639744	40	6087
2026-01-30 16:02:35.47	26.14	11.03	-33.8	-34.4	25.3	0.00e+00	0	41	0	619708416	40	6012
2026-01-30 16:02:39.51	26.37	11.38	-33.7	-34.4	25.4	0.00e+00	0	41	0	642777088	40	5978
2026-01-30 16:02:43.55	26.61	11.74	-33.6	-34.3	25.5	0.00e+00	0	41	0	664797184	40	5901
2026-01-30 16:02:47.59	26.86	12.09	-33.6	-34.2	25.5	0.00e+00	0	41	0	687865856	40	5895
2026-01-30 16:02:51.63	27.11	12.46	-33.6	-34.2	25.5	0.00e+00	0	41	0	710934528	40	5881
2026-01-30 16:02:55.67	27.36	12.83	-33.5	-34.1	25.6	0.00e+00	0	41	0	732954624	40	5828
2026-01-30 16:02:59.71	27.62	13.20	-33.4	-34.1	25.7	0.00e+00	0	41	0	756023296	40	5778
2026-01-30 16:03:03.74	27.89	13.58	-33.6	-34.3	25.6	0.00e+00	0	41	0	778043392	40	5898
2026-01-30 16:03:07.78	28.16	13.97	-33.5	-34.2	25.6	0.00e+00	0	41	0	801112064	40	5889
2026-01-30 16:03:11.82	28.44	14.36	-33.4	-34.1	25.8	0.00e+00	0	41	0	824180736	40	5780
2026-01-30 16:03:15.86	28.73	14.75	-32.9	-33.5	26.2	0.00e+00	0	41	0	847249408	40	5419
2026-01-30 16:03:19.90	29.02	15.16	-32.6	-33.2	26.6	0.00e+00	0	41	0	869269504	38	5853
2026-01-30 16:03:23.94	29.33	15.56	-32.7	-33.3	26.4	0.00e+00	0	41	0	892338176	38	5960
2026-01-30 16:03:27.98	29.64	15.98	-32.7	-33.3	26.4	0.00e+00	0	41	0	915406848	38	5939
2026-01-30 16:03:32.02	29.96	16.40	-32.6	-33.3	26.5	0.00e+00	0	41	0	937426944	38	5913
2026-01-30 16:03:36.06	30.28	16.83	-32.2	-32.9	26.8	0.00e+00	0	41	0	960495616	38	5639
2026-01-30 16:03:40.10	30.62	17.26	-32.3	-32.9	26.7	0.00e+00	0	41	0	983564288	38	5678
2026-01-30 16:03:44.14	30.97	17.70	-32.2	-32.9	26.8	0.00e+00	0	41	0	1005584384	38	5648
2026-01-30 16:03:48.18	31.32	18.15	-32.1	-32.7	27.0	0.00e+00	0	41	0	1028653056	38	5541
2026-01-30 16:03:52.22	31.69	18.61	-31.8	-32.5	27.2	0.00e+00	0	41	0	1051721728	38	5394
2026-01-30 16:03:56.26	32.06	19.07	-32.0	-32.7	27.1	0.00e+00	0	41	0	1073741824	38	5520
2026-01-30 16:04:00.30	32.45	19.54	-31.9	-32.6	27.1	0.00e+00	0	41	0	1096810496	38	5447
2026-01-30 16:04:04.34	32.85	20.02	-31.7	-32.3	27.3	0.00e+00	0	41	0	1119879168	36	5933
2026-01-30 16:04:08.37	33.26	20.51	-31.6	-32.2	27.4	0.00e+00	0	41	0	1141899264	36	5860
2026-01-30 16:04:12.41	33.68	21.00	-31.6	-32.3	27.4	0.00e+00	0	41	0	1164967936	36	5901
2026-01-30 16:04:16.45	34.12	21.51	-31.6	-32.3	27.4	0.00e+00	0	41	0	1188036608	36	5899
2026-01-30 16:04:20.49	34.57	22.02	-31.4	-32.0	27.7	0.00e+00	0	41	0	1210056704	36	5725
2026-01-30 16:04:24.53	35.04	22.54	-31.2	-31.9	27.7	0.00e+00	0	41	0	1233125376	36	5635
2026-01-30 16:04:28.58	35.52	23.07	-31.1	-31.8	27.8	0.00e+00	0	41	0	1256194048	36	5572
2026-01-30 16:04:32.61	36.02	23.61	-31.0	-31.6	27.9	0.00e+00	0	41	0	1278214144	36	5490
2026-01-30 16:04:36.65	36.53	24.16	-31.1	-31.7	27.8	0.00e+00	0	41	0	1301282816	36	5532
2026-01-30 16:04:40.70	37.06	24.72	-30.9	-31.5	27.9	0.00e+00	0	41	0	1324351488	36	5428
2026-01-30 16:04:44.74	37.61	25.29	-30.7	-31.3	28.1	0.00e+00	0	41	0	1346371584	34	5959
2026-01-30 16:04:48.78	38.19	25.86	-30.8	-31.4	28.1	0.00e+00	0	41	0	1369440256	34	5988
2026-01-30 16:04:52.82	38.78	26.45	-30.8	-31.4	28.1	0.00e+00	0	41	0	1392508928	34	6022
2026-01-30 16:04:56.87	39.39	27.05	-30.6	-31.2	28.2	0.00e+00	0	41	0	1414529024	34	5858
2026-01-30 16:05:00.91	40.03	27.66	-30.4	-31.0	28.4	0.00e+00	0	41	0	1437597696	34	5752
2026-01-30 16:05:04.95	40.69	28.27	-30.7	-31.3	28.2	0.00e+00	0	41	0	1460666368	34	5932
2026-01-30 16:05:08.98	41.37	28.90	-30.6	-31.3	28.2	0.00e+00	0	41	0	1482686464	34	5925
2026-01-30 16:05:13.02	42.08	29.53	-30.8	-31.5	28.1	0.00e+00	0	41	0	1505755136	34	6034
2026-01-30 16:05:17.06	42.82	30.18	-30.6	-31.3	28.2	0.00e+00	0	41	0	1528823808	34	5908
2026-01-30 16:05:21.10	43.59	30.84	-30.8	-31.4	28.1	0.00e+00	0	41	0	1551892480	34	6022
2026-01-30 16:05:25.14	44.39	31.50	-30.5	-31.1	28.4	0.00e+00	0	41	0	1573912576	34	5777
2026-01-30 16:05:29.18	45.23	32.18	-30.1	-30.7	28.5	0.00e+00	0	41	0	1596981248	34	5560
2026-01-30 16:05:33.22	46.10	32.86	-30.5	-31.1	28.3	0.00e+00	0	41	0	1619001344	34	5795
2026-01-30 16:05:37.26	47.00	33.55	-30.6	-31.2	28.3	0.00e+00	0	41	0	1642070016	34	5837
2026-01-30 16:05:41.30	47.95	34.25	-30.0	-30.7	28.8	0.00e+00	0	41	0	1665138688	34	5503
2026-01-30 16:05:45.33	48.93	34.95	-30.5	-31.2	28.2	0.00e+00	0	41	0	1687158784	34	5849
2026-01-30 16:05:49.37	49.96	35.67	-30.2	-30.8	28.6	0.00e+00	0	41	0	1710227456	34	5590
2026-01-30 16:05:53.41	51.03	36.39	-30.0	-30.6	28.7	0.00e+00	0	41	0	1733296128	34	5455
2026-01-30 16:05:57.45	52.15	37.11	-30.3	-30.9	28.6	0.00e+00	0	41	0	1756364800	34	5644
2026-01-30 16:06:01.50	53.33	37.84	-29.9	-30.5	28.8	0.00e+00	0	41	0	1778384896	34	5408
2026-01-30 16:06:05.54	54.55	38.57	-30.3	-31.0	28.5	0.00e+00	0	41	0	1801453568	34	5719
2026-01-30 16:06:09.57	55.83	39.30	-29.9	-30.5	28.7	0.00e+00	0	41	0	1823473664	34	5392
2026-01-30 16:06:13.61	57.17	40.03	-30.3	-31.0	28.5	0.00e+00	0	41	0	1846542336	34	5700
2026-01-30 16:06:17.64	58.56	40.75	-30.3	-30.9	28.5	0.00e+00	0	41	0	1869611008	34	5656
2026-01-30 16:06:21.69	60.03	41.47	-30.3	-30.9	28.5	0.00e+00	0	41	0	1891631104	34	5669
2026-01-30 16:06:25.73	61.55	42.19	-30.2	-30.8	28.6	0.00e+00	0	41	0	1914699776	34	5575
2026-01-30 16:06:29.77	63.15	42.89	-30.2	-30.8	28.4	0.00e+00	0	41	0	1937768448	34	5576
2026-01-30 16:06:33.81	64.81	43.59	-30.4	-31.0	28.4	0.00e+00	0	41	0	1960837120	34	5716
2026-01-30 16:06:37.85	66.55	44.26	-30.3	-31.0	28.4	0.00e+00	0	41	0	1982857216	34	5724
2026-01-30 16:06:41.89	68.36	44.92	-30.5	-31.1	28.4	0.00e+00	0	41	0	2005925888	34	5791
2026-01-30 16:06:45.93	70.25	45.56	-30.7	-31.3	28.2	0.00e+00	0	41	0	2027945984	34	5920
2026-01-30 16:06:49.98	72.22	46.18	-30.5	-31.1	28.4	0.00e+00	0	41	0	2051014656	34	5826
2026-01-30 16:06:54.02	74.26	46.76	-30.2	-30.7	28.6	0.00e+00	0	41	0	2074083328	34	5557
2026-01-30 16:06:58.07	76.37	47.32	-30.5	-31.1	28.4	0.00e+00	0	41	0	2097152000	34	5808
2026-01-30 16:07:02.10	78.55	47.83	-30.4	-31.0	28.5	0.00e+00	0	41	0	2119172096	34	5700
2026-01-30 16:07:06.14	80.81	48.31	-30.4	-31.0	28.5	0.00e+00	0	41	0	2142240768	34	5705
2026-01-30 16:07:10.18	83.13	48.74	-30.5	-31.2	28.3	0.00e+00	0	41	0	2165309440	34	5835
2026-01-30 16:07:14.22	85.52	49.13	-30.6	-31.2	28.3	0.00e+00	0	41	0	2187329536	34	5865
2026-01-30 16:07:18.26	87.96	49.46	-30.5	-31.1	28.4	0.00e+00	0	41	0	2210398208	34	5820
2026-01-30 16:07:22.31	90.46	49.74	-30.5	-31.1	28.3	0.00e+00	0	41	0	2233466880	34	5776
2026-01-30 16:07:26.34	92.99	49.97	-30.7	-31.3	28.3	0.00e+00	0	41	0	2255486976	34	5951
2026-01-30 16:07:30.38	95.55	50.14	-30.9	-31.5	28.1	0.00e+00	0	41	0	2278555648	34	6063
2026-01-30 16:07:34.43	98.15	50.24	-30.5	-31.1	28.4	0.00e+00	0	41	0	2301624320	34	5828
2026-01-30 16:07:38.47	100.75	50.29	-30.8	-31.4	28.1	0.00e+00	0	41	0	2323644416	34	6030
2026-01-30 16:07:42.51	103.36	50.28	-30.7	-31.3	28.1	0.00e+00	0	41	0	2346713088	34	5936
2026-01-30 16:07:46.55	105.96	50.20	-30.9	-31.5	27.9	0.00e+00	0	41	0	2369781760	34	6057
2026-01-30 16:07:50.59	108.54	50.06	-30.6	-31.2	28.3	0.00e+00	0	41	0	2391801856	34	5870
2026-01-30 16:07:54.63	111.09	49.87	-30.8	-31.4	28.2	0.00e+00	0	41	0	2414870528	34	5988
2026-01-30 16:07:58.67	113.61	49.61	-30.6	-31.2	28.3	0.00e+00	0	41	0	2437939200	34	5831
2026-01-30 16:08:02.71	116.08	49.30	-30.5	-31.1	28.3	0.00e+00	0	41	0	2459959296	34	5799
2026-01-30 16:08:06.75	118.50	48.94	-31.1	-31.6	27.9	0.00e+00	0	41	0	2483027968	34	6168
2026-01-30 16:08:10.79	120.86	48.53	-31.0	-31.5	27.9	0.00e+00	0	41	0	2506096640	34	6085
2026-01-30 16:08:14.83	123.15	48.08	-30.8	-31.5	28.1	0.00e+00	0	41	0	2528116736	34	6043
2026-01-30 16:08:18.87	125.38	47.58	-31.1	-31.7	27.8	0.00e+00	0	41	0	2551185408	34	6212
2026-01-30 16:08:22.91	127.53	47.05	-30.7	-31.3	28.2	0.00e+00	0	41	0	2574254080	34	5952
2026-01-30 16:08:26.95	129.61	46.48	-30.9	-31.5	28.0	0.00e+00	0	41	0	2597322752	34	6102
2026-01-30 16:08:30.99	131.62	45.87	-30.7	-31.3	28.2	0.00e+00	0	41	0	2619342848	34	5927
2026-01-30 16:08:35.04	133.55	45.24	-30.4	-30.9	28.4	0.00e+00	0	41	0	2642411520	34	5658
2026-01-30 16:08:39.08	135.40	44.59	-30.4	-31.1	28.4	0.00e+00	0	41	0	2664431616	34	5791
2026-01-30 16:08:43.12	137.18	43.92	-30.7	-31.4	28.3	0.00e+00	0	41	0	2687500288	34	5972
2026-01-30 16:08:47.16	138.89	43.23	-30.0	-30.6	28.7	0.00e+00	0	41	0	2710568960	34	5448
2026-01-30 16:08:51.20	140.52	42.53	-30.3	-31.0	28.4	0.00e+00	0	41	0	2733637632	34	5738
2026-01-30 16:08:55.24	142.09	41.82	-29.9	-30.5	28.8	0.00e+00	0	41	0	2755657728	34	5401
2026-01-30 16:08:59.29	143.59	41.10	-30.2	-30.9	28.6	0.00e+00	0	41	0	2778726400	34	5663
2026-01-30 16:09:03.32	145.02	40.37	-29.8	-30.3	28.8	0.00e+00	0	41	0	2801795072	34	5278
2026-01-30 16:09:07.36	146.39	39.64	-29.8	-30.5	28.7	0.00e+00	0	41	0	2823815168	34	5399
2026-01-30 16:09:11.40	147.70	38.91	-30.1	-30.8	28.3	0.00e+00	0	41	0	2846883840	32	6255
2026-01-30 16:09:15.44	148.96	38.17	-29.9	-30.5	28.5	0.00e+00	0	41	0	2868903936	32	6056
2026-01-30 16:09:19.48	150.16	37.44	-29.8	-30.5	28.7	0.00e+00	0	41	0	2891972608	32	6052
2026-01-30 16:09:23.52	151.31	36.71	-30.1	-30.8	28.6	0.00e+00	0	41	0	2915041280	32	6283
2026-01-30 16:09:27.56	152.41	35.99	-30.1	-30.7	28.7	0.00e+00	0	41	0	2938109952	32	6229
2026-01-30 16:09:31.59	153.46	35.27	-29.9	-30.6	28.7	0.00e+00	0	41	0	2960130048	32	6147
2026-01-30 16:09:35.64	154.47	34.55	-30.4	-30.9	28.4	0.00e+00	0	41	0	2983198720	32	6365
2026-01-30 16:09:39.68	155.43	33.85	-30.0	-30.5	28.6	0.00e+00	0	41	0	3006267392	32	6072
2026-01-30 16:09:43.72	156.36	33.15	-30.2	-30.8	28.5	0.00e+00	0	41	0	3028287488	32	6275
2026-01-30 16:09:47.76	157.25	32.46	-30.1	-30.7	28.5	0.00e+00	0	41	0	3051356160	32	6192
2026-01-30 16:09:51.79	158.10	31.78	-30.3	-31.0	28.5	0.00e+00	0	41	0	3073376256	32	6419
2026-01-30 16:09:55.83	158.92	31.11	-30.6	-31.2	28.1	0.00e+00	0	41	0	3096444928	32	6587
2026-01-30 16:09:59.88	159.70	30.44	-30.6	-31.2	28.2	0.00e+00	0	41	0	3119513600	34	5844
2026-01-30 16:10:03.92	160.46	29.79	-30.5	-31.1	28.2	0.00e+00	0	41	0	3142582272	34	5799
2026-01-30 16:10:07.96	161.19	29.14	-30.6	-31.2	28.2	0.00e+00	0	41	0	3164602368	34	5861
2026-01-30 16:10:11.99	161.88	28.51	-30.6	-31.3	28.1	0.00e+00	0	41	0	3187671040	34	5961
2026-01-30 16:10:16.04	162.56	27.88	-30.4	-31.1	28.3	0.00e+00	0	41	0	3210739712	34	5824
2026-01-30 16:10:20.08	163.20	27.27	-30.5	-31.0	28.3	0.00e+00	0	41	0	3232759808	34	5748
2026-01-30 16:10:24.12	163.83	26.66	-30.4	-31.0	28.3	0.00e+00	0	41	0	3255828480	34	5713
2026-01-30 16:10:28.16	164.43	26.07	-30.3	-31.0	28.3	0.00e+00	0	41	0	3278897152	34	5728
2026-01-30 16:10:32.20	165.01	25.48	-30.5	-31.2	28.3	0.00e+00	0	41	0	3300917248	34	5835
2026-01-30 16:10:36.24	165.57	24.91	-30.7	-31.5	28.0	0.00e+00	0	41	0	3323985920	34	6042
2026-01-30 16:10:40.28	166.11	24.34	-30.8	-31.3	28.1	0.00e+00	0	41	0	3347054592	34	5945
2026-01-30 16:10:44.33	166.64	23.79	-30.6	-31.3	28.2	0.00e+00	0	41	0	3369074688	34	5902
2026-01-30 16:10:48.37	167.14	23.24	-30.7	-31.3	28.0	0.00e+00	0	41	0	3392143360	34	5925
2026-01-30 16:10:52.41	167.63	22.70	-31.2	-32.0	27.6	0.00e+00	0	41	0	3415212032	34	6407
2026-01-30 16:10:56.44	168.10	22.18	-31.5	-32.1	27.4	0.00e+00	0	41	0	3437232128	34	6515
2026-01-30 16:11:00.49	168.56	21.66	-31.4	-32.1	27.5	0.00e+00	0	41	0	3460300800	34	6525
2026-01-30 16:11:04.53	169.00	21.14	-31.4	-32.0	27.5	0.00e+00	0	41	0	3483369472	34	6433
2026-01-30 16:11:08.57	169.43	20.64	-31.8	-32.3	27.3	0.00e+00	0	41	0	3505389568	36	5954
2026-01-30 16:11:12.61	169.85	20.15	-31.8	-32.3	27.3	0.00e+00	0	41	0	3528458240	36	5948
2026-01-30 16:11:16.65	170.25	19.66	-31.6	-32.2	27.3	0.00e+00	0	41	0	3551526912	36	5836
2026-01-30 16:11:20.69	170.64	19.19	-31.6	-32.2	27.3	0.00e+00	0	41	0	3573547008	36	5846
2026-01-30 16:11:24.72	171.02	18.72	-31.8	-32.4	27.2	0.00e+00	0	41	0	3596615680	36	5975
2026-01-30 16:11:28.76	171.39	18.26	-32.1	-32.7	26.9	0.00e+00	0	41	0	3619684352	36	6176
2026-01-30 16:11:32.80	171.75	17.80	-32.2	-32.9	26.8	0.00e+00	0	41	0	3642753024	36	6355
2026-01-30 16:11:36.85	172.10	17.35	-32.3	-33.0	26.7	0.00e+00	0	41	0	3664773120	36	6411
2026-01-30 16:11:40.89	172.44	16.91	-32.4	-33.0	26.7	0.00e+00	0	41	0	3687841792	36	6394
2026-01-30 16:11:44.92	172.77	16.48	-32.5	-33.1	26.5	0.00e+00	0	41	0	3709861888	36	6500
2026-01-30 16:11:48.96	173.09	16.06	-32.8	-33.4	26.2	0.00e+00	0	41	0	3732930560	38	6001
2026-01-30 16:11:53.00	173.40	15.64	-33.1	-33.7	26.0	0.00e+00	0	41	0	3755999232	38	6240
2026-01-30 16:11:57.04	173.71	15.22	-33.2	-34.0	25.8	0.00e+00	0	41	0	3778019328	38	6400
2026-01-30 16:12:01.08	174.00	14.82	-33.4	-34.0	25.7	0.00e+00	0	41	0	3801088000	38	6429
2026-01-30 16:12:05.12	174.29	14.42	-33.5	-34.1	25.6	0.00e+00	0	41	0	3824156672	38	6494
2026-01-30 16:12:09.16	174.57	14.02	-33.5	-34.3	25.6	0.00e+00	0	41	0	3847225344	38	6630
2026-01-30 16:12:13.20	174.85	13.63	-33.5	-34.1	25.6	0.00e+00	0	41	0	3869245440	38	6519
2026-01-30 16:12:17.24	175.12	13.25	-33.5	-34.1	25.5	0.00e+00	0	41	0	3892314112	38	6537
2026-01-30 16:12:21.28	175.38	12.87	-33.6	-34.3	25.5	0.00e+00	0	41	0	3914334208	38	6680
2026-01-30 16:12:25.32	175.63	12.50	-33.8	-34.5	25.4	0.00e+00	0	41	0	3937402880	40	6094
2026-01-30 16:12:29.36	175.88	12.13	-33.7	-34.4	25.4	0.00e+00	0	41	0	3960471552	40	5998
2026-01-30 16:12:33.40	176.13	11.77	-33.7	-34.3	25.3	0.00e+00	0	41	0	3983540224	40	5953
2026-01-30 16:12:37.44	176.37	11.41	-33.8	-34.4	25.3	0.00e+00	0	41	0	4005560320	40	5998
2026-01-30 16:12:41.48	176.60	11.05	-33.8	-34.4	25.2	0.00e+00	0	41	0	4028628992	40	5996
2026-01-30 16:12:45.52	176.83	10.71	-34.1	-34.8	24.9	0.00e+00	0	41	0	4051697664	40	6248
2026-01-30 16:12:49.56	177.05	10.36	-34.1	-34.9	24.9	0.00e+00	0	41	0	4073717760	40	6340
2026-01-30 16:12:53.60	177.27	10.02	-34.2	-35.0	24.7	0.00e+00	0	41	0	4096786432	40	6438
2026-01-30 16:12:57.64	177.48	9.69	-34.5	-35.3	24.5	0.00e+00	0	41	0	4118806528	40	6662
2026-01-30 16:13:01.69	177.69	9.35	-34.4	-35.1	24.5	0.00e+00	0	41	0	4141875200	40	6488
2026-01-30 16:13:05.73	177.89	9.03	-34.7	-35.3	24.2	0.00e+00	0	41	0	4164943872	40	6674
2026-01-30 16:13:09.77	178.10	8.70	-34.6	-35.2	24.4	0.00e+00	0	41	0	4188012544	42	5881
2026-01-30 16:13:13.81	178.29	8.39	-34.7	-35.3	24.3	0.00e+00	0	41	0	4210032640	42	5955
2026-01-30 16:13:17.84	178.48	8.07	-34.9	-35.7	24.0	0.00e+00	0	41	0	4233101312	42	6205
2026-01-30 16:13:21.88	178.67	7.76	-34.9	-35.7	24.1	0.00e+00	0	41	0	4256169984	42	6195
2026-01-30 16:13:25.92	178.86	7.45	-35.1	-35.9	23.8	0.00e+00	0	41	0	4278190080	42	6383
2026-01-30 16:13:29.96	179.04	7.15	-35.5	-36.3	23.4	0.00e+00	0	41	0	4301258752	42	6646
2026-01-30 16:13:34.00	179.22	6.84	-35.3	-36.1	23.6	0.00e+00	0	41	0	4324327424	42	6516
2026-01-30 16:13:38.04	179.39	6.55	-35.3	-36.0	23.6	0.00e+00	0	41	0	4346347520	42	6426
2026-01-30 16:13:42.08	179.56	6.25	-35.4	-36.2	23.4	0.00e+00	0	41	0	4369416192	42	6573
2026-01-30 16:13:46.12	179.73	5.96	-35.5	-36.3	23.4	0.00e+00	0	41	0	4392484864	42	6632
2026-01-30 16:13:50.15	179.89	5.67	-35.6	-36.5	23.2	0.00e+00	0	41	0	4414504960	44	6040
2026-01-30 16:13:54.19	180.06	5.39	-35.9	-36.7	22.9	0.00e+00	0	41	0	4437573632	44	6212
2026-01-30 16:13:58.22	180.22	5.10	-35.7	-36.6	23.0	0.00e+00	0	41	0	4460642304	44	6107
2026-01-30 16:14:02.24	180.37	4.83	-36.0	-36.8	22.8	0.00e+00	0	41	0	4482662400	44	6263
2026-01-30 16:14:06.28	180.52	4.55	-36.1	-36.8	22.5	0.00e+00	0	41	0	4505731072	44	6309
2026-01-30 16:14:10.31	180.68	4.27	-36.1	-36.8	22.5	0.00e+00	0	41	0	4527751168	44	6317
2026-01-30 16:14:14.35	180.82	4.00	-36.6	-37.4	21.9	0.00e+00	0	41	0	4550819840	46	5972
2026-01-30 16:14:18.39	180.97	3.73	-37.0	-37.9	21.7	0.00e+00	0	41	0	4573888512	46	6364
2026-01-30 16:14:22.42	181.11	3.47	-36.7	-37.6	21.7	0.00e+00	0	41	0	4595908608	46	6159
2026-01-30 16:14:26.46	181.26	3.20	-37.0	-37.9	21.6	0.00e+00	0	41	0	4618977280	46	6332
2026-01-30 16:14:30.50	181.39	2.94	-48.7	-60.8	3.6	8.44e-01	0	41	104	4636803072	60	39547
2026-01-30 16:14:34.54	181.53	2.68	-49.4	-61.5	3.6	8.45e-01	0	41	104	4636803072	60	43013
2026-01-30 16:14:38.58	181.67	2.42	-49.5	-61.7	3.6	8.46e-01	0	41	104	4636803072	60	43736
2026-01-30 16:14:42.62	181.80	2.17	-49.6	-61.8	3.6	8.45e-01	0	41	104	4636803072	60	44502
2026-01-30 16:14:46.67	181.93	1.92	-49.6	-61.7	3.6	8.45e-01	0	41	104	4636803072	60	44093
2026-01-30 16:14:50.71	182.06	1.66	-49.6	-61.7	3.6	8.46e-01	0	41	104	4636803072	60	43926
2026-01-30 16:14:54.74	182.18	1.42	-49.6	-61.7	3.6	8.46e-01	0	41	104	4636803072	60	44123
2026-01-30 16:14:58.78	182.31	1.17	-49.6	-61.7	3.6	8.45e-01	0	41	104	4636803072	60	43844
2026-01-30 16:15:02.82	182.43	0.93	-49.6	-61.7	3.6	8.46e-01	0	41	104	4636803072	60	44116
2026-01-30 16:15:06.87	182.55	0.68	-49.6	-61.7	3.6	8.45e-01	0	42	104	4636803072	60	43967
2026-01-30 16:15:10.90	182.67	0.44	-49.6	-61.7	3.6	8.44e-01	0	41	104	4636803072	60	43957
2026-01-30 16:15:14.94	182.79	0.20	-49.6	-61.7	3.6	8.45e-01	0	41	104	4636803072	60	43999
2026-01-30 16:15:18.98	182.91	-0.03	-49.6	-61.7	3.6	8.45e-01	0	41	104	4636803072	60	43917

#Closed at: 2026-01-30 16:15:20
#Recorded file [4636 MB]: D:/lorett/data/35029_260131_035957.dat