passes_logs/2026/01/30/R4.6S_Anadyr/R4.6S_Anadyr__20260130_114256_SUOMI_NPP_rec.log

#Pass ID: 20260130_114256_SUOMI NPP
#Satellite: SUOMI NPP
#Configuration: NPP
#almurnet v.1.7.20251203
#Start time: 2026-01-30 11:43:00

#Version: 2.2.20231116
#Station: R4.6S_Anadyr
#Location: 177.4865 lon 64.73178 lat
#TLE: 1 37849U 11061A   26029.48304708  .00000140  00000+0  87283-4 0  9999
#TLE: 2 37849  98.7824 331.4079 0002024  38.4342 321.6978 14.19531488738761

#Time	Az	El	Level	Level2	SNR	BER	BlckErr	Temp	State	Recorded	gain1	gain2
2026-01-30 11:43:00.09	20.80	0.14	-49.6	-63.4	3.3	1.54e+00	0	40	0	0	60	53240
2026-01-30 11:43:03.12	21.08	0.26	-49.6	-64.8	3.6	1.51e+00	0	40	104	0	60	62883
2026-01-30 11:43:06.15	21.37	0.38	-49.6	-64.9	3.6	1.51e+00	0	40	104	0	60	63405
2026-01-30 11:43:09.18	21.67	0.50	-49.6	-64.8	3.6	1.51e+00	0	40	104	0	60	62984
2026-01-30 11:43:12.21	21.96	0.62	-49.5	-64.7	3.6	1.51e+00	0	40	104	0	60	61911
2026-01-30 11:43:15.24	22.26	0.75	-49.2	-64.4	3.6	1.51e+00	0	40	104	0	60	60169
2026-01-30 11:43:18.27	22.55	0.87	-49.0	-64.2	3.6	1.51e+00	0	40	104	0	60	58327
2026-01-30 11:43:21.30	22.85	0.99	-48.2	-63.4	3.5	1.51e+00	0	40	104	0	60	53252
2026-01-30 11:43:24.33	23.16	1.11	-48.1	-63.2	3.6	1.51e+00	0	40	104	0	60	52351
2026-01-30 11:43:27.36	23.46	1.23	-48.0	-63.2	3.6	1.51e+00	0	41	104	0	60	52458
2026-01-30 11:43:30.39	23.77	1.36	-48.0	-63.2	3.6	1.51e+00	0	41	104	0	60	52344
2026-01-30 11:43:33.42	24.08	1.48	-48.0	-63.2	3.6	1.51e+00	0	41	104	0	60	52424
2026-01-30 11:43:36.45	24.39	1.60	-48.0	-63.2	3.6	1.51e+00	0	41	104	0	60	52108
2026-01-30 11:43:39.48	24.71	1.72	-48.1	-63.2	3.5	1.51e+00	0	41	104	0	60	52246
2026-01-30 11:43:42.51	25.03	1.84	-48.0	-63.3	3.6	1.51e+00	0	41	104	0	60	52551
2026-01-30 11:43:45.54	25.35	1.96	-48.0	-63.2	3.6	1.51e+00	0	41	104	0	60	52248
2026-01-30 11:43:48.57	25.67	2.08	-48.0	-63.2	3.6	1.51e+00	0	41	104	0	60	52545
2026-01-30 11:43:51.60	25.99	2.20	-48.0	-63.1	3.6	1.51e+00	0	41	104	0	60	51789
2026-01-30 11:43:54.63	26.32	2.32	-48.0	-63.1	3.6	1.51e+00	0	41	104	0	60	51628
2026-01-30 11:43:57.66	26.65	2.44	-48.0	-63.2	3.6	1.51e+00	0	41	104	0	60	52244
2026-01-30 11:44:00.70	26.99	2.56	-48.0	-61.8	3.6	1.51e+00	0	41	104	0	60	44721
2026-01-30 11:44:03.73	27.32	2.68	-47.9	-61.1	3.6	1.51e+00	0	41	104	0	60	40996
2026-01-30 11:44:06.76	27.66	2.80	-44.0	-46.5	15.7	0.00e+00	0	41	0	3145728	60	7622
2026-01-30 11:44:09.79	28.00	2.92	-41.4	-42.9	19.1	0.00e+00	0	41	0	8388608	56	6372
2026-01-30 11:44:12.82	28.34	3.04	-42.1	-43.8	18.3	0.00e+00	85	41	0	13631488	56	7024
2026-01-30 11:44:15.84	28.69	3.16	-47.7	-60.0	3.6	1.50e+00	0	41	104	17825792	60	36198
2026-01-30 11:44:18.87	29.03	3.28	-42.6	-44.5	17.8	0.00e+00	0	41	0	20971520	58	6786
2026-01-30 11:44:21.90	29.39	3.39	-42.2	-43.9	18.5	0.00e+00	41	41	0	27262976	58	6359
2026-01-30 11:44:24.93	29.74	3.51	-41.2	-42.6	19.5	0.00e+00	0	41	0	32505856	56	6163
2026-01-30 11:44:27.96	30.10	3.63	-40.8	-42.2	19.8	0.00e+00	0	41	0	38797312	54	6544
2026-01-30 11:44:30.99	30.45	3.74	-40.9	-42.2	19.8	0.00e+00	65	41	0	44040192	54	6602
2026-01-30 11:44:34.02	30.82	3.86	-41.1	-42.6	19.7	0.00e+00	0	41	0	49283072	54	6871
2026-01-30 11:44:37.04	31.18	3.98	-41.2	-42.6	19.5	0.00e+00	0	41	0	55574528	54	6902
2026-01-30 11:44:40.07	31.55	4.09	-40.8	-42.2	19.9	0.00e+00	0	41	0	60817408	54	6584
2026-01-30 11:44:43.10	31.92	4.21	-40.7	-42.0	20.0	0.00e+00	66	41	0	67108864	54	6409
2026-01-30 11:44:46.13	32.29	4.32	-40.6	-42.0	20.2	0.00e+00	0	41	0	72351744	54	6410
2026-01-30 11:44:49.16	32.67	4.44	-40.9	-42.2	19.7	0.00e+00	0	41	0	77594624	54	6607
2026-01-30 11:44:52.19	33.04	4.55	-40.8	-42.1	20.1	0.00e+00	90	41	0	83886080	54	6524
2026-01-30 11:44:55.22	33.43	4.66	-40.6	-41.9	20.3	0.00e+00	0	41	0	89128960	54	6384
2026-01-30 11:44:58.25	33.81	4.77	-40.6	-41.9	20.3	0.00e+00	0	41	0	95420416	54	6358
2026-01-30 11:45:01.27	34.20	4.89	-40.7	-42.1	20.2	0.00e+00	0	41	0	100663296	54	6477
2026-01-30 11:45:04.30	34.59	5.00	-41.0	-42.3	20.0	0.00e+00	17	41	0	105906176	54	6691
2026-01-30 11:45:07.33	34.98	5.11	-40.8	-42.1	20.2	0.00e+00	0	41	0	112197632	54	6525
2026-01-30 11:45:10.36	35.37	5.22	-40.8	-42.1	20.3	0.00e+00	0	41	0	117440512	54	6473
2026-01-30 11:45:13.39	35.77	5.33	-40.8	-42.2	20.2	0.00e+00	80	41	0	123731968	54	6545
2026-01-30 11:45:16.42	36.17	5.43	-40.9	-42.2	20.1	0.00e+00	0	41	0	128974848	54	6608
2026-01-30 11:45:19.44	36.58	5.54	-41.0	-42.4	20.0	0.00e+00	0	41	0	135266304	54	6713
2026-01-30 11:45:22.47	36.98	5.65	-41.1	-42.5	20.0	0.00e+00	82	41	0	140509184	54	6813
2026-01-30 11:45:25.50	37.39	5.76	-41.0	-42.3	20.0	0.00e+00	0	41	0	145752064	54	6663
2026-01-30 11:45:28.53	37.81	5.86	-40.7	-41.9	20.5	0.00e+00	0	41	0	152043520	54	6372
2026-01-30 11:45:31.56	38.22	5.97	-40.6	-41.9	20.5	0.00e+00	0	41	0	157286400	54	6331
2026-01-30 11:45:34.59	38.64	6.07	-40.8	-42.1	20.3	0.00e+00	65	41	0	163577856	54	6522
2026-01-30 11:45:37.61	39.06	6.17	-41.1	-42.5	20.0	0.00e+00	0	41	0	168820736	54	6815
2026-01-30 11:45:40.64	39.49	6.27	-41.1	-42.4	20.1	0.00e+00	0	41	0	174063616	54	6746
2026-01-30 11:45:43.68	39.91	6.38	-41.1	-42.5	20.0	0.00e+00	78	41	0	180355072	54	6821
2026-01-30 11:45:46.71	40.34	6.48	-41.3	-42.7	19.9	0.00e+00	0	41	0	185597952	54	6973
2026-01-30 11:45:49.74	40.78	6.58	-41.6	-43.1	19.5	0.00e+00	0	41	0	191889408	56	6493
2026-01-30 11:45:52.77	41.21	6.67	-41.5	-42.9	19.8	0.00e+00	81	41	0	197132288	56	6336
2026-01-30 11:45:55.79	41.65	6.77	-41.1	-42.4	20.2	0.00e+00	0	41	0	203423744	56	6008
2026-01-30 11:45:58.82	42.09	6.87	-41.3	-42.7	19.7	0.00e+00	0	41	0	208666624	56	6188
2026-01-30 11:46:01.85	42.54	6.96	-41.2	-42.6	20.1	0.00e+00	0	41	0	213909504	56	6144
2026-01-30 11:46:04.88	42.98	7.06	-41.3	-42.7	20.0	0.00e+00	73	41	0	220200960	56	6233
2026-01-30 11:46:07.91	43.43	7.15	-41.5	-43.0	19.8	0.00e+00	0	41	0	225443840	56	6391
2026-01-30 11:46:10.94	43.88	7.24	-41.6	-43.0	19.6	0.00e+00	0	41	0	231735296	56	6459
2026-01-30 11:46:13.96	44.34	7.33	-41.6	-43.0	19.8	0.00e+00	41	41	0	236978176	56	6417
2026-01-30 11:46:16.99	44.80	7.42	-41.1	-42.4	20.2	0.00e+00	0	41	0	242221056	56	6014
2026-01-30 11:46:20.02	45.26	7.51	-41.0	-42.3	20.3	0.00e+00	0	41	0	248512512	56	5914
2026-01-30 11:46:23.05	45.72	7.60	-41.7	-43.1	19.7	0.00e+00	63	41	0	253755392	56	6531
2026-01-30 11:46:26.08	46.19	7.68	-41.8	-43.2	19.5	0.00e+00	0	41	0	260046848	56	6606
2026-01-30 11:46:29.11	46.66	7.77	-41.6	-43.0	19.7	0.00e+00	0	41	0	265289728	56	6416
2026-01-30 11:46:32.14	47.13	7.85	-41.8	-43.3	19.6	0.00e+00	0	41	0	271581184	56	6629
2026-01-30 11:46:35.16	47.60	7.93	-41.6	-43.0	19.8	0.00e+00	44	41	0	276824064	56	6425
2026-01-30 11:46:38.19	48.08	8.01	-41.2	-42.6	20.1	0.00e+00	33	41	0	282066944	56	6117
2026-01-30 11:46:41.21	48.55	8.09	-40.9	-42.2	20.5	0.00e+00	0	41	0	288358400	56	5849
2026-01-30 11:46:44.23	49.03	8.17	-41.1	-42.4	20.2	0.00e+00	86	41	0	293601280	56	6012
2026-01-30 11:46:47.27	49.52	8.24	-42.0	-43.6	19.4	0.00e+00	0	41	0	299892736	56	6858
2026-01-30 11:46:50.30	50.01	8.32	-42.5	-44.1	18.8	0.00e+00	0	41	0	305135616	56	7308
2026-01-30 11:46:53.32	50.49	8.39	-42.3	-43.9	19.2	0.00e+00	33	41	0	310378496	56	7107
2026-01-30 11:46:56.35	50.99	8.46	-41.3	-42.6	19.9	0.00e+00	0	41	0	316669952	56	6126
2026-01-30 11:46:59.38	51.48	8.53	-41.1	-42.5	20.3	0.00e+00	0	41	0	321912832	56	6048
2026-01-30 11:47:02.40	51.97	8.60	-41.1	-42.4	20.3	0.00e+00	0	41	0	328204288	56	5997
2026-01-30 11:47:05.43	52.47	8.67	-41.3	-42.6	20.2	0.00e+00	8	41	0	333447168	56	6106
2026-01-30 11:47:08.46	52.97	8.73	-40.7	-41.9	20.8	0.00e+00	0	41	0	339738624	54	6337
2026-01-30 11:47:11.49	53.47	8.79	-41.4	-42.8	19.8	0.00e+00	0	41	0	344981504	54	7080
2026-01-30 11:47:14.51	53.98	8.86	-41.5	-42.9	19.8	0.00e+00	83	41	0	350224384	54	7164
2026-01-30 11:47:17.54	54.48	8.91	-40.8	-42.0	20.7	0.00e+00	0	41	0	356515840	54	6423
2026-01-30 11:47:20.57	54.99	8.97	-40.6	-41.8	20.9	0.00e+00	0	41	0	361758720	54	6275
2026-01-30 11:47:23.60	55.50	9.03	-41.2	-42.5	20.3	0.00e+00	0	41	0	368050176	54	6834
2026-01-30 11:47:26.64	56.02	9.08	-40.8	-42.0	20.7	0.00e+00	73	41	0	373293056	54	6419
2026-01-30 11:47:29.66	56.53	9.13	-40.3	-41.5	20.9	0.00e+00	0	41	0	378535936	54	6048
2026-01-30 11:47:32.69	57.05	9.18	-40.7	-41.9	20.7	0.00e+00	0	41	0	384827392	54	6349
2026-01-30 11:47:35.72	57.56	9.23	-40.9	-42.1	20.5	0.00e+00	19	41	0	390070272	54	6534
2026-01-30 11:47:38.75	58.08	9.28	-41.1	-42.4	20.4	0.00e+00	0	41	0	396361728	54	6724
2026-01-30 11:47:41.78	58.60	9.32	-41.6	-43.0	19.8	0.00e+00	0	41	0	401604608	54	7247
2026-01-30 11:47:44.81	59.13	9.37	-42.7	-44.4	18.5	0.00e+00	90	41	0	407896064	58	6739
2026-01-30 11:47:47.84	59.65	9.41	-42.5	-44.1	19.0	0.00e+00	0	41	0	413138944	58	6531
2026-01-30 11:47:50.86	60.17	9.44	-42.1	-43.6	19.4	0.00e+00	0	41	0	418381824	58	6125
2026-01-30 11:47:53.89	60.70	9.48	-42.2	-43.8	19.3	0.00e+00	0	41	0	424673280	58	6278
2026-01-30 11:47:56.92	61.23	9.51	-42.3	-43.8	19.1	0.00e+00	89	41	0	429916160	58	6312
2026-01-30 11:47:59.95	61.76	9.55	-42.2	-43.8	19.1	0.00e+00	0	41	0	436207616	58	6253
2026-01-30 11:48:02.98	62.29	9.58	-42.5	-44.1	18.8	0.00e+00	0	41	0	441450496	58	6535
2026-01-30 11:48:06.01	62.82	9.61	-42.2	-43.8	19.2	0.00e+00	71	41	0	446693376	58	6260
2026-01-30 11:48:09.03	63.35	9.63	-41.7	-43.1	19.8	0.00e+00	0	41	0	452984832	56	6526
2026-01-30 11:48:12.06	63.88	9.65	-41.3	-42.6	20.3	0.00e+00	0	41	0	458227712	56	6169
2026-01-30 11:48:15.09	64.42	9.68	-41.3	-42.7	20.3	0.00e+00	92	41	0	464519168	56	6174
2026-01-30 11:48:18.12	64.95	9.70	-41.3	-42.6	20.2	0.00e+00	0	41	0	469762048	56	6127
2026-01-30 11:48:21.14	65.48	9.71	-41.1	-42.3	20.4	0.00e+00	0	41	0	475004928	56	5957
2026-01-30 11:48:24.17	66.02	9.73	-41.3	-42.7	20.2	0.00e+00	0	41	0	481296384	56	6198
2026-01-30 11:48:27.20	66.56	9.74	-41.3	-42.7	20.2	0.00e+00	1	41	0	486539264	56	6200
2026-01-30 11:48:30.23	67.09	9.75	-40.9	-42.2	20.6	0.00e+00	0	41	0	492830720	56	5870
2026-01-30 11:48:33.26	67.63	9.76	-40.4	-41.5	21.2	0.00e+00	0	41	0	498073600	54	6100
2026-01-30 11:48:36.29	68.17	9.77	-40.4	-41.6	21.0	0.00e+00	86	41	0	504365056	54	6172
2026-01-30 11:48:39.32	68.71	9.77	-40.1	-41.2	21.4	0.00e+00	0	41	0	509607936	54	5860
2026-01-30 11:48:42.34	69.24	9.77	-39.6	-40.7	21.9	0.00e+00	0	41	0	514850816	52	6207
2026-01-30 11:48:45.37	69.78	9.77	-39.9	-41.0	21.4	0.00e+00	90	41	0	521142272	52	6463
2026-01-30 11:48:48.40	70.32	9.77	-40.4	-41.6	21.1	0.00e+00	0	41	0	526385152	52	6863
2026-01-30 11:48:51.43	70.86	9.77	-40.1	-41.3	21.4	0.00e+00	0	41	0	532676608	52	6617
2026-01-30 11:48:54.46	71.39	9.76	-40.0	-41.2	21.4	0.00e+00	0	41	0	537919488	52	6563
2026-01-30 11:48:57.49	71.93	9.75	-40.3	-41.5	21.0	0.00e+00	5	41	0	543162368	52	6820
2026-01-30 11:49:00.51	72.47	9.74	-40.3	-41.5	21.2	0.00e+00	0	41	0	549453824	52	6803
2026-01-30 11:49:03.54	73.00	9.73	-39.9	-41.0	21.0	0.00e+00	0	41	0	554696704	52	6445
2026-01-30 11:49:06.57	73.54	9.71	-39.8	-41.0	21.6	0.00e+00	65	41	0	560988160	52	6407
2026-01-30 11:49:09.60	74.07	9.69	-39.7	-40.8	21.7	0.00e+00	0	41	0	566231040	52	6306
2026-01-30 11:49:12.62	74.61	9.67	-39.2	-40.3	22.2	0.00e+00	0	41	0	572522496	52	5939
2026-01-30 11:49:15.65	75.14	9.65	-38.8	-39.8	22.6	0.00e+00	89	41	0	577765376	52	5630
2026-01-30 11:49:18.68	75.68	9.63	-38.6	-39.6	22.7	0.00e+00	0	41	0	583008256	50	6172
2026-01-30 11:49:21.71	76.21	9.60	-39.2	-40.3	22.2	0.00e+00	0	41	0	589299712	50	6654
2026-01-30 11:49:24.74	76.74	9.57	-39.2	-40.3	22.2	0.00e+00	0	41	0	594542592	50	6626
2026-01-30 11:49:27.77	77.27	9.54	-39.3	-40.3	22.2	0.00e+00	87	41	0	600834048	50	6652
2026-01-30 11:49:30.80	77.80	9.51	-39.5	-40.6	21.9	0.00e+00	0	41	0	606076928	50	6901
2026-01-30 11:49:33.83	78.33	9.47	-39.5	-40.6	21.9	0.00e+00	0	41	0	611319808	50	6914
2026-01-30 11:49:36.86	78.86	9.44	-39.4	-40.6	22.0	0.00e+00	63	41	0	617611264	50	6851
2026-01-30 11:49:39.89	79.38	9.40	-39.6	-40.7	21.7	0.00e+00	0	41	0	622854144	50	6985
2026-01-30 11:49:42.92	79.91	9.36	-39.7	-40.9	21.6	0.00e+00	0	41	0	629145600	52	6331
2026-01-30 11:49:45.95	80.43	9.32	-40.3	-41.6	21.1	0.00e+00	0	41	0	634388480	52	6861
2026-01-30 11:49:48.98	80.95	9.27	-40.4	-41.5	21.1	0.00e+00	0	41	0	640679936	52	6845
2026-01-30 11:49:52.01	81.47	9.22	-39.8	-40.9	21.6	0.00e+00	0	41	0	645922816	52	6373
2026-01-30 11:49:55.04	81.99	9.18	-39.4	-40.4	22.0	0.00e+00	0	41	0	651165696	52	6024
2026-01-30 11:49:58.06	82.51	9.12	-38.8	-39.8	22.6	0.00e+00	64	41	0	657457152	52	5597
2026-01-30 11:50:01.09	83.02	9.07	-37.9	-38.8	23.3	0.00e+00	0	41	0	662700032	50	5612
2026-01-30 11:50:04.12	83.53	9.02	-38.2	-39.2	23.0	0.00e+00	0	41	0	668991488	50	5838
2026-01-30 11:50:07.15	84.05	8.96	-38.5	-39.4	22.7	0.00e+00	84	41	0	674234368	50	6004
2026-01-30 11:50:10.18	84.55	8.90	-38.7	-39.7	22.5	0.00e+00	0	41	0	679477248	50	6193
2026-01-30 11:50:13.21	85.06	8.84	-38.7	-39.7	22.6	0.00e+00	0	41	0	685768704	50	6226
2026-01-30 11:50:16.24	85.57	8.78	-38.9	-39.9	22.3	0.00e+00	7	41	0	691011584	50	6370
2026-01-30 11:50:19.27	86.07	8.72	-38.8	-39.8	22.4	0.00e+00	73	41	0	697303040	50	6280
2026-01-30 11:50:22.29	86.57	8.65	-39.2	-40.2	22.2	0.00e+00	0	41	0	702545920	50	6597
2026-01-30 11:50:25.32	87.07	8.59	-39.0	-40.0	22.4	0.00e+00	0	41	0	708837376	50	6427
2026-01-30 11:50:28.35	87.57	8.52	-38.2	-39.2	23.0	0.00e+00	44	41	0	714080256	50	5852
2026-01-30 11:50:31.38	88.06	8.45	-38.3	-39.2	23.0	0.00e+00	0	41	0	719323136	50	5862
2026-01-30 11:50:34.41	88.55	8.38	-38.7	-39.7	22.6	0.00e+00	0	41	0	725614592	50	6202
2026-01-30 11:50:37.44	89.04	8.30	-38.8	-39.9	22.4	0.00e+00	81	40	0	730857472	50	6329
2026-01-30 11:50:40.47	89.53	8.23	-38.9	-39.9	22.3	0.00e+00	0	40	0	737148928	50	6385
2026-01-30 11:50:43.50	90.02	8.15	-39.0	-40.0	22.2	0.00e+00	0	40	0	742391808	50	6437
2026-01-30 11:50:46.53	90.50	8.07	-39.4	-40.5	21.9	0.00e+00	0	40	0	747634688	50	6835
2026-01-30 11:50:49.56	90.98	7.99	-40.2	-41.5	21.0	0.00e+00	65	40	0	753926144	52	6845
2026-01-30 11:50:52.59	91.46	7.91	-40.7	-41.9	20.7	0.00e+00	0	41	0	759169024	52	7151
2026-01-30 11:50:55.62	91.93	7.83	-40.5	-41.8	20.7	0.00e+00	0	41	0	765460480	52	7049
2026-01-30 11:50:58.64	92.40	7.75	-40.9	-42.2	20.3	0.00e+00	78	40	0	770703360	54	6604
2026-01-30 11:51:01.67	92.87	7.66	-40.8	-42.1	20.4	0.00e+00	0	40	0	776994816	54	6534
2026-01-30 11:51:04.70	93.34	7.57	-40.4	-42.0	20.6	0.00e+00	0	40	0	782237696	54	6436
2026-01-30 11:51:07.73	93.80	7.49	-40.6	-42.0	20.6	0.00e+00	73	40	0	787480576	54	6400
2026-01-30 11:51:10.75	94.26	7.40	-40.9	-42.2	20.3	0.00e+00	0	40	0	793772032	54	6600
2026-01-30 11:51:13.78	94.72	7.31	-41.1	-42.5	20.0	0.00e+00	0	40	0	799014912	54	6816
2026-01-30 11:51:16.81	95.18	7.22	-41.1	-42.5	20.1	0.00e+00	0	40	0	805306368	54	6794
2026-01-30 11:51:19.83	95.63	7.12	-41.8	-43.4	19.2	0.00e+00	86	40	0	810549248	54	7532
2026-01-30 11:51:22.86	96.08	7.03	-42.6	-44.3	18.4	0.00e+00	0	40	0	815792128	56	7498
2026-01-30 11:51:25.89	96.53	6.93	-42.4	-44.2	18.5	0.00e+00	33	40	0	822083584	58	6554
2026-01-30 11:51:28.92	96.98	6.84	-42.1	-43.7	18.9	0.00e+00	92	40	0	827326464	58	6234
2026-01-30 11:51:31.95	97.42	6.74	-41.7	-43.2	19.4	0.00e+00	0	40	0	833617920	56	6561
2026-01-30 11:51:34.98	97.86	6.64	-41.7	-43.2	19.2	0.00e+00	0	40	0	838860800	56	6612
2026-01-30 11:51:38.01	98.30	6.54	-42.0	-43.6	19.0	0.00e+00	59	40	0	845152256	56	6910
2026-01-30 11:51:41.04	98.73	6.44	-41.8	-43.6	19.0	0.00e+00	49	40	0	850395136	56	6872
2026-01-30 11:51:44.06	99.16	6.34	-42.0	-43.9	18.8	0.00e+00	0	41	0	855638016	56	7161
2026-01-30 11:51:47.09	99.59	6.24	-42.3	-44.0	18.7	0.00e+00	0	40	0	861929472	56	7244
2026-01-30 11:51:50.12	100.01	6.14	-41.8	-43.3	19.2	0.00e+00	78	41	0	867172352	56	6690
2026-01-30 11:51:53.15	100.43	6.03	-41.4	-42.9	19.6	0.00e+00	33	41	0	873463808	56	6374
2026-01-30 11:51:56.18	100.85	5.93	-41.6	-43.1	19.4	0.00e+00	33	40	0	878706688	56	6505
2026-01-30 11:51:59.20	101.27	5.82	-41.8	-43.5	19.0	0.00e+00	90	40	0	883949568	56	6804
2026-01-30 11:52:02.23	101.68	5.71	-41.9	-43.4	19.0	0.00e+00	0	40	0	890241024	56	6764
2026-01-30 11:52:05.26	102.09	5.61	-40.9	-42.6	19.7	0.00e+00	0	40	0	895483904	56	6134
2026-01-30 11:52:08.29	102.50	5.50	-41.0	-42.4	19.9	0.00e+00	0	40	0	901775360	56	6030
2026-01-30 11:52:11.32	102.91	5.39	-40.7	-42.1	20.1	0.00e+00	81	40	0	907018240	54	6532
2026-01-30 11:52:14.35	103.31	5.28	-40.9	-42.3	19.9	0.00e+00	0	40	0	912261120	54	6647
2026-01-30 11:52:17.37	103.71	5.17	-40.9	-42.4	19.8	0.00e+00	0	40	0	918552576	54	6756
2026-01-30 11:52:20.40	104.10	5.06	-41.0	-42.5	19.7	0.00e+00	53	40	0	923795456	54	6787
2026-01-30 11:52:23.42	104.49	4.95	-41.3	-43.1	19.2	0.00e+00	0	40	0	930086912	54	7310
2026-01-30 11:52:26.45	104.89	4.84	-41.5	-43.3	18.8	0.00e+00	0	40	0	935329792	54	7461
2026-01-30 11:52:29.48	105.27	4.72	-40.7	-42.6	19.6	0.00e+00	92	40	0	941621248	54	6916
2026-01-30 11:52:32.51	105.66	4.61	-40.8	-42.4	19.6	0.00e+00	0	40	0	946864128	54	6717
2026-01-30 11:52:35.54	106.04	4.50	-40.4	-41.8	20.1	0.00e+00	0	40	0	952107008	54	6303
2026-01-30 11:52:38.56	106.42	4.38	-40.3	-42.0	20.0	0.00e+00	0	40	0	958398464	54	6423
2026-01-30 11:52:41.59	106.79	4.27	-40.8	-42.2	19.6	0.00e+00	0	40	0	963641344	54	6563
2026-01-30 11:52:44.61	107.17	4.15	-40.2	-41.7	20.1	0.00e+00	0	40	0	969932800	54	6218
2026-01-30 11:52:47.64	107.54	4.04	-40.7	-42.2	19.5	0.00e+00	0	40	0	975175680	54	6562
2026-01-30 11:52:50.67	107.90	3.92	-40.2	-42.6	19.0	0.00e+00	72	41	0	980418560	54	6910
2026-01-30 11:52:53.69	108.27	3.80	-41.0	-42.8	18.9	0.00e+00	0	40	0	986710016	54	7022
2026-01-30 11:52:56.72	108.63	3.68	-40.4	-42.9	18.7	0.00e+00	0	40	0	991952896	54	7151
2026-01-30 11:52:59.75	108.99	3.57	-41.4	-43.1	18.5	0.00e+00	92	40	0	998244352	54	7300
2026-01-30 11:53:02.78	109.35	3.45	-41.6	-43.4	18.1	0.00e+00	0	40	0	1003487232	54	7572
2026-01-30 11:53:05.81	109.70	3.33	-41.9	-44.0	17.4	0.00e+00	0	40	0	1009778688	56	7212
2026-01-30 11:53:08.84	110.05	3.21	-42.0	-44.0	17.3	0.00e+00	0	40	0	1015021568	56	7225
2026-01-30 11:53:11.87	110.40	3.09	-41.6	-43.9	17.4	0.00e+00	83	41	0	1020264448	56	7089
2026-01-30 11:53:14.90	110.75	2.97	-47.0	-63.5	3.6	1.06e+00	0	41	104	1025507328	60	54068
2026-01-30 11:53:17.93	111.09	2.85	-49.2	-64.4	3.6	1.51e+00	0	40	104	1025507328	60	59837
2026-01-30 11:53:20.96	111.43	2.73	-49.5	-64.7	3.6	1.51e+00	0	41	104	1025507328	60	62102
2026-01-30 11:53:23.99	111.77	2.61	-49.6	-64.8	3.6	1.51e+00	0	41	104	1025507328	60	63038
2026-01-30 11:53:27.02	112.10	2.49	-49.7	-64.9	3.6	1.51e+00	0	40	104	1025507328	60	63200
2026-01-30 11:53:30.05	112.44	2.37	-49.7	-64.9	3.6	1.51e+00	0	41	104	1025507328	60	63327
2026-01-30 11:53:33.08	112.77	2.25	-49.5	-64.8	3.6	1.51e+00	0	41	104	1025507328	60	63096
2026-01-30 11:53:36.11	113.09	2.13	-49.7	-64.9	3.6	1.51e+00	0	41	104	1025507328	60	63652
2026-01-30 11:53:39.14	113.42	2.00	-49.7	-64.8	3.6	1.51e+00	0	41	104	1025507328	60	63163
2026-01-30 11:53:42.17	113.74	1.88	-49.6	-64.9	3.6	1.51e+00	0	41	104	1025507328	60	63382
2026-01-30 11:53:45.20	114.06	1.76	-49.6	-64.8	3.6	1.51e+00	0	41	104	1025507328	60	63159
2026-01-30 11:53:48.23	114.38	1.64	-49.6	-64.9	3.6	1.51e+00	0	41	104	1025507328	60	63236
2026-01-30 11:53:51.26	114.69	1.52	-49.6	-64.8	3.6	1.51e+00	0	41	104	1025507328	60	63026
2026-01-30 11:53:54.29	115.00	1.39	-49.6	-64.8	3.6	1.51e+00	0	41	104	1025507328	60	63163
2026-01-30 11:53:57.32	115.31	1.27	-49.6	-64.9	3.6	1.51e+00	0	40	104	1025507328	60	63323
2026-01-30 11:54:00.35	115.62	1.15	-49.6	-64.8	3.6	1.51e+00	0	41	104	1025507328	60	63138
2026-01-30 11:54:03.38	115.93	1.02	-49.6	-64.8	3.6	1.51e+00	0	41	104	1025507328	60	63016
2026-01-30 11:54:06.41	116.23	0.90	-49.6	-64.8	3.6	1.51e+00	0	41	104	1025507328	60	62925
2026-01-30 11:54:09.44	116.53	0.78	-49.6	-64.9	3.6	1.51e+00	0	41	104	1025507328	60	63328
2026-01-30 11:54:12.46	116.83	0.66	-49.6	-64.8	3.6	1.51e+00	0	41	104	1025507328	60	63021
2026-01-30 11:54:15.50	117.12	0.53	-49.6	-64.8	3.6	1.51e+00	0	40	104	1025507328	60	62857
2026-01-30 11:54:18.52	117.41	0.41	-49.6	-64.8	3.6	1.51e+00	0	40	104	1025507328	60	63007
2026-01-30 11:54:21.55	117.71	0.28	-49.6	-64.8	3.6	1.51e+00	0	40	104	1025507328	60	62736
2026-01-30 11:54:24.58	117.99	0.16	-49.6	-64.8	3.6	1.51e+00	0	41	104	1025507328	60	62706
2026-01-30 11:54:27.61	118.28	0.04	-49.6	-64.8	3.6	1.51e+00	0	41	104	1025507328	60	62911

#Closed at: 2026-01-30 11:54:30
#Recorded file [1025 MB]: D:/lorett/data/35029_260130_234300.dat