passes_logs/2026/01/30/R4.6S_Anadyr/R4.6S_Anadyr__20260130_080548_KOSAR1-5_rec.log

#Pass ID: 20260130_080548_KOSAR1-5
#Satellite: KOSAR1-5
#Configuration: KOSAR1-5
#almurnet v.1.7.20251203
#Start time: 2026-01-30 08:05:52

#Version: 2.2.20231116
#Station: R4.6S_Anadyr
#Location: 177.4865 lon 64.73178 lat
#TLE: 1 67264U 25313S   26028.94615568  .00012050  00000+0  55467-3 0  9998
#TLE: 2 67264  97.4180 105.8864 0016576 134.5684 225.6907 15.20338860  4779

#Time	Az	El	Level	Level2	SNR	BER	BlckErr	Temp	State	Recorded	gain1	gain2
2026-01-30 08:05:52.04	119.53	0.23	-50.0	-51.6	5.7	0.00e+00	0	39	0	0	60	46356
2026-01-30 08:05:54.99	119.35	0.41	-46.4	-61.2	3.6	1.51e+00	0	40	104	0	60	46368
2026-01-30 08:05:57.93	119.16	0.59	-46.5	-61.1	3.6	1.51e+00	0	40	104	0	60	46224
2026-01-30 08:06:00.87	118.98	0.77	-46.4	-61.1	3.6	1.51e+00	0	40	104	0	60	46021
2026-01-30 08:06:03.81	118.78	0.95	-46.4	-61.2	3.6	1.51e+00	0	40	104	0	60	46335
2026-01-30 08:06:06.75	118.59	1.13	-46.4	-61.1	3.6	1.51e+00	0	40	104	0	60	46183
2026-01-30 08:06:09.68	118.39	1.31	-46.0	-60.9	3.6	1.51e+00	0	40	104	0	60	44857
2026-01-30 08:06:12.62	118.19	1.50	-45.6	-60.5	3.6	1.51e+00	0	40	104	0	60	42896
2026-01-30 08:06:15.56	117.99	1.69	-45.0	-59.8	3.6	1.51e+00	0	40	104	0	60	39565
2026-01-30 08:06:18.49	117.78	1.87	-44.9	-59.8	3.6	1.51e+00	0	40	104	0	60	39705
2026-01-30 08:06:21.43	117.57	2.06	-44.9	-59.8	3.6	1.51e+00	0	41	104	0	60	39563
2026-01-30 08:06:24.39	117.35	2.25	-44.9	-59.8	3.6	1.51e+00	0	40	104	0	60	39672
2026-01-30 08:06:27.33	117.14	2.44	-44.9	-59.8	3.6	1.51e+00	0	40	104	0	60	39648
2026-01-30 08:06:30.26	116.91	2.64	-44.9	-59.8	3.6	1.51e+00	0	41	104	0	60	39489
2026-01-30 08:06:33.20	116.69	2.83	-44.9	-59.8	3.6	1.51e+00	0	40	104	0	60	39544
2026-01-30 08:06:36.14	116.46	3.03	-44.9	-59.8	3.6	1.51e+00	0	41	104	0	60	39578
2026-01-30 08:06:39.07	116.22	3.22	-44.9	-59.8	3.6	1.51e+00	0	40	104	0	60	39645
2026-01-30 08:06:42.02	115.98	3.42	-44.9	-59.7	3.6	1.51e+00	0	41	104	0	60	39349
2026-01-30 08:06:44.95	115.74	3.62	-44.9	-59.8	3.6	1.51e+00	0	41	104	0	60	39528
2026-01-30 08:06:47.89	115.49	3.82	-44.9	-60.0	3.6	1.51e+00	0	41	104	0	60	40732
2026-01-30 08:06:50.83	115.24	4.03	-44.9	-59.8	3.6	1.51e+00	0	41	104	0	60	39561
2026-01-30 08:06:53.77	114.99	4.23	-44.7	-60.0	3.6	1.51e+00	0	41	104	0	60	40417
2026-01-30 08:06:56.70	114.73	4.44	-44.5	-59.9	3.6	1.51e+00	0	41	104	0	60	40089
2026-01-30 08:06:59.64	114.46	4.65	-45.2	-60.0	3.6	1.51e+00	0	41	104	0	60	40602
2026-01-30 08:07:02.59	114.19	4.86	-45.0	-59.9	3.6	1.51e+00	0	41	104	0	60	40193
2026-01-30 08:07:05.53	113.91	5.07	-45.2	-60.0	3.6	1.51e+00	0	41	104	0	60	40604
2026-01-30 08:07:08.46	113.63	5.28	-45.3	-60.1	3.6	1.51e+00	0	41	104	0	60	40851
2026-01-30 08:07:11.40	113.34	5.50	-45.3	-60.1	3.6	1.51e+00	0	41	104	0	60	40966
2026-01-30 08:07:14.34	113.05	5.71	-45.3	-60.2	3.6	1.51e+00	0	41	104	0	60	41326
2026-01-30 08:07:17.28	112.75	5.93	-45.2	-60.1	3.6	1.51e+00	0	41	104	0	60	40930
2026-01-30 08:07:20.21	112.45	6.15	-45.4	-60.2	3.6	1.51e+00	0	41	104	0	60	41268
2026-01-30 08:07:23.15	112.14	6.38	-45.3	-60.2	3.6	1.51e+00	0	41	104	0	60	41319
2026-01-30 08:07:26.09	111.82	6.60	-45.2	-60.2	3.6	1.51e+00	0	41	104	0	60	41553
2026-01-30 08:07:29.02	111.50	6.83	-45.3	-60.1	3.6	1.51e+00	0	41	104	0	60	41245
2026-01-30 08:07:31.96	111.17	7.05	-45.5	-60.2	3.6	1.51e+00	0	41	104	0	60	41674
2026-01-30 08:07:34.90	110.83	7.28	-45.2	-60.2	3.6	1.51e+00	0	41	104	0	60	41546
2026-01-30 08:07:37.84	110.49	7.52	-45.1	-60.3	3.6	1.51e+00	0	41	104	0	60	41779
2026-01-30 08:07:40.77	110.14	7.75	-45.2	-60.2	3.6	1.51e+00	0	41	104	0	60	41705
2026-01-30 08:07:43.72	109.78	7.99	-45.2	-60.3	3.6	1.51e+00	0	41	104	0	60	42097
2026-01-30 08:07:46.65	109.41	8.22	-45.3	-60.3	3.6	1.51e+00	0	41	104	0	60	41786
2026-01-30 08:07:49.58	109.04	8.46	-45.3	-60.3	3.6	1.51e+00	0	41	104	0	60	42175
2026-01-30 08:07:52.52	108.66	8.71	-45.2	-60.4	3.6	1.51e+00	0	41	104	0	60	42322
2026-01-30 08:07:55.47	108.27	8.95	-45.0	-60.4	3.6	1.51e+00	0	41	104	0	60	42252
2026-01-30 08:07:58.40	107.87	9.20	-45.2	-60.4	3.5	1.51e+00	0	41	104	0	60	42346
2026-01-30 08:08:01.34	107.47	9.45	-45.5	-60.4	3.6	1.51e+00	0	41	104	0	60	42260
2026-01-30 08:08:04.27	107.05	9.70	-45.5	-60.4	3.5	1.51e+00	0	41	104	0	60	42655
2026-01-30 08:08:07.21	106.63	9.95	-45.0	-60.4	3.6	1.51e+00	0	41	104	0	60	42285
2026-01-30 08:08:10.15	106.20	10.21	-45.2	-60.5	3.6	1.51e+00	0	41	104	0	60	42835
2026-01-30 08:08:13.07	105.76	10.46	-45.4	-60.4	3.6	1.51e+00	0	41	104	0	60	42609
2026-01-30 08:08:16.01	105.30	10.72	-45.6	-60.5	3.6	1.51e+00	0	41	104	0	60	42995
2026-01-30 08:08:18.94	104.84	10.98	-45.6	-60.5	3.6	1.51e+00	0	41	104	0	60	42921
2026-01-30 08:08:21.89	104.37	11.25	-45.8	-60.5	3.6	1.51e+00	0	41	104	0	60	42998
2026-01-30 08:08:24.82	103.88	11.51	-45.4	-60.5	3.6	1.51e+00	0	41	104	0	60	43022
2026-01-30 08:08:27.76	103.39	11.78	-45.6	-60.6	3.6	1.51e+00	0	41	104	0	60	43223
2026-01-30 08:08:30.70	102.88	12.05	-45.4	-60.5	3.6	1.51e+00	0	41	104	0	60	43017
2026-01-30 08:08:33.65	102.36	12.32	-45.4	-60.5	3.6	1.51e+00	0	41	104	0	60	43160
2026-01-30 08:08:36.60	101.83	12.60	-45.3	-60.5	3.6	1.51e+00	0	41	104	0	60	43123
2026-01-30 08:08:39.54	101.29	12.88	-45.5	-60.6	3.6	1.51e+00	0	41	104	0	60	43314
2026-01-30 08:08:42.47	100.73	13.15	-45.1	-60.5	3.6	1.51e+00	0	41	104	0	60	43176
2026-01-30 08:08:45.41	100.17	13.43	-45.8	-60.6	3.6	1.51e+00	0	41	104	0	60	43288
2026-01-30 08:08:48.35	99.58	13.72	-44.9	-60.6	3.6	1.51e+00	0	41	104	0	60	43416
2026-01-30 08:08:51.28	98.99	14.00	-45.1	-60.6	3.6	1.51e+00	0	41	104	0	60	43401
2026-01-30 08:08:54.22	98.38	14.28	-45.5	-60.6	3.6	1.51e+00	0	41	104	0	60	43459
2026-01-30 08:08:57.15	97.76	14.57	-45.7	-60.6	3.6	1.51e+00	0	41	104	0	60	43254
2026-01-30 08:09:00.09	97.12	14.86	-45.5	-60.6	3.6	1.51e+00	0	41	104	0	60	43636
2026-01-30 08:09:03.04	96.47	15.15	-45.7	-60.6	3.6	1.51e+00	0	41	104	0	60	43648
2026-01-30 08:09:05.99	95.80	15.44	-45.8	-60.7	3.6	1.51e+00	0	41	104	0	60	43870
2026-01-30 08:09:08.93	95.11	15.73	-45.8	-60.7	3.6	1.51e+00	0	41	104	0	60	43846
2026-01-30 08:09:11.88	94.41	16.03	-45.5	-60.7	3.6	1.51e+00	0	41	104	0	60	43749
2026-01-30 08:09:14.83	93.69	16.32	-45.1	-60.7	3.6	1.51e+00	0	41	104	0	60	43719
2026-01-30 08:09:17.76	92.96	16.61	-45.8	-60.7	3.6	1.51e+00	0	41	104	0	60	43892
2026-01-30 08:09:20.71	92.21	16.91	-45.5	-60.7	3.6	1.51e+00	0	41	104	0	60	44130
2026-01-30 08:09:23.66	91.44	17.20	-45.2	-60.7	3.6	1.51e+00	0	41	104	0	60	43816
2026-01-30 08:09:26.59	90.65	17.50	-45.4	-60.7	3.6	1.51e+00	0	42	104	0	60	43874
2026-01-30 08:09:29.54	89.85	17.79	-45.8	-60.7	3.6	1.51e+00	0	41	104	0	60	44128
2026-01-30 08:09:32.48	89.02	18.08	-45.0	-60.7	3.6	1.51e+00	0	41	104	0	60	43838
2026-01-30 08:09:35.42	88.18	18.38	-45.6	-60.7	3.6	1.51e+00	0	41	104	0	60	44014
2026-01-30 08:09:38.35	87.32	18.66	-46.0	-60.7	3.6	1.51e+00	0	41	104	0	60	44042
2026-01-30 08:09:41.30	86.44	18.95	-45.9	-60.8	3.6	1.51e+00	0	41	104	0	60	44290
2026-01-30 08:09:44.23	85.54	19.24	-44.5	-60.8	3.6	1.51e+00	0	41	104	0	60	44634
2026-01-30 08:09:47.18	84.62	19.52	-43.9	-60.8	3.6	1.51e+00	0	41	104	0	60	44324
2026-01-30 08:09:50.10	83.69	19.80	-46.1	-60.8	3.6	1.51e+00	0	41	104	0	60	44405
2026-01-30 08:09:53.05	82.73	20.08	-45.5	-60.8	3.6	1.51e+00	0	41	104	0	60	44397
2026-01-30 08:09:55.99	81.75	20.35	-46.0	-60.8	3.6	1.51e+00	0	41	104	0	60	44401
2026-01-30 08:09:58.93	80.75	20.62	-45.7	-60.8	3.6	1.51e+00	0	41	104	0	60	44397
2026-01-30 08:10:01.87	79.73	20.89	-45.5	-60.8	3.6	1.51e+00	0	41	104	0	60	44424
2026-01-30 08:10:04.80	78.69	21.15	-45.9	-60.8	3.6	1.51e+00	0	41	104	0	60	44685
2026-01-30 08:10:07.75	77.63	21.40	-46.0	-60.8	3.6	1.51e+00	0	41	104	0	60	44589
2026-01-30 08:10:10.69	76.55	21.65	-45.8	-60.8	3.6	1.51e+00	0	41	104	0	60	44683
2026-01-30 08:10:13.63	75.46	21.89	-46.0	-60.9	3.5	1.51e+00	0	41	104	0	60	44761
2026-01-30 08:10:16.57	74.34	22.12	-44.7	-60.9	3.6	1.51e+00	0	41	104	0	60	44741
2026-01-30 08:10:19.50	73.21	22.34	-45.3	-60.9	3.6	1.51e+00	0	41	104	0	60	44769
2026-01-30 08:10:22.44	72.05	22.56	-45.9	-60.8	3.6	1.51e+00	0	41	104	0	60	44600
2026-01-30 08:10:25.38	70.88	22.76	-46.1	-60.9	3.6	1.51e+00	0	41	104	0	60	44831
2026-01-30 08:10:28.31	69.69	22.96	-45.8	-60.9	3.6	1.51e+00	0	41	104	0	60	44915
2026-01-30 08:10:31.26	68.48	23.15	-45.5	-60.9	3.5	1.51e+00	0	41	104	0	60	44921
2026-01-30 08:10:34.20	67.26	23.32	-46.2	-60.9	3.6	1.51e+00	0	41	104	0	60	44786
2026-01-30 08:10:37.14	66.02	23.49	-45.6	-60.9	3.6	1.51e+00	0	41	104	0	60	44916
2026-01-30 08:10:40.08	64.77	23.64	-44.4	-60.9	3.6	1.51e+00	0	41	104	0	60	44988
2026-01-30 08:10:43.02	63.51	23.78	-45.1	-60.8	3.6	1.51e+00	0	41	104	0	60	44593
2026-01-30 08:10:45.96	62.23	23.90	-46.1	-60.9	3.5	1.51e+00	0	41	104	0	60	44792
2026-01-30 08:10:48.89	60.95	24.02	-46.1	-60.9	3.6	1.51e+00	0	41	104	0	60	44922
2026-01-30 08:10:51.82	59.65	24.12	-46.1	-60.9	3.6	1.51e+00	0	41	104	0	60	44900
2026-01-30 08:10:54.76	58.35	24.20	-46.1	-60.9	3.6	1.51e+00	0	41	104	0	60	44865
2026-01-30 08:10:57.69	57.04	24.27	-45.9	-60.9	3.6	1.51e+00	0	42	104	0	60	45114
2026-01-30 08:11:00.62	55.72	24.33	-46.0	-60.9	3.6	1.51e+00	0	41	104	0	60	44928
2026-01-30 08:11:03.57	54.39	24.37	-46.0	-60.9	3.6	1.51e+00	0	41	104	0	60	44977
2026-01-30 08:11:06.51	53.07	24.39	-45.7	-60.9	3.6	1.51e+00	0	41	104	0	60	45151
2026-01-30 08:11:09.44	51.74	24.40	-45.0	-60.9	3.6	1.51e+00	0	42	104	0	60	45096
2026-01-30 08:11:12.37	50.42	24.40	-45.5	-60.9	3.6	1.51e+00	0	41	104	0	60	44965
2026-01-30 08:11:15.31	49.09	24.38	-46.1	-60.9	3.6	1.51e+00	0	41	104	0	60	44845
2026-01-30 08:11:18.26	47.76	24.35	-45.9	-60.9	3.6	1.51e+00	0	41	104	0	60	44977
2026-01-30 08:11:21.20	46.44	24.30	-46.1	-60.9	3.6	1.51e+00	0	41	104	0	60	44799
2026-01-30 08:11:24.15	45.12	24.23	-46.2	-60.9	3.6	1.51e+00	0	41	104	0	60	44856
2026-01-30 08:11:27.08	43.81	24.15	-46.1	-60.9	3.6	1.51e+00	0	41	104	0	60	44871
2026-01-30 08:11:30.02	42.51	24.06	-45.8	-60.9	3.6	1.51e+00	0	41	104	0	60	44898
2026-01-30 08:11:32.96	41.22	23.95	-46.1	-60.9	3.6	1.51e+00	0	41	104	0	60	44974
2026-01-30 08:11:35.90	39.94	23.83	-45.8	-60.9	3.6	1.51e+00	0	41	104	0	60	45071
2026-01-30 08:11:38.83	38.67	23.70	-45.9	-60.9	3.6	1.51e+00	0	41	104	0	60	44928
2026-01-30 08:11:41.76	37.42	23.55	-45.3	-60.9	3.6	1.51e+00	0	41	104	0	60	44931
2026-01-30 08:11:44.70	36.18	23.39	-46.2	-60.9	3.6	1.51e+00	0	41	104	0	60	44975
2026-01-30 08:11:47.64	34.95	23.22	-46.1	-60.9	3.6	1.51e+00	0	41	104	0	60	45146
2026-01-30 08:11:50.58	33.73	23.04	-46.0	-60.9	3.6	1.51e+00	0	41	104	0	60	44786
2026-01-30 08:11:53.53	32.53	22.85	-46.0	-60.9	3.6	1.51e+00	0	41	104	0	60	44785
2026-01-30 08:11:56.48	31.35	22.64	-46.2	-60.9	3.6	1.51e+00	0	41	104	0	60	44859
2026-01-30 08:11:59.42	30.18	22.43	-46.1	-60.9	3.6	1.51e+00	0	41	104	0	60	44981
2026-01-30 08:12:02.36	29.04	22.21	-46.2	-60.9	3.6	1.51e+00	0	41	104	0	60	44929
2026-01-30 08:12:05.30	27.91	21.98	-46.1	-60.9	3.6	1.51e+00	0	41	104	0	60	45035
2026-01-30 08:12:08.24	26.81	21.74	-46.1	-60.9	3.6	1.51e+00	0	41	104	0	60	44770
2026-01-30 08:12:11.17	25.72	21.50	-46.1	-60.8	3.6	1.51e+00	0	41	104	0	60	44562
2026-01-30 08:12:14.10	24.66	21.25	-46.1	-60.9	3.6	1.51e+00	0	42	104	0	60	44860
2026-01-30 08:12:17.04	23.61	20.99	-46.1	-60.8	3.6	1.51e+00	0	41	104	0	60	44617
2026-01-30 08:12:19.98	22.59	20.73	-46.2	-60.9	3.6	1.51e+00	0	42	104	0	60	44777
2026-01-30 08:12:22.92	21.58	20.46	-46.1	-60.8	3.6	1.51e+00	0	42	104	0	60	44555
2026-01-30 08:12:25.87	20.59	20.19	-46.2	-60.8	3.6	1.51e+00	0	42	104	0	60	44671
2026-01-30 08:12:28.80	19.62	19.92	-46.1	-60.8	3.6	1.51e+00	0	41	104	0	60	44693
2026-01-30 08:12:31.74	18.67	19.64	-46.0	-60.8	3.6	1.51e+00	0	42	104	0	60	44684
2026-01-30 08:12:34.69	17.74	19.35	-46.1	-60.8	3.6	1.51e+00	0	41	104	0	60	44344
2026-01-30 08:12:37.63	16.84	19.07	-46.0	-60.8	3.6	1.51e+00	0	41	104	0	60	44484
2026-01-30 08:12:40.56	15.95	18.78	-46.1	-60.8	3.6	1.51e+00	0	42	104	0	60	44437
2026-01-30 08:12:43.51	15.08	18.49	-46.1	-60.8	3.6	1.51e+00	0	41	104	0	60	44239
2026-01-30 08:12:46.45	14.23	18.20	-46.0	-60.7	3.6	1.51e+00	0	42	104	0	60	44158
2026-01-30 08:12:49.39	13.40	17.91	-46.0	-60.7	3.6	1.51e+00	0	41	104	0	60	44196
2026-01-30 08:12:52.33	12.59	17.61	-46.1	-60.8	3.6	1.51e+00	0	41	104	0	60	44227
2026-01-30 08:12:55.27	11.79	17.32	-46.0	-60.7	3.6	1.51e+00	0	42	104	0	60	43869
2026-01-30 08:12:58.21	11.02	17.02	-46.0	-60.8	3.6	1.51e+00	0	42	104	0	60	44342
2026-01-30 08:13:01.14	10.26	16.73	-46.0	-60.7	3.6	1.51e+00	0	42	104	0	60	44134
2026-01-30 08:13:04.09	9.52	16.44	-46.0	-60.7	3.5	1.51e+00	0	42	104	0	60	43976
2026-01-30 08:13:07.04	8.79	16.14	-46.0	-60.7	3.6	1.51e+00	0	42	104	0	60	44203
2026-01-30 08:13:09.98	8.09	15.85	-46.1	-60.8	3.6	1.51e+00	0	42	104	0	60	44405
2026-01-30 08:13:12.93	7.39	15.55	-46.1	-60.8	3.6	1.51e+00	0	42	104	0	60	44315
2026-01-30 08:13:15.88	6.72	15.26	-46.0	-60.7	3.6	1.51e+00	0	42	104	0	60	44149
2026-01-30 08:13:18.82	6.06	14.97	-46.0	-60.7	3.6	1.51e+00	0	42	104	0	60	43729
2026-01-30 08:13:21.76	5.41	14.68	-45.9	-60.7	3.6	1.51e+00	0	42	104	0	60	43901
2026-01-30 08:13:24.70	4.78	14.39	-46.0	-60.7	3.6	1.51e+00	0	42	104	0	60	43820
2026-01-30 08:13:27.64	4.17	14.11	-45.9	-60.7	3.6	1.51e+00	0	42	104	0	60	43783
2026-01-30 08:13:30.59	3.57	13.82	-45.9	-60.7	3.6	1.51e+00	0	42	104	0	60	43839
2026-01-30 08:13:33.53	2.98	13.54	-46.0	-60.6	3.6	1.51e+00	0	41	104	0	60	43686
2026-01-30 08:13:36.46	2.41	13.26	-45.9	-60.7	3.6	1.51e+00	0	42	104	0	60	43722
2026-01-30 08:13:39.40	1.85	12.98	-45.9	-60.6	3.6	1.51e+00	0	42	104	0	60	43510
2026-01-30 08:13:42.34	1.30	12.70	-46.0	-60.7	3.6	1.51e+00	0	42	104	0	60	44154
2026-01-30 08:13:45.28	0.77	12.43	-46.1	-60.8	3.6	1.51e+00	0	42	104	0	60	44394
2026-01-30 08:13:48.23	0.24	12.15	-46.0	-60.6	3.6	1.51e+00	0	42	104	0	60	43639
2026-01-30 08:13:51.17	359.73	11.88	-45.9	-60.6	3.6	1.51e+00	0	42	104	0	60	43332
2026-01-30 08:13:54.11	359.23	11.61	-45.8	-60.5	3.6	1.51e+00	0	42	104	0	60	43190
2026-01-30 08:13:57.06	358.74	11.34	-45.6	-60.5	3.6	1.51e+00	0	41	104	0	60	43073
2026-01-30 08:13:59.99	358.27	11.08	-45.8	-60.6	3.6	1.51e+00	0	41	104	0	60	43428
2026-01-30 08:14:02.93	357.80	10.81	-45.8	-60.5	3.6	1.51e+00	0	41	104	0	60	43093
2026-01-30 08:14:05.88	357.34	10.55	-45.8	-60.5	3.6	1.51e+00	0	41	104	0	60	43173
2026-01-30 08:14:08.81	356.90	10.29	-45.8	-60.5	3.6	1.51e+00	0	42	104	0	60	42880
2026-01-30 08:14:11.76	356.46	10.04	-45.8	-60.6	3.6	1.51e+00	0	42	104	0	60	43213
2026-01-30 08:14:14.71	356.03	9.78	-45.8	-60.5	3.6	1.51e+00	0	42	104	0	60	43034
2026-01-30 08:14:17.66	355.61	9.53	-45.8	-60.5	3.6	1.51e+00	0	42	104	0	60	42816
2026-01-30 08:14:20.60	355.20	9.28	-45.7	-60.4	3.6	1.51e+00	0	42	104	0	60	42490
2026-01-30 08:14:23.54	354.80	9.03	-45.7	-60.6	3.6	1.51e+00	0	42	104	0	60	43325
2026-01-30 08:14:26.50	354.41	8.78	-45.8	-60.5	3.6	1.51e+00	0	42	104	0	60	43071
2026-01-30 08:14:29.43	354.03	8.54	-45.7	-60.4	3.6	1.51e+00	0	42	104	0	60	42627
2026-01-30 08:14:32.37	353.65	8.30	-45.8	-60.5	3.6	1.51e+00	0	42	104	0	60	42937
2026-01-30 08:14:35.32	353.28	8.06	-45.9	-60.6	3.6	1.51e+00	0	42	104	0	60	43467
2026-01-30 08:14:38.26	352.92	7.82	-46.0	-60.7	3.6	1.51e+00	0	42	104	0	60	43807
2026-01-30 08:14:41.20	352.57	7.59	-45.7	-60.4	3.6	1.51e+00	0	42	104	0	60	42620
2026-01-30 08:14:44.14	352.22	7.35	-45.9	-60.5	3.6	1.51e+00	0	42	104	0	60	42891
2026-01-30 08:14:47.08	351.89	7.12	-45.9	-60.6	3.6	1.51e+00	0	42	104	0	60	43216
2026-01-30 08:14:50.03	351.55	6.89	-45.7	-60.4	3.6	1.51e+00	0	42	104	0	60	42366
2026-01-30 08:14:52.97	351.23	6.66	-45.6	-60.3	3.6	1.51e+00	0	42	104	0	60	42212
2026-01-30 08:14:55.90	350.91	6.44	-45.8	-60.5	3.6	1.51e+00	0	42	104	0	60	42986
2026-01-30 08:14:58.84	350.60	6.22	-45.7	-60.6	3.6	1.51e+00	0	42	104	0	60	43227
2026-01-30 08:15:01.79	350.29	5.99	-45.5	-60.3	3.6	1.51e+00	0	42	104	0	60	41975
2026-01-30 08:15:04.71	350.00	5.77	-45.7	-60.4	3.6	1.51e+00	0	41	104	0	60	42605
2026-01-30 08:15:07.65	349.70	5.56	-45.9	-60.6	3.6	1.51e+00	0	42	104	0	60	43497
2026-01-30 08:15:10.60	349.41	5.34	-45.7	-60.5	3.6	1.51e+00	0	41	104	0	60	42718
2026-01-30 08:15:13.53	349.13	5.13	-45.3	-60.1	3.6	1.51e+00	0	41	104	0	60	40944
2026-01-30 08:15:16.47	348.85	4.91	-45.3	-60.3	3.6	1.51e+00	0	42	104	0	60	42022
2026-01-30 08:15:19.40	348.58	4.70	-45.7	-60.4	3.6	1.51e+00	0	42	104	0	60	42512
2026-01-30 08:15:22.34	348.31	4.49	-44.4	-59.1	3.6	1.51e+00	0	42	104	0	60	36458
2026-01-30 08:15:25.28	348.05	4.29	-45.2	-59.9	3.6	1.51e+00	0	41	104	0	60	39906
2026-01-30 08:15:28.21	347.80	4.08	-42.7	-57.5	3.6	1.51e+00	0	41	104	0	60	30555
2026-01-30 08:15:31.15	347.54	3.88	-41.9	-56.6	3.6	1.51e+00	0	42	104	0	60	27358
2026-01-30 08:15:34.09	347.30	3.68	-42.2	-57.0	3.6	1.51e+00	0	42	104	0	60	28551
2026-01-30 08:15:37.02	347.05	3.47	-41.9	-56.6	3.6	1.51e+00	0	42	104	0	60	27518
2026-01-30 08:15:39.97	346.81	3.27	-41.5	-56.2	3.5	1.51e+00	0	42	104	0	58	29519
2026-01-30 08:15:42.92	346.58	3.08	-41.4	-56.2	3.6	1.51e+00	0	42	104	0	58	29274
2026-01-30 08:15:45.85	346.35	2.88	-44.2	-58.9	3.6	1.51e+00	0	42	104	0	60	35853
2026-01-30 08:15:48.78	346.12	2.69	-46.1	-60.9	3.6	1.51e+00	0	42	104	0	60	44966
2026-01-30 08:15:51.72	345.90	2.49	-46.6	-61.2	3.6	1.51e+00	0	42	104	0	60	46716
2026-01-30 08:15:54.67	345.68	2.30	-46.9	-61.6	3.6	1.51e+00	0	42	104	0	60	49032
2026-01-30 08:15:57.61	345.47	2.11	-46.7	-61.5	3.6	1.51e+00	0	42	104	0	60	47939
2026-01-30 08:16:00.55	345.26	1.92	-46.7	-61.5	3.6	1.51e+00	0	42	104	0	60	48246
2026-01-30 08:16:03.48	345.05	1.73	-46.3	-61.1	3.6	1.51e+00	0	42	104	0	60	46025
2026-01-30 08:16:06.42	344.85	1.54	-46.5	-61.3	3.6	1.51e+00	0	42	104	0	60	46848
2026-01-30 08:16:09.36	344.65	1.36	-46.5	-61.2	3.5	1.51e+00	0	42	104	0	60	46589
2026-01-30 08:16:12.30	344.45	1.17	-46.4	-61.2	3.6	1.51e+00	0	42	104	0	60	46486
2026-01-30 08:16:15.27	344.25	0.99	-46.4	-61.2	3.6	1.51e+00	0	41	104	0	60	46323
2026-01-30 08:16:18.22	344.06	0.81	-46.4	-61.1	3.6	1.51e+00	0	41	104	0	60	46019
2026-01-30 08:16:21.18	343.87	0.63	-46.4	-61.1	3.6	1.51e+00	0	42	104	0	60	45985
2026-01-30 08:16:24.14	343.69	0.44	-46.4	-61.1	3.6	1.51e+00	0	42	104	0	60	46145
2026-01-30 08:16:27.08	343.51	0.27	-46.4	-61.1	3.6	1.51e+00	0	42	104	0	60	45942
2026-01-30 08:16:30.09	343.33	0.09	-46.4	-61.1	3.6	1.51e+00	0	41	104	0	60	45945
2026-01-30 08:16:33.08	343.15	-0.09	-46.4	-61.1	3.6	1.51e+00	0	41	104	0	60	46007

#Closed at: 2026-01-30 08:16:33
#Recorded file [0 MB]: D:/lorett/data/35029_260130_200552.dat