passes_logs/2026/01/30/R4.6S_Anadyr/R4.6S_Anadyr__20260130_141935_FENGYUN_3D_rec.log

#Pass ID: 20260130_141935_FENGYUN 3D
#Satellite: FENGYUN 3D
#Configuration: FENGYUN 3D
#almurnet v.1.7.20251203
#Start time: 2026-01-30 14:19:36

#Version: 2.2.20231116
#Station: R4.6S_Anadyr
#Location: 177.4865 lon 64.73178 lat
#TLE: 1 43010U 17072A   26029.52179110  .00000394  00000+0  20818-3 0  9997
#TLE: 2 43010  98.9957   1.5649 0002507  83.7772 276.3689 14.19703315425310

#Time	Az	El	Level	Level2	SNR	BER	BlckErr	Temp	State	Recorded	gain1	gain2
2026-01-30 14:19:36.54	19.90	0.04	-49.5	-64.5	3.5	1.51e+00	0	38	0	0	60	60434
2026-01-30 14:19:40.57	20.22	0.23	-49.4	-61.6	3.6	8.46e-01	0	40	104	0	60	43475
2026-01-30 14:19:44.61	20.54	0.42	-49.5	-61.7	3.6	8.45e-01	0	40	104	0	60	43848
2026-01-30 14:19:48.65	20.87	0.61	-49.5	-61.7	3.6	8.45e-01	0	40	104	0	60	43920
2026-01-30 14:19:52.68	21.20	0.80	-49.3	-61.5	3.6	8.45e-01	0	40	104	0	60	42722
2026-01-30 14:19:56.73	21.53	0.99	-49.0	-61.1	3.6	8.43e-01	0	40	104	0	60	40805
2026-01-30 14:20:00.76	21.87	1.18	-48.2	-60.2	3.6	8.46e-01	0	40	104	0	60	37034
2026-01-30 14:20:04.80	22.21	1.38	-48.0	-60.0	3.6	8.45e-01	0	40	104	0	60	36308
2026-01-30 14:20:08.84	22.56	1.57	-48.0	-60.0	3.6	8.45e-01	0	40	104	0	60	36174
2026-01-30 14:20:12.88	22.91	1.77	-48.0	-60.1	3.6	8.46e-01	0	40	104	0	60	36574
2026-01-30 14:20:16.92	23.27	1.96	-47.9	-59.8	3.6	8.45e-01	0	40	104	0	60	35223
2026-01-30 14:20:20.96	23.63	2.16	-47.9	-59.9	3.6	8.45e-01	0	40	104	0	60	35776
2026-01-30 14:20:25.01	23.99	2.35	-47.9	-59.5	3.6	8.45e-01	0	40	104	0	60	34063
2026-01-30 14:20:29.05	24.36	2.55	-47.8	-58.9	3.6	8.45e-01	0	40	104	0	60	31825
2026-01-30 14:20:33.09	24.74	2.75	-39.6	-40.7	18.4	0.00e+00	0	40	0	13631488	54	5523
2026-01-30 14:20:37.13	25.12	2.94	-37.6	-38.5	20.5	0.00e+00	0	40	0	36700160	46	6776
2026-01-30 14:20:41.17	25.50	3.14	-47.6	-58.2	3.8	5.48e-01	0	40	104	56623104	60	29265
2026-01-30 14:20:45.21	25.89	3.34	-39.4	-40.5	18.7	0.00e+00	0	40	0	68157440	52	6056
2026-01-30 14:20:49.25	26.28	3.54	-37.1	-37.9	21.2	0.00e+00	0	40	0	90177536	48	5691
2026-01-30 14:20:53.29	26.68	3.74	-37.1	-38.0	21.4	0.00e+00	0	40	0	113246208	46	6406
2026-01-30 14:20:57.32	27.09	3.94	-36.6	-37.4	21.9	0.00e+00	0	40	0	136314880	46	6000
2026-01-30 14:21:01.36	27.50	4.14	-36.6	-37.4	21.8	0.00e+00	0	40	0	159383552	46	6016
2026-01-30 14:21:05.40	27.91	4.34	-36.3	-37.1	22.2	0.00e+00	0	40	0	181403648	46	5822
2026-01-30 14:21:09.43	28.33	4.54	-36.1	-36.9	22.3	0.00e+00	0	40	0	204472320	46	5695
2026-01-30 14:21:13.47	28.76	4.74	-36.4	-37.2	22.1	0.00e+00	0	41	0	227540992	46	5870
2026-01-30 14:21:17.51	29.19	4.94	-35.9	-36.7	22.6	0.00e+00	0	40	0	249561088	46	5510
2026-01-30 14:21:21.55	29.62	5.14	-36.2	-37.0	22.4	0.00e+00	0	40	0	272629760	44	6403
2026-01-30 14:21:25.59	30.07	5.34	-36.5	-37.3	22.2	0.00e+00	0	41	0	294649856	46	5913
2026-01-30 14:21:29.63	30.52	5.54	-35.7	-36.5	22.9	0.00e+00	0	41	0	317718528	46	5407
2026-01-30 14:21:33.67	30.97	5.74	-35.7	-36.5	23.0	0.00e+00	0	41	0	340787200	44	6046
2026-01-30 14:21:37.71	31.43	5.94	-35.5	-36.3	23.1	0.00e+00	0	41	0	363855872	44	5914
2026-01-30 14:21:41.75	31.90	6.14	-35.5	-36.3	23.2	0.00e+00	0	41	0	385875968	44	5911
2026-01-30 14:21:45.79	32.37	6.35	-35.3	-36.1	23.4	0.00e+00	0	41	0	408944640	44	5795
2026-01-30 14:21:49.83	32.85	6.55	-35.2	-36.0	23.5	0.00e+00	0	41	0	432013312	44	5712
2026-01-30 14:21:53.88	33.34	6.75	-35.1	-35.9	23.6	0.00e+00	0	41	0	454033408	44	5643
2026-01-30 14:21:57.91	33.83	6.95	-35.2	-35.9	23.5	0.00e+00	0	41	0	477102080	44	5689
2026-01-30 14:22:01.95	34.33	7.15	-35.0	-35.7	23.8	0.00e+00	0	41	0	500170752	44	5538
2026-01-30 14:22:05.99	34.83	7.35	-35.0	-35.7	23.8	0.00e+00	0	41	0	522190848	44	5541
2026-01-30 14:22:10.03	35.34	7.55	-35.2	-36.0	23.6	0.00e+00	0	41	0	545259520	44	5725
2026-01-30 14:22:14.07	35.86	7.75	-34.7	-35.4	24.1	0.00e+00	0	41	0	568328192	42	6000
2026-01-30 14:22:18.11	36.39	7.95	-34.6	-35.3	24.3	0.00e+00	0	41	0	590348288	42	5918
2026-01-30 14:22:22.15	36.92	8.15	-34.7	-35.4	24.2	0.00e+00	0	41	0	613416960	42	5975
2026-01-30 14:22:26.19	37.46	8.35	-34.6	-35.3	24.3	0.00e+00	0	41	0	636485632	42	5944
2026-01-30 14:22:30.23	38.01	8.55	-34.6	-35.3	24.2	0.00e+00	0	41	0	658505728	42	5964
2026-01-30 14:22:34.27	38.56	8.75	-34.7	-35.4	24.2	0.00e+00	0	41	0	681574400	42	6000
2026-01-30 14:22:38.31	39.12	8.94	-34.7	-35.5	24.2	0.00e+00	0	41	0	704643072	42	6035
2026-01-30 14:22:42.34	39.69	9.14	-34.5	-35.2	24.4	0.00e+00	0	41	0	726663168	42	5875
2026-01-30 14:22:46.39	40.27	9.33	-34.4	-35.1	24.5	0.00e+00	0	41	0	749731840	42	5828
2026-01-30 14:22:50.43	40.85	9.53	-34.2	-34.9	24.8	0.00e+00	0	41	0	772800512	42	5666
2026-01-30 14:22:54.47	41.44	9.72	-34.2	-34.9	24.8	0.00e+00	0	41	0	794820608	42	5637
2026-01-30 14:22:58.51	42.04	9.91	-34.1	-34.8	24.8	0.00e+00	0	41	0	817889280	42	5589
2026-01-30 14:23:02.55	42.65	10.10	-34.0	-34.7	24.9	0.00e+00	0	41	0	840957952	42	5529
2026-01-30 14:23:06.59	43.26	10.29	-34.0	-34.7	25.0	0.00e+00	0	41	0	862978048	42	5512
2026-01-30 14:23:10.63	43.89	10.48	-34.2	-34.9	24.8	0.00e+00	0	41	0	886046720	42	5677
2026-01-30 14:23:14.67	44.52	10.67	-34.1	-34.8	24.7	0.00e+00	0	41	0	909115392	42	5622
2026-01-30 14:23:18.71	45.15	10.85	-33.7	-34.4	25.2	0.00e+00	0	41	0	931135488	40	5993
2026-01-30 14:23:22.74	45.80	11.03	-33.7	-34.4	25.3	0.00e+00	0	41	0	954204160	40	5983
2026-01-30 14:23:26.78	46.45	11.21	-33.6	-34.3	25.3	0.00e+00	0	41	0	977272832	40	5927
2026-01-30 14:23:30.82	47.11	11.39	-33.6	-34.2	25.4	0.00e+00	0	41	0	999292928	40	5892
2026-01-30 14:23:34.85	47.78	11.57	-33.3	-34.0	25.6	0.00e+00	0	41	0	1022361600	40	5732
2026-01-30 14:23:38.89	48.45	11.74	-33.4	-34.0	25.5	0.00e+00	0	41	0	1045430272	40	5748
2026-01-30 14:23:42.93	49.14	11.92	-33.5	-34.1	25.4	0.00e+00	0	41	0	1067450368	40	5803
2026-01-30 14:23:46.97	49.83	12.09	-33.6	-34.2	25.2	0.00e+00	0	41	0	1090519040	40	5874
2026-01-30 14:23:51.01	50.53	12.25	-33.5	-34.2	25.5	0.00e+00	0	41	0	1113587712	40	5831
2026-01-30 14:23:55.05	51.24	12.42	-33.1	-33.8	25.9	0.00e+00	0	41	0	1135607808	40	5583
2026-01-30 14:23:59.09	51.95	12.58	-33.3	-34.0	25.6	0.00e+00	0	41	0	1158676480	40	5712
2026-01-30 14:24:03.13	52.68	12.74	-33.5	-34.1	25.4	0.00e+00	0	41	0	1181745152	40	5803
2026-01-30 14:24:07.17	53.41	12.89	-33.1	-33.8	25.8	0.00e+00	0	41	0	1203765248	40	5586
2026-01-30 14:24:11.20	54.14	13.05	-32.9	-33.6	25.9	0.00e+00	0	41	0	1226833920	40	5457
2026-01-30 14:24:15.24	54.89	13.19	-33.2	-33.9	25.8	0.00e+00	0	41	0	1249902592	40	5671
2026-01-30 14:24:19.28	55.64	13.34	-33.0	-33.7	25.8	0.00e+00	0	41	0	1271922688	40	5505
2026-01-30 14:24:23.32	56.40	13.48	-32.8	-33.5	26.1	0.00e+00	0	41	0	1294991360	38	6041
2026-01-30 14:24:27.36	57.17	13.62	-32.9	-33.6	26.0	0.00e+00	0	41	0	1318060032	38	6143
2026-01-30 14:24:31.39	57.94	13.75	-33.3	-33.9	25.7	0.00e+00	0	41	0	1340080128	38	6383
2026-01-30 14:24:35.43	58.72	13.88	-33.0	-33.6	25.9	0.00e+00	0	41	0	1363148800	38	6156
2026-01-30 14:24:39.47	59.51	14.01	-33.0	-33.7	25.9	0.00e+00	0	41	0	1386217472	38	6196
2026-01-30 14:24:43.51	60.30	14.13	-33.1	-33.7	25.5	0.00e+00	0	41	0	1408237568	38	6223
2026-01-30 14:24:47.55	61.10	14.25	-32.9	-33.5	26.0	0.00e+00	0	41	0	1431306240	38	6056
2026-01-30 14:24:51.59	61.91	14.36	-32.6	-33.3	26.1	0.00e+00	0	41	0	1454374912	38	5931
2026-01-30 14:24:55.63	62.72	14.47	-32.8	-33.4	26.0	0.00e+00	0	41	0	1476395008	38	5989
2026-01-30 14:24:59.67	63.54	14.57	-32.6	-33.2	26.4	0.00e+00	0	41	0	1499463680	38	5889
2026-01-30 14:25:03.70	64.36	14.67	-32.5	-33.1	26.4	0.00e+00	0	41	0	1521483776	38	5792
2026-01-30 14:25:07.73	65.18	14.76	-32.7	-33.3	26.3	0.00e+00	0	41	0	1544552448	38	5961
2026-01-30 14:25:11.78	66.02	14.85	-33.1	-33.8	25.9	0.00e+00	0	41	0	1567621120	38	6275
2026-01-30 14:25:15.82	66.86	14.93	-32.7	-33.4	26.1	0.00e+00	0	41	0	1590689792	38	5968
2026-01-30 14:25:19.86	67.70	15.00	-32.7	-33.4	26.3	0.00e+00	0	41	0	1612709888	38	5990
2026-01-30 14:25:23.90	68.54	15.07	-32.8	-33.4	26.1	0.00e+00	0	41	0	1635778560	38	6020
2026-01-30 14:25:27.94	69.40	15.14	-32.5	-33.2	26.4	0.00e+00	0	41	0	1658847232	38	5860
2026-01-30 14:25:31.98	70.25	15.20	-32.7	-33.3	26.1	0.00e+00	0	41	0	1680867328	38	5960
2026-01-30 14:25:36.01	71.10	15.25	-32.3	-32.9	26.5	0.00e+00	0	41	0	1703936000	38	5672
2026-01-30 14:25:40.05	71.96	15.30	-32.5	-33.1	26.5	0.00e+00	0	41	0	1727004672	38	5806
2026-01-30 14:25:44.09	72.83	15.34	-32.5	-33.2	26.4	0.00e+00	0	41	0	1749024768	38	5863
2026-01-30 14:25:48.13	73.69	15.38	-32.8	-33.4	26.2	0.00e+00	0	41	0	1772093440	38	5999
2026-01-30 14:25:52.17	74.56	15.41	-32.7	-33.3	26.2	0.00e+00	0	41	0	1795162112	38	5961
2026-01-30 14:25:56.21	75.43	15.43	-32.6	-33.3	26.2	0.00e+00	0	41	0	1817182208	38	5934
2026-01-30 14:26:00.24	76.29	15.45	-32.5	-33.1	26.4	0.00e+00	0	41	0	1840250880	38	5821
2026-01-30 14:26:04.28	77.16	15.46	-32.5	-33.2	26.3	0.00e+00	0	41	0	1863319552	38	5856
2026-01-30 14:26:08.32	78.03	15.47	-32.8	-33.5	26.1	0.00e+00	0	41	0	1885339648	38	6085
2026-01-30 14:26:12.35	78.90	15.46	-32.7	-33.4	26.2	0.00e+00	0	41	0	1908408320	38	6012
2026-01-30 14:26:16.39	79.77	15.46	-32.8	-33.5	26.0	0.00e+00	0	41	0	1930428416	38	6069
2026-01-30 14:26:20.44	80.65	15.44	-32.6	-33.2	26.1	0.00e+00	0	41	0	1953497088	38	5853
2026-01-30 14:26:24.48	81.51	15.42	-32.5	-33.2	26.2	0.00e+00	0	41	0	1976565760	38	5879
2026-01-30 14:26:28.51	82.38	15.40	-32.7	-33.4	26.2	0.00e+00	0	41	0	1999634432	38	5970
2026-01-30 14:26:32.55	83.25	15.37	-32.7	-33.4	26.2	0.00e+00	0	41	0	2021654528	38	6008
2026-01-30 14:26:36.59	84.11	15.33	-32.7	-33.3	26.3	0.00e+00	0	41	0	2044723200	38	5957
2026-01-30 14:26:40.63	84.97	15.29	-32.6	-33.2	26.3	0.00e+00	0	41	0	2067791872	38	5887
2026-01-30 14:26:44.67	85.83	15.24	-32.6	-33.3	26.3	0.00e+00	0	41	0	2089811968	38	5957
2026-01-30 14:26:48.71	86.69	15.18	-32.7	-33.3	26.2	0.00e+00	0	41	0	2112880640	38	5931
2026-01-30 14:26:52.75	87.55	15.12	-32.8	-33.5	26.2	0.00e+00	0	41	0	2134900736	38	6048
2026-01-30 14:26:56.79	88.40	15.05	-32.9	-33.6	26.1	0.00e+00	0	41	0	2157969408	38	6119
2026-01-30 14:27:00.82	89.24	14.98	-32.8	-33.4	26.2	0.00e+00	0	41	0	2181038080	38	6033
2026-01-30 14:27:04.86	90.08	14.90	-33.0	-33.7	25.9	0.00e+00	0	41	0	2204106752	38	6201
2026-01-30 14:27:08.90	90.92	14.82	-33.0	-33.7	26.0	0.00e+00	0	41	0	2226126848	38	6237
2026-01-30 14:27:12.94	91.75	14.73	-33.2	-33.9	25.9	0.00e+00	0	41	0	2249195520	38	6381
2026-01-30 14:27:16.98	92.58	14.63	-33.0	-33.6	26.0	0.00e+00	0	41	0	2272264192	38	6163
2026-01-30 14:27:21.02	93.41	14.53	-32.9	-33.5	26.0	0.00e+00	0	41	0	2294284288	38	6083
2026-01-30 14:27:25.06	94.22	14.43	-32.9	-33.5	26.2	0.00e+00	0	41	0	2317352960	38	6065
2026-01-30 14:27:29.10	95.04	14.32	-33.0	-33.6	25.9	0.00e+00	0	41	0	2339373056	38	6172
2026-01-30 14:27:33.14	95.84	14.21	-33.1	-33.7	25.9	0.00e+00	0	41	0	2362441728	38	6207
2026-01-30 14:27:37.18	96.64	14.09	-33.2	-33.8	25.8	0.00e+00	0	41	0	2385510400	38	6308
2026-01-30 14:27:41.22	97.44	13.96	-33.2	-33.9	25.8	0.00e+00	0	41	0	2408579072	38	6346
2026-01-30 14:27:45.26	98.22	13.84	-33.3	-34.0	25.7	0.00e+00	0	41	0	2430599168	38	6429
2026-01-30 14:27:49.30	99.00	13.70	-33.2	-33.9	25.8	0.00e+00	0	41	0	2453667840	38	6336
2026-01-30 14:27:53.34	99.78	13.57	-33.2	-33.9	25.7	0.00e+00	0	41	0	2476736512	38	6325
2026-01-30 14:27:57.38	100.55	13.43	-33.4	-34.0	25.5	0.00e+00	0	41	0	2498756608	38	6444
2026-01-30 14:28:01.42	101.31	13.28	-33.4	-34.0	25.6	0.00e+00	0	41	0	2521825280	38	6447
2026-01-30 14:28:05.46	102.06	13.14	-33.4	-34.1	25.5	0.00e+00	0	41	0	2544893952	38	6494
2026-01-30 14:28:09.50	102.80	12.98	-33.3	-33.9	25.7	0.00e+00	0	41	0	2566914048	38	6326
2026-01-30 14:28:13.54	103.54	12.83	-33.4	-34.1	25.5	0.00e+00	0	41	0	2589982720	38	6468
2026-01-30 14:28:17.58	104.27	12.67	-33.6	-34.3	25.4	0.00e+00	0	41	0	2613051392	38	6662
2026-01-30 14:28:21.62	104.99	12.51	-33.5	-34.2	25.4	0.00e+00	0	41	0	2635071488	38	6546
2026-01-30 14:28:25.66	105.71	12.35	-33.6	-34.4	25.3	0.00e+00	0	41	0	2658140160	38	6694
2026-01-30 14:28:29.70	106.42	12.18	-33.7	-34.4	25.3	0.00e+00	0	41	0	2681208832	38	6727
2026-01-30 14:28:33.74	107.12	12.01	-33.8	-34.6	25.1	0.00e+00	0	41	0	2703228928	40	6105
2026-01-30 14:28:37.78	107.81	11.84	-33.9	-34.6	25.1	0.00e+00	0	41	0	2726297600	40	6136
2026-01-30 14:28:41.81	108.49	11.67	-34.0	-34.6	25.0	0.00e+00	0	41	0	2749366272	40	6167
2026-01-30 14:28:45.85	109.17	11.49	-34.0	-34.7	24.9	0.00e+00	0	41	0	2771386368	40	6204
2026-01-30 14:28:49.90	109.84	11.31	-33.9	-34.7	24.9	0.00e+00	0	41	0	2794455040	40	6212
2026-01-30 14:28:53.93	110.50	11.13	-34.3	-34.9	24.6	0.00e+00	0	41	0	2817523712	40	6386
2026-01-30 14:28:57.97	111.15	10.95	-34.0	-34.7	24.8	0.00e+00	0	41	0	2839543808	40	6239
2026-01-30 14:29:02.01	111.80	10.76	-34.0	-34.7	24.9	0.00e+00	0	41	0	2862612480	40	6235
2026-01-30 14:29:06.05	112.43	10.57	-34.2	-34.8	24.7	0.00e+00	0	41	0	2885681152	40	6269
2026-01-30 14:29:10.09	113.06	10.39	-34.1	-34.8	24.8	0.00e+00	0	41	0	2907701248	40	6280
2026-01-30 14:29:14.13	113.68	10.20	-34.1	-34.8	24.7	0.00e+00	0	41	0	2930769920	40	6264
2026-01-30 14:29:18.17	114.30	10.01	-34.3	-34.9	24.5	0.00e+00	0	41	0	2953838592	40	6388
2026-01-30 14:29:22.21	114.90	9.81	-34.2	-34.9	24.6	0.00e+00	0	41	0	2975858688	40	6346
2026-01-30 14:29:26.24	115.50	9.62	-34.6	-35.2	24.2	0.00e+00	0	41	0	2998927360	40	6594
2026-01-30 14:29:30.28	116.09	9.42	-34.7	-35.5	23.9	0.00e+00	0	41	0	3021996032	40	6832
2026-01-30 14:29:34.32	116.67	9.23	-34.7	-35.4	24.0	0.00e+00	0	41	0	3044016128	42	5970
2026-01-30 14:29:38.36	117.25	9.03	-34.6	-35.4	24.2	0.00e+00	0	41	0	3067084800	42	5994
2026-01-30 14:29:42.41	117.82	8.83	-34.6	-35.2	24.1	0.00e+00	0	41	0	3090153472	42	5891
2026-01-30 14:29:46.45	118.38	8.63	-34.6	-35.3	24.2	0.00e+00	0	41	0	3112173568	42	5946
2026-01-30 14:29:50.49	118.93	8.43	-34.6	-35.3	24.1	0.00e+00	0	41	0	3135242240	42	5943
2026-01-30 14:29:54.52	119.48	8.23	-34.7	-35.4	24.2	0.00e+00	0	41	0	3158310912	42	6000
2026-01-30 14:29:58.56	120.01	8.03	-34.8	-35.5	23.9	0.00e+00	0	41	0	3180331008	42	6074
2026-01-30 14:30:02.61	120.55	7.83	-35.0	-35.7	23.8	0.00e+00	0	41	0	3203399680	42	6183
2026-01-30 14:30:06.64	121.07	7.63	-35.1	-35.9	23.7	0.00e+00	0	41	0	3226468352	42	6336
2026-01-30 14:30:10.68	121.59	7.43	-35.4	-36.2	23.4	0.00e+00	0	41	0	3248488448	42	6568
2026-01-30 14:30:14.72	122.10	7.23	-35.5	-36.3	23.2	0.00e+00	0	41	0	3271557120	42	6672
2026-01-30 14:30:18.77	122.60	7.02	-35.4	-36.1	23.3	0.00e+00	0	41	0	3294625792	42	6526
2026-01-30 14:30:22.80	123.10	6.82	-35.6	-36.4	23.1	0.00e+00	0	41	0	3317694464	42	6767
2026-01-30 14:30:26.84	123.59	6.62	-35.5	-36.2	23.2	0.00e+00	0	41	0	3339714560	42	6572
2026-01-30 14:30:30.88	124.08	6.41	-35.5	-36.2	23.2	0.00e+00	0	41	0	3362783232	42	6570
2026-01-30 14:30:34.91	124.55	6.21	-35.8	-36.6	22.9	0.00e+00	0	41	0	3384803328	44	6138
2026-01-30 14:30:38.95	125.02	6.01	-35.8	-36.7	22.8	0.00e+00	0	41	0	3407872000	44	6189
2026-01-30 14:30:42.99	125.49	5.80	-35.9	-36.7	22.6	0.00e+00	0	41	0	3430940672	44	6238
2026-01-30 14:30:47.03	125.95	5.60	-35.7	-36.5	22.9	0.00e+00	0	41	0	3452960768	44	6071
2026-01-30 14:30:51.07	126.40	5.40	-35.7	-36.4	22.8	0.00e+00	0	41	0	3476029440	44	6001
2026-01-30 14:30:55.11	126.85	5.20	-36.0	-36.7	22.5	0.00e+00	0	41	0	3499098112	44	6233
2026-01-30 14:30:59.15	127.29	4.99	-35.9	-36.7	22.6	0.00e+00	0	41	0	3521118208	44	6238
2026-01-30 14:31:03.19	127.72	4.79	-35.9	-36.8	22.6	0.00e+00	0	41	0	3544186880	44	6271
2026-01-30 14:31:07.23	128.15	4.59	-35.9	-36.6	22.5	0.00e+00	0	41	0	3567255552	44	6163
2026-01-30 14:31:11.27	128.58	4.38	-36.1	-36.8	22.3	0.00e+00	0	41	0	3589275648	44	6276
2026-01-30 14:31:15.31	128.99	4.18	-36.1	-37.0	22.2	0.00e+00	0	41	0	3612344320	44	6405
2026-01-30 14:31:19.35	129.41	3.98	-36.2	-37.1	22.1	0.00e+00	0	41	0	3635412992	44	6488
2026-01-30 14:31:23.39	129.81	3.78	-36.7	-37.5	21.6	0.00e+00	0	41	0	3657433088	46	6037
2026-01-30 14:31:27.43	130.22	3.58	-36.2	-37.0	22.0	0.00e+00	0	41	0	3680501760	46	5717
2026-01-30 14:31:31.48	130.61	3.38	-36.3	-37.1	21.8	0.00e+00	0	41	0	3703570432	46	5820
2026-01-30 14:31:35.52	131.01	3.18	-36.8	-37.7	21.3	0.00e+00	0	41	0	3725590528	46	6185
2026-01-30 14:31:39.56	131.39	2.98	-47.5	-59.5	3.6	2.78e-01	0	41	104	3747610624	60	34020
2026-01-30 14:31:43.60	131.77	2.78	-49.1	-61.2	3.6	8.45e-01	0	41	104	3747610624	60	41737
2026-01-30 14:31:47.64	132.15	2.58	-49.3	-61.5	3.6	8.45e-01	0	41	104	3747610624	60	43164
2026-01-30 14:31:51.68	132.52	2.38	-49.5	-61.7	3.6	8.46e-01	0	41	104	3747610624	60	44052
2026-01-30 14:31:55.72	132.89	2.18	-49.5	-61.7	3.6	8.45e-01	0	41	104	3747610624	60	43758
2026-01-30 14:31:59.75	133.25	1.98	-49.5	-61.7	3.6	8.47e-01	0	41	104	3747610624	60	44052
2026-01-30 14:32:03.79	133.61	1.79	-49.6	-61.7	3.6	8.46e-01	0	41	104	3747610624	60	43763
2026-01-30 14:32:07.83	133.96	1.59	-49.5	-61.6	3.6	8.46e-01	0	41	104	3747610624	60	43645
2026-01-30 14:32:11.87	134.31	1.39	-49.5	-61.7	3.6	8.46e-01	0	41	104	3747610624	60	43812
2026-01-30 14:32:15.91	134.65	1.20	-49.5	-61.7	3.6	8.45e-01	0	41	104	3747610624	60	43745
2026-01-30 14:32:19.95	134.99	1.00	-49.5	-61.6	3.6	8.46e-01	0	41	104	3747610624	60	43683
2026-01-30 14:32:23.98	135.33	0.81	-49.5	-61.6	3.6	8.46e-01	0	41	104	3747610624	60	43658
2026-01-30 14:32:28.02	135.66	0.61	-49.5	-61.7	3.6	8.46e-01	0	41	104	3747610624	60	43828
2026-01-30 14:32:32.06	135.99	0.42	-49.5	-61.6	3.6	8.46e-01	0	41	104	3747610624	60	43573
2026-01-30 14:32:36.10	136.31	0.23	-49.5	-61.6	3.5	8.45e-01	0	41	104	3747610624	60	43702
2026-01-30 14:32:40.14	136.63	0.04	-49.5	-61.6	3.6	8.46e-01	0	41	104	3747610624	60	43502

#Closed at: 2026-01-30 14:32:43
#Recorded file [3747 MB]: D:/lorett/data/35029_260131_021936.dat