passes_logs/2026/01/30/R4.6S_Anadyr/R4.6S_Anadyr__20260130_004802_NOAA_21_JPSS-2_rec.log

#Pass ID: 20260130_004802_NOAA 21 (JPSS-2)
#Satellite: NOAA 21 (JPSS-2)
#Configuration: NOAA-21
#almurnet v.1.7.20251203
#Start time: 2026-01-30 00:48:06

#Version: 2.2.20231116
#Station: R4.6S_Anadyr
#Location: 177.4865 lon 64.73178 lat
#TLE: 1 54234U 22150A   26029.46216196  .00000141  00000+0  87503-4 0  9994
#TLE: 2 54234  98.7512 330.1880 0000955 196.3413 163.7732 14.19540905166865

#Time	Az	El	Level	Level2	SNR	BER	BlckErr	Temp	State	Recorded	gain1	gain2
2026-01-30 00:48:06.37	170.92	0.21	-49.3	-60.8	3.3	1.54e+00	0	35	0	0	60	38452
2026-01-30 00:48:10.40	171.01	0.45	-49.3	-62.3	3.5	1.52e+00	0	36	104	0	60	45799
2026-01-30 00:48:14.44	171.09	0.69	-49.3	-62.3	3.5	1.52e+00	0	36	104	0	60	45526
2026-01-30 00:48:18.48	171.18	0.94	-49.3	-62.3	3.5	1.52e+00	0	36	104	0	60	45855
2026-01-30 00:48:22.52	171.27	1.19	-49.4	-62.3	3.5	1.52e+00	0	36	104	0	60	45553
2026-01-30 00:48:26.57	171.36	1.44	-49.4	-62.3	3.5	1.52e+00	0	36	104	0	60	45675
2026-01-30 00:48:30.61	171.45	1.69	-49.4	-62.2	3.5	1.51e+00	0	36	104	0	60	45439
2026-01-30 00:48:34.65	171.54	1.94	-49.3	-62.3	3.5	1.51e+00	0	36	104	0	60	45809
2026-01-30 00:48:38.69	171.64	2.20	-49.4	-62.3	3.5	1.52e+00	0	36	104	0	60	45624
2026-01-30 00:48:42.73	171.73	2.46	-49.4	-62.2	3.5	1.52e+00	0	36	104	0	60	45476
2026-01-30 00:48:46.77	171.83	2.72	-49.3	-62.3	3.5	1.52e+00	0	36	104	0	60	45609
2026-01-30 00:48:50.81	171.93	2.98	-49.4	-62.3	3.5	1.52e+00	0	36	104	0	60	45594
2026-01-30 00:48:54.85	172.03	3.25	-49.4	-62.3	3.5	1.51e+00	0	36	104	0	60	45608
2026-01-30 00:48:58.89	172.13	3.52	-49.4	-62.3	3.5	1.52e+00	0	36	104	0	60	45731
2026-01-30 00:49:02.94	172.23	3.79	-49.3	-62.3	3.5	1.52e+00	0	36	104	0	60	45636
2026-01-30 00:49:06.98	172.33	4.07	-49.4	-62.3	3.5	1.52e+00	0	37	104	0	60	45674
2026-01-30 00:49:11.02	172.44	4.34	-49.4	-62.3	3.5	1.52e+00	0	37	104	0	60	45798
2026-01-30 00:49:15.06	172.55	4.62	-49.4	-62.3	3.5	1.52e+00	0	37	104	0	60	45796
2026-01-30 00:49:19.10	172.66	4.90	-49.4	-62.3	3.5	1.52e+00	0	37	104	0	60	45778
2026-01-30 00:49:23.14	172.77	5.19	-49.4	-62.3	3.5	1.52e+00	0	37	104	0	60	45817
2026-01-30 00:49:27.18	172.88	5.48	-49.4	-62.3	3.5	1.52e+00	0	37	104	0	60	45823
2026-01-30 00:49:31.23	173.00	5.77	-49.4	-62.3	3.5	1.52e+00	0	37	104	0	60	45685
2026-01-30 00:49:35.27	173.12	6.06	-49.4	-62.3	3.5	1.52e+00	0	37	104	0	60	45829
2026-01-30 00:49:39.31	173.24	6.36	-49.4	-62.3	3.5	1.52e+00	0	37	104	0	60	45681
2026-01-30 00:49:43.35	173.36	6.66	-49.4	-62.3	3.5	1.51e+00	0	37	104	0	60	45701
2026-01-30 00:49:47.39	173.48	6.97	-49.4	-62.3	3.5	1.52e+00	0	37	104	0	60	45604
2026-01-30 00:49:51.43	173.61	7.28	-49.4	-62.3	3.5	1.52e+00	0	37	104	0	60	45636
2026-01-30 00:49:55.47	173.74	7.59	-49.4	-62.3	3.5	1.52e+00	0	37	104	0	60	45704
2026-01-30 00:49:59.51	173.87	7.90	-49.4	-62.3	3.5	1.52e+00	0	37	104	0	60	45829
2026-01-30 00:50:03.56	174.01	8.23	-49.4	-62.3	3.5	1.52e+00	0	37	104	0	60	45816
2026-01-30 00:50:07.60	174.14	8.55	-49.4	-62.3	3.5	1.52e+00	0	37	104	0	60	45620
2026-01-30 00:50:11.64	174.28	8.88	-49.4	-62.3	3.5	1.52e+00	0	37	104	0	60	45816
2026-01-30 00:50:15.68	174.43	9.21	-49.4	-62.3	3.5	1.52e+00	0	37	104	0	60	45788
2026-01-30 00:50:19.72	174.57	9.55	-49.4	-62.3	3.5	1.52e+00	0	37	104	0	60	45822
2026-01-30 00:50:23.76	174.72	9.89	-49.4	-62.3	3.5	1.52e+00	0	37	104	0	60	45591
2026-01-30 00:50:27.80	174.87	10.23	-49.4	-62.3	3.5	1.51e+00	0	37	104	0	60	45713
2026-01-30 00:50:31.84	175.03	10.58	-49.4	-62.3	3.5	1.52e+00	0	37	104	0	60	45714
2026-01-30 00:50:35.88	175.19	10.94	-49.4	-62.3	3.5	1.52e+00	0	37	104	0	60	45658
2026-01-30 00:50:39.93	175.35	11.30	-49.4	-62.3	3.5	1.52e+00	0	37	104	0	60	45670
2026-01-30 00:50:43.97	175.51	11.66	-49.4	-62.3	3.5	1.51e+00	0	37	104	0	60	45708
2026-01-30 00:50:48.01	175.68	12.03	-49.4	-62.3	3.5	1.51e+00	0	37	104	0	60	45659
2026-01-30 00:50:52.05	175.86	12.41	-49.4	-62.3	3.5	1.52e+00	0	37	104	0	60	45927
2026-01-30 00:50:56.09	176.04	12.79	-49.4	-62.3	3.5	1.52e+00	0	37	104	0	60	45718
2026-01-30 00:51:00.13	176.22	13.18	-49.4	-62.3	3.5	1.52e+00	0	37	104	0	60	45746
2026-01-30 00:51:04.18	176.41	13.57	-49.4	-62.3	3.5	1.52e+00	0	37	104	0	60	45561
2026-01-30 00:51:08.22	176.60	13.97	-49.4	-62.3	3.5	1.52e+00	0	37	104	0	60	45683
2026-01-30 00:51:12.26	176.79	14.38	-49.4	-62.3	3.5	1.51e+00	0	37	104	0	60	45611
2026-01-30 00:51:16.30	177.00	14.79	-49.4	-62.3	3.5	1.52e+00	0	37	104	0	60	45637
2026-01-30 00:51:20.34	177.20	15.21	-49.4	-62.3	3.5	1.52e+00	0	37	104	0	60	45717
2026-01-30 00:51:24.39	177.41	15.64	-49.4	-62.3	3.5	1.52e+00	0	37	104	0	60	45599
2026-01-30 00:51:28.42	177.63	16.08	-49.4	-62.3	3.5	1.52e+00	0	37	104	0	60	45764
2026-01-30 00:51:32.46	177.86	16.52	-49.4	-62.3	3.5	1.51e+00	0	37	104	0	60	45738
2026-01-30 00:51:36.50	178.09	16.97	-49.4	-62.3	3.5	1.52e+00	0	37	104	0	60	45727
2026-01-30 00:51:40.54	178.32	17.42	-49.4	-62.3	3.5	1.52e+00	0	37	104	0	60	45700
2026-01-30 00:51:44.58	178.57	17.89	-49.4	-62.3	3.5	1.52e+00	0	37	104	0	60	45830
2026-01-30 00:51:48.62	178.82	18.36	-49.4	-62.3	3.5	1.52e+00	0	37	104	0	60	45731
2026-01-30 00:51:52.67	179.08	18.85	-49.4	-62.3	3.5	1.52e+00	0	37	104	0	60	45709
2026-01-30 00:51:56.71	179.34	19.34	-49.4	-62.3	3.5	1.52e+00	0	37	104	0	60	45887
2026-01-30 00:52:00.75	179.62	19.84	-49.4	-62.3	3.5	1.52e+00	0	37	104	0	60	45583
2026-01-30 00:52:04.79	179.90	20.35	-49.4	-62.3	3.5	1.52e+00	0	37	104	0	60	45696
2026-01-30 00:52:08.83	180.19	20.87	-49.4	-62.3	3.5	1.52e+00	0	37	104	0	60	45655
2026-01-30 00:52:12.87	180.50	21.40	-49.4	-62.3	3.5	1.52e+00	0	37	104	0	60	45659
2026-01-30 00:52:16.91	180.81	21.95	-49.4	-62.3	3.5	1.52e+00	0	37	104	0	60	45692
2026-01-30 00:52:20.95	181.13	22.50	-49.4	-62.3	3.5	1.52e+00	0	37	104	0	60	45854
2026-01-30 00:52:24.99	181.47	23.06	-49.4	-62.3	3.5	1.51e+00	0	37	104	0	60	45953
2026-01-30 00:52:29.03	181.81	23.64	-49.4	-62.3	3.5	1.52e+00	0	37	104	0	60	45833
2026-01-30 00:52:33.07	182.17	24.23	-49.4	-62.3	3.5	1.52e+00	0	37	104	0	60	45610
2026-01-30 00:52:37.11	182.54	24.83	-49.4	-62.3	3.5	1.52e+00	0	38	104	0	60	45833
2026-01-30 00:52:41.16	182.93	25.44	-49.4	-62.3	3.5	1.51e+00	0	37	104	0	60	45732
2026-01-30 00:52:45.20	183.33	26.07	-49.4	-62.3	3.5	1.52e+00	0	38	104	0	60	45674
2026-01-30 00:52:49.24	183.74	26.71	-49.4	-62.3	3.5	1.52e+00	0	38	104	0	60	45697
2026-01-30 00:52:53.28	184.18	27.36	-49.4	-62.3	3.5	1.52e+00	0	38	104	0	60	45793
2026-01-30 00:52:57.32	184.63	28.03	-49.4	-62.3	3.5	1.52e+00	0	37	104	0	60	45803
2026-01-30 00:53:01.37	185.10	28.71	-49.4	-62.3	3.5	1.52e+00	0	37	104	0	60	45932
2026-01-30 00:53:05.41	185.58	29.41	-49.4	-62.3	3.5	1.52e+00	0	37	104	0	60	45674
2026-01-30 00:53:09.45	186.09	30.12	-49.4	-62.3	3.5	1.52e+00	0	37	104	0	60	45862
2026-01-30 00:53:13.49	186.62	30.85	-49.4	-62.3	3.5	1.52e+00	0	37	104	0	60	45775
2026-01-30 00:53:17.53	187.18	31.59	-49.4	-62.3	3.5	1.52e+00	0	38	104	0	60	45793
2026-01-30 00:53:21.57	187.76	32.35	-49.4	-62.3	3.5	1.52e+00	0	37	104	0	60	45754
2026-01-30 00:53:25.61	188.37	33.13	-49.4	-62.3	3.5	1.52e+00	0	38	104	0	60	45862
2026-01-30 00:53:29.65	189.01	33.92	-49.4	-62.3	3.5	1.51e+00	0	37	104	0	60	45856
2026-01-30 00:53:33.69	189.68	34.73	-49.4	-62.3	3.5	1.52e+00	0	37	104	0	60	45736
2026-01-30 00:53:37.73	190.38	35.56	-49.4	-62.3	3.5	1.51e+00	0	37	104	0	60	45688
2026-01-30 00:53:41.77	191.12	36.40	-49.4	-62.3	3.5	1.52e+00	0	37	104	0	60	45956
2026-01-30 00:53:45.81	191.89	37.26	-49.4	-62.3	3.5	1.52e+00	0	37	104	0	60	45778
2026-01-30 00:53:49.85	192.71	38.14	-49.4	-62.3	3.5	1.52e+00	0	37	104	0	60	45966
2026-01-30 00:53:53.90	193.58	39.04	-49.4	-62.4	3.5	1.52e+00	0	37	104	0	60	46042
2026-01-30 00:53:57.94	194.49	39.95	-49.4	-62.3	3.5	1.52e+00	0	37	104	0	60	45850
2026-01-30 00:54:01.98	195.45	40.87	-49.4	-62.3	3.5	1.52e+00	0	37	104	0	60	45850
2026-01-30 00:54:06.02	196.47	41.82	-49.4	-62.3	3.5	1.52e+00	0	37	104	0	60	45757
2026-01-30 00:54:10.06	197.55	42.77	-49.4	-62.3	3.5	1.51e+00	0	37	104	0	60	45744
2026-01-30 00:54:14.10	198.70	43.74	-49.4	-62.3	3.5	1.52e+00	0	37	104	0	60	45912
2026-01-30 00:54:18.14	199.92	44.72	-49.4	-62.3	3.5	1.52e+00	0	37	104	0	60	45754
2026-01-30 00:54:22.18	201.21	45.71	-49.4	-62.3	3.5	1.52e+00	0	38	104	0	60	45712
2026-01-30 00:54:26.22	202.59	46.70	-49.4	-62.3	3.5	1.52e+00	0	38	104	0	60	45885
2026-01-30 00:54:30.27	204.05	47.71	-49.4	-62.3	3.5	1.52e+00	0	38	104	0	60	45853
2026-01-30 00:54:34.31	205.61	48.71	-49.4	-62.3	3.5	1.51e+00	0	38	104	0	60	45840
2026-01-30 00:54:38.35	207.28	49.71	-49.4	-62.3	3.5	1.52e+00	0	38	104	0	60	45794
2026-01-30 00:54:42.39	209.06	50.71	-49.4	-62.3	3.5	1.51e+00	0	38	104	0	60	45824
2026-01-30 00:54:46.43	210.95	51.70	-49.4	-62.3	3.5	1.52e+00	0	38	104	0	60	45813
2026-01-30 00:54:50.47	212.98	52.68	-49.4	-62.2	3.5	1.52e+00	0	38	104	0	60	45445
2026-01-30 00:54:54.51	215.14	53.63	-49.4	-62.3	3.5	1.52e+00	0	38	104	0	60	45658
2026-01-30 00:54:58.55	217.44	54.56	-49.4	-62.3	3.5	1.51e+00	0	38	104	0	60	45567
2026-01-30 00:55:02.59	219.90	55.46	-49.4	-62.3	3.5	1.52e+00	0	37	104	0	60	45620
2026-01-30 00:55:06.64	222.52	56.32	-49.4	-62.3	3.5	1.52e+00	0	38	104	0	60	45872
2026-01-30 00:55:10.68	225.29	57.13	-49.4	-62.3	3.5	1.52e+00	0	38	104	0	60	45722
2026-01-30 00:55:14.72	228.23	57.88	-49.4	-62.3	3.5	1.52e+00	0	38	104	0	60	45557
2026-01-30 00:55:18.76	231.32	58.57	-49.4	-62.3	3.5	1.52e+00	0	38	104	0	60	45734
2026-01-30 00:55:22.80	234.57	59.19	-49.4	-62.3	3.5	1.52e+00	0	38	104	0	60	45827
2026-01-30 00:55:26.84	237.97	59.72	-49.4	-62.3	3.5	1.52e+00	0	38	104	0	60	45993
2026-01-30 00:55:30.88	241.49	60.17	-49.4	-62.3	3.5	1.52e+00	0	38	104	0	60	45807
2026-01-30 00:55:34.92	245.12	60.52	-49.4	-62.3	3.5	1.52e+00	0	38	104	0	60	45824
2026-01-30 00:55:38.96	248.84	60.76	-49.4	-62.3	3.5	1.52e+00	0	38	104	0	60	45729
2026-01-30 00:55:43.00	252.62	60.90	-49.4	-62.3	3.5	1.51e+00	0	38	104	0	60	45699
2026-01-30 00:55:47.04	256.42	60.93	-49.4	-62.3	3.5	1.52e+00	0	38	104	0	60	45819
2026-01-30 00:55:51.08	260.21	60.85	-49.4	-62.3	3.5	1.51e+00	0	38	104	0	60	45798
2026-01-30 00:55:55.12	263.97	60.67	-49.4	-62.3	3.5	1.52e+00	0	38	104	0	60	45880
2026-01-30 00:55:59.16	267.65	60.37	-49.4	-62.3	3.5	1.52e+00	0	37	104	0	60	45710
2026-01-30 00:56:03.20	271.23	59.98	-49.4	-62.3	3.5	1.52e+00	0	38	104	0	60	45743
2026-01-30 00:56:07.25	274.71	59.50	-49.4	-62.3	3.5	1.52e+00	0	38	104	0	60	45615
2026-01-30 00:56:11.29	278.04	58.93	-49.4	-62.3	3.5	1.51e+00	0	38	104	0	60	45569
2026-01-30 00:56:15.33	281.21	58.28	-49.4	-62.3	3.5	1.52e+00	0	38	104	0	60	45789
2026-01-30 00:56:19.37	284.23	57.56	-49.4	-62.3	3.5	1.52e+00	0	38	104	0	60	45653
2026-01-30 00:56:23.41	287.09	56.78	-49.4	-62.3	3.5	1.52e+00	0	37	104	0	60	45724
2026-01-30 00:56:27.45	289.79	55.95	-49.4	-62.3	3.5	1.52e+00	0	37	104	0	60	45753
2026-01-30 00:56:31.49	292.33	55.08	-49.4	-62.3	3.5	1.52e+00	0	38	104	0	60	45819
2026-01-30 00:56:35.53	294.71	54.17	-49.4	-62.3	3.5	1.52e+00	0	38	104	0	60	45756
2026-01-30 00:56:39.57	296.95	53.23	-49.4	-62.3	3.5	1.51e+00	0	38	104	0	60	45713
2026-01-30 00:56:43.61	299.04	52.27	-49.4	-62.3	3.5	1.52e+00	0	38	104	0	60	45679
2026-01-30 00:56:47.65	301.01	51.29	-49.4	-62.3	3.5	1.52e+00	0	38	104	0	60	45665
2026-01-30 00:56:51.70	302.85	50.29	-49.4	-62.3	3.5	1.52e+00	0	38	104	0	60	45791
2026-01-30 00:56:55.73	304.57	49.30	-49.4	-62.3	3.5	1.52e+00	0	38	104	0	60	45937
2026-01-30 00:56:59.78	306.19	48.30	-49.4	-62.3	3.5	1.52e+00	0	38	104	0	60	45833
2026-01-30 00:57:03.82	307.71	47.30	-49.4	-62.3	3.5	1.52e+00	0	38	104	0	60	45723
2026-01-30 00:57:07.86	309.13	46.30	-49.4	-62.3	3.5	1.52e+00	0	38	104	0	60	45772
2026-01-30 00:57:11.90	310.47	45.31	-49.4	-62.3	3.5	1.52e+00	0	38	104	0	60	45624
2026-01-30 00:57:15.94	311.72	44.33	-49.4	-62.3	3.5	1.51e+00	0	38	104	0	60	45790
2026-01-30 00:57:19.98	312.91	43.36	-49.4	-62.3	3.4	1.52e+00	0	38	104	0	60	46002
2026-01-30 00:57:24.02	314.02	42.40	-49.4	-62.3	3.5	1.52e+00	0	38	104	0	60	45575
2026-01-30 00:57:28.06	315.07	41.46	-49.4	-62.3	3.5	1.52e+00	0	38	104	0	60	45691
2026-01-30 00:57:32.10	316.07	40.52	-49.4	-62.3	3.5	1.52e+00	0	38	104	0	60	45782
2026-01-30 00:57:36.14	317.01	39.61	-49.4	-62.3	3.5	1.51e+00	0	38	104	0	60	45695
2026-01-30 00:57:40.18	317.90	38.71	-49.4	-62.3	3.5	1.52e+00	0	38	104	0	60	45886
2026-01-30 00:57:44.23	318.74	37.82	-49.4	-62.3	3.5	1.52e+00	0	38	104	0	60	45886
2026-01-30 00:57:48.26	319.54	36.96	-49.4	-62.3	3.5	1.52e+00	0	38	104	0	60	45749
2026-01-30 00:57:52.30	320.30	36.11	-49.4	-62.3	3.5	1.52e+00	0	38	104	0	60	45781
2026-01-30 00:57:56.35	321.03	35.27	-49.4	-62.3	3.5	1.52e+00	0	38	104	0	60	45570
2026-01-30 00:58:00.39	321.71	34.46	-49.4	-62.3	3.5	1.52e+00	0	38	104	0	60	45816
2026-01-30 00:58:04.42	322.37	33.66	-49.4	-62.3	3.5	1.52e+00	0	38	104	0	60	45932
2026-01-30 00:58:08.47	322.99	32.88	-49.4	-62.3	3.5	1.52e+00	0	38	104	0	60	45583
2026-01-30 00:58:12.51	323.59	32.11	-49.4	-62.3	3.5	1.52e+00	0	38	104	0	60	45694
2026-01-30 00:58:16.54	324.16	31.36	-49.4	-62.3	3.5	1.52e+00	0	38	104	0	60	45730
2026-01-30 00:58:20.58	324.71	30.63	-49.4	-62.3	3.5	1.52e+00	0	38	104	0	60	45701
2026-01-30 00:58:24.63	325.23	29.91	-49.4	-62.3	3.5	1.52e+00	0	38	104	0	60	45663
2026-01-30 00:58:28.67	325.73	29.21	-49.4	-62.3	3.5	1.52e+00	0	38	104	0	60	45909
2026-01-30 00:58:32.71	326.21	28.52	-49.4	-62.3	3.5	1.52e+00	0	38	104	0	60	45641
2026-01-30 00:58:36.75	326.67	27.85	-49.4	-62.3	3.5	1.52e+00	0	38	104	0	60	45850
2026-01-30 00:58:40.79	327.11	27.19	-49.4	-62.3	3.5	1.51e+00	0	38	104	0	60	45671
2026-01-30 00:58:44.83	327.54	26.54	-49.4	-62.3	3.5	1.52e+00	0	38	104	0	60	45682
2026-01-30 00:58:48.87	327.95	25.91	-49.4	-62.3	3.5	1.52e+00	0	38	104	0	60	45776
2026-01-30 00:58:52.91	328.35	25.29	-49.4	-62.3	3.5	1.51e+00	0	38	104	0	60	45703
2026-01-30 00:58:56.95	328.73	24.69	-49.4	-62.3	3.5	1.52e+00	0	38	104	0	60	45581
2026-01-30 00:59:00.99	329.09	24.10	-49.4	-62.3	3.5	1.52e+00	0	38	104	0	60	45639
2026-01-30 00:59:05.03	329.45	23.51	-49.4	-62.3	3.5	1.52e+00	0	38	104	0	60	45770
2026-01-30 00:59:09.07	329.79	22.95	-49.4	-62.3	3.5	1.52e+00	0	38	104	0	60	45586
2026-01-30 00:59:13.11	330.12	22.39	-49.4	-62.3	3.5	1.52e+00	0	38	104	0	60	45744
2026-01-30 00:59:17.15	330.44	21.84	-49.4	-62.3	3.5	1.52e+00	0	38	104	0	60	45863
2026-01-30 00:59:21.20	330.75	21.31	-49.4	-62.3	3.5	1.52e+00	0	38	104	0	60	45859
2026-01-30 00:59:25.24	331.05	20.78	-49.4	-62.3	3.5	1.52e+00	0	38	104	0	60	45749
2026-01-30 00:59:29.28	331.34	20.27	-49.4	-62.3	3.5	1.52e+00	0	38	104	0	60	45799
2026-01-30 00:59:33.32	331.62	19.76	-49.4	-62.3	3.5	1.52e+00	0	38	104	0	60	45978
2026-01-30 00:59:37.36	331.90	19.27	-49.4	-62.3	3.5	1.52e+00	0	38	104	0	60	45917
2026-01-30 00:59:41.40	332.16	18.78	-49.4	-62.3	3.5	1.52e+00	0	38	104	0	60	45902
2026-01-30 00:59:45.45	332.42	18.30	-49.4	-62.3	3.5	1.51e+00	0	38	104	0	60	45851
2026-01-30 00:59:49.49	332.67	17.83	-49.4	-62.3	3.5	1.52e+00	0	38	104	0	60	45483
2026-01-30 00:59:53.53	332.91	17.37	-49.4	-62.3	3.5	1.52e+00	0	38	104	0	60	45930
2026-01-30 00:59:57.57	333.15	16.92	-49.4	-62.3	3.5	1.52e+00	0	38	104	0	60	45704
2026-01-30 01:00:01.61	333.38	16.47	-49.4	-62.3	3.5	1.52e+00	0	38	104	0	60	45629
2026-01-30 01:00:05.65	333.60	16.04	-49.4	-62.3	3.5	1.52e+00	0	38	104	0	60	45734
2026-01-30 01:00:09.69	333.82	15.61	-49.4	-62.2	3.5	1.52e+00	0	38	104	0	60	45413
2026-01-30 01:00:13.74	334.03	15.18	-49.4	-62.3	3.5	1.52e+00	0	38	104	0	60	45595
2026-01-30 01:00:17.77	334.24	14.77	-49.4	-62.3	3.5	1.52e+00	0	38	104	0	60	45687
2026-01-30 01:00:21.81	334.44	14.36	-49.4	-62.3	3.5	1.52e+00	0	38	104	0	60	45556
2026-01-30 01:00:25.85	334.64	13.96	-49.4	-62.3	3.5	1.52e+00	0	38	104	0	60	45760
2026-01-30 01:00:29.89	334.83	13.56	-49.4	-62.3	3.5	1.52e+00	0	38	104	0	60	45768
2026-01-30 01:00:33.93	335.02	13.17	-49.4	-62.3	3.5	1.52e+00	0	37	104	0	60	45846
2026-01-30 01:00:37.97	335.20	12.79	-49.4	-62.3	3.5	1.52e+00	0	38	104	0	60	45694
2026-01-30 01:00:42.01	335.38	12.41	-49.4	-62.3	3.5	1.52e+00	0	38	104	0	60	45645
2026-01-30 01:00:46.06	335.55	12.04	-49.4	-62.3	3.5	1.52e+00	0	38	104	0	60	45672
2026-01-30 01:00:50.09	335.72	11.67	-49.4	-62.3	3.5	1.52e+00	0	38	104	0	60	45681
2026-01-30 01:00:54.13	335.89	11.31	-49.4	-62.3	3.5	1.52e+00	0	38	104	0	60	45741
2026-01-30 01:00:58.17	336.05	10.95	-49.4	-62.3	3.5	1.52e+00	0	38	104	0	60	45539
2026-01-30 01:01:02.21	336.21	10.60	-49.4	-62.3	3.5	1.52e+00	0	38	104	0	60	45684
2026-01-30 01:01:06.25	336.37	10.25	-49.4	-62.3	3.5	1.52e+00	0	38	104	0	60	45898
2026-01-30 01:01:10.30	336.53	9.91	-49.4	-62.3	3.5	1.52e+00	0	38	104	0	60	45723
2026-01-30 01:01:14.34	336.68	9.57	-49.4	-62.3	3.5	1.52e+00	0	38	104	0	60	45704
2026-01-30 01:01:18.38	336.82	9.24	-49.4	-62.3	3.5	1.52e+00	0	38	104	0	60	45721
2026-01-30 01:01:22.42	336.97	8.91	-49.4	-62.3	3.5	1.52e+00	0	38	104	0	60	45707
2026-01-30 01:01:26.46	337.11	8.58	-49.4	-62.3	3.5	1.52e+00	0	38	104	0	60	45740
2026-01-30 01:01:30.50	337.25	8.26	-49.4	-62.3	3.5	1.52e+00	0	38	104	0	60	45972
2026-01-30 01:01:34.54	337.39	7.94	-49.4	-62.3	3.5	1.52e+00	0	38	104	0	60	45910
2026-01-30 01:01:38.58	337.52	7.63	-49.4	-62.3	3.5	1.52e+00	0	38	104	0	60	45756
2026-01-30 01:01:42.62	337.65	7.32	-49.4	-62.3	3.5	1.51e+00	0	38	104	0	60	45720
2026-01-30 01:01:46.67	337.78	7.02	-49.4	-62.3	3.5	1.52e+00	0	38	104	0	60	45899
2026-01-30 01:01:50.71	337.91	6.71	-49.4	-62.3	3.5	1.52e+00	0	38	104	0	60	45763
2026-01-30 01:01:54.75	338.03	6.41	-49.4	-62.3	3.5	1.52e+00	0	38	104	0	60	45669
2026-01-30 01:01:58.79	338.15	6.12	-49.4	-62.4	3.5	1.51e+00	0	38	104	0	60	46108
2026-01-30 01:02:02.83	338.28	5.83	-49.4	-62.3	3.5	1.52e+00	0	38	104	0	60	45987
2026-01-30 01:02:06.87	338.39	5.54	-49.4	-62.3	3.5	1.52e+00	0	38	104	0	60	45871
2026-01-30 01:02:10.91	338.51	5.25	-49.4	-62.3	3.5	1.52e+00	0	38	104	0	60	45877
2026-01-30 01:02:14.95	338.63	4.97	-49.4	-62.3	3.5	1.52e+00	0	38	104	0	60	45684
2026-01-30 01:02:18.99	338.74	4.69	-49.4	-62.3	3.5	1.52e+00	0	38	104	0	60	45802
2026-01-30 01:02:23.03	338.85	4.41	-49.4	-62.3	3.5	1.52e+00	0	38	104	0	60	45618
2026-01-30 01:02:27.07	338.96	4.13	-49.4	-62.3	3.5	1.52e+00	0	38	104	0	60	45731
2026-01-30 01:02:31.11	339.07	3.86	-49.4	-62.3	3.5	1.52e+00	0	38	104	0	60	45798
2026-01-30 01:02:35.15	339.17	3.59	-49.4	-62.3	3.5	1.51e+00	0	38	104	0	60	45718
2026-01-30 01:02:39.19	339.28	3.33	-49.4	-62.3	3.5	1.52e+00	0	38	104	0	60	45745
2026-01-30 01:02:43.23	339.38	3.06	-49.4	-62.3	3.5	1.52e+00	0	38	104	0	60	45921
2026-01-30 01:02:47.27	339.48	2.80	-49.4	-62.3	3.5	1.52e+00	0	38	104	0	60	45775
2026-01-30 01:02:51.31	339.58	2.54	-49.4	-62.3	3.5	1.52e+00	0	38	104	0	60	45789
2026-01-30 01:02:55.35	339.68	2.28	-49.4	-62.4	3.5	1.52e+00	0	38	104	0	60	46128
2026-01-30 01:02:59.39	339.78	2.03	-49.4	-62.3	3.5	1.51e+00	0	38	104	0	60	45903
2026-01-30 01:03:03.44	339.87	1.77	-49.4	-62.3	3.5	1.52e+00	0	38	104	0	60	45985
2026-01-30 01:03:07.48	339.97	1.52	-49.4	-62.3	3.5	1.52e+00	0	38	104	0	60	45852
2026-01-30 01:03:11.52	340.06	1.28	-49.4	-62.3	3.5	1.52e+00	0	38	104	0	60	45778
2026-01-30 01:03:15.56	340.15	1.03	-49.4	-62.3	3.5	1.52e+00	0	38	104	0	60	45785
2026-01-30 01:03:19.59	340.24	0.79	-49.4	-62.3	3.5	1.52e+00	0	38	104	0	60	45776
2026-01-30 01:03:23.63	340.33	0.54	-49.4	-62.3	3.5	1.52e+00	0	38	104	0	60	45808
2026-01-30 01:03:27.68	340.42	0.30	-49.4	-62.3	3.5	1.52e+00	0	38	104	0	60	45863
2026-01-30 01:03:31.72	340.51	0.06	-49.4	-62.3	3.5	1.52e+00	0	38	104	0	60	45605

#Closed at: 2026-01-30 01:03:34
#Recorded file [0 MB]: D:/lorett/data/35029_260130_124806.dat