passes_logs/2026/01/30/R4.6S_Anadyr/R4.6S_Anadyr__20260130_013900_NOAA_20_JPSS-1_rec.log

#Pass ID: 20260130_013900_NOAA 20 (JPSS-1)
#Satellite: NOAA 20 (JPSS-1)
#Configuration: NOAA 20
#almurnet v.1.7.20251203
#Start time: 2026-01-30 01:39:01

#Version: 2.2.20231116
#Station: R4.6S_Anadyr
#Location: 177.4865 lon 64.73178 lat
#TLE: 1 43013U 17073A   26029.42702672  .00000137  00000+0  85918-4 0  9993
#TLE: 2 43013  98.7646 330.2153 0000804  19.9045 340.2162 14.19525092424781

#Time	Az	El	Level	Level2	SNR	BER	BlckErr	Temp	State	Recorded	gain1	gain2
2026-01-30 01:39:01.77	192.77	0.06	-49.4	-64.5	3.6	1.51e+00	0	35	0	0	60	60338
2026-01-30 01:39:05.79	192.96	0.29	-49.4	-64.6	3.6	1.51e+00	0	36	104	0	60	61723
2026-01-30 01:39:09.83	193.15	0.52	-49.4	-64.7	3.6	1.51e+00	0	36	104	0	60	61818
2026-01-30 01:39:13.88	193.34	0.75	-49.4	-64.7	3.6	1.51e+00	0	36	104	0	60	61872
2026-01-30 01:39:17.92	193.53	0.98	-49.4	-64.6	3.6	1.51e+00	0	36	104	0	60	61615
2026-01-30 01:39:21.96	193.73	1.21	-49.4	-64.6	3.6	1.51e+00	0	36	104	0	60	61634
2026-01-30 01:39:26.00	193.93	1.45	-49.4	-64.6	3.6	1.51e+00	0	37	104	0	60	61672
2026-01-30 01:39:30.04	194.14	1.69	-49.4	-64.6	3.6	1.51e+00	0	37	104	0	60	61653
2026-01-30 01:39:34.08	194.35	1.93	-49.4	-64.7	3.6	1.51e+00	0	37	104	0	60	61881
2026-01-30 01:39:38.12	194.56	2.17	-49.4	-64.7	3.6	1.51e+00	0	37	104	0	60	61844
2026-01-30 01:39:42.16	194.77	2.41	-49.4	-64.7	3.6	1.51e+00	0	37	104	0	60	61934
2026-01-30 01:39:46.20	194.99	2.66	-49.4	-64.6	3.6	1.51e+00	0	37	104	0	60	61540
2026-01-30 01:39:50.24	195.21	2.90	-49.4	-64.7	3.6	1.51e+00	0	37	104	0	60	61758
2026-01-30 01:39:54.28	195.43	3.15	-49.4	-64.7	3.6	1.51e+00	0	37	104	0	60	61757
2026-01-30 01:39:58.32	195.66	3.40	-49.4	-64.7	3.6	1.51e+00	0	37	104	0	60	62045
2026-01-30 01:40:02.36	195.89	3.65	-49.4	-64.6	3.6	1.51e+00	0	37	104	0	60	61737
2026-01-30 01:40:06.40	196.13	3.91	-49.4	-64.7	3.6	1.51e+00	0	37	104	0	60	61784
2026-01-30 01:40:10.45	196.37	4.16	-49.4	-64.6	3.6	1.51e+00	0	37	104	0	60	61648
2026-01-30 01:40:14.49	196.61	4.42	-49.4	-64.6	3.6	1.51e+00	0	37	104	0	60	61631
2026-01-30 01:40:18.53	196.86	4.68	-49.4	-64.7	3.6	1.51e+00	0	37	104	0	60	61785
2026-01-30 01:40:22.57	197.11	4.94	-49.4	-64.6	3.6	1.51e+00	0	37	104	0	60	61663
2026-01-30 01:40:26.61	197.36	5.21	-49.4	-64.7	3.6	1.51e+00	0	37	104	0	60	61851
2026-01-30 01:40:30.66	197.62	5.47	-49.4	-64.7	3.6	1.51e+00	0	37	104	0	60	61889
2026-01-30 01:40:34.69	197.89	5.74	-49.4	-64.7	3.6	1.51e+00	0	37	104	0	60	61879
2026-01-30 01:40:38.73	198.16	6.01	-49.4	-64.7	3.6	1.51e+00	0	37	104	0	60	61802
2026-01-30 01:40:42.77	198.43	6.29	-49.4	-64.6	3.6	1.51e+00	0	37	104	0	60	61482
2026-01-30 01:40:46.81	198.71	6.56	-49.4	-64.6	3.6	1.51e+00	0	37	104	0	60	61717
2026-01-30 01:40:50.85	198.99	6.84	-49.4	-64.7	3.6	1.51e+00	0	37	104	0	60	61990
2026-01-30 01:40:54.89	199.28	7.12	-49.4	-64.7	3.6	1.51e+00	0	37	104	0	60	61961
2026-01-30 01:40:58.94	199.58	7.41	-49.4	-64.7	3.6	1.51e+00	0	37	104	0	60	62033
2026-01-30 01:41:02.98	199.88	7.69	-49.4	-64.7	3.6	1.51e+00	0	37	104	0	60	61802
2026-01-30 01:41:07.02	200.18	7.98	-49.4	-64.6	3.6	1.51e+00	0	37	104	0	60	61615
2026-01-30 01:41:11.05	200.49	8.27	-49.4	-64.7	3.6	1.51e+00	0	38	104	0	60	61844
2026-01-30 01:41:15.09	200.81	8.56	-49.4	-64.7	3.6	1.51e+00	0	37	104	0	60	62014
2026-01-30 01:41:19.13	201.14	8.86	-49.4	-64.6	3.6	1.51e+00	0	37	104	0	60	61737
2026-01-30 01:41:23.17	201.47	9.16	-49.4	-64.7	3.6	1.51e+00	0	37	104	0	60	61886
2026-01-30 01:41:27.22	201.80	9.46	-49.4	-64.6	3.6	1.51e+00	0	37	104	0	60	61681
2026-01-30 01:41:31.26	202.15	9.77	-49.4	-64.6	3.6	1.51e+00	0	37	104	0	60	61654
2026-01-30 01:41:35.30	202.50	10.08	-49.4	-64.6	3.6	1.51e+00	0	37	104	0	60	61635
2026-01-30 01:41:39.34	202.85	10.39	-49.4	-64.7	3.6	1.51e+00	0	37	104	0	60	61916
2026-01-30 01:41:43.38	203.22	10.70	-49.4	-64.7	3.6	1.51e+00	0	38	104	0	60	61935
2026-01-30 01:41:47.42	203.59	11.02	-49.4	-64.7	3.6	1.51e+00	0	38	104	0	60	61945
2026-01-30 01:41:51.46	203.97	11.34	-49.4	-64.7	3.6	1.51e+00	0	38	104	0	60	61941
2026-01-30 01:41:55.50	204.36	11.66	-49.4	-64.7	3.6	1.51e+00	0	37	104	0	60	61849
2026-01-30 01:41:59.54	204.76	11.99	-49.4	-64.7	3.6	1.51e+00	0	37	104	0	60	61781
2026-01-30 01:42:03.58	205.16	12.32	-49.4	-64.7	3.6	1.51e+00	0	37	104	0	60	61882
2026-01-30 01:42:07.62	205.58	12.65	-49.4	-64.7	3.6	1.51e+00	0	38	104	0	60	62010
2026-01-30 01:42:11.67	206.00	12.99	-49.4	-64.7	3.6	1.51e+00	0	38	104	0	60	61804
2026-01-30 01:42:15.71	206.43	13.32	-49.4	-64.6	3.6	1.51e+00	0	38	104	0	60	61374
2026-01-30 01:42:19.75	206.87	13.67	-49.4	-64.6	3.6	1.51e+00	0	38	104	0	60	61656
2026-01-30 01:42:23.79	207.33	14.01	-49.4	-64.7	3.6	1.51e+00	0	38	104	0	60	62044
2026-01-30 01:42:27.83	207.79	14.36	-49.4	-64.7	3.6	1.51e+00	0	37	104	0	60	61809
2026-01-30 01:42:31.87	208.26	14.71	-49.4	-64.7	3.6	1.51e+00	0	38	104	0	60	61915
2026-01-30 01:42:35.91	208.75	15.07	-49.4	-64.7	3.6	1.51e+00	0	38	104	0	60	62028
2026-01-30 01:42:39.95	209.24	15.43	-49.4	-64.7	3.6	1.51e+00	0	38	104	0	60	62019
2026-01-30 01:42:44.00	209.75	15.79	-49.4	-64.7	3.6	1.51e+00	0	38	104	0	60	61834
2026-01-30 01:42:48.03	210.27	16.16	-49.4	-64.7	3.6	1.51e+00	0	38	104	0	60	61813
2026-01-30 01:42:52.08	210.80	16.53	-49.4	-64.7	3.5	1.51e+00	0	38	104	0	60	61970
2026-01-30 01:42:56.12	211.34	16.90	-49.4	-64.7	3.6	1.51e+00	0	38	104	0	60	61781
2026-01-30 01:43:00.16	211.90	17.27	-49.4	-64.6	3.6	1.51e+00	0	38	104	0	60	61667
2026-01-30 01:43:04.19	212.47	17.65	-49.4	-64.7	3.6	1.51e+00	0	38	104	0	60	61752
2026-01-30 01:43:08.23	213.05	18.03	-49.4	-64.7	3.6	1.51e+00	0	38	104	0	60	61900
2026-01-30 01:43:12.27	213.65	18.42	-49.4	-64.7	3.6	1.51e+00	0	38	104	0	60	61795
2026-01-30 01:43:16.31	214.27	18.81	-49.4	-64.6	3.6	1.51e+00	0	38	104	0	60	61560
2026-01-30 01:43:20.35	214.90	19.20	-49.4	-64.7	3.6	1.51e+00	0	38	104	0	60	61910
2026-01-30 01:43:24.40	215.54	19.59	-49.4	-64.7	3.6	1.51e+00	0	38	104	0	60	61990
2026-01-30 01:43:28.44	216.21	19.99	-49.4	-64.6	3.6	1.51e+00	0	38	104	0	60	61708
2026-01-30 01:43:32.48	216.88	20.39	-49.4	-64.7	3.6	1.51e+00	0	38	104	0	60	61980
2026-01-30 01:43:36.52	217.58	20.79	-49.4	-64.7	3.6	1.51e+00	0	38	104	0	60	61809
2026-01-30 01:43:40.56	218.30	21.19	-49.4	-64.6	3.6	1.51e+00	0	38	104	0	60	61720
2026-01-30 01:43:44.60	219.03	21.59	-49.4	-64.7	3.6	1.51e+00	0	38	104	0	60	62027
2026-01-30 01:43:48.65	219.78	22.00	-49.4	-64.7	3.6	1.51e+00	0	38	104	0	60	62008
2026-01-30 01:43:52.69	220.55	22.41	-49.4	-64.7	3.6	1.51e+00	0	38	104	0	60	61940
2026-01-30 01:43:56.73	221.34	22.82	-49.4	-64.6	3.6	1.51e+00	0	38	104	0	60	61378
2026-01-30 01:44:00.77	222.15	23.23	-49.4	-64.6	3.6	1.51e+00	0	38	104	0	60	61626
2026-01-30 01:44:04.81	222.99	23.64	-49.4	-64.7	3.6	1.51e+00	0	38	104	0	60	61859
2026-01-30 01:44:08.85	223.84	24.05	-49.4	-64.6	3.6	1.51e+00	0	38	104	0	60	61526
2026-01-30 01:44:12.89	224.71	24.46	-49.4	-64.7	3.6	1.51e+00	0	38	104	0	60	62065
2026-01-30 01:44:16.94	225.62	24.87	-49.4	-64.7	3.6	1.51e+00	0	38	104	0	60	61897
2026-01-30 01:44:20.98	226.54	25.28	-49.4	-64.7	3.6	1.51e+00	0	38	104	0	60	61778
2026-01-30 01:44:25.02	227.48	25.69	-49.4	-64.6	3.6	1.51e+00	0	38	104	0	60	61739
2026-01-30 01:44:29.06	228.45	26.10	-49.4	-64.7	3.6	1.51e+00	0	38	104	0	60	61978
2026-01-30 01:44:33.10	229.44	26.50	-49.4	-64.7	3.6	1.51e+00	0	38	104	0	60	62062
2026-01-30 01:44:37.14	230.46	26.90	-49.4	-64.7	3.6	1.51e+00	0	38	104	0	60	61878
2026-01-30 01:44:41.18	231.50	27.29	-49.4	-64.7	3.6	1.51e+00	0	38	104	0	60	61970
2026-01-30 01:44:45.22	232.57	27.69	-49.4	-64.7	3.6	1.51e+00	0	38	104	0	60	61925
2026-01-30 01:44:49.26	233.67	28.07	-49.4	-64.7	3.6	1.51e+00	0	38	104	0	60	61931
2026-01-30 01:44:53.31	234.79	28.45	-49.4	-64.7	3.6	1.51e+00	0	38	104	0	60	61795
2026-01-30 01:44:57.34	235.93	28.82	-49.4	-64.6	3.6	1.51e+00	0	38	104	0	60	61641
2026-01-30 01:45:01.38	237.11	29.19	-49.4	-64.7	3.6	1.51e+00	0	38	104	0	60	61819
2026-01-30 01:45:05.42	238.31	29.55	-49.4	-64.7	3.6	1.51e+00	0	37	104	0	60	61992
2026-01-30 01:45:09.46	239.53	29.89	-49.4	-64.6	3.6	1.51e+00	0	38	104	0	60	61424
2026-01-30 01:45:13.50	240.78	30.23	-49.4	-64.7	3.6	1.51e+00	0	38	104	0	60	62188
2026-01-30 01:45:17.55	242.06	30.56	-49.4	-64.7	3.5	1.51e+00	0	38	104	0	60	61980
2026-01-30 01:45:21.59	243.36	30.87	-49.4	-64.7	3.6	1.51e+00	0	38	104	0	60	61883
2026-01-30 01:45:25.62	244.68	31.17	-49.4	-64.7	3.6	1.51e+00	0	38	104	0	60	62258
2026-01-30 01:45:29.67	246.03	31.46	-49.4	-64.6	3.6	1.51e+00	0	38	104	0	60	61577
2026-01-30 01:45:33.71	247.40	31.73	-49.4	-64.7	3.6	1.51e+00	0	38	104	0	60	62172
2026-01-30 01:45:37.75	248.80	31.99	-49.4	-64.7	3.6	1.51e+00	0	38	104	0	60	61773
2026-01-30 01:45:41.79	250.21	32.23	-49.4	-64.7	3.6	1.51e+00	0	38	104	0	60	61920
2026-01-30 01:45:45.83	251.65	32.45	-49.4	-64.7	3.6	1.51e+00	0	38	104	0	60	61843
2026-01-30 01:45:49.87	253.10	32.66	-49.4	-64.7	3.6	1.51e+00	0	38	104	0	60	61750
2026-01-30 01:45:53.91	254.57	32.84	-49.4	-64.7	3.6	1.51e+00	0	38	104	0	60	61898
2026-01-30 01:45:57.95	256.06	33.01	-49.4	-64.7	3.6	1.51e+00	0	38	104	0	60	61912
2026-01-30 01:46:02.00	257.56	33.16	-49.4	-64.7	3.6	1.51e+00	0	38	104	0	60	62061
2026-01-30 01:46:06.04	259.07	33.28	-49.4	-64.6	3.6	1.51e+00	0	38	104	0	60	61547
2026-01-30 01:46:10.08	260.59	33.38	-49.4	-64.7	3.6	1.51e+00	0	38	104	0	60	61752
2026-01-30 01:46:14.12	262.12	33.46	-49.4	-64.6	3.6	1.51e+00	0	38	104	0	60	61590
2026-01-30 01:46:18.16	263.66	33.52	-49.4	-64.7	3.6	1.51e+00	0	38	104	0	60	61998
2026-01-30 01:46:22.20	265.20	33.56	-49.4	-64.6	3.6	1.51e+00	0	38	104	0	60	61430
2026-01-30 01:46:26.24	266.75	33.57	-49.4	-64.7	3.6	1.51e+00	0	38	104	0	60	61865
2026-01-30 01:46:30.29	268.29	33.56	-49.4	-64.6	3.6	1.51e+00	0	38	104	0	60	61703
2026-01-30 01:46:34.32	269.83	33.53	-49.4	-64.7	3.6	1.51e+00	0	38	104	0	60	61962
2026-01-30 01:46:38.37	271.37	33.48	-49.4	-64.6	3.6	1.51e+00	0	38	104	0	60	61597
2026-01-30 01:46:42.41	272.90	33.40	-49.4	-64.7	3.6	1.51e+00	0	38	104	0	60	62217
2026-01-30 01:46:46.45	274.42	33.30	-49.4	-64.7	3.6	1.51e+00	0	38	104	0	60	61906
2026-01-30 01:46:50.49	275.94	33.18	-49.4	-64.7	3.6	1.51e+00	0	38	104	0	60	61793
2026-01-30 01:46:54.53	277.44	33.04	-49.4	-64.7	3.6	1.51e+00	0	38	104	0	60	61998
2026-01-30 01:46:58.57	278.92	32.88	-49.4	-64.7	3.6	1.51e+00	0	38	104	0	60	61980
2026-01-30 01:47:02.61	280.39	32.70	-49.4	-64.7	3.6	1.51e+00	0	38	104	0	60	61771
2026-01-30 01:47:06.65	281.85	32.50	-49.4	-64.7	3.6	1.51e+00	0	38	104	0	60	62112
2026-01-30 01:47:10.69	283.28	32.28	-49.4	-64.6	3.6	1.51e+00	0	38	104	0	60	61681
2026-01-30 01:47:14.74	284.70	32.04	-49.4	-64.7	3.6	1.51e+00	0	38	104	0	60	62175
2026-01-30 01:47:18.78	286.10	31.79	-49.4	-64.7	3.6	1.51e+00	0	38	104	0	60	62179
2026-01-30 01:47:22.82	287.47	31.52	-49.4	-64.7	3.6	1.51e+00	0	38	104	0	60	62206
2026-01-30 01:47:26.86	288.82	31.24	-49.4	-64.7	3.6	1.51e+00	0	38	104	0	60	61783
2026-01-30 01:47:30.90	290.14	30.94	-49.4	-64.7	3.6	1.51e+00	0	38	104	0	60	61818
2026-01-30 01:47:34.93	291.44	30.63	-49.4	-64.7	3.6	1.51e+00	0	38	104	0	60	61946
2026-01-30 01:47:38.97	292.72	30.31	-49.4	-64.7	3.6	1.51e+00	0	38	104	0	60	62144
2026-01-30 01:47:43.01	293.97	29.97	-49.4	-64.7	3.6	1.51e+00	0	38	104	0	60	61930
2026-01-30 01:47:47.05	295.20	29.63	-49.4	-64.6	3.6	1.51e+00	0	38	104	0	60	61620
2026-01-30 01:47:51.09	296.40	29.28	-49.4	-64.6	3.6	1.51e+00	0	38	104	0	60	61719
2026-01-30 01:47:55.13	297.57	28.92	-49.4	-64.6	3.6	1.51e+00	0	38	104	0	60	61692
2026-01-30 01:47:59.18	298.72	28.55	-49.4	-64.6	3.6	1.51e+00	0	38	104	0	60	61613
2026-01-30 01:48:03.22	299.84	28.17	-49.4	-64.6	3.6	1.51e+00	0	38	104	0	60	61641
2026-01-30 01:48:07.26	300.94	27.79	-49.4	-64.7	3.6	1.51e+00	0	38	104	0	60	61799
2026-01-30 01:48:11.30	302.01	27.40	-49.4	-64.7	3.6	1.51e+00	0	38	104	0	60	61795
2026-01-30 01:48:15.34	303.05	27.01	-49.4	-64.7	3.6	1.51e+00	0	38	104	0	60	61960
2026-01-30 01:48:19.38	304.07	26.61	-49.4	-64.7	3.6	1.51e+00	0	38	104	0	60	61808
2026-01-30 01:48:23.42	305.07	26.21	-49.4	-64.7	3.6	1.51e+00	0	38	104	0	60	61782
2026-01-30 01:48:27.46	306.04	25.81	-49.4	-64.7	3.6	1.51e+00	0	38	104	0	60	62213
2026-01-30 01:48:31.50	306.98	25.40	-49.4	-64.6	3.6	1.51e+00	0	38	104	0	60	61652
2026-01-30 01:48:35.55	307.91	25.00	-49.4	-64.7	3.6	1.51e+00	0	38	104	0	60	61941
2026-01-30 01:48:39.59	308.81	24.59	-49.4	-64.6	3.6	1.51e+00	0	38	104	0	60	61583
2026-01-30 01:48:43.63	309.69	24.18	-49.4	-64.7	3.6	1.51e+00	0	38	104	0	60	61821
2026-01-30 01:48:47.67	310.54	23.77	-49.4	-64.7	3.6	1.51e+00	0	38	104	0	60	61783
2026-01-30 01:48:51.71	311.38	23.36	-49.4	-64.7	3.6	1.51e+00	0	38	104	0	60	61906
2026-01-30 01:48:55.75	312.19	22.96	-49.4	-64.6	3.6	1.51e+00	0	38	104	0	60	61735
2026-01-30 01:48:59.79	312.98	22.55	-49.4	-64.7	3.6	1.51e+00	0	38	104	0	60	61873
2026-01-30 01:49:03.83	313.75	22.14	-49.4	-64.7	3.6	1.51e+00	0	38	104	0	60	61961
2026-01-30 01:49:07.87	314.51	21.74	-49.4	-64.6	3.6	1.51e+00	0	38	104	0	60	61738
2026-01-30 01:49:11.91	315.24	21.34	-49.4	-64.7	3.5	1.51e+00	0	38	104	0	60	62069
2026-01-30 01:49:15.95	315.96	20.94	-49.4	-64.7	3.6	1.51e+00	0	38	104	0	60	61770
2026-01-30 01:49:19.99	316.66	20.54	-49.4	-64.7	3.6	1.51e+00	0	38	104	0	60	61836
2026-01-30 01:49:24.04	317.34	20.14	-49.4	-64.7	3.6	1.51e+00	0	38	104	0	60	61748
2026-01-30 01:49:28.08	318.00	19.75	-49.4	-64.6	3.6	1.51e+00	0	38	104	0	60	61701
2026-01-30 01:49:32.12	318.65	19.36	-49.4	-64.6	3.6	1.51e+00	0	38	104	0	60	61703
2026-01-30 01:49:36.16	319.28	18.97	-49.4	-64.7	3.6	1.51e+00	0	38	104	0	60	61879
2026-01-30 01:49:40.20	319.90	18.58	-49.4	-64.7	3.6	1.51e+00	0	38	104	0	60	61947
2026-01-30 01:49:44.24	320.50	18.20	-49.4	-64.7	3.6	1.51e+00	0	38	104	0	60	62108
2026-01-30 01:49:48.28	321.09	17.82	-49.4	-64.7	3.6	1.51e+00	0	38	104	0	60	62052
2026-01-30 01:49:52.32	321.66	17.44	-49.4	-64.7	3.6	1.51e+00	0	38	104	0	60	62217
2026-01-30 01:49:56.36	322.22	17.07	-49.4	-64.6	3.6	1.51e+00	0	38	104	0	60	61708
2026-01-30 01:50:00.40	322.77	16.70	-49.4	-64.7	3.6	1.51e+00	0	38	104	0	60	61858
2026-01-30 01:50:04.44	323.30	16.33	-49.4	-64.6	3.6	1.51e+00	0	38	104	0	60	61619
2026-01-30 01:50:08.48	323.82	15.97	-49.4	-64.7	3.6	1.51e+00	0	38	104	0	60	62078
2026-01-30 01:50:12.53	324.33	15.61	-49.4	-64.7	3.6	1.51e+00	0	38	104	0	60	61897
2026-01-30 01:50:16.57	324.83	15.25	-49.4	-64.7	3.6	1.51e+00	0	38	104	0	60	61914
2026-01-30 01:50:20.61	325.32	14.90	-49.4	-64.7	3.6	1.51e+00	0	38	104	0	60	61899
2026-01-30 01:50:24.65	325.79	14.55	-49.4	-64.7	3.6	1.51e+00	0	38	104	0	60	61880
2026-01-30 01:50:28.69	326.26	14.20	-49.4	-64.7	3.6	1.51e+00	0	38	104	0	60	61970
2026-01-30 01:50:32.73	326.71	13.86	-49.4	-64.7	3.6	1.51e+00	0	38	104	0	60	61834
2026-01-30 01:50:36.77	327.16	13.51	-49.4	-64.7	3.6	1.51e+00	0	38	104	0	60	61856
2026-01-30 01:50:40.81	327.59	13.18	-49.4	-64.6	3.6	1.51e+00	0	38	104	0	60	61486
2026-01-30 01:50:44.85	328.02	12.84	-49.4	-64.7	3.5	1.51e+00	0	38	104	0	60	61814
2026-01-30 01:50:48.89	328.43	12.51	-49.4	-64.6	3.6	1.51e+00	0	38	104	0	60	61692
2026-01-30 01:50:52.94	328.84	12.18	-49.4	-64.7	3.6	1.51e+00	0	38	104	0	60	61900
2026-01-30 01:50:56.98	329.24	11.86	-49.4	-64.7	3.6	1.51e+00	0	38	104	0	60	61753
2026-01-30 01:51:01.02	329.63	11.54	-49.4	-64.6	3.6	1.51e+00	0	38	104	0	60	61569
2026-01-30 01:51:05.06	330.02	11.22	-49.4	-64.7	3.6	1.51e+00	0	38	104	0	60	61837
2026-01-30 01:51:09.10	330.39	10.90	-49.4	-64.7	3.6	1.51e+00	0	38	104	0	60	61821
2026-01-30 01:51:13.14	330.76	10.59	-49.4	-64.7	3.6	1.51e+00	0	38	104	0	60	61778
2026-01-30 01:51:17.18	331.12	10.28	-49.4	-64.6	3.5	1.51e+00	0	38	104	0	60	61440
2026-01-30 01:51:21.22	331.47	9.98	-49.4	-64.7	3.6	1.51e+00	0	38	104	0	60	61756
2026-01-30 01:51:25.26	331.82	9.67	-49.4	-64.7	3.6	1.51e+00	0	38	104	0	60	61846
2026-01-30 01:51:29.31	332.16	9.37	-49.4	-64.7	3.6	1.51e+00	0	38	104	0	60	62020
2026-01-30 01:51:33.35	332.49	9.07	-49.4	-64.7	3.6	1.51e+00	0	38	104	0	60	61765
2026-01-30 01:51:37.39	332.82	8.78	-49.4	-64.7	3.5	1.51e+00	0	38	104	0	60	62013
2026-01-30 01:51:41.43	333.14	8.48	-49.4	-64.7	3.6	1.51e+00	0	38	104	0	60	61781
2026-01-30 01:51:45.47	333.45	8.20	-49.4	-64.7	3.6	1.51e+00	0	38	104	0	60	61752
2026-01-30 01:51:49.51	333.76	7.91	-49.4	-64.7	3.6	1.51e+00	0	38	104	0	60	61898
2026-01-30 01:51:53.55	334.07	7.62	-49.4	-64.7	3.6	1.51e+00	0	38	104	0	60	61847
2026-01-30 01:51:57.59	334.37	7.34	-49.4	-64.7	3.6	1.51e+00	0	38	104	0	60	61922
2026-01-30 01:52:01.63	334.66	7.06	-49.4	-64.7	3.6	1.51e+00	0	38	104	0	60	61858
2026-01-30 01:52:05.67	334.95	6.78	-49.4	-64.7	3.6	1.51e+00	0	38	104	0	60	61972
2026-01-30 01:52:09.72	335.23	6.51	-49.4	-64.7	3.6	1.51e+00	0	38	104	0	60	62069
2026-01-30 01:52:13.76	335.51	6.24	-49.4	-64.7	3.6	1.51e+00	0	38	104	0	60	61752
2026-01-30 01:52:17.80	335.78	5.97	-49.4	-64.6	3.6	1.51e+00	0	38	104	0	60	61600
2026-01-30 01:52:21.84	336.05	5.70	-49.4	-64.7	3.6	1.51e+00	0	38	104	0	60	62121
2026-01-30 01:52:25.88	336.31	5.43	-49.4	-64.7	3.6	1.51e+00	0	38	104	0	60	61757
2026-01-30 01:52:29.92	336.57	5.17	-49.4	-64.7	3.6	1.51e+00	0	38	104	0	60	61788
2026-01-30 01:52:33.96	336.83	4.91	-49.4	-64.7	3.6	1.51e+00	0	38	104	0	60	61905
2026-01-30 01:52:38.00	337.08	4.65	-49.4	-64.7	3.6	1.51e+00	0	38	104	0	60	61754
2026-01-30 01:52:42.04	337.32	4.39	-49.4	-64.7	3.6	1.51e+00	0	38	104	0	60	61853
2026-01-30 01:52:46.09	337.57	4.14	-49.4	-64.7	3.6	1.51e+00	0	38	104	0	60	61920
2026-01-30 01:52:50.13	337.81	3.89	-49.4	-64.7	3.6	1.51e+00	0	38	104	0	60	61976
2026-01-30 01:52:54.17	338.04	3.63	-49.4	-64.6	3.6	1.51e+00	0	38	104	0	60	61439
2026-01-30 01:52:58.21	338.27	3.39	-49.4	-64.7	3.6	1.51e+00	0	38	104	0	60	61752
2026-01-30 01:53:02.25	338.50	3.14	-49.4	-64.7	3.6	1.51e+00	0	38	104	0	60	62005
2026-01-30 01:53:06.29	338.73	2.89	-49.4	-64.7	3.6	1.51e+00	0	38	104	0	60	61856
2026-01-30 01:53:10.33	338.95	2.65	-49.4	-64.7	3.6	1.51e+00	0	38	104	0	60	61998
2026-01-30 01:53:14.38	339.17	2.41	-49.4	-64.7	3.6	1.51e+00	0	38	104	0	60	61797
2026-01-30 01:53:18.42	339.38	2.17	-49.4	-64.7	3.6	1.51e+00	0	38	104	0	60	61925
2026-01-30 01:53:22.46	339.59	1.93	-49.4	-64.7	3.6	1.51e+00	0	38	104	0	60	61754
2026-01-30 01:53:26.50	339.80	1.69	-49.4	-64.7	3.6	1.51e+00	0	38	104	0	60	62016
2026-01-30 01:53:30.54	340.01	1.46	-49.4	-64.6	3.6	1.51e+00	0	38	104	0	60	61607
2026-01-30 01:53:34.58	340.21	1.23	-49.4	-64.7	3.6	1.51e+00	0	38	104	0	60	61800
2026-01-30 01:53:38.62	340.41	0.99	-49.4	-64.7	3.6	1.51e+00	0	38	104	0	60	61860
2026-01-30 01:53:42.66	340.61	0.76	-49.4	-64.6	3.6	1.51e+00	0	38	104	0	60	61639
2026-01-30 01:53:46.70	340.80	0.54	-49.4	-64.7	3.6	1.51e+00	0	38	104	0	60	61860
2026-01-30 01:53:50.75	340.99	0.31	-49.4	-64.6	3.6	1.51e+00	0	38	104	0	60	61646
2026-01-30 01:53:54.79	341.18	0.08	-49.4	-64.7	3.6	1.51e+00	0	38	104	0	60	61989

#Closed at: 2026-01-30 01:53:57
#Recorded file [0 MB]: D:/lorett/data/35029_260130_133901.dat