passes_logs/2026/01/30/R4.6S_Anadyr/R4.6S_Anadyr__20260130_023017_NOAA_21_JPSS-2_rec.log

#Pass ID: 20260130_023017_NOAA 21 (JPSS-2)
#Satellite: NOAA 21 (JPSS-2)
#Configuration: NOAA-21
#almurnet v.1.7.20251203
#Start time: 2026-01-30 02:30:20

#Version: 2.2.20231116
#Station: R4.6S_Anadyr
#Location: 177.4865 lon 64.73178 lat
#TLE: 1 54234U 22150A   26029.46216196  .00000141  00000+0  87503-4 0  9994
#TLE: 2 54234  98.7512 330.1880 0000955 196.3413 163.7732 14.19540905166865

#Time	Az	El	Level	Level2	SNR	BER	BlckErr	Temp	State	Recorded	gain1	gain2
2026-01-30 02:30:20.59	216.27	0.16	-49.5	-60.9	3.2	1.54e+00	0	38	0	0	60	39063
2026-01-30 02:30:23.62	216.49	0.31	-49.5	-62.4	3.5	1.52e+00	0	38	104	0	60	46394
2026-01-30 02:30:26.65	216.71	0.46	-49.5	-62.4	3.5	1.51e+00	0	38	104	0	60	46393
2026-01-30 02:30:29.69	216.93	0.62	-49.5	-62.4	3.5	1.52e+00	0	38	104	0	60	46325
2026-01-30 02:30:32.72	217.15	0.77	-49.5	-62.4	3.5	1.52e+00	0	38	104	0	60	46336
2026-01-30 02:30:35.75	217.38	0.92	-49.5	-62.4	3.5	1.51e+00	0	38	104	0	60	46346
2026-01-30 02:30:38.78	217.61	1.08	-49.5	-62.4	3.5	1.52e+00	0	38	104	0	60	46426
2026-01-30 02:30:41.81	217.84	1.23	-49.5	-62.4	3.5	1.52e+00	0	38	104	0	60	46242
2026-01-30 02:30:44.85	218.07	1.39	-49.5	-62.4	3.5	1.52e+00	0	39	104	0	60	46497
2026-01-30 02:30:47.88	218.31	1.55	-49.5	-62.5	3.5	1.52e+00	0	39	104	0	60	46577
2026-01-30 02:30:50.91	218.54	1.70	-49.5	-62.4	3.5	1.51e+00	0	39	104	0	60	46448
2026-01-30 02:30:53.94	218.78	1.86	-49.5	-62.4	3.5	1.52e+00	0	39	104	0	60	46480
2026-01-30 02:30:56.97	219.03	2.02	-49.5	-62.4	3.5	1.52e+00	0	39	104	0	60	46243
2026-01-30 02:31:00.00	219.27	2.18	-49.5	-62.4	3.5	1.52e+00	0	39	104	0	60	46384
2026-01-30 02:31:03.03	219.52	2.34	-49.5	-62.4	3.5	1.52e+00	0	39	104	0	60	46384
2026-01-30 02:31:06.07	219.77	2.50	-49.5	-62.4	3.5	1.52e+00	0	39	104	0	60	46486
2026-01-30 02:31:09.10	220.02	2.66	-49.5	-62.4	3.5	1.52e+00	0	39	104	0	60	46420
2026-01-30 02:31:12.13	220.28	2.82	-49.5	-62.5	3.5	1.52e+00	0	39	104	0	60	46549
2026-01-30 02:31:15.16	220.53	2.98	-49.5	-62.4	3.5	1.52e+00	0	39	104	0	60	46470
2026-01-30 02:31:18.19	220.79	3.14	-49.5	-62.5	3.5	1.52e+00	0	39	104	0	60	46600
2026-01-30 02:31:21.22	221.06	3.30	-49.5	-62.4	3.5	1.52e+00	0	39	104	0	60	46336
2026-01-30 02:31:24.25	221.32	3.46	-49.5	-62.4	3.5	1.52e+00	0	39	104	0	60	46425
2026-01-30 02:31:27.28	221.59	3.62	-49.5	-62.4	3.5	1.52e+00	0	39	104	0	60	46381
2026-01-30 02:31:30.31	221.86	3.79	-49.5	-62.4	3.5	1.52e+00	0	39	104	0	60	46370
2026-01-30 02:31:33.35	222.14	3.95	-49.5	-62.5	3.5	1.52e+00	0	39	104	0	60	46544
2026-01-30 02:31:36.38	222.42	4.11	-49.5	-62.4	3.5	1.52e+00	0	39	104	0	60	46386
2026-01-30 02:31:39.41	222.70	4.28	-49.5	-62.4	3.5	1.51e+00	0	39	104	0	60	46414
2026-01-30 02:31:42.44	222.98	4.44	-49.5	-62.4	3.5	1.52e+00	0	39	104	0	60	46077
2026-01-30 02:31:45.47	223.27	4.61	-49.5	-62.4	3.5	1.52e+00	0	39	104	0	60	46507
2026-01-30 02:31:48.50	223.56	4.77	-49.5	-62.4	3.5	1.52e+00	0	39	104	0	60	46381
2026-01-30 02:31:51.53	223.85	4.94	-49.5	-62.4	3.5	1.52e+00	0	39	104	0	60	46382
2026-01-30 02:31:54.56	224.14	5.10	-49.5	-62.5	3.5	1.52e+00	0	39	104	0	60	46538
2026-01-30 02:31:57.59	224.44	5.27	-49.5	-62.4	3.5	1.52e+00	0	39	104	0	60	46383
2026-01-30 02:32:00.62	224.75	5.44	-49.5	-62.5	3.5	1.52e+00	0	39	104	0	60	46572
2026-01-30 02:32:03.65	225.05	5.61	-49.5	-62.4	3.5	1.52e+00	0	39	104	0	60	46445
2026-01-30 02:32:06.68	225.36	5.77	-49.5	-62.4	3.5	1.52e+00	0	39	104	0	60	46373
2026-01-30 02:32:09.72	225.68	5.94	-49.5	-62.5	3.5	1.52e+00	0	39	104	0	60	46553
2026-01-30 02:32:12.74	225.99	6.11	-49.5	-62.4	3.5	1.52e+00	0	39	104	0	60	46273
2026-01-30 02:32:15.78	226.31	6.28	-49.5	-62.4	3.5	1.52e+00	0	39	104	0	60	46421
2026-01-30 02:32:18.81	226.63	6.45	-49.5	-62.4	3.5	1.52e+00	0	39	104	0	60	46443
2026-01-30 02:32:21.84	226.96	6.62	-49.5	-62.4	3.5	1.52e+00	0	39	104	0	60	46445
2026-01-30 02:32:24.87	227.29	6.79	-49.5	-62.4	3.5	1.52e+00	0	39	104	0	60	46273
2026-01-30 02:32:27.90	227.63	6.96	-49.5	-62.4	3.5	1.52e+00	0	39	104	0	60	46287
2026-01-30 02:32:30.93	227.96	7.13	-49.5	-62.5	3.5	1.52e+00	0	39	104	0	60	46564
2026-01-30 02:32:33.96	228.31	7.30	-49.5	-62.4	3.5	1.51e+00	0	39	104	0	60	46192
2026-01-30 02:32:36.99	228.65	7.47	-49.5	-62.4	3.5	1.52e+00	0	39	104	0	60	46516
2026-01-30 02:32:40.02	229.00	7.65	-49.5	-62.4	3.5	1.52e+00	0	39	104	0	60	46440
2026-01-30 02:32:43.05	229.35	7.82	-49.5	-62.4	3.5	1.52e+00	0	39	104	0	60	46359
2026-01-30 02:32:46.09	229.71	7.99	-49.5	-62.4	3.5	1.52e+00	0	39	104	0	60	46285
2026-01-30 02:32:49.12	230.08	8.16	-49.5	-62.4	3.5	1.52e+00	0	39	104	0	60	46360
2026-01-30 02:32:52.15	230.44	8.34	-49.5	-62.4	3.5	1.51e+00	0	39	104	0	60	46400
2026-01-30 02:32:55.18	230.81	8.51	-49.5	-62.4	3.5	1.52e+00	0	39	104	0	60	46225
2026-01-30 02:32:58.21	231.19	8.68	-49.5	-62.4	3.4	1.52e+00	0	39	104	0	60	46380
2026-01-30 02:33:01.24	231.56	8.85	-49.5	-62.4	3.5	1.52e+00	0	39	104	0	60	46234
2026-01-30 02:33:04.27	231.95	9.03	-49.5	-62.4	3.5	1.52e+00	0	39	104	0	60	46370
2026-01-30 02:33:07.30	232.33	9.20	-49.5	-62.4	3.5	1.52e+00	0	39	104	0	60	46285
2026-01-30 02:33:10.33	232.73	9.37	-49.5	-62.5	3.5	1.52e+00	0	39	104	0	60	46689
2026-01-30 02:33:13.36	233.12	9.55	-49.5	-62.4	3.5	1.52e+00	0	39	104	0	60	46316
2026-01-30 02:33:16.39	233.52	9.72	-49.5	-62.4	3.5	1.52e+00	0	39	104	0	60	46238
2026-01-30 02:33:19.42	233.93	9.89	-49.5	-62.4	3.5	1.52e+00	0	39	104	0	60	46361
2026-01-30 02:33:22.45	234.34	10.07	-49.5	-62.4	3.5	1.52e+00	0	39	104	0	60	46490
2026-01-30 02:33:25.48	234.75	10.24	-49.5	-62.4	3.5	1.52e+00	0	39	104	0	60	46434
2026-01-30 02:33:28.51	235.17	10.41	-49.5	-62.4	3.5	1.52e+00	0	39	104	0	60	46442
2026-01-30 02:33:31.55	235.60	10.59	-49.5	-62.5	3.5	1.52e+00	0	39	104	0	60	46557
2026-01-30 02:33:34.58	236.03	10.76	-49.5	-62.4	3.5	1.52e+00	0	39	104	0	60	46416
2026-01-30 02:33:37.60	236.46	10.93	-49.5	-62.4	3.5	1.52e+00	0	39	104	0	60	46490
2026-01-30 02:33:40.64	236.90	11.10	-49.5	-62.4	3.5	1.52e+00	0	39	104	0	60	46516
2026-01-30 02:33:43.67	237.35	11.28	-49.5	-62.4	3.5	1.51e+00	0	39	104	0	60	46462
2026-01-30 02:33:46.70	237.80	11.45	-49.5	-62.4	3.5	1.52e+00	0	39	104	0	60	46525
2026-01-30 02:33:49.73	238.25	11.62	-49.5	-62.5	3.5	1.51e+00	0	39	104	0	60	46677
2026-01-30 02:33:52.76	238.71	11.79	-49.5	-62.4	3.5	1.52e+00	0	39	104	0	60	46243
2026-01-30 02:33:55.79	239.17	11.96	-49.5	-62.5	3.5	1.51e+00	0	39	104	0	60	46566
2026-01-30 02:33:58.82	239.64	12.13	-49.5	-62.4	3.5	1.52e+00	0	39	104	0	60	46435
2026-01-30 02:34:01.85	240.12	12.30	-49.5	-62.5	3.5	1.52e+00	0	39	104	0	60	46676
2026-01-30 02:34:04.88	240.60	12.47	-49.5	-62.4	3.5	1.52e+00	0	39	104	0	60	46438
2026-01-30 02:34:07.91	241.09	12.64	-49.5	-62.4	3.5	1.52e+00	0	39	104	0	60	46525
2026-01-30 02:34:10.94	241.58	12.80	-49.5	-62.4	3.5	1.51e+00	0	39	104	0	60	46399
2026-01-30 02:34:13.97	242.07	12.97	-49.5	-62.4	3.5	1.52e+00	0	39	104	0	60	46423
2026-01-30 02:34:17.00	242.57	13.14	-49.5	-62.4	3.5	1.52e+00	0	39	104	0	60	46294
2026-01-30 02:34:20.03	243.08	13.30	-49.5	-62.5	3.5	1.52e+00	0	39	104	0	60	46565
2026-01-30 02:34:23.06	243.59	13.47	-49.6	-62.4	3.5	1.52e+00	0	39	104	0	60	46406
2026-01-30 02:34:26.10	244.11	13.63	-49.5	-62.4	3.5	1.52e+00	0	39	104	0	60	46429
2026-01-30 02:34:29.13	244.64	13.79	-49.5	-62.4	3.5	1.52e+00	0	39	104	0	60	46396
2026-01-30 02:34:32.15	245.17	13.95	-49.5	-62.4	3.5	1.52e+00	0	39	104	0	60	46436
2026-01-30 02:34:35.19	245.70	14.11	-49.5	-62.4	3.5	1.52e+00	0	39	104	0	60	46257
2026-01-30 02:34:38.22	246.24	14.27	-49.5	-62.5	3.5	1.52e+00	0	39	104	0	60	46544
2026-01-30 02:34:41.25	246.79	14.43	-49.5	-62.5	3.5	1.52e+00	0	39	104	0	60	46667
2026-01-30 02:34:44.28	247.34	14.58	-49.5	-62.5	3.5	1.52e+00	0	39	104	0	60	46554
2026-01-30 02:34:47.31	247.90	14.73	-49.5	-62.5	3.5	1.52e+00	0	39	104	0	60	46791
2026-01-30 02:34:50.34	248.46	14.89	-49.5	-62.4	3.5	1.51e+00	0	39	104	0	60	46468
2026-01-30 02:34:53.37	249.03	15.04	-49.5	-62.4	3.5	1.52e+00	0	39	104	0	60	46244
2026-01-30 02:34:56.40	249.60	15.19	-49.5	-62.4	3.5	1.51e+00	0	39	104	0	60	46273
2026-01-30 02:34:59.43	250.18	15.33	-49.5	-62.4	3.5	1.52e+00	0	39	104	0	60	46511
2026-01-30 02:35:02.46	250.77	15.48	-49.5	-62.4	3.5	1.52e+00	0	39	104	0	60	46380
2026-01-30 02:35:05.48	251.36	15.62	-49.6	-62.4	3.5	1.52e+00	0	39	104	0	60	46345
2026-01-30 02:35:08.51	251.95	15.76	-49.5	-62.5	3.5	1.51e+00	0	39	104	0	60	46554
2026-01-30 02:35:11.55	252.56	15.90	-49.5	-62.4	3.5	1.52e+00	0	39	104	0	60	46345
2026-01-30 02:35:14.58	253.16	16.04	-49.5	-62.5	3.5	1.52e+00	0	39	104	0	60	46668
2026-01-30 02:35:17.61	253.77	16.17	-49.6	-62.5	3.5	1.52e+00	0	39	104	0	60	46552
2026-01-30 02:35:20.64	254.39	16.31	-49.5	-62.4	3.5	1.52e+00	0	39	104	0	60	46406
2026-01-30 02:35:23.67	255.01	16.43	-49.5	-62.4	3.5	1.52e+00	0	39	104	0	60	46420
2026-01-30 02:35:26.70	255.64	16.56	-49.6	-62.4	3.5	1.52e+00	0	39	104	0	60	46497
2026-01-30 02:35:29.73	256.27	16.69	-49.5	-62.5	3.5	1.52e+00	0	39	104	0	60	46579
2026-01-30 02:35:32.76	256.91	16.81	-49.5	-62.5	3.5	1.52e+00	0	39	104	0	60	46560
2026-01-30 02:35:35.79	257.56	16.93	-49.6	-62.5	3.5	1.51e+00	0	39	104	0	60	46662
2026-01-30 02:35:38.82	258.20	17.04	-49.5	-62.4	3.5	1.52e+00	0	39	104	0	60	46507
2026-01-30 02:35:41.86	258.86	17.16	-49.6	-62.5	3.5	1.52e+00	0	39	104	0	60	46626
2026-01-30 02:35:44.89	259.52	17.27	-49.6	-62.5	3.5	1.51e+00	0	39	104	0	60	46580
2026-01-30 02:35:47.92	260.18	17.37	-49.6	-62.5	3.5	1.52e+00	0	39	104	0	60	46599
2026-01-30 02:35:50.95	260.84	17.48	-49.5	-62.5	3.5	1.52e+00	0	39	104	0	60	46649
2026-01-30 02:35:53.98	261.51	17.58	-49.5	-62.5	3.5	1.52e+00	0	39	104	0	60	46589
2026-01-30 02:35:57.01	262.19	17.67	-49.6	-62.4	3.5	1.52e+00	0	39	104	0	60	46515
2026-01-30 02:36:00.04	262.87	17.77	-49.6	-62.4	3.5	1.52e+00	0	39	104	0	60	46452
2026-01-30 02:36:03.07	263.55	17.86	-49.5	-62.4	3.5	1.52e+00	0	39	104	0	60	46155
2026-01-30 02:36:06.10	264.24	17.94	-49.6	-62.4	3.5	1.52e+00	0	39	104	0	60	46285
2026-01-30 02:36:09.13	264.93	18.03	-49.5	-62.4	3.5	1.51e+00	0	39	104	0	60	46318
2026-01-30 02:36:12.16	265.62	18.10	-49.6	-62.4	3.5	1.51e+00	0	39	104	0	60	46434
2026-01-30 02:36:15.19	266.32	18.18	-49.6	-62.4	3.5	1.52e+00	0	39	104	0	60	46469
2026-01-30 02:36:18.22	267.02	18.25	-49.6	-62.4	3.5	1.52e+00	0	39	104	0	60	46514
2026-01-30 02:36:21.25	267.72	18.32	-49.6	-62.5	3.5	1.51e+00	0	39	104	0	60	46662
2026-01-30 02:36:24.28	268.43	18.38	-49.5	-62.4	3.5	1.52e+00	0	39	104	0	60	46318
2026-01-30 02:36:27.31	269.14	18.44	-49.6	-62.4	3.5	1.51e+00	0	39	104	0	60	46470
2026-01-30 02:36:30.34	269.85	18.49	-49.6	-62.4	3.5	1.52e+00	0	39	104	0	60	46440
2026-01-30 02:36:33.37	270.57	18.54	-49.6	-62.4	3.5	1.52e+00	0	39	104	0	60	46405
2026-01-30 02:36:36.40	271.28	18.59	-49.6	-62.4	3.5	1.52e+00	0	39	104	0	60	46400
2026-01-30 02:36:39.43	272.00	18.63	-49.6	-62.5	3.5	1.52e+00	0	39	104	0	60	46548
2026-01-30 02:36:42.47	272.72	18.67	-49.6	-62.5	3.5	1.52e+00	0	39	104	0	60	46602
2026-01-30 02:36:45.50	273.44	18.70	-49.5	-62.4	3.5	1.52e+00	0	39	104	0	60	46370
2026-01-30 02:36:48.53	274.17	18.73	-49.6	-62.4	3.5	1.52e+00	0	39	104	0	60	46455
2026-01-30 02:36:51.56	274.89	18.76	-49.6	-62.5	3.5	1.51e+00	0	39	104	0	60	46607
2026-01-30 02:36:54.59	275.62	18.78	-49.5	-62.4	3.5	1.52e+00	0	39	104	0	60	46491
2026-01-30 02:36:57.62	276.34	18.79	-49.6	-62.4	3.5	1.52e+00	0	39	104	0	60	46269
2026-01-30 02:37:00.65	277.07	18.80	-49.6	-62.4	3.5	1.52e+00	0	39	104	0	60	46371
2026-01-30 02:37:03.67	277.80	18.81	-49.5	-62.5	3.5	1.52e+00	0	39	104	0	60	46686
2026-01-30 02:37:06.70	278.52	18.81	-49.6	-62.5	3.5	1.52e+00	0	39	104	0	60	46635
2026-01-30 02:37:09.73	279.25	18.81	-49.6	-62.5	3.5	1.52e+00	0	39	104	0	60	46630
2026-01-30 02:37:12.76	279.98	18.80	-49.5	-62.5	3.5	1.52e+00	0	39	104	0	60	46569
2026-01-30 02:37:15.79	280.70	18.79	-49.6	-62.4	3.5	1.52e+00	0	39	104	0	60	46286
2026-01-30 02:37:18.82	281.43	18.78	-49.5	-62.5	3.5	1.52e+00	0	39	104	0	60	46552
2026-01-30 02:37:21.86	282.16	18.76	-49.6	-62.5	3.5	1.52e+00	0	39	104	0	60	46726
2026-01-30 02:37:24.89	282.88	18.73	-49.6	-62.4	3.5	1.52e+00	0	39	104	0	60	46315
2026-01-30 02:37:27.92	283.60	18.70	-49.5	-62.5	3.5	1.52e+00	0	39	104	0	60	46645
2026-01-30 02:37:30.95	284.32	18.67	-49.5	-62.5	3.5	1.51e+00	0	39	104	0	60	46582
2026-01-30 02:37:33.98	285.04	18.63	-49.6	-62.4	3.5	1.52e+00	0	39	104	0	60	46293
2026-01-30 02:37:37.01	285.76	18.59	-49.6	-62.5	3.5	1.52e+00	0	39	104	0	60	46562
2026-01-30 02:37:40.04	286.48	18.54	-49.6	-62.5	3.5	1.52e+00	0	39	104	0	60	46660
2026-01-30 02:37:43.07	287.19	18.49	-49.6	-62.4	3.5	1.52e+00	0	39	104	0	60	46409
2026-01-30 02:37:46.11	287.90	18.44	-49.6	-62.5	3.5	1.52e+00	0	39	104	0	60	46558
2026-01-30 02:37:49.14	288.61	18.38	-49.6	-62.4	3.5	1.52e+00	0	39	104	0	60	46430
2026-01-30 02:37:52.17	289.32	18.32	-49.6	-62.4	3.5	1.52e+00	0	39	104	0	60	46469
2026-01-30 02:37:55.21	290.02	18.25	-49.6	-62.5	3.5	1.52e+00	0	39	104	0	60	46768
2026-01-30 02:37:58.24	290.72	18.18	-49.6	-62.4	3.5	1.52e+00	0	39	104	0	60	46357
2026-01-30 02:38:01.27	291.42	18.10	-49.6	-62.4	3.5	1.52e+00	0	39	104	0	60	46530
2026-01-30 02:38:04.30	292.11	18.03	-49.6	-62.5	3.5	1.52e+00	0	39	104	0	60	46587
2026-01-30 02:38:07.33	292.80	17.94	-49.5	-62.4	3.5	1.52e+00	0	39	104	0	60	46492
2026-01-30 02:38:10.36	293.48	17.86	-49.6	-62.4	3.5	1.52e+00	0	39	104	0	60	46503
2026-01-30 02:38:13.39	294.16	17.77	-49.6	-62.5	3.5	1.51e+00	0	39	104	0	60	46595
2026-01-30 02:38:16.42	294.84	17.67	-49.6	-62.5	3.5	1.52e+00	0	39	104	0	60	46576
2026-01-30 02:38:19.45	295.51	17.58	-49.6	-62.5	3.5	1.52e+00	0	39	104	0	60	46621
2026-01-30 02:38:22.48	296.18	17.48	-49.6	-62.5	3.5	1.52e+00	0	39	104	0	60	46645
2026-01-30 02:38:25.52	296.85	17.37	-49.6	-62.5	3.5	1.52e+00	0	39	104	0	60	46622
2026-01-30 02:38:28.55	297.51	17.27	-49.6	-62.5	3.5	1.52e+00	0	39	104	0	60	46537
2026-01-30 02:38:31.58	298.16	17.16	-49.5	-62.4	3.5	1.52e+00	0	39	104	0	60	46342
2026-01-30 02:38:34.61	298.81	17.05	-49.6	-62.5	3.5	1.52e+00	0	39	104	0	60	46628
2026-01-30 02:38:37.64	299.46	16.93	-49.6	-62.5	3.5	1.52e+00	0	39	104	0	60	46546
2026-01-30 02:38:40.67	300.10	16.81	-49.6	-62.5	3.5	1.52e+00	0	39	104	0	60	46668
2026-01-30 02:38:43.70	300.74	16.69	-49.6	-62.4	3.5	1.52e+00	0	39	104	0	60	46496
2026-01-30 02:38:46.73	301.37	16.57	-49.6	-62.4	3.5	1.52e+00	0	39	104	0	60	46532
2026-01-30 02:38:49.76	301.99	16.44	-49.6	-62.4	3.5	1.52e+00	0	39	104	0	60	46448
2026-01-30 02:38:52.79	302.61	16.31	-49.6	-62.4	3.5	1.52e+00	0	39	104	0	60	46187
2026-01-30 02:38:55.82	303.23	16.18	-49.6	-62.5	3.5	1.52e+00	0	39	104	0	60	46558
2026-01-30 02:38:58.85	303.84	16.05	-49.6	-62.4	3.5	1.52e+00	0	39	104	0	60	46318
2026-01-30 02:39:01.88	304.44	15.91	-49.6	-62.5	3.5	1.52e+00	0	39	104	0	60	46536
2026-01-30 02:39:04.91	305.04	15.77	-49.6	-62.5	3.5	1.52e+00	0	39	104	0	60	46597
2026-01-30 02:39:07.94	305.63	15.63	-49.6	-62.5	3.5	1.52e+00	0	39	104	0	60	46553
2026-01-30 02:39:10.98	306.22	15.49	-49.6	-62.4	3.5	1.52e+00	0	39	104	0	60	46291
2026-01-30 02:39:14.01	306.81	15.35	-49.6	-62.4	3.5	1.52e+00	0	39	104	0	60	46406
2026-01-30 02:39:17.04	307.38	15.20	-49.5	-62.4	3.5	1.52e+00	0	39	104	0	60	46392
2026-01-30 02:39:20.07	307.96	15.05	-49.6	-62.4	3.5	1.52e+00	0	39	104	0	60	46438
2026-01-30 02:39:23.10	308.52	14.90	-49.6	-62.4	3.5	1.52e+00	0	39	104	0	60	46498
2026-01-30 02:39:26.13	309.08	14.75	-49.6	-62.4	3.5	1.52e+00	0	39	104	0	60	46449
2026-01-30 02:39:29.16	309.64	14.60	-49.6	-62.5	3.5	1.52e+00	0	39	104	0	60	46631
2026-01-30 02:39:32.19	310.19	14.44	-49.6	-62.4	3.5	1.52e+00	0	39	104	0	60	46461
2026-01-30 02:39:35.22	310.73	14.29	-49.5	-62.4	3.5	1.52e+00	0	39	104	0	60	46484
2026-01-30 02:39:38.26	311.27	14.13	-49.6	-62.4	3.5	1.51e+00	0	39	104	0	60	46389
2026-01-30 02:39:41.29	311.80	13.97	-49.6	-62.4	3.5	1.52e+00	0	39	104	0	60	46503
2026-01-30 02:39:44.31	312.33	13.81	-49.6	-62.5	3.5	1.52e+00	0	39	104	0	60	46570
2026-01-30 02:39:47.35	312.85	13.65	-49.6	-62.4	3.5	1.52e+00	0	39	104	0	60	46445
2026-01-30 02:39:50.38	313.37	13.49	-49.5	-62.5	3.5	1.52e+00	0	39	104	0	60	46659
2026-01-30 02:39:53.41	313.88	13.33	-49.6	-62.5	3.5	1.52e+00	0	39	104	0	60	46709
2026-01-30 02:39:56.44	314.39	13.17	-49.6	-62.4	3.5	1.51e+00	0	39	104	0	60	46459
2026-01-30 02:39:59.47	314.89	13.00	-49.6	-62.5	3.5	1.52e+00	0	39	104	0	60	46691
2026-01-30 02:40:02.50	315.38	12.84	-49.6	-62.5	3.5	1.52e+00	0	39	104	0	60	46543
2026-01-30 02:40:05.53	315.87	12.67	-49.6	-62.5	3.5	1.52e+00	0	39	104	0	60	46638
2026-01-30 02:40:08.56	316.35	12.50	-49.6	-62.4	3.5	1.52e+00	0	39	104	0	60	46533
2026-01-30 02:40:11.59	316.83	12.34	-49.6	-62.5	3.5	1.52e+00	0	39	104	0	60	46580
2026-01-30 02:40:14.62	317.31	12.17	-49.6	-62.4	3.5	1.52e+00	0	39	104	0	60	46461
2026-01-30 02:40:17.65	317.77	12.00	-49.6	-62.4	3.5	1.52e+00	0	39	104	0	60	46396
2026-01-30 02:40:20.68	318.24	11.83	-49.6	-62.5	3.5	1.52e+00	0	39	104	0	60	46683
2026-01-30 02:40:23.71	318.70	11.66	-49.6	-62.4	3.5	1.52e+00	0	39	104	0	60	46345
2026-01-30 02:40:26.74	319.15	11.49	-49.6	-62.4	3.5	1.52e+00	0	39	104	0	60	46494
2026-01-30 02:40:29.78	319.60	11.32	-49.6	-62.4	3.5	1.52e+00	0	39	104	0	60	46299
2026-01-30 02:40:32.81	320.04	11.15	-49.5	-62.5	3.5	1.52e+00	0	39	104	0	60	46635
2026-01-30 02:40:35.84	320.48	10.98	-49.5	-62.4	3.5	1.52e+00	0	39	104	0	60	46378
2026-01-30 02:40:38.87	320.91	10.81	-49.6	-62.4	3.5	1.52e+00	0	39	104	0	60	46530
2026-01-30 02:40:41.90	321.34	10.64	-49.6	-62.5	3.5	1.52e+00	0	39	104	0	60	46548
2026-01-30 02:40:44.93	321.76	10.47	-49.6	-62.5	3.5	1.52e+00	0	39	104	0	60	46549
2026-01-30 02:40:47.96	322.18	10.29	-49.6	-62.5	3.5	1.52e+00	0	39	104	0	60	46612
2026-01-30 02:40:50.99	322.59	10.12	-49.5	-62.5	3.5	1.52e+00	0	39	104	0	60	46715
2026-01-30 02:40:54.02	323.00	9.95	-49.6	-62.5	3.5	1.52e+00	0	39	104	0	60	46604
2026-01-30 02:40:57.05	323.41	9.78	-49.6	-62.4	3.5	1.52e+00	0	39	104	0	60	46481
2026-01-30 02:41:00.09	323.81	9.61	-49.6	-62.4	3.5	1.52e+00	0	39	104	0	60	46521
2026-01-30 02:41:03.12	324.20	9.44	-49.6	-62.4	3.5	1.52e+00	0	39	104	0	60	46202
2026-01-30 02:41:06.15	324.60	9.26	-49.6	-62.5	3.5	1.51e+00	0	39	104	0	60	46707
2026-01-30 02:41:09.18	324.98	9.09	-49.6	-62.5	3.5	1.52e+00	0	39	104	0	60	46668
2026-01-30 02:41:12.21	325.36	8.92	-49.6	-62.4	3.5	1.52e+00	0	39	104	0	60	46383
2026-01-30 02:41:15.24	325.74	8.75	-49.6	-62.4	3.5	1.52e+00	0	39	104	0	60	46429
2026-01-30 02:41:18.27	326.12	8.58	-49.6	-62.4	3.5	1.52e+00	0	39	104	0	60	46466
2026-01-30 02:41:21.30	326.49	8.41	-49.6	-62.4	3.5	1.51e+00	0	39	104	0	60	46440
2026-01-30 02:41:24.33	326.85	8.24	-49.6	-62.4	3.5	1.52e+00	0	39	104	0	60	46360
2026-01-30 02:41:27.36	327.21	8.06	-49.6	-62.4	3.5	1.52e+00	0	39	104	0	60	46364
2026-01-30 02:41:30.39	327.57	7.89	-49.6	-62.4	3.5	1.52e+00	0	39	104	0	60	46432
2026-01-30 02:41:33.42	327.92	7.72	-49.5	-62.5	3.5	1.52e+00	0	39	104	0	60	46619
2026-01-30 02:41:36.45	328.27	7.55	-49.5	-62.5	3.5	1.52e+00	0	39	104	0	60	46560
2026-01-30 02:41:39.48	328.62	7.38	-49.6	-62.5	3.5	1.52e+00	0	39	104	0	60	46846
2026-01-30 02:41:42.52	328.96	7.21	-49.6	-62.5	3.5	1.52e+00	0	39	104	0	60	46581
2026-01-30 02:41:45.54	329.30	7.04	-49.6	-62.4	3.5	1.52e+00	0	39	104	0	60	46417
2026-01-30 02:41:48.57	329.63	6.88	-49.6	-62.5	3.5	1.52e+00	0	39	104	0	60	46609
2026-01-30 02:41:51.60	329.96	6.71	-49.6	-62.5	3.5	1.52e+00	0	39	104	0	60	46651
2026-01-30 02:41:54.64	330.29	6.54	-49.6	-62.5	3.5	1.52e+00	0	39	104	0	60	46552
2026-01-30 02:41:57.67	330.61	6.37	-49.6	-62.4	3.5	1.52e+00	0	39	104	0	60	46381
2026-01-30 02:42:00.70	330.93	6.20	-49.6	-62.5	3.5	1.52e+00	0	39	104	0	60	46685
2026-01-30 02:42:03.73	331.25	6.04	-49.6	-62.5	3.5	1.52e+00	0	39	104	0	60	46591
2026-01-30 02:42:06.76	331.56	5.87	-49.6	-62.5	3.5	1.52e+00	0	39	104	0	60	46638
2026-01-30 02:42:09.78	331.87	5.70	-49.6	-62.4	3.5	1.52e+00	0	39	104	0	60	46503
2026-01-30 02:42:12.81	332.18	5.54	-49.6	-62.5	3.5	1.52e+00	0	39	104	0	60	46576
2026-01-30 02:42:15.85	332.48	5.37	-49.6	-62.5	3.5	1.52e+00	0	39	104	0	60	46647
2026-01-30 02:42:18.88	332.78	5.20	-49.6	-62.4	3.5	1.52e+00	0	39	104	0	60	46410
2026-01-30 02:42:21.91	333.08	5.04	-49.6	-62.4	3.5	1.51e+00	0	39	104	0	60	46504
2026-01-30 02:42:24.94	333.37	4.88	-49.6	-62.5	3.5	1.52e+00	0	39	104	0	60	46649
2026-01-30 02:42:27.97	333.66	4.71	-49.6	-62.4	3.5	1.52e+00	0	39	104	0	60	46497
2026-01-30 02:42:31.00	333.95	4.55	-49.6	-62.5	3.5	1.52e+00	0	39	104	0	60	46616
2026-01-30 02:42:34.03	334.23	4.38	-49.6	-62.4	3.5	1.51e+00	0	39	104	0	60	46430
2026-01-30 02:42:37.06	334.51	4.22	-49.6	-62.4	3.5	1.52e+00	0	39	104	0	60	46397
2026-01-30 02:42:40.10	334.79	4.06	-49.6	-62.5	3.5	1.52e+00	0	39	104	0	60	46574
2026-01-30 02:42:43.13	335.07	3.90	-49.6	-62.5	3.5	1.52e+00	0	39	104	0	60	46736
2026-01-30 02:42:46.16	335.34	3.74	-49.6	-62.5	3.5	1.52e+00	0	39	104	0	60	46633
2026-01-30 02:42:49.19	335.61	3.58	-49.6	-62.5	3.5	1.52e+00	0	39	104	0	60	46763
2026-01-30 02:42:52.22	335.88	3.41	-49.6	-62.4	3.5	1.52e+00	0	39	104	0	60	46460
2026-01-30 02:42:55.25	336.14	3.25	-49.6	-62.4	3.5	1.52e+00	0	39	104	0	60	46475
2026-01-30 02:42:58.28	336.40	3.10	-49.6	-62.4	3.5	1.52e+00	0	39	104	0	60	46480
2026-01-30 02:43:01.30	336.66	2.94	-49.6	-62.4	3.5	1.51e+00	0	39	104	0	60	46497
2026-01-30 02:43:04.34	336.92	2.78	-49.6	-62.5	3.5	1.52e+00	0	39	104	0	60	46544
2026-01-30 02:43:07.37	337.17	2.62	-49.6	-62.5	3.5	1.52e+00	0	39	104	0	60	46828
2026-01-30 02:43:10.40	337.42	2.46	-49.6	-62.4	3.5	1.52e+00	0	39	104	0	60	46499
2026-01-30 02:43:13.43	337.67	2.30	-49.6	-62.5	3.5	1.52e+00	0	39	104	0	60	46573
2026-01-30 02:43:16.46	337.92	2.15	-49.6	-62.4	3.5	1.52e+00	0	39	104	0	60	46368
2026-01-30 02:43:19.49	338.16	1.99	-49.6	-62.4	3.5	1.52e+00	0	39	104	0	60	46284
2026-01-30 02:43:22.52	338.40	1.84	-49.6	-62.4	3.5	1.52e+00	0	39	104	0	60	46410
2026-01-30 02:43:25.55	338.64	1.68	-49.6	-62.4	3.5	1.52e+00	0	39	104	0	60	46460
2026-01-30 02:43:28.59	338.88	1.53	-49.6	-62.4	3.5	1.51e+00	0	39	104	0	60	46496
2026-01-30 02:43:31.61	339.11	1.37	-49.6	-62.4	3.5	1.52e+00	0	39	104	0	60	46508
2026-01-30 02:43:34.65	339.35	1.22	-49.6	-62.5	3.5	1.52e+00	0	39	104	0	60	46603
2026-01-30 02:43:37.68	339.58	1.06	-49.6	-62.5	3.5	1.52e+00	0	39	104	0	60	46871
2026-01-30 02:43:40.71	339.80	0.91	-49.6	-62.4	3.5	1.52e+00	0	39	104	0	60	46436
2026-01-30 02:43:43.74	340.03	0.76	-49.6	-62.5	3.5	1.52e+00	0	39	104	0	60	46688
2026-01-30 02:43:46.77	340.25	0.61	-49.6	-62.5	3.5	1.51e+00	0	39	104	0	60	46589
2026-01-30 02:43:49.80	340.47	0.45	-49.6	-62.5	3.5	1.52e+00	0	39	104	0	60	46604
2026-01-30 02:43:52.83	340.69	0.30	-49.6	-62.5	3.5	1.52e+00	0	39	104	0	60	46719
2026-01-30 02:43:55.86	340.91	0.15	-49.6	-62.5	3.5	1.52e+00	0	39	104	0	60	46553
2026-01-30 02:43:58.89	341.13	0.00	-49.6	-62.5	3.5	1.52e+00	0	39	104	0	60	46913

#Closed at: 2026-01-30 02:43:59
#Recorded file [0 MB]: D:/lorett/data/35029_260130_143020.dat