passes_logs/2026/01/30/R4.6S_Anadyr/R4.6S_Anadyr__20260130_120325_NOAA_20_JPSS-1_rec.log

#Pass ID: 20260130_120325_NOAA 20 (JPSS-1)
#Satellite: NOAA 20 (JPSS-1)
#Configuration: NOAA 20
#almurnet v.1.7.20251203
#Start time: 2026-01-30 12:03:26

#Version: 2.2.20231116
#Station: R4.6S_Anadyr
#Location: 177.4865 lon 64.73178 lat
#TLE: 1 43013U 17073A   26029.42702672  .00000137  00000+0  85918-4 0  9993
#TLE: 2 43013  98.7646 330.2153 0000804  19.9045 340.2162 14.19525092424781

#Time	Az	El	Level	Level2	SNR	BER	BlckErr	Temp	State	Recorded	gain1	gain2
2026-01-30 12:03:26.21	19.51	0.04	-49.6	-64.6	3.5	1.51e+00	0	38	0	0	60	61295
2026-01-30 12:03:29.23	19.76	0.18	-49.6	-64.9	3.6	1.51e+00	0	39	104	0	60	63272
2026-01-30 12:03:32.26	20.02	0.32	-49.7	-64.9	3.6	1.51e+00	0	39	104	0	60	63511
2026-01-30 12:03:35.29	20.27	0.46	-49.7	-64.9	3.6	1.51e+00	0	39	104	0	60	63474
2026-01-30 12:03:38.32	20.53	0.59	-49.6	-64.8	3.6	1.51e+00	0	39	104	0	60	63001
2026-01-30 12:03:41.35	20.79	0.73	-49.5	-64.7	3.6	1.51e+00	0	39	104	0	60	62144
2026-01-30 12:03:44.38	21.05	0.87	-49.2	-64.4	3.5	1.51e+00	0	39	104	0	60	60011
2026-01-30 12:03:47.41	21.32	1.01	-48.9	-64.1	3.6	1.51e+00	0	39	104	0	60	58062
2026-01-30 12:03:50.44	21.58	1.15	-48.1	-63.2	3.6	1.51e+00	0	39	104	0	60	52510
2026-01-30 12:03:53.47	21.85	1.29	-48.1	-63.2	3.6	1.51e+00	0	39	104	0	60	52526
2026-01-30 12:03:56.50	22.12	1.43	-48.1	-63.2	3.6	1.51e+00	0	40	104	0	60	52210
2026-01-30 12:03:59.53	22.40	1.57	-48.1	-63.2	3.6	1.51e+00	0	40	104	0	60	52172
2026-01-30 12:04:02.56	22.67	1.71	-48.1	-63.2	3.6	1.51e+00	0	40	104	0	60	52209
2026-01-30 12:04:05.59	22.95	1.85	-48.1	-63.2	3.6	1.51e+00	0	40	104	0	60	52324
2026-01-30 12:04:08.62	23.24	1.99	-48.1	-63.2	3.6	1.51e+00	0	40	104	0	60	52249
2026-01-30 12:04:11.65	23.52	2.13	-48.0	-63.1	3.6	1.51e+00	0	40	104	0	60	51745
2026-01-30 12:04:14.68	23.81	2.27	-48.1	-63.2	3.6	1.51e+00	0	40	104	0	60	52135
2026-01-30 12:04:17.71	24.09	2.41	-48.0	-62.6	3.6	1.51e+00	0	40	104	0	60	48713
2026-01-30 12:04:20.75	24.39	2.55	-48.0	-62.6	3.6	1.51e+00	0	40	104	0	60	48647
2026-01-30 12:04:23.78	24.68	2.69	-46.4	-51.2	10.8	1.35e-02	0	40	0	1048576	60	13139
2026-01-30 12:04:26.81	24.98	2.83	-42.3	-44.1	18.1	0.00e+00	92	40	0	6291456	58	6474
2026-01-30 12:04:29.84	25.28	2.98	-43.4	-45.6	16.4	0.00e+00	0	40	0	12582912	58	7729
2026-01-30 12:04:32.87	25.58	3.12	-42.1	-43.8	18.4	0.00e+00	0	40	0	17825792	58	6277
2026-01-30 12:04:35.90	25.89	3.26	-45.7	-49.6	10.4	8.04e-02	90	40	0	19922944	60	10856
2026-01-30 12:04:38.93	26.19	3.40	-41.7	-43.3	19.0	0.00e+00	0	40	0	25165824	56	6643
2026-01-30 12:04:41.96	26.51	3.54	-41.7	-43.2	19.3	0.00e+00	22	40	0	31457280	56	6602
2026-01-30 12:04:44.98	26.82	3.68	-42.2	-43.8	19.0	0.00e+00	51	40	0	36700160	56	7073
2026-01-30 12:04:48.01	27.13	3.82	-41.4	-42.9	19.4	0.00e+00	17	40	0	41943040	56	6333
2026-01-30 12:04:51.04	27.45	3.97	-41.5	-43.0	19.7	0.00e+00	0	40	0	48234496	56	6411
2026-01-30 12:04:54.07	27.78	4.11	-41.0	-42.3	20.1	0.00e+00	29	40	0	53477376	54	6674
2026-01-30 12:04:57.10	28.10	4.25	-40.8	-42.1	20.3	0.00e+00	91	40	0	59768832	54	6509
2026-01-30 12:05:00.13	28.43	4.39	-40.7	-42.0	20.3	0.00e+00	28	40	0	65011712	54	6455
2026-01-30 12:05:03.16	28.76	4.53	-40.9	-42.2	20.3	0.00e+00	32	40	0	71303168	54	6577
2026-01-30 12:05:06.19	29.10	4.68	-40.7	-42.0	20.4	0.00e+00	92	40	0	76546048	54	6447
2026-01-30 12:05:09.22	29.44	4.82	-40.7	-41.9	20.6	0.00e+00	0	40	0	81788928	54	6368
2026-01-30 12:05:12.25	29.78	4.96	-40.6	-41.9	20.7	0.00e+00	4	40	0	88080384	54	6352
2026-01-30 12:05:15.28	30.12	5.10	-40.7	-41.9	20.6	0.00e+00	0	40	0	93323264	54	6379
2026-01-30 12:05:18.30	30.47	5.24	-40.9	-42.2	20.3	0.00e+00	0	40	0	99614720	54	6592
2026-01-30 12:05:21.33	30.82	5.38	-40.9	-42.2	20.5	0.00e+00	22	40	0	104857600	54	6572
2026-01-30 12:05:24.36	31.17	5.53	-40.7	-42.0	20.5	0.00e+00	29	40	0	110100480	54	6407
2026-01-30 12:05:27.39	31.53	5.67	-40.8	-42.0	20.6	0.00e+00	92	40	0	116391936	54	6460
2026-01-30 12:05:30.42	31.89	5.81	-40.4	-41.6	21.1	0.00e+00	7	40	0	121634816	54	6116
2026-01-30 12:05:33.45	32.25	5.95	-40.4	-41.6	21.1	0.00e+00	0	40	0	127926272	54	6123
2026-01-30 12:05:36.48	32.62	6.09	-40.7	-41.9	20.9	0.00e+00	92	40	0	133169152	54	6363
2026-01-30 12:05:39.51	32.99	6.23	-40.1	-41.3	21.4	0.00e+00	0	40	0	139460608	54	5897
2026-01-30 12:05:42.53	33.36	6.37	-40.2	-41.3	21.4	0.00e+00	29	40	0	144703488	54	5945
2026-01-30 12:05:45.56	33.74	6.51	-39.9	-41.0	21.6	0.00e+00	92	40	0	149946368	54	5738
2026-01-30 12:05:48.60	34.12	6.65	-40.2	-41.3	21.3	0.00e+00	0	40	0	156237824	54	5937
2026-01-30 12:05:51.63	34.51	6.79	-39.9	-41.0	21.8	0.00e+00	7	40	0	161480704	54	5748
2026-01-30 12:05:54.65	34.89	6.93	-39.9	-41.0	21.8	0.00e+00	6	40	0	167772160	54	5707
2026-01-30 12:05:57.68	35.29	7.07	-39.7	-40.8	22.0	0.00e+00	92	40	0	173015040	52	6269
2026-01-30 12:06:00.71	35.68	7.21	-39.6	-40.7	22.1	0.00e+00	26	40	0	178257920	52	6197
2026-01-30 12:06:03.74	36.08	7.34	-39.8	-40.9	21.9	0.00e+00	50	40	0	184549376	52	6335
2026-01-30 12:06:06.77	36.48	7.48	-39.8	-40.9	21.9	0.00e+00	90	40	0	189792256	52	6364
2026-01-30 12:06:09.79	36.89	7.62	-39.8	-40.9	21.9	0.00e+00	54	40	0	196083712	52	6348
2026-01-30 12:06:12.82	37.30	7.76	-39.9	-41.0	21.8	0.00e+00	0	40	0	201326592	52	6454
2026-01-30 12:06:15.85	37.71	7.89	-39.7	-40.8	22.1	0.00e+00	92	40	0	207618048	52	6247
2026-01-30 12:06:18.88	38.13	8.03	-39.7	-40.8	22.1	0.00e+00	5	40	0	212860928	52	6248
2026-01-30 12:06:21.91	38.55	8.16	-39.8	-40.8	22.0	0.00e+00	0	40	0	218103808	52	6310
2026-01-30 12:06:24.94	38.97	8.30	-39.9	-41.0	21.8	0.00e+00	59	40	0	224395264	52	6446
2026-01-30 12:06:27.98	39.40	8.43	-39.7	-40.8	22.0	0.00e+00	10	40	0	229638144	52	6253
2026-01-30 12:06:31.01	39.84	8.56	-40.1	-41.2	21.8	0.00e+00	0	40	0	235929600	52	6569
2026-01-30 12:06:34.03	40.27	8.70	-39.8	-40.9	22.0	0.00e+00	0	40	0	241172480	52	6364
2026-01-30 12:06:37.06	40.71	8.83	-40.1	-41.2	21.8	0.00e+00	92	40	0	246415360	52	6568
2026-01-30 12:06:40.08	41.15	8.96	-40.1	-41.2	21.8	0.00e+00	0	40	0	252706816	52	6554
2026-01-30 12:06:43.12	41.60	9.09	-40.1	-41.2	21.8	0.00e+00	0	40	0	257949696	52	6549
2026-01-30 12:06:46.15	42.05	9.22	-39.8	-40.9	22.0	0.00e+00	92	40	0	264241152	52	6365
2026-01-30 12:06:49.18	42.51	9.35	-40.0	-41.0	22.0	0.00e+00	0	40	0	269484032	52	6464
2026-01-30 12:06:52.20	42.97	9.48	-40.1	-41.2	21.8	0.00e+00	0	40	0	275775488	52	6566
2026-01-30 12:06:55.23	43.43	9.60	-40.1	-41.2	21.8	0.00e+00	59	40	0	281018368	52	6585
2026-01-30 12:06:58.26	43.90	9.73	-40.3	-41.5	21.6	0.00e+00	0	40	0	286261248	52	6773
2026-01-30 12:07:01.28	44.37	9.85	-40.5	-41.6	21.4	0.00e+00	31	40	0	292552704	52	6889
2026-01-30 12:07:04.31	44.84	9.98	-40.2	-41.3	21.7	0.00e+00	46	40	0	297795584	52	6679
2026-01-30 12:07:07.34	45.32	10.10	-40.3	-41.5	21.5	0.00e+00	90	40	0	304087040	52	6792
2026-01-30 12:07:10.37	45.80	10.22	-40.3	-41.5	21.1	0.00e+00	51	40	0	309329920	52	6790
2026-01-30 12:07:13.40	46.29	10.34	-40.3	-41.4	21.7	0.00e+00	6	40	0	314572800	52	6720
2026-01-30 12:07:16.43	46.78	10.46	-40.4	-41.5	21.5	0.00e+00	92	40	0	320864256	52	6801
2026-01-30 12:07:19.46	47.28	10.58	-40.4	-41.5	21.5	0.00e+00	0	40	0	326107136	52	6835
2026-01-30 12:07:22.48	47.77	10.69	-40.7	-41.8	21.3	0.00e+00	0	40	0	332398592	52	7075
2026-01-30 12:07:25.51	48.27	10.81	-40.5	-41.6	21.3	0.00e+00	92	40	0	337641472	54	6157
2026-01-30 12:07:28.54	48.78	10.92	-40.6	-41.8	21.1	0.00e+00	31	40	0	343932928	54	6258
2026-01-30 12:07:31.57	49.29	11.03	-40.7	-41.9	21.0	0.00e+00	56	40	0	349175808	54	6337
2026-01-30 12:07:34.60	49.80	11.14	-40.9	-42.2	21.1	0.00e+00	91	40	0	354418688	54	6550
2026-01-30 12:07:37.63	50.32	11.25	-40.6	-41.7	21.4	0.00e+00	1	40	0	360710144	54	6225
2026-01-30 12:07:40.65	50.84	11.36	-40.6	-41.8	21.3	0.00e+00	6	40	0	365953024	54	6275
2026-01-30 12:07:43.68	51.36	11.47	-40.4	-41.5	21.5	0.00e+00	31	40	0	372244480	54	6101
2026-01-30 12:07:46.71	51.89	11.57	-40.4	-41.5	21.6	0.00e+00	90	40	0	377487360	54	6049
2026-01-30 12:07:49.74	52.43	11.67	-40.3	-41.4	21.7	0.00e+00	33	40	0	382730240	54	6019
2026-01-30 12:07:52.77	52.96	11.77	-40.4	-41.5	21.6	0.00e+00	48	41	0	389021696	54	6080
2026-01-30 12:07:55.80	53.50	11.87	-40.4	-41.5	21.6	0.00e+00	92	40	0	394264576	54	6057
2026-01-30 12:07:58.83	54.04	11.97	-40.6	-41.8	21.3	0.00e+00	0	40	0	400556032	54	6291
2026-01-30 12:08:01.86	54.59	12.07	-40.6	-41.8	20.8	0.00e+00	0	40	0	405798912	54	6251
2026-01-30 12:08:04.89	55.14	12.16	-40.1	-41.2	21.8	0.00e+00	92	40	0	412090368	54	5868
2026-01-30 12:08:07.92	55.69	12.25	-40.0	-41.0	22.0	0.00e+00	63	40	0	417333248	54	5758
2026-01-30 12:08:10.95	56.25	12.34	-39.9	-40.9	22.1	0.00e+00	3	40	0	422576128	54	5692
2026-01-30 12:08:13.97	56.81	12.43	-39.8	-40.9	22.2	0.00e+00	53	40	0	428867584	54	5641
2026-01-30 12:08:17.00	57.37	12.51	-39.9	-40.9	22.1	0.00e+00	10	40	0	434110464	54	5683
2026-01-30 12:08:20.03	57.93	12.59	-39.7	-40.8	22.3	0.00e+00	0	40	0	440401920	52	6260
2026-01-30 12:08:23.06	58.50	12.67	-39.5	-40.5	22.6	0.00e+00	0	40	0	445644800	52	6046
2026-01-30 12:08:26.08	59.07	12.75	-39.3	-40.3	22.8	0.00e+00	91	40	0	450887680	52	5917
2026-01-30 12:08:29.11	59.65	12.83	-39.5	-40.5	22.6	0.00e+00	0	41	0	457179136	52	6051
2026-01-30 12:08:32.14	60.23	12.90	-39.9	-41.0	21.9	0.00e+00	33	40	0	462422016	52	6441
2026-01-30 12:08:35.17	60.81	12.97	-40.3	-41.4	21.8	0.00e+00	92	40	0	468713472	52	6708
2026-01-30 12:08:38.20	61.39	13.04	-40.3	-41.4	21.7	0.00e+00	0	40	0	473956352	52	6755
2026-01-30 12:08:41.23	61.98	13.10	-40.4	-41.5	21.7	0.00e+00	2	41	0	480247808	52	6787
2026-01-30 12:08:44.26	62.56	13.17	-40.5	-41.6	21.6	0.00e+00	92	40	0	485490688	52	6916
2026-01-30 12:08:47.30	63.16	13.23	-40.6	-41.8	21.4	0.00e+00	0	40	0	490733568	52	7036
2026-01-30 12:08:50.32	63.75	13.29	-40.6	-41.8	21.4	0.00e+00	0	40	0	497025024	54	6263
2026-01-30 12:08:53.35	64.34	13.34	-40.7	-41.8	21.4	0.00e+00	32	40	0	502267904	54	6295
2026-01-30 12:08:56.38	64.94	13.39	-40.5	-41.7	21.4	0.00e+00	92	40	0	508559360	54	6190
2026-01-30 12:08:59.41	65.54	13.44	-40.3	-41.4	21.7	0.00e+00	0	40	0	513802240	54	6006
2026-01-30 12:09:02.43	66.14	13.49	-40.1	-41.2	21.9	0.00e+00	0	40	0	519045120	54	5888
2026-01-30 12:09:05.46	66.74	13.54	-40.2	-41.3	21.9	0.00e+00	92	40	0	525336576	54	5918
2026-01-30 12:09:08.49	67.35	13.58	-40.1	-41.2	21.9	0.00e+00	0	40	0	530579456	54	5858
2026-01-30 12:09:11.52	67.95	13.62	-40.1	-41.3	21.9	0.00e+00	26	40	0	536870912	54	5897
2026-01-30 12:09:14.54	68.56	13.65	-40.0	-41.1	22.0	0.00e+00	90	40	0	542113792	54	5797
2026-01-30 12:09:17.57	69.17	13.68	-39.6	-40.6	22.5	0.00e+00	59	41	0	548405248	52	6162
2026-01-30 12:09:20.61	69.78	13.71	-39.7	-40.7	22.5	0.00e+00	52	40	0	553648128	52	6234
2026-01-30 12:09:23.64	70.40	13.74	-39.9	-41.0	22.2	0.00e+00	7	40	0	558891008	52	6426
2026-01-30 12:09:26.67	71.01	13.77	-39.8	-40.9	22.3	0.00e+00	76	40	0	565182464	52	6357
2026-01-30 12:09:29.69	71.62	13.79	-39.6	-40.7	22.5	0.00e+00	0	40	0	570425344	52	6181
2026-01-30 12:09:32.72	72.24	13.80	-39.3	-40.3	22.9	0.00e+00	50	40	0	576716800	52	5927
2026-01-30 12:09:35.75	72.85	13.82	-39.4	-40.4	22.6	0.00e+00	92	40	0	581959680	52	6003
2026-01-30 12:09:38.78	73.47	13.83	-39.5	-40.5	22.6	0.00e+00	2	41	0	587202560	52	6089
2026-01-30 12:09:41.81	74.08	13.84	-39.2	-40.1	22.9	0.00e+00	0	41	0	593494016	52	5811
2026-01-30 12:09:44.84	74.70	13.85	-38.9	-39.9	23.1	0.00e+00	91	40	0	598736896	52	5633
2026-01-30 12:09:47.87	75.32	13.85	-38.8	-39.8	23.2	0.00e+00	27	40	0	605028352	50	6269
2026-01-30 12:09:50.89	75.93	13.85	-39.0	-40.0	23.0	0.00e+00	0	40	0	610271232	50	6442
2026-01-30 12:09:53.92	76.55	13.85	-38.8	-39.8	22.7	0.00e+00	49	40	0	616562688	50	6247
2026-01-30 12:09:56.95	77.17	13.84	-38.9	-39.8	23.2	0.00e+00	30	41	0	621805568	50	6291
2026-01-30 12:09:59.98	77.78	13.83	-38.6	-39.6	23.4	0.00e+00	0	40	0	627048448	50	6104
2026-01-30 12:10:03.01	78.40	13.82	-38.6	-39.6	23.5	0.00e+00	0	40	0	633339904	50	6105
2026-01-30 12:10:06.04	79.02	13.80	-38.5	-39.4	23.5	0.00e+00	90	40	0	638582784	50	5990
2026-01-30 12:10:09.07	79.63	13.78	-38.6	-39.5	23.5	0.00e+00	0	40	0	644874240	50	6092
2026-01-30 12:10:12.09	80.24	13.76	-38.9	-39.8	23.2	0.00e+00	0	40	0	650117120	50	6315
2026-01-30 12:10:15.12	80.86	13.74	-38.7	-39.6	23.3	0.00e+00	92	40	0	655360000	50	6173
2026-01-30 12:10:18.15	81.47	13.71	-38.9	-39.8	23.2	0.00e+00	2	40	0	661651456	50	6272
2026-01-30 12:10:21.18	82.08	13.68	-39.0	-39.9	22.8	0.00e+00	0	40	0	666894336	50	6367
2026-01-30 12:10:24.21	82.69	13.65	-38.9	-39.8	23.2	0.00e+00	92	40	0	673185792	50	6316
2026-01-30 12:10:27.24	83.30	13.61	-38.6	-39.5	23.6	0.00e+00	0	40	0	678428672	50	6089
2026-01-30 12:10:30.26	83.91	13.57	-38.7	-39.7	23.4	0.00e+00	0	40	0	683671552	50	6194
2026-01-30 12:10:33.29	84.51	13.53	-39.1	-40.0	23.0	0.00e+00	92	41	0	689963008	50	6463
2026-01-30 12:10:36.32	85.12	13.48	-39.1	-40.1	23.0	0.00e+00	16	40	0	695205888	50	6504
2026-01-30 12:10:39.35	85.72	13.44	-38.6	-39.5	23.5	0.00e+00	31	41	0	701497344	50	6093
2026-01-30 12:10:42.38	86.32	13.39	-38.3	-39.2	23.7	0.00e+00	6	40	0	706740224	50	5891
2026-01-30 12:10:45.41	86.92	13.33	-38.1	-39.0	24.0	0.00e+00	92	41	0	713031680	50	5728
2026-01-30 12:10:48.44	87.51	13.28	-38.0	-38.9	23.7	0.00e+00	6	40	0	718274560	50	5685
2026-01-30 12:10:51.47	88.11	13.22	-38.3	-39.3	23.6	0.00e+00	31	41	0	723517440	50	5926
2026-01-30 12:10:54.49	88.70	13.16	-38.5	-39.5	23.4	0.00e+00	92	40	0	729808896	50	6078
2026-01-30 12:10:57.52	89.29	13.09	-38.3	-39.2	23.8	0.00e+00	0	40	0	735051776	50	5877
2026-01-30 12:11:00.55	89.87	13.03	-38.0	-38.8	24.1	0.00e+00	31	40	0	741343232	50	5626
2026-01-30 12:11:03.57	90.46	12.96	-38.1	-38.9	24.0	0.00e+00	92	40	0	746586112	50	5680
2026-01-30 12:11:06.60	91.04	12.89	-38.2	-39.1	23.8	0.00e+00	55	41	0	751828992	50	5800
2026-01-30 12:11:09.63	91.62	12.81	-38.2	-39.1	23.8	0.00e+00	0	41	0	758120448	50	5804
2026-01-30 12:11:12.65	92.19	12.74	-38.6	-39.5	23.5	0.00e+00	66	40	0	763363328	50	6064
2026-01-30 12:11:15.68	92.76	12.66	-38.2	-39.1	23.7	0.00e+00	87	40	0	769654784	50	5828
2026-01-30 12:11:18.71	93.33	12.58	-38.0	-38.9	23.9	0.00e+00	0	41	0	774897664	50	5653
2026-01-30 12:11:21.74	93.90	12.50	-38.2	-39.1	23.7	0.00e+00	49	41	0	781189120	50	5806
2026-01-30 12:11:24.76	94.46	12.41	-38.3	-39.2	23.8	0.00e+00	90	41	0	786432000	50	5843
2026-01-30 12:11:27.79	95.02	12.32	-38.3	-39.1	23.7	0.00e+00	0	40	0	791674880	50	5828
2026-01-30 12:11:30.82	95.58	12.23	-38.8	-39.7	23.2	0.00e+00	0	40	0	797966336	50	6234
2026-01-30 12:11:33.85	96.14	12.14	-39.0	-40.0	23.0	0.00e+00	91	40	0	803209216	50	6400
2026-01-30 12:11:36.88	96.69	12.05	-39.1	-40.1	22.9	0.00e+00	0	40	0	809500672	50	6467
2026-01-30 12:11:39.91	97.24	11.95	-39.3	-40.3	22.7	0.00e+00	0	40	0	814743552	50	6672
2026-01-30 12:11:42.94	97.78	11.85	-39.7	-40.8	22.3	0.00e+00	92	41	0	819986432	50	7019
2026-01-30 12:11:45.97	98.32	11.75	-39.6	-40.6	22.4	0.00e+00	15	40	0	826277888	52	6142
2026-01-30 12:11:48.99	98.86	11.65	-39.4	-40.5	22.4	0.00e+00	0	40	0	831520768	52	6035
2026-01-30 12:11:52.02	99.39	11.55	-39.9	-41.0	21.9	0.00e+00	0	40	0	837812224	52	6416
2026-01-30 12:11:55.05	99.92	11.44	-40.6	-41.8	21.3	0.00e+00	92	40	0	843055104	52	7061
2026-01-30 12:11:58.08	100.44	11.34	-41.0	-42.2	20.8	0.00e+00	0	41	0	849346560	54	6573
2026-01-30 12:12:01.10	100.97	11.23	-41.4	-42.7	20.3	0.00e+00	0	40	0	854589440	54	6987
2026-01-30 12:12:04.13	101.48	11.12	-42.0	-43.4	19.8	0.00e+00	90	41	0	859832320	56	6713
2026-01-30 12:12:07.16	102.00	11.01	-41.6	-43.0	20.2	0.00e+00	30	41	0	866123776	56	6431
2026-01-30 12:12:10.20	102.51	10.89	-40.6	-42.0	21.1	0.00e+00	2	40	0	871366656	54	6410
2026-01-30 12:12:13.23	103.02	10.78	-40.5	-42.0	21.1	0.00e+00	92	41	0	877658112	54	6429
2026-01-30 12:12:16.26	103.52	10.66	-40.9	-42.3	20.8	0.00e+00	0	41	0	882900992	54	6680
2026-01-30 12:12:19.29	104.02	10.54	-41.3	-42.7	20.4	0.00e+00	0	41	0	888143872	54	6968
2026-01-30 12:12:22.32	104.52	10.43	-41.6	-43.1	19.8	0.00e+00	56	41	0	894435328	54	7314
2026-01-30 12:12:25.34	105.01	10.31	-41.5	-43.0	20.2	0.00e+00	29	41	0	899678208	56	6420
2026-01-30 12:12:28.37	105.50	10.18	-41.2	-42.4	20.7	0.00e+00	6	41	0	905969664	56	6020
2026-01-30 12:12:31.40	105.98	10.06	-41.0	-42.2	20.8	0.00e+00	6	41	0	911212544	56	5880
2026-01-30 12:12:34.43	106.46	9.94	-41.0	-42.3	20.7	0.00e+00	92	41	0	917504000	56	5916
2026-01-30 12:12:37.46	106.94	9.81	-40.7	-41.9	21.0	0.00e+00	5	41	0	922746880	54	6351
2026-01-30 12:12:40.48	107.41	9.69	-40.0	-41.1	21.7	0.00e+00	0	41	0	927989760	54	5813
2026-01-30 12:12:43.51	107.88	9.56	-40.2	-41.4	21.6	0.00e+00	92	41	0	934281216	54	5967
2026-01-30 12:12:46.54	108.34	9.43	-40.4	-41.6	21.1	0.00e+00	64	41	0	939524096	54	6156
2026-01-30 12:12:49.56	108.80	9.30	-40.5	-41.7	21.3	0.00e+00	6	41	0	945815552	54	6202
2026-01-30 12:12:52.59	109.26	9.17	-40.3	-41.8	21.1	0.00e+00	90	41	0	951058432	54	6299
2026-01-30 12:12:55.62	109.71	9.04	-40.3	-41.7	21.2	0.00e+00	2	41	0	956301312	54	6185
2026-01-30 12:12:58.65	110.16	8.91	-40.1	-41.3	21.5	0.00e+00	0	41	0	962592768	54	5956
2026-01-30 12:13:01.66	110.60	8.78	-39.6	-40.7	22.2	0.00e+00	48	40	0	967835648	52	6197
2026-01-30 12:13:04.68	111.04	8.65	-39.3	-40.4	22.3	0.00e+00	90	41	0	974127104	52	5987
2026-01-30 12:13:07.71	111.48	8.51	-39.4	-40.6	22.2	0.00e+00	29	41	0	979369984	52	6120
2026-01-30 12:13:10.74	111.91	8.38	-39.8	-40.9	21.9	0.00e+00	22	41	0	984612864	52	6337
2026-01-30 12:13:13.77	112.34	8.24	-39.6	-40.7	22.1	0.00e+00	90	40	0	990904320	52	6212
2026-01-30 12:13:16.80	112.77	8.11	-39.6	-40.7	22.1	0.00e+00	2	41	0	996147200	52	6184
2026-01-30 12:13:19.82	113.19	7.97	-39.7	-40.8	22.0	0.00e+00	0	41	0	1002438656	52	6268
2026-01-30 12:13:22.85	113.61	7.84	-39.7	-41.0	21.8	0.00e+00	90	41	0	1007681536	52	6438
2026-01-30 12:13:25.88	114.02	7.70	-39.6	-40.8	22.0	0.00e+00	19	40	0	1013972992	52	6247
2026-01-30 12:13:28.91	114.43	7.56	-39.3	-40.4	22.3	0.00e+00	28	41	0	1019215872	52	5991
2026-01-30 12:13:31.94	114.84	7.42	-39.6	-40.7	22.0	0.00e+00	79	41	0	1024458752	52	6212
2026-01-30 12:13:34.97	115.24	7.28	-39.9	-41.1	21.7	0.00e+00	6	41	0	1030750208	52	6500
2026-01-30 12:13:37.99	115.64	7.14	-40.0	-41.1	21.7	0.00e+00	2	40	0	1035993088	52	6536
2026-01-30 12:13:41.02	116.03	7.00	-39.7	-40.8	21.9	0.00e+00	2	40	0	1042284544	52	6264
2026-01-30 12:13:44.05	116.43	6.86	-39.5	-40.7	22.0	0.00e+00	92	41	0	1047527424	52	6175
2026-01-30 12:13:47.08	116.82	6.72	-39.9	-41.1	21.6	0.00e+00	0	40	0	1052770304	52	6485
2026-01-30 12:13:50.11	117.20	6.58	-40.2	-41.5	21.2	0.00e+00	30	40	0	1059061760	52	6821
2026-01-30 12:13:53.14	117.58	6.44	-40.1	-41.3	21.4	0.00e+00	92	41	0	1064304640	52	6681
2026-01-30 12:13:56.16	117.96	6.30	-39.9	-41.1	21.5	0.00e+00	53	41	0	1070596096	52	6516
2026-01-30 12:13:59.19	118.33	6.16	-40.1	-41.3	21.3	0.00e+00	54	41	0	1075838976	52	6686
2026-01-30 12:14:02.21	118.70	6.02	-40.5	-41.7	20.9	0.00e+00	92	41	0	1081081856	52	7002
2026-01-30 12:14:05.24	119.07	5.87	-40.7	-41.9	20.8	0.00e+00	2	41	0	1087373312	52	7147
2026-01-30 12:14:08.27	119.43	5.73	-40.7	-42.0	20.7	0.00e+00	0	41	0	1092616192	52	7174
2026-01-30 12:14:11.29	119.79	5.59	-40.5	-41.8	20.8	0.00e+00	0	41	0	1098907648	52	7082
2026-01-30 12:14:14.32	120.15	5.45	-40.5	-41.9	20.8	0.00e+00	92	41	0	1104150528	52	7100
2026-01-30 12:14:17.35	120.51	5.30	-40.7	-42.1	20.3	0.00e+00	19	41	0	1110441984	54	6524
2026-01-30 12:14:20.38	120.86	5.16	-41.1	-42.7	19.9	0.00e+00	56	41	0	1115684864	54	6974
2026-01-30 12:14:23.41	121.20	5.02	-41.0	-42.4	20.1	0.00e+00	92	41	0	1120927744	54	6703
2026-01-30 12:14:26.43	121.55	4.88	-40.9	-42.3	19.9	0.00e+00	6	41	0	1127219200	54	6642
2026-01-30 12:14:29.46	121.89	4.73	-41.3	-42.7	19.8	0.00e+00	5	41	0	1132462080	54	6952
2026-01-30 12:14:32.49	122.22	4.59	-41.3	-42.8	19.7	0.00e+00	90	41	0	1138753536	54	7059
2026-01-30 12:14:35.52	122.56	4.45	-41.5	-43.1	19.4	0.00e+00	60	41	0	1143996416	54	7260
2026-01-30 12:14:38.55	122.89	4.30	-41.8	-43.3	19.2	0.00e+00	61	41	0	1149239296	56	6681
2026-01-30 12:14:41.58	123.22	4.16	-41.3	-42.8	19.7	0.00e+00	24	41	0	1155530752	56	6309
2026-01-30 12:14:44.61	123.54	4.02	-41.7	-43.3	19.2	0.00e+00	71	41	0	1160773632	56	6665
2026-01-30 12:14:47.64	123.87	3.87	-41.1	-42.7	19.7	0.00e+00	7	41	0	1167065088	56	6235
2026-01-30 12:14:50.67	124.19	3.73	-41.6	-43.4	19.0	0.00e+00	6	41	0	1172307968	56	6695
2026-01-30 12:14:53.69	124.50	3.59	-41.6	-43.3	19.0	0.00e+00	91	41	0	1178599424	56	6681
2026-01-30 12:14:56.73	124.82	3.44	-41.7	-43.4	18.8	0.00e+00	55	41	0	1183842304	56	6765
2026-01-30 12:14:59.75	125.13	3.30	-42.0	-43.8	18.4	0.00e+00	57	41	0	1189085184	56	7036
2026-01-30 12:15:02.78	125.43	3.16	-42.2	-44.0	18.1	0.00e+00	91	40	0	1195376640	56	7216
2026-01-30 12:15:05.80	125.74	3.01	-41.9	-43.6	18.4	0.00e+00	56	41	0	1200619520	56	6899
2026-01-30 12:15:08.83	126.04	2.87	-49.0	-64.2	3.6	1.51e+00	0	41	104	1201668096	60	58719
2026-01-30 12:15:11.86	126.34	2.73	-49.3	-64.6	3.6	1.51e+00	0	41	104	1201668096	60	61390
2026-01-30 12:15:14.89	126.63	2.59	-49.4	-64.8	3.6	1.51e+00	0	41	104	1201668096	60	63061
2026-01-30 12:15:17.92	126.93	2.44	-49.6	-64.8	3.6	1.51e+00	0	41	104	1201668096	60	63147
2026-01-30 12:15:20.95	127.22	2.30	-49.7	-64.9	3.6	1.51e+00	0	41	104	1201668096	60	63377
2026-01-30 12:15:23.99	127.51	2.16	-49.7	-64.9	3.6	1.51e+00	0	41	104	1201668096	60	63376
2026-01-30 12:15:27.02	127.79	2.02	-49.7	-64.9	3.6	1.51e+00	0	41	104	1201668096	60	63597
2026-01-30 12:15:30.05	128.08	1.87	-49.7	-64.9	3.6	1.51e+00	0	41	104	1201668096	60	63477
2026-01-30 12:15:33.08	128.36	1.73	-49.6	-64.9	3.6	1.51e+00	0	41	104	1201668096	60	63196
2026-01-30 12:15:36.11	128.64	1.59	-49.6	-64.9	3.6	1.51e+00	0	41	104	1201668096	60	63276
2026-01-30 12:15:39.13	128.91	1.45	-49.6	-64.8	3.6	1.51e+00	0	41	104	1201668096	60	63173
2026-01-30 12:15:42.16	129.18	1.31	-49.5	-64.8	3.6	1.51e+00	0	41	104	1201668096	60	63173
2026-01-30 12:15:45.19	129.45	1.17	-49.6	-64.8	3.6	1.51e+00	0	41	104	1201668096	60	62960
2026-01-30 12:15:48.23	129.72	1.03	-49.6	-64.8	3.6	1.51e+00	0	41	104	1201668096	60	62971
2026-01-30 12:15:51.26	129.99	0.89	-49.5	-64.8	3.6	1.51e+00	0	41	104	1201668096	60	63135
2026-01-30 12:15:54.29	130.25	0.75	-49.5	-64.8	3.6	1.51e+00	0	41	104	1201668096	60	62991
2026-01-30 12:15:57.32	130.51	0.61	-49.5	-64.8	3.6	1.51e+00	0	41	104	1201668096	60	62963
2026-01-30 12:16:00.34	130.77	0.47	-49.5	-64.8	3.6	1.51e+00	0	41	104	1201668096	60	62822
2026-01-30 12:16:03.38	131.03	0.33	-49.5	-64.8	3.6	1.51e+00	0	41	104	1201668096	60	62835
2026-01-30 12:16:06.41	131.28	0.19	-49.5	-64.8	3.6	1.51e+00	0	41	104	1201668096	60	62905
2026-01-30 12:16:09.44	131.53	0.05	-49.5	-64.8	3.6	1.51e+00	0	41	104	1201668096	60	63003

#Closed at: 2026-01-30 12:16:12
#Recorded file [1201 MB]: D:/lorett/data/35029_260131_000326.dat