passes_logs/2026/01/30/R4.6S_Anadyr/R4.6S_Anadyr__20260130_030100_SUOMI_NPP_rec.log

#Pass ID: 20260130_030100_SUOMI NPP
#Satellite: SUOMI NPP
#Configuration: NPP
#almurnet v.1.7.20251203
#Start time: 2026-01-30 03:01:01

#Version: 2.2.20231116
#Station: R4.6S_Anadyr
#Location: 177.4865 lon 64.73178 lat
#TLE: 1 37849U 11061A   26029.48304708  .00000140  00000+0  87283-4 0  9999
#TLE: 2 37849  98.7824 331.4079 0002024  38.4342 321.6978 14.19531488738761

#Time	Az	El	Level	Level2	SNR	BER	BlckErr	Temp	State	Recorded	gain1	gain2
2026-01-30 03:01:01.72	228.66	0.06	-49.6	-62.1	3.5	1.52e+00	0	36	0	0	60	44879
2026-01-30 03:01:04.75	228.92	0.20	-49.6	-64.9	3.6	1.51e+00	0	37	104	0	60	63254
2026-01-30 03:01:07.78	229.17	0.34	-49.6	-64.8	3.6	1.51e+00	0	38	104	0	60	62853
2026-01-30 03:01:10.81	229.43	0.48	-49.6	-64.8	3.6	1.51e+00	0	38	104	0	60	62989
2026-01-30 03:01:13.84	229.69	0.62	-49.6	-64.8	3.6	1.51e+00	0	38	104	0	60	62853
2026-01-30 03:01:16.87	229.95	0.76	-49.6	-64.8	3.6	1.51e+00	0	38	104	0	60	63127
2026-01-30 03:01:19.90	230.22	0.90	-49.6	-64.8	3.6	1.51e+00	0	38	104	0	60	62950
2026-01-30 03:01:22.93	230.48	1.04	-49.6	-64.8	3.6	1.51e+00	0	38	104	0	60	63098
2026-01-30 03:01:25.97	230.75	1.18	-49.6	-64.8	3.6	1.51e+00	0	38	104	0	60	63096
2026-01-30 03:01:29.00	231.03	1.32	-49.6	-64.8	3.6	1.51e+00	0	38	104	0	60	63148
2026-01-30 03:01:32.03	231.30	1.46	-49.6	-64.8	3.6	1.51e+00	0	38	104	0	60	62733
2026-01-30 03:01:35.06	231.58	1.60	-49.6	-64.8	3.6	1.51e+00	0	38	104	0	60	62858
2026-01-30 03:01:38.09	231.86	1.74	-49.6	-64.9	3.6	1.51e+00	0	38	104	0	60	63304
2026-01-30 03:01:41.12	232.14	1.88	-49.6	-64.9	3.6	1.51e+00	0	38	104	0	60	63227
2026-01-30 03:01:44.15	232.42	2.03	-49.6	-64.9	3.6	1.51e+00	0	38	104	0	60	63235
2026-01-30 03:01:47.18	232.71	2.17	-49.6	-64.8	3.6	1.51e+00	0	38	104	0	60	63155
2026-01-30 03:01:50.21	233.00	2.31	-49.6	-64.8	3.6	1.51e+00	0	38	104	0	60	62848
2026-01-30 03:01:53.24	233.29	2.45	-49.6	-64.9	3.6	1.51e+00	0	38	104	0	60	63279
2026-01-30 03:01:56.27	233.59	2.59	-49.6	-64.8	3.6	1.51e+00	0	38	104	0	60	63083
2026-01-30 03:01:59.30	233.89	2.74	-49.6	-64.9	3.6	1.51e+00	0	38	104	0	60	63227
2026-01-30 03:02:02.33	234.19	2.88	-49.6	-64.9	3.6	1.51e+00	0	38	104	0	60	63392
2026-01-30 03:02:05.36	234.49	3.02	-49.6	-64.8	3.6	1.51e+00	0	38	104	0	60	63007
2026-01-30 03:02:08.39	234.80	3.16	-49.6	-64.8	3.6	1.51e+00	0	38	104	0	60	63152
2026-01-30 03:02:11.42	235.11	3.31	-49.6	-64.9	3.6	1.51e+00	0	38	104	0	60	63246
2026-01-30 03:02:14.45	235.42	3.45	-49.6	-64.9	3.6	1.51e+00	0	38	104	0	60	63565
2026-01-30 03:02:17.48	235.73	3.59	-49.6	-64.8	3.6	1.51e+00	0	38	104	0	60	63034
2026-01-30 03:02:20.51	236.05	3.74	-49.6	-64.8	3.6	1.51e+00	0	38	104	0	60	62836
2026-01-30 03:02:23.55	236.37	3.88	-49.6	-64.9	3.6	1.51e+00	0	38	104	0	60	63238
2026-01-30 03:02:26.58	236.70	4.02	-49.6	-64.9	3.6	1.51e+00	0	38	104	0	60	63340
2026-01-30 03:02:29.60	237.02	4.16	-49.6	-64.8	3.6	1.51e+00	0	38	104	0	60	63063
2026-01-30 03:02:32.63	237.35	4.31	-49.6	-64.9	3.6	1.51e+00	0	38	104	0	60	63459
2026-01-30 03:02:35.66	237.68	4.45	-49.6	-64.8	3.6	1.51e+00	0	39	104	0	60	63045
2026-01-30 03:02:38.69	238.02	4.59	-49.6	-64.8	3.6	1.51e+00	0	38	104	0	60	63130
2026-01-30 03:02:41.72	238.36	4.74	-49.6	-64.8	3.6	1.51e+00	0	38	104	0	60	63010
2026-01-30 03:02:44.75	238.70	4.88	-49.6	-64.8	3.6	1.51e+00	0	38	104	0	60	63011
2026-01-30 03:02:47.78	239.05	5.02	-49.6	-64.9	3.6	1.51e+00	0	38	104	0	60	63266
2026-01-30 03:02:50.81	239.40	5.16	-49.6	-64.8	3.6	1.51e+00	0	38	104	0	60	63059
2026-01-30 03:02:53.84	239.75	5.31	-49.6	-64.9	3.6	1.51e+00	0	38	104	0	60	63365
2026-01-30 03:02:56.87	240.11	5.45	-49.6	-64.8	3.6	1.51e+00	0	38	104	0	60	63114
2026-01-30 03:02:59.90	240.46	5.59	-49.6	-64.8	3.6	1.51e+00	0	38	104	0	60	63137
2026-01-30 03:03:02.93	240.83	5.73	-49.6	-64.8	3.6	1.51e+00	0	38	104	0	60	62970
2026-01-30 03:03:05.96	241.19	5.88	-49.6	-64.9	3.5	1.51e+00	0	38	104	0	60	63328
2026-01-30 03:03:09.00	241.56	6.02	-49.6	-64.8	3.6	1.51e+00	0	38	104	0	60	62924
2026-01-30 03:03:12.03	241.94	6.16	-49.6	-64.8	3.6	1.51e+00	0	39	104	0	60	62991
2026-01-30 03:03:15.06	242.31	6.30	-49.6	-64.8	3.6	1.51e+00	0	38	104	0	60	62843
2026-01-30 03:03:18.09	242.69	6.44	-49.6	-64.8	3.6	1.51e+00	0	38	104	0	60	62899
2026-01-30 03:03:21.12	243.07	6.58	-49.6	-64.8	3.6	1.51e+00	0	38	104	0	60	62746
2026-01-30 03:03:24.15	243.46	6.72	-49.6	-64.8	3.6	1.51e+00	0	38	104	0	60	62995
2026-01-30 03:03:27.18	243.85	6.86	-49.6	-64.8	3.6	1.51e+00	0	39	104	0	60	62970
2026-01-30 03:03:30.21	244.25	7.00	-49.6	-64.8	3.6	1.51e+00	0	39	104	0	60	62841
2026-01-30 03:03:33.24	244.64	7.14	-49.6	-64.8	3.6	1.51e+00	0	39	104	0	60	62762
2026-01-30 03:03:36.27	245.04	7.28	-49.6	-64.8	3.6	1.51e+00	0	39	104	0	60	63075
2026-01-30 03:03:39.30	245.45	7.42	-49.6	-64.8	3.6	1.51e+00	0	39	104	0	60	63151
2026-01-30 03:03:42.33	245.86	7.56	-49.6	-64.9	3.6	1.51e+00	0	39	104	0	60	63354
2026-01-30 03:03:45.36	246.27	7.69	-49.6	-64.9	3.6	1.51e+00	0	39	104	0	60	63250
2026-01-30 03:03:48.39	246.69	7.83	-49.6	-64.9	3.6	1.51e+00	0	39	104	0	60	63369
2026-01-30 03:03:51.43	247.11	7.97	-49.6	-64.8	3.6	1.51e+00	0	38	104	0	60	63118
2026-01-30 03:03:54.46	247.53	8.10	-49.6	-64.8	3.6	1.51e+00	0	39	104	0	60	62973
2026-01-30 03:03:57.49	247.96	8.24	-49.6	-64.9	3.6	1.51e+00	0	39	104	0	60	63405
2026-01-30 03:04:00.52	248.39	8.37	-49.6	-64.8	3.6	1.51e+00	0	38	104	0	60	63067
2026-01-30 03:04:03.55	248.83	8.51	-49.6	-64.8	3.6	1.51e+00	0	39	104	0	60	63042
2026-01-30 03:04:06.58	249.26	8.64	-49.6	-64.9	3.6	1.51e+00	0	39	104	0	60	63430
2026-01-30 03:04:09.61	249.71	8.77	-49.6	-64.8	3.6	1.51e+00	0	38	104	0	60	63101
2026-01-30 03:04:12.64	250.15	8.90	-49.6	-64.9	3.6	1.51e+00	0	39	104	0	60	63273
2026-01-30 03:04:15.67	250.61	9.03	-49.6	-64.8	3.6	1.51e+00	0	39	104	0	60	62847
2026-01-30 03:04:18.70	251.06	9.16	-49.6	-64.8	3.6	1.51e+00	0	39	104	0	60	63002
2026-01-30 03:04:21.73	251.52	9.29	-49.6	-64.8	3.6	1.51e+00	0	39	104	0	60	63095
2026-01-30 03:04:24.76	251.98	9.42	-49.6	-64.9	3.6	1.51e+00	0	39	104	0	60	63363
2026-01-30 03:04:27.79	252.45	9.55	-49.6	-64.8	3.6	1.51e+00	0	39	104	0	60	63031
2026-01-30 03:04:30.83	252.92	9.68	-49.6	-64.9	3.6	1.51e+00	0	39	104	0	60	63193
2026-01-30 03:04:33.85	253.39	9.80	-49.6	-64.9	3.6	1.51e+00	0	39	104	0	60	63378
2026-01-30 03:04:36.88	253.87	9.92	-49.6	-64.8	3.6	1.51e+00	0	39	104	0	60	63045
2026-01-30 03:04:39.91	254.35	10.05	-49.6	-64.8	3.6	1.51e+00	0	39	104	0	60	62728
2026-01-30 03:04:42.94	254.84	10.17	-49.6	-64.9	3.6	1.51e+00	0	39	104	0	60	63234
2026-01-30 03:04:45.97	255.33	10.29	-49.6	-64.8	3.6	1.51e+00	0	39	104	0	60	63177
2026-01-30 03:04:49.01	255.82	10.41	-49.6	-64.8	3.6	1.51e+00	0	39	104	0	60	62807
2026-01-30 03:04:52.04	256.32	10.53	-49.6	-64.8	3.6	1.51e+00	0	39	104	0	60	62959
2026-01-30 03:04:55.07	256.82	10.64	-49.6	-64.8	3.6	1.51e+00	0	39	104	0	60	63111
2026-01-30 03:04:58.10	257.33	10.76	-49.6	-64.8	3.6	1.51e+00	0	39	104	0	60	63128
2026-01-30 03:05:01.13	257.83	10.87	-49.6	-64.8	3.6	1.51e+00	0	39	104	0	60	62980
2026-01-30 03:05:04.16	258.35	10.98	-49.6	-64.9	3.6	1.51e+00	0	39	104	0	60	63196
2026-01-30 03:05:07.19	258.86	11.09	-49.6	-64.8	3.6	1.51e+00	0	39	104	0	60	63139
2026-01-30 03:05:10.22	259.38	11.20	-49.6	-64.8	3.6	1.51e+00	0	39	104	0	60	62936
2026-01-30 03:05:13.25	259.91	11.31	-49.6	-64.9	3.6	1.51e+00	0	39	104	0	60	63303
2026-01-30 03:05:16.28	260.43	11.41	-49.6	-64.8	3.6	1.51e+00	0	39	104	0	60	63076
2026-01-30 03:05:19.31	260.97	11.52	-49.6	-64.9	3.6	1.51e+00	0	39	104	0	60	63364
2026-01-30 03:05:22.34	261.50	11.62	-49.6	-64.8	3.6	1.51e+00	0	39	104	0	60	62762
2026-01-30 03:05:25.38	262.04	11.72	-49.6	-64.8	3.6	1.51e+00	0	39	104	0	60	62957
2026-01-30 03:05:28.41	262.58	11.82	-49.6	-64.9	3.6	1.51e+00	0	39	104	0	60	63307
2026-01-30 03:05:31.44	263.13	11.92	-49.6	-64.8	3.6	1.51e+00	0	39	104	0	60	63027
2026-01-30 03:05:34.47	263.68	12.01	-49.6	-64.9	3.5	1.51e+00	0	39	104	0	60	63475
2026-01-30 03:05:37.50	264.23	12.10	-49.6	-64.9	3.6	1.51e+00	0	39	104	0	60	63396
2026-01-30 03:05:40.53	264.78	12.19	-49.6	-64.9	3.6	1.51e+00	0	39	104	0	60	63613
2026-01-30 03:05:43.56	265.34	12.28	-49.6	-64.9	3.6	1.51e+00	0	39	104	0	60	63436
2026-01-30 03:05:46.59	265.91	12.37	-49.6	-64.8	3.6	1.51e+00	0	39	104	0	60	62806
2026-01-30 03:05:49.62	266.47	12.45	-49.6	-64.9	3.6	1.51e+00	0	39	104	0	60	63352
2026-01-30 03:05:52.65	267.04	12.53	-49.6	-64.8	3.6	1.51e+00	0	39	104	0	60	63122
2026-01-30 03:05:55.68	267.61	12.61	-49.6	-64.9	3.6	1.51e+00	0	39	104	0	60	63180
2026-01-30 03:05:58.71	268.18	12.69	-49.6	-64.9	3.6	1.51e+00	0	39	104	0	60	63253
2026-01-30 03:06:01.74	268.76	12.77	-49.6	-64.9	3.6	1.51e+00	0	39	104	0	60	63230
2026-01-30 03:06:04.77	269.34	12.84	-49.6	-64.8	3.6	1.51e+00	0	39	104	0	60	63061
2026-01-30 03:06:07.80	269.92	12.91	-49.6	-64.8	3.6	1.51e+00	0	39	104	0	60	63000
2026-01-30 03:06:10.83	270.51	12.97	-49.6	-64.8	3.6	1.51e+00	0	39	104	0	60	62924
2026-01-30 03:06:13.86	271.09	13.04	-49.6	-64.8	3.6	1.51e+00	0	39	104	0	60	62925
2026-01-30 03:06:16.89	271.68	13.10	-49.6	-64.9	3.6	1.51e+00	0	39	104	0	60	63472
2026-01-30 03:06:19.92	272.28	13.16	-49.6	-64.8	3.6	1.51e+00	0	39	104	0	60	62999
2026-01-30 03:06:22.95	272.87	13.22	-49.6	-64.8	3.6	1.51e+00	0	39	104	0	60	62896
2026-01-30 03:06:25.98	273.47	13.27	-49.6	-64.8	3.6	1.51e+00	0	39	104	0	60	63071
2026-01-30 03:06:29.01	274.07	13.32	-49.6	-64.8	3.6	1.51e+00	0	39	104	0	60	63152
2026-01-30 03:06:32.04	274.67	13.37	-49.6	-64.8	3.6	1.51e+00	0	39	104	0	60	63176
2026-01-30 03:06:35.07	275.27	13.42	-49.6	-64.8	3.6	1.51e+00	0	39	104	0	60	62947
2026-01-30 03:06:38.10	275.87	13.46	-49.6	-64.8	3.6	1.51e+00	0	39	104	0	60	63149
2026-01-30 03:06:41.13	276.48	13.50	-49.6	-64.8	3.6	1.51e+00	0	39	104	0	60	63044
2026-01-30 03:06:44.16	277.09	13.54	-49.6	-64.8	3.6	1.51e+00	0	39	104	0	60	62869
2026-01-30 03:06:47.20	277.70	13.57	-49.6	-64.8	3.6	1.51e+00	0	39	104	0	60	62948
2026-01-30 03:06:50.23	278.31	13.61	-49.6	-64.8	3.6	1.51e+00	0	39	104	0	60	63139
2026-01-30 03:06:53.26	278.92	13.63	-49.6	-64.8	3.6	1.51e+00	0	39	104	0	60	62989
2026-01-30 03:06:56.29	279.53	13.66	-49.6	-64.8	3.6	1.51e+00	0	39	104	0	60	63083
2026-01-30 03:06:59.32	280.14	13.68	-49.6	-64.8	3.6	1.51e+00	0	39	104	0	60	62892
2026-01-30 03:07:02.35	280.76	13.70	-49.6	-64.9	3.6	1.51e+00	0	39	104	0	60	63314
2026-01-30 03:07:05.38	281.37	13.72	-49.6	-64.9	3.6	1.51e+00	0	39	104	0	60	63248
2026-01-30 03:07:08.41	281.99	13.73	-49.6	-64.8	3.6	1.51e+00	0	39	104	0	60	63102
2026-01-30 03:07:11.44	282.60	13.74	-49.6	-64.9	3.6	1.51e+00	0	39	104	0	60	63379
2026-01-30 03:07:14.47	283.22	13.75	-49.6	-64.8	3.6	1.51e+00	0	39	104	0	60	62872
2026-01-30 03:07:17.50	283.84	13.76	-49.6	-64.9	3.6	1.51e+00	0	39	104	0	60	63420
2026-01-30 03:07:20.53	284.45	13.76	-49.6	-64.9	3.6	1.51e+00	0	39	104	0	60	63298
2026-01-30 03:07:23.56	285.07	13.76	-49.6	-64.8	3.6	1.51e+00	0	39	104	0	60	62969
2026-01-30 03:07:26.59	285.68	13.75	-49.6	-64.8	3.6	1.51e+00	0	39	104	0	60	63063
2026-01-30 03:07:29.62	286.30	13.74	-49.6	-64.9	3.6	1.51e+00	0	39	104	0	60	63259
2026-01-30 03:07:32.65	286.92	13.73	-49.6	-64.8	3.6	1.51e+00	0	39	104	0	60	62973
2026-01-30 03:07:35.69	287.53	13.72	-49.6	-64.8	3.6	1.51e+00	0	39	104	0	60	63132
2026-01-30 03:07:38.71	288.14	13.70	-49.6	-64.9	3.6	1.51e+00	0	39	104	0	60	63496
2026-01-30 03:07:41.75	288.76	13.68	-49.6	-64.8	3.6	1.51e+00	0	39	104	0	60	62950
2026-01-30 03:07:44.78	289.37	13.66	-49.6	-64.8	3.6	1.51e+00	0	39	104	0	60	63074
2026-01-30 03:07:47.81	289.98	13.64	-49.6	-64.9	3.6	1.51e+00	0	39	104	0	60	63178
2026-01-30 03:07:50.84	290.59	13.61	-49.6	-64.9	3.5	1.51e+00	0	39	104	0	60	63371
2026-01-30 03:07:53.87	291.20	13.58	-49.6	-64.8	3.6	1.51e+00	0	39	104	0	60	63119
2026-01-30 03:07:56.90	291.81	13.54	-49.6	-64.8	3.6	1.51e+00	0	39	104	0	60	63155
2026-01-30 03:07:59.93	292.42	13.50	-49.6	-64.8	3.6	1.51e+00	0	39	104	0	60	62963
2026-01-30 03:08:02.96	293.02	13.46	-49.6	-64.8	3.6	1.51e+00	0	39	104	0	60	63151
2026-01-30 03:08:05.99	293.63	13.42	-49.6	-64.9	3.6	1.51e+00	0	39	104	0	60	63347
2026-01-30 03:08:09.02	294.23	13.38	-49.6	-64.9	3.6	1.51e+00	0	39	104	0	60	63493
2026-01-30 03:08:12.05	294.83	13.33	-49.6	-64.9	3.6	1.51e+00	0	39	104	0	60	63439
2026-01-30 03:08:15.08	295.42	13.28	-49.6	-64.8	3.6	1.51e+00	0	39	104	0	60	63119
2026-01-30 03:08:18.11	296.02	13.22	-49.6	-64.8	3.6	1.51e+00	0	39	104	0	60	63063
2026-01-30 03:08:21.15	296.61	13.17	-49.6	-64.9	3.6	1.51e+00	0	39	104	0	60	63248
2026-01-30 03:08:24.18	297.21	13.11	-49.6	-64.9	3.6	1.51e+00	0	39	104	0	60	63380
2026-01-30 03:08:27.20	297.79	13.04	-49.6	-64.9	3.6	1.51e+00	0	39	104	0	60	63312
2026-01-30 03:08:30.23	298.38	12.98	-49.6	-64.8	3.6	1.51e+00	0	39	104	0	60	63047
2026-01-30 03:08:33.27	298.96	12.91	-49.6	-64.9	3.6	1.51e+00	0	39	104	0	60	63443
2026-01-30 03:08:36.30	299.54	12.84	-49.6	-64.8	3.6	1.51e+00	0	39	104	0	60	63039
2026-01-30 03:08:39.33	300.12	12.77	-49.6	-64.8	3.6	1.51e+00	0	39	104	0	60	62860
2026-01-30 03:08:42.36	300.70	12.70	-49.6	-64.8	3.6	1.51e+00	0	39	104	0	60	63032
2026-01-30 03:08:45.39	301.27	12.62	-49.6	-64.9	3.6	1.51e+00	0	39	104	0	60	63282
2026-01-30 03:08:48.42	301.84	12.54	-49.6	-64.8	3.6	1.51e+00	0	39	104	0	60	63034
2026-01-30 03:08:51.45	302.41	12.46	-49.6	-64.8	3.6	1.51e+00	0	39	104	0	60	63134
2026-01-30 03:08:54.48	302.97	12.38	-49.6	-64.8	3.6	1.51e+00	0	39	104	0	60	63019
2026-01-30 03:08:57.52	303.53	12.29	-49.6	-64.8	3.6	1.51e+00	0	39	104	0	60	63151
2026-01-30 03:09:00.55	304.09	12.20	-49.6	-64.8	3.6	1.51e+00	0	39	104	0	60	62740
2026-01-30 03:09:03.58	304.64	12.12	-49.6	-64.8	3.6	1.51e+00	0	39	104	0	60	62952
2026-01-30 03:09:06.61	305.19	12.02	-49.6	-64.8	3.6	1.51e+00	0	39	104	0	60	63128
2026-01-30 03:09:09.64	305.74	11.93	-49.6	-64.9	3.6	1.51e+00	0	39	104	0	60	63259
2026-01-30 03:09:12.67	306.28	11.83	-49.6	-64.8	3.6	1.51e+00	0	39	104	0	60	63096
2026-01-30 03:09:15.70	306.82	11.74	-49.6	-64.9	3.6	1.51e+00	0	39	104	0	60	63197
2026-01-30 03:09:18.73	307.36	11.64	-49.6	-64.9	3.6	1.51e+00	0	39	104	0	60	63264
2026-01-30 03:09:21.76	307.89	11.54	-49.6	-64.8	3.6	1.51e+00	0	39	104	0	60	62808
2026-01-30 03:09:24.79	308.42	11.43	-49.6	-64.9	3.6	1.51e+00	0	39	104	0	60	63178
2026-01-30 03:09:27.82	308.95	11.33	-49.6	-64.9	3.6	1.51e+00	0	39	104	0	60	63236
2026-01-30 03:09:30.85	309.47	11.22	-49.6	-64.9	3.6	1.51e+00	0	39	104	0	60	63303
2026-01-30 03:09:33.87	309.99	11.11	-49.6	-64.8	3.6	1.51e+00	0	39	104	0	60	63046
2026-01-30 03:09:36.90	310.50	11.00	-49.6	-64.8	3.6	1.51e+00	0	39	104	0	60	62986
2026-01-30 03:09:39.93	311.01	10.89	-49.6	-64.9	3.6	1.51e+00	0	39	104	0	60	63347
2026-01-30 03:09:42.96	311.52	10.78	-49.6	-64.8	3.6	1.51e+00	0	39	104	0	60	63019
2026-01-30 03:09:45.99	312.02	10.67	-49.6	-64.8	3.6	1.51e+00	0	39	104	0	60	62864
2026-01-30 03:09:49.03	312.52	10.55	-49.6	-64.8	3.6	1.51e+00	0	39	104	0	60	63132
2026-01-30 03:09:52.06	313.02	10.43	-49.6	-64.9	3.6	1.51e+00	0	39	104	0	60	63215
2026-01-30 03:09:55.09	313.51	10.32	-49.6	-64.8	3.6	1.51e+00	0	39	104	0	60	63170
2026-01-30 03:09:58.12	314.00	10.20	-49.6	-64.8	3.6	1.51e+00	0	39	104	0	60	63071
2026-01-30 03:10:01.12	314.48	10.08	-49.6	-64.8	3.6	1.51e+00	0	39	104	0	60	62957
2026-01-30 03:10:04.15	314.96	9.96	-49.6	-64.9	3.6	1.51e+00	0	39	104	0	60	63387
2026-01-30 03:10:07.18	315.43	9.83	-49.6	-64.8	3.6	1.51e+00	0	39	104	0	60	63151
2026-01-30 03:10:10.21	315.90	9.71	-49.6	-64.8	3.6	1.51e+00	0	39	104	0	60	63117
2026-01-30 03:10:13.24	316.37	9.58	-49.6	-64.9	3.6	1.51e+00	0	39	104	0	60	63433
2026-01-30 03:10:16.27	316.84	9.46	-49.6	-64.9	3.5	1.51e+00	0	39	104	0	60	63376
2026-01-30 03:10:19.30	317.30	9.33	-49.6	-64.9	3.6	1.51e+00	0	39	104	0	60	63340
2026-01-30 03:10:22.33	317.75	9.20	-49.6	-64.9	3.6	1.51e+00	0	39	104	0	60	63407
2026-01-30 03:10:25.36	318.21	9.08	-49.6	-64.9	3.6	1.51e+00	0	39	104	0	60	63188
2026-01-30 03:10:28.39	318.66	8.95	-49.6	-64.8	3.6	1.51e+00	0	39	104	0	60	62891
2026-01-30 03:10:31.42	319.10	8.82	-49.6	-64.8	3.6	1.51e+00	0	39	104	0	60	63113
2026-01-30 03:10:34.44	319.54	8.69	-49.6	-64.9	3.6	1.51e+00	0	39	104	0	60	63547
2026-01-30 03:10:37.48	319.98	8.55	-49.6	-64.9	3.6	1.51e+00	0	39	104	0	60	63478
2026-01-30 03:10:40.51	320.41	8.42	-49.6	-64.9	3.6	1.51e+00	0	39	104	0	60	63251
2026-01-30 03:10:43.54	320.84	8.29	-49.6	-64.9	3.6	1.51e+00	0	39	104	0	60	63456
2026-01-30 03:10:46.57	321.27	8.15	-49.6	-64.9	3.6	1.51e+00	0	39	104	0	60	63329
2026-01-30 03:10:49.60	321.69	8.02	-49.6	-64.9	3.6	1.51e+00	0	39	104	0	60	63342
2026-01-30 03:10:52.63	322.11	7.88	-49.6	-64.9	3.6	1.51e+00	0	39	104	0	60	63251
2026-01-30 03:10:55.66	322.53	7.75	-49.6	-64.8	3.6	1.51e+00	0	39	104	0	60	63175
2026-01-30 03:10:58.69	322.94	7.61	-49.6	-64.9	3.6	1.51e+00	0	39	104	0	60	63401
2026-01-30 03:11:01.72	323.35	7.48	-49.6	-64.8	3.6	1.51e+00	0	39	104	0	60	63021
2026-01-30 03:11:04.75	323.75	7.34	-49.6	-64.9	3.6	1.51e+00	0	39	104	0	60	63222
2026-01-30 03:11:07.79	324.15	7.20	-49.6	-64.9	3.6	1.51e+00	0	39	104	0	60	63265
2026-01-30 03:11:10.82	324.55	7.06	-49.6	-64.9	3.5	1.51e+00	0	39	104	0	60	63585
2026-01-30 03:11:13.85	324.94	6.93	-49.6	-64.9	3.6	1.51e+00	0	39	104	0	60	63289
2026-01-30 03:11:16.88	325.33	6.79	-49.6	-64.9	3.6	1.51e+00	0	39	104	0	60	63566
2026-01-30 03:11:19.91	325.72	6.65	-49.6	-64.8	3.6	1.51e+00	0	39	104	0	60	62944
2026-01-30 03:11:22.94	326.10	6.51	-49.6	-64.9	3.6	1.51e+00	0	39	104	0	60	63178
2026-01-30 03:11:25.97	326.48	6.37	-49.6	-64.9	3.6	1.51e+00	0	39	104	0	60	63242
2026-01-30 03:11:29.01	326.85	6.23	-49.6	-64.8	3.6	1.51e+00	0	39	104	0	60	63159
2026-01-30 03:11:32.04	327.22	6.09	-49.6	-64.9	3.6	1.51e+00	0	39	104	0	60	63346
2026-01-30 03:11:35.07	327.59	5.95	-49.6	-64.8	3.6	1.51e+00	0	39	104	0	60	62842
2026-01-30 03:11:38.10	327.96	5.81	-49.3	-64.6	3.6	1.51e+00	0	39	104	0	60	61139
2026-01-30 03:11:41.13	328.32	5.67	-49.6	-64.9	3.6	1.51e+00	0	39	104	0	60	63542
2026-01-30 03:11:44.16	328.68	5.53	-49.6	-64.8	3.6	1.51e+00	0	39	104	0	60	63102
2026-01-30 03:11:47.19	329.03	5.39	-49.6	-64.8	3.6	1.51e+00	0	39	104	0	60	62921
2026-01-30 03:11:50.22	329.38	5.25	-49.6	-64.9	3.6	1.51e+00	0	39	104	0	60	63477
2026-01-30 03:11:53.25	329.73	5.10	-49.6	-64.9	3.6	1.51e+00	0	39	104	0	60	63365
2026-01-30 03:11:56.28	330.08	4.96	-49.6	-64.8	3.6	1.51e+00	0	39	104	0	60	63176
2026-01-30 03:11:59.32	330.42	4.82	-49.6	-64.8	3.6	1.51e+00	0	39	104	0	60	63077
2026-01-30 03:12:02.34	330.76	4.68	-49.6	-64.8	3.6	1.51e+00	0	39	104	0	60	63075
2026-01-30 03:12:05.37	331.10	4.54	-49.6	-64.8	3.5	1.51e+00	0	39	104	0	60	63155
2026-01-30 03:12:08.40	331.43	4.40	-49.6	-64.8	3.6	1.51e+00	0	39	104	0	60	62988
2026-01-30 03:12:11.43	331.76	4.26	-49.6	-64.8	3.6	1.51e+00	0	39	104	0	60	63151
2026-01-30 03:12:14.46	332.09	4.12	-49.6	-64.9	3.6	1.51e+00	0	39	104	0	60	63266
2026-01-30 03:12:17.49	332.41	3.97	-49.6	-64.9	3.6	1.51e+00	0	39	104	0	60	63330
2026-01-30 03:12:20.52	332.73	3.83	-49.6	-64.9	3.6	1.51e+00	0	39	104	0	60	63252
2026-01-30 03:12:23.55	333.05	3.69	-49.6	-64.8	3.6	1.51e+00	0	39	104	0	60	62926
2026-01-30 03:12:26.58	333.36	3.55	-49.6	-64.8	3.6	1.51e+00	0	39	104	0	60	63085
2026-01-30 03:12:29.62	333.68	3.41	-49.6	-64.8	3.6	1.51e+00	0	39	104	0	60	63149
2026-01-30 03:12:32.65	333.98	3.27	-49.6	-64.9	3.6	1.51e+00	0	39	104	0	60	63284
2026-01-30 03:12:35.68	334.29	3.13	-49.6	-64.9	3.6	1.51e+00	0	39	104	0	60	63224
2026-01-30 03:12:38.71	334.59	2.98	-49.6	-64.8	3.6	1.51e+00	0	39	104	0	60	63055
2026-01-30 03:12:41.74	334.90	2.84	-49.6	-64.9	3.6	1.51e+00	0	39	104	0	60	63261
2026-01-30 03:12:44.77	335.19	2.70	-49.6	-64.9	3.6	1.51e+00	0	39	104	0	60	63199
2026-01-30 03:12:47.80	335.49	2.56	-49.6	-64.9	3.6	1.51e+00	0	39	104	0	60	63412
2026-01-30 03:12:50.83	335.78	2.42	-49.6	-64.8	3.6	1.51e+00	0	39	104	0	60	62999
2026-01-30 03:12:53.85	336.07	2.28	-49.6	-64.8	3.6	1.51e+00	0	39	104	0	60	62965
2026-01-30 03:12:56.88	336.36	2.14	-49.6	-64.9	3.6	1.51e+00	0	39	104	0	60	63499
2026-01-30 03:12:59.92	336.65	2.00	-49.6	-64.9	3.6	1.51e+00	0	39	104	0	60	63215
2026-01-30 03:13:02.95	336.93	1.86	-49.6	-64.8	3.6	1.51e+00	0	39	104	0	60	63114
2026-01-30 03:13:05.98	337.21	1.72	-49.6	-64.8	3.6	1.51e+00	0	39	104	0	60	63118
2026-01-30 03:13:09.01	337.48	1.58	-49.6	-64.9	3.6	1.51e+00	0	39	104	0	60	63277
2026-01-30 03:13:12.04	337.76	1.44	-49.6	-64.8	3.6	1.51e+00	0	39	104	0	60	63117
2026-01-30 03:13:15.07	338.03	1.30	-49.6	-64.9	3.6	1.51e+00	0	39	104	0	60	63362
2026-01-30 03:13:18.10	338.30	1.16	-49.6	-64.9	3.6	1.51e+00	0	39	104	0	60	63712
2026-01-30 03:13:21.13	338.57	1.02	-49.6	-64.9	3.6	1.51e+00	0	39	104	0	60	63299
2026-01-30 03:13:24.16	338.84	0.89	-49.6	-64.9	3.6	1.51e+00	0	39	104	0	60	63526
2026-01-30 03:13:27.19	339.10	0.75	-49.6	-64.9	3.6	1.51e+00	0	39	104	0	60	63203
2026-01-30 03:13:30.22	339.36	0.61	-49.6	-64.9	3.6	1.51e+00	0	39	104	0	60	63299
2026-01-30 03:13:33.26	339.62	0.47	-49.6	-64.8	3.6	1.51e+00	0	39	104	0	60	63081
2026-01-30 03:13:36.28	339.88	0.33	-49.6	-64.8	3.6	1.51e+00	0	39	104	0	60	63109
2026-01-30 03:13:39.32	340.13	0.19	-49.6	-64.9	3.6	1.51e+00	0	39	104	0	60	63350
2026-01-30 03:13:42.35	340.38	0.06	-49.6	-64.9	3.6	1.51e+00	0	39	104	0	60	63381
2026-01-30 03:13:45.38	340.63	-0.08	-49.6	-64.8	3.6	1.51e+00	0	39	104	0	60	63107

#Closed at: 2026-01-30 03:13:46
#Recorded file [0 MB]: D:/lorett/data/35029_260130_150101.dat