passes_logs/2026/01/26/R2M6_AANII_01/R2M6_AANII_01__20260126_102040_FENGYUN_3D_rec.log

#Pass ID: 20260126_102040_FENGYUN 3D
#Satellite: FENGYUN 3D
#Configuration: FENGYUN 3D
#almurnet v.1.7.20240730
#Start time: 2026-01-26 10:20:41

#Version: 2.2.20231116
#Station: R2M6_AANII_01
#Location: 30.233357 lon 59.946436 lat
#TLE: 1 43010U 17072A   26025.85700374 -.00000071  00000+0 -11715-4 0  9992
#TLE: 2 43010  98.9962 357.8423 0002518  90.2035 269.9429 14.19699460424796

#Time	Az	El	Level	Level2	SNR	BER	BlckErr	Temp	State	Recorded	gain1	gain2
2026-01-26 10:20:41.36	96.92	7.05	-31.0	-41.5	3.8	8.45e-01	0	41	0	0	23	12146
2026-01-26 10:20:44.37	96.63	7.24	-30.7	-41.5	3.8	8.45e-01	0	41	104	0	22	12418
2026-01-26 10:20:47.38	96.34	7.43	-30.5	-41.1	3.8	8.46e-01	0	42	104	0	22	12197
2026-01-26 10:20:50.39	96.04	7.62	-30.5	-41.1	3.8	8.47e-01	0	42	104	0	22	12139
2026-01-26 10:20:53.40	95.74	7.81	-30.6	-41.3	3.8	8.45e-01	0	42	104	0	22	12290
2026-01-26 10:20:56.42	95.43	8.00	-30.7	-41.5	3.8	8.46e-01	0	42	104	0	22	12450
2026-01-26 10:20:59.44	95.12	8.19	-30.7	-41.5	3.8	8.46e-01	0	42	104	0	22	12481
2026-01-26 10:21:02.46	94.80	8.39	-30.8	-41.7	3.8	8.45e-01	0	42	104	0	22	12547
2026-01-26 10:21:05.46	94.48	8.58	-30.8	-40.8	3.8	8.45e-01	0	42	104	0	22	11351
2026-01-26 10:21:08.47	94.16	8.77	-31.0	-41.7	3.8	8.46e-01	0	42	104	0	22	12342
2026-01-26 10:21:11.49	93.83	8.97	-31.0	-40.3	3.8	8.46e-01	0	42	104	0	22	10547
2026-01-26 10:21:14.50	93.50	9.17	-31.0	-39.4	4.1	8.37e-01	0	42	0	0	22	9490
2026-01-26 10:21:17.51	93.16	9.36	-29.8	-33.2	7.9	1.21e-01	0	42	0	5242880	21	5298
2026-01-26 10:21:20.53	92.82	9.56	-28.4	-30.3	11.5	1.88e-03	0	43	0	22020096	18	4470
2026-01-26 10:21:23.53	92.47	9.76	-28.4	-30.6	11.8	1.49e-03	0	43	0	38797312	17	4660
2026-01-26 10:21:26.54	92.12	9.95	-27.9	-29.5	12.6	1.53e-04	0	43	0	55574528	17	4326
2026-01-26 10:21:29.55	91.77	10.15	-27.9	-30.0	12.8	5.60e-05	0	43	0	72351744	16	4571
2026-01-26 10:21:32.54	91.41	10.35	-27.6	-29.3	13.3	2.74e-05	0	42	0	89128960	16	4342
2026-01-26 10:21:35.55	91.04	10.55	-26.7	-28.1	14.4	1.10e-06	0	43	0	105906176	14	4230
2026-01-26 10:21:38.55	90.67	10.75	-26.9	-28.5	14.2	1.10e-06	0	43	0	123731968	14	4353
2026-01-26 10:21:41.57	90.29	10.95	-26.5	-27.8	14.6	2.20e-06	0	43	0	140509184	14	4140
2026-01-26 10:21:44.59	89.91	11.15	-26.6	-27.8	14.7	3.40e-06	0	43	0	157286400	14	4136
2026-01-26 10:21:47.60	89.52	11.35	-26.0	-27.1	15.3	0.00e+00	0	43	0	174063616	13	4076
2026-01-26 10:21:50.59	89.13	11.55	-25.9	-26.8	15.5	0.00e+00	0	43	0	190840832	13	4004
2026-01-26 10:21:53.59	88.74	11.75	-26.2	-27.5	15.2	0.00e+00	0	43	0	207618048	13	4164
2026-01-26 10:21:56.60	88.33	11.95	-26.2	-27.4	15.2	0.00e+00	0	43	0	224395264	13	4143
2026-01-26 10:21:59.60	87.92	12.15	-26.2	-27.5	15.2	0.00e+00	0	43	0	241172480	13	4170
2026-01-26 10:22:02.63	87.51	12.36	-26.2	-27.4	15.3	0.00e+00	0	43	0	258998272	13	4152
2026-01-26 10:22:05.63	87.09	12.56	-26.2	-27.3	15.3	0.00e+00	0	43	0	275775488	13	4131
2026-01-26 10:22:08.64	86.66	12.76	-25.8	-27.1	15.8	0.00e+00	0	43	0	292552704	12	4168
2026-01-26 10:22:11.65	86.23	12.97	-25.7	-26.9	15.9	0.00e+00	0	43	0	309329920	12	4114
2026-01-26 10:22:14.65	85.79	13.17	-25.7	-26.8	16.0	0.00e+00	0	43	0	326107136	12	4097
2026-01-26 10:22:17.67	85.34	13.37	-25.6	-26.6	16.1	0.00e+00	0	43	0	343932928	12	4028
2026-01-26 10:22:20.69	84.89	13.57	-25.5	-26.5	16.1	1.10e-06	0	43	0	360710144	12	4013
2026-01-26 10:22:23.70	84.43	13.78	-25.6	-26.6	16.1	0.00e+00	0	43	0	377487360	12	4030
2026-01-26 10:22:26.72	83.97	13.98	-25.6	-26.5	16.2	2.20e-06	0	43	0	394264576	12	4012
2026-01-26 10:22:29.72	83.50	14.18	-25.6	-26.5	16.2	0.00e+00	0	43	0	411041792	12	4014
2026-01-26 10:22:32.74	83.02	14.38	-25.3	-26.4	16.6	0.00e+00	0	43	0	427819008	11	4103
2026-01-26 10:22:35.75	82.53	14.59	-25.7	-27.3	16.1	0.00e+00	0	43	0	444596224	11	4344
2026-01-26 10:22:38.75	82.05	14.79	-25.8	-27.5	16.0	0.00e+00	0	43	0	462422016	11	4373
2026-01-26 10:22:41.75	81.55	14.99	-25.3	-26.5	16.6	0.00e+00	0	43	0	479199232	11	4118
2026-01-26 10:22:44.76	81.05	15.19	-25.6	-27.1	16.3	0.00e+00	0	43	0	495976448	11	4278
2026-01-26 10:22:47.76	80.54	15.39	-25.4	-26.7	16.5	0.00e+00	0	43	0	512753664	11	4166
2026-01-26 10:22:50.77	80.02	15.58	-25.5	-26.8	16.5	0.00e+00	0	43	0	529530880	11	4181
2026-01-26 10:22:53.77	79.50	15.78	-25.2	-26.3	16.7	0.00e+00	0	43	0	546308096	11	4054
2026-01-26 10:22:56.79	78.96	15.98	-25.3	-26.5	16.6	0.00e+00	0	43	0	563085312	11	4120
2026-01-26 10:22:59.81	78.42	16.18	-25.3	-26.4	16.8	0.00e+00	0	43	0	580911104	11	4084
2026-01-26 10:23:02.82	77.88	16.37	-25.2	-26.2	16.8	0.00e+00	0	43	0	597688320	11	4031
2026-01-26 10:23:05.83	77.32	16.57	-25.0	-25.8	17.1	0.00e+00	0	43	0	614465536	11	3926
2026-01-26 10:23:08.86	76.76	16.76	-24.9	-25.5	17.2	0.00e+00	0	43	0	631242752	11	3873
2026-01-26 10:23:11.87	76.19	16.95	-24.9	-25.6	17.1	0.00e+00	0	44	0	648019968	11	3892
2026-01-26 10:23:14.88	75.61	17.14	-25.0	-25.8	17.0	0.00e+00	0	43	0	664797184	11	3944
2026-01-26 10:23:17.88	75.03	17.33	-24.9	-25.5	17.3	0.00e+00	0	44	0	682622976	11	3862
2026-01-26 10:23:20.89	74.44	17.52	-24.9	-26.0	17.2	0.00e+00	0	43	0	699400192	10	4097
2026-01-26 10:23:23.90	73.85	17.70	-25.2	-26.6	16.9	0.00e+00	0	43	0	716177408	10	4258
2026-01-26 10:23:26.90	73.24	17.89	-25.3	-27.0	16.7	0.00e+00	0	44	0	732954624	10	4356
2026-01-26 10:23:29.91	72.63	18.07	-24.8	-25.9	17.3	0.00e+00	0	43	0	749731840	10	4058
2026-01-26 10:23:32.92	72.01	18.25	-24.8	-25.9	17.3	0.00e+00	0	43	0	766509056	10	4062
2026-01-26 10:23:35.93	71.39	18.42	-24.7	-25.5	17.7	0.00e+00	0	44	0	783286272	10	3944
2026-01-26 10:23:38.94	70.75	18.60	-24.5	-25.2	17.8	0.00e+00	0	44	0	800063488	10	3871
2026-01-26 10:23:41.96	70.11	18.77	-24.5	-25.1	17.9	0.00e+00	0	43	0	817889280	10	3850
2026-01-26 10:23:44.96	69.46	18.94	-24.3	-24.8	18.1	0.00e+00	0	44	0	834666496	10	3778
2026-01-26 10:23:47.97	68.81	19.11	-24.4	-24.9	18.0	0.00e+00	0	44	0	851443712	10	3811
2026-01-26 10:23:50.97	68.15	19.27	-24.2	-24.9	18.3	0.00e+00	0	44	0	868220928	9	3908
2026-01-26 10:23:53.96	67.48	19.43	-24.0	-24.6	18.4	0.00e+00	0	44	0	884998144	9	3843
2026-01-26 10:23:56.97	66.80	19.59	-23.8	-24.2	18.6	0.00e+00	0	44	0	901775360	9	3759
2026-01-26 10:23:59.99	66.12	19.74	-23.9	-24.4	18.5	0.00e+00	0	44	0	918552576	9	3794
2026-01-26 10:24:03.00	65.42	19.89	-24.1	-24.7	18.4	0.00e+00	0	44	0	935329792	9	3860
2026-01-26 10:24:06.00	64.73	20.04	-24.0	-24.6	18.4	0.00e+00	0	43	0	953155584	9	3851
2026-01-26 10:24:09.01	64.02	20.19	-24.0	-24.4	18.5	0.00e+00	0	44	0	969932800	9	3807
2026-01-26 10:24:12.02	63.31	20.33	-24.1	-24.7	18.4	0.00e+00	0	44	0	986710016	9	3876
2026-01-26 10:24:15.04	62.59	20.46	-24.1	-24.7	18.4	0.00e+00	0	44	0	1003487232	9	3861
2026-01-26 10:24:18.04	61.87	20.59	-24.0	-24.6	18.5	0.00e+00	0	44	0	1020264448	9	3837
2026-01-26 10:24:21.05	61.14	20.72	-24.2	-25.0	18.3	0.00e+00	0	44	0	1037041664	9	3938
2026-01-26 10:24:24.06	60.40	20.85	-23.6	-24.3	18.9	0.00e+00	0	44	0	1053818880	8	3869
2026-01-26 10:24:27.07	59.66	20.97	-24.0	-25.0	18.5	0.00e+00	0	44	0	1071644672	8	4045
2026-01-26 10:24:30.06	58.92	21.08	-24.0	-25.0	18.6	0.00e+00	0	44	0	1088421888	8	4040
2026-01-26 10:24:33.08	58.16	21.19	-23.9	-24.8	18.6	0.00e+00	0	44	0	1105199104	8	4003
2026-01-26 10:24:36.09	57.40	21.30	-23.9	-24.8	18.7	0.00e+00	0	44	0	1121976320	8	3995
2026-01-26 10:24:39.11	56.64	21.40	-23.7	-24.4	18.9	0.00e+00	0	44	0	1138753536	8	3902
2026-01-26 10:24:42.12	55.87	21.49	-23.7	-24.3	18.9	0.00e+00	0	44	0	1155530752	8	3888
2026-01-26 10:24:45.12	55.10	21.58	-23.9	-24.8	18.7	0.00e+00	0	44	0	1173356544	8	3998
2026-01-26 10:24:48.13	54.32	21.67	-23.8	-24.7	18.7	0.00e+00	0	44	0	1190133760	8	3975
2026-01-26 10:24:51.14	53.54	21.75	-23.5	-24.1	19.0	0.00e+00	0	44	0	1206910976	8	3823
2026-01-26 10:24:54.15	52.75	21.82	-23.4	-23.8	19.2	0.00e+00	0	44	0	1223688192	8	3768
2026-01-26 10:24:57.14	51.97	21.89	-23.6	-24.2	19.0	0.00e+00	0	44	0	1240465408	8	3852
2026-01-26 10:25:00.15	51.18	21.95	-23.6	-24.2	19.0	0.00e+00	0	44	0	1257242624	8	3854
2026-01-26 10:25:03.16	50.38	22.01	-23.4	-23.9	19.2	0.00e+00	0	44	0	1274019840	8	3775
2026-01-26 10:25:06.18	49.58	22.06	-23.4	-24.3	19.1	0.00e+00	0	44	0	1291845632	7	3986
2026-01-26 10:25:09.19	48.78	22.11	-23.6	-24.6	19.0	0.00e+00	0	44	0	1308622848	7	4070
2026-01-26 10:25:12.20	47.98	22.14	-23.7	-24.9	18.9	0.00e+00	0	44	0	1325400064	7	4125
2026-01-26 10:25:15.21	47.17	22.18	-23.7	-24.9	18.9	0.00e+00	0	44	0	1342177280	7	4131
2026-01-26 10:25:18.23	46.36	22.21	-23.3	-24.0	19.3	0.00e+00	0	44	0	1358954496	7	3916
2026-01-26 10:25:21.23	45.56	22.23	-23.3	-24.1	19.3	0.00e+00	0	44	0	1375731712	7	3933
2026-01-26 10:25:24.24	44.75	22.24	-23.4	-24.3	19.2	0.00e+00	0	44	0	1392508928	7	3988
2026-01-26 10:25:27.26	43.94	22.25	-23.4	-24.2	19.2	0.00e+00	0	44	0	1409286144	7	3959
2026-01-26 10:25:30.26	43.13	22.26	-23.7	-24.8	18.9	0.00e+00	0	44	0	1427111936	7	4108
2026-01-26 10:25:33.27	42.32	22.25	-23.8	-25.0	18.8	0.00e+00	0	44	0	1443889152	7	4155
2026-01-26 10:25:36.28	41.51	22.24	-23.8	-25.2	18.7	0.00e+00	0	44	0	1460666368	7	4203
2026-01-26 10:25:39.28	40.71	22.23	-23.4	-24.2	19.2	0.00e+00	0	44	0	1477443584	7	3959
2026-01-26 10:25:42.30	39.90	22.21	-23.5	-24.5	19.1	0.00e+00	0	44	0	1494220800	7	4029
2026-01-26 10:25:45.31	39.09	22.18	-23.7	-24.8	18.9	0.00e+00	0	44	0	1512046592	7	4119
2026-01-26 10:25:48.32	38.29	22.15	-23.7	-24.8	18.9	0.00e+00	0	44	0	1528823808	7	4113
2026-01-26 10:25:51.33	37.49	22.11	-23.5	-24.6	19.0	0.00e+00	0	44	0	1545601024	7	4048
2026-01-26 10:25:54.33	36.69	22.06	-23.8	-25.0	18.8	0.00e+00	0	44	0	1562378240	7	4164
2026-01-26 10:25:57.35	35.89	22.01	-23.3	-24.1	19.2	0.00e+00	0	44	0	1579155456	7	3945
2026-01-26 10:26:00.36	35.09	21.96	-23.3	-24.2	19.2	0.00e+00	0	44	0	1595932672	7	3954
2026-01-26 10:26:03.36	34.30	21.89	-23.4	-24.3	19.2	0.00e+00	0	44	0	1612709888	7	3974
2026-01-26 10:26:06.38	33.51	21.83	-23.5	-24.4	19.1	0.00e+00	0	44	0	1629487104	7	4006
2026-01-26 10:26:09.38	32.73	21.75	-23.4	-24.2	19.2	0.00e+00	0	44	0	1647312896	7	3953
2026-01-26 10:26:12.38	31.95	21.67	-23.3	-24.0	19.3	0.00e+00	0	44	0	1664090112	7	3920
2026-01-26 10:26:15.39	31.18	21.59	-23.6	-24.7	19.0	0.00e+00	0	44	0	1680867328	7	4077
2026-01-26 10:26:18.40	30.40	21.50	-23.9	-25.2	18.7	0.00e+00	0	44	0	1697644544	7	4217
2026-01-26 10:26:21.40	29.64	21.40	-23.6	-24.6	19.0	0.00e+00	0	44	0	1714421760	7	4052
2026-01-26 10:26:24.40	28.88	21.30	-23.8	-25.0	18.8	0.00e+00	0	44	0	1731198976	7	4165
2026-01-26 10:26:27.41	28.12	21.20	-23.5	-24.4	19.1	0.00e+00	0	44	0	1747976192	7	4018
2026-01-26 10:26:30.42	27.37	21.09	-23.4	-24.2	19.2	0.00e+00	0	44	0	1764753408	7	3959
2026-01-26 10:26:33.44	26.62	20.98	-23.6	-24.6	18.9	0.00e+00	0	44	0	1782579200	7	4061
2026-01-26 10:26:36.45	25.88	20.86	-23.6	-24.6	18.9	0.00e+00	0	44	0	1799356416	7	4065
2026-01-26 10:26:39.47	25.14	20.73	-23.7	-24.8	18.9	0.00e+00	0	44	0	1816133632	7	4110
2026-01-26 10:26:42.48	24.41	20.61	-23.7	-24.9	18.8	0.00e+00	0	44	0	1832910848	7	4121
2026-01-26 10:26:45.50	23.69	20.47	-23.9	-25.2	18.6	0.00e+00	0	44	0	1849688064	7	4218
2026-01-26 10:26:48.51	22.97	20.34	-23.8	-25.0	18.7	0.00e+00	0	44	0	1867513856	7	4162
2026-01-26 10:26:51.52	22.26	20.20	-23.8	-25.0	18.7	0.00e+00	0	44	0	1884291072	7	4163
2026-01-26 10:26:54.52	21.56	20.05	-23.8	-24.6	18.7	0.00e+00	0	44	0	1901068288	8	3956
2026-01-26 10:26:57.52	20.86	19.91	-23.9	-24.8	18.6	1.10e-06	0	44	0	1917845504	8	3985
2026-01-26 10:27:00.53	20.17	19.76	-24.0	-25.1	18.4	0.00e+00	0	44	0	1934622720	8	4074
2026-01-26 10:27:03.54	19.49	19.60	-24.1	-25.3	18.3	0.00e+00	0	44	0	1951399936	8	4114
2026-01-26 10:27:06.54	18.82	19.45	-24.1	-25.2	18.3	0.00e+00	0	44	0	1968177152	8	4105
2026-01-26 10:27:09.55	18.15	19.29	-24.2	-25.5	18.2	0.00e+00	0	44	0	1984954368	8	4166
2026-01-26 10:27:12.56	17.49	19.12	-24.4	-25.9	17.9	0.00e+00	0	44	0	2002780160	8	4288
2026-01-26 10:27:15.57	16.83	18.96	-24.5	-26.0	17.9	0.00e+00	0	44	0	2019557376	8	4303
2026-01-26 10:27:18.58	16.19	18.79	-24.8	-25.7	17.5	0.00e+00	0	44	0	2036334592	10	4009
2026-01-26 10:27:21.58	15.55	18.62	-24.6	-25.4	17.7	0.00e+00	0	44	0	2053111808	10	3930
2026-01-26 10:27:24.57	14.92	18.44	-24.5	-25.1	17.9	0.00e+00	0	44	0	2069889024	10	3846
2026-01-26 10:27:27.58	14.30	18.27	-24.4	-24.9	18.0	0.00e+00	0	44	0	2086666240	10	3801
2026-01-26 10:27:30.59	13.68	18.09	-24.7	-25.5	17.6	0.00e+00	0	44	0	2103443456	10	3953
2026-01-26 10:27:33.60	13.07	17.91	-24.6	-25.3	17.7	0.00e+00	0	44	0	2120220672	10	3895
2026-01-26 10:27:36.61	12.46	17.72	-24.8	-25.8	17.5	0.00e+00	0	44	0	2138046464	10	4026
2026-01-26 10:27:39.62	11.87	17.54	-24.9	-25.9	17.4	0.00e+00	0	44	0	2154823680	10	4056
2026-01-26 10:27:42.62	11.28	17.35	-24.8	-25.6	17.5	0.00e+00	0	44	0	2171600896	10	3980
2026-01-26 10:27:45.62	10.70	17.17	-25.2	-26.6	17.0	0.00e+00	0	44	0	2188378112	10	4234
2026-01-26 10:27:48.63	10.13	16.98	-24.6	-25.2	17.7	0.00e+00	0	44	0	2205155328	10	3889
2026-01-26 10:27:51.63	9.57	16.79	-24.7	-25.5	17.6	0.00e+00	0	44	0	2221932544	10	3948
2026-01-26 10:27:54.64	9.01	16.60	-24.7	-25.6	17.6	0.00e+00	0	44	0	2238709760	10	3966
2026-01-26 10:27:57.65	8.46	16.40	-24.7	-25.5	17.6	0.00e+00	0	44	0	2255486976	10	3942
2026-01-26 10:28:00.66	7.91	16.21	-25.0	-26.1	17.3	0.00e+00	0	44	0	2272264192	10	4097
2026-01-26 10:28:03.66	7.38	16.01	-24.8	-25.8	17.4	0.00e+00	0	44	0	2289041408	10	4029
2026-01-26 10:28:06.68	6.84	15.82	-24.9	-26.0	17.3	0.00e+00	0	44	0	2306867200	10	4086
2026-01-26 10:28:09.69	6.32	15.62	-25.0	-26.1	17.2	0.00e+00	0	44	0	2323644416	10	4106
2026-01-26 10:28:12.70	5.80	15.42	-24.9	-26.0	17.2	0.00e+00	0	44	0	2340421632	10	4086
2026-01-26 10:28:15.71	5.30	15.22	-25.1	-26.3	17.1	0.00e+00	0	44	0	2357198848	10	4158
2026-01-26 10:28:18.72	4.79	15.02	-25.1	-26.4	17.0	0.00e+00	0	44	0	2373976064	10	4182
2026-01-26 10:28:21.73	4.30	14.82	-25.3	-26.8	16.8	0.00e+00	0	44	0	2391801856	10	4282
2026-01-26 10:28:24.74	3.81	14.62	-25.2	-26.6	16.9	0.00e+00	0	44	0	2408579072	10	4230
2026-01-26 10:28:27.76	3.33	14.42	-25.2	-26.6	16.9	0.00e+00	0	44	0	2425356288	10	4220
2026-01-26 10:28:30.77	2.85	14.22	-25.2	-26.6	16.9	0.00e+00	0	44	0	2442133504	10	4238
2026-01-26 10:28:33.79	2.38	14.02	-25.4	-27.0	16.7	0.00e+00	0	44	0	2458910720	10	4342
2026-01-26 10:28:36.80	1.92	13.81	-25.3	-26.9	16.7	0.00e+00	0	44	0	2475687936	10	4324
2026-01-26 10:28:39.81	1.46	13.61	-25.7	-27.2	16.3	0.00e+00	0	44	0	2492465152	11	4276
2026-01-26 10:28:42.81	1.01	13.41	-25.5	-26.7	16.5	0.00e+00	0	44	0	2509242368	11	4141
2026-01-26 10:28:45.81	0.57	13.21	-25.6	-26.9	16.4	0.00e+00	0	44	0	2527068160	11	4203
2026-01-26 10:28:48.83	0.13	13.01	-25.5	-26.7	16.5	0.00e+00	0	44	0	2543845376	11	4153
2026-01-26 10:28:51.83	359.70	12.80	-25.7	-27.1	16.2	0.00e+00	0	44	0	2560622592	11	4263
2026-01-26 10:28:54.85	359.28	12.60	-25.9	-27.6	15.9	0.00e+00	0	44	0	2577399808	11	4403
2026-01-26 10:28:57.86	358.86	12.40	-25.9	-27.2	15.8	0.00e+00	0	44	0	2594177024	12	4182
2026-01-26 10:29:00.84	358.45	12.20	-25.8	-27.1	15.9	0.00e+00	0	44	0	2610954240	12	4146
2026-01-26 10:29:03.84	358.04	12.00	-25.8	-27.0	15.9	0.00e+00	0	44	0	2627731456	12	4129
2026-01-26 10:29:06.85	357.64	11.80	-26.1	-27.7	15.5	0.00e+00	0	44	0	2644508672	12	4308
2026-01-26 10:29:09.86	357.25	11.60	-25.8	-27.1	15.8	0.00e+00	0	44	0	2662334464	12	4141
2026-01-26 10:29:12.87	356.85	11.40	-26.1	-27.7	15.5	1.10e-06	0	44	0	2679111680	12	4305
2026-01-26 10:29:15.88	356.47	11.20	-26.2	-27.8	15.4	0.00e+00	0	44	0	2695888896	12	4334
2026-01-26 10:29:18.89	356.09	11.00	-26.1	-27.7	15.4	0.00e+00	0	44	0	2712666112	12	4306
2026-01-26 10:29:21.90	355.71	10.80	-26.4	-28.3	15.1	0.00e+00	0	44	0	2729443328	12	4485
2026-01-26 10:29:24.89	355.35	10.60	-26.0	-27.4	15.6	0.00e+00	0	44	0	2746220544	12	4237
2026-01-26 10:29:27.89	354.98	10.40	-26.2	-27.9	15.3	0.00e+00	0	44	0	2762997760	12	4386
2026-01-26 10:29:30.90	354.63	10.20	-26.2	-27.8	15.3	0.00e+00	0	44	0	2779774976	12	4358
2026-01-26 10:29:33.91	354.27	10.00	-26.5	-28.1	14.9	1.10e-06	0	44	0	2797600768	13	4322
2026-01-26 10:29:36.92	353.92	9.81	-26.5	-28.1	14.8	0.00e+00	0	44	0	2814377984	13	4319
2026-01-26 10:29:39.93	353.58	9.61	-26.6	-28.3	14.8	0.00e+00	0	44	0	2831155200	13	4363
2026-01-26 10:29:42.95	353.24	9.41	-26.4	-27.9	14.9	1.10e-06	0	44	0	2847932416	13	4261
2026-01-26 10:29:45.96	352.90	9.22	-26.6	-28.2	14.8	1.10e-06	0	44	0	2864709632	13	4345
2026-01-26 10:29:48.97	352.57	9.02	-26.4	-27.9	14.9	0.00e+00	0	44	0	2882535424	13	4267
2026-01-26 10:29:51.97	352.25	8.83	-26.8	-28.8	14.3	3.40e-06	0	44	0	2899312640	13	4520
2026-01-26 10:29:54.99	351.92	8.63	-26.5	-28.2	14.7	1.10e-06	0	44	0	2916089856	13	4344
2026-01-26 10:29:58.00	351.61	8.44	-26.5	-28.1	14.7	1.10e-06	0	44	0	2932867072	13	4336
2026-01-26 10:30:01.01	351.29	8.25	-26.7	-28.0	14.5	0.00e+00	0	44	0	2949644288	14	4176
2026-01-26 10:30:04.01	350.99	8.06	-26.9	-28.6	14.1	2.20e-06	0	44	0	2966421504	14	4341
2026-01-26 10:30:07.03	350.68	7.87	-27.2	-29.1	13.8	8.00e-06	0	44	0	2983198720	14	4511
2026-01-26 10:30:10.04	350.38	7.68	-27.5	-29.5	13.2	3.31e-05	0	44	0	2999975936	15	4527
2026-01-26 10:30:13.04	350.08	7.49	-27.3	-29.1	13.5	1.83e-05	0	44	0	3017801728	15	4386
2026-01-26 10:30:16.05	349.79	7.30	-27.0	-28.3	13.9	5.70e-06	0	44	0	3034578944	15	4176
2026-01-26 10:30:19.06	349.50	7.11	-27.3	-29.1	13.4	1.94e-05	0	44	0	3051356160	15	4386

#Closed at: 2026-01-26 10:30:21
#Recorded file [3054 MB]: D:/data/31010_260126_132113.dat