passes_logs/2026/01/26/R2M6_AANII_01/R2M6_AANII_01__20260126_152217_FENGYUN_3E_rec.log

#Pass ID: 20260126_152217_FENGYUN 3E
#Satellite: FENGYUN 3E
#Configuration: FENGYUN 3E
#almurnet v.1.7.20240730
#Start time: 2026-01-26 15:22:18

#Version: 2.2.20231116
#Station: R2M6_AANII_01
#Location: 30.233357 lon 59.946436 lat
#TLE: 1 49008U 21062A   26025.99868676  .00000027  00000+0  33666-4 0  9992
#TLE: 2 49008  98.7499  30.9985 0002454 117.4834 242.6592 14.19886826236404

#Time	Az	El	Level	Level2	SNR	BER	BlckErr	Temp	State	Recorded	gain1	gain2
2026-01-26 15:22:18.09	184.46	7.05	-27.2	-29.0	5.7	7.59e-01	0	42	0	0	14	4420
2026-01-26 15:22:21.09	184.61	7.28	-29.0	-31.3	9.6	1.07e-02	0	42	0	7340032	18	4688
2026-01-26 15:22:24.10	184.76	7.50	-27.6	-28.8	11.7	1.05e-03	0	42	0	28311552	16	4140
2026-01-26 15:22:27.11	184.91	7.73	-26.8	-27.9	12.7	6.63e-05	0	42	0	50331648	14	4114
2026-01-26 15:22:30.11	185.06	7.96	-26.8	-27.9	12.7	9.72e-05	0	42	0	72351744	14	4116
2026-01-26 15:22:33.13	185.21	8.19	-27.3	-29.1	12.1	2.06e-04	0	42	0	93323264	14	4432
2026-01-26 15:22:36.13	185.37	8.43	-27.0	-28.5	12.4	1.77e-04	0	42	0	115343360	14	4268
2026-01-26 15:22:39.15	185.53	8.66	-27.3	-28.7	12.0	3.70e-04	0	42	0	137363456	15	4223
2026-01-26 15:22:42.16	185.69	8.90	-26.0	-27.2	13.7	1.83e-05	0	43	0	159383552	12	4149
2026-01-26 15:22:45.17	185.85	9.14	-26.0	-27.2	13.7	4.50e-06	0	42	0	180355072	12	4148
2026-01-26 15:22:48.17	186.02	9.39	-26.0	-27.3	13.7	1.02e-05	0	43	0	202375168	12	4157
2026-01-26 15:22:51.17	186.19	9.63	-26.3	-28.0	13.3	1.14e-05	0	43	0	224395264	12	4352
2026-01-26 15:22:54.17	186.36	9.87	-25.6	-26.5	14.2	1.10e-06	0	43	0	245366784	12	3952
2026-01-26 15:22:57.20	186.54	10.13	-25.9	-26.9	13.9	5.70e-06	0	43	0	267386880	12	4083
2026-01-26 15:23:00.22	186.71	10.38	-25.5	-26.6	14.5	0.00e+00	0	43	0	289406976	11	4085
2026-01-26 15:23:03.23	186.89	10.63	-25.6	-26.8	14.4	0.00e+00	0	43	0	311427072	11	4146
2026-01-26 15:23:06.23	187.08	10.89	-25.3	-26.2	14.7	0.00e+00	0	43	0	332398592	11	3985
2026-01-26 15:23:09.24	187.26	11.15	-25.3	-26.6	14.8	0.00e+00	0	43	0	354418688	10	4195
2026-01-26 15:23:12.25	187.45	11.41	-25.1	-26.3	15.0	0.00e+00	0	43	0	376438784	10	4123
2026-01-26 15:23:15.25	187.64	11.67	-25.0	-26.0	15.1	0.00e+00	0	43	0	398458880	10	4041
2026-01-26 15:23:18.26	187.84	11.94	-25.2	-26.6	14.8	0.00e+00	0	43	0	419430400	10	4215
2026-01-26 15:23:21.26	188.04	12.20	-25.0	-26.0	15.1	0.00e+00	0	43	0	441450496	10	4065
2026-01-26 15:23:24.27	188.24	12.48	-24.7	-25.9	15.4	0.00e+00	0	43	0	462422016	9	4159
2026-01-26 15:23:27.28	188.45	12.75	-24.8	-26.2	15.2	0.00e+00	0	43	0	484442112	9	4238
2026-01-26 15:23:30.28	188.66	13.03	-25.1	-26.3	15.0	0.00e+00	0	43	0	506462208	10	4146
2026-01-26 15:23:33.31	188.87	13.31	-25.1	-26.5	14.9	1.10e-06	0	43	0	528482304	10	4187
2026-01-26 15:23:36.32	189.09	13.59	-24.8	-25.7	15.3	0.00e+00	0	43	0	549453824	10	3990
2026-01-26 15:23:39.32	189.31	13.88	-24.8	-25.6	15.4	1.10e-06	0	43	0	571473920	10	3962
2026-01-26 15:23:42.34	189.54	14.17	-24.4	-24.9	15.8	0.00e+00	0	43	0	593494016	10	3811
2026-01-26 15:23:45.35	189.77	14.46	-24.7	-26.1	15.4	0.00e+00	0	44	0	615514112	9	4200
2026-01-26 15:23:48.38	190.01	14.76	-24.3	-25.1	15.9	0.00e+00	0	44	0	636485632	9	3961
2026-01-26 15:23:51.38	190.25	15.05	-24.3	-25.1	16.0	0.00e+00	0	44	0	658505728	9	3962
2026-01-26 15:23:54.40	190.49	15.36	-24.1	-24.6	16.2	0.00e+00	0	44	0	680525824	9	3840
2026-01-26 15:23:57.40	190.74	15.66	-24.0	-24.9	16.3	0.00e+00	0	44	0	702545920	8	4015
2026-01-26 15:24:00.41	190.99	15.97	-24.4	-25.8	15.9	0.00e+00	0	44	0	723517440	8	4246
2026-01-26 15:24:03.41	191.25	16.28	-23.8	-24.6	16.6	0.00e+00	0	44	0	745537536	8	3920
2026-01-26 15:24:06.42	191.51	16.59	-24.1	-25.1	16.4	0.00e+00	0	44	0	767557632	8	4040
2026-01-26 15:24:09.43	191.78	16.91	-23.9	-24.7	16.5	0.00e+00	0	44	0	788529152	8	3950
2026-01-26 15:24:12.44	192.06	17.24	-23.7	-24.3	16.8	0.00e+00	0	44	0	810549248	8	3849
2026-01-26 15:24:15.43	192.34	17.56	-23.7	-24.3	16.8	0.00e+00	0	44	0	832569344	8	3845
2026-01-26 15:24:18.44	192.62	17.89	-23.7	-24.2	16.8	0.00e+00	0	44	0	854589440	8	3832
2026-01-26 15:24:21.46	192.92	18.22	-23.3	-24.0	17.2	0.00e+00	0	44	0	875560960	7	3863
2026-01-26 15:24:24.47	193.22	18.56	-23.6	-24.5	16.9	0.00e+00	0	44	0	897581056	7	3997
2026-01-26 15:24:27.48	193.52	18.90	-23.2	-23.7	17.3	0.00e+00	0	44	0	919601152	7	3817
2026-01-26 15:24:30.48	193.83	19.25	-23.2	-23.8	17.3	0.00e+00	0	44	0	940572672	7	3823
2026-01-26 15:24:33.48	194.15	19.60	-23.2	-23.7	17.3	0.00e+00	0	44	0	962592768	7	3811
2026-01-26 15:24:36.48	194.48	19.95	-23.2	-23.7	17.3	0.00e+00	0	44	0	984612864	7	3809
2026-01-26 15:24:39.49	194.81	20.31	-23.2	-23.8	17.2	0.00e+00	0	44	0	1006632960	7	3861
2026-01-26 15:24:42.49	195.15	20.67	-23.1	-23.7	17.3	0.00e+00	0	44	0	1027604480	7	3818
2026-01-26 15:24:45.50	195.50	21.03	-23.4	-24.2	17.0	0.00e+00	0	44	0	1049624576	7	3971
2026-01-26 15:24:48.49	195.85	21.40	-23.4	-24.3	16.9	0.00e+00	0	44	0	1070596096	7	3989
2026-01-26 15:24:51.50	196.22	21.78	-23.3	-23.9	17.2	0.00e+00	0	44	0	1092616192	7	3891
2026-01-26 15:24:54.51	196.59	22.16	-23.0	-23.9	17.4	0.00e+00	0	44	0	1114636288	6	3994
2026-01-26 15:24:57.51	196.97	22.54	-23.1	-24.1	17.3	0.00e+00	0	44	0	1135607808	6	4041
2026-01-26 15:25:00.51	197.36	22.93	-22.9	-23.6	17.6	0.00e+00	0	44	0	1157627904	6	3927
2026-01-26 15:25:03.52	197.77	23.32	-22.8	-24.0	17.6	0.00e+00	0	44	0	1179648000	5	4130
2026-01-26 15:25:06.52	198.18	23.72	-22.7	-23.3	17.7	0.00e+00	0	44	0	1200619520	6	3844
2026-01-26 15:25:09.54	198.60	24.12	-23.0	-23.8	17.5	0.00e+00	0	44	0	1222639616	6	3957
2026-01-26 15:25:12.56	199.04	24.53	-22.8	-23.4	17.7	0.00e+00	0	44	0	1244659712	6	3881
2026-01-26 15:25:15.57	199.48	24.94	-22.8	-23.4	17.8	0.00e+00	0	44	0	1266679808	6	3860
2026-01-26 15:25:18.58	199.93	25.36	-22.6	-23.0	17.9	0.00e+00	0	44	0	1287651328	6	3774
2026-01-26 15:25:21.59	200.40	25.78	-22.4	-23.1	18.1	0.00e+00	0	44	0	1309671424	5	3903
2026-01-26 15:25:24.60	200.88	26.20	-22.5	-23.4	18.0	0.00e+00	0	44	0	1331691520	5	3980
2026-01-26 15:25:27.62	201.38	26.63	-22.4	-23.1	18.1	0.00e+00	0	44	0	1353711616	5	3904
2026-01-26 15:25:30.63	201.88	27.07	-22.4	-23.0	18.2	0.00e+00	0	44	0	1374683136	5	3860
2026-01-26 15:25:33.63	202.40	27.51	-22.4	-23.0	18.3	0.00e+00	0	44	0	1396703232	5	3858
2026-01-26 15:25:36.63	202.93	27.95	-22.2	-23.2	18.4	0.00e+00	0	44	0	1418723328	4	4013
2026-01-26 15:25:39.63	203.48	28.40	-22.3	-23.2	18.4	0.00e+00	0	44	0	1439694848	4	4026
2026-01-26 15:25:42.64	204.04	28.85	-22.5	-23.8	18.2	0.00e+00	0	44	0	1461714944	4	4149
2026-01-26 15:25:45.65	204.62	29.31	-22.9	-24.2	17.7	0.00e+00	0	44	0	1483735040	5	4147
2026-01-26 15:25:48.66	205.22	29.77	-22.9	-23.7	17.7	0.00e+00	0	44	0	1505755136	6	3927
2026-01-26 15:25:51.66	205.83	30.24	-22.6	-23.0	18.1	0.00e+00	0	44	0	1526726656	6	3760
2026-01-26 15:25:54.68	206.46	30.71	-22.7	-23.3	17.9	0.00e+00	0	44	0	1548746752	6	3851
2026-01-26 15:25:57.68	207.11	31.18	-22.2	-22.7	18.4	0.00e+00	0	44	0	1570766848	5	3816
2026-01-26 15:26:00.70	207.78	31.66	-22.2	-22.8	18.3	0.00e+00	0	44	0	1592786944	5	3849
2026-01-26 15:26:03.71	208.46	32.14	-22.3	-23.0	18.3	0.00e+00	0	44	0	1613758464	5	3870
2026-01-26 15:26:06.72	209.17	32.63	-22.0	-22.7	18.7	0.00e+00	0	44	0	1635778560	4	3904
2026-01-26 15:26:09.72	209.90	33.11	-22.1	-22.9	18.6	0.00e+00	0	44	0	1656750080	4	3959
2026-01-26 15:26:12.73	210.65	33.61	-21.9	-22.6	18.7	0.00e+00	0	44	0	1678770176	4	3864
2026-01-26 15:26:15.75	211.42	34.10	-22.4	-23.0	19.3	0.00e+00	0	44	0	1700790272	4	3844
2026-01-26 15:26:18.77	212.22	34.60	-22.7	-23.0	19.0	0.00e+00	0	44	0	1722810368	5	3754
2026-01-26 15:26:21.78	213.04	35.09	-22.7	-23.1	19.0	0.00e+00	0	44	0	1743781888	5	3769
2026-01-26 15:26:24.79	213.89	35.59	-23.1	-23.5	18.6	0.00e+00	0	44	0	1765801984	6	3753
2026-01-26 15:26:27.79	214.76	36.09	-22.9	-23.0	18.8	0.00e+00	0	44	0	1787822080	6	3645
2026-01-26 15:26:30.80	215.65	36.59	-22.9	-23.0	18.9	0.00e+00	0	44	0	1809842176	6	3638
2026-01-26 15:26:33.80	216.58	37.08	-22.7	-22.6	19.1	0.00e+00	0	44	0	1830813696	6	3559
2026-01-26 15:26:36.81	217.53	37.58	-22.9	-23.1	18.9	0.00e+00	0	44	0	1852833792	6	3649
2026-01-26 15:26:39.82	218.51	38.08	-23.2	-23.7	18.6	0.00e+00	0	44	0	1874853888	6	3800
2026-01-26 15:26:42.82	219.52	38.57	-23.2	-23.7	18.5	0.00e+00	0	44	0	1895825408	6	3800
2026-01-26 15:26:45.81	220.56	39.06	-23.1	-23.3	18.7	0.00e+00	0	44	0	1917845504	6	3711
2026-01-26 15:26:48.82	221.63	39.55	-23.1	-23.3	18.7	0.00e+00	0	44	0	1939865600	6	3700
2026-01-26 15:26:51.83	222.74	40.03	-23.1	-23.3	18.7	0.00e+00	0	44	0	1960837120	6	3710
2026-01-26 15:26:54.83	223.87	40.50	-23.2	-23.7	18.6	0.00e+00	0	44	0	1982857216	6	3801
2026-01-26 15:26:57.84	225.04	40.97	-23.2	-23.7	18.6	0.00e+00	0	44	0	2004877312	6	3792
2026-01-26 15:27:00.85	226.25	41.44	-23.1	-23.5	18.7	0.00e+00	0	44	0	2026897408	6	3740
2026-01-26 15:27:03.86	227.49	41.89	-22.9	-23.0	19.0	0.00e+00	0	44	0	2047868928	6	3634
2026-01-26 15:27:06.87	228.76	42.34	-23.3	-23.8	18.6	0.00e+00	0	44	0	2069889024	6	3807
2026-01-26 15:27:09.89	230.08	42.77	-22.9	-23.0	19.0	0.00e+00	0	44	0	2091909120	6	3632
2026-01-26 15:27:12.88	231.41	43.19	-22.8	-22.8	19.1	0.00e+00	0	44	0	2112880640	6	3592
2026-01-26 15:27:15.89	232.79	43.60	-23.7	-24.2	18.1	0.00e+00	0	44	0	2134900736	7	3796
2026-01-26 15:27:18.90	234.20	44.00	-23.3	-23.3	18.6	0.00e+00	0	44	0	2156920832	7	3611
2026-01-26 15:27:21.91	235.65	44.37	-23.5	-23.7	18.4	0.00e+00	0	44	0	2178940928	7	3685
2026-01-26 15:27:24.91	237.13	44.74	-23.5	-23.6	18.5	0.00e+00	0	44	0	2199912448	7	3675
2026-01-26 15:27:27.92	238.64	45.08	-23.3	-23.2	18.7	0.00e+00	0	44	0	2221932544	7	3579
2026-01-26 15:27:30.93	240.19	45.41	-23.3	-23.3	18.6	0.00e+00	0	44	0	2243952640	7	3602
2026-01-26 15:27:33.93	241.76	45.71	-23.2	-23.1	18.8	0.00e+00	0	44	0	2264924160	7	3555
2026-01-26 15:27:36.92	243.35	45.99	-24.2	-24.7	17.7	0.00e+00	0	44	0	2286944256	8	3807
2026-01-26 15:27:39.92	244.98	46.25	-24.1	-24.5	17.8	0.00e+00	0	44	0	2307915776	8	3764
2026-01-26 15:27:42.93	246.64	46.49	-24.1	-24.5	17.8	0.00e+00	0	44	0	2329935872	8	3768
2026-01-26 15:27:45.95	248.33	46.70	-23.8	-23.8	18.1	0.00e+00	0	44	0	2351955968	8	3616
2026-01-26 15:27:48.95	250.03	46.88	-24.0	-24.2	18.0	0.00e+00	0	44	0	2373976064	8	3701
2026-01-26 15:27:51.97	251.75	47.04	-24.0	-24.3	17.9	0.00e+00	0	44	0	2394947584	8	3719
2026-01-26 15:27:54.96	253.48	47.17	-24.4	-25.0	17.5	0.00e+00	0	44	0	2416967680	8	3888
2026-01-26 15:27:57.98	255.24	47.28	-23.5	-23.2	18.5	0.00e+00	0	44	0	2438987776	8	3476
2026-01-26 15:28:00.99	257.00	47.35	-23.8	-24.4	18.1	0.00e+00	0	44	0	2461007872	7	3845
2026-01-26 15:28:04.00	258.76	47.40	-24.2	-24.6	17.8	0.00e+00	0	44	0	2481979392	8	3779
2026-01-26 15:28:06.99	260.52	47.42	-23.7	-23.7	18.1	0.00e+00	0	44	0	2503999488	8	3584
2026-01-26 15:28:10.00	262.29	47.40	-23.7	-23.6	18.3	0.00e+00	0	44	0	2526019584	8	3558
2026-01-26 15:28:13.02	264.07	47.36	-23.7	-23.6	18.3	0.00e+00	0	44	0	2546991104	8	3562
2026-01-26 15:28:16.03	265.83	47.29	-24.0	-24.3	17.9	0.00e+00	0	44	0	2569011200	8	3716
2026-01-26 15:28:19.04	267.58	47.20	-23.7	-23.6	18.3	0.00e+00	0	44	0	2591031296	8	3551
2026-01-26 15:28:22.05	269.32	47.07	-23.7	-23.6	18.3	0.00e+00	0	44	0	2613051392	8	3566
2026-01-26 15:28:25.06	271.04	46.91	-23.9	-24.0	18.1	0.00e+00	0	45	0	2634022912	8	3648
2026-01-26 15:28:28.06	272.74	46.73	-23.7	-23.6	18.3	0.00e+00	0	44	0	2656043008	8	3557
2026-01-26 15:28:31.08	274.43	46.53	-24.0	-24.3	17.9	0.00e+00	0	44	0	2678063104	8	3730
2026-01-26 15:28:34.08	276.09	46.30	-23.9	-24.1	18.1	0.00e+00	0	44	0	2699034624	8	3665
2026-01-26 15:28:37.09	277.72	46.04	-24.4	-25.1	17.5	0.00e+00	0	45	0	2721054720	8	3910
2026-01-26 15:28:40.11	279.34	45.76	-23.8	-23.9	18.2	0.00e+00	0	44	0	2743074816	8	3630
2026-01-26 15:28:43.11	280.91	45.46	-23.6	-23.5	18.4	0.00e+00	0	44	0	2765094912	8	3536
2026-01-26 15:28:46.13	282.47	45.14	-23.5	-23.3	18.4	0.00e+00	0	44	0	2786066432	8	3493
2026-01-26 15:28:49.13	283.98	44.80	-23.3	-23.3	18.6	0.00e+00	0	44	0	2808086528	7	3598
2026-01-26 15:28:52.13	285.46	44.44	-23.7	-24.2	18.2	0.00e+00	0	44	0	2830106624	7	3791
2026-01-26 15:28:55.13	286.90	44.07	-23.3	-23.3	18.7	0.00e+00	0	45	0	2851078144	7	3591
2026-01-26 15:28:58.14	288.32	43.68	-23.5	-23.7	18.5	0.00e+00	0	44	0	2873098240	7	3680
2026-01-26 15:29:01.12	289.69	43.28	-23.6	-23.9	18.4	0.00e+00	0	44	0	2894069760	7	3728
2026-01-26 15:29:04.13	291.04	42.86	-23.4	-23.6	18.5	0.00e+00	0	44	0	2916089856	7	3660
2026-01-26 15:29:07.14	292.35	42.43	-23.6	-23.9	18.4	0.00e+00	0	44	0	2938109952	7	3730
2026-01-26 15:29:10.15	293.63	41.99	-23.5	-23.7	18.4	0.00e+00	0	44	0	2960130048	7	3694
2026-01-26 15:29:13.16	294.87	41.54	-23.2	-23.1	18.8	0.00e+00	0	44	0	2981101568	7	3551
2026-01-26 15:29:16.17	296.08	41.08	-23.1	-22.8	18.9	0.00e+00	0	44	0	3003121664	7	3500
2026-01-26 15:29:19.18	297.25	40.61	-23.2	-23.1	18.7	0.00e+00	0	44	0	3025141760	7	3565
2026-01-26 15:29:22.18	298.39	40.14	-23.2	-23.0	18.8	0.00e+00	0	44	0	3046113280	7	3543
2026-01-26 15:29:25.18	299.50	39.66	-23.5	-23.6	18.5	0.00e+00	0	44	0	3068133376	7	3673
2026-01-26 15:29:28.19	300.57	39.17	-23.7	-24.2	18.2	0.00e+00	0	44	0	3090153472	7	3798
2026-01-26 15:29:31.20	301.62	38.69	-23.6	-23.9	18.2	0.00e+00	0	44	0	3112173568	7	3725
2026-01-26 15:29:34.20	302.63	38.20	-23.2	-23.2	18.7	0.00e+00	0	44	0	3133145088	7	3568
2026-01-26 15:29:37.21	303.62	37.70	-23.8	-24.3	18.1	0.00e+00	0	44	0	3155165184	7	3815
2026-01-26 15:29:40.22	304.57	37.21	-23.2	-23.1	18.7	0.00e+00	0	44	0	3177185280	7	3555
2026-01-26 15:29:43.24	305.51	36.71	-22.8	-22.7	19.2	0.00e+00	0	44	0	3199205376	6	3570
2026-01-26 15:29:46.26	306.41	36.21	-22.8	-22.8	19.1	0.00e+00	0	44	0	3220176896	6	3588
2026-01-26 15:29:49.26	307.28	35.72	-23.1	-23.4	18.8	0.00e+00	0	44	0	3242196992	6	3729
2026-01-26 15:29:52.25	308.12	35.23	-23.4	-24.0	18.4	4.50e-06	0	44	0	3264217088	6	3855
2026-01-26 15:29:55.26	308.95	34.73	-23.6	-24.0	18.3	0.00e+00	0	44	0	3285188608	7	3754
2026-01-26 15:29:58.27	309.75	34.24	-23.5	-23.7	18.4	1.10e-06	0	44	0	3307208704	7	3690
2026-01-26 15:30:01.27	310.52	33.75	-22.8	-22.7	19.1	0.00e+00	0	45	0	3329228800	6	3569
2026-01-26 15:30:04.27	311.27	33.26	-22.9	-22.9	19.0	0.00e+00	0	44	0	3350200320	6	3620
2026-01-26 15:30:07.28	312.00	32.78	-22.9	-23.0	18.9	0.00e+00	0	44	0	3372220416	6	3643
2026-01-26 15:30:10.29	312.71	32.29	-23.2	-23.7	18.6	0.00e+00	0	44	0	3394240512	6	3785
2026-01-26 15:30:13.30	313.40	31.81	-23.3	-23.9	18.5	0.00e+00	0	45	0	3416260608	6	3829
2026-01-26 15:30:16.31	314.07	31.34	-23.4	-24.1	18.4	0.00e+00	0	44	0	3437232128	6	3887
2026-01-26 15:30:19.32	314.72	30.87	-23.2	-23.7	18.6	0.00e+00	0	45	0	3459252224	6	3789
2026-01-26 15:30:22.32	315.36	30.40	-23.3	-23.8	18.5	0.00e+00	0	44	0	3480223744	6	3823
2026-01-26 15:30:25.34	315.97	29.93	-23.3	-23.8	18.5	0.00e+00	0	44	0	3502243840	6	3824
2026-01-26 15:30:28.36	316.57	29.47	-23.6	-24.0	18.2	0.00e+00	0	45	0	3524263936	7	3768
2026-01-26 15:30:31.37	317.15	29.01	-23.8	-24.4	18.0	0.00e+00	0	44	0	3546284032	7	3844
2026-01-26 15:30:34.38	317.72	28.56	-23.8	-24.4	17.9	0.00e+00	0	45	0	3567255552	7	3841
2026-01-26 15:30:37.39	318.27	28.12	-23.6	-23.9	18.2	0.00e+00	0	44	0	3589275648	7	3727
2026-01-26 15:30:40.40	318.81	27.67	-23.3	-23.3	18.5	0.00e+00	0	44	0	3611295744	7	3592
2026-01-26 15:30:43.42	319.33	27.23	-23.1	-22.9	18.7	0.00e+00	0	44	0	3633315840	7	3517
2026-01-26 15:30:46.43	319.84	26.80	-23.2	-23.1	18.5	0.00e+00	0	44	0	3654287360	7	3563
2026-01-26 15:30:49.44	320.33	26.37	-23.2	-23.2	18.5	0.00e+00	0	45	0	3676307456	7	3573
2026-01-26 15:30:52.44	320.81	25.95	-23.3	-23.3	18.4	0.00e+00	0	44	0	3698327552	7	3612
2026-01-26 15:30:55.45	321.28	25.53	-23.4	-23.6	18.3	0.00e+00	0	44	0	3720347648	7	3666
2026-01-26 15:30:58.46	321.74	25.11	-23.4	-23.6	18.3	0.00e+00	0	44	0	3741319168	7	3669
2026-01-26 15:31:01.45	322.19	24.70	-23.3	-23.3	18.4	0.00e+00	0	44	0	3763339264	7	3598
2026-01-26 15:31:04.47	322.62	24.30	-23.3	-23.4	18.4	0.00e+00	0	44	0	3785359360	7	3616
2026-01-26 15:31:07.47	323.05	23.90	-23.4	-23.6	18.3	0.00e+00	0	44	0	3806330880	7	3671
2026-01-26 15:31:10.47	323.46	23.50	-23.7	-24.1	18.0	0.00e+00	0	44	0	3828350976	7	3788
2026-01-26 15:31:13.47	323.86	23.11	-23.8	-24.3	17.8	0.00e+00	0	44	0	3850371072	7	3831
2026-01-26 15:31:16.48	324.26	22.72	-23.6	-23.8	18.1	0.00e+00	0	44	0	3871342592	7	3720
2026-01-26 15:31:19.48	324.64	22.34	-23.6	-23.8	18.1	0.00e+00	0	44	0	3893362688	7	3724
2026-01-26 15:31:22.48	325.02	21.97	-23.9	-24.5	17.8	1.10e-06	0	44	0	3915382784	7	3874
2026-01-26 15:31:25.50	325.39	21.59	-23.9	-24.6	17.7	0.00e+00	0	44	0	3937402880	7	3905
2026-01-26 15:31:28.51	325.75	21.22	-24.3	-24.8	17.3	0.00e+00	0	44	0	3958374400	8	3849
2026-01-26 15:31:31.51	326.10	20.86	-24.2	-24.7	17.4	0.00e+00	0	45	0	3980394496	8	3825
2026-01-26 15:31:34.52	326.44	20.50	-24.3	-24.5	17.2	0.00e+00	0	44	0	4001366016	9	3662
2026-01-26 15:31:37.53	326.78	20.14	-24.2	-24.2	17.4	0.00e+00	0	44	0	4023386112	9	3605
2026-01-26 15:31:40.53	327.10	19.79	-24.3	-24.3	17.3	4.50e-06	0	44	0	4045406208	9	3633
2026-01-26 15:31:43.56	327.43	19.44	-24.2	-24.2	17.3	1.10e-06	0	44	0	4067426304	9	3607
2026-01-26 15:31:46.57	327.74	19.09	-24.3	-24.3	17.2	0.00e+00	0	44	0	4088397824	9	3634
2026-01-26 15:31:49.59	328.05	18.75	-24.4	-24.7	17.1	0.00e+00	0	45	0	4110417920	9	3705
2026-01-26 15:31:52.59	328.35	18.41	-24.3	-24.3	17.2	2.20e-06	0	44	0	4132438016	9	3636
2026-01-26 15:31:55.60	328.64	18.08	-24.3	-24.5	17.1	3.40e-06	0	44	0	4154458112	9	3663
2026-01-26 15:31:58.61	328.93	17.75	-24.4	-24.6	17.1	1.10e-06	0	44	0	4175429632	9	3684
2026-01-26 15:32:01.61	329.22	17.43	-24.6	-25.1	16.8	0.00e+00	0	44	0	4197449728	9	3805
2026-01-26 15:32:04.63	329.49	17.11	-24.7	-25.3	16.7	0.00e+00	0	44	0	4219469824	9	3864
2026-01-26 15:32:07.64	329.77	16.79	-24.8	-25.5	16.6	0.00e+00	0	44	0	4241489920	9	3907
2026-01-26 15:32:10.64	330.03	16.47	-25.0	-25.9	16.3	2.20e-06	0	44	0	4262461440	9	3997
2026-01-26 15:32:13.65	330.29	16.16	-25.3	-26.1	16.0	0.00e+00	0	44	0	4284481536	10	3946
2026-01-26 15:32:16.66	330.55	15.86	-25.3	-26.0	16.0	0.00e+00	0	44	0	4306501632	10	3920
2026-01-26 15:32:19.66	330.80	15.55	-25.1	-25.6	16.2	0.00e+00	0	44	0	4327473152	10	3827
2026-01-26 15:32:22.68	331.05	15.25	-25.1	-25.6	16.2	0.00e+00	0	44	0	4349493248	10	3834
2026-01-26 15:32:25.68	331.29	14.95	-25.3	-26.0	16.0	0.00e+00	0	44	0	4371513344	10	3924
2026-01-26 15:32:28.69	331.52	14.66	-25.3	-26.1	15.9	1.10e-06	0	44	0	4393533440	10	3945
2026-01-26 15:32:31.70	331.76	14.37	-25.4	-26.4	15.7	0.00e+00	0	44	0	4414504960	10	4023
2026-01-26 15:32:34.70	331.99	14.08	-25.5	-26.0	15.6	0.00e+00	0	44	0	4436525056	11	3828
2026-01-26 15:32:37.70	332.21	13.80	-25.7	-26.4	15.4	0.00e+00	0	44	0	4458545152	11	3904
2026-01-26 15:32:40.70	332.43	13.52	-25.7	-26.4	15.4	0.00e+00	0	44	0	4479516672	11	3924
2026-01-26 15:32:43.71	332.65	13.24	-25.7	-26.5	15.4	0.00e+00	0	44	0	4501536768	11	3927
2026-01-26 15:32:46.72	332.86	12.96	-25.7	-26.4	15.4	1.10e-06	0	45	0	4523556864	11	3928
2026-01-26 15:32:49.73	333.07	12.69	-25.7	-26.4	15.4	0.00e+00	0	44	0	4544528384	11	3914
2026-01-26 15:32:52.72	333.27	12.42	-25.8	-26.6	15.2	0.00e+00	0	44	0	4566548480	11	3975
2026-01-26 15:32:55.74	333.48	12.15	-25.8	-26.7	15.2	1.10e-06	0	45	0	4587520000	11	3982
2026-01-26 15:32:58.75	333.68	11.88	-25.7	-26.6	15.2	0.00e+00	0	44	0	4609540096	11	3950
2026-01-26 15:33:01.77	333.87	11.62	-25.9	-26.9	15.0	0.00e+00	0	44	0	4631560192	11	4046
2026-01-26 15:33:04.77	334.06	11.36	-25.9	-26.4	14.9	0.00e+00	0	45	0	4653580288	12	3835
2026-01-26 15:33:07.78	334.25	11.10	-25.9	-26.4	14.9	1.10e-06	0	45	0	4674551808	12	3826
2026-01-26 15:33:10.78	334.44	10.85	-26.1	-26.8	14.7	0.00e+00	0	45	0	4696571904	12	3923
2026-01-26 15:33:13.79	334.62	10.59	-26.0	-26.6	14.8	0.00e+00	0	44	0	4718592000	12	3861
2026-01-26 15:33:16.80	334.80	10.34	-26.1	-27.0	14.6	0.00e+00	0	44	0	4740612096	12	3961
2026-01-26 15:33:19.80	334.98	10.09	-26.1	-27.0	14.5	1.10e-06	0	44	0	4761583616	12	3966
2026-01-26 15:33:22.81	335.15	9.85	-26.2	-27.2	14.4	1.10e-06	0	44	0	4783603712	12	4031
2026-01-26 15:33:25.82	335.33	9.60	-26.5	-27.9	14.0	1.10e-06	0	44	0	4805623808	12	4206
2026-01-26 15:33:28.84	335.50	9.36	-26.6	-27.6	13.8	1.10e-06	0	45	0	4827643904	13	4027
2026-01-26 15:33:31.86	335.66	9.12	-26.8	-28.0	13.6	9.10e-06	0	45	0	4848615424	13	4135
2026-01-26 15:33:34.86	335.83	8.88	-26.6	-27.6	13.8	2.20e-06	0	44	0	4870635520	13	4019
2026-01-26 15:33:37.87	335.99	8.65	-26.9	-28.1	13.5	1.02e-05	0	44	0	4892655616	13	4164
2026-01-26 15:33:40.88	336.15	8.42	-26.7	-27.8	13.7	6.80e-06	0	44	0	4913627136	13	4078
2026-01-26 15:33:43.88	336.31	8.18	-27.0	-28.4	13.3	1.60e-05	0	44	0	4935647232	13	4236
2026-01-26 15:33:46.90	336.46	7.95	-27.1	-28.2	13.1	2.86e-05	0	45	0	4957667328	14	4072
2026-01-26 15:33:49.89	336.61	7.73	-27.0	-27.9	13.2	2.74e-05	0	45	0	4979687424	14	4007
2026-01-26 15:33:52.90	336.76	7.50	-27.0	-28.0	13.2	3.89e-05	0	44	0	5000658944	14	4038
2026-01-26 15:33:55.90	336.91	7.28	-27.2	-28.4	12.8	4.92e-05	0	44	0	5022679040	14	4154
2026-01-26 15:33:58.92	337.06	7.06	-33.0	-42.2	3.8	8.46e-01	0	45	104	5040504832	25	10368

#Closed at: 2026-01-26 15:34:01
#Recorded file [5040 MB]: D:/data/31010_260126_182219.dat