passes_logs/2026/01/26/R2M6_AANII_01/R2M6_AANII_01__20260126_105123_AQUA_rec.log

#Pass ID: 20260126_105123_AQUA
#Satellite: AQUA
#Configuration: AQUA
#almurnet v.1.7.20240730
#Start time: 2026-01-26 10:51:23

#Version: 2.2.20231116
#Station: R2M6_AANII_01
#Location: 30.233357 lon 59.946436 lat
#TLE: 1 27424U 02022A   26025.63222646  .00001891  00000+0  38818-3 0  9990
#TLE: 2 27424  98.4099 352.2393 0001892  65.6900 348.5270 14.61859542262445

#Time	Az	El	Level	Level2	SNR	BER	BlckErr	Temp	State	Recorded	gain1	gain2
2026-01-26 10:51:23.93	119.73	7.07	-32.2	-40.6	4.8	7.13e-01	0	41	0	0	26	9390
2026-01-26 10:51:26.93	119.50	7.29	-32.0	-39.0	12.1	6.13e-01	0	42	0	1572864	25	8019
2026-01-26 10:51:29.94	119.26	7.52	-32.0	-38.9	12.1	6.15e-01	0	42	0	7340032	25	7972
2026-01-26 10:51:32.95	119.01	7.75	-31.2	-35.6	15.2	6.08e-01	0	42	0	13107200	24	6020
2026-01-26 10:51:35.96	118.76	7.98	-30.4	-33.6	17.1	6.05e-01	0	42	0	18350080	23	5196
2026-01-26 10:51:38.96	118.51	8.21	-30.3	-33.8	17.3	6.06e-01	0	42	0	24117248	22	5368
2026-01-26 10:51:41.95	118.25	8.45	-30.3	-33.9	17.3	6.06e-01	0	42	0	29884416	22	5400
2026-01-26 10:51:44.95	117.99	8.68	-30.8	-35.2	16.4	6.07e-01	0	42	0	35651584	22	5994
2026-01-26 10:51:47.97	117.72	8.92	-30.2	-33.4	17.6	6.08e-01	0	42	0	40894464	22	5203
2026-01-26 10:51:50.95	117.45	9.16	-30.1	-33.3	17.7	6.06e-01	0	42	0	46661632	22	5185
2026-01-26 10:51:53.96	117.17	9.40	-30.1	-33.2	17.8	6.05e-01	0	42	0	52428800	22	5130
2026-01-26 10:51:56.97	116.89	9.65	-30.1	-33.0	18.0	6.06e-01	0	42	0	58195968	22	5044
2026-01-26 10:51:59.98	116.60	9.89	-29.9	-32.5	18.4	6.06e-01	0	42	0	63438848	22	4854
2026-01-26 10:52:02.98	116.31	10.14	-30.0	-32.7	18.2	6.04e-01	0	42	0	69206016	22	4927
2026-01-26 10:52:05.99	116.01	10.39	-29.9	-32.5	18.4	6.04e-01	0	42	0	74973184	22	4843
2026-01-26 10:52:09.00	115.71	10.64	-30.0	-33.1	18.3	6.05e-01	0	43	0	80740352	21	5170
2026-01-26 10:52:11.99	115.40	10.90	-30.1	-33.6	18.1	6.06e-01	0	43	0	85983232	21	5353
2026-01-26 10:52:15.00	115.08	11.15	-30.0	-33.1	18.5	6.03e-01	0	43	0	91750400	21	5152
2026-01-26 10:52:18.01	114.76	11.41	-29.8	-32.8	18.6	6.05e-01	0	43	0	97517568	21	5047
2026-01-26 10:52:21.01	114.43	11.67	-29.7	-32.4	18.9	6.08e-01	0	43	0	103284736	21	4926
2026-01-26 10:52:23.98	114.10	11.94	-29.7	-32.3	19.0	6.06e-01	0	43	0	108527616	21	4886
2026-01-26 10:52:26.99	113.76	12.20	-29.7	-32.3	19.0	6.06e-01	0	43	0	114294784	21	4867
2026-01-26 10:52:30.00	113.41	12.47	-29.6	-32.1	19.1	6.08e-01	0	43	0	120061952	21	4815
2026-01-26 10:52:33.01	113.05	12.74	-29.7	-32.3	19.0	6.06e-01	0	43	0	125304832	21	4880
2026-01-26 10:52:36.02	112.69	13.01	-29.8	-32.5	18.9	6.07e-01	0	43	0	131072000	21	4941
2026-01-26 10:52:39.04	112.31	13.29	-29.6	-32.2	19.1	6.07e-01	0	43	0	136839168	21	4825
2026-01-26 10:52:42.05	111.94	13.57	-29.6	-32.0	19.3	6.04e-01	0	43	0	142606336	21	4760
2026-01-26 10:52:45.05	111.55	13.85	-29.4	-31.9	19.6	6.04e-01	0	43	0	148373504	20	4830
2026-01-26 10:52:48.06	111.16	14.13	-29.6	-32.4	19.4	6.06e-01	0	43	0	153616384	20	4997
2026-01-26 10:52:51.07	110.75	14.41	-29.6	-32.6	19.2	6.07e-01	0	43	0	159383552	20	5085
2026-01-26 10:52:54.07	110.34	14.70	-29.6	-32.6	19.2	6.08e-01	0	43	0	165150720	20	5083
2026-01-26 10:52:57.08	109.92	14.99	-29.8	-33.0	19.0	6.07e-01	0	43	0	170917888	20	5218
2026-01-26 10:53:00.09	109.49	15.28	-29.7	-32.6	19.3	6.05e-01	0	43	0	176160768	20	5070
2026-01-26 10:53:03.10	109.05	15.57	-29.5	-32.2	19.6	6.05e-01	0	43	0	181927936	20	4923
2026-01-26 10:53:06.12	108.60	15.87	-29.4	-31.9	19.7	6.07e-01	0	43	0	187695104	20	4823
2026-01-26 10:53:09.13	108.15	16.17	-29.3	-31.7	20.0	6.07e-01	0	43	0	193462272	20	4733
2026-01-26 10:53:12.15	107.68	16.47	-29.5	-32.1	19.7	6.07e-01	0	43	0	198705152	20	4876
2026-01-26 10:53:15.15	107.20	16.77	-29.5	-32.2	19.6	6.06e-01	0	43	0	204472320	20	4922
2026-01-26 10:53:18.15	106.71	17.08	-29.5	-32.2	19.6	6.06e-01	0	43	0	210239488	20	4918
2026-01-26 10:53:21.15	106.22	17.38	-29.6	-32.3	19.7	6.06e-01	0	43	0	216006656	20	4938
2026-01-26 10:53:24.16	105.71	17.69	-29.4	-32.0	19.8	6.08e-01	0	43	0	221249536	20	4841
2026-01-26 10:53:27.18	105.18	18.00	-29.6	-32.5	19.5	6.07e-01	0	43	0	227016704	20	4991
2026-01-26 10:53:30.18	104.65	18.32	-29.7	-32.7	19.4	6.05e-01	0	43	0	232783872	20	5088
2026-01-26 10:53:33.19	104.11	18.63	-29.7	-32.6	19.5	6.05e-01	0	43	0	238551040	20	5044
2026-01-26 10:53:36.20	103.55	18.95	-29.6	-32.5	19.4	6.07e-01	0	43	0	243793920	20	5007
2026-01-26 10:53:39.23	102.98	19.27	-29.7	-32.6	19.4	6.08e-01	0	43	0	249561088	20	5047
2026-01-26 10:53:42.23	102.40	19.59	-29.6	-32.3	19.6	6.07e-01	0	43	0	255328256	20	4924
2026-01-26 10:53:45.22	101.80	19.91	-29.8	-32.9	19.3	6.05e-01	0	43	0	261095424	20	5131
2026-01-26 10:53:48.24	101.19	20.23	-29.9	-33.1	19.2	6.09e-01	0	43	0	266862592	20	5225
2026-01-26 10:53:51.24	100.57	20.56	-29.9	-32.5	19.3	6.07e-01	0	43	0	272105472	21	4905
2026-01-26 10:53:54.25	99.93	20.88	-30.1	-33.2	19.0	6.07e-01	0	44	0	277872640	21	5127
2026-01-26 10:53:57.27	99.28	21.21	-30.0	-32.8	19.2	6.04e-01	0	44	0	283639808	21	4974
2026-01-26 10:54:00.28	98.61	21.54	-29.9	-32.6	19.3	6.07e-01	0	43	0	289406976	21	4929
2026-01-26 10:54:03.28	97.94	21.86	-30.0	-32.9	19.2	6.06e-01	0	43	0	294649856	21	5025
2026-01-26 10:54:06.29	97.24	22.19	-29.9	-32.6	19.3	6.05e-01	0	43	0	300417024	21	4925
2026-01-26 10:54:09.30	96.53	22.52	-29.9	-32.7	19.4	6.06e-01	0	44	0	306184192	21	4923
2026-01-26 10:54:12.30	95.80	22.84	-29.6	-31.8	19.9	6.06e-01	0	44	0	311951360	21	4633
2026-01-26 10:54:15.30	95.06	23.17	-29.9	-32.5	19.4	6.05e-01	0	43	0	317194240	21	4889
2026-01-26 10:54:18.32	94.29	23.50	-29.9	-32.5	19.5	6.06e-01	0	44	0	322961408	21	4858
2026-01-26 10:54:21.33	93.52	23.82	-29.9	-32.5	19.5	6.06e-01	0	44	0	328728576	21	4857
2026-01-26 10:54:24.33	92.72	24.15	-29.9	-32.5	19.5	6.06e-01	0	44	0	334495744	21	4880
2026-01-26 10:54:27.34	91.91	24.47	-29.6	-31.7	20.0	6.08e-01	0	43	0	339738624	21	4605
2026-01-26 10:54:30.35	91.08	24.79	-29.8	-32.2	19.7	6.05e-01	0	44	0	345505792	21	4760
2026-01-26 10:54:33.37	90.23	25.11	-29.8	-32.3	19.7	6.07e-01	0	44	0	351272960	21	4794
2026-01-26 10:54:36.36	89.37	25.43	-29.9	-32.6	19.5	6.08e-01	0	44	0	357040128	21	4900
2026-01-26 10:54:39.35	88.49	25.74	-29.9	-32.6	19.5	6.08e-01	0	44	0	362283008	21	4882
2026-01-26 10:54:42.36	87.59	26.05	-29.9	-32.5	19.5	6.07e-01	0	44	0	368050176	21	4873
2026-01-26 10:54:45.37	86.67	26.35	-29.9	-32.5	19.5	6.05e-01	0	44	0	373817344	21	4865
2026-01-26 10:54:48.38	85.73	26.65	-29.8	-32.3	19.7	6.07e-01	0	44	0	379584512	21	4792
2026-01-26 10:54:51.39	84.77	26.95	-29.6	-31.7	20.0	6.05e-01	0	43	0	384827392	21	4598
2026-01-26 10:54:54.39	83.80	27.24	-29.6	-31.8	20.1	6.06e-01	0	44	0	390594560	21	4620
2026-01-26 10:54:57.40	82.80	27.53	-29.7	-31.9	20.0	6.06e-01	0	44	0	396361728	21	4671
2026-01-26 10:55:00.40	81.79	27.81	-29.6	-31.8	20.1	6.06e-01	0	44	0	402128896	21	4610
2026-01-26 10:55:03.42	80.75	28.08	-29.6	-31.7	20.1	6.06e-01	0	44	0	407371776	21	4591
2026-01-26 10:55:06.43	79.70	28.34	-29.5	-31.9	20.3	6.04e-01	0	44	0	413138944	20	4764
2026-01-26 10:55:09.44	78.64	28.60	-29.4	-31.6	20.5	6.06e-01	0	44	0	418906112	20	4654
2026-01-26 10:55:12.45	77.55	28.85	-29.5	-31.9	20.4	6.06e-01	0	44	0	424673280	20	4745
2026-01-26 10:55:15.46	76.45	29.09	-29.9	-42.2	3.8	7.46e-01	0	44	104	426246144	20	14906
2026-01-26 10:55:18.47	75.33	29.32	-30.5	-43.4	3.8	7.42e-01	0	44	104	426246144	21	15783
2026-01-26 10:55:21.48	74.19	29.54	-31.5	-45.0	3.8	7.48e-01	0	44	104	426246144	23	17041
2026-01-26 10:55:24.49	73.04	29.75	-32.3	-46.4	3.8	7.43e-01	0	44	104	426246144	25	18249
2026-01-26 10:55:27.48	71.88	29.94	-32.9	-47.9	3.8	7.50e-01	0	44	104	426246144	26	20290
2026-01-26 10:55:30.48	70.70	30.13	-32.6	-46.6	3.8	7.47e-01	0	44	104	426246144	26	18194
2026-01-26 10:55:33.50	69.51	30.30	-31.6	-44.2	3.8	7.47e-01	0	44	104	426246144	25	15426
2026-01-26 10:55:36.53	68.29	30.47	-30.5	-42.2	3.8	7.46e-01	0	44	104	426246144	23	13860
2026-01-26 10:55:39.53	67.07	30.61	-29.9	-41.4	3.8	7.40e-01	0	44	104	426246144	22	13468
2026-01-26 10:55:42.52	65.85	30.75	-29.6	-41.0	3.8	7.40e-01	0	44	104	426246144	21	13484
2026-01-26 10:55:45.54	64.61	30.87	-30.3	-42.7	3.8	7.43e-01	0	44	104	426246144	21	15048
2026-01-26 10:55:48.54	63.36	30.97	-31.0	-44.1	3.8	7.45e-01	0	44	104	426246144	22	16216
2026-01-26 10:55:51.53	62.11	31.06	-31.1	-43.8	3.8	7.46e-01	0	44	104	426246144	23	15578
2026-01-26 10:55:54.55	60.85	31.14	-31.8	-45.4	3.8	7.47e-01	0	44	104	426246144	24	17257
2026-01-26 10:55:57.56	59.58	31.20	-33.0	-48.0	3.8	7.46e-01	0	44	104	426246144	26	20323
2026-01-26 10:56:00.58	58.30	31.25	-33.3	-48.9	3.8	7.43e-01	0	44	104	426246144	27	21631
2026-01-26 10:56:03.60	57.02	31.28	-33.4	-49.3	3.8	7.45e-01	0	44	104	426246144	27	22450
2026-01-26 10:56:06.59	55.75	31.29	-33.5	-49.6	3.8	7.44e-01	0	44	104	426246144	27	23110
2026-01-26 10:56:09.60	54.47	31.29	-33.3	-49.0	3.8	7.43e-01	0	44	104	426246144	27	21861
2026-01-26 10:56:12.62	53.19	31.28	-33.2	-48.3	3.8	7.41e-01	0	44	104	426246144	27	20549
2026-01-26 10:56:15.64	51.91	31.25	-33.5	-49.4	3.8	7.48e-01	0	44	104	426246144	28	22486
2026-01-26 10:56:18.64	50.64	31.20	-32.8	-47.2	3.8	7.42e-01	0	44	104	426246144	27	18821
2026-01-26 10:56:21.67	49.36	31.13	-32.3	-45.7	3.8	7.45e-01	0	44	104	426246144	26	16884
2026-01-26 10:56:24.67	48.10	31.06	-31.7	-44.4	3.8	7.48e-01	0	44	104	426246144	25	15594
2026-01-26 10:56:27.68	46.85	30.96	-30.4	-41.8	3.8	7.40e-01	0	44	104	426246144	23	13438
2026-01-26 10:56:30.69	45.60	30.86	-29.8	-41.5	3.8	7.46e-01	0	44	104	426246144	21	13823
2026-01-26 10:56:33.71	44.36	30.73	-30.5	-43.3	3.8	7.46e-01	0	44	104	426246144	21	15597
2026-01-26 10:56:36.71	43.14	30.60	-31.8	-45.3	3.8	7.43e-01	0	44	104	426246144	24	17075
2026-01-26 10:56:39.72	41.92	30.45	-31.8	-45.2	3.8	7.45e-01	0	44	104	426246144	24	16988
2026-01-26 10:56:42.74	40.71	30.29	-32.0	-45.9	3.8	7.44e-01	0	44	104	426246144	24	17883
2026-01-26 10:56:45.74	39.53	30.11	-32.9	-47.9	3.8	7.43e-01	0	44	104	426246144	26	20223
2026-01-26 10:56:48.75	38.35	29.92	-33.3	-49.3	3.8	7.46e-01	0	44	104	426246144	27	22612
2026-01-26 10:56:51.76	37.19	29.73	-33.3	-49.3	3.8	7.43e-01	0	44	104	426246144	27	22637
2026-01-26 10:56:54.75	36.05	29.52	-33.4	-49.7	3.8	7.42e-01	0	44	104	426246144	27	23440
2026-01-26 10:56:57.77	34.91	29.30	-33.3	-48.9	3.8	7.45e-01	0	44	104	426246144	27	21836
2026-01-26 10:57:00.78	33.80	29.07	-32.9	-47.5	3.8	7.44e-01	0	44	104	426246144	27	19414
2026-01-26 10:57:03.80	32.70	28.83	-33.4	-49.3	3.8	7.42e-01	0	44	104	426246144	27	22548
2026-01-26 10:57:06.81	31.62	28.58	-33.1	-48.0	3.8	7.45e-01	0	44	104	426246144	28	19975
2026-01-26 10:57:09.82	30.55	28.32	-32.6	-46.3	3.8	7.42e-01	0	44	104	426246144	27	17459
2026-01-26 10:57:12.83	29.51	28.06	-32.6	-46.3	3.8	7.45e-01	0	44	104	426246144	27	17474
2026-01-26 10:57:15.83	28.49	27.78	-31.9	-44.5	3.8	7.45e-01	0	44	104	426246144	26	15446
2026-01-26 10:57:18.85	27.47	27.50	-30.7	-42.7	3.8	7.41e-01	0	44	104	426246144	23	14288
2026-01-26 10:57:21.87	26.48	27.22	-30.8	-43.1	3.8	7.43e-01	0	44	104	426246144	23	14823
2026-01-26 10:57:24.87	25.51	26.93	-31.9	-45.8	3.8	7.44e-01	0	44	104	426246144	24	17849
2026-01-26 10:57:27.87	24.56	26.63	-32.7	-47.1	3.8	7.46e-01	0	44	104	426246144	26	19087
2026-01-26 10:57:30.86	23.64	26.33	-32.6	-46.9	3.8	7.46e-01	0	44	104	426246144	26	18769
2026-01-26 10:57:33.87	22.72	26.03	-33.0	-48.4	3.8	7.44e-01	0	44	104	426246144	26	21380
2026-01-26 10:57:36.88	21.82	25.72	-33.3	-49.3	3.8	7.45e-01	0	44	104	426246144	27	22542
2026-01-26 10:57:39.89	20.95	25.41	-32.9	-47.5	3.8	7.45e-01	0	44	104	426246144	27	19388
2026-01-26 10:57:42.90	20.08	25.09	-33.2	-48.7	3.8	7.43e-01	0	44	104	426246144	27	21468
2026-01-26 10:57:45.91	19.24	24.78	-33.3	-49.2	3.8	7.42e-01	0	44	104	426246144	27	22441
2026-01-26 10:57:48.92	18.42	24.46	-33.1	-48.3	3.8	7.45e-01	0	44	104	426246144	27	20823
2026-01-26 10:57:51.94	17.61	24.13	-32.8	-47.2	3.8	7.45e-01	0	44	104	426246144	27	18899
2026-01-26 10:57:54.96	16.82	23.81	-33.6	-50.5	3.8	7.47e-01	0	44	104	426246144	28	25213
2026-01-26 10:57:57.97	16.04	23.48	-32.8	-47.3	3.8	7.43e-01	0	44	104	426246144	27	19109
2026-01-26 10:58:00.97	15.29	23.16	-32.8	-47.4	3.8	7.43e-01	0	44	104	426246144	27	19362
2026-01-26 10:58:03.98	14.55	22.83	-33.0	-48.0	3.8	7.47e-01	0	44	104	426246144	27	20304
2026-01-26 10:58:07.00	13.83	22.51	-32.0	-45.1	3.8	7.46e-01	0	44	104	426246144	26	16304
2026-01-26 10:58:10.02	13.12	22.18	-30.9	-43.1	3.8	7.46e-01	0	44	104	426246144	24	14606
2026-01-26 10:58:13.03	12.42	21.85	-32.0	-46.1	3.8	7.41e-01	0	44	104	426246144	24	18370
2026-01-26 10:58:16.06	11.74	21.52	-32.9	-48.3	3.8	7.44e-01	0	44	104	426246144	26	21119
2026-01-26 10:58:19.05	11.09	21.20	-33.0	-48.2	3.8	7.45e-01	0	44	104	426246144	27	20868
2026-01-26 10:58:22.06	10.44	20.88	-33.0	-48.5	3.8	7.46e-01	0	44	104	426246144	27	21436
2026-01-26 10:58:25.06	9.81	20.55	-33.1	-48.8	3.8	7.45e-01	0	44	104	426246144	27	22004
2026-01-26 10:58:28.04	9.20	20.24	-32.2	-46.0	3.8	7.46e-01	0	44	104	426246144	26	17465
2026-01-26 10:58:31.04	8.60	19.92	-32.4	-46.5	3.8	7.46e-01	0	44	104	426246144	26	18375
2026-01-26 10:58:34.06	8.00	19.59	-32.9	-48.7	3.8	7.45e-01	0	44	104	426246144	26	22014
2026-01-26 10:58:37.06	7.43	19.28	-32.9	-48.6	3.8	7.46e-01	0	44	104	426246144	26	21893
2026-01-26 10:58:40.08	6.86	18.96	-32.8	-48.1	3.8	7.44e-01	0	44	104	426246144	26	20955
2026-01-26 10:58:43.10	6.31	18.64	-33.1	-49.0	3.9	7.46e-01	0	44	104	426246144	27	22360
2026-01-26 10:58:46.11	5.77	18.33	-33.3	-50.0	3.8	7.44e-01	0	44	104	426246144	27	24625
2026-01-26 10:58:49.13	5.24	18.02	-32.8	-47.7	3.8	7.46e-01	0	44	104	426246144	27	19970
2026-01-26 10:58:52.13	4.72	17.71	-32.8	-47.9	3.8	7.44e-01	0	44	104	426246144	27	20321
2026-01-26 10:58:55.13	4.22	17.40	-32.7	-47.3	3.8	7.45e-01	0	44	104	426246144	27	19480
2026-01-26 10:58:58.15	3.72	17.10	-31.9	-45.1	3.8	7.45e-01	0	44	104	426246144	26	16325
2026-01-26 10:59:01.15	3.24	16.79	-31.8	-45.4	3.8	7.43e-01	0	44	104	426246144	25	17269
2026-01-26 10:59:04.17	2.76	16.49	-32.7	-47.9	3.8	7.46e-01	0	44	104	426246144	26	20668
2026-01-26 10:59:07.17	2.30	16.19	-32.8	-48.6	3.8	7.42e-01	0	44	104	426246144	26	22148
2026-01-26 10:59:10.17	1.85	15.90	-32.7	-47.9	3.8	7.45e-01	0	44	104	426246144	26	20887
2026-01-26 10:59:13.18	1.41	15.60	-32.8	-48.5	3.8	7.44e-01	0	44	104	426246144	26	21975
2026-01-26 10:59:16.20	0.97	15.31	-32.0	-45.5	3.8	7.45e-01	0	44	104	426246144	26	17099
2026-01-26 10:59:19.20	0.55	15.02	-31.2	-44.1	3.8	7.42e-01	0	44	104	426246144	24	15858
2026-01-26 10:59:22.22	0.13	14.73	-32.1	-46.9	3.8	7.43e-01	0	44	104	426246144	24	19837
2026-01-26 10:59:25.22	359.72	14.45	-32.8	-48.5	3.8	7.44e-01	0	44	104	426246144	26	22041
2026-01-26 10:59:28.22	359.32	14.17	-32.8	-48.5	3.8	7.44e-01	0	44	104	426246144	26	22132
2026-01-26 10:59:31.24	358.93	13.88	-32.7	-48.3	3.8	7.44e-01	0	44	104	426246144	26	21718
2026-01-26 10:59:34.26	358.55	13.60	-33.1	-49.8	3.8	7.49e-01	0	44	104	426246144	27	24440
2026-01-26 10:59:37.26	358.17	13.33	-32.9	-48.6	3.8	7.43e-01	0	44	104	426246144	27	21961
2026-01-26 10:59:40.28	357.80	13.05	-32.8	-48.3	3.8	7.47e-01	0	44	104	426246144	27	21582
2026-01-26 10:59:43.28	357.45	12.78	-32.9	-48.7	3.8	7.45e-01	0	44	104	426246144	27	22222
2026-01-26 10:59:46.30	357.09	12.51	-32.7	-47.9	3.8	7.43e-01	0	44	104	426246144	27	20741
2026-01-26 10:59:49.32	356.74	12.25	-32.3	-46.8	3.8	7.43e-01	0	44	104	426246144	26	19163
2026-01-26 10:59:52.32	356.41	11.98	-32.6	-48.2	3.8	7.42e-01	0	44	104	426246144	26	21658
2026-01-26 10:59:55.34	356.07	11.72	-32.7	-48.6	3.8	7.47e-01	0	44	104	426246144	26	22533
2026-01-26 10:59:58.35	355.75	11.46	-32.2	-46.5	3.8	7.47e-01	0	44	104	426246144	26	18818
2026-01-26 11:00:01.35	355.43	11.20	-32.1	-46.5	3.8	7.42e-01	0	44	104	426246144	26	18753
2026-01-26 11:00:04.37	355.12	10.94	-32.0	-46.0	3.8	7.47e-01	0	44	104	426246144	26	17944
2026-01-26 11:00:07.37	354.81	10.69	-31.4	-44.4	3.8	7.44e-01	0	44	104	426246144	25	16004
2026-01-26 11:00:10.39	354.51	10.44	-31.5	-45.5	3.8	7.43e-01	0	44	104	426246144	24	17884
2026-01-26 11:00:13.38	354.21	10.19	-32.4	-48.1	3.8	7.45e-01	0	44	104	426246144	25	21954
2026-01-26 11:00:16.40	353.92	9.94	-32.7	-48.9	3.8	7.42e-01	0	44	104	426246144	26	23215
2026-01-26 11:00:19.42	353.64	9.70	-32.7	-49.0	3.8	7.46e-01	0	44	104	426246144	26	23496
2026-01-26 11:00:22.43	353.36	9.45	-32.7	-49.2	3.8	7.46e-01	0	44	104	426246144	26	23938
2026-01-26 11:00:25.44	353.08	9.21	-32.9	-49.8	3.8	7.45e-01	0	44	104	426246144	26	25367
2026-01-26 11:00:28.45	352.82	8.97	-32.7	-48.7	3.8	7.45e-01	0	44	104	426246144	26	22733
2026-01-26 11:00:31.44	352.55	8.74	-32.7	-49.3	3.8	7.43e-01	0	44	104	426246144	26	24271
2026-01-26 11:00:34.46	352.29	8.50	-32.8	-50.0	3.8	7.44e-01	0	44	104	426246144	26	26130
2026-01-26 11:00:37.48	352.04	8.27	-32.7	-49.2	3.8	7.44e-01	0	44	104	426246144	26	24102
2026-01-26 11:00:40.48	351.79	8.04	-32.5	-48.5	3.8	7.44e-01	0	44	104	426246144	26	22598
2026-01-26 11:00:43.48	351.54	7.81	-32.6	-48.6	3.8	7.44e-01	0	44	104	426246144	26	22832
2026-01-26 11:00:46.50	351.30	7.58	-32.0	-46.0	3.8	7.44e-01	0	44	104	426246144	26	18040
2026-01-26 11:00:49.51	351.06	7.35	-31.6	-45.2	3.8	7.46e-01	0	44	104	426246144	25	17162
2026-01-26 11:00:52.52	350.83	7.13	-31.6	-45.2	3.8	7.43e-01	0	44	104	426246144	25	17204

#Closed at: 2026-01-26 11:00:55
#Recorded file [426 MB]: D:/data/31010_260126_135125.dat