passes_logs/2026/01/26/R2M6_AANII_01/R2M6_AANII_01__20260126_121437_NOAA_21_JPSS-2_rec.log

#Pass ID: 20260126_121437_NOAA 21 (JPSS-2)
#Satellite: NOAA 21 (JPSS-2)
#Configuration: NOAA 21
#almurnet v.1.7.20240730
#Start time: 2026-01-26 12:14:38

#Version: 2.2.20231116
#Station: R2M6_AANII_01
#Location: 30.233357 lon 59.946436 lat
#TLE: 1 54234U 22150A   26025.79694208  .00000182  00000+0  10700-3 0  9999
#TLE: 2 54234  98.7509 326.5666 0000777 213.2444 146.8684 14.19539347166346

#Time	Az	El	Level	Level2	SNR	BER	BlckErr	Temp	State	Recorded	gain1	gain2
2026-01-26 12:14:38.11	224.62	7.04	-30.0	-33.7	4.8	1.34e+00	0	43	0	0	21	5529
2026-01-26 12:14:41.11	224.96	7.21	-31.0	-35.8	7.4	1.09e-01	0	43	0	3145728	22	6281
2026-01-26 12:14:44.12	225.30	7.38	-30.2	-33.7	9.2	2.06e-02	0	43	0	12582912	21	5382
2026-01-26 12:14:47.13	225.65	7.55	-29.7	-32.7	10.4	5.55e-03	0	44	0	22020096	20	5064
2026-01-26 12:14:50.12	225.99	7.72	-29.3	-31.9	11.3	1.87e-03	0	44	0	30408704	19	4861
2026-01-26 12:14:53.11	226.34	7.89	-29.2	-31.7	11.5	5.57e-04	0	44	0	39845888	19	4787
2026-01-26 12:14:56.13	226.70	8.06	-28.9	-30.9	12.1	4.14e-04	0	44	0	49283072	19	4506
2026-01-26 12:14:59.14	227.06	8.24	-28.8	-31.1	12.2	2.30e-04	0	44	0	58720256	18	4677
2026-01-26 12:15:02.15	227.42	8.41	-29.0	-31.6	12.0	3.48e-04	0	44	0	68157440	18	4840
2026-01-26 12:15:05.15	227.79	8.58	-28.8	-31.0	12.3	1.46e-04	0	44	0	77594624	18	4660
2026-01-26 12:15:08.15	228.16	8.75	-28.8	-31.0	12.4	1.44e-04	0	44	0	87031808	18	4660
2026-01-26 12:15:11.15	228.54	8.92	-28.7	-30.7	12.6	1.04e-04	0	44	0	96468992	18	4546
2026-01-26 12:15:14.17	228.92	9.10	-28.5	-30.4	12.8	8.54e-05	0	44	0	105906176	18	4442
2026-01-26 12:15:17.16	229.30	9.27	-28.4	-30.1	13.0	5.49e-05	0	44	0	115343360	18	4365
2026-01-26 12:15:20.18	229.70	9.44	-28.4	-30.4	13.1	1.83e-05	0	44	0	124780544	17	4549
2026-01-26 12:15:23.18	230.09	9.62	-28.4	-30.4	13.1	3.20e-05	0	44	0	134217728	17	4568
2026-01-26 12:15:26.18	230.49	9.79	-28.2	-30.0	13.4	1.14e-05	0	44	0	143654912	17	4431
2026-01-26 12:15:29.17	230.89	9.96	-28.2	-30.0	13.4	1.44e-05	0	44	0	153092096	17	4428
2026-01-26 12:15:32.16	231.29	10.13	-28.1	-29.8	13.5	1.14e-05	0	44	0	162529280	17	4375
2026-01-26 12:15:35.18	231.71	10.31	-28.2	-30.0	13.4	1.14e-05	0	44	0	171966464	17	4421
2026-01-26 12:15:38.17	232.12	10.48	-28.2	-29.9	13.5	1.75e-05	0	44	0	181403648	17	4398
2026-01-26 12:15:41.17	232.54	10.65	-28.2	-30.0	13.4	1.06e-05	0	44	0	190840832	17	4425
2026-01-26 12:15:44.16	232.97	10.82	-28.4	-30.3	13.3	2.05e-05	0	44	0	200278016	17	4515
2026-01-26 12:15:47.17	233.40	10.99	-28.2	-30.0	13.5	1.44e-05	0	44	0	208666624	17	4432
2026-01-26 12:15:50.19	233.84	11.17	-28.4	-30.4	13.3	1.67e-05	0	44	0	218103808	17	4547
2026-01-26 12:15:53.19	234.28	11.34	-28.4	-30.5	13.2	2.36e-05	0	44	0	227540992	17	4584
2026-01-26 12:15:56.19	234.73	11.51	-28.5	-30.7	13.1	3.28e-05	0	44	0	236978176	17	4644
2026-01-26 12:15:59.19	235.18	11.68	-28.1	-29.8	13.7	6.10e-06	0	44	0	246415360	17	4342
2026-01-26 12:16:02.18	235.63	11.85	-28.4	-30.5	13.3	1.98e-05	0	44	0	255852544	17	4554
2026-01-26 12:16:05.19	236.09	12.02	-28.2	-30.0	13.6	7.60e-06	0	44	0	265289728	17	4413
2026-01-26 12:16:08.19	236.56	12.19	-28.5	-30.6	13.2	1.44e-05	0	44	0	274726912	17	4608
2026-01-26 12:16:11.19	237.03	12.36	-28.0	-29.5	13.9	4.50e-06	0	44	0	284164096	17	4258
2026-01-26 12:16:14.20	237.51	12.53	-28.0	-29.3	14.0	7.00e-07	0	44	0	293601280	17	4217
2026-01-26 12:16:17.19	237.99	12.69	-27.8	-29.0	14.2	0.00e+00	0	44	0	303038464	17	4131
2026-01-26 12:16:20.19	238.48	12.86	-28.0	-29.3	14.1	2.20e-06	0	44	0	312475648	17	4209
2026-01-26 12:16:23.19	238.97	13.03	-28.0	-29.4	14.0	3.00e-06	0	44	0	321912832	17	4237
2026-01-26 12:16:26.20	239.47	13.19	-28.1	-29.6	13.9	9.10e-06	0	44	0	331350016	17	4302
2026-01-26 12:16:29.20	239.97	13.36	-28.1	-29.6	13.9	2.20e-06	0	44	0	340787200	17	4292
2026-01-26 12:16:32.20	240.48	13.52	-27.9	-29.2	14.2	7.60e-06	0	44	0	350224384	17	4176
2026-01-26 12:16:35.19	240.99	13.68	-27.9	-29.2	14.2	4.50e-06	0	44	0	359661568	17	4179
2026-01-26 12:16:38.19	241.51	13.84	-27.9	-29.6	14.2	1.50e-06	0	44	0	368050176	16	4397
2026-01-26 12:16:41.20	242.04	14.00	-27.8	-29.5	14.3	2.20e-06	0	44	0	377487360	16	4357
2026-01-26 12:16:44.21	242.57	14.16	-27.9	-29.6	14.3	2.20e-06	0	44	0	387973120	16	4386
2026-01-26 12:16:47.22	243.11	14.32	-27.9	-29.8	14.2	1.50e-06	0	44	0	396361728	16	4437
2026-01-26 12:16:50.23	243.65	14.48	-27.9	-29.6	14.3	0.00e+00	0	44	0	405798912	16	4376
2026-01-26 12:16:53.25	244.20	14.63	-28.0	-29.8	14.2	7.00e-07	0	44	0	415236096	16	4458
2026-01-26 12:16:56.26	244.76	14.79	-28.0	-30.0	14.1	3.00e-06	0	44	0	424673280	16	4503
2026-01-26 12:16:59.28	245.32	14.94	-27.9	-29.6	14.3	2.20e-06	0	44	0	434110464	16	4398
2026-01-26 12:17:02.28	245.89	15.09	-27.8	-29.5	14.4	7.00e-07	0	44	0	443547648	16	4342
2026-01-26 12:17:05.29	246.46	15.24	-27.8	-29.5	14.4	7.00e-07	0	44	0	452984832	16	4359
2026-01-26 12:17:08.29	247.03	15.39	-27.9	-29.6	14.4	7.00e-07	0	44	0	462422016	16	4376
2026-01-26 12:17:11.29	247.61	15.53	-27.9	-29.5	14.4	0.00e+00	0	44	0	471859200	16	4361
2026-01-26 12:17:14.29	248.20	15.67	-27.8	-29.4	14.5	7.00e-07	0	44	0	481296384	16	4314
2026-01-26 12:17:17.30	248.79	15.82	-27.7	-29.1	14.6	0.00e+00	0	44	0	490733568	16	4248
2026-01-26 12:17:20.30	249.39	15.95	-27.8	-29.3	14.6	0.00e+00	0	44	0	500170752	16	4283
2026-01-26 12:17:23.32	249.99	16.09	-27.9	-29.5	14.4	0.00e+00	0	44	0	509607936	16	4371
2026-01-26 12:17:26.32	250.60	16.23	-27.9	-29.5	14.5	7.00e-07	0	44	0	519045120	16	4356
2026-01-26 12:17:29.33	251.21	16.36	-27.4	-28.3	15.2	0.00e+00	0	44	0	528482304	16	4033
2026-01-26 12:17:32.33	251.83	16.49	-27.5	-28.6	15.0	0.00e+00	0	44	0	537919488	16	4105
2026-01-26 12:17:35.32	252.45	16.62	-27.7	-29.3	14.7	0.00e+00	0	44	0	547356672	16	4286
2026-01-26 12:17:38.32	253.08	16.74	-27.6	-29.0	14.8	0.00e+00	0	44	0	556793856	16	4207
2026-01-26 12:17:41.32	253.71	16.86	-27.4	-28.5	15.1	0.00e+00	0	44	0	566231040	16	4079
2026-01-26 12:17:44.34	254.36	16.98	-27.4	-28.5	15.1	0.00e+00	0	44	0	575668224	16	4083
2026-01-26 12:17:47.34	255.00	17.10	-27.7	-29.0	14.8	0.00e+00	0	44	0	585105408	16	4214
2026-01-26 12:17:50.35	255.65	17.21	-27.5	-28.8	15.0	7.00e-07	0	44	0	593494016	16	4143
2026-01-26 12:17:53.36	256.30	17.32	-27.5	-28.7	15.0	0.00e+00	0	44	0	603979776	16	4133
2026-01-26 12:17:56.38	256.96	17.43	-27.2	-28.4	15.3	0.00e+00	0	44	0	613416960	15	4166
2026-01-26 12:17:59.38	257.62	17.53	-27.1	-28.4	15.3	0.00e+00	0	44	0	621805568	15	4147
2026-01-26 12:18:02.37	258.29	17.63	-27.2	-28.4	15.3	0.00e+00	0	44	0	631242752	15	4173
2026-01-26 12:18:05.38	258.96	17.73	-27.2	-28.5	15.3	0.00e+00	0	44	0	640679936	15	4176
2026-01-26 12:18:08.39	259.64	17.83	-27.2	-28.4	15.3	0.00e+00	0	44	0	650117120	15	4162
2026-01-26 12:18:11.37	260.31	17.92	-26.8	-27.6	15.8	0.00e+00	0	44	0	659554304	15	3943
2026-01-26 12:18:14.37	260.99	18.00	-26.8	-28.1	15.7	0.00e+00	0	44	0	668991488	14	4192
2026-01-26 12:18:17.38	261.68	18.09	-26.8	-28.2	15.7	0.00e+00	0	44	0	678428672	14	4204
2026-01-26 12:18:20.40	262.37	18.17	-26.8	-28.2	15.7	0.00e+00	0	44	0	687865856	14	4198
2026-01-26 12:18:23.41	263.07	18.24	-26.8	-28.1	15.8	0.00e+00	0	44	0	697303040	14	4170
2026-01-26 12:18:26.41	263.76	18.31	-27.0	-28.5	15.6	0.00e+00	0	44	0	706740224	14	4281
2026-01-26 12:18:29.42	264.46	18.38	-26.9	-28.4	15.7	0.00e+00	0	44	0	716177408	14	4250
2026-01-26 12:18:32.42	265.16	18.45	-26.8	-28.1	15.8	0.00e+00	0	44	0	725614592	14	4172
2026-01-26 12:18:35.42	265.87	18.51	-26.8	-28.1	15.9	0.00e+00	0	44	0	735051776	14	4175
2026-01-26 12:18:38.41	266.57	18.56	-26.8	-28.2	15.8	0.00e+00	0	44	0	744488960	14	4205
2026-01-26 12:18:41.43	267.29	18.61	-26.9	-28.3	15.7	0.00e+00	0	44	0	753926144	14	4231
2026-01-26 12:18:44.42	268.00	18.66	-27.1	-28.8	15.4	0.00e+00	0	44	0	763363328	14	4368
2026-01-26 12:18:47.42	268.71	18.70	-27.1	-28.8	15.4	0.00e+00	0	45	0	772800512	14	4382
2026-01-26 12:18:50.42	269.43	18.74	-27.0	-28.7	15.5	0.00e+00	0	44	0	782237696	14	4329
2026-01-26 12:18:53.44	270.15	18.78	-27.2	-29.0	15.3	0.00e+00	0	44	0	791674880	14	4436
2026-01-26 12:18:56.45	270.87	18.81	-27.4	-29.4	15.1	0.00e+00	0	44	0	800063488	14	4549
2026-01-26 12:18:59.45	271.59	18.84	-27.4	-29.4	15.1	0.00e+00	0	44	0	809500672	14	4550
2026-01-26 12:19:02.45	272.31	18.86	-27.4	-29.0	15.0	0.00e+00	0	44	0	818937856	15	4328
2026-01-26 12:19:05.44	273.03	18.87	-27.1	-28.3	15.4	0.00e+00	0	44	0	828375040	15	4136
2026-01-26 12:19:08.43	273.75	18.89	-27.3	-28.7	15.2	0.00e+00	0	44	0	837812224	15	4233
2026-01-26 12:19:11.44	274.47	18.89	-27.2	-28.4	15.4	0.00e+00	0	44	0	847249408	15	4152
2026-01-26 12:19:14.45	275.20	18.90	-27.1	-28.2	15.5	0.00e+00	0	44	0	856686592	15	4110
2026-01-26 12:19:17.44	275.92	18.90	-27.2	-28.5	15.3	0.00e+00	0	44	0	866123776	15	4190
2026-01-26 12:19:20.44	276.64	18.89	-27.2	-28.6	15.3	0.00e+00	0	44	0	875560960	15	4198
2026-01-26 12:19:23.44	277.36	18.88	-27.1	-28.2	15.5	0.00e+00	0	44	0	884998144	15	4096
2026-01-26 12:19:26.45	278.09	18.87	-27.0	-28.1	15.6	0.00e+00	0	44	0	894435328	15	4062
2026-01-26 12:19:29.44	278.81	18.85	-27.0	-28.1	15.5	0.00e+00	0	44	0	903872512	15	4080
2026-01-26 12:19:32.45	279.53	18.83	-27.2	-28.5	15.3	0.00e+00	0	44	0	913309696	15	4188
2026-01-26 12:19:35.47	280.25	18.80	-27.1	-28.3	15.5	0.00e+00	0	44	0	922746880	15	4121
2026-01-26 12:19:38.46	280.97	18.77	-27.3	-28.8	15.2	0.00e+00	0	44	0	932184064	15	4261
2026-01-26 12:19:41.48	281.69	18.73	-27.3	-28.6	15.3	0.00e+00	0	44	0	941621248	15	4222
2026-01-26 12:19:44.50	282.41	18.69	-27.1	-28.2	15.5	7.00e-07	0	44	0	951058432	15	4104
2026-01-26 12:19:47.51	283.12	18.65	-27.2	-28.4	15.3	0.00e+00	0	44	0	960495616	15	4164
2026-01-26 12:19:50.52	283.83	18.60	-27.1	-28.3	15.5	0.00e+00	0	44	0	969932800	15	4125
2026-01-26 12:19:53.52	284.54	18.55	-27.3	-28.6	15.3	0.00e+00	0	44	0	979369984	15	4218
2026-01-26 12:19:56.52	285.25	18.49	-27.5	-29.1	15.0	0.00e+00	0	44	0	988807168	15	4359
2026-01-26 12:19:59.54	285.95	18.43	-27.2	-28.5	15.3	7.00e-07	0	44	0	998244352	15	4189
2026-01-26 12:20:02.56	286.66	18.36	-26.9	-27.8	15.7	0.00e+00	0	44	0	1007681536	15	3997
2026-01-26 12:20:05.57	287.36	18.29	-26.8	-27.5	15.8	0.00e+00	0	44	0	1017118720	15	3919
2026-01-26 12:20:08.57	288.05	18.22	-26.9	-28.4	15.7	0.00e+00	0	44	0	1026555904	14	4253
2026-01-26 12:20:11.57	288.74	18.15	-27.0	-28.5	15.6	0.00e+00	0	44	0	1034944512	14	4275
2026-01-26 12:20:14.58	289.43	18.06	-26.8	-28.2	15.8	0.00e+00	0	44	0	1044381696	14	4197
2026-01-26 12:20:17.58	290.11	17.98	-26.9	-28.2	15.7	0.00e+00	0	44	0	1053818880	14	4216
2026-01-26 12:20:20.59	290.79	17.89	-26.9	-28.3	15.7	0.00e+00	0	44	0	1063256064	14	4231
2026-01-26 12:20:23.60	291.47	17.80	-27.0	-28.4	15.6	0.00e+00	0	44	0	1072693248	14	4261
2026-01-26 12:20:26.59	292.13	17.71	-27.2	-29.0	15.3	0.00e+00	0	44	0	1082130432	14	4431
2026-01-26 12:20:29.60	292.80	17.61	-27.0	-28.5	15.6	0.00e+00	0	44	0	1091567616	14	4274
2026-01-26 12:20:32.61	293.47	17.51	-26.9	-28.4	15.6	0.00e+00	0	44	0	1101004800	14	4258
2026-01-26 12:20:35.61	294.12	17.40	-26.9	-28.3	15.7	1.50e-06	0	44	0	1110441984	14	4227
2026-01-26 12:20:38.62	294.78	17.30	-27.0	-28.4	15.6	3.00e-06	0	44	0	1119879168	14	4270
2026-01-26 12:20:41.63	295.43	17.18	-27.1	-28.7	15.4	7.00e-07	0	45	0	1129316352	14	4342
2026-01-26 12:20:44.64	296.08	17.07	-27.1	-28.8	15.4	0.00e+00	0	45	0	1138753536	14	4372
2026-01-26 12:20:47.64	296.72	16.95	-26.9	-28.4	15.6	6.80e-06	0	45	0	1148190720	14	4268
2026-01-26 12:20:50.66	297.35	16.83	-26.9	-28.3	15.7	0.00e+00	0	45	0	1157627904	14	4231
2026-01-26 12:20:53.67	297.98	16.71	-26.8	-28.1	15.8	0.00e+00	0	45	0	1167065088	14	4185
2026-01-26 12:20:56.67	298.61	16.59	-27.1	-28.7	15.4	0.00e+00	0	45	0	1176502272	14	4352
2026-01-26 12:20:59.68	299.23	16.46	-27.0	-28.6	15.5	0.00e+00	0	45	0	1185939456	14	4315
2026-01-26 12:21:02.69	299.85	16.33	-27.0	-28.4	15.5	0.00e+00	0	45	0	1195376640	14	4272
2026-01-26 12:21:05.71	300.46	16.20	-27.0	-28.4	15.5	0.00e+00	0	45	0	1204813824	14	4270
2026-01-26 12:21:08.72	301.06	16.06	-27.1	-28.8	15.3	0.00e+00	0	45	0	1214251008	14	4381
2026-01-26 12:21:11.73	301.66	15.93	-27.4	-29.5	14.9	0.00e+00	0	45	0	1223688192	14	4593
2026-01-26 12:21:14.74	302.26	15.79	-27.6	-29.4	14.7	0.00e+00	0	45	0	1233125376	15	4445
2026-01-26 12:21:17.75	302.85	15.65	-27.3	-28.8	15.0	0.00e+00	0	45	0	1242562560	15	4271
2026-01-26 12:21:20.76	303.43	15.50	-27.4	-28.9	14.9	7.00e-07	0	45	0	1251999744	15	4309
2026-01-26 12:21:23.77	304.01	15.36	-27.7	-29.7	14.5	0.00e+00	0	45	0	1261436928	15	4522
2026-01-26 12:21:26.78	304.58	15.21	-27.8	-30.0	14.3	1.50e-06	0	45	0	1270874112	15	4640
2026-01-26 12:21:29.80	305.15	15.06	-27.6	-29.5	14.6	7.00e-07	0	45	0	1280311296	15	4486
2026-01-26 12:21:32.80	305.71	14.91	-27.4	-29.1	14.8	7.00e-07	0	45	0	1288699904	15	4350
2026-01-26 12:21:35.81	306.26	14.76	-27.4	-28.9	14.9	0.00e+00	0	45	0	1299185664	15	4305
2026-01-26 12:21:38.81	306.81	14.61	-27.5	-29.3	14.6	1.50e-06	0	45	0	1307574272	15	4428
2026-01-26 12:21:41.82	307.36	14.45	-27.7	-29.8	14.4	0.00e+00	0	45	0	1317011456	15	4550
2026-01-26 12:21:44.82	307.90	14.30	-27.7	-29.8	14.4	0.00e+00	0	45	0	1326448640	15	4568
2026-01-26 12:21:47.84	308.43	14.14	-27.5	-29.3	14.7	7.00e-07	0	45	0	1335885824	15	4408
2026-01-26 12:21:50.84	308.96	13.98	-27.7	-29.7	14.4	7.00e-07	0	45	0	1345323008	15	4526
2026-01-26 12:21:53.86	309.48	13.82	-27.8	-30.0	14.3	0.00e+00	0	45	0	1354760192	15	4617
2026-01-26 12:21:56.87	310.00	13.66	-27.8	-30.0	14.2	7.00e-07	0	45	0	1364197376	15	4635
2026-01-26 12:21:59.89	310.51	13.50	-27.9	-30.3	14.1	0.00e+00	0	45	0	1373634560	15	4712
2026-01-26 12:22:02.89	311.02	13.34	-27.9	-29.6	14.3	0.00e+00	0	45	0	1383071744	16	4384
2026-01-26 12:22:05.91	311.52	13.17	-27.7	-29.1	14.6	0.00e+00	0	45	0	1392508928	16	4251
2026-01-26 12:22:08.92	312.02	13.01	-27.7	-29.2	14.5	1.50e-06	0	45	0	1401946112	16	4285
2026-01-26 12:22:11.92	312.51	12.85	-27.8	-29.5	14.4	7.00e-07	0	45	0	1411383296	16	4356
2026-01-26 12:22:14.93	312.99	12.68	-27.9	-29.7	14.3	2.20e-06	0	45	0	1420820480	16	4409
2026-01-26 12:22:17.95	313.47	12.51	-27.9	-29.7	14.2	7.00e-07	0	45	0	1430257664	16	4431
2026-01-26 12:22:20.95	313.95	12.35	-26.8	-29.1	14.1	1.50e-06	0	45	0	1439694848	15	4658
2026-01-26 12:22:23.96	314.42	12.18	-27.2	-29.8	14.3	1.50e-06	0	45	0	1449132032	14	4813
2026-01-26 12:22:26.96	314.88	12.01	-27.7	-29.7	14.4	2.20e-06	0	45	0	1458569216	15	4534
2026-01-26 12:22:29.98	315.34	11.84	-27.6	-29.5	14.4	1.50e-06	0	45	0	1468006400	15	4489
2026-01-26 12:22:33.00	315.79	11.67	-27.7	-29.7	14.3	2.20e-06	0	45	0	1477443584	15	4535
2026-01-26 12:22:36.01	316.24	11.50	-27.8	-29.9	14.2	1.50e-06	0	45	0	1486880768	15	4592
2026-01-26 12:22:39.02	316.69	11.33	-27.8	-30.0	14.2	1.50e-06	0	45	0	1496317952	15	4620
2026-01-26 12:22:42.03	317.13	11.16	-27.9	-30.2	14.0	3.80e-06	0	45	0	1505755136	15	4710
2026-01-26 12:22:45.04	317.56	10.99	-28.2	-30.3	13.8	6.10e-06	0	45	0	1515192320	16	4612
2026-01-26 12:22:48.04	317.99	10.82	-28.1	-30.0	13.9	3.80e-06	0	45	0	1524629504	16	4525
2026-01-26 12:22:51.04	318.41	10.65	-28.0	-29.8	14.1	3.00e-06	0	45	0	1534066688	16	4453
2026-01-26 12:22:54.05	318.83	10.48	-28.1	-30.2	13.8	3.00e-06	0	45	0	1543503872	16	4561
2026-01-26 12:22:57.06	319.25	10.31	-27.9	-29.6	14.2	3.00e-06	0	45	0	1552941056	16	4401
2026-01-26 12:23:00.06	319.65	10.14	-28.0	-30.0	13.9	6.80e-06	0	45	0	1562378240	16	4510
2026-01-26 12:23:03.07	320.06	9.97	-28.3	-30.7	13.5	9.90e-06	0	45	0	1571815424	16	4732
2026-01-26 12:23:06.08	320.46	9.79	-28.3	-30.7	13.5	9.10e-06	0	45	0	1581252608	16	4729
2026-01-26 12:23:09.08	320.86	9.62	-28.4	-30.4	13.3	1.98e-05	0	45	0	1589641216	17	4520
2026-01-26 12:23:12.09	321.25	9.45	-28.3	-30.1	13.5	1.44e-05	0	45	0	1599078400	17	4452
2026-01-26 12:23:15.10	321.64	9.28	-28.5	-30.6	13.2	1.83e-05	0	45	0	1608515584	17	4583
2026-01-26 12:23:18.11	322.02	9.11	-29.0	-31.8	12.4	7.70e-05	0	45	0	1617952768	17	4997
2026-01-26 12:23:21.13	322.40	8.94	-28.9	-31.7	12.5	1.17e-04	0	45	0	1627389952	17	4953
2026-01-26 12:23:24.15	322.78	8.77	-29.2	-31.9	12.0	2.02e-04	0	45	0	1636827136	18	4925
2026-01-26 12:23:27.15	323.15	8.60	-28.9	-31.2	12.5	1.27e-04	0	45	0	1646264320	18	4675
2026-01-26 12:23:30.15	323.51	8.43	-28.8	-30.8	12.7	6.86e-05	0	45	0	1655701504	18	4559
2026-01-26 12:23:33.16	323.87	8.26	-28.6	-30.4	13.0	4.34e-05	0	45	0	1665138688	18	4432
2026-01-26 12:23:36.17	324.23	8.08	-28.7	-30.6	12.8	7.32e-05	0	45	0	1674575872	18	4505
2026-01-26 12:23:39.17	324.58	7.92	-29.0	-31.4	12.3	1.56e-04	0	45	0	1684013056	18	4759
2026-01-26 12:23:42.17	324.93	7.75	-28.9	-31.3	12.3	1.58e-04	0	45	0	1693450240	18	4722
2026-01-26 12:23:45.18	325.28	7.58	-29.0	-31.5	12.1	2.33e-04	0	45	0	1702887424	18	4809
2026-01-26 12:23:48.18	325.62	7.41	-29.0	-31.0	12.2	1.87e-04	0	45	0	1712324608	19	4517
2026-01-26 12:23:51.19	325.96	7.24	-29.1	-31.3	11.9	3.22e-04	0	45	0	1721761792	19	4632
2026-01-26 12:23:54.19	326.30	7.07	-29.1	-31.3	12.0	3.91e-04	0	45	0	1731198976	19	4613
2026-01-26 12:23:57.20	326.63	6.90	-33.9	-46.1	3.8	1.49e+00	0	45	104	1732247552	27	14672

#Closed at: 2026-01-26 12:23:57
#Recorded file [1732 MB]: D:/data/31010_260126_151439.dat