passes_logs/2026/01/26/R2M6_AANII_01/R2M6_AANII_01__20260126_112259_NOAA_20_JPSS-1_rec.log

#Pass ID: 20260126_112259_NOAA 20 (JPSS-1)
#Satellite: NOAA 20 (JPSS-1)
#Configuration: NOAA 20
#almurnet v.1.7.20240730
#Start time: 2026-01-26 11:23:00

#Version: 2.2.20231116
#Station: R2M6_AANII_01
#Location: 30.233357 lon 59.946436 lat
#TLE: 1 43013U 17073A   26025.83228772  .00000162  00000+0  97663-4 0  9996
#TLE: 2 43013  98.7646 326.6579 0001036  23.5840 336.5383 14.19540376424273

#Time	Az	El	Level	Level2	SNR	BER	BlckErr	Temp	State	Recorded	gain1	gain2
2026-01-26 11:23:00.74	194.02	7.07	-31.0	-36.4	5.2	1.21e+00	0	41	0	0	22	6696
2026-01-26 11:23:03.74	194.22	7.28	-31.4	-37.4	7.6	1.00e-01	0	41	0	1048576	23	7257
2026-01-26 11:23:06.75	194.41	7.50	-30.8	-35.1	9.5	1.89e-02	0	42	0	7340032	23	5931
2026-01-26 11:23:09.76	194.61	7.72	-30.8	-35.9	9.3	1.97e-02	0	42	0	12582912	22	6432
2026-01-26 11:23:12.75	194.82	7.94	-30.8	-35.9	9.3	1.94e-02	0	42	0	17825792	22	6430
2026-01-26 11:23:15.76	195.02	8.16	-30.9	-36.1	9.0	3.62e-02	0	42	0	24117248	22	6576
2026-01-26 11:23:18.75	195.23	8.38	-30.3	-34.4	9.9	1.05e-02	0	42	0	29360128	22	5738
2026-01-26 11:23:21.76	195.44	8.61	-30.0	-34.4	9.8	1.02e-02	0	42	0	35651584	21	5936
2026-01-26 11:23:24.78	195.66	8.84	-29.8	-34.2	10.0	9.15e-03	0	42	0	40894464	20	5986
2026-01-26 11:23:27.79	195.88	9.07	-29.7	-34.4	9.5	1.20e-02	0	42	0	46137344	20	6180
2026-01-26 11:23:30.80	196.10	9.30	-29.8	-34.6	9.6	1.18e-02	0	42	0	52428800	20	6202
2026-01-26 11:23:33.80	196.33	9.53	-29.0	-33.8	9.0	2.26e-02	0	42	0	57671680	19	6220
2026-01-26 11:23:36.80	196.56	9.76	-26.9	-33.0	6.9	9.95e-02	0	42	0	62914560	15	7317
2026-01-26 11:23:39.82	196.79	10.00	-24.9	-32.5	5.6	4.43e-01	0	42	0	69206016	11	8579
2026-01-26 11:23:42.83	197.03	10.24	-23.3	-31.9	4.8	8.23e-01	0	42	0	74448896	8	9638
2026-01-26 11:23:45.84	197.27	10.48	-23.6	-32.1	5.1	7.18e-01	0	42	0	80740352	8	9495
2026-01-26 11:23:48.84	197.51	10.72	-25.3	-33.1	6.0	3.90e-01	0	42	0	85983232	10	8886
2026-01-26 11:23:51.84	197.76	10.96	-26.9	-33.4	7.8	1.10e-01	0	42	0	91226112	13	7584
2026-01-26 11:23:54.85	198.01	11.21	-28.2	-33.3	9.6	1.25e-02	0	43	0	97517568	16	6442
2026-01-26 11:23:57.86	198.27	11.46	-28.7	-33.2	10.7	5.25e-03	0	43	0	102760448	17	6043
2026-01-26 11:24:00.87	198.53	11.71	-28.9	-33.5	10.7	3.32e-03	0	43	0	108003328	17	6117
2026-01-26 11:24:03.86	198.79	11.96	-29.4	-33.6	11.8	5.23e-04	0	43	0	114294784	18	5843
2026-01-26 11:24:06.88	199.06	12.21	-29.6	-33.4	11.8	4.20e-04	0	43	0	119537664	19	5596
2026-01-26 11:24:09.89	199.33	12.47	-29.6	-33.3	12.2	2.16e-04	0	43	0	125829120	19	5502
2026-01-26 11:24:12.90	199.61	12.73	-29.7	-33.4	12.1	3.12e-04	0	43	0	131072000	19	5555
2026-01-26 11:24:15.91	199.89	12.99	-29.6	-33.2	12.5	1.76e-04	0	43	0	136314880	19	5428
2026-01-26 11:24:18.92	200.18	13.25	-29.7	-33.4	12.5	1.08e-04	0	43	0	142606336	19	5505
2026-01-26 11:24:21.93	200.47	13.51	-29.7	-33.2	13.0	2.97e-05	0	43	0	147849216	19	5350
2026-01-26 11:24:24.94	200.77	13.78	-29.7	-33.0	13.2	2.82e-05	0	43	0	153092096	19	5253
2026-01-26 11:24:27.95	201.07	14.05	-29.7	-32.9	13.2	2.67e-05	0	43	0	159383552	19	5217
2026-01-26 11:24:30.97	201.38	14.32	-29.9	-33.6	12.8	5.87e-05	0	43	0	164626432	19	5511
2026-01-26 11:24:33.99	201.70	14.60	-29.5	-32.5	13.6	1.67e-05	0	43	0	170917888	19	5069
2026-01-26 11:24:36.99	202.02	14.87	-29.6	-32.6	13.6	3.80e-06	0	43	0	176160768	19	5089
2026-01-26 11:24:39.99	202.34	15.15	-29.6	-32.8	13.5	1.52e-05	0	43	0	181403648	19	5174
2026-01-26 11:24:43.00	202.67	15.43	-29.6	-32.6	13.6	7.60e-06	0	43	0	187695104	19	5105
2026-01-26 11:24:46.01	203.01	15.72	-29.7	-32.8	13.6	1.22e-05	0	43	0	192937984	19	5146
2026-01-26 11:24:49.02	203.35	16.00	-29.9	-33.4	13.3	2.05e-05	0	43	0	199229440	19	5364
2026-01-26 11:24:52.02	203.70	16.29	-29.8	-33.1	13.5	9.10e-06	0	43	0	204472320	19	5257
2026-01-26 11:24:55.03	204.06	16.58	-29.8	-33.1	13.5	1.29e-05	0	43	0	209715200	19	5246
2026-01-26 11:24:58.04	204.42	16.87	-29.8	-33.1	13.6	6.80e-06	0	43	0	216006656	19	5252
2026-01-26 11:25:01.05	204.79	17.17	-29.8	-33.1	13.6	3.80e-06	0	43	0	221249536	19	5257
2026-01-26 11:25:04.06	205.17	17.47	-29.9	-33.2	13.5	1.06e-05	0	43	0	226492416	19	5295
2026-01-26 11:25:07.07	205.55	17.77	-30.0	-33.0	13.3	1.14e-05	0	43	0	232783872	20	5101
2026-01-26 11:25:10.08	205.94	18.07	-30.0	-33.0	13.3	1.98e-05	0	43	0	238026752	20	5109
2026-01-26 11:25:13.08	206.34	18.37	-30.1	-33.4	13.1	2.97e-05	0	43	0	244318208	20	5245
2026-01-26 11:25:16.09	206.75	18.68	-30.1	-33.5	13.0	2.82e-05	0	44	0	249561088	20	5289
2026-01-26 11:25:19.08	207.16	18.99	-30.2	-33.6	12.9	2.44e-05	0	43	0	254803968	20	5353
2026-01-26 11:25:22.09	207.59	19.30	-30.3	-33.8	12.8	5.18e-05	0	43	0	261095424	20	5444
2026-01-26 11:25:25.10	208.02	19.62	-30.4	-34.4	12.4	1.18e-04	0	43	0	266338304	20	5670
2026-01-26 11:25:28.11	208.46	19.93	-30.7	-34.7	11.9	2.80e-04	0	43	0	272629760	21	5669
2026-01-26 11:25:31.11	208.91	20.25	-31.0	-35.1	11.3	9.83e-04	0	43	0	277872640	22	5754
2026-01-26 11:25:34.12	209.37	20.57	-30.8	-34.4	11.8	5.84e-04	0	43	0	283115520	22	5452
2026-01-26 11:25:37.14	209.84	20.90	-30.4	-33.2	12.6	1.28e-04	0	43	0	289406976	22	4983
2026-01-26 11:25:40.14	210.31	21.23	-30.3	-33.4	12.8	6.02e-05	0	43	0	294649856	21	5158
2026-01-26 11:25:43.15	210.80	21.56	-30.1	-32.8	13.3	1.44e-05	0	43	0	299892736	21	4917
2026-01-26 11:25:46.16	211.30	21.89	-30.1	-32.9	13.2	1.67e-05	0	43	0	306184192	21	4929
2026-01-26 11:25:49.17	211.81	22.22	-30.0	-32.5	13.5	1.52e-05	0	43	0	311427072	21	4798
2026-01-26 11:25:52.17	212.33	22.55	-30.0	-32.4	13.6	1.29e-05	0	44	0	317718528	21	4776
2026-01-26 11:25:55.18	212.86	22.89	-30.1	-32.8	13.4	1.14e-05	0	43	0	322961408	21	4882
2026-01-26 11:25:58.19	213.40	23.23	-30.1	-32.7	13.4	1.14e-05	0	43	0	328204288	21	4873
2026-01-26 11:26:01.20	213.95	23.57	-30.2	-33.1	13.1	2.36e-05	0	44	0	334495744	21	5028
2026-01-26 11:26:04.21	214.52	23.92	-29.8	-32.0	13.9	3.00e-06	0	43	0	339738624	21	4633
2026-01-26 11:26:07.22	215.10	24.26	-29.7	-32.1	14.1	2.20e-06	0	44	0	344981504	20	4769
2026-01-26 11:26:10.22	215.69	24.61	-29.6	-31.9	14.3	3.00e-06	0	44	0	351272960	20	4699
2026-01-26 11:26:13.23	216.29	24.95	-29.6	-31.9	14.3	1.50e-06	0	44	0	356515840	20	4686
2026-01-26 11:26:16.23	216.90	25.30	-29.7	-32.2	14.1	0.00e+00	0	43	0	362807296	20	4788
2026-01-26 11:26:19.25	217.53	25.65	-29.5	-31.7	14.5	7.00e-07	0	44	0	368050176	20	4620
2026-01-26 11:26:22.26	218.18	26.00	-29.5	-31.5	14.6	0.00e+00	0	44	0	373293056	20	4557
2026-01-26 11:26:25.28	218.84	26.36	-29.6	-31.8	14.4	3.00e-06	0	44	0	379584512	20	4656
2026-01-26 11:26:28.29	219.51	26.71	-29.6	-31.9	14.3	7.00e-07	0	44	0	384827392	20	4699
2026-01-26 11:26:31.30	220.20	27.06	-29.7	-32.2	14.2	2.20e-06	0	44	0	391118848	20	4781
2026-01-26 11:26:34.31	220.90	27.41	-29.7	-32.1	14.3	3.80e-06	0	44	0	396361728	20	4746
2026-01-26 11:26:37.31	221.61	27.76	-29.9	-32.7	13.9	3.00e-06	0	44	0	401604608	20	4948
2026-01-26 11:26:40.32	222.34	28.12	-30.0	-33.0	13.6	1.14e-05	0	44	0	407896064	20	5089
2026-01-26 11:26:43.34	223.10	28.47	-29.9	-32.7	13.9	3.80e-06	0	44	0	413138944	20	4962
2026-01-26 11:26:46.34	223.86	28.82	-30.2	-33.4	13.5	7.60e-06	0	44	0	418381824	20	5202
2026-01-26 11:26:49.33	224.63	29.17	-30.8	-34.6	12.3	1.58e-04	0	43	0	424673280	21	5585
2026-01-26 11:26:52.34	225.43	29.52	-30.8	-34.7	12.3	2.00e-04	0	44	0	429916160	21	5620
2026-01-26 11:26:55.34	226.24	29.86	-31.0	-34.9	11.9	4.03e-04	0	44	0	435159040	22	5590
2026-01-26 11:26:58.33	227.07	30.20	-31.2	-35.2	11.6	8.53e-04	0	44	0	441450496	22	5734
2026-01-26 11:27:01.35	227.92	30.55	-31.1	-35.1	11.6	4.15e-04	0	43	0	446693376	22	5701
2026-01-26 11:27:04.36	228.79	30.88	-31.8	-36.8	10.0	4.55e-03	0	44	0	452984832	23	6442
2026-01-26 11:27:07.37	229.67	31.22	-32.2	-37.9	8.8	2.40e-02	0	44	0	458227712	24	6955
2026-01-26 11:27:10.39	230.58	31.55	-32.4	-38.5	8.4	4.01e-02	0	44	0	463470592	24	7326
2026-01-26 11:27:13.39	231.50	31.88	-32.1	-37.6	9.1	2.88e-02	0	44	0	469762048	24	6758
2026-01-26 11:27:16.40	232.44	32.20	-32.0	-37.2	9.5	1.42e-02	0	44	0	475004928	24	6499
2026-01-26 11:27:19.40	233.39	32.52	-32.3	-38.1	8.8	3.34e-02	0	44	0	481296384	24	7005
2026-01-26 11:27:22.41	234.37	32.83	-32.0	-36.8	9.8	1.22e-02	0	44	0	486539264	24	6284
2026-01-26 11:27:25.43	235.37	33.14	-32.0	-36.9	9.7	1.04e-02	0	44	0	491782144	24	6311
2026-01-26 11:27:28.44	236.38	33.44	-31.9	-36.3	10.2	5.88e-03	0	44	0	498073600	24	6004
2026-01-26 11:27:31.45	237.41	33.73	-31.7	-35.9	10.5	3.48e-03	0	44	0	503316480	24	5815
2026-01-26 11:27:34.46	238.46	34.02	-31.8	-36.2	10.3	5.27e-03	0	44	0	508559360	24	5966
2026-01-26 11:27:37.46	239.52	34.29	-31.6	-35.5	10.9	3.46e-03	0	44	0	514850816	24	5625
2026-01-26 11:27:40.46	240.61	34.56	-31.6	-35.3	11.0	1.30e-03	0	44	0	520093696	24	5522
2026-01-26 11:27:43.46	241.70	34.82	-31.5	-35.1	11.2	1.48e-03	0	44	0	526385152	24	5422
2026-01-26 11:27:46.47	242.82	35.07	-31.1	-34.2	12.2	3.39e-04	0	44	0	531628032	23	5150
2026-01-26 11:27:49.48	243.96	35.31	-30.4	-32.7	13.5	1.14e-05	0	44	0	536870912	22	4712
2026-01-26 11:27:52.49	245.11	35.54	-30.5	-33.1	13.3	2.28e-05	0	44	0	543162368	22	4856
2026-01-26 11:27:55.49	246.27	35.75	-30.6	-33.4	13.1	2.13e-05	0	44	0	548405248	22	4954
2026-01-26 11:27:58.51	247.46	35.96	-30.4	-32.7	13.5	1.37e-05	0	44	0	553648128	22	4709
2026-01-26 11:28:01.52	248.66	36.15	-30.7	-33.6	13.0	4.27e-05	0	44	0	559939584	22	5013
2026-01-26 11:28:04.52	249.86	36.33	-30.8	-33.8	12.8	1.04e-04	0	44	0	565182464	22	5092
2026-01-26 11:28:07.54	251.09	36.50	-30.7	-33.5	13.0	3.96e-05	0	44	0	571473920	22	4995
2026-01-26 11:28:10.55	252.32	36.65	-30.6	-33.4	13.0	1.60e-05	0	44	0	576716800	22	4962
2026-01-26 11:28:13.56	253.57	36.79	-30.9	-34.1	12.6	1.17e-04	0	44	0	581959680	22	5224
2026-01-26 11:28:16.57	254.83	36.91	-30.9	-34.1	12.6	8.01e-05	0	44	0	588251136	22	5220
2026-01-26 11:28:19.58	256.09	37.02	-31.6	-35.8	11.0	8.23e-04	0	44	0	593494016	23	5863
2026-01-26 11:28:22.58	257.36	37.12	-31.6	-35.9	10.9	2.29e-03	0	44	0	598736896	23	5900
2026-01-26 11:28:25.60	258.64	37.20	-31.2	-34.7	11.9	4.03e-04	0	44	0	605028352	23	5345
2026-01-26 11:28:28.61	259.92	37.26	-32.0	-37.1	10.1	3.19e-03	0	44	0	610271232	23	6519
2026-01-26 11:28:31.61	261.21	37.31	-32.0	-36.7	10.0	7.46e-03	0	44	0	616562688	24	6193
2026-01-26 11:28:34.62	262.50	37.34	-32.0	-36.7	10.1	8.60e-03	0	44	0	621805568	24	6169
2026-01-26 11:28:37.62	263.79	37.35	-32.0	-36.6	10.1	5.59e-03	0	44	0	627048448	24	6121
2026-01-26 11:28:40.63	265.08	37.35	-32.2	-37.3	9.5	1.65e-02	0	44	0	633339904	24	6505
2026-01-26 11:28:43.64	266.37	37.34	-30.9	-33.6	12.6	1.88e-04	0	44	0	638582784	23	4941
2026-01-26 11:28:46.65	267.66	37.30	-30.7	-33.6	13.0	1.83e-05	0	44	0	644874240	22	5016
2026-01-26 11:28:49.65	268.94	37.26	-30.9	-34.3	12.5	2.31e-04	0	44	0	650117120	22	5299
2026-01-26 11:28:52.65	270.22	37.19	-30.5	-32.9	13.4	1.90e-05	0	44	0	655360000	22	4771
2026-01-26 11:28:55.67	271.50	37.11	-30.9	-34.1	12.7	3.89e-05	0	44	0	661651456	22	5210
2026-01-26 11:28:58.68	272.77	37.02	-31.1	-34.7	12.2	3.07e-04	0	44	0	666894336	22	5438
2026-01-26 11:29:01.67	274.03	36.91	-31.0	-34.3	12.5	1.75e-04	0	44	0	672137216	22	5305
2026-01-26 11:29:04.69	275.28	36.78	-31.2	-35.2	11.9	3.04e-04	0	44	0	678428672	22	5667
2026-01-26 11:29:07.70	276.53	36.64	-31.9	-36.9	10.3	4.01e-03	0	44	0	683671552	23	6363
2026-01-26 11:29:10.72	277.76	36.49	-31.4	-35.3	11.5	8.46e-04	0	44	0	689963008	23	5597
2026-01-26 11:29:13.73	278.98	36.32	-31.6	-35.8	11.0	1.48e-03	0	44	0	695205888	23	5826
2026-01-26 11:29:16.74	280.19	36.14	-31.5	-35.3	11.4	1.18e-03	0	44	0	700448768	23	5627
2026-01-26 11:29:19.74	281.38	35.95	-31.4	-35.3	11.4	1.35e-03	0	44	0	706740224	23	5598
2026-01-26 11:29:22.74	282.55	35.75	-30.8	-33.4	12.7	8.01e-05	0	44	0	711983104	23	4837
2026-01-26 11:29:25.74	283.71	35.53	-30.8	-33.8	12.8	3.89e-05	0	44	0	717225984	22	5100
2026-01-26 11:29:28.77	284.87	35.30	-30.4	-32.8	13.5	6.10e-06	0	44	0	723517440	22	4723
2026-01-26 11:29:31.77	286.00	35.06	-30.2	-32.6	13.9	5.30e-06	0	44	0	728760320	21	4767
2026-01-26 11:29:34.78	287.11	34.81	-29.8	-32.2	14.5	0.00e+00	0	44	0	735051776	20	4719
2026-01-26 11:29:37.79	288.21	34.56	-30.7	-34.0	13.0	3.12e-05	0	44	0	740294656	21	5299
2026-01-26 11:29:40.79	289.29	34.29	-30.1	-32.5	14.0	4.50e-06	0	44	0	745537536	21	4735
2026-01-26 11:29:43.80	290.35	34.01	-30.6	-33.8	13.2	2.59e-05	0	44	0	751828992	21	5212
2026-01-26 11:29:46.81	291.40	33.73	-30.0	-32.3	14.1	3.80e-06	0	44	0	757071872	21	4660
2026-01-26 11:29:49.82	292.42	33.44	-30.8	-34.3	12.9	2.21e-05	0	44	0	762314752	21	5391
2026-01-26 11:29:52.82	293.43	33.14	-30.8	-33.8	12.8	1.04e-04	0	44	0	768606208	22	5105
2026-01-26 11:29:55.84	294.42	32.83	-31.4	-35.5	11.7	3.43e-04	0	44	0	773849088	22	5805
2026-01-26 11:29:58.84	295.39	32.52	-31.8	-36.0	10.6	5.07e-03	0	44	0	780140544	24	5819
2026-01-26 11:30:01.86	296.35	32.21	-31.1	-34.3	12.1	2.17e-04	0	44	0	785383424	23	5205
2026-01-26 11:30:04.87	297.28	31.88	-31.6	-35.8	11.0	2.89e-03	0	44	0	790626304	23	5864
2026-01-26 11:30:07.88	298.20	31.56	-30.7	-33.5	13.0	4.34e-05	0	44	0	796917760	22	4980
2026-01-26 11:30:10.89	299.10	31.23	-31.4	-35.8	11.4	3.63e-04	0	44	0	802160640	22	5971
2026-01-26 11:30:13.89	299.98	30.90	-31.1	-34.3	12.2	4.69e-04	0	44	0	808452096	23	5174
2026-01-26 11:30:16.89	300.84	30.56	-31.6	-35.9	11.0	8.15e-04	0	44	0	813694976	23	5880
2026-01-26 11:30:19.91	301.69	30.22	-31.4	-34.6	11.5	1.92e-03	0	44	0	818937856	24	5206
2026-01-26 11:30:22.91	302.51	29.88	-30.7	-33.5	13.0	2.36e-05	0	44	0	825229312	22	4985
2026-01-26 11:30:25.92	303.33	29.53	-31.4	-35.3	11.3	1.40e-03	0	44	0	830472192	23	5643
2026-01-26 11:30:28.93	304.12	29.19	-30.5	-33.1	13.2	2.21e-05	0	44	0	835715072	22	4841
2026-01-26 11:30:31.93	304.89	28.84	-31.9	-36.9	10.2	1.31e-03	0	44	0	842006528	23	6383
2026-01-26 11:30:34.94	305.66	28.49	-31.5	-35.0	11.2	6.16e-03	0	44	0	847249408	24	5388
2026-01-26 11:30:37.95	306.40	28.14	-30.7	-33.7	12.8	2.97e-05	0	44	0	853540864	22	5066
2026-01-26 11:30:40.95	307.13	27.80	-31.4	-35.3	11.3	1.54e-03	0	44	0	858783744	23	5645
2026-01-26 11:30:43.95	307.84	27.45	-29.9	-32.0	14.2	4.50e-06	0	44	0	864026624	21	4585
2026-01-26 11:30:46.96	308.54	27.10	-30.5	-33.5	13.3	6.80e-06	0	44	0	870318080	21	5092
2026-01-26 11:30:49.97	309.22	26.75	-30.7	-33.6	12.9	7.32e-05	0	44	0	875560960	22	5017
2026-01-26 11:30:52.98	309.89	26.40	-30.2	-32.6	13.8	3.80e-06	0	44	0	880803840	21	4783
2026-01-26 11:30:56.00	310.55	26.05	-30.6	-33.8	13.0	2.51e-05	0	44	0	887095296	21	5219
2026-01-26 11:30:59.00	311.19	25.70	-30.2	-32.7	13.8	1.14e-05	0	44	0	892338176	21	4809
2026-01-26 11:31:02.01	311.81	25.35	-29.6	-31.8	14.6	0.00e+00	0	44	0	898629632	20	4622
2026-01-26 11:31:05.01	312.43	25.01	-30.0	-32.7	14.1	7.00e-07	0	44	0	903872512	20	4909
2026-01-26 11:31:08.02	313.03	24.66	-29.8	-32.4	14.2	1.50e-06	0	44	0	909115392	20	4807
2026-01-26 11:31:11.03	313.62	24.32	-30.2	-33.3	13.6	3.80e-06	0	44	0	915406848	20	5144
2026-01-26 11:31:14.03	314.19	23.98	-29.9	-32.6	14.1	3.00e-06	0	44	0	920649728	20	4882
2026-01-26 11:31:17.04	314.75	23.64	-29.9	-32.6	14.0	6.10e-06	0	44	0	925892608	20	4890
2026-01-26 11:31:20.06	315.31	23.30	-29.1	-31.0	15.4	0.00e+00	0	44	0	932184064	19	4477
2026-01-26 11:31:23.06	315.85	22.96	-28.9	-31.0	15.7	0.00e+00	0	44	0	937426944	18	4561
2026-01-26 11:31:26.07	316.38	22.63	-29.3	-32.0	15.1	0.00e+00	0	44	0	943718400	18	4897
2026-01-26 11:31:29.07	316.89	22.30	-29.3	-31.9	15.1	0.00e+00	0	44	0	948961280	18	4877
2026-01-26 11:31:32.09	317.40	21.96	-28.9	-31.1	15.6	0.00e+00	0	44	0	954204160	18	4614
2026-01-26 11:31:35.10	317.90	21.63	-29.2	-31.7	15.2	0.00e+00	0	44	0	960495616	18	4813
2026-01-26 11:31:38.10	318.38	21.31	-29.5	-32.0	14.7	0.00e+00	0	44	0	965738496	19	4807
2026-01-26 11:31:41.11	318.86	20.99	-29.5	-31.9	14.8	0.00e+00	0	44	0	970981376	19	4776
2026-01-26 11:31:44.11	319.33	20.66	-29.2	-31.3	15.1	0.00e+00	0	44	0	977272832	19	4576
2026-01-26 11:31:47.13	319.79	20.34	-29.4	-31.7	14.9	0.00e+00	0	44	0	982515712	19	4697
2026-01-26 11:31:50.13	320.24	20.03	-29.4	-31.8	14.8	0.00e+00	0	44	0	988807168	19	4751
2026-01-26 11:31:53.15	320.68	19.71	-28.9	-31.1	14.9	0.00e+00	0	44	0	994050048	19	4668
2026-01-26 11:31:56.16	321.11	19.40	-29.3	-32.3	14.7	0.00e+00	0	44	0	999292928	18	5065
2026-01-26 11:31:59.17	321.53	19.09	-29.5	-32.2	14.4	1.50e-06	0	44	0	1005584384	19	4926
2026-01-26 11:32:02.17	321.95	18.78	-29.6	-32.3	14.4	0.00e+00	0	44	0	1010827264	19	4931
2026-01-26 11:32:05.17	322.35	18.48	-29.8	-32.7	14.2	7.00e-07	0	44	0	1016070144	19	5060
2026-01-26 11:32:08.17	322.75	18.17	-29.8	-32.7	14.2	0.00e+00	0	44	0	1022361600	19	5058
2026-01-26 11:32:11.17	323.14	17.88	-30.2	-33.4	13.3	1.14e-05	0	44	0	1027604480	20	5234
2026-01-26 11:32:14.18	323.52	17.58	-30.5	-33.7	12.7	6.10e-05	0	44	0	1033895936	21	5247
2026-01-26 11:32:17.19	323.90	17.28	-30.2	-33.0	13.2	2.82e-05	0	44	0	1039138816	21	4953
2026-01-26 11:32:20.19	324.27	16.99	-30.0	-33.0	13.5	1.44e-05	0	44	0	1044381696	20	5062
2026-01-26 11:32:23.20	324.63	16.70	-30.3	-33.7	13.0	1.98e-05	0	44	0	1050673152	20	5350
2026-01-26 11:32:26.21	324.99	16.41	-30.5	-33.9	12.5	9.61e-05	0	44	0	1055916032	21	5319
2026-01-26 11:32:29.21	325.34	16.12	-30.7	-34.6	12.0	2.72e-04	0	44	0	1061158912	21	5624
2026-01-26 11:32:32.22	325.68	15.84	-30.5	-33.8	12.5	1.18e-04	0	44	0	1067450368	21	5285
2026-01-26 11:32:35.23	326.02	15.56	-30.2	-33.0	13.1	3.43e-05	0	44	0	1072693248	21	4963
2026-01-26 11:32:38.24	326.35	15.28	-30.1	-32.8	13.2	3.81e-05	0	44	0	1078984704	21	4908
2026-01-26 11:32:41.25	326.68	15.00	-30.5	-33.9	12.5	1.16e-04	0	44	0	1084227584	21	5317
2026-01-26 11:32:44.26	327.00	14.73	-30.5	-34.1	12.3	1.55e-04	0	44	0	1089470464	21	5427
2026-01-26 11:32:47.27	327.31	14.46	-30.4	-33.6	12.6	9.91e-05	0	44	0	1095761920	21	5223
2026-01-26 11:32:50.28	327.62	14.19	-30.3	-33.5	12.7	6.86e-05	0	44	0	1101004800	21	5190
2026-01-26 11:32:53.27	327.92	13.92	-30.0	-32.6	13.2	2.28e-05	0	44	0	1106247680	21	4848
2026-01-26 11:32:56.29	328.22	13.66	-30.0	-32.5	13.3	1.29e-05	0	44	0	1112539136	21	4796
2026-01-26 11:32:59.30	328.52	13.39	-30.1	-32.9	13.0	5.87e-05	0	44	0	1117782016	21	4956
2026-01-26 11:33:02.29	328.80	13.13	-30.0	-32.7	13.1	2.89e-05	0	44	0	1124073472	21	4871
2026-01-26 11:33:05.31	329.09	12.87	-30.3	-33.4	12.6	5.79e-05	0	44	0	1129316352	21	5137
2026-01-26 11:33:08.32	329.37	12.62	-30.3	-33.5	12.6	9.53e-05	0	44	0	1134559232	21	5184
2026-01-26 11:33:11.33	329.64	12.36	-30.2	-33.3	12.7	4.73e-05	0	44	0	1140850688	21	5133
2026-01-26 11:33:14.34	329.91	12.11	-30.1	-32.8	12.9	4.57e-05	0	44	0	1146093568	21	4950
2026-01-26 11:33:17.35	330.18	11.86	-30.0	-32.7	13.0	2.97e-05	0	44	0	1152385024	21	4897
2026-01-26 11:33:20.35	330.44	11.61	-30.1	-32.8	12.9	3.50e-05	0	44	0	1157627904	21	4959
2026-01-26 11:33:23.35	330.70	11.37	-30.4	-33.7	12.3	1.44e-04	0	44	0	1162870784	21	5300
2026-01-26 11:33:26.37	330.95	11.12	-30.3	-33.5	12.4	1.27e-04	0	44	0	1169162240	21	5231
2026-01-26 11:33:29.38	331.20	10.88	-30.3	-33.5	12.4	1.52e-04	0	44	0	1174405120	21	5231
2026-01-26 11:33:32.38	331.45	10.64	-30.1	-33.0	12.7	1.28e-04	0	44	0	1179648000	21	5037
2026-01-26 11:33:35.39	331.69	10.40	-30.3	-33.4	12.4	1.48e-04	0	44	0	1185939456	21	5188
2026-01-26 11:33:38.40	331.93	10.17	-30.3	-33.5	12.4	8.77e-05	0	44	0	1191182336	21	5203
2026-01-26 11:33:41.40	332.16	9.93	-30.3	-33.6	12.3	1.57e-04	0	44	0	1197473792	21	5271
2026-01-26 11:33:44.40	332.39	9.70	-30.2	-33.4	12.4	1.34e-04	0	44	0	1202716672	21	5191
2026-01-26 11:33:47.41	332.62	9.47	-30.4	-33.8	12.1	1.91e-04	0	44	0	1207959552	21	5362
2026-01-26 11:33:50.41	332.84	9.24	-30.4	-33.8	12.1	2.60e-04	0	44	0	1214251008	21	5325
2026-01-26 11:33:53.42	333.06	9.01	-30.5	-34.4	11.7	7.29e-04	0	44	0	1219493888	21	5606
2026-01-26 11:33:56.43	333.28	8.79	-30.6	-34.6	11.5	1.19e-03	0	44	0	1224736768	21	5701
2026-01-26 11:33:59.44	333.50	8.56	-30.6	-34.7	11.4	7.65e-04	0	44	0	1231028224	21	5739
2026-01-26 11:34:02.45	333.71	8.34	-30.8	-35.4	10.9	2.68e-03	0	44	0	1236271104	21	6069
2026-01-26 11:34:05.46	333.92	8.12	-30.8	-35.3	10.9	1.60e-03	0	44	0	1242562560	21	6019
2026-01-26 11:34:08.47	334.12	7.90	-31.0	-35.9	10.4	4.64e-03	0	44	0	1247805440	21	6344
2026-01-26 11:34:11.48	334.33	7.68	-30.8	-35.3	10.8	2.02e-03	0	44	0	1253048320	21	6037
2026-01-26 11:34:14.48	334.52	7.47	-30.9	-35.7	10.5	4.54e-03	0	44	0	1259339776	21	6243
2026-01-26 11:34:17.50	334.72	7.25	-31.0	-36.0	10.2	5.02e-03	0	44	0	1264582656	21	6402
2026-01-26 11:34:20.50	334.92	7.04	-33.0	-46.8	3.8	3.74e-01	0	44	104	1269825536	26	17612

#Closed at: 2026-01-26 11:34:23
#Recorded file [1269 MB]: D:/data/31010_260126_142302.dat