passes_logs/2026/01/26/R2M6_AANII_01/R2M6_AANII_01__20260126_010907_SUOMI_NPP_rec.log

#Pass ID: 20260126_010907_SUOMI NPP
#Satellite: SUOMI NPP
#Configuration: NPP
#almurnet v.1.7.20240730
#Start time: 2026-01-26 01:09:08

#Version: 2.2.20231116
#Station: R2M6_AANII_01
#Location: 30.233357 lon 59.946436 lat
#TLE: 1 37849U 11061A   26025.53586395  .00000179  00000+0  10601-3 0  9996
#TLE: 2 37849  98.7821 327.4943 0002169  45.6246 314.5108 14.19529815738202

#Time	Az	El	Level	Level2	SNR	BER	BlckErr	Temp	State	Recorded	gain1	gain2
2026-01-26 01:09:08.76	14.74	7.07	-31.5	-36.6	4.8	1.35e+00	0	41	0	0	23	6511
2026-01-26 01:09:11.77	14.64	7.30	-31.6	-37.0	6.7	2.14e-01	0	42	102	1048576	23	6686
2026-01-26 01:09:14.77	14.53	7.53	-31.6	-36.9	6.9	1.77e-01	0	41	102	1048576	23	6609
2026-01-26 01:09:17.79	14.42	7.76	-30.8	-34.4	9.6	2.71e-02	0	42	102	1048576	21	5432
2026-01-26 01:09:20.81	14.31	7.99	-29.9	-31.9	11.8	5.02e-03	0	42	102	1048576	20	4551
2026-01-26 01:09:23.82	14.19	8.23	-29.6	-31.5	12.5	3.67e-03	0	42	102	1048576	19	4489
2026-01-26 01:09:26.83	14.08	8.47	-29.5	-31.2	12.8	3.63e-03	0	42	102	1048576	19	4366
2026-01-26 01:09:29.84	13.96	8.71	-29.7	-31.8	12.4	7.31e-04	0	42	102	1048576	19	4574
2026-01-26 01:09:32.85	13.84	8.95	-29.7	-31.8	12.4	1.04e-04	0	42	102	1048576	19	4571
2026-01-26 01:09:35.86	13.72	9.19	-29.5	-31.1	12.9	2.97e-05	0	42	102	1048576	19	4333
2026-01-26 01:09:38.88	13.60	9.44	-29.7	-31.5	12.7	8.01e-05	0	42	102	1048576	19	4467
2026-01-26 01:09:41.89	13.47	9.69	-29.5	-31.2	12.9	6.25e-05	0	42	102	1048576	19	4363
2026-01-26 01:09:44.91	13.34	9.94	-29.5	-31.2	12.9	3.65e-03	0	43	102	1048576	19	4350
2026-01-26 01:09:47.92	13.21	10.19	-29.7	-31.6	12.6	7.59e-04	0	42	102	1048576	19	4511
2026-01-26 01:09:50.93	13.07	10.45	-29.5	-31.2	12.9	3.50e-05	0	43	102	1048576	19	4359
2026-01-26 01:09:53.94	12.94	10.71	-29.3	-31.0	13.4	1.60e-05	0	42	102	1048576	18	4386
2026-01-26 01:09:56.95	12.80	10.97	-29.2	-30.7	13.7	1.37e-05	0	43	102	1048576	18	4277
2026-01-26 01:09:59.96	12.66	11.23	-28.5	-30.0	12.9	8.30e-06	0	43	102	1048576	18	4306
2026-01-26 01:10:02.97	12.51	11.50	-29.4	-31.2	12.4	1.37e-05	0	43	102	1048576	18	4458
2026-01-26 01:10:05.98	12.36	11.77	-29.4	-31.4	13.2	1.60e-05	0	43	102	1048576	18	4503
2026-01-26 01:10:09.00	12.21	12.04	-29.8	-31.9	12.6	2.97e-03	0	43	102	1048576	19	4580
2026-01-26 01:10:12.01	12.06	12.31	-28.7	-30.4	13.1	1.90e-05	0	43	102	1048576	19	4334
2026-01-26 01:10:15.02	11.90	12.59	-29.4	-31.3	13.3	1.60e-05	0	43	102	1048576	18	4483
2026-01-26 01:10:18.04	11.74	12.87	-29.5	-31.4	13.2	3.12e-05	0	43	102	1048576	18	4507
2026-01-26 01:10:21.06	11.58	13.16	-29.5	-31.4	13.3	7.60e-06	0	43	102	1048576	18	4498
2026-01-26 01:10:24.08	11.41	13.44	-29.0	-30.2	14.1	2.61e-03	0	43	102	1048576	18	4129
2026-01-26 01:10:27.11	11.24	13.74	-28.9	-30.5	14.2	2.52e-03	0	43	102	1048576	17	4306
2026-01-26 01:10:30.12	11.07	14.03	-28.7	-29.9	14.5	2.74e-03	0	43	102	1048576	17	4149
2026-01-26 01:10:33.14	10.89	14.33	-28.7	-30.0	14.5	2.93e-03	0	43	102	1048576	17	4162
2026-01-26 01:10:36.14	10.71	14.62	-28.8	-30.1	14.5	2.81e-03	0	43	102	1048576	17	4183
2026-01-26 01:10:39.15	10.52	14.93	-28.9	-30.4	14.2	2.68e-03	0	43	102	1048576	17	4289
2026-01-26 01:10:42.16	10.33	15.23	-28.9	-30.3	14.4	4.27e-04	0	43	102	1048576	17	4244
2026-01-26 01:10:45.18	10.14	15.54	-28.7	-29.8	14.7	2.94e-03	0	43	102	1048576	17	4087
2026-01-26 01:10:48.20	9.94	15.86	-29.0	-30.1	14.2	2.69e-03	0	43	102	1048576	18	4094
2026-01-26 01:10:51.22	9.74	16.18	-29.1	-30.3	14.2	2.83e-03	0	43	102	1048576	18	4144
2026-01-26 01:10:54.22	9.53	16.50	-29.1	-30.4	14.1	2.79e-03	0	43	102	1048576	18	4172
2026-01-26 01:10:57.23	9.32	16.82	-29.4	-31.0	13.8	4.49e-04	0	43	102	1048576	18	4347
2026-01-26 01:11:00.24	9.10	17.15	-29.6	-31.2	13.3	5.17e-04	0	44	102	1048576	19	4331
2026-01-26 01:11:03.46	8.87	17.51	-29.8	-31.7	13.0	4.65e-05	0	43	102	1048576	19	4492
2026-01-26 01:11:06.33	8.65	17.83	-29.2	-30.6	14.1	2.46e-03	0	44	102	1048576	18	4219
2026-01-26 01:11:09.50	8.41	18.19	-29.3	-30.9	13.8	3.80e-06	0	44	102	1048576	18	4327
2026-01-26 01:11:12.36	8.18	18.52	-29.0	-30.2	14.3	2.57e-03	0	43	102	1048576	18	4106
2026-01-26 01:11:15.53	7.92	18.89	-28.9	-30.4	14.5	2.57e-04	0	43	102	1048576	17	4254
2026-01-26 01:11:18.40	7.68	19.22	-28.9	-29.8	14.6	1.50e-06	0	44	102	1048576	18	4002
2026-01-26 01:11:21.56	7.42	19.60	-28.8	-30.0	14.7	7.00e-07	0	43	102	1048576	17	4133
2026-01-26 01:11:24.43	7.17	19.95	-28.8	-30.0	14.8	0.00e+00	0	44	102	1048576	17	4143
2026-01-26 01:11:27.59	6.88	20.34	-29.2	-30.5	14.1	0.00e+00	0	44	102	1048576	18	4197
2026-01-26 01:11:30.47	6.62	20.69	-29.5	-30.8	13.7	3.00e-06	0	43	102	1048576	19	4178
2026-01-26 01:11:33.62	6.32	21.09	-29.8	-31.6	13.3	1.60e-05	0	44	102	1048576	19	4420
2026-01-26 01:11:36.48	6.05	21.45	-29.6	-31.0	13.6	1.44e-05	0	44	102	1048576	19	4249
2026-01-26 01:11:39.64	5.73	21.86	-29.4	-30.5	13.9	7.47e-05	0	43	102	1048576	19	4097
2026-01-26 01:11:42.51	5.44	22.24	-29.6	-31.2	13.4	1.22e-05	0	44	102	1048576	19	4298
2026-01-26 01:11:45.68	5.11	22.66	-29.8	-31.1	13.2	2.97e-05	0	44	102	1048576	20	4178
2026-01-26 01:11:48.55	4.80	23.04	-29.5	-30.9	13.6	6.10e-06	0	44	102	1048576	19	4222
2026-01-26 01:11:51.71	4.46	23.47	-29.7	-31.3	13.5	7.60e-06	0	44	102	1048576	19	4326
2026-01-26 01:11:54.58	4.13	23.87	-30.1	-32.1	12.5	9.15e-05	0	44	102	1048576	20	4513
2026-01-26 01:11:57.74	3.76	24.31	-30.1	-31.6	12.5	4.97e-04	0	44	102	1048576	21	4258
2026-01-26 01:12:00.60	3.42	24.71	-30.3	-31.9	12.5	3.44e-04	0	44	102	1048576	21	4330
2026-01-26 01:12:03.75	3.04	25.16	-30.0	-31.5	13.0	2.15e-04	0	44	102	1048576	20	4309
2026-01-26 01:12:06.62	2.67	25.58	-29.9	-31.3	13.1	1.67e-05	0	44	102	1048576	20	4226
2026-01-26 01:12:09.78	2.26	26.05	-30.4	-32.8	12.2	1.69e-04	0	44	102	1048576	20	4739
2026-01-26 01:12:12.65	1.88	26.48	-30.3	-32.5	12.2	2.75e-04	0	44	102	1048576	20	4645
2026-01-26 01:12:15.80	1.44	26.95	-30.2	-32.2	12.7	3.18e-04	0	44	102	1048576	20	4535
2026-01-26 01:12:18.67	1.04	27.39	-30.2	-32.2	12.6	2.10e-04	0	44	102	1048576	20	4534
2026-01-26 01:12:21.82	0.57	27.88	-29.7	-30.7	13.5	2.77e-04	0	44	102	1048576	20	4056
2026-01-26 01:12:24.69	0.14	28.33	-29.8	-31.5	13.5	2.27e-04	0	44	102	1048576	19	4387
2026-01-26 01:12:27.84	359.65	28.83	-30.0	-31.5	13.1	2.82e-05	0	44	102	1048576	20	4308
2026-01-26 01:12:30.70	359.19	29.29	-29.8	-31.2	13.3	2.41e-04	0	44	102	1048576	20	4190
2026-01-26 01:12:33.86	358.67	29.81	-30.3	-32.5	12.5	6.33e-05	0	44	102	1048576	20	4612
2026-01-26 01:12:36.72	358.18	30.28	-30.3	-32.4	12.5	4.00e-04	0	44	102	1048576	20	4592
2026-01-26 01:12:39.88	357.63	30.81	-30.7	-33.2	11.7	6.41e-04	0	44	102	1048576	21	4786
2026-01-26 01:12:42.75	357.11	31.30	-30.7	-33.2	11.7	1.64e-04	0	44	102	1048576	21	4796
2026-01-26 01:12:45.90	356.51	31.84	-30.9	-33.0	11.5	2.45e-03	0	44	102	1048576	22	4621
2026-01-26 01:12:48.77	355.96	32.33	-31.2	-33.6	10.8	3.72e-03	0	44	102	1048576	23	4753
2026-01-26 01:12:51.93	355.32	32.89	-31.5	-34.7	9.9	6.57e-03	0	44	102	1048576	23	5185
2026-01-26 01:12:54.80	354.73	33.40	-31.5	-34.9	9.7	1.53e-02	0	44	102	1048576	23	5279
2026-01-26 01:12:57.96	354.05	33.96	-31.6	-35.3	9.4	1.86e-02	0	44	102	1048576	23	5480
2026-01-26 01:13:00.83	353.42	34.48	-30.9	-33.3	11.2	2.10e-03	0	44	102	1048576	22	4726
2026-01-26 01:13:03.98	352.70	35.05	-30.7	-33.2	11.7	2.35e-03	0	44	102	1048576	21	4794
2026-01-26 01:13:06.86	352.01	35.58	-30.6	-33.0	11.6	3.46e-04	0	44	102	1048576	21	4750
2026-01-26 01:13:10.01	351.24	36.16	-30.4	-32.8	12.3	2.85e-04	0	44	102	1048576	20	4742
2026-01-26 01:13:12.87	350.51	36.70	-30.2	-32.1	12.7	7.40e-05	0	44	102	1048576	20	4486
2026-01-26 01:13:16.03	349.68	37.29	-30.4	-32.9	12.2	1.53e-04	0	44	102	1048576	20	4763
2026-01-26 01:13:18.90	348.90	37.83	-30.6	-32.9	11.8	3.65e-04	0	44	102	1048576	21	4692
2026-01-26 01:13:22.05	348.01	38.43	-30.8	-33.5	11.3	3.01e-03	0	44	102	1048576	21	4923
2026-01-26 01:13:24.91	347.17	38.97	-30.0	-31.7	12.9	8.23e-05	0	44	102	1048576	20	4379
2026-01-26 01:13:28.07	346.21	39.57	-30.8	-33.8	11.2	2.66e-03	0	44	102	1048576	21	5046
2026-01-26 01:13:30.95	345.31	40.13	-30.7	-33.4	11.4	1.19e-03	0	44	102	1048576	21	4891
2026-01-26 01:13:34.10	344.28	40.73	-30.0	-31.8	12.9	2.44e-03	0	44	102	1048576	20	4420
2026-01-26 01:13:36.97	343.31	41.28	-30.0	-31.6	13.0	2.29e-03	0	44	102	1048576	20	4332
2026-01-26 01:13:40.13	342.20	41.88	-31.0	-33.8	10.8	3.49e-03	0	44	102	1048576	22	4964
2026-01-26 01:13:43.00	341.16	42.42	-31.4	-34.9	10.0	9.57e-03	0	44	102	1048576	22	5438
2026-01-26 01:13:46.16	339.97	43.02	-30.8	-33.5	11.4	3.50e-03	0	44	102	1048576	21	4926
2026-01-26 01:13:49.04	338.85	43.55	-31.1	-34.1	10.5	4.64e-03	0	44	102	1048576	22	5071
2026-01-26 01:13:52.20	337.57	44.14	-31.6	-35.4	9.4	1.63e-02	0	44	102	1048576	23	5537
2026-01-26 01:13:55.07	336.37	44.66	-31.8	-35.9	9.0	3.11e-02	0	44	102	1048576	23	5798
2026-01-26 01:13:58.22	335.01	45.23	-31.8	-35.6	9.3	1.65e-02	0	44	102	1048576	23	5631
2026-01-26 01:14:01.09	333.72	45.74	-31.6	-34.9	9.8	1.49e-02	0	44	102	1048576	23	5314
2026-01-26 01:14:04.25	332.26	46.28	-29.7	-30.7	13.6	1.67e-05	0	44	102	1048576	20	4073
2026-01-26 01:14:07.12	330.88	46.76	-30.0	-32.0	13.4	1.48e-03	0	44	102	1048576	19	4517
2026-01-26 01:14:10.28	329.32	47.28	-30.8	-33.6	11.3	1.09e-03	0	44	102	1048576	21	4924
2026-01-26 01:14:13.14	327.86	47.73	-29.4	-30.3	14.3	1.50e-06	0	44	102	1048576	19	4022
2026-01-26 01:14:16.29	326.21	48.21	-30.2	-32.2	12.8	9.53e-05	0	44	102	1048576	20	4518
2026-01-26 01:14:19.17	324.65	48.63	-29.9	-31.3	13.4	5.30e-06	0	44	102	1048576	20	4230
2026-01-26 01:14:22.33	322.89	49.07	-29.9	-32.7	11.2	2.91e-04	0	44	102	1048576	21	4963
2026-01-26 01:14:25.18	321.26	49.44	-29.6	-30.4	13.9	4.50e-06	0	44	102	1048576	20	3985
2026-01-26 01:14:28.34	319.40	49.83	-30.3	-32.5	12.6	1.08e-04	0	44	102	1048576	20	4644
2026-01-26 01:14:31.20	317.69	50.15	-31.4	-35.3	9.8	3.47e-03	0	44	102	1048576	22	5615
2026-01-26 01:14:34.35	315.76	50.48	-31.1	-34.3	10.2	1.24e-02	0	44	102	1048576	22	5215
2026-01-26 01:14:37.22	313.96	50.75	-30.5	-32.7	11.8	5.14e-04	0	44	102	1048576	21	4648
2026-01-26 01:14:40.38	311.95	51.01	-30.0	-31.8	12.7	2.13e-05	0	44	102	1048576	20	4455
2026-01-26 01:14:43.24	310.10	51.22	-30.8	-33.8	11.0	1.71e-03	0	44	102	1048576	21	5090
2026-01-26 01:14:46.40	308.02	51.41	-29.7	-31.3	13.6	1.60e-05	0	44	102	1048576	19	4366
2026-01-26 01:14:49.26	306.13	51.55	-28.5	-29.2	15.5	1.30e-03	0	44	102	1048576	17	3930
2026-01-26 01:14:52.42	304.01	51.66	-28.4	-29.0	15.7	1.37e-03	0	44	102	1048576	17	3862
2026-01-26 01:14:55.29	302.08	51.73	-27.3	-28.0	16.8	0.00e+00	0	44	102	1048576	14	3908
2026-01-26 01:14:58.44	299.95	51.77	-27.8	-28.7	16.0	9.94e-04	0	44	102	1048576	15	3999
2026-01-26 01:15:01.31	298.01	51.77	-28.2	-29.1	15.7	0.00e+00	0	44	102	1048576	16	3992
2026-01-26 01:15:04.46	295.88	51.73	-28.7	-29.9	15.0	0.00e+00	0	44	102	1048576	17	4132
2026-01-26 01:15:07.32	293.96	51.66	-28.9	-29.7	14.9	4.61e-04	0	44	102	1048576	18	3972
2026-01-26 01:15:10.49	291.84	51.54	-28.8	-30.1	14.9	8.09e-04	0	44	102	1048576	17	4176
2026-01-26 01:15:13.36	289.94	51.39	-29.3	-30.8	14.1	1.33e-03	0	44	102	1048576	18	4305
2026-01-26 01:15:16.52	287.86	51.20	-29.3	-30.9	14.2	1.01e-03	0	44	102	1048576	18	4337
2026-01-26 01:15:19.38	286.01	50.99	-28.3	-28.4	15.6	1.81e-04	0	44	102	1048576	18	3617
2026-01-26 01:15:22.54	284.00	50.72	-29.4	-31.2	14.0	7.00e-07	0	44	102	1048576	18	4427
2026-01-26 01:15:25.42	282.20	50.45	-29.2	-30.2	14.3	1.06e-05	0	44	102	1048576	19	4016
2026-01-26 01:15:28.59	280.26	50.12	-29.6	-30.9	13.9	5.30e-06	0	44	102	1048576	19	4222
2026-01-26 01:15:31.46	278.54	49.79	-30.0	-31.5	13.2	2.14e-03	0	44	102	1048576	20	4311
2026-01-26 01:15:34.62	276.69	49.40	-30.3	-32.4	12.7	1.77e-03	0	44	102	1048576	20	4598
2026-01-26 01:15:37.49	275.05	49.02	-31.2	-34.2	10.7	7.78e-04	0	44	102	1048576	22	5127
2026-01-26 01:15:40.66	273.28	48.58	-30.2	-31.7	12.7	5.09e-04	0	44	102	1048576	21	4280
2026-01-26 01:15:43.53	271.73	48.16	-29.7	-31.3	13.8	3.80e-06	0	44	102	1048576	19	4308
2026-01-26 01:15:46.69	270.07	47.68	-30.6	-32.9	12.0	1.90e-04	0	44	102	1048576	21	4688
2026-01-26 01:15:49.56	268.61	47.22	-30.5	-32.6	12.2	3.91e-04	0	44	102	1048576	21	4574
2026-01-26 01:15:52.72	267.05	46.70	-30.4	-32.9	12.2	3.59e-04	0	44	102	1048576	20	4752
2026-01-26 01:15:55.59	265.68	46.21	-30.5	-32.7	12.2	9.68e-05	0	44	102	1048576	21	4589
2026-01-26 01:15:58.74	264.22	45.67	-31.7	-34.7	10.2	7.04e-03	0	44	102	1048576	23	5109
2026-01-26 01:16:01.62	262.93	45.16	-31.8	-35.3	9.8	3.12e-03	0	44	102	1048576	23	5398
2026-01-26 01:16:04.77	261.57	44.59	-31.4	-33.8	10.8	6.07e-03	0	44	102	1048576	23	4779
2026-01-26 01:16:07.64	260.37	44.06	-31.8	-35.4	9.5	1.44e-02	0	44	102	1048576	23	5405
2026-01-26 01:16:10.80	259.10	43.47	-30.9	-32.9	11.8	1.14e-03	0	44	102	1048576	22	4543
2026-01-26 01:16:13.67	257.98	42.94	-30.4	-31.9	12.8	3.12e-05	0	44	102	1048576	21	4300
2026-01-26 01:16:16.83	256.80	42.34	-30.7	-32.8	12.3	1.77e-04	0	44	102	1048576	21	4573
2026-01-26 01:16:19.70	255.76	41.79	-31.5	-34.3	10.5	4.39e-03	0	44	102	1048576	23	4960
2026-01-26 01:16:22.86	254.65	41.19	-31.7	-35.1	9.8	1.24e-02	0	44	102	1048576	23	5294
2026-01-26 01:16:25.72	253.69	40.64	-31.0	-33.1	11.7	4.61e-04	0	44	102	1048576	22	4616
2026-01-26 01:16:28.88	252.66	40.03	-30.9	-33.5	11.7	6.20e-04	0	44	102	1048576	21	4836
2026-01-26 01:16:31.75	251.76	39.48	-31.0	-33.4	11.6	1.66e-03	0	44	102	1048576	22	4736
2026-01-26 01:16:34.91	250.80	38.88	-30.5	-32.1	12.6	5.40e-04	0	44	102	1048576	21	4368
2026-01-26 01:16:37.78	249.96	38.33	-32.0	-36.1	9.0	1.22e-02	0	44	102	1048576	23	5774
2026-01-26 01:16:40.94	249.07	37.73	-32.3	-37.1	7.7	1.07e-01	0	44	102	1048576	24	6268
2026-01-26 01:16:43.81	248.29	37.19	-32.3	-37.1	7.8	6.81e-02	0	44	102	1048576	24	6269
2026-01-26 01:16:46.97	247.45	36.59	-31.7	-34.6	9.8	2.53e-02	0	44	102	1048576	24	5044
2026-01-26 01:16:49.83	246.73	36.06	-31.0	-33.3	11.4	1.07e-03	0	44	102	1048576	22	4699
2026-01-26 01:16:52.99	245.95	35.47	-30.5	-32.3	12.5	1.16e-04	0	44	102	1048576	21	4429
2026-01-26 01:16:55.87	245.27	34.94	-31.0	-33.4	11.4	2.36e-03	0	44	102	1048576	22	4712
2026-01-26 01:16:59.02	244.55	34.37	-31.9	-35.9	9.2	1.43e-02	0	44	102	1048576	23	5704
2026-01-26 01:17:01.89	243.91	33.85	-32.0	-35.7	8.8	4.12e-02	0	44	102	1048576	24	5521
2026-01-26 01:17:05.05	243.24	33.28	-31.9	-35.5	9.0	9.98e-03	0	44	102	1048576	24	5426
2026-01-26 01:17:07.92	242.64	32.77	-30.7	-32.5	12.0	7.79e-04	0	44	102	1048576	22	4411
2026-01-26 01:17:11.07	242.01	32.22	-30.2	-32.0	12.9	3.66e-05	0	44	102	1048576	20	4432
2026-01-26 01:17:13.94	241.45	31.72	-31.5	-34.7	10.0	4.64e-03	0	44	102	1048576	23	5156
2026-01-26 01:17:17.08	240.87	31.18	-31.0	-33.3	10.8	3.78e-03	0	44	102	1048576	22	4715
2026-01-26 01:17:19.96	240.34	30.69	-29.7	-30.6	13.8	6.10e-06	0	44	102	1048576	20	3998
2026-01-26 01:17:23.12	239.79	30.16	-30.1	-31.7	13.1	2.05e-05	0	44	102	1048576	20	4331
2026-01-26 01:17:26.00	239.29	29.69	-31.0	-33.5	11.2	1.21e-03	0	44	102	1048576	22	4772
2026-01-26 01:17:29.16	238.77	29.17	-31.1	-33.8	10.9	3.79e-03	0	44	102	1048576	22	4880
2026-01-26 01:17:32.02	238.31	28.71	-30.2	-32.2	12.7	2.01e-04	0	44	102	1048576	20	4510
2026-01-26 01:17:35.17	237.82	28.21	-30.1	-31.8	12.9	6.33e-05	0	44	102	1048576	20	4398
2026-01-26 01:17:38.05	237.39	27.75	-30.3	-32.5	12.5	9.30e-05	0	44	102	1048576	20	4611
2026-01-26 01:17:41.20	236.93	27.26	-29.7	-31.1	13.8	2.16e-03	0	44	102	1048576	19	4239
2026-01-26 01:17:44.07	236.52	26.82	-30.0	-31.9	13.3	5.67e-04	0	44	102	1048576	19	4486
2026-01-26 01:17:47.23	236.08	26.34	-30.5	-32.4	12.2	3.60e-04	0	44	102	1048576	21	4488
2026-01-26 01:17:50.10	235.70	25.91	-31.3	-34.5	10.3	4.07e-03	0	44	102	1048576	22	5218
2026-01-26 01:17:53.26	235.29	25.45	-31.4	-34.8	10.0	6.72e-03	0	44	102	1048576	22	5332
2026-01-26 01:17:56.14	234.92	25.03	-30.6	-32.9	11.7	8.24e-04	0	44	102	1048576	21	4693
2026-01-26 01:17:59.29	234.53	24.58	-30.5	-32.4	12.1	2.95e-04	0	44	102	1048576	21	4503
2026-01-26 01:18:02.16	234.19	24.17	-30.0	-31.6	12.9	1.90e-03	0	44	102	1048576	20	4349
2026-01-26 01:18:05.32	233.82	23.73	-30.3	-32.5	12.3	1.39e-03	0	44	102	1048576	20	4652
2026-01-26 01:18:08.19	233.50	23.33	-30.6	-32.9	11.7	1.19e-03	0	44	102	1048576	21	4689
2026-01-26 01:18:11.35	233.15	22.90	-30.2	-32.3	12.4	6.99e-04	0	44	102	1048576	20	4573
2026-01-26 01:18:14.23	232.84	22.51	-30.1	-31.9	12.6	9.68e-05	0	44	102	1048576	20	4449
2026-01-26 01:18:17.39	232.51	22.09	-30.3	-32.7	12.1	1.98e-04	0	44	102	1048576	20	4735
2026-01-26 01:18:20.26	232.22	21.72	-30.5	-32.8	11.7	3.17e-03	0	44	102	1048576	21	4676
2026-01-26 01:18:23.41	231.90	21.31	-30.3	-32.5	12.3	2.08e-04	0	44	102	1048576	20	4644
2026-01-26 01:18:26.28	231.63	20.95	-30.4	-32.8	12.0	3.74e-03	0	44	102	1048576	20	4761
2026-01-26 01:18:29.44	231.33	20.55	-30.5	-32.9	11.5	7.27e-04	0	44	102	1048576	21	4710
2026-01-26 01:18:32.31	231.06	20.19	-30.7	-33.4	11.2	8.70e-04	0	44	102	1048576	21	4919
2026-01-26 01:18:35.46	230.78	19.81	-30.2	-31.9	12.1	4.57e-04	0	44	102	1048576	21	4385
2026-01-26 01:18:38.33	230.53	19.46	-29.9	-32.0	12.9	4.42e-05	0	44	102	1048576	19	4559
2026-01-26 01:18:41.48	230.26	19.08	-30.2	-32.3	11.5	1.69e-04	0	44	102	1048576	20	4587
2026-01-26 01:18:44.35	230.02	18.74	-29.8	-31.6	13.1	4.27e-05	0	44	102	1048576	19	4458
2026-01-26 01:18:47.51	229.76	18.38	-29.9	-32.0	12.8	4.73e-05	0	44	102	1048576	19	4593
2026-01-26 01:18:50.37	229.54	18.05	-30.1	-32.1	12.2	2.30e-04	0	44	102	1048576	20	4524
2026-01-26 01:18:53.53	229.29	17.69	-30.3	-32.6	12.0	2.48e-03	0	44	102	1048576	20	4694
2026-01-26 01:18:56.41	229.07	17.36	-30.2	-32.3	11.4	2.90e-04	0	44	102	1048576	20	4620
2026-01-26 01:18:59.57	228.84	17.01	-29.9	-32.1	12.7	2.21e-03	0	44	102	1048576	19	4604
2026-01-26 01:19:02.45	228.63	16.70	-29.7	-31.5	13.0	6.71e-05	0	44	102	1048576	19	4430
2026-01-26 01:19:05.60	228.41	16.36	-29.5	-31.0	13.4	6.10e-06	0	44	102	1048576	19	4247
2026-01-26 01:19:08.47	228.21	16.05	-29.5	-30.9	13.4	2.37e-03	0	44	102	1048576	19	4223
2026-01-26 01:19:11.63	227.99	15.72	-29.8	-31.6	12.9	2.84e-03	0	44	102	1048576	19	4472
2026-01-26 01:19:14.49	227.80	15.42	-30.1	-32.2	12.1	2.93e-03	0	44	102	1048576	20	4574
2026-01-26 01:19:17.65	227.60	15.09	-30.5	-32.9	11.3	4.02e-03	0	44	102	1048576	21	4739
2026-01-26 01:19:20.51	227.42	14.80	-30.5	-33.0	11.1	1.39e-03	0	44	102	1048576	21	4793
2026-01-26 01:19:23.67	227.22	14.48	-30.5	-33.0	11.1	4.24e-03	0	44	102	1048576	21	4782
2026-01-26 01:19:26.53	227.05	14.20	-30.7	-33.7	10.6	5.51e-03	0	44	102	1048576	21	5083
2026-01-26 01:19:29.66	226.86	13.89	-30.3	-32.9	11.5	3.18e-03	0	44	102	1048576	20	4843
2026-01-26 01:19:32.54	226.69	13.61	-30.3	-32.9	11.5	3.29e-03	0	44	102	1048576	20	4848
2026-01-26 01:19:35.70	226.51	13.30	-30.3	-33.1	11.3	3.61e-03	0	44	102	1048576	20	4922
2026-01-26 01:19:38.57	226.35	13.03	-30.5	-33.2	10.8	4.18e-03	0	44	102	1048576	21	4903
2026-01-26 01:19:41.74	226.18	12.73	-30.5	-33.2	10.8	1.75e-03	0	44	102	1048576	21	4875
2026-01-26 01:19:44.61	226.02	12.46	-30.7	-33.9	10.3	5.91e-03	0	44	102	1048576	21	5176
2026-01-26 01:19:47.77	225.85	12.17	-30.7	-33.8	10.3	4.55e-03	0	44	102	1048576	21	5150
2026-01-26 01:19:50.65	225.71	11.91	-30.8	-34.2	10.0	8.21e-03	0	44	102	1048576	21	5297
2026-01-26 01:19:53.81	225.55	11.62	-30.3	-33.1	11.2	1.52e-03	0	44	102	1048576	20	4940
2026-01-26 01:19:56.67	225.40	11.37	-30.3	-33.0	11.3	3.09e-03	0	44	102	1048576	20	4926
2026-01-26 01:19:59.82	225.25	11.09	-30.0	-32.2	11.8	7.64e-04	0	44	102	1048576	20	4603
2026-01-26 01:20:02.68	225.11	10.84	-30.1	-32.3	11.7	7.58e-04	0	44	102	1048576	20	4655
2026-01-26 01:20:05.84	224.96	10.56	-30.2	-32.7	11.3	1.14e-03	0	44	102	1048576	20	4813
2026-01-26 01:20:08.71	224.83	10.32	-30.2	-32.9	11.1	1.51e-03	0	44	102	1048576	20	4905
2026-01-26 01:20:11.86	224.69	10.05	-30.4	-33.3	10.8	2.52e-03	0	44	102	1048576	20	5071
2026-01-26 01:20:14.72	224.56	9.81	-30.3	-33.1	11.0	2.26e-03	0	44	102	1048576	20	4998
2026-01-26 01:20:17.87	224.42	9.55	-30.5	-33.5	10.3	4.19e-03	0	44	102	1048576	21	5045
2026-01-26 01:20:20.73	224.30	9.31	-30.6	-33.6	10.2	5.64e-03	0	44	102	1048576	21	5114
2026-01-26 01:20:23.88	224.17	9.05	-30.7	-34.1	9.8	9.49e-03	0	44	102	1048576	21	5326
2026-01-26 01:20:26.75	224.05	8.82	-30.8	-34.4	9.6	1.09e-02	0	44	102	1048576	21	5463
2026-01-26 01:20:29.90	223.92	8.56	-30.8	-34.6	9.4	1.31e-02	0	44	102	1048576	21	5543
2026-01-26 01:20:32.78	223.81	8.33	-31.0	-35.3	8.8	2.02e-02	0	44	102	1048576	21	5932
2026-01-26 01:20:35.93	223.69	8.09	-30.7	-34.3	9.5	1.46e-02	0	44	102	1048576	21	5441
2026-01-26 01:20:38.81	223.57	7.86	-30.6	-33.8	9.9	9.26e-03	0	44	102	1048576	21	5213
2026-01-26 01:20:41.96	223.45	7.62	-30.7	-34.3	9.4	1.13e-02	0	44	102	1048576	21	5433
2026-01-26 01:20:44.83	223.35	7.40	-30.5	-33.7	9.8	9.72e-03	0	44	102	1048576	21	5194
2026-01-26 01:20:47.98	223.23	7.15	-30.6	-33.9	9.6	1.11e-02	0	44	102	1048576	21	5309
2026-01-26 01:20:50.85	223.13	6.94	-32.9	-45.5	3.8	1.49e+00	0	44	104	1048576	25	15432

#Closed at: 2026-01-26 01:20:52
#Recorded file [1 MB]: D:/data/31010_260126_040910.dat