passes_logs/2026/01/26/R2M6_AANII_01/R2M6_AANII_01__20260126_002635_FENGYUN_3D_rec.log

#Pass ID: 20260126_002635_FENGYUN 3D
#Satellite: FENGYUN 3D
#Configuration: FENGYUN 3D
#almurnet v.1.7.20240730
#Start time: 2026-01-26 00:26:36

#Version: 2.2.20231116
#Station: R2M6_AANII_01
#Location: 30.233357 lon 59.946436 lat
#TLE: 1 43010U 17072A   26025.50461972  .00000046  00000+0  43592-4 0  9990
#TLE: 2 43010  98.9962 357.4844 0002523  89.7890 270.3575 14.19699798424744

#Time	Az	El	Level	Level2	SNR	BER	BlckErr	Temp	State	Recorded	gain1	gain2
2026-01-26 00:26:36.87	35.75	7.07	-29.2	-32.3	5.4	7.61e-01	0	42	0	0	18	5193
2026-01-26 00:26:39.88	36.11	7.23	-30.2	-34.5	8.0	8.99e-02	0	42	102	1048576	20	5872
2026-01-26 00:26:42.88	36.46	7.39	-30.3	-34.7	7.8	4.59e-02	0	42	102	1048576	20	6002
2026-01-26 00:26:45.88	36.82	7.55	-29.7	-33.1	9.4	2.24e-02	0	42	102	1048576	19	5359
2026-01-26 00:26:48.89	37.19	7.71	-29.8	-33.5	9.2	2.39e-02	0	42	102	1048576	19	5511
2026-01-26 00:26:51.90	37.55	7.87	-28.2	-30.1	12.1	9.74e-04	0	42	102	1048576	17	4514
2026-01-26 00:26:54.91	37.93	8.03	-27.1	-28.7	13.4	3.34e-04	0	42	102	1048576	15	4305
2026-01-26 00:26:57.92	38.30	8.20	-26.9	-28.1	13.8	9.49e-05	0	42	102	1048576	15	4144
2026-01-26 00:27:00.93	38.68	8.36	-26.3	-27.7	14.7	5.95e-05	0	42	102	1048576	13	4231
2026-01-26 00:27:03.94	39.07	8.52	-26.4	-27.9	14.5	3.40e-06	0	42	102	1048576	13	4294
2026-01-26 00:27:06.95	39.46	8.68	-26.4	-28.0	14.5	1.12e-04	0	42	102	1048576	13	4313
2026-01-26 00:27:09.97	39.85	8.84	-26.3	-27.8	14.6	2.10e-04	0	42	102	1048576	13	4262
2026-01-26 00:27:12.98	40.25	9.00	-26.4	-28.0	14.5	2.20e-06	0	43	102	1048576	13	4322
2026-01-26 00:27:15.98	40.65	9.16	-26.0	-27.1	15.1	0.00e+00	0	42	102	1048576	13	4071
2026-01-26 00:27:18.97	41.05	9.32	-26.0	-27.0	15.2	0.00e+00	0	42	102	1048576	13	4036
2026-01-26 00:27:21.99	41.46	9.48	-25.9	-26.8	15.3	0.00e+00	0	43	102	1048576	13	3988
2026-01-26 00:27:25.01	41.88	9.64	-25.9	-27.2	15.4	0.00e+00	0	43	102	1048576	12	4209
2026-01-26 00:27:28.02	42.30	9.80	-25.9	-27.2	15.4	0.00e+00	0	43	102	1048576	12	4203
2026-01-26 00:27:31.03	42.72	9.96	-25.9	-27.3	15.3	0.00e+00	0	43	102	1048576	12	4225
2026-01-26 00:27:34.03	43.15	10.12	-26.0	-27.4	15.3	0.00e+00	0	43	102	1048576	12	4251
2026-01-26 00:27:37.03	43.58	10.28	-25.6	-26.6	15.7	0.00e+00	0	43	102	1048576	12	4053
2026-01-26 00:27:40.05	44.01	10.44	-25.8	-27.0	15.5	0.00e+00	0	43	102	1048576	12	4133
2026-01-26 00:27:43.07	44.46	10.60	-25.8	-27.0	15.5	0.00e+00	0	43	102	1048576	12	4147
2026-01-26 00:27:46.08	44.90	10.76	-25.8	-27.0	15.5	0.00e+00	0	43	102	1048576	12	4133
2026-01-26 00:27:49.10	45.35	10.91	-25.8	-27.1	15.5	0.00e+00	0	43	102	1048576	12	4166
2026-01-26 00:27:52.11	45.81	11.07	-25.7	-26.7	15.7	0.00e+00	0	43	102	1048576	12	4078
2026-01-26 00:27:55.12	46.27	11.23	-25.4	-26.2	16.0	0.00e+00	0	43	102	1048576	12	3933
2026-01-26 00:27:58.13	46.73	11.38	-25.4	-26.3	16.0	0.00e+00	0	43	102	1048576	12	3957
2026-01-26 00:28:01.13	47.20	11.54	-25.5	-26.8	16.1	0.00e+00	0	43	102	1048576	11	4184
2026-01-26 00:28:04.15	47.68	11.69	-25.6	-27.0	15.9	0.00e+00	0	43	102	1048576	11	4255
2026-01-26 00:28:07.15	48.16	11.84	-25.4	-26.6	16.2	0.00e+00	0	43	102	1048576	11	4128
2026-01-26 00:28:10.16	48.64	12.00	-25.5	-26.8	16.1	0.00e+00	0	43	102	1048576	11	4184
2026-01-26 00:28:13.17	49.13	12.15	-25.4	-26.1	16.2	0.00e+00	0	43	102	1048576	12	3922
2026-01-26 00:28:16.18	49.62	12.30	-25.4	-26.7	16.3	0.00e+00	0	43	102	1048576	11	4166
2026-01-26 00:28:19.18	50.12	12.45	-25.3	-26.5	16.4	0.00e+00	0	43	102	1048576	11	4109
2026-01-26 00:28:22.19	50.62	12.59	-25.2	-26.3	16.5	0.00e+00	0	43	102	1048576	11	4047
2026-01-26 00:28:25.21	51.14	12.74	-25.2	-26.2	16.6	0.00e+00	0	43	102	1048576	11	4032
2026-01-26 00:28:28.21	51.65	12.89	-25.2	-26.1	16.6	0.00e+00	0	43	102	1048576	11	4012
2026-01-26 00:28:31.23	52.17	13.03	-25.2	-26.1	16.6	0.00e+00	0	43	102	1048576	11	4018
2026-01-26 00:28:34.24	52.69	13.18	-25.1	-25.9	16.8	0.00e+00	0	43	102	1048576	11	3947
2026-01-26 00:28:37.26	53.22	13.32	-25.1	-26.0	16.7	0.00e+00	0	44	102	1048576	11	3986
2026-01-26 00:28:40.28	53.76	13.46	-25.3	-26.9	16.5	0.00e+00	0	44	102	1048576	10	4327
2026-01-26 00:28:43.30	54.30	13.60	-25.1	-26.5	16.7	0.00e+00	0	43	102	1048576	10	4217
2026-01-26 00:28:46.31	54.84	13.74	-25.2	-26.6	16.7	0.00e+00	0	44	102	1048576	10	4233
2026-01-26 00:28:49.32	55.39	13.88	-24.9	-26.1	17.0	0.00e+00	0	43	102	1048576	10	4110
2026-01-26 00:28:52.34	55.94	14.01	-24.9	-26.0	17.0	0.00e+00	0	44	102	1048576	10	4088
2026-01-26 00:28:55.36	56.51	14.14	-24.9	-26.0	17.0	0.00e+00	0	44	102	1048576	10	4095
2026-01-26 00:28:58.37	57.07	14.28	-25.1	-26.5	16.8	0.00e+00	0	43	102	1048576	10	4219
2026-01-26 00:29:01.38	57.64	14.41	-25.2	-26.6	16.7	0.00e+00	0	44	102	1048576	10	4252
2026-01-26 00:29:04.39	58.21	14.53	-25.2	-26.6	16.7	0.00e+00	0	44	102	1048576	10	4238
2026-01-26 00:29:07.41	58.79	14.66	-25.1	-26.5	16.8	0.00e+00	0	44	102	1048576	10	4205
2026-01-26 00:29:10.42	59.37	14.78	-25.0	-26.2	16.9	0.00e+00	0	44	102	1048576	10	4139
2026-01-26 00:29:13.43	59.96	14.90	-25.0	-26.3	16.9	0.00e+00	0	43	102	1048576	10	4168
2026-01-26 00:29:16.44	60.55	15.02	-25.1	-26.5	16.8	0.00e+00	0	44	102	1048576	10	4215
2026-01-26 00:29:19.45	61.15	15.14	-24.6	-25.3	17.5	0.00e+00	0	44	102	1048576	10	3911
2026-01-26 00:29:22.46	61.75	15.25	-24.6	-25.3	17.5	0.00e+00	0	44	102	1048576	10	3898
2026-01-26 00:29:25.47	62.35	15.37	-24.6	-25.3	17.4	0.00e+00	0	44	102	1048576	10	3922
2026-01-26 00:29:28.48	62.96	15.48	-24.6	-25.9	17.4	0.00e+00	0	44	102	1048576	9	4166
2026-01-26 00:29:31.47	63.57	15.58	-24.5	-25.6	17.5	0.00e+00	0	44	102	1048576	9	4096
2026-01-26 00:29:34.49	64.20	15.69	-24.5	-25.6	14.6	0.00e+00	0	44	102	1048576	9	4082
2026-01-26 00:29:37.51	64.82	15.79	-24.6	-25.9	17.4	0.00e+00	0	44	102	1048576	9	4176
2026-01-26 00:29:40.51	65.45	15.89	-24.8	-26.3	17.2	0.00e+00	0	44	102	1048576	9	4264
2026-01-26 00:29:43.53	66.08	15.98	-24.9	-26.5	17.1	4.36e-04	0	44	102	1048576	9	4315
2026-01-26 00:29:46.55	66.72	16.08	-24.5	-25.5	17.6	2.88e-04	0	44	102	1048576	9	4073
2026-01-26 00:29:49.56	67.35	16.17	-24.5	-25.7	17.5	0.00e+00	0	44	102	1048576	9	4115
2026-01-26 00:29:52.58	68.00	16.25	-24.6	-25.8	17.4	3.90e-04	0	44	102	1048576	9	4146
2026-01-26 00:29:55.59	68.64	16.34	-24.4	-25.5	17.6	3.47e-04	0	44	102	1048576	9	4063
2026-01-26 00:29:58.60	69.29	16.42	-24.3	-25.2	17.7	1.91e-04	0	44	102	1048576	9	4000
2026-01-26 00:30:01.60	69.95	16.50	-24.3	-25.2	17.8	1.22e-04	0	44	102	1048576	9	3991
2026-01-26 00:30:04.61	70.60	16.57	-24.7	-26.0	17.3	1.43e-04	0	44	102	1048576	9	4208
2026-01-26 00:30:07.63	71.26	16.64	-24.5	-25.6	17.6	2.88e-04	0	44	102	1048576	9	4105
2026-01-26 00:30:10.65	71.93	16.71	-24.3	-25.1	17.8	0.00e+00	0	44	102	1048576	9	3979
2026-01-26 00:30:13.66	72.59	16.77	-24.2	-25.1	17.9	0.00e+00	0	44	102	1048576	9	3964
2026-01-26 00:30:16.68	73.26	16.83	-24.2	-25.0	17.9	1.94e-04	0	44	102	1048576	9	3941
2026-01-26 00:30:19.69	73.93	16.89	-24.1	-24.9	17.8	0.00e+00	0	44	102	1048576	9	3935
2026-01-26 00:30:22.69	74.61	16.94	-24.1	-24.9	17.8	0.00e+00	0	44	102	1048576	9	3930
2026-01-26 00:30:25.70	75.28	16.99	-24.3	-25.2	17.6	0.00e+00	0	44	102	1048576	9	4014
2026-01-26 00:30:28.71	75.96	17.04	-24.1	-24.8	17.9	0.00e+00	0	44	102	1048576	9	3914
2026-01-26 00:30:31.72	76.64	17.08	-24.1	-24.8	17.8	0.00e+00	0	44	102	1048576	9	3919
2026-01-26 00:30:34.73	77.32	17.12	-24.1	-24.9	17.8	0.00e+00	0	44	102	1048576	9	3938
2026-01-26 00:30:37.74	78.00	17.15	-24.1	-24.9	17.8	0.00e+00	0	44	102	1048576	9	3946
2026-01-26 00:30:40.74	78.68	17.18	-24.2	-25.1	17.7	0.00e+00	0	44	102	1048576	9	4000
2026-01-26 00:30:43.76	79.37	17.21	-24.2	-25.0	17.7	0.00e+00	0	44	102	1048576	9	3965
2026-01-26 00:30:46.78	80.06	17.23	-24.2	-25.1	17.7	0.00e+00	0	44	102	1048576	9	3981
2026-01-26 00:30:49.79	80.75	17.25	-24.2	-25.1	17.7	0.00e+00	0	44	102	1048576	9	3983
2026-01-26 00:30:52.80	81.44	17.27	-24.3	-25.7	17.6	0.00e+00	0	44	102	1048576	8	4249
2026-01-26 00:30:55.82	82.13	17.28	-24.1	-25.3	17.8	0.00e+00	0	44	102	1048576	8	4154
2026-01-26 00:30:58.84	82.82	17.28	-24.4	-26.0	17.5	0.00e+00	0	44	102	1048576	8	4333
2026-01-26 00:31:01.86	83.51	17.29	-24.6	-25.9	17.3	0.00e+00	0	44	102	1048576	9	4187
2026-01-26 00:31:04.88	84.21	17.29	-24.5	-25.7	17.4	0.00e+00	0	44	102	1048576	9	4150
2026-01-26 00:31:07.89	84.90	17.28	-24.6	-25.9	17.3	0.00e+00	0	44	102	1048576	9	4199
2026-01-26 00:31:10.90	85.59	17.27	-24.4	-25.6	17.4	0.00e+00	0	44	102	1048576	9	4111
2026-01-26 00:31:13.91	86.28	17.26	-24.1	-24.8	17.9	0.00e+00	0	44	102	1048576	9	3903
2026-01-26 00:31:16.93	86.97	17.24	-24.2	-25.0	17.8	0.00e+00	0	44	102	1048576	9	3954
2026-01-26 00:31:19.94	87.66	17.22	-24.2	-25.2	17.6	2.23e-04	0	44	102	1048576	9	4012
2026-01-26 00:31:22.94	88.34	17.20	-24.4	-25.4	17.5	1.03e-04	0	44	102	1048576	9	4076
2026-01-26 00:31:25.95	89.03	17.17	-24.5	-25.8	17.3	0.00e+00	0	44	102	1048576	9	4174
2026-01-26 00:31:28.96	89.71	17.14	-24.6	-26.0	17.2	1.02e-05	0	44	102	1048576	9	4228
2026-01-26 00:31:31.97	90.39	17.10	-24.6	-26.0	17.2	4.50e-06	0	44	102	1048576	9	4204
2026-01-26 00:31:35.00	91.08	17.06	-24.8	-26.3	17.0	6.80e-06	0	44	102	1048576	9	4309
2026-01-26 00:31:38.01	91.76	17.02	-24.8	-25.8	17.0	6.29e-05	0	44	102	1048576	10	4068
2026-01-26 00:31:41.03	92.44	16.97	-24.7	-25.7	17.1	0.00e+00	0	44	102	1048576	10	4030
2026-01-26 00:31:44.03	93.11	16.92	-24.5	-25.2	17.3	4.80e-05	0	44	102	1048576	10	3912
2026-01-26 00:31:47.03	93.78	16.86	-24.4	-25.6	17.4	0.00e+00	0	44	102	1048576	9	4102
2026-01-26 00:31:50.05	94.46	16.80	-24.4	-25.6	17.3	0.00e+00	0	44	102	1048576	9	4108
2026-01-26 00:31:53.05	95.12	16.74	-24.6	-26.1	17.1	0.00e+00	0	44	102	1048576	9	4240
2026-01-26 00:31:56.07	95.79	16.67	-24.7	-26.1	17.1	1.33e-04	0	44	102	1048576	9	4245
2026-01-26 00:31:59.08	96.45	16.61	-24.6	-26.0	17.1	0.00e+00	0	44	102	1048576	9	4234
2026-01-26 00:32:02.09	97.11	16.53	-24.7	-26.2	17.0	0.00e+00	0	44	102	1048576	9	4276
2026-01-26 00:32:05.10	97.77	16.46	-24.4	-25.6	17.3	0.00e+00	0	44	102	1048576	9	4113
2026-01-26 00:32:08.12	98.42	16.38	-24.4	-25.6	17.3	0.00e+00	0	44	102	1048576	9	4111
2026-01-26 00:32:11.13	99.07	16.29	-24.6	-25.9	17.2	0.00e+00	0	44	102	1048576	9	4184
2026-01-26 00:32:14.14	99.72	16.21	-24.5	-25.7	17.2	0.00e+00	0	44	102	1048576	9	4134
2026-01-26 00:32:17.15	100.36	16.12	-24.6	-26.0	17.0	0.00e+00	0	44	102	1048576	9	4230
2026-01-26 00:32:20.15	101.00	16.03	-24.5	-25.8	17.2	0.00e+00	0	44	102	1048576	9	4171
2026-01-26 00:32:23.17	101.64	15.93	-24.6	-26.0	17.1	0.00e+00	0	44	102	1048576	9	4218
2026-01-26 00:32:26.18	102.27	15.84	-24.6	-26.0	17.1	0.00e+00	0	44	102	1048576	9	4214
2026-01-26 00:32:29.19	102.89	15.73	-24.7	-26.2	16.9	0.00e+00	0	44	102	1048576	9	4281
2026-01-26 00:32:32.20	103.52	15.63	-24.8	-26.5	16.8	0.00e+00	0	44	102	1048576	9	4346
2026-01-26 00:32:35.20	104.13	15.53	-24.8	-26.4	16.8	0.00e+00	0	44	102	1048576	9	4340
2026-01-26 00:32:38.22	104.75	15.42	-24.8	-26.4	16.9	0.00e+00	0	44	102	1048576	9	4330
2026-01-26 00:32:41.24	105.36	15.30	-24.9	-26.7	16.6	0.00e+00	0	44	102	1048576	9	4421
2026-01-26 00:32:44.25	105.97	15.19	-25.0	-26.2	16.7	0.00e+00	0	44	102	1048576	10	4177
2026-01-26 00:32:47.25	106.57	15.07	-24.9	-26.6	16.7	0.00e+00	0	44	102	1048576	9	4383
2026-01-26 00:32:50.26	107.16	14.96	-24.7	-26.2	16.9	0.00e+00	0	44	102	1048576	9	4285
2026-01-26 00:32:53.28	107.76	14.83	-24.8	-26.4	16.8	0.00e+00	0	44	102	1048576	9	4326
2026-01-26 00:32:56.29	108.34	14.71	-24.9	-26.5	16.7	0.00e+00	0	44	102	1048576	9	4354
2026-01-26 00:32:59.30	108.93	14.59	-24.9	-26.1	16.8	0.00e+00	0	44	102	1048576	10	4124
2026-01-26 00:33:02.31	109.51	14.46	-24.9	-26.1	16.7	0.00e+00	0	44	102	1048576	10	4128
2026-01-26 00:33:05.32	110.08	14.33	-25.1	-26.5	16.5	0.00e+00	0	44	102	1048576	10	4231
2026-01-26 00:33:08.33	110.65	14.20	-25.1	-26.6	16.4	6.80e-06	0	44	102	1048576	10	4280
2026-01-26 00:33:11.33	111.21	14.07	-25.2	-26.8	16.4	4.50e-06	0	44	102	1048576	10	4320
2026-01-26 00:33:14.35	111.77	13.93	-25.1	-26.6	16.4	0.00e+00	0	44	102	1048576	10	4274
2026-01-26 00:33:17.36	112.32	13.79	-25.2	-26.7	16.4	1.10e-06	0	44	102	1048576	10	4300
2026-01-26 00:33:20.38	112.87	13.65	-25.1	-26.7	16.4	6.80e-06	0	44	102	1048576	10	4283
2026-01-26 00:33:23.39	113.41	13.51	-25.2	-26.7	16.4	3.40e-06	0	44	102	1048576	10	4307
2026-01-26 00:33:26.40	113.95	13.37	-25.4	-27.2	16.1	1.10e-06	0	44	102	1048576	10	4435
2026-01-26 00:33:29.41	114.49	13.23	-25.6	-27.0	15.9	0.00e+00	0	44	102	1048576	11	4271
2026-01-26 00:33:32.42	115.01	13.09	-25.7	-27.4	15.7	2.20e-06	0	44	102	1048576	11	4365
2026-01-26 00:33:35.43	115.54	12.94	-25.7	-27.4	15.6	0.00e+00	0	44	102	1048576	11	4379
2026-01-26 00:33:38.45	116.06	12.79	-25.8	-27.7	15.5	1.10e-06	0	44	102	1048576	11	4461
2026-01-26 00:33:41.46	116.57	12.64	-25.7	-27.4	15.6	4.50e-06	0	44	102	1048576	11	4384
2026-01-26 00:33:44.47	117.08	12.50	-25.6	-27.2	15.8	0.00e+00	0	44	102	1048576	11	4317
2026-01-26 00:33:47.49	117.59	12.34	-25.6	-27.1	15.8	0.00e+00	0	44	102	1048576	11	4290
2026-01-26 00:33:50.50	118.08	12.19	-25.7	-27.3	15.7	0.00e+00	0	44	102	1048576	11	4345
2026-01-26 00:33:53.51	118.58	12.04	-25.7	-27.5	15.6	0.00e+00	0	44	102	1048576	11	4397
2026-01-26 00:33:56.52	119.07	11.89	-25.7	-27.4	15.6	0.00e+00	0	44	102	1048576	11	4382
2026-01-26 00:33:59.54	119.55	11.73	-25.7	-27.4	15.6	0.00e+00	0	44	102	1048576	11	4370
2026-01-26 00:34:02.56	120.03	11.58	-25.8	-27.6	15.5	0.00e+00	0	44	102	1048576	11	4427
2026-01-26 00:34:05.57	120.51	11.42	-25.9	-27.4	15.3	0.00e+00	0	44	102	1048576	12	4266
2026-01-26 00:34:08.59	120.98	11.26	-26.0	-27.6	15.1	0.00e+00	0	44	102	1048576	12	4318
2026-01-26 00:34:11.60	121.44	11.11	-26.0	-27.6	15.1	0.00e+00	0	44	102	1048576	12	4328
2026-01-26 00:34:14.62	121.90	10.95	-26.1	-27.8	15.0	0.00e+00	0	44	102	1048576	12	4370
2026-01-26 00:34:17.63	122.36	10.79	-25.9	-27.3	15.3	1.26e-04	0	44	102	1048576	12	4235
2026-01-26 00:34:20.65	122.81	10.63	-26.0	-27.5	15.1	0.00e+00	0	44	102	1048576	12	4288
2026-01-26 00:34:23.66	123.25	10.47	-26.0	-27.5	15.1	1.10e-06	0	44	102	1048576	12	4292
2026-01-26 00:34:26.67	123.69	10.31	-25.8	-27.2	15.2	6.52e-05	0	44	102	1048576	12	4226
2026-01-26 00:34:29.69	124.13	10.15	-26.0	-27.7	15.0	2.01e-04	0	44	102	1048576	12	4350
2026-01-26 00:34:32.70	124.56	9.99	-26.2	-28.0	14.8	1.85e-04	0	44	102	1048576	12	4441
2026-01-26 00:34:35.71	124.99	9.83	-25.9	-27.4	15.1	1.10e-06	0	44	102	1048576	12	4264
2026-01-26 00:34:38.74	125.41	9.67	-26.0	-27.6	15.0	1.46e-04	0	44	102	1048576	12	4332
2026-01-26 00:34:41.76	125.83	9.50	-26.3	-28.2	14.6	2.28e-05	0	44	102	1048576	12	4496
2026-01-26 00:34:44.77	126.24	9.34	-26.3	-28.2	14.6	0.00e+00	0	44	102	1048576	12	4513
2026-01-26 00:34:47.78	126.65	9.18	-26.5	-28.7	14.3	7.16e-04	0	44	102	1048576	12	4637
2026-01-26 00:34:50.79	127.06	9.02	-26.5	-28.3	14.3	8.96e-04	0	44	102	1048576	13	4427
2026-01-26 00:34:53.82	127.46	8.85	-26.4	-28.6	14.3	1.10e-06	0	44	102	1048576	12	4619
2026-01-26 00:34:56.83	127.86	8.69	-26.7	-28.7	14.0	2.20e-06	0	44	102	1048576	13	4524
2026-01-26 00:34:59.83	128.25	8.53	-26.5	-28.3	14.2	4.47e-04	0	44	102	1048576	13	4426
2026-01-26 00:35:02.84	128.63	8.37	-26.6	-28.5	14.1	4.50e-06	0	44	102	1048576	13	4488
2026-01-26 00:35:05.86	129.02	8.20	-26.7	-28.7	13.9	6.80e-06	0	44	102	1048576	13	4533
2026-01-26 00:35:08.87	129.40	8.04	-26.8	-29.0	13.7	5.70e-06	0	44	102	1048576	13	4638
2026-01-26 00:35:11.88	129.77	7.88	-26.9	-29.2	13.6	9.10e-06	0	44	102	1048576	13	4706
2026-01-26 00:35:14.90	130.14	7.71	-26.9	-29.3	13.5	1.71e-05	0	44	102	1048576	13	4729
2026-01-26 00:35:17.92	130.51	7.55	-26.7	-28.8	13.8	6.80e-06	0	44	102	1048576	13	4585
2026-01-26 00:35:20.92	130.87	7.39	-26.8	-29.1	13.6	1.71e-05	0	44	102	1048576	13	4654
2026-01-26 00:35:23.94	131.23	7.23	-26.9	-28.8	13.5	1.71e-05	0	44	102	1048576	14	4458
2026-01-26 00:35:26.96	131.59	7.06	-27.3	-29.7	12.8	6.17e-05	0	44	102	1048576	14	4756

#Closed at: 2026-01-26 00:35:29
#Recorded file [1 MB]: D:/data/31010_260126_032638.dat