passes_logs/2026/01/26/R2M6_AANII_01/R2M6_AANII_01__20260126_034640_FENGYUN_3D_rec.log

#Pass ID: 20260126_034640_FENGYUN 3D
#Satellite: FENGYUN 3D
#Configuration: FENGYUN 3D
#almurnet v.1.7.20240730
#Start time: 2026-01-26 03:46:40

#Version: 2.2.20231116
#Station: R2M6_AANII_01
#Location: 30.233357 lon 59.946436 lat
#TLE: 1 43010U 17072A   26025.50461972  .00000046  00000+0  43592-4 0  9990
#TLE: 2 43010  98.9962 357.4844 0002523  89.7890 270.3575 14.19699798424744

#Time	Az	El	Level	Level2	SNR	BER	BlckErr	Temp	State	Recorded	gain1	gain2
2026-01-26 03:46:40.27	12.98	6.98	-29.7	-33.3	5.2	7.90e-01	0	41	0	0	19	5495
2026-01-26 03:46:43.28	12.78	7.19	-29.6	-33.2	9.2	2.76e-02	0	41	102	1048576	19	5389
2026-01-26 03:46:46.29	12.59	7.40	-29.6	-32.9	9.4	1.70e-02	0	42	102	1048576	19	5284
2026-01-26 03:46:49.30	12.39	7.62	-28.8	-31.6	11.0	1.97e-03	0	42	102	1048576	17	5009
2026-01-26 03:46:52.32	12.19	7.84	-28.1	-30.3	12.2	6.51e-04	0	42	102	1048576	16	4682
2026-01-26 03:46:55.32	11.98	8.06	-27.8	-30.3	12.4	2.81e-03	0	42	102	1048576	15	4787
2026-01-26 03:46:58.34	11.77	8.28	-27.5	-29.6	12.9	3.54e-05	0	42	102	1048576	15	4558
2026-01-26 03:47:01.36	11.56	8.50	-27.2	-29.2	13.4	3.24e-04	0	42	102	1048576	14	4543
2026-01-26 03:47:04.37	11.34	8.72	-27.1	-29.1	13.5	3.32e-04	0	42	102	1048576	14	4532
2026-01-26 03:47:07.38	11.13	8.95	-26.5	-28.2	14.3	2.20e-06	0	42	102	1048576	13	4365
2026-01-26 03:47:10.39	10.90	9.18	-26.5	-28.1	14.4	3.40e-06	0	42	102	1048576	13	4340
2026-01-26 03:47:13.40	10.68	9.41	-26.6	-28.4	14.3	0.00e+00	0	43	102	1048576	13	4433
2026-01-26 03:47:16.42	10.45	9.64	-26.9	-29.0	14.0	1.10e-06	0	42	102	1048576	13	4596
2026-01-26 03:47:19.43	10.21	9.87	-26.7	-28.6	14.2	1.10e-06	0	43	102	1048576	13	4480
2026-01-26 03:47:22.45	9.97	10.10	-26.6	-28.5	14.3	0.00e+00	0	43	102	1048576	13	4438
2026-01-26 03:47:25.47	9.73	10.34	-26.4	-28.4	14.6	0.00e+00	0	43	102	1048576	12	4523
2026-01-26 03:47:28.47	9.48	10.58	-26.2	-28.0	14.8	0.00e+00	0	43	102	1048576	12	4430
2026-01-26 03:47:31.48	9.23	10.82	-26.1	-27.8	15.0	0.00e+00	0	43	102	1048576	12	4360
2026-01-26 03:47:34.49	8.98	11.06	-26.8	-28.4	14.1	4.50e-06	0	43	102	1048576	14	4304
2026-01-26 03:47:37.51	8.72	11.30	-26.7	-28.5	14.3	0.00e+00	0	43	102	1048576	13	4459
2026-01-26 03:47:40.52	8.46	11.54	-26.7	-28.4	14.2	1.10e-06	0	43	102	1048576	13	4396
2026-01-26 03:47:43.52	8.19	11.79	-26.4	-28.4	14.7	0.00e+00	0	43	102	1048576	12	4542
2026-01-26 03:47:46.54	7.92	12.04	-25.9	-27.7	15.4	0.00e+00	0	43	102	1048576	11	4437
2026-01-26 03:47:49.55	7.64	12.29	-25.8	-27.5	15.5	0.00e+00	0	43	102	1048576	11	4398
2026-01-26 03:47:52.56	7.35	12.54	-25.9	-27.8	15.4	0.00e+00	0	43	102	1048576	11	4463
2026-01-26 03:47:55.58	7.07	12.79	-25.8	-27.4	15.6	0.00e+00	0	43	102	1048576	11	4366
2026-01-26 03:47:58.58	6.77	13.05	-25.5	-26.9	16.0	1.45e-03	0	43	102	1048576	11	4214
2026-01-26 03:48:01.60	6.47	13.31	-25.6	-27.0	15.9	1.62e-03	0	43	102	1048576	11	4245
2026-01-26 03:48:04.61	6.17	13.57	-25.5	-26.8	16.0	0.00e+00	0	43	102	1048576	11	4195
2026-01-26 03:48:07.63	5.86	13.83	-25.8	-27.6	15.6	1.74e-03	0	43	102	1048576	11	4395
2026-01-26 03:48:10.64	5.54	14.09	-26.0	-27.9	15.5	1.62e-03	0	43	102	1048576	11	4479
2026-01-26 03:48:13.65	5.22	14.36	-25.6	-27.0	16.0	1.53e-03	0	43	102	1048576	11	4251
2026-01-26 03:48:16.66	4.90	14.63	-25.7	-27.2	15.9	1.57e-03	0	43	102	1048576	11	4306
2026-01-26 03:48:19.67	4.56	14.90	-25.4	-27.2	16.2	1.56e-03	0	43	102	1048576	10	4403
2026-01-26 03:48:22.70	4.22	15.17	-25.3	-27.0	16.3	1.57e-03	0	43	102	1048576	10	4353
2026-01-26 03:48:25.70	3.88	15.44	-25.3	-27.0	16.3	0.00e+00	0	43	102	1048576	10	4346
2026-01-26 03:48:28.72	3.52	15.72	-25.1	-26.5	16.6	0.00e+00	0	43	102	1048576	10	4237
2026-01-26 03:48:31.73	3.16	16.00	-25.2	-26.6	16.5	1.62e-03	0	44	102	1048576	10	4238
2026-01-26 03:48:34.75	2.80	16.28	-24.8	-26.4	16.9	0.00e+00	0	43	102	1048576	9	4301
2026-01-26 03:48:37.74	2.42	16.56	-24.9	-26.5	16.9	0.00e+00	0	43	102	1048576	9	4336
2026-01-26 03:48:40.76	2.04	16.84	-25.0	-26.2	16.8	0.00e+00	0	43	102	1048576	10	4149
2026-01-26 03:48:43.77	1.65	17.13	-25.0	-26.3	16.8	0.00e+00	0	44	102	1048576	10	4166
2026-01-26 03:48:46.78	1.26	17.41	-25.1	-26.5	16.7	0.00e+00	0	44	102	1048576	10	4212
2026-01-26 03:48:49.80	0.85	17.70	-24.9	-25.9	17.0	0.00e+00	0	44	102	1048576	10	4076
2026-01-26 03:48:52.81	0.44	17.99	-24.6	-25.9	17.2	0.00e+00	0	44	102	1048576	9	4184
2026-01-26 03:48:55.83	0.02	18.29	-24.6	-25.9	17.2	0.00e+00	0	43	102	1048576	9	4181
2026-01-26 03:48:58.85	359.59	18.58	-24.6	-25.8	17.3	0.00e+00	0	44	102	1048576	9	4161
2026-01-26 03:49:01.87	359.15	18.88	-24.5	-25.7	17.4	0.00e+00	0	44	102	1048576	9	4111
2026-01-26 03:49:04.89	358.70	19.18	-24.2	-25.6	17.7	0.00e+00	0	44	102	1048576	8	4204
2026-01-26 03:49:07.89	358.25	19.48	-24.2	-25.6	17.7	0.00e+00	0	44	102	1048576	8	4211
2026-01-26 03:49:10.90	357.79	19.78	-24.3	-25.6	17.7	0.00e+00	0	44	102	1048576	8	4221
2026-01-26 03:49:13.92	357.31	20.09	-24.3	-25.7	17.7	0.00e+00	0	44	102	1048576	8	4237
2026-01-26 03:49:16.94	356.83	20.39	-24.1	-25.3	17.9	3.07e-04	0	44	102	1048576	8	4125
2026-01-26 03:49:19.95	356.33	20.70	-24.4	-25.9	17.6	0.00e+00	0	44	102	1048576	8	4276
2026-01-26 03:49:22.96	355.83	21.01	-24.3	-25.7	17.7	0.00e+00	0	44	102	1048576	8	4248
2026-01-26 03:49:25.98	355.31	21.32	-24.5	-25.7	17.5	4.86e-04	0	44	102	1048576	9	4122
2026-01-26 03:49:29.00	354.79	21.63	-24.4	-26.0	17.6	2.69e-04	0	44	102	1048576	8	4305
2026-01-26 03:49:32.03	354.25	21.95	-23.7	-24.9	18.4	0.00e+00	0	44	102	1048576	7	4149
2026-01-26 03:49:35.05	353.70	22.26	-23.6	-24.7	18.5	5.07e-04	0	44	102	1048576	7	4086
2026-01-26 03:49:38.06	353.14	22.57	-23.6	-24.8	18.5	4.26e-04	0	44	102	1048576	7	4127
2026-01-26 03:49:41.06	352.57	22.89	-23.6	-24.7	18.5	1.30e-04	0	44	102	1048576	7	4107
2026-01-26 03:49:44.07	351.99	23.20	-23.5	-24.6	18.6	6.29e-05	0	44	102	1048576	7	4068
2026-01-26 03:49:47.09	351.39	23.52	-23.4	-24.2	18.8	0.00e+00	0	44	102	1048576	7	3968
2026-01-26 03:49:50.10	350.79	23.84	-23.4	-24.3	18.8	9.84e-05	0	44	102	1048576	7	3985
2026-01-26 03:49:53.11	350.17	24.16	-23.6	-24.6	18.6	1.43e-04	0	44	102	1048576	7	4072
2026-01-26 03:49:56.13	349.54	24.47	-23.5	-24.6	18.6	2.32e-04	0	44	102	1048576	7	4070
2026-01-26 03:49:59.14	348.89	24.79	-23.3	-24.6	18.9	2.71e-04	0	44	102	1048576	6	4174
2026-01-26 03:50:02.16	348.23	25.11	-23.3	-24.6	18.9	0.00e+00	0	44	102	1048576	6	4169
2026-01-26 03:50:05.17	347.56	25.43	-23.1	-24.2	19.1	0.00e+00	0	44	102	1048576	6	4086
2026-01-26 03:50:08.19	346.87	25.74	-23.2	-24.5	19.0	0.00e+00	0	44	102	1048576	6	4143
2026-01-26 03:50:11.20	346.17	26.06	-23.3	-24.7	18.9	0.00e+00	0	44	102	1048576	6	4191
2026-01-26 03:50:14.21	345.46	26.37	-23.1	-23.7	19.1	0.00e+00	0	44	102	1048576	7	3853
2026-01-26 03:50:17.21	344.73	26.68	-23.1	-24.2	19.2	0.00e+00	0	44	102	1048576	6	4072
2026-01-26 03:50:20.23	343.99	27.00	-23.3	-24.6	18.9	0.00e+00	0	44	102	1048576	6	4187
2026-01-26 03:50:23.24	343.23	27.31	-22.7	-23.4	19.6	0.00e+00	0	44	102	1048576	6	3883
2026-01-26 03:50:26.26	342.46	27.61	-22.6	-23.6	19.7	0.00e+00	0	44	102	1048576	5	4043
2026-01-26 03:50:29.26	341.67	27.92	-22.7	-23.8	19.7	0.00e+00	0	44	102	1048576	5	4081
2026-01-26 03:50:32.27	340.87	28.22	-22.9	-24.2	19.4	0.00e+00	0	44	102	1048576	5	4189
2026-01-26 03:50:35.29	340.05	28.52	-22.9	-23.8	19.0	0.00e+00	0	44	102	1048576	6	3992
2026-01-26 03:50:38.31	339.21	28.81	-22.8	-23.9	19.6	0.00e+00	0	44	102	1048576	5	4128
2026-01-26 03:50:41.32	338.36	29.11	-22.7	-23.8	19.7	0.00e+00	0	44	102	1048576	5	4083
2026-01-26 03:50:44.33	337.50	29.39	-22.7	-23.8	19.7	5.62e-04	0	44	102	1048576	5	4085
2026-01-26 03:50:47.34	336.62	29.67	-22.9	-23.8	19.4	3.01e-04	0	44	102	1048576	6	3990
2026-01-26 03:50:50.34	335.72	29.95	-22.7	-23.8	19.6	0.00e+00	0	44	102	1048576	5	4102
2026-01-26 03:50:53.35	334.81	30.22	-22.7	-23.7	19.7	6.40e-05	0	44	102	1048576	5	4075
2026-01-26 03:50:56.37	333.88	30.49	-22.5	-23.5	19.8	1.03e-04	0	44	102	1048576	5	4018
2026-01-26 03:50:59.37	332.94	30.75	-22.4	-23.6	20.0	1.46e-04	0	44	102	1048576	4	4158
2026-01-26 03:51:02.37	331.99	31.00	-22.4	-23.6	20.0	9.51e-04	0	44	102	1048576	4	4160
2026-01-26 03:51:05.39	331.01	31.25	-22.3	-23.5	20.1	2.82e-04	0	44	102	1048576	4	4132
2026-01-26 03:51:08.40	330.02	31.49	-22.2	-23.2	20.2	1.52e-04	0	44	102	1048576	4	4066
2026-01-26 03:51:11.41	329.02	31.72	-22.1	-23.0	20.3	1.10e-03	0	44	102	1048576	4	4011
2026-01-26 03:51:14.43	328.00	31.94	-22.1	-23.0	20.3	9.77e-04	0	44	102	1048576	4	4010
2026-01-26 03:51:17.45	326.97	32.16	-22.0	-22.8	20.4	1.66e-04	0	44	102	1048576	4	3965
2026-01-26 03:51:20.46	325.92	32.36	-22.2	-23.2	20.2	1.23e-03	0	44	102	1048576	4	4064
2026-01-26 03:51:23.46	324.87	32.56	-22.3	-23.6	20.0	1.12e-03	0	44	102	1048576	4	4147
2026-01-26 03:51:26.47	323.80	32.74	-22.3	-23.6	20.1	1.29e-03	0	44	102	1048576	4	4151
2026-01-26 03:51:29.49	322.72	32.92	-22.1	-23.1	20.3	9.86e-04	0	44	102	1048576	4	4028
2026-01-26 03:51:32.51	321.62	33.08	-22.2	-23.3	20.2	8.63e-04	0	44	102	1048576	4	4091
2026-01-26 03:51:35.53	320.51	33.24	-22.1	-23.0	20.3	1.02e-03	0	44	102	1048576	4	4013
2026-01-26 03:51:38.53	319.40	33.38	-21.6	-22.1	20.8	0.00e+00	0	44	102	1048576	4	3793
2026-01-26 03:51:41.55	318.27	33.51	-21.8	-22.9	20.6	9.28e-04	0	44	102	1048576	3	4104
2026-01-26 03:51:44.58	317.13	33.63	-21.8	-23.0	20.7	1.14e-03	0	44	102	1048576	3	4113
2026-01-26 03:51:47.58	315.99	33.73	-21.8	-22.4	20.6	0.00e+00	0	44	102	1048576	4	3868
2026-01-26 03:51:50.59	314.85	33.82	-21.9	-23.2	20.5	0.00e+00	0	44	102	1048576	3	4177
2026-01-26 03:51:53.60	313.69	33.90	-21.9	-23.1	20.6	7.92e-04	0	44	102	1048576	3	4139
2026-01-26 03:51:56.62	312.53	33.97	-22.1	-23.1	20.3	0.00e+00	0	44	102	1048576	4	4040
2026-01-26 03:51:59.63	311.37	34.02	-22.1	-23.1	20.3	0.00e+00	0	44	102	1048576	4	4024
2026-01-26 03:52:02.65	310.20	34.06	-21.9	-22.6	20.6	0.00e+00	0	44	102	1048576	4	3912
2026-01-26 03:52:05.66	309.03	34.09	-21.7	-22.7	20.8	0.00e+00	0	44	102	1048576	3	4042
2026-01-26 03:52:08.66	307.86	34.10	-21.9	-23.2	20.5	0.00e+00	0	44	102	1048576	3	4179
2026-01-26 03:52:11.68	306.68	34.10	-21.9	-22.7	20.5	0.00e+00	0	44	102	1048576	4	3929
2026-01-26 03:52:14.70	305.51	34.09	-21.8	-23.0	20.7	0.00e+00	0	44	102	1048576	3	4115
2026-01-26 03:52:17.71	304.34	34.06	-21.6	-22.6	20.8	0.00e+00	0	44	102	1048576	3	4025
2026-01-26 03:52:20.72	303.17	34.02	-21.8	-22.5	20.6	0.00e+00	0	44	102	1048576	4	3891
2026-01-26 03:52:23.73	302.01	33.96	-21.9	-22.7	20.5	0.00e+00	0	44	102	1048576	4	3934
2026-01-26 03:52:26.74	300.85	33.89	-22.0	-22.9	20.4	0.00e+00	0	44	102	1048576	4	3987
2026-01-26 03:52:29.75	299.70	33.81	-21.8	-22.5	20.6	0.00e+00	0	44	102	1048576	4	3894
2026-01-26 03:52:32.77	298.54	33.72	-21.7	-22.2	20.7	0.00e+00	0	44	102	1048576	4	3828
2026-01-26 03:52:35.79	297.40	33.61	-21.6	-22.5	20.9	0.00e+00	0	44	102	1048576	3	4000
2026-01-26 03:52:38.81	296.26	33.49	-21.4	-22.2	21.0	0.00e+00	0	44	102	1048576	3	3926
2026-01-26 03:52:41.81	295.14	33.36	-21.7	-22.8	20.7	0.00e+00	0	44	102	1048576	3	4071
2026-01-26 03:52:44.82	294.03	33.22	-21.9	-23.1	20.5	0.00e+00	0	44	102	1048576	3	4156
2026-01-26 03:52:47.84	292.92	33.06	-21.9	-23.2	20.5	1.22e-03	0	44	102	1048576	3	4182
2026-01-26 03:52:50.86	291.82	32.90	-21.9	-23.1	20.6	0.00e+00	0	44	102	1048576	3	4142
2026-01-26 03:52:53.87	290.74	32.72	-21.9	-23.1	20.6	0.00e+00	0	44	102	1048576	3	4146
2026-01-26 03:52:56.88	289.67	32.53	-21.9	-23.3	20.5	1.30e-03	0	44	102	1048576	3	4187
2026-01-26 03:52:59.90	288.61	32.33	-21.9	-23.2	20.5	1.00e-03	0	44	102	1048576	3	4172
2026-01-26 03:53:02.91	287.56	32.13	-22.0	-23.3	20.5	0.00e+00	0	44	102	1048576	3	4194
2026-01-26 03:53:05.93	286.53	31.91	-22.1	-23.0	20.3	1.04e-03	0	44	102	1048576	4	4017
2026-01-26 03:53:08.95	285.51	31.69	-21.9	-22.6	20.5	6.00e-04	0	44	102	1048576	4	3922
2026-01-26 03:53:11.97	284.50	31.45	-21.8	-22.4	20.5	3.25e-04	0	44	102	1048576	4	3874
2026-01-26 03:53:14.98	283.51	31.21	-21.8	-22.5	20.5	8.83e-04	0	44	102	1048576	4	3888
2026-01-26 03:53:17.98	282.54	30.96	-22.0	-22.8	20.3	6.73e-04	0	44	102	1048576	4	3963
2026-01-26 03:53:20.98	281.59	30.71	-22.3	-23.4	20.0	8.97e-04	0	44	102	1048576	4	4116
2026-01-26 03:53:23.99	280.65	30.45	-22.4	-23.8	19.8	0.00e+00	0	44	102	1048576	4	4208
2026-01-26 03:53:27.00	279.72	30.18	-21.9	-22.6	20.4	1.21e-03	0	44	102	1048576	4	3923
2026-01-26 03:53:30.01	278.81	29.91	-22.2	-23.3	20.1	1.08e-03	0	44	102	1048576	4	4094
2026-01-26 03:53:33.03	277.91	29.63	-22.3	-23.5	20.0	0.00e+00	0	44	102	1048576	4	4134
2026-01-26 03:53:36.03	277.03	29.34	-22.4	-23.6	19.9	0.00e+00	0	44	102	1048576	4	4155
2026-01-26 03:53:39.04	276.16	29.06	-22.4	-23.2	19.9	6.99e-04	0	44	102	1048576	5	3940
2026-01-26 03:53:42.05	275.31	28.76	-22.3	-23.0	20.0	0.00e+00	0	44	102	1048576	5	3911
2026-01-26 03:53:45.05	274.48	28.47	-22.3	-23.1	19.9	0.00e+00	0	44	102	1048576	5	3916
2026-01-26 03:53:48.06	273.66	28.17	-22.1	-23.1	20.1	0.00e+00	0	44	102	1048576	4	4037
2026-01-26 03:53:51.07	272.86	27.86	-22.2	-23.3	20.0	0.00e+00	0	44	102	1048576	4	4093
2026-01-26 03:53:54.08	272.07	27.56	-22.4	-23.7	19.8	1.94e-05	0	44	102	1048576	4	4194
2026-01-26 03:53:57.10	271.30	27.25	-22.8	-24.1	19.4	5.70e-06	0	44	102	1048576	5	4160
2026-01-26 03:54:00.12	270.54	26.94	-22.9	-24.2	19.3	0.00e+00	0	44	102	1048576	5	4192
2026-01-26 03:54:03.13	269.79	26.63	-22.8	-24.0	19.4	0.00e+00	0	44	102	1048576	5	4133
2026-01-26 03:54:06.13	269.07	26.31	-22.5	-23.4	19.7	2.35e-04	0	44	102	1048576	5	4001
2026-01-26 03:54:09.13	268.35	26.00	-22.6	-23.6	19.6	0.00e+00	0	44	102	1048576	5	4044
2026-01-26 03:54:12.15	267.65	25.68	-22.8	-24.1	19.4	1.65e-04	0	44	102	1048576	5	4176
2026-01-26 03:54:15.17	266.96	25.36	-22.8	-24.0	19.4	0.00e+00	0	44	102	1048576	5	4150
2026-01-26 03:54:18.19	266.29	25.04	-22.7	-23.8	19.5	0.00e+00	0	44	102	1048576	5	4094
2026-01-26 03:54:21.20	265.63	24.72	-22.7	-23.9	19.4	0.00e+00	0	44	102	1048576	5	4123
2026-01-26 03:54:24.22	264.98	24.41	-23.0	-24.0	19.1	0.00e+00	0	44	102	1048576	6	4035
2026-01-26 03:54:27.24	264.35	24.09	-22.8	-23.5	19.1	0.00e+00	0	44	102	1048576	6	3906
2026-01-26 03:54:30.25	263.73	23.77	-22.8	-23.5	19.3	0.00e+00	0	44	102	1048576	6	3918
2026-01-26 03:54:33.26	263.12	23.45	-23.0	-24.0	19.1	1.61e-04	0	44	102	1048576	6	4038
2026-01-26 03:54:36.28	262.52	23.13	-23.0	-24.0	19.1	0.00e+00	0	44	102	1048576	6	4031
2026-01-26 03:54:39.29	261.94	22.81	-23.0	-23.9	19.1	0.00e+00	0	44	102	1048576	6	4008
2026-01-26 03:54:42.29	261.37	22.50	-22.8	-24.0	19.3	3.40e-06	0	44	102	1048576	5	4150
2026-01-26 03:54:45.31	260.81	22.18	-22.9	-24.3	19.1	0.00e+00	0	44	102	1048576	5	4234
2026-01-26 03:54:48.32	260.26	21.87	-23.0	-24.0	19.0	0.00e+00	0	44	102	1048576	6	4035
2026-01-26 03:54:51.34	259.72	21.55	-23.1	-24.1	19.0	3.40e-06	0	44	102	1048576	6	4062
2026-01-26 03:54:54.34	259.20	21.24	-23.2	-24.3	18.9	1.10e-06	0	44	102	1048576	6	4117
2026-01-26 03:54:57.35	258.68	20.93	-23.2	-24.3	18.9	1.02e-05	0	44	102	1048576	6	4123
2026-01-26 03:55:00.36	258.18	20.62	-23.0	-24.0	19.0	9.10e-06	0	44	102	1048576	6	4031
2026-01-26 03:55:03.37	257.68	20.31	-23.0	-24.1	18.8	2.27e-04	0	44	102	1048576	6	4047
2026-01-26 03:55:06.38	257.20	20.01	-23.2	-24.3	18.8	2.68e-04	0	44	102	1048576	6	4119
2026-01-26 03:55:09.39	256.72	19.70	-23.3	-24.6	18.7	1.65e-04	0	44	102	1048576	6	4184
2026-01-26 03:55:12.41	256.26	19.40	-23.5	-24.5	18.5	2.59e-04	0	44	102	1048576	7	4035
2026-01-26 03:55:15.40	255.80	19.10	-23.5	-24.6	18.4	2.56e-04	0	44	102	1048576	7	4070
2026-01-26 03:55:18.42	255.35	18.80	-23.7	-24.9	18.2	1.68e-04	0	44	102	1048576	7	4155
2026-01-26 03:55:21.42	254.92	18.50	-23.6	-24.7	18.3	5.86e-04	0	44	102	1048576	7	4090
2026-01-26 03:55:24.44	254.48	18.21	-23.8	-25.2	18.0	7.32e-04	0	44	102	1048576	7	4220
2026-01-26 03:55:27.46	254.06	17.91	-24.1	-25.3	17.8	8.18e-04	0	44	102	1048576	8	4131
2026-01-26 03:55:30.47	253.65	17.62	-24.1	-25.2	17.8	9.20e-04	0	44	102	1048576	8	4121
2026-01-26 03:55:33.46	253.25	17.33	-24.2	-25.5	17.6	1.02e-03	0	44	102	1048576	8	4183
2026-01-26 03:55:36.48	252.85	17.04	-24.4	-25.9	17.4	0.00e+00	0	44	102	1048576	8	4300
2026-01-26 03:55:39.50	252.46	16.75	-24.6	-26.0	17.1	7.26e-04	0	44	102	1048576	9	4204
2026-01-26 03:55:42.51	252.07	16.47	-24.7	-26.1	17.0	2.33e-04	0	44	102	1048576	9	4234
2026-01-26 03:55:45.52	251.70	16.19	-24.6	-26.0	17.0	0.00e+00	0	44	102	1048576	9	4197
2026-01-26 03:55:48.52	251.33	15.91	-25.0	-26.2	16.6	0.00e+00	0	44	102	1048576	10	4155
2026-01-26 03:55:51.54	250.97	15.63	-24.6	-25.8	17.1	0.00e+00	0	44	102	1048576	9	4167
2026-01-26 03:55:54.56	250.61	15.35	-24.7	-26.1	16.9	0.00e+00	0	44	102	1048576	9	4224
2026-01-26 03:55:57.57	250.26	15.08	-24.7	-26.0	16.9	0.00e+00	0	44	102	1048576	9	4205
2026-01-26 03:56:00.59	249.92	14.81	-24.9	-26.5	16.6	0.00e+00	0	44	102	1048576	9	4328
2026-01-26 03:56:03.60	249.59	14.54	-25.2	-26.6	16.3	0.00e+00	0	44	102	1048576	10	4265
2026-01-26 03:56:06.61	249.26	14.27	-25.5	-26.8	15.9	0.00e+00	0	44	102	1048576	11	4208
2026-01-26 03:56:09.63	248.93	14.00	-25.1	-26.4	11.4	0.00e+00	0	44	102	1048576	11	4189
2026-01-26 03:56:12.64	248.62	13.74	-25.4	-27.2	15.7	0.00e+00	0	44	102	1048576	10	4419
2026-01-26 03:56:15.66	248.30	13.47	-25.8	-27.6	15.4	0.00e+00	0	44	102	1048576	11	4424
2026-01-26 03:56:18.67	248.00	13.21	-25.3	-26.9	16.0	0.00e+00	0	44	102	1048576	10	4342
2026-01-26 03:56:21.69	247.70	12.95	-25.5	-27.3	15.8	1.96e-03	0	44	102	1048576	10	4461
2026-01-26 03:56:24.71	247.40	12.70	-25.3	-26.9	16.1	0.00e+00	0	44	102	1048576	10	4348
2026-01-26 03:56:27.72	247.11	12.44	-25.3	-27.0	16.0	0.00e+00	0	44	102	1048576	10	4377
2026-01-26 03:56:30.73	246.83	12.19	-25.2	-26.7	16.1	1.97e-03	0	44	102	1048576	10	4279
2026-01-26 03:56:33.74	246.55	11.94	-25.5	-26.9	15.7	1.99e-03	0	44	102	1048576	11	4230
2026-01-26 03:56:36.74	246.27	11.69	-25.4	-27.1	15.9	0.00e+00	0	44	102	1048576	10	4400
2026-01-26 03:56:39.76	246.00	11.44	-25.6	-27.2	15.5	1.93e-03	0	44	102	1048576	11	4315
2026-01-26 03:56:42.78	245.74	11.20	-26.0	-27.5	15.0	1.54e-03	0	44	102	1048576	12	4277
2026-01-26 03:56:45.79	245.48	10.95	-26.0	-27.5	14.9	0.00e+00	0	44	102	1048576	12	4301
2026-01-26 03:56:48.79	245.22	10.71	-26.0	-28.0	15.0	1.71e-03	0	44	102	1048576	11	4524
2026-01-26 03:56:51.81	244.97	10.47	-26.1	-27.7	14.8	2.16e-03	0	44	102	1048576	12	4332
2026-01-26 03:56:54.81	244.72	10.24	-26.1	-27.9	14.7	1.97e-03	0	44	102	1048576	12	4399
2026-01-26 03:56:57.83	244.47	10.00	-26.0	-27.6	14.8	0.00e+00	0	44	102	1048576	12	4318
2026-01-26 03:57:00.84	244.23	9.77	-26.2	-27.9	14.6	1.79e-03	0	44	102	1048576	12	4407
2026-01-26 03:57:03.85	244.00	9.53	-25.9	-27.8	15.0	0.00e+00	0	44	102	1048576	11	4489
2026-01-26 03:57:06.87	243.76	9.30	-25.8	-27.0	15.0	0.00e+00	0	44	102	1048576	12	4171
2026-01-26 03:57:09.88	243.54	9.07	-26.0	-27.5	14.8	0.00e+00	0	44	102	1048576	12	4305
2026-01-26 03:57:12.89	243.31	8.85	-25.9	-27.4	14.8	0.00e+00	0	44	102	1048576	12	4277
2026-01-26 03:57:15.90	243.09	8.62	-26.0	-27.5	14.7	0.00e+00	0	44	102	1048576	12	4316
2026-01-26 03:57:18.90	242.87	8.40	-25.9	-27.4	14.8	0.00e+00	0	44	102	1048576	12	4277
2026-01-26 03:57:21.90	242.66	8.17	-26.0	-27.7	14.6	0.00e+00	0	44	102	1048576	12	4363
2026-01-26 03:57:24.91	242.45	7.95	-26.0	-27.7	14.5	0.00e+00	0	44	102	1048576	12	4377
2026-01-26 03:57:27.92	242.24	7.73	-26.3	-28.2	14.1	1.10e-06	0	44	102	1048576	12	4530
2026-01-26 03:57:30.93	242.04	7.52	-26.3	-28.4	14.0	0.00e+00	0	44	102	1048576	12	4579
2026-01-26 03:57:33.94	241.84	7.30	-26.3	-27.9	14.1	2.20e-06	0	44	102	1048576	13	4310
2026-01-26 03:57:36.94	241.64	7.08	-26.6	-28.5	13.7	2.20e-06	0	44	102	1048576	13	4492

#Closed at: 2026-01-26 03:57:38
#Recorded file [1 MB]: D:/data/31010_260126_064642.dat