passes_logs/2026/01/26/R2M6_AANII_01/R2M6_AANII_01__20260126_233032_NOAA_20_JPSS-1_rec.log

#Pass ID: 20260126_233032_NOAA 20 (JPSS-1)
#Satellite: NOAA 20 (JPSS-1)
#Configuration: NOAA 20
#almurnet v.1.7.20240730
#Start time: 2026-01-26 23:30:34

#Version: 2.2.20231116
#Station: R2M6_AANII_01
#Location: 30.233357 lon 59.946436 lat
#TLE: 1 43013U 17073A   26026.46665230  .00000148  00000+0  91302-4 0  9998
#TLE: 2 43013  98.7646 327.2856 0001008  22.9532 337.1688 14.19540616424360

#Time	Az	El	Level	Level2	SNR	BER	BlckErr	Temp	State	Recorded	gain1	gain2
2026-01-26 23:30:34.60	23.31	7.15	-31.4	-37.7	5.1	1.25e+00	0	41	0	0	22	7427
2026-01-26 23:30:37.60	23.47	7.37	-31.8	-38.9	6.9	1.90e-01	0	41	0	1048576	23	8187
2026-01-26 23:30:40.61	23.62	7.60	-31.9	-39.6	6.4	2.65e-01	0	42	0	7340032	23	8743
2026-01-26 23:30:43.63	23.78	7.82	-31.5	-37.8	7.7	1.02e-01	0	42	0	12582912	23	7375
2026-01-26 23:30:46.63	23.94	8.05	-31.4	-37.6	8.3	5.44e-02	0	42	0	17825792	22	7365
2026-01-26 23:30:49.64	24.11	8.28	-31.3	-37.3	8.6	5.57e-02	0	42	0	24117248	22	7142
2026-01-26 23:30:52.63	24.27	8.51	-30.7	-35.4	10.4	6.79e-03	0	42	0	29360128	21	6181
2026-01-26 23:30:55.63	24.44	8.74	-30.5	-34.7	11.0	3.70e-03	0	42	0	35651584	21	5828
2026-01-26 23:30:58.65	24.61	8.97	-30.5	-34.5	11.2	3.57e-03	0	42	0	40894464	21	5733
2026-01-26 23:31:01.64	24.78	9.21	-30.4	-34.7	11.4	1.49e-03	0	42	0	46137344	20	5938
2026-01-26 23:31:04.66	24.96	9.45	-30.4	-34.8	11.3	1.67e-03	0	42	0	52428800	20	5977
2026-01-26 23:31:07.67	25.14	9.69	-30.2	-34.0	11.9	1.03e-03	0	42	0	57671680	20	5621
2026-01-26 23:31:10.68	25.32	9.93	-30.2	-34.2	11.9	1.24e-03	0	42	0	62914560	20	5674
2026-01-26 23:31:13.70	25.50	10.18	-30.0	-33.4	12.4	9.90e-04	0	42	0	69206016	20	5361
2026-01-26 23:31:16.71	25.69	10.42	-30.0	-33.4	12.4	8.80e-04	0	43	0	74448896	20	5336
2026-01-26 23:31:19.73	25.88	10.68	-30.0	-33.5	12.4	9.67e-04	0	42	0	80740352	20	5363
2026-01-26 23:31:22.73	26.07	10.93	-29.9	-33.3	12.5	1.03e-03	0	42	0	85983232	20	5304
2026-01-26 23:31:25.73	26.27	11.18	-30.0	-33.6	12.3	9.15e-04	0	43	0	91226112	20	5399
2026-01-26 23:31:28.74	26.47	11.44	-29.9	-33.5	12.8	5.34e-05	0	43	0	97517568	19	5471
2026-01-26 23:31:31.76	26.67	11.70	-29.9	-33.5	12.8	5.95e-05	0	43	0	102760448	19	5468
2026-01-26 23:31:34.78	26.88	11.96	-29.9	-33.5	12.9	1.39e-03	0	43	0	109051904	19	5453
2026-01-26 23:31:37.78	27.09	12.22	-30.1	-33.6	12.4	1.45e-03	0	43	0	114294784	20	5402
2026-01-26 23:31:40.80	27.30	12.49	-30.0	-33.4	12.6	1.51e-03	0	43	0	119537664	20	5303
2026-01-26 23:31:43.81	27.52	12.76	-29.9	-33.6	12.8	6.48e-05	0	43	0	125829120	19	5492
2026-01-26 23:31:46.82	27.74	13.03	-29.6	-32.8	13.4	1.29e-05	0	43	0	131072000	19	5179
2026-01-26 23:31:49.83	27.96	13.31	-29.6	-32.6	13.5	1.14e-05	0	43	0	136314880	19	5097
2026-01-26 23:31:52.83	28.19	13.58	-29.6	-32.7	13.5	1.22e-05	0	43	0	142606336	19	5134
2026-01-26 23:31:55.85	28.42	13.86	-29.6	-32.6	13.5	9.90e-06	0	43	0	147849216	19	5105
2026-01-26 23:31:58.85	28.66	14.15	-29.6	-32.6	13.5	6.80e-06	0	43	0	154140672	19	5111
2026-01-26 23:32:01.86	28.90	14.43	-29.6	-32.7	13.6	8.30e-06	0	43	0	159383552	19	5120
2026-01-26 23:32:04.87	29.14	14.72	-29.7	-33.0	13.3	9.10e-06	0	43	0	164626432	19	5241
2026-01-26 23:32:07.89	29.39	15.01	-29.9	-33.4	13.1	2.13e-05	0	43	0	170917888	19	5388
2026-01-26 23:32:10.90	29.65	15.31	-29.8	-33.2	13.2	1.29e-05	0	43	0	176160768	19	5314
2026-01-26 23:32:13.91	29.91	15.61	-30.2	-33.9	12.4	7.55e-05	0	43	0	182452224	20	5503
2026-01-26 23:32:16.90	30.17	15.91	-29.8	-33.1	13.3	2.28e-05	0	43	0	187695104	19	5286
2026-01-26 23:32:19.91	30.44	16.21	-29.9	-33.5	13.1	2.89e-05	0	43	0	192937984	19	5429
2026-01-26 23:32:22.93	30.71	16.52	-29.9	-33.0	13.0	4.04e-05	0	43	0	199229440	20	5122
2026-01-26 23:32:25.94	30.99	16.83	-30.1	-33.5	12.7	6.63e-05	0	43	0	204472320	20	5326
2026-01-26 23:32:28.95	31.28	17.15	-30.0	-33.1	13.0	5.72e-05	0	43	0	209715200	20	5168
2026-01-26 23:32:31.96	31.57	17.46	-30.1	-33.4	12.8	3.81e-05	0	43	0	216006656	20	5266
2026-01-26 23:32:34.97	31.87	17.79	-30.2	-33.8	12.6	8.31e-05	0	43	0	221249536	20	5460
2026-01-26 23:32:37.97	32.17	18.11	-29.9	-32.8	13.2	2.05e-05	0	43	0	227540992	20	5055
2026-01-26 23:32:40.99	32.48	18.44	-29.9	-33.3	13.3	8.30e-06	0	43	0	232783872	19	5351
2026-01-26 23:32:44.00	32.80	18.77	-29.6	-32.4	13.9	5.30e-06	0	43	0	238026752	19	5015
2026-01-26 23:32:47.00	33.12	19.11	-29.7	-32.9	13.7	5.30e-06	0	44	0	244318208	19	5170
2026-01-26 23:32:50.01	33.45	19.45	-29.6	-32.6	13.8	3.80e-06	0	43	0	249561088	19	5068
2026-01-26 23:32:53.03	33.79	19.79	-29.7	-32.7	13.8	2.20e-06	0	43	0	255852544	19	5099
2026-01-26 23:32:56.03	34.13	20.14	-29.7	-32.9	13.7	9.10e-06	0	43	0	261095424	19	5159
2026-01-26 23:32:59.05	34.48	20.49	-29.9	-33.4	13.4	7.60e-06	0	44	0	266338304	19	5371
2026-01-26 23:33:02.06	34.84	20.85	-30.1	-33.4	13.0	3.43e-05	0	44	0	272629760	20	5287
2026-01-26 23:33:05.07	35.21	21.21	-30.0	-33.2	13.1	4.65e-05	0	43	0	277872640	20	5171
2026-01-26 23:33:08.08	35.59	21.57	-30.2	-33.7	12.7	4.95e-05	0	44	0	283115520	20	5395
2026-01-26 23:33:11.10	35.98	21.94	-30.0	-33.0	13.3	1.90e-05	0	44	0	289406976	20	5103
2026-01-26 23:33:14.11	36.37	22.31	-30.0	-33.1	13.2	4.50e-05	0	43	0	294649856	20	5153
2026-01-26 23:33:17.11	36.77	22.69	-30.2	-33.5	12.9	4.57e-05	0	43	0	300941312	20	5310
2026-01-26 23:33:20.12	37.19	23.07	-29.9	-32.8	13.4	1.44e-05	0	44	0	306184192	20	5048
2026-01-26 23:33:23.13	37.61	23.45	-29.9	-32.8	13.5	1.29e-05	0	43	0	311427072	20	5013
2026-01-26 23:33:26.14	38.04	23.84	-30.0	-33.0	13.4	2.28e-05	0	44	0	317718528	20	5081
2026-01-26 23:33:29.15	38.49	24.23	-29.8	-32.4	13.7	3.80e-06	0	44	0	322961408	20	4882
2026-01-26 23:33:32.16	38.94	24.63	-29.8	-33.0	13.7	6.10e-06	0	44	0	329252864	19	5195
2026-01-26 23:33:35.16	39.40	25.03	-30.0	-33.0	13.3	9.90e-06	0	44	0	334495744	20	5107
2026-01-26 23:33:38.16	39.88	25.43	-30.2	-33.5	13.0	3.35e-05	0	43	0	339738624	20	5292
2026-01-26 23:33:41.17	40.37	25.84	-30.0	-33.0	13.4	9.10e-06	0	44	0	346030080	20	5101
2026-01-26 23:33:44.18	40.87	26.25	-30.2	-33.5	13.0	2.74e-05	0	44	0	351272960	20	5304
2026-01-26 23:33:47.18	41.39	26.67	-30.1	-33.2	13.3	1.83e-05	0	44	0	356515840	20	5171
2026-01-26 23:33:50.18	41.91	27.09	-30.0	-33.1	13.3	1.67e-05	0	44	0	362807296	20	5114
2026-01-26 23:33:53.18	42.45	27.52	-30.2	-33.7	13.0	3.12e-05	0	44	0	368050176	20	5357
2026-01-26 23:33:56.18	43.01	27.94	-30.4	-34.0	12.8	3.73e-05	0	44	0	373293056	20	5492
2026-01-26 23:33:59.20	43.58	28.38	-30.8	-34.7	12.0	2.61e-04	0	44	0	379584512	21	5674
2026-01-26 23:34:02.22	44.17	28.82	-30.8	-34.9	11.9	4.13e-04	0	44	0	384827392	21	5742
2026-01-26 23:34:05.22	44.77	29.26	-30.9	-35.2	11.7	8.54e-04	0	44	0	391118848	21	5858
2026-01-26 23:34:08.22	45.39	29.70	-31.0	-34.7	11.7	1.09e-03	0	44	0	396361728	22	5554
2026-01-26 23:34:11.23	46.03	30.15	-30.8	-34.7	12.1	5.93e-04	0	44	0	401604608	21	5630
2026-01-26 23:34:14.24	46.68	30.60	-30.8	-34.8	12.0	4.17e-04	0	44	0	407896064	21	5697
2026-01-26 23:34:17.25	47.35	31.06	-30.9	-35.1	11.8	5.20e-04	0	44	0	413138944	21	5843
2026-01-26 23:34:20.27	48.04	31.51	-30.8	-34.7	12.1	2.94e-04	0	44	0	419430400	21	5644
2026-01-26 23:34:23.28	48.75	31.97	-30.7	-34.5	12.2	2.54e-04	0	44	0	424673280	21	5566
2026-01-26 23:34:26.30	49.49	32.44	-30.7	-34.3	12.4	2.07e-04	0	44	0	429916160	21	5476
2026-01-26 23:34:29.30	50.24	32.90	-30.3	-33.3	13.1	2.44e-05	0	44	0	436207616	21	5062
2026-01-26 23:34:32.31	51.01	33.37	-30.3	-33.3	13.1	2.51e-04	0	44	0	441450496	21	5081
2026-01-26 23:34:35.32	51.80	33.83	-30.7	-34.3	12.4	9.15e-05	0	44	0	446693376	21	5450
2026-01-26 23:34:38.32	52.62	34.30	-30.6	-34.2	12.4	2.14e-04	0	44	0	452984832	21	5432
2026-01-26 23:34:41.34	53.46	34.77	-30.6	-34.0	12.6	8.92e-05	0	44	0	458227712	21	5343
2026-01-26 23:34:44.34	54.33	35.24	-30.2	-33.0	13.3	1.83e-04	0	44	0	464519168	21	4951
2026-01-26 23:34:47.35	55.22	35.71	-30.5	-33.8	12.8	1.61e-04	0	44	0	469762048	21	5261
2026-01-26 23:34:50.36	56.13	36.18	-30.6	-34.1	12.5	1.54e-04	0	44	0	475004928	21	5399
2026-01-26 23:34:53.37	57.07	36.64	-30.6	-34.1	12.6	1.20e-04	0	44	0	481296384	21	5387
2026-01-26 23:34:56.38	58.04	37.11	-30.5	-33.7	12.9	4.42e-05	0	44	0	486539264	21	5217
2026-01-26 23:34:59.38	59.04	37.57	-31.0	-35.1	11.9	2.66e-04	0	44	0	491782144	21	5811
2026-01-26 23:35:02.39	60.06	38.03	-31.2	-35.0	11.3	1.21e-03	0	44	0	498073600	23	5532
2026-01-26 23:35:05.40	61.11	38.48	-30.9	-33.9	12.2	2.95e-04	0	44	0	503316480	23	5077
2026-01-26 23:35:08.41	62.20	38.93	-31.2	-35.2	11.6	5.64e-04	0	44	0	509607936	22	5742
2026-01-26 23:35:11.43	63.31	39.38	-31.3	-35.7	11.3	1.06e-03	0	44	0	514850816	22	5935
2026-01-26 23:35:14.44	64.46	39.81	-31.2	-35.3	11.5	7.61e-04	0	44	0	520093696	22	5759
2026-01-26 23:35:17.45	65.63	40.24	-31.5	-35.7	10.8	3.34e-03	0	44	0	526385152	23	5869
2026-01-26 23:35:20.44	66.83	40.66	-31.3	-34.9	11.5	7.00e-04	0	44	0	531628032	23	5496
2026-01-26 23:35:23.45	68.06	41.08	-31.1	-34.3	11.9	3.87e-04	0	44	0	536870912	23	5237
2026-01-26 23:35:26.47	69.33	41.48	-31.7	-36.6	10.3	3.50e-03	0	44	0	543162368	23	6286
2026-01-26 23:35:29.49	70.63	41.87	-31.4	-35.2	11.2	1.45e-03	0	44	0	548405248	23	5613
2026-01-26 23:35:32.50	71.96	42.25	-31.4	-35.2	11.4	8.86e-04	0	44	0	554696704	23	5590
2026-01-26 23:35:35.50	73.32	42.61	-31.8	-36.8	10.2	5.55e-03	0	44	0	559939584	23	6361
2026-01-26 23:35:38.51	74.71	42.96	-31.3	-35.0	11.5	1.11e-03	0	44	0	565182464	23	5534
2026-01-26 23:35:41.53	76.13	43.30	-31.4	-35.3	11.3	9.23e-04	0	44	0	571473920	23	5643
2026-01-26 23:35:44.55	77.59	43.62	-31.3	-34.9	11.5	1.02e-03	0	44	0	576716800	23	5490
2026-01-26 23:35:47.56	79.06	43.92	-31.1	-34.4	11.9	6.16e-04	0	44	0	583008256	23	5265
2026-01-26 23:35:50.56	80.56	44.20	-31.0	-34.0	12.2	2.79e-04	0	44	0	588251136	23	5116
2026-01-26 23:35:53.57	82.09	44.46	-30.9	-33.8	12.3	2.81e-04	0	44	0	593494016	23	5015
2026-01-26 23:35:56.58	83.65	44.70	-31.2	-35.2	11.8	3.72e-04	0	44	0	599785472	22	5720
2026-01-26 23:35:59.59	85.22	44.92	-31.0	-34.7	12.1	3.09e-04	0	44	0	605028352	22	5468
2026-01-26 23:36:02.59	86.81	45.11	-31.0	-34.5	12.3	2.31e-04	0	44	0	610271232	22	5378
2026-01-26 23:36:05.60	88.43	45.28	-31.3	-35.5	11.6	7.77e-04	0	44	0	616562688	22	5820
2026-01-26 23:36:08.61	90.06	45.43	-31.0	-34.5	12.2	5.36e-04	0	44	0	621805568	22	5392
2026-01-26 23:36:11.61	91.70	45.55	-30.9	-34.3	12.4	1.14e-04	0	44	0	628097024	22	5301
2026-01-26 23:36:14.62	93.36	45.65	-31.0	-34.5	12.2	3.13e-04	0	44	0	633339904	22	5415
2026-01-26 23:36:17.64	95.03	45.72	-31.1	-35.0	11.8	8.63e-04	0	44	0	638582784	22	5616
2026-01-26 23:36:20.65	96.70	45.77	-30.1	-32.4	13.9	7.00e-07	0	44	0	644874240	21	4727
2026-01-26 23:36:23.65	98.37	45.79	-29.9	-32.1	14.1	2.44e-05	0	44	0	650117120	21	4617
2026-01-26 23:36:26.65	100.05	45.78	-30.1	-32.5	13.9	2.20e-06	0	44	0	656408576	21	4749
2026-01-26 23:36:29.65	101.72	45.75	-30.0	-32.8	14.0	5.56e-05	0	44	0	661651456	20	4953
2026-01-26 23:36:32.66	103.39	45.69	-30.5	-34.0	13.3	9.10e-06	0	44	0	666894336	20	5422
2026-01-26 23:36:35.67	105.05	45.60	-30.6	-34.0	12.9	6.71e-05	0	44	0	673185792	21	5305
2026-01-26 23:36:38.67	106.70	45.49	-31.7	-36.3	10.7	1.81e-03	0	44	0	678428672	23	6091
2026-01-26 23:36:41.67	108.33	45.36	-30.6	-33.5	13.0	7.62e-05	0	44	0	683671552	22	4998
2026-01-26 23:36:44.68	109.96	45.20	-30.6	-33.3	13.1	3.73e-05	0	44	0	689963008	22	4942
2026-01-26 23:36:47.69	111.56	45.01	-30.3	-33.0	13.6	9.10e-06	0	44	0	695205888	21	4923
2026-01-26 23:36:50.70	113.15	44.81	-31.0	-35.0	12.3	1.06e-04	0	44	0	700448768	21	5718
2026-01-26 23:36:53.71	114.72	44.58	-30.7	-33.6	12.9	1.08e-04	0	44	0	706740224	22	5038
2026-01-26 23:36:56.72	116.26	44.32	-30.7	-33.6	12.9	1.20e-04	0	44	0	711983104	22	5029
2026-01-26 23:36:59.72	117.78	44.05	-30.2	-32.8	13.7	2.20e-06	0	44	0	718274560	21	4862
2026-01-26 23:37:02.73	119.27	43.76	-30.1	-32.6	13.8	9.90e-06	0	44	0	723517440	21	4797
2026-01-26 23:37:05.75	120.74	43.45	-30.5	-33.7	13.1	3.20e-05	0	44	0	728760320	21	5182
2026-01-26 23:37:08.76	122.18	43.12	-30.2	-32.7	13.7	3.80e-06	0	44	0	735051776	21	4829
2026-01-26 23:37:11.77	123.59	42.78	-30.0	-32.2	14.0	3.80e-06	0	44	0	740294656	21	4670
2026-01-26 23:37:14.78	124.96	42.42	-29.8	-32.3	14.3	0.00e+00	0	44	0	746586112	20	4808
2026-01-26 23:37:17.78	126.31	42.05	-30.0	-32.7	14.1	7.60e-06	0	44	0	751828992	20	4928
2026-01-26 23:37:20.79	127.62	41.66	-29.5	-32.0	14.9	0.00e+00	0	44	0	757071872	19	4778
2026-01-26 23:37:23.81	128.91	41.26	-29.5	-31.4	14.9	7.00e-07	0	44	0	763363328	20	4499
2026-01-26 23:37:26.82	130.17	40.85	-29.6	-31.7	14.7	1.50e-06	0	44	0	768606208	20	4594
2026-01-26 23:37:29.81	131.38	40.44	-29.2	-31.3	15.3	0.00e+00	0	44	0	773849088	19	4572
2026-01-26 23:37:32.82	132.57	40.01	-30.3	-33.6	13.4	1.75e-05	0	44	0	780140544	20	5297
2026-01-26 23:37:35.82	133.73	39.57	-30.0	-32.8	14.0	6.80e-06	0	44	0	785383424	20	4991
2026-01-26 23:37:38.83	134.86	39.13	-30.4	-33.0	13.2	7.70e-05	0	44	0	791674880	22	4835
2026-01-26 23:37:41.85	135.96	38.68	-30.0	-32.8	14.0	1.50e-06	0	44	0	796917760	20	4963
2026-01-26 23:37:44.86	137.03	38.23	-30.0	-32.4	13.8	6.10e-06	0	44	0	802160640	21	4727
2026-01-26 23:37:47.87	138.07	37.77	-30.3	-33.7	13.4	0.00e+00	0	44	0	808452096	20	5298
2026-01-26 23:37:50.87	139.08	37.31	-31.1	-34.5	11.8	2.59e-03	0	44	0	813694976	23	5304
2026-01-26 23:37:53.88	140.07	36.84	-30.4	-33.3	13.2	3.00e-06	0	44	0	818937856	21	5063
2026-01-26 23:37:56.89	141.03	36.37	-31.7	-35.9	10.3	1.30e-02	0	44	0	825229312	24	5872
2026-01-26 23:37:59.89	141.95	35.90	-29.3	-31.5	15.1	0.00e+00	0	44	0	830472192	19	4626
2026-01-26 23:38:02.88	142.85	35.43	-31.0	-34.8	11.9	1.69e-04	0	44	0	836763648	22	5544
2026-01-26 23:38:05.89	143.73	34.96	-29.9	-32.0	14.1	4.50e-06	0	44	0	842006528	21	4599
2026-01-26 23:38:08.90	144.59	34.49	-30.2	-33.5	13.4	9.90e-06	0	44	0	847249408	20	5264
2026-01-26 23:38:11.91	145.42	34.02	-31.0	-34.7	11.9	1.46e-03	0	44	0	853540864	22	5521
2026-01-26 23:38:14.92	146.23	33.55	-30.0	-32.8	13.8	7.00e-07	0	44	0	858783744	20	4978
2026-01-26 23:38:17.93	147.01	33.08	-31.4	-36.0	11.1	5.16e-04	0	44	0	864026624	22	6085
2026-01-26 23:38:20.94	147.78	32.61	-31.1	-34.5	11.7	2.17e-03	0	44	0	870318080	23	5322
2026-01-26 23:38:23.95	148.52	32.14	-30.3	-33.6	13.4	1.14e-05	0	44	0	875560960	20	5262
2026-01-26 23:38:26.97	149.24	31.68	-31.9	-37.1	9.7	6.27e-03	0	44	0	881852416	23	6601
2026-01-26 23:38:29.97	149.94	31.22	-31.6	-35.5	10.5	8.77e-03	0	44	0	887095296	24	5689
2026-01-26 23:38:32.98	150.62	30.76	-29.9	-32.1	13.9	7.60e-06	0	44	0	892338176	21	4637
2026-01-26 23:38:35.99	151.29	30.31	-30.8	-34.6	12.2	1.07e-04	0	44	0	898629632	21	5594
2026-01-26 23:38:39.00	151.93	29.85	-31.6	-36.1	10.5	4.80e-03	0	44	0	903872512	23	6062
2026-01-26 23:38:42.01	152.56	29.40	-30.7	-33.9	12.4	2.31e-04	0	44	0	910163968	22	5181
2026-01-26 23:38:45.02	153.17	28.96	-30.5	-33.7	12.8	4.73e-05	0	44	0	915406848	21	5224
2026-01-26 23:38:48.04	153.77	28.51	-30.9	-35.0	11.9	3.68e-04	0	44	0	920649728	21	5753
2026-01-26 23:38:51.06	154.35	28.07	-30.2	-33.1	13.3	2.28e-05	0	44	0	926941184	21	4981
2026-01-26 23:38:54.07	154.92	27.64	-29.5	-31.6	14.5	0.00e+00	0	44	0	932184064	20	4577
2026-01-26 23:38:57.08	155.47	27.21	-30.0	-33.0	13.6	3.80e-06	0	44	0	937426944	20	5054
2026-01-26 23:39:00.09	156.00	26.78	-30.4	-34.0	12.9	4.73e-05	0	44	0	943718400	20	5449
2026-01-26 23:39:03.10	156.52	26.36	-30.3	-33.2	13.1	5.26e-05	0	44	0	948961280	21	5052
2026-01-26 23:39:06.10	157.03	25.95	-29.8	-32.3	14.0	2.20e-06	0	44	0	955252736	20	4836
2026-01-26 23:39:09.11	157.53	25.53	-29.0	-32.1	13.6	2.20e-06	0	44	0	960495616	19	5133
2026-01-26 23:39:12.11	158.01	25.12	-29.8	-33.0	13.3	7.00e-07	0	44	0	965738496	19	5167
2026-01-26 23:39:15.11	158.48	24.72	-30.1	-33.3	13.2	1.90e-05	0	44	0	972029952	20	5211
2026-01-26 23:39:18.12	158.94	24.32	-30.5	-33.9	12.5	1.36e-04	0	44	0	977272832	21	5332
2026-01-26 23:39:21.12	159.39	23.92	-29.9	-32.7	13.6	1.29e-05	0	44	0	982515712	20	4989
2026-01-26 23:39:24.13	159.82	23.53	-29.7	-32.6	14.1	2.24e-03	0	44	0	988807168	19	5036
2026-01-26 23:39:27.13	160.25	23.14	-30.1	-33.2	13.2	2.19e-03	0	44	0	994050048	20	5177
2026-01-26 23:39:30.13	160.67	22.76	-30.3	-34.0	12.6	7.01e-05	0	44	0	1000341504	20	5509
2026-01-26 23:39:33.15	161.08	22.38	-30.1	-33.4	13.2	5.41e-05	0	44	0	1005584384	20	5254
2026-01-26 23:39:36.17	161.47	22.00	-29.7	-32.7	13.7	2.41e-03	0	44	0	1010827264	19	5129
2026-01-26 23:39:39.19	161.86	21.63	-29.6	-32.6	13.6	6.10e-03	0	44	0	1017118720	19	5073
2026-01-26 23:39:42.19	162.24	21.26	-29.7	-32.8	13.6	6.88e-03	0	44	0	1022361600	19	5167
2026-01-26 23:39:45.20	162.62	20.90	-29.8	-33.2	13.4	3.35e-03	0	44	0	1028653056	19	5337
2026-01-26 23:39:48.22	162.98	20.54	-29.8	-33.3	13.2	8.21e-03	0	44	0	1033895936	19	5419
2026-01-26 23:39:51.23	163.33	20.18	-30.1	-33.6	13.0	2.78e-03	0	44	0	1039138816	20	5361
2026-01-26 23:39:54.25	163.68	19.83	-30.2	-33.8	12.8	2.65e-03	0	44	0	1045430272	20	5426
2026-01-26 23:39:57.26	164.02	19.48	-30.1	-33.5	13.0	2.45e-03	0	44	0	1050673152	20	5320
2026-01-26 23:40:00.27	164.35	19.14	-30.0	-33.2	13.2	2.37e-03	0	44	0	1055916032	20	5171
2026-01-26 23:40:03.28	164.68	18.80	-30.1	-33.3	13.2	2.57e-03	0	44	0	1062207488	20	5212
2026-01-26 23:40:06.28	165.00	18.46	-30.0	-33.2	13.2	2.44e-03	0	44	0	1067450368	20	5192
2026-01-26 23:40:09.29	165.31	18.13	-30.2	-33.6	12.9	2.72e-03	0	44	0	1073741824	20	5336
2026-01-26 23:40:12.30	165.61	17.80	-30.3	-33.9	12.7	2.71e-03	0	44	0	1078984704	20	5444
2026-01-26 23:40:15.31	165.91	17.48	-30.3	-33.9	12.7	2.46e-03	0	44	0	1084227584	20	5472
2026-01-26 23:40:18.32	166.21	17.16	-30.1	-33.4	13.0	3.14e-04	0	44	0	1090519040	20	5267
2026-01-26 23:40:21.33	166.49	16.84	-30.0	-33.0	13.2	2.36e-05	0	44	0	1095761920	20	5130
2026-01-26 23:40:24.33	166.77	16.53	-30.2	-33.7	12.7	9.23e-05	0	44	0	1101004800	20	5395
2026-01-26 23:40:27.34	167.05	16.21	-30.3	-34.0	12.5	3.05e-03	0	44	0	1107296256	20	5535
2026-01-26 23:40:30.34	167.32	15.91	-30.5	-34.4	12.3	2.95e-03	0	44	0	1112539136	20	5702
2026-01-26 23:40:33.36	167.59	15.60	-30.5	-34.2	12.0	2.90e-03	0	44	0	1118830592	21	5499
2026-01-26 23:40:36.36	167.84	15.30	-30.6	-34.4	11.8	6.05e-04	0	44	0	1124073472	21	5614
2026-01-26 23:40:39.36	168.10	15.00	-30.0	-33.5	12.8	8.39e-05	0	44	0	1129316352	20	5374
2026-01-26 23:40:42.37	168.35	14.71	-30.0	-33.3	12.9	6.56e-05	0	44	0	1135607808	20	5302
2026-01-26 23:40:45.38	168.60	14.42	-30.0	-33.7	13.0	3.50e-05	0	44	0	1140850688	19	5535
2026-01-26 23:40:48.38	168.84	14.13	-30.0	-33.3	12.9	7.01e-05	0	44	0	1146093568	20	5273
2026-01-26 23:40:51.40	169.07	13.84	-30.1	-33.7	12.6	2.06e-03	0	44	0	1152385024	20	5447
2026-01-26 23:40:54.41	169.31	13.56	-30.3	-34.4	12.2	1.75e-04	0	44	0	1157627904	20	5720
2026-01-26 23:40:57.42	169.53	13.28	-30.3	-34.2	12.2	2.53e-04	0	44	0	1163919360	20	5656
2026-01-26 23:41:00.44	169.76	13.00	-30.4	-34.6	11.9	3.70e-04	0	44	0	1169162240	20	5826
2026-01-26 23:41:03.45	169.98	12.73	-30.7	-34.9	11.4	7.62e-04	0	44	0	1174405120	21	5853
2026-01-26 23:41:06.46	170.20	12.45	-30.5	-34.5	10.9	7.00e-04	0	44	0	1180696576	21	5669
2026-01-26 23:41:09.47	170.41	12.18	-30.4	-34.6	11.5	4.61e-04	0	44	0	1185939456	20	5858
2026-01-26 23:41:12.48	170.62	11.92	-30.2	-34.2	12.1	2.63e-04	0	44	0	1192230912	20	5665
2026-01-26 23:41:15.49	170.82	11.65	-30.4	-34.7	11.7	2.85e-03	0	44	0	1197473792	20	5917
2026-01-26 23:41:18.50	171.02	11.39	-30.3	-34.4	12.0	3.83e-04	0	44	0	1202716672	20	5757
2026-01-26 23:41:21.51	171.22	11.13	-30.4	-34.6	11.8	4.85e-04	0	44	0	1209008128	20	5876
2026-01-26 23:41:24.52	171.42	10.88	-30.6	-34.9	11.2	7.70e-04	0	44	0	1214251008	21	5887
2026-01-26 23:41:27.52	171.61	10.62	-30.3	-34.5	11.8	5.13e-04	0	44	0	1220542464	20	5805
2026-01-26 23:41:30.48	171.80	10.37	-30.7	-35.1	11.0	1.62e-03	0	44	0	1225785344	21	5969
2026-01-26 23:41:33.49	171.98	10.13	-30.7	-35.0	11.1	3.83e-03	0	44	0	1231028224	21	5937
2026-01-26 23:41:36.49	172.16	9.88	-30.8	-35.4	10.8	5.39e-03	0	44	0	1237319680	21	6108
2026-01-26 23:41:39.49	172.34	9.63	-30.9	-35.7	10.6	5.81e-03	0	44	0	1242562560	21	6257
2026-01-26 23:41:42.50	172.52	9.39	-31.1	-36.0	9.9	5.82e-03	0	44	0	1247805440	22	6326
2026-01-26 23:41:45.50	172.70	9.15	-30.9	-35.8	10.5	4.96e-03	0	44	0	1254096896	21	6301
2026-01-26 23:41:48.51	172.87	8.91	-31.1	-35.9	10.0	8.69e-03	0	44	0	1259339776	22	6258
2026-01-26 23:41:51.52	173.04	8.68	-30.9	-35.9	10.3	7.62e-03	0	44	0	1265631232	21	6406
2026-01-26 23:41:54.52	173.20	8.44	-31.1	-36.1	9.8	1.06e-02	0	44	0	1270874112	22	6385
2026-01-26 23:41:57.52	173.37	8.21	-30.8	-35.6	10.5	6.61e-03	0	44	0	1276116992	21	6230
2026-01-26 23:42:00.52	173.53	7.98	-30.9	-35.7	10.3	7.84e-03	0	44	0	1282408448	21	6314
2026-01-26 23:42:03.53	173.69	7.75	-30.9	-36.0	10.1	9.07e-03	0	44	0	1287651328	21	6472
2026-01-26 23:42:06.54	173.85	7.52	-30.5	-34.8	11.0	2.60e-03	0	44	0	1292894208	21	5866
2026-01-26 23:42:09.54	174.00	7.30	-30.4	-34.8	11.3	2.51e-03	0	44	0	1299185664	20	6005
2026-01-26 23:42:12.56	174.15	7.07	-32.9	-47.3	3.8	5.19e-03	0	44	104	1304428544	25	18841

#Closed at: 2026-01-26 23:42:15
#Recorded file [1304 MB]: D:/data/31010_260127_023036.dat