passes_logs/2026/01/26/R2M6_AANII_01/R2M6_AANII_01__20260126_085248_NOAA_21_JPSS-2_rec.log

#Pass ID: 20260126_085248_NOAA 21 (JPSS-2)
#Satellite: NOAA 21 (JPSS-2)
#Configuration: NOAA 21
#almurnet v.1.7.20240730
#Start time: 2026-01-26 08:52:49

#Version: 2.2.20231116
#Station: R2M6_AANII_01
#Location: 30.233357 lon 59.946436 lat
#TLE: 1 54234U 22150A   26025.79694208  .00000182  00000+0  10700-3 0  9999
#TLE: 2 54234  98.7509 326.5666 0000777 213.2444 146.8684 14.19539347166346

#Time	Az	El	Level	Level2	SNR	BER	BlckErr	Temp	State	Recorded	gain1	gain2
2026-01-26 08:52:49.72	115.66	7.06	-30.3	-35.0	4.6	1.41e+00	0	41	0	0	21	6227
2026-01-26 08:52:52.71	115.45	7.27	-30.5	-35.0	7.9	7.70e-02	0	41	0	2097152	21	6043
2026-01-26 08:52:55.73	115.23	7.49	-30.2	-34.0	8.7	3.46e-02	0	41	0	12582912	21	5544
2026-01-26 08:52:58.75	115.01	7.70	-29.4	-31.9	10.6	3.93e-03	0	41	0	22020096	20	4804
2026-01-26 08:53:01.76	114.79	7.92	-29.4	-32.4	10.7	1.98e-03	0	42	0	30408704	19	5067
2026-01-26 08:53:04.77	114.56	8.13	-29.2	-31.9	11.0	2.20e-03	0	42	0	40894464	19	4898
2026-01-26 08:53:07.78	114.33	8.35	-29.3	-32.2	10.9	2.44e-03	0	42	0	49283072	19	4988
2026-01-26 08:53:10.80	114.10	8.57	-29.0	-31.2	11.6	5.56e-04	0	42	0	58720256	19	4654
2026-01-26 08:53:13.82	113.86	8.79	-28.3	-30.3	12.8	7.17e-05	0	42	0	69206016	17	4563
2026-01-26 08:53:16.84	113.62	9.02	-27.9	-29.5	13.4	1.98e-05	0	42	0	77594624	17	4308
2026-01-26 08:53:19.85	113.38	9.24	-27.8	-29.2	13.6	7.60e-06	0	42	0	87031808	17	4217
2026-01-26 08:53:22.86	113.13	9.47	-27.8	-29.5	13.6	6.10e-06	0	42	0	96468992	16	4415
2026-01-26 08:53:25.86	112.88	9.69	-28.0	-30.2	13.3	9.90e-06	0	42	0	105906176	16	4617
2026-01-26 08:53:28.87	112.62	9.92	-27.8	-29.7	13.6	8.30e-06	0	42	0	115343360	16	4464
2026-01-26 08:53:31.87	112.36	10.15	-27.7	-29.4	13.8	4.50e-06	0	42	0	124780544	16	4371
2026-01-26 08:53:34.88	112.10	10.38	-27.8	-29.5	13.8	2.20e-06	0	42	0	134217728	16	4404
2026-01-26 08:53:37.89	111.83	10.62	-27.6	-29.2	14.0	2.20e-06	0	42	0	143654912	16	4318
2026-01-26 08:53:40.90	111.55	10.85	-27.9	-29.9	13.6	4.50e-06	0	42	0	153092096	16	4536
2026-01-26 08:53:43.92	111.27	11.09	-27.7	-29.4	13.9	0.00e+00	0	43	0	162529280	16	4357
2026-01-26 08:53:46.93	110.99	11.33	-27.6	-29.0	14.1	1.50e-06	0	43	0	171966464	16	4260
2026-01-26 08:53:49.94	110.70	11.57	-27.4	-28.7	14.3	1.50e-06	0	42	0	181403648	16	4177
2026-01-26 08:53:52.95	110.41	11.81	-27.6	-29.1	14.1	1.50e-06	0	43	0	190840832	16	4286
2026-01-26 08:53:55.95	110.11	12.05	-27.8	-29.7	13.8	3.80e-06	0	43	0	200278016	16	4443
2026-01-26 08:53:58.95	109.81	12.30	-27.7	-29.4	14.0	2.20e-06	0	43	0	209715200	16	4373
2026-01-26 08:54:01.96	109.51	12.54	-27.4	-28.5	14.5	0.00e+00	0	43	0	219152384	16	4120
2026-01-26 08:54:04.98	109.19	12.79	-27.4	-28.7	14.4	0.00e+00	0	43	0	228589568	16	4150
2026-01-26 08:54:07.98	108.87	13.04	-27.1	-28.4	14.7	0.00e+00	0	43	0	238026752	15	4180
2026-01-26 08:54:10.99	108.55	13.29	-27.1	-28.3	14.8	0.00e+00	0	43	0	247463936	15	4176
2026-01-26 08:54:14.00	108.22	13.55	-27.0	-28.3	14.8	7.00e-07	0	43	0	256901120	15	4152
2026-01-26 08:54:17.01	107.88	13.80	-27.1	-28.4	14.7	0.00e+00	0	43	0	266338304	15	4207
2026-01-26 08:54:20.01	107.54	14.06	-26.8	-28.2	15.1	0.00e+00	0	43	0	275775488	14	4239
2026-01-26 08:54:23.03	107.20	14.32	-26.9	-28.4	15.0	0.00e+00	0	43	0	285212672	14	4295
2026-01-26 08:54:26.03	106.84	14.58	-26.7	-28.1	15.2	0.00e+00	0	43	0	294649856	14	4219
2026-01-26 08:54:29.04	106.48	14.84	-27.2	-29.1	14.6	0.00e+00	0	43	0	304087040	14	4502
2026-01-26 08:54:32.04	106.12	15.10	-27.1	-29.1	14.7	7.00e-07	0	43	0	313524224	14	4493
2026-01-26 08:54:35.05	105.74	15.36	-27.1	-29.0	14.7	7.00e-07	0	43	0	322961408	14	4475
2026-01-26 08:54:38.06	105.36	15.63	-27.0	-28.8	14.9	0.00e+00	0	43	0	331350016	14	4416
2026-01-26 08:54:41.06	104.98	15.90	-27.3	-29.5	14.6	0.00e+00	0	43	0	340787200	14	4601
2026-01-26 08:54:44.07	104.58	16.17	-27.1	-28.9	14.9	0.00e+00	0	43	0	350224384	14	4448
2026-01-26 08:54:47.06	104.19	16.44	-27.1	-29.0	14.8	0.00e+00	0	43	0	359661568	14	4467
2026-01-26 08:54:50.07	103.78	16.71	-27.1	-28.9	14.9	0.00e+00	0	43	0	369098752	14	4429
2026-01-26 08:54:53.08	103.36	16.98	-27.0	-28.7	15.0	7.00e-07	0	43	0	378535936	14	4369
2026-01-26 08:54:56.09	102.94	17.26	-26.9	-28.4	15.2	0.00e+00	0	43	0	387973120	14	4278
2026-01-26 08:54:59.09	102.50	17.54	-26.9	-28.4	15.2	0.00e+00	0	43	0	397410304	14	4285
2026-01-26 08:55:02.09	102.07	17.81	-26.9	-28.5	15.2	0.00e+00	0	43	0	406847488	14	4317
2026-01-26 08:55:05.08	101.62	18.09	-26.9	-28.5	15.2	0.00e+00	0	43	0	416284672	14	4302
2026-01-26 08:55:08.09	101.16	18.37	-26.7	-28.0	15.5	0.00e+00	0	43	0	425721856	14	4179
2026-01-26 08:55:11.10	100.70	18.66	-26.8	-28.3	15.4	0.00e+00	0	43	0	435159040	14	4259
2026-01-26 08:55:14.11	100.22	18.94	-26.8	-28.1	15.5	0.00e+00	0	43	0	444596224	14	4198
2026-01-26 08:55:17.11	99.74	19.22	-26.8	-28.1	15.5	7.00e-07	0	43	0	454033408	14	4214
2026-01-26 08:55:20.11	99.25	19.51	-26.7	-27.9	15.6	0.00e+00	0	43	0	463470592	14	4142
2026-01-26 08:55:23.13	98.75	19.80	-26.7	-28.0	15.6	0.00e+00	0	43	0	472907776	14	4179
2026-01-26 08:55:26.13	98.24	20.09	-26.8	-28.1	15.5	0.00e+00	0	43	0	482344960	14	4212
2026-01-26 08:55:29.14	97.71	20.37	-26.7	-27.9	15.7	0.00e+00	0	43	0	491782144	14	4131
2026-01-26 08:55:32.14	97.18	20.66	-26.5	-27.6	15.9	0.00e+00	0	43	0	501219328	14	4059
2026-01-26 08:55:35.14	96.64	20.95	-26.5	-27.4	16.0	0.00e+00	0	43	0	510656512	14	4018
2026-01-26 08:55:38.16	96.09	21.24	-26.4	-27.2	16.1	0.00e+00	0	43	0	520093696	14	3965
2026-01-26 08:55:41.16	95.53	21.54	-26.3	-27.1	16.2	0.00e+00	0	43	0	529530880	14	3946
2026-01-26 08:55:44.18	94.95	21.83	-26.2	-27.3	16.3	0.00e+00	0	43	0	538968064	13	4086
2026-01-26 08:55:47.19	94.37	22.12	-26.5	-28.0	16.0	0.00e+00	0	43	0	548405248	13	4274
2026-01-26 08:55:50.19	93.77	22.41	-26.5	-28.1	15.9	0.00e+00	0	44	0	556793856	13	4299
2026-01-26 08:55:53.20	93.17	22.70	-26.3	-27.5	16.2	0.00e+00	0	43	0	566231040	13	4142
2026-01-26 08:55:56.20	92.55	22.99	-26.4	-27.9	16.0	1.50e-06	0	43	0	575668224	13	4243
2026-01-26 08:55:59.21	91.92	23.29	-26.2	-27.2	16.4	0.00e+00	0	43	0	585105408	13	4070
2026-01-26 08:56:02.22	91.28	23.58	-26.0	-26.7	16.7	0.00e+00	0	43	0	594542592	13	3942
2026-01-26 08:56:05.23	90.62	23.87	-26.0	-26.8	16.6	1.50e-06	0	43	0	603979776	13	3961
2026-01-26 08:56:08.22	89.96	24.15	-26.1	-27.0	16.5	3.80e-06	0	43	0	613416960	13	4012
2026-01-26 08:56:11.23	89.28	24.44	-26.3	-27.4	16.3	0.00e+00	0	44	0	622854144	13	4119
2026-01-26 08:56:14.24	88.59	24.73	-26.5	-27.9	16.1	0.00e+00	0	43	0	632291328	13	4242
2026-01-26 08:56:17.26	87.88	25.01	-26.5	-28.0	16.0	0.00e+00	0	43	0	641728512	13	4283
2026-01-26 08:56:20.27	87.16	25.30	-26.7	-28.3	15.8	0.00e+00	0	43	0	651165696	13	4357
2026-01-26 08:56:23.27	86.44	25.58	-26.6	-28.2	15.9	0.00e+00	0	44	0	660602880	13	4340
2026-01-26 08:56:26.27	85.69	25.86	-26.5	-28.0	16.0	0.00e+00	0	44	0	670040064	13	4261
2026-01-26 08:56:29.28	84.94	26.13	-26.3	-27.6	16.2	0.00e+00	0	43	0	679477248	13	4160
2026-01-26 08:56:32.28	84.17	26.41	-26.5	-28.1	16.0	0.00e+00	0	43	0	688914432	13	4290
2026-01-26 08:56:35.28	83.39	26.68	-26.6	-28.1	15.9	0.00e+00	0	43	0	698351616	13	4309
2026-01-26 08:56:38.29	82.59	26.94	-26.6	-28.2	15.9	0.00e+00	0	43	0	707788800	13	4327
2026-01-26 08:56:41.29	81.78	27.21	-26.7	-28.5	15.7	0.00e+00	0	43	0	717225984	13	4415
2026-01-26 08:56:44.30	80.96	27.47	-26.8	-28.6	15.7	0.00e+00	0	43	0	726663168	13	4436
2026-01-26 08:56:47.32	80.12	27.72	-26.9	-28.8	15.6	0.00e+00	0	43	0	736100352	13	4502
2026-01-26 08:56:50.33	79.27	27.97	-27.2	-29.0	15.3	0.00e+00	0	43	0	745537536	14	4433
2026-01-26 08:56:53.34	78.41	28.22	-26.9	-28.4	15.7	0.00e+00	0	44	0	754974720	14	4250
2026-01-26 08:56:56.34	77.53	28.46	-27.0	-28.5	15.6	0.00e+00	0	44	0	764411904	14	4298
2026-01-26 08:56:59.36	76.64	28.70	-26.8	-28.0	15.9	0.00e+00	0	43	0	773849088	14	4161
2026-01-26 08:57:02.37	75.74	28.93	-26.7	-27.9	15.9	0.00e+00	0	44	0	783286272	14	4133
2026-01-26 08:57:05.38	74.82	29.15	-26.9	-28.4	15.7	0.00e+00	0	44	0	792723456	14	4274
2026-01-26 08:57:08.39	73.89	29.36	-27.1	-28.9	15.4	7.00e-07	0	44	0	802160640	14	4383
2026-01-26 08:57:11.40	72.95	29.57	-27.0	-28.6	15.6	1.50e-06	0	44	0	810549248	14	4317
2026-01-26 08:57:14.42	71.99	29.78	-27.1	-28.8	15.4	0.00e+00	0	43	0	821035008	14	4372
2026-01-26 08:57:17.43	71.03	29.97	-27.3	-29.3	15.2	0.00e+00	0	43	0	830472192	14	4517
2026-01-26 08:57:20.44	70.05	30.16	-27.1	-28.8	15.5	7.00e-07	0	44	0	838860800	14	4364
2026-01-26 08:57:23.44	69.07	30.34	-27.3	-29.1	15.3	0.00e+00	0	44	0	848297984	14	4465
2026-01-26 08:57:26.45	68.07	30.51	-27.3	-29.3	15.2	7.00e-07	0	44	0	857735168	14	4515
2026-01-26 08:57:29.46	67.06	30.67	-27.2	-29.0	15.4	7.00e-07	0	44	0	867172352	14	4421
2026-01-26 08:57:32.47	66.04	30.82	-27.3	-29.3	15.2	0.00e+00	0	43	0	876609536	14	4526
2026-01-26 08:57:35.47	65.02	30.96	-27.5	-29.3	14.9	0.00e+00	0	44	0	886046720	15	4405
2026-01-26 08:57:38.48	63.98	31.09	-27.6	-29.5	14.9	7.00e-07	0	44	0	895483904	15	4460
2026-01-26 08:57:41.49	62.93	31.21	-27.5	-29.2	15.0	0.00e+00	0	44	0	904921088	15	4366
2026-01-26 08:57:44.49	61.89	31.32	-27.4	-28.9	15.2	0.00e+00	0	43	0	914358272	15	4280
2026-01-26 08:57:47.49	60.83	31.42	-27.1	-28.1	15.6	0.00e+00	0	44	0	923795456	15	4077
2026-01-26 08:57:50.49	59.77	31.51	-27.0	-28.0	15.7	0.00e+00	0	44	0	933232640	15	4031
2026-01-26 08:57:53.50	58.70	31.59	-27.4	-28.9	15.2	0.00e+00	0	44	0	942669824	15	4290
2026-01-26 08:57:56.52	57.62	31.66	-27.4	-29.0	15.1	7.00e-07	0	44	0	952107008	15	4320
2026-01-26 08:57:59.52	56.54	31.72	-27.6	-29.5	14.9	0.00e+00	0	44	0	961544192	15	4445
2026-01-26 08:58:02.53	55.46	31.76	-27.8	-30.0	14.6	0.00e+00	0	44	0	970981376	15	4593
2026-01-26 08:58:05.55	54.37	31.80	-28.3	-30.4	14.2	7.00e-07	0	44	0	980418560	16	4603
2026-01-26 08:58:08.56	53.28	31.82	-28.0	-29.7	14.6	0.00e+00	0	44	0	989855744	16	4400
2026-01-26 08:58:11.56	52.20	31.83	-28.0	-29.7	14.7	7.00e-07	0	44	0	999292928	16	4383
2026-01-26 08:58:14.57	51.11	31.83	-28.2	-30.1	14.4	7.00e-07	0	43	0	1008730112	16	4519
2026-01-26 08:58:17.57	50.02	31.82	-27.5	-28.7	15.2	0.00e+00	0	44	0	1018167296	16	4115
2026-01-26 08:58:20.57	48.94	31.79	-27.5	-28.6	15.3	0.00e+00	0	44	0	1027604480	16	4098
2026-01-26 08:58:23.57	47.86	31.76	-27.6	-28.7	15.2	0.00e+00	0	43	0	1037041664	16	4116
2026-01-26 08:58:26.58	46.78	31.71	-27.8	-29.3	14.9	7.00e-07	0	43	0	1046478848	16	4266
2026-01-26 08:58:29.60	45.70	31.65	-27.8	-29.3	14.9	7.00e-07	0	44	0	1055916032	16	4280
2026-01-26 08:58:32.61	44.62	31.58	-27.7	-29.0	15.1	0.00e+00	0	44	0	1064304640	16	4185
2026-01-26 08:58:35.61	43.56	31.50	-27.5	-28.7	15.2	0.00e+00	0	44	0	1073741824	16	4121
2026-01-26 08:58:38.62	42.49	31.41	-27.6	-28.8	15.1	0.00e+00	0	44	0	1084227584	16	4153
2026-01-26 08:58:41.64	41.43	31.30	-27.7	-29.0	15.0	7.00e-07	0	44	0	1092616192	16	4203
2026-01-26 08:58:44.65	40.39	31.19	-27.8	-29.4	14.7	0.00e+00	0	44	0	1102053376	16	4323
2026-01-26 08:58:47.66	39.34	31.06	-28.2	-30.2	14.3	2.20e-06	0	44	0	1111490560	16	4562
2026-01-26 08:58:50.66	38.31	30.93	-27.4	-28.5	15.3	0.00e+00	0	44	0	1120927744	16	4062
2026-01-26 08:58:53.68	37.29	30.79	-27.0	-28.0	15.6	0.00e+00	0	44	0	1130364928	15	4051
2026-01-26 08:58:56.68	36.28	30.63	-27.5	-29.1	15.0	0.00e+00	0	44	0	1139802112	15	4343
2026-01-26 08:58:59.68	35.27	30.47	-27.1	-28.3	15.5	0.00e+00	0	44	0	1149239296	15	4135
2026-01-26 08:59:02.68	34.28	30.30	-27.1	-28.3	15.5	0.00e+00	0	43	0	1158676480	15	4126
2026-01-26 08:59:05.68	33.30	30.12	-27.5	-29.1	15.0	0.00e+00	0	44	0	1168113664	15	4345
2026-01-26 08:59:08.70	32.33	29.94	-27.4	-28.9	15.1	7.00e-07	0	44	0	1177550848	15	4282
2026-01-26 08:59:11.70	31.37	29.74	-26.9	-27.7	15.8	0.00e+00	0	44	0	1186988032	15	3973
2026-01-26 08:59:14.70	30.42	29.54	-27.1	-28.9	15.5	0.00e+00	0	44	0	1196425216	14	4385
2026-01-26 08:59:17.70	29.49	29.33	-26.7	-27.9	15.9	0.00e+00	0	44	0	1205862400	14	4133
2026-01-26 08:59:20.71	28.57	29.11	-26.7	-27.9	15.9	0.00e+00	0	44	0	1215299584	14	4122
2026-01-26 08:59:23.72	27.65	28.89	-27.0	-28.7	15.5	0.00e+00	0	44	0	1224736768	14	4336
2026-01-26 08:59:26.72	26.76	28.66	-26.6	-27.7	16.0	0.00e+00	0	44	0	1234173952	14	4066
2026-01-26 08:59:29.73	25.87	28.42	-26.8	-28.1	15.8	0.00e+00	0	44	0	1243611136	14	4170
2026-01-26 08:59:32.74	25.00	28.18	-27.8	-29.8	14.5	0.00e+00	0	44	0	1253048320	15	4580
2026-01-26 08:59:35.75	24.14	27.94	-27.2	-28.5	15.3	0.00e+00	0	43	0	1262485504	15	4185
2026-01-26 08:59:38.76	23.30	27.68	-26.9	-27.8	15.7	0.00e+00	0	44	0	1271922688	15	3997
2026-01-26 08:59:41.77	22.47	27.43	-27.1	-28.3	15.4	0.00e+00	0	44	0	1281359872	15	4133
2026-01-26 08:59:44.78	21.65	27.17	-27.2	-28.4	15.3	7.00e-07	0	44	0	1290797056	15	4167
2026-01-26 08:59:47.79	20.84	26.91	-26.3	-27.4	16.3	0.00e+00	0	44	0	1300234240	13	4108
2026-01-26 08:59:50.80	20.05	26.64	-26.7	-28.5	15.8	0.00e+00	0	44	0	1309671424	13	4391
2026-01-26 08:59:53.81	19.27	26.37	-27.3	-29.1	15.1	0.00e+00	0	44	0	1318060032	14	4469
2026-01-26 08:59:56.82	18.51	26.10	-26.6	-27.6	16.0	0.00e+00	0	44	0	1328545792	14	4056
2026-01-26 08:59:59.83	17.76	25.82	-26.5	-27.5	16.0	0.00e+00	0	44	0	1336934400	14	4034
2026-01-26 09:00:02.83	17.02	25.54	-26.6	-27.8	15.8	0.00e+00	0	44	0	1346371584	14	4101
2026-01-26 09:00:05.85	16.29	25.26	-26.7	-27.9	15.8	0.00e+00	0	44	0	1355808768	14	4128
2026-01-26 09:00:08.85	15.58	24.98	-26.9	-28.4	15.5	0.00e+00	0	44	0	1365245952	14	4257
2026-01-26 09:00:11.86	14.88	24.69	-26.9	-28.4	15.5	0.00e+00	0	44	0	1374683136	14	4268
2026-01-26 09:00:14.86	14.20	24.41	-26.7	-28.0	15.8	0.00e+00	0	44	0	1384120320	14	4145
2026-01-26 09:00:17.86	13.53	24.12	-27.0	-28.5	15.4	0.00e+00	0	44	0	1393557504	14	4296
2026-01-26 09:00:20.87	12.86	23.83	-27.2	-29.0	15.1	0.00e+00	0	44	0	1402994688	14	4447
2026-01-26 09:00:23.89	12.21	23.54	-26.6	-27.7	15.8	0.00e+00	0	44	0	1412431872	14	4096
2026-01-26 09:00:26.89	11.58	23.26	-26.6	-27.6	15.8	0.00e+00	0	44	0	1421869056	14	4069
2026-01-26 09:00:29.90	10.95	22.96	-26.9	-28.4	15.4	0.00e+00	0	43	0	1431306240	14	4271
2026-01-26 09:00:32.91	10.34	22.67	-26.7	-28.0	15.7	0.00e+00	0	44	0	1440743424	14	4163
2026-01-26 09:00:35.92	9.74	22.38	-26.7	-28.0	15.7	0.00e+00	0	43	0	1450180608	14	4154
2026-01-26 09:00:38.93	9.14	22.09	-26.7	-28.0	15.7	0.00e+00	0	44	0	1459617792	14	4156
2026-01-26 09:00:41.94	8.57	21.80	-26.5	-27.5	15.9	0.00e+00	0	44	0	1469054976	14	4034
2026-01-26 09:00:44.93	8.00	21.51	-26.4	-27.3	16.0	0.00e+00	0	44	0	1478492160	14	3991
2026-01-26 09:00:47.94	7.44	21.22	-26.6	-27.7	15.8	0.00e+00	0	44	0	1487929344	14	4083
2026-01-26 09:00:50.95	6.89	20.93	-27.0	-28.6	15.3	7.00e-07	0	44	0	1497366528	14	4335
2026-01-26 09:00:53.94	6.36	20.65	-26.7	-27.9	15.6	0.00e+00	0	44	0	1506803712	14	4154
2026-01-26 09:00:56.97	5.83	20.36	-26.6	-27.8	15.7	0.00e+00	0	44	0	1516240896	14	4112
2026-01-26 09:00:59.98	5.31	20.07	-26.3	-27.4	16.2	0.00e+00	0	44	0	1525678080	13	4118
2026-01-26 09:01:02.99	4.81	19.78	-26.5	-27.9	15.9	0.00e+00	0	43	0	1535115264	13	4239
2026-01-26 09:01:06.00	4.31	19.49	-26.4	-27.7	16.0	0.00e+00	0	44	0	1544552448	13	4196
2026-01-26 09:01:09.02	3.82	19.21	-26.3	-27.5	16.1	0.00e+00	0	44	0	1553989632	13	4146
2026-01-26 09:01:12.00	3.34	18.93	-26.3	-27.6	16.0	0.00e+00	0	44	0	1563426816	13	4175
2026-01-26 09:01:15.03	2.87	18.64	-26.6	-28.2	15.7	0.00e+00	0	44	0	1572864000	13	4339
2026-01-26 09:01:18.04	2.41	18.36	-26.8	-28.6	15.5	0.00e+00	0	43	0	1582301184	13	4434
2026-01-26 09:01:21.05	1.96	18.08	-26.7	-28.3	15.6	0.00e+00	0	44	0	1590689792	13	4372
2026-01-26 09:01:24.06	1.51	17.80	-26.6	-28.2	15.6	0.00e+00	0	44	0	1600126976	13	4329
2026-01-26 09:01:27.07	1.08	17.53	-26.5	-28.1	15.7	0.00e+00	0	44	0	1610612736	13	4309
2026-01-26 09:01:30.08	0.65	17.25	-26.8	-28.6	15.4	0.00e+00	0	44	0	1619001344	13	4452
2026-01-26 09:01:33.10	0.23	16.97	-27.4	-29.5	14.7	0.00e+00	0	44	0	1628438528	14	4593
2026-01-26 09:01:36.11	359.81	16.70	-27.0	-28.1	15.2	0.00e+00	0	44	0	1637875712	15	4087
2026-01-26 09:01:39.13	359.41	16.43	-26.8	-28.2	15.4	0.00e+00	0	44	0	1647312896	14	4216
2026-01-26 09:01:42.13	359.01	16.16	-26.7	-27.9	15.5	0.00e+00	0	44	0	1656750080	14	4153
2026-01-26 09:01:45.13	358.62	15.89	-26.7	-28.0	15.4	0.00e+00	0	44	0	1666187264	14	4163
2026-01-26 09:01:48.13	358.24	15.63	-27.0	-28.6	15.0	0.00e+00	0	44	0	1675624448	14	4351
2026-01-26 09:01:51.13	357.87	15.36	-27.2	-29.1	14.8	0.00e+00	0	44	0	1685061632	14	4472
2026-01-26 09:01:54.15	357.50	15.10	-27.3	-29.4	14.6	7.00e-07	0	44	0	1694498816	14	4585
2026-01-26 09:01:57.15	357.14	14.84	-27.1	-28.4	14.9	7.00e-07	0	44	0	1703936000	15	4177
2026-01-26 09:02:00.17	356.78	14.58	-27.1	-28.4	14.9	0.00e+00	0	44	0	1713373184	15	4172
2026-01-26 09:02:03.17	356.43	14.32	-27.2	-28.6	14.7	0.00e+00	0	44	0	1722810368	15	4224
2026-01-26 09:02:06.18	356.09	14.06	-27.3	-28.9	14.5	1.50e-06	0	44	0	1732247552	15	4342
2026-01-26 09:02:09.19	355.75	13.81	-27.6	-29.5	14.1	2.20e-06	0	44	0	1741684736	15	4504
2026-01-26 09:02:12.19	355.42	13.55	-27.6	-29.7	14.0	3.80e-06	0	44	0	1751121920	15	4570
2026-01-26 09:02:15.18	355.09	13.30	-27.8	-30.2	13.7	7.60e-06	0	44	0	1760559104	15	4712
2026-01-26 09:02:18.19	354.77	13.05	-28.0	-30.0	13.7	4.50e-06	0	44	0	1769996288	16	4528
2026-01-26 09:02:21.19	354.46	12.81	-28.0	-30.1	13.6	3.00e-06	0	44	0	1779433472	16	4557
2026-01-26 09:02:24.19	354.15	12.56	-27.9	-29.7	13.8	6.80e-06	0	44	0	1788870656	16	4455
2026-01-26 09:02:27.20	353.85	12.31	-28.0	-29.9	13.7	7.60e-06	0	44	0	1798307840	16	4514
2026-01-26 09:02:30.19	353.55	12.07	-27.9	-29.7	13.8	5.30e-06	0	44	0	1807745024	16	4457
2026-01-26 09:02:33.20	353.26	11.83	-28.0	-30.1	13.5	6.80e-06	0	44	0	1817182208	16	4571
2026-01-26 09:02:36.21	352.97	11.59	-28.4	-31.1	12.9	5.41e-05	0	44	0	1825570816	16	4916
2026-01-26 09:02:39.21	352.69	11.35	-28.3	-30.9	13.0	3.66e-05	0	44	0	1835008000	16	4825
2026-01-26 09:02:42.22	352.41	11.11	-28.5	-30.8	12.8	7.01e-05	0	44	0	1844445184	17	4681
2026-01-26 09:02:45.24	352.13	10.88	-28.2	-30.0	13.2	2.21e-05	0	44	0	1853882368	17	4435
2026-01-26 09:02:48.26	351.86	10.64	-28.2	-30.1	13.1	2.13e-05	0	44	0	1863319552	17	4472
2026-01-26 09:02:51.27	351.59	10.41	-28.0	-29.6	13.5	1.22e-05	0	44	0	1872756736	17	4307
2026-01-26 09:02:54.28	351.33	10.18	-27.9	-29.7	13.7	6.10e-06	0	44	0	1882193920	16	4457
2026-01-26 09:02:57.30	351.07	9.95	-27.9	-29.9	13.6	1.29e-05	0	44	0	1891631104	16	4506
2026-01-26 09:03:00.30	350.82	9.72	-28.0	-30.2	13.4	1.06e-05	0	44	0	1901068288	16	4595
2026-01-26 09:03:03.31	350.57	9.50	-28.2	-30.7	13.1	3.81e-05	0	44	0	1910505472	16	4768
2026-01-26 09:03:06.32	350.33	9.27	-28.4	-31.1	12.7	6.02e-05	0	44	0	1919942656	16	4928
2026-01-26 09:03:09.33	350.09	9.05	-28.3	-30.3	12.9	6.63e-05	0	44	0	1929379840	17	4551
2026-01-26 09:03:12.33	349.85	8.83	-28.4	-30.6	12.7	1.19e-04	0	44	0	1938817024	17	4634
2026-01-26 09:03:15.35	349.62	8.61	-28.3	-30.3	12.9	4.11e-05	0	44	0	1948254208	17	4538
2026-01-26 09:03:18.35	349.39	8.39	-28.3	-30.5	12.8	9.15e-05	0	44	0	1957691392	17	4599
2026-01-26 09:03:21.36	349.16	8.17	-28.2	-30.2	12.9	5.11e-05	0	44	0	1967128576	17	4533
2026-01-26 09:03:24.37	348.94	7.95	-28.2	-30.3	12.8	4.95e-05	0	44	0	1976565760	17	4537
2026-01-26 09:03:27.39	348.72	7.74	-28.7	-31.3	12.1	9.76e-05	0	44	0	1986002944	17	4899
2026-01-26 09:03:30.39	348.51	7.53	-28.4	-30.7	12.4	9.84e-05	0	44	0	1995440128	17	4695
2026-01-26 09:03:33.40	348.29	7.31	-28.5	-31.1	12.2	1.96e-04	0	44	0	2004877312	17	4806
2026-01-26 09:03:36.40	348.08	7.10	-31.0	-36.3	7.6	2.20e-04	0	44	0	2014314496	21	6687

#Closed at: 2026-01-26 09:03:39
#Recorded file [2014 MB]: D:/data/31010_260126_115251.dat