passes_logs/2026/01/26/R2M6_AANII_01/R2M6_AANII_01__20260126_224033_NOAA_21_JPSS-2_rec.log

#Pass ID: 20260126_224033_NOAA 21 (JPSS-2)
#Satellite: NOAA 21 (JPSS-2)
#Configuration: NOAA 21
#almurnet v.1.7.20240730
#Start time: 2026-01-26 22:40:34

#Version: 2.2.20231116
#Station: R2M6_AANII_01
#Location: 30.233357 lon 59.946436 lat
#TLE: 1 54234U 22150A   26026.43130734  .00000179  00000+0  10559-3 0  9998
#TLE: 2 54234  98.7509 327.1934 0000805 209.8356 150.2774 14.19539635166435

#Time	Az	El	Level	Level2	SNR	BER	BlckErr	Temp	State	Recorded	gain1	gain2
2026-01-26 22:40:34.58	30.67	7.08	-31.2	-36.7	4.5	1.40e+00	0	41	0	0	22	6762
2026-01-26 22:40:37.58	30.96	7.26	-31.9	-37.8	6.0	3.54e-01	0	41	0	3145728	24	7099
2026-01-26 22:40:40.60	31.26	7.45	-31.2	-36.0	8.0	8.77e-02	0	42	0	12582912	22	6188
2026-01-26 22:40:43.61	31.56	7.64	-30.5	-34.0	9.8	1.24e-02	0	42	0	22020096	21	5381
2026-01-26 22:40:46.63	31.87	7.82	-30.2	-33.6	10.4	6.14e-03	0	42	0	30408704	20	5319
2026-01-26 22:40:49.63	32.18	8.01	-29.7	-32.6	11.6	6.88e-04	0	42	0	40894464	19	5024
2026-01-26 22:40:52.63	32.49	8.20	-29.8	-32.5	11.4	1.22e-03	0	42	0	49283072	20	4888
2026-01-26 22:40:55.65	32.81	8.39	-29.7	-32.7	11.6	7.67e-04	0	42	0	58720256	19	5065
2026-01-26 22:40:58.67	33.13	8.58	-29.4	-31.9	12.2	2.62e-04	0	42	0	68157440	19	4764
2026-01-26 22:41:01.68	33.46	8.77	-29.2	-31.8	12.6	1.08e-04	0	42	0	77594624	18	4834
2026-01-26 22:41:04.70	33.79	8.96	-29.1	-31.6	12.6	8.62e-05	0	42	0	87031808	18	4764
2026-01-26 22:41:07.71	34.12	9.16	-29.2	-31.8	12.5	1.15e-04	0	42	0	96468992	18	4853
2026-01-26 22:41:10.70	34.46	9.35	-29.0	-31.7	12.9	5.34e-05	0	42	0	105906176	17	4932
2026-01-26 22:41:13.70	34.80	9.54	-28.8	-31.4	13.0	5.18e-05	0	42	0	115343360	17	4819
2026-01-26 22:41:16.71	35.14	9.73	-28.6	-30.8	13.5	9.90e-06	0	42	0	124780544	17	4633
2026-01-26 22:41:19.73	35.50	9.93	-28.7	-31.1	13.2	2.05e-05	0	42	0	134217728	17	4733
2026-01-26 22:41:22.74	35.85	10.13	-28.9	-31.4	13.0	3.05e-05	0	43	0	143654912	17	4849
2026-01-26 22:41:25.75	36.21	10.32	-28.6	-30.7	13.4	7.60e-06	0	43	0	153092096	17	4608
2026-01-26 22:41:28.76	36.58	10.52	-28.5	-30.5	13.7	6.80e-06	0	43	0	162529280	17	4543
2026-01-26 22:41:31.76	36.94	10.71	-28.4	-30.2	13.8	5.11e-05	0	43	0	171966464	17	4464
2026-01-26 22:41:34.77	37.32	10.91	-28.4	-30.3	13.7	6.10e-06	0	43	0	181403648	17	4477
2026-01-26 22:41:37.77	37.70	11.11	-28.2	-29.8	14.0	7.00e-07	0	43	0	190840832	17	4347
2026-01-26 22:41:40.77	38.08	11.31	-28.4	-30.2	13.8	9.00e-05	0	43	0	200278016	17	4462
2026-01-26 22:41:43.78	38.47	11.51	-28.2	-30.3	14.1	1.50e-06	0	43	0	209715200	16	4575
2026-01-26 22:41:46.80	38.86	11.71	-28.3	-30.6	14.0	1.51e-04	0	43	0	219152384	16	4675
2026-01-26 22:41:49.80	39.26	11.91	-28.8	-31.2	13.3	2.51e-05	0	43	0	228589568	17	4768
2026-01-26 22:41:52.81	39.67	12.11	-28.1	-29.6	14.3	5.87e-05	0	43	0	238026752	17	4264
2026-01-26 22:41:55.82	40.08	12.31	-27.9	-29.1	14.6	1.36e-04	0	43	0	247463936	17	4126
2026-01-26 22:41:58.83	40.49	12.51	-28.0	-29.9	14.4	1.42e-04	0	43	0	256901120	16	4469
2026-01-26 22:42:01.84	40.91	12.71	-28.3	-30.5	14.1	6.80e-06	0	43	0	266338304	16	4652
2026-01-26 22:42:04.85	41.34	12.91	-28.3	-30.6	14.0	2.20e-06	0	43	0	275775488	16	4681
2026-01-26 22:42:07.86	41.77	13.12	-28.2	-30.4	14.1	6.33e-05	0	43	0	285212672	16	4598
2026-01-26 22:42:10.87	42.21	13.32	-28.1	-30.0	14.3	7.00e-07	0	43	0	294649856	16	4505
2026-01-26 22:42:13.90	42.66	13.52	-28.0	-29.8	14.5	9.90e-06	0	43	0	304087040	16	4422
2026-01-26 22:42:16.90	43.11	13.73	-27.8	-29.3	14.8	0.00e+00	0	43	0	313524224	16	4281
2026-01-26 22:42:19.90	43.56	13.93	-27.6	-29.4	14.9	0.00e+00	0	43	0	322961408	15	4434
2026-01-26 22:42:22.91	44.02	14.13	-27.8	-29.8	14.8	0.00e+00	0	43	0	331350016	15	4536
2026-01-26 22:42:25.93	44.49	14.33	-27.7	-29.7	14.8	0.00e+00	0	43	0	341835776	15	4515
2026-01-26 22:42:28.93	44.97	14.54	-27.5	-29.3	15.0	0.00e+00	0	43	0	350224384	15	4389
2026-01-26 22:42:31.94	45.45	14.74	-27.5	-29.2	15.1	0.00e+00	0	43	0	359661568	15	4356
2026-01-26 22:42:34.96	45.94	14.94	-27.7	-29.7	14.8	0.00e+00	0	43	0	369098752	15	4523
2026-01-26 22:42:37.96	46.43	15.14	-27.6	-29.3	15.0	0.00e+00	0	43	0	378535936	15	4405
2026-01-26 22:42:40.98	46.93	15.35	-27.7	-29.5	15.0	0.00e+00	0	43	0	387973120	15	4438
2026-01-26 22:42:43.98	47.43	15.55	-27.4	-28.9	15.3	0.00e+00	0	43	0	397410304	15	4276
2026-01-26 22:42:46.99	47.95	15.75	-27.4	-28.8	15.3	0.00e+00	0	43	0	406847488	15	4261
2026-01-26 22:42:50.00	48.47	15.95	-27.5	-29.2	15.2	0.00e+00	0	43	0	416284672	15	4357
2026-01-26 22:42:53.00	48.99	16.15	-27.6	-29.3	15.1	0.00e+00	0	43	0	425721856	15	4383
2026-01-26 22:42:56.01	49.53	16.35	-27.3	-28.7	15.4	0.00e+00	0	43	0	435159040	15	4228
2026-01-26 22:42:59.02	50.07	16.55	-27.4	-28.9	15.3	0.00e+00	0	43	0	444596224	15	4285
2026-01-26 22:43:02.03	50.62	16.75	-27.5	-29.2	15.2	0.00e+00	0	43	0	454033408	15	4376
2026-01-26 22:43:05.04	51.17	16.94	-27.6	-29.4	15.1	0.00e+00	0	43	0	463470592	15	4405
2026-01-26 22:43:08.06	51.74	17.14	-27.6	-29.3	15.2	0.00e+00	0	43	0	472907776	15	4382
2026-01-26 22:43:11.08	52.31	17.33	-27.5	-29.1	15.3	0.00e+00	0	43	0	482344960	15	4331
2026-01-26 22:43:14.08	52.88	17.53	-27.5	-29.1	15.3	0.00e+00	0	44	0	491782144	15	4328
2026-01-26 22:43:17.10	53.47	17.72	-27.6	-29.4	15.1	0.00e+00	0	44	0	501219328	15	4406
2026-01-26 22:43:20.12	54.06	17.91	-27.5	-29.0	15.4	0.00e+00	0	43	0	510656512	15	4306
2026-01-26 22:43:23.13	54.66	18.10	-27.5	-29.2	15.3	0.00e+00	0	43	0	520093696	15	4353
2026-01-26 22:43:26.14	55.27	18.29	-27.6	-29.3	15.1	0.00e+00	0	43	0	529530880	15	4390
2026-01-26 22:43:29.15	55.88	18.48	-27.5	-29.0	15.4	0.00e+00	0	43	0	538968064	15	4297
2026-01-26 22:43:32.17	56.50	18.66	-27.4	-29.0	15.4	0.00e+00	0	43	0	548405248	15	4304
2026-01-26 22:43:35.19	57.13	18.85	-27.4	-28.9	15.4	0.00e+00	0	43	0	557842432	15	4289
2026-01-26 22:43:38.20	57.77	19.03	-27.5	-29.1	15.3	0.00e+00	0	44	0	567279616	15	4328
2026-01-26 22:43:41.21	58.41	19.21	-27.4	-28.9	15.4	0.00e+00	0	44	0	576716800	15	4268
2026-01-26 22:43:44.22	59.06	19.38	-27.4	-28.9	15.5	0.00e+00	0	43	0	586153984	15	4264
2026-01-26 22:43:47.24	59.72	19.56	-27.4	-28.9	15.4	0.00e+00	0	44	0	595591168	15	4268
2026-01-26 22:43:50.24	60.38	19.73	-27.4	-28.9	15.5	0.00e+00	0	44	0	605028352	15	4260
2026-01-26 22:43:53.25	61.05	19.90	-27.2	-28.5	15.7	0.00e+00	0	44	0	614465536	15	4160
2026-01-26 22:43:56.25	61.73	20.06	-27.2	-28.3	15.7	0.00e+00	0	44	0	623902720	15	4123
2026-01-26 22:43:59.26	62.42	20.23	-27.2	-29.0	15.7	0.00e+00	0	43	0	633339904	14	4406
2026-01-26 22:44:02.26	63.11	20.39	-27.2	-28.9	15.7	0.00e+00	0	43	0	642777088	14	4372
2026-01-26 22:44:05.27	63.81	20.54	-27.1	-28.6	15.9	0.00e+00	0	44	0	651165696	14	4291
2026-01-26 22:44:08.28	64.52	20.70	-27.1	-28.6	15.9	0.00e+00	0	43	0	661651456	14	4314
2026-01-26 22:44:11.29	65.23	20.85	-27.2	-28.9	15.7	0.00e+00	0	43	0	671088640	14	4375
2026-01-26 22:44:14.30	65.95	20.99	-27.1	-28.7	15.8	0.00e+00	0	43	0	679477248	14	4339
2026-01-26 22:44:17.31	66.68	21.14	-27.3	-29.1	15.6	0.00e+00	0	44	0	688914432	14	4435
2026-01-26 22:44:20.31	67.42	21.27	-27.3	-29.1	15.6	0.00e+00	0	44	0	698351616	14	4430
2026-01-26 22:44:23.33	68.16	21.41	-27.0	-28.5	15.9	0.00e+00	0	44	0	707788800	14	4269
2026-01-26 22:44:26.34	68.91	21.54	-26.9	-28.2	16.1	0.00e+00	0	44	0	717225984	14	4194
2026-01-26 22:44:29.35	69.66	21.67	-27.1	-28.8	15.8	0.00e+00	0	44	0	726663168	14	4350
2026-01-26 22:44:32.36	70.42	21.79	-27.0	-28.5	16.0	0.00e+00	0	43	0	736100352	14	4263
2026-01-26 22:44:35.37	71.19	21.91	-26.8	-28.1	16.2	0.00e+00	0	44	0	745537536	14	4153
2026-01-26 22:44:38.39	71.96	22.02	-26.9	-28.2	16.1	0.00e+00	0	44	0	754974720	14	4200
2026-01-26 22:44:41.40	72.74	22.13	-26.8	-28.1	16.2	0.00e+00	0	44	0	764411904	14	4155
2026-01-26 22:44:44.41	73.52	22.23	-26.9	-28.3	16.1	0.00e+00	0	44	0	773849088	14	4229
2026-01-26 22:44:47.41	74.30	22.33	-27.0	-28.5	16.0	0.00e+00	0	44	0	783286272	14	4275
2026-01-26 22:44:50.43	75.10	22.42	-26.8	-28.1	16.2	0.00e+00	0	43	0	792723456	14	4161
2026-01-26 22:44:53.44	75.89	22.51	-27.1	-28.6	15.4	0.00e+00	0	44	0	802160640	14	4292
2026-01-26 22:44:56.45	76.70	22.60	-27.0	-28.4	16.1	0.00e+00	0	44	0	811597824	14	4238
2026-01-26 22:44:59.47	77.50	22.67	-26.7	-27.7	16.4	7.00e-07	0	44	0	821035008	14	4054
2026-01-26 22:45:02.48	78.31	22.74	-26.6	-28.1	16.4	0.00e+00	0	44	0	830472192	13	4275
2026-01-26 22:45:05.49	79.12	22.81	-26.8	-28.6	16.2	6.03e-04	0	44	0	839909376	13	4413
2026-01-26 22:45:08.49	79.94	22.87	-27.0	-28.9	16.0	4.50e-06	0	44	0	849346560	13	4499
2026-01-26 22:45:11.50	80.76	22.93	-26.7	-27.8	16.3	3.58e-04	0	44	0	858783744	14	4095
2026-01-26 22:45:14.51	81.58	22.97	-26.9	-28.2	16.2	2.01e-04	0	44	0	868220928	14	4189
2026-01-26 22:45:17.52	82.40	23.02	-26.8	-28.0	16.2	1.15e-04	0	44	0	877658112	14	4143
2026-01-26 22:45:20.52	83.23	23.05	-27.0	-28.4	16.0	8.85e-05	0	44	0	887095296	14	4242
2026-01-26 22:45:23.54	84.06	23.08	-26.9	-28.4	16.1	8.30e-06	0	44	0	896532480	14	4233
2026-01-26 22:45:26.54	84.88	23.11	-26.9	-28.3	16.1	0.00e+00	0	44	0	905969664	14	4206
2026-01-26 22:45:29.55	85.71	23.13	-27.0	-28.4	16.0	0.00e+00	0	44	0	915406848	14	4239
2026-01-26 22:45:32.55	86.54	23.14	-26.9	-28.3	16.1	2.13e-05	0	44	0	924844032	14	4226
2026-01-26 22:45:35.57	87.38	23.15	-26.8	-28.1	16.2	0.00e+00	0	44	0	934281216	14	4174
2026-01-26 22:45:38.59	88.21	23.15	-27.0	-28.4	16.0	0.00e+00	0	44	0	943718400	14	4245
2026-01-26 22:45:41.60	89.04	23.14	-26.8	-28.0	16.3	0.00e+00	0	44	0	953155584	14	4143
2026-01-26 22:45:44.61	89.88	23.13	-26.9	-28.2	16.2	0.00e+00	0	44	0	962592768	14	4184
2026-01-26 22:45:47.62	90.71	23.11	-26.7	-27.7	16.4	0.00e+00	0	44	0	972029952	14	4068
2026-01-26 22:45:50.62	91.53	23.09	-26.5	-27.4	16.6	0.00e+00	0	44	0	980418560	14	3992
2026-01-26 22:45:53.61	92.36	23.06	-26.7	-27.8	16.3	0.00e+00	0	44	0	989855744	14	4087
2026-01-26 22:45:56.62	93.19	23.02	-26.8	-28.0	16.2	0.00e+00	0	44	0	999292928	14	4132
2026-01-26 22:45:59.64	94.01	22.98	-26.7	-27.9	16.3	0.00e+00	0	44	0	1008730112	14	4105
2026-01-26 22:46:02.65	94.84	22.93	-26.4	-27.2	16.6	0.00e+00	0	44	0	1018167296	14	3936
2026-01-26 22:46:05.66	95.66	22.88	-26.5	-27.4	16.6	0.00e+00	0	44	0	1027604480	14	3972
2026-01-26 22:46:08.67	96.47	22.82	-26.6	-27.5	16.5	0.00e+00	0	44	0	1037041664	14	4016
2026-01-26 22:46:11.69	97.29	22.75	-26.7	-27.8	16.3	0.00e+00	0	43	0	1046478848	14	4091
2026-01-26 22:46:14.70	98.10	22.68	-26.8	-28.1	16.1	0.00e+00	0	44	0	1055916032	14	4180
2026-01-26 22:46:17.71	98.91	22.60	-26.7	-27.9	16.3	0.00e+00	0	44	0	1065353216	14	4104
2026-01-26 22:46:20.73	99.71	22.52	-26.7	-27.7	16.3	0.00e+00	0	44	0	1074790400	14	4066
2026-01-26 22:46:23.74	100.51	22.43	-26.7	-27.8	16.3	0.00e+00	0	44	0	1084227584	14	4087
2026-01-26 22:46:26.76	101.31	22.34	-26.6	-27.6	16.4	0.00e+00	0	44	0	1093664768	14	4026
2026-01-26 22:46:29.76	102.10	22.24	-26.6	-27.6	16.4	0.00e+00	0	44	0	1103101952	14	4040
2026-01-26 22:46:32.78	102.88	22.13	-26.9	-28.3	16.0	0.00e+00	0	44	0	1112539136	14	4224
2026-01-26 22:46:35.80	103.67	22.03	-26.9	-28.3	16.0	0.00e+00	0	44	0	1121976320	14	4225
2026-01-26 22:46:38.82	104.44	21.91	-26.9	-28.3	16.0	0.00e+00	0	44	0	1131413504	14	4239
2026-01-26 22:46:41.84	105.21	21.79	-26.9	-28.7	16.0	0.00e+00	0	44	0	1140850688	13	4452
2026-01-26 22:46:44.85	105.98	21.67	-27.0	-28.9	15.9	7.01e-05	0	44	0	1150287872	13	4513
2026-01-26 22:46:47.85	106.73	21.54	-27.2	-29.0	15.6	0.00e+00	0	44	0	1159725056	14	4416
2026-01-26 22:46:50.86	107.48	21.41	-27.0	-28.4	15.9	2.27e-04	0	44	0	1169162240	14	4243
2026-01-26 22:46:53.88	108.23	21.28	-26.9	-28.3	16.0	0.00e+00	0	44	0	1178599424	14	4211
2026-01-26 22:46:56.89	108.97	21.14	-27.0	-28.6	15.8	7.40e-05	0	44	0	1188036608	14	4314
2026-01-26 22:46:59.90	109.70	20.99	-27.0	-28.6	15.7	1.94e-04	0	44	0	1197473792	14	4316
2026-01-26 22:47:02.91	110.42	20.85	-27.0	-28.5	15.8	6.58e-04	0	44	0	1206910976	14	4296
2026-01-26 22:47:05.92	111.14	20.69	-27.3	-29.1	15.5	8.31e-04	0	44	0	1216348160	14	4456
2026-01-26 22:47:08.93	111.85	20.54	-27.1	-28.8	15.6	0.00e+00	0	44	0	1225785344	14	4384
2026-01-26 22:47:11.93	112.55	20.38	-26.8	-28.2	16.0	8.01e-05	0	44	0	1235222528	14	4190
2026-01-26 22:47:14.94	113.25	20.22	-26.7	-27.9	16.1	0.00e+00	0	44	0	1244659712	14	4136
2026-01-26 22:47:17.95	113.94	20.06	-26.9	-28.5	15.8	4.26e-04	0	44	0	1254096896	14	4287
2026-01-26 22:47:20.95	114.62	19.89	-27.0	-29.0	15.7	0.00e+00	0	44	0	1263534080	13	4541
2026-01-26 22:47:23.97	115.30	19.72	-27.0	-28.6	15.7	0.00e+00	0	44	0	1272971264	14	4307
2026-01-26 22:47:26.98	115.97	19.55	-27.0	-28.7	15.6	0.00e+00	0	44	0	1282408448	14	4339
2026-01-26 22:47:29.99	116.63	19.37	-27.2	-28.9	15.5	0.00e+00	0	44	0	1291845632	14	4408
2026-01-26 22:47:33.01	117.28	19.19	-27.1	-28.8	15.5	0.00e+00	0	44	0	1301282816	14	4388
2026-01-26 22:47:36.02	117.93	19.01	-27.4	-29.4	15.2	0.00e+00	0	44	0	1310720000	14	4549
2026-01-26 22:47:39.03	118.57	18.83	-27.4	-29.4	15.1	0.00e+00	0	44	0	1320157184	14	4556
2026-01-26 22:47:42.04	119.20	18.65	-27.6	-29.4	14.9	0.00e+00	0	44	0	1329594368	15	4447
2026-01-26 22:47:45.04	119.82	18.46	-27.5	-28.8	15.1	0.00e+00	0	44	0	1339031552	16	4144
2026-01-26 22:47:48.04	120.43	18.28	-27.1	-28.3	15.5	0.00e+00	0	44	0	1347420160	15	4120
2026-01-26 22:47:51.06	121.04	18.09	-27.0	-28.1	15.6	0.00e+00	0	44	0	1356857344	15	4084
2026-01-26 22:47:54.06	121.64	17.89	-26.8	-27.6	15.9	0.00e+00	0	44	0	1366294528	15	3946
2026-01-26 22:47:57.07	122.24	17.70	-26.9	-28.2	15.8	0.00e+00	0	44	0	1375731712	14	4210
2026-01-26 22:48:00.08	122.83	17.51	-27.0	-28.7	15.5	0.00e+00	0	44	0	1385168896	14	4334
2026-01-26 22:48:03.09	123.41	17.31	-27.0	-28.6	15.5	0.00e+00	0	44	0	1394606080	14	4340
2026-01-26 22:48:06.10	123.98	17.12	-27.0	-28.7	15.5	0.00e+00	0	44	0	1404043264	14	4351
2026-01-26 22:48:09.10	124.54	16.92	-27.0	-28.6	15.6	0.00e+00	0	44	0	1413480448	14	4310
2026-01-26 22:48:12.12	125.10	16.72	-27.0	-28.6	15.5	0.00e+00	0	44	0	1422917632	14	4315
2026-01-26 22:48:15.14	125.65	16.52	-27.1	-28.9	15.3	1.83e-05	0	44	0	1432354816	14	4422
2026-01-26 22:48:18.16	126.20	16.32	-27.1	-29.0	15.3	0.00e+00	0	44	0	1441792000	14	4437
2026-01-26 22:48:21.16	126.73	16.12	-27.1	-28.9	15.3	6.48e-05	0	44	0	1451229184	14	4400
2026-01-26 22:48:24.16	127.26	15.91	-27.2	-29.0	15.2	7.00e-07	0	44	0	1460666368	14	4449
2026-01-26 22:48:27.18	127.79	15.71	-27.0	-28.8	15.3	4.50e-06	0	44	0	1470103552	14	4416
2026-01-26 22:48:30.20	128.30	15.51	-27.2	-29.1	15.0	6.10e-06	0	44	0	1479540736	14	4528
2026-01-26 22:48:33.21	128.81	15.30	-27.5	-29.8	14.6	5.30e-06	0	44	0	1488977920	14	4730
2026-01-26 22:48:36.22	129.32	15.10	-27.7	-29.7	14.5	0.00e+00	0	44	0	1498415104	15	4547
2026-01-26 22:48:39.23	129.81	14.90	-27.9	-30.1	14.2	4.50e-06	0	44	0	1507852288	15	4651
2026-01-26 22:48:42.25	130.30	14.69	-28.1	-30.2	14.0	6.10e-06	0	44	0	1517289472	16	4582
2026-01-26 22:48:45.27	130.79	14.49	-28.0	-29.9	14.2	1.50e-06	0	44	0	1526726656	16	4488
2026-01-26 22:48:48.28	131.26	14.28	-27.7	-29.9	14.3	7.00e-07	0	44	0	1536163840	15	4594
2026-01-26 22:48:51.29	131.73	14.08	-27.6	-29.7	14.3	1.50e-06	0	44	0	1545601024	15	4565
2026-01-26 22:48:54.31	132.20	13.87	-27.4	-29.3	14.5	1.50e-06	0	44	0	1555038208	15	4454
2026-01-26 22:48:57.32	132.66	13.66	-27.6	-29.7	14.3	0.00e+00	0	44	0	1564475392	15	4571
2026-01-26 22:49:00.33	133.11	13.46	-27.9	-30.3	14.0	1.50e-06	0	44	0	1573912576	15	4741
2026-01-26 22:49:03.34	133.55	13.26	-28.2	-30.4	13.7	6.10e-06	0	44	0	1583349760	16	4676
2026-01-26 22:49:06.36	134.00	13.05	-28.2	-30.7	13.6	1.14e-05	0	44	0	1592786944	16	4758
2026-01-26 22:49:09.37	134.43	12.85	-28.1	-30.3	13.8	7.60e-06	0	44	0	1602224128	16	4644
2026-01-26 22:49:12.38	134.86	12.64	-28.0	-30.0	13.9	7.00e-07	0	44	0	1611661312	16	4550
2026-01-26 22:49:15.39	135.28	12.44	-28.2	-30.4	13.7	1.14e-05	0	44	0	1621098496	16	4682
2026-01-26 22:49:18.41	135.70	12.23	-28.3	-30.8	13.4	9.90e-06	0	44	0	1630535680	16	4800
2026-01-26 22:49:21.44	136.11	12.03	-28.4	-31.0	13.2	2.21e-05	0	44	0	1639972864	16	4893
2026-01-26 22:49:24.45	136.52	11.83	-28.1	-30.5	13.5	1.14e-05	0	44	0	1649410048	16	4748
2026-01-26 22:49:27.47	136.92	11.62	-28.0	-30.8	13.4	1.52e-05	0	44	0	1658847232	15	4978
2026-01-26 22:49:30.47	137.31	11.42	-28.2	-30.6	13.4	1.67e-05	0	44	0	1668284416	16	4760
2026-01-26 22:49:33.46	137.70	11.22	-28.2	-30.5	13.5	1.06e-05	0	44	0	1677721600	16	4713
2026-01-26 22:49:36.49	138.09	11.02	-28.3	-30.7	13.4	2.36e-05	0	44	0	1687158784	16	4766
2026-01-26 22:49:39.50	138.47	10.82	-28.1	-30.5	13.4	1.60e-05	0	44	0	1696595968	16	4726
2026-01-26 22:49:42.50	138.84	10.62	-28.2	-30.6	13.3	1.37e-05	0	44	0	1706033152	16	4757
2026-01-26 22:49:45.52	139.21	10.42	-28.3	-30.8	13.3	1.98e-05	0	44	0	1715470336	16	4788
2026-01-26 22:49:48.51	139.58	10.22	-28.3	-30.8	13.2	1.90e-05	0	44	0	1723858944	16	4822
2026-01-26 22:49:51.51	139.93	10.03	-28.4	-31.3	12.9	5.26e-05	0	44	0	1733296128	16	4987
2026-01-26 22:49:54.52	140.29	9.83	-28.6	-31.3	12.0	1.06e-03	0	44	0	1742733312	17	4874
2026-01-26 22:49:57.54	140.64	9.63	-28.6	-31.1	12.6	1.24e-04	0	44	0	1752170496	17	4822
2026-01-26 22:50:00.55	140.99	9.44	-28.5	-30.8	12.7	6.48e-05	0	44	0	1761607680	17	4709
2026-01-26 22:50:03.56	141.33	9.24	-28.6	-31.2	12.5	1.60e-04	0	44	0	1771044864	17	4845
2026-01-26 22:50:06.57	141.67	9.04	-28.5	-30.9	12.6	9.84e-05	0	44	0	1780482048	17	4737
2026-01-26 22:50:09.59	142.00	8.85	-28.5	-31.1	12.4	8.11e-04	0	44	0	1789919232	17	4819
2026-01-26 22:50:12.60	142.33	8.66	-28.6	-31.3	12.2	2.07e-04	0	44	0	1799356416	17	4900
2026-01-26 22:50:15.61	142.66	8.46	-28.7	-31.5	12.0	9.16e-04	0	44	0	1808793600	17	4995
2026-01-26 22:50:18.63	142.98	8.27	-28.7	-31.7	11.8	1.72e-03	0	44	0	1818230784	17	5055
2026-01-26 22:50:21.64	143.30	8.08	-28.9	-32.3	11.4	2.51e-03	0	44	0	1827667968	17	5275
2026-01-26 22:50:24.66	143.61	7.89	-29.1	-32.0	11.3	4.19e-03	0	44	0	1837105152	18	5040
2026-01-26 22:50:27.67	143.92	7.70	-29.1	-32.0	11.3	4.73e-03	0	44	0	1846542336	18	5050
2026-01-26 22:50:30.68	144.22	7.51	-28.8	-31.7	11.7	3.97e-03	0	44	0	1855979520	17	5076
2026-01-26 22:50:33.68	144.52	7.32	-28.8	-32.0	11.6	6.83e-04	0	44	0	1865416704	17	5155
2026-01-26 22:50:36.69	144.82	7.13	-29.1	-32.0	11.2	4.13e-03	0	44	0	1874853888	18	5059

#Closed at: 2026-01-26 22:50:38
#Recorded file [1876 MB]: D:/data/31010_260127_014036.dat