passes_logs/2026/01/26/R2M6_AANII_01/R2M6_AANII_01__20260126_012945_NOAA_20_JPSS-1_rec.log

#Pass ID: 20260126_012945_NOAA 20 (JPSS-1)
#Satellite: NOAA 20 (JPSS-1)
#Configuration: NOAA 20
#almurnet v.1.7.20240730
#Start time: 2026-01-26 01:29:46

#Version: 2.2.20231116
#Station: R2M6_AANII_01
#Location: 30.233357 lon 59.946436 lat
#TLE: 1 43013U 17073A   26025.47986292  .00000161  00000+0  97249-4 0  9993
#TLE: 2 43013  98.7646 326.3091 0001052  24.2709 335.8516 14.19540188424225

#Time	Az	El	Level	Level2	SNR	BER	BlckErr	Temp	State	Recorded	gain1	gain2
2026-01-26 01:29:46.70	13.01	7.07	-31.6	-39.1	4.7	1.33e+00	0	42	0	0	23	8532
2026-01-26 01:29:49.72	12.85	7.28	-31.5	-38.9	6.5	2.51e-01	0	42	102	1048576	23	8430
2026-01-26 01:29:52.74	12.67	7.51	-31.9	-40.0	5.8	3.76e-01	0	42	102	1048576	23	9228
2026-01-26 01:29:55.76	12.50	7.73	-31.4	-37.9	7.8	1.39e-01	0	42	102	1048576	22	7608
2026-01-26 01:29:58.76	12.32	7.95	-30.8	-35.8	9.9	1.12e-02	0	42	102	1048576	21	6432
2026-01-26 01:30:01.77	12.14	8.17	-30.2	-34.4	11.4	9.63e-04	0	42	102	1048576	20	5813
2026-01-26 01:30:04.79	11.96	8.40	-30.3	-34.7	11.3	9.83e-04	0	42	102	1048576	20	5920
2026-01-26 01:30:07.81	11.77	8.63	-30.2	-34.3	11.6	6.57e-04	0	42	102	1048576	20	5746
2026-01-26 01:30:10.83	11.58	8.86	-30.2	-34.1	11.8	1.20e-03	0	42	102	1048576	20	5643
2026-01-26 01:30:13.83	11.39	9.09	-30.1	-34.0	11.8	1.17e-03	0	42	102	1048576	20	5610
2026-01-26 01:30:16.85	11.19	9.33	-30.2	-34.2	11.6	1.24e-03	0	43	102	1048576	20	5699
2026-01-26 01:30:19.86	10.99	9.56	-30.3	-34.5	11.5	1.42e-03	0	43	102	1048576	20	5835
2026-01-26 01:30:22.88	10.79	9.80	-30.1	-33.9	11.9	9.60e-04	0	43	102	1048576	20	5567
2026-01-26 01:30:25.90	10.58	10.04	-30.1	-34.0	11.8	1.23e-03	0	43	102	1048576	20	5602
2026-01-26 01:30:28.91	10.37	10.28	-30.1	-34.0	11.9	9.12e-04	0	43	102	1048576	20	5582
2026-01-26 01:30:31.92	10.16	10.53	-30.2	-34.0	11.9	1.00e-03	0	43	102	1048576	20	5608
2026-01-26 01:30:34.93	9.94	10.77	-29.9	-33.7	12.5	5.85e-04	0	43	102	1048576	19	5587
2026-01-26 01:30:37.94	9.72	11.02	-29.9	-33.3	12.4	5.76e-04	0	43	102	1048576	20	5314
2026-01-26 01:30:40.95	9.49	11.27	-29.9	-33.7	12.6	4.07e-04	0	43	102	1048576	19	5548
2026-01-26 01:30:43.96	9.26	11.52	-30.0	-33.3	12.4	1.77e-04	0	43	102	1048576	20	5322
2026-01-26 01:30:46.96	9.03	11.78	-30.1	-33.7	12.2	9.84e-05	0	43	102	1048576	20	5446
2026-01-26 01:30:49.97	8.79	12.03	-29.9	-33.2	12.5	7.70e-05	0	43	102	1048576	20	5258
2026-01-26 01:30:52.99	8.55	12.29	-29.9	-33.5	12.8	4.18e-04	0	43	102	1048576	19	5478
2026-01-26 01:30:56.00	8.30	12.55	-29.9	-33.1	12.6	4.28e-04	0	43	102	1048576	20	5212
2026-01-26 01:30:59.02	8.05	12.81	-30.0	-33.2	12.6	9.53e-05	0	43	102	1048576	20	5259
2026-01-26 01:31:02.02	7.80	13.08	-29.9	-33.1	12.7	5.34e-05	0	43	102	1048576	20	5204
2026-01-26 01:31:05.03	7.53	13.35	-30.1	-33.8	12.3	1.27e-04	0	43	102	1048576	20	5466
2026-01-26 01:31:08.05	7.27	13.62	-30.0	-33.3	12.6	1.31e-04	0	43	102	1048576	20	5297
2026-01-26 01:31:11.05	7.00	13.89	-30.3	-34.5	11.8	4.10e-04	0	43	102	1048576	20	5777
2026-01-26 01:31:14.07	6.72	14.16	-30.0	-33.4	12.6	1.02e-04	0	43	102	1048576	20	5325
2026-01-26 01:31:17.07	6.44	14.44	-29.9	-33.0	12.9	7.55e-05	0	43	102	1048576	20	5140
2026-01-26 01:31:20.08	6.15	14.72	-30.0	-33.4	12.6	8.08e-05	0	43	102	1048576	20	5310
2026-01-26 01:31:23.08	5.86	15.00	-29.6	-33.4	12.6	7.55e-05	0	43	102	1048576	19	5549
2026-01-26 01:31:26.10	5.56	15.28	-30.0	-33.3	11.4	8.77e-05	0	44	102	1048576	20	5263
2026-01-26 01:31:29.11	5.26	15.57	-30.0	-33.3	12.7	7.01e-05	0	44	102	1048576	20	5267
2026-01-26 01:31:32.13	4.94	15.86	-29.9	-33.4	13.0	3.28e-05	0	43	102	1048576	19	5402
2026-01-26 01:31:35.15	4.62	16.15	-29.9	-33.5	13.1	4.50e-05	0	43	102	1048576	19	5426
2026-01-26 01:31:38.16	4.30	16.45	-29.9	-33.4	13.2	2.66e-03	0	44	102	1048576	19	5373
2026-01-26 01:31:41.18	3.97	16.75	-29.8	-33.2	13.2	2.46e-03	0	44	102	1048576	19	5322
2026-01-26 01:31:44.19	3.63	17.05	-29.9	-33.3	13.2	2.88e-03	0	44	102	1048576	19	5364
2026-01-26 01:31:47.20	3.29	17.35	-29.7	-32.7	13.6	2.63e-03	0	43	102	1048576	19	5132
2026-01-26 01:31:50.22	2.94	17.65	-29.8	-33.2	13.2	1.52e-05	0	43	102	1048576	19	5329
2026-01-26 01:31:53.25	2.57	17.96	-29.8	-33.2	13.3	1.48e-03	0	44	102	1048576	19	5298
2026-01-26 01:31:56.26	2.21	18.27	-29.9	-33.3	13.2	2.63e-03	0	44	102	1048576	19	5350
2026-01-26 01:31:59.26	1.83	18.59	-29.6	-32.6	13.7	2.35e-03	0	44	102	1048576	19	5098
2026-01-26 01:32:02.27	1.45	18.90	-29.8	-33.1	13.4	2.65e-03	0	44	102	1048576	19	5253
2026-01-26 01:32:05.29	1.06	19.22	-29.7	-32.9	13.5	2.56e-03	0	44	102	1048576	19	5206
2026-01-26 01:32:08.31	0.66	19.54	-29.7	-32.9	13.6	2.47e-03	0	44	102	1048576	19	5199
2026-01-26 01:32:11.31	0.25	19.87	-29.9	-33.4	13.3	1.98e-05	0	44	102	1048576	19	5362
2026-01-26 01:32:14.31	359.84	20.19	-30.0	-33.3	13.0	3.50e-05	0	44	102	1048576	20	5227
2026-01-26 01:32:17.32	359.41	20.52	-29.9	-33.3	13.4	2.56e-03	0	44	102	1048576	19	5317
2026-01-26 01:32:20.33	358.98	20.85	-30.1	-33.3	13.0	2.93e-03	0	44	102	1048576	20	5225
2026-01-26 01:32:23.33	358.53	21.18	-29.9	-32.8	13.3	2.85e-03	0	44	102	1048576	20	5044
2026-01-26 01:32:26.34	358.08	21.52	-30.0	-33.1	13.1	2.75e-03	0	44	102	1048576	20	5167
2026-01-26 01:32:29.35	357.61	21.86	-30.0	-33.2	13.0	4.42e-05	0	44	102	1048576	20	5201
2026-01-26 01:32:32.36	357.14	22.20	-30.3	-33.9	12.6	9.68e-05	0	44	102	1048576	20	5470
2026-01-26 01:32:35.37	356.65	22.55	-30.2	-33.8	12.7	8.23e-05	0	44	102	1048576	20	5416
2026-01-26 01:32:38.39	356.15	22.89	-30.1	-33.4	13.0	2.28e-05	0	44	102	1048576	20	5274
2026-01-26 01:32:41.40	355.64	23.24	-30.1	-33.3	13.0	3.50e-05	0	44	102	1048576	20	5232
2026-01-26 01:32:44.41	355.12	23.59	-30.1	-33.4	13.0	3.58e-05	0	44	102	1048576	20	5254
2026-01-26 01:32:47.41	354.59	23.95	-30.2	-33.6	12.9	4.88e-05	0	44	102	1048576	20	5320
2026-01-26 01:32:50.43	354.04	24.30	-30.0	-33.4	13.4	1.67e-05	0	44	102	1048576	19	5352
2026-01-26 01:32:53.45	353.48	24.66	-30.0	-32.9	13.4	1.67e-05	0	44	102	1048576	20	5075
2026-01-26 01:32:56.47	352.91	25.02	-29.9	-33.4	13.1	1.14e-05	0	44	102	1048576	19	5348
2026-01-26 01:32:59.47	352.32	25.38	-30.0	-33.1	13.1	1.75e-05	0	44	102	1048576	20	5155
2026-01-26 01:33:02.48	351.72	25.74	-30.3	-33.9	12.8	4.42e-05	0	44	102	1048576	20	5434
2026-01-26 01:33:05.48	351.11	26.10	-30.2	-33.5	13.0	4.19e-05	0	44	102	1048576	20	5288
2026-01-26 01:33:08.50	350.48	26.47	-30.3	-33.9	12.7	2.09e-03	0	44	102	1048576	20	5432
2026-01-26 01:33:11.51	349.84	26.84	-30.5	-34.0	12.4	2.51e-03	0	44	102	1048576	21	5356
2026-01-26 01:33:14.52	349.19	27.20	-30.7	-34.6	12.0	2.88e-04	0	44	102	1048576	21	5619
2026-01-26 01:33:17.54	348.51	27.57	-30.9	-35.1	11.6	6.28e-04	0	44	102	1048576	21	5861
2026-01-26 01:33:20.55	347.82	27.94	-31.0	-34.9	11.4	1.32e-03	0	44	102	1048576	22	5654
2026-01-26 01:33:23.57	347.11	28.31	-31.0	-35.0	11.3	1.37e-03	0	44	102	1048576	22	5707
2026-01-26 01:33:26.58	346.39	28.68	-31.2	-35.5	11.0	3.11e-03	0	44	102	1048576	22	5934
2026-01-26 01:33:29.58	345.66	29.04	-31.0	-35.3	11.5	2.31e-03	0	44	102	1048576	21	5952
2026-01-26 01:33:32.60	344.90	29.41	-31.2	-35.5	11.0	4.35e-03	0	44	102	1048576	22	5908
2026-01-26 01:33:35.61	344.13	29.78	-31.1	-35.3	11.2	4.03e-03	0	44	102	1048576	22	5817
2026-01-26 01:33:38.61	343.34	30.14	-31.4	-36.3	10.4	7.08e-03	0	44	102	1048576	22	6311
2026-01-26 01:33:41.62	342.53	30.50	-31.5	-36.4	10.4	7.18e-03	0	44	102	1048576	22	6340
2026-01-26 01:33:44.64	341.70	30.86	-31.3	-35.8	10.8	5.54e-03	0	44	102	1048576	22	6071
2026-01-26 01:33:47.64	340.85	31.22	-31.2	-35.4	11.1	3.54e-03	0	44	102	1048576	22	5874
2026-01-26 01:33:50.65	339.99	31.58	-31.2	-35.4	11.1	3.07e-03	0	44	102	1048576	22	5849
2026-01-26 01:33:53.66	339.10	31.93	-30.9	-35.1	11.7	2.40e-03	0	44	102	1048576	21	5818
2026-01-26 01:33:56.67	338.20	32.28	-31.4	-36.0	10.7	2.88e-03	0	44	102	1048576	22	6158
2026-01-26 01:33:59.67	337.27	32.62	-31.6	-36.4	10.0	7.67e-03	0	44	102	1048576	23	6228
2026-01-26 01:34:02.68	336.33	32.96	-31.6	-36.2	10.2	7.20e-03	0	44	102	1048576	23	6153
2026-01-26 01:34:05.69	335.37	33.29	-31.6	-36.4	10.0	9.86e-03	0	44	102	1048576	23	6257
2026-01-26 01:34:08.69	334.39	33.62	-31.8	-37.2	9.4	1.88e-02	0	44	102	1048576	23	6661
2026-01-26 01:34:11.70	333.38	33.94	-31.8	-37.2	9.5	1.52e-02	0	44	102	1048576	23	6670
2026-01-26 01:34:14.71	332.36	34.25	-32.2	-38.4	8.1	5.74e-02	0	44	102	1048576	24	7289
2026-01-26 01:34:17.71	331.32	34.56	-32.4	-39.0	7.7	8.25e-02	0	44	102	1048576	24	7728
2026-01-26 01:34:20.72	330.25	34.86	-32.1	-37.8	8.5	4.90e-02	0	44	102	1048576	24	6960
2026-01-26 01:34:23.74	329.16	35.15	-32.0	-37.4	8.9	2.30e-02	0	44	102	1048576	24	6683
2026-01-26 01:34:26.76	328.06	35.43	-31.9	-37.4	9.3	1.76e-02	0	44	102	1048576	23	6793
2026-01-26 01:34:29.77	326.94	35.70	-31.8	-37.0	9.7	1.06e-02	0	44	102	1048576	23	6537
2026-01-26 01:34:32.78	325.79	35.97	-31.5	-36.0	10.4	5.54e-03	0	44	102	1048576	23	6004
2026-01-26 01:34:35.80	324.63	36.22	-30.5	-33.8	12.6	1.60e-04	0	44	102	1048576	21	5279
2026-01-26 01:34:38.82	323.45	36.45	-30.3	-33.6	13.1	2.74e-05	0	44	102	1048576	20	5302
2026-01-26 01:34:41.83	322.26	36.68	-30.2	-33.4	13.2	1.44e-05	0	44	102	1048576	20	5239
2026-01-26 01:34:44.84	321.05	36.89	-30.0	-33.0	13.6	6.10e-06	0	44	102	1048576	20	5050
2026-01-26 01:34:47.86	319.82	37.09	-30.0	-33.0	13.6	1.52e-05	0	44	102	1048576	20	5050
2026-01-26 01:34:50.87	318.58	37.28	-30.1	-33.1	13.5	1.33e-04	0	44	102	1048576	20	5100
2026-01-26 01:34:53.89	317.32	37.45	-29.9	-33.1	14.0	3.70e-04	0	44	102	1048576	19	5200
2026-01-26 01:34:56.90	316.05	37.60	-29.6	-32.3	14.5	2.99e-04	0	44	102	1048576	19	4895
2026-01-26 01:34:59.91	314.77	37.74	-28.9	-31.5	15.5	3.26e-04	0	44	102	1048576	17	4852
2026-01-26 01:35:02.92	313.49	37.87	-29.2	-31.8	15.1	4.38e-04	0	44	102	1048576	18	4854
2026-01-26 01:35:05.92	312.19	37.97	-29.3	-32.0	15.0	0.00e+00	0	44	102	1048576	18	4933
2026-01-26 01:35:08.93	310.89	38.07	-29.0	-31.2	15.4	4.65e-04	0	44	102	1048576	18	4650
2026-01-26 01:35:11.94	309.57	38.14	-28.9	-31.6	15.5	3.44e-04	0	44	102	1048576	17	4894
2026-01-26 01:35:14.95	308.25	38.20	-28.7	-31.2	15.8	1.88e-04	0	44	102	1048576	17	4748
2026-01-26 01:35:17.95	306.94	38.24	-29.2	-31.8	15.0	4.57e-04	0	44	102	1048576	18	4861
2026-01-26 01:35:20.96	305.61	38.26	-29.7	-32.6	14.3	1.23e-04	0	44	102	1048576	19	5002
2026-01-26 01:35:23.98	304.28	38.26	-29.9	-33.1	14.0	7.00e-07	0	44	102	1048576	19	5185
2026-01-26 01:35:26.99	302.95	38.25	-30.1	-33.2	13.5	1.22e-05	0	44	102	1048576	20	5123
2026-01-26 01:35:30.02	301.62	38.22	-30.3	-33.8	13.1	2.67e-05	0	44	102	1048576	20	5372
2026-01-26 01:35:33.03	300.30	38.17	-30.4	-33.4	13.1	7.17e-05	0	44	102	1048576	21	5088
2026-01-26 01:35:36.05	298.98	38.11	-30.5	-34.1	12.9	1.12e-04	0	44	102	1048576	20	5493
2026-01-26 01:35:39.06	297.67	38.03	-30.1	-33.2	13.5	1.14e-04	0	43	102	1048576	20	5141
2026-01-26 01:35:42.08	296.36	37.93	-30.4	-34.1	13.0	2.82e-05	0	44	102	1048576	20	5475
2026-01-26 01:35:45.09	295.06	37.81	-30.8	-34.7	12.1	2.08e-04	0	44	102	1048576	21	5628
2026-01-26 01:35:48.10	293.78	37.68	-31.1	-35.0	11.6	7.28e-04	0	44	102	1048576	22	5626
2026-01-26 01:35:51.10	292.50	37.54	-30.9	-34.4	12.1	3.58e-04	0	44	102	1048576	22	5383
2026-01-26 01:35:54.10	291.25	37.38	-31.5	-36.2	10.8	1.95e-03	0	44	102	1048576	22	6197
2026-01-26 01:35:57.12	289.99	37.20	-31.6	-36.0	10.5	3.56e-03	0	44	102	1048576	23	6015
2026-01-26 01:36:00.10	288.77	37.01	-31.4	-35.7	10.7	3.82e-03	0	44	102	1048576	23	5845
2026-01-26 01:36:03.12	287.54	36.80	-31.1	-35.0	11.5	1.33e-03	0	44	102	1048576	22	5663
2026-01-26 01:36:06.12	286.34	36.59	-31.1	-35.2	11.4	9.41e-04	0	44	102	1048576	22	5743
2026-01-26 01:36:09.14	285.15	36.35	-31.2	-35.4	11.3	1.10e-03	0	44	102	1048576	22	5844
2026-01-26 01:36:12.15	283.98	36.11	-29.7	-32.1	14.1	5.30e-06	0	44	102	1048576	20	4761
2026-01-26 01:36:15.16	282.82	35.86	-29.6	-32.2	14.4	0.00e+00	0	44	102	1048576	19	4880
2026-01-26 01:36:18.16	281.69	35.59	-29.5	-32.2	14.4	4.10e-04	0	44	102	1048576	19	4872
2026-01-26 01:36:21.18	280.57	35.31	-29.3	-32.0	14.9	2.67e-03	0	44	102	1048576	18	4914
2026-01-26 01:36:24.18	279.48	35.03	-29.6	-32.4	14.3	7.00e-07	0	44	102	1048576	19	4955
2026-01-26 01:36:27.19	278.40	34.74	-29.9	-33.1	13.8	7.00e-07	0	44	102	1048576	19	5205
2026-01-26 01:36:30.21	277.34	34.43	-30.3	-33.6	13.1	1.98e-05	0	44	102	1048576	20	5315
2026-01-26 01:36:33.22	276.30	34.12	-30.3	-33.8	13.0	4.65e-05	0	44	102	1048576	20	5390
2026-01-26 01:36:36.24	275.27	33.80	-30.3	-33.9	13.0	2.03e-03	0	44	102	1048576	20	5394
2026-01-26 01:36:39.25	274.28	33.47	-30.4	-34.1	12.7	2.00e-03	0	44	102	1048576	20	5509
2026-01-26 01:36:42.26	273.30	33.14	-30.9	-35.0	11.8	3.05e-03	0	44	102	1048576	21	5780
2026-01-26 01:36:45.27	272.34	32.81	-30.8	-34.8	11.9	2.83e-03	0	44	102	1048576	21	5697
2026-01-26 01:36:48.27	271.40	32.46	-31.0	-34.9	11.5	2.61e-03	0	44	102	1048576	22	5611
2026-01-26 01:36:51.28	270.48	32.12	-30.7	-34.5	12.2	1.28e-03	0	44	102	1048576	21	5563
2026-01-26 01:36:54.30	269.58	31.77	-30.8	-34.7	12.0	7.06e-04	0	44	102	1048576	21	5659
2026-01-26 01:36:57.29	268.71	31.41	-31.1	-35.3	11.2	2.26e-03	0	44	102	1048576	22	5798
2026-01-26 01:37:00.30	267.84	31.06	-30.9	-34.6	11.7	2.02e-03	0	44	102	1048576	22	5501
2026-01-26 01:37:03.31	267.00	30.69	-30.9	-35.1	11.7	2.37e-03	0	44	102	1048576	21	5841
2026-01-26 01:37:06.33	266.18	30.33	-31.3	-35.9	10.8	3.19e-03	0	44	102	1048576	22	6100
2026-01-26 01:37:09.35	265.37	29.96	-31.3	-35.9	10.8	2.12e-03	0	44	102	1048576	22	6079
2026-01-26 01:37:12.36	264.58	29.60	-30.6	-34.2	12.3	2.74e-04	0	44	102	1048576	21	5442
2026-01-26 01:37:15.37	263.81	29.23	-30.4	-34.1	12.7	5.56e-05	0	44	102	1048576	20	5518
2026-01-26 01:37:18.37	263.07	28.86	-30.6	-34.3	12.2	2.79e-04	0	44	102	1048576	21	5496
2026-01-26 01:37:21.39	262.33	28.49	-29.9	-33.1	13.7	3.64e-03	0	44	102	1048576	19	5207
2026-01-26 01:37:24.41	261.61	28.12	-29.9	-32.8	13.5	1.55e-03	0	44	102	1048576	20	4995
2026-01-26 01:37:27.43	260.91	27.75	-29.8	-33.0	13.8	4.50e-06	0	44	102	1048576	19	5183
2026-01-26 01:37:30.43	260.22	27.38	-29.7	-32.8	13.9	2.20e-06	0	44	102	1048576	19	5101
2026-01-26 01:37:33.45	259.55	27.01	-29.3	-32.1	14.7	0.00e+00	0	44	102	1048576	18	4965
2026-01-26 01:37:36.46	258.90	26.65	-29.7	-32.6	14.1	3.00e-06	0	44	102	1048576	19	5038
2026-01-26 01:37:39.48	258.26	26.28	-29.1	-31.8	14.9	0.00e+00	0	44	102	1048576	18	4858
2026-01-26 01:37:42.50	257.63	25.91	-28.9	-31.7	14.0	0.00e+00	0	44	102	1048576	17	4969
2026-01-26 01:37:45.50	257.03	25.55	-29.1	-31.6	14.3	7.00e-07	0	44	102	1048576	18	4799
2026-01-26 01:37:48.50	256.43	25.19	-29.3	-32.1	14.6	9.28e-04	0	44	102	1048576	18	4974
2026-01-26 01:37:51.50	255.85	24.83	-29.1	-31.6	13.8	0.00e+00	0	44	102	1048576	18	4818
2026-01-26 01:37:54.51	255.28	24.47	-29.2	-31.9	14.7	0.00e+00	0	44	102	1048576	18	4905
2026-01-26 01:37:57.51	254.73	24.11	-29.5	-32.7	14.2	7.00e-07	0	44	102	1048576	18	5189
2026-01-26 01:38:00.53	254.19	23.75	-29.3	-32.3	14.4	1.50e-06	0	44	102	1048576	18	5051
2026-01-26 01:38:03.54	253.65	23.40	-29.2	-31.8	14.7	1.01e-04	0	44	102	1048576	18	4886
2026-01-26 01:38:06.55	253.14	23.05	-29.2	-32.0	14.6	2.73e-03	0	44	102	1048576	18	4944
2026-01-26 01:38:09.56	252.63	22.70	-29.3	-32.2	14.4	2.98e-03	0	44	102	1048576	18	5041
2026-01-26 01:38:12.58	252.13	22.35	-29.3	-32.1	14.4	2.70e-03	0	44	102	1048576	18	5005
2026-01-26 01:38:15.58	251.65	22.01	-29.7	-32.6	13.8	4.50e-06	0	44	102	1048576	19	5080
2026-01-26 01:38:18.60	251.17	21.66	-29.8	-33.0	13.5	5.30e-06	0	44	102	1048576	19	5220
2026-01-26 01:38:21.61	250.71	21.33	-29.9	-33.3	13.3	1.57e-04	0	44	102	1048576	19	5352
2026-01-26 01:38:24.62	250.26	20.99	-29.8	-33.0	13.5	3.55e-03	0	44	102	1048576	19	5226
2026-01-26 01:38:27.64	249.81	20.65	-30.0	-33.5	13.1	4.71e-03	0	44	102	1048576	19	5432
2026-01-26 01:38:30.66	249.38	20.32	-30.2	-33.7	12.6	4.70e-03	0	44	102	1048576	20	5390
2026-01-26 01:38:33.68	248.95	19.99	-30.0	-33.3	12.9	4.41e-03	0	44	102	1048576	20	5235
2026-01-26 01:38:36.69	248.53	19.66	-29.9	-32.8	13.2	3.08e-03	0	44	102	1048576	20	5064
2026-01-26 01:38:39.70	248.13	19.34	-30.0	-33.6	13.0	6.65e-04	0	44	102	1048576	19	5468
2026-01-26 01:38:42.73	247.73	19.02	-30.0	-33.1	12.9	3.66e-05	0	44	102	1048576	20	5171
2026-01-26 01:38:45.73	247.34	18.70	-30.3	-34.0	12.3	2.31e-03	0	44	102	1048576	20	5533
2026-01-26 01:38:48.74	246.96	18.38	-30.3	-34.2	12.1	6.16e-04	0	44	102	1048576	20	5643
2026-01-26 01:38:51.75	246.58	18.07	-30.1	-33.7	12.5	4.70e-04	0	44	102	1048576	20	5400
2026-01-26 01:38:54.76	246.22	17.76	-30.0	-33.2	12.8	1.39e-03	0	44	102	1048576	20	5202
2026-01-26 01:38:57.78	245.86	17.45	-30.0	-33.7	12.9	3.73e-05	0	44	102	1048576	19	5510
2026-01-26 01:39:00.79	245.51	17.15	-30.0	-33.2	12.7	9.30e-05	0	44	102	1048576	20	5236
2026-01-26 01:39:03.81	245.16	16.84	-29.9	-33.1	12.8	6.71e-05	0	44	102	1048576	20	5188
2026-01-26 01:39:06.82	244.83	16.54	-29.9	-33.4	13.0	3.73e-05	0	44	102	1048576	19	5417
2026-01-26 01:39:09.83	244.50	16.25	-29.9	-33.4	13.0	3.20e-05	0	44	102	1048576	19	5414
2026-01-26 01:39:12.83	244.18	15.95	-30.0	-33.7	12.7	4.88e-05	0	44	102	1048576	19	5548
2026-01-26 01:39:15.84	243.86	15.66	-29.9	-33.2	12.7	6.10e-05	0	44	102	1048576	20	5225
2026-01-26 01:39:18.85	243.55	15.37	-30.1	-33.6	12.4	1.23e-04	0	44	102	1048576	20	5409
2026-01-26 01:39:21.86	243.24	15.09	-29.9	-33.3	12.5	1.25e-04	0	44	102	1048576	20	5276
2026-01-26 01:39:24.87	242.94	14.80	-29.9	-33.1	12.6	9.23e-05	0	44	102	1048576	20	5213
2026-01-26 01:39:27.89	242.65	14.52	-29.9	-33.6	12.1	5.79e-05	0	44	102	1048576	19	5505
2026-01-26 01:39:30.88	242.36	14.24	-29.9	-33.2	12.4	1.05e-04	0	44	102	1048576	20	5264
2026-01-26 01:39:33.89	242.08	13.97	-29.9	-33.6	12.7	1.09e-04	0	44	102	1048576	19	5516
2026-01-26 01:39:36.91	241.81	13.69	-30.0	-33.6	12.2	1.34e-03	0	44	102	1048576	20	5421
2026-01-26 01:39:39.91	241.53	13.42	-30.1	-33.8	12.1	9.81e-04	0	44	102	1048576	20	5501
2026-01-26 01:39:42.92	241.27	13.15	-30.2	-34.2	11.7	5.21e-04	0	44	102	1048576	20	5704
2026-01-26 01:39:45.93	241.01	12.88	-30.3	-34.3	11.6	7.51e-04	0	44	102	1048576	20	5750
2026-01-26 01:39:48.94	240.75	12.62	-30.4	-34.2	11.3	1.51e-03	0	44	102	1048576	21	5606
2026-01-26 01:39:51.95	240.50	12.36	-30.3	-34.4	11.5	1.10e-03	0	44	102	1048576	20	5819
2026-01-26 01:39:54.96	240.25	12.10	-30.3	-34.5	11.5	1.09e-03	0	44	102	1048576	20	5820
2026-01-26 01:39:57.98	240.01	11.84	-30.3	-34.6	11.3	1.54e-03	0	44	102	1048576	20	5911
2026-01-26 01:40:01.00	239.77	11.58	-30.7	-35.6	10.2	4.57e-03	0	44	102	1048576	21	6271
2026-01-26 01:40:04.00	239.53	11.33	-30.7	-35.4	10.3	5.11e-03	0	44	102	1048576	21	6163
2026-01-26 01:40:07.02	239.30	11.07	-30.8	-35.7	10.1	6.87e-03	0	44	102	1048576	21	6343
2026-01-26 01:40:10.03	239.08	10.83	-30.4	-34.9	11.0	2.21e-03	0	44	102	1048576	20	6054
2026-01-26 01:40:13.04	238.85	10.58	-30.6	-35.0	10.6	4.69e-03	0	44	102	1048576	21	5993
2026-01-26 01:40:16.06	238.64	10.33	-30.7	-35.5	10.2	5.94e-03	0	44	102	1048576	21	6244
2026-01-26 01:40:19.06	238.42	10.09	-30.8	-35.9	9.8	9.63e-03	0	44	102	1048576	21	6449
2026-01-26 01:40:22.07	238.21	9.85	-30.7	-35.3	10.3	6.66e-03	0	44	102	1048576	21	6176
2026-01-26 01:40:25.09	238.00	9.61	-30.6	-35.1	10.3	5.63e-03	0	44	102	1048576	21	6084
2026-01-26 01:40:28.10	237.80	9.37	-30.6	-35.1	10.3	3.87e-03	0	44	102	1048576	21	6083
2026-01-26 01:40:31.11	237.60	9.13	-30.7	-35.7	9.9	8.62e-03	0	44	102	1048576	21	6392
2026-01-26 01:40:34.13	237.40	8.90	-30.6	-35.1	10.3	4.85e-03	0	44	102	1048576	21	6096
2026-01-26 01:40:37.15	237.21	8.67	-30.7	-35.6	10.0	7.10e-03	0	44	102	1048576	21	6322
2026-01-26 01:40:40.16	237.01	8.44	-30.6	-35.4	9.9	7.90e-03	0	44	102	1048576	21	6280
2026-01-26 01:40:43.18	236.83	8.21	-30.7	-35.7	9.7	1.10e-02	0	44	102	1048576	21	6407
2026-01-26 01:40:46.19	236.64	7.98	-30.7	-36.0	9.5	1.53e-02	0	44	102	1048576	21	6610
2026-01-26 01:40:49.19	236.46	7.76	-30.9	-36.7	8.9	2.45e-02	0	44	102	1048576	21	7023
2026-01-26 01:40:52.20	236.28	7.54	-30.9	-36.7	8.9	2.92e-02	0	44	102	1048576	21	7014
2026-01-26 01:40:55.20	236.11	7.31	-30.5	-36.4	8.8	2.86e-02	0	44	102	1048576	21	7108
2026-01-26 01:40:58.22	235.93	7.09	-30.6	-35.7	9.1	2.41e-02	0	44	102	1048576	21	6458

#Closed at: 2026-01-26 01:41:00
#Recorded file [1 MB]: D:/data/31010_260126_042948.dat