passes_logs/2026/01/26/R2M6_AANII_01/R2M6_AANII_01__20260126_080415_NOAA_20_JPSS-1_rec.log

#Pass ID: 20260126_080415_NOAA 20 (JPSS-1)
#Satellite: NOAA 20 (JPSS-1)
#Configuration: NOAA 20
#almurnet v.1.7.20240730
#Start time: 2026-01-26 08:04:14

#Version: 2.2.20231116
#Station: R2M6_AANII_01
#Location: 30.233357 lon 59.946436 lat
#TLE: 1 43013U 17073A   26025.83228772  .00000162  00000+0  97663-4 0  9996
#TLE: 2 43013  98.7646 326.6579 0001036  23.5840 336.5383 14.19540376424273

#Time	Az	El	Level	Level2	SNR	BER	BlckErr	Temp	State	Recorded	gain1	gain2
2026-01-26 08:04:14.87	90.32	6.95	-31.9	-43.3	3.8	1.49e+00	0	41	0	0	25	13266
2026-01-26 08:04:17.87	90.00	7.13	-31.7	-41.0	4.1	1.44e+00	0	41	104	0	24	10527
2026-01-26 08:04:20.89	89.68	7.31	-31.8	-41.3	4.7	9.38e-01	0	41	102	1048576	24	10722
2026-01-26 08:04:23.90	89.36	7.49	-31.7	-40.1	5.2	6.49e-01	0	41	102	1048576	24	9469
2026-01-26 08:04:26.91	89.03	7.67	-31.3	-37.7	7.3	1.43e-01	0	42	102	1048576	23	7494
2026-01-26 08:04:29.90	88.70	7.84	-30.9	-35.6	9.0	2.65e-02	0	41	102	1048576	23	6184
2026-01-26 08:04:32.92	88.36	8.02	-30.9	-36.3	8.9	3.28e-02	0	42	102	1048576	22	6662
2026-01-26 08:04:35.94	88.02	8.20	-30.5	-34.7	10.1	9.49e-03	0	41	102	1048576	22	5813
2026-01-26 08:04:38.95	87.68	8.38	-30.5	-34.7	10.2	7.29e-03	0	42	102	1048576	22	5809
2026-01-26 08:04:41.96	87.33	8.56	-30.5	-34.5	10.4	4.70e-03	0	42	102	1048576	22	5699
2026-01-26 08:04:44.97	86.97	8.75	-30.4	-34.1	10.7	3.87e-03	0	42	102	1048576	22	5533
2026-01-26 08:04:47.99	86.61	8.93	-30.4	-34.6	10.7	3.00e-03	0	42	102	1048576	21	5872
2026-01-26 08:04:50.98	86.25	9.11	-30.5	-34.9	10.6	2.21e-03	0	42	102	1048576	21	5985
2026-01-26 08:04:53.99	85.88	9.29	-30.4	-34.5	10.9	1.40e-03	0	42	102	1048576	21	5801
2026-01-26 08:04:57.00	85.51	9.47	-30.4	-34.7	10.8	2.21e-03	0	42	102	1048576	21	5876
2026-01-26 08:05:00.01	85.13	9.65	-30.3	-34.3	11.0	1.18e-03	0	42	102	1048576	21	5706
2026-01-26 08:05:03.02	84.75	9.83	-30.2	-34.0	11.3	1.19e-03	0	42	102	1048576	21	5580
2026-01-26 08:05:06.03	84.37	10.02	-30.4	-34.4	11.1	1.60e-03	0	42	102	1048576	21	5723
2026-01-26 08:05:09.05	83.97	10.20	-30.5	-34.9	10.6	2.99e-03	0	42	102	1048576	21	5979
2026-01-26 08:05:12.06	83.58	10.38	-30.5	-34.7	10.9	1.87e-03	0	42	102	1048576	21	5839
2026-01-26 08:05:15.07	83.17	10.56	-30.5	-34.8	10.9	2.43e-03	0	43	102	1048576	21	5894
2026-01-26 08:05:18.09	82.77	10.75	-30.4	-34.4	11.1	1.97e-03	0	42	102	1048576	21	5712
2026-01-26 08:05:21.09	82.36	10.93	-30.3	-34.2	11.3	1.33e-03	0	43	102	1048576	21	5614
2026-01-26 08:05:24.10	81.94	11.11	-30.4	-34.2	11.3	1.02e-03	0	43	102	1048576	21	5626
2026-01-26 08:05:27.12	81.51	11.29	-30.3	-34.0	11.5	1.05e-03	0	43	102	1048576	21	5535
2026-01-26 08:05:30.13	81.09	11.47	-30.3	-33.9	11.6	8.77e-04	0	43	102	1048576	21	5478
2026-01-26 08:05:33.15	80.65	11.65	-30.4	-34.4	11.3	1.31e-03	0	43	102	1048576	21	5679
2026-01-26 08:05:36.15	80.21	11.83	-30.5	-34.6	11.2	1.37e-03	0	43	102	1048576	21	5757
2026-01-26 08:05:39.16	79.77	12.01	-30.5	-34.7	11.1	1.38e-03	0	43	102	1048576	21	5799
2026-01-26 08:05:42.18	79.32	12.20	-30.6	-34.8	11.1	1.51e-03	0	43	102	1048576	21	5864
2026-01-26 08:05:45.19	78.86	12.38	-30.6	-34.9	11.0	2.12e-03	0	43	102	1048576	21	5896
2026-01-26 08:05:48.20	78.40	12.55	-30.5	-34.6	11.2	1.31e-03	0	43	102	1048576	21	5761
2026-01-26 08:05:51.21	77.94	12.73	-30.5	-34.5	11.3	1.23e-03	0	43	102	1048576	21	5740
2026-01-26 08:05:54.22	77.46	12.91	-30.6	-34.9	11.0	1.68e-03	0	43	102	1048576	21	5900
2026-01-26 08:05:57.22	76.99	13.09	-30.6	-34.7	11.2	1.17e-03	0	43	102	1048576	21	5797
2026-01-26 08:06:00.23	76.50	13.27	-30.3	-33.9	11.8	7.15e-04	0	43	102	1048576	21	5450
2026-01-26 08:06:03.25	76.01	13.44	-30.4	-34.3	11.5	6.49e-04	0	43	102	1048576	21	5619
2026-01-26 08:06:06.27	75.51	13.62	-30.5	-34.4	11.4	9.83e-04	0	43	102	1048576	21	5643
2026-01-26 08:06:09.27	75.01	13.79	-30.2	-33.4	12.1	2.19e-04	0	43	102	1048576	21	5235
2026-01-26 08:06:12.29	74.50	13.97	-30.0	-32.8	12.6	1.04e-04	0	43	102	1048576	21	5002
2026-01-26 08:06:15.31	73.99	14.14	-29.9	-32.7	12.7	9.99e-05	0	43	102	1048576	21	4966
2026-01-26 08:06:18.32	73.47	14.31	-30.2	-33.5	12.2	2.14e-04	0	43	102	1048576	21	5235
2026-01-26 08:06:21.34	72.94	14.48	-30.1	-33.3	12.4	1.72e-04	0	43	102	1048576	21	5162
2026-01-26 08:06:24.34	72.41	14.65	-30.0	-32.7	12.7	1.22e-04	0	43	102	1048576	21	4963
2026-01-26 08:06:27.36	71.87	14.82	-29.9	-32.9	12.9	3.20e-05	0	43	102	1048576	20	5135
2026-01-26 08:06:30.36	71.33	14.98	-29.7	-32.4	13.3	2.36e-05	0	43	102	1048576	20	4927
2026-01-26 08:06:33.38	70.77	15.15	-29.4	-31.7	13.8	3.80e-06	0	43	102	1048576	20	4680
2026-01-26 08:06:36.40	70.22	15.31	-29.4	-31.6	13.8	3.80e-06	0	43	102	1048576	20	4641
2026-01-26 08:06:39.42	69.65	15.47	-29.3	-31.9	14.0	3.80e-06	0	43	102	1048576	19	4848
2026-01-26 08:06:42.42	69.08	15.63	-29.5	-32.3	13.7	6.80e-06	0	43	102	1048576	19	5008
2026-01-26 08:06:45.42	68.51	15.79	-29.8	-33.2	13.2	9.10e-06	0	43	102	1048576	19	5341
2026-01-26 08:06:48.44	67.93	15.94	-29.7	-32.8	13.5	3.12e-05	0	43	102	1048576	19	5165
2026-01-26 08:06:51.45	67.34	16.10	-30.0	-33.7	13.0	3.20e-05	0	43	102	1048576	19	5511
2026-01-26 08:06:54.45	66.75	16.25	-29.8	-32.7	13.2	2.21e-05	0	43	102	1048576	20	5026
2026-01-26 08:06:57.46	66.15	16.40	-29.7	-32.4	13.4	9.10e-06	0	43	102	1048576	20	4917
2026-01-26 08:07:00.46	65.55	16.54	-29.5	-31.8	13.8	5.30e-06	0	43	102	1048576	20	4721
2026-01-26 08:07:03.48	64.93	16.69	-29.5	-31.8	13.8	4.50e-06	0	43	102	1048576	20	4706
2026-01-26 08:07:06.50	64.32	16.83	-29.8	-32.6	13.3	7.60e-06	0	43	102	1048576	20	4975
2026-01-26 08:07:09.51	63.69	16.97	-29.5	-32.0	13.7	6.10e-06	0	43	102	1048576	20	4761
2026-01-26 08:07:12.53	63.06	17.11	-29.5	-31.9	13.7	9.10e-06	0	43	102	1048576	20	4746
2026-01-26 08:07:15.53	62.43	17.24	-29.3	-31.7	14.3	1.50e-06	0	43	102	1048576	19	4770
2026-01-26 08:07:18.54	61.79	17.37	-29.2	-31.6	14.4	7.00e-07	0	43	102	1048576	19	4715
2026-01-26 08:07:21.56	61.14	17.50	-29.2	-31.5	14.5	7.00e-07	0	44	102	1048576	19	4699
2026-01-26 08:07:24.56	60.49	17.62	-29.1	-31.2	14.6	0.00e+00	0	43	102	1048576	19	4605
2026-01-26 08:07:27.57	59.84	17.74	-29.2	-31.4	14.6	1.50e-06	0	43	102	1048576	19	4647
2026-01-26 08:07:30.58	59.18	17.86	-28.9	-30.7	15.0	7.00e-07	0	44	102	1048576	19	4438
2026-01-26 08:07:33.60	58.51	17.98	-29.0	-31.0	14.8	1.50e-06	0	43	102	1048576	19	4540
2026-01-26 08:07:36.61	57.84	18.09	-29.1	-31.3	14.7	0.00e+00	0	43	102	1048576	19	4613
2026-01-26 08:07:39.62	57.16	18.20	-29.4	-32.0	14.2	3.00e-06	0	43	102	1048576	19	4876
2026-01-26 08:07:42.63	56.48	18.30	-29.2	-31.3	14.6	0.00e+00	0	43	102	1048576	19	4635
2026-01-26 08:07:45.64	55.79	18.40	-29.1	-31.3	14.7	0.00e+00	0	43	102	1048576	19	4610
2026-01-26 08:07:48.64	55.11	18.49	-29.1	-31.3	14.7	0.00e+00	0	43	102	1048576	19	4611
2026-01-26 08:07:51.66	54.41	18.59	-29.4	-31.9	14.3	0.00e+00	0	43	102	1048576	19	4806
2026-01-26 08:07:54.68	53.71	18.68	-29.2	-31.5	14.5	0.00e+00	0	43	102	1048576	19	4690
2026-01-26 08:07:57.70	53.00	18.76	-29.6	-32.4	14.0	1.50e-06	0	43	102	1048576	19	5014
2026-01-26 08:08:00.71	52.30	18.84	-29.8	-32.9	13.7	6.80e-06	0	43	102	1048576	19	5186
2026-01-26 08:08:03.71	51.59	18.91	-29.6	-32.6	13.9	1.50e-06	0	44	102	1048576	19	5058
2026-01-26 08:08:06.71	50.88	18.99	-29.8	-33.0	13.6	3.80e-06	0	43	102	1048576	19	5215
2026-01-26 08:08:09.72	50.16	19.05	-29.6	-32.6	13.9	3.00e-06	0	44	102	1048576	19	5055
2026-01-26 08:08:12.73	49.44	19.11	-29.9	-33.2	13.5	1.29e-05	0	43	102	1048576	19	5294
2026-01-26 08:08:15.75	48.72	19.17	-30.0	-33.5	13.3	1.83e-05	0	44	102	1048576	19	5386
2026-01-26 08:08:18.76	47.99	19.22	-30.2	-33.6	12.8	6.56e-05	0	43	102	1048576	20	5361
2026-01-26 08:08:21.77	47.27	19.27	-30.0	-33.1	13.2	2.21e-05	0	43	102	1048576	20	5136
2026-01-26 08:08:24.77	46.54	19.32	-30.3	-33.9	12.6	6.56e-05	0	44	102	1048576	20	5456
2026-01-26 08:08:27.78	45.81	19.36	-29.9	-32.8	13.3	1.29e-05	0	43	102	1048576	20	5054
2026-01-26 08:08:30.80	45.07	19.39	-30.3	-34.0	12.6	5.72e-05	0	43	102	1048576	20	5505
2026-01-26 08:08:33.82	44.33	19.42	-29.9	-32.8	13.3	3.05e-05	0	43	102	1048576	20	5059
2026-01-26 08:08:36.84	43.60	19.44	-30.0	-33.3	13.0	1.98e-05	0	43	102	1048576	20	5225
2026-01-26 08:08:39.86	42.86	19.46	-30.0	-33.1	13.1	3.50e-05	0	43	102	1048576	20	5143
2026-01-26 08:08:42.87	42.12	19.48	-30.0	-33.1	13.2	2.67e-05	0	44	102	1048576	20	5148
2026-01-26 08:08:45.89	41.38	19.48	-30.2	-33.6	12.8	5.49e-05	0	43	102	1048576	20	5353
2026-01-26 08:08:48.91	40.64	19.49	-30.0	-33.3	13.0	4.80e-05	0	44	102	1048576	20	5230
2026-01-26 08:08:51.92	39.90	19.49	-29.8	-32.5	13.5	7.60e-06	0	44	102	1048576	20	4938
2026-01-26 08:08:54.92	39.16	19.48	-29.8	-32.5	13.6	1.22e-05	0	43	102	1048576	20	4929
2026-01-26 08:08:57.93	38.42	19.47	-29.6	-32.0	13.9	3.00e-06	0	43	102	1048576	20	4754
2026-01-26 08:09:00.95	37.68	19.46	-29.3	-31.7	14.4	0.00e+00	0	44	102	1048576	19	4765
2026-01-26 08:09:03.96	36.95	19.43	-29.4	-31.9	14.3	1.50e-06	0	44	102	1048576	19	4797
2026-01-26 08:09:06.97	36.21	19.41	-29.3	-32.1	14.5	0.00e+00	0	44	102	1048576	18	5011
2026-01-26 08:09:09.99	35.48	19.38	-29.1	-31.7	14.7	0.00e+00	0	44	102	1048576	18	4865
2026-01-26 08:09:13.00	34.75	19.34	-29.1	-31.6	14.8	0.00e+00	0	43	102	1048576	18	4833
2026-01-26 08:09:16.01	34.01	19.30	-29.2	-31.9	14.7	0.00e+00	0	43	102	1048576	18	4925
2026-01-26 08:09:19.02	33.29	19.26	-29.3	-32.2	14.4	2.20e-06	0	43	102	1048576	18	5037
2026-01-26 08:09:22.04	32.56	19.21	-28.9	-31.2	15.1	0.00e+00	0	43	102	1048576	18	4676
2026-01-26 08:09:25.06	31.83	19.15	-29.0	-31.9	14.9	0.00e+00	0	43	102	1048576	17	5039
2026-01-26 08:09:28.07	31.11	19.10	-29.5	-32.7	14.1	7.00e-07	0	43	102	1048576	18	5203
2026-01-26 08:09:31.09	30.39	19.03	-28.9	-31.1	15.1	7.00e-07	0	43	102	1048576	18	4673
2026-01-26 08:09:34.10	29.68	18.96	-28.7	-31.3	15.3	0.00e+00	0	44	102	1048576	17	4828
2026-01-26 08:09:37.12	28.96	18.89	-29.0	-31.9	14.9	0.00e+00	0	43	102	1048576	17	5043
2026-01-26 08:09:40.14	28.25	18.81	-29.1	-31.8	14.7	0.00e+00	0	43	102	1048576	18	4880
2026-01-26 08:09:43.16	27.55	18.73	-29.0	-31.6	14.8	0.00e+00	0	44	102	1048576	18	4819
2026-01-26 08:09:46.16	26.85	18.65	-29.3	-32.3	14.3	0.00e+00	0	43	102	1048576	18	5079
2026-01-26 08:09:49.17	26.16	18.56	-29.4	-32.6	14.2	0.00e+00	0	43	102	1048576	18	5170
2026-01-26 08:09:52.18	25.46	18.47	-29.8	-33.1	13.5	1.06e-05	0	43	102	1048576	19	5271
2026-01-26 08:09:55.20	24.77	18.37	-30.0	-33.5	13.2	1.90e-05	0	44	102	1048576	19	5408
2026-01-26 08:09:58.20	24.09	18.27	-29.8	-33.2	13.5	9.10e-06	0	44	102	1048576	19	5275
2026-01-26 08:10:01.21	23.42	18.16	-29.6	-32.4	13.9	2.20e-06	0	44	102	1048576	19	5001
2026-01-26 08:10:04.23	22.74	18.05	-29.7	-32.8	13.2	7.60e-06	0	44	102	1048576	19	5132
2026-01-26 08:10:07.24	22.07	17.94	-29.6	-32.5	13.7	3.80e-06	0	44	102	1048576	19	5039
2026-01-26 08:10:10.26	21.41	17.83	-29.7	-32.8	13.6	3.80e-06	0	44	102	1048576	19	5154
2026-01-26 08:10:13.27	20.75	17.71	-29.9	-33.2	13.4	1.37e-05	0	44	102	1048576	19	5311
2026-01-26 08:10:16.29	20.09	17.58	-29.8	-33.1	13.5	1.29e-05	0	44	102	1048576	19	5267
2026-01-26 08:10:19.30	19.45	17.46	-29.5	-32.4	13.9	9.09e-04	0	44	102	1048576	19	4995
2026-01-26 08:10:22.31	18.81	17.33	-29.7	-32.9	13.6	1.26e-03	0	44	102	1048576	19	5172
2026-01-26 08:10:25.33	18.17	17.20	-29.9	-33.2	13.3	8.15e-04	0	44	102	1048576	19	5313
2026-01-26 08:10:28.33	17.54	17.06	-29.9	-33.1	13.0	2.67e-05	0	43	102	1048576	20	5153
2026-01-26 08:10:31.35	16.91	16.93	-29.9	-33.4	13.2	3.28e-05	0	44	102	1048576	19	5381
2026-01-26 08:10:34.35	16.30	16.79	-30.0	-33.3	12.8	9.73e-04	0	44	102	1048576	20	5257
2026-01-26 08:10:37.35	15.69	16.65	-29.9	-33.5	13.1	1.11e-03	0	44	102	1048576	19	5423
2026-01-26 08:10:40.36	15.08	16.50	-29.9	-33.5	13.1	9.26e-04	0	44	102	1048576	19	5436
2026-01-26 08:10:43.37	14.48	16.35	-29.9	-33.3	13.1	1.02e-03	0	44	102	1048576	19	5370
2026-01-26 08:10:46.38	13.88	16.20	-30.4	-34.3	12.1	1.28e-03	0	44	102	1048576	20	5668
2026-01-26 08:10:49.38	13.30	16.05	-30.5	-34.4	11.7	1.70e-03	0	44	102	1048576	21	5604
2026-01-26 08:10:52.39	12.71	15.90	-30.7	-34.9	11.3	9.47e-04	0	44	102	1048576	21	5813
2026-01-26 08:10:55.41	12.13	15.74	-30.5	-34.2	11.7	1.71e-03	0	44	102	1048576	21	5539
2026-01-26 08:10:58.42	11.56	15.59	-30.1	-33.7	12.4	7.16e-04	0	44	102	1048576	20	5417
2026-01-26 08:11:01.43	11.00	15.43	-30.3	-34.2	12.2	7.15e-04	0	44	102	1048576	20	5606
2026-01-26 08:11:04.45	10.44	15.26	-30.7	-34.8	11.3	1.66e-03	0	44	102	1048576	21	5793
2026-01-26 08:11:07.46	9.89	15.10	-31.0	-35.4	10.5	3.93e-03	0	44	102	1048576	22	5963
2026-01-26 08:11:10.47	9.34	14.94	-30.6	-34.6	11.5	5.15e-04	0	44	102	1048576	21	5695
2026-01-26 08:11:13.46	8.80	14.77	-30.6	-34.7	11.4	9.35e-04	0	44	102	1048576	21	5754
2026-01-26 08:11:16.48	8.27	14.60	-30.4	-34.1	11.8	5.71e-04	0	44	102	1048576	21	5474
2026-01-26 08:11:19.49	7.74	14.44	-30.4	-34.6	11.6	5.78e-04	0	44	102	1048576	20	5844
2026-01-26 08:11:22.51	7.22	14.27	-30.4	-34.6	11.7	6.30e-04	0	44	102	1048576	20	5831
2026-01-26 08:11:25.52	6.70	14.10	-30.4	-34.1	11.7	4.34e-04	0	43	102	1048576	21	5493
2026-01-26 08:11:28.53	6.19	13.92	-30.2	-33.5	12.1	4.11e-04	0	44	102	1048576	21	5272
2026-01-26 08:11:31.54	5.69	13.75	-30.1	-33.7	12.2	2.47e-04	0	43	102	1048576	20	5461
2026-01-26 08:11:34.56	5.19	13.58	-29.9	-33.1	12.6	8.46e-05	0	43	102	1048576	20	5229
2026-01-26 08:11:37.58	4.70	13.40	-29.9	-33.2	12.4	9.84e-05	0	44	102	1048576	20	5235
2026-01-26 08:11:40.58	4.21	13.22	-29.7	-32.5	12.9	4.65e-05	0	44	102	1048576	20	4993
2026-01-26 08:11:43.60	3.73	13.05	-29.8	-32.9	12.7	5.26e-05	0	44	102	1048576	20	5146
2026-01-26 08:11:46.61	3.26	12.87	-29.8	-32.9	12.7	6.86e-05	0	44	102	1048576	20	5155
2026-01-26 08:11:49.63	2.79	12.69	-29.6	-32.4	13.0	8.92e-05	0	44	102	1048576	20	4971
2026-01-26 08:11:52.63	2.33	12.51	-29.5	-32.1	13.3	3.12e-05	0	44	102	1048576	20	4832
2026-01-26 08:11:55.63	1.87	12.34	-29.6	-32.8	13.2	6.10e-06	0	43	102	1048576	19	5191
2026-01-26 08:11:58.65	1.42	12.16	-29.5	-32.4	13.4	9.90e-06	0	44	102	1048576	19	5069
2026-01-26 08:12:01.65	0.97	11.98	-29.5	-32.4	13.4	1.67e-05	0	44	102	1048576	19	5069
2026-01-26 08:12:04.66	0.53	11.80	-29.4	-32.3	13.5	2.56e-04	0	44	102	1048576	19	5017
2026-01-26 08:12:07.68	0.10	11.62	-29.4	-32.7	13.5	1.85e-04	0	43	102	1048576	18	5286
2026-01-26 08:12:10.69	359.67	11.44	-29.3	-32.4	13.7	2.15e-04	0	44	102	1048576	18	5185
2026-01-26 08:12:13.70	359.25	11.25	-29.3	-32.6	13.5	1.88e-04	0	43	102	1048576	18	5262
2026-01-26 08:12:16.71	358.83	11.07	-29.4	-32.7	13.5	2.24e-04	0	43	102	1048576	18	5298
2026-01-26 08:12:19.72	358.41	10.89	-29.4	-32.2	13.4	2.61e-04	0	44	102	1048576	19	4992
2026-01-26 08:12:22.74	358.01	10.71	-29.4	-32.3	13.3	1.85e-04	0	44	102	1048576	19	5046
2026-01-26 08:12:25.76	357.60	10.53	-29.5	-32.6	13.2	2.59e-04	0	44	102	1048576	19	5139
2026-01-26 08:12:28.77	357.20	10.35	-29.7	-33.2	12.7	2.49e-04	0	44	102	1048576	19	5395
2026-01-26 08:12:31.78	356.81	10.17	-29.9	-33.3	12.2	4.16e-04	0	44	102	1048576	20	5346
2026-01-26 08:12:34.78	356.43	9.98	-29.5	-32.8	13.0	2.52e-04	0	44	102	1048576	19	5209
2026-01-26 08:12:37.78	356.04	9.80	-29.5	-32.6	13.1	3.50e-05	0	44	102	1048576	19	5146
2026-01-26 08:12:40.80	355.66	9.62	-29.6	-33.0	12.8	4.34e-05	0	44	102	1048576	19	5328
2026-01-26 08:12:43.82	355.29	9.44	-29.5	-32.6	13.0	2.13e-05	0	44	102	1048576	19	5153
2026-01-26 08:12:46.83	354.92	9.26	-29.7	-33.1	12.7	2.86e-04	0	44	102	1048576	19	5364
2026-01-26 08:12:49.83	354.56	9.08	-29.9	-33.5	12.0	3.76e-04	0	44	102	1048576	20	5430
2026-01-26 08:12:52.84	354.20	8.90	-30.0	-33.8	11.7	5.10e-04	0	44	102	1048576	20	5576
2026-01-26 08:12:55.85	353.85	8.72	-29.9	-33.5	11.9	6.53e-04	0	44	102	1048576	20	5454
2026-01-26 08:12:58.87	353.50	8.54	-29.8	-33.2	12.0	3.59e-04	0	43	102	1048576	20	5338
2026-01-26 08:13:01.89	353.15	8.36	-30.0	-33.7	11.8	3.01e-04	0	44	102	1048576	20	5516
2026-01-26 08:13:04.91	352.81	8.18	-30.0	-33.9	11.5	6.78e-04	0	43	102	1048576	20	5624
2026-01-26 08:13:07.92	352.47	8.00	-30.1	-34.1	11.4	8.96e-04	0	44	102	1048576	20	5743
2026-01-26 08:13:10.93	352.14	7.82	-30.3	-35.0	10.7	1.40e-03	0	44	102	1048576	20	6156
2026-01-26 08:13:13.94	351.81	7.64	-30.3	-34.8	10.8	2.29e-03	0	44	102	1048576	20	6070
2026-01-26 08:13:16.95	351.48	7.46	-30.4	-35.3	10.4	2.66e-03	0	44	102	1048576	20	6317
2026-01-26 08:13:19.96	351.16	7.28	-30.2	-34.6	10.9	2.79e-03	0	44	102	1048576	20	5974
2026-01-26 08:13:22.96	350.85	7.11	-30.4	-35.4	10.3	3.58e-03	0	44	102	1048576	20	6344

#Closed at: 2026-01-26 08:13:25
#Recorded file [1 MB]: D:/data/31010_260126_110418.dat