passes_logs/2026/01/26/R2M6_AANII_01/R2M6_AANII_01__20260126_003920_NOAA_21_JPSS-2_rec.log

#Pass ID: 20260126_003920_NOAA 21 (JPSS-2)
#Satellite: NOAA 21 (JPSS-2)
#Configuration: NOAA 21
#almurnet v.1.7.20240730
#Start time: 2026-01-26 00:39:21

#Version: 2.2.20231116
#Station: R2M6_AANII_01
#Location: 30.233357 lon 59.946436 lat
#TLE: 1 54234U 22150A   26025.44451686  .00000186  00000+0  10896-3 0  9992
#TLE: 2 54234  98.7509 326.2184 0000763 215.1852 144.9274 14.19539183166293

#Time	Az	El	Level	Level2	SNR	BER	BlckErr	Temp	State	Recorded	gain1	gain2
2026-01-26 00:39:21.59	16.53	7.11	-30.8	-36.3	4.5	1.41e+00	0	42	0	0	21	6765
2026-01-26 00:39:24.61	16.49	7.34	-30.9	-35.8	7.9	8.48e-02	0	42	102	1048576	21	6289
2026-01-26 00:39:27.63	16.45	7.58	-30.2	-34.0	9.7	1.98e-02	0	42	102	1048576	20	5539
2026-01-26 00:39:30.63	16.41	7.81	-29.6	-32.6	11.2	6.33e-03	0	42	102	1048576	19	5073
2026-01-26 00:39:33.64	16.37	8.05	-29.7	-32.7	11.1	1.69e-03	0	42	102	1048576	19	5100
2026-01-26 00:39:36.65	16.32	8.29	-29.7	-32.7	11.1	6.45e-03	0	42	102	1048576	19	5097
2026-01-26 00:39:39.67	16.28	8.53	-30.0	-33.1	10.5	8.23e-03	0	42	102	1048576	20	5150
2026-01-26 00:39:42.69	16.23	8.78	-30.0	-33.0	10.6	4.29e-03	0	42	102	1048576	20	5103
2026-01-26 00:39:45.69	16.19	9.03	-29.7	-32.8	11.2	6.91e-03	0	42	102	1048576	19	5133
2026-01-26 00:39:48.70	16.14	9.28	-28.9	-31.0	12.6	1.21e-04	0	43	102	1048576	18	4622
2026-01-26 00:39:51.73	16.09	9.53	-28.9	-31.6	12.6	7.93e-05	0	43	102	1048576	17	4916
2026-01-26 00:39:54.75	16.04	9.79	-28.5	-30.6	13.2	2.36e-05	0	43	102	1048576	17	4595
2026-01-26 00:39:57.76	15.99	10.05	-28.6	-30.8	13.1	3.50e-05	0	43	102	1048576	17	4639
2026-01-26 00:40:00.77	15.94	10.31	-28.7	-31.2	12.9	6.25e-05	0	43	102	1048576	17	4797
2026-01-26 00:40:03.78	15.89	10.57	-28.3	-30.7	12.8	9.10e-06	0	43	102	1048576	16	4734
2026-01-26 00:40:06.78	15.83	10.84	-28.0	-30.4	13.8	4.50e-06	0	43	102	1048576	15	4766
2026-01-26 00:40:09.80	15.78	11.11	-27.9	-30.3	13.9	3.00e-06	0	43	102	1048576	15	4738
2026-01-26 00:40:12.81	15.72	11.38	-27.8	-29.9	14.1	9.89e-04	0	43	102	1048576	15	4603
2026-01-26 00:40:15.82	15.66	11.66	-27.7	-29.8	14.2	7.00e-07	0	43	102	1048576	15	4585
2026-01-26 00:40:18.83	15.60	11.93	-27.6	-29.5	14.4	8.59e-04	0	43	102	1048576	15	4484
2026-01-26 00:40:21.85	15.54	12.22	-27.5	-29.7	14.6	9.33e-04	0	43	102	1048576	14	4658
2026-01-26 00:40:24.86	15.48	12.50	-27.5	-29.3	14.6	1.10e-03	0	43	102	1048576	15	4419
2026-01-26 00:40:27.87	15.42	12.79	-27.4	-29.5	14.8	1.47e-03	0	43	102	1048576	14	4580
2026-01-26 00:40:30.88	15.35	13.08	-27.4	-29.5	14.8	4.49e-04	0	43	102	1048576	14	4582
2026-01-26 00:40:33.89	15.28	13.38	-27.2	-28.8	14.8	1.38e-03	0	43	102	1048576	15	4311
2026-01-26 00:40:36.88	15.22	13.67	-27.3	-29.3	13.6	0.00e+00	0	43	102	1048576	14	4529
2026-01-26 00:40:39.88	15.15	13.97	-27.1	-28.9	15.2	1.12e-03	0	43	102	1048576	14	4402
2026-01-26 00:40:42.90	15.08	14.28	-27.1	-28.8	15.2	4.06e-03	0	43	102	1048576	14	4384
2026-01-26 00:40:45.91	15.00	14.59	-27.2	-29.1	15.1	0.00e+00	0	43	102	1048576	14	4464
2026-01-26 00:40:48.93	14.93	14.91	-27.2	-29.1	15.1	4.45e-03	0	43	102	1048576	14	4473
2026-01-26 00:40:51.94	14.85	15.22	-27.3	-29.3	15.0	4.12e-03	0	43	102	1048576	14	4514
2026-01-26 00:40:54.95	14.77	15.55	-27.5	-29.6	14.8	4.43e-03	0	43	102	1048576	14	4623
2026-01-26 00:40:57.97	14.69	15.87	-27.7	-29.6	14.6	4.37e-03	0	43	102	1048576	15	4482
2026-01-26 00:41:00.98	14.61	16.21	-27.6	-29.4	14.7	7.00e-07	0	44	102	1048576	15	4426
2026-01-26 00:41:04.00	14.52	16.54	-27.5	-29.2	14.8	4.46e-03	0	44	102	1048576	15	4387
2026-01-26 00:41:07.02	14.43	16.88	-27.5	-29.3	14.8	7.00e-07	0	44	102	1048576	15	4405
2026-01-26 00:41:10.03	14.34	17.23	-27.5	-29.1	14.9	3.60e-03	0	43	102	1048576	15	4350
2026-01-26 00:41:13.04	14.25	17.58	-27.5	-29.2	14.9	0.00e+00	0	44	102	1048576	15	4377
2026-01-26 00:41:16.05	14.16	17.93	-27.5	-29.6	14.9	0.00e+00	0	43	102	1048576	14	4611
2026-01-26 00:41:19.06	14.06	18.29	-27.6	-29.3	14.8	0.00e+00	0	44	102	1048576	15	4409
2026-01-26 00:41:22.07	13.96	18.66	-27.6	-29.4	14.8	0.00e+00	0	43	102	1048576	15	4444
2026-01-26 00:41:25.07	13.86	19.02	-27.6	-29.3	14.8	0.00e+00	0	43	102	1048576	15	4416
2026-01-26 00:41:28.08	13.75	19.40	-27.7	-29.6	14.7	0.00e+00	0	44	102	1048576	15	4502
2026-01-26 00:41:31.09	13.65	19.78	-27.4	-29.5	15.0	1.48e-03	0	44	102	1048576	14	4582
2026-01-26 00:41:34.10	13.53	20.17	-27.3	-29.3	15.2	0.00e+00	0	44	102	1048576	14	4511
2026-01-26 00:41:37.10	13.42	20.56	-27.2	-29.0	15.3	0.00e+00	0	44	102	1048576	14	4425
2026-01-26 00:41:40.11	13.30	20.96	-27.1	-28.8	15.5	0.00e+00	0	44	102	1048576	14	4365
2026-01-26 00:41:43.12	13.18	21.36	-27.0	-28.6	15.6	0.00e+00	0	44	102	1048576	14	4311
2026-01-26 00:41:46.13	13.06	21.78	-26.8	-28.5	15.9	9.69e-04	0	44	102	1048576	13	4399
2026-01-26 00:41:49.14	12.93	22.19	-26.7	-28.4	16.0	0.00e+00	0	44	102	1048576	13	4364
2026-01-26 00:41:52.14	12.80	22.62	-26.5	-28.3	16.3	1.08e-03	0	44	102	1048576	12	4462
2026-01-26 00:41:55.15	12.66	23.05	-26.4	-28.3	16.4	1.08e-03	0	44	102	1048576	12	4446
2026-01-26 00:41:58.17	12.52	23.49	-26.2	-27.8	16.7	6.46e-04	0	44	102	1048576	12	4315
2026-01-26 00:42:01.19	12.38	23.94	-26.5	-27.8	16.4	4.23e-04	0	44	102	1048576	13	4191
2026-01-26 00:42:04.20	12.23	24.39	-26.3	-27.9	16.6	0.00e+00	0	44	102	1048576	12	4331
2026-01-26 00:42:07.21	12.07	24.86	-26.4	-28.3	16.1	4.59e-04	0	44	102	1048576	12	4446
2026-01-26 00:42:10.22	11.91	25.33	-26.7	-28.5	16.0	0.00e+00	0	44	102	1048576	13	4384
2026-01-26 00:42:13.23	11.75	25.81	-26.8	-28.5	16.0	0.00e+00	0	44	102	1048576	13	4396
2026-01-26 00:42:16.24	11.58	26.29	-27.0	-28.5	15.8	0.00e+00	0	44	102	1048576	14	4290
2026-01-26 00:42:19.25	11.40	26.79	-27.3	-29.1	15.5	0.00e+00	0	44	102	1048576	14	4432
2026-01-26 00:42:22.27	11.22	27.30	-27.3	-29.3	15.4	0.00e+00	0	44	102	1048576	14	4489
2026-01-26 00:42:25.29	11.03	27.81	-27.4	-29.4	15.4	0.00e+00	0	44	102	1048576	14	4509
2026-01-26 00:42:28.30	10.84	28.34	-27.9	-30.0	14.7	7.00e-07	0	44	102	1048576	15	4590
2026-01-26 00:42:31.31	10.64	28.87	-27.8	-29.8	14.9	0.00e+00	0	44	102	1048576	15	4518
2026-01-26 00:42:34.32	10.43	29.41	-27.5	-29.1	15.3	0.00e+00	0	44	102	1048576	15	4313
2026-01-26 00:42:37.31	10.22	29.96	-27.2	-29.0	15.5	0.00e+00	0	44	102	1048576	14	4427
2026-01-26 00:42:40.33	9.99	30.53	-27.4	-28.9	15.3	0.00e+00	0	44	102	1048576	15	4284
2026-01-26 00:42:43.34	9.76	31.10	-26.9	-28.3	16.0	0.00e+00	0	44	102	1048576	14	4222
2026-01-26 00:42:46.35	9.52	31.69	-26.9	-28.7	16.0	0.00e+00	0	44	102	1048576	13	4443
2026-01-26 00:42:49.35	9.27	32.28	-27.4	-29.3	15.4	0.00e+00	0	44	102	1048576	14	4508
2026-01-26 00:42:52.35	9.01	32.89	-27.6	-29.4	15.1	0.00e+00	0	44	102	1048576	15	4415
2026-01-26 00:42:55.37	8.74	33.51	-27.7	-29.7	15.0	0.00e+00	0	44	102	1048576	15	4500
2026-01-26 00:42:58.39	8.46	34.14	-28.0	-30.2	14.7	0.00e+00	0	44	102	1048576	15	4647
2026-01-26 00:43:01.41	8.16	34.79	-28.2	-30.2	14.6	7.00e-07	0	44	102	1048576	16	4513
2026-01-26 00:43:04.42	7.86	35.44	-28.3	-30.4	14.4	7.00e-07	0	44	102	1048576	16	4570
2026-01-26 00:43:07.42	7.54	36.11	-28.5	-30.4	14.1	7.00e-07	0	44	102	1048576	17	4483
2026-01-26 00:43:10.44	7.21	36.80	-29.1	-31.2	13.4	1.14e-05	0	44	102	1048576	18	4620
2026-01-26 00:43:13.45	6.86	37.49	-29.0	-31.0	13.5	9.90e-06	0	44	102	1048576	18	4550
2026-01-26 00:43:16.45	6.49	38.20	-28.7	-30.7	14.0	3.80e-06	0	44	102	1048576	17	4576
2026-01-26 00:43:19.46	6.11	38.92	-28.8	-31.0	13.9	1.50e-06	0	44	102	1048576	17	4648
2026-01-26 00:43:22.46	5.72	39.66	-29.0	-31.0	13.6	5.30e-06	0	44	102	1048576	18	4538
2026-01-26 00:43:25.48	5.30	40.41	-29.0	-31.1	13.4	1.44e-05	0	44	102	1048576	18	4590
2026-01-26 00:43:28.49	4.86	41.18	-29.2	-31.6	13.2	2.28e-05	0	44	102	1048576	18	4719
2026-01-26 00:43:31.50	4.40	41.96	-29.5	-31.8	12.7	7.78e-05	0	44	102	1048576	19	4693
2026-01-26 00:43:34.52	3.91	42.76	-29.2	-30.9	13.3	2.21e-05	0	44	102	1048576	19	4397
2026-01-26 00:43:37.52	3.41	43.57	-29.0	-30.9	13.6	6.10e-06	0	44	102	1048576	18	4514
2026-01-26 00:43:40.53	2.87	44.39	-29.2	-31.7	12.2	2.89e-05	0	44	102	1048576	18	4805
2026-01-26 00:43:43.54	2.31	45.23	-28.9	-31.3	13.7	7.60e-06	0	44	102	1048576	17	4745
2026-01-26 00:43:46.55	1.71	46.08	-29.1	-31.3	13.4	1.37e-05	0	44	102	1048576	18	4641
2026-01-26 00:43:49.55	1.08	46.95	-28.7	-30.8	13.9	3.65e-03	0	44	102	1048576	17	4587
2026-01-26 00:43:52.56	0.41	47.83	-28.4	-30.7	14.3	7.00e-07	0	44	102	1048576	16	4670
2026-01-26 00:43:55.58	359.70	48.73	-28.5	-30.3	14.2	3.81e-03	0	44	102	1048576	17	4450
2026-01-26 00:43:58.59	358.95	49.64	-28.7	-30.7	14.0	3.69e-03	0	44	102	1048576	17	4559
2026-01-26 00:44:01.62	358.14	50.57	-28.9	-31.3	13.7	3.44e-03	0	44	102	1048576	17	4738
2026-01-26 00:44:04.63	357.29	51.51	-28.9	-30.7	13.7	3.86e-03	0	44	102	1048576	18	4455
2026-01-26 00:44:07.64	356.38	52.46	-29.0	-31.0	13.6	4.50e-06	0	44	102	1048576	18	4552
2026-01-26 00:44:10.66	355.41	53.42	-27.9	-29.5	15.0	2.83e-03	0	44	102	1048576	16	4314
2026-01-26 00:44:13.67	354.38	54.38	-27.7	-29.5	15.1	0.00e+00	0	44	102	1048576	15	4446
2026-01-26 00:44:16.68	353.27	55.36	-27.3	-29.1	15.6	0.00e+00	0	44	102	1048576	14	4446
2026-01-26 00:44:19.70	352.07	56.35	-27.1	-28.6	15.9	0.00e+00	0	44	102	1048576	14	4289
2026-01-26 00:44:22.71	350.79	57.33	-27.3	-29.2	15.6	0.00e+00	0	44	102	1048576	14	4462
2026-01-26 00:44:25.71	349.42	58.32	-26.8	-28.4	16.3	0.00e+00	0	44	102	1048576	13	4362
2026-01-26 00:44:28.74	347.93	59.31	-27.1	-28.7	15.9	0.00e+00	0	44	102	1048576	14	4327
2026-01-26 00:44:31.74	346.33	60.29	-27.2	-28.5	15.7	0.00e+00	0	44	102	1048576	15	4149
2026-01-26 00:44:34.75	344.61	61.27	-26.5	-27.9	16.5	0.00e+00	0	44	102	1048576	13	4219
2026-01-26 00:44:37.76	342.73	62.24	-26.3	-27.3	16.9	5.56e-05	0	44	102	1048576	13	4049
2026-01-26 00:44:40.78	340.70	63.20	-25.7	-26.5	17.6	0.00e+00	0	44	102	1048576	12	3975
2026-01-26 00:44:43.79	338.51	64.13	-25.2	-26.6	18.1	0.00e+00	0	44	102	1048576	10	4207
2026-01-26 00:44:46.81	336.12	65.05	-25.8	-27.3	17.5	0.00e+00	0	44	102	1048576	11	4269
2026-01-26 00:44:49.81	333.55	65.92	-25.7	-26.7	17.4	0.00e+00	0	44	102	1048576	12	4022
2026-01-26 00:44:52.82	330.76	66.76	-26.1	-27.4	17.0	0.00e+00	0	44	102	1048576	12	4208
2026-01-26 00:44:55.84	327.74	67.55	-25.4	-25.8	17.9	0.00e+00	0	44	102	1048576	12	3804
2026-01-26 00:44:58.85	324.50	68.29	-25.9	-27.0	17.3	0.00e+00	0	44	102	1048576	12	4105
2026-01-26 00:45:01.87	321.00	68.97	-25.9	-27.1	17.3	0.00e+00	0	44	102	1048576	12	4126
2026-01-26 00:45:04.88	317.28	69.57	-25.4	-26.0	17.8	0.00e+00	0	44	102	1048576	12	3857
2026-01-26 00:45:07.90	313.32	70.08	-25.3	-26.3	18.0	8.39e-05	0	44	102	1048576	11	4022
2026-01-26 00:45:10.92	309.15	70.51	-26.0	-27.2	17.3	0.00e+00	0	44	102	1048576	12	4135
2026-01-26 00:45:13.94	304.81	70.84	-25.5	-26.2	17.7	3.77e-04	0	44	102	1048576	12	3883
2026-01-26 00:45:16.96	300.33	71.06	-25.9	-27.6	17.3	0.00e+00	0	44	102	1048576	11	4350
2026-01-26 00:45:19.97	295.78	71.17	-25.3	-26.2	17.9	2.09e-03	0	44	102	1048576	11	3991
2026-01-26 00:45:22.99	291.19	71.17	-26.1	-27.5	17.1	2.33e-03	0	44	102	1048576	12	4215
2026-01-26 00:45:26.01	286.63	71.05	-25.9	-27.6	17.3	1.72e-03	0	44	102	1048576	11	4355
2026-01-26 00:45:29.01	282.19	70.82	-26.3	-27.9	16.9	3.16e-03	0	44	102	1048576	12	4333
2026-01-26 00:45:32.02	277.87	70.49	-25.3	-26.2	17.9	0.00e+00	0	44	102	1048576	11	3996
2026-01-26 00:45:35.03	273.72	70.06	-25.9	-27.6	17.3	2.59e-03	0	44	102	1048576	11	4357
2026-01-26 00:45:38.05	269.77	69.53	-25.3	-26.7	18.0	0.00e+00	0	44	102	1048576	10	4227
2026-01-26 00:45:41.06	266.06	68.93	-26.4	-28.1	16.7	0.00e+00	0	44	102	1048576	12	4376
2026-01-26 00:45:44.07	262.59	68.25	-25.4	-26.4	17.9	3.57e-03	0	44	102	1048576	11	4037
2026-01-26 00:45:47.09	259.34	67.50	-25.9	-27.5	16.8	0.00e+00	0	44	102	1048576	12	4305
2026-01-26 00:45:50.09	256.35	66.71	-25.4	-26.5	17.4	1.42e-04	0	44	102	1048576	11	4084
2026-01-26 00:45:53.10	253.57	65.87	-26.1	-27.5	16.9	0.00e+00	0	44	102	1048576	12	4213
2026-01-26 00:45:56.12	250.99	64.98	-25.5	-26.3	17.5	0.00e+00	0	44	102	1048576	12	3909
2026-01-26 00:45:59.13	248.62	64.07	-25.6	-27.0	17.6	0.00e+00	0	44	102	1048576	11	4188
2026-01-26 00:46:02.14	246.43	63.13	-27.1	-28.1	15.6	2.77e-04	0	44	102	1048576	15	4077
2026-01-26 00:46:05.15	244.41	62.18	-25.8	-26.9	17.2	0.00e+00	0	44	102	1048576	12	4058
2026-01-26 00:46:08.16	242.55	61.20	-27.2	-29.0	15.6	0.00e+00	0	44	102	1048576	14	4430
2026-01-26 00:46:11.18	240.82	60.22	-26.1	-27.4	17.0	1.38e-04	0	44	102	1048576	12	4199
2026-01-26 00:46:14.19	239.22	59.23	-28.4	-30.6	14.2	3.00e-06	0	44	102	1048576	16	4641
2026-01-26 00:46:17.20	237.74	58.24	-27.7	-29.0	15.1	2.72e-04	0	44	102	1048576	16	4172
2026-01-26 00:46:20.21	236.37	57.25	-27.2	-29.0	15.6	2.19e-04	0	44	102	1048576	14	4407
2026-01-26 00:46:23.23	235.09	56.25	-29.1	-31.3	13.3	1.83e-05	0	44	102	1048576	18	4657
2026-01-26 00:46:26.24	233.90	55.27	-27.4	-28.3	15.6	3.20e-04	0	44	102	1048576	16	4007
2026-01-26 00:46:29.26	232.79	54.29	-26.9	-28.8	15.9	0.00e+00	0	44	102	1048576	13	4484
2026-01-26 00:46:32.28	231.75	53.31	-29.6	-32.2	12.3	6.48e-04	0	44	102	1048576	19	4873
2026-01-26 00:46:35.29	230.79	52.35	-27.7	-29.1	15.0	7.00e-07	0	44	102	1048576	16	4220
2026-01-26 00:46:38.30	229.88	51.40	-27.7	-29.5	14.9	0.00e+00	0	44	102	1048576	15	4457
2026-01-26 00:46:41.31	229.03	50.46	-28.8	-31.1	13.5	1.90e-05	0	44	102	1048576	17	4714
2026-01-26 00:46:44.33	228.23	49.54	-29.6	-32.2	12.1	3.26e-04	0	44	102	1048576	19	4840
2026-01-26 00:46:47.33	227.48	48.63	-29.2	-31.5	12.9	6.33e-05	0	44	102	1048576	18	4713
2026-01-26 00:46:50.34	226.78	47.73	-29.4	-32.1	12.6	5.41e-05	0	44	102	1048576	18	4933
2026-01-26 00:46:53.35	226.11	46.84	-29.2	-31.2	12.9	5.49e-05	0	44	102	1048576	19	4509
2026-01-26 00:46:56.36	225.48	45.97	-29.4	-32.2	12.6	7.62e-05	0	44	102	1048576	18	4958
2026-01-26 00:46:59.38	224.88	45.11	-29.6	-32.3	11.9	3.32e-04	0	44	102	1048576	19	4881
2026-01-26 00:47:02.39	224.31	44.27	-28.9	-30.4	13.3	3.35e-05	0	44	102	1048576	19	4280
2026-01-26 00:47:05.40	223.78	43.44	-28.8	-30.7	13.4	6.80e-06	0	44	102	1048576	18	4473
2026-01-26 00:47:08.41	223.27	42.63	-29.3	-32.0	12.7	6.33e-05	0	44	102	1048576	18	4900
2026-01-26 00:47:11.42	222.78	41.83	-29.3	-31.5	12.7	9.53e-05	0	44	102	1048576	19	4617
2026-01-26 00:47:14.43	222.32	41.05	-28.4	-29.7	14.1	3.00e-06	0	44	102	1048576	18	4183
2026-01-26 00:47:17.45	221.88	40.28	-27.6	-28.8	15.1	0.00e+00	0	44	102	1048576	16	4141
2026-01-26 00:47:20.45	221.47	39.53	-27.7	-29.0	15.0	0.00e+00	0	44	102	1048576	16	4201
2026-01-26 00:47:23.48	221.07	38.78	-28.8	-31.2	13.5	7.60e-06	0	44	102	1048576	17	4741
2026-01-26 00:47:26.50	220.69	38.05	-29.1	-31.5	13.0	5.11e-05	0	44	102	1048576	18	4736
2026-01-26 00:47:29.51	220.32	37.34	-28.7	-30.5	13.6	1.29e-05	0	44	102	1048576	18	4402
2026-01-26 00:47:32.52	219.97	36.65	-28.4	-29.7	14.1	2.20e-06	0	44	102	1048576	18	4177
2026-01-26 00:47:35.54	219.64	35.96	-28.6	-30.3	13.8	2.20e-06	0	44	102	1048576	18	4345
2026-01-26 00:47:38.56	219.32	35.29	-28.1	-29.6	14.4	0.00e+00	0	44	102	1048576	17	4244
2026-01-26 00:47:41.58	219.01	34.63	-27.5	-28.7	15.2	0.00e+00	0	44	102	1048576	16	4127
2026-01-26 00:47:44.60	218.72	33.98	-27.8	-29.9	14.6	0.00e+00	0	44	102	1048576	15	4590
2026-01-26 00:47:47.61	218.43	33.34	-27.5	-29.2	15.0	0.00e+00	0	44	102	1048576	15	4384
2026-01-26 00:47:50.63	218.16	32.72	-26.7	-27.8	16.1	0.00e+00	0	44	102	1048576	14	4094
2026-01-26 00:47:53.65	217.90	32.11	-26.3	-27.9	14.8	0.00e+00	0	44	102	1048576	12	4354
2026-01-26 00:47:56.65	217.65	31.51	-26.6	-28.2	16.1	0.00e+00	0	44	102	1048576	13	4323
2026-01-26 00:47:59.67	217.41	30.93	-27.0	-29.0	15.6	0.00e+00	0	44	102	1048576	13	4534
2026-01-26 00:48:02.69	217.18	30.35	-27.1	-28.7	15.5	0.00e+00	0	44	102	1048576	14	4338
2026-01-26 00:48:05.71	216.95	29.78	-27.4	-29.5	15.0	0.00e+00	0	44	102	1048576	14	4592
2026-01-26 00:48:08.72	216.73	29.23	-27.9	-30.2	14.3	7.00e-07	0	44	102	1048576	15	4671
2026-01-26 00:48:11.72	216.53	28.69	-27.0	-28.6	15.5	3.26e-03	0	44	102	1048576	14	4310
2026-01-26 00:48:14.74	216.32	28.15	-26.6	-28.1	16.0	4.00e-03	0	44	102	1048576	13	4287
2026-01-26 00:48:17.75	216.13	27.63	-26.5	-28.4	16.0	4.20e-03	0	44	102	1048576	12	4495
2026-01-26 00:48:20.76	215.94	27.11	-26.0	-27.2	16.7	3.86e-03	0	44	102	1048576	12	4166
2026-01-26 00:48:23.77	215.76	26.61	-26.1	-27.5	16.5	0.00e+00	0	44	102	1048576	12	4230
2026-01-26 00:48:26.77	215.58	26.11	-26.3	-28.0	16.2	3.88e-03	0	44	102	1048576	12	4389
2026-01-26 00:48:29.77	215.41	25.62	-26.3	-28.1	16.2	0.00e+00	0	44	102	1048576	12	4395
2026-01-26 00:48:32.78	215.25	25.15	-26.3	-28.0	16.2	1.18e-03	0	44	102	1048576	12	4392
2026-01-26 00:48:35.80	215.09	24.67	-25.7	-27.4	15.8	0.00e+00	0	44	102	1048576	12	4407
2026-01-26 00:48:38.80	214.93	24.21	-26.6	-28.2	15.8	0.00e+00	0	44	102	1048576	13	4340
2026-01-26 00:48:41.82	214.78	23.75	-26.6	-28.2	15.9	1.51e-03	0	44	102	1048576	13	4329
2026-01-26 00:48:44.83	214.63	23.31	-26.6	-28.1	15.9	0.00e+00	0	44	102	1048576	13	4304
2026-01-26 00:48:47.84	214.49	22.87	-26.6	-28.2	15.8	6.42e-04	0	44	102	1048576	13	4336
2026-01-26 00:48:50.86	214.35	22.43	-26.6	-28.3	15.7	5.46e-04	0	44	102	1048576	13	4351
2026-01-26 00:48:53.87	214.22	22.01	-26.6	-28.2	15.8	5.00e-04	0	44	102	1048576	13	4334
2026-01-26 00:48:56.90	214.09	21.58	-26.6	-28.2	15.8	3.91e-04	0	44	102	1048576	13	4329
2026-01-26 00:48:59.91	213.96	21.17	-26.6	-28.2	15.8	1.50e-06	0	44	102	1048576	13	4342
2026-01-26 00:49:02.91	213.84	20.77	-26.5	-27.9	15.9	3.20e-04	0	44	102	1048576	13	4268
2026-01-26 00:49:05.92	213.72	20.37	-26.4	-27.7	16.0	3.45e-04	0	44	102	1048576	13	4204
2026-01-26 00:49:08.93	213.61	19.97	-26.3	-28.2	16.0	2.78e-04	0	44	102	1048576	12	4441
2026-01-26 00:49:11.95	213.49	19.58	-26.3	-28.0	16.1	0.00e+00	0	44	102	1048576	12	4386
2026-01-26 00:49:14.96	213.38	19.20	-26.4	-28.2	16.0	1.14e-05	0	44	102	1048576	12	4468
2026-01-26 00:49:17.97	213.28	18.83	-26.5	-28.0	15.8	1.85e-04	0	44	102	1048576	13	4286
2026-01-26 00:49:20.98	213.17	18.46	-26.6	-28.3	15.6	0.00e+00	0	44	102	1048576	13	4377
2026-01-26 00:49:24.00	213.07	18.09	-26.8	-28.7	15.4	2.67e-03	0	44	102	1048576	13	4469
2026-01-26 00:49:27.02	212.97	17.73	-26.8	-28.7	15.4	0.00e+00	0	44	102	1048576	13	4479
2026-01-26 00:49:30.04	212.88	17.37	-26.8	-28.8	15.3	1.97e-03	0	44	102	1048576	13	4497
2026-01-26 00:49:33.04	212.78	17.02	-26.8	-28.8	15.3	1.85e-03	0	44	102	1048576	13	4520
2026-01-26 00:49:36.05	212.69	16.68	-26.9	-29.0	15.1	0.00e+00	0	44	102	1048576	13	4566
2026-01-26 00:49:39.07	212.60	16.34	-27.0	-28.8	15.0	2.40e-03	0	44	102	1048576	14	4395
2026-01-26 00:49:42.06	212.52	16.00	-27.3	-29.3	14.7	0.00e+00	0	44	102	1048576	14	4550
2026-01-26 00:49:45.08	212.43	15.67	-27.4	-29.7	14.4	2.42e-03	0	44	102	1048576	14	4666
2026-01-26 00:49:48.10	212.35	15.34	-27.1	-29.0	14.8	2.47e-03	0	44	102	1048576	14	4456
2026-01-26 00:49:51.11	212.27	15.02	-27.2	-29.1	14.7	2.63e-03	0	44	102	1048576	14	4496
2026-01-26 00:49:54.12	212.19	14.70	-27.2	-29.2	14.7	2.22e-03	0	44	102	1048576	14	4512
2026-01-26 00:49:57.13	212.11	14.39	-27.2	-29.1	14.7	7.00e-07	0	44	102	1048576	14	4491
2026-01-26 00:50:00.14	212.03	14.08	-27.2	-29.2	14.6	2.64e-03	0	44	102	1048576	14	4521
2026-01-26 00:50:03.13	211.96	13.77	-27.4	-29.6	14.4	2.20e-06	0	44	102	1048576	14	4641
2026-01-26 00:50:06.15	211.89	13.47	-27.2	-29.3	14.5	0.00e+00	0	44	102	1048576	14	4544
2026-01-26 00:50:09.16	211.82	13.17	-27.5	-29.5	14.1	2.20e-06	0	44	102	1048576	15	4500
2026-01-26 00:50:12.16	211.75	12.88	-27.4	-29.7	14.2	2.20e-06	0	44	102	1048576	14	4680
2026-01-26 00:50:15.17	211.68	12.58	-27.4	-29.6	14.2	1.50e-06	0	44	102	1048576	14	4663
2026-01-26 00:50:18.18	211.62	12.30	-27.5	-29.4	14.1	7.00e-07	0	44	102	1048576	15	4471
2026-01-26 00:50:21.19	211.55	12.01	-27.4	-29.6	14.2	7.00e-07	0	44	102	1048576	14	4661
2026-01-26 00:50:24.20	211.49	11.73	-27.5	-29.5	14.0	3.00e-06	0	44	102	1048576	15	4506
2026-01-26 00:50:27.21	211.43	11.45	-27.5	-29.4	14.0	1.50e-06	0	44	102	1048576	15	4491
2026-01-26 00:50:30.23	211.37	11.17	-27.6	-29.6	13.8	1.50e-06	0	44	102	1048576	15	4566
2026-01-26 00:50:33.23	211.31	10.90	-27.6	-29.7	13.7	7.00e-07	0	44	102	1048576	15	4598
2026-01-26 00:50:36.24	211.25	10.63	-27.7	-30.0	13.6	6.10e-06	0	44	102	1048576	15	4670
2026-01-26 00:50:39.25	211.19	10.37	-27.5	-29.5	13.9	5.30e-06	0	44	102	1048576	15	4533
2026-01-26 00:50:42.28	211.14	10.10	-27.4	-29.3	13.9	6.10e-06	0	44	102	1048576	15	4471
2026-01-26 00:50:45.29	211.08	9.84	-27.7	-30.1	13.5	1.06e-05	0	44	102	1048576	15	4699
2026-01-26 00:50:48.30	211.03	9.58	-27.7	-29.9	13.6	6.10e-06	0	44	102	1048576	15	4639
2026-01-26 00:50:51.32	210.98	9.32	-27.7	-29.9	13.5	6.80e-06	0	44	102	1048576	15	4646
2026-01-26 00:50:54.34	210.93	9.07	-27.7	-29.9	13.5	6.10e-06	0	44	102	1048576	15	4648
2026-01-26 00:50:57.34	210.88	8.82	-27.7	-29.9	13.5	1.65e-04	0	44	102	1048576	15	4667
2026-01-26 00:51:00.35	210.83	8.57	-27.7	-30.0	13.4	1.60e-05	0	44	102	1048576	15	4700
2026-01-26 00:51:03.36	210.78	8.32	-27.7	-30.0	13.4	1.46e-04	0	44	102	1048576	15	4679
2026-01-26 00:51:06.36	210.73	8.08	-27.8	-30.3	13.1	2.21e-04	0	44	102	1048576	15	4799
2026-01-26 00:51:09.36	210.69	7.84	-27.9	-30.4	13.1	3.12e-05	0	44	102	1048576	15	4834
2026-01-26 00:51:12.37	210.64	7.60	-28.0	-30.2	13.0	2.14e-04	0	44	102	1048576	16	4643
2026-01-26 00:51:15.38	210.60	7.37	-28.2	-30.6	12.8	2.49e-04	0	44	102	1048576	16	4760
2026-01-26 00:51:18.39	210.55	7.13	-28.2	-30.8	12.7	2.86e-04	0	44	102	1048576	16	4838

#Closed at: 2026-01-26 00:51:20
#Recorded file [1 MB]: D:/data/31010_260126_033923.dat