passes_logs/2026/01/26/R2M6_AANII_01/R2M6_AANII_01__20260126_092203_SUOMI_NPP_rec.log

#Pass ID: 20260126_092203_SUOMI NPP
#Satellite: SUOMI NPP
#Configuration: NPP
#almurnet v.1.7.20240730
#Start time: 2026-01-26 09:22:03

#Version: 2.2.20231116
#Station: R2M6_AANII_01
#Location: 30.233357 lon 59.946436 lat
#TLE: 1 37849U 11061A   26025.81780576  .00000180  00000+0  10635-3 0  9993
#TLE: 2 37849  98.7822 327.7738 0002159  45.0809 315.0541 14.19529973738242

#Time	Az	El	Level	Level2	SNR	BER	BlckErr	Temp	State	Recorded	gain1	gain2
2026-01-26 09:22:03.86	128.35	7.02	-31.0	-34.8	5.1	1.27e+00	0	41	0	0	23	5572
2026-01-26 09:22:06.86	128.20	7.25	-31.8	-38.7	5.1	6.23e-01	0	41	0	1048576	24	7974
2026-01-26 09:22:09.86	128.05	7.47	-31.0	-34.8	8.3	1.20e-01	0	41	0	7340032	23	5537
2026-01-26 09:22:12.86	127.89	7.70	-30.7	-33.6	9.8	1.97e-02	0	42	0	12582912	22	5052
2026-01-26 09:22:15.87	127.73	7.92	-30.6	-34.1	9.7	3.98e-03	0	41	0	17825792	21	5344
2026-01-26 09:22:18.88	127.57	8.15	-31.3	-36.4	7.5	8.58e-02	0	42	0	24117248	22	6452
2026-01-26 09:22:21.88	127.41	8.39	-31.7	-37.5	6.4	2.64e-01	0	42	0	29360128	23	7034
2026-01-26 09:22:24.89	127.24	8.62	-30.7	-33.8	9.6	1.83e-02	0	42	0	35651584	22	5147
2026-01-26 09:22:27.90	127.07	8.86	-30.2	-32.6	10.9	1.90e-03	0	42	0	40894464	21	4713
2026-01-26 09:22:30.90	126.90	9.09	-30.4	-33.0	10.6	2.08e-03	0	42	0	46137344	21	4861
2026-01-26 09:22:33.90	126.72	9.33	-31.0	-35.1	9.0	2.58e-02	0	42	0	52428800	21	5822
2026-01-26 09:22:36.91	126.54	9.57	-31.2	-35.5	8.5	7.41e-02	0	42	0	57671680	22	5880
2026-01-26 09:22:39.93	126.36	9.82	-30.3	-32.1	11.0	3.08e-03	0	42	0	62914560	22	4426
2026-01-26 09:22:42.93	126.17	10.06	-30.4	-32.9	10.8	1.90e-03	0	42	0	69206016	21	4804
2026-01-26 09:22:45.93	125.98	10.31	-30.7	-33.9	10.1	5.42e-03	0	42	0	74448896	21	5238
2026-01-26 09:22:48.94	125.79	10.56	-30.9	-34.1	9.6	1.39e-02	0	42	0	80740352	22	5231
2026-01-26 09:22:51.95	125.60	10.82	-29.9	-31.4	12.0	4.48e-04	0	42	0	85983232	21	4275
2026-01-26 09:22:54.96	125.40	11.07	-29.6	-30.8	12.7	9.53e-05	0	42	0	91226112	20	4162
2026-01-26 09:22:57.97	125.19	11.33	-30.3	-33.0	11.3	7.15e-04	0	43	0	97517568	20	4904
2026-01-26 09:23:00.97	124.99	11.59	-30.6	-33.6	10.6	4.75e-03	0	43	0	102760448	21	5050
2026-01-26 09:23:03.97	124.78	11.85	-30.5	-33.0	10.9	1.93e-03	0	42	0	108003328	21	4819
2026-01-26 09:23:06.98	124.56	12.11	-29.9	-31.0	12.4	1.53e-04	0	43	0	114294784	21	4129
2026-01-26 09:23:10.01	124.34	12.38	-30.3	-32.3	11.5	3.94e-04	0	43	0	119537664	21	4565
2026-01-26 09:23:13.02	124.12	12.65	-30.3	-32.5	11.4	1.02e-03	0	43	0	125829120	21	4617
2026-01-26 09:23:16.03	123.89	12.92	-29.7	-31.1	12.8	1.04e-04	0	43	0	131072000	20	4241
2026-01-26 09:23:19.04	123.66	13.20	-29.7	-31.1	12.8	4.42e-05	0	43	0	136314880	20	4236
2026-01-26 09:23:22.06	123.42	13.48	-29.8	-31.3	12.7	7.78e-05	0	43	0	142606336	20	4286
2026-01-26 09:23:25.06	123.18	13.76	-29.8	-31.4	12.7	9.30e-05	0	43	0	147849216	20	4326
2026-01-26 09:23:28.07	122.94	14.04	-30.1	-32.1	12.3	2.34e-04	0	43	0	154140672	20	4558
2026-01-26 09:23:31.08	122.69	14.32	-30.1	-32.1	12.3	1.29e-04	0	43	0	159383552	20	4541
2026-01-26 09:23:34.09	122.43	14.61	-30.0	-32.0	12.3	1.86e-04	0	43	0	164626432	20	4486
2026-01-26 09:23:37.09	122.17	14.90	-29.6	-30.6	13.3	1.75e-05	0	43	0	170917888	20	4058
2026-01-26 09:23:40.09	121.91	15.20	-29.7	-31.0	13.1	2.21e-05	0	43	0	176160768	20	4168
2026-01-26 09:23:43.10	121.63	15.49	-29.8	-31.1	13.0	4.95e-05	0	43	0	181403648	20	4191
2026-01-26 09:23:46.11	121.36	15.79	-29.6	-30.7	13.3	2.21e-05	0	43	0	187695104	20	4079
2026-01-26 09:23:49.11	121.07	16.10	-29.9	-31.5	12.8	4.95e-05	0	43	0	192937984	20	4338
2026-01-26 09:23:52.12	120.79	16.40	-30.2	-32.5	12.1	1.54e-04	0	43	0	199229440	20	4672
2026-01-26 09:23:55.12	120.49	16.71	-29.9	-31.7	12.8	3.50e-05	0	43	0	204472320	20	4387
2026-01-26 09:23:58.12	120.19	17.02	-30.0	-31.8	12.7	5.64e-05	0	43	0	209715200	20	4434
2026-01-26 09:24:01.13	119.88	17.34	-30.0	-31.9	12.6	9.84e-05	0	43	0	216006656	20	4466
2026-01-26 09:24:04.14	119.57	17.66	-29.7	-30.9	13.3	2.51e-05	0	43	0	221249536	20	4146
2026-01-26 09:24:07.15	119.25	17.98	-29.8	-31.1	13.2	2.59e-05	0	43	0	226492416	20	4202
2026-01-26 09:24:10.16	118.92	18.31	-30.0	-31.9	12.6	1.07e-04	0	43	0	232783872	20	4460
2026-01-26 09:24:13.17	118.58	18.63	-29.8	-31.1	13.2	3.28e-05	0	43	0	238026752	20	4203
2026-01-26 09:24:16.17	118.24	18.97	-29.9	-31.5	12.9	2.74e-05	0	43	0	244318208	20	4331
2026-01-26 09:24:19.19	117.89	19.30	-29.8	-31.3	13.1	2.28e-05	0	43	0	249561088	20	4260
2026-01-26 09:24:22.21	117.53	19.64	-29.6	-30.6	13.6	1.06e-05	0	43	0	254803968	20	4047
2026-01-26 09:24:25.22	117.16	19.98	-29.9	-31.7	12.8	4.50e-05	0	43	0	261095424	20	4399
2026-01-26 09:24:28.23	116.79	20.33	-29.9	-31.7	12.9	6.86e-05	0	43	0	266338304	20	4383
2026-01-26 09:24:31.24	116.40	20.68	-30.0	-31.8	12.8	3.58e-05	0	43	0	271581184	20	4411
2026-01-26 09:24:34.25	116.01	21.03	-30.5	-32.7	11.8	3.65e-04	0	43	0	277872640	21	4629
2026-01-26 09:24:37.27	115.60	21.39	-30.0	-31.2	12.9	6.86e-05	0	43	0	283115520	21	4141
2026-01-26 09:24:40.28	115.19	21.75	-30.1	-31.5	12.7	5.87e-05	0	43	0	289406976	21	4242
2026-01-26 09:24:43.27	114.77	22.11	-29.9	-31.0	13.1	3.89e-05	0	43	0	294649856	21	4075
2026-01-26 09:24:46.27	114.34	22.48	-30.4	-32.2	12.3	9.76e-05	0	43	0	299892736	21	4440
2026-01-26 09:24:49.29	113.90	22.85	-30.7	-33.1	11.6	8.00e-04	0	43	0	306184192	21	4771
2026-01-26 09:24:52.30	113.44	23.22	-30.3	-31.9	12.6	1.46e-04	0	43	0	311427072	21	4320
2026-01-26 09:24:55.31	112.98	23.60	-30.4	-32.2	12.4	7.47e-05	0	44	0	317718528	21	4435
2026-01-26 09:24:58.32	112.50	23.98	-30.0	-31.0	13.2	1.16e-04	0	43	0	322961408	21	4048
2026-01-26 09:25:01.32	112.01	24.36	-30.2	-32.1	12.8	2.67e-05	0	43	0	328204288	20	4482
2026-01-26 09:25:04.33	111.51	24.75	-30.2	-32.1	12.9	3.96e-05	0	44	0	334495744	20	4460
2026-01-26 09:25:07.34	111.00	25.14	-29.9	-31.1	13.5	1.22e-05	0	44	0	339738624	20	4152
2026-01-26 09:25:10.35	110.47	25.54	-30.2	-31.9	13.0	3.58e-05	0	43	0	344981504	20	4412
2026-01-26 09:25:13.36	109.93	25.93	-29.6	-30.7	13.7	9.10e-06	0	44	0	351272960	20	4058
2026-01-26 09:25:16.36	109.38	26.33	-29.9	-31.5	13.2	8.30e-06	0	44	0	356515840	20	4297
2026-01-26 09:25:19.38	108.81	26.74	-30.5	-33.1	12.2	1.56e-04	0	44	0	362807296	20	4833
2026-01-26 09:25:22.39	108.23	27.14	-30.4	-32.3	12.3	3.17e-04	0	44	0	368050176	21	4482
2026-01-26 09:25:25.41	107.63	27.55	-30.9	-33.3	11.3	8.99e-04	0	43	0	373293056	22	4755
2026-01-26 09:25:28.42	107.01	27.96	-30.8	-33.1	11.5	5.05e-04	0	44	0	379584512	22	4672
2026-01-26 09:25:31.42	106.39	28.37	-30.9	-33.3	11.4	1.96e-03	0	44	0	384827392	22	4737
2026-01-26 09:25:34.43	105.74	28.79	-31.5	-35.2	10.0	5.97e-03	0	44	0	391118848	22	5550
2026-01-26 09:25:37.44	105.07	29.21	-31.3	-34.0	10.5	5.82e-03	0	44	0	396361728	23	4939
2026-01-26 09:25:40.45	104.39	29.63	-31.6	-35.3	9.4	9.54e-03	0	44	0	401604608	23	5511
2026-01-26 09:25:43.45	103.70	30.05	-31.5	-34.8	10.0	8.98e-03	0	43	0	407896064	23	5263
2026-01-26 09:25:46.47	102.97	30.47	-31.5	-34.4	10.3	3.50e-03	0	44	0	413138944	23	5081
2026-01-26 09:25:49.48	102.24	30.89	-31.0	-33.0	11.4	1.15e-03	0	44	0	418381824	23	4490
2026-01-26 09:25:52.49	101.48	31.32	-31.4	-34.1	10.6	2.42e-03	0	44	0	424673280	23	4924
2026-01-26 09:25:55.50	100.70	31.74	-31.2	-33.5	11.0	1.04e-03	0	44	0	429916160	23	4678
2026-01-26 09:25:58.51	99.90	32.16	-31.1	-33.4	11.0	1.62e-03	0	44	0	436207616	23	4687
2026-01-26 09:26:01.52	99.09	32.59	-31.1	-33.2	11.3	8.83e-04	0	44	0	441450496	23	4578
2026-01-26 09:26:04.53	98.24	33.01	-30.9	-32.5	11.7	6.97e-04	0	44	0	446693376	23	4344
2026-01-26 09:26:07.53	97.38	33.43	-30.8	-32.9	11.9	4.39e-04	0	44	0	452984832	22	4579
2026-01-26 09:26:10.53	96.50	33.85	-30.6	-32.3	12.3	1.26e-04	0	44	0	458227712	22	4348
2026-01-26 09:26:13.54	95.59	34.26	-30.6	-32.1	12.4	2.51e-04	0	44	0	463470592	22	4286
2026-01-26 09:26:16.55	94.66	34.68	-30.8	-32.8	11.9	1.58e-04	0	44	0	469762048	22	4517
2026-01-26 09:26:19.56	93.70	35.09	-31.4	-34.2	10.5	4.43e-03	0	44	0	475004928	23	4985
2026-01-26 09:26:22.58	92.72	35.50	-31.8	-36.2	8.9	2.43e-02	0	44	0	481296384	23	5954
2026-01-26 09:26:25.58	91.72	35.90	-31.8	-35.3	9.2	1.71e-02	0	44	0	486539264	24	5413
2026-01-26 09:26:28.59	90.68	36.29	-31.8	-35.4	9.2	2.63e-02	0	43	0	491782144	24	5421
2026-01-26 09:26:31.60	89.63	36.68	-31.2	-33.7	11.0	3.77e-03	0	44	0	498073600	23	4808
2026-01-26 09:26:34.62	88.54	37.07	-31.2	-33.8	11.0	1.10e-03	0	44	0	503316480	23	4836
2026-01-26 09:26:37.62	87.44	37.44	-31.5	-34.7	10.1	7.92e-03	0	44	0	509607936	23	5203
2026-01-26 09:26:40.62	86.31	37.81	-31.3	-33.7	10.9	2.38e-03	0	44	0	514850816	23	4780
2026-01-26 09:26:43.62	85.16	38.17	-31.6	-34.9	10.1	5.51e-03	0	44	0	520093696	23	5243
2026-01-26 09:26:46.64	83.97	38.52	-31.6	-34.8	10.1	1.31e-02	0	44	0	526385152	23	5228
2026-01-26 09:26:49.64	82.76	38.85	-31.1	-33.4	11.2	8.96e-04	0	43	0	531628032	23	4667
2026-01-26 09:26:52.65	81.53	39.18	-30.3	-31.9	12.9	5.95e-05	0	44	0	536870912	21	4349
2026-01-26 09:26:55.66	80.27	39.49	-29.6	-30.7	13.9	3.00e-06	0	44	0	543162368	20	4065
2026-01-26 09:26:58.66	78.99	39.79	-30.1	-32.0	13.1	4.34e-05	0	44	0	548405248	20	4488
2026-01-26 09:27:01.66	77.69	40.08	-30.2	-32.0	13.2	1.44e-05	0	44	0	553648128	20	4471
2026-01-26 09:27:04.67	76.37	40.35	-29.9	-31.3	13.6	7.00e-07	0	44	0	559939584	20	4230
2026-01-26 09:27:07.68	75.02	40.60	-30.2	-31.6	13.1	3.28e-05	0	44	0	565182464	21	4202
2026-01-26 09:27:10.69	73.64	40.84	-30.5	-32.4	12.7	2.44e-05	0	44	0	571473920	21	4462
2026-01-26 09:27:13.70	72.25	41.06	-30.8	-32.3	12.0	5.47e-04	0	44	0	576716800	23	4271
2026-01-26 09:27:16.70	70.85	41.27	-29.9	-30.9	13.6	1.52e-05	0	44	0	581959680	21	4033
2026-01-26 09:27:19.72	69.42	41.45	-30.0	-30.9	13.5	9.90e-06	0	44	0	588251136	21	4015
2026-01-26 09:27:22.75	67.97	41.62	-29.7	-30.8	14.0	6.80e-06	0	44	0	593494016	20	4085
2026-01-26 09:27:25.76	66.52	41.76	-29.6	-30.6	14.1	5.30e-06	0	44	0	599785472	20	4011
2026-01-26 09:27:28.76	65.05	41.89	-28.9	-29.0	15.4	0.00e+00	0	44	0	605028352	19	3660
2026-01-26 09:27:31.77	63.58	41.99	-29.6	-31.0	14.2	2.20e-06	0	44	0	610271232	19	4209
2026-01-26 09:27:34.77	62.10	42.07	-30.2	-32.3	13.0	1.06e-05	0	44	0	616562688	20	4550
2026-01-26 09:27:37.79	60.60	42.13	-30.1	-31.9	13.2	2.67e-05	0	44	0	621805568	20	4415
2026-01-26 09:27:40.80	59.10	42.17	-30.7	-33.1	12.2	2.06e-04	0	44	0	627048448	21	4756
2026-01-26 09:27:43.81	57.60	42.18	-30.5	-32.4	12.6	2.25e-04	0	44	0	633339904	21	4499
2026-01-26 09:27:46.82	56.10	42.18	-30.6	-32.8	12.2	1.64e-04	0	44	0	638582784	21	4643
2026-01-26 09:27:49.82	54.61	42.15	-31.6	-35.3	9.7	9.34e-03	0	44	0	644874240	23	5502
2026-01-26 09:27:52.84	53.11	42.10	-31.3	-34.0	10.8	3.30e-03	0	44	0	650117120	23	4894
2026-01-26 09:27:55.83	51.63	42.03	-31.9	-35.8	9.0	3.10e-02	0	44	0	655360000	24	5586
2026-01-26 09:27:58.84	50.15	41.93	-31.8	-35.5	9.1	1.34e-02	0	44	0	661651456	24	5508
2026-01-26 09:28:01.83	48.69	41.82	-32.3	-37.7	7.5	9.95e-02	0	44	0	666894336	24	6694
2026-01-26 09:28:04.83	47.24	41.69	-31.8	-35.6	9.2	4.06e-02	0	44	0	672137216	24	5574
2026-01-26 09:28:07.83	45.80	41.53	-31.5	-35.5	9.4	1.24e-02	0	44	0	678428672	23	5660
2026-01-26 09:28:10.84	44.37	41.36	-31.3	-34.5	10.2	4.56e-03	0	44	0	683671552	23	5210
2026-01-26 09:28:13.85	42.95	41.16	-30.4	-31.9	12.4	8.32e-04	0	44	0	689963008	22	4273
2026-01-26 09:28:16.87	41.55	40.95	-30.4	-32.2	12.6	6.86e-05	0	44	0	695205888	21	4444
2026-01-26 09:28:19.88	40.17	40.72	-29.9	-31.2	13.6	2.20e-06	0	44	0	700448768	20	4212
2026-01-26 09:28:22.89	38.81	40.47	-29.5	-30.3	14.1	6.10e-06	0	44	0	706740224	20	3952
2026-01-26 09:28:25.89	37.48	40.21	-28.9	-29.8	15.2	7.00e-07	0	44	0	711983104	18	3982
2026-01-26 09:28:28.89	36.17	39.93	-29.4	-30.9	14.6	1.50e-06	0	44	0	717225984	18	4299
2026-01-26 09:28:31.90	34.88	39.64	-29.1	-30.1	15.0	0.00e+00	0	44	0	723517440	18	4044
2026-01-26 09:28:34.91	33.62	39.33	-27.9	-27.8	16.6	0.00e+00	0	44	0	728760320	17	3539
2026-01-26 09:28:37.90	32.38	39.02	-29.3	-30.7	14.5	0.00e+00	0	44	0	735051776	18	4227
2026-01-26 09:28:40.90	31.17	38.69	-29.3	-30.1	14.5	0.00e+00	0	44	0	740294656	19	3967
2026-01-26 09:28:43.92	29.97	38.34	-29.6	-30.8	14.2	0.00e+00	0	44	0	745537536	19	4161
2026-01-26 09:28:46.92	28.81	37.99	-29.4	-29.8	14.5	3.80e-06	0	44	0	751828992	20	3796
2026-01-26 09:28:49.93	27.67	37.63	-28.9	-29.7	15.3	0.00e+00	0	44	0	757071872	18	3911
2026-01-26 09:28:52.95	26.55	37.26	-29.7	-31.1	14.1	0.00e+00	0	44	0	762314752	19	4224
2026-01-26 09:28:55.96	25.46	36.88	-30.5	-32.2	12.8	8.16e-05	0	44	0	768606208	21	4387
2026-01-26 09:28:58.97	24.39	36.49	-31.0	-33.2	11.7	5.52e-04	0	44	0	773849088	22	4648
2026-01-26 09:29:01.96	23.36	36.10	-30.7	-32.4	12.3	2.04e-04	0	44	0	780140544	22	4354
2026-01-26 09:29:04.97	22.35	35.71	-31.4	-34.3	10.9	2.25e-03	0	44	0	785383424	22	5074
2026-01-26 09:29:07.99	21.35	35.30	-31.7	-35.2	9.9	2.09e-03	0	44	0	790626304	23	5341
2026-01-26 09:29:11.00	20.39	34.89	-30.4	-31.6	12.7	1.95e-04	0	44	0	796917760	22	4121
2026-01-26 09:29:14.01	19.45	34.48	-29.5	-30.1	14.3	3.00e-06	0	44	0	802160640	20	3857
2026-01-26 09:29:17.03	18.53	34.07	-30.2	-32.0	13.2	2.20e-06	0	44	0	808452096	20	4416
2026-01-26 09:29:20.04	17.63	33.65	-30.9	-33.1	11.6	8.81e-04	0	43	0	813694976	22	4634
2026-01-26 09:29:23.06	16.76	33.23	-30.5	-32.3	12.5	6.79e-05	0	44	0	818937856	21	4443
2026-01-26 09:29:26.06	15.92	32.81	-31.7	-35.4	9.6	5.01e-03	0	44	0	825229312	23	5470
2026-01-26 09:29:29.06	15.09	32.39	-32.7	-38.9	6.1	3.18e-01	0	44	0	830472192	25	7328
2026-01-26 09:29:32.08	14.28	31.97	-31.0	-32.8	11.5	6.14e-04	0	44	0	835715072	23	4424
2026-01-26 09:29:35.08	13.50	31.55	-31.6	-34.9	9.9	3.80e-03	0	44	0	842006528	23	5275
2026-01-26 09:29:38.09	12.74	31.13	-31.1	-33.3	11.0	2.54e-03	0	44	0	847249408	23	4629
2026-01-26 09:29:41.10	12.00	30.71	-31.3	-33.8	10.6	1.04e-03	0	44	0	853540864	23	4817
2026-01-26 09:29:44.11	11.27	30.29	-31.3	-34.0	10.6	2.59e-03	0	44	0	858783744	23	4868
2026-01-26 09:29:47.13	10.56	29.86	-31.5	-34.4	10.2	4.72e-03	0	44	0	864026624	23	5048
2026-01-26 09:29:50.14	9.88	29.45	-31.3	-33.9	10.7	3.62e-03	0	44	0	870318080	23	4842
2026-01-26 09:29:53.14	9.21	29.03	-31.5	-34.6	10.0	5.98e-03	0	44	0	875560960	23	5122
2026-01-26 09:29:56.15	8.56	28.62	-31.3	-33.8	10.7	3.38e-03	0	44	0	880803840	23	4803
2026-01-26 09:29:59.15	7.92	28.21	-30.9	-32.5	11.5	8.44e-04	0	44	0	887095296	23	4349
2026-01-26 09:30:02.17	7.30	27.79	-30.9	-33.1	11.5	8.15e-04	0	44	0	892338176	22	4634
2026-01-26 09:30:05.18	6.70	27.39	-30.3	-31.5	12.6	1.79e-04	0	44	0	898629632	22	4102
2026-01-26 09:30:08.19	6.11	26.98	-30.5	-31.8	12.4	1.46e-04	0	44	0	903872512	22	4211
2026-01-26 09:30:11.19	5.54	26.58	-30.4	-32.1	12.4	1.12e-04	0	44	0	909115392	21	4390
2026-01-26 09:30:14.20	4.98	26.18	-30.1	-31.4	12.9	4.50e-05	0	44	0	915406848	21	4169
2026-01-26 09:30:17.20	4.44	25.78	-29.8	-30.9	13.6	8.30e-06	0	44	0	920649728	20	4101
2026-01-26 09:30:20.21	3.91	25.39	-30.2	-32.2	12.8	3.20e-05	0	44	0	925892608	20	4495
2026-01-26 09:30:23.20	3.40	25.00	-30.0	-31.7	13.0	4.42e-05	0	44	0	932184064	20	4353
2026-01-26 09:30:26.21	2.89	24.62	-29.3	-30.1	14.3	2.20e-06	0	44	0	937426944	19	3949
2026-01-26 09:30:29.21	2.40	24.23	-29.2	-29.9	14.6	7.00e-07	0	44	0	943718400	19	3891
2026-01-26 09:30:32.21	1.93	23.85	-30.3	-32.3	12.7	3.05e-05	0	44	0	948961280	20	4557
2026-01-26 09:30:35.22	1.46	23.48	-30.6	-32.7	11.9	3.76e-04	0	44	0	954204160	21	4615
2026-01-26 09:30:38.23	1.00	23.10	-30.7	-33.0	11.7	5.10e-04	0	44	0	960495616	21	4701
2026-01-26 09:30:41.25	0.55	22.73	-31.1	-33.7	10.9	2.00e-03	0	44	0	965738496	22	4887
2026-01-26 09:30:44.26	0.12	22.36	-30.7	-32.8	11.5	1.06e-03	0	44	0	970981376	22	4537
2026-01-26 09:30:47.27	359.69	22.00	-29.9	-30.9	13.1	5.18e-05	0	44	0	977272832	21	4017
2026-01-26 09:30:50.27	359.28	21.64	-29.5	-30.4	13.7	3.00e-06	0	44	0	982515712	20	3968
2026-01-26 09:30:53.27	358.88	21.29	-29.5	-30.2	13.9	3.00e-06	0	44	0	988807168	20	3906
2026-01-26 09:30:56.28	358.48	20.93	-29.6	-30.6	13.7	6.10e-06	0	44	0	994050048	20	4018
2026-01-26 09:30:59.29	358.09	20.58	-30.0	-31.8	12.8	3.05e-05	0	44	0	999292928	20	4407
2026-01-26 09:31:02.29	357.72	20.24	-30.1	-32.1	12.6	8.08e-05	0	44	0	1005584384	20	4499
2026-01-26 09:31:05.30	357.35	19.90	-30.1	-32.1	12.5	8.69e-05	0	44	0	1010827264	20	4494
2026-01-26 09:31:08.30	356.99	19.56	-29.9	-31.4	13.0	3.58e-05	0	44	0	1016070144	20	4285
2026-01-26 09:31:11.30	356.64	19.22	-30.1	-32.1	12.5	1.11e-04	0	44	0	1022361600	20	4502
2026-01-26 09:31:14.30	356.29	18.89	-30.5	-32.7	11.7	5.44e-04	0	44	0	1027604480	21	4649
2026-01-26 09:31:17.31	355.96	18.56	-30.6	-33.1	11.4	8.96e-04	0	44	0	1033895936	21	4799
2026-01-26 09:31:20.31	355.63	18.24	-30.5	-32.7	11.7	5.97e-04	0	44	0	1039138816	21	4644
2026-01-26 09:31:23.32	355.31	17.91	-30.4	-32.5	11.8	6.56e-04	0	44	0	1044381696	21	4571
2026-01-26 09:31:26.33	354.99	17.60	-30.4	-32.5	11.8	5.68e-04	0	44	0	1050673152	21	4559
2026-01-26 09:31:29.35	354.68	17.28	-30.2	-31.9	12.2	2.23e-04	0	44	0	1055916032	21	4372
2026-01-26 09:31:32.36	354.38	16.97	-30.3	-32.1	12.1	2.54e-04	0	44	0	1061158912	21	4450
2026-01-26 09:31:35.36	354.08	16.66	-30.2	-31.9	12.2	1.72e-04	0	44	0	1067450368	21	4368
2026-01-26 09:31:38.36	353.80	16.35	-30.3	-32.2	12.0	5.81e-04	0	44	0	1072693248	21	4462
2026-01-26 09:31:41.34	353.52	16.05	-30.2	-32.0	12.1	3.87e-04	0	44	0	1078984704	21	4423
2026-01-26 09:31:44.35	353.24	15.75	-30.0	-31.2	12.6	1.31e-04	0	44	0	1084227584	21	4154
2026-01-26 09:31:47.36	352.97	15.45	-30.1	-31.6	12.3	2.38e-04	0	44	0	1089470464	21	4270
2026-01-26 09:31:50.38	352.70	15.16	-30.3	-32.2	11.9	2.79e-04	0	44	0	1095761920	21	4465
2026-01-26 09:31:53.37	352.44	14.87	-30.6	-33.0	11.3	8.62e-04	0	44	0	1101004800	21	4773
2026-01-26 09:31:56.38	352.18	14.58	-30.7	-33.6	10.9	2.57e-03	0	44	0	1106247680	21	4996
2026-01-26 09:31:59.39	351.93	14.29	-30.8	-33.9	10.6	3.12e-03	0	44	0	1112539136	21	5123
2026-01-26 09:32:02.39	351.69	14.01	-30.7	-33.4	11.0	2.65e-03	0	44	0	1117782016	21	4912
2026-01-26 09:32:05.42	351.45	13.73	-30.4	-32.5	11.6	8.25e-04	0	44	0	1124073472	21	4596
2026-01-26 09:32:08.42	351.21	13.45	-30.2	-31.9	12.0	4.12e-04	0	44	0	1129316352	21	4402
2026-01-26 09:32:11.43	350.98	13.17	-30.2	-32.0	11.9	3.33e-04	0	44	0	1134559232	21	4410
2026-01-26 09:32:14.43	350.75	12.90	-30.4	-32.4	11.6	7.09e-04	0	44	0	1140850688	21	4573
2026-01-26 09:32:17.44	350.53	12.63	-30.1	-31.8	12.0	2.55e-04	0	44	0	1146093568	21	4368
2026-01-26 09:32:20.44	350.31	12.37	-30.3	-32.2	11.7	5.91e-04	0	44	0	1151336448	21	4509
2026-01-26 09:32:23.45	350.10	12.10	-30.5	-32.8	11.2	8.26e-04	0	44	0	1157627904	21	4734
2026-01-26 09:32:26.46	349.89	11.84	-30.5	-33.1	11.0	1.46e-03	0	44	0	1162870784	21	4858
2026-01-26 09:32:29.46	349.68	11.58	-30.5	-33.0	11.0	2.09e-03	0	44	0	1169162240	21	4804
2026-01-26 09:32:32.47	349.48	11.32	-30.7	-33.7	10.5	4.69e-03	0	44	0	1174405120	21	5104
2026-01-26 09:32:35.48	349.28	11.06	-30.8	-34.0	10.3	3.92e-03	0	44	0	1179648000	21	5198
2026-01-26 09:32:38.49	349.09	10.81	-30.9	-34.3	10.1	4.71e-03	0	44	0	1185939456	21	5335
2026-01-26 09:32:41.50	348.89	10.56	-30.7	-33.6	10.5	4.89e-03	0	44	0	1191182336	21	5065
2026-01-26 09:32:44.52	348.70	10.31	-30.5	-33.2	10.8	3.40e-03	0	44	0	1197473792	21	4898
2026-01-26 09:32:47.52	348.52	10.07	-30.7	-33.9	10.2	4.61e-03	0	44	0	1202716672	21	5183
2026-01-26 09:32:50.53	348.34	9.82	-30.8	-34.1	10.0	5.22e-03	0	44	0	1207959552	21	5271
2026-01-26 09:32:53.55	348.16	9.58	-30.8	-34.1	9.9	8.25e-03	0	44	0	1214251008	21	5299
2026-01-26 09:32:56.56	347.98	9.34	-30.7	-34.0	10.1	6.28e-03	0	44	0	1219493888	21	5222
2026-01-26 09:32:59.58	347.81	9.10	-30.7	-34.0	10.0	7.30e-03	0	44	0	1224736768	21	5250
2026-01-26 09:33:02.59	347.64	8.86	-30.7	-33.9	10.1	6.03e-03	0	44	0	1231028224	21	5200
2026-01-26 09:33:05.60	347.48	8.63	-30.5	-33.2	10.6	2.99e-03	0	44	0	1236271104	21	4912
2026-01-26 09:33:08.61	347.31	8.40	-30.5	-33.3	10.5	4.84e-03	0	44	0	1242562560	21	4982
2026-01-26 09:33:11.62	347.15	8.16	-30.7	-34.1	9.8	6.19e-03	0	44	0	1247805440	21	5290
2026-01-26 09:33:14.63	346.99	7.94	-30.5	-33.3	10.4	6.90e-03	0	44	0	1253048320	21	4962
2026-01-26 09:33:17.63	346.84	7.71	-30.8	-34.2	9.7	7.31e-03	0	44	0	1259339776	21	5379
2026-01-26 09:33:20.63	346.69	7.49	-30.7	-34.1	9.8	9.32e-03	0	44	0	1264582656	21	5331
2026-01-26 09:33:23.64	346.54	7.26	-30.9	-34.7	9.3	1.94e-02	0	44	0	1269825536	21	5626
2026-01-26 09:33:26.66	346.39	7.04	-32.7	-44.5	3.7	5.21e-01	0	44	104	1276116992	25	13987

#Closed at: 2026-01-26 09:33:29
#Recorded file [1276 MB]: D:/data/31010_260126_122205.dat