passes_logs/2026/01/26/R2M6_AANII_01/R2M6_AANII_01__20260126_134007_FENGYUN_3D_rec.log

#Pass ID: 20260126_134007_FENGYUN 3D
#Satellite: FENGYUN 3D
#Configuration: FENGYUN 3D
#almurnet v.1.7.20240730
#Start time: 2026-01-26 13:40:07

#Version: 2.2.20231116
#Station: R2M6_AANII_01
#Location: 30.233357 lon 59.946436 lat
#TLE: 1 43010U 17072A   26025.99795741 -.00000136  00000+0 -42313-4 0  9999
#TLE: 2 43010  98.9962 357.9855 0002515  89.6991 270.4472 14.19699257424818

#Time	Az	El	Level	Level2	SNR	BER	BlckErr	Temp	State	Recorded	gain1	gain2
2026-01-26 13:40:07.56	201.36	6.97	-27.7	-29.5	5.8	7.65e-01	0	41	0	0	16	4419
2026-01-26 13:40:10.55	201.59	7.18	-28.9	-31.4	11.1	6.98e-04	0	41	0	5242880	18	4795
2026-01-26 13:40:13.57	201.83	7.38	-28.1	-30.0	12.4	1.22e-04	0	41	0	22020096	17	4444
2026-01-26 13:40:16.59	202.07	7.59	-27.4	-28.6	13.6	9.10e-06	0	42	0	38797312	16	4132
2026-01-26 13:40:19.60	202.31	7.80	-27.2	-28.8	13.6	6.80e-06	0	42	0	55574528	15	4324
2026-01-26 13:40:22.61	202.56	8.01	-26.7	-28.0	14.4	0.00e+00	0	42	0	73400320	14	4207
2026-01-26 13:40:25.62	202.81	8.23	-26.5	-27.7	14.6	0.00e+00	0	42	0	90177536	14	4123
2026-01-26 13:40:28.63	203.06	8.44	-26.6	-27.9	14.5	0.00e+00	0	42	0	106954752	14	4158
2026-01-26 13:40:31.63	203.32	8.66	-26.6	-27.7	14.6	0.00e+00	0	42	0	123731968	14	4130
2026-01-26 13:40:34.64	203.58	8.87	-26.5	-27.6	14.7	0.00e+00	0	42	0	140509184	14	4075
2026-01-26 13:40:37.65	203.84	9.09	-26.5	-27.6	14.8	0.00e+00	0	42	0	157286400	14	4074
2026-01-26 13:40:40.65	204.11	9.31	-26.6	-27.9	14.6	0.00e+00	0	42	0	174063616	14	4157
2026-01-26 13:40:43.66	204.38	9.53	-26.3	-27.2	15.0	0.00e+00	0	43	0	190840832	14	3984
2026-01-26 13:40:46.68	204.66	9.75	-26.3	-27.5	15.1	1.10e-06	0	43	0	208666624	13	4167
2026-01-26 13:40:49.69	204.94	9.98	-26.1	-27.1	15.3	0.00e+00	0	42	0	225443840	13	4062
2026-01-26 13:40:52.70	205.23	10.20	-26.1	-27.2	15.3	0.00e+00	0	43	0	242221056	13	4077
2026-01-26 13:40:55.70	205.52	10.43	-25.9	-26.7	15.6	0.00e+00	0	43	0	258998272	13	3949
2026-01-26 13:40:58.71	205.81	10.66	-26.1	-27.2	15.4	0.00e+00	0	43	0	275775488	13	4065
2026-01-26 13:41:01.72	206.11	10.89	-25.8	-27.1	15.7	0.00e+00	0	43	0	293601280	12	4143
2026-01-26 13:41:04.75	206.41	11.12	-25.7	-26.8	15.9	0.00e+00	0	43	0	310378496	12	4073
2026-01-26 13:41:07.76	206.72	11.35	-25.7	-26.8	15.9	0.00e+00	0	43	0	327155712	12	4080
2026-01-26 13:41:10.77	207.03	11.58	-25.6	-26.5	16.0	0.00e+00	0	43	0	343932928	12	4013
2026-01-26 13:41:13.77	207.35	11.82	-25.6	-26.5	16.1	0.00e+00	0	43	0	360710144	12	3999
2026-01-26 13:41:16.78	207.67	12.06	-25.6	-26.6	16.0	0.00e+00	0	43	0	377487360	12	4033
2026-01-26 13:41:19.79	207.99	12.29	-25.5	-26.2	16.3	0.00e+00	0	43	0	394264576	12	3934
2026-01-26 13:41:22.78	208.32	12.53	-25.5	-26.4	16.2	0.00e+00	0	43	0	411041792	12	3972
2026-01-26 13:41:25.79	208.66	12.77	-25.4	-26.2	16.3	0.00e+00	0	43	0	428867584	12	3927
2026-01-26 13:41:28.79	209.00	13.02	-25.5	-26.3	16.3	0.00e+00	0	43	0	445644800	12	3949
2026-01-26 13:41:31.79	209.35	13.26	-25.3	-26.5	16.5	0.00e+00	0	43	0	462422016	11	4097
2026-01-26 13:41:34.81	209.70	13.51	-25.4	-26.7	16.4	0.00e+00	0	43	0	479199232	11	4142
2026-01-26 13:41:37.82	210.06	13.76	-25.4	-26.6	16.5	0.00e+00	0	43	0	495976448	11	4117
2026-01-26 13:41:40.84	210.43	14.01	-25.3	-26.4	16.6	0.00e+00	0	43	0	512753664	11	4075
2026-01-26 13:41:43.86	210.80	14.26	-25.1	-26.0	16.8	0.00e+00	0	43	0	530579456	11	3982
2026-01-26 13:41:46.87	211.18	14.51	-25.1	-26.0	16.8	0.00e+00	0	43	0	547356672	11	3969
2026-01-26 13:41:49.87	211.56	14.76	-25.1	-26.0	16.9	0.00e+00	0	43	0	564133888	11	3980
2026-01-26 13:41:52.89	211.95	15.02	-24.9	-25.6	17.1	0.00e+00	0	43	0	580911104	11	3877
2026-01-26 13:41:55.89	212.35	15.27	-24.9	-26.0	17.1	0.00e+00	0	43	0	597688320	10	4094
2026-01-26 13:41:58.91	212.75	15.53	-24.8	-25.7	17.3	0.00e+00	0	43	0	614465536	10	4016
2026-01-26 13:42:01.91	213.16	15.79	-24.8	-25.8	17.3	0.00e+00	0	43	0	631242752	10	4022
2026-01-26 13:42:04.91	213.58	16.05	-24.8	-25.7	17.4	0.00e+00	0	43	0	649068544	10	3998
2026-01-26 13:42:07.91	214.00	16.31	-24.7	-25.6	17.4	0.00e+00	0	43	0	665845760	10	3977
2026-01-26 13:42:10.91	214.43	16.57	-24.8	-25.8	17.3	0.00e+00	0	43	0	682622976	10	4021
2026-01-26 13:42:13.92	214.87	16.84	-24.8	-25.7	17.4	0.00e+00	0	43	0	699400192	10	4015
2026-01-26 13:42:16.93	215.31	17.11	-25.1	-26.3	17.1	0.00e+00	0	43	0	716177408	10	4164
2026-01-26 13:42:19.93	215.77	17.37	-24.5	-25.2	17.7	0.00e+00	0	43	0	732954624	10	3893
2026-01-26 13:42:22.95	216.23	17.64	-24.6	-25.3	17.6	0.00e+00	0	43	0	749731840	10	3902
2026-01-26 13:42:25.96	216.70	17.91	-24.6	-25.3	17.6	0.00e+00	0	44	0	766509056	10	3906
2026-01-26 13:42:28.99	217.18	18.18	-24.5	-25.2	17.7	0.00e+00	0	44	0	784334848	10	3878
2026-01-26 13:42:32.00	217.67	18.46	-24.2	-25.0	18.1	0.00e+00	0	43	0	801112064	9	3947
2026-01-26 13:42:35.00	218.16	18.73	-24.1	-24.8	18.2	0.00e+00	0	44	0	817889280	9	3890
2026-01-26 13:42:38.00	218.66	19.00	-24.4	-25.4	17.9	0.00e+00	0	44	0	834666496	9	4029
2026-01-26 13:42:41.01	219.17	19.28	-24.2	-25.1	18.0	3.40e-06	0	44	0	851443712	9	3959
2026-01-26 13:42:44.02	219.70	19.55	-24.2	-25.1	18.1	4.50e-06	0	44	0	868220928	9	3963
2026-01-26 13:42:47.02	220.22	19.83	-24.0	-24.6	18.3	0.00e+00	0	44	0	884998144	9	3848
2026-01-26 13:42:50.03	220.76	20.10	-24.1	-24.8	18.2	0.00e+00	0	44	0	902823936	9	3898
2026-01-26 13:42:53.03	221.31	20.38	-24.4	-25.3	18.0	4.50e-06	0	44	0	919601152	9	4018
2026-01-26 13:42:56.04	221.87	20.66	-23.9	-24.4	18.5	4.50e-06	0	44	0	936378368	9	3809
2026-01-26 13:42:59.05	222.44	20.94	-23.9	-24.2	18.6	6.80e-06	0	44	0	953155584	9	3765
2026-01-26 13:43:02.06	223.02	21.21	-23.9	-24.8	18.5	3.40e-06	0	44	0	969932800	8	3995
2026-01-26 13:43:05.06	223.61	21.49	-23.7	-24.4	18.8	4.50e-06	0	44	0	986710016	8	3896
2026-01-26 13:43:08.07	224.21	21.77	-23.8	-24.7	18.6	5.70e-06	0	43	0	1003487232	8	3978
2026-01-26 13:43:11.08	224.82	22.05	-23.9	-24.8	18.6	0.00e+00	0	44	0	1020264448	8	3992
2026-01-26 13:43:14.09	225.44	22.33	-24.1	-25.3	18.3	0.00e+00	0	44	0	1038090240	8	4133
2026-01-26 13:43:17.09	226.07	22.60	-23.7	-24.4	18.8	4.50e-06	0	44	0	1054867456	8	3912
2026-01-26 13:43:20.10	226.72	22.88	-23.7	-24.4	18.8	0.00e+00	0	43	0	1071644672	8	3918
2026-01-26 13:43:23.11	227.37	23.16	-23.4	-23.8	19.1	0.00e+00	0	44	0	1088421888	8	3772
2026-01-26 13:43:26.12	228.04	23.43	-23.3	-24.0	19.2	0.00e+00	0	44	0	1105199104	7	3916
2026-01-26 13:43:29.12	228.71	23.70	-23.2	-24.0	19.3	0.00e+00	0	44	0	1121976320	7	3909
2026-01-26 13:43:32.13	229.40	23.98	-23.2	-23.8	19.4	0.00e+00	0	44	0	1138753536	7	3873
2026-01-26 13:43:35.15	230.10	24.25	-23.5	-24.5	19.0	0.00e+00	0	44	0	1155530752	7	4027
2026-01-26 13:43:38.16	230.82	24.52	-23.1	-23.7	19.4	0.00e+00	0	44	0	1173356544	7	3840
2026-01-26 13:43:41.16	231.54	24.79	-23.0	-23.4	19.6	0.00e+00	0	44	0	1190133760	7	3780
2026-01-26 13:43:44.17	232.28	25.05	-23.3	-24.0	19.3	0.00e+00	0	44	0	1206910976	7	3918
2026-01-26 13:43:47.17	233.02	25.31	-23.2	-24.0	19.3	0.00e+00	0	44	0	1223688192	7	3909
2026-01-26 13:43:50.18	233.78	25.58	-22.9	-23.2	19.7	0.00e+00	0	44	0	1240465408	7	3723
2026-01-26 13:43:53.19	234.56	25.83	-22.8	-23.6	19.7	0.00e+00	0	44	0	1257242624	6	3929
2026-01-26 13:43:56.20	235.34	26.09	-22.8	-23.5	19.8	0.00e+00	0	44	0	1274019840	6	3903
2026-01-26 13:43:59.22	236.15	26.34	-22.8	-23.4	19.8	0.00e+00	0	44	0	1291845632	6	3890
2026-01-26 13:44:02.23	236.96	26.59	-22.9	-23.8	19.7	0.00e+00	0	44	0	1308622848	6	3970
2026-01-26 13:44:05.25	237.78	26.83	-22.7	-23.3	19.9	0.00e+00	0	44	0	1325400064	6	3847
2026-01-26 13:44:08.25	238.61	27.07	-22.5	-22.9	20.2	0.00e+00	0	44	0	1342177280	6	3762
2026-01-26 13:44:11.27	239.47	27.31	-22.6	-23.1	20.0	0.00e+00	0	44	0	1358954496	6	3803
2026-01-26 13:44:14.28	240.33	27.54	-22.8	-23.5	19.9	0.00e+00	0	44	0	1375731712	6	3907
2026-01-26 13:44:17.28	241.19	27.77	-22.4	-22.6	20.3	0.00e+00	0	44	0	1393557504	6	3702
2026-01-26 13:44:20.28	242.08	27.99	-22.5	-23.0	20.1	0.00e+00	0	44	0	1410334720	6	3777
2026-01-26 13:44:23.30	242.97	28.20	-22.9	-23.6	19.8	0.00e+00	0	44	0	1427111936	6	3936
2026-01-26 13:44:26.32	243.89	28.41	-22.6	-23.1	20.1	0.00e+00	0	44	0	1443889152	6	3808
2026-01-26 13:44:29.33	244.80	28.61	-22.6	-23.0	20.1	0.00e+00	0	44	0	1460666368	6	3799
2026-01-26 13:44:32.34	245.74	28.81	-22.7	-23.3	20.0	0.00e+00	0	44	0	1477443584	6	3845
2026-01-26 13:44:35.34	246.67	29.00	-22.7	-23.3	20.0	0.00e+00	0	44	0	1494220800	6	3867
2026-01-26 13:44:38.36	247.63	29.18	-22.8	-23.4	20.0	0.00e+00	0	44	0	1512046592	6	3877
2026-01-26 13:44:41.37	248.59	29.36	-22.6	-23.1	20.1	0.00e+00	0	44	0	1528823808	6	3818
2026-01-26 13:44:44.38	249.56	29.52	-22.3	-22.5	20.4	0.00e+00	0	44	0	1545601024	6	3669
2026-01-26 13:44:47.38	250.54	29.68	-22.4	-23.2	20.3	0.00e+00	0	44	0	1562378240	5	3944
2026-01-26 13:44:50.39	251.53	29.83	-22.6	-23.7	20.0	0.00e+00	0	44	0	1579155456	5	4055
2026-01-26 13:44:53.39	252.53	29.98	-22.6	-23.5	20.1	0.00e+00	0	44	0	1595932672	5	4017
2026-01-26 13:44:56.40	253.54	30.11	-22.5	-23.3	20.2	0.00e+00	0	44	0	1612709888	5	3970
2026-01-26 13:44:59.41	254.56	30.23	-22.5	-23.3	20.2	0.00e+00	0	44	0	1630535680	5	3966
2026-01-26 13:45:02.42	255.58	30.35	-22.4	-23.1	20.3	0.00e+00	0	44	0	1647312896	5	3922
2026-01-26 13:45:05.43	256.61	30.46	-22.6	-23.7	20.1	1.10e-06	0	44	0	1664090112	5	4052
2026-01-26 13:45:08.42	257.64	30.55	-22.7	-23.9	19.9	0.00e+00	0	44	0	1680867328	5	4109
2026-01-26 13:45:11.43	258.68	30.64	-22.6	-23.6	20.1	0.00e+00	0	44	0	1697644544	5	4045
2026-01-26 13:45:14.45	259.74	30.71	-23.0	-24.0	19.7	0.00e+00	0	44	0	1714421760	6	4017
2026-01-26 13:45:17.46	260.79	30.78	-22.7	-23.3	20.0	0.00e+00	0	44	0	1731198976	6	3854
2026-01-26 13:45:20.47	261.84	30.84	-22.7	-23.2	20.0	0.00e+00	0	44	0	1749024768	6	3843
2026-01-26 13:45:23.48	262.90	30.88	-22.6	-23.0	20.1	0.00e+00	0	44	0	1765801984	6	3797
2026-01-26 13:45:26.48	263.96	30.92	-22.4	-22.8	20.3	0.00e+00	0	44	0	1782579200	6	3735
2026-01-26 13:45:29.49	265.03	30.94	-22.6	-23.1	20.1	0.00e+00	0	44	0	1799356416	6	3814
2026-01-26 13:45:32.51	266.09	30.95	-22.6	-23.0	20.1	0.00e+00	0	44	0	1816133632	6	3800
2026-01-26 13:45:35.51	267.16	30.96	-22.5	-22.9	20.2	0.00e+00	0	44	0	1832910848	6	3763
2026-01-26 13:45:38.51	268.22	30.95	-22.5	-22.9	20.2	0.00e+00	0	44	0	1849688064	6	3777
2026-01-26 13:45:41.52	269.28	30.93	-22.6	-23.1	20.1	0.00e+00	0	44	0	1867513856	6	3812
2026-01-26 13:45:44.52	270.34	30.90	-22.6	-23.2	20.1	0.00e+00	0	44	0	1884291072	6	3821
2026-01-26 13:45:47.53	271.40	30.86	-22.7	-23.2	20.0	0.00e+00	0	44	0	1901068288	6	3841
2026-01-26 13:45:50.54	272.46	30.81	-22.7	-23.3	20.0	0.00e+00	0	44	0	1917845504	6	3860
2026-01-26 13:45:53.55	273.51	30.75	-23.1	-24.1	19.6	0.00e+00	0	44	0	1934622720	6	4061
2026-01-26 13:45:56.56	274.56	30.68	-22.8	-23.5	19.9	0.00e+00	0	44	0	1951399936	6	3909
2026-01-26 13:45:59.55	275.60	30.60	-22.9	-23.8	19.8	0.00e+00	0	44	0	1968177152	6	3967
2026-01-26 13:46:02.55	276.63	30.51	-22.7	-23.4	20.0	0.00e+00	0	44	0	1984954368	6	3869
2026-01-26 13:46:05.57	277.67	30.41	-23.0	-23.9	19.7	0.00e+00	0	44	0	2002780160	6	3996
2026-01-26 13:46:08.58	278.70	30.30	-22.8	-23.5	19.9	0.00e+00	0	44	0	2019557376	6	3911
2026-01-26 13:46:11.57	279.71	30.18	-22.9	-23.6	19.8	0.00e+00	0	44	0	2036334592	6	3934
2026-01-26 13:46:14.57	280.72	30.05	-22.8	-23.4	19.9	0.00e+00	0	44	0	2053111808	6	3889
2026-01-26 13:46:17.57	281.72	29.91	-22.6	-23.0	20.1	0.00e+00	0	44	0	2069889024	6	3786
2026-01-26 13:46:20.58	282.71	29.77	-22.4	-22.8	20.2	0.00e+00	0	44	0	2086666240	6	3737
2026-01-26 13:46:23.59	283.70	29.61	-22.7	-23.3	19.9	0.00e+00	0	44	0	2103443456	6	3866
2026-01-26 13:46:26.58	284.66	29.45	-22.8	-23.5	19.9	0.00e+00	0	44	0	2120220672	6	3901
2026-01-26 13:46:29.59	285.63	29.28	-22.9	-23.7	19.7	0.00e+00	0	44	0	2136997888	6	3962
2026-01-26 13:46:32.60	286.59	29.10	-22.9	-23.7	19.8	0.00e+00	0	44	0	2153775104	6	3958
2026-01-26 13:46:35.61	287.53	28.92	-22.8	-23.5	19.9	0.00e+00	0	44	0	2171600896	6	3894
2026-01-26 13:46:38.63	288.47	28.73	-22.7	-23.3	19.9	0.00e+00	0	44	0	2188378112	6	3865
2026-01-26 13:46:41.64	289.39	28.53	-23.0	-23.9	19.6	0.00e+00	0	44	0	2205155328	6	4013
2026-01-26 13:46:44.65	290.30	28.32	-22.8	-23.5	19.8	0.00e+00	0	44	0	2221932544	6	3911
2026-01-26 13:46:47.66	291.20	28.11	-22.9	-23.6	19.8	0.00e+00	0	44	0	2238709760	6	3929
2026-01-26 13:46:50.66	292.09	27.90	-22.9	-23.7	19.8	0.00e+00	0	44	0	2255486976	6	3945
2026-01-26 13:46:53.68	292.96	27.68	-22.9	-23.7	19.7	0.00e+00	0	44	0	2273312768	6	3956
2026-01-26 13:46:56.69	293.83	27.45	-22.9	-23.7	19.7	0.00e+00	0	44	0	2290089984	6	3957
2026-01-26 13:46:59.71	294.68	27.22	-22.8	-23.6	19.8	0.00e+00	0	44	0	2306867200	6	3921
2026-01-26 13:47:02.71	295.52	26.98	-23.1	-24.2	19.5	0.00e+00	0	44	0	2323644416	6	4077
2026-01-26 13:47:05.71	296.34	26.74	-23.0	-23.9	19.6	0.00e+00	0	44	0	2340421632	6	3991
2026-01-26 13:47:08.72	297.16	26.50	-22.8	-23.6	19.8	0.00e+00	0	44	0	2357198848	6	3922
2026-01-26 13:47:11.73	297.96	26.25	-23.2	-24.3	19.4	0.00e+00	0	44	0	2373976064	6	4101
2026-01-26 13:47:14.74	298.75	26.00	-23.1	-24.2	19.5	0.00e+00	0	44	0	2390753280	6	4067
2026-01-26 13:47:17.75	299.53	25.74	-23.2	-24.3	19.4	0.00e+00	0	44	0	2408579072	6	4108
2026-01-26 13:47:20.75	300.29	25.48	-23.1	-24.2	19.5	0.00e+00	0	44	0	2425356288	6	4069
2026-01-26 13:47:23.76	301.05	25.22	-23.3	-24.6	19.3	0.00e+00	0	44	0	2442133504	6	4160
2026-01-26 13:47:26.77	301.79	24.96	-23.4	-24.9	19.1	0.00e+00	0	44	0	2458910720	6	4237
2026-01-26 13:47:29.78	302.52	24.70	-23.4	-24.7	19.2	0.00e+00	0	44	0	2475687936	6	4201
2026-01-26 13:47:32.80	303.24	24.43	-23.3	-24.5	19.3	1.10e-06	0	44	0	2492465152	6	4148
2026-01-26 13:47:35.81	303.94	24.16	-23.3	-24.6	19.2	0.00e+00	0	44	0	2510290944	6	4165
2026-01-26 13:47:38.82	304.63	23.89	-23.3	-24.6	19.2	0.00e+00	0	44	0	2527068160	6	4158
2026-01-26 13:47:41.83	305.32	23.62	-23.4	-24.7	19.2	0.00e+00	0	44	0	2543845376	6	4182
2026-01-26 13:47:44.84	305.99	23.35	-23.7	-24.9	18.8	0.00e+00	0	44	0	2560622592	7	4130
2026-01-26 13:47:47.85	306.65	23.07	-23.8	-25.1	18.7	0.00e+00	0	44	0	2577399808	7	4177
2026-01-26 13:47:50.85	307.29	22.80	-23.8	-25.1	18.7	0.00e+00	0	44	0	2594177024	7	4175
2026-01-26 13:47:53.86	307.93	22.52	-23.7	-24.9	18.8	0.00e+00	0	44	0	2610954240	7	4123
2026-01-26 13:47:56.86	308.55	22.25	-23.9	-25.3	18.6	0.00e+00	0	44	0	2628780032	7	4225
2026-01-26 13:47:59.88	309.17	21.97	-24.0	-25.0	18.5	0.00e+00	0	44	0	2645557248	8	4043
2026-01-26 13:48:02.89	309.77	21.69	-24.4	-25.9	18.0	0.00e+00	0	44	0	2662334464	8	4286
2026-01-26 13:48:05.89	310.36	21.42	-23.8	-24.6	18.6	0.00e+00	0	44	0	2679111680	8	3953
2026-01-26 13:48:08.90	310.95	21.14	-24.0	-25.0	18.5	0.00e+00	0	44	0	2695888896	8	4048
2026-01-26 13:48:11.91	311.52	20.87	-24.2	-25.5	18.2	0.00e+00	0	44	0	2712666112	8	4168
2026-01-26 13:48:14.92	312.08	20.59	-24.4	-25.9	18.0	0.00e+00	0	44	0	2729443328	8	4282
2026-01-26 13:48:17.92	312.64	20.32	-24.4	-25.4	18.0	0.00e+00	0	44	0	2747269120	9	4033
2026-01-26 13:48:20.93	313.18	20.04	-24.5	-25.6	17.9	0.00e+00	0	44	0	2764046336	9	4075
2026-01-26 13:48:23.94	313.72	19.77	-24.4	-25.4	18.0	0.00e+00	0	44	0	2780823552	9	4035
2026-01-26 13:48:26.95	314.24	19.49	-24.7	-26.0	17.7	0.00e+00	0	44	0	2797600768	9	4174
2026-01-26 13:48:29.95	314.76	19.22	-24.9	-26.4	17.4	0.00e+00	0	44	0	2814377984	9	4301
2026-01-26 13:48:32.96	315.26	18.95	-24.8	-26.3	17.5	0.00e+00	0	44	0	2831155200	9	4259
2026-01-26 13:48:35.97	315.76	18.68	-24.7	-26.0	17.7	1.10e-06	0	44	0	2847932416	9	4177
2026-01-26 13:48:38.99	316.25	18.41	-24.6	-25.8	17.7	0.00e+00	0	44	0	2864709632	9	4135
2026-01-26 13:48:42.00	316.74	18.14	-24.8	-26.3	17.4	0.00e+00	0	44	0	2882535424	9	4275
2026-01-26 13:48:45.02	317.21	17.87	-24.7	-26.0	17.6	0.00e+00	0	44	0	2899312640	9	4191
2026-01-26 13:48:48.02	317.67	17.60	-24.7	-25.9	17.6	0.00e+00	0	44	0	2916089856	9	4171
2026-01-26 13:48:51.03	318.13	17.34	-24.9	-26.4	17.4	0.00e+00	0	44	0	2932867072	9	4294
2026-01-26 13:48:54.05	318.58	17.07	-24.9	-26.1	17.3	1.10e-06	0	44	0	2949644288	10	4095
2026-01-26 13:48:57.06	319.03	16.81	-25.2	-26.6	17.0	0.00e+00	0	44	0	2967470080	10	4245
2026-01-26 13:49:00.06	319.46	16.55	-25.2	-26.7	16.9	0.00e+00	0	44	0	2984247296	10	4259
2026-01-26 13:49:03.07	319.89	16.28	-25.6	-26.9	16.5	0.00e+00	0	44	0	3001024512	11	4205
2026-01-26 13:49:06.08	320.31	16.03	-25.9	-27.7	16.1	0.00e+00	0	44	0	3017801728	11	4407
2026-01-26 13:49:09.09	320.72	15.77	-25.9	-27.8	16.1	0.00e+00	0	44	0	3034578944	11	4433
2026-01-26 13:49:12.09	321.13	15.51	-25.7	-27.1	16.4	0.00e+00	0	44	0	3051356160	11	4258
2026-01-26 13:49:15.10	321.53	15.26	-25.5	-26.7	16.6	0.00e+00	0	44	0	3068133376	11	4157
2026-01-26 13:49:18.10	321.92	15.00	-25.4	-26.6	16.7	0.00e+00	0	44	0	3084910592	11	4118
2026-01-26 13:49:21.12	322.31	14.75	-25.4	-26.5	16.7	0.00e+00	0	44	0	3102736384	11	4095
2026-01-26 13:49:24.14	322.69	14.50	-25.6	-27.1	16.4	0.00e+00	0	44	0	3119513600	11	4241
2026-01-26 13:49:27.14	323.06	14.25	-25.6	-27.0	16.4	0.00e+00	0	44	0	3136290816	11	4230
2026-01-26 13:49:30.16	323.43	14.00	-25.8	-27.4	16.2	0.00e+00	0	44	0	3153068032	11	4337
2026-01-26 13:49:33.16	323.79	13.75	-25.7	-27.3	16.2	0.00e+00	0	44	0	3169845248	11	4312
2026-01-26 13:49:36.15	324.15	13.51	-25.8	-27.3	16.2	0.00e+00	0	44	0	3186622464	11	4318
2026-01-26 13:49:39.17	324.50	13.27	-25.8	-26.9	16.0	0.00e+00	0	44	0	3203399680	12	4101
2026-01-26 13:49:42.17	324.85	13.02	-25.8	-27.0	16.0	0.00e+00	0	44	0	3220176896	12	4129
2026-01-26 13:49:45.18	325.19	12.78	-26.1	-27.6	15.6	1.10e-06	0	44	0	3238002688	12	4295
2026-01-26 13:49:48.19	325.52	12.55	-25.9	-27.3	15.8	0.00e+00	0	44	0	3254779904	12	4193
2026-01-26 13:49:51.20	325.85	12.31	-26.1	-27.6	15.6	0.00e+00	0	44	0	3271557120	12	4290
2026-01-26 13:49:54.21	326.18	12.07	-26.1	-27.6	15.6	0.00e+00	0	44	0	3288334336	12	4287
2026-01-26 13:49:57.22	326.50	11.84	-26.3	-27.6	15.3	0.00e+00	0	44	0	3305111552	13	4180
2026-01-26 13:50:00.24	326.81	11.60	-26.4	-27.7	15.2	0.00e+00	0	44	0	3321888768	13	4205
2026-01-26 13:50:03.26	327.13	11.37	-26.8	-28.7	14.6	0.00e+00	0	44	0	3339714560	13	4487
2026-01-26 13:50:06.26	327.43	11.14	-26.6	-27.7	15.0	0.00e+00	0	44	0	3356491776	14	4093
2026-01-26 13:50:09.27	327.73	10.91	-26.6	-27.8	14.9	0.00e+00	0	44	0	3373268992	14	4121
2026-01-26 13:50:12.28	328.03	10.69	-26.5	-27.5	15.0	0.00e+00	0	44	0	3390046208	14	4048
2026-01-26 13:50:15.30	328.32	10.46	-26.6	-27.7	15.0	0.00e+00	0	44	0	3406823424	14	4096
2026-01-26 13:50:18.30	328.61	10.24	-26.7	-27.9	14.8	0.00e+00	0	44	0	3423600640	14	4153
2026-01-26 13:50:21.31	328.90	10.01	-26.8	-28.2	14.6	0.00e+00	0	44	0	3440377856	14	4237
2026-01-26 13:50:24.31	329.17	9.79	-26.9	-28.4	14.5	0.00e+00	0	44	0	3458203648	14	4282
2026-01-26 13:50:27.32	329.45	9.57	-26.7	-28.1	14.7	0.00e+00	0	44	0	3474980864	14	4205
2026-01-26 13:50:30.34	329.72	9.35	-26.7	-27.9	14.7	1.10e-06	0	44	0	3491758080	14	4152
2026-01-26 13:50:33.35	329.99	9.13	-26.7	-28.0	14.7	0.00e+00	0	44	0	3508535296	14	4177
2026-01-26 13:50:36.36	330.26	8.92	-26.8	-28.2	14.5	0.00e+00	0	44	0	3525312512	14	4232
2026-01-26 13:50:39.36	330.52	8.71	-26.9	-28.3	14.4	0.00e+00	0	44	0	3542089728	14	4276
2026-01-26 13:50:42.37	330.77	8.49	-27.3	-29.5	13.7	4.50e-06	0	44	0	3558866944	14	4603
2026-01-26 13:50:45.39	331.03	8.28	-27.3	-29.5	13.7	3.40e-06	0	44	0	3575644160	14	4612
2026-01-26 13:50:48.40	331.28	8.07	-27.5	-29.9	13.5	6.80e-06	0	44	0	3593469952	14	4730
2026-01-26 13:50:51.40	331.53	7.86	-27.5	-29.5	13.4	2.17e-05	0	44	0	3610247168	15	4499
2026-01-26 13:50:54.41	331.77	7.65	-27.6	-29.6	13.3	8.00e-06	0	44	0	3627024384	15	4532
2026-01-26 13:50:57.42	332.01	7.45	-27.8	-30.0	13.0	1.48e-05	0	44	0	3643801600	15	4661
2026-01-26 13:51:00.43	332.25	7.24	-27.5	-29.4	13.4	2.17e-05	0	44	0	3660578816	15	4469
2026-01-26 13:51:03.44	332.48	7.04	-33.4	-44.8	3.8	8.46e-01	0	44	104	3672113152	26	13338

#Closed at: 2026-01-26 13:51:06
#Recorded file [3672 MB]: D:/data/31010_260126_164009.dat