passes_logs/2026/01/26/R2M6_AANII_01/R2M6_AANII_01__20260126_103205_NOAA_21_JPSS-2_rec.log

#Pass ID: 20260126_103205_NOAA 21 (JPSS-2)
#Satellite: NOAA 21 (JPSS-2)
#Configuration: NOAA 21
#almurnet v.1.7.20240730
#Start time: 2026-01-26 10:32:05

#Version: 2.2.20231116
#Station: R2M6_AANII_01
#Location: 30.233357 lon 59.946436 lat
#TLE: 1 54234U 22150A   26025.79694208  .00000182  00000+0  10700-3 0  9999
#TLE: 2 54234  98.7509 326.5666 0000777 213.2444 146.8684 14.19539347166346

#Time	Az	El	Level	Level2	SNR	BER	BlckErr	Temp	State	Recorded	gain1	gain2
2026-01-26 10:32:05.10	166.81	7.00	-30.8	-35.8	4.5	1.41e+00	0	42	0	0	22	6423
2026-01-26 10:32:08.07	166.86	7.23	-30.5	-34.6	8.6	3.76e-02	0	42	0	2097152	21	5757
2026-01-26 10:32:11.07	166.91	7.46	-30.5	-34.5	8.6	4.09e-02	0	42	0	11534336	21	5746
2026-01-26 10:32:14.05	166.96	7.70	-30.0	-33.0	9.8	1.19e-02	0	43	0	20971520	21	5074
2026-01-26 10:32:17.05	167.01	7.94	-29.4	-32.1	11.1	1.78e-03	0	43	0	30408704	19	4953
2026-01-26 10:32:20.03	167.07	8.18	-29.5	-32.6	10.9	2.08e-03	0	43	0	39845888	19	5110
2026-01-26 10:32:23.01	167.12	8.42	-29.5	-32.4	11.0	2.00e-03	0	43	0	49283072	19	5044
2026-01-26 10:32:26.01	167.17	8.66	-29.1	-31.5	11.6	1.12e-03	0	43	0	58720256	19	4714
2026-01-26 10:32:29.00	167.23	8.91	-28.5	-30.3	12.7	1.11e-04	0	43	0	68157440	18	4442
2026-01-26 10:32:32.00	167.29	9.16	-28.2	-30.2	13.1	2.51e-05	0	43	0	77594624	17	4505
2026-01-26 10:32:35.00	167.34	9.41	-28.0	-29.8	13.4	8.30e-06	0	43	0	87031808	17	4383
2026-01-26 10:32:38.02	167.40	9.67	-28.0	-29.7	13.4	5.30e-06	0	43	0	96468992	17	4365
2026-01-26 10:32:41.02	167.46	9.93	-28.0	-29.7	13.4	2.82e-05	0	43	0	105906176	17	4362
2026-01-26 10:32:44.01	167.52	10.19	-28.0	-29.5	13.6	2.59e-05	0	43	0	115343360	17	4309
2026-01-26 10:32:47.01	167.58	10.45	-27.8	-29.2	13.8	3.80e-06	0	43	0	124780544	17	4198
2026-01-26 10:32:50.02	167.64	10.72	-27.8	-29.6	13.9	2.21e-05	0	43	0	134217728	16	4418
2026-01-26 10:32:53.03	167.70	10.99	-27.6	-29.1	14.2	1.75e-05	0	43	0	142606336	16	4272
2026-01-26 10:32:56.04	167.76	11.26	-27.4	-28.6	14.5	7.60e-06	0	43	0	152043520	16	4127
2026-01-26 10:32:59.05	167.83	11.54	-27.5	-28.8	14.4	1.22e-05	0	43	0	161480704	16	4192
2026-01-26 10:33:02.05	167.89	11.82	-27.7	-29.4	14.1	1.50e-06	0	43	0	170917888	16	4383
2026-01-26 10:33:05.07	167.96	12.10	-27.7	-29.4	14.1	1.06e-05	0	43	0	180355072	16	4372
2026-01-26 10:33:08.09	168.03	12.39	-27.6	-29.3	14.1	0.00e+00	0	43	0	189792256	16	4368
2026-01-26 10:33:11.10	168.10	12.68	-27.8	-29.8	13.8	2.20e-06	0	43	0	199229440	16	4508
2026-01-26 10:33:14.11	168.17	12.97	-27.0	-28.5	14.7	0.00e+00	0	44	0	208666624	15	4245
2026-01-26 10:33:17.11	168.24	13.27	-27.0	-28.3	14.8	0.00e+00	0	43	0	218103808	15	4195
2026-01-26 10:33:20.10	168.31	13.57	-26.8	-27.9	15.1	0.00e+00	0	43	0	227540992	15	4088
2026-01-26 10:33:23.11	168.38	13.87	-26.9	-28.0	15.1	0.00e+00	0	44	0	236978176	15	4103
2026-01-26 10:33:26.12	168.46	14.18	-26.8	-27.9	15.2	0.00e+00	0	44	0	246415360	15	4063
2026-01-26 10:33:29.13	168.53	14.49	-26.8	-27.8	15.3	0.00e+00	0	44	0	255852544	15	4032
2026-01-26 10:33:32.13	168.61	14.80	-26.9	-28.1	15.1	0.00e+00	0	44	0	265289728	15	4105
2026-01-26 10:33:35.12	168.69	15.12	-26.8	-28.2	15.3	0.00e+00	0	44	0	274726912	14	4240
2026-01-26 10:33:38.13	168.77	15.45	-27.0	-28.8	15.0	0.00e+00	0	44	0	284164096	14	4399
2026-01-26 10:33:41.15	168.85	15.77	-26.9	-28.5	15.2	0.00e+00	0	44	0	293601280	14	4317
2026-01-26 10:33:44.17	168.94	16.11	-26.9	-28.5	15.3	0.00e+00	0	44	0	303038464	14	4303
2026-01-26 10:33:47.17	169.02	16.44	-27.2	-29.0	15.0	0.00e+00	0	44	0	312475648	14	4451
2026-01-26 10:33:50.16	169.11	16.78	-27.2	-29.0	15.0	0.00e+00	0	44	0	321912832	14	4445
2026-01-26 10:33:53.18	169.20	17.13	-27.1	-28.9	15.1	0.00e+00	0	44	0	331350016	14	4411
2026-01-26 10:33:56.18	169.29	17.48	-27.2	-29.0	15.0	0.00e+00	0	44	0	340787200	14	4440
2026-01-26 10:33:59.19	169.38	17.84	-27.2	-29.0	15.0	0.00e+00	0	44	0	350224384	14	4446
2026-01-26 10:34:02.19	169.48	18.20	-27.1	-28.9	15.1	0.00e+00	0	44	0	359661568	14	4422
2026-01-26 10:34:05.21	169.57	18.57	-27.1	-28.7	15.2	0.00e+00	0	44	0	369098752	14	4374
2026-01-26 10:34:08.22	169.67	18.94	-27.1	-29.0	15.1	0.00e+00	0	44	0	378535936	14	4432
2026-01-26 10:34:11.23	169.77	19.32	-27.0	-28.6	15.3	0.00e+00	0	44	0	387973120	14	4317
2026-01-26 10:34:14.24	169.88	19.70	-27.1	-28.9	15.1	0.00e+00	0	44	0	396361728	14	4427
2026-01-26 10:34:17.23	169.98	20.09	-27.1	-28.9	15.1	0.00e+00	0	44	0	405798912	14	4416
2026-01-26 10:34:20.22	170.09	20.48	-27.0	-28.5	15.4	7.00e-07	0	44	0	415236096	14	4306
2026-01-26 10:34:23.22	170.20	20.88	-26.5	-27.6	15.9	0.00e+00	0	44	0	424673280	14	4048
2026-01-26 10:34:26.22	170.31	21.29	-26.4	-27.2	16.1	0.00e+00	0	44	0	434110464	14	3958
2026-01-26 10:34:29.23	170.43	21.71	-26.2	-27.3	16.3	0.00e+00	0	44	0	443547648	13	4078
2026-01-26 10:34:32.24	170.55	22.13	-26.1	-27.1	16.4	0.00e+00	0	44	0	452984832	13	4030
2026-01-26 10:34:35.27	170.67	22.56	-26.0	-27.0	16.5	0.00e+00	0	44	0	462422016	13	3995
2026-01-26 10:34:38.28	170.80	23.00	-25.9	-26.6	16.7	0.00e+00	0	44	0	471859200	13	3908
2026-01-26 10:34:41.27	170.93	23.44	-25.7	-26.7	16.9	0.00e+00	0	44	0	481296384	12	4040
2026-01-26 10:34:44.26	171.06	23.89	-25.7	-26.7	17.0	0.00e+00	0	44	0	490733568	12	4027
2026-01-26 10:34:47.25	171.19	24.34	-25.8	-26.9	16.9	0.00e+00	0	44	0	500170752	12	4079
2026-01-26 10:34:50.22	171.33	24.80	-25.9	-27.0	16.8	0.00e+00	0	44	0	509607936	12	4120
2026-01-26 10:34:53.22	171.47	25.28	-25.9	-27.0	16.8	0.00e+00	0	44	0	519045120	12	4117
2026-01-26 10:34:56.21	171.62	25.76	-26.1	-27.5	16.5	0.00e+00	0	44	0	528482304	12	4253
2026-01-26 10:34:59.21	171.77	26.25	-26.2	-27.7	16.5	0.00e+00	0	44	0	537919488	12	4306
2026-01-26 10:35:02.21	171.93	26.75	-26.5	-28.4	16.1	0.00e+00	0	44	0	546308096	12	4493
2026-01-26 10:35:05.20	172.09	27.25	-26.5	-28.0	16.1	0.00e+00	0	44	0	555745280	13	4272
2026-01-26 10:35:08.20	172.25	27.77	-26.7	-28.3	15.9	0.00e+00	0	44	0	565182464	13	4350
2026-01-26 10:35:11.18	172.42	28.30	-26.8	-28.6	15.8	0.00e+00	0	44	0	574619648	13	4420
2026-01-26 10:35:14.17	172.59	28.83	-27.0	-28.9	15.6	0.00e+00	0	44	0	584056832	13	4527
2026-01-26 10:35:17.17	172.78	29.38	-27.3	-29.3	15.2	0.00e+00	0	44	0	593494016	14	4504
2026-01-26 10:35:20.18	172.96	29.94	-27.7	-29.6	14.7	0.00e+00	0	44	0	602931200	15	4489
2026-01-26 10:35:23.19	173.16	30.51	-27.4	-29.1	15.0	0.00e+00	0	44	0	612368384	15	4348
2026-01-26 10:35:26.20	173.36	31.09	-27.0	-28.1	15.5	0.00e+00	0	44	0	621805568	15	4063
2026-01-26 10:35:29.20	173.57	31.69	-26.6	-27.6	16.1	0.00e+00	0	44	0	631242752	14	4046
2026-01-26 10:35:32.19	173.78	32.29	-26.3	-27.5	16.5	0.00e+00	0	44	0	640679936	13	4123
2026-01-26 10:35:35.21	174.00	32.91	-26.9	-28.9	15.7	0.00e+00	0	44	0	650117120	13	4516
2026-01-26 10:35:38.21	174.23	33.53	-27.5	-29.3	15.0	0.00e+00	0	44	0	659554304	15	4391
2026-01-26 10:35:41.21	174.47	34.17	-28.0	-29.8	14.6	0.00e+00	0	44	0	668991488	16	4429
2026-01-26 10:35:44.20	174.72	34.83	-27.7	-29.1	15.0	0.00e+00	0	44	0	678428672	16	4237
2026-01-26 10:35:47.18	174.98	35.49	-27.9	-29.5	14.7	0.00e+00	0	44	0	686817280	16	4331
2026-01-26 10:35:50.17	175.24	36.17	-28.3	-30.5	14.2	1.50e-06	0	44	0	696254464	16	4631
2026-01-26 10:35:53.16	175.52	36.86	-28.8	-31.2	13.5	1.37e-05	0	44	0	705691648	17	4740
2026-01-26 10:35:56.19	175.82	37.57	-29.1	-31.4	13.1	3.66e-05	0	44	0	715128832	18	4679
2026-01-26 10:35:59.18	176.12	38.29	-28.8	-30.6	13.5	9.90e-06	0	44	0	724566016	18	4426
2026-01-26 10:36:02.19	176.44	39.03	-28.8	-30.6	13.5	1.06e-05	0	44	0	734003200	18	4451
2026-01-26 10:36:05.18	176.77	39.79	-28.6	-30.3	13.7	5.30e-06	0	44	0	743440384	18	4339
2026-01-26 10:36:08.17	177.12	40.55	-28.6	-30.1	13.9	5.30e-06	0	44	0	752877568	18	4299
2026-01-26 10:36:11.17	177.48	41.34	-28.9	-30.7	13.5	8.30e-06	0	44	0	762314752	18	4475
2026-01-26 10:36:14.16	177.86	42.13	-29.3	-32.0	12.8	5.64e-05	0	44	0	771751936	18	4884
2026-01-26 10:36:17.15	178.26	42.95	-29.3	-31.3	12.9	4.50e-05	0	44	0	781189120	19	4544
2026-01-26 10:36:20.13	178.68	43.77	-29.0	-30.7	13.3	1.75e-05	0	44	0	790626304	19	4361
2026-01-26 10:36:23.10	179.11	44.61	-29.1	-30.9	13.1	2.89e-05	0	44	0	799014912	19	4433
2026-01-26 10:36:26.10	179.58	45.48	-29.3	-31.3	12.8	3.66e-05	0	44	0	808452096	19	4556
2026-01-26 10:36:29.10	180.07	46.36	-28.9	-30.4	13.5	9.90e-06	0	44	0	817889280	19	4277
2026-01-26 10:36:32.12	180.59	47.27	-28.5	-30.0	14.0	3.00e-06	0	44	0	827326464	18	4260
2026-01-26 10:36:35.12	181.14	48.18	-28.0	-29.3	14.7	0.00e+00	0	44	0	836763648	17	4164
2026-01-26 10:36:38.11	181.73	49.11	-28.3	-29.9	14.3	0.00e+00	0	44	0	846200832	17	4343
2026-01-26 10:36:41.10	182.34	50.06	-28.2	-29.6	14.5	7.00e-07	0	44	0	855638016	17	4262
2026-01-26 10:36:44.11	183.01	51.03	-28.4	-30.2	14.1	7.00e-07	0	44	0	865075200	17	4437
2026-01-26 10:36:47.12	183.71	52.01	-29.1	-31.3	13.3	1.44e-05	0	44	0	874512384	18	4648
2026-01-26 10:36:50.12	184.46	53.01	-28.4	-29.7	14.2	7.00e-07	0	44	0	883949568	18	4183
2026-01-26 10:36:53.13	185.27	54.03	-27.6	-28.9	15.2	0.00e+00	0	44	0	893386752	16	4177
2026-01-26 10:36:56.13	186.13	55.05	-27.1	-28.1	15.7	0.00e+00	0	44	0	902823936	15	4071
2026-01-26 10:36:59.13	187.05	56.10	-27.2	-28.4	15.6	0.00e+00	0	44	0	912261120	15	4155
2026-01-26 10:37:02.14	188.05	57.15	-27.1	-28.3	15.7	0.00e+00	0	44	0	921698304	15	4115
2026-01-26 10:37:05.14	189.13	58.22	-26.6	-27.5	16.4	0.00e+00	0	44	0	931135488	14	4016
2026-01-26 10:37:08.14	190.29	59.29	-26.6	-27.7	16.4	0.00e+00	0	44	0	940572672	14	4046
2026-01-26 10:37:11.14	191.56	60.37	-26.2	-27.1	16.9	0.00e+00	0	44	0	950009856	13	4013
2026-01-26 10:37:14.14	192.93	61.45	-25.7	-26.7	17.4	0.00e+00	0	44	0	959447040	12	4013
2026-01-26 10:37:17.14	194.43	62.54	-25.2	-25.9	18.2	3.80e-06	0	44	0	968884224	11	3931
2026-01-26 10:37:20.16	196.08	63.64	-25.0	-25.6	18.4	0.00e+00	0	44	0	978321408	11	3858
2026-01-26 10:37:23.17	197.89	64.72	-25.7	-27.1	17.6	4.50e-06	0	44	0	987758592	11	4219
2026-01-26 10:37:26.18	199.87	65.80	-25.7	-27.1	17.6	1.50e-06	0	44	0	997195776	11	4221
2026-01-26 10:37:29.20	202.07	66.87	-25.4	-26.5	17.9	2.20e-06	0	44	0	1006632960	11	4076
2026-01-26 10:37:32.20	204.47	67.91	-25.7	-27.2	17.6	0.00e+00	0	44	0	1016070144	11	4251
2026-01-26 10:37:35.21	207.14	68.92	-25.9	-27.1	17.3	0.00e+00	0	44	0	1024458752	12	4116
2026-01-26 10:37:38.21	210.09	69.90	-25.7	-26.6	17.6	4.50e-06	0	44	0	1033895936	12	4001
2026-01-26 10:37:41.22	213.36	70.83	-25.8	-26.8	17.5	0.00e+00	0	44	0	1043333120	12	4033
2026-01-26 10:37:44.23	216.98	71.71	-25.6	-26.3	17.8	0.00e+00	0	44	0	1052770304	12	3902
2026-01-26 10:37:47.24	220.96	72.52	-26.0	-27.2	17.4	0.00e+00	0	44	0	1062207488	12	4131
2026-01-26 10:37:50.25	225.33	73.25	-26.1	-27.4	17.3	0.00e+00	0	44	0	1071644672	12	4191
2026-01-26 10:37:53.26	230.09	73.87	-26.2	-27.6	17.1	0.00e+00	0	44	0	1081081856	12	4261
2026-01-26 10:37:56.28	235.22	74.39	-26.4	-28.1	16.8	0.00e+00	0	44	0	1090519040	12	4386
2026-01-26 10:37:59.28	240.65	74.79	-26.3	-28.0	17.0	0.00e+00	0	44	0	1099956224	12	4346
2026-01-26 10:38:02.29	246.33	75.04	-25.5	-26.1	17.9	0.00e+00	0	44	0	1109393408	12	3873
2026-01-26 10:38:05.30	252.17	75.15	-25.4	-25.8	18.0	0.00e+00	0	44	0	1118830592	12	3797
2026-01-26 10:38:08.31	258.03	75.11	-26.0	-27.6	17.3	0.00e+00	0	45	0	1128267776	11	4366
2026-01-26 10:38:11.32	263.80	74.93	-26.1	-27.4	17.3	0.00e+00	0	44	0	1137704960	12	4180
2026-01-26 10:38:14.33	269.37	74.60	-26.3	-27.9	17.0	0.00e+00	0	44	0	1147142144	12	4323
2026-01-26 10:38:17.34	274.65	74.14	-26.4	-28.0	16.9	0.00e+00	0	44	0	1156579328	12	4352
2026-01-26 10:38:20.35	279.58	73.57	-26.5	-27.9	16.6	0.00e+00	0	44	0	1166016512	13	4213
2026-01-26 10:38:23.35	284.13	72.89	-26.0	-26.7	17.3	0.00e+00	0	44	0	1175453696	13	3918
2026-01-26 10:38:26.37	288.31	72.12	-25.8	-26.9	17.4	0.00e+00	0	44	0	1184890880	12	4064
2026-01-26 10:38:29.37	292.09	71.28	-25.8	-26.9	17.1	0.00e+00	0	44	0	1194328064	12	4068
2026-01-26 10:38:32.38	295.52	70.37	-26.1	-27.5	17.1	0.00e+00	0	45	0	1203765248	12	4226
2026-01-26 10:38:35.38	298.62	69.42	-26.9	-28.2	16.1	0.00e+00	0	44	0	1213202432	14	4211
2026-01-26 10:38:38.38	301.41	68.42	-25.5	-26.7	17.8	0.00e+00	0	44	0	1222639616	11	4127
2026-01-26 10:38:41.39	303.95	67.40	-26.6	-28.0	16.4	0.00e+00	0	44	0	1232076800	13	4240
2026-01-26 10:38:44.39	306.23	66.35	-26.0	-26.7	17.2	0.00e+00	0	45	0	1241513984	13	3911
2026-01-26 10:38:47.40	308.32	65.28	-27.9	-29.9	14.9	0.00e+00	0	44	0	1250951168	15	4564
2026-01-26 10:38:50.42	310.21	64.20	-27.4	-28.9	15.5	0.00e+00	0	44	0	1260388352	15	4261
2026-01-26 10:38:53.43	311.93	63.11	-27.9	-30.0	14.8	0.00e+00	0	44	0	1269825536	15	4602
2026-01-26 10:38:56.43	313.50	62.03	-26.5	-27.3	16.6	0.00e+00	0	45	0	1278214144	14	3947
2026-01-26 10:38:59.43	314.93	60.94	-25.3	-26.1	17.9	0.00e+00	0	44	0	1287651328	11	3971
2026-01-26 10:39:02.44	316.26	59.86	-27.0	-28.9	16.0	0.00e+00	0	44	0	1297088512	13	4485
2026-01-26 10:39:05.46	317.47	58.78	-26.1	-27.1	16.9	0.00e+00	0	44	0	1306525696	13	4003
2026-01-26 10:39:08.47	318.60	57.71	-26.6	-28.1	16.4	0.00e+00	0	44	0	1315962880	13	4262
2026-01-26 10:39:11.46	319.63	56.66	-28.2	-30.2	14.5	7.00e-07	0	44	0	1325400064	16	4540
2026-01-26 10:39:14.49	320.60	55.60	-27.3	-28.7	15.5	0.00e+00	0	44	0	1334837248	15	4205
2026-01-26 10:39:17.50	321.49	54.57	-27.7	-29.5	15.1	0.00e+00	0	44	0	1344274432	15	4435
2026-01-26 10:39:20.50	322.32	53.55	-28.3	-30.3	14.5	7.00e-07	0	44	0	1353711616	16	4570
2026-01-26 10:39:23.51	323.10	52.55	-28.5	-30.4	14.1	4.50e-06	0	44	0	1363148800	17	4476
2026-01-26 10:39:26.50	323.82	51.57	-27.6	-28.7	15.3	0.00e+00	0	45	0	1372585984	16	4112
2026-01-26 10:39:29.52	324.51	50.59	-29.2	-31.6	13.1	3.20e-05	0	45	0	1382023168	18	4740
2026-01-26 10:39:32.52	325.15	49.63	-28.6	-30.2	13.9	4.50e-06	0	44	0	1391460352	18	4298
2026-01-26 10:39:35.52	325.75	48.70	-28.7	-30.4	13.7	6.80e-06	0	44	0	1400897536	18	4378
2026-01-26 10:39:38.54	326.32	47.77	-29.2	-31.7	13.0	4.04e-05	0	44	0	1410334720	18	4759
2026-01-26 10:39:41.55	326.85	46.86	-29.1	-31.5	13.0	2.59e-05	0	44	0	1419771904	18	4711
2026-01-26 10:39:44.55	327.36	45.98	-29.3	-32.0	12.9	4.11e-05	0	44	0	1429209088	18	4871
2026-01-26 10:39:47.56	327.84	45.10	-29.4	-32.2	12.7	5.64e-05	0	44	0	1438646272	18	4946
2026-01-26 10:39:50.56	328.29	44.25	-29.6	-32.1	12.5	1.68e-04	0	44	0	1448083456	19	4780
2026-01-26 10:39:53.57	328.72	43.41	-28.9	-30.4	13.5	9.90e-06	0	44	0	1457520640	19	4248
2026-01-26 10:39:56.58	329.13	42.59	-29.5	-31.9	12.5	1.20e-04	0	45	0	1466957824	19	4736
2026-01-26 10:39:59.57	329.52	41.78	-29.4	-31.5	12.8	4.65e-05	0	44	0	1476395008	19	4599
2026-01-26 10:40:02.58	329.90	40.99	-28.8	-30.2	13.6	1.14e-05	0	45	0	1485832192	19	4212
2026-01-26 10:40:05.60	330.25	40.22	-29.2	-31.6	13.1	2.74e-05	0	44	0	1495269376	18	4739
2026-01-26 10:40:08.60	330.59	39.46	-29.3	-31.3	12.8	6.33e-05	0	44	0	1503657984	19	4543
2026-01-26 10:40:11.61	330.92	38.72	-28.8	-30.5	13.6	9.10e-06	0	45	0	1514143744	18	4415
2026-01-26 10:40:14.63	331.23	37.98	-28.6	-30.0	13.9	2.20e-06	0	44	0	1523580928	18	4265
2026-01-26 10:40:17.64	331.53	37.27	-28.1	-29.6	14.4	1.50e-06	0	44	0	1531969536	17	4248
2026-01-26 10:40:20.65	331.82	36.57	-27.8	-28.8	14.8	0.00e+00	0	44	0	1542455296	17	4051
2026-01-26 10:40:23.66	332.09	35.88	-28.1	-29.5	14.5	1.50e-06	0	44	0	1550843904	17	4222
2026-01-26 10:40:26.67	332.36	35.21	-28.2	-29.8	14.3	0.00e+00	0	44	0	1560281088	17	4316
2026-01-26 10:40:29.67	332.61	34.56	-28.1	-29.5	14.5	7.00e-07	0	44	0	1569718272	17	4218
2026-01-26 10:40:32.68	332.85	33.91	-28.2	-29.7	14.3	7.00e-07	0	45	0	1579155456	17	4288
2026-01-26 10:40:35.68	333.09	33.28	-28.4	-30.3	14.0	2.20e-06	0	44	0	1588592640	17	4466
2026-01-26 10:40:38.69	333.32	32.66	-28.2	-29.8	14.3	1.50e-06	0	45	0	1598029824	17	4306
2026-01-26 10:40:41.70	333.54	32.05	-27.7	-29.1	15.0	7.00e-07	0	44	0	1607467008	16	4216
2026-01-26 10:40:44.71	333.75	31.46	-27.4	-28.3	15.4	0.00e+00	0	44	0	1616904192	16	4014
2026-01-26 10:40:47.72	333.95	30.87	-27.4	-28.4	15.3	0.00e+00	0	44	0	1626341376	16	4033
2026-01-26 10:40:50.72	334.15	30.30	-27.5	-28.7	15.1	0.00e+00	0	44	0	1635778560	16	4119
2026-01-26 10:40:53.73	334.34	29.74	-27.0	-28.1	15.6	0.00e+00	0	44	0	1645215744	15	4064
2026-01-26 10:40:56.75	334.53	29.18	-26.8	-27.7	15.8	0.00e+00	0	44	0	1654652928	15	3960
2026-01-26 10:40:59.76	334.71	28.64	-26.7	-27.9	15.9	0.00e+00	0	44	0	1664090112	14	4120
2026-01-26 10:41:02.78	334.88	28.11	-26.9	-28.3	15.7	0.00e+00	0	45	0	1673527296	14	4228
2026-01-26 10:41:05.80	335.05	27.58	-26.8	-28.0	15.8	0.00e+00	0	45	0	1682964480	14	4163
2026-01-26 10:41:08.80	335.21	27.07	-26.7	-27.9	15.9	0.00e+00	0	44	0	1692401664	14	4135
2026-01-26 10:41:11.82	335.37	26.57	-26.7	-27.8	16.0	0.00e+00	0	45	0	1701838848	14	4098
2026-01-26 10:41:14.82	335.53	26.08	-26.4	-27.2	16.2	0.00e+00	0	44	0	1711276032	14	3955
2026-01-26 10:41:17.80	335.68	25.60	-26.4	-27.2	16.2	0.00e+00	0	44	0	1720713216	14	3961
2026-01-26 10:41:20.80	335.82	25.12	-26.5	-27.4	16.1	0.00e+00	0	44	0	1730150400	14	4011
2026-01-26 10:41:23.80	335.97	24.66	-26.7	-27.9	15.8	0.00e+00	0	44	0	1739587584	14	4141
2026-01-26 10:41:26.80	336.10	24.20	-26.7	-27.8	15.9	0.00e+00	0	44	0	1749024768	14	4096
2026-01-26 10:41:29.81	336.24	23.74	-26.7	-27.8	15.9	0.00e+00	0	44	0	1758461952	14	4110
2026-01-26 10:41:32.83	336.37	23.30	-26.5	-27.5	16.0	0.00e+00	0	44	0	1767899136	14	4017
2026-01-26 10:41:35.84	336.50	22.86	-26.7	-28.0	15.7	0.00e+00	0	44	0	1777336320	14	4150
2026-01-26 10:41:38.85	336.62	22.43	-27.0	-28.6	15.3	0.00e+00	0	44	0	1786773504	14	4335
2026-01-26 10:41:41.86	336.75	22.01	-27.1	-28.8	15.3	0.00e+00	0	44	0	1796210688	14	4380
2026-01-26 10:41:44.87	336.86	21.59	-27.1	-28.8	15.3	0.00e+00	0	44	0	1804599296	14	4376
2026-01-26 10:41:47.87	336.98	21.18	-27.2	-28.9	15.2	7.00e-07	0	44	0	1814036480	14	4424
2026-01-26 10:41:50.88	337.09	20.78	-26.9	-28.4	15.5	0.00e+00	0	44	0	1824522240	14	4262
2026-01-26 10:41:53.89	337.21	20.38	-26.4	-27.2	16.1	0.00e+00	0	44	0	1832910848	14	3949
2026-01-26 10:41:56.90	337.31	19.99	-26.6	-27.6	15.9	0.00e+00	0	44	0	1842348032	14	4059
2026-01-26 10:41:59.90	337.42	19.61	-26.7	-27.9	15.7	0.00e+00	0	44	0	1851785216	14	4130
2026-01-26 10:42:02.90	337.52	19.23	-27.0	-28.5	15.4	0.00e+00	0	44	0	1861222400	14	4297
2026-01-26 10:42:05.90	337.62	18.86	-26.7	-27.8	15.7	0.00e+00	0	44	0	1870659584	14	4121
2026-01-26 10:42:08.92	337.72	18.49	-26.7	-27.9	15.7	0.00e+00	0	44	0	1880096768	14	4139
2026-01-26 10:42:11.92	337.82	18.13	-26.7	-27.9	15.7	0.00e+00	0	44	0	1889533952	14	4134
2026-01-26 10:42:14.93	337.92	17.77	-26.7	-28.0	15.6	0.00e+00	0	44	0	1898971136	14	4167
2026-01-26 10:42:17.94	338.01	17.42	-26.9	-28.3	15.4	0.00e+00	0	44	0	1908408320	14	4242
2026-01-26 10:42:20.95	338.10	17.07	-26.9	-28.5	15.3	7.00e-07	0	44	0	1917845504	14	4297
2026-01-26 10:42:23.96	338.19	16.73	-27.1	-28.9	15.1	0.00e+00	0	44	0	1927282688	14	4400
2026-01-26 10:42:26.97	338.28	16.39	-27.1	-29.0	15.0	0.00e+00	0	44	0	1936719872	14	4436
2026-01-26 10:42:29.96	338.37	16.06	-27.4	-29.6	14.6	0.00e+00	0	44	0	1946157056	14	4615
2026-01-26 10:42:32.97	338.45	15.73	-27.3	-29.4	14.7	0.00e+00	0	44	0	1955594240	14	4562
2026-01-26 10:42:35.98	338.54	15.41	-27.3	-29.4	14.7	0.00e+00	0	44	0	1965031424	14	4564
2026-01-26 10:42:39.00	338.62	15.09	-27.4	-29.6	14.5	7.00e-07	0	44	0	1974468608	14	4636
2026-01-26 10:42:42.00	338.70	14.77	-27.4	-29.0	14.6	0.00e+00	0	44	0	1983905792	15	4341
2026-01-26 10:42:45.01	338.78	14.46	-27.5	-29.4	14.3	7.00e-07	0	44	0	1993342976	15	4466
2026-01-26 10:42:48.02	338.85	14.15	-27.6	-29.7	14.2	1.50e-06	0	44	0	2002780160	15	4551
2026-01-26 10:42:51.02	338.93	13.85	-27.8	-30.0	14.0	7.00e-07	0	44	0	2012217344	15	4645
2026-01-26 10:42:54.03	339.01	13.55	-28.2	-30.4	13.6	6.80e-06	0	44	0	2021654528	16	4653
2026-01-26 10:42:57.04	339.08	13.25	-28.2	-30.5	13.5	1.06e-05	0	44	0	2031091712	16	4692
2026-01-26 10:43:00.04	339.15	12.96	-28.2	-30.5	13.5	1.52e-05	0	44	0	2040528896	16	4672
2026-01-26 10:43:03.06	339.22	12.67	-28.1	-30.1	13.7	1.50e-06	0	44	0	2049966080	16	4559
2026-01-26 10:43:06.07	339.29	12.38	-27.9	-29.7	13.9	7.00e-07	0	44	0	2058354688	16	4448
2026-01-26 10:43:09.08	339.36	12.10	-27.9	-29.8	13.9	3.80e-06	0	44	0	2068840448	16	4470
2026-01-26 10:43:12.10	339.43	11.82	-28.0	-30.1	13.6	6.10e-06	0	44	0	2078277632	16	4565
2026-01-26 10:43:15.10	339.50	11.54	-28.2	-30.4	13.5	1.14e-05	0	44	0	2086666240	16	4653
2026-01-26 10:43:18.11	339.56	11.27	-28.1	-30.3	13.5	7.60e-06	0	44	0	2096103424	16	4628
2026-01-26 10:43:21.12	339.63	11.00	-28.2	-30.6	13.3	1.60e-05	0	44	0	2105540608	16	4710
2026-01-26 10:43:24.13	339.69	10.73	-28.4	-30.4	13.1	2.82e-05	0	44	0	2114977792	17	4555
2026-01-26 10:43:27.14	339.76	10.47	-28.5	-30.7	12.9	6.71e-05	0	44	0	2124414976	17	4653
2026-01-26 10:43:30.15	339.82	10.20	-28.5	-30.7	12.9	5.64e-05	0	44	0	2133852160	17	4654
2026-01-26 10:43:33.16	339.88	9.94	-28.7	-31.2	12.5	1.61e-04	0	44	0	2143289344	17	4825
2026-01-26 10:43:36.17	339.94	9.69	-28.6	-31.0	12.6	8.85e-05	0	44	0	2152726528	17	4736
2026-01-26 10:43:39.18	340.00	9.43	-28.5	-30.7	12.8	4.42e-05	0	44	0	2162163712	17	4674
2026-01-26 10:43:42.20	340.06	9.18	-28.8	-31.5	12.3	1.07e-04	0	44	0	2171600896	17	4917
2026-01-26 10:43:45.21	340.12	8.93	-28.5	-30.9	12.6	1.25e-04	0	44	0	2181038080	17	4742
2026-01-26 10:43:48.21	340.18	8.69	-28.6	-31.1	12.4	1.18e-04	0	44	0	2190475264	17	4816
2026-01-26 10:43:51.21	340.23	8.44	-28.6	-31.2	12.4	1.23e-04	0	44	0	2199912448	17	4818
2026-01-26 10:43:54.22	340.29	8.20	-28.7	-31.4	12.2	2.08e-04	0	44	0	2209349632	17	4904
2026-01-26 10:43:57.24	340.35	7.96	-28.7	-31.5	12.1	2.27e-04	0	44	0	2218786816	17	4929
2026-01-26 10:44:00.24	340.40	7.73	-28.9	-31.4	11.9	2.86e-04	0	44	0	2228224000	18	4787
2026-01-26 10:44:03.25	340.45	7.49	-28.9	-31.4	11.9	4.23e-04	0	44	0	2237661184	18	4791
2026-01-26 10:44:06.25	340.51	7.26	-29.1	-31.8	11.5	7.91e-04	0	44	0	2247098368	18	4942
2026-01-26 10:44:09.25	340.56	7.03	-32.9	-45.2	3.8	1.49e+00	0	44	104	2253389824	25	14765

#Closed at: 2026-01-26 10:44:09
#Recorded file [2253 MB]: D:/data/31010_260126_133206.dat