passes_logs/2026/01/26/R2M6_AANII_01/R2M6_AANII_01__20260126_115859_FENGYUN_3D_rec.log

#Pass ID: 20260126_115859_FENGYUN 3D
#Satellite: FENGYUN 3D
#Configuration: FENGYUN 3D
#almurnet v.1.7.20240730
#Start time: 2026-01-26 11:59:00

#Version: 2.2.20231116
#Station: R2M6_AANII_01
#Location: 30.233357 lon 59.946436 lat
#TLE: 1 43010U 17072A   26025.85700374 -.00000071  00000+0 -11715-4 0  9992
#TLE: 2 43010  98.9962 357.8423 0002518  90.2035 269.9429 14.19699460424796

#Time	Az	El	Level	Level2	SNR	BER	BlckErr	Temp	State	Recorded	gain1	gain2
2026-01-26 11:59:00.87	147.58	7.12	-28.1	-33.3	5.2	7.94e-01	0	41	0	0	16	6503
2026-01-26 11:59:03.87	147.53	7.35	-28.4	-33.0	9.1	2.29e-02	0	41	0	5242880	17	6124
2026-01-26 11:59:06.87	147.48	7.59	-27.7	-31.0	11.1	1.55e-03	0	42	0	22020096	16	5223
2026-01-26 11:59:09.87	147.42	7.83	-28.0	-31.0	11.3	7.28e-04	0	42	0	38797312	16	5129
2026-01-26 11:59:12.88	147.37	8.07	-27.6	-29.8	12.2	1.41e-04	0	42	0	55574528	16	4633
2026-01-26 11:59:15.87	147.32	8.31	-27.1	-28.9	13.0	2.17e-05	0	41	0	73400320	15	4439
2026-01-26 11:59:18.87	147.26	8.56	-27.0	-28.7	13.2	2.17e-05	0	42	0	90177536	15	4356
2026-01-26 11:59:21.87	147.20	8.80	-27.0	-28.4	13.4	6.80e-06	0	42	0	106954752	15	4272
2026-01-26 11:59:24.89	147.14	9.05	-27.2	-29.1	13.1	1.02e-05	0	42	0	123731968	15	4448
2026-01-26 11:59:27.90	147.08	9.31	-27.4	-29.5	12.9	1.94e-05	0	42	0	140509184	15	4552
2026-01-26 11:59:30.92	147.02	9.56	-26.8	-28.0	13.8	5.70e-06	0	42	0	157286400	15	4150
2026-01-26 11:59:33.92	146.96	9.82	-26.8	-28.6	13.7	1.10e-06	0	42	0	174063616	14	4432
2026-01-26 11:59:36.93	146.90	10.08	-26.5	-27.9	14.1	0.00e+00	0	42	0	190840832	14	4216
2026-01-26 11:59:39.94	146.83	10.34	-26.2	-27.7	14.5	0.00e+00	0	42	0	208666624	13	4292
2026-01-26 11:59:42.94	146.77	10.61	-26.1	-27.6	14.6	0.00e+00	0	42	0	225443840	13	4242
2026-01-26 11:59:45.94	146.70	10.88	-26.0	-27.7	14.9	0.00e+00	0	42	0	242221056	12	4385
2026-01-26 11:59:48.94	146.63	11.15	-25.9	-27.5	15.0	0.00e+00	0	43	0	258998272	12	4341
2026-01-26 11:59:51.93	146.56	11.42	-25.8	-27.3	15.1	0.00e+00	0	43	0	275775488	12	4265
2026-01-26 11:59:54.95	146.49	11.70	-25.7	-27.1	15.2	0.00e+00	0	43	0	292552704	12	4224
2026-01-26 11:59:57.95	146.42	11.98	-25.9	-27.6	15.0	0.00e+00	0	43	0	309329920	12	4347
2026-01-26 12:00:00.98	146.35	12.27	-26.0	-27.8	14.9	0.00e+00	0	43	0	326107136	12	4395
2026-01-26 12:00:04.00	146.27	12.56	-26.0	-27.7	15.0	0.00e+00	0	43	0	343932928	12	4362
2026-01-26 12:00:07.00	146.19	12.85	-26.1	-27.8	15.0	0.00e+00	0	43	0	360710144	12	4380
2026-01-26 12:00:10.00	146.11	13.14	-25.8	-27.3	15.2	0.00e+00	0	43	0	377487360	12	4255
2026-01-26 12:00:13.00	146.03	13.44	-26.0	-27.6	15.1	0.00e+00	0	43	0	394264576	12	4348
2026-01-26 12:00:16.01	145.95	13.74	-25.7	-27.0	15.4	2.20e-06	0	43	0	411041792	12	4189
2026-01-26 12:00:19.03	145.86	14.05	-25.6	-26.9	15.5	5.70e-06	0	43	0	427819008	12	4172
2026-01-26 12:00:22.03	145.78	14.36	-25.7	-27.1	15.4	0.00e+00	0	43	0	444596224	12	4199
2026-01-26 12:00:25.05	145.69	14.67	-25.9	-27.5	15.3	0.00e+00	0	43	0	461373440	12	4298
2026-01-26 12:00:28.05	145.59	14.99	-26.0	-27.5	15.2	1.10e-06	0	43	0	479199232	12	4318
2026-01-26 12:00:31.06	145.50	15.31	-25.5	-26.4	15.9	2.20e-06	0	43	0	495976448	12	4012
2026-01-26 12:00:34.07	145.41	15.63	-25.7	-26.9	15.6	4.50e-06	0	43	0	512753664	12	4145
2026-01-26 12:00:37.08	145.31	15.96	-25.4	-26.6	16.2	4.50e-06	0	43	0	529530880	11	4149
2026-01-26 12:00:40.08	145.21	16.30	-25.3	-26.4	16.3	2.20e-06	0	43	0	546308096	11	4091
2026-01-26 12:00:43.10	145.10	16.64	-25.1	-26.1	16.4	0.00e+00	0	43	0	563085312	11	4023
2026-01-26 12:00:46.12	145.00	16.98	-25.0	-25.8	16.7	0.00e+00	0	43	0	579862528	11	3953
2026-01-26 12:00:49.12	144.89	17.33	-24.7	-25.6	17.0	0.00e+00	0	43	0	597688320	10	4012
2026-01-26 12:00:52.13	144.78	17.68	-24.9	-26.0	16.8	0.00e+00	0	43	0	614465536	10	4115
2026-01-26 12:00:55.14	144.67	18.04	-24.9	-26.1	16.9	0.00e+00	0	43	0	631242752	10	4122
2026-01-26 12:00:58.16	144.55	18.41	-24.6	-25.4	17.2	0.00e+00	0	43	0	648019968	10	3970
2026-01-26 12:01:01.16	144.43	18.77	-24.5	-25.3	17.3	0.00e+00	0	43	0	664797184	10	3928
2026-01-26 12:01:04.17	144.31	19.15	-24.3	-24.9	17.5	0.00e+00	0	43	0	681574400	10	3832
2026-01-26 12:01:07.18	144.18	19.53	-24.3	-24.8	17.6	0.00e+00	0	43	0	699400192	10	3820
2026-01-26 12:01:10.20	144.05	19.92	-24.4	-24.9	17.6	0.00e+00	0	43	0	716177408	10	3841
2026-01-26 12:01:13.22	143.92	20.31	-24.5	-25.2	17.4	0.00e+00	0	43	0	732954624	10	3909
2026-01-26 12:01:16.23	143.78	20.71	-24.3	-25.3	17.7	0.00e+00	0	43	0	749731840	9	4038
2026-01-26 12:01:19.23	143.64	21.11	-24.1	-24.9	17.9	0.00e+00	0	44	0	766509056	9	3944
2026-01-26 12:01:22.24	143.50	21.52	-24.1	-24.9	17.9	0.00e+00	0	43	0	783286272	9	3952
2026-01-26 12:01:25.25	143.35	21.94	-24.0	-24.6	18.1	0.00e+00	0	43	0	800063488	9	3865
2026-01-26 12:01:28.26	143.20	22.36	-23.8	-24.3	18.3	0.00e+00	0	43	0	817889280	9	3790
2026-01-26 12:01:31.25	143.04	22.79	-23.8	-24.8	18.3	0.00e+00	0	44	0	834666496	8	4018
2026-01-26 12:01:34.25	142.88	23.22	-23.8	-24.8	18.3	0.00e+00	0	44	0	851443712	8	4019
2026-01-26 12:01:37.26	142.71	23.67	-23.8	-24.8	18.3	0.00e+00	0	43	0	868220928	8	4020
2026-01-26 12:01:40.27	142.54	24.12	-23.8	-24.8	18.3	0.00e+00	0	43	0	884998144	8	4023
2026-01-26 12:01:43.28	142.36	24.58	-23.7	-24.4	18.5	0.00e+00	0	44	0	901775360	8	3932
2026-01-26 12:01:46.29	142.18	25.05	-23.5	-24.1	18.7	0.00e+00	0	44	0	918552576	8	3848
2026-01-26 12:01:49.29	141.99	25.52	-23.5	-24.0	18.8	0.00e+00	0	44	0	935329792	8	3830
2026-01-26 12:01:52.30	141.80	26.01	-23.3	-24.1	19.0	0.00e+00	0	44	0	953155584	7	3956
2026-01-26 12:01:55.29	141.60	26.50	-23.3	-24.1	18.9	0.00e+00	0	44	0	969932800	7	3958
2026-01-26 12:01:58.29	141.39	27.00	-23.5	-24.7	18.7	0.00e+00	0	44	0	986710016	7	4099
2026-01-26 12:02:01.30	141.18	27.51	-23.4	-24.5	18.8	0.00e+00	0	44	0	1003487232	7	4048
2026-01-26 12:02:04.32	140.95	28.03	-23.2	-23.9	19.1	0.00e+00	0	44	0	1020264448	7	3903
2026-01-26 12:02:07.33	140.72	28.56	-23.1	-23.6	19.3	0.00e+00	0	44	0	1037041664	7	3846
2026-01-26 12:02:10.34	140.48	29.09	-22.9	-23.3	19.5	0.00e+00	0	43	0	1053818880	7	3775
2026-01-26 12:02:13.34	140.24	29.64	-22.8	-23.1	19.6	0.00e+00	0	44	0	1070596096	7	3718
2026-01-26 12:02:16.36	139.98	30.20	-22.9	-23.8	19.5	0.00e+00	0	44	0	1088421888	6	3983
2026-01-26 12:02:19.38	139.72	30.77	-23.0	-24.0	19.4	0.00e+00	0	44	0	1105199104	6	4035
2026-01-26 12:02:22.39	139.44	31.35	-23.0	-24.0	19.4	0.00e+00	0	44	0	1121976320	6	4048
2026-01-26 12:02:25.40	139.16	31.94	-22.6	-23.2	19.8	0.00e+00	0	44	0	1138753536	6	3844
2026-01-26 12:02:28.40	138.86	32.54	-22.8	-23.6	19.6	0.00e+00	0	44	0	1155530752	6	3962
2026-01-26 12:02:31.40	138.56	33.15	-22.8	-23.6	19.6	0.00e+00	0	44	0	1172307968	6	3946
2026-01-26 12:02:34.42	138.24	33.78	-22.7	-23.5	19.7	0.00e+00	0	44	0	1189085184	6	3931
2026-01-26 12:02:37.42	137.91	34.41	-22.7	-23.4	19.7	0.00e+00	0	44	0	1206910976	6	3893
2026-01-26 12:02:40.44	137.56	35.07	-22.8	-23.5	19.7	0.00e+00	0	44	0	1223688192	6	3934
2026-01-26 12:02:43.44	137.20	35.72	-23.0	-24.0	19.5	0.00e+00	0	44	0	1240465408	6	4037
2026-01-26 12:02:46.45	136.82	36.40	-22.7	-23.4	19.8	0.00e+00	0	44	0	1257242624	6	3903
2026-01-26 12:02:49.45	136.43	37.08	-22.6	-23.2	19.9	0.00e+00	0	44	0	1274019840	6	3852
2026-01-26 12:02:52.46	136.02	37.78	-22.8	-23.6	19.7	0.00e+00	0	44	0	1290797056	6	3937
2026-01-26 12:02:55.48	135.59	38.49	-22.7	-23.4	19.8	0.00e+00	0	44	0	1308622848	6	3890
2026-01-26 12:02:58.50	135.14	39.22	-22.6	-23.2	19.9	0.00e+00	0	44	0	1325400064	6	3855
2026-01-26 12:03:01.51	134.67	39.96	-22.7	-23.3	19.9	0.00e+00	0	44	0	1342177280	6	3864
2026-01-26 12:03:04.52	134.18	40.71	-23.3	-24.7	19.2	0.00e+00	0	44	0	1358954496	6	4214
2026-01-26 12:03:07.53	133.67	41.48	-23.0	-24.0	19.6	0.00e+00	0	44	0	1375731712	6	4039
2026-01-26 12:03:10.54	133.13	42.26	-23.2	-24.5	19.3	0.00e+00	0	44	0	1392508928	6	4153
2026-01-26 12:03:13.55	132.56	43.05	-23.4	-24.8	19.2	0.00e+00	0	44	0	1409286144	6	4240
2026-01-26 12:03:16.55	131.96	43.85	-23.7	-24.9	18.9	0.00e+00	0	44	0	1426063360	7	4165
2026-01-26 12:03:19.55	131.33	44.67	-23.4	-24.3	19.2	0.00e+00	0	44	0	1443889152	7	3996
2026-01-26 12:03:22.56	130.67	45.50	-23.3	-24.2	19.3	0.00e+00	0	44	0	1460666368	7	3979
2026-01-26 12:03:25.58	129.97	46.35	-23.2	-23.9	19.5	0.00e+00	0	44	0	1477443584	7	3891
2026-01-26 12:03:28.58	129.23	47.20	-23.1	-23.7	19.6	0.00e+00	0	44	0	1494220800	7	3845
2026-01-26 12:03:31.59	128.45	48.07	-23.4	-24.3	19.3	0.00e+00	0	44	0	1510998016	7	3988
2026-01-26 12:03:34.60	127.62	48.96	-23.6	-24.7	19.1	0.00e+00	0	44	0	1527775232	7	4093
2026-01-26 12:03:37.61	126.75	49.85	-23.9	-24.8	18.8	0.00e+00	0	44	0	1544552448	8	4015
2026-01-26 12:03:40.62	125.81	50.75	-24.6	-25.8	18.1	0.00e+00	0	44	0	1562378240	9	4145
2026-01-26 12:03:43.63	124.82	51.66	-23.8	-24.5	19.0	0.00e+00	0	44	0	1579155456	8	3939
2026-01-26 12:03:46.64	123.77	52.58	-24.0	-25.2	18.7	0.00e+00	0	44	0	1595932672	8	4097
2026-01-26 12:03:49.64	122.65	53.50	-23.9	-24.7	18.9	0.00e+00	0	44	0	1612709888	8	3985
2026-01-26 12:03:52.64	121.46	54.43	-24.0	-25.1	18.8	0.00e+00	0	44	0	1629487104	8	4072
2026-01-26 12:03:55.65	120.19	55.36	-23.9	-24.9	18.8	0.00e+00	0	44	0	1646264320	8	4030
2026-01-26 12:03:58.65	118.83	56.30	-23.7	-24.3	19.2	0.00e+00	0	44	0	1663041536	8	3886
2026-01-26 12:04:01.67	117.36	57.23	-23.5	-24.0	19.3	0.00e+00	0	44	0	1679818752	8	3811
2026-01-26 12:04:04.68	115.80	58.16	-23.7	-24.4	19.1	0.00e+00	0	44	0	1697644544	8	3918
2026-01-26 12:04:07.69	114.12	59.09	-23.7	-24.4	19.1	0.00e+00	0	44	0	1714421760	8	3917
2026-01-26 12:04:10.71	112.32	60.00	-23.5	-24.1	19.3	0.00e+00	0	44	0	1731198976	8	3830
2026-01-26 12:04:13.73	110.38	60.90	-23.3	-23.6	19.6	0.00e+00	0	44	0	1747976192	8	3721
2026-01-26 12:04:16.75	108.30	61.78	-23.1	-23.7	19.7	0.00e+00	0	44	0	1764753408	7	3857
2026-01-26 12:04:19.77	106.07	62.64	-23.0	-23.5	19.9	0.00e+00	0	44	0	1782579200	7	3798
2026-01-26 12:04:22.78	103.69	63.47	-22.4	-22.7	20.5	0.00e+00	0	44	0	1799356416	6	3722
2026-01-26 12:04:25.78	101.14	64.25	-22.2	-22.8	20.7	0.00e+00	0	44	0	1816133632	5	3851
2026-01-26 12:04:28.79	98.40	65.00	-21.9	-22.3	21.0	0.00e+00	0	44	0	1832910848	5	3730
2026-01-26 12:04:31.81	95.48	65.71	-22.3	-23.1	20.6	0.00e+00	0	44	0	1849688064	5	3924
2026-01-26 12:04:34.81	92.39	66.35	-21.8	-22.5	21.0	0.00e+00	0	44	0	1866465280	4	3901
2026-01-26 12:04:37.82	89.10	66.94	-21.8	-22.4	21.1	0.00e+00	0	44	0	1884291072	4	3862
2026-01-26 12:04:40.82	85.66	67.45	-21.9	-22.7	21.0	0.00e+00	0	44	0	1900019712	4	3933
2026-01-26 12:04:43.83	82.03	67.89	-22.0	-22.9	20.8	0.00e+00	0	44	0	1917845504	4	4002
2026-01-26 12:04:46.84	78.27	68.24	-21.8	-22.5	21.1	0.00e+00	0	44	0	1934622720	4	3905
2026-01-26 12:04:49.85	74.38	68.51	-21.9	-22.6	21.2	0.00e+00	0	44	0	1951399936	4	3904
2026-01-26 12:04:52.85	70.43	68.68	-21.7	-22.3	21.4	0.00e+00	0	44	0	1968177152	4	3826
2026-01-26 12:04:55.85	66.42	68.75	-21.9	-22.5	21.2	0.00e+00	0	44	0	1984954368	4	3888
2026-01-26 12:04:58.85	62.40	68.73	-21.9	-22.6	21.2	0.00e+00	0	44	0	2001731584	4	3909
2026-01-26 12:05:01.87	58.39	68.61	-21.9	-22.7	21.2	0.00e+00	0	44	0	2019557376	4	3934
2026-01-26 12:05:04.89	54.44	68.40	-21.8	-22.3	21.4	0.00e+00	0	44	0	2036334592	4	3847
2026-01-26 12:05:07.89	50.62	68.10	-21.7	-22.2	21.4	0.00e+00	0	44	0	2053111808	4	3817
2026-01-26 12:05:10.91	46.90	67.70	-21.9	-22.6	21.2	0.00e+00	0	44	0	2069889024	4	3916
2026-01-26 12:05:13.91	43.36	67.23	-22.3	-23.4	20.8	0.00e+00	0	44	0	2086666240	4	4107
2026-01-26 12:05:16.91	39.99	66.69	-22.2	-22.8	20.9	0.00e+00	0	44	0	2103443456	5	3850
2026-01-26 12:05:19.92	36.79	66.08	-22.2	-22.7	21.0	0.00e+00	0	44	0	2120220672	5	3815
2026-01-26 12:05:22.93	33.78	65.41	-22.4	-23.1	20.7	0.00e+00	0	44	0	2138046464	5	3912
2026-01-26 12:05:25.93	30.95	64.69	-22.2	-22.8	20.9	0.00e+00	0	44	0	2154823680	5	3841
2026-01-26 12:05:28.94	28.30	63.92	-22.2	-22.8	20.9	0.00e+00	0	44	0	2171600896	5	3833
2026-01-26 12:05:31.94	25.83	63.12	-22.4	-23.2	20.7	0.00e+00	0	44	0	2188378112	5	3939
2026-01-26 12:05:34.96	23.51	62.28	-23.0	-24.3	20.1	0.00e+00	0	44	0	2205155328	5	4210
2026-01-26 12:05:37.97	21.36	61.41	-23.3	-24.4	19.8	0.00e+00	0	44	0	2221932544	6	4126
2026-01-26 12:05:40.99	19.35	60.52	-23.1	-24.2	20.0	0.00e+00	0	44	0	2238709760	6	4065
2026-01-26 12:05:43.98	17.49	59.63	-23.4	-24.7	19.7	0.00e+00	0	44	0	2255486976	6	4192
2026-01-26 12:05:47.00	15.74	58.71	-22.9	-23.6	20.3	0.00e+00	0	44	0	2273312768	6	3922
2026-01-26 12:05:50.02	14.11	57.78	-23.5	-24.5	19.5	0.00e+00	0	44	0	2290089984	7	4027
2026-01-26 12:05:53.03	12.60	56.85	-23.8	-25.0	19.3	0.00e+00	0	44	0	2306867200	7	4161
2026-01-26 12:05:56.04	11.18	55.92	-23.6	-24.8	19.4	0.00e+00	0	44	0	2323644416	7	4090
2026-01-26 12:05:59.05	9.86	54.99	-23.6	-24.8	19.4	0.00e+00	0	44	0	2340421632	7	4091
2026-01-26 12:06:02.05	8.62	54.06	-23.3	-24.0	19.8	0.00e+00	0	44	0	2357198848	7	3896
2026-01-26 12:06:05.05	7.47	53.14	-23.4	-24.1	19.7	0.00e+00	0	44	0	2373976064	7	3933
2026-01-26 12:06:08.07	6.37	52.22	-23.9	-25.2	19.1	0.00e+00	0	44	0	2391801856	7	4205
2026-01-26 12:06:11.09	5.35	51.30	-23.9	-25.2	19.1	0.00e+00	0	44	0	2408579072	7	4199
2026-01-26 12:06:14.09	4.39	50.40	-23.5	-24.4	19.5	0.00e+00	0	44	0	2425356288	7	3988
2026-01-26 12:06:17.10	3.48	49.51	-23.2	-23.8	19.9	0.00e+00	0	44	0	2442133504	7	3848
2026-01-26 12:06:20.10	2.63	48.62	-23.0	-23.3	20.1	0.00e+00	0	44	0	2458910720	7	3746
2026-01-26 12:06:23.11	1.82	47.75	-23.1	-23.5	19.9	0.00e+00	0	44	0	2475687936	7	3792
2026-01-26 12:06:26.12	1.06	46.89	-23.1	-23.6	19.9	0.00e+00	0	44	0	2493513728	7	3823
2026-01-26 12:06:29.14	0.34	46.04	-23.0	-23.4	20.0	0.00e+00	0	44	0	2510290944	7	3771
2026-01-26 12:06:32.13	359.66	45.20	-22.8	-23.0	20.2	0.00e+00	0	44	0	2527068160	7	3672
2026-01-26 12:06:35.13	359.02	44.38	-23.2	-23.8	19.7	0.00e+00	0	44	0	2543845376	7	3872
2026-01-26 12:06:38.13	358.40	43.57	-22.9	-23.3	20.0	0.00e+00	0	44	0	2560622592	7	3738
2026-01-26 12:06:41.14	357.82	42.78	-23.1	-23.6	19.8	0.00e+00	0	44	0	2577399808	7	3827
2026-01-26 12:06:44.16	357.26	41.99	-22.9	-23.2	20.0	0.00e+00	0	44	0	2594177024	7	3735
2026-01-26 12:06:47.16	356.74	41.22	-22.9	-23.2	20.0	0.00e+00	0	44	0	2610954240	7	3733
2026-01-26 12:06:50.17	356.23	40.46	-22.4	-22.7	20.5	0.00e+00	0	44	0	2627731456	6	3720
2026-01-26 12:06:53.18	355.75	39.72	-22.4	-22.8	20.4	0.00e+00	0	44	0	2645557248	6	3730
2026-01-26 12:06:56.19	355.29	38.99	-22.4	-22.6	20.5	0.00e+00	0	44	0	2662334464	6	3706
2026-01-26 12:06:59.20	354.86	38.27	-22.2	-22.8	20.6	0.00e+00	0	44	0	2679111680	5	3847
2026-01-26 12:07:02.20	354.44	37.57	-22.1	-22.6	20.7	0.00e+00	0	44	0	2695888896	5	3796
2026-01-26 12:07:05.21	354.04	36.88	-22.3	-23.1	20.5	0.00e+00	0	44	0	2712666112	5	3909
2026-01-26 12:07:08.23	353.65	36.20	-22.5	-23.3	20.4	0.00e+00	0	44	0	2729443328	5	3970
2026-01-26 12:07:11.23	353.28	35.54	-22.7	-23.8	20.1	0.00e+00	0	44	0	2747269120	5	4080
2026-01-26 12:07:14.23	352.93	34.88	-22.9	-24.1	19.9	0.00e+00	0	44	0	2764046336	5	4170
2026-01-26 12:07:17.24	352.59	34.24	-22.9	-24.2	19.9	0.00e+00	0	44	0	2780823552	5	4189
2026-01-26 12:07:20.25	352.27	33.61	-23.1	-24.0	19.8	0.00e+00	0	44	0	2797600768	6	4025
2026-01-26 12:07:23.26	351.96	33.00	-22.9	-23.7	19.9	0.00e+00	0	44	0	2814377984	6	3940
2026-01-26 12:07:26.27	351.65	32.39	-22.8	-23.6	20.0	0.00e+00	0	44	0	2831155200	6	3914
2026-01-26 12:07:29.28	351.36	31.80	-22.9	-23.8	19.9	0.00e+00	0	44	0	2847932416	6	3967
2026-01-26 12:07:32.30	351.08	31.21	-23.1	-24.2	19.6	0.00e+00	0	44	0	2864709632	6	4078
2026-01-26 12:07:35.31	350.82	30.64	-23.2	-24.4	19.6	0.00e+00	0	44	0	2882535424	6	4106
2026-01-26 12:07:38.31	350.56	30.07	-23.1	-24.1	19.7	0.00e+00	0	44	0	2899312640	6	4039
2026-01-26 12:07:41.31	350.31	29.52	-23.0	-23.9	19.8	0.00e+00	0	44	0	2916089856	6	3996
2026-01-26 12:07:44.33	350.07	28.98	-23.1	-24.1	19.7	0.00e+00	0	44	0	2932867072	6	4040
2026-01-26 12:07:47.34	349.83	28.45	-23.2	-24.3	19.6	0.00e+00	0	44	0	2949644288	6	4101
2026-01-26 12:07:50.35	349.61	27.92	-23.1	-24.1	19.7	0.00e+00	0	44	0	2966421504	6	4043
2026-01-26 12:07:53.35	349.39	27.41	-23.1	-24.1	19.6	0.00e+00	0	44	0	2983198720	6	4045
2026-01-26 12:07:56.37	349.18	26.90	-23.1	-24.2	19.6	0.00e+00	0	44	0	3001024512	6	4067
2026-01-26 12:07:59.39	348.98	26.41	-23.2	-24.3	19.5	0.00e+00	0	44	0	3017801728	6	4094
2026-01-26 12:08:02.38	348.78	25.92	-23.3	-24.5	19.4	0.00e+00	0	44	0	3034578944	6	4143
2026-01-26 12:08:05.40	348.59	25.44	-23.4	-24.7	19.3	0.00e+00	0	44	0	3051356160	6	4208
2026-01-26 12:08:08.41	348.41	24.97	-23.4	-24.7	19.2	0.00e+00	0	44	0	3068133376	6	4211
2026-01-26 12:08:11.42	348.23	24.51	-23.4	-24.8	19.2	0.00e+00	0	44	0	3084910592	6	4233
2026-01-26 12:08:14.42	348.05	24.05	-23.8	-25.0	18.8	0.00e+00	0	44	0	3101687808	7	4169
2026-01-26 12:08:17.42	347.89	23.61	-23.6	-24.6	19.0	0.00e+00	0	44	0	3118465024	7	4063
2026-01-26 12:08:20.42	347.72	23.17	-23.7	-24.8	18.9	0.00e+00	0	44	0	3135242240	7	4111
2026-01-26 12:08:23.43	347.57	22.73	-23.7	-24.9	18.8	0.00e+00	0	44	0	3153068032	7	4139
2026-01-26 12:08:26.46	347.41	22.30	-23.8	-25.2	18.7	0.00e+00	0	44	0	3169845248	7	4197
2026-01-26 12:08:29.47	347.26	21.88	-23.9	-25.3	18.6	0.00e+00	0	44	0	3186622464	7	4240
2026-01-26 12:08:32.47	347.12	21.47	-24.0	-25.1	18.5	0.00e+00	0	44	0	3203399680	8	4070
2026-01-26 12:08:35.48	346.98	21.07	-24.1	-25.1	18.4	0.00e+00	0	44	0	3220176896	8	4076
2026-01-26 12:08:38.49	346.84	20.67	-24.1	-25.2	18.4	0.00e+00	0	44	0	3238002688	8	4090
2026-01-26 12:08:41.50	346.71	20.27	-24.1	-25.2	18.4	0.00e+00	0	44	0	3254779904	8	4102
2026-01-26 12:08:44.51	346.58	19.88	-24.1	-25.3	18.3	0.00e+00	0	44	0	3271557120	8	4105
2026-01-26 12:08:47.52	346.45	19.50	-24.2	-25.5	18.2	0.00e+00	0	44	0	3288334336	8	4169
2026-01-26 12:08:50.53	346.33	19.13	-24.3	-25.6	18.1	0.00e+00	0	44	0	3305111552	8	4199
2026-01-26 12:08:53.55	346.21	18.75	-24.4	-25.9	18.0	0.00e+00	0	44	0	3321888768	8	4277
2026-01-26 12:08:56.56	346.09	18.39	-24.7	-26.0	17.6	0.00e+00	0	44	0	3338665984	9	4196
2026-01-26 12:08:59.57	345.98	18.03	-25.1	-26.4	17.2	0.00e+00	0	44	0	3355443200	10	4172
2026-01-26 12:09:02.57	345.87	17.67	-25.0	-26.3	17.2	0.00e+00	0	44	0	3373268992	10	4154
2026-01-26 12:09:05.58	345.76	17.32	-25.3	-26.8	16.9	0.00e+00	0	44	0	3390046208	10	4298
2026-01-26 12:09:08.58	345.66	16.98	-24.9	-25.4	17.4	0.00e+00	0	44	0	3406823424	11	3836
2026-01-26 12:09:11.60	345.55	16.64	-24.9	-25.9	17.4	0.00e+00	0	44	0	3423600640	10	4047
2026-01-26 12:09:14.60	345.46	16.30	-25.0	-26.1	17.2	0.00e+00	0	44	0	3440377856	10	4098
2026-01-26 12:09:17.60	345.36	15.97	-25.0	-26.1	17.2	0.00e+00	0	44	0	3457155072	10	4101
2026-01-26 12:09:20.60	345.26	15.64	-25.1	-26.5	17.0	0.00e+00	0	44	0	3473932288	10	4207
2026-01-26 12:09:23.61	345.17	15.32	-25.3	-26.8	16.8	0.00e+00	0	44	0	3490709504	10	4281
2026-01-26 12:09:26.63	345.08	15.00	-25.3	-26.8	16.8	1.10e-06	0	44	0	3508535296	10	4283
2026-01-26 12:09:29.63	344.99	14.69	-25.4	-27.0	16.7	0.00e+00	0	44	0	3525312512	10	4346
2026-01-26 12:09:32.64	344.91	14.37	-25.4	-26.6	16.6	0.00e+00	0	44	0	3542089728	11	4129
2026-01-26 12:09:35.64	344.82	14.07	-25.7	-27.2	16.3	0.00e+00	0	44	0	3558866944	11	4284
2026-01-26 12:09:38.65	344.74	13.77	-25.6	-26.9	16.4	0.00e+00	0	44	0	3575644160	11	4208
2026-01-26 12:09:41.66	344.66	13.47	-25.6	-27.0	16.3	0.00e+00	0	44	0	3592421376	11	4230
2026-01-26 12:09:44.68	344.58	13.17	-25.6	-27.0	16.3	0.00e+00	0	44	0	3610247168	11	4231
2026-01-26 12:09:47.69	344.51	12.88	-25.8	-27.4	16.1	0.00e+00	0	44	0	3627024384	11	4337
2026-01-26 12:09:50.71	344.43	12.59	-25.7	-27.3	16.1	0.00e+00	0	44	0	3643801600	11	4306
2026-01-26 12:09:53.71	344.36	12.30	-25.8	-27.4	16.1	0.00e+00	0	44	0	3660578816	11	4325
2026-01-26 12:09:56.73	344.29	12.02	-25.9	-27.6	15.9	0.00e+00	0	44	0	3677356032	11	4389
2026-01-26 12:09:59.74	344.22	11.74	-25.9	-27.7	15.9	0.00e+00	0	44	0	3694133248	11	4406
2026-01-26 12:10:02.76	344.15	11.46	-26.0	-27.3	15.7	0.00e+00	0	44	0	3710910464	12	4211
2026-01-26 12:10:05.77	344.08	11.19	-26.0	-27.5	15.6	0.00e+00	0	44	0	3728736256	12	4244
2026-01-26 12:10:08.76	344.02	10.92	-26.1	-27.5	15.5	0.00e+00	0	44	0	3745513472	12	4266
2026-01-26 12:10:11.77	343.95	10.65	-26.3	-28.0	15.2	0.00e+00	0	44	0	3762290688	12	4399
2026-01-26 12:10:14.78	343.89	10.39	-26.4	-28.3	15.1	1.10e-06	0	44	0	3779067904	12	4481
2026-01-26 12:10:17.80	343.83	10.12	-26.5	-28.1	14.9	1.10e-06	0	44	0	3795845120	13	4321
2026-01-26 12:10:20.82	343.77	9.86	-26.4	-27.7	15.1	0.00e+00	0	44	0	3812622336	13	4220
2026-01-26 12:10:23.83	343.71	9.61	-26.1	-27.2	15.4	0.00e+00	0	44	0	3830448128	13	4075
2026-01-26 12:10:26.85	343.65	9.35	-26.5	-28.1	14.8	0.00e+00	0	44	0	3847225344	13	4311
2026-01-26 12:10:29.85	343.60	9.10	-26.4	-27.8	15.0	0.00e+00	0	44	0	3864002560	13	4236
2026-01-26 12:10:32.86	343.54	8.85	-26.6	-28.2	14.7	0.00e+00	0	44	0	3880779776	13	4350
2026-01-26 12:10:35.87	343.49	8.61	-26.6	-28.3	14.7	0.00e+00	0	44	0	3897556992	13	4376
2026-01-26 12:10:38.88	343.43	8.36	-26.5	-28.1	14.8	0.00e+00	0	44	0	3914334208	13	4314
2026-01-26 12:10:41.90	343.38	8.12	-26.8	-28.4	14.3	0.00e+00	0	44	0	3932160000	14	4294
2026-01-26 12:10:44.90	343.33	7.88	-27.1	-29.0	13.8	0.00e+00	0	44	0	3948937216	14	4484
2026-01-26 12:10:47.92	343.28	7.65	-27.2	-29.3	13.7	2.20e-06	0	44	0	3965714432	14	4565
2026-01-26 12:10:50.91	343.23	7.41	-26.9	-28.5	14.1	4.50e-06	0	44	0	3982491648	14	4337
2026-01-26 12:10:53.93	343.19	7.18	-27.0	-28.8	13.9	1.10e-06	0	44	0	3999268864	14	4427

#Closed at: 2026-01-26 12:10:56
#Recorded file [4008 MB]: D:/data/31010_260126_145902.dat