passes_logs/2026/01/26/R2M6_AANII_01/R2M6_AANII_01__20260126_122806_AQUA_rec.log

#Pass ID: 20260126_122806_AQUA
#Satellite: AQUA
#Configuration: AQUA
#almurnet v.1.7.20240730
#Start time: 2026-01-26 12:28:08

#Version: 2.2.20231116
#Station: R2M6_AANII_01
#Location: 30.233357 lon 59.946436 lat
#TLE: 1 27424U 02022A   26025.63222646  .00001891  00000+0  38818-3 0  9990
#TLE: 2 27424  98.4099 352.2393 0001892  65.6900 348.5270 14.61859542262445

#Time	Az	El	Level	Level2	SNR	BER	BlckErr	Temp	State	Recorded	gain1	gain2
2026-01-26 12:28:08.07	173.56	7.11	-31.0	-37.1	5.2	7.12e-01	0	42	0	0	22	7298
2026-01-26 12:28:11.09	173.65	7.35	-31.7	-38.5	12.6	6.08e-01	0	42	0	1572864	24	7850
2026-01-26 12:28:14.10	173.75	7.60	-30.9	-35.0	15.4	6.05e-01	0	42	0	7340032	24	5803
2026-01-26 12:28:17.11	173.85	7.85	-30.1	-33.4	17.2	6.08e-01	0	42	0	13107200	22	5284
2026-01-26 12:28:20.13	173.95	8.11	-29.8	-33.0	17.9	6.06e-01	0	43	0	18874368	21	5182
2026-01-26 12:28:23.13	174.05	8.36	-30.1	-33.7	17.5	6.07e-01	0	42	0	24117248	21	5468
2026-01-26 12:28:26.14	174.16	8.62	-29.9	-33.2	17.9	6.07e-01	0	43	0	29884416	21	5248
2026-01-26 12:28:29.14	174.26	8.89	-30.0	-33.5	17.7	6.07e-01	0	43	0	35651584	21	5392
2026-01-26 12:28:32.14	174.37	9.15	-30.0	-33.4	17.8	6.05e-01	0	43	0	41418752	21	5328
2026-01-26 12:28:35.14	174.48	9.42	-29.8	-32.8	18.3	6.07e-01	0	43	0	46661632	21	5105
2026-01-26 12:28:38.15	174.59	9.69	-29.7	-32.6	18.4	6.05e-01	0	43	0	52428800	21	5028
2026-01-26 12:28:41.16	174.70	9.97	-29.8	-32.9	18.2	6.06e-01	0	43	0	58195968	21	5113
2026-01-26 12:28:44.17	174.82	10.25	-29.7	-32.6	18.4	6.05e-01	0	43	0	63438848	21	5031
2026-01-26 12:28:47.17	174.94	10.53	-29.7	-32.5	18.5	6.06e-01	0	43	0	69206016	21	4966
2026-01-26 12:28:50.18	175.06	10.81	-29.8	-32.7	18.4	6.07e-01	0	43	0	74973184	21	5050
2026-01-26 12:28:53.19	175.18	11.10	-29.5	-32.0	18.8	6.07e-01	0	43	0	80740352	21	4812
2026-01-26 12:28:56.20	175.31	11.40	-29.6	-32.7	18.8	6.06e-01	0	43	0	86507520	20	5152
2026-01-26 12:28:59.20	175.43	11.69	-29.4	-32.2	19.0	6.06e-01	0	43	0	91750400	20	4979
2026-01-26 12:29:02.20	175.56	11.99	-29.5	-32.5	18.9	6.06e-01	0	43	0	97517568	20	5074
2026-01-26 12:29:05.20	175.69	12.30	-29.6	-32.7	18.8	6.06e-01	0	43	0	103284736	20	5172
2026-01-26 12:29:08.21	175.83	12.61	-29.7	-32.9	18.6	6.04e-01	0	43	0	108527616	20	5242
2026-01-26 12:29:11.23	175.97	12.92	-29.5	-32.4	19.0	6.08e-01	0	43	0	114294784	20	5040
2026-01-26 12:29:14.22	176.11	13.24	-29.4	-32.1	19.2	6.07e-01	0	43	0	120061952	20	4952
2026-01-26 12:29:17.23	176.26	13.56	-29.3	-31.8	19.4	6.07e-01	0	44	0	125829120	20	4845
2026-01-26 12:29:20.23	176.40	13.88	-29.3	-32.0	19.3	6.06e-01	0	43	0	131596288	20	4892
2026-01-26 12:29:23.23	176.55	14.22	-29.2	-31.5	19.6	6.06e-01	0	44	0	136839168	20	4731
2026-01-26 12:29:26.24	176.71	14.55	-29.2	-31.7	19.5	6.06e-01	0	44	0	142606336	20	4773
2026-01-26 12:29:29.25	176.87	14.89	-29.2	-31.7	19.6	6.08e-01	0	43	0	148373504	20	4796
2026-01-26 12:29:32.26	177.03	15.24	-29.2	-31.7	19.6	6.08e-01	0	44	0	153616384	20	4775
2026-01-26 12:29:35.26	177.19	15.59	-29.2	-31.7	19.6	6.08e-01	0	43	0	159383552	20	4798
2026-01-26 12:29:38.26	177.36	15.95	-29.2	-31.7	19.6	6.05e-01	0	44	0	165150720	20	4807
2026-01-26 12:29:41.27	177.54	16.31	-29.1	-31.5	19.7	6.07e-01	0	44	0	170917888	20	4748
2026-01-26 12:29:44.28	177.71	16.68	-29.0	-31.3	19.8	6.06e-01	0	44	0	176685056	20	4671
2026-01-26 12:29:47.29	177.90	17.06	-29.2	-31.6	19.6	6.06e-01	0	44	0	181927936	20	4795
2026-01-26 12:29:50.28	178.08	17.44	-29.1	-31.5	19.7	6.07e-01	0	44	0	187695104	20	4743
2026-01-26 12:29:53.28	178.27	17.83	-29.0	-31.4	19.8	6.06e-01	0	44	0	193462272	20	4714
2026-01-26 12:29:56.28	178.47	18.22	-29.1	-31.6	19.7	6.06e-01	0	44	0	198705152	20	4792
2026-01-26 12:29:59.30	178.67	18.62	-28.9	-31.1	19.9	6.07e-01	0	44	0	204472320	20	4651
2026-01-26 12:30:02.30	178.88	19.03	-28.9	-31.2	19.9	6.08e-01	0	44	0	210239488	20	4696
2026-01-26 12:30:05.32	179.09	19.45	-28.9	-31.2	19.9	6.07e-01	0	44	0	216006656	20	4669
2026-01-26 12:30:08.33	179.31	19.87	-29.0	-31.2	20.0	6.06e-01	0	44	0	221773824	20	4636
2026-01-26 12:30:11.34	179.54	20.30	-29.0	-31.0	20.2	6.05e-01	0	44	0	227016704	20	4556
2026-01-26 12:30:14.35	179.77	20.74	-29.0	-31.1	20.1	6.05e-01	0	44	0	232783872	20	4616
2026-01-26 12:30:17.36	180.01	21.19	-29.4	-32.4	19.8	6.08e-01	0	44	0	238551040	19	5100
2026-01-26 12:30:20.37	180.26	21.64	-29.3	-32.3	19.9	6.07e-01	0	44	0	244318208	19	5049
2026-01-26 12:30:23.38	180.51	22.11	-29.3	-32.2	20.0	6.06e-01	0	44	0	249561088	19	5012
2026-01-26 12:30:26.40	180.77	22.58	-29.5	-32.6	19.8	6.05e-01	0	44	0	255328256	19	5145
2026-01-26 12:30:29.40	181.04	23.06	-29.5	-32.6	19.8	6.07e-01	0	44	0	261095424	19	5154
2026-01-26 12:30:32.41	181.32	23.55	-29.4	-32.4	19.9	6.05e-01	0	44	0	266862592	19	5085
2026-01-26 12:30:35.40	181.60	24.05	-29.4	-32.0	19.8	6.04e-01	0	44	0	272105472	20	4829
2026-01-26 12:30:38.41	181.90	24.56	-29.4	-31.8	19.9	6.05e-01	0	44	0	277872640	20	4768
2026-01-26 12:30:41.42	182.21	25.08	-29.3	-31.6	20.1	6.04e-01	0	44	0	283639808	20	4692
2026-01-26 12:30:44.42	182.52	25.61	-29.4	-31.9	19.9	6.06e-01	0	44	0	289406976	20	4809
2026-01-26 12:30:47.43	182.85	26.15	-29.3	-31.6	20.1	6.06e-01	0	44	0	294649856	20	4693
2026-01-26 12:30:50.44	183.19	26.71	-29.4	-31.7	20.0	6.07e-01	0	44	0	300417024	20	4740
2026-01-26 12:30:53.46	183.54	27.27	-29.2	-31.3	20.3	6.06e-01	0	44	0	306184192	20	4595
2026-01-26 12:30:56.48	183.90	27.85	-29.1	-31.0	20.5	6.08e-01	0	44	0	311951360	20	4509
2026-01-26 12:30:59.48	184.28	28.44	-29.1	-31.0	20.5	6.04e-01	0	44	0	317718528	20	4504
2026-01-26 12:31:02.48	184.67	29.04	-29.0	-30.7	20.7	6.07e-01	0	44	0	322961408	20	4407
2026-01-26 12:31:05.48	185.08	29.65	-29.1	-31.1	20.5	6.06e-01	0	44	0	328728576	20	4537
2026-01-26 12:31:08.50	185.50	30.28	-29.2	-31.2	20.4	6.04e-01	0	44	0	334495744	20	4569
2026-01-26 12:31:11.51	185.94	30.92	-29.0	-31.4	20.7	6.06e-01	0	44	0	339738624	19	4716
2026-01-26 12:31:14.52	186.40	31.57	-29.4	-32.2	20.2	6.06e-01	0	44	0	345505792	19	4980
2026-01-26 12:31:17.52	186.87	32.23	-29.5	-32.4	20.1	6.07e-01	0	44	0	351272960	19	5076
2026-01-26 12:31:20.53	187.37	32.92	-29.6	-32.7	20.0	6.06e-01	0	44	0	357040128	19	5173
2026-01-26 12:31:23.55	187.89	33.61	-29.6	-32.4	19.8	6.05e-01	0	44	0	362807296	20	4957
2026-01-26 12:31:26.55	188.43	34.32	-29.8	-32.8	19.5	6.05e-01	0	44	0	368050176	20	5106
2026-01-26 12:31:29.56	189.00	35.05	-29.8	-32.8	19.6	6.07e-01	0	44	0	373817344	20	5074
2026-01-26 12:31:32.57	189.59	35.79	-30.0	-33.5	19.2	6.07e-01	0	44	0	379584512	20	5355
2026-01-26 12:31:35.57	190.21	36.54	-30.2	-33.3	19.0	6.05e-01	0	44	0	384827392	21	5175
2026-01-26 12:31:38.59	190.86	37.31	-30.1	-32.6	19.2	6.07e-01	0	44	0	390594560	22	4782
2026-01-26 12:31:41.61	191.54	38.10	-30.5	-33.6	18.5	6.06e-01	0	44	0	396361728	22	5169
2026-01-26 12:31:44.62	192.26	38.90	-30.3	-33.2	18.8	6.07e-01	0	44	0	402128896	22	5005
2026-01-26 12:31:47.63	193.01	39.72	-28.6	-32.7	17.6	6.09e-01	0	44	0	407896064	19	5772
2026-01-26 12:31:50.63	193.80	40.54	-28.3	-32.6	17.9	6.08e-01	0	44	0	413138944	18	5903
2026-01-26 12:31:53.64	194.63	41.39	-29.7	-32.5	19.8	6.05e-01	0	44	0	418906112	20	4981
2026-01-26 12:31:56.65	195.51	42.25	-30.0	-32.7	19.4	6.06e-01	0	44	0	424673280	21	4918
2026-01-26 12:31:59.65	196.43	43.12	-29.7	-32.0	19.9	6.06e-01	0	44	0	430440448	21	4697
2026-01-26 12:32:02.65	197.41	44.00	-29.5	-31.6	20.1	6.05e-01	0	44	0	435683328	21	4555
2026-01-26 12:32:05.66	198.44	44.90	-29.1	-31.1	20.7	6.05e-01	0	44	0	441450496	20	4504
2026-01-26 12:32:08.67	199.54	45.81	-28.8	-30.8	21.2	6.06e-01	0	44	0	447217664	19	4518
2026-01-26 12:32:11.67	200.70	46.72	-28.8	-30.7	21.3	6.05e-01	0	44	0	452984832	19	4502
2026-01-26 12:32:14.68	201.93	47.65	-28.7	-30.6	21.4	6.08e-01	0	44	0	458227712	19	4439
2026-01-26 12:32:17.70	203.24	48.58	-29.0	-31.2	21.1	6.06e-01	0	44	0	463994880	19	4643
2026-01-26 12:32:20.69	204.62	49.51	-28.9	-30.9	21.3	6.05e-01	0	44	0	469762048	19	4539
2026-01-26 12:32:23.69	206.09	50.45	-28.9	-31.1	21.2	6.07e-01	0	44	0	475529216	19	4591
2026-01-26 12:32:26.69	207.66	51.38	-28.9	-31.0	21.2	6.04e-01	0	44	0	480772096	19	4583
2026-01-26 12:32:29.70	209.33	52.32	-29.1	-31.4	21.0	6.08e-01	0	44	0	486539264	19	4686
2026-01-26 12:32:32.70	211.10	53.24	-28.7	-30.6	21.4	6.06e-01	0	44	0	492306432	19	4435
2026-01-26 12:32:35.70	212.99	54.15	-28.7	-30.4	21.6	6.05e-01	0	44	0	498073600	19	4387
2026-01-26 12:32:38.71	215.01	55.05	-29.1	-31.3	21.1	6.05e-01	0	44	0	503316480	19	4663
2026-01-26 12:32:41.73	217.17	55.93	-29.7	-32.3	20.3	6.05e-01	0	44	0	509083648	20	4867
2026-01-26 12:32:44.75	219.46	56.78	-30.0	-33.2	19.7	6.06e-01	0	44	0	514850816	20	5200
2026-01-26 12:32:47.74	221.88	57.59	-30.5	-33.9	19.0	6.04e-01	0	44	0	520617984	21	5349
2026-01-26 12:32:50.75	224.46	58.37	-30.6	-33.8	18.8	6.07e-01	0	44	0	525860864	22	5189
2026-01-26 12:32:53.74	227.16	59.10	-30.8	-34.1	18.5	6.07e-01	0	44	0	531628032	22	5311
2026-01-26 12:32:56.75	230.04	59.77	-30.9	-34.5	18.4	6.06e-01	0	44	0	537395200	22	5433
2026-01-26 12:32:59.76	233.06	60.39	-31.0	-34.9	18.1	6.05e-01	0	44	0	543162368	22	5642
2026-01-26 12:33:02.78	236.24	60.94	-31.1	-34.4	18.1	6.06e-01	0	44	0	548405248	23	5309
2026-01-26 12:33:05.79	239.54	61.42	-31.2	-34.8	17.8	6.06e-01	0	44	0	554172416	23	5435
2026-01-26 12:33:08.81	242.96	61.81	-31.0	-34.2	18.3	6.04e-01	0	44	0	559939584	23	5207
2026-01-26 12:33:11.81	246.46	62.12	-31.1	-34.6	18.0	6.07e-01	0	44	0	565706752	23	5367
2026-01-26 12:33:14.81	250.04	62.33	-31.4	-35.4	17.5	6.06e-01	0	44	0	570949632	23	5698
2026-01-26 12:33:17.82	253.67	62.45	-31.2	-34.9	17.9	6.05e-01	0	44	0	576716800	23	5475
2026-01-26 12:33:20.83	257.33	62.47	-31.3	-35.0	17.7	6.06e-01	0	44	0	582483968	23	5527
2026-01-26 12:33:23.85	260.99	62.40	-31.5	-35.6	17.4	6.06e-01	0	44	0	588251136	23	5800
2026-01-26 12:33:26.84	264.58	62.23	-31.4	-35.4	17.6	6.06e-01	0	44	0	593494016	23	5696
2026-01-26 12:33:29.86	268.14	61.96	-31.3	-34.9	17.9	6.05e-01	0	44	0	599261184	23	5480
2026-01-26 12:33:32.88	271.61	61.61	-31.3	-35.0	17.8	6.07e-01	0	44	0	605028352	23	5518
2026-01-26 12:33:35.87	274.94	61.18	-31.5	-35.8	17.3	6.07e-01	0	44	0	610795520	23	5881
2026-01-26 12:33:38.88	278.16	60.66	-31.4	-35.5	17.5	6.05e-01	0	44	0	616562688	23	5739
2026-01-26 12:33:41.89	281.25	60.08	-31.3	-35.5	17.3	6.06e-01	0	44	0	621805568	23	5824
2026-01-26 12:33:44.90	284.19	59.43	-30.7	-33.4	18.8	6.04e-01	0	44	0	627572736	23	4926
2026-01-26 12:33:47.90	286.98	58.72	-30.4	-32.6	19.3	6.05e-01	0	44	0	633339904	23	4632
2026-01-26 12:33:50.90	289.61	57.97	-30.7	-33.5	18.8	6.06e-01	0	44	0	638582784	23	4955
2026-01-26 12:33:53.90	292.10	57.18	-30.8	-42.9	3.8	7.45e-01	0	44	104	643301376	23	14526
2026-01-26 12:33:56.92	294.46	56.34	-30.9	-43.0	3.8	7.45e-01	0	44	104	643301376	23	14641
2026-01-26 12:33:59.93	296.67	55.48	-30.5	-42.2	3.8	7.46e-01	0	44	104	643301376	23	13926
2026-01-26 12:34:02.95	298.75	54.59	-30.5	-42.0	3.8	7.43e-01	0	44	104	643301376	23	13505
2026-01-26 12:34:05.95	300.70	53.69	-30.5	-42.9	3.8	7.45e-01	0	44	104	643301376	22	15028
2026-01-26 12:34:08.95	302.52	52.78	-31.1	-43.6	3.8	7.42e-01	0	44	104	643301376	23	15156
2026-01-26 12:34:11.97	304.25	51.85	-32.3	-45.9	3.8	7.47e-01	0	44	104	643301376	25	17349
2026-01-26 12:34:14.97	305.85	50.92	-33.3	-48.1	3.8	7.45e-01	0	44	104	643301376	27	19944
2026-01-26 12:34:17.98	307.37	49.98	-33.7	-50.0	3.8	7.42e-01	0	44	104	643301376	28	23587
2026-01-26 12:34:20.99	308.80	49.05	-34.1	-51.9	3.8	7.46e-01	0	44	104	643301376	28	28222
2026-01-26 12:34:24.00	310.14	48.12	-34.1	-51.9	3.8	7.45e-01	0	44	104	643301376	28	28139
2026-01-26 12:34:27.01	311.40	47.19	-34.0	-51.7	3.8	7.44e-01	0	44	104	643301376	28	27497
2026-01-26 12:34:30.02	312.60	46.28	-33.6	-49.8	3.8	7.45e-01	0	44	104	643301376	28	23270
2026-01-26 12:34:33.03	313.72	45.37	-33.2	-47.7	3.8	7.45e-01	0	44	104	643301376	28	19113
2026-01-26 12:34:36.03	314.78	44.47	-32.6	-46.4	3.8	7.44e-01	0	44	104	643301376	27	17627
2026-01-26 12:34:39.05	315.78	43.58	-31.6	-44.2	3.8	7.47e-01	0	44	104	643301376	25	15273
2026-01-26 12:34:42.07	316.73	42.70	-31.0	-43.1	3.8	7.43e-01	0	44	104	643301376	24	14425
2026-01-26 12:34:45.08	317.63	41.84	-31.0	-43.1	3.8	7.43e-01	0	44	104	643301376	24	14566
2026-01-26 12:34:48.09	318.49	41.00	-30.9	-43.0	3.8	7.44e-01	0	44	104	643301376	24	14511
2026-01-26 12:34:51.09	319.29	40.16	-30.7	-42.9	3.8	7.48e-01	0	44	104	643301376	23	14549
2026-01-26 12:34:54.10	320.06	39.35	-31.1	-43.6	3.8	7.46e-01	0	44	104	643301376	23	15082
2026-01-26 12:34:57.11	320.79	38.54	-31.9	-45.5	3.8	7.46e-01	0	44	104	643301376	24	17382
2026-01-26 12:35:00.11	321.49	37.76	-32.6	-46.8	3.8	7.47e-01	0	44	104	643301376	26	18470
2026-01-26 12:35:03.12	322.15	36.98	-33.2	-48.4	3.8	7.43e-01	0	44	104	643301376	27	20842
2026-01-26 12:35:06.13	322.78	36.22	-33.5	-49.7	3.8	7.46e-01	0	44	104	643301376	27	23089
2026-01-26 12:35:09.13	323.39	35.48	-33.8	-50.7	3.8	7.44e-01	0	44	104	643301376	28	25217
2026-01-26 12:35:12.13	323.96	34.76	-33.3	-48.4	3.8	7.45e-01	0	44	104	643301376	28	20443
2026-01-26 12:35:15.14	324.52	34.04	-33.4	-49.2	3.8	7.46e-01	0	44	104	643301376	28	22098
2026-01-26 12:35:18.16	325.05	33.34	-33.2	-48.3	3.8	7.47e-01	0	44	104	643301376	28	20482
2026-01-26 12:35:21.18	325.55	32.66	-32.9	-47.3	3.8	7.47e-01	0	44	104	643301376	27	18902
2026-01-26 12:35:24.19	326.04	31.99	-32.6	-46.5	3.8	7.44e-01	0	44	104	643301376	27	17845
2026-01-26 12:35:27.20	326.51	31.33	-31.3	-43.8	3.8	7.46e-01	0	44	104	643301376	24	15305
2026-01-26 12:35:30.21	326.96	30.69	-30.1	-41.6	3.8	7.43e-01	0	44	104	643301376	22	13552
2026-01-26 12:35:33.22	327.39	30.06	-30.0	-41.7	3.8	7.46e-01	0	44	104	643301376	22	13786
2026-01-26 12:35:36.24	327.80	29.44	-30.3	-42.3	3.8	7.44e-01	0	44	104	643301376	22	14327
2026-01-26 12:35:39.24	328.20	28.83	-30.0	-41.6	3.8	7.43e-01	0	44	104	643301376	22	13775
2026-01-26 12:35:42.25	328.59	28.24	-30.3	-42.4	3.8	7.44e-01	0	44	104	643301376	22	14454
2026-01-26 12:35:45.27	328.96	27.66	-31.3	-44.4	3.8	7.44e-01	0	44	104	643301376	23	16223
2026-01-26 12:35:48.28	329.32	27.09	-32.5	-47.2	3.8	7.46e-01	0	44	104	643301376	25	19400
2026-01-26 12:35:51.29	329.66	26.54	-33.2	-48.5	3.8	7.45e-01	0	44	104	643301376	27	21141
2026-01-26 12:35:54.30	329.99	25.99	-33.5	-49.9	3.8	7.45e-01	0	44	104	643301376	27	23902
2026-01-26 12:35:57.31	330.32	25.46	-33.6	-50.5	3.8	7.42e-01	0	44	104	643301376	28	25136
2026-01-26 12:36:00.32	330.63	24.94	-33.3	-48.9	3.8	7.44e-01	0	44	104	643301376	28	21597
2026-01-26 12:36:03.32	330.93	24.42	-33.3	-48.8	3.8	7.46e-01	0	44	104	643301376	28	21542
2026-01-26 12:36:06.33	331.22	23.92	-33.3	-48.9	3.8	7.43e-01	0	44	104	643301376	28	21619
2026-01-26 12:36:09.34	331.50	23.43	-33.0	-47.7	3.8	7.43e-01	0	44	104	643301376	28	19530
2026-01-26 12:36:12.34	331.78	22.95	-33.0	-47.4	3.8	7.44e-01	0	44	104	643301376	28	18926
2026-01-26 12:36:15.36	332.04	22.47	-32.6	-46.4	3.8	7.42e-01	0	44	104	643301376	27	17682
2026-01-26 12:36:18.38	332.30	22.00	-31.3	-43.9	3.8	7.44e-01	0	44	104	643301376	24	15273
2026-01-26 12:36:21.38	332.55	21.55	-30.7	-42.9	3.8	7.44e-01	0	44	104	643301376	23	14545
2026-01-26 12:36:24.39	332.80	21.10	-30.9	-43.4	3.8	7.46e-01	0	44	104	643301376	23	15254
2026-01-26 12:36:27.41	333.03	20.65	-31.4	-45.0	3.8	7.43e-01	0	44	104	643301376	23	17218
2026-01-26 12:36:30.42	333.26	20.22	-30.9	-43.6	3.8	7.43e-01	0	44	104	643301376	23	15473
2026-01-26 12:36:33.44	333.49	19.80	-31.6	-45.1	3.8	7.43e-01	0	44	104	643301376	24	16933
2026-01-26 12:36:36.44	333.70	19.38	-32.6	-47.8	3.8	7.45e-01	0	44	104	643301376	25	20656
2026-01-26 12:36:39.46	333.92	18.97	-33.3	-49.7	3.8	7.43e-01	0	44	104	643301376	27	23833
2026-01-26 12:36:42.47	334.12	18.56	-33.5	-50.5	3.8	7.45e-01	0	44	104	643301376	27	25446
2026-01-26 12:36:45.49	334.32	18.17	-33.5	-50.5	3.8	7.47e-01	0	44	104	643301376	27	25541
2026-01-26 12:36:48.51	334.52	17.78	-33.2	-49.1	3.8	7.47e-01	0	44	104	643301376	27	22435
2026-01-26 12:36:51.53	334.71	17.39	-33.0	-48.2	3.8	7.45e-01	0	44	104	643301376	27	20714
2026-01-26 12:36:54.53	334.90	17.01	-33.2	-49.2	3.8	7.43e-01	0	44	104	643301376	27	22725
2026-01-26 12:36:57.54	335.08	16.64	-33.0	-48.4	3.8	7.46e-01	0	44	104	643301376	27	21240
2026-01-26 12:37:00.54	335.26	16.28	-32.8	-47.7	3.8	7.45e-01	0	44	104	643301376	27	19899
2026-01-26 12:37:03.54	335.43	15.92	-32.9	-48.0	3.8	7.43e-01	0	44	104	643301376	27	20443
2026-01-26 12:37:06.55	335.60	15.57	-31.8	-45.3	3.8	7.45e-01	0	44	104	643301376	25	16891
2026-01-26 12:37:09.55	335.76	15.22	-30.7	-43.1	3.8	7.46e-01	0	44	104	643301376	23	15000
2026-01-26 12:37:12.57	335.93	14.88	-30.8	-43.2	3.8	7.47e-01	0	44	104	643301376	23	15065
2026-01-26 12:37:15.58	336.08	14.54	-31.7	-45.4	3.8	7.49e-01	0	44	104	643301376	24	17478
2026-01-26 12:37:18.61	336.24	14.20	-31.8	-45.3	3.8	7.46e-01	0	44	104	643301376	25	17021
2026-01-26 12:37:21.62	336.39	13.88	-31.9	-45.5	3.8	7.47e-01	0	44	104	643301376	25	17356
2026-01-26 12:37:24.63	336.54	13.55	-32.7	-47.8	3.9	7.41e-01	0	44	104	643301376	26	20633
2026-01-26 12:37:27.65	336.68	13.23	-33.0	-49.0	3.8	7.47e-01	0	44	104	643301376	27	22705
2026-01-26 12:37:30.67	336.83	12.92	-32.9	-48.4	3.8	7.43e-01	0	44	104	643301376	27	21440
2026-01-26 12:37:33.68	336.96	12.61	-33.1	-49.3	3.8	7.48e-01	0	44	104	643301376	27	23330
2026-01-26 12:37:36.69	337.10	12.30	-33.0	-48.9	3.8	7.44e-01	0	44	104	643301376	27	22377
2026-01-26 12:37:39.70	337.23	12.00	-32.8	-48.1	3.8	7.46e-01	0	44	104	643301376	27	20895
2026-01-26 12:37:42.71	337.37	11.70	-32.9	-48.3	3.8	7.45e-01	0	44	104	643301376	27	21253
2026-01-26 12:37:45.73	337.49	11.41	-33.1	-49.4	3.8	7.41e-01	0	44	104	643301376	27	23363
2026-01-26 12:37:48.73	337.62	11.12	-32.7	-47.7	3.8	7.45e-01	0	44	104	643301376	27	20196
2026-01-26 12:37:51.73	337.74	10.83	-32.6	-47.5	3.8	7.43e-01	0	44	104	643301376	27	19925
2026-01-26 12:37:54.74	337.86	10.55	-32.3	-47.2	3.8	7.43e-01	0	44	104	643301376	26	19906
2026-01-26 12:37:57.76	337.98	10.27	-31.6	-45.1	3.8	7.44e-01	0	44	104	643301376	25	16999
2026-01-26 12:38:00.76	338.10	9.99	-31.2	-44.2	3.8	7.42e-01	0	44	104	643301376	24	16045
2026-01-26 12:38:03.78	338.21	9.72	-32.0	-46.7	3.8	7.44e-01	0	44	104	643301376	24	19524
2026-01-26 12:38:06.78	338.33	9.45	-32.7	-48.5	3.8	7.47e-01	0	44	104	643301376	26	22147
2026-01-26 12:38:09.79	338.44	9.19	-32.4	-47.5	3.8	7.44e-01	0	44	104	643301376	26	20390
2026-01-26 12:38:12.79	338.55	8.92	-32.7	-48.6	3.8	7.43e-01	0	44	104	643301376	26	22532
2026-01-26 12:38:15.80	338.65	8.66	-32.9	-49.5	3.8	7.44e-01	0	44	104	643301376	26	24579
2026-01-26 12:38:18.81	338.76	8.41	-32.4	-47.2	3.8	7.44e-01	0	44	104	643301376	26	19800
2026-01-26 12:38:21.82	338.86	8.15	-32.6	-48.3	3.8	7.43e-01	0	44	104	643301376	26	21852
2026-01-26 12:38:24.84	338.96	7.90	-32.8	-49.4	3.8	7.44e-01	0	44	104	643301376	26	24213
2026-01-26 12:38:27.85	339.07	7.65	-32.7	-48.6	3.8	7.48e-01	0	44	104	643301376	26	22559
2026-01-26 12:38:30.86	339.16	7.40	-32.5	-47.8	3.8	7.43e-01	0	44	104	643301376	26	20794
2026-01-26 12:38:33.87	339.26	7.16	-32.7	-48.5	3.8	7.43e-01	0	44	104	643301376	26	22179

#Closed at: 2026-01-26 12:38:36
#Recorded file [643 MB]: D:/data/31010_260126_152809.dat