passes_logs/2026/01/26/R2M6_AANII_01/R2M6_AANII_01__20260126_020612_FENGYUN_3D_rec.log

#Pass ID: 20260126_020612_FENGYUN 3D
#Satellite: FENGYUN 3D
#Configuration: FENGYUN 3D
#almurnet v.1.7.20240730
#Start time: 2026-01-26 02:06:13

#Version: 2.2.20231116
#Station: R2M6_AANII_01
#Location: 30.233357 lon 59.946436 lat
#TLE: 1 43010U 17072A   26025.50461972  .00000046  00000+0  43592-4 0  9990
#TLE: 2 43010  98.9962 357.4844 0002523  89.7890 270.3575 14.19699798424744

#Time	Az	El	Level	Level2	SNR	BER	BlckErr	Temp	State	Recorded	gain1	gain2
2026-01-26 02:06:13.42	20.54	7.04	-28.9	-32.2	5.4	7.87e-01	0	41	0	0	17	5283
2026-01-26 02:06:16.43	20.61	7.27	-28.9	-32.2	10.2	9.75e-03	0	41	102	1048576	17	5278
2026-01-26 02:06:19.42	20.68	7.50	-28.9	-32.2	10.3	1.07e-02	0	42	102	1048576	17	5272
2026-01-26 02:06:22.44	20.75	7.74	-27.7	-30.1	12.1	4.77e-04	0	42	102	1048576	15	4749
2026-01-26 02:06:25.43	20.83	7.97	-26.9	-29.2	13.3	1.51e-03	0	42	102	1048576	13	4693
2026-01-26 02:06:28.44	20.90	8.21	-26.3	-28.4	14.1	1.31e-03	0	42	102	1048576	12	4563
2026-01-26 02:06:31.45	20.98	8.45	-26.2	-27.6	14.2	1.30e-03	0	42	102	1048576	13	4242
2026-01-26 02:06:34.46	21.05	8.70	-26.2	-28.2	14.3	0.00e+00	0	42	102	1048576	12	4510
2026-01-26 02:06:37.47	21.13	8.94	-26.1	-27.9	14.4	1.06e-03	0	42	102	1048576	12	4428
2026-01-26 02:06:40.48	21.21	9.19	-25.9	-27.4	14.7	1.10e-06	0	42	102	1048576	12	4278
2026-01-26 02:06:43.48	21.29	9.44	-25.8	-27.2	14.9	1.10e-06	0	42	102	1048576	12	4224
2026-01-26 02:06:46.49	21.37	9.69	-25.9	-27.5	14.7	1.10e-06	0	42	102	1048576	12	4299
2026-01-26 02:06:49.50	21.45	9.95	-25.9	-27.9	14.9	1.09e-03	0	42	102	1048576	11	4516
2026-01-26 02:06:52.51	21.53	10.21	-25.9	-27.8	15.0	0.00e+00	0	43	102	1048576	11	4487
2026-01-26 02:06:55.52	21.62	10.47	-25.8	-27.7	15.0	0.00e+00	0	43	102	1048576	11	4466
2026-01-26 02:06:58.53	21.70	10.73	-26.3	-28.4	14.3	3.40e-06	0	43	102	1048576	12	4546
2026-01-26 02:07:01.54	21.79	11.00	-25.8	-27.7	15.1	1.10e-06	0	43	102	1048576	11	4469
2026-01-26 02:07:04.56	21.88	11.27	-25.7	-27.5	15.2	1.10e-06	0	43	102	1048576	11	4403
2026-01-26 02:07:07.58	21.97	11.54	-25.9	-27.7	15.1	0.00e+00	0	43	102	1048576	11	4476
2026-01-26 02:07:10.59	22.06	11.82	-25.9	-27.9	15.0	0.00e+00	0	43	102	1048576	11	4511
2026-01-26 02:07:13.60	22.15	12.10	-25.8	-27.2	15.0	1.10e-06	0	43	102	1048576	12	4207
2026-01-26 02:07:16.61	22.24	12.38	-25.7	-27.5	15.3	0.00e+00	0	43	102	1048576	11	4391
2026-01-26 02:07:19.63	22.34	12.66	-26.0	-27.5	15.0	0.00e+00	0	43	102	1048576	12	4283
2026-01-26 02:07:22.64	22.44	12.95	-25.9	-27.8	15.1	0.00e+00	0	43	102	1048576	11	4479
2026-01-26 02:07:25.67	22.54	13.25	-26.1	-27.8	14.8	0.00e+00	0	43	102	1048576	12	4366
2026-01-26 02:07:28.67	22.64	13.54	-26.0	-28.0	15.0	0.00e+00	0	43	102	1048576	11	4547
2026-01-26 02:07:31.68	22.74	13.84	-26.0	-27.6	14.9	0.00e+00	0	43	102	1048576	12	4321
2026-01-26 02:07:34.70	22.84	14.14	-25.8	-27.6	15.3	0.00e+00	0	43	102	1048576	11	4425
2026-01-26 02:07:37.72	22.95	14.45	-25.7	-26.9	15.4	0.00e+00	0	43	102	1048576	12	4125
2026-01-26 02:07:40.73	23.06	14.76	-25.6	-27.0	15.6	0.00e+00	0	43	102	1048576	11	4269
2026-01-26 02:07:43.75	23.17	15.08	-25.8	-27.5	15.4	0.00e+00	0	43	102	1048576	11	4381
2026-01-26 02:07:46.76	23.28	15.40	-25.2	-26.2	16.2	1.10e-06	0	43	102	1048576	11	4037
2026-01-26 02:07:49.77	23.39	15.72	-25.2	-26.8	16.1	0.00e+00	0	43	102	1048576	10	4316
2026-01-26 02:07:52.78	23.51	16.04	-24.5	-25.2	17.0	0.00e+00	0	44	102	1048576	10	3904
2026-01-26 02:07:55.79	23.63	16.38	-24.6	-25.9	14.7	0.00e+00	0	43	102	1048576	9	4185
2026-01-26 02:07:58.81	23.75	16.71	-24.5	-25.8	16.9	0.00e+00	0	43	102	1048576	9	4158
2026-01-26 02:08:01.84	23.88	17.05	-24.4	-26.1	17.1	0.00e+00	0	44	102	1048576	8	4344
2026-01-26 02:08:04.84	24.00	17.40	-24.7	-25.7	16.8	0.00e+00	0	44	102	1048576	10	4021
2026-01-26 02:08:07.85	24.13	17.75	-24.2	-25.5	17.4	0.00e+00	0	44	102	1048576	8	4190
2026-01-26 02:08:10.87	24.26	18.10	-24.4	-25.5	17.1	3.72e-04	0	44	102	1048576	9	4090
2026-01-26 02:08:13.88	24.40	18.46	-24.2	-25.5	17.4	2.80e-04	0	44	102	1048576	8	4205
2026-01-26 02:08:16.88	24.53	18.83	-24.3	-25.8	17.2	2.64e-04	0	44	102	1048576	8	4279
2026-01-26 02:08:19.89	24.67	19.20	-24.2	-25.5	17.4	2.02e-04	0	44	102	1048576	8	4187
2026-01-26 02:08:22.90	24.82	19.57	-24.2	-25.6	17.4	1.65e-04	0	44	102	1048576	8	4219
2026-01-26 02:08:25.91	24.96	19.96	-24.2	-25.6	17.4	1.77e-04	0	44	102	1048576	8	4221
2026-01-26 02:08:28.93	25.11	20.34	-23.7	-24.4	18.0	1.65e-04	0	44	102	1048576	8	3922
2026-01-26 02:08:31.95	25.27	20.74	-23.5	-24.6	18.1	2.20e-04	0	44	102	1048576	7	4082
2026-01-26 02:08:34.97	25.43	21.14	-23.6	-24.8	18.0	0.00e+00	0	44	102	1048576	7	4137
2026-01-26 02:08:37.98	25.59	21.54	-23.4	-24.3	18.3	0.00e+00	0	44	102	1048576	7	4010
2026-01-26 02:08:40.99	25.75	21.96	-23.4	-24.4	18.2	2.53e-04	0	44	102	1048576	7	4043
2026-01-26 02:08:44.01	25.92	22.38	-23.4	-24.3	18.4	0.00e+00	0	44	102	1048576	7	4012
2026-01-26 02:08:47.02	26.10	22.80	-23.4	-24.2	18.4	0.00e+00	0	44	102	1048576	7	3986
2026-01-26 02:08:50.03	26.27	23.23	-23.3	-24.7	18.4	0.00e+00	0	44	102	1048576	6	4223
2026-01-26 02:08:53.05	26.46	23.68	-23.1	-24.2	18.6	0.00e+00	0	44	102	1048576	6	4085
2026-01-26 02:08:56.06	26.65	24.12	-22.9	-23.8	18.8	0.00e+00	0	44	102	1048576	6	4006
2026-01-26 02:08:59.08	26.84	24.58	-22.9	-23.8	18.9	0.00e+00	0	44	102	1048576	6	3998
2026-01-26 02:09:02.11	27.04	25.04	-22.8	-23.6	19.0	0.00e+00	0	44	102	1048576	6	3952
2026-01-26 02:09:05.11	27.24	25.51	-22.4	-22.8	19.2	0.00e+00	0	44	102	1048576	6	3757
2026-01-26 02:09:08.13	27.45	25.99	-22.6	-23.1	19.4	0.00e+00	0	44	102	1048576	6	3814
2026-01-26 02:09:11.14	27.67	26.48	-22.5	-22.9	19.5	0.00e+00	0	44	102	1048576	6	3780
2026-01-26 02:09:14.15	27.89	26.97	-22.6	-23.1	19.4	0.00e+00	0	44	102	1048576	6	3812
2026-01-26 02:09:17.16	28.12	27.48	-22.7	-23.3	19.3	0.00e+00	0	44	102	1048576	6	3881
2026-01-26 02:09:20.17	28.35	27.99	-22.6	-23.0	19.4	6.98e-05	0	44	102	1048576	6	3810
2026-01-26 02:09:23.19	28.60	28.52	-22.3	-22.6	19.7	8.81e-05	0	44	102	1048576	6	3710
2026-01-26 02:09:26.21	28.85	29.05	-22.5	-22.9	19.4	0.00e+00	0	44	102	1048576	6	3765
2026-01-26 02:09:29.21	29.11	29.59	-22.7	-23.4	19.3	1.51e-04	0	44	102	1048576	6	3892
2026-01-26 02:09:32.22	29.38	30.14	-22.8	-23.6	19.2	7.66e-05	0	44	102	1048576	6	3933
2026-01-26 02:09:35.22	29.65	30.70	-22.7	-23.4	19.3	9.10e-06	0	44	102	1048576	6	3891
2026-01-26 02:09:38.23	29.94	31.27	-22.5	-23.0	19.5	3.77e-05	0	44	102	1048576	6	3805
2026-01-26 02:09:41.26	30.23	31.86	-22.3	-23.1	19.7	0.00e+00	0	44	102	1048576	5	3922
2026-01-26 02:09:44.26	30.54	32.45	-22.7	-23.8	19.4	0.00e+00	0	44	102	1048576	5	4087
2026-01-26 02:09:47.27	30.86	33.06	-22.8	-24.1	19.2	1.97e-04	0	44	102	1048576	5	4185
2026-01-26 02:09:50.29	31.19	33.68	-22.9	-24.2	19.2	2.09e-04	0	44	102	1048576	5	4189
2026-01-26 02:09:53.30	31.53	34.30	-22.5	-23.5	19.6	0.00e+00	0	44	102	1048576	5	4016
2026-01-26 02:09:56.31	31.88	34.94	-22.6	-23.7	19.4	8.46e-05	0	44	102	1048576	5	4085
2026-01-26 02:09:59.33	32.25	35.60	-22.2	-22.8	19.9	1.22e-04	0	44	102	1048576	5	3853
2026-01-26 02:10:02.34	32.63	36.26	-22.1	-23.1	20.0	0.00e+00	0	44	102	1048576	4	4048
2026-01-26 02:10:05.36	33.03	36.94	-21.9	-22.6	20.3	0.00e+00	0	44	102	1048576	4	3919
2026-01-26 02:10:08.38	33.45	37.63	-22.1	-23.2	20.0	2.57e-04	0	44	102	1048576	4	4059
2026-01-26 02:10:11.40	33.88	38.34	-22.0	-23.0	20.1	0.00e+00	0	44	102	1048576	4	4010
2026-01-26 02:10:14.40	34.33	39.05	-22.0	-22.9	20.1	0.00e+00	0	44	102	1048576	4	4001
2026-01-26 02:10:17.41	34.81	39.78	-22.5	-23.5	19.6	0.00e+00	0	44	102	1048576	5	4020
2026-01-26 02:10:20.43	35.30	40.53	-22.2	-22.9	20.0	0.00e+00	0	44	102	1048576	5	3879
2026-01-26 02:10:23.45	35.82	41.29	-22.2	-22.7	20.0	0.00e+00	0	44	102	1048576	5	3839
2026-01-26 02:10:26.46	36.36	42.06	-22.2	-22.9	20.0	0.00e+00	0	44	102	1048576	5	3871
2026-01-26 02:10:29.47	36.92	42.84	-22.6	-23.7	19.5	0.00e+00	0	44	102	1048576	5	4076
2026-01-26 02:10:32.48	37.52	43.64	-22.1	-22.6	20.1	0.00e+00	0	44	102	1048576	5	3816
2026-01-26 02:10:35.50	38.14	44.45	-22.7	-23.9	19.5	0.00e+00	0	44	102	1048576	5	4110
2026-01-26 02:10:38.51	38.80	45.28	-22.8	-24.1	19.4	0.00e+00	0	44	102	1048576	5	4179
2026-01-26 02:10:41.53	39.49	46.12	-22.7	-23.8	19.6	0.00e+00	0	44	102	1048576	5	4095
2026-01-26 02:10:44.54	40.22	46.97	-22.8	-24.2	19.4	0.00e+00	0	44	102	1048576	5	4187
2026-01-26 02:10:47.55	40.99	47.83	-23.1	-24.2	19.1	0.00e+00	0	44	102	1048576	6	4078
2026-01-26 02:10:50.56	41.80	48.70	-23.1	-24.1	19.2	0.00e+00	0	44	102	1048576	6	4056
2026-01-26 02:10:53.58	42.66	49.59	-23.1	-24.2	19.2	4.16e-04	0	44	102	1048576	6	4080
2026-01-26 02:10:56.59	43.57	50.49	-22.9	-23.7	19.4	3.66e-05	0	44	102	1048576	6	3961
2026-01-26 02:10:59.60	44.54	51.39	-22.9	-23.7	19.4	1.59e-04	0	44	102	1048576	6	3968
2026-01-26 02:11:02.60	45.56	52.31	-23.0	-23.9	19.4	0.00e+00	0	44	102	1048576	6	3995
2026-01-26 02:11:05.61	46.65	53.23	-23.4	-24.7	18.9	2.46e-04	0	44	102	1048576	6	4217
2026-01-26 02:11:08.63	47.82	54.16	-23.6	-24.7	18.7	2.86e-04	0	44	102	1048576	7	4098
2026-01-26 02:11:11.64	49.05	55.10	-23.3	-24.1	19.1	0.00e+00	0	44	102	1048576	7	3929
2026-01-26 02:11:14.66	50.38	56.04	-24.1	-25.2	18.3	4.05e-04	0	44	102	1048576	8	4098
2026-01-26 02:11:17.67	51.80	56.97	-23.3	-24.1	19.1	6.43e-04	0	44	102	1048576	7	3934
2026-01-26 02:11:20.68	53.31	57.91	-23.4	-24.2	19.0	0.00e+00	0	44	102	1048576	7	3976
2026-01-26 02:11:23.70	54.94	58.84	-23.1	-24.2	19.3	0.00e+00	0	44	102	1048576	6	4067
2026-01-26 02:11:26.70	56.67	59.76	-22.8	-23.5	19.7	1.15e-04	0	44	102	1048576	6	3902
2026-01-26 02:11:29.71	58.53	60.67	-22.6	-23.1	19.9	0.00e+00	0	44	102	1048576	6	3821
2026-01-26 02:11:32.73	60.54	61.57	-22.3	-23.0	20.2	0.00e+00	0	44	102	1048576	5	3893
2026-01-26 02:11:35.74	62.69	62.44	-22.0	-22.3	20.5	0.00e+00	0	44	102	1048576	5	3744
2026-01-26 02:11:38.75	65.00	63.29	-22.7	-23.8	19.8	2.20e-06	0	44	102	1048576	5	4106
2026-01-26 02:11:41.76	67.48	64.11	-22.2	-22.9	20.3	0.00e+00	0	44	102	1048576	5	3870
2026-01-26 02:11:44.78	70.14	64.90	-21.9	-22.6	20.7	3.40e-06	0	44	102	1048576	4	3912
2026-01-26 02:11:47.80	72.99	65.64	-21.7	-22.2	20.9	0.00e+00	0	44	102	1048576	4	3820
2026-01-26 02:11:50.82	76.02	66.33	-21.5	-22.3	21.1	3.40e-06	0	44	102	1048576	3	3957
2026-01-26 02:11:53.82	79.23	66.95	-22.2	-23.2	20.4	1.10e-06	0	44	102	1048576	4	4062
2026-01-26 02:11:56.83	82.64	67.52	-21.7	-22.1	20.9	0.00e+00	0	44	102	1048576	4	3806
2026-01-26 02:11:59.83	86.21	68.01	-21.7	-22.4	20.6	0.00e+00	0	44	102	1048576	4	3879
2026-01-26 02:12:02.85	89.97	68.42	-21.8	-22.6	20.5	0.00e+00	0	44	102	1048576	4	3930
2026-01-26 02:12:05.85	93.84	68.74	-22.1	-23.1	20.3	0.00e+00	0	44	102	1048576	4	4052
2026-01-26 02:12:08.86	97.84	68.98	-22.1	-23.1	20.3	0.00e+00	0	44	102	1048576	4	4056
2026-01-26 02:12:11.86	101.91	69.11	-22.0	-22.8	20.4	0.00e+00	0	44	102	1048576	4	3987
2026-01-26 02:12:14.87	106.02	69.15	-23.0	-23.9	19.4	0.00e+00	0	44	102	1048576	6	4028
2026-01-26 02:12:17.89	110.14	69.09	-21.8	-22.4	20.6	0.00e+00	0	44	102	1048576	4	3892
2026-01-26 02:12:20.89	114.19	68.93	-21.8	-22.4	20.6	0.00e+00	0	44	102	1048576	4	3885
2026-01-26 02:12:23.92	118.19	68.68	-21.9	-22.8	20.4	0.00e+00	0	44	102	1048576	4	3965
2026-01-26 02:12:26.93	122.05	68.33	-21.8	-22.5	20.5	0.00e+00	0	44	102	1048576	4	3915
2026-01-26 02:12:29.94	125.77	67.90	-21.6	-22.1	20.7	0.00e+00	0	44	102	1048576	4	3818
2026-01-26 02:12:32.95	129.32	67.39	-22.0	-22.9	20.4	0.00e+00	0	44	102	1048576	4	4006
2026-01-26 02:12:35.96	132.68	66.81	-21.7	-22.3	20.7	0.00e+00	0	44	102	1048576	4	3858
2026-01-26 02:12:38.98	135.87	66.17	-21.9	-22.7	20.5	0.00e+00	0	44	102	1048576	4	3942
2026-01-26 02:12:41.99	138.86	65.46	-22.1	-23.1	20.3	0.00e+00	0	44	102	1048576	4	4036
2026-01-26 02:12:45.01	141.66	64.71	-22.2	-23.4	20.1	0.00e+00	0	44	102	1048576	4	4142
2026-01-26 02:12:48.01	144.27	63.92	-21.9	-22.8	20.5	0.00e+00	0	44	102	1048576	4	3971
2026-01-26 02:12:51.03	146.72	63.09	-22.2	-23.3	20.2	1.64e-04	0	44	102	1048576	4	4084
2026-01-26 02:12:54.05	149.00	62.23	-22.7	-23.9	19.7	1.10e-06	0	44	102	1048576	5	4121
2026-01-26 02:12:57.06	151.12	61.35	-22.5	-23.4	19.8	0.00e+00	0	44	102	1048576	5	4009
2026-01-26 02:13:00.08	153.09	60.44	-23.0	-24.1	19.3	0.00e+00	0	44	102	1048576	6	4059
2026-01-26 02:13:03.10	154.94	59.52	-23.3	-24.7	19.0	3.40e-06	0	44	102	1048576	6	4216
2026-01-26 02:13:06.10	156.64	58.60	-23.0	-23.9	19.4	1.02e-05	0	44	102	1048576	6	4009
2026-01-26 02:13:09.10	158.23	57.67	-23.3	-24.6	19.0	0.00e+00	0	44	102	1048576	6	4197
2026-01-26 02:13:12.11	159.72	56.73	-23.2	-24.5	19.0	0.00e+00	0	44	102	1048576	6	4175
2026-01-26 02:13:15.12	161.12	55.79	-23.4	-24.4	18.8	0.00e+00	0	44	102	1048576	7	4041
2026-01-26 02:13:18.13	162.42	54.85	-23.4	-24.4	18.9	0.00e+00	0	44	102	1048576	7	4031
2026-01-26 02:13:21.15	163.65	53.91	-23.3	-24.2	18.9	0.00e+00	0	44	102	1048576	7	3981
2026-01-26 02:13:24.15	164.79	52.98	-23.6	-24.8	18.6	0.00e+00	0	44	102	1048576	7	4132
2026-01-26 02:13:27.17	165.87	52.05	-23.5	-24.6	18.7	0.00e+00	0	44	102	1048576	7	4086
2026-01-26 02:13:30.17	166.88	51.14	-24.2	-25.1	18.0	0.00e+00	0	44	102	1048576	9	3978
2026-01-26 02:13:33.18	167.83	50.23	-23.7	-24.6	18.5	0.00e+00	0	44	102	1048576	8	3965
2026-01-26 02:13:36.19	168.73	49.34	-22.9	-23.2	19.4	0.00e+00	0	44	102	1048576	7	3757
2026-01-26 02:13:39.19	169.57	48.45	-23.0	-24.1	19.2	0.00e+00	0	44	102	1048576	6	4071
2026-01-26 02:13:42.20	170.37	47.58	-22.7	-23.3	19.5	0.00e+00	0	44	102	1048576	6	3884
2026-01-26 02:13:45.22	171.14	46.71	-22.7	-23.4	19.4	0.00e+00	0	44	102	1048576	6	3906
2026-01-26 02:13:48.23	171.86	45.86	-22.7	-23.4	19.4	0.00e+00	0	44	102	1048576	6	3910
2026-01-26 02:13:51.23	172.54	45.03	-22.8	-23.6	19.4	0.00e+00	0	44	102	1048576	6	3938
2026-01-26 02:13:54.26	173.19	44.20	-22.6	-23.2	19.5	0.00e+00	0	44	102	1048576	6	3863
2026-01-26 02:13:57.27	173.81	43.39	-22.1	-22.7	20.0	0.00e+00	0	44	102	1048576	5	3839
2026-01-26 02:14:00.28	174.39	42.59	-21.9	-22.2	20.2	0.00e+00	0	44	102	1048576	5	3737
2026-01-26 02:14:03.29	174.95	41.81	-21.9	-22.8	20.1	0.00e+00	0	44	102	1048576	4	3975
2026-01-26 02:14:06.31	175.49	41.03	-21.9	-22.7	20.2	0.00e+00	0	44	102	1048576	4	3949
2026-01-26 02:14:09.32	176.00	40.28	-21.9	-22.7	20.2	4.50e-06	0	44	102	1048576	4	3960
2026-01-26 02:14:12.33	176.49	39.53	-21.9	-22.8	20.1	0.00e+00	0	44	102	1048576	4	3993
2026-01-26 02:14:15.34	176.95	38.80	-21.8	-22.6	20.2	0.00e+00	0	44	102	1048576	4	3948
2026-01-26 02:14:18.35	177.40	38.09	-21.8	-22.6	20.2	0.00e+00	0	44	102	1048576	4	3930
2026-01-26 02:14:21.36	177.83	37.38	-22.2	-23.4	19.8	6.40e-05	0	44	102	1048576	4	4123
2026-01-26 02:14:24.37	178.24	36.69	-22.1	-23.2	19.9	7.66e-05	0	44	102	1048576	4	4070
2026-01-26 02:14:27.38	178.63	36.02	-21.9	-22.7	20.1	5.73e-04	0	44	102	1048576	4	3949
2026-01-26 02:14:30.38	179.01	35.36	-21.9	-22.7	20.1	6.99e-04	0	44	102	1048576	4	3963
2026-01-26 02:14:33.41	179.37	34.70	-22.1	-23.1	19.9	6.75e-04	0	44	102	1048576	4	4070
2026-01-26 02:14:36.41	179.72	34.06	-22.2	-23.3	19.8	6.58e-04	0	44	102	1048576	4	4114
2026-01-26 02:14:39.43	180.06	33.43	-22.2	-23.3	19.8	8.19e-04	0	44	102	1048576	4	4104
2026-01-26 02:14:42.44	180.39	32.81	-22.2	-23.5	19.7	8.06e-04	0	44	102	1048576	4	4150
2026-01-26 02:14:45.46	180.70	32.21	-22.3	-23.5	19.6	0.00e+00	0	44	102	1048576	4	4171
2026-01-26 02:14:48.46	181.00	31.62	-22.4	-23.8	19.4	6.41e-04	0	44	102	1048576	4	4238
2026-01-26 02:14:51.48	181.30	31.03	-22.7	-23.9	19.2	6.34e-04	0	44	102	1048576	5	4151
2026-01-26 02:14:54.50	181.58	30.46	-22.4	-23.3	19.5	0.00e+00	0	44	102	1048576	5	3998
2026-01-26 02:14:57.52	181.86	29.89	-22.2	-23.0	19.6	0.00e+00	0	44	102	1048576	5	3917
2026-01-26 02:15:00.52	182.12	29.34	-22.1	-23.2	19.8	5.96e-04	0	44	102	1048576	4	4086
2026-01-26 02:15:03.55	182.38	28.80	-22.2	-23.3	19.7	0.00e+00	0	44	102	1048576	4	4113
2026-01-26 02:15:06.56	182.62	28.27	-22.2	-23.4	19.6	0.00e+00	0	44	102	1048576	4	4140
2026-01-26 02:15:09.57	182.86	27.75	-22.5	-24.0	19.3	0.00e+00	0	44	102	1048576	4	4281
2026-01-26 02:15:12.58	183.10	27.23	-22.5	-23.5	19.3	0.00e+00	0	44	102	1048576	5	4050
2026-01-26 02:15:15.59	183.32	26.73	-22.6	-23.7	19.2	0.00e+00	0	44	102	1048576	5	4105
2026-01-26 02:15:18.60	183.54	26.23	-22.6	-23.7	19.2	0.00e+00	0	44	102	1048576	5	4097
2026-01-26 02:15:21.60	183.75	25.75	-22.7	-24.0	19.1	0.00e+00	0	44	102	1048576	5	4161
2026-01-26 02:15:24.62	183.96	25.27	-22.9	-24.3	18.9	0.00e+00	0	44	102	1048576	5	4242
2026-01-26 02:15:27.64	184.16	24.80	-23.0	-24.5	18.8	0.00e+00	0	44	102	1048576	5	4297
2026-01-26 02:15:30.66	184.36	24.33	-23.0	-24.1	18.7	3.40e-06	0	44	102	1048576	6	4093
2026-01-26 02:15:33.66	184.55	23.88	-23.2	-24.5	18.5	6.80e-06	0	44	102	1048576	6	4188
2026-01-26 02:15:36.67	184.73	23.43	-23.3	-24.8	18.5	9.10e-06	0	44	102	1048576	6	4244
2026-01-26 02:15:39.69	184.92	22.99	-23.2	-24.6	18.5	8.00e-06	0	44	102	1048576	6	4193
2026-01-26 02:15:42.71	185.09	22.56	-23.1	-24.3	18.7	9.10e-06	0	44	102	1048576	6	4134
2026-01-26 02:15:45.72	185.26	22.13	-22.7	-23.8	15.6	0.00e+00	0	44	102	1048576	6	4079
2026-01-26 02:15:48.73	185.43	21.72	-23.3	-24.8	17.2	0.00e+00	0	44	102	1048576	6	4252
2026-01-26 02:15:51.75	185.59	21.30	-23.2	-24.5	18.5	3.40e-06	0	44	102	1048576	6	4191
2026-01-26 02:15:54.77	185.75	20.90	-23.5	-25.1	18.2	6.83e-04	0	44	102	1048576	6	4342
2026-01-26 02:15:57.80	185.91	20.49	-23.7	-25.0	18.0	0.00e+00	0	44	102	1048576	7	4204
2026-01-26 02:16:00.81	186.06	20.10	-23.7	-25.1	18.0	0.00e+00	0	44	102	1048576	7	4213
2026-01-26 02:16:03.83	186.21	19.71	-23.8	-25.4	17.8	6.16e-04	0	44	102	1048576	7	4292
2026-01-26 02:16:06.85	186.35	19.33	-23.8	-25.3	17.9	5.46e-04	0	44	102	1048576	7	4281
2026-01-26 02:16:09.86	186.49	18.95	-23.8	-24.9	17.9	5.61e-04	0	44	102	1048576	8	4050
2026-01-26 02:16:12.87	186.63	18.58	-23.9	-25.0	17.8	6.16e-04	0	44	102	1048576	8	4087
2026-01-26 02:16:15.89	186.76	18.22	-23.9	-25.0	17.8	4.55e-04	0	44	102	1048576	8	4072
2026-01-26 02:16:18.90	186.90	17.86	-24.0	-25.1	17.7	4.57e-04	0	44	102	1048576	8	4103
2026-01-26 02:16:21.93	187.03	17.50	-24.1	-25.3	17.6	0.00e+00	0	44	102	1048576	8	4157
2026-01-26 02:16:24.93	187.15	17.15	-24.3	-25.7	17.4	4.00e-04	0	44	102	1048576	8	4257
2026-01-26 02:16:27.94	187.28	16.81	-24.4	-26.0	17.2	4.04e-04	0	44	102	1048576	8	4324
2026-01-26 02:16:30.95	187.40	16.47	-24.5	-25.7	17.1	0.00e+00	0	44	102	1048576	9	4152
2026-01-26 02:16:33.96	187.52	16.13	-24.7	-26.2	16.9	0.00e+00	0	44	102	1048576	9	4270
2026-01-26 02:16:36.98	187.63	15.80	-24.5	-25.8	17.0	4.24e-04	0	44	102	1048576	9	4180
2026-01-26 02:16:39.99	187.75	15.47	-24.6	-26.0	16.9	0.00e+00	0	44	102	1048576	9	4232
2026-01-26 02:16:43.00	187.86	15.15	-24.7	-26.2	16.8	0.00e+00	0	44	102	1048576	9	4280
2026-01-26 02:16:46.01	187.97	14.83	-25.3	-26.9	16.2	0.00e+00	0	44	102	1048576	10	4344
2026-01-26 02:16:49.03	188.07	14.52	-25.3	-26.9	16.2	0.00e+00	0	44	102	1048576	10	4345
2026-01-26 02:16:52.04	188.18	14.21	-25.8	-27.5	15.6	0.00e+00	0	44	102	1048576	11	4399
2026-01-26 02:16:55.06	188.28	13.90	-25.6	-27.2	15.7	0.00e+00	0	44	102	1048576	11	4304
2026-01-26 02:16:58.07	188.38	13.60	-25.3	-26.5	16.1	0.00e+00	0	44	102	1048576	11	4126
2026-01-26 02:17:01.08	188.48	13.30	-25.3	-27.0	15.4	0.00e+00	0	44	102	1048576	10	4388
2026-01-26 02:17:04.10	188.58	13.00	-25.2	-26.9	16.1	1.68e-04	0	44	102	1048576	10	4342
2026-01-26 02:17:07.09	188.68	12.71	-25.5	-26.8	15.8	0.00e+00	0	44	102	1048576	11	4222
2026-01-26 02:17:10.11	188.77	12.42	-25.6	-27.2	15.6	0.00e+00	0	44	102	1048576	11	4321
2026-01-26 02:17:13.11	188.86	12.14	-25.6	-27.2	15.6	1.67e-04	0	44	102	1048576	11	4327
2026-01-26 02:17:16.11	188.96	11.86	-25.4	-27.2	15.9	6.29e-05	0	44	102	1048576	10	4427
2026-01-26 02:17:19.12	189.04	11.58	-25.4	-27.2	15.9	0.00e+00	0	44	102	1048576	10	4448
2026-01-26 02:17:22.14	189.13	11.30	-25.4	-27.3	15.8	1.15e-04	0	44	102	1048576	10	4470
2026-01-26 02:17:25.15	189.22	11.03	-25.6	-27.2	15.6	9.72e-05	0	44	102	1048576	11	4327
2026-01-26 02:17:28.16	189.31	10.76	-25.8	-27.6	15.3	1.05e-04	0	44	102	1048576	11	4428
2026-01-26 02:17:31.17	189.39	10.49	-26.0	-27.5	15.0	2.17e-05	0	44	102	1048576	12	4310
2026-01-26 02:17:34.18	189.47	10.23	-25.9	-27.9	15.1	8.12e-05	0	44	102	1048576	11	4531
2026-01-26 02:17:37.19	189.55	9.97	-26.0	-27.7	14.9	7.78e-05	0	44	102	1048576	12	4345
2026-01-26 02:17:40.20	189.63	9.71	-25.8	-27.6	15.3	5.49e-05	0	44	102	1048576	11	4440
2026-01-26 02:17:43.21	189.71	9.45	-25.9	-27.9	15.0	1.10e-06	0	44	102	1048576	11	4533
2026-01-26 02:17:46.23	189.79	9.20	-26.0	-27.6	14.8	1.03e-04	0	44	102	1048576	12	4339
2026-01-26 02:17:49.25	189.87	8.95	-25.8	-27.6	15.1	0.00e+00	0	44	102	1048576	11	4450
2026-01-26 02:17:52.25	189.94	8.70	-26.2	-28.2	14.5	1.10e-06	0	44	102	1048576	12	4495
2026-01-26 02:17:55.27	190.01	8.45	-26.2	-28.1	14.5	0.00e+00	0	44	102	1048576	12	4484
2026-01-26 02:17:58.29	190.09	8.21	-26.1	-27.8	14.6	1.10e-06	0	44	102	1048576	12	4401
2026-01-26 02:18:01.30	190.16	7.97	-26.3	-28.3	14.3	4.50e-06	0	44	102	1048576	12	4550
2026-01-26 02:18:04.30	190.23	7.73	-26.2	-27.6	14.4	4.50e-06	0	44	102	1048576	13	4230
2026-01-26 02:18:07.31	190.30	7.49	-26.1	-28.0	14.4	3.40e-06	0	44	102	1048576	12	4440
2026-01-26 02:18:10.32	190.37	7.26	-26.7	-28.9	13.6	5.70e-06	0	44	102	1048576	13	4595
2026-01-26 02:18:13.33	190.44	7.02	-32.8	-44.0	3.8	8.46e-01	0	44	104	1048576	25	13194

#Closed at: 2026-01-26 02:18:15
#Recorded file [1 MB]: D:/data/31010_260126_050615.dat