passes_logs/2026/01/26/R2M6_AANII_01/R2M6_AANII_01__20260126_021958_NOAA_21_JPSS-2_rec.log

#Pass ID: 20260126_021958_NOAA 21 (JPSS-2)
#Satellite: NOAA 21 (JPSS-2)
#Configuration: NOAA 21
#almurnet v.1.7.20240730
#Start time: 2026-01-26 02:19:58

#Version: 2.2.20231116
#Station: R2M6_AANII_01
#Location: 30.233357 lon 59.946436 lat
#TLE: 1 54234U 22150A   26025.44451686  .00000186  00000+0  10896-3 0  9992
#TLE: 2 54234  98.7509 326.2184 0000763 215.1852 144.9274 14.19539183166293

#Time	Az	El	Level	Level2	SNR	BER	BlckErr	Temp	State	Recorded	gain1	gain2
2026-01-26 02:19:58.21	10.14	7.01	-31.5	-38.7	4.1	1.45e+00	0	43	0	0	23	8212
2026-01-26 02:20:01.20	9.86	7.20	-30.8	-35.5	7.4	1.31e-01	0	43	102	1048576	22	6153
2026-01-26 02:20:04.21	9.58	7.39	-30.7	-35.5	7.7	9.85e-02	0	43	102	1048576	21	6244
2026-01-26 02:20:07.23	9.29	7.58	-30.5	-34.6	8.4	5.15e-02	0	43	102	1048576	21	5801
2026-01-26 02:20:10.24	8.99	7.77	-29.3	-32.1	11.0	4.00e-03	0	43	102	1048576	19	4925
2026-01-26 02:20:13.25	8.70	7.96	-28.5	-30.9	12.5	9.00e-05	0	43	102	1048576	17	4728
2026-01-26 02:20:16.26	8.39	8.15	-28.6	-31.2	12.3	1.40e-04	0	43	102	1048576	17	4827
2026-01-26 02:20:19.27	8.09	8.35	-28.5	-31.3	12.6	7.47e-05	0	43	102	1048576	16	4978
2026-01-26 02:20:22.28	7.78	8.54	-28.2	-30.7	12.9	6.71e-05	0	43	102	1048576	16	4778
2026-01-26 02:20:25.29	7.47	8.74	-28.2	-30.6	13.0	4.01e-03	0	43	102	1048576	16	4737
2026-01-26 02:20:28.31	7.15	8.93	-27.8	-30.3	13.4	2.44e-05	0	43	102	1048576	15	4770
2026-01-26 02:20:31.32	6.83	9.13	-27.7	-29.9	13.6	4.00e-03	0	43	102	1048576	15	4628
2026-01-26 02:20:34.31	6.50	9.32	-27.7	-30.0	13.6	3.49e-03	0	44	102	1048576	15	4664
2026-01-26 02:20:37.32	6.17	9.52	-28.4	-31.0	12.9	4.53e-03	0	44	102	1048576	16	4882
2026-01-26 02:20:40.33	5.83	9.72	-27.8	-30.2	13.5	4.67e-03	0	44	102	1048576	15	4740
2026-01-26 02:20:43.35	5.49	9.92	-27.7	-30.0	13.7	4.26e-03	0	44	102	1048576	15	4662
2026-01-26 02:20:46.36	5.14	10.12	-27.6	-29.6	13.9	4.49e-03	0	44	102	1048576	15	4527
2026-01-26 02:20:49.37	4.79	10.32	-27.6	-29.6	13.9	2.20e-06	0	44	102	1048576	15	4551
2026-01-26 02:20:52.38	4.44	10.52	-27.6	-29.6	13.9	4.19e-03	0	43	102	1048576	15	4548
2026-01-26 02:20:55.40	4.08	10.72	-27.4	-29.7	14.1	7.00e-07	0	44	102	1048576	14	4698
2026-01-26 02:20:58.42	3.71	10.92	-27.5	-29.5	14.0	4.47e-03	0	44	102	1048576	15	4498
2026-01-26 02:21:01.44	3.34	11.13	-27.4	-29.7	14.2	7.00e-07	0	44	102	1048576	14	4666
2026-01-26 02:21:04.44	2.96	11.33	-27.3	-29.4	14.4	0.00e+00	0	44	102	1048576	14	4573
2026-01-26 02:21:07.46	2.58	11.53	-27.5	-29.8	14.2	4.45e-03	0	44	102	1048576	14	4710
2026-01-26 02:21:10.47	2.19	11.73	-27.6	-29.6	14.0	1.50e-06	0	44	102	1048576	15	4540
2026-01-26 02:21:13.49	1.80	11.94	-27.5	-29.4	14.1	2.20e-06	0	44	102	1048576	15	4483
2026-01-26 02:21:16.50	1.40	12.14	-27.5	-29.3	14.3	7.00e-07	0	44	102	1048576	15	4426
2026-01-26 02:21:19.52	0.99	12.35	-27.2	-29.1	14.7	7.00e-07	0	44	102	1048576	14	4493
2026-01-26 02:21:22.52	0.58	12.55	-27.3	-29.4	14.5	0.00e+00	0	44	102	1048576	14	4586
2026-01-26 02:21:25.53	0.17	12.76	-27.3	-29.0	14.5	1.50e-06	0	44	102	1048576	15	4351
2026-01-26 02:21:28.55	359.74	12.96	-27.2	-29.1	14.7	0.00e+00	0	44	102	1048576	14	4487
2026-01-26 02:21:31.57	359.31	13.17	-27.2	-29.1	14.7	0.00e+00	0	44	102	1048576	14	4478
2026-01-26 02:21:34.59	358.88	13.37	-27.5	-29.8	14.3	3.80e-06	0	44	102	1048576	14	4700
2026-01-26 02:21:37.59	358.44	13.58	-27.4	-29.5	14.5	7.00e-07	0	44	102	1048576	14	4611
2026-01-26 02:21:40.59	357.99	13.78	-27.3	-29.3	14.6	0.00e+00	0	44	102	1048576	14	4546
2026-01-26 02:21:43.60	357.54	13.99	-27.4	-29.7	14.4	0.00e+00	0	44	102	1048576	14	4661
2026-01-26 02:21:46.62	357.08	14.20	-27.6	-29.6	14.2	7.00e-07	0	44	102	1048576	15	4509
2026-01-26 02:21:49.63	356.61	14.40	-27.8	-30.0	14.0	7.00e-07	0	44	102	1048576	15	4637
2026-01-26 02:21:52.64	356.14	14.61	-27.5	-29.4	14.4	1.50e-06	0	44	102	1048576	15	4453
2026-01-26 02:21:55.66	355.66	14.81	-27.5	-29.3	14.4	1.50e-06	0	44	102	1048576	15	4442
2026-01-26 02:21:58.67	355.17	15.01	-27.0	-29.2	12.8	0.00e+00	0	44	102	1048576	15	4644
2026-01-26 02:22:01.67	354.68	15.22	-28.3	-30.6	13.4	1.29e-05	0	44	102	1048576	16	4702
2026-01-26 02:22:04.69	354.18	15.42	-27.4	-29.1	14.5	0.00e+00	0	44	102	1048576	15	4362
2026-01-26 02:22:07.70	353.67	15.62	-28.0	-30.4	13.8	2.20e-06	0	44	102	1048576	15	4758
2026-01-26 02:22:10.71	353.16	15.83	-27.6	-29.5	14.3	2.81e-03	0	44	102	1048576	15	4492
2026-01-26 02:22:13.72	352.64	16.03	-27.5	-29.8	14.5	0.00e+00	0	44	102	1048576	14	4678
2026-01-26 02:22:16.72	352.11	16.23	-27.4	-29.6	14.6	2.52e-03	0	44	102	1048576	14	4642
2026-01-26 02:22:19.74	351.58	16.43	-27.4	-29.5	14.7	0.00e+00	0	44	102	1048576	14	4593
2026-01-26 02:22:22.77	351.03	16.63	-27.2	-29.0	14.9	2.46e-03	0	44	102	1048576	14	4459
2026-01-26 02:22:25.78	350.48	16.83	-26.9	-28.4	15.3	3.65e-03	0	44	102	1048576	14	4274
2026-01-26 02:22:28.80	349.92	17.02	-27.1	-28.7	15.1	3.31e-03	0	44	102	1048576	14	4369
2026-01-26 02:22:31.82	349.35	17.22	-27.0	-28.7	15.2	3.60e-03	0	44	102	1048576	14	4346
2026-01-26 02:22:34.85	348.78	17.42	-27.1	-28.9	15.1	2.64e-03	0	44	102	1048576	14	4405
2026-01-26 02:22:37.86	348.20	17.61	-27.1	-28.8	15.1	1.49e-04	0	44	102	1048576	14	4399
2026-01-26 02:22:40.88	347.61	17.80	-27.3	-29.2	14.9	0.00e+00	0	44	102	1048576	14	4521
2026-01-26 02:22:43.90	347.01	17.99	-27.0	-28.7	15.2	5.49e-05	0	44	102	1048576	14	4350
2026-01-26 02:22:46.89	346.41	18.18	-27.6	-29.5	14.4	4.11e-05	0	44	102	1048576	15	4488
2026-01-26 02:22:49.90	345.80	18.36	-27.4	-29.6	14.6	0.00e+00	0	44	102	1048576	14	4627
2026-01-26 02:22:52.91	345.18	18.54	-27.5	-29.2	14.6	7.00e-07	0	44	102	1048576	15	4394
2026-01-26 02:22:55.92	344.56	18.73	-27.1	-28.9	15.0	7.00e-07	0	44	102	1048576	14	4421
2026-01-26 02:22:58.94	343.92	18.91	-27.0	-28.7	15.2	0.00e+00	0	44	102	1048576	14	4365
2026-01-26 02:23:01.95	343.28	19.08	-26.9	-28.9	15.3	0.00e+00	0	44	102	1048576	13	4519
2026-01-26 02:23:04.96	342.64	19.26	-27.0	-28.7	15.2	0.00e+00	0	44	102	1048576	14	4363
2026-01-26 02:23:07.97	341.98	19.43	-27.3	-29.3	14.9	7.00e-07	0	44	102	1048576	14	4519
2026-01-26 02:23:10.99	341.32	19.60	-26.7	-28.5	15.6	0.00e+00	0	44	102	1048576	13	4407
2026-01-26 02:23:13.99	340.65	19.76	-26.6	-28.3	15.7	0.00e+00	0	44	102	1048576	13	4346
2026-01-26 02:23:17.00	339.97	19.92	-26.8	-28.7	15.5	0.00e+00	0	44	102	1048576	13	4479
2026-01-26 02:23:20.01	339.28	20.08	-26.8	-28.7	15.5	0.00e+00	0	44	102	1048576	13	4479
2026-01-26 02:23:23.01	338.59	20.24	-26.7	-28.3	15.7	0.00e+00	0	44	102	1048576	13	4366
2026-01-26 02:23:26.03	337.89	20.39	-26.7	-28.4	15.7	0.00e+00	0	44	102	1048576	13	4387
2026-01-26 02:23:29.05	337.18	20.54	-26.7	-28.4	15.7	0.00e+00	0	44	102	1048576	13	4387
2026-01-26 02:23:32.06	336.47	20.69	-26.5	-28.1	15.9	0.00e+00	0	44	102	1048576	13	4293
2026-01-26 02:23:35.07	335.75	20.83	-26.6	-28.1	15.9	0.00e+00	0	44	102	1048576	13	4293
2026-01-26 02:23:38.08	335.02	20.96	-26.5	-28.0	15.9	0.00e+00	0	44	102	1048576	13	4267
2026-01-26 02:23:41.09	334.29	21.10	-26.6	-28.3	15.8	0.00e+00	0	44	102	1048576	13	4349
2026-01-26 02:23:44.10	333.55	21.23	-26.4	-28.2	16.1	0.00e+00	0	44	102	1048576	12	4436
2026-01-26 02:23:47.11	332.81	21.35	-26.4	-28.3	16.0	0.00e+00	0	44	102	1048576	12	4475
2026-01-26 02:23:50.11	332.06	21.47	-26.5	-28.0	15.9	0.00e+00	0	44	102	1048576	13	4287
2026-01-26 02:23:53.13	331.30	21.58	-26.5	-27.9	16.0	0.00e+00	0	44	102	1048576	13	4259
2026-01-26 02:23:56.13	330.54	21.69	-26.4	-27.7	16.1	3.00e-06	0	44	102	1048576	13	4188
2026-01-26 02:23:59.15	329.77	21.80	-26.4	-27.8	16.0	0.00e+00	0	44	102	1048576	13	4223
2026-01-26 02:24:02.16	328.99	21.90	-26.5	-27.9	16.0	7.85e-05	0	44	102	1048576	13	4245
2026-01-26 02:24:05.17	328.22	21.99	-26.9	-28.8	15.5	1.91e-04	0	44	102	1048576	13	4505
2026-01-26 02:24:08.18	327.43	22.08	-25.7	-27.5	16.1	4.23e-04	0	44	102	1048576	12	4404
2026-01-26 02:24:11.20	326.64	22.17	-26.3	-28.0	16.1	4.47e-04	0	44	102	1048576	12	4393
2026-01-26 02:24:14.22	325.85	22.24	-26.4	-28.4	16.0	3.77e-04	0	44	102	1048576	12	4484
2026-01-26 02:24:17.23	325.05	22.32	-26.7	-28.5	15.6	2.43e-04	0	44	102	1048576	13	4413
2026-01-26 02:24:20.24	324.25	22.38	-26.7	-28.4	15.7	0.00e+00	0	44	102	1048576	13	4381
2026-01-26 02:24:23.25	323.45	22.44	-26.4	-28.3	16.0	7.84e-04	0	44	102	1048576	12	4461
2026-01-26 02:24:26.25	322.65	22.50	-26.8	-28.5	15.6	2.36e-04	0	44	102	1048576	13	4418
2026-01-26 02:24:29.26	321.84	22.55	-26.6	-28.2	15.8	8.17e-04	0	44	102	1048576	13	4329
2026-01-26 02:24:32.28	321.03	22.59	-26.6	-28.1	15.8	1.69e-03	0	44	102	1048576	13	4298
2026-01-26 02:24:35.30	320.21	22.63	-26.4	-28.2	16.1	2.25e-03	0	44	102	1048576	12	4447
2026-01-26 02:24:38.31	319.39	22.66	-26.7	-28.3	15.8	2.83e-03	0	44	102	1048576	13	4359
2026-01-26 02:24:41.31	318.58	22.68	-26.4	-27.7	16.1	3.28e-03	0	44	102	1048576	13	4199
2026-01-26 02:24:44.33	317.76	22.70	-26.1	-27.6	16.4	0.00e+00	0	44	102	1048576	12	4265
2026-01-26 02:24:47.34	316.94	22.71	-26.2	-27.8	16.3	2.51e-03	0	44	102	1048576	12	4317
2026-01-26 02:24:50.35	316.12	22.72	-26.4	-28.2	16.1	0.00e+00	0	44	102	1048576	12	4438
2026-01-26 02:24:53.36	315.30	22.72	-26.5	-28.0	15.9	0.00e+00	0	44	102	1048576	13	4264
2026-01-26 02:24:56.36	314.49	22.71	-26.5	-28.0	16.0	0.00e+00	0	44	102	1048576	13	4262
2026-01-26 02:24:59.38	313.67	22.70	-26.2	-27.9	16.3	0.00e+00	0	44	102	1048576	12	4342
2026-01-26 02:25:02.38	312.85	22.68	-26.2	-27.7	16.4	0.00e+00	0	44	102	1048576	12	4300
2026-01-26 02:25:05.39	312.04	22.65	-26.2	-27.9	16.2	0.00e+00	0	44	102	1048576	12	4344
2026-01-26 02:25:08.40	311.22	22.62	-26.2	-27.7	16.3	0.00e+00	0	44	102	1048576	12	4306
2026-01-26 02:25:11.41	310.41	22.58	-26.5	-27.9	15.9	0.00e+00	0	44	102	1048576	13	4247
2026-01-26 02:25:14.42	309.60	22.54	-26.6	-28.2	15.8	0.00e+00	0	44	102	1048576	13	4334
2026-01-26 02:25:17.42	308.79	22.49	-26.6	-28.1	15.8	0.00e+00	0	44	102	1048576	13	4309
2026-01-26 02:25:20.43	307.98	22.43	-26.3	-27.5	16.1	0.00e+00	0	44	102	1048576	13	4144
2026-01-26 02:25:23.44	307.18	22.37	-26.2	-27.8	14.7	0.00e+00	0	44	102	1048576	12	4317
2026-01-26 02:25:26.46	306.38	22.30	-26.1	-27.6	16.4	2.12e-03	0	44	102	1048576	12	4284
2026-01-26 02:25:29.48	305.58	22.23	-26.5	-28.1	15.9	0.00e+00	0	44	102	1048576	13	4292
2026-01-26 02:25:32.50	304.79	22.15	-26.6	-28.1	15.8	2.32e-03	0	44	102	1048576	13	4292
2026-01-26 02:25:35.52	303.99	22.06	-26.3	-27.9	16.2	3.69e-03	0	44	102	1048576	12	4357
2026-01-26 02:25:38.53	303.21	21.97	-26.3	-28.0	16.1	3.54e-03	0	44	102	1048576	12	4385
2026-01-26 02:25:41.55	302.43	21.88	-26.2	-27.8	16.3	3.87e-03	0	44	102	1048576	12	4336
2026-01-26 02:25:44.56	301.66	21.77	-26.4	-28.2	16.1	4.46e-03	0	44	102	1048576	12	4430
2026-01-26 02:25:47.58	300.88	21.67	-26.4	-28.2	16.0	4.82e-03	0	44	102	1048576	12	4435
2026-01-26 02:25:50.59	300.12	21.56	-26.5	-28.1	15.8	0.00e+00	0	44	102	1048576	13	4290
2026-01-26 02:25:53.59	299.37	21.44	-26.3	-28.1	16.1	5.13e-03	0	44	102	1048576	12	4400
2026-01-26 02:25:56.61	298.61	21.32	-26.5	-28.0	15.9	0.00e+00	0	44	102	1048576	13	4275
2026-01-26 02:25:59.61	297.87	21.20	-26.4	-28.3	16.0	1.16e-03	0	44	102	1048576	12	4468
2026-01-26 02:26:02.62	297.13	21.07	-26.7	-28.5	15.6	0.00e+00	0	44	102	1048576	13	4401
2026-01-26 02:26:05.62	296.40	20.93	-26.6	-28.2	15.7	0.00e+00	0	44	102	1048576	13	4328
2026-01-26 02:26:08.62	295.67	20.79	-26.8	-28.6	15.5	5.09e-03	0	44	102	1048576	13	4458
2026-01-26 02:26:11.64	294.95	20.65	-27.0	-28.7	15.2	0.00e+00	0	44	102	1048576	14	4355
2026-01-26 02:26:14.65	294.24	20.51	-26.8	-28.7	15.4	0.00e+00	0	44	102	1048576	13	4464
2026-01-26 02:26:17.67	293.53	20.36	-26.6	-28.1	15.7	0.00e+00	0	44	102	1048576	13	4316
2026-01-26 02:26:20.68	292.83	20.20	-26.2	-27.8	16.2	0.00e+00	0	44	102	1048576	12	4340
2026-01-26 02:26:23.68	292.14	20.04	-26.3	-28.0	16.1	0.00e+00	0	44	102	1048576	12	4377
2026-01-26 02:26:26.69	291.45	19.88	-26.5	-28.0	15.8	0.00e+00	0	44	102	1048576	13	4263
2026-01-26 02:26:29.71	290.77	19.72	-26.8	-28.7	15.4	0.00e+00	0	44	102	1048576	13	4475
2026-01-26 02:26:32.72	290.10	19.55	-26.9	-28.4	15.3	0.00e+00	0	44	102	1048576	14	4281
2026-01-26 02:26:35.74	289.43	19.38	-26.7	-28.4	15.6	0.00e+00	0	44	102	1048576	13	4378
2026-01-26 02:26:38.75	288.78	19.21	-26.9	-28.9	15.2	0.00e+00	0	44	102	1048576	13	4546
2026-01-26 02:26:41.76	288.13	19.04	-27.1	-29.0	14.9	0.00e+00	0	44	102	1048576	14	4442
2026-01-26 02:26:44.78	287.48	18.86	-27.1	-28.9	15.0	0.00e+00	0	44	102	1048576	14	4409
2026-01-26 02:26:47.79	286.85	18.68	-26.5	-28.1	15.7	0.00e+00	0	44	102	1048576	13	4307
2026-01-26 02:26:50.80	286.22	18.49	-26.6	-28.2	15.6	0.00e+00	0	44	102	1048576	13	4332
2026-01-26 02:26:53.81	285.61	18.31	-26.5	-28.0	15.7	0.00e+00	0	44	102	1048576	13	4273
2026-01-26 02:26:56.82	284.99	18.12	-26.5	-28.0	15.7	0.00e+00	0	44	102	1048576	13	4288
2026-01-26 02:26:59.84	284.39	17.93	-25.9	-27.8	15.9	0.00e+00	0	44	102	1048576	12	4445
2026-01-26 02:27:02.82	283.80	17.75	-26.6	-28.3	14.2	0.00e+00	0	44	102	1048576	13	4377
2026-01-26 02:27:05.85	283.21	17.55	-26.6	-28.3	15.5	0.00e+00	0	44	102	1048576	13	4364
2026-01-26 02:27:08.86	282.63	17.36	-26.6	-28.1	15.6	0.00e+00	0	44	102	1048576	13	4321
2026-01-26 02:27:11.87	282.05	17.16	-26.5	-28.0	15.6	2.54e-03	0	44	102	1048576	13	4294
2026-01-26 02:27:14.89	281.48	16.97	-26.9	-28.5	15.1	0.00e+00	0	44	102	1048576	14	4320
2026-01-26 02:27:17.89	280.93	16.77	-27.3	-29.3	14.6	1.82e-03	0	44	102	1048576	14	4551
2026-01-26 02:27:20.90	280.38	16.57	-27.4	-29.5	14.5	3.14e-03	0	44	102	1048576	14	4608
2026-01-26 02:27:23.91	279.83	16.37	-27.4	-29.7	14.4	6.10e-03	0	44	102	1048576	14	4670
2026-01-26 02:27:26.92	279.30	16.17	-27.7	-29.8	14.0	6.66e-03	0	44	102	1048576	15	4590
2026-01-26 02:27:29.92	278.77	15.97	-27.0	-28.6	15.0	5.08e-03	0	44	102	1048576	14	4360
2026-01-26 02:27:32.94	278.24	15.77	-26.8	-28.6	15.2	3.59e-03	0	44	102	1048576	13	4457
2026-01-26 02:27:35.96	277.73	15.56	-26.9	-28.9	15.0	0.00e+00	0	44	102	1048576	13	4557
2026-01-26 02:27:38.97	277.22	15.36	-27.3	-29.4	14.5	3.94e-03	0	44	102	1048576	14	4578
2026-01-26 02:27:41.98	276.72	15.16	-27.0	-28.7	14.9	4.50e-06	0	44	102	1048576	14	4389
2026-01-26 02:27:44.99	276.22	14.95	-27.1	-28.9	14.8	4.47e-04	0	44	102	1048576	14	4439
2026-01-26 02:27:47.99	275.74	14.75	-27.3	-29.4	14.5	8.23e-03	0	44	102	1048576	14	4585
2026-01-26 02:27:51.00	275.26	14.54	-27.2	-29.3	14.5	2.20e-06	0	44	102	1048576	14	4540
2026-01-26 02:27:54.01	274.78	14.34	-27.2	-29.2	14.6	0.00e+00	0	44	102	1048576	14	4522
2026-01-26 02:27:57.03	274.31	14.13	-27.1	-29.0	14.7	5.30e-06	0	44	102	1048576	14	4478
2026-01-26 02:28:00.05	273.85	13.92	-27.1	-28.9	14.7	6.10e-06	0	44	102	1048576	14	4450
2026-01-26 02:28:03.06	273.40	13.72	-26.8	-28.8	15.0	7.00e-07	0	44	102	1048576	13	4501
2026-01-26 02:28:06.07	272.95	13.51	-26.8	-28.7	15.1	0.00e+00	0	44	102	1048576	13	4501
2026-01-26 02:28:09.08	272.51	13.30	-27.3	-29.5	14.3	0.00e+00	0	44	102	1048576	14	4627
2026-01-26 02:28:12.09	272.07	13.10	-27.3	-29.4	14.4	7.00e-07	0	44	102	1048576	14	4578
2026-01-26 02:28:15.11	271.64	12.89	-27.8	-30.1	13.7	9.90e-06	0	44	102	1048576	15	4680
2026-01-26 02:28:18.12	271.22	12.69	-27.7	-29.8	13.8	1.50e-06	0	44	102	1048576	15	4612
2026-01-26 02:28:21.13	270.80	12.48	-27.7	-29.9	13.8	3.00e-06	0	44	102	1048576	15	4643
2026-01-26 02:28:24.15	270.39	12.27	-27.3	-29.4	14.4	7.00e-07	0	44	102	1048576	14	4576
2026-01-26 02:28:27.16	269.98	12.07	-27.3	-29.4	14.3	7.00e-07	0	44	102	1048576	14	4601
2026-01-26 02:28:30.17	269.58	11.86	-27.6	-29.6	13.9	2.20e-06	0	44	102	1048576	15	4536
2026-01-26 02:28:33.18	269.19	11.66	-28.4	-31.0	12.9	3.43e-05	0	44	102	1048576	16	4861
2026-01-26 02:28:36.19	268.80	11.46	-28.2	-30.2	13.1	4.19e-05	0	44	102	1048576	17	4502
2026-01-26 02:28:39.19	268.41	11.25	-28.5	-30.9	12.6	1.05e-04	0	44	102	1048576	17	4737
2026-01-26 02:28:42.20	268.04	11.05	-28.4	-31.2	11.7	6.86e-05	0	44	102	1048576	16	4950
2026-01-26 02:28:45.22	267.66	10.85	-28.8	-31.6	12.1	2.34e-04	0	44	102	1048576	17	4960
2026-01-26 02:28:48.23	267.29	10.64	-28.6	-31.2	12.4	2.49e-04	0	44	102	1048576	17	4835
2026-01-26 02:28:51.24	266.93	10.44	-28.6	-31.2	11.3	5.24e-04	0	44	102	1048576	17	4854
2026-01-26 02:28:54.25	266.57	10.24	-28.2	-30.7	12.8	4.27e-05	0	44	102	1048576	16	4790
2026-01-26 02:28:57.27	266.22	10.04	-27.7	-29.9	13.5	4.36e-03	0	44	102	1048576	15	4664
2026-01-26 02:29:00.29	265.87	9.84	-28.1	-30.5	13.0	2.25e-03	0	44	102	1048576	16	4714
2026-01-26 02:29:03.29	265.53	9.64	-28.3	-30.9	12.8	2.42e-03	0	44	102	1048576	16	4847
2026-01-26 02:29:06.31	265.19	9.44	-28.5	-31.0	12.4	8.78e-04	0	44	102	1048576	17	4779
2026-01-26 02:29:09.31	264.86	9.24	-28.7	-31.6	12.0	1.92e-03	0	44	102	1048576	17	4972
2026-01-26 02:29:12.32	264.53	9.05	-28.7	-31.4	12.1	7.70e-03	0	44	102	1048576	17	4929
2026-01-26 02:29:15.34	264.20	8.85	-28.7	-31.4	12.1	4.00e-03	0	44	102	1048576	17	4910
2026-01-26 02:29:18.35	263.88	8.65	-27.9	-30.6	13.0	6.92e-03	0	44	102	1048576	15	4881
2026-01-26 02:29:21.37	263.57	8.46	-28.1	-30.5	12.8	3.81e-03	0	44	102	1048576	16	4748
2026-01-26 02:29:24.38	263.26	8.26	-28.5	-31.4	12.3	2.72e-03	0	44	102	1048576	16	5023
2026-01-26 02:29:27.39	262.95	8.07	-28.8	-31.9	11.6	6.73e-04	0	44	102	1048576	17	5113
2026-01-26 02:29:30.40	262.65	7.87	-28.6	-31.4	12.0	3.74e-04	0	44	102	1048576	17	4919
2026-01-26 02:29:33.41	262.35	7.68	-28.6	-31.2	12.0	3.83e-04	0	44	102	1048576	17	4850
2026-01-26 02:29:36.43	262.05	7.49	-28.3	-31.1	12.4	1.79e-04	0	44	102	1048576	16	4932
2026-01-26 02:29:39.44	261.76	7.30	-28.3	-31.1	12.3	2.06e-04	0	44	102	1048576	16	4939
2026-01-26 02:29:42.43	261.48	7.11	-28.1	-30.1	12.6	1.38e-04	0	44	102	1048576	17	4516

#Closed at: 2026-01-26 02:29:44
#Recorded file [1 MB]: D:/data/31010_260126_052000.dat