passes_logs/2026/01/26/R2M6_AANII_01/R2M6_AANII_01__20260126_094215_NOAA_20_JPSS-1_rec.log

#Pass ID: 20260126_094215_NOAA 20 (JPSS-1)
#Satellite: NOAA 20 (JPSS-1)
#Configuration: NOAA 20
#almurnet v.1.7.20240730
#Start time: 2026-01-26 09:42:16

#Version: 2.2.20231116
#Station: R2M6_AANII_01
#Location: 30.233357 lon 59.946436 lat
#TLE: 1 43013U 17073A   26025.83228772  .00000162  00000+0  97663-4 0  9996
#TLE: 2 43013  98.7646 326.6579 0001036  23.5840 336.5383 14.19540376424273

#Time	Az	El	Level	Level2	SNR	BER	BlckErr	Temp	State	Recorded	gain1	gain2
2026-01-26 09:42:16.75	141.00	7.08	-30.6	-36.4	5.1	1.27e+00	0	41	0	0	22	7063
2026-01-26 09:42:19.75	140.91	7.31	-30.5	-36.0	8.5	4.92e-02	0	41	0	1048576	22	6787
2026-01-26 09:42:22.76	140.82	7.55	-30.1	-35.4	9.3	2.13e-02	0	41	0	7340032	21	6612
2026-01-26 09:42:25.77	140.73	7.78	-30.2	-35.6	9.1	2.31e-02	0	41	0	12582912	21	6724
2026-01-26 09:42:28.77	140.64	8.02	-29.6	-33.8	11.0	2.35e-03	0	42	0	17825792	20	5857
2026-01-26 09:42:31.77	140.54	8.26	-29.5	-33.8	11.6	5.49e-04	0	42	0	24117248	19	5864
2026-01-26 09:42:34.79	140.45	8.50	-29.6	-33.7	11.8	4.73e-04	0	42	0	29360128	19	5779
2026-01-26 09:42:37.78	140.35	8.74	-29.7	-34.1	11.5	7.67e-04	0	42	0	35651584	19	5961
2026-01-26 09:42:40.79	140.25	8.99	-29.6	-33.6	11.9	5.27e-04	0	42	0	40894464	19	5731
2026-01-26 09:42:43.80	140.15	9.24	-29.3	-32.7	12.6	1.22e-04	0	42	0	46137344	19	5302
2026-01-26 09:42:46.80	140.05	9.49	-29.4	-32.8	12.6	1.65e-04	0	42	0	52428800	19	5362
2026-01-26 09:42:49.80	139.94	9.74	-29.5	-33.1	12.4	5.95e-05	0	42	0	57671680	19	5479
2026-01-26 09:42:52.82	139.83	10.00	-29.4	-32.8	12.7	7.93e-05	0	42	0	62914560	19	5302
2026-01-26 09:42:55.84	139.72	10.26	-29.5	-33.1	12.5	6.94e-05	0	42	0	69206016	19	5452
2026-01-26 09:42:58.85	139.61	10.52	-29.4	-32.6	12.9	5.34e-05	0	42	0	74448896	19	5229
2026-01-26 09:43:01.85	139.50	10.78	-29.3	-32.2	13.3	3.28e-05	0	43	0	80740352	19	5056
2026-01-26 09:43:04.86	139.38	11.05	-29.2	-31.9	13.5	1.22e-05	0	43	0	85983232	19	4913
2026-01-26 09:43:07.86	139.26	11.32	-29.2	-32.0	13.5	9.10e-06	0	42	0	91226112	19	4964
2026-01-26 09:43:10.87	139.14	11.59	-29.3	-32.3	13.2	1.75e-05	0	43	0	97517568	19	5105
2026-01-26 09:43:13.88	139.02	11.87	-29.3	-32.4	13.2	1.67e-05	0	42	0	102760448	19	5127
2026-01-26 09:43:16.89	138.90	12.15	-29.3	-32.3	13.3	3.12e-05	0	43	0	108003328	19	5077
2026-01-26 09:43:19.89	138.77	12.43	-29.3	-32.2	13.4	1.06e-05	0	43	0	114294784	19	5023
2026-01-26 09:43:22.91	138.64	12.71	-29.3	-32.1	13.5	1.06e-05	0	43	0	119537664	19	4992
2026-01-26 09:43:25.92	138.50	13.00	-29.2	-31.9	13.7	3.80e-06	0	43	0	125829120	19	4908
2026-01-26 09:43:28.92	138.37	13.29	-29.4	-32.3	13.4	1.06e-05	0	43	0	131072000	19	5067
2026-01-26 09:43:31.92	138.23	13.58	-29.4	-32.4	13.3	1.75e-05	0	43	0	136314880	19	5108
2026-01-26 09:43:34.93	138.09	13.88	-29.3	-32.0	13.7	6.80e-06	0	43	0	142606336	19	4926
2026-01-26 09:43:37.94	137.94	14.18	-29.1	-31.7	13.9	3.00e-06	0	43	0	147849216	19	4832
2026-01-26 09:43:40.95	137.79	14.49	-29.1	-31.9	13.6	3.80e-06	0	43	0	154140672	19	4947
2026-01-26 09:43:43.96	137.64	14.80	-29.1	-31.8	13.7	5.30e-06	0	43	0	159383552	19	4927
2026-01-26 09:43:46.97	137.49	15.11	-29.3	-32.2	13.5	1.52e-05	0	43	0	164626432	19	5070
2026-01-26 09:43:49.98	137.33	15.43	-29.1	-31.5	14.1	2.20e-06	0	43	0	170917888	19	4745
2026-01-26 09:43:52.99	137.17	15.75	-29.2	-31.6	14.1	2.20e-06	0	43	0	176160768	19	4763
2026-01-26 09:43:56.00	137.00	16.07	-29.4	-32.3	13.6	7.60e-06	0	43	0	181403648	19	5013
2026-01-26 09:43:59.01	136.83	16.40	-29.2	-31.7	14.1	3.00e-06	0	43	0	187695104	19	4825
2026-01-26 09:44:02.02	136.66	16.73	-29.1	-31.4	14.3	0.00e+00	0	43	0	192937984	19	4718
2026-01-26 09:44:05.03	136.48	17.07	-29.3	-31.8	14.1	0.00e+00	0	43	0	199229440	19	4834
2026-01-26 09:44:08.04	136.30	17.41	-29.5	-32.5	13.8	3.00e-06	0	43	0	204472320	19	5037
2026-01-26 09:44:11.04	136.11	17.75	-29.6	-32.7	13.6	3.00e-06	0	43	0	209715200	19	5119
2026-01-26 09:44:14.04	135.92	18.10	-29.1	-31.4	14.5	7.00e-07	0	43	0	216006656	19	4679
2026-01-26 09:44:17.05	135.73	18.46	-29.2	-31.5	14.4	0.00e+00	0	43	0	221249536	19	4724
2026-01-26 09:44:20.05	135.53	18.82	-29.2	-31.7	14.3	2.20e-06	0	43	0	226492416	19	4772
2026-01-26 09:44:23.05	135.32	19.18	-29.2	-31.4	14.5	1.50e-06	0	43	0	232783872	19	4683
2026-01-26 09:44:26.05	135.11	19.55	-29.2	-31.5	14.6	0.00e+00	0	43	0	238026752	19	4668
2026-01-26 09:44:29.06	134.90	19.92	-29.3	-31.7	14.5	7.00e-07	0	43	0	244318208	19	4740
2026-01-26 09:44:32.06	134.68	20.30	-29.3	-31.8	14.4	7.00e-07	0	43	0	249561088	19	4769
2026-01-26 09:44:35.07	134.45	20.69	-29.2	-31.3	14.7	0.00e+00	0	43	0	254803968	19	4629
2026-01-26 09:44:38.07	134.22	21.08	-29.3	-31.7	14.5	1.50e-06	0	43	0	261095424	19	4741
2026-01-26 09:44:41.08	133.98	21.48	-29.3	-31.6	14.6	0.00e+00	0	43	0	266338304	19	4713
2026-01-26 09:44:44.09	133.73	21.88	-29.2	-31.6	14.6	0.00e+00	0	43	0	271581184	19	4710
2026-01-26 09:44:47.08	133.48	22.28	-29.3	-31.6	14.6	1.50e-06	0	43	0	277872640	19	4704
2026-01-26 09:44:50.09	133.22	22.70	-29.5	-32.1	14.4	7.00e-07	0	43	0	283115520	19	4866
2026-01-26 09:44:53.10	132.96	23.12	-29.5	-32.1	14.4	0.00e+00	0	43	0	289406976	19	4858
2026-01-26 09:44:56.11	132.68	23.54	-29.5	-32.3	14.2	2.20e-06	0	43	0	294649856	19	4959
2026-01-26 09:44:59.12	132.40	23.98	-29.8	-33.1	13.7	2.20e-06	0	43	0	299892736	19	5263
2026-01-26 09:45:02.12	132.11	24.41	-29.9	-33.2	13.7	3.80e-06	0	44	0	306184192	19	5254
2026-01-26 09:45:05.12	131.81	24.86	-29.9	-32.7	13.7	6.10e-06	0	44	0	311427072	20	4970
2026-01-26 09:45:08.13	131.51	25.31	-30.2	-33.6	13.1	2.89e-05	0	43	0	316669952	20	5332
2026-01-26 09:45:11.14	131.19	25.77	-30.3	-33.9	12.9	4.88e-05	0	43	0	322961408	20	5424
2026-01-26 09:45:14.16	130.86	26.24	-30.4	-34.2	12.7	7.32e-05	0	43	0	328204288	20	5571
2026-01-26 09:45:17.16	130.53	26.71	-30.6	-34.2	12.4	1.43e-04	0	44	0	334495744	21	5429
2026-01-26 09:45:20.16	130.18	27.19	-30.6	-34.2	12.4	1.24e-04	0	43	0	339738624	21	5436
2026-01-26 09:45:23.17	129.82	27.68	-30.8	-34.7	12.1	1.92e-04	0	43	0	344981504	21	5641
2026-01-26 09:45:26.18	129.45	28.17	-30.9	-35.1	11.9	3.74e-04	0	43	0	351272960	21	5792
2026-01-26 09:45:29.18	129.08	28.68	-31.0	-34.7	11.8	4.90e-04	0	43	0	356515840	22	5532
2026-01-26 09:45:32.20	128.68	29.19	-31.0	-34.9	11.7	4.78e-04	0	43	0	361758720	22	5610
2026-01-26 09:45:35.20	128.28	29.71	-30.9	-34.5	12.0	3.33e-04	0	44	0	368050176	22	5448
2026-01-26 09:45:38.20	127.86	30.23	-31.0	-34.6	12.0	3.35e-04	0	44	0	373293056	22	5452
2026-01-26 09:45:41.22	127.42	30.77	-30.8	-34.1	12.3	1.71e-04	0	43	0	379584512	22	5248
2026-01-26 09:45:44.23	126.97	31.31	-30.7	-33.8	12.5	1.35e-04	0	43	0	384827392	22	5131
2026-01-26 09:45:47.24	126.51	31.86	-30.7	-33.6	12.7	6.86e-05	0	44	0	390070272	22	5071
2026-01-26 09:45:50.25	126.03	32.42	-30.7	-33.9	12.5	9.53e-05	0	44	0	396361728	22	5154
2026-01-26 09:45:53.24	125.53	32.98	-31.0	-34.7	12.0	2.72e-04	0	44	0	401604608	22	5477
2026-01-26 09:45:56.26	125.01	33.56	-31.0	-34.6	12.0	4.42e-04	0	43	0	407896064	22	5460
2026-01-26 09:45:59.27	124.48	34.14	-31.2	-35.3	11.6	4.90e-04	0	44	0	413138944	22	5759
2026-01-26 09:46:02.27	123.92	34.73	-31.3	-35.6	11.4	1.28e-03	0	43	0	418381824	22	5871
2026-01-26 09:46:05.28	123.35	35.33	-31.3	-35.4	11.5	7.67e-04	0	44	0	424673280	22	5809
2026-01-26 09:46:08.29	122.75	35.94	-31.5	-35.4	11.1	1.69e-03	0	44	0	429916160	23	5694
2026-01-26 09:46:11.28	122.13	36.55	-31.6	-35.8	11.0	2.16e-03	0	44	0	435159040	23	5842
2026-01-26 09:46:14.29	121.49	37.17	-31.5	-35.7	11.0	1.81e-03	0	44	0	441450496	23	5838
2026-01-26 09:46:17.29	120.82	37.80	-31.5	-35.5	11.2	1.29e-03	0	44	0	446693376	23	5701
2026-01-26 09:46:20.29	120.12	38.44	-31.4	-35.2	11.4	8.98e-04	0	44	0	451936256	23	5581
2026-01-26 09:46:23.29	119.40	39.08	-31.8	-36.4	10.7	3.06e-03	0	43	0	458227712	23	6112
2026-01-26 09:46:26.30	118.64	39.73	-31.7	-36.2	10.7	3.12e-03	0	44	0	463470592	23	6057
2026-01-26 09:46:29.30	117.86	40.39	-31.7	-36.1	10.8	2.50e-03	0	44	0	469762048	23	5981
2026-01-26 09:46:32.32	117.04	41.05	-31.6	-35.9	11.0	2.42e-03	0	44	0	475004928	23	5909
2026-01-26 09:46:35.33	116.18	41.72	-31.3	-34.9	11.7	7.27e-04	0	43	0	480247808	23	5455
2026-01-26 09:46:38.35	115.29	42.40	-31.1	-34.1	12.3	2.39e-04	0	44	0	486539264	23	5128
2026-01-26 09:46:41.34	114.36	43.07	-30.9	-33.8	12.5	1.07e-04	0	44	0	491782144	23	5001
2026-01-26 09:46:44.35	113.39	43.75	-30.9	-33.8	12.5	1.27e-04	0	44	0	497025024	23	4976
2026-01-26 09:46:47.36	112.38	44.43	-31.2	-35.0	12.0	1.98e-04	0	44	0	503316480	22	5591
2026-01-26 09:46:50.36	111.33	45.11	-31.2	-35.1	12.0	2.58e-04	0	44	0	508559360	22	5638
2026-01-26 09:46:53.36	110.23	45.80	-31.3	-35.3	11.8	4.03e-04	0	44	0	514850816	22	5716
2026-01-26 09:46:56.38	109.07	46.48	-31.2	-35.0	12.1	4.71e-04	0	44	0	520093696	22	5565
2026-01-26 09:46:59.38	107.87	47.16	-31.3	-35.4	11.9	3.34e-04	0	44	0	525336576	22	5734
2026-01-26 09:47:02.39	106.61	47.84	-31.6	-35.7	11.3	1.07e-03	0	44	0	531628032	23	5776
2026-01-26 09:47:05.38	105.31	48.51	-31.9	-36.7	10.5	3.27e-03	0	44	0	536870912	23	6263
2026-01-26 09:47:08.37	103.94	49.17	-31.7	-36.0	11.1	1.94e-03	0	44	0	542113792	23	5932
2026-01-26 09:47:11.38	102.51	49.83	-31.0	-34.0	12.5	1.52e-04	0	44	0	548405248	23	5054
2026-01-26 09:47:14.39	101.01	50.47	-30.9	-33.4	12.9	4.80e-05	0	44	0	553648128	23	4840
2026-01-26 09:47:17.39	99.46	51.11	-30.4	-32.8	13.7	1.60e-05	0	44	0	559939584	22	4721
2026-01-26 09:47:20.41	97.82	51.73	-29.2	-31.1	15.7	0.00e+00	0	44	0	565182464	19	4470
2026-01-26 09:47:23.42	96.13	52.33	-29.2	-31.0	15.8	0.00e+00	0	43	0	570425344	19	4429
2026-01-26 09:47:26.42	94.37	52.91	-29.1	-30.9	15.8	0.00e+00	0	44	0	576716800	19	4413
2026-01-26 09:47:29.43	92.53	53.47	-29.0	-30.7	15.9	0.00e+00	0	44	0	581959680	19	4356
2026-01-26 09:47:32.43	90.63	54.00	-29.3	-31.3	15.6	0.00e+00	0	44	0	587202560	19	4547
2026-01-26 09:47:35.44	88.66	54.50	-29.7	-32.3	15.0	0.00e+00	0	44	0	593494016	19	4866
2026-01-26 09:47:38.46	86.61	54.98	-30.2	-33.2	14.1	3.00e-06	0	44	0	598736896	20	5075
2026-01-26 09:47:41.47	84.49	55.42	-30.2	-32.6	14.1	3.80e-06	0	44	0	605028352	21	4743
2026-01-26 09:47:44.47	82.32	55.82	-29.6	-31.7	15.0	0.00e+00	0	44	0	610271232	20	4550
2026-01-26 09:47:47.48	80.09	56.19	-30.1	-32.8	14.3	1.50e-06	0	44	0	615514112	20	4950
2026-01-26 09:47:50.48	77.80	56.51	-29.8	-32.1	14.7	0.00e+00	0	44	0	621805568	20	4703
2026-01-26 09:47:53.50	75.45	56.79	-30.5	-33.5	13.6	7.60e-06	0	43	0	627048448	21	5072
2026-01-26 09:47:56.51	73.06	57.03	-30.2	-32.7	14.0	5.30e-06	0	44	0	633339904	21	4783
2026-01-26 09:47:59.52	70.64	57.21	-30.4	-33.2	13.8	2.20e-06	0	44	0	638582784	21	4956
2026-01-26 09:48:02.52	68.19	57.35	-29.6	-31.7	15.0	7.00e-07	0	44	0	643825664	20	4546
2026-01-26 09:48:05.53	65.72	57.43	-29.0	-30.7	15.9	0.00e+00	0	44	0	650117120	19	4347
2026-01-26 09:48:08.54	63.23	57.47	-29.2	-31.1	15.7	0.00e+00	0	44	0	655360000	19	4483
2026-01-26 09:48:11.55	60.75	57.45	-29.5	-31.7	15.4	0.00e+00	0	44	0	660602880	19	4651
2026-01-26 09:48:14.55	58.27	57.39	-28.9	-30.4	16.2	0.00e+00	0	44	0	666894336	19	4260
2026-01-26 09:48:17.55	55.82	57.27	-28.3	-29.5	16.9	0.00e+00	0	44	0	672137216	18	4105
2026-01-26 09:48:20.57	53.38	57.10	-28.2	-29.7	17.1	0.00e+00	0	43	0	678428672	17	4272
2026-01-26 09:48:23.57	50.98	56.89	-27.9	-29.1	17.4	0.00e+00	0	44	0	683671552	17	4117
2026-01-26 09:48:26.58	48.62	56.63	-27.8	-29.2	17.7	0.00e+00	0	44	0	688914432	16	4240
2026-01-26 09:48:29.59	46.31	56.32	-28.2	-30.3	17.0	0.00e+00	0	44	0	695205888	16	4550
2026-01-26 09:48:32.60	44.06	55.97	-28.8	-31.1	16.2	0.00e+00	0	44	0	700448768	17	4701
2026-01-26 09:48:35.62	41.85	55.58	-29.1	-31.4	15.8	0.00e+00	0	44	0	705691648	18	4665
2026-01-26 09:48:38.61	39.73	55.16	-29.3	-31.8	15.5	0.00e+00	0	44	0	711983104	18	4818
2026-01-26 09:48:41.62	37.66	54.70	-28.6	-30.2	16.4	0.00e+00	0	44	0	717225984	18	4330
2026-01-26 09:48:44.62	35.67	54.21	-28.9	-30.9	16.0	0.00e+00	0	44	0	723517440	18	4544
2026-01-26 09:48:47.64	33.73	53.68	-28.7	-30.3	16.4	0.00e+00	0	44	0	728760320	18	4333
2026-01-26 09:48:50.64	31.88	53.14	-28.4	-29.7	16.7	0.00e+00	0	44	0	734003200	18	4170
2026-01-26 09:48:53.66	30.08	52.56	-29.3	-31.8	15.5	0.00e+00	0	44	0	740294656	18	4823
2026-01-26 09:48:56.67	28.36	51.97	-29.4	-31.7	15.3	0.00e+00	0	43	0	745537536	19	4652
2026-01-26 09:48:59.68	26.71	51.36	-30.4	-33.8	13.6	4.50e-06	0	44	0	750780416	20	5308
2026-01-26 09:49:02.69	25.13	50.74	-30.5	-33.5	13.4	1.52e-05	0	44	0	757071872	21	5107
2026-01-26 09:49:05.70	23.61	50.10	-31.4	-35.8	11.6	4.09e-04	0	44	0	762314752	22	5919
2026-01-26 09:49:08.70	22.16	49.45	-31.8	-36.5	10.6	4.44e-03	0	44	0	768606208	23	6190
2026-01-26 09:49:11.71	20.77	48.79	-31.6	-35.7	11.2	1.11e-03	0	44	0	773849088	23	5809
2026-01-26 09:49:14.72	19.43	48.12	-31.7	-36.0	11.0	2.92e-03	0	44	0	779091968	23	5915
2026-01-26 09:49:17.73	18.16	47.45	-31.7	-36.0	10.9	1.94e-03	0	44	0	785383424	23	5952
2026-01-26 09:49:20.74	16.94	46.77	-32.1	-37.2	9.6	1.62e-02	0	44	0	790626304	24	6424
2026-01-26 09:49:23.75	15.77	46.09	-31.6	-35.3	11.1	1.91e-03	0	43	0	795869184	24	5527
2026-01-26 09:49:26.75	14.65	45.41	-31.8	-36.0	10.5	3.14e-03	0	44	0	802160640	24	5845
2026-01-26 09:49:29.76	13.58	44.73	-31.2	-34.6	12.0	4.68e-04	0	44	0	807403520	23	5297
2026-01-26 09:49:32.77	12.55	44.04	-31.3	-34.9	11.6	6.48e-04	0	44	0	813694976	23	5454
2026-01-26 09:49:35.78	11.57	43.37	-31.6	-35.8	11.0	1.82e-03	0	44	0	818937856	23	5857
2026-01-26 09:49:38.79	10.63	42.69	-31.6	-35.8	11.1	8.69e-04	0	44	0	824180736	23	5836
2026-01-26 09:49:41.80	9.72	42.02	-31.3	-34.8	11.8	6.48e-04	0	43	0	830472192	23	5392
2026-01-26 09:49:44.80	8.86	41.35	-31.1	-34.2	12.1	2.00e-04	0	44	0	835715072	23	5152
2026-01-26 09:49:47.79	8.04	40.69	-31.4	-35.3	11.3	9.95e-04	0	44	0	840957952	23	5624
2026-01-26 09:49:50.79	7.24	40.04	-31.5	-35.6	11.0	2.52e-03	0	44	0	847249408	23	5764
2026-01-26 09:49:53.80	6.48	39.39	-31.7	-36.1	10.7	2.50e-03	0	44	0	852492288	23	6024
2026-01-26 09:49:56.81	5.74	38.74	-31.5	-35.7	11.0	2.26e-03	0	44	0	858783744	23	5836
2026-01-26 09:49:59.81	5.04	38.11	-31.6	-35.8	11.0	2.59e-03	0	44	0	864026624	23	5860
2026-01-26 09:50:02.81	4.36	37.48	-31.5	-35.6	11.1	1.73e-03	0	44	0	869269504	23	5773
2026-01-26 09:50:05.82	3.71	36.86	-31.6	-36.0	10.8	3.76e-03	0	44	0	875560960	23	5951
2026-01-26 09:50:08.83	3.08	36.24	-31.3	-35.2	11.3	1.16e-03	0	44	0	880803840	23	5587
2026-01-26 09:50:11.83	2.48	35.63	-31.1	-34.4	11.9	4.47e-04	0	44	0	886046720	23	5260
2026-01-26 09:50:14.83	1.89	35.04	-31.1	-34.6	11.7	5.00e-04	0	44	0	892338176	23	5354
2026-01-26 09:50:17.84	1.33	34.44	-31.1	-34.6	11.7	5.96e-04	0	44	0	897581056	23	5340
2026-01-26 09:50:20.84	0.79	33.86	-31.3	-35.0	11.4	9.70e-04	0	44	0	903872512	23	5513
2026-01-26 09:50:23.85	0.27	33.29	-31.7	-36.3	10.4	3.77e-03	0	43	0	909115392	23	6160
2026-01-26 09:50:26.86	359.77	32.72	-31.5	-35.7	10.8	2.28e-03	0	44	0	914358272	23	5854
2026-01-26 09:50:29.86	359.28	32.16	-31.1	-34.6	11.7	5.44e-04	0	44	0	920649728	23	5353
2026-01-26 09:50:32.85	358.82	31.61	-31.1	-34.4	11.7	4.05e-04	0	44	0	925892608	23	5282
2026-01-26 09:50:35.86	358.37	31.07	-31.1	-34.6	11.6	5.41e-04	0	44	0	931135488	23	5360
2026-01-26 09:50:38.87	357.93	30.53	-31.2	-34.9	11.4	1.02e-03	0	44	0	937426944	23	5482
2026-01-26 09:50:41.88	357.50	30.01	-31.4	-35.5	10.9	2.05e-03	0	44	0	942669824	23	5760
2026-01-26 09:50:44.89	357.09	29.49	-31.3	-35.2	11.2	1.67e-03	0	44	0	948961280	23	5610
2026-01-26 09:50:47.88	356.70	28.98	-31.1	-34.4	11.7	6.90e-04	0	44	0	954204160	23	5280
2026-01-26 09:50:50.89	356.32	28.47	-31.0	-34.1	11.9	5.37e-04	0	44	0	959447040	23	5182
2026-01-26 09:50:53.90	355.94	27.98	-31.1	-34.4	11.7	4.03e-04	0	44	0	965738496	23	5303
2026-01-26 09:50:56.91	355.58	27.49	-31.0	-34.3	11.7	8.85e-04	0	44	0	970981376	23	5251
2026-01-26 09:50:59.92	355.24	27.00	-30.8	-34.2	12.1	1.87e-04	0	44	0	976224256	22	5301
2026-01-26 09:51:02.93	354.90	26.53	-30.8	-34.2	12.1	3.91e-04	0	44	0	982515712	22	5319
2026-01-26 09:51:05.93	354.57	26.06	-30.5	-33.3	12.7	8.31e-05	0	44	0	987758592	22	4983
2026-01-26 09:51:08.94	354.25	25.60	-30.4	-33.1	12.9	5.41e-05	0	44	0	994050048	22	4897
2026-01-26 09:51:11.96	353.94	25.15	-30.4	-33.0	12.9	4.80e-05	0	44	0	999292928	22	4878
2026-01-26 09:51:14.97	353.64	24.70	-30.6	-33.7	12.4	1.06e-04	0	44	0	1004535808	22	5130
2026-01-26 09:51:17.98	353.35	24.26	-30.7	-33.8	12.4	1.72e-04	0	44	0	1010827264	22	5184
2026-01-26 09:51:20.97	353.07	23.83	-30.9	-34.5	11.8	3.01e-04	0	44	0	1016070144	22	5454
2026-01-26 09:51:23.98	352.79	23.40	-30.5	-33.3	12.7	8.46e-05	0	44	0	1021313024	22	4962
2026-01-26 09:51:26.99	352.53	22.98	-30.5	-33.3	12.7	6.56e-05	0	44	0	1027604480	22	4968
2026-01-26 09:51:30.00	352.26	22.57	-30.5	-33.5	12.5	6.86e-05	0	44	0	1032847360	22	5062
2026-01-26 09:51:33.00	352.01	22.16	-30.2	-33.2	13.0	4.65e-05	0	44	0	1039138816	21	5040
2026-01-26 09:51:36.02	351.77	21.75	-30.3	-33.4	12.8	5.79e-05	0	44	0	1044381696	21	5121
2026-01-26 09:51:39.02	351.53	21.36	-30.4	-33.6	12.6	6.94e-05	0	44	0	1049624576	21	5196
2026-01-26 09:51:42.02	351.29	20.97	-30.2	-33.1	12.9	6.10e-05	0	44	0	1055916032	21	5026
2026-01-26 09:51:45.02	351.07	20.58	-30.2	-33.0	13.0	4.27e-05	0	44	0	1061158912	21	4988
2026-01-26 09:51:48.03	350.85	20.20	-30.2	-33.2	12.9	5.56e-05	0	44	0	1067450368	21	5052
2026-01-26 09:51:51.03	350.63	19.83	-30.3	-33.5	12.7	6.71e-05	0	44	0	1072693248	21	5163
2026-01-26 09:51:54.04	350.42	19.46	-30.4	-33.8	12.5	9.68e-05	0	44	0	1077936128	21	5292
2026-01-26 09:51:57.04	350.22	19.09	-29.9	-32.4	13.4	1.75e-05	0	44	0	1084227584	21	4776
2026-01-26 09:52:00.06	350.01	18.73	-29.7	-32.4	13.7	1.14e-05	0	44	0	1089470464	20	4866
2026-01-26 09:52:03.07	349.82	18.38	-29.7	-32.3	13.8	8.30e-06	0	44	0	1094713344	20	4835
2026-01-26 09:52:06.07	349.63	18.03	-29.8	-32.6	13.5	9.10e-06	0	44	0	1101004800	20	4960
2026-01-26 09:52:09.07	349.44	17.68	-29.9	-32.8	13.4	1.29e-05	0	44	0	1106247680	20	5016
2026-01-26 09:52:12.07	349.26	17.34	-30.2	-33.8	12.7	3.81e-05	0	44	0	1112539136	20	5402
2026-01-26 09:52:15.07	349.09	17.00	-30.2	-33.8	12.7	7.55e-05	0	44	0	1117782016	20	5403
2026-01-26 09:52:18.07	348.92	16.67	-30.2	-33.6	12.9	5.79e-05	0	44	0	1123024896	20	5328
2026-01-26 09:52:21.07	348.75	16.34	-30.3	-33.9	12.6	8.92e-05	0	44	0	1129316352	20	5451
2026-01-26 09:52:24.07	348.58	16.02	-30.3	-34.1	12.4	1.36e-04	0	44	0	1134559232	20	5573
2026-01-26 09:52:27.08	348.42	15.70	-30.4	-34.4	12.3	1.30e-04	0	44	0	1139802112	20	5680
2026-01-26 09:52:30.08	348.26	15.38	-30.6	-34.5	11.8	2.55e-04	0	44	0	1146093568	21	5612
2026-01-26 09:52:33.09	348.11	15.07	-30.3	-33.4	12.5	1.08e-04	0	44	0	1151336448	21	5175
2026-01-26 09:52:36.09	347.96	14.76	-30.2	-33.3	12.6	8.69e-05	0	44	0	1156579328	21	5134
2026-01-26 09:52:39.09	347.81	14.46	-30.2	-33.4	12.5	9.91e-05	0	44	0	1162870784	21	5188
2026-01-26 09:52:42.10	347.67	14.15	-30.4	-33.8	12.2	2.01e-04	0	44	0	1168113664	21	5347
2026-01-26 09:52:45.11	347.53	13.86	-30.4	-33.8	12.2	2.66e-04	0	44	0	1174405120	21	5339
2026-01-26 09:52:48.11	347.39	13.56	-30.4	-34.0	12.0	2.75e-04	0	44	0	1179648000	21	5427
2026-01-26 09:52:51.10	347.26	13.27	-30.4	-34.0	12.0	3.23e-04	0	44	0	1184890880	21	5429
2026-01-26 09:52:54.12	347.12	12.98	-30.4	-34.1	11.9	3.58e-04	0	44	0	1191182336	21	5457
2026-01-26 09:52:57.12	346.99	12.70	-30.6	-34.4	11.7	7.77e-04	0	44	0	1196425216	21	5625
2026-01-26 09:53:00.13	346.87	12.42	-30.5	-34.4	11.7	7.12e-04	0	44	0	1201668096	21	5608
2026-01-26 09:53:03.13	346.74	12.14	-30.6	-34.5	11.6	5.74e-04	0	44	0	1207959552	21	5638
2026-01-26 09:53:06.14	346.62	11.86	-30.6	-34.6	11.5	7.86e-04	0	44	0	1213202432	21	5707
2026-01-26 09:53:09.16	346.50	11.59	-30.7	-34.9	11.2	1.63e-03	0	44	0	1219493888	21	5848
2026-01-26 09:53:12.18	346.38	11.32	-30.7	-34.9	11.2	1.74e-03	0	44	0	1224736768	21	5844
2026-01-26 09:53:15.18	346.27	11.05	-30.6	-34.7	11.3	1.48e-03	0	44	0	1229979648	21	5780
2026-01-26 09:53:18.18	346.16	10.79	-30.8	-35.4	10.8	2.42e-03	0	44	0	1236271104	21	6103
2026-01-26 09:53:21.19	346.05	10.52	-30.8	-35.4	10.8	2.19e-03	0	44	0	1241513984	21	6089
2026-01-26 09:53:24.19	345.94	10.27	-30.7	-35.0	11.0	2.61e-03	0	44	0	1246756864	21	5923
2026-01-26 09:53:27.20	345.84	10.01	-30.9	-35.7	10.5	2.49e-03	0	44	0	1253048320	21	6265
2026-01-26 09:53:30.21	345.73	9.76	-30.9	-35.9	10.3	4.80e-03	0	44	0	1258291200	21	6349
2026-01-26 09:53:33.22	345.63	9.50	-31.0	-35.9	10.3	4.02e-03	0	44	0	1264582656	21	6398
2026-01-26 09:53:36.22	345.53	9.26	-30.9	-35.9	10.3	4.11e-03	0	44	0	1269825536	21	6375
2026-01-26 09:53:39.23	345.43	9.01	-30.7	-35.2	10.8	3.45e-03	0	44	0	1275068416	21	6033
2026-01-26 09:53:42.24	345.34	8.76	-30.8	-35.5	10.4	5.70e-03	0	44	0	1281359872	21	6182
2026-01-26 09:53:45.25	345.24	8.52	-31.0	-36.1	9.9	5.54e-03	0	44	0	1286602752	21	6527
2026-01-26 09:53:48.26	345.15	8.28	-30.8	-35.7	10.2	4.05e-03	0	44	0	1292894208	21	6325
2026-01-26 09:53:51.26	345.06	8.04	-30.8	-35.5	10.4	6.92e-03	0	44	0	1298137088	21	6214
2026-01-26 09:53:54.26	344.97	7.81	-30.7	-35.3	10.5	6.30e-03	0	44	0	1303379968	21	6130
2026-01-26 09:53:57.27	344.88	7.58	-30.8	-35.5	10.3	4.62e-03	0	44	0	1309671424	21	6221
2026-01-26 09:54:00.27	344.80	7.35	-30.8	-35.7	10.2	6.79e-03	0	44	0	1314914304	21	6310
2026-01-26 09:54:03.28	344.71	7.12	-31.5	-37.9	8.5	7.64e-03	0	44	0	1320157184	22	7506
2026-01-26 09:54:06.28	344.63	6.89	-33.5	-47.6	3.8	1.49e+00	0	44	104	1321205760	27	18244

#Closed at: 2026-01-26 09:54:06
#Recorded file [1321 MB]: D:/data/31010_260126_124218.dat