passes_logs/2026/01/26/R2M6_AANII_01/R2M6_AANII_01__20260126_231006_SUOMI_NPP_rec.log

#Pass ID: 20260126_231006_SUOMI NPP
#Satellite: SUOMI NPP
#Configuration: NPP
#almurnet v.1.7.20240730
#Start time: 2026-01-26 23:10:06

#Version: 2.2.20231116
#Station: R2M6_AANII_01
#Location: 30.233357 lon 59.946436 lat
#TLE: 1 37849U 11061A   26026.52266023  .00000173  00000+0  10323-3 0  9994
#TLE: 2 37849  98.7822 328.4727 0002140  43.9411 316.1934 14.19530258738341

#Time	Az	El	Level	Level2	SNR	BER	BlckErr	Temp	State	Recorded	gain1	gain2
2026-01-26 23:10:06.59	26.58	7.02	-31.7	-35.8	5.2	1.22e+00	0	41	0	0	23	5745
2026-01-26 23:10:09.60	26.81	7.23	-32.3	-37.7	6.9	1.56e-01	0	41	0	1048576	24	6737
2026-01-26 23:10:12.61	27.04	7.44	-31.9	-35.9	8.3	7.57e-02	0	41	0	7340032	24	5707
2026-01-26 23:10:15.61	27.27	7.64	-31.4	-34.5	9.9	1.27e-02	0	42	0	12582912	23	5110
2026-01-26 23:10:18.60	27.50	7.85	-31.5	-34.5	9.8	5.75e-03	0	42	0	17825792	23	5132
2026-01-26 23:10:21.61	27.74	8.06	-30.9	-33.2	11.3	2.15e-03	0	42	0	24117248	22	4688
2026-01-26 23:10:24.63	27.98	8.28	-30.5	-32.3	12.3	1.64e-04	0	42	0	29360128	21	4458
2026-01-26 23:10:27.64	28.22	8.49	-30.6	-32.7	12.0	2.49e-04	0	42	0	35651584	21	4590
2026-01-26 23:10:30.65	28.47	8.71	-30.3	-32.2	12.7	9.46e-05	0	42	0	40894464	20	4520
2026-01-26 23:10:33.65	28.72	8.92	-30.2	-32.0	12.9	5.03e-05	0	42	0	46137344	20	4447
2026-01-26 23:10:36.66	28.97	9.14	-30.3	-32.3	12.8	6.71e-05	0	42	0	52428800	20	4523
2026-01-26 23:10:39.66	29.23	9.36	-30.4	-32.1	12.5	1.40e-04	0	42	0	57671680	21	4377
2026-01-26 23:10:42.69	29.49	9.59	-30.6	-32.5	12.3	2.43e-04	0	42	0	63963136	21	4515
2026-01-26 23:10:45.71	29.76	9.81	-30.6	-32.5	12.3	1.26e-04	0	43	0	69206016	21	4504
2026-01-26 23:10:48.70	30.03	10.03	-30.6	-32.5	12.3	1.63e-04	0	42	0	74448896	21	4479
2026-01-26 23:10:51.70	30.30	10.26	-30.3	-31.8	12.8	1.20e-04	0	43	0	80740352	21	4275
2026-01-26 23:10:54.71	30.58	10.49	-30.3	-32.1	12.9	3.35e-05	0	43	0	85983232	20	4463
2026-01-26 23:10:57.72	30.86	10.71	-30.2	-31.9	13.1	4.19e-05	0	43	0	91226112	20	4405
2026-01-26 23:11:00.74	31.14	10.95	-30.2	-32.0	13.1	4.11e-05	0	43	0	97517568	20	4403
2026-01-26 23:11:03.75	31.43	11.18	-30.6	-32.4	12.5	1.15e-04	0	43	0	102760448	21	4468
2026-01-26 23:11:06.75	31.73	11.41	-30.7	-32.7	12.2	2.37e-04	0	43	0	109051904	21	4554
2026-01-26 23:11:09.76	32.02	11.65	-30.8	-33.2	12.0	3.48e-04	0	43	0	114294784	21	4740
2026-01-26 23:11:12.76	32.33	11.88	-30.8	-33.0	12.1	2.90e-04	0	43	0	119537664	21	4646
2026-01-26 23:11:15.78	32.64	12.12	-30.9	-33.3	12.0	3.29e-04	0	43	0	125829120	21	4759
2026-01-26 23:11:18.80	32.95	12.36	-30.3	-31.5	13.1	4.34e-05	0	43	0	131072000	21	4168
2026-01-26 23:11:21.80	33.27	12.60	-30.3	-32.2	13.1	1.75e-05	0	43	0	136314880	20	4465
2026-01-26 23:11:24.81	33.59	12.85	-30.3	-32.2	13.2	3.28e-05	0	43	0	142606336	20	4453
2026-01-26 23:11:27.82	33.92	13.09	-30.1	-31.7	13.5	1.37e-05	0	43	0	147849216	20	4303
2026-01-26 23:11:30.82	34.25	13.34	-30.3	-32.1	13.2	1.83e-05	0	43	0	154140672	20	4415
2026-01-26 23:11:33.81	34.59	13.59	-30.6	-32.3	12.7	3.05e-05	0	43	0	159383552	21	4402
2026-01-26 23:11:36.82	34.93	13.84	-30.7	-32.6	12.6	1.19e-04	0	43	0	164626432	21	4503
2026-01-26 23:11:39.84	35.28	14.09	-30.5	-32.0	13.0	5.18e-05	0	43	0	170917888	21	4307
2026-01-26 23:11:42.85	35.64	14.34	-30.5	-32.1	12.8	4.65e-05	0	43	0	176160768	21	4344
2026-01-26 23:11:45.85	36.00	14.60	-30.4	-32.0	13.0	5.26e-05	0	43	0	181403648	21	4288
2026-01-26 23:11:48.85	36.36	14.85	-30.7	-32.6	12.6	6.56e-05	0	43	0	187695104	21	4518
2026-01-26 23:11:51.86	36.74	15.11	-30.9	-33.2	12.2	2.02e-04	0	43	0	192937984	21	4712
2026-01-26 23:11:54.87	37.12	15.37	-30.9	-33.1	12.2	1.48e-04	0	43	0	199229440	21	4667
2026-01-26 23:11:57.87	37.50	15.63	-30.8	-33.0	12.5	1.44e-04	0	43	0	204472320	21	4607
2026-01-26 23:12:00.87	37.89	15.90	-30.9	-33.2	12.3	1.74e-04	0	43	0	209715200	21	4677
2026-01-26 23:12:03.88	38.29	16.16	-30.7	-32.5	12.7	6.63e-05	0	43	0	216006656	21	4463
2026-01-26 23:12:06.89	38.70	16.43	-30.6	-32.4	12.8	7.55e-05	0	43	0	221249536	21	4418
2026-01-26 23:12:09.90	39.11	16.70	-30.2	-31.1	13.7	5.30e-06	0	43	0	226492416	21	4023
2026-01-26 23:12:12.91	39.54	16.97	-30.1	-30.8	13.9	7.00e-07	0	43	0	232783872	21	3931
2026-01-26 23:12:15.93	39.97	17.24	-30.0	-30.6	14.1	4.19e-05	0	43	0	238026752	21	3864
2026-01-26 23:12:18.94	40.40	17.51	-30.0	-31.1	14.1	3.00e-06	0	44	0	244318208	20	4103
2026-01-26 23:12:21.96	40.85	17.79	-30.1	-31.5	13.9	4.50e-06	0	44	0	249561088	20	4204
2026-01-26 23:12:24.98	41.30	18.06	-29.9	-31.0	14.2	1.50e-06	0	44	0	254803968	20	4066
2026-01-26 23:12:27.99	41.76	18.34	-30.0	-31.1	14.2	0.00e+00	0	44	0	261095424	20	4087
2026-01-26 23:12:30.99	42.23	18.62	-29.9	-30.8	14.4	2.20e-06	0	44	0	266338304	20	3999
2026-01-26 23:12:34.00	42.70	18.90	-29.9	-30.8	14.3	9.90e-06	0	44	0	272629760	20	4020
2026-01-26 23:12:37.01	43.19	19.18	-29.8	-30.6	14.4	7.00e-07	0	44	0	277872640	20	3953
2026-01-26 23:12:40.02	43.68	19.46	-29.8	-30.7	14.4	1.50e-06	0	44	0	283115520	20	3977
2026-01-26 23:12:43.03	44.18	19.75	-29.7	-30.4	14.7	0.00e+00	0	44	0	289406976	20	3892
2026-01-26 23:12:46.03	44.69	20.03	-29.6	-30.1	14.8	7.00e-07	0	44	0	294649856	20	3821
2026-01-26 23:12:49.04	45.21	20.32	-29.4	-29.7	15.1	0.00e+00	0	44	0	300941312	20	3705
2026-01-26 23:12:52.05	45.74	20.60	-29.5	-29.9	15.0	7.00e-07	0	44	0	306184192	20	3757
2026-01-26 23:12:55.07	46.29	20.89	-29.8	-30.9	14.8	0.00e+00	0	44	0	311427072	19	4125
2026-01-26 23:12:58.08	46.84	21.18	-29.2	-29.6	15.6	0.00e+00	0	44	0	317718528	19	3758
2026-01-26 23:13:01.09	47.40	21.47	-29.2	-29.5	15.6	0.00e+00	0	44	0	322961408	19	3742
2026-01-26 23:13:04.10	47.97	21.76	-29.4	-30.1	15.3	0.00e+00	0	44	0	328204288	19	3903
2026-01-26 23:13:07.10	48.55	22.05	-29.6	-30.6	14.9	2.84e-04	0	44	0	334495744	19	4022
2026-01-26 23:13:10.10	49.14	22.34	-29.9	-30.8	14.4	4.69e-04	0	44	0	339738624	20	4008
2026-01-26 23:13:13.11	49.74	22.63	-30.0	-31.2	14.2	5.41e-05	0	44	0	346030080	20	4100
2026-01-26 23:13:16.12	50.35	22.92	-29.5	-29.7	15.2	0.00e+00	0	44	0	351272960	20	3704
2026-01-26 23:13:19.13	50.98	23.21	-29.4	-29.4	15.3	0.00e+00	0	44	0	356515840	20	3631
2026-01-26 23:13:22.14	51.62	23.50	-29.5	-29.9	15.0	0.00e+00	0	43	0	362807296	20	3749
2026-01-26 23:13:25.14	52.26	23.79	-29.6	-30.6	15.0	2.97e-04	0	44	0	368050176	19	4013
2026-01-26 23:13:28.15	52.92	24.08	-29.5	-30.3	15.2	2.10e-04	0	44	0	373293056	19	3931
2026-01-26 23:13:31.16	53.59	24.37	-29.3	-29.8	15.5	1.82e-04	0	44	0	379584512	19	3800
2026-01-26 23:13:34.17	54.28	24.66	-29.2	-30.0	15.7	7.32e-05	0	44	0	384827392	18	3965
2026-01-26 23:13:37.18	54.98	24.94	-29.4	-30.0	15.4	0.00e+00	0	44	0	391118848	19	3847
2026-01-26 23:13:40.18	55.68	25.23	-29.7	-30.8	14.9	0.00e+00	0	44	0	396361728	19	4087
2026-01-26 23:13:43.20	56.41	25.51	-30.0	-31.1	14.4	7.00e-07	0	44	0	401604608	20	4069
2026-01-26 23:13:46.21	57.14	25.80	-30.1	-31.3	14.2	1.50e-06	0	44	0	407896064	20	4138
2026-01-26 23:13:49.22	57.89	26.08	-29.7	-30.3	14.9	7.00e-07	0	44	0	413138944	20	3836
2026-01-26 23:13:52.23	58.65	26.35	-29.8	-30.6	14.7	0.00e+00	0	44	0	419430400	20	3919
2026-01-26 23:13:55.24	59.42	26.63	-30.1	-31.3	14.3	7.00e-07	0	44	0	424673280	20	4117
2026-01-26 23:13:58.24	60.21	26.90	-29.7	-30.2	15.0	7.00e-07	0	44	0	429916160	20	3817
2026-01-26 23:14:01.26	61.01	27.17	-29.9	-31.3	14.7	0.00e+00	0	44	0	436207616	19	4207
2026-01-26 23:14:04.27	61.83	27.44	-30.3	-31.9	13.9	2.20e-06	0	44	0	441450496	20	4310
2026-01-26 23:14:07.28	62.65	27.70	-30.4	-32.0	13.9	7.00e-07	0	44	0	446693376	20	4335
2026-01-26 23:14:10.29	63.49	27.96	-30.5	-31.7	13.7	2.20e-06	0	44	0	452984832	21	4167
2026-01-26 23:14:13.30	64.35	28.22	-30.1	-31.3	14.3	1.62e-04	0	44	0	458227712	20	4123
2026-01-26 23:14:16.31	65.21	28.47	-30.1	-31.2	14.4	0.00e+00	0	44	0	464519168	20	4092
2026-01-26 23:14:19.33	66.10	28.71	-30.3	-31.9	13.9	0.00e+00	0	44	0	469762048	20	4303
2026-01-26 23:14:22.34	66.99	28.95	-30.9	-32.4	13.0	6.33e-05	0	44	0	475004928	22	4271
2026-01-26 23:14:25.34	67.90	29.19	-30.4	-31.1	13.8	7.00e-07	0	44	0	481296384	22	3873
2026-01-26 23:14:28.35	68.82	29.42	-31.0	-32.6	12.9	5.95e-05	0	44	0	486539264	22	4334
2026-01-26 23:14:31.35	69.75	29.64	-30.9	-32.3	13.1	2.21e-05	0	44	0	491782144	22	4243
2026-01-26 23:14:34.35	70.69	29.85	-31.4	-33.9	11.9	2.10e-04	0	44	0	498073600	22	4800
2026-01-26 23:14:37.36	71.65	30.06	-32.0	-35.0	10.8	1.40e-03	0	44	0	503316480	23	5135
2026-01-26 23:14:40.37	72.62	30.27	-32.4	-35.9	9.8	7.05e-03	0	44	0	509607936	24	5419
2026-01-26 23:14:43.37	73.59	30.46	-31.6	-33.3	11.7	1.32e-03	0	44	0	514850816	24	4395
2026-01-26 23:14:46.38	74.59	30.65	-31.8	-34.4	11.3	9.41e-04	0	44	0	520093696	23	4883
2026-01-26 23:14:49.38	75.59	30.82	-31.4	-33.3	12.1	2.92e-04	0	44	0	526385152	23	4474
2026-01-26 23:14:52.39	76.60	30.99	-31.4	-33.4	12.1	5.08e-04	0	44	0	531628032	23	4505
2026-01-26 23:14:55.40	77.63	31.16	-31.0	-32.6	12.9	4.19e-05	0	44	0	536870912	22	4353
2026-01-26 23:14:58.40	78.66	31.31	-31.4	-33.4	12.0	4.56e-04	0	44	0	543162368	23	4513
2026-01-26 23:15:01.41	79.71	31.45	-31.2	-32.8	12.4	3.14e-04	0	44	0	548405248	23	4344
2026-01-26 23:15:04.42	80.76	31.58	-30.9	-32.0	12.9	8.85e-05	0	44	0	554696704	23	4067
2026-01-26 23:15:07.43	81.82	31.71	-30.8	-32.2	13.2	2.89e-05	0	44	0	559939584	22	4207
2026-01-26 23:15:10.45	82.90	31.82	-31.5	-33.6	11.9	5.65e-04	0	44	0	565182464	23	4582
2026-01-26 23:15:13.46	83.97	31.92	-31.1	-32.5	12.6	3.21e-04	0	44	0	571473920	23	4210
2026-01-26 23:15:16.47	85.06	32.01	-30.3	-30.9	14.0	2.20e-06	0	44	0	576716800	22	3816
2026-01-26 23:15:19.49	86.15	32.09	-30.8	-32.1	13.3	1.06e-05	0	44	0	583008256	22	4172
2026-01-26 23:15:22.49	87.24	32.16	-30.9	-32.2	13.2	2.59e-05	0	44	0	588251136	22	4213
2026-01-26 23:15:25.50	88.34	32.22	-30.6	-31.5	13.6	6.10e-06	0	44	0	593494016	22	3989
2026-01-26 23:15:28.51	89.44	32.27	-30.5	-31.4	13.7	5.30e-06	0	44	0	599785472	22	3966
2026-01-26 23:15:31.52	90.55	32.30	-30.5	-31.2	13.7	5.79e-05	0	44	0	605028352	22	3906
2026-01-26 23:15:34.54	91.66	32.33	-30.8	-32.2	13.1	9.30e-05	0	44	0	610271232	22	4208
2026-01-26 23:15:37.55	92.77	32.34	-30.6	-31.6	13.5	1.10e-04	0	44	0	616562688	22	4047
2026-01-26 23:15:40.54	93.87	32.34	-30.8	-32.7	13.0	1.92e-04	0	44	0	621805568	21	4481
2026-01-26 23:15:43.54	94.97	32.33	-30.4	-31.1	13.8	5.30e-06	0	44	0	628097024	22	3889
2026-01-26 23:15:46.55	96.08	32.30	-30.0	-30.4	14.5	0.00e+00	0	44	0	633339904	21	3790
2026-01-26 23:15:49.55	97.18	32.27	-30.9	-32.9	13.0	4.11e-05	0	44	0	638582784	21	4531
2026-01-26 23:15:52.56	98.28	32.22	-31.1	-33.1	12.5	1.04e-04	0	44	0	644874240	22	4487
2026-01-26 23:15:55.56	99.38	32.17	-30.7	-31.9	13.2	8.01e-05	0	44	0	650117120	22	4113
2026-01-26 23:15:58.57	100.48	32.10	-30.9	-32.3	13.0	1.14e-05	0	44	0	655360000	22	4246
2026-01-26 23:16:01.58	101.57	32.02	-31.3	-33.5	12.2	2.72e-04	0	44	0	661651456	22	4635
2026-01-26 23:16:04.60	102.66	31.93	-31.3	-33.7	12.1	1.57e-04	0	44	0	666894336	22	4711
2026-01-26 23:16:07.60	103.73	31.83	-31.1	-32.9	12.6	6.10e-05	0	44	0	673185792	22	4445
2026-01-26 23:16:10.60	104.80	31.72	-31.6	-34.0	11.5	3.04e-04	0	44	0	678428672	23	4727
2026-01-26 23:16:13.60	105.86	31.59	-31.5	-33.8	11.6	9.53e-04	0	44	0	683671552	23	4655
2026-01-26 23:16:16.62	106.92	31.46	-31.9	-34.4	10.8	2.85e-03	0	44	0	689963008	24	4802
2026-01-26 23:16:19.63	107.97	31.32	-30.8	-31.7	13.0	1.32e-04	0	44	0	695205888	23	3985
2026-01-26 23:16:22.63	109.00	31.17	-30.7	-31.9	13.2	2.05e-05	0	44	0	700448768	22	4124
2026-01-26 23:16:25.64	110.03	31.01	-30.7	-32.0	13.1	6.25e-05	0	44	0	706740224	22	4158
2026-01-26 23:16:28.65	111.05	30.84	-30.3	-31.2	13.9	2.20e-06	0	44	0	711983104	21	4026
2026-01-26 23:16:31.66	112.06	30.66	-30.4	-31.6	13.7	2.13e-05	0	44	0	718274560	21	4142
2026-01-26 23:16:34.68	113.06	30.47	-30.3	-31.3	13.9	1.50e-06	0	44	0	723517440	21	4035
2026-01-26 23:16:37.68	114.04	30.28	-30.8	-32.8	12.8	5.95e-05	0	44	0	728760320	21	4523
2026-01-26 23:16:40.68	115.01	30.07	-30.5	-31.9	13.4	2.44e-05	0	44	0	735051776	21	4235
2026-01-26 23:16:43.70	115.97	29.86	-30.9	-33.0	12.7	5.41e-05	0	44	0	740294656	21	4608
2026-01-26 23:16:46.70	116.92	29.65	-30.8	-32.3	12.8	1.02e-04	0	44	0	745537536	22	4259
2026-01-26 23:16:49.71	117.86	29.42	-30.9	-32.4	12.6	6.10e-05	0	44	0	751828992	22	4316
2026-01-26 23:16:52.73	118.78	29.19	-31.2	-33.5	12.0	1.82e-04	0	44	0	757071872	22	4677
2026-01-26 23:16:55.74	119.69	28.96	-30.4	-31.2	13.5	3.20e-05	0	44	0	763363328	22	3940
2026-01-26 23:16:58.75	120.59	28.72	-31.2	-33.6	11.9	1.56e-04	0	44	0	768606208	22	4714
2026-01-26 23:17:01.75	121.47	28.47	-31.2	-33.5	12.0	3.02e-04	0	44	0	773849088	22	4658
2026-01-26 23:17:04.77	122.35	28.22	-30.9	-32.6	12.5	2.52e-04	0	44	0	780140544	22	4385
2026-01-26 23:17:07.78	123.20	27.96	-31.1	-33.0	12.3	1.27e-04	0	44	0	785383424	22	4518
2026-01-26 23:17:10.78	124.05	27.70	-31.7	-34.6	10.9	1.29e-03	0	44	0	791674880	23	4998
2026-01-26 23:17:13.79	124.88	27.44	-32.2	-35.7	9.5	1.48e-02	0	44	0	796917760	24	5375
2026-01-26 23:17:16.79	125.69	27.17	-31.5	-33.4	11.3	1.26e-03	0	44	0	802160640	24	4464
2026-01-26 23:17:19.80	126.49	26.90	-32.3	-36.3	9.1	7.79e-03	0	44	0	808452096	24	5681
2026-01-26 23:17:22.82	127.29	26.63	-32.3	-35.8	9.1	2.94e-02	0	44	0	813694976	25	5397
2026-01-26 23:17:25.83	128.06	26.35	-32.2	-35.6	9.5	1.83e-02	0	44	0	818937856	24	5379
2026-01-26 23:17:28.84	128.83	26.07	-32.2	-35.8	9.4	2.36e-02	0	44	0	825229312	24	5460
2026-01-26 23:17:31.85	129.58	25.79	-32.0	-35.1	9.8	8.21e-03	0	44	0	830472192	24	5170
2026-01-26 23:17:34.86	130.32	25.50	-32.8	-37.9	7.4	9.64e-02	0	44	0	836763648	25	6476
2026-01-26 23:17:37.87	131.04	25.22	-32.2	-35.4	9.3	3.58e-02	0	44	0	842006528	25	5197
2026-01-26 23:17:40.89	131.76	24.93	-31.2	-33.2	11.6	6.23e-04	0	44	0	847249408	23	4533
2026-01-26 23:17:43.90	132.46	24.64	-31.5	-34.2	10.8	2.58e-03	0	44	0	853540864	23	4903
2026-01-26 23:17:46.91	133.14	24.35	-30.3	-31.1	13.3	1.37e-05	0	44	0	858783744	22	3943
2026-01-26 23:17:49.92	133.82	24.06	-31.2	-33.5	11.7	1.81e-04	0	44	0	864026624	22	4699
2026-01-26 23:17:52.93	134.48	23.77	-30.9	-32.8	12.1	5.26e-04	0	44	0	870318080	22	4489
2026-01-26 23:17:55.95	135.13	23.47	-30.5	-32.2	12.8	8.08e-05	0	44	0	875560960	21	4407
2026-01-26 23:17:58.96	135.77	23.18	-31.6	-35.0	10.1	4.23e-03	0	44	0	881852416	23	5294
2026-01-26 23:18:01.98	136.40	22.89	-31.6	-34.8	10.2	4.84e-03	0	44	0	887095296	23	5214
2026-01-26 23:18:04.99	137.02	22.60	-30.7	-32.6	12.1	2.04e-04	0	44	0	892338176	22	4461
2026-01-26 23:18:08.00	137.62	22.30	-30.2	-31.4	13.0	4.11e-05	0	44	0	898629632	21	4169
2026-01-26 23:18:11.01	138.22	22.01	-29.3	-30.2	14.7	7.00e-07	0	44	0	903872512	19	3968
2026-01-26 23:18:14.03	138.80	21.72	-29.2	-29.9	14.9	0.00e+00	0	44	0	910163968	19	3876
2026-01-26 23:18:17.03	139.37	21.43	-30.4	-32.5	12.8	3.66e-05	0	44	0	915406848	20	4582
2026-01-26 23:18:20.05	139.94	21.13	-30.3	-32.3	12.9	6.63e-05	0	44	0	920649728	20	4539
2026-01-26 23:18:23.05	140.49	20.84	-29.9	-31.5	13.4	1.52e-05	0	44	0	926941184	20	4297
2026-01-26 23:18:26.06	141.03	20.56	-30.2	-32.3	12.8	6.69e-04	0	44	0	932184064	20	4574
2026-01-26 23:18:29.06	141.56	20.27	-30.2	-32.1	13.0	1.04e-03	0	44	0	937426944	20	4463
2026-01-26 23:18:32.07	142.08	19.98	-30.1	-31.8	13.1	1.56e-03	0	44	0	943718400	20	4381
2026-01-26 23:18:35.08	142.60	19.69	-29.8	-31.3	13.9	1.29e-05	0	44	0	948961280	19	4284
2026-01-26 23:18:38.08	143.10	19.41	-30.0	-31.5	13.3	2.74e-05	0	44	0	955252736	20	4260
2026-01-26 23:18:41.09	143.59	19.12	-30.3	-32.3	12.8	4.65e-05	0	44	0	960495616	20	4533
2026-01-26 23:18:44.10	144.08	18.84	-30.3	-32.3	12.7	2.03e-03	0	44	0	965738496	20	4557
2026-01-26 23:18:47.12	144.56	18.56	-29.3	-30.3	14.3	1.87e-03	0	44	0	972029952	19	4014
2026-01-26 23:18:50.12	145.03	18.28	-29.1	-30.2	14.7	1.90e-03	0	44	0	977272832	18	4075
2026-01-26 23:18:53.13	145.49	18.00	-29.4	-31.0	14.1	1.83e-03	0	44	0	983564288	18	4325
2026-01-26 23:18:56.13	145.94	17.72	-29.4	-30.9	14.3	1.97e-03	0	44	0	988807168	18	4296
2026-01-26 23:18:59.13	146.38	17.44	-29.6	-30.9	13.9	6.10e-06	0	44	0	994050048	19	4179
2026-01-26 23:19:02.14	146.82	17.17	-30.0	-31.5	13.0	2.05e-05	0	44	0	1000341504	20	4310
2026-01-26 23:19:05.14	147.24	16.90	-30.3	-32.6	12.3	2.09e-03	0	44	0	1005584384	20	4663
2026-01-26 23:19:08.15	147.66	16.62	-30.5	-32.8	11.8	2.86e-03	0	44	0	1010827264	21	4667
2026-01-26 23:19:11.16	148.08	16.35	-30.5	-32.8	11.8	2.97e-03	0	44	0	1017118720	21	4691
2026-01-26 23:19:14.17	148.49	16.08	-30.4	-32.8	12.0	2.56e-03	0	44	0	1022361600	20	4783
2026-01-26 23:19:17.18	148.89	15.82	-30.3	-32.6	12.1	2.30e-04	0	44	0	1027604480	20	4685
2026-01-26 23:19:20.19	149.28	15.55	-30.1	-32.0	12.6	9.84e-05	0	44	0	1033895936	20	4474
2026-01-26 23:19:23.20	149.67	15.29	-30.5	-32.6	11.8	4.11e-04	0	44	0	1039138816	21	4626
2026-01-26 23:19:26.21	150.05	15.03	-30.6	-33.1	11.4	8.42e-04	0	44	0	1045430272	21	4799
2026-01-26 23:19:29.21	150.42	14.77	-30.3	-32.7	11.9	2.87e-03	0	44	0	1050673152	20	4785
2026-01-26 23:19:32.22	150.79	14.51	-30.4	-33.0	11.7	4.20e-04	0	44	0	1055916032	20	4848
2026-01-26 23:19:35.24	151.15	14.25	-30.0	-32.0	12.4	1.72e-04	0	44	0	1062207488	20	4504
2026-01-26 23:19:38.24	151.50	13.99	-30.1	-32.2	12.3	2.15e-04	0	44	0	1067450368	20	4604
2026-01-26 23:19:41.26	151.85	13.74	-30.5	-33.1	11.1	1.23e-03	0	44	0	1073741824	21	4871
2026-01-26 23:19:44.27	152.20	13.49	-30.0	-32.1	12.2	3.52e-04	0	44	0	1078984704	20	4613
2026-01-26 23:19:47.28	152.54	13.24	-30.0	-32.0	12.3	1.20e-04	0	44	0	1084227584	20	4535
2026-01-26 23:19:50.29	152.87	12.99	-30.0	-32.5	11.2	1.56e-04	0	44	0	1090519040	19	4786
2026-01-26 23:19:53.30	153.20	12.74	-30.0	-32.4	12.2	1.39e-04	0	44	0	1095761920	19	4771
2026-01-26 23:19:56.31	153.52	12.50	-30.1	-32.4	12.0	2.88e-04	0	44	0	1101004800	20	4672
2026-01-26 23:19:59.31	153.83	12.25	-30.2	-32.7	11.8	3.62e-04	0	44	0	1107296256	20	4780
2026-01-26 23:20:02.31	154.15	12.01	-30.3	-33.0	11.6	5.95e-04	0	44	0	1112539136	20	4892
2026-01-26 23:20:05.32	154.45	11.77	-30.3	-33.0	11.5	8.35e-04	0	44	0	1118830592	20	4917
2026-01-26 23:20:08.34	154.76	11.53	-30.1	-32.4	11.9	5.26e-04	0	44	0	1124073472	20	4715
2026-01-26 23:20:11.35	155.05	11.29	-30.3	-33.0	11.5	2.92e-03	0	44	0	1129316352	20	4903
2026-01-26 23:20:14.36	155.35	11.06	-30.2	-32.5	11.9	2.74e-03	0	44	0	1135607808	20	4704
2026-01-26 23:20:17.36	155.63	10.83	-30.2	-32.5	12.0	2.76e-03	0	44	0	1140850688	20	4691
2026-01-26 23:20:20.37	155.92	10.59	-30.0	-32.2	12.1	3.01e-04	0	44	0	1146093568	20	4643
2026-01-26 23:20:23.39	156.20	10.36	-30.2	-32.7	11.6	4.73e-04	0	44	0	1152385024	20	4835
2026-01-26 23:20:26.40	156.48	10.13	-30.0	-32.3	11.9	3.31e-04	0	44	0	1157627904	20	4708
2026-01-26 23:20:29.40	156.75	9.91	-30.0	-32.3	11.9	2.68e-03	0	44	0	1163919360	20	4661
2026-01-26 23:20:32.42	157.02	9.68	-30.0	-32.0	12.2	2.38e-03	0	44	0	1169162240	20	4518
2026-01-26 23:20:35.43	157.28	9.45	-30.0	-32.0	12.1	2.62e-03	0	44	0	1174405120	20	4549
2026-01-26 23:20:38.44	157.54	9.23	-29.9	-32.3	12.3	2.41e-03	0	44	0	1180696576	19	4732
2026-01-26 23:20:41.45	157.80	9.01	-29.9	-31.9	12.2	2.30e-03	0	44	0	1185939456	20	4535
2026-01-26 23:20:44.48	158.05	8.79	-30.0	-32.0	12.2	2.65e-03	0	44	0	1192230912	20	4535
2026-01-26 23:20:47.48	158.30	8.57	-30.2	-32.5	11.8	3.53e-04	0	44	0	1197473792	20	4694
2026-01-26 23:20:50.49	158.54	8.35	-30.2	-32.5	11.8	5.24e-04	0	44	0	1202716672	20	4703
2026-01-26 23:20:53.50	158.79	8.14	-30.1	-32.4	11.9	3.05e-03	0	44	0	1209008128	20	4670
2026-01-26 23:20:56.51	159.02	7.92	-30.2	-32.8	11.5	3.39e-03	0	44	0	1214251008	20	4805
2026-01-26 23:20:59.52	159.26	7.71	-30.4	-33.4	11.0	3.59e-03	0	44	0	1219493888	20	5087
2026-01-26 23:21:02.52	159.49	7.50	-30.5	-33.4	10.6	2.64e-03	0	44	0	1225785344	21	5017
2026-01-26 23:21:05.53	159.72	7.29	-30.7	-34.2	9.9	7.65e-03	0	44	0	1231028224	21	5389
2026-01-26 23:21:08.54	159.95	7.08	-32.6	-45.1	3.8	5.14e-01	0	44	104	1236271104	25	15228

#Closed at: 2026-01-26 23:21:11
#Recorded file [1236 MB]: D:/data/31010_260127_021008.dat