passes_logs/2026/01/26/R2M6_AANII_01/R2M6_AANII_01__20260126_024948_SUOMI_NPP_rec.log

#Pass ID: 20260126_024948_SUOMI NPP
#Satellite: SUOMI NPP
#Configuration: NPP
#almurnet v.1.7.20240730
#Start time: 2026-01-26 02:49:48

#Version: 2.2.20231116
#Station: R2M6_AANII_01
#Location: 30.233357 lon 59.946436 lat
#TLE: 1 37849U 11061A   26025.53586395  .00000179  00000+0  10601-3 0  9996
#TLE: 2 37849  98.7821 327.4943 0002169  45.6246 314.5108 14.19529815738202

#Time	Az	El	Level	Level2	SNR	BER	BlckErr	Temp	State	Recorded	gain1	gain2
2026-01-26 02:49:48.51	9.00	6.99	-32.2	-41.4	3.9	1.48e+00	0	41	0	0	24	10398
2026-01-26 02:49:51.51	8.67	7.16	-32.0	-39.4	4.2	1.42e+00	0	42	104	0	24	8416
2026-01-26 02:49:54.52	8.34	7.33	-32.0	-39.5	4.9	6.60e-01	0	42	0	3145728	24	8465
2026-01-26 02:49:57.54	8.00	7.50	-32.1	-39.9	4.7	9.36e-01	0	42	0	9437184	24	8864
2026-01-26 02:50:00.54	7.66	7.67	-31.9	-39.0	5.5	4.09e-01	0	42	0	14680064	23	8105
2026-01-26 02:50:03.55	7.31	7.85	-31.7	-37.5	6.4	2.81e-01	0	42	102	19922944	23	6981
2026-01-26 02:50:06.56	6.97	8.02	-31.7	-37.5	6.5	2.53e-01	0	42	102	19922944	23	7029
2026-01-26 02:50:09.56	6.61	8.19	-31.7	-37.1	6.8	2.25e-01	0	42	102	19922944	23	6710
2026-01-26 02:50:12.57	6.25	8.36	-31.0	-34.4	9.2	3.67e-02	0	42	102	19922944	22	5380
2026-01-26 02:50:15.59	5.89	8.53	-30.8	-34.4	9.6	1.47e-02	0	42	102	19922944	21	5471
2026-01-26 02:50:18.61	5.52	8.71	-30.7	-33.9	10.0	7.53e-03	0	42	102	19922944	21	5227
2026-01-26 02:50:21.63	5.15	8.88	-30.7	-34.1	9.8	9.79e-03	0	42	102	19922944	21	5332
2026-01-26 02:50:24.65	4.77	9.05	-30.8	-34.2	9.7	2.00e-02	0	43	102	19922944	21	5362
2026-01-26 02:50:27.66	4.39	9.22	-30.5	-33.4	10.5	5.49e-03	0	43	102	19922944	21	5002
2026-01-26 02:50:30.68	4.00	9.40	-30.6	-33.8	10.2	5.97e-03	0	43	102	19922944	21	5162
2026-01-26 02:50:33.70	3.61	9.57	-30.8	-34.1	10.0	8.98e-03	0	43	102	19922944	21	5308
2026-01-26 02:50:36.71	3.22	9.74	-30.7	-34.0	10.1	4.57e-03	0	43	102	19922944	21	5244
2026-01-26 02:50:39.73	2.82	9.92	-30.5	-33.2	10.6	3.66e-03	0	43	102	19922944	21	4931
2026-01-26 02:50:42.74	2.41	10.09	-29.4	-32.3	10.5	3.72e-03	0	43	102	19922944	21	5013
2026-01-26 02:50:45.75	2.00	10.26	-30.6	-33.6	9.8	5.49e-03	0	43	102	19922944	21	5083
2026-01-26 02:50:48.75	1.59	10.43	-30.4	-33.4	10.8	5.00e-03	0	43	102	19922944	20	5093
2026-01-26 02:50:51.76	1.17	10.60	-30.6	-33.7	10.3	8.64e-03	0	43	102	19922944	21	5122
2026-01-26 02:50:54.79	0.74	10.77	-30.6	-33.7	10.3	7.13e-03	0	43	102	19922944	21	5124
2026-01-26 02:50:57.81	0.31	10.94	-30.6	-33.6	10.4	4.57e-03	0	43	102	19922944	21	5086
2026-01-26 02:51:00.82	359.88	11.11	-30.6	-33.5	10.4	2.94e-03	0	43	102	19922944	21	5052
2026-01-26 02:51:03.82	359.44	11.28	-30.5	-33.2	10.7	3.37e-03	0	43	102	19922944	21	4937
2026-01-26 02:51:06.84	358.99	11.45	-30.3	-33.2	11.0	5.23e-03	0	43	102	19922944	20	5010
2026-01-26 02:51:09.84	358.55	11.62	-30.3	-33.1	11.2	4.15e-03	0	43	102	19922944	20	4967
2026-01-26 02:51:12.85	358.09	11.79	-30.5	-33.3	10.7	6.15e-03	0	43	102	19922944	21	4948
2026-01-26 02:51:15.87	357.63	11.95	-30.9	-34.4	9.9	9.03e-03	0	43	102	19922944	21	5397
2026-01-26 02:51:18.88	357.16	12.12	-30.5	-33.2	10.8	5.15e-03	0	43	102	19922944	21	4931
2026-01-26 02:51:21.89	356.69	12.29	-30.8	-34.1	10.1	5.16e-03	0	44	102	19922944	21	5285
2026-01-26 02:51:24.90	356.21	12.45	-30.8	-34.2	10.2	8.57e-03	0	43	102	19922944	21	5308
2026-01-26 02:51:27.91	355.73	12.61	-30.4	-33.3	11.1	4.78e-03	0	44	102	19922944	20	5036
2026-01-26 02:51:30.93	355.24	12.78	-30.6	-33.6	10.4	4.65e-03	0	43	102	19922944	21	5087
2026-01-26 02:51:33.95	354.74	12.94	-30.8	-34.3	10.0	7.93e-03	0	44	102	19922944	21	5342
2026-01-26 02:51:36.95	354.25	13.10	-30.6	-33.6	10.6	5.92e-03	0	44	102	19922944	21	5047
2026-01-26 02:51:39.96	353.74	13.26	-30.3	-33.0	11.4	3.53e-03	0	43	102	19922944	20	4898
2026-01-26 02:51:42.95	353.24	13.42	-30.3	-32.9	11.4	1.10e-03	0	44	102	19922944	20	4883
2026-01-26 02:51:45.97	352.72	13.58	-29.7	-31.7	12.7	9.61e-05	0	44	102	19922944	19	4524
2026-01-26 02:51:48.97	352.20	13.73	-29.9	-31.8	12.2	1.44e-03	0	44	102	19922944	20	4480
2026-01-26 02:51:51.98	351.67	13.89	-29.9	-31.9	12.2	1.07e-03	0	43	102	19922944	20	4510
2026-01-26 02:51:54.98	351.14	14.04	-29.7	-31.6	12.8	1.25e-03	0	44	102	19922944	19	4475
2026-01-26 02:51:58.00	350.60	14.19	-29.7	-31.5	12.9	9.81e-04	0	44	102	19922944	19	4462
2026-01-26 02:52:01.01	350.06	14.34	-29.9	-32.3	12.3	1.14e-04	0	44	102	19922944	19	4730
2026-01-26 02:52:04.01	349.51	14.49	-29.7	-31.7	12.7	7.62e-05	0	44	102	19922944	19	4529
2026-01-26 02:52:07.01	348.96	14.63	-29.9	-32.2	12.3	8.85e-05	0	44	102	19922944	19	4704
2026-01-26 02:52:10.01	348.40	14.78	-30.1	-32.3	11.9	4.35e-04	0	44	102	19922944	20	4669
2026-01-26 02:52:13.01	347.83	14.92	-29.8	-31.9	12.5	1.41e-03	0	44	102	19922944	19	4612
2026-01-26 02:52:16.02	347.26	15.06	-29.4	-30.7	13.4	9.30e-05	0	44	102	19922944	19	4206
2026-01-26 02:52:19.02	346.69	15.20	-29.4	-31.2	13.4	8.30e-06	0	44	102	19922944	18	4445
2026-01-26 02:52:22.03	346.11	15.34	-29.1	-30.5	13.9	3.00e-06	0	44	102	19922944	18	4223
2026-01-26 02:52:25.04	345.52	15.47	-29.7	-31.4	13.0	1.90e-05	0	44	102	19922944	19	4425
2026-01-26 02:52:28.05	344.92	15.60	-29.6	-31.2	13.1	5.95e-05	0	44	102	19922944	19	4365
2026-01-26 02:52:31.05	344.33	15.73	-29.1	-30.5	14.0	3.00e-06	0	44	102	19922944	18	4216
2026-01-26 02:52:34.07	343.72	15.86	-29.3	-30.9	13.7	6.80e-06	0	44	102	19922944	18	4340
2026-01-26 02:52:37.10	343.11	15.98	-29.4	-31.2	13.5	9.10e-06	0	44	102	19922944	18	4421
2026-01-26 02:52:40.10	342.50	16.10	-29.3	-31.0	13.5	6.80e-06	0	44	102	19922944	18	4384
2026-01-26 02:52:43.12	341.88	16.22	-29.4	-30.8	13.5	1.52e-05	0	44	102	19922944	19	4206
2026-01-26 02:52:46.14	341.25	16.34	-29.4	-30.6	13.7	1.29e-05	0	44	102	19922944	19	4137
2026-01-26 02:52:49.14	340.62	16.45	-29.6	-31.3	13.1	1.44e-05	0	44	102	19922944	19	4376
2026-01-26 02:52:52.15	339.99	16.56	-30.0	-31.8	12.4	6.71e-05	0	44	102	19922944	20	4461
2026-01-26 02:52:55.17	339.35	16.67	-29.1	-30.5	13.9	6.10e-06	0	44	102	19922944	18	4225
2026-01-26 02:52:58.19	338.71	16.77	-28.8	-30.2	14.4	5.29e-04	0	44	102	19922944	17	4228
2026-01-26 02:53:01.19	338.06	16.87	-29.0	-30.1	14.2	5.69e-04	0	44	102	19922944	18	4110
2026-01-26 02:53:04.20	337.41	16.97	-28.4	-29.1	15.1	3.02e-04	0	44	102	19922944	17	3911
2026-01-26 02:53:07.22	336.75	17.06	-28.5	-29.3	15.0	7.62e-05	0	44	102	19922944	17	3949
2026-01-26 02:53:10.24	336.09	17.15	-29.0	-30.1	14.3	7.00e-07	0	44	102	19922944	18	4101
2026-01-26 02:53:13.26	335.42	17.24	-28.9	-29.8	14.4	6.76e-04	0	44	102	19922944	18	3993
2026-01-26 02:53:16.27	334.76	17.32	-29.2	-30.6	13.9	3.81e-04	0	44	102	19922944	18	4238
2026-01-26 02:53:19.28	334.09	17.40	-29.3	-31.0	13.6	4.95e-05	0	44	102	19922944	18	4348
2026-01-26 02:53:22.29	333.41	17.48	-29.3	-30.8	13.7	1.68e-04	0	44	102	19922944	18	4302
2026-01-26 02:53:25.30	332.73	17.55	-29.3	-30.9	13.8	4.78e-04	0	44	102	19922944	18	4328
2026-01-26 02:53:28.31	332.05	17.62	-29.7	-31.4	13.1	2.45e-04	0	44	102	19922944	19	4392
2026-01-26 02:53:31.32	331.37	17.68	-29.3	-30.4	13.7	7.60e-06	0	44	102	19922944	19	4093
2026-01-26 02:53:34.33	330.68	17.74	-29.3	-30.8	13.8	5.30e-06	0	44	102	19922944	18	4302
2026-01-26 02:53:37.34	329.99	17.79	-29.4	-31.3	13.5	6.70e-04	0	44	102	19922944	18	4446
2026-01-26 02:53:40.36	329.30	17.85	-29.3	-30.8	13.7	3.81e-04	0	44	102	19922944	18	4309
2026-01-26 02:53:43.38	328.60	17.89	-29.2	-30.6	13.9	8.64e-04	0	44	102	19922944	18	4250
2026-01-26 02:53:46.40	327.90	17.93	-29.7	-31.5	13.0	9.68e-05	0	44	102	19922944	19	4457
2026-01-26 02:53:49.41	327.20	17.97	-30.1	-32.3	12.0	3.30e-04	0	44	102	19922944	20	4655
2026-01-26 02:53:52.42	326.50	18.01	-30.1	-32.4	12.0	3.93e-04	0	44	102	19922944	20	4679
2026-01-26 02:53:55.43	325.80	18.04	-29.9	-31.8	12.4	2.10e-04	0	44	102	19922944	20	4462
2026-01-26 02:53:58.44	325.10	18.06	-29.9	-31.9	12.3	1.92e-04	0	44	102	19922944	20	4499
2026-01-26 02:54:01.46	324.39	18.08	-29.6	-31.4	13.0	5.87e-05	0	44	102	19922944	19	4428
2026-01-26 02:54:04.48	323.68	18.10	-29.4	-31.3	13.5	1.44e-05	0	44	102	19922944	18	4460
2026-01-26 02:54:07.49	322.98	18.11	-28.9	-30.5	13.4	9.10e-06	0	44	102	19922944	19	4330
2026-01-26 02:54:10.50	322.27	18.12	-29.3	-31.1	13.4	2.59e-05	0	44	102	19922944	18	4394
2026-01-26 02:54:13.52	321.56	18.12	-29.7	-31.4	13.1	3.05e-05	0	44	102	19922944	19	4413
2026-01-26 02:54:16.53	320.86	18.12	-29.8	-31.7	12.9	7.62e-05	0	44	102	19922944	19	4503
2026-01-26 02:54:19.54	320.15	18.11	-29.7	-31.5	13.0	5.41e-05	0	44	102	19922944	19	4451
2026-01-26 02:54:22.55	319.45	18.10	-29.3	-31.2	13.0	4.19e-05	0	44	102	19922944	19	4459
2026-01-26 02:54:25.56	318.74	18.08	-29.6	-31.2	13.2	1.61e-04	0	44	102	19922944	19	4346
2026-01-26 02:54:28.57	318.04	18.06	-30.1	-32.2	12.1	3.09e-04	0	44	102	19922944	20	4588
2026-01-26 02:54:31.59	317.33	18.04	-30.4	-33.2	11.5	3.06e-03	0	44	102	19922944	20	4971
2026-01-26 02:54:34.61	316.63	18.01	-30.2	-32.7	11.8	7.43e-04	0	44	102	19922944	20	4764
2026-01-26 02:54:37.62	315.93	17.98	-29.8	-31.8	12.7	1.21e-04	0	44	102	19922944	19	4537
2026-01-26 02:54:40.64	315.22	17.94	-29.4	-31.4	13.3	1.27e-04	0	44	102	19922944	18	4509
2026-01-26 02:54:43.64	314.53	17.90	-29.6	-31.2	13.2	4.45e-04	0	44	102	19922944	19	4353
2026-01-26 02:54:46.65	313.83	17.85	-29.4	-31.3	13.4	1.06e-03	0	44	102	19922944	18	4484
2026-01-26 02:54:49.66	313.14	17.80	-29.3	-31.0	13.6	3.95e-03	0	44	102	19922944	18	4375
2026-01-26 02:54:52.67	312.45	17.75	-29.3	-30.9	13.8	3.73e-03	0	44	102	19922944	18	4337
2026-01-26 02:54:55.68	311.76	17.69	-29.1	-30.3	14.1	3.63e-03	0	44	102	19922944	18	4158
2026-01-26 02:54:58.70	311.08	17.63	-28.8	-30.0	14.5	2.32e-03	0	44	102	19922944	17	4170
2026-01-26 02:55:01.71	310.39	17.56	-28.6	-29.7	14.7	2.12e-03	0	44	102	19922944	17	4073
2026-01-26 02:55:04.73	309.71	17.49	-28.9	-30.4	14.3	3.43e-03	0	44	102	19922944	17	4290
2026-01-26 02:55:07.75	309.03	17.41	-28.9	-30.4	14.3	3.71e-03	0	44	102	19922944	17	4278
2026-01-26 02:55:10.75	308.36	17.33	-29.3	-30.9	13.7	3.48e-03	0	44	102	19922944	18	4333
2026-01-26 02:55:13.77	307.69	17.25	-29.4	-31.2	13.5	2.78e-03	0	44	102	19922944	18	4438
2026-01-26 02:55:16.78	307.03	17.17	-29.3	-31.0	13.6	2.48e-03	0	44	102	19922944	18	4383
2026-01-26 02:55:19.79	306.37	17.08	-29.8	-31.8	12.7	2.10e-03	0	44	102	19922944	19	4528
2026-01-26 02:55:22.80	305.71	16.98	-29.5	-31.0	13.2	2.89e-05	0	44	102	19922944	19	4292
2026-01-26 02:55:25.82	305.05	16.89	-29.4	-31.2	13.4	1.06e-05	0	44	102	19922944	18	4448
2026-01-26 02:55:28.83	304.40	16.79	-29.3	-31.0	13.6	7.60e-06	0	44	102	19922944	18	4375
2026-01-26 02:55:31.84	303.76	16.68	-29.4	-31.3	13.4	2.77e-03	0	44	102	19922944	18	4469
2026-01-26 02:55:34.85	303.12	16.58	-29.7	-31.6	12.8	2.65e-03	0	44	102	19922944	19	4488
2026-01-26 02:55:37.86	302.48	16.47	-29.9	-31.7	12.4	1.62e-04	0	44	102	19922944	20	4437
2026-01-26 02:55:40.88	301.85	16.35	-29.6	-31.4	12.9	5.87e-05	0	44	102	19922944	19	4410
2026-01-26 02:55:43.90	301.22	16.24	-29.7	-31.5	12.8	5.26e-05	0	44	102	19922944	19	4452
2026-01-26 02:55:46.90	300.60	16.12	-29.7	-31.5	12.8	4.42e-05	0	44	102	19922944	19	4450
2026-01-26 02:55:49.91	299.99	16.00	-29.6	-31.3	13.0	3.50e-05	0	44	102	19922944	19	4387
2026-01-26 02:55:52.93	299.37	15.87	-29.4	-31.4	13.2	1.29e-05	0	44	102	19922944	18	4499
2026-01-26 02:55:55.94	298.77	15.75	-29.0	-30.7	14.0	2.20e-06	0	44	102	19922944	17	4379
2026-01-26 02:55:58.95	298.17	15.62	-29.0	-30.3	12.8	1.27e-03	0	44	102	19922944	18	4156
2026-01-26 02:56:01.96	297.57	15.49	-29.3	-30.9	13.7	1.91e-03	0	44	102	19922944	18	4313
2026-01-26 02:56:04.99	296.98	15.35	-29.9	-32.0	12.6	2.28e-05	0	44	102	19922944	19	4580
2026-01-26 02:56:07.99	296.40	15.22	-30.0	-32.1	12.1	3.22e-04	0	44	102	19922944	20	4535
2026-01-26 02:56:11.01	295.82	15.08	-29.9	-31.7	12.4	1.10e-04	0	44	102	19922944	20	4420
2026-01-26 02:56:14.02	295.24	14.94	-29.9	-32.1	12.5	1.36e-04	0	44	102	19922944	19	4645
2026-01-26 02:56:17.02	294.67	14.79	-30.1	-32.3	12.0	2.86e-03	0	44	102	19922944	20	4616
2026-01-26 02:56:20.03	294.11	14.65	-30.0	-32.0	12.1	2.95e-03	0	44	102	19922944	20	4512
2026-01-26 02:56:23.05	293.55	14.50	-29.8	-31.7	12.7	2.75e-03	0	44	102	19922944	19	4504
2026-01-26 02:56:26.06	293.00	14.35	-29.6	-31.2	13.0	2.34e-03	0	44	102	19922944	19	4317
2026-01-26 02:56:29.08	292.45	14.20	-29.8	-31.7	12.7	2.08e-03	0	44	102	19922944	19	4511
2026-01-26 02:56:32.10	291.91	14.05	-29.2	-30.7	13.7	4.50e-06	0	44	102	19922944	18	4284
2026-01-26 02:56:35.10	291.38	13.90	-29.6	-31.3	13.0	2.37e-03	0	44	102	19922944	19	4356
2026-01-26 02:56:38.12	290.85	13.74	-29.9	-32.1	12.4	2.36e-03	0	44	102	19922944	19	4632
2026-01-26 02:56:41.12	290.32	13.59	-29.7	-31.6	12.8	2.77e-03	0	44	102	19922944	19	4461
2026-01-26 02:56:44.15	289.80	13.43	-29.6	-31.4	12.9	2.66e-03	0	44	102	19922944	19	4407
2026-01-26 02:56:47.16	289.29	13.27	-29.8	-32.0	12.4	2.75e-03	0	44	102	19922944	19	4624
2026-01-26 02:56:50.18	288.78	13.11	-30.5	-33.0	10.9	2.13e-03	0	44	102	19922944	21	4810
2026-01-26 02:56:53.20	288.28	12.95	-31.1	-34.8	9.2	2.04e-02	0	44	102	19922944	22	5503
2026-01-26 02:56:56.21	287.78	12.79	-30.2	-33.5	9.4	1.58e-02	0	44	102	19922944	22	5316
2026-01-26 02:56:59.22	287.29	12.62	-30.8	-34.0	9.8	8.82e-03	0	44	102	19922944	21	5254
2026-01-26 02:57:02.22	286.81	12.46	-30.4	-33.0	10.8	5.22e-03	0	44	102	19922944	21	4816
2026-01-26 02:57:05.23	286.33	12.29	-30.2	-32.8	11.3	3.47e-03	0	44	102	19922944	20	4837
2026-01-26 02:57:08.24	285.85	12.13	-30.2	-32.8	11.3	9.35e-04	0	44	102	19922944	20	4832
2026-01-26 02:57:11.25	285.39	11.96	-30.5	-33.2	10.6	2.93e-03	0	44	102	19922944	21	4931
2026-01-26 02:57:14.26	284.92	11.79	-30.6	-33.4	10.4	2.68e-03	0	44	102	19922944	21	5012
2026-01-26 02:57:17.27	284.46	11.63	-30.3	-32.7	11.0	3.25e-03	0	44	102	19922944	21	4708
2026-01-26 02:57:20.28	284.01	11.46	-29.9	-32.4	11.9	8.57e-04	0	44	102	19922944	19	4794
2026-01-26 02:57:23.29	283.56	11.29	-30.3	-33.2	10.9	4.24e-03	0	44	102	19922944	20	4994
2026-01-26 02:57:26.31	283.12	11.12	-30.2	-32.7	11.2	1.86e-03	0	44	102	19922944	20	4820
2026-01-26 02:57:29.31	282.68	10.95	-30.2	-32.9	11.1	1.27e-03	0	44	102	19922944	20	4890
2026-01-26 02:57:32.31	282.25	10.78	-30.3	-33.2	10.9	4.31e-03	0	44	102	19922944	20	5016
2026-01-26 02:57:35.33	281.83	10.61	-30.2	-32.9	11.1	4.93e-03	0	44	102	19922944	20	4885
2026-01-26 02:57:38.35	281.40	10.43	-29.9	-31.9	11.5	2.09e-03	0	44	102	19922944	20	4550
2026-01-26 02:57:41.36	280.99	10.26	-29.8	-32.2	11.9	1.83e-03	0	44	102	19922944	19	4714
2026-01-26 02:57:44.36	280.57	10.09	-30.0	-32.0	12.6	2.31e-03	0	44	102	19922944	19	4502
2026-01-26 02:57:47.36	280.17	9.92	-29.1	-30.6	13.3	3.06e-03	0	44	102	19922944	18	4286
2026-01-26 02:57:50.37	279.77	9.75	-29.2	-30.9	13.1	4.71e-04	0	44	102	19922944	18	4365
2026-01-26 02:57:53.40	279.37	9.57	-29.3	-31.2	12.9	2.45e-03	0	44	102	19922944	18	4491
2026-01-26 02:57:56.41	278.97	9.40	-29.6	-31.5	12.4	2.41e-03	0	44	102	19922944	19	4488
2026-01-26 02:57:59.43	278.59	9.23	-29.3	-31.3	12.8	1.67e-03	0	44	102	19922944	18	4522
2026-01-26 02:58:02.43	278.20	9.06	-29.4	-31.6	12.5	7.47e-04	0	44	102	19922944	18	4636
2026-01-26 02:58:05.44	277.82	8.88	-29.5	-31.5	12.3	3.65e-03	0	44	102	19922944	19	4491
2026-01-26 02:58:08.46	277.45	8.71	-29.6	-31.6	12.2	2.38e-03	0	44	102	19922944	19	4540
2026-01-26 02:58:11.47	277.08	8.54	-29.8	-32.3	11.6	2.53e-03	0	44	102	19922944	19	4814
2026-01-26 02:58:14.48	276.71	8.37	-30.0	-32.5	11.0	2.97e-03	0	44	102	19922944	20	4788
2026-01-26 02:58:17.49	276.35	8.19	-29.9	-32.2	11.2	2.49e-03	0	44	102	19922944	20	4690
2026-01-26 02:58:20.50	276.00	8.02	-30.2	-33.1	10.6	4.45e-03	0	44	102	19922944	20	5031
2026-01-26 02:58:23.51	275.64	7.85	-30.0	-32.6	10.9	8.46e-03	0	44	102	19922944	20	4825
2026-01-26 02:58:26.52	275.30	7.68	-29.7	-32.2	11.6	2.24e-03	0	44	102	19922944	19	4755
2026-01-26 02:58:29.54	274.95	7.50	-29.6	-31.6	12.0	1.47e-03	0	44	102	19922944	19	4570
2026-01-26 02:58:32.55	274.61	7.33	-29.3	-30.8	12.5	7.88e-04	0	44	102	19922944	19	4300
2026-01-26 02:58:35.55	274.28	7.16	-29.5	-31.8	12.2	3.00e-04	0	44	102	19922944	18	4734
2026-01-26 02:58:38.56	273.95	6.99	-32.7	-45.2	3.8	1.49e+00	0	44	104	19922944	25	15108

#Closed at: 2026-01-26 02:58:40
#Recorded file [19 MB]: D:/data/31010_260126_054952.dat