passes_logs/2026/01/26/R2M6_AANII_01/R2M6_AANII_01__20260126_052927_FENGYUN_3E_rec.log

#Pass ID: 20260126_052927_FENGYUN 3E
#Satellite: FENGYUN 3E
#Configuration: FENGYUN 3E
#almurnet v.1.7.20240730
#Start time: 2026-01-26 05:29:26

#Version: 2.2.20231116
#Station: R2M6_AANII_01
#Location: 30.233357 lon 59.946436 lat
#TLE: 1 49008U 21062A   26025.85775150 -.00000016  00000+0  13398-4 0  9990
#TLE: 2 49008  98.7498  30.8591 0002468 117.3618 242.7810 14.19886460236384

#Time	Az	El	Level	Level2	SNR	BER	BlckErr	Temp	State	Recorded	gain1	gain2
2026-01-26 05:29:26.73	14.14	6.94	-31.0	-36.4	4.3	8.30e-01	0	40	0	0	21	6721
2026-01-26 05:29:29.73	14.01	7.16	-30.8	-35.4	5.6	4.55e-01	0	40	102	1048576	21	6117
2026-01-26 05:29:32.74	13.88	7.39	-31.0	-36.0	5.4	7.25e-01	0	40	102	1048576	21	6393
2026-01-26 05:29:35.75	13.75	7.62	-30.9	-35.6	5.6	7.28e-01	0	41	102	1048576	21	6178
2026-01-26 05:29:38.77	13.62	7.85	-30.3	-33.8	7.0	1.62e-01	0	41	102	1048576	20	5392
2026-01-26 05:29:41.77	13.49	8.08	-29.2	-31.5	9.3	2.18e-02	0	41	102	1048576	18	4697
2026-01-26 05:29:44.79	13.35	8.31	-28.3	-30.1	10.8	2.70e-03	0	41	102	1048576	16	4452
2026-01-26 05:29:47.80	13.21	8.55	-27.9	-29.8	11.2	1.18e-03	0	41	102	1048576	15	4466
2026-01-26 05:29:50.82	13.06	8.79	-27.4	-29.0	12.0	2.35e-04	0	41	102	1048576	14	4328
2026-01-26 05:29:53.82	12.92	9.03	-27.0	-28.1	12.6	1.28e-04	0	41	102	1048576	14	4097
2026-01-26 05:29:56.84	12.77	9.27	-26.5	-27.5	13.2	7.16e-04	0	41	102	1048576	13	4028
2026-01-26 05:29:59.85	12.62	9.51	-26.9	-28.4	12.7	4.11e-05	0	41	102	1048576	13	4279
2026-01-26 05:30:02.86	12.47	9.76	-26.1	-27.1	13.8	3.40e-06	0	41	102	1048576	12	4028
2026-01-26 05:30:05.87	12.31	10.01	-26.1	-27.0	13.9	5.70e-06	0	41	102	1048576	12	3986
2026-01-26 05:30:08.88	12.15	10.26	-26.1	-27.4	14.1	4.44e-04	0	41	102	1048576	11	4197
2026-01-26 05:30:11.89	11.99	10.51	-26.3	-27.5	13.7	4.38e-04	0	41	102	1048576	12	4114
2026-01-26 05:30:14.92	11.83	10.77	-27.0	-28.6	12.8	2.05e-05	0	42	102	1048576	13	4324
2026-01-26 05:30:17.93	11.66	11.02	-27.5	-29.3	12.1	1.96e-04	0	42	102	1048576	14	4410
2026-01-26 05:30:20.94	11.49	11.28	-27.3	-28.6	12.5	6.43e-04	0	42	102	1048576	14	4213
2026-01-26 05:30:23.95	11.31	11.55	-26.5	-27.4	13.5	5.52e-04	0	42	102	1048576	13	4000
2026-01-26 05:30:26.96	11.13	11.81	-26.5	-27.9	13.5	4.78e-04	0	42	102	1048576	12	4218
2026-01-26 05:30:29.97	10.95	12.08	-27.0	-28.6	12.9	5.43e-04	0	42	102	1048576	13	4309
2026-01-26 05:30:32.98	10.77	12.35	-26.5	-27.4	13.5	6.80e-06	0	42	102	1048576	13	3990
2026-01-26 05:30:36.00	10.58	12.62	-25.9	-26.6	14.3	3.98e-04	0	42	102	1048576	12	3878
2026-01-26 05:30:39.02	10.39	12.90	-25.5	-26.7	14.8	3.59e-04	0	42	102	1048576	10	4107
2026-01-26 05:30:42.03	10.19	13.18	-25.0	-26.0	15.6	0.00e+00	0	42	102	1048576	9	4054
2026-01-26 05:30:45.04	9.99	13.46	-25.0	-26.1	15.5	0.00e+00	0	42	102	1048576	9	4080
2026-01-26 05:30:48.05	9.78	13.75	-24.9	-25.9	15.6	0.00e+00	0	42	102	1048576	9	4016
2026-01-26 05:30:51.05	9.58	14.03	-24.8	-25.6	15.8	0.00e+00	0	42	102	1048576	9	3951
2026-01-26 05:30:54.06	9.36	14.32	-24.8	-25.6	15.8	1.21e-04	0	42	102	1048576	9	3946
2026-01-26 05:30:57.07	9.15	14.62	-24.5	-25.4	16.2	0.00e+00	0	42	102	1048576	8	4007
2026-01-26 05:31:00.08	8.92	14.91	-24.6	-25.2	16.1	0.00e+00	0	42	102	1048576	9	3842
2026-01-26 05:31:03.10	8.70	15.21	-24.6	-25.2	16.1	0.00e+00	0	42	102	1048576	9	3848
2026-01-26 05:31:06.11	8.47	15.52	-24.6	-25.1	16.1	0.00e+00	0	42	102	1048576	9	3833
2026-01-26 05:31:09.12	8.23	15.82	-24.6	-25.2	16.1	0.00e+00	0	42	102	1048576	9	3855
2026-01-26 05:31:12.12	7.99	16.13	-24.8	-25.5	16.0	0.00e+00	0	42	102	1048576	9	3917
2026-01-26 05:31:15.14	7.74	16.45	-24.9	-25.7	15.9	0.00e+00	0	42	102	1048576	9	3970
2026-01-26 05:31:18.15	7.49	16.76	-24.5	-25.0	16.3	0.00e+00	0	42	102	1048576	9	3796
2026-01-26 05:31:21.16	7.23	17.09	-24.4	-25.2	16.4	0.00e+00	0	42	102	1048576	8	3957
2026-01-26 05:31:24.18	6.96	17.41	-24.1	-24.5	16.8	0.00e+00	0	42	102	1048576	8	3783
2026-01-26 05:31:27.20	6.69	17.74	-23.9	-24.7	17.0	0.00e+00	0	42	102	1048576	7	3923
2026-01-26 05:31:30.21	6.42	18.07	-23.9	-24.6	17.0	0.00e+00	0	42	102	1048576	7	3906
2026-01-26 05:31:33.23	6.13	18.41	-23.7	-24.2	17.2	0.00e+00	0	42	102	1048576	7	3809
2026-01-26 05:31:36.23	5.85	18.75	-23.7	-24.2	17.2	0.00e+00	0	42	102	1048576	7	3813
2026-01-26 05:31:39.25	5.55	19.09	-23.5	-24.3	17.4	0.00e+00	0	42	102	1048576	6	3954
2026-01-26 05:31:42.26	5.25	19.44	-23.8	-24.5	17.1	1.10e-06	0	42	102	1048576	7	3888
2026-01-26 05:31:45.28	4.93	19.79	-23.9	-24.7	17.0	0.00e+00	0	43	102	1048576	7	3951
2026-01-26 05:31:48.29	4.62	20.15	-23.7	-24.3	17.1	0.00e+00	0	42	102	1048576	7	3852
2026-01-26 05:31:51.30	4.29	20.51	-23.2	-23.6	17.7	2.20e-06	0	42	102	1048576	6	3796
2026-01-26 05:31:54.32	3.96	20.87	-23.3	-24.0	17.7	0.00e+00	0	42	102	1048576	6	3869
2026-01-26 05:31:57.33	3.61	21.24	-23.4	-24.1	17.6	0.00e+00	0	42	102	1048576	6	3902
2026-01-26 05:32:00.34	3.26	21.61	-22.9	-23.0	18.2	1.67e-03	0	42	102	1048576	6	3643
2026-01-26 05:32:03.36	2.90	21.99	-23.2	-23.7	17.8	1.52e-03	0	42	102	1048576	6	3806
2026-01-26 05:32:06.37	2.53	22.37	-23.3	-23.8	17.8	1.62e-03	0	43	102	1048576	6	3825
2026-01-26 05:32:09.37	2.16	22.75	-23.3	-23.8	17.8	1.58e-03	0	43	102	1048576	6	3837
2026-01-26 05:32:12.39	1.77	23.14	-23.1	-23.5	18.0	1.41e-03	0	43	102	1048576	6	3756
2026-01-26 05:32:15.41	1.37	23.54	-23.3	-23.8	17.8	1.60e-03	0	42	102	1048576	6	3825
2026-01-26 05:32:18.41	0.96	23.94	-23.4	-24.0	17.7	1.54e-03	0	42	102	1048576	6	3869
2026-01-26 05:32:21.43	0.54	24.34	-23.4	-24.0	17.7	0.00e+00	0	43	102	1048576	6	3877
2026-01-26 05:32:24.43	0.11	24.75	-23.5	-23.9	17.6	0.00e+00	0	43	102	1048576	7	3744
2026-01-26 05:32:27.44	359.67	25.16	-23.4	-24.0	17.8	0.00e+00	0	42	102	1048576	6	3870
2026-01-26 05:32:30.46	359.21	25.58	-23.4	-23.6	17.8	0.00e+00	0	43	102	1048576	7	3677
2026-01-26 05:32:33.47	358.75	26.00	-23.0	-23.3	18.2	1.49e-03	0	43	102	1048576	6	3702
2026-01-26 05:32:36.48	358.27	26.43	-22.9	-23.5	18.3	0.00e+00	0	43	102	1048576	5	3863
2026-01-26 05:32:39.49	357.77	26.86	-23.0	-23.6	18.3	0.00e+00	0	43	102	1048576	5	3888
2026-01-26 05:32:42.51	357.27	27.30	-22.8	-23.2	18.5	0.00e+00	0	42	102	1048576	5	3792
2026-01-26 05:32:45.53	356.74	27.74	-22.6	-22.9	18.7	0.00e+00	0	43	102	1048576	5	3722
2026-01-26 05:32:48.54	356.21	28.18	-22.3	-22.4	18.9	0.00e+00	0	43	102	1048576	5	3609
2026-01-26 05:32:51.55	355.65	28.63	-22.1	-22.4	19.1	0.00e+00	0	43	102	1048576	4	3733
2026-01-26 05:32:54.56	355.09	29.08	-22.1	-21.8	19.2	0.00e+00	0	43	102	1048576	5	3491
2026-01-26 05:32:57.57	354.50	29.54	-22.0	-22.2	19.3	0.00e+00	0	43	102	1048576	4	3680
2026-01-26 05:33:00.58	353.90	30.00	-22.4	-23.1	18.9	0.00e+00	0	43	102	1048576	4	3866
2026-01-26 05:33:03.59	353.28	30.47	-22.5	-23.2	18.8	0.00e+00	0	43	102	1048576	4	3888
2026-01-26 05:33:06.61	352.64	30.94	-22.7	-23.0	18.6	0.00e+00	0	43	102	1048576	5	3757
2026-01-26 05:33:09.62	351.98	31.41	-23.0	-23.7	18.3	0.00e+00	0	43	102	1048576	5	3908
2026-01-26 05:33:12.63	351.31	31.88	-22.8	-23.4	18.4	0.00e+00	0	43	102	1048576	5	3843
2026-01-26 05:33:15.64	350.61	32.36	-23.1	-23.5	18.1	2.20e-06	0	43	102	1048576	6	3752
2026-01-26 05:33:18.65	349.89	32.84	-22.8	-23.3	18.5	0.00e+00	0	43	102	1048576	5	3812
2026-01-26 05:33:21.66	349.15	33.33	-22.5	-22.7	18.9	0.00e+00	0	43	102	1048576	5	3671
2026-01-26 05:33:24.66	348.39	33.81	-22.1	-22.3	19.3	0.00e+00	0	43	102	1048576	4	3685
2026-01-26 05:33:27.67	347.60	34.30	-22.4	-23.1	18.9	0.00e+00	0	43	102	1048576	4	3873
2026-01-26 05:33:30.67	346.79	34.78	-22.8	-23.2	18.5	0.00e+00	0	43	102	1048576	5	3799
2026-01-26 05:33:33.68	345.96	35.27	-22.5	-22.7	18.8	0.00e+00	0	43	102	1048576	5	3690
2026-01-26 05:33:36.69	345.10	35.76	-22.8	-23.3	18.5	0.00e+00	0	43	102	1048576	5	3812
2026-01-26 05:33:39.70	344.21	36.25	-22.7	-23.1	18.6	0.00e+00	0	43	102	1048576	5	3779
2026-01-26 05:33:42.72	343.29	36.74	-22.7	-23.1	18.5	1.28e-03	0	43	102	1048576	5	3761
2026-01-26 05:33:45.73	342.35	37.23	-23.0	-23.6	18.3	1.26e-03	0	43	102	1048576	5	3888
2026-01-26 05:33:48.74	341.37	37.71	-22.8	-23.4	18.5	1.18e-03	0	43	102	1048576	5	3830
2026-01-26 05:33:51.76	340.37	38.20	-22.7	-23.1	18.6	0.00e+00	0	43	102	1048576	5	3768
2026-01-26 05:33:54.78	339.33	38.68	-22.7	-23.1	18.7	1.32e-03	0	43	102	1048576	5	3768
2026-01-26 05:33:57.79	338.27	39.15	-22.7	-23.1	18.6	1.04e-03	0	43	102	1048576	5	3773
2026-01-26 05:34:00.80	337.17	39.62	-22.7	-23.1	18.6	8.85e-04	0	43	102	1048576	5	3760
2026-01-26 05:34:03.81	336.04	40.09	-23.1	-23.4	18.3	9.02e-04	0	43	102	1048576	6	3740
2026-01-26 05:34:06.82	334.88	40.54	-23.1	-23.4	18.3	0.00e+00	0	43	102	1048576	6	3734
2026-01-26 05:34:09.84	333.69	40.99	-22.9	-23.0	18.5	1.04e-04	0	43	102	1048576	6	3643
2026-01-26 05:34:12.87	332.45	41.44	-22.9	-23.1	18.5	2.27e-04	0	43	102	1048576	6	3667
2026-01-26 05:34:15.87	331.19	41.86	-22.5	-22.6	18.9	0.00e+00	0	43	102	1048576	5	3658
2026-01-26 05:34:18.88	329.90	42.28	-22.2	-22.5	19.2	0.00e+00	0	43	102	1048576	4	3745
2026-01-26 05:34:21.90	328.56	42.69	-22.2	-22.6	19.2	0.00e+00	0	43	102	1048576	4	3763
2026-01-26 05:34:24.91	327.20	43.08	-22.7	-23.0	18.8	0.00e+00	0	43	102	1048576	5	3744
2026-01-26 05:34:27.93	325.80	43.46	-22.6	-23.0	18.8	0.00e+00	0	43	102	1048576	5	3738
2026-01-26 05:34:30.94	324.37	43.82	-22.8	-23.2	18.6	0.00e+00	0	43	102	1048576	5	3791
2026-01-26 05:34:33.95	322.91	44.17	-22.8	-22.8	18.6	0.00e+00	0	43	102	1048576	6	3596
2026-01-26 05:34:36.97	321.41	44.49	-22.9	-23.6	18.5	0.00e+00	0	43	102	1048576	5	3875
2026-01-26 05:34:39.97	319.89	44.80	-22.9	-23.5	18.5	0.00e+00	0	43	102	1048576	5	3853
2026-01-26 05:34:42.99	318.34	45.09	-22.5	-22.6	19.0	0.00e+00	0	43	102	1048576	5	3648
2026-01-26 05:34:46.00	316.76	45.35	-23.3	-23.9	18.1	0.00e+00	0	43	102	1048576	6	3841
2026-01-26 05:34:49.02	315.15	45.59	-23.0	-23.3	18.4	0.00e+00	0	43	102	1048576	6	3699
2026-01-26 05:34:52.03	313.52	45.81	-22.7	-23.2	18.7	0.00e+00	0	43	102	1048576	5	3783
2026-01-26 05:34:55.05	311.86	46.00	-23.1	-23.5	18.3	0.00e+00	0	43	102	1048576	6	3757
2026-01-26 05:34:58.06	310.19	46.17	-23.2	-23.5	18.3	0.00e+00	0	43	102	1048576	6	3761
2026-01-26 05:35:01.08	308.50	46.31	-23.2	-23.7	18.2	0.00e+00	0	43	102	1048576	6	3802
2026-01-26 05:35:04.08	306.81	46.42	-23.0	-23.2	18.5	0.00e+00	0	43	102	1048576	6	3684
2026-01-26 05:35:07.09	305.10	46.50	-23.0	-23.1	18.5	0.00e+00	0	43	102	1048576	6	3659
2026-01-26 05:35:10.10	303.38	46.56	-23.4	-24.0	18.1	0.00e+00	0	43	102	1048576	6	3869
2026-01-26 05:35:13.12	301.65	46.59	-23.1	-23.3	18.4	0.00e+00	0	43	102	1048576	6	3712
2026-01-26 05:35:16.12	299.93	46.59	-23.3	-23.7	18.2	0.00e+00	0	43	102	1048576	6	3807
2026-01-26 05:35:19.13	298.21	46.56	-23.2	-23.6	18.3	0.00e+00	0	43	102	1048576	6	3782
2026-01-26 05:35:22.14	296.49	46.50	-23.2	-23.7	18.3	0.00e+00	0	43	102	1048576	6	3802
2026-01-26 05:35:25.16	294.77	46.41	-23.0	-23.1	18.6	0.00e+00	0	43	102	1048576	6	3669
2026-01-26 05:35:28.17	293.07	46.30	-22.8	-23.3	18.7	0.00e+00	0	43	102	1048576	5	3817
2026-01-26 05:35:31.19	291.38	46.16	-23.2	-23.6	18.3	0.00e+00	0	43	102	1048576	6	3781
2026-01-26 05:35:34.20	289.71	45.99	-23.1	-23.4	18.4	0.00e+00	0	43	102	1048576	6	3724
2026-01-26 05:35:37.20	288.06	45.80	-22.9	-23.0	18.6	0.00e+00	0	43	102	1048576	6	3647
2026-01-26 05:35:40.22	286.43	45.58	-22.8	-23.3	18.6	0.00e+00	0	43	102	1048576	5	3820
2026-01-26 05:35:43.23	284.82	45.34	-22.4	-22.5	19.1	0.00e+00	0	43	102	1048576	5	3636
2026-01-26 05:35:46.24	283.24	45.07	-22.5	-22.6	19.0	0.00e+00	0	43	102	1048576	5	3656
2026-01-26 05:35:49.26	281.68	44.79	-22.7	-23.2	18.7	0.00e+00	0	43	102	1048576	5	3788
2026-01-26 05:35:52.28	280.15	44.48	-23.0	-23.6	18.5	0.00e+00	0	43	102	1048576	5	3893
2026-01-26 05:35:55.29	278.66	44.15	-22.5	-22.8	18.9	0.00e+00	0	43	102	1048576	5	3696
2026-01-26 05:35:58.31	277.19	43.80	-22.4	-22.5	19.1	0.00e+00	0	43	102	1048576	5	3632
2026-01-26 05:36:01.32	275.76	43.44	-22.4	-22.4	19.0	0.00e+00	0	43	102	1048576	5	3608
2026-01-26 05:36:04.33	274.36	43.06	-22.1	-21.8	19.4	0.00e+00	0	43	102	1048576	5	3494
2026-01-26 05:36:07.35	272.99	42.66	-22.4	-22.9	19.1	0.00e+00	0	43	102	1048576	4	3819
2026-01-26 05:36:10.35	271.66	42.26	-22.7	-23.1	18.7	0.00e+00	0	43	102	1048576	5	3777
2026-01-26 05:36:13.37	270.36	41.84	-22.7	-23.2	18.7	0.00e+00	0	43	102	1048576	5	3786
2026-01-26 05:36:16.38	269.10	41.40	-22.8	-23.3	18.6	0.00e+00	0	43	102	1048576	5	3813
2026-01-26 05:36:19.39	267.87	40.96	-22.7	-23.0	18.8	0.00e+00	0	43	102	1048576	5	3753
2026-01-26 05:36:22.40	266.68	40.51	-22.5	-22.7	18.9	0.00e+00	0	43	102	1048576	5	3686
2026-01-26 05:36:25.42	265.51	40.05	-22.8	-23.4	18.6	0.00e+00	0	43	102	1048576	5	3842
2026-01-26 05:36:28.43	264.38	39.59	-22.9	-23.5	18.5	0.00e+00	0	43	102	1048576	5	3865
2026-01-26 05:36:31.45	263.28	39.11	-22.9	-23.6	18.5	0.00e+00	0	43	102	1048576	5	3875
2026-01-26 05:36:34.46	262.21	38.63	-22.7	-23.0	18.7	0.00e+00	0	43	102	1048576	5	3757
2026-01-26 05:36:37.47	261.18	38.15	-22.5	-23.1	18.9	0.00e+00	0	43	102	1048576	4	3879
2026-01-26 05:36:40.50	260.17	37.67	-22.3	-22.7	19.1	7.59e-04	0	43	102	1048576	4	3786
2026-01-26 05:36:43.52	259.19	37.18	-22.5	-23.3	18.3	3.19e-04	0	43	102	1048576	4	3925
2026-01-26 05:36:46.53	258.25	36.69	-22.7	-23.1	18.7	0.00e+00	0	43	102	1048576	5	3760
2026-01-26 05:36:49.55	257.33	36.20	-22.7	-23.1	17.5	0.00e+00	0	43	102	1048576	5	3771
2026-01-26 05:36:52.55	256.44	35.71	-22.1	-22.5	19.2	1.60e-04	0	43	102	1048576	4	3727
2026-01-26 05:36:55.58	255.57	35.21	-22.0	-22.2	19.4	2.70e-04	0	43	102	1048576	4	3663
2026-01-26 05:36:58.59	254.73	34.72	-22.2	-22.6	19.1	1.11e-03	0	43	102	1048576	4	3768
2026-01-26 05:37:01.60	253.92	34.23	-22.0	-22.1	19.3	1.25e-03	0	43	102	1048576	4	3658
2026-01-26 05:37:04.62	253.13	33.74	-22.1	-22.4	19.2	1.12e-03	0	43	102	1048576	4	3724
2026-01-26 05:37:07.63	252.37	33.25	-22.2	-22.6	19.0	0.00e+00	0	43	102	1048576	4	3773
2026-01-26 05:37:10.64	251.62	32.77	-22.3	-22.9	19.0	1.41e-03	0	43	102	1048576	4	3823
2026-01-26 05:37:13.66	250.90	32.28	-22.3	-22.8	19.0	1.29e-03	0	43	102	1048576	4	3810
2026-01-26 05:37:16.68	250.20	31.80	-22.2	-22.5	19.1	1.18e-03	0	43	102	1048576	4	3749
2026-01-26 05:37:19.69	249.52	31.32	-22.4	-23.0	18.9	0.00e+00	0	43	102	1048576	4	3851
2026-01-26 05:37:22.70	248.86	30.85	-22.4	-23.0	18.9	0.00e+00	0	43	102	1048576	4	3855
2026-01-26 05:37:25.71	248.23	30.38	-22.6	-22.9	18.6	0.00e+00	0	43	102	1048576	5	3732
2026-01-26 05:37:28.72	247.60	29.91	-22.9	-23.5	18.4	1.62e-03	0	43	102	1048576	5	3852
2026-01-26 05:37:31.73	247.00	29.45	-22.7	-23.0	18.6	0.00e+00	0	43	102	1048576	5	3758
2026-01-26 05:37:34.75	246.41	28.99	-23.0	-23.7	18.2	0.00e+00	0	43	102	1048576	5	3918
2026-01-26 05:37:37.76	245.84	28.54	-23.2	-23.6	18.1	0.00e+00	0	43	102	1048576	6	3775
2026-01-26 05:37:40.77	245.29	28.09	-23.0	-23.8	18.2	0.00e+00	0	43	102	1048576	5	3928
2026-01-26 05:37:43.77	244.76	27.64	-22.9	-23.1	18.3	0.00e+00	0	43	102	1048576	6	3667
2026-01-26 05:37:46.79	244.23	27.20	-23.6	-24.4	17.6	0.00e+00	0	43	102	1048576	6	3975
2026-01-26 05:37:49.81	243.72	26.76	-23.3	-23.8	16.7	1.10e-06	0	43	102	1048576	6	3839
2026-01-26 05:37:52.81	243.23	26.33	-23.1	-23.4	18.1	0.00e+00	0	43	102	1048576	6	3729
2026-01-26 05:37:55.82	242.75	25.90	-22.9	-23.4	18.3	2.95e-04	0	43	102	1048576	5	3842
2026-01-26 05:37:58.83	242.28	25.48	-22.4	-23.0	18.7	0.00e+00	0	43	102	1048576	4	3854
2026-01-26 05:38:01.85	241.82	25.06	-22.9	-23.6	18.2	0.00e+00	0	43	102	1048576	5	3880
2026-01-26 05:38:04.86	241.38	24.64	-23.1	-23.6	17.9	2.47e-04	0	43	102	1048576	6	3779
2026-01-26 05:38:07.88	240.94	24.23	-23.0	-23.8	18.0	2.30e-04	0	43	102	1048576	5	3936
2026-01-26 05:38:10.89	240.52	23.83	-22.9	-23.6	18.1	0.00e+00	0	43	102	1048576	5	3896
2026-01-26 05:38:13.90	240.11	23.43	-22.8	-23.4	18.2	0.00e+00	0	43	102	1048576	5	3842
2026-01-26 05:38:16.91	239.71	23.03	-22.7	-23.0	18.4	0.00e+00	0	43	102	1048576	5	3757
2026-01-26 05:38:19.92	239.32	22.64	-22.6	-23.4	18.4	0.00e+00	0	43	102	1048576	4	3939
2026-01-26 05:38:22.93	238.95	22.26	-22.6	-23.0	18.4	0.00e+00	0	43	102	1048576	5	3748
2026-01-26 05:38:25.95	238.57	21.87	-22.9	-23.5	18.1	8.83e-04	0	43	102	1048576	5	3873
2026-01-26 05:38:28.97	238.21	21.49	-23.1	-23.5	17.8	0.00e+00	0	43	102	1048576	6	3755
2026-01-26 05:38:31.98	237.86	21.12	-23.3	-23.9	17.7	0.00e+00	0	43	102	1048576	6	3849
2026-01-26 05:38:34.98	237.52	20.75	-23.7	-24.2	17.2	0.00e+00	0	43	102	1048576	7	3830
2026-01-26 05:38:38.00	237.18	20.39	-23.6	-24.1	17.2	9.46e-04	0	43	102	1048576	7	3809
2026-01-26 05:38:41.02	236.85	20.02	-23.7	-24.2	17.2	1.41e-03	0	43	102	1048576	7	3833
2026-01-26 05:38:44.02	236.53	19.67	-23.6	-24.1	17.2	0.00e+00	0	43	102	1048576	7	3792
2026-01-26 05:38:47.02	236.22	19.32	-23.3	-23.9	17.6	0.00e+00	0	43	102	1048576	6	3851
2026-01-26 05:38:50.02	235.92	18.97	-23.2	-23.6	17.7	0.00e+00	0	43	102	1048576	6	3786
2026-01-26 05:38:53.03	235.62	18.63	-23.2	-23.7	17.6	1.90e-03	0	43	102	1048576	6	3814
2026-01-26 05:38:56.04	235.33	18.29	-23.4	-24.1	17.4	1.78e-03	0	43	102	1048576	6	3910
2026-01-26 05:38:59.05	235.05	17.95	-23.5	-23.8	17.3	1.74e-03	0	43	102	1048576	7	3743
2026-01-26 05:39:02.06	234.77	17.62	-24.3	-25.1	16.4	1.12e-03	0	43	102	1048576	8	3921
2026-01-26 05:39:05.07	234.50	17.29	-24.1	-24.5	16.6	1.24e-03	0	43	102	1048576	8	3799
2026-01-26 05:39:08.09	234.23	16.96	-23.9	-24.6	16.9	8.70e-04	0	43	102	1048576	7	3911
2026-01-26 05:39:11.10	233.97	16.64	-24.1	-25.0	16.6	7.14e-04	0	43	102	1048576	7	4015
2026-01-26 05:39:14.11	233.71	16.32	-23.9	-24.6	16.8	0.00e+00	0	43	102	1048576	7	3921
2026-01-26 05:39:17.12	233.47	16.01	-23.9	-24.3	16.7	0.00e+00	0	43	102	1048576	8	3739
2026-01-26 05:39:20.12	233.22	15.70	-24.0	-24.9	16.6	0.00e+00	0	43	102	1048576	7	3994
2026-01-26 05:39:23.12	232.98	15.39	-24.3	-25.0	16.3	9.99e-04	0	43	102	1048576	8	3917
2026-01-26 05:39:26.14	232.75	15.09	-24.4	-24.8	16.2	0.00e+00	0	43	102	1048576	9	3754
2026-01-26 05:39:29.15	232.52	14.79	-24.6	-25.7	15.9	0.00e+00	0	43	102	1048576	8	4080
2026-01-26 05:39:32.15	232.30	14.49	-24.7	-25.4	15.8	0.00e+00	0	43	102	1048576	9	3911
2026-01-26 05:39:35.16	232.08	14.19	-24.6	-25.2	15.9	0.00e+00	0	43	102	1048576	9	3867
2026-01-26 05:39:38.15	231.87	13.91	-24.9	-25.8	15.5	0.00e+00	0	43	102	1048576	9	4014
2026-01-26 05:39:41.17	231.65	13.62	-24.9	-25.9	15.4	0.00e+00	0	43	102	1048576	9	4029
2026-01-26 05:39:44.19	231.45	13.33	-25.1	-25.8	15.3	0.00e+00	0	43	102	1048576	10	3895
2026-01-26 05:39:47.21	231.24	13.05	-25.2	-26.0	15.1	0.00e+00	0	43	102	1048576	10	3960
2026-01-26 05:39:50.22	231.05	12.77	-25.3	-26.3	14.9	0.00e+00	0	43	102	1048576	10	4021
2026-01-26 05:39:53.24	230.85	12.49	-25.1	-25.9	15.2	0.00e+00	0	43	102	1048576	10	3915
2026-01-26 05:39:56.25	230.66	12.22	-25.4	-26.4	14.8	0.00e+00	0	43	102	1048576	10	4058
2026-01-26 05:39:59.25	230.47	11.94	-25.3	-26.2	14.9	0.00e+00	0	43	102	1048576	10	4009
2026-01-26 05:40:02.27	230.29	11.68	-25.3	-26.2	15.0	0.00e+00	0	43	102	1048576	10	3989
2026-01-26 05:40:05.28	230.11	11.41	-25.3	-26.2	14.9	0.00e+00	0	43	102	1048576	10	3997
2026-01-26 05:40:08.30	229.93	11.15	-25.2	-26.1	14.9	0.00e+00	0	43	102	1048576	10	3985
2026-01-26 05:40:11.31	229.76	10.88	-25.5	-26.7	14.6	0.00e+00	0	43	102	1048576	10	4120
2026-01-26 05:40:14.33	229.59	10.63	-25.4	-26.4	14.7	1.10e-06	0	43	102	1048576	10	4065
2026-01-26 05:40:17.33	229.42	10.37	-25.4	-26.5	14.7	0.00e+00	0	43	102	1048576	10	4081
2026-01-26 05:40:20.34	229.26	10.12	-25.5	-26.8	14.5	0.00e+00	0	43	102	1048576	10	4157
2026-01-26 05:40:23.36	229.09	9.87	-25.6	-26.5	14.4	0.00e+00	0	43	102	1048576	11	3967
2026-01-26 05:40:26.37	228.94	9.62	-25.6	-26.4	14.4	0.00e+00	0	43	102	1048576	11	3948
2026-01-26 05:40:29.38	228.78	9.37	-25.7	-26.8	14.1	1.10e-06	0	43	102	1048576	11	4049
2026-01-26 05:40:32.39	228.63	9.13	-25.8	-27.0	13.9	4.50e-06	0	43	102	1048576	11	4107
2026-01-26 05:40:35.40	228.48	8.88	-25.7	-26.6	14.2	0.00e+00	0	43	102	1048576	11	4004
2026-01-26 05:40:38.42	228.33	8.64	-25.9	-27.1	13.9	1.10e-06	0	43	102	1048576	11	4134
2026-01-26 05:40:41.42	228.18	8.41	-25.9	-27.1	13.8	2.20e-06	0	43	102	1048576	11	4147
2026-01-26 05:40:44.43	228.04	8.17	-26.3	-27.5	13.2	1.25e-05	0	43	102	1048576	12	4140
2026-01-26 05:40:47.44	227.90	7.94	-26.3	-27.6	13.1	2.74e-05	0	43	102	1048576	12	4176
2026-01-26 05:40:50.46	227.76	7.70	-26.1	-27.1	13.4	3.43e-05	0	43	102	1048576	12	4039
2026-01-26 05:40:53.48	227.63	7.47	-26.3	-27.6	13.1	5.60e-05	0	43	102	1048576	12	4187
2026-01-26 05:40:56.50	227.49	7.24	-26.1	-27.2	13.3	2.51e-05	0	43	102	1048576	12	4086
2026-01-26 05:40:59.52	227.36	7.02	-32.7	-42.2	3.8	8.45e-01	0	43	104	1048576	25	10820

#Closed at: 2026-01-26 05:41:01
#Recorded file [1 MB]: D:/data/31010_260126_082928.dat