passes_logs/2026/01/26/R2M6_AANII_01/R2M6_AANII_01__20260126_110202_SUOMI_NPP_rec.log

#Pass ID: 20260126_110202_SUOMI NPP
#Satellite: SUOMI NPP
#Configuration: NPP
#almurnet v.1.7.20240730
#Start time: 2026-01-26 11:02:02

#Version: 2.2.20231116
#Station: R2M6_AANII_01
#Location: 30.233357 lon 59.946436 lat
#TLE: 1 37849U 11061A   26025.81780576  .00000180  00000+0  10635-3 0  9993
#TLE: 2 37849  98.7822 327.7738 0002159  45.0809 315.0541 14.19529973738242

#Time	Az	El	Level	Level2	SNR	BER	BlckErr	Temp	State	Recorded	gain1	gain2
2026-01-26 11:02:02.56	180.17	7.03	-30.8	-34.0	5.3	1.23e+00	0	44	0	0	22	5201
2026-01-26 11:02:05.56	180.29	7.25	-31.4	-35.6	8.0	5.33e-02	0	44	0	1048576	23	5825
2026-01-26 11:02:08.58	180.41	7.48	-30.8	-33.6	10.0	1.81e-02	0	44	0	7340032	22	4970
2026-01-26 11:02:11.58	180.54	7.71	-30.2	-32.2	11.4	1.54e-03	0	44	0	12582912	21	4524
2026-01-26 11:02:14.60	180.67	7.95	-30.3	-32.5	11.2	9.20e-04	0	44	0	17825792	21	4638
2026-01-26 11:02:17.61	180.80	8.18	-30.2	-32.1	11.5	1.04e-03	0	44	0	24117248	21	4500
2026-01-26 11:02:20.61	180.93	8.42	-30.2	-32.1	11.5	7.79e-04	0	44	0	29360128	21	4499
2026-01-26 11:02:23.61	181.07	8.66	-30.2	-32.1	11.6	7.13e-04	0	44	0	35651584	21	4494
2026-01-26 11:02:26.62	181.20	8.90	-30.5	-33.1	10.9	1.66e-03	0	44	0	40894464	21	4837
2026-01-26 11:02:29.63	181.34	9.15	-30.5	-33.2	10.8	2.28e-03	0	44	0	46137344	21	4888
2026-01-26 11:02:32.63	181.48	9.39	-30.5	-33.0	11.1	1.41e-03	0	44	0	52428800	21	4800
2026-01-26 11:02:35.63	181.62	9.64	-30.6	-33.2	10.9	1.75e-03	0	44	0	57671680	21	4871
2026-01-26 11:02:38.64	181.77	9.89	-30.3	-32.4	11.5	7.36e-04	0	44	0	62914560	21	4558
2026-01-26 11:02:41.63	181.91	10.14	-30.0	-31.4	12.3	2.04e-04	0	44	0	69206016	21	4243
2026-01-26 11:02:44.64	182.06	10.40	-29.8	-31.2	12.8	8.54e-05	0	44	0	74448896	20	4238
2026-01-26 11:02:47.65	182.22	10.66	-29.7	-31.1	12.8	4.80e-05	0	44	0	80740352	20	4207
2026-01-26 11:02:50.67	182.37	10.92	-29.7	-30.9	13.0	4.19e-05	0	44	0	85983232	20	4141
2026-01-26 11:02:53.67	182.53	11.18	-30.0	-31.8	12.4	1.38e-04	0	44	0	91226112	20	4437
2026-01-26 11:02:56.67	182.69	11.45	-30.0	-31.8	12.4	8.23e-05	0	44	0	97517568	20	4438
2026-01-26 11:02:59.68	182.85	11.72	-30.1	-32.0	12.3	1.01e-04	0	44	0	102760448	20	4499
2026-01-26 11:03:02.68	183.02	11.99	-30.0	-31.8	12.4	2.10e-04	0	44	0	108003328	20	4437
2026-01-26 11:03:05.70	183.19	12.26	-29.9	-31.5	12.7	7.70e-05	0	44	0	114294784	20	4321
2026-01-26 11:03:08.71	183.36	12.54	-29.8	-31.3	12.8	8.46e-05	0	44	0	119537664	20	4279
2026-01-26 11:03:11.72	183.53	12.82	-30.0	-31.7	12.5	7.55e-05	0	44	0	125829120	20	4406
2026-01-26 11:03:14.73	183.71	13.10	-29.8	-31.1	12.9	4.11e-05	0	44	0	131072000	20	4214
2026-01-26 11:03:17.74	183.89	13.39	-29.9	-31.5	12.7	4.27e-05	0	44	0	136314880	20	4338
2026-01-26 11:03:20.75	184.08	13.68	-29.7	-30.8	13.2	1.90e-05	0	44	0	142606336	20	4119
2026-01-26 11:03:23.76	184.26	13.97	-29.8	-31.2	13.0	3.50e-05	0	44	0	147849216	20	4218
2026-01-26 11:03:26.76	184.46	14.27	-29.7	-30.8	13.2	1.60e-05	0	44	0	154140672	20	4112
2026-01-26 11:03:29.78	184.65	14.57	-29.7	-30.8	13.3	3.20e-05	0	44	0	159383552	20	4088
2026-01-26 11:03:32.79	184.85	14.87	-29.7	-30.7	13.4	2.36e-05	0	44	0	164626432	20	4077
2026-01-26 11:03:35.80	185.05	15.18	-29.6	-30.6	13.4	9.10e-06	0	44	0	170917888	20	4047
2026-01-26 11:03:38.81	185.26	15.49	-29.3	-30.3	14.0	1.50e-06	0	44	0	176160768	19	4017
2026-01-26 11:03:41.81	185.47	15.81	-29.2	-30.0	14.3	7.00e-07	0	44	0	181403648	19	3942
2026-01-26 11:03:44.82	185.69	16.12	-29.2	-30.0	14.3	0.00e+00	0	44	0	187695104	19	3941
2026-01-26 11:03:47.82	185.91	16.44	-29.2	-29.9	14.4	1.50e-06	0	44	0	192937984	19	3908
2026-01-26 11:03:50.82	186.13	16.77	-29.3	-30.3	14.2	1.50e-06	0	44	0	199229440	19	4021
2026-01-26 11:03:53.83	186.36	17.10	-29.3	-30.1	14.2	7.00e-07	0	44	0	204472320	19	3972
2026-01-26 11:03:56.84	186.59	17.43	-29.1	-29.8	14.5	1.50e-06	0	44	0	209715200	19	3880
2026-01-26 11:03:59.86	186.83	17.77	-29.1	-29.6	14.6	0.00e+00	0	44	0	216006656	19	3827
2026-01-26 11:04:02.86	187.08	18.11	-29.0	-29.4	14.7	7.00e-07	0	44	0	221249536	19	3788
2026-01-26 11:04:05.87	187.32	18.46	-28.9	-29.2	14.9	0.00e+00	0	44	0	226492416	19	3733
2026-01-26 11:04:08.87	187.58	18.81	-28.7	-29.3	15.1	0.00e+00	0	44	0	232783872	18	3837
2026-01-26 11:04:11.88	187.84	19.16	-28.5	-28.6	15.6	0.00e+00	0	44	0	238026752	18	3654
2026-01-26 11:04:14.90	188.11	19.53	-28.4	-28.5	15.6	5.30e-06	0	44	0	244318208	18	3635
2026-01-26 11:04:17.90	188.38	19.89	-28.5	-28.7	15.6	0.00e+00	0	44	0	249561088	18	3671
2026-01-26 11:04:20.92	188.66	20.26	-29.0	-29.8	14.9	0.00e+00	0	44	0	254803968	18	3976
2026-01-26 11:04:23.93	188.94	20.63	-29.0	-30.1	14.7	0.00e+00	0	44	0	261095424	18	4050
2026-01-26 11:04:26.94	189.24	21.01	-29.0	-29.9	14.9	0.00e+00	0	44	0	266338304	18	3993
2026-01-26 11:04:29.95	189.54	21.40	-28.7	-29.3	15.1	6.10e-06	0	44	0	271581184	18	3861
2026-01-26 11:04:32.96	189.84	21.79	-28.6	-29.1	15.3	2.20e-06	0	44	0	277872640	18	3794
2026-01-26 11:04:35.96	190.16	22.18	-28.7	-29.2	15.3	3.00e-06	0	44	0	283115520	18	3815
2026-01-26 11:04:38.97	190.48	22.58	-28.7	-29.1	15.4	3.80e-06	0	44	0	289406976	18	3786
2026-01-26 11:04:41.96	190.81	22.98	-28.5	-28.7	15.7	2.20e-06	0	44	0	294649856	18	3680
2026-01-26 11:04:44.98	191.15	23.40	-28.2	-28.5	16.0	1.50e-06	0	44	0	299892736	17	3727
2026-01-26 11:04:47.98	191.49	23.81	-28.3	-28.7	16.0	0.00e+00	0	44	0	306184192	17	3769
2026-01-26 11:04:50.99	191.85	24.24	-28.1	-28.1	16.3	0.00e+00	0	44	0	311427072	17	3613
2026-01-26 11:04:53.99	192.21	24.66	-28.2	-28.5	16.1	2.20e-06	0	44	0	317718528	17	3723
2026-01-26 11:04:56.99	192.59	25.09	-28.2	-28.5	16.1	1.50e-06	0	44	0	322961408	17	3708
2026-01-26 11:04:59.99	192.97	25.53	-28.3	-28.6	16.1	0.00e+00	0	44	0	328204288	17	3725
2026-01-26 11:05:03.01	193.37	25.98	-28.4	-28.9	15.9	0.00e+00	0	44	0	334495744	17	3807
2026-01-26 11:05:06.02	193.78	26.43	-28.9	-29.7	15.2	7.00e-07	0	44	0	339738624	18	3918
2026-01-26 11:05:09.03	194.20	26.89	-29.6	-30.9	14.2	0.00e+00	0	44	0	344981504	19	4160
2026-01-26 11:05:12.03	194.63	27.35	-29.5	-30.6	14.3	1.50e-06	0	44	0	351272960	19	4090
2026-01-26 11:05:15.03	195.07	27.82	-29.1	-29.5	15.0	0.00e+00	0	44	0	356515840	19	3782
2026-01-26 11:05:18.05	195.53	28.30	-29.6	-30.8	14.3	0.00e+00	0	44	0	362807296	19	4134
2026-01-26 11:05:21.06	196.00	28.79	-29.8	-31.4	13.9	1.50e-06	0	44	0	368050176	19	4312
2026-01-26 11:05:24.08	196.48	29.28	-30.1	-31.5	13.4	1.22e-05	0	44	0	373293056	20	4254
2026-01-26 11:05:27.09	196.98	29.77	-30.8	-33.1	12.1	1.52e-04	0	44	0	379584512	21	4683
2026-01-26 11:05:30.10	197.49	30.28	-31.6	-34.6	10.4	3.42e-03	0	44	0	384827392	23	5097
2026-01-26 11:05:33.11	198.02	30.78	-31.7	-35.0	10.0	8.76e-03	0	44	0	391118848	23	5253
2026-01-26 11:05:36.12	198.57	31.30	-31.2	-33.1	11.4	1.23e-03	0	44	0	396361728	23	4517
2026-01-26 11:05:39.11	199.13	31.82	-30.9	-32.8	12.1	2.16e-04	0	44	0	401604608	22	4485
2026-01-26 11:05:42.12	199.71	32.35	-30.7	-32.3	12.3	2.45e-04	0	44	0	407896064	22	4322
2026-01-26 11:05:45.12	200.31	32.88	-30.1	-31.0	13.5	2.21e-05	0	44	0	413138944	21	4018
2026-01-26 11:05:48.11	200.93	33.42	-30.2	-31.9	13.3	8.30e-06	0	44	0	418381824	20	4362
2026-01-26 11:05:51.11	201.56	33.96	-30.6	-32.5	12.5	7.55e-05	0	44	0	424673280	21	4484
2026-01-26 11:05:54.12	202.23	34.51	-30.3	-31.7	13.2	6.02e-05	0	44	0	429916160	21	4231
2026-01-26 11:05:57.13	202.91	35.07	-30.1	-31.1	13.6	1.14e-05	0	44	0	435159040	21	4027
2026-01-26 11:06:00.14	203.62	35.63	-29.7	-30.6	14.1	7.00e-07	0	44	0	441450496	20	3961
2026-01-26 11:06:03.14	204.35	36.20	-30.4	-32.0	12.9	2.59e-05	0	44	0	446693376	21	4303
2026-01-26 11:06:06.15	205.10	36.77	-30.5	-32.3	12.7	2.04e-04	0	44	0	452984832	21	4415
2026-01-26 11:06:09.16	205.89	37.35	-30.1	-31.2	13.5	1.06e-05	0	44	0	458227712	21	4057
2026-01-26 11:06:12.16	206.70	37.93	-29.8	-30.8	14.1	4.50e-06	0	44	0	463470592	20	4027
2026-01-26 11:06:15.17	207.54	38.51	-29.4	-30.2	14.8	7.00e-07	0	44	0	469762048	19	3959
2026-01-26 11:06:18.19	208.41	39.10	-29.4	-30.3	14.7	0.00e+00	0	44	0	475004928	19	3979
2026-01-26 11:06:21.19	209.31	39.69	-29.3	-29.9	15.0	0.00e+00	0	44	0	480247808	19	3873
2026-01-26 11:06:24.19	210.25	40.28	-28.4	-28.2	16.3	0.00e+00	0	44	0	486539264	18	3533
2026-01-26 11:06:27.20	211.22	40.87	-29.6	-30.7	14.5	0.00e+00	0	44	0	491782144	19	4095
2026-01-26 11:06:30.22	212.23	41.47	-29.9	-30.9	14.1	3.00e-06	0	44	0	498073600	20	4063
2026-01-26 11:06:33.24	213.27	42.06	-30.0	-31.3	13.8	7.00e-07	0	44	0	503316480	20	4155
2026-01-26 11:06:36.25	214.35	42.65	-29.8	-30.6	14.2	4.50e-06	0	44	0	508559360	20	3963
2026-01-26 11:06:39.25	215.47	43.24	-29.6	-30.3	14.5	0.00e+00	0	44	0	514850816	20	3875
2026-01-26 11:06:42.27	216.64	43.83	-30.6	-32.5	12.8	5.56e-05	0	44	0	520093696	21	4450
2026-01-26 11:06:45.27	217.84	44.41	-30.4	-31.4	13.1	9.76e-05	0	44	0	526385152	22	4019
2026-01-26 11:06:48.28	219.09	44.99	-29.9	-30.9	14.1	1.50e-06	0	44	0	531628032	20	4055
2026-01-26 11:06:51.28	220.38	45.55	-30.9	-33.3	12.2	1.06e-04	0	44	0	536870912	21	4734
2026-01-26 11:06:54.29	221.72	46.12	-30.9	-32.6	12.4	3.02e-04	0	44	0	543162368	22	4394
2026-01-26 11:06:57.31	223.11	46.67	-30.9	-32.8	12.3	1.72e-04	0	44	0	548405248	22	4454
2026-01-26 11:07:00.33	224.56	47.21	-30.7	-32.1	12.7	3.58e-05	0	44	0	553648128	22	4247
2026-01-26 11:07:03.33	226.04	47.73	-30.3	-31.5	13.5	9.90e-06	0	44	0	559939584	21	4129
2026-01-26 11:07:06.34	227.57	48.25	-30.2	-31.2	13.6	2.21e-05	0	44	0	565182464	21	4047
2026-01-26 11:07:09.35	229.16	48.74	-29.3	-29.5	15.0	0.00e+00	0	44	0	571473920	20	3668
2026-01-26 11:07:12.36	230.80	49.22	-30.3	-31.4	13.5	2.74e-05	0	44	0	576716800	21	4102
2026-01-26 11:07:15.37	232.49	49.67	-30.8	-32.9	12.5	6.94e-05	0	44	0	581959680	21	4605
2026-01-26 11:07:18.39	234.23	50.11	-30.4	-31.6	13.4	3.43e-05	0	44	0	588251136	21	4171
2026-01-26 11:07:21.40	236.01	50.52	-30.2	-31.2	13.7	1.44e-05	0	44	0	593494016	21	4028
2026-01-26 11:07:24.41	237.84	50.90	-30.6	-32.3	13.0	7.78e-05	0	44	0	599785472	21	4385
2026-01-26 11:07:27.42	239.72	51.25	-31.0	-32.9	12.3	8.77e-05	0	44	0	605028352	22	4483
2026-01-26 11:07:30.43	241.64	51.58	-30.5	-32.1	13.2	1.37e-05	0	44	0	610271232	21	4299
2026-01-26 11:07:33.44	243.60	51.87	-28.9	-28.9	15.7	0.00e+00	0	44	0	616562688	19	3595
2026-01-26 11:07:36.45	245.60	52.13	-29.4	-30.0	15.2	7.00e-07	0	44	0	621805568	19	3876
2026-01-26 11:07:39.45	247.62	52.36	-29.5	-30.3	14.9	0.00e+00	0	44	0	627048448	19	3959
2026-01-26 11:07:42.46	249.67	52.55	-29.4	-30.2	15.1	0.00e+00	0	44	0	633339904	19	3924
2026-01-26 11:07:45.47	251.76	52.70	-29.5	-30.4	14.9	0.00e+00	0	44	0	638582784	19	3993
2026-01-26 11:07:48.48	253.85	52.81	-30.4	-31.7	13.4	1.06e-05	0	44	0	644874240	21	4189
2026-01-26 11:07:51.48	255.96	52.89	-29.6	-30.2	14.7	0.00e+00	0	44	0	650117120	20	3829
2026-01-26 11:07:54.50	258.09	52.93	-29.5	-29.8	14.9	6.10e-06	0	44	0	655360000	20	3742
2026-01-26 11:07:57.51	260.21	52.92	-30.4	-31.7	13.3	6.17e-05	0	44	0	661651456	21	4181
2026-01-26 11:08:00.51	262.32	52.88	-30.2	-31.2	13.7	1.29e-05	0	44	0	666894336	21	4034
2026-01-26 11:08:03.52	264.43	52.80	-30.0	-31.2	14.1	0.00e+00	0	44	0	672137216	20	4129
2026-01-26 11:08:06.53	266.53	52.68	-29.9	-30.4	14.3	6.10e-06	0	44	0	678428672	21	3797
2026-01-26 11:08:09.54	268.60	52.52	-28.6	-28.7	16.3	6.10e-06	0	44	0	683671552	18	3637
2026-01-26 11:08:12.55	270.65	52.32	-28.8	-29.1	16.0	3.00e-06	0	44	0	689963008	18	3723
2026-01-26 11:08:15.55	272.67	52.09	-28.5	-28.3	16.4	0.00e+00	0	44	0	695205888	18	3538
2026-01-26 11:08:18.55	274.65	51.83	-28.7	-29.4	16.1	0.00e+00	0	44	0	700448768	17	3908
2026-01-26 11:08:21.55	276.59	51.53	-29.0	-29.7	15.7	3.00e-06	0	44	0	706740224	18	3889
2026-01-26 11:08:24.56	278.50	51.20	-30.0	-31.2	14.0	5.30e-06	0	44	0	711983104	20	4115
2026-01-26 11:08:27.57	280.37	50.84	-29.5	-30.4	15.0	0.00e+00	0	44	0	717225984	19	3988
2026-01-26 11:08:30.59	282.19	50.46	-29.9	-31.3	14.5	0.00e+00	0	44	0	723517440	19	4229
2026-01-26 11:08:33.60	283.97	50.04	-31.2	-33.5	11.9	1.80e-04	0	44	0	728760320	22	4698
2026-01-26 11:08:36.61	285.69	49.61	-29.4	-29.5	15.1	7.00e-07	0	44	0	735051776	20	3671
2026-01-26 11:08:39.63	287.37	49.15	-30.2	-31.6	13.9	3.80e-06	0	44	0	740294656	20	4230
2026-01-26 11:08:42.65	289.01	48.67	-31.0	-33.2	12.5	4.80e-05	0	44	0	745537536	21	4658
2026-01-26 11:08:45.65	290.58	48.18	-30.9	-32.7	12.5	1.46e-04	0	44	0	751828992	22	4390
2026-01-26 11:08:48.66	292.10	47.66	-31.7	-34.4	10.8	1.25e-03	0	44	0	757071872	23	4939
2026-01-26 11:08:51.67	293.58	47.14	-32.8	-37.4	8.0	3.72e-02	0	44	0	763363328	25	6140
2026-01-26 11:08:54.67	295.00	46.60	-31.7	-34.0	10.9	4.20e-03	0	44	0	768606208	24	4664
2026-01-26 11:08:57.66	296.37	46.05	-33.5	-41.0	4.8	8.22e-01	0	44	0	773849088	27	8442
2026-01-26 11:09:00.67	297.70	45.49	-32.2	-35.1	9.7	1.98e-02	0	44	0	780140544	25	5035
2026-01-26 11:09:03.67	298.98	44.93	-32.9	-38.2	7.3	8.31e-02	0	44	0	785383424	25	6609
2026-01-26 11:09:06.68	300.22	44.35	-31.8	-34.0	10.5	1.74e-02	0	44	0	790626304	25	4591
2026-01-26 11:09:09.68	301.41	43.77	-31.2	-32.9	11.9	8.23e-04	0	44	0	796917760	23	4404
2026-01-26 11:09:12.69	302.56	43.19	-30.5	-31.5	13.1	1.17e-04	0	44	0	802160640	22	4038
2026-01-26 11:09:15.70	303.68	42.60	-30.0	-31.5	14.2	7.00e-07	0	44	0	807403520	19	4308
2026-01-26 11:09:18.71	304.75	42.01	-29.5	-29.9	14.8	0.00e+00	0	44	0	813694976	20	3771
2026-01-26 11:09:21.71	305.78	41.43	-30.4	-32.2	13.5	6.80e-06	0	44	0	818937856	20	4419
2026-01-26 11:09:24.72	306.78	40.83	-31.2	-33.6	11.9	3.20e-04	0	44	0	825229312	22	4722
2026-01-26 11:09:27.74	307.75	40.24	-30.5	-31.5	13.2	2.28e-05	0	44	0	830472192	22	4036
2026-01-26 11:09:30.75	308.68	39.65	-30.6	-31.9	12.9	9.84e-05	0	44	0	835715072	22	4153
2026-01-26 11:09:33.76	309.57	39.07	-30.7	-32.5	12.8	4.04e-05	0	44	0	842006528	21	4440
2026-01-26 11:09:36.76	310.44	38.49	-31.7	-34.1	10.5	9.64e-03	0	44	0	847249408	24	4754
2026-01-26 11:09:39.76	311.27	37.91	-30.7	-32.0	12.8	4.80e-05	0	44	0	853540864	22	4191
2026-01-26 11:09:42.76	312.07	37.33	-32.3	-36.4	8.9	1.81e-02	0	44	0	858783744	24	5755
2026-01-26 11:09:45.77	312.85	36.76	-30.6	-31.9	12.8	5.18e-04	0	44	0	864026624	22	4165
2026-01-26 11:09:48.79	313.61	36.19	-30.3	-31.5	13.4	1.52e-05	0	44	0	870318080	21	4136
2026-01-26 11:09:51.79	314.33	35.63	-32.2	-35.9	9.2	1.18e-02	0	44	0	875560960	24	5516
2026-01-26 11:09:54.81	315.04	35.07	-30.1	-31.0	13.7	3.00e-06	0	44	0	880803840	21	3997
2026-01-26 11:09:57.81	315.72	34.51	-30.5	-32.1	12.9	5.72e-05	0	44	0	887095296	21	4306
2026-01-26 11:10:00.82	316.38	33.97	-32.7	-37.7	7.5	4.65e-02	0	44	0	892338176	25	6364
2026-01-26 11:10:03.84	317.01	33.42	-32.4	-36.2	8.5	4.47e-02	0	44	0	898629632	25	5561
2026-01-26 11:10:06.84	317.63	32.89	-32.2	-35.5	9.1	1.45e-02	0	44	0	903872512	25	5263
2026-01-26 11:10:09.86	318.23	32.36	-32.4	-36.6	8.2	3.70e-02	0	44	0	909115392	25	5788
2026-01-26 11:10:12.86	318.80	31.83	-32.9	-38.5	6.5	3.63e-01	0	44	0	915406848	26	6792
2026-01-26 11:10:15.88	319.37	31.31	-32.1	-35.1	9.3	2.94e-02	0	44	0	920649728	25	5083
2026-01-26 11:10:18.90	319.91	30.80	-30.9	-32.8	12.1	2.62e-04	0	44	0	925892608	22	4450
2026-01-26 11:10:21.92	320.44	30.29	-32.1	-35.6	9.3	1.21e-02	0	44	0	932184064	24	5418
2026-01-26 11:10:24.93	320.95	29.80	-32.1	-35.5	9.4	1.94e-02	0	44	0	937426944	24	5354
2026-01-26 11:10:27.93	321.45	29.30	-31.4	-33.4	10.9	3.29e-03	0	44	0	943718400	24	4515
2026-01-26 11:10:30.94	321.93	28.82	-31.3	-33.6	11.2	1.32e-03	0	44	0	948961280	23	4659
2026-01-26 11:10:33.96	322.40	28.34	-31.6	-34.5	10.5	3.44e-03	0	44	0	954204160	23	5016
2026-01-26 11:10:36.96	322.85	27.87	-31.2	-33.3	11.3	2.02e-03	0	44	0	960495616	23	4566
2026-01-26 11:10:39.97	323.29	27.40	-30.5	-31.5	12.9	5.26e-05	0	44	0	965738496	22	4068
2026-01-26 11:10:42.97	323.72	26.94	-29.8	-30.7	14.0	5.30e-06	0	44	0	972029952	20	4017
2026-01-26 11:10:45.97	324.14	26.49	-29.6	-30.3	14.2	1.50e-06	0	44	0	977272832	20	3889
2026-01-26 11:10:48.97	324.54	26.04	-29.4	-29.8	14.5	0.00e+00	0	44	0	982515712	20	3760
2026-01-26 11:10:51.99	324.94	25.59	-29.6	-30.2	14.3	2.20e-06	0	44	0	988807168	20	3874
2026-01-26 11:10:55.01	325.32	25.16	-30.0	-31.4	13.5	8.30e-06	0	44	0	994050048	20	4213
2026-01-26 11:10:58.02	325.70	24.72	-30.3	-31.7	13.0	2.05e-05	0	44	0	999292928	21	4229
2026-01-26 11:11:01.03	326.06	24.30	-29.6	-30.2	14.3	5.30e-06	0	44	0	1005584384	20	3873
2026-01-26 11:11:04.04	326.42	23.88	-29.8	-30.7	13.9	0.00e+00	0	44	0	1010827264	20	4024
2026-01-26 11:11:07.05	326.77	23.47	-29.9	-31.0	13.7	3.00e-06	0	44	0	1017118720	20	4105
2026-01-26 11:11:10.08	327.11	23.06	-30.3	-32.2	13.0	3.73e-05	0	44	0	1022361600	20	4461
2026-01-26 11:11:13.09	327.44	22.65	-30.7	-33.0	12.1	1.56e-04	0	44	0	1027604480	21	4647
2026-01-26 11:11:16.09	327.76	22.26	-30.4	-32.1	12.7	7.62e-05	0	44	0	1033895936	21	4353
2026-01-26 11:11:19.11	328.07	21.86	-30.1	-31.2	13.3	9.90e-06	0	44	0	1039138816	21	4066
2026-01-26 11:11:22.11	328.38	21.48	-29.7	-30.5	14.0	1.50e-06	0	44	0	1045430272	20	3970
2026-01-26 11:11:25.13	328.68	21.10	-29.4	-29.9	14.4	3.00e-06	0	44	0	1050673152	20	3791
2026-01-26 11:11:28.15	328.97	20.72	-29.8	-30.8	13.8	7.60e-06	0	44	0	1055916032	20	4044
2026-01-26 11:11:31.16	329.26	20.35	-30.3	-32.3	12.8	6.63e-05	0	44	0	1062207488	20	4515
2026-01-26 11:11:34.16	329.54	19.98	-30.7	-32.8	12.1	1.94e-04	0	44	0	1067450368	21	4619
2026-01-26 11:11:37.17	329.81	19.62	-30.9	-33.5	11.5	5.73e-04	0	44	0	1072693248	21	4883
2026-01-26 11:11:40.17	330.07	19.26	-30.2	-31.4	13.0	4.57e-05	0	44	0	1078984704	21	4148
2026-01-26 11:11:43.18	330.34	18.91	-30.2	-31.4	13.0	2.59e-05	0	44	0	1084227584	21	4161
2026-01-26 11:11:46.17	330.59	18.56	-29.9	-30.6	13.5	7.60e-06	0	44	0	1090519040	21	3919
2026-01-26 11:11:49.18	330.84	18.22	-29.8	-31.0	13.5	6.80e-06	0	44	0	1095761920	20	4127
2026-01-26 11:11:52.19	331.08	17.88	-30.1	-31.7	13.1	3.50e-05	0	44	0	1101004800	20	4326
2026-01-26 11:11:55.20	331.32	17.54	-29.9	-31.1	13.5	1.90e-05	0	44	0	1107296256	20	4149
2026-01-26 11:11:58.21	331.56	17.21	-30.0	-31.4	13.2	3.12e-05	0	44	0	1112539136	20	4257
2026-01-26 11:12:01.22	331.79	16.88	-30.1	-31.7	13.0	3.20e-05	0	44	0	1117782016	20	4332
2026-01-26 11:12:04.23	332.01	16.56	-30.0	-31.6	13.1	1.83e-05	0	44	0	1124073472	20	4314
2026-01-26 11:12:07.24	332.23	16.24	-29.7	-30.8	13.6	1.44e-05	0	44	0	1129316352	20	4054
2026-01-26 11:12:10.24	332.45	15.93	-29.6	-30.4	13.8	3.00e-06	0	44	0	1135607808	20	3945
2026-01-26 11:12:13.24	332.66	15.62	-29.5	-30.3	13.9	3.00e-06	0	44	0	1140850688	20	3932
2026-01-26 11:12:16.26	332.87	15.31	-29.4	-30.4	14.2	7.00e-07	0	44	0	1146093568	19	4044
2026-01-26 11:12:19.26	333.07	15.00	-29.5	-30.5	14.1	2.20e-06	0	44	0	1152385024	19	4076
2026-01-26 11:12:22.27	333.27	14.70	-29.5	-30.7	14.0	6.80e-06	0	44	0	1157627904	19	4118
2026-01-26 11:12:25.27	333.47	14.40	-29.7	-31.1	13.6	6.80e-06	0	44	0	1162870784	19	4260
2026-01-26 11:12:28.28	333.66	14.11	-30.0	-31.5	13.0	2.89e-05	0	44	0	1169162240	20	4281
2026-01-26 11:12:31.28	333.85	13.82	-30.3	-32.6	12.3	1.77e-04	0	44	0	1174405120	20	4655
2026-01-26 11:12:34.29	334.04	13.53	-30.8	-33.6	11.2	1.24e-03	0	44	0	1180696576	21	4937
2026-01-26 11:12:37.29	334.22	13.25	-31.0	-33.6	10.8	2.72e-03	0	44	0	1185939456	22	4880
2026-01-26 11:12:40.30	334.40	12.96	-31.2	-34.3	10.2	5.58e-03	0	44	0	1191182336	22	5158
2026-01-26 11:12:43.30	334.58	12.69	-31.1	-34.1	10.3	6.30e-03	0	44	0	1197473792	22	5066
2026-01-26 11:12:46.31	334.75	12.41	-30.9	-33.5	10.8	3.55e-03	0	44	0	1202716672	22	4827
2026-01-26 11:12:49.32	334.92	12.14	-30.8	-33.1	11.0	1.43e-03	0	44	0	1207959552	22	4688
2026-01-26 11:12:52.33	335.09	11.87	-30.5	-32.3	11.6	6.92e-04	0	44	0	1214251008	22	4404
2026-01-26 11:12:55.33	335.25	11.60	-30.3	-31.7	12.0	3.57e-04	0	44	0	1219493888	22	4197
2026-01-26 11:12:58.33	335.41	11.34	-30.2	-31.9	12.1	1.84e-04	0	44	0	1225785344	21	4366
2026-01-26 11:13:01.33	335.57	11.07	-30.0	-31.2	12.6	1.07e-04	0	44	0	1231028224	21	4150
2026-01-26 11:13:04.34	335.73	10.81	-30.1	-31.6	12.3	1.23e-04	0	44	0	1236271104	21	4270
2026-01-26 11:13:07.36	335.89	10.56	-29.7	-31.0	13.0	4.95e-05	0	44	0	1242562560	20	4162
2026-01-26 11:13:10.37	336.04	10.30	-29.8	-31.4	12.7	4.34e-05	0	44	0	1247805440	20	4305
2026-01-26 11:13:13.37	336.19	10.05	-29.7	-30.9	13.1	3.96e-05	0	44	0	1253048320	20	4128
2026-01-26 11:13:16.37	336.33	9.80	-29.6	-30.8	13.1	3.12e-05	0	44	0	1259339776	20	4103
2026-01-26 11:13:19.39	336.48	9.55	-29.8	-31.3	12.7	8.31e-05	0	44	0	1264582656	20	4277
2026-01-26 11:13:22.40	336.62	9.31	-29.8	-31.1	12.8	4.11e-05	0	44	0	1270874112	20	4218
2026-01-26 11:13:25.41	336.76	9.07	-29.8	-31.4	12.7	8.77e-05	0	44	0	1276116992	20	4292
2026-01-26 11:13:28.42	336.90	8.83	-30.1	-32.3	12.0	2.39e-04	0	44	0	1281359872	20	4604
2026-01-26 11:13:31.43	337.04	8.59	-30.0	-32.0	12.2	3.32e-04	0	44	0	1287651328	20	4494
2026-01-26 11:13:34.44	337.17	8.35	-30.2	-32.6	11.7	4.61e-04	0	44	0	1292894208	20	4734
2026-01-26 11:13:37.46	337.31	8.12	-30.3	-32.9	11.4	7.95e-04	0	44	0	1299185664	20	4826
2026-01-26 11:13:40.47	337.44	7.88	-30.3	-32.8	11.3	1.30e-03	0	44	0	1304428544	20	4797
2026-01-26 11:13:43.48	337.57	7.65	-30.7	-33.7	10.3	2.74e-03	0	44	0	1309671424	21	5065
2026-01-26 11:13:46.50	337.69	7.43	-30.6	-33.4	10.6	2.59e-03	0	44	0	1315962880	21	4954
2026-01-26 11:13:49.50	337.82	7.20	-30.9	-34.2	10.0	6.82e-03	0	44	0	1321205760	21	5314

#Closed at: 2026-01-26 11:13:52
#Recorded file [1324 MB]: D:/data/31010_260126_140204.dat