passes_logs/2026/01/26/R2M6_AANII_01/R2M6_AANII_01__20260126_071008_FENGYUN_3E_rec.log

#Pass ID: 20260126_071008_FENGYUN 3E
#Satellite: FENGYUN 3E
#Configuration: FENGYUN 3E
#almurnet v.1.7.20240730
#Start time: 2026-01-26 07:10:08

#Version: 2.2.20231116
#Station: R2M6_AANII_01
#Location: 30.233357 lon 59.946436 lat
#TLE: 1 49008U 21062A   26025.85775150 -.00000016  00000+0  13398-4 0  9990
#TLE: 2 49008  98.7498  30.8591 0002468 117.3618 242.7810 14.19886460236384

#Time	Az	El	Level	Level2	SNR	BER	BlckErr	Temp	State	Recorded	gain1	gain2
2026-01-26 07:10:08.35	8.40	7.00	-31.1	-36.5	4.2	8.33e-01	0	41	0	0	22	6679
2026-01-26 07:10:11.36	8.05	7.17	-30.8	-35.3	5.6	5.69e-01	0	41	102	1048576	21	6067
2026-01-26 07:10:14.37	7.71	7.33	-31.0	-36.1	5.3	7.21e-01	0	41	102	1048576	21	6482
2026-01-26 07:10:17.38	7.35	7.50	-30.9	-35.4	5.4	7.32e-01	0	41	102	1048576	22	5979
2026-01-26 07:10:20.39	6.99	7.66	-29.7	-32.1	8.0	8.55e-02	0	41	102	1048576	20	4732
2026-01-26 07:10:23.40	6.63	7.82	-28.3	-29.7	10.7	5.43e-03	0	41	102	1048576	17	4243
2026-01-26 07:10:26.42	6.27	7.99	-27.7	-29.4	11.3	1.30e-03	0	42	102	1048576	15	4370
2026-01-26 07:10:29.44	5.89	8.15	-27.6	-29.0	11.6	1.18e-03	0	41	102	1048576	15	4251
2026-01-26 07:10:32.45	5.52	8.32	-27.5	-28.8	11.7	5.84e-04	0	42	102	1048576	15	4195
2026-01-26 07:10:35.46	5.14	8.48	-28.2	-29.9	10.9	3.88e-03	0	42	102	1048576	16	4388
2026-01-26 07:10:38.47	4.76	8.64	-26.8	-27.6	12.8	5.83e-05	0	42	102	1048576	14	3958
2026-01-26 07:10:41.48	4.37	8.81	-25.9	-26.2	13.9	2.20e-06	0	42	102	1048576	13	3709
2026-01-26 07:10:44.51	3.97	8.97	-26.1	-27.1	13.7	6.80e-06	0	42	102	1048576	12	4017
2026-01-26 07:10:47.53	3.58	9.13	-26.2	-27.2	13.7	1.37e-05	0	42	102	1048576	12	4053
2026-01-26 07:10:50.54	3.17	9.30	-25.9	-26.7	14.0	3.40e-06	0	42	102	1048576	12	3919
2026-01-26 07:10:53.54	2.77	9.46	-26.1	-27.1	13.7	8.00e-06	0	42	102	1048576	12	4029
2026-01-26 07:10:56.56	2.36	9.62	-26.1	-27.0	13.8	8.00e-06	0	42	102	1048576	12	4007
2026-01-26 07:10:59.58	1.94	9.78	-26.6	-27.8	13.1	2.86e-05	0	43	102	1048576	13	4096
2026-01-26 07:11:02.60	1.52	9.94	-26.3	-27.5	13.6	6.80e-06	0	42	102	1048576	12	4132
2026-01-26 07:11:05.61	1.09	10.11	-26.0	-26.9	14.0	6.80e-06	0	42	102	1048576	12	3962
2026-01-26 07:11:08.60	0.67	10.26	-26.0	-26.8	14.0	4.50e-06	0	43	102	1048576	12	3956
2026-01-26 07:11:11.61	0.23	10.42	-26.0	-26.8	14.0	4.50e-06	0	43	102	1048576	12	3954
2026-01-26 07:11:14.63	359.79	10.58	-26.2	-27.3	13.7	6.80e-06	0	43	102	1048576	12	4075
2026-01-26 07:11:17.65	359.35	10.74	-25.9	-27.1	14.2	0.00e+00	0	43	102	1048576	11	4125
2026-01-26 07:11:20.66	358.90	10.90	-26.1	-26.9	14.0	2.20e-06	0	43	102	1048576	12	3973
2026-01-26 07:11:23.67	358.44	11.06	-26.2	-27.2	13.9	9.10e-06	0	43	102	1048576	12	4036
2026-01-26 07:11:26.68	357.98	11.21	-26.1	-26.9	14.0	5.70e-06	0	43	102	1048576	12	3964
2026-01-26 07:11:29.69	357.52	11.37	-26.0	-26.7	14.1	2.20e-06	0	43	102	1048576	12	3925
2026-01-26 07:11:32.70	357.05	11.52	-25.9	-26.6	14.2	3.40e-06	0	43	102	1048576	12	3883
2026-01-26 07:11:35.72	356.57	11.68	-25.7	-26.6	14.5	1.10e-06	0	43	102	1048576	11	3988
2026-01-26 07:11:38.73	356.09	11.83	-26.0	-26.8	14.1	3.40e-06	0	43	102	1048576	12	3945
2026-01-26 07:11:41.74	355.61	11.98	-26.0	-27.1	14.2	0.00e+00	0	43	102	1048576	11	4130
2026-01-26 07:11:44.76	355.12	12.13	-25.9	-27.1	14.3	1.10e-06	0	43	102	1048576	11	4114
2026-01-26 07:11:47.77	354.62	12.28	-25.8	-26.7	14.5	0.00e+00	0	43	102	1048576	11	4019
2026-01-26 07:11:50.78	354.12	12.43	-25.7	-26.6	14.6	1.10e-06	0	43	102	1048576	11	3982
2026-01-26 07:11:53.80	353.62	12.57	-25.6	-26.4	14.7	0.00e+00	0	43	102	1048576	11	3942
2026-01-26 07:11:56.82	353.10	12.72	-25.3	-26.1	15.2	0.00e+00	0	43	102	1048576	10	3964
2026-01-26 07:11:59.84	352.59	12.86	-25.4	-26.4	15.0	0.00e+00	0	43	102	1048576	10	4044
2026-01-26 07:12:02.85	352.07	13.01	-25.6	-26.8	14.8	0.00e+00	0	43	102	1048576	10	4150
2026-01-26 07:12:05.86	351.54	13.15	-25.3	-26.2	15.2	0.00e+00	0	43	102	1048576	10	3982
2026-01-26 07:12:08.87	351.01	13.29	-25.3	-26.1	15.2	0.00e+00	0	43	102	1048576	10	3974
2026-01-26 07:12:11.88	350.47	13.42	-25.3	-26.2	15.2	0.00e+00	0	43	102	1048576	10	3988
2026-01-26 07:12:14.89	349.93	13.56	-25.3	-26.1	15.2	0.00e+00	0	43	102	1048576	10	3976
2026-01-26 07:12:17.89	349.39	13.69	-25.2	-26.0	15.3	0.00e+00	0	43	102	1048576	10	3941
2026-01-26 07:12:20.92	348.83	13.83	-25.2	-26.0	15.3	0.00e+00	0	43	102	1048576	10	3932
2026-01-26 07:12:23.93	348.28	13.96	-25.0	-25.5	15.6	0.00e+00	0	43	102	1048576	10	3826
2026-01-26 07:12:26.94	347.72	14.09	-25.2	-26.0	15.3	0.00e+00	0	43	102	1048576	10	3954
2026-01-26 07:12:29.96	347.15	14.21	-25.3	-26.1	15.3	0.00e+00	0	43	102	1048576	10	3973
2026-01-26 07:12:32.96	346.58	14.34	-25.2	-25.9	15.4	0.00e+00	0	43	102	1048576	10	3913
2026-01-26 07:12:35.96	346.00	14.46	-25.2	-25.9	15.4	1.10e-06	0	43	102	1048576	10	3922
2026-01-26 07:12:38.97	345.42	14.58	-25.2	-25.9	15.4	0.00e+00	0	43	102	1048576	10	3917
2026-01-26 07:12:41.98	344.84	14.69	-25.2	-26.0	15.4	0.00e+00	0	43	102	1048576	10	3942
2026-01-26 07:12:44.99	344.25	14.81	-25.5	-26.6	15.1	0.00e+00	0	43	102	1048576	10	4092
2026-01-26 07:12:48.00	343.66	14.92	-24.8	-25.1	15.8	0.00e+00	0	44	102	1048576	10	3724
2026-01-26 07:12:51.01	343.06	15.03	-24.7	-25.5	15.9	0.00e+00	0	44	102	1048576	9	3911
2026-01-26 07:12:54.03	342.45	15.14	-24.8	-25.6	15.8	0.00e+00	0	43	102	1048576	9	3942
2026-01-26 07:12:57.04	341.84	15.24	-24.8	-25.5	15.9	0.00e+00	0	43	102	1048576	9	3921
2026-01-26 07:13:00.06	341.23	15.34	-24.7	-25.5	15.9	0.00e+00	0	43	102	1048576	9	3909
2026-01-26 07:13:03.08	340.61	15.44	-24.7	-25.5	15.9	0.00e+00	0	44	102	1048576	9	3909
2026-01-26 07:13:06.09	339.99	15.53	-24.8	-25.5	15.9	0.00e+00	0	43	102	1048576	9	3922
2026-01-26 07:13:09.09	339.37	15.63	-24.8	-25.6	15.8	1.10e-06	0	43	102	1048576	9	3946
2026-01-26 07:13:12.10	338.74	15.71	-25.0	-26.0	15.6	0.00e+00	0	44	102	1048576	9	4030
2026-01-26 07:13:15.12	338.11	15.80	-24.9	-25.8	15.8	3.16e-04	0	43	102	1048576	9	4003
2026-01-26 07:13:18.13	337.47	15.88	-25.2	-25.9	15.5	0.00e+00	0	44	102	1048576	10	3915
2026-01-26 07:13:21.15	336.83	15.96	-25.1	-25.8	15.5	0.00e+00	0	43	102	1048576	10	3883
2026-01-26 07:13:24.16	336.19	16.04	-25.4	-26.4	15.2	0.00e+00	0	43	102	1048576	10	4038
2026-01-26 07:13:27.17	335.54	16.11	-24.5	-25.4	16.2	6.21e-04	0	43	102	1048576	8	4004
2026-01-26 07:13:30.19	334.89	16.18	-24.8	-25.5	16.0	2.12e-04	0	43	102	1048576	9	3911
2026-01-26 07:13:33.20	334.24	16.25	-24.4	-24.7	16.4	0.00e+00	0	43	102	1048576	9	3724
2026-01-26 07:13:36.22	333.58	16.31	-24.7	-25.3	16.1	3.33e-04	0	43	102	1048576	9	3870
2026-01-26 07:13:39.23	332.92	16.36	-24.3	-24.9	16.5	1.10e-06	0	43	102	1048576	8	3891
2026-01-26 07:13:42.25	332.26	16.42	-24.3	-25.0	16.5	2.53e-04	0	44	102	1048576	8	3895
2026-01-26 07:13:45.26	331.60	16.47	-23.9	-24.6	16.9	4.29e-04	0	44	102	1048576	7	3907
2026-01-26 07:13:48.28	330.93	16.52	-24.2	-24.8	16.6	0.00e+00	0	43	102	1048576	8	3865
2026-01-26 07:13:51.29	330.27	16.56	-24.3	-25.1	16.4	0.00e+00	0	43	102	1048576	8	3935
2026-01-26 07:13:54.29	329.60	16.60	-24.3	-25.0	16.5	0.00e+00	0	43	102	1048576	8	3915
2026-01-26 07:13:57.31	328.93	16.63	-24.4	-25.2	16.4	0.00e+00	0	43	102	1048576	8	3946
2026-01-26 07:14:00.32	328.26	16.66	-24.0	-24.8	16.8	0.00e+00	0	44	102	1048576	7	3969
2026-01-26 07:14:03.32	327.59	16.69	-24.4	-25.2	16.4	0.00e+00	0	43	102	1048576	8	3954
2026-01-26 07:14:06.33	326.91	16.71	-23.9	-24.2	16.9	0.00e+00	0	43	102	1048576	8	3721
2026-01-26 07:14:09.34	326.24	16.73	-24.0	-25.0	16.8	0.00e+00	0	44	102	1048576	7	3999
2026-01-26 07:14:12.35	325.56	16.75	-24.2	-24.4	16.6	0.00e+00	0	44	102	1048576	9	3655
2026-01-26 07:14:15.36	324.89	16.76	-23.9	-24.2	16.9	0.00e+00	0	44	102	1048576	8	3709
2026-01-26 07:14:18.38	324.21	16.77	-24.2	-24.8	16.6	0.00e+00	0	44	102	1048576	8	3865
2026-01-26 07:14:21.39	323.53	16.77	-24.4	-25.2	16.4	0.00e+00	0	44	102	1048576	8	3940
2026-01-26 07:14:24.40	322.85	16.77	-24.6	-25.1	16.2	0.00e+00	0	44	102	1048576	9	3813
2026-01-26 07:14:27.42	322.17	16.76	-24.5	-25.4	16.3	0.00e+00	0	44	102	1048576	8	3995
2026-01-26 07:14:30.42	321.50	16.75	-24.4	-25.2	16.4	0.00e+00	0	44	102	1048576	8	3953
2026-01-26 07:14:33.43	320.82	16.74	-24.0	-24.4	16.8	0.00e+00	0	44	102	1048576	8	3771
2026-01-26 07:14:36.44	320.15	16.72	-23.9	-24.6	17.0	0.00e+00	0	44	102	1048576	7	3915
2026-01-26 07:14:39.45	319.47	16.70	-24.2	-24.8	16.6	0.00e+00	0	43	102	1048576	8	3858
2026-01-26 07:14:42.46	318.80	16.67	-24.1	-24.5	16.8	0.00e+00	0	43	102	1048576	8	3798
2026-01-26 07:14:45.46	318.13	16.65	-24.2	-24.8	16.7	0.00e+00	0	44	102	1048576	8	3846
2026-01-26 07:14:48.48	317.46	16.61	-23.8	-24.0	17.1	0.00e+00	0	44	102	1048576	8	3660
2026-01-26 07:14:51.48	316.79	16.57	-23.9	-24.2	17.0	0.00e+00	0	44	102	1048576	8	3712
2026-01-26 07:14:54.49	316.12	16.53	-24.1	-24.6	16.8	0.00e+00	0	44	102	1048576	8	3797
2026-01-26 07:14:57.51	315.45	16.49	-24.2	-24.7	16.7	9.04e-05	0	44	102	1048576	8	3843
2026-01-26 07:15:00.52	314.79	16.44	-24.2	-24.9	16.6	2.97e-04	0	44	102	1048576	8	3879
2026-01-26 07:15:03.54	314.13	16.39	-24.3	-24.9	16.6	0.00e+00	0	44	102	1048576	8	3888
2026-01-26 07:15:06.56	313.46	16.33	-24.2	-24.8	16.6	6.75e-04	0	44	102	1048576	8	3849
2026-01-26 07:15:09.57	312.81	16.27	-24.2	-24.9	16.6	8.46e-04	0	44	102	1048576	8	3869
2026-01-26 07:15:12.59	312.15	16.20	-24.2	-24.8	16.6	4.06e-04	0	44	102	1048576	8	3862
2026-01-26 07:15:15.61	311.50	16.14	-24.3	-25.0	16.5	3.58e-04	0	44	102	1048576	8	3900
2026-01-26 07:15:18.63	310.85	16.06	-24.4	-25.2	16.4	0.00e+00	0	44	102	1048576	8	3959
2026-01-26 07:15:21.64	310.20	15.99	-24.4	-24.6	16.4	0.00e+00	0	44	102	1048576	9	3703
2026-01-26 07:15:24.63	309.57	15.91	-24.3	-25.0	16.5	9.23e-04	0	44	102	1048576	8	3907
2026-01-26 07:15:27.65	308.93	15.83	-24.4	-25.3	16.4	0.00e+00	0	44	102	1048576	8	3971
2026-01-26 07:15:30.65	308.29	15.75	-24.6	-25.2	16.1	0.00e+00	0	44	102	1048576	9	3845
2026-01-26 07:15:33.67	307.66	15.66	-24.5	-25.0	16.3	0.00e+00	0	44	102	1048576	9	3789
2026-01-26 07:15:36.69	307.03	15.57	-24.8	-25.6	15.9	0.00e+00	0	44	102	1048576	9	3949
2026-01-26 07:15:39.70	306.41	15.47	-25.0	-25.4	15.7	0.00e+00	0	44	102	1048576	10	3801
2026-01-26 07:15:42.70	305.79	15.38	-24.5	-24.9	16.3	0.00e+00	0	44	102	1048576	9	3769
2026-01-26 07:15:45.73	305.17	15.28	-24.3	-25.1	16.4	0.00e+00	0	44	102	1048576	8	3925
2026-01-26 07:15:48.74	304.56	15.17	-24.6	-25.6	16.1	0.00e+00	0	44	102	1048576	8	4055
2026-01-26 07:15:51.75	303.96	15.07	-24.6	-25.2	16.1	0.00e+00	0	44	102	1048576	9	3853
2026-01-26 07:15:54.77	303.35	14.96	-25.0	-25.9	15.7	0.00e+00	0	44	102	1048576	9	4033
2026-01-26 07:15:57.78	302.75	14.85	-24.8	-25.5	15.9	0.00e+00	0	43	102	1048576	9	3916
2026-01-26 07:16:00.78	302.16	14.73	-24.7	-25.4	16.0	0.00e+00	0	44	102	1048576	9	3904
2026-01-26 07:16:03.80	301.57	14.62	-24.5	-24.9	16.2	0.00e+00	0	44	102	1048576	9	3775
2026-01-26 07:16:06.82	300.99	14.50	-24.8	-25.5	15.9	0.00e+00	0	44	102	1048576	9	3927
2026-01-26 07:16:09.84	300.40	14.38	-25.0	-25.9	15.7	0.00e+00	0	44	102	1048576	9	4026
2026-01-26 07:16:12.85	299.83	14.25	-24.9	-25.8	15.7	0.00e+00	0	44	102	1048576	9	3992
2026-01-26 07:16:15.85	299.26	14.13	-25.0	-26.0	15.6	0.00e+00	0	44	102	1048576	9	4044
2026-01-26 07:16:18.88	298.69	14.00	-24.8	-25.7	15.8	1.10e-06	0	44	102	1048576	9	3968
2026-01-26 07:16:21.90	298.13	13.87	-25.0	-25.5	15.6	0.00e+00	0	43	102	1048576	10	3823
2026-01-26 07:16:24.91	297.58	13.74	-24.9	-25.4	15.7	0.00e+00	0	44	102	1048576	10	3790
2026-01-26 07:16:27.93	297.03	13.60	-25.2	-25.9	15.4	3.40e-06	0	44	102	1048576	10	3917
2026-01-26 07:16:30.93	296.48	13.47	-25.1	-25.8	15.4	1.10e-06	0	44	102	1048576	10	3886
2026-01-26 07:16:33.96	295.94	13.33	-25.3	-26.3	15.2	0.00e+00	0	44	102	1048576	10	4004
2026-01-26 07:16:36.97	295.41	13.19	-25.2	-25.9	15.3	0.00e+00	0	44	102	1048576	10	3911
2026-01-26 07:16:39.98	294.88	13.05	-25.1	-25.9	15.3	0.00e+00	0	44	102	1048576	10	3911
2026-01-26 07:16:42.99	294.35	12.91	-24.8	-25.0	15.8	0.00e+00	0	44	102	1048576	10	3713
2026-01-26 07:16:45.99	293.83	12.76	-24.6	-25.1	15.9	0.00e+00	0	44	102	1048576	9	3841
2026-01-26 07:16:49.01	293.32	12.62	-24.8	-25.6	15.7	0.00e+00	0	44	102	1048576	9	3942
2026-01-26 07:16:52.03	292.81	12.47	-25.1	-25.7	15.4	0.00e+00	0	44	102	1048576	10	3866
2026-01-26 07:16:55.05	292.30	12.32	-25.3	-26.3	15.0	0.00e+00	0	44	102	1048576	10	4031
2026-01-26 07:16:58.07	291.80	12.17	-25.6	-26.3	14.7	0.00e+00	0	44	102	1048576	11	3909
2026-01-26 07:17:01.08	291.31	12.02	-25.5	-26.6	14.8	0.00e+00	0	44	102	1048576	10	4103
2026-01-26 07:17:04.11	290.82	11.87	-25.4	-26.0	14.9	0.00e+00	0	44	102	1048576	11	3833
2026-01-26 07:17:07.12	290.33	11.72	-25.3	-25.8	15.0	2.20e-06	0	44	102	1048576	11	3793
2026-01-26 07:17:10.13	289.85	11.57	-25.3	-26.3	15.0	1.10e-06	0	44	102	1048576	10	4007
2026-01-26 07:17:13.15	289.38	11.41	-25.3	-26.3	15.0	0.00e+00	0	44	102	1048576	10	4024
2026-01-26 07:17:16.17	288.91	11.25	-25.4	-26.4	14.9	2.20e-06	0	44	102	1048576	10	4051
2026-01-26 07:17:19.17	288.45	11.10	-25.5	-26.6	14.7	0.00e+00	0	44	102	1048576	10	4105
2026-01-26 07:17:22.19	287.99	10.94	-25.6	-26.4	14.6	0.00e+00	0	44	102	1048576	11	3931
2026-01-26 07:17:25.21	287.53	10.78	-25.6	-26.9	14.6	0.00e+00	0	44	102	1048576	10	4165
2026-01-26 07:17:28.23	287.08	10.62	-25.7	-26.7	14.4	0.00e+00	0	44	102	1048576	11	4024
2026-01-26 07:17:31.24	286.64	10.46	-25.6	-26.4	14.5	0.00e+00	0	44	102	1048576	11	3955
2026-01-26 07:17:34.26	286.20	10.30	-25.6	-26.5	14.5	1.10e-06	0	44	102	1048576	11	3971
2026-01-26 07:17:37.27	285.77	10.14	-25.6	-26.4	14.5	3.40e-06	0	44	102	1048576	11	3957
2026-01-26 07:17:40.30	285.33	9.98	-25.8	-26.9	14.2	3.40e-06	0	44	102	1048576	11	4062
2026-01-26 07:17:43.31	284.91	9.82	-25.9	-27.1	14.1	0.00e+00	0	44	102	1048576	11	4133
2026-01-26 07:17:46.33	284.49	9.66	-25.9	-26.6	14.0	3.40e-06	0	44	102	1048576	12	3900
2026-01-26 07:17:49.34	284.08	9.50	-26.4	-27.7	13.3	2.51e-05	0	44	102	1048576	12	4188
2026-01-26 07:17:52.35	283.67	9.33	-25.9	-26.6	13.9	3.40e-06	0	44	102	1048576	12	3908
2026-01-26 07:17:55.35	283.26	9.17	-26.0	-27.3	13.9	5.70e-06	0	44	102	1048576	11	4194
2026-01-26 07:17:58.37	282.86	9.01	-25.9	-27.1	13.9	1.22e-03	0	44	102	1048576	11	4131
2026-01-26 07:18:01.38	282.46	8.84	-25.8	-26.8	14.1	2.20e-06	0	44	102	1048576	11	4052
2026-01-26 07:18:04.40	282.07	8.68	-25.8	-26.8	14.2	3.40e-06	0	44	102	1048576	11	4044
2026-01-26 07:18:07.41	281.68	8.52	-26.2	-27.3	13.6	8.00e-06	0	44	102	1048576	12	4084
2026-01-26 07:18:10.41	281.30	8.35	-26.3	-27.5	13.3	1.99e-03	0	44	102	1048576	12	4145
2026-01-26 07:18:13.43	280.92	8.19	-26.2	-27.3	13.5	2.06e-03	0	44	102	1048576	12	4099
2026-01-26 07:18:16.43	280.55	8.02	-26.3	-27.4	13.4	1.75e-03	0	44	102	1048576	12	4119
2026-01-26 07:18:19.44	280.18	7.86	-26.1	-27.0	13.6	1.75e-03	0	44	102	1048576	12	4019
2026-01-26 07:18:22.46	279.81	7.70	-25.9	-26.7	13.7	1.71e-05	0	44	102	1048576	12	3935
2026-01-26 07:18:25.46	279.45	7.53	-26.0	-26.9	13.7	1.53e-03	0	44	102	1048576	12	3983
2026-01-26 07:18:28.47	279.09	7.37	-26.4	-27.7	13.2	1.99e-03	0	44	102	1048576	12	4207
2026-01-26 07:18:31.49	278.74	7.20	-26.0	-26.9	13.6	6.80e-06	0	44	102	1048576	12	3996
2026-01-26 07:18:34.50	278.39	7.04	-32.2	-40.9	3.8	4.93e-01	0	44	104	1048576	24	9751

#Closed at: 2026-01-26 07:18:36
#Recorded file [1 MB]: D:/data/31010_260126_101010.dat