passes_logs/2026/01/11/R3.2S_Murmansk/R3.2S_Murmansk__20260111_072409_SUOMI_NPP_rec.log

#Pass ID: 20260111_072409_SUOMI NPP
#Satellite: SUOMI NPP
#Configuration: NPP
#almurnet v.1.7.20251203
#Start time: 2026-01-11 07:24:10

#Version: 2.2.20231116
#Station: R3.2S_Murmansk
#Location: 33.079688 lon 68.888172 lat
#TLE: 1 37849U 11061A   26010.94533966  .00000106  00000+0  71276-4 0  9997
#TLE: 2 37849  98.7807 313.0290 0002520  70.6146 289.5303 14.19524339736134

#Time	Az	El	Level	Level2	SNR	BER	BlckErr	Temp	State	Recorded	gain1	gain2
2026-01-11 07:24:10.82	101.75	2.09	-57.1	-73.1	3.8	1.49e+00	0	21	0	0	80	22624
2026-01-11 07:24:14.87	101.57	2.34	-57.1	-73.1	3.8	1.49e+00	0	22	104	0	79	23944
2026-01-11 07:24:18.90	101.38	2.59	-57.1	-73.1	3.8	1.49e+00	0	22	104	0	79	23932
2026-01-11 07:24:22.93	101.18	2.83	-57.1	-73.1	3.8	1.49e+00	0	22	104	0	79	23976
2026-01-11 07:24:26.97	100.98	3.09	-57.1	-73.1	3.8	1.49e+00	0	22	104	0	79	23914
2026-01-11 07:24:31.00	100.78	3.34	-57.1	-73.1	3.8	1.49e+00	0	22	104	0	79	23931
2026-01-11 07:24:35.03	100.58	3.59	-57.1	-72.9	3.8	1.49e+00	0	22	104	0	79	23498
2026-01-11 07:24:39.07	100.37	3.85	-57.1	-73.1	3.8	1.49e+00	0	22	104	0	79	24068
2026-01-11 07:24:43.09	100.16	4.11	-57.1	-72.1	3.8	1.49e+00	0	22	104	0	79	21374
2026-01-11 07:24:47.13	99.94	4.37	-56.9	-68.7	4.4	1.26e+00	13	22	0	1048576	79	14461
2026-01-11 07:24:51.17	99.72	4.64	-56.7	-66.0	5.8	3.35e-01	0	23	0	8388608	79	10655
2026-01-11 07:24:55.21	99.50	4.90	-56.6	-65.7	6.1	1.87e-01	0	23	0	15728640	79	10288
2026-01-11 07:24:59.24	99.27	5.17	-55.3	-59.9	11.1	1.54e-04	0	23	0	24117248	76	6273
2026-01-11 07:25:03.27	99.03	5.44	-54.9	-59.1	11.5	3.81e-05	0	23	0	30408704	75	6049
2026-01-11 07:25:07.29	98.80	5.71	-53.9	-57.2	12.9	7.00e-07	0	23	0	37748736	74	5154
2026-01-11 07:25:11.33	98.55	5.99	-53.6	-56.7	13.2	0.00e+00	0	23	0	46137344	73	5108
2026-01-11 07:25:15.36	98.31	6.26	-53.4	-56.3	13.5	0.00e+00	0	23	0	53477376	73	4907
2026-01-11 07:25:19.39	98.05	6.54	-53.6	-56.7	13.2	0.00e+00	0	23	0	60817408	73	5106
2026-01-11 07:25:23.42	97.80	6.82	-53.8	-56.9	13.0	0.00e+00	0	23	0	68157440	73	5256
2026-01-11 07:25:27.45	97.53	7.11	-53.3	-56.2	13.4	0.00e+00	0	23	0	75497472	72	5128
2026-01-11 07:25:31.49	97.26	7.40	-53.0	-55.7	13.8	0.00e+00	0	23	0	83886080	72	4842
2026-01-11 07:25:35.52	96.99	7.69	-52.9	-55.9	13.7	0.00e+00	0	23	0	91226112	72	4950
2026-01-11 07:25:39.54	96.71	7.98	-52.6	-55.6	13.8	0.00e+00	0	23	0	98566144	71	5051
2026-01-11 07:25:43.57	96.42	8.27	-52.5	-55.4	13.9	0.00e+00	0	23	0	105906176	71	4936
2026-01-11 07:25:47.61	96.13	8.57	-52.6	-55.5	13.8	0.00e+00	0	23	0	113246208	71	5038
2026-01-11 07:25:51.64	95.83	8.87	-52.6	-55.5	13.9	0.00e+00	0	23	0	121634816	71	5008
2026-01-11 07:25:55.68	95.53	9.18	-52.3	-55.1	14.0	0.00e+00	0	23	0	128974848	70	5042
2026-01-11 07:25:59.72	95.21	9.48	-52.5	-55.3	13.8	0.00e+00	0	23	0	136314880	70	5206
2026-01-11 07:26:03.74	94.90	9.79	-52.2	-55.0	14.0	0.00e+00	0	23	0	143654912	70	5002
2026-01-11 07:26:07.77	94.57	10.10	-52.3	-55.0	14.0	0.00e+00	0	23	0	150994944	70	5014
2026-01-11 07:26:11.81	94.24	10.42	-52.4	-55.1	14.0	0.00e+00	0	23	0	159383552	70	5075
2026-01-11 07:26:15.85	93.89	10.74	-52.3	-55.0	14.1	0.00e+00	0	23	0	166723584	70	5004
2026-01-11 07:26:19.88	93.55	11.06	-52.3	-54.9	14.1	0.00e+00	0	23	0	174063616	70	4965
2026-01-11 07:26:23.92	93.19	11.39	-52.2	-54.9	14.1	0.00e+00	0	23	0	181403648	70	4928
2026-01-11 07:26:27.95	92.82	11.71	-52.4	-55.0	14.0	0.00e+00	0	23	0	189792256	70	5034
2026-01-11 07:26:31.98	92.45	12.05	-51.7	-54.1	14.6	0.00e+00	0	23	0	197132288	70	4526
2026-01-11 07:26:36.01	92.07	12.38	-51.6	-54.0	14.5	0.00e+00	0	23	0	204472320	69	4738
2026-01-11 07:26:40.04	91.68	12.72	-51.6	-53.9	14.6	0.00e+00	0	23	0	211812352	69	4680
2026-01-11 07:26:44.06	91.28	13.06	-51.6	-53.9	14.6	0.00e+00	0	23	0	219152384	69	4699
2026-01-11 07:26:48.08	90.87	13.40	-51.6	-53.8	14.6	0.00e+00	0	23	0	227540992	69	4624
2026-01-11 07:26:52.10	90.45	13.75	-51.6	-53.8	14.6	0.00e+00	0	24	0	234881024	69	4603
2026-01-11 07:26:56.13	90.02	14.10	-51.6	-53.9	14.6	0.00e+00	0	24	0	242221056	69	4654
2026-01-11 07:27:00.17	89.57	14.46	-51.6	-53.8	14.7	0.00e+00	0	23	0	249561088	69	4610
2026-01-11 07:27:04.20	89.12	14.81	-51.7	-54.0	14.5	0.00e+00	0	23	0	256901120	69	4744
2026-01-11 07:27:08.23	88.66	15.18	-51.8	-54.2	14.5	0.00e+00	0	23	0	265289728	69	4816
2026-01-11 07:27:12.26	88.18	15.54	-51.4	-53.7	14.8	0.00e+00	0	23	0	272629760	69	4548
2026-01-11 07:27:16.30	87.69	15.91	-51.9	-54.3	14.4	0.00e+00	0	23	0	279969792	69	4901
2026-01-11 07:27:20.33	87.19	16.28	-51.5	-53.6	14.8	0.00e+00	0	23	0	287309824	69	4540
2026-01-11 07:27:24.37	86.68	16.66	-51.7	-54.0	14.6	0.00e+00	0	24	0	294649856	69	4717
2026-01-11 07:27:28.40	86.15	17.04	-51.4	-53.5	14.9	0.00e+00	0	23	0	303038464	69	4453
2026-01-11 07:27:32.43	85.61	17.42	-51.8	-54.1	14.4	0.00e+00	0	23	0	310378496	68	5047
2026-01-11 07:27:36.46	85.06	17.80	-52.3	-54.8	14.1	0.00e+00	0	24	0	317718528	69	5196
2026-01-11 07:27:40.50	84.49	18.19	-52.4	-54.9	14.2	0.00e+00	0	24	0	325058560	70	4930
2026-01-11 07:27:44.53	83.91	18.59	-52.0	-54.4	14.5	0.00e+00	0	23	0	332398592	70	4657
2026-01-11 07:27:48.56	83.31	18.98	-51.7	-53.9	14.8	0.00e+00	0	24	0	340787200	70	4405
2026-01-11 07:27:52.58	82.69	19.38	-51.7	-53.9	14.6	0.00e+00	0	23	0	348127232	69	4704
2026-01-11 07:27:56.62	82.06	19.78	-51.8	-54.1	14.5	0.00e+00	0	23	0	355467264	69	4793
2026-01-11 07:28:00.65	81.41	20.18	-51.8	-54.1	14.5	0.00e+00	0	24	0	362807296	69	4796
2026-01-11 07:28:04.67	80.75	20.59	-52.0	-54.2	14.5	0.00e+00	0	23	0	371195904	69	4867
2026-01-11 07:28:08.70	80.06	20.99	-52.0	-54.3	14.5	0.00e+00	0	24	0	378535936	69	4872
2026-01-11 07:28:12.73	79.36	21.40	-52.3	-54.7	14.2	0.00e+00	0	24	0	385875968	69	5130
2026-01-11 07:28:16.76	78.64	21.82	-52.2	-54.6	14.4	0.00e+00	0	23	0	393216000	70	4801
2026-01-11 07:28:20.79	77.89	22.23	-51.8	-54.1	14.7	0.00e+00	0	23	0	400556032	70	4515
2026-01-11 07:28:24.82	77.13	22.64	-51.6	-53.9	14.7	0.00e+00	0	23	0	408944640	69	4660
2026-01-11 07:28:28.85	76.35	23.06	-51.5	-53.5	15.0	0.00e+00	0	24	0	416284672	69	4483
2026-01-11 07:28:32.88	75.54	23.48	-51.7	-53.8	14.7	0.00e+00	0	23	0	423624704	69	4636
2026-01-11 07:28:36.91	74.72	23.89	-51.9	-54.1	14.6	0.00e+00	0	24	0	430964736	69	4765
2026-01-11 07:28:40.94	73.87	24.31	-51.6	-53.7	14.8	0.00e+00	0	24	0	438304768	69	4567
2026-01-11 07:28:44.97	72.99	24.73	-51.6	-53.8	14.7	0.00e+00	0	24	0	445644800	69	4606
2026-01-11 07:28:49.00	72.10	25.14	-51.9	-54.2	14.5	0.00e+00	0	24	0	454033408	69	4845
2026-01-11 07:28:53.03	71.18	25.56	-51.6	-53.7	14.8	0.00e+00	0	23	0	461373440	69	4570
2026-01-11 07:28:57.07	70.23	25.97	-52.2	-54.4	14.4	0.00e+00	0	24	0	468713472	69	4983
2026-01-11 07:29:01.10	69.26	26.38	-51.7	-53.8	14.7	0.00e+00	0	24	0	476053504	69	4645
2026-01-11 07:29:05.13	68.26	26.79	-50.5	-52.3	15.2	0.00e+00	0	24	0	484442112	67	4368
2026-01-11 07:29:09.16	67.24	27.19	-50.6	-52.5	15.1	0.00e+00	0	24	0	491782144	67	4477
2026-01-11 07:29:13.19	66.20	27.59	-51.2	-53.2	14.6	0.00e+00	0	24	0	499122176	67	4868
2026-01-11 07:29:17.23	65.12	27.98	-52.4	-55.0	14.2	0.00e+00	0	24	0	506462208	70	5036
2026-01-11 07:29:21.26	64.02	28.37	-52.2	-54.5	14.4	0.00e+00	0	24	0	513802240	70	4757
2026-01-11 07:29:25.29	62.89	28.75	-52.1	-54.4	14.4	0.00e+00	0	24	0	522190848	70	4700
2026-01-11 07:29:29.32	61.74	29.12	-52.5	-55.3	14.0	0.00e+00	0	24	0	529530880	70	5162
2026-01-11 07:29:33.35	60.56	29.49	-53.2	-56.3	13.5	0.00e+00	0	24	0	536870912	71	5494
2026-01-11 07:29:37.38	59.35	29.84	-54.0	-57.5	13.0	7.00e-07	0	24	0	544210944	73	5655
2026-01-11 07:29:41.42	58.11	30.19	-53.8	-57.1	13.3	0.00e+00	0	24	0	551550976	73	5386
2026-01-11 07:29:45.45	56.85	30.52	-53.0	-55.8	14.0	0.00e+00	0	24	0	559939584	72	4881
2026-01-11 07:29:49.47	55.56	30.84	-53.2	-56.5	13.5	0.00e+00	0	23	0	567279616	72	5327
2026-01-11 07:29:53.51	54.25	31.15	-53.1	-56.4	13.5	0.00e+00	0	24	0	574619648	72	5264
2026-01-11 07:29:57.55	52.91	31.44	-52.5	-55.4	14.0	0.00e+00	0	24	0	581959680	71	4980
2026-01-11 07:30:01.58	51.55	31.72	-52.6	-55.3	14.1	0.00e+00	0	24	0	590348288	71	4917
2026-01-11 07:30:05.60	50.17	31.98	-52.5	-55.3	14.0	0.00e+00	0	23	0	597688320	70	5177
2026-01-11 07:30:09.64	48.76	32.22	-53.0	-56.2	13.6	0.00e+00	0	24	0	605028352	71	5445
2026-01-11 07:30:13.67	47.33	32.45	-51.8	-54.2	14.6	0.00e+00	0	24	0	612368384	70	4565
2026-01-11 07:30:17.71	45.88	32.66	-52.6	-55.2	14.1	0.00e+00	0	24	0	619708416	70	5144
2026-01-11 07:30:21.74	44.42	32.85	-51.3	-53.5	14.9	0.00e+00	0	24	0	628097024	69	4449
2026-01-11 07:30:25.78	42.94	33.01	-50.8	-52.8	15.1	0.00e+00	0	24	0	635437056	68	4352
2026-01-11 07:30:29.80	41.45	33.16	-52.4	-55.1	14.0	0.00e+00	0	24	0	642777088	69	5350
2026-01-11 07:30:33.84	39.94	33.28	-52.0	-54.3	14.6	0.00e+00	0	24	0	650117120	70	4649
2026-01-11 07:30:37.87	38.42	33.39	-52.5	-55.0	14.4	0.00e+00	0	24	0	657457152	71	4745
2026-01-11 07:30:41.90	36.89	33.47	-51.6	-53.6	14.8	0.00e+00	0	24	0	665845760	69	4543
2026-01-11 07:30:45.92	35.37	33.52	-52.6	-55.2	14.1	0.00e+00	0	24	0	673185792	70	5120
2026-01-11 07:30:49.95	33.83	33.56	-53.3	-56.3	13.7	0.00e+00	0	24	0	680525824	72	5194
2026-01-11 07:30:53.98	32.29	33.57	-53.4	-56.5	13.6	0.00e+00	0	24	0	687865856	72	5339
2026-01-11 07:30:58.01	30.76	33.55	-52.3	-54.6	14.6	0.00e+00	0	24	0	695205888	71	4545
2026-01-11 07:31:02.04	29.22	33.52	-52.5	-55.2	14.0	0.00e+00	0	24	0	703594496	70	5144
2026-01-11 07:31:06.07	27.69	33.46	-52.0	-54.3	14.6	0.00e+00	0	24	0	710934528	70	4637
2026-01-11 07:31:10.10	26.17	33.37	-53.5	-56.7	13.4	0.00e+00	0	24	0	718274560	72	5453
2026-01-11 07:31:14.13	24.65	33.27	-52.7	-55.5	14.0	0.00e+00	0	24	0	725614592	71	5017
2026-01-11 07:31:18.16	23.15	33.14	-52.5	-55.1	14.3	0.00e+00	0	24	0	732954624	71	4802
2026-01-11 07:31:22.19	21.66	32.99	-52.9	-56.0	13.6	0.00e+00	0	24	0	741343232	71	5322
2026-01-11 07:31:26.23	20.18	32.82	-52.7	-55.4	14.1	0.00e+00	0	24	0	748683264	71	4959
2026-01-11 07:31:30.26	18.72	32.63	-52.6	-55.5	14.1	0.00e+00	0	24	0	756023296	71	4993
2026-01-11 07:31:34.29	17.28	32.42	-51.9	-54.4	14.6	0.00e+00	0	24	0	763363328	70	4658
2026-01-11 07:31:38.32	15.86	32.19	-52.1	-54.7	14.3	0.00e+00	0	24	0	771751936	69	5119
2026-01-11 07:31:42.36	14.45	31.94	-52.6	-55.2	14.2	0.00e+00	0	24	0	779091968	71	4867
2026-01-11 07:31:46.39	13.07	31.68	-52.6	-55.3	14.1	0.00e+00	0	24	0	786432000	70	5179
2026-01-11 07:31:50.42	11.72	31.40	-52.9	-55.9	13.8	0.00e+00	0	24	0	793772032	71	5265
2026-01-11 07:31:54.45	10.39	31.10	-53.2	-56.3	13.7	0.00e+00	0	24	0	801112064	72	5180
2026-01-11 07:31:58.48	9.08	30.79	-52.5	-55.1	14.3	0.00e+00	0	24	0	809500672	71	4762
2026-01-11 07:32:02.51	7.80	30.47	-51.9	-54.3	14.6	0.00e+00	0	24	0	816840704	70	4614
2026-01-11 07:32:06.54	6.54	30.14	-51.0	-53.1	14.9	0.00e+00	0	24	0	824180736	68	4499
2026-01-11 07:32:10.57	5.31	29.79	-51.3	-53.6	14.5	0.00e+00	0	24	0	831520768	67	5044
2026-01-11 07:32:14.60	4.11	29.44	-53.3	-56.4	13.6	0.00e+00	0	24	0	838860800	72	5273
2026-01-11 07:32:18.63	2.94	29.07	-51.8	-54.0	14.6	0.00e+00	0	24	0	847249408	69	4753
2026-01-11 07:32:22.66	1.79	28.70	-53.5	-56.7	13.4	0.00e+00	0	24	0	854589440	72	5443
2026-01-11 07:32:26.68	0.67	28.32	-53.3	-56.2	13.8	0.00e+00	0	24	0	861929472	72	5122
2026-01-11 07:32:30.72	359.57	27.93	-53.2	-56.0	13.8	0.00e+00	0	24	0	869269504	71	5298
2026-01-11 07:32:34.75	358.50	27.54	-51.8	-53.9	14.8	0.00e+00	0	24	0	876609536	70	4421
2026-01-11 07:32:38.78	357.46	27.14	-51.4	-53.4	14.9	0.00e+00	0	24	0	884998144	69	4405
2026-01-11 07:32:42.81	356.45	26.74	-51.9	-54.1	14.4	0.00e+00	0	24	0	892338176	69	4798
2026-01-11 07:32:46.84	355.46	26.33	-51.3	-53.3	15.0	0.00e+00	0	24	0	899678208	69	4371
2026-01-11 07:32:50.88	354.49	25.92	-51.6	-53.7	14.8	0.00e+00	0	24	0	907018240	69	4583
2026-01-11 07:32:54.91	353.55	25.51	-51.2	-53.1	14.9	0.00e+00	0	24	0	914358272	68	4537
2026-01-11 07:32:58.95	352.64	25.10	-50.4	-52.1	15.2	0.00e+00	0	24	0	922746880	67	4262
2026-01-11 07:33:02.99	351.74	24.68	-50.9	-52.9	14.9	0.00e+00	0	24	0	930086912	67	4658
2026-01-11 07:33:07.01	350.88	24.27	-49.9	-51.6	15.3	0.00e+00	0	24	0	937426944	66	4261
2026-01-11 07:33:11.05	350.03	23.85	-50.5	-52.3	15.0	0.00e+00	0	24	0	944766976	66	4610
2026-01-11 07:33:15.08	349.21	23.43	-50.5	-52.3	15.0	0.00e+00	0	24	0	953155584	66	4614
2026-01-11 07:33:19.12	348.41	23.02	-50.5	-52.4	14.9	0.00e+00	0	24	0	960495616	66	4662
2026-01-11 07:33:23.16	347.63	22.60	-50.7	-52.5	14.8	0.00e+00	0	24	0	967835648	66	4754
2026-01-11 07:33:27.17	346.88	22.19	-50.8	-52.6	14.9	0.00e+00	0	24	0	975175680	67	4544
2026-01-11 07:33:31.21	346.14	21.77	-50.8	-52.7	14.9	0.00e+00	0	24	0	982515712	67	4584
2026-01-11 07:33:35.24	345.42	21.36	-51.1	-53.0	14.8	0.00e+00	0	24	0	990904320	67	4750
2026-01-11 07:33:39.26	344.72	20.96	-51.3	-53.3	14.6	0.00e+00	0	24	0	998244352	67	4910
2026-01-11 07:33:43.30	344.04	20.55	-52.4	-54.8	14.3	0.00e+00	0	24	0	1005584384	70	4892
2026-01-11 07:33:47.33	343.38	20.14	-51.5	-53.4	14.9	0.00e+00	0	24	0	1012924416	69	4440
2026-01-11 07:33:51.36	342.73	19.74	-51.3	-53.3	15.0	0.00e+00	0	24	0	1020264448	69	4345
2026-01-11 07:33:55.40	342.11	19.34	-51.2	-53.2	14.8	0.00e+00	0	24	0	1028653056	68	4584
2026-01-11 07:33:59.42	341.50	18.95	-50.5	-52.3	15.1	0.00e+00	0	24	0	1035993088	67	4379
2026-01-11 07:34:03.46	340.90	18.55	-50.3	-52.1	15.2	0.00e+00	0	24	0	1043333120	67	4261
2026-01-11 07:34:07.48	340.32	18.16	-50.6	-52.4	15.1	0.00e+00	0	24	0	1050673152	67	4397
2026-01-11 07:34:11.50	339.76	17.78	-50.8	-52.7	14.9	0.00e+00	0	24	0	1058013184	67	4550
2026-01-11 07:34:15.54	339.21	17.39	-50.8	-52.7	14.9	0.00e+00	0	24	0	1066401792	67	4548
2026-01-11 07:34:19.57	338.67	17.01	-51.8	-54.0	14.4	0.00e+00	0	24	0	1073741824	68	5032
2026-01-11 07:34:23.60	338.15	16.64	-53.2	-56.2	13.6	0.00e+00	0	24	0	1081081856	71	5406
2026-01-11 07:34:27.63	337.64	16.26	-52.3	-54.7	14.5	0.00e+00	0	24	0	1088421888	71	4555
2026-01-11 07:34:31.67	337.14	15.89	-51.6	-53.7	14.8	0.00e+00	0	24	0	1096810496	69	4550
2026-01-11 07:34:35.70	336.66	15.52	-51.9	-54.1	14.5	0.00e+00	0	24	0	1104150528	69	4785
2026-01-11 07:34:39.74	336.19	15.16	-52.5	-54.9	14.1	0.00e+00	0	24	0	1111490560	70	4983
2026-01-11 07:34:43.77	335.73	14.80	-52.1	-54.4	14.5	0.00e+00	0	24	0	1118830592	70	4679
2026-01-11 07:34:47.80	335.28	14.44	-51.9	-54.2	14.6	0.00e+00	0	24	0	1126170624	70	4551
2026-01-11 07:34:51.83	334.84	14.09	-52.1	-54.4	14.4	0.00e+00	0	24	0	1134559232	70	4700
2026-01-11 07:34:55.86	334.41	13.74	-52.3	-54.7	14.3	0.00e+00	0	24	0	1141899264	70	4829
2026-01-11 07:34:59.89	333.99	13.39	-52.4	-54.8	14.2	0.00e+00	0	24	0	1149239296	70	4896
2026-01-11 07:35:03.91	333.59	13.05	-52.1	-54.3	14.4	0.00e+00	0	24	0	1156579328	70	4647
2026-01-11 07:35:07.94	333.19	12.71	-51.8	-53.9	14.7	0.00e+00	0	24	0	1163919360	70	4440
2026-01-11 07:35:11.97	332.80	12.37	-51.5	-53.5	14.8	0.00e+00	0	24	0	1172307968	69	4484
2026-01-11 07:35:16.00	332.42	12.04	-52.3	-54.6	14.1	0.00e+00	0	24	0	1179648000	69	5093
2026-01-11 07:35:20.03	332.05	11.71	-53.2	-56.1	13.6	0.00e+00	0	24	0	1186988032	71	5346
2026-01-11 07:35:24.07	331.69	11.38	-53.6	-56.7	13.2	0.00e+00	0	24	0	1194328064	72	5460
2026-01-11 07:35:28.09	331.34	11.06	-53.5	-56.5	13.4	0.00e+00	0	24	0	1201668096	72	5310
2026-01-11 07:35:32.12	330.99	10.74	-53.1	-55.9	13.8	0.00e+00	0	24	0	1210056704	72	4944
2026-01-11 07:35:36.16	330.65	10.42	-52.5	-55.0	14.1	0.00e+00	0	24	0	1217396736	71	4743
2026-01-11 07:35:40.18	330.32	10.11	-52.3	-54.8	14.3	0.00e+00	0	24	0	1224736768	71	4607
2026-01-11 07:35:44.22	330.00	9.79	-52.0	-54.3	14.4	0.00e+00	0	24	0	1232076800	70	4650
2026-01-11 07:35:48.25	329.69	9.49	-52.2	-54.6	14.2	0.00e+00	0	24	0	1239416832	70	4783
2026-01-11 07:35:52.28	329.38	9.18	-52.5	-55.1	13.9	0.00e+00	0	24	0	1247805440	70	5042
2026-01-11 07:35:56.32	329.07	8.88	-52.9	-55.7	13.7	0.00e+00	0	24	0	1255145472	71	5122
2026-01-11 07:36:00.34	328.78	8.58	-53.3	-56.3	13.3	0.00e+00	0	24	0	1262485504	71	5476
2026-01-11 07:36:04.37	328.49	8.28	-53.4	-56.5	13.3	0.00e+00	0	24	0	1269825536	72	5284
2026-01-11 07:36:08.32	328.21	7.99	-53.4	-56.4	13.4	0.00e+00	0	24	0	1277165568	72	5240
2026-01-11 07:36:12.35	327.93	7.70	-53.7	-57.0	12.9	0.00e+00	0	24	0	1284505600	72	5654
2026-01-11 07:36:16.38	327.66	7.41	-54.1	-57.9	12.4	0.00e+00	0	24	0	1292894208	73	5860
2026-01-11 07:36:20.41	327.40	7.13	-54.1	-57.8	12.5	2.20e-06	0	24	0	1300234240	73	5794
2026-01-11 07:36:24.43	327.14	6.84	-54.1	-57.8	12.4	2.20e-06	0	24	0	1307574272	73	5848
2026-01-11 07:36:28.46	326.88	6.56	-53.9	-57.4	12.7	0.00e+00	0	24	0	1314914304	73	5587
2026-01-11 07:36:32.49	326.63	6.28	-53.6	-56.9	13.0	0.00e+00	0	24	0	1322254336	73	5257
2026-01-11 07:36:36.53	326.38	6.01	-53.0	-55.9	13.5	0.00e+00	0	24	0	1330642944	72	4960
2026-01-11 07:36:40.56	326.14	5.73	-52.9	-55.8	13.6	0.00e+00	0	24	0	1337982976	72	4891
2026-01-11 07:36:44.59	325.91	5.46	-53.0	-55.9	13.5	0.00e+00	0	24	0	1345323008	72	4967
2026-01-11 07:36:48.62	325.68	5.19	-53.2	-56.2	13.3	0.00e+00	0	24	0	1352663040	72	5152
2026-01-11 07:36:52.66	325.45	4.92	-57.8	-73.7	3.8	1.49e+00	0	24	104	1358954496	80	24399
2026-01-11 07:36:56.70	325.23	4.66	-58.8	-74.8	3.8	1.49e+00	0	24	104	1358954496	82	24673
2026-01-11 07:37:00.73	325.01	4.40	-59.3	-75.3	3.8	1.49e+00	0	24	104	1358954496	83	24644
2026-01-11 07:37:04.75	324.80	4.14	-59.7	-75.7	3.8	1.49e+00	0	24	104	1358954496	84	24343
2026-01-11 07:37:08.79	324.59	3.88	-59.8	-75.8	3.8	1.49e+00	0	24	104	1358954496	84	24683
2026-01-11 07:37:12.82	324.38	3.62	-59.9	-75.9	3.8	1.49e+00	0	24	104	1358954496	84	24839
2026-01-11 07:37:16.86	324.18	3.37	-59.7	-75.8	3.8	1.49e+00	0	24	104	1358954496	84	24506
2026-01-11 07:37:20.90	323.98	3.11	-59.7	-75.7	3.8	1.49e+00	0	24	104	1358954496	84	24266
2026-01-11 07:37:24.93	323.78	2.86	-59.6	-75.7	3.8	1.49e+00	0	24	104	1358954496	84	24217
2026-01-11 07:37:28.96	323.59	2.61	-59.6	-75.7	3.8	1.49e+00	0	24	104	1358954496	84	24134
2026-01-11 07:37:32.99	323.41	2.37	-59.6	-75.6	3.8	1.49e+00	0	24	104	1358954496	84	24029
2026-01-11 07:37:37.03	323.22	2.12	-59.6	-75.6	3.8	1.49e+00	0	24	104	1358954496	84	24057

#Closed at: 2026-01-11 07:37:40
#Recorded file [1358 MB]: D:/lorett/data/31004_260111_102410.dat