passes_logs/2026/01/11/R3.2S_Murmansk/R3.2S_Murmansk__20260111_115610_NOAA_21_JPSS-2_rec.log

#Pass ID: 20260111_115610_NOAA 21 (JPSS-2)
#Satellite: NOAA 21 (JPSS-2)
#Configuration: NOAA-21
#almurnet v.1.7.20251203
#Start time: 2026-01-11 11:57:58

#Version: 2.2.20231116
#Station: R3.2S_Murmansk
#Location: 33.079688 lon 68.888172 lat
#TLE: 1 54234U 22150A   26010.92456470  .00000095  00000+0  65865-4 0  9991
#TLE: 2 54234  98.7494 311.8737 0000784 316.5119  43.5995 14.19533975164234

#Time	Az	El	Level	Level2	SNR	BER	BlckErr	Temp	State	Recorded	gain1	gain2
2026-01-11 11:57:58.43	222.16	8.37	-59.6	-72.6	3.8	8.46e-01	0	23	0	0	84	17018
2026-01-11 11:58:01.44	222.48	8.57	-59.6	-73.5	3.8	1.49e+00	0	23	104	0	84	18770
2026-01-11 11:58:04.47	222.82	8.76	-59.5	-73.3	3.8	1.49e+00	0	23	104	0	84	18465
2026-01-11 11:58:07.49	223.15	8.95	-59.4	-73.2	3.8	1.49e+00	0	23	104	0	84	18207
2026-01-11 11:58:10.52	223.49	9.15	-59.3	-73.1	3.8	1.49e+00	0	23	104	0	84	17928
2026-01-11 11:58:13.54	223.83	9.34	-59.0	-72.8	3.8	1.49e+00	0	23	104	0	84	17383
2026-01-11 11:58:16.58	224.18	9.54	-58.5	-72.3	3.8	1.49e+00	0	23	104	0	83	17341
2026-01-11 11:58:19.61	224.53	9.73	-58.5	-72.1	3.8	1.49e+00	0	23	104	0	83	17038
2026-01-11 11:58:22.63	224.89	9.93	-58.5	-72.1	3.8	1.49e+00	0	23	104	0	83	17080
2026-01-11 11:58:25.66	225.25	10.13	-58.5	-72.1	3.8	1.49e+00	0	23	104	0	83	17041
2026-01-11 11:58:28.68	225.62	10.32	-58.5	-72.2	3.8	1.49e+00	0	23	104	0	83	17199
2026-01-11 11:58:31.71	225.99	10.52	-58.5	-72.0	3.8	1.49e+00	0	23	104	0	83	16846
2026-01-11 11:58:34.74	226.37	10.72	-58.5	-72.0	3.8	1.49e+00	0	23	104	0	83	16719
2026-01-11 11:58:37.76	226.75	10.92	-58.4	-71.7	3.8	1.49e+00	0	23	104	0	83	16162
2026-01-11 11:58:40.79	227.13	11.12	-58.3	-70.9	3.8	1.49e+00	0	23	104	0	83	14823
2026-01-11 11:58:43.82	227.52	11.32	-58.4	-71.7	3.8	1.49e+00	0	23	104	0	83	16141
2026-01-11 11:58:46.84	227.92	11.52	-57.2	-63.2	7.3	1.22e-01	0	23	0	3145728	81	6843
2026-01-11 11:58:49.87	228.32	11.72	-55.3	-58.7	11.1	8.87e-04	0	23	0	12582912	77	5133
2026-01-11 11:58:52.89	228.73	11.93	-51.5	-53.3	14.2	0.00e+00	0	23	0	23068672	69	4351
2026-01-11 11:58:55.92	229.14	12.13	-55.6	-59.2	10.7	1.50e-06	0	23	0	31457280	76	5764
2026-01-11 11:58:58.94	229.56	12.33	-49.0	-50.3	15.1	0.00e+00	0	23	0	41943040	64	4115
2026-01-11 11:59:01.97	229.98	12.53	-48.7	-50.0	15.2	0.00e+00	0	23	0	51380224	64	3993
2026-01-11 11:59:04.99	230.41	12.74	-48.8	-50.0	15.2	0.00e+00	0	23	0	60817408	64	4004
2026-01-11 11:59:08.02	230.84	12.94	-48.6	-49.9	15.1	0.00e+00	0	23	0	70254592	63	4157
2026-01-11 11:59:11.05	231.28	13.14	-48.6	-49.9	15.1	0.00e+00	0	24	0	79691776	63	4185
2026-01-11 11:59:14.08	231.73	13.35	-48.7	-50.0	15.1	0.00e+00	0	23	0	89128960	63	4239
2026-01-11 11:59:17.11	232.18	13.55	-48.8	-50.1	15.0	0.00e+00	0	23	0	98566144	63	4287
2026-01-11 11:59:20.13	232.64	13.75	-48.8	-50.1	15.1	0.00e+00	0	23	0	108003328	63	4252
2026-01-11 11:59:23.16	233.11	13.96	-48.7	-50.0	15.1	0.00e+00	0	23	0	117440512	63	4239
2026-01-11 11:59:26.18	233.58	14.16	-48.7	-50.0	15.1	0.00e+00	0	23	0	126877696	63	4234
2026-01-11 11:59:29.21	234.05	14.37	-48.8	-50.1	15.0	0.00e+00	0	23	0	136314880	63	4277
2026-01-11 11:59:32.24	234.54	14.57	-48.7	-50.0	15.1	0.00e+00	0	24	0	145752064	63	4198
2026-01-11 11:59:35.26	235.03	14.77	-48.7	-50.0	15.1	0.00e+00	0	23	0	155189248	63	4224
2026-01-11 11:59:38.29	235.52	14.98	-48.6	-49.9	15.2	0.00e+00	0	23	0	164626432	63	4172
2026-01-11 11:59:41.31	236.03	15.18	-48.6	-49.9	15.2	0.00e+00	0	23	0	174063616	63	4161
2026-01-11 11:59:44.34	236.54	15.38	-48.6	-49.9	15.2	0.00e+00	0	23	0	183500800	63	4169
2026-01-11 11:59:47.37	237.05	15.58	-48.6	-49.9	15.2	0.00e+00	0	23	0	192937984	63	4175
2026-01-11 11:59:50.40	237.58	15.78	-48.5	-49.8	15.2	0.00e+00	0	23	0	202375168	63	4109
2026-01-11 11:59:53.42	238.10	15.99	-48.6	-49.8	15.2	0.00e+00	0	23	0	211812352	63	4142
2026-01-11 11:59:56.45	238.64	16.19	-48.5	-49.7	15.2	0.00e+00	0	23	0	221249536	63	4093
2026-01-11 11:59:59.47	239.18	16.38	-48.4	-49.7	15.3	0.00e+00	0	23	0	230686720	63	4055
2026-01-11 12:00:02.50	239.74	16.58	-48.4	-49.6	15.3	0.00e+00	0	23	0	240123904	63	4040
2026-01-11 12:00:05.53	240.29	16.78	-48.2	-49.4	15.4	0.00e+00	0	23	0	249561088	63	3955
2026-01-11 12:00:08.55	240.86	16.98	-48.2	-49.5	15.4	0.00e+00	0	23	0	258998272	63	3968
2026-01-11 12:00:11.58	241.43	17.17	-48.3	-49.5	15.3	0.00e+00	0	23	0	268435456	63	3990
2026-01-11 12:00:14.61	242.01	17.37	-48.3	-49.5	15.4	0.00e+00	0	23	0	277872640	63	3976
2026-01-11 12:00:17.63	242.60	17.56	-48.4	-49.7	15.3	0.00e+00	0	23	0	287309824	63	4053
2026-01-11 12:00:20.66	243.19	17.75	-48.5	-49.7	15.3	0.00e+00	0	23	0	296747008	63	4080
2026-01-11 12:00:23.68	243.79	17.94	-48.5	-49.8	15.2	0.00e+00	0	23	0	306184192	63	4110
2026-01-11 12:00:26.70	244.40	18.13	-48.4	-49.7	15.3	0.00e+00	0	23	0	315621376	63	4058
2026-01-11 12:00:29.72	245.01	18.32	-48.3	-49.5	15.3	0.00e+00	0	23	0	325058560	63	4004
2026-01-11 12:00:32.75	245.64	18.50	-48.4	-49.6	15.3	0.00e+00	0	23	0	334495744	63	4027
2026-01-11 12:00:35.77	246.26	18.68	-48.5	-49.7	15.3	0.00e+00	0	23	0	343932928	63	4088
2026-01-11 12:00:38.79	246.90	18.87	-48.6	-49.8	15.2	0.00e+00	0	23	0	353370112	63	4139
2026-01-11 12:00:41.81	247.54	19.04	-48.7	-50.0	15.2	0.00e+00	0	23	0	362807296	63	4207
2026-01-11 12:00:44.84	248.20	19.22	-48.6	-49.9	15.2	0.00e+00	0	23	0	372244480	63	4163
2026-01-11 12:00:47.87	248.86	19.39	-48.5	-49.8	15.2	0.00e+00	0	23	0	381681664	63	4114
2026-01-11 12:00:50.88	249.52	19.57	-48.7	-49.9	15.2	0.00e+00	0	23	0	391118848	63	4189
2026-01-11 12:00:53.90	250.19	19.73	-48.7	-50.0	15.1	0.00e+00	0	23	0	400556032	63	4237
2026-01-11 12:00:56.93	250.88	19.90	-48.5	-49.8	15.2	0.00e+00	0	23	0	409993216	63	4125
2026-01-11 12:00:59.96	251.57	20.06	-48.5	-49.7	15.3	0.00e+00	0	23	0	419430400	63	4088
2026-01-11 12:01:02.99	252.26	20.22	-48.5	-49.8	15.2	0.00e+00	0	23	0	428867584	63	4124
2026-01-11 12:01:06.01	252.96	20.38	-48.5	-49.7	15.2	0.00e+00	0	23	0	438304768	63	4094
2026-01-11 12:01:09.03	253.67	20.53	-48.3	-49.5	15.4	0.00e+00	0	23	0	447741952	63	3970
2026-01-11 12:01:12.05	254.39	20.68	-48.2	-49.4	15.4	0.00e+00	0	23	0	457179136	63	3954
2026-01-11 12:01:15.09	255.11	20.83	-48.3	-49.5	15.4	0.00e+00	0	23	0	466616320	63	4002
2026-01-11 12:01:18.12	255.84	20.97	-48.1	-49.4	15.3	0.00e+00	0	23	0	476053504	62	4148
2026-01-11 12:01:21.14	256.58	21.11	-48.0	-49.2	15.3	0.00e+00	0	23	0	485490688	62	4098
2026-01-11 12:01:24.16	257.32	21.25	-48.1	-49.4	15.3	0.00e+00	0	23	0	494927872	62	4155
2026-01-11 12:01:27.19	258.07	21.38	-48.2	-49.4	15.3	0.00e+00	0	23	0	504365056	62	4162
2026-01-11 12:01:30.22	258.82	21.50	-48.2	-49.4	15.3	0.00e+00	0	23	0	513802240	62	4176
2026-01-11 12:01:33.24	259.58	21.63	-48.3	-49.6	15.2	0.00e+00	0	23	0	523239424	62	4244
2026-01-11 12:01:36.27	260.35	21.74	-48.1	-49.4	15.3	0.00e+00	0	23	0	532676608	62	4150
2026-01-11 12:01:39.29	261.12	21.86	-47.9	-49.1	15.4	0.00e+00	0	23	0	542113792	62	4038
2026-01-11 12:01:42.31	261.90	21.96	-48.1	-49.4	15.3	0.00e+00	0	23	0	551550976	62	4154
2026-01-11 12:01:45.34	262.68	22.07	-48.2	-49.4	15.3	0.00e+00	0	23	0	560988160	62	4168
2026-01-11 12:01:48.37	263.47	22.16	-48.0	-49.2	15.4	0.00e+00	0	23	0	570425344	62	4055
2026-01-11 12:01:51.40	264.26	22.26	-48.0	-49.2	15.3	0.00e+00	0	23	0	580911104	62	4072
2026-01-11 12:01:54.42	265.06	22.34	-48.1	-49.3	15.3	0.00e+00	0	23	0	589299712	62	4120
2026-01-11 12:01:57.45	265.86	22.43	-48.0	-49.2	15.3	0.00e+00	0	23	0	599785472	62	4077
2026-01-11 12:02:00.47	266.66	22.50	-48.0	-49.2	15.3	0.00e+00	0	23	0	608174080	62	4068
2026-01-11 12:02:03.50	267.47	22.58	-48.0	-49.2	15.4	0.00e+00	0	23	0	618659840	62	4072
2026-01-11 12:02:06.53	268.28	22.64	-48.1	-49.3	15.3	0.00e+00	0	23	0	628097024	62	4139
2026-01-11 12:02:09.54	269.09	22.70	-48.2	-49.4	15.3	0.00e+00	0	23	0	637534208	62	4192
2026-01-11 12:02:12.57	269.91	22.76	-47.9	-49.1	15.4	0.00e+00	0	23	0	646971392	62	4018
2026-01-11 12:02:15.60	270.73	22.80	-47.9	-49.0	15.4	0.00e+00	0	23	0	656408576	62	3999
2026-01-11 12:02:18.63	271.56	22.85	-47.9	-49.1	15.4	0.00e+00	0	23	0	665845760	62	4028
2026-01-11 12:02:21.66	272.38	22.88	-48.3	-49.5	15.2	0.00e+00	0	23	0	675282944	62	4219
2026-01-11 12:02:24.68	273.21	22.91	-48.0	-49.2	15.3	0.00e+00	0	23	0	684720128	62	4067
2026-01-11 12:02:27.71	274.04	22.94	-48.2	-49.4	15.3	0.00e+00	0	23	0	694157312	62	4172
2026-01-11 12:02:30.73	274.86	22.96	-48.3	-49.5	15.2	0.00e+00	0	23	0	703594496	62	4226
2026-01-11 12:02:33.75	275.69	22.97	-48.2	-49.4	15.3	0.00e+00	0	23	0	713031680	62	4160
2026-01-11 12:02:36.77	276.52	22.98	-48.1	-49.4	15.3	0.00e+00	0	23	0	722468864	62	4154
2026-01-11 12:02:39.80	277.35	22.98	-48.0	-49.2	15.3	0.00e+00	0	23	0	731906048	62	4094
2026-01-11 12:02:42.83	278.18	22.97	-48.2	-49.4	15.3	0.00e+00	0	23	0	741343232	62	4170
2026-01-11 12:02:45.85	279.01	22.96	-48.1	-49.3	15.3	0.00e+00	0	23	0	750780416	62	4114
2026-01-11 12:02:48.87	279.84	22.94	-48.2	-49.4	15.3	0.00e+00	0	23	0	760217600	62	4163
2026-01-11 12:02:51.90	280.67	22.92	-48.2	-49.4	15.3	0.00e+00	0	23	0	769654784	62	4185
2026-01-11 12:02:54.92	281.49	22.89	-48.0	-49.2	15.4	0.00e+00	0	23	0	779091968	62	4098
2026-01-11 12:02:57.95	282.32	22.85	-48.0	-49.2	15.3	0.00e+00	0	23	0	788529152	62	4091
2026-01-11 12:03:00.98	283.14	22.81	-47.9	-49.1	15.4	0.00e+00	0	23	0	797966336	62	4041
2026-01-11 12:03:04.00	283.96	22.76	-47.6	-48.8	15.4	0.00e+00	0	24	0	807403520	61	4101
2026-01-11 12:03:07.02	284.77	22.71	-47.7	-48.8	15.4	0.00e+00	0	23	0	816840704	61	4141
2026-01-11 12:03:10.05	285.59	22.65	-47.9	-49.1	15.3	0.00e+00	0	23	0	826277888	61	4266
2026-01-11 12:03:13.08	286.40	22.58	-47.8	-48.9	15.4	0.00e+00	0	23	0	835715072	61	4190
2026-01-11 12:03:16.10	287.21	22.51	-47.7	-48.9	15.3	0.00e+00	0	23	0	845152256	61	4166
2026-01-11 12:03:19.13	288.01	22.44	-47.9	-49.0	15.3	0.00e+00	0	23	0	854589440	61	4239
2026-01-11 12:03:22.16	288.81	22.36	-47.8	-49.0	15.3	0.00e+00	0	23	0	864026624	61	4229
2026-01-11 12:03:25.18	289.61	22.27	-48.0	-49.2	15.2	0.00e+00	0	23	0	873463808	61	4329
2026-01-11 12:03:28.21	290.40	22.18	-47.8	-49.0	15.3	0.00e+00	0	23	0	882900992	61	4231
2026-01-11 12:03:31.23	291.18	22.08	-48.1	-49.3	15.2	0.00e+00	0	23	0	892338176	61	4372
2026-01-11 12:03:34.26	291.96	21.98	-48.0	-49.3	15.2	0.00e+00	0	23	0	901775360	61	4351
2026-01-11 12:03:37.28	292.74	21.87	-48.1	-49.3	15.2	0.00e+00	0	23	0	911212544	61	4362
2026-01-11 12:03:40.30	293.51	21.76	-48.1	-49.3	15.2	0.00e+00	0	23	0	920649728	61	4383
2026-01-11 12:03:43.33	294.27	21.64	-47.9	-49.1	15.3	0.00e+00	0	23	0	930086912	61	4273
2026-01-11 12:03:46.36	295.03	21.52	-48.0	-49.2	15.2	0.00e+00	0	23	0	939524096	61	4334
2026-01-11 12:03:49.38	295.79	21.40	-48.1	-49.3	15.2	0.00e+00	0	23	0	948961280	61	4385
2026-01-11 12:03:52.40	296.53	21.27	-48.1	-49.4	15.2	0.00e+00	0	23	0	958398464	61	4396
2026-01-11 12:03:55.41	297.27	21.13	-48.1	-49.3	15.2	0.00e+00	0	23	0	967835648	61	4388
2026-01-11 12:03:58.43	298.00	21.00	-48.1	-49.3	15.2	0.00e+00	0	23	0	977272832	61	4355
2026-01-11 12:04:01.45	298.73	20.85	-48.2	-49.4	15.2	0.00e+00	0	23	0	986710016	61	4411
2026-01-11 12:04:04.48	299.45	20.71	-48.2	-49.4	15.2	0.00e+00	0	23	0	996147200	61	4407
2026-01-11 12:04:07.50	300.17	20.56	-48.0	-49.2	15.2	0.00e+00	0	23	0	1005584384	61	4335
2026-01-11 12:04:10.53	300.87	20.41	-48.1	-49.3	15.2	0.00e+00	0	23	0	1015021568	61	4365
2026-01-11 12:04:13.56	301.58	20.25	-48.1	-49.4	15.2	0.00e+00	0	23	0	1024458752	61	4403
2026-01-11 12:04:16.59	302.27	20.09	-48.2	-49.4	15.2	0.00e+00	0	23	0	1033895936	61	4408
2026-01-11 12:04:19.61	302.96	19.93	-48.2	-49.4	15.1	0.00e+00	0	23	0	1043333120	61	4432
2026-01-11 12:04:22.64	303.64	19.77	-48.2	-49.4	15.1	0.00e+00	0	23	0	1052770304	61	4429
2026-01-11 12:04:25.66	304.31	19.60	-48.2	-49.4	15.1	0.00e+00	0	23	0	1062207488	61	4425
2026-01-11 12:04:28.68	304.97	19.43	-48.1	-49.3	15.2	0.00e+00	0	23	0	1071644672	61	4346
2026-01-11 12:04:31.70	305.63	19.26	-48.0	-49.2	15.2	0.00e+00	0	23	0	1081081856	61	4312
2026-01-11 12:04:34.73	306.28	19.08	-48.1	-49.3	15.2	0.00e+00	0	23	0	1090519040	61	4385
2026-01-11 12:04:37.75	306.92	18.91	-48.0	-49.2	15.2	0.00e+00	0	23	0	1099956224	61	4335
2026-01-11 12:04:40.78	307.56	18.73	-48.3	-49.6	15.1	0.00e+00	0	23	0	1109393408	61	4502
2026-01-11 12:04:43.80	308.19	18.54	-48.3	-49.5	15.1	0.00e+00	0	23	0	1118830592	61	4472
2026-01-11 12:04:46.82	308.81	18.36	-48.1	-49.3	15.2	0.00e+00	0	23	0	1128267776	61	4387
2026-01-11 12:04:49.85	309.43	18.18	-48.3	-49.5	15.1	0.00e+00	0	23	0	1137704960	61	4461
2026-01-11 12:04:52.87	310.03	17.99	-48.5	-49.7	15.1	0.00e+00	0	23	0	1147142144	62	4323
2026-01-11 12:04:55.90	310.63	17.80	-48.7	-50.1	15.0	0.00e+00	0	23	0	1156579328	62	4496
2026-01-11 12:04:58.93	311.23	17.61	-48.7	-50.0	15.0	0.00e+00	0	23	0	1166016512	62	4486
2026-01-11 12:05:01.94	311.81	17.42	-48.3	-49.5	15.2	0.00e+00	0	23	0	1175453696	62	4236
2026-01-11 12:05:04.97	312.39	17.23	-48.3	-49.6	15.2	0.00e+00	0	23	0	1184890880	62	4251
2026-01-11 12:05:08.00	312.96	17.03	-48.5	-49.8	15.1	0.00e+00	0	23	0	1194328064	62	4363
2026-01-11 12:05:11.03	313.52	16.84	-48.8	-50.1	14.9	0.00e+00	0	23	0	1203765248	62	4529
2026-01-11 12:05:14.05	314.08	16.64	-48.8	-50.1	15.0	0.00e+00	0	23	0	1213202432	62	4497
2026-01-11 12:05:17.09	314.63	16.44	-48.6	-49.9	15.0	0.00e+00	0	23	0	1223688192	62	4402
2026-01-11 12:05:20.11	315.17	16.25	-48.6	-49.9	15.0	0.00e+00	0	23	0	1232076800	62	4425
2026-01-11 12:05:23.13	315.71	16.05	-48.6	-49.9	15.0	0.00e+00	0	23	0	1242562560	62	4422
2026-01-11 12:05:26.15	316.23	15.85	-48.7	-50.0	15.0	0.00e+00	0	23	0	1251999744	62	4474
2026-01-11 12:05:29.18	316.76	15.65	-48.7	-50.0	15.0	0.00e+00	0	23	0	1261436928	62	4483
2026-01-11 12:05:32.20	317.27	15.45	-49.0	-50.3	15.0	0.00e+00	0	23	0	1270874112	63	4362
2026-01-11 12:05:35.22	317.78	15.25	-48.8	-50.1	15.0	0.00e+00	0	23	0	1279262720	63	4267
2026-01-11 12:05:38.24	318.28	15.05	-48.6	-49.9	15.2	0.00e+00	0	23	0	1289748480	63	4157
2026-01-11 12:05:41.27	318.78	14.84	-48.6	-49.9	15.1	0.00e+00	0	23	0	1299185664	63	4179
2026-01-11 12:05:44.30	319.27	14.64	-48.4	-49.6	15.3	0.00e+00	0	24	0	1308622848	63	4040
2026-01-11 12:05:47.33	319.75	14.44	-48.5	-49.8	15.2	0.00e+00	0	23	0	1318060032	63	4106
2026-01-11 12:05:50.36	320.23	14.24	-48.6	-49.9	15.1	0.00e+00	0	23	0	1327497216	63	4162
2026-01-11 12:05:53.39	320.70	14.04	-48.7	-50.0	15.0	0.00e+00	0	23	0	1336934400	63	4236
2026-01-11 12:05:56.41	321.16	13.83	-48.8	-50.2	15.0	0.00e+00	0	23	0	1346371584	63	4297
2026-01-11 12:05:59.44	321.62	13.63	-49.0	-50.3	14.9	0.00e+00	0	23	0	1355808768	63	4375
2026-01-11 12:06:02.46	322.07	13.43	-49.1	-50.5	14.8	0.00e+00	0	23	0	1365245952	63	4448
2026-01-11 12:06:05.48	322.51	13.23	-49.1	-50.5	14.8	0.00e+00	0	23	0	1374683136	63	4474
2026-01-11 12:06:08.50	322.95	13.03	-49.3	-50.8	14.7	0.00e+00	0	23	0	1384120320	63	4604
2026-01-11 12:06:11.53	323.39	12.82	-49.5	-50.9	14.7	0.00e+00	0	23	0	1393557504	64	4422
2026-01-11 12:06:14.56	323.82	12.62	-49.3	-50.7	14.8	0.00e+00	0	23	0	1402994688	64	4333
2026-01-11 12:06:17.57	324.24	12.42	-49.1	-50.4	15.0	0.00e+00	0	23	0	1412431872	64	4177
2026-01-11 12:06:20.57	324.65	12.22	-48.9	-50.3	15.0	0.00e+00	0	23	0	1421869056	64	4108
2026-01-11 12:06:23.60	325.06	12.02	-49.1	-50.5	14.9	0.00e+00	0	23	0	1431306240	64	4198
2026-01-11 12:06:26.62	325.47	11.82	-49.3	-50.6	14.9	0.00e+00	0	23	0	1440743424	64	4289
2026-01-11 12:06:29.65	325.87	11.62	-49.4	-50.8	14.8	0.00e+00	0	23	0	1450180608	64	4382
2026-01-11 12:06:32.68	326.27	11.42	-49.6	-51.0	14.7	0.00e+00	0	23	0	1459617792	64	4481
2026-01-11 12:06:35.71	326.66	11.22	-49.5	-50.9	14.7	0.00e+00	0	23	0	1469054976	64	4429
2026-01-11 12:06:38.72	327.05	11.03	-49.4	-50.8	14.8	0.00e+00	0	23	0	1478492160	64	4353
2026-01-11 12:06:41.74	327.43	10.83	-49.3	-50.7	14.8	0.00e+00	0	23	0	1487929344	64	4323
2026-01-11 12:06:44.77	327.80	10.63	-49.3	-50.8	14.8	0.00e+00	0	23	0	1497366528	64	4344
2026-01-11 12:06:47.80	328.17	10.43	-49.5	-51.0	14.7	0.00e+00	0	23	0	1506803712	64	4452
2026-01-11 12:06:50.82	328.54	10.24	-49.6	-51.0	14.6	0.00e+00	0	23	0	1516240896	64	4487
2026-01-11 12:06:53.84	328.90	10.04	-49.6	-51.0	14.6	0.00e+00	0	23	0	1525678080	64	4481
2026-01-11 12:06:56.86	329.26	9.85	-49.7	-51.2	14.5	0.00e+00	0	23	0	1535115264	64	4556
2026-01-11 12:06:59.88	329.61	9.65	-49.8	-51.3	14.5	0.00e+00	0	23	0	1544552448	64	4615
2026-01-11 12:07:02.91	329.96	9.46	-49.8	-51.3	14.4	0.00e+00	0	23	0	1553989632	64	4638
2026-01-11 12:07:05.93	330.30	9.27	-49.7	-51.2	14.5	0.00e+00	0	23	0	1563426816	64	4591
2026-01-11 12:07:08.95	330.64	9.07	-49.9	-51.5	14.5	0.00e+00	0	23	0	1572864000	65	4442
2026-01-11 12:07:11.97	330.98	8.88	-49.9	-51.4	14.5	0.00e+00	0	23	0	1582301184	65	4413
2026-01-11 12:07:14.96	331.30	8.69	-49.9	-51.4	14.5	0.00e+00	0	23	0	1591738368	65	4416
2026-01-11 12:07:17.99	331.63	8.50	-49.7	-51.2	14.6	0.00e+00	0	23	0	1601175552	65	4308
2026-01-11 12:07:21.02	331.95	8.31	-49.8	-51.3	14.6	0.00e+00	0	23	0	1610612736	65	4363
2026-01-11 12:07:24.04	332.27	8.12	-49.9	-51.5	14.4	0.00e+00	0	23	0	1620049920	65	4456
2026-01-11 12:07:27.07	332.59	7.93	-50.1	-51.7	14.3	0.00e+00	0	23	0	1629487104	65	4572
2026-01-11 12:07:30.10	332.90	7.74	-50.0	-51.6	14.4	0.00e+00	0	23	0	1638924288	65	4540
2026-01-11 12:07:33.12	333.21	7.56	-49.9	-51.5	14.4	0.00e+00	0	23	0	1648361472	65	4470
2026-01-11 12:07:36.14	333.51	7.37	-49.9	-51.4	14.5	0.00e+00	0	23	0	1657798656	65	4414
2026-01-11 12:07:39.16	333.81	7.19	-50.0	-51.6	14.3	0.00e+00	0	23	0	1667235840	65	4535
2026-01-11 12:07:42.19	334.11	7.00	-50.0	-51.6	14.4	0.00e+00	0	23	0	1676673024	65	4539
2026-01-11 12:07:45.21	334.40	6.82	-50.1	-51.7	14.3	0.00e+00	0	23	0	1686110208	65	4595
2026-01-11 12:07:48.24	334.69	6.63	-50.2	-51.9	14.2	0.00e+00	0	23	0	1695547392	65	4652
2026-01-11 12:07:51.27	334.98	6.45	-50.3	-52.0	14.1	0.00e+00	0	24	0	1704984576	65	4736
2026-01-11 12:07:54.29	335.26	6.27	-50.3	-52.0	14.0	0.00e+00	0	23	0	1714421760	65	4751
2026-01-11 12:07:57.31	335.54	6.09	-50.4	-52.1	14.0	0.00e+00	0	23	0	1723858944	65	4775
2026-01-11 12:08:00.34	335.81	5.90	-50.5	-52.2	14.0	0.00e+00	0	23	0	1733296128	66	4592
2026-01-11 12:08:03.37	336.09	5.72	-50.6	-52.3	14.0	0.00e+00	0	23	0	1742733312	66	4640
2026-01-11 12:08:06.40	336.36	5.54	-50.4	-52.1	14.1	0.00e+00	0	23	0	1752170496	66	4515
2026-01-11 12:08:09.43	336.62	5.37	-50.7	-52.5	13.9	0.00e+00	0	23	0	1761607680	66	4740
2026-01-11 12:08:12.45	336.89	5.19	-50.8	-52.6	13.9	0.00e+00	0	23	0	1771044864	67	4516
2026-01-11 12:08:15.48	337.15	5.01	-51.9	-54.0	13.3	0.00e+00	0	23	0	1780482048	68	5000
2026-01-11 12:08:18.51	337.41	4.83	-58.6	-72.4	3.8	1.49e+00	0	23	104	1782579200	82	18628
2026-01-11 12:08:21.54	337.66	4.66	-59.1	-72.9	3.8	1.49e+00	0	24	104	1782579200	83	18546
2026-01-11 12:08:24.56	337.91	4.48	-59.3	-73.1	3.8	1.49e+00	0	24	104	1782579200	83	19164
2026-01-11 12:08:27.59	338.16	4.31	-59.7	-73.5	3.8	1.49e+00	0	23	104	1782579200	84	18740
2026-01-11 12:08:30.62	338.41	4.13	-59.7	-73.5	3.8	1.49e+00	0	23	104	1782579200	84	18892
2026-01-11 12:08:33.64	338.65	3.96	-59.8	-73.6	3.8	1.49e+00	0	24	104	1782579200	84	19058
2026-01-11 12:08:36.66	338.89	3.79	-59.8	-73.6	3.8	1.49e+00	0	23	104	1782579200	84	19136
2026-01-11 12:08:39.69	339.13	3.62	-59.7	-73.5	3.8	1.49e+00	0	23	104	1782579200	84	18938
2026-01-11 12:08:42.72	339.37	3.45	-59.7	-73.5	3.8	1.49e+00	0	24	104	1782579200	84	18876
2026-01-11 12:08:45.74	339.60	3.28	-59.7	-73.5	3.8	1.49e+00	0	24	104	1782579200	84	18785
2026-01-11 12:08:48.77	339.83	3.11	-59.6	-73.5	3.8	1.49e+00	0	24	104	1782579200	84	18759
2026-01-11 12:08:51.80	340.06	2.94	-59.6	-73.4	3.8	1.49e+00	0	24	104	1782579200	84	18700
2026-01-11 12:08:54.82	340.29	2.77	-59.6	-73.4	3.8	1.49e+00	0	24	104	1782579200	84	18571
2026-01-11 12:08:57.84	340.51	2.60	-59.6	-73.4	3.8	1.49e+00	0	23	104	1782579200	84	18587
2026-01-11 12:09:00.87	340.73	2.44	-59.5	-73.3	3.8	1.49e+00	0	24	104	1782579200	84	18511
2026-01-11 12:09:03.90	340.95	2.27	-59.5	-73.3	3.8	1.49e+00	0	24	104	1782579200	84	18451
2026-01-11 12:09:06.93	341.17	2.11	-59.5	-73.3	3.8	1.49e+00	0	23	104	1782579200	84	18462
2026-01-11 12:09:09.95	341.38	1.94	-59.5	-73.3	3.8	1.49e+00	0	24	104	1782579200	84	18440

#Closed at: 2026-01-11 12:09:10
#Recorded file [1782 MB]: D:/lorett/data/31004_260111_145758.dat