passes_logs/2026/01/11/R3.2S_Murmansk/R3.2S_Murmansk__20260111_150815_FENGYUN_3D_rec.log

#Pass ID: 20260111_150815_FENGYUN 3D
#Satellite: FENGYUN 3D
#Configuration: FENGYUN 3D
#almurnet v.1.7.20251203
#Start time: 2026-01-11 15:08:16

#Version: 2.2.20231116
#Station: R3.2S_Murmansk
#Location: 33.079688 lon 68.888172 lat
#TLE: 1 43010U 17072A   26010.98637270  .00000005  00000+0  24269-4 0  9997
#TLE: 2 43010  98.9936 342.7405 0002213 115.1030 245.0375 14.19693961422685

#Time	Az	El	Level	Level2	SNR	BER	BlckErr	Temp	State	Recorded	gain1	gain2
2026-01-11 15:08:16.81	245.91	2.04	-57.6	-70.6	3.8	8.46e-01	0	21	0	0	81	15965
2026-01-11 15:08:19.83	246.22	2.17	-57.5	-70.5	3.8	8.46e-01	0	21	104	0	80	16778
2026-01-11 15:08:22.85	246.53	2.30	-57.5	-70.5	3.8	8.46e-01	0	21	104	0	80	16845
2026-01-11 15:08:25.88	246.85	2.43	-57.5	-70.5	3.8	8.45e-01	0	21	104	0	80	16755
2026-01-11 15:08:28.91	247.16	2.56	-57.5	-70.5	3.8	8.46e-01	0	21	104	0	80	16850
2026-01-11 15:08:31.93	247.48	2.69	-57.5	-70.5	3.8	8.45e-01	0	21	104	0	80	16711
2026-01-11 15:08:34.96	247.81	2.82	-57.5	-70.5	3.8	8.46e-01	0	22	104	0	80	16756
2026-01-11 15:08:37.98	248.13	2.95	-57.5	-70.5	3.8	8.46e-01	0	22	104	0	80	16780
2026-01-11 15:08:41.01	248.46	3.08	-57.5	-70.5	3.8	8.46e-01	0	22	104	0	80	16858
2026-01-11 15:08:44.04	248.80	3.21	-57.5	-70.5	3.8	8.46e-01	0	22	104	0	80	16805
2026-01-11 15:08:47.06	249.13	3.33	-57.5	-70.4	3.8	8.46e-01	0	22	104	0	80	16666
2026-01-11 15:08:50.10	249.47	3.46	-57.5	-70.5	3.8	8.45e-01	0	22	104	0	80	16711
2026-01-11 15:08:53.12	249.81	3.59	-57.5	-70.4	3.8	8.46e-01	0	22	104	0	80	16581
2026-01-11 15:08:56.14	250.15	3.72	-57.5	-70.5	3.8	8.46e-01	0	22	104	0	80	16877
2026-01-11 15:08:59.16	250.50	3.85	-57.5	-70.3	3.8	8.44e-01	0	22	104	0	80	16371
2026-01-11 15:09:02.19	250.84	3.97	-57.5	-70.4	3.8	8.45e-01	0	22	104	0	80	16610
2026-01-11 15:09:05.22	251.20	4.10	-57.5	-70.5	3.8	8.45e-01	0	22	104	0	80	16777
2026-01-11 15:09:08.24	251.55	4.23	-57.5	-70.1	3.8	8.46e-01	0	22	104	0	80	15986
2026-01-11 15:09:11.27	251.91	4.36	-57.5	-69.9	3.8	8.46e-01	0	22	104	0	80	15587
2026-01-11 15:09:14.30	252.27	4.48	-57.4	-69.4	3.8	8.45e-01	0	22	104	0	80	14737
2026-01-11 15:09:17.33	252.63	4.61	-57.5	-70.5	3.8	8.46e-01	0	22	104	0	80	16749
2026-01-11 15:09:20.35	253.00	4.74	-57.0	-65.3	4.8	8.07e-01	0	22	0	0	80	9204
2026-01-11 15:09:23.38	253.37	4.86	-56.2	-61.6	7.3	1.52e-01	0	22	0	11534336	79	6412
2026-01-11 15:09:26.41	253.74	4.99	-52.4	-54.6	12.9	5.70e-06	0	22	0	29360128	71	4544
2026-01-11 15:09:29.44	254.12	5.11	-52.5	-54.8	12.7	9.75e-03	0	22	0	46137344	71	4610
2026-01-11 15:09:32.46	254.50	5.24	-49.1	-51.0	14.6	0.00e+00	0	22	0	62914560	65	4215
2026-01-11 15:09:35.49	254.88	5.36	-49.0	-50.5	14.6	0.00e+00	0	23	0	79691776	63	4481
2026-01-11 15:09:38.50	255.26	5.48	-48.9	-50.4	14.6	0.00e+00	0	22	0	97517568	63	4436
2026-01-11 15:09:41.53	255.65	5.61	-48.8	-50.3	14.7	0.00e+00	0	22	0	114294784	63	4368
2026-01-11 15:09:44.56	256.04	5.73	-48.8	-50.3	14.7	0.00e+00	0	22	0	131072000	63	4353
2026-01-11 15:09:47.58	256.44	5.85	-48.6	-50.0	14.9	0.00e+00	0	22	0	147849216	63	4238
2026-01-11 15:09:50.60	256.84	5.97	-48.9	-50.3	14.7	0.00e+00	0	22	0	164626432	63	4370
2026-01-11 15:09:53.63	257.24	6.09	-48.6	-50.0	14.9	0.00e+00	0	23	0	182452224	63	4198
2026-01-11 15:09:56.66	257.64	6.21	-48.5	-50.0	14.9	0.00e+00	0	22	0	199229440	63	4194
2026-01-11 15:09:59.69	258.05	6.33	-48.3	-49.7	15.1	0.00e+00	0	22	0	216006656	63	4061
2026-01-11 15:10:02.71	258.46	6.45	-48.5	-49.9	15.0	0.00e+00	0	23	0	232783872	63	4157
2026-01-11 15:10:05.74	258.87	6.57	-48.6	-49.9	14.9	0.00e+00	0	22	0	249561088	63	4191
2026-01-11 15:10:08.76	259.29	6.69	-48.4	-49.8	15.0	0.00e+00	0	22	0	267386880	63	4117
2026-01-11 15:10:11.79	259.71	6.80	-48.4	-49.7	14.9	0.00e+00	0	23	0	284164096	62	4340
2026-01-11 15:10:14.82	260.13	6.92	-48.4	-49.7	14.9	0.00e+00	0	22	0	300941312	62	4335
2026-01-11 15:10:17.85	260.56	7.03	-48.4	-49.8	14.9	0.00e+00	0	23	0	317718528	62	4367
2026-01-11 15:10:20.87	260.99	7.15	-48.2	-49.6	15.0	0.00e+00	0	23	0	335544320	62	4261
2026-01-11 15:10:23.89	261.42	7.26	-48.0	-49.3	15.1	0.00e+00	0	23	0	352321536	62	4130
2026-01-11 15:10:26.91	261.86	7.37	-48.0	-49.4	15.1	0.00e+00	0	23	0	369098752	62	4156
2026-01-11 15:10:29.93	262.30	7.48	-48.0	-49.4	15.1	0.00e+00	0	23	0	385875968	62	4147
2026-01-11 15:10:32.96	262.74	7.60	-48.0	-49.3	15.1	0.00e+00	0	23	0	403701760	62	4124
2026-01-11 15:10:35.99	263.19	7.71	-47.9	-49.3	15.2	0.00e+00	0	23	0	420478976	62	4107
2026-01-11 15:10:39.01	263.63	7.81	-48.0	-49.3	15.2	0.00e+00	0	23	0	437256192	62	4115
2026-01-11 15:10:42.04	264.09	7.92	-48.1	-49.4	15.1	0.00e+00	0	23	0	454033408	62	4192
2026-01-11 15:10:45.07	264.54	8.03	-47.9	-49.2	15.3	0.00e+00	0	23	0	471859200	62	4060
2026-01-11 15:10:48.09	265.00	8.13	-47.6	-48.9	15.2	0.00e+00	0	23	0	488636416	61	4163
2026-01-11 15:10:51.10	265.46	8.24	-47.9	-49.2	15.1	0.00e+00	0	23	0	505413632	61	4310
2026-01-11 15:10:54.13	265.93	8.34	-47.7	-49.1	15.1	0.00e+00	0	23	0	522190848	61	4249
2026-01-11 15:10:57.16	266.40	8.44	-47.8	-49.1	15.1	0.00e+00	0	23	0	538968064	61	4281
2026-01-11 15:11:00.18	266.87	8.54	-48.5	-49.9	14.6	0.00e+00	0	23	0	556793856	62	4429
2026-01-11 15:11:03.21	267.34	8.64	-50.3	-52.1	13.6	0.00e+00	0	23	0	573571072	65	4799
2026-01-11 15:11:06.24	267.82	8.74	-51.0	-53.2	13.0	0.00e+00	0	23	0	590348288	67	4838
2026-01-11 15:11:09.26	268.30	8.84	-52.4	-55.2	11.5	4.34e-05	0	23	0	607125504	69	5444
2026-01-11 15:11:12.28	268.78	8.93	-54.3	-58.8	8.5	2.83e-02	0	23	0	623902720	73	6557
2026-01-11 15:11:15.31	269.27	9.03	-53.3	-56.4	11.1	8.47e-04	0	23	0	641728512	73	4974
2026-01-11 15:11:18.34	269.76	9.12	-52.5	-55.0	12.3	9.10e-06	0	23	0	658505728	71	4715
2026-01-11 15:11:21.37	270.25	9.21	-50.7	-52.6	13.8	0.00e+00	0	23	0	675282944	68	4271
2026-01-11 15:11:24.38	270.75	9.30	-49.1	-50.6	14.6	0.00e+00	0	23	0	692060160	64	4259
2026-01-11 15:11:27.41	271.25	9.39	-48.4	-49.8	15.0	0.00e+00	0	23	0	709885952	63	4118
2026-01-11 15:11:30.44	271.75	9.47	-47.5	-48.8	15.3	0.00e+00	0	23	0	726663168	61	4126
2026-01-11 15:11:33.46	272.25	9.56	-47.5	-48.8	15.3	0.00e+00	0	23	0	743440384	61	4110
2026-01-11 15:11:36.49	272.76	9.64	-47.7	-48.9	15.2	0.00e+00	0	23	0	760217600	61	4191
2026-01-11 15:11:39.51	273.27	9.72	-47.6	-48.9	15.2	0.00e+00	0	23	0	778043392	61	4148
2026-01-11 15:11:42.54	273.78	9.80	-47.6	-48.9	15.2	0.00e+00	0	23	0	794820608	61	4184
2026-01-11 15:11:45.57	274.30	9.88	-47.5	-48.8	15.3	0.00e+00	0	23	0	811597824	61	4132
2026-01-11 15:11:48.59	274.82	9.96	-47.6	-48.9	15.2	0.00e+00	0	23	0	828375040	61	4180
2026-01-11 15:11:51.61	275.34	10.03	-47.6	-48.9	15.2	0.00e+00	0	23	0	846200832	61	4187
2026-01-11 15:11:54.64	275.86	10.10	-47.4	-48.7	15.3	0.00e+00	0	23	0	862978048	61	4069
2026-01-11 15:11:57.66	276.38	10.17	-47.6	-48.8	15.3	0.00e+00	0	23	0	879755264	61	4140
2026-01-11 15:12:00.69	276.91	10.24	-47.7	-49.0	15.2	0.00e+00	0	23	0	896532480	61	4223
2026-01-11 15:12:03.71	277.44	10.31	-47.8	-49.1	15.1	0.00e+00	0	23	0	913309696	61	4286
2026-01-11 15:12:06.74	277.97	10.37	-47.6	-48.9	15.3	0.00e+00	0	23	0	931135488	61	4154
2026-01-11 15:12:09.76	278.51	10.44	-47.5	-48.7	15.3	0.00e+00	0	23	0	947912704	61	4085
2026-01-11 15:12:12.79	279.05	10.50	-47.4	-48.6	15.4	0.00e+00	0	23	0	964689920	61	4043
2026-01-11 15:12:15.81	279.58	10.55	-47.3	-48.5	15.4	0.00e+00	0	23	0	981467136	61	3981
2026-01-11 15:12:18.84	280.13	10.61	-47.4	-48.6	15.4	0.00e+00	0	23	0	998244352	61	4037
2026-01-11 15:12:21.86	280.67	10.67	-47.2	-48.4	15.5	0.00e+00	0	23	0	1016070144	61	3946
2026-01-11 15:12:24.89	281.21	10.72	-47.0	-48.1	15.4	0.00e+00	0	23	0	1032847360	60	4050
2026-01-11 15:12:27.91	281.76	10.77	-47.0	-48.2	15.4	0.00e+00	0	23	0	1049624576	60	4077
2026-01-11 15:12:30.93	282.31	10.82	-47.2	-48.4	15.3	0.00e+00	0	23	0	1066401792	60	4173
2026-01-11 15:12:33.96	282.86	10.86	-47.4	-48.7	15.2	0.00e+00	0	23	0	1084227584	60	4295
2026-01-11 15:12:36.98	283.41	10.90	-47.5	-48.7	15.2	0.00e+00	0	23	0	1101004800	60	4340
2026-01-11 15:12:40.01	283.96	10.95	-47.4	-48.6	15.2	0.00e+00	0	23	0	1117782016	60	4287
2026-01-11 15:12:43.04	284.52	10.98	-47.5	-48.7	15.2	0.00e+00	0	23	0	1134559232	60	4316
2026-01-11 15:12:46.06	285.07	11.02	-47.5	-48.8	15.2	0.00e+00	0	23	0	1152385024	60	4353
2026-01-11 15:12:49.08	285.63	11.05	-47.6	-48.8	15.1	0.00e+00	0	23	0	1169162240	60	4376
2026-01-11 15:12:52.11	286.19	11.09	-47.7	-49.0	15.1	0.00e+00	0	23	0	1185939456	60	4457
2026-01-11 15:12:55.13	286.75	11.11	-47.6	-48.8	15.2	0.00e+00	0	23	0	1202716672	60	4370
2026-01-11 15:12:58.16	287.31	11.14	-47.5	-48.7	15.2	0.00e+00	0	23	0	1220542464	60	4338
2026-01-11 15:13:01.18	287.87	11.17	-47.6	-48.9	15.2	0.00e+00	0	23	0	1237319680	60	4393
2026-01-11 15:13:04.21	288.43	11.19	-47.5	-48.7	15.2	0.00e+00	0	23	0	1254096896	60	4323
2026-01-11 15:13:07.23	288.99	11.21	-47.5	-48.7	15.2	0.00e+00	0	23	0	1270874112	60	4337
2026-01-11 15:13:10.25	289.56	11.23	-47.5	-48.7	15.2	0.00e+00	0	23	0	1287651328	60	4303
2026-01-11 15:13:13.27	290.12	11.24	-47.7	-49.0	15.1	0.00e+00	0	23	0	1305477120	60	4445
2026-01-11 15:13:16.30	290.68	11.25	-47.7	-48.9	15.1	0.00e+00	0	23	0	1322254336	60	4438
2026-01-11 15:13:19.33	291.25	11.26	-47.5	-48.7	15.2	0.00e+00	0	23	0	1339031552	60	4317
2026-01-11 15:13:22.35	291.82	11.27	-47.6	-48.8	15.2	0.00e+00	0	23	0	1355808768	60	4358
2026-01-11 15:13:25.38	292.38	11.27	-47.7	-48.9	15.1	0.00e+00	0	23	0	1372585984	60	4423
2026-01-11 15:13:28.41	292.95	11.28	-47.5	-48.8	15.2	0.00e+00	0	23	0	1390411776	60	4354
2026-01-11 15:13:31.43	293.51	11.28	-47.5	-48.8	15.2	0.00e+00	0	23	0	1407188992	60	4366
2026-01-11 15:13:34.46	294.08	11.27	-47.5	-48.8	15.2	0.00e+00	0	23	0	1423966208	60	4349
2026-01-11 15:13:37.48	294.64	11.27	-47.6	-48.9	15.1	0.00e+00	0	23	0	1440743424	60	4407
2026-01-11 15:13:40.50	295.21	11.26	-47.7	-48.9	15.1	0.00e+00	0	23	0	1458569216	60	4436
2026-01-11 15:13:43.53	295.77	11.25	-47.6	-48.8	15.2	0.00e+00	0	23	0	1475346432	60	4390
2026-01-11 15:13:46.56	296.34	11.24	-47.6	-48.8	15.1	0.00e+00	0	23	0	1492123648	60	4391
2026-01-11 15:13:49.58	296.90	11.22	-47.5	-48.8	15.2	0.00e+00	0	23	0	1508900864	60	4351
2026-01-11 15:13:52.60	297.46	11.21	-47.6	-48.9	15.1	0.00e+00	0	23	0	1526726656	60	4412
2026-01-11 15:13:55.62	298.03	11.19	-47.6	-48.8	15.2	0.00e+00	0	23	0	1543503872	60	4380
2026-01-11 15:13:58.65	298.59	11.16	-47.5	-48.8	15.2	0.00e+00	0	23	0	1560281088	60	4357
2026-01-11 15:14:01.68	299.15	11.14	-47.7	-49.0	15.1	0.00e+00	0	23	0	1577058304	60	4477
2026-01-11 15:14:04.71	299.71	11.11	-47.9	-49.2	15.1	0.00e+00	0	23	0	1594884096	61	4310
2026-01-11 15:14:07.74	300.27	11.08	-47.8	-49.1	15.1	0.00e+00	0	23	0	1611661312	61	4281
2026-01-11 15:14:10.76	300.83	11.05	-47.8	-49.0	15.2	0.00e+00	0	23	0	1628438528	61	4239
2026-01-11 15:14:13.78	301.38	11.02	-47.6	-48.8	15.3	0.00e+00	0	23	0	1645215744	61	4138
2026-01-11 15:14:16.81	301.94	10.98	-47.6	-48.8	15.3	0.00e+00	0	23	0	1661992960	61	4124
2026-01-11 15:14:19.84	302.49	10.94	-47.5	-48.7	15.3	0.00e+00	0	23	0	1679818752	61	4088
2026-01-11 15:14:22.87	303.05	10.90	-47.4	-48.6	15.4	0.00e+00	0	23	0	1696595968	61	4041
2026-01-11 15:14:25.89	303.60	10.86	-47.7	-49.0	15.2	0.00e+00	0	23	0	1713373184	61	4222
2026-01-11 15:14:28.92	304.15	10.81	-47.7	-49.0	15.2	0.00e+00	0	23	0	1730150400	61	4228
2026-01-11 15:14:31.95	304.70	10.77	-47.6	-48.9	15.2	0.00e+00	0	23	0	1746927616	61	4165
2026-01-11 15:14:34.97	305.24	10.72	-47.5	-48.8	15.3	0.00e+00	0	23	0	1764753408	61	4106
2026-01-11 15:14:38.00	305.78	10.66	-47.7	-48.9	15.2	0.00e+00	0	23	0	1781530624	61	4186
2026-01-11 15:14:41.02	306.33	10.61	-47.6	-48.8	15.3	0.00e+00	0	23	0	1798307840	61	4125
2026-01-11 15:14:44.05	306.87	10.55	-47.7	-49.0	15.2	0.00e+00	0	23	0	1816133632	61	4195
2026-01-11 15:14:47.08	307.40	10.49	-47.9	-49.2	15.1	0.00e+00	0	23	0	1832910848	61	4295
2026-01-11 15:14:50.10	307.94	10.43	-47.7	-48.9	15.2	0.00e+00	0	23	0	1849688064	61	4191
2026-01-11 15:14:53.13	308.47	10.37	-47.7	-49.0	15.2	0.00e+00	0	23	0	1866465280	61	4200
2026-01-11 15:14:56.15	309.00	10.31	-47.7	-48.9	15.2	0.00e+00	0	23	0	1883242496	61	4191
2026-01-11 15:14:59.18	309.53	10.24	-47.5	-48.8	15.3	0.00e+00	0	23	0	1901068288	61	4119
2026-01-11 15:15:02.21	310.06	10.17	-47.7	-48.9	15.2	0.00e+00	0	23	0	1917845504	61	4180
2026-01-11 15:15:05.24	310.58	10.10	-47.7	-49.0	15.2	0.00e+00	0	23	0	1934622720	61	4212
2026-01-11 15:15:08.26	311.11	10.03	-47.6	-48.9	15.2	0.00e+00	0	23	0	1951399936	61	4174
2026-01-11 15:15:11.27	311.62	9.95	-47.7	-49.0	15.1	0.00e+00	0	23	0	1969225728	61	4235
2026-01-11 15:15:14.30	312.14	9.88	-47.7	-49.0	15.2	0.00e+00	0	23	0	1986002944	61	4218
2026-01-11 15:15:17.32	312.65	9.80	-47.9	-49.1	15.1	0.00e+00	0	23	0	2002780160	61	4286
2026-01-11 15:15:20.34	313.16	9.72	-48.0	-49.4	15.0	0.00e+00	0	23	0	2019557376	61	4404
2026-01-11 15:15:23.37	313.67	9.64	-47.9	-49.2	15.0	0.00e+00	0	23	0	2036334592	61	4325
2026-01-11 15:15:26.40	314.18	9.56	-48.0	-49.3	15.0	0.00e+00	0	23	0	2054160384	61	4382
2026-01-11 15:15:29.42	314.68	9.47	-47.9	-49.2	15.0	0.00e+00	0	23	0	2070937600	61	4330
2026-01-11 15:15:32.45	315.18	9.39	-48.0	-49.3	15.0	0.00e+00	0	23	0	2087714816	61	4372
2026-01-11 15:15:35.47	315.68	9.30	-47.9	-49.2	15.0	0.00e+00	0	23	0	2104492032	61	4296
2026-01-11 15:15:38.50	316.17	9.21	-47.9	-49.2	15.0	0.00e+00	0	23	0	2121269248	61	4339
2026-01-11 15:15:41.53	316.66	9.12	-47.9	-49.3	15.0	0.00e+00	0	23	0	2139095040	61	4345
2026-01-11 15:15:44.55	317.15	9.03	-48.0	-49.3	15.0	0.00e+00	0	23	0	2155872256	61	4376
2026-01-11 15:15:47.58	317.64	8.93	-47.9	-49.2	15.0	0.00e+00	0	23	0	2172649472	61	4320
2026-01-11 15:15:50.61	318.12	8.84	-48.0	-49.4	15.0	0.00e+00	0	23	0	2190475264	61	4392
2026-01-11 15:15:53.63	318.60	8.74	-48.2	-49.5	14.9	0.00e+00	0	23	0	2207252480	61	4479
2026-01-11 15:15:56.66	319.07	8.65	-48.0	-49.3	15.0	0.00e+00	0	23	0	2224029696	61	4379
2026-01-11 15:15:59.69	319.55	8.55	-48.0	-49.3	15.0	0.00e+00	0	23	0	2240806912	61	4359
2026-01-11 15:16:02.72	320.02	8.45	-48.0	-49.3	14.9	0.00e+00	0	23	0	2258632704	61	4391
2026-01-11 15:16:05.74	320.48	8.35	-48.0	-49.4	14.9	0.00e+00	0	23	0	2275409920	61	4416
2026-01-11 15:16:08.77	320.95	8.24	-48.1	-49.5	14.9	0.00e+00	0	23	0	2292187136	61	4470
2026-01-11 15:16:11.79	321.41	8.14	-48.2	-49.6	14.8	0.00e+00	0	23	0	2308964352	61	4536
2026-01-11 15:16:14.82	321.87	8.03	-48.2	-49.5	14.8	0.00e+00	0	23	0	2325741568	61	4489
2026-01-11 15:16:17.85	322.32	7.93	-48.3	-49.7	14.7	0.00e+00	0	23	0	2343567360	61	4565
2026-01-11 15:16:20.88	322.77	7.82	-48.2	-49.6	14.8	0.00e+00	0	23	0	2360344576	61	4501
2026-01-11 15:16:23.91	323.22	7.71	-48.2	-49.6	14.8	0.00e+00	0	23	0	2377121792	61	4502
2026-01-11 15:16:26.94	323.67	7.60	-48.2	-49.5	14.8	0.00e+00	0	23	0	2393899008	61	4479
2026-01-11 15:16:29.96	324.11	7.49	-48.2	-49.5	14.8	0.00e+00	0	23	0	2411724800	61	4486
2026-01-11 15:16:32.99	324.54	7.38	-48.3	-49.6	14.7	0.00e+00	0	23	0	2428502016	61	4542
2026-01-11 15:16:36.02	324.98	7.27	-48.3	-49.7	14.7	0.00e+00	0	23	0	2445279232	61	4572
2026-01-11 15:16:39.05	325.41	7.16	-48.5	-49.9	14.8	0.00e+00	0	23	0	2462056448	62	4410
2026-01-11 15:16:42.07	325.84	7.05	-48.6	-50.0	14.7	0.00e+00	0	23	0	2479882240	62	4481
2026-01-11 15:16:45.10	326.27	6.93	-48.7	-50.1	14.6	0.00e+00	0	23	0	2496659456	62	4520
2026-01-11 15:16:48.12	326.69	6.82	-48.4	-49.8	14.8	0.00e+00	0	23	0	2513436672	62	4360
2026-01-11 15:16:51.15	327.11	6.70	-48.6	-50.1	14.6	0.00e+00	0	23	0	2530213888	62	4497
2026-01-11 15:16:54.18	327.52	6.58	-48.8	-50.2	14.6	0.00e+00	0	23	0	2548039680	62	4573
2026-01-11 15:16:57.19	327.93	6.47	-49.1	-50.6	14.5	0.00e+00	0	23	0	2564816896	63	4535
2026-01-11 15:17:00.22	328.34	6.35	-48.8	-50.3	14.7	0.00e+00	0	23	0	2581594112	63	4375
2026-01-11 15:17:03.25	328.75	6.23	-48.8	-50.3	14.7	0.00e+00	0	23	0	2598371328	63	4360
2026-01-11 15:17:06.27	329.15	6.11	-48.7	-50.1	14.8	0.00e+00	0	23	0	2615148544	63	4284
2026-01-11 15:17:09.30	329.55	5.99	-48.8	-50.3	14.7	0.00e+00	0	23	0	2632974336	63	4353
2026-01-11 15:17:12.32	329.95	5.87	-48.7	-50.1	14.7	0.00e+00	0	23	0	2649751552	63	4278
2026-01-11 15:17:15.35	330.34	5.75	-48.9	-50.4	14.5	0.00e+00	0	23	0	2666528768	63	4415
2026-01-11 15:17:18.38	330.73	5.63	-48.9	-50.4	14.6	0.00e+00	0	23	0	2683305984	63	4433
2026-01-11 15:17:21.41	331.12	5.51	-49.2	-50.7	14.4	0.00e+00	0	23	0	2701131776	63	4580
2026-01-11 15:17:24.43	331.50	5.38	-48.9	-50.4	14.5	0.00e+00	0	23	0	2717908992	63	4439
2026-01-11 15:17:27.45	331.88	5.26	-49.0	-50.5	14.5	0.00e+00	0	23	0	2734686208	63	4473
2026-01-11 15:17:30.48	332.26	5.14	-48.8	-50.2	14.6	0.00e+00	0	23	0	2751463424	63	4333
2026-01-11 15:17:33.51	332.64	5.01	-51.1	-53.1	13.3	0.00e+00	0	23	0	2769289216	67	4785
2026-01-11 15:17:36.54	333.01	4.89	-58.7	-71.7	3.8	8.45e-01	0	23	104	2771386368	82	17159
2026-01-11 15:17:39.56	333.38	4.76	-59.2	-72.2	3.8	8.46e-01	0	23	104	2771386368	83	17144
2026-01-11 15:17:42.59	333.74	4.64	-59.4	-72.5	3.8	8.46e-01	0	23	104	2771386368	83	17691
2026-01-11 15:17:45.62	334.11	4.51	-59.7	-72.8	3.8	8.45e-01	0	23	104	2771386368	84	17328
2026-01-11 15:17:48.64	334.46	4.39	-59.8	-72.8	3.8	8.45e-01	0	23	104	2771386368	84	17456
2026-01-11 15:17:51.67	334.82	4.26	-59.8	-72.9	3.8	8.46e-01	0	23	104	2771386368	84	17563
2026-01-11 15:17:54.69	335.17	4.14	-59.9	-72.9	3.8	8.44e-01	0	23	104	2771386368	84	17664
2026-01-11 15:17:57.72	335.53	4.01	-59.8	-72.8	3.8	8.47e-01	0	23	104	2771386368	84	17430
2026-01-11 15:18:00.74	335.87	3.88	-59.7	-72.8	3.8	8.45e-01	0	23	104	2771386368	84	17383
2026-01-11 15:18:03.77	336.22	3.76	-59.7	-72.7	3.8	8.46e-01	0	23	104	2771386368	84	17270
2026-01-11 15:18:06.80	336.56	3.63	-59.7	-72.7	3.8	8.46e-01	0	23	104	2771386368	84	17258
2026-01-11 15:18:09.83	336.90	3.50	-59.7	-72.7	3.8	8.46e-01	0	23	104	2771386368	84	17202
2026-01-11 15:18:12.85	337.24	3.37	-59.7	-72.7	3.8	8.46e-01	0	23	104	2771386368	84	17193
2026-01-11 15:18:15.88	337.57	3.25	-59.6	-72.7	3.8	8.47e-01	0	23	104	2771386368	84	17095
2026-01-11 15:18:18.91	337.90	3.12	-59.6	-72.7	3.8	8.45e-01	0	23	104	2771386368	84	17112
2026-01-11 15:18:21.93	338.23	2.99	-59.6	-72.7	3.8	8.46e-01	0	23	104	2771386368	84	17108
2026-01-11 15:18:24.96	338.56	2.86	-59.6	-72.6	3.8	8.46e-01	0	23	104	2771386368	84	17075
2026-01-11 15:18:27.99	338.88	2.73	-59.6	-72.6	3.8	8.45e-01	0	23	104	2771386368	84	17065
2026-01-11 15:18:31.01	339.20	2.60	-59.6	-72.6	3.8	8.45e-01	0	24	104	2771386368	84	17009
2026-01-11 15:18:34.04	339.52	2.48	-59.5	-72.6	3.8	8.46e-01	0	23	104	2771386368	84	16997
2026-01-11 15:18:37.06	339.83	2.35	-59.5	-72.6	3.8	8.47e-01	0	23	104	2771386368	84	16943
2026-01-11 15:18:40.09	340.15	2.22	-59.5	-72.6	3.8	8.46e-01	0	23	104	2771386368	84	16907
2026-01-11 15:18:43.11	340.46	2.09	-59.5	-72.5	3.8	8.46e-01	0	23	104	2771386368	84	16859

#Closed at: 2026-01-11 15:18:45
#Recorded file [2771 MB]: D:/lorett/data/31004_260111_180816.dat