passes_logs/2026/01/11/R3.2S_Murmansk/R3.2S_Murmansk__20260111_065454_NOAA_21_JPSS-2_rec.log

#Pass ID: 20260111_065454_NOAA 21 (JPSS-2)
#Satellite: NOAA 21 (JPSS-2)
#Configuration: NOAA-21
#almurnet v.1.7.20251203
#Start time: 2026-01-11 06:54:55

#Version: 2.2.20231116
#Station: R3.2S_Murmansk
#Location: 33.079688 lon 68.888172 lat
#TLE: 1 54234U 22150A   26009.79679979  .00000100  00000+0  68070-4 0  9993
#TLE: 2 54234  98.7494 310.7596 0000833 322.2782  37.8335 14.19533646164071

#Time	Az	El	Level	Level2	SNR	BER	BlckErr	Temp	State	Recorded	gain1	gain2
2026-01-11 06:54:55.03	93.26	2.03	-57.1	-70.8	3.8	1.49e+00	0	21	0	0	80	17390
2026-01-11 06:54:59.04	93.05	2.26	-57.1	-70.8	3.8	1.49e+00	0	21	104	0	79	18313
2026-01-11 06:55:03.05	92.83	2.51	-57.1	-70.8	3.8	1.49e+00	0	21	104	0	79	18365
2026-01-11 06:55:07.08	92.61	2.75	-57.1	-70.8	3.8	1.49e+00	0	21	104	0	79	18416
2026-01-11 06:55:11.07	92.39	2.99	-57.1	-70.8	3.8	1.49e+00	0	22	104	0	79	18391
2026-01-11 06:55:15.08	92.17	3.24	-57.1	-70.8	3.8	1.49e+00	0	22	104	0	79	18381
2026-01-11 06:55:19.08	91.94	3.48	-57.1	-70.8	3.8	1.49e+00	0	22	104	0	79	18425
2026-01-11 06:55:23.09	91.71	3.73	-57.1	-70.6	3.8	1.49e+00	0	22	104	0	79	17973
2026-01-11 06:55:27.11	91.47	3.98	-57.1	-70.8	3.8	1.49e+00	0	22	104	0	79	18464
2026-01-11 06:55:31.12	91.23	4.24	-57.0	-69.4	3.8	1.49e+00	0	22	104	0	79	15713
2026-01-11 06:55:35.14	90.98	4.49	-56.6	-65.2	4.9	1.02e+00	0	22	104	0	79	9693
2026-01-11 06:55:39.14	90.73	4.75	-56.0	-62.5	6.8	1.45e-01	0	22	0	11534336	78	7481
2026-01-11 06:55:43.14	90.48	5.01	-55.4	-60.3	8.7	1.84e-02	0	22	0	24117248	77	6195
2026-01-11 06:55:47.14	90.22	5.27	-56.7	-66.9	4.0	1.19e+00	0	22	104	35651584	78	12511
2026-01-11 06:55:51.13	89.96	5.53	-51.9	-54.1	13.4	0.00e+00	0	22	0	47185920	70	4511
2026-01-11 06:55:55.13	89.69	5.79	-51.0	-52.8	14.0	0.00e+00	0	22	0	58720256	68	4373
2026-01-11 06:55:59.11	89.42	6.06	-50.9	-52.8	14.1	0.00e+00	0	22	0	71303168	68	4345
2026-01-11 06:56:03.09	89.14	6.32	-50.2	-51.9	14.4	0.00e+00	0	22	0	83886080	67	4165
2026-01-11 06:56:07.07	88.85	6.59	-50.1	-51.8	14.4	0.00e+00	0	23	0	96468992	66	4343
2026-01-11 06:56:11.05	88.57	6.86	-50.2	-51.9	14.3	0.00e+00	0	22	0	109051904	66	4427
2026-01-11 06:56:15.03	88.27	7.13	-50.2	-51.8	14.3	0.00e+00	0	22	0	121634816	66	4380
2026-01-11 06:56:19.03	87.97	7.41	-50.2	-51.8	14.3	0.00e+00	0	22	0	134217728	66	4372
2026-01-11 06:56:23.03	87.66	7.69	-49.6	-51.2	14.6	0.00e+00	0	22	0	146800640	65	4308
2026-01-11 06:56:27.02	87.35	7.97	-49.8	-51.4	14.5	0.00e+00	0	23	0	158334976	65	4400
2026-01-11 06:56:31.00	87.03	8.25	-49.5	-51.0	14.7	0.00e+00	0	23	0	170917888	65	4207
2026-01-11 06:56:35.00	86.70	8.54	-49.6	-51.2	14.6	0.00e+00	0	23	0	183500800	65	4310
2026-01-11 06:56:39.00	86.37	8.83	-49.5	-51.1	14.7	0.00e+00	0	23	0	196083712	65	4245
2026-01-11 06:56:43.00	86.03	9.12	-49.5	-51.0	14.7	0.00e+00	0	23	0	208666624	65	4231
2026-01-11 06:56:47.02	85.68	9.41	-49.5	-51.0	14.7	0.00e+00	0	23	0	221249536	65	4198
2026-01-11 06:56:51.03	85.32	9.71	-49.2	-50.6	14.9	0.00e+00	0	23	0	233832448	65	4047
2026-01-11 06:56:55.03	84.96	10.00	-49.2	-50.7	14.9	0.00e+00	0	23	0	246415360	65	4064
2026-01-11 06:56:59.04	84.59	10.30	-49.1	-50.5	14.8	0.00e+00	0	23	0	258998272	64	4219
2026-01-11 06:57:03.03	84.21	10.61	-49.1	-50.6	14.8	0.00e+00	0	23	0	271581184	64	4243
2026-01-11 06:57:07.03	83.82	10.91	-49.0	-50.4	14.9	0.00e+00	0	23	0	284164096	64	4191
2026-01-11 06:57:11.01	83.43	11.22	-49.0	-50.4	14.9	0.00e+00	0	23	0	295698432	64	4187
2026-01-11 06:57:15.01	83.03	11.53	-48.7	-50.1	15.1	0.00e+00	0	23	0	308281344	64	4032
2026-01-11 06:57:18.99	82.61	11.84	-48.6	-50.0	15.0	0.00e+00	0	23	0	320864256	63	4213
2026-01-11 06:57:22.99	82.19	12.15	-48.7	-50.0	15.0	0.00e+00	0	23	0	333447168	63	4225
2026-01-11 06:57:26.98	81.76	12.47	-48.6	-50.0	15.0	0.00e+00	0	23	0	346030080	63	4197
2026-01-11 06:57:30.99	81.32	12.79	-48.3	-49.6	15.2	0.00e+00	0	23	0	358612992	63	4047
2026-01-11 06:57:35.00	80.87	13.11	-48.3	-49.6	15.2	0.00e+00	0	23	0	371195904	63	4046
2026-01-11 06:57:39.00	80.41	13.44	-48.3	-49.5	15.2	0.00e+00	0	23	0	383778816	63	4002
2026-01-11 06:57:42.97	79.94	13.76	-48.3	-49.6	15.2	0.00e+00	0	23	0	396361728	63	4043
2026-01-11 06:57:46.97	79.46	14.09	-48.1	-49.4	15.1	0.00e+00	0	23	0	408944640	62	4170
2026-01-11 06:57:50.96	78.97	14.42	-48.1	-49.4	15.1	0.00e+00	0	23	0	421527552	62	4164
2026-01-11 06:57:54.96	78.46	14.75	-48.1	-49.4	15.1	0.00e+00	0	23	0	433061888	62	4174
2026-01-11 06:57:58.94	77.95	15.09	-48.4	-49.7	15.0	0.00e+00	0	23	0	445644800	62	4313
2026-01-11 06:58:02.92	77.42	15.43	-48.5	-49.9	14.9	0.00e+00	0	23	0	458227712	62	4401
2026-01-11 06:58:06.89	76.89	15.76	-48.3	-49.6	15.0	0.00e+00	0	23	0	470810624	62	4252
2026-01-11 06:58:10.88	76.34	16.11	-48.4	-49.7	15.0	0.00e+00	0	23	0	483393536	62	4319
2026-01-11 06:58:14.90	75.77	16.45	-48.4	-49.7	15.0	0.00e+00	0	23	0	495976448	62	4319
2026-01-11 06:58:18.89	75.19	16.80	-48.4	-49.7	15.0	0.00e+00	0	23	0	508559360	62	4328
2026-01-11 06:58:22.90	74.59	17.15	-48.3	-49.6	15.1	0.00e+00	0	23	0	521142272	62	4247
2026-01-11 06:58:26.91	73.98	17.50	-48.3	-49.6	15.0	0.00e+00	0	23	0	533725184	62	4280
2026-01-11 06:58:30.92	73.36	17.85	-48.3	-49.6	15.0	0.00e+00	0	23	0	546308096	62	4273
2026-01-11 06:58:34.94	72.72	18.21	-48.2	-49.4	15.1	0.00e+00	0	23	0	558891008	62	4177
2026-01-11 06:58:38.96	72.06	18.56	-48.2	-49.5	15.1	0.00e+00	0	23	0	571473920	62	4213
2026-01-11 06:58:42.97	71.39	18.92	-48.1	-49.4	15.2	0.00e+00	0	23	0	584056832	62	4157
2026-01-11 06:58:46.99	70.71	19.28	-48.1	-49.4	15.2	0.00e+00	0	23	0	596639744	62	4157
2026-01-11 06:58:50.99	70.00	19.64	-48.1	-49.3	15.2	0.00e+00	0	23	0	609222656	62	4144
2026-01-11 06:58:54.98	69.29	19.99	-48.0	-49.3	15.2	0.00e+00	0	23	0	620756992	62	4104
2026-01-11 06:58:58.99	68.55	20.35	-47.7	-48.9	15.2	0.00e+00	0	23	0	633339904	61	4191
2026-01-11 06:59:02.99	67.80	20.71	-47.9	-49.2	15.1	0.00e+00	0	23	0	645922816	61	4306
2026-01-11 06:59:06.99	67.03	21.07	-47.8	-49.1	15.2	0.00e+00	0	23	0	658505728	61	4244
2026-01-11 06:59:10.99	66.24	21.43	-47.7	-48.9	15.2	0.00e+00	0	23	0	671088640	61	4174
2026-01-11 06:59:14.98	65.44	21.78	-47.6	-48.8	15.3	0.00e+00	0	23	0	683671552	61	4104
2026-01-11 06:59:18.97	64.61	22.14	-47.5	-48.7	15.3	0.00e+00	0	23	0	696254464	61	4086
2026-01-11 06:59:22.96	63.77	22.49	-47.5	-48.7	15.4	0.00e+00	0	23	0	708837376	61	4066
2026-01-11 06:59:26.97	62.90	22.84	-47.3	-48.5	15.4	0.00e+00	0	23	0	721420288	61	3978
2026-01-11 06:59:30.97	62.02	23.19	-47.3	-48.5	15.4	0.00e+00	0	23	0	734003200	61	3967
2026-01-11 06:59:34.95	61.12	23.53	-47.1	-48.3	15.3	0.00e+00	0	23	0	745537536	60	4115
2026-01-11 06:59:38.97	60.19	23.88	-47.3	-48.5	15.3	0.00e+00	0	23	0	758120448	60	4230
2026-01-11 06:59:42.97	59.24	24.22	-47.4	-48.6	15.2	0.00e+00	0	23	0	770703360	60	4283
2026-01-11 06:59:46.99	58.27	24.55	-47.8	-49.1	15.1	0.00e+00	0	23	0	783286272	60	4496
2026-01-11 06:59:51.00	57.28	24.88	-47.8	-49.1	15.2	0.00e+00	0	23	0	795869184	61	4251
2026-01-11 06:59:55.00	56.28	25.21	-48.0	-49.3	15.1	0.00e+00	0	23	0	808452096	61	4345
2026-01-11 06:59:59.02	55.24	25.52	-47.8	-49.1	15.2	0.00e+00	0	23	0	821035008	61	4246
2026-01-11 07:00:03.05	54.19	25.84	-47.8	-49.0	15.2	0.00e+00	0	23	0	833617920	61	4217
2026-01-11 07:00:07.05	53.12	26.14	-47.8	-49.0	15.2	0.00e+00	0	23	0	846200832	61	4202
2026-01-11 07:00:11.05	52.02	26.44	-48.1	-49.3	15.1	0.00e+00	0	23	0	858783744	61	4389
2026-01-11 07:00:15.02	50.92	26.72	-48.1	-49.3	15.1	0.00e+00	0	23	0	871366656	61	4368
2026-01-11 07:00:19.01	49.79	27.00	-48.0	-49.2	15.2	0.00e+00	0	23	0	883949568	61	4313
2026-01-11 07:00:23.00	48.65	27.27	-47.6	-48.8	15.3	0.00e+00	0	23	0	896532480	61	4136
2026-01-11 07:00:27.01	47.47	27.53	-47.8	-49.0	15.2	0.00e+00	0	23	0	909115392	61	4240
2026-01-11 07:00:31.02	46.28	27.77	-47.6	-48.8	15.3	0.00e+00	0	23	0	921698304	61	4108
2026-01-11 07:00:35.01	45.08	28.01	-47.9	-49.1	15.2	0.00e+00	0	23	0	933232640	61	4253
2026-01-11 07:00:39.00	43.86	28.23	-47.8	-49.0	15.2	0.00e+00	0	23	0	945815552	61	4228
2026-01-11 07:00:42.99	42.62	28.44	-47.7	-48.9	15.3	0.00e+00	0	23	0	958398464	61	4177
2026-01-11 07:00:46.98	41.37	28.63	-48.0	-49.3	15.1	0.00e+00	0	23	0	970981376	61	4345
2026-01-11 07:00:50.98	40.10	28.81	-48.2	-49.5	15.1	0.00e+00	0	23	0	983564288	61	4442
2026-01-11 07:00:54.99	38.81	28.98	-48.1	-49.4	15.1	0.00e+00	0	23	0	996147200	61	4407
2026-01-11 07:00:59.01	37.50	29.13	-48.1	-49.3	15.1	0.00e+00	0	23	0	1008730112	61	4383
2026-01-11 07:01:03.02	36.19	29.27	-48.1	-49.3	15.1	0.00e+00	0	23	0	1021313024	61	4373
2026-01-11 07:01:07.01	34.88	29.39	-48.3	-49.6	15.0	0.00e+00	0	23	0	1033895936	61	4533
2026-01-11 07:01:11.00	33.55	29.49	-48.0	-49.2	15.3	0.00e+00	0	23	0	1046478848	62	4095
2026-01-11 07:01:14.98	32.22	29.57	-48.4	-49.7	15.1	0.00e+00	0	23	0	1059061760	62	4297
2026-01-11 07:01:18.98	30.88	29.64	-48.0	-49.2	15.3	0.00e+00	0	23	0	1071644672	62	4075
2026-01-11 07:01:22.97	29.53	29.69	-47.8	-49.1	15.4	0.00e+00	0	23	0	1083179008	62	4005
2026-01-11 07:01:26.97	28.18	29.72	-48.0	-49.2	15.3	0.00e+00	0	23	0	1095761920	62	4088
2026-01-11 07:01:30.97	26.83	29.73	-47.9	-49.1	15.3	0.00e+00	0	23	0	1108344832	62	4029
2026-01-11 07:01:34.97	25.48	29.73	-48.0	-49.2	15.3	0.00e+00	0	23	0	1120927744	62	4060
2026-01-11 07:01:38.95	24.13	29.71	-48.1	-49.3	15.3	0.00e+00	0	23	0	1133510656	62	4120
2026-01-11 07:01:42.96	22.78	29.67	-48.7	-50.0	15.0	0.00e+00	0	23	0	1146093568	62	4454
2026-01-11 07:01:46.95	21.44	29.61	-48.2	-49.4	15.2	0.00e+00	0	23	0	1158676480	62	4162
2026-01-11 07:01:50.95	20.10	29.54	-48.1	-49.3	15.2	0.00e+00	0	23	0	1171259392	62	4135
2026-01-11 07:01:54.95	18.76	29.45	-47.9	-49.1	15.3	0.00e+00	0	23	0	1183842304	62	4015
2026-01-11 07:01:58.96	17.44	29.34	-48.1	-49.4	15.2	0.00e+00	0	23	0	1196425216	62	4164
2026-01-11 07:02:02.96	16.12	29.21	-48.2	-49.4	15.2	0.00e+00	0	23	0	1209008128	62	4191
2026-01-11 07:02:06.96	14.82	29.07	-48.0	-49.2	15.3	0.00e+00	0	23	0	1220542464	62	4072
2026-01-11 07:02:10.95	13.53	28.91	-48.1	-49.3	15.2	0.00e+00	0	23	0	1233125376	62	4126
2026-01-11 07:02:14.95	12.25	28.74	-48.3	-49.6	15.1	0.00e+00	0	23	0	1245708288	62	4246
2026-01-11 07:02:18.93	10.99	28.55	-48.0	-49.2	15.3	0.00e+00	0	23	0	1258291200	62	4073
2026-01-11 07:02:22.91	9.75	28.35	-48.0	-49.2	15.3	0.00e+00	0	23	0	1270874112	62	4078
2026-01-11 07:02:26.91	8.52	28.14	-48.1	-49.3	15.2	0.00e+00	0	23	0	1283457024	62	4120
2026-01-11 07:02:30.92	7.30	27.91	-47.9	-49.1	15.4	0.00e+00	0	23	0	1296039936	62	4023
2026-01-11 07:02:34.91	6.11	27.67	-48.0	-49.2	15.3	0.00e+00	0	23	0	1308622848	62	4058
2026-01-11 07:02:38.90	4.93	27.42	-47.8	-49.0	15.4	0.00e+00	0	23	0	1321205760	62	3988
2026-01-11 07:02:42.90	3.77	27.16	-47.7	-48.9	15.3	0.00e+00	0	23	0	1333788672	61	4166
2026-01-11 07:02:46.90	2.63	26.89	-48.6	-49.9	15.0	0.00e+00	0	23	0	1346371584	62	4403
2026-01-11 07:02:50.89	1.51	26.61	-47.9	-49.1	15.3	0.00e+00	0	23	0	1357905920	62	4030
2026-01-11 07:02:54.89	0.41	26.32	-47.6	-48.8	15.3	0.00e+00	0	23	0	1370488832	61	4109
2026-01-11 07:02:58.89	359.33	26.02	-47.5	-48.7	15.4	0.00e+00	0	23	0	1383071744	61	4065
2026-01-11 07:03:02.89	358.27	25.71	-48.3	-49.5	15.0	0.00e+00	0	23	0	1395654656	61	4483
2026-01-11 07:03:06.89	357.23	25.40	-47.8	-49.0	15.2	0.00e+00	0	23	0	1408237568	61	4212
2026-01-11 07:03:10.88	356.22	25.08	-47.3	-48.5	15.4	0.00e+00	0	23	0	1420820480	61	3977
2026-01-11 07:03:14.88	355.22	24.76	-47.8	-49.0	15.2	0.00e+00	0	23	0	1433403392	61	4242
2026-01-11 07:03:18.88	354.24	24.42	-47.6	-48.8	15.3	0.00e+00	0	23	0	1445986304	61	4124
2026-01-11 07:03:22.87	353.29	24.09	-47.8	-49.0	15.2	0.00e+00	0	23	0	1458569216	61	4212
2026-01-11 07:03:26.88	352.35	23.75	-47.5	-48.7	15.4	0.00e+00	0	23	0	1471152128	61	4067
2026-01-11 07:03:30.89	351.43	23.41	-47.7	-48.9	15.3	0.00e+00	0	23	0	1483735040	61	4151
2026-01-11 07:03:34.89	350.54	23.06	-48.2	-49.4	15.0	0.00e+00	0	23	0	1496317952	61	4441
2026-01-11 07:03:38.90	349.66	22.71	-48.1	-49.4	15.1	0.00e+00	0	23	0	1508900864	61	4400
2026-01-11 07:03:42.92	348.80	22.36	-47.6	-48.7	15.3	0.00e+00	0	23	0	1520435200	61	4085
2026-01-11 07:03:46.92	347.97	22.00	-47.7	-48.9	15.2	0.00e+00	0	23	0	1533018112	61	4172
2026-01-11 07:03:50.93	347.15	21.65	-47.9	-49.1	15.2	0.00e+00	0	23	0	1545601024	61	4265
2026-01-11 07:03:54.92	346.35	21.29	-48.0	-49.2	15.1	0.00e+00	0	23	0	1558183936	61	4333
2026-01-11 07:03:58.92	345.58	20.94	-48.0	-49.3	15.1	0.00e+00	0	23	0	1570766848	61	4361
2026-01-11 07:04:02.91	344.82	20.58	-48.0	-49.2	15.1	0.00e+00	0	23	0	1583349760	61	4326
2026-01-11 07:04:06.90	344.07	20.22	-48.2	-49.4	15.0	0.00e+00	0	23	0	1595932672	61	4422
2026-01-11 07:04:10.90	343.35	19.87	-48.0	-49.3	15.1	0.00e+00	0	23	0	1608515584	61	4347
2026-01-11 07:04:14.89	342.64	19.51	-47.9	-49.1	15.2	0.00e+00	0	23	0	1621098496	61	4275
2026-01-11 07:04:18.87	341.95	19.16	-47.7	-48.9	15.3	0.00e+00	0	23	0	1633681408	61	4155
2026-01-11 07:04:22.84	341.28	18.80	-47.8	-49.0	15.2	0.00e+00	0	23	0	1645215744	61	4218
2026-01-11 07:04:26.82	340.62	18.45	-48.4	-49.7	14.9	0.00e+00	0	23	0	1657798656	61	4563
2026-01-11 07:04:30.82	339.98	18.10	-48.4	-49.7	14.9	0.00e+00	0	23	0	1670381568	61	4547
2026-01-11 07:04:34.83	339.35	17.74	-48.2	-49.4	15.0	0.00e+00	0	23	0	1682964480	61	4419
2026-01-11 07:04:38.82	338.73	17.39	-48.4	-49.7	15.0	0.00e+00	0	23	0	1695547392	62	4329
2026-01-11 07:04:42.82	338.13	17.04	-48.7	-50.0	14.9	0.00e+00	0	23	0	1708130304	62	4457
2026-01-11 07:04:46.82	337.55	16.70	-48.4	-49.7	15.0	0.00e+00	0	23	0	1720713216	62	4292
2026-01-11 07:04:50.82	336.97	16.35	-48.1	-49.4	15.2	0.00e+00	0	23	0	1733296128	62	4148
2026-01-11 07:04:54.79	336.42	16.01	-48.7	-50.0	14.9	4.50e-06	0	23	0	1745879040	62	4470
2026-01-11 07:04:58.80	335.87	15.67	-48.7	-50.0	14.9	0.00e+00	0	23	0	1758461952	62	4481
2026-01-11 07:05:02.79	335.34	15.33	-48.3	-49.5	15.1	0.00e+00	0	23	0	1771044864	62	4241
2026-01-11 07:05:06.81	334.81	14.99	-48.2	-49.4	15.1	0.00e+00	0	23	0	1782579200	62	4186
2026-01-11 07:05:10.80	334.30	14.66	-48.5	-49.8	14.9	0.00e+00	0	23	0	1795162112	62	4385
2026-01-11 07:05:14.79	333.81	14.33	-48.7	-50.1	14.8	0.00e+00	0	23	0	1807745024	62	4500
2026-01-11 07:05:18.78	333.32	14.00	-48.6	-49.9	14.9	0.00e+00	0	23	0	1820327936	62	4420
2026-01-11 07:05:22.77	332.84	13.67	-48.2	-49.4	15.1	0.00e+00	0	23	0	1832910848	62	4178
2026-01-11 07:05:26.76	332.38	13.34	-48.2	-49.5	15.1	0.00e+00	0	23	0	1845493760	62	4213
2026-01-11 07:05:30.75	331.93	13.02	-48.6	-49.9	14.9	0.00e+00	0	23	0	1858076672	62	4412
2026-01-11 07:05:34.73	331.48	12.70	-49.1	-50.5	14.7	0.00e+00	0	23	0	1870659584	63	4462
2026-01-11 07:05:38.71	331.05	12.39	-49.3	-50.8	14.6	0.00e+00	0	23	0	1883242496	63	4606
2026-01-11 07:05:42.71	330.62	12.07	-49.2	-50.6	14.7	0.00e+00	0	23	0	1894776832	63	4519
2026-01-11 07:05:46.69	330.21	11.76	-48.9	-50.2	14.9	6.10e-06	0	23	0	1907359744	63	4334
2026-01-11 07:05:50.68	329.80	11.45	-49.0	-50.4	14.8	0.00e+00	0	23	0	1919942656	63	4418
2026-01-11 07:05:54.68	329.40	11.14	-49.5	-50.9	14.6	0.00e+00	0	24	0	1932525568	64	4429
2026-01-11 07:05:58.63	329.02	10.84	-49.8	-51.3	14.5	0.00e+00	0	23	0	1945108480	64	4615
2026-01-11 07:06:02.63	328.63	10.54	-49.8	-51.3	14.4	0.00e+00	0	23	0	1957691392	64	4638
2026-01-11 07:06:06.63	328.26	10.23	-49.5	-51.0	14.5	0.00e+00	0	23	0	1970274304	64	4473
2026-01-11 07:06:10.61	327.90	9.94	-49.4	-50.9	14.6	0.00e+00	0	24	0	1982857216	64	4419
2026-01-11 07:06:14.60	327.54	9.64	-49.5	-51.0	14.6	0.00e+00	0	23	0	1995440128	64	4447
2026-01-11 07:06:18.59	327.19	9.35	-49.7	-51.2	14.5	1.50e-06	0	24	0	2008023040	64	4558
2026-01-11 07:06:22.57	326.85	9.06	-50.0	-51.6	14.3	0.00e+00	0	23	0	2020605952	65	4510
2026-01-11 07:06:26.56	326.51	8.77	-50.3	-52.0	14.1	0.00e+00	0	23	0	2032140288	65	4737
2026-01-11 07:06:30.56	326.18	8.48	-50.4	-52.1	14.2	0.00e+00	0	23	0	2044723200	66	4500
2026-01-11 07:06:34.57	325.86	8.20	-50.2	-51.9	14.3	0.00e+00	0	23	0	2057306112	66	4404
2026-01-11 07:06:38.55	325.54	7.92	-50.0	-51.6	14.5	0.00e+00	0	23	0	2069889024	66	4270
2026-01-11 07:06:42.54	325.23	7.64	-50.0	-51.5	14.5	0.00e+00	0	24	0	2082471936	66	4240
2026-01-11 07:06:46.54	324.93	7.36	-50.1	-51.7	14.4	0.00e+00	0	24	0	2095054848	66	4296
2026-01-11 07:06:50.55	324.63	7.09	-50.2	-51.8	14.3	0.00e+00	0	24	0	2107637760	66	4387
2026-01-11 07:06:54.55	324.33	6.81	-50.3	-51.9	14.2	0.00e+00	0	23	0	2120220672	66	4431
2026-01-11 07:06:58.54	324.05	6.54	-50.5	-52.3	14.0	0.00e+00	0	24	0	2132803584	66	4600
2026-01-11 07:07:02.55	323.77	6.27	-50.8	-52.6	13.8	0.00e+00	0	23	0	2145386496	66	4780
2026-01-11 07:07:06.53	323.49	6.01	-50.6	-52.4	14.1	0.00e+00	0	23	0	2156920832	67	4396
2026-01-11 07:07:10.54	323.22	5.74	-50.5	-52.2	14.1	0.00e+00	0	23	0	2169503744	67	4318
2026-01-11 07:07:14.54	322.95	5.48	-50.5	-52.2	14.1	0.00e+00	0	23	0	2182086656	67	4311
2026-01-11 07:07:18.52	322.70	5.22	-50.7	-52.6	13.7	0.00e+00	0	23	0	2194669568	66	4773
2026-01-11 07:07:22.52	322.44	4.96	-57.8	-71.4	3.8	1.49e+00	0	24	104	2205155328	80	18586
2026-01-11 07:07:26.50	322.19	4.71	-58.9	-72.6	3.8	1.49e+00	0	24	104	2205155328	82	19164
2026-01-11 07:07:30.48	321.94	4.45	-59.3	-73.1	3.8	1.49e+00	0	24	104	2205155328	83	19062
2026-01-11 07:07:34.46	321.70	4.20	-59.7	-73.5	3.8	1.49e+00	0	23	104	2205155328	84	18804
2026-01-11 07:07:38.46	321.47	3.95	-59.8	-73.6	3.8	1.49e+00	0	23	104	2205155328	84	19088
2026-01-11 07:07:42.47	321.23	3.70	-59.8	-73.7	3.8	1.49e+00	0	23	104	2205155328	84	19201
2026-01-11 07:07:46.47	321.00	3.45	-59.7	-73.6	3.8	1.49e+00	0	24	104	2205155328	84	18982
2026-01-11 07:07:50.46	320.78	3.21	-59.7	-73.5	3.8	1.49e+00	0	24	104	2205155328	84	18922
2026-01-11 07:07:54.46	320.56	2.96	-59.7	-73.5	3.8	1.49e+00	0	24	104	2205155328	84	18814
2026-01-11 07:07:58.46	320.34	2.72	-59.6	-73.5	3.8	1.49e+00	0	24	104	2205155328	84	18742
2026-01-11 07:08:02.46	320.13	2.48	-59.6	-73.4	3.8	1.49e+00	0	24	104	2205155328	84	18698
2026-01-11 07:08:06.45	319.92	2.24	-59.6	-73.4	3.8	1.49e+00	0	24	104	2205155328	84	18638
2026-01-11 07:08:10.45	319.71	2.00	-59.6	-73.4	3.8	1.49e+00	0	24	104	2205155328	84	18627

#Closed at: 2026-01-11 07:08:12
#Recorded file [2205 MB]: D:/lorett/data/31004_260111_095454.dat