passes_logs/2026/01/11/R3.2S_Murmansk/R3.2S_Murmansk__20260111_210630_SUOMI_NPP_rec.log

#Pass ID: 20260111_210630_SUOMI NPP
#Satellite: SUOMI NPP
#Configuration: NPP
#almurnet v.1.7.20251203
#Start time: 2026-01-11 21:06:32

#Version: 2.2.20231116
#Station: R3.2S_Murmansk
#Location: 33.079688 lon 68.888172 lat
#TLE: 1 37849U 11061A   26011.57971124  .00000103  00000+0  69927-4 0  9996
#TLE: 2 37849  98.7807 313.6578 0002518  69.5076 290.6370 14.19524515736228

#Time	Az	El	Level	Level2	SNR	BER	BlckErr	Temp	State	Recorded	gain1	gain2
2026-01-11 21:06:32.32	18.99	2.09	-56.7	-72.6	3.8	1.49e+00	0	21	0	0	79	22660
2026-01-11 21:06:35.34	19.30	2.21	-56.7	-72.6	3.8	1.49e+00	0	21	104	0	78	23872
2026-01-11 21:06:38.36	19.62	2.34	-56.7	-72.5	3.8	1.49e+00	0	21	104	0	78	23719
2026-01-11 21:06:41.38	19.95	2.46	-56.7	-72.5	3.8	1.49e+00	0	21	104	0	78	23782
2026-01-11 21:06:44.41	20.27	2.59	-56.7	-72.5	3.8	1.49e+00	0	21	104	0	78	23661
2026-01-11 21:06:47.43	20.60	2.71	-56.7	-72.6	3.8	1.49e+00	0	21	104	0	78	23946
2026-01-11 21:06:50.45	20.93	2.83	-56.7	-72.6	3.8	1.49e+00	0	21	104	0	78	23943
2026-01-11 21:06:53.47	21.27	2.95	-56.7	-72.5	3.8	1.49e+00	0	21	104	0	78	23846
2026-01-11 21:06:56.49	21.60	3.08	-56.7	-72.6	3.8	1.49e+00	0	21	104	0	78	23875
2026-01-11 21:06:59.51	21.94	3.20	-56.7	-72.6	3.8	1.49e+00	0	21	104	0	78	23875
2026-01-11 21:07:02.53	22.28	3.32	-56.7	-72.6	3.8	1.49e+00	0	21	104	0	78	23998
2026-01-11 21:07:05.56	22.63	3.44	-56.7	-72.5	3.8	1.49e+00	0	22	104	0	78	23841
2026-01-11 21:07:08.59	22.98	3.57	-56.7	-72.5	3.8	1.49e+00	0	22	104	0	78	23613
2026-01-11 21:07:11.62	23.33	3.69	-56.7	-72.6	3.8	1.49e+00	0	22	104	0	78	23990
2026-01-11 21:07:14.64	23.68	3.81	-56.6	-72.6	3.8	1.49e+00	0	22	104	0	78	23970
2026-01-11 21:07:17.67	24.03	3.93	-56.7	-72.6	3.8	1.49e+00	0	22	104	0	78	24076
2026-01-11 21:07:20.70	24.39	4.05	-56.7	-72.6	3.8	1.49e+00	0	22	104	0	78	23889
2026-01-11 21:07:23.73	24.76	4.17	-56.7	-72.6	3.8	1.49e+00	0	22	104	0	78	23890
2026-01-11 21:07:26.75	25.12	4.29	-56.7	-72.6	3.8	1.49e+00	0	22	104	0	78	24061
2026-01-11 21:07:29.78	25.49	4.41	-56.7	-71.9	3.8	1.49e+00	0	22	104	0	78	22175
2026-01-11 21:07:32.81	25.86	4.53	-56.6	-71.0	3.8	1.49e+00	0	22	104	0	78	20067
2026-01-11 21:07:35.83	26.23	4.65	-56.2	-64.9	6.3	3.23e-01	0	22	0	2097152	78	9926
2026-01-11 21:07:38.85	26.60	4.76	-55.4	-61.5	9.3	1.80e-02	0	22	0	8388608	77	7059
2026-01-11 21:07:41.88	26.98	4.88	-55.3	-61.1	9.6	4.84e-03	0	22	0	13631488	77	6760
2026-01-11 21:07:44.90	27.36	5.00	-56.0	-63.9	7.1	6.91e-02	0	22	0	18874368	77	9332
2026-01-11 21:07:47.93	27.75	5.11	-55.9	-62.1	9.1	7.71e-01	0	22	0	23068672	77	7613
2026-01-11 21:07:50.95	28.14	5.23	-53.9	-57.2	12.9	1.27e-01	0	22	0	28311552	74	5119
2026-01-11 21:07:53.97	28.53	5.35	-53.3	-56.3	13.5	0.00e+00	0	22	0	34603008	73	4872
2026-01-11 21:07:57.00	28.92	5.46	-53.1	-55.9	13.7	0.00e+00	0	22	0	39845888	72	4961
2026-01-11 21:08:00.02	29.32	5.57	-53.2	-56.1	13.5	0.00e+00	0	22	0	46137344	72	5061
2026-01-11 21:08:03.05	29.72	5.69	-53.3	-56.3	13.4	0.00e+00	0	22	0	51380224	72	5191
2026-01-11 21:08:06.06	30.12	5.80	-53.3	-56.2	13.4	0.00e+00	0	22	0	56623104	72	5158
2026-01-11 21:08:09.09	30.52	5.91	-53.1	-55.9	13.7	0.00e+00	0	22	0	62914560	72	4963
2026-01-11 21:08:12.12	30.93	6.02	-52.7	-55.2	14.0	0.00e+00	0	22	0	68157440	71	4854
2026-01-11 21:08:15.14	31.34	6.14	-53.0	-55.8	13.6	0.00e+00	0	22	0	74448896	71	5163
2026-01-11 21:08:18.17	31.76	6.25	-53.2	-56.0	13.5	0.00e+00	0	22	0	79691776	71	5298
2026-01-11 21:08:21.19	32.17	6.35	-53.3	-56.2	13.4	0.00e+00	0	23	0	84934656	71	5411
2026-01-11 21:08:24.22	32.59	6.46	-53.0	-55.7	13.7	0.00e+00	0	22	0	91226112	71	5117
2026-01-11 21:08:27.25	33.02	6.57	-52.9	-55.6	13.8	0.00e+00	0	22	0	96468992	71	5056
2026-01-11 21:08:30.27	33.44	6.68	-53.0	-55.7	13.7	0.00e+00	0	22	0	102760448	71	5138
2026-01-11 21:08:33.29	33.87	6.78	-53.1	-55.9	13.6	0.00e+00	0	23	0	108003328	71	5225
2026-01-11 21:08:36.32	34.31	6.89	-53.1	-56.0	13.6	0.00e+00	0	22	0	113246208	71	5281
2026-01-11 21:08:39.34	34.74	6.99	-53.2	-56.1	13.4	0.00e+00	0	22	0	119537664	71	5346
2026-01-11 21:08:42.37	35.18	7.10	-53.3	-56.1	13.4	0.00e+00	0	22	0	124780544	71	5395
2026-01-11 21:08:45.38	35.62	7.20	-53.4	-56.2	13.4	0.00e+00	0	23	0	131072000	71	5462
2026-01-11 21:08:48.41	36.06	7.30	-53.5	-56.4	13.4	0.00e+00	0	22	0	136314880	72	5254
2026-01-11 21:08:51.61	36.54	7.40	-53.4	-56.2	13.5	0.00e+00	0	23	0	141557760	72	5127
2026-01-11 21:08:54.49	36.97	7.50	-53.3	-56.0	13.6	0.00e+00	0	23	0	147849216	72	5025
2026-01-11 21:08:57.65	37.44	7.60	-53.2	-55.9	13.8	0.00e+00	0	22	0	153092096	72	4932
2026-01-11 21:09:00.53	37.87	7.69	-53.2	-55.9	13.7	0.00e+00	0	23	0	158334976	72	4981
2026-01-11 21:09:03.69	38.35	7.79	-53.2	-55.9	13.8	0.00e+00	0	23	0	164626432	72	4956
2026-01-11 21:09:06.57	38.79	7.88	-53.3	-56.1	13.6	0.00e+00	0	22	0	169869312	72	5044
2026-01-11 21:09:09.74	39.28	7.98	-53.6	-56.5	13.3	0.00e+00	0	23	0	176160768	72	5298
2026-01-11 21:09:12.62	39.73	8.07	-53.2	-55.9	13.8	0.00e+00	0	23	0	181403648	72	4959
2026-01-11 21:09:15.79	40.22	8.16	-52.9	-55.4	14.1	0.00e+00	0	23	0	187695104	72	4672
2026-01-11 21:09:18.67	40.67	8.25	-53.0	-55.6	13.9	0.00e+00	0	23	0	192937984	72	4799
2026-01-11 21:09:21.84	41.17	8.34	-53.5	-56.3	13.5	0.00e+00	0	23	0	198180864	72	5196
2026-01-11 21:09:24.71	41.62	8.42	-53.5	-56.3	13.5	0.00e+00	0	23	0	204472320	72	5181
2026-01-11 21:09:27.88	42.13	8.51	-53.4	-56.2	13.5	0.00e+00	0	23	0	209715200	72	5142
2026-01-11 21:09:30.76	42.59	8.59	-53.4	-56.2	13.5	0.00e+00	0	23	0	214958080	72	5156
2026-01-11 21:09:33.93	43.10	8.67	-53.1	-55.8	13.8	0.00e+00	0	23	0	221249536	72	4884
2026-01-11 21:09:36.80	43.56	8.75	-52.8	-55.3	14.1	0.00e+00	0	23	0	226492416	72	4628
2026-01-11 21:09:39.97	44.08	8.83	-52.8	-55.2	14.2	0.00e+00	0	23	0	232783872	72	4584
2026-01-11 21:09:42.85	44.55	8.91	-53.3	-55.9	13.8	0.00e+00	0	23	0	238026752	72	4974
2026-01-11 21:09:46.02	45.07	8.99	-54.0	-57.1	13.1	0.00e+00	0	23	0	244318208	73	5374
2026-01-11 21:09:48.90	45.55	9.06	-54.0	-57.1	13.1	7.00e-07	0	23	0	249561088	73	5363
2026-01-11 21:09:52.08	46.08	9.13	-53.5	-56.3	13.6	0.00e+00	0	23	0	255852544	73	4872
2026-01-11 21:09:54.96	46.56	9.20	-53.1	-55.7	13.9	0.00e+00	0	23	0	261095424	72	4847
2026-01-11 21:09:58.13	47.09	9.27	-53.3	-56.0	13.8	0.00e+00	0	23	0	266338304	72	4985
2026-01-11 21:10:01.00	47.57	9.34	-53.0	-55.5	14.0	0.00e+00	0	23	0	272629760	72	4750
2026-01-11 21:10:04.17	48.11	9.40	-52.8	-55.2	14.3	0.00e+00	0	23	0	277872640	72	4548
2026-01-11 21:10:07.05	48.60	9.46	-53.0	-55.5	13.9	0.00e+00	0	23	0	283115520	71	4994
2026-01-11 21:10:10.22	49.14	9.53	-53.4	-56.2	13.5	0.00e+00	0	23	0	289406976	71	5406
2026-01-11 21:10:13.10	49.63	9.59	-53.0	-55.6	14.0	0.00e+00	0	23	0	294649856	72	4769
2026-01-11 21:10:16.26	50.17	9.65	-52.9	-55.3	14.2	0.00e+00	0	23	0	300941312	72	4642
2026-01-11 21:10:19.14	50.67	9.70	-53.4	-56.1	13.6	0.00e+00	0	23	0	306184192	72	5081
2026-01-11 21:10:22.31	51.22	9.76	-53.1	-55.7	13.9	0.00e+00	0	23	0	312475648	72	4836
2026-01-11 21:10:25.19	51.72	9.81	-52.7	-55.1	14.3	0.00e+00	0	23	0	317718528	72	4523
2026-01-11 21:10:28.36	52.27	9.86	-52.8	-55.3	14.0	0.00e+00	0	23	0	322961408	71	4894
2026-01-11 21:10:31.24	52.78	9.91	-53.2	-55.9	13.7	0.00e+00	0	23	0	329252864	71	5221
2026-01-11 21:10:34.41	53.34	9.95	-53.1	-55.7	13.8	0.00e+00	0	23	0	334495744	71	5150
2026-01-11 21:10:37.29	53.84	10.00	-53.6	-56.5	13.4	0.00e+00	0	23	0	339738624	72	5314
2026-01-11 21:10:40.45	54.40	10.04	-54.6	-58.2	12.5	7.00e-07	0	23	0	346030080	74	5737
2026-01-11 21:10:43.33	54.91	10.08	-54.5	-57.9	12.6	0.00e+00	0	23	0	351272960	74	5591
2026-01-11 21:10:46.50	55.47	10.12	-54.0	-57.1	13.2	0.00e+00	0	23	0	357564416	74	5044
2026-01-11 21:10:49.38	55.99	10.15	-54.1	-57.2	13.2	0.00e+00	0	23	0	362807296	74	5117
2026-01-11 21:10:52.55	56.55	10.19	-54.1	-57.2	13.2	0.00e+00	0	23	0	369098752	74	5137
2026-01-11 21:10:55.43	57.07	10.22	-53.6	-56.4	13.6	0.00e+00	0	23	0	374341632	73	4955
2026-01-11 21:10:58.60	57.64	10.25	-53.6	-56.5	13.5	0.00e+00	0	23	0	380633088	73	5008
2026-01-11 21:11:01.47	58.15	10.27	-53.7	-56.6	13.5	0.00e+00	0	23	0	385875968	73	5050
2026-01-11 21:11:04.64	58.72	10.30	-53.5	-56.3	13.7	0.00e+00	0	23	0	391118848	73	4882
2026-01-11 21:11:07.52	59.24	10.32	-52.9	-55.4	14.1	0.00e+00	0	23	0	396361728	72	4680
2026-01-11 21:11:10.69	59.81	10.34	-53.1	-55.6	14.0	0.00e+00	0	23	0	402653184	72	4795
2026-01-11 21:11:13.57	60.33	10.36	-53.0	-55.5	14.0	0.00e+00	0	23	0	407896064	72	4732
2026-01-11 21:11:16.74	60.90	10.37	-52.9	-55.3	14.2	0.00e+00	0	23	0	414187520	72	4619
2026-01-11 21:11:19.62	61.43	10.39	-53.1	-55.6	14.0	0.00e+00	0	23	0	419430400	72	4804
2026-01-11 21:11:22.79	62.00	10.40	-53.0	-55.6	14.0	0.00e+00	0	23	0	425721856	72	4762
2026-01-11 21:11:25.67	62.52	10.41	-52.6	-55.0	14.2	0.00e+00	0	23	0	430964736	71	4714
2026-01-11 21:11:28.84	63.10	10.41	-52.4	-54.7	14.4	0.00e+00	0	23	0	437256192	71	4583
2026-01-11 21:11:31.72	63.62	10.42	-52.5	-54.8	14.4	0.00e+00	0	23	0	442499072	71	4620
2026-01-11 21:11:34.89	64.20	10.42	-52.1	-54.3	14.5	0.00e+00	0	23	0	447741952	70	4630
2026-01-11 21:11:37.78	64.72	10.42	-52.2	-54.4	14.4	0.00e+00	0	23	0	454033408	70	4704
2026-01-11 21:11:40.93	65.29	10.41	-52.4	-54.7	14.2	0.00e+00	0	23	0	459276288	70	4867
2026-01-11 21:11:43.81	65.81	10.41	-52.4	-54.7	14.2	0.00e+00	0	23	0	464519168	70	4825
2026-01-11 21:11:46.97	66.39	10.40	-52.3	-54.6	14.3	0.00e+00	0	23	0	470810624	70	4780
2026-01-11 21:11:49.85	66.91	10.39	-52.3	-54.5	14.4	0.00e+00	0	23	0	476053504	70	4721
2026-01-11 21:11:53.01	67.48	10.38	-52.3	-54.6	14.3	0.00e+00	0	23	0	482344960	70	4788
2026-01-11 21:11:55.90	68.01	10.37	-52.3	-54.5	14.3	0.00e+00	0	23	0	487587840	70	4744
2026-01-11 21:11:59.07	68.58	10.35	-52.0	-54.1	14.6	0.00e+00	0	23	0	493879296	70	4511
2026-01-11 21:12:01.94	69.10	10.33	-52.0	-54.1	14.6	0.00e+00	0	23	0	499122176	70	4526
2026-01-11 21:12:05.12	69.67	10.31	-51.9	-53.9	14.7	0.00e+00	0	23	0	504365056	70	4441
2026-01-11 21:12:08.00	70.19	10.29	-51.5	-53.4	14.8	0.00e+00	0	23	0	510656512	69	4433
2026-01-11 21:12:11.16	70.76	10.26	-51.3	-53.2	15.0	0.00e+00	0	23	0	515899392	69	4292
2026-01-11 21:12:14.05	71.28	10.23	-51.6	-53.6	14.7	0.00e+00	0	23	0	521142272	69	4533
2026-01-11 21:12:17.21	71.84	10.20	-51.8	-53.9	14.5	0.00e+00	0	23	0	527433728	69	4686
2026-01-11 21:12:20.09	72.36	10.17	-51.7	-53.7	14.7	0.00e+00	0	23	0	532676608	69	4559
2026-01-11 21:12:23.26	72.92	10.13	-51.9	-54.0	14.5	0.00e+00	0	23	0	538968064	69	4723
2026-01-11 21:12:26.14	73.44	10.10	-51.9	-54.0	14.5	0.00e+00	0	23	0	544210944	69	4717
2026-01-11 21:12:29.31	74.00	10.06	-51.7	-53.8	14.5	0.00e+00	0	23	0	550502400	69	4632
2026-01-11 21:12:32.18	74.51	10.02	-51.8	-53.9	14.6	0.00e+00	0	23	0	555745280	69	4655
2026-01-11 21:12:35.35	75.07	9.98	-52.1	-54.3	14.4	0.00e+00	0	23	0	562036736	69	4885
2026-01-11 21:12:38.22	75.57	9.93	-52.2	-54.5	14.2	0.00e+00	0	23	0	567279616	69	4997
2026-01-11 21:12:41.38	76.13	9.88	-52.6	-55.0	14.1	0.00e+00	0	23	0	572522496	70	5002
2026-01-11 21:12:44.26	76.63	9.84	-52.0	-54.1	14.6	0.00e+00	0	23	0	577765376	70	4515
2026-01-11 21:12:47.43	77.19	9.78	-51.7	-53.7	14.7	0.00e+00	0	23	0	584056832	69	4581
2026-01-11 21:12:50.31	77.69	9.73	-51.4	-53.4	14.8	0.00e+00	0	23	0	589299712	69	4399
2026-01-11 21:12:53.48	78.24	9.67	-51.1	-53.0	14.8	0.00e+00	0	23	0	595591168	68	4465
2026-01-11 21:12:56.36	78.73	9.62	-50.8	-52.5	15.1	0.00e+00	0	23	0	600834048	68	4241
2026-01-11 21:12:59.53	79.28	9.56	-51.3	-53.3	14.7	0.00e+00	0	23	0	607125504	68	4604
2026-01-11 21:13:02.41	79.77	9.50	-51.5	-53.6	14.5	0.00e+00	0	23	0	612368384	68	4779
2026-01-11 21:13:05.57	80.31	9.43	-51.2	-53.2	14.8	0.00e+00	0	23	0	618659840	68	4548
2026-01-11 21:13:08.45	80.80	9.37	-51.3	-53.3	14.7	0.00e+00	0	23	0	623902720	68	4632
2026-01-11 21:13:11.62	81.34	9.30	-51.4	-53.4	14.6	0.00e+00	0	23	0	629145600	68	4691
2026-01-11 21:13:14.51	81.82	9.24	-51.6	-53.6	14.5	0.00e+00	0	23	0	635437056	68	4782
2026-01-11 21:13:17.67	82.35	9.16	-51.5	-53.5	14.6	0.00e+00	0	23	0	640679936	68	4732
2026-01-11 21:13:20.54	82.83	9.10	-50.8	-52.6	15.1	0.00e+00	0	23	0	645922816	68	4253
2026-01-11 21:13:23.71	83.36	9.02	-51.0	-52.8	14.9	0.00e+00	0	23	0	652214272	68	4379
2026-01-11 21:13:26.60	83.84	8.95	-51.4	-53.4	14.6	0.00e+00	0	23	0	657457152	68	4693
2026-01-11 21:13:29.76	84.36	8.87	-51.3	-53.3	14.7	0.00e+00	0	23	0	663748608	68	4623
2026-01-11 21:13:32.64	84.83	8.79	-51.4	-53.3	14.7	0.00e+00	0	23	0	668991488	68	4649
2026-01-11 21:13:35.81	85.34	8.71	-51.5	-53.6	14.5	0.00e+00	0	23	0	675282944	68	4795
2026-01-11 21:13:38.69	85.81	8.63	-52.2	-54.4	14.2	0.00e+00	0	23	0	680525824	69	4981
2026-01-11 21:13:41.85	86.32	8.54	-52.6	-55.1	13.9	0.00e+00	0	23	0	685768704	70	5044
2026-01-11 21:13:44.73	86.78	8.46	-52.9	-55.5	13.8	0.00e+00	0	23	0	692060160	71	5031
2026-01-11 21:13:47.91	87.29	8.37	-52.7	-55.2	14.0	0.00e+00	0	23	0	697303040	71	4855
2026-01-11 21:13:50.78	87.74	8.29	-52.8	-55.3	13.9	0.00e+00	0	23	0	702545920	71	4898
2026-01-11 21:13:53.95	88.24	8.20	-52.8	-55.3	13.9	0.00e+00	0	23	0	708837376	71	4918
2026-01-11 21:13:56.83	88.69	8.11	-52.8	-55.3	13.9	0.00e+00	0	23	0	714080256	71	4917
2026-01-11 21:14:00.00	89.19	8.02	-53.0	-55.7	13.7	0.00e+00	0	23	0	720371712	71	5133
2026-01-11 21:14:02.87	89.63	7.93	-53.2	-56.1	13.4	0.00e+00	0	23	0	725614592	71	5367
2026-01-11 21:14:06.04	90.12	7.83	-53.1	-55.9	13.5	0.00e+00	0	23	0	731906048	71	5220
2026-01-11 21:14:08.93	90.56	7.74	-53.3	-56.1	13.4	0.00e+00	0	23	0	737148928	71	5383
2026-01-11 21:14:12.09	91.04	7.64	-53.9	-57.1	12.9	0.00e+00	0	23	0	742391808	73	5362
2026-01-11 21:14:14.97	91.47	7.54	-54.1	-57.5	12.6	0.00e+00	0	23	0	748683264	73	5654
2026-01-11 21:14:18.14	91.95	7.44	-53.9	-57.2	12.9	0.00e+00	0	23	0	753926144	73	5408
2026-01-11 21:14:21.01	92.37	7.35	-53.7	-56.8	13.2	0.00e+00	0	23	0	759169024	73	5201
2026-01-11 21:14:24.18	92.84	7.24	-53.6	-56.6	13.3	0.00e+00	0	23	0	765460480	73	5096
2026-01-11 21:14:27.07	93.27	7.14	-53.8	-57.0	13.0	0.00e+00	0	23	0	770703360	73	5283
2026-01-11 21:14:30.24	93.73	7.03	-53.9	-57.2	12.9	0.00e+00	0	23	0	776994816	73	5404
2026-01-11 21:14:33.12	94.15	6.93	-53.9	-57.2	12.8	0.00e+00	0	23	0	782237696	73	5432
2026-01-11 21:14:36.29	94.60	6.82	-54.0	-57.5	12.6	0.00e+00	0	23	0	788529152	73	5631
2026-01-11 21:14:39.16	95.01	6.72	-53.9	-57.3	12.8	0.00e+00	0	23	0	793772032	73	5468
2026-01-11 21:14:42.33	95.46	6.61	-53.6	-56.7	13.2	0.00e+00	0	23	0	800063488	73	5110
2026-01-11 21:14:45.21	95.87	6.51	-53.4	-56.5	13.4	0.00e+00	0	23	0	805306368	73	4985
2026-01-11 21:14:48.37	96.31	6.40	-53.3	-56.3	13.3	0.00e+00	0	23	0	810549248	72	5204
2026-01-11 21:14:51.25	96.71	6.29	-53.4	-56.3	13.3	0.00e+00	0	23	0	816840704	72	5204
2026-01-11 21:14:54.42	97.15	6.18	-53.1	-56.0	13.4	0.00e+00	0	23	0	822083584	72	4995
2026-01-11 21:14:57.30	97.54	6.07	-53.1	-55.9	13.6	0.00e+00	0	23	0	827326464	72	4963
2026-01-11 21:15:00.48	97.97	5.95	-53.1	-56.0	13.3	0.00e+00	0	23	0	833617920	72	5013
2026-01-11 21:15:03.34	98.36	5.85	-53.2	-56.2	13.4	0.00e+00	0	23	0	838860800	72	5103
2026-01-11 21:15:06.52	98.79	5.73	-53.1	-56.0	13.5	0.00e+00	0	23	0	845152256	72	4995
2026-01-11 21:15:09.40	99.17	5.62	-53.3	-56.3	13.3	0.00e+00	0	23	0	850395136	72	5185
2026-01-11 21:15:12.57	99.59	5.50	-53.3	-56.3	13.2	0.00e+00	0	23	0	856686592	72	5204
2026-01-11 21:15:15.45	99.96	5.39	-53.5	-56.6	13.0	0.00e+00	0	23	0	861929472	72	5385
2026-01-11 21:15:18.62	100.38	5.27	-53.0	-55.9	13.5	0.00e+00	0	23	0	867172352	72	4947
2026-01-11 21:15:21.50	100.75	5.16	-52.6	-55.3	13.8	0.00e+00	0	23	0	873463808	71	4874
2026-01-11 21:15:24.67	101.15	5.03	-52.6	-55.3	13.8	0.00e+00	0	23	0	878706688	71	4907
2026-01-11 21:15:27.56	101.52	4.92	-57.7	-73.7	3.8	1.49e+00	0	23	104	881852416	80	24226
2026-01-11 21:15:30.72	101.92	4.80	-58.3	-74.3	3.8	1.49e+00	0	23	104	881852416	81	24674
2026-01-11 21:15:33.60	102.28	4.68	-58.7	-74.7	3.8	1.49e+00	0	23	104	881852416	82	24398
2026-01-11 21:15:36.78	102.67	4.56	-59.0	-75.0	3.8	1.49e+00	0	23	104	881852416	83	23783
2026-01-11 21:15:39.66	103.03	4.45	-59.1	-75.2	3.8	1.49e+00	0	23	104	881852416	83	24186
2026-01-11 21:15:42.83	103.41	4.32	-59.2	-75.3	3.8	1.49e+00	0	23	104	881852416	83	24572
2026-01-11 21:15:45.71	103.76	4.21	-59.3	-75.4	3.8	1.49e+00	0	23	104	881852416	83	24754
2026-01-11 21:15:48.88	104.14	4.08	-59.4	-75.4	3.8	1.49e+00	0	23	104	881852416	83	24962
2026-01-11 21:15:51.76	104.49	3.96	-59.7	-75.7	3.8	1.49e+00	0	23	104	881852416	84	24280
2026-01-11 21:15:54.93	104.86	3.84	-59.7	-75.8	3.8	1.49e+00	0	23	104	881852416	84	24432
2026-01-11 21:15:57.81	105.20	3.72	-59.7	-75.7	3.8	1.49e+00	0	23	104	881852416	84	24306
2026-01-11 21:16:00.98	105.57	3.59	-59.6	-75.7	3.8	1.49e+00	0	23	104	881852416	84	24190
2026-01-11 21:16:03.86	105.90	3.48	-59.6	-75.7	3.8	1.49e+00	0	23	104	881852416	84	24144
2026-01-11 21:16:07.02	106.26	3.35	-59.6	-75.6	3.8	1.49e+00	0	23	104	881852416	84	24042
2026-01-11 21:16:09.91	106.59	3.23	-59.6	-75.6	3.8	1.49e+00	0	23	104	881852416	84	24009
2026-01-11 21:16:13.08	106.95	3.10	-59.6	-75.6	3.8	1.49e+00	0	23	104	881852416	84	23990
2026-01-11 21:16:15.96	107.27	2.98	-59.5	-75.6	3.8	1.49e+00	0	23	104	881852416	84	23917
2026-01-11 21:16:19.13	107.62	2.85	-59.5	-75.6	3.8	1.49e+00	0	23	104	881852416	84	23897
2026-01-11 21:16:22.01	107.94	2.73	-59.5	-75.6	3.8	1.49e+00	0	23	104	881852416	84	23881
2026-01-11 21:16:25.19	108.29	2.60	-59.5	-75.5	3.8	1.49e+00	0	23	104	881852416	84	23773
2026-01-11 21:16:28.08	108.60	2.48	-59.5	-75.5	3.8	1.49e+00	0	23	104	881852416	84	23799
2026-01-11 21:16:31.24	108.94	2.35	-59.5	-75.5	3.8	1.49e+00	0	23	104	881852416	84	23818
2026-01-11 21:16:34.12	109.25	2.24	-59.5	-75.5	3.8	1.49e+00	0	23	104	881852416	84	23809
2026-01-11 21:16:37.29	109.58	2.10	-59.5	-75.5	3.8	1.49e+00	0	23	104	881852416	84	23751
2026-01-11 21:16:40.17	109.89	1.99	-59.5	-75.5	3.8	1.49e+00	0	23	104	881852416	84	23762

#Closed at: 2026-01-11 21:16:40
#Recorded file [881 MB]: D:/lorett/data/31004_260112_000632.dat