passes_logs/2026/01/11/R3.2S_Murmansk/R3.2S_Murmansk__20260111_004618_SUOMI_NPP_rec.log

#Pass ID: 20260111_004618_SUOMI NPP
#Satellite: SUOMI NPP
#Configuration: NPP
#almurnet v.1.7.20251203
#Start time: 2026-01-11 00:46:19

#Version: 2.2.20231116
#Station: R3.2S_Murmansk
#Location: 33.079688 lon 68.888172 lat
#TLE: 1 37849U 11061A   26009.81756760  .00000113  00000+0  74747-4 0  9994
#TLE: 2 37849  98.7806 311.9110 0002525  72.5604 287.5848 14.19524046735974

#Time	Az	El	Level	Level2	SNR	BER	BlckErr	Temp	State	Recorded	gain1	gain2
2026-01-11 00:46:19.95	24.60	2.11	-56.9	-72.9	3.8	1.49e+00	0	21	0	0	80	22056
2026-01-11 00:46:23.93	24.61	2.37	-56.9	-72.8	3.8	1.49e+00	0	21	104	0	78	24593
2026-01-11 00:46:27.95	24.63	2.63	-56.9	-72.7	3.8	1.49e+00	0	21	104	0	78	24356
2026-01-11 00:46:31.95	24.64	2.89	-56.8	-72.4	3.8	1.49e+00	0	21	104	0	78	23323
2026-01-11 00:46:35.95	24.65	3.16	-56.8	-72.1	3.8	1.49e+00	0	21	104	0	78	22689
2026-01-11 00:46:39.95	24.67	3.42	-56.9	-72.5	3.8	1.49e+00	0	21	104	0	78	23708
2026-01-11 00:46:43.95	24.68	3.69	-56.8	-71.3	3.8	1.49e+00	0	21	104	0	78	20760
2026-01-11 00:46:47.96	24.70	3.97	-56.6	-67.8	4.7	9.03e-01	0	22	0	2097152	78	13750
2026-01-11 00:46:51.97	24.71	4.24	-56.4	-65.5	6.0	3.61e-01	0	22	0	9437184	78	10614
2026-01-11 00:46:55.96	24.72	4.52	-56.3	-64.9	6.5	1.83e-01	0	22	0	16777216	78	9841
2026-01-11 00:46:59.96	24.74	4.80	-56.4	-65.6	6.0	2.73e-01	0	22	0	24117248	78	10698
2026-01-11 00:47:03.93	24.75	5.08	-55.8	-61.9	9.2	1.08e-01	0	22	0	31457280	78	7014
2026-01-11 00:47:07.94	24.76	5.37	-56.7	-70.3	3.8	2.18e-01	0	22	104	38797312	78	18370
2026-01-11 00:47:11.93	24.77	5.66	-54.6	-58.7	11.9	1.90e-05	0	22	0	45088768	75	5763
2026-01-11 00:47:15.94	24.79	5.95	-54.5	-58.5	12.1	1.90e-05	0	22	0	52428800	75	5626
2026-01-11 00:47:19.93	24.80	6.25	-54.4	-58.1	12.4	3.00e-06	0	22	0	59768832	75	5348
2026-01-11 00:47:23.93	24.81	6.55	-53.8	-57.1	13.1	0.00e+00	0	22	0	67108864	74	5045
2026-01-11 00:47:27.94	24.83	6.85	-54.0	-57.3	13.0	7.00e-07	0	22	0	74448896	74	5194
2026-01-11 00:47:31.94	24.84	7.16	-54.0	-57.3	13.0	0.00e+00	0	22	0	81788928	74	5187
2026-01-11 00:47:35.94	24.85	7.47	-53.9	-57.1	13.2	0.00e+00	0	22	0	89128960	74	5072
2026-01-11 00:47:39.93	24.86	7.79	-53.8	-56.8	13.4	0.00e+00	0	22	0	97517568	74	4918
2026-01-11 00:47:43.91	24.87	8.10	-53.8	-56.9	13.4	0.00e+00	0	22	0	104857600	74	4937
2026-01-11 00:47:47.92	24.89	8.43	-53.6	-56.6	13.4	0.00e+00	0	22	0	112197632	73	5075
2026-01-11 00:47:51.90	24.90	8.75	-53.8	-56.9	13.3	0.00e+00	0	22	0	119537664	73	5223
2026-01-11 00:47:55.91	24.91	9.09	-53.6	-56.5	13.6	0.00e+00	0	22	0	126877696	73	4986
2026-01-11 00:47:59.89	24.92	9.42	-53.7	-56.6	13.5	0.00e+00	0	22	0	134217728	73	5049
2026-01-11 00:48:03.88	24.93	9.76	-53.4	-56.1	13.8	0.00e+00	0	22	0	141557760	73	4789
2026-01-11 00:48:07.88	24.94	10.11	-53.2	-55.9	13.9	0.00e+00	0	22	0	149946368	72	4939
2026-01-11 00:48:11.87	24.96	10.46	-53.1	-55.6	14.0	0.00e+00	0	22	0	157286400	72	4812
2026-01-11 00:48:15.88	24.97	10.81	-53.1	-55.7	14.0	0.00e+00	0	22	0	164626432	72	4847
2026-01-11 00:48:19.87	24.98	11.17	-53.0	-55.5	14.1	0.00e+00	0	23	0	171966464	72	4747
2026-01-11 00:48:23.87	24.99	11.54	-52.8	-55.2	14.4	0.00e+00	0	23	0	179306496	72	4553
2026-01-11 00:48:27.85	25.00	11.91	-52.7	-55.0	14.3	0.00e+00	0	22	0	186646528	71	4736
2026-01-11 00:48:31.86	25.01	12.29	-52.5	-54.8	14.5	0.00e+00	0	23	0	195035136	71	4606
2026-01-11 00:48:35.85	25.02	12.67	-52.3	-54.5	14.6	0.00e+00	0	22	0	202375168	71	4471
2026-01-11 00:48:39.85	25.03	13.06	-52.2	-54.3	14.6	0.00e+00	0	23	0	209715200	70	4624
2026-01-11 00:48:43.85	25.04	13.45	-52.0	-54.1	14.8	0.00e+00	0	23	0	217055232	70	4500
2026-01-11 00:48:47.84	25.05	13.85	-51.9	-53.9	14.9	0.00e+00	0	23	0	224395264	70	4393
2026-01-11 00:48:51.83	25.06	14.26	-51.6	-53.5	14.9	0.00e+00	0	22	0	231735296	69	4456
2026-01-11 00:48:55.82	25.07	14.68	-51.5	-53.3	15.0	0.00e+00	0	23	0	239075328	69	4384
2026-01-11 00:48:59.81	25.08	15.10	-51.3	-53.2	15.1	0.00e+00	0	22	0	247463936	69	4299
2026-01-11 00:49:03.81	25.08	15.53	-51.3	-53.1	15.1	0.00e+00	0	23	0	254803968	69	4271
2026-01-11 00:49:07.79	25.09	15.97	-51.3	-53.1	15.1	0.00e+00	0	23	0	262144000	69	4288
2026-01-11 00:49:11.76	25.10	16.41	-51.2	-53.0	15.2	0.00e+00	0	23	0	269484032	69	4209
2026-01-11 00:49:15.78	25.11	16.87	-51.2	-53.0	15.1	0.00e+00	0	23	0	276824064	68	4443
2026-01-11 00:49:19.77	25.12	17.33	-51.0	-52.8	15.1	0.00e+00	0	23	0	284164096	68	4375
2026-01-11 00:49:23.77	25.12	17.80	-51.0	-52.8	15.1	0.00e+00	0	23	0	291504128	68	4367
2026-01-11 00:49:27.76	25.13	18.28	-50.9	-52.7	15.2	0.00e+00	0	23	0	298844160	68	4299
2026-01-11 00:49:31.75	25.14	18.77	-51.2	-53.0	15.1	0.00e+00	0	23	0	307232768	68	4442
2026-01-11 00:49:35.74	25.14	19.27	-51.3	-53.1	15.0	0.00e+00	0	23	0	314572800	68	4515
2026-01-11 00:49:39.72	25.15	19.78	-51.4	-53.3	14.9	0.00e+00	0	23	0	321912832	68	4606
2026-01-11 00:49:43.71	25.16	20.30	-51.4	-53.2	14.9	0.00e+00	0	23	0	329252864	68	4591
2026-01-11 00:49:47.71	25.16	20.83	-51.4	-53.3	14.9	0.00e+00	0	23	0	336592896	68	4615
2026-01-11 00:49:51.70	25.17	21.38	-51.4	-53.3	14.9	0.00e+00	0	23	0	343932928	68	4607
2026-01-11 00:49:55.70	25.17	21.94	-51.6	-53.5	14.8	0.00e+00	0	23	0	351272960	68	4736
2026-01-11 00:49:59.68	25.17	22.50	-51.5	-53.3	14.9	0.00e+00	0	23	0	359661568	68	4640
2026-01-11 00:50:03.67	25.18	23.08	-51.4	-53.3	14.9	0.00e+00	0	23	0	367001600	68	4611
2026-01-11 00:50:07.65	25.18	23.68	-51.4	-53.2	15.0	0.00e+00	0	23	0	374341632	68	4582
2026-01-11 00:50:11.64	25.18	24.28	-51.6	-53.5	14.8	0.00e+00	0	23	0	381681664	68	4718
2026-01-11 00:50:15.65	25.18	24.91	-51.3	-53.0	15.0	0.00e+00	0	23	0	389021696	68	4483
2026-01-11 00:50:19.64	25.19	25.55	-51.1	-52.8	15.2	0.00e+00	0	23	0	396361728	68	4367
2026-01-11 00:50:23.64	25.19	26.20	-51.5	-53.3	14.9	0.00e+00	0	23	0	403701760	68	4648
2026-01-11 00:50:27.63	25.19	26.87	-51.5	-53.3	14.9	0.00e+00	0	23	0	412090368	68	4614
2026-01-11 00:50:31.63	25.18	27.56	-51.7	-53.5	14.8	0.00e+00	0	23	0	419430400	68	4729
2026-01-11 00:50:35.62	25.18	28.27	-51.8	-53.6	14.9	0.00e+00	0	23	0	426770432	69	4529
2026-01-11 00:50:39.62	25.18	28.99	-52.8	-54.9	14.4	0.00e+00	0	23	0	434110464	70	4981
2026-01-11 00:50:43.62	25.18	29.74	-52.8	-55.1	14.4	0.00e+00	0	23	0	441450496	71	4769
2026-01-11 00:50:47.62	25.17	30.50	-52.9	-55.2	14.4	0.00e+00	0	23	0	448790528	71	4848
2026-01-11 00:50:51.62	25.17	31.29	-53.5	-56.0	14.1	0.00e+00	0	23	0	456130560	72	4994
2026-01-11 00:50:55.61	25.16	32.09	-53.0	-55.3	14.5	0.00e+00	0	23	0	464519168	72	4608
2026-01-11 00:50:59.59	25.15	32.92	-53.2	-55.5	14.3	0.00e+00	0	23	0	471859200	72	4739
2026-01-11 00:51:03.59	25.15	33.77	-52.9	-55.1	14.6	0.00e+00	0	23	0	479199232	72	4528
2026-01-11 00:51:07.59	25.14	34.65	-52.0	-54.0	15.0	0.00e+00	0	23	0	486539264	70	4451
2026-01-11 00:51:11.58	25.12	35.55	-51.3	-53.1	15.2	0.00e+00	0	23	0	493879296	69	4270
2026-01-11 00:51:15.56	25.11	36.47	-50.4	-52.0	15.4	0.00e+00	0	23	0	501219328	67	4206
2026-01-11 00:51:19.56	25.10	37.43	-50.0	-51.6	15.5	0.00e+00	0	23	0	508559360	66	4244
2026-01-11 00:51:23.55	25.08	38.41	-50.4	-51.9	15.2	0.00e+00	0	23	0	516947968	66	4440
2026-01-11 00:51:27.54	25.06	39.43	-50.2	-51.7	15.4	0.00e+00	0	23	0	524288000	66	4310
2026-01-11 00:51:31.54	25.04	40.47	-50.7	-52.3	15.3	0.00e+00	0	23	0	531628032	67	4388
2026-01-11 00:51:35.53	25.02	41.54	-50.4	-52.0	15.4	0.00e+00	0	23	0	538968064	67	4214
2026-01-11 00:51:39.51	24.99	42.65	-50.5	-52.1	15.4	0.00e+00	0	23	0	546308096	67	4244
2026-01-11 00:51:43.50	24.96	43.79	-50.7	-52.3	15.3	0.00e+00	0	23	0	553648128	67	4369
2026-01-11 00:51:47.51	24.93	44.97	-51.9	-53.7	14.7	0.00e+00	0	23	0	560988160	68	4859
2026-01-11 00:51:51.51	24.89	46.18	-52.9	-55.0	14.6	0.00e+00	0	23	0	569376768	71	4740
2026-01-11 00:51:55.49	24.85	47.43	-52.8	-54.9	14.6	0.00e+00	0	23	0	576716800	71	4663
2026-01-11 00:51:59.49	24.80	48.72	-53.3	-55.6	14.4	0.00e+00	0	23	0	584056832	72	4790
2026-01-11 00:52:03.48	24.75	50.04	-52.5	-54.5	14.8	0.00e+00	0	23	0	591396864	71	4486
2026-01-11 00:52:07.46	24.69	51.40	-51.1	-52.7	15.3	0.00e+00	0	23	0	598736896	68	4339
2026-01-11 00:52:11.44	24.63	52.80	-51.0	-52.7	15.3	0.00e+00	0	23	0	606076928	68	4303
2026-01-11 00:52:15.44	24.55	54.25	-49.6	-51.0	15.6	0.00e+00	0	23	0	613416960	65	4196
2026-01-11 00:52:19.44	24.47	55.75	-50.4	-51.9	15.4	0.00e+00	0	23	0	621805568	67	4192
2026-01-11 00:52:23.44	24.38	57.28	-50.1	-51.6	15.3	0.00e+00	0	23	0	629145600	65	4512
2026-01-11 00:52:27.42	24.27	58.85	-51.8	-53.7	14.8	0.00e+00	0	23	0	636485632	68	4827
2026-01-11 00:52:31.41	24.15	60.46	-51.3	-53.0	15.3	0.00e+00	0	23	0	643825664	69	4222
2026-01-11 00:52:35.40	24.00	62.12	-49.9	-51.3	15.6	0.00e+00	0	23	0	651165696	66	4117
2026-01-11 00:52:39.38	23.84	63.81	-48.9	-50.2	15.6	0.00e+00	0	23	0	658505728	63	4335
2026-01-11 00:52:43.38	23.65	65.55	-50.1	-51.6	15.3	0.00e+00	0	23	0	665845760	65	4507
2026-01-11 00:52:47.39	23.41	67.34	-50.7	-52.3	15.3	0.00e+00	0	23	0	673185792	67	4370
2026-01-11 00:52:51.39	23.14	69.15	-52.8	-54.8	14.5	0.00e+00	0	23	0	681574400	70	4912
2026-01-11 00:52:55.39	22.80	71.01	-55.0	-57.8	13.6	0.00e+00	0	23	0	688914432	76	4894
2026-01-11 00:52:59.40	22.37	72.90	-54.7	-57.6	13.7	0.00e+00	0	23	0	696254464	76	4762
2026-01-11 00:53:03.37	21.84	74.81	-52.9	-55.1	14.6	0.00e+00	0	23	0	703594496	71	4761
2026-01-11 00:53:07.36	21.13	76.75	-55.0	-58.0	13.3	0.00e+00	0	23	0	710934528	75	5300
2026-01-11 00:53:11.34	20.17	78.71	-56.3	-60.4	11.8	2.89e-05	0	23	0	718274560	78	5871
2026-01-11 00:53:15.33	18.78	80.69	-52.3	-54.2	14.9	0.00e+00	0	23	0	725614592	70	4569
2026-01-11 00:53:19.32	16.61	82.69	-52.7	-54.7	14.9	0.00e+00	0	23	0	734003200	72	4313
2026-01-11 00:53:23.32	12.77	84.68	-50.6	-52.2	15.2	0.00e+00	0	23	0	741343232	66	4573
2026-01-11 00:53:27.33	4.33	86.64	-51.2	-52.9	15.1	0.00e+00	0	23	0	748683264	67	4671
2026-01-11 00:53:31.33	336.15	88.34	-55.5	-59.0	12.8	0.00e+00	0	23	0	756023296	76	5599
2026-01-11 00:53:35.32	258.60	88.38	-51.5	-53.2	15.3	0.00e+00	0	23	0	763363328	69	4293
2026-01-11 00:53:39.31	229.40	86.69	-51.9	-53.7	15.1	0.00e+00	0	23	0	770703360	70	4300
2026-01-11 00:53:43.32	220.73	84.73	-50.8	-52.4	15.5	0.00e+00	0	23	0	778043392	68	4178
2026-01-11 00:53:47.34	216.81	82.73	-50.9	-52.5	15.1	0.00e+00	0	23	0	786432000	66	4741
2026-01-11 00:53:51.34	214.62	80.73	-50.4	-51.8	15.3	0.00e+00	0	23	0	793772032	66	4387
2026-01-11 00:53:55.34	213.21	78.74	-53.3	-55.5	14.4	0.00e+00	0	23	0	801112064	72	4712
2026-01-11 00:53:59.34	212.24	76.77	-52.3	-54.2	14.8	0.00e+00	0	23	0	808452096	70	4585
2026-01-11 00:54:03.33	211.53	74.82	-52.1	-53.9	15.1	0.00e+00	0	23	0	815792128	70	4404
2026-01-11 00:54:07.31	210.99	72.91	-52.7	-54.7	14.5	0.00e+00	0	23	0	823132160	70	4869
2026-01-11 00:54:11.30	210.57	71.02	-57.2	-62.7	10.1	2.82e-04	0	23	0	831520768	79	7238
2026-01-11 00:54:15.29	210.23	69.17	-53.4	-55.5	14.6	0.00e+00	0	23	0	838860800	73	4477
2026-01-11 00:54:19.28	209.95	67.35	-52.7	-54.7	14.8	0.00e+00	0	23	0	846200832	71	4580
2026-01-11 00:54:23.28	209.72	65.57	-50.9	-52.5	15.5	0.00e+00	0	23	0	853540864	68	4200
2026-01-11 00:54:27.28	209.52	63.82	-50.8	-52.4	15.1	0.00e+00	0	23	0	860880896	66	4673
2026-01-11 00:54:31.28	209.36	62.12	-49.4	-50.8	15.7	0.00e+00	0	23	0	868220928	65	4139
2026-01-11 00:54:35.26	209.21	60.46	-54.0	-56.5	14.0	0.00e+00	0	23	0	875560960	73	5026
2026-01-11 00:54:39.26	209.09	58.84	-52.3	-54.1	15.0	0.00e+00	0	23	0	882900992	71	4285
2026-01-11 00:54:43.27	208.98	57.26	-50.4	-51.9	15.3	0.00e+00	0	23	0	891289600	66	4404
2026-01-11 00:54:47.28	208.89	55.72	-48.7	-50.0	15.9	0.00e+00	0	23	0	898629632	64	3961
2026-01-11 00:54:51.27	208.80	54.23	-52.2	-54.2	14.8	0.00e+00	0	23	0	905969664	69	4824
2026-01-11 00:54:55.26	208.73	52.78	-50.8	-52.4	15.3	0.00e+00	0	23	0	913309696	67	4393
2026-01-11 00:54:59.25	208.66	51.37	-54.6	-57.6	13.6	0.00e+00	0	23	0	920649728	75	5054
2026-01-11 00:55:03.23	208.60	50.01	-52.0	-53.9	14.8	0.00e+00	0	23	0	927989760	69	4660
2026-01-11 00:55:07.21	208.55	48.68	-54.2	-56.9	13.7	0.00e+00	0	23	0	935329792	73	5223
2026-01-11 00:55:11.19	208.51	47.39	-51.3	-52.9	15.4	0.00e+00	0	23	0	943718400	69	4181
2026-01-11 00:55:15.18	208.46	46.14	-52.6	-54.6	14.6	0.00e+00	0	23	0	951058432	70	4796
2026-01-11 00:55:19.19	208.43	44.92	-56.7	-61.6	11.0	1.07e-03	0	23	0	958398464	79	6390
2026-01-11 00:55:23.18	208.39	43.74	-52.7	-54.7	14.6	0.00e+00	0	23	0	965738496	70	4837
2026-01-11 00:55:27.18	208.36	42.60	-54.6	-57.7	13.4	0.00e+00	0	23	0	973078528	74	5407
2026-01-11 00:55:31.16	208.33	41.49	-56.3	-60.8	11.5	7.01e-05	0	23	0	980418560	78	6170
2026-01-11 00:55:35.16	208.31	40.41	-52.1	-53.9	15.0	0.00e+00	0	23	0	987758592	70	4431
2026-01-11 00:55:39.15	208.29	39.37	-53.1	-55.3	14.4	0.00e+00	0	23	0	996147200	71	4891
2026-01-11 00:55:43.13	208.27	38.36	-55.0	-58.2	13.1	0.00e+00	0	23	0	1003487232	75	5413
2026-01-11 00:55:47.11	208.25	37.37	-53.6	-56.0	14.2	0.00e+00	0	23	0	1010827264	73	4724
2026-01-11 00:55:51.09	208.23	36.42	-52.8	-54.8	14.8	0.00e+00	0	23	0	1018167296	72	4363
2026-01-11 00:55:55.09	208.22	35.49	-52.9	-55.0	14.5	0.00e+00	0	23	0	1025507328	71	4737
2026-01-11 00:55:59.08	208.21	34.58	-55.8	-59.7	12.1	0.00e+00	0	23	0	1032847360	76	6081
2026-01-11 00:56:03.07	208.19	33.71	-56.7	-61.7	10.8	1.43e-03	0	23	0	1040187392	79	6464
2026-01-11 00:56:07.06	208.19	32.85	-54.0	-56.6	14.0	0.00e+00	0	23	0	1047527424	74	4777
2026-01-11 00:56:11.04	208.18	32.03	-53.0	-55.2	14.4	0.00e+00	0	23	0	1055916032	71	4837
2026-01-11 00:56:15.04	208.17	31.22	-53.5	-55.9	14.1	0.00e+00	0	23	0	1063256064	72	4966
2026-01-11 00:56:19.04	208.16	30.43	-53.3	-55.6	14.3	0.00e+00	0	23	0	1070596096	72	4770
2026-01-11 00:56:23.03	208.16	29.66	-55.5	-59.2	12.3	0.00e+00	0	23	0	1077936128	76	5782
2026-01-11 00:56:27.03	208.15	28.92	-55.1	-58.4	13.0	7.00e-07	0	23	0	1085276160	76	5227
2026-01-11 00:56:31.02	208.15	28.19	-52.7	-54.9	14.8	0.00e+00	0	23	0	1092616192	72	4400
2026-01-11 00:56:35.01	208.15	27.48	-51.1	-52.8	15.2	0.00e+00	0	23	0	1099956224	68	4371
2026-01-11 00:56:39.01	208.14	26.79	-51.1	-52.7	15.2	0.00e+00	0	23	0	1108344832	68	4335
2026-01-11 00:56:42.99	208.14	26.12	-50.9	-52.6	15.3	0.00e+00	0	23	0	1115684864	68	4255
2026-01-11 00:56:47.00	208.14	25.46	-51.4	-53.2	15.0	0.00e+00	0	23	0	1123024896	68	4587
2026-01-11 00:56:51.00	208.14	24.82	-51.9	-53.9	14.8	0.00e+00	0	23	0	1130364928	69	4654
2026-01-11 00:56:55.00	208.14	24.20	-51.7	-53.6	14.9	0.00e+00	0	23	0	1137704960	69	4510
2026-01-11 00:56:59.00	208.14	23.59	-51.7	-53.6	14.9	0.00e+00	0	23	0	1145044992	69	4506
2026-01-11 00:57:02.99	208.14	22.99	-52.2	-54.2	14.6	0.00e+00	0	23	0	1152385024	69	4854
2026-01-11 00:57:06.96	208.15	22.41	-52.1	-54.1	14.7	0.00e+00	0	23	0	1160773632	69	4781
2026-01-11 00:57:10.94	208.15	21.84	-50.8	-52.4	15.4	0.00e+00	0	23	0	1168113664	68	4168
2026-01-11 00:57:14.93	208.15	21.29	-50.2	-51.8	15.3	0.00e+00	0	23	0	1175453696	66	4346
2026-01-11 00:57:18.91	208.15	20.74	-50.5	-52.1	15.2	0.00e+00	0	23	0	1182793728	66	4514
2026-01-11 00:57:22.90	208.16	20.21	-50.7	-52.5	15.0	0.00e+00	0	23	0	1190133760	66	4723
2026-01-11 00:57:26.87	208.16	19.69	-51.0	-52.8	15.0	0.00e+00	0	23	0	1197473792	67	4643
2026-01-11 00:57:30.86	208.17	19.18	-51.1	-52.9	14.9	0.00e+00	0	23	0	1204813824	67	4697
2026-01-11 00:57:34.87	208.17	18.67	-51.8	-53.7	14.7	0.00e+00	0	23	0	1212153856	68	4830
2026-01-11 00:57:38.88	208.17	18.18	-52.5	-54.6	14.5	0.00e+00	0	23	0	1220542464	70	4811
2026-01-11 00:57:42.86	208.18	17.70	-53.1	-55.6	14.1	0.00e+00	0	23	0	1227882496	71	5055
2026-01-11 00:57:46.86	208.19	17.23	-52.8	-55.1	14.3	0.00e+00	0	23	0	1235222528	71	4784
2026-01-11 00:57:50.86	208.19	16.76	-52.5	-54.6	14.6	0.00e+00	0	23	0	1242562560	71	4527
2026-01-11 00:57:54.86	208.20	16.31	-52.0	-54.0	14.8	0.00e+00	0	23	0	1249902592	70	4460
2026-01-11 00:57:58.87	208.20	15.86	-51.7	-53.6	15.0	0.00e+00	0	23	0	1257242624	70	4289
2026-01-11 00:58:02.86	208.21	15.42	-52.2	-54.2	14.7	0.00e+00	0	23	0	1265631232	70	4575
2026-01-11 00:58:06.87	208.22	14.99	-52.4	-54.6	14.5	0.00e+00	0	23	0	1272971264	70	4762
2026-01-11 00:58:10.85	208.22	14.57	-52.8	-55.2	14.1	0.00e+00	0	23	0	1280311296	70	5110
2026-01-11 00:58:14.82	208.23	14.15	-53.0	-55.4	14.1	0.00e+00	0	23	0	1287651328	71	4977
2026-01-11 00:58:18.82	208.24	13.74	-53.3	-55.8	13.8	0.00e+00	0	23	0	1294991360	71	5218
2026-01-11 00:58:22.80	208.24	13.34	-53.0	-55.4	14.1	0.00e+00	0	23	0	1302331392	71	4958
2026-01-11 00:58:26.79	208.25	12.95	-52.9	-55.3	14.1	0.00e+00	0	23	0	1309671424	71	4908
2026-01-11 00:58:30.79	208.26	12.56	-52.9	-55.3	14.1	0.00e+00	0	23	0	1317011456	71	4897
2026-01-11 00:58:34.79	208.27	12.17	-52.7	-55.0	14.3	0.00e+00	0	23	0	1325400064	71	4750
2026-01-11 00:58:38.78	208.28	11.79	-52.8	-55.2	14.2	0.00e+00	0	23	0	1332740096	71	4837
2026-01-11 00:58:42.78	208.28	11.42	-52.5	-54.8	14.4	0.00e+00	0	23	0	1340080128	71	4633
2026-01-11 00:58:46.77	208.29	11.06	-52.6	-54.9	14.4	0.00e+00	0	23	0	1347420160	71	4667
2026-01-11 00:58:50.76	208.30	10.70	-52.6	-54.9	14.4	0.00e+00	0	23	0	1354760192	71	4657
2026-01-11 00:58:54.76	208.31	10.34	-52.6	-54.9	14.4	0.00e+00	0	23	0	1362100224	71	4683
2026-01-11 00:58:58.76	208.32	9.99	-52.5	-54.8	14.4	0.00e+00	0	23	0	1369440256	71	4632
2026-01-11 00:59:02.77	208.33	9.64	-52.6	-55.0	14.3	0.00e+00	0	23	0	1377828864	71	4742
2026-01-11 00:59:06.77	208.34	9.30	-52.7	-55.0	14.2	0.00e+00	0	23	0	1385168896	71	4750
2026-01-11 00:59:10.76	208.34	8.97	-52.7	-55.1	14.2	0.00e+00	0	23	0	1392508928	71	4787
2026-01-11 00:59:14.75	208.35	8.63	-52.6	-55.0	14.3	0.00e+00	0	23	0	1399848960	71	4722
2026-01-11 00:59:18.74	208.36	8.31	-52.8	-55.3	14.0	0.00e+00	0	23	0	1407188992	71	4922
2026-01-11 00:59:22.73	208.37	7.98	-52.8	-55.3	14.0	0.00e+00	0	23	0	1414529024	71	4882
2026-01-11 00:59:26.72	208.38	7.67	-52.9	-55.4	13.9	0.00e+00	0	23	0	1421869056	71	4971
2026-01-11 00:59:30.70	208.39	7.35	-53.0	-55.7	13.8	0.00e+00	0	23	0	1430257664	71	5124
2026-01-11 00:59:34.71	208.40	7.04	-53.0	-55.6	13.8	0.00e+00	0	23	0	1437597696	71	5071
2026-01-11 00:59:38.70	208.41	6.73	-53.2	-55.9	13.6	0.00e+00	0	23	0	1444937728	71	5263
2026-01-11 00:59:42.69	208.42	6.43	-53.2	-55.9	13.5	0.00e+00	0	23	0	1452277760	71	5277
2026-01-11 00:59:46.70	208.43	6.13	-53.0	-55.8	13.6	0.00e+00	0	23	0	1459617792	71	5164
2026-01-11 00:59:50.67	208.44	5.83	-53.0	-55.8	13.6	0.00e+00	0	23	0	1466957824	71	5184
2026-01-11 00:59:54.66	208.45	5.54	-53.1	-55.9	13.5	0.00e+00	0	23	0	1474297856	71	5231
2026-01-11 00:59:58.65	208.46	5.25	-53.3	-56.2	13.3	0.00e+00	0	23	0	1482686464	71	5447
2026-01-11 01:00:02.63	208.47	4.96	-57.1	-67.9	5.8	0.00e+00	0	23	0	1490026496	79	13181
2026-01-11 01:00:06.62	208.48	4.68	-58.6	-74.6	3.8	1.49e+00	0	23	104	1490026496	82	23897
2026-01-11 01:00:10.62	208.49	4.40	-58.9	-74.9	3.8	1.49e+00	0	23	104	1490026496	82	24912
2026-01-11 01:00:14.61	208.50	4.12	-59.1	-75.1	3.8	1.49e+00	0	23	104	1490026496	83	24065
2026-01-11 01:00:18.62	208.51	3.84	-59.2	-75.2	3.8	1.49e+00	0	23	104	1490026496	83	24375
2026-01-11 01:00:22.60	208.52	3.57	-59.3	-75.3	3.8	1.49e+00	0	23	104	1490026496	83	24617
2026-01-11 01:00:26.60	208.53	3.30	-59.3	-75.3	3.8	1.49e+00	0	23	104	1490026496	83	24689
2026-01-11 01:00:30.60	208.54	3.03	-59.2	-75.3	3.8	1.49e+00	0	23	104	1490026496	83	24518
2026-01-11 01:00:34.59	208.55	2.77	-59.2	-75.3	3.8	1.49e+00	0	23	104	1490026496	83	24470
2026-01-11 01:00:38.58	208.56	2.51	-59.2	-75.3	3.8	1.49e+00	0	23	104	1490026496	83	24426
2026-01-11 01:00:42.58	208.57	2.25	-59.2	-75.2	3.8	1.49e+00	0	23	104	1490026496	83	24387

#Closed at: 2026-01-11 01:00:46
#Recorded file [1490 MB]: D:/lorett/data/31004_260111_034619.dat