passes_logs/2026/01/11/R3.2S_Murmansk/R3.2S_Murmansk__20260111_001638_NOAA_21_JPSS-2_rec.log

#Pass ID: 20260111_001638_NOAA 21 (JPSS-2)
#Satellite: NOAA 21 (JPSS-2)
#Configuration: NOAA-21
#almurnet v.1.7.20251203
#Start time: 2026-01-11 00:16:39

#Version: 2.2.20231116
#Station: R3.2S_Murmansk
#Location: 33.079688 lon 68.888172 lat
#TLE: 1 54234U 22150A   26009.79679979  .00000100  00000+0  68070-4 0  9993
#TLE: 2 54234  98.7494 310.7596 0000833 322.2782  37.8335 14.19533646164071

#Time	Az	El	Level	Level2	SNR	BER	BlckErr	Temp	State	Recorded	gain1	gain2
2026-01-11 00:16:39.45	23.05	2.05	-57.1	-70.8	3.8	1.49e+00	0	21	0	0	80	17386
2026-01-11 00:16:43.46	23.11	2.30	-57.1	-70.7	3.8	1.49e+00	0	21	104	0	79	18110
2026-01-11 00:16:47.45	23.17	2.56	-57.1	-70.6	3.8	1.49e+00	0	21	104	0	79	18035
2026-01-11 00:16:51.46	23.23	2.82	-57.1	-70.4	3.8	1.49e+00	0	21	104	0	79	17624
2026-01-11 00:16:55.48	23.29	3.08	-57.0	-69.4	3.8	1.49e+00	0	21	104	0	79	15649
2026-01-11 00:16:59.47	23.35	3.35	-56.9	-67.6	3.9	1.47e+00	0	21	104	0	79	12710
2026-01-11 00:17:03.47	23.41	3.61	-56.9	-68.1	3.9	1.48e+00	0	21	104	0	79	13522
2026-01-11 00:17:07.50	23.48	3.89	-56.5	-64.3	5.5	4.39e-01	0	21	0	2097152	79	8694
2026-01-11 00:17:11.50	23.54	4.16	-55.3	-60.0	9.0	1.95e-02	0	21	0	14680064	77	5986
2026-01-11 00:17:15.52	23.61	4.43	-54.4	-58.2	10.5	1.30e-03	0	22	0	27262976	75	5414
2026-01-11 00:17:19.51	23.68	4.71	-54.3	-58.0	10.6	4.10e-04	0	21	0	39845888	74	5635
2026-01-11 00:17:23.52	23.74	4.99	-54.9	-59.4	9.3	6.90e-03	0	22	0	52428800	74	6618
2026-01-11 00:17:27.52	23.81	5.28	-54.8	-58.9	9.6	1.06e-01	0	22	0	65011712	76	5587
2026-01-11 00:17:31.52	23.88	5.57	-50.9	-52.8	14.0	0.00e+00	0	22	0	75497472	68	4364
2026-01-11 00:17:35.54	23.95	5.86	-50.5	-52.2	14.3	0.00e+00	0	22	0	88080384	67	4322
2026-01-11 00:17:39.53	24.02	6.15	-50.2	-51.9	14.5	0.00e+00	0	22	0	100663296	67	4176
2026-01-11 00:17:43.54	24.09	6.45	-50.4	-52.1	14.2	0.00e+00	0	22	0	113246208	66	4541
2026-01-11 00:17:47.54	24.17	6.75	-50.1	-51.7	14.5	0.00e+00	0	22	0	125829120	66	4321
2026-01-11 00:17:51.54	24.24	7.05	-50.2	-51.8	14.4	0.00e+00	0	22	0	137363456	66	4387
2026-01-11 00:17:55.54	24.32	7.36	-50.1	-51.7	14.5	0.00e+00	0	22	0	149946368	66	4310
2026-01-11 00:17:59.55	24.39	7.67	-50.1	-51.7	14.5	0.00e+00	0	22	0	162529280	66	4308
2026-01-11 00:18:03.55	24.47	7.99	-50.0	-51.6	14.5	0.00e+00	0	22	0	175112192	66	4289
2026-01-11 00:18:07.56	24.55	8.31	-49.7	-51.3	14.8	0.00e+00	0	22	0	187695104	66	4102
2026-01-11 00:18:11.57	24.63	8.63	-49.6	-51.1	14.7	0.00e+00	0	22	0	200278016	65	4290
2026-01-11 00:18:15.57	24.72	8.96	-49.5	-51.0	14.8	0.00e+00	0	22	0	212860928	65	4226
2026-01-11 00:18:19.56	24.80	9.29	-49.5	-50.9	14.9	0.00e+00	0	22	0	225443840	65	4186
2026-01-11 00:18:23.55	24.89	9.62	-49.3	-50.8	15.0	0.00e+00	0	22	0	238026752	65	4109
2026-01-11 00:18:27.55	24.97	9.96	-49.2	-50.6	14.9	0.00e+00	0	22	0	250609664	64	4266
2026-01-11 00:18:31.56	25.06	10.31	-49.4	-50.8	14.8	0.00e+00	0	22	0	263192576	64	4375
2026-01-11 00:18:35.57	25.15	10.66	-48.9	-50.3	15.0	0.00e+00	0	22	0	275775488	64	4135
2026-01-11 00:18:39.57	25.24	11.01	-49.0	-50.3	15.0	0.00e+00	0	22	0	288358400	64	4142
2026-01-11 00:18:43.58	25.34	11.38	-48.8	-50.2	15.1	0.00e+00	0	22	0	300941312	64	4057
2026-01-11 00:18:47.58	25.43	11.74	-48.8	-50.2	15.2	0.00e+00	0	22	0	313524224	64	4057
2026-01-11 00:18:51.59	25.53	12.11	-48.9	-50.3	14.9	0.00e+00	0	22	0	325058560	63	4363
2026-01-11 00:18:55.60	25.63	12.49	-48.7	-50.1	15.1	0.00e+00	0	22	0	337641472	63	4255
2026-01-11 00:18:59.60	25.73	12.87	-48.7	-50.0	15.1	0.00e+00	0	22	0	350224384	63	4225
2026-01-11 00:19:03.61	25.84	13.26	-48.7	-50.1	15.1	0.00e+00	0	22	0	362807296	63	4246
2026-01-11 00:19:07.61	25.94	13.66	-48.8	-50.1	15.0	0.00e+00	0	22	0	375390208	63	4277
2026-01-11 00:19:11.61	26.05	14.06	-48.6	-49.9	15.2	0.00e+00	0	22	0	387973120	63	4156
2026-01-11 00:19:15.60	26.17	14.47	-48.4	-49.7	15.3	0.00e+00	0	22	0	400556032	63	4082
2026-01-11 00:19:19.61	26.28	14.88	-48.5	-49.8	15.2	0.00e+00	0	22	0	413138944	63	4131
2026-01-11 00:19:23.60	26.40	15.30	-48.5	-49.8	15.2	0.00e+00	0	22	0	425721856	63	4139
2026-01-11 00:19:27.61	26.52	15.73	-48.5	-49.8	15.2	0.00e+00	0	22	0	438304768	63	4106
2026-01-11 00:19:31.62	26.64	16.17	-48.4	-49.7	15.3	0.00e+00	0	22	0	450887680	63	4063
2026-01-11 00:19:35.63	26.77	16.62	-48.3	-49.6	15.3	0.00e+00	0	22	0	463470592	63	4016
2026-01-11 00:19:39.64	26.89	17.07	-48.1	-49.3	15.3	0.00e+00	0	22	0	476053504	62	4143
2026-01-11 00:19:43.63	27.03	17.53	-48.2	-49.4	15.3	0.00e+00	0	23	0	488636416	62	4175
2026-01-11 00:19:47.65	27.16	18.01	-48.1	-49.3	15.3	0.00e+00	0	22	0	500170752	62	4144
2026-01-11 00:19:51.64	27.30	18.48	-48.2	-49.4	15.3	0.00e+00	0	22	0	512753664	62	4183
2026-01-11 00:19:55.64	27.45	18.97	-48.1	-49.3	15.3	0.00e+00	0	22	0	525336576	62	4137
2026-01-11 00:19:59.64	27.60	19.47	-48.1	-49.4	15.3	0.00e+00	0	22	0	537919488	62	4166
2026-01-11 00:20:03.64	27.75	19.98	-48.1	-49.3	15.3	0.00e+00	0	22	0	550502400	62	4126
2026-01-11 00:20:07.64	27.90	20.50	-48.1	-49.3	15.3	0.00e+00	0	22	0	563085312	62	4125
2026-01-11 00:20:11.64	28.07	21.03	-47.9	-49.2	15.4	0.00e+00	0	22	0	575668224	62	4054
2026-01-11 00:20:15.65	28.23	21.57	-47.7	-48.9	15.5	0.00e+00	0	23	0	588251136	62	3936
2026-01-11 00:20:19.64	28.41	22.12	-47.4	-48.6	15.5	0.00e+00	0	22	0	600834048	61	4005
2026-01-11 00:20:23.62	28.58	22.68	-47.1	-48.3	15.5	0.00e+00	0	22	0	613416960	60	4107
2026-01-11 00:20:27.63	28.77	23.26	-46.8	-48.0	15.6	0.00e+00	0	22	0	625999872	60	3972
2026-01-11 00:20:31.61	28.96	23.85	-46.8	-47.9	15.7	0.00e+00	0	22	0	638582784	60	3947
2026-01-11 00:20:35.61	29.15	24.45	-46.9	-48.0	15.6	0.00e+00	0	23	0	651165696	60	3987
2026-01-11 00:20:39.62	29.36	25.07	-46.9	-48.0	15.6	0.00e+00	0	22	0	662700032	60	4000
2026-01-11 00:20:43.61	29.57	25.70	-47.3	-48.5	15.4	0.00e+00	0	22	0	675282944	60	4208
2026-01-11 00:20:47.60	29.79	26.35	-47.8	-49.0	15.2	0.00e+00	0	23	0	687865856	60	4454
2026-01-11 00:20:51.59	30.01	27.01	-48.3	-49.6	15.1	0.00e+00	0	23	0	700448768	61	4516
2026-01-11 00:20:55.60	30.25	27.69	-48.6	-49.9	15.1	0.00e+00	0	22	0	713031680	62	4426
2026-01-11 00:20:59.60	30.50	28.39	-48.5	-49.8	15.1	0.00e+00	0	22	0	725614592	62	4352
2026-01-11 00:21:03.60	30.76	29.10	-48.3	-49.5	15.3	0.00e+00	0	23	0	738197504	62	4211
2026-01-11 00:21:07.59	31.02	29.83	-48.0	-49.2	15.4	0.00e+00	0	22	0	750780416	62	4085
2026-01-11 00:21:11.60	31.30	30.58	-48.2	-49.4	15.3	0.00e+00	0	22	0	763363328	62	4168
2026-01-11 00:21:15.59	31.59	31.34	-48.3	-49.6	15.2	0.00e+00	0	23	0	775946240	62	4260
2026-01-11 00:21:19.59	31.90	32.13	-48.0	-49.3	15.4	0.00e+00	0	22	0	788529152	62	4102
2026-01-11 00:21:23.59	32.22	32.94	-48.2	-49.4	15.3	0.00e+00	0	22	0	800063488	62	4173
2026-01-11 00:21:27.58	32.56	33.77	-48.8	-50.1	15.0	0.00e+00	0	23	0	812646400	62	4500
2026-01-11 00:21:31.58	32.91	34.62	-49.3	-50.7	14.9	0.00e+00	0	22	0	825229312	63	4547
2026-01-11 00:21:35.56	33.28	35.49	-49.5	-50.9	14.9	0.00e+00	0	23	0	837812224	64	4401
2026-01-11 00:21:39.56	33.67	36.39	-49.8	-51.2	14.7	0.00e+00	0	23	0	850395136	64	4596
2026-01-11 00:21:43.56	34.08	37.31	-50.1	-51.6	14.7	0.00e+00	0	23	0	862978048	65	4531
2026-01-11 00:21:47.57	34.52	38.26	-49.8	-51.3	14.8	0.00e+00	0	23	0	875560960	65	4352
2026-01-11 00:21:51.57	34.98	39.24	-49.9	-51.4	14.8	0.00e+00	0	23	0	888143872	65	4404
2026-01-11 00:21:55.56	35.46	40.23	-50.0	-51.5	14.7	0.00e+00	0	23	0	900726784	65	4454
2026-01-11 00:21:59.56	35.98	41.26	-50.0	-51.5	14.7	0.00e+00	0	23	0	913309696	65	4469
2026-01-11 00:22:03.55	36.53	42.31	-50.3	-51.7	14.6	0.00e+00	0	23	0	925892608	65	4591
2026-01-11 00:22:07.54	37.12	43.39	-50.3	-51.7	14.7	0.00e+00	0	23	0	937426944	66	4336
2026-01-11 00:22:11.53	37.75	44.49	-50.1	-51.5	14.8	0.00e+00	0	23	0	950009856	66	4223
2026-01-11 00:22:15.53	38.42	45.63	-50.9	-52.5	14.3	0.00e+00	0	23	0	962592768	66	4717
2026-01-11 00:22:19.50	39.14	46.78	-50.7	-52.2	14.6	0.00e+00	0	23	0	975175680	67	4340
2026-01-11 00:22:23.48	39.91	47.97	-50.6	-52.1	14.7	0.00e+00	0	23	0	987758592	67	4261
2026-01-11 00:22:27.48	40.75	49.19	-50.0	-51.3	15.0	0.00e+00	0	22	0	1000341504	66	4140
2026-01-11 00:22:31.49	41.66	50.44	-49.9	-51.3	15.0	0.00e+00	0	23	0	1012924416	66	4142
2026-01-11 00:22:35.49	42.65	51.72	-49.5	-50.8	15.1	0.00e+00	0	23	0	1025507328	65	4141
2026-01-11 00:22:39.48	43.72	53.02	-48.7	-49.9	15.2	0.00e+00	0	23	0	1038090240	63	4162
2026-01-11 00:22:43.49	44.90	54.35	-48.3	-49.5	15.3	0.00e+00	0	23	0	1050673152	62	4240
2026-01-11 00:22:47.50	46.19	55.70	-48.3	-49.5	15.3	0.00e+00	0	23	0	1062207488	62	4217
2026-01-11 00:22:51.49	47.60	57.06	-47.3	-48.4	15.6	0.00e+00	0	23	0	1074790400	61	3929
2026-01-11 00:22:55.48	49.16	58.43	-47.7	-48.8	15.4	0.00e+00	0	23	0	1087373312	61	4144
2026-01-11 00:22:59.47	50.88	59.82	-47.4	-48.5	15.5	0.00e+00	0	23	0	1099956224	61	4001
2026-01-11 00:23:03.49	52.82	61.23	-47.1	-48.3	15.6	0.00e+00	0	23	0	1112539136	60	4106
2026-01-11 00:23:07.49	54.98	62.62	-47.3	-48.4	15.5	0.00e+00	0	23	0	1125122048	60	4188
2026-01-11 00:23:11.47	57.38	64.00	-46.8	-47.9	15.7	0.00e+00	0	23	0	1137704960	60	3956
2026-01-11 00:23:15.46	60.09	65.37	-47.1	-48.2	15.6	0.00e+00	0	23	0	1150287872	60	4080
2026-01-11 00:23:19.45	63.15	66.70	-47.0	-48.1	15.6	0.00e+00	0	23	0	1162870784	60	4050
2026-01-11 00:23:23.43	66.61	67.98	-46.7	-47.8	15.7	0.00e+00	0	23	0	1175453696	60	3891
2026-01-11 00:23:27.42	70.52	69.20	-47.2	-48.4	15.5	0.00e+00	0	23	0	1188036608	59	4413
2026-01-11 00:23:31.41	74.94	70.33	-47.0	-48.2	15.5	0.00e+00	0	23	0	1199570944	59	4304
2026-01-11 00:23:35.41	79.91	71.36	-47.4	-48.6	15.4	0.00e+00	0	22	0	1212153856	59	4497
2026-01-11 00:23:39.42	85.48	72.25	-47.2	-48.4	15.4	0.00e+00	0	22	0	1224736768	60	4168
2026-01-11 00:23:43.41	91.57	72.97	-47.1	-48.2	15.6	0.00e+00	0	23	0	1237319680	60	4076
2026-01-11 00:23:47.43	98.19	73.50	-46.9	-48.0	15.5	0.00e+00	0	22	0	1249902592	59	4239
2026-01-11 00:23:51.42	105.13	73.80	-47.2	-48.4	15.5	0.00e+00	0	23	0	1262485504	59	4395
2026-01-11 00:23:55.42	112.25	73.87	-46.9	-48.0	15.6	0.00e+00	0	23	0	1275068416	59	4227
2026-01-11 00:23:59.42	119.33	73.71	-46.9	-48.0	15.6	0.00e+00	0	23	0	1287651328	60	3974
2026-01-11 00:24:03.42	126.16	73.32	-47.4	-48.6	15.4	0.00e+00	0	23	0	1300234240	60	4259
2026-01-11 00:24:07.40	132.55	72.72	-46.9	-48.1	15.6	0.00e+00	0	22	0	1312817152	59	4247
2026-01-11 00:24:11.40	138.45	71.93	-46.9	-48.1	15.6	0.00e+00	0	23	0	1325400064	59	4243
2026-01-11 00:24:15.41	143.80	70.98	-47.5	-48.7	15.4	0.00e+00	0	23	0	1337982976	60	4305
2026-01-11 00:24:19.39	148.55	69.92	-47.1	-48.2	15.6	0.00e+00	0	23	0	1349517312	60	4071
2026-01-11 00:24:23.38	152.77	68.74	-47.4	-48.6	15.6	0.00e+00	0	23	0	1362100224	61	4025
2026-01-11 00:24:27.38	156.52	67.49	-48.1	-49.4	15.2	0.00e+00	0	23	0	1374683136	61	4403
2026-01-11 00:24:31.37	159.82	66.19	-46.9	-48.0	15.6	0.00e+00	0	23	0	1387266048	59	4223
2026-01-11 00:24:35.36	162.75	64.84	-47.8	-49.0	15.3	0.00e+00	0	23	0	1399848960	61	4221
2026-01-11 00:24:39.35	165.34	63.46	-47.3	-48.5	15.4	0.00e+00	0	23	0	1412431872	59	4459
2026-01-11 00:24:43.35	167.65	62.07	-47.5	-48.6	15.5	0.00e+00	0	22	0	1425014784	61	4049
2026-01-11 00:24:47.36	169.72	60.66	-47.2	-48.3	15.4	0.00e+00	0	23	0	1437597696	60	4141
2026-01-11 00:24:51.36	171.57	59.26	-48.2	-49.4	15.3	0.00e+00	0	22	0	1450180608	62	4171
2026-01-11 00:24:55.35	173.23	57.88	-47.3	-48.5	15.5	0.00e+00	0	22	0	1462763520	60	4206
2026-01-11 00:24:59.33	174.73	56.50	-48.0	-49.2	15.3	0.00e+00	0	22	0	1474297856	62	4073
2026-01-11 00:25:03.32	176.09	55.15	-48.5	-49.7	15.2	0.00e+00	0	23	0	1486880768	62	4311
2026-01-11 00:25:07.30	177.33	53.81	-49.4	-50.7	14.9	0.00e+00	0	23	0	1499463680	63	4586
2026-01-11 00:25:11.31	178.46	52.49	-48.4	-49.5	15.5	0.00e+00	0	23	0	1512046592	63	3996
2026-01-11 00:25:15.29	179.50	51.20	-50.2	-51.7	14.6	0.00e+00	0	23	0	1524629504	65	4555
2026-01-11 00:25:19.28	180.45	49.93	-49.6	-50.9	15.0	0.00e+00	0	23	0	1537212416	65	4189
2026-01-11 00:25:23.27	181.33	48.69	-50.2	-51.7	14.7	0.00e+00	0	23	0	1549795328	65	4546
2026-01-11 00:25:27.25	182.14	47.49	-50.5	-52.0	14.6	0.00e+00	0	23	0	1562378240	66	4488
2026-01-11 00:25:31.26	182.90	46.30	-50.5	-52.0	14.6	0.00e+00	0	23	0	1574961152	66	4451
2026-01-11 00:25:35.24	183.60	45.14	-51.1	-52.7	14.3	0.00e+00	0	23	0	1586495488	67	4594
2026-01-11 00:25:39.22	184.26	44.02	-51.0	-52.6	14.4	0.00e+00	0	23	0	1599078400	67	4526
2026-01-11 00:25:43.21	184.87	42.92	-50.5	-52.0	14.7	0.00e+00	0	23	0	1611661312	67	4212
2026-01-11 00:25:47.23	185.44	41.84	-49.6	-51.0	15.0	0.00e+00	0	23	0	1624244224	65	4202
2026-01-11 00:25:51.19	185.98	40.81	-49.9	-51.3	14.8	0.00e+00	0	23	0	1636827136	65	4386
2026-01-11 00:25:55.18	186.48	39.79	-50.0	-51.5	14.9	0.00e+00	0	23	0	1649410048	66	4195
2026-01-11 00:25:59.18	186.96	38.80	-50.2	-51.7	14.8	0.00e+00	0	23	0	1661992960	66	4300
2026-01-11 00:26:03.17	187.41	37.83	-50.3	-51.8	14.7	0.00e+00	0	23	0	1674575872	66	4389
2026-01-11 00:26:07.16	187.84	36.90	-49.4	-50.7	15.1	0.00e+00	0	23	0	1687158784	65	4090
2026-01-11 00:26:11.15	188.24	35.98	-48.5	-49.7	15.3	0.00e+00	0	22	0	1698693120	63	4095
2026-01-11 00:26:15.15	188.62	35.09	-49.6	-51.0	14.8	0.00e+00	0	23	0	1711276032	64	4459
2026-01-11 00:26:19.15	188.98	34.22	-49.4	-50.7	15.0	0.00e+00	0	23	0	1723858944	64	4335
2026-01-11 00:26:23.12	189.33	33.38	-48.9	-50.2	15.3	0.00e+00	0	23	0	1736441856	64	4073
2026-01-11 00:26:27.10	189.65	32.56	-49.1	-50.4	15.1	0.00e+00	0	23	0	1749024768	64	4170
2026-01-11 00:26:31.07	189.97	31.76	-48.4	-49.6	15.3	0.00e+00	0	23	0	1761607680	63	4046
2026-01-11 00:26:35.04	190.26	30.98	-48.4	-49.6	15.3	0.00e+00	0	23	0	1774190592	63	4049
2026-01-11 00:26:39.04	190.55	30.22	-47.9	-49.1	15.4	0.00e+00	0	23	0	1786773504	62	4042
2026-01-11 00:26:43.03	190.82	29.48	-48.1	-49.4	15.3	0.00e+00	0	23	0	1798307840	62	4151
2026-01-11 00:26:47.02	191.09	28.75	-48.1	-49.3	15.3	0.00e+00	0	23	0	1810890752	62	4124
2026-01-11 00:26:51.03	191.34	28.04	-48.3	-49.5	15.3	0.00e+00	0	23	0	1823473664	62	4235
2026-01-11 00:26:55.02	191.58	27.35	-48.6	-49.9	15.1	0.00e+00	0	23	0	1836056576	62	4413
2026-01-11 00:26:59.01	191.81	26.68	-48.4	-49.6	15.2	0.00e+00	0	23	0	1848639488	62	4280
2026-01-11 00:27:03.01	192.04	26.02	-48.3	-49.6	15.2	0.00e+00	0	23	0	1861222400	62	4245
2026-01-11 00:27:07.01	192.25	25.38	-48.2	-49.4	15.3	0.00e+00	0	23	0	1873805312	62	4193
2026-01-11 00:27:11.01	192.46	24.75	-48.2	-49.5	15.2	0.00e+00	0	23	0	1886388224	62	4214
2026-01-11 00:27:15.01	192.66	24.13	-48.1	-49.3	15.3	0.00e+00	0	23	0	1898971136	62	4114
2026-01-11 00:27:19.00	192.85	23.53	-47.9	-49.2	15.4	0.00e+00	0	23	0	1911554048	62	4054
2026-01-11 00:27:22.99	193.04	22.95	-47.8	-49.0	15.4	0.00e+00	0	23	0	1924136960	62	3978
2026-01-11 00:27:26.95	193.22	22.38	-47.7	-48.9	15.5	0.00e+00	0	23	0	1935671296	62	3951
2026-01-11 00:27:30.95	193.39	21.82	-47.7	-48.9	15.5	0.00e+00	0	23	0	1948254208	62	3932
2026-01-11 00:27:34.93	193.56	21.27	-47.8	-49.0	15.4	0.00e+00	0	23	0	1960837120	62	3980
2026-01-11 00:27:38.92	193.72	20.73	-47.7	-48.9	15.5	0.00e+00	0	23	0	1973420032	62	3933
2026-01-11 00:27:42.89	193.88	20.21	-47.8	-49.0	15.4	0.00e+00	0	23	0	1986002944	62	3992
2026-01-11 00:27:46.89	194.03	19.69	-48.1	-49.3	15.3	0.00e+00	0	23	0	1998585856	62	4130
2026-01-11 00:27:50.89	194.18	19.19	-48.5	-49.8	15.1	0.00e+00	0	23	0	2011168768	62	4374
2026-01-11 00:27:54.88	194.33	18.69	-48.8	-50.2	14.9	0.00e+00	0	23	0	2023751680	62	4550
2026-01-11 00:27:58.87	194.47	18.20	-48.7	-50.1	15.0	0.00e+00	0	23	0	2036334592	62	4513
2026-01-11 00:28:02.87	194.60	17.73	-48.8	-50.2	14.9	0.00e+00	0	23	0	2047868928	62	4575
2026-01-11 00:28:06.85	194.74	17.26	-48.9	-50.2	15.0	0.00e+00	0	23	0	2060451840	63	4327
2026-01-11 00:28:10.85	194.87	16.80	-49.0	-50.3	14.9	0.00e+00	0	23	0	2073034752	63	4389
2026-01-11 00:28:14.84	194.99	16.35	-48.9	-50.3	15.0	0.00e+00	0	23	0	2085617664	63	4342
2026-01-11 00:28:18.83	195.11	15.91	-49.0	-50.4	14.9	0.00e+00	0	23	0	2098200576	63	4407
2026-01-11 00:28:22.81	195.23	15.47	-48.8	-50.2	15.0	0.00e+00	0	23	0	2110783488	63	4296
2026-01-11 00:28:26.80	195.35	15.05	-49.0	-50.4	14.9	0.00e+00	0	23	0	2123366400	63	4411
2026-01-11 00:28:30.79	195.46	14.63	-49.0	-50.4	14.9	0.00e+00	0	23	0	2135949312	63	4422
2026-01-11 00:28:34.77	195.57	14.21	-49.0	-50.4	14.9	0.00e+00	0	23	0	2148532224	63	4393
2026-01-11 00:28:38.78	195.68	13.81	-49.0	-50.3	14.9	0.00e+00	0	23	0	2160066560	63	4390
2026-01-11 00:28:42.78	195.79	13.41	-49.0	-50.3	14.9	0.00e+00	0	23	0	2172649472	63	4378
2026-01-11 00:28:46.77	195.89	13.01	-49.2	-50.6	14.8	0.00e+00	0	23	0	2185232384	63	4501
2026-01-11 00:28:50.77	195.99	12.63	-49.1	-50.4	14.8	0.00e+00	0	23	0	2197815296	63	4434
2026-01-11 00:28:54.78	196.09	12.24	-49.1	-50.5	14.8	0.00e+00	0	23	0	2210398208	63	4444
2026-01-11 00:28:58.76	196.19	11.87	-49.0	-50.4	14.8	0.00e+00	0	23	0	2222981120	63	4419
2026-01-11 00:29:02.77	196.28	11.50	-49.0	-50.4	14.8	0.00e+00	0	23	0	2235564032	63	4436
2026-01-11 00:29:06.77	196.38	11.13	-49.1	-50.6	14.8	0.00e+00	0	23	0	2248146944	63	4508
2026-01-11 00:29:10.75	196.47	10.77	-49.2	-50.6	14.8	0.00e+00	0	23	0	2260729856	63	4513
2026-01-11 00:29:14.75	196.56	10.42	-49.2	-50.6	14.7	0.00e+00	0	23	0	2273312768	63	4520
2026-01-11 00:29:18.76	196.64	10.07	-49.3	-50.8	14.6	0.00e+00	0	23	0	2285895680	63	4601
2026-01-11 00:29:22.75	196.73	9.73	-49.3	-50.8	14.6	0.00e+00	0	23	0	2297430016	63	4615
2026-01-11 00:29:26.74	196.81	9.39	-49.4	-50.9	14.7	0.00e+00	0	23	0	2310012928	64	4410
2026-01-11 00:29:30.71	196.90	9.05	-49.5	-51.0	14.6	0.00e+00	0	23	0	2322595840	64	4486
2026-01-11 00:29:34.70	196.98	8.72	-49.7	-51.2	14.5	0.00e+00	0	23	0	2335178752	64	4577
2026-01-11 00:29:38.69	197.05	8.40	-49.6	-51.2	14.5	0.00e+00	0	23	0	2347761664	64	4559
2026-01-11 00:29:42.68	197.13	8.08	-49.8	-51.4	14.4	0.00e+00	0	23	0	2360344576	64	4695
2026-01-11 00:29:46.67	197.21	7.76	-50.0	-51.6	14.4	0.00e+00	0	23	0	2372927488	65	4514
2026-01-11 00:29:50.66	197.28	7.44	-50.2	-51.8	14.2	0.00e+00	0	23	0	2385510400	65	4634
2026-01-11 00:29:54.66	197.36	7.13	-50.4	-52.1	14.1	0.00e+00	0	23	0	2398093312	65	4772
2026-01-11 00:29:58.67	197.43	6.83	-50.3	-52.0	14.2	0.00e+00	0	23	0	2410676224	66	4465
2026-01-11 00:30:02.66	197.50	6.52	-50.5	-52.2	14.1	0.00e+00	0	23	0	2422210560	66	4594
2026-01-11 00:30:06.64	197.57	6.22	-50.8	-52.6	13.8	0.00e+00	0	23	0	2434793472	66	4797
2026-01-11 00:30:10.65	197.64	5.93	-50.7	-52.5	13.9	0.00e+00	0	23	0	2447376384	66	4735
2026-01-11 00:30:14.65	197.71	5.63	-50.6	-52.5	13.9	0.00e+00	0	23	0	2459959296	66	4707
2026-01-11 00:30:18.64	197.78	5.34	-51.1	-53.0	13.6	0.00e+00	0	23	0	2472542208	67	4753
2026-01-11 00:30:22.65	197.84	5.06	-51.3	-53.3	13.4	0.00e+00	0	23	0	2485125120	67	4908
2026-01-11 00:30:26.64	197.91	4.77	-58.3	-72.0	3.8	1.49e+00	0	23	104	2488270848	81	18940
2026-01-11 00:30:30.62	197.97	4.49	-58.8	-72.6	3.8	1.49e+00	0	23	104	2488270848	82	18995
2026-01-11 00:30:34.61	198.03	4.22	-59.0	-72.8	3.8	1.49e+00	0	23	104	2488270848	83	18455
2026-01-11 00:30:38.60	198.09	3.94	-59.2	-73.0	3.8	1.49e+00	0	23	104	2488270848	83	18805
2026-01-11 00:30:42.57	198.16	3.67	-59.2	-73.1	3.8	1.49e+00	0	23	104	2488270848	83	18961
2026-01-11 00:30:46.58	198.22	3.40	-59.3	-73.1	3.8	1.49e+00	0	23	104	2488270848	83	19139
2026-01-11 00:30:50.58	198.28	3.13	-59.2	-73.1	3.8	1.49e+00	0	23	104	2488270848	83	18999
2026-01-11 00:30:54.58	198.33	2.87	-59.2	-73.0	3.8	1.49e+00	0	23	104	2488270848	83	18930
2026-01-11 00:30:58.57	198.39	2.61	-59.2	-73.0	3.8	1.49e+00	0	23	104	2488270848	83	18829
2026-01-11 00:31:02.55	198.45	2.35	-59.2	-73.0	3.8	1.49e+00	0	23	104	2488270848	83	18841
2026-01-11 00:31:06.55	198.50	2.09	-59.1	-72.9	3.8	1.49e+00	0	23	104	2488270848	83	18725

#Closed at: 2026-01-11 00:31:08
#Recorded file [2488 MB]: D:/lorett/data/31004_260111_031639.dat