passes_logs/2026/01/11/R3.2S_Murmansk/R3.2S_Murmansk__20260111_235748_NOAA_21_JPSS-2_rec.log

#Pass ID: 20260111_235748_NOAA 21 (JPSS-2)
#Satellite: NOAA 21 (JPSS-2)
#Configuration: NOAA-21
#almurnet v.1.7.20251203
#Start time: 2026-01-11 23:57:50

#Version: 2.2.20231116
#Station: R3.2S_Murmansk
#Location: 33.079688 lon 68.888172 lat
#TLE: 1 54234U 22150A   26011.55893233  .00000075  00000+0  56634-4 0  9995
#TLE: 2 54234  98.7494 312.5004 0000755 313.1908  46.9205 14.19534095164321

#Time	Az	El	Level	Level2	SNR	BER	BlckErr	Temp	State	Recorded	gain1	gain2
2026-01-11 23:57:50.77	22.11	2.12	-57.1	-70.0	3.8	1.49e+00	0	21	0	0	80	15829
2026-01-11 23:57:54.80	22.20	2.37	-57.1	-69.5	3.8	1.49e+00	0	21	104	0	79	15920
2026-01-11 23:57:58.83	22.30	2.63	-57.1	-70.0	3.8	1.49e+00	0	22	104	0	79	16805
2026-01-11 23:58:02.87	22.40	2.89	-57.0	-67.9	4.1	1.48e+00	0	21	104	0	79	13120
2026-01-11 23:58:06.90	22.50	3.15	-56.8	-66.6	4.4	1.40e+00	0	22	104	0	79	11320
2026-01-11 23:58:10.94	22.60	3.42	-56.7	-65.2	5.0	9.21e-01	0	22	0	1048576	79	9678
2026-01-11 23:58:14.97	22.70	3.69	-55.9	-61.8	7.5	1.02e-01	0	22	0	13631488	78	6929
2026-01-11 23:58:18.99	22.81	3.96	-54.2	-57.7	11.0	5.22e-04	0	22	0	26214400	75	5137
2026-01-11 23:58:23.04	22.91	4.23	-52.7	-55.2	12.6	7.00e-07	0	22	0	38797312	71	4842
2026-01-11 23:58:27.08	23.02	4.51	-52.4	-54.8	12.8	0.00e+00	0	22	0	51380224	70	4889
2026-01-11 23:58:31.11	23.13	4.78	-53.8	-57.1	11.2	3.96e-05	0	22	0	63963136	72	5657
2026-01-11 23:58:35.15	23.24	5.07	-55.0	-59.6	9.3	8.20e-03	0	22	0	76546048	75	6348
2026-01-11 23:58:39.18	23.35	5.35	-52.6	-55.0	12.9	7.00e-07	0	22	0	89128960	71	4718
2026-01-11 23:58:43.21	23.47	5.64	-51.6	-53.6	13.7	0.00e+00	0	22	0	101711872	69	4499
2026-01-11 23:58:47.25	23.58	5.93	-50.8	-52.6	14.2	0.00e+00	0	22	0	114294784	68	4265
2026-01-11 23:58:51.28	23.70	6.22	-50.6	-52.3	14.2	0.00e+00	0	22	0	126877696	67	4372
2026-01-11 23:58:55.32	23.82	6.52	-50.1	-51.8	14.4	0.00e+00	0	22	0	139460608	66	4344
2026-01-11 23:58:59.35	23.94	6.82	-50.4	-52.1	14.2	0.00e+00	0	22	0	152043520	66	4526
2026-01-11 23:59:03.39	24.07	7.12	-50.1	-51.7	14.5	0.00e+00	0	22	0	164626432	66	4302
2026-01-11 23:59:07.43	24.20	7.43	-50.2	-51.8	14.4	0.00e+00	0	23	0	177209344	66	4382
2026-01-11 23:59:11.46	24.33	7.74	-50.0	-51.6	14.5	0.00e+00	0	23	0	189792256	66	4283
2026-01-11 23:59:15.50	24.46	8.05	-50.1	-51.7	14.5	0.00e+00	0	23	0	202375168	66	4340
2026-01-11 23:59:19.53	24.59	8.37	-49.9	-51.5	14.6	0.00e+00	0	23	0	214958080	66	4220
2026-01-11 23:59:23.57	24.73	8.69	-49.9	-51.5	14.6	0.00e+00	0	23	0	227540992	66	4217
2026-01-11 23:59:27.60	24.87	9.02	-49.6	-51.1	14.7	0.00e+00	0	23	0	240123904	65	4280
2026-01-11 23:59:31.63	25.01	9.35	-49.6	-51.1	14.7	0.00e+00	0	23	0	252706816	65	4243
2026-01-11 23:59:35.66	25.16	9.69	-49.4	-50.8	14.9	0.00e+00	0	23	0	265289728	65	4120
2026-01-11 23:59:39.69	25.30	10.02	-49.3	-50.8	14.9	0.00e+00	0	23	0	277872640	65	4100
2026-01-11 23:59:43.73	25.45	10.37	-49.3	-50.7	15.0	0.00e+00	0	23	0	290455552	65	4069
2026-01-11 23:59:47.77	25.61	10.72	-49.2	-50.6	15.1	0.00e+00	0	23	0	303038464	65	4019
2026-01-11 23:59:51.80	25.77	11.07	-49.2	-50.6	14.8	0.00e+00	0	23	0	315621376	64	4283
2026-01-11 23:59:55.83	25.93	11.43	-48.9	-50.3	15.0	0.00e+00	0	23	0	328204288	64	4133
2026-01-11 23:59:59.87	26.09	11.79	-48.9	-50.3	15.0	0.00e+00	0	23	0	340787200	64	4108
2026-01-12 00:00:03.90	26.26	12.16	-48.8	-50.1	15.1	0.00e+00	0	23	0	353370112	64	4029
2026-01-12 00:00:07.94	26.43	12.54	-48.6	-50.0	15.1	0.00e+00	0	23	0	365953024	63	4203
2026-01-12 00:00:11.98	26.61	12.92	-48.7	-50.0	15.0	0.00e+00	0	23	0	379584512	63	4213
2026-01-12 00:00:16.01	26.79	13.30	-48.6	-49.9	15.0	0.00e+00	0	23	0	391118848	63	4189
2026-01-12 00:00:20.04	26.97	13.69	-48.7	-50.0	15.0	0.00e+00	0	23	0	404750336	63	4232
2026-01-12 00:00:24.08	27.16	14.09	-48.3	-49.6	15.2	0.00e+00	0	23	0	417333248	63	4034
2026-01-12 00:00:28.11	27.35	14.50	-48.4	-49.7	15.2	0.00e+00	0	23	0	429916160	63	4080
2026-01-12 00:00:32.14	27.55	14.91	-48.4	-49.7	15.2	0.00e+00	0	23	0	442499072	63	4092
2026-01-12 00:00:36.17	27.76	15.32	-48.4	-49.7	15.2	0.00e+00	0	23	0	455081984	63	4066
2026-01-12 00:00:40.21	27.96	15.75	-48.3	-49.6	15.2	0.00e+00	0	23	0	467664896	63	4036
2026-01-12 00:00:44.24	28.18	16.18	-48.2	-49.5	15.2	0.00e+00	0	23	0	480247808	62	4197
2026-01-12 00:00:48.27	28.40	16.62	-48.3	-49.5	15.1	0.00e+00	0	23	0	492830720	62	4237
2026-01-12 00:00:52.30	28.62	17.07	-48.4	-49.6	15.1	0.00e+00	0	23	0	505413632	62	4281
2026-01-12 00:00:56.33	28.86	17.52	-48.4	-49.7	15.1	0.00e+00	0	23	0	517996544	62	4319
2026-01-12 00:01:00.37	29.10	17.99	-48.3	-49.6	15.1	0.00e+00	0	23	0	530579456	62	4248
2026-01-12 00:01:04.41	29.34	18.46	-48.5	-49.7	15.1	0.00e+00	0	23	0	543162368	62	4334
2026-01-12 00:01:08.44	29.59	18.94	-48.5	-49.8	15.0	0.00e+00	0	23	0	555745280	62	4359
2026-01-12 00:01:12.48	29.86	19.43	-48.6	-49.9	15.0	0.00e+00	0	23	0	568328192	62	4395
2026-01-12 00:01:16.51	30.12	19.93	-48.5	-49.8	15.0	0.00e+00	0	23	0	580911104	62	4377
2026-01-12 00:01:20.54	30.40	20.43	-48.2	-49.5	15.2	0.00e+00	0	23	0	593494016	62	4207
2026-01-12 00:01:24.58	30.69	20.95	-47.9	-49.2	15.3	0.00e+00	0	23	0	606076928	62	4055
2026-01-12 00:01:28.61	30.98	21.48	-47.6	-48.8	15.3	0.00e+00	0	23	0	618659840	61	4129
2026-01-12 00:01:32.65	31.29	22.02	-47.2	-48.4	15.5	0.00e+00	0	23	0	631242752	61	3922
2026-01-12 00:01:36.67	31.60	22.57	-47.1	-48.3	15.4	0.00e+00	0	23	0	643825664	60	4099
2026-01-12 00:01:40.70	31.93	23.13	-47.1	-48.2	15.4	0.00e+00	0	23	0	656408576	60	4092
2026-01-12 00:01:44.73	32.26	23.70	-46.9	-48.0	15.5	0.00e+00	0	23	0	668991488	60	4004
2026-01-12 00:01:48.76	32.61	24.29	-47.1	-48.2	15.5	0.00e+00	0	23	0	681574400	60	4078
2026-01-12 00:01:52.80	32.97	24.89	-47.4	-48.5	15.3	0.00e+00	0	23	0	694157312	60	4232
2026-01-12 00:01:56.83	33.35	25.49	-47.6	-48.8	15.2	0.00e+00	0	23	0	706740224	60	4355
2026-01-12 00:02:00.86	33.74	26.12	-47.7	-48.9	15.2	0.00e+00	0	23	0	719323136	60	4441
2026-01-12 00:02:04.90	34.14	26.75	-48.2	-49.5	15.1	0.00e+00	0	23	0	731906048	61	4445
2026-01-12 00:02:08.94	34.56	27.41	-48.5	-49.8	15.0	0.00e+00	0	23	0	744488960	62	4373
2026-01-12 00:02:12.97	35.00	28.07	-48.8	-50.2	14.9	0.00e+00	0	23	0	757071872	62	4565
2026-01-12 00:02:17.00	35.45	28.75	-48.6	-49.9	15.0	0.00e+00	0	23	0	769654784	62	4403
2026-01-12 00:02:21.03	35.93	29.44	-48.4	-49.7	15.1	0.00e+00	0	23	0	782237696	62	4292
2026-01-12 00:02:25.07	36.42	30.15	-48.3	-49.5	15.2	0.00e+00	0	23	0	794820608	62	4219
2026-01-12 00:02:29.11	36.94	30.88	-48.2	-49.5	15.2	0.00e+00	0	23	0	807403520	62	4198
2026-01-12 00:02:33.14	37.48	31.62	-48.3	-49.5	15.2	0.00e+00	0	23	0	819986432	62	4233
2026-01-12 00:02:37.17	38.04	32.37	-48.1	-49.3	15.3	0.00e+00	0	23	0	832569344	62	4131
2026-01-12 00:02:41.21	38.63	33.15	-48.4	-49.7	15.1	0.00e+00	0	23	0	845152256	62	4295
2026-01-12 00:02:45.24	39.25	33.94	-48.8	-50.1	15.0	0.00e+00	0	23	0	857735168	62	4499
2026-01-12 00:02:49.28	39.90	34.75	-49.2	-50.5	14.9	0.00e+00	0	23	0	870318080	63	4486
2026-01-12 00:02:53.31	40.58	35.57	-49.5	-50.9	14.8	0.00e+00	0	23	0	882900992	64	4433
2026-01-12 00:02:57.35	41.29	36.42	-49.7	-51.1	14.7	0.00e+00	0	23	0	895483904	64	4529
2026-01-12 00:03:01.38	42.04	37.28	-49.9	-51.3	14.8	0.00e+00	0	23	0	908066816	65	4360
2026-01-12 00:03:05.42	42.84	38.15	-49.7	-51.1	14.9	0.00e+00	0	23	0	920649728	65	4257
2026-01-12 00:03:09.45	43.67	39.05	-50.1	-51.5	14.7	0.00e+00	0	23	0	933232640	65	4473
2026-01-12 00:03:13.48	44.56	39.96	-49.9	-51.4	14.7	0.00e+00	0	23	0	945815552	65	4398
2026-01-12 00:03:17.52	45.49	40.89	-50.6	-52.1	14.5	0.00e+00	0	23	0	958398464	66	4530
2026-01-12 00:03:21.55	46.48	41.83	-50.8	-52.3	14.5	0.00e+00	0	23	0	970981376	67	4380
2026-01-12 00:03:25.59	47.52	42.79	-50.9	-52.5	14.4	0.00e+00	0	23	0	984612864	67	4465
2026-01-12 00:03:29.61	48.63	43.76	-51.6	-53.3	14.2	0.00e+00	0	23	0	996147200	68	4614
2026-01-12 00:03:33.64	49.81	44.74	-50.5	-51.9	14.7	0.00e+00	0	23	0	1009778688	67	4176
2026-01-12 00:03:37.66	51.06	45.73	-50.8	-52.4	14.5	0.00e+00	0	23	0	1021313024	67	4420
2026-01-12 00:03:41.70	52.39	46.74	-50.2	-51.7	14.9	0.00e+00	0	23	0	1033895936	67	4062
2026-01-12 00:03:45.73	53.81	47.75	-50.6	-52.1	14.5	0.00e+00	0	23	0	1047527424	66	4520
2026-01-12 00:03:49.76	55.33	48.76	-50.8	-52.4	14.5	0.00e+00	0	23	0	1059061760	67	4401
2026-01-12 00:03:53.79	56.95	49.78	-49.7	-51.0	15.1	0.00e+00	0	23	0	1072693248	66	3999
2026-01-12 00:03:57.82	58.67	50.79	-49.9	-51.3	14.8	0.00e+00	0	23	0	1084227584	65	4361
2026-01-12 00:04:01.85	60.52	51.80	-49.8	-51.3	14.8	0.00e+00	0	23	0	1097859072	65	4347
2026-01-12 00:04:05.89	62.50	52.80	-49.8	-51.2	14.9	0.00e+00	0	23	0	1110441984	65	4297
2026-01-12 00:04:09.92	64.61	53.78	-49.0	-50.3	15.1	0.00e+00	0	23	0	1123024896	64	4111
2026-01-12 00:04:13.95	66.86	54.74	-49.1	-50.4	15.0	0.00e+00	0	23	0	1135607808	63	4406
2026-01-12 00:04:17.98	69.27	55.66	-48.7	-50.0	15.1	0.00e+00	0	23	0	1148190720	63	4219
2026-01-12 00:04:22.02	71.85	56.56	-48.6	-49.9	15.2	0.00e+00	0	23	0	1160773632	63	4164
2026-01-12 00:04:26.06	74.59	57.41	-47.9	-49.0	15.4	0.00e+00	0	23	0	1173356544	62	3989
2026-01-12 00:04:30.09	77.49	58.20	-48.0	-49.2	15.4	0.00e+00	0	23	0	1185939456	62	4054
2026-01-12 00:04:34.13	80.57	58.93	-48.3	-49.5	15.2	0.00e+00	0	23	0	1198522368	62	4217
2026-01-12 00:04:38.16	83.81	59.59	-47.9	-49.1	15.4	0.00e+00	0	23	0	1211105280	62	4039
2026-01-12 00:04:42.20	87.22	60.17	-47.8	-48.9	15.3	0.00e+00	0	23	0	1223688192	61	4193
2026-01-12 00:04:46.25	90.78	60.67	-47.7	-48.9	15.4	0.00e+00	0	23	0	1236271104	61	4161
2026-01-12 00:04:50.28	94.45	61.06	-47.5	-48.7	15.4	0.00e+00	0	23	0	1248854016	61	4072
2026-01-12 00:04:54.32	98.23	61.36	-47.6	-48.7	15.4	0.00e+00	0	23	0	1261436928	61	4089
2026-01-12 00:04:58.35	102.08	61.54	-47.4	-48.5	15.5	0.00e+00	0	23	0	1274019840	61	4001
2026-01-12 00:05:02.39	105.97	61.61	-47.8	-49.0	15.3	0.00e+00	0	23	0	1286602752	61	4196
2026-01-12 00:05:06.42	109.86	61.57	-47.8	-49.0	15.3	0.00e+00	0	23	0	1299185664	61	4203
2026-01-12 00:05:10.45	113.72	61.42	-47.0	-48.1	15.5	0.00e+00	0	23	0	1311768576	60	4024
2026-01-12 00:05:14.49	117.53	61.15	-47.7	-48.8	15.3	0.00e+00	0	23	0	1324351488	60	4377
2026-01-12 00:05:18.52	121.23	60.79	-47.6	-48.8	15.3	0.00e+00	0	23	0	1336934400	60	4345
2026-01-12 00:05:22.56	124.83	60.32	-47.6	-48.8	15.3	0.00e+00	0	23	0	1349517312	60	4373
2026-01-12 00:05:26.60	128.28	59.76	-47.4	-48.6	15.4	0.00e+00	0	23	0	1362100224	60	4243
2026-01-12 00:05:30.64	131.58	59.12	-47.6	-48.8	15.3	0.00e+00	0	23	0	1374683136	60	4347
2026-01-12 00:05:34.67	134.70	58.41	-47.6	-48.8	15.3	0.00e+00	0	23	0	1387266048	60	4342
2026-01-12 00:05:38.68	137.64	57.63	-48.4	-49.6	15.1	0.00e+00	0	23	0	1399848960	62	4286
2026-01-12 00:05:42.71	140.43	56.80	-48.5	-49.8	15.1	0.00e+00	0	23	0	1412431872	62	4346
2026-01-12 00:05:46.75	143.06	55.92	-48.5	-49.7	15.2	0.00e+00	0	23	0	1425014784	63	4074
2026-01-12 00:05:50.79	145.52	55.00	-49.7	-51.1	14.8	0.00e+00	0	23	0	1437597696	64	4542
2026-01-12 00:05:54.82	147.82	54.04	-49.0	-50.3	15.1	0.00e+00	0	23	0	1450180608	64	4115
2026-01-12 00:05:58.86	149.98	53.07	-49.6	-51.1	14.8	0.00e+00	0	23	0	1462763520	64	4497
2026-01-12 00:06:02.90	152.00	52.07	-48.9	-50.2	15.2	0.00e+00	0	23	0	1475346432	64	4068
2026-01-12 00:06:06.94	153.89	51.06	-50.9	-52.5	14.3	0.00e+00	0	23	0	1487929344	66	4715
2026-01-12 00:06:10.97	155.65	50.04	-49.2	-50.5	15.0	0.00e+00	0	23	0	1500512256	64	4209
2026-01-12 00:06:14.99	157.30	49.03	-50.8	-52.5	14.4	0.00e+00	0	23	0	1513095168	66	4707
2026-01-12 00:06:19.02	158.84	48.01	-50.3	-51.7	14.8	0.00e+00	0	23	0	1525678080	67	4085
2026-01-12 00:06:23.05	160.29	46.99	-50.0	-51.5	14.8	0.00e+00	0	23	0	1538260992	66	4196
2026-01-12 00:06:27.08	161.65	45.98	-51.6	-53.3	14.2	0.00e+00	0	23	0	1550843904	68	4620
2026-01-12 00:06:31.12	162.92	44.98	-51.3	-52.9	14.3	0.00e+00	0	23	0	1563426816	68	4437
2026-01-12 00:06:35.15	164.12	43.99	-51.1	-52.7	14.3	0.00e+00	0	23	0	1576009728	67	4592
2026-01-12 00:06:39.18	165.25	43.01	-50.7	-52.2	14.6	0.00e+00	0	23	0	1588592640	67	4299
2026-01-12 00:06:43.22	166.32	42.04	-49.7	-51.1	14.9	0.00e+00	0	23	0	1601175552	65	4255
2026-01-12 00:06:47.25	167.32	41.09	-50.4	-51.9	14.6	0.00e+00	0	23	0	1613758464	66	4430
2026-01-12 00:06:51.28	168.27	40.16	-50.5	-52.0	14.5	0.00e+00	0	23	0	1627389952	66	4453
2026-01-12 00:06:55.31	169.16	39.24	-50.6	-52.1	14.5	0.00e+00	0	23	0	1638924288	66	4532
2026-01-12 00:06:59.34	170.01	38.34	-50.8	-52.4	14.3	0.00e+00	0	23	0	1652555776	66	4681
2026-01-12 00:07:03.37	170.82	37.45	-50.6	-52.1	14.6	0.00e+00	0	23	0	1665138688	67	4269
2026-01-12 00:07:07.39	171.58	36.59	-49.1	-50.4	15.1	0.00e+00	0	23	0	1677721600	64	4170
2026-01-12 00:07:11.42	172.30	35.74	-49.5	-50.8	14.9	0.00e+00	0	23	0	1690304512	64	4388
2026-01-12 00:07:15.46	172.99	34.91	-49.9	-51.3	14.7	0.00e+00	0	23	0	1702887424	65	4384
2026-01-12 00:07:19.49	173.65	34.09	-49.7	-51.1	14.8	0.00e+00	0	23	0	1715470336	65	4267
2026-01-12 00:07:23.52	174.28	33.29	-48.8	-50.0	15.3	0.00e+00	0	23	0	1728053248	64	3990
2026-01-12 00:07:27.56	174.87	32.51	-48.3	-49.5	15.4	0.00e+00	0	23	0	1740636160	63	3970
2026-01-12 00:07:31.60	175.44	31.74	-48.0	-49.3	15.3	0.00e+00	0	23	0	1753219072	62	4101
2026-01-12 00:07:35.63	175.99	31.00	-48.4	-49.7	15.1	0.00e+00	0	23	0	1765801984	62	4311
2026-01-12 00:07:39.66	176.51	30.26	-48.6	-49.8	15.0	0.00e+00	0	23	0	1778384896	62	4391
2026-01-12 00:07:43.69	177.01	29.55	-48.0	-49.2	15.3	0.00e+00	0	23	0	1790967808	62	4085
2026-01-12 00:07:47.72	177.49	28.85	-47.9	-49.1	15.3	0.00e+00	0	23	0	1803550720	62	4027
2026-01-12 00:07:51.76	177.95	28.16	-48.1	-49.3	15.3	0.00e+00	0	23	0	1816133632	62	4121
2026-01-12 00:07:55.79	178.39	27.49	-47.9	-49.0	15.4	0.00e+00	0	23	0	1828716544	62	4001
2026-01-12 00:07:59.81	178.81	26.84	-47.8	-49.0	15.4	0.00e+00	0	23	0	1841299456	62	3979
2026-01-12 00:08:03.85	179.22	26.20	-48.1	-49.3	15.3	0.00e+00	0	23	0	1853882368	62	4121
2026-01-12 00:08:07.89	179.61	25.57	-48.2	-49.5	15.2	0.00e+00	0	23	0	1866465280	62	4208
2026-01-12 00:08:11.93	179.99	24.95	-48.1	-49.3	15.2	0.00e+00	0	23	0	1879048192	62	4127
2026-01-12 00:08:15.97	180.35	24.35	-48.0	-49.2	15.3	0.00e+00	0	23	0	1891631104	62	4087
2026-01-12 00:08:20.00	180.71	23.76	-47.7	-48.9	15.4	0.00e+00	0	23	0	1904214016	62	3930
2026-01-12 00:08:24.04	181.05	23.18	-47.7	-48.9	15.3	0.00e+00	0	23	0	1916796928	61	4156
2026-01-12 00:08:28.08	181.37	22.61	-47.7	-48.9	15.3	0.00e+00	0	23	0	1929379840	61	4169
2026-01-12 00:08:32.11	181.69	22.06	-47.8	-49.1	15.2	0.00e+00	0	23	0	1941962752	61	4247
2026-01-12 00:08:36.15	182.00	21.51	-48.2	-49.4	15.0	0.00e+00	0	23	0	1954545664	61	4436
2026-01-12 00:08:40.16	182.29	20.98	-48.4	-49.6	15.0	0.00e+00	0	23	0	1967128576	61	4543
2026-01-12 00:08:44.20	182.58	20.46	-48.2	-49.4	15.0	0.00e+00	0	23	0	1979711488	61	4429
2026-01-12 00:08:48.23	182.86	19.95	-48.0	-49.2	15.1	0.00e+00	0	23	0	1992294400	61	4327
2026-01-12 00:08:52.27	183.12	19.44	-48.0	-49.2	15.1	0.00e+00	0	23	0	2004877312	61	4316
2026-01-12 00:08:56.30	183.39	18.95	-48.3	-49.5	15.0	0.00e+00	0	23	0	2017460224	61	4493
2026-01-12 00:09:00.33	183.64	18.46	-48.4	-49.7	15.0	0.00e+00	0	23	0	2030043136	62	4335
2026-01-12 00:09:04.37	183.89	17.99	-48.5	-49.8	15.0	0.00e+00	0	23	0	2042626048	62	4345
2026-01-12 00:09:08.41	184.12	17.52	-48.5	-49.9	15.0	0.00e+00	0	23	0	2055208960	62	4401
2026-01-12 00:09:12.44	184.36	17.06	-48.6	-49.9	15.0	0.00e+00	0	23	0	2067791872	62	4418
2026-01-12 00:09:16.48	184.58	16.61	-48.6	-49.9	15.0	0.00e+00	0	23	0	2080374784	62	4413
2026-01-12 00:09:20.51	184.80	16.17	-48.9	-50.3	14.8	0.00e+00	0	23	0	2092957696	62	4612
2026-01-12 00:09:24.54	185.02	15.73	-48.6	-49.9	15.1	0.00e+00	0	23	0	2105540608	63	4148
2026-01-12 00:09:28.57	185.22	15.31	-48.7	-50.1	15.0	0.00e+00	0	23	0	2118123520	63	4247
2026-01-12 00:09:32.51	185.42	14.90	-48.8	-50.1	15.0	0.00e+00	0	23	0	2130706432	63	4266
2026-01-12 00:09:36.55	185.62	14.48	-48.8	-50.2	14.9	0.00e+00	0	23	0	2143289344	63	4306
2026-01-12 00:09:40.58	185.81	14.07	-48.9	-50.3	14.9	0.00e+00	0	23	0	2155872256	63	4349
2026-01-12 00:09:44.62	186.00	13.67	-49.1	-50.5	14.8	0.00e+00	0	23	0	2168455168	63	4442
2026-01-12 00:09:48.65	186.19	13.28	-48.7	-50.1	15.0	0.00e+00	0	23	0	2181038080	63	4244
2026-01-12 00:09:52.69	186.36	12.89	-48.8	-50.1	15.0	0.00e+00	0	23	0	2193620992	63	4273
2026-01-12 00:09:56.72	186.54	12.51	-48.8	-50.1	14.9	0.00e+00	0	23	0	2206203904	63	4289
2026-01-12 00:10:00.76	186.71	12.13	-48.9	-50.3	14.9	0.00e+00	0	23	0	2218786816	63	4347
2026-01-12 00:10:04.80	186.88	11.76	-48.8	-50.2	14.9	0.00e+00	0	23	0	2231369728	63	4294
2026-01-12 00:10:08.83	187.04	11.39	-49.0	-50.4	14.8	0.00e+00	0	23	0	2243952640	63	4397
2026-01-12 00:10:12.86	187.20	11.03	-49.1	-50.5	14.7	0.00e+00	0	23	0	2256535552	63	4450
2026-01-12 00:10:16.90	187.36	10.67	-49.3	-50.7	14.6	0.00e+00	0	23	0	2269118464	63	4569
2026-01-12 00:10:20.93	187.51	10.32	-49.4	-50.8	14.7	0.00e+00	0	23	0	2281701376	64	4372
2026-01-12 00:10:24.97	187.66	9.98	-49.5	-51.0	14.6	0.00e+00	0	23	0	2294284288	64	4457
2026-01-12 00:10:29.00	187.80	9.63	-49.8	-51.4	14.4	0.00e+00	0	23	0	2306867200	64	4652
2026-01-12 00:10:33.04	187.95	9.30	-49.8	-51.3	14.4	0.00e+00	0	23	0	2319450112	64	4645
2026-01-12 00:10:37.07	188.09	8.96	-49.9	-51.5	14.4	0.00e+00	0	23	0	2332033024	65	4480
2026-01-12 00:10:41.10	188.23	8.64	-50.0	-51.6	14.3	0.00e+00	0	23	0	2344615936	65	4512
2026-01-12 00:10:45.14	188.36	8.31	-49.9	-51.5	14.4	0.00e+00	0	23	0	2357198848	65	4461
2026-01-12 00:10:49.18	188.49	7.99	-50.2	-51.8	14.2	0.00e+00	0	23	0	2369781760	65	4633
2026-01-12 00:10:53.21	188.62	7.67	-50.0	-51.7	14.3	0.00e+00	0	23	0	2382364672	65	4550
2026-01-12 00:10:57.25	188.75	7.36	-50.2	-51.8	14.2	0.00e+00	0	23	0	2394947584	65	4624
2026-01-12 00:11:01.28	188.87	7.05	-50.2	-51.9	14.1	0.00e+00	0	23	0	2407530496	65	4657
2026-01-12 00:11:05.32	189.00	6.75	-50.5	-52.2	14.1	0.00e+00	0	23	0	2420113408	66	4570
2026-01-12 00:11:09.35	189.12	6.45	-50.4	-52.1	14.1	0.00e+00	0	23	0	2432696320	66	4528
2026-01-12 00:11:13.39	189.24	6.15	-50.7	-52.5	13.9	0.00e+00	0	23	0	2445279232	66	4714
2026-01-12 00:11:17.42	189.35	5.85	-50.6	-52.4	13.9	0.00e+00	0	23	0	2458910720	66	4653
2026-01-12 00:11:21.46	189.47	5.56	-50.9	-52.7	13.7	0.00e+00	0	23	0	2470445056	66	4856
2026-01-12 00:11:25.50	189.58	5.27	-51.0	-52.8	13.7	0.00e+00	0	23	0	2484076544	67	4650
2026-01-12 00:11:29.53	189.69	4.99	-53.8	-57.1	11.6	0.00e+00	0	23	0	2496659456	72	5662
2026-01-12 00:11:33.57	189.80	4.70	-58.6	-72.4	3.8	1.49e+00	0	23	104	2496659456	82	18531
2026-01-12 00:11:37.60	189.90	4.42	-58.9	-72.7	3.8	1.49e+00	0	23	104	2496659456	82	19332
2026-01-12 00:11:41.63	190.01	4.15	-59.1	-72.9	3.8	1.49e+00	0	23	104	2496659456	83	18725
2026-01-12 00:11:45.66	190.11	3.87	-59.2	-73.1	3.8	1.49e+00	0	23	104	2496659456	83	18999
2026-01-12 00:11:49.69	190.21	3.60	-59.3	-73.1	3.8	1.49e+00	0	23	104	2496659456	83	19154
2026-01-12 00:11:53.73	190.31	3.33	-59.3	-73.2	3.8	1.49e+00	0	23	104	2496659456	83	19180
2026-01-12 00:11:57.77	190.41	3.06	-59.3	-73.1	3.8	1.49e+00	0	23	104	2496659456	83	19038
2026-01-12 00:12:01.80	190.51	2.80	-59.2	-73.1	3.8	1.49e+00	0	23	104	2496659456	83	18992
2026-01-12 00:12:05.84	190.60	2.54	-59.2	-73.1	3.8	1.49e+00	0	23	104	2496659456	83	18960
2026-01-12 00:12:09.88	190.70	2.28	-59.2	-73.0	3.8	1.49e+00	0	23	104	2496659456	83	18863
2026-01-12 00:12:13.91	190.79	2.02	-59.2	-73.0	3.8	1.49e+00	0	23	104	2496659456	83	18843

#Closed at: 2026-01-12 00:12:14
#Recorded file [2496 MB]: D:/lorett/data/31004_260112_025750.dat