passes_logs/2026/01/11/R3.2S_Murmansk/R3.2S_Murmansk__20260111_122635_SUOMI_NPP_rec.log

#Pass ID: 20260111_122635_SUOMI NPP
#Satellite: SUOMI NPP
#Configuration: NPP
#almurnet v.1.7.20251203
#Start time: 2026-01-11 12:26:36

#Version: 2.2.20231116
#Station: R3.2S_Murmansk
#Location: 33.079688 lon 68.888172 lat
#TLE: 1 37849U 11061A   26010.94533966  .00000106  00000+0  71276-4 0  9997
#TLE: 2 37849  98.7807 313.0290 0002520  70.6146 289.5303 14.19524339736134

#Time	Az	El	Level	Level2	SNR	BER	BlckErr	Temp	State	Recorded	gain1	gain2
2026-01-11 12:26:36.74	224.80	2.08	-57.5	-73.5	3.8	1.49e+00	0	21	0	0	81	22424
2026-01-11 12:26:39.75	225.05	2.23	-57.4	-73.5	3.8	1.49e+00	0	21	104	0	79	24988
2026-01-11 12:26:42.78	225.31	2.39	-57.4	-73.4	3.8	1.49e+00	0	21	104	0	80	23513
2026-01-11 12:26:45.79	225.57	2.54	-57.4	-73.4	3.8	1.49e+00	0	21	104	0	80	23480
2026-01-11 12:26:48.82	225.83	2.70	-57.4	-73.4	3.8	1.49e+00	0	22	104	0	80	23449
2026-01-11 12:26:51.84	226.09	2.86	-57.4	-73.4	3.8	1.49e+00	0	21	104	0	80	23353
2026-01-11 12:26:54.86	226.36	3.02	-57.4	-73.4	3.8	1.49e+00	0	21	104	0	80	23517
2026-01-11 12:26:57.89	226.63	3.17	-57.4	-73.4	3.8	1.49e+00	0	22	104	0	80	23393
2026-01-11 12:27:00.92	226.90	3.33	-57.4	-73.4	3.8	1.49e+00	0	22	104	0	80	23329
2026-01-11 12:27:03.95	227.17	3.49	-57.4	-73.4	3.8	1.49e+00	0	22	104	0	80	23533
2026-01-11 12:27:06.98	227.45	3.65	-57.4	-73.4	3.8	1.49e+00	0	22	104	0	80	23495
2026-01-11 12:27:10.00	227.73	3.81	-57.4	-73.3	3.8	1.49e+00	0	22	104	0	80	23277
2026-01-11 12:27:13.02	228.01	3.97	-57.4	-73.2	3.8	1.49e+00	0	22	104	0	80	22942
2026-01-11 12:27:16.05	228.30	4.13	-57.4	-73.1	3.8	1.49e+00	0	22	104	0	80	22752
2026-01-11 12:27:19.07	228.59	4.29	-57.4	-73.1	3.8	1.49e+00	0	22	104	0	80	22621
2026-01-11 12:27:22.09	228.88	4.45	-57.4	-73.3	3.8	1.49e+00	0	22	104	0	80	23181
2026-01-11 12:27:25.12	229.17	4.61	-57.3	-70.4	4.1	1.48e+00	0	22	0	0	80	16530
2026-01-11 12:27:28.15	229.47	4.77	-57.1	-67.9	4.9	8.39e-01	0	22	0	3145728	80	12480
2026-01-11 12:27:31.17	229.77	4.94	-56.4	-63.1	8.5	5.57e-02	0	22	0	8388608	79	7605
2026-01-11 12:27:34.19	230.08	5.10	-55.6	-60.7	10.6	5.49e-04	0	22	0	13631488	77	6471
2026-01-11 12:27:37.22	230.39	5.26	-56.6	-64.5	6.9	3.60e-01	0	22	0	19922944	78	9445
2026-01-11 12:27:40.25	230.70	5.42	-53.8	-56.8	13.4	0.00e+00	0	22	0	25165824	74	4888
2026-01-11 12:27:43.27	231.01	5.59	-53.6	-56.5	13.5	0.00e+00	0	22	0	31457280	73	5024
2026-01-11 12:27:46.30	231.33	5.75	-53.4	-56.2	13.7	0.00e+00	0	22	0	36700160	73	4866
2026-01-11 12:27:49.33	231.65	5.92	-53.4	-56.2	13.7	0.00e+00	0	22	0	41943040	73	4844
2026-01-11 12:27:52.35	231.98	6.08	-53.2	-55.9	14.0	0.00e+00	0	22	0	48234496	73	4659
2026-01-11 12:27:55.38	232.31	6.24	-53.2	-55.8	13.8	0.00e+00	0	22	0	53477376	72	4907
2026-01-11 12:27:58.40	232.64	6.41	-53.2	-55.8	13.9	0.00e+00	0	22	0	59768832	72	4903
2026-01-11 12:28:01.43	232.97	6.57	-53.4	-56.2	13.6	0.00e+00	0	22	0	65011712	72	5117
2026-01-11 12:28:04.45	233.31	6.74	-53.5	-56.2	13.6	0.00e+00	0	23	0	70254592	72	5156
2026-01-11 12:28:07.47	233.66	6.90	-53.4	-56.1	13.7	0.00e+00	0	22	0	76546048	72	5073
2026-01-11 12:28:10.49	234.00	7.07	-53.2	-55.8	13.9	0.00e+00	0	22	0	81788928	72	4893
2026-01-11 12:28:13.51	234.35	7.23	-52.8	-55.2	14.3	0.00e+00	0	22	0	88080384	72	4594
2026-01-11 12:28:16.53	234.71	7.40	-52.7	-55.0	14.2	0.00e+00	0	23	0	93323264	71	4749
2026-01-11 12:28:19.55	235.06	7.57	-52.5	-54.8	14.4	0.00e+00	0	23	0	98566144	71	4612
2026-01-11 12:28:22.57	235.42	7.73	-52.5	-54.8	14.4	0.00e+00	0	23	0	104857600	71	4635
2026-01-11 12:28:25.58	235.79	7.90	-52.4	-54.7	14.5	0.00e+00	0	23	0	110100480	71	4554
2026-01-11 12:28:28.60	236.16	8.06	-52.5	-54.8	14.4	0.00e+00	0	23	0	116391936	71	4624
2026-01-11 12:28:31.63	236.53	8.23	-52.6	-54.9	14.4	0.00e+00	0	23	0	121634816	71	4660
2026-01-11 12:28:34.65	236.91	8.40	-52.4	-54.6	14.6	0.00e+00	0	23	0	126877696	71	4532
2026-01-11 12:28:37.67	237.29	8.56	-52.5	-54.8	14.5	0.00e+00	0	23	0	133169152	71	4606
2026-01-11 12:28:40.69	237.68	8.73	-52.5	-54.8	14.4	0.00e+00	0	23	0	138412032	71	4614
2026-01-11 12:28:43.72	238.07	8.90	-52.6	-54.9	14.4	0.00e+00	0	23	0	144703488	71	4686
2026-01-11 12:28:46.75	238.47	9.06	-52.6	-54.9	14.4	0.00e+00	0	23	0	149946368	71	4655
2026-01-11 12:28:49.77	238.87	9.23	-52.5	-54.8	14.5	0.00e+00	0	23	0	155189248	71	4605
2026-01-11 12:28:52.79	239.27	9.40	-52.4	-54.6	14.6	0.00e+00	0	23	0	161480704	71	4516
2026-01-11 12:28:55.81	239.68	9.56	-52.1	-54.2	14.6	0.00e+00	0	23	0	166723584	70	4588
2026-01-11 12:28:58.83	240.09	9.73	-52.3	-54.4	14.5	0.00e+00	0	23	0	173015040	70	4687
2026-01-11 12:29:01.86	240.51	9.90	-52.3	-54.5	14.5	0.00e+00	0	23	0	178257920	70	4747
2026-01-11 12:29:04.88	240.93	10.06	-52.3	-54.5	14.5	0.00e+00	0	23	0	183500800	70	4715
2026-01-11 12:29:07.90	241.36	10.23	-52.3	-54.4	14.5	0.00e+00	0	23	0	189792256	70	4688
2026-01-11 12:29:10.92	241.79	10.39	-52.3	-54.5	14.5	0.00e+00	0	23	0	195035136	70	4735
2026-01-11 12:29:13.94	242.22	10.56	-52.2	-54.3	14.6	0.00e+00	0	23	0	201326592	70	4645
2026-01-11 12:29:16.97	242.66	10.72	-52.3	-54.5	14.5	0.00e+00	0	23	0	206569472	70	4730
2026-01-11 12:29:19.99	243.11	10.88	-52.5	-54.7	14.3	0.00e+00	0	23	0	212860928	70	4852
2026-01-11 12:29:23.02	243.56	11.05	-52.4	-54.6	14.4	0.00e+00	0	23	0	218103808	70	4804
2026-01-11 12:29:26.03	244.01	11.21	-52.2	-54.3	14.6	0.00e+00	0	23	0	223346688	70	4636
2026-01-11 12:29:29.06	244.48	11.37	-52.1	-54.2	14.7	0.00e+00	0	23	0	229638144	70	4547
2026-01-11 12:29:32.08	244.94	11.54	-52.1	-54.2	14.7	0.00e+00	0	23	0	234881024	70	4560
2026-01-11 12:29:35.11	245.41	11.70	-51.9	-54.0	14.8	0.00e+00	0	23	0	241172480	70	4445
2026-01-11 12:29:38.14	245.89	11.86	-51.5	-53.3	15.0	0.00e+00	0	23	0	246415360	69	4379
2026-01-11 12:29:41.16	246.37	12.02	-51.0	-52.8	15.1	0.00e+00	0	23	0	251658240	68	4352
2026-01-11 12:29:44.19	246.85	12.18	-51.4	-53.2	14.9	0.00e+00	0	23	0	257949696	68	4579
2026-01-11 12:29:47.21	247.34	12.34	-51.6	-53.6	14.7	0.00e+00	0	23	0	263192576	68	4779
2026-01-11 12:29:50.23	247.84	12.49	-51.7	-53.6	14.7	0.00e+00	0	23	0	269484032	68	4787
2026-01-11 12:29:53.26	248.34	12.65	-51.4	-53.3	14.9	0.00e+00	0	23	0	274726912	68	4622
2026-01-11 12:29:56.29	248.85	12.81	-51.3	-53.2	14.9	0.00e+00	0	23	0	279969792	68	4562
2026-01-11 12:29:59.32	249.36	12.96	-51.3	-53.1	14.9	0.00e+00	0	23	0	286261248	68	4543
2026-01-11 12:30:02.34	249.87	13.12	-51.3	-53.1	15.0	0.00e+00	0	23	0	291504128	68	4523
2026-01-11 12:30:05.36	250.39	13.27	-51.4	-53.3	14.9	0.00e+00	0	23	0	297795584	68	4600
2026-01-11 12:30:08.38	250.92	13.42	-51.5	-53.5	14.8	0.00e+00	0	23	0	303038464	68	4707
2026-01-11 12:30:11.41	251.45	13.57	-51.5	-53.3	14.8	0.00e+00	0	23	0	308281344	68	4646
2026-01-11 12:30:14.44	251.99	13.72	-51.5	-53.3	14.8	0.00e+00	0	23	0	314572800	68	4644
2026-01-11 12:30:17.47	252.53	13.86	-51.8	-53.7	14.6	0.00e+00	0	23	0	319815680	68	4863
2026-01-11 12:30:20.50	253.08	14.01	-51.9	-53.9	14.7	0.00e+00	0	23	0	326107136	69	4693
2026-01-11 12:30:23.53	253.64	14.15	-52.0	-54.0	14.7	0.00e+00	0	23	0	331350016	69	4737
2026-01-11 12:30:26.54	254.19	14.30	-52.2	-54.2	14.5	0.00e+00	0	23	0	337641472	69	4868
2026-01-11 12:30:29.56	254.75	14.44	-52.5	-54.6	14.5	0.00e+00	0	23	0	342884352	70	4799
2026-01-11 12:30:32.59	255.32	14.58	-52.4	-54.6	14.5	0.00e+00	0	23	0	348127232	70	4771
2026-01-11 12:30:35.61	255.89	14.71	-52.4	-54.5	14.6	0.00e+00	0	23	0	354418688	70	4717
2026-01-11 12:30:38.64	256.47	14.85	-52.1	-54.2	14.7	0.00e+00	0	23	0	359661568	70	4548
2026-01-11 12:30:41.67	257.06	14.98	-52.2	-54.3	14.7	0.00e+00	0	23	0	365953024	70	4608
2026-01-11 12:30:44.68	257.64	15.11	-52.5	-54.7	14.4	0.00e+00	0	23	0	371195904	70	4853
2026-01-11 12:30:47.71	258.24	15.24	-52.5	-54.7	14.4	0.00e+00	0	23	0	376438784	70	4819
2026-01-11 12:30:50.73	258.84	15.37	-52.1	-54.1	14.8	0.00e+00	0	23	0	382730240	70	4498
2026-01-11 12:30:53.75	259.44	15.49	-52.5	-54.6	14.5	0.00e+00	0	23	0	387973120	70	4812
2026-01-11 12:30:56.77	260.05	15.61	-52.7	-54.9	14.3	0.00e+00	0	23	0	394264576	70	4965
2026-01-11 12:30:59.80	260.66	15.73	-52.5	-54.7	14.5	0.00e+00	0	23	0	399507456	70	4817
2026-01-11 12:31:02.83	261.28	15.85	-53.1	-55.5	14.1	0.00e+00	0	23	0	404750336	71	4991
2026-01-11 12:31:05.85	261.90	15.97	-52.7	-54.9	14.5	0.00e+00	0	23	0	411041792	71	4657
2026-01-11 12:31:08.87	262.53	16.08	-52.4	-54.5	14.7	0.00e+00	0	23	0	416284672	71	4445
2026-01-11 12:31:11.90	263.16	16.19	-52.6	-54.8	14.6	0.00e+00	0	23	0	422576128	71	4615
2026-01-11 12:31:14.92	263.79	16.29	-52.5	-54.6	14.7	0.00e+00	0	23	0	427819008	71	4510
2026-01-11 12:31:17.95	264.43	16.40	-51.8	-53.7	15.0	0.00e+00	0	23	0	433061888	70	4293
2026-01-11 12:31:20.97	265.08	16.50	-52.0	-54.0	14.8	0.00e+00	0	23	0	439353344	70	4469
2026-01-11 12:31:24.00	265.73	16.60	-52.0	-53.9	14.9	0.00e+00	0	23	0	444596224	70	4421
2026-01-11 12:31:27.01	266.38	16.69	-51.8	-53.7	15.0	0.00e+00	0	23	0	450887680	70	4304
2026-01-11 12:31:30.03	267.03	16.78	-52.0	-54.0	14.9	0.00e+00	0	23	0	456130560	70	4462
2026-01-11 12:31:33.05	267.69	16.87	-51.6	-53.4	15.0	0.00e+00	0	23	0	461373440	69	4406
2026-01-11 12:31:36.07	268.35	16.95	-51.7	-53.6	15.0	0.00e+00	0	23	0	467664896	69	4502
2026-01-11 12:31:39.09	269.02	17.03	-52.4	-54.5	14.4	0.00e+00	0	23	0	472907776	69	4987
2026-01-11 12:31:42.11	269.69	17.11	-52.5	-54.6	14.5	0.00e+00	0	23	0	479199232	70	4809
2026-01-11 12:31:45.12	270.36	17.18	-52.1	-54.1	14.8	0.00e+00	0	23	0	484442112	70	4530
2026-01-11 12:31:48.15	271.04	17.26	-51.4	-53.2	15.2	0.00e+00	0	23	0	489684992	69	4303
2026-01-11 12:31:51.17	271.71	17.32	-51.2	-52.9	15.1	0.00e+00	0	23	0	495976448	68	4414
2026-01-11 12:31:54.19	272.40	17.39	-52.0	-53.9	14.7	0.00e+00	0	23	0	501219328	69	4685
2026-01-11 12:31:57.21	273.08	17.45	-51.6	-53.5	15.0	0.00e+00	0	23	0	507510784	69	4449
2026-01-11 12:32:00.24	273.77	17.50	-51.8	-53.8	14.8	0.00e+00	0	23	0	512753664	69	4604
2026-01-11 12:32:03.26	274.46	17.55	-52.1	-54.1	14.6	0.00e+00	0	23	0	517996544	69	4814
2026-01-11 12:32:06.28	275.15	17.60	-51.5	-53.3	15.1	0.00e+00	0	23	0	524288000	69	4371
2026-01-11 12:32:09.31	275.85	17.64	-52.1	-54.1	14.6	0.00e+00	0	23	0	529530880	69	4763
2026-01-11 12:32:12.33	276.54	17.68	-51.7	-53.5	15.0	0.00e+00	0	23	0	535822336	69	4493
2026-01-11 12:32:15.36	277.24	17.72	-52.0	-53.9	14.8	0.00e+00	0	23	0	541065216	69	4683
2026-01-11 12:32:18.38	277.94	17.75	-53.0	-55.2	14.3	0.00e+00	0	23	0	546308096	71	4854
2026-01-11 12:32:21.40	278.64	17.78	-53.0	-55.3	14.3	0.00e+00	0	23	0	552599552	71	4886
2026-01-11 12:32:24.43	279.34	17.80	-53.2	-55.6	14.1	0.00e+00	0	23	0	557842432	71	5068
2026-01-11 12:32:27.45	280.04	17.82	-52.9	-55.1	14.4	0.00e+00	0	23	0	564133888	71	4806
2026-01-11 12:32:30.47	280.75	17.84	-52.5	-54.5	14.7	0.00e+00	0	23	0	569376768	71	4465
2026-01-11 12:32:33.49	281.45	17.85	-52.4	-54.4	14.8	0.00e+00	0	23	0	575668224	71	4433
2026-01-11 12:32:36.51	282.15	17.86	-52.1	-54.1	14.8	0.00e+00	0	23	0	580911104	70	4501
2026-01-11 12:32:39.53	282.86	17.86	-52.5	-54.6	14.5	0.00e+00	0	23	0	586153984	70	4780
2026-01-11 12:32:42.56	283.56	17.86	-52.5	-54.6	14.6	0.00e+00	0	23	0	592445440	70	4774
2026-01-11 12:32:45.58	284.27	17.86	-52.5	-54.6	14.6	0.00e+00	0	23	0	597688320	70	4789
2026-01-11 12:32:48.60	284.97	17.85	-52.6	-54.8	14.5	0.00e+00	0	23	0	603979776	70	4875
2026-01-11 12:32:51.63	285.67	17.83	-52.2	-54.1	14.8	0.00e+00	0	23	0	609222656	70	4536
2026-01-11 12:32:54.65	286.38	17.82	-51.9	-53.8	15.0	0.00e+00	0	23	0	614465536	70	4365
2026-01-11 12:32:57.67	287.08	17.79	-52.2	-54.2	14.8	0.00e+00	0	23	0	620756992	70	4583
2026-01-11 12:33:00.69	287.78	17.77	-52.4	-54.5	14.6	0.00e+00	0	23	0	625999872	70	4742
2026-01-11 12:33:03.72	288.48	17.74	-52.8	-55.0	14.3	0.00e+00	0	23	0	632291328	70	5007
2026-01-11 12:33:06.74	289.18	17.70	-53.0	-55.2	14.3	0.00e+00	0	23	0	637534208	71	4848
2026-01-11 12:33:09.77	289.87	17.67	-52.9	-55.1	14.4	0.00e+00	0	23	0	642777088	71	4791
2026-01-11 12:33:12.79	290.57	17.62	-52.8	-55.0	14.5	0.00e+00	0	23	0	649068544	71	4712
2026-01-11 12:33:15.82	291.26	17.58	-52.3	-54.4	14.9	0.00e+00	0	23	0	654311424	71	4394
2026-01-11 12:33:18.84	291.95	17.53	-51.7	-53.5	15.0	0.00e+00	0	23	0	660602880	69	4459
2026-01-11 12:33:21.86	292.64	17.48	-51.3	-53.0	15.3	0.00e+00	0	23	0	665845760	69	4228
2026-01-11 12:33:24.89	293.32	17.42	-51.8	-53.6	15.0	0.00e+00	0	23	0	671088640	69	4524
2026-01-11 12:33:27.91	294.01	17.36	-52.2	-54.2	14.6	0.00e+00	0	23	0	677380096	69	4828
2026-01-11 12:33:30.93	294.68	17.29	-52.5	-54.6	14.6	0.00e+00	0	23	0	682622976	70	4766
2026-01-11 12:33:33.96	295.36	17.22	-52.3	-54.3	14.7	0.00e+00	0	23	0	688914432	70	4639
2026-01-11 12:33:36.98	296.04	17.15	-51.8	-53.6	15.1	0.00e+00	0	23	0	694157312	70	4274
2026-01-11 12:33:40.00	296.71	17.08	-51.6	-53.5	15.0	0.00e+00	0	23	0	699400192	69	4447
2026-01-11 12:33:43.03	297.38	17.00	-51.7	-53.5	15.0	0.00e+00	0	23	0	705691648	69	4483
2026-01-11 12:33:46.05	298.04	16.91	-51.8	-53.7	14.9	0.00e+00	0	23	0	710934528	69	4584
2026-01-11 12:33:49.07	298.70	16.83	-52.0	-53.9	14.8	0.00e+00	0	23	0	717225984	69	4696
2026-01-11 12:33:52.08	299.35	16.74	-51.5	-53.3	15.1	0.00e+00	0	23	0	722468864	69	4346
2026-01-11 12:33:55.10	300.00	16.65	-51.6	-53.5	15.0	0.00e+00	0	23	0	727711744	69	4453
2026-01-11 12:33:58.12	300.65	16.55	-51.6	-53.4	15.1	0.00e+00	0	23	0	734003200	69	4397
2026-01-11 12:34:01.14	301.29	16.45	-51.1	-52.8	15.1	0.00e+00	0	23	0	739246080	68	4381
2026-01-11 12:34:04.16	301.93	16.35	-51.0	-52.7	15.2	0.00e+00	0	23	0	745537536	68	4317
2026-01-11 12:34:07.18	302.57	16.25	-51.2	-53.0	15.0	0.00e+00	0	23	0	750780416	68	4451
2026-01-11 12:34:10.21	303.20	16.14	-51.2	-52.9	15.1	0.00e+00	0	23	0	756023296	68	4413
2026-01-11 12:34:13.23	303.83	16.03	-51.1	-52.8	15.1	0.00e+00	0	23	0	762314752	68	4387
2026-01-11 12:34:16.25	304.45	15.92	-51.3	-53.0	15.0	0.00e+00	0	23	0	767557632	68	4472
2026-01-11 12:34:19.27	305.07	15.80	-51.5	-53.4	14.8	0.00e+00	0	23	0	773849088	68	4676
2026-01-11 12:34:22.29	305.68	15.69	-51.4	-53.2	14.9	0.00e+00	0	23	0	779091968	68	4572
2026-01-11 12:34:25.32	306.29	15.57	-51.0	-52.7	15.2	0.00e+00	0	23	0	784334848	68	4326
2026-01-11 12:34:28.33	306.89	15.44	-51.2	-52.9	15.1	0.00e+00	0	23	0	790626304	68	4429
2026-01-11 12:34:31.36	307.49	15.32	-51.4	-53.2	14.9	0.00e+00	0	23	0	795869184	68	4580
2026-01-11 12:34:34.39	308.09	15.19	-51.3	-53.1	15.0	0.00e+00	0	23	0	802160640	68	4494
2026-01-11 12:34:37.39	308.67	15.06	-51.7	-53.6	14.7	0.00e+00	0	23	0	807403520	68	4799
2026-01-11 12:34:40.42	309.26	14.93	-52.7	-54.9	14.4	0.00e+00	0	23	0	812646400	70	4930
2026-01-11 12:34:43.44	309.83	14.80	-52.3	-54.3	14.7	0.00e+00	0	23	0	818937856	70	4642
2026-01-11 12:34:46.47	310.41	14.66	-51.7	-53.6	15.1	0.00e+00	0	23	0	824180736	70	4263
2026-01-11 12:34:49.50	310.98	14.53	-51.7	-53.6	14.9	0.00e+00	0	23	0	830472192	69	4502
2026-01-11 12:34:52.52	311.54	14.39	-52.0	-54.0	14.7	0.00e+00	0	23	0	835715072	69	4718
2026-01-11 12:34:55.55	312.10	14.25	-52.4	-54.5	14.4	0.00e+00	0	23	0	842006528	69	5014
2026-01-11 12:34:58.57	312.65	14.10	-52.6	-54.8	14.4	0.00e+00	0	23	0	847249408	70	4916
2026-01-11 12:35:01.59	313.20	13.96	-52.8	-55.1	14.3	0.00e+00	0	23	0	852492288	71	4779
2026-01-11 12:35:04.61	313.74	13.82	-52.8	-55.1	14.4	0.00e+00	0	23	0	858783744	71	4762
2026-01-11 12:35:07.64	314.28	13.67	-52.7	-54.9	14.5	0.00e+00	0	23	0	864026624	71	4673
2026-01-11 12:35:10.66	314.81	13.52	-52.9	-55.2	14.3	0.00e+00	0	23	0	870318080	71	4864
2026-01-11 12:35:13.68	315.34	13.37	-52.7	-54.9	14.4	0.00e+00	0	23	0	875560960	71	4695
2026-01-11 12:35:16.70	315.86	13.22	-52.4	-54.5	14.7	0.00e+00	0	23	0	880803840	71	4459
2026-01-11 12:35:19.72	316.38	13.07	-52.4	-54.6	14.4	0.00e+00	0	23	0	887095296	70	4769
2026-01-11 12:35:22.75	316.89	12.92	-52.6	-54.8	14.3	0.00e+00	0	23	0	892338176	70	4923
2026-01-11 12:35:25.77	317.40	12.76	-52.4	-54.6	14.4	0.00e+00	0	23	0	898629632	70	4786
2026-01-11 12:35:28.80	317.90	12.61	-52.6	-54.8	14.3	0.00e+00	0	23	0	903872512	70	4916
2026-01-11 12:35:31.82	318.40	12.45	-53.0	-55.3	14.1	0.00e+00	0	23	0	909115392	71	4923
2026-01-11 12:35:34.85	318.89	12.29	-52.8	-55.1	14.3	0.00e+00	0	23	0	915406848	71	4789
2026-01-11 12:35:37.87	319.38	12.14	-52.8	-55.0	14.3	0.00e+00	0	23	0	920649728	71	4756
2026-01-11 12:35:40.90	319.86	11.98	-52.6	-54.9	14.4	0.00e+00	0	23	0	926941184	71	4669
2026-01-11 12:35:43.92	320.33	11.82	-52.2	-54.3	14.8	0.00e+00	0	23	0	932184064	71	4354
2026-01-11 12:35:46.95	320.81	11.66	-52.1	-54.1	14.7	0.00e+00	0	23	0	937426944	70	4521
2026-01-11 12:35:49.97	321.27	11.50	-52.1	-54.1	14.7	0.00e+00	0	23	0	943718400	70	4529
2026-01-11 12:35:53.00	321.73	11.34	-52.0	-54.0	14.8	0.00e+00	0	23	0	948961280	70	4463
2026-01-11 12:35:56.02	322.19	11.18	-52.1	-54.2	14.6	0.00e+00	0	23	0	955252736	70	4549
2026-01-11 12:35:59.05	322.64	11.01	-51.9	-53.9	14.8	0.00e+00	0	23	0	960495616	70	4420
2026-01-11 12:36:02.08	323.09	10.85	-51.8	-53.8	14.7	0.00e+00	0	23	0	965738496	69	4637
2026-01-11 12:36:05.10	323.53	10.69	-52.0	-54.0	14.5	0.00e+00	0	23	0	972029952	69	4751
2026-01-11 12:36:08.11	323.97	10.53	-51.9	-53.9	14.6	0.00e+00	0	23	0	977272832	69	4676
2026-01-11 12:36:11.13	324.40	10.36	-51.5	-53.3	15.0	0.00e+00	0	23	0	983564288	69	4384
2026-01-11 12:36:14.16	324.83	10.20	-51.1	-53.0	14.9	0.00e+00	0	23	0	988807168	68	4447
2026-01-11 12:36:17.19	325.25	10.03	-51.4	-53.2	14.8	0.00e+00	0	23	0	994050048	68	4598
2026-01-11 12:36:20.21	325.67	9.87	-51.6	-53.5	14.6	0.00e+00	0	23	0	1000341504	68	4746
2026-01-11 12:36:23.24	326.09	9.70	-51.7	-53.7	14.6	0.00e+00	0	23	0	1005584384	68	4839
2026-01-11 12:36:26.25	326.50	9.54	-52.0	-54.2	14.5	0.00e+00	0	23	0	1011875840	69	4815
2026-01-11 12:36:29.26	326.90	9.37	-52.3	-54.6	14.4	0.00e+00	0	23	0	1017118720	70	4762
2026-01-11 12:36:32.28	327.30	9.21	-52.4	-54.6	14.3	0.00e+00	0	23	0	1022361600	70	4802
2026-01-11 12:36:35.31	327.70	9.04	-52.0	-54.1	14.6	0.00e+00	0	23	0	1028653056	70	4516
2026-01-11 12:36:38.33	328.09	8.88	-51.6	-53.6	14.8	0.00e+00	0	23	0	1033895936	69	4499
2026-01-11 12:36:41.35	328.48	8.71	-51.7	-53.7	14.7	0.00e+00	0	23	0	1040187392	69	4563
2026-01-11 12:36:44.36	328.86	8.55	-52.0	-54.2	14.4	0.00e+00	0	23	0	1045430272	69	4837
2026-01-11 12:36:47.37	329.24	8.39	-52.3	-54.6	14.2	0.00e+00	0	23	0	1050673152	69	5067
2026-01-11 12:36:50.40	329.61	8.22	-52.4	-54.6	14.3	0.00e+00	0	23	0	1056964608	70	4798
2026-01-11 12:36:53.43	329.99	8.05	-52.5	-54.8	14.2	0.00e+00	0	23	0	1062207488	70	4889
2026-01-11 12:36:56.45	330.35	7.89	-52.7	-55.1	14.0	0.00e+00	0	23	0	1068498944	70	5078
2026-01-11 12:36:59.47	330.72	7.72	-52.9	-55.5	13.9	0.00e+00	0	23	0	1073741824	71	5014
2026-01-11 12:37:02.50	331.08	7.56	-53.0	-55.6	13.8	0.00e+00	0	23	0	1080033280	71	5078
2026-01-11 12:37:05.52	331.43	7.39	-53.0	-55.5	13.9	0.00e+00	0	23	0	1085276160	71	5027
2026-01-11 12:37:08.54	331.79	7.23	-53.1	-55.7	13.7	0.00e+00	0	23	0	1090519040	71	5128
2026-01-11 12:37:11.57	332.13	7.07	-53.2	-55.9	13.6	0.00e+00	0	23	0	1096810496	71	5248
2026-01-11 12:37:14.59	332.48	6.90	-53.4	-56.2	13.5	0.00e+00	0	24	0	1102053376	72	5136
2026-01-11 12:37:17.55	332.81	6.74	-53.0	-55.7	13.9	0.00e+00	0	23	0	1108344832	72	4819
2026-01-11 12:37:20.58	333.15	6.58	-52.7	-55.1	14.2	0.00e+00	0	23	0	1113587712	72	4530
2026-01-11 12:37:23.61	333.48	6.41	-52.5	-54.9	14.2	0.00e+00	0	23	0	1118830592	71	4702
2026-01-11 12:37:26.63	333.81	6.25	-52.7	-55.2	14.0	0.00e+00	0	23	0	1125122048	71	4816
2026-01-11 12:37:29.64	334.14	6.09	-53.5	-56.5	13.2	0.00e+00	0	23	0	1130364928	72	5299
2026-01-11 12:37:32.67	334.46	5.93	-53.8	-57.0	12.9	0.00e+00	0	23	0	1136656384	72	5607
2026-01-11 12:37:35.70	334.78	5.76	-53.8	-57.0	12.8	7.00e-07	0	23	0	1141899264	72	5643
2026-01-11 12:37:38.72	335.10	5.60	-53.4	-56.5	13.2	0.00e+00	0	23	0	1147142144	72	5300
2026-01-11 12:37:41.75	335.41	5.44	-53.3	-56.3	13.3	0.00e+00	0	23	0	1153433600	72	5196
2026-01-11 12:37:44.77	335.72	5.28	-53.3	-56.3	13.3	0.00e+00	0	23	0	1158676480	72	5188
2026-01-11 12:37:47.79	336.03	5.12	-53.5	-56.5	13.2	0.00e+00	0	23	0	1164967936	72	5323
2026-01-11 12:37:50.82	336.33	4.95	-58.1	-74.0	3.8	1.49e+00	0	23	104	1168113664	81	23828
2026-01-11 12:37:53.85	336.63	4.79	-58.9	-74.9	3.8	1.49e+00	0	23	104	1168113664	82	24804
2026-01-11 12:37:56.87	336.93	4.63	-59.3	-75.3	3.8	1.49e+00	0	23	104	1168113664	83	24594
2026-01-11 12:37:59.89	337.22	4.47	-59.6	-75.7	3.8	1.49e+00	0	23	104	1168113664	84	24161
2026-01-11 12:38:02.91	337.52	4.32	-59.7	-75.7	3.8	1.49e+00	0	23	104	1168113664	84	24401
2026-01-11 12:38:05.93	337.80	4.16	-59.8	-75.8	3.8	1.49e+00	0	23	104	1168113664	84	24541
2026-01-11 12:38:08.96	338.09	4.00	-59.8	-75.8	3.8	1.49e+00	0	23	104	1168113664	84	24640
2026-01-11 12:38:11.99	338.37	3.84	-59.8	-75.8	3.8	1.49e+00	0	23	104	1168113664	84	24532
2026-01-11 12:38:15.02	338.65	3.68	-59.7	-75.7	3.8	1.49e+00	0	23	104	1168113664	84	24344
2026-01-11 12:38:18.05	338.93	3.52	-59.7	-75.7	3.8	1.49e+00	0	24	104	1168113664	84	24263
2026-01-11 12:38:21.07	339.20	3.37	-59.6	-75.7	3.8	1.49e+00	0	23	104	1168113664	84	24233
2026-01-11 12:38:24.10	339.47	3.21	-59.6	-75.7	3.8	1.49e+00	0	23	104	1168113664	84	24165
2026-01-11 12:38:27.12	339.74	3.05	-59.6	-75.6	3.8	1.49e+00	0	23	104	1168113664	84	24118
2026-01-11 12:38:30.13	340.01	2.90	-59.6	-75.6	3.8	1.49e+00	0	23	104	1168113664	84	24122
2026-01-11 12:38:33.16	340.27	2.74	-59.6	-75.6	3.8	1.49e+00	0	23	104	1168113664	84	24028
2026-01-11 12:38:36.19	340.53	2.59	-59.5	-75.6	3.8	1.49e+00	0	24	104	1168113664	84	23960
2026-01-11 12:38:39.21	340.79	2.43	-59.5	-75.6	3.8	1.49e+00	0	23	104	1168113664	84	23953
2026-01-11 12:38:42.24	341.04	2.28	-59.5	-75.6	3.8	1.49e+00	0	23	104	1168113664	84	23877
2026-01-11 12:38:45.26	341.30	2.12	-59.5	-75.6	3.8	1.49e+00	0	23	104	1168113664	84	23899
2026-01-11 12:38:48.28	341.55	1.97	-59.5	-75.5	3.8	1.49e+00	0	23	104	1168113664	84	23850

#Closed at: 2026-01-11 12:38:48
#Recorded file [1168 MB]: D:/lorett/data/31004_260111_152636.dat