passes_logs/2026/01/11/R3.2S_Murmansk/R3.2S_Murmansk__20260111_212711_NOAA_20_JPSS-1_rec.log

#Pass ID: 20260111_212711_NOAA 20 (JPSS-1)
#Satellite: NOAA 20 (JPSS-1)
#Configuration: NOAA 20
#almurnet v.1.7.20251203
#Start time: 2026-01-11 21:27:14

#Version: 2.2.20231116
#Station: R3.2S_Murmansk
#Location: 33.079688 lon 68.888172 lat
#TLE: 1 43013U 17073A   26011.59429536  .00000082  00000+0  59704-4 0  9990
#TLE: 2 43013  98.7632 312.5697 0001637  44.2118 315.9188 14.19535307422256

#Time	Az	El	Level	Level2	SNR	BER	BlckErr	Temp	State	Recorded	gain1	gain2
2026-01-11 21:27:14.04	18.58	2.11	-56.9	-72.8	3.8	1.49e+00	0	21	0	0	80	21850
2026-01-11 21:27:17.07	18.87	2.25	-56.9	-72.8	3.8	1.49e+00	0	21	104	0	78	24422
2026-01-11 21:27:20.09	19.16	2.39	-56.9	-72.7	3.8	1.49e+00	0	21	104	0	78	24133
2026-01-11 21:27:23.12	19.45	2.53	-56.9	-72.6	3.8	1.49e+00	0	21	104	0	78	24115
2026-01-11 21:27:26.15	19.74	2.67	-56.9	-72.8	3.8	1.49e+00	0	21	104	0	78	24486
2026-01-11 21:27:29.17	20.04	2.81	-56.9	-72.9	3.8	1.49e+00	0	21	104	0	78	24753
2026-01-11 21:27:32.19	20.34	2.95	-56.9	-72.9	3.8	1.49e+00	0	21	104	0	78	24735
2026-01-11 21:27:35.22	20.64	3.09	-56.9	-72.8	3.8	1.49e+00	0	21	104	0	78	24543
2026-01-11 21:27:38.24	20.95	3.23	-56.9	-72.7	3.8	1.49e+00	0	21	104	0	78	24343
2026-01-11 21:27:41.27	21.25	3.37	-56.9	-72.8	3.8	1.49e+00	0	21	104	0	78	24681
2026-01-11 21:27:44.30	21.57	3.51	-56.9	-72.8	3.8	1.49e+00	0	22	104	0	78	24576
2026-01-11 21:27:47.32	21.88	3.66	-56.9	-72.8	3.8	1.49e+00	0	21	104	0	78	24678
2026-01-11 21:27:50.35	22.20	3.80	-56.9	-72.7	3.8	1.49e+00	0	22	104	0	78	24279
2026-01-11 21:27:53.38	22.52	3.94	-56.9	-72.7	3.8	1.49e+00	0	22	104	0	78	24203
2026-01-11 21:27:56.40	22.84	4.08	-56.9	-72.8	3.8	1.49e+00	0	22	104	0	78	24599
2026-01-11 21:27:59.43	23.16	4.22	-56.9	-71.8	3.8	1.49e+00	0	22	104	0	78	21781
2026-01-11 21:28:02.46	23.49	4.36	-56.9	-71.2	3.8	1.49e+00	0	22	104	0	78	20348
2026-01-11 21:28:05.48	23.82	4.50	-56.6	-67.1	5.0	1.09e+00	0	22	0	1048576	78	12789
2026-01-11 21:28:08.51	24.16	4.65	-55.5	-61.1	9.8	7.30e-03	0	22	0	6291456	77	6793
2026-01-11 21:28:11.53	24.49	4.79	-55.0	-59.8	10.9	3.43e-04	0	22	0	11534336	76	6154
2026-01-11 21:28:14.55	24.83	4.93	-55.5	-61.2	9.7	3.02e-03	0	22	0	17825792	76	7233
2026-01-11 21:28:17.58	25.18	5.07	-55.5	-61.0	9.9	3.91e-02	0	22	0	23068672	77	6712
2026-01-11 21:28:20.61	25.52	5.21	-54.4	-58.2	12.2	3.20e-03	0	22	0	28311552	75	5432
2026-01-11 21:28:23.63	25.87	5.35	-53.4	-56.3	13.5	7.00e-07	0	22	0	33554432	73	4926
2026-01-11 21:28:26.65	26.23	5.49	-53.2	-56.1	13.6	0.00e+00	0	22	0	39845888	72	5051
2026-01-11 21:28:29.67	26.58	5.63	-52.9	-55.5	14.0	0.00e+00	0	22	0	45088768	72	4742
2026-01-11 21:28:32.70	26.94	5.77	-52.8	-55.4	14.1	0.00e+00	0	22	0	51380224	72	4688
2026-01-11 21:28:35.73	27.31	5.91	-52.6	-55.1	14.1	0.00e+00	0	22	0	56623104	71	4787
2026-01-11 21:28:38.76	27.67	6.06	-52.7	-55.3	14.0	0.00e+00	0	22	0	61865984	71	4881
2026-01-11 21:28:41.78	28.04	6.20	-52.7	-55.3	14.0	0.00e+00	0	22	0	68157440	71	4895
2026-01-11 21:28:44.80	28.42	6.33	-52.7	-55.3	14.1	0.00e+00	0	22	0	73400320	71	4892
2026-01-11 21:28:47.82	28.79	6.47	-52.5	-55.0	14.3	0.00e+00	0	22	0	79691776	71	4706
2026-01-11 21:28:50.85	29.17	6.61	-52.5	-55.0	14.3	0.00e+00	0	22	0	84934656	71	4714
2026-01-11 21:28:53.87	29.56	6.75	-52.5	-54.8	14.4	0.00e+00	0	22	0	90177536	71	4641
2026-01-11 21:28:56.89	29.94	6.89	-52.4	-54.8	14.4	0.00e+00	0	22	0	96468992	71	4624
2026-01-11 21:28:59.92	30.33	7.03	-52.5	-54.8	14.4	0.00e+00	0	22	0	101711872	71	4646
2026-01-11 21:29:02.94	30.73	7.17	-52.4	-54.8	14.4	0.00e+00	0	22	0	108003328	71	4614
2026-01-11 21:29:05.96	31.12	7.31	-52.5	-54.9	14.4	0.00e+00	0	22	0	113246208	71	4680
2026-01-11 21:29:08.98	31.53	7.44	-52.5	-54.8	14.4	0.00e+00	0	22	0	118489088	71	4617
2026-01-11 21:29:12.00	31.93	7.58	-52.4	-54.7	14.5	0.00e+00	0	22	0	124780544	71	4597
2026-01-11 21:29:15.03	32.34	7.72	-52.5	-54.8	14.4	0.00e+00	0	22	0	130023424	71	4618
2026-01-11 21:29:18.05	32.75	7.85	-52.3	-54.6	14.6	0.00e+00	0	22	0	136314880	71	4500
2026-01-11 21:29:21.08	33.17	7.99	-52.2	-54.4	14.7	0.00e+00	0	23	0	141557760	71	4421
2026-01-11 21:29:24.10	33.59	8.12	-52.4	-54.6	14.6	0.00e+00	0	22	0	146800640	71	4539
2026-01-11 21:29:27.13	34.01	8.26	-52.4	-54.6	14.6	0.00e+00	0	23	0	153092096	71	4533
2026-01-11 21:29:30.14	34.44	8.39	-52.5	-54.8	14.5	0.00e+00	0	23	0	158334976	71	4613
2026-01-11 21:29:33.17	34.87	8.52	-52.4	-54.7	14.5	0.00e+00	0	23	0	164626432	71	4559
2026-01-11 21:29:36.20	35.31	8.65	-52.4	-54.6	14.5	0.00e+00	0	22	0	169869312	71	4545
2026-01-11 21:29:39.22	35.74	8.78	-52.4	-54.7	14.5	0.00e+00	0	22	0	175112192	71	4564
2026-01-11 21:29:42.24	36.19	8.92	-52.5	-54.8	14.5	0.00e+00	0	23	0	181403648	71	4604
2026-01-11 21:29:45.26	36.63	9.04	-52.5	-54.9	14.4	0.00e+00	0	23	0	186646528	71	4653
2026-01-11 21:29:48.29	37.08	9.17	-52.4	-54.6	14.6	0.00e+00	0	22	0	192937984	71	4535
2026-01-11 21:29:51.31	37.54	9.30	-52.3	-54.6	14.6	0.00e+00	0	22	0	198180864	71	4495
2026-01-11 21:29:54.33	37.99	9.43	-52.5	-54.8	14.5	0.00e+00	0	22	0	204472320	71	4634
2026-01-11 21:29:57.35	38.45	9.56	-52.7	-55.0	14.3	0.00e+00	0	23	0	209715200	71	4754
2026-01-11 21:30:00.38	38.92	9.68	-52.6	-54.9	14.4	0.00e+00	0	23	0	214958080	71	4660
2026-01-11 21:30:03.40	39.39	9.81	-52.5	-54.8	14.4	0.00e+00	0	23	0	221249536	71	4645
2026-01-11 21:30:06.43	39.86	9.93	-52.6	-54.9	14.4	0.00e+00	0	23	0	226492416	71	4654
2026-01-11 21:30:09.46	40.34	10.05	-52.8	-55.1	14.2	0.00e+00	0	23	0	232783872	71	4812
2026-01-11 21:30:12.48	40.82	10.17	-52.7	-55.1	14.3	0.00e+00	0	23	0	238026752	71	4795
2026-01-11 21:30:15.51	41.31	10.29	-52.6	-55.0	14.4	0.00e+00	0	23	0	243269632	71	4708
2026-01-11 21:30:18.53	41.80	10.41	-52.7	-55.0	14.4	0.00e+00	0	23	0	249561088	71	4743
2026-01-11 21:30:21.55	42.29	10.53	-52.7	-55.1	14.3	0.00e+00	0	23	0	254803968	71	4795
2026-01-11 21:30:24.57	42.78	10.64	-52.9	-55.4	14.1	0.00e+00	0	22	0	261095424	71	4928
2026-01-11 21:30:27.60	43.29	10.76	-52.7	-55.1	14.3	0.00e+00	0	23	0	266338304	71	4790
2026-01-11 21:30:30.60	43.79	10.87	-52.5	-54.8	14.5	0.00e+00	0	23	0	271581184	71	4634
2026-01-11 21:30:33.63	44.29	10.98	-52.5	-54.8	14.5	0.00e+00	0	22	0	277872640	71	4620
2026-01-11 21:30:36.65	44.81	11.09	-52.5	-54.7	14.5	0.00e+00	0	23	0	283115520	71	4571
2026-01-11 21:30:39.68	45.32	11.20	-52.7	-55.1	14.3	0.00e+00	0	22	0	289406976	71	4792
2026-01-11 21:30:42.69	45.84	11.31	-52.8	-55.2	14.2	0.00e+00	0	23	0	294649856	71	4850
2026-01-11 21:30:45.72	46.36	11.42	-52.8	-55.2	14.2	0.00e+00	0	23	0	299892736	71	4866
2026-01-11 21:30:48.74	46.89	11.52	-52.7	-55.0	14.3	0.00e+00	0	22	0	306184192	71	4757
2026-01-11 21:30:51.77	47.42	11.62	-52.8	-55.1	14.3	0.00e+00	0	23	0	311427072	71	4806
2026-01-11 21:30:54.80	47.95	11.72	-52.8	-55.2	14.2	0.00e+00	0	23	0	317718528	71	4823
2026-01-11 21:30:57.82	48.49	11.82	-52.8	-55.2	14.2	0.00e+00	0	23	0	322961408	71	4825
2026-01-11 21:31:00.84	49.03	11.92	-52.6	-55.0	14.4	0.00e+00	0	23	0	328204288	71	4712
2026-01-11 21:31:03.87	49.57	12.01	-52.9	-55.4	14.1	0.00e+00	0	23	0	334495744	71	4935
2026-01-11 21:31:06.89	50.12	12.11	-53.0	-55.5	14.1	0.00e+00	0	23	0	339738624	71	4995
2026-01-11 21:31:09.92	50.67	12.20	-52.7	-55.0	14.3	0.00e+00	0	23	0	346030080	71	4757
2026-01-11 21:31:12.93	51.22	12.29	-52.3	-54.5	14.6	0.00e+00	0	23	0	351272960	71	4480
2026-01-11 21:31:15.96	51.78	12.37	-52.2	-54.3	14.8	0.00e+00	0	23	0	356515840	71	4377
2026-01-11 21:31:18.99	52.34	12.46	-52.4	-54.6	14.4	0.00e+00	0	22	0	362807296	70	4805
2026-01-11 21:31:22.01	52.91	12.54	-52.5	-54.7	14.4	0.00e+00	0	23	0	368050176	70	4851
2026-01-11 21:31:25.03	53.47	12.62	-52.4	-54.6	14.4	0.00e+00	0	23	0	374341632	70	4784
2026-01-11 21:31:28.05	54.04	12.70	-51.9	-53.9	14.8	0.00e+00	0	23	0	379584512	70	4437
2026-01-11 21:31:31.08	54.62	12.77	-51.9	-53.9	14.9	0.00e+00	0	23	0	384827392	70	4414
2026-01-11 21:31:34.11	55.19	12.85	-52.1	-54.2	14.7	0.00e+00	0	23	0	391118848	70	4564
2026-01-11 21:31:37.13	55.77	12.92	-52.5	-54.8	14.3	0.00e+00	0	23	0	396361728	70	4881
2026-01-11 21:31:40.15	56.35	12.99	-52.7	-55.0	14.2	0.00e+00	0	23	0	402653184	70	5012
2026-01-11 21:31:43.17	56.93	13.05	-52.6	-54.9	14.3	0.00e+00	0	23	0	407896064	70	4948
2026-01-11 21:31:46.20	57.52	13.12	-52.6	-54.8	14.3	0.00e+00	0	23	0	414187520	70	4907
2026-01-11 21:31:49.23	58.11	13.18	-52.8	-55.3	14.1	0.00e+00	0	23	0	419430400	70	5161
2026-01-11 21:31:52.25	58.70	13.24	-53.1	-55.6	13.9	0.00e+00	0	23	0	424673280	71	5092
2026-01-11 21:31:55.27	59.29	13.29	-53.0	-55.4	14.1	0.00e+00	0	23	0	430964736	71	4979
2026-01-11 21:31:58.28	59.88	13.34	-52.7	-55.0	14.4	0.00e+00	0	23	0	436207616	71	4725
2026-01-11 21:32:01.31	60.48	13.39	-52.7	-55.0	14.4	0.00e+00	0	23	0	442499072	71	4728
2026-01-11 21:32:04.33	61.08	13.44	-52.8	-55.1	14.3	0.00e+00	0	23	0	447741952	71	4798
2026-01-11 21:32:07.36	61.68	13.49	-52.7	-55.0	14.4	0.00e+00	0	23	0	452984832	71	4714
2026-01-11 21:32:10.38	62.28	13.53	-52.7	-55.0	14.4	0.00e+00	0	23	0	459276288	71	4738
2026-01-11 21:32:13.41	62.89	13.57	-52.5	-54.7	14.5	0.00e+00	0	23	0	464519168	71	4584
2026-01-11 21:32:16.43	63.49	13.60	-52.6	-54.9	14.4	0.00e+00	0	23	0	470810624	71	4671
2026-01-11 21:32:19.46	64.10	13.64	-52.6	-54.9	14.4	0.00e+00	0	23	0	476053504	71	4679
2026-01-11 21:32:22.49	64.71	13.67	-52.5	-54.7	14.6	0.00e+00	0	23	0	481296384	71	4576
2026-01-11 21:32:25.51	65.32	13.70	-52.3	-54.5	14.7	0.00e+00	0	23	0	487587840	71	4458
2026-01-11 21:32:28.54	65.93	13.72	-52.4	-54.5	14.7	0.00e+00	0	23	0	492830720	71	4467
2026-01-11 21:32:31.56	66.54	13.74	-52.3	-54.4	14.7	0.00e+00	0	23	0	499122176	71	4429
2026-01-11 21:32:34.59	67.16	13.76	-52.1	-54.2	14.7	0.00e+00	0	23	0	504365056	70	4551
2026-01-11 21:32:37.61	67.77	13.78	-52.2	-54.3	14.6	0.00e+00	0	23	0	509607936	70	4610
2026-01-11 21:32:40.64	68.38	13.79	-52.0	-54.1	14.8	0.00e+00	0	23	0	515899392	70	4514
2026-01-11 21:32:43.66	69.00	13.80	-51.8	-53.8	15.0	0.00e+00	0	23	0	521142272	70	4351
2026-01-11 21:32:46.68	69.61	13.81	-51.5	-53.5	15.0	0.00e+00	0	23	0	527433728	69	4445
2026-01-11 21:32:49.70	70.23	13.81	-51.5	-53.3	15.0	0.00e+00	0	23	0	532676608	69	4389
2026-01-11 21:32:52.72	70.84	13.81	-51.7	-53.7	14.8	0.00e+00	0	23	0	537919488	69	4567
2026-01-11 21:32:55.74	71.45	13.81	-51.9	-53.9	14.7	0.00e+00	0	23	0	544210944	69	4689
2026-01-11 21:32:58.77	72.07	13.80	-51.9	-54.0	14.7	0.00e+00	0	23	0	549453824	69	4720
2026-01-11 21:33:01.79	72.68	13.79	-51.5	-53.4	15.0	0.00e+00	0	23	0	555745280	69	4411
2026-01-11 21:33:04.82	73.30	13.78	-51.3	-53.1	15.2	0.00e+00	0	23	0	560988160	69	4278
2026-01-11 21:33:07.85	73.92	13.77	-51.2	-53.0	15.2	0.00e+00	0	23	0	567279616	69	4238
2026-01-11 21:33:10.87	74.53	13.75	-51.2	-53.1	15.2	0.00e+00	0	23	0	572522496	69	4251
2026-01-11 21:33:13.89	75.14	13.73	-51.6	-53.6	14.9	0.00e+00	0	23	0	577765376	69	4505
2026-01-11 21:33:16.91	75.75	13.71	-51.8	-53.9	14.7	0.00e+00	0	23	0	584056832	69	4653
2026-01-11 21:33:19.93	76.36	13.68	-51.6	-53.5	14.9	0.00e+00	0	23	0	589299712	69	4463
2026-01-11 21:33:22.96	76.97	13.65	-51.6	-53.5	14.9	0.00e+00	0	23	0	595591168	69	4486
2026-01-11 21:33:25.98	77.58	13.62	-51.6	-53.5	14.9	0.00e+00	0	23	0	600834048	69	4488
2026-01-11 21:33:29.00	78.18	13.58	-51.4	-53.3	15.1	0.00e+00	0	23	0	606076928	69	4362
2026-01-11 21:33:32.02	78.79	13.55	-51.4	-53.3	15.1	0.00e+00	0	23	0	612368384	69	4369
2026-01-11 21:33:35.05	79.39	13.51	-51.7	-53.6	14.9	0.00e+00	0	23	0	617611264	69	4534
2026-01-11 21:33:38.07	80.00	13.46	-52.0	-54.1	14.6	0.00e+00	0	23	0	623902720	69	4811
2026-01-11 21:33:41.10	80.60	13.42	-51.8	-53.8	14.7	0.00e+00	0	23	0	629145600	69	4646
2026-01-11 21:33:44.12	81.20	13.37	-51.5	-53.4	15.0	0.00e+00	0	23	0	634388480	69	4437
2026-01-11 21:33:47.15	81.79	13.31	-51.4	-53.2	15.1	0.00e+00	0	23	0	640679936	69	4320
2026-01-11 21:33:50.17	82.39	13.26	-50.9	-52.6	15.2	0.00e+00	0	23	0	645922816	68	4285
2026-01-11 21:33:53.19	82.98	13.20	-50.9	-52.7	15.2	0.00e+00	0	23	0	652214272	68	4301
2026-01-11 21:33:56.22	83.57	13.14	-51.2	-53.1	15.0	0.00e+00	0	23	0	657457152	68	4516
2026-01-11 21:33:59.24	84.16	13.08	-51.3	-53.2	14.9	0.00e+00	0	23	0	663748608	68	4582
2026-01-11 21:34:02.27	84.75	13.01	-51.3	-53.1	14.9	0.00e+00	0	23	0	668991488	68	4527
2026-01-11 21:34:05.29	85.33	12.95	-51.1	-52.9	15.1	0.00e+00	0	23	0	674234368	68	4416
2026-01-11 21:34:08.32	85.91	12.88	-51.1	-52.9	15.1	0.00e+00	0	23	0	680525824	68	4410
2026-01-11 21:34:11.34	86.49	12.80	-51.1	-53.0	15.0	0.00e+00	0	23	0	685768704	68	4454
2026-01-11 21:34:14.36	87.06	12.73	-51.2	-53.0	15.0	0.00e+00	0	23	0	692060160	68	4474
2026-01-11 21:34:17.39	87.63	12.65	-51.3	-53.2	14.9	0.00e+00	0	23	0	697303040	68	4595
2026-01-11 21:34:20.42	88.20	12.57	-51.1	-52.9	15.1	0.00e+00	0	23	0	702545920	68	4422
2026-01-11 21:34:23.44	88.77	12.49	-51.1	-53.0	15.0	0.00e+00	0	23	0	708837376	68	4452
2026-01-11 21:34:26.46	89.33	12.41	-51.0	-52.8	15.1	0.00e+00	0	23	0	714080256	68	4383
2026-01-11 21:34:29.48	89.89	12.32	-51.0	-52.8	15.1	0.00e+00	0	23	0	720371712	68	4360
2026-01-11 21:34:32.51	90.45	12.23	-51.2	-53.0	15.0	0.00e+00	0	23	0	725614592	68	4474
2026-01-11 21:34:35.53	91.00	12.14	-51.4	-53.4	14.8	0.00e+00	0	23	0	730857472	68	4659
2026-01-11 21:34:38.56	91.55	12.05	-51.7	-53.8	14.6	0.00e+00	0	23	0	737148928	68	4883
2026-01-11 21:34:41.58	92.10	11.95	-51.8	-53.9	14.5	0.00e+00	0	23	0	742391808	68	4963
2026-01-11 21:34:44.60	92.64	11.86	-52.1	-54.3	14.4	0.00e+00	0	23	0	748683264	69	4876
2026-01-11 21:34:47.63	93.18	11.76	-52.3	-54.5	14.3	0.00e+00	0	23	0	753926144	69	5016
2026-01-11 21:34:50.65	93.72	11.66	-52.3	-54.5	14.3	0.00e+00	0	23	0	759169024	69	5027
2026-01-11 21:34:53.67	94.25	11.56	-52.2	-54.4	14.3	0.00e+00	0	23	0	765460480	69	4956
2026-01-11 21:34:56.69	94.78	11.45	-52.5	-54.9	14.2	0.00e+00	0	23	0	770703360	70	4936
2026-01-11 21:34:59.72	95.31	11.35	-53.1	-55.6	13.9	0.00e+00	0	23	0	776994816	71	5085
2026-01-11 21:35:02.75	95.83	11.24	-53.4	-56.1	13.6	0.00e+00	0	23	0	782237696	71	5363
2026-01-11 21:35:05.78	96.35	11.13	-53.7	-56.5	13.4	0.00e+00	0	23	0	787480576	72	5336
2026-01-11 21:35:08.80	96.86	11.02	-54.0	-57.1	13.1	0.00e+00	0	23	0	793772032	73	5366
2026-01-11 21:35:11.82	97.37	10.91	-53.8	-56.8	13.4	0.00e+00	0	23	0	799014912	73	5165
2026-01-11 21:35:14.84	97.88	10.80	-53.4	-56.1	13.9	0.00e+00	0	23	0	805306368	73	4784
2026-01-11 21:35:17.87	98.39	10.68	-53.3	-55.9	14.0	0.00e+00	0	23	0	810549248	73	4701
2026-01-11 21:35:20.89	98.88	10.56	-53.4	-56.2	13.8	0.00e+00	0	23	0	816840704	73	4834
2026-01-11 21:35:23.92	99.38	10.45	-53.6	-56.5	13.6	0.00e+00	0	23	0	822083584	73	5018
2026-01-11 21:35:26.95	99.87	10.33	-53.9	-56.9	13.3	0.00e+00	0	23	0	827326464	73	5263
2026-01-11 21:35:29.97	100.36	10.21	-53.8	-56.8	13.4	0.00e+00	0	23	0	833617920	73	5175
2026-01-11 21:35:32.99	100.85	10.09	-53.6	-56.4	13.7	0.00e+00	0	23	0	838860800	73	4963
2026-01-11 21:35:36.02	101.33	9.96	-53.3	-55.9	14.0	0.00e+00	0	23	0	845152256	73	4682
2026-01-11 21:35:39.04	101.80	9.84	-53.4	-56.1	13.8	0.00e+00	0	23	0	850395136	73	4814
2026-01-11 21:35:42.06	102.27	9.72	-53.0	-55.5	14.1	0.00e+00	0	23	0	855638016	72	4715
2026-01-11 21:35:45.08	102.74	9.59	-52.6	-55.0	14.3	0.00e+00	0	23	0	861929472	71	4729
2026-01-11 21:35:48.10	103.21	9.46	-52.6	-55.0	14.3	0.00e+00	0	23	0	867172352	71	4736
2026-01-11 21:35:51.13	103.67	9.34	-52.8	-55.3	14.1	0.00e+00	0	23	0	873463808	71	4885
2026-01-11 21:35:54.15	104.12	9.21	-52.9	-55.3	14.0	0.00e+00	0	23	0	878706688	71	4920
2026-01-11 21:35:57.18	104.58	9.08	-52.9	-55.4	14.0	0.00e+00	0	23	0	883949568	71	4931
2026-01-11 21:36:00.20	105.03	8.95	-53.0	-55.6	13.9	0.00e+00	0	23	0	890241024	71	5066
2026-01-11 21:36:03.23	105.47	8.81	-52.8	-55.3	14.1	0.00e+00	0	23	0	895483904	71	4899
2026-01-11 21:36:06.26	105.92	8.68	-52.5	-54.8	14.4	0.00e+00	0	23	0	901775360	71	4614
2026-01-11 21:36:09.28	106.35	8.55	-52.2	-54.4	14.5	0.00e+00	0	23	0	907018240	70	4669
2026-01-11 21:36:12.30	106.79	8.42	-52.2	-54.4	14.4	0.00e+00	0	23	0	912261120	70	4701
2026-01-11 21:36:15.32	107.22	8.28	-52.4	-54.8	14.3	0.00e+00	0	23	0	918552576	70	4873
2026-01-11 21:36:18.33	107.64	8.15	-52.3	-54.6	14.3	0.00e+00	0	23	0	923795456	70	4804
2026-01-11 21:36:21.35	108.06	8.01	-52.3	-54.5	14.4	0.00e+00	0	23	0	930086912	70	4728
2026-01-11 21:36:24.38	108.48	7.88	-52.2	-54.5	14.5	0.00e+00	0	23	0	935329792	70	4713
2026-01-11 21:36:27.40	108.90	7.74	-52.4	-54.8	14.2	0.00e+00	0	23	0	940572672	70	4882
2026-01-11 21:36:30.43	109.31	7.60	-52.3	-54.6	14.3	0.00e+00	0	23	0	946864128	70	4808
2026-01-11 21:36:33.45	109.72	7.47	-52.3	-54.6	14.3	0.00e+00	0	23	0	952107008	70	4794
2026-01-11 21:36:36.48	110.12	7.33	-52.2	-54.5	14.4	0.00e+00	0	23	0	958398464	70	4732
2026-01-11 21:36:39.50	110.52	7.19	-52.5	-54.9	14.1	0.00e+00	0	23	0	963641344	70	4959
2026-01-11 21:36:42.52	110.92	7.05	-52.4	-54.8	14.2	0.00e+00	0	23	0	968884224	70	4911
2026-01-11 21:36:45.54	111.31	6.91	-52.5	-54.8	14.2	0.00e+00	0	23	0	975175680	70	4921
2026-01-11 21:36:48.56	111.70	6.77	-52.2	-54.5	14.4	0.00e+00	0	23	0	980418560	70	4706
2026-01-11 21:36:51.58	112.08	6.63	-52.4	-54.8	14.2	0.00e+00	0	23	0	986710016	70	4891
2026-01-11 21:36:54.61	112.47	6.49	-52.6	-55.1	14.0	0.00e+00	0	23	0	991952896	70	5062
2026-01-11 21:36:57.63	112.84	6.35	-52.7	-55.3	13.8	0.00e+00	0	23	0	997195776	70	5195
2026-01-11 21:37:00.65	113.22	6.21	-52.4	-54.9	14.1	0.00e+00	0	23	0	1003487232	70	4930
2026-01-11 21:37:03.67	113.59	6.07	-52.5	-55.0	14.0	0.00e+00	0	23	0	1008730112	70	5026
2026-01-11 21:37:06.70	113.96	5.93	-52.7	-55.3	13.7	0.00e+00	0	23	0	1015021568	70	5216
2026-01-11 21:37:09.72	114.32	5.79	-53.1	-56.0	13.4	0.00e+00	0	23	0	1020264448	71	5297
2026-01-11 21:37:12.74	114.69	5.65	-53.0	-55.9	13.5	0.00e+00	0	23	0	1026555904	71	5235
2026-01-11 21:37:15.77	115.04	5.50	-53.0	-55.8	13.5	0.00e+00	0	23	0	1031798784	71	5204
2026-01-11 21:37:18.79	115.40	5.36	-53.0	-55.9	13.4	0.00e+00	0	23	0	1037041664	71	5246
2026-01-11 21:37:21.81	115.75	5.22	-53.2	-56.3	13.1	0.00e+00	0	23	0	1043333120	71	5500
2026-01-11 21:37:24.84	116.10	5.08	-53.6	-56.9	12.7	0.00e+00	0	23	0	1048576000	72	5578
2026-01-11 21:37:27.86	116.44	4.93	-57.6	-73.5	3.8	1.49e+00	0	23	104	1052770304	80	23640
2026-01-11 21:37:30.89	116.79	4.79	-58.3	-74.3	3.8	1.49e+00	0	23	104	1052770304	81	24444
2026-01-11 21:37:33.92	117.13	4.65	-58.7	-74.8	3.8	1.49e+00	0	23	104	1052770304	82	24486
2026-01-11 21:37:36.95	117.46	4.51	-59.0	-75.0	3.8	1.49e+00	0	23	104	1052770304	83	23778
2026-01-11 21:37:39.97	117.79	4.36	-59.1	-75.1	3.8	1.49e+00	0	23	104	1052770304	83	24113
2026-01-11 21:37:43.00	118.12	4.22	-59.2	-75.2	3.8	1.49e+00	0	23	104	1052770304	83	24290
2026-01-11 21:37:46.03	118.45	4.08	-59.2	-75.3	3.8	1.49e+00	0	23	104	1052770304	83	24495
2026-01-11 21:37:49.06	118.78	3.94	-59.3	-75.3	3.8	1.49e+00	0	23	104	1052770304	83	24628
2026-01-11 21:37:52.08	119.10	3.79	-59.4	-75.4	3.9	1.49e+00	0	23	104	1052770304	83	24904
2026-01-11 21:37:55.11	119.41	3.65	-59.4	-75.5	3.8	1.49e+00	0	23	104	1052770304	83	25070
2026-01-11 21:37:58.14	119.73	3.51	-59.6	-75.6	3.8	1.49e+00	0	23	104	1052770304	84	24057
2026-01-11 21:38:01.17	120.04	3.37	-59.5	-75.6	3.8	1.49e+00	0	23	104	1052770304	84	23917
2026-01-11 21:38:04.20	120.35	3.22	-59.5	-75.6	3.8	1.49e+00	0	23	104	1052770304	84	23866
2026-01-11 21:38:07.23	120.66	3.08	-59.5	-75.5	3.8	1.49e+00	0	23	104	1052770304	84	23836
2026-01-11 21:38:10.26	120.96	2.94	-59.5	-75.5	3.8	1.49e+00	0	23	104	1052770304	84	23796
2026-01-11 21:38:13.28	121.26	2.80	-59.5	-75.5	3.8	1.49e+00	0	23	104	1052770304	84	23821
2026-01-11 21:38:16.30	121.56	2.65	-59.5	-75.5	3.8	1.49e+00	0	23	104	1052770304	84	23697
2026-01-11 21:38:19.33	121.85	2.51	-59.5	-75.5	3.8	1.49e+00	0	23	104	1052770304	84	23684
2026-01-11 21:38:22.36	122.15	2.37	-59.4	-75.5	3.8	1.49e+00	0	23	104	1052770304	84	23624
2026-01-11 21:38:25.39	122.44	2.23	-59.4	-75.5	3.8	1.49e+00	0	23	104	1052770304	84	23673
2026-01-11 21:38:28.41	122.72	2.09	-59.4	-75.5	3.8	1.49e+00	0	23	104	1052770304	84	23665

#Closed at: 2026-01-11 21:38:31
#Recorded file [1052 MB]: D:/lorett/data/31004_260112_002713.dat