passes_logs/2026/01/11/R3.2S_Murmansk/R3.2S_Murmansk__20260111_230742_NOAA_20_JPSS-1_rec.log

#Pass ID: 20260111_230742_NOAA 20 (JPSS-1)
#Satellite: NOAA 20 (JPSS-1)
#Configuration: NOAA 20
#almurnet v.1.7.20251203
#Start time: 2026-01-11 23:07:43

#Version: 2.2.20231116
#Station: R3.2S_Murmansk
#Location: 33.079688 lon 68.888172 lat
#TLE: 1 43013U 17073A   26011.59429536  .00000082  00000+0  59704-4 0  9990
#TLE: 2 43013  98.7632 312.5697 0001637  44.2118 315.9188 14.19535307422256

#Time	Az	El	Level	Level2	SNR	BER	BlckErr	Temp	State	Recorded	gain1	gain2
2026-01-11 23:07:43.79	20.10	2.06	-58.1	-74.1	3.8	1.49e+00	0	21	0	0	81	24061
2026-01-11 23:07:47.82	20.29	2.31	-58.1	-74.1	3.8	1.49e+00	0	21	104	0	81	24070
2026-01-11 23:07:51.85	20.48	2.55	-58.1	-74.1	3.8	1.49e+00	0	21	104	0	81	24049
2026-01-11 23:07:55.89	20.68	2.80	-58.1	-74.1	3.8	1.49e+00	0	21	104	0	81	24056
2026-01-11 23:07:59.93	20.89	3.05	-58.1	-74.1	3.8	1.49e+00	0	22	104	0	81	24080
2026-01-11 23:08:03.96	21.09	3.30	-58.1	-74.1	3.8	1.49e+00	0	22	104	0	81	24087
2026-01-11 23:08:08.00	21.30	3.55	-58.1	-74.1	3.8	1.49e+00	0	22	104	0	81	24120
2026-01-11 23:08:12.03	21.51	3.80	-58.1	-74.2	3.8	1.49e+00	0	22	104	0	81	24147
2026-01-11 23:08:16.07	21.73	4.06	-58.1	-74.2	3.8	1.49e+00	0	22	104	0	81	24169
2026-01-11 23:08:20.11	21.95	4.32	-58.2	-74.1	3.8	1.49e+00	0	22	104	0	81	24099
2026-01-11 23:08:24.14	22.17	4.58	-58.1	-74.2	3.8	1.49e+00	0	22	104	0	81	24196
2026-01-11 23:08:28.18	22.39	4.84	-58.1	-74.1	3.8	1.49e+00	0	22	104	0	81	24128
2026-01-11 23:08:32.22	22.62	5.11	-58.1	-74.2	3.8	1.49e+00	0	22	104	0	81	24136
2026-01-11 23:08:36.25	22.86	5.38	-58.1	-74.2	3.8	1.49e+00	0	22	104	0	81	24246
2026-01-11 23:08:40.28	23.09	5.65	-58.1	-74.2	3.8	1.49e+00	0	22	104	0	81	24152
2026-01-11 23:08:44.32	23.33	5.92	-58.1	-74.1	3.8	1.49e+00	0	22	104	0	81	24116
2026-01-11 23:08:48.36	23.58	6.20	-58.1	-74.2	3.8	1.49e+00	0	22	104	0	81	24169
2026-01-11 23:08:52.39	23.83	6.47	-58.1	-74.2	3.8	1.49e+00	0	22	104	0	81	24136
2026-01-11 23:08:56.43	24.08	6.75	-58.1	-74.2	3.8	1.49e+00	0	22	104	0	81	24175
2026-01-11 23:09:00.46	24.34	7.04	-58.1	-74.1	3.8	1.49e+00	0	22	104	0	81	24094
2026-01-11 23:09:04.49	24.61	7.32	-58.1	-74.1	3.8	1.49e+00	0	23	104	0	81	24128
2026-01-11 23:09:08.51	24.87	7.61	-58.1	-74.2	3.8	1.49e+00	0	22	104	0	81	24181
2026-01-11 23:09:12.55	25.15	7.90	-58.1	-74.2	3.8	1.49e+00	0	23	104	0	81	24164
2026-01-11 23:09:16.53	25.42	8.19	-58.1	-74.1	3.8	1.49e+00	0	22	104	0	81	24107
2026-01-11 23:09:20.56	25.71	8.49	-58.1	-74.1	3.8	1.49e+00	0	22	104	0	81	24095
2026-01-11 23:09:24.60	26.00	8.79	-58.1	-74.1	3.8	1.49e+00	0	23	104	0	81	24057
2026-01-11 23:09:28.64	26.29	9.09	-58.1	-74.0	3.8	1.49e+00	0	23	104	0	81	23714
2026-01-11 23:09:32.67	26.59	9.40	-58.1	-74.0	3.8	1.49e+00	0	23	104	0	81	23716
2026-01-11 23:09:36.70	26.90	9.70	-58.1	-74.1	3.8	1.49e+00	0	23	104	0	81	24122
2026-01-11 23:09:40.74	27.21	10.02	-58.1	-74.1	3.8	1.49e+00	0	23	104	0	81	24064
2026-01-11 23:09:44.77	27.53	10.33	-58.1	-74.2	3.8	1.49e+00	0	23	104	0	81	24166
2026-01-11 23:09:48.81	27.86	10.65	-58.2	-74.2	3.8	1.49e+00	0	23	104	0	81	24181
2026-01-11 23:09:52.84	28.19	10.97	-58.2	-74.2	3.8	1.49e+00	0	23	104	0	81	24163
2026-01-11 23:09:56.87	28.53	11.30	-58.2	-74.2	3.8	1.49e+00	0	23	104	0	81	24172
2026-01-11 23:10:00.91	28.88	11.63	-58.2	-74.2	3.8	1.49e+00	0	23	104	0	81	24173
2026-01-11 23:10:04.94	29.23	11.96	-58.1	-74.1	3.8	1.49e+00	0	23	104	0	81	24084
2026-01-11 23:10:08.98	29.59	12.30	-58.1	-74.2	3.8	1.49e+00	0	23	104	0	81	24179
2026-01-11 23:10:13.02	29.96	12.64	-58.1	-74.1	3.8	1.49e+00	0	23	104	0	81	24038
2026-01-11 23:10:17.05	30.34	12.98	-58.1	-74.2	3.8	1.49e+00	0	23	104	0	81	24177
2026-01-11 23:10:21.09	30.73	13.33	-58.1	-74.1	3.8	1.49e+00	0	23	104	0	81	24096
2026-01-11 23:10:25.12	31.12	13.68	-58.1	-74.1	3.8	1.49e+00	0	23	104	0	81	24126
2026-01-11 23:10:29.16	31.53	14.04	-58.1	-74.1	3.8	1.49e+00	0	23	104	0	81	24113
2026-01-11 23:10:33.19	31.94	14.40	-58.1	-74.1	3.8	1.49e+00	0	23	104	0	81	24058
2026-01-11 23:10:37.23	32.37	14.76	-58.1	-74.1	3.8	1.49e+00	0	23	104	0	81	24063
2026-01-11 23:10:41.27	32.80	15.13	-58.1	-74.1	3.8	1.49e+00	0	23	104	0	81	24107
2026-01-11 23:10:45.29	33.24	15.50	-58.1	-74.1	3.8	1.49e+00	0	23	104	0	81	24010
2026-01-11 23:10:49.33	33.70	15.88	-58.1	-74.1	3.8	1.49e+00	0	23	104	0	81	24036
2026-01-11 23:10:53.35	34.16	16.26	-58.1	-74.1	3.8	1.49e+00	0	23	104	0	81	24013
2026-01-11 23:10:57.39	34.64	16.64	-58.1	-74.1	3.8	1.49e+00	0	23	104	0	81	24019
2026-01-11 23:11:01.43	35.13	17.03	-58.1	-74.1	3.8	1.49e+00	0	23	104	0	81	24015
2026-01-11 23:11:05.46	35.63	17.42	-58.1	-74.1	3.8	1.49e+00	0	23	104	0	81	23941
2026-01-11 23:11:09.49	36.15	17.82	-58.1	-74.1	3.8	1.49e+00	0	23	104	0	81	23985
2026-01-11 23:11:13.53	36.67	18.22	-58.1	-74.1	3.8	1.49e+00	0	23	104	0	81	23916
2026-01-11 23:11:17.57	37.22	18.63	-58.1	-74.0	3.8	1.49e+00	0	23	104	0	81	23829
2026-01-11 23:11:21.61	37.77	19.04	-58.1	-74.0	3.8	1.49e+00	0	23	104	0	81	23762
2026-01-11 23:11:25.63	38.34	19.45	-58.1	-74.1	3.8	1.49e+00	0	23	104	0	81	23887
2026-01-11 23:11:29.67	38.93	19.87	-58.1	-74.1	3.8	1.49e+00	0	23	104	0	81	23889
2026-01-11 23:11:33.70	39.53	20.30	-58.1	-74.1	3.8	1.49e+00	0	23	104	0	81	23944
2026-01-11 23:11:37.72	40.14	20.72	-58.1	-74.1	3.8	1.49e+00	0	23	104	0	81	24004
2026-01-11 23:11:41.75	40.78	21.15	-58.1	-74.1	3.8	1.49e+00	0	23	104	0	81	23903
2026-01-11 23:11:45.79	41.43	21.59	-58.1	-74.1	3.8	1.49e+00	0	23	104	0	81	23904
2026-01-11 23:11:49.83	42.10	22.03	-58.0	-74.1	3.8	1.49e+00	0	23	104	0	81	23865
2026-01-11 23:11:53.86	42.79	22.47	-58.0	-74.0	3.8	1.49e+00	0	23	104	0	81	23783
2026-01-11 23:11:57.90	43.50	22.92	-58.0	-74.0	3.8	1.49e+00	0	23	104	0	81	23826
2026-01-11 23:12:01.94	44.23	23.37	-58.0	-74.0	3.8	1.49e+00	0	23	104	0	81	23652
2026-01-11 23:12:05.97	44.98	23.82	-58.0	-73.9	3.8	1.49e+00	0	23	104	0	81	23437
2026-01-11 23:12:10.00	45.74	24.28	-58.0	-74.0	3.8	1.49e+00	0	23	104	0	81	23823
2026-01-11 23:12:14.04	46.54	24.73	-58.0	-74.0	3.8	1.49e+00	0	23	104	0	81	23715
2026-01-11 23:12:18.08	47.35	25.20	-58.0	-74.0	3.8	1.49e+00	0	23	104	0	81	23742
2026-01-11 23:12:22.11	48.19	25.66	-58.0	-74.0	3.8	1.49e+00	0	23	104	0	81	23766
2026-01-11 23:12:26.14	49.06	26.12	-58.0	-74.0	3.8	1.49e+00	0	23	104	0	81	23736
2026-01-11 23:12:30.17	49.94	26.59	-58.0	-74.0	3.8	1.49e+00	0	23	104	0	81	23714
2026-01-11 23:12:34.20	50.86	27.05	-58.0	-74.0	3.8	1.49e+00	0	23	104	0	81	23817
2026-01-11 23:12:38.23	51.80	27.52	-58.0	-74.0	3.8	1.49e+00	0	23	104	0	81	23680
2026-01-11 23:12:42.27	52.76	27.98	-58.0	-74.0	3.8	1.49e+00	0	23	104	0	81	23810
2026-01-11 23:12:46.31	53.76	28.45	-58.0	-74.0	3.8	1.49e+00	0	23	104	0	81	23617
2026-01-11 23:12:50.34	54.79	28.91	-58.0	-74.0	3.8	1.49e+00	0	23	104	0	81	23623
2026-01-11 23:12:54.37	55.84	29.37	-58.0	-74.0	3.8	1.49e+00	0	23	104	0	81	23657
2026-01-11 23:12:58.41	56.92	29.83	-58.0	-74.0	3.8	1.49e+00	0	23	104	0	81	23678
2026-01-11 23:13:02.45	58.04	30.29	-58.0	-74.0	3.8	1.49e+00	0	23	104	0	81	23646
2026-01-11 23:13:06.48	59.18	30.73	-57.9	-74.0	3.8	1.49e+00	0	23	104	0	81	23615
2026-01-11 23:13:10.51	60.36	31.18	-58.0	-74.0	3.8	1.49e+00	0	23	104	0	81	23611
2026-01-11 23:13:14.55	61.57	31.61	-58.0	-74.0	3.8	1.49e+00	0	23	104	0	81	23584
2026-01-11 23:13:18.59	62.81	32.04	-58.0	-74.0	3.8	1.49e+00	0	23	104	0	81	23649
2026-01-11 23:13:22.63	64.09	32.47	-58.0	-74.0	3.8	1.49e+00	0	23	104	0	81	23677
2026-01-11 23:13:26.66	65.39	32.88	-58.0	-74.0	3.8	1.49e+00	0	23	104	0	81	23583
2026-01-11 23:13:30.70	66.73	33.27	-57.9	-73.9	3.8	1.49e+00	0	23	104	0	81	23550
2026-01-11 23:13:34.73	68.10	33.66	-57.9	-73.9	3.8	1.49e+00	0	23	104	0	81	23545
2026-01-11 23:13:38.76	69.50	34.03	-57.9	-73.9	3.8	1.49e+00	0	23	104	0	81	23578
2026-01-11 23:13:42.80	70.94	34.39	-57.9	-73.9	3.8	1.49e+00	0	23	104	0	81	23549
2026-01-11 23:13:46.83	72.40	34.74	-57.9	-73.9	3.8	1.49e+00	0	23	104	0	81	23509
2026-01-11 23:13:50.87	73.90	35.06	-57.9	-73.9	3.8	1.49e+00	0	23	104	0	81	23525
2026-01-11 23:13:54.91	75.43	35.37	-57.9	-73.9	3.8	1.49e+00	0	23	104	0	81	23519
2026-01-11 23:13:58.95	76.98	35.66	-57.9	-73.9	3.8	1.49e+00	0	23	104	0	81	23471
2026-01-11 23:14:02.99	78.56	35.92	-57.9	-73.9	3.8	1.49e+00	0	23	104	0	81	23494
2026-01-11 23:14:07.02	80.16	36.17	-57.9	-73.9	3.9	1.49e+00	0	23	104	0	81	23414
2026-01-11 23:14:11.05	81.79	36.39	-57.9	-73.9	3.8	1.49e+00	0	23	104	0	81	23436
2026-01-11 23:14:15.09	83.44	36.58	-57.9	-73.9	3.8	1.49e+00	0	23	104	0	81	23414
2026-01-11 23:14:19.12	85.10	36.75	-57.9	-73.9	3.8	1.49e+00	0	23	104	0	81	23357
2026-01-11 23:14:23.16	86.78	36.90	-57.9	-73.8	3.8	1.49e+00	0	23	104	0	81	23273
2026-01-11 23:14:27.19	88.48	37.02	-57.9	-73.8	3.8	1.49e+00	0	23	104	0	81	23278
2026-01-11 23:14:31.22	90.18	37.11	-57.8	-73.8	3.8	1.49e+00	0	23	104	0	81	23254
2026-01-11 23:14:35.27	91.90	37.17	-57.8	-73.8	3.8	1.49e+00	0	23	104	0	81	23292
2026-01-11 23:14:39.29	93.61	37.20	-57.8	-73.8	3.8	1.49e+00	0	23	104	0	81	23270
2026-01-11 23:14:43.33	95.34	37.21	-57.8	-73.8	3.8	1.49e+00	0	23	104	0	81	23223
2026-01-11 23:14:47.37	97.06	37.19	-57.8	-73.8	3.8	1.49e+00	0	23	104	0	81	23200
2026-01-11 23:14:51.41	98.78	37.14	-57.8	-73.8	3.8	1.49e+00	0	23	104	0	81	23193
2026-01-11 23:14:55.44	100.49	37.06	-57.8	-73.8	3.8	1.49e+00	0	23	104	0	81	23205
2026-01-11 23:14:59.48	102.19	36.95	-57.8	-73.8	3.8	1.49e+00	0	23	104	0	81	23147
2026-01-11 23:15:03.52	103.88	36.82	-57.8	-73.8	3.8	1.49e+00	0	23	104	0	81	23144
2026-01-11 23:15:07.55	105.55	36.66	-57.8	-73.8	3.8	1.49e+00	0	23	104	0	81	23123
2026-01-11 23:15:11.58	107.21	36.47	-57.8	-73.8	3.8	1.49e+00	0	23	104	0	81	23075
2026-01-11 23:15:15.62	108.85	36.26	-57.8	-73.8	3.8	1.49e+00	0	23	104	0	81	23128
2026-01-11 23:15:19.66	110.46	36.03	-57.8	-73.7	3.8	1.49e+00	0	23	104	0	81	23009
2026-01-11 23:15:23.70	112.06	35.77	-57.7	-73.7	3.8	1.49e+00	0	23	104	0	81	23041
2026-01-11 23:15:27.72	113.62	35.49	-57.7	-73.7	3.8	1.49e+00	0	23	104	0	81	22943
2026-01-11 23:15:31.76	115.16	35.19	-57.7	-73.7	3.8	1.49e+00	0	23	104	0	81	22965
2026-01-11 23:15:35.80	116.67	34.87	-57.7	-73.7	3.8	1.49e+00	0	23	104	0	81	22861
2026-01-11 23:15:39.83	118.15	34.54	-57.7	-73.7	3.8	1.49e+00	0	23	104	0	81	22925
2026-01-11 23:15:43.87	119.60	34.18	-57.7	-73.7	3.8	1.49e+00	0	23	104	0	81	22847
2026-01-11 23:15:47.90	121.02	33.82	-57.7	-73.7	3.8	1.49e+00	0	23	104	0	81	22880
2026-01-11 23:15:51.93	122.41	33.43	-57.7	-73.7	3.8	1.49e+00	0	23	104	0	81	22798
2026-01-11 23:15:55.97	123.76	33.04	-57.7	-73.7	3.8	1.49e+00	0	23	104	0	81	22860
2026-01-11 23:16:00.00	125.09	32.63	-57.6	-73.7	3.8	1.49e+00	0	23	104	0	81	22787
2026-01-11 23:16:04.03	126.37	32.21	-57.7	-73.6	3.8	1.49e+00	0	23	104	0	81	22723
2026-01-11 23:16:08.08	127.64	31.78	-57.6	-73.6	3.8	1.49e+00	0	23	104	0	81	22763
2026-01-11 23:16:12.11	128.86	31.35	-57.6	-73.6	3.8	1.49e+00	0	23	104	0	81	22713
2026-01-11 23:16:16.15	130.06	30.91	-57.6	-73.6	3.8	1.49e+00	0	23	104	0	81	22751
2026-01-11 23:16:20.18	131.22	30.46	-57.6	-73.6	3.8	1.49e+00	0	23	104	0	81	22652
2026-01-11 23:16:24.22	132.35	30.00	-57.6	-73.6	3.8	1.49e+00	0	23	104	0	81	22581
2026-01-11 23:16:28.26	133.45	29.54	-57.6	-73.6	3.8	1.49e+00	0	23	104	0	81	22633
2026-01-11 23:16:32.29	134.52	29.08	-57.6	-73.6	3.8	1.49e+00	0	23	104	0	81	22599
2026-01-11 23:16:36.33	135.56	28.62	-57.6	-73.6	3.8	1.49e+00	0	23	104	0	81	22616
2026-01-11 23:16:40.36	136.57	28.15	-57.6	-73.5	3.8	1.49e+00	0	23	104	0	81	22481
2026-01-11 23:16:44.39	137.55	27.68	-57.5	-73.5	3.8	1.49e+00	0	23	104	0	81	22450
2026-01-11 23:16:48.42	138.50	27.22	-57.5	-73.5	3.8	1.49e+00	0	23	104	0	81	22435
2026-01-11 23:16:52.46	139.43	26.75	-57.5	-73.5	3.8	1.49e+00	0	23	104	0	81	22440
2026-01-11 23:16:56.49	140.33	26.28	-57.5	-73.5	3.8	1.49e+00	0	23	104	0	81	22402
2026-01-11 23:17:00.53	141.21	25.81	-57.5	-73.5	3.8	1.49e+00	0	23	104	0	81	22388
2026-01-11 23:17:04.57	142.06	25.35	-57.5	-73.4	3.8	1.49e+00	0	23	104	0	81	22229
2026-01-11 23:17:08.60	142.88	24.88	-57.5	-73.5	3.8	1.49e+00	0	23	104	0	81	22334
2026-01-11 23:17:12.63	143.69	24.42	-57.5	-73.4	3.8	1.49e+00	0	23	104	0	81	22192
2026-01-11 23:17:16.67	144.47	23.96	-57.4	-73.4	3.8	1.49e+00	0	23	104	0	81	22153
2026-01-11 23:17:20.70	145.23	23.51	-57.4	-73.4	3.8	1.49e+00	0	23	104	0	81	22192
2026-01-11 23:17:24.74	145.96	23.05	-57.4	-73.4	3.8	1.49e+00	0	23	104	0	81	22140
2026-01-11 23:17:28.76	146.68	22.60	-57.4	-73.4	3.8	1.49e+00	0	23	104	0	81	22041
2026-01-11 23:17:32.80	147.38	22.16	-57.4	-73.3	3.8	1.49e+00	0	23	104	0	81	21988
2026-01-11 23:17:36.83	148.06	21.71	-57.3	-73.3	3.8	1.49e+00	0	23	104	0	81	21976
2026-01-11 23:17:40.86	148.72	21.27	-57.3	-73.3	3.8	1.49e+00	0	23	104	0	81	21953
2026-01-11 23:17:44.90	149.36	20.84	-57.3	-73.3	3.8	1.49e+00	0	23	104	0	81	21894
2026-01-11 23:17:48.93	149.98	20.41	-57.3	-73.3	3.8	1.49e+00	0	23	104	0	81	21854
2026-01-11 23:17:52.97	150.59	19.98	-57.3	-73.3	3.8	1.49e+00	0	23	104	0	81	21792
2026-01-11 23:17:57.00	151.18	19.56	-57.3	-73.2	3.8	1.49e+00	0	23	104	0	81	21715
2026-01-11 23:18:01.03	151.76	19.14	-57.2	-73.2	3.8	1.49e+00	0	23	104	0	81	21673
2026-01-11 23:18:05.07	152.32	18.73	-57.2	-73.2	3.8	1.49e+00	0	23	104	0	81	21567
2026-01-11 23:18:09.10	152.87	18.32	-57.2	-73.2	3.8	1.49e+00	0	23	104	0	81	21551
2026-01-11 23:18:13.14	153.40	17.91	-57.2	-73.1	3.8	1.49e+00	0	23	104	0	81	21487
2026-01-11 23:18:17.18	153.92	17.51	-57.1	-73.1	3.8	1.49e+00	0	23	104	0	80	22604
2026-01-11 23:18:21.22	154.43	17.11	-57.1	-73.1	3.8	1.49e+00	0	23	104	0	80	22521
2026-01-11 23:18:25.25	154.92	16.72	-57.1	-73.0	3.8	1.49e+00	0	23	104	0	80	22449
2026-01-11 23:18:29.28	155.41	16.33	-57.0	-73.0	3.8	1.49e+00	0	23	104	0	80	22374
2026-01-11 23:18:33.32	155.88	15.95	-57.0	-72.9	3.8	1.49e+00	0	23	104	0	80	22238
2026-01-11 23:18:37.36	156.34	15.57	-57.1	-73.0	3.8	1.49e+00	0	23	104	0	80	22411
2026-01-11 23:18:41.39	156.78	15.19	-58.4	-74.4	3.8	1.49e+00	0	23	104	0	81	24813
2026-01-11 23:18:45.42	157.22	14.82	-58.8	-74.8	3.8	1.49e+00	0	23	104	0	82	24682
2026-01-11 23:18:49.46	157.65	14.45	-58.9	-74.9	3.8	1.49e+00	0	23	104	0	82	24956
2026-01-11 23:18:53.50	158.07	14.09	-59.1	-75.1	3.8	1.49e+00	0	23	104	0	83	24034
2026-01-11 23:18:57.53	158.47	13.73	-59.1	-75.2	3.8	1.49e+00	0	23	104	0	83	24192
2026-01-11 23:19:01.57	158.87	13.37	-59.1	-75.2	3.8	1.49e+00	0	23	104	0	83	24205
2026-01-11 23:19:05.61	159.26	13.02	-59.1	-75.1	3.8	1.49e+00	0	23	104	0	83	24058
2026-01-11 23:19:09.65	159.64	12.67	-59.0	-75.0	3.8	1.49e+00	0	23	104	0	83	23737
2026-01-11 23:19:13.68	160.01	12.33	-58.8	-74.9	3.8	1.49e+00	0	23	104	0	83	23339
2026-01-11 23:19:17.71	160.38	11.99	-58.6	-74.3	3.8	1.49e+00	0	23	104	0	83	21898
2026-01-11 23:19:21.75	160.73	11.66	-53.0	-55.3	14.4	0.00e+00	0	23	0	3145728	72	4611
2026-01-11 23:19:25.79	161.08	11.32	-53.3	-55.8	14.0	5.18e-05	0	23	0	10485760	72	4920
2026-01-11 23:19:29.81	161.42	11.00	-52.6	-54.8	14.5	0.00e+00	0	23	0	17825792	71	4632
2026-01-11 23:19:33.85	161.76	10.67	-52.7	-55.0	14.4	0.00e+00	0	23	0	25165824	71	4740
2026-01-11 23:19:37.89	162.08	10.35	-52.8	-55.2	14.2	0.00e+00	0	23	0	32505856	71	4826
2026-01-11 23:19:41.91	162.40	10.03	-52.8	-55.1	14.3	0.00e+00	0	23	0	40894464	71	4812
2026-01-11 23:19:45.95	162.72	9.71	-53.1	-55.6	14.0	0.00e+00	0	23	0	48234496	71	5058
2026-01-11 23:19:49.98	163.02	9.40	-53.1	-55.7	13.9	0.00e+00	0	23	0	55574528	71	5107
2026-01-11 23:19:54.02	163.33	9.09	-53.3	-56.0	13.6	0.00e+00	0	23	0	62914560	71	5333
2026-01-11 23:19:58.05	163.62	8.79	-53.4	-56.1	13.6	0.00e+00	0	23	0	71303168	71	5361
2026-01-11 23:20:02.09	163.91	8.49	-53.3	-56.0	13.7	0.00e+00	0	23	0	78643200	71	5294
2026-01-11 23:20:06.13	164.19	8.19	-53.3	-56.0	13.7	0.00e+00	0	23	0	85983232	71	5312
2026-01-11 23:20:10.16	164.47	7.89	-53.1	-55.7	13.8	0.00e+00	0	23	0	93323264	71	5143
2026-01-11 23:20:14.19	164.75	7.60	-53.4	-56.2	13.6	0.00e+00	0	23	0	100663296	72	5123
2026-01-11 23:20:18.23	165.01	7.31	-53.4	-56.2	13.6	0.00e+00	0	23	0	109051904	72	5138
2026-01-11 23:20:22.25	165.28	7.02	-53.6	-56.6	13.3	0.00e+00	0	23	0	116391936	72	5368
2026-01-11 23:20:26.28	165.53	6.73	-53.9	-57.1	13.0	0.00e+00	0	23	0	123731968	72	5664
2026-01-11 23:20:30.32	165.79	6.45	-54.3	-57.8	12.5	0.00e+00	0	23	0	131072000	73	5823
2026-01-11 23:20:34.36	166.04	6.17	-54.4	-58.0	12.5	2.20e-06	0	23	0	138412032	74	5620
2026-01-11 23:20:38.39	166.28	5.89	-54.4	-58.1	12.4	1.50e-06	0	23	0	146800640	74	5677
2026-01-11 23:20:42.42	166.52	5.62	-54.6	-58.6	11.9	6.10e-06	0	23	0	154140672	74	6003
2026-01-11 23:20:46.46	166.76	5.35	-54.2	-57.7	12.6	0.00e+00	0	23	0	161480704	74	5446
2026-01-11 23:20:50.49	166.99	5.08	-54.1	-57.7	12.6	2.20e-06	0	23	0	168820736	74	5403
2026-01-11 23:20:54.53	167.22	4.81	-58.3	-74.4	3.8	1.49e+00	0	23	104	171966464	81	24747
2026-01-11 23:20:58.56	167.44	4.54	-58.9	-74.9	3.8	1.49e+00	0	23	104	171966464	82	24931
2026-01-11 23:21:02.59	167.66	4.28	-59.2	-75.3	3.8	1.49e+00	0	23	104	171966464	83	24534
2026-01-11 23:21:06.62	167.88	4.02	-59.4	-75.4	3.8	1.49e+00	0	23	104	171966464	83	24915
2026-01-11 23:21:10.66	168.10	3.76	-59.6	-75.7	3.8	1.49e+00	0	23	104	171966464	84	24189
2026-01-11 23:21:14.68	168.30	3.51	-59.6	-75.6	3.8	1.49e+00	0	23	104	171966464	84	24068
2026-01-11 23:21:18.71	168.51	3.25	-59.5	-75.6	3.8	1.49e+00	0	24	104	171966464	84	23962
2026-01-11 23:21:22.75	168.72	3.00	-59.5	-75.6	3.8	1.49e+00	0	24	104	171966464	84	23932
2026-01-11 23:21:26.78	168.92	2.75	-59.5	-75.5	3.8	1.49e+00	0	23	104	171966464	84	23767
2026-01-11 23:21:30.82	169.11	2.50	-59.5	-75.5	3.8	1.49e+00	0	23	104	171966464	84	23762
2026-01-11 23:21:34.85	169.31	2.25	-59.5	-75.5	3.8	1.49e+00	0	24	104	171966464	84	23769
2026-01-11 23:21:38.88	169.50	2.01	-59.4	-75.5	3.8	1.49e+00	0	23	104	171966464	84	23607

#Closed at: 2026-01-11 23:21:41
#Recorded file [171 MB]: D:/lorett/data/31004_260112_020743.dat