passes_logs/2026/01/11/R3.2S_Murmansk/R3.2S_Murmansk__20260111_014559_FENGYUN_3D_rec.log

#Pass ID: 20260111_014559_FENGYUN 3D
#Satellite: FENGYUN 3D
#Configuration: FENGYUN 3D
#almurnet v.1.7.20251203
#Start time: 2026-01-11 01:46:00

#Version: 2.2.20231116
#Station: R3.2S_Murmansk
#Location: 33.079688 lon 68.888172 lat
#TLE: 1 43010U 17072A   26009.92921666 -.00000228  00000+0 -86059-4 0  9998
#TLE: 2 43010  98.9936 341.6668 0002176 116.7510 243.3888 14.19693142422537

#Time	Az	El	Level	Level2	SNR	BER	BlckErr	Temp	State	Recorded	gain1	gain2
2026-01-11 01:46:00.07	21.97	2.05	-53.3	-66.3	3.8	8.45e-01	0	24	0	0	71	17307
2026-01-11 01:46:04.08	22.10	2.30	-53.4	-66.3	3.8	8.45e-01	0	24	104	0	71	17382
2026-01-11 01:46:08.09	22.23	2.55	-53.4	-66.3	3.8	8.44e-01	0	24	104	0	71	17394
2026-01-11 01:46:12.09	22.37	2.80	-53.4	-66.3	3.8	8.45e-01	0	25	104	0	71	17421
2026-01-11 01:46:16.09	22.50	3.06	-53.4	-66.3	3.8	8.46e-01	0	25	104	0	71	17413
2026-01-11 01:46:20.10	22.64	3.32	-53.5	-66.4	3.8	8.46e-01	0	25	104	0	72	16535
2026-01-11 01:46:24.08	22.77	3.58	-53.5	-66.4	3.8	8.45e-01	0	25	104	0	72	16541
2026-01-11 01:46:28.08	22.91	3.84	-53.5	-66.4	3.8	8.45e-01	0	25	104	0	72	16512
2026-01-11 01:46:32.09	23.06	4.11	-53.5	-66.4	3.8	8.46e-01	0	25	104	0	72	16549
2026-01-11 01:46:36.09	23.20	4.37	-53.5	-66.4	3.8	8.46e-01	0	25	104	0	72	16668
2026-01-11 01:46:40.10	23.35	4.65	-53.5	-66.4	3.8	8.47e-01	0	25	104	0	72	16616
2026-01-11 01:46:44.11	23.50	4.92	-53.5	-66.5	3.8	8.45e-01	0	25	104	0	72	16722
2026-01-11 01:46:48.13	23.65	5.20	-53.5	-66.4	3.8	8.45e-01	0	25	104	0	72	16673
2026-01-11 01:46:52.12	23.81	5.48	-53.5	-66.5	3.8	8.45e-01	0	26	104	0	72	16712
2026-01-11 01:46:56.11	23.96	5.76	-53.5	-66.4	3.8	8.47e-01	0	25	104	0	72	16637
2026-01-11 01:47:00.12	24.12	6.04	-53.5	-66.4	3.8	8.47e-01	0	26	104	0	72	16645
2026-01-11 01:47:04.11	24.29	6.33	-53.5	-66.4	3.8	8.46e-01	0	26	104	0	72	16684
2026-01-11 01:47:08.11	24.45	6.62	-53.5	-66.5	3.8	8.44e-01	0	26	104	0	72	16746
2026-01-11 01:47:12.12	24.62	6.91	-53.5	-66.5	3.8	8.45e-01	0	26	104	0	72	16776
2026-01-11 01:47:16.14	24.79	7.21	-53.5	-66.5	3.8	8.45e-01	0	26	104	0	72	16788
2026-01-11 01:47:20.14	24.97	7.51	-53.6	-66.5	3.8	8.47e-01	0	26	104	0	72	16748
2026-01-11 01:47:24.13	25.15	7.82	-53.5	-66.5	3.8	8.45e-01	0	26	104	0	72	16734
2026-01-11 01:47:28.12	25.33	8.12	-53.6	-66.5	3.8	8.45e-01	0	26	104	0	72	16811
2026-01-11 01:47:32.12	25.51	8.43	-53.6	-66.5	3.8	8.45e-01	0	26	104	0	72	16800
2026-01-11 01:47:36.13	25.70	8.75	-53.6	-66.5	3.8	8.45e-01	0	26	104	0	72	16745
2026-01-11 01:47:40.13	25.89	9.07	-53.6	-66.5	3.8	8.46e-01	0	26	104	0	72	16757
2026-01-11 01:47:44.14	26.09	9.39	-53.6	-66.5	3.8	8.44e-01	0	26	104	0	72	16754
2026-01-11 01:47:48.15	26.29	9.72	-53.6	-66.5	3.8	8.45e-01	0	26	104	0	72	16736
2026-01-11 01:47:52.16	26.50	10.05	-53.6	-66.5	3.8	8.45e-01	0	26	104	0	72	16733
2026-01-11 01:47:56.16	26.71	10.38	-53.6	-66.5	3.8	8.44e-01	0	26	104	0	72	16822
2026-01-11 01:48:00.17	26.92	10.72	-53.6	-66.5	3.8	8.46e-01	0	27	104	0	72	16802
2026-01-11 01:48:04.17	27.14	11.07	-53.6	-66.5	3.8	8.46e-01	0	26	104	0	72	16800
2026-01-11 01:48:08.17	27.36	11.41	-53.6	-66.5	3.8	8.47e-01	0	26	104	0	72	16818
2026-01-11 01:48:12.19	27.59	11.77	-53.6	-66.5	3.8	8.45e-01	0	26	104	0	72	16841
2026-01-11 01:48:16.19	27.82	12.12	-53.6	-66.5	3.8	8.46e-01	0	27	104	0	72	16850
2026-01-11 01:48:20.20	28.06	12.49	-53.6	-66.5	3.8	8.45e-01	0	27	104	0	72	16785
2026-01-11 01:48:24.20	28.30	12.85	-53.6	-66.5	3.8	8.47e-01	0	27	104	0	72	16877
2026-01-11 01:48:28.19	28.55	13.23	-53.6	-66.5	3.8	8.45e-01	0	26	104	0	72	16828
2026-01-11 01:48:32.18	28.81	13.60	-53.6	-66.5	3.8	8.46e-01	0	26	104	0	72	16846
2026-01-11 01:48:36.17	29.07	13.98	-53.6	-66.5	3.8	8.46e-01	0	26	104	0	72	16886
2026-01-11 01:48:40.18	29.33	14.37	-53.6	-66.6	3.8	8.45e-01	0	27	104	0	72	16913
2026-01-11 01:48:44.19	29.61	14.77	-53.6	-66.5	3.8	8.46e-01	0	27	104	0	72	16858
2026-01-11 01:48:48.20	29.89	15.17	-53.6	-66.5	3.8	8.46e-01	0	26	104	0	72	16864
2026-01-11 01:48:52.21	30.18	15.58	-53.6	-66.5	3.8	8.46e-01	0	27	104	0	72	16883
2026-01-11 01:48:56.21	30.48	15.99	-53.6	-66.6	3.8	8.46e-01	0	27	104	0	72	16915
2026-01-11 01:49:00.22	30.78	16.41	-53.6	-66.6	3.8	8.44e-01	0	27	104	0	72	16913
2026-01-11 01:49:04.22	31.09	16.84	-53.6	-66.6	3.8	8.46e-01	0	27	104	0	72	16976
2026-01-11 01:49:08.22	31.41	17.27	-53.6	-66.5	3.8	8.46e-01	0	27	104	0	72	16873
2026-01-11 01:49:12.23	31.74	17.71	-53.6	-66.6	3.8	8.45e-01	0	27	104	0	72	16914
2026-01-11 01:49:16.25	32.08	18.16	-53.6	-66.6	3.8	8.45e-01	0	27	104	0	72	16902
2026-01-11 01:49:20.26	32.43	18.62	-53.6	-66.6	3.8	8.46e-01	0	27	104	0	72	16929
2026-01-11 01:49:24.26	32.79	19.08	-53.6	-66.5	3.8	8.45e-01	0	27	104	0	72	16884
2026-01-11 01:49:28.26	33.16	19.55	-53.6	-66.6	3.8	8.46e-01	0	27	104	0	72	16913
2026-01-11 01:49:32.24	33.54	20.02	-53.6	-66.6	3.8	8.46e-01	0	27	104	0	72	16936
2026-01-11 01:49:36.24	33.93	20.51	-53.6	-66.5	3.8	8.45e-01	0	27	104	0	72	16882
2026-01-11 01:49:40.24	34.33	21.00	-53.6	-66.6	3.8	8.45e-01	0	27	104	0	72	16936
2026-01-11 01:49:44.25	34.75	21.51	-53.6	-66.5	3.8	8.45e-01	0	27	104	0	72	16878
2026-01-11 01:49:48.26	35.18	22.02	-53.6	-66.5	3.8	8.44e-01	0	27	104	0	72	16870
2026-01-11 01:49:52.26	35.62	22.54	-53.6	-66.6	3.8	8.45e-01	0	27	104	0	72	16915
2026-01-11 01:49:56.27	36.08	23.07	-53.6	-66.6	3.8	8.46e-01	0	27	104	0	72	16945
2026-01-11 01:50:00.26	36.55	23.61	-53.6	-66.6	3.8	8.45e-01	0	27	104	0	72	16905
2026-01-11 01:50:04.27	37.04	24.16	-53.6	-66.6	3.8	8.46e-01	0	27	104	0	72	16945
2026-01-11 01:50:08.27	37.55	24.72	-53.6	-66.6	3.8	8.46e-01	0	27	104	0	72	16939
2026-01-11 01:50:12.27	38.07	25.28	-53.6	-66.6	3.8	8.46e-01	0	27	104	0	72	16901
2026-01-11 01:50:16.27	38.61	25.86	-53.6	-66.6	3.8	8.46e-01	0	27	104	0	72	16989
2026-01-11 01:50:20.27	39.17	26.45	-53.6	-66.6	3.8	8.45e-01	0	27	104	0	72	16947
2026-01-11 01:50:24.27	39.76	27.05	-53.6	-66.6	3.8	8.44e-01	0	27	104	0	72	16958
2026-01-11 01:50:28.27	40.36	27.65	-53.6	-66.6	3.8	8.45e-01	0	27	104	0	72	16963
2026-01-11 01:50:32.26	40.98	28.27	-53.6	-66.6	3.8	8.46e-01	0	27	104	0	72	16912
2026-01-11 01:50:36.25	41.63	28.90	-53.6	-66.6	3.8	8.46e-01	0	27	104	0	72	16959
2026-01-11 01:50:40.27	42.31	29.54	-53.6	-66.6	3.8	8.44e-01	0	27	104	0	72	16933
2026-01-11 01:50:44.28	43.02	30.19	-53.6	-66.6	3.8	8.45e-01	0	27	104	0	72	16938
2026-01-11 01:50:48.28	43.75	30.85	-53.6	-66.6	3.8	8.43e-01	0	27	104	0	72	16927
2026-01-11 01:50:52.29	44.51	31.52	-53.7	-66.6	3.8	8.46e-01	0	27	104	0	72	16994
2026-01-11 01:50:56.30	45.31	32.20	-53.7	-66.6	3.8	8.46e-01	0	27	104	0	72	16990
2026-01-11 01:51:00.31	46.14	32.90	-53.6	-66.6	3.8	8.45e-01	0	27	104	0	72	16969
2026-01-11 01:51:04.32	47.00	33.60	-53.6	-66.6	3.8	8.45e-01	0	27	104	0	72	16942
2026-01-11 01:51:08.33	47.91	34.31	-53.6	-66.6	3.8	8.46e-01	0	27	104	0	72	16908
2026-01-11 01:51:12.32	48.84	35.02	-53.6	-66.6	3.8	8.45e-01	0	27	104	0	72	16923
2026-01-11 01:51:16.33	49.83	35.75	-53.6	-66.6	3.8	8.46e-01	0	27	104	0	72	16964
2026-01-11 01:51:20.34	50.85	36.48	-53.6	-66.6	3.8	8.47e-01	0	27	104	0	72	16944
2026-01-11 01:51:24.35	51.93	37.22	-53.7	-66.6	3.8	8.45e-01	0	27	104	0	72	16984
2026-01-11 01:51:28.36	53.05	37.97	-53.6	-66.6	3.8	8.46e-01	0	27	104	0	72	16972
2026-01-11 01:51:32.36	54.22	38.71	-53.7	-66.6	3.8	8.45e-01	0	27	104	0	72	16986
2026-01-11 01:51:36.35	55.45	39.46	-53.7	-66.6	3.8	8.46e-01	0	27	104	0	72	16970
2026-01-11 01:51:40.34	56.73	40.21	-53.7	-66.6	3.8	8.46e-01	0	27	104	0	72	17020
2026-01-11 01:51:44.33	58.07	40.96	-53.7	-66.6	3.8	8.45e-01	0	27	104	0	72	17003
2026-01-11 01:51:48.34	59.48	41.71	-53.7	-66.6	3.8	8.45e-01	0	27	104	0	72	17003
2026-01-11 01:51:52.35	60.95	42.46	-53.7	-66.6	3.8	8.46e-01	0	27	104	0	72	16968
2026-01-11 01:51:56.35	62.49	43.20	-53.7	-66.6	3.8	8.46e-01	0	27	104	0	72	16993
2026-01-11 01:52:00.34	64.10	43.92	-53.7	-66.6	3.8	8.46e-01	0	27	104	0	72	16991
2026-01-11 01:52:04.33	65.78	44.64	-53.7	-66.6	3.8	8.45e-01	0	27	104	0	72	16969
2026-01-11 01:52:08.32	67.54	45.34	-53.7	-66.6	3.8	8.47e-01	0	27	104	0	72	16948
2026-01-11 01:52:12.33	69.38	46.02	-53.6	-66.6	3.8	8.45e-01	0	27	104	0	72	16951
2026-01-11 01:52:16.34	71.31	46.68	-53.7	-66.6	3.8	8.45e-01	0	27	104	0	72	16974
2026-01-11 01:52:20.36	73.32	47.32	-53.6	-66.6	3.8	8.44e-01	0	27	104	0	72	16933
2026-01-11 01:52:24.37	75.40	47.93	-53.7	-66.6	3.8	8.46e-01	0	27	104	0	72	16985
2026-01-11 01:52:28.36	77.56	48.50	-53.6	-66.6	3.8	8.46e-01	0	27	104	0	72	16991
2026-01-11 01:52:32.37	79.80	49.04	-53.7	-66.6	3.8	8.46e-01	0	27	104	0	72	16984
2026-01-11 01:52:36.38	82.12	49.53	-53.7	-66.6	3.8	8.46e-01	0	27	104	0	72	16974
2026-01-11 01:52:40.38	84.51	49.98	-53.7	-66.6	3.8	8.45e-01	0	27	104	0	72	16995
2026-01-11 01:52:44.38	86.96	50.38	-53.6	-66.6	3.8	8.45e-01	0	27	104	0	72	16963
2026-01-11 01:52:48.39	89.49	50.72	-53.7	-66.6	3.8	8.45e-01	0	27	104	0	72	16961
2026-01-11 01:52:52.40	92.06	51.01	-53.7	-66.6	3.8	8.46e-01	0	27	104	0	72	16936
2026-01-11 01:52:56.40	94.67	51.24	-53.7	-66.6	3.8	8.45e-01	0	27	104	0	72	16945
2026-01-11 01:53:00.42	97.34	51.41	-53.7	-66.6	3.8	8.46e-01	0	27	104	0	72	16955
2026-01-11 01:53:04.42	100.01	51.52	-53.7	-66.6	3.8	8.45e-01	0	27	104	0	72	17012
2026-01-11 01:53:08.41	102.69	51.56	-53.7	-66.6	3.8	8.45e-01	0	27	104	0	72	16975
2026-01-11 01:53:12.43	105.39	51.54	-53.7	-66.6	3.8	8.45e-01	0	27	104	0	72	16990
2026-01-11 01:53:16.44	108.08	51.45	-53.7	-66.6	3.8	8.45e-01	0	27	104	0	72	16982
2026-01-11 01:53:20.44	110.74	51.30	-53.7	-66.6	3.8	8.45e-01	0	27	104	0	72	16993
2026-01-11 01:53:24.44	113.36	51.09	-53.7	-66.6	3.8	8.45e-01	0	27	104	0	72	17007
2026-01-11 01:53:28.45	115.96	50.82	-53.7	-66.6	3.8	8.45e-01	0	27	104	0	72	17041
2026-01-11 01:53:32.45	118.49	50.49	-53.7	-66.6	3.8	8.46e-01	0	27	104	0	72	17018
2026-01-11 01:53:36.44	120.96	50.11	-53.7	-66.6	3.8	8.46e-01	0	27	104	0	72	17028
2026-01-11 01:53:40.43	123.37	49.67	-53.7	-66.6	3.8	8.46e-01	0	27	104	0	72	16970
2026-01-11 01:53:44.42	125.70	49.19	-53.7	-66.6	3.8	8.44e-01	0	27	104	0	72	17014
2026-01-11 01:53:48.43	127.97	48.67	-53.7	-66.6	3.8	8.45e-01	0	27	104	0	72	17007
2026-01-11 01:53:52.43	130.16	48.11	-53.7	-66.6	3.8	8.45e-01	0	27	104	0	72	17045
2026-01-11 01:53:56.45	132.28	47.51	-53.7	-66.6	3.8	8.44e-01	0	27	104	0	72	16975
2026-01-11 01:54:00.46	134.32	46.88	-53.7	-66.6	3.8	8.46e-01	0	27	104	0	72	16994
2026-01-11 01:54:04.48	136.27	46.22	-53.7	-66.6	3.8	8.45e-01	0	27	104	0	72	17020
2026-01-11 01:54:08.48	138.14	45.54	-53.7	-66.6	3.8	8.45e-01	0	27	104	0	72	17002
2026-01-11 01:54:12.48	139.93	44.84	-53.7	-66.6	3.8	8.46e-01	0	27	104	0	72	17022
2026-01-11 01:54:16.50	141.65	44.12	-53.7	-66.6	3.8	8.45e-01	0	27	104	0	72	16994
2026-01-11 01:54:20.52	143.30	43.39	-53.7	-66.6	3.8	8.46e-01	0	27	104	0	72	17018
2026-01-11 01:54:24.54	144.87	42.65	-53.7	-66.6	3.8	8.45e-01	0	27	104	0	72	17067
2026-01-11 01:54:28.54	146.36	41.90	-53.7	-66.6	3.8	8.45e-01	0	27	104	0	72	17025
2026-01-11 01:54:32.56	147.80	41.15	-53.7	-66.6	3.8	8.46e-01	0	27	104	0	72	17066
2026-01-11 01:54:36.55	149.16	40.40	-53.7	-66.6	3.8	8.46e-01	0	27	104	0	72	17004
2026-01-11 01:54:40.54	150.46	39.65	-53.7	-66.6	3.8	8.44e-01	0	27	104	0	72	17005
2026-01-11 01:54:44.55	151.70	38.89	-53.7	-66.6	3.8	8.45e-01	0	27	104	0	72	16966
2026-01-11 01:54:48.55	152.89	38.14	-53.7	-66.6	3.8	8.44e-01	0	27	104	0	72	16948
2026-01-11 01:54:52.54	154.03	37.39	-53.6	-66.6	3.8	8.45e-01	0	27	104	0	72	16961
2026-01-11 01:54:56.57	155.12	36.64	-53.7	-66.6	3.8	8.45e-01	0	27	104	0	72	16998
2026-01-11 01:55:00.58	156.16	35.91	-53.7	-66.6	3.8	8.46e-01	0	27	104	0	72	16982
2026-01-11 01:55:04.59	157.16	35.17	-53.6	-66.6	3.8	8.45e-01	0	27	104	0	72	16939
2026-01-11 01:55:08.60	158.11	34.45	-53.7	-66.6	3.8	8.45e-01	0	27	104	0	72	16988
2026-01-11 01:55:12.59	159.02	33.74	-53.7	-66.6	3.8	8.46e-01	0	27	104	0	72	16959
2026-01-11 01:55:16.61	159.90	33.03	-53.7	-66.6	3.8	8.45e-01	0	27	104	0	72	16995
2026-01-11 01:55:20.61	160.74	32.33	-53.7	-66.6	3.8	8.44e-01	0	27	104	0	72	17030
2026-01-11 01:55:24.62	161.55	31.65	-53.7	-66.6	3.8	8.47e-01	0	27	104	0	72	16979
2026-01-11 01:55:28.62	162.32	30.97	-53.7	-66.6	3.8	8.46e-01	0	27	104	0	72	16986
2026-01-11 01:55:32.60	163.05	30.31	-53.7	-66.6	3.8	8.45e-01	0	27	104	0	72	17009
2026-01-11 01:55:36.60	163.77	29.65	-53.7	-66.6	3.8	8.46e-01	0	27	104	0	72	17022
2026-01-11 01:55:40.60	164.45	29.01	-53.7	-66.6	3.8	8.46e-01	0	27	104	0	72	16960
2026-01-11 01:55:44.60	165.11	28.37	-53.7	-66.6	3.8	8.45e-01	0	27	104	0	72	16987
2026-01-11 01:55:48.59	165.74	27.75	-53.7	-66.6	3.8	8.46e-01	0	27	104	0	72	16974
2026-01-11 01:55:52.59	166.35	27.14	-53.7	-66.6	3.8	8.46e-01	0	27	104	0	72	17020
2026-01-11 01:55:56.59	166.94	26.53	-53.7	-66.6	3.8	8.45e-01	0	27	104	0	72	16968
2026-01-11 01:56:00.60	167.51	25.94	-53.7	-66.6	3.8	8.46e-01	0	27	104	0	72	16965
2026-01-11 01:56:04.62	168.06	25.35	-53.7	-66.6	3.8	8.46e-01	0	27	104	0	72	16940
2026-01-11 01:56:08.62	168.59	24.78	-53.7	-66.6	3.8	8.46e-01	0	27	104	0	72	16975
2026-01-11 01:56:12.61	169.10	24.22	-53.7	-66.6	3.8	8.45e-01	0	27	104	0	72	17009
2026-01-11 01:56:16.61	169.59	23.67	-53.7	-66.6	3.8	8.46e-01	0	27	104	0	72	16962
2026-01-11 01:56:20.62	170.07	23.12	-53.7	-66.6	3.8	8.45e-01	0	27	104	0	72	16974
2026-01-11 01:56:24.63	170.53	22.59	-53.7	-66.6	3.8	8.45e-01	0	27	104	0	72	16976
2026-01-11 01:56:28.63	170.97	22.06	-53.7	-66.6	3.8	8.47e-01	0	27	104	0	72	17021
2026-01-11 01:56:32.63	171.41	21.54	-53.6	-66.6	3.8	8.45e-01	0	27	104	0	72	16968
2026-01-11 01:56:36.64	171.83	21.04	-53.6	-66.6	3.8	8.45e-01	0	27	104	0	72	16952
2026-01-11 01:56:40.63	172.23	20.54	-53.7	-66.6	3.8	8.47e-01	0	27	104	0	72	16925
2026-01-11 01:56:44.63	172.62	20.05	-53.7	-66.6	3.8	8.46e-01	0	27	104	0	72	16964
2026-01-11 01:56:48.62	173.01	19.57	-53.7	-66.6	3.8	8.46e-01	0	27	104	0	72	17027
2026-01-11 01:56:52.63	173.38	19.09	-53.7	-66.6	3.8	8.43e-01	0	27	104	0	72	16991
2026-01-11 01:56:56.63	173.74	18.63	-53.7	-66.6	3.8	8.46e-01	0	27	104	0	72	16967
2026-01-11 01:57:00.63	174.09	18.17	-53.7	-66.6	3.8	8.45e-01	0	27	104	0	72	17018
2026-01-11 01:57:04.64	174.43	17.72	-53.6	-66.6	3.8	8.46e-01	0	27	104	0	72	16941
2026-01-11 01:57:08.64	174.76	17.27	-53.7	-66.6	3.8	8.45e-01	0	27	104	0	72	16973
2026-01-11 01:57:12.63	175.08	16.84	-53.7	-66.6	3.8	8.45e-01	0	27	104	0	72	16959
2026-01-11 01:57:16.63	175.39	16.41	-53.7	-66.6	3.8	8.46e-01	0	27	104	0	72	16917
2026-01-11 01:57:20.63	175.69	15.99	-53.7	-66.6	3.8	8.47e-01	0	27	104	0	72	16944
2026-01-11 01:57:24.63	175.99	15.57	-53.6	-66.6	3.8	8.44e-01	0	27	104	0	72	16933
2026-01-11 01:57:28.64	176.28	15.16	-53.7	-66.6	3.8	8.45e-01	0	27	104	0	72	16951
2026-01-11 01:57:32.66	176.56	14.75	-53.6	-66.6	3.8	8.46e-01	0	27	104	0	72	16956
2026-01-11 01:57:36.65	176.84	14.36	-53.7	-66.6	3.8	8.46e-01	0	27	104	0	72	17021
2026-01-11 01:57:40.65	177.10	13.96	-53.7	-66.6	3.8	8.44e-01	0	27	104	0	72	17002
2026-01-11 01:57:44.65	177.37	13.58	-53.7	-66.6	3.8	8.44e-01	0	27	104	0	72	16968
2026-01-11 01:57:48.65	177.62	13.20	-53.7	-66.6	3.8	8.46e-01	0	27	104	0	72	17032
2026-01-11 01:57:52.64	177.87	12.82	-53.7	-66.6	3.8	8.45e-01	0	27	104	0	72	16935
2026-01-11 01:57:56.65	178.11	12.45	-53.7	-66.6	3.8	8.46e-01	0	27	104	0	72	16938
2026-01-11 01:58:00.66	178.35	12.09	-53.6	-66.6	3.8	8.45e-01	0	27	104	0	72	16963
2026-01-11 01:58:04.67	178.58	11.73	-53.7	-66.6	3.8	8.45e-01	0	27	104	0	72	16973
2026-01-11 01:58:08.68	178.81	11.37	-53.7	-66.6	3.8	8.46e-01	0	27	104	0	72	16974
2026-01-11 01:58:12.68	179.03	11.02	-53.6	-66.6	3.8	8.46e-01	0	27	104	0	72	16969
2026-01-11 01:58:16.70	179.25	10.67	-53.7	-66.6	3.8	8.45e-01	0	27	104	0	72	16896
2026-01-11 01:58:20.70	179.46	10.33	-53.7	-66.6	3.8	8.47e-01	0	27	104	0	72	16949
2026-01-11 01:58:24.72	179.67	9.99	-53.7	-66.6	3.8	8.47e-01	0	27	104	0	72	16933
2026-01-11 01:58:28.73	179.87	9.66	-53.7	-66.6	3.8	8.45e-01	0	27	104	0	72	16963
2026-01-11 01:58:32.73	180.07	9.33	-53.7	-66.6	3.8	8.46e-01	0	27	104	0	72	16935
2026-01-11 01:58:36.73	180.27	9.01	-53.7	-66.6	3.8	8.46e-01	0	27	104	0	72	16981
2026-01-11 01:58:40.73	180.46	8.69	-53.7	-66.6	3.8	8.44e-01	0	27	104	0	72	16981
2026-01-11 01:58:44.73	180.65	8.37	-53.7	-66.6	3.8	8.45e-01	0	27	104	0	72	16936
2026-01-11 01:58:48.74	180.83	8.06	-53.7	-66.6	3.8	8.45e-01	0	27	104	0	72	16976
2026-01-11 01:58:52.74	181.01	7.75	-53.7	-66.6	3.8	8.46e-01	0	27	104	0	72	16932
2026-01-11 01:58:56.74	181.19	7.44	-53.7	-66.6	3.8	8.46e-01	0	27	104	0	72	17039
2026-01-11 01:59:00.74	181.36	7.14	-53.7	-66.6	3.8	8.44e-01	0	27	104	0	72	17005
2026-01-11 01:59:04.76	181.53	6.84	-53.7	-66.6	3.8	8.45e-01	0	27	104	0	72	16978
2026-01-11 01:59:08.76	181.70	6.54	-53.7	-66.6	3.8	8.46e-01	0	27	104	0	72	16992
2026-01-11 01:59:12.77	181.86	6.25	-53.7	-66.6	3.8	8.45e-01	0	27	104	0	72	16986
2026-01-11 01:59:16.77	182.02	5.96	-53.7	-66.6	3.8	8.45e-01	0	27	104	0	72	16967
2026-01-11 01:59:20.78	182.18	5.67	-53.7	-66.6	3.8	8.46e-01	0	27	104	0	72	17002
2026-01-11 01:59:24.78	182.34	5.39	-53.7	-66.6	3.8	8.45e-01	0	27	104	0	72	17016
2026-01-11 01:59:28.79	182.49	5.11	-53.7	-66.6	3.8	8.45e-01	0	27	104	0	72	16962
2026-01-11 01:59:32.79	182.64	4.83	-53.7	-66.6	3.8	8.46e-01	0	27	104	0	72	16926
2026-01-11 01:59:36.79	182.79	4.56	-53.7	-66.6	3.8	8.45e-01	0	27	104	0	72	17010
2026-01-11 01:59:40.78	182.93	4.28	-53.7	-66.6	3.8	8.44e-01	0	27	104	0	72	17023
2026-01-11 01:59:44.79	183.07	4.01	-53.7	-66.6	3.8	8.45e-01	0	27	104	0	72	16997
2026-01-11 01:59:48.76	183.21	3.75	-53.7	-66.6	3.8	8.45e-01	0	27	104	0	72	16945
2026-01-11 01:59:52.75	183.35	3.48	-53.7	-66.6	3.8	8.47e-01	0	27	104	0	72	17007
2026-01-11 01:59:56.74	183.49	3.22	-53.7	-66.6	3.8	8.45e-01	0	27	104	0	72	16994
2026-01-11 02:00:00.72	183.62	2.96	-53.7	-66.6	3.8	8.46e-01	0	27	104	0	72	17045
2026-01-11 02:00:04.74	183.75	2.70	-53.7	-66.6	3.8	8.47e-01	0	27	104	0	72	17021
2026-01-11 02:00:08.74	183.88	2.45	-53.7	-66.6	3.8	8.44e-01	0	27	104	0	72	16943
2026-01-11 02:00:12.73	184.01	2.20	-53.7	-66.6	3.8	8.45e-01	0	27	104	0	72	16984
2026-01-11 02:00:16.73	184.13	1.95	-53.7	-66.6	3.8	8.45e-01	0	27	104	0	72	17037

#Closed at: 2026-01-11 02:00:17
#Recorded file [0 MB]: D:/lorett/data/31004_260111_044559.dat