passes_logs/2026/01/11/R3.2S_Murmansk/R3.2S_Murmansk__20260111_010702_NOAA_20_JPSS-1_rec.log

#Pass ID: 20260111_010702_NOAA 20 (JPSS-1)
#Satellite: NOAA 20 (JPSS-1)
#Configuration: NOAA 20
#almurnet v.1.7.20251203
#Start time: 2026-01-11 01:07:01

#Version: 2.2.20231116
#Station: R3.2S_Murmansk
#Location: 33.079688 lon 68.888172 lat
#TLE: 1 43013U 17073A   26009.69119415  .00000109  00000+0  72598-4 0  9996
#TLE: 2 43013  98.7631 310.6868 0001678  46.7442 313.3874 14.19534878421981

#Time	Az	El	Level	Level2	SNR	BER	BlckErr	Temp	State	Recorded	gain1	gain2
2026-01-11 01:07:01.62	26.27	1.97	-57.0	-72.9	3.8	1.49e+00	0	22	0	0	80	22185
2026-01-11 01:07:05.64	26.24	2.23	-57.0	-72.9	3.8	1.49e+00	0	22	104	0	79	23495
2026-01-11 01:07:09.64	26.21	2.49	-56.9	-72.9	3.8	1.49e+00	0	22	104	0	79	23534
2026-01-11 01:07:13.64	26.17	2.75	-57.0	-72.9	3.8	1.49e+00	0	22	104	0	79	23413
2026-01-11 01:07:17.64	26.14	3.01	-57.0	-72.7	3.8	1.49e+00	0	22	104	0	79	22925
2026-01-11 01:07:21.63	26.11	3.27	-57.0	-72.6	3.8	1.49e+00	0	22	104	0	79	22598
2026-01-11 01:07:25.61	26.07	3.54	-57.0	-72.8	3.8	1.49e+00	0	23	104	0	79	23140
2026-01-11 01:07:29.60	26.04	3.81	-57.0	-72.9	3.8	1.49e+00	0	23	104	0	79	23376
2026-01-11 01:07:33.61	26.00	4.08	-56.9	-70.2	3.9	1.49e+00	0	23	104	0	79	17198
2026-01-11 01:07:37.61	25.97	4.36	-56.7	-67.1	5.1	6.64e-01	0	23	0	4194304	79	11958
2026-01-11 01:07:41.60	25.93	4.64	-56.5	-65.4	6.2	2.68e-01	0	23	0	12582912	79	9868
2026-01-11 01:07:45.61	25.89	4.92	-56.5	-65.3	6.3	2.26e-01	0	23	0	19922944	79	9760
2026-01-11 01:07:49.62	25.85	5.21	-56.7	-66.8	5.4	3.09e-02	0	23	0	27262976	78	12313
2026-01-11 01:07:53.61	25.80	5.49	-55.1	-59.4	11.5	6.56e-05	0	23	0	33554432	76	5875
2026-01-11 01:07:57.60	25.76	5.78	-54.6	-58.5	12.1	3.00e-06	0	23	0	41943040	75	5604
2026-01-11 01:08:01.60	25.72	6.08	-54.6	-58.5	12.2	4.50e-06	0	23	0	49283072	75	5605
2026-01-11 01:08:05.60	25.67	6.37	-54.4	-57.8	12.7	7.00e-07	0	23	0	56623104	75	5209
2026-01-11 01:08:09.60	25.63	6.68	-54.2	-57.5	12.9	7.00e-07	0	24	0	63963136	74	5322
2026-01-11 01:08:13.61	25.58	6.98	-53.9	-57.0	13.2	0.00e+00	0	24	0	71303168	74	5025
2026-01-11 01:08:17.62	25.53	7.29	-53.6	-56.4	13.6	0.00e+00	0	24	0	78643200	73	4943
2026-01-11 01:08:21.62	25.48	7.60	-53.5	-56.3	13.6	0.00e+00	0	24	0	87031808	73	4911
2026-01-11 01:08:25.60	25.42	7.92	-53.6	-56.4	13.6	0.00e+00	0	24	0	94371840	73	4951
2026-01-11 01:08:29.58	25.37	8.23	-53.5	-56.2	13.7	0.00e+00	0	24	0	101711872	73	4838
2026-01-11 01:08:33.56	25.32	8.56	-53.4	-56.1	13.9	0.00e+00	0	24	0	109051904	73	4767
2026-01-11 01:08:37.57	25.26	8.88	-53.3	-55.9	13.9	0.00e+00	0	24	0	116391936	73	4694
2026-01-11 01:08:41.56	25.20	9.22	-53.4	-56.0	13.9	0.00e+00	0	24	0	123731968	73	4720
2026-01-11 01:08:45.55	25.14	9.55	-53.2	-55.7	14.0	0.00e+00	0	24	0	131072000	73	4590
2026-01-11 01:08:49.55	25.08	9.89	-53.2	-55.7	14.0	0.00e+00	0	24	0	138412032	72	4820
2026-01-11 01:08:53.55	25.01	10.24	-53.1	-55.6	14.1	0.00e+00	0	24	0	146800640	72	4777
2026-01-11 01:08:57.55	24.95	10.59	-53.1	-55.5	14.1	0.00e+00	0	24	0	154140672	72	4707
2026-01-11 01:09:01.54	24.88	10.94	-53.0	-55.4	14.2	0.00e+00	0	24	0	161480704	72	4656
2026-01-11 01:09:05.54	24.81	11.30	-52.9	-55.2	14.3	0.00e+00	0	24	0	168820736	72	4575
2026-01-11 01:09:09.55	24.74	11.67	-53.0	-55.3	14.3	0.00e+00	0	24	0	176160768	72	4614
2026-01-11 01:09:13.55	24.66	12.04	-52.7	-54.9	14.5	0.00e+00	0	24	0	183500800	72	4425
2026-01-11 01:09:17.54	24.58	12.42	-52.6	-54.8	14.4	0.00e+00	0	24	0	191889408	71	4616
2026-01-11 01:09:21.53	24.50	12.80	-52.6	-54.7	14.5	0.00e+00	0	24	0	199229440	71	4586
2026-01-11 01:09:25.51	24.42	13.19	-52.6	-54.7	14.5	0.00e+00	0	24	0	206569472	71	4567
2026-01-11 01:09:29.50	24.34	13.58	-52.4	-54.5	14.6	0.00e+00	0	24	0	213909504	71	4451
2026-01-11 01:09:33.47	24.25	13.98	-52.4	-54.4	14.6	0.00e+00	0	24	0	221249536	71	4433
2026-01-11 01:09:37.48	24.16	14.39	-52.2	-54.2	14.8	0.00e+00	0	24	0	228589568	71	4337
2026-01-11 01:09:41.46	24.07	14.80	-52.1	-54.0	14.7	0.00e+00	0	24	0	235929600	70	4479
2026-01-11 01:09:45.46	23.97	15.23	-52.1	-54.0	14.7	0.00e+00	0	25	0	243269632	70	4471
2026-01-11 01:09:49.46	23.87	15.66	-51.9	-53.7	14.9	0.00e+00	0	25	0	251658240	70	4332
2026-01-11 01:09:53.46	23.77	16.09	-51.9	-53.7	14.9	0.00e+00	0	25	0	258998272	70	4336
2026-01-11 01:09:57.45	23.66	16.54	-51.5	-53.3	14.9	0.00e+00	0	24	0	266338304	69	4364
2026-01-11 01:10:01.44	23.55	16.99	-51.5	-53.2	15.0	0.00e+00	0	24	0	273678336	69	4340
2026-01-11 01:10:05.43	23.44	17.45	-51.3	-53.0	15.1	0.00e+00	0	25	0	281018368	69	4211
2026-01-11 01:10:09.42	23.32	17.92	-51.2	-53.0	15.1	0.00e+00	0	25	0	288358400	69	4197
2026-01-11 01:10:13.43	23.20	18.40	-51.2	-52.9	15.1	0.00e+00	0	25	0	296747008	69	4168
2026-01-11 01:10:17.41	23.07	18.89	-51.0	-52.6	15.1	0.00e+00	0	25	0	304087040	68	4275
2026-01-11 01:10:21.42	22.94	19.39	-50.9	-52.5	15.2	0.00e+00	0	24	0	311427072	68	4230
2026-01-11 01:10:25.41	22.80	19.90	-50.8	-52.4	15.2	0.00e+00	0	25	0	318767104	68	4165
2026-01-11 01:10:29.40	22.66	20.41	-50.9	-52.5	15.1	0.00e+00	0	25	0	326107136	68	4235
2026-01-11 01:10:33.39	22.51	20.94	-50.4	-52.0	15.2	0.00e+00	0	25	0	333447168	67	4202
2026-01-11 01:10:37.38	22.36	21.48	-50.4	-52.0	15.2	0.00e+00	0	25	0	340787200	67	4211
2026-01-11 01:10:41.37	22.20	22.03	-50.4	-52.0	15.2	0.00e+00	0	25	0	348127232	67	4208
2026-01-11 01:10:45.36	22.03	22.60	-50.4	-51.9	15.3	0.00e+00	0	25	0	356515840	67	4161
2026-01-11 01:10:49.35	21.86	23.17	-50.4	-52.0	15.2	0.00e+00	0	25	0	363855872	67	4194
2026-01-11 01:10:53.34	21.68	23.76	-50.5	-52.1	15.2	0.00e+00	0	25	0	371195904	67	4247
2026-01-11 01:10:57.34	21.50	24.36	-50.7	-52.4	15.0	0.00e+00	0	25	0	378535936	67	4396
2026-01-11 01:11:01.33	21.30	24.98	-50.8	-52.5	15.0	0.00e+00	0	25	0	385875968	67	4443
2026-01-11 01:11:05.32	21.10	25.61	-51.1	-52.8	14.8	0.00e+00	0	25	0	393216000	67	4602
2026-01-11 01:11:09.30	20.89	26.25	-51.2	-52.9	14.8	0.00e+00	0	25	0	400556032	67	4669
2026-01-11 01:11:13.29	20.66	26.91	-51.5	-53.3	14.8	0.00e+00	0	25	0	408944640	68	4605
2026-01-11 01:11:17.29	20.43	27.59	-51.8	-53.6	14.6	0.00e+00	0	25	0	416284672	68	4806
2026-01-11 01:11:21.28	20.19	28.28	-52.3	-54.3	14.4	0.00e+00	0	25	0	423624704	69	4876
2026-01-11 01:11:25.27	19.93	28.99	-53.1	-55.2	14.3	0.00e+00	0	25	0	430964736	71	4843
2026-01-11 01:11:29.26	19.67	29.71	-53.5	-55.7	14.1	0.00e+00	0	25	0	438304768	72	4865
2026-01-11 01:11:33.26	19.39	30.46	-59.0	-75.0	3.8	4.11e-01	0	25	104	445644800	83	23649
2026-01-11 01:11:37.24	19.09	31.22	-53.7	-69.6	3.8	1.49e+00	0	25	104	445644800	74	21338
2026-01-11 01:11:41.23	18.78	32.01	-53.6	-69.5	3.8	1.49e+00	0	25	104	445644800	73	22313
2026-01-11 01:11:45.23	18.46	32.81	-53.5	-69.4	3.8	1.49e+00	0	25	104	445644800	73	22247
2026-01-11 01:11:49.23	18.11	33.64	-53.6	-69.5	3.8	1.49e+00	0	25	104	445644800	73	22354
2026-01-11 01:11:53.24	17.75	34.49	-53.6	-69.5	3.8	1.49e+00	0	25	104	445644800	73	22394
2026-01-11 01:11:57.24	17.37	35.36	-53.6	-69.5	3.8	1.49e+00	0	25	104	445644800	73	22337
2026-01-11 01:12:01.25	16.96	36.26	-53.6	-69.5	3.8	1.49e+00	0	25	104	445644800	73	22317
2026-01-11 01:12:05.24	16.53	37.17	-53.5	-69.4	3.8	1.49e+00	0	25	104	445644800	73	22233
2026-01-11 01:12:09.24	16.08	38.11	-53.5	-69.5	3.8	1.49e+00	0	25	104	445644800	73	22295
2026-01-11 01:12:13.24	15.59	39.08	-53.6	-69.5	3.8	1.49e+00	0	25	104	445644800	73	22290
2026-01-11 01:12:17.25	15.08	40.07	-53.5	-69.5	3.8	1.49e+00	0	25	104	445644800	73	22279
2026-01-11 01:12:21.25	14.53	41.09	-53.6	-69.5	3.8	1.49e+00	0	26	104	445644800	73	22279
2026-01-11 01:12:25.25	13.94	42.13	-53.5	-69.4	3.8	1.49e+00	0	25	104	445644800	73	22242
2026-01-11 01:12:29.25	13.32	43.20	-53.6	-69.5	3.8	1.49e+00	0	25	104	445644800	73	22294
2026-01-11 01:12:33.26	12.64	44.30	-53.6	-69.5	3.8	1.49e+00	0	25	104	445644800	73	22312
2026-01-11 01:12:37.24	11.93	45.42	-53.6	-69.5	3.8	1.49e+00	0	25	104	445644800	73	22332
2026-01-11 01:12:41.25	11.15	46.57	-53.6	-69.5	3.8	1.49e+00	0	25	104	445644800	73	22403
2026-01-11 01:12:45.26	10.31	47.75	-53.6	-69.5	3.8	1.49e+00	0	25	104	445644800	73	22286
2026-01-11 01:12:49.25	9.41	48.95	-53.5	-69.5	3.8	1.49e+00	0	25	104	445644800	73	22310
2026-01-11 01:12:53.25	8.43	50.17	-53.6	-69.5	3.8	1.49e+00	0	26	104	445644800	73	22354
2026-01-11 01:12:57.26	7.36	51.43	-53.6	-69.5	3.8	1.49e+00	0	26	104	445644800	73	22295
2026-01-11 01:13:01.23	6.21	52.69	-53.6	-69.5	3.8	1.49e+00	0	25	104	445644800	73	22366
2026-01-11 01:13:05.23	4.95	53.98	-53.6	-69.5	3.8	1.49e+00	0	26	104	445644800	73	22309
2026-01-11 01:13:09.24	3.56	55.29	-53.6	-69.5	3.8	1.49e+00	0	26	104	445644800	73	22324
2026-01-11 01:13:13.24	2.03	56.62	-53.6	-69.5	3.8	1.49e+00	0	25	104	445644800	73	22399
2026-01-11 01:13:17.24	0.35	57.95	-53.6	-69.5	3.8	1.49e+00	0	26	104	445644800	73	22374
2026-01-11 01:13:21.25	358.49	59.29	-53.6	-69.5	3.8	1.49e+00	0	26	104	445644800	73	22385
2026-01-11 01:13:25.25	356.43	60.63	-53.6	-69.5	3.8	1.49e+00	0	26	104	445644800	73	22344
2026-01-11 01:13:29.26	354.13	61.96	-53.6	-69.5	3.8	1.49e+00	0	26	104	445644800	73	22313
2026-01-11 01:13:33.27	351.58	63.27	-53.6	-69.5	3.8	1.49e+00	0	26	104	445644800	73	22303
2026-01-11 01:13:37.26	348.73	64.55	-53.6	-69.5	3.8	1.49e+00	0	26	104	445644800	73	22309
2026-01-11 01:13:41.27	345.54	65.79	-53.6	-69.5	3.8	1.49e+00	0	26	104	445644800	73	22361
2026-01-11 01:13:45.27	341.98	66.97	-53.6	-69.5	3.8	1.49e+00	0	26	104	445644800	73	22385
2026-01-11 01:13:49.27	338.01	68.07	-53.6	-69.5	3.8	1.49e+00	0	26	104	445644800	73	22412
2026-01-11 01:13:53.27	333.60	69.08	-53.6	-69.5	3.8	1.49e+00	0	26	104	445644800	73	22376
2026-01-11 01:13:57.29	328.71	69.98	-53.6	-69.5	3.8	1.49e+00	0	26	104	445644800	73	22344
2026-01-11 01:14:01.29	323.40	70.72	-53.6	-69.5	3.8	1.49e+00	0	26	104	445644800	73	22329
2026-01-11 01:14:05.30	317.67	71.31	-53.6	-69.5	3.8	1.49e+00	0	26	104	445644800	73	22331
2026-01-11 01:14:09.30	311.62	71.71	-53.6	-69.5	3.8	1.49e+00	0	26	104	445644800	73	22372
2026-01-11 01:14:13.31	305.34	71.91	-53.6	-69.5	3.8	1.49e+00	0	26	104	445644800	73	22373
2026-01-11 01:14:17.34	298.96	71.89	-53.6	-69.5	3.8	1.49e+00	0	26	104	445644800	73	22344
2026-01-11 01:14:21.36	292.68	71.67	-53.6	-69.5	3.8	1.49e+00	0	26	104	445644800	73	22348
2026-01-11 01:14:25.37	286.65	71.25	-53.6	-69.5	3.8	1.49e+00	0	26	104	445644800	73	22384
2026-01-11 01:14:29.38	280.95	70.65	-53.6	-69.5	3.8	1.49e+00	0	26	104	445644800	73	22370
2026-01-11 01:14:33.39	275.67	69.88	-53.6	-69.5	3.8	1.49e+00	0	26	104	445644800	73	22425
2026-01-11 01:14:37.37	270.88	68.98	-53.6	-69.5	3.8	1.49e+00	0	26	104	445644800	73	22343
2026-01-11 01:14:41.38	266.51	67.95	-53.6	-69.5	3.8	1.49e+00	0	26	104	445644800	73	22446
2026-01-11 01:14:45.38	262.58	66.84	-53.6	-69.5	3.8	1.49e+00	0	26	104	445644800	73	22479
2026-01-11 01:14:49.38	259.07	65.65	-53.6	-69.5	3.8	1.49e+00	0	26	104	445644800	73	22395
2026-01-11 01:14:53.39	255.91	64.40	-53.6	-69.5	3.8	1.49e+00	0	26	104	445644800	73	22409
2026-01-11 01:14:57.41	253.08	63.11	-53.6	-69.5	3.8	1.49e+00	0	26	104	445644800	73	22368
2026-01-11 01:15:01.41	250.56	61.80	-53.6	-69.5	3.8	1.49e+00	0	26	104	445644800	73	22380
2026-01-11 01:15:05.41	248.29	60.47	-53.6	-69.5	3.8	1.49e+00	0	26	104	445644800	73	22417
2026-01-11 01:15:09.42	246.25	59.12	-53.6	-69.5	3.8	1.49e+00	0	26	104	445644800	73	22401
2026-01-11 01:15:13.42	244.41	57.78	-53.6	-69.5	3.8	1.49e+00	0	26	104	445644800	73	22361
2026-01-11 01:15:17.42	242.75	56.45	-53.6	-69.5	3.8	1.49e+00	0	26	104	445644800	73	22411
2026-01-11 01:15:21.43	241.24	55.12	-53.6	-69.5	3.8	1.49e+00	0	26	104	445644800	73	22439
2026-01-11 01:15:25.43	239.86	53.81	-53.6	-69.5	3.8	1.49e+00	0	26	104	445644800	73	22383
2026-01-11 01:15:29.44	238.60	52.51	-53.6	-69.5	3.8	1.49e+00	0	26	104	445644800	73	22432
2026-01-11 01:15:33.45	237.45	51.24	-53.6	-69.5	3.8	1.49e+00	0	26	104	445644800	73	22447
2026-01-11 01:15:37.44	236.40	49.99	-53.6	-69.5	3.8	1.49e+00	0	26	104	445644800	73	22432
2026-01-11 01:15:41.43	235.43	48.77	-53.6	-69.5	3.8	1.49e+00	0	26	104	445644800	73	22402
2026-01-11 01:15:45.42	234.54	47.57	-53.6	-69.5	3.8	1.49e+00	0	26	104	445644800	73	22441
2026-01-11 01:15:49.43	233.71	46.39	-53.6	-69.5	3.8	1.49e+00	0	26	104	445644800	73	22429
2026-01-11 01:15:53.41	232.94	45.25	-53.6	-69.5	3.8	1.49e+00	0	26	104	445644800	73	22445
2026-01-11 01:15:57.42	232.22	44.12	-53.6	-69.5	3.8	1.49e+00	0	26	104	445644800	73	22429
2026-01-11 01:16:01.42	231.56	43.03	-53.6	-69.5	3.8	1.49e+00	0	26	104	445644800	73	22460
2026-01-11 01:16:05.42	230.93	41.96	-53.6	-69.5	3.8	1.49e+00	0	26	104	445644800	73	22374
2026-01-11 01:16:09.42	230.35	40.92	-53.6	-69.5	3.8	1.49e+00	0	26	104	445644800	73	22462
2026-01-11 01:16:13.43	229.81	39.90	-53.6	-69.5	3.8	1.49e+00	0	26	104	445644800	73	22462
2026-01-11 01:16:17.42	229.29	38.91	-53.6	-69.5	3.8	1.49e+00	0	26	104	445644800	73	22421
2026-01-11 01:16:21.44	228.81	37.94	-53.6	-69.5	3.8	1.49e+00	0	26	104	445644800	73	22456
2026-01-11 01:16:25.43	228.36	37.00	-53.6	-69.5	3.8	1.49e+00	0	26	104	445644800	73	22431
2026-01-11 01:16:29.45	227.93	36.08	-53.6	-69.6	3.8	1.49e+00	0	26	104	445644800	73	22546
2026-01-11 01:16:33.45	227.53	35.19	-53.6	-69.5	3.8	1.49e+00	0	26	104	445644800	73	22464
2026-01-11 01:16:37.45	227.14	34.32	-53.6	-69.5	3.8	1.49e+00	0	26	104	445644800	73	22446
2026-01-11 01:16:41.45	226.78	33.47	-53.6	-69.5	3.8	1.49e+00	0	26	104	445644800	73	22467
2026-01-11 01:16:45.44	226.44	32.65	-53.6	-69.5	3.8	1.49e+00	0	26	104	445644800	73	22463
2026-01-11 01:16:49.44	226.11	31.84	-53.6	-69.5	3.8	1.49e+00	0	26	104	445644800	73	22426
2026-01-11 01:16:53.45	225.80	31.05	-53.6	-69.5	3.8	1.49e+00	0	26	104	445644800	73	22427
2026-01-11 01:16:57.44	225.51	30.29	-53.6	-69.5	3.8	1.49e+00	0	26	104	445644800	73	22442
2026-01-11 01:17:01.44	225.23	29.55	-53.6	-69.5	3.8	1.49e+00	0	26	104	445644800	73	22472
2026-01-11 01:17:05.45	224.96	28.82	-53.6	-69.5	3.8	1.49e+00	0	26	104	445644800	73	22453
2026-01-11 01:17:09.45	224.71	28.11	-53.6	-69.5	3.8	1.49e+00	0	26	104	445644800	73	22453
2026-01-11 01:17:13.43	224.47	27.42	-53.6	-69.5	3.8	1.49e+00	0	26	104	445644800	73	22474
2026-01-11 01:17:17.43	224.23	26.74	-53.6	-69.5	3.8	1.49e+00	0	26	104	445644800	73	22428
2026-01-11 01:17:21.43	224.01	26.08	-53.6	-69.5	3.8	1.49e+00	0	26	104	445644800	73	22491
2026-01-11 01:17:25.43	223.80	25.43	-53.6	-69.5	3.8	1.49e+00	0	26	104	445644800	73	22472
2026-01-11 01:17:29.44	223.59	24.80	-53.6	-69.5	3.8	1.49e+00	0	26	104	445644800	73	22425
2026-01-11 01:17:33.45	223.40	24.18	-53.6	-69.5	3.8	1.49e+00	0	26	104	445644800	73	22409
2026-01-11 01:17:37.45	223.21	23.58	-53.6	-69.5	3.8	1.49e+00	0	26	104	445644800	73	22419
2026-01-11 01:17:41.45	223.03	22.99	-53.6	-69.5	3.8	1.49e+00	0	26	104	445644800	73	22392
2026-01-11 01:17:45.44	222.86	22.42	-53.6	-69.5	3.8	1.49e+00	0	26	104	445644800	73	22351
2026-01-11 01:17:49.44	222.69	21.86	-53.6	-69.5	3.8	1.49e+00	0	26	104	445644800	73	22437
2026-01-11 01:17:53.45	222.53	21.30	-53.6	-69.5	3.8	1.49e+00	0	26	104	445644800	73	22419
2026-01-11 01:17:57.46	222.38	20.76	-53.6	-69.5	3.8	1.49e+00	0	26	104	445644800	73	22425
2026-01-11 01:18:01.46	222.23	20.23	-53.6	-69.5	3.8	1.49e+00	0	26	104	445644800	73	22403
2026-01-11 01:18:05.45	222.09	19.72	-53.6	-69.5	3.8	1.49e+00	0	26	104	445644800	73	22458
2026-01-11 01:18:09.45	221.95	19.21	-53.6	-69.5	3.8	1.49e+00	0	26	104	445644800	73	22397
2026-01-11 01:18:13.44	221.81	18.71	-53.6	-69.5	3.8	1.49e+00	0	26	104	445644800	73	22406
2026-01-11 01:18:17.44	221.69	18.22	-53.6	-69.5	3.8	1.49e+00	0	26	104	445644800	73	22391
2026-01-11 01:18:21.44	221.56	17.74	-53.6	-69.5	3.8	1.49e+00	0	26	104	445644800	73	22420
2026-01-11 01:18:25.44	221.44	17.27	-53.6	-69.5	3.8	1.49e+00	0	26	104	445644800	73	22405
2026-01-11 01:18:29.45	221.33	16.81	-53.6	-69.5	3.8	1.49e+00	0	26	104	445644800	73	22429
2026-01-11 01:18:33.45	221.22	16.36	-53.6	-69.5	3.8	1.49e+00	0	26	104	445644800	73	22387
2026-01-11 01:18:37.44	221.11	15.92	-53.6	-69.5	3.8	1.49e+00	0	26	104	445644800	73	22445
2026-01-11 01:18:41.43	221.00	15.48	-53.6	-69.5	3.8	1.49e+00	0	26	104	445644800	73	22390
2026-01-11 01:18:45.43	220.90	15.05	-53.6	-69.5	3.8	1.49e+00	0	26	104	445644800	73	22418
2026-01-11 01:18:49.43	220.80	14.63	-53.6	-69.5	3.8	1.49e+00	0	26	104	445644800	73	22380
2026-01-11 01:18:53.43	220.71	14.21	-53.6	-69.5	3.8	1.49e+00	0	26	104	445644800	73	22467
2026-01-11 01:18:57.41	220.62	13.81	-53.6	-69.5	3.8	1.49e+00	0	26	104	445644800	73	22422
2026-01-11 01:19:01.41	220.53	13.41	-53.6	-69.5	3.8	1.49e+00	0	26	104	445644800	73	22443
2026-01-11 01:19:05.40	220.44	13.01	-53.6	-69.5	3.8	1.49e+00	0	26	104	445644800	73	22404
2026-01-11 01:19:09.39	220.36	12.62	-53.6	-69.5	3.8	1.49e+00	0	26	104	445644800	73	22339
2026-01-11 01:19:13.41	220.28	12.24	-53.6	-69.5	3.8	1.49e+00	0	26	104	445644800	73	22449
2026-01-11 01:19:17.41	220.20	11.86	-53.6	-69.5	3.8	1.49e+00	0	26	104	445644800	73	22426
2026-01-11 01:19:21.41	220.12	11.49	-53.6	-69.5	3.8	1.49e+00	0	26	104	445644800	73	22453
2026-01-11 01:19:25.41	220.05	11.13	-53.6	-69.5	3.8	1.49e+00	0	26	104	445644800	73	22486
2026-01-11 01:19:29.43	219.98	10.76	-53.6	-69.5	3.8	1.49e+00	0	26	104	445644800	73	22397
2026-01-11 01:19:33.43	219.91	10.41	-53.6	-69.5	3.8	1.49e+00	0	26	104	445644800	73	22406
2026-01-11 01:19:37.42	219.84	10.06	-53.6	-69.5	3.8	1.49e+00	0	26	104	445644800	73	22429
2026-01-11 01:19:41.42	219.77	9.71	-53.6	-69.5	3.8	1.49e+00	0	26	104	445644800	73	22460
2026-01-11 01:19:45.42	219.71	9.37	-53.6	-69.5	3.8	1.49e+00	0	26	104	445644800	73	22372
2026-01-11 01:19:49.41	219.64	9.04	-53.6	-69.5	3.8	1.49e+00	0	26	104	445644800	73	22423
2026-01-11 01:19:53.41	219.58	8.71	-53.6	-69.5	3.8	1.49e+00	0	26	104	445644800	73	22387
2026-01-11 01:19:57.41	219.52	8.38	-53.6	-69.5	3.8	1.49e+00	0	26	104	445644800	73	22422
2026-01-11 01:20:01.43	219.47	8.05	-53.6	-69.5	3.8	1.49e+00	0	26	104	445644800	73	22425
2026-01-11 01:20:05.43	219.41	7.74	-53.6	-69.5	3.8	1.49e+00	0	26	104	445644800	73	22349
2026-01-11 01:20:09.44	219.36	7.42	-53.6	-69.5	3.8	1.49e+00	0	26	104	445644800	73	22418
2026-01-11 01:20:13.43	219.30	7.11	-53.6	-69.5	3.8	1.49e+00	0	26	104	445644800	73	22366
2026-01-11 01:20:17.44	219.25	6.80	-53.6	-69.5	3.8	1.49e+00	0	26	104	445644800	73	22415
2026-01-11 01:20:21.44	219.20	6.50	-53.6	-69.5	3.8	1.49e+00	0	26	104	445644800	73	22430
2026-01-11 01:20:25.45	219.15	6.20	-53.6	-69.5	3.8	1.49e+00	0	26	104	445644800	73	22403
2026-01-11 01:20:29.46	219.10	5.90	-53.6	-69.5	3.8	1.49e+00	0	26	104	445644800	73	22459
2026-01-11 01:20:33.47	219.06	5.60	-53.6	-69.5	3.8	1.49e+00	0	26	104	445644800	73	22449
2026-01-11 01:20:37.47	219.01	5.31	-53.6	-69.5	3.8	1.49e+00	0	26	104	445644800	73	22415
2026-01-11 01:20:41.48	218.97	5.02	-53.6	-69.5	3.8	1.49e+00	0	26	104	445644800	73	22360
2026-01-11 01:20:45.48	218.92	4.74	-53.6	-69.5	3.8	1.49e+00	0	26	104	445644800	73	22408
2026-01-11 01:20:49.48	218.88	4.46	-53.6	-69.5	3.8	1.49e+00	0	26	104	445644800	73	22398
2026-01-11 01:20:53.48	218.84	4.18	-53.6	-69.5	3.8	1.49e+00	0	26	104	445644800	73	22448
2026-01-11 01:20:57.47	218.80	3.90	-53.6	-69.5	3.8	1.49e+00	0	26	104	445644800	73	22391
2026-01-11 01:21:01.48	218.76	3.63	-53.6	-69.5	3.8	1.49e+00	0	26	104	445644800	73	22486
2026-01-11 01:21:05.48	218.72	3.36	-53.6	-69.5	3.8	1.49e+00	0	26	104	445644800	73	22453
2026-01-11 01:21:09.50	218.69	3.09	-53.6	-69.5	3.8	1.49e+00	0	26	104	445644800	73	22459
2026-01-11 01:21:13.50	218.65	2.83	-53.6	-69.5	3.8	1.49e+00	0	26	104	445644800	73	22421
2026-01-11 01:21:17.51	218.61	2.56	-53.6	-69.5	3.8	1.49e+00	0	26	104	445644800	73	22444
2026-01-11 01:21:21.51	218.58	2.30	-53.6	-69.5	3.8	1.49e+00	0	26	104	445644800	73	22493
2026-01-11 01:21:25.52	218.55	2.04	-53.6	-69.5	3.8	1.49e+00	0	26	104	445644800	73	22507

#Closed at: 2026-01-11 01:21:27
#Recorded file [445 MB]: D:/lorett/data/31004_260111_040701.dat