passes_logs/2026/01/11/R3.2S_Murmansk/R3.2S_Murmansk__20260111_044014_AQUA_rec.log

#Pass ID: 20260111_044014_AQUA
#Satellite: AQUA
#Configuration: AQUA
#almurnet v.1.7.20251203
#Start time: 2026-01-11 04:40:14

#Version: 2.2.20231116
#Station: R3.2S_Murmansk
#Location: 33.079688 lon 68.888172 lat
#TLE: 1 27424U 02022A   26009.89520876  .00001045  00000+0  21914-3 0  9996
#TLE: 2 27424  98.4076 336.2372 0002032  84.5955   1.0356 14.61811442260144

#Time	Az	El	Level	Level2	SNR	BER	BlckErr	Temp	State	Recorded	gain1	gain2
2026-01-11 04:40:14.55	34.42	2.03	-57.0	-76.3	3.8	7.51e-01	0	26	0	0	83	32036
2026-01-11 04:40:17.53	34.24	2.21	-56.9	-76.2	3.8	7.48e-01	0	25	104	0	81	35584
2026-01-11 04:40:20.53	34.06	2.39	-56.8	-76.2	3.8	7.44e-01	0	26	104	0	81	35481
2026-01-11 04:40:23.52	33.87	2.58	-56.8	-76.2	3.8	7.46e-01	0	26	104	0	81	35451
2026-01-11 04:40:26.52	33.68	2.76	-56.8	-76.2	3.8	7.46e-01	0	25	104	0	81	35403
2026-01-11 04:40:29.52	33.49	2.95	-56.8	-76.2	3.8	7.45e-01	0	25	104	0	81	35324
2026-01-11 04:40:32.52	33.30	3.14	-56.8	-76.2	3.8	7.46e-01	0	25	104	0	81	35435
2026-01-11 04:40:35.52	33.11	3.33	-56.8	-76.2	3.8	7.44e-01	0	26	104	0	81	35474
2026-01-11 04:40:38.51	32.91	3.52	-56.8	-76.1	3.8	7.43e-01	0	25	104	0	81	35220
2026-01-11 04:40:41.49	32.71	3.71	-56.8	-76.1	3.8	7.48e-01	0	26	104	0	81	35228
2026-01-11 04:40:44.50	32.50	3.91	-56.8	-76.1	3.8	7.45e-01	0	25	104	0	81	35110
2026-01-11 04:40:47.50	32.29	4.10	-56.8	-76.1	3.8	7.50e-01	0	26	104	0	81	34991
2026-01-11 04:40:50.49	32.08	4.30	-56.8	-76.1	3.8	7.46e-01	0	25	104	0	81	35252
2026-01-11 04:40:53.49	31.87	4.50	-56.8	-75.9	3.8	7.47e-01	0	26	104	0	81	34239
2026-01-11 04:40:56.50	31.65	4.70	-56.5	-74.4	3.8	7.44e-01	0	25	104	0	81	28938
2026-01-11 04:40:59.49	31.43	4.89	-56.1	-72.6	3.8	7.47e-01	0	26	104	0	81	23334
2026-01-11 04:41:02.51	31.20	5.10	-55.8	-71.1	3.8	7.46e-01	0	26	104	0	80	21016
2026-01-11 04:41:05.52	30.97	5.30	-54.8	-68.4	3.9	7.46e-01	0	26	104	0	78	17220
2026-01-11 04:41:08.53	30.74	5.50	-53.0	-65.5	3.8	7.48e-01	0	25	104	0	75	14553
2026-01-11 04:41:11.53	30.50	5.71	-56.0	-71.1	4.0	7.46e-01	0	26	104	0	81	19649
2026-01-11 04:41:14.53	30.26	5.92	-54.6	-68.0	3.9	7.44e-01	0	26	104	0	78	16426
2026-01-11 04:41:17.53	30.02	6.12	-52.2	-64.4	3.8	7.47e-01	0	25	104	0	73	14394
2026-01-11 04:41:20.53	29.77	6.33	-55.8	-70.6	3.8	7.46e-01	0	25	104	0	79	20977
2026-01-11 04:41:23.54	29.52	6.54	-53.1	-65.5	3.8	7.43e-01	0	25	104	0	75	14590
2026-01-11 04:41:26.55	29.26	6.76	-51.9	-63.8	3.8	7.42e-01	0	25	104	0	73	13569
2026-01-11 04:41:29.55	29.00	6.97	-56.4	-71.8	3.9	7.47e-01	0	25	104	0	81	21430
2026-01-11 04:41:32.56	28.74	7.19	-52.8	-65.1	3.8	7.47e-01	0	26	104	0	74	14780
2026-01-11 04:41:35.57	28.47	7.40	-53.5	-66.1	3.9	7.45e-01	0	25	104	0	74	16584
2026-01-11 04:41:38.57	28.19	7.62	-53.9	-66.8	3.9	7.46e-01	0	25	104	0	77	15086
2026-01-11 04:41:41.55	27.92	7.84	-51.7	-63.6	3.8	7.42e-01	0	25	104	0	72	13886
2026-01-11 04:41:44.55	27.63	8.06	-56.1	-71.0	3.8	7.51e-01	0	25	104	0	79	21918
2026-01-11 04:41:47.55	27.35	8.28	-52.3	-64.4	3.8	7.46e-01	0	25	104	0	73	14442
2026-01-11 04:41:50.54	27.05	8.50	-53.0	-65.3	3.8	7.46e-01	0	26	104	0	73	16108
2026-01-11 04:41:53.54	26.76	8.73	-55.8	-69.9	3.9	7.42e-01	0	25	104	0	80	18231
2026-01-11 04:41:56.55	26.45	8.96	-52.5	-64.6	3.8	7.45e-01	0	25	104	0	74	13922
2026-01-11 04:41:59.55	26.14	9.19	-54.7	-67.8	3.9	7.44e-01	0	25	104	0	78	16071
2026-01-11 04:42:02.54	25.83	9.41	-53.8	-66.8	3.9	7.42e-01	0	25	104	0	77	15081
2026-01-11 04:42:05.55	25.51	9.65	-50.9	-62.6	3.9	7.45e-01	0	25	104	0	71	13154
2026-01-11 04:42:08.55	25.18	9.88	-56.0	-70.6	3.8	7.47e-01	0	26	104	0	79	20855
2026-01-11 04:42:11.55	24.85	10.11	-51.7	-63.4	3.9	7.45e-01	0	26	104	0	72	13625
2026-01-11 04:42:14.54	24.51	10.35	-50.4	-61.9	3.8	7.46e-01	0	25	104	0	70	12947
2026-01-11 04:42:17.55	24.17	10.59	-56.5	-71.6	3.9	7.47e-01	0	25	104	0	82	19741
2026-01-11 04:42:20.55	23.82	10.83	-51.5	-63.3	3.8	7.44e-01	0	25	104	0	72	13467
2026-01-11 04:42:23.55	23.46	11.07	-52.0	-63.9	3.8	7.50e-01	0	25	104	0	71	15365
2026-01-11 04:42:26.56	23.10	11.31	-53.3	-65.7	3.9	7.45e-01	0	26	104	0	76	14163
2026-01-11 04:42:29.55	22.73	11.56	-51.2	-62.9	3.8	7.47e-01	0	25	104	0	71	13700
2026-01-11 04:42:32.56	22.35	11.80	-55.9	-70.1	3.8	7.49e-01	0	26	104	0	79	19632
2026-01-11 04:42:35.56	21.97	12.05	-54.5	-67.4	3.9	7.41e-01	0	25	104	0	78	15243
2026-01-11 04:42:38.57	21.58	12.30	-56.1	-70.2	3.8	7.50e-01	0	25	104	0	79	20033
2026-01-11 04:42:41.57	21.18	12.55	-56.5	-71.3	3.8	7.48e-01	0	26	104	0	81	20177
2026-01-11 04:42:44.58	20.77	12.80	-50.7	-62.2	3.9	7.44e-01	0	26	104	0	70	13387
2026-01-11 04:42:47.57	20.36	13.06	-52.0	-63.9	3.8	7.47e-01	0	25	104	0	71	15231
2026-01-11 04:42:50.57	19.94	13.31	-53.0	-65.2	3.9	7.45e-01	0	25	104	0	75	14070
2026-01-11 04:42:53.58	19.51	13.57	-51.1	-62.7	3.9	7.46e-01	0	25	104	0	70	14136
2026-01-11 04:42:56.57	19.07	13.82	-55.8	-69.7	3.9	7.47e-01	0	25	104	0	79	18825
2026-01-11 04:42:59.57	18.62	14.08	-54.1	-66.6	3.9	7.44e-01	0	25	104	0	77	14829
2026-01-11 04:43:02.57	18.17	14.34	-53.9	-66.4	3.8	7.48e-01	0	25	104	0	75	16302
2026-01-11 04:43:05.57	17.71	14.61	-56.6	-71.5	3.8	7.47e-01	0	25	104	0	82	19436
2026-01-11 04:43:08.57	17.23	14.87	-50.6	-62.1	3.8	7.45e-01	0	25	104	0	70	13128
2026-01-11 04:43:11.56	16.75	15.13	-52.0	-63.7	3.8	7.42e-01	0	25	104	0	71	14959
2026-01-11 04:43:14.56	16.26	15.40	-52.9	-65.0	3.9	7.44e-01	0	26	104	0	75	13834
2026-01-11 04:43:17.56	15.76	15.67	-50.0	-61.4	3.8	7.44e-01	0	26	104	0	69	12931
2026-01-11 04:43:20.56	15.25	15.93	-55.9	-69.7	3.8	7.45e-01	0	26	104	0	79	18925
2026-01-11 04:43:23.57	14.73	16.20	-50.7	-62.2	3.8	7.45e-01	0	25	104	0	70	13286
2026-01-11 04:43:26.57	14.20	16.47	-50.0	-61.4	3.8	7.42e-01	0	25	104	0	69	12844
2026-01-11 04:43:29.58	13.65	16.75	-54.6	-67.3	3.9	7.48e-01	0	25	104	0	78	15198
2026-01-11 04:43:32.59	13.10	17.02	-50.4	-61.8	3.9	7.45e-01	0	25	104	0	70	12806
2026-01-11 04:43:35.60	12.54	17.29	-54.7	-67.6	3.9	7.47e-01	0	25	104	0	78	15683
2026-01-11 04:43:38.60	11.96	17.56	-52.3	-64.4	3.9	7.47e-01	0	25	104	0	74	13578
2026-01-11 04:43:41.58	11.38	17.84	-51.6	-63.3	3.8	7.46e-01	0	25	104	0	72	13462
2026-01-11 04:43:44.58	10.78	18.11	-56.0	-69.8	3.8	7.46e-01	0	25	104	0	79	19112
2026-01-11 04:43:47.57	10.18	18.38	-53.6	-65.9	3.9	7.46e-01	0	25	104	0	76	14400
2026-01-11 04:43:50.56	9.56	18.65	-55.5	-68.9	3.8	7.48e-01	0	25	104	0	78	18223
2026-01-11 04:43:53.56	8.93	18.93	-56.9	-71.8	3.8	7.46e-01	0	25	104	0	82	20294
2026-01-11 04:43:56.56	8.28	19.20	-50.4	-61.8	3.8	7.46e-01	0	25	104	0	70	12810
2026-01-11 04:43:59.56	7.62	19.47	-52.6	-64.6	3.9	7.49e-01	0	26	104	0	72	15637
2026-01-11 04:44:02.57	6.95	19.75	-53.6	-65.9	3.9	7.43e-01	0	26	104	0	76	14393
2026-01-11 04:44:05.57	6.27	20.02	-51.3	-62.9	3.8	7.45e-01	0	25	104	0	71	13611
2026-01-11 04:44:08.58	5.57	20.29	-56.2	-70.1	3.8	7.45e-01	0	26	104	0	79	19622
2026-01-11 04:44:11.59	4.86	20.56	-53.6	-65.8	3.9	7.46e-01	0	25	104	0	76	14288
2026-01-11 04:44:14.60	4.14	20.83	-56.1	-69.9	3.8	7.48e-01	0	26	104	0	79	19384
2026-01-11 04:44:17.59	3.40	21.09	-57.2	-72.5	3.8	7.45e-01	0	26	104	0	83	20670
2026-01-11 04:44:20.60	2.65	21.36	-51.0	-62.5	3.9	7.45e-01	0	25	104	0	71	13063
2026-01-11 04:44:23.59	1.89	21.62	-52.4	-64.3	3.9	7.47e-01	0	25	104	0	72	15059
2026-01-11 04:44:26.59	1.11	21.88	-55.3	-68.5	3.8	7.48e-01	0	25	104	0	78	17376
2026-01-11 04:44:29.58	0.33	22.14	-50.3	-61.7	3.9	7.44e-01	0	25	104	0	69	13350
2026-01-11 04:44:32.59	359.52	22.39	-56.2	-70.4	3.9	7.49e-01	0	26	104	0	80	19271
2026-01-11 04:44:35.60	358.70	22.65	-51.3	-62.8	3.8	7.46e-01	0	25	104	0	71	13561
2026-01-11 04:44:38.61	357.86	22.89	-50.6	-62.1	3.8	7.47e-01	0	25	104	0	70	13219
2026-01-11 04:44:41.60	357.02	23.14	-54.2	-66.5	3.9	7.44e-01	0	26	104	0	77	14602
2026-01-11 04:44:44.61	356.15	23.38	-50.9	-62.4	3.8	7.46e-01	0	25	104	0	71	12938
2026-01-11 04:44:47.60	355.28	23.61	-55.8	-69.2	3.8	7.47e-01	0	26	104	0	80	16766
2026-01-11 04:44:50.61	354.39	23.84	-52.9	-64.9	3.9	7.41e-01	0	25	104	0	75	13711
2026-01-11 04:44:53.61	353.49	24.07	-50.8	-62.2	3.8	7.44e-01	0	26	104	0	70	13378
2026-01-11 04:44:56.60	352.58	24.29	-56.9	-71.7	3.8	7.48e-01	0	25	104	0	81	21108
2026-01-11 04:44:59.59	351.65	24.50	-53.9	-66.3	3.9	7.44e-01	0	25	104	0	77	14316
2026-01-11 04:45:02.59	350.71	24.71	-55.9	-69.5	3.8	7.46e-01	0	26	104	0	79	18349
2026-01-11 04:45:05.59	349.75	24.91	-57.4	-73.1	3.8	7.47e-01	0	26	104	0	83	22109
2026-01-11 04:45:08.59	348.79	25.10	-50.9	-62.4	3.8	7.46e-01	0	25	104	0	71	12825
2026-01-11 04:45:11.60	347.80	25.29	-52.7	-64.8	3.8	7.46e-01	0	26	104	0	73	15119
2026-01-11 04:45:14.61	346.81	25.47	-55.9	-69.4	3.8	7.45e-01	0	25	104	0	79	18126
2026-01-11 04:45:17.61	345.80	25.64	-49.8	-61.1	3.9	7.45e-01	0	26	104	0	68	13252
2026-01-11 04:45:20.60	344.79	25.81	-56.8	-71.3	3.8	7.49e-01	0	25	104	0	81	20074
2026-01-11 04:45:23.61	343.76	25.96	-50.2	-61.7	3.8	7.47e-01	0	25	104	0	69	13302
2026-01-11 04:45:26.61	342.72	26.11	-49.8	-61.1	3.8	7.45e-01	0	25	104	0	68	13156
2026-01-11 04:45:29.61	341.68	26.24	-53.1	-65.1	3.9	7.43e-01	0	25	104	0	75	13903
2026-01-11 04:45:32.63	340.62	26.37	-50.0	-61.4	3.9	7.47e-01	0	25	104	0	69	12823
2026-01-11 04:45:35.63	339.55	26.49	-54.9	-67.7	3.8	7.49e-01	0	25	104	0	78	15804
2026-01-11 04:45:38.63	338.48	26.59	-52.1	-63.8	3.9	7.45e-01	0	26	104	0	73	13458
2026-01-11 04:45:41.63	337.40	26.69	-50.0	-61.4	3.9	7.48e-01	0	25	104	0	69	12864
2026-01-11 04:45:44.62	336.32	26.78	-57.4	-72.7	3.8	7.47e-01	0	25	104	0	82	22321
2026-01-11 04:45:47.63	335.22	26.85	-52.0	-63.7	3.9	7.44e-01	0	26	104	0	73	13391
2026-01-11 04:45:50.62	334.13	26.91	-55.9	-69.3	3.8	7.44e-01	0	25	104	0	79	17998
2026-01-11 04:45:53.62	333.03	26.97	-58.1	-74.4	3.8	7.48e-01	0	25	104	0	84	24152
2026-01-11 04:45:56.62	331.93	27.01	-49.9	-61.2	3.8	7.49e-01	0	25	104	0	69	12633
2026-01-11 04:45:59.61	330.83	27.04	-52.5	-64.2	3.8	7.45e-01	0	25	104	0	72	15038
2026-01-11 04:46:02.62	329.71	27.06	-56.0	-69.3	3.8	7.45e-01	0	25	104	0	79	18047
2026-01-11 04:46:05.62	328.60	27.07	-49.6	-60.9	3.8	7.43e-01	0	25	104	0	68	12817
2026-01-11 04:46:08.63	327.49	27.06	-57.7	-72.4	3.8	7.49e-01	0	25	104	0	82	21702
2026-01-11 04:46:11.64	326.38	27.05	-50.2	-61.6	3.8	7.46e-01	0	26	104	0	69	13239
2026-01-11 04:46:14.64	325.27	27.02	-50.1	-61.5	3.8	7.45e-01	0	25	104	0	68	13743
2026-01-11 04:46:17.64	324.17	26.98	-53.0	-65.0	3.9	7.47e-01	0	26	104	0	75	13738
2026-01-11 04:46:20.65	323.06	26.93	-49.9	-61.3	3.8	7.42e-01	0	25	104	0	69	12733
2026-01-11 04:46:23.65	321.96	26.87	-55.6	-68.8	3.8	7.43e-01	0	26	104	0	80	15976
2026-01-11 04:46:26.64	320.87	26.80	-52.0	-63.7	3.8	7.49e-01	0	25	104	0	73	13384
2026-01-11 04:46:29.64	319.79	26.71	-50.6	-62.2	3.8	7.45e-01	0	25	104	0	69	14207
2026-01-11 04:46:32.63	318.71	26.62	-57.6	-73.1	3.8	7.46e-01	0	25	104	0	82	23425
2026-01-11 04:46:35.62	317.64	26.52	-52.9	-65.4	3.9	7.45e-01	0	25	104	0	75	14450
2026-01-11 04:46:38.62	316.57	26.40	-57.9	-74.2	3.7	7.52e-01	0	26	104	0	83	25248
2026-01-11 04:46:41.63	315.51	26.28	-58.1	-66.9	9.5	6.21e-01	0	25	0	524288	84	10220
2026-01-11 04:46:44.61	314.47	26.15	-50.2	-52.0	15.5	6.03e-01	0	25	0	6291456	68	4625
2026-01-11 04:46:47.60	313.43	26.00	-50.6	-52.5	15.4	6.05e-01	0	25	0	11534336	69	4615
2026-01-11 04:46:50.58	312.41	25.85	-49.7	-51.4	15.6	6.05e-01	0	25	0	17301504	68	4303
2026-01-11 04:46:53.59	311.38	25.69	-49.5	-51.2	15.7	6.05e-01	0	25	0	23068672	68	4209
2026-01-11 04:46:56.57	310.38	25.52	-49.4	-51.1	15.7	6.03e-01	0	25	0	28311552	68	4151
2026-01-11 04:46:59.57	309.38	25.34	-49.5	-51.1	15.6	6.03e-01	0	25	0	34078720	67	4427
2026-01-11 04:47:02.56	308.40	25.16	-49.5	-51.1	15.6	6.04e-01	0	25	0	39845888	67	4441
2026-01-11 04:47:05.56	307.43	24.97	-49.6	-51.3	15.5	6.04e-01	0	25	0	45613056	67	4538
2026-01-11 04:47:08.57	306.46	24.77	-49.2	-50.8	15.7	6.03e-01	0	25	0	50855936	67	4271
2026-01-11 04:47:11.57	305.52	24.56	-49.5	-51.1	15.8	6.04e-01	0	25	0	56623104	68	4193
2026-01-11 04:47:14.57	304.58	24.35	-50.0	-51.7	15.5	6.00e-01	0	25	0	62390272	68	4490
2026-01-11 04:47:17.58	303.66	24.13	-50.3	-52.2	15.4	6.03e-01	0	25	0	67633152	68	4713
2026-01-11 04:47:20.57	302.75	23.91	-49.9	-51.6	15.4	6.02e-01	0	25	0	73400320	67	4693
2026-01-11 04:47:23.57	301.86	23.68	-50.0	-51.8	15.5	6.02e-01	0	25	0	79167488	68	4503
2026-01-11 04:47:26.56	300.98	23.44	-49.7	-51.4	15.5	6.03e-01	0	25	0	84934656	67	4593
2026-01-11 04:47:29.56	300.12	23.20	-49.4	-51.0	15.7	6.03e-01	0	25	0	90177536	67	4353
2026-01-11 04:47:32.55	299.27	22.96	-49.7	-51.3	15.6	6.01e-01	0	25	0	95944704	68	4290
2026-01-11 04:47:35.55	298.43	22.72	-50.2	-52.0	15.5	6.05e-01	0	25	0	101711872	68	4606
2026-01-11 04:47:38.55	297.60	22.46	-50.5	-52.4	15.4	6.03e-01	0	25	0	107479040	68	4840
2026-01-11 04:47:41.54	296.80	22.21	-49.8	-51.5	15.6	6.04e-01	0	25	0	112721920	68	4372
2026-01-11 04:47:44.55	296.00	21.95	-50.0	-51.8	15.5	6.06e-01	0	25	0	118489088	68	4520
2026-01-11 04:47:47.55	295.21	21.69	-49.8	-51.4	15.6	6.02e-01	0	25	0	124256256	68	4330
2026-01-11 04:47:50.54	294.45	21.43	-49.5	-51.2	15.7	6.02e-01	0	25	0	129499136	68	4194
2026-01-11 04:47:53.55	293.69	21.17	-50.0	-51.7	15.6	6.03e-01	0	25	0	135266304	68	4467
2026-01-11 04:47:56.53	292.95	20.90	-49.8	-51.5	15.6	6.00e-01	0	25	0	141033472	68	4358
2026-01-11 04:47:59.52	292.23	20.64	-49.2	-50.8	15.7	6.02e-01	0	25	0	146276352	67	4279
2026-01-11 04:48:02.53	291.51	20.37	-49.4	-51.1	15.8	6.04e-01	0	25	0	152043520	68	4146
2026-01-11 04:48:05.52	290.81	20.10	-49.6	-51.2	15.6	6.06e-01	0	25	0	157810688	67	4490
2026-01-11 04:48:08.52	290.12	19.82	-49.6	-51.2	15.5	6.03e-01	0	25	0	163577856	67	4488
2026-01-11 04:48:11.52	289.45	19.55	-49.8	-51.5	15.7	6.02e-01	0	25	0	168820736	68	4346
2026-01-11 04:48:14.52	288.79	19.28	-49.6	-51.3	15.7	6.04e-01	0	25	0	174587904	68	4271
2026-01-11 04:48:17.53	288.13	19.00	-49.9	-51.7	15.6	6.03e-01	0	25	0	180355072	68	4447
2026-01-11 04:48:20.53	287.49	18.73	-50.1	-51.9	15.5	6.03e-01	0	25	0	186122240	68	4563
2026-01-11 04:48:23.53	286.87	18.45	-49.3	-50.9	15.7	6.02e-01	0	25	0	191365120	67	4334
2026-01-11 04:48:26.53	286.26	18.18	-49.8	-51.6	15.4	6.04e-01	0	25	0	197132288	67	4696
2026-01-11 04:48:29.53	285.65	17.91	-50.4	-52.3	15.4	6.04e-01	0	25	0	202899456	68	4776
2026-01-11 04:48:32.52	285.06	17.63	-49.4	-51.0	15.6	6.05e-01	0	25	0	208142336	67	4369
2026-01-11 04:48:35.53	284.48	17.36	-49.6	-51.2	15.7	6.03e-01	0	25	0	213909504	68	4239
2026-01-11 04:48:38.52	283.92	17.09	-50.3	-52.2	15.4	6.02e-01	0	25	0	219676672	68	4727
2026-01-11 04:48:41.52	283.36	16.81	-49.6	-51.2	15.7	6.03e-01	0	25	0	225443840	68	4230
2026-01-11 04:48:44.52	282.81	16.54	-49.9	-51.7	15.5	6.04e-01	0	25	0	230686720	68	4490
2026-01-11 04:48:47.53	282.28	16.27	-49.3	-51.0	15.6	6.06e-01	0	25	0	236453888	67	4364
2026-01-11 04:48:50.53	281.75	16.00	-49.7	-51.5	15.5	6.03e-01	0	25	0	242221056	67	4634
2026-01-11 04:48:53.53	281.24	15.73	-49.5	-51.3	15.5	6.03e-01	0	25	0	247988224	67	4504
2026-01-11 04:48:56.52	280.73	15.47	-49.9	-51.7	15.4	6.04e-01	0	25	0	253231104	67	4719
2026-01-11 04:48:59.51	280.24	15.20	-49.5	-51.2	15.5	6.04e-01	0	25	0	258998272	67	4489
2026-01-11 04:49:02.49	279.76	14.94	-49.7	-51.5	15.5	6.01e-01	0	25	0	264765440	67	4615
2026-01-11 04:49:05.49	279.28	14.67	-49.7	-51.5	15.5	6.06e-01	0	25	0	270008320	67	4606
2026-01-11 04:49:08.49	278.81	14.41	-49.6	-51.3	15.5	6.05e-01	0	25	0	275775488	67	4515
2026-01-11 04:49:11.49	278.35	14.15	-49.8	-51.6	15.4	6.05e-01	0	25	0	281542656	67	4680
2026-01-11 04:49:14.49	277.90	13.89	-49.7	-51.5	15.5	6.02e-01	0	25	0	287309824	67	4637
2026-01-11 04:49:17.49	277.46	13.63	-49.6	-51.4	15.5	6.03e-01	0	25	0	292552704	67	4563
2026-01-11 04:49:20.49	277.02	13.37	-49.7	-51.5	15.4	6.03e-01	0	25	0	298319872	67	4634
2026-01-11 04:49:23.49	276.60	13.11	-49.9	-51.8	15.4	6.05e-01	0	25	0	304087040	67	4768
2026-01-11 04:49:26.48	276.18	12.86	-49.7	-51.4	15.5	6.04e-01	0	25	0	309329920	67	4590
2026-01-11 04:49:29.48	275.77	12.61	-49.7	-51.5	15.5	6.03e-01	0	25	0	315097088	67	4627
2026-01-11 04:49:32.48	275.37	12.36	-49.9	-51.7	15.4	6.03e-01	0	25	0	320864256	67	4748
2026-01-11 04:49:35.49	274.98	12.10	-50.0	-51.8	15.4	6.04e-01	0	25	0	326631424	67	4795
2026-01-11 04:49:38.48	274.59	11.86	-49.8	-51.6	15.4	6.04e-01	0	25	0	331874304	67	4705
2026-01-11 04:49:41.49	274.21	11.61	-49.9	-51.7	15.4	6.03e-01	0	25	0	337641472	67	4742
2026-01-11 04:49:44.49	273.83	11.36	-50.0	-51.9	15.3	6.02e-01	0	25	0	343408640	67	4825
2026-01-11 04:49:47.49	273.47	11.12	-50.0	-51.8	15.5	6.03e-01	0	25	0	349175808	68	4525
2026-01-11 04:49:50.49	273.11	10.88	-50.0	-51.9	15.5	6.02e-01	0	25	0	354418688	68	4567
2026-01-11 04:49:53.48	272.76	10.64	-50.1	-51.9	15.5	6.03e-01	0	25	0	360185856	68	4582
2026-01-11 04:49:56.47	272.41	10.40	-50.2	-52.0	15.4	6.03e-01	0	25	0	365953024	68	4647
2026-01-11 04:49:59.46	272.07	10.16	-50.3	-52.2	15.4	6.03e-01	0	25	0	371195904	68	4746
2026-01-11 04:50:02.45	271.74	9.93	-50.3	-52.2	15.3	6.03e-01	0	25	0	376963072	68	4756
2026-01-11 04:50:05.44	271.41	9.70	-50.1	-52.1	15.4	6.03e-01	0	25	0	382730240	68	4652
2026-01-11 04:50:08.44	271.08	9.46	-50.1	-51.9	15.5	6.03e-01	0	25	0	387973120	68	4598
2026-01-11 04:50:11.44	270.77	9.23	-51.3	-53.5	15.1	6.04e-01	0	25	0	393740288	70	4926
2026-01-11 04:50:14.44	270.45	9.00	-52.4	-55.3	14.7	6.02e-01	0	25	0	399507456	72	5374
2026-01-11 04:50:17.43	270.15	8.78	-52.7	-55.9	14.5	6.00e-01	0	25	0	405274624	73	5432
2026-01-11 04:50:20.44	269.85	8.55	-53.2	-57.0	14.1	6.02e-01	0	25	0	410517504	74	5791
2026-01-11 04:50:23.45	269.55	8.32	-54.1	-59.0	13.0	6.04e-01	0	25	0	416284672	75	6900
2026-01-11 04:50:26.43	269.26	8.10	-54.9	-61.1	11.7	6.08e-01	0	25	0	422051840	77	7887
2026-01-11 04:50:29.43	268.97	7.88	-54.8	-60.8	12.0	6.07e-01	0	25	0	427819008	77	7594
2026-01-11 04:50:32.43	268.69	7.66	-54.4	-59.6	12.8	6.05e-01	0	25	0	433061888	77	6619
2026-01-11 04:50:35.43	268.42	7.44	-54.1	-58.5	13.6	6.04e-01	0	25	0	438829056	77	5840
2026-01-11 04:50:38.42	268.14	7.23	-53.8	-57.7	14.0	6.04e-01	0	25	0	444596224	76	5637
2026-01-11 04:50:41.42	267.88	7.01	-52.6	-55.7	14.8	6.02e-01	0	25	0	449839104	74	4985
2026-01-11 04:50:44.42	267.61	6.80	-51.8	-54.3	15.1	6.03e-01	0	25	0	455606272	72	4762
2026-01-11 04:50:47.42	267.35	6.58	-50.6	-52.7	15.4	6.03e-01	0	25	0	461373440	70	4492
2026-01-11 04:50:50.42	267.10	6.37	-50.7	-52.8	15.4	6.03e-01	0	25	0	467140608	70	4534
2026-01-11 04:50:53.42	266.85	6.16	-50.8	-53.0	15.4	6.03e-01	0	25	0	472383488	70	4628
2026-01-11 04:50:56.41	266.60	5.95	-51.1	-53.3	15.2	6.05e-01	0	25	0	478150656	70	4801
2026-01-11 04:50:59.41	266.36	5.75	-51.0	-53.2	15.3	6.02e-01	0	25	0	483917824	70	4739
2026-01-11 04:51:02.40	266.12	5.54	-51.1	-53.4	15.2	6.01e-01	0	25	0	489684992	70	4839
2026-01-11 04:51:05.38	265.89	5.34	-51.2	-53.5	15.2	6.03e-01	0	25	0	494927872	70	4884
2026-01-11 04:51:08.38	265.66	5.13	-51.2	-53.5	15.1	6.03e-01	0	25	0	500695040	70	4911
2026-01-11 04:51:11.37	265.43	4.93	-57.6	-76.0	3.9	7.46e-01	0	25	104	505413632	82	32914
2026-01-11 04:51:14.37	265.21	4.73	-58.4	-77.8	3.8	7.46e-01	0	26	104	505413632	84	36088
2026-01-11 04:51:17.38	264.99	4.53	-58.9	-78.3	3.8	7.48e-01	0	25	104	505413632	85	35802
2026-01-11 04:51:20.37	264.77	4.34	-59.3	-78.6	3.8	7.45e-01	0	25	104	505413632	86	35138
2026-01-11 04:51:23.37	264.56	4.14	-59.4	-78.8	3.8	7.51e-01	0	25	104	505413632	86	35898
2026-01-11 04:51:26.35	264.35	3.94	-59.6	-78.9	3.8	7.45e-01	0	25	104	505413632	86	36493
2026-01-11 04:51:29.35	264.14	3.75	-59.7	-79.0	3.8	7.44e-01	0	26	104	505413632	87	34829
2026-01-11 04:51:32.35	263.93	3.56	-59.7	-79.0	3.8	7.47e-01	0	26	104	505413632	87	34856
2026-01-11 04:51:35.35	263.73	3.36	-59.6	-79.0	3.8	7.47e-01	0	26	104	505413632	87	34503
2026-01-11 04:51:38.35	263.53	3.17	-59.5	-78.9	3.8	7.48e-01	0	25	104	505413632	87	34193
2026-01-11 04:51:41.35	263.34	2.98	-59.5	-78.8	3.8	7.45e-01	0	25	104	505413632	87	34002
2026-01-11 04:51:44.34	263.15	2.80	-59.4	-78.8	3.8	7.46e-01	0	26	104	505413632	87	33907
2026-01-11 04:51:47.35	262.96	2.61	-59.4	-78.8	3.8	7.49e-01	0	25	104	505413632	87	33976
2026-01-11 04:51:50.35	262.77	2.42	-59.4	-78.7	3.8	7.48e-01	0	26	104	505413632	87	33566
2026-01-11 04:51:53.35	262.58	2.24	-59.3	-78.7	3.8	7.47e-01	0	26	104	505413632	87	33534
2026-01-11 04:51:56.35	262.40	2.05	-59.3	-78.7	3.8	7.48e-01	0	25	104	505413632	87	33457

#Closed at: 2026-01-11 04:51:58
#Recorded file [505 MB]: D:/lorett/data/31004_260111_074014.dat