passes_logs/2026/01/11/R3.2S_Murmansk/R3.2S_Murmansk__20260111_114321_FENGYUN_3D_rec.log

#Pass ID: 20260111_114321_FENGYUN 3D
#Satellite: FENGYUN 3D
#Configuration: FENGYUN 3D
#almurnet v.1.7.20251203
#Start time: 2026-01-11 11:43:21

#Version: 2.2.20231116
#Station: R3.2S_Murmansk
#Location: 33.079688 lon 68.888172 lat
#TLE: 1 43010U 17072A   26010.98637270  .00000005  00000+0  24269-4 0  9997
#TLE: 2 43010  98.9936 342.7405 0002213 115.1030 245.0375 14.19693961422685

#Time	Az	El	Level	Level2	SNR	BER	BlckErr	Temp	State	Recorded	gain1	gain2
2026-01-11 11:43:21.46	155.57	1.98	-57.2	-70.1	3.8	8.47e-01	0	21	0	0	80	16092
2026-01-11 11:43:25.50	155.60	2.24	-57.1	-70.0	3.8	8.46e-01	0	21	104	0	79	16850
2026-01-11 11:43:29.53	155.63	2.51	-57.1	-70.0	3.8	8.46e-01	0	21	104	0	79	16812
2026-01-11 11:43:33.57	155.66	2.77	-57.1	-69.7	3.8	8.45e-01	0	21	104	0	79	16283
2026-01-11 11:43:37.60	155.70	3.04	-57.1	-69.2	3.8	8.46e-01	0	22	104	0	79	15381
2026-01-11 11:43:41.63	155.73	3.31	-57.1	-70.1	3.8	8.46e-01	0	22	104	0	79	17050
2026-01-11 11:43:45.66	155.77	3.58	-56.9	-67.1	3.9	8.45e-01	0	22	104	0	79	12012
2026-01-11 11:43:49.70	155.80	3.85	-55.9	-61.7	6.9	2.24e-01	0	22	0	8388608	78	6873
2026-01-11 11:43:53.74	155.84	4.13	-54.8	-58.8	9.4	1.42e-02	0	22	0	30408704	76	5512
2026-01-11 11:43:57.78	155.87	4.41	-52.7	-55.4	12.1	3.20e-05	0	22	0	53477376	72	4672
2026-01-11 11:44:01.81	155.91	4.70	-50.9	-52.9	13.6	0.00e+00	0	22	0	76546048	68	4419
2026-01-11 11:44:05.85	155.94	4.99	-50.3	-52.2	13.8	0.00e+00	0	22	0	98566144	66	4556
2026-01-11 11:44:09.87	155.98	5.27	-54.2	-58.0	10.0	3.09e-04	0	22	0	121634816	73	5959
2026-01-11 11:44:13.90	156.02	5.57	-48.7	-50.3	14.6	0.00e+00	0	22	0	143654912	63	4348
2026-01-11 11:44:17.93	156.06	5.86	-48.6	-50.2	14.7	0.00e+00	0	22	0	166723584	63	4299
2026-01-11 11:44:21.97	156.09	6.16	-48.6	-50.2	14.7	0.00e+00	0	23	0	189792256	63	4294
2026-01-11 11:44:26.01	156.13	6.47	-48.5	-50.0	14.8	0.00e+00	0	23	0	212860928	63	4223
2026-01-11 11:44:30.04	156.17	6.77	-48.6	-50.1	14.8	0.00e+00	0	23	0	234881024	63	4268
2026-01-11 11:44:34.07	156.21	7.08	-48.2	-49.7	15.0	0.00e+00	0	23	0	257949696	63	4080
2026-01-11 11:44:38.11	156.25	7.40	-48.2	-49.7	14.9	0.00e+00	0	22	0	281018368	62	4312
2026-01-11 11:44:42.14	156.29	7.72	-48.1	-49.6	15.0	0.00e+00	0	22	0	303038464	62	4250
2026-01-11 11:44:46.17	156.34	8.04	-47.9	-49.4	15.1	0.00e+00	0	23	0	326107136	62	4156
2026-01-11 11:44:50.21	156.38	8.37	-47.9	-49.4	15.1	0.00e+00	0	22	0	348127232	62	4165
2026-01-11 11:44:54.25	156.42	8.70	-47.7	-49.1	15.2	0.00e+00	0	23	0	371195904	62	4034
2026-01-11 11:44:58.29	156.47	9.03	-47.8	-49.2	15.2	0.00e+00	0	23	0	394264576	62	4059
2026-01-11 11:45:02.32	156.51	9.37	-47.6	-49.0	15.1	0.00e+00	0	23	0	416284672	61	4241
2026-01-11 11:45:06.35	156.55	9.72	-47.5	-48.9	15.2	0.00e+00	0	23	0	439353344	61	4150
2026-01-11 11:45:10.38	156.60	10.07	-47.4	-48.8	15.3	0.00e+00	0	23	0	462422016	61	4114
2026-01-11 11:45:14.42	156.65	10.42	-47.3	-48.7	15.3	0.00e+00	0	23	0	484442112	61	4089
2026-01-11 11:45:18.45	156.69	10.78	-47.3	-48.6	15.4	0.00e+00	0	23	0	507510784	61	4043
2026-01-11 11:45:22.49	156.74	11.15	-47.4	-48.7	15.3	0.00e+00	0	23	0	529530880	61	4086
2026-01-11 11:45:26.52	156.79	11.52	-47.1	-48.4	15.3	0.00e+00	0	23	0	552599552	60	4168
2026-01-11 11:45:30.56	156.84	11.90	-47.1	-48.4	15.3	0.00e+00	0	23	0	575668224	60	4167
2026-01-11 11:45:34.59	156.89	12.28	-46.9	-48.2	15.4	0.00e+00	0	23	0	597688320	60	4076
2026-01-11 11:45:38.62	156.95	12.67	-46.7	-48.0	15.5	0.00e+00	0	23	0	620756992	60	4003
2026-01-11 11:45:42.65	157.00	13.06	-46.9	-48.3	15.3	0.00e+00	0	23	0	643825664	59	4366
2026-01-11 11:45:46.68	157.05	13.46	-46.9	-48.3	15.3	0.00e+00	0	23	0	665845760	59	4342
2026-01-11 11:45:50.72	157.11	13.87	-46.8	-48.2	15.3	0.00e+00	0	23	0	688914432	59	4304
2026-01-11 11:45:54.75	157.16	14.28	-46.7	-48.0	15.4	0.00e+00	0	23	0	711983104	59	4235
2026-01-11 11:45:58.79	157.22	14.71	-46.6	-48.0	15.4	0.00e+00	0	23	0	734003200	59	4202
2026-01-11 11:46:02.80	157.28	15.13	-46.6	-48.0	15.4	0.00e+00	0	23	0	757071872	59	4201
2026-01-11 11:46:06.84	157.34	15.57	-46.4	-47.7	15.6	0.00e+00	0	23	0	779091968	59	4078
2026-01-11 11:46:10.87	157.40	16.01	-46.5	-47.8	15.5	0.00e+00	0	23	0	802160640	59	4111
2026-01-11 11:46:14.91	157.46	16.47	-46.3	-47.6	15.7	0.00e+00	0	23	0	825229312	59	4018
2026-01-11 11:46:18.93	157.53	16.93	-46.2	-47.5	15.5	0.00e+00	0	23	0	847249408	58	4202
2026-01-11 11:46:22.97	157.59	17.40	-46.0	-47.3	15.6	0.00e+00	0	23	0	870318080	58	4130
2026-01-11 11:46:27.00	157.66	17.88	-45.9	-47.2	15.7	0.00e+00	0	23	0	893386752	58	4073
2026-01-11 11:46:31.03	157.73	18.37	-45.6	-46.9	15.8	0.00e+00	0	23	0	915406848	57	4166
2026-01-11 11:46:35.06	157.80	18.87	-45.4	-46.7	15.7	0.00e+00	0	23	0	938475520	57	4057
2026-01-11 11:46:39.09	157.87	19.38	-45.3	-46.5	15.8	0.00e+00	0	23	0	960495616	57	3983
2026-01-11 11:46:43.13	157.95	19.90	-45.2	-46.4	15.8	0.00e+00	0	23	0	983564288	57	3946
2026-01-11 11:46:47.15	158.03	20.43	-45.3	-46.5	15.8	0.00e+00	0	23	0	1006632960	57	3999
2026-01-11 11:46:51.20	158.11	20.97	-45.2	-46.5	15.6	0.00e+00	0	23	0	1028653056	56	4199
2026-01-11 11:46:55.22	158.19	21.53	-45.1	-46.4	15.7	0.00e+00	0	23	0	1051721728	56	4154
2026-01-11 11:46:59.25	158.27	22.09	-45.0	-46.2	15.7	0.00e+00	0	23	0	1074790400	56	4092
2026-01-11 11:47:03.28	158.36	22.67	-45.1	-46.3	15.7	0.00e+00	0	23	0	1096810496	56	4120
2026-01-11 11:47:07.32	158.45	23.27	-44.9	-46.1	15.8	0.00e+00	0	23	0	1119879168	56	4044
2026-01-11 11:47:11.34	158.54	23.87	-45.0	-46.2	15.8	0.00e+00	0	23	0	1141899264	56	4077
2026-01-11 11:47:15.37	158.63	24.49	-44.5	-45.7	15.8	0.00e+00	0	23	0	1164967936	55	4063
2026-01-11 11:47:19.41	158.73	25.13	-44.4	-45.6	15.9	0.00e+00	0	23	0	1188036608	55	4022
2026-01-11 11:47:23.44	158.83	25.78	-44.4	-45.6	15.8	0.00e+00	0	23	0	1210056704	55	4022
2026-01-11 11:47:27.47	158.94	26.45	-44.4	-45.6	15.9	0.00e+00	0	23	0	1233125376	55	4013
2026-01-11 11:47:31.51	159.05	27.14	-44.2	-45.4	15.9	0.00e+00	0	23	0	1256194048	55	3928
2026-01-11 11:47:35.55	159.16	27.84	-44.3	-45.5	15.9	0.00e+00	0	23	0	1278214144	55	3973
2026-01-11 11:47:39.58	159.28	28.56	-44.4	-45.6	15.8	0.00e+00	0	23	0	1301282816	55	4049
2026-01-11 11:47:43.61	159.41	29.30	-44.3	-45.6	15.9	0.00e+00	0	23	0	1324351488	55	4010
2026-01-11 11:47:47.64	159.53	30.06	-44.1	-45.3	15.8	0.00e+00	0	23	0	1346371584	54	4141
2026-01-11 11:47:51.68	159.67	30.85	-44.0	-45.1	15.9	0.00e+00	0	23	0	1369440256	54	4044
2026-01-11 11:47:55.71	159.81	31.65	-43.9	-45.1	15.9	0.00e+00	0	23	0	1392508928	54	4029
2026-01-11 11:47:59.75	159.95	32.47	-44.0	-45.2	15.8	0.00e+00	0	23	0	1414529024	54	4085
2026-01-11 11:48:03.78	160.11	33.32	-44.2	-45.4	15.8	0.00e+00	0	23	0	1437597696	54	4157
2026-01-11 11:48:07.82	160.27	34.19	-44.0	-45.2	15.8	0.00e+00	0	23	0	1460666368	54	4071
2026-01-11 11:48:11.85	160.44	35.09	-43.9	-45.1	15.9	0.00e+00	0	23	0	1482686464	54	4028
2026-01-11 11:48:15.88	160.61	36.01	-43.5	-44.6	15.9	0.00e+00	0	23	0	1505755136	53	4047
2026-01-11 11:48:19.91	160.80	36.96	-43.6	-44.8	15.8	0.00e+00	0	23	0	1527775232	53	4123
2026-01-11 11:48:23.95	161.00	37.94	-43.8	-44.9	15.8	0.00e+00	0	23	0	1550843904	53	4160
2026-01-11 11:48:27.99	161.21	38.95	-43.9	-44.9	15.8	0.00e+00	0	23	0	1573912576	53	4185
2026-01-11 11:48:32.01	161.43	39.98	-44.2	-45.2	15.7	0.00e+00	0	23	0	1595932672	53	4338
2026-01-11 11:48:36.04	161.66	41.05	-44.6	-45.6	15.7	0.00e+00	0	23	0	1619001344	54	4289
2026-01-11 11:48:40.08	161.92	42.15	-44.5	-45.5	15.8	0.00e+00	0	23	0	1642070016	54	4222
2026-01-11 11:48:44.11	162.18	43.29	-44.3	-45.4	15.8	0.00e+00	0	23	0	1664090112	54	4151
2026-01-11 11:48:48.13	162.47	44.45	-44.5	-45.6	15.7	0.00e+00	0	23	0	1687158784	54	4249
2026-01-11 11:48:52.17	162.77	45.65	-44.2	-45.3	15.8	0.00e+00	0	23	0	1709178880	54	4132
2026-01-11 11:48:56.20	163.10	46.89	-44.5	-45.6	15.7	0.00e+00	0	23	0	1732247552	54	4270
2026-01-11 11:49:00.23	163.46	48.16	-44.4	-45.5	15.8	0.00e+00	0	23	0	1755316224	54	4195
2026-01-11 11:49:04.27	163.85	49.48	-44.4	-45.4	15.8	0.00e+00	0	23	0	1777336320	54	4176
2026-01-11 11:49:08.30	164.27	50.83	-44.7	-45.7	15.8	0.00e+00	0	23	0	1800404992	55	4078
2026-01-11 11:49:12.34	164.73	52.22	-45.6	-46.7	15.6	0.00e+00	0	23	0	1823473664	56	4326
2026-01-11 11:49:16.38	165.23	53.65	-45.9	-47.1	15.6	0.00e+00	0	23	0	1845493760	57	4252
2026-01-11 11:49:20.40	165.78	55.11	-45.7	-46.8	15.7	0.00e+00	0	23	0	1868562432	57	4140
2026-01-11 11:49:24.43	166.39	56.61	-45.6	-46.7	15.8	0.00e+00	0	23	0	1890582528	57	4063
2026-01-11 11:49:28.46	167.07	58.15	-45.1	-46.2	15.8	0.00e+00	0	23	0	1913651200	56	4061
2026-01-11 11:49:32.49	167.84	59.73	-44.3	-45.4	15.9	0.00e+00	0	23	0	1936719872	55	3928
2026-01-11 11:49:36.53	168.70	61.35	-44.3	-45.4	15.8	0.00e+00	0	23	0	1958739968	54	4176
2026-01-11 11:49:40.56	169.68	63.00	-44.1	-45.2	15.8	0.00e+00	0	23	0	1981808640	54	4067
2026-01-11 11:49:44.59	170.81	64.68	-43.4	-44.4	16.0	0.00e+00	0	23	0	2004877312	53	3943
2026-01-11 11:49:48.63	172.12	66.39	-43.9	-45.0	15.8	0.00e+00	0	23	0	2026897408	53	4211
2026-01-11 11:49:52.66	173.65	68.12	-43.3	-44.3	16.0	0.00e+00	0	23	0	2049966080	53	3910
2026-01-11 11:49:56.70	175.47	69.88	-43.5	-44.5	15.9	0.00e+00	0	23	0	2071986176	53	4003
2026-01-11 11:50:00.73	177.66	71.64	-43.2	-44.2	16.0	0.00e+00	0	23	0	2095054848	53	3836
2026-01-11 11:50:04.76	180.33	73.39	-42.9	-43.9	16.0	0.00e+00	0	23	0	2118123520	52	3931
2026-01-11 11:50:08.80	183.68	75.14	-42.6	-43.6	15.9	0.00e+00	0	23	0	2140143616	51	4049
2026-01-11 11:50:12.83	187.93	76.84	-42.3	-43.3	16.0	0.00e+00	0	23	0	2163212288	51	3898
2026-01-11 11:50:16.86	193.44	78.47	-41.9	-42.9	16.0	0.00e+00	0	23	0	2186280960	50	3924
2026-01-11 11:50:20.89	200.73	79.98	-41.5	-42.5	16.0	0.00e+00	0	23	0	2208301056	49	3961
2026-01-11 11:50:24.93	210.45	81.28	-42.0	-43.0	15.9	0.00e+00	0	23	0	2231369728	49	4196
2026-01-11 11:50:28.95	223.07	82.27	-41.8	-42.8	16.0	0.00e+00	0	23	0	2253389824	49	4125
2026-01-11 11:50:32.98	238.44	82.79	-42.0	-43.0	16.0	0.00e+00	0	23	0	2276458496	49	4209
2026-01-11 11:50:37.01	254.86	82.74	-41.8	-42.8	15.9	0.00e+00	0	23	0	2299527168	49	4118
2026-01-11 11:50:41.05	269.93	82.14	-41.7	-42.7	16.0	0.00e+00	0	23	0	2321547264	49	4063
2026-01-11 11:50:45.08	282.11	81.10	-41.5	-42.4	16.0	0.00e+00	0	23	0	2344615936	49	3945
2026-01-11 11:50:49.12	291.42	79.76	-42.3	-43.3	15.9	0.00e+00	0	23	0	2367684608	49	4354
2026-01-11 11:50:53.15	298.39	78.23	-42.6	-43.6	15.9	0.00e+00	0	23	0	2389704704	50	4280
2026-01-11 11:50:57.19	303.69	76.58	-42.6	-43.6	15.9	0.00e+00	0	23	0	2412773376	50	4288
2026-01-11 11:51:01.23	307.78	74.87	-43.0	-44.0	15.9	0.00e+00	0	23	0	2435842048	51	4232
2026-01-11 11:51:05.25	311.00	73.13	-43.4	-44.4	15.9	0.00e+00	0	23	0	2457862144	52	4189
2026-01-11 11:51:09.29	313.59	71.37	-43.4	-44.4	15.9	0.00e+00	0	23	0	2480930816	52	4179
2026-01-11 11:51:13.33	315.72	69.61	-43.4	-44.5	15.8	0.00e+00	0	23	0	2503999488	52	4204
2026-01-11 11:51:17.37	317.49	67.86	-43.4	-44.5	15.8	0.00e+00	0	23	0	2526019584	52	4194
2026-01-11 11:51:21.40	318.98	66.14	-43.7	-44.8	15.8	0.00e+00	0	23	0	2549088256	52	4343
2026-01-11 11:51:25.44	320.26	64.43	-43.9	-45.0	15.8	0.00e+00	0	23	0	2572156928	53	4204
2026-01-11 11:51:29.48	321.36	62.75	-44.2	-45.3	15.8	0.00e+00	0	23	0	2594177024	53	4368
2026-01-11 11:51:33.51	322.32	61.11	-44.3	-45.3	15.7	0.00e+00	0	23	0	2617245696	53	4382
2026-01-11 11:51:37.55	323.17	59.50	-44.3	-45.3	15.8	0.00e+00	0	23	0	2639265792	53	4369
2026-01-11 11:51:41.58	323.92	57.93	-45.1	-46.2	15.7	0.00e+00	0	23	0	2662334464	55	4299
2026-01-11 11:51:45.60	324.59	56.41	-45.0	-46.0	15.7	0.00e+00	0	23	0	2685403136	55	4217
2026-01-11 11:51:49.63	325.19	54.91	-45.6	-46.6	15.7	0.00e+00	0	23	0	2707423232	56	4284
2026-01-11 11:51:53.66	325.74	53.46	-45.5	-46.6	15.7	0.00e+00	0	23	0	2730491904	56	4274
2026-01-11 11:51:57.69	326.23	52.04	-45.7	-46.7	15.6	0.00e+00	0	23	0	2753560576	56	4340
2026-01-11 11:52:01.72	326.68	50.66	-45.1	-46.2	15.8	0.00e+00	0	23	0	2775580672	56	4068
2026-01-11 11:52:05.76	327.10	49.32	-45.0	-46.1	15.8	0.00e+00	0	23	0	2798649344	56	4016
2026-01-11 11:52:09.79	327.48	48.02	-44.5	-45.5	15.9	0.00e+00	0	23	0	2820669440	55	3983
2026-01-11 11:52:13.82	327.83	46.75	-44.2	-45.2	16.0	0.00e+00	0	23	0	2843738112	55	3852
2026-01-11 11:52:17.85	328.16	45.52	-44.2	-45.2	16.0	0.00e+00	0	23	0	2866806784	55	3845
2026-01-11 11:52:21.89	328.46	44.33	-44.1	-45.1	15.9	0.00e+00	0	23	0	2888826880	54	4045
2026-01-11 11:52:25.92	328.75	43.17	-44.0	-45.1	15.9	0.00e+00	0	23	0	2911895552	54	4021
2026-01-11 11:52:29.96	329.01	42.04	-44.1	-45.2	15.8	0.00e+00	0	23	0	2934964224	54	4053
2026-01-11 11:52:33.99	329.26	40.95	-43.9	-45.0	15.9	0.00e+00	0	23	0	2956984320	54	3970
2026-01-11 11:52:38.03	329.50	39.89	-43.8	-44.8	15.9	0.00e+00	0	23	0	2980052992	54	3910
2026-01-11 11:52:42.07	329.72	38.86	-43.7	-44.7	16.0	0.00e+00	0	23	0	3003121664	54	3859
2026-01-11 11:52:46.11	329.93	37.86	-43.6	-44.6	15.9	0.00e+00	0	23	0	3025141760	53	4048
2026-01-11 11:52:50.14	330.12	36.89	-43.5	-44.5	15.9	0.00e+00	0	23	0	3048210432	53	4003
2026-01-11 11:52:54.19	330.31	35.94	-43.9	-44.9	15.8	0.00e+00	0	23	0	3071279104	53	4179
2026-01-11 11:52:58.21	330.49	35.02	-44.1	-45.2	15.7	0.00e+00	0	23	0	3093299200	53	4306
2026-01-11 11:53:02.25	330.65	34.13	-43.8	-44.8	15.8	0.00e+00	0	23	0	3116367872	53	4145
2026-01-11 11:53:06.28	330.81	33.27	-43.7	-44.7	15.9	0.00e+00	0	23	0	3139436544	53	4071
2026-01-11 11:53:10.32	330.97	32.42	-43.8	-44.9	15.8	0.00e+00	0	23	0	3161456640	53	4157
2026-01-11 11:53:14.36	331.11	31.60	-44.0	-45.1	15.8	0.00e+00	0	23	0	3184525312	53	4252
2026-01-11 11:53:18.39	331.25	30.81	-44.2	-45.2	15.8	0.00e+00	0	23	0	3206545408	53	4329
2026-01-11 11:53:22.42	331.39	30.03	-44.2	-45.3	15.8	0.00e+00	0	23	0	3229614080	53	4342
2026-01-11 11:53:26.45	331.52	29.28	-44.2	-45.2	15.7	0.00e+00	0	23	0	3252682752	53	4334
2026-01-11 11:53:30.48	331.64	28.54	-44.3	-45.4	15.7	0.00e+00	0	23	0	3274702848	53	4402
2026-01-11 11:53:34.52	331.76	27.82	-44.2	-45.2	15.7	0.00e+00	0	23	0	3297771520	53	4335
2026-01-11 11:53:38.55	331.88	27.12	-44.1	-45.1	15.7	0.00e+00	0	23	0	3320840192	53	4289
2026-01-11 11:53:42.59	331.99	26.44	-43.9	-44.9	15.8	0.00e+00	0	23	0	3342860288	53	4191
2026-01-11 11:53:46.63	332.09	25.78	-44.1	-45.1	15.8	0.00e+00	0	23	0	3365928960	53	4264
2026-01-11 11:53:50.66	332.20	25.13	-44.5	-45.6	15.7	0.00e+00	0	23	0	3388997632	54	4257
2026-01-11 11:53:54.70	332.30	24.49	-44.7	-45.8	15.7	0.00e+00	0	23	0	3411017728	54	4385
2026-01-11 11:53:58.73	332.39	23.88	-44.9	-46.0	15.7	0.00e+00	0	23	0	3434086400	54	4444
2026-01-11 11:54:02.76	332.48	23.27	-44.9	-46.0	15.7	0.00e+00	0	23	0	3457155072	55	4232
2026-01-11 11:54:06.79	332.58	22.68	-44.9	-46.0	15.7	0.00e+00	0	23	0	3479175168	55	4210
2026-01-11 11:54:10.82	332.66	22.11	-45.0	-46.1	15.6	0.00e+00	0	23	0	3502243840	55	4275
2026-01-11 11:54:14.86	332.75	21.54	-45.0	-46.1	15.7	0.00e+00	0	23	0	3525312512	55	4243
2026-01-11 11:54:18.89	332.83	20.99	-45.1	-46.2	15.6	0.00e+00	0	23	0	3547332608	55	4319
2026-01-11 11:54:22.92	332.91	20.45	-45.2	-46.3	15.6	0.00e+00	0	23	0	3570401280	55	4355
2026-01-11 11:54:26.95	332.99	19.92	-45.3	-46.3	15.6	0.00e+00	0	23	0	3592421376	55	4391
2026-01-11 11:54:30.99	333.07	19.41	-45.6	-46.8	15.6	0.00e+00	0	23	0	3615490048	56	4346
2026-01-11 11:54:35.02	333.14	18.90	-45.6	-46.7	15.6	0.00e+00	0	23	0	3638558720	56	4325
2026-01-11 11:54:39.05	333.21	18.40	-45.7	-46.8	15.5	0.00e+00	0	23	0	3660578816	56	4387
2026-01-11 11:54:43.09	333.28	17.92	-45.8	-46.9	15.5	0.00e+00	0	23	0	3683647488	56	4434
2026-01-11 11:54:47.13	333.35	17.44	-45.9	-47.1	15.5	0.00e+00	0	24	0	3705667584	57	4251
2026-01-11 11:54:51.16	333.42	16.97	-46.0	-47.1	15.5	0.00e+00	0	23	0	3728736256	57	4283
2026-01-11 11:54:55.19	333.49	16.51	-46.3	-47.4	15.4	0.00e+00	0	23	0	3751804928	57	4424
2026-01-11 11:54:59.22	333.55	16.06	-46.4	-47.6	15.4	0.00e+00	0	23	0	3773825024	57	4504
2026-01-11 11:55:03.26	333.61	15.62	-46.6	-47.7	15.4	0.00e+00	0	23	0	3796893696	58	4335
2026-01-11 11:55:07.29	333.68	15.18	-46.7	-47.9	15.4	0.00e+00	0	23	0	3819962368	58	4399
2026-01-11 11:55:11.33	333.74	14.75	-46.9	-48.1	15.3	0.00e+00	0	23	0	3841982464	58	4505
2026-01-11 11:55:15.36	333.80	14.33	-46.9	-48.1	15.4	0.00e+00	0	23	0	3865051136	59	4285
2026-01-11 11:55:19.40	333.85	13.92	-47.0	-48.2	15.4	0.00e+00	0	23	0	3887071232	59	4311
2026-01-11 11:55:23.44	333.91	13.51	-47.1	-48.4	15.3	0.00e+00	0	23	0	3910139904	59	4395
2026-01-11 11:55:27.46	333.97	13.12	-47.2	-48.4	15.2	0.00e+00	0	23	0	3933208576	59	4429
2026-01-11 11:55:31.50	334.02	12.72	-46.9	-48.1	15.5	0.00e+00	0	23	0	3955228672	60	4023
2026-01-11 11:55:35.53	334.08	12.34	-47.0	-48.2	15.4	0.00e+00	0	23	0	3978297344	60	4074
2026-01-11 11:55:39.57	334.13	11.96	-47.0	-48.3	15.3	0.00e+00	0	23	0	4001366016	60	4111
2026-01-11 11:55:43.60	334.18	11.58	-47.2	-48.4	15.3	0.00e+00	0	23	0	4023386112	60	4170
2026-01-11 11:55:47.62	334.23	11.21	-47.4	-48.6	15.2	0.00e+00	0	23	0	4046454784	60	4287
2026-01-11 11:55:51.66	334.28	10.85	-47.3	-48.6	15.2	0.00e+00	0	23	0	4069523456	60	4265
2026-01-11 11:55:55.69	334.33	10.49	-47.3	-48.6	15.2	0.00e+00	0	23	0	4091543552	60	4255
2026-01-11 11:55:59.73	334.38	10.14	-47.5	-48.8	15.1	0.00e+00	0	23	0	4114612224	60	4365
2026-01-11 11:56:03.76	334.43	9.79	-47.7	-49.0	15.0	0.00e+00	0	23	0	4137680896	60	4452
2026-01-11 11:56:07.79	334.48	9.45	-47.6	-48.9	15.0	0.00e+00	0	23	0	4159700992	60	4410
2026-01-11 11:56:11.83	334.53	9.11	-47.6	-48.9	15.0	0.00e+00	0	23	0	4182769664	60	4421
2026-01-11 11:56:15.86	334.57	8.77	-47.8	-49.1	14.9	0.00e+00	0	23	0	4205838336	60	4519
2026-01-11 11:56:19.90	334.62	8.44	-47.9	-49.2	15.0	0.00e+00	0	23	0	4227858432	61	4330
2026-01-11 11:56:23.93	334.66	8.12	-48.1	-49.5	14.8	0.00e+00	0	23	0	4250927104	61	4472
2026-01-11 11:56:27.96	334.71	7.80	-48.0	-49.4	14.9	0.00e+00	0	23	0	4272947200	61	4393
2026-01-11 11:56:32.00	334.75	7.48	-47.9	-49.2	15.0	0.00e+00	0	23	0	4296015872	61	4324
2026-01-11 11:56:36.03	334.79	7.17	-47.9	-49.2	15.0	0.00e+00	0	23	0	4319084544	61	4323
2026-01-11 11:56:40.07	334.84	6.86	-48.2	-49.6	14.8	0.00e+00	0	23	0	4341104640	61	4518
2026-01-11 11:56:44.11	334.88	6.55	-48.1	-49.5	14.8	0.00e+00	0	23	0	4364173312	61	4454
2026-01-11 11:56:48.14	334.92	6.25	-48.3	-49.7	14.8	0.00e+00	0	23	0	4387241984	62	4319
2026-01-11 11:56:52.17	334.96	5.95	-48.3	-49.7	14.8	0.00e+00	0	23	0	4409262080	62	4338
2026-01-11 11:56:56.19	335.00	5.66	-48.6	-50.0	14.6	0.00e+00	0	23	0	4432330752	62	4483
2026-01-11 11:57:00.23	335.04	5.36	-48.7	-50.2	14.6	0.00e+00	0	23	0	4454350848	63	4327
2026-01-11 11:57:04.26	335.08	5.07	-48.5	-50.0	14.7	0.00e+00	0	23	0	4477419520	63	4197
2026-01-11 11:57:08.30	335.12	4.79	-58.5	-71.6	3.8	8.47e-01	0	23	104	4486856704	82	16918
2026-01-11 11:57:12.33	335.16	4.51	-59.1	-72.2	3.8	8.45e-01	0	23	104	4486856704	83	17102
2026-01-11 11:57:16.36	335.20	4.23	-59.4	-72.4	3.8	8.45e-01	0	23	104	4486856704	83	17656
2026-01-11 11:57:20.39	335.24	3.95	-59.7	-72.7	3.8	8.46e-01	0	24	104	4486856704	84	17277
2026-01-11 11:57:24.43	335.28	3.67	-59.8	-72.8	3.8	8.46e-01	0	23	104	4486856704	84	17424
2026-01-11 11:57:28.46	335.31	3.40	-59.7	-72.8	3.8	8.46e-01	0	24	104	4486856704	84	17338
2026-01-11 11:57:32.50	335.35	3.13	-59.7	-72.7	3.8	8.46e-01	0	23	104	4486856704	84	17271
2026-01-11 11:57:36.54	335.39	2.87	-59.6	-72.7	3.8	8.46e-01	0	24	104	4486856704	84	17201
2026-01-11 11:57:40.58	335.42	2.60	-59.6	-72.6	3.8	8.46e-01	0	23	104	4486856704	84	17030
2026-01-11 11:57:44.61	335.46	2.34	-59.6	-72.6	3.8	8.45e-01	0	23	104	4486856704	84	17065
2026-01-11 11:57:48.63	335.50	2.08	-59.6	-72.6	3.8	8.46e-01	0	23	104	4486856704	84	17013

#Closed at: 2026-01-11 11:57:51
#Recorded file [4486 MB]: D:/lorett/data/31004_260111_144321.dat