passes_logs/2026/01/11/R3.2S_Murmansk/R3.2S_Murmansk__20260111_012519_AQUA_rec.log

#Pass ID: 20260111_012519_AQUA
#Satellite: AQUA
#Configuration: AQUA
#almurnet v.1.7.20251203
#Start time: 2026-01-11 01:25:18

#Version: 2.2.20231116
#Station: R3.2S_Murmansk
#Location: 33.079688 lon 68.888172 lat
#TLE: 1 27424U 02022A   26009.89520876  .00001045  00000+0  21914-3 0  9996
#TLE: 2 27424  98.4076 336.2372 0002032  84.5955   1.0356 14.61811442260144

#Time	Az	El	Level	Level2	SNR	BER	BlckErr	Temp	State	Recorded	gain1	gain2
2026-01-11 01:25:18.55	21.75	1.97	-52.8	-72.1	3.8	7.47e-01	0	23	0	0	73	34952
2026-01-11 01:25:21.54	21.85	2.17	-52.8	-72.2	3.8	7.47e-01	0	24	104	0	73	35286
2026-01-11 01:25:24.54	21.95	2.36	-52.8	-72.2	3.8	7.45e-01	0	24	104	0	73	35325
2026-01-11 01:25:27.54	22.06	2.56	-52.8	-72.1	3.8	7.46e-01	0	24	104	0	73	35158
2026-01-11 01:25:30.55	22.17	2.76	-52.9	-72.1	3.8	7.47e-01	0	24	104	0	73	34915
2026-01-11 01:25:33.55	22.27	2.96	-52.9	-72.1	3.8	7.45e-01	0	24	104	0	73	34975
2026-01-11 01:25:36.56	22.38	3.16	-52.9	-72.2	3.8	7.48e-01	0	24	104	0	73	35375
2026-01-11 01:25:39.55	22.49	3.36	-52.9	-72.2	3.8	7.46e-01	0	24	104	0	73	35570
2026-01-11 01:25:42.56	22.61	3.56	-52.9	-72.2	3.8	7.46e-01	0	24	104	0	73	35599
2026-01-11 01:25:45.56	22.72	3.77	-52.9	-72.2	3.8	7.47e-01	0	25	104	0	73	35525
2026-01-11 01:25:48.55	22.83	3.98	-52.9	-72.3	3.8	7.50e-01	0	24	104	0	73	35705
2026-01-11 01:25:51.56	22.95	4.19	-52.9	-72.3	3.8	7.44e-01	0	24	104	0	73	35866
2026-01-11 01:25:54.55	23.07	4.40	-52.9	-72.3	3.8	7.47e-01	0	24	104	0	73	35837
2026-01-11 01:25:57.55	23.19	4.61	-52.9	-72.3	3.8	7.46e-01	0	25	104	0	73	35781
2026-01-11 01:26:00.56	23.31	4.83	-52.9	-72.3	3.8	7.44e-01	0	25	104	0	73	35712
2026-01-11 01:26:03.55	23.44	5.04	-52.9	-72.3	3.8	7.46e-01	0	25	104	0	73	35732
2026-01-11 01:26:06.56	23.56	5.26	-52.9	-72.3	3.8	7.47e-01	0	25	104	0	73	35943
2026-01-11 01:26:09.56	23.69	5.48	-52.9	-72.3	3.8	7.45e-01	0	25	104	0	73	35880
2026-01-11 01:26:12.56	23.82	5.70	-52.9	-72.3	3.8	7.46e-01	0	25	104	0	73	35939
2026-01-11 01:26:15.57	23.95	5.93	-53.0	-72.3	3.8	7.46e-01	0	25	104	0	73	36027
2026-01-11 01:26:18.57	24.08	6.15	-52.9	-72.3	3.8	7.47e-01	0	25	104	0	73	36038
2026-01-11 01:26:21.57	24.22	6.38	-53.0	-72.3	3.8	7.47e-01	0	25	104	0	73	36005
2026-01-11 01:26:24.57	24.35	6.61	-53.0	-72.3	3.8	7.49e-01	0	25	104	0	73	36042
2026-01-11 01:26:27.56	24.49	6.85	-53.0	-72.3	3.8	7.46e-01	0	25	104	0	73	35961
2026-01-11 01:26:30.56	24.63	7.08	-53.0	-72.4	3.8	7.45e-01	0	25	104	0	73	36109
2026-01-11 01:26:33.57	24.78	7.32	-53.0	-72.4	3.8	7.47e-01	0	25	104	0	73	36201
2026-01-11 01:26:36.57	24.92	7.56	-53.0	-72.3	3.8	7.47e-01	0	25	104	0	73	36023
2026-01-11 01:26:39.57	25.07	7.80	-53.0	-72.3	3.8	7.49e-01	0	25	104	0	73	36002
2026-01-11 01:26:42.57	25.22	8.05	-53.0	-72.3	3.8	7.45e-01	0	25	104	0	73	36002
2026-01-11 01:26:45.57	25.38	8.29	-53.0	-72.4	3.8	7.46e-01	0	25	104	0	73	36125
2026-01-11 01:26:48.57	25.53	8.54	-53.0	-72.4	3.9	7.44e-01	0	25	104	0	73	36140
2026-01-11 01:26:51.58	25.69	8.80	-53.0	-72.4	3.8	7.46e-01	0	25	104	0	73	36237
2026-01-11 01:26:54.58	25.85	9.05	-53.0	-72.3	3.8	7.46e-01	0	25	104	0	73	36055
2026-01-11 01:26:57.56	26.02	9.31	-53.0	-72.4	3.8	7.46e-01	0	25	104	0	73	36156
2026-01-11 01:27:00.56	26.19	9.57	-53.0	-72.4	3.8	7.48e-01	0	25	104	0	73	36262
2026-01-11 01:27:03.56	26.36	9.83	-53.0	-72.4	3.8	7.48e-01	0	25	104	0	73	36218
2026-01-11 01:27:06.55	26.53	10.10	-53.0	-72.4	3.8	7.45e-01	0	25	104	0	73	36153
2026-01-11 01:27:09.56	26.71	10.37	-53.0	-72.4	3.8	7.44e-01	0	25	104	0	73	36218
2026-01-11 01:27:12.57	26.89	10.64	-53.0	-72.4	3.8	7.47e-01	0	26	104	0	73	36282
2026-01-11 01:27:15.59	27.07	10.92	-53.0	-72.4	3.8	7.41e-01	0	26	104	0	73	36315
2026-01-11 01:27:18.60	27.26	11.20	-53.0	-72.4	3.8	7.44e-01	0	25	104	0	73	36181
2026-01-11 01:27:21.60	27.45	11.48	-53.0	-72.4	3.8	7.46e-01	0	25	104	0	73	36221
2026-01-11 01:27:24.60	27.64	11.77	-53.0	-72.4	3.8	7.45e-01	0	25	104	0	73	36277
2026-01-11 01:27:27.60	27.84	12.06	-53.0	-72.4	3.8	7.47e-01	0	26	104	0	73	36194
2026-01-11 01:27:30.60	28.04	12.35	-53.0	-72.4	3.8	7.48e-01	0	26	104	0	73	36304
2026-01-11 01:27:33.60	28.25	12.65	-53.0	-72.4	3.8	7.45e-01	0	26	104	0	73	36370
2026-01-11 01:27:36.62	28.46	12.95	-53.0	-72.4	3.8	7.46e-01	0	26	104	0	73	36258
2026-01-11 01:27:39.62	28.68	13.26	-53.0	-72.4	3.8	7.45e-01	0	26	104	0	73	36400
2026-01-11 01:27:42.62	28.90	13.57	-53.0	-72.4	3.8	7.49e-01	0	26	104	0	73	36306
2026-01-11 01:27:45.62	29.12	13.88	-53.0	-72.4	3.8	7.49e-01	0	26	104	0	73	36195
2026-01-11 01:27:48.62	29.35	14.20	-53.0	-72.4	3.8	7.48e-01	0	26	104	0	73	36364
2026-01-11 01:27:51.62	29.58	14.52	-53.0	-72.4	3.8	7.50e-01	0	26	104	0	73	36250
2026-01-11 01:27:54.63	29.82	14.84	-53.0	-72.4	3.8	7.47e-01	0	26	104	0	73	36356
2026-01-11 01:27:57.61	30.06	15.17	-53.0	-72.4	3.8	7.48e-01	0	26	104	0	73	36306
2026-01-11 01:28:00.61	30.31	15.51	-53.0	-72.4	3.8	7.48e-01	0	26	104	0	73	36348
2026-01-11 01:28:03.61	30.57	15.84	-53.0	-72.4	3.8	7.46e-01	0	26	104	0	73	36361
2026-01-11 01:28:06.63	30.83	16.19	-53.0	-72.4	3.8	7.47e-01	0	26	104	0	73	36283
2026-01-11 01:28:09.62	31.10	16.54	-53.0	-72.4	3.8	7.49e-01	0	26	104	0	73	36319
2026-01-11 01:28:12.62	31.37	16.89	-53.0	-72.4	3.8	7.50e-01	0	26	104	0	73	36406
2026-01-11 01:28:15.62	31.65	17.25	-53.0	-72.4	3.8	7.47e-01	0	26	104	0	73	36433
2026-01-11 01:28:18.63	31.94	17.62	-53.0	-72.4	3.8	7.44e-01	0	26	104	0	73	36391
2026-01-11 01:28:21.64	32.24	17.99	-53.0	-72.5	3.8	7.49e-01	0	26	104	0	73	36535
2026-01-11 01:28:24.63	32.54	18.36	-53.0	-72.4	3.8	7.46e-01	0	26	104	0	73	36380
2026-01-11 01:28:27.63	32.85	18.74	-53.0	-72.5	3.8	7.49e-01	0	26	104	0	73	36543
2026-01-11 01:28:30.65	33.17	19.13	-53.0	-72.5	3.8	7.48e-01	0	26	104	0	73	36558
2026-01-11 01:28:33.65	33.50	19.53	-53.0	-72.4	3.8	7.44e-01	0	26	104	0	73	36491
2026-01-11 01:28:36.66	33.83	19.93	-53.1	-72.4	3.8	7.49e-01	0	26	104	0	73	36386
2026-01-11 01:28:39.66	34.18	20.33	-53.0	-72.4	3.8	7.47e-01	0	26	104	0	73	36373
2026-01-11 01:28:42.67	34.53	20.74	-53.0	-72.4	3.8	7.48e-01	0	26	104	0	73	36406
2026-01-11 01:28:45.68	34.89	21.16	-53.0	-72.4	3.8	7.46e-01	0	26	104	0	73	36450
2026-01-11 01:28:48.69	35.27	21.59	-53.0	-72.4	3.8	7.49e-01	0	26	104	0	73	36506
2026-01-11 01:28:51.69	35.65	22.02	-53.0	-72.4	3.8	7.47e-01	0	26	104	0	73	36428
2026-01-11 01:28:54.70	36.05	22.46	-53.0	-72.4	3.8	7.44e-01	0	26	104	0	73	36414
2026-01-11 01:28:57.70	36.46	22.91	-53.0	-72.4	3.8	7.46e-01	0	26	104	0	73	36464
2026-01-11 01:29:00.69	36.87	23.36	-53.0	-72.4	3.8	7.49e-01	0	26	104	0	73	36435
2026-01-11 01:29:03.69	37.30	23.82	-53.1	-72.4	3.8	7.45e-01	0	26	104	0	73	36401
2026-01-11 01:29:06.70	37.75	24.28	-53.1	-72.4	3.8	7.47e-01	0	26	104	0	73	36443
2026-01-11 01:29:09.71	38.21	24.76	-53.0	-72.4	3.8	7.45e-01	0	26	104	0	73	36418
2026-01-11 01:29:12.72	38.68	25.24	-53.0	-72.4	3.8	7.47e-01	0	26	104	0	73	36415
2026-01-11 01:29:15.72	39.17	25.73	-53.0	-72.4	3.8	7.46e-01	0	26	104	0	73	36399
2026-01-11 01:29:18.73	39.67	26.23	-53.0	-72.4	3.8	7.50e-01	0	26	104	0	73	36420
2026-01-11 01:29:21.74	40.19	26.74	-53.1	-72.4	3.8	7.50e-01	0	26	104	0	73	36490
2026-01-11 01:29:24.73	40.73	27.25	-53.1	-72.4	3.8	7.46e-01	0	26	104	0	73	36511
2026-01-11 01:29:27.74	41.28	27.78	-53.0	-72.4	3.8	7.45e-01	0	26	104	0	73	36483
2026-01-11 01:29:30.74	41.86	28.31	-53.1	-72.4	3.8	7.45e-01	0	26	104	0	73	36488
2026-01-11 01:29:33.76	42.45	28.85	-53.1	-72.4	3.8	7.44e-01	0	26	104	0	73	36475
2026-01-11 01:29:36.76	43.07	29.39	-53.1	-72.4	3.8	7.49e-01	0	26	104	0	73	36492
2026-01-11 01:29:39.77	43.70	29.95	-53.1	-72.4	3.8	7.45e-01	0	26	104	0	73	36506
2026-01-11 01:29:42.78	44.36	30.51	-53.1	-72.4	3.8	7.50e-01	0	26	104	0	73	36516
2026-01-11 01:29:45.78	45.04	31.08	-53.1	-72.5	3.8	7.45e-01	0	26	104	0	73	36593
2026-01-11 01:29:48.78	45.75	31.66	-53.1	-72.5	3.8	7.45e-01	0	26	104	0	73	36611
2026-01-11 01:29:51.78	46.48	32.25	-53.1	-72.5	3.8	7.50e-01	0	26	104	0	73	36607
2026-01-11 01:29:54.77	47.24	32.84	-53.1	-72.4	3.8	7.50e-01	0	26	104	0	73	36475
2026-01-11 01:29:57.75	48.02	33.43	-53.1	-72.4	3.8	7.46e-01	0	26	104	0	73	36515
2026-01-11 01:30:00.75	48.84	34.04	-53.1	-72.4	3.8	7.48e-01	0	26	104	0	73	36462
2026-01-11 01:30:03.75	49.69	34.65	-53.1	-72.4	3.8	7.42e-01	0	26	104	0	73	36421
2026-01-11 01:30:06.75	50.57	35.27	-53.1	-72.4	3.8	7.48e-01	0	26	104	0	73	36515
2026-01-11 01:30:09.76	51.49	35.90	-53.1	-72.4	3.8	7.47e-01	0	26	104	0	73	36508
2026-01-11 01:30:12.77	52.44	36.53	-53.1	-72.4	3.8	7.45e-01	0	26	104	0	73	36418
2026-01-11 01:30:15.78	53.44	37.16	-53.1	-72.5	3.8	7.44e-01	0	26	104	0	73	36543
2026-01-11 01:30:18.78	54.47	37.80	-53.1	-72.4	3.8	7.47e-01	0	26	104	0	73	36420
2026-01-11 01:30:21.79	55.54	38.44	-53.1	-72.4	3.8	7.48e-01	0	26	104	0	73	36483
2026-01-11 01:30:24.80	56.66	39.08	-53.1	-72.5	3.8	7.47e-01	0	26	104	0	73	36561
2026-01-11 01:30:27.81	57.83	39.73	-53.1	-72.4	3.8	7.46e-01	0	26	104	0	73	36440
2026-01-11 01:30:30.80	59.03	40.36	-53.1	-72.4	3.8	7.44e-01	0	26	104	0	73	36449
2026-01-11 01:30:33.81	60.29	41.00	-53.0	-72.4	3.8	7.48e-01	0	26	104	0	73	36436
2026-01-11 01:30:36.81	61.60	41.64	-53.1	-72.4	3.8	7.47e-01	0	26	104	0	73	36427
2026-01-11 01:30:39.80	62.96	42.27	-53.1	-72.4	3.8	7.47e-01	0	26	104	0	73	36503
2026-01-11 01:30:42.82	64.38	42.89	-53.1	-72.4	3.8	7.46e-01	0	26	104	0	73	36488
2026-01-11 01:30:45.82	65.86	43.51	-53.1	-72.4	3.8	7.45e-01	0	26	104	0	73	36491
2026-01-11 01:30:48.83	67.39	44.11	-53.1	-72.4	3.8	7.49e-01	0	26	104	0	73	36432
2026-01-11 01:30:51.83	68.98	44.70	-53.1	-72.4	3.8	7.45e-01	0	26	104	0	73	36515
2026-01-11 01:30:54.82	70.62	45.27	-53.0	-72.5	3.8	7.49e-01	0	26	104	0	73	36532
2026-01-11 01:30:57.83	72.33	45.83	-53.0	-72.4	3.8	7.44e-01	0	26	104	0	73	36396
2026-01-11 01:31:00.83	74.10	46.37	-53.1	-72.4	3.8	7.45e-01	0	26	104	0	73	36472
2026-01-11 01:31:03.84	75.93	46.88	-53.1	-72.5	3.8	7.48e-01	0	26	104	0	73	36540
2026-01-11 01:31:06.84	77.82	47.37	-53.1	-72.5	3.8	7.47e-01	0	26	104	0	73	36538
2026-01-11 01:31:09.85	79.78	47.83	-53.0	-72.4	3.8	7.46e-01	0	26	104	0	73	36449
2026-01-11 01:31:12.85	81.78	48.26	-53.1	-72.5	3.8	7.48e-01	0	26	104	0	73	36532
2026-01-11 01:31:15.84	83.83	48.65	-53.1	-72.5	3.8	7.47e-01	0	26	104	0	73	36553
2026-01-11 01:31:18.85	85.95	49.01	-53.1	-72.5	3.8	7.44e-01	0	26	104	0	73	36559
2026-01-11 01:31:21.84	88.10	49.33	-53.1	-72.5	3.8	7.47e-01	0	26	104	0	73	36533
2026-01-11 01:31:24.85	90.30	49.61	-53.1	-72.4	3.8	7.48e-01	0	26	104	0	73	36427
2026-01-11 01:31:27.86	92.55	49.84	-53.1	-72.5	3.8	7.48e-01	0	26	104	0	73	36565
2026-01-11 01:31:30.86	94.82	50.03	-53.1	-72.5	3.8	7.47e-01	0	26	104	0	73	36564
2026-01-11 01:31:33.87	97.12	50.18	-53.1	-72.5	3.8	7.50e-01	0	26	104	0	73	36547
2026-01-11 01:31:36.86	99.43	50.27	-53.1	-72.5	3.8	7.48e-01	0	26	104	0	73	36620
2026-01-11 01:31:39.86	101.75	50.32	-53.1	-72.5	3.8	7.43e-01	0	26	104	0	73	36629
2026-01-11 01:31:42.87	104.09	50.32	-53.1	-72.5	3.8	7.49e-01	0	26	104	0	73	36562
2026-01-11 01:31:45.87	106.41	50.27	-53.1	-72.4	3.8	7.46e-01	0	26	104	0	73	36485
2026-01-11 01:31:48.88	108.73	50.17	-53.1	-72.5	3.8	7.46e-01	0	26	104	0	73	36594
2026-01-11 01:31:51.88	111.03	50.03	-53.1	-72.4	3.8	7.43e-01	0	26	104	0	73	36497
2026-01-11 01:31:54.90	113.31	49.83	-53.1	-72.5	3.8	7.44e-01	0	26	104	0	73	36682
2026-01-11 01:31:57.90	115.55	49.59	-53.1	-72.5	3.8	7.48e-01	0	26	104	0	73	36615
2026-01-11 01:32:00.89	117.74	49.32	-53.1	-72.5	3.8	7.49e-01	0	26	104	0	73	36563
2026-01-11 01:32:03.90	119.91	48.99	-53.1	-72.5	3.8	7.45e-01	0	26	104	0	73	36589
2026-01-11 01:32:06.90	122.02	48.63	-53.1	-72.5	3.8	7.44e-01	0	26	104	0	73	36636
2026-01-11 01:32:09.90	124.08	48.24	-53.1	-72.5	3.8	7.43e-01	0	26	104	0	73	36649
2026-01-11 01:32:12.89	126.08	47.81	-53.1	-72.5	3.8	7.48e-01	0	26	104	0	73	36559
2026-01-11 01:32:15.88	128.02	47.35	-53.1	-72.4	3.8	7.46e-01	0	26	104	0	73	36520
2026-01-11 01:32:18.88	129.91	46.86	-53.1	-72.5	3.8	7.43e-01	0	26	104	0	73	36668
2026-01-11 01:32:21.89	131.74	46.34	-53.1	-72.5	3.8	7.44e-01	0	26	104	0	73	36645
2026-01-11 01:32:24.90	133.52	45.80	-53.1	-72.5	3.8	7.45e-01	0	26	104	0	73	36650
2026-01-11 01:32:27.92	135.24	45.24	-53.1	-72.5	3.8	7.48e-01	0	26	104	0	73	36644
2026-01-11 01:32:30.92	136.89	44.67	-53.1	-72.4	3.8	7.47e-01	0	26	104	0	73	36491
2026-01-11 01:32:33.92	138.47	44.07	-53.1	-72.4	3.8	7.47e-01	0	26	104	0	73	36452
2026-01-11 01:32:36.92	140.00	43.47	-53.1	-72.5	3.8	7.44e-01	0	26	104	0	73	36599
2026-01-11 01:32:39.91	141.47	42.85	-53.1	-72.5	3.8	7.46e-01	0	26	104	0	73	36609
2026-01-11 01:32:42.91	142.89	42.23	-53.1	-72.5	3.8	7.45e-01	0	26	104	0	73	36612
2026-01-11 01:32:45.92	144.25	41.60	-53.1	-72.5	3.8	7.46e-01	0	26	104	0	73	36713
2026-01-11 01:32:48.92	145.56	40.96	-53.1	-72.5	3.8	7.46e-01	0	26	104	0	73	36626
2026-01-11 01:32:51.93	146.82	40.32	-53.1	-72.5	3.8	7.51e-01	0	26	104	0	73	36699
2026-01-11 01:32:54.94	148.04	39.67	-53.1	-72.5	3.8	7.43e-01	0	26	104	0	73	36631
2026-01-11 01:32:57.95	149.20	39.03	-53.1	-72.5	3.8	7.48e-01	0	26	104	0	73	36688
2026-01-11 01:33:00.95	150.32	38.38	-53.1	-72.5	3.8	7.49e-01	0	26	104	0	73	36563
2026-01-11 01:33:03.95	151.39	37.74	-53.1	-72.5	3.8	7.46e-01	0	26	104	0	73	36604
2026-01-11 01:33:06.95	152.42	37.10	-53.1	-72.5	3.8	7.46e-01	0	26	104	0	73	36621
2026-01-11 01:33:09.97	153.42	36.46	-53.1	-72.5	3.8	7.47e-01	0	26	104	0	73	36639
2026-01-11 01:33:12.97	154.37	35.83	-53.1	-72.5	3.8	7.46e-01	0	26	104	0	73	36586
2026-01-11 01:33:15.97	155.29	35.20	-53.1	-72.4	3.8	7.46e-01	0	26	104	0	73	36496
2026-01-11 01:33:18.97	156.17	34.58	-53.1	-72.5	3.8	7.45e-01	0	26	104	0	73	36763
2026-01-11 01:33:21.98	157.02	33.97	-53.1	-72.5	3.8	7.47e-01	0	26	104	0	73	36657
2026-01-11 01:33:24.99	157.84	33.36	-53.1	-72.5	3.8	7.46e-01	0	26	104	0	73	36603
2026-01-11 01:33:28.01	158.64	32.75	-53.1	-72.5	3.8	7.50e-01	0	26	104	0	73	36677
2026-01-11 01:33:31.00	159.39	32.16	-53.1	-72.5	3.8	7.49e-01	0	26	104	0	73	36534
2026-01-11 01:33:34.00	160.12	31.57	-53.1	-72.5	3.8	7.43e-01	0	26	104	0	73	36563
2026-01-11 01:33:37.01	160.83	30.99	-53.1	-72.5	3.8	7.46e-01	0	26	104	0	73	36625
2026-01-11 01:33:40.01	161.51	30.42	-53.1	-72.5	3.8	7.46e-01	0	26	104	0	73	36686
2026-01-11 01:33:43.02	162.17	29.85	-53.1	-72.5	3.8	7.45e-01	0	26	104	0	73	36588
2026-01-11 01:33:46.03	162.81	29.29	-53.2	-72.5	3.8	7.46e-01	0	26	104	0	74	34802
2026-01-11 01:33:49.03	163.42	28.75	-53.2	-72.5	3.8	7.46e-01	0	26	104	0	74	34628
2026-01-11 01:33:52.04	164.01	28.20	-53.1	-72.5	3.8	7.44e-01	0	26	104	0	74	34838
2026-01-11 01:33:55.05	164.58	27.67	-53.2	-72.5	3.8	7.48e-01	0	26	104	0	74	34566
2026-01-11 01:33:58.05	165.14	27.15	-53.2	-72.5	3.8	7.42e-01	0	26	104	0	74	34713
2026-01-11 01:34:01.05	165.67	26.63	-53.2	-72.5	3.8	7.46e-01	0	26	104	0	74	34781
2026-01-11 01:34:04.05	166.19	26.13	-53.2	-72.5	3.8	7.45e-01	0	26	104	0	74	34609
2026-01-11 01:34:07.05	166.69	25.63	-53.2	-72.5	3.8	7.48e-01	0	26	104	0	74	34585
2026-01-11 01:34:10.06	167.18	25.13	-53.1	-72.2	3.8	7.50e-01	0	27	104	0	74	33625
2026-01-11 01:34:13.05	167.65	24.65	-53.1	-72.2	3.8	7.50e-01	0	26	104	0	74	33551
2026-01-11 01:34:16.06	168.11	24.17	-53.1	-72.4	3.8	7.46e-01	0	26	104	0	74	34188
2026-01-11 01:34:19.07	168.55	23.70	-53.2	-72.5	3.8	7.48e-01	0	27	104	0	74	34773
2026-01-11 01:34:22.08	168.98	23.24	-53.2	-72.5	3.8	7.45e-01	0	27	104	0	74	34802
2026-01-11 01:34:25.09	169.40	22.79	-53.2	-72.5	3.8	7.47e-01	0	27	104	0	74	34729
2026-01-11 01:34:28.10	169.81	22.34	-53.2	-72.5	3.8	7.47e-01	0	26	104	0	74	34494
2026-01-11 01:34:31.10	170.20	21.90	-53.2	-72.5	3.8	7.46e-01	0	27	104	0	74	34760
2026-01-11 01:34:34.10	170.59	21.47	-53.2	-72.5	3.8	7.45e-01	0	26	104	0	74	34499
2026-01-11 01:34:37.10	170.96	21.04	-53.2	-72.5	3.8	7.49e-01	0	27	104	0	74	34677
2026-01-11 01:34:40.11	171.32	20.62	-53.1	-72.5	3.8	7.44e-01	0	26	104	0	74	34539
2026-01-11 01:34:43.11	171.67	20.21	-53.1	-72.5	3.8	7.50e-01	0	27	104	0	74	34581
2026-01-11 01:34:46.12	172.02	19.80	-53.2	-72.5	3.8	7.46e-01	0	26	104	0	74	34554
2026-01-11 01:34:49.13	172.35	19.40	-53.2	-72.5	3.8	7.46e-01	0	27	104	0	74	34672
2026-01-11 01:34:52.13	172.68	19.00	-53.2	-72.5	3.8	7.44e-01	0	27	104	0	74	34682
2026-01-11 01:34:55.14	173.00	18.61	-53.2	-72.5	3.8	7.47e-01	0	27	104	0	74	34754
2026-01-11 01:34:58.14	173.30	18.23	-53.2	-72.6	3.8	7.46e-01	0	27	104	0	74	34937
2026-01-11 01:35:01.14	173.61	17.86	-53.2	-72.5	3.8	7.46e-01	0	27	104	0	74	34755
2026-01-11 01:35:04.14	173.90	17.49	-53.2	-72.5	3.8	7.45e-01	0	26	104	0	74	34828
2026-01-11 01:35:07.06	174.18	17.13	-53.2	-72.6	3.8	7.47e-01	0	27	104	0	74	35039
2026-01-11 01:35:10.07	174.46	16.77	-53.2	-72.5	3.8	7.49e-01	0	27	104	0	74	34788
2026-01-11 01:35:13.07	174.73	16.41	-53.2	-72.5	3.8	7.48e-01	0	26	104	0	74	34831
2026-01-11 01:35:16.07	175.00	16.06	-53.2	-72.5	3.8	7.47e-01	0	27	104	0	74	34846
2026-01-11 01:35:19.06	175.26	15.72	-53.2	-72.6	3.8	7.47e-01	0	27	104	0	74	34903
2026-01-11 01:35:22.08	175.51	15.38	-53.2	-72.6	3.8	7.47e-01	0	27	104	0	74	34936
2026-01-11 01:35:25.07	175.76	15.04	-53.2	-72.6	3.8	7.47e-01	0	27	104	0	74	34899
2026-01-11 01:35:28.08	176.01	14.71	-53.2	-72.6	3.8	7.45e-01	0	27	104	0	74	35058
2026-01-11 01:35:31.09	176.24	14.38	-53.2	-72.6	3.8	7.48e-01	0	27	104	0	74	34991
2026-01-11 01:35:34.10	176.48	14.06	-53.2	-72.6	3.8	7.46e-01	0	27	104	0	74	34957
2026-01-11 01:35:37.10	176.70	13.74	-53.2	-72.6	3.8	7.46e-01	0	27	104	0	74	34881
2026-01-11 01:35:40.10	176.93	13.43	-53.2	-72.6	3.8	7.48e-01	0	27	104	0	74	34923
2026-01-11 01:35:43.11	177.15	13.12	-53.2	-72.6	3.8	7.48e-01	0	27	104	0	74	34945
2026-01-11 01:35:46.12	177.36	12.81	-53.2	-72.6	3.8	7.45e-01	0	27	104	0	74	34923
2026-01-11 01:35:49.11	177.57	12.51	-53.2	-72.6	3.8	7.43e-01	0	27	104	0	74	34996
2026-01-11 01:35:52.13	177.77	12.21	-53.2	-72.6	3.8	7.44e-01	0	27	104	0	74	34895
2026-01-11 01:35:55.13	177.97	11.92	-53.2	-72.6	3.8	7.48e-01	0	27	104	0	74	34962
2026-01-11 01:35:58.12	178.17	11.63	-53.2	-72.6	3.8	7.48e-01	0	27	104	0	74	35005
2026-01-11 01:36:01.13	178.36	11.34	-53.2	-72.6	3.8	7.43e-01	0	27	104	0	74	34949
2026-01-11 01:36:04.13	178.55	11.06	-53.2	-72.6	3.8	7.46e-01	0	27	104	0	74	34930
2026-01-11 01:36:07.12	178.74	10.78	-53.2	-72.6	3.8	7.44e-01	0	27	104	0	74	34905
2026-01-11 01:36:10.12	178.92	10.50	-53.2	-72.6	3.8	7.45e-01	0	27	104	0	74	34938
2026-01-11 01:36:13.12	179.10	10.23	-53.2	-72.6	3.8	7.46e-01	0	27	104	0	74	34906
2026-01-11 01:36:16.13	179.27	9.96	-53.2	-72.6	3.8	7.44e-01	0	27	104	0	74	34919
2026-01-11 01:36:19.12	179.44	9.69	-53.2	-72.6	3.8	7.43e-01	0	27	104	0	74	35055
2026-01-11 01:36:22.12	179.61	9.43	-53.2	-72.6	3.8	7.46e-01	0	27	104	0	74	35021
2026-01-11 01:36:25.14	179.78	9.16	-53.2	-72.6	3.8	7.48e-01	0	27	104	0	74	34886
2026-01-11 01:36:28.15	179.94	8.90	-53.2	-72.6	3.8	7.45e-01	0	27	104	0	74	34964
2026-01-11 01:36:31.15	180.10	8.65	-53.2	-72.6	3.8	7.42e-01	0	27	104	0	74	34954
2026-01-11 01:36:34.15	180.26	8.39	-53.2	-72.6	3.8	7.50e-01	0	27	104	0	74	34914
2026-01-11 01:36:37.16	180.41	8.14	-53.2	-72.6	3.8	7.47e-01	0	27	104	0	74	34913
2026-01-11 01:36:40.16	180.57	7.89	-53.2	-72.6	3.8	7.45e-01	0	27	104	0	74	34945
2026-01-11 01:36:43.17	180.72	7.65	-53.2	-72.6	3.8	7.50e-01	0	27	104	0	74	34897
2026-01-11 01:36:46.17	180.86	7.41	-53.2	-72.6	3.8	7.48e-01	0	27	104	0	74	34898
2026-01-11 01:36:49.18	181.01	7.16	-53.2	-72.6	3.8	7.46e-01	0	27	104	0	74	35074
2026-01-11 01:36:52.19	181.15	6.93	-53.2	-72.6	3.8	7.46e-01	0	27	104	0	74	34948
2026-01-11 01:36:55.19	181.29	6.69	-53.2	-72.6	3.8	7.48e-01	0	27	104	0	74	35050
2026-01-11 01:36:58.19	181.43	6.46	-53.2	-72.6	3.8	7.48e-01	0	27	104	0	74	34904
2026-01-11 01:37:01.21	181.56	6.22	-53.2	-72.6	3.8	7.43e-01	0	27	104	0	74	34908
2026-01-11 01:37:04.20	181.70	6.00	-53.2	-72.6	3.8	7.48e-01	0	27	104	0	74	35015
2026-01-11 01:37:07.19	181.83	5.77	-53.2	-72.6	3.8	7.47e-01	0	27	104	0	74	34948
2026-01-11 01:37:10.20	181.95	5.54	-53.2	-72.6	3.8	7.46e-01	0	27	104	0	74	35000
2026-01-11 01:37:13.20	182.08	5.32	-53.2	-72.6	3.8	7.46e-01	0	27	104	0	74	34992
2026-01-11 01:37:16.21	182.21	5.10	-53.2	-72.6	3.8	7.47e-01	0	27	104	0	74	35058
2026-01-11 01:37:19.21	182.33	4.88	-53.2	-72.6	3.8	7.44e-01	0	27	104	0	74	35099
2026-01-11 01:37:22.23	182.45	4.66	-53.2	-72.6	3.8	7.49e-01	0	27	104	0	74	34997
2026-01-11 01:37:25.22	182.57	4.45	-53.2	-72.6	3.8	7.47e-01	0	27	104	0	74	35008
2026-01-11 01:37:28.22	182.69	4.23	-53.2	-72.6	3.8	7.46e-01	0	27	104	0	74	35057
2026-01-11 01:37:31.23	182.81	4.02	-53.2	-72.6	3.8	7.44e-01	0	27	104	0	74	35065
2026-01-11 01:37:34.24	182.92	3.81	-53.2	-72.6	3.8	7.46e-01	0	27	104	0	74	35077
2026-01-11 01:37:37.24	183.03	3.60	-53.2	-72.6	3.8	7.47e-01	0	27	104	0	74	35008
2026-01-11 01:37:40.26	183.15	3.40	-53.2	-72.6	3.8	7.46e-01	0	27	104	0	74	35060
2026-01-11 01:37:43.26	183.26	3.19	-53.2	-72.6	3.8	7.44e-01	0	26	104	0	74	35103
2026-01-11 01:37:46.26	183.36	2.99	-53.2	-72.6	3.8	7.47e-01	0	27	104	0	74	35172
2026-01-11 01:37:49.27	183.47	2.79	-53.2	-72.6	3.8	7.48e-01	0	27	104	0	74	35190
2026-01-11 01:37:52.26	183.58	2.59	-53.2	-72.6	3.8	7.42e-01	0	27	104	0	74	35117
2026-01-11 01:37:55.26	183.68	2.39	-53.2	-72.6	3.8	7.44e-01	0	27	104	0	74	35217
2026-01-11 01:37:58.24	183.78	2.19	-53.2	-72.6	3.8	7.44e-01	0	27	104	0	74	35153
2026-01-11 01:38:01.25	183.88	2.00	-53.2	-72.6	3.8	7.48e-01	0	27	104	0	74	35198

#Closed at: 2026-01-11 01:38:02
#Recorded file [0 MB]: D:/lorett/data/31004_260111_042518.dat