passes_logs/2026/01/11/R3.2S_Murmansk/R3.2S_Murmansk__20260111_110543_AQUA_rec.log

#Pass ID: 20260111_110543_AQUA
#Satellite: AQUA
#Configuration: AQUA
#almurnet v.1.7.20251203
#Start time: 2026-01-11 11:05:45

#Version: 2.2.20231116
#Station: R3.2S_Murmansk
#Location: 33.079688 lon 68.888172 lat
#TLE: 1 27424U 02022A   26010.91777001  .00001106  00000+0  23130-3 0  9995
#TLE: 2 27424  98.4077 337.2768 0002031  83.1713 340.5382 14.61814337260293

#Time	Az	El	Level	Level2	SNR	BER	BlckErr	Temp	State	Recorded	gain1	gain2
2026-01-11 11:05:45.21	147.83	2.14	-56.6	-75.8	3.8	7.47e-01	0	21	0	0	82	32077
2026-01-11 11:05:49.23	147.81	2.41	-56.5	-75.8	3.8	7.47e-01	0	22	104	0	80	35766
2026-01-11 11:05:53.25	147.79	2.68	-56.5	-75.8	3.8	7.49e-01	0	22	104	0	80	35810
2026-01-11 11:05:57.28	147.78	2.96	-56.5	-75.7	3.8	7.46e-01	0	22	104	0	80	35614
2026-01-11 11:06:01.31	147.76	3.24	-56.5	-75.7	3.8	7.43e-01	0	22	104	0	80	35365
2026-01-11 11:06:05.34	147.74	3.52	-56.4	-73.4	4.0	7.40e-01	0	22	104	0	80	27234
2026-01-11 11:06:09.37	147.72	3.81	-56.3	-68.9	5.7	6.88e-01	34	22	0	524288	80	16222
2026-01-11 11:06:13.41	147.70	4.10	-55.8	-64.7	9.2	6.29e-01	0	22	0	7864320	80	9972
2026-01-11 11:06:17.44	147.68	4.39	-54.2	-58.8	13.6	6.08e-01	0	22	0	15204352	77	6043
2026-01-11 11:06:21.45	147.66	4.69	-51.5	-54.1	15.5	6.09e-01	0	22	0	22544384	72	4661
2026-01-11 11:06:25.48	147.64	4.99	-52.0	-54.9	14.9	6.06e-01	0	22	0	30408704	71	5460
2026-01-11 11:06:29.52	147.62	5.30	-51.0	-53.4	15.6	6.06e-01	0	22	0	37748736	70	4827
2026-01-11 11:06:33.56	147.59	5.60	-50.6	-52.8	15.8	6.07e-01	0	22	0	45613056	70	4505
2026-01-11 11:06:37.58	147.57	5.92	-50.4	-52.6	15.7	6.06e-01	0	23	0	52953088	69	4664
2026-01-11 11:06:41.61	147.54	6.23	-50.3	-52.4	15.8	6.08e-01	0	23	0	60293120	69	4558
2026-01-11 11:06:45.66	147.52	6.56	-50.0	-52.1	15.9	6.07e-01	0	23	0	68157440	69	4407
2026-01-11 11:06:49.68	147.49	6.88	-50.1	-52.1	15.9	6.07e-01	0	22	0	75497472	69	4405
2026-01-11 11:06:53.71	147.46	7.21	-49.9	-51.9	15.8	6.06e-01	0	23	0	83361792	68	4563
2026-01-11 11:06:57.73	147.43	7.55	-49.8	-51.7	15.8	6.09e-01	0	23	0	90701824	68	4493
2026-01-11 11:07:01.75	147.40	7.89	-49.8	-51.7	15.8	6.06e-01	0	23	0	98041856	68	4486
2026-01-11 11:07:05.78	147.37	8.23	-49.8	-51.7	15.8	6.06e-01	0	22	0	105906176	68	4474
2026-01-11 11:07:09.75	147.34	8.58	-49.7	-51.6	15.9	6.06e-01	0	23	0	113246208	68	4432
2026-01-11 11:07:13.80	147.30	8.93	-49.6	-51.5	16.0	6.06e-01	0	23	0	121110528	68	4346
2026-01-11 11:07:17.83	147.27	9.30	-49.4	-51.3	16.1	6.05e-01	0	23	0	128450560	68	4243
2026-01-11 11:07:21.87	147.23	9.67	-49.3	-51.1	15.9	6.06e-01	0	23	0	136314880	67	4431
2026-01-11 11:07:25.90	147.19	10.04	-49.3	-51.1	15.9	6.05e-01	0	23	0	143654912	67	4440
2026-01-11 11:07:29.94	147.15	10.42	-49.3	-51.1	15.9	6.05e-01	0	23	0	151519232	67	4406
2026-01-11 11:07:33.97	147.11	10.81	-49.2	-51.0	16.0	6.06e-01	0	23	0	158859264	67	4341
2026-01-11 11:07:38.00	147.07	11.20	-49.1	-50.8	16.0	6.07e-01	0	23	0	166723584	67	4287
2026-01-11 11:07:42.03	147.02	11.60	-48.9	-50.7	16.1	6.06e-01	0	23	0	174063616	67	4201
2026-01-11 11:07:46.07	146.98	12.01	-48.9	-50.6	16.1	6.05e-01	0	23	0	181403648	67	4189
2026-01-11 11:07:50.10	146.93	12.43	-48.9	-50.7	15.9	6.05e-01	0	23	0	189267968	66	4442
2026-01-11 11:07:54.13	146.88	12.85	-48.9	-50.6	15.9	6.04e-01	0	23	0	196608000	66	4404
2026-01-11 11:07:58.17	146.83	13.29	-48.7	-50.4	15.9	6.05e-01	0	23	0	204472320	66	4328
2026-01-11 11:08:02.21	146.77	13.73	-48.7	-50.3	16.0	6.07e-01	0	23	0	211812352	66	4274
2026-01-11 11:08:06.24	146.72	14.18	-48.5	-50.2	16.0	6.06e-01	0	23	0	219152384	66	4214
2026-01-11 11:08:10.27	146.66	14.64	-48.4	-50.1	16.1	6.08e-01	0	23	0	227016704	66	4159
2026-01-11 11:08:14.32	146.60	15.11	-48.5	-50.1	16.1	6.04e-01	0	23	0	234356736	66	4188
2026-01-11 11:08:18.35	146.53	15.59	-48.5	-50.2	16.1	6.07e-01	0	23	0	242221056	66	4202
2026-01-11 11:08:22.38	146.47	16.08	-48.6	-50.3	16.0	6.06e-01	0	23	0	249561088	66	4255
2026-01-11 11:08:26.40	146.40	16.58	-48.6	-50.3	16.0	6.06e-01	0	23	0	257425408	66	4266
2026-01-11 11:08:30.44	146.32	17.10	-48.6	-50.3	16.0	6.05e-01	0	23	0	264765440	66	4262
2026-01-11 11:08:34.46	146.25	17.62	-48.6	-50.3	16.0	6.05e-01	0	23	0	272105472	66	4251
2026-01-11 11:08:38.50	146.17	18.16	-48.6	-50.2	16.0	6.06e-01	0	23	0	279969792	66	4231
2026-01-11 11:08:42.52	146.09	18.71	-48.7	-50.4	15.9	6.06e-01	0	23	0	287309824	66	4313
2026-01-11 11:08:46.55	146.00	19.27	-49.0	-50.6	15.9	6.07e-01	0	23	0	295174144	66	4434
2026-01-11 11:08:50.57	145.91	19.85	-48.9	-50.6	15.9	6.08e-01	0	23	0	302514176	66	4412
2026-01-11 11:08:54.61	145.82	20.45	-48.7	-50.4	15.9	6.05e-01	0	23	0	309854208	66	4319
2026-01-11 11:08:58.64	145.72	21.06	-48.7	-50.4	16.0	6.07e-01	0	23	0	317718528	66	4310
2026-01-11 11:09:02.68	145.61	21.69	-49.0	-50.7	15.8	6.05e-01	0	23	0	325058560	66	4443
2026-01-11 11:09:06.71	145.50	22.33	-49.0	-50.6	15.8	6.04e-01	0	23	0	332922880	66	4432
2026-01-11 11:09:10.74	145.39	22.99	-48.8	-50.5	15.9	6.06e-01	0	23	0	340262912	66	4344
2026-01-11 11:09:14.77	145.27	23.67	-49.0	-50.6	15.8	6.06e-01	0	23	0	348127232	66	4439
2026-01-11 11:09:18.80	145.14	24.37	-48.9	-50.5	15.9	6.07e-01	0	23	0	355467264	66	4375
2026-01-11 11:09:22.83	145.01	25.09	-48.8	-50.4	15.9	6.08e-01	0	23	0	362807296	66	4328
2026-01-11 11:09:26.87	144.87	25.84	-48.8	-50.4	15.9	6.06e-01	0	23	0	370671616	66	4309
2026-01-11 11:09:30.89	144.72	26.60	-48.9	-50.6	15.9	6.06e-01	0	23	0	378011648	66	4415
2026-01-11 11:09:34.90	144.56	27.38	-48.8	-50.4	15.9	6.08e-01	0	23	0	385875968	66	4304
2026-01-11 11:09:38.82	144.40	28.18	-50.5	-62.0	3.8	7.47e-01	0	23	104	385875968	68	14672
2026-01-11 11:09:42.70	144.23	28.98	-49.6	-61.0	3.8	7.48e-01	0	23	104	385875968	68	12978
2026-01-11 11:09:46.59	144.05	29.82	-51.0	-62.4	3.9	7.43e-01	0	23	104	385875968	69	14501
2026-01-11 11:09:50.45	143.86	30.67	-49.0	-60.1	4.1	7.33e-01	0	23	104	385875968	67	12391
2026-01-11 11:09:54.31	143.66	31.56	-48.7	-59.8	3.6	7.55e-01	0	23	104	385875968	66	12714
2026-01-11 11:09:58.18	143.45	32.47	-50.9	-62.5	3.9	7.47e-01	0	23	104	385875968	71	13029
2026-01-11 11:10:02.05	143.22	33.41	-50.2	-61.6	3.8	7.46e-01	0	23	104	385875968	68	13964
2026-01-11 11:10:05.92	142.98	34.39	-52.7	-64.7	3.8	7.46e-01	0	23	104	385875968	73	14914
2026-01-11 11:10:09.78	142.72	35.40	-50.5	-62.0	3.8	7.44e-01	0	24	104	385875968	68	14631
2026-01-11 11:10:13.66	142.44	36.44	-52.3	-64.2	3.8	7.42e-01	0	24	104	385875968	72	14981
2026-01-11 11:10:17.52	142.14	37.52	-51.2	-62.8	3.8	7.46e-01	0	24	104	385875968	70	14233
2026-01-11 11:10:21.40	141.82	38.63	-50.8	-62.4	3.8	7.45e-01	0	24	104	385875968	70	13604
2026-01-11 11:10:25.27	141.48	39.79	-51.3	-62.9	3.8	7.49e-01	0	24	104	385875968	71	13604
2026-01-11 11:10:29.15	141.11	40.99	-52.4	-64.4	3.9	7.43e-01	0	23	104	385875968	74	13577
2026-01-11 11:10:33.02	140.71	42.22	-50.4	-61.8	3.8	7.43e-01	0	24	104	385875968	69	13538
2026-01-11 11:10:36.89	140.27	43.50	-54.8	-67.6	3.8	7.43e-01	0	24	104	385875968	77	16674
2026-01-11 11:10:40.74	139.80	44.82	-49.8	-61.1	3.8	7.45e-01	0	24	104	385875968	68	13215
2026-01-11 11:10:44.61	139.28	46.19	-54.4	-66.9	3.8	7.47e-01	0	24	104	385875968	77	15268
2026-01-11 11:10:48.47	138.71	47.60	-49.3	-60.5	3.8	7.45e-01	0	24	104	385875968	67	13038
2026-01-11 11:10:52.34	138.09	49.06	-54.3	-66.5	3.8	7.45e-01	0	24	104	385875968	77	14644
2026-01-11 11:10:56.22	137.40	50.57	-49.3	-60.6	3.9	7.47e-01	0	24	104	385875968	67	13114
2026-01-11 11:11:00.10	136.63	52.14	-54.7	-67.4	3.9	7.45e-01	0	24	104	385875968	78	15287
2026-01-11 11:11:03.98	135.77	53.75	-48.6	-59.8	3.8	7.46e-01	0	24	104	385875968	66	12713
2026-01-11 11:11:07.85	134.81	55.40	-55.8	-69.4	3.8	7.50e-01	0	24	104	385875968	79	18162
2026-01-11 11:11:11.72	133.72	57.10	-49.4	-60.7	3.8	7.45e-01	0	24	104	385875968	68	12603
2026-01-11 11:11:15.59	132.49	58.84	-55.8	-69.3	3.8	7.51e-01	0	24	104	385875968	79	17983
2026-01-11 11:11:19.45	131.08	60.61	-50.2	-61.7	3.8	7.48e-01	0	24	104	385875968	69	13300
2026-01-11 11:11:23.34	129.45	62.43	-52.2	-63.7	3.8	7.46e-01	0	24	104	385875968	71	15018
2026-01-11 11:11:27.20	127.55	64.27	-51.6	-63.1	3.8	7.46e-01	0	24	104	385875968	72	13191
2026-01-11 11:11:31.07	125.32	66.12	-52.7	-64.6	3.8	7.46e-01	0	24	104	385875968	74	13964
2026-01-11 11:11:34.94	122.66	67.99	-53.0	-64.9	3.9	7.46e-01	0	24	104	385875968	75	13578
2026-01-11 11:11:38.81	119.46	69.84	-52.6	-64.2	3.8	7.45e-01	0	24	104	385875968	74	13301
2026-01-11 11:11:42.69	115.56	71.65	-52.5	-64.1	3.8	7.44e-01	0	24	104	385875968	74	13240
2026-01-11 11:11:46.56	110.77	73.40	-53.1	-65.3	3.9	7.46e-01	0	24	104	385875968	75	14373
2026-01-11 11:11:50.43	104.83	75.03	-53.6	-65.8	3.9	7.47e-01	0	24	104	385875968	76	14324
2026-01-11 11:11:54.30	97.46	76.49	-53.8	-65.5	3.9	7.44e-01	0	24	104	385875968	76	13796
2026-01-11 11:11:58.17	88.43	77.69	-55.5	-68.8	3.9	7.44e-01	0	24	104	385875968	80	16125
2026-01-11 11:12:02.04	77.72	78.54	-55.9	-69.2	3.9	7.47e-01	0	24	104	385875968	81	15856
2026-01-11 11:12:05.91	65.73	78.95	-56.3	-70.1	3.8	7.44e-01	0	24	104	385875968	80	18678
2026-01-11 11:12:09.78	53.39	78.86	-56.9	-71.4	3.8	7.45e-01	0	24	104	385875968	81	20368
2026-01-11 11:12:13.66	41.75	78.28	-55.7	-69.1	3.8	7.47e-01	0	24	104	385875968	79	17600
2026-01-11 11:12:17.52	31.65	77.30	-57.3	-72.2	3.8	7.49e-01	0	24	104	385875968	82	21043
2026-01-11 11:12:21.39	23.24	75.99	-52.9	-64.7	3.8	7.46e-01	0	24	104	385875968	74	14125
2026-01-11 11:12:25.26	16.43	74.47	-54.5	-66.8	3.9	7.45e-01	0	24	104	385875968	76	16011
2026-01-11 11:12:29.12	10.95	72.79	-54.8	-66.7	3.9	7.45e-01	0	24	104	385875968	78	14121
2026-01-11 11:12:33.00	6.49	71.02	-53.8	-66.0	3.9	7.47e-01	0	24	104	385875968	76	14557
2026-01-11 11:12:36.87	2.87	69.19	-57.9	-73.2	3.8	7.48e-01	0	24	104	385875968	85	20020
2026-01-11 11:12:40.74	359.88	67.34	-54.7	-67.4	3.9	7.46e-01	0	24	104	385875968	78	15360
2026-01-11 11:12:44.61	357.39	65.48	-57.7	-72.4	3.8	7.44e-01	0	24	104	385875968	84	19275
2026-01-11 11:12:48.48	355.28	63.63	-52.3	-63.6	3.8	7.42e-01	0	24	104	385875968	73	13133
2026-01-11 11:12:52.35	353.49	61.80	-56.8	-70.5	3.9	7.47e-01	0	24	104	385875968	82	17420
2026-01-11 11:12:56.22	351.94	60.00	-51.5	-63.3	3.8	7.45e-01	0	24	104	385875968	72	13482
2026-01-11 11:13:00.08	350.60	58.25	-57.6	-72.8	3.9	7.48e-01	0	24	104	385875968	84	20265
2026-01-11 11:13:03.95	349.42	56.53	-49.8	-60.7	3.8	7.48e-01	0	24	104	385875968	68	12646
2026-01-11 11:13:07.82	348.39	54.85	-58.0	-74.2	3.8	7.46e-01	0	24	104	385875968	83	25171
2026-01-11 11:13:11.70	347.46	53.21	-50.0	-61.5	3.8	7.47e-01	0	24	104	385875968	68	13859
2026-01-11 11:13:15.56	346.64	51.63	-57.1	-71.6	3.8	7.45e-01	0	24	104	385875968	81	20814
2026-01-11 11:13:19.44	345.90	50.09	-50.1	-61.6	3.9	7.44e-01	0	24	104	385875968	69	13215
2026-01-11 11:13:23.32	345.24	48.60	-54.8	-67.3	3.8	7.45e-01	0	24	104	385875968	77	15974
2026-01-11 11:13:27.20	344.63	47.15	-50.0	-61.4	3.9	7.43e-01	0	24	104	385875968	69	12839
2026-01-11 11:13:31.06	344.08	45.76	-50.7	-62.2	3.8	7.45e-01	0	24	104	385875968	69	14176
2026-01-11 11:13:34.92	343.58	44.41	-50.0	-61.3	3.9	7.48e-01	0	24	104	385875968	69	12682
2026-01-11 11:13:38.79	343.12	43.11	-50.7	-62.4	3.9	7.44e-01	0	24	104	385875968	70	13624
2026-01-11 11:13:42.67	342.70	41.85	-51.1	-62.5	3.9	7.47e-01	0	24	104	385875968	71	13072
2026-01-11 11:13:46.54	342.31	40.63	-51.8	-63.2	3.9	7.46e-01	0	24	104	385875968	72	13407
2026-01-11 11:13:50.41	341.95	39.45	-52.0	-63.7	3.9	7.44e-01	0	24	104	385875968	73	13390
2026-01-11 11:13:54.29	341.62	38.31	-51.8	-63.4	3.8	7.47e-01	0	24	104	385875968	71	14451
2026-01-11 11:13:58.14	341.31	37.22	-52.6	-64.5	3.8	7.47e-01	0	24	104	385875968	74	13784
2026-01-11 11:14:02.02	341.02	36.15	-51.2	-63.0	3.9	7.43e-01	0	24	104	385875968	70	14643
2026-01-11 11:14:05.89	340.75	35.12	-52.1	-63.7	3.8	7.47e-01	0	24	104	385875968	71	14997
2026-01-11 11:14:09.77	340.50	34.13	-49.9	-61.1	3.9	7.46e-01	0	24	104	385875968	68	13132
2026-01-11 11:14:13.64	340.26	33.16	-50.6	-62.3	3.8	7.47e-01	0	24	104	385875968	69	14241
2026-01-11 11:14:17.51	340.04	32.23	-50.6	-62.1	3.8	7.48e-01	0	24	104	385875968	68	14789
2026-01-11 11:14:21.37	339.83	31.33	-49.3	-60.5	3.8	7.46e-01	0	24	104	385875968	68	12360
2026-01-11 11:14:25.24	339.63	30.46	-48.9	-59.8	3.8	7.49e-01	0	24	104	385875968	66	12798
2026-01-11 11:14:29.11	339.45	29.62	-54.1	-66.4	3.9	7.46e-01	0	24	104	385875968	77	14460
2026-01-11 11:14:32.98	339.28	28.80	-49.1	-60.4	3.8	7.47e-01	0	24	104	385875968	67	12942
2026-01-11 11:14:36.86	339.11	28.00	-57.0	-72.0	3.8	7.45e-01	0	24	104	385875968	81	21943
2026-01-11 11:14:40.73	338.95	27.23	-49.3	-60.6	3.8	7.46e-01	0	24	104	385875968	67	13250
2026-01-11 11:14:44.61	338.81	26.48	-56.8	-71.3	3.8	7.44e-01	0	24	104	385875968	81	20271
2026-01-11 11:14:48.48	338.67	25.75	-49.6	-60.8	3.8	7.45e-01	0	24	104	385875968	68	12705
2026-01-11 11:14:52.35	338.53	25.04	-56.1	-69.8	3.8	7.44e-01	0	24	104	385875968	81	17012
2026-01-11 11:14:56.22	338.41	24.36	-50.0	-61.3	3.8	7.46e-01	0	24	104	385875968	69	12717
2026-01-11 11:15:00.09	338.29	23.69	-57.2	-72.9	3.9	7.41e-01	0	24	104	385875968	83	21614
2026-01-11 11:15:03.97	338.17	23.04	-50.0	-61.5	3.8	7.46e-01	0	24	104	385875968	69	13019
2026-01-11 11:15:07.84	338.07	22.40	-57.8	-75.6	3.8	7.46e-01	0	24	104	385875968	83	29437
2026-01-11 11:15:11.70	337.96	21.79	-50.3	-61.8	3.8	7.47e-01	0	24	104	385875968	69	13563
2026-01-11 11:15:15.58	337.86	21.19	-57.1	-72.5	3.8	7.47e-01	0	24	104	385875968	81	23077
2026-01-11 11:15:19.44	337.77	20.60	-50.0	-61.3	3.8	7.45e-01	0	24	104	385875968	69	12675
2026-01-11 11:15:23.31	337.68	20.03	-55.1	-67.9	3.8	7.47e-01	0	24	104	385875968	77	17177
2026-01-11 11:15:27.18	337.59	19.48	-50.1	-61.3	3.8	7.47e-01	0	24	104	385875968	69	12744
2026-01-11 11:15:31.06	337.51	18.93	-52.4	-64.3	3.8	7.47e-01	0	24	104	385875968	72	15107
2026-01-11 11:15:34.93	337.43	18.40	-50.1	-61.6	3.9	7.46e-01	0	24	104	385875968	69	13190
2026-01-11 11:15:38.80	337.36	17.88	-51.8	-63.8	3.9	7.46e-01	0	24	104	385875968	71	15107
2026-01-11 11:15:42.68	337.29	17.37	-50.1	-61.9	3.8	7.44e-01	0	24	104	385875968	69	13614
2026-01-11 11:15:46.54	337.22	16.88	-51.0	-62.9	3.9	7.48e-01	0	24	104	385875968	69	15237
2026-01-11 11:15:50.44	337.15	16.39	-50.1	-61.9	3.8	7.42e-01	0	24	104	385875968	69	13607
2026-01-11 11:15:54.35	337.09	15.91	-50.1	-61.8	3.8	7.45e-01	0	24	104	385875968	67	15198
2026-01-11 11:15:58.29	337.03	15.44	-50.0	-61.6	3.8	7.43e-01	0	24	104	385875968	69	13120
2026-01-11 11:16:02.21	336.97	14.98	-52.2	-63.9	3.9	7.47e-01	0	24	104	385875968	71	15351
2026-01-11 11:16:06.14	336.91	14.53	-50.6	-62.0	3.8	7.43e-01	0	24	104	385875968	70	13060
2026-01-11 11:16:10.08	336.86	14.08	-49.1	-50.8	15.9	6.05e-01	0	24	0	389021696	67	4288
2026-01-11 11:16:14.00	336.81	13.65	-48.7	-50.3	16.0	6.05e-01	0	24	0	396361728	66	4274
2026-01-11 11:16:17.93	336.76	13.22	-48.8	-50.5	15.9	6.03e-01	0	24	0	403701760	66	4360
2026-01-11 11:16:21.85	336.71	12.81	-48.8	-50.5	15.9	6.03e-01	0	24	0	411041792	66	4341
2026-01-11 11:16:25.76	336.66	12.40	-48.8	-50.5	15.9	6.02e-01	0	24	0	418381824	66	4365
2026-01-11 11:16:29.63	336.62	12.00	-48.9	-50.6	15.9	6.02e-01	0	24	0	425721856	66	4407
2026-01-11 11:16:33.51	336.58	11.61	-48.9	-50.6	15.9	6.04e-01	0	23	0	433061888	66	4429
2026-01-11 11:16:37.37	336.54	11.23	-49.2	-50.9	15.8	6.04e-01	0	24	0	440401920	66	4575
2026-01-11 11:16:41.24	336.50	10.85	-49.0	-50.7	15.8	6.04e-01	0	24	0	447741952	66	4478
2026-01-11 11:16:45.11	336.46	10.48	-49.0	-50.7	15.9	6.04e-01	0	23	0	455081984	66	4470
2026-01-11 11:16:48.99	336.42	10.12	-49.0	-50.8	15.8	6.04e-01	0	24	0	461897728	66	4507
2026-01-11 11:16:52.85	336.39	9.76	-49.1	-50.8	15.8	6.03e-01	0	23	0	469237760	66	4522
2026-01-11 11:16:56.72	336.36	9.41	-49.2	-51.0	15.7	6.01e-01	0	24	0	476577792	66	4604
2026-01-11 11:17:00.59	336.33	9.06	-49.2	-51.0	15.8	6.03e-01	0	24	0	483917824	66	4604
2026-01-11 11:17:04.46	336.29	8.72	-49.2	-51.0	15.7	6.04e-01	0	24	0	491257856	66	4636
2026-01-11 11:17:08.33	336.27	8.39	-49.5	-51.3	15.6	6.03e-01	0	24	0	498597888	66	4800
2026-01-11 11:17:12.21	336.24	8.05	-49.5	-51.4	15.8	6.03e-01	0	24	0	505937920	67	4573
2026-01-11 11:17:16.07	336.21	7.73	-49.6	-51.5	15.7	6.05e-01	0	23	0	512753664	67	4628
2026-01-11 11:17:19.96	336.18	7.40	-49.8	-51.7	15.6	6.02e-01	0	24	0	520093696	67	4738
2026-01-11 11:17:23.83	336.16	7.09	-49.7	-51.7	15.6	6.03e-01	0	24	0	527433728	67	4736
2026-01-11 11:17:27.70	336.13	6.77	-50.2	-52.2	15.6	6.02e-01	0	23	0	534773760	68	4748
2026-01-11 11:17:31.56	336.11	6.46	-50.1	-52.2	15.6	6.01e-01	0	24	0	542113792	68	4708
2026-01-11 11:17:35.43	336.09	6.16	-50.4	-52.6	15.5	6.03e-01	0	23	0	548929536	68	4932
2026-01-11 11:17:39.29	336.07	5.86	-50.4	-52.5	15.5	6.02e-01	0	24	0	556269568	68	4899
2026-01-11 11:17:43.16	336.05	5.56	-50.2	-52.3	15.6	6.06e-01	0	24	0	563609600	68	4763
2026-01-11 11:17:47.03	336.03	5.27	-50.2	-52.4	15.5	6.04e-01	0	24	0	570949632	68	4827
2026-01-11 11:17:50.90	336.01	4.98	-56.9	-70.0	6.2	6.87e-01	91	24	0	578289664	81	17355
2026-01-11 11:17:54.77	335.99	4.69	-58.5	-77.8	3.8	7.47e-01	0	24	104	578289664	84	36035
2026-01-11 11:17:58.64	335.97	4.41	-59.0	-78.3	3.8	7.48e-01	0	24	104	578289664	85	35925
2026-01-11 11:18:02.52	335.96	4.13	-59.2	-78.6	3.8	7.45e-01	0	23	104	578289664	86	34958
2026-01-11 11:18:06.38	335.94	3.85	-59.3	-78.7	3.8	7.44e-01	0	23	104	578289664	86	35330
2026-01-11 11:18:10.26	335.92	3.58	-59.4	-78.7	3.8	7.47e-01	0	23	104	578289664	86	35530
2026-01-11 11:18:14.14	335.91	3.30	-59.3	-78.7	3.8	7.47e-01	0	24	104	578289664	86	35286
2026-01-11 11:18:18.01	335.90	3.04	-59.2	-78.6	3.8	7.47e-01	0	24	104	578289664	86	35089
2026-01-11 11:18:21.88	335.88	2.77	-59.2	-78.6	3.8	7.46e-01	0	24	104	578289664	86	34978
2026-01-11 11:18:25.75	335.87	2.51	-59.2	-78.5	3.8	7.47e-01	0	24	104	578289664	86	34844
2026-01-11 11:18:29.62	335.86	2.25	-59.2	-78.5	3.8	7.45e-01	0	24	104	578289664	86	34716
2026-01-11 11:18:33.49	335.85	1.99	-59.1	-78.5	3.8	7.50e-01	0	24	104	578289664	86	34651

#Closed at: 2026-01-11 11:18:35
#Recorded file [578 MB]: D:/lorett/data/31004_260111_140545.dat