passes_logs/2026/01/11/R3.2S_Murmansk/R3.2S_Murmansk__20260111_104420_2024-110A_rec.log

#Pass ID: 20260111_104420_2024-110A
#Satellite: 2024-110A
#Configuration: 01B_900M
#almurnet v.1.7.20251203
#Start time: 2026-01-11 10:44:20

#Version: 2.2.20231116
#Station: R3.2S_Murmansk
#Location: 33.079688 lon 68.888172 lat
#TLE: 1 60012U 24110A   26010.96754270  .00007426  00000+0  45014-3 0  9991
#TLE: 2 60012  97.5746 104.0141 0010540  79.5319 280.7098 15.10812818 88155

#Time	Az	El	Level	Level2	SNR	BER	BlckErr	Temp	State	Recorded	gain1	gain2
2026-01-11 10:44:20.99	21.38	2.03	-56.5	-59.5	6.2	0.00e+00	0	24	0	0	80	19703
2026-01-11 10:44:24.01	21.38	2.24	-56.7	-59.9	6.2	0.00e+00	0	24	104	0	80	20449
2026-01-11 10:44:27.03	21.37	2.46	-56.7	-59.9	6.2	0.00e+00	0	24	104	0	80	20555
2026-01-11 10:44:30.06	21.37	2.67	-56.7	-59.8	6.2	0.00e+00	0	24	104	0	80	20346
2026-01-11 10:44:33.08	21.36	2.89	-56.6	-59.8	6.2	0.00e+00	0	24	104	0	80	20212
2026-01-11 10:44:36.11	21.36	3.11	-56.7	-59.8	6.2	0.00e+00	0	24	104	0	80	20352
2026-01-11 10:44:39.14	21.35	3.33	-56.7	-59.9	6.2	0.00e+00	0	24	104	0	80	20516
2026-01-11 10:44:42.16	21.34	3.55	-56.7	-59.9	6.2	0.00e+00	0	24	104	0	80	20521
2026-01-11 10:44:45.19	21.34	3.78	-56.7	-59.9	6.2	0.00e+00	0	24	104	0	80	20537
2026-01-11 10:44:48.21	21.33	4.00	-56.7	-59.8	6.2	0.00e+00	0	24	104	0	80	20382
2026-01-11 10:44:51.25	21.32	4.24	-56.7	-59.9	6.2	0.00e+00	0	24	104	0	80	20405
2026-01-11 10:44:54.27	21.31	4.47	-56.7	-59.9	6.2	0.00e+00	0	25	104	0	80	20480
2026-01-11 10:44:57.29	21.30	4.70	-56.7	-59.9	6.2	0.00e+00	0	25	104	0	80	20529
2026-01-11 10:45:00.32	21.29	4.94	-56.7	-59.9	6.2	0.00e+00	0	25	104	0	80	20547
2026-01-11 10:45:03.34	21.28	5.18	-56.9	-60.1	6.2	0.00e+00	0	25	104	0	80	20965
2026-01-11 10:45:06.35	21.27	5.43	-56.8	-60.0	6.2	0.00e+00	0	25	104	0	80	20809
2026-01-11 10:45:09.32	21.26	5.67	-56.8	-60.0	6.2	0.00e+00	0	25	104	0	80	20750
2026-01-11 10:45:12.23	21.25	5.91	-57.0	-60.1	6.2	0.00e+00	0	25	104	0	80	21082
2026-01-11 10:45:15.14	21.24	6.15	-56.9	-60.1	6.2	0.00e+00	0	25	104	0	80	20991
2026-01-11 10:45:18.03	21.23	6.40	-56.9	-60.1	6.2	0.00e+00	0	25	104	0	80	21104
2026-01-11 10:45:20.95	21.22	6.65	-56.9	-60.1	6.2	0.00e+00	0	25	104	0	80	20959
2026-01-11 10:45:23.85	21.20	6.90	-57.1	-60.3	6.2	0.00e+00	0	25	104	0	80	21449
2026-01-11 10:45:26.75	21.19	7.16	-57.0	-60.2	6.2	0.00e+00	0	25	104	0	80	21324
2026-01-11 10:45:29.66	21.18	7.42	-57.0	-60.2	6.2	0.00e+00	0	25	104	0	80	21288
2026-01-11 10:45:32.56	21.16	7.68	-57.1	-60.3	6.2	0.00e+00	0	25	104	0	80	21493
2026-01-11 10:45:35.46	21.15	7.94	-57.1	-60.3	6.2	0.00e+00	0	25	104	0	80	21585
2026-01-11 10:45:38.36	21.13	8.21	-57.1	-60.3	6.2	0.00e+00	0	25	104	0	80	21512
2026-01-11 10:45:41.26	21.12	8.48	-57.1	-60.2	6.2	0.00e+00	0	25	104	0	80	21351
2026-01-11 10:45:44.16	21.10	8.76	-57.2	-60.4	6.2	0.00e+00	0	26	104	0	80	21831
2026-01-11 10:45:47.06	21.08	9.04	-57.2	-60.4	6.2	0.00e+00	0	26	104	0	80	21636
2026-01-11 10:45:49.97	21.06	9.33	-57.2	-60.4	6.2	0.00e+00	0	26	104	0	80	21680
2026-01-11 10:45:52.87	21.04	9.62	-57.2	-60.4	6.2	0.00e+00	0	26	104	0	80	21666
2026-01-11 10:45:55.78	21.02	9.91	-57.3	-60.5	6.2	0.00e+00	0	26	104	0	80	22056
2026-01-11 10:45:58.68	21.00	10.21	-57.3	-60.5	6.2	0.00e+00	0	26	104	0	80	21861
2026-01-11 10:46:01.58	20.98	10.51	-57.3	-60.5	6.2	0.00e+00	0	26	104	0	80	21864
2026-01-11 10:46:04.49	20.96	10.82	-57.3	-60.5	6.1	0.00e+00	0	26	104	0	80	22071
2026-01-11 10:46:07.39	20.94	11.14	-57.4	-60.6	6.2	0.00e+00	0	26	104	0	80	22121
2026-01-11 10:46:10.29	20.91	11.45	-57.3	-60.4	6.2	0.00e+00	0	26	104	0	80	21691
2026-01-11 10:46:13.19	20.89	11.78	-57.3	-60.4	6.2	0.00e+00	0	26	104	0	80	21737
2026-01-11 10:46:16.10	20.86	12.11	-57.4	-60.7	6.2	0.00e+00	0	26	104	0	80	22386
2026-01-11 10:46:19.00	20.83	12.44	-57.4	-60.6	6.2	0.00e+00	0	26	104	0	80	22165
2026-01-11 10:46:21.90	20.80	12.78	-57.4	-60.6	6.2	0.00e+00	0	26	104	0	80	22164
2026-01-11 10:46:24.81	20.77	13.13	-57.3	-60.5	6.2	0.00e+00	0	26	104	0	80	21869
2026-01-11 10:46:27.72	20.74	13.49	-57.5	-60.7	6.2	0.00e+00	0	26	104	0	80	22398
2026-01-11 10:46:30.61	20.71	13.85	-56.5	-59.0	6.2	0.00e+00	0	26	104	0	78	20776
2026-01-11 10:46:33.50	20.68	14.21	-54.5	-55.9	7.0	0.00e+00	0	26	104	0	76	16323
2026-01-11 10:46:36.41	20.64	14.59	-55.6	-57.5	6.5	0.00e+00	0	26	104	0	76	19613
2026-01-11 10:46:39.31	20.61	14.97	-56.6	-59.1	6.2	0.00e+00	0	26	104	0	79	19808
2026-01-11 10:46:42.21	20.57	15.36	-39.5	-39.7	13.4	2.09e-05	0	26	0	159383552	46	14182
2026-01-11 10:46:45.12	20.53	15.76	-39.3	-39.5	13.3	2.09e-05	0	26	0	486539264	45	14745
2026-01-11 10:46:48.01	20.49	16.16	-39.1	-39.4	13.4	1.14e-05	0	26	0	813694976	45	14495
2026-01-11 10:46:50.91	20.45	16.58	-39.1	-39.4	13.4	5.70e-06	0	26	0	1140850688	45	14492
2026-01-11 10:46:53.81	20.41	17.00	-38.8	-39.0	13.4	1.33e-05	0	26	0	1468006400	44	14748
2026-01-11 10:46:56.71	20.36	17.44	-38.7	-39.0	13.5	1.33e-05	0	27	0	1795162112	44	14640
2026-01-11 10:46:59.61	20.31	17.88	-38.5	-38.7	13.6	3.80e-06	0	27	0	2122317824	44	14214
2026-01-11 10:47:02.50	20.26	18.33	-38.3	-38.6	13.5	7.60e-06	0	27	0	2449473536	43	14837
2026-01-11 10:47:05.41	20.21	18.80	-38.1	-38.4	13.6	7.60e-06	0	27	0	2776629248	43	14445
2026-01-11 10:47:08.32	20.16	19.27	-37.9	-38.1	13.7	1.90e-06	0	26	0	3103784960	43	14057
2026-01-11 10:47:11.22	20.10	19.76	-37.9	-38.1	13.6	5.70e-06	0	27	0	3422552064	42	14827
2026-01-11 10:47:14.12	20.04	20.26	-37.6	-37.9	13.7	3.80e-06	0	27	0	3749707776	42	14447
2026-01-11 10:47:17.02	19.98	20.77	-37.4	-37.7	13.8	1.90e-06	0	27	0	4076863488	42	14120
2026-01-11 10:47:19.92	19.91	21.29	-37.3	-37.5	13.7	1.90e-06	0	27	0	4404019200	41	14710
2026-01-11 10:47:22.82	19.85	21.83	-37.0	-37.2	13.9	0.00e+00	0	27	0	4731174912	41	14211
2026-01-11 10:47:25.73	19.78	22.38	-36.8	-37.0	13.8	1.90e-06	0	27	0	5058330624	40	14726
2026-01-11 10:47:28.63	19.70	22.95	-36.6	-36.8	13.9	3.80e-06	0	27	0	5385486336	40	14439
2026-01-11 10:47:31.53	19.62	23.53	-36.4	-36.6	14.0	1.90e-06	0	27	0	5712642048	40	14081
2026-01-11 10:47:34.44	19.54	24.13	-49.5	-50.1	9.7	8.15e-03	0	27	0	6039797760	64	16665
2026-01-11 10:47:37.34	19.46	24.75	-49.9	-50.5	9.6	1.01e-02	0	27	0	6073352192	67	14735
2026-01-11 10:47:40.24	19.37	25.38	-47.0	-47.3	11.3	2.57e-03	0	27	0	6350176256	61	14424
2026-01-11 10:47:43.14	19.27	26.03	-42.8	-43.1	12.9	9.53e-05	0	27	0	6677331968	52	14788
2026-01-11 10:47:46.04	19.17	26.70	-37.9	-38.2	13.8	1.90e-06	0	27	0	7004487680	43	14132
2026-01-11 10:47:48.93	19.07	27.39	-36.0	-36.3	14.1	0.00e+00	0	27	0	7331643392	39	14278
2026-01-11 10:47:51.84	18.96	28.10	-35.2	-35.4	14.1	0.00e+00	0	27	0	7658799104	37	14450
2026-01-11 10:47:54.74	18.84	28.84	-34.9	-35.1	14.2	0.00e+00	0	27	0	7985954816	37	14072
2026-01-11 10:47:57.65	18.72	29.60	-34.9	-35.1	14.1	0.00e+00	0	27	0	8313110528	36	14790
2026-01-11 10:48:00.55	18.59	30.38	-34.7	-34.9	14.2	0.00e+00	0	27	0	8640266240	36	14449
2026-01-11 10:48:03.46	18.45	31.19	-31.7	-31.9	14.1	0.00e+00	0	27	0	8967421952	30	14522
2026-01-11 10:48:06.35	18.30	32.02	-31.7	-31.9	14.1	0.00e+00	0	27	0	9294577664	30	14542
2026-01-11 10:48:09.26	18.15	32.89	-31.2	-31.4	14.2	0.00e+00	0	27	0	9621733376	29	14594
2026-01-11 10:48:12.16	17.98	33.78	-31.0	-31.2	14.3	0.00e+00	0	27	0	9948889088	29	14190
2026-01-11 10:48:15.06	17.81	34.70	-30.6	-30.8	14.3	0.00e+00	0	27	0	10276044800	28	14340
2026-01-11 10:48:17.95	17.62	35.65	-30.4	-30.6	14.3	0.00e+00	0	27	0	10603200512	28	14042
2026-01-11 10:48:20.85	17.42	36.63	-30.3	-30.5	14.3	0.00e+00	0	27	0	10921967616	27	14727
2026-01-11 10:48:23.76	17.20	37.66	-29.9	-30.1	14.4	0.00e+00	0	27	0	11249123328	27	14076
2026-01-11 10:48:26.65	16.97	38.71	-29.8	-30.0	14.3	0.00e+00	0	27	0	11576279040	26	14717
2026-01-11 10:48:29.56	16.72	39.81	-29.4	-29.6	14.5	0.00e+00	0	27	0	11903434752	26	14054
2026-01-11 10:48:32.46	16.46	40.95	-29.1	-29.3	14.4	0.00e+00	0	27	0	12230590464	25	14313
2026-01-11 10:48:35.37	16.17	42.13	-28.9	-29.1	14.5	0.00e+00	0	27	0	12557746176	25	13971
2026-01-11 10:48:38.26	15.86	43.34	-28.6	-28.8	14.4	0.00e+00	0	27	0	12884901888	24	14424
2026-01-11 10:48:41.17	15.52	44.61	-28.5	-28.7	14.4	0.00e+00	0	27	0	13212057600	24	14174
2026-01-11 10:48:44.07	15.15	45.91	-28.1	-28.3	14.4	0.00e+00	0	27	0	13539213312	23	14325
2026-01-11 10:48:46.96	14.74	47.26	-27.9	-28.1	14.5	0.00e+00	0	27	0	13857980416	23	14053
2026-01-11 10:48:49.86	14.30	48.66	-27.8	-28.0	14.4	0.00e+00	0	27	0	14185136128	22	14626
2026-01-11 10:48:52.76	13.81	50.11	-27.5	-27.7	14.5	0.00e+00	0	27	0	14512291840	22	14148
2026-01-11 10:48:55.67	13.26	51.62	-27.2	-27.4	14.5	0.00e+00	0	27	0	14839447552	21	14552
2026-01-11 10:48:58.57	12.66	53.17	-27.2	-27.4	14.5	0.00e+00	0	27	0	15166603264	21	14548
2026-01-11 10:49:01.48	11.98	54.78	-26.9	-27.1	14.6	0.00e+00	0	27	0	15493758976	21	14101
2026-01-11 10:49:04.37	11.23	56.42	-26.9	-27.1	14.6	0.00e+00	0	27	0	15820914688	21	14086
2026-01-11 10:49:07.27	10.37	58.13	-26.8	-27.1	14.5	0.00e+00	0	28	0	16148070400	20	14786
2026-01-11 10:49:10.18	9.38	59.88	-26.6	-26.8	14.5	0.00e+00	0	27	0	16475226112	20	14411
2026-01-11 10:49:13.07	8.25	61.67	-26.5	-26.7	14.6	0.00e+00	0	27	0	16793993216	20	14160
2026-01-11 10:49:15.98	6.94	63.51	-26.3	-26.5	14.5	0.00e+00	0	27	0	17121148928	19	14756
2026-01-11 10:49:18.88	5.39	65.39	-26.2	-26.5	14.5	0.00e+00	0	27	0	17448304640	19	14624
2026-01-11 10:49:21.78	3.56	67.29	-26.3	-26.5	14.5	0.00e+00	0	27	0	17775460352	19	14661
2026-01-11 10:49:24.68	1.34	69.22	-26.1	-26.3	14.5	0.00e+00	0	27	0	18102616064	19	14406
2026-01-11 10:49:27.58	358.63	71.15	-26.1	-26.3	14.5	0.00e+00	0	27	0	18429771776	19	14355
2026-01-11 10:49:30.48	355.26	73.08	-26.0	-26.2	14.6	0.00e+00	0	27	0	18756927488	19	14176
2026-01-11 10:49:33.39	350.95	74.97	-26.0	-26.2	14.6	0.00e+00	0	27	0	19084083200	19	14146
2026-01-11 10:49:36.29	345.40	76.78	-25.9	-26.1	14.6	0.00e+00	0	27	0	19411238912	19	14004
2026-01-11 10:49:39.20	338.07	78.45	-25.9	-26.2	14.5	0.00e+00	0	27	0	19738394624	18	14965
2026-01-11 10:49:42.11	328.39	79.90	-26.0	-26.2	14.4	0.00e+00	0	27	0	20065550336	18	15092
2026-01-11 10:49:45.01	315.95	80.98	-25.9	-26.1	14.5	0.00e+00	0	27	0	20392706048	18	14831
2026-01-11 10:49:47.91	300.98	81.54	-25.9	-26.1	14.5	0.00e+00	0	27	0	20719861760	18	14808
2026-01-11 10:49:50.81	285.09	81.48	-25.8	-26.1	14.5	0.00e+00	0	27	0	21047017472	18	14813
2026-01-11 10:49:53.71	270.50	80.81	-25.8	-26.0	14.5	0.00e+00	0	27	0	21374173184	18	14670
2026-01-11 10:49:56.61	258.57	79.66	-25.8	-26.0	14.5	0.00e+00	0	27	0	21701328896	18	14701
2026-01-11 10:49:59.52	249.36	78.16	-25.9	-26.1	14.5	0.00e+00	0	27	0	22020096000	18	14818
2026-01-11 10:50:02.41	242.43	76.47	-25.9	-26.2	14.5	0.00e+00	0	27	0	22347251712	18	14986
2026-01-11 10:50:05.32	237.11	74.63	-26.0	-26.2	14.5	0.00e+00	0	27	0	22674407424	18	15037
2026-01-11 10:50:08.22	233.00	72.74	-56.2	-51.0	4.1	0.00e+00	0	27	104	22984785920	42	65535
2026-01-11 10:50:11.11	229.76	70.82	-58.0	-61.6	6.2	0.00e+00	0	27	104	22984785920	81	23663
2026-01-11 10:50:14.02	227.14	68.88	-58.8	-62.0	6.2	0.00e+00	0	27	104	22984785920	83	21938
2026-01-11 10:50:16.94	224.99	66.94	-58.7	-62.0	6.2	0.00e+00	0	27	104	22984785920	83	21866
2026-01-11 10:50:19.86	223.20	65.02	-58.6	-62.0	6.2	0.00e+00	0	27	104	22984785920	83	21876
2026-01-11 10:50:22.79	221.69	63.13	-58.8	-62.0	6.2	0.00e+00	0	27	104	22984785920	83	22048
2026-01-11 10:50:25.72	220.40	61.28	-58.7	-62.0	6.2	0.00e+00	0	27	104	22984785920	83	21917
2026-01-11 10:50:28.65	219.29	59.48	-58.7	-61.9	6.2	0.00e+00	0	27	104	22984785920	83	21824
2026-01-11 10:50:31.58	218.33	57.72	-58.7	-61.9	6.2	0.00e+00	0	27	104	22984785920	83	21853
2026-01-11 10:50:34.50	217.49	56.01	-58.7	-61.9	6.2	0.00e+00	0	27	104	22984785920	83	21852
2026-01-11 10:50:37.43	216.74	54.35	-58.7	-61.9	6.2	0.00e+00	0	27	104	22984785920	83	21669
2026-01-11 10:50:40.37	216.07	52.74	-58.7	-61.9	6.2	0.00e+00	0	27	104	22984785920	83	21664
2026-01-11 10:50:43.31	215.48	51.18	-58.6	-61.9	6.2	0.00e+00	0	27	104	22984785920	83	21610
2026-01-11 10:50:46.25	214.95	49.67	-58.6	-61.8	6.2	0.00e+00	0	27	104	22984785920	83	21594
2026-01-11 10:50:49.19	214.46	48.21	-58.6	-61.8	6.2	0.00e+00	0	27	104	22984785920	83	21450
2026-01-11 10:50:52.11	214.03	46.81	-58.6	-61.8	6.2	0.00e+00	0	27	104	22984785920	83	21546
2026-01-11 10:50:55.03	213.63	45.46	-58.6	-61.8	6.2	0.00e+00	0	27	104	22984785920	83	21502
2026-01-11 10:50:57.96	213.27	44.15	-58.5	-61.8	6.2	0.00e+00	0	27	104	22984785920	83	21447
2026-01-11 10:51:00.88	212.93	42.90	-58.5	-61.7	6.2	0.00e+00	0	27	104	22984785920	83	21318
2026-01-11 10:51:03.82	212.62	41.67	-58.5	-61.8	6.2	0.00e+00	0	27	104	22984785920	83	21364
2026-01-11 10:51:06.74	212.34	40.50	-58.5	-61.7	6.2	0.00e+00	0	27	104	22984785920	83	21298
2026-01-11 10:51:09.68	212.08	39.36	-58.5	-61.7	6.1	0.00e+00	0	27	104	22984785920	83	21155
2026-01-11 10:51:12.61	211.83	38.27	-58.5	-61.7	6.2	0.00e+00	0	27	104	22984785920	83	21205
2026-01-11 10:51:15.56	211.60	37.21	-58.4	-61.7	6.2	0.00e+00	0	27	104	22984785920	83	21196
2026-01-11 10:51:18.48	211.39	36.19	-58.4	-61.6	6.2	0.00e+00	0	27	104	22984785920	83	21033
2026-01-11 10:51:21.40	211.20	35.21	-58.4	-61.6	6.2	0.00e+00	0	27	104	22984785920	83	20990
2026-01-11 10:51:24.33	211.01	34.26	-58.4	-61.6	6.2	0.00e+00	0	27	104	22984785920	83	20946
2026-01-11 10:51:27.26	210.84	33.34	-58.4	-61.6	6.2	0.00e+00	0	27	104	22984785920	83	20922
2026-01-11 10:51:30.19	210.67	32.45	-58.3	-61.6	6.2	0.00e+00	0	27	104	22984785920	83	20879
2026-01-11 10:51:33.14	210.52	31.59	-58.3	-61.5	6.2	0.00e+00	0	27	104	22984785920	83	20804
2026-01-11 10:51:36.07	210.37	30.76	-58.3	-61.5	6.2	0.00e+00	0	27	104	22984785920	83	20690
2026-01-11 10:51:39.00	210.24	29.95	-58.3	-61.5	6.2	0.00e+00	0	27	104	22984785920	83	20766
2026-01-11 10:51:41.94	210.11	29.17	-58.2	-61.4	6.2	0.00e+00	0	27	104	22984785920	83	20614
2026-01-11 10:51:44.86	209.99	28.42	-58.3	-61.5	6.2	0.00e+00	0	27	104	22984785920	83	20703
2026-01-11 10:51:47.78	209.87	27.69	-58.2	-61.4	6.2	0.00e+00	0	27	104	22984785920	83	20511
2026-01-11 10:51:50.73	209.76	26.97	-58.2	-61.4	6.2	0.00e+00	0	27	104	22984785920	83	20567
2026-01-11 10:51:53.65	209.66	26.29	-58.2	-61.3	6.2	0.00e+00	0	27	104	22984785920	83	20354
2026-01-11 10:51:56.57	209.56	25.62	-58.1	-61.3	6.2	0.00e+00	0	27	104	22984785920	83	20189
2026-01-11 10:51:59.49	209.47	24.97	-55.7	-57.5	6.5	0.00e+00	0	27	104	22984785920	78	17476
2026-01-11 10:52:02.42	209.38	24.34	-53.5	-54.8	7.0	0.00e+00	0	27	104	22984785920	72	18154
2026-01-11 10:52:05.35	209.29	23.73	-57.3	-60.0	6.2	0.00e+00	0	27	104	22984785920	80	20832
2026-01-11 10:52:08.28	209.21	23.14	-58.0	-61.1	6.2	0.00e+00	0	27	104	22984785920	81	22331
2026-01-11 10:52:11.20	209.13	22.56	-58.0	-61.1	6.2	0.00e+00	0	27	104	22984785920	81	22184
2026-01-11 10:52:14.14	209.06	21.99	-57.9	-61.2	6.2	0.00e+00	0	27	104	22984785920	81	22381
2026-01-11 10:52:17.07	208.99	21.44	-57.9	-61.2	6.2	0.00e+00	0	27	104	22984785920	81	22420
2026-01-11 10:52:20.00	208.92	20.91	-57.9	-61.1	6.2	0.00e+00	0	27	104	22984785920	81	22354
2026-01-11 10:52:22.93	208.86	20.38	-57.9	-61.1	6.2	0.00e+00	0	27	104	22984785920	81	22345
2026-01-11 10:52:25.86	208.80	19.88	-57.9	-61.1	6.2	0.00e+00	0	27	104	22984785920	81	22241
2026-01-11 10:52:28.79	208.74	19.38	-57.9	-61.1	6.2	0.00e+00	0	27	104	22984785920	81	22222
2026-01-11 10:52:31.74	208.68	18.89	-57.9	-61.1	6.2	0.00e+00	0	27	104	22984785920	81	22181
2026-01-11 10:52:34.68	208.63	18.42	-57.8	-61.1	6.2	0.00e+00	0	27	104	22984785920	81	22177
2026-01-11 10:52:37.63	208.57	17.95	-57.8	-61.1	6.2	0.00e+00	0	27	104	22984785920	81	22154
2026-01-11 10:52:40.55	208.52	17.50	-57.8	-61.0	6.2	0.00e+00	0	27	104	22984785920	81	21940
2026-01-11 10:52:43.48	208.48	17.06	-57.8	-61.0	6.2	0.00e+00	0	27	104	22984785920	81	21931
2026-01-11 10:52:46.41	208.43	16.63	-57.8	-60.9	6.2	0.00e+00	0	27	104	22984785920	81	21816
2026-01-11 10:52:49.33	208.39	16.21	-57.8	-60.9	6.2	0.00e+00	0	27	104	22984785920	81	21855
2026-01-11 10:52:52.23	208.34	15.80	-57.7	-60.9	6.2	0.00e+00	0	27	104	22984785920	81	21785
2026-01-11 10:52:55.14	208.30	15.40	-57.7	-60.9	6.2	0.00e+00	0	27	104	22984785920	81	21851
2026-01-11 10:52:58.04	208.26	15.01	-57.7	-60.9	6.2	0.00e+00	0	27	104	22984785920	81	21695
2026-01-11 10:53:00.95	208.23	14.62	-57.7	-60.9	6.2	0.00e+00	0	27	104	22984785920	81	21772
2026-01-11 10:53:03.85	208.19	14.24	-57.7	-60.9	6.2	0.00e+00	0	27	104	22984785920	81	21648
2026-01-11 10:53:06.74	208.16	13.87	-57.7	-60.8	6.2	0.00e+00	0	27	104	22984785920	81	21599
2026-01-11 10:53:09.64	208.12	13.51	-57.6	-60.8	6.2	0.00e+00	0	27	104	22984785920	81	21515
2026-01-11 10:53:12.54	208.09	13.16	-57.6	-60.8	6.2	0.00e+00	0	27	104	22984785920	81	21551
2026-01-11 10:53:15.44	208.06	12.81	-57.6	-60.8	6.2	0.00e+00	0	27	104	22984785920	81	21568
2026-01-11 10:53:18.35	208.03	12.46	-57.6	-60.8	6.2	0.00e+00	0	27	104	22984785920	81	21504
2026-01-11 10:53:21.24	208.00	12.13	-57.6	-60.8	6.2	0.00e+00	0	27	104	22984785920	81	21386
2026-01-11 10:53:24.14	207.97	11.79	-57.5	-60.8	6.2	0.00e+00	0	27	104	22984785920	81	21368
2026-01-11 10:53:27.05	207.95	11.47	-57.6	-60.8	6.2	0.00e+00	0	27	104	22984785920	81	21386
2026-01-11 10:53:29.95	207.92	11.15	-57.5	-60.7	6.2	0.00e+00	0	27	104	22984785920	81	21184
2026-01-11 10:53:32.85	207.90	10.83	-57.5	-60.7	6.2	0.00e+00	0	27	104	22984785920	81	21274
2026-01-11 10:53:35.76	207.87	10.52	-57.5	-60.7	6.2	0.00e+00	0	27	104	22984785920	81	21146
2026-01-11 10:53:38.65	207.85	10.22	-57.5	-60.7	6.2	0.00e+00	0	27	104	22984785920	81	21121
2026-01-11 10:53:41.54	207.83	9.92	-57.4	-60.6	6.2	0.00e+00	0	26	104	22984785920	81	21053
2026-01-11 10:53:44.44	207.81	9.62	-57.4	-60.6	6.2	0.00e+00	0	27	104	22984785920	81	21020
2026-01-11 10:53:47.34	207.78	9.33	-57.4	-60.6	6.2	0.00e+00	0	27	104	22984785920	81	20976
2026-01-11 10:53:50.24	207.76	9.05	-57.3	-60.5	6.2	0.00e+00	0	27	104	22984785920	81	20854
2026-01-11 10:53:53.15	207.75	8.76	-57.3	-60.5	6.2	0.00e+00	0	27	104	22984785920	81	20848
2026-01-11 10:53:56.06	207.73	8.48	-57.3	-60.5	6.2	0.00e+00	0	27	104	22984785920	81	20822
2026-01-11 10:53:58.96	207.71	8.21	-57.3	-60.6	6.2	0.00e+00	0	27	104	22984785920	81	20899
2026-01-11 10:54:01.87	207.69	7.94	-57.3	-60.5	6.2	0.00e+00	0	27	104	22984785920	81	20645
2026-01-11 10:54:04.77	207.67	7.67	-57.3	-60.4	6.2	0.00e+00	0	27	104	22984785920	81	20614
2026-01-11 10:54:07.67	207.66	7.41	-57.2	-60.4	6.2	0.00e+00	0	27	104	22984785920	81	20580
2026-01-11 10:54:10.56	207.64	7.15	-57.2	-60.4	6.2	0.00e+00	0	27	104	22984785920	81	20583
2026-01-11 10:54:13.47	207.63	6.89	-57.2	-60.4	6.2	0.00e+00	0	27	104	22984785920	81	20429
2026-01-11 10:54:16.36	207.61	6.64	-57.2	-60.4	6.2	0.00e+00	0	27	104	22984785920	81	20410
2026-01-11 10:54:19.26	207.60	6.39	-57.2	-60.4	6.2	0.00e+00	0	27	104	22984785920	81	20530
2026-01-11 10:54:22.17	207.59	6.14	-57.1	-60.3	6.2	0.00e+00	0	27	104	22984785920	81	20269
2026-01-11 10:54:25.07	207.57	5.90	-57.1	-60.3	6.2	0.00e+00	0	27	104	22984785920	81	20224
2026-01-11 10:54:27.97	207.56	5.66	-57.1	-60.3	6.2	0.00e+00	0	27	104	22984785920	81	20172
2026-01-11 10:54:30.87	207.55	5.42	-57.1	-60.3	6.2	0.00e+00	0	27	104	22984785920	81	20172
2026-01-11 10:54:33.77	207.54	5.18	-56.9	-60.1	6.2	0.00e+00	0	27	104	22984785920	81	19826
2026-01-11 10:54:36.67	207.52	4.95	-57.1	-60.3	6.2	0.00e+00	0	27	104	22984785920	81	20180
2026-01-11 10:54:39.58	207.51	4.72	-57.9	-61.1	6.1	0.00e+00	0	27	104	22984785920	81	22274
2026-01-11 10:54:42.48	207.50	4.49	-58.3	-61.5	6.2	0.00e+00	0	27	104	22984785920	82	22031
2026-01-11 10:54:45.39	207.49	4.27	-58.5	-61.8	6.1	0.00e+00	0	27	104	22984785920	82	22633
2026-01-11 10:54:48.28	207.48	4.05	-58.7	-61.9	6.2	0.00e+00	0	27	104	22984785920	83	21833
2026-01-11 10:54:51.19	207.47	3.83	-58.8	-62.0	6.2	0.00e+00	0	27	104	22984785920	83	22045
2026-01-11 10:54:54.09	207.47	3.61	-58.9	-62.1	6.2	0.00e+00	0	27	104	22984785920	83	22321
2026-01-11 10:54:56.99	207.46	3.39	-59.0	-62.2	6.2	0.00e+00	0	27	104	22984785920	83	22436
2026-01-11 10:54:59.90	207.45	3.18	-59.0	-62.3	6.2	0.00e+00	0	27	104	22984785920	83	22637
2026-01-11 10:55:02.80	207.44	2.97	-59.0	-62.2	6.2	0.00e+00	0	27	104	22984785920	83	22460
2026-01-11 10:55:05.71	207.43	2.76	-58.9	-62.2	6.2	0.00e+00	0	27	104	22984785920	83	22438
2026-01-11 10:55:08.62	207.43	2.55	-58.9	-62.1	6.2	0.00e+00	0	27	104	22984785920	83	22216
2026-01-11 10:55:11.52	207.42	2.34	-58.9	-62.1	6.2	0.00e+00	0	27	104	22984785920	83	22294
2026-01-11 10:55:14.42	207.41	2.14	-58.9	-62.1	6.2	0.00e+00	0	27	104	22984785920	83	22187

#Closed at: 2026-01-11 10:55:17
#Recorded file [22984 MB]: D:/lorett/data/31004_260111_134420.dat