passes_logs/2026/01/11/R3.2S_Murmansk/R3.2S_Murmansk__20260111_050627_FENGYUN_3D_rec.log

#Pass ID: 20260111_050627_FENGYUN 3D
#Satellite: FENGYUN 3D
#Configuration: FENGYUN 3D
#almurnet v.1.7.20251203
#Start time: 2026-01-11 05:06:29

#Version: 2.2.20231116
#Station: R3.2S_Murmansk
#Location: 33.079688 lon 68.888172 lat
#TLE: 1 43010U 17072A   26009.92921666 -.00000228  00000+0 -86059-4 0  9998
#TLE: 2 43010  98.9936 341.6668 0002176 116.7510 243.3888 14.19693142422537

#Time	Az	El	Level	Level2	SNR	BER	BlckErr	Temp	State	Recorded	gain1	gain2
2026-01-11 05:06:29.64	38.55	2.11	-57.2	-70.2	3.8	8.45e-01	0	22	0	0	81	15288
2026-01-11 05:06:33.65	38.36	2.35	-57.2	-70.1	3.8	8.46e-01	0	23	104	0	79	17069
2026-01-11 05:06:37.65	38.17	2.60	-57.2	-70.1	3.8	8.46e-01	0	23	104	0	79	17036
2026-01-11 05:06:41.65	37.98	2.84	-57.1	-70.0	3.8	8.46e-01	0	23	104	0	79	16716
2026-01-11 05:06:45.65	37.78	3.09	-57.2	-70.1	3.8	8.46e-01	0	23	104	0	79	16897
2026-01-11 05:06:49.65	37.58	3.34	-57.2	-70.1	3.8	8.47e-01	0	23	104	0	79	17060
2026-01-11 05:06:53.65	37.37	3.59	-57.2	-70.0	3.8	8.46e-01	0	23	104	0	79	16884
2026-01-11 05:06:57.64	37.16	3.84	-57.2	-70.0	3.8	8.45e-01	0	24	104	0	79	16780
2026-01-11 05:07:01.64	36.95	4.10	-57.0	-68.4	3.8	8.45e-01	0	24	104	0	79	13905
2026-01-11 05:07:05.65	36.73	4.36	-56.9	-66.8	4.1	8.35e-01	0	24	0	0	79	11602
2026-01-11 05:07:09.64	36.51	4.62	-56.1	-62.2	6.4	2.80e-01	0	24	0	4194304	78	7232
2026-01-11 05:07:13.66	36.28	4.88	-54.9	-59.0	9.2	1.73e-02	0	24	0	27262976	76	5632
2026-01-11 05:07:17.66	36.05	5.14	-55.7	-61.0	7.6	1.92e-02	0	24	0	49283072	76	7046
2026-01-11 05:07:21.66	35.81	5.41	-53.2	-55.8	11.7	8.16e-02	0	24	0	70254592	73	4638
2026-01-11 05:07:25.66	35.57	5.68	-49.8	-51.4	14.1	0.00e+00	0	24	0	92274688	65	4415
2026-01-11 05:07:29.64	35.33	5.94	-49.3	-50.9	14.3	0.00e+00	0	24	0	114294784	64	4395
2026-01-11 05:07:33.64	35.08	6.22	-49.0	-50.4	14.5	0.00e+00	0	24	0	137363456	64	4175
2026-01-11 05:07:37.61	34.83	6.49	-48.8	-50.2	14.6	0.00e+00	0	24	0	159383552	64	4097
2026-01-11 05:07:41.61	34.57	6.77	-48.8	-50.3	14.5	0.00e+00	0	24	0	182452224	63	4344
2026-01-11 05:07:45.62	34.30	7.05	-48.6	-50.0	14.6	0.00e+00	0	24	0	204472320	63	4203
2026-01-11 05:07:49.61	34.03	7.33	-48.8	-50.2	14.6	0.00e+00	0	24	0	226492416	63	4302
2026-01-11 05:07:53.61	33.76	7.61	-48.6	-50.0	14.7	0.00e+00	0	24	0	249561088	63	4196
2026-01-11 05:07:57.61	33.47	7.90	-48.5	-49.8	14.8	0.00e+00	0	25	0	271581184	63	4130
2026-01-11 05:08:01.61	33.19	8.19	-48.6	-49.9	14.7	0.00e+00	0	25	0	294649856	63	4190
2026-01-11 05:08:05.61	32.89	8.48	-48.4	-49.7	14.9	0.00e+00	0	24	0	316669952	63	4070
2026-01-11 05:08:09.62	32.59	8.77	-48.5	-49.8	14.8	0.00e+00	0	25	0	339738624	63	4135
2026-01-11 05:08:13.60	32.29	9.07	-48.4	-49.7	14.9	0.00e+00	0	24	0	361758720	63	4063
2026-01-11 05:08:17.60	31.97	9.37	-48.1	-49.4	14.9	0.00e+00	0	25	0	384827392	62	4169
2026-01-11 05:08:21.59	31.65	9.67	-48.1	-49.4	14.9	0.00e+00	0	25	0	406847488	62	4168
2026-01-11 05:08:25.59	31.33	9.98	-47.9	-49.1	15.0	0.00e+00	0	25	0	429916160	62	4050
2026-01-11 05:08:29.57	31.00	10.29	-48.1	-49.3	14.9	0.00e+00	0	25	0	451936256	62	4143
2026-01-11 05:08:33.56	30.65	10.60	-47.8	-49.1	15.0	0.00e+00	0	25	0	473956352	62	4022
2026-01-11 05:08:37.55	30.31	10.91	-47.7	-49.0	15.1	0.00e+00	0	25	0	497025024	62	3964
2026-01-11 05:08:41.56	29.95	11.23	-47.5	-48.7	15.1	0.00e+00	0	25	0	519045120	61	4086
2026-01-11 05:08:45.57	29.58	11.55	-47.5	-48.7	15.1	0.00e+00	0	25	0	542113792	61	4091
2026-01-11 05:08:49.57	29.21	11.87	-47.5	-48.7	15.1	0.00e+00	0	25	0	564133888	61	4074
2026-01-11 05:08:53.56	28.82	12.20	-47.6	-48.8	15.0	0.00e+00	0	25	0	587202560	61	4133
2026-01-11 05:08:57.55	28.43	12.53	-47.6	-48.9	15.0	0.00e+00	0	25	0	609222656	61	4150
2026-01-11 05:09:01.55	28.03	12.86	-47.3	-48.5	15.2	0.00e+00	0	25	0	631242752	61	3987
2026-01-11 05:09:05.55	27.62	13.19	-47.3	-48.5	15.2	0.00e+00	0	25	0	654311424	61	3963
2026-01-11 05:09:09.54	27.20	13.53	-47.2	-48.4	15.1	0.00e+00	0	25	0	676331520	60	4161
2026-01-11 05:09:13.54	26.77	13.87	-47.2	-48.4	15.1	0.00e+00	0	25	0	699400192	60	4188
2026-01-11 05:09:17.54	26.33	14.22	-46.8	-48.0	15.3	0.00e+00	0	25	0	721420288	60	3963
2026-01-11 05:09:21.53	25.88	14.57	-46.9	-48.0	15.2	0.00e+00	0	25	0	743440384	60	3996
2026-01-11 05:09:25.51	25.42	14.92	-46.7	-47.8	15.3	0.00e+00	0	25	0	766509056	60	3908
2026-01-11 05:09:29.48	24.95	15.27	-47.1	-48.4	15.0	0.00e+00	0	25	0	788529152	59	4392
2026-01-11 05:09:33.46	24.47	15.62	-47.1	-48.3	15.1	0.00e+00	0	25	0	811597824	59	4356
2026-01-11 05:09:37.45	23.97	15.98	-46.9	-48.1	15.1	0.00e+00	0	25	0	833617920	59	4286
2026-01-11 05:09:41.44	23.46	16.35	-46.8	-48.0	15.2	0.00e+00	0	25	0	855638016	59	4195
2026-01-11 05:09:45.45	22.94	16.71	-46.8	-48.0	15.2	0.00e+00	0	25	0	878706688	59	4201
2026-01-11 05:09:49.44	22.41	17.08	-46.6	-47.7	15.2	0.00e+00	0	25	0	900726784	59	4083
2026-01-11 05:09:53.44	21.86	17.46	-46.3	-47.5	15.4	0.00e+00	0	25	0	923795456	59	3979
2026-01-11 05:09:57.42	21.29	17.83	-46.5	-47.6	15.3	0.00e+00	0	25	0	945815552	59	4049
2026-01-11 05:10:01.41	20.72	18.21	-46.3	-47.4	15.4	0.00e+00	0	25	0	967835648	59	3938
2026-01-11 05:10:05.41	20.12	18.59	-46.1	-47.2	15.3	0.00e+00	0	25	0	990904320	58	4084
2026-01-11 05:10:09.41	19.51	18.97	-46.1	-47.2	15.3	0.00e+00	0	25	0	1012924416	58	4089
2026-01-11 05:10:13.41	18.89	19.36	-46.2	-47.3	15.3	0.00e+00	0	25	0	1035993088	58	4143
2026-01-11 05:10:17.40	18.25	19.75	-46.1	-47.2	15.3	0.00e+00	0	25	0	1058013184	58	4066
2026-01-11 05:10:21.40	17.59	20.14	-45.8	-46.9	15.4	0.00e+00	0	25	0	1081081856	58	3920
2026-01-11 05:10:25.39	16.92	20.53	-45.6	-46.7	15.3	0.00e+00	0	25	0	1103101952	57	4096
2026-01-11 05:10:29.36	16.23	20.92	-45.9	-47.0	15.3	0.00e+00	0	25	0	1125122048	57	4236
2026-01-11 05:10:33.35	15.52	21.31	-46.0	-47.2	15.2	0.00e+00	0	25	0	1148190720	57	4307
2026-01-11 05:10:37.34	14.79	21.71	-45.6	-46.8	15.4	0.00e+00	0	25	0	1170210816	57	4099
2026-01-11 05:10:41.32	14.05	22.11	-45.6	-46.7	15.4	0.00e+00	0	25	0	1193279488	57	4095
2026-01-11 05:10:45.33	13.28	22.51	-45.6	-46.7	15.4	0.00e+00	0	25	0	1215299584	57	4055
2026-01-11 05:10:49.33	12.49	22.91	-45.5	-46.6	15.4	0.00e+00	0	25	0	1237319680	57	4047
2026-01-11 05:10:53.34	11.67	23.31	-45.3	-46.3	15.5	0.00e+00	0	25	0	1260388352	57	3913
2026-01-11 05:10:57.35	10.84	23.71	-45.1	-46.2	15.4	0.00e+00	0	25	0	1283457024	56	4076
2026-01-11 05:11:01.35	9.99	24.11	-45.4	-46.5	15.3	0.00e+00	0	25	0	1305477120	56	4218
2026-01-11 05:11:05.34	9.11	24.51	-45.2	-46.3	15.4	0.00e+00	0	25	0	1328545792	56	4113
2026-01-11 05:11:09.35	8.21	24.90	-44.8	-45.9	15.5	0.00e+00	0	25	0	1350565888	56	3938
2026-01-11 05:11:13.34	7.29	25.30	-44.9	-46.0	15.5	0.00e+00	0	25	0	1372585984	56	3960
2026-01-11 05:11:17.36	6.34	25.69	-44.7	-45.8	15.6	0.00e+00	0	25	0	1395654656	56	3874
2026-01-11 05:11:21.37	5.37	26.08	-44.4	-45.4	15.5	0.00e+00	0	25	0	1417674752	55	3958
2026-01-11 05:11:25.36	4.38	26.47	-44.4	-45.4	15.5	0.00e+00	0	25	0	1440743424	55	3945
2026-01-11 05:11:29.36	3.36	26.85	-44.6	-45.7	15.4	0.00e+00	0	25	0	1462763520	55	4081
2026-01-11 05:11:33.35	2.32	27.22	-44.5	-45.6	15.5	0.00e+00	0	25	0	1485832192	55	4028
2026-01-11 05:11:37.35	1.25	27.59	-44.6	-45.6	15.5	0.00e+00	0	25	0	1507852288	55	4040
2026-01-11 05:11:41.33	0.17	27.95	-44.5	-45.6	15.5	0.00e+00	0	25	0	1529872384	55	4005
2026-01-11 05:11:45.32	359.05	28.31	-44.5	-45.6	15.5	0.00e+00	0	25	0	1552941056	55	4030
2026-01-11 05:11:49.31	357.91	28.66	-44.2	-45.2	15.5	0.00e+00	0	25	0	1574961152	54	4064
2026-01-11 05:11:53.30	356.75	29.00	-44.4	-45.5	15.4	0.00e+00	0	25	0	1598029824	54	4209
2026-01-11 05:11:57.30	355.55	29.33	-44.6	-45.6	15.4	0.00e+00	0	25	0	1620049920	54	4278
2026-01-11 05:12:01.27	354.34	29.65	-44.4	-45.5	15.4	0.00e+00	0	25	0	1642070016	54	4194
2026-01-11 05:12:05.28	353.10	29.95	-44.3	-45.3	15.4	0.00e+00	0	25	0	1665138688	54	4144
2026-01-11 05:12:09.27	351.84	30.25	-44.3	-45.4	15.4	0.00e+00	0	25	0	1687158784	54	4154
2026-01-11 05:12:13.26	350.55	30.53	-44.1	-45.1	15.5	0.00e+00	0	25	0	1710227456	54	4045
2026-01-11 05:12:17.25	349.24	30.80	-44.1	-45.1	15.5	0.00e+00	0	25	0	1732247552	54	4034
2026-01-11 05:12:21.25	347.91	31.06	-44.1	-45.1	15.5	0.00e+00	0	25	0	1755316224	54	4032
2026-01-11 05:12:25.25	346.56	31.29	-44.0	-45.1	15.5	0.00e+00	0	25	0	1777336320	54	4009
2026-01-11 05:12:29.25	345.19	31.52	-44.0	-45.1	15.5	0.00e+00	0	25	0	1800404992	54	4011
2026-01-11 05:12:33.24	343.80	31.72	-44.0	-45.0	15.5	0.00e+00	0	25	0	1822425088	54	3974
2026-01-11 05:12:37.22	342.40	31.91	-43.9	-44.9	15.6	0.00e+00	0	25	0	1844445184	54	3923
2026-01-11 05:12:41.20	340.98	32.07	-44.1	-45.2	15.5	0.00e+00	0	25	0	1867513856	54	4056
2026-01-11 05:12:45.19	339.55	32.22	-43.8	-44.8	15.6	0.00e+00	0	25	0	1889533952	54	3897
2026-01-11 05:12:49.20	338.09	32.35	-43.9	-44.9	15.6	0.00e+00	0	25	0	1912602624	54	3948
2026-01-11 05:12:53.21	336.63	32.46	-43.9	-44.9	15.6	0.00e+00	0	25	0	1934622720	54	3928
2026-01-11 05:12:57.21	335.16	32.55	-43.6	-44.6	15.5	0.00e+00	0	25	0	1957691392	53	4035
2026-01-11 05:13:01.20	333.68	32.61	-44.1	-45.1	15.4	0.00e+00	0	25	0	1979711488	53	4291
2026-01-11 05:13:05.18	332.21	32.66	-43.8	-44.9	15.5	0.00e+00	0	25	0	2001731584	53	4152
2026-01-11 05:13:09.19	330.72	32.68	-43.9	-44.9	15.4	0.00e+00	0	25	0	2024800256	53	4156
2026-01-11 05:13:13.19	329.23	32.68	-43.7	-44.7	15.5	0.00e+00	0	25	0	2046820352	53	4086
2026-01-11 05:13:17.19	327.75	32.66	-43.7	-44.8	15.4	0.00e+00	0	25	0	2069889024	53	4100
2026-01-11 05:13:21.19	326.26	32.62	-44.1	-45.1	15.4	0.00e+00	0	25	0	2091909120	53	4275
2026-01-11 05:13:25.19	324.79	32.56	-43.8	-44.8	15.4	0.00e+00	0	25	0	2114977792	53	4143
2026-01-11 05:13:29.18	323.32	32.47	-43.6	-44.6	15.5	0.00e+00	0	25	0	2136997888	53	4010
2026-01-11 05:13:33.18	321.86	32.36	-43.8	-44.9	15.4	0.00e+00	0	25	0	2159017984	53	4153
2026-01-11 05:13:37.17	320.41	32.24	-44.1	-45.2	15.4	0.00e+00	0	26	0	2182086656	53	4294
2026-01-11 05:13:41.15	318.97	32.09	-44.0	-45.0	15.4	0.00e+00	0	26	0	2204106752	53	4222
2026-01-11 05:13:45.17	317.54	31.92	-43.9	-44.9	15.4	0.00e+00	0	25	0	2227175424	53	4163
2026-01-11 05:13:49.18	316.13	31.74	-44.0	-45.0	15.4	0.00e+00	0	25	0	2249195520	53	4236
2026-01-11 05:13:53.20	314.73	31.53	-43.9	-45.0	15.4	0.00e+00	0	25	0	2272264192	53	4202
2026-01-11 05:13:57.20	313.35	31.31	-44.1	-45.2	15.4	0.00e+00	0	25	0	2294284288	53	4294
2026-01-11 05:14:01.20	311.99	31.07	-44.0	-45.0	15.4	0.00e+00	0	25	0	2317352960	53	4233
2026-01-11 05:14:05.19	310.66	30.82	-44.2	-45.3	15.4	0.00e+00	0	25	0	2339373056	53	4373
2026-01-11 05:14:09.20	309.34	30.55	-44.1	-45.1	15.4	0.00e+00	0	25	0	2362441728	53	4289
2026-01-11 05:14:13.20	308.05	30.27	-44.5	-45.5	15.4	0.00e+00	0	26	0	2384461824	54	4231
2026-01-11 05:14:17.19	306.79	29.97	-44.5	-45.5	15.4	0.00e+00	0	26	0	2407530496	54	4226
2026-01-11 05:14:21.20	305.54	29.66	-44.4	-45.4	15.4	0.00e+00	0	25	0	2429550592	54	4187
2026-01-11 05:14:25.21	304.31	29.34	-44.6	-45.6	15.4	0.00e+00	0	25	0	2452619264	54	4283
2026-01-11 05:14:29.21	303.12	29.01	-44.2	-45.3	15.4	0.00e+00	0	25	0	2474639360	54	4106
2026-01-11 05:14:33.20	301.95	28.67	-44.5	-45.6	15.4	0.00e+00	0	25	0	2497708032	54	4249
2026-01-11 05:14:37.19	300.81	28.33	-44.6	-45.6	15.4	0.00e+00	0	25	0	2519728128	54	4282
2026-01-11 05:14:41.17	299.69	27.97	-44.7	-45.7	15.4	0.00e+00	0	25	0	2541748224	54	4333
2026-01-11 05:14:45.17	298.59	27.61	-44.9	-46.0	15.3	0.00e+00	0	25	0	2564816896	54	4463
2026-01-11 05:14:49.17	297.52	27.24	-44.9	-45.9	15.3	0.00e+00	0	25	0	2586836992	54	4441
2026-01-11 05:14:53.18	296.47	26.86	-45.0	-46.0	15.3	0.00e+00	0	25	0	2609905664	55	4230
2026-01-11 05:14:57.17	295.45	26.48	-44.9	-46.0	15.4	0.00e+00	0	26	0	2631925760	55	4196
2026-01-11 05:15:01.13	294.47	26.10	-45.0	-46.1	15.3	0.00e+00	0	25	0	2653945856	55	4269
2026-01-11 05:15:05.14	293.49	25.71	-45.0	-46.0	15.3	0.00e+00	0	25	0	2677014528	55	4223
2026-01-11 05:15:09.14	292.54	25.31	-44.9	-46.0	15.4	0.00e+00	0	25	0	2699034624	55	4195
2026-01-11 05:15:13.14	291.62	24.92	-45.2	-46.3	15.3	0.00e+00	0	26	0	2722103296	55	4352
2026-01-11 05:15:17.16	290.71	24.52	-45.3	-46.3	15.3	0.00e+00	0	26	0	2744123392	55	4387
2026-01-11 05:15:21.16	289.83	24.12	-45.3	-46.4	15.3	0.00e+00	0	25	0	2767192064	55	4410
2026-01-11 05:15:25.16	288.97	23.72	-45.3	-46.4	15.3	0.00e+00	0	25	0	2789212160	55	4400
2026-01-11 05:15:29.16	288.14	23.32	-45.2	-46.3	15.3	0.00e+00	0	25	0	2812280832	55	4352
2026-01-11 05:15:33.16	287.32	22.92	-45.3	-46.4	15.3	0.00e+00	0	25	0	2834300928	55	4410
2026-01-11 05:15:37.15	286.53	22.52	-45.3	-46.4	15.3	0.00e+00	0	25	0	2857369600	55	4419
2026-01-11 05:15:41.14	285.76	22.12	-45.3	-46.4	15.3	0.00e+00	0	25	0	2879389696	55	4417
2026-01-11 05:15:45.13	285.01	21.72	-45.3	-46.4	15.3	0.00e+00	0	25	0	2901409792	55	4398
2026-01-11 05:15:49.12	284.28	21.32	-45.2	-46.3	15.3	0.00e+00	0	25	0	2924478464	55	4381
2026-01-11 05:15:53.13	283.56	20.92	-45.2	-46.3	15.3	0.00e+00	0	26	0	2946498560	55	4388
2026-01-11 05:15:57.13	282.87	20.53	-45.7	-46.8	15.2	0.00e+00	0	25	0	2969567232	56	4351
2026-01-11 05:16:01.13	282.19	20.14	-45.7	-46.9	15.2	0.00e+00	0	25	0	2991587328	56	4393
2026-01-11 05:16:05.12	281.53	19.74	-45.7	-46.8	15.2	0.00e+00	0	25	0	3014656000	56	4376
2026-01-11 05:16:09.12	280.89	19.35	-45.9	-47.0	15.2	0.00e+00	0	25	0	3036676096	57	4241
2026-01-11 05:16:13.09	280.26	18.97	-46.0	-47.1	15.2	0.00e+00	0	25	0	3058696192	57	4251
2026-01-11 05:16:17.09	279.65	18.59	-46.2	-47.3	15.2	0.00e+00	0	25	0	3081764864	57	4382
2026-01-11 05:16:21.10	279.05	18.20	-46.3	-47.4	15.1	0.00e+00	0	25	0	3103784960	57	4421
2026-01-11 05:16:25.10	278.47	17.82	-46.2	-47.3	15.2	0.00e+00	0	25	0	3126853632	57	4378
2026-01-11 05:16:29.10	277.91	17.45	-46.5	-47.7	15.2	0.00e+00	0	26	0	3148873728	58	4294
2026-01-11 05:16:33.10	277.35	17.07	-46.7	-47.9	15.1	0.00e+00	0	26	0	3171942400	58	4393
2026-01-11 05:16:37.08	276.82	16.70	-46.7	-47.9	15.1	0.00e+00	0	25	0	3193962496	58	4419
2026-01-11 05:16:41.06	276.30	16.34	-47.1	-48.2	15.1	0.00e+00	0	25	0	3215982592	59	4338
2026-01-11 05:16:45.05	275.78	15.97	-47.0	-48.2	15.1	0.00e+00	0	25	0	3239051264	59	4300
2026-01-11 05:16:49.04	275.29	15.61	-46.9	-48.1	15.1	0.00e+00	0	26	0	3261071360	59	4254
2026-01-11 05:16:53.03	274.80	15.26	-47.2	-48.4	15.0	0.00e+00	0	26	0	3283091456	59	4399
2026-01-11 05:16:57.03	274.32	14.90	-47.2	-48.4	15.0	0.00e+00	0	26	0	3306160128	59	4440
2026-01-11 05:17:01.03	273.86	14.55	-47.3	-48.5	15.0	0.00e+00	0	26	0	3328180224	59	4449
2026-01-11 05:17:05.03	273.40	14.20	-47.0	-48.2	15.1	0.00e+00	0	26	0	3351248896	60	4079
2026-01-11 05:17:09.03	272.96	13.85	-47.2	-48.4	15.1	0.00e+00	0	25	0	3373268992	60	4150
2026-01-11 05:17:13.03	272.53	13.51	-47.3	-48.5	15.0	0.00e+00	0	26	0	3396337664	60	4229
2026-01-11 05:17:17.04	272.11	13.17	-47.3	-48.5	15.0	0.00e+00	0	26	0	3418357760	60	4219
2026-01-11 05:17:21.05	271.69	12.83	-47.5	-48.7	14.9	0.00e+00	0	26	0	3441426432	60	4316
2026-01-11 05:17:25.05	271.29	12.50	-47.4	-48.7	14.9	0.00e+00	0	26	0	3463446528	60	4292
2026-01-11 05:17:29.06	270.89	12.17	-47.4	-48.6	15.0	0.00e+00	0	25	0	3486515200	60	4276
2026-01-11 05:17:33.06	270.51	11.84	-47.4	-48.6	14.9	0.00e+00	0	26	0	3508535296	60	4287
2026-01-11 05:17:37.05	270.14	11.52	-47.5	-48.8	14.9	0.00e+00	0	26	0	3531603968	60	4357
2026-01-11 05:17:41.04	269.77	11.20	-47.8	-49.1	14.7	0.00e+00	0	26	0	3553624064	60	4531
2026-01-11 05:17:45.04	269.41	10.88	-48.0	-49.3	14.8	0.00e+00	0	25	0	3576692736	61	4343
2026-01-11 05:17:49.02	269.06	10.57	-48.5	-49.9	14.6	0.00e+00	0	26	0	3598712832	62	4405
2026-01-11 05:17:53.02	268.72	10.25	-50.2	-51.9	13.8	0.00e+00	0	26	0	3620732928	65	4663
2026-01-11 05:17:57.03	268.38	9.94	-51.1	-52.9	13.4	0.00e+00	0	26	0	3643801600	67	4681
2026-01-11 05:18:01.04	268.05	9.64	-50.7	-52.5	13.6	0.00e+00	0	26	0	3665821696	67	4453
2026-01-11 05:18:05.04	267.73	9.33	-50.6	-52.3	13.7	0.00e+00	0	25	0	3688890368	67	4377
2026-01-11 05:18:09.04	267.41	9.03	-50.8	-52.5	13.6	0.00e+00	0	25	0	3710910464	67	4485
2026-01-11 05:18:13.06	267.10	8.73	-50.5	-52.2	13.9	0.00e+00	0	26	0	3733979136	67	4315
2026-01-11 05:18:17.08	266.80	8.44	-48.7	-50.1	14.7	0.00e+00	0	25	0	3755999232	64	4023
2026-01-11 05:18:21.07	266.50	8.14	-48.5	-49.8	14.7	0.00e+00	0	25	0	3779067904	63	4141
2026-01-11 05:18:25.08	266.21	7.85	-48.2	-49.6	14.7	0.00e+00	0	26	0	3801088000	62	4245
2026-01-11 05:18:29.08	265.93	7.57	-48.6	-49.9	14.6	0.00e+00	0	26	0	3824156672	62	4433
2026-01-11 05:18:33.07	265.65	7.28	-48.6	-50.0	14.5	0.00e+00	0	26	0	3846176768	62	4470
2026-01-11 05:18:37.07	265.38	7.00	-48.6	-50.0	14.5	0.00e+00	0	26	0	3869245440	62	4448
2026-01-11 05:18:41.06	265.11	6.72	-48.7	-50.1	14.5	0.00e+00	0	26	0	3891265536	62	4506
2026-01-11 05:18:45.06	264.85	6.44	-48.9	-50.3	14.5	0.00e+00	0	26	0	3914334208	63	4342
2026-01-11 05:18:49.05	264.60	6.17	-49.0	-50.4	14.4	0.00e+00	0	26	0	3936354304	63	4402
2026-01-11 05:18:53.06	264.34	5.90	-49.1	-50.5	14.4	0.00e+00	0	26	0	3958374400	63	4468
2026-01-11 05:18:57.06	264.10	5.63	-49.1	-50.6	14.3	0.00e+00	0	26	0	3981443072	63	4502
2026-01-11 05:19:01.06	263.86	5.36	-48.9	-50.4	14.4	0.00e+00	0	26	0	4003463168	63	4399
2026-01-11 05:19:05.07	263.62	5.09	-49.1	-50.5	14.3	0.00e+00	0	26	0	4026531840	63	4485
2026-01-11 05:19:09.06	263.39	4.83	-58.8	-71.8	3.8	8.45e-01	0	26	104	4035969024	82	17284
2026-01-11 05:19:13.06	263.16	4.57	-59.3	-72.4	3.8	8.46e-01	0	26	104	4035969024	83	17520
2026-01-11 05:19:17.06	262.93	4.31	-59.8	-72.9	3.8	8.46e-01	0	26	104	4035969024	84	17561
2026-01-11 05:19:21.06	262.71	4.05	-60.0	-73.1	3.8	8.45e-01	0	26	104	4035969024	85	16983
2026-01-11 05:19:25.07	262.50	3.79	-60.1	-73.2	3.8	8.46e-01	0	26	104	4035969024	85	17162
2026-01-11 05:19:29.07	262.29	3.54	-60.1	-73.2	3.8	8.47e-01	0	26	104	4035969024	85	17127
2026-01-11 05:19:33.06	262.08	3.29	-60.0	-73.1	3.8	8.46e-01	0	26	104	4035969024	85	17012
2026-01-11 05:19:37.07	261.87	3.04	-60.0	-73.0	3.8	8.46e-01	0	26	104	4035969024	85	16860
2026-01-11 05:19:41.07	261.67	2.79	-59.9	-73.0	3.8	8.45e-01	0	26	104	4035969024	85	16807
2026-01-11 05:19:45.05	261.48	2.55	-59.9	-73.0	3.8	8.46e-01	0	26	104	4035969024	85	16728
2026-01-11 05:19:49.06	261.28	2.30	-59.9	-72.9	3.8	8.46e-01	0	26	104	4035969024	85	16685
2026-01-11 05:19:53.06	261.09	2.06	-59.9	-72.9	3.8	8.46e-01	0	26	104	4035969024	85	16639

#Closed at: 2026-01-11 05:19:56
#Recorded file [4035 MB]: D:/lorett/data/31004_260111_080629.dat