passes_logs/2026/01/11/R3.2S_Murmansk/R3.2S_Murmansk__20260111_022634_SUOMI_NPP_rec.log

#Pass ID: 20260111_022634_SUOMI NPP
#Satellite: SUOMI NPP
#Configuration: NPP
#almurnet v.1.7.20251203
#Start time: 2026-01-11 02:26:33

#Version: 2.2.20231116
#Station: R3.2S_Murmansk
#Location: 33.079688 lon 68.888172 lat
#TLE: 1 37849U 11061A   26009.81756760  .00000113  00000+0  74747-4 0  9994
#TLE: 2 37849  98.7806 311.9110 0002525  72.5604 287.5848 14.19524046735974

#Time	Az	El	Level	Level2	SNR	BER	BlckErr	Temp	State	Recorded	gain1	gain2
2026-01-11 02:26:33.79	33.09	1.97	-53.2	-69.2	3.8	1.49e+00	0	23	0	0	71	24184
2026-01-11 02:26:37.79	32.95	2.21	-53.2	-69.2	3.8	1.49e+00	0	23	104	0	71	24209
2026-01-11 02:26:41.80	32.81	2.46	-53.3	-69.2	3.8	1.49e+00	0	23	104	0	71	24244
2026-01-11 02:26:45.81	32.66	2.72	-53.3	-69.2	3.8	1.49e+00	0	23	104	0	71	24277
2026-01-11 02:26:49.82	32.50	2.97	-53.3	-69.2	3.8	1.49e+00	0	24	104	0	71	24301
2026-01-11 02:26:53.83	32.35	3.23	-53.3	-69.2	3.8	1.49e+00	0	24	104	0	71	24407
2026-01-11 02:26:57.83	32.19	3.48	-53.3	-69.2	3.8	1.49e+00	0	24	104	0	71	24378
2026-01-11 02:27:01.84	32.03	3.75	-53.3	-69.3	3.8	1.49e+00	0	24	104	0	71	24433
2026-01-11 02:27:05.85	31.87	4.01	-53.3	-69.3	3.8	1.49e+00	0	24	104	0	71	24423
2026-01-11 02:27:09.84	31.70	4.27	-53.3	-69.3	3.8	1.49e+00	0	24	104	0	71	24486
2026-01-11 02:27:13.86	31.53	4.54	-53.3	-69.3	3.8	1.49e+00	0	24	104	0	71	24551
2026-01-11 02:27:17.85	31.36	4.81	-53.3	-69.3	3.8	1.49e+00	0	24	104	0	71	24494
2026-01-11 02:27:21.85	31.18	5.08	-53.3	-69.3	3.8	1.49e+00	0	25	104	0	71	24546
2026-01-11 02:27:25.85	31.00	5.35	-53.3	-69.3	3.8	1.49e+00	0	25	104	0	71	24533
2026-01-11 02:27:29.85	30.82	5.63	-53.3	-69.3	3.8	1.49e+00	0	25	104	0	71	24531
2026-01-11 02:27:33.86	30.63	5.91	-53.4	-69.3	3.8	1.49e+00	0	25	104	0	71	24579
2026-01-11 02:27:37.86	30.43	6.19	-53.4	-69.3	3.8	1.49e+00	0	25	104	0	71	24548
2026-01-11 02:27:41.88	30.24	6.48	-53.4	-69.3	3.8	1.49e+00	0	25	104	0	71	24573
2026-01-11 02:27:45.88	30.04	6.77	-53.4	-69.3	3.8	1.49e+00	0	25	104	0	71	24641
2026-01-11 02:27:49.89	29.83	7.06	-53.4	-69.4	3.8	1.49e+00	0	25	104	0	71	24696
2026-01-11 02:27:53.90	29.62	7.35	-53.4	-69.3	3.8	1.49e+00	0	25	104	0	71	24611
2026-01-11 02:27:57.91	29.41	7.65	-53.4	-69.3	3.8	1.49e+00	0	25	104	0	71	24679
2026-01-11 02:28:01.91	29.19	7.95	-53.4	-69.3	3.8	1.49e+00	0	25	104	0	71	24680
2026-01-11 02:28:05.91	28.96	8.25	-53.4	-69.3	3.8	1.49e+00	0	25	104	0	71	24622
2026-01-11 02:28:09.92	28.73	8.56	-53.4	-69.3	3.8	1.49e+00	0	25	104	0	71	24638
2026-01-11 02:28:13.92	28.50	8.87	-53.4	-69.3	3.8	1.49e+00	0	25	104	0	71	24632
2026-01-11 02:28:17.92	28.26	9.18	-53.4	-69.4	3.8	1.49e+00	0	25	104	0	71	24769
2026-01-11 02:28:21.91	28.02	9.50	-53.4	-69.4	3.8	1.49e+00	0	26	104	0	71	24695
2026-01-11 02:28:25.91	27.77	9.82	-53.4	-69.4	3.8	1.49e+00	0	26	104	0	71	24720
2026-01-11 02:28:29.90	27.51	10.14	-53.5	-69.4	3.8	1.49e+00	0	26	104	0	72	23376
2026-01-11 02:28:33.89	27.25	10.46	-53.5	-69.4	3.8	1.49e+00	0	26	104	0	72	23373
2026-01-11 02:28:37.90	26.98	10.80	-53.5	-69.4	3.8	1.49e+00	0	26	104	0	72	23412
2026-01-11 02:28:41.91	26.70	11.13	-53.5	-69.4	3.8	1.49e+00	0	25	104	0	72	23406
2026-01-11 02:28:45.92	26.42	11.47	-53.5	-69.4	3.8	1.49e+00	0	26	104	0	72	23382
2026-01-11 02:28:49.91	26.13	11.81	-53.5	-69.4	3.8	1.49e+00	0	26	104	0	72	23409
2026-01-11 02:28:53.92	25.83	12.16	-53.5	-69.4	3.8	1.49e+00	0	26	104	0	72	23383
2026-01-11 02:28:57.92	25.53	12.51	-53.5	-69.4	3.8	1.49e+00	0	26	104	0	72	23361
2026-01-11 02:29:01.92	25.22	12.86	-53.5	-69.4	3.8	1.49e+00	0	26	104	0	72	23449
2026-01-11 02:29:05.92	24.90	13.22	-53.5	-69.4	3.8	1.49e+00	0	26	104	0	72	23435
2026-01-11 02:29:09.93	24.57	13.59	-53.5	-69.4	3.8	1.49e+00	0	26	104	0	72	23427
2026-01-11 02:29:13.94	24.23	13.96	-53.5	-69.4	3.8	1.49e+00	0	26	104	0	72	23434
2026-01-11 02:29:17.94	23.88	14.33	-53.5	-69.4	3.8	1.49e+00	0	26	104	0	72	23468
2026-01-11 02:29:21.95	23.53	14.71	-53.5	-69.4	3.8	1.49e+00	0	26	104	0	72	23407
2026-01-11 02:29:25.94	23.17	15.09	-53.5	-69.4	3.8	1.49e+00	0	26	104	0	72	23414
2026-01-11 02:29:29.95	22.79	15.48	-53.5	-69.4	3.8	1.49e+00	0	26	104	0	72	23434
2026-01-11 02:29:33.95	22.41	15.87	-53.5	-69.4	3.8	1.49e+00	0	26	104	0	72	23498
2026-01-11 02:29:37.95	22.01	16.27	-53.5	-69.4	3.8	1.49e+00	0	26	104	0	72	23420
2026-01-11 02:29:41.95	21.61	16.67	-53.5	-69.4	3.8	1.49e+00	0	26	104	0	72	23399
2026-01-11 02:29:45.96	21.19	17.07	-53.5	-69.4	3.8	1.49e+00	0	26	104	0	72	23381
2026-01-11 02:29:49.97	20.76	17.49	-53.5	-69.4	3.8	1.49e+00	0	26	104	0	72	23403
2026-01-11 02:29:53.99	20.31	17.91	-53.5	-69.4	3.8	1.49e+00	0	26	104	0	72	23463
2026-01-11 02:29:57.99	19.86	18.33	-53.5	-69.4	3.8	1.49e+00	0	26	104	0	72	23455
2026-01-11 02:30:02.00	19.39	18.76	-53.5	-69.4	3.8	1.49e+00	0	26	104	0	72	23448
2026-01-11 02:30:06.02	18.90	19.20	-53.5	-69.4	3.8	1.49e+00	0	26	104	0	72	23454
2026-01-11 02:30:10.03	18.41	19.64	-53.5	-69.4	3.8	1.49e+00	0	26	104	0	72	23409
2026-01-11 02:30:14.04	17.89	20.08	-53.5	-69.3	3.8	1.49e+00	0	26	104	0	72	23174
2026-01-11 02:30:18.04	17.37	20.53	-53.5	-69.4	3.8	1.49e+00	0	26	104	0	72	23518
2026-01-11 02:30:22.06	16.82	20.99	-53.5	-69.4	3.8	1.49e+00	0	26	104	0	72	23482
2026-01-11 02:30:26.06	16.26	21.45	-53.5	-69.4	3.8	1.49e+00	0	26	104	0	72	23456
2026-01-11 02:30:30.06	15.68	21.92	-53.5	-69.4	3.8	1.49e+00	0	26	104	0	72	23501
2026-01-11 02:30:34.06	15.09	22.39	-53.5	-69.4	3.8	1.49e+00	0	26	104	0	72	23465
2026-01-11 02:30:38.07	14.47	22.87	-53.5	-69.4	3.8	1.49e+00	0	26	104	0	72	23475
2026-01-11 02:30:42.06	13.84	23.35	-53.5	-69.4	3.8	1.49e+00	0	26	104	0	72	23442
2026-01-11 02:30:46.07	13.18	23.84	-53.5	-69.4	3.8	1.49e+00	0	26	104	0	72	23394
2026-01-11 02:30:50.06	12.51	24.33	-53.5	-69.4	3.8	1.49e+00	0	26	104	0	72	23507
2026-01-11 02:30:54.08	11.81	24.83	-53.5	-69.4	3.8	1.49e+00	0	26	104	0	72	23465
2026-01-11 02:30:58.08	11.09	25.33	-53.5	-69.4	3.8	1.49e+00	0	26	104	0	72	23423
2026-01-11 02:31:02.08	10.34	25.84	-53.5	-69.4	3.8	1.49e+00	0	26	104	0	72	23464
2026-01-11 02:31:06.09	9.57	26.35	-53.5	-69.4	3.8	1.49e+00	0	26	104	0	72	23461
2026-01-11 02:31:10.08	8.78	26.86	-53.5	-69.4	3.8	1.49e+00	0	26	104	0	72	23480
2026-01-11 02:31:14.09	7.96	27.38	-53.5	-69.4	3.8	1.49e+00	0	26	104	0	72	23464
2026-01-11 02:31:18.11	7.10	27.90	-53.5	-69.4	3.8	1.49e+00	0	26	104	0	72	23525
2026-01-11 02:31:22.11	6.23	28.43	-53.5	-69.4	3.8	1.49e+00	0	26	104	0	72	23512
2026-01-11 02:31:26.11	5.32	28.95	-53.5	-69.4	3.8	1.49e+00	0	26	104	0	72	23462
2026-01-11 02:31:30.13	4.38	29.48	-53.5	-69.4	3.8	1.49e+00	0	26	104	0	72	23464
2026-01-11 02:31:34.12	3.41	30.01	-53.5	-69.4	3.8	1.49e+00	0	26	104	0	72	23415
2026-01-11 02:31:38.12	2.41	30.53	-53.5	-69.4	3.8	1.49e+00	0	26	104	0	72	23555
2026-01-11 02:31:42.11	1.37	31.06	-53.5	-69.4	3.8	1.49e+00	0	26	104	0	72	23502
2026-01-11 02:31:46.10	0.31	31.58	-53.5	-69.4	3.8	1.49e+00	0	26	104	0	72	23486
2026-01-11 02:31:50.10	359.20	32.11	-53.5	-69.4	3.8	1.49e+00	0	26	104	0	72	23519
2026-01-11 02:31:54.12	358.05	32.63	-53.5	-69.4	3.8	1.49e+00	0	26	104	0	72	23547
2026-01-11 02:31:58.13	356.87	33.15	-53.5	-69.4	3.8	1.49e+00	0	26	104	0	72	23512
2026-01-11 02:32:02.15	355.64	33.66	-53.5	-69.4	3.8	1.49e+00	0	26	104	0	72	23458
2026-01-11 02:32:06.15	354.39	34.16	-53.5	-69.4	3.8	1.49e+00	0	26	104	0	72	23551
2026-01-11 02:32:10.16	353.09	34.66	-53.5	-69.4	3.8	1.49e+00	0	26	104	0	72	23542
2026-01-11 02:32:14.16	351.75	35.14	-53.5	-69.4	3.8	1.49e+00	0	26	104	0	72	23476
2026-01-11 02:32:18.16	350.37	35.62	-53.5	-69.4	3.8	1.49e+00	0	26	104	0	72	23540
2026-01-11 02:32:22.17	348.95	36.08	-53.5	-69.4	3.8	1.49e+00	0	26	104	0	72	23508
2026-01-11 02:32:26.18	347.49	36.53	-53.5	-69.4	3.8	1.49e+00	0	26	104	0	72	23565
2026-01-11 02:32:30.19	345.99	36.96	-53.5	-69.4	3.8	1.49e+00	0	26	104	0	72	23515
2026-01-11 02:32:34.18	344.45	37.37	-53.5	-69.4	3.8	1.49e+00	0	26	104	0	72	23511
2026-01-11 02:32:38.19	342.87	37.77	-53.5	-69.4	3.8	1.49e+00	0	26	104	0	72	23506
2026-01-11 02:32:42.19	341.26	38.14	-53.5	-69.4	3.8	1.49e+00	0	26	104	0	72	23571
2026-01-11 02:32:46.19	339.60	38.49	-53.5	-69.5	3.8	1.49e+00	0	26	104	0	72	23588
2026-01-11 02:32:50.19	337.92	38.82	-53.5	-69.4	3.8	1.49e+00	0	26	104	0	72	23550
2026-01-11 02:32:54.21	336.19	39.12	-53.5	-69.4	3.8	1.49e+00	0	26	104	0	72	23553
2026-01-11 02:32:58.21	334.44	39.39	-53.5	-69.4	3.8	1.49e+00	0	26	104	0	72	23562
2026-01-11 02:33:02.21	332.66	39.63	-53.5	-69.4	3.8	1.49e+00	0	26	104	0	72	23541
2026-01-11 02:33:06.22	330.85	39.85	-53.5	-69.5	3.8	1.49e+00	0	26	104	0	72	23593
2026-01-11 02:33:10.23	329.02	40.03	-53.5	-69.4	3.8	1.49e+00	0	26	104	0	72	23499
2026-01-11 02:33:14.22	327.18	40.17	-53.5	-69.5	3.8	1.49e+00	0	26	104	0	72	23591
2026-01-11 02:33:18.25	325.30	40.29	-53.5	-69.4	3.8	1.49e+00	0	26	104	0	72	23532
2026-01-11 02:33:22.25	323.43	40.37	-53.5	-69.5	3.8	1.49e+00	0	26	104	0	72	23630
2026-01-11 02:33:26.25	321.55	40.42	-53.5	-69.4	3.8	1.49e+00	0	26	104	0	72	23537
2026-01-11 02:33:30.27	319.66	40.43	-53.5	-69.4	3.8	1.49e+00	0	26	104	0	72	23580
2026-01-11 02:33:34.26	317.78	40.40	-53.5	-69.5	3.8	1.49e+00	0	26	104	0	72	23616
2026-01-11 02:33:38.26	315.91	40.34	-53.5	-69.5	3.8	1.49e+00	0	26	104	0	72	23584
2026-01-11 02:33:42.26	314.04	40.25	-53.5	-69.4	3.8	1.49e+00	0	26	104	0	72	23558
2026-01-11 02:33:46.28	312.17	40.12	-53.5	-69.4	3.8	1.49e+00	0	26	104	0	72	23559
2026-01-11 02:33:50.30	310.33	39.95	-53.5	-69.5	3.8	1.49e+00	0	26	104	0	72	23585
2026-01-11 02:33:54.30	308.51	39.76	-53.5	-69.5	3.8	1.49e+00	0	26	104	0	72	23638
2026-01-11 02:33:58.32	306.70	39.53	-53.5	-69.4	3.8	1.49e+00	0	26	104	0	72	23532
2026-01-11 02:34:02.33	304.93	39.28	-53.5	-69.5	3.8	1.49e+00	0	26	104	0	72	23593
2026-01-11 02:34:06.34	303.19	38.99	-53.5	-69.4	3.8	1.49e+00	0	26	104	0	72	23511
2026-01-11 02:34:10.35	301.47	38.68	-53.5	-69.5	3.8	1.49e+00	0	26	104	0	72	23585
2026-01-11 02:34:14.36	299.80	38.34	-53.5	-69.5	3.8	1.49e+00	0	26	104	0	72	23583
2026-01-11 02:34:18.37	298.16	37.98	-53.5	-69.5	3.8	1.49e+00	0	26	104	0	72	23597
2026-01-11 02:34:22.38	296.55	37.60	-53.5	-69.4	3.8	1.49e+00	0	26	104	0	72	23573
2026-01-11 02:34:26.37	294.99	37.19	-53.5	-69.4	3.8	1.49e+00	0	26	104	0	72	23548
2026-01-11 02:34:30.36	293.47	36.77	-53.5	-69.4	3.8	1.49e+00	0	27	104	0	72	23544
2026-01-11 02:34:34.38	291.98	36.33	-53.5	-69.4	3.8	1.49e+00	0	26	104	0	72	23510
2026-01-11 02:34:38.37	290.54	35.88	-53.5	-69.4	3.8	1.49e+00	0	26	104	0	72	23581
2026-01-11 02:34:42.36	289.14	35.41	-53.5	-69.5	3.8	1.49e+00	0	26	104	0	72	23604
2026-01-11 02:34:46.37	287.78	34.93	-53.5	-69.4	3.8	1.49e+00	0	27	104	0	72	23543
2026-01-11 02:34:50.36	286.46	34.44	-53.5	-69.4	3.8	1.49e+00	0	26	104	0	72	23555
2026-01-11 02:34:54.37	285.17	33.94	-53.5	-69.4	3.8	1.49e+00	0	26	104	0	72	23526
2026-01-11 02:34:58.40	283.92	33.43	-53.5	-69.4	3.8	1.49e+00	0	26	104	0	72	23563
2026-01-11 02:35:02.41	282.71	32.92	-53.5	-69.4	3.8	1.49e+00	0	26	104	0	72	23560
2026-01-11 02:35:06.42	281.54	32.40	-53.5	-69.4	3.8	1.49e+00	0	26	104	0	72	23569
2026-01-11 02:35:10.42	280.41	31.88	-53.5	-69.4	3.8	1.49e+00	0	26	104	0	72	23505
2026-01-11 02:35:14.08	279.41	31.40	-53.5	-69.5	3.8	1.49e+00	0	26	104	0	72	23615
2026-01-11 02:35:18.24	278.31	30.85	-53.5	-69.4	3.8	1.49e+00	0	26	104	0	72	23559
2026-01-11 02:35:22.24	277.29	30.32	-53.5	-69.4	3.8	1.49e+00	0	26	104	0	72	23555
2026-01-11 02:35:26.26	276.29	29.79	-53.5	-69.5	3.8	1.49e+00	0	26	104	0	72	23583
2026-01-11 02:35:30.30	275.32	29.25	-53.5	-69.4	3.8	1.49e+00	0	26	104	0	72	23519
2026-01-11 02:35:34.32	274.39	28.72	-53.5	-69.4	3.8	1.49e+00	0	26	104	0	72	23579
2026-01-11 02:35:38.33	273.49	28.20	-53.5	-69.5	3.8	1.49e+00	0	26	104	0	72	23592
2026-01-11 02:35:42.34	272.62	27.67	-53.5	-69.4	3.8	1.49e+00	0	26	104	0	72	23560
2026-01-11 02:35:46.34	271.78	27.15	-53.5	-69.4	3.8	1.49e+00	0	26	104	0	72	23513
2026-01-11 02:35:50.35	270.96	26.63	-53.5	-69.4	3.8	1.49e+00	0	26	104	0	72	23545
2026-01-11 02:35:54.36	270.18	26.12	-53.5	-69.4	3.8	1.49e+00	0	26	104	0	72	23539
2026-01-11 02:35:58.36	269.42	25.61	-53.5	-69.5	3.8	1.49e+00	0	26	104	0	72	23611
2026-01-11 02:36:02.37	268.68	25.10	-53.5	-69.4	3.8	1.49e+00	0	26	104	0	72	23505
2026-01-11 02:36:06.37	267.96	24.60	-53.5	-69.4	3.8	1.49e+00	0	26	104	0	72	23523
2026-01-11 02:36:10.38	267.27	24.10	-53.5	-69.4	3.8	1.49e+00	0	26	104	0	72	23537
2026-01-11 02:36:14.39	266.60	23.61	-53.5	-69.4	3.8	1.49e+00	0	26	104	0	72	23547
2026-01-11 02:36:18.40	265.95	23.12	-53.5	-69.4	3.8	1.49e+00	0	26	104	0	72	23519
2026-01-11 02:36:22.42	265.32	22.64	-53.5	-69.4	3.8	1.49e+00	0	26	104	0	72	23482
2026-01-11 02:36:26.42	264.71	22.16	-53.5	-69.4	3.8	1.49e+00	0	26	104	0	72	23434
2026-01-11 02:36:30.44	264.12	21.69	-53.5	-69.4	3.8	1.49e+00	0	26	104	0	72	23510
2026-01-11 02:36:34.45	263.55	21.22	-53.5	-69.4	3.8	1.49e+00	0	26	104	0	72	23497
2026-01-11 02:36:38.47	262.99	20.76	-53.5	-69.4	3.8	1.49e+00	0	26	104	0	72	23546
2026-01-11 02:36:42.49	262.45	20.30	-53.5	-69.4	3.8	1.49e+00	0	26	104	0	72	23562
2026-01-11 02:36:46.48	261.93	19.86	-53.5	-69.4	3.8	1.49e+00	0	26	104	0	72	23579
2026-01-11 02:36:50.52	261.42	19.41	-53.5	-69.4	3.8	1.49e+00	0	26	104	0	72	23517
2026-01-11 02:36:54.53	260.92	18.97	-53.5	-69.4	3.8	1.49e+00	0	26	104	0	72	23522
2026-01-11 02:36:58.53	260.45	18.54	-53.5	-69.4	3.8	1.49e+00	0	26	104	0	72	23526
2026-01-11 02:37:02.55	259.98	18.11	-53.5	-69.4	3.8	1.49e+00	0	26	104	0	72	23519
2026-01-11 02:37:06.55	259.53	17.69	-53.5	-69.4	3.8	1.49e+00	0	26	104	0	72	23508
2026-01-11 02:37:10.57	259.09	17.27	-53.5	-69.4	3.8	1.49e+00	0	26	104	0	72	23492
2026-01-11 02:37:14.57	258.66	16.86	-53.5	-69.4	3.8	1.49e+00	0	26	104	0	72	23506
2026-01-11 02:37:18.58	258.25	16.45	-53.5	-69.4	3.8	1.49e+00	0	26	104	0	72	23507
2026-01-11 02:37:22.59	257.84	16.05	-53.5	-69.4	3.8	1.49e+00	0	26	104	0	72	23538
2026-01-11 02:37:26.61	257.45	15.65	-53.5	-69.4	3.8	1.49e+00	0	26	104	0	72	23508
2026-01-11 02:37:30.63	257.06	15.26	-53.5	-69.4	3.8	1.49e+00	0	26	104	0	72	23543
2026-01-11 02:37:34.64	256.69	14.87	-53.5	-69.4	3.8	1.49e+00	0	26	104	0	72	23499
2026-01-11 02:37:38.66	256.33	14.49	-53.5	-69.4	3.8	1.49e+00	0	26	104	0	72	23560
2026-01-11 02:37:42.67	255.98	14.12	-53.5	-69.4	3.8	1.49e+00	0	26	104	0	72	23546
2026-01-11 02:37:46.68	255.63	13.74	-53.5	-69.4	3.8	1.49e+00	0	26	104	0	72	23508
2026-01-11 02:37:50.70	255.29	13.37	-53.5	-69.4	3.8	1.49e+00	0	26	104	0	72	23538
2026-01-11 02:37:54.69	254.97	13.01	-53.5	-69.4	3.8	1.49e+00	0	26	104	0	72	23560
2026-01-11 02:37:58.70	254.65	12.65	-53.5	-69.4	3.8	1.49e+00	0	26	104	0	72	23572
2026-01-11 02:38:02.73	254.34	12.30	-53.5	-69.4	3.8	1.49e+00	0	26	104	0	72	23555
2026-01-11 02:38:06.74	254.04	11.95	-53.5	-69.4	3.8	1.49e+00	0	26	104	0	72	23525
2026-01-11 02:38:10.76	253.74	11.60	-53.5	-69.4	3.8	1.49e+00	0	27	104	0	72	23575
2026-01-11 02:38:14.78	253.45	11.26	-53.5	-69.4	3.8	1.49e+00	0	27	104	0	72	23539
2026-01-11 02:38:18.77	253.17	10.92	-53.5	-69.4	3.8	1.49e+00	0	26	104	0	72	23548
2026-01-11 02:38:22.80	252.89	10.59	-53.5	-69.5	3.8	1.49e+00	0	26	104	0	72	23669
2026-01-11 02:38:26.82	252.62	10.26	-53.5	-69.4	3.8	1.49e+00	0	26	104	0	72	23579
2026-01-11 02:38:30.83	252.36	9.93	-53.5	-69.4	3.8	1.49e+00	0	26	104	0	72	23567
2026-01-11 02:38:34.86	252.10	9.61	-53.5	-69.5	3.8	1.49e+00	0	26	104	0	72	23587
2026-01-11 02:38:38.88	251.85	9.29	-53.5	-69.4	3.8	1.49e+00	0	26	104	0	72	23571
2026-01-11 02:38:42.88	251.61	8.97	-53.5	-69.4	3.8	1.49e+00	0	26	104	0	72	23550
2026-01-11 02:38:46.88	251.37	8.66	-53.5	-69.4	3.8	1.49e+00	0	26	104	0	72	23580
2026-01-11 02:38:50.88	251.14	8.35	-53.5	-69.4	3.8	1.49e+00	0	26	104	0	72	23553
2026-01-11 02:38:54.89	250.91	8.05	-53.5	-69.4	3.8	1.49e+00	0	26	104	0	72	23558
2026-01-11 02:38:58.90	250.68	7.74	-53.5	-69.4	3.8	1.49e+00	0	26	104	0	72	23552
2026-01-11 02:39:02.91	250.46	7.44	-53.5	-69.5	3.8	1.49e+00	0	26	104	0	72	23614
2026-01-11 02:39:06.91	250.25	7.15	-53.5	-69.5	3.8	1.49e+00	0	26	104	0	72	23629
2026-01-11 02:39:10.92	250.04	6.86	-53.5	-69.4	3.8	1.49e+00	0	26	104	0	72	23574
2026-01-11 02:39:14.94	249.83	6.56	-53.5	-69.5	3.8	1.49e+00	0	27	104	0	72	23648
2026-01-11 02:39:18.95	249.63	6.28	-53.5	-69.5	3.8	1.49e+00	0	26	104	0	72	23637
2026-01-11 02:39:22.97	249.44	5.99	-53.5	-69.5	3.8	1.49e+00	0	27	104	0	72	23666
2026-01-11 02:39:26.98	249.24	5.71	-53.5	-69.5	3.8	1.49e+00	0	26	104	0	72	23660
2026-01-11 02:39:30.98	249.05	5.43	-53.5	-69.5	3.8	1.49e+00	0	26	104	0	72	23614
2026-01-11 02:39:34.99	248.87	5.16	-53.5	-69.5	3.8	1.49e+00	0	27	104	0	72	23616
2026-01-11 02:39:39.00	248.69	4.88	-53.5	-69.5	3.8	1.49e+00	0	26	104	0	72	23618
2026-01-11 02:39:43.03	248.51	4.61	-53.5	-69.5	3.8	1.49e+00	0	27	104	0	72	23586
2026-01-11 02:39:47.03	248.34	4.34	-53.5	-69.5	3.8	1.49e+00	0	27	104	0	72	23596
2026-01-11 02:39:51.05	248.16	4.07	-53.5	-69.5	3.8	1.49e+00	0	26	104	0	72	23592
2026-01-11 02:39:55.06	248.00	3.81	-53.5	-69.4	3.8	1.49e+00	0	26	104	0	72	23574
2026-01-11 02:39:59.07	247.83	3.55	-53.5	-69.4	3.8	1.49e+00	0	26	104	0	72	23572
2026-01-11 02:40:03.09	247.67	3.29	-53.5	-69.5	3.8	1.49e+00	0	27	104	0	72	23650
2026-01-11 02:40:07.11	247.51	3.03	-53.5	-69.5	3.8	1.49e+00	0	26	104	0	72	23617
2026-01-11 02:40:11.12	247.36	2.77	-53.6	-69.5	3.8	1.49e+00	0	27	104	0	72	23636
2026-01-11 02:40:15.13	247.20	2.52	-53.6	-69.5	3.8	1.49e+00	0	26	104	0	72	23636
2026-01-11 02:40:19.15	247.05	2.27	-53.5	-69.5	3.8	1.49e+00	0	27	104	0	72	23591
2026-01-11 02:40:23.16	246.91	2.02	-53.5	-69.5	3.8	1.49e+00	0	27	104	0	72	23649

#Closed at: 2026-01-11 02:40:23
#Recorded file [0 MB]: D:/lorett/data/31004_260111_052633.dat