passes_logs/2026/01/11/R3.2S_Murmansk/R3.2S_Murmansk__20260111_221715_NOAA_21_JPSS-2_rec.log

#Pass ID: 20260111_221715_NOAA 21 (JPSS-2)
#Satellite: NOAA 21 (JPSS-2)
#Configuration: NOAA-21
#almurnet v.1.7.20251203
#Start time: 2026-01-11 22:17:17

#Version: 2.2.20231116
#Station: R3.2S_Murmansk
#Location: 33.079688 lon 68.888172 lat
#TLE: 1 54234U 22150A   26011.55893233  .00000075  00000+0  56634-4 0  9995
#TLE: 2 54234  98.7494 312.5004 0000755 313.1908  46.9205 14.19534095164321

#Time	Az	El	Level	Level2	SNR	BER	BlckErr	Temp	State	Recorded	gain1	gain2
2026-01-11 22:17:17.08	18.79	2.08	-57.1	-70.7	3.8	1.49e+00	0	21	0	0	80	17241
2026-01-11 22:17:21.10	19.08	2.30	-57.0	-70.6	3.8	1.49e+00	0	21	104	0	79	18011
2026-01-11 22:17:25.14	19.38	2.52	-57.1	-70.8	3.8	1.49e+00	0	21	104	0	79	18387
2026-01-11 22:17:29.18	19.67	2.74	-57.0	-70.8	3.8	1.49e+00	0	21	104	0	79	18382
2026-01-11 22:17:33.22	19.98	2.97	-57.0	-70.6	3.8	1.49e+00	0	21	104	0	79	17918
2026-01-11 22:17:37.25	20.28	3.19	-57.0	-69.2	3.9	1.49e+00	0	21	104	0	79	15395
2026-01-11 22:17:41.29	20.59	3.42	-56.9	-68.9	3.9	1.49e+00	0	21	104	0	79	14713
2026-01-11 22:17:45.32	20.91	3.65	-56.8	-67.1	4.2	1.47e+00	0	21	104	0	79	12026
2026-01-11 22:17:49.36	21.23	3.88	-56.7	-66.2	4.6	1.24e+00	0	21	104	0	79	10815
2026-01-11 22:17:53.39	21.55	4.11	-55.9	-62.0	7.2	1.20e-01	0	22	0	6291456	78	7105
2026-01-11 22:17:57.43	21.88	4.34	-53.3	-56.2	12.1	3.58e-05	0	22	0	18874368	73	4815
2026-01-11 22:18:01.47	22.22	4.57	-52.1	-54.5	13.1	0.00e+00	0	22	0	31457280	70	4708
2026-01-11 22:18:05.50	22.56	4.80	-53.8	-57.2	11.0	9.23e-05	0	22	0	44040192	72	5781
2026-01-11 22:18:09.53	22.90	5.04	-54.7	-58.6	10.2	5.45e-02	0	22	0	56623104	76	5363
2026-01-11 22:18:13.56	23.25	5.28	-53.2	-55.9	12.2	4.56e-02	0	22	0	66060288	73	4670
2026-01-11 22:18:17.60	23.61	5.51	-52.4	-54.8	12.9	0.00e+00	0	22	0	79691776	70	4911
2026-01-11 22:18:21.63	23.97	5.75	-52.3	-54.7	13.0	0.00e+00	0	22	0	92274688	70	4819
2026-01-11 22:18:25.66	24.33	5.99	-51.6	-53.6	13.7	0.00e+00	0	22	0	104857600	69	4519
2026-01-11 22:18:29.69	24.70	6.23	-51.1	-53.0	14.0	0.00e+00	0	22	0	117440512	68	4472
2026-01-11 22:18:33.71	25.08	6.47	-51.0	-52.8	14.1	0.00e+00	0	22	0	130023424	68	4372
2026-01-11 22:18:37.75	25.47	6.72	-50.4	-52.1	14.4	0.00e+00	0	22	0	142606336	67	4286
2026-01-11 22:18:41.78	25.86	6.96	-50.5	-52.2	14.3	0.00e+00	0	22	0	155189248	67	4330
2026-01-11 22:18:45.81	26.25	7.21	-50.4	-52.0	14.5	0.00e+00	0	22	0	167772160	67	4235
2026-01-11 22:18:49.85	26.65	7.46	-50.6	-52.4	14.2	0.00e+00	0	22	0	180355072	67	4405
2026-01-11 22:18:53.89	27.06	7.71	-50.2	-51.8	14.5	0.00e+00	0	22	0	192937984	66	4360
2026-01-11 22:18:57.92	27.48	7.96	-50.1	-51.7	14.6	0.00e+00	0	22	0	205520896	66	4303
2026-01-11 22:19:01.96	27.90	8.21	-50.3	-52.0	14.4	0.00e+00	0	22	0	218103808	66	4445
2026-01-11 22:19:06.00	28.33	8.46	-50.1	-51.8	14.5	0.00e+00	0	22	0	230686720	66	4341
2026-01-11 22:19:10.03	28.77	8.72	-50.0	-51.5	14.6	0.00e+00	0	22	0	243269632	66	4232
2026-01-11 22:19:14.07	29.22	8.97	-49.9	-51.5	14.7	0.00e+00	0	22	0	255852544	66	4211
2026-01-11 22:19:18.11	29.67	9.23	-49.6	-51.1	14.7	0.00e+00	0	22	0	268435456	65	4286
2026-01-11 22:19:22.15	30.13	9.49	-49.6	-51.1	14.7	0.00e+00	0	22	0	281018368	65	4279
2026-01-11 22:19:26.18	30.60	9.74	-49.4	-50.9	14.9	0.00e+00	0	22	0	293601280	65	4176
2026-01-11 22:19:30.22	31.07	10.00	-49.4	-50.9	14.9	0.00e+00	0	22	0	306184192	65	4173
2026-01-11 22:19:34.26	31.56	10.27	-49.4	-50.8	14.9	0.00e+00	0	22	0	318767104	65	4131
2026-01-11 22:19:38.29	32.05	10.53	-49.1	-50.5	14.9	0.00e+00	0	22	0	331350016	64	4234
2026-01-11 22:19:42.31	32.55	10.79	-49.0	-50.4	15.0	0.00e+00	0	22	0	343932928	64	4174
2026-01-11 22:19:46.35	33.06	11.05	-49.1	-50.5	14.9	0.00e+00	0	22	0	356515840	64	4230
2026-01-11 22:19:50.39	33.58	11.32	-48.6	-50.0	15.1	0.00e+00	0	22	0	369098752	63	4199
2026-01-11 22:19:54.42	34.10	11.58	-48.4	-49.7	15.2	0.00e+00	0	22	0	381681664	63	4097
2026-01-11 22:19:58.46	34.64	11.85	-48.6	-49.9	15.1	0.00e+00	0	22	0	394264576	63	4178
2026-01-11 22:20:02.50	35.19	12.11	-48.7	-50.1	15.1	0.00e+00	0	23	0	406847488	63	4266
2026-01-11 22:20:06.54	35.74	12.38	-48.6	-50.0	15.1	0.00e+00	0	22	0	419430400	63	4208
2026-01-11 22:20:10.57	36.31	12.65	-48.6	-49.9	15.1	0.00e+00	0	23	0	432013312	63	4174
2026-01-11 22:20:14.61	36.88	12.92	-48.6	-49.9	15.1	0.00e+00	0	23	0	444596224	63	4161
2026-01-11 22:20:18.64	37.47	13.19	-48.8	-50.2	15.0	0.00e+00	0	23	0	457179136	63	4315
2026-01-11 22:20:22.68	38.06	13.45	-48.6	-50.0	15.1	0.00e+00	0	23	0	469762048	63	4201
2026-01-11 22:20:26.71	38.67	13.72	-48.4	-49.7	15.3	0.00e+00	0	23	0	482344960	63	4057
2026-01-11 22:20:30.74	39.29	13.99	-48.5	-49.8	15.2	0.00e+00	0	22	0	494927872	63	4106
2026-01-11 22:20:34.77	39.91	14.26	-48.5	-49.8	15.2	0.00e+00	0	22	0	507510784	63	4142
2026-01-11 22:20:38.80	40.55	14.53	-48.2	-49.5	15.3	0.00e+00	0	23	0	520093696	63	3974
2026-01-11 22:20:42.84	41.20	14.80	-48.2	-49.5	15.2	0.00e+00	0	22	0	532676608	62	4201
2026-01-11 22:20:46.87	41.86	15.06	-48.4	-49.7	15.1	0.00e+00	0	23	0	545259520	62	4322
2026-01-11 22:20:50.90	42.54	15.33	-48.2	-49.4	15.2	0.00e+00	0	23	0	557842432	62	4182
2026-01-11 22:20:54.93	43.22	15.60	-48.2	-49.4	15.2	0.00e+00	0	23	0	570425344	62	4186
2026-01-11 22:20:58.97	43.92	15.86	-48.2	-49.5	15.2	0.00e+00	0	23	0	583008256	62	4227
2026-01-11 22:21:03.00	44.63	16.13	-48.1	-49.3	15.3	0.00e+00	0	23	0	595591168	62	4142
2026-01-11 22:21:07.03	45.35	16.39	-48.1	-49.4	15.2	0.00e+00	0	23	0	609222656	62	4151
2026-01-11 22:21:11.07	46.08	16.65	-48.2	-49.5	15.2	0.00e+00	0	23	0	620756992	62	4203
2026-01-11 22:21:15.10	46.83	16.91	-48.3	-49.6	15.1	0.00e+00	0	23	0	634388480	62	4266
2026-01-11 22:21:19.14	47.59	17.17	-48.3	-49.6	15.2	0.00e+00	0	23	0	646971392	62	4276
2026-01-11 22:21:23.18	48.36	17.42	-48.0	-49.2	15.3	0.00e+00	0	23	0	659554304	62	4086
2026-01-11 22:21:27.21	49.14	17.68	-48.0	-49.3	15.3	0.00e+00	0	23	0	672137216	62	4115
2026-01-11 22:21:31.25	49.94	17.93	-48.2	-49.5	15.2	0.00e+00	0	23	0	684720128	62	4216
2026-01-11 22:21:35.28	50.75	18.18	-48.4	-49.7	15.1	0.00e+00	0	22	0	697303040	62	4337
2026-01-11 22:21:39.31	51.57	18.42	-48.1	-49.3	15.3	0.00e+00	0	22	0	709885952	62	4139
2026-01-11 22:21:43.34	52.41	18.66	-48.4	-49.7	15.1	0.00e+00	0	23	0	722468864	62	4300
2026-01-11 22:21:47.38	53.26	18.90	-48.3	-49.6	15.2	0.00e+00	0	23	0	735051776	62	4247
2026-01-11 22:21:51.41	54.12	19.13	-48.1	-49.3	15.3	0.00e+00	0	22	0	747634688	62	4130
2026-01-11 22:21:55.44	54.99	19.36	-48.2	-49.5	15.2	0.00e+00	0	23	0	760217600	62	4214
2026-01-11 22:21:59.48	55.88	19.59	-48.3	-49.6	15.2	0.00e+00	0	23	0	772800512	62	4251
2026-01-11 22:22:03.46	56.77	19.81	-47.9	-49.1	15.4	0.00e+00	0	23	0	785383424	62	4017
2026-01-11 22:22:07.50	57.68	20.02	-48.0	-49.3	15.3	0.00e+00	0	23	0	797966336	62	4101
2026-01-11 22:22:11.53	58.60	20.23	-48.2	-49.4	15.2	0.00e+00	0	23	0	810549248	62	4178
2026-01-11 22:22:15.56	59.54	20.44	-47.5	-48.7	15.4	0.00e+00	0	23	0	823132160	61	4070
2026-01-11 22:22:19.59	60.49	20.63	-47.8	-49.0	15.3	0.00e+00	0	23	0	835715072	61	4240
2026-01-11 22:22:23.63	61.45	20.83	-47.9	-49.2	15.2	0.00e+00	0	23	0	848297984	61	4292
2026-01-11 22:22:27.66	62.42	21.01	-47.7	-48.9	15.3	0.00e+00	0	23	0	860880896	61	4148
2026-01-11 22:22:31.70	63.41	21.19	-47.6	-48.8	15.4	0.00e+00	0	23	0	873463808	61	4117
2026-01-11 22:22:35.73	64.40	21.36	-47.6	-48.8	15.3	0.00e+00	0	23	0	886046720	61	4144
2026-01-11 22:22:39.76	65.41	21.52	-47.8	-49.0	15.3	0.00e+00	0	23	0	898629632	61	4226
2026-01-11 22:22:43.80	66.42	21.68	-47.7	-48.9	15.3	0.00e+00	0	23	0	911212544	61	4154
2026-01-11 22:22:47.84	67.45	21.83	-47.7	-48.9	15.3	0.00e+00	0	23	0	923795456	61	4158
2026-01-11 22:22:51.86	68.48	21.96	-47.7	-49.0	15.3	0.00e+00	0	23	0	936378368	61	4194
2026-01-11 22:22:55.89	69.53	22.09	-47.8	-49.0	15.3	0.00e+00	0	23	0	948961280	61	4210
2026-01-11 22:22:59.93	70.58	22.22	-47.7	-48.9	15.3	0.00e+00	0	23	0	961544192	61	4177
2026-01-11 22:23:03.97	71.64	22.33	-47.9	-49.1	15.2	0.00e+00	0	23	0	974127104	61	4267
2026-01-11 22:23:08.00	72.71	22.43	-47.5	-48.7	15.4	0.00e+00	0	23	0	986710016	61	4081
2026-01-11 22:23:12.02	73.78	22.52	-47.5	-48.7	15.4	0.00e+00	0	23	0	999292928	61	4091
2026-01-11 22:23:16.06	74.86	22.60	-47.5	-48.7	15.4	0.00e+00	0	23	0	1011875840	61	4096
2026-01-11 22:23:20.09	75.95	22.68	-47.6	-48.8	15.3	0.00e+00	0	23	0	1024458752	61	4137
2026-01-11 22:23:24.13	77.04	22.74	-47.6	-48.8	15.4	0.00e+00	0	23	0	1037041664	61	4099
2026-01-11 22:23:28.17	78.13	22.79	-47.7	-48.9	15.3	0.00e+00	0	23	0	1049624576	61	4185
2026-01-11 22:23:32.21	79.23	22.83	-47.7	-48.9	15.3	0.00e+00	0	23	0	1062207488	61	4182
2026-01-11 22:23:36.24	80.33	22.86	-47.5	-48.6	15.4	0.00e+00	0	23	0	1074790400	61	4043
2026-01-11 22:23:40.27	81.43	22.88	-47.6	-48.8	15.4	0.00e+00	0	23	0	1087373312	61	4114
2026-01-11 22:23:44.28	82.53	22.89	-47.5	-48.7	15.4	0.00e+00	0	23	0	1099956224	61	4078
2026-01-11 22:23:48.32	83.63	22.89	-47.8	-49.1	15.3	0.00e+00	0	23	0	1112539136	61	4243
2026-01-11 22:23:52.36	84.74	22.88	-47.6	-48.7	15.4	0.00e+00	0	23	0	1125122048	61	4092
2026-01-11 22:23:56.39	85.84	22.86	-47.5	-48.7	15.4	0.00e+00	0	23	0	1137704960	61	4090
2026-01-11 22:24:00.43	86.94	22.82	-47.1	-48.3	15.4	0.00e+00	0	23	0	1150287872	60	4124
2026-01-11 22:24:04.46	88.04	22.78	-47.5	-48.6	15.3	0.00e+00	0	23	0	1162870784	60	4285
2026-01-11 22:24:08.49	89.13	22.72	-47.3	-48.5	15.3	0.00e+00	0	23	0	1175453696	60	4219
2026-01-11 22:24:12.53	90.22	22.66	-47.3	-48.5	15.4	0.00e+00	0	23	0	1188036608	60	4197
2026-01-11 22:24:16.57	91.31	22.58	-47.4	-48.6	15.3	0.00e+00	0	23	0	1200619520	60	4278
2026-01-11 22:24:20.60	92.39	22.50	-47.5	-48.7	15.3	0.00e+00	0	23	0	1213202432	60	4298
2026-01-11 22:24:24.63	93.46	22.40	-47.4	-48.5	15.3	0.00e+00	0	23	0	1225785344	60	4234
2026-01-11 22:24:28.67	94.53	22.30	-47.6	-48.8	15.2	0.00e+00	0	23	0	1238368256	60	4352
2026-01-11 22:24:32.70	95.59	22.18	-47.5	-48.6	15.3	0.00e+00	0	23	0	1250951168	60	4289
2026-01-11 22:24:36.73	96.64	22.06	-47.6	-48.8	15.2	0.00e+00	0	23	0	1263534080	60	4365
2026-01-11 22:24:40.76	97.68	21.92	-47.4	-48.6	15.3	0.00e+00	0	23	0	1276116992	60	4270
2026-01-11 22:24:44.80	98.72	21.78	-47.6	-48.8	15.3	0.00e+00	0	23	0	1288699904	60	4369
2026-01-11 22:24:48.82	99.74	21.63	-47.6	-48.8	15.2	0.00e+00	0	23	0	1301282816	60	4376
2026-01-11 22:24:52.86	100.76	21.47	-47.6	-48.8	15.2	0.00e+00	0	23	0	1313865728	60	4378
2026-01-11 22:24:56.89	101.76	21.31	-47.8	-49.0	15.1	0.00e+00	0	23	0	1327497216	60	4485
2026-01-11 22:25:00.93	102.76	21.13	-47.8	-49.1	15.2	0.00e+00	0	23	0	1340080128	61	4250
2026-01-11 22:25:04.97	103.74	20.95	-47.9	-49.1	15.2	0.00e+00	0	23	0	1352663040	61	4288
2026-01-11 22:25:09.01	104.71	20.76	-47.8	-49.1	15.3	0.00e+00	0	23	0	1365245952	61	4255
2026-01-11 22:25:13.04	105.67	20.57	-47.8	-49.1	15.3	0.00e+00	0	23	0	1377828864	61	4245
2026-01-11 22:25:17.07	106.62	20.37	-48.0	-49.3	15.2	0.00e+00	0	23	0	1390411776	61	4347
2026-01-11 22:25:21.10	107.56	20.16	-47.9	-49.2	15.2	0.00e+00	0	23	0	1402994688	61	4308
2026-01-11 22:25:25.13	108.48	19.95	-47.8	-49.0	15.3	0.00e+00	0	23	0	1415577600	61	4209
2026-01-11 22:25:29.16	109.39	19.73	-47.9	-49.1	15.2	0.00e+00	0	23	0	1428160512	61	4271
2026-01-11 22:25:33.20	110.29	19.51	-47.8	-49.0	15.3	0.00e+00	0	23	0	1440743424	61	4235
2026-01-11 22:25:37.24	111.18	19.28	-48.1	-49.4	15.1	0.00e+00	0	23	0	1453326336	61	4394
2026-01-11 22:25:41.26	112.05	19.05	-48.0	-49.2	15.2	0.00e+00	0	23	0	1465909248	61	4314
2026-01-11 22:25:45.29	112.91	18.81	-48.1	-49.3	15.1	0.00e+00	0	23	0	1478492160	61	4373
2026-01-11 22:25:49.33	113.76	18.57	-48.2	-49.5	15.1	0.00e+00	0	23	0	1491075072	61	4449
2026-01-11 22:25:53.36	114.59	18.33	-48.0	-49.2	15.2	0.00e+00	0	23	0	1503657984	61	4328
2026-01-11 22:25:57.39	115.41	18.08	-47.9	-49.2	15.2	0.00e+00	0	23	0	1516240896	61	4310
2026-01-11 22:26:01.43	116.22	17.83	-48.0	-49.2	15.1	0.00e+00	0	23	0	1528823808	61	4326
2026-01-11 22:26:05.47	117.02	17.58	-48.1	-49.4	15.1	0.00e+00	0	22	0	1541406720	61	4408
2026-01-11 22:26:09.50	117.80	17.32	-48.0	-49.3	15.1	0.00e+00	0	23	0	1553989632	61	4347
2026-01-11 22:26:13.53	118.57	17.06	-48.2	-49.4	15.1	0.00e+00	0	23	0	1566572544	61	4436
2026-01-11 22:26:17.57	119.33	16.80	-48.1	-49.4	15.1	0.00e+00	0	23	0	1579155456	61	4425
2026-01-11 22:26:21.60	120.07	16.54	-48.3	-49.6	15.0	0.00e+00	0	23	0	1591738368	61	4504
2026-01-11 22:26:25.63	120.80	16.28	-48.1	-49.4	15.1	0.00e+00	0	23	0	1604321280	61	4432
2026-01-11 22:26:29.66	121.52	16.01	-48.2	-49.5	15.0	0.00e+00	0	23	0	1616904192	61	4491
2026-01-11 22:26:33.69	122.23	15.75	-48.2	-49.5	15.0	0.00e+00	0	23	0	1629487104	61	4488
2026-01-11 22:26:37.73	122.92	15.48	-48.1	-49.4	15.1	0.00e+00	0	23	0	1642070016	61	4417
2026-01-11 22:26:41.76	123.61	15.21	-48.2	-49.5	15.0	0.00e+00	0	23	0	1654652928	61	4484
2026-01-11 22:26:45.79	124.28	14.94	-48.6	-50.0	14.9	0.00e+00	0	23	0	1667235840	62	4446
2026-01-11 22:26:49.83	124.94	14.67	-48.8	-50.3	14.8	0.00e+00	0	23	0	1679818752	62	4600
2026-01-11 22:26:53.87	125.59	14.40	-48.8	-50.2	15.0	0.00e+00	0	23	0	1692401664	63	4303
2026-01-11 22:26:57.90	126.22	14.13	-48.9	-50.3	14.9	0.00e+00	0	23	0	1704984576	63	4342
2026-01-11 22:27:01.93	126.85	13.86	-49.0	-50.5	14.8	0.00e+00	0	23	0	1717567488	63	4444
2026-01-11 22:27:05.96	127.46	13.59	-48.8	-50.1	15.0	0.00e+00	0	23	0	1730150400	63	4275
2026-01-11 22:27:10.00	128.07	13.32	-48.7	-50.1	15.0	0.00e+00	0	23	0	1742733312	63	4255
2026-01-11 22:27:14.03	128.66	13.05	-49.0	-50.4	14.8	0.00e+00	0	23	0	1755316224	63	4436
2026-01-11 22:27:18.07	129.25	12.78	-49.2	-50.6	14.7	0.00e+00	0	23	0	1767899136	63	4539
2026-01-11 22:27:22.11	129.82	12.51	-49.2	-50.6	14.7	0.00e+00	0	23	0	1780482048	63	4517
2026-01-11 22:27:26.15	130.39	12.24	-49.1	-50.5	14.7	0.00e+00	0	23	0	1793064960	63	4470
2026-01-11 22:27:30.18	130.94	11.97	-48.9	-50.3	14.8	0.00e+00	0	23	0	1805647872	63	4364
2026-01-11 22:27:34.22	131.48	11.70	-49.3	-50.8	14.6	0.00e+00	0	23	0	1818230784	63	4606
2026-01-11 22:27:38.26	132.02	11.43	-49.4	-50.8	14.7	0.00e+00	0	23	0	1830813696	64	4387
2026-01-11 22:27:42.29	132.54	11.17	-49.2	-50.7	14.7	0.00e+00	0	23	0	1843396608	64	4327
2026-01-11 22:27:46.33	133.06	10.90	-49.3	-50.8	14.7	0.00e+00	0	23	0	1855979520	64	4376
2026-01-11 22:27:50.36	133.57	10.64	-49.3	-50.8	14.7	0.00e+00	0	23	0	1868562432	64	4374
2026-01-11 22:27:54.40	134.06	10.37	-49.2	-50.7	14.7	0.00e+00	0	23	0	1882193920	64	4303
2026-01-11 22:27:58.43	134.55	10.11	-49.3	-50.7	14.7	0.00e+00	0	23	0	1894776832	64	4336
2026-01-11 22:28:02.47	135.04	9.85	-49.3	-50.8	14.7	0.00e+00	0	23	0	1907359744	64	4378
2026-01-11 22:28:06.50	135.51	9.59	-49.4	-50.9	14.6	0.00e+00	0	23	0	1919942656	64	4430
2026-01-11 22:28:10.54	135.97	9.32	-49.2	-50.6	14.7	0.00e+00	0	23	0	1932525568	64	4289
2026-01-11 22:28:14.57	136.43	9.07	-49.3	-50.7	14.7	0.00e+00	0	23	0	1945108480	64	4336
2026-01-11 22:28:18.61	136.88	8.81	-49.4	-50.9	14.6	0.00e+00	0	23	0	1957691392	64	4407
2026-01-11 22:28:22.64	137.32	8.55	-49.4	-51.0	14.5	0.00e+00	0	23	0	1970274304	64	4445
2026-01-11 22:28:26.68	137.76	8.30	-49.6	-51.2	14.4	0.00e+00	0	23	0	1982857216	64	4548
2026-01-11 22:28:30.72	138.19	8.04	-49.6	-51.2	14.4	0.00e+00	0	23	0	1995440128	64	4591
2026-01-11 22:28:34.76	138.61	7.79	-49.9	-51.6	14.2	0.00e+00	0	23	0	2008023040	64	4766
2026-01-11 22:28:38.79	139.02	7.54	-49.9	-51.5	14.3	0.00e+00	0	23	0	2020605952	65	4481
2026-01-11 22:28:42.82	139.43	7.29	-50.0	-51.7	14.2	0.00e+00	0	23	0	2033188864	65	4565
2026-01-11 22:28:46.86	139.83	7.04	-50.2	-52.0	14.0	0.00e+00	0	23	0	2045771776	65	4732
2026-01-11 22:28:50.90	140.22	6.79	-50.1	-51.8	14.1	0.00e+00	0	23	0	2058354688	65	4636
2026-01-11 22:28:54.93	140.61	6.54	-50.2	-51.9	14.0	0.00e+00	0	23	0	2070937600	65	4698
2026-01-11 22:28:58.97	140.99	6.30	-50.3	-52.2	13.9	0.00e+00	0	23	0	2083520512	65	4820
2026-01-11 22:29:03.00	141.37	6.05	-50.5	-52.4	13.8	0.00e+00	0	23	0	2096103424	66	4669
2026-01-11 22:29:07.04	141.74	5.81	-50.5	-52.4	13.8	0.00e+00	0	23	0	2108686336	66	4671
2026-01-11 22:29:11.07	142.10	5.57	-50.8	-52.8	13.7	0.00e+00	0	23	0	2121269248	67	4606
2026-01-11 22:29:15.09	142.46	5.33	-51.0	-53.0	13.5	0.00e+00	0	23	0	2133852160	67	4755
2026-01-11 22:29:19.12	142.81	5.09	-50.8	-52.8	13.6	0.00e+00	0	23	0	2146435072	67	4638
2026-01-11 22:29:23.15	143.15	4.85	-57.9	-71.7	3.8	1.49e+00	0	23	104	2151677952	80	19289
2026-01-11 22:29:27.19	143.50	4.62	-58.6	-72.4	3.8	1.49e+00	0	23	104	2151677952	82	18688
2026-01-11 22:29:31.22	143.83	4.38	-58.9	-72.8	3.8	1.49e+00	0	23	104	2151677952	83	18384
2026-01-11 22:29:35.26	144.16	4.15	-59.2	-73.0	3.8	1.49e+00	0	23	104	2151677952	83	18910
2026-01-11 22:29:39.29	144.49	3.92	-59.4	-73.2	3.8	1.49e+00	0	23	104	2151677952	83	19332
2026-01-11 22:29:43.33	144.81	3.68	-59.6	-73.4	3.8	1.49e+00	0	23	104	2151677952	84	18638
2026-01-11 22:29:47.37	145.13	3.45	-59.5	-73.4	3.8	1.49e+00	0	23	104	2151677952	84	18544
2026-01-11 22:29:51.40	145.44	3.22	-59.5	-73.3	3.8	1.49e+00	0	23	104	2151677952	84	18476
2026-01-11 22:29:55.44	145.75	3.00	-59.5	-73.3	3.8	1.49e+00	0	23	104	2151677952	84	18425
2026-01-11 22:29:59.47	146.05	2.77	-59.5	-73.3	3.8	1.49e+00	0	23	104	2151677952	84	18349
2026-01-11 22:30:03.51	146.35	2.55	-59.5	-73.3	3.8	1.49e+00	0	23	104	2151677952	84	18333
2026-01-11 22:30:07.54	146.64	2.32	-59.4	-73.2	3.8	1.49e+00	0	23	104	2151677952	84	18300
2026-01-11 22:30:11.57	146.93	2.10	-59.4	-73.2	3.8	1.49e+00	0	23	104	2151677952	84	18282

#Closed at: 2026-01-11 22:30:13
#Recorded file [2151 MB]: D:/lorett/data/31004_260112_011716.dat