passes_logs/2026/01/11/R3.2S_Murmansk/R3.2S_Murmansk__20260111_193238_TY-42_rec.log

#Pass ID: 20260111_193238_TY-42
#Satellite: TY-42
#Configuration: TY-42_900M
#almurnet v.1.7.20251203
#Start time: 2026-01-11 19:32:39

#Version: 2.2.20231116
#Station: R3.2S_Murmansk
#Location: 33.079688 lon 68.888172 lat
#TLE: 1 64048U 25103A   26011.68099537  .00008011  00000-0  38191-3 0 09995
#TLE: 2 64048 097.4120 087.1608 0001830 092.1753 308.0209 15.19172866 36317

#Time	Az	El	Level	Level2	SNR	BER	BlckErr	Temp	State	Recorded	gain1	gain2
2026-01-11 19:32:39.10	177.51	2.02	-56.8	-60.1	6.2	0.00e+00	0	27	0	0	80	20914
2026-01-11 19:32:42.12	177.63	2.23	-56.9	-60.1	6.2	0.00e+00	0	28	104	0	81	19853
2026-01-11 19:32:45.15	177.75	2.44	-57.0	-60.1	6.2	0.00e+00	0	28	104	0	81	19904
2026-01-11 19:32:48.17	177.87	2.65	-56.9	-60.1	6.2	0.00e+00	0	28	104	0	81	19927
2026-01-11 19:32:51.18	178.00	2.86	-56.9	-60.1	6.2	0.00e+00	0	28	104	0	81	19905
2026-01-11 19:32:54.21	178.12	3.08	-56.9	-60.1	6.2	0.00e+00	0	29	104	0	81	19923
2026-01-11 19:32:57.22	178.25	3.30	-57.0	-60.2	6.2	0.00e+00	0	29	104	0	81	19961
2026-01-11 19:33:00.24	178.38	3.52	-57.0	-60.2	6.2	0.00e+00	0	29	104	0	81	19974
2026-01-11 19:33:03.27	178.52	3.74	-57.0	-60.2	6.2	0.00e+00	0	29	104	0	81	20000
2026-01-11 19:33:06.29	178.65	3.97	-57.0	-60.2	6.2	0.00e+00	0	29	104	0	81	19946
2026-01-11 19:33:09.31	178.79	4.19	-57.0	-60.2	6.2	0.00e+00	0	29	104	0	81	19965
2026-01-11 19:33:12.34	178.93	4.42	-57.0	-60.2	6.2	0.00e+00	0	29	104	0	81	20026
2026-01-11 19:33:15.36	179.08	4.66	-57.0	-60.2	6.2	0.00e+00	0	29	104	0	81	19937
2026-01-11 19:33:18.38	179.22	4.89	-57.0	-60.2	6.2	0.00e+00	0	30	104	0	81	20013
2026-01-11 19:33:21.39	179.37	5.13	-57.1	-60.3	6.2	0.00e+00	0	30	104	0	81	20231
2026-01-11 19:33:24.41	179.53	5.37	-57.0	-60.2	6.2	0.00e+00	0	30	104	0	81	20135
2026-01-11 19:33:27.41	179.68	5.61	-42.9	-43.3	11.7	4.91e-02	0	31	0	276824064	52	15132
2026-01-11 19:33:30.43	179.84	5.86	-42.6	-43.0	11.8	3.72e-02	0	31	0	612368384	52	14616
2026-01-11 19:33:33.45	180.00	6.10	-42.6	-42.9	11.8	3.03e-02	0	31	0	956301312	51	15398
2026-01-11 19:33:36.45	180.16	6.35	-42.7	-43.0	11.8	3.10e-02	0	31	0	1291845632	51	15568
2026-01-11 19:33:39.46	180.33	6.61	-42.4	-42.7	11.9	2.97e-02	0	32	0	1635778560	51	15045
2026-01-11 19:33:42.48	180.50	6.87	-42.1	-42.4	12.1	2.37e-02	0	32	0	1971322880	51	14566
2026-01-11 19:33:45.50	180.68	7.13	-42.2	-42.5	12.0	2.18e-02	0	32	0	2315255808	51	14698
2026-01-11 19:33:48.51	180.85	7.39	-42.2	-42.6	12.1	2.45e-02	0	32	0	2650800128	51	14789
2026-01-11 19:33:51.53	181.04	7.66	-42.2	-42.5	12.1	2.53e-02	0	32	0	2986344448	51	14681
2026-01-11 19:33:54.54	181.22	7.93	-41.8	-42.1	12.2	2.29e-02	0	32	0	3321888768	50	14888
2026-01-11 19:33:57.56	181.41	8.21	-41.7	-42.0	12.2	2.00e-02	0	32	0	3665821696	50	14756
2026-01-11 19:34:00.58	181.61	8.49	-41.5	-41.8	12.3	1.75e-02	0	33	0	4001366016	50	14360
2026-01-11 19:34:03.60	181.81	8.77	-41.3	-41.6	12.3	1.49e-02	0	33	0	4345298944	49	14827
2026-01-11 19:34:06.61	182.01	9.06	-41.3	-41.6	12.3	1.32e-02	0	33	0	4689231872	49	14795
2026-01-11 19:34:09.61	182.22	9.35	-41.0	-41.3	12.4	1.26e-02	0	33	0	5024776192	49	14410
2026-01-11 19:34:12.63	182.43	9.64	-40.8	-41.1	12.4	1.07e-02	0	33	0	5360320512	48	14888
2026-01-11 19:34:15.64	182.65	9.94	-40.7	-41.0	12.5	9.89e-03	0	33	0	5695864832	48	14642
2026-01-11 19:34:18.66	182.87	10.25	-40.7	-41.0	12.5	8.63e-03	0	33	0	6039797760	48	14644
2026-01-11 19:34:21.67	183.10	10.56	-40.5	-40.7	12.6	7.82e-03	0	33	0	6375342080	48	14274
2026-01-11 19:34:24.68	183.34	10.87	-39.5	-39.8	12.5	7.40e-03	0	34	0	6719275008	46	14336
2026-01-11 19:34:27.70	183.58	11.19	-39.5	-39.8	12.5	7.40e-03	0	34	0	7063207936	46	14389
2026-01-11 19:34:30.71	183.82	11.51	-39.3	-39.6	12.5	7.50e-03	0	34	0	7398752256	45	14841
2026-01-11 19:34:33.72	184.08	11.84	-39.1	-39.4	12.5	7.50e-03	0	34	0	7734296576	45	14529
2026-01-11 19:34:36.73	184.34	12.18	-39.0	-39.3	12.6	4.83e-03	0	34	0	8069840896	45	14284
2026-01-11 19:34:39.74	184.60	12.52	-38.8	-39.1	12.6	5.43e-03	0	34	0	8413773824	44	14795
2026-01-11 19:34:42.76	184.88	12.87	-38.7	-39.0	12.6	4.54e-03	0	34	0	8749318144	44	14697
2026-01-11 19:34:45.77	185.16	13.22	-38.5	-38.7	12.7	3.65e-03	0	34	0	9093251072	44	14266
2026-01-11 19:34:48.78	185.45	13.58	-38.4	-38.6	12.6	3.25e-03	0	34	0	9428795392	43	14918
2026-01-11 19:34:51.80	185.74	13.94	-38.2	-38.5	12.7	3.32e-03	0	34	0	9772728320	43	14684
2026-01-11 19:34:54.82	186.05	14.31	-37.9	-38.2	12.8	2.64e-03	0	34	0	10108272640	43	14194
2026-01-11 19:34:57.83	186.36	14.69	-37.8	-38.0	12.8	2.23e-03	0	35	0	10443816960	42	14773
2026-01-11 19:35:00.86	186.69	15.08	-37.6	-37.9	12.8	1.62e-03	0	34	0	10787749888	42	14518
2026-01-11 19:35:03.88	187.02	15.47	-37.6	-37.9	12.8	1.76e-03	0	34	0	11123294208	42	14504
2026-01-11 19:35:06.90	187.37	15.88	-37.4	-37.7	12.9	1.77e-03	0	34	0	11467227136	42	14194
2026-01-11 19:35:09.92	187.72	16.29	-37.3	-37.6	12.8	1.72e-03	0	35	0	11811160064	41	14841
2026-01-11 19:35:12.93	188.09	16.70	-37.3	-37.5	12.8	1.42e-03	0	35	0	12146704384	41	14751
2026-01-11 19:35:15.93	188.46	17.12	-37.3	-37.6	12.8	1.13e-03	0	35	0	12482248704	41	14791
2026-01-11 19:35:18.96	188.86	17.56	-36.8	-37.0	12.9	1.13e-03	0	35	0	12826181632	40	14748
2026-01-11 19:35:21.97	189.26	18.00	-36.7	-36.9	12.9	1.01e-03	0	35	0	13161725952	40	14572
2026-01-11 19:35:24.98	189.67	18.45	-36.5	-36.8	13.0	7.63e-04	0	35	0	13497270272	40	14322
2026-01-11 19:35:28.00	190.10	18.91	-36.4	-36.7	13.0	6.87e-04	0	35	0	13841203200	40	14136
2026-01-11 19:35:31.02	190.55	19.38	-36.2	-36.4	13.0	5.72e-04	0	35	0	14185136128	39	14558
2026-01-11 19:35:34.05	191.01	19.87	-35.9	-36.1	13.1	3.29e-04	0	35	0	14520680448	39	14086
2026-01-11 19:35:37.05	191.49	20.35	-35.7	-35.9	13.0	2.91e-04	0	35	0	14864613376	38	14566
2026-01-11 19:35:40.06	191.98	20.85	-35.4	-35.7	13.1	2.76e-04	0	35	0	15200157696	38	14170
2026-01-11 19:35:43.08	192.49	21.37	-35.3	-35.6	13.1	2.00e-04	0	35	0	15535702016	37	14888
2026-01-11 19:35:46.10	193.03	21.89	-35.4	-35.7	13.0	1.76e-04	0	35	0	15879634944	37	14999
2026-01-11 19:35:49.12	193.58	22.42	-35.3	-35.6	13.1	2.24e-04	0	35	0	16215179264	37	14828
2026-01-11 19:35:52.14	194.15	22.97	-34.9	-35.2	13.2	1.62e-04	0	35	0	16559112192	37	14167
2026-01-11 19:35:55.15	194.75	23.53	-34.8	-35.0	13.1	9.05e-05	0	35	0	16894656512	36	14765
2026-01-11 19:35:58.16	195.37	24.09	-34.5	-34.7	13.2	8.58e-05	0	35	0	17238589440	36	14204
2026-01-11 19:36:01.18	196.01	24.68	-34.5	-34.7	13.2	7.62e-05	0	35	0	17574133760	36	14258
2026-01-11 19:36:04.19	196.68	25.27	-31.6	-31.9	13.1	8.10e-05	0	35	0	17909678080	30	14576
2026-01-11 19:36:07.21	197.39	25.87	-31.7	-31.9	13.1	1.00e-04	0	35	0	18253611008	30	14567
2026-01-11 19:36:10.21	198.11	26.49	-31.2	-31.5	13.1	1.33e-04	0	35	0	18589155328	29	14665
2026-01-11 19:36:13.21	198.87	27.12	-30.9	-31.2	13.1	7.62e-05	0	35	0	18924699648	29	14254
2026-01-11 19:36:16.23	199.66	27.76	-30.7	-31.0	13.1	7.15e-05	0	35	0	19268632576	28	14701
2026-01-11 19:36:19.24	200.49	28.42	-30.7	-31.0	13.1	6.19e-05	0	35	0	19604176896	28	14650
2026-01-11 19:36:22.24	201.35	29.08	-30.4	-30.7	13.1	5.72e-05	0	35	0	19939721216	27	15019
2026-01-11 19:36:25.25	202.26	29.76	-30.3	-30.6	13.1	1.43e-05	0	35	0	20283654144	27	14795
2026-01-11 19:36:28.28	203.21	30.46	-30.1	-30.4	13.2	3.81e-05	0	35	0	20619198464	27	14448
2026-01-11 19:36:31.30	204.21	31.17	-29.8	-30.0	13.2	1.90e-05	0	35	0	20963131392	26	14740
2026-01-11 19:36:34.32	205.25	31.88	-29.4	-29.7	13.2	1.90e-05	0	35	0	21298675712	26	14188
2026-01-11 19:36:37.33	206.34	32.61	-29.1	-29.4	13.2	2.86e-05	0	35	0	21642608640	25	14472
2026-01-11 19:36:40.36	207.49	33.35	-28.7	-29.0	13.2	9.50e-06	0	35	0	21986541568	24	14618
2026-01-11 19:36:43.37	208.68	34.09	-28.5	-28.8	13.3	4.70e-06	0	35	0	22322085888	24	14335
2026-01-11 19:36:46.38	209.94	34.84	-28.2	-28.5	13.2	0.00e+00	0	35	0	22657630208	23	14701
2026-01-11 19:36:49.39	211.26	35.60	-28.1	-28.4	13.3	0.00e+00	0	35	0	22993174528	23	14500
2026-01-11 19:36:52.40	212.64	36.36	-27.8	-28.1	13.3	4.70e-06	0	35	0	23337107456	22	14783
2026-01-11 19:36:55.41	214.10	37.12	-27.7	-28.0	13.3	4.70e-06	0	35	0	23672651776	22	14651
2026-01-11 19:36:58.43	215.63	37.89	-27.5	-27.7	13.3	0.00e+00	0	35	0	24016584704	22	14249
2026-01-11 19:37:01.44	217.23	38.65	-27.3	-27.6	13.3	0.00e+00	0	35	0	24352129024	21	14828
2026-01-11 19:37:04.45	218.92	39.40	-27.1	-27.4	13.3	4.70e-06	0	35	0	24696061952	21	14578
2026-01-11 19:37:07.46	220.68	40.14	-26.9	-27.1	13.4	4.70e-06	0	35	0	25031606272	21	14104
2026-01-11 19:37:10.48	222.54	40.88	-26.9	-27.1	13.4	0.00e+00	0	35	0	25367150592	21	14062
2026-01-11 19:37:13.49	224.47	41.59	-26.7	-27.0	13.4	9.50e-06	0	35	0	25711083520	20	14669
2026-01-11 19:37:16.51	226.51	42.29	-26.5	-26.8	13.4	4.70e-06	0	35	0	26046627840	20	14278
2026-01-11 19:37:19.52	228.62	42.95	-26.4	-26.7	13.3	4.70e-06	0	35	0	26390560768	19	14956
2026-01-11 19:37:22.53	230.83	43.59	-26.2	-26.5	13.4	0.00e+00	0	35	0	26726105088	19	14667
2026-01-11 19:37:25.53	233.12	44.19	-26.1	-26.3	13.4	0.00e+00	0	35	0	27061649408	19	14411
2026-01-11 19:37:28.53	235.49	44.75	-26.0	-26.3	13.4	0.00e+00	0	35	0	27397193728	19	14284
2026-01-11 19:37:31.56	237.98	45.26	-25.8	-26.1	13.4	0.00e+00	0	35	0	27741126656	18	14851
2026-01-11 19:37:34.57	240.52	45.72	-25.7	-26.0	13.4	0.00e+00	0	35	0	28076670976	18	14638
2026-01-11 19:37:37.59	243.15	46.13	-25.6	-25.9	13.4	0.00e+00	0	35	0	28420603904	18	14509
2026-01-11 19:37:40.60	245.83	46.48	-25.5	-25.8	13.4	0.00e+00	0	35	0	28764536832	18	14298
2026-01-11 19:37:43.61	248.57	46.76	-25.6	-25.9	13.4	0.00e+00	0	36	0	29100081152	18	14449
2026-01-11 19:37:46.63	251.37	46.97	-25.6	-25.9	13.4	0.00e+00	0	35	0	29435625472	18	14459
2026-01-11 19:37:49.65	254.19	47.11	-25.6	-25.9	13.4	4.70e-06	0	35	0	29779558400	18	14535
2026-01-11 19:37:52.67	257.03	47.18	-25.7	-26.0	13.4	0.00e+00	0	35	0	30115102720	18	14697
2026-01-11 19:37:55.68	259.87	47.17	-25.8	-26.0	13.3	0.00e+00	0	36	0	30450647040	18	14694
2026-01-11 19:37:58.71	262.72	47.09	-25.8	-26.0	13.3	0.00e+00	0	36	0	30794579968	18	14764
2026-01-11 19:38:01.72	265.53	46.94	-25.7	-25.9	13.3	4.70e-06	0	35	0	31138512896	18	14548
2026-01-11 19:38:04.74	268.32	46.71	-25.8	-26.0	13.3	0.00e+00	0	35	0	31474057216	18	14766
2026-01-11 19:38:07.75	271.04	46.42	-25.8	-26.0	13.3	4.70e-06	0	36	0	31817990144	18	14739
2026-01-11 19:38:10.77	273.72	46.07	-25.8	-26.1	13.3	4.70e-06	0	35	0	32153534464	18	14791
2026-01-11 19:38:13.79	276.34	45.65	-26.0	-26.3	13.3	0.00e+00	0	35	0	32489078784	18	15222
2026-01-11 19:38:16.79	278.86	45.18	-26.2	-26.4	13.3	4.70e-06	0	35	0	32824623104	18	15448
2026-01-11 19:38:19.80	281.31	44.66	-26.3	-26.6	13.2	4.70e-06	0	35	0	33168556032	18	15748
2026-01-11 19:38:22.75	283.63	44.11	-26.5	-26.7	13.2	1.90e-05	0	35	0	33512488960	18	15993
2026-01-11 19:38:25.76	285.91	43.51	-26.3	-26.6	13.3	4.70e-06	0	35	0	33848033280	18	15782
2026-01-11 19:38:28.77	288.09	42.87	-26.5	-26.8	13.3	1.43e-05	0	35	0	34191966208	18	16043
2026-01-11 19:38:31.78	290.19	42.20	-26.7	-26.9	13.3	9.50e-06	0	36	0	34527510528	19	15451
2026-01-11 19:38:34.81	292.22	41.50	-26.9	-27.2	13.3	9.50e-06	0	36	0	34863054848	19	15889
2026-01-11 19:38:37.81	294.13	40.79	-27.1	-27.3	13.3	1.43e-05	0	35	0	35198599168	19	16170
2026-01-11 19:38:40.83	295.97	40.06	-27.0	-27.3	13.3	4.70e-06	0	35	0	35542532096	20	15134
2026-01-11 19:38:43.85	297.72	39.31	-27.1	-27.3	13.3	0.00e+00	0	35	0	35886465024	20	15289
2026-01-11 19:38:46.86	299.39	38.56	-27.2	-27.5	13.3	0.00e+00	0	35	0	36222009344	20	15516
2026-01-11 19:38:49.87	300.98	37.80	-27.4	-27.6	13.3	4.70e-06	0	35	0	36565942272	20	15832
2026-01-11 19:38:52.89	302.50	37.04	-27.5	-27.8	13.3	4.70e-06	0	36	0	36901486592	20	16023
2026-01-11 19:38:55.91	303.94	36.28	-27.7	-28.0	13.3	0.00e+00	0	36	0	37237030912	21	15489
2026-01-11 19:38:58.93	305.32	35.52	-28.0	-28.3	13.3	1.43e-05	0	36	0	37580963840	21	16037
2026-01-11 19:39:01.95	306.63	34.77	-28.2	-28.5	13.3	4.70e-06	0	36	0	37916508160	22	15564
2026-01-11 19:39:04.97	307.88	34.02	-28.5	-28.8	13.2	4.70e-06	0	36	0	38260441088	22	16140
2026-01-11 19:39:07.98	309.06	33.28	-28.7	-29.0	13.2	4.70e-06	0	36	0	38595985408	23	15604
2026-01-11 19:39:11.00	310.20	32.54	-28.8	-29.1	13.2	4.70e-06	0	36	0	38939918336	23	15730
2026-01-11 19:39:14.02	311.28	31.82	-29.0	-29.3	13.2	1.43e-05	0	36	0	39275462656	23	16108
2026-01-11 19:39:17.03	312.31	31.11	-29.4	-29.6	13.2	2.38e-05	0	36	0	39619395584	24	15808
2026-01-11 19:39:20.04	313.29	30.41	-29.7	-30.0	13.1	1.43e-05	0	36	0	39954939904	25	15599
2026-01-11 19:39:23.06	314.23	29.72	-29.8	-30.1	13.1	3.81e-05	0	36	0	40290484224	25	15750
2026-01-11 19:39:26.08	315.13	29.05	-30.1	-30.4	13.1	3.81e-05	0	36	0	40634417152	25	16243
2026-01-11 19:39:29.08	315.99	28.38	-30.3	-30.6	13.1	3.33e-05	0	36	0	40969961472	26	15822
2026-01-11 19:39:32.11	316.81	27.73	-30.5	-30.8	13.1	7.15e-05	0	36	0	41313894400	27	15277
2026-01-11 19:39:35.13	317.60	27.09	-30.6	-30.9	13.1	2.86e-05	0	36	0	41649438720	27	15388
2026-01-11 19:39:38.14	318.36	26.46	-31.1	-31.4	13.0	4.76e-05	0	36	0	41993371648	27	16211
2026-01-11 19:39:41.16	319.08	25.85	-31.1	-31.4	13.1	1.52e-04	0	36	0	42328915968	28	15409
2026-01-11 19:39:44.18	319.78	25.25	-31.4	-31.6	13.0	8.10e-05	0	36	0	42672848896	28	15828
2026-01-11 19:39:47.19	320.44	24.66	-31.5	-31.8	12.8	1.43e-04	0	36	0	43008393216	28	16155
2026-01-11 19:39:50.22	321.08	24.08	-31.7	-31.9	12.9	2.34e-04	0	36	0	43352326144	29	15464
2026-01-11 19:39:53.24	321.70	23.52	-31.9	-32.1	13.0	2.38e-04	0	36	0	43687870464	29	15831
2026-01-11 19:39:56.25	322.29	22.96	-32.0	-32.2	13.0	2.62e-04	0	36	0	44023414784	30	15101
2026-01-11 19:39:59.26	322.86	22.42	-32.1	-32.4	12.9	1.67e-04	0	36	0	44367347712	30	15379
2026-01-11 19:40:02.28	323.41	21.89	-32.3	-32.6	12.9	1.67e-04	0	36	0	44711280640	30	15671
2026-01-11 19:40:05.30	323.94	21.37	-32.8	-33.1	12.8	2.62e-04	0	36	0	45046824960	31	15687
2026-01-11 19:40:08.31	324.45	20.87	-32.8	-33.1	12.9	4.86e-04	0	36	0	45382369280	31	15678
2026-01-11 19:40:11.32	324.94	20.37	-32.8	-33.1	12.8	4.86e-04	0	36	0	45726302208	31	15797
2026-01-11 19:40:14.35	325.41	19.88	-33.0	-33.3	12.9	6.53e-04	0	36	0	46061846528	32	15197
2026-01-11 19:40:17.35	325.87	19.41	-33.0	-33.3	12.9	7.34e-04	0	36	0	46397390848	32	15232
2026-01-11 19:40:20.38	326.31	18.94	-33.2	-33.5	12.8	4.43e-04	0	36	0	46741323776	32	15641
2026-01-11 19:40:23.40	326.74	18.48	-33.4	-33.7	12.8	5.82e-04	0	36	0	47085256704	32	15994
2026-01-11 19:40:26.42	327.16	18.03	-33.5	-33.8	12.7	7.06e-04	0	36	0	47420801024	32	16086
2026-01-11 19:40:29.42	327.56	17.60	-33.6	-33.9	12.8	4.77e-04	0	36	0	47764733952	33	15462
2026-01-11 19:40:32.45	327.95	17.16	-33.7	-34.1	12.7	4.00e-04	0	36	0	48100278272	33	15658
2026-01-11 19:40:35.46	328.32	16.74	-33.9	-34.2	12.7	7.44e-04	0	36	0	48435822592	33	16009
2026-01-11 19:40:38.48	328.69	16.33	-34.0	-34.3	12.7	8.44e-04	0	36	0	48779755520	33	16077
2026-01-11 19:40:41.48	329.04	15.92	-34.3	-34.6	12.7	9.68e-04	0	36	0	49115299840	34	15783
2026-01-11 19:40:44.50	329.38	15.52	-34.5	-34.8	12.6	1.02e-03	0	36	0	49450844160	34	16053
2026-01-11 19:40:47.53	329.71	15.13	-34.6	-34.9	12.6	1.38e-03	0	36	0	49794777088	35	15340
2026-01-11 19:40:50.54	330.04	14.75	-34.8	-35.1	12.6	1.53e-03	0	36	0	50138710016	35	15764
2026-01-11 19:40:53.54	330.35	14.37	-34.8	-35.1	12.6	1.75e-03	0	36	0	50474254336	35	15801
2026-01-11 19:40:56.55	330.65	14.01	-34.9	-35.2	12.6	2.01e-03	0	36	0	50809798656	35	15957
2026-01-11 19:40:59.58	330.95	13.64	-35.0	-35.3	12.5	2.52e-03	0	36	0	51153731584	35	16186
2026-01-11 19:41:02.60	331.24	13.28	-35.1	-35.4	12.5	2.52e-03	0	36	0	51489275904	35	16307
2026-01-11 19:41:05.62	331.52	12.93	-37.8	-38.1	12.6	1.44e-03	0	36	0	51833208832	41	15761
2026-01-11 19:41:08.63	331.80	12.59	-38.0	-38.3	12.6	1.29e-03	0	36	0	52168753152	41	16055
2026-01-11 19:41:11.64	332.06	12.25	-38.2	-38.5	12.6	1.48e-03	0	36	0	52512686080	42	15488
2026-01-11 19:41:14.66	332.32	11.92	-38.3	-38.7	12.6	1.58e-03	0	36	0	52848230400	42	15841
2026-01-11 19:41:17.68	332.58	11.59	-38.5	-38.8	12.5	1.79e-03	0	36	0	53192163328	42	16154
2026-01-11 19:41:20.69	332.82	11.27	-38.6	-38.9	12.5	2.45e-03	0	36	0	53527707648	42	16359
2026-01-11 19:41:23.69	333.06	10.95	-38.5	-38.8	12.5	2.26e-03	0	36	0	53863251968	43	15256
2026-01-11 19:41:26.70	333.30	10.64	-38.7	-39.0	12.5	2.20e-03	0	36	0	54198796288	43	15642
2026-01-11 19:41:29.72	333.52	10.33	-38.8	-39.1	12.5	2.74e-03	0	36	0	54542729216	43	15716
2026-01-11 19:41:32.74	333.75	10.03	-38.8	-39.2	12.4	3.22e-03	0	36	0	54886662144	43	15860
2026-01-11 19:41:35.76	333.97	9.73	-39.0	-39.3	12.4	3.27e-03	0	36	0	55222206464	43	16131
2026-01-11 19:41:38.76	334.18	9.44	-39.1	-39.4	12.4	3.86e-03	0	36	0	55557750784	44	15423
2026-01-11 19:41:41.77	334.39	9.15	-39.2	-39.6	12.4	4.11e-03	0	36	0	55901683712	44	15690
2026-01-11 19:41:44.79	334.59	8.86	-39.5	-39.8	12.3	4.48e-03	0	36	0	56237228032	44	16116
2026-01-11 19:41:47.80	334.79	8.58	-39.7	-40.0	12.3	5.63e-03	0	36	0	56572772352	45	15576
2026-01-11 19:41:50.82	334.99	8.30	-40.0	-40.3	12.2	7.47e-03	0	36	0	56916705280	45	16128
2026-01-11 19:41:53.84	335.18	8.03	-39.9	-40.2	12.2	8.61e-03	0	36	0	57260638208	45	16012
2026-01-11 19:41:56.85	335.37	7.76	-40.1	-40.4	12.1	9.04e-03	0	36	0	57596182528	45	16383
2026-01-11 19:41:59.86	335.55	7.49	-40.2	-40.5	12.1	9.04e-03	0	36	0	57931726848	46	15593
2026-01-11 19:42:02.88	335.73	7.23	-40.5	-40.8	12.1	1.06e-02	0	36	0	58275659776	46	16136
2026-01-11 19:42:05.91	335.90	6.97	-40.6	-40.9	12.1	1.31e-02	0	36	0	58611204096	47	15378
2026-01-11 19:42:08.93	336.08	6.71	-40.7	-41.0	12.0	1.31e-02	0	36	0	58955137024	47	15567
2026-01-11 19:42:11.95	336.24	6.46	-41.0	-41.3	11.9	1.36e-02	0	36	0	59290681344	47	16186
2026-01-11 19:42:14.97	336.41	6.20	-41.0	-41.3	11.9	1.67e-02	0	36	0	59626225664	47	16137
2026-01-11 19:42:17.98	336.57	5.96	-41.9	-42.3	12.0	1.71e-02	0	36	0	59970158592	49	16062
2026-01-11 19:42:21.00	336.73	5.71	-41.8	-42.1	12.0	1.54e-02	0	37	0	60314091520	49	15828
2026-01-11 19:42:24.01	336.89	5.47	-42.0	-42.4	12.0	1.46e-02	0	36	0	60649635840	49	16218
2026-01-11 19:42:27.03	337.04	5.23	-42.4	-42.7	11.9	1.48e-02	0	37	0	60993568768	50	15975
2026-01-11 19:42:30.04	337.19	5.00	-42.2	-42.5	11.9	1.87e-02	0	36	0	61329113088	50	15588
2026-01-11 19:42:33.07	337.34	4.76	-58.6	-61.8	6.1	3.99e-02	0	36	104	61404610560	82	22743
2026-01-11 19:42:36.10	337.48	4.53	-59.3	-62.5	6.2	0.00e+00	0	36	104	61404610560	84	22083
2026-01-11 19:42:39.12	337.63	4.30	-59.6	-62.8	6.1	0.00e+00	0	36	104	61404610560	84	22879
2026-01-11 19:42:42.14	337.77	4.08	-59.8	-63.0	6.2	0.00e+00	0	35	104	61404610560	85	21912
2026-01-11 19:42:45.17	337.90	3.85	-59.8	-63.0	6.1	0.00e+00	0	35	104	61404610560	85	22066
2026-01-11 19:42:48.19	338.04	3.63	-59.9	-63.1	6.2	0.00e+00	0	35	104	61404610560	85	22240
2026-01-11 19:42:51.21	338.17	3.41	-59.9	-63.1	6.1	0.00e+00	0	35	104	61404610560	85	22260
2026-01-11 19:42:54.25	338.30	3.19	-59.8	-63.1	6.1	0.00e+00	0	35	104	61404610560	85	22124
2026-01-11 19:42:57.27	338.43	2.98	-59.8	-63.0	6.1	0.00e+00	0	35	104	61404610560	85	21965
2026-01-11 19:43:00.30	338.56	2.76	-59.8	-63.0	6.1	0.00e+00	0	35	104	61404610560	85	21922
2026-01-11 19:43:03.32	338.68	2.55	-59.7	-62.9	6.2	0.00e+00	0	35	104	61404610560	85	21828
2026-01-11 19:43:06.35	338.81	2.34	-59.7	-62.9	6.1	0.00e+00	0	35	104	61404610560	85	21837
2026-01-11 19:43:09.37	338.93	2.14	-59.6	-62.9	6.2	0.00e+00	0	35	104	61404610560	85	21721
2026-01-11 19:43:12.40	339.05	1.93	-59.6	-62.9	6.2	0.00e+00	0	35	104	61404610560	85	21642

#Closed at: 2026-01-11 19:43:13
#Recorded file [61404 MB]: D:/lorett/data/31004_260111_223238.dat