passes_logs/2026/01/11/R3.2S_Murmansk/R3.2S_Murmansk__20260111_142357_AQUA_rec.log

#Pass ID: 20260111_142357_AQUA
#Satellite: AQUA
#Configuration: AQUA
#almurnet v.1.7.20251203
#Start time: 2026-01-11 14:23:59

#Version: 2.2.20231116
#Station: R3.2S_Murmansk
#Location: 33.079688 lon 68.888172 lat
#TLE: 1 27424U 02022A   26010.91777001  .00001106  00000+0  23130-3 0  9995
#TLE: 2 27424  98.4077 337.2768 0002031  83.1713 340.5382 14.61814337260293

#Time	Az	El	Level	Level2	SNR	BER	BlckErr	Temp	State	Recorded	gain1	gain2
2026-01-11 14:23:59.32	238.01	2.07	-57.1	-76.3	3.8	7.46e-01	0	21	0	0	83	32139
2026-01-11 14:24:02.34	238.34	2.22	-56.9	-76.3	3.8	7.46e-01	0	21	104	0	81	35741
2026-01-11 14:24:05.37	238.68	2.36	-56.9	-76.2	3.8	7.43e-01	0	21	104	0	81	35668
2026-01-11 14:24:08.39	239.01	2.50	-56.9	-76.2	3.8	7.46e-01	0	21	104	0	81	35617
2026-01-11 14:24:11.42	239.35	2.65	-56.9	-76.2	3.8	7.46e-01	0	21	104	0	81	35547
2026-01-11 14:24:14.44	239.70	2.79	-57.0	-76.2	3.8	7.46e-01	0	21	104	0	81	35559
2026-01-11 14:24:17.47	240.04	2.93	-56.9	-76.3	3.8	7.46e-01	0	21	104	0	81	35738
2026-01-11 14:24:20.50	240.40	3.08	-56.9	-76.2	3.8	7.50e-01	0	21	104	0	81	35638
2026-01-11 14:24:23.52	240.75	3.22	-56.9	-76.2	3.8	7.48e-01	0	21	104	0	81	35650
2026-01-11 14:24:26.55	241.11	3.36	-56.9	-76.0	3.8	7.46e-01	0	21	104	0	81	34648
2026-01-11 14:24:29.57	241.47	3.51	-56.9	-75.8	3.8	7.45e-01	0	21	104	0	81	33809
2026-01-11 14:24:32.60	241.83	3.65	-56.9	-76.0	3.8	7.47e-01	0	22	104	0	81	34582
2026-01-11 14:24:35.62	242.20	3.79	-56.9	-75.9	3.8	7.44e-01	0	22	104	0	81	34473
2026-01-11 14:24:38.65	242.58	3.94	-56.9	-75.1	3.8	7.42e-01	0	22	104	0	81	31318
2026-01-11 14:24:41.67	242.95	4.08	-56.9	-76.2	3.8	7.48e-01	0	22	104	0	81	35416
2026-01-11 14:24:44.70	243.33	4.22	-56.9	-75.9	3.8	7.47e-01	0	22	104	0	81	34425
2026-01-11 14:24:47.72	243.72	4.37	-56.9	-75.2	3.8	7.43e-01	0	22	104	0	81	31539
2026-01-11 14:24:50.75	244.11	4.51	-56.9	-73.2	4.1	7.37e-01	0	22	104	0	81	24993
2026-01-11 14:24:53.77	244.50	4.65	-57.0	-76.2	3.8	7.44e-01	0	22	104	0	81	35338
2026-01-11 14:24:56.80	244.90	4.79	-56.6	-66.9	7.6	6.48e-01	83	22	0	2097152	81	12170
2026-01-11 14:24:59.82	245.30	4.94	-56.0	-63.3	10.9	6.14e-01	0	22	0	7340032	81	8026
2026-01-11 14:25:02.85	245.70	5.08	-54.3	-58.6	13.9	6.06e-01	0	22	0	13107200	76	6216
2026-01-11 14:25:05.87	246.11	5.22	-55.7	-62.6	11.4	6.13e-01	0	22	0	18874368	79	8352
2026-01-11 14:25:08.88	246.52	5.36	-51.0	-53.3	15.7	6.04e-01	0	22	0	24641536	70	4768
2026-01-11 14:25:11.90	246.94	5.50	-50.8	-53.0	15.8	6.07e-01	0	22	0	30408704	70	4625
2026-01-11 14:25:14.93	247.36	5.64	-51.2	-53.6	15.5	6.06e-01	0	22	0	36175872	70	4955
2026-01-11 14:25:17.95	247.79	5.78	-51.0	-53.3	15.7	6.07e-01	0	22	0	41418752	70	4766
2026-01-11 14:25:20.98	248.22	5.92	-50.7	-52.8	15.9	6.08e-01	0	22	0	47185920	70	4531
2026-01-11 14:25:24.00	248.65	6.06	-50.7	-52.8	15.9	6.07e-01	0	22	0	52953088	70	4530
2026-01-11 14:25:27.03	249.09	6.20	-50.9	-53.1	15.8	6.03e-01	0	22	0	58720256	70	4680
2026-01-11 14:25:30.05	249.53	6.34	-51.2	-53.4	15.6	6.07e-01	0	22	0	64487424	70	4869
2026-01-11 14:25:33.07	249.98	6.48	-50.7	-52.8	15.9	6.07e-01	0	22	0	69730304	70	4516
2026-01-11 14:25:36.09	250.43	6.61	-50.7	-52.8	15.9	6.05e-01	0	22	0	75497472	70	4515
2026-01-11 14:25:39.10	250.89	6.75	-50.2	-52.2	16.0	6.07e-01	0	22	0	81264640	69	4463
2026-01-11 14:25:42.13	251.35	6.89	-50.4	-52.4	15.9	6.03e-01	0	22	0	87031808	69	4595
2026-01-11 14:25:45.14	251.81	7.02	-50.5	-52.5	15.8	6.06e-01	0	22	0	92798976	69	4646
2026-01-11 14:25:48.17	252.28	7.15	-50.5	-52.5	15.8	6.07e-01	0	22	0	98041856	69	4641
2026-01-11 14:25:51.19	252.76	7.29	-50.4	-52.5	15.9	6.07e-01	0	22	0	103809024	69	4602
2026-01-11 14:25:54.21	253.24	7.42	-50.3	-52.3	15.9	6.08e-01	0	22	0	109576192	69	4503
2026-01-11 14:25:57.24	253.72	7.55	-50.1	-52.0	16.0	6.07e-01	0	22	0	115343360	69	4376
2026-01-11 14:26:00.26	254.21	7.68	-50.3	-52.3	15.9	6.08e-01	0	22	0	121110528	69	4530
2026-01-11 14:26:03.29	254.70	7.82	-50.1	-52.0	16.0	6.05e-01	0	22	0	126353408	69	4387
2026-01-11 14:26:06.31	255.20	7.94	-50.2	-52.2	16.0	6.07e-01	0	22	0	132120576	69	4449
2026-01-11 14:26:09.33	255.70	8.07	-50.3	-52.3	15.9	6.08e-01	0	22	0	137887744	69	4497
2026-01-11 14:26:12.35	256.21	8.20	-50.0	-52.0	16.0	6.05e-01	0	22	0	143654912	69	4366
2026-01-11 14:26:15.37	256.72	8.33	-49.9	-51.8	16.1	6.07e-01	0	23	0	149422080	69	4287
2026-01-11 14:26:18.40	257.23	8.45	-49.8	-51.8	15.9	6.06e-01	0	22	0	154664960	68	4501
2026-01-11 14:26:21.43	257.76	8.57	-49.9	-51.8	15.9	6.07e-01	0	23	0	160432128	68	4504
2026-01-11 14:26:24.44	258.28	8.70	-50.0	-51.9	15.9	6.06e-01	0	23	0	166199296	68	4568
2026-01-11 14:26:27.47	258.81	8.82	-49.9	-51.8	15.9	6.07e-01	0	23	0	171966464	68	4541
2026-01-11 14:26:30.49	259.34	8.94	-49.7	-51.6	16.0	6.06e-01	0	23	0	177733632	68	4393
2026-01-11 14:26:33.51	259.88	9.05	-49.8	-51.7	16.0	6.06e-01	0	23	0	182976512	68	4446
2026-01-11 14:26:36.54	260.43	9.17	-49.7	-51.5	16.0	6.06e-01	0	22	0	188743680	68	4372
2026-01-11 14:26:39.56	260.98	9.29	-49.8	-51.6	16.0	6.05e-01	0	22	0	194510848	68	4441
2026-01-11 14:26:42.59	261.53	9.40	-49.8	-51.6	16.0	6.07e-01	0	22	0	200278016	68	4432
2026-01-11 14:26:45.61	262.09	9.51	-49.7	-51.5	16.1	6.05e-01	0	23	0	206045184	68	4365
2026-01-11 14:26:48.63	262.65	9.62	-49.7	-51.6	16.0	6.06e-01	0	23	0	211812352	68	4421
2026-01-11 14:26:51.66	263.21	9.73	-49.8	-51.7	16.0	6.07e-01	0	23	0	217055232	68	4455
2026-01-11 14:26:54.68	263.78	9.84	-49.7	-51.5	16.0	6.07e-01	0	23	0	222822400	68	4381
2026-01-11 14:26:57.70	264.36	9.94	-49.6	-51.4	16.1	6.04e-01	0	23	0	228589568	68	4317
2026-01-11 14:27:00.73	264.94	10.05	-49.5	-51.4	16.2	6.06e-01	0	23	0	234356736	68	4295
2026-01-11 14:27:03.74	265.52	10.15	-49.7	-51.6	16.0	6.06e-01	0	23	0	240123904	68	4393
2026-01-11 14:27:06.76	266.11	10.24	-49.5	-51.3	16.1	6.06e-01	0	23	0	245366784	68	4279
2026-01-11 14:27:09.79	266.70	10.34	-49.7	-51.6	15.8	6.07e-01	0	23	0	251133952	67	4662
2026-01-11 14:27:12.81	267.29	10.44	-50.3	-52.4	15.7	6.08e-01	0	23	0	256901120	68	4834
2026-01-11 14:27:15.83	267.89	10.53	-50.3	-52.4	15.7	6.08e-01	0	23	0	262668288	68	4816
2026-01-11 14:27:18.86	268.50	10.62	-50.5	-52.6	15.6	6.04e-01	0	23	0	268435456	68	4933
2026-01-11 14:27:21.89	269.11	10.71	-49.9	-51.8	15.9	6.03e-01	0	23	0	274202624	68	4535
2026-01-11 14:27:24.91	269.72	10.79	-49.8	-51.7	15.9	6.05e-01	0	23	0	279445504	68	4459
2026-01-11 14:27:27.94	270.33	10.87	-49.7	-51.6	16.0	6.06e-01	0	23	0	285212672	68	4420
2026-01-11 14:27:30.96	270.95	10.95	-49.5	-51.4	16.1	6.07e-01	0	23	0	290979840	68	4300
2026-01-11 14:27:33.99	271.57	11.03	-49.4	-51.2	16.2	6.08e-01	0	23	0	296747008	68	4214
2026-01-11 14:27:37.01	272.20	11.11	-49.4	-51.1	16.0	6.05e-01	0	23	0	302514176	67	4429
2026-01-11 14:27:40.03	272.82	11.18	-49.4	-51.2	15.9	6.08e-01	0	23	0	307757056	67	4490
2026-01-11 14:27:43.06	273.46	11.25	-49.3	-51.1	16.0	6.06e-01	0	23	0	313524224	67	4431
2026-01-11 14:27:46.09	274.09	11.32	-49.4	-51.2	16.0	6.05e-01	0	23	0	319291392	67	4444
2026-01-11 14:27:49.11	274.73	11.38	-49.4	-51.2	16.0	6.06e-01	0	23	0	325058560	67	4456
2026-01-11 14:27:52.13	275.37	11.44	-49.3	-51.0	16.0	6.06e-01	0	23	0	330825728	67	4386
2026-01-11 14:27:55.15	276.01	11.50	-49.3	-51.1	16.0	6.06e-01	0	23	0	336068608	67	4417
2026-01-11 14:27:58.17	276.66	11.56	-49.4	-51.2	16.0	6.07e-01	0	23	0	341835776	67	4448
2026-01-11 14:28:01.20	277.31	11.61	-49.3	-51.0	16.0	6.07e-01	0	23	0	347602944	67	4383
2026-01-11 14:28:04.22	277.96	11.66	-49.3	-51.1	16.0	6.07e-01	0	23	0	353370112	67	4413
2026-01-11 14:28:07.24	278.61	11.71	-49.3	-51.1	16.0	6.05e-01	0	23	0	359137280	67	4413
2026-01-11 14:28:10.26	279.26	11.75	-49.6	-51.4	15.9	6.07e-01	0	23	0	364380160	67	4551
2026-01-11 14:28:13.29	279.92	11.79	-49.4	-51.1	16.0	6.05e-01	0	23	0	370147328	67	4439
2026-01-11 14:28:16.32	280.58	11.83	-49.4	-51.2	16.0	6.07e-01	0	23	0	375914496	67	4457
2026-01-11 14:28:19.34	281.24	11.86	-49.4	-51.2	16.0	6.06e-01	0	23	0	381681664	67	4462
2026-01-11 14:28:22.37	281.90	11.89	-49.4	-51.2	16.0	6.07e-01	0	23	0	387448832	67	4469
2026-01-11 14:28:25.39	282.57	11.92	-49.5	-51.3	15.9	6.05e-01	0	23	0	393216000	67	4520
2026-01-11 14:28:28.41	283.23	11.95	-49.5	-51.3	15.9	6.02e-01	0	23	0	398458880	67	4523
2026-01-11 14:28:31.43	283.89	11.97	-49.4	-51.2	15.9	6.01e-01	0	23	0	404226048	67	4482
2026-01-11 14:28:34.46	284.56	11.99	-49.5	-51.2	15.9	6.02e-01	0	23	0	409993216	67	4482
2026-01-11 14:28:37.48	285.23	12.00	-49.5	-51.3	15.9	6.04e-01	0	23	0	415760384	67	4523
2026-01-11 14:28:40.50	285.89	12.01	-49.6	-51.4	15.9	6.03e-01	0	23	0	421527552	67	4598
2026-01-11 14:28:43.53	286.56	12.02	-49.6	-51.4	15.9	6.03e-01	0	23	0	427294720	67	4593
2026-01-11 14:28:46.55	287.23	12.02	-49.5	-51.3	15.9	6.03e-01	0	23	0	432537600	67	4507
2026-01-11 14:28:49.58	287.90	12.03	-49.8	-51.6	15.8	6.04e-01	0	23	0	438304768	67	4694
2026-01-11 14:28:52.60	288.57	12.02	-49.4	-51.1	16.0	6.02e-01	0	23	0	444071936	67	4426
2026-01-11 14:28:55.63	289.24	12.02	-49.6	-51.4	15.9	6.04e-01	0	23	0	449839104	67	4567
2026-01-11 14:28:58.65	289.90	12.01	-49.7	-51.5	15.9	6.04e-01	0	23	0	455606272	67	4599
2026-01-11 14:29:01.67	290.57	12.00	-49.6	-51.4	15.9	6.00e-01	0	23	0	460849152	67	4569
2026-01-11 14:29:04.69	291.24	11.98	-49.6	-51.4	15.8	6.02e-01	0	23	0	466616320	67	4589
2026-01-11 14:29:07.72	291.90	11.96	-49.7	-51.4	15.9	6.03e-01	0	23	0	472383488	67	4597
2026-01-11 14:29:10.75	292.57	11.94	-49.5	-51.3	15.9	6.04e-01	0	23	0	478150656	67	4497
2026-01-11 14:29:13.76	293.23	11.92	-49.7	-51.5	15.9	6.04e-01	0	23	0	483917824	67	4607
2026-01-11 14:29:16.78	293.89	11.89	-49.7	-51.5	15.9	6.04e-01	0	23	0	489160704	67	4600
2026-01-11 14:29:19.81	294.55	11.86	-49.5	-51.3	15.9	6.02e-01	0	23	0	494927872	67	4514
2026-01-11 14:29:22.84	295.21	11.82	-49.6	-51.4	15.9	6.03e-01	0	23	0	500695040	67	4580
2026-01-11 14:29:25.86	295.87	11.78	-49.7	-51.5	15.8	6.04e-01	0	23	0	506462208	67	4645
2026-01-11 14:29:28.89	296.53	11.74	-49.5	-51.3	15.9	6.01e-01	0	23	0	512229376	67	4516
2026-01-11 14:29:31.91	297.18	11.70	-49.5	-51.3	15.9	6.02e-01	0	23	0	517472256	67	4528
2026-01-11 14:29:34.94	297.83	11.65	-49.6	-51.4	15.9	6.01e-01	0	23	0	523239424	67	4559
2026-01-11 14:29:37.96	298.48	11.60	-49.6	-51.4	15.8	6.02e-01	0	23	0	529006592	67	4592
2026-01-11 14:29:40.98	299.13	11.55	-49.6	-51.4	15.9	6.03e-01	0	23	0	534773760	67	4548
2026-01-11 14:29:44.01	299.77	11.49	-49.7	-51.5	15.9	6.02e-01	0	23	0	540540928	67	4609
2026-01-11 14:29:47.04	300.41	11.43	-49.6	-51.4	15.9	6.04e-01	0	23	0	546308096	67	4568
2026-01-11 14:29:50.06	301.05	11.37	-49.6	-51.4	15.9	6.03e-01	0	23	0	551550976	67	4564
2026-01-11 14:29:53.08	301.69	11.31	-49.6	-51.4	15.9	6.02e-01	0	23	0	557318144	67	4558
2026-01-11 14:29:56.10	302.32	11.24	-49.5	-51.3	15.9	6.03e-01	0	23	0	563085312	67	4535
2026-01-11 14:29:59.12	302.95	11.17	-49.6	-51.4	15.9	6.03e-01	0	23	0	568852480	67	4554
2026-01-11 14:30:02.15	303.57	11.09	-49.4	-51.2	16.0	6.04e-01	0	23	0	574619648	67	4459
2026-01-11 14:30:05.17	304.20	11.02	-49.5	-51.3	15.9	6.02e-01	0	23	0	579862528	67	4498
2026-01-11 14:30:08.19	304.81	10.94	-49.5	-51.3	15.9	6.02e-01	0	23	0	585629696	67	4515
2026-01-11 14:30:11.22	305.43	10.86	-49.6	-51.4	15.9	6.02e-01	0	23	0	591396864	67	4578
2026-01-11 14:30:14.25	306.05	10.78	-49.4	-51.1	16.0	6.04e-01	0	23	0	597164032	67	4436
2026-01-11 14:30:17.26	306.65	10.69	-49.5	-51.3	15.9	6.02e-01	0	23	0	602931200	67	4507
2026-01-11 14:30:20.29	307.26	10.60	-49.6	-51.4	15.9	6.02e-01	0	23	0	608698368	67	4597
2026-01-11 14:30:23.32	307.86	10.51	-49.5	-51.3	15.9	6.00e-01	0	23	0	613941248	67	4545
2026-01-11 14:30:26.33	308.45	10.42	-49.5	-51.3	15.9	6.02e-01	0	23	0	619708416	67	4535
2026-01-11 14:30:29.36	309.05	10.33	-49.6	-51.4	15.8	6.03e-01	0	23	0	625475584	67	4577
2026-01-11 14:30:32.38	309.63	10.23	-49.5	-51.3	15.9	6.03e-01	0	23	0	631242752	67	4541
2026-01-11 14:30:35.40	310.22	10.13	-49.5	-51.3	15.9	6.03e-01	0	23	0	637009920	67	4523
2026-01-11 14:30:38.43	310.80	10.03	-49.4	-51.2	15.9	6.05e-01	0	23	0	642252800	67	4463
2026-01-11 14:30:41.43	311.37	9.93	-49.7	-51.5	15.8	6.00e-01	0	23	0	648019968	67	4627
2026-01-11 14:30:44.46	311.94	9.82	-49.6	-51.4	15.9	6.02e-01	0	23	0	653787136	67	4569
2026-01-11 14:30:47.48	312.51	9.72	-49.4	-51.3	15.9	6.04e-01	0	23	0	659554304	67	4500
2026-01-11 14:30:50.51	313.08	9.61	-49.6	-51.4	15.9	6.03e-01	0	23	0	665321472	67	4571
2026-01-11 14:30:53.54	313.64	9.50	-49.6	-51.5	15.8	6.03e-01	0	23	0	670564352	67	4605
2026-01-11 14:30:56.56	314.19	9.39	-49.6	-51.5	15.8	6.05e-01	0	23	0	676331520	67	4635
2026-01-11 14:30:59.59	314.74	9.27	-49.7	-51.5	15.8	6.05e-01	0	23	0	682098688	67	4631
2026-01-11 14:31:02.61	315.28	9.16	-49.7	-51.6	15.8	6.00e-01	0	23	0	687865856	67	4665
2026-01-11 14:31:05.64	315.83	9.04	-49.6	-51.5	15.8	6.03e-01	0	23	0	693633024	67	4608
2026-01-11 14:31:08.66	316.36	8.93	-49.6	-51.4	15.8	6.03e-01	0	23	0	698875904	67	4593
2026-01-11 14:31:11.68	316.89	8.81	-49.9	-51.8	15.7	6.01e-01	0	23	0	704643072	67	4791
2026-01-11 14:31:14.71	317.42	8.69	-49.7	-51.6	15.7	6.03e-01	0	23	0	710410240	67	4702
2026-01-11 14:31:17.73	317.94	8.56	-49.7	-51.6	15.8	6.03e-01	0	23	0	716177408	67	4666
2026-01-11 14:31:20.76	318.46	8.44	-49.7	-51.6	15.8	6.02e-01	0	23	0	721944576	67	4682
2026-01-11 14:31:23.78	318.97	8.32	-49.7	-51.6	15.8	6.04e-01	0	23	0	727711744	67	4678
2026-01-11 14:31:26.81	319.48	8.19	-50.0	-52.0	15.6	6.02e-01	0	23	0	732954624	67	4874
2026-01-11 14:31:29.83	319.99	8.07	-49.8	-51.7	15.7	6.04e-01	0	23	0	738721792	67	4727
2026-01-11 14:31:32.85	320.49	7.94	-49.6	-51.5	15.8	6.01e-01	0	23	0	744488960	67	4622
2026-01-11 14:31:35.87	320.98	7.81	-50.0	-52.0	15.6	6.04e-01	0	23	0	750256128	67	4887
2026-01-11 14:31:38.89	321.47	7.68	-49.9	-51.9	15.6	6.02e-01	0	23	0	756023296	67	4852
2026-01-11 14:31:41.92	321.96	7.55	-49.9	-51.9	15.7	6.02e-01	0	23	0	761266176	67	4818
2026-01-11 14:31:44.94	322.44	7.42	-50.0	-52.0	15.6	6.06e-01	0	23	0	767033344	67	4885
2026-01-11 14:31:47.96	322.91	7.29	-49.9	-51.9	15.6	6.02e-01	0	23	0	772800512	67	4841
2026-01-11 14:31:50.98	323.38	7.15	-50.0	-52.0	15.6	6.01e-01	0	23	0	778567680	67	4912
2026-01-11 14:31:54.01	323.85	7.02	-50.3	-52.3	15.6	6.03e-01	0	23	0	784334848	68	4803
2026-01-11 14:31:57.02	324.31	6.89	-50.2	-52.2	15.7	6.01e-01	0	23	0	790102016	68	4752
2026-01-11 14:32:00.05	324.77	6.75	-50.2	-52.3	15.7	6.02e-01	0	23	0	795344896	68	4763
2026-01-11 14:32:03.07	325.23	6.62	-50.3	-52.4	15.6	6.02e-01	0	23	0	801112064	68	4849
2026-01-11 14:32:06.10	325.68	6.48	-50.3	-52.4	15.6	6.03e-01	0	23	0	806879232	68	4853
2026-01-11 14:32:09.12	326.12	6.34	-50.1	-52.1	15.7	6.02e-01	0	23	0	812646400	68	4702
2026-01-11 14:32:12.14	326.56	6.21	-50.2	-52.3	15.6	6.04e-01	0	23	0	818413568	68	4770
2026-01-11 14:32:15.17	327.00	6.07	-50.4	-52.6	15.5	6.01e-01	0	23	0	823656448	68	4937
2026-01-11 14:32:18.19	327.43	5.93	-50.3	-52.4	15.6	6.03e-01	0	23	0	829423616	68	4851
2026-01-11 14:32:21.22	327.86	5.79	-50.2	-52.3	15.7	6.03e-01	0	23	0	835190784	68	4768
2026-01-11 14:32:24.24	328.28	5.65	-50.4	-52.5	15.6	6.02e-01	0	23	0	840957952	68	4901
2026-01-11 14:32:27.26	328.70	5.51	-50.5	-52.6	15.5	6.07e-01	0	23	0	846725120	68	4977
2026-01-11 14:32:30.28	329.11	5.37	-50.4	-52.6	15.5	6.02e-01	0	23	0	851968000	68	4932
2026-01-11 14:32:33.29	329.52	5.23	-50.7	-52.9	15.5	6.05e-01	0	23	0	857735168	69	4854
2026-01-11 14:32:36.32	329.93	5.09	-50.4	-52.6	15.7	6.03e-01	0	23	0	863502336	69	4653
2026-01-11 14:32:39.35	330.33	4.95	-57.3	-74.6	3.7	7.47e-01	0	23	104	868745216	82	27842
2026-01-11 14:32:42.37	330.73	4.81	-58.5	-77.8	3.8	7.48e-01	0	23	104	868745216	84	35791
2026-01-11 14:32:45.39	331.13	4.67	-58.9	-78.2	3.8	7.46e-01	0	23	104	868745216	85	35490
2026-01-11 14:32:48.42	331.52	4.53	-59.2	-78.5	3.9	7.46e-01	0	23	104	868745216	86	34801
2026-01-11 14:32:51.45	331.90	4.39	-59.3	-78.6	3.8	7.47e-01	0	23	104	868745216	86	35195
2026-01-11 14:32:54.47	332.29	4.24	-59.3	-78.6	3.8	7.44e-01	0	23	104	868745216	86	35255
2026-01-11 14:32:57.50	332.67	4.10	-59.3	-78.7	3.8	7.47e-01	0	23	104	868745216	86	35443
2026-01-11 14:33:00.53	333.04	3.96	-59.3	-78.7	3.8	7.47e-01	0	23	104	868745216	86	35522
2026-01-11 14:33:03.55	333.41	3.82	-59.3	-78.6	3.8	7.43e-01	0	23	104	868745216	86	35141
2026-01-11 14:33:06.58	333.78	3.68	-59.2	-78.6	3.8	7.48e-01	0	23	104	868745216	86	34993
2026-01-11 14:33:09.61	334.14	3.53	-59.2	-78.6	3.8	7.46e-01	0	23	104	868745216	86	34975
2026-01-11 14:33:12.64	334.51	3.39	-59.2	-78.5	3.8	7.46e-01	0	23	104	868745216	86	34800
2026-01-11 14:33:15.66	334.86	3.25	-59.2	-78.5	3.8	7.44e-01	0	23	104	868745216	86	34752
2026-01-11 14:33:18.69	335.21	3.11	-59.1	-78.5	3.8	7.45e-01	0	23	104	868745216	86	34555
2026-01-11 14:33:21.72	335.56	2.96	-59.1	-78.5	3.8	7.47e-01	0	23	104	868745216	86	34668
2026-01-11 14:33:24.75	335.91	2.82	-59.1	-78.4	3.8	7.46e-01	0	23	104	868745216	86	34409
2026-01-11 14:33:27.76	336.25	2.68	-59.1	-78.5	3.8	7.48e-01	0	23	104	868745216	86	34531
2026-01-11 14:33:30.79	336.59	2.54	-59.1	-78.4	3.8	7.44e-01	0	23	104	868745216	86	34416
2026-01-11 14:33:33.82	336.93	2.40	-59.1	-78.4	3.8	7.49e-01	0	23	104	868745216	86	34377
2026-01-11 14:33:36.84	337.26	2.25	-59.1	-78.4	3.8	7.47e-01	0	23	104	868745216	86	34441
2026-01-11 14:33:39.87	337.59	2.11	-59.1	-78.4	3.8	7.47e-01	0	23	104	868745216	86	34386
2026-01-11 14:33:42.90	337.91	1.97	-59.1	-78.4	3.8	7.45e-01	0	23	104	868745216	86	34345

#Closed at: 2026-01-11 14:33:43
#Recorded file [868 MB]: D:/lorett/data/31004_260111_172359.dat