passes_logs/2026/01/11/R3.2S_Murmansk/R3.2S_Murmansk__20260111_124349_AQUA_rec.log

#Pass ID: 20260111_124349_AQUA
#Satellite: AQUA
#Configuration: AQUA
#almurnet v.1.7.20251203
#Start time: 2026-01-11 12:43:50

#Version: 2.2.20231116
#Station: R3.2S_Murmansk
#Location: 33.079688 lon 68.888172 lat
#TLE: 1 27424U 02022A   26010.91777001  .00001106  00000+0  23130-3 0  9995
#TLE: 2 27424  98.4077 337.2768 0002031  83.1713 340.5382 14.61814337260293

#Time	Az	El	Level	Level2	SNR	BER	BlckErr	Temp	State	Recorded	gain1	gain2
2026-01-11 12:43:50.98	190.20	2.10	-56.9	-75.8	3.8	7.47e-01	0	21	0	0	82	31853
2026-01-11 12:43:54.01	190.36	2.29	-56.8	-75.8	3.8	7.47e-01	0	21	104	0	81	34001
2026-01-11 12:43:57.03	190.52	2.48	-56.8	-76.0	3.8	7.46e-01	0	21	104	0	81	34712
2026-01-11 12:44:00.06	190.68	2.67	-56.8	-75.7	3.8	7.46e-01	0	21	104	0	81	33659
2026-01-11 12:44:03.08	190.85	2.87	-56.8	-75.8	3.8	7.44e-01	0	22	104	0	81	34018
2026-01-11 12:44:06.11	191.02	3.06	-56.8	-75.6	3.8	7.45e-01	0	22	104	0	81	33090
2026-01-11 12:44:09.13	191.19	3.26	-56.8	-75.4	3.8	7.45e-01	0	22	104	0	81	32483
2026-01-11 12:44:12.15	191.36	3.46	-56.8	-75.3	3.8	7.46e-01	0	22	104	0	81	31843
2026-01-11 12:44:15.17	191.53	3.66	-56.8	-74.9	3.8	7.47e-01	0	22	104	0	81	30476
2026-01-11 12:44:18.20	191.71	3.86	-56.8	-76.0	3.8	7.46e-01	0	22	104	0	81	34837
2026-01-11 12:44:21.22	191.89	4.06	-56.7	-71.6	4.5	7.22e-01	0	22	104	0	81	20826
2026-01-11 12:44:24.25	192.08	4.27	-56.3	-65.6	8.6	6.34e-01	0	22	0	3670016	81	10505
2026-01-11 12:44:27.27	192.26	4.48	-55.7	-62.7	11.2	6.15e-01	0	22	0	9437184	80	7985
2026-01-11 12:44:30.29	192.45	4.68	-55.1	-60.6	12.8	6.10e-01	0	22	0	15204352	79	6645
2026-01-11 12:44:33.31	192.64	4.89	-53.7	-57.5	14.4	6.08e-01	0	22	0	20971520	76	5528
2026-01-11 12:44:36.34	192.83	5.10	-53.6	-57.4	14.5	6.06e-01	0	22	0	26738688	74	6090
2026-01-11 12:44:39.36	193.03	5.32	-53.6	-57.1	14.6	6.06e-01	0	22	0	31981568	76	5247
2026-01-11 12:44:42.39	193.23	5.53	-50.7	-52.9	15.8	6.06e-01	0	22	0	37748736	70	4589
2026-01-11 12:44:45.41	193.43	5.75	-50.7	-52.9	15.9	6.05e-01	0	22	0	43515904	70	4572
2026-01-11 12:44:48.42	193.64	5.96	-50.3	-52.4	15.9	6.07e-01	0	22	0	48758784	69	4568
2026-01-11 12:44:51.45	193.85	6.18	-50.4	-52.6	15.8	6.05e-01	0	22	0	54525952	69	4670
2026-01-11 12:44:54.48	194.06	6.40	-50.4	-52.5	15.9	6.06e-01	0	22	0	60293120	69	4600
2026-01-11 12:44:57.50	194.28	6.63	-50.5	-52.6	15.8	6.06e-01	0	22	0	66060288	69	4683
2026-01-11 12:45:00.52	194.50	6.85	-50.3	-52.4	15.9	6.06e-01	0	22	0	71827456	69	4554
2026-01-11 12:45:03.55	194.72	7.08	-50.6	-52.8	15.7	6.07e-01	0	22	0	77594624	69	4769
2026-01-11 12:45:06.57	194.95	7.31	-50.3	-52.4	15.9	6.05e-01	0	22	0	82837504	69	4554
2026-01-11 12:45:09.60	195.18	7.54	-50.2	-52.2	16.0	6.08e-01	0	22	0	88604672	69	4484
2026-01-11 12:45:12.63	195.41	7.77	-50.3	-52.3	16.0	6.07e-01	0	23	0	94371840	69	4521
2026-01-11 12:45:15.65	195.65	8.01	-50.2	-52.2	16.0	6.05e-01	0	23	0	100139008	69	4486
2026-01-11 12:45:18.67	195.89	8.24	-50.2	-52.2	16.0	6.06e-01	0	22	0	105906176	69	4480
2026-01-11 12:45:21.68	196.14	8.48	-50.2	-52.1	16.0	6.05e-01	0	23	0	111149056	69	4434
2026-01-11 12:45:24.70	196.39	8.72	-50.0	-52.0	16.1	6.07e-01	0	22	0	116916224	69	4351
2026-01-11 12:45:27.73	196.64	8.96	-50.0	-51.9	15.9	6.06e-01	0	23	0	122683392	68	4576
2026-01-11 12:45:30.76	196.90	9.21	-49.9	-51.8	15.9	6.05e-01	0	23	0	128450560	68	4541
2026-01-11 12:45:33.78	197.16	9.46	-49.9	-51.8	16.0	6.07e-01	0	23	0	134217728	68	4520
2026-01-11 12:45:36.80	197.43	9.71	-49.9	-51.8	15.9	6.07e-01	0	23	0	139460608	68	4530
2026-01-11 12:45:39.83	197.70	9.96	-49.7	-51.6	16.1	6.06e-01	0	23	0	145227776	68	4402
2026-01-11 12:45:42.86	197.98	10.22	-49.8	-51.6	16.0	6.06e-01	0	23	0	150994944	68	4432
2026-01-11 12:45:45.88	198.27	10.47	-49.6	-51.4	16.1	6.08e-01	0	23	0	156762112	68	4325
2026-01-11 12:45:48.90	198.55	10.73	-49.6	-51.5	16.1	6.07e-01	0	23	0	162529280	68	4358
2026-01-11 12:45:51.93	198.85	10.99	-49.6	-51.4	16.1	6.07e-01	0	23	0	168296448	68	4332
2026-01-11 12:45:54.96	199.15	11.26	-49.5	-51.3	16.1	6.07e-01	0	23	0	173539328	68	4272
2026-01-11 12:45:57.99	199.45	11.53	-49.4	-51.2	16.2	6.06e-01	0	23	0	179306496	68	4209
2026-01-11 12:46:01.01	199.76	11.80	-49.3	-51.1	16.0	6.03e-01	0	23	0	185073664	67	4434
2026-01-11 12:46:04.03	200.08	12.07	-49.2	-51.0	16.1	6.06e-01	0	23	0	190840832	67	4344
2026-01-11 12:46:07.05	200.40	12.34	-49.2	-51.0	16.1	6.06e-01	0	23	0	196608000	67	4359
2026-01-11 12:46:10.08	200.73	12.62	-50.4	-52.4	16.1	6.06e-01	0	23	0	202375168	70	4332
2026-01-11 12:46:13.10	201.06	12.90	-49.5	-51.3	16.2	6.07e-01	0	23	0	207618048	68	4244
2026-01-11 12:46:16.12	201.41	13.18	-49.2	-51.0	16.1	6.06e-01	0	23	0	213385216	67	4376
2026-01-11 12:46:19.15	201.76	13.47	-49.2	-50.9	16.1	6.07e-01	0	23	0	219152384	67	4321
2026-01-11 12:46:22.17	202.11	13.76	-48.9	-50.6	16.3	6.07e-01	0	23	0	224919552	67	4166
2026-01-11 12:46:25.19	202.47	14.05	-48.8	-50.5	16.1	6.07e-01	0	23	0	230686720	66	4373
2026-01-11 12:46:28.20	202.84	14.34	-49.0	-50.7	16.0	6.06e-01	0	23	0	235929600	66	4457
2026-01-11 12:46:31.23	203.22	14.64	-48.8	-50.5	16.1	6.07e-01	0	23	0	241696768	66	4388
2026-01-11 12:46:34.24	203.61	14.94	-48.8	-50.5	16.1	6.08e-01	0	23	0	247463936	66	4367
2026-01-11 12:46:37.26	204.00	15.24	-48.8	-50.5	16.1	6.06e-01	0	23	0	253231104	66	4373
2026-01-11 12:46:40.28	204.40	15.55	-48.8	-50.4	16.1	6.04e-01	0	23	0	258998272	66	4333
2026-01-11 12:46:43.29	204.81	15.86	-48.8	-50.5	16.1	6.08e-01	0	23	0	264241152	66	4354
2026-01-11 12:46:46.30	205.23	16.17	-48.8	-50.5	16.1	6.06e-01	0	23	0	270008320	66	4344
2026-01-11 12:46:49.33	205.66	16.48	-48.8	-50.4	16.1	6.07e-01	0	23	0	275775488	66	4337
2026-01-11 12:46:52.35	206.10	16.80	-48.8	-50.4	16.1	6.05e-01	0	23	0	281542656	66	4337
2026-01-11 12:46:55.37	206.54	17.12	-48.7	-50.4	16.1	6.06e-01	0	23	0	286785536	66	4322
2026-01-11 12:46:58.40	207.00	17.45	-48.7	-50.4	16.1	6.05e-01	0	23	0	292552704	66	4315
2026-01-11 12:47:01.42	207.47	17.78	-48.8	-50.5	16.1	6.07e-01	0	23	0	298319872	66	4380
2026-01-11 12:47:04.45	207.95	18.11	-48.8	-50.5	16.1	6.07e-01	0	23	0	304087040	66	4359
2026-01-11 12:47:07.47	208.44	18.44	-48.9	-50.6	16.1	6.07e-01	0	23	0	309854208	66	4396
2026-01-11 12:47:10.50	208.94	18.78	-48.8	-50.5	16.1	6.06e-01	0	23	0	315621376	66	4354
2026-01-11 12:47:13.52	209.45	19.12	-48.8	-50.4	16.1	6.05e-01	0	23	0	320864256	66	4340
2026-01-11 12:47:16.55	209.98	19.46	-48.9	-50.5	16.1	6.07e-01	0	23	0	326631424	66	4380
2026-01-11 12:47:19.57	210.52	19.81	-48.9	-50.6	16.1	6.05e-01	0	23	0	332398592	66	4407
2026-01-11 12:47:22.59	211.07	20.16	-48.7	-50.4	16.2	6.07e-01	0	23	0	338165760	66	4309
2026-01-11 12:47:25.61	211.63	20.51	-48.9	-50.6	16.1	6.07e-01	0	23	0	343932928	66	4403
2026-01-11 12:47:28.64	212.20	20.86	-48.6	-50.2	16.2	6.06e-01	0	23	0	349175808	66	4239
2026-01-11 12:47:31.65	212.79	21.22	-48.8	-50.5	16.0	6.06e-01	0	23	0	354942976	66	4370
2026-01-11 12:47:34.67	213.39	21.58	-48.7	-50.4	16.1	6.06e-01	0	23	0	360710144	66	4293
2026-01-11 12:47:37.69	214.01	21.94	-48.9	-50.5	16.0	6.07e-01	0	23	0	366477312	66	4380
2026-01-11 12:47:40.71	214.64	22.30	-49.0	-50.6	16.0	6.07e-01	0	23	0	372244480	66	4431
2026-01-11 12:47:43.74	215.29	22.67	-48.9	-50.5	16.1	6.06e-01	0	23	0	377487360	66	4377
2026-01-11 12:47:46.77	215.96	23.04	-49.0	-50.7	16.0	6.05e-01	0	23	0	383254528	66	4480
2026-01-11 12:47:49.79	216.64	23.41	-49.2	-50.9	15.9	6.08e-01	0	23	0	389021696	66	4555
2026-01-11 12:47:52.82	217.34	23.79	-48.9	-50.6	16.0	6.03e-01	0	23	0	394788864	66	4401
2026-01-11 12:47:55.85	218.06	24.16	-49.1	-50.8	15.9	6.06e-01	0	23	0	400556032	66	4537
2026-01-11 12:47:58.87	218.79	24.54	-49.2	-50.9	15.9	6.07e-01	0	23	0	405798912	66	4554
2026-01-11 12:48:01.90	219.54	24.91	-48.9	-50.6	16.0	6.08e-01	0	23	0	411566080	66	4413
2026-01-11 12:48:04.92	220.31	25.29	-49.1	-50.8	15.9	6.06e-01	0	23	0	417333248	66	4513
2026-01-11 12:48:07.95	221.10	25.67	-49.0	-50.7	16.0	6.06e-01	0	23	0	423100416	66	4457
2026-01-11 12:48:10.97	221.90	26.05	-49.0	-50.7	16.0	6.05e-01	0	23	0	428867584	66	4454
2026-01-11 12:48:14.00	222.73	26.42	-49.2	-50.9	15.9	6.09e-01	0	23	0	434634752	66	4554
2026-01-11 12:48:17.02	223.58	26.80	-49.1	-50.8	15.9	6.07e-01	0	23	0	440401920	66	4534
2026-01-11 12:48:20.05	224.45	27.18	-49.3	-51.0	15.9	6.05e-01	0	23	0	445644800	66	4627
2026-01-11 12:48:23.07	225.34	27.55	-49.1	-50.8	16.0	6.08e-01	0	23	0	451411968	66	4520
2026-01-11 12:48:26.10	226.25	27.93	-49.1	-50.8	16.0	6.07e-01	0	23	0	457179136	66	4511
2026-01-11 12:48:29.13	227.18	28.30	-49.0	-50.7	16.0	6.07e-01	0	23	0	462946304	66	4468
2026-01-11 12:48:32.15	228.14	28.67	-49.0	-50.7	16.0	6.06e-01	0	23	0	468713472	66	4445
2026-01-11 12:48:35.17	229.11	29.03	-49.1	-50.7	16.0	6.09e-01	0	23	0	473956352	66	4492
2026-01-11 12:48:38.19	230.11	29.39	-49.2	-50.9	15.9	6.06e-01	0	23	0	479723520	66	4569
2026-01-11 12:48:41.22	231.13	29.75	-49.2	-50.9	15.9	6.07e-01	0	23	0	485490688	66	4558
2026-01-11 12:48:44.24	232.18	30.10	-48.9	-50.6	16.0	6.05e-01	0	23	0	491257856	66	4412
2026-01-11 12:48:47.27	233.25	30.45	-49.2	-50.8	16.0	6.08e-01	0	23	0	497025024	66	4536
2026-01-11 12:48:50.29	234.34	30.79	-49.0	-50.7	16.0	6.07e-01	0	23	0	502267904	66	4467
2026-01-11 12:48:53.31	235.45	31.12	-49.0	-50.7	16.0	6.05e-01	0	23	0	508035072	66	4444
2026-01-11 12:48:56.35	236.60	31.45	-48.9	-50.5	16.0	6.07e-01	0	23	0	513802240	66	4388
2026-01-11 12:48:59.37	237.76	31.76	-49.1	-50.8	16.0	6.07e-01	0	23	0	519569408	66	4531
2026-01-11 12:49:02.40	238.94	32.07	-49.0	-50.7	16.0	6.05e-01	0	23	0	525336576	66	4445
2026-01-11 12:49:05.42	240.15	32.37	-49.1	-50.7	16.0	6.07e-01	0	23	0	531103744	66	4475
2026-01-11 12:49:08.45	241.38	32.65	-49.0	-50.7	16.0	6.06e-01	0	23	0	536346624	66	4444
2026-01-11 12:49:11.48	242.63	32.93	-48.8	-50.4	16.1	6.07e-01	0	23	0	542113792	66	4316
2026-01-11 12:49:14.50	243.90	33.19	-48.8	-50.4	16.1	6.05e-01	0	23	0	547880960	66	4338
2026-01-11 12:49:17.52	245.19	33.44	-48.8	-50.5	16.0	6.07e-01	0	23	0	553648128	66	4357
2026-01-11 12:49:20.55	246.51	33.68	-48.8	-50.4	16.1	6.06e-01	0	23	0	559415296	66	4301
2026-01-11 12:49:23.57	247.84	33.90	-48.8	-50.5	16.1	6.05e-01	0	23	0	564658176	66	4343
2026-01-11 12:49:26.59	249.18	34.11	-48.7	-50.3	16.1	6.07e-01	0	23	0	570425344	66	4274
2026-01-11 12:49:29.62	250.55	34.30	-48.7	-50.3	16.1	6.06e-01	0	23	0	576192512	66	4260
2026-01-11 12:49:32.64	251.93	34.47	-48.7	-50.3	16.1	6.08e-01	0	23	0	581959680	66	4259
2026-01-11 12:49:35.66	253.32	34.63	-48.8	-50.4	16.1	6.04e-01	0	23	0	587726848	66	4309
2026-01-11 12:49:38.69	254.73	34.76	-48.7	-50.2	16.2	6.06e-01	0	23	0	593494016	66	4235
2026-01-11 12:49:41.71	256.15	34.89	-48.6	-50.1	16.2	6.06e-01	0	23	0	598736896	66	4189
2026-01-11 12:49:44.74	257.58	34.99	-48.7	-50.3	16.1	6.06e-01	0	23	0	604504064	66	4276
2026-01-11 12:49:47.76	259.01	35.07	-48.6	-50.1	16.2	6.06e-01	0	23	0	610271232	66	4186
2026-01-11 12:49:50.78	260.45	35.13	-48.6	-50.2	16.1	6.07e-01	0	23	0	616038400	66	4213
2026-01-11 12:49:53.81	261.91	35.18	-48.7	-50.3	16.1	6.01e-01	0	23	0	621805568	66	4284
2026-01-11 12:49:56.84	263.36	35.20	-48.5	-50.1	16.2	6.03e-01	0	23	0	627048448	66	4159
2026-01-11 12:49:59.86	264.81	35.21	-48.5	-50.1	16.2	6.01e-01	0	23	0	632815616	66	4165
2026-01-11 12:50:02.89	266.26	35.19	-48.5	-50.0	16.2	6.05e-01	0	23	0	638582784	66	4138
2026-01-11 12:50:05.90	267.70	35.16	-48.6	-50.1	16.2	6.03e-01	0	23	0	644349952	66	4189
2026-01-11 12:50:08.93	269.15	35.10	-48.5	-50.1	16.2	6.01e-01	0	23	0	650117120	66	4159
2026-01-11 12:50:11.95	270.59	35.03	-48.6	-50.2	16.2	6.03e-01	0	23	0	655360000	66	4200
2026-01-11 12:50:14.98	272.02	34.94	-48.6	-50.1	16.2	6.03e-01	0	23	0	661127168	66	4188
2026-01-11 12:50:18.00	273.44	34.82	-48.3	-49.9	16.1	6.03e-01	0	23	0	666894336	65	4297
2026-01-11 12:50:21.02	274.85	34.69	-48.2	-49.7	16.1	6.02e-01	0	23	0	672661504	65	4230
2026-01-11 12:50:24.05	276.25	34.55	-48.2	-49.8	16.1	6.04e-01	0	23	0	678428672	65	4255
2026-01-11 12:50:27.07	277.64	34.38	-48.2	-49.8	16.1	6.01e-01	0	23	0	683671552	65	4258
2026-01-11 12:50:30.10	279.01	34.20	-48.2	-49.8	16.1	6.03e-01	0	23	0	689438720	65	4264
2026-01-11 12:50:33.12	280.36	34.00	-48.3	-49.9	16.1	6.01e-01	0	23	0	695205888	65	4301
2026-01-11 12:50:36.15	281.70	33.78	-48.1	-49.7	16.2	6.02e-01	0	23	0	700973056	65	4202
2026-01-11 12:50:39.17	283.02	33.56	-48.1	-49.7	16.2	6.05e-01	0	23	0	706740224	65	4200
2026-01-11 12:50:42.19	284.31	33.31	-48.0	-49.5	16.2	6.01e-01	0	23	0	712507392	65	4125
2026-01-11 12:50:45.22	285.59	33.06	-47.9	-49.4	16.2	6.03e-01	0	23	0	717750272	65	4093
2026-01-11 12:50:48.24	286.85	32.79	-47.8	-49.3	16.1	6.03e-01	0	23	0	723517440	64	4275
2026-01-11 12:50:51.26	288.09	32.51	-48.0	-49.5	16.1	6.02e-01	0	23	0	729284608	64	4362
2026-01-11 12:50:54.28	289.30	32.22	-47.9	-49.4	16.1	6.02e-01	0	23	0	735051776	64	4312
2026-01-11 12:50:57.31	290.49	31.92	-47.9	-49.4	16.1	6.00e-01	0	23	0	740818944	64	4307
2026-01-11 12:51:00.34	291.66	31.61	-47.9	-49.5	16.1	6.02e-01	0	23	0	746586112	64	4341
2026-01-11 12:51:03.36	292.81	31.29	-47.7	-49.2	16.1	6.01e-01	0	23	0	751828992	64	4225
2026-01-11 12:51:06.38	293.93	30.96	-47.8	-49.3	16.1	6.02e-01	0	23	0	757596160	64	4288
2026-01-11 12:51:09.41	295.03	30.62	-48.0	-49.5	16.1	6.02e-01	0	23	0	763363328	64	4363
2026-01-11 12:51:12.43	296.11	30.28	-47.8	-49.3	16.1	6.05e-01	0	23	0	769130496	64	4263
2026-01-11 12:51:15.46	297.16	29.93	-48.0	-49.5	16.1	6.02e-01	0	23	0	774897664	64	4358
2026-01-11 12:51:18.48	298.19	29.58	-48.1	-49.6	16.0	6.01e-01	0	23	0	780140544	64	4422
2026-01-11 12:51:21.51	299.20	29.22	-47.9	-49.4	16.1	6.04e-01	0	23	0	785907712	64	4310
2026-01-11 12:51:24.53	300.19	28.86	-48.0	-49.5	16.1	6.04e-01	0	23	0	791674880	64	4390
2026-01-11 12:51:27.56	301.15	28.50	-48.0	-49.5	16.1	6.03e-01	0	23	0	797442048	64	4389
2026-01-11 12:51:30.58	302.09	28.13	-48.2	-49.8	16.0	6.03e-01	0	23	0	803209216	64	4500
2026-01-11 12:51:33.61	303.01	27.76	-48.3	-49.8	16.0	6.02e-01	0	23	0	808452096	64	4518
2026-01-11 12:51:36.63	303.90	27.39	-48.2	-49.7	16.0	6.04e-01	0	23	0	814219264	64	4481
2026-01-11 12:51:39.65	304.78	27.01	-48.3	-49.8	15.9	6.03e-01	0	23	0	819986432	64	4542
2026-01-11 12:51:42.68	305.64	26.64	-48.4	-49.9	15.9	6.02e-01	0	23	0	825753600	64	4587
2026-01-11 12:51:45.70	306.47	26.26	-48.5	-50.1	15.9	6.02e-01	0	23	0	831520768	64	4676
2026-01-11 12:51:48.72	307.28	25.89	-48.5	-50.0	16.0	6.05e-01	0	23	0	837287936	65	4382
2026-01-11 12:51:51.74	308.08	25.51	-48.5	-50.1	16.0	6.02e-01	0	23	0	842530816	65	4397
2026-01-11 12:51:54.76	308.85	25.13	-48.4	-50.0	16.0	6.04e-01	0	23	0	848297984	65	4360
2026-01-11 12:51:57.78	309.61	24.76	-48.7	-50.4	15.9	6.03e-01	0	23	0	854065152	65	4565
2026-01-11 12:52:00.80	310.35	24.39	-48.6	-50.2	16.0	6.02e-01	0	23	0	859832320	65	4488
2026-01-11 12:52:03.82	311.07	24.01	-48.6	-50.2	16.0	6.02e-01	0	23	0	865075200	65	4483
2026-01-11 12:52:06.84	311.77	23.64	-48.5	-50.1	16.0	6.04e-01	0	23	0	870842368	65	4400
2026-01-11 12:52:09.87	312.46	23.27	-48.5	-50.1	16.0	6.00e-01	0	23	0	876609536	65	4399
2026-01-11 12:52:12.89	313.13	22.91	-48.5	-50.1	16.0	6.02e-01	0	23	0	882376704	65	4423
2026-01-11 12:52:15.92	313.79	22.54	-48.5	-50.1	16.0	6.05e-01	0	23	0	888143872	65	4394
2026-01-11 12:52:18.94	314.42	22.18	-48.5	-50.2	16.0	6.01e-01	0	23	0	893911040	65	4443
2026-01-11 12:52:21.96	315.05	21.82	-48.6	-50.2	15.9	6.04e-01	0	23	0	899153920	65	4493
2026-01-11 12:52:24.99	315.66	21.46	-48.7	-50.3	16.0	6.02e-01	0	23	0	904921088	65	4518
2026-01-11 12:52:28.01	316.25	21.10	-48.6	-50.1	16.0	6.02e-01	0	23	0	910688256	65	4439
2026-01-11 12:52:31.04	316.84	20.75	-48.3	-49.9	16.1	6.02e-01	0	23	0	916455424	65	4314
2026-01-11 12:52:34.06	317.40	20.39	-48.4	-49.9	16.1	6.02e-01	0	23	0	922222592	65	4333
2026-01-11 12:52:37.07	317.96	20.05	-48.5	-50.1	16.0	6.02e-01	0	23	0	927465472	65	4434
2026-01-11 12:52:40.10	318.50	19.70	-48.5	-50.1	16.0	6.04e-01	0	23	0	933232640	65	4423
2026-01-11 12:52:43.12	319.03	19.36	-48.3	-49.9	16.1	6.03e-01	0	23	0	938999808	65	4311
2026-01-11 12:52:46.14	319.54	19.02	-48.2	-49.7	16.1	6.02e-01	0	23	0	944766976	65	4242
2026-01-11 12:52:49.16	320.05	18.68	-48.2	-49.7	16.1	6.04e-01	0	23	0	950534144	65	4230
2026-01-11 12:52:52.18	320.54	18.35	-48.3	-49.9	16.1	6.04e-01	0	23	0	956301312	65	4293
2026-01-11 12:52:55.20	321.03	18.02	-48.4	-50.0	16.1	6.01e-01	0	23	0	961544192	65	4353
2026-01-11 12:52:58.22	321.50	17.69	-48.4	-50.0	16.0	6.02e-01	0	23	0	967311360	65	4375
2026-01-11 12:53:01.25	321.96	17.37	-48.2	-49.7	16.2	6.02e-01	0	23	0	973078528	65	4237
2026-01-11 12:53:04.27	322.42	17.05	-48.2	-49.8	16.1	6.01e-01	0	23	0	978845696	65	4249
2026-01-11 12:53:07.29	322.86	16.73	-48.3	-49.9	16.1	6.01e-01	0	23	0	984612864	65	4301
2026-01-11 12:53:10.32	323.29	16.41	-48.2	-49.8	16.1	6.03e-01	0	23	0	989855744	65	4266
2026-01-11 12:53:13.35	323.72	16.10	-48.3	-49.9	16.0	6.00e-01	0	23	0	995622912	65	4324
2026-01-11 12:53:16.37	324.13	15.79	-48.2	-49.8	16.1	6.04e-01	0	23	0	1001390080	65	4248
2026-01-11 12:53:19.40	324.54	15.48	-48.3	-49.8	16.1	6.04e-01	0	23	0	1007157248	65	4291
2026-01-11 12:53:22.42	324.94	15.18	-48.3	-49.9	16.0	6.03e-01	0	23	0	1012924416	65	4331
2026-01-11 12:53:25.44	325.33	14.88	-48.4	-50.0	16.0	6.01e-01	0	23	0	1018167296	65	4377
2026-01-11 12:53:28.46	325.71	14.58	-48.3	-49.9	16.1	6.00e-01	0	23	0	1023934464	65	4328
2026-01-11 12:53:31.49	326.08	14.29	-48.4	-50.0	16.0	6.04e-01	0	23	0	1029701632	65	4370
2026-01-11 12:53:34.52	326.45	14.00	-48.3	-50.0	16.0	6.00e-01	0	23	0	1035468800	65	4347
2026-01-11 12:53:37.54	326.81	13.71	-48.3	-49.9	16.0	6.02e-01	0	23	0	1041235968	65	4312
2026-01-11 12:53:40.57	327.16	13.42	-48.3	-49.9	16.0	6.02e-01	0	23	0	1046478848	65	4315
2026-01-11 12:53:43.59	327.51	13.14	-48.4	-50.1	16.0	6.02e-01	0	23	0	1052246016	65	4407
2026-01-11 12:53:46.62	327.85	12.86	-48.4	-50.1	16.0	6.04e-01	0	23	0	1058013184	65	4395
2026-01-11 12:53:49.65	328.18	12.58	-48.5	-50.1	16.0	6.03e-01	0	23	0	1063780352	65	4425
2026-01-11 12:53:52.67	328.51	12.31	-48.6	-50.2	16.0	6.04e-01	0	23	0	1069547520	65	4487
2026-01-11 12:53:55.70	328.83	12.03	-48.7	-50.4	15.9	6.00e-01	0	23	0	1075314688	65	4549
2026-01-11 12:53:58.72	329.14	11.76	-48.8	-50.5	15.9	6.02e-01	0	23	0	1080557568	65	4647
2026-01-11 12:54:01.75	329.45	11.50	-48.7	-50.4	15.9	6.02e-01	0	23	0	1086324736	65	4572
2026-01-11 12:54:04.78	329.75	11.23	-48.7	-50.4	15.9	6.04e-01	0	23	0	1092091904	65	4582
2026-01-11 12:54:07.80	330.05	10.97	-48.8	-50.5	15.8	6.03e-01	0	23	0	1097859072	65	4639
2026-01-11 12:54:10.83	330.34	10.71	-49.0	-50.8	15.8	6.02e-01	0	23	0	1103626240	65	4769
2026-01-11 12:54:13.85	330.63	10.45	-49.0	-50.7	15.8	6.02e-01	0	23	0	1109393408	65	4749
2026-01-11 12:54:16.87	330.91	10.20	-48.9	-50.6	15.8	6.04e-01	0	23	0	1114636288	65	4680
2026-01-11 12:54:19.89	331.18	9.95	-49.1	-50.8	15.7	6.01e-01	0	23	0	1120403456	65	4808
2026-01-11 12:54:22.91	331.46	9.70	-49.2	-51.0	15.8	6.04e-01	0	23	0	1126170624	66	4632
2026-01-11 12:54:25.93	331.72	9.45	-49.1	-50.9	15.8	6.02e-01	0	23	0	1131937792	66	4581
2026-01-11 12:54:28.95	331.98	9.21	-49.2	-51.0	15.8	6.03e-01	0	23	0	1137704960	66	4634
2026-01-11 12:54:31.98	332.24	8.96	-49.2	-51.0	15.8	6.02e-01	0	23	0	1142947840	66	4642
2026-01-11 12:54:35.00	332.49	8.72	-49.2	-51.0	15.8	6.00e-01	0	23	0	1148715008	66	4642
2026-01-11 12:54:38.02	332.74	8.48	-49.5	-51.4	15.7	6.04e-01	0	23	0	1154482176	66	4837
2026-01-11 12:54:41.04	332.99	8.25	-49.4	-51.3	15.7	6.03e-01	0	23	0	1160249344	66	4793
2026-01-11 12:54:44.06	333.23	8.01	-49.5	-51.4	15.7	6.02e-01	0	23	0	1166016512	66	4869
2026-01-11 12:54:47.09	333.47	7.78	-49.6	-51.5	15.7	6.01e-01	0	23	0	1171259392	66	4887
2026-01-11 12:54:50.11	333.70	7.55	-49.5	-51.4	15.9	6.03e-01	0	23	0	1177026560	67	4560
2026-01-11 12:54:53.12	333.93	7.32	-49.7	-51.6	15.8	6.05e-01	0	23	0	1182793728	67	4676
2026-01-11 12:54:56.14	334.15	7.10	-49.6	-51.5	15.8	6.06e-01	0	23	0	1188560896	67	4616
2026-01-11 12:54:59.16	334.38	6.87	-50.0	-52.0	15.6	6.01e-01	0	23	0	1194328064	67	4907
2026-01-11 12:55:02.19	334.60	6.65	-49.8	-51.8	15.6	6.03e-01	0	23	0	1199570944	67	4803
2026-01-11 12:55:05.20	334.81	6.43	-49.9	-51.9	15.6	6.03e-01	0	23	0	1205338112	67	4829
2026-01-11 12:55:08.22	335.02	6.21	-50.0	-52.0	15.6	6.01e-01	0	23	0	1211105280	67	4908
2026-01-11 12:55:11.25	335.23	5.99	-50.0	-52.0	15.6	6.04e-01	0	23	0	1216872448	67	4896
2026-01-11 12:55:14.27	335.44	5.78	-50.1	-52.2	15.5	6.03e-01	0	23	0	1222639616	67	4992
2026-01-11 12:55:17.30	335.64	5.56	-50.5	-52.7	15.4	6.03e-01	0	23	0	1227882496	68	5015
2026-01-11 12:55:20.32	335.84	5.35	-50.8	-53.2	15.4	6.04e-01	0	23	0	1233649664	69	5012
2026-01-11 12:55:23.35	336.04	5.14	-50.7	-53.0	15.5	6.04e-01	0	23	0	1239416832	69	4904
2026-01-11 12:55:26.37	336.23	4.93	-57.3	-74.8	3.8	7.45e-01	0	23	104	1244659712	82	28625
2026-01-11 12:55:29.40	336.42	4.72	-58.4	-77.8	3.8	7.45e-01	0	23	104	1244659712	84	35727
2026-01-11 12:55:32.42	336.61	4.51	-58.8	-78.2	3.8	7.48e-01	0	23	104	1244659712	85	35363
2026-01-11 12:55:35.45	336.80	4.31	-59.0	-78.4	3.8	7.43e-01	0	23	104	1244659712	85	36221
2026-01-11 12:55:38.47	336.98	4.11	-59.2	-78.6	3.8	7.48e-01	0	23	104	1244659712	86	34908
2026-01-11 12:55:41.50	337.16	3.90	-59.3	-78.6	3.8	7.47e-01	0	23	104	1244659712	86	35117
2026-01-11 12:55:44.53	337.34	3.70	-59.3	-78.7	3.8	7.45e-01	0	23	104	1244659712	86	35289
2026-01-11 12:55:47.56	337.52	3.51	-59.3	-78.7	3.8	7.48e-01	0	23	104	1244659712	86	35364
2026-01-11 12:55:50.58	337.69	3.31	-59.2	-78.6	3.8	7.47e-01	0	23	104	1244659712	86	35030
2026-01-11 12:55:53.60	337.86	3.11	-59.2	-78.5	3.8	7.47e-01	0	23	104	1244659712	86	34780
2026-01-11 12:55:56.63	338.03	2.92	-59.2	-78.5	3.8	7.46e-01	0	23	104	1244659712	86	34665
2026-01-11 12:55:59.66	338.20	2.72	-59.1	-78.5	3.8	7.45e-01	0	23	104	1244659712	86	34583
2026-01-11 12:56:02.68	338.36	2.53	-59.1	-78.4	3.8	7.50e-01	0	23	104	1244659712	86	34453
2026-01-11 12:56:05.71	338.53	2.34	-59.1	-78.4	3.8	7.47e-01	0	23	104	1244659712	86	34435
2026-01-11 12:56:08.74	338.69	2.15	-59.1	-78.4	3.8	7.47e-01	0	24	104	1244659712	86	34301
2026-01-11 12:56:11.76	338.85	1.96	-59.1	-78.4	3.8	7.47e-01	0	24	104	1244659712	86	34314

#Closed at: 2026-01-11 12:56:14
#Recorded file [1244 MB]: D:/lorett/data/31004_260111_154350.dat