passes_logs/2026/01/11/R3.2S_Murmansk/R3.2S_Murmansk__20260111_060543_NOAA_20_JPSS-1_rec.log

#Pass ID: 20260111_060543_NOAA 20 (JPSS-1)
#Satellite: NOAA 20 (JPSS-1)
#Configuration: NOAA 20
#almurnet v.1.7.20251203
#Start time: 2026-01-11 06:05:43

#Version: 2.2.20231116
#Station: R3.2S_Murmansk
#Location: 33.079688 lon 68.888172 lat
#TLE: 1 43013U 17073A   26009.69119415  .00000109  00000+0  72598-4 0  9996
#TLE: 2 43013  98.7631 310.6868 0001678  46.7442 313.3874 14.19534878421981

#Time	Az	El	Level	Level2	SNR	BER	BlckErr	Temp	State	Recorded	gain1	gain2
2026-01-11 06:05:43.94	77.50	2.04	-57.3	-73.3	3.8	1.49e+00	0	22	0	0	81	21785
2026-01-11 06:05:47.94	77.26	2.27	-57.2	-73.2	3.8	1.49e+00	0	23	104	0	79	24310
2026-01-11 06:05:51.95	77.01	2.50	-57.2	-73.2	3.8	1.49e+00	0	23	104	0	79	24285
2026-01-11 06:05:56.01	76.75	2.74	-57.2	-73.2	3.8	1.49e+00	0	23	104	0	79	24343
2026-01-11 06:06:00.03	76.49	2.97	-57.2	-73.2	3.8	1.49e+00	0	23	104	0	79	24404
2026-01-11 06:06:04.04	76.23	3.21	-57.2	-73.2	3.8	1.49e+00	0	23	104	0	79	24356
2026-01-11 06:06:08.04	75.97	3.45	-57.2	-73.2	3.8	1.49e+00	0	23	104	0	79	24268
2026-01-11 06:06:12.04	75.70	3.69	-57.3	-73.3	3.8	1.49e+00	0	23	104	0	79	24453
2026-01-11 06:06:16.06	75.42	3.93	-57.2	-73.1	3.8	1.49e+00	0	23	104	0	79	24121
2026-01-11 06:06:20.06	75.14	4.17	-57.2	-73.2	3.8	1.49e+00	0	24	104	0	79	24150
2026-01-11 06:06:24.06	74.86	4.42	-57.2	-71.2	3.8	1.49e+00	0	24	104	0	79	19356
2026-01-11 06:06:28.08	74.57	4.66	-57.0	-67.8	4.9	8.16e-01	0	24	0	2097152	79	13060
2026-01-11 06:06:32.10	74.27	4.91	-56.7	-65.4	6.3	2.08e-01	0	24	0	9437184	79	9867
2026-01-11 06:06:36.12	73.97	5.16	-55.9	-61.5	10.0	1.64e-04	0	24	0	17825792	77	7046
2026-01-11 06:06:40.13	73.67	5.41	-54.9	-59.0	11.7	7.00e-07	0	24	0	23068672	75	5967
2026-01-11 06:06:44.13	73.35	5.66	-54.2	-57.5	12.7	0.00e+00	0	24	0	31457280	74	5339
2026-01-11 06:06:48.15	73.04	5.92	-54.4	-57.9	12.5	0.00e+00	0	24	0	38797312	74	5579
2026-01-11 06:06:52.19	72.71	6.18	-54.1	-57.3	12.9	0.00e+00	0	24	0	46137344	74	5190
2026-01-11 06:06:56.22	72.38	6.44	-54.0	-57.2	13.0	0.00e+00	0	24	0	53477376	74	5118
2026-01-11 06:07:00.25	72.04	6.70	-53.7	-56.5	13.5	0.00e+00	0	24	0	60817408	74	4757
2026-01-11 06:07:04.27	71.70	6.96	-53.8	-56.8	13.2	0.00e+00	0	24	0	69206016	73	5196
2026-01-11 06:07:08.27	71.36	7.22	-53.8	-56.8	13.2	0.00e+00	0	24	0	76546048	73	5194
2026-01-11 06:07:12.29	71.00	7.48	-53.8	-56.7	13.3	0.00e+00	0	24	0	83886080	73	5115
2026-01-11 06:07:16.31	70.64	7.75	-53.7	-56.6	13.4	0.00e+00	0	24	0	91226112	73	5058
2026-01-11 06:07:20.37	70.27	8.02	-53.7	-56.6	13.4	0.00e+00	0	24	0	98566144	73	5063
2026-01-11 06:07:24.43	69.89	8.29	-53.9	-56.9	13.2	0.00e+00	0	24	0	106954752	73	5235
2026-01-11 06:07:28.45	69.50	8.56	-54.0	-57.0	13.1	0.00e+00	0	25	0	114294784	73	5335
2026-01-11 06:07:32.48	69.11	8.84	-53.7	-56.5	13.4	0.00e+00	0	24	0	121634816	73	5023
2026-01-11 06:07:36.51	68.71	9.11	-53.6	-56.4	13.6	0.00e+00	0	25	0	128974848	73	4928
2026-01-11 06:07:40.51	68.31	9.39	-53.5	-56.1	13.8	0.00e+00	0	24	0	136314880	73	4779
2026-01-11 06:07:44.54	67.89	9.67	-53.3	-55.9	13.9	0.00e+00	0	25	0	144703488	73	4664
2026-01-11 06:07:48.54	67.47	9.94	-53.3	-55.8	13.9	0.00e+00	0	25	0	152043520	73	4647
2026-01-11 06:07:52.54	67.04	10.22	-53.4	-55.9	13.9	0.00e+00	0	24	0	159383552	73	4676
2026-01-11 06:07:56.56	66.61	10.51	-53.3	-55.7	14.0	0.00e+00	0	25	0	166723584	73	4598
2026-01-11 06:08:00.56	66.16	10.79	-53.4	-55.9	13.9	0.00e+00	0	25	0	174063616	73	4702
2026-01-11 06:08:04.57	65.70	11.08	-53.4	-55.9	13.9	0.00e+00	0	24	0	182452224	73	4696
2026-01-11 06:08:08.59	65.24	11.36	-53.4	-55.9	13.9	0.00e+00	0	24	0	189792256	73	4653
2026-01-11 06:08:12.63	64.76	11.65	-53.3	-55.7	14.0	0.00e+00	0	25	0	197132288	73	4598
2026-01-11 06:08:16.63	64.28	11.94	-53.1	-55.5	14.1	0.00e+00	0	25	0	204472320	72	4722
2026-01-11 06:08:20.67	63.78	12.23	-53.2	-55.6	14.0	0.00e+00	0	25	0	211812352	72	4769
2026-01-11 06:08:24.69	63.27	12.53	-53.0	-55.3	14.2	0.00e+00	0	25	0	219152384	72	4624
2026-01-11 06:08:28.69	62.76	12.82	-52.9	-55.1	14.3	0.00e+00	0	25	0	227540992	72	4541
2026-01-11 06:08:32.71	62.23	13.12	-52.8	-55.0	14.3	0.00e+00	0	25	0	234881024	72	4476
2026-01-11 06:08:36.75	61.69	13.41	-52.9	-55.1	14.3	0.00e+00	0	25	0	242221056	72	4522
2026-01-11 06:08:40.75	61.14	13.71	-52.9	-55.1	14.3	0.00e+00	0	25	0	249561088	72	4525
2026-01-11 06:08:44.80	60.58	14.01	-52.6	-54.8	14.4	0.00e+00	0	25	0	256901120	71	4629
2026-01-11 06:08:48.82	60.01	14.31	-52.5	-54.6	14.4	0.00e+00	0	25	0	265289728	71	4535
2026-01-11 06:08:52.84	59.43	14.61	-52.4	-54.4	14.6	0.00e+00	0	25	0	272629760	71	4415
2026-01-11 06:08:56.84	58.83	14.91	-52.4	-54.4	14.6	0.00e+00	0	25	0	279969792	71	4418
2026-01-11 06:09:00.88	58.22	15.21	-52.5	-54.6	14.5	0.00e+00	0	25	0	287309824	71	4518
2026-01-11 06:09:04.94	57.59	15.52	-52.7	-54.8	14.3	0.00e+00	0	25	0	294649856	71	4628
2026-01-11 06:09:08.94	56.96	15.82	-52.8	-55.0	14.3	0.00e+00	0	25	0	303038464	71	4709
2026-01-11 06:09:12.96	56.32	16.12	-52.7	-54.8	14.4	0.00e+00	0	25	0	310378496	71	4642
2026-01-11 06:09:16.96	55.66	16.42	-52.9	-55.1	14.1	0.00e+00	0	25	0	317718528	71	4808
2026-01-11 06:09:20.96	54.99	16.72	-52.8	-54.9	14.3	0.00e+00	0	25	0	325058560	71	4692
2026-01-11 06:09:24.97	54.30	17.02	-52.8	-55.0	14.3	0.00e+00	0	25	0	332398592	71	4730
2026-01-11 06:09:28.99	53.60	17.32	-53.0	-55.2	14.1	0.00e+00	0	25	0	339738624	71	4858
2026-01-11 06:09:32.98	52.89	17.62	-53.1	-55.4	14.0	0.00e+00	0	25	0	348127232	71	4973
2026-01-11 06:09:36.98	52.17	17.91	-52.9	-55.1	14.2	0.00e+00	0	25	0	355467264	71	4814
2026-01-11 06:09:40.97	51.43	18.21	-52.7	-54.9	14.3	0.00e+00	0	25	0	362807296	71	4670
2026-01-11 06:09:44.98	50.67	18.50	-52.7	-54.9	14.3	0.00e+00	0	25	0	370147328	71	4657
2026-01-11 06:09:49.00	49.89	18.79	-52.4	-54.4	14.6	0.00e+00	0	25	0	377487360	71	4434
2026-01-11 06:09:53.00	49.11	19.08	-52.4	-54.3	14.6	0.00e+00	0	25	0	384827392	71	4390
2026-01-11 06:09:57.02	48.30	19.37	-52.0	-53.9	14.6	0.00e+00	0	25	0	393216000	70	4431
2026-01-11 06:10:01.06	47.48	19.66	-51.3	-53.1	15.0	0.00e+00	0	25	0	400556032	69	4250
2026-01-11 06:10:05.09	46.64	19.95	-51.1	-52.8	14.9	0.00e+00	0	25	0	407896064	68	4373
2026-01-11 06:10:09.09	45.79	20.22	-51.0	-52.7	15.0	0.00e+00	0	25	0	415236096	68	4292
2026-01-11 06:10:13.11	44.93	20.50	-50.9	-52.5	15.1	0.00e+00	0	25	0	422576128	68	4216
2026-01-11 06:10:17.13	44.04	20.77	-50.8	-52.5	15.1	0.00e+00	0	25	0	430964736	68	4198
2026-01-11 06:10:21.14	43.15	21.04	-50.7	-52.2	15.2	0.00e+00	0	25	0	438304768	68	4092
2026-01-11 06:10:25.15	42.23	21.30	-50.4	-52.0	15.2	0.00e+00	0	25	0	445644800	67	4199
2026-01-11 06:10:29.17	41.30	21.56	-50.4	-52.0	15.2	0.00e+00	0	25	0	452984832	67	4213
2026-01-11 06:10:33.18	40.36	21.81	-50.6	-52.2	15.1	0.00e+00	0	25	0	460324864	67	4335
2026-01-11 06:10:37.20	39.40	22.05	-50.6	-52.2	15.0	0.00e+00	0	25	0	467664896	67	4307
2026-01-11 06:10:41.21	38.42	22.29	-50.8	-52.4	15.0	0.00e+00	0	25	0	476053504	67	4409
2026-01-11 06:10:45.23	37.43	22.53	-50.6	-52.2	15.1	0.00e+00	0	25	0	483393536	67	4307
2026-01-11 06:10:49.24	36.43	22.75	-50.6	-52.2	15.0	0.00e+00	0	25	0	490733568	67	4315
2026-01-11 06:10:53.27	35.41	22.97	-50.4	-52.0	15.2	0.00e+00	0	25	0	498073600	67	4211
2026-01-11 06:10:57.22	34.39	23.17	-50.4	-51.9	15.2	0.00e+00	0	25	0	505413632	67	4191
2026-01-11 06:11:01.19	33.35	23.37	-50.1	-51.6	15.2	0.00e+00	0	25	0	512753664	66	4271
2026-01-11 06:11:05.17	32.30	23.56	-50.1	-51.6	15.2	0.00e+00	0	25	0	520093696	66	4288
2026-01-11 06:11:09.17	31.23	23.74	-50.4	-52.0	15.0	0.00e+00	0	25	0	528482304	66	4452
2026-01-11 06:11:13.16	30.15	23.91	-50.6	-52.2	14.9	0.00e+00	0	25	0	535822336	66	4546
2026-01-11 06:11:17.15	29.06	24.08	-50.7	-52.3	14.9	0.00e+00	0	25	0	543162368	66	4630
2026-01-11 06:11:21.16	27.96	24.23	-51.0	-52.7	14.9	0.00e+00	0	25	0	550502400	67	4549
2026-01-11 06:11:25.16	26.84	24.37	-51.9	-53.8	14.5	0.00e+00	0	25	0	557842432	68	4881
2026-01-11 06:11:29.16	25.72	24.50	-52.0	-53.9	14.6	0.00e+00	0	25	0	565182464	69	4654
2026-01-11 06:11:33.15	24.59	24.61	-52.0	-53.9	14.6	0.00e+00	0	25	0	572522496	69	4666
2026-01-11 06:11:37.16	23.45	24.72	-52.1	-54.0	14.5	0.00e+00	0	25	0	580911104	69	4753
2026-01-11 06:11:41.15	22.30	24.81	-52.3	-54.3	14.4	0.00e+00	0	25	0	588251136	69	4905
2026-01-11 06:11:45.16	21.15	24.89	-52.5	-54.5	14.4	0.00e+00	0	25	0	595591168	70	4732
2026-01-11 06:11:49.16	19.99	24.96	-52.4	-54.4	14.5	0.00e+00	0	25	0	602931200	70	4675
2026-01-11 06:11:53.15	18.82	25.02	-52.3	-54.2	14.6	0.00e+00	0	25	0	610271232	70	4581
2026-01-11 06:11:57.14	17.66	25.06	-52.6	-54.6	14.4	0.00e+00	0	25	0	617611264	70	4805
2026-01-11 06:12:01.13	16.49	25.09	-52.4	-54.4	14.5	0.00e+00	0	25	0	624951296	70	4657
2026-01-11 06:12:05.11	15.33	25.11	-52.2	-54.1	14.6	0.00e+00	0	25	0	633339904	70	4530
2026-01-11 06:12:09.08	14.16	25.11	-52.1	-53.9	14.8	0.00e+00	0	25	0	640679936	70	4418
2026-01-11 06:12:13.08	12.99	25.10	-51.5	-53.2	15.0	0.00e+00	0	25	0	648019968	69	4297
2026-01-11 06:12:17.08	11.82	25.08	-51.3	-53.0	15.0	0.00e+00	0	25	0	655360000	69	4220
2026-01-11 06:12:21.07	10.65	25.05	-50.9	-52.5	15.1	0.00e+00	0	25	0	662700032	68	4222
2026-01-11 06:12:25.07	9.48	25.00	-50.7	-52.2	15.3	0.00e+00	0	25	0	670040064	68	4098
2026-01-11 06:12:29.07	8.32	24.94	-50.1	-51.5	15.2	0.00e+00	0	25	0	677380096	66	4236
2026-01-11 06:12:33.06	7.17	24.86	-50.1	-51.6	15.1	0.00e+00	0	25	0	685768704	66	4262
2026-01-11 06:12:37.05	6.02	24.78	-50.0	-51.4	15.2	0.00e+00	0	25	0	693108736	66	4184
2026-01-11 06:12:41.05	4.87	24.68	-50.1	-51.6	15.2	0.00e+00	0	25	0	700448768	66	4259
2026-01-11 06:12:45.04	3.74	24.57	-50.3	-51.8	15.1	0.00e+00	0	25	0	707788800	66	4363
2026-01-11 06:12:49.03	2.61	24.45	-50.3	-51.8	15.1	0.00e+00	0	25	0	715128832	66	4376
2026-01-11 06:12:53.03	1.49	24.32	-50.7	-52.4	14.9	0.00e+00	0	25	0	722468864	66	4652
2026-01-11 06:12:57.01	0.39	24.17	-50.8	-52.4	14.8	0.00e+00	0	25	0	729808896	66	4701
2026-01-11 06:13:00.98	359.30	24.02	-51.2	-52.8	14.8	0.00e+00	0	25	0	738197504	67	4650
2026-01-11 06:13:04.95	358.22	23.85	-51.2	-52.9	14.8	0.00e+00	0	25	0	745537536	67	4657
2026-01-11 06:13:08.96	357.14	23.68	-51.8	-53.6	14.6	0.00e+00	0	25	0	752877568	68	4772
2026-01-11 06:13:12.95	356.08	23.49	-52.0	-53.8	14.6	0.00e+00	0	25	0	760217600	69	4647
2026-01-11 06:13:16.94	355.03	23.30	-52.0	-53.8	14.7	0.00e+00	0	25	0	767557632	69	4611
2026-01-11 06:13:20.94	354.00	23.10	-52.3	-54.2	14.5	0.00e+00	0	25	0	774897664	69	4832
2026-01-11 06:13:24.95	352.97	22.89	-52.1	-54.0	14.6	0.00e+00	0	25	0	782237696	69	4737
2026-01-11 06:13:28.95	351.96	22.67	-52.1	-53.9	14.6	0.00e+00	0	25	0	789577728	69	4701
2026-01-11 06:13:32.96	350.96	22.44	-52.6	-54.6	14.3	0.00e+00	0	25	0	797966336	70	4787
2026-01-11 06:13:36.95	349.99	22.21	-52.1	-54.0	14.7	0.00e+00	0	25	0	805306368	70	4473
2026-01-11 06:13:40.95	349.02	21.97	-52.2	-54.1	14.6	0.00e+00	0	25	0	812646400	70	4529
2026-01-11 06:13:44.93	348.08	21.72	-52.1	-53.9	14.7	0.00e+00	0	25	0	819986432	70	4430
2026-01-11 06:13:48.93	347.14	21.47	-51.8	-53.6	14.9	0.00e+00	0	25	0	827326464	70	4283
2026-01-11 06:13:52.92	346.23	21.21	-51.6	-53.4	14.8	0.00e+00	0	25	0	834666496	69	4408
2026-01-11 06:13:56.92	345.32	20.95	-51.4	-53.1	14.9	0.00e+00	0	25	0	843055104	69	4282
2026-01-11 06:14:00.91	344.44	20.68	-51.6	-53.3	14.9	0.00e+00	0	25	0	850395136	69	4364
2026-01-11 06:14:04.90	343.57	20.41	-51.5	-53.2	14.9	0.00e+00	0	25	0	857735168	69	4334
2026-01-11 06:14:08.88	342.71	20.14	-51.5	-53.2	14.9	0.00e+00	0	25	0	865075200	69	4305
2026-01-11 06:14:12.86	341.88	19.86	-51.5	-53.3	14.9	0.00e+00	0	25	0	872415232	69	4351
2026-01-11 06:14:16.85	341.05	19.58	-51.6	-53.3	14.8	0.00e+00	0	25	0	879755264	69	4387
2026-01-11 06:14:20.85	340.24	19.29	-51.5	-53.2	14.9	0.00e+00	0	25	0	887095296	69	4306
2026-01-11 06:14:24.84	339.45	19.01	-51.3	-52.9	15.0	0.00e+00	0	25	0	894435328	69	4189
2026-01-11 06:14:28.85	338.67	18.72	-51.2	-52.9	14.9	0.00e+00	0	25	0	902823936	68	4397
2026-01-11 06:14:32.85	337.90	18.42	-51.0	-52.6	15.0	0.00e+00	0	25	0	910163968	68	4264
2026-01-11 06:14:36.84	337.15	18.13	-50.9	-52.5	15.1	0.00e+00	0	25	0	917504000	68	4210
2026-01-11 06:14:40.84	336.42	17.83	-50.8	-52.4	15.1	0.00e+00	0	25	0	924844032	68	4175
2026-01-11 06:14:44.83	335.70	17.54	-50.8	-52.4	15.1	0.00e+00	0	25	0	932184064	68	4166
2026-01-11 06:14:48.82	334.99	17.24	-50.5	-52.0	15.1	0.00e+00	0	25	0	939524096	67	4232
2026-01-11 06:14:52.81	334.30	16.94	-50.4	-51.9	15.1	0.00e+00	0	25	0	947912704	67	4183
2026-01-11 06:14:56.80	333.62	16.64	-50.6	-52.2	15.0	0.00e+00	0	25	0	955252736	67	4306
2026-01-11 06:15:00.78	332.96	16.35	-50.7	-52.3	15.0	0.00e+00	0	25	0	962592768	67	4372
2026-01-11 06:15:04.76	332.31	16.05	-50.7	-52.3	15.0	0.00e+00	0	25	0	969932800	67	4368
2026-01-11 06:15:08.73	331.68	15.75	-50.7	-52.3	15.0	0.00e+00	0	25	0	977272832	67	4370
2026-01-11 06:15:12.71	331.06	15.45	-50.8	-52.4	14.9	0.00e+00	0	25	0	984612864	67	4407
2026-01-11 06:15:16.70	330.44	15.15	-51.2	-53.0	14.7	0.00e+00	0	25	0	991952896	67	4721
2026-01-11 06:15:20.70	329.84	14.86	-51.7	-53.5	14.6	0.00e+00	0	25	0	999292928	68	4724
2026-01-11 06:15:24.70	329.25	14.56	-51.5	-53.3	14.7	2.20e-06	0	25	0	1006632960	68	4651
2026-01-11 06:15:28.68	328.68	14.26	-51.5	-53.3	14.7	0.00e+00	0	25	0	1015021568	68	4610
2026-01-11 06:15:32.66	328.12	13.96	-51.8	-53.7	14.5	0.00e+00	0	25	0	1022361600	68	4819
2026-01-11 06:15:36.67	327.56	13.67	-52.0	-53.9	14.5	0.00e+00	0	25	0	1029701632	69	4662
2026-01-11 06:15:40.66	327.02	13.37	-51.9	-53.8	14.5	0.00e+00	0	25	0	1037041664	69	4644
2026-01-11 06:15:44.67	326.49	13.08	-51.9	-53.8	14.5	0.00e+00	0	25	0	1044381696	69	4648
2026-01-11 06:15:48.66	325.97	12.79	-51.9	-53.9	14.5	0.00e+00	0	25	0	1051721728	69	4652
2026-01-11 06:15:52.67	325.45	12.49	-52.1	-54.1	14.4	0.00e+00	0	25	0	1060110336	69	4803
2026-01-11 06:15:56.67	324.95	12.20	-52.2	-54.3	14.3	0.00e+00	0	25	0	1067450368	69	4887
2026-01-11 06:16:00.68	324.46	11.91	-52.4	-54.5	14.2	0.00e+00	0	25	0	1074790400	69	4990
2026-01-11 06:16:04.66	323.98	11.62	-52.2	-54.2	14.3	0.00e+00	0	25	0	1082130432	69	4852
2026-01-11 06:16:08.64	323.52	11.34	-52.5	-54.6	14.2	0.00e+00	0	25	0	1089470464	70	4787
2026-01-11 06:16:12.62	323.06	11.06	-52.6	-54.7	14.2	0.00e+00	0	25	0	1096810496	70	4863
2026-01-11 06:16:16.61	322.60	10.77	-52.8	-55.1	14.0	0.00e+00	0	25	0	1104150528	70	5073
2026-01-11 06:16:20.60	322.16	10.49	-53.0	-55.3	14.0	0.00e+00	0	25	0	1111490560	71	4890
2026-01-11 06:16:24.60	321.73	10.21	-53.1	-55.5	13.9	0.00e+00	0	25	0	1119879168	71	5023
2026-01-11 06:16:28.60	321.30	9.93	-53.2	-55.7	13.8	0.00e+00	0	25	0	1127219200	71	5121
2026-01-11 06:16:32.59	320.88	9.65	-53.4	-55.9	13.8	0.00e+00	0	25	0	1134559232	72	4940
2026-01-11 06:16:36.59	320.47	9.38	-53.3	-55.7	13.8	0.00e+00	0	25	0	1141899264	72	4858
2026-01-11 06:16:40.58	320.07	9.10	-53.3	-55.7	13.9	0.00e+00	0	25	0	1149239296	72	4848
2026-01-11 06:16:44.57	319.68	8.83	-53.3	-55.8	13.8	0.00e+00	0	25	0	1156579328	72	4892
2026-01-11 06:16:48.57	319.29	8.56	-53.4	-56.0	13.7	0.00e+00	0	25	0	1163919360	72	4998
2026-01-11 06:16:52.56	318.91	8.29	-53.5	-56.0	13.6	0.00e+00	0	25	0	1172307968	72	5030
2026-01-11 06:16:56.55	318.54	8.02	-53.5	-56.1	13.6	0.00e+00	0	25	0	1179648000	72	5069
2026-01-11 06:17:00.54	318.18	7.76	-53.6	-56.3	13.5	0.00e+00	0	25	0	1186988032	72	5180
2026-01-11 06:17:04.53	317.82	7.50	-53.8	-56.5	13.3	0.00e+00	0	25	0	1194328064	72	5339
2026-01-11 06:17:08.51	317.47	7.23	-53.9	-56.8	13.0	0.00e+00	0	25	0	1201668096	72	5507
2026-01-11 06:17:12.51	317.12	6.97	-54.0	-57.0	13.1	0.00e+00	0	25	0	1209008128	73	5325
2026-01-11 06:17:16.51	316.78	6.71	-54.1	-57.1	13.0	0.00e+00	0	25	0	1216348160	73	5402
2026-01-11 06:17:20.49	316.45	6.46	-54.1	-57.2	12.9	0.00e+00	0	26	0	1224736768	73	5404
2026-01-11 06:17:24.49	316.13	6.20	-54.1	-57.1	12.9	0.00e+00	0	25	0	1232076800	73	5400
2026-01-11 06:17:28.48	315.81	5.95	-54.1	-57.3	12.8	0.00e+00	0	25	0	1239416832	73	5472
2026-01-11 06:17:32.48	315.49	5.69	-54.1	-57.2	12.8	0.00e+00	0	25	0	1246756864	73	5442
2026-01-11 06:17:36.47	315.18	5.44	-54.0	-57.1	12.9	0.00e+00	0	25	0	1254096896	73	5395
2026-01-11 06:17:40.47	314.88	5.19	-54.3	-57.7	12.5	0.00e+00	0	25	0	1261436928	73	5735
2026-01-11 06:17:44.46	314.58	4.94	-58.2	-74.1	3.8	1.49e+00	0	25	104	1267728384	81	23898
2026-01-11 06:17:48.45	314.29	4.70	-59.2	-75.2	3.8	1.49e+00	0	25	104	1267728384	83	24250
2026-01-11 06:17:52.45	314.00	4.45	-59.8	-75.9	3.8	1.49e+00	0	26	104	1267728384	84	24768
2026-01-11 06:17:56.45	313.72	4.21	-60.1	-76.1	3.8	1.49e+00	0	25	104	1267728384	85	24067
2026-01-11 06:18:00.45	313.44	3.97	-60.2	-76.3	3.8	1.49e+00	0	26	104	1267728384	85	24448
2026-01-11 06:18:04.45	313.16	3.73	-60.2	-76.3	3.8	1.49e+00	0	25	104	1267728384	85	24482
2026-01-11 06:18:08.45	312.89	3.49	-60.1	-76.2	3.8	1.49e+00	0	25	104	1267728384	85	24181
2026-01-11 06:18:12.45	312.63	3.25	-60.1	-76.1	3.8	1.49e+00	0	25	104	1267728384	85	24048
2026-01-11 06:18:16.44	312.37	3.01	-60.0	-76.1	3.8	1.49e+00	0	26	104	1267728384	85	23913
2026-01-11 06:18:20.43	312.12	2.78	-60.0	-76.1	3.8	1.49e+00	0	26	104	1267728384	85	23865
2026-01-11 06:18:24.43	311.86	2.55	-60.0	-76.0	3.8	1.49e+00	0	26	104	1267728384	85	23805
2026-01-11 06:18:28.45	311.62	2.31	-60.0	-76.0	3.8	1.49e+00	0	26	104	1267728384	85	23821
2026-01-11 06:18:32.46	311.37	2.08	-59.9	-76.0	3.8	1.49e+00	0	26	104	1267728384	85	23684

#Closed at: 2026-01-11 06:18:35
#Recorded file [1267 MB]: D:/lorett/data/31004_260111_090543.dat