passes_logs/2026/01/11/R3.2S_Murmansk/R3.2S_Murmansk__20260111_092403_NOAA_20_JPSS-1_rec.log

#Pass ID: 20260111_092403_NOAA 20 (JPSS-1)
#Satellite: NOAA 20 (JPSS-1)
#Configuration: NOAA 20
#almurnet v.1.7.20251203
#Start time: 2026-01-11 09:24:04

#Version: 2.2.20231116
#Station: R3.2S_Murmansk
#Location: 33.079688 lon 68.888172 lat
#TLE: 1 43013U 17073A   26010.88944318  .00000078  00000+0  57801-4 0  9992
#TLE: 2 43013  98.7631 311.8723 0001655  45.1140 315.0170 14.19535117422152

#Time	Az	El	Level	Level2	SNR	BER	BlckErr	Temp	State	Recorded	gain1	gain2
2026-01-11 09:24:04.16	148.73	2.05	-57.0	-72.9	3.8	1.49e+00	0	21	0	0	79	23579
2026-01-11 09:24:08.18	148.73	2.31	-57.0	-73.0	3.8	1.49e+00	0	21	104	0	79	23589
2026-01-11 09:24:12.22	148.73	2.58	-57.0	-72.9	3.8	1.49e+00	0	21	104	0	79	23575
2026-01-11 09:24:16.26	148.73	2.84	-57.0	-72.9	3.8	1.49e+00	0	21	104	0	79	23520
2026-01-11 09:24:20.29	148.72	3.11	-57.0	-72.8	3.8	1.49e+00	0	22	104	0	79	23236
2026-01-11 09:24:24.32	148.72	3.38	-57.0	-72.3	3.8	1.49e+00	0	22	104	0	79	21934
2026-01-11 09:24:28.35	148.72	3.66	-56.9	-70.3	4.0	1.48e+00	0	22	104	0	79	17473
2026-01-11 09:24:32.39	148.71	3.93	-56.6	-66.8	5.2	6.73e-01	0	22	0	3145728	79	11594
2026-01-11 09:24:36.42	148.71	4.21	-56.0	-63.0	8.3	5.10e-02	0	22	0	10485760	78	7909
2026-01-11 09:24:40.44	148.71	4.49	-55.3	-60.4	10.5	1.45e-03	0	22	0	17825792	77	6245
2026-01-11 09:24:44.48	148.70	4.78	-54.9	-59.4	11.3	1.52e-04	0	22	0	25165824	76	5906
2026-01-11 09:24:48.51	148.70	5.07	-54.9	-59.1	11.8	1.96e-04	0	22	0	33554432	76	5715
2026-01-11 09:24:52.54	148.69	5.36	-54.2	-57.9	12.5	1.44e-04	0	22	0	40894464	74	5589
2026-01-11 09:24:56.57	148.69	5.65	-53.9	-57.3	12.9	0.00e+00	0	22	0	48234496	74	5213
2026-01-11 09:25:00.60	148.68	5.95	-54.0	-57.5	12.8	7.00e-07	0	22	0	55574528	74	5283
2026-01-11 09:25:04.63	148.67	6.25	-53.9	-57.3	13.0	7.00e-07	0	22	0	62914560	74	5176
2026-01-11 09:25:08.67	148.67	6.56	-53.9	-57.2	13.1	0.00e+00	0	22	0	71303168	74	5116
2026-01-11 09:25:12.69	148.66	6.86	-53.8	-57.0	13.3	0.00e+00	0	22	0	78643200	74	4999
2026-01-11 09:25:16.72	148.65	7.18	-53.7	-56.7	13.4	0.00e+00	0	22	0	85983232	74	4870
2026-01-11 09:25:20.75	148.65	7.49	-53.7	-56.7	13.5	0.00e+00	0	22	0	93323264	74	4865
2026-01-11 09:25:24.78	148.64	7.81	-53.7	-56.7	13.5	0.00e+00	0	23	0	101711872	74	4834
2026-01-11 09:25:28.81	148.63	8.14	-53.6	-56.5	13.5	0.00e+00	0	22	0	109051904	73	5028
2026-01-11 09:25:32.84	148.62	8.46	-53.6	-56.5	13.6	0.00e+00	0	22	0	116391936	73	4988
2026-01-11 09:25:36.88	148.61	8.80	-53.4	-56.2	13.8	0.00e+00	0	22	0	123731968	73	4856
2026-01-11 09:25:40.91	148.60	9.13	-53.4	-56.2	13.8	0.00e+00	0	22	0	131072000	73	4845
2026-01-11 09:25:44.94	148.59	9.48	-53.4	-56.1	13.9	0.00e+00	0	23	0	139460608	73	4795
2026-01-11 09:25:48.97	148.58	9.82	-53.3	-55.9	14.0	0.00e+00	0	23	0	146800640	73	4677
2026-01-11 09:25:53.01	148.56	10.17	-53.4	-56.1	13.9	0.00e+00	0	23	0	154140672	73	4779
2026-01-11 09:25:57.04	148.55	10.53	-53.3	-56.0	14.0	0.00e+00	0	22	0	161480704	73	4706
2026-01-11 09:26:01.08	148.54	10.89	-53.1	-55.7	14.0	0.00e+00	0	23	0	168820736	72	4850
2026-01-11 09:26:05.11	148.52	11.26	-53.0	-55.5	14.2	0.00e+00	0	23	0	177209344	72	4707
2026-01-11 09:26:09.14	148.51	11.63	-52.9	-55.4	14.3	0.00e+00	0	23	0	184549376	72	4661
2026-01-11 09:26:13.17	148.49	12.01	-53.0	-55.5	14.2	0.00e+00	0	23	0	191889408	72	4743
2026-01-11 09:26:17.20	148.47	12.40	-53.0	-55.4	14.3	0.00e+00	0	23	0	199229440	72	4666
2026-01-11 09:26:21.23	148.46	12.79	-52.7	-55.0	14.5	0.00e+00	0	23	0	206569472	72	4473
2026-01-11 09:26:25.26	148.44	13.18	-52.7	-55.1	14.4	0.00e+00	0	23	0	214958080	71	4766
2026-01-11 09:26:29.29	148.42	13.59	-52.6	-54.9	14.5	0.00e+00	0	23	0	222298112	71	4672
2026-01-11 09:26:33.33	148.40	14.00	-52.5	-54.7	14.6	0.00e+00	0	23	0	229638144	71	4593
2026-01-11 09:26:37.36	148.38	14.42	-52.4	-54.6	14.6	0.00e+00	0	23	0	236978176	71	4537
2026-01-11 09:26:41.39	148.36	14.84	-52.3	-54.4	14.8	0.00e+00	0	23	0	244318208	71	4411
2026-01-11 09:26:45.42	148.33	15.27	-52.1	-54.2	14.8	0.00e+00	0	23	0	252706816	70	4558
2026-01-11 09:26:49.45	148.31	15.71	-52.2	-54.3	14.7	0.00e+00	0	23	0	260046848	70	4622
2026-01-11 09:26:53.48	148.29	16.16	-51.9	-53.9	14.9	0.00e+00	0	23	0	267386880	70	4413
2026-01-11 09:26:57.52	148.26	16.62	-51.8	-53.7	15.0	0.00e+00	0	23	0	274726912	70	4332
2026-01-11 09:27:01.54	148.23	17.08	-51.6	-53.5	15.0	0.00e+00	0	23	0	283115520	69	4477
2026-01-11 09:27:05.57	148.20	17.56	-51.6	-53.4	15.1	0.00e+00	0	23	0	290455552	69	4427
2026-01-11 09:27:09.60	148.17	18.04	-51.6	-53.4	15.1	0.00e+00	0	23	0	297795584	69	4418
2026-01-11 09:27:13.64	148.14	18.53	-51.4	-53.2	15.2	0.00e+00	0	23	0	305135616	69	4301
2026-01-11 09:27:17.67	148.11	19.04	-51.3	-53.1	15.3	0.00e+00	0	23	0	312475648	69	4276
2026-01-11 09:27:21.71	148.07	19.55	-51.4	-53.2	15.2	0.00e+00	0	23	0	320864256	69	4296
2026-01-11 09:27:25.74	148.04	20.08	-51.3	-53.1	15.3	0.00e+00	0	23	0	328204288	69	4277
2026-01-11 09:27:29.77	148.00	20.61	-51.4	-53.2	15.2	0.00e+00	0	23	0	335544320	69	4296
2026-01-11 09:27:33.80	147.96	21.16	-51.3	-53.0	15.3	0.00e+00	0	23	0	342884352	69	4240
2026-01-11 09:27:37.83	147.91	21.72	-51.2	-53.0	15.2	0.00e+00	0	23	0	350224384	68	4456
2026-01-11 09:27:41.86	147.87	22.29	-51.4	-53.2	15.0	0.00e+00	0	23	0	358612992	68	4563
2026-01-11 09:27:45.89	147.82	22.88	-51.2	-53.0	15.2	0.00e+00	0	23	0	365953024	68	4442
2026-01-11 09:27:49.93	147.77	23.48	-51.4	-53.2	15.1	0.00e+00	0	23	0	373293056	68	4546
2026-01-11 09:27:53.96	147.72	24.09	-51.2	-52.9	15.2	0.00e+00	0	23	0	380633088	68	4440
2026-01-11 09:27:57.99	147.67	24.72	-51.4	-53.2	15.0	0.00e+00	0	23	0	387973120	68	4572
2026-01-11 09:28:02.01	147.61	25.36	-51.5	-53.3	15.0	0.00e+00	0	23	0	396361728	68	4651
2026-01-11 09:28:06.05	147.55	26.02	-51.5	-53.3	15.0	0.00e+00	0	23	0	403701760	68	4606
2026-01-11 09:28:10.08	147.49	26.70	-51.6	-53.4	14.9	0.00e+00	0	23	0	411041792	68	4670
2026-01-11 09:28:14.11	147.42	27.39	-51.6	-53.4	14.9	0.00e+00	0	23	0	418381824	68	4696
2026-01-11 09:28:18.13	147.35	28.10	-52.0	-54.0	14.8	0.00e+00	0	23	0	425721856	69	4711
2026-01-11 09:28:22.16	147.28	28.83	-52.4	-54.4	14.6	0.00e+00	0	23	0	434110464	69	4969
2026-01-11 09:28:26.19	147.20	29.58	-53.0	-55.2	14.4	0.00e+00	0	23	0	441450496	71	4834
2026-01-11 09:28:30.22	147.12	30.34	-53.6	-56.1	14.0	0.00e+00	0	23	0	448790528	72	5047
2026-01-11 09:28:34.26	147.03	31.14	-53.8	-56.4	13.8	0.00e+00	0	23	0	456130560	72	5260
2026-01-11 09:28:38.29	146.94	31.95	-54.0	-56.6	13.9	0.00e+00	0	23	0	464519168	73	5054
2026-01-11 09:28:42.33	146.84	32.78	-53.9	-56.5	13.9	0.00e+00	0	23	0	471859200	73	5011
2026-01-11 09:28:46.35	146.74	33.64	-53.5	-55.8	14.4	0.00e+00	0	23	0	479199232	73	4645
2026-01-11 09:28:50.39	146.63	34.52	-53.1	-55.3	14.6	0.00e+00	0	23	0	486539264	72	4605
2026-01-11 09:28:54.42	146.51	35.43	-52.7	-54.7	14.7	0.00e+00	0	23	0	493879296	71	4582
2026-01-11 09:28:58.46	146.38	36.37	-51.2	-52.9	15.4	0.00e+00	0	23	0	502267904	69	4179
2026-01-11 09:29:02.49	146.25	37.33	-50.4	-52.0	15.5	0.00e+00	0	23	0	509607936	67	4214
2026-01-11 09:29:06.53	146.11	38.33	-50.4	-51.9	15.5	0.00e+00	0	23	0	516947968	67	4187
2026-01-11 09:29:10.56	145.96	39.35	-50.5	-52.1	15.4	0.00e+00	0	23	0	524288000	67	4279
2026-01-11 09:29:14.59	145.79	40.40	-51.0	-52.7	15.2	0.00e+00	0	23	0	531628032	67	4560
2026-01-11 09:29:18.62	145.62	41.48	-51.7	-53.5	14.9	0.00e+00	0	23	0	540016640	68	4735
2026-01-11 09:29:22.65	145.43	42.59	-51.7	-53.4	15.0	0.00e+00	0	23	0	547356672	68	4702
2026-01-11 09:29:26.68	145.22	43.74	-52.0	-53.9	14.9	0.00e+00	0	23	0	554696704	69	4683
2026-01-11 09:29:30.71	145.00	44.93	-52.7	-54.8	14.5	0.00e+00	0	23	0	562036736	70	4892
2026-01-11 09:29:34.74	144.77	46.15	-53.4	-55.7	14.2	0.00e+00	0	23	0	569376768	71	5114
2026-01-11 09:29:38.77	144.51	47.40	-54.3	-57.0	13.6	0.00e+00	0	23	0	577765376	73	5309
2026-01-11 09:29:42.80	144.22	48.70	-54.3	-57.0	13.8	0.00e+00	0	23	0	585105408	74	5024
2026-01-11 09:29:46.82	143.91	50.03	-52.6	-54.7	14.8	0.00e+00	0	23	0	592445440	71	4551
2026-01-11 09:29:50.85	143.58	51.40	-51.0	-52.6	15.4	0.00e+00	0	23	0	599785472	68	4261
2026-01-11 09:29:54.89	143.20	52.81	-49.8	-51.3	15.7	0.00e+00	0	23	0	607125504	66	4114
2026-01-11 09:29:58.92	142.79	54.26	-50.4	-51.9	15.4	0.00e+00	0	23	0	615514112	66	4425
2026-01-11 09:30:02.95	142.33	55.75	-51.3	-53.0	15.0	0.00e+00	0	23	0	622854144	67	4750
2026-01-11 09:30:06.98	141.81	57.28	-54.0	-56.6	14.0	0.00e+00	0	23	0	630194176	73	5070
2026-01-11 09:30:11.01	141.24	58.85	-55.0	-58.2	13.1	0.00e+00	0	23	0	637534208	75	5420
2026-01-11 09:30:15.04	140.58	60.46	-52.8	-54.8	14.9	0.00e+00	0	23	0	645922816	72	4363
2026-01-11 09:30:19.06	139.84	62.10	-51.4	-53.0	15.4	0.00e+00	0	23	0	653262848	69	4229
2026-01-11 09:30:23.09	138.99	63.78	-50.2	-51.7	15.5	0.00e+00	0	23	0	660602880	66	4308
2026-01-11 09:30:27.12	138.00	65.49	-51.1	-52.8	15.1	0.00e+00	0	23	0	667942912	67	4632
2026-01-11 09:30:31.15	136.83	67.24	-53.0	-55.1	14.6	0.00e+00	0	23	0	675282944	71	4760
2026-01-11 09:30:35.19	135.45	69.01	-52.1	-53.9	15.1	0.00e+00	0	23	0	683671552	70	4437
2026-01-11 09:30:39.21	133.80	70.80	-52.0	-53.7	15.2	0.00e+00	0	23	0	691011584	70	4331
2026-01-11 09:30:43.24	131.77	72.60	-51.8	-53.5	15.3	0.00e+00	0	23	0	698351616	70	4230
2026-01-11 09:30:47.26	129.25	74.40	-53.3	-55.5	14.3	0.00e+00	0	23	0	705691648	71	5005
2026-01-11 09:30:51.30	126.02	76.20	-53.0	-55.1	14.6	0.00e+00	0	23	0	713031680	71	4784
2026-01-11 09:30:55.33	121.80	77.96	-53.6	-55.9	14.3	0.00e+00	0	23	0	721420288	72	4955
2026-01-11 09:30:59.37	116.11	79.66	-51.2	-52.9	15.5	0.00e+00	0	23	0	728760320	69	4151
2026-01-11 09:31:03.40	108.26	81.23	-52.3	-54.3	14.8	0.00e+00	0	23	0	736100352	69	4871
2026-01-11 09:31:07.43	97.24	82.57	-52.9	-54.9	14.6	0.00e+00	0	23	0	743440384	70	4943
2026-01-11 09:31:11.47	82.10	83.54	-51.5	-53.1	15.4	0.00e+00	0	23	0	750780416	69	4286
2026-01-11 09:31:15.51	63.40	83.94	-53.1	-55.1	14.5	0.00e+00	0	23	0	759169024	71	4803
2026-01-11 09:31:19.54	44.40	83.66	-53.2	-55.3	14.5	0.00e+00	0	23	0	766509056	71	4887
2026-01-11 09:31:23.57	28.59	82.77	-54.0	-56.4	14.2	0.00e+00	0	23	0	773849088	73	4941
2026-01-11 09:31:27.60	16.93	81.48	-53.4	-55.5	14.7	0.00e+00	0	23	0	781189120	73	4480
2026-01-11 09:31:31.64	8.60	79.94	-51.7	-53.3	15.3	0.00e+00	0	23	0	788529152	69	4379
2026-01-11 09:31:35.67	2.62	78.26	-53.0	-55.0	14.7	0.00e+00	0	23	0	796917760	71	4740
2026-01-11 09:31:39.70	358.19	76.51	-53.0	-55.0	14.7	0.00e+00	0	23	0	804257792	71	4735
2026-01-11 09:31:43.73	354.82	74.72	-53.0	-55.0	14.7	0.00e+00	0	23	0	811597824	71	4720
2026-01-11 09:31:47.75	352.20	72.92	-51.5	-53.1	15.4	0.00e+00	0	23	0	818937856	69	4274
2026-01-11 09:31:51.79	350.09	71.12	-51.0	-52.5	15.5	0.00e+00	0	23	0	827326464	68	4233
2026-01-11 09:31:55.81	348.38	69.33	-52.9	-54.9	14.7	0.00e+00	0	23	0	834666496	71	4655
2026-01-11 09:31:59.85	346.96	67.55	-54.8	-57.7	13.4	0.00e+00	0	23	0	842006528	74	5418
2026-01-11 09:32:03.87	345.77	65.81	-53.1	-55.1	14.8	0.00e+00	0	23	0	849346560	72	4516
2026-01-11 09:32:07.90	344.75	64.10	-50.3	-51.8	15.7	0.00e+00	0	23	0	856686592	67	4115
2026-01-11 09:32:11.92	343.88	62.42	-50.1	-51.5	15.6	0.00e+00	0	23	0	865075200	66	4235
2026-01-11 09:32:15.95	343.11	60.77	-51.0	-52.7	15.2	0.00e+00	0	23	0	872415232	67	4548
2026-01-11 09:32:19.98	342.45	59.16	-53.0	-55.0	14.7	0.00e+00	0	23	0	879755264	71	4746
2026-01-11 09:32:24.00	341.86	57.59	-54.1	-56.5	14.1	0.00e+00	0	23	0	887095296	73	5023
2026-01-11 09:32:28.02	341.34	56.06	-51.8	-53.4	15.4	0.00e+00	0	23	0	894435328	70	4188
2026-01-11 09:32:32.05	340.87	54.57	-51.3	-52.9	15.5	0.00e+00	0	23	0	902823936	69	4164
2026-01-11 09:32:36.09	340.45	53.11	-50.6	-52.1	15.5	0.00e+00	0	23	0	910163968	67	4263
2026-01-11 09:32:40.12	340.07	51.70	-52.6	-54.5	14.8	0.00e+00	0	23	0	917504000	70	4751
2026-01-11 09:32:44.15	339.72	50.33	-53.4	-55.6	14.5	0.00e+00	0	23	0	924844032	72	4777
2026-01-11 09:32:48.17	339.41	48.99	-53.8	-56.1	14.2	0.00e+00	0	23	0	932184064	72	5062
2026-01-11 09:32:52.20	339.12	47.70	-54.1	-56.5	14.2	0.00e+00	0	23	0	940572672	74	4757
2026-01-11 09:32:56.23	338.86	46.44	-52.9	-54.8	14.9	0.00e+00	0	23	0	947912704	72	4376
2026-01-11 09:33:00.26	338.62	45.21	-53.8	-56.3	14.0	0.00e+00	0	23	0	955252736	72	5175
2026-01-11 09:33:04.30	338.40	44.02	-52.7	-54.6	15.1	0.00e+00	0	23	0	962592768	72	4284
2026-01-11 09:33:08.33	338.19	42.87	-52.2	-54.1	15.0	0.00e+00	0	23	0	969932800	70	4506
2026-01-11 09:33:12.36	338.00	41.75	-54.3	-56.9	13.7	0.00e+00	0	23	0	978321408	73	5273
2026-01-11 09:33:16.39	337.82	40.67	-54.1	-56.5	14.2	0.00e+00	0	23	0	985661440	74	4759
2026-01-11 09:33:20.42	337.66	39.61	-53.1	-55.2	14.7	0.00e+00	0	23	0	993001472	72	4564
2026-01-11 09:33:24.45	337.51	38.59	-54.0	-56.5	14.0	0.00e+00	0	23	0	1000341504	73	5012
2026-01-11 09:33:28.48	337.36	37.60	-54.7	-57.6	13.5	0.00e+00	0	23	0	1007681536	74	5348
2026-01-11 09:33:32.51	337.23	36.63	-53.8	-56.2	14.4	0.00e+00	0	23	0	1016070144	74	4563
2026-01-11 09:33:36.54	337.10	35.70	-53.3	-55.4	14.7	0.00e+00	0	23	0	1023410176	73	4437
2026-01-11 09:33:40.58	336.99	34.78	-53.6	-55.9	14.4	0.00e+00	0	23	0	1030750208	73	4666
2026-01-11 09:33:44.61	336.87	33.90	-54.5	-57.3	13.6	0.00e+00	0	23	0	1038090240	74	5193
2026-01-11 09:33:48.62	336.77	33.04	-54.6	-57.5	13.3	0.00e+00	0	23	0	1045430272	74	5338
2026-01-11 09:33:52.65	336.67	32.21	-54.2	-56.8	13.9	0.00e+00	0	23	0	1053818880	74	4893
2026-01-11 09:33:56.69	336.58	31.39	-53.8	-56.1	14.4	0.00e+00	0	23	0	1061158912	74	4541
2026-01-11 09:34:00.72	336.49	30.60	-53.7	-56.1	14.2	0.00e+00	0	23	0	1068498944	73	4780
2026-01-11 09:34:04.75	336.41	29.83	-53.7	-56.1	14.2	0.00e+00	0	23	0	1075838976	73	4781
2026-01-11 09:34:08.78	336.34	29.08	-53.6	-56.0	14.3	0.00e+00	0	23	0	1083179008	73	4739
2026-01-11 09:34:12.81	336.26	28.35	-53.4	-55.7	14.5	0.00e+00	0	23	0	1091567616	73	4578
2026-01-11 09:34:16.85	336.19	27.63	-52.9	-54.9	14.8	0.00e+00	0	23	0	1098907648	72	4435
2026-01-11 09:34:20.88	336.13	26.94	-52.0	-53.9	15.0	0.00e+00	0	23	0	1106247680	70	4401
2026-01-11 09:34:24.91	336.06	26.26	-51.7	-53.4	15.1	0.00e+00	0	23	0	1113587712	69	4437
2026-01-11 09:34:28.94	336.01	25.60	-51.7	-53.5	15.1	0.00e+00	0	23	0	1121976320	69	4452
2026-01-11 09:34:32.97	335.95	24.96	-51.7	-53.6	15.0	0.00e+00	0	23	0	1129316352	69	4499
2026-01-11 09:34:37.00	335.90	24.33	-51.9	-53.7	15.0	0.00e+00	0	23	0	1136656384	69	4596
2026-01-11 09:34:41.03	335.85	23.71	-51.5	-53.2	15.2	0.00e+00	0	23	0	1143996416	69	4327
2026-01-11 09:34:45.07	335.80	23.11	-51.3	-53.0	15.3	0.00e+00	0	23	0	1151336448	69	4214
2026-01-11 09:34:49.10	335.75	22.52	-51.1	-52.8	15.2	0.00e+00	0	23	0	1159725056	68	4380
2026-01-11 09:34:53.14	335.71	21.95	-51.0	-52.7	15.3	0.00e+00	0	23	0	1167065088	68	4307
2026-01-11 09:34:57.18	335.67	21.39	-51.2	-53.0	15.2	0.00e+00	0	23	0	1174405120	68	4450
2026-01-11 09:35:01.20	335.63	20.84	-51.5	-53.3	14.9	0.00e+00	0	23	0	1181745152	68	4649
2026-01-11 09:35:05.24	335.59	20.30	-51.7	-53.5	14.9	0.00e+00	0	23	0	1189085184	68	4742
2026-01-11 09:35:09.27	335.56	19.78	-51.8	-53.7	14.8	0.00e+00	0	23	0	1197473792	68	4845
2026-01-11 09:35:13.31	335.52	19.26	-51.9	-53.8	14.9	0.00e+00	0	23	0	1204813824	69	4622
2026-01-11 09:35:17.34	335.49	18.76	-51.9	-53.8	14.8	0.00e+00	0	23	0	1212153856	69	4635
2026-01-11 09:35:21.37	335.46	18.26	-52.0	-53.9	14.8	0.00e+00	0	23	0	1219493888	69	4688
2026-01-11 09:35:25.40	335.43	17.78	-52.0	-53.9	14.8	0.00e+00	0	23	0	1227882496	69	4702
2026-01-11 09:35:29.44	335.41	17.30	-52.1	-54.1	14.7	0.00e+00	0	23	0	1235222528	69	4771
2026-01-11 09:35:33.47	335.38	16.84	-52.3	-54.3	14.5	0.00e+00	0	23	0	1242562560	69	4911
2026-01-11 09:35:37.50	335.36	16.38	-52.2	-54.2	14.6	0.00e+00	0	23	0	1249902592	69	4857
2026-01-11 09:35:41.54	335.33	15.93	-52.2	-54.3	14.6	1.50e-06	0	23	0	1257242624	69	4890
2026-01-11 09:35:45.57	335.31	15.49	-52.2	-54.2	14.6	0.00e+00	0	23	0	1265631232	69	4862
2026-01-11 09:35:49.60	335.29	15.06	-52.2	-54.3	14.6	0.00e+00	0	23	0	1272971264	69	4873
2026-01-11 09:35:53.63	335.27	14.63	-52.2	-54.2	14.6	0.00e+00	0	23	0	1280311296	69	4852
2026-01-11 09:35:57.66	335.25	14.21	-52.1	-54.1	14.6	0.00e+00	0	23	0	1287651328	69	4782
2026-01-11 09:36:01.68	335.23	13.80	-52.2	-54.3	14.5	0.00e+00	0	23	0	1294991360	69	4918
2026-01-11 09:36:05.71	335.21	13.40	-52.3	-54.4	14.5	0.00e+00	0	23	0	1303379968	69	4929
2026-01-11 09:36:09.75	335.20	13.00	-52.5	-54.7	14.4	0.00e+00	0	23	0	1310720000	70	4834
2026-01-11 09:36:13.77	335.18	12.61	-52.7	-54.9	14.3	0.00e+00	0	23	0	1318060032	70	4963
2026-01-11 09:36:17.81	335.17	12.23	-52.8	-55.2	14.1	0.00e+00	0	23	0	1325400064	70	5125
2026-01-11 09:36:21.84	335.16	11.85	-53.0	-55.4	14.1	0.00e+00	0	23	0	1332740096	71	4946
2026-01-11 09:36:25.87	335.14	11.47	-53.1	-55.5	14.1	0.00e+00	0	23	0	1341128704	71	5021
2026-01-11 09:36:29.90	335.13	11.11	-53.1	-55.5	14.0	0.00e+00	0	23	0	1348468736	71	5039
2026-01-11 09:36:33.94	335.12	10.74	-53.0	-55.5	14.0	0.00e+00	0	23	0	1355808768	71	5033
2026-01-11 09:36:37.97	335.11	10.39	-53.1	-55.6	14.0	0.00e+00	0	23	0	1363148800	71	5043
2026-01-11 09:36:41.99	335.10	10.04	-53.0	-55.4	14.1	0.00e+00	0	23	0	1370488832	71	4962
2026-01-11 09:36:46.02	335.09	9.69	-53.0	-55.5	14.0	0.00e+00	0	23	0	1378877440	71	4985
2026-01-11 09:36:50.05	335.08	9.35	-52.9	-55.4	14.1	0.00e+00	0	23	0	1386217472	71	4942
2026-01-11 09:36:54.08	335.07	9.01	-52.7	-55.1	14.2	0.00e+00	0	23	0	1393557504	71	4811
2026-01-11 09:36:58.16	335.06	8.67	-52.7	-55.1	14.2	0.00e+00	0	23	0	1400897536	71	4812
2026-01-11 09:37:02.20	335.06	8.34	-52.7	-55.1	14.2	0.00e+00	0	23	0	1408237568	71	4778
2026-01-11 09:37:06.23	335.05	8.02	-52.6	-54.9	14.3	6.80e-06	0	23	0	1416626176	71	4693
2026-01-11 09:37:10.26	335.05	7.70	-52.7	-55.1	14.2	0.00e+00	0	23	0	1423966208	71	4798
2026-01-11 09:37:14.30	335.04	7.38	-52.6	-55.0	14.2	0.00e+00	0	23	0	1431306240	71	4720
2026-01-11 09:37:18.34	335.04	7.07	-52.7	-55.1	14.2	0.00e+00	0	23	0	1438646272	71	4788
2026-01-11 09:37:22.36	335.03	6.76	-52.6	-55.1	14.2	0.00e+00	0	23	0	1447034880	71	4770
2026-01-11 09:37:26.40	335.03	6.46	-52.8	-55.4	13.9	0.00e+00	0	23	0	1454374912	71	4953
2026-01-11 09:37:30.43	335.02	6.16	-52.7	-55.2	14.1	0.00e+00	0	23	0	1461714944	71	4825
2026-01-11 09:37:34.47	335.02	5.86	-52.7	-55.2	14.0	0.00e+00	0	23	0	1469054976	71	4825
2026-01-11 09:37:38.49	335.02	5.56	-52.8	-55.4	13.8	0.00e+00	0	23	0	1476395008	71	4982
2026-01-11 09:37:42.52	335.02	5.27	-52.6	-55.2	13.9	0.00e+00	0	23	0	1484783616	71	4868
2026-01-11 09:37:46.54	335.01	4.98	-54.6	-58.8	11.9	0.00e+00	0	23	0	1492123648	74	6168
2026-01-11 09:37:50.56	335.01	4.70	-58.7	-74.7	3.8	1.49e+00	0	23	104	1493172224	82	24379
2026-01-11 09:37:54.59	335.01	4.42	-59.2	-75.3	3.8	1.49e+00	0	23	104	1493172224	83	24447
2026-01-11 09:37:58.63	335.01	4.14	-59.4	-75.4	3.8	1.49e+00	0	23	104	1493172224	83	24912
2026-01-11 09:38:02.67	335.01	3.86	-59.7	-75.7	3.8	1.49e+00	0	23	104	1493172224	84	24383
2026-01-11 09:38:06.70	335.01	3.59	-59.8	-75.8	3.8	1.49e+00	0	23	104	1493172224	84	24629
2026-01-11 09:38:10.74	335.01	3.32	-59.7	-75.8	3.8	1.49e+00	0	23	104	1493172224	84	24553
2026-01-11 09:38:14.77	335.01	3.05	-59.7	-75.7	3.8	1.49e+00	0	23	104	1493172224	84	24330
2026-01-11 09:38:18.81	335.01	2.78	-59.7	-75.7	3.8	1.49e+00	0	23	104	1493172224	84	24265
2026-01-11 09:38:22.84	335.01	2.52	-59.6	-75.6	3.8	1.49e+00	0	23	104	1493172224	84	24128
2026-01-11 09:38:26.88	335.01	2.26	-59.6	-75.6	3.8	1.49e+00	0	23	104	1493172224	84	24085
2026-01-11 09:38:30.91	335.02	2.00	-59.6	-75.6	3.8	1.49e+00	0	23	104	1493172224	84	24009

#Closed at: 2026-01-11 09:38:31
#Recorded file [1493 MB]: D:/lorett/data/31004_260111_122403.dat