passes_logs/2026/01/11/R3.2S_Murmansk/R3.2S_Murmansk__20260111_054524_SUOMI_NPP_rec.log

#Pass ID: 20260111_054524_SUOMI NPP
#Satellite: SUOMI NPP
#Configuration: NPP
#almurnet v.1.7.20251203
#Start time: 2026-01-11 05:45:26

#Version: 2.2.20231116
#Station: R3.2S_Murmansk
#Location: 33.079688 lon 68.888172 lat
#TLE: 1 37849U 11061A   26009.81756760  .00000113  00000+0  74747-4 0  9994
#TLE: 2 37849  98.7806 311.9110 0002525  72.5604 287.5848 14.19524046735974

#Time	Az	El	Level	Level2	SNR	BER	BlckErr	Temp	State	Recorded	gain1	gain2
2026-01-11 05:45:26.14	70.29	2.11	-57.2	-73.2	3.8	1.49e+00	0	22	0	0	80	22908
2026-01-11 05:45:30.14	70.03	2.34	-57.2	-73.2	3.8	1.49e+00	0	23	104	0	79	24213
2026-01-11 05:45:34.13	69.77	2.57	-57.2	-73.2	3.8	1.49e+00	0	23	104	0	79	24250
2026-01-11 05:45:38.13	69.51	2.80	-57.2	-73.2	3.8	1.49e+00	0	23	104	0	79	24237
2026-01-11 05:45:42.15	69.24	3.04	-57.2	-73.2	3.8	1.49e+00	0	23	104	0	79	24318
2026-01-11 05:45:46.15	68.97	3.27	-57.2	-73.2	3.8	1.49e+00	0	23	104	0	79	24243
2026-01-11 05:45:50.15	68.69	3.51	-57.2	-73.2	3.8	1.49e+00	0	23	104	0	79	24279
2026-01-11 05:45:54.14	68.41	3.74	-57.2	-73.2	3.8	1.49e+00	0	23	104	0	79	24300
2026-01-11 05:45:58.12	68.13	3.98	-57.2	-73.2	3.8	1.49e+00	0	23	104	0	79	24238
2026-01-11 05:46:02.12	67.84	4.22	-57.2	-73.1	3.8	1.49e+00	0	24	104	0	79	23864
2026-01-11 05:46:06.12	67.54	4.46	-57.1	-70.6	4.0	1.48e+00	0	24	0	0	79	18072
2026-01-11 05:46:10.11	67.24	4.70	-56.9	-67.7	4.9	7.02e-01	0	24	0	3145728	79	12903
2026-01-11 05:46:14.12	66.93	4.95	-56.5	-65.1	6.6	2.52e-01	0	24	0	10485760	79	9506
2026-01-11 05:46:18.12	66.62	5.19	-56.8	-66.4	5.6	2.08e-01	0	24	0	17825792	79	11053
2026-01-11 05:46:22.12	66.30	5.44	-54.2	-58.1	12.2	7.00e-07	0	24	0	23068672	74	5662
2026-01-11 05:46:26.09	65.98	5.69	-53.6	-57.0	13.0	0.00e+00	0	24	0	30408704	73	5290
2026-01-11 05:46:30.08	65.65	5.94	-53.3	-56.4	13.3	0.00e+00	0	24	0	38797312	73	4972
2026-01-11 05:46:34.07	65.32	6.19	-53.4	-56.6	13.1	0.00e+00	0	24	0	46137344	72	5380
2026-01-11 05:46:38.07	64.98	6.44	-53.3	-56.4	13.2	0.00e+00	0	24	0	53477376	72	5261
2026-01-11 05:46:42.06	64.63	6.70	-53.3	-56.5	13.2	0.00e+00	0	24	0	60817408	72	5284
2026-01-11 05:46:46.05	64.28	6.95	-53.9	-57.5	12.6	0.00e+00	0	24	0	68157440	73	5599
2026-01-11 05:46:50.03	63.92	7.21	-53.7	-57.2	12.9	0.00e+00	0	24	0	75497472	73	5420
2026-01-11 05:46:54.02	63.56	7.46	-53.5	-56.9	13.1	0.00e+00	0	24	0	82837504	73	5235
2026-01-11 05:46:58.02	63.18	7.72	-53.3	-56.5	13.4	0.00e+00	0	24	0	91226112	73	5026
2026-01-11 05:47:02.01	62.80	7.99	-53.4	-56.6	13.4	0.00e+00	0	25	0	98566144	73	5049
2026-01-11 05:47:06.01	62.42	8.25	-52.9	-55.8	13.7	0.00e+00	0	24	0	105906176	72	4881
2026-01-11 05:47:09.98	62.02	8.51	-52.9	-55.8	13.7	0.00e+00	0	25	0	113246208	72	4922
2026-01-11 05:47:13.96	61.62	8.78	-52.8	-55.6	13.9	0.00e+00	0	25	0	120586240	72	4786
2026-01-11 05:47:17.96	61.21	9.04	-53.0	-55.9	13.7	0.00e+00	0	25	0	127926272	72	4952
2026-01-11 05:47:21.95	60.80	9.31	-53.0	-55.9	13.7	0.00e+00	0	25	0	135266304	72	4929
2026-01-11 05:47:25.94	60.37	9.58	-53.2	-56.2	13.5	0.00e+00	0	25	0	142606336	72	5131
2026-01-11 05:47:29.93	59.94	9.85	-53.1	-55.9	13.7	0.00e+00	0	25	0	150994944	72	4983
2026-01-11 05:47:33.93	59.50	10.13	-53.2	-56.1	13.6	0.00e+00	0	25	0	158334976	72	5076
2026-01-11 05:47:37.93	59.05	10.40	-53.4	-56.3	13.5	0.00e+00	0	25	0	165675008	72	5204
2026-01-11 05:47:41.93	58.59	10.68	-53.0	-55.8	13.8	0.00e+00	0	25	0	173015040	72	4880
2026-01-11 05:47:45.92	58.12	10.95	-53.0	-55.8	13.8	0.00e+00	0	25	0	180355072	72	4913
2026-01-11 05:47:49.91	57.64	11.23	-52.8	-55.5	14.0	0.00e+00	0	25	0	187695104	72	4724
2026-01-11 05:47:53.91	57.16	11.51	-52.7	-55.3	13.9	0.00e+00	0	25	0	195035136	71	4906
2026-01-11 05:47:57.92	56.66	11.79	-52.4	-54.8	14.2	0.00e+00	0	25	0	203423744	71	4639
2026-01-11 05:48:01.93	56.15	12.07	-52.4	-54.9	14.2	0.00e+00	0	25	0	210763776	71	4699
2026-01-11 05:48:05.93	55.63	12.36	-52.4	-54.9	14.2	0.00e+00	0	25	0	218103808	71	4688
2026-01-11 05:48:09.92	55.11	12.64	-52.1	-54.4	14.4	0.00e+00	0	25	0	225443840	70	4686
2026-01-11 05:48:13.92	54.57	12.92	-52.2	-54.6	14.3	0.00e+00	0	25	0	232783872	70	4777
2026-01-11 05:48:17.91	54.02	13.21	-52.1	-54.4	14.4	0.00e+00	0	25	0	240123904	70	4675
2026-01-11 05:48:21.91	53.46	13.49	-52.1	-54.5	14.3	0.00e+00	0	25	0	248512512	70	4708
2026-01-11 05:48:25.90	52.90	13.78	-52.1	-54.6	14.3	0.00e+00	0	25	0	255852544	70	4780
2026-01-11 05:48:29.90	52.31	14.06	-52.2	-54.8	14.1	0.00e+00	0	25	0	263192576	70	4926
2026-01-11 05:48:33.89	51.72	14.35	-52.5	-55.3	13.9	0.00e+00	0	25	0	270532608	70	5181
2026-01-11 05:48:37.89	51.12	14.64	-52.6	-55.4	13.8	0.00e+00	0	25	0	277872640	70	5249
2026-01-11 05:48:41.88	50.50	14.92	-52.5	-55.2	13.9	0.00e+00	0	25	0	285212672	70	5125
2026-01-11 05:48:45.88	49.87	15.21	-52.6	-55.3	13.9	0.00e+00	0	25	0	292552704	70	5192
2026-01-11 05:48:49.89	49.23	15.50	-52.7	-55.5	13.8	0.00e+00	0	25	0	300941312	70	5307
2026-01-11 05:48:53.89	48.58	15.79	-52.7	-55.5	13.8	0.00e+00	0	25	0	308281344	70	5333
2026-01-11 05:48:57.90	47.91	16.07	-52.4	-55.0	14.0	0.00e+00	0	25	0	315621376	70	5009
2026-01-11 05:49:01.90	47.23	16.36	-52.4	-55.1	14.0	0.00e+00	0	25	0	322961408	70	5072
2026-01-11 05:49:05.89	46.54	16.64	-52.5	-55.2	14.0	0.00e+00	0	25	0	330301440	70	5117
2026-01-11 05:49:09.90	45.83	16.93	-52.3	-54.9	14.1	0.00e+00	0	25	0	337641472	70	4940
2026-01-11 05:49:13.90	45.11	17.21	-52.6	-55.2	13.9	0.00e+00	0	25	0	346030080	70	5132
2026-01-11 05:49:17.90	44.37	17.49	-52.7	-55.4	13.8	0.00e+00	0	25	0	353370112	70	5232
2026-01-11 05:49:21.91	43.62	17.77	-52.3	-54.8	14.1	0.00e+00	0	25	0	360710144	70	4903
2026-01-11 05:49:25.90	42.86	18.04	-52.0	-54.3	14.4	0.00e+00	0	25	0	368050176	70	4613
2026-01-11 05:49:29.89	42.09	18.32	-51.9	-54.2	14.4	0.00e+00	0	25	0	375390208	70	4583
2026-01-11 05:49:33.88	41.30	18.59	-51.8	-54.3	14.3	0.00e+00	0	25	0	382730240	69	4894
2026-01-11 05:49:37.88	40.50	18.86	-51.1	-53.3	14.6	0.00e+00	0	25	0	390070272	68	4613
2026-01-11 05:49:41.88	39.68	19.12	-51.0	-53.1	14.7	0.00e+00	0	25	0	398458880	68	4514
2026-01-11 05:49:45.87	38.85	19.39	-51.1	-53.2	14.7	0.00e+00	0	25	0	405798912	68	4560
2026-01-11 05:49:49.88	38.00	19.65	-50.8	-52.8	14.8	0.00e+00	0	25	0	413138944	68	4390
2026-01-11 05:49:53.89	37.13	19.90	-51.0	-53.1	14.7	0.00e+00	0	25	0	420478976	68	4503
2026-01-11 05:49:57.88	36.26	20.15	-51.1	-53.2	14.7	0.00e+00	0	25	0	427819008	68	4564
2026-01-11 05:50:01.88	35.37	20.40	-50.4	-52.4	14.9	0.00e+00	0	25	0	435159040	67	4409
2026-01-11 05:50:05.89	34.46	20.64	-50.3	-52.1	15.0	0.00e+00	0	25	0	442499072	67	4285
2026-01-11 05:50:09.87	33.54	20.87	-50.4	-52.3	14.8	0.00e+00	0	25	0	450887680	66	4650
2026-01-11 05:50:13.89	32.60	21.10	-50.1	-51.9	15.0	0.00e+00	0	25	0	458227712	66	4425
2026-01-11 05:50:17.89	31.66	21.32	-50.5	-52.4	14.8	0.00e+00	0	25	0	465567744	66	4689
2026-01-11 05:50:21.87	30.70	21.54	-50.2	-51.9	14.9	0.00e+00	0	25	0	472907776	66	4439
2026-01-11 05:50:25.86	29.73	21.75	-50.1	-51.8	15.0	0.00e+00	0	25	0	480247808	66	4382
2026-01-11 05:50:29.86	28.74	21.95	-50.3	-52.0	14.9	0.00e+00	0	25	0	487587840	66	4470
2026-01-11 05:50:33.86	27.74	22.15	-50.4	-52.1	14.9	0.00e+00	0	25	0	495976448	66	4544
2026-01-11 05:50:37.85	26.73	22.33	-50.3	-52.1	14.9	0.00e+00	0	25	0	503316480	66	4507
2026-01-11 05:50:41.86	25.70	22.51	-50.4	-52.2	14.8	0.00e+00	0	25	0	510656512	66	4550
2026-01-11 05:50:45.87	24.66	22.68	-50.0	-51.7	15.1	0.00e+00	0	25	0	517996544	66	4296
2026-01-11 05:50:49.88	23.61	22.84	-50.0	-51.6	15.1	0.00e+00	0	25	0	525336576	66	4269
2026-01-11 05:50:53.89	22.55	22.99	-50.9	-52.8	14.7	0.00e+00	0	25	0	532676608	67	4606
2026-01-11 05:50:57.90	21.47	23.13	-52.0	-54.2	14.3	0.00e+00	0	25	0	541065216	69	4861
2026-01-11 05:51:01.90	20.40	23.26	-52.1	-54.3	14.4	0.00e+00	0	25	0	548405248	70	4624
2026-01-11 05:51:05.91	19.31	23.38	-51.5	-53.6	14.6	0.00e+00	0	25	0	555745280	69	4521
2026-01-11 05:51:09.91	18.21	23.49	-51.3	-53.3	14.8	0.00e+00	0	25	0	563085312	69	4382
2026-01-11 05:51:13.91	17.11	23.59	-51.7	-53.9	14.5	0.00e+00	0	25	0	570425344	69	4684
2026-01-11 05:51:17.93	15.99	23.68	-52.0	-54.3	14.3	0.00e+00	0	25	0	577765376	69	4872
2026-01-11 05:51:21.93	14.88	23.75	-52.4	-54.9	14.1	0.00e+00	0	25	0	585105408	70	4947
2026-01-11 05:51:25.93	13.76	23.82	-52.3	-54.7	14.2	0.00e+00	0	25	0	593494016	70	4860
2026-01-11 05:51:29.93	12.64	23.87	-52.5	-55.0	14.1	0.00e+00	0	25	0	600834048	70	5032
2026-01-11 05:51:33.93	11.51	23.91	-52.8	-55.4	13.8	0.00e+00	0	25	0	608174080	70	5276
2026-01-11 05:51:37.92	10.38	23.94	-52.1	-54.4	14.4	0.00e+00	0	25	0	615514112	70	4697
2026-01-11 05:51:41.91	9.25	23.95	-51.4	-53.5	14.7	0.00e+00	0	25	0	622854144	69	4468
2026-01-11 05:51:45.91	8.12	23.96	-51.9	-54.3	14.3	0.00e+00	0	25	0	630194176	69	4880
2026-01-11 05:51:49.93	6.98	23.95	-51.7	-53.9	14.5	0.00e+00	0	25	0	637534208	69	4670
2026-01-11 05:51:53.93	5.85	23.93	-51.2	-53.2	14.8	0.00e+00	0	25	0	645922816	69	4327
2026-01-11 05:51:57.94	4.72	23.90	-51.4	-53.5	14.5	0.00e+00	0	25	0	653262848	68	4739
2026-01-11 05:52:01.93	3.60	23.85	-51.0	-52.9	14.8	0.00e+00	0	25	0	660602880	68	4424
2026-01-11 05:52:05.94	2.47	23.80	-51.0	-52.8	14.9	0.00e+00	0	25	0	667942912	68	4376
2026-01-11 05:52:09.95	1.35	23.73	-50.7	-52.4	15.1	0.00e+00	0	25	0	675282944	68	4180
2026-01-11 05:52:13.95	0.24	23.65	-50.1	-51.7	15.0	0.00e+00	0	25	0	683671552	66	4339
2026-01-11 05:52:17.96	359.13	23.56	-50.2	-51.8	15.0	0.00e+00	0	25	0	691011584	66	4374
2026-01-11 05:52:21.96	358.03	23.46	-50.3	-51.9	15.0	0.00e+00	0	25	0	698351616	66	4436
2026-01-11 05:52:25.97	356.93	23.34	-50.8	-52.6	14.7	0.00e+00	0	26	0	705691648	66	4766
2026-01-11 05:52:29.96	355.85	23.22	-50.1	-51.7	15.1	0.00e+00	0	25	0	713031680	66	4302
2026-01-11 05:52:33.97	354.78	23.09	-50.8	-52.6	14.7	0.00e+00	0	25	0	720371712	66	4774
2026-01-11 05:52:37.97	353.71	22.94	-50.5	-52.2	14.8	0.00e+00	0	25	0	727711744	66	4561
2026-01-11 05:52:41.97	352.66	22.79	-50.8	-52.7	14.6	0.00e+00	0	25	0	736100352	66	4823
2026-01-11 05:52:45.98	351.61	22.62	-51.3	-53.3	14.5	0.00e+00	0	25	0	743440384	67	4905
2026-01-11 05:52:49.98	350.58	22.45	-52.2	-54.5	14.2	0.00e+00	0	25	0	750780416	69	5019
2026-01-11 05:52:53.98	349.55	22.27	-52.1	-54.4	14.3	0.00e+00	0	25	0	758120448	69	4940
2026-01-11 05:52:57.97	348.55	22.08	-51.9	-54.1	14.4	0.00e+00	0	25	0	765460480	69	4771
2026-01-11 05:53:01.99	347.55	21.89	-51.6	-53.7	14.6	0.00e+00	0	25	0	772800512	69	4581
2026-01-11 05:53:06.00	346.56	21.68	-51.5	-53.7	14.6	0.00e+00	0	25	0	781189120	69	4550
2026-01-11 05:53:10.00	345.59	21.47	-51.6	-53.8	14.5	0.00e+00	0	25	0	788529152	69	4640
2026-01-11 05:53:13.99	344.64	21.25	-52.2	-54.6	14.1	0.00e+00	0	25	0	795869184	69	5084
2026-01-11 05:53:18.00	343.69	21.03	-51.9	-54.1	14.3	0.00e+00	0	25	0	803209216	69	4813
2026-01-11 05:53:22.00	342.76	20.79	-52.9	-55.7	13.7	0.00e+00	0	25	0	810549248	70	5463
2026-01-11 05:53:26.01	341.85	20.56	-53.0	-56.0	13.8	0.00e+00	0	25	0	817889280	72	5008
2026-01-11 05:53:30.00	340.95	20.32	-51.9	-54.2	14.5	0.00e+00	0	25	0	825229312	70	4562
2026-01-11 05:53:33.99	340.07	20.07	-51.2	-53.3	14.8	0.00e+00	0	25	0	833617920	69	4352
2026-01-11 05:53:37.99	339.19	19.82	-50.9	-52.8	14.9	0.00e+00	0	25	0	840957952	68	4369
2026-01-11 05:53:41.97	338.34	19.56	-49.9	-51.7	15.0	0.00e+00	0	25	0	848297984	66	4304
2026-01-11 05:53:45.96	337.50	19.30	-50.4	-52.3	14.8	0.00e+00	0	25	0	855638016	66	4622
2026-01-11 05:53:49.97	336.67	19.04	-52.0	-54.5	14.1	0.00e+00	0	25	0	862978048	69	4988
2026-01-11 05:53:53.98	335.86	18.77	-52.1	-54.7	14.1	0.00e+00	0	25	0	870318080	69	5122
2026-01-11 05:53:57.99	335.05	18.50	-51.4	-53.6	14.6	0.00e+00	0	25	0	877658112	69	4532
2026-01-11 05:54:01.99	334.27	18.23	-50.8	-52.8	14.8	0.00e+00	0	25	0	886046720	68	4382
2026-01-11 05:54:05.98	333.50	17.95	-50.5	-52.4	14.9	0.00e+00	0	25	0	893386752	67	4412
2026-01-11 05:54:10.01	332.74	17.67	-51.2	-53.4	14.4	0.00e+00	0	25	0	900726784	67	4937
2026-01-11 05:54:14.02	332.00	17.40	-51.0	-53.1	14.5	0.00e+00	0	25	0	908066816	67	4787
2026-01-11 05:54:18.03	331.26	17.11	-51.6	-53.9	14.3	0.00e+00	0	25	0	915406848	68	4935
2026-01-11 05:54:22.04	330.55	16.83	-51.4	-53.5	14.5	0.00e+00	0	25	0	922746880	68	4722
2026-01-11 05:54:26.03	329.85	16.55	-51.0	-53.0	14.8	0.00e+00	0	25	0	931135488	68	4467
2026-01-11 05:54:30.04	329.16	16.26	-51.2	-53.1	14.7	0.00e+00	0	25	0	938475520	68	4533
2026-01-11 05:54:34.03	328.49	15.98	-51.1	-53.0	14.8	0.00e+00	0	25	0	945815552	68	4455
2026-01-11 05:54:38.03	327.83	15.69	-50.9	-52.7	14.9	0.00e+00	0	25	0	953155584	68	4295
2026-01-11 05:54:42.01	327.18	15.41	-50.7	-52.5	14.8	0.00e+00	0	25	0	960495616	67	4476
2026-01-11 05:54:46.01	326.54	15.12	-50.9	-52.8	14.7	0.00e+00	0	25	0	967835648	67	4618
2026-01-11 05:54:50.03	325.92	14.83	-51.0	-52.8	14.6	0.00e+00	0	25	0	976224256	67	4651
2026-01-11 05:54:54.04	325.30	14.54	-50.3	-52.0	15.0	0.00e+00	0	25	0	983564288	67	4204
2026-01-11 05:54:58.05	324.70	14.26	-51.1	-53.1	14.5	0.00e+00	0	25	0	990904320	67	4782
2026-01-11 05:55:02.06	324.11	13.97	-51.8	-53.8	14.3	0.00e+00	0	25	0	998244352	68	4926
2026-01-11 05:55:06.07	323.53	13.68	-51.3	-53.3	14.6	0.00e+00	0	25	0	1005584384	68	4601
2026-01-11 05:55:10.07	322.97	13.40	-51.1	-52.9	14.8	0.00e+00	0	25	0	1012924416	68	4420
2026-01-11 05:55:14.08	322.41	13.11	-50.7	-52.5	14.8	0.00e+00	0	25	0	1021313024	67	4455
2026-01-11 05:55:18.10	321.87	12.82	-51.7	-53.8	14.4	0.00e+00	0	25	0	1028653056	68	4883
2026-01-11 05:55:22.11	321.33	12.54	-52.2	-54.5	14.1	0.00e+00	0	25	0	1035993088	69	5003
2026-01-11 05:55:26.12	320.81	12.26	-51.5	-53.4	14.6	0.00e+00	0	25	0	1043333120	69	4422
2026-01-11 05:55:30.12	320.30	11.97	-51.4	-53.4	14.7	0.00e+00	0	25	0	1050673152	69	4414
2026-01-11 05:55:34.11	319.80	11.69	-51.5	-53.5	14.6	0.00e+00	0	25	0	1058013184	69	4492
2026-01-11 05:55:38.11	319.30	11.41	-51.6	-53.6	14.6	0.00e+00	0	25	0	1066401792	69	4513
2026-01-11 05:55:42.12	318.82	11.14	-51.8	-53.9	14.4	0.00e+00	0	25	0	1073741824	69	4692
2026-01-11 05:55:46.12	318.35	10.86	-52.2	-54.6	14.1	0.00e+00	0	25	0	1081081856	69	5068
2026-01-11 05:55:50.13	317.88	10.58	-52.3	-54.6	14.0	0.00e+00	0	25	0	1088421888	69	5093
2026-01-11 05:55:54.15	317.42	10.30	-52.8	-55.4	13.7	0.00e+00	0	25	0	1095761920	70	5223
2026-01-11 05:55:58.15	316.97	10.03	-52.9	-55.5	13.8	0.00e+00	0	25	0	1103101952	71	5003
2026-01-11 05:56:02.15	316.54	9.76	-52.5	-55.0	14.1	0.00e+00	0	25	0	1111490560	71	4706
2026-01-11 05:56:06.15	316.11	9.49	-52.0	-54.1	14.4	0.00e+00	0	25	0	1118830592	70	4528
2026-01-11 05:56:10.15	315.68	9.22	-52.1	-54.3	14.3	0.00e+00	0	25	0	1126170624	70	4642
2026-01-11 05:56:14.15	315.27	8.95	-52.5	-54.9	13.9	0.00e+00	0	25	0	1133510656	70	4962
2026-01-11 05:56:18.16	314.86	8.68	-52.7	-55.2	13.8	0.00e+00	0	25	0	1140850688	70	5106
2026-01-11 05:56:22.17	314.46	8.42	-52.5	-54.9	13.9	0.00e+00	0	25	0	1148190720	70	4934
2026-01-11 05:56:26.18	314.07	8.15	-52.4	-54.7	14.0	0.00e+00	0	25	0	1155530752	70	4857
2026-01-11 05:56:30.17	313.69	7.89	-52.6	-55.1	13.9	0.00e+00	0	25	0	1163919360	70	5042
2026-01-11 05:56:34.18	313.31	7.63	-53.0	-55.7	13.6	0.00e+00	0	25	0	1171259392	71	5133
2026-01-11 05:56:38.18	312.94	7.37	-53.4	-56.4	13.3	0.00e+00	0	25	0	1178599424	72	5233
2026-01-11 05:56:42.18	312.58	7.11	-53.8	-56.9	12.9	0.00e+00	0	25	0	1185939456	72	5576
2026-01-11 05:56:46.19	312.22	6.85	-53.8	-56.9	13.0	0.00e+00	0	25	0	1193279488	73	5276
2026-01-11 05:56:50.18	311.87	6.60	-53.8	-57.0	12.9	0.00e+00	0	25	0	1200619520	73	5327
2026-01-11 05:56:54.19	311.53	6.35	-53.7	-56.9	13.0	0.00e+00	0	25	0	1209008128	73	5243
2026-01-11 05:56:58.19	311.19	6.09	-53.8	-57.0	12.9	0.00e+00	0	25	0	1216348160	73	5304
2026-01-11 05:57:02.19	310.86	5.84	-53.8	-57.1	12.8	0.00e+00	0	25	0	1223688192	73	5398
2026-01-11 05:57:06.21	310.53	5.59	-54.3	-58.0	12.2	7.00e-07	0	26	0	1231028224	73	5953
2026-01-11 05:57:10.21	310.21	5.34	-54.1	-57.6	12.5	0.00e+00	0	25	0	1238368256	73	5672
2026-01-11 05:57:14.20	309.90	5.10	-53.7	-56.9	12.9	0.00e+00	0	25	0	1245708288	73	5266
2026-01-11 05:57:18.21	309.59	4.85	-58.6	-74.7	3.8	1.49e+00	0	26	104	1248854016	82	24167
2026-01-11 05:57:22.22	309.28	4.61	-59.4	-75.4	3.8	1.49e+00	0	26	104	1248854016	83	24872
2026-01-11 05:57:26.22	308.98	4.37	-59.9	-76.0	3.8	1.49e+00	0	26	104	1248854016	84	25008
2026-01-11 05:57:30.21	308.69	4.13	-60.1	-76.2	3.8	1.49e+00	0	26	104	1248854016	85	24189
2026-01-11 05:57:34.21	308.40	3.89	-60.2	-76.3	3.8	1.49e+00	0	26	104	1248854016	85	24576
2026-01-11 05:57:38.20	308.12	3.65	-60.3	-76.3	3.8	1.49e+00	0	26	104	1248854016	85	24693
2026-01-11 05:57:42.17	307.85	3.42	-60.1	-76.2	3.8	1.49e+00	0	26	104	1248854016	85	24269
2026-01-11 05:57:46.18	307.57	3.18	-60.1	-76.1	3.8	1.49e+00	0	25	104	1248854016	85	24118
2026-01-11 05:57:50.19	307.30	2.95	-60.0	-76.1	3.8	1.49e+00	0	25	104	1248854016	85	24007
2026-01-11 05:57:54.20	307.03	2.72	-60.0	-76.1	3.8	1.49e+00	0	26	104	1248854016	85	23880
2026-01-11 05:57:58.21	306.77	2.48	-60.0	-76.1	3.8	1.49e+00	0	26	104	1248854016	85	23855
2026-01-11 05:58:02.23	306.52	2.25	-60.0	-76.0	3.8	1.49e+00	0	26	104	1248854016	85	23764
2026-01-11 05:58:06.24	306.26	2.02	-60.0	-76.0	3.8	1.49e+00	0	26	104	1248854016	85	23747

#Closed at: 2026-01-11 05:58:07
#Recorded file [1248 MB]: D:/lorett/data/31004_260111_084525.dat