passes_logs/2026/01/11/R3.2S_Murmansk/R3.2S_Murmansk__20260111_040619_SUOMI_NPP_rec.log

#Pass ID: 20260111_040619_SUOMI NPP
#Satellite: SUOMI NPP
#Configuration: NPP
#almurnet v.1.7.20251203
#Start time: 2026-01-11 04:06:19

#Version: 2.2.20231116
#Station: R3.2S_Murmansk
#Location: 33.079688 lon 68.888172 lat
#TLE: 1 37849U 11061A   26009.81756760  .00000113  00000+0  74747-4 0  9994
#TLE: 2 37849  98.7806 311.9110 0002525  72.5604 287.5848 14.19524046735974

#Time	Az	El	Level	Level2	SNR	BER	BlckErr	Temp	State	Recorded	gain1	gain2
2026-01-11 04:06:19.51	47.49	2.00	-53.1	-69.0	3.8	1.49e+00	0	22	0	0	71	23760
2026-01-11 04:06:22.51	47.31	2.18	-53.1	-69.0	3.8	1.49e+00	0	23	104	0	71	23820
2026-01-11 04:06:25.51	47.13	2.35	-53.1	-69.0	3.8	1.49e+00	0	23	104	0	71	23851
2026-01-11 04:06:28.51	46.95	2.52	-53.1	-69.1	3.8	1.49e+00	0	23	104	0	71	23872
2026-01-11 04:06:31.52	46.77	2.70	-53.1	-69.1	3.8	1.49e+00	0	23	104	0	71	23927
2026-01-11 04:06:34.52	46.58	2.88	-53.1	-69.1	3.8	1.49e+00	0	23	104	0	71	23879
2026-01-11 04:06:37.52	46.39	3.05	-53.2	-69.1	3.8	1.49e+00	0	23	104	0	71	23961
2026-01-11 04:06:40.53	46.20	3.23	-53.2	-69.1	3.8	1.49e+00	0	23	104	0	71	23993
2026-01-11 04:06:43.53	46.00	3.41	-53.2	-69.1	3.8	1.49e+00	0	23	104	0	71	23987
2026-01-11 04:06:46.54	45.80	3.59	-53.2	-69.1	3.8	1.49e+00	0	23	104	0	71	23941
2026-01-11 04:06:49.53	45.60	3.77	-53.2	-69.1	3.8	1.49e+00	0	23	104	0	71	24012
2026-01-11 04:06:52.52	45.40	3.95	-53.2	-69.1	3.8	1.49e+00	0	24	104	0	71	24083
2026-01-11 04:06:55.51	45.20	4.14	-53.2	-69.1	3.8	1.49e+00	0	24	104	0	71	24024
2026-01-11 04:06:58.51	44.99	4.32	-53.2	-69.1	3.8	1.49e+00	0	24	104	0	71	23965
2026-01-11 04:07:01.49	44.78	4.50	-53.2	-69.1	3.8	1.49e+00	0	24	104	0	71	24058
2026-01-11 04:07:04.48	44.57	4.69	-53.2	-69.1	3.8	1.49e+00	0	24	104	0	71	24093
2026-01-11 04:07:07.48	44.35	4.87	-53.2	-69.1	3.8	1.49e+00	0	24	104	0	71	24100
2026-01-11 04:07:10.50	44.13	5.06	-53.2	-69.1	3.8	1.49e+00	0	24	104	0	71	24110
2026-01-11 04:07:13.49	43.91	5.25	-53.2	-69.1	3.8	1.49e+00	0	24	104	0	71	24119
2026-01-11 04:07:16.50	43.68	5.44	-53.2	-69.1	3.8	1.49e+00	0	24	104	0	71	24129
2026-01-11 04:07:19.51	43.45	5.63	-53.2	-69.2	3.8	1.49e+00	0	24	104	0	71	24132
2026-01-11 04:07:22.51	43.22	5.82	-53.2	-69.2	3.8	1.49e+00	0	24	104	0	71	24195
2026-01-11 04:07:25.51	42.99	6.01	-53.2	-69.2	3.8	1.49e+00	0	24	104	0	71	24238
2026-01-11 04:07:28.51	42.75	6.20	-53.2	-69.1	3.8	1.49e+00	0	24	104	0	71	24097
2026-01-11 04:07:31.51	42.51	6.39	-53.2	-69.2	3.8	1.49e+00	0	24	104	0	71	24212
2026-01-11 04:07:34.51	42.26	6.59	-53.2	-69.2	3.8	1.49e+00	0	24	104	0	71	24144
2026-01-11 04:07:37.52	42.02	6.78	-53.2	-69.2	3.8	1.49e+00	0	24	104	0	71	24200
2026-01-11 04:07:40.53	41.76	6.98	-53.3	-69.2	3.8	1.49e+00	0	25	104	0	71	24182
2026-01-11 04:07:43.53	41.51	7.18	-53.2	-69.2	3.8	1.49e+00	0	25	104	0	71	24275
2026-01-11 04:07:46.52	41.25	7.38	-53.3	-69.2	3.8	1.49e+00	0	25	104	0	71	24265
2026-01-11 04:07:49.52	40.99	7.57	-53.2	-69.2	3.8	1.49e+00	0	25	104	0	71	24234
2026-01-11 04:07:52.51	40.72	7.77	-53.3	-69.2	3.8	1.49e+00	0	25	104	0	71	24210
2026-01-11 04:07:55.48	40.46	7.97	-53.2	-69.2	3.8	1.49e+00	0	25	104	0	71	24238
2026-01-11 04:07:58.46	40.18	8.17	-53.3	-69.2	3.8	1.49e+00	0	25	104	0	71	24265
2026-01-11 04:08:01.47	39.90	8.38	-53.2	-69.2	3.8	1.49e+00	0	25	104	0	71	24241
2026-01-11 04:08:04.46	39.62	8.58	-53.3	-69.2	3.8	1.49e+00	0	25	104	0	71	24303
2026-01-11 04:08:07.45	39.34	8.79	-53.3	-69.2	3.8	1.49e+00	0	25	104	0	71	24251
2026-01-11 04:08:10.44	39.05	8.99	-53.2	-69.2	3.8	1.49e+00	0	25	104	0	71	24211
2026-01-11 04:08:13.44	38.76	9.20	-53.3	-69.2	3.8	1.49e+00	0	25	104	0	71	24265
2026-01-11 04:08:16.44	38.46	9.40	-53.3	-69.2	3.8	1.49e+00	0	25	104	0	71	24285
2026-01-11 04:08:19.44	38.15	9.61	-53.3	-69.2	3.8	1.49e+00	0	25	104	0	71	24331
2026-01-11 04:08:22.44	37.85	9.82	-53.3	-69.2	3.8	1.49e+00	0	25	104	0	71	24287
2026-01-11 04:08:25.44	37.53	10.03	-53.3	-69.2	3.8	1.49e+00	0	25	104	0	71	24317
2026-01-11 04:08:28.43	37.22	10.24	-53.3	-69.2	3.8	1.49e+00	0	25	104	0	71	24283
2026-01-11 04:08:31.44	36.89	10.46	-53.3	-69.2	3.8	1.49e+00	0	25	104	0	71	24262
2026-01-11 04:08:34.43	36.57	10.67	-53.3	-69.2	3.8	1.49e+00	0	25	104	0	71	24320
2026-01-11 04:08:37.42	36.24	10.88	-53.3	-69.2	3.8	1.49e+00	0	25	104	0	71	24333
2026-01-11 04:08:40.44	35.90	11.10	-53.3	-69.2	3.8	1.49e+00	0	25	104	0	71	24356
2026-01-11 04:08:43.45	35.56	11.32	-53.3	-69.2	3.8	1.49e+00	0	25	104	0	71	24333
2026-01-11 04:08:46.44	35.21	11.53	-53.3	-69.3	3.8	1.49e+00	0	25	104	0	71	24414
2026-01-11 04:08:49.44	34.86	11.75	-53.3	-69.2	3.8	1.49e+00	0	25	104	0	71	24385
2026-01-11 04:08:52.43	34.50	11.97	-53.3	-69.2	3.8	1.49e+00	0	25	104	0	71	24371
2026-01-11 04:08:55.42	34.14	12.19	-53.3	-69.2	3.8	1.49e+00	0	25	104	0	71	24305
2026-01-11 04:08:58.42	33.77	12.41	-53.3	-69.2	3.8	1.49e+00	0	25	104	0	71	24406
2026-01-11 04:09:01.41	33.40	12.63	-53.3	-69.2	3.8	1.49e+00	0	25	104	0	71	24379
2026-01-11 04:09:04.40	33.02	12.85	-53.3	-69.2	3.8	1.49e+00	0	25	104	0	71	24394
2026-01-11 04:09:07.41	32.63	13.08	-53.3	-69.2	3.8	1.49e+00	0	25	104	0	71	24331
2026-01-11 04:09:10.41	32.24	13.30	-53.3	-69.3	3.8	1.49e+00	0	25	104	0	71	24422
2026-01-11 04:09:13.40	31.84	13.52	-53.3	-69.2	3.8	1.49e+00	0	25	104	0	71	24402
2026-01-11 04:09:16.41	31.43	13.75	-53.3	-69.2	3.8	1.49e+00	0	25	104	0	71	24410
2026-01-11 04:09:19.42	31.02	13.97	-53.3	-69.2	3.8	1.49e+00	0	25	104	0	71	24402
2026-01-11 04:09:22.43	30.60	14.20	-53.3	-69.2	3.8	1.49e+00	0	25	104	0	71	24394
2026-01-11 04:09:25.43	30.18	14.43	-53.3	-69.2	3.8	1.49e+00	0	25	104	0	71	24387
2026-01-11 04:09:28.42	29.75	14.65	-53.3	-69.2	3.8	1.49e+00	0	25	104	0	71	24408
2026-01-11 04:09:31.41	29.31	14.88	-53.3	-69.3	3.8	1.49e+00	0	26	104	0	71	24479
2026-01-11 04:09:34.41	28.87	15.11	-53.3	-69.2	3.8	1.49e+00	0	25	104	0	71	24350
2026-01-11 04:09:37.42	28.42	15.34	-53.3	-69.2	3.8	1.49e+00	0	25	104	0	71	24336
2026-01-11 04:09:40.42	27.96	15.57	-53.3	-69.2	3.8	1.49e+00	0	25	104	0	71	24325
2026-01-11 04:09:43.41	27.49	15.79	-53.3	-69.2	3.8	1.49e+00	0	25	104	0	71	24396
2026-01-11 04:09:46.41	27.02	16.02	-53.3	-69.2	3.8	1.49e+00	0	25	104	0	71	24392
2026-01-11 04:09:49.40	26.54	16.25	-53.3	-69.3	3.8	1.49e+00	0	25	104	0	71	24450
2026-01-11 04:09:52.40	26.05	16.48	-53.3	-69.2	3.8	1.49e+00	0	25	104	0	71	24355
2026-01-11 04:09:55.41	25.56	16.71	-53.3	-69.3	3.8	1.49e+00	0	25	104	0	71	24421
2026-01-11 04:09:58.40	25.05	16.94	-53.3	-69.2	3.8	1.49e+00	0	25	104	0	71	24326
2026-01-11 04:10:01.40	24.54	17.17	-53.3	-69.3	3.8	1.49e+00	0	25	104	0	71	24456
2026-01-11 04:10:04.38	24.03	17.39	-53.3	-69.2	3.8	1.49e+00	0	25	104	0	71	24354
2026-01-11 04:10:07.37	23.50	17.62	-53.3	-69.2	3.8	1.49e+00	0	25	104	0	71	24385
2026-01-11 04:10:10.37	22.97	17.85	-53.3	-69.2	3.8	1.49e+00	0	25	104	0	71	24392
2026-01-11 04:10:13.36	22.43	18.07	-53.3	-69.3	3.8	1.49e+00	0	25	104	0	71	24412
2026-01-11 04:10:16.36	21.87	18.30	-53.3	-69.3	3.8	1.49e+00	0	25	104	0	71	24460
2026-01-11 04:10:19.35	21.32	18.53	-53.3	-69.2	3.8	1.49e+00	0	25	104	0	71	24374
2026-01-11 04:10:22.36	20.75	18.75	-53.3	-69.2	3.8	1.49e+00	0	25	104	0	71	24357
2026-01-11 04:10:25.36	20.17	18.98	-53.3	-69.2	3.8	1.49e+00	0	26	104	0	71	24402
2026-01-11 04:10:28.36	19.58	19.20	-53.3	-69.3	3.8	1.49e+00	0	25	104	0	71	24483
2026-01-11 04:10:31.37	18.99	19.42	-53.3	-69.2	3.8	1.49e+00	0	26	104	0	71	24406
2026-01-11 04:10:34.36	18.38	19.64	-53.3	-69.3	3.8	1.49e+00	0	25	104	0	71	24430
2026-01-11 04:10:37.37	17.77	19.86	-53.3	-69.2	3.8	1.49e+00	0	25	104	0	71	24291
2026-01-11 04:10:40.37	17.15	20.08	-53.3	-69.3	3.8	1.49e+00	0	26	104	0	71	24468
2026-01-11 04:10:43.37	16.52	20.29	-53.3	-69.3	3.8	1.49e+00	0	25	104	0	71	24479
2026-01-11 04:10:46.37	15.88	20.51	-53.3	-69.3	3.8	1.49e+00	0	25	104	0	71	24470
2026-01-11 04:10:49.36	15.23	20.72	-53.3	-69.3	3.8	1.49e+00	0	26	104	0	71	24441
2026-01-11 04:10:52.37	14.57	20.93	-53.3	-69.3	3.8	1.49e+00	0	26	104	0	71	24476
2026-01-11 04:10:55.37	13.91	21.14	-53.3	-69.3	3.8	1.49e+00	0	26	104	0	71	24465
2026-01-11 04:10:58.38	13.23	21.34	-53.3	-69.3	3.8	1.49e+00	0	26	104	0	71	24509
2026-01-11 04:11:01.36	12.55	21.54	-53.3	-69.3	3.8	1.49e+00	0	26	104	0	71	24489
2026-01-11 04:11:04.37	11.86	21.74	-53.3	-69.3	3.8	1.49e+00	0	26	104	0	71	24469
2026-01-11 04:11:07.36	11.16	21.94	-53.4	-69.3	3.8	1.49e+00	0	25	104	0	71	24510
2026-01-11 04:11:10.34	10.45	22.13	-53.4	-69.3	3.8	1.49e+00	0	26	104	0	71	24556
2026-01-11 04:11:13.33	9.73	22.32	-53.3	-69.3	3.8	1.49e+00	0	26	104	0	71	24493
2026-01-11 04:11:16.33	9.00	22.50	-53.3	-69.3	3.8	1.49e+00	0	26	104	0	71	24505
2026-01-11 04:11:19.33	8.26	22.69	-53.4	-69.3	3.8	1.49e+00	0	26	104	0	71	24500
2026-01-11 04:11:22.33	7.52	22.86	-53.3	-69.3	3.8	1.49e+00	0	26	104	0	71	24539
2026-01-11 04:11:25.32	6.77	23.04	-53.4	-69.3	3.8	1.49e+00	0	26	104	0	71	24607
2026-01-11 04:11:28.33	6.00	23.21	-53.3	-69.3	3.8	1.49e+00	0	26	104	0	71	24518
2026-01-11 04:11:31.34	5.23	23.37	-53.3	-69.3	3.8	1.49e+00	0	26	104	0	71	24451
2026-01-11 04:11:34.32	4.45	23.53	-53.3	-69.3	3.8	1.49e+00	0	26	104	0	71	24459
2026-01-11 04:11:37.32	3.66	23.69	-53.3	-69.3	3.8	1.49e+00	0	26	104	0	71	24494
2026-01-11 04:11:40.33	2.86	23.84	-53.4	-69.3	3.8	1.49e+00	0	26	104	0	71	24483
2026-01-11 04:11:43.33	2.06	23.99	-53.3	-69.3	3.8	1.49e+00	0	26	104	0	71	24500
2026-01-11 04:11:46.34	1.25	24.13	-53.3	-69.3	3.8	1.49e+00	0	26	104	0	71	24427
2026-01-11 04:11:49.35	0.43	24.26	-53.3	-69.3	3.8	1.49e+00	0	26	104	0	71	24426
2026-01-11 04:11:52.34	359.60	24.39	-53.3	-69.3	3.8	1.49e+00	0	26	104	0	71	24449
2026-01-11 04:11:55.35	358.77	24.52	-53.3	-69.3	3.8	1.49e+00	0	26	104	0	71	24470
2026-01-11 04:11:58.35	357.93	24.63	-53.3	-69.3	3.8	1.49e+00	0	26	104	0	71	24507
2026-01-11 04:12:01.35	357.09	24.74	-53.3	-69.3	3.8	1.49e+00	0	26	104	0	71	24553
2026-01-11 04:12:04.34	356.24	24.85	-53.3	-69.3	3.8	1.49e+00	0	26	104	0	71	24538
2026-01-11 04:12:07.34	355.38	24.95	-53.3	-69.3	3.8	1.49e+00	0	26	104	0	71	24492
2026-01-11 04:12:10.34	354.52	25.04	-53.3	-69.3	3.8	1.49e+00	0	25	104	0	71	24499
2026-01-11 04:12:13.32	353.66	25.12	-53.4	-69.3	3.8	1.49e+00	0	26	104	0	71	24497
2026-01-11 04:12:16.33	352.79	25.20	-53.4	-69.3	3.8	1.49e+00	0	26	104	0	71	24526
2026-01-11 04:12:19.32	351.92	25.27	-53.4	-69.3	3.8	1.49e+00	0	26	104	0	71	24595
2026-01-11 04:12:22.32	351.04	25.33	-53.3	-69.3	3.8	1.49e+00	0	26	104	0	71	24545
2026-01-11 04:12:25.31	350.16	25.39	-53.4	-69.3	3.8	1.49e+00	0	25	104	0	71	24556
2026-01-11 04:12:28.31	349.28	25.44	-53.4	-69.3	3.8	1.49e+00	0	26	104	0	71	24553
2026-01-11 04:12:31.31	348.39	25.48	-53.4	-69.3	3.8	1.49e+00	0	26	104	0	71	24563
2026-01-11 04:12:34.32	347.50	25.51	-53.4	-69.3	3.8	1.49e+00	0	26	104	0	71	24591
2026-01-11 04:12:37.32	346.61	25.54	-53.3	-69.3	3.8	1.49e+00	0	26	104	0	71	24493
2026-01-11 04:12:40.31	345.72	25.56	-53.4	-69.3	3.8	1.49e+00	0	26	104	0	71	24609
2026-01-11 04:12:43.32	344.82	25.57	-53.4	-69.3	3.8	1.49e+00	0	26	104	0	71	24573
2026-01-11 04:12:46.33	343.93	25.57	-53.4	-69.3	3.8	1.49e+00	0	25	104	0	71	24582
2026-01-11 04:12:49.33	343.03	25.57	-53.4	-69.3	3.8	1.49e+00	0	26	104	0	71	24543
2026-01-11 04:12:52.33	342.14	25.55	-53.4	-69.3	3.8	1.49e+00	0	26	104	0	71	24531
2026-01-11 04:12:55.33	341.25	25.53	-53.4	-69.3	3.8	1.49e+00	0	25	104	0	71	24619
2026-01-11 04:12:58.34	340.35	25.51	-53.4	-69.3	3.8	1.49e+00	0	26	104	0	71	24575
2026-01-11 04:13:01.33	339.47	25.47	-53.4	-69.3	3.8	1.49e+00	0	26	104	0	71	24569
2026-01-11 04:13:04.33	338.58	25.43	-53.4	-69.3	3.8	1.49e+00	0	26	104	0	71	24564
2026-01-11 04:13:07.32	337.70	25.38	-53.4	-69.3	3.8	1.49e+00	0	26	104	0	71	24563
2026-01-11 04:13:10.32	336.82	25.32	-53.4	-69.3	3.8	1.49e+00	0	26	104	0	71	24570
2026-01-11 04:13:13.32	335.94	25.26	-53.4	-69.3	3.8	1.49e+00	0	26	104	0	71	24585
2026-01-11 04:13:16.32	335.07	25.19	-53.4	-69.3	3.8	1.49e+00	0	26	104	0	71	24605
2026-01-11 04:13:19.32	334.20	25.11	-53.4	-69.3	3.8	1.49e+00	0	26	104	0	71	24591
2026-01-11 04:13:22.33	333.33	25.02	-53.4	-69.3	3.8	1.49e+00	0	26	104	0	71	24574
2026-01-11 04:13:25.32	332.47	24.93	-53.4	-69.4	3.8	1.49e+00	0	26	104	0	71	24703
2026-01-11 04:13:28.33	331.61	24.83	-53.4	-69.3	3.8	1.49e+00	0	26	104	0	71	24615
2026-01-11 04:13:31.34	330.76	24.73	-53.4	-69.3	3.8	1.49e+00	0	26	104	0	71	24598
2026-01-11 04:13:34.34	329.92	24.61	-53.4	-69.3	3.8	1.49e+00	0	26	104	0	71	24518
2026-01-11 04:13:37.33	329.08	24.50	-53.4	-69.3	3.8	1.49e+00	0	26	104	0	71	24595
2026-01-11 04:13:40.35	328.25	24.37	-53.4	-69.3	3.8	1.49e+00	0	26	104	0	71	24591
2026-01-11 04:13:43.35	327.42	24.24	-53.4	-69.3	3.8	1.49e+00	0	26	104	0	71	24585
2026-01-11 04:13:46.35	326.60	24.11	-53.4	-69.3	3.8	1.49e+00	0	26	104	0	71	24632
2026-01-11 04:13:49.35	325.79	23.96	-53.4	-69.3	3.8	1.49e+00	0	26	104	0	71	24631
2026-01-11 04:13:52.34	324.99	23.82	-53.4	-69.3	3.8	1.49e+00	0	26	104	0	71	24540
2026-01-11 04:13:55.34	324.20	23.67	-53.4	-69.3	3.8	1.49e+00	0	26	104	0	71	24546
2026-01-11 04:13:58.35	323.41	23.51	-53.4	-69.3	3.8	1.49e+00	0	26	104	0	71	24571
2026-01-11 04:14:01.32	322.64	23.35	-53.4	-69.3	3.8	1.49e+00	0	26	104	0	71	24544
2026-01-11 04:14:04.32	321.87	23.18	-53.4	-69.3	3.8	1.49e+00	0	26	104	0	71	24629
2026-01-11 04:14:07.32	321.10	23.01	-53.4	-69.3	3.8	1.49e+00	0	26	104	0	71	24647
2026-01-11 04:14:10.32	320.35	22.84	-53.4	-69.3	3.8	1.49e+00	0	26	104	0	71	24513
2026-01-11 04:14:13.31	319.61	22.66	-53.4	-69.3	3.8	1.49e+00	0	26	104	0	71	24583
2026-01-11 04:14:16.30	318.87	22.48	-53.3	-69.3	3.8	1.49e+00	0	26	104	0	71	24468
2026-01-11 04:14:19.30	318.14	22.29	-53.4	-69.3	3.8	1.49e+00	0	26	104	0	71	24586
2026-01-11 04:14:22.29	317.43	22.10	-53.4	-69.3	3.8	1.49e+00	0	26	104	0	71	24612
2026-01-11 04:14:25.31	316.71	21.90	-53.4	-69.3	3.8	1.49e+00	0	26	104	0	71	24519
2026-01-11 04:14:28.32	316.01	21.71	-53.4	-69.3	3.8	1.49e+00	0	26	104	0	71	24578
2026-01-11 04:14:31.33	315.31	21.51	-53.4	-69.3	3.8	1.49e+00	0	26	104	0	71	24668
2026-01-11 04:14:34.32	314.63	21.30	-53.4	-69.3	3.8	1.49e+00	0	26	104	0	71	24630
2026-01-11 04:14:37.32	313.96	21.10	-53.4	-69.3	3.8	1.49e+00	0	26	104	0	71	24617
2026-01-11 04:14:40.32	313.29	20.89	-53.4	-69.3	3.8	1.49e+00	0	26	104	0	71	24586
2026-01-11 04:14:43.33	312.63	20.68	-53.4	-69.3	3.9	1.49e+00	0	26	104	0	71	24623
2026-01-11 04:14:46.33	311.99	20.47	-53.4	-69.3	3.8	1.49e+00	0	26	104	0	71	24671
2026-01-11 04:14:49.34	311.35	20.25	-53.4	-69.3	3.8	1.49e+00	0	26	104	0	71	24684
2026-01-11 04:14:52.33	310.72	20.04	-53.4	-69.3	3.8	1.49e+00	0	26	104	0	71	24692
2026-01-11 04:14:55.34	310.10	19.82	-53.4	-69.3	3.8	1.49e+00	0	26	104	0	71	24669
2026-01-11 04:14:58.34	309.49	19.60	-53.4	-69.4	3.8	1.49e+00	0	26	104	0	71	24704
2026-01-11 04:15:01.34	308.88	19.38	-53.4	-69.3	3.8	1.49e+00	0	26	104	0	71	24635
2026-01-11 04:15:04.34	308.29	19.16	-53.4	-69.3	3.8	1.49e+00	0	26	104	0	71	24638
2026-01-11 04:15:07.35	307.70	18.93	-53.4	-69.3	3.8	1.49e+00	0	26	104	0	71	24636
2026-01-11 04:15:10.35	307.13	18.71	-53.4	-69.4	3.8	1.49e+00	0	26	104	0	71	24747
2026-01-11 04:15:13.35	306.56	18.49	-53.4	-69.4	3.8	1.49e+00	0	26	104	0	72	23318
2026-01-11 04:15:16.35	306.00	18.26	-53.4	-69.3	3.8	1.49e+00	0	26	104	0	72	23286
2026-01-11 04:15:19.35	305.45	18.03	-53.4	-69.4	3.8	1.49e+00	0	26	104	0	72	23331
2026-01-11 04:15:22.36	304.90	17.80	-53.4	-69.3	3.8	1.49e+00	0	26	104	0	72	23288
2026-01-11 04:15:25.35	304.37	17.58	-53.4	-69.4	3.8	1.49e+00	0	26	104	0	72	23330
2026-01-11 04:15:28.35	303.84	17.35	-53.4	-69.4	3.8	1.49e+00	0	26	104	0	72	23360
2026-01-11 04:15:31.36	303.32	17.12	-53.4	-69.4	3.8	1.49e+00	0	26	104	0	72	23335
2026-01-11 04:15:34.36	302.81	16.89	-53.4	-69.4	3.8	1.49e+00	0	26	104	0	72	23381
2026-01-11 04:15:37.36	302.31	16.66	-53.5	-69.3	3.8	1.49e+00	0	26	104	0	72	23310
2026-01-11 04:15:40.37	301.82	16.43	-53.5	-69.4	3.8	1.49e+00	0	26	104	0	72	23414
2026-01-11 04:15:43.37	301.33	16.20	-53.5	-69.4	3.8	1.49e+00	0	26	104	0	72	23407
2026-01-11 04:15:46.37	300.85	15.97	-53.4	-69.4	3.8	1.49e+00	0	26	104	0	72	23455
2026-01-11 04:15:49.37	300.38	15.74	-53.4	-69.4	3.8	1.49e+00	0	26	104	0	72	23362
2026-01-11 04:15:52.37	299.91	15.51	-53.4	-69.4	3.8	1.49e+00	0	26	104	0	72	23332
2026-01-11 04:15:55.37	299.45	15.29	-53.4	-69.4	3.8	1.49e+00	0	26	104	0	72	23398
2026-01-11 04:15:58.36	299.00	15.06	-53.4	-69.4	3.8	1.49e+00	0	26	104	0	72	23369
2026-01-11 04:16:01.36	298.56	14.83	-53.5	-69.4	3.9	1.49e+00	0	26	104	0	72	23386
2026-01-11 04:16:04.35	298.13	14.60	-53.5	-69.4	3.8	1.49e+00	0	26	104	0	72	23422
2026-01-11 04:16:07.35	297.70	14.38	-53.4	-69.4	3.8	1.49e+00	0	26	104	0	72	23360
2026-01-11 04:16:10.34	297.27	14.15	-53.5	-69.4	3.8	1.49e+00	0	26	104	0	72	23359
2026-01-11 04:16:13.34	296.86	13.92	-53.4	-69.3	3.8	1.49e+00	0	26	104	0	72	23306
2026-01-11 04:16:16.33	296.45	13.70	-53.4	-69.4	3.8	1.49e+00	0	26	104	0	72	23348
2026-01-11 04:16:19.32	296.04	13.48	-53.5	-69.4	3.8	1.49e+00	0	26	104	0	72	23359
2026-01-11 04:16:22.33	295.64	13.25	-53.4	-69.4	3.8	1.49e+00	0	26	104	0	72	23405
2026-01-11 04:16:25.32	295.25	13.03	-53.4	-69.4	3.8	1.49e+00	0	26	104	0	72	23337
2026-01-11 04:16:28.33	294.87	12.80	-53.4	-69.4	3.8	1.49e+00	0	26	104	0	72	23382
2026-01-11 04:16:31.33	294.49	12.58	-53.4	-69.4	3.8	1.49e+00	0	26	104	0	72	23325
2026-01-11 04:16:34.32	294.11	12.36	-53.4	-69.3	3.8	1.49e+00	0	26	104	0	72	23300
2026-01-11 04:16:37.33	293.74	12.14	-53.5	-69.4	3.8	1.49e+00	0	26	104	0	72	23387
2026-01-11 04:16:40.33	293.38	11.92	-53.4	-69.4	3.8	1.49e+00	0	26	104	0	72	23344
2026-01-11 04:16:43.33	293.02	11.70	-53.4	-69.4	3.8	1.49e+00	0	26	104	0	72	23335
2026-01-11 04:16:46.32	292.67	11.49	-53.4	-69.4	3.8	1.49e+00	0	26	104	0	72	23363
2026-01-11 04:16:49.31	292.33	11.27	-53.4	-69.4	3.8	1.49e+00	0	26	104	0	72	23381
2026-01-11 04:16:52.30	291.99	11.05	-53.4	-69.4	3.8	1.49e+00	0	26	104	0	72	23369
2026-01-11 04:16:55.30	291.65	10.84	-53.4	-69.4	3.8	1.49e+00	0	26	104	0	72	23385
2026-01-11 04:16:58.30	291.32	10.62	-53.4	-69.4	3.8	1.49e+00	0	26	104	0	72	23357
2026-01-11 04:17:01.29	290.99	10.41	-53.4	-69.4	3.8	1.49e+00	0	26	104	0	72	23339
2026-01-11 04:17:04.29	290.67	10.20	-53.4	-69.4	3.8	1.49e+00	0	26	104	0	72	23364
2026-01-11 04:17:07.28	290.36	9.99	-53.4	-69.4	3.8	1.49e+00	0	26	104	0	72	23422
2026-01-11 04:17:10.27	290.05	9.78	-53.4	-69.4	3.8	1.49e+00	0	26	104	0	72	23353
2026-01-11 04:17:13.26	289.74	9.57	-53.4	-69.3	3.8	1.49e+00	0	26	104	0	72	23298
2026-01-11 04:17:16.27	289.44	9.36	-53.5	-69.4	3.8	1.49e+00	0	26	104	0	72	23437
2026-01-11 04:17:19.26	289.14	9.15	-53.5	-69.4	3.8	1.49e+00	0	26	104	0	72	23381
2026-01-11 04:17:22.27	288.84	8.94	-53.5	-69.4	3.8	1.49e+00	0	26	104	0	72	23422
2026-01-11 04:17:25.27	288.55	8.74	-53.4	-69.4	3.8	1.49e+00	0	26	104	0	72	23370
2026-01-11 04:17:28.28	288.27	8.53	-53.4	-69.4	3.8	1.49e+00	0	26	104	0	72	23347
2026-01-11 04:17:31.29	287.98	8.33	-53.4	-69.3	3.8	1.49e+00	0	26	104	0	72	23265
2026-01-11 04:17:34.30	287.70	8.13	-53.5	-69.4	3.8	1.49e+00	0	26	104	0	72	23357
2026-01-11 04:17:37.30	287.43	7.92	-53.5	-69.4	3.8	1.49e+00	0	26	104	0	72	23396
2026-01-11 04:17:40.30	287.16	7.72	-53.4	-69.4	3.8	1.49e+00	0	26	104	0	72	23322
2026-01-11 04:17:43.30	286.89	7.52	-53.5	-69.4	3.8	1.49e+00	0	26	104	0	72	23440
2026-01-11 04:17:46.30	286.63	7.32	-53.5	-69.4	3.8	1.49e+00	0	26	104	0	72	23362
2026-01-11 04:17:49.30	286.37	7.13	-53.4	-69.4	3.8	1.49e+00	0	26	104	0	72	23401
2026-01-11 04:17:52.30	286.12	6.93	-53.5	-69.4	3.8	1.49e+00	0	26	104	0	72	23335
2026-01-11 04:17:55.31	285.87	6.73	-53.5	-69.4	3.8	1.49e+00	0	26	104	0	72	23391
2026-01-11 04:17:58.31	285.62	6.54	-53.4	-69.4	3.8	1.49e+00	0	26	104	0	72	23342
2026-01-11 04:18:01.31	285.37	6.34	-53.5	-69.4	3.8	1.49e+00	0	26	104	0	72	23355
2026-01-11 04:18:04.31	285.13	6.15	-53.4	-69.4	3.8	1.49e+00	0	26	104	0	72	23421
2026-01-11 04:18:07.31	284.89	5.96	-53.5	-69.4	3.8	1.49e+00	0	26	104	0	72	23351
2026-01-11 04:18:10.29	284.66	5.77	-53.5	-69.4	3.8	1.49e+00	0	26	104	0	72	23389
2026-01-11 04:18:13.30	284.43	5.58	-53.4	-69.4	3.8	1.49e+00	0	26	104	0	72	23373
2026-01-11 04:18:16.28	284.20	5.39	-53.4	-69.4	3.8	1.49e+00	0	26	104	0	72	23322
2026-01-11 04:18:19.29	283.98	5.20	-53.4	-69.4	3.8	1.49e+00	0	26	104	0	72	23377
2026-01-11 04:18:22.30	283.75	5.01	-53.4	-69.4	3.8	1.49e+00	0	26	104	0	72	23372
2026-01-11 04:18:25.30	283.53	4.82	-53.4	-69.4	3.8	1.49e+00	0	26	104	0	72	23326
2026-01-11 04:18:28.30	283.32	4.64	-53.4	-69.4	3.8	1.49e+00	0	26	104	0	72	23412
2026-01-11 04:18:31.30	283.10	4.45	-53.4	-69.4	3.8	1.49e+00	0	26	104	0	72	23316
2026-01-11 04:18:34.30	282.89	4.27	-53.4	-69.4	3.8	1.49e+00	0	26	104	0	72	23329
2026-01-11 04:18:37.30	282.69	4.09	-53.4	-69.4	3.8	1.49e+00	0	26	104	0	72	23376
2026-01-11 04:18:40.31	282.48	3.90	-53.4	-69.4	3.8	1.49e+00	0	26	104	0	72	23347
2026-01-11 04:18:43.30	282.28	3.72	-53.4	-69.4	3.8	1.49e+00	0	26	104	0	72	23372
2026-01-11 04:18:46.30	282.08	3.54	-53.4	-69.3	3.8	1.49e+00	0	26	104	0	72	23304
2026-01-11 04:18:49.28	281.88	3.36	-53.4	-69.4	3.8	1.49e+00	0	26	104	0	72	23329
2026-01-11 04:18:52.29	281.69	3.18	-53.4	-69.3	3.8	1.49e+00	0	26	104	0	72	23309
2026-01-11 04:18:55.30	281.49	3.00	-53.4	-69.4	3.8	1.49e+00	0	26	104	0	72	23359
2026-01-11 04:18:58.29	281.30	2.83	-53.4	-69.3	3.8	1.49e+00	0	26	104	0	72	23303
2026-01-11 04:19:01.29	281.12	2.65	-53.4	-69.4	3.8	1.49e+00	0	26	104	0	72	23333
2026-01-11 04:19:04.28	280.93	2.48	-53.4	-69.3	3.8	1.49e+00	0	26	104	0	72	23255
2026-01-11 04:19:07.27	280.75	2.30	-53.4	-69.3	3.8	1.49e+00	0	26	104	0	72	23295
2026-01-11 04:19:10.26	280.57	2.13	-53.4	-69.3	3.8	1.49e+00	0	26	104	0	72	23229

#Closed at: 2026-01-11 04:19:13
#Recorded file [0 MB]: D:/lorett/data/31004_260111_070619.dat