passes_logs/2026/01/11/R3.2S_Murmansk/R3.2S_Murmansk__20260111_032624_FENGYUN_3D_rec.log

#Pass ID: 20260111_032624_FENGYUN 3D
#Satellite: FENGYUN 3D
#Configuration: FENGYUN 3D
#almurnet v.1.7.20251203
#Start time: 2026-01-11 03:26:25

#Version: 2.2.20231116
#Station: R3.2S_Murmansk
#Location: 33.079688 lon 68.888172 lat
#TLE: 1 43010U 17072A   26009.92921666 -.00000228  00000+0 -86059-4 0  9998
#TLE: 2 43010  98.9936 341.6668 0002176 116.7510 243.3888 14.19693142422537

#Time	Az	El	Level	Level2	SNR	BER	BlckErr	Temp	State	Recorded	gain1	gain2
2026-01-11 03:26:25.21	28.01	2.07	-53.3	-66.2	3.8	8.46e-01	0	23	0	0	71	17230
2026-01-11 03:26:29.22	27.96	2.32	-53.3	-66.3	3.8	8.45e-01	0	24	104	0	71	17323
2026-01-11 03:26:33.22	27.90	2.58	-53.3	-66.2	3.8	8.45e-01	0	24	104	0	71	17268
2026-01-11 03:26:37.23	27.85	2.84	-53.3	-66.3	3.8	8.46e-01	0	24	104	0	71	17303
2026-01-11 03:26:41.25	27.79	3.11	-53.3	-66.3	3.8	8.48e-01	0	24	104	0	71	17322
2026-01-11 03:26:45.25	27.73	3.37	-53.3	-66.3	3.8	8.44e-01	0	24	104	0	71	17334
2026-01-11 03:26:49.24	27.67	3.64	-53.3	-66.3	3.8	8.46e-01	0	24	104	0	71	17336
2026-01-11 03:26:53.23	27.61	3.91	-53.3	-66.3	3.8	8.44e-01	0	24	104	0	71	17423
2026-01-11 03:26:57.23	27.55	4.18	-53.3	-66.3	3.8	8.46e-01	0	25	104	0	71	17397
2026-01-11 03:27:01.23	27.49	4.46	-53.4	-66.3	3.8	8.46e-01	0	25	104	0	71	17346
2026-01-11 03:27:05.23	27.42	4.74	-53.4	-66.3	3.8	8.45e-01	0	25	104	0	71	17436
2026-01-11 03:27:09.24	27.36	5.02	-53.4	-66.3	3.8	8.45e-01	0	25	104	0	71	17429
2026-01-11 03:27:13.24	27.29	5.31	-53.4	-66.3	3.8	8.47e-01	0	25	104	0	71	17465
2026-01-11 03:27:17.26	27.22	5.59	-53.4	-66.3	3.8	8.45e-01	0	25	104	0	71	17464
2026-01-11 03:27:21.28	27.15	5.89	-53.4	-66.4	3.8	8.46e-01	0	25	104	0	71	17492
2026-01-11 03:27:25.29	27.07	6.18	-53.4	-66.3	3.8	8.46e-01	0	25	104	0	71	17375
2026-01-11 03:27:29.30	27.00	6.48	-53.4	-66.3	3.8	8.45e-01	0	25	104	0	71	17434
2026-01-11 03:27:33.31	26.92	6.78	-53.4	-66.3	3.8	8.45e-01	0	25	104	0	71	17429
2026-01-11 03:27:37.31	26.84	7.09	-53.4	-66.3	3.8	8.45e-01	0	26	104	0	71	17462
2026-01-11 03:27:41.31	26.76	7.39	-53.4	-66.4	3.8	8.46e-01	0	26	104	0	71	17517
2026-01-11 03:27:45.32	26.67	7.71	-53.4	-66.4	3.8	8.47e-01	0	26	104	0	71	17506
2026-01-11 03:27:49.32	26.59	8.02	-53.4	-66.4	3.8	8.46e-01	0	26	104	0	71	17502
2026-01-11 03:27:53.33	26.50	8.34	-53.4	-66.4	3.8	8.46e-01	0	26	104	0	71	17490
2026-01-11 03:27:57.32	26.41	8.66	-53.4	-66.4	3.8	8.47e-01	0	26	104	0	71	17518
2026-01-11 03:28:01.32	26.32	8.99	-53.4	-66.4	3.8	8.45e-01	0	26	104	0	72	16555
2026-01-11 03:28:05.32	26.22	9.32	-53.5	-66.4	3.8	8.46e-01	0	26	104	0	72	16515
2026-01-11 03:28:09.33	26.12	9.66	-53.5	-66.4	3.8	8.45e-01	0	26	104	0	72	16556
2026-01-11 03:28:13.34	26.02	10.00	-53.5	-66.4	3.8	8.45e-01	0	26	104	0	72	16578
2026-01-11 03:28:17.35	25.92	10.35	-53.5	-66.4	3.8	8.45e-01	0	26	104	0	72	16590
2026-01-11 03:28:21.36	25.81	10.70	-53.5	-66.4	3.8	8.45e-01	0	26	104	0	72	16583
2026-01-11 03:28:25.38	25.70	11.06	-53.5	-66.4	3.8	8.45e-01	0	26	104	0	72	16585
2026-01-11 03:28:29.38	25.59	11.42	-53.5	-66.4	3.8	8.46e-01	0	26	104	0	72	16619
2026-01-11 03:28:33.38	25.48	11.78	-53.5	-66.4	3.8	8.45e-01	0	26	104	0	72	16647
2026-01-11 03:28:37.37	25.36	12.15	-53.5	-66.4	3.8	8.46e-01	0	26	104	0	72	16634
2026-01-11 03:28:41.38	25.23	12.53	-53.5	-66.4	3.8	8.47e-01	0	26	104	0	72	16639
2026-01-11 03:28:45.38	25.11	12.91	-53.5	-66.4	3.8	8.45e-01	0	26	104	0	72	16645
2026-01-11 03:28:49.37	24.98	13.30	-53.5	-66.4	3.8	8.46e-01	0	26	104	0	72	16623
2026-01-11 03:28:53.37	24.85	13.69	-53.5	-66.4	3.8	8.47e-01	0	26	104	0	72	16601
2026-01-11 03:28:57.36	24.71	14.09	-53.5	-66.4	3.8	8.45e-01	0	26	104	0	72	16591
2026-01-11 03:29:01.35	24.57	14.50	-53.5	-66.4	3.8	8.46e-01	0	26	104	0	72	16663
2026-01-11 03:29:05.35	24.42	14.91	-53.5	-66.4	3.8	8.46e-01	0	26	104	0	72	16663
2026-01-11 03:29:09.34	24.27	15.33	-53.5	-66.4	3.8	8.46e-01	0	26	104	0	72	16657
2026-01-11 03:29:13.35	24.11	15.76	-53.5	-66.4	3.8	8.46e-01	0	26	104	0	72	16595
2026-01-11 03:29:17.36	23.95	16.20	-53.5	-66.4	3.8	8.45e-01	0	26	104	0	72	16664
2026-01-11 03:29:21.36	23.79	16.64	-53.5	-66.5	3.8	8.44e-01	0	26	104	0	72	16706
2026-01-11 03:29:25.36	23.61	17.09	-53.5	-66.4	3.8	8.45e-01	0	27	104	0	72	16643
2026-01-11 03:29:29.36	23.44	17.55	-53.5	-66.4	3.8	8.46e-01	0	26	104	0	72	16658
2026-01-11 03:29:33.37	23.25	18.02	-53.5	-66.4	3.8	8.46e-01	0	26	104	0	72	16646
2026-01-11 03:29:37.37	23.06	18.49	-53.5	-66.4	3.8	8.46e-01	0	26	104	0	72	16659
2026-01-11 03:29:41.37	22.87	18.98	-53.5	-66.4	3.8	8.47e-01	0	26	104	0	72	16685
2026-01-11 03:29:45.38	22.66	19.47	-53.5	-66.4	3.8	8.43e-01	0	26	104	0	72	16655
2026-01-11 03:29:49.38	22.45	19.98	-53.5	-66.4	3.8	8.46e-01	0	26	104	0	72	16595
2026-01-11 03:29:53.38	22.24	20.49	-53.5	-66.4	3.8	8.46e-01	0	27	104	0	72	16602
2026-01-11 03:29:57.38	22.01	21.02	-53.5	-66.4	3.8	8.47e-01	0	26	104	0	72	16672
2026-01-11 03:30:01.38	21.77	21.55	-53.5	-66.4	3.8	8.47e-01	0	27	104	0	72	16680
2026-01-11 03:30:05.38	21.53	22.10	-53.5	-66.4	3.8	8.45e-01	0	27	104	0	72	16683
2026-01-11 03:30:09.38	21.28	22.66	-53.5	-66.4	3.8	8.45e-01	0	26	104	0	72	16632
2026-01-11 03:30:13.38	21.02	23.22	-53.5	-66.4	3.8	8.45e-01	0	26	104	0	72	16636
2026-01-11 03:30:17.40	20.74	23.81	-53.5	-66.4	3.8	8.45e-01	0	27	104	0	72	16580
2026-01-11 03:30:21.40	20.46	24.40	-53.5	-66.4	3.8	8.46e-01	0	27	104	0	72	16595
2026-01-11 03:30:25.42	20.16	25.01	-53.5	-66.4	3.8	8.45e-01	0	26	104	0	72	16633
2026-01-11 03:30:29.44	19.85	25.64	-53.5	-66.4	3.8	8.45e-01	0	27	104	0	72	16681
2026-01-11 03:30:33.44	19.53	26.27	-53.5	-66.4	3.8	8.45e-01	0	27	104	0	72	16687
2026-01-11 03:30:37.45	19.19	26.92	-53.5	-66.4	3.8	8.46e-01	0	26	104	0	72	16628
2026-01-11 03:30:41.46	18.84	27.58	-53.5	-66.5	3.8	8.46e-01	0	27	104	0	72	16706
2026-01-11 03:30:45.47	18.47	28.26	-53.5	-66.5	3.8	8.45e-01	0	27	104	0	72	16750
2026-01-11 03:30:49.47	18.09	28.96	-53.5	-66.5	3.8	8.47e-01	0	27	104	0	72	16710
2026-01-11 03:30:53.47	17.69	29.67	-53.5	-66.5	3.8	8.46e-01	0	26	104	0	72	16760
2026-01-11 03:30:57.47	17.27	30.39	-53.5	-66.4	3.8	8.46e-01	0	27	104	0	72	16653
2026-01-11 03:31:01.46	16.83	31.13	-53.5	-66.4	3.8	8.46e-01	0	27	104	0	72	16683
2026-01-11 03:31:05.46	16.37	31.89	-53.5	-66.5	3.8	8.47e-01	0	27	104	0	72	16721
2026-01-11 03:31:09.46	15.89	32.67	-53.5	-66.4	3.8	8.45e-01	0	27	104	0	72	16644
2026-01-11 03:31:13.47	15.38	33.47	-53.5	-66.5	3.8	8.46e-01	0	27	104	0	72	16696
2026-01-11 03:31:17.47	14.85	34.28	-53.5	-66.4	3.8	8.46e-01	0	26	104	0	72	16684
2026-01-11 03:31:21.48	14.28	35.12	-53.5	-66.4	3.8	8.46e-01	0	27	104	0	72	16645
2026-01-11 03:31:25.49	13.68	35.97	-53.5	-66.4	3.8	8.46e-01	0	26	104	0	72	16666
2026-01-11 03:31:29.49	13.06	36.85	-53.5	-66.4	3.8	8.45e-01	0	26	104	0	72	16685
2026-01-11 03:31:33.49	12.39	37.74	-53.5	-66.4	3.8	8.45e-01	0	26	104	0	72	16683
2026-01-11 03:31:37.48	11.69	38.65	-53.5	-66.5	3.8	8.44e-01	0	27	104	0	72	16729
2026-01-11 03:31:41.49	10.95	39.58	-53.5	-66.5	3.8	8.46e-01	0	27	104	0	72	16713
2026-01-11 03:31:45.50	10.16	40.53	-53.5	-66.5	3.8	8.46e-01	0	27	104	0	72	16723
2026-01-11 03:31:49.51	9.32	41.50	-53.5	-66.5	3.8	8.45e-01	0	27	104	0	72	16708
2026-01-11 03:31:53.51	8.43	42.49	-53.5	-66.5	3.8	8.45e-01	0	26	104	0	72	16703
2026-01-11 03:31:57.51	7.48	43.50	-53.5	-66.5	3.8	8.45e-01	0	26	104	0	72	16709
2026-01-11 03:32:01.50	6.47	44.52	-53.5	-66.5	3.8	8.45e-01	0	27	104	0	72	16722
2026-01-11 03:32:05.51	5.38	45.56	-53.5	-66.5	3.8	8.45e-01	0	27	104	0	72	16741
2026-01-11 03:32:09.51	4.23	46.62	-53.5	-66.4	3.8	8.46e-01	0	27	104	0	72	16660
2026-01-11 03:32:13.51	2.99	47.69	-53.5	-66.5	3.8	8.45e-01	0	27	104	0	72	16723
2026-01-11 03:32:17.51	1.66	48.77	-53.5	-66.4	3.8	8.46e-01	0	26	104	0	72	16686
2026-01-11 03:32:21.52	0.23	49.86	-53.5	-66.4	3.8	8.44e-01	0	27	104	0	72	16694
2026-01-11 03:32:25.53	358.69	50.96	-53.5	-66.4	3.8	8.46e-01	0	27	104	0	72	16688
2026-01-11 03:32:29.54	357.04	52.05	-53.5	-66.5	3.8	8.45e-01	0	27	104	0	72	16701
2026-01-11 03:32:33.55	355.25	53.15	-53.5	-66.5	3.8	8.46e-01	0	26	104	0	72	16708
2026-01-11 03:32:37.55	353.33	54.24	-53.5	-66.5	3.8	8.47e-01	0	27	104	0	72	16753
2026-01-11 03:32:41.55	351.26	55.32	-53.5	-66.4	3.8	8.46e-01	0	27	104	0	72	16681
2026-01-11 03:32:45.55	349.03	56.37	-53.5	-66.4	3.8	8.45e-01	0	27	104	0	72	16675
2026-01-11 03:32:49.57	346.60	57.41	-53.5	-66.5	3.8	8.45e-01	0	27	104	0	72	16716
2026-01-11 03:32:53.57	344.00	58.40	-53.5	-66.4	3.8	8.46e-01	0	26	104	0	72	16694
2026-01-11 03:32:57.57	341.21	59.36	-53.5	-66.5	3.8	8.46e-01	0	27	104	0	72	16743
2026-01-11 03:33:01.56	338.21	60.25	-53.5	-66.5	3.8	8.45e-01	0	27	104	0	72	16759
2026-01-11 03:33:05.56	334.99	61.09	-53.5	-66.5	3.8	8.46e-01	0	27	104	0	72	16813
2026-01-11 03:33:09.58	331.55	61.85	-53.5	-66.5	3.8	8.46e-01	0	27	104	0	72	16714
2026-01-11 03:33:13.59	327.90	62.53	-53.5	-66.5	3.8	8.45e-01	0	27	104	0	72	16704
2026-01-11 03:33:17.60	324.06	63.10	-53.5	-66.5	3.8	8.46e-01	0	26	104	0	72	16745
2026-01-11 03:33:21.61	320.04	63.57	-53.5	-66.5	3.8	8.46e-01	0	27	104	0	72	16743
2026-01-11 03:33:25.63	315.87	63.92	-53.5	-66.4	3.8	8.47e-01	0	27	104	0	72	16693
2026-01-11 03:33:29.63	311.62	64.15	-53.5	-66.4	3.8	8.45e-01	0	27	104	0	72	16676
2026-01-11 03:33:33.65	307.29	64.24	-53.5	-66.5	3.8	8.45e-01	0	27	104	0	72	16743
2026-01-11 03:33:37.64	302.97	64.21	-53.5	-66.4	3.8	8.46e-01	0	27	104	0	72	16689
2026-01-11 03:33:41.66	298.66	64.04	-53.5	-66.4	3.8	8.46e-01	0	27	104	0	72	16667
2026-01-11 03:33:45.66	294.46	63.74	-53.5	-66.5	3.8	8.45e-01	0	26	104	0	72	16721
2026-01-11 03:33:49.68	290.37	63.32	-53.5	-66.5	3.8	8.47e-01	0	26	104	0	72	16716
2026-01-11 03:33:53.69	286.44	62.79	-53.5	-66.4	3.8	8.46e-01	0	27	104	0	72	16662
2026-01-11 03:33:57.69	282.72	62.16	-53.5	-66.4	3.8	8.44e-01	0	26	104	0	72	16663
2026-01-11 03:34:01.69	279.19	61.44	-53.5	-66.5	3.8	8.45e-01	0	26	104	0	72	16713
2026-01-11 03:34:05.69	275.87	60.63	-53.5	-66.4	3.8	8.45e-01	0	26	104	0	72	16679
2026-01-11 03:34:09.68	272.78	59.76	-53.5	-66.5	3.8	8.46e-01	0	26	104	0	72	16720
2026-01-11 03:34:13.68	269.89	58.83	-53.5	-66.5	3.8	8.46e-01	0	26	104	0	72	16712
2026-01-11 03:34:17.67	267.20	57.85	-53.5	-66.5	3.8	8.45e-01	0	26	104	0	72	16722
2026-01-11 03:34:21.68	264.70	56.83	-53.5	-66.4	3.8	8.46e-01	0	27	104	0	72	16670
2026-01-11 03:34:25.69	262.38	55.78	-53.5	-66.5	3.8	8.45e-01	0	27	104	0	72	16721
2026-01-11 03:34:29.69	260.23	54.71	-53.5	-66.4	3.8	8.46e-01	0	26	104	0	72	16681
2026-01-11 03:34:33.69	258.24	53.63	-53.5	-66.5	3.8	8.45e-01	0	26	104	0	72	16704
2026-01-11 03:34:37.70	256.39	52.53	-53.5	-66.4	3.8	8.46e-01	0	26	104	0	72	16663
2026-01-11 03:34:41.70	254.68	51.43	-53.5	-66.4	3.8	8.45e-01	0	26	104	0	72	16673
2026-01-11 03:34:45.71	253.09	50.33	-53.5	-66.5	3.8	8.46e-01	0	26	104	0	72	16704
2026-01-11 03:34:49.71	251.62	49.23	-53.5	-66.4	3.8	8.45e-01	0	26	104	0	72	16646
2026-01-11 03:34:53.72	250.24	48.15	-53.5	-66.5	3.8	8.46e-01	0	27	104	0	72	16702
2026-01-11 03:34:57.72	248.96	47.07	-53.5	-66.4	3.8	8.45e-01	0	26	104	0	72	16684
2026-01-11 03:35:01.72	247.76	46.00	-53.5	-66.4	3.8	8.45e-01	0	26	104	0	72	16670
2026-01-11 03:35:05.73	246.64	44.95	-53.5	-66.4	3.8	8.46e-01	0	26	104	0	72	16657
2026-01-11 03:35:09.73	245.60	43.92	-53.5	-66.4	3.8	8.45e-01	0	26	104	0	72	16685
2026-01-11 03:35:13.72	244.62	42.90	-53.5	-66.4	3.8	8.45e-01	0	27	104	0	72	16680
2026-01-11 03:35:17.43	243.77	41.97	-53.5	-66.4	3.8	8.46e-01	0	26	104	0	72	16651
2026-01-11 03:35:21.44	242.90	40.99	-53.5	-66.4	3.8	8.46e-01	0	27	104	0	72	16642
2026-01-11 03:35:25.47	242.08	40.02	-53.5	-66.4	3.8	8.46e-01	0	26	104	0	72	16666
2026-01-11 03:35:29.49	241.31	39.07	-53.5	-66.4	3.8	8.46e-01	0	26	104	0	72	16653
2026-01-11 03:35:33.50	240.58	38.15	-53.5	-66.4	3.8	8.45e-01	0	26	104	0	72	16668
2026-01-11 03:35:37.52	239.89	37.24	-53.5	-66.4	3.8	8.46e-01	0	27	104	0	72	16655
2026-01-11 03:35:41.52	239.25	36.35	-53.5	-66.5	3.8	8.46e-01	0	26	104	0	72	16744
2026-01-11 03:35:45.55	238.63	35.48	-53.5	-66.5	3.8	8.46e-01	0	26	104	0	72	16705
2026-01-11 03:35:49.57	238.05	34.63	-53.5	-66.4	3.8	8.46e-01	0	27	104	0	72	16641
2026-01-11 03:35:53.59	237.49	33.80	-53.5	-66.4	3.8	8.45e-01	0	26	104	0	72	16655
2026-01-11 03:35:57.60	236.97	32.99	-53.5	-66.4	3.8	8.45e-01	0	27	104	0	72	16658
2026-01-11 03:36:01.60	236.47	32.20	-53.5	-66.4	3.8	8.46e-01	0	26	104	0	72	16677
2026-01-11 03:36:05.61	236.00	31.43	-53.5	-66.4	3.8	8.45e-01	0	26	104	0	72	16640
2026-01-11 03:36:09.62	235.55	30.68	-53.5	-66.4	3.8	8.45e-01	0	26	104	0	72	16686
2026-01-11 03:36:13.65	235.11	29.93	-53.5	-66.4	3.8	8.45e-01	0	26	104	0	72	16652
2026-01-11 03:36:17.66	234.70	29.21	-53.5	-66.4	3.8	8.45e-01	0	27	104	0	72	16656
2026-01-11 03:36:21.70	234.31	28.50	-53.5	-66.4	3.8	8.47e-01	0	26	104	0	72	16674
2026-01-11 03:36:25.72	233.93	27.81	-53.5	-66.4	3.8	8.45e-01	0	27	104	0	72	16686
2026-01-11 03:36:29.75	233.57	27.14	-53.5	-66.4	3.8	8.46e-01	0	26	104	0	72	16669
2026-01-11 03:36:33.76	233.22	26.48	-53.5	-66.4	3.8	8.45e-01	0	26	104	0	72	16682
2026-01-11 03:36:37.77	232.89	25.84	-53.5	-66.4	3.8	8.46e-01	0	26	104	0	72	16643
2026-01-11 03:36:41.77	232.58	25.21	-53.5	-66.4	3.8	8.45e-01	0	26	104	0	72	16631
2026-01-11 03:36:45.79	232.27	24.59	-53.5	-66.4	3.8	8.46e-01	0	26	104	0	72	16670
2026-01-11 03:36:49.81	231.98	23.99	-53.5	-66.4	3.8	8.45e-01	0	26	104	0	72	16664
2026-01-11 03:36:53.84	231.70	23.39	-53.5	-66.4	3.8	8.47e-01	0	26	104	0	72	16671
2026-01-11 03:36:57.86	231.43	22.82	-53.5	-66.4	3.8	8.45e-01	0	26	104	0	72	16662
2026-01-11 03:37:01.89	231.17	22.25	-53.5	-66.4	3.8	8.46e-01	0	26	104	0	72	16641
2026-01-11 03:37:05.91	230.92	21.69	-53.5	-66.4	3.8	8.45e-01	0	26	104	0	72	16659
2026-01-11 03:37:09.92	230.68	21.15	-53.5	-66.5	3.8	8.44e-01	0	27	104	0	72	16712
2026-01-11 03:37:13.95	230.44	20.62	-53.5	-66.5	3.8	8.46e-01	0	26	104	0	72	16725
2026-01-11 03:37:17.99	230.22	20.09	-53.5	-66.4	3.8	8.45e-01	0	26	104	0	72	16675
2026-01-11 03:37:21.99	230.00	19.58	-53.5	-66.5	3.8	8.45e-01	0	26	104	0	72	16696
2026-01-11 03:37:26.01	229.80	19.08	-53.5	-66.4	3.8	8.45e-01	0	27	104	0	72	16665
2026-01-11 03:37:30.02	229.59	18.59	-53.5	-66.4	3.8	8.47e-01	0	26	104	0	72	16684
2026-01-11 03:37:34.05	229.40	18.10	-53.5	-66.4	3.8	8.45e-01	0	26	104	0	72	16682
2026-01-11 03:37:38.06	229.21	17.63	-53.5	-66.4	3.8	8.44e-01	0	26	104	0	72	16687
2026-01-11 03:37:42.09	229.03	17.16	-53.5	-66.4	3.8	8.46e-01	0	26	104	0	72	16660
2026-01-11 03:37:46.09	228.85	16.71	-53.5	-66.4	3.8	8.46e-01	0	26	104	0	72	16654
2026-01-11 03:37:50.09	228.68	16.26	-53.5	-66.4	3.8	8.45e-01	0	27	104	0	72	16687
2026-01-11 03:37:54.10	228.52	15.82	-53.5	-66.4	3.8	8.45e-01	0	27	104	0	72	16640
2026-01-11 03:37:58.13	228.36	15.39	-53.5	-66.5	3.8	8.46e-01	0	27	104	0	72	16712
2026-01-11 03:38:02.12	228.20	14.96	-53.5	-66.5	3.8	8.46e-01	0	27	104	0	72	16698
2026-01-11 03:38:06.14	228.05	14.55	-53.5	-66.5	3.8	8.46e-01	0	26	104	0	72	16730
2026-01-11 03:38:10.17	227.90	14.13	-53.5	-66.4	3.8	8.45e-01	0	27	104	0	72	16634
2026-01-11 03:38:14.20	227.76	13.73	-53.5	-66.4	3.8	8.46e-01	0	27	104	0	72	16682
2026-01-11 03:38:18.22	227.62	13.33	-53.5	-66.4	3.8	8.46e-01	0	27	104	0	72	16643
2026-01-11 03:38:22.23	227.49	12.93	-53.5	-66.4	3.8	8.46e-01	0	27	104	0	72	16692
2026-01-11 03:38:26.25	227.36	12.55	-53.5	-66.4	3.8	8.44e-01	0	26	104	0	72	16666
2026-01-11 03:38:30.26	227.23	12.17	-53.5	-66.5	3.8	8.46e-01	0	26	104	0	72	16702
2026-01-11 03:38:34.28	227.11	11.79	-53.5	-66.5	3.8	8.45e-01	0	27	104	0	72	16730
2026-01-11 03:38:38.29	226.99	11.42	-53.5	-66.5	3.8	8.45e-01	0	27	104	0	72	16766
2026-01-11 03:38:42.30	226.88	11.06	-53.5	-66.5	3.8	8.45e-01	0	27	104	0	72	16759
2026-01-11 03:38:46.30	226.76	10.70	-53.5	-66.5	3.8	8.46e-01	0	27	104	0	72	16738
2026-01-11 03:38:50.32	226.65	10.35	-53.5	-66.4	3.8	8.45e-01	0	27	104	0	72	16688
2026-01-11 03:38:54.33	226.55	10.00	-53.5	-66.5	3.8	8.46e-01	0	27	104	0	72	16724
2026-01-11 03:38:58.33	226.44	9.66	-53.5	-66.5	3.8	8.45e-01	0	27	104	0	72	16760
2026-01-11 03:39:02.35	226.34	9.32	-53.6	-66.5	3.8	8.46e-01	0	27	104	0	72	16825
2026-01-11 03:39:06.35	226.24	8.98	-53.6	-66.5	3.8	8.46e-01	0	27	104	0	72	16739
2026-01-11 03:39:10.39	226.15	8.65	-53.6	-66.5	3.8	8.45e-01	0	27	104	0	72	16769
2026-01-11 03:39:14.40	226.05	8.33	-53.5	-66.5	3.8	8.46e-01	0	27	104	0	72	16770
2026-01-11 03:39:18.40	225.96	8.00	-53.5	-66.5	3.8	8.45e-01	0	27	104	0	72	16747
2026-01-11 03:39:22.42	225.87	7.69	-53.6	-66.5	3.8	8.45e-01	0	27	104	0	72	16744
2026-01-11 03:39:26.43	225.79	7.37	-53.6	-66.5	3.8	8.46e-01	0	27	104	0	72	16791
2026-01-11 03:39:30.46	225.70	7.06	-53.6	-66.5	3.8	8.46e-01	0	27	104	0	72	16737
2026-01-11 03:39:34.49	225.62	6.75	-53.6	-66.5	3.8	8.45e-01	0	27	104	0	72	16788
2026-01-11 03:39:38.50	225.54	6.45	-53.5	-66.5	3.8	8.46e-01	0	27	104	0	72	16748
2026-01-11 03:39:42.51	225.46	6.15	-53.6	-66.5	3.8	8.46e-01	0	27	104	0	72	16768
2026-01-11 03:39:46.52	225.38	5.85	-53.6	-66.5	3.8	8.45e-01	0	27	104	0	72	16764
2026-01-11 03:39:50.53	225.31	5.56	-53.6	-66.5	3.8	8.44e-01	0	27	104	0	72	16732
2026-01-11 03:39:54.54	225.23	5.27	-53.5	-66.5	3.8	8.46e-01	0	27	104	0	72	16790
2026-01-11 03:39:58.56	225.16	4.98	-53.6	-66.5	3.8	8.46e-01	0	27	104	0	72	16741
2026-01-11 03:40:02.57	225.09	4.70	-53.5	-66.5	3.8	8.45e-01	0	27	104	0	72	16776
2026-01-11 03:40:06.58	225.02	4.42	-53.6	-66.5	3.8	8.45e-01	0	27	104	0	72	16747
2026-01-11 03:40:10.58	224.96	4.14	-53.6	-66.5	3.8	8.46e-01	0	27	104	0	72	16798
2026-01-11 03:40:14.62	224.89	3.86	-53.6	-66.5	3.8	8.46e-01	0	27	104	0	72	16766
2026-01-11 03:40:18.63	224.83	3.59	-53.6	-66.5	3.8	8.46e-01	0	27	104	0	72	16799
2026-01-11 03:40:22.65	224.76	3.32	-53.6	-66.5	3.8	8.45e-01	0	27	104	0	72	16814
2026-01-11 03:40:26.66	224.70	3.05	-53.5	-66.5	3.8	8.45e-01	0	27	104	0	72	16742
2026-01-11 03:40:30.66	224.64	2.79	-53.5	-66.5	3.8	8.45e-01	0	27	104	0	72	16736
2026-01-11 03:40:34.67	224.58	2.53	-53.6	-66.5	3.8	8.47e-01	0	27	104	0	72	16795
2026-01-11 03:40:38.67	224.53	2.27	-53.6	-66.5	3.8	8.46e-01	0	27	104	0	72	16743
2026-01-11 03:40:42.70	224.47	2.01	-53.6	-66.5	3.8	8.46e-01	0	27	104	0	72	16772

#Closed at: 2026-01-11 03:40:42
#Recorded file [0 MB]: D:/lorett/data/31004_260111_062625.dat