passes_logs/2026/01/11/R3.2S_Murmansk/R3.2S_Murmansk__20260111_224657_SUOMI_NPP_rec.log

#Pass ID: 20260111_224657_SUOMI NPP
#Satellite: SUOMI NPP
#Configuration: NPP
#almurnet v.1.7.20251203
#Start time: 2026-01-11 22:46:57

#Version: 2.2.20231116
#Station: R3.2S_Murmansk
#Location: 33.079688 lon 68.888172 lat
#TLE: 1 37849U 11061A   26011.57971124  .00000103  00000+0  69927-4 0  9996
#TLE: 2 37849  98.7807 313.6578 0002518  69.5076 290.6370 14.19524515736228

#Time	Az	El	Level	Level2	SNR	BER	BlckErr	Temp	State	Recorded	gain1	gain2
2026-01-11 22:46:57.90	19.40	2.04	-58.7	-74.8	3.8	1.49e+00	0	21	0	0	82	24457
2026-01-11 22:47:00.93	19.58	2.22	-58.7	-74.8	3.8	1.49e+00	0	21	104	0	82	24511
2026-01-11 22:47:03.95	19.77	2.39	-58.7	-74.8	3.8	1.49e+00	0	21	104	0	82	24413
2026-01-11 22:47:06.98	19.95	2.57	-58.7	-74.8	3.8	1.49e+00	0	21	104	0	82	24482
2026-01-11 22:47:10.00	20.14	2.75	-58.7	-74.8	3.8	1.49e+00	0	21	104	0	82	24450
2026-01-11 22:47:13.03	20.33	2.92	-58.7	-74.8	3.8	1.49e+00	0	21	104	0	82	24414
2026-01-11 22:47:16.06	20.52	3.10	-58.7	-74.7	3.8	1.49e+00	0	21	104	0	82	24400
2026-01-11 22:47:19.09	20.72	3.28	-58.7	-74.8	3.8	1.49e+00	0	21	104	0	82	24455
2026-01-11 22:47:22.12	20.91	3.46	-58.7	-74.8	3.8	1.49e+00	0	21	104	0	82	24549
2026-01-11 22:47:25.14	21.11	3.65	-58.7	-74.8	3.8	1.49e+00	0	21	104	0	82	24476
2026-01-11 22:47:28.17	21.31	3.83	-58.7	-74.8	3.8	1.49e+00	0	21	104	0	82	24542
2026-01-11 22:47:31.20	21.51	4.01	-58.7	-74.8	3.8	1.49e+00	0	22	104	0	82	24449
2026-01-11 22:47:34.23	21.72	4.20	-58.7	-74.8	3.8	1.49e+00	0	22	104	0	82	24442
2026-01-11 22:47:37.25	21.93	4.38	-58.7	-74.8	3.8	1.49e+00	0	22	104	0	82	24427
2026-01-11 22:47:40.28	22.14	4.57	-58.7	-74.8	3.8	1.49e+00	0	22	104	0	82	24490
2026-01-11 22:47:43.30	22.35	4.76	-58.7	-74.8	3.8	1.49e+00	0	22	104	0	82	24478
2026-01-11 22:47:46.33	22.57	4.94	-58.7	-74.8	3.8	1.49e+00	0	22	104	0	82	24491
2026-01-11 22:47:49.36	22.78	5.13	-58.7	-74.8	3.8	1.49e+00	0	22	104	0	82	24416
2026-01-11 22:47:52.38	23.00	5.32	-58.7	-74.8	3.8	1.49e+00	0	22	104	0	82	24455
2026-01-11 22:47:55.41	23.23	5.52	-58.7	-74.8	3.8	1.49e+00	0	22	104	0	82	24468
2026-01-11 22:47:58.43	23.45	5.71	-58.7	-74.8	3.8	1.49e+00	0	22	104	0	82	24491
2026-01-11 22:48:01.46	23.68	5.90	-58.7	-74.7	3.8	1.49e+00	0	22	104	0	82	24406
2026-01-11 22:48:04.48	23.91	6.10	-58.7	-74.8	3.8	1.49e+00	0	22	104	0	82	24414
2026-01-11 22:48:07.51	24.15	6.29	-58.7	-74.8	3.8	1.49e+00	0	22	104	0	82	24436
2026-01-11 22:48:10.54	24.39	6.49	-58.7	-74.8	3.8	1.49e+00	0	22	104	0	82	24478
2026-01-11 22:48:13.57	24.63	6.69	-58.7	-74.8	3.8	1.49e+00	0	22	104	0	82	24426
2026-01-11 22:48:16.60	24.87	6.89	-58.7	-74.7	3.8	1.49e+00	0	22	104	0	82	24396
2026-01-11 22:48:19.62	25.12	7.09	-58.7	-74.8	3.8	1.49e+00	0	22	104	0	82	24468
2026-01-11 22:48:22.65	25.37	7.29	-58.7	-74.8	3.8	1.49e+00	0	22	104	0	82	24479
2026-01-11 22:48:25.68	25.62	7.49	-58.7	-74.8	3.8	1.49e+00	0	22	104	0	82	24425
2026-01-11 22:48:28.71	25.88	7.70	-58.7	-74.7	3.8	1.49e+00	0	22	104	0	82	24380
2026-01-11 22:48:31.74	26.14	7.90	-58.7	-74.8	3.8	1.49e+00	0	22	104	0	82	24416
2026-01-11 22:48:34.76	26.40	8.11	-58.7	-74.7	3.8	1.49e+00	0	22	104	0	82	24380
2026-01-11 22:48:37.79	26.67	8.32	-58.7	-74.8	3.8	1.49e+00	0	22	104	0	82	24433
2026-01-11 22:48:40.81	26.94	8.52	-58.7	-74.8	3.8	1.49e+00	0	22	104	0	82	24490
2026-01-11 22:48:43.85	27.22	8.74	-58.7	-74.8	3.8	1.49e+00	0	22	104	0	82	24480
2026-01-11 22:48:46.87	27.49	8.95	-58.7	-74.8	3.8	1.49e+00	0	22	104	0	82	24476
2026-01-11 22:48:49.90	27.78	9.16	-58.7	-74.8	3.8	1.49e+00	0	22	104	0	82	24491
2026-01-11 22:48:52.93	28.06	9.37	-58.7	-74.8	3.8	1.49e+00	0	23	104	0	82	24422
2026-01-11 22:48:55.95	28.35	9.59	-58.7	-74.8	3.8	1.49e+00	0	22	104	0	82	24419
2026-01-11 22:48:58.98	28.65	9.80	-58.7	-74.7	3.8	1.49e+00	0	23	104	0	82	24409
2026-01-11 22:49:02.02	28.95	10.02	-58.7	-74.8	3.8	1.49e+00	0	23	104	0	82	24426
2026-01-11 22:49:05.04	29.25	10.24	-58.7	-74.8	3.8	1.49e+00	0	23	104	0	82	24520
2026-01-11 22:49:08.07	29.56	10.46	-58.7	-74.8	3.8	1.49e+00	0	23	104	0	82	24428
2026-01-11 22:49:11.09	29.87	10.68	-58.7	-74.7	3.8	1.49e+00	0	22	104	0	82	24406
2026-01-11 22:49:14.12	30.18	10.90	-58.7	-74.8	3.8	1.49e+00	0	23	104	0	82	24449
2026-01-11 22:49:17.15	30.50	11.13	-58.7	-74.7	3.8	1.49e+00	0	23	104	0	82	24396
2026-01-11 22:49:20.18	30.83	11.35	-58.7	-74.7	3.8	1.49e+00	0	23	104	0	82	24384
2026-01-11 22:49:23.21	31.16	11.58	-58.7	-74.7	3.8	1.49e+00	0	23	104	0	82	24389
2026-01-11 22:49:26.23	31.49	11.81	-58.7	-74.8	3.8	1.49e+00	0	23	104	0	82	24421
2026-01-11 22:49:29.26	31.84	12.04	-58.7	-74.8	3.8	1.49e+00	0	23	104	0	82	24446
2026-01-11 22:49:32.29	32.18	12.27	-58.7	-74.8	3.8	1.49e+00	0	23	104	0	82	24443
2026-01-11 22:49:35.31	32.53	12.50	-58.7	-74.7	3.8	1.49e+00	0	23	104	0	82	24380
2026-01-11 22:49:38.34	32.89	12.73	-58.7	-74.8	3.8	1.49e+00	0	23	104	0	82	24434
2026-01-11 22:49:41.36	33.25	12.96	-58.7	-74.7	3.8	1.49e+00	0	23	104	0	82	24367
2026-01-11 22:49:44.39	33.61	13.20	-58.7	-74.7	3.8	1.49e+00	0	23	104	0	82	24347
2026-01-11 22:49:47.42	33.99	13.44	-58.7	-74.7	3.8	1.49e+00	0	23	104	0	82	24368
2026-01-11 22:49:50.45	34.37	13.67	-58.7	-74.8	3.8	1.49e+00	0	23	104	0	82	24422
2026-01-11 22:49:53.47	34.75	13.91	-58.7	-74.7	3.8	1.49e+00	0	23	104	0	82	24374
2026-01-11 22:49:56.49	35.14	14.15	-58.7	-74.7	3.8	1.49e+00	0	23	104	0	82	24374
2026-01-11 22:49:59.52	35.53	14.39	-58.7	-74.8	3.8	1.49e+00	0	23	104	0	82	24449
2026-01-11 22:50:02.55	35.94	14.64	-58.7	-74.8	3.8	1.49e+00	0	23	104	0	82	24445
2026-01-11 22:50:05.57	36.35	14.88	-58.7	-74.8	3.8	1.49e+00	0	23	104	0	82	24459
2026-01-11 22:50:08.60	36.76	15.13	-58.7	-74.7	3.8	1.49e+00	0	23	104	0	82	24401
2026-01-11 22:50:11.62	37.18	15.37	-58.7	-74.8	3.8	1.49e+00	0	23	104	0	82	24465
2026-01-11 22:50:14.65	37.61	15.62	-58.7	-74.8	3.8	1.49e+00	0	23	104	0	82	24413
2026-01-11 22:50:17.68	38.05	15.87	-58.7	-74.7	3.8	1.49e+00	0	23	104	0	82	24386
2026-01-11 22:50:20.70	38.49	16.11	-58.7	-74.8	3.8	1.49e+00	0	23	104	0	82	24465
2026-01-11 22:50:23.73	38.94	16.36	-58.7	-74.7	3.8	1.49e+00	0	23	104	0	82	24380
2026-01-11 22:50:26.76	39.40	16.62	-58.7	-74.8	3.8	1.49e+00	0	23	104	0	82	24411
2026-01-11 22:50:29.79	39.86	16.87	-58.7	-74.8	3.8	1.49e+00	0	23	104	0	82	24440
2026-01-11 22:50:32.81	40.33	17.12	-58.7	-74.7	3.8	1.49e+00	0	23	104	0	82	24393
2026-01-11 22:50:35.84	40.81	17.37	-58.7	-74.8	3.8	1.49e+00	0	23	104	0	82	24456
2026-01-11 22:50:38.87	41.30	17.63	-58.7	-74.8	3.8	1.49e+00	0	23	104	0	82	24433
2026-01-11 22:50:41.89	41.80	17.88	-58.7	-74.8	3.8	1.49e+00	0	23	104	0	82	24421
2026-01-11 22:50:44.92	42.30	18.14	-58.7	-74.7	3.8	1.49e+00	0	23	104	0	82	24380
2026-01-11 22:50:47.95	42.81	18.39	-58.7	-74.7	3.8	1.49e+00	0	23	104	0	82	24333
2026-01-11 22:50:50.98	43.34	18.65	-58.7	-74.7	3.8	1.49e+00	0	23	104	0	82	24332
2026-01-11 22:50:54.01	43.87	18.91	-58.7	-74.7	3.8	1.49e+00	0	23	104	0	82	24331
2026-01-11 22:50:57.04	44.40	19.16	-58.7	-74.7	3.8	1.49e+00	0	23	104	0	82	24379
2026-01-11 22:51:00.07	44.95	19.42	-58.7	-74.7	3.8	1.49e+00	0	23	104	0	82	24323
2026-01-11 22:51:03.10	45.51	19.68	-58.7	-74.7	3.8	1.49e+00	0	23	104	0	82	24313
2026-01-11 22:51:06.13	46.07	19.94	-58.7	-74.7	3.8	1.49e+00	0	23	104	0	82	24316
2026-01-11 22:51:09.15	46.65	20.19	-58.7	-74.7	3.8	1.49e+00	0	23	104	0	82	24342
2026-01-11 22:51:12.17	47.23	20.45	-58.7	-74.7	3.8	1.49e+00	0	23	104	0	82	24365
2026-01-11 22:51:15.19	47.82	20.71	-58.7	-74.7	3.8	1.49e+00	0	23	104	0	82	24340
2026-01-11 22:51:18.22	48.43	20.96	-58.7	-74.7	3.8	1.49e+00	0	23	104	0	82	24341
2026-01-11 22:51:21.24	49.04	21.22	-58.7	-74.7	3.8	1.49e+00	0	23	104	0	82	24389
2026-01-11 22:51:24.28	49.66	21.47	-58.7	-74.7	3.8	1.49e+00	0	23	104	0	82	24337
2026-01-11 22:51:27.30	50.30	21.73	-58.7	-74.7	3.8	1.49e+00	0	23	104	0	82	24269
2026-01-11 22:51:30.33	50.94	21.98	-58.7	-74.7	3.8	1.49e+00	0	23	104	0	82	24391
2026-01-11 22:51:33.36	51.60	22.23	-58.7	-74.7	3.8	1.49e+00	0	23	104	0	82	24281
2026-01-11 22:51:36.38	52.26	22.48	-58.7	-74.7	3.8	1.49e+00	0	23	104	0	82	24306
2026-01-11 22:51:39.41	52.93	22.73	-58.7	-74.7	3.8	1.49e+00	0	23	104	0	82	24376
2026-01-11 22:51:42.43	53.62	22.98	-58.7	-74.7	3.8	1.49e+00	0	23	104	0	82	24386
2026-01-11 22:51:45.46	54.31	23.23	-58.7	-74.7	3.8	1.49e+00	0	23	104	0	82	24335
2026-01-11 22:51:48.48	55.02	23.47	-58.7	-74.7	3.8	1.49e+00	0	23	104	0	82	24307
2026-01-11 22:51:51.50	55.73	23.71	-58.7	-74.7	3.8	1.49e+00	0	23	104	0	82	24284
2026-01-11 22:51:54.53	56.46	23.95	-58.7	-74.7	3.8	1.49e+00	0	23	104	0	82	24187
2026-01-11 22:51:57.55	57.20	24.19	-58.7	-74.7	3.8	1.49e+00	0	23	104	0	82	24284
2026-01-11 22:52:00.57	57.95	24.42	-58.7	-74.7	3.8	1.49e+00	0	23	104	0	82	24257
2026-01-11 22:52:03.60	58.71	24.65	-58.7	-74.7	3.8	1.49e+00	0	23	104	0	82	24302
2026-01-11 22:52:06.62	59.48	24.88	-58.7	-74.7	3.8	1.49e+00	0	23	104	0	82	24254
2026-01-11 22:52:09.65	60.27	25.10	-58.7	-74.7	3.8	1.49e+00	0	23	104	0	82	24294
2026-01-11 22:52:12.68	61.06	25.32	-58.7	-74.7	3.8	1.49e+00	0	23	104	0	82	24258
2026-01-11 22:52:15.71	61.87	25.54	-58.7	-74.7	3.8	1.49e+00	0	23	104	0	82	24339
2026-01-11 22:52:18.73	62.68	25.75	-58.7	-74.7	3.8	1.49e+00	0	23	104	0	82	24256
2026-01-11 22:52:21.76	63.51	25.96	-58.7	-74.7	3.8	1.49e+00	0	23	104	0	82	24321
2026-01-11 22:52:24.78	64.34	26.16	-58.7	-74.7	3.8	1.49e+00	0	23	104	0	82	24258
2026-01-11 22:52:27.81	65.19	26.36	-58.7	-74.7	3.8	1.49e+00	0	23	104	0	82	24327
2026-01-11 22:52:30.84	66.05	26.55	-58.7	-74.7	3.8	1.49e+00	0	23	104	0	82	24360
2026-01-11 22:52:33.88	66.92	26.74	-58.7	-74.7	3.8	1.49e+00	0	23	104	0	82	24300
2026-01-11 22:52:36.90	67.80	26.92	-58.7	-74.7	3.8	1.49e+00	0	23	104	0	82	24325
2026-01-11 22:52:39.93	68.69	27.10	-58.7	-74.7	3.8	1.49e+00	0	23	104	0	82	24315
2026-01-11 22:52:42.95	69.58	27.27	-58.7	-74.7	3.8	1.49e+00	0	23	104	0	82	24257
2026-01-11 22:52:45.99	70.49	27.43	-58.7	-74.7	3.8	1.49e+00	0	23	104	0	82	24358
2026-01-11 22:52:49.01	71.40	27.59	-58.7	-74.7	3.8	1.49e+00	0	23	104	0	82	24249
2026-01-11 22:52:52.04	72.33	27.74	-58.7	-74.7	3.8	1.49e+00	0	23	104	0	82	24323
2026-01-11 22:52:55.06	73.26	27.88	-58.7	-74.7	3.8	1.49e+00	0	23	104	0	82	24281
2026-01-11 22:52:58.09	74.20	28.01	-58.7	-74.7	3.8	1.49e+00	0	23	104	0	82	24234
2026-01-11 22:53:01.11	75.15	28.14	-58.7	-74.7	3.8	1.49e+00	0	23	104	0	82	24292
2026-01-11 22:53:04.14	76.10	28.26	-58.6	-74.7	3.8	1.49e+00	0	23	104	0	82	24217
2026-01-11 22:53:07.17	77.07	28.37	-58.6	-74.7	3.8	1.49e+00	0	23	104	0	82	24237
2026-01-11 22:53:10.20	78.04	28.48	-58.6	-74.7	3.8	1.49e+00	0	23	104	0	82	24279
2026-01-11 22:53:13.22	79.01	28.57	-58.7	-74.7	3.8	1.49e+00	0	23	104	0	82	24230
2026-01-11 22:53:16.25	79.99	28.66	-58.7	-74.7	3.8	1.49e+00	0	23	104	0	82	24245
2026-01-11 22:53:19.28	80.98	28.74	-58.7	-74.7	3.8	1.49e+00	0	23	104	0	82	24233
2026-01-11 22:53:22.30	81.96	28.81	-58.6	-74.7	3.8	1.49e+00	0	23	104	0	82	24226
2026-01-11 22:53:25.33	82.96	28.87	-58.6	-74.7	3.8	1.49e+00	0	23	104	0	82	24215
2026-01-11 22:53:28.35	83.95	28.92	-58.6	-74.7	3.8	1.49e+00	0	23	104	0	82	24201
2026-01-11 22:53:31.38	84.95	28.96	-58.6	-74.7	3.8	1.49e+00	0	23	104	0	82	24241
2026-01-11 22:53:34.41	85.96	28.99	-58.7	-74.7	3.8	1.49e+00	0	23	104	0	82	24209
2026-01-11 22:53:37.44	86.96	29.01	-58.6	-74.7	3.8	1.49e+00	0	23	104	0	82	24210
2026-01-11 22:53:40.46	87.97	29.03	-58.6	-74.7	3.8	1.49e+00	0	23	104	0	82	24265
2026-01-11 22:53:43.48	88.97	29.03	-58.6	-74.7	3.8	1.49e+00	0	23	104	0	82	24195
2026-01-11 22:53:46.51	89.98	29.03	-58.6	-74.7	3.8	1.49e+00	0	23	104	0	82	24180
2026-01-11 22:53:49.54	90.98	29.01	-58.6	-74.7	3.8	1.49e+00	0	23	104	0	82	24210
2026-01-11 22:53:52.56	91.98	28.99	-58.7	-74.7	3.8	1.49e+00	0	23	104	0	82	24264
2026-01-11 22:53:55.60	92.99	28.96	-58.6	-74.7	3.8	1.49e+00	0	23	104	0	82	24170
2026-01-11 22:53:58.62	93.99	28.91	-58.6	-74.7	3.8	1.49e+00	0	23	104	0	82	24155
2026-01-11 22:54:01.65	94.99	28.86	-58.6	-74.7	3.8	1.49e+00	0	23	104	0	82	24209
2026-01-11 22:54:04.68	95.98	28.80	-58.6	-74.7	3.8	1.49e+00	0	23	104	0	82	24195
2026-01-11 22:54:07.71	96.97	28.73	-58.6	-74.7	3.8	1.49e+00	0	23	104	0	82	24165
2026-01-11 22:54:10.74	97.96	28.65	-58.6	-74.7	3.8	1.49e+00	0	23	104	0	82	24235
2026-01-11 22:54:13.76	98.94	28.56	-58.6	-74.7	3.8	1.49e+00	0	23	104	0	82	24166
2026-01-11 22:54:16.79	99.92	28.47	-58.6	-74.7	3.8	1.49e+00	0	23	104	0	82	24149
2026-01-11 22:54:19.82	100.89	28.36	-58.6	-74.7	3.8	1.49e+00	0	23	104	0	82	24163
2026-01-11 22:54:22.85	101.85	28.25	-58.6	-74.7	3.8	1.49e+00	0	23	104	0	82	24140
2026-01-11 22:54:25.87	102.80	28.13	-58.6	-74.7	3.8	1.49e+00	0	23	104	0	82	24165
2026-01-11 22:54:28.89	103.75	28.00	-58.6	-74.7	3.8	1.49e+00	0	23	104	0	82	24177
2026-01-11 22:54:31.92	104.69	27.87	-58.6	-74.7	3.8	1.49e+00	0	23	104	0	82	24185
2026-01-11 22:54:34.95	105.63	27.72	-58.6	-74.7	3.8	1.49e+00	0	23	104	0	82	24148
2026-01-11 22:54:37.97	106.55	27.57	-58.6	-74.7	3.8	1.49e+00	0	23	104	0	82	24188
2026-01-11 22:54:41.00	107.47	27.41	-58.6	-74.7	3.8	1.49e+00	0	23	104	0	82	24188
2026-01-11 22:54:44.02	108.37	27.25	-58.6	-74.7	3.8	1.49e+00	0	23	104	0	82	24180
2026-01-11 22:54:47.05	109.27	27.08	-58.6	-74.6	3.8	1.49e+00	0	23	104	0	82	24110
2026-01-11 22:54:50.08	110.16	26.90	-58.6	-74.7	3.8	1.49e+00	0	23	104	0	82	24205
2026-01-11 22:54:53.10	111.04	26.72	-58.6	-74.7	3.8	1.49e+00	0	23	104	0	82	24202
2026-01-11 22:54:56.13	111.91	26.53	-58.6	-74.7	3.8	1.49e+00	0	23	104	0	82	24165
2026-01-11 22:54:59.15	112.77	26.34	-58.6	-74.6	3.8	1.49e+00	0	23	104	0	82	24114
2026-01-11 22:55:02.18	113.62	26.14	-58.6	-74.7	3.8	1.49e+00	0	23	104	0	82	24133
2026-01-11 22:55:05.21	114.46	25.93	-58.6	-74.7	3.8	1.49e+00	0	23	104	0	82	24183
2026-01-11 22:55:08.23	115.28	25.72	-58.6	-74.7	3.8	1.49e+00	0	23	104	0	82	24210
2026-01-11 22:55:11.26	116.10	25.51	-58.6	-74.7	3.8	1.49e+00	0	23	104	0	82	24158
2026-01-11 22:55:14.29	116.91	25.29	-58.6	-74.7	3.8	1.49e+00	0	23	104	0	82	24214
2026-01-11 22:55:17.32	117.70	25.07	-58.6	-74.6	3.8	1.49e+00	0	23	104	0	82	24124
2026-01-11 22:55:20.34	118.48	24.85	-58.6	-74.7	3.8	1.49e+00	0	23	104	0	82	24137
2026-01-11 22:55:23.37	119.26	24.62	-58.6	-74.7	3.8	1.49e+00	0	23	104	0	82	24152
2026-01-11 22:55:26.40	120.02	24.38	-58.6	-74.7	3.8	1.49e+00	0	23	104	0	82	24147
2026-01-11 22:55:29.42	120.77	24.15	-58.6	-74.7	3.8	1.49e+00	0	23	104	0	82	24139
2026-01-11 22:55:32.45	121.51	23.91	-58.6	-74.7	3.8	1.49e+00	0	23	104	0	82	24144
2026-01-11 22:55:35.48	122.24	23.67	-58.6	-74.6	3.8	1.49e+00	0	23	104	0	82	24106
2026-01-11 22:55:38.50	122.96	23.43	-58.6	-74.7	3.8	1.49e+00	0	23	104	0	82	24150
2026-01-11 22:55:41.53	123.67	23.18	-58.6	-74.7	3.8	1.49e+00	0	23	104	0	82	24155
2026-01-11 22:55:44.56	124.36	22.94	-58.6	-74.6	3.8	1.49e+00	0	23	104	0	82	24103
2026-01-11 22:55:47.59	125.05	22.69	-58.6	-74.6	3.8	1.49e+00	0	23	104	0	82	24104
2026-01-11 22:55:50.61	125.72	22.44	-58.6	-74.6	3.8	1.49e+00	0	23	104	0	82	24092
2026-01-11 22:55:53.64	126.39	22.18	-58.6	-74.7	3.8	1.49e+00	0	23	104	0	82	24149
2026-01-11 22:55:56.67	127.05	21.93	-58.6	-74.6	3.8	1.49e+00	0	23	104	0	82	24030
2026-01-11 22:55:59.69	127.69	21.68	-58.6	-74.6	3.8	1.49e+00	0	23	104	0	82	23992
2026-01-11 22:56:02.71	128.32	21.42	-58.6	-74.6	3.8	1.49e+00	0	23	104	0	82	24031
2026-01-11 22:56:05.74	128.95	21.16	-58.6	-74.6	3.8	1.49e+00	0	23	104	0	82	24115
2026-01-11 22:56:08.77	129.56	20.91	-58.6	-74.6	3.8	1.49e+00	0	23	104	0	82	24122
2026-01-11 22:56:11.80	130.16	20.65	-58.6	-74.6	3.8	1.49e+00	0	23	104	0	82	24091
2026-01-11 22:56:14.82	130.76	20.39	-58.6	-74.6	3.8	1.49e+00	0	23	104	0	82	24073
2026-01-11 22:56:17.85	131.34	20.13	-58.6	-74.6	3.8	1.49e+00	0	23	104	0	82	24051
2026-01-11 22:56:20.88	131.92	19.87	-58.6	-74.6	3.8	1.49e+00	0	23	104	0	82	23994
2026-01-11 22:56:23.91	132.48	19.61	-58.6	-74.6	3.8	1.49e+00	0	23	104	0	82	24067
2026-01-11 22:56:26.93	133.04	19.36	-58.6	-74.6	3.8	1.49e+00	0	23	104	0	82	24020
2026-01-11 22:56:29.96	133.59	19.10	-58.6	-74.6	3.8	1.49e+00	0	23	104	0	82	24039
2026-01-11 22:56:32.99	134.13	18.84	-58.6	-74.6	3.8	1.49e+00	0	23	104	0	82	23963
2026-01-11 22:56:36.02	134.66	18.58	-58.6	-74.6	3.8	1.49e+00	0	23	104	0	82	24106
2026-01-11 22:56:39.04	135.18	18.32	-58.6	-74.6	3.8	1.49e+00	0	23	104	0	82	24045
2026-01-11 22:56:42.06	135.69	18.07	-58.6	-74.6	3.8	1.49e+00	0	23	104	0	82	24037
2026-01-11 22:56:45.08	136.19	17.81	-58.6	-74.6	3.8	1.49e+00	0	23	104	0	82	24076
2026-01-11 22:56:48.11	136.69	17.55	-58.6	-74.6	3.8	1.49e+00	0	23	104	0	82	24018
2026-01-11 22:56:51.14	137.18	17.30	-58.6	-74.6	3.8	1.49e+00	0	23	104	0	82	24058
2026-01-11 22:56:54.16	137.65	17.04	-58.6	-74.6	3.8	1.49e+00	0	23	104	0	82	24090
2026-01-11 22:56:57.19	138.13	16.79	-58.6	-74.6	3.8	1.49e+00	0	23	104	0	82	24032
2026-01-11 22:57:00.21	138.59	16.54	-58.6	-74.6	3.8	1.49e+00	0	23	104	0	82	24116
2026-01-11 22:57:03.23	139.05	16.28	-58.6	-74.6	3.8	1.49e+00	0	23	104	0	82	24079
2026-01-11 22:57:06.26	139.50	16.03	-58.6	-74.6	3.8	1.49e+00	0	23	104	0	82	24041
2026-01-11 22:57:09.29	139.94	15.78	-58.6	-74.6	3.8	1.49e+00	0	23	104	0	82	23987
2026-01-11 22:57:12.32	140.38	15.53	-58.6	-74.6	3.8	1.49e+00	0	23	104	0	82	23981
2026-01-11 22:57:15.35	140.80	15.28	-58.6	-74.6	3.8	1.49e+00	0	23	104	0	82	24053
2026-01-11 22:57:18.38	141.23	15.04	-58.6	-74.6	3.8	1.49e+00	0	23	104	0	82	24040
2026-01-11 22:57:21.40	141.64	14.79	-58.6	-74.6	3.8	1.49e+00	0	23	104	0	82	24072
2026-01-11 22:57:24.43	142.05	14.55	-58.6	-74.6	3.8	1.49e+00	0	23	104	0	82	24044
2026-01-11 22:57:27.46	142.45	14.30	-58.6	-74.6	3.8	1.49e+00	0	23	104	0	82	24110
2026-01-11 22:57:30.48	142.85	14.06	-58.6	-74.6	3.8	1.49e+00	0	23	104	0	82	24033
2026-01-11 22:57:33.51	143.24	13.82	-58.6	-74.6	3.8	1.49e+00	0	23	104	0	82	24034
2026-01-11 22:57:36.54	143.62	13.58	-58.6	-74.6	3.8	1.49e+00	0	23	104	0	82	24060
2026-01-11 22:57:39.56	144.00	13.34	-58.6	-74.6	3.8	1.49e+00	0	23	104	0	82	24042
2026-01-11 22:57:42.59	144.37	13.10	-58.6	-74.6	3.8	1.49e+00	0	23	104	0	82	24029
2026-01-11 22:57:45.61	144.73	12.86	-58.6	-74.6	3.8	1.49e+00	0	23	104	0	82	24042
2026-01-11 22:57:48.64	145.10	12.63	-58.6	-74.6	3.8	1.49e+00	0	23	104	0	82	24035
2026-01-11 22:57:51.67	145.45	12.39	-58.6	-74.6	3.8	1.49e+00	0	23	104	0	82	24004
2026-01-11 22:57:54.70	145.80	12.16	-58.6	-74.6	3.8	1.49e+00	0	23	104	0	82	23981
2026-01-11 22:57:57.73	146.15	11.93	-58.6	-74.6	3.8	1.49e+00	0	23	104	0	82	24005
2026-01-11 22:58:00.75	146.48	11.70	-58.6	-74.6	3.8	1.49e+00	0	23	104	0	82	23998
2026-01-11 22:58:03.78	146.82	11.47	-58.6	-74.6	3.8	1.49e+00	0	23	104	0	82	24018
2026-01-11 22:58:06.81	147.15	11.24	-58.6	-74.6	3.8	1.49e+00	0	23	104	0	82	24003
2026-01-11 22:58:09.84	147.47	11.02	-58.6	-74.6	3.8	1.49e+00	0	23	104	0	82	24036
2026-01-11 22:58:12.86	147.79	10.79	-58.6	-74.6	3.8	1.49e+00	0	23	104	0	82	24072
2026-01-11 22:58:15.89	148.11	10.57	-58.6	-74.6	3.8	1.49e+00	0	23	104	0	82	24054
2026-01-11 22:58:18.91	148.42	10.35	-58.6	-74.6	3.8	1.49e+00	0	23	104	0	82	24038
2026-01-11 22:58:21.93	148.72	10.13	-58.6	-74.6	3.8	1.49e+00	0	23	104	0	82	23946
2026-01-11 22:58:24.96	149.02	9.91	-58.6	-74.6	3.8	1.49e+00	0	23	104	0	82	24001
2026-01-11 22:58:27.99	149.32	9.69	-58.6	-74.6	3.8	1.49e+00	0	23	104	0	82	23989
2026-01-11 22:58:31.01	149.61	9.47	-58.6	-74.6	3.8	1.49e+00	0	23	104	0	82	24017
2026-01-11 22:58:34.04	149.90	9.25	-58.6	-74.6	3.8	1.49e+00	0	23	104	0	82	24063
2026-01-11 22:58:37.07	150.19	9.04	-58.6	-74.6	3.8	1.49e+00	0	23	104	0	82	23967
2026-01-11 22:58:40.09	150.47	8.83	-58.6	-74.6	3.8	1.49e+00	0	23	104	0	82	23992
2026-01-11 22:58:43.12	150.75	8.61	-58.6	-74.6	3.8	1.49e+00	0	23	104	0	82	24007
2026-01-11 22:58:46.14	151.02	8.40	-58.6	-74.6	3.8	1.49e+00	0	23	104	0	82	24013
2026-01-11 22:58:49.17	151.29	8.19	-58.6	-74.6	3.8	1.49e+00	0	23	104	0	82	23948
2026-01-11 22:58:52.20	151.56	7.98	-58.6	-74.6	3.8	1.49e+00	0	23	104	0	82	24022
2026-01-11 22:58:55.23	151.82	7.78	-58.6	-74.6	3.8	1.49e+00	0	23	104	0	82	23992
2026-01-11 22:58:58.25	152.08	7.57	-58.6	-74.6	3.8	1.49e+00	0	23	104	0	82	24039
2026-01-11 22:59:01.28	152.33	7.37	-58.6	-74.6	3.8	1.49e+00	0	23	104	0	82	24025
2026-01-11 22:59:04.31	152.58	7.16	-58.6	-74.6	3.8	1.49e+00	0	23	104	0	82	23992
2026-01-11 22:59:07.35	152.83	6.96	-58.6	-74.6	3.8	1.49e+00	0	23	104	0	82	23969
2026-01-11 22:59:10.37	153.08	6.76	-58.6	-74.6	3.8	1.49e+00	0	23	104	0	82	24016
2026-01-11 22:59:13.39	153.32	6.56	-58.6	-74.6	3.8	1.49e+00	0	23	104	0	82	24004
2026-01-11 22:59:16.42	153.56	6.36	-58.6	-74.6	3.8	1.49e+00	0	23	104	0	82	24000
2026-01-11 22:59:19.45	153.80	6.16	-58.6	-74.6	3.8	1.49e+00	0	23	104	0	82	24047
2026-01-11 22:59:22.47	154.03	5.96	-58.6	-74.6	3.8	1.49e+00	0	23	104	0	82	23989
2026-01-11 22:59:25.50	154.26	5.77	-58.6	-74.6	3.8	1.49e+00	0	23	104	0	82	24046
2026-01-11 22:59:28.53	154.49	5.57	-58.6	-74.6	3.8	1.49e+00	0	23	104	0	82	24067
2026-01-11 22:59:31.55	154.71	5.38	-58.6	-74.6	3.8	1.49e+00	0	23	104	0	82	23954
2026-01-11 22:59:34.58	154.93	5.19	-58.6	-74.6	3.8	1.49e+00	0	23	104	0	82	23988
2026-01-11 22:59:37.60	155.15	4.99	-58.6	-74.6	3.8	1.49e+00	0	23	104	0	82	23970
2026-01-11 22:59:40.63	155.37	4.80	-58.6	-74.6	3.8	1.49e+00	0	23	104	0	82	23899
2026-01-11 22:59:43.65	155.58	4.61	-58.6	-74.6	3.8	1.49e+00	0	23	104	0	82	23970
2026-01-11 22:59:46.67	155.79	4.43	-58.6	-74.6	3.8	1.49e+00	0	23	104	0	82	23983
2026-01-11 22:59:49.70	156.00	4.24	-58.6	-74.6	3.8	1.49e+00	0	23	104	0	82	23922
2026-01-11 22:59:52.72	156.20	4.05	-58.6	-74.6	3.8	1.49e+00	0	23	104	0	82	23951
2026-01-11 22:59:55.76	156.41	3.87	-58.5	-74.6	3.8	1.49e+00	0	23	104	0	82	23952
2026-01-11 22:59:58.78	156.61	3.68	-58.6	-74.6	3.8	1.49e+00	0	23	104	0	82	24019
2026-01-11 23:00:01.80	156.81	3.50	-58.6	-74.6	3.8	1.49e+00	0	23	104	0	82	23930
2026-01-11 23:00:04.83	157.00	3.32	-58.5	-74.6	3.8	1.49e+00	0	23	104	0	82	23955
2026-01-11 23:00:07.86	157.20	3.14	-58.6	-74.6	3.8	1.49e+00	0	23	104	0	82	23943
2026-01-11 23:00:10.89	157.39	2.95	-58.5	-74.6	3.8	1.49e+00	0	23	104	0	82	23947
2026-01-11 23:00:13.92	157.58	2.77	-58.5	-74.6	3.8	1.49e+00	0	23	104	0	82	23916
2026-01-11 23:00:16.95	157.77	2.60	-58.5	-74.6	3.8	1.49e+00	0	23	104	0	82	23974
2026-01-11 23:00:19.97	157.95	2.42	-58.6	-74.6	3.8	1.49e+00	0	23	104	0	82	23936
2026-01-11 23:00:23.00	158.13	2.24	-58.6	-74.6	3.8	1.49e+00	0	23	104	0	82	24024
2026-01-11 23:00:26.02	158.32	2.07	-58.5	-74.6	3.8	1.49e+00	0	23	104	0	82	23910

#Closed at: 2026-01-11 23:00:28
#Recorded file [0 MB]: D:/lorett/data/31004_260112_014657.dat