passes_logs/2026/01/11/R3.2S_Murmansk/R3.2S_Murmansk__20260111_030254_AQUA_rec.log

#Pass ID: 20260111_030254_AQUA
#Satellite: AQUA
#Configuration: AQUA
#almurnet v.1.7.20251203
#Start time: 2026-01-11 03:02:55

#Version: 2.2.20231116
#Station: R3.2S_Murmansk
#Location: 33.079688 lon 68.888172 lat
#TLE: 1 27424U 02022A   26009.89520876  .00001045  00000+0  21914-3 0  9996
#TLE: 2 27424  98.4076 336.2372 0002032  84.5955   1.0356 14.61811442260144

#Time	Az	El	Level	Level2	SNR	BER	BlckErr	Temp	State	Recorded	gain1	gain2
2026-01-11 03:02:55.78	25.86	2.06	-52.9	-72.2	3.8	7.46e-01	0	25	0	0	73	35651
2026-01-11 03:02:58.78	25.80	2.26	-52.9	-72.3	3.8	7.47e-01	0	25	104	0	73	35749
2026-01-11 03:03:01.77	25.74	2.46	-52.9	-72.3	3.8	7.50e-01	0	25	104	0	73	35720
2026-01-11 03:03:04.78	25.68	2.66	-52.9	-72.3	3.8	7.43e-01	0	25	104	0	73	35822
2026-01-11 03:03:07.78	25.62	2.86	-52.9	-72.3	3.8	7.46e-01	0	25	104	0	73	35846
2026-01-11 03:03:10.79	25.56	3.07	-52.9	-72.3	3.8	7.47e-01	0	25	104	0	73	35780
2026-01-11 03:03:13.78	25.49	3.27	-52.9	-72.3	3.8	7.47e-01	0	25	104	0	73	35836
2026-01-11 03:03:16.79	25.43	3.48	-52.9	-72.3	3.8	7.46e-01	0	25	104	0	73	35765
2026-01-11 03:03:19.79	25.36	3.69	-52.9	-72.3	3.8	7.46e-01	0	25	104	0	73	35786
2026-01-11 03:03:22.79	25.30	3.90	-52.9	-72.3	3.8	7.50e-01	0	25	104	0	73	35905
2026-01-11 03:03:25.79	25.23	4.11	-52.9	-72.3	3.8	7.48e-01	0	25	104	0	73	35808
2026-01-11 03:03:28.80	25.16	4.33	-52.9	-72.3	3.8	7.44e-01	0	25	104	0	73	35860
2026-01-11 03:03:31.80	25.09	4.55	-52.9	-72.3	3.8	7.44e-01	0	25	104	0	73	35892
2026-01-11 03:03:34.79	25.02	4.76	-52.9	-72.3	3.8	7.50e-01	0	26	104	0	73	35877
2026-01-11 03:03:37.80	24.94	4.98	-52.9	-72.3	3.8	7.45e-01	0	26	104	0	73	35975
2026-01-11 03:03:40.81	24.87	5.21	-52.9	-72.3	3.8	7.46e-01	0	26	104	0	73	36001
2026-01-11 03:03:43.83	24.79	5.43	-52.9	-72.3	3.8	7.47e-01	0	26	104	0	73	35853
2026-01-11 03:03:46.84	24.71	5.66	-52.9	-72.3	3.8	7.46e-01	0	26	104	0	73	35969
2026-01-11 03:03:49.85	24.63	5.89	-52.9	-72.3	3.8	7.43e-01	0	26	104	0	73	35985
2026-01-11 03:03:52.84	24.55	6.12	-52.9	-72.3	3.8	7.49e-01	0	26	104	0	73	35958
2026-01-11 03:03:55.85	24.47	6.35	-52.9	-72.3	3.8	7.45e-01	0	26	104	0	73	35980
2026-01-11 03:03:58.86	24.38	6.59	-52.9	-72.3	3.8	7.48e-01	0	26	104	0	73	35985
2026-01-11 03:04:01.87	24.29	6.83	-52.9	-72.3	3.8	7.47e-01	0	26	104	0	73	36031
2026-01-11 03:04:04.87	24.21	7.07	-52.9	-72.3	3.8	7.44e-01	0	26	104	0	73	36066
2026-01-11 03:04:07.88	24.12	7.31	-52.9	-72.3	3.8	7.48e-01	0	26	104	0	73	35940
2026-01-11 03:04:10.89	24.02	7.56	-52.9	-72.4	3.8	7.47e-01	0	26	104	0	73	36130
2026-01-11 03:04:13.89	23.93	7.81	-53.0	-72.3	3.8	7.45e-01	0	26	104	0	73	36026
2026-01-11 03:04:16.89	23.83	8.06	-52.9	-72.3	3.8	7.47e-01	0	26	104	0	73	36027
2026-01-11 03:04:19.88	23.74	8.31	-52.9	-72.3	3.8	7.47e-01	0	26	104	0	73	35959
2026-01-11 03:04:22.90	23.64	8.57	-52.9	-72.3	3.8	7.46e-01	0	26	104	0	73	35985
2026-01-11 03:04:25.89	23.53	8.82	-52.9	-72.3	3.8	7.45e-01	0	26	104	0	73	36027
2026-01-11 03:04:28.90	23.43	9.09	-53.0	-72.4	3.8	7.48e-01	0	26	104	0	73	36110
2026-01-11 03:04:31.91	23.32	9.35	-53.0	-72.3	3.8	7.48e-01	0	26	104	0	73	36075
2026-01-11 03:04:34.92	23.21	9.62	-53.0	-72.3	3.8	7.48e-01	0	26	104	0	73	36095
2026-01-11 03:04:37.91	23.10	9.89	-53.0	-72.3	3.8	7.49e-01	0	26	104	0	73	36101
2026-01-11 03:04:40.93	22.99	10.17	-52.9	-72.4	3.8	7.46e-01	0	26	104	0	73	36147
2026-01-11 03:04:43.94	22.87	10.44	-53.0	-72.3	3.8	7.42e-01	0	26	104	0	73	36009
2026-01-11 03:04:46.94	22.75	10.73	-53.0	-72.3	3.8	7.47e-01	0	26	104	0	73	36071
2026-01-11 03:04:49.91	22.63	11.01	-53.0	-72.4	3.8	7.42e-01	0	26	104	0	73	36113
2026-01-11 03:04:52.91	22.50	11.29	-53.0	-72.3	3.8	7.43e-01	0	26	104	0	73	36059
2026-01-11 03:04:55.93	22.38	11.59	-53.0	-72.4	3.8	7.48e-01	0	26	104	0	73	36147
2026-01-11 03:04:58.95	22.24	11.89	-53.0	-72.4	3.8	7.46e-01	0	26	104	0	73	36246
2026-01-11 03:05:01.95	22.11	12.18	-53.0	-72.4	3.8	7.46e-01	0	26	104	0	73	36224
2026-01-11 03:05:04.95	21.97	12.49	-53.0	-72.3	3.8	7.48e-01	0	26	104	0	73	36091
2026-01-11 03:05:07.96	21.83	12.80	-53.0	-72.3	3.8	7.47e-01	0	26	104	0	73	36090
2026-01-11 03:05:10.96	21.69	13.11	-53.0	-72.3	3.8	7.46e-01	0	26	104	0	73	36094
2026-01-11 03:05:13.96	21.54	13.42	-53.0	-72.3	3.8	7.45e-01	0	26	104	0	73	36072
2026-01-11 03:05:17.26	21.37	13.78	-53.0	-72.3	3.8	7.46e-01	0	26	104	0	73	36094
2026-01-11 03:05:20.00	21.23	14.07	-53.0	-72.4	3.8	7.48e-01	0	26	104	0	73	36120
2026-01-11 03:05:23.30	21.05	14.43	-53.0	-72.4	3.8	7.48e-01	0	26	104	0	73	36198
2026-01-11 03:05:26.02	20.91	14.74	-53.0	-72.4	3.8	7.46e-01	0	26	104	0	73	36195
2026-01-11 03:05:29.34	20.72	15.11	-53.0	-72.4	3.8	7.45e-01	0	26	104	0	73	36226
2026-01-11 03:05:32.06	20.56	15.43	-53.0	-72.4	3.8	7.45e-01	0	26	104	0	73	36263
2026-01-11 03:05:35.35	20.37	15.81	-53.0	-72.4	3.8	7.45e-01	0	26	104	0	73	36166
2026-01-11 03:05:38.07	20.20	16.13	-53.0	-72.4	3.8	7.46e-01	0	26	104	0	73	36244
2026-01-11 03:05:41.38	20.00	16.53	-53.0	-72.4	3.8	7.50e-01	0	26	104	0	73	36156
2026-01-11 03:05:44.10	19.82	16.86	-53.0	-72.4	3.8	7.45e-01	0	26	104	0	73	36130
2026-01-11 03:05:47.42	19.60	17.27	-53.0	-72.4	3.8	7.46e-01	0	26	104	0	73	36150
2026-01-11 03:05:50.14	19.42	17.61	-53.0	-72.4	3.8	7.48e-01	0	26	104	0	73	36219
2026-01-11 03:05:53.45	19.19	18.04	-53.0	-72.4	3.8	7.50e-01	0	26	104	0	73	36199
2026-01-11 03:05:56.18	18.99	18.39	-53.0	-72.4	3.8	7.48e-01	0	26	104	0	73	36243
2026-01-11 03:05:59.47	18.75	18.83	-53.0	-72.4	3.8	7.47e-01	0	26	104	0	73	36252
2026-01-11 03:06:02.21	18.54	19.20	-53.0	-72.4	3.8	7.47e-01	0	26	104	0	73	36192
2026-01-11 03:06:05.51	18.28	19.65	-53.0	-72.4	3.8	7.47e-01	0	26	104	0	73	36121
2026-01-11 03:06:08.23	18.06	20.03	-53.0	-72.4	3.8	7.49e-01	0	26	104	0	73	36157
2026-01-11 03:06:11.54	17.79	20.49	-53.0	-72.4	3.8	7.48e-01	0	26	104	0	73	36220
2026-01-11 03:06:14.27	17.55	20.89	-53.0	-72.4	3.8	7.44e-01	0	26	104	0	73	36268
2026-01-11 03:06:17.55	17.26	21.37	-53.0	-72.4	3.8	7.43e-01	0	26	104	0	73	36292
2026-01-11 03:06:20.28	17.01	21.78	-53.0	-72.4	3.8	7.46e-01	0	27	104	0	73	36214
2026-01-11 03:06:23.60	16.70	22.28	-53.0	-72.4	3.8	7.44e-01	0	26	104	0	73	36259
2026-01-11 03:06:26.32	16.44	22.70	-53.0	-72.4	3.8	7.49e-01	0	26	104	0	73	36217
2026-01-11 03:06:29.62	16.10	23.22	-53.0	-72.4	3.8	7.47e-01	0	26	104	0	73	36255
2026-01-11 03:06:32.38	15.82	23.66	-53.0	-72.4	3.8	7.46e-01	0	26	104	0	73	36274
2026-01-11 03:06:35.68	15.46	24.20	-53.0	-72.4	3.8	7.45e-01	0	26	104	0	73	36304
2026-01-11 03:06:38.39	15.16	24.65	-53.0	-72.4	3.8	7.45e-01	0	26	104	0	73	36306
2026-01-11 03:06:41.70	14.78	25.22	-53.0	-72.4	3.8	7.47e-01	0	27	104	0	73	36301
2026-01-11 03:06:44.44	14.45	25.69	-53.0	-72.4	3.8	7.43e-01	0	26	104	0	73	36335
2026-01-11 03:06:47.73	14.04	26.27	-53.0	-72.4	3.8	7.42e-01	0	26	104	0	73	36249
2026-01-11 03:06:50.46	13.69	26.76	-53.0	-72.4	3.8	7.46e-01	0	26	104	0	73	36305
2026-01-11 03:06:53.76	13.25	27.36	-53.0	-72.4	3.8	7.48e-01	0	26	104	0	73	36323
2026-01-11 03:06:56.50	12.87	27.88	-53.0	-72.4	3.8	7.49e-01	0	26	104	0	73	36348
2026-01-11 03:06:59.79	12.40	28.50	-53.0	-72.4	3.8	7.46e-01	0	27	104	0	73	36353
2026-01-11 03:07:02.51	12.00	29.03	-53.0	-72.4	3.8	7.46e-01	0	26	104	0	73	36267
2026-01-11 03:07:05.85	11.48	29.69	-53.0	-72.4	3.8	7.45e-01	0	27	104	0	73	36383
2026-01-11 03:07:08.57	11.04	30.24	-53.0	-72.4	3.8	7.45e-01	0	27	104	0	73	36362
2026-01-11 03:07:11.86	10.49	30.91	-53.0	-72.4	3.8	7.46e-01	0	26	104	0	73	36309
2026-01-11 03:07:14.59	10.01	31.48	-53.0	-72.4	3.8	7.43e-01	0	27	104	0	73	36323
2026-01-11 03:07:17.87	9.41	32.18	-53.0	-72.4	3.8	7.47e-01	0	26	104	0	73	36303
2026-01-11 03:07:20.59	8.90	32.77	-53.0	-72.4	3.8	7.49e-01	0	26	104	0	73	36306
2026-01-11 03:07:23.88	8.24	33.50	-53.0	-72.4	3.8	7.45e-01	0	27	104	0	73	36312
2026-01-11 03:07:26.61	7.68	34.11	-53.0	-72.4	3.8	7.48e-01	0	27	104	0	73	36267
2026-01-11 03:07:29.91	6.97	34.87	-53.0	-72.4	3.8	7.46e-01	0	27	104	0	73	36372
2026-01-11 03:07:32.63	6.35	35.50	-53.0	-72.4	3.8	7.45e-01	0	27	104	0	73	36378
2026-01-11 03:07:35.92	5.57	36.28	-53.0	-72.4	3.8	7.44e-01	0	26	104	0	73	36358
2026-01-11 03:07:38.63	4.90	36.93	-53.0	-72.4	3.8	7.44e-01	0	26	104	0	73	36338
2026-01-11 03:07:41.94	4.05	37.74	-53.0	-72.4	3.8	7.50e-01	0	26	104	0	73	36364
2026-01-11 03:07:44.66	3.31	38.42	-53.0	-72.4	3.8	7.47e-01	0	27	104	0	73	36311
2026-01-11 03:07:47.97	2.36	39.25	-53.0	-72.4	3.8	7.46e-01	0	27	104	0	73	36372
2026-01-11 03:07:50.69	1.55	39.95	-53.0	-72.4	3.8	7.45e-01	0	26	104	0	73	36512
2026-01-11 03:07:53.99	0.51	40.80	-53.0	-72.4	3.8	7.48e-01	0	26	104	0	73	36392
2026-01-11 03:07:56.72	359.61	41.51	-53.0	-72.4	3.8	7.46e-01	0	27	104	0	73	36417
2026-01-11 03:08:00.01	358.47	42.38	-53.0	-72.4	3.8	7.47e-01	0	26	104	0	73	36409
2026-01-11 03:08:02.74	357.47	43.11	-53.0	-72.4	3.8	7.48e-01	0	26	104	0	73	36468
2026-01-11 03:08:06.03	356.20	43.99	-53.0	-72.4	3.8	7.45e-01	0	26	104	0	73	36367
2026-01-11 03:08:08.75	355.10	44.72	-53.0	-72.4	3.8	7.46e-01	0	27	104	0	73	36464
2026-01-11 03:08:12.05	353.69	45.62	-53.0	-72.4	3.8	7.46e-01	0	27	104	0	73	36446
2026-01-11 03:08:14.77	352.47	46.35	-53.0	-72.4	3.8	7.45e-01	0	27	104	0	73	36262
2026-01-11 03:08:18.07	350.90	47.24	-53.0	-72.4	3.8	7.47e-01	0	26	104	0	73	36364
2026-01-11 03:08:20.80	349.53	47.98	-53.0	-72.4	3.8	7.45e-01	0	27	104	0	73	36314
2026-01-11 03:08:24.11	347.79	48.86	-53.0	-72.4	3.8	7.47e-01	0	26	104	0	73	36409
2026-01-11 03:08:26.87	346.25	49.58	-53.0	-72.4	3.8	7.49e-01	0	26	104	0	73	36322
2026-01-11 03:08:30.14	344.33	50.43	-53.0	-72.4	3.8	7.48e-01	0	26	104	0	73	36376
2026-01-11 03:08:32.88	342.64	51.12	-53.0	-72.4	3.8	7.45e-01	0	26	104	0	73	36312
2026-01-11 03:08:36.18	340.49	51.94	-53.0	-72.4	3.8	7.45e-01	0	26	104	0	73	36353
2026-01-11 03:08:38.90	338.64	52.58	-53.0	-72.4	3.8	7.44e-01	0	26	104	0	73	36441
2026-01-11 03:08:42.19	336.28	53.33	-53.0	-72.4	3.8	7.43e-01	0	26	104	0	73	36436
2026-01-11 03:08:44.93	334.22	53.93	-53.0	-72.4	3.8	7.47e-01	0	26	104	0	73	36368
2026-01-11 03:08:48.22	331.63	54.60	-53.0	-72.4	3.8	7.45e-01	0	27	104	0	73	36369
2026-01-11 03:08:50.94	329.40	55.12	-53.0	-72.4	3.8	7.45e-01	0	27	104	0	73	36388
2026-01-11 03:08:54.24	326.59	55.69	-53.0	-72.4	3.8	7.52e-01	0	26	104	0	73	36461
2026-01-11 03:08:56.97	324.18	56.11	-53.0	-72.4	3.8	7.48e-01	0	27	104	0	73	36370
2026-01-11 03:09:00.27	321.17	56.56	-53.0	-72.4	3.8	7.46e-01	0	26	104	0	73	36404
2026-01-11 03:09:03.00	318.61	56.88	-53.0	-72.5	3.8	7.47e-01	0	26	104	0	73	36530
2026-01-11 03:09:06.30	315.44	57.18	-53.0	-72.4	3.8	7.44e-01	0	27	104	0	73	36425
2026-01-11 03:09:09.01	312.79	57.38	-53.0	-72.4	3.8	7.45e-01	0	26	104	0	73	36424
2026-01-11 03:09:12.30	309.54	57.53	-53.0	-72.4	3.8	7.49e-01	0	27	104	0	73	36455
2026-01-11 03:09:15.02	306.82	57.59	-53.0	-72.4	3.8	7.48e-01	0	27	104	0	73	36434
2026-01-11 03:09:18.31	303.53	57.58	-53.0	-72.4	3.8	7.48e-01	0	26	104	0	73	36499
2026-01-11 03:09:21.03	300.82	57.50	-53.0	-72.4	3.8	7.44e-01	0	27	104	0	73	36511
2026-01-11 03:09:24.30	297.59	57.34	-53.0	-72.4	3.8	7.46e-01	0	27	104	0	73	36493
2026-01-11 03:09:27.07	294.89	57.13	-53.0	-72.5	3.8	7.47e-01	0	27	104	0	73	36548
2026-01-11 03:09:30.36	291.74	56.80	-53.1	-72.4	3.8	7.46e-01	0	27	104	0	73	36484
2026-01-11 03:09:33.08	289.21	56.47	-53.0	-72.4	3.8	7.46e-01	0	26	104	0	73	36360
2026-01-11 03:09:36.38	286.22	56.01	-53.0	-72.4	3.8	7.46e-01	0	27	104	0	73	36520
2026-01-11 03:09:39.11	283.82	55.57	-53.0	-72.4	3.8	7.48e-01	0	27	104	0	73	36514
2026-01-11 03:09:42.40	281.04	54.99	-53.1	-72.5	3.8	7.48e-01	0	27	104	0	73	36535
2026-01-11 03:09:45.14	278.81	54.46	-53.1	-72.5	3.8	7.46e-01	0	26	104	0	73	36548
2026-01-11 03:09:48.43	276.25	53.78	-53.0	-72.4	3.8	7.46e-01	0	27	104	0	73	36500
2026-01-11 03:09:51.14	274.23	53.18	-53.0	-72.4	3.8	7.47e-01	0	26	104	0	73	36462
2026-01-11 03:09:54.43	271.89	52.42	-53.0	-72.4	3.8	7.44e-01	0	27	104	0	73	36428
2026-01-11 03:09:57.16	270.05	51.76	-53.0	-72.4	3.8	7.48e-01	0	27	104	0	73	36308
2026-01-11 03:10:00.45	267.93	50.95	-53.0	-72.4	3.8	7.51e-01	0	27	104	0	73	36360
2026-01-11 03:10:03.19	266.25	50.25	-53.0	-72.4	3.8	7.48e-01	0	27	104	0	73	36427
2026-01-11 03:10:06.49	264.34	49.39	-53.0	-72.4	3.8	7.45e-01	0	26	104	0	73	36379
2026-01-11 03:10:09.21	262.84	48.67	-53.0	-72.5	3.8	7.46e-01	0	26	104	0	73	36537
2026-01-11 03:10:12.51	261.11	47.79	-53.0	-72.4	3.8	7.44e-01	0	26	104	0	73	36464
2026-01-11 03:10:15.24	259.76	47.05	-53.0	-72.4	3.8	7.44e-01	0	27	104	0	73	36446
2026-01-11 03:10:18.53	258.21	46.16	-53.0	-72.4	3.8	7.47e-01	0	26	104	0	73	36451
2026-01-11 03:10:21.26	257.00	45.42	-53.0	-72.4	3.8	7.46e-01	0	26	104	0	73	36352
2026-01-11 03:10:24.54	255.61	44.53	-53.0	-72.4	3.8	7.43e-01	0	26	104	0	73	36299
2026-01-11 03:10:27.28	254.51	43.79	-53.0	-72.4	3.8	7.44e-01	0	27	104	0	73	36476
2026-01-11 03:10:30.57	253.25	42.91	-53.0	-72.4	3.8	7.46e-01	0	27	104	0	73	36351
2026-01-11 03:10:33.30	252.27	42.18	-53.0	-72.4	3.8	7.48e-01	0	27	104	0	73	36455
2026-01-11 03:10:36.59	251.13	41.31	-53.0	-72.4	3.8	7.45e-01	0	27	104	0	73	36451
2026-01-11 03:10:39.31	250.24	40.60	-53.0	-72.4	3.8	7.46e-01	0	27	104	0	73	36358
2026-01-11 03:10:42.59	249.22	39.75	-53.0	-72.4	3.8	7.46e-01	0	26	104	0	73	36422
2026-01-11 03:10:45.31	248.41	39.06	-53.0	-72.4	3.8	7.46e-01	0	27	104	0	73	36515
2026-01-11 03:10:48.60	247.48	38.23	-53.0	-72.4	3.8	7.49e-01	0	27	104	0	73	36463
2026-01-11 03:10:51.33	246.75	37.55	-53.0	-72.4	3.8	7.47e-01	0	27	104	0	73	36389
2026-01-11 03:10:54.62	245.90	36.75	-53.0	-72.4	3.8	7.46e-01	0	26	104	0	73	36500
2026-01-11 03:10:57.35	245.23	36.09	-53.0	-72.4	3.8	7.47e-01	0	26	104	0	73	36414
2026-01-11 03:11:00.64	244.46	35.31	-53.0	-72.4	3.8	7.46e-01	0	27	104	0	73	36436
2026-01-11 03:11:03.36	243.85	34.68	-53.0	-72.4	3.8	7.48e-01	0	26	104	0	73	36366
2026-01-11 03:11:06.65	243.14	33.92	-53.0	-72.4	3.8	7.47e-01	0	27	104	0	73	36442
2026-01-11 03:11:09.38	242.58	33.31	-53.0	-72.4	3.8	7.45e-01	0	26	104	0	73	36435
2026-01-11 03:11:12.67	241.93	32.58	-53.0	-72.4	3.8	7.47e-01	0	26	104	0	73	36418
2026-01-11 03:11:15.40	241.42	31.99	-53.0	-72.4	3.8	7.49e-01	0	26	104	0	73	36470
2026-01-11 03:11:18.70	240.82	31.29	-53.0	-72.4	3.8	7.47e-01	0	27	104	0	73	36415
2026-01-11 03:11:21.43	240.34	30.72	-53.0	-72.4	3.8	7.44e-01	0	27	104	0	73	36477
2026-01-11 03:11:24.73	239.79	30.04	-53.0	-72.4	3.8	7.49e-01	0	27	104	0	73	36514
2026-01-11 03:11:27.44	239.36	29.50	-53.0	-72.4	3.8	7.46e-01	0	27	104	0	73	36413
2026-01-11 03:11:30.76	238.85	28.84	-53.0	-72.5	3.8	7.50e-01	0	27	104	0	73	36562
2026-01-11 03:11:33.48	238.44	28.32	-53.1	-72.4	3.8	7.50e-01	0	27	104	0	73	36471
2026-01-11 03:11:36.76	237.98	27.69	-53.0	-72.4	3.8	7.46e-01	0	27	104	0	73	36459
2026-01-11 03:11:39.48	237.60	27.19	-53.1	-72.5	3.8	7.43e-01	0	26	104	0	73	36552
2026-01-11 03:11:42.76	237.17	26.59	-53.1	-72.4	3.8	7.48e-01	0	27	104	0	73	36468
2026-01-11 03:11:45.49	236.82	26.10	-53.1	-72.4	3.8	7.46e-01	0	26	104	0	73	36516
2026-01-11 03:11:48.79	236.41	25.52	-53.1	-72.4	3.8	7.50e-01	0	26	104	0	73	36509
2026-01-11 03:11:51.51	236.09	25.05	-53.1	-72.4	3.8	7.50e-01	0	27	104	0	73	36476
2026-01-11 03:11:54.83	235.70	24.49	-53.1	-72.4	3.8	7.47e-01	0	27	104	0	73	36508
2026-01-11 03:11:57.55	235.40	24.03	-53.0	-72.4	3.8	7.47e-01	0	27	104	0	73	36409
2026-01-11 03:12:00.86	235.05	23.49	-53.0	-72.5	3.8	7.48e-01	0	27	104	0	73	36555
2026-01-11 03:12:03.59	234.76	23.05	-53.1	-72.5	3.8	7.47e-01	0	27	104	0	73	36527
2026-01-11 03:12:06.89	234.43	22.54	-53.1	-72.4	3.8	7.46e-01	0	27	104	0	73	36505
2026-01-11 03:12:09.62	234.17	22.11	-53.1	-72.4	3.8	7.48e-01	0	26	104	0	73	36467
2026-01-11 03:12:12.91	233.86	21.61	-53.1	-72.4	3.8	7.44e-01	0	26	104	0	73	36475
2026-01-11 03:12:15.64	233.61	21.21	-53.1	-72.4	3.8	7.44e-01	0	26	104	0	73	36495
2026-01-11 03:12:18.95	233.31	20.72	-53.1	-72.4	3.8	7.46e-01	0	27	104	0	73	36515
2026-01-11 03:12:21.71	233.08	20.33	-53.1	-72.4	3.8	7.46e-01	0	26	104	0	73	36467
2026-01-11 03:12:25.01	232.80	19.86	-53.0	-72.5	3.8	7.47e-01	0	26	104	0	73	36536
2026-01-11 03:12:27.74	232.58	19.48	-53.0	-72.4	3.8	7.44e-01	0	27	104	0	73	36480
2026-01-11 03:12:31.05	232.32	19.03	-53.0	-72.4	3.8	7.47e-01	0	27	104	0	73	36476
2026-01-11 03:12:33.77	232.12	18.66	-53.0	-72.4	3.8	7.44e-01	0	27	104	0	73	36441
2026-01-11 03:12:37.07	231.87	18.23	-53.1	-72.5	3.8	7.44e-01	0	26	104	0	73	36575
2026-01-11 03:12:39.81	231.68	17.87	-53.1	-72.5	3.8	7.43e-01	0	27	104	0	73	36559
2026-01-11 03:12:43.11	231.45	17.45	-53.0	-72.4	3.8	7.49e-01	0	27	104	0	73	36471
2026-01-11 03:12:45.85	231.26	17.10	-53.0	-72.4	3.8	7.46e-01	0	27	104	0	73	36441
2026-01-11 03:12:49.15	231.04	16.69	-53.0	-72.4	3.8	7.48e-01	0	27	104	0	73	36472
2026-01-11 03:12:51.90	230.87	16.36	-53.0	-72.4	3.8	7.45e-01	0	27	104	0	73	36478
2026-01-11 03:12:55.21	230.66	15.96	-53.1	-72.4	3.8	7.48e-01	0	27	104	0	73	36492
2026-01-11 03:12:57.93	230.50	15.64	-53.1	-72.4	3.8	7.45e-01	0	27	104	0	73	36511
2026-01-11 03:13:01.22	230.30	15.26	-53.1	-72.4	3.8	7.44e-01	0	27	104	0	73	36487
2026-01-11 03:13:03.93	230.14	14.95	-53.1	-72.4	3.8	7.45e-01	0	27	104	0	73	36493
2026-01-11 03:13:07.24	229.96	14.57	-53.1	-72.5	3.8	7.50e-01	0	27	104	0	73	36546
2026-01-11 03:13:09.97	229.81	14.27	-53.1	-72.4	3.8	7.41e-01	0	27	104	0	73	36451
2026-01-11 03:13:13.27	229.63	13.91	-53.1	-72.5	3.8	7.49e-01	0	27	104	0	73	36615
2026-01-11 03:13:15.99	229.49	13.61	-53.1	-72.4	3.8	7.48e-01	0	27	104	0	73	36476
2026-01-11 03:13:19.27	229.33	13.26	-53.1	-72.5	3.8	7.46e-01	0	27	104	0	73	36575
2026-01-11 03:13:22.00	229.19	12.98	-53.1	-72.5	3.8	7.45e-01	0	27	104	0	73	36553
2026-01-11 03:13:25.30	229.03	12.63	-53.1	-72.5	3.8	7.44e-01	0	27	104	0	73	36544
2026-01-11 03:13:28.02	228.90	12.36	-53.1	-72.5	3.8	7.47e-01	0	27	104	0	73	36531
2026-01-11 03:13:31.33	228.75	12.02	-53.1	-72.5	3.8	7.45e-01	0	27	104	0	73	36578
2026-01-11 03:13:34.06	228.63	11.75	-53.1	-72.5	3.8	7.49e-01	0	27	104	0	73	36547
2026-01-11 03:13:37.35	228.48	11.43	-53.1	-72.4	3.8	7.46e-01	0	27	104	0	73	36495
2026-01-11 03:13:40.09	228.36	11.16	-53.1	-72.4	3.8	7.43e-01	0	26	104	0	73	36482
2026-01-11 03:13:43.38	228.23	10.84	-53.1	-72.4	3.8	7.51e-01	0	27	104	0	73	36522
2026-01-11 03:13:46.10	228.11	10.59	-53.0	-72.4	3.8	7.51e-01	0	27	104	0	73	36523
2026-01-11 03:13:49.39	227.98	10.28	-53.1	-72.4	3.8	7.47e-01	0	27	104	0	73	36450
2026-01-11 03:13:52.11	227.88	10.03	-53.1	-72.5	3.8	7.47e-01	0	27	104	0	73	36529
2026-01-11 03:13:55.42	227.75	9.72	-53.0	-72.4	3.8	7.46e-01	0	26	104	0	73	36443
2026-01-11 03:13:58.15	227.65	9.48	-53.1	-72.4	3.8	7.47e-01	0	27	104	0	73	36519
2026-01-11 03:14:01.46	227.52	9.18	-53.0	-72.4	3.8	7.44e-01	0	26	104	0	73	36441
2026-01-11 03:14:04.20	227.43	8.94	-53.1	-72.5	3.8	7.50e-01	0	27	104	0	73	36537
2026-01-11 03:14:07.50	227.31	8.65	-53.1	-72.4	3.8	7.45e-01	0	27	104	0	73	36520
2026-01-11 03:14:10.23	227.22	8.42	-53.1	-72.4	3.8	7.46e-01	0	27	104	0	73	36463
2026-01-11 03:14:13.55	227.10	8.14	-53.0	-72.4	3.8	7.43e-01	0	27	104	0	73	36470
2026-01-11 03:14:16.27	227.01	7.91	-53.1	-72.5	3.8	7.45e-01	0	27	104	0	73	36526
2026-01-11 03:14:19.56	226.91	7.63	-53.0	-72.5	3.8	7.47e-01	0	27	104	0	73	36563
2026-01-11 03:14:22.26	226.82	7.41	-53.1	-72.5	3.8	7.50e-01	0	27	104	0	73	36591
2026-01-11 03:14:25.57	226.72	7.14	-53.1	-72.5	3.8	7.46e-01	0	27	104	0	73	36625
2026-01-11 03:14:28.30	226.64	6.92	-53.1	-72.5	3.8	7.44e-01	0	27	104	0	73	36586
2026-01-11 03:14:31.60	226.54	6.65	-53.1	-72.4	3.8	7.44e-01	0	27	104	0	73	36510
2026-01-11 03:14:34.32	226.46	6.44	-53.1	-72.4	3.8	7.44e-01	0	27	104	0	73	36474
2026-01-11 03:14:37.61	226.36	6.18	-53.1	-72.5	3.8	7.48e-01	0	27	104	0	73	36562
2026-01-11 03:14:40.33	226.29	5.97	-53.1	-72.4	3.8	7.46e-01	0	27	104	0	73	36488
2026-01-11 03:14:43.63	226.20	5.72	-53.1	-72.5	3.8	7.48e-01	0	27	104	0	73	36561
2026-01-11 03:14:46.35	226.12	5.51	-53.1	-72.5	3.8	7.45e-01	0	27	104	0	73	36676
2026-01-11 03:14:49.64	226.03	5.26	-53.1	-72.5	3.8	7.47e-01	0	27	104	0	73	36606
2026-01-11 03:14:52.37	225.96	5.06	-53.1	-72.5	3.8	7.46e-01	0	27	104	0	73	36635
2026-01-11 03:14:55.68	225.88	4.81	-53.1	-72.5	3.8	7.46e-01	0	27	104	0	73	36610
2026-01-11 03:14:58.40	225.81	4.61	-53.1	-72.5	3.8	7.45e-01	0	27	104	0	73	36660
2026-01-11 03:15:01.70	225.73	4.37	-53.1	-72.5	3.8	7.49e-01	0	27	104	0	73	36660
2026-01-11 03:15:04.42	225.66	4.18	-53.1	-72.5	3.8	7.46e-01	0	27	104	0	73	36613
2026-01-11 03:15:07.72	225.59	3.94	-53.1	-72.5	3.8	7.47e-01	0	27	104	0	73	36552
2026-01-11 03:15:10.44	225.52	3.75	-53.1	-72.5	3.8	7.48e-01	0	27	104	0	73	36662
2026-01-11 03:15:13.73	225.45	3.52	-53.1	-72.5	3.8	7.45e-01	0	27	104	0	73	36592
2026-01-11 03:15:16.45	225.39	3.33	-53.1	-72.5	3.8	7.46e-01	0	27	104	0	73	36546
2026-01-11 03:15:19.75	225.31	3.10	-53.1	-72.5	3.8	7.49e-01	0	27	104	0	73	36622
2026-01-11 03:15:22.48	225.25	2.91	-53.1	-72.5	3.8	7.46e-01	0	27	104	0	73	36644
2026-01-11 03:15:25.78	225.18	2.69	-53.1	-72.5	3.8	7.43e-01	0	27	104	0	73	36711
2026-01-11 03:15:28.52	225.13	2.50	-53.1	-72.5	3.8	7.50e-01	0	27	104	0	73	36614
2026-01-11 03:15:31.82	225.06	2.28	-53.1	-72.5	3.8	7.45e-01	0	27	104	0	73	36575
2026-01-11 03:15:34.54	225.00	2.10	-53.1	-72.5	3.8	7.48e-01	0	27	104	0	73	36620

#Closed at: 2026-01-11 03:15:36
#Recorded file [0 MB]: D:/lorett/data/31004_260111_060255.dat