passes_logs/2026/01/11/R3.2S_Murmansk/R3.2S_Murmansk__20260111_024712_NOAA_20_JPSS-1_rec.log

#Pass ID: 20260111_024712_NOAA 20 (JPSS-1)
#Satellite: NOAA 20 (JPSS-1)
#Configuration: NOAA 20
#almurnet v.1.7.20251203
#Start time: 2026-01-11 02:47:12

#Version: 2.2.20231116
#Station: R3.2S_Murmansk
#Location: 33.079688 lon 68.888172 lat
#TLE: 1 43013U 17073A   26009.69119415  .00000109  00000+0  72598-4 0  9996
#TLE: 2 43013  98.7631 310.6868 0001678  46.7442 313.3874 14.19534878421981

#Time	Az	El	Level	Level2	SNR	BER	BlckErr	Temp	State	Recorded	gain1	gain2
2026-01-11 02:47:12.12	35.98	2.01	-53.2	-69.1	3.8	1.49e+00	0	23	0	0	71	24024
2026-01-11 02:47:15.13	35.85	2.19	-53.2	-69.2	3.8	1.49e+00	0	24	104	0	71	24250
2026-01-11 02:47:18.13	35.72	2.37	-53.2	-69.2	3.8	1.49e+00	0	24	104	0	71	24197
2026-01-11 02:47:21.14	35.58	2.56	-53.3	-69.2	3.8	1.49e+00	0	24	104	0	71	24270
2026-01-11 02:47:24.15	35.45	2.74	-53.3	-69.2	3.8	1.49e+00	0	24	104	0	71	24342
2026-01-11 02:47:27.15	35.31	2.93	-53.3	-69.2	3.8	1.49e+00	0	24	104	0	71	24236
2026-01-11 02:47:30.16	35.17	3.12	-53.3	-69.2	3.8	1.49e+00	0	24	104	0	71	24246
2026-01-11 02:47:33.16	35.03	3.31	-53.3	-69.2	3.8	1.49e+00	0	24	104	0	71	24285
2026-01-11 02:47:36.18	34.88	3.50	-53.3	-69.2	3.8	1.49e+00	0	24	104	0	71	24313
2026-01-11 02:47:39.19	34.74	3.69	-53.3	-69.2	3.8	1.49e+00	0	24	104	0	71	24352
2026-01-11 02:47:42.20	34.59	3.88	-53.3	-69.2	3.8	1.49e+00	0	24	104	0	71	24349
2026-01-11 02:47:45.20	34.44	4.08	-53.3	-69.2	3.8	1.49e+00	0	25	104	0	71	24358
2026-01-11 02:47:48.21	34.29	4.27	-53.3	-69.2	3.8	1.49e+00	0	25	104	0	71	24391
2026-01-11 02:47:51.22	34.13	4.47	-53.3	-69.3	3.8	1.49e+00	0	25	104	0	71	24468
2026-01-11 02:47:54.23	33.98	4.67	-53.3	-69.2	3.8	1.49e+00	0	25	104	0	71	24384
2026-01-11 02:47:57.23	33.82	4.86	-53.3	-69.2	3.8	1.49e+00	0	25	104	0	71	24356
2026-01-11 02:48:00.23	33.66	5.06	-53.3	-69.3	3.8	1.49e+00	0	25	104	0	71	24502
2026-01-11 02:48:03.23	33.49	5.26	-53.3	-69.3	3.8	1.49e+00	0	25	104	0	71	24471
2026-01-11 02:48:06.23	33.33	5.47	-53.3	-69.3	3.8	1.49e+00	0	25	104	0	71	24469
2026-01-11 02:48:09.24	33.16	5.67	-53.3	-69.3	3.8	1.49e+00	0	25	104	0	71	24420
2026-01-11 02:48:12.24	32.99	5.87	-53.3	-69.3	3.8	1.49e+00	0	25	104	0	71	24448
2026-01-11 02:48:15.25	32.81	6.08	-53.3	-69.3	3.8	1.49e+00	0	25	104	0	71	24536
2026-01-11 02:48:18.25	32.64	6.29	-53.4	-69.3	3.8	1.49e+00	0	25	104	0	71	24538
2026-01-11 02:48:21.27	32.46	6.50	-53.4	-69.3	3.8	1.49e+00	0	25	104	0	71	24510
2026-01-11 02:48:24.27	32.28	6.71	-53.3	-69.3	3.8	1.49e+00	0	25	104	0	71	24517
2026-01-11 02:48:27.27	32.09	6.92	-53.4	-69.3	3.8	1.49e+00	0	25	104	0	71	24523
2026-01-11 02:48:30.28	31.90	7.13	-53.4	-69.3	3.8	1.49e+00	0	25	104	0	71	24585
2026-01-11 02:48:33.29	31.71	7.35	-53.4	-69.3	3.8	1.49e+00	0	26	104	0	71	24546
2026-01-11 02:48:36.30	31.52	7.57	-53.4	-69.3	3.8	1.49e+00	0	25	104	0	71	24533
2026-01-11 02:48:39.31	31.32	7.78	-53.4	-69.3	3.8	1.49e+00	0	26	104	0	71	24616
2026-01-11 02:48:42.31	31.12	8.00	-53.4	-69.3	3.8	1.49e+00	0	25	104	0	71	24652
2026-01-11 02:48:45.32	30.92	8.22	-53.4	-69.3	3.8	1.49e+00	0	26	104	0	71	24640
2026-01-11 02:48:48.33	30.71	8.45	-53.4	-69.3	3.8	1.49e+00	0	26	104	0	71	24540
2026-01-11 02:48:51.34	30.50	8.67	-53.4	-69.3	3.8	1.49e+00	0	26	104	0	71	24574
2026-01-11 02:48:54.34	30.29	8.90	-53.4	-69.3	3.8	1.49e+00	0	26	104	0	71	24600
2026-01-11 02:48:57.34	30.08	9.12	-53.4	-69.3	3.8	1.49e+00	0	26	104	0	71	24591
2026-01-11 02:49:00.33	29.86	9.35	-53.4	-69.3	3.8	1.49e+00	0	26	104	0	71	24579
2026-01-11 02:49:03.34	29.63	9.58	-53.4	-69.3	3.8	1.49e+00	0	26	104	0	71	24670
2026-01-11 02:49:06.33	29.41	9.81	-53.4	-69.3	3.8	1.49e+00	0	26	104	0	71	24632
2026-01-11 02:49:09.34	29.18	10.05	-53.4	-69.3	3.8	1.49e+00	0	26	104	0	71	24624
2026-01-11 02:49:12.35	28.94	10.28	-53.4	-69.3	3.8	1.49e+00	0	26	104	0	71	24640
2026-01-11 02:49:15.35	28.70	10.52	-53.4	-69.3	3.8	1.49e+00	0	26	104	0	71	24625
2026-01-11 02:49:18.35	28.46	10.76	-53.4	-69.3	3.8	1.49e+00	0	26	104	0	71	24655
2026-01-11 02:49:21.35	28.21	11.00	-53.4	-69.3	3.8	1.49e+00	0	26	104	0	71	24601
2026-01-11 02:49:24.35	27.96	11.24	-53.4	-69.3	3.8	1.49e+00	0	26	104	0	71	24620
2026-01-11 02:49:27.36	27.70	11.49	-53.4	-69.3	3.8	1.49e+00	0	26	104	0	71	24672
2026-01-11 02:49:30.36	27.44	11.74	-53.4	-69.3	3.8	1.49e+00	0	26	104	0	71	24667
2026-01-11 02:49:33.37	27.18	11.99	-53.4	-69.4	3.8	1.49e+00	0	26	104	0	71	24741
2026-01-11 02:49:36.38	26.91	12.24	-53.4	-69.3	3.8	1.49e+00	0	26	104	0	71	24614
2026-01-11 02:49:39.39	26.63	12.49	-53.4	-69.4	3.8	1.49e+00	0	26	104	0	71	24697
2026-01-11 02:49:42.40	26.35	12.74	-53.4	-69.3	3.8	1.49e+00	0	26	104	0	71	24690
2026-01-11 02:49:45.40	26.07	13.00	-53.4	-69.3	3.8	1.49e+00	0	26	104	0	71	24654
2026-01-11 02:49:48.41	25.78	13.26	-53.4	-69.4	3.8	1.49e+00	0	26	104	0	72	23335
2026-01-11 02:49:51.42	25.48	13.52	-53.4	-69.4	3.8	1.49e+00	0	26	104	0	72	23350
2026-01-11 02:49:54.42	25.18	13.78	-53.4	-69.4	3.8	1.49e+00	0	26	104	0	72	23366
2026-01-11 02:49:57.41	24.87	14.05	-53.4	-69.4	3.8	1.49e+00	0	26	104	0	72	23369
2026-01-11 02:50:00.41	24.56	14.31	-53.5	-69.4	3.8	1.49e+00	0	26	104	0	72	23323
2026-01-11 02:50:03.42	24.24	14.58	-53.4	-69.3	3.8	1.49e+00	0	26	104	0	72	23309
2026-01-11 02:50:06.41	23.92	14.85	-53.4	-69.4	3.8	1.49e+00	0	26	104	0	72	23354
2026-01-11 02:50:09.41	23.59	15.12	-53.5	-69.4	3.8	1.49e+00	0	26	104	0	72	23403
2026-01-11 02:50:12.41	23.26	15.40	-53.5	-69.4	3.8	1.49e+00	0	26	104	0	72	23413
2026-01-11 02:50:15.41	22.91	15.67	-53.5	-69.4	3.8	1.49e+00	0	26	104	0	72	23364
2026-01-11 02:50:18.42	22.56	15.95	-53.5	-69.4	3.8	1.49e+00	0	26	104	0	72	23329
2026-01-11 02:50:21.43	22.21	16.23	-53.5	-69.4	3.8	1.49e+00	0	26	104	0	72	23331
2026-01-11 02:50:24.43	21.84	16.52	-53.5	-69.4	3.8	1.49e+00	0	26	104	0	72	23322
2026-01-11 02:50:27.43	21.47	16.80	-53.5	-69.4	3.8	1.49e+00	0	26	104	0	72	23344
2026-01-11 02:50:30.43	21.10	17.09	-53.5	-69.4	3.8	1.49e+00	0	26	104	0	72	23382
2026-01-11 02:50:33.44	20.71	17.38	-53.5	-69.4	3.8	1.49e+00	0	26	104	0	72	23430
2026-01-11 02:50:36.45	20.32	17.67	-53.5	-69.4	3.8	1.49e+00	0	26	104	0	72	23326
2026-01-11 02:50:39.45	19.92	17.96	-53.4	-69.3	3.8	1.49e+00	0	26	104	0	72	23298
2026-01-11 02:50:42.47	19.51	18.26	-53.5	-69.3	3.8	1.49e+00	0	26	104	0	72	23278
2026-01-11 02:50:45.47	19.09	18.55	-53.5	-69.4	3.8	1.49e+00	0	26	104	0	72	23363
2026-01-11 02:50:48.49	18.66	18.86	-53.5	-69.4	3.8	1.49e+00	0	26	104	0	72	23394
2026-01-11 02:50:51.50	18.23	19.16	-53.5	-69.4	3.8	1.49e+00	0	26	104	0	72	23403
2026-01-11 02:50:54.50	17.79	19.46	-53.5	-69.3	3.8	1.49e+00	0	26	104	0	72	23302
2026-01-11 02:50:57.49	17.34	19.76	-53.5	-69.4	3.8	1.49e+00	0	26	104	0	72	23337
2026-01-11 02:51:00.50	16.87	20.07	-53.5	-69.4	3.8	1.49e+00	0	26	104	0	72	23384
2026-01-11 02:51:03.50	16.40	20.38	-53.5	-69.4	3.8	1.49e+00	0	26	104	0	72	23379
2026-01-11 02:51:06.50	15.92	20.69	-53.4	-69.4	3.8	1.49e+00	0	26	104	0	72	23395
2026-01-11 02:51:09.50	15.43	21.00	-53.5	-69.4	3.8	1.49e+00	0	26	104	0	72	23357
2026-01-11 02:51:12.50	14.93	21.31	-53.5	-69.4	3.8	1.49e+00	0	26	104	0	72	23322
2026-01-11 02:51:15.52	14.42	21.63	-53.5	-69.4	3.8	1.49e+00	0	26	104	0	72	23406
2026-01-11 02:51:18.54	13.89	21.95	-53.5	-69.4	3.8	1.49e+00	0	26	104	0	72	23467
2026-01-11 02:51:21.55	13.36	22.27	-53.5	-69.4	3.8	1.49e+00	0	26	104	0	72	23490
2026-01-11 02:51:24.55	12.82	22.58	-53.5	-69.4	3.8	1.49e+00	0	26	104	0	72	23444
2026-01-11 02:51:27.55	12.26	22.90	-53.5	-69.4	3.8	1.49e+00	0	26	104	0	72	23468
2026-01-11 02:51:30.54	11.70	23.22	-53.5	-69.4	3.8	1.49e+00	0	26	104	0	72	23468
2026-01-11 02:51:33.55	11.12	23.55	-53.5	-69.4	3.8	1.49e+00	0	26	104	0	72	23451
2026-01-11 02:51:36.54	10.53	23.87	-53.5	-69.4	3.8	1.49e+00	0	26	104	0	72	23399
2026-01-11 02:51:39.55	9.92	24.19	-53.5	-69.4	3.8	1.49e+00	0	26	104	0	72	23462
2026-01-11 02:51:42.57	9.30	24.52	-53.5	-69.4	3.8	1.49e+00	0	26	104	0	72	23478
2026-01-11 02:51:45.58	8.67	24.84	-53.5	-69.4	3.8	1.49e+00	0	26	104	0	72	23391
2026-01-11 02:51:48.58	8.03	25.16	-53.5	-69.4	3.8	1.49e+00	0	26	104	0	72	23445
2026-01-11 02:51:51.59	7.37	25.49	-53.5	-69.4	3.8	1.49e+00	0	26	104	0	72	23483
2026-01-11 02:51:54.60	6.70	25.81	-53.5	-69.4	3.8	1.49e+00	0	26	104	0	72	23434
2026-01-11 02:51:57.60	6.01	26.13	-53.5	-69.4	3.8	1.49e+00	0	26	104	0	72	23483
2026-01-11 02:52:00.60	5.32	26.46	-53.5	-69.4	3.8	1.49e+00	0	26	104	0	72	23431
2026-01-11 02:52:03.60	4.60	26.78	-53.5	-69.4	3.8	1.49e+00	0	26	104	0	72	23454
2026-01-11 02:52:06.59	3.88	27.09	-53.5	-69.4	3.8	1.49e+00	0	26	104	0	72	23482
2026-01-11 02:52:09.59	3.14	27.41	-53.5	-69.4	3.8	1.49e+00	0	26	104	0	72	23445
2026-01-11 02:52:12.61	2.38	27.73	-53.5	-69.4	3.8	1.49e+00	0	26	104	0	72	23482
2026-01-11 02:52:15.62	1.60	28.05	-53.5	-69.4	3.8	1.49e+00	0	26	104	0	72	23446
2026-01-11 02:52:18.62	0.81	28.36	-53.5	-69.4	3.8	1.49e+00	0	26	104	0	72	23429
2026-01-11 02:52:21.62	0.01	28.67	-53.5	-69.4	3.8	1.49e+00	0	26	104	0	72	23465
2026-01-11 02:52:24.64	359.19	28.97	-53.5	-69.4	3.8	1.49e+00	0	26	104	0	72	23486
2026-01-11 02:52:27.64	358.35	29.28	-53.5	-69.4	3.8	1.49e+00	0	26	104	0	72	23476
2026-01-11 02:52:30.65	357.50	29.58	-53.5	-69.4	3.8	1.49e+00	0	27	104	0	72	23449
2026-01-11 02:52:33.65	356.63	29.87	-53.5	-69.4	3.8	1.49e+00	0	26	104	0	72	23455
2026-01-11 02:52:36.65	355.75	30.16	-53.5	-69.4	3.8	1.49e+00	0	26	104	0	72	23486
2026-01-11 02:52:39.65	354.85	30.45	-53.5	-69.4	3.8	1.49e+00	0	26	104	0	72	23482
2026-01-11 02:52:42.66	353.93	30.73	-53.5	-69.4	3.8	1.49e+00	0	26	104	0	72	23461
2026-01-11 02:52:45.67	353.00	31.00	-53.5	-69.4	3.8	1.49e+00	0	26	104	0	72	23482
2026-01-11 02:52:48.67	352.05	31.27	-53.5	-69.4	3.8	1.49e+00	0	26	104	0	72	23495
2026-01-11 02:52:51.68	351.08	31.53	-53.5	-69.4	3.8	1.49e+00	0	26	104	0	72	23438
2026-01-11 02:52:54.69	350.10	31.79	-53.5	-69.4	3.8	1.49e+00	0	26	104	0	72	23515
2026-01-11 02:52:57.69	349.11	32.03	-53.5	-69.4	3.8	1.49e+00	0	26	104	0	72	23483
2026-01-11 02:53:00.69	348.10	32.27	-53.5	-69.4	3.8	1.49e+00	0	27	104	0	72	23489
2026-01-11 02:53:03.70	347.07	32.50	-53.5	-69.4	3.8	1.49e+00	0	26	104	0	72	23506
2026-01-11 02:53:06.70	346.04	32.72	-53.5	-69.4	3.8	1.49e+00	0	26	104	0	72	23407
2026-01-11 02:53:09.70	344.98	32.94	-53.5	-69.4	3.8	1.49e+00	0	26	104	0	72	23425
2026-01-11 02:53:12.69	343.92	33.14	-53.5	-69.4	3.8	1.49e+00	0	26	104	0	72	23498
2026-01-11 02:53:15.69	342.84	33.33	-53.5	-69.4	3.8	1.49e+00	0	26	104	0	72	23476
2026-01-11 02:53:18.69	341.75	33.51	-53.5	-69.4	3.8	1.49e+00	0	26	104	0	72	23416
2026-01-11 02:53:21.69	340.65	33.68	-53.5	-69.4	3.8	1.49e+00	0	26	104	0	72	23493
2026-01-11 02:53:24.70	339.53	33.84	-53.5	-69.4	3.8	1.49e+00	0	26	104	0	72	23484
2026-01-11 02:53:27.71	338.40	33.99	-53.5	-69.4	3.8	1.49e+00	0	26	104	0	72	23456
2026-01-11 02:53:30.73	337.26	34.13	-53.5	-69.4	3.8	1.49e+00	0	26	104	0	72	23457
2026-01-11 02:53:33.72	336.12	34.25	-53.5	-69.4	3.8	1.49e+00	0	26	104	0	72	23400
2026-01-11 02:53:36.72	334.96	34.36	-53.5	-69.4	3.8	1.49e+00	0	26	104	0	72	23374
2026-01-11 02:53:39.72	333.80	34.46	-53.5	-69.4	3.8	1.49e+00	0	26	104	0	72	23460
2026-01-11 02:53:42.72	332.64	34.54	-53.5	-69.4	3.8	1.49e+00	0	26	104	0	72	23399
2026-01-11 02:53:45.73	331.46	34.61	-53.5	-69.4	3.8	1.49e+00	0	26	104	0	72	23462
2026-01-11 02:53:48.73	330.28	34.67	-53.5	-69.4	3.8	1.49e+00	0	26	104	0	72	23437
2026-01-11 02:53:51.74	329.10	34.71	-53.5	-69.4	3.8	1.49e+00	0	26	104	0	72	23399
2026-01-11 02:53:54.76	327.91	34.74	-53.5	-69.4	3.8	1.49e+00	0	26	104	0	72	23415
2026-01-11 02:53:57.76	326.72	34.76	-53.5	-69.4	3.8	1.49e+00	0	26	104	0	72	23485
2026-01-11 02:54:00.78	325.53	34.76	-53.5	-69.4	3.8	1.49e+00	0	26	104	0	72	23471
2026-01-11 02:54:03.77	324.35	34.75	-53.5	-69.4	3.8	1.49e+00	0	26	104	0	72	23435
2026-01-11 02:54:06.77	323.16	34.72	-53.5	-69.4	3.8	1.49e+00	0	26	104	0	72	23441
2026-01-11 02:54:09.77	321.98	34.68	-53.5	-69.4	3.8	1.49e+00	0	26	104	0	72	23487
2026-01-11 02:54:12.77	320.80	34.63	-53.5	-69.4	3.8	1.49e+00	0	26	104	0	72	23473
2026-01-11 02:54:15.77	319.63	34.56	-53.5	-69.4	3.8	1.49e+00	0	26	104	0	72	23467
2026-01-11 02:54:18.75	318.47	34.48	-53.5	-69.4	3.8	1.49e+00	0	26	104	0	72	23476
2026-01-11 02:54:21.76	317.30	34.39	-53.5	-69.4	3.8	1.49e+00	0	26	104	0	72	23459
2026-01-11 02:54:24.76	316.15	34.28	-53.5	-69.4	3.8	1.49e+00	0	26	104	0	72	23406
2026-01-11 02:54:27.77	315.00	34.16	-53.5	-69.4	3.8	1.49e+00	0	26	104	0	72	23403
2026-01-11 02:54:30.77	313.86	34.02	-53.5	-69.4	3.8	1.49e+00	0	26	104	0	72	23450
2026-01-11 02:54:33.77	312.73	33.88	-53.5	-69.4	3.8	1.49e+00	0	26	104	0	72	23504
2026-01-11 02:54:36.79	311.60	33.72	-53.5	-69.4	3.8	1.49e+00	0	26	104	0	72	23399
2026-01-11 02:54:39.79	310.50	33.55	-53.5	-69.4	3.8	1.49e+00	0	26	104	0	72	23428
2026-01-11 02:54:42.79	309.40	33.37	-53.5	-69.4	3.8	1.49e+00	0	26	104	0	72	23381
2026-01-11 02:54:45.78	308.32	33.19	-53.5	-69.4	3.8	1.49e+00	0	26	104	0	72	23398
2026-01-11 02:54:48.80	307.24	32.98	-53.5	-69.4	3.8	1.49e+00	0	26	104	0	72	23425
2026-01-11 02:54:51.80	306.19	32.77	-53.5	-69.4	3.8	1.49e+00	0	26	104	0	72	23410
2026-01-11 02:54:54.80	305.15	32.55	-53.5	-69.4	3.8	1.49e+00	0	26	104	0	72	23480
2026-01-11 02:54:57.81	304.11	32.33	-53.5	-69.4	3.8	1.49e+00	0	26	104	0	72	23435
2026-01-11 02:55:00.81	303.10	32.09	-53.5	-69.4	3.8	1.49e+00	0	26	104	0	72	23438
2026-01-11 02:55:03.82	302.10	31.84	-53.5	-69.4	3.8	1.49e+00	0	26	104	0	72	23443
2026-01-11 02:55:06.83	301.11	31.59	-53.5	-69.4	3.8	1.49e+00	0	26	104	0	72	23473
2026-01-11 02:55:09.83	300.15	31.33	-53.5	-69.4	3.8	1.49e+00	0	26	104	0	72	23470
2026-01-11 02:55:12.83	299.19	31.06	-53.5	-69.4	3.8	1.49e+00	0	26	104	0	72	23450
2026-01-11 02:55:15.84	298.26	30.79	-53.5	-69.4	3.8	1.49e+00	0	26	104	0	72	23396
2026-01-11 02:55:18.85	297.33	30.51	-53.5	-69.4	3.8	1.49e+00	0	26	104	0	72	23400
2026-01-11 02:55:21.84	296.43	30.23	-53.5	-69.4	3.8	1.49e+00	0	26	104	0	72	23421
2026-01-11 02:55:24.84	295.54	29.94	-53.5	-69.4	3.8	1.49e+00	0	26	104	0	72	23470
2026-01-11 02:55:27.85	294.67	29.64	-53.5	-69.4	3.8	1.49e+00	0	26	104	0	72	23446
2026-01-11 02:55:30.85	293.81	29.34	-53.5	-69.4	3.8	1.49e+00	0	26	104	0	72	23443
2026-01-11 02:55:33.85	292.97	29.04	-53.5	-69.4	3.8	1.49e+00	0	26	104	0	72	23445
2026-01-11 02:55:36.85	292.15	28.74	-53.5	-69.4	3.8	1.49e+00	0	26	104	0	72	23433
2026-01-11 02:55:39.86	291.34	28.43	-53.5	-69.4	3.8	1.49e+00	0	26	104	0	72	23386
2026-01-11 02:55:42.86	290.54	28.11	-53.5	-69.4	3.8	1.49e+00	0	26	104	0	72	23386
2026-01-11 02:55:45.85	289.77	27.80	-53.5	-69.4	3.8	1.49e+00	0	27	104	0	72	23390
2026-01-11 02:55:48.84	289.01	27.49	-53.5	-69.4	3.8	1.49e+00	0	27	104	0	72	23324
2026-01-11 02:55:51.84	288.26	27.17	-53.5	-69.4	3.8	1.49e+00	0	26	104	0	72	23437
2026-01-11 02:55:54.85	287.53	26.85	-53.5	-69.4	3.8	1.49e+00	0	26	104	0	72	23414
2026-01-11 02:55:57.86	286.81	26.52	-53.5	-69.4	3.8	1.49e+00	0	26	104	0	72	23396
2026-01-11 02:56:00.86	286.11	26.20	-53.5	-69.4	3.8	1.49e+00	0	26	104	0	72	23334
2026-01-11 02:56:03.86	285.42	25.88	-53.5	-69.4	3.8	1.49e+00	0	26	104	0	72	23398
2026-01-11 02:56:06.85	284.75	25.56	-53.5	-69.4	3.8	1.49e+00	0	26	104	0	72	23374
2026-01-11 02:56:09.87	284.08	25.23	-53.5	-69.4	3.8	1.49e+00	0	26	104	0	72	23393
2026-01-11 02:56:12.87	283.43	24.91	-53.5	-69.4	3.8	1.49e+00	0	26	104	0	72	23372
2026-01-11 02:56:15.87	282.80	24.58	-53.5	-69.4	3.8	1.49e+00	0	26	104	0	72	23424
2026-01-11 02:56:18.87	282.18	24.26	-53.5	-69.4	3.8	1.49e+00	0	26	104	0	72	23365
2026-01-11 02:56:21.87	281.57	23.94	-53.5	-69.4	3.8	1.49e+00	0	26	104	0	72	23391
2026-01-11 02:56:24.86	280.98	23.61	-53.5	-69.4	3.8	1.49e+00	0	26	104	0	72	23365
2026-01-11 02:56:27.87	280.39	23.29	-53.5	-69.4	3.8	1.49e+00	0	26	104	0	72	23399
2026-01-11 02:56:30.89	279.82	22.97	-53.5	-69.4	3.8	1.49e+00	0	26	104	0	72	23473
2026-01-11 02:56:33.88	279.26	22.65	-53.5	-69.4	3.8	1.49e+00	0	26	104	0	72	23437
2026-01-11 02:56:36.89	278.71	22.33	-53.5	-69.4	3.8	1.49e+00	0	26	104	0	72	23405
2026-01-11 02:56:39.89	278.17	22.01	-53.5	-69.4	3.8	1.49e+00	0	26	104	0	72	23516
2026-01-11 02:56:42.88	277.65	21.69	-53.5	-69.4	3.8	1.49e+00	0	26	104	0	72	23422
2026-01-11 02:56:45.88	277.14	21.38	-53.5	-69.4	3.8	1.49e+00	0	26	104	0	72	23412
2026-01-11 02:56:48.87	276.63	21.07	-53.5	-69.4	3.8	1.49e+00	0	26	104	0	72	23481
2026-01-11 02:56:51.87	276.14	20.75	-53.5	-69.4	3.8	1.49e+00	0	26	104	0	72	23398
2026-01-11 02:56:54.88	275.65	20.44	-53.5	-69.4	3.8	1.49e+00	0	26	104	0	72	23437
2026-01-11 02:56:57.88	275.18	20.13	-53.5	-69.4	3.8	1.49e+00	0	26	104	0	72	23422
2026-01-11 02:57:00.87	274.72	19.83	-53.5	-69.4	3.8	1.49e+00	0	26	104	0	72	23428
2026-01-11 02:57:03.88	274.26	19.52	-53.5	-69.4	3.8	1.49e+00	0	26	104	0	72	23398
2026-01-11 02:57:06.89	273.81	19.22	-53.5	-69.4	3.8	1.49e+00	0	26	104	0	72	23479
2026-01-11 02:57:09.90	273.37	18.91	-53.5	-69.4	3.8	1.49e+00	0	26	104	0	72	23400
2026-01-11 02:57:12.89	272.95	18.61	-53.5	-69.4	3.8	1.49e+00	0	26	104	0	72	23413
2026-01-11 02:57:15.89	272.53	18.32	-53.5	-69.4	3.8	1.49e+00	0	26	104	0	72	23424
2026-01-11 02:57:18.89	272.11	18.02	-53.5	-69.4	3.9	1.49e+00	0	26	104	0	72	23454
2026-01-11 02:57:21.89	271.71	17.73	-53.5	-69.4	3.8	1.49e+00	0	26	104	0	72	23447
2026-01-11 02:57:24.89	271.32	17.43	-53.5	-69.4	3.8	1.49e+00	0	26	104	0	72	23376
2026-01-11 02:57:27.90	270.93	17.14	-53.5	-69.4	3.8	1.49e+00	0	26	104	0	72	23461
2026-01-11 02:57:30.90	270.55	16.86	-53.5	-69.4	3.8	1.49e+00	0	26	104	0	72	23424
2026-01-11 02:57:33.90	270.17	16.57	-53.5	-69.4	3.8	1.49e+00	0	26	104	0	72	23425
2026-01-11 02:57:36.89	269.81	16.29	-53.5	-69.4	3.8	1.49e+00	0	26	104	0	72	23368
2026-01-11 02:57:39.90	269.45	16.00	-53.5	-69.4	3.8	1.49e+00	0	26	104	0	72	23394
2026-01-11 02:57:42.90	269.10	15.72	-53.5	-69.4	3.8	1.49e+00	0	26	104	0	72	23393
2026-01-11 02:57:45.89	268.75	15.45	-53.5	-69.4	3.8	1.49e+00	0	26	104	0	72	23441
2026-01-11 02:57:48.91	268.41	15.17	-53.5	-69.4	3.8	1.49e+00	0	26	104	0	72	23372
2026-01-11 02:57:51.92	268.08	14.90	-53.5	-69.4	3.8	1.49e+00	0	26	104	0	72	23421
2026-01-11 02:57:54.92	267.75	14.63	-53.5	-69.4	3.8	1.49e+00	0	26	104	0	72	23459
2026-01-11 02:57:57.93	267.43	14.36	-53.5	-69.4	3.8	1.49e+00	0	26	104	0	72	23380
2026-01-11 02:58:00.93	267.11	14.09	-53.5	-69.4	3.8	1.49e+00	0	26	104	0	72	23407
2026-01-11 02:58:03.92	266.81	13.82	-53.5	-69.4	3.8	1.49e+00	0	26	104	0	72	23413
2026-01-11 02:58:06.92	266.50	13.56	-53.5	-69.4	3.8	1.49e+00	0	26	104	0	72	23472
2026-01-11 02:58:09.92	266.20	13.30	-53.5	-69.4	3.8	1.49e+00	0	26	104	0	72	23395
2026-01-11 02:58:12.90	265.91	13.04	-53.5	-69.4	3.8	1.49e+00	0	26	104	0	72	23445
2026-01-11 02:58:15.89	265.63	12.79	-53.5	-69.4	3.8	1.49e+00	0	26	104	0	72	23404
2026-01-11 02:58:18.90	265.34	12.53	-53.5	-69.4	3.8	1.49e+00	0	26	104	0	72	23443
2026-01-11 02:58:21.91	265.07	12.28	-53.5	-69.4	3.8	1.49e+00	0	26	104	0	72	23490
2026-01-11 02:58:24.91	264.79	12.03	-53.5	-69.4	3.8	1.49e+00	0	26	104	0	72	23432
2026-01-11 02:58:27.90	264.53	11.78	-53.5	-69.4	3.8	1.49e+00	0	26	104	0	72	23430
2026-01-11 02:58:30.92	264.26	11.53	-53.5	-69.4	3.8	1.49e+00	0	26	104	0	72	23379
2026-01-11 02:58:33.91	264.01	11.28	-53.5	-69.4	3.8	1.49e+00	0	26	104	0	72	23404
2026-01-11 02:58:36.91	263.75	11.04	-53.5	-69.4	3.8	1.49e+00	0	26	104	0	72	23429
2026-01-11 02:58:39.92	263.50	10.80	-53.5	-69.4	3.8	1.49e+00	0	26	104	0	72	23378
2026-01-11 02:58:42.92	263.26	10.56	-53.5	-69.4	3.8	1.49e+00	0	26	104	0	72	23351
2026-01-11 02:58:45.92	263.01	10.32	-53.5	-69.4	3.8	1.49e+00	0	26	104	0	72	23442
2026-01-11 02:58:48.92	262.78	10.08	-53.5	-69.4	3.8	1.49e+00	0	26	104	0	72	23376
2026-01-11 02:58:51.92	262.54	9.85	-53.5	-69.4	3.8	1.49e+00	0	26	104	0	72	23416
2026-01-11 02:58:54.92	262.31	9.62	-53.5	-69.4	3.8	1.49e+00	0	26	104	0	72	23440
2026-01-11 02:58:57.93	262.09	9.38	-53.5	-69.4	3.8	1.49e+00	0	26	104	0	72	23387
2026-01-11 02:59:00.94	261.86	9.15	-53.5	-69.4	3.8	1.49e+00	0	26	104	0	72	23406
2026-01-11 02:59:03.94	261.65	8.93	-53.5	-69.4	3.8	1.49e+00	0	26	104	0	72	23382
2026-01-11 02:59:06.94	261.43	8.70	-53.5	-69.4	3.8	1.49e+00	0	26	104	0	72	23399
2026-01-11 02:59:09.93	261.22	8.48	-53.5	-69.4	3.8	1.49e+00	0	26	104	0	72	23423
2026-01-11 02:59:12.93	261.01	8.25	-53.5	-69.4	3.8	1.49e+00	0	26	104	0	72	23406
2026-01-11 02:59:15.94	260.81	8.03	-53.5	-69.4	3.8	1.49e+00	0	26	104	0	72	23465
2026-01-11 02:59:18.93	260.61	7.81	-53.5	-69.4	3.8	1.49e+00	0	26	104	0	72	23485
2026-01-11 02:59:21.92	260.41	7.59	-53.5	-69.4	3.8	1.49e+00	0	26	104	0	72	23474
2026-01-11 02:59:24.92	260.21	7.38	-53.5	-69.4	3.8	1.49e+00	0	26	104	0	72	23486
2026-01-11 02:59:27.92	260.02	7.16	-53.5	-69.4	3.8	1.49e+00	0	26	104	0	72	23511
2026-01-11 02:59:30.93	259.83	6.95	-53.5	-69.4	3.8	1.49e+00	0	26	104	0	72	23458
2026-01-11 02:59:33.94	259.64	6.73	-53.5	-69.4	3.8	1.49e+00	0	26	104	0	72	23452
2026-01-11 02:59:36.94	259.46	6.52	-53.5	-69.4	3.8	1.49e+00	0	26	104	0	72	23408
2026-01-11 02:59:39.95	259.28	6.31	-53.5	-69.4	3.8	1.49e+00	0	26	104	0	72	23472
2026-01-11 02:59:42.95	259.10	6.11	-53.5	-69.4	3.8	1.49e+00	0	26	104	0	72	23454
2026-01-11 02:59:45.95	258.92	5.90	-53.5	-69.4	3.8	1.49e+00	0	26	104	0	72	23508
2026-01-11 02:59:48.97	258.75	5.69	-53.5	-69.4	3.8	1.49e+00	0	26	104	0	72	23492
2026-01-11 02:59:51.96	258.58	5.49	-53.5	-69.4	3.8	1.49e+00	0	26	104	0	72	23434
2026-01-11 02:59:54.96	258.41	5.29	-53.5	-69.4	3.8	1.49e+00	0	26	104	0	72	23471
2026-01-11 02:59:57.96	258.25	5.09	-53.5	-69.4	3.8	1.49e+00	0	26	104	0	72	23500
2026-01-11 03:00:00.96	258.08	4.89	-53.5	-69.4	3.8	1.49e+00	0	26	104	0	72	23451
2026-01-11 03:00:03.96	257.92	4.69	-53.5	-69.4	3.8	1.49e+00	0	26	104	0	72	23465
2026-01-11 03:00:06.97	257.76	4.49	-53.5	-69.4	3.8	1.49e+00	0	26	104	0	72	23532
2026-01-11 03:00:09.97	257.61	4.29	-53.5	-69.4	3.8	1.49e+00	0	26	104	0	72	23466
2026-01-11 03:00:12.98	257.45	4.10	-53.5	-69.4	3.8	1.49e+00	0	26	104	0	72	23464
2026-01-11 03:00:15.98	257.30	3.90	-53.5	-69.4	3.8	1.49e+00	0	26	104	0	72	23472
2026-01-11 03:00:18.99	257.15	3.71	-53.5	-69.4	3.8	1.49e+00	0	26	104	0	72	23519
2026-01-11 03:00:21.99	257.00	3.52	-53.5	-69.4	3.8	1.49e+00	0	27	104	0	72	23484
2026-01-11 03:00:24.99	256.86	3.33	-53.5	-69.4	3.8	1.49e+00	0	26	104	0	72	23555
2026-01-11 03:00:28.00	256.71	3.14	-53.5	-69.4	3.8	1.49e+00	0	26	104	0	72	23535
2026-01-11 03:00:30.99	256.57	2.95	-53.5	-69.4	3.8	1.49e+00	0	26	104	0	72	23551
2026-01-11 03:00:34.00	256.43	2.76	-53.5	-69.4	3.9	1.49e+00	0	26	104	0	72	23470
2026-01-11 03:00:37.01	256.29	2.58	-53.5	-69.4	3.8	1.49e+00	0	27	104	0	72	23508
2026-01-11 03:00:40.02	256.16	2.39	-53.5	-69.4	3.8	1.49e+00	0	26	104	0	72	23473
2026-01-11 03:00:43.03	256.02	2.21	-53.5	-69.4	3.8	1.49e+00	0	26	104	0	72	23508
2026-01-11 03:00:46.03	255.89	2.02	-53.5	-69.4	3.8	1.49e+00	0	26	104	0	72	23527

#Closed at: 2026-01-11 03:00:47
#Recorded file [0 MB]: D:/lorett/data/31004_260111_054711.dat