passes_logs/2026/01/11/R3.2S_Murmansk/R3.2S_Murmansk__20260111_042647_NOAA_20_JPSS-1_rec.log

#Pass ID: 20260111_042647_NOAA 20 (JPSS-1)
#Satellite: NOAA 20 (JPSS-1)
#Configuration: NOAA 20
#almurnet v.1.7.20251203
#Start time: 2026-01-11 04:26:49

#Version: 2.2.20231116
#Station: R3.2S_Murmansk
#Location: 33.079688 lon 68.888172 lat
#TLE: 1 43013U 17073A   26009.69119415  .00000109  00000+0  72598-4 0  9996
#TLE: 2 43013  98.7631 310.6868 0001678  46.7442 313.3874 14.19534878421981

#Time	Az	El	Level	Level2	SNR	BER	BlckErr	Temp	State	Recorded	gain1	gain2
2026-01-11 04:26:49.22	52.21	2.12	-57.4	-73.4	3.8	1.49e+00	0	23	0	0	81	22025
2026-01-11 04:26:53.19	51.96	2.35	-57.3	-73.3	3.8	1.49e+00	0	23	104	0	79	24684
2026-01-11 04:26:57.15	51.70	2.57	-57.3	-73.3	3.8	1.49e+00	0	23	104	0	79	24537
2026-01-11 04:27:01.14	51.45	2.81	-57.3	-73.3	3.8	1.49e+00	0	23	104	0	79	24589
2026-01-11 04:27:05.09	51.18	3.04	-57.3	-73.3	3.8	1.49e+00	0	23	104	0	79	24564
2026-01-11 04:27:09.08	50.92	3.27	-57.3	-73.4	3.8	1.49e+00	0	23	104	0	79	24709
2026-01-11 04:27:13.04	50.64	3.50	-57.3	-73.3	3.8	1.49e+00	0	24	104	0	79	24535
2026-01-11 04:27:17.00	50.37	3.74	-57.3	-73.3	3.8	1.49e+00	0	24	104	0	79	24650
2026-01-11 04:27:20.96	50.09	3.97	-57.3	-73.3	3.8	1.49e+00	0	24	104	0	79	24495
2026-01-11 04:27:24.92	49.80	4.21	-57.3	-73.3	3.8	1.49e+00	0	24	104	0	79	24675
2026-01-11 04:27:28.87	49.52	4.45	-57.3	-72.6	3.8	1.49e+00	0	24	104	0	79	22595
2026-01-11 04:27:32.84	49.22	4.69	-57.2	-70.0	4.1	1.41e+00	0	24	0	0	79	16752
2026-01-11 04:27:36.81	48.92	4.93	-56.9	-66.9	5.4	5.65e-01	0	24	0	6291456	79	11710
2026-01-11 04:27:40.79	48.61	5.18	-57.2	-71.0	4.0	8.45e-02	0	24	0	13631488	79	18750
2026-01-11 04:27:44.80	48.30	5.43	-55.4	-60.0	11.1	4.36e-04	0	24	0	16777216	77	5984
2026-01-11 04:27:48.78	47.98	5.67	-54.4	-57.9	12.6	7.00e-07	0	24	0	25165824	75	5220
2026-01-11 04:27:52.79	47.65	5.93	-54.1	-57.3	12.9	0.00e+00	0	24	0	32505856	74	5206
2026-01-11 04:27:56.77	47.32	6.18	-54.1	-57.2	13.0	0.00e+00	0	24	0	39845888	74	5148
2026-01-11 04:28:00.73	46.99	6.43	-54.1	-57.2	13.1	0.00e+00	0	24	0	47185920	74	5104
2026-01-11 04:28:04.70	46.65	6.68	-54.0	-57.0	13.2	0.00e+00	0	24	0	54525952	74	5015
2026-01-11 04:28:08.67	46.30	6.93	-54.0	-57.1	13.2	0.00e+00	0	25	0	61865984	74	5052
2026-01-11 04:28:12.63	45.95	7.19	-53.7	-56.6	13.5	0.00e+00	0	25	0	69206016	74	4768
2026-01-11 04:28:16.60	45.59	7.45	-54.0	-57.0	13.3	0.00e+00	0	25	0	76546048	74	4989
2026-01-11 04:28:20.58	45.22	7.71	-54.0	-56.9	13.3	0.00e+00	0	25	0	83886080	74	4964
2026-01-11 04:28:24.53	44.85	7.97	-53.9	-56.8	13.4	0.00e+00	0	25	0	91226112	74	4887
2026-01-11 04:28:28.51	44.47	8.23	-53.8	-56.6	13.5	0.00e+00	0	25	0	99614720	74	4801
2026-01-11 04:28:32.50	44.08	8.49	-53.9	-56.7	13.5	0.00e+00	0	25	0	106954752	74	4857
2026-01-11 04:28:36.49	43.69	8.76	-53.7	-56.5	13.6	0.00e+00	0	25	0	114294784	74	4716
2026-01-11 04:28:40.48	43.28	9.03	-53.6	-56.2	13.7	0.00e+00	0	25	0	121634816	73	4853
2026-01-11 04:28:44.49	42.87	9.30	-53.3	-55.8	13.9	0.00e+00	0	25	0	128974848	73	4620
2026-01-11 04:28:48.48	42.45	9.57	-53.5	-56.1	13.8	0.00e+00	0	25	0	136314880	73	4768
2026-01-11 04:28:52.48	42.02	9.84	-53.4	-55.9	13.9	0.00e+00	0	25	0	143654912	73	4666
2026-01-11 04:28:56.48	41.58	10.11	-53.5	-56.0	13.8	0.00e+00	0	25	0	152043520	73	4747
2026-01-11 04:29:00.47	41.14	10.39	-53.5	-56.1	13.8	0.00e+00	0	25	0	159383552	73	4797
2026-01-11 04:29:04.46	40.68	10.66	-53.7	-56.3	13.6	0.00e+00	0	25	0	166723584	73	4900
2026-01-11 04:29:08.47	40.22	10.94	-53.6	-56.1	13.8	0.00e+00	0	25	0	174063616	73	4792
2026-01-11 04:29:12.45	39.75	11.22	-53.4	-55.9	13.9	0.00e+00	0	25	0	181403648	73	4678
2026-01-11 04:29:16.45	39.27	11.50	-53.4	-55.8	14.0	0.00e+00	0	25	0	188743680	73	4639
2026-01-11 04:29:20.44	38.78	11.78	-53.3	-55.8	14.0	0.00e+00	0	25	0	196083712	73	4600
2026-01-11 04:29:24.42	38.28	12.06	-53.3	-55.6	14.1	0.00e+00	0	25	0	204472320	73	4540
2026-01-11 04:29:28.40	37.77	12.35	-53.1	-55.5	14.0	0.00e+00	0	25	0	211812352	72	4715
2026-01-11 04:29:32.39	37.25	12.63	-53.0	-55.3	14.2	0.00e+00	0	25	0	219152384	72	4611
2026-01-11 04:29:36.37	36.72	12.91	-53.0	-55.3	14.2	0.00e+00	0	25	0	226492416	72	4645
2026-01-11 04:29:40.36	36.18	13.20	-52.9	-55.1	14.2	0.00e+00	0	25	0	233832448	72	4538
2026-01-11 04:29:44.34	35.63	13.49	-52.8	-55.0	14.4	0.00e+00	0	25	0	241172480	72	4450
2026-01-11 04:29:48.34	35.06	13.77	-52.6	-54.7	14.4	0.00e+00	0	25	0	248512512	71	4552
2026-01-11 04:29:52.33	34.49	14.06	-52.5	-54.6	14.4	0.00e+00	0	25	0	255852544	71	4517
2026-01-11 04:29:56.33	33.90	14.35	-52.4	-54.4	14.6	0.00e+00	0	25	0	264241152	71	4417
2026-01-11 04:30:00.33	33.30	14.64	-52.6	-54.7	14.4	0.00e+00	0	25	0	271581184	71	4556
2026-01-11 04:30:04.33	32.69	14.93	-52.8	-54.9	14.3	0.00e+00	0	25	0	278921216	71	4684
2026-01-11 04:30:08.31	32.07	15.22	-52.8	-54.9	14.3	0.00e+00	0	25	0	286261248	71	4702
2026-01-11 04:30:12.31	31.44	15.51	-52.9	-55.1	14.2	0.00e+00	0	25	0	293601280	71	4772
2026-01-11 04:30:16.30	30.79	15.79	-53.0	-55.3	14.1	0.00e+00	0	25	0	300941312	71	4885
2026-01-11 04:30:20.30	30.13	16.08	-53.0	-55.3	14.1	0.00e+00	0	25	0	308281344	71	4873
2026-01-11 04:30:24.29	29.46	16.37	-53.0	-55.3	14.1	0.00e+00	0	25	0	316669952	71	4877
2026-01-11 04:30:28.28	28.77	16.66	-53.1	-55.4	14.0	0.00e+00	0	25	0	324009984	71	4928
2026-01-11 04:30:32.27	28.07	16.94	-53.2	-55.5	14.0	0.00e+00	0	25	0	331350016	71	4996
2026-01-11 04:30:36.25	27.36	17.23	-53.3	-55.6	13.9	0.00e+00	0	25	0	338690048	71	5087
2026-01-11 04:30:40.24	26.63	17.51	-53.2	-55.5	14.0	0.00e+00	0	25	0	346030080	71	5006
2026-01-11 04:30:44.22	25.90	17.79	-53.2	-55.4	14.0	0.00e+00	0	25	0	353370112	71	4978
2026-01-11 04:30:48.22	25.14	18.07	-53.0	-55.3	14.1	0.00e+00	0	25	0	360710144	71	4875
2026-01-11 04:30:52.23	24.37	18.35	-52.9	-55.0	14.3	0.00e+00	0	25	0	369098752	71	4728
2026-01-11 04:30:56.22	23.58	18.63	-52.4	-54.4	14.6	0.00e+00	0	25	0	376438784	71	4434
2026-01-11 04:31:00.19	22.79	18.90	-51.9	-53.7	14.8	0.00e+00	0	25	0	383778816	70	4311
2026-01-11 04:31:04.19	21.98	19.17	-51.5	-53.2	14.9	0.00e+00	0	25	0	391118848	69	4339
2026-01-11 04:31:08.19	21.15	19.43	-51.4	-53.1	15.0	0.00e+00	0	25	0	398458880	69	4248
2026-01-11 04:31:12.20	20.30	19.70	-51.3	-53.0	15.0	0.00e+00	0	25	0	405798912	69	4208
2026-01-11 04:31:16.20	19.45	19.96	-51.1	-52.7	15.0	0.00e+00	0	25	0	413138944	68	4325
2026-01-11 04:31:20.19	18.58	20.21	-51.0	-52.6	15.0	0.00e+00	0	25	0	421527552	68	4287
2026-01-11 04:31:24.19	17.69	20.46	-50.9	-52.5	15.1	0.00e+00	0	25	0	428867584	68	4214
2026-01-11 04:31:28.17	16.79	20.71	-50.9	-52.5	15.1	0.00e+00	0	25	0	436207616	68	4195
2026-01-11 04:31:32.16	15.88	20.95	-50.8	-52.4	15.1	0.00e+00	0	25	0	443547648	68	4173
2026-01-11 04:31:36.16	14.95	21.18	-51.0	-52.6	15.0	0.00e+00	0	25	0	450887680	68	4269
2026-01-11 04:31:40.14	14.01	21.41	-51.0	-52.6	15.0	0.00e+00	0	25	0	458227712	68	4276
2026-01-11 04:31:44.13	13.05	21.63	-51.1	-52.8	15.0	0.00e+00	0	25	0	465567744	68	4360
2026-01-11 04:31:48.13	12.08	21.85	-50.8	-52.4	15.1	0.00e+00	0	25	0	473956352	68	4178
2026-01-11 04:31:52.13	11.09	22.05	-50.5	-52.0	15.1	0.00e+00	0	25	0	481296384	67	4240
2026-01-11 04:31:56.11	10.10	22.25	-50.5	-52.1	15.1	0.00e+00	0	25	0	488636416	67	4265
2026-01-11 04:32:00.12	9.09	22.45	-50.5	-52.0	15.1	0.00e+00	0	25	0	495976448	67	4228
2026-01-11 04:32:04.11	8.06	22.63	-50.1	-51.6	15.1	0.00e+00	0	25	0	503316480	66	4280
2026-01-11 04:32:08.11	7.03	22.81	-50.2	-51.7	15.1	0.00e+00	0	25	0	510656512	66	4323
2026-01-11 04:32:12.10	5.98	22.97	-50.5	-52.1	14.9	0.00e+00	0	25	0	517996544	66	4505
2026-01-11 04:32:16.10	4.92	23.13	-50.5	-52.1	15.0	0.00e+00	0	25	0	526385152	66	4506
2026-01-11 04:32:20.11	3.85	23.28	-50.8	-52.4	14.8	0.00e+00	0	25	0	533725184	66	4656
2026-01-11 04:32:24.10	2.77	23.42	-51.3	-53.0	14.7	0.00e+00	0	25	0	541065216	67	4722
2026-01-11 04:32:28.08	1.69	23.54	-51.8	-53.6	14.6	0.00e+00	0	25	0	548405248	68	4775
2026-01-11 04:32:32.07	0.60	23.66	-52.0	-53.9	14.6	0.00e+00	0	25	0	555745280	69	4674
2026-01-11 04:32:36.05	359.50	23.76	-51.9	-53.7	14.6	0.00e+00	0	25	0	563085312	69	4595
2026-01-11 04:32:40.03	358.39	23.86	-52.4	-54.4	14.4	0.00e+00	0	25	0	570425344	69	4946
2026-01-11 04:32:44.03	357.27	23.94	-52.4	-54.4	14.5	0.00e+00	0	25	0	578813952	70	4670
2026-01-11 04:32:48.02	356.15	24.01	-52.7	-54.8	14.3	0.00e+00	0	25	0	586153984	70	4884
2026-01-11 04:32:52.02	355.02	24.07	-52.4	-54.3	14.5	0.00e+00	0	25	0	593494016	70	4620
2026-01-11 04:32:56.02	353.89	24.12	-52.4	-54.4	14.5	0.00e+00	0	25	0	600834048	70	4653
2026-01-11 04:33:00.02	352.76	24.15	-52.4	-54.3	14.5	0.00e+00	0	25	0	608174080	70	4624
2026-01-11 04:33:04.02	351.62	24.18	-52.4	-54.3	14.5	0.00e+00	0	25	0	615514112	70	4623
2026-01-11 04:33:08.02	350.48	24.19	-52.0	-53.8	14.8	0.00e+00	0	25	0	622854144	70	4380
2026-01-11 04:33:12.02	349.34	24.18	-52.0	-53.8	14.8	0.00e+00	0	25	0	631242752	70	4380
2026-01-11 04:33:16.01	348.20	24.17	-51.5	-53.2	14.9	0.00e+00	0	25	0	638582784	69	4301
2026-01-11 04:33:20.01	347.07	24.14	-51.5	-53.2	14.9	0.00e+00	0	25	0	645922816	69	4302
2026-01-11 04:33:23.99	345.94	24.11	-51.0	-52.6	15.1	0.00e+00	0	25	0	653262848	68	4262
2026-01-11 04:33:27.99	344.81	24.06	-50.8	-52.4	15.1	0.00e+00	0	25	0	660602880	68	4178
2026-01-11 04:33:31.97	343.68	23.99	-50.3	-51.8	15.3	0.00e+00	0	25	0	667942912	67	4100
2026-01-11 04:33:35.93	342.57	23.92	-50.1	-51.5	15.2	0.00e+00	0	25	0	675282944	66	4241
2026-01-11 04:33:39.91	341.46	23.84	-50.0	-51.5	15.2	0.00e+00	0	25	0	682622976	66	4208
2026-01-11 04:33:43.89	340.36	23.74	-49.9	-51.4	15.2	0.00e+00	0	25	0	691011584	66	4147
2026-01-11 04:33:47.87	339.26	23.63	-50.0	-51.5	15.2	0.00e+00	0	25	0	698351616	66	4227
2026-01-11 04:33:51.88	338.16	23.51	-50.3	-51.9	15.0	0.00e+00	0	25	0	705691648	66	4393
2026-01-11 04:33:55.89	337.07	23.38	-50.5	-52.1	15.0	0.00e+00	0	25	0	713031680	66	4499
2026-01-11 04:33:59.89	336.00	23.24	-50.7	-52.3	14.8	0.00e+00	0	25	0	720371712	66	4619
2026-01-11 04:34:03.89	334.93	23.09	-51.1	-52.8	14.8	0.00e+00	0	25	0	727711744	67	4601
2026-01-11 04:34:07.89	333.87	22.93	-51.2	-52.8	14.8	0.00e+00	0	25	0	735051776	67	4633
2026-01-11 04:34:11.89	332.83	22.76	-51.4	-53.1	14.7	0.00e+00	0	25	0	743440384	67	4772
2026-01-11 04:34:15.89	331.79	22.58	-51.8	-53.6	14.6	0.00e+00	0	25	0	750780416	68	4780
2026-01-11 04:34:19.90	330.77	22.40	-52.0	-53.8	14.6	0.00e+00	0	25	0	758120448	69	4611
2026-01-11 04:34:23.90	329.76	22.20	-52.0	-53.9	14.6	0.00e+00	0	25	0	765460480	69	4667
2026-01-11 04:34:27.87	328.77	22.00	-52.3	-54.2	14.4	0.00e+00	0	26	0	772800512	69	4823
2026-01-11 04:34:31.85	327.80	21.79	-52.1	-54.0	14.6	0.00e+00	0	25	0	780140544	69	4710
2026-01-11 04:34:35.83	326.83	21.58	-52.2	-54.1	14.5	0.00e+00	0	25	0	787480576	69	4806
2026-01-11 04:34:39.82	325.88	21.35	-52.4	-54.4	14.5	0.00e+00	0	25	0	795869184	70	4658
2026-01-11 04:34:43.81	324.94	21.12	-52.1	-54.0	14.7	0.00e+00	0	25	0	803209216	70	4456
2026-01-11 04:34:47.82	324.01	20.89	-52.3	-54.1	14.6	0.00e+00	0	25	0	810549248	70	4535
2026-01-11 04:34:51.80	323.10	20.64	-52.0	-53.8	14.7	0.00e+00	0	25	0	817889280	70	4385
2026-01-11 04:34:55.79	322.21	20.40	-51.6	-53.3	14.8	0.00e+00	0	25	0	825229312	69	4387
2026-01-11 04:34:59.77	321.33	20.15	-51.6	-53.3	14.7	0.00e+00	0	25	0	832569344	69	4377
2026-01-11 04:35:03.76	320.46	19.89	-51.8	-53.6	14.7	0.00e+00	0	25	0	839909376	69	4504
2026-01-11 04:35:07.75	319.61	19.63	-51.7	-53.5	14.8	0.00e+00	0	25	0	847249408	69	4448
2026-01-11 04:35:11.76	318.77	19.37	-51.7	-53.5	14.7	0.00e+00	0	25	0	855638016	69	4481
2026-01-11 04:35:15.76	317.94	19.10	-51.8	-53.5	14.7	0.00e+00	0	25	0	862978048	69	4492
2026-01-11 04:35:19.75	317.13	18.83	-51.8	-53.6	14.7	0.00e+00	0	25	0	870318080	69	4505
2026-01-11 04:35:23.73	316.34	18.56	-51.8	-53.6	14.7	0.00e+00	0	25	0	877658112	69	4541
2026-01-11 04:35:27.72	315.56	18.28	-51.8	-53.6	14.7	0.00e+00	0	25	0	884998144	69	4517
2026-01-11 04:35:31.70	314.80	18.00	-51.7	-53.5	14.8	0.00e+00	0	25	0	892338176	69	4444
2026-01-11 04:35:35.70	314.04	17.72	-51.6	-53.4	14.8	0.00e+00	0	25	0	899678208	69	4414
2026-01-11 04:35:39.67	313.31	17.44	-51.5	-53.3	14.9	0.00e+00	0	25	0	908066816	69	4354
2026-01-11 04:35:43.66	312.59	17.16	-51.4	-53.1	14.9	0.00e+00	0	25	0	915406848	69	4255
2026-01-11 04:35:47.66	311.88	16.87	-51.3	-53.0	15.0	0.00e+00	0	26	0	922746880	69	4198
2026-01-11 04:35:51.67	311.18	16.59	-51.3	-53.0	14.8	0.00e+00	0	25	0	930086912	68	4464
2026-01-11 04:35:55.67	310.49	16.30	-51.0	-52.7	15.0	0.00e+00	0	25	0	937426944	68	4316
2026-01-11 04:35:59.67	309.82	16.01	-50.9	-52.5	15.0	0.00e+00	0	25	0	944766976	68	4232
2026-01-11 04:36:03.68	309.16	15.72	-50.9	-52.6	15.0	0.00e+00	0	25	0	952107008	68	4251
2026-01-11 04:36:07.67	308.52	15.43	-51.0	-52.7	15.0	0.00e+00	0	25	0	960495616	68	4306
2026-01-11 04:36:11.66	307.89	15.14	-50.9	-52.6	15.0	0.00e+00	0	25	0	967835648	68	4256
2026-01-11 04:36:15.67	307.26	14.85	-51.0	-52.6	15.0	0.00e+00	0	25	0	975175680	68	4289
2026-01-11 04:36:19.68	306.65	14.56	-51.1	-52.8	14.9	0.00e+00	0	25	0	982515712	68	4341
2026-01-11 04:36:23.67	306.06	14.27	-51.2	-52.9	14.9	0.00e+00	0	25	0	989855744	68	4399
2026-01-11 04:36:27.67	305.47	13.99	-51.4	-53.2	14.7	0.00e+00	0	25	0	997195776	68	4574
2026-01-11 04:36:31.68	304.90	13.70	-51.8	-53.7	14.5	0.00e+00	0	25	0	1004535808	68	4816
2026-01-11 04:36:35.67	304.34	13.41	-51.7	-53.5	14.6	0.00e+00	0	25	0	1012924416	68	4727
2026-01-11 04:36:39.66	303.79	13.12	-51.5	-53.3	14.6	0.00e+00	0	26	0	1020264448	68	4640
2026-01-11 04:36:43.64	303.25	12.84	-51.8	-53.7	14.4	0.00e+00	0	25	0	1027604480	68	4838
2026-01-11 04:36:47.63	302.72	12.55	-52.1	-54.0	14.4	0.00e+00	0	25	0	1034944512	69	4745
2026-01-11 04:36:51.62	302.21	12.27	-52.0	-54.0	14.5	0.00e+00	0	25	0	1042284544	69	4707
2026-01-11 04:36:55.61	301.70	11.99	-52.1	-54.0	14.4	0.00e+00	0	25	0	1049624576	69	4749
2026-01-11 04:36:59.61	301.20	11.70	-52.2	-54.2	14.3	0.00e+00	0	25	0	1056964608	69	4845
2026-01-11 04:37:03.61	300.71	11.42	-52.2	-54.3	14.3	0.00e+00	0	26	0	1065353216	69	4873
2026-01-11 04:37:07.63	300.23	11.14	-52.4	-54.4	14.2	0.00e+00	0	26	0	1072693248	69	4979
2026-01-11 04:37:11.62	299.76	10.86	-52.5	-54.7	14.2	0.00e+00	0	25	0	1080033280	70	4830
2026-01-11 04:37:15.61	299.30	10.59	-52.6	-54.8	14.1	0.00e+00	0	25	0	1087373312	70	4912
2026-01-11 04:37:19.61	298.85	10.31	-52.5	-54.6	14.2	0.00e+00	0	25	0	1094713344	70	4765
2026-01-11 04:37:23.60	298.40	10.03	-52.5	-54.6	14.2	0.00e+00	0	25	0	1102053376	70	4807
2026-01-11 04:37:27.60	297.97	9.76	-52.8	-55.0	14.0	0.00e+00	0	25	0	1109393408	70	5035
2026-01-11 04:37:31.57	297.54	9.49	-53.0	-55.3	14.0	0.00e+00	0	25	0	1117782016	71	4895
2026-01-11 04:37:35.57	297.12	9.22	-53.1	-55.5	13.8	0.00e+00	0	25	0	1125122048	71	5041
2026-01-11 04:37:39.55	296.71	8.95	-53.2	-55.7	13.7	0.00e+00	0	25	0	1132462080	71	5136
2026-01-11 04:37:43.55	296.31	8.68	-53.4	-56.0	13.5	0.00e+00	0	26	0	1139802112	71	5308
2026-01-11 04:37:47.53	295.92	8.42	-53.6	-56.3	13.4	0.00e+00	0	25	0	1147142144	72	5208
2026-01-11 04:37:51.51	295.53	8.16	-53.5	-56.2	13.5	0.00e+00	0	25	0	1154482176	72	5119
2026-01-11 04:37:55.51	295.15	7.89	-53.5	-56.1	13.6	0.00e+00	0	25	0	1161822208	72	5045
2026-01-11 04:37:59.50	294.77	7.63	-53.5	-56.1	13.6	0.00e+00	0	25	0	1170210816	72	5058
2026-01-11 04:38:03.51	294.41	7.37	-53.6	-56.3	13.4	0.00e+00	0	25	0	1177550848	72	5171
2026-01-11 04:38:07.51	294.04	7.11	-53.8	-56.7	13.2	0.00e+00	0	26	0	1184890880	72	5416
2026-01-11 04:38:11.52	293.69	6.85	-53.9	-56.8	13.1	0.00e+00	0	25	0	1192230912	72	5471
2026-01-11 04:38:15.51	293.34	6.60	-54.0	-57.0	13.1	0.00e+00	0	26	0	1199570944	73	5302
2026-01-11 04:38:19.51	293.00	6.34	-54.1	-57.2	13.0	0.00e+00	0	25	0	1206910976	73	5415
2026-01-11 04:38:23.52	292.66	6.09	-54.2	-57.4	12.8	0.00e+00	0	25	0	1214251008	73	5575
2026-01-11 04:38:27.52	292.34	5.84	-54.5	-57.8	12.6	7.00e-07	0	25	0	1222639616	74	5523
2026-01-11 04:38:31.50	292.01	5.59	-54.3	-57.6	12.7	7.00e-07	0	25	0	1229979648	74	5373
2026-01-11 04:38:35.51	291.69	5.34	-54.5	-58.0	12.4	0.00e+00	0	26	0	1237319680	74	5634
2026-01-11 04:38:39.47	291.38	5.10	-54.6	-58.3	12.2	1.50e-06	0	25	0	1244659712	74	5792
2026-01-11 04:38:43.46	291.08	4.85	-58.5	-74.5	3.8	1.49e+00	0	25	104	1248854016	82	23721
2026-01-11 04:38:47.44	290.78	4.61	-59.2	-75.2	3.8	1.49e+00	0	25	104	1248854016	83	24298
2026-01-11 04:38:51.45	290.48	4.37	-59.6	-75.7	3.8	1.49e+00	0	25	104	1248854016	84	24236
2026-01-11 04:38:55.45	290.19	4.12	-59.9	-75.9	3.8	1.49e+00	0	25	104	1248854016	84	24893
2026-01-11 04:38:59.47	289.90	3.88	-60.0	-76.1	3.8	1.49e+00	0	26	104	1248854016	85	23872
2026-01-11 04:39:03.46	289.62	3.65	-60.1	-76.2	3.8	1.49e+00	0	25	104	1248854016	85	24159
2026-01-11 04:39:07.46	289.34	3.41	-60.1	-76.2	3.8	1.49e+00	0	25	104	1248854016	85	24162
2026-01-11 04:39:11.45	289.07	3.17	-60.0	-76.1	3.8	1.49e+00	0	25	104	1248854016	85	24060
2026-01-11 04:39:15.45	288.80	2.94	-59.9	-76.0	3.8	1.49e+00	0	26	104	1248854016	85	23783
2026-01-11 04:39:19.44	288.54	2.71	-59.9	-76.0	3.8	1.49e+00	0	25	104	1248854016	85	23654
2026-01-11 04:39:23.46	288.28	2.48	-59.9	-76.0	3.8	1.49e+00	0	26	104	1248854016	85	23602
2026-01-11 04:39:27.47	288.03	2.24	-59.9	-75.9	3.8	1.49e+00	0	26	104	1248854016	85	23524
2026-01-11 04:39:31.46	287.78	2.02	-59.8	-75.9	3.8	1.49e+00	0	26	104	1248854016	85	23471

#Closed at: 2026-01-11 04:39:33
#Recorded file [1248 MB]: D:/lorett/data/31004_260111_072649.dat