passes_logs/2026/01/11/R3.2S_Murmansk/R3.2S_Murmansk__20260111_090325_SUOMI_NPP_rec.log

#Pass ID: 20260111_090325_SUOMI NPP
#Satellite: SUOMI NPP
#Configuration: NPP
#almurnet v.1.7.20251203
#Start time: 2026-01-11 09:03:25

#Version: 2.2.20231116
#Station: R3.2S_Murmansk
#Location: 33.079688 lon 68.888172 lat
#TLE: 1 37849U 11061A   26010.94533966  .00000106  00000+0  71276-4 0  9997
#TLE: 2 37849  98.7807 313.0290 0002520  70.6146 289.5303 14.19524339736134

#Time	Az	El	Level	Level2	SNR	BER	BlckErr	Temp	State	Recorded	gain1	gain2
2026-01-11 09:03:25.26	138.89	1.97	-57.0	-72.9	3.8	1.49e+00	0	21	0	0	80	22144
2026-01-11 09:03:29.30	138.85	2.23	-56.9	-72.9	3.8	1.49e+00	0	21	104	0	78	24714
2026-01-11 09:03:33.34	138.80	2.49	-56.9	-72.9	3.8	1.49e+00	0	21	104	0	78	24708
2026-01-11 09:03:37.37	138.75	2.76	-56.9	-72.9	3.8	1.49e+00	0	21	104	0	78	24743
2026-01-11 09:03:41.41	138.71	3.02	-56.9	-72.8	3.8	1.49e+00	0	21	104	0	78	24624
2026-01-11 09:03:45.44	138.66	3.29	-56.9	-72.3	3.8	1.49e+00	0	21	104	0	78	23243
2026-01-11 09:03:49.47	138.61	3.56	-56.8	-69.6	4.1	1.44e+00	0	21	0	0	78	17031
2026-01-11 09:03:53.51	138.56	3.84	-56.5	-66.5	5.3	5.98e-01	0	21	0	5242880	78	11907
2026-01-11 09:03:57.55	138.50	4.11	-56.2	-64.0	7.2	1.04e-01	0	22	0	12582912	78	8928
2026-01-11 09:04:01.58	138.45	4.39	-54.9	-59.7	11.0	1.31e-03	0	22	0	19922944	76	6086
2026-01-11 09:04:05.61	138.39	4.68	-53.2	-56.7	12.9	7.00e-07	0	22	0	28311552	73	5150
2026-01-11 09:04:09.65	138.34	4.96	-53.5	-56.8	12.8	0.00e+00	0	22	0	35651584	72	5483
2026-01-11 09:04:13.68	138.28	5.25	-52.8	-55.6	13.7	5.57e-03	0	22	0	42991616	72	4806
2026-01-11 09:04:17.70	138.22	5.54	-52.4	-54.9	14.1	0.00e+00	0	22	0	50331648	71	4698
2026-01-11 09:04:21.74	138.16	5.84	-52.5	-55.1	14.0	0.00e+00	0	22	0	57671680	71	4778
2026-01-11 09:04:25.77	138.10	6.14	-52.5	-55.0	14.0	0.00e+00	0	22	0	66060288	71	4748
2026-01-11 09:04:29.80	138.03	6.44	-52.4	-54.9	14.2	0.00e+00	0	22	0	73400320	71	4657
2026-01-11 09:04:33.83	137.97	6.74	-52.0	-54.4	14.4	0.00e+00	0	22	0	80740352	70	4664
2026-01-11 09:04:37.86	137.90	7.05	-52.2	-54.5	14.3	0.00e+00	0	22	0	88080384	70	4737
2026-01-11 09:04:41.89	137.83	7.37	-52.1	-54.3	14.4	0.00e+00	0	22	0	95420416	70	4645
2026-01-11 09:04:45.92	137.76	7.68	-51.9	-54.1	14.6	0.00e+00	0	22	0	103809024	70	4533
2026-01-11 09:04:49.95	137.69	8.00	-51.8	-54.0	14.7	0.00e+00	0	22	0	111149056	70	4452
2026-01-11 09:04:53.98	137.61	8.33	-51.8	-53.9	14.7	0.00e+00	0	22	0	118489088	70	4438
2026-01-11 09:04:58.02	137.54	8.66	-51.7	-53.9	14.6	0.00e+00	0	22	0	125829120	69	4671
2026-01-11 09:05:02.05	137.46	8.99	-51.5	-53.6	14.8	0.00e+00	0	22	0	133169152	69	4508
2026-01-11 09:05:06.08	137.38	9.33	-51.2	-53.2	15.0	0.00e+00	0	22	0	141557760	69	4293
2026-01-11 09:05:10.11	137.29	9.67	-51.2	-53.1	14.9	0.00e+00	0	22	0	148897792	68	4508
2026-01-11 09:05:14.15	137.21	10.02	-51.1	-53.0	14.9	0.00e+00	0	22	0	156237824	68	4463
2026-01-11 09:05:18.18	137.12	10.37	-51.1	-53.0	14.9	0.00e+00	0	22	0	163577856	68	4477
2026-01-11 09:05:22.22	137.03	10.73	-51.0	-52.8	15.1	0.00e+00	0	22	0	170917888	68	4355
2026-01-11 09:05:26.25	136.94	11.09	-50.9	-52.8	15.1	0.00e+00	0	22	0	179306496	68	4348
2026-01-11 09:05:30.27	136.84	11.45	-50.5	-52.3	15.2	0.00e+00	0	23	0	186646528	67	4350
2026-01-11 09:05:34.28	136.75	11.82	-50.4	-52.1	15.3	0.00e+00	0	22	0	193986560	67	4257
2026-01-11 09:05:38.31	136.65	12.20	-50.3	-51.9	15.4	0.00e+00	0	22	0	201326592	67	4183
2026-01-11 09:05:42.35	136.54	12.59	-50.2	-51.8	15.2	0.00e+00	0	22	0	208666624	66	4389
2026-01-11 09:05:46.38	136.43	12.98	-50.2	-51.8	15.2	0.00e+00	0	22	0	217055232	66	4377
2026-01-11 09:05:50.41	136.32	13.37	-50.1	-51.8	15.3	0.00e+00	0	23	0	224395264	66	4347
2026-01-11 09:05:54.44	136.21	13.78	-50.1	-51.8	15.3	0.00e+00	0	23	0	231735296	66	4353
2026-01-11 09:05:58.48	136.09	14.19	-50.0	-51.9	15.3	0.00e+00	0	23	0	239075328	66	4423
2026-01-11 09:06:02.50	135.97	14.60	-50.2	-52.1	15.2	0.00e+00	0	23	0	246415360	66	4533
2026-01-11 09:06:06.54	135.85	15.03	-50.1	-52.0	15.2	0.00e+00	0	23	0	254803968	66	4482
2026-01-11 09:06:10.57	135.72	15.46	-50.0	-51.9	15.3	0.00e+00	0	23	0	262144000	66	4397
2026-01-11 09:06:14.59	135.59	15.89	-50.0	-51.8	15.3	0.00e+00	0	22	0	269484032	66	4368
2026-01-11 09:06:18.61	135.45	16.34	-50.2	-52.1	15.1	0.00e+00	0	23	0	276824064	66	4518
2026-01-11 09:06:22.64	135.31	16.79	-50.0	-51.9	15.3	0.00e+00	0	23	0	284164096	66	4392
2026-01-11 09:06:26.68	135.16	17.26	-49.9	-51.7	15.4	0.00e+00	0	23	0	292552704	66	4323
2026-01-11 09:06:30.71	135.01	17.73	-49.9	-51.7	15.4	0.00e+00	0	23	0	299892736	66	4330
2026-01-11 09:06:34.74	134.85	18.21	-49.7	-51.4	15.3	0.00e+00	0	23	0	307232768	65	4439
2026-01-11 09:06:38.77	134.69	18.70	-49.7	-51.5	15.3	0.00e+00	0	23	0	314572800	65	4448
2026-01-11 09:06:42.70	134.53	19.19	-49.8	-51.6	15.2	0.00e+00	0	23	0	322961408	65	4528
2026-01-11 09:06:46.73	134.35	19.69	-49.9	-51.7	15.2	0.00e+00	0	23	0	330301440	65	4589
2026-01-11 09:06:50.76	134.17	20.21	-49.9	-51.7	15.2	0.00e+00	0	23	0	337641472	65	4589
2026-01-11 09:06:54.79	133.98	20.74	-49.9	-51.8	15.2	0.00e+00	0	23	0	344981504	65	4599
2026-01-11 09:06:58.82	133.79	21.28	-49.9	-51.6	15.2	0.00e+00	0	23	0	352321536	65	4539
2026-01-11 09:07:02.84	133.59	21.84	-50.1	-52.0	15.1	0.00e+00	0	23	0	360710144	65	4713
2026-01-11 09:07:06.87	133.38	22.40	-50.3	-52.2	15.2	0.00e+00	0	22	0	368050176	66	4548
2026-01-11 09:07:10.90	133.16	22.98	-50.5	-52.4	15.0	0.00e+00	0	23	0	375390208	66	4654
2026-01-11 09:07:14.93	132.93	23.57	-50.0	-51.7	15.4	0.00e+00	0	23	0	382730240	66	4327
2026-01-11 09:07:18.96	132.70	24.17	-50.2	-52.0	15.3	0.00e+00	0	23	0	390070272	66	4463
2026-01-11 09:07:23.00	132.45	24.79	-51.0	-53.1	14.9	0.00e+00	0	23	0	398458880	67	4764
2026-01-11 09:07:27.03	132.19	25.42	-51.4	-53.4	14.8	0.00e+00	0	23	0	405798912	68	4705
2026-01-11 09:07:31.06	131.93	26.06	-51.6	-53.7	14.7	0.00e+00	0	23	0	413138944	68	4858
2026-01-11 09:07:35.08	131.65	26.72	-51.6	-53.8	14.6	0.00e+00	0	23	0	420478976	68	4908
2026-01-11 09:07:39.11	131.36	27.39	-52.0	-54.3	14.6	0.00e+00	0	23	0	427819008	69	4893
2026-01-11 09:07:43.14	131.05	28.08	-52.0	-54.2	14.6	0.00e+00	0	23	0	436207616	69	4846
2026-01-11 09:07:47.17	130.73	28.79	-51.8	-54.0	14.7	0.00e+00	0	23	0	443547648	69	4729
2026-01-11 09:07:51.19	130.40	29.52	-52.0	-54.3	14.6	0.00e+00	0	23	0	450887680	69	4880
2026-01-11 09:07:55.23	130.05	30.26	-52.4	-55.0	14.4	0.00e+00	0	23	0	458227712	70	5008
2026-01-11 09:07:59.26	129.68	31.02	-52.5	-55.2	14.3	0.00e+00	0	23	0	465567744	70	5123
2026-01-11 09:08:03.30	129.29	31.81	-52.8	-55.8	13.9	0.00e+00	0	23	0	473956352	70	5518
2026-01-11 09:08:07.33	128.88	32.61	-53.5	-57.2	13.2	0.00e+00	0	23	0	481296384	72	5788
2026-01-11 09:08:11.36	128.46	33.42	-53.9	-57.6	13.2	0.00e+00	0	23	0	488636416	73	5680
2026-01-11 09:08:15.38	128.01	34.26	-55.1	-60.0	11.8	1.44e-05	0	23	0	495976448	75	6661
2026-01-11 09:08:19.40	127.53	35.12	-54.8	-59.1	12.4	1.67e-05	0	23	0	504365056	76	5701
2026-01-11 09:08:23.44	127.03	36.01	-55.0	-60.2	11.3	4.95e-05	0	23	0	511705088	75	6862
2026-01-11 09:08:27.47	126.50	36.91	-54.0	-58.5	12.6	7.00e-07	0	23	0	519045120	74	5972
2026-01-11 09:08:31.51	125.93	37.84	-52.2	-55.1	14.3	0.00e+00	0	23	0	526385152	70	5098
2026-01-11 09:08:35.52	125.34	38.79	-52.9	-56.0	13.8	0.00e+00	0	23	0	533725184	70	5597
2026-01-11 09:08:39.56	124.70	39.77	-53.2	-56.4	13.7	0.00e+00	0	23	0	542113792	71	5591
2026-01-11 09:08:43.59	124.03	40.76	-53.2	-56.4	13.9	0.00e+00	0	23	0	549453824	72	5219
2026-01-11 09:08:47.62	123.31	41.78	-52.8	-55.5	14.4	0.00e+00	0	23	0	556793856	72	4750
2026-01-11 09:08:51.65	122.54	42.83	-51.7	-54.1	14.9	0.00e+00	0	23	0	564133888	70	4536
2026-01-11 09:08:55.68	121.72	43.89	-51.0	-53.2	15.1	0.00e+00	0	23	0	571473920	68	4571
2026-01-11 09:08:59.73	120.84	44.99	-51.1	-53.2	15.1	0.00e+00	0	23	0	579862528	68	4586
2026-01-11 09:09:03.76	119.90	46.10	-51.8	-54.3	14.6	0.00e+00	0	23	0	587202560	69	4885
2026-01-11 09:09:07.79	118.88	47.24	-51.0	-53.2	15.1	0.00e+00	0	23	0	594542592	68	4574
2026-01-11 09:09:11.82	117.79	48.39	-51.2	-53.6	14.8	0.00e+00	0	23	0	601882624	68	4800
2026-01-11 09:09:15.86	116.61	49.56	-50.7	-53.1	15.0	0.00e+00	0	23	0	609222656	67	4807
2026-01-11 09:09:19.89	115.34	50.75	-49.6	-51.3	15.4	0.00e+00	0	23	0	617611264	65	4377
2026-01-11 09:09:23.93	113.96	51.96	-50.2	-52.0	15.2	0.00e+00	0	23	0	624951296	66	4485
2026-01-11 09:09:27.96	112.46	53.18	-51.7	-54.2	14.5	0.00e+00	0	23	0	632291328	68	5146
2026-01-11 09:09:31.99	110.83	54.40	-51.6	-54.1	14.5	0.00e+00	0	23	0	639631360	68	5055
2026-01-11 09:09:36.02	109.05	55.62	-51.9	-54.2	14.9	0.00e+00	0	23	0	648019968	70	4547
2026-01-11 09:09:40.05	107.11	56.85	-52.5	-54.9	14.4	0.00e+00	0	23	0	655360000	70	4981
2026-01-11 09:09:44.08	104.99	58.06	-52.2	-54.6	14.6	0.00e+00	0	23	0	662700032	70	4766
2026-01-11 09:09:48.12	102.66	59.27	-52.0	-54.2	14.8	0.00e+00	0	23	0	670040064	70	4576
2026-01-11 09:09:52.15	100.12	60.44	-51.0	-53.0	15.1	0.00e+00	0	23	0	677380096	68	4457
2026-01-11 09:09:56.18	97.33	61.58	-49.9	-51.7	15.2	0.00e+00	0	23	0	685768704	65	4586
2026-01-11 09:10:00.21	94.28	62.67	-50.5	-52.6	15.0	0.00e+00	0	23	0	693108736	66	4767
2026-01-11 09:10:04.25	90.94	63.71	-49.9	-51.8	15.4	0.00e+00	0	23	0	700448768	66	4344
2026-01-11 09:10:08.29	87.29	64.68	-49.3	-50.9	15.6	0.00e+00	0	23	0	707788800	65	4185
2026-01-11 09:10:12.32	83.35	65.55	-51.2	-53.3	14.8	0.00e+00	0	23	0	715128832	67	4923
2026-01-11 09:10:16.35	79.11	66.32	-52.7	-55.4	14.1	0.00e+00	0	23	0	723517440	70	5227
2026-01-11 09:10:20.37	74.58	66.96	-52.8	-55.4	14.2	0.00e+00	0	23	0	730857472	70	5222
2026-01-11 09:10:24.40	69.79	67.47	-51.7	-53.8	14.8	0.00e+00	0	23	0	738197504	68	4882
2026-01-11 09:10:28.43	64.79	67.83	-52.1	-54.2	14.7	0.00e+00	0	23	0	745537536	69	4864
2026-01-11 09:10:32.47	59.64	68.03	-52.3	-54.5	14.7	0.00e+00	0	23	0	752877568	70	4750
2026-01-11 09:10:36.49	54.46	68.07	-51.8	-54.0	15.0	0.00e+00	0	23	0	761266176	70	4454
2026-01-11 09:10:40.53	49.27	67.94	-52.3	-54.8	14.5	0.00e+00	0	23	0	768606208	70	4894
2026-01-11 09:10:44.56	44.21	67.64	-54.2	-57.7	13.1	0.00e+00	0	23	0	775946240	73	5787
2026-01-11 09:10:48.59	39.32	67.20	-53.5	-56.4	13.9	0.00e+00	0	23	0	783286272	72	5261
2026-01-11 09:10:52.62	34.68	66.60	-50.9	-52.6	15.3	0.00e+00	0	23	0	790626304	68	4275
2026-01-11 09:10:56.66	30.30	65.88	-51.4	-53.4	15.1	0.00e+00	0	23	0	799014912	69	4414
2026-01-11 09:11:00.69	26.23	65.05	-50.2	-52.2	15.1	0.00e+00	0	23	0	806354944	65	4815
2026-01-11 09:11:04.72	22.47	64.13	-49.7	-51.4	15.4	0.00e+00	0	23	0	813694976	65	4418
2026-01-11 09:11:08.76	19.01	63.12	-51.2	-53.4	14.8	0.00e+00	0	23	0	821035008	68	4668
2026-01-11 09:11:12.80	15.83	62.05	-52.4	-55.1	14.2	0.00e+00	0	23	0	829423616	69	5361
2026-01-11 09:11:16.83	12.94	60.93	-52.5	-55.2	14.3	0.00e+00	0	23	0	836763648	70	5149
2026-01-11 09:11:20.86	10.30	59.77	-52.0	-54.3	14.9	0.00e+00	0	23	0	844103680	70	4601
2026-01-11 09:11:24.90	7.89	58.58	-51.2	-53.1	15.3	0.00e+00	0	23	0	851443712	69	4261
2026-01-11 09:11:28.93	5.69	57.37	-50.1	-52.0	15.1	0.00e+00	0	23	0	858783744	65	4716
2026-01-11 09:11:32.97	3.67	56.15	-51.3	-53.4	15.0	0.00e+00	0	23	0	867172352	68	4691
2026-01-11 09:11:37.00	1.83	54.93	-50.5	-52.2	15.3	0.00e+00	0	23	0	874512384	67	4336
2026-01-11 09:11:41.02	0.15	53.71	-50.6	-52.5	15.0	0.00e+00	0	23	0	881852416	66	4732
2026-01-11 09:11:45.06	358.59	52.49	-52.8	-55.6	14.0	0.00e+00	0	23	0	889192448	70	5399
2026-01-11 09:11:49.09	357.17	51.29	-50.7	-52.6	15.2	0.00e+00	0	23	0	896532480	67	4511
2026-01-11 09:11:53.12	355.85	50.09	-51.9	-54.2	14.6	0.00e+00	0	23	0	904921088	68	5128
2026-01-11 09:11:57.15	354.64	48.92	-53.2	-56.1	14.0	0.00e+00	0	23	0	912261120	72	5092
2026-01-11 09:12:01.18	353.51	47.76	-51.8	-53.8	15.1	0.00e+00	0	23	0	919601152	70	4367
2026-01-11 09:12:05.21	352.47	46.62	-50.2	-51.9	15.3	0.00e+00	0	23	0	926941184	66	4400
2026-01-11 09:12:09.25	351.50	45.50	-51.3	-53.2	15.2	0.00e+00	0	23	0	934281216	69	4299
2026-01-11 09:12:13.28	350.59	44.40	-54.2	-57.6	13.3	0.00e+00	0	23	0	942669824	74	5394
2026-01-11 09:12:17.32	349.75	43.32	-53.6	-56.8	13.6	0.00e+00	0	23	0	950009856	73	5173
2026-01-11 09:12:21.34	348.96	42.28	-53.6	-56.9	13.5	0.00e+00	0	23	0	957349888	72	5529
2026-01-11 09:12:25.37	348.22	41.25	-54.6	-58.7	12.5	7.00e-07	0	23	0	964689920	74	6130
2026-01-11 09:12:29.40	347.53	40.24	-53.6	-56.7	13.8	0.00e+00	0	23	0	973078528	73	5137
2026-01-11 09:12:33.44	346.88	39.26	-53.2	-55.9	14.1	0.00e+00	0	23	0	980418560	72	4961
2026-01-11 09:12:37.46	346.27	38.31	-53.5	-56.5	13.8	0.00e+00	0	23	0	987758592	73	5006
2026-01-11 09:12:41.49	345.70	37.37	-52.6	-55.1	14.5	0.00e+00	0	23	0	995098624	71	4802
2026-01-11 09:12:45.52	345.15	36.46	-52.4	-54.9	14.6	0.00e+00	0	23	0	1002438656	71	4690
2026-01-11 09:12:49.55	344.64	35.57	-51.7	-53.9	15.0	0.00e+00	0	23	0	1010827264	70	4403
2026-01-11 09:12:53.59	344.15	34.70	-52.3	-54.7	14.4	0.00e+00	0	23	0	1018167296	69	5132
2026-01-11 09:12:57.62	343.69	33.85	-54.2	-57.5	13.3	0.00e+00	0	23	0	1025507328	74	5296
2026-01-11 09:13:01.65	343.26	33.02	-53.4	-56.1	14.0	0.00e+00	0	23	0	1032847360	72	5097
2026-01-11 09:13:05.68	342.84	32.22	-52.6	-55.0	14.6	0.00e+00	0	23	0	1040187392	71	4735
2026-01-11 09:13:09.72	342.45	31.43	-52.7	-55.2	14.4	0.00e+00	0	23	0	1048576000	71	4829
2026-01-11 09:13:13.75	342.07	30.66	-54.0	-57.5	13.2	0.00e+00	0	23	0	1055916032	73	5617
2026-01-11 09:13:17.78	341.72	29.91	-54.4	-58.1	12.7	7.00e-07	0	23	0	1063256064	74	5701
2026-01-11 09:13:21.80	341.38	29.18	-54.6	-58.4	12.7	0.00e+00	0	23	0	1070596096	74	5874
2026-01-11 09:13:25.84	341.05	28.47	-54.2	-57.6	13.2	0.00e+00	0	23	0	1077936128	74	5389
2026-01-11 09:13:29.87	340.74	27.77	-53.8	-56.9	13.7	0.00e+00	0	23	0	1086324736	74	4932
2026-01-11 09:13:33.89	340.45	27.09	-52.5	-54.9	14.6	0.00e+00	0	23	0	1093664768	71	4654
2026-01-11 09:13:37.92	340.17	26.43	-51.1	-53.0	15.1	0.00e+00	0	23	0	1101004800	68	4447
2026-01-11 09:13:41.95	339.90	25.78	-51.4	-53.4	14.9	0.00e+00	0	23	0	1108344832	68	4684
2026-01-11 09:13:45.99	339.63	25.14	-53.2	-55.9	13.9	0.00e+00	0	23	0	1115684864	71	5253
2026-01-11 09:13:50.02	339.39	24.52	-54.6	-58.4	12.6	0.00e+00	0	23	0	1124073472	74	5882
2026-01-11 09:13:54.05	339.15	23.92	-53.6	-56.4	13.8	0.00e+00	0	23	0	1131413504	73	4981
2026-01-11 09:13:58.09	338.92	23.32	-52.7	-55.1	14.6	0.00e+00	0	23	0	1138753536	72	4498
2026-01-11 09:14:02.12	338.70	22.74	-52.4	-54.7	14.6	0.00e+00	0	23	0	1146093568	71	4566
2026-01-11 09:14:06.14	338.49	22.17	-51.7	-53.8	15.0	0.00e+00	0	23	0	1153433600	70	4389
2026-01-11 09:14:10.18	338.28	21.62	-51.1	-53.1	15.0	0.00e+00	0	23	0	1161822208	68	4540
2026-01-11 09:14:14.21	338.09	21.07	-51.2	-53.3	14.9	0.00e+00	0	23	0	1169162240	68	4622
2026-01-11 09:14:18.24	337.90	20.54	-51.3	-53.5	14.8	0.00e+00	0	23	0	1176502272	68	4720
2026-01-11 09:14:22.27	337.72	20.02	-51.6	-53.9	14.6	0.00e+00	0	23	0	1183842304	68	4933
2026-01-11 09:14:26.31	337.54	19.50	-51.7	-54.0	14.5	0.00e+00	0	23	0	1192230912	68	5000
2026-01-11 09:14:30.34	337.37	19.00	-52.0	-54.3	14.5	0.00e+00	0	23	0	1199570944	69	4914
2026-01-11 09:14:34.38	337.21	18.51	-52.5	-55.0	14.2	0.00e+00	0	23	0	1206910976	70	5026
2026-01-11 09:14:38.40	337.05	18.02	-53.0	-55.9	13.8	0.00e+00	0	23	0	1214251008	71	5256
2026-01-11 09:14:42.43	336.90	17.55	-53.1	-56.0	13.7	0.00e+00	0	23	0	1221591040	71	5323
2026-01-11 09:14:46.46	336.75	17.09	-52.5	-55.0	14.4	0.00e+00	0	23	0	1229979648	71	4707
2026-01-11 09:14:50.50	336.61	16.63	-52.2	-54.6	14.5	0.00e+00	0	23	0	1237319680	70	4781
2026-01-11 09:14:54.53	336.47	16.18	-52.4	-54.9	14.2	0.00e+00	0	23	0	1244659712	70	4971
2026-01-11 09:14:58.56	336.34	15.74	-52.9	-55.7	13.8	0.00e+00	0	23	0	1251999744	70	5424
2026-01-11 09:15:02.59	336.21	15.31	-53.3	-56.5	13.4	0.00e+00	0	23	0	1259339776	71	5641
2026-01-11 09:15:06.63	336.09	14.88	-53.7	-57.2	13.0	0.00e+00	0	23	0	1267728384	72	5729
2026-01-11 09:15:10.66	335.97	14.46	-53.2	-56.4	13.5	0.00e+00	0	23	0	1275068416	72	5223
2026-01-11 09:15:14.69	335.85	14.05	-53.0	-55.9	13.9	0.00e+00	0	23	0	1282408448	72	4937
2026-01-11 09:15:18.72	335.74	13.65	-52.5	-55.1	14.2	0.00e+00	0	23	0	1289748480	71	4783
2026-01-11 09:15:22.76	335.63	13.25	-52.3	-54.8	14.3	0.00e+00	0	23	0	1298137088	70	4918
2026-01-11 09:15:26.79	335.52	12.86	-52.2	-54.8	14.3	0.00e+00	0	23	0	1305477120	70	4881
2026-01-11 09:15:30.83	335.42	12.47	-52.3	-54.9	14.2	0.00e+00	0	23	0	1312817152	70	4927
2026-01-11 09:15:34.87	335.32	12.09	-52.3	-54.9	14.2	0.00e+00	0	23	0	1320157184	70	4933
2026-01-11 09:15:38.89	335.22	11.71	-52.4	-55.1	14.0	0.00e+00	0	23	0	1327497216	70	5074
2026-01-11 09:15:42.93	335.13	11.35	-52.8	-55.8	13.6	0.00e+00	0	23	0	1335885824	70	5476
2026-01-11 09:15:46.96	335.04	10.98	-52.9	-55.8	13.7	0.00e+00	0	23	0	1343225856	71	5201
2026-01-11 09:15:50.99	334.95	10.62	-53.1	-56.2	13.4	0.00e+00	0	23	0	1350565888	71	5441
2026-01-11 09:15:55.01	334.86	10.27	-53.2	-56.4	13.3	0.00e+00	0	23	0	1357905920	71	5553
2026-01-11 09:15:59.05	334.78	9.92	-53.3	-56.5	13.2	0.00e+00	0	23	0	1365245952	71	5635
2026-01-11 09:16:03.04	334.70	9.58	-53.4	-56.7	13.2	0.00e+00	0	23	0	1372585984	72	5405
2026-01-11 09:16:07.08	334.62	9.24	-53.3	-56.5	13.4	0.00e+00	0	23	0	1380974592	72	5305
2026-01-11 09:16:11.11	334.54	8.91	-53.5	-56.8	13.1	7.00e-07	0	23	0	1388314624	72	5489
2026-01-11 09:16:15.14	334.47	8.58	-53.3	-56.6	13.3	0.00e+00	0	23	0	1395654656	72	5342
2026-01-11 09:16:19.18	334.39	8.25	-53.3	-56.4	13.4	0.00e+00	0	23	0	1402994688	72	5260
2026-01-11 09:16:23.21	334.32	7.93	-53.3	-56.5	13.3	0.00e+00	0	23	0	1411383296	72	5296
2026-01-11 09:16:27.24	334.25	7.62	-53.3	-56.5	13.3	0.00e+00	0	23	0	1418723328	72	5307
2026-01-11 09:16:31.28	334.19	7.30	-53.2	-56.3	13.4	0.00e+00	0	23	0	1426063360	72	5217
2026-01-11 09:16:35.30	334.12	6.99	-53.3	-56.5	13.3	0.00e+00	0	23	0	1433403392	72	5281
2026-01-11 09:16:39.32	334.06	6.69	-53.0	-55.9	13.6	0.00e+00	0	23	0	1440743424	72	4981
2026-01-11 09:16:43.34	334.00	6.38	-53.1	-56.3	13.4	0.00e+00	0	23	0	1449132032	72	5166
2026-01-11 09:16:47.36	333.94	6.09	-53.2	-56.4	13.3	0.00e+00	0	23	0	1456472064	72	5229
2026-01-11 09:16:51.39	333.88	5.79	-53.2	-56.4	13.2	0.00e+00	0	23	0	1463812096	72	5248
2026-01-11 09:16:55.41	333.82	5.50	-53.2	-56.4	13.2	0.00e+00	0	23	0	1471152128	72	5235
2026-01-11 09:16:59.44	333.76	5.21	-53.3	-56.6	13.0	0.00e+00	0	23	0	1478492160	72	5367
2026-01-11 09:17:03.48	333.71	4.92	-57.8	-73.8	3.8	1.40e+00	0	23	104	1484783616	80	24643
2026-01-11 09:17:07.51	333.66	4.64	-58.8	-74.8	3.8	1.49e+00	0	23	104	1484783616	82	24678
2026-01-11 09:17:11.54	333.60	4.36	-59.2	-75.2	3.8	1.49e+00	0	23	104	1484783616	83	24393
2026-01-11 09:17:15.58	333.55	4.08	-59.4	-75.4	3.8	1.49e+00	0	23	104	1484783616	83	24912
2026-01-11 09:17:19.61	333.51	3.80	-59.7	-75.7	3.8	1.49e+00	0	23	104	1484783616	84	24389
2026-01-11 09:17:23.64	333.46	3.53	-59.8	-75.8	3.8	1.49e+00	0	23	104	1484783616	84	24590
2026-01-11 09:17:27.68	333.41	3.26	-59.7	-75.7	3.8	1.49e+00	0	23	104	1484783616	84	24345
2026-01-11 09:17:31.71	333.37	3.00	-59.6	-75.7	3.8	1.49e+00	0	23	104	1484783616	84	24176
2026-01-11 09:17:35.75	333.32	2.73	-59.6	-75.7	3.8	1.49e+00	0	23	104	1484783616	84	24141
2026-01-11 09:17:39.77	333.28	2.47	-59.6	-75.6	3.8	1.49e+00	0	23	104	1484783616	84	23993
2026-01-11 09:17:43.81	333.24	2.21	-59.5	-75.6	3.8	1.49e+00	0	23	104	1484783616	84	23973
2026-01-11 09:17:47.84	333.19	1.95	-59.5	-75.6	3.8	1.49e+00	0	23	104	1484783616	84	23871

#Closed at: 2026-01-11 09:17:49
#Recorded file [1484 MB]: D:/lorett/data/31004_260111_120325.dat