passes_logs/2026/01/11/R3.2S_Murmansk/R3.2S_Murmansk__20260111_083357_NOAA_21_JPSS-2_rec.log

#Pass ID: 20260111_083357_NOAA 21 (JPSS-2)
#Satellite: NOAA 21 (JPSS-2)
#Configuration: NOAA-21
#almurnet v.1.7.20251203
#Start time: 2026-01-11 08:33:59

#Version: 2.2.20231116
#Station: R3.2S_Murmansk
#Location: 33.079688 lon 68.888172 lat
#TLE: 1 54234U 22150A   26010.92456470  .00000095  00000+0  65865-4 0  9991
#TLE: 2 54234  98.7494 311.8737 0000784 316.5119  43.5995 14.19533975164234

#Time	Az	El	Level	Level2	SNR	BER	BlckErr	Temp	State	Recorded	gain1	gain2
2026-01-11 08:33:59.49	129.17	2.10	-56.9	-70.6	3.8	1.49e+00	0	21	0	0	79	18021
2026-01-11 08:34:03.52	129.08	2.35	-56.9	-70.6	3.8	1.49e+00	0	21	104	0	78	19109
2026-01-11 08:34:07.56	128.99	2.61	-56.9	-70.6	3.8	1.49e+00	0	21	104	0	78	19040
2026-01-11 08:34:11.59	128.90	2.88	-56.9	-70.6	3.8	1.49e+00	0	21	104	0	78	19026
2026-01-11 08:34:15.63	128.81	3.14	-56.8	-70.5	3.8	1.49e+00	0	21	104	0	78	18798
2026-01-11 08:34:19.66	128.72	3.41	-56.8	-69.9	3.8	1.49e+00	0	21	104	0	78	17680
2026-01-11 08:34:23.70	128.62	3.68	-56.7	-67.4	4.1	1.47e+00	0	22	104	0	78	13131
2026-01-11 08:34:27.74	128.52	3.95	-56.3	-64.4	5.3	5.81e-01	0	22	0	3145728	78	9305
2026-01-11 08:34:31.75	128.42	4.23	-55.2	-60.1	8.8	2.65e-02	0	22	0	15728640	77	6006
2026-01-11 08:34:35.79	128.32	4.50	-53.0	-55.8	12.1	7.60e-06	0	22	0	28311552	72	4890
2026-01-11 08:34:39.82	128.22	4.78	-51.6	-53.7	13.4	0.00e+00	0	22	0	40894464	69	4595
2026-01-11 08:34:43.85	128.11	5.07	-50.9	-52.9	13.8	0.00e+00	0	22	0	53477376	68	4415
2026-01-11 08:34:47.88	128.00	5.35	-54.6	-59.1	9.6	1.59e-04	0	22	0	66060288	74	6383
2026-01-11 08:34:51.91	127.89	5.64	-50.4	-52.2	14.2	0.00e+00	0	22	0	78643200	67	4313
2026-01-11 08:34:55.94	127.77	5.94	-50.5	-52.3	14.1	0.00e+00	0	22	0	91226112	67	4355
2026-01-11 08:34:59.97	127.66	6.23	-50.4	-52.2	14.2	0.00e+00	0	22	0	103809024	67	4297
2026-01-11 08:35:04.01	127.54	6.53	-50.3	-52.0	14.3	0.00e+00	0	22	0	116391936	67	4239
2026-01-11 08:35:08.05	127.42	6.83	-50.1	-51.8	14.3	0.00e+00	0	22	0	128974848	66	4369
2026-01-11 08:35:12.08	127.29	7.14	-50.1	-51.7	14.4	0.00e+00	0	22	0	141557760	66	4329
2026-01-11 08:35:16.12	127.16	7.45	-50.0	-51.6	14.5	0.00e+00	0	22	0	154140672	66	4278
2026-01-11 08:35:20.15	127.03	7.76	-49.8	-51.4	14.6	0.00e+00	0	22	0	166723584	66	4182
2026-01-11 08:35:24.18	126.90	8.08	-49.6	-51.2	14.7	0.00e+00	0	22	0	179306496	65	4293
2026-01-11 08:35:28.22	126.76	8.40	-49.5	-51.0	14.7	0.00e+00	0	22	0	191889408	65	4237
2026-01-11 08:35:32.25	126.62	8.72	-49.5	-51.0	14.8	0.00e+00	0	22	0	204472320	65	4198
2026-01-11 08:35:36.28	126.48	9.05	-49.4	-50.9	14.8	0.00e+00	0	22	0	217055232	65	4158
2026-01-11 08:35:40.31	126.33	9.38	-49.3	-50.8	14.9	0.00e+00	0	22	0	229638144	65	4108
2026-01-11 08:35:44.35	126.18	9.72	-49.1	-50.6	14.8	0.00e+00	0	22	0	242221056	64	4262
2026-01-11 08:35:48.38	126.02	10.06	-49.2	-50.7	14.8	0.00e+00	0	22	0	254803968	64	4307
2026-01-11 08:35:52.42	125.86	10.41	-49.0	-50.5	14.9	0.00e+00	0	23	0	267386880	64	4205
2026-01-11 08:35:56.45	125.70	10.76	-48.9	-50.3	15.0	0.00e+00	0	22	0	279969792	64	4113
2026-01-11 08:36:00.47	125.53	11.12	-48.7	-50.0	15.0	0.00e+00	0	22	0	292552704	63	4232
2026-01-11 08:36:04.50	125.36	11.48	-48.6	-50.0	15.0	0.00e+00	0	23	0	305135616	63	4224
2026-01-11 08:36:08.53	125.18	11.84	-48.6	-50.0	15.0	0.00e+00	0	22	0	317718528	63	4198
2026-01-11 08:36:12.56	125.00	12.21	-48.5	-49.8	15.1	0.00e+00	0	22	0	330301440	63	4127
2026-01-11 08:36:16.60	124.81	12.59	-48.5	-49.8	15.1	0.00e+00	0	23	0	342884352	63	4122
2026-01-11 08:36:20.62	124.62	12.97	-48.6	-49.9	15.1	0.00e+00	0	22	0	355467264	63	4189
2026-01-11 08:36:24.65	124.43	13.36	-48.5	-49.8	15.1	0.00e+00	0	23	0	368050176	63	4136
2026-01-11 08:36:28.69	124.22	13.75	-48.5	-49.9	15.1	0.00e+00	0	23	0	381681664	63	4149
2026-01-11 08:36:32.70	124.02	14.15	-48.4	-49.7	15.2	0.00e+00	0	23	0	393216000	63	4082
2026-01-11 08:36:36.73	123.80	14.55	-48.5	-49.8	15.2	0.00e+00	0	23	0	406847488	63	4124
2026-01-11 08:36:40.75	123.58	14.96	-48.5	-49.8	15.2	0.00e+00	0	23	0	418381824	63	4115
2026-01-11 08:36:44.79	123.35	15.38	-48.4	-49.7	15.2	0.00e+00	0	22	0	430964736	63	4094
2026-01-11 08:36:48.82	123.12	15.81	-48.4	-49.6	15.2	0.00e+00	0	23	0	444596224	63	4050
2026-01-11 08:36:52.85	122.88	16.24	-48.5	-49.8	15.2	0.00e+00	0	23	0	456130560	63	4118
2026-01-11 08:36:56.88	122.63	16.68	-48.5	-49.8	15.2	0.00e+00	0	23	0	469762048	63	4134
2026-01-11 08:37:00.91	122.37	17.13	-48.7	-50.0	15.1	0.00e+00	0	23	0	482344960	63	4230
2026-01-11 08:37:04.95	122.11	17.58	-48.8	-50.2	15.0	0.00e+00	0	23	0	494927872	63	4307
2026-01-11 08:37:08.99	121.83	18.04	-48.7	-50.0	15.1	0.00e+00	0	23	0	507510784	63	4232
2026-01-11 08:37:13.03	121.55	18.52	-48.7	-50.0	15.1	0.00e+00	0	23	0	520093696	63	4219
2026-01-11 08:37:17.06	121.26	18.99	-48.7	-50.0	15.1	0.00e+00	0	23	0	532676608	63	4230
2026-01-11 08:37:21.09	120.96	19.48	-48.4	-49.6	15.3	0.00e+00	0	23	0	545259520	63	4042
2026-01-11 08:37:25.12	120.65	19.98	-48.5	-49.8	15.2	0.00e+00	0	23	0	557842432	63	4108
2026-01-11 08:37:29.16	120.32	20.48	-48.0	-49.2	15.3	0.00e+00	0	23	0	570425344	62	4093
2026-01-11 08:37:33.19	119.99	21.00	-47.9	-49.2	15.3	0.00e+00	0	23	0	583008256	62	4054
2026-01-11 08:37:37.22	119.64	21.52	-47.6	-48.8	15.4	0.00e+00	0	23	0	595591168	61	4103
2026-01-11 08:37:41.26	119.28	22.06	-47.4	-48.6	15.4	0.00e+00	0	23	0	608174080	61	4045
2026-01-11 08:37:45.29	118.91	22.60	-47.0	-48.2	15.5	0.00e+00	0	23	0	620756992	60	4054
2026-01-11 08:37:49.32	118.53	23.16	-46.9	-48.0	15.5	0.00e+00	0	23	0	633339904	60	3994
2026-01-11 08:37:53.34	118.13	23.72	-47.0	-48.1	15.5	0.00e+00	0	23	0	645922816	60	4049
2026-01-11 08:37:57.38	117.71	24.30	-47.1	-48.3	15.5	0.00e+00	0	23	0	658505728	60	4102
2026-01-11 08:38:01.41	117.28	24.88	-47.2	-48.4	15.4	0.00e+00	0	23	0	671088640	60	4167
2026-01-11 08:38:05.46	116.83	25.48	-47.5	-48.6	15.3	0.00e+00	0	23	0	683671552	60	4286
2026-01-11 08:38:09.49	116.37	26.09	-47.9	-49.1	15.2	0.00e+00	0	23	0	696254464	60	4525
2026-01-11 08:38:13.53	115.88	26.72	-48.2	-49.5	15.1	0.00e+00	0	23	0	708837376	61	4446
2026-01-11 08:38:17.56	115.38	27.35	-48.5	-49.7	15.1	0.00e+00	0	23	0	721420288	62	4338
2026-01-11 08:38:21.58	114.86	28.00	-48.8	-50.1	15.0	0.00e+00	0	23	0	734003200	62	4533
2026-01-11 08:38:25.61	114.31	28.65	-48.7	-50.0	15.0	0.00e+00	0	23	0	746586112	62	4461
2026-01-11 08:38:29.65	113.74	29.33	-48.7	-50.0	15.0	0.00e+00	0	23	0	759169024	62	4450
2026-01-11 08:38:33.68	113.14	30.01	-48.4	-49.6	15.2	0.00e+00	0	23	0	771751936	62	4285
2026-01-11 08:38:37.71	112.52	30.71	-48.1	-49.3	15.3	0.00e+00	0	23	0	784334848	62	4131
2026-01-11 08:38:41.74	111.87	31.42	-47.9	-49.1	15.4	0.00e+00	0	23	0	796917760	62	4042
2026-01-11 08:38:45.78	111.18	32.14	-48.4	-49.6	15.1	0.00e+00	0	23	0	809500672	62	4279
2026-01-11 08:38:49.81	110.47	32.88	-48.3	-49.5	15.2	0.00e+00	0	23	0	822083584	62	4238
2026-01-11 08:38:53.85	109.72	33.63	-48.2	-49.4	15.3	0.00e+00	0	23	0	834666496	62	4153
2026-01-11 08:38:57.89	108.94	34.40	-48.9	-50.2	14.9	0.00e+00	0	23	0	847249408	62	4592
2026-01-11 08:39:01.91	108.12	35.17	-49.5	-50.9	14.9	0.00e+00	0	23	0	859832320	64	4401
2026-01-11 08:39:05.94	107.26	35.95	-49.5	-50.9	14.9	0.00e+00	0	23	0	872415232	64	4407
2026-01-11 08:39:09.98	106.35	36.75	-49.9	-51.3	14.6	0.00e+00	0	23	0	884998144	64	4640
2026-01-11 08:39:14.02	105.39	37.56	-50.2	-51.7	14.6	0.00e+00	0	23	0	897581056	65	4573
2026-01-11 08:39:18.05	104.39	38.38	-50.3	-51.8	14.5	0.00e+00	0	23	0	910163968	65	4601
2026-01-11 08:39:22.07	103.34	39.21	-50.3	-51.8	14.7	0.00e+00	0	23	0	922746880	66	4367
2026-01-11 08:39:26.09	102.24	40.04	-50.0	-51.5	14.8	0.00e+00	0	23	0	935329792	66	4203
2026-01-11 08:39:30.13	101.07	40.89	-49.8	-51.2	15.0	0.00e+00	0	23	0	947912704	66	4061
2026-01-11 08:39:34.16	99.83	41.74	-50.1	-51.6	14.8	0.00e+00	0	23	0	960495616	66	4260
2026-01-11 08:39:38.19	98.53	42.59	-50.1	-51.5	14.8	0.00e+00	0	23	0	973078528	66	4204
2026-01-11 08:39:42.22	97.16	43.45	-50.3	-51.7	14.6	0.00e+00	0	23	0	985661440	66	4314
2026-01-11 08:39:46.25	95.72	44.30	-50.6	-52.1	14.5	0.00e+00	0	23	0	998244352	66	4533
2026-01-11 08:39:50.28	94.19	45.15	-50.5	-52.0	14.5	0.00e+00	0	23	0	1010827264	66	4472
2026-01-11 08:39:54.32	92.58	46.00	-50.5	-52.0	14.6	0.00e+00	0	23	0	1023410176	66	4461
2026-01-11 08:39:58.35	90.88	46.84	-50.0	-51.4	14.9	0.00e+00	0	23	0	1035993088	66	4182
2026-01-11 08:40:02.37	89.09	47.66	-50.4	-51.9	14.7	0.00e+00	0	23	0	1048576000	66	4406
2026-01-11 08:40:06.40	87.20	48.46	-49.9	-51.3	15.0	0.00e+00	0	23	0	1061158912	66	4099
2026-01-11 08:40:10.44	85.21	49.25	-50.0	-51.5	14.9	0.00e+00	0	23	0	1073741824	66	4198
2026-01-11 08:40:14.46	83.12	50.01	-49.9	-51.3	15.0	0.00e+00	0	23	0	1086324736	66	4131
2026-01-11 08:40:18.49	80.92	50.74	-49.1	-50.4	15.2	0.00e+00	0	23	0	1098907648	64	4169
2026-01-11 08:40:22.52	78.62	51.43	-49.1	-50.4	15.1	0.00e+00	0	23	0	1111490560	64	4169
2026-01-11 08:40:26.56	76.20	52.08	-48.6	-49.8	15.3	0.00e+00	0	23	0	1124073472	63	4125
2026-01-11 08:40:30.59	73.68	52.68	-48.7	-50.0	15.2	0.00e+00	0	23	0	1136656384	63	4208
2026-01-11 08:40:34.63	71.06	53.23	-49.0	-50.3	15.0	0.00e+00	0	23	0	1150287872	63	4387
2026-01-11 08:40:38.67	68.34	53.73	-48.8	-50.1	15.1	0.00e+00	0	23	0	1162870784	63	4261
2026-01-11 08:40:42.71	65.53	54.16	-48.6	-49.9	15.2	0.00e+00	0	23	0	1174405120	63	4154
2026-01-11 08:40:46.74	62.66	54.52	-48.4	-49.6	15.3	0.00e+00	0	23	0	1188036608	63	4008
2026-01-11 08:40:50.78	59.70	54.81	-48.8	-50.1	15.0	0.00e+00	0	23	0	1200619520	62	4518
2026-01-11 08:40:54.81	56.71	55.02	-48.8	-50.1	15.2	0.00e+00	0	23	0	1213202432	63	4244
2026-01-11 08:40:58.85	53.66	55.15	-48.5	-49.8	15.3	0.00e+00	0	23	0	1225785344	63	4111
2026-01-11 08:41:02.88	50.61	55.21	-48.9	-50.2	15.1	0.00e+00	0	23	0	1238368256	63	4316
2026-01-11 08:41:06.91	47.55	55.18	-48.7	-49.9	15.2	0.00e+00	0	23	0	1250951168	63	4175
2026-01-11 08:41:10.95	44.50	55.07	-49.3	-50.7	14.9	0.00e+00	0	23	0	1263534080	63	4562
2026-01-11 08:41:14.98	41.49	54.88	-48.5	-49.8	15.3	0.00e+00	0	23	0	1276116992	63	4114
2026-01-11 08:41:19.02	38.52	54.62	-48.6	-49.9	15.2	0.00e+00	0	23	0	1288699904	63	4151
2026-01-11 08:41:23.05	35.62	54.28	-48.8	-50.1	15.1	0.00e+00	0	23	0	1301282816	62	4526
2026-01-11 08:41:27.08	32.80	53.87	-48.3	-49.5	15.4	0.00e+00	0	23	0	1313865728	63	4000
2026-01-11 08:41:31.12	30.05	53.40	-49.6	-51.0	15.0	0.00e+00	0	23	0	1326448640	65	4207
2026-01-11 08:41:35.16	27.40	52.87	-48.5	-49.7	15.2	0.00e+00	0	23	0	1339031552	62	4305
2026-01-11 08:41:39.19	24.86	52.28	-48.8	-50.1	15.3	0.00e+00	0	23	0	1351614464	64	4023
2026-01-11 08:41:43.22	22.41	51.65	-50.2	-51.7	14.6	0.00e+00	0	23	0	1364197376	65	4559
2026-01-11 08:41:47.26	20.07	50.97	-49.2	-50.5	15.1	0.00e+00	0	23	0	1376780288	64	4206
2026-01-11 08:41:51.29	17.84	50.25	-49.8	-51.2	15.0	0.00e+00	0	23	0	1389363200	66	4075
2026-01-11 08:41:55.33	15.72	49.50	-49.7	-51.0	14.9	0.00e+00	0	23	0	1401946112	65	4242
2026-01-11 08:41:59.36	13.70	48.73	-50.0	-51.4	14.7	0.00e+00	0	23	0	1414529024	66	4183
2026-01-11 08:42:03.40	11.77	47.93	-50.5	-52.1	14.4	0.00e+00	0	23	0	1427111936	66	4495
2026-01-11 08:42:07.43	9.96	47.11	-51.7	-53.4	14.2	0.00e+00	0	23	0	1439694848	69	4412
2026-01-11 08:42:11.46	8.23	46.28	-49.8	-51.2	14.8	0.00e+00	0	23	0	1452277760	65	4317
2026-01-11 08:42:15.50	6.59	45.44	-51.0	-52.5	14.6	0.00e+00	0	23	0	1464860672	68	4236
2026-01-11 08:42:19.53	5.04	44.59	-49.6	-51.0	15.0	0.00e+00	0	23	0	1477443584	65	4202
2026-01-11 08:42:23.55	3.58	43.74	-51.8	-53.6	14.0	0.00e+00	0	23	0	1490026496	68	4793
2026-01-11 08:42:27.59	2.18	42.89	-49.2	-50.5	15.2	0.00e+00	0	23	0	1502609408	65	3981
2026-01-11 08:42:31.63	0.86	42.03	-49.6	-50.9	14.9	0.00e+00	0	23	0	1515192320	64	4421
2026-01-11 08:42:35.66	359.61	41.18	-51.6	-53.3	14.0	0.00e+00	0	23	0	1527775232	68	4651
2026-01-11 08:42:39.69	358.43	40.34	-49.9	-51.3	14.9	0.00e+00	0	23	0	1540358144	66	4126
2026-01-11 08:42:43.74	357.29	39.50	-50.5	-52.0	14.6	0.00e+00	0	23	0	1552941056	66	4479
2026-01-11 08:42:47.76	356.23	38.67	-49.5	-50.8	15.0	0.00e+00	0	23	0	1565523968	65	4143
2026-01-11 08:42:51.79	355.22	37.85	-50.1	-51.6	14.7	0.00e+00	0	23	0	1578106880	65	4513
2026-01-11 08:42:55.82	354.25	37.05	-50.4	-51.9	14.5	0.00e+00	0	23	0	1590689792	65	4679
2026-01-11 08:42:59.85	353.33	36.25	-49.2	-50.5	15.2	0.00e+00	0	23	0	1603272704	65	3965
2026-01-11 08:43:03.88	352.46	35.46	-49.2	-50.5	15.0	0.00e+00	0	23	0	1615855616	64	4217
2026-01-11 08:43:07.92	351.63	34.68	-49.3	-50.6	15.0	0.00e+00	0	23	0	1628438528	64	4274
2026-01-11 08:43:11.96	350.83	33.92	-49.0	-50.3	15.2	0.00e+00	0	23	0	1641021440	64	4113
2026-01-11 08:43:16.00	350.08	33.16	-48.9	-50.2	15.3	0.00e+00	0	23	0	1653604352	64	4057
2026-01-11 08:43:20.04	349.35	32.42	-49.0	-50.3	15.2	0.00e+00	0	23	0	1666187264	64	4136
2026-01-11 08:43:24.07	348.66	31.70	-48.6	-49.8	15.2	0.00e+00	0	23	0	1678770176	63	4125
2026-01-11 08:43:28.11	348.00	30.98	-47.7	-48.8	15.5	0.00e+00	0	23	0	1692401664	62	3907
2026-01-11 08:43:32.15	347.37	30.28	-47.6	-48.7	15.4	0.00e+00	0	23	0	1703936000	61	4079
2026-01-11 08:43:36.18	346.77	29.60	-48.6	-49.9	15.1	0.00e+00	0	23	0	1717567488	62	4415
2026-01-11 08:43:40.22	346.19	28.92	-48.6	-49.8	15.1	0.00e+00	0	23	0	1730150400	62	4381
2026-01-11 08:43:44.25	345.64	28.26	-48.0	-49.2	15.4	0.00e+00	0	23	0	1742733312	62	4065
2026-01-11 08:43:48.29	345.11	27.61	-47.5	-48.6	15.5	0.00e+00	0	23	0	1755316224	61	4031
2026-01-11 08:43:52.32	344.60	26.98	-47.1	-48.3	15.5	0.00e+00	0	23	0	1767899136	60	4110
2026-01-11 08:43:56.36	344.11	26.35	-47.4	-48.6	15.4	0.00e+00	0	23	0	1780482048	60	4257
2026-01-11 08:44:00.40	343.64	25.74	-47.6	-48.8	15.3	0.00e+00	0	23	0	1793064960	60	4374
2026-01-11 08:44:04.44	343.19	25.14	-47.8	-49.0	15.2	0.00e+00	0	23	0	1805647872	60	4448
2026-01-11 08:44:08.47	342.75	24.55	-48.0	-49.3	15.2	0.00e+00	0	23	0	1818230784	61	4350
2026-01-11 08:44:12.50	342.34	23.97	-48.1	-49.3	15.1	0.00e+00	0	23	0	1830813696	61	4388
2026-01-11 08:44:16.53	341.93	23.40	-47.7	-48.9	15.3	0.00e+00	0	23	0	1843396608	61	4174
2026-01-11 08:44:20.56	341.55	22.85	-47.7	-48.8	15.3	0.00e+00	0	23	0	1855979520	61	4139
2026-01-11 08:44:24.59	341.17	22.30	-47.7	-48.9	15.4	0.00e+00	0	23	0	1868562432	61	4147
2026-01-11 08:44:28.62	340.81	21.77	-47.9	-49.1	15.3	0.00e+00	0	23	0	1881145344	61	4266
2026-01-11 08:44:32.66	340.46	21.24	-47.8	-49.0	15.3	0.00e+00	0	23	0	1893728256	61	4211
2026-01-11 08:44:36.69	340.13	20.72	-47.6	-48.8	15.4	0.00e+00	0	23	0	1906311168	61	4126
2026-01-11 08:44:40.73	339.80	20.22	-47.7	-48.9	15.3	0.00e+00	0	23	0	1918894080	61	4183
2026-01-11 08:44:44.74	339.49	19.72	-47.8	-49.0	15.3	0.00e+00	0	23	0	1931476992	61	4215
2026-01-11 08:44:48.77	339.19	19.23	-47.8	-49.1	15.2	7.00e-07	0	23	0	1944059904	61	4254
2026-01-11 08:44:52.79	338.90	18.75	-47.9	-49.2	15.2	0.00e+00	0	23	0	1956642816	61	4298
2026-01-11 08:44:56.82	338.61	18.28	-47.9	-49.1	15.2	0.00e+00	0	23	0	1969225728	61	4264
2026-01-11 08:45:00.84	338.34	17.82	-47.8	-49.1	15.2	0.00e+00	0	23	0	1981808640	61	4244
2026-01-11 08:45:04.88	338.07	17.36	-47.9	-49.1	15.2	0.00e+00	0	23	0	1994391552	61	4273
2026-01-11 08:45:08.92	337.82	16.91	-48.1	-49.4	15.1	0.00e+00	0	23	0	2006974464	61	4403
2026-01-11 08:45:12.95	337.57	16.47	-48.2	-49.5	15.0	0.00e+00	0	23	0	2019557376	61	4452
2026-01-11 08:45:16.98	337.33	16.04	-48.3	-49.6	15.0	0.00e+00	0	23	0	2032140288	61	4528
2026-01-11 08:45:21.01	337.09	15.61	-48.5	-49.8	15.0	0.00e+00	0	23	0	2044723200	62	4378
2026-01-11 08:45:25.04	336.86	15.19	-48.5	-49.8	15.0	0.00e+00	0	23	0	2057306112	62	4381
2026-01-11 08:45:29.07	336.64	14.78	-48.5	-49.8	15.0	0.00e+00	0	23	0	2069889024	62	4382
2026-01-11 08:45:33.09	336.43	14.37	-48.5	-49.8	15.0	1.50e-06	0	23	0	2082471936	62	4378
2026-01-11 08:45:37.12	336.22	13.97	-48.6	-50.0	14.9	0.00e+00	0	23	0	2095054848	62	4448
2026-01-11 08:45:41.16	336.02	13.58	-48.5	-49.8	15.0	0.00e+00	0	23	0	2107637760	62	4371
2026-01-11 08:45:45.19	335.82	13.19	-48.4	-49.7	15.0	0.00e+00	0	23	0	2120220672	62	4318
2026-01-11 08:45:49.23	335.63	12.81	-48.6	-49.9	14.9	0.00e+00	0	23	0	2132803584	62	4413
2026-01-11 08:45:53.27	335.44	12.43	-48.6	-50.0	14.9	0.00e+00	0	23	0	2145386496	62	4442
2026-01-11 08:45:57.30	335.26	12.06	-48.8	-50.1	14.8	0.00e+00	0	23	0	2157969408	62	4518
2026-01-11 08:46:01.34	335.08	11.69	-48.7	-50.1	14.9	0.00e+00	0	23	0	2170552320	62	4523
2026-01-11 08:46:05.37	334.91	11.33	-48.8	-50.1	14.8	0.00e+00	0	23	0	2183135232	62	4533
2026-01-11 08:46:09.41	334.75	10.97	-48.9	-50.3	14.9	0.00e+00	0	23	0	2195718144	63	4379
2026-01-11 08:46:13.45	334.58	10.62	-48.9	-50.3	14.9	0.00e+00	0	23	0	2208301056	63	4366
2026-01-11 08:46:17.48	334.43	10.28	-49.0	-50.4	14.8	0.00e+00	0	23	0	2220883968	63	4402
2026-01-11 08:46:21.51	334.27	9.93	-49.0	-50.4	14.8	0.00e+00	0	23	0	2233466880	63	4416
2026-01-11 08:46:25.55	334.12	9.59	-49.1	-50.5	14.7	0.00e+00	0	23	0	2246049792	63	4480
2026-01-11 08:46:29.58	333.97	9.26	-49.2	-50.7	14.6	0.00e+00	0	23	0	2258632704	63	4566
2026-01-11 08:46:33.62	333.83	8.93	-49.4	-50.9	14.6	3.00e-06	0	23	0	2271215616	64	4407
2026-01-11 08:46:37.66	333.69	8.61	-49.5	-51.0	14.6	0.00e+00	0	23	0	2283798528	64	4454
2026-01-11 08:46:41.69	333.56	8.29	-49.5	-51.1	14.5	0.00e+00	0	23	0	2296381440	64	4503
2026-01-11 08:46:45.72	333.42	7.97	-49.8	-51.4	14.3	0.00e+00	0	23	0	2308964352	64	4666
2026-01-11 08:46:49.76	333.29	7.65	-49.9	-51.5	14.4	0.00e+00	0	23	0	2321547264	65	4448
2026-01-11 08:46:53.79	333.17	7.34	-50.1	-51.7	14.2	0.00e+00	0	23	0	2334130176	65	4593
2026-01-11 08:46:57.82	333.04	7.04	-50.2	-51.9	14.1	0.00e+00	0	23	0	2347761664	65	4660
2026-01-11 08:47:01.85	332.92	6.74	-50.7	-52.5	13.9	0.00e+00	0	23	0	2359296000	66	4713
2026-01-11 08:47:05.88	332.81	6.44	-50.6	-52.4	13.9	0.00e+00	0	23	0	2371878912	66	4694
2026-01-11 08:47:09.91	332.69	6.14	-50.8	-52.6	13.8	0.00e+00	0	23	0	2385510400	66	4814
2026-01-11 08:47:13.94	332.58	5.85	-50.9	-52.8	13.7	0.00e+00	0	23	0	2397044736	66	4892
2026-01-11 08:47:17.98	332.47	5.56	-50.8	-52.7	13.9	0.00e+00	0	23	0	2410676224	67	4563
2026-01-11 08:47:22.01	332.36	5.27	-50.8	-52.7	13.8	0.00e+00	0	23	0	2422210560	67	4566
2026-01-11 08:47:26.04	332.26	4.99	-57.3	-69.5	3.9	3.60e-01	0	23	104	2434793472	79	15778
2026-01-11 08:47:30.08	332.15	4.70	-58.7	-72.5	3.8	1.49e+00	0	23	104	2434793472	82	18848
2026-01-11 08:47:34.12	332.05	4.43	-59.2	-73.0	3.8	1.49e+00	0	23	104	2434793472	83	18837
2026-01-11 08:47:38.15	331.96	4.15	-59.4	-73.2	3.8	1.49e+00	0	23	104	2434793472	83	19180
2026-01-11 08:47:42.19	331.86	3.88	-59.6	-73.5	3.8	1.49e+00	0	23	104	2434793472	84	18735
2026-01-11 08:47:46.22	331.77	3.61	-59.7	-73.5	3.8	1.49e+00	0	23	104	2434793472	84	18899
2026-01-11 08:47:50.25	331.67	3.34	-59.7	-73.5	3.8	1.49e+00	0	23	104	2434793472	84	18773
2026-01-11 08:47:54.29	331.58	3.07	-59.6	-73.4	3.8	1.49e+00	0	23	104	2434793472	84	18644
2026-01-11 08:47:58.32	331.50	2.81	-59.6	-73.4	3.8	1.49e+00	0	24	104	2434793472	84	18541
2026-01-11 08:48:02.36	331.41	2.55	-59.5	-73.3	3.8	1.49e+00	0	24	104	2434793472	84	18513
2026-01-11 08:48:06.40	331.33	2.29	-59.5	-73.3	3.8	1.49e+00	0	23	104	2434793472	84	18462
2026-01-11 08:48:10.43	331.24	2.04	-59.5	-73.2	3.8	1.49e+00	0	24	104	2434793472	84	18303

#Closed at: 2026-01-11 08:48:11
#Recorded file [2434 MB]: D:/lorett/data/31004_260111_113359.dat