passes_logs/2026/01/11/R3.2S_Murmansk/R3.2S_Murmansk__20260111_074431_NOAA_20_JPSS-1_rec.log

#Pass ID: 20260111_074431_NOAA 20 (JPSS-1)
#Satellite: NOAA 20 (JPSS-1)
#Configuration: NOAA 20
#almurnet v.1.7.20251203
#Start time: 2026-01-11 07:44:31

#Version: 2.2.20231116
#Station: R3.2S_Murmansk
#Location: 33.079688 lon 68.888172 lat
#TLE: 1 43013U 17073A   26010.88944318  .00000078  00000+0  57801-4 0  9992
#TLE: 2 43013  98.7631 311.8723 0001655  45.1140 315.0170 14.19535117422152

#Time	Az	El	Level	Level2	SNR	BER	BlckErr	Temp	State	Recorded	gain1	gain2
2026-01-11 07:44:31.19	110.66	2.01	-57.3	-73.2	3.8	1.49e+00	0	21	0	0	81	21659
2026-01-11 07:44:35.23	110.50	2.26	-57.2	-73.1	3.8	1.49e+00	0	21	104	0	79	24086
2026-01-11 07:44:39.26	110.34	2.51	-57.2	-73.2	3.8	1.49e+00	0	22	104	0	79	24253
2026-01-11 07:44:43.30	110.18	2.77	-57.2	-73.1	3.8	1.49e+00	0	22	104	0	79	24104
2026-01-11 07:44:47.33	110.01	3.02	-57.2	-73.1	3.8	1.49e+00	0	22	104	0	79	24051
2026-01-11 07:44:51.36	109.84	3.28	-57.2	-73.1	3.8	1.49e+00	0	22	104	0	79	23874
2026-01-11 07:44:55.40	109.67	3.54	-57.2	-72.9	3.8	1.49e+00	0	22	104	0	79	23503
2026-01-11 07:44:59.43	109.50	3.80	-57.2	-73.2	3.8	1.49e+00	0	22	104	0	79	24332
2026-01-11 07:45:03.46	109.32	4.06	-57.2	-71.5	3.8	1.49e+00	0	22	104	0	79	19869
2026-01-11 07:45:07.49	109.14	4.33	-56.9	-67.6	5.0	6.97e-01	0	22	0	3145728	79	12677
2026-01-11 07:45:11.53	108.95	4.60	-56.6	-64.9	6.7	1.72e-01	0	22	0	10485760	79	9352
2026-01-11 07:45:15.56	108.76	4.87	-56.1	-62.5	8.8	1.93e-02	0	22	0	17825792	78	7504
2026-01-11 07:45:19.60	108.57	5.15	-55.1	-59.3	11.6	2.21e-03	0	23	0	26214400	76	5816
2026-01-11 07:45:23.63	108.37	5.42	-54.3	-57.9	12.7	2.20e-06	0	23	0	33554432	75	5229
2026-01-11 07:45:27.67	108.17	5.70	-53.9	-57.0	13.0	0.00e+00	0	23	0	40894464	73	5334
2026-01-11 07:45:31.69	107.96	5.98	-53.6	-56.7	13.3	0.00e+00	0	23	0	48234496	73	5136
2026-01-11 07:45:35.73	107.75	6.27	-53.4	-56.3	13.6	0.00e+00	0	23	0	55574528	73	4889
2026-01-11 07:45:39.75	107.54	6.55	-53.3	-56.0	13.8	0.00e+00	0	23	0	63963136	73	4759
2026-01-11 07:45:43.79	107.32	6.84	-53.2	-55.9	13.9	0.00e+00	0	23	0	71303168	73	4677
2026-01-11 07:45:47.82	107.10	7.14	-53.1	-55.7	13.9	0.00e+00	0	23	0	78643200	72	4859
2026-01-11 07:45:51.85	106.87	7.43	-53.0	-55.5	14.0	0.00e+00	0	23	0	85983232	72	4756
2026-01-11 07:45:55.88	106.64	7.73	-52.8	-55.3	14.2	0.00e+00	0	23	0	93323264	72	4624
2026-01-11 07:45:59.92	106.40	8.03	-52.8	-55.3	14.2	0.00e+00	0	23	0	101711872	72	4619
2026-01-11 07:46:03.95	106.15	8.34	-52.6	-55.0	14.2	0.00e+00	0	23	0	109051904	71	4717
2026-01-11 07:46:07.98	105.91	8.65	-52.6	-55.1	14.2	0.00e+00	0	23	0	116391936	71	4764
2026-01-11 07:46:12.01	105.65	8.96	-52.6	-54.9	14.3	0.00e+00	0	23	0	123731968	71	4693
2026-01-11 07:46:16.04	105.39	9.27	-52.6	-55.0	14.2	0.00e+00	0	23	0	131072000	71	4758
2026-01-11 07:46:20.07	105.13	9.59	-52.7	-55.1	14.2	0.00e+00	0	23	0	139460608	71	4794
2026-01-11 07:46:24.11	104.85	9.91	-52.6	-54.9	14.3	0.00e+00	0	23	0	146800640	71	4679
2026-01-11 07:46:28.14	104.57	10.24	-52.6	-54.9	14.3	0.00e+00	0	23	0	154140672	71	4703
2026-01-11 07:46:32.15	104.29	10.56	-52.6	-54.9	14.3	0.00e+00	0	23	0	161480704	71	4701
2026-01-11 07:46:36.19	104.00	10.90	-52.5	-54.7	14.4	0.00e+00	0	23	0	168820736	71	4593
2026-01-11 07:46:40.22	103.70	11.23	-52.5	-54.7	14.5	0.00e+00	0	23	0	177209344	71	4590
2026-01-11 07:46:44.25	103.39	11.57	-52.4	-54.7	14.5	0.00e+00	0	23	0	184549376	71	4568
2026-01-11 07:46:48.27	103.08	11.91	-52.3	-54.5	14.6	0.00e+00	0	23	0	191889408	71	4473
2026-01-11 07:46:52.30	102.76	12.26	-52.3	-54.4	14.7	0.00e+00	0	23	0	199229440	71	4423
2026-01-11 07:46:56.33	102.43	12.61	-52.4	-54.6	14.5	0.00e+00	0	23	0	206569472	71	4534
2026-01-11 07:47:00.37	102.09	12.97	-52.3	-54.4	14.7	0.00e+00	0	23	0	214958080	71	4417
2026-01-11 07:47:04.39	101.75	13.33	-52.2	-54.4	14.7	0.00e+00	0	23	0	222298112	71	4418
2026-01-11 07:47:08.43	101.39	13.69	-52.2	-54.4	14.7	0.00e+00	0	23	0	229638144	71	4397
2026-01-11 07:47:12.46	101.02	14.06	-52.1	-54.1	14.7	0.00e+00	0	23	0	236978176	70	4541
2026-01-11 07:47:16.48	100.65	14.44	-52.0	-54.1	14.7	0.00e+00	0	23	0	244318208	70	4523
2026-01-11 07:47:20.51	100.27	14.81	-51.9	-54.0	14.8	0.00e+00	0	23	0	252706816	70	4449
2026-01-11 07:47:24.55	99.87	15.20	-51.9	-54.0	14.8	0.00e+00	0	23	0	260046848	70	4448
2026-01-11 07:47:28.57	99.47	15.58	-51.8	-53.8	14.9	0.00e+00	0	23	0	267386880	70	4359
2026-01-11 07:47:32.60	99.05	15.97	-51.9	-53.8	14.9	0.00e+00	0	23	0	274726912	70	4388
2026-01-11 07:47:36.64	98.63	16.37	-51.8	-53.8	14.9	0.00e+00	0	23	0	283115520	70	4364
2026-01-11 07:47:40.67	98.19	16.77	-51.8	-53.8	14.9	0.00e+00	0	23	0	290455552	70	4363
2026-01-11 07:47:44.71	97.74	17.18	-52.0	-54.0	14.8	0.00e+00	0	23	0	297795584	70	4452
2026-01-11 07:47:48.74	97.27	17.59	-52.0	-54.0	14.8	0.00e+00	0	23	0	305135616	70	4459
2026-01-11 07:47:52.77	96.79	18.01	-51.8	-53.7	15.0	0.00e+00	0	23	0	312475648	70	4313
2026-01-11 07:47:56.80	96.30	18.43	-51.8	-53.7	15.0	0.00e+00	0	23	0	320864256	70	4306
2026-01-11 07:48:00.84	95.80	18.85	-51.7	-53.6	14.9	0.00e+00	0	23	0	328204288	69	4510
2026-01-11 07:48:04.87	95.28	19.28	-51.8	-53.7	14.8	0.00e+00	0	23	0	335544320	69	4591
2026-01-11 07:48:08.90	94.74	19.72	-52.0	-54.0	14.7	0.00e+00	0	23	0	342884352	69	4724
2026-01-11 07:48:12.93	94.19	20.16	-52.1	-54.1	14.6	0.00e+00	0	23	0	350224384	69	4802
2026-01-11 07:48:16.97	93.63	20.61	-52.2	-54.3	14.5	0.00e+00	0	24	0	358612992	69	4920
2026-01-11 07:48:21.00	93.04	21.06	-52.3	-54.5	14.4	0.00e+00	0	23	0	365953024	69	4997
2026-01-11 07:48:25.03	92.44	21.51	-52.3	-54.4	14.4	0.00e+00	0	23	0	373293056	69	4980
2026-01-11 07:48:29.07	91.82	21.97	-52.3	-54.4	14.6	0.00e+00	0	23	0	380633088	70	4701
2026-01-11 07:48:33.10	91.18	22.44	-52.3	-54.3	14.6	0.00e+00	0	23	0	389021696	70	4641
2026-01-11 07:48:37.13	90.52	22.91	-52.0	-53.9	14.9	0.00e+00	0	23	0	396361728	70	4410
2026-01-11 07:48:41.16	89.84	23.38	-51.9	-53.9	14.9	0.00e+00	0	23	0	403701760	70	4398
2026-01-11 07:48:45.19	89.14	23.86	-52.0	-53.9	14.9	0.00e+00	0	23	0	411041792	70	4417
2026-01-11 07:48:49.23	88.42	24.34	-52.0	-54.0	14.8	0.00e+00	0	23	0	418381824	70	4482
2026-01-11 07:48:53.25	87.67	24.82	-52.3	-54.3	14.7	0.00e+00	0	23	0	426770432	70	4628
2026-01-11 07:48:57.28	86.90	25.31	-52.2	-54.2	14.7	0.00e+00	0	23	0	434110464	70	4591
2026-01-11 07:49:01.31	86.11	25.81	-52.5	-54.7	14.5	0.00e+00	0	23	0	441450496	70	4823
2026-01-11 07:49:05.34	85.29	26.30	-53.2	-55.6	14.1	0.00e+00	0	23	0	448790528	71	5066
2026-01-11 07:49:09.37	84.45	26.80	-53.4	-55.9	14.0	0.00e+00	0	23	0	456130560	72	4978
2026-01-11 07:49:13.40	83.57	27.30	-53.6	-56.2	13.8	0.00e+00	0	23	0	464519168	72	5142
2026-01-11 07:49:17.43	82.67	27.80	-53.6	-56.1	13.9	0.00e+00	0	24	0	471859200	72	5054
2026-01-11 07:49:21.47	81.74	28.30	-53.4	-55.9	14.0	0.00e+00	0	23	0	479199232	72	4952
2026-01-11 07:49:25.50	80.78	28.80	-53.7	-56.2	13.9	0.00e+00	0	23	0	486539264	72	5123
2026-01-11 07:49:29.53	79.79	29.30	-53.7	-56.4	13.7	0.00e+00	0	23	0	493879296	72	5230
2026-01-11 07:49:33.56	78.77	29.80	-53.7	-56.2	13.9	0.00e+00	0	23	0	502267904	72	5121
2026-01-11 07:49:37.59	77.71	30.30	-53.5	-56.0	14.0	0.00e+00	0	23	0	509607936	72	5034
2026-01-11 07:49:41.62	76.63	30.80	-53.6	-56.1	13.9	0.00e+00	0	23	0	516947968	72	5048
2026-01-11 07:49:45.66	75.50	31.29	-53.3	-55.6	14.2	0.00e+00	0	23	0	524288000	72	4783
2026-01-11 07:49:49.69	74.35	31.78	-54.1	-56.8	13.6	0.00e+00	0	23	0	532676608	73	5185
2026-01-11 07:49:53.72	73.15	32.26	-54.2	-57.0	13.5	0.00e+00	0	24	0	540016640	73	5324
2026-01-11 07:49:57.75	71.93	32.73	-54.4	-57.2	13.5	0.00e+00	0	23	0	547356672	74	5130
2026-01-11 07:50:01.78	70.66	33.20	-54.8	-58.0	12.9	0.00e+00	0	24	0	554696704	74	5637
2026-01-11 07:50:05.81	69.36	33.66	-55.6	-59.3	12.3	0.00e+00	0	23	0	562036736	76	5801
2026-01-11 07:50:09.85	68.02	34.11	-56.1	-60.3	11.6	2.05e-05	0	23	0	570425344	77	6176
2026-01-11 07:50:13.88	66.65	34.54	-55.7	-59.5	12.2	2.05e-05	0	23	0	577765376	77	5637
2026-01-11 07:50:17.91	65.24	34.96	-54.9	-57.9	13.3	0.00e+00	0	23	0	585105408	76	4963
2026-01-11 07:50:21.94	63.79	35.37	-54.4	-57.2	13.7	0.00e+00	0	23	0	592445440	75	4841
2026-01-11 07:50:25.97	62.31	35.76	-54.3	-57.0	13.8	0.00e+00	0	23	0	599785472	75	4718
2026-01-11 07:50:30.00	60.79	36.13	-52.9	-55.0	14.6	0.00e+00	0	24	0	608174080	72	4485
2026-01-11 07:50:34.03	59.24	36.48	-52.4	-54.4	14.9	0.00e+00	0	24	0	615514112	71	4402
2026-01-11 07:50:38.06	57.65	36.81	-52.3	-54.2	14.9	0.00e+00	0	23	0	622854144	71	4321
2026-01-11 07:50:42.09	56.04	37.12	-51.8	-53.6	15.1	0.00e+00	0	24	0	630194176	70	4279
2026-01-11 07:50:46.13	54.39	37.41	-51.9	-53.7	15.0	0.00e+00	0	23	0	637534208	70	4336
2026-01-11 07:50:50.16	52.71	37.67	-51.5	-53.2	15.2	0.00e+00	0	23	0	645922816	69	4307
2026-01-11 07:50:54.19	51.01	37.90	-50.8	-52.4	15.4	0.00e+00	0	23	0	653262848	68	4153
2026-01-11 07:50:58.23	49.28	38.11	-51.2	-52.9	15.1	0.00e+00	0	23	0	660602880	68	4425
2026-01-11 07:51:02.26	47.54	38.28	-50.8	-52.3	15.5	0.00e+00	0	24	0	667942912	68	4145
2026-01-11 07:51:06.29	45.78	38.43	-50.3	-51.8	15.5	0.00e+00	0	23	0	675282944	67	4139
2026-01-11 07:51:10.31	44.01	38.54	-50.5	-52.0	15.4	0.00e+00	0	23	0	683671552	67	4228
2026-01-11 07:51:14.34	42.22	38.63	-51.1	-52.8	15.0	0.00e+00	0	23	0	691011584	67	4648
2026-01-11 07:51:18.38	40.42	38.68	-51.9	-53.8	14.9	0.00e+00	0	23	0	698351616	69	4616
2026-01-11 07:51:22.41	38.63	38.70	-52.4	-54.5	14.5	0.00e+00	0	23	0	705691648	70	4748
2026-01-11 07:51:26.44	36.83	38.69	-52.6	-54.6	14.6	0.00e+00	0	23	0	714080256	70	4774
2026-01-11 07:51:30.47	35.03	38.65	-52.6	-54.7	14.5	0.00e+00	0	23	0	721420288	70	4825
2026-01-11 07:51:34.50	33.25	38.57	-53.1	-55.4	14.3	0.00e+00	0	23	0	728760320	71	4951
2026-01-11 07:51:38.53	31.47	38.47	-53.5	-55.8	14.1	0.00e+00	0	23	0	736100352	72	4918
2026-01-11 07:51:42.56	29.70	38.33	-53.8	-56.3	13.9	0.00e+00	0	23	0	743440384	72	5182
2026-01-11 07:51:46.60	27.95	38.16	-54.2	-56.8	13.7	0.00e+00	0	24	0	751828992	73	5216
2026-01-11 07:51:50.63	26.22	37.96	-53.8	-56.3	14.0	0.00e+00	0	23	0	759169024	73	4908
2026-01-11 07:51:54.67	24.51	37.74	-53.8	-56.3	14.0	0.00e+00	0	23	0	766509056	73	4900
2026-01-11 07:51:58.69	22.84	37.49	-53.0	-55.1	14.6	0.00e+00	0	23	0	773849088	72	4516
2026-01-11 07:52:02.72	21.18	37.21	-52.3	-54.2	15.0	0.00e+00	0	23	0	781189120	71	4340
2026-01-11 07:52:06.75	19.56	36.91	-51.2	-52.9	15.3	0.00e+00	0	23	0	789577728	69	4149
2026-01-11 07:52:10.78	17.97	36.59	-51.0	-52.6	15.3	0.00e+00	0	23	0	796917760	68	4265
2026-01-11 07:52:14.82	16.40	36.24	-51.1	-52.8	15.2	0.00e+00	0	23	0	804257792	68	4363
2026-01-11 07:52:18.85	14.88	35.87	-51.4	-53.1	15.1	0.00e+00	0	23	0	811597824	68	4500
2026-01-11 07:52:22.89	13.38	35.49	-51.9	-53.8	14.7	0.00e+00	0	24	0	818937856	68	4881
2026-01-11 07:52:26.93	11.92	35.09	-52.0	-53.9	14.8	0.00e+00	0	23	0	827326464	69	4671
2026-01-11 07:52:30.96	10.50	34.67	-52.4	-54.4	14.6	0.00e+00	0	24	0	834666496	69	4951
2026-01-11 07:52:34.99	9.12	34.24	-52.4	-54.4	14.7	0.00e+00	0	24	0	842006528	70	4686
2026-01-11 07:52:39.02	7.78	33.80	-52.5	-54.5	14.7	0.00e+00	0	24	0	849346560	70	4710
2026-01-11 07:52:43.05	6.47	33.35	-52.4	-54.3	14.7	0.00e+00	0	23	0	857735168	70	4632
2026-01-11 07:52:47.08	5.20	32.88	-53.0	-55.2	14.4	0.00e+00	0	23	0	865075200	71	4833
2026-01-11 07:52:51.11	3.96	32.41	-53.2	-55.5	14.2	0.00e+00	0	23	0	872415232	71	4991
2026-01-11 07:52:55.14	2.76	31.93	-53.7	-56.1	14.0	0.00e+00	0	23	0	879755264	72	5083
2026-01-11 07:52:59.17	1.60	31.45	-53.8	-56.4	13.8	0.00e+00	0	24	0	887095296	72	5240
2026-01-11 07:53:03.21	0.47	30.96	-53.7	-56.2	14.1	0.00e+00	0	23	0	895483904	73	4817
2026-01-11 07:53:07.23	359.37	30.47	-53.5	-55.8	14.3	0.00e+00	0	23	0	902823936	73	4619
2026-01-11 07:53:11.26	358.31	29.97	-53.4	-55.7	14.4	0.00e+00	0	23	0	910163968	73	4562
2026-01-11 07:53:15.30	357.28	29.47	-52.9	-55.0	14.7	0.00e+00	0	23	0	917504000	72	4459
2026-01-11 07:53:19.34	356.28	28.97	-52.5	-54.5	14.8	0.00e+00	0	23	0	924844032	71	4468
2026-01-11 07:53:23.37	355.32	28.47	-52.5	-54.5	14.7	0.00e+00	0	23	0	933232640	71	4490
2026-01-11 07:53:27.39	354.38	27.97	-52.0	-53.9	14.9	0.00e+00	0	24	0	940572672	70	4419
2026-01-11 07:53:31.42	353.48	27.47	-52.1	-54.0	14.9	0.00e+00	0	23	0	947912704	70	4474
2026-01-11 07:53:35.45	352.60	26.97	-52.0	-53.9	15.0	0.00e+00	0	23	0	955252736	70	4434
2026-01-11 07:53:39.48	351.75	26.48	-52.0	-53.9	15.0	0.00e+00	0	23	0	962592768	70	4397
2026-01-11 07:53:43.51	350.92	25.98	-52.0	-53.9	15.0	0.00e+00	0	23	0	970981376	70	4423
2026-01-11 07:53:47.54	350.12	25.49	-51.8	-53.6	15.1	0.00e+00	0	24	0	978321408	70	4254
2026-01-11 07:53:51.58	349.35	25.00	-51.5	-53.2	15.1	0.00e+00	0	23	0	985661440	69	4337
2026-01-11 07:53:55.61	348.60	24.52	-51.6	-53.4	15.1	0.00e+00	0	23	0	993001472	69	4413
2026-01-11 07:53:59.64	347.87	24.04	-51.8	-53.7	14.9	0.00e+00	0	23	0	1000341504	69	4567
2026-01-11 07:54:03.67	347.16	23.56	-51.7	-53.5	15.0	0.00e+00	0	23	0	1008730112	69	4469
2026-01-11 07:54:07.70	346.48	23.08	-52.0	-53.9	14.8	0.00e+00	0	23	0	1016070144	69	4656
2026-01-11 07:54:11.73	345.82	22.62	-52.2	-54.2	14.6	0.00e+00	0	24	0	1023410176	69	4846
2026-01-11 07:54:15.77	345.17	22.15	-52.4	-54.4	14.5	0.00e+00	0	23	0	1030750208	69	4969
2026-01-11 07:54:19.79	344.55	21.69	-52.4	-54.4	14.6	0.00e+00	0	23	0	1039138816	70	4689
2026-01-11 07:54:23.82	343.95	21.24	-52.5	-54.5	14.5	0.00e+00	0	23	0	1046478848	70	4747
2026-01-11 07:54:27.85	343.36	20.78	-52.4	-54.4	14.6	0.00e+00	0	23	0	1053818880	70	4704
2026-01-11 07:54:31.87	342.79	20.34	-52.5	-54.6	14.5	0.00e+00	0	23	0	1061158912	70	4778
2026-01-11 07:54:35.90	342.24	19.90	-52.5	-54.5	14.5	0.00e+00	0	24	0	1068498944	70	4755
2026-01-11 07:54:39.93	341.70	19.46	-52.4	-54.4	14.6	0.00e+00	0	23	0	1075838976	70	4704
2026-01-11 07:54:43.96	341.18	19.03	-52.2	-54.2	14.7	0.00e+00	0	23	0	1084227584	70	4597
2026-01-11 07:54:47.99	340.67	18.61	-52.2	-54.1	14.8	0.00e+00	0	24	0	1091567616	70	4534
2026-01-11 07:54:52.01	340.18	18.19	-52.4	-54.4	14.6	0.00e+00	0	23	0	1098907648	70	4691
2026-01-11 07:54:56.05	339.70	17.77	-52.4	-54.4	14.6	2.20e-06	0	24	0	1106247680	70	4696
2026-01-11 07:55:00.07	339.23	17.36	-52.4	-54.5	14.5	0.00e+00	0	23	0	1113587712	70	4743
2026-01-11 07:55:04.09	338.78	16.95	-52.2	-54.3	14.6	0.00e+00	0	24	0	1121976320	70	4612
2026-01-11 07:55:08.13	338.34	16.55	-52.3	-54.3	14.6	0.00e+00	0	23	0	1129316352	70	4618
2026-01-11 07:55:12.16	337.91	16.15	-51.9	-53.8	14.9	0.00e+00	0	23	0	1136656384	70	4361
2026-01-11 07:55:16.19	337.49	15.76	-51.9	-53.8	15.0	0.00e+00	0	23	0	1143996416	70	4354
2026-01-11 07:55:20.22	337.09	15.37	-52.3	-54.4	14.6	0.00e+00	0	23	0	1152385024	70	4656
2026-01-11 07:55:24.25	336.69	14.99	-52.6	-54.8	14.3	0.00e+00	0	23	0	1159725056	70	4895
2026-01-11 07:55:28.28	336.31	14.61	-52.5	-54.7	14.4	0.00e+00	0	23	0	1167065088	70	4853
2026-01-11 07:55:32.31	335.93	14.24	-52.5	-54.7	14.4	0.00e+00	0	23	0	1174405120	70	4848
2026-01-11 07:55:36.35	335.57	13.87	-52.6	-54.8	14.4	0.00e+00	0	23	0	1181745152	70	4874
2026-01-11 07:55:40.37	335.21	13.51	-52.7	-54.9	14.2	0.00e+00	0	23	0	1190133760	70	4967
2026-01-11 07:55:44.40	334.86	13.15	-52.9	-55.2	14.1	0.00e+00	0	23	0	1197473792	70	5119
2026-01-11 07:55:48.43	334.53	12.79	-53.2	-55.7	13.9	0.00e+00	0	24	0	1204813824	71	5119
2026-01-11 07:55:52.46	334.20	12.44	-53.1	-55.6	14.0	0.00e+00	0	23	0	1212153856	71	5054
2026-01-11 07:55:56.48	333.87	12.09	-53.2	-55.7	13.9	0.00e+00	0	24	0	1219493888	71	5119
2026-01-11 07:56:00.52	333.56	11.74	-53.4	-56.0	13.7	0.00e+00	0	23	0	1227882496	71	5289
2026-01-11 07:56:04.56	333.25	11.40	-53.5	-56.2	13.7	0.00e+00	0	24	0	1235222528	72	5152
2026-01-11 07:56:08.59	332.95	11.07	-53.5	-56.2	13.7	0.00e+00	0	23	0	1242562560	72	5134
2026-01-11 07:56:12.62	332.66	10.73	-53.5	-56.1	13.7	0.00e+00	0	23	0	1249902592	72	5095
2026-01-11 07:56:16.65	332.38	10.41	-53.5	-56.2	13.7	0.00e+00	0	23	0	1257242624	72	5110
2026-01-11 07:56:20.68	332.10	10.08	-53.4	-56.0	13.8	0.00e+00	0	23	0	1265631232	72	5025
2026-01-11 07:56:24.71	331.83	9.76	-53.4	-56.1	13.7	0.00e+00	0	23	0	1272971264	72	5094
2026-01-11 07:56:28.74	331.56	9.44	-53.6	-56.4	13.5	0.00e+00	0	24	0	1280311296	72	5266
2026-01-11 07:56:32.77	331.30	9.13	-53.7	-56.6	13.3	0.00e+00	0	24	0	1287651328	72	5396
2026-01-11 07:56:36.80	331.05	8.81	-53.8	-56.8	13.2	0.00e+00	0	23	0	1294991360	72	5498
2026-01-11 07:56:40.82	330.80	8.51	-53.9	-57.0	13.1	0.00e+00	0	23	0	1303379968	72	5596
2026-01-11 07:56:44.85	330.55	8.20	-53.9	-57.0	13.1	0.00e+00	0	23	0	1310720000	73	5325
2026-01-11 07:56:48.88	330.32	7.90	-53.9	-57.0	13.1	0.00e+00	0	23	0	1318060032	73	5326
2026-01-11 07:56:52.90	330.08	7.60	-53.9	-57.0	13.1	0.00e+00	0	23	0	1325400064	73	5339
2026-01-11 07:56:56.93	329.86	7.31	-54.1	-57.5	12.8	0.00e+00	0	23	0	1332740096	73	5605
2026-01-11 07:57:00.96	329.63	7.01	-53.9	-57.1	13.0	0.00e+00	0	24	0	1341128704	73	5358
2026-01-11 07:57:05.00	329.42	6.72	-53.8	-56.9	13.1	0.00e+00	0	23	0	1348468736	73	5261
2026-01-11 07:57:09.03	329.20	6.43	-53.8	-57.0	13.1	0.00e+00	0	24	0	1355808768	73	5301
2026-01-11 07:57:13.07	328.99	6.15	-53.9	-57.1	13.0	0.00e+00	0	23	0	1363148800	73	5341
2026-01-11 07:57:17.11	328.79	5.87	-54.0	-57.3	12.8	0.00e+00	0	23	0	1371537408	73	5466
2026-01-11 07:57:21.14	328.59	5.59	-54.2	-57.8	12.4	7.00e-07	0	23	0	1378877440	73	5830
2026-01-11 07:57:25.17	328.39	5.31	-53.8	-57.1	12.9	0.00e+00	0	23	0	1386217472	73	5400
2026-01-11 07:57:29.21	328.20	5.04	-54.0	-57.5	12.6	7.00e-07	0	24	0	1393557504	73	5633
2026-01-11 07:57:33.25	328.01	4.76	-58.6	-74.6	3.8	1.49e+00	0	24	104	1394606080	82	24106
2026-01-11 07:57:37.28	327.83	4.49	-59.2	-75.2	3.8	1.49e+00	0	24	104	1394606080	83	24382
2026-01-11 07:57:41.31	327.65	4.23	-59.6	-75.6	3.8	1.49e+00	0	24	104	1394606080	84	24129
2026-01-11 07:57:45.35	327.47	3.96	-59.7	-75.8	3.8	1.49e+00	0	23	104	1394606080	84	24436
2026-01-11 07:57:49.39	327.29	3.70	-59.8	-75.8	3.8	1.49e+00	0	24	104	1394606080	84	24688
2026-01-11 07:57:53.42	327.12	3.44	-59.7	-75.8	3.8	1.49e+00	0	24	104	1394606080	84	24471
2026-01-11 07:57:57.45	326.96	3.18	-59.7	-75.8	3.8	1.49e+00	0	24	104	1394606080	84	24426
2026-01-11 07:58:01.49	326.79	2.93	-59.7	-75.7	3.8	1.49e+00	0	24	104	1394606080	84	24325
2026-01-11 07:58:05.53	326.63	2.67	-59.6	-75.7	3.8	1.49e+00	0	24	104	1394606080	84	24226
2026-01-11 07:58:09.56	326.47	2.42	-59.6	-75.6	3.8	1.49e+00	0	24	104	1394606080	84	24078
2026-01-11 07:58:13.60	326.32	2.17	-59.6	-75.6	3.8	1.49e+00	0	24	104	1394606080	84	24054
2026-01-11 07:58:17.63	326.16	1.92	-59.6	-75.6	3.8	1.49e+00	0	24	104	1394606080	84	23966

#Closed at: 2026-01-11 07:58:18
#Recorded file [1394 MB]: D:/lorett/data/31004_260111_104431.dat