passes_logs/2026/01/11/R3.2S_Murmansk/R3.2S_Murmansk__20260111_101348_TY-42_rec.log

#Pass ID: 20260111_101348_TY-42
#Satellite: TY-42
#Configuration: TY-42_900M
#almurnet v.1.7.20251203
#Start time: 2026-01-11 10:13:48

#Version: 2.2.20231116
#Station: R3.2S_Murmansk
#Location: 33.079688 lon 68.888172 lat
#TLE: 1 64048U 25103A   26011.23840278  .00008009  00000-0  38191-3 0 09999
#TLE: 2 64048 097.4119 086.7264 0001784 091.7735 049.4293 15.19164602 36241

#Time	Az	El	Level	Level2	SNR	BER	BlckErr	Temp	State	Recorded	gain1	gain2
2026-01-11 10:13:48.94	21.60	2.00	-56.6	-59.8	6.2	0.00e+00	0	27	0	0	80	20321
2026-01-11 10:13:51.96	21.51	2.21	-56.7	-59.9	6.2	0.00e+00	0	28	104	0	80	20415
2026-01-11 10:13:54.98	21.41	2.42	-56.7	-59.9	6.2	0.00e+00	0	28	104	0	80	20492
2026-01-11 10:13:58.01	21.30	2.63	-56.7	-59.9	6.2	0.00e+00	0	28	104	0	80	20498
2026-01-11 10:14:01.03	21.20	2.85	-56.7	-59.9	6.2	0.00e+00	0	28	104	0	80	20428
2026-01-11 10:14:04.06	21.10	3.06	-56.7	-59.9	6.2	0.00e+00	0	29	104	0	80	20448
2026-01-11 10:14:07.08	20.99	3.28	-56.7	-59.9	6.2	0.00e+00	0	29	104	0	80	20606
2026-01-11 10:14:10.11	20.88	3.50	-56.7	-60.0	6.2	0.00e+00	0	29	104	0	80	20657
2026-01-11 10:14:13.13	20.77	3.72	-56.7	-59.9	6.2	0.00e+00	0	29	104	0	80	20594
2026-01-11 10:14:16.15	20.65	3.95	-56.7	-59.9	6.2	0.00e+00	0	29	104	0	80	20603
2026-01-11 10:14:19.18	20.53	4.17	-56.8	-60.0	6.2	0.00e+00	0	29	104	0	80	20684
2026-01-11 10:14:22.21	20.41	4.40	-56.8	-60.0	6.2	0.00e+00	0	29	104	0	80	20778
2026-01-11 10:14:25.24	20.29	4.64	-56.8	-60.0	6.2	0.00e+00	0	30	104	0	80	20772
2026-01-11 10:14:28.27	20.17	4.87	-56.8	-60.0	6.2	0.00e+00	0	30	104	0	80	20737
2026-01-11 10:14:31.29	20.04	5.11	-57.0	-60.2	6.2	0.00e+00	0	30	104	0	80	21193
2026-01-11 10:14:34.32	19.91	5.35	-56.9	-60.1	6.2	0.00e+00	0	30	104	0	80	20923
2026-01-11 10:14:37.34	19.77	5.59	-56.8	-60.0	6.2	0.00e+00	0	30	104	0	80	20776
2026-01-11 10:14:40.36	19.64	5.84	-56.9	-60.1	6.2	0.00e+00	0	30	104	0	80	21104
2026-01-11 10:14:43.38	19.49	6.08	-56.9	-60.1	6.2	0.00e+00	0	30	104	0	80	21039
2026-01-11 10:14:46.41	19.35	6.34	-57.0	-60.2	6.2	0.00e+00	0	30	104	0	80	21232
2026-01-11 10:14:49.44	19.20	6.59	-57.0	-60.2	6.2	0.00e+00	0	31	104	0	80	21172
2026-01-11 10:14:52.46	19.05	6.85	-57.1	-60.3	6.2	0.00e+00	0	31	104	0	80	21376
2026-01-11 10:14:55.48	18.90	7.11	-57.1	-60.3	6.2	0.00e+00	0	31	104	0	80	21512
2026-01-11 10:14:58.51	18.74	7.38	-57.1	-60.3	6.2	0.00e+00	0	31	104	0	80	21519
2026-01-11 10:15:01.53	18.58	7.64	-57.1	-60.3	6.2	0.00e+00	0	31	104	0	80	21500
2026-01-11 10:15:04.56	18.41	7.91	-57.1	-60.3	6.2	0.00e+00	0	31	104	0	80	21583
2026-01-11 10:15:07.58	18.24	8.19	-57.2	-60.4	6.2	0.00e+00	0	31	104	0	80	21761
2026-01-11 10:15:10.60	18.07	8.47	-57.2	-60.4	6.2	0.00e+00	0	31	104	0	80	21823
2026-01-11 10:15:13.62	17.89	8.75	-57.3	-60.5	6.2	0.00e+00	0	31	104	0	80	21895
2026-01-11 10:15:16.65	17.71	9.04	-57.2	-60.5	6.2	0.00e+00	0	31	104	0	80	21922
2026-01-11 10:15:19.67	17.52	9.33	-48.4	-49.0	9.2	0.00e+00	0	31	104	50331648	64	14677
2026-01-11 10:15:22.69	17.32	9.62	-42.9	-43.3	11.9	3.36e-02	0	32	0	310378496	53	14378
2026-01-11 10:15:25.72	17.12	9.93	-42.1	-42.5	12.1	4.64e-02	0	32	0	645922816	51	14614
2026-01-11 10:15:28.74	16.92	10.23	-41.5	-41.9	12.3	2.44e-02	0	32	0	989855744	50	14444
2026-01-11 10:15:31.77	16.71	10.54	-41.4	-41.7	12.3	1.33e-02	0	32	0	1325400064	49	15056
2026-01-11 10:15:34.80	16.49	10.85	-41.0	-41.3	12.5	8.58e-03	0	32	0	1669332992	49	14374
2026-01-11 10:15:37.81	16.27	11.17	-40.8	-41.2	12.4	8.44e-03	0	33	0	2004877312	48	14980
2026-01-11 10:15:40.84	16.05	11.50	-40.7	-41.0	12.5	7.82e-03	0	33	0	2348810240	48	14698
2026-01-11 10:15:43.87	15.81	11.83	-40.5	-40.9	12.5	8.26e-03	0	33	0	2692743168	48	14459
2026-01-11 10:15:46.90	15.57	12.16	-39.7	-40.0	12.4	8.28e-03	0	33	0	3028287488	46	14773
2026-01-11 10:15:49.93	15.32	12.50	-39.4	-39.8	12.4	1.07e-02	0	33	0	3372220416	46	14313
2026-01-11 10:15:52.96	15.06	12.85	-39.1	-39.4	12.4	9.76e-03	0	33	0	3716153344	45	14599
2026-01-11 10:15:55.98	14.80	13.20	-39.0	-39.3	12.4	9.67e-03	0	33	0	4051697664	45	14430
2026-01-11 10:15:59.00	14.53	13.56	-38.8	-39.1	12.5	8.37e-03	0	33	0	4395630592	44	14905
2026-01-11 10:16:02.02	14.25	13.93	-38.6	-38.9	12.6	6.98e-03	0	34	0	4731174912	44	14534
2026-01-11 10:16:05.05	13.96	14.30	-38.4	-38.8	12.6	5.38e-03	0	34	0	5075107840	44	14330
2026-01-11 10:16:08.08	13.66	14.68	-38.1	-38.4	12.6	4.86e-03	0	34	0	5410652160	43	14600
2026-01-11 10:16:11.10	13.36	15.06	-37.8	-38.2	12.7	3.75e-03	0	34	0	5754585088	42	14968
2026-01-11 10:16:14.13	13.04	15.46	-37.7	-38.0	12.7	2.73e-03	0	34	0	6090129408	42	14758
2026-01-11 10:16:17.16	12.71	15.86	-37.2	-37.6	12.7	2.43e-03	0	34	0	6434062336	41	14798
2026-01-11 10:16:20.18	12.37	16.27	-36.8	-37.1	12.7	1.98e-03	0	34	0	6769606656	40	14921
2026-01-11 10:16:23.21	12.02	16.68	-36.8	-37.1	12.8	1.67e-03	0	34	0	7113539584	40	14940
2026-01-11 10:16:26.24	11.66	17.11	-36.8	-37.1	12.9	7.15e-04	0	34	0	7449083904	40	14939
2026-01-11 10:16:29.26	11.29	17.54	-36.7	-37.0	13.0	6.44e-04	0	34	0	7793016832	40	14645
2026-01-11 10:16:32.29	10.90	17.98	-36.8	-37.1	12.9	5.72e-04	0	34	0	8136949760	40	14811
2026-01-11 10:16:35.32	10.50	18.43	-36.6	-36.9	13.0	5.43e-04	0	34	0	8480882688	40	14496
2026-01-11 10:16:38.34	10.08	18.89	-36.4	-36.7	13.0	5.96e-04	0	34	0	8816427008	40	14208
2026-01-11 10:16:41.37	9.65	19.36	-36.2	-36.6	12.9	6.34e-04	0	35	0	9160359936	39	14815
2026-01-11 10:16:44.39	9.20	19.84	-35.9	-36.2	13.0	5.96e-04	0	35	0	9504292864	39	14204
2026-01-11 10:16:47.42	8.74	20.33	-35.5	-35.8	13.1	4.15e-04	0	34	0	9839837184	38	14397
2026-01-11 10:16:50.45	8.26	20.83	-35.2	-35.5	13.1	2.24e-04	0	35	0	10183770112	37	14615
2026-01-11 10:16:53.46	7.76	21.34	-35.1	-35.4	13.1	1.95e-04	0	35	0	10519314432	37	14582
2026-01-11 10:16:56.49	7.24	21.86	-34.6	-34.9	13.1	1.10e-04	0	35	0	10863247360	36	14574
2026-01-11 10:16:59.51	6.70	22.40	-34.6	-34.9	13.2	8.10e-05	0	35	0	11198791680	36	14503
2026-01-11 10:17:02.51	6.14	22.93	-34.4	-34.7	13.2	4.76e-05	0	35	0	11534336000	36	14115
2026-01-11 10:17:05.54	5.55	23.49	-31.7	-32.0	13.0	1.72e-04	0	35	0	11878268928	30	14763
2026-01-11 10:17:08.56	4.94	24.06	-31.6	-31.9	13.1	1.86e-04	0	35	0	12213813248	30	14518
2026-01-11 10:17:11.59	4.31	24.64	-31.5	-31.8	13.1	1.19e-04	0	35	0	12557746176	30	14379
2026-01-11 10:17:14.62	3.64	25.23	-31.1	-31.4	13.1	8.58e-05	0	35	0	12901679104	29	14561
2026-01-11 10:17:17.63	2.95	25.83	-30.8	-31.1	13.2	3.81e-05	0	35	0	13237223424	28	14783
2026-01-11 10:17:20.66	2.23	26.45	-30.7	-31.0	13.2	4.29e-05	0	35	0	13581156352	28	14612
2026-01-11 10:17:23.68	1.48	27.07	-30.5	-30.8	13.2	3.33e-05	0	35	0	13916700672	28	14326
2026-01-11 10:17:26.71	0.69	27.72	-30.5	-30.8	13.2	1.43e-05	0	35	0	14260633600	27	15137
2026-01-11 10:17:29.74	359.86	28.37	-30.3	-30.5	13.3	4.29e-05	0	35	0	14596177920	27	14768
2026-01-11 10:17:32.76	359.00	29.03	-30.0	-30.3	13.3	2.38e-05	0	35	0	14940110848	27	14279
2026-01-11 10:17:35.79	358.10	29.71	-29.8	-30.1	13.3	2.38e-05	0	35	0	15275655168	26	14814
2026-01-11 10:17:38.81	357.15	30.40	-29.6	-29.9	13.3	1.43e-05	0	35	0	15619588096	26	14518
2026-01-11 10:17:41.84	356.16	31.10	-29.5	-29.7	13.4	4.70e-06	0	35	0	15963521024	26	14269
2026-01-11 10:17:44.87	355.12	31.81	-29.2	-29.5	13.3	4.70e-06	0	35	0	16299065344	25	14707
2026-01-11 10:17:47.90	354.03	32.53	-29.0	-29.3	13.4	1.43e-05	0	35	0	16642998272	25	14290
2026-01-11 10:17:50.93	352.88	33.26	-28.9	-29.2	13.4	0.00e+00	0	35	0	16978542592	25	14136
2026-01-11 10:17:53.95	351.68	34.00	-28.7	-28.9	13.4	4.70e-06	0	35	0	17322475520	24	14580
2026-01-11 10:17:56.98	350.42	34.74	-28.5	-28.7	13.3	0.00e+00	0	35	0	17666408448	24	14225
2026-01-11 10:18:00.01	349.09	35.49	-28.2	-28.4	13.3	0.00e+00	0	35	0	18001952768	23	14573
2026-01-11 10:18:03.03	347.70	36.24	-28.1	-28.4	13.3	9.50e-06	0	35	0	18345885696	23	14515
2026-01-11 10:18:06.06	346.23	37.00	-27.7	-28.0	13.4	0.00e+00	0	35	0	18689818624	22	14702
2026-01-11 10:18:09.08	344.70	37.74	-27.6	-27.8	13.4	4.70e-06	0	35	0	19025362944	22	14425
2026-01-11 10:18:12.10	343.09	38.49	-27.4	-27.7	13.4	4.70e-06	0	35	0	19369295872	22	14203
2026-01-11 10:18:15.13	341.40	39.23	-27.2	-27.4	13.4	0.00e+00	0	35	0	19704840192	21	14606
2026-01-11 10:18:18.16	339.62	39.96	-27.0	-27.3	13.4	0.00e+00	0	35	0	20048773120	21	14353
2026-01-11 10:18:21.18	337.76	40.67	-26.9	-27.2	13.4	4.70e-06	0	35	0	20384317440	21	14128
2026-01-11 10:18:24.20	335.82	41.36	-26.7	-27.0	13.3	9.50e-06	0	35	0	20728250368	20	14693
2026-01-11 10:18:27.23	333.78	42.03	-26.6	-26.9	13.3	9.50e-06	0	35	0	21063794688	20	14524
2026-01-11 10:18:30.25	331.67	42.68	-26.6	-26.9	13.3	4.70e-06	0	35	0	21407727616	20	14509
2026-01-11 10:18:33.28	329.45	43.29	-26.4	-26.6	13.4	0.00e+00	0	35	0	21743271936	20	14073
2026-01-11 10:18:36.31	327.15	43.86	-26.4	-26.7	13.3	4.70e-06	0	35	0	22087204864	19	14971
2026-01-11 10:18:39.32	324.78	44.39	-26.4	-26.6	13.3	4.70e-06	0	35	0	22431137792	19	14942
2026-01-11 10:18:42.34	322.32	44.87	-26.3	-26.5	13.3	0.00e+00	0	35	0	22766682112	19	14770
2026-01-11 10:18:45.37	319.78	45.30	-26.2	-26.4	13.3	0.00e+00	0	35	0	23110615040	19	14586
2026-01-11 10:18:48.39	317.18	45.67	-26.0	-26.3	13.3	0.00e+00	0	35	0	23454547968	19	14360
2026-01-11 10:18:51.42	314.51	45.98	-26.0	-26.2	13.4	0.00e+00	0	35	0	23790092288	19	14227
2026-01-11 10:18:54.45	311.79	46.22	-26.1	-26.4	13.3	0.00e+00	0	35	0	24134025216	19	14510
2026-01-11 10:18:57.47	309.05	46.40	-26.0	-26.3	13.4	4.70e-06	0	35	0	24469569536	19	14340
2026-01-11 10:19:00.50	306.27	46.50	-26.0	-26.2	13.4	0.00e+00	0	35	0	24813502464	19	14230
2026-01-11 10:19:03.52	303.48	46.54	-25.7	-26.0	13.4	0.00e+00	0	35	0	25149046784	18	14687
2026-01-11 10:19:06.55	300.69	46.50	-25.8	-26.1	13.4	0.00e+00	0	35	0	25492979712	18	14788
2026-01-11 10:19:09.57	297.92	46.39	-25.9	-26.1	13.4	4.70e-06	0	35	0	25828524032	18	14900
2026-01-11 10:19:12.59	295.17	46.20	-25.8	-26.1	13.4	4.70e-06	0	35	0	26164068352	18	14843
2026-01-11 10:19:15.61	292.47	45.95	-26.1	-26.3	13.4	1.43e-05	0	35	0	26508001280	18	15230
2026-01-11 10:19:18.63	289.81	45.64	-25.9	-26.2	13.4	9.50e-06	0	35	0	26851934208	18	15038
2026-01-11 10:19:21.65	287.22	45.26	-26.1	-26.4	13.4	0.00e+00	0	35	0	27187478528	18	15309
2026-01-11 10:19:24.67	284.69	44.83	-26.0	-26.3	13.3	4.70e-06	0	35	0	27531411456	18	15206
2026-01-11 10:19:27.69	282.23	44.34	-26.3	-26.5	13.3	0.00e+00	0	35	0	27866955776	18	15645
2026-01-11 10:19:30.72	279.85	43.81	-26.3	-26.6	13.3	0.00e+00	0	35	0	28210888704	18	15705
2026-01-11 10:19:33.74	277.56	43.23	-26.5	-26.7	13.3	0.00e+00	0	35	0	28554821632	18	16006
2026-01-11 10:19:36.77	275.35	42.61	-26.4	-26.7	13.3	1.43e-05	0	35	0	28890365952	18	15890
2026-01-11 10:19:39.79	273.23	41.97	-26.6	-26.9	13.3	0.00e+00	0	35	0	29225910272	18	16285
2026-01-11 10:19:42.81	271.21	41.29	-26.9	-27.1	13.4	9.50e-06	0	35	0	29569843200	19	15833
2026-01-11 10:19:45.83	269.27	40.60	-26.9	-27.2	13.4	4.70e-06	0	35	0	29905387520	19	15915
2026-01-11 10:19:48.86	267.41	39.88	-27.0	-27.3	13.4	4.70e-06	0	35	0	30249320448	20	15158
2026-01-11 10:19:51.88	265.64	39.15	-27.2	-27.5	13.4	0.00e+00	0	35	0	30584864768	20	15521
2026-01-11 10:19:54.91	263.95	38.41	-27.3	-27.6	13.4	4.70e-06	0	35	0	30928797696	20	15728
2026-01-11 10:19:57.94	262.34	37.66	-27.6	-27.9	13.4	4.70e-06	0	35	0	31272730624	20	16205
2026-01-11 10:20:00.96	260.81	36.91	-27.7	-28.0	13.4	9.50e-06	0	35	0	31616663552	21	15563
2026-01-11 10:20:03.98	259.35	36.15	-28.0	-28.2	13.4	4.70e-06	0	35	0	31952207872	21	16006
2026-01-11 10:20:07.01	257.96	35.40	-28.1	-28.4	13.4	3.33e-05	0	35	0	32296140800	21	16262
2026-01-11 10:20:10.04	256.64	34.65	-28.4	-28.7	13.4	2.38e-05	0	35	0	32640073728	22	15984
2026-01-11 10:20:13.06	255.38	33.90	-28.5	-28.8	13.4	1.43e-05	0	35	0	32975618048	22	16108
2026-01-11 10:20:16.09	254.18	33.16	-28.8	-29.0	13.4	4.70e-06	0	35	0	33311162368	23	15603
2026-01-11 10:20:19.12	253.04	32.43	-29.0	-29.2	13.4	3.81e-05	0	35	0	33655095296	23	15995
2026-01-11 10:20:22.14	251.95	31.71	-29.1	-29.4	13.4	1.43e-05	0	35	0	33990639616	24	15385
2026-01-11 10:20:25.16	250.91	31.00	-29.4	-29.7	13.3	4.70e-06	0	35	0	34334572544	24	15894
2026-01-11 10:20:28.19	249.92	30.30	-29.7	-30.0	13.3	1.43e-05	0	35	0	34670116864	25	15503
2026-01-11 10:20:31.21	248.98	29.61	-29.9	-30.2	13.3	1.43e-05	0	35	0	35014049792	25	15890
2026-01-11 10:20:34.23	248.08	28.93	-30.2	-30.5	13.3	5.24e-05	0	35	0	35349594112	26	15518
2026-01-11 10:20:37.24	247.22	28.27	-30.4	-30.6	13.2	1.90e-05	0	35	0	35693527040	26	15790
2026-01-11 10:20:40.27	246.39	27.61	-30.7	-30.9	13.2	3.33e-05	0	35	0	36037459968	27	15459
2026-01-11 10:20:43.30	245.61	26.97	-31.0	-31.3	13.2	2.86e-05	0	36	0	36373004288	27	16065
2026-01-11 10:20:46.32	244.85	26.34	-31.1	-31.3	13.2	6.67e-05	0	35	0	36716937216	28	15261
2026-01-11 10:20:49.35	244.13	25.72	-31.2	-31.5	13.1	4.76e-05	0	35	0	37060870144	28	15579
2026-01-11 10:20:52.37	243.44	25.12	-31.3	-31.6	13.1	8.58e-05	0	36	0	37396414464	28	15789
2026-01-11 10:20:55.39	242.78	24.53	-31.7	-32.0	13.1	1.24e-04	0	35	0	37731958784	29	15506
2026-01-11 10:20:58.41	242.15	23.95	-32.0	-32.2	13.0	7.62e-05	0	36	0	38075891712	29	15970
2026-01-11 10:21:01.44	241.53	23.38	-31.9	-32.2	13.0	1.48e-04	0	36	0	38411436032	29	15928
2026-01-11 10:21:04.47	240.95	22.82	-32.1	-32.3	13.0	1.57e-04	0	36	0	38755368960	30	15285
2026-01-11 10:21:07.49	240.39	22.28	-32.1	-32.4	13.0	1.19e-04	0	36	0	39099301888	30	15319
2026-01-11 10:21:10.52	239.85	21.74	-32.4	-32.7	13.0	1.29e-04	0	35	0	39434846208	30	15895
2026-01-11 10:21:13.54	239.33	21.22	-32.5	-32.8	13.0	1.05e-04	0	36	0	39778779136	30	16114
2026-01-11 10:21:16.56	238.83	20.71	-32.7	-33.0	13.0	1.48e-04	0	35	0	40114323456	31	15487
2026-01-11 10:21:19.59	238.34	20.21	-32.9	-33.2	12.9	1.33e-04	0	36	0	40458256384	31	15961
2026-01-11 10:21:22.61	237.88	19.72	-33.3	-33.6	12.9	2.72e-04	0	36	0	40793800704	32	15662
2026-01-11 10:21:25.63	237.44	19.24	-33.5	-33.8	12.9	2.72e-04	0	36	0	41137733632	32	16177
2026-01-11 10:21:28.66	237.00	18.77	-33.8	-34.1	12.8	5.05e-04	0	36	0	41481666560	33	15703
2026-01-11 10:21:31.68	236.59	18.31	-34.2	-34.5	12.8	5.05e-04	0	36	0	41817210880	34	15496
2026-01-11 10:21:34.71	236.19	17.86	-34.3	-34.6	12.7	9.68e-04	0	36	0	42161143808	34	15771
2026-01-11 10:21:37.73	235.80	17.42	-34.7	-35.0	12.5	2.72e-03	0	36	0	42496688128	35	15503
2026-01-11 10:21:40.74	235.43	16.99	-34.9	-35.3	12.4	5.36e-03	0	36	0	42840621056	35	16026
2026-01-11 10:21:43.77	235.06	16.56	-37.9	-38.2	12.5	6.77e-03	0	36	0	43176165376	41	15889
2026-01-11 10:21:46.78	234.71	16.15	-58.3	-61.5	6.2	6.77e-03	0	35	104	43251662848	82	21951
2026-01-11 10:21:49.81	234.37	15.74	-58.2	-61.5	6.2	2.62e-03	0	35	104	43251662848	82	21864
2026-01-11 10:21:52.84	234.04	15.33	-58.2	-61.4	6.2	2.62e-03	0	35	104	43251662848	82	21793
2026-01-11 10:21:55.86	233.73	14.94	-58.2	-61.4	6.1	2.62e-03	0	35	104	43251662848	82	21796
2026-01-11 10:21:58.89	233.42	14.56	-58.2	-61.4	6.1	0.00e+00	0	35	104	43251662848	82	21688
2026-01-11 10:22:01.92	233.12	14.18	-58.1	-61.3	6.2	0.00e+00	0	35	104	43251662848	82	21479
2026-01-11 10:22:04.94	232.83	13.80	-58.1	-61.3	6.2	0.00e+00	0	34	104	43251662848	82	21455
2026-01-11 10:22:07.97	232.55	13.44	-58.1	-61.3	6.2	0.00e+00	0	34	104	43251662848	82	21514
2026-01-11 10:22:11.00	232.28	13.08	-58.1	-61.3	6.2	0.00e+00	0	34	104	43251662848	82	21447
2026-01-11 10:22:14.02	232.01	12.72	-58.0	-61.2	6.2	0.00e+00	0	34	104	43251662848	82	21223
2026-01-11 10:22:17.04	231.76	12.38	-58.0	-61.2	6.1	0.00e+00	0	34	104	43251662848	82	21180
2026-01-11 10:22:20.07	231.51	12.04	-58.0	-61.2	6.2	0.00e+00	0	34	104	43251662848	82	21290
2026-01-11 10:22:23.10	231.27	11.70	-58.0	-61.2	6.2	0.00e+00	0	34	104	43251662848	82	21311
2026-01-11 10:22:26.12	231.03	11.37	-57.9	-61.1	6.2	0.00e+00	0	34	104	43251662848	82	20995
2026-01-11 10:22:29.14	230.80	11.05	-57.9	-61.1	6.2	0.00e+00	0	34	104	43251662848	82	21016
2026-01-11 10:22:32.16	230.58	10.73	-57.9	-61.1	6.1	0.00e+00	0	34	104	43251662848	82	20956
2026-01-11 10:22:35.18	230.36	10.41	-57.9	-61.1	6.1	0.00e+00	0	34	104	43251662848	82	20922
2026-01-11 10:22:38.21	230.15	10.10	-57.8	-61.0	6.2	0.00e+00	0	34	104	43251662848	82	20781
2026-01-11 10:22:41.23	229.95	9.80	-57.8	-61.0	6.2	0.00e+00	0	34	104	43251662848	82	20750
2026-01-11 10:22:44.25	229.75	9.50	-57.8	-61.0	6.2	0.00e+00	0	34	104	43251662848	82	20689
2026-01-11 10:22:47.28	229.55	9.20	-57.8	-60.9	6.1	0.00e+00	0	34	104	43251662848	82	20623
2026-01-11 10:22:50.31	229.36	8.91	-57.7	-60.9	6.2	0.00e+00	0	34	104	43251662848	82	20576
2026-01-11 10:22:53.33	229.18	8.62	-57.6	-60.9	6.2	0.00e+00	0	34	104	43251662848	82	20471
2026-01-11 10:22:56.36	229.00	8.34	-57.6	-60.9	6.2	0.00e+00	0	34	104	43251662848	82	20398
2026-01-11 10:22:59.38	228.82	8.06	-57.6	-60.8	6.2	0.00e+00	0	34	104	43251662848	82	20366
2026-01-11 10:23:02.40	228.65	7.79	-57.6	-60.8	6.2	0.00e+00	0	33	104	43251662848	82	20263
2026-01-11 10:23:05.42	228.48	7.51	-57.5	-60.7	6.2	0.00e+00	0	33	104	43251662848	82	20121
2026-01-11 10:23:08.45	228.32	7.25	-57.5	-60.7	6.2	0.00e+00	0	33	104	43251662848	82	20127
2026-01-11 10:23:11.47	228.16	6.98	-57.5	-60.7	6.2	0.00e+00	0	33	104	43251662848	82	20000
2026-01-11 10:23:14.49	228.01	6.72	-57.5	-60.7	6.2	0.00e+00	0	33	104	43251662848	82	20060
2026-01-11 10:23:17.51	227.85	6.46	-57.3	-60.5	6.2	0.00e+00	0	33	104	43251662848	81	20782
2026-01-11 10:23:20.53	227.71	6.21	-57.3	-60.5	6.2	0.00e+00	0	33	104	43251662848	81	20831
2026-01-11 10:23:23.56	227.56	5.96	-57.3	-60.5	6.2	0.00e+00	0	33	104	43251662848	81	20833
2026-01-11 10:23:26.58	227.42	5.71	-57.3	-60.5	6.2	0.00e+00	0	33	104	43251662848	81	20771
2026-01-11 10:23:29.60	227.28	5.46	-57.1	-60.3	6.2	0.00e+00	0	33	104	43251662848	81	20365
2026-01-11 10:23:32.61	227.15	5.22	-57.1	-60.3	6.2	0.00e+00	0	33	104	43251662848	81	20322
2026-01-11 10:23:35.64	227.01	4.98	-57.3	-60.5	6.2	0.00e+00	0	33	104	43251662848	81	20685
2026-01-11 10:23:38.66	226.88	4.74	-58.3	-61.5	6.2	0.00e+00	0	33	104	43251662848	82	22054
2026-01-11 10:23:41.69	226.76	4.51	-58.7	-62.0	6.2	0.00e+00	0	33	104	43251662848	83	21859
2026-01-11 10:23:44.72	226.63	4.27	-58.9	-62.2	6.2	0.00e+00	0	33	104	43251662848	83	22380
2026-01-11 10:23:47.73	226.51	4.05	-59.0	-62.3	6.2	0.00e+00	0	33	104	43251662848	83	22670
2026-01-11 10:23:50.77	226.39	3.82	-59.1	-62.3	6.2	0.00e+00	0	33	104	43251662848	83	22831
2026-01-11 10:23:53.79	226.28	3.59	-59.4	-62.6	6.1	0.00e+00	0	33	104	43251662848	84	22237
2026-01-11 10:23:56.81	226.16	3.37	-59.4	-62.7	6.2	0.00e+00	0	33	104	43251662848	84	22420
2026-01-11 10:23:59.84	226.05	3.15	-59.4	-62.7	6.1	0.00e+00	0	33	104	43251662848	84	22381
2026-01-11 10:24:02.86	225.94	2.93	-59.3	-62.6	6.2	0.00e+00	0	33	104	43251662848	84	22120
2026-01-11 10:24:05.89	225.83	2.72	-59.3	-62.5	6.2	0.00e+00	0	33	104	43251662848	84	22080
2026-01-11 10:24:08.91	225.73	2.50	-59.3	-62.5	6.2	0.00e+00	0	33	104	43251662848	84	21928
2026-01-11 10:24:11.94	225.62	2.29	-59.3	-62.5	6.2	0.00e+00	0	33	104	43251662848	84	21987
2026-01-11 10:24:14.97	225.52	2.08	-59.2	-62.5	6.2	0.00e+00	0	33	104	43251662848	84	21973

#Closed at: 2026-01-11 10:24:17
#Recorded file [43251 MB]: D:/lorett/data/31004_260111_131348.dat