passes_logs/2025/01/14/X_MFTI_02/X_MFTI_02__20250114_100258_SUOMI_NPP_rec.log

#Pass ID: 20250114_100258_SUOMI NPP
#Satellite: SUOMI NPP
#Configuration: NPP
#Start time: 2025-01-14 10:02:54

#Version: 1.5.20200625
#Station: X_MFTI_02
#Location: 37.5186 lon 55.9291 lat
#TLE: 1 37849U 11061A   23362.48341244  .00000167  00000+0  99749-4 0  9991
#TLE: 2 37849  98.7252 298.0509 0001500  77.1966 282.9377 14.19535461630502

#Time	Az	El	Level	Level2	SNR	BER	Gain	Gain2
2025-01-14 10:02:54.40	165.84	68.53	-61.9	-87.1	3.2	15563446	83	65535
2025-01-14 10:02:54.83	165.88	68.73	-62.0	-87.2	2.9	15689758	84	65535
2025-01-14 10:02:55.26	165.92	68.93	-62.1	-87.3	3.1	15687187	84	65535
2025-01-14 10:02:55.68	165.95	69.12	-62.1	-87.3	2.8	15688827	84	65535
2025-01-14 10:02:56.11	165.99	69.32	-62.1	-87.3	3.3	15703308	84	65535
2025-01-14 10:02:56.52	166.03	69.51	-61.9	-87.1	3.3	15688499	84	65535
2025-01-14 10:02:56.95	166.07	69.71	-61.9	-87.1	3.2	15700515	84	65535
2025-01-14 10:02:57.38	166.12	69.91	-61.9	-87.1	2.9	15681785	83	65535
2025-01-14 10:02:57.80	166.16	70.11	-61.9	-87.1	3.0	15704154	83	65535
2025-01-14 10:02:58.23	166.20	70.31	-62.0	-87.2	3.0	15692474	84	65535
2025-01-14 10:02:58.66	166.25	70.51	-61.9	-87.1	3.0	15688117	84	65535
2025-01-14 10:02:59.09	166.29	70.71	-62.1	-87.4	3.0	15691413	84	65535
2025-01-14 10:02:59.52	166.34	70.91	-62.1	-87.3	3.3	15691726	84	65535
2025-01-14 10:02:59.94	166.38	71.11	-62.1	-87.3	3.3	15690879	84	65535
2025-01-14 10:03:00.35	166.43	71.30	-62.0	-87.2	3.0	15680397	84	65535
2025-01-14 10:03:00.79	166.48	71.51	-62.0	-87.2	3.2	15690467	84	65535
2025-01-14 10:03:01.22	166.53	71.71	-62.1	-87.3	3.0	15686508	84	65535
2025-01-14 10:03:01.65	166.58	71.92	-62.0	-87.2	2.9	15691543	84	65535
2025-01-14 10:03:02.06	166.63	72.11	-62.1	-87.3	2.9	15688980	84	65535
2025-01-14 10:03:02.49	166.69	72.32	-62.1	-87.3	2.9	15700523	84	65535
2025-01-14 10:03:02.91	166.74	72.52	-62.2	-87.4	3.0	15688110	84	65535
2025-01-14 10:03:03.34	166.80	72.72	-62.2	-87.4	2.9	15684646	84	65535
2025-01-14 10:03:03.77	166.86	72.93	-61.4	-86.6	2.9	15693473	84	65535
2025-01-14 10:03:04.20	166.92	73.13	-62.1	-87.3	3.2	15691085	84	65535
2025-01-14 10:03:04.62	166.98	73.34	-62.1	-87.3	2.9	15687461	84	65535
2025-01-14 10:03:05.05	167.04	73.54	-62.2	-87.4	2.9	15687461	84	65535
2025-01-14 10:03:05.48	167.11	73.75	-60.3	-85.5	3.2	15702568	82	65535
2025-01-14 10:03:05.91	167.17	73.96	-62.2	-87.4	3.3	15695915	84	65535
2025-01-14 10:03:06.34	167.24	74.16	-62.2	-87.4	3.0	15695915	84	65535
2025-01-14 10:03:06.77	167.31	74.37	-62.1	-87.3	2.9	15698921	84	65535
2025-01-14 10:03:07.19	167.38	74.58	-61.9	-87.1	3.2	15694778	81	65535
2025-01-14 10:03:07.62	167.45	74.78	-62.0	-87.2	2.8	15698646	83	65535
2025-01-14 10:03:08.03	167.53	74.98	-62.1	-87.3	2.9	15711662	84	65535
2025-01-14 10:03:08.46	167.61	75.19	-62.1	-87.3	2.9	15695365	84	65535
2025-01-14 10:03:08.89	167.69	75.40	-62.0	-87.2	2.0	15706619	83	65535
2025-01-14 10:03:09.32	167.77	75.61	-62.1	-87.3	2.8	15697975	84	65535
2025-01-14 10:03:09.74	167.85	75.82	-62.1	-87.3	2.9	15691329	84	65535
2025-01-14 10:03:10.16	167.94	76.02	-62.1	-87.3	2.9	15690055	84	65535
2025-01-14 10:03:10.59	168.03	76.23	-62.0	-87.2	3.0	15681312	83	65535
2025-01-14 10:03:11.02	168.12	76.44	-62.0	-87.2	2.9	15693244	84	65535
2025-01-14 10:03:11.45	168.22	76.66	-62.1	-87.3	3.0	15680923	84	65535
2025-01-14 10:03:11.88	168.32	76.87	-62.1	-87.3	3.1	15704376	84	65535
2025-01-14 10:03:12.31	168.42	77.08	-62.0	-87.2	2.8	15689888	83	65535
2025-01-14 10:03:12.74	168.52	77.29	-62.1	-87.3	3.0	15697120	84	65535
2025-01-14 10:03:13.15	168.63	77.49	-62.0	-87.2	3.0	15703926	84	65535
2025-01-14 10:03:13.58	168.74	77.71	-62.1	-87.3	2.9	15690849	84	65535
2025-01-14 10:03:14.00	168.86	77.91	-62.0	-87.2	2.8	15703605	83	65535
2025-01-14 10:03:14.43	168.98	78.13	-62.0	-87.2	2.9	15703506	84	65535
2025-01-14 10:03:14.85	169.10	78.33	-62.1	-87.3	2.9	15690803	84	65535
2025-01-14 10:03:15.28	169.23	78.55	-62.1	-87.3	3.2	15697181	84	65535
2025-01-14 10:03:15.71	169.37	78.76	-62.2	-87.4	2.9	15688117	84	65535
2025-01-14 10:03:16.14	169.51	78.98	-62.1	-87.3	2.9	15703170	84	65535
2025-01-14 10:03:16.55	169.65	79.18	-62.1	-87.3	3.2	15690223	84	65535
2025-01-14 10:03:16.98	169.80	79.39	-62.1	-87.3	2.9	15694770	84	65535
2025-01-14 10:03:17.40	169.96	79.60	-62.0	-87.2	2.9	15701309	83	65535
2025-01-14 10:03:17.83	170.12	79.82	-62.2	-87.4	2.9	15706192	84	65535
2025-01-14 10:03:18.24	170.29	80.02	-62.1	-87.3	2.9	15683906	84	65535
2025-01-14 10:03:18.67	170.47	80.24	-62.1	-87.3	3.1	15682357	84	65535
2025-01-14 10:03:19.11	170.66	80.46	-62.0	-87.2	2.8	15694946	83	65535
2025-01-14 10:03:19.52	170.85	80.66	-62.3	-87.5	3.1	15707466	84	65535
2025-01-14 10:03:19.95	171.05	80.88	-62.1	-87.3	3.2	15670890	84	65535
2025-01-14 10:03:20.38	171.27	81.09	-62.0	-87.2	2.9	15695465	84	65535
2025-01-14 10:03:20.81	171.50	81.31	-62.0	-87.2	2.8	15700561	83	65535
2025-01-14 10:03:21.24	171.73	81.52	-61.9	-87.1	2.9	15686172	84	65535
2025-01-14 10:03:21.66	171.98	81.73	-62.1	-87.3	3.1	15685173	84	65535
2025-01-14 10:03:22.07	172.23	81.94	-62.0	-87.2	2.9	15689361	84	65535
2025-01-14 10:03:22.49	172.50	82.15	-62.2	-87.4	3.0	15689361	84	65535
2025-01-14 10:03:22.91	172.79	82.36	-62.1	-87.3	3.2	15689796	84	65535
2025-01-14 10:03:23.34	173.10	82.57	-62.1	-87.3	3.0	15682342	84	65535
2025-01-14 10:03:23.77	173.43	82.79	-62.1	-87.3	2.9	15685508	84	65535
2025-01-14 10:03:24.20	173.77	83.00	-62.2	-87.4	3.0	15691406	84	65535
2025-01-14 10:03:24.61	174.13	83.21	-62.1	-87.3	2.9	15701576	84	65535
2025-01-14 10:03:25.03	174.51	83.42	-62.0	-87.2	2.9	15682266	84	65535
2025-01-14 10:03:25.46	174.93	83.63	-62.0	-87.2	3.0	15704978	84	65535
2025-01-14 10:03:25.89	175.38	83.85	-62.1	-87.3	2.9	15700935	84	65535
2025-01-14 10:03:26.32	175.87	84.06	-62.2	-87.4	3.1	15690155	84	65535
2025-01-14 10:03:26.74	176.37	84.27	-62.1	-87.3	2.9	15695610	84	65535
2025-01-14 10:03:27.17	176.93	84.49	-62.1	-87.3	3.1	15685455	84	65535
2025-01-14 10:03:27.60	177.53	84.70	-62.1	-87.3	3.2	15700263	84	65535
2025-01-14 10:03:28.03	178.19	84.91	-62.1	-87.3	2.9	15688606	84	65535
2025-01-14 10:03:28.44	178.86	85.11	-62.1	-87.3	3.0	15688774	84	65535
2025-01-14 10:03:28.87	179.63	85.33	-62.2	-87.4	2.9	15699569	84	65535
2025-01-14 10:03:29.30	180.48	85.54	-62.0	-87.2	2.9	15694374	84	65535
2025-01-14 10:03:29.73	181.41	85.75	-62.0	-87.2	2.9	15683097	84	65535
2025-01-14 10:03:30.16	182.43	85.96	-62.0	-87.2	3.0	15687034	84	65535
2025-01-14 10:03:30.59	183.57	86.16	-61.7	-86.9	3.0	15681907	84	65535
2025-01-14 10:03:31.02	184.84	86.37	-62.0	-87.2	3.2	15692787	84	65535
2025-01-14 10:03:31.46	186.29	86.58	-62.1	-87.3	3.0	15695762	84	65535
2025-01-14 10:03:31.87	187.81	86.77	-62.0	-87.2	3.0	15681373	84	65535
2025-01-14 10:03:32.30	189.61	86.97	-60.6	-85.8	3.4	15682708	82	65535
2025-01-14 10:03:32.73	191.66	87.16	-62.0	-87.2	3.0	15690368	84	65535
2025-01-14 10:03:33.16	194.01	87.35	-62.0	-87.2	3.0	15688903	84	65535
2025-01-14 10:03:33.59	196.72	87.54	-62.2	-87.4	3.0	15684936	84	65535
2025-01-14 10:03:34.02	199.87	87.72	-61.9	-87.1	2.8	15668983	83	65535
2025-01-14 10:03:34.44	203.45	87.89	-62.1	-87.3	3.0	15683677	84	65535
2025-01-14 10:03:34.85	207.53	88.04	-62.0	-87.2	3.0	15686538	84	65535
2025-01-14 10:03:35.28	212.52	88.19	-62.0	-87.2	3.3	15681419	84	65535
2025-01-14 10:03:35.70	218.22	88.32	-61.9	-87.1	2.6	15681106	83	65535
2025-01-14 10:03:36.13	224.97	88.44	-61.9	-87.1	3.0	15675781	84	65535
2025-01-14 10:03:36.56	232.66	88.53	-62.1	-87.3	2.9	15684097	84	65535
2025-01-14 10:03:36.98	240.95	88.58	-62.2	-87.4	2.9	15694755	84	65535
2025-01-14 10:03:37.41	249.97	88.61	-62.2	-87.4	2.9	15699836	84	65535
2025-01-14 10:03:37.84	259.12	88.60	-61.9	-87.1	2.9	15697906	84	65535
2025-01-14 10:03:38.25	267.54	88.56	-62.0	-87.2	2.9	15697906	84	65535
2025-01-14 10:03:38.68	275.71	88.49	-61.9	-87.1	3.1	15697326	84	65535
2025-01-14 10:03:39.11	282.99	88.39	-61.7	-86.9	2.8	15704254	83	65535
2025-01-14 10:03:39.54	289.32	88.27	-61.7	-86.9	2.9	15704254	83	65535
2025-01-14 10:03:39.97	294.76	88.12	-61.8	-87.0	3.2	15709381	83	65535
2025-01-14 10:03:40.39	299.29	87.97	-62.0	-87.2	2.9	15695648	83	65535
2025-01-14 10:03:40.82	303.26	87.81	-61.8	-87.0	2.8	15698463	83	65535
2025-01-14 10:03:41.25	306.66	87.63	-61.9	-87.1	2.9	15707901	83	65535
2025-01-14 10:03:41.68	309.57	87.45	-62.2	-87.4	2.9	15705856	84	65535
2025-01-14 10:03:42.11	312.09	87.26	-62.0	-87.2	3.0	15696372	84	65535
2025-01-14 10:03:42.54	314.28	87.06	-62.0	-87.2	2.9	15691123	84	65535
2025-01-14 10:03:42.97	316.20	86.87	-62.2	-87.4	3.1	15717834	84	65535
2025-01-14 10:03:43.40	317.89	86.67	-62.2	-87.4	3.3	15689208	84	65535
2025-01-14 10:03:43.82	319.35	86.47	-62.0	-87.2	2.9	15694328	84	65535
2025-01-14 10:03:44.25	320.69	86.26	-61.8	-87.0	2.8	15694175	83	65535
2025-01-14 10:03:44.67	321.86	86.06	-62.0	-87.2	2.9	15701789	84	65535
2025-01-14 10:03:45.10	322.94	85.85	-61.9	-87.1	2.8	15683258	84	65535
2025-01-14 10:03:45.51	323.87	85.66	-62.0	-87.2	2.9	15685844	84	65535
2025-01-14 10:03:45.93	324.74	85.45	-62.0	-87.2	2.9	15695312	84	65535
2025-01-14 10:03:46.36	325.55	85.24	-62.2	-87.4	3.2	15690338	84	65535
2025-01-14 10:03:46.77	326.27	85.04	-62.1	-87.3	2.9	15705665	84	65535
2025-01-14 10:03:47.19	326.94	84.83	-62.1	-87.3	2.9	15703224	84	65535
2025-01-14 10:03:47.62	327.57	84.62	-61.9	-87.1	3.2	15702262	83	65535
2025-01-14 10:03:48.04	328.14	84.41	-62.0	-87.2	3.1	15701187	84	65535
2025-01-14 10:03:48.47	328.68	84.20	-61.9	-87.1	2.9	15690811	84	65535
2025-01-14 10:03:48.90	329.19	83.98	-62.0	-87.2	2.9	15688255	84	65535
2025-01-14 10:03:49.33	329.66	83.77	-61.8	-87.0	3.3	15705299	83	65535
2025-01-14 10:03:49.76	330.09	83.55	-62.2	-87.4	2.9	15713493	84	65535
2025-01-14 10:03:50.19	330.50	83.34	-62.0	-87.2	2.9	15698081	84	65535
2025-01-14 10:03:50.60	330.87	83.13	-62.0	-87.2	3.2	15683258	84	65535
2025-01-14 10:03:51.03	331.23	82.92	-62.0	-87.2	2.9	15688484	83	65535
2025-01-14 10:03:51.45	331.56	82.71	-62.1	-87.3	3.0	15688728	84	65535
2025-01-14 10:03:51.88	331.88	82.49	-61.8	-87.0	3.0	15681152	84	65535
2025-01-14 10:03:52.31	332.19	82.28	-61.8	-87.0	3.1	15689689	84	65535
2025-01-14 10:03:52.72	332.46	82.07	-61.9	-87.2	3.0	15686737	84	65535
2025-01-14 10:03:53.16	332.74	81.85	-61.9	-87.1	3.0	15685974	84	65535
2025-01-14 10:03:53.57	332.98	81.65	-61.9	-87.1	3.0	15685195	84	65535
2025-01-14 10:03:53.99	333.22	81.44	-61.7	-86.9	3.2	15673866	84	65535
2025-01-14 10:03:54.42	333.46	81.22	-61.6	-86.8	2.9	15696952	83	65535
2025-01-14 10:03:54.85	333.68	81.01	-61.6	-86.8	2.9	15696952	83	65535
2025-01-14 10:03:55.28	333.89	80.79	-61.7	-86.9	2.9	15696922	83	65535
2025-01-14 10:03:55.69	334.08	80.59	-62.0	-87.2	2.9	15693344	83	65535
2025-01-14 10:03:56.13	334.28	80.37	-61.9	-87.1	3.0	15690383	84	65535
2025-01-14 10:03:56.55	334.46	80.16	-61.7	-86.9	3.2	15699775	84	65535
2025-01-14 10:03:56.97	334.63	79.95	-62.1	-87.3	3.3	15680534	84	65535
2025-01-14 10:03:57.40	334.80	79.73	-62.0	-87.2	3.2	15676307	84	65535
2025-01-14 10:03:57.83	334.97	79.52	-61.5	-86.7	2.9	15678443	83	65535
2025-01-14 10:03:58.26	335.12	79.31	-61.6	-86.8	2.9	15693046	83	65535
2025-01-14 10:03:58.68	335.27	79.10	-61.4	-86.6	3.0	15699180	83	65535
2025-01-14 10:03:59.11	335.41	78.88	-61.5	-86.7	2.9	15683296	82	65535
2025-01-14 10:03:59.54	335.55	78.67	-61.7	-86.9	3.1	15711692	84	65535
2025-01-14 10:03:59.97	335.69	78.46	-61.9	-87.1	3.4	15690299	84	65535
2025-01-14 10:04:00.39	335.81	78.25	-61.9	-87.1	3.4	15666564	84	65535
2025-01-14 10:04:00.82	335.94	78.04	-61.5	-86.7	2.3	15660293	83	65535
2025-01-14 10:04:01.25	336.05	77.82	-61.4	-86.6	3.0	15684486	83	65535
2025-01-14 10:04:01.68	336.17	77.61	-61.7	-87.0	3.1	15676048	83	65535
2025-01-14 10:04:02.09	336.28	77.41	-61.5	-86.7	3.0	15680046	83	65535
2025-01-14 10:04:02.52	336.38	77.20	-61.6	-86.8	2.9	15691078	83	65535
2025-01-14 10:04:02.95	336.49	76.99	-61.8	-87.0	3.0	15687782	83	65535
2025-01-14 10:04:03.38	336.59	76.77	-61.9	-87.1	3.3	15696014	83	65535
2025-01-14 10:04:03.81	336.69	76.56	-61.5	-86.7	2.9	15696945	83	65535
2025-01-14 10:04:04.24	336.78	76.35	-61.7	-86.9	3.0	15686393	83	65535
2025-01-14 10:04:04.67	336.87	76.14	-61.5	-86.7	2.9	15694915	83	65535
2025-01-14 10:04:05.10	336.96	75.93	-61.7	-86.9	2.9	15692794	83	65535
2025-01-14 10:04:05.53	337.05	75.72	-61.8	-87.0	2.9	15696449	83	65535
2025-01-14 10:04:05.96	337.13	75.51	-61.8	-87.0	2.9	15696907	83	65535
2025-01-14 10:04:06.39	337.22	75.30	-61.9	-87.1	3.3	15697128	83	65535
2025-01-14 10:04:06.81	337.29	75.10	-61.4	-86.6	3.1	15701667	83	65535
2025-01-14 10:04:07.24	337.37	74.89	-61.4	-86.6	2.9	15690010	83	65535
2025-01-14 10:04:07.66	337.44	74.69	-61.6	-86.8	2.9	15683982	83	65535
2025-01-14 10:04:08.09	337.52	74.48	-61.4	-86.6	2.9	15692115	83	65535
2025-01-14 10:04:08.50	337.58	74.28	-61.6	-86.8	2.9	15684799	83	65535
2025-01-14 10:04:08.92	337.65	74.08	-61.6	-86.8	3.0	15679573	84	65535
2025-01-14 10:04:09.33	337.71	73.88	-61.6	-86.8	3.1	15682746	83	65535
2025-01-14 10:04:09.76	337.78	73.67	-61.8	-87.0	2.9	15691223	83	65535
2025-01-14 10:04:10.17	337.84	73.48	-61.9	-87.1	2.9	15690971	83	65535
2025-01-14 10:04:10.59	337.90	73.28	-61.7	-86.9	3.0	15697242	83	65535
2025-01-14 10:04:11.03	337.96	73.07	-61.7	-86.9	2.9	15689811	83	65535
2025-01-14 10:04:11.46	338.02	72.86	-61.5	-86.7	3.2	15681152	83	65535
2025-01-14 10:04:11.88	338.08	72.66	-61.6	-86.8	3.0	15681152	83	65535
2025-01-14 10:04:12.32	338.14	72.45	-61.5	-86.7	3.1	15686721	83	65535
2025-01-14 10:04:12.74	338.19	72.25	-61.6	-86.8	3.3	15686721	83	65535
2025-01-14 10:04:13.18	338.25	72.04	-61.9	-87.1	3.0	15693450	83	65535
2025-01-14 10:04:13.59	338.30	71.85	-61.8	-87.0	3.1	15678192	84	65535
2025-01-14 10:04:14.01	338.35	71.65	-61.5	-86.7	3.2	15673103	84	65535
2025-01-14 10:04:14.44	338.40	71.45	-62.0	-87.2	2.9	15674888	83	65535
2025-01-14 10:04:14.87	338.45	71.24	-61.4	-86.6	3.0	15687828	83	65535
2025-01-14 10:04:15.30	338.50	71.04	-61.5	-86.7	3.0	15679626	83	65535
2025-01-14 10:04:15.73	338.54	70.84	-61.4	-86.6	2.9	15693733	83	65535
2025-01-14 10:04:16.14	338.59	70.65	-61.5	-86.7	2.9	15692153	83	65535
2025-01-14 10:04:16.57	338.63	70.45	-61.9	-87.1	2.9	15682571	83	65535
2025-01-14 10:04:17.00	338.68	70.25	-61.8	-87.0	3.2	15693115	84	65535

#Closed at: 2025-01-14 10:04:17