passes_logs/2025/01/30/Planum_Noyabrsk/Planum_Noyabrsk__20250130_055418_NOAA_19_rec.log

#Pass ID: 20250130_055418_NOAA 19
#Satellite: NOAA 19
#Configuration: NOAA 19
#Start time: 2025-01-30 05:54:23.077306

#LorettStation: 1.0.0 05.05.2024
#Station: Planum_Noyabrsk
#Location: 75.446886 lon 63.207202 lat
#TLE: 1 33591U 09005A   25029.51755474  .00000353  00000+0  21266-3 0  9991
#TLE: 2 33591  99.0169  93.3905 0013903  17.9953 342.1708 14.13271940823590

#Time	Az	El	Level	SNR
2025-01-30 05:54:29.279383	18.0	31.2	-56.3	0.0
2025-01-30 05:54:30.425341	18.0	31.4	-57.1	0.0
2025-01-30 05:54:31.568306	18.0	31.6	-50.7	0.0
2025-01-30 05:54:32.714263	17.9	31.9	-55.2	0.0
2025-01-30 05:54:33.856231	17.9	32.1	-54.7	0.0
2025-01-30 05:54:34.998199	17.9	32.3	-53.7	0.0
2025-01-30 05:54:36.141165	17.8	32.5	-54.4	0.0
2025-01-30 05:54:37.286125	17.8	32.8	-56.6	0.0
2025-01-30 05:54:38.428093	17.8	33.0	-52.5	0.0
2025-01-30 05:54:39.569570	17.7	33.2	-53.1	0.0
2025-01-30 05:54:40.711539	17.7	33.5	-52.9	0.0
2025-01-30 05:54:41.852509	17.6	33.7	-56.2	0.0
2025-01-30 05:54:42.994505	17.6	34.0	-51.1	0.0
2025-01-30 05:54:44.136473	17.6	34.2	-52.5	0.0
2025-01-30 05:54:45.282429	17.5	34.5	-58.0	0.0
2025-01-30 05:54:46.429892	17.5	34.7	-51.2	0.0
2025-01-30 05:54:47.570862	17.5	34.9	-51.8	0.0
2025-01-30 05:54:48.714825	17.4	35.2	-52.8	0.0
2025-01-30 05:54:49.859785	17.4	35.5	-53.4	0.0
2025-01-30 05:54:51.004744	17.3	35.7	-55.1	0.0
2025-01-30 05:54:52.146713	17.3	36.0	-54.0	0.0
2025-01-30 05:54:53.287683	17.2	36.2	-52.8	0.0
2025-01-30 05:54:54.431646	17.2	36.5	-55.8	0.0
2025-01-30 05:54:55.572617	17.1	36.8	-54.6	0.0
2025-01-30 05:54:56.715582	17.1	37.0	-56.2	0.0
2025-01-30 05:54:57.857550	17.1	37.3	-57.9	0.0
2025-01-30 05:54:58.999517	17.0	37.6	-56.6	0.0
2025-01-30 05:55:00.140996	17.0	37.8	-59.6	0.0
2025-01-30 05:55:01.282963	16.9	38.1	-57.5	0.0
2025-01-30 05:55:02.424932	16.9	38.4	-56.2	0.0
2025-01-30 05:55:03.565902	16.8	38.7	-57.9	0.0
2025-01-30 05:55:04.708867	16.7	38.9	-57.5	0.0
2025-01-30 05:55:05.849838	16.7	39.2	-57.9	0.0
2025-01-30 05:55:06.991806	16.6	39.5	-57.9	0.0
2025-01-30 05:55:08.132777	16.6	39.8	-57.3	0.0
2025-01-30 05:55:09.273747	16.5	40.1	-58.4	0.0
2025-01-30 05:55:10.415226	16.5	40.4	-58.3	0.0
2025-01-30 05:55:11.557194	16.4	40.7	-58.5	2.1
2025-01-30 05:55:12.699164	16.3	41.0	-59.8	3.4
2025-01-30 05:55:13.840150	16.3	41.3	-59.7	2.8
2025-01-30 05:55:14.982119	16.2	41.6	-58.7	1.6
2025-01-30 05:55:16.126081	16.2	41.9	-60.1	4.1
2025-01-30 05:55:17.268049	16.1	42.2	-59.9	4.2
2025-01-30 05:55:18.409019	16.0	42.5	-60.3	5.4
2025-01-30 05:55:19.551985	16.0	42.8	-61.1	4.9
2025-01-30 05:55:20.690961	15.9	43.1	-61.3	7.8
2025-01-30 05:55:21.833926	15.8	43.4	-61.8	8.5
2025-01-30 05:55:22.974896	15.7	43.7	-62.5	7.5
2025-01-30 05:55:24.115868	15.7	44.1	-60.2	5.1
2025-01-30 05:55:25.258341	15.6	44.4	-62.1	9.3
2025-01-30 05:55:26.402305	15.5	44.7	-63.3	11.4
2025-01-30 05:55:27.546773	15.4	45.1	-63.4	10.8
2025-01-30 05:55:28.688741	15.3	45.4	-62.1	8.6
2025-01-30 05:55:29.828715	15.3	45.7	-61.9	8.1
2025-01-30 05:55:30.970192	15.2	46.1	-62.2	9.4
2025-01-30 05:55:32.112163	15.1	46.4	-61.7	9.0
2025-01-30 05:55:33.256123	15.0	46.7	-62.6	11.2
2025-01-30 05:55:34.399088	14.9	47.1	-62.0	8.1
2025-01-30 05:55:35.545046	14.8	47.4	-62.4	9.0
2025-01-30 05:55:36.687013	14.7	47.8	-62.8	9.8
2025-01-30 05:55:37.832991	14.6	48.1	-61.7	8.8
2025-01-30 05:55:38.975956	14.5	48.5	-62.5	9.3
2025-01-30 05:55:40.117924	14.4	48.9	-62.5	10.2
2025-01-30 05:55:41.259402	14.3	49.2	-63.5	11.2
2025-01-30 05:55:42.401370	14.2	49.6	-61.7	8.7
2025-01-30 05:55:43.541343	14.1	50.0	-61.7	9.3
2025-01-30 05:55:44.684309	14.0	50.3	-61.6	8.3
2025-01-30 05:55:45.829268	13.9	50.7	-61.6	9.9
2025-01-30 05:55:46.969242	13.7	51.1	-62.0	8.4
2025-01-30 05:55:48.110719	13.6	51.5	-62.2	9.1
2025-01-30 05:55:49.253684	13.5	51.8	-61.9	9.1
2025-01-30 05:55:50.396159	13.4	52.2	-61.0	7.1
2025-01-30 05:55:51.539145	13.2	52.6	-63.4	11.2
2025-01-30 05:55:52.680115	13.1	53.0	-61.7	8.4
2025-01-30 05:55:53.823081	13.0	53.4	-60.1	5.3
2025-01-30 05:55:54.963560	12.8	53.8	-59.2	5.2
2025-01-30 05:55:56.106526	12.7	54.2	-60.9	5.9
2025-01-30 05:55:57.250488	12.5	54.6	-61.1	8.9
2025-01-30 05:55:58.392457	12.4	55.0	-60.8	5.9
2025-01-30 05:55:59.533427	12.2	55.4	-60.7	7.2
2025-01-30 05:56:00.676392	12.0	55.8	-60.8	6.9
2025-01-30 05:56:01.819358	11.9	56.3	-61.0	8.5
2025-01-30 05:56:02.959331	11.7	56.7	-63.2	9.1
2025-01-30 05:56:04.101299	11.5	57.1	-61.2	8.8
2025-01-30 05:56:05.242816	11.3	57.5	-60.2	6.3
2025-01-30 05:56:06.387776	11.1	57.9	-61.7	5.2
2025-01-30 05:56:07.530741	10.9	58.4	-61.3	6.7
2025-01-30 05:56:08.671224	10.7	58.8	-59.9	3.4
2025-01-30 05:56:09.816691	10.5	59.2	-60.5	6.4
2025-01-30 05:56:10.958657	10.3	59.7	-60.7	6.3
2025-01-30 05:56:12.101623	10.0	60.1	-61.0	2.9
2025-01-30 05:56:13.241596	9.8	60.6	-61.5	4.2
2025-01-30 05:56:14.383565	9.5	61.0	-62.1	7.1
2025-01-30 05:56:15.524535	9.3	61.5	-59.5	6.9
2025-01-30 05:56:16.671003	9.0	61.9	-60.8	5.9
2025-01-30 05:56:17.812971	8.8	62.4	-60.6	0.0
2025-01-30 05:56:18.953943	8.5	62.8	-59.3	5.4
2025-01-30 05:56:20.095910	8.2	63.3	-61.7	3.4
2025-01-30 05:56:21.236880	7.9	63.7	-60.7	5.2
2025-01-30 05:56:22.379846	7.5	64.2	-59.6	0.0
2025-01-30 05:56:23.520816	7.2	64.7	-59.1	1.2
2025-01-30 05:56:24.663782	6.8	65.1	-59.0	0.0
2025-01-30 05:56:25.805750	6.5	65.6	-59.6	1.6
2025-01-30 05:56:26.947718	6.1	66.1	-59.4	0.0
2025-01-30 05:56:28.092678	5.7	66.5	-60.1	2.6
2025-01-30 05:56:29.233648	5.3	67.0	-60.5	2.8
2025-01-30 05:56:30.378625	4.9	67.5	-61.9	3.8
2025-01-30 05:56:31.521590	4.4	68.0	-60.5	0.0
2025-01-30 05:56:32.661564	3.9	68.4	-62.9	3.1
2025-01-30 05:56:33.804045	3.4	68.9	-63.3	6.4
2025-01-30 05:56:34.947010	2.9	69.4	-62.2	3.3
2025-01-30 05:56:36.088978	2.3	69.9	-60.2	5.2
2025-01-30 05:56:37.229458	1.7	70.3	-56.9	0.0
2025-01-30 05:56:38.371426	1.1	70.8	-60.7	1.5
2025-01-30 05:56:39.512398	0.5	71.3	-60.4	4.1
2025-01-30 05:56:40.653876	359.8	71.8	-61.7	3.6
2025-01-30 05:56:41.795844	359.1	72.3	-64.5	6.0
2025-01-30 05:56:42.939807	358.3	72.7	-57.4	0.0
2025-01-30 05:56:44.081775	357.5	73.2	-62.5	4.5
2025-01-30 05:56:45.224740	356.6	73.7	-59.0	0.0
2025-01-30 05:56:46.366218	355.7	74.2	-58.8	0.0
2025-01-30 05:56:47.511177	354.7	74.7	-60.3	0.0
2025-01-30 05:56:48.652147	353.7	75.1	-59.9	0.0
2025-01-30 05:56:49.794116	352.6	75.6	-60.3	1.1
2025-01-30 05:56:50.936103	351.4	76.0	-60.9	3.2
2025-01-30 05:56:52.078071	350.1	76.5	-59.6	0.0
2025-01-30 05:56:53.218044	348.7	77.0	-62.7	4.7
2025-01-30 05:56:54.360522	347.2	77.4	-62.9	4.8
2025-01-30 05:56:55.501493	345.7	77.8	-59.5	0.0
2025-01-30 05:56:56.643461	344.0	78.3	-62.5	2.6
2025-01-30 05:56:57.786426	342.1	78.7	-58.8	0.4
2025-01-30 05:56:58.932399	340.2	79.1	-63.0	7.3
2025-01-30 05:57:00.074367	338.0	79.5	-61.3	2.6
2025-01-30 05:57:01.216335	335.7	79.9	-59.4	2.5
2025-01-30 05:57:02.355817	333.3	80.2	-62.6	4.4
2025-01-30 05:57:03.496298	330.6	80.6	-61.9	6.7
2025-01-30 05:57:04.637269	327.7	80.9	-60.8	6.1
2025-01-30 05:57:05.810154	324.6	81.2	-62.2	7.8
2025-01-30 05:57:06.952123	321.3	81.5	-61.7	5.3
2025-01-30 05:57:08.095088	317.8	81.7	-61.0	3.5
2025-01-30 05:57:09.236573	314.1	81.9	-59.4	2.7
2025-01-30 05:57:10.377543	310.3	82.1	-61.7	7.1
2025-01-30 05:57:11.536467	306.2	82.3	-61.7	6.5
2025-01-30 05:57:12.677944	302.0	82.4	-62.2	7.3
2025-01-30 05:57:13.820909	297.7	82.4	-62.5	6.8
2025-01-30 05:57:14.993795	293.3	82.4	-61.7	2.8
2025-01-30 05:57:16.135763	289.0	82.4	-61.8	5.5
2025-01-30 05:57:17.281231	284.8	82.3	-62.6	5.6
2025-01-30 05:57:18.425193	280.6	82.2	-62.0	4.4
2025-01-30 05:57:19.567161	276.6	82.1	-62.3	4.1
2025-01-30 05:57:20.715114	272.8	81.9	-59.8	0.7
2025-01-30 05:57:21.855600	269.1	81.7	-60.6	3.3
2025-01-30 05:57:22.998565	265.7	81.4	-63.4	6.5
2025-01-30 05:57:24.140533	262.4	81.1	-59.1	2.3
2025-01-30 05:57:25.281503	259.4	80.8	-61.9	4.0
2025-01-30 05:57:26.423471	256.6	80.5	-59.5	3.2
2025-01-30 05:57:27.564442	254.0	80.2	-60.6	5.9
2025-01-30 05:57:28.736331	251.5	79.8	-63.3	9.6
2025-01-30 05:57:29.895254	249.2	79.4	-63.3	8.2
2025-01-30 05:57:31.054683	247.1	79.0	-63.5	7.6
2025-01-30 05:57:32.196651	245.1	78.6	-62.6	9.0
2025-01-30 05:57:33.342608	243.3	78.2	-62.2	7.2
2025-01-30 05:57:34.527971	241.6	77.7	-60.1	5.6
2025-01-30 05:57:35.673930	240.0	77.3	-60.4	5.8
2025-01-30 05:57:36.816894	238.6	76.8	-62.1	7.0
2025-01-30 05:57:37.957865	237.2	76.4	-61.8	6.9
2025-01-30 05:57:39.099833	236.0	75.9	-62.6	4.4
2025-01-30 05:57:40.250290	234.8	75.4	-64.0	6.2
2025-01-30 05:57:41.394252	233.7	75.0	-65.5	8.0
2025-01-30 05:57:42.537218	232.7	74.5	-65.4	11.8
2025-01-30 05:57:43.678696	231.7	74.0	-63.3	10.2
2025-01-30 05:57:44.821662	230.8	73.6	-62.9	7.2
2025-01-30 05:57:45.964135	230.0	73.1	-63.1	7.8
2025-01-30 05:57:47.105617	229.2	72.6	-63.5	6.3
2025-01-30 05:57:48.246587	228.4	72.1	-63.8	8.0
2025-01-30 05:57:49.389553	227.7	71.6	-64.7	10.1
2025-01-30 05:57:50.529526	227.0	71.2	-64.0	6.7
2025-01-30 05:57:51.671004	226.4	70.7	-64.4	7.8
2025-01-30 05:57:52.812972	225.8	70.2	-64.8	8.2
2025-01-30 05:57:53.986365	225.2	69.7	-65.1	10.9
2025-01-30 05:57:55.127335	224.6	69.2	-64.8	7.9
2025-01-30 05:57:56.269304	224.1	68.8	-64.8	6.8
2025-01-30 05:57:57.411271	223.6	68.3	-65.0	9.7
2025-01-30 05:57:58.553239	223.2	67.8	-64.9	10.7
2025-01-30 05:57:59.694716	222.7	67.3	-65.2	11.8
2025-01-30 05:58:00.835196	222.3	66.8	-64.4	10.1
2025-01-30 05:58:01.975676	221.9	66.4	-64.8	10.9
2025-01-30 05:58:03.119640	221.5	65.9	-64.4	10.8
2025-01-30 05:58:04.260610	221.1	65.4	-64.6	11.2
2025-01-30 05:58:05.402577	220.7	65.0	-64.3	10.6
2025-01-30 05:58:06.545544	220.4	64.5	-64.1	10.6
2025-01-30 05:58:07.687522	220.1	64.0	-65.1	11.7
2025-01-30 05:58:08.853415	219.7	63.6	-63.9	12.0
2025-01-30 05:58:09.994386	219.4	63.1	-64.4	11.6
2025-01-30 05:58:11.136354	219.1	62.7	-63.9	11.7
2025-01-30 05:58:12.277832	218.9	62.2	-63.1	9.8
2025-01-30 05:58:13.419800	218.6	61.7	-63.6	10.1
2025-01-30 05:58:14.561768	218.3	61.3	-64.7	11.6
2025-01-30 05:58:15.702738	218.1	60.9	-65.3	12.6
2025-01-30 05:58:16.846702	217.8	60.4	-65.4	12.8
2025-01-30 05:58:17.987672	217.6	60.0	-65.2	12.1
2025-01-30 05:58:19.131154	217.4	59.5	-63.8	11.9
2025-01-30 05:58:20.272123	217.1	59.1	-64.9	11.8
2025-01-30 05:58:21.415088	216.9	58.7	-61.6	6.1
2025-01-30 05:58:22.583985	216.7	58.2	-64.4	8.1
2025-01-30 05:58:23.724955	216.5	57.8	-62.7	7.3
2025-01-30 05:58:24.867921	216.3	57.4	-63.0	6.0
2025-01-30 05:58:26.009907	216.1	56.9	-65.0	11.4
2025-01-30 05:58:27.151876	216.0	56.5	-64.1	9.0
2025-01-30 05:58:28.295838	215.8	56.1	-65.9	13.4
2025-01-30 05:58:29.436809	215.6	55.7	-65.4	13.5
2025-01-30 05:58:30.577288	215.4	55.3	-65.0	9.2
2025-01-30 05:58:31.718259	215.3	54.9	-65.5	11.8
2025-01-30 05:58:32.861224	215.1	54.5	-65.4	12.6
2025-01-30 05:58:34.001197	215.0	54.1	-64.6	10.9
2025-01-30 05:58:35.143166	214.8	53.7	-65.6	12.4
2025-01-30 05:58:36.284136	214.7	53.3	-65.6	14.8
2025-01-30 05:58:37.458526	214.5	52.9	-64.9	11.9
2025-01-30 05:58:38.599496	214.4	52.5	-63.9	9.2
2025-01-30 05:58:39.743460	214.3	52.1	-64.6	11.5
2025-01-30 05:58:40.884430	214.2	51.7	-65.2	12.7
2025-01-30 05:58:42.026398	214.0	51.3	-65.1	11.2
2025-01-30 05:58:43.168366	213.9	50.9	-65.1	11.0
2025-01-30 05:58:44.308847	213.8	50.6	-65.5	13.5
2025-01-30 05:58:45.451813	213.7	50.2	-65.1	10.8
2025-01-30 05:58:46.592783	213.6	49.8	-65.9	12.2
2025-01-30 05:58:47.737743	213.5	49.4	-66.0	11.4
2025-01-30 05:58:48.878225	213.3	49.1	-66.2	12.0
2025-01-30 05:58:50.020193	213.2	48.7	-66.2	10.0
2025-01-30 05:58:51.188600	213.1	48.4	-66.5	10.8
2025-01-30 05:58:52.330077	213.0	48.0	-66.2	10.6
2025-01-30 05:58:53.472552	212.9	47.6	-66.3	11.4
2025-01-30 05:58:54.613523	212.8	47.3	-66.4	11.1
2025-01-30 05:58:55.754494	212.8	46.9	-66.9	10.6
2025-01-30 05:58:56.894975	212.7	46.6	-67.0	10.3
2025-01-30 05:58:58.038449	212.6	46.3	-67.3	10.9
2025-01-30 05:58:59.180417	212.5	45.9	-67.0	9.8
2025-01-30 05:59:00.331361	212.4	45.6	-67.2	11.1
2025-01-30 05:59:01.472333	212.3	45.2	-67.7	11.2
2025-01-30 05:59:02.613303	212.2	44.9	-67.3	10.4
2025-01-30 05:59:03.755271	212.2	44.6	-67.6	11.1
2025-01-30 05:59:04.955085	212.1	44.2	-67.8	10.5
2025-01-30 05:59:06.107533	212.0	43.9	-67.4	10.2
2025-01-30 05:59:07.248503	211.9	43.6	-67.4	10.5
2025-01-30 05:59:08.391470	211.9	43.3	-67.3	10.0
2025-01-30 05:59:09.532440	211.8	43.0	-67.5	10.0
2025-01-30 05:59:10.707320	211.7	42.6	-67.0	10.1
2025-01-30 05:59:11.848800	211.6	42.3	-67.3	11.1
2025-01-30 05:59:12.990768	211.6	42.0	-67.4	12.8
2025-01-30 05:59:14.132736	211.5	41.7	-67.0	11.5
2025-01-30 05:59:15.274214	211.4	41.4	-66.7	11.3
2025-01-30 05:59:16.417179	211.4	41.1	-66.8	11.1
2025-01-30 05:59:17.558150	211.3	40.8	-66.7	11.3
2025-01-30 05:59:18.704107	211.3	40.5	-66.9	10.6
2025-01-30 05:59:19.846075	211.2	40.2	-67.0	11.3
2025-01-30 05:59:21.008497	211.1	39.9	-66.8	11.0
2025-01-30 05:59:22.149467	211.1	39.6	-66.9	12.4
2025-01-30 05:59:23.292433	211.0	39.4	-67.1	11.8
2025-01-30 05:59:24.433911	211.0	39.1	-66.9	11.8
2025-01-30 05:59:25.576387	210.9	38.8	-66.8	11.0
2025-01-30 05:59:26.718354	210.9	38.5	-67.0	11.6
2025-01-30 05:59:27.859343	210.8	38.2	-66.9	11.4
2025-01-30 05:59:29.000313	210.8	38.0	-66.9	10.5
2025-01-30 05:59:30.169210	210.7	37.7	-66.3	10.1
2025-01-30 05:59:31.311684	210.7	37.4	-66.7	10.2
2025-01-30 05:59:32.454649	210.6	37.1	-66.3	9.9
2025-01-30 05:59:33.595130	210.6	36.9	-66.7	9.8
2025-01-30 05:59:34.736631	210.5	36.6	-66.5	8.4
2025-01-30 05:59:35.879597	210.5	36.3	-66.5	10.1
2025-01-30 05:59:37.019570	210.4	36.1	-66.8	8.5
2025-01-30 05:59:38.163042	210.4	35.8	-66.5	9.6
2025-01-30 05:59:39.304013	210.3	35.6	-66.4	9.7
2025-01-30 05:59:40.444983	210.3	35.3	-66.7	11.7
2025-01-30 05:59:41.590941	210.3	35.1	-65.7	7.8
2025-01-30 05:59:42.732909	210.2	34.8	-66.2	9.1
2025-01-30 05:59:43.873879	210.2	34.6	-66.3	9.6
2025-01-30 05:59:45.014852	210.1	34.3	-66.4	9.0
2025-01-30 05:59:46.156818	210.1	34.1	-66.3	10.0
2025-01-30 05:59:47.299783	210.1	33.8	-66.4	10.3
2025-01-30 05:59:48.439756	210.0	33.6	-65.7	9.5
2025-01-30 05:59:49.581724	210.0	33.3	-65.8	8.1
2025-01-30 05:59:50.722695	209.9	33.1	-65.9	8.7
2025-01-30 05:59:51.865660	209.9	32.9	-65.5	9.5
2025-01-30 05:59:53.010620	209.9	32.6	-66.0	10.5
2025-01-30 05:59:54.152588	209.8	32.4	-65.9	9.6
2025-01-30 05:59:55.316498	209.8	32.2	-65.7	9.3
2025-01-30 05:59:56.456472	209.8	31.9	-65.6	8.9
2025-01-30 05:59:57.599436	209.7	31.7	-65.7	9.4
2025-01-30 05:59:58.739918	209.7	31.5	-65.9	9.7
2025-01-30 05:59:59.883881	209.7	31.3	-65.6	9.1
2025-01-30 06:00:01.025850	209.6	31.1	-65.1	9.0
2025-01-30 06:00:02.167325	209.6	30.8	-65.5	9.6
2025-01-30 06:00:03.310294	209.6	30.6	-65.3	8.5
2025-01-30 06:00:04.451261	209.5	30.4	-65.7	10.6
2025-01-30 06:00:05.594227	209.5	30.2	-65.9	10.3
2025-01-30 06:00:06.735707	209.5	30.0	-67.7	8.4
#Closed at: 2025-01-30 05:54:18.081599