passes_logs/2025/01/30/Planum_Noyabrsk/Planum_Noyabrsk__20250130_075717_NOAA_18_rec.log

#Pass ID: 20250130_075717_NOAA 18
#Satellite: NOAA 18
#Configuration: NOAA 18
#Start time: 2025-01-30 07:57:22.714346

#LorettStation: 1.0.0 05.05.2024
#Station: Planum_Noyabrsk
#Location: 75.446886 lon 63.207202 lat
#TLE: 1 28654U 05018A   25029.46161023  .00000435  00000+0  25421-3 0  9998
#TLE: 2 28654  98.8543 110.3710 0014937 139.5028 220.7258 14.13500950 15223

#Time	Az	El	Level	SNR
2025-01-30 07:57:29.468210	354.9	31.0	-60.4	1.8
2025-01-30 07:57:30.608176	354.7	31.2	-60.6	0.4
2025-01-30 07:57:31.750138	354.4	31.3	-60.2	0.0
2025-01-30 07:57:32.891101	354.2	31.5	-60.9	2.5
2025-01-30 07:57:34.034060	353.9	31.7	-58.9	0.4
2025-01-30 07:57:35.175024	353.6	31.8	-60.2	1.6
2025-01-30 07:57:36.316985	353.3	32.0	-60.0	2.0
2025-01-30 07:57:37.458457	353.1	32.2	-60.1	1.4
2025-01-30 07:57:38.599421	352.8	32.4	-60.1	0.1
2025-01-30 07:57:39.740891	352.5	32.5	-60.1	0.2
2025-01-30 07:57:40.887842	352.2	32.7	-59.7	0.0
2025-01-30 07:57:42.029801	351.9	32.9	-59.4	0.9
2025-01-30 07:57:43.171270	351.6	33.0	-59.7	0.0
2025-01-30 07:57:44.312235	351.4	33.2	-58.5	0.0
2025-01-30 07:57:45.454196	351.1	33.4	-59.1	0.0
2025-01-30 07:57:46.596157	350.8	33.6	-57.4	0.0
2025-01-30 07:57:47.742108	350.4	33.7	-60.4	2.0
2025-01-30 07:57:48.887063	350.1	33.9	-59.8	1.7
2025-01-30 07:57:50.028533	349.8	34.1	-59.3	1.3
2025-01-30 07:57:51.173998	349.5	34.2	-59.6	1.6
2025-01-30 07:57:52.318460	349.2	34.4	-57.5	0.0
2025-01-30 07:57:53.459425	348.9	34.6	-59.5	1.0
2025-01-30 07:57:54.601386	348.6	34.8	-59.5	1.9
2025-01-30 07:57:55.742350	348.2	34.9	-60.8	5.2
2025-01-30 07:57:56.884312	347.9	35.1	-59.4	2.0
2025-01-30 07:57:58.031259	347.6	35.3	-58.5	0.9
2025-01-30 07:57:59.171226	347.2	35.5	-59.2	1.3
2025-01-30 07:58:00.313187	346.9	35.6	-58.0	0.0
2025-01-30 07:58:01.456146	346.5	35.8	-57.8	0.7
2025-01-30 07:58:02.597110	346.2	36.0	-58.7	2.5
2025-01-30 07:58:03.740069	345.8	36.1	-58.2	1.2
2025-01-30 07:58:04.884025	345.5	36.3	-59.9	6.0
2025-01-30 07:58:06.025986	345.1	36.5	-59.3	5.0
2025-01-30 07:58:07.165952	344.8	36.6	-58.1	2.0
2025-01-30 07:58:08.309908	344.4	36.8	-56.1	0.0
2025-01-30 07:58:09.450873	344.0	37.0	-56.7	1.0
2025-01-30 07:58:10.593831	343.6	37.1	-57.6	2.2
2025-01-30 07:58:11.737787	343.3	37.3	-58.5	0.8
2025-01-30 07:58:12.880256	342.9	37.5	-59.2	3.4
2025-01-30 07:58:14.021726	342.5	37.6	-59.1	2.4
2025-01-30 07:58:15.162690	342.1	37.8	-57.4	0.0
2025-01-30 07:58:16.304651	341.7	38.0	-59.1	0.0
2025-01-30 07:58:17.446613	341.3	38.1	-58.6	0.5
2025-01-30 07:58:18.587576	340.9	38.3	-61.1	2.9
2025-01-30 07:58:19.728540	340.5	38.5	-60.5	0.7
2025-01-30 07:58:20.873003	340.1	38.6	-59.2	2.9
2025-01-30 07:58:22.015964	339.7	38.8	-58.6	0.0
2025-01-30 07:58:23.157923	339.2	38.9	-58.2	0.0
2025-01-30 07:58:24.301878	338.8	39.1	-56.8	0.0
2025-01-30 07:58:25.443840	338.4	39.3	-57.9	0.0
2025-01-30 07:58:26.586799	338.0	39.4	-58.7	1.6
2025-01-30 07:58:27.728760	337.5	39.6	-59.9	3.5
2025-01-30 07:58:28.874711	337.1	39.7	-57.2	0.0
2025-01-30 07:58:30.016672	336.6	39.9	-59.0	1.8
2025-01-30 07:58:31.160140	336.2	40.0	-58.7	0.7
2025-01-30 07:58:32.300106	335.7	40.2	-59.9	3.1
2025-01-30 07:58:33.442068	335.3	40.3	-59.9	4.0
2025-01-30 07:58:34.582541	334.8	40.5	-60.3	3.3
2025-01-30 07:58:35.725032	334.3	40.6	-59.5	2.8
2025-01-30 07:58:36.865507	333.9	40.8	-59.3	1.9
2025-01-30 07:58:38.007468	333.4	40.9	-57.9	0.0
2025-01-30 07:58:39.148944	332.9	41.0	-59.1	0.0
2025-01-30 07:58:40.290903	332.4	41.2	-59.6	2.7
2025-01-30 07:58:41.430870	332.0	41.3	-60.4	3.5
2025-01-30 07:58:42.573339	331.5	41.4	-59.6	2.6
2025-01-30 07:58:43.714810	331.0	41.6	-61.1	4.4
2025-01-30 07:58:44.856771	330.5	41.7	-60.4	3.8
2025-01-30 07:58:45.999733	330.0	41.8	-60.2	2.0
2025-01-30 07:58:47.143686	329.5	42.0	-59.4	0.1
2025-01-30 07:58:48.285648	328.9	42.1	-60.7	5.3
2025-01-30 07:58:49.425614	328.4	42.2	-60.5	2.2
2025-01-30 07:58:50.568573	327.9	42.3	-60.6	3.2
2025-01-30 07:58:51.709537	327.4	42.4	-62.1	4.6
2025-01-30 07:58:52.851498	326.9	42.6	-62.0	5.9
2025-01-30 07:58:53.992462	326.3	42.7	-61.1	3.2
2025-01-30 07:58:55.134423	325.8	42.8	-62.9	7.8
2025-01-30 07:58:56.276385	325.3	42.9	-61.9	5.2
2025-01-30 07:58:57.420340	324.7	43.0	-61.2	4.5
2025-01-30 07:58:58.563299	324.2	43.1	-61.6	4.0
2025-01-30 07:58:59.704263	323.6	43.2	-60.1	3.7
2025-01-30 07:59:00.850214	323.1	43.3	-60.6	4.6
2025-01-30 07:59:01.993173	322.5	43.4	-61.3	5.0
2025-01-30 07:59:03.132650	322.0	43.5	-60.8	5.2
2025-01-30 07:59:04.275610	321.4	43.6	-61.3	7.2
2025-01-30 07:59:05.416573	320.8	43.7	-62.1	4.9
2025-01-30 07:59:06.558046	320.3	43.7	-63.4	9.1
2025-01-30 07:59:07.699009	319.7	43.8	-64.3	10.4
2025-01-30 07:59:08.841968	319.1	43.9	-62.8	7.1
2025-01-30 07:59:09.982932	318.5	44.0	-64.0	8.9
2025-01-30 07:59:11.122901	318.0	44.0	-62.8	8.4
2025-01-30 07:59:12.264861	317.4	44.1	-63.0	9.5
2025-01-30 07:59:13.406333	316.8	44.2	-63.9	10.9
2025-01-30 07:59:14.549291	316.2	44.2	-63.7	10.5
2025-01-30 07:59:15.689764	315.6	44.3	-62.5	7.5
2025-01-30 07:59:16.831725	315.0	44.3	-62.4	8.5
2025-01-30 07:59:17.972198	314.4	44.4	-64.1	11.1
2025-01-30 07:59:19.114160	313.8	44.4	-63.2	9.9
2025-01-30 07:59:20.256122	313.2	44.5	-63.4	9.7
2025-01-30 07:59:21.396595	312.7	44.5	-62.8	8.2
2025-01-30 07:59:22.539553	312.0	44.6	-63.1	9.2
2025-01-30 07:59:23.680517	311.4	44.6	-63.8	10.3
2025-01-30 07:59:24.822986	310.8	44.6	-63.8	9.4
2025-01-30 07:59:25.963949	310.2	44.7	-63.5	8.9
2025-01-30 07:59:27.110407	309.6	44.7	-62.9	8.7
2025-01-30 07:59:28.258354	309.0	44.7	-63.5	9.1
2025-01-30 07:59:29.406298	308.4	44.7	-63.2	9.3
2025-01-30 07:59:30.548260	307.8	44.7	-63.5	8.6
2025-01-30 07:59:31.691218	307.2	44.7	-63.1	9.0
2025-01-30 07:59:32.832182	306.6	44.7	-63.0	8.5
2025-01-30 07:59:33.975141	306.0	44.7	-62.5	7.7
2025-01-30 07:59:35.116105	305.4	44.7	-62.9	8.8
2025-01-30 07:59:36.257068	304.8	44.7	-62.7	8.2
2025-01-30 07:59:37.400534	304.2	44.7	-61.3	7.9
2025-01-30 07:59:38.547482	303.6	44.7	-61.3	6.4
2025-01-30 07:59:39.688446	303.0	44.7	-62.3	6.3
2025-01-30 07:59:40.830917	302.4	44.7	-61.0	4.7
2025-01-30 07:59:41.974872	301.7	44.7	-61.9	4.8
2025-01-30 07:59:43.119826	301.1	44.6	-63.5	8.6
2025-01-30 07:59:44.262293	300.5	44.6	-63.5	8.1
2025-01-30 07:59:45.403764	299.9	44.6	-63.5	8.7
2025-01-30 07:59:46.546722	299.3	44.5	-63.2	7.9
2025-01-30 07:59:47.688194	298.7	44.5	-62.7	7.4
2025-01-30 07:59:48.839134	298.1	44.4	-62.5	7.1
2025-01-30 07:59:49.981093	297.5	44.4	-62.1	6.3
2025-01-30 07:59:51.126046	296.9	44.3	-62.4	7.0
2025-01-30 07:59:52.268007	296.4	44.3	-63.4	10.6
2025-01-30 07:59:53.410966	295.8	44.2	-62.5	6.8
2025-01-30 07:59:54.552438	295.2	44.2	-62.7	7.3
2025-01-30 07:59:55.694399	294.6	44.1	-63.0	6.4
2025-01-30 07:59:56.837358	294.0	44.0	-59.2	0.9
2025-01-30 07:59:57.980824	293.4	44.0	-60.2	2.2
2025-01-30 07:59:59.121788	292.9	43.9	-59.1	1.4
2025-01-30 08:00:00.264257	292.3	43.8	-65.1	10.2
2025-01-30 08:00:01.407723	291.7	43.7	-62.7	4.8
2025-01-30 08:00:02.548687	291.1	43.7	-64.5	9.8
2025-01-30 08:00:03.690648	290.6	43.6	-61.8	4.0
2025-01-30 08:00:04.831612	290.0	43.5	-61.7	5.8
2025-01-30 08:00:05.973574	289.4	43.4	-62.9	6.8
2025-01-30 08:00:07.117530	288.9	43.3	-62.9	8.9
2025-01-30 08:00:08.258494	288.3	43.2	-61.7	5.6
2025-01-30 08:00:09.401453	287.8	43.1	-61.5	4.6
2025-01-30 08:00:10.544411	287.2	43.0	-62.4	4.7
2025-01-30 08:00:11.684884	286.7	42.9	-62.4	6.5
2025-01-30 08:00:12.826845	286.2	42.8	-62.9	3.0
2025-01-30 08:00:13.967809	285.6	42.7	-63.3	6.5
2025-01-30 08:00:15.109283	285.1	42.6	-62.3	6.0
2025-01-30 08:00:16.250246	284.6	42.4	-63.5	7.2
2025-01-30 08:00:17.392208	284.0	42.3	-62.7	6.2
2025-01-30 08:00:18.531683	283.5	42.2	-62.7	7.6
2025-01-30 08:00:19.674642	283.0	42.1	-61.3	4.6
2025-01-30 08:00:20.815606	282.5	42.0	-60.6	3.9
2025-01-30 08:00:21.957568	282.0	41.8	-62.0	6.6
2025-01-30 08:00:23.099041	281.5	41.7	-61.4	7.2
2025-01-30 08:00:24.242000	281.0	41.6	-62.3	7.9
2025-01-30 08:00:25.380969	280.5	41.4	-61.5	6.2
2025-01-30 08:00:26.528423	280.0	41.3	-61.6	5.7
2025-01-30 08:00:27.670384	279.5	41.2	-62.0	7.1
2025-01-30 08:00:28.812346	279.0	41.0	-62.1	4.7
2025-01-30 08:00:29.953309	278.5	40.9	-61.6	5.3
2025-01-30 08:00:31.099261	278.1	40.7	-62.6	6.6
2025-01-30 08:00:32.241222	277.6	40.6	-62.4	6.3
2025-01-30 08:00:33.383183	277.1	40.5	-61.9	5.4
2025-01-30 08:00:34.523149	276.7	40.3	-61.2	5.2
2025-01-30 08:00:35.665119	276.2	40.2	-63.7	8.4
2025-01-30 08:00:36.805585	275.7	40.0	-62.1	6.0
2025-01-30 08:00:37.951535	275.3	39.9	-63.3	7.7
2025-01-30 08:00:39.095491	274.8	39.7	-62.8	7.6
2025-01-30 08:00:40.236965	274.4	39.6	-62.7	6.4
2025-01-30 08:00:41.378926	274.0	39.4	-62.2	4.0
2025-01-30 08:00:42.521886	273.5	39.2	-64.0	8.9
2025-01-30 08:00:43.664353	273.1	39.1	-65.0	11.1
2025-01-30 08:00:44.806316	272.7	38.9	-64.6	10.1
2025-01-30 08:00:45.948276	272.3	38.8	-64.2	8.8
2025-01-30 08:00:47.091742	271.8	38.6	-64.0	7.8
2025-01-30 08:00:48.234703	271.4	38.4	-63.5	6.9
2025-01-30 08:00:49.376663	271.0	38.3	-63.3	7.4
2025-01-30 08:00:50.517627	270.6	38.1	-63.0	6.9
2025-01-30 08:00:51.661582	270.2	38.0	-63.5	4.5
2025-01-30 08:00:52.803544	269.8	37.8	-61.6	2.0
2025-01-30 08:00:53.944508	269.4	37.6	-63.8	6.8
2025-01-30 08:00:55.086469	269.0	37.5	-64.6	8.1
2025-01-30 08:00:56.228431	268.6	37.3	-63.4	6.8
2025-01-30 08:00:57.369395	268.3	37.1	-64.0	3.8
2025-01-30 08:00:58.516343	267.9	37.0	-65.6	9.2
2025-01-30 08:00:59.659301	267.5	36.8	-65.2	10.4
2025-01-30 08:01:00.800265	267.1	36.6	-66.3	9.6
2025-01-30 08:01:01.943224	266.8	36.4	-67.1	11.5
2025-01-30 08:01:03.087180	266.4	36.3	-66.6	8.3
2025-01-30 08:01:04.228652	266.1	36.1	-66.6	10.7
2025-01-30 08:01:05.369616	265.7	35.9	-66.0	9.5
2025-01-30 08:01:06.511578	265.3	35.8	-67.3	7.8
2025-01-30 08:01:07.652542	265.0	35.6	-66.5	9.9
2025-01-30 08:01:08.794503	264.7	35.4	-64.7	5.3
2025-01-30 08:01:09.936465	264.3	35.2	-65.1	5.1
2025-01-30 08:01:11.075941	264.0	35.1	-67.9	11.2
2025-01-30 08:01:12.216905	263.7	34.9	-67.9	11.9
2025-01-30 08:01:13.358866	263.3	34.7	-67.5	11.1
2025-01-30 08:01:14.498833	263.0	34.6	-67.0	7.6
2025-01-30 08:01:15.641792	262.7	34.4	-66.5	9.6
2025-01-30 08:01:16.782755	262.4	34.2	-66.1	7.6
2025-01-30 08:01:17.924226	262.0	34.0	-67.7	10.8
2025-01-30 08:01:19.065190	261.7	33.9	-66.4	9.6
2025-01-30 08:01:20.207658	261.4	33.7	-66.8	10.5
2025-01-30 08:01:21.347624	261.1	33.5	-67.1	9.8
2025-01-30 08:01:22.492578	260.8	33.3	-65.9	7.5
2025-01-30 08:01:23.637531	260.5	33.2	-66.9	8.7
2025-01-30 08:01:24.777008	260.2	33.0	-66.0	8.6
2025-01-30 08:01:25.919967	259.9	32.8	-66.6	11.1
2025-01-30 08:01:27.061928	259.6	32.7	-67.7	11.1
2025-01-30 08:01:28.202892	259.4	32.5	-66.1	8.8
2025-01-30 08:01:29.343856	259.1	32.3	-67.7	12.6
2025-01-30 08:01:30.485818	258.8	32.1	-67.5	10.3
2025-01-30 08:01:31.628776	258.5	32.0	-65.7	7.9
2025-01-30 08:01:32.770737	258.2	31.8	-67.1	12.4
2025-01-30 08:01:33.916688	258.0	31.6	-65.5	8.3
2025-01-30 08:01:35.056655	257.7	31.4	-67.0	12.4
2025-01-30 08:01:36.199613	257.4	31.3	-67.8	12.6
2025-01-30 08:01:37.341575	257.2	31.1	-67.5	13.0
2025-01-30 08:01:38.483047	256.9	30.9	-67.0	13.3
2025-01-30 08:01:39.631990	256.7	30.8	-66.6	9.9
2025-01-30 08:01:40.774948	256.4	30.6	-67.3	12.8
2025-01-30 08:01:41.914915	256.1	30.4	-66.5	8.7
2025-01-30 08:01:43.057875	255.9	30.3	-67.2	11.1
2025-01-30 08:01:44.198838	255.6	30.1	-67.9	10.4
2025-01-30 08:01:45.341310	255.4	29.9	-66.7	0.0
#Closed at: 2025-01-30 07:57:17.718478