passes_logs/2025/01/30/Planum_Noyabrsk/Planum_Noyabrsk__20250130_141136_NOAA_19_rec.log

#Pass ID: 20250130_141136_NOAA 19
#Satellite: NOAA 19
#Configuration: NOAA 19
#Start time: 2025-01-30 14:11:41.943595

#LorettStation: 1.0.0 05.05.2024
#Station: Planum_Noyabrsk
#Location: 75.446886 lon 63.207202 lat
#TLE: 1 33591U 09005A   25029.51755474  .00000353  00000+0  21266-3 0  9991
#TLE: 2 33591  99.0169  93.3905 0013903  17.9953 342.1708 14.13271940823590

#Time	Az	El	Level	SNR
2025-01-30 14:11:52.178497	97.5	31.4	-46.8	0.0
2025-01-30 14:11:53.318494	97.2	31.6	-44.3	0.0
2025-01-30 14:11:54.462465	96.9	31.8	-47.6	0.0
2025-01-30 14:11:55.605438	96.6	31.9	-47.4	0.0
2025-01-30 14:11:56.749923	96.3	32.1	-47.3	0.0
2025-01-30 14:11:57.891899	96.0	32.3	-44.9	0.0
2025-01-30 14:11:59.035870	95.7	32.4	-44.4	0.0
2025-01-30 14:12:00.176357	95.4	32.6	-45.0	0.0
2025-01-30 14:12:01.318839	95.1	32.7	-46.9	0.0
2025-01-30 14:12:02.460815	94.8	32.9	-44.7	0.0
2025-01-30 14:12:03.604297	94.5	33.1	-46.2	0.0
2025-01-30 14:12:04.748268	94.2	33.2	-47.2	0.0
2025-01-30 14:12:05.890245	93.9	33.4	-44.8	0.0
2025-01-30 14:12:07.036717	93.6	33.5	-46.8	0.0
2025-01-30 14:12:08.178693	93.2	33.7	-45.2	0.0
2025-01-30 14:12:09.321666	92.9	33.9	-47.5	0.0
2025-01-30 14:12:10.462645	92.6	34.0	-45.8	0.0
2025-01-30 14:12:11.604621	92.2	34.2	-46.1	0.0
2025-01-30 14:12:12.747594	91.9	34.3	-47.8	0.0
2025-01-30 14:12:13.889570	91.6	34.5	-46.3	0.0
2025-01-30 14:12:15.036533	91.2	34.7	-46.2	0.0
2025-01-30 14:12:16.178509	90.9	34.8	-44.4	0.0
2025-01-30 14:12:17.319995	90.5	35.0	-45.7	0.0
2025-01-30 14:12:18.460974	90.2	35.1	-45.8	0.0
2025-01-30 14:12:19.603947	89.8	35.3	-46.2	0.0
2025-01-30 14:12:20.744435	89.5	35.5	-48.3	0.0
2025-01-30 14:12:21.889403	89.1	35.6	-44.7	0.0
2025-01-30 14:12:23.033374	88.7	35.8	-48.5	0.0
2025-01-30 14:12:24.173861	88.4	35.9	-45.7	0.0
2025-01-30 14:12:25.315837	88.0	36.1	-48.7	0.0
2025-01-30 14:12:26.457812	87.6	36.2	-49.1	0.0
2025-01-30 14:12:27.599299	87.2	36.4	-46.3	0.0
2025-01-30 14:12:28.741276	86.8	36.5	-46.5	0.0
2025-01-30 14:12:29.892227	86.4	36.7	-47.8	0.0
2025-01-30 14:12:31.033206	86.1	36.8	-47.6	0.0
2025-01-30 14:12:32.176179	85.7	37.0	-45.5	0.0
2025-01-30 14:12:33.317158	85.3	37.1	-46.6	0.0
2025-01-30 14:12:34.459134	84.9	37.3	-46.6	0.0
2025-01-30 14:12:35.599625	84.4	37.4	-49.4	0.0
2025-01-30 14:12:36.742598	84.0	37.6	-50.9	0.0
2025-01-30 14:12:37.883110	83.6	37.7	-53.3	0.0
2025-01-30 14:12:39.025086	83.2	37.9	-46.1	0.0
2025-01-30 14:12:40.166064	82.8	38.0	-53.8	0.0
2025-01-30 14:12:41.307043	82.4	38.1	-47.3	0.0
2025-01-30 14:12:42.449019	81.9	38.3	-49.3	0.0
2025-01-30 14:12:43.590995	81.5	38.4	-49.4	0.0
2025-01-30 14:12:44.733478	81.1	38.6	-49.4	0.0
2025-01-30 14:12:45.876451	80.6	38.7	-55.4	0.0
2025-01-30 14:12:47.019425	80.2	38.8	-52.8	0.0
2025-01-30 14:12:48.161400	79.7	39.0	-54.6	0.0
2025-01-30 14:12:49.307366	79.3	39.1	-52.6	0.0
2025-01-30 14:12:50.449342	78.8	39.2	-52.5	0.0
2025-01-30 14:12:51.589830	78.4	39.3	-51.2	0.0
2025-01-30 14:12:52.731807	77.9	39.5	-51.6	0.0
2025-01-30 14:12:53.872785	77.4	39.6	-54.9	0.0
2025-01-30 14:12:55.020255	77.0	39.7	-51.5	0.0
2025-01-30 14:12:56.162231	76.5	39.8	-52.2	0.0
2025-01-30 14:12:57.303209	76.0	40.0	-48.2	0.0
2025-01-30 14:12:58.445185	75.5	40.1	-51.6	0.0
2025-01-30 14:12:59.586164	75.1	40.2	-54.0	0.0
2025-01-30 14:13:00.729137	74.6	40.3	-53.9	0.0
2025-01-30 14:13:01.876606	74.1	40.4	-54.8	0.0
2025-01-30 14:13:03.018582	73.6	40.5	-53.4	0.0
2025-01-30 14:13:04.160558	73.1	40.6	-55.0	2.1
2025-01-30 14:13:05.304041	72.6	40.7	-56.8	0.0
2025-01-30 14:13:06.446017	72.1	40.9	-54.2	0.0
2025-01-30 14:13:07.586995	71.6	41.0	-54.4	0.0
2025-01-30 14:13:08.729480	71.1	41.1	-54.6	0.0
2025-01-30 14:13:09.870457	70.6	41.1	-53.8	0.0
2025-01-30 14:13:11.016423	70.0	41.2	-60.0	0.0
2025-01-30 14:13:12.156911	69.5	41.3	-61.0	1.7
2025-01-30 14:13:13.299885	69.0	41.4	-57.9	0.0
2025-01-30 14:13:14.440863	68.5	41.5	-55.8	0.0
2025-01-30 14:13:15.582357	67.9	41.6	-56.0	0.0
2025-01-30 14:13:16.723842	67.4	41.7	-55.1	0.0
2025-01-30 14:13:17.865818	66.9	41.8	-55.5	0.0
2025-01-30 14:13:19.008792	66.4	41.8	-57.8	1.9
2025-01-30 14:13:20.153759	65.8	41.9	-56.5	0.0
2025-01-30 14:13:21.295735	65.3	42.0	-56.7	0.0
2025-01-30 14:13:22.436713	64.7	42.0	-56.5	0.0
2025-01-30 14:13:23.578690	64.2	42.1	-59.2	0.0
2025-01-30 14:13:24.724655	63.6	42.2	-59.7	0.0
2025-01-30 14:13:25.866141	63.1	42.2	-57.8	0.0
2025-01-30 14:13:27.012106	62.5	42.3	-60.5	0.0
2025-01-30 14:13:28.155080	62.0	42.3	-60.5	0.0
2025-01-30 14:13:29.303554	61.4	42.4	-60.1	2.5
2025-01-30 14:13:30.445530	60.9	42.4	-60.9	2.5
2025-01-30 14:13:31.587016	60.3	42.5	-60.3	0.0
2025-01-30 14:13:32.728503	59.8	42.5	-59.1	0.6
2025-01-30 14:13:33.869987	59.2	42.6	-59.5	0.0
2025-01-30 14:13:35.012961	58.6	42.6	-61.4	5.3
2025-01-30 14:13:36.153939	58.1	42.6	-59.4	2.6
2025-01-30 14:13:37.296421	57.5	42.7	-59.1	0.4
2025-01-30 14:13:38.437400	57.0	42.7	-60.6	5.6
2025-01-30 14:13:39.580373	56.4	42.7	-61.5	0.0
2025-01-30 14:13:40.721351	55.8	42.7	-59.9	2.3
2025-01-30 14:13:41.863327	55.3	42.8	-60.6	3.2
2025-01-30 14:13:43.004813	54.7	42.8	-60.8	3.0
2025-01-30 14:13:44.146789	54.1	42.8	-60.9	3.8
2025-01-30 14:13:45.291757	53.5	42.8	-60.7	2.8
2025-01-30 14:13:46.432735	53.0	42.8	-60.4	0.3
2025-01-30 14:13:47.575709	52.4	42.8	-61.1	4.2
2025-01-30 14:13:48.717685	51.8	42.8	-60.9	1.8
2025-01-30 14:13:49.858663	51.3	42.8	-59.6	0.0
2025-01-30 14:13:51.001636	50.7	42.8	-60.7	3.4
2025-01-30 14:13:52.145607	50.1	42.8	-60.2	5.4
2025-01-30 14:13:53.287092	49.6	42.7	-59.5	3.7
2025-01-30 14:13:54.435052	49.0	42.7	-60.1	2.5
2025-01-30 14:13:55.577029	48.4	42.7	-59.1	0.0
2025-01-30 14:13:56.717516	47.9	42.7	-56.9	0.7
2025-01-30 14:13:57.860491	47.3	42.7	-57.6	1.5
2025-01-30 14:13:59.001468	46.7	42.6	-58.5	3.2
2025-01-30 14:14:00.144962	46.2	42.6	-58.2	1.8
2025-01-30 14:14:01.286924	45.6	42.6	-56.6	0.0
2025-01-30 14:14:02.428900	45.1	42.5	-59.2	1.5
2025-01-30 14:14:03.570876	44.5	42.5	-58.2	2.7
2025-01-30 14:14:04.712852	44.0	42.4	-57.6	1.1
2025-01-30 14:14:05.853339	43.4	42.4	-58.7	4.1
2025-01-30 14:14:06.995334	42.8	42.3	-57.3	1.4
2025-01-30 14:14:08.137309	42.3	42.3	-57.3	2.2
2025-01-30 14:14:09.279286	41.7	42.2	-57.2	1.4
2025-01-30 14:14:10.423274	41.2	42.2	-57.5	0.2
2025-01-30 14:14:11.571233	40.7	42.1	-57.3	0.1
2025-01-30 14:14:12.713209	40.1	42.0	-56.5	0.0
2025-01-30 14:14:13.856182	39.6	42.0	-57.0	0.0
2025-01-30 14:14:14.997161	39.0	41.9	-57.7	1.3
2025-01-30 14:14:16.140134	38.5	41.8	-57.3	0.0
2025-01-30 14:14:17.282110	38.0	41.7	-57.0	1.4
2025-01-30 14:14:18.424087	37.4	41.7	-57.3	0.0
2025-01-30 14:14:19.566568	36.9	41.6	-57.1	0.0
2025-01-30 14:14:20.708054	36.4	41.5	-57.3	0.0
2025-01-30 14:14:21.851027	35.9	41.4	-56.9	0.0
2025-01-30 14:14:22.992005	35.3	41.3	-55.8	0.0
2025-01-30 14:14:24.134489	34.8	41.2	-59.4	1.7
2025-01-30 14:14:25.281452	34.3	41.1	-60.0	0.0
2025-01-30 14:14:26.424425	33.8	41.0	-59.5	3.8
2025-01-30 14:14:27.567398	33.3	40.9	-58.4	2.1
2025-01-30 14:14:28.710372	32.8	40.8	-56.5	0.0
2025-01-30 14:14:29.851350	32.3	40.7	-55.6	0.0
2025-01-30 14:14:30.994323	31.8	40.6	-55.3	0.0
2025-01-30 14:14:32.135302	31.3	40.5	-55.5	0.0
2025-01-30 14:14:33.279272	30.8	40.4	-55.7	0.0
2025-01-30 14:14:34.422246	30.3	40.3	-55.6	0.0
2025-01-30 14:14:35.564222	29.8	40.2	-55.0	0.0
2025-01-30 14:14:36.707195	29.4	40.1	-55.7	0.0
2025-01-30 14:14:37.850676	28.9	39.9	-55.3	0.0
2025-01-30 14:14:38.992651	28.4	39.8	-55.8	0.0
2025-01-30 14:14:40.135625	27.9	39.7	-55.6	0.0
2025-01-30 14:14:41.277110	27.5	39.6	-55.6	0.0
2025-01-30 14:14:42.419086	27.0	39.5	-55.0	2.6
2025-01-30 14:14:43.564562	26.5	39.3	-55.2	0.0
2025-01-30 14:14:44.706538	26.1	39.2	-55.5	0.0
2025-01-30 14:14:45.852503	25.6	39.1	-55.1	0.0
2025-01-30 14:14:46.995000	25.2	38.9	-55.0	0.0
2025-01-30 14:14:48.137469	24.7	38.8	-55.7	0.0
2025-01-30 14:14:49.279445	24.3	38.7	-55.1	0.0
2025-01-30 14:14:50.422420	23.9	38.5	-55.2	0.0
2025-01-30 14:14:51.563905	23.4	38.4	-54.7	0.0
2025-01-30 14:14:52.706879	23.0	38.3	-55.3	0.0
2025-01-30 14:14:53.847858	22.6	38.1	-55.6	0.0
2025-01-30 14:14:54.996817	22.1	38.0	-56.4	0.0
2025-01-30 14:14:56.138791	21.7	37.8	-56.0	0.0
2025-01-30 14:14:57.281766	21.3	37.7	-57.3	0.0
2025-01-30 14:14:58.423250	20.9	37.6	-56.2	0.0
2025-01-30 14:14:59.566224	20.5	37.4	-56.9	0.0
2025-01-30 14:15:00.708199	20.1	37.3	-57.2	0.0
2025-01-30 14:15:01.851173	19.7	37.1	-57.6	0.0
2025-01-30 14:15:02.991153	19.3	37.0	-56.0	0.0
2025-01-30 14:15:04.134127	18.9	36.8	-57.1	0.0
2025-01-30 14:15:05.275611	18.5	36.7	-56.9	0.0
2025-01-30 14:15:06.416590	18.1	36.5	-57.8	0.0
2025-01-30 14:15:07.561558	17.7	36.4	-56.1	0.0
2025-01-30 14:15:08.702537	17.4	36.2	-57.5	0.0
2025-01-30 14:15:09.845510	17.0	36.1	-56.7	0.0
2025-01-30 14:15:10.986488	16.6	35.9	-58.5	0.0
2025-01-30 14:15:12.127974	16.2	35.8	-59.2	0.0
2025-01-30 14:15:13.269459	15.9	35.6	-57.0	0.0
2025-01-30 14:15:14.412432	15.5	35.4	-57.5	0.0
2025-01-30 14:15:15.552922	15.2	35.3	-57.5	0.0
2025-01-30 14:15:16.697890	14.8	35.1	-56.9	0.0
2025-01-30 14:15:17.839866	14.5	35.0	-57.7	0.0
2025-01-30 14:15:18.980354	14.1	34.8	-58.0	0.0
2025-01-30 14:15:20.125831	13.8	34.7	-59.2	0.0
2025-01-30 14:15:21.268315	13.4	34.5	-58.4	0.0
2025-01-30 14:15:22.409798	13.1	34.3	-58.5	0.0
2025-01-30 14:15:23.552285	12.7	34.2	-60.4	0.5
2025-01-30 14:15:24.693263	12.4	34.0	-59.0	0.0
2025-01-30 14:15:25.835240	12.1	33.9	-59.9	0.0
2025-01-30 14:15:26.977216	11.8	33.7	-60.6	1.4
2025-01-30 14:15:28.119191	11.4	33.6	-60.8	0.8
2025-01-30 14:15:29.260170	11.1	33.4	-60.0	0.0
2025-01-30 14:15:30.406641	10.8	33.2	-60.6	0.6
2025-01-30 14:15:31.548617	10.5	33.1	-61.3	3.1
2025-01-30 14:15:32.690104	10.2	32.9	-61.4	3.3
2025-01-30 14:15:33.832080	9.9	32.8	-61.4	4.6
2025-01-30 14:15:34.974057	9.6	32.6	-62.7	6.6
2025-01-30 14:15:36.114549	9.3	32.4	-63.4	7.4
2025-01-30 14:15:37.255528	9.0	32.3	-62.8	5.9
2025-01-30 14:15:38.397503	8.7	32.1	-63.9	8.4
2025-01-30 14:15:39.539480	8.4	31.9	-63.6	8.6
2025-01-30 14:15:40.684448	8.1	31.8	-64.2	8.8
2025-01-30 14:15:41.826424	7.8	31.6	-65.0	11.6
2025-01-30 14:15:42.968399	7.5	31.5	-65.4	11.1
2025-01-30 14:15:44.113875	7.3	31.3	-65.5	12.1
2025-01-30 14:15:45.256849	7.0	31.1	-65.9	11.3
2025-01-30 14:15:46.398336	6.7	31.0	-65.9	11.7
2025-01-30 14:15:47.543304	6.4	30.8	-65.8	11.5
2025-01-30 14:15:48.686277	6.2	30.7	-65.7	13.4
2025-01-30 14:15:49.827762	5.9	30.5	-65.4	11.3
2025-01-30 14:15:50.969738	5.6	30.3	-65.3	12.4
2025-01-30 14:15:52.112713	5.4	30.2	-64.0	7.2
2025-01-30 14:15:53.255687	5.1	30.0	-63.3	0.0
#Closed at: 2025-01-30 14:11:36.947832