passes_logs/2025/01/30/Planum_Noyabrsk/Planum_Noyabrsk__20250130_061615_NOAA_18_rec.log

#Pass ID: 20250130_061615_NOAA 18
#Satellite: NOAA 18
#Configuration: NOAA 18
#Start time: 2025-01-30 06:16:20.312155

#LorettStation: 1.0.0 05.05.2024
#Station: Planum_Noyabrsk
#Location: 75.446886 lon 63.207202 lat
#TLE: 1 28654U 05018A   25029.46161023  .00000435  00000+0  25421-3 0  9998
#TLE: 2 28654  98.8543 110.3710 0014937 139.5028 220.7258 14.13500950 15223

#Time	Az	El	Level	SNR
2025-01-30 06:16:37.125440	38.1	33.0	-55.4	0.0
2025-01-30 06:16:38.273900	38.3	33.2	-56.6	0.0
2025-01-30 06:16:39.421853	38.5	33.5	-58.3	0.0
2025-01-30 06:16:40.573794	38.7	33.7	-59.6	2.0
2025-01-30 06:16:41.720749	38.9	33.9	-60.5	1.6
2025-01-30 06:16:42.877677	39.1	34.1	-60.6	1.4
2025-01-30 06:16:44.027624	39.3	34.3	-63.2	6.6
2025-01-30 06:16:45.171587	39.5	34.6	-58.8	0.0
2025-01-30 06:16:46.324526	39.7	34.8	-61.5	0.0
2025-01-30 06:16:47.471481	39.9	35.0	-56.1	0.0
2025-01-30 06:16:48.622424	40.1	35.2	-55.9	0.0
2025-01-30 06:16:49.771373	40.3	35.5	-55.0	0.0
2025-01-30 06:16:50.922340	40.6	35.7	-54.7	0.0
2025-01-30 06:16:52.070292	40.8	35.9	-54.6	0.0
2025-01-30 06:16:53.218244	41.0	36.2	-55.0	0.0
2025-01-30 06:16:54.367216	41.2	36.4	-55.9	0.0
2025-01-30 06:16:55.512177	41.5	36.6	-52.0	0.0
2025-01-30 06:16:56.662123	41.7	36.9	-56.0	0.0
2025-01-30 06:16:57.818055	41.9	37.1	-58.5	0.0
2025-01-30 06:16:58.964013	42.2	37.3	-52.6	0.0
2025-01-30 06:17:00.115464	42.4	37.6	-55.3	0.0
2025-01-30 06:17:01.271394	42.7	37.8	-55.8	0.0
2025-01-30 06:17:02.420344	42.9	38.1	-52.8	0.0
2025-01-30 06:17:03.566323	43.2	38.3	-51.9	0.0
2025-01-30 06:17:04.713277	43.4	38.5	-50.9	0.0
2025-01-30 06:17:05.867727	43.7	38.8	-58.8	1.3
2025-01-30 06:17:07.012686	43.9	39.0	-55.0	0.0
2025-01-30 06:17:08.161637	44.2	39.3	-51.1	0.0
2025-01-30 06:17:09.310605	44.5	39.5	-56.7	0.0
2025-01-30 06:17:10.464541	44.8	39.8	-52.8	0.0
2025-01-30 06:17:11.615485	45.0	40.0	-57.5	0.0
2025-01-30 06:17:12.763437	45.3	40.3	-53.7	0.0
2025-01-30 06:17:13.911389	45.6	40.5	-54.0	0.0
2025-01-30 06:17:15.061845	45.9	40.8	-52.7	0.0
2025-01-30 06:17:16.205807	46.2	41.0	-56.8	0.0
2025-01-30 06:17:17.349770	46.5	41.3	-53.7	0.0
2025-01-30 06:17:18.492735	46.8	41.6	-57.8	0.0
2025-01-30 06:17:19.636698	47.1	41.8	-58.8	0.7
2025-01-30 06:17:20.779663	47.5	42.1	-54.9	0.0
2025-01-30 06:17:21.925636	47.8	42.3	-58.7	0.0
2025-01-30 06:17:23.067604	48.1	42.6	-57.5	0.0
2025-01-30 06:17:24.211569	48.4	42.8	-52.1	0.0
2025-01-30 06:17:25.356526	48.8	43.1	-51.3	0.0
2025-01-30 06:17:26.498005	49.1	43.4	-52.4	0.0
2025-01-30 06:17:27.640970	49.5	43.6	-52.2	0.0
2025-01-30 06:17:28.784933	49.8	43.9	-52.2	0.0
2025-01-30 06:17:29.937871	50.2	44.1	-59.1	0.0
2025-01-30 06:17:31.080837	50.5	44.4	-54.1	0.0
2025-01-30 06:17:32.224311	50.9	44.7	-56.9	0.0
2025-01-30 06:17:33.366277	51.3	44.9	-58.6	0.8
2025-01-30 06:17:34.509243	51.7	45.2	-57.9	0.0
2025-01-30 06:17:35.651211	52.1	45.5	-57.7	0.9
2025-01-30 06:17:36.793179	52.5	45.7	-57.5	0.5
2025-01-30 06:17:37.938139	52.9	46.0	-59.5	3.9
2025-01-30 06:17:39.080106	53.3	46.3	-54.3	0.0
2025-01-30 06:17:40.279921	53.7	46.5	-61.1	0.0
2025-01-30 06:17:41.526611	54.2	46.8	-59.5	3.6
2025-01-30 06:17:42.710468	54.6	47.1	-60.0	0.5
2025-01-30 06:17:43.893327	55.1	47.4	-56.6	0.5
2025-01-30 06:17:45.035295	55.5	47.6	-57.0	0.0
2025-01-30 06:17:46.179257	56.0	47.9	-60.5	4.1
2025-01-30 06:17:47.322241	56.4	48.2	-54.6	0.0
2025-01-30 06:17:48.467201	56.9	48.4	-58.3	3.0
2025-01-30 06:17:49.608171	57.4	48.7	-58.8	0.0
2025-01-30 06:17:50.752642	57.9	49.0	-57.6	0.0
2025-01-30 06:17:51.896606	58.4	49.2	-57.9	0.0
2025-01-30 06:17:53.041567	58.9	49.5	-61.0	0.0
2025-01-30 06:17:54.185528	59.4	49.7	-60.7	0.0
2025-01-30 06:17:55.328493	59.9	50.0	-56.8	0.0
2025-01-30 06:17:56.473453	60.5	50.3	-58.5	0.1
2025-01-30 06:17:57.616926	61.0	50.5	-59.1	1.0
2025-01-30 06:17:58.758894	61.5	50.8	-57.9	0.0
2025-01-30 06:17:59.900862	62.1	51.0	-60.9	3.1
2025-01-30 06:18:01.049811	62.7	51.3	-60.0	0.0
2025-01-30 06:18:02.190781	63.2	51.5	-59.4	0.0
2025-01-30 06:18:03.340241	63.8	51.8	-56.7	0.0
2025-01-30 06:18:04.487196	64.4	52.0	-59.0	0.0
2025-01-30 06:18:05.630161	65.0	52.3	-60.9	0.0
2025-01-30 06:18:06.772148	65.7	52.5	-61.4	0.0
2025-01-30 06:18:07.917106	66.3	52.8	-60.2	0.0
2025-01-30 06:18:09.061069	66.9	53.0	-61.0	0.0
2025-01-30 06:18:10.205051	67.6	53.3	-62.2	0.0
2025-01-30 06:18:11.351008	68.2	53.5	-60.7	3.4
2025-01-30 06:18:12.495969	68.9	53.7	-59.8	0.0
2025-01-30 06:18:13.638446	69.6	54.0	-59.8	0.0
2025-01-30 06:18:14.781412	70.3	54.2	-57.8	0.0
2025-01-30 06:18:15.924376	71.0	54.4	-59.2	0.0
2025-01-30 06:18:17.070334	71.7	54.6	-58.0	0.0
2025-01-30 06:18:18.216291	72.4	54.8	-57.5	0.0
2025-01-30 06:18:19.362249	73.1	55.1	-59.5	0.0
2025-01-30 06:18:20.505214	73.9	55.3	-58.7	0.0
2025-01-30 06:18:21.647182	74.6	55.5	-58.5	0.0
2025-01-30 06:18:22.790147	75.4	55.7	-57.9	0.0
2025-01-30 06:18:23.934129	76.2	55.9	-59.4	0.0
2025-01-30 06:18:25.077093	77.0	56.1	-58.7	0.0
2025-01-30 06:18:26.220059	77.8	56.2	-60.7	0.0
2025-01-30 06:18:27.364529	78.6	56.4	-61.4	0.0
2025-01-30 06:18:28.511484	79.4	56.6	-61.4	0.0
2025-01-30 06:18:29.655447	80.2	56.8	-60.1	0.0
2025-01-30 06:18:30.799409	81.1	56.9	-56.0	0.0
2025-01-30 06:18:31.944369	81.9	57.1	-58.1	0.0
2025-01-30 06:18:33.091830	82.8	57.3	-59.2	0.0
2025-01-30 06:18:34.234795	83.7	57.4	-57.1	0.0
2025-01-30 06:18:35.382748	84.6	57.6	-56.8	0.0
2025-01-30 06:18:36.533206	85.5	57.7	-57.2	0.0
2025-01-30 06:18:37.677169	86.4	57.8	-54.4	0.0
2025-01-30 06:18:38.822129	87.3	58.0	-57.4	0.0
2025-01-30 06:18:39.966093	88.2	58.1	-57.3	0.0
2025-01-30 06:18:41.117036	89.1	58.2	-59.1	0.0
2025-01-30 06:18:42.260002	90.0	58.3	-61.2	1.0
2025-01-30 06:18:43.402967	91.0	58.4	-57.6	0.0
2025-01-30 06:18:44.550918	91.9	58.5	-58.4	0.0
2025-01-30 06:18:45.693393	92.9	58.6	-56.7	0.0
2025-01-30 06:18:46.837356	93.8	58.7	-59.5	0.0
2025-01-30 06:18:47.982316	94.8	58.7	-57.8	0.0
2025-01-30 06:18:49.135255	95.8	58.8	-57.8	0.0
2025-01-30 06:18:50.278221	96.8	58.9	-59.5	1.9
2025-01-30 06:18:51.423180	97.7	58.9	-55.4	0.0
2025-01-30 06:18:52.566146	98.7	58.9	-56.4	0.0
2025-01-30 06:18:53.711105	99.7	59.0	-58.3	0.0
2025-01-30 06:18:54.855068	100.7	59.0	-58.3	1.6
2025-01-30 06:18:55.999031	101.7	59.0	-56.4	0.0
2025-01-30 06:18:57.141996	102.7	59.0	-57.6	0.0
2025-01-30 06:18:58.286956	103.6	59.0	-54.4	0.0
2025-01-30 06:18:59.433911	104.6	59.0	-55.9	0.0
2025-01-30 06:19:00.580885	105.6	59.0	-56.7	0.0
2025-01-30 06:19:01.723851	106.6	59.0	-57.4	0.0
2025-01-30 06:19:02.867832	107.6	59.0	-57.4	0.0
2025-01-30 06:19:04.014786	108.6	58.9	-56.0	0.0
2025-01-30 06:19:05.161742	109.6	58.9	-54.4	0.0
2025-01-30 06:19:06.313682	110.6	58.8	-55.4	0.0
2025-01-30 06:19:07.458644	111.5	58.8	-56.9	0.0
2025-01-30 06:19:08.608590	112.5	58.7	-55.7	0.0
2025-01-30 06:19:09.754546	113.5	58.6	-57.4	0.0
2025-01-30 06:19:10.898510	114.4	58.6	-61.5	4.0
2025-01-30 06:19:12.043471	115.4	58.5	-56.7	0.0
2025-01-30 06:19:13.192419	116.3	58.4	-58.5	0.0
2025-01-30 06:19:14.338376	117.3	58.3	-57.3	0.0
2025-01-30 06:19:15.482339	118.2	58.2	-56.2	0.0
2025-01-30 06:19:16.627299	119.1	58.0	-57.5	0.0
2025-01-30 06:19:17.773256	120.0	57.9	-57.8	0.0
2025-01-30 06:19:18.922206	121.0	57.8	-57.6	0.0
2025-01-30 06:19:20.066168	121.9	57.7	-59.1	0.0
2025-01-30 06:19:21.214137	122.7	57.5	-59.6	0.0
2025-01-30 06:19:22.359098	123.6	57.4	-62.1	0.0
2025-01-30 06:19:23.502063	124.5	57.2	-62.8	0.0
2025-01-30 06:19:24.645028	125.4	57.1	-58.6	0.0
2025-01-30 06:19:25.789498	126.2	56.9	-58.2	0.0
2025-01-30 06:19:26.932463	127.0	56.7	-58.3	0.0
2025-01-30 06:19:28.081414	127.9	56.6	-61.1	0.0
2025-01-30 06:19:29.231360	128.7	56.4	-61.9	0.0
2025-01-30 06:19:30.376320	129.5	56.2	-58.9	0.0
2025-01-30 06:19:31.520790	130.3	56.0	-58.4	0.0
2025-01-30 06:19:32.667745	131.1	55.8	-60.1	0.0
2025-01-30 06:19:33.811708	131.9	55.6	-58.2	0.0
2025-01-30 06:19:34.955671	132.6	55.4	-59.1	0.0
2025-01-30 06:19:36.104620	133.4	55.2	-60.2	2.9
2025-01-30 06:19:37.251574	134.1	55.0	-60.1	0.0
2025-01-30 06:19:38.395538	134.9	54.8	-59.2	0.0
2025-01-30 06:19:39.538503	135.6	54.5	-60.3	0.0
2025-01-30 06:19:40.682465	136.3	54.3	-61.3	1.9
2025-01-30 06:19:41.825430	137.0	54.1	-62.3	3.5
2025-01-30 06:19:42.971388	137.7	53.9	-63.0	6.7
2025-01-30 06:19:44.117857	138.4	53.6	-60.7	5.4
2025-01-30 06:19:45.260822	139.0	53.4	-62.5	6.7
2025-01-30 06:19:46.406780	139.7	53.2	-62.8	6.9
2025-01-30 06:19:47.548748	140.4	52.9	-63.0	4.0
2025-01-30 06:19:48.696701	141.0	52.7	-60.3	3.8
2025-01-30 06:19:49.844652	141.6	52.4	-63.0	7.6
2025-01-30 06:19:50.990609	142.2	52.2	-61.3	4.7
2025-01-30 06:19:52.135569	142.8	51.9	-63.0	5.7
2025-01-30 06:19:53.281526	143.4	51.7	-64.2	9.1
2025-01-30 06:19:54.431491	144.0	51.4	-61.6	6.2
2025-01-30 06:19:55.575454	144.6	51.2	-62.6	6.4
2025-01-30 06:19:56.726907	145.2	50.9	-64.4	9.1
2025-01-30 06:19:57.870870	145.7	50.7	-61.3	4.8
2025-01-30 06:19:59.015340	146.3	50.4	-61.4	6.0
2025-01-30 06:20:00.161299	146.8	50.1	-60.3	3.6
2025-01-30 06:20:01.306257	147.3	49.9	-65.1	9.3
2025-01-30 06:20:02.449223	147.9	49.6	-63.8	8.2
2025-01-30 06:20:03.599169	148.4	49.4	-65.5	8.5
2025-01-30 06:20:04.741645	148.9	49.1	-63.5	6.3
2025-01-30 06:20:05.886605	149.4	48.8	-63.7	6.7
2025-01-30 06:20:07.029571	149.9	48.6	-62.7	5.7
2025-01-30 06:20:08.175528	150.3	48.3	-64.1	7.2
2025-01-30 06:20:09.325476	150.8	48.0	-64.2	5.5
2025-01-30 06:20:10.468947	151.3	47.8	-65.0	8.5
2025-01-30 06:20:11.611912	151.7	47.5	-64.1	6.7
2025-01-30 06:20:12.754878	152.2	47.2	-65.4	8.2
2025-01-30 06:20:13.898861	152.6	47.0	-65.3	7.5
2025-01-30 06:20:15.043821	153.0	46.7	-65.5	7.6
2025-01-30 06:20:16.187783	153.5	46.4	-66.1	7.7
2025-01-30 06:20:17.331746	153.9	46.2	-65.9	6.7
2025-01-30 06:20:18.475708	154.3	45.9	-66.1	9.2
2025-01-30 06:20:19.618674	154.7	45.6	-66.3	8.6
2025-01-30 06:20:20.765629	155.1	45.4	-64.7	0.5
2025-01-30 06:20:21.912583	155.5	45.1	-66.9	5.7
2025-01-30 06:20:23.056546	155.9	44.8	-66.7	8.2
2025-01-30 06:20:24.205495	156.2	44.6	-67.2	8.2
2025-01-30 06:20:25.349458	156.6	44.3	-66.9	8.3
2025-01-30 06:20:26.492424	157.0	44.0	-66.7	7.5
2025-01-30 06:20:27.640375	157.3	43.8	-67.2	8.5
2025-01-30 06:20:28.881082	157.7	43.5	-67.4	7.4
2025-01-30 06:20:30.041999	158.1	43.2	-67.8	9.0
2025-01-30 06:20:31.189951	158.4	43.0	-67.1	8.3
2025-01-30 06:20:32.334911	158.8	42.7	-66.0	5.1
2025-01-30 06:20:33.487850	159.1	42.4	-67.2	9.6
2025-01-30 06:20:34.631812	159.4	42.2	-67.2	8.5
2025-01-30 06:20:35.783754	159.7	41.9	-67.3	8.4
2025-01-30 06:20:36.926720	160.1	41.7	-67.2	8.5
2025-01-30 06:20:38.077663	160.4	41.4	-65.1	2.3
2025-01-30 06:20:39.224618	160.7	41.1	-66.9	9.3
2025-01-30 06:20:40.373567	161.0	40.9	-66.9	7.6
2025-01-30 06:20:41.518528	161.3	40.6	-67.3	10.2
2025-01-30 06:20:42.665482	161.6	40.4	-67.8	9.3
2025-01-30 06:20:43.811439	161.9	40.1	-67.8	9.5
2025-01-30 06:20:44.956907	162.1	39.9	-65.8	5.2
2025-01-30 06:20:46.100381	162.4	39.6	-67.6	11.1
2025-01-30 06:20:47.246339	162.7	39.4	-67.3	10.9
2025-01-30 06:20:48.388816	163.0	39.1	-67.7	9.4
2025-01-30 06:20:49.535771	163.2	38.9	-66.8	9.0
2025-01-30 06:20:50.680730	163.5	38.6	-67.2	9.3
2025-01-30 06:20:51.825691	163.8	38.4	-67.2	7.9
2025-01-30 06:20:52.973643	164.0	38.1	-67.1	10.2
2025-01-30 06:20:54.119601	164.3	37.9	-67.2	9.7
2025-01-30 06:20:55.273045	164.5	37.7	-67.7	10.9
2025-01-30 06:20:56.416011	164.8	37.4	-66.8	9.5
2025-01-30 06:20:57.561985	165.0	37.2	-66.7	10.8
2025-01-30 06:20:58.705949	165.2	36.9	-66.7	9.3
2025-01-30 06:20:59.851906	165.5	36.7	-67.0	11.7
2025-01-30 06:21:00.997379	165.7	36.5	-66.4	9.8
2025-01-30 06:21:02.140344	165.9	36.2	-66.4	10.4
2025-01-30 06:21:03.289293	166.2	36.0	-66.1	6.2
2025-01-30 06:21:04.433256	166.4	35.8	-66.2	10.3
2025-01-30 06:21:05.577218	166.6	35.5	-65.0	9.8
2025-01-30 06:21:06.723176	166.8	35.3	-64.3	6.3
2025-01-30 06:21:07.866649	167.0	35.1	-65.8	11.2
2025-01-30 06:21:09.010121	167.2	34.9	-66.0	6.6
2025-01-30 06:21:10.155082	167.4	34.6	-65.7	9.2
2025-01-30 06:21:11.308528	167.7	34.4	-64.7	7.4
2025-01-30 06:21:12.451493	167.9	34.2	-65.2	8.2
2025-01-30 06:21:13.600442	168.1	34.0	-65.1	8.0
2025-01-30 06:21:14.749392	168.3	33.7	-64.0	10.0
2025-01-30 06:21:15.895859	168.4	33.5	-65.7	8.7
2025-01-30 06:21:17.045822	168.6	33.3	-64.1	7.1
2025-01-30 06:21:18.188787	168.8	33.1	-65.2	7.2
2025-01-30 06:21:19.330755	169.0	32.9	-65.5	11.7
2025-01-30 06:21:20.472723	169.2	32.6	-66.0	9.8
2025-01-30 06:21:21.614691	169.4	32.4	-66.2	12.5
2025-01-30 06:21:22.757175	169.6	32.2	-64.6	9.2
2025-01-30 06:21:23.900654	169.7	32.0	-65.2	10.7
2025-01-30 06:21:25.048606	169.9	31.8	-64.2	8.0
2025-01-30 06:21:26.190573	170.1	31.6	-65.2	8.9
2025-01-30 06:21:27.332542	170.3	31.4	-66.1	12.1
2025-01-30 06:21:28.475507	170.4	31.2	-63.8	9.2
2025-01-30 06:21:29.618473	170.6	31.0	-65.6	8.3
2025-01-30 06:21:30.761437	170.7	30.8	-66.1	10.1
2025-01-30 06:21:31.902408	170.9	30.6	-66.7	11.3
2025-01-30 06:21:33.049363	171.1	30.4	-66.5	9.9
2025-01-30 06:21:34.192835	171.2	30.2	-65.3	7.5
#Closed at: 2025-01-30 06:16:15.316331