passes_logs/2025/01/30/Planum_Noyabrsk/Planum_Noyabrsk__20250130_155133_NOAA_19_rec.log

#Pass ID: 20250130_155133_NOAA 19
#Satellite: NOAA 19
#Configuration: NOAA 19
#Start time: 2025-01-30 15:51:38.405969

#LorettStation: 1.0.0 05.05.2024
#Station: Planum_Noyabrsk
#Location: 75.446886 lon 63.207202 lat
#TLE: 1 33591U 09005A   25029.51755474  .00000353  00000+0  21266-3 0  9991
#TLE: 2 33591  99.0169  93.3905 0013903  17.9953 342.1708 14.13271940823590

#Time	Az	El	Level	SNR
2025-01-30 15:52:09.124062	187.9	36.0	-62.7	11.5
2025-01-30 15:52:10.266031	188.1	36.2	-63.8	12.6
2025-01-30 15:52:11.406511	188.3	36.4	-63.9	13.7
2025-01-30 15:52:12.549477	188.5	36.7	-64.0	14.2
2025-01-30 15:52:13.689957	188.7	36.9	-63.8	11.8
2025-01-30 15:52:14.831436	188.9	37.2	-63.5	12.7
2025-01-30 15:52:15.974402	189.1	37.4	-63.5	12.9
2025-01-30 15:52:17.116370	189.3	37.7	-64.9	15.0
2025-01-30 15:52:18.258847	189.5	37.9	-64.7	14.0
2025-01-30 15:52:19.400815	189.8	38.2	-64.4	13.0
2025-01-30 15:52:20.542783	190.0	38.4	-64.9	13.3
2025-01-30 15:52:21.683266	190.2	38.7	-65.0	14.3
2025-01-30 15:52:22.825234	190.4	38.9	-65.0	14.4
2025-01-30 15:52:23.966204	190.7	39.2	-64.7	13.2
2025-01-30 15:52:25.108173	190.9	39.5	-65.0	14.0
2025-01-30 15:52:26.253641	191.1	39.7	-65.5	13.1
2025-01-30 15:52:27.396605	191.4	40.0	-65.4	14.2
2025-01-30 15:52:28.538574	191.6	40.2	-65.3	14.3
2025-01-30 15:52:29.679544	191.9	40.5	-65.7	13.7
2025-01-30 15:52:30.823507	192.1	40.8	-65.2	14.4
2025-01-30 15:52:31.967470	192.4	41.0	-65.6	14.2
2025-01-30 15:52:33.107444	192.6	41.3	-65.5	14.0
2025-01-30 15:52:34.249918	192.9	41.6	-65.7	15.8
2025-01-30 15:52:35.391887	193.1	41.9	-65.2	13.2
2025-01-30 15:52:36.533365	193.4	42.1	-65.7	15.0
2025-01-30 15:52:37.674336	193.7	42.4	-65.5	15.6
2025-01-30 15:52:38.820294	194.0	42.7	-65.0	14.6
2025-01-30 15:52:39.963259	194.3	43.0	-65.4	13.5
2025-01-30 15:52:41.104230	194.6	43.2	-66.0	14.6
2025-01-30 15:52:42.246198	194.9	43.5	-65.3	13.4
2025-01-30 15:52:43.394657	195.2	43.8	-65.6	13.9
2025-01-30 15:52:44.537623	195.5	44.1	-64.8	13.2
2025-01-30 15:52:45.679591	195.8	44.4	-65.0	13.1
2025-01-30 15:52:46.822557	196.1	44.6	-64.4	13.6
2025-01-30 15:52:47.963527	196.4	44.9	-65.6	13.4
2025-01-30 15:52:49.105498	196.7	45.2	-64.6	12.9
2025-01-30 15:52:50.246467	197.1	45.5	-65.0	13.7
2025-01-30 15:52:51.388435	197.4	45.8	-65.2	15.3
2025-01-30 15:52:52.529406	197.8	46.1	-64.9	14.2
2025-01-30 15:52:53.671374	198.1	46.4	-65.4	14.6
2025-01-30 15:52:54.812345	198.5	46.7	-64.4	12.3
2025-01-30 15:52:55.954314	198.8	47.0	-64.2	12.4
2025-01-30 15:52:57.095285	199.2	47.2	-64.0	11.3
2025-01-30 15:52:58.237253	199.6	47.5	-64.3	13.5
2025-01-30 15:52:59.379221	200.0	47.8	-64.1	11.3
2025-01-30 15:53:00.519705	200.4	48.1	-63.4	12.1
2025-01-30 15:53:01.660677	200.8	48.4	-64.5	14.4
2025-01-30 15:53:02.802645	201.2	48.7	-64.1	13.2
2025-01-30 15:53:03.944123	201.6	49.0	-63.4	13.0
2025-01-30 15:53:05.086091	202.0	49.3	-63.8	12.7
2025-01-30 15:53:06.228568	202.5	49.6	-63.3	12.2
2025-01-30 15:53:07.369557	202.9	49.9	-63.5	12.4
2025-01-30 15:53:08.511526	203.4	50.2	-63.3	12.1
2025-01-30 15:53:09.655995	203.8	50.5	-64.1	13.3
2025-01-30 15:53:10.797475	204.3	50.8	-63.0	11.3
2025-01-30 15:53:11.938446	204.8	51.1	-63.6	11.5
2025-01-30 15:53:13.081411	205.3	51.4	-62.8	9.2
2025-01-30 15:53:14.222888	205.7	51.7	-63.6	10.7
2025-01-30 15:53:15.363859	206.3	52.0	-62.7	10.5
2025-01-30 15:53:16.508822	206.8	52.3	-63.9	9.9
2025-01-30 15:53:17.651293	207.3	52.6	-63.8	10.8
2025-01-30 15:53:18.793262	207.8	52.9	-63.8	10.0
2025-01-30 15:53:19.933236	208.4	53.2	-63.3	10.0
2025-01-30 15:53:21.075711	208.9	53.4	-65.6	11.2
2025-01-30 15:53:22.222666	209.5	53.7	-64.0	13.0
2025-01-30 15:53:23.363637	210.1	54.0	-65.0	9.2
2025-01-30 15:53:24.506624	210.7	54.3	-64.3	8.0
2025-01-30 15:53:25.646598	211.3	54.6	-63.7	7.6
2025-01-30 15:53:26.789563	211.9	54.9	-64.1	8.4
2025-01-30 15:53:27.935521	212.5	55.2	-62.8	6.0
2025-01-30 15:53:29.076492	213.2	55.4	-64.9	8.9
2025-01-30 15:53:30.218461	213.8	55.7	-64.8	8.7
2025-01-30 15:53:31.360429	214.5	56.0	-63.6	7.3
2025-01-30 15:53:32.501909	215.2	56.3	-63.7	7.0
2025-01-30 15:53:33.643877	215.9	56.6	-64.9	9.0
2025-01-30 15:53:34.786860	216.6	56.8	-63.9	7.1
2025-01-30 15:53:35.930823	217.3	57.1	-64.8	8.8
2025-01-30 15:53:37.071794	218.0	57.3	-63.9	6.5
2025-01-30 15:53:38.214759	218.8	57.6	-64.2	9.7
2025-01-30 15:53:39.360717	219.6	57.9	-64.5	7.4
2025-01-30 15:53:40.505189	220.3	58.1	-62.6	7.5
2025-01-30 15:53:41.645670	221.1	58.4	-63.2	7.0
2025-01-30 15:53:42.789634	221.9	58.6	-63.7	7.9
2025-01-30 15:53:43.930607	222.8	58.9	-63.8	7.8
2025-01-30 15:53:45.072573	223.6	59.1	-64.0	9.8
2025-01-30 15:53:46.214540	224.5	59.3	-62.9	7.5
2025-01-30 15:53:47.356509	225.3	59.5	-63.2	8.1
2025-01-30 15:53:48.498477	226.2	59.8	-62.1	7.1
2025-01-30 15:53:49.640445	227.1	60.0	-62.3	7.6
2025-01-30 15:53:50.783412	228.0	60.2	-62.1	6.8
2025-01-30 15:53:51.924400	228.9	60.4	-61.9	6.9
2025-01-30 15:53:53.068362	229.9	60.6	-62.6	7.9
2025-01-30 15:53:54.209845	230.8	60.8	-62.4	7.2
2025-01-30 15:53:55.351323	231.8	61.0	-62.5	7.8
2025-01-30 15:53:56.498278	232.8	61.1	-62.2	7.0
2025-01-30 15:53:57.639249	233.8	61.3	-62.7	7.4
2025-01-30 15:53:58.782259	234.8	61.5	-62.6	9.2
2025-01-30 15:53:59.922214	235.8	61.6	-62.4	6.3
2025-01-30 15:54:01.064182	236.9	61.8	-62.2	7.3
2025-01-30 15:54:02.206150	237.9	61.9	-62.0	6.5
2025-01-30 15:54:03.348118	239.0	62.1	-62.3	8.1
2025-01-30 15:54:04.490087	240.0	62.2	-62.8	8.1
2025-01-30 15:54:05.631566	241.1	62.3	-62.3	8.1
2025-01-30 15:54:06.776038	242.2	62.4	-62.8	9.3
2025-01-30 15:54:07.918006	243.3	62.5	-62.6	9.6
2025-01-30 15:54:09.059998	244.4	62.6	-62.6	7.9
2025-01-30 15:54:10.199972	245.5	62.7	-62.3	7.5
2025-01-30 15:54:11.342938	246.7	62.8	-62.3	7.9
2025-01-30 15:54:12.483929	247.8	62.8	-62.3	8.1
2025-01-30 15:54:13.625898	248.9	62.9	-62.3	6.8
2025-01-30 15:54:14.766868	250.1	62.9	-62.1	8.0
2025-01-30 15:54:15.909835	251.2	63.0	-61.9	8.7
2025-01-30 15:54:17.051803	252.4	63.0	-62.6	9.2
2025-01-30 15:54:18.194768	253.5	63.0	-62.2	8.3
2025-01-30 15:54:19.336737	254.7	63.0	-63.0	9.7
2025-01-30 15:54:20.483692	255.8	63.0	-62.9	10.8
2025-01-30 15:54:21.628652	257.0	63.0	-62.9	9.3
2025-01-30 15:54:22.769623	258.1	63.0	-63.7	6.1
2025-01-30 15:54:23.913586	259.3	62.9	-62.9	9.0
2025-01-30 15:54:25.055554	260.4	62.9	-62.6	8.2
2025-01-30 15:54:26.196525	261.5	62.9	-63.6	10.0
2025-01-30 15:54:27.338493	262.7	62.8	-64.2	13.3
2025-01-30 15:54:28.480462	263.8	62.7	-64.1	10.7
2025-01-30 15:54:29.620450	264.9	62.7	-62.8	8.1
2025-01-30 15:54:30.763416	266.0	62.6	-63.1	8.8
2025-01-30 15:54:31.904405	267.1	62.5	-63.0	9.1
2025-01-30 15:54:33.045376	268.2	62.4	-64.1	10.9
2025-01-30 15:54:34.186854	269.3	62.3	-64.4	11.0
2025-01-30 15:54:35.327825	270.4	62.1	-64.5	11.6
2025-01-30 15:54:36.469302	271.5	62.0	-64.8	11.0
2025-01-30 15:54:37.612267	272.5	61.9	-64.4	8.4
2025-01-30 15:54:38.752241	273.6	61.7	-63.9	7.2
2025-01-30 15:54:39.894209	274.6	61.6	-62.6	7.0
2025-01-30 15:54:41.036177	275.6	61.4	-64.3	11.3
2025-01-30 15:54:42.178146	276.6	61.3	-64.6	10.0
2025-01-30 15:54:43.322109	277.6	61.1	-63.4	7.7
2025-01-30 15:54:44.463586	278.6	60.9	-63.9	7.0
2025-01-30 15:54:45.606552	279.5	60.7	-62.4	6.9
2025-01-30 15:54:46.747523	280.5	60.5	-62.5	4.2
2025-01-30 15:54:47.889491	281.4	60.3	-62.5	6.8
2025-01-30 15:54:49.031460	282.3	60.1	-62.3	7.2
2025-01-30 15:54:50.172937	283.2	59.9	-63.9	9.6
2025-01-30 15:54:51.313419	284.1	59.7	-64.4	10.1
2025-01-30 15:54:52.455387	285.0	59.5	-65.2	9.9
2025-01-30 15:54:53.596358	285.9	59.2	-63.5	10.6
2025-01-30 15:54:54.740831	286.7	59.0	-61.4	3.5
2025-01-30 15:54:55.883797	287.5	58.8	-64.3	12.0
2025-01-30 15:54:57.025765	288.3	58.5	-64.3	8.0
2025-01-30 15:54:58.171722	289.1	58.3	-64.0	9.1
2025-01-30 15:54:59.313691	289.9	58.0	-64.4	10.4
2025-01-30 15:55:00.455659	290.7	57.8	-64.4	10.1
2025-01-30 15:55:01.597627	291.5	57.5	-60.5	5.3
2025-01-30 15:55:02.739595	292.2	57.3	-63.2	6.8
2025-01-30 15:55:03.880567	292.9	57.0	-62.9	8.6
2025-01-30 15:55:05.023533	293.6	56.7	-61.3	5.4
2025-01-30 15:55:06.164503	294.3	56.5	-63.4	8.5
2025-01-30 15:55:07.306471	295.0	56.2	-60.5	4.9
2025-01-30 15:55:08.449437	295.7	55.9	-61.0	7.7
2025-01-30 15:55:09.592403	296.4	55.6	-60.4	4.9
2025-01-30 15:55:10.734371	297.0	55.4	-60.4	5.2
2025-01-30 15:55:11.876850	297.7	55.1	-61.6	4.4
2025-01-30 15:55:13.017821	298.3	54.8	-60.9	5.7
2025-01-30 15:55:14.159790	298.9	54.5	-62.0	5.4
2025-01-30 15:55:15.300778	299.5	54.2	-60.9	5.3
2025-01-30 15:55:16.442746	300.1	53.9	-63.7	9.8
2025-01-30 15:55:17.584715	300.6	53.7	-60.6	6.4
2025-01-30 15:55:18.729675	301.2	53.4	-60.8	5.6
2025-01-30 15:55:19.871643	301.8	53.1	-62.0	9.0
2025-01-30 15:55:21.012614	302.3	52.8	-60.7	3.7
2025-01-30 15:55:22.154091	302.8	52.5	-60.9	4.5
2025-01-30 15:55:23.298055	303.4	52.2	-62.0	8.3
2025-01-30 15:55:24.440023	303.9	51.9	-62.1	5.5
2025-01-30 15:55:25.587975	304.4	51.6	-60.7	4.7
2025-01-30 15:55:26.730941	304.9	51.3	-60.7	8.1
2025-01-30 15:55:27.875902	305.3	51.0	-60.6	6.2
2025-01-30 15:55:29.017378	305.8	50.7	-60.2	5.9
2025-01-30 15:55:30.161341	306.3	50.4	-60.2	6.0
2025-01-30 15:55:31.303310	306.7	50.1	-60.4	5.9
2025-01-30 15:55:32.444281	307.2	49.8	-60.5	5.7
2025-01-30 15:55:33.587246	307.6	49.5	-60.3	6.1
2025-01-30 15:55:34.728217	308.1	49.3	-61.2	7.3
2025-01-30 15:55:35.874175	308.5	49.0	-60.4	6.1
2025-01-30 15:55:37.015146	308.9	48.7	-61.2	5.7
2025-01-30 15:55:38.157114	309.3	48.4	-61.0	5.3
2025-01-30 15:55:39.303072	309.7	48.1	-61.1	6.6
2025-01-30 15:55:40.444043	310.1	47.8	-60.9	5.4
2025-01-30 15:55:41.586011	310.5	47.5	-61.0	5.9
2025-01-30 15:55:42.727979	310.8	47.2	-61.1	5.6
2025-01-30 15:55:43.869948	311.2	46.9	-61.5	8.2
2025-01-30 15:55:45.016903	311.6	46.6	-61.5	6.4
2025-01-30 15:55:46.157893	311.9	46.3	-61.2	5.8
2025-01-30 15:55:47.303851	312.3	46.0	-61.6	5.4
2025-01-30 15:55:48.445820	312.6	45.8	-61.9	6.2
2025-01-30 15:55:49.590291	313.0	45.5	-62.6	9.8
2025-01-30 15:55:50.731261	313.3	45.2	-61.8	6.3
2025-01-30 15:55:51.875240	313.6	44.9	-61.9	7.7
2025-01-30 15:55:53.015720	313.9	44.6	-62.1	7.4
2025-01-30 15:55:54.157688	314.3	44.3	-63.0	8.9
2025-01-30 15:55:55.304658	314.6	44.1	-62.0	8.1
2025-01-30 15:55:56.450601	314.9	43.8	-61.8	6.9
2025-01-30 15:55:57.591572	315.2	43.5	-62.2	9.5
2025-01-30 15:55:58.734537	315.5	43.2	-61.0	7.4
2025-01-30 15:55:59.876528	315.8	42.9	-60.6	5.8
2025-01-30 15:56:01.017499	316.0	42.7	-61.6	7.5
2025-01-30 15:56:02.160465	316.3	42.4	-61.0	7.8
2025-01-30 15:56:03.303449	316.6	42.1	-63.4	8.6
2025-01-30 15:56:04.445418	316.9	41.9	-62.9	7.2
2025-01-30 15:56:05.587386	317.1	41.6	-62.9	10.0
2025-01-30 15:56:06.729860	317.4	41.3	-61.1	7.5
2025-01-30 15:56:07.870831	317.6	41.0	-61.6	7.3
2025-01-30 15:56:09.013797	317.9	40.8	-63.5	9.9
2025-01-30 15:56:10.153767	318.2	40.5	-63.1	9.1
2025-01-30 15:56:11.295731	318.4	40.3	-63.0	7.5
2025-01-30 15:56:12.438693	318.6	40.0	-62.0	7.1
2025-01-30 15:56:13.583160	318.9	39.7	-62.1	7.3
2025-01-30 15:56:14.725123	319.1	39.5	-61.2	6.2
2025-01-30 15:56:15.866089	319.3	39.2	-61.1	5.5
2025-01-30 15:56:17.008053	319.6	39.0	-61.1	6.5
2025-01-30 15:56:18.150017	319.8	38.7	-61.3	5.2
2025-01-30 15:56:19.292978	320.0	38.5	-61.5	6.3
2025-01-30 15:56:20.434943	320.2	38.2	-61.1	5.9
2025-01-30 15:56:21.582892	320.4	38.0	-62.6	10.6
2025-01-30 15:56:22.723857	320.6	37.7	-61.8	7.0
2025-01-30 15:56:23.866843	320.9	37.5	-63.3	9.4
2025-01-30 15:56:25.008807	321.1	37.2	-62.3	4.5
2025-01-30 15:56:26.150771	321.3	37.0	-63.7	7.3
2025-01-30 15:56:27.291758	321.5	36.7	-62.5	6.1
2025-01-30 15:56:28.433722	321.7	36.5	-63.7	9.2
2025-01-30 15:56:29.576684	321.8	36.2	-63.6	8.2
2025-01-30 15:56:30.717163	322.0	36.0	-63.2	7.8
2025-01-30 15:56:31.858129	322.2	35.8	-65.5	11.5
2025-01-30 15:56:33.001091	322.4	35.5	-63.0	6.7
2025-01-30 15:56:34.145559	322.6	35.3	-63.1	5.9
2025-01-30 15:56:35.286524	322.8	35.1	-64.3	6.9
2025-01-30 15:56:36.429994	322.9	34.8	-63.7	8.6
2025-01-30 15:56:37.570960	323.1	34.6	-60.4	0.0
2025-01-30 15:56:38.714919	323.3	34.4	-60.2	1.4
2025-01-30 15:56:39.857881	323.5	34.1	-64.7	8.2
2025-01-30 15:56:40.999845	323.6	33.9	-62.4	4.4
2025-01-30 15:56:42.140322	323.8	33.7	-63.4	5.3
2025-01-30 15:56:43.281287	324.0	33.5	-63.3	6.2
2025-01-30 15:56:44.427241	324.1	33.3	-64.1	7.4
2025-01-30 15:56:45.570203	324.3	33.0	-61.2	2.1
2025-01-30 15:56:46.712166	324.4	32.8	-63.5	8.8
2025-01-30 15:56:47.855128	324.6	32.6	-62.7	1.8
2025-01-30 15:56:48.996095	324.7	32.4	-62.8	6.1
2025-01-30 15:56:50.139057	324.9	32.2	-64.3	5.8
2025-01-30 15:56:51.282017	325.0	31.9	-61.6	1.8
2025-01-30 15:56:52.428968	325.2	31.7	-60.4	0.0
2025-01-30 15:56:53.570932	325.3	31.5	-62.5	1.9
2025-01-30 15:56:54.712895	325.5	31.3	-60.3	0.0
2025-01-30 15:56:55.854369	325.6	31.1	-59.0	0.0
2025-01-30 15:56:56.996333	325.8	30.9	-63.1	5.4
2025-01-30 15:56:58.139294	325.9	30.7	-63.8	4.6
2025-01-30 15:56:59.281765	326.0	30.5	-62.2	3.0
2025-01-30 15:57:00.429713	326.2	30.3	-63.8	4.8
2025-01-30 15:57:01.572675	326.3	30.1	-58.9	0.0
#Closed at: 2025-01-30 15:51:33.410880