passes_logs/2025/01/30/Planum_Noyabrsk/Planum_Noyabrsk__20250130_161306_NOAA_18_rec.log

#Pass ID: 20250130_161306_NOAA 18
#Satellite: NOAA 18
#Configuration: NOAA 18
#Start time: 2025-01-30 16:13:11.917823

#LorettStation: 1.0.0 05.05.2024
#Station: Planum_Noyabrsk
#Location: 75.446886 lon 63.207202 lat
#TLE: 1 28654U 05018A   25029.46161023  .00000435  00000+0  25421-3 0  9998
#TLE: 2 28654  98.8543 110.3710 0014937 139.5028 220.7258 14.13500950 15223

#Time	Az	El	Level	SNR
2025-01-30 16:13:18.122623	144.2	31.2	-60.3	0.0
2025-01-30 16:13:19.265584	144.1	31.4	-60.4	0.0
2025-01-30 16:13:20.406551	144.1	31.6	-60.6	0.0
2025-01-30 16:13:21.548024	144.0	31.8	-61.9	3.7
2025-01-30 16:13:22.690986	143.9	32.1	-62.0	0.0
2025-01-30 16:13:23.834959	143.9	32.3	-61.8	0.0
2025-01-30 16:13:24.977430	143.8	32.5	-60.8	0.0
2025-01-30 16:13:26.124380	143.7	32.8	-61.0	1.9
2025-01-30 16:13:27.265347	143.7	33.0	-63.7	6.5
2025-01-30 16:13:28.408308	143.6	33.2	-63.4	0.0
2025-01-30 16:13:29.549275	143.5	33.5	-63.5	6.6
2025-01-30 16:13:30.691239	143.4	33.7	-64.4	5.8
2025-01-30 16:13:31.831716	143.3	33.9	-63.1	5.8
2025-01-30 16:13:32.976672	143.3	34.2	-65.8	7.4
2025-01-30 16:13:34.118637	143.2	34.4	-63.9	7.5
2025-01-30 16:13:35.260111	143.1	34.7	-64.6	4.7
2025-01-30 16:13:36.403072	143.0	34.9	-64.6	5.2
2025-01-30 16:13:37.544038	142.9	35.2	-61.1	0.0
2025-01-30 16:13:38.686002	142.8	35.4	-62.7	1.0
2025-01-30 16:13:39.828964	142.8	35.7	-62.4	2.0
2025-01-30 16:13:40.969930	142.7	35.9	-59.2	0.0
2025-01-30 16:13:42.111405	142.6	36.2	-59.9	0.0
2025-01-30 16:13:43.255363	142.5	36.4	-62.5	1.8
2025-01-30 16:13:44.397328	142.4	36.7	-62.8	3.3
2025-01-30 16:13:45.538808	142.3	37.0	-62.4	3.0
2025-01-30 16:13:46.681769	142.2	37.2	-60.6	0.0
2025-01-30 16:13:47.823733	142.1	37.5	-63.3	3.8
2025-01-30 16:13:48.964699	142.0	37.8	-62.7	2.3
2025-01-30 16:13:50.107661	141.9	38.0	-59.5	0.0
2025-01-30 16:13:51.249624	141.8	38.3	-62.4	3.7
2025-01-30 16:13:52.391590	141.7	38.6	-62.8	3.4
2025-01-30 16:13:53.533552	141.6	38.9	-63.7	6.1
2025-01-30 16:13:54.676514	141.5	39.1	-62.0	1.9
2025-01-30 16:13:55.816990	141.4	39.4	-61.9	0.4
2025-01-30 16:13:56.964449	141.3	39.7	-59.2	0.0
2025-01-30 16:13:58.106413	141.1	40.0	-62.7	5.8
2025-01-30 16:13:59.247380	141.0	40.3	-63.9	5.8
2025-01-30 16:14:00.390341	140.9	40.6	-61.2	0.7
2025-01-30 16:14:01.533813	140.8	40.9	-62.8	2.3
2025-01-30 16:14:02.675776	140.7	41.2	-63.7	4.0
2025-01-30 16:14:03.818769	140.5	41.5	-62.0	4.4
2025-01-30 16:14:04.961730	140.4	41.7	-63.4	5.5
2025-01-30 16:14:06.103695	140.3	42.1	-60.6	0.0
2025-01-30 16:14:07.244173	140.1	42.4	-63.1	5.6
2025-01-30 16:14:08.387134	140.0	42.7	-63.2	3.2
2025-01-30 16:14:09.529098	139.9	43.0	-63.2	5.3
2025-01-30 16:14:10.671062	139.7	43.3	-60.1	0.0
2025-01-30 16:14:11.813026	139.6	43.6	-60.3	6.7
2025-01-30 16:14:12.955987	139.4	43.9	-59.0	0.0
2025-01-30 16:14:14.096462	139.3	44.2	-61.7	4.6
2025-01-30 16:14:15.239424	139.1	44.5	-63.1	7.4
2025-01-30 16:14:16.380391	139.0	44.9	-61.9	6.1
2025-01-30 16:14:17.522861	138.8	45.2	-62.2	6.2
2025-01-30 16:14:18.663827	138.7	45.5	-58.2	0.5
2025-01-30 16:14:19.806299	138.5	45.8	-61.2	6.6
2025-01-30 16:14:20.949261	138.3	46.2	-61.9	6.6
2025-01-30 16:14:22.092222	138.1	46.5	-62.5	7.1
2025-01-30 16:14:23.233188	138.0	46.8	-62.6	7.7
2025-01-30 16:14:24.376150	137.8	47.2	-57.1	0.0
2025-01-30 16:14:25.517116	137.6	47.5	-62.6	7.1
2025-01-30 16:14:26.659080	137.4	47.9	-63.2	5.5
2025-01-30 16:14:27.802042	137.2	48.2	-62.1	6.7
2025-01-30 16:14:28.943009	137.0	48.6	-61.4	0.0
2025-01-30 16:14:30.090956	136.8	48.9	-63.2	6.7
2025-01-30 16:14:31.232433	136.6	49.3	-58.6	5.5
2025-01-30 16:14:32.375392	136.4	49.6	-57.7	0.0
2025-01-30 16:14:33.518354	136.2	50.0	-62.0	5.1
2025-01-30 16:14:34.661315	135.9	50.3	-61.6	5.1
2025-01-30 16:14:35.803280	135.7	50.7	-62.1	6.6
2025-01-30 16:14:36.945244	135.5	51.1	-58.3	0.0
2025-01-30 16:14:38.087208	135.2	51.4	-58.0	0.0
2025-01-30 16:14:39.229171	135.0	51.8	-61.2	0.0
2025-01-30 16:14:40.372133	134.7	52.2	-59.3	0.0
2025-01-30 16:14:41.513606	134.5	52.6	-60.2	1.0
2025-01-30 16:14:42.656568	134.2	52.9	-62.2	6.8
2025-01-30 16:14:43.802034	133.9	53.3	-61.2	5.4
2025-01-30 16:14:44.946011	133.7	53.7	-61.5	6.3
2025-01-30 16:14:46.092471	133.4	54.1	-61.7	4.9
2025-01-30 16:14:47.235432	133.1	54.5	-59.2	2.1
2025-01-30 16:14:48.377396	132.8	54.8	-59.3	1.6
2025-01-30 16:14:49.518363	132.5	55.2	-58.2	0.0
2025-01-30 16:14:50.659330	132.1	55.6	-61.1	6.3
2025-01-30 16:14:51.803288	131.8	56.0	-60.7	5.5
2025-01-30 16:14:52.945252	131.5	56.4	-58.2	0.0
2025-01-30 16:14:54.088214	131.1	56.8	-60.5	3.1
2025-01-30 16:14:55.236180	130.7	57.2	-60.6	4.2
2025-01-30 16:14:56.379141	130.4	57.6	-60.6	4.4
2025-01-30 16:14:57.521105	130.0	58.0	-59.6	2.4
2025-01-30 16:14:58.661582	129.6	58.4	-60.2	3.3
2025-01-30 16:14:59.802548	129.2	58.8	-59.9	3.6
2025-01-30 16:15:00.948501	128.8	59.2	-60.0	1.4
2025-01-30 16:15:02.090973	128.3	59.6	-59.6	0.0
2025-01-30 16:15:03.231939	127.9	60.0	-60.5	3.3
2025-01-30 16:15:04.373903	127.4	60.4	-56.9	0.0
2025-01-30 16:15:05.517879	126.9	60.9	-57.8	0.0
2025-01-30 16:15:06.659843	126.5	61.3	-59.3	1.4
2025-01-30 16:15:07.802804	125.9	61.7	-61.9	3.4
2025-01-30 16:15:08.944768	125.4	62.1	-60.2	1.9
2025-01-30 16:15:10.087729	124.9	62.5	-59.7	0.0
2025-01-30 16:15:11.231688	124.3	62.9	-60.4	0.0
2025-01-30 16:15:12.379149	123.7	63.3	-60.4	0.0
2025-01-30 16:15:13.520115	123.1	63.7	-59.6	0.0
2025-01-30 16:15:14.662079	122.5	64.2	-62.1	2.0
2025-01-30 16:15:15.803555	121.8	64.6	-62.5	1.9
2025-01-30 16:15:16.945519	121.2	65.0	-61.5	0.0
2025-01-30 16:15:18.086485	120.5	65.4	-56.9	0.0
2025-01-30 16:15:19.229447	119.7	65.8	-57.6	0.0
2025-01-30 16:15:20.371411	119.0	66.2	-56.1	0.0
2025-01-30 16:15:21.533321	118.2	66.6	-59.0	0.0
2025-01-30 16:15:22.674288	117.4	67.0	-59.3	0.0
2025-01-30 16:15:23.817249	116.5	67.4	-60.1	0.3
2025-01-30 16:15:24.957724	115.7	67.8	-58.8	0.0
2025-01-30 16:15:26.100686	114.7	68.2	-59.4	0.0
2025-01-30 16:15:27.242654	113.8	68.6	-56.1	0.0
2025-01-30 16:15:28.386124	112.8	69.0	-56.7	0.0
2025-01-30 16:15:29.529086	111.8	69.4	-58.2	0.0
2025-01-30 16:15:30.671050	110.7	69.7	-60.6	0.0
2025-01-30 16:15:31.811527	109.6	70.1	-57.9	0.0
2025-01-30 16:15:32.953491	108.4	70.5	-59.8	0.0
2025-01-30 16:15:34.094458	107.2	70.8	-56.5	0.0
2025-01-30 16:15:35.236422	106.0	71.2	-58.9	0.0
2025-01-30 16:15:36.378386	104.7	71.5	-59.8	0.0
2025-01-30 16:15:37.523343	103.3	71.9	-60.5	1.7
2025-01-30 16:15:38.664308	101.9	72.2	-61.7	4.9
2025-01-30 16:15:39.811767	100.5	72.5	-57.6	0.0
2025-01-30 16:15:40.957721	98.9	72.8	-58.7	0.0
2025-01-30 16:15:42.101192	97.4	73.1	-58.6	0.0
2025-01-30 16:15:43.244154	95.7	73.4	-57.8	0.0
2025-01-30 16:15:44.388112	94.0	73.7	-59.5	0.0
2025-01-30 16:15:45.530076	92.3	73.9	-60.4	1.4
2025-01-30 16:15:46.670551	90.5	74.2	-60.3	0.5
2025-01-30 16:15:47.815507	88.6	74.4	-60.0	1.6
2025-01-30 16:15:48.956980	86.7	74.6	-61.1	1.6
2025-01-30 16:15:50.105928	84.7	74.8	-61.8	1.4
2025-01-30 16:15:51.247890	82.7	75.0	-62.6	5.1
2025-01-30 16:15:52.389363	80.6	75.1	-62.8	2.8
2025-01-30 16:15:53.529838	78.5	75.3	-61.3	1.3
2025-01-30 16:15:54.672800	76.4	75.4	-61.2	0.0
2025-01-30 16:15:55.814764	74.2	75.5	-62.2	0.4
2025-01-30 16:15:56.955730	72.0	75.6	-61.3	0.0
2025-01-30 16:15:58.103679	69.7	75.6	-62.3	1.2
2025-01-30 16:15:59.246641	67.5	75.7	-64.8	2.9
2025-01-30 16:16:00.391596	65.2	75.7	-64.8	3.2
2025-01-30 16:16:01.533560	62.9	75.7	-60.7	0.0
2025-01-30 16:16:02.675524	60.7	75.6	-65.9	4.6
2025-01-30 16:16:03.815999	58.4	75.6	-58.6	0.0
2025-01-30 16:16:04.958961	56.2	75.5	-62.5	0.0
2025-01-30 16:16:06.104425	54.0	75.4	-58.7	0.0
2025-01-30 16:16:07.246388	51.9	75.3	-59.1	0.0
2025-01-30 16:16:08.388354	49.7	75.2	-59.7	0.0
2025-01-30 16:16:09.528828	47.6	75.0	-60.4	0.5
2025-01-30 16:16:10.671790	45.6	74.9	-58.5	0.0
2025-01-30 16:16:11.813753	43.6	74.7	-60.5	0.0
2025-01-30 16:16:12.956224	41.7	74.5	-62.0	0.2
2025-01-30 16:16:14.098188	39.8	74.2	-63.0	0.0
2025-01-30 16:16:15.240152	38.0	74.0	-57.3	0.0
2025-01-30 16:16:16.381627	36.2	73.8	-62.0	0.0
2025-01-30 16:16:17.523590	34.5	73.5	-62.6	1.9
2025-01-30 16:16:18.665555	32.8	73.2	-59.2	0.0
2025-01-30 16:16:19.806521	31.2	72.9	-61.2	3.1
2025-01-30 16:16:20.949483	29.7	72.6	-60.6	0.0
2025-01-30 16:16:22.091447	28.2	72.3	-63.2	4.3
2025-01-30 16:16:23.233918	26.8	72.0	-61.0	0.0
2025-01-30 16:16:24.380868	25.4	71.7	-62.0	0.7
2025-01-30 16:16:25.522832	24.1	71.3	-62.3	1.6
2025-01-30 16:16:26.664796	22.8	71.0	-62.0	1.8
2025-01-30 16:16:27.806760	21.6	70.6	-63.0	2.2
2025-01-30 16:16:28.948234	20.4	70.2	-63.2	3.8
2025-01-30 16:16:30.091195	19.3	69.9	-62.1	0.7
2025-01-30 16:16:31.235153	18.2	69.5	-62.2	4.2
2025-01-30 16:16:32.376120	17.2	69.1	-61.6	4.4
2025-01-30 16:16:33.517087	16.2	68.7	-62.0	6.2
2025-01-30 16:16:34.660048	15.2	68.4	-60.1	3.7
2025-01-30 16:16:35.801014	14.3	68.0	-61.3	6.2
2025-01-30 16:16:36.943976	13.4	67.6	-61.6	5.7
2025-01-30 16:16:38.085940	12.5	67.2	-60.3	3.1
2025-01-30 16:16:39.228902	11.7	66.8	-61.9	4.8
2025-01-30 16:16:40.371862	10.9	66.4	-59.6	0.6
2025-01-30 16:16:41.513400	10.1	66.0	-60.8	2.0
2025-01-30 16:16:42.655364	9.4	65.5	-59.3	0.0
2025-01-30 16:16:43.796330	8.7	65.1	-62.7	5.6
2025-01-30 16:16:44.939799	8.0	64.7	-59.6	0.0
2025-01-30 16:16:46.082761	7.4	64.3	-59.9	0.4
2025-01-30 16:16:47.224724	6.7	63.9	-60.7	2.8
2025-01-30 16:16:48.372672	6.1	63.5	-60.3	1.0
2025-01-30 16:16:49.514636	5.5	63.1	-59.9	0.7
2025-01-30 16:16:50.655622	4.9	62.7	-61.0	0.3
2025-01-30 16:16:51.798584	4.4	62.3	-61.3	1.4
2025-01-30 16:16:52.939550	3.8	61.8	-62.4	4.1
2025-01-30 16:16:54.081023	3.3	61.4	-61.1	1.0
2025-01-30 16:16:55.223985	2.8	61.0	-61.7	3.1
2025-01-30 16:16:56.364951	2.3	60.6	-61.8	2.1
2025-01-30 16:16:57.509907	1.9	60.2	-60.9	2.8
2025-01-30 16:16:58.650873	1.4	59.8	-61.0	3.8
2025-01-30 16:16:59.793835	1.0	59.4	-63.5	7.2
2025-01-30 16:17:00.934310	0.6	59.0	-63.5	7.8
2025-01-30 16:17:02.077272	0.2	58.6	-63.1	6.8
2025-01-30 16:17:03.219236	359.8	58.2	-61.9	6.5
2025-01-30 16:17:04.363194	359.4	57.8	-60.5	4.1
2025-01-30 16:17:05.505669	359.0	57.4	-60.5	4.1
2025-01-30 16:17:06.647633	358.6	57.0	-60.1	4.9
2025-01-30 16:17:07.788599	358.3	56.6	-61.8	5.3
2025-01-30 16:17:08.935063	357.9	56.2	-61.4	4.7
2025-01-30 16:17:10.076029	357.6	55.8	-61.3	6.1
2025-01-30 16:17:11.217993	357.3	55.4	-60.1	3.7
2025-01-30 16:17:12.359957	356.9	55.0	-59.5	2.4
2025-01-30 16:17:13.501921	356.6	54.6	-60.8	5.2
2025-01-30 16:17:14.644883	356.3	54.2	-61.2	6.0
2025-01-30 16:17:15.788350	356.0	53.9	-60.7	4.1
2025-01-30 16:17:16.930314	355.8	53.5	-61.3	5.1
2025-01-30 16:17:18.072278	355.5	53.1	-60.9	2.8
2025-01-30 16:17:19.214242	355.2	52.7	-61.3	4.5
2025-01-30 16:17:20.356206	355.0	52.3	-61.5	4.4
2025-01-30 16:17:21.501162	354.7	52.0	-61.8	5.1
2025-01-30 16:17:22.643632	354.4	51.6	-62.3	6.4
2025-01-30 16:17:23.785597	354.2	51.2	-61.5	4.8
2025-01-30 16:17:24.926563	354.0	50.9	-61.9	5.7
2025-01-30 16:17:26.069524	353.7	50.5	-62.8	5.5
2025-01-30 16:17:27.213483	353.5	50.1	-62.8	7.1
2025-01-30 16:17:28.355447	353.3	49.8	-61.0	4.0
2025-01-30 16:17:29.499928	353.1	49.4	-62.8	7.3
2025-01-30 16:17:30.641892	352.9	49.1	-61.4	5.2
2025-01-30 16:17:31.783857	352.7	48.7	-62.0	5.8
2025-01-30 16:17:32.930321	352.5	48.4	-61.8	4.5
2025-01-30 16:17:34.072282	352.3	48.0	-60.6	2.8
2025-01-30 16:17:35.214247	352.1	47.7	-61.0	4.0
2025-01-30 16:17:36.355719	351.9	47.3	-60.1	4.1
2025-01-30 16:17:37.499189	351.7	47.0	-61.2	3.8
2025-01-30 16:17:38.644144	351.5	46.7	-62.2	5.3
2025-01-30 16:17:39.791094	351.3	46.3	-61.4	5.2
2025-01-30 16:17:40.933059	351.2	46.0	-61.1	4.8
2025-01-30 16:17:42.075022	351.0	45.7	-62.5	6.3
2025-01-30 16:17:43.216497	350.8	45.3	-62.6	6.7
2025-01-30 16:17:44.358461	350.7	45.0	-61.3	4.3
2025-01-30 16:17:45.502422	350.5	44.7	-60.4	4.3
2025-01-30 16:17:46.643386	350.4	44.4	-61.6	5.6
2025-01-30 16:17:47.786348	350.2	44.0	-60.7	3.0
2025-01-30 16:17:48.929325	350.1	43.7	-61.7	5.1
2025-01-30 16:17:50.071289	349.9	43.4	-62.5	5.8
2025-01-30 16:17:51.214250	349.8	43.1	-59.9	2.4
2025-01-30 16:17:52.357212	349.6	42.8	-61.6	6.5
2025-01-30 16:17:53.499687	349.5	42.5	-61.5	5.4
2025-01-30 16:17:54.639657	349.4	42.2	-61.5	4.7
2025-01-30 16:17:55.782618	349.2	41.9	-61.8	4.7
2025-01-30 16:17:56.929079	349.1	41.6	-61.3	4.2
2025-01-30 16:17:58.070046	349.0	41.3	-61.4	3.0
2025-01-30 16:17:59.212010	348.9	41.0	-60.7	1.5
2025-01-30 16:18:00.354971	348.7	40.7	-62.0	3.6
2025-01-30 16:18:01.496935	348.6	40.4	-61.7	1.7
2025-01-30 16:18:02.637411	348.5	40.1	-61.0	4.6
2025-01-30 16:18:03.779375	348.4	39.8	-60.6	0.4
2025-01-30 16:18:04.923334	348.3	39.5	-60.7	1.4
2025-01-30 16:18:06.066295	348.2	39.3	-61.6	2.2
2025-01-30 16:18:07.208259	348.0	39.0	-60.3	0.4
2025-01-30 16:18:08.350223	347.9	38.7	-60.9	1.5
2025-01-30 16:18:09.491189	347.8	38.4	-61.2	1.0
2025-01-30 16:18:10.637652	347.7	38.1	-60.1	0.5
2025-01-30 16:18:11.777621	347.6	37.9	-61.0	3.3
2025-01-30 16:18:12.920582	347.5	37.6	-61.3	0.6
2025-01-30 16:18:14.061058	347.4	37.3	-59.0	0.0
2025-01-30 16:18:15.204527	347.3	37.1	-59.2	0.0
2025-01-30 16:18:16.346491	347.2	36.8	-60.5	1.2
2025-01-30 16:18:17.487457	347.1	36.5	-61.1	0.0
2025-01-30 16:18:18.632413	347.1	36.3	-58.7	0.0
2025-01-30 16:18:19.774377	347.0	36.0	-60.6	0.0
2025-01-30 16:18:20.915852	346.9	35.8	-60.3	0.0
2025-01-30 16:18:22.056818	346.8	35.5	-59.8	0.0
2025-01-30 16:18:23.198782	346.7	35.3	-60.3	0.5
2025-01-30 16:18:24.341743	346.6	35.0	-59.8	0.0
2025-01-30 16:18:25.485211	346.5	34.8	-59.6	0.3
2025-01-30 16:18:26.628173	346.4	34.5	-60.5	0.0
2025-01-30 16:18:27.774631	346.4	34.3	-60.4	0.0
2025-01-30 16:18:28.916595	346.3	34.0	-61.1	0.1
2025-01-30 16:18:30.058559	346.2	33.8	-62.4	2.6
2025-01-30 16:18:31.203516	346.1	33.6	-58.3	0.0
2025-01-30 16:18:32.345479	346.1	33.3	-58.9	0.0
2025-01-30 16:18:33.487444	346.0	33.1	-59.2	0.0
2025-01-30 16:18:34.628917	345.9	32.9	-59.7	0.0
2025-01-30 16:18:35.770881	345.8	32.6	-59.5	0.0
2025-01-30 16:18:36.913842	345.8	32.4	-60.4	0.0
2025-01-30 16:18:38.058308	345.7	32.2	-57.7	0.0
2025-01-30 16:18:39.200271	345.6	31.9	-58.1	0.0
2025-01-30 16:18:40.341238	345.6	31.7	-58.7	0.0
2025-01-30 16:18:41.483709	345.5	31.5	-59.0	0.0
2025-01-30 16:18:42.628664	345.4	31.3	-58.5	0.0
2025-01-30 16:18:43.770629	345.4	31.0	-59.7	1.5
2025-01-30 16:18:44.912592	345.3	30.8	-60.7	2.2
2025-01-30 16:18:46.058547	345.2	30.6	-60.2	0.0
2025-01-30 16:18:47.201507	345.2	30.4	-59.4	0.0
2025-01-30 16:18:48.343471	345.1	30.2	-60.7	0.0
2025-01-30 16:18:49.485435	345.0	30.0	-62.7	0.0
#Closed at: 2025-01-30 16:13:06.921407