passes_logs/2026/01/15/R4.6S_Anadyr/R4.6S_Anadyr__20260115_162452_SUOMI_NPP_rec.log

#Pass ID: 20260115_162452_SUOMI NPP
#Satellite: SUOMI NPP
#Configuration: NPP
#almurnet v.1.7.20251203
#Start time: 2026-01-15 16:24:53

#Version: 2.2.20231116
#Station: R4.6S_Anadyr
#Location: 177.4865 lon 64.73178 lat
#TLE: 1 37849U 11061A   26014.61059675  .00000037  00000+0  38639-4 0  9994
#TLE: 2 37849  98.7810 316.6625 0002460  64.3781 295.7649 14.19525105736658

#Time	Az	El	Level	Level2	SNR	BER	BlckErr	Temp	State	Recorded	gain1	gain2
2026-01-15 16:24:53.23	25.68	0.05	-48.4	-66.2	3.5	3.02e+01	0	25	0	0	60	79009
2026-01-15 16:24:57.27	25.53	0.28	-48.1	-63.3	3.6	1.51e+00	0	26	104	0	60	52868
2026-01-15 16:25:01.31	25.38	0.51	-48.2	-63.5	3.6	1.51e+00	0	26	104	0	60	54288
2026-01-15 16:25:05.35	25.22	0.75	-48.1	-63.3	3.6	1.51e+00	0	26	104	0	60	52823
2026-01-15 16:25:09.39	25.06	0.98	-47.5	-62.8	3.6	1.51e+00	0	27	104	0	60	49688
2026-01-15 16:25:13.43	24.90	1.22	-46.6	-61.7	3.6	1.51e+00	0	27	104	0	60	44156
2026-01-15 16:25:17.47	24.73	1.46	-46.6	-61.6	3.6	1.51e+00	0	27	104	0	60	43615
2026-01-15 16:25:21.50	24.56	1.70	-46.6	-61.7	3.6	1.51e+00	0	27	104	0	60	44025
2026-01-15 16:25:25.54	24.39	1.94	-46.6	-61.5	3.6	1.51e+00	0	27	104	0	60	43161
2026-01-15 16:25:29.58	24.22	2.19	-46.6	-61.7	3.6	1.51e+00	0	27	104	0	60	44060
2026-01-15 16:25:33.62	24.04	2.44	-46.6	-61.6	3.6	1.51e+00	0	27	104	0	60	43469
2026-01-15 16:25:37.66	23.86	2.69	-46.5	-60.9	3.6	1.51e+00	0	27	104	0	60	40107
2026-01-15 16:25:41.70	23.67	2.94	-46.6	-61.6	3.6	1.51e+00	0	27	104	0	60	43376
2026-01-15 16:25:45.74	23.49	3.19	-45.6	-52.1	7.9	2.09e-01	0	27	0	3145728	60	14481
2026-01-15 16:25:49.78	23.30	3.44	-44.4	-48.6	11.8	9.35e-04	44	27	0	10485760	60	9691
2026-01-15 16:25:53.82	23.10	3.70	-46.3	-56.7	3.8	2.10e-02	0	27	0	14680064	60	24812
2026-01-15 16:25:57.85	22.90	3.96	-41.0	-42.8	17.8	0.00e+00	0	27	0	15728640	56	6317
2026-01-15 16:26:01.89	22.70	4.22	-40.3	-41.9	18.8	0.00e+00	0	27	0	23068672	54	6363
2026-01-15 16:26:05.93	22.49	4.48	-40.6	-42.2	18.4	0.00e+00	92	27	0	30408704	54	6614
2026-01-15 16:26:09.96	22.28	4.75	-40.4	-42.1	18.6	0.00e+00	0	27	0	38797312	54	6490
2026-01-15 16:26:14.00	22.07	5.02	-40.4	-42.0	18.7	0.00e+00	0	27	0	46137344	54	6413
2026-01-15 16:26:18.05	21.85	5.29	-40.3	-41.9	19.0	0.00e+00	0	27	0	53477376	54	6375
2026-01-15 16:26:22.08	21.63	5.56	-40.2	-41.8	19.0	0.00e+00	15	27	0	60817408	54	6253
2026-01-15 16:26:26.12	21.40	5.83	-40.2	-41.7	19.3	0.00e+00	0	27	0	69206016	54	6207
2026-01-15 16:26:30.16	21.16	6.11	-40.2	-41.8	19.2	0.00e+00	0	27	0	76546048	54	6259
2026-01-15 16:26:34.20	20.93	6.39	-40.0	-41.5	19.4	0.00e+00	46	27	0	83886080	54	6051
2026-01-15 16:26:38.24	20.68	6.67	-40.0	-41.5	19.5	0.00e+00	0	27	0	91226112	54	6061
2026-01-15 16:26:42.28	20.44	6.96	-40.2	-41.7	19.3	0.00e+00	0	27	0	98566144	54	6244
2026-01-15 16:26:46.32	20.18	7.25	-39.8	-41.2	19.9	0.00e+00	0	27	0	106954752	52	6568
2026-01-15 16:26:50.36	19.93	7.54	-39.6	-40.9	20.1	0.00e+00	92	27	0	114294784	52	6376
2026-01-15 16:26:54.41	19.66	7.83	-39.3	-40.5	20.5	0.00e+00	0	27	0	121634816	52	6098
2026-01-15 16:26:58.45	19.39	8.12	-39.2	-40.4	20.6	0.00e+00	0	27	0	128974848	52	6010
2026-01-15 16:27:02.48	19.12	8.42	-39.1	-40.4	20.7	0.00e+00	0	27	0	137363456	52	5975
2026-01-15 16:27:06.52	18.84	8.72	-38.8	-39.9	21.0	0.00e+00	44	27	0	144703488	50	6389
2026-01-15 16:27:10.56	18.55	9.03	-39.0	-40.2	20.8	0.00e+00	0	27	0	152043520	50	6560
2026-01-15 16:27:14.60	18.26	9.34	-39.1	-40.3	20.8	0.00e+00	0	27	0	159383552	50	6657
2026-01-15 16:27:18.64	17.95	9.65	-38.9	-40.1	20.9	0.00e+00	0	27	0	166723584	50	6514
2026-01-15 16:27:22.67	17.65	9.96	-38.9	-40.2	20.8	0.00e+00	0	27	0	175112192	50	6548
2026-01-15 16:27:26.71	17.33	10.28	-39.1	-40.3	20.8	0.00e+00	0	27	0	182452224	50	6660
2026-01-15 16:27:30.75	17.01	10.60	-39.2	-40.4	20.7	0.00e+00	0	27	0	189792256	50	6746
2026-01-15 16:27:34.78	16.68	10.92	-38.6	-39.7	21.4	0.00e+00	46	27	0	197132288	50	6236
2026-01-15 16:27:38.82	16.35	11.25	-38.5	-39.6	21.6	0.00e+00	0	27	0	205520896	50	6154
2026-01-15 16:27:42.86	16.00	11.58	-38.2	-39.3	21.9	0.00e+00	0	28	0	212860928	50	5921
2026-01-15 16:27:46.90	15.65	11.91	-38.0	-39.1	21.9	0.00e+00	0	27	0	220200960	48	6511
2026-01-15 16:27:50.93	15.29	12.24	-38.3	-39.3	21.8	0.00e+00	77	27	0	227540992	48	6690
2026-01-15 16:27:54.97	14.92	12.58	-37.5	-38.5	22.5	0.00e+00	0	27	0	234881024	48	6082
2026-01-15 16:27:59.01	14.54	12.93	-37.7	-38.7	22.3	0.00e+00	0	27	0	243269632	48	6243
2026-01-15 16:28:03.05	14.15	13.28	-37.7	-38.7	22.4	0.00e+00	9	27	0	250609664	48	6191
2026-01-15 16:28:07.09	13.75	13.63	-38.0	-39.0	22.1	0.00e+00	26	28	0	257949696	48	6425
2026-01-15 16:28:11.13	13.34	13.98	-37.7	-38.7	22.3	0.00e+00	0	27	0	265289728	48	6243
2026-01-15 16:28:15.17	12.93	14.34	-38.2	-39.2	22.0	0.00e+00	0	27	0	273678336	48	6591
2026-01-15 16:28:19.20	12.50	14.70	-38.4	-39.5	21.8	0.00e+00	50	28	0	281018368	48	6782
2026-01-15 16:28:23.24	12.06	15.07	-38.1	-39.2	22.1	0.00e+00	25	28	0	288358400	48	6553
2026-01-15 16:28:27.28	11.61	15.44	-37.7	-38.7	22.5	0.00e+00	0	28	0	295698432	48	6221
2026-01-15 16:28:31.32	11.14	15.81	-37.3	-38.3	22.8	0.00e+00	0	27	0	303038464	48	5911
2026-01-15 16:28:35.35	10.67	16.19	-37.2	-38.2	22.9	0.00e+00	92	27	0	311427072	48	5845
2026-01-15 16:28:39.39	10.18	16.57	-36.9	-37.8	23.2	0.00e+00	0	27	0	318767104	48	5615
2026-01-15 16:28:43.43	9.68	16.95	-37.5	-38.5	22.5	0.00e+00	0	27	0	326107136	48	6071
2026-01-15 16:28:47.47	9.17	17.34	-37.9	-38.9	22.4	0.00e+00	0	27	0	333447168	48	6370
2026-01-15 16:28:51.51	8.64	17.73	-37.6	-38.6	22.6	0.00e+00	92	28	0	341835776	48	6110
2026-01-15 16:28:55.55	8.10	18.13	-37.3	-38.3	22.8	0.00e+00	0	28	0	349175808	48	5919
2026-01-15 16:28:59.59	7.54	18.53	-37.7	-38.7	22.6	0.00e+00	0	27	0	356515840	48	6177
2026-01-15 16:29:03.60	6.97	18.93	-38.3	-39.4	21.9	0.00e+00	0	28	0	363855872	48	6708
2026-01-15 16:29:07.64	6.38	19.33	-38.1	-39.2	22.2	0.00e+00	30	27	0	371195904	48	6585
2026-01-15 16:29:11.68	5.78	19.74	-38.4	-39.6	21.5	0.00e+00	0	27	0	379584512	48	6876
2026-01-15 16:29:15.72	5.16	20.16	-38.1	-39.1	22.3	0.00e+00	0	27	0	386924544	48	6536
2026-01-15 16:29:19.76	4.52	20.57	-38.6	-39.7	22.0	0.00e+00	49	27	0	394264576	48	6943
2026-01-15 16:29:23.80	3.86	20.99	-38.1	-39.1	22.3	0.00e+00	0	27	0	401604608	48	6519
2026-01-15 16:29:27.83	3.19	21.42	-38.0	-39.1	22.4	0.00e+00	0	28	0	408944640	48	6496
2026-01-15 16:29:31.87	2.50	21.84	-37.6	-38.6	22.6	0.00e+00	0	27	0	417333248	48	6156
2026-01-15 16:29:35.91	1.78	22.27	-37.5	-38.5	22.8	0.00e+00	88	27	0	424673280	48	6098
2026-01-15 16:29:39.95	1.05	22.70	-37.4	-38.5	22.8	0.00e+00	0	27	0	432013312	48	6051
2026-01-15 16:29:43.99	0.29	23.13	-37.9	-38.9	22.4	0.00e+00	0	27	0	439353344	48	6364
2026-01-15 16:29:48.02	359.52	23.56	-38.6	-39.8	21.6	0.00e+00	23	28	0	447741952	50	6265
2026-01-15 16:29:52.06	358.72	24.00	-39.2	-40.4	21.2	0.00e+00	92	27	0	455081984	50	6697
2026-01-15 16:29:56.10	357.90	24.43	-39.0	-40.2	21.5	0.00e+00	0	27	0	462422016	50	6546
2026-01-15 16:30:00.14	357.05	24.87	-38.5	-39.7	21.8	0.00e+00	0	27	0	469762048	50	6180
2026-01-15 16:30:04.17	356.19	25.31	-39.0	-40.1	21.5	0.00e+00	50	27	0	477102080	50	6532
2026-01-15 16:30:08.21	355.29	25.74	-38.2	-39.3	22.2	0.00e+00	0	28	0	485490688	50	5914
2026-01-15 16:30:12.26	354.37	26.18	-38.6	-39.9	21.7	0.00e+00	0	27	0	492830720	50	6351
2026-01-15 16:30:16.29	353.43	26.61	-38.5	-39.7	21.9	0.00e+00	0	28	0	500170752	50	6211
2026-01-15 16:30:20.33	352.46	27.05	-38.5	-39.5	22.1	0.00e+00	67	28	0	507510784	50	6084
2026-01-15 16:30:24.37	351.46	27.48	-38.4	-39.6	22.0	0.00e+00	0	28	0	515899392	48	6876
2026-01-15 16:30:28.40	350.44	27.90	-38.7	-40.1	21.5	0.00e+00	0	28	0	523239424	50	6483
2026-01-15 16:30:32.44	349.38	28.33	-38.3	-39.4	22.2	0.00e+00	0	28	0	530579456	50	5971
2026-01-15 16:30:36.48	348.30	28.74	-37.3	-38.3	22.9	0.00e+00	92	28	0	537919488	48	5916
2026-01-15 16:30:40.51	347.19	29.15	-39.0	-40.2	21.6	0.00e+00	0	28	0	545259520	50	6548
2026-01-15 16:30:44.55	346.05	29.56	-38.7	-39.8	21.8	0.00e+00	0	28	0	553648128	50	6286
2026-01-15 16:30:48.59	344.88	29.96	-41.0	-42.5	19.3	0.00e+00	10	27	0	560988160	54	6845
2026-01-15 16:30:52.63	343.69	30.35	-39.2	-40.3	21.4	0.00e+00	5	27	0	568328192	52	5964
2026-01-15 16:30:56.66	342.46	30.73	-41.0	-42.5	19.5	0.00e+00	0	28	0	575668224	54	6846
2026-01-15 16:31:00.69	341.21	31.10	-40.5	-41.9	19.8	0.00e+00	0	28	0	583008256	54	6359
2026-01-15 16:31:04.73	339.92	31.46	-42.6	-44.8	17.4	0.00e+00	50	28	0	591396864	58	7076
2026-01-15 16:31:08.77	338.61	31.80	-41.0	-42.5	19.6	0.00e+00	0	28	0	598736896	56	6048
2026-01-15 16:31:12.81	337.27	32.14	-40.9	-42.3	19.9	0.00e+00	0	28	0	606076928	54	6616
2026-01-15 16:31:16.85	335.90	32.46	-40.0	-41.3	20.7	0.00e+00	0	28	0	613416960	52	6632
2026-01-15 16:31:20.89	334.50	32.76	-40.9	-42.4	19.6	0.00e+00	91	28	0	621805568	54	6740
2026-01-15 16:31:24.92	333.08	33.05	-40.5	-41.9	20.4	0.00e+00	0	27	0	629145600	54	6349
2026-01-15 16:31:28.96	331.63	33.31	-40.9	-42.5	19.5	0.00e+00	0	28	0	636485632	54	6790
2026-01-15 16:31:33.00	330.16	33.56	-38.8	-39.9	21.8	0.00e+00	0	28	0	643825664	52	5691
2026-01-15 16:31:37.04	328.67	33.79	-36.5	-37.3	23.9	0.00e+00	92	28	0	651165696	46	5957
2026-01-15 16:31:41.07	327.16	34.00	-37.1	-37.9	23.2	0.00e+00	0	28	0	659554304	46	6388
2026-01-15 16:31:45.11	325.63	34.19	-38.5	-39.6	22.2	0.00e+00	0	28	0	666894336	48	6919
2026-01-15 16:31:49.15	324.08	34.35	-37.6	-38.5	22.9	0.00e+00	53	28	0	674234368	48	6075
2026-01-15 16:31:53.19	322.52	34.49	-36.1	-36.9	24.2	0.00e+00	0	28	0	681574400	46	5687
2026-01-15 16:31:57.23	320.94	34.61	-38.4	-39.4	22.2	0.00e+00	0	28	0	689963008	48	6745
2026-01-15 16:32:01.27	319.36	34.70	-36.7	-37.5	23.7	0.00e+00	0	28	0	697303040	46	6096
2026-01-15 16:32:05.30	317.77	34.77	-38.8	-39.9	22.0	0.00e+00	59	28	0	704643072	50	6357
2026-01-15 16:32:09.34	316.17	34.81	-37.3	-38.2	23.1	0.00e+00	0	28	0	711983104	48	5847
2026-01-15 16:32:13.38	314.57	34.83	-38.7	-39.7	21.9	0.00e+00	0	28	0	719323136	50	6243
2026-01-15 16:32:17.41	312.97	34.82	-38.7	-39.8	22.0	0.00e+00	0	28	0	727711744	50	6272
2026-01-15 16:32:21.45	311.37	34.79	-39.2	-40.3	21.4	0.00e+00	92	28	0	735051776	50	6658
2026-01-15 16:32:25.49	309.77	34.73	-39.8	-41.0	20.9	0.00e+00	0	28	0	742391808	52	6456
2026-01-15 16:32:29.53	308.18	34.65	-38.1	-39.1	22.6	0.00e+00	0	28	0	749731840	50	5763
2026-01-15 16:32:33.57	306.60	34.54	-39.9	-41.1	20.8	0.00e+00	51	28	0	758120448	52	6496
2026-01-15 16:32:37.61	305.03	34.40	-39.0	-40.1	21.8	0.00e+00	0	28	0	765460480	52	5805
2026-01-15 16:32:41.65	303.48	34.25	-38.8	-39.9	21.7	0.00e+00	0	28	0	772800512	50	6336
2026-01-15 16:32:45.69	301.94	34.07	-39.8	-41.0	21.1	0.00e+00	0	27	0	780140544	52	6424
2026-01-15 16:32:49.72	300.42	33.87	-38.1	-39.1	22.5	0.00e+00	27	28	0	787480576	50	5765
2026-01-15 16:32:53.76	298.92	33.64	-39.3	-40.5	21.2	0.00e+00	0	28	0	795869184	50	6773
2026-01-15 16:32:57.79	297.44	33.40	-38.1	-39.1	22.4	0.00e+00	0	28	0	803209216	50	5796
2026-01-15 16:33:01.83	295.99	33.14	-37.2	-38.1	23.1	0.00e+00	0	28	0	810549248	48	5800
2026-01-15 16:33:05.87	294.55	32.86	-40.3	-41.6	20.3	0.00e+00	75	28	0	817889280	52	6905
2026-01-15 16:33:09.91	293.15	32.56	-38.0	-39.0	22.5	0.00e+00	0	28	0	826277888	50	5702
2026-01-15 16:33:13.95	291.76	32.25	-38.8	-39.8	22.0	0.00e+00	0	27	0	833617920	50	6285
2026-01-15 16:33:17.99	290.41	31.92	-40.8	-42.3	19.5	0.00e+00	0	28	0	840957952	54	6655
2026-01-15 16:33:22.03	289.08	31.57	-40.1	-41.4	20.4	0.00e+00	90	28	0	848297984	54	6032
2026-01-15 16:33:26.06	287.79	31.22	-39.3	-40.5	21.4	0.00e+00	0	28	0	855638016	52	6038
2026-01-15 16:33:30.10	286.52	30.85	-38.0	-38.9	22.5	0.00e+00	0	27	0	864026624	50	5683
2026-01-15 16:33:34.14	285.28	30.47	-37.7	-38.7	22.7	0.00e+00	34	28	0	871366656	48	6197
2026-01-15 16:33:38.17	284.07	30.09	-40.8	-42.2	19.4	0.00e+00	0	28	0	878706688	54	6586
2026-01-15 16:33:42.21	282.89	29.69	-38.6	-39.6	22.0	0.00e+00	0	28	0	886046720	50	6141
2026-01-15 16:33:46.25	281.74	29.28	-41.5	-43.2	19.4	0.00e+00	0	28	0	894435328	54	7362
2026-01-15 16:33:50.29	280.62	28.87	-39.5	-40.7	21.0	0.00e+00	47	28	0	901775360	52	6211
2026-01-15 16:33:54.33	279.52	28.46	-39.1	-40.2	21.5	0.00e+00	0	28	0	909115392	52	5896
2026-01-15 16:33:58.37	278.46	28.03	-39.5	-40.7	21.1	0.00e+00	0	27	0	916455424	52	6198
2026-01-15 16:34:02.41	277.42	27.61	-37.2	-38.2	23.0	0.00e+00	0	27	0	923795456	48	5831
2026-01-15 16:34:06.44	276.41	27.18	-38.4	-39.5	22.0	0.00e+00	90	28	0	932184064	48	6796
2026-01-15 16:34:10.48	275.43	26.74	-37.7	-38.7	22.7	0.00e+00	0	28	0	939524096	48	6197
2026-01-15 16:34:14.52	274.47	26.31	-37.5	-38.4	22.8	0.00e+00	0	28	0	946864128	48	6022
2026-01-15 16:34:18.56	273.54	25.87	-37.5	-38.4	23.0	0.00e+00	19	28	0	954204160	48	6021
2026-01-15 16:34:22.60	272.64	25.43	-35.8	-36.7	24.2	0.00e+00	7	28	0	962592768	46	5504
2026-01-15 16:34:26.63	271.76	25.00	-36.7	-37.6	23.7	0.00e+00	0	28	0	969932800	44	6921
2026-01-15 16:34:30.67	270.90	24.56	-36.8	-37.7	23.5	0.00e+00	0	28	0	977272832	46	6192
2026-01-15 16:34:34.71	270.07	24.12	-35.9	-36.7	24.1	0.00e+00	80	28	0	984612864	46	5559
2026-01-15 16:34:38.75	269.26	23.69	-36.2	-37.0	23.9	0.00e+00	0	28	0	991952896	46	5755
2026-01-15 16:34:42.78	268.48	23.25	-36.2	-37.1	23.9	0.00e+00	0	28	0	1000341504	46	5788
2026-01-15 16:34:46.82	267.71	22.82	-35.7	-36.5	24.3	0.00e+00	0	28	0	1007681536	44	6063
2026-01-15 16:34:50.86	266.97	22.39	-36.6	-37.5	23.5	0.00e+00	75	28	0	1015021568	44	6775
2026-01-15 16:34:54.89	266.25	21.96	-36.6	-37.4	23.2	0.00e+00	0	28	0	1022361600	44	6762
2026-01-15 16:34:58.92	265.55	21.53	-37.3	-38.2	22.3	0.00e+00	0	28	0	1029701632	46	6605
2026-01-15 16:35:02.96	264.86	21.11	-37.1	-38.0	23.1	0.00e+00	9	28	0	1038090240	46	6458
2026-01-15 16:35:07.00	264.20	20.68	-38.1	-39.2	22.3	7.00e-07	92	28	0	1045430272	48	6555
2026-01-15 16:35:11.04	263.55	20.27	-38.3	-39.3	22.1	0.00e+00	0	28	0	1052770304	48	6667
2026-01-15 16:35:15.07	262.92	19.85	-37.4	-38.3	23.0	0.00e+00	0	28	0	1060110336	48	5923
2026-01-15 16:35:19.11	262.31	19.44	-37.8	-38.7	22.5	0.00e+00	44	28	0	1068498944	48	6231
2026-01-15 16:35:23.15	261.71	19.03	-37.4	-38.3	22.9	0.00e+00	0	28	0	1075838976	48	5954
2026-01-15 16:35:27.19	261.13	18.62	-36.7	-37.6	23.4	0.00e+00	0	28	0	1083179008	46	6135
2026-01-15 16:35:31.23	260.57	18.22	-36.9	-37.8	23.4	0.00e+00	0	28	0	1090519040	46	6250
2026-01-15 16:35:35.26	260.02	17.82	-36.9	-37.7	23.3	0.00e+00	92	28	0	1097859072	46	6238
2026-01-15 16:35:39.30	259.49	17.43	-36.5	-37.4	23.6	0.00e+00	0	28	0	1106247680	46	5992
2026-01-15 16:35:43.34	258.96	17.04	-36.5	-37.3	23.6	0.00e+00	0	28	0	1113587712	46	5957
2026-01-15 16:35:47.38	258.46	16.65	-37.4	-38.3	22.8	0.00e+00	0	28	0	1120927744	46	6687
2026-01-15 16:35:51.42	257.96	16.27	-39.2	-40.4	21.0	0.00e+00	92	28	0	1128267776	50	6735
2026-01-15 16:35:55.45	257.48	15.89	-37.7	-38.7	22.5	0.00e+00	0	28	0	1136656384	50	5524
2026-01-15 16:35:59.49	257.01	15.52	-36.9	-37.7	22.4	0.00e+00	0	28	0	1143996416	48	5561
2026-01-15 16:36:03.51	256.56	15.15	-37.4	-38.3	22.7	0.00e+00	40	28	0	1151336448	46	6687
2026-01-15 16:36:07.55	256.11	14.78	-39.0	-40.1	21.4	0.00e+00	0	28	0	1158676480	50	6522
2026-01-15 16:36:11.59	255.68	14.41	-38.7	-39.8	21.5	0.00e+00	0	28	0	1166016512	50	6274
2026-01-15 16:36:15.63	255.25	14.05	-38.5	-39.6	21.6	0.00e+00	0	28	0	1174405120	50	6140
2026-01-15 16:36:19.67	254.84	13.70	-38.6	-39.7	21.6	0.00e+00	92	28	0	1181745152	50	6244
2026-01-15 16:36:23.71	254.43	13.34	-38.7	-39.8	21.6	0.00e+00	0	28	0	1189085184	50	6247
2026-01-15 16:36:27.74	254.04	12.99	-38.9	-40.0	21.2	0.00e+00	0	28	0	1196425216	50	6462
2026-01-15 16:36:31.78	253.65	12.65	-39.1	-40.3	21.1	0.00e+00	0	28	0	1204813824	50	6635
2026-01-15 16:36:35.82	253.28	12.31	-38.3	-39.3	21.8	0.00e+00	89	28	0	1212153856	50	5963
2026-01-15 16:36:39.86	252.91	11.97	-37.7	-38.6	22.4	0.00e+00	0	28	0	1219493888	48	6163
2026-01-15 16:36:43.90	252.55	11.63	-37.9	-38.9	22.2	0.00e+00	0	28	0	1226833920	48	6335
2026-01-15 16:36:47.94	252.20	11.30	-39.1	-40.3	21.0	0.00e+00	25	28	0	1234173952	50	6652
2026-01-15 16:36:51.97	251.86	10.97	-40.3	-41.8	19.7	0.00e+00	86	28	0	1242562560	52	7052
2026-01-15 16:36:56.01	251.53	10.65	-40.7	-42.3	19.2	0.00e+00	0	28	0	1249902592	54	6662
2026-01-15 16:37:00.04	251.20	10.33	-40.5	-42.0	19.5	0.00e+00	0	28	0	1257242624	54	6407
2026-01-15 16:37:04.09	250.88	10.01	-39.9	-41.3	20.1	0.00e+00	80	28	0	1264582656	54	5917
2026-01-15 16:37:08.12	250.57	9.69	-39.8	-41.1	20.3	0.00e+00	0	28	0	1271922688	52	6509
2026-01-15 16:37:12.16	250.26	9.38	-39.1	-40.4	20.9	0.00e+00	30	28	0	1280311296	52	5969
2026-01-15 16:37:16.20	249.97	9.07	-39.0	-40.2	21.0	0.00e+00	0	28	0	1287651328	52	5829
2026-01-15 16:37:20.24	249.67	8.77	-39.1	-40.3	20.8	0.00e+00	91	28	0	1294991360	52	5961
2026-01-15 16:37:24.28	249.39	8.46	-39.3	-40.5	20.6	0.00e+00	0	28	0	1302331392	52	6103
2026-01-15 16:37:28.31	249.11	8.16	-40.0	-41.3	19.9	0.00e+00	0	28	0	1310720000	52	6671
2026-01-15 16:37:32.35	248.83	7.87	-40.8	-42.3	18.8	0.00e+00	0	28	0	1318060032	54	6682
2026-01-15 16:37:36.39	248.57	7.57	-40.7	-42.3	18.7	0.00e+00	87	28	0	1325400064	54	6632
2026-01-15 16:37:40.42	248.30	7.28	-40.9	-42.5	18.7	0.00e+00	0	28	0	1332740096	54	6792
2026-01-15 16:37:44.47	248.05	6.99	-40.9	-42.5	18.6	0.00e+00	0	28	0	1340080128	54	6805
2026-01-15 16:37:48.51	247.79	6.70	-40.9	-42.5	18.5	0.00e+00	0	28	0	1348468736	54	6835
2026-01-15 16:37:52.55	247.55	6.42	-41.4	-43.2	17.9	0.00e+00	0	28	0	1355808768	54	7347
2026-01-15 16:37:56.58	247.31	6.14	-41.8	-43.8	17.3	0.00e+00	0	28	0	1363148800	56	7031
2026-01-15 16:38:00.62	247.07	5.86	-42.0	-44.1	17.0	0.00e+00	0	28	0	1370488832	56	7271
2026-01-15 16:38:04.66	246.84	5.59	-41.9	-43.9	17.0	0.00e+00	90	28	0	1378877440	56	7131
2026-01-15 16:38:08.69	246.61	5.31	-41.5	-43.3	17.5	0.00e+00	0	28	0	1386217472	56	6687
2026-01-15 16:38:12.73	246.38	5.04	-41.8	-43.8	17.0	0.00e+00	0	28	0	1393557504	56	7070
2026-01-15 16:38:16.77	246.17	4.77	-41.5	-43.5	17.2	0.00e+00	0	28	0	1400897536	56	6781
2026-01-15 16:38:20.81	245.95	4.51	-41.9	-44.1	16.6	0.00e+00	88	28	0	1408237568	56	7283
2026-01-15 16:38:24.85	245.74	4.24	-42.1	-44.3	16.3	0.00e+00	0	28	0	1416626176	56	7479
2026-01-15 16:38:28.89	245.53	3.98	-42.6	-45.1	15.5	0.00e+00	0	28	0	1423966208	56	8201
2026-01-15 16:38:32.92	245.33	3.72	-42.9	-45.7	14.7	7.00e-07	0	28	0	1431306240	58	7839
2026-01-15 16:38:36.96	245.13	3.46	-43.2	-46.4	13.8	2.20e-06	67	28	0	1438646272	58	8508
2026-01-15 16:38:41.00	244.93	3.21	-43.5	-47.0	13.1	2.05e-05	0	28	0	1447034880	60	8080
2026-01-15 16:38:45.04	244.74	2.95	-47.2	-62.3	3.6	1.24e+00	0	28	104	1453326336	60	47168
2026-01-15 16:38:49.07	244.55	2.70	-48.1	-63.3	3.6	1.51e+00	0	28	104	1453326336	60	53018
2026-01-15 16:38:53.11	244.37	2.45	-48.1	-63.3	3.6	1.51e+00	0	28	104	1453326336	60	53135
2026-01-15 16:38:57.15	244.19	2.20	-48.2	-63.5	3.6	1.51e+00	0	28	104	1453326336	60	53897
2026-01-15 16:39:01.19	244.01	1.96	-48.0	-63.2	3.6	1.51e+00	0	28	104	1453326336	60	52431
2026-01-15 16:39:05.22	243.83	1.71	-48.2	-63.4	3.6	1.51e+00	0	28	104	1453326336	60	53497
2026-01-15 16:39:09.26	243.66	1.47	-48.1	-63.4	3.6	1.51e+00	0	28	104	1453326336	60	53218
2026-01-15 16:39:13.30	243.49	1.23	-48.1	-63.3	3.6	1.51e+00	0	28	104	1453326336	60	53025
2026-01-15 16:39:17.34	243.32	0.99	-48.1	-63.3	3.6	1.51e+00	0	28	104	1453326336	60	52726
2026-01-15 16:39:21.38	243.16	0.75	-48.1	-63.3	3.6	1.51e+00	0	28	104	1453326336	60	52690
2026-01-15 16:39:25.41	243.00	0.52	-48.1	-63.3	3.6	1.51e+00	0	28	104	1453326336	60	53010
2026-01-15 16:39:29.45	242.84	0.28	-48.1	-63.2	3.6	1.51e+00	0	28	104	1453326336	60	52459
2026-01-15 16:39:33.49	242.69	0.05	-48.1	-63.3	3.6	1.51e+00	0	28	104	1453326336	60	52697

#Closed at: 2026-01-15 16:39:34
#Recorded file [1453 MB]: D:/lorett/data/35029_260116_042453.dat