passes_logs/2026/01/15/R4.6S_Anadyr/R4.6S_Anadyr__20260115_184454_AQUA_rec.log

#Pass ID: 20260115_184454_AQUA
#Satellite: AQUA
#Configuration: AQUA
#almurnet v.1.7.20251203
#Start time: 2026-01-15 18:44:58

#Version: 2.2.20231116
#Station: R4.6S_Anadyr
#Location: 177.4865 lon 64.73178 lat
#TLE: 1 27424U 02022A   26014.61231444  .00000653  00000+0  14070-3 0  9991
#TLE: 2 27424  98.4080 341.0332 0002042  78.9336 335.9961 14.61820174260839

#Time	Az	El	Level	Level2	SNR	BER	BlckErr	Temp	State	Recorded	gain1	gain2
2026-01-15 18:44:58.09	25.91	0.19	-48.4	-64.8	3.3	3.02e+01	0	25	0	0	60	67075
2026-01-15 18:45:01.12	25.71	0.35	-48.6	-66.4	3.5	3.02e+01	0	26	104	0	60	80835
2026-01-15 18:45:04.15	25.51	0.52	-48.2	-66.3	3.5	3.02e+01	0	26	104	0	60	79241
2026-01-15 18:45:07.18	25.31	0.69	-47.6	-65.8	3.5	3.02e+01	0	26	104	0	60	75168
2026-01-15 18:45:10.21	25.10	0.86	-47.2	-65.1	3.5	3.02e+01	0	26	104	0	60	69014
2026-01-15 18:45:13.24	24.89	1.03	-46.8	-64.7	3.5	3.02e+01	0	26	104	0	60	65781
2026-01-15 18:45:16.27	24.68	1.20	-46.7	-64.7	3.5	3.02e+01	0	26	104	0	60	65791
2026-01-15 18:45:19.30	24.46	1.37	-46.7	-64.7	3.5	3.02e+01	0	26	104	0	60	65970
2026-01-15 18:45:22.33	24.24	1.54	-46.7	-64.6	3.5	3.02e+01	0	26	104	0	60	65554
2026-01-15 18:45:25.36	24.02	1.71	-46.7	-64.6	3.5	3.02e+01	0	26	104	0	60	65113
2026-01-15 18:45:28.38	23.80	1.89	-46.7	-64.6	3.5	3.02e+01	0	26	104	0	60	65564
2026-01-15 18:45:31.41	23.57	2.06	-46.7	-64.6	3.5	3.02e+01	0	26	104	0	60	65602
2026-01-15 18:45:34.45	23.34	2.24	-46.7	-64.4	3.5	3.02e+01	0	26	104	0	60	63612
2026-01-15 18:45:37.48	23.11	2.41	-46.7	-64.5	3.5	3.02e+01	0	26	104	0	60	64747
2026-01-15 18:45:40.50	22.87	2.59	-46.7	-64.6	3.5	3.02e+01	0	26	104	0	60	65181
2026-01-15 18:45:43.53	22.63	2.76	-46.6	-64.4	3.5	3.02e+01	0	26	104	0	60	64134
2026-01-15 18:45:46.56	22.39	2.94	-46.5	-63.8	3.5	3.02e+01	0	26	104	0	60	59889
2026-01-15 18:45:49.59	22.14	3.12	-46.0	-61.3	3.5	3.02e+01	0	26	104	0	60	44739
2026-01-15 18:45:52.62	21.89	3.30	-43.4	-55.6	3.5	3.02e+01	0	26	104	0	60	23075
2026-01-15 18:45:55.65	21.64	3.48	-44.1	-56.6	3.4	3.02e+01	0	26	104	0	54	36834
2026-01-15 18:45:58.68	21.38	3.66	-40.2	-51.2	3.5	3.02e+01	0	26	104	0	56	17526
2026-01-15 18:46:01.70	21.12	3.84	-39.1	-49.8	3.5	3.02e+01	0	26	104	0	54	16861
2026-01-15 18:46:04.74	20.85	4.03	-44.3	-56.8	3.5	3.02e+01	0	26	104	0	60	26690
2026-01-15 18:46:07.76	20.59	4.21	-41.6	-52.8	3.5	3.02e+01	0	26	104	0	60	16773
2026-01-15 18:46:10.79	20.31	4.40	-38.6	-49.2	3.5	3.02e+01	0	26	104	0	52	17626
2026-01-15 18:46:13.82	20.04	4.58	-46.9	-64.5	3.5	3.02e+01	0	26	104	0	60	64941
2026-01-15 18:46:16.85	19.76	4.77	-38.6	-49.2	3.5	3.02e+01	0	26	104	0	52	17528
2026-01-15 18:46:19.88	19.47	4.95	-37.9	-48.4	3.5	3.02e+01	0	26	104	0	50	18098
2026-01-15 18:46:22.90	19.18	5.14	-46.4	-61.7	3.5	3.02e+01	0	26	104	0	60	46552
2026-01-15 18:46:25.94	18.89	5.33	-43.0	-54.6	3.5	3.02e+01	0	27	104	0	60	20763
2026-01-15 18:46:28.97	18.59	5.52	-39.1	-49.8	3.5	3.02e+01	0	26	104	0	54	16767
2026-01-15 18:46:32.00	18.29	5.71	-47.0	-64.6	3.5	3.02e+01	0	26	104	0	60	65507
2026-01-15 18:46:35.03	17.99	5.90	-37.8	-48.3	3.5	3.02e+01	0	26	104	0	50	17779
2026-01-15 18:46:38.05	17.68	6.09	-36.4	-46.8	3.5	3.02e+01	0	26	104	0	48	16832
2026-01-15 18:46:41.08	17.36	6.29	-47.0	-64.6	3.5	3.02e+01	0	26	104	0	60	65276
2026-01-15 18:46:44.11	17.04	6.48	-37.3	-47.8	3.5	3.02e+01	0	27	104	0	50	16817
2026-01-15 18:46:47.14	16.71	6.68	-36.0	-46.4	3.6	3.02e+01	0	26	104	0	46	17995
2026-01-15 18:46:50.18	16.38	6.87	-47.1	-64.5	3.5	3.02e+01	0	26	104	0	60	64413
2026-01-15 18:46:53.20	16.05	7.07	-40.4	-51.3	3.5	3.02e+01	0	26	104	0	56	17824
2026-01-15 18:46:56.23	15.71	7.26	-39.7	-50.4	3.5	3.02e+01	0	27	104	0	54	18039
2026-01-15 18:46:59.27	15.36	7.46	-46.0	-60.2	3.5	3.02e+01	0	27	104	0	60	39183
2026-01-15 18:47:02.29	15.01	7.66	-41.2	-52.2	3.5	3.02e+01	0	26	104	0	56	19821
2026-01-15 18:47:05.33	14.66	7.86	-39.6	-50.3	3.5	3.02e+01	0	26	104	0	52	20056
2026-01-15 18:47:08.36	14.29	8.06	-47.2	-64.6	3.5	3.02e+01	0	27	104	0	60	65174
2026-01-15 18:47:11.39	13.93	8.26	-36.7	-47.0	3.5	3.02e+01	0	27	104	0	48	17230
2026-01-15 18:47:14.42	13.55	8.46	-35.8	-46.1	3.6	3.02e+01	0	27	104	0	46	17375
2026-01-15 18:47:17.44	13.18	8.66	-47.1	-64.2	3.5	3.02e+01	0	27	104	0	60	62667
2026-01-15 18:47:20.48	12.79	8.87	-40.0	-50.7	3.5	3.02e+01	0	27	104	0	54	18736
2026-01-15 18:47:23.50	12.40	9.07	-37.9	-48.4	3.5	3.02e+01	0	26	104	0	52	16103
2026-01-15 18:47:26.53	12.01	9.27	-42.9	-54.5	3.5	3.02e+01	0	27	104	0	60	20342
2026-01-15 18:47:29.57	11.60	9.48	-40.2	-50.9	3.6	3.02e+01	0	27	104	0	56	17003
2026-01-15 18:47:32.59	11.19	9.68	-43.6	-55.4	3.5	3.02e+01	0	27	104	0	56	28442
2026-01-15 18:47:35.62	10.78	9.89	-45.8	-59.2	3.5	3.02e+01	0	27	104	0	60	35043
2026-01-15 18:47:38.65	10.36	10.09	-35.6	-45.9	3.6	3.02e+01	0	27	104	0	46	17068
2026-01-15 18:47:41.68	9.93	10.30	-35.7	-46.0	3.5	3.02e+01	0	27	104	0	46	17144
2026-01-15 18:47:44.71	9.49	10.51	-40.8	-51.7	3.5	3.02e+01	0	27	104	0	58	16661
2026-01-15 18:47:47.75	9.05	10.72	-40.4	-51.2	3.5	3.02e+01	0	27	104	0	56	17493
2026-01-15 18:47:50.78	8.60	10.92	-44.8	-57.3	3.5	3.02e+01	0	27	104	0	60	28112
2026-01-15 18:47:53.81	8.14	11.13	-47.1	-62.7	3.5	3.02e+01	0	27	104	0	60	52720
2026-01-15 18:47:56.84	7.68	11.34	-37.8	-48.3	3.5	3.02e+01	0	27	104	0	50	17717
2026-01-15 18:47:59.87	7.21	11.55	-36.5	-46.8	3.5	3.02e+01	0	27	104	0	46	18926
2026-01-15 18:48:02.89	6.73	11.76	-37.5	-48.0	3.5	3.02e+01	0	27	104	0	50	17122
2026-01-15 18:48:05.92	6.24	11.96	-35.3	-45.6	3.5	3.02e+01	0	27	104	0	46	16450
2026-01-15 18:48:08.95	5.75	12.17	-46.5	-60.9	3.5	3.02e+01	0	27	104	0	60	42516
2026-01-15 18:48:11.98	5.25	12.38	-46.8	-61.7	3.5	3.02e+01	0	27	104	0	60	46610
2026-01-15 18:48:15.01	4.74	12.59	-38.4	-48.9	3.5	3.02e+01	0	27	104	0	52	16926
2026-01-15 18:48:18.04	4.22	12.80	-35.1	-45.4	3.5	3.02e+01	0	27	104	0	46	15988
2026-01-15 18:48:21.07	3.70	13.01	-39.8	-50.4	3.5	3.02e+01	0	27	104	0	54	18030
2026-01-15 18:48:24.10	3.16	13.21	-38.1	-48.6	3.5	3.02e+01	0	27	104	0	52	16506
2026-01-15 18:48:27.12	2.62	13.42	-47.7	-65.1	3.5	3.02e+01	0	27	104	0	60	69125
2026-01-15 18:48:30.16	2.07	13.63	-43.9	-55.8	3.5	3.02e+01	0	27	104	0	60	23830
2026-01-15 18:48:33.19	1.51	13.83	-35.8	-46.1	3.5	3.02e+01	0	27	104	0	46	17442
2026-01-15 18:48:36.21	0.95	14.04	-36.6	-46.9	3.5	3.02e+01	0	27	104	0	46	19167
2026-01-15 18:48:39.24	0.37	14.24	-38.2	-48.6	3.6	3.02e+01	0	27	104	0	54	14692
2026-01-15 18:48:42.27	359.79	14.45	-39.2	-49.8	3.5	3.02e+01	0	27	104	0	52	18814
2026-01-15 18:48:45.30	359.20	14.65	-44.2	-56.1	3.5	3.02e+01	0	27	104	0	60	24632
2026-01-15 18:48:48.33	358.59	14.85	-41.8	-52.8	3.5	3.02e+01	0	27	104	0	60	16831
2026-01-15 18:48:51.36	357.98	15.05	-37.0	-47.4	3.5	3.02e+01	0	27	104	0	50	15957
2026-01-15 18:48:54.39	357.36	15.25	-36.2	-46.5	3.5	3.02e+01	0	27	104	0	46	18162
2026-01-15 18:48:57.42	356.74	15.45	-36.2	-46.6	3.5	3.02e+01	0	27	104	0	48	16380
2026-01-15 18:49:00.45	356.10	15.65	-35.2	-45.4	3.5	3.02e+01	0	27	104	0	46	16071
2026-01-15 18:49:03.48	355.45	15.84	-44.5	-56.5	3.5	3.02e+01	0	27	104	0	60	25784
2026-01-15 18:49:06.51	354.80	16.03	-35.5	-45.9	3.5	3.02e+01	0	27	104	0	48	15100
2026-01-15 18:49:09.54	354.13	16.22	-36.6	-47.0	3.5	3.02e+01	0	27	104	0	48	17168
2026-01-15 18:49:12.57	353.46	16.41	-36.6	-46.9	3.5	3.02e+01	0	27	104	0	44	21395
2026-01-15 18:49:15.60	352.77	16.60	-41.3	-52.3	3.8	3.02e+01	0	27	104	0	46	35329
2026-01-15 18:49:18.63	352.08	16.78	-36.9	-47.2	3.5	3.02e+01	0	27	104	0	48	17585
2026-01-15 18:49:21.66	351.38	16.96	-40.7	-51.5	3.5	3.02e+01	0	27	104	0	52	22871
2026-01-15 18:49:24.69	350.67	17.14	-42.8	-54.1	3.4	3.02e+01	0	27	104	0	50	34731
2026-01-15 18:49:27.71	349.95	17.32	-36.0	-46.3	3.5	3.02e+01	0	27	104	0	46	17804
2026-01-15 18:49:30.75	349.22	17.49	-39.7	-50.3	3.4	3.02e+01	0	27	104	0	56	15885
2026-01-15 18:49:33.78	348.48	17.66	-39.8	-50.4	3.5	3.02e+01	0	27	104	0	48	25368
2026-01-15 18:49:36.81	347.74	17.82	-37.2	-47.6	3.5	3.02e+01	0	27	104	0	50	16325
2026-01-15 18:49:39.84	346.98	17.99	-40.9	-51.8	3.5	3.02e+01	0	27	104	0	52	23633
2026-01-15 18:49:42.86	346.22	18.14	-47.8	-64.7	3.5	3.02e+01	0	27	104	0	60	66455
2026-01-15 18:49:45.89	345.45	18.30	-38.4	-48.9	3.5	3.02e+01	0	27	104	0	52	16912
2026-01-15 18:49:48.93	344.67	18.45	-44.2	-56.1	3.5	3.02e+01	0	27	104	0	60	24601
2026-01-15 18:49:51.96	343.88	18.59	-48.1	-65.9	3.5	3.02e+01	0	27	104	0	60	76095
2026-01-15 18:49:54.99	343.08	18.73	-35.7	-45.9	3.5	3.02e+01	0	27	104	0	46	17055
2026-01-15 18:49:58.01	342.28	18.87	-40.0	-50.7	3.5	3.02e+01	0	27	104	0	54	18553
2026-01-15 18:50:01.04	341.47	19.00	-43.6	-55.4	3.5	3.02e+01	0	27	104	0	58	25301
2026-01-15 18:50:04.07	340.65	19.13	-37.5	-47.9	3.5	3.02e+01	0	27	104	0	50	16914
2026-01-15 18:50:07.10	339.83	19.25	-45.3	-58.1	3.5	3.02e+01	0	27	104	0	60	30834
2026-01-15 18:50:10.13	338.99	19.36	-47.7	-63.9	3.5	3.02e+01	0	27	104	0	60	60370
2026-01-15 18:50:13.17	338.15	19.47	-38.7	-49.3	3.5	3.02e+01	0	27	104	0	52	17696
2026-01-15 18:50:16.19	337.31	19.58	-42.9	-54.3	3.5	3.02e+01	0	27	104	0	60	19975
2026-01-15 18:50:19.22	336.46	19.68	-48.1	-65.9	3.5	3.02e+01	0	27	104	0	60	76117
2026-01-15 18:50:22.25	335.60	19.77	-36.2	-46.5	3.5	3.02e+01	0	27	104	0	48	16140
2026-01-15 18:50:25.28	334.73	19.86	-40.3	-50.9	3.6	3.02e+01	0	27	104	0	60	13555
2026-01-15 18:50:28.31	333.87	19.94	-48.1	-64.7	3.6	3.02e+01	0	27	104	0	60	65758
2026-01-15 18:50:31.33	333.00	20.01	-42.2	-44.5	21.6	3.02e+01	60	27	0	3670016	58	7258
2026-01-15 18:50:34.36	332.12	20.08	-36.9	-38.2	27.0	3.02e+01	59	27	0	9437184	50	5588
2026-01-15 18:50:37.39	331.24	20.14	-36.3	-37.6	27.6	3.02e+01	62	27	0	15204352	48	5825
2026-01-15 18:50:40.42	330.35	20.19	-35.2	-36.5	28.6	3.02e+01	59	27	0	20971520	46	5755
2026-01-15 18:50:43.45	329.47	20.24	-34.9	-36.2	28.9	3.02e+01	62	27	0	26738688	44	6218
2026-01-15 18:50:46.48	328.58	20.28	-34.9	-36.2	28.9	3.02e+01	50	27	0	32505856	44	6211
2026-01-15 18:50:49.51	327.68	20.31	-35.1	-36.3	28.7	3.02e+01	62	27	0	38273024	44	6341
2026-01-15 18:50:52.54	326.79	20.34	-35.1	-36.4	28.7	3.02e+01	63	27	0	43515904	44	6354
2026-01-15 18:50:55.57	325.89	20.36	-35.0	-36.3	28.7	3.02e+01	62	27	0	49283072	44	6285
2026-01-15 18:50:58.60	324.99	20.37	-35.2	-36.5	28.6	3.02e+01	63	27	0	55050240	44	6455
2026-01-15 18:51:01.63	324.10	20.38	-35.1	-36.4	28.6	3.02e+01	58	27	0	60817408	44	6359
2026-01-15 18:51:04.66	323.20	20.37	-35.2	-36.4	28.7	3.02e+01	57	27	0	66584576	44	6400
2026-01-15 18:51:07.68	322.30	20.37	-35.0	-36.3	28.7	3.02e+01	47	27	0	71827456	44	6304
2026-01-15 18:51:10.71	321.41	20.35	-35.2	-36.4	28.7	3.02e+01	45	27	0	77594624	44	6410
2026-01-15 18:51:13.75	320.51	20.33	-35.3	-36.6	28.5	3.02e+01	61	27	0	83361792	44	6535
2026-01-15 18:51:16.78	319.61	20.30	-35.2	-36.4	28.6	3.02e+01	59	27	0	89128960	44	6408
2026-01-15 18:51:19.80	318.73	20.26	-35.3	-36.5	28.6	3.02e+01	62	27	0	94896128	44	6496
2026-01-15 18:51:22.83	317.84	20.22	-35.1	-36.4	28.7	3.02e+01	61	27	0	100663296	44	6357
2026-01-15 18:51:25.86	316.95	20.17	-35.2	-36.5	28.6	3.02e+01	59	27	0	106430464	44	6437
2026-01-15 18:51:28.89	316.07	20.11	-35.3	-36.5	28.5	3.02e+01	45	27	0	111673344	44	6484
2026-01-15 18:51:31.92	315.19	20.04	-35.3	-36.6	28.5	3.02e+01	45	27	0	117440512	44	6545
2026-01-15 18:51:34.95	314.31	19.97	-35.3	-36.6	28.4	3.02e+01	63	27	0	123207680	44	6533
2026-01-15 18:51:37.98	313.44	19.90	-35.3	-36.6	28.4	3.02e+01	58	27	0	128974848	44	6510
2026-01-15 18:51:41.01	312.57	19.81	-35.3	-36.6	28.4	3.02e+01	59	27	0	134742016	44	6565
2026-01-15 18:51:44.04	311.71	19.72	-35.0	-36.3	28.7	3.02e+01	59	27	0	139984896	44	6301
2026-01-15 18:51:47.07	310.85	19.63	-35.1	-36.3	28.7	3.02e+01	58	27	0	145752064	44	6349
2026-01-15 18:51:50.10	310.00	19.53	-35.5	-36.8	27.9	3.02e+01	62	27	0	151519232	46	5933
2026-01-15 18:51:53.13	309.16	19.42	-36.4	-37.8	27.6	3.02e+01	52	27	0	157286400	46	6697
2026-01-15 18:51:56.16	308.32	19.30	-35.3	-36.6	28.2	3.02e+01	59	27	0	163053568	44	6519
2026-01-15 18:51:59.19	307.49	19.19	-37.1	-38.5	26.7	3.02e+01	60	27	0	168820736	48	6478
2026-01-15 18:52:02.22	306.67	19.06	-36.9	-38.3	26.8	3.02e+01	59	27	0	174587904	46	7101
2026-01-15 18:52:05.24	305.85	18.93	-36.8	-38.2	26.7	3.02e+01	58	27	0	179830784	50	5554
2026-01-15 18:52:08.27	305.04	18.80	-35.7	-37.1	28.0	3.02e+01	58	27	0	185597952	46	6153
2026-01-15 18:52:11.30	304.24	18.66	-34.9	-36.2	28.6	3.02e+01	60	27	0	191365120	44	6213
2026-01-15 18:52:14.33	303.45	18.52	-35.3	-36.6	28.5	3.02e+01	58	27	0	197132288	44	6513
2026-01-15 18:52:17.36	302.66	18.37	-34.2	-35.4	29.4	3.02e+01	47	27	0	202899456	44	5713
2026-01-15 18:52:20.39	301.88	18.22	-35.1	-36.3	28.7	3.02e+01	59	27	0	208142336	44	6343
2026-01-15 18:52:23.42	301.12	18.06	-35.2	-36.4	28.4	3.02e+01	59	27	0	213909504	44	6419
2026-01-15 18:52:26.45	300.35	17.90	-35.3	-36.5	28.5	3.02e+01	57	27	0	219676672	44	6494
2026-01-15 18:52:29.48	299.60	17.74	-35.4	-36.7	28.4	3.02e+01	59	27	0	225443840	44	6614
2026-01-15 18:52:32.51	298.86	17.57	-34.9	-36.1	28.8	3.02e+01	57	27	0	231211008	44	6195
2026-01-15 18:52:35.54	298.12	17.40	-35.4	-36.7	28.3	3.02e+01	48	27	0	236978176	44	6582
2026-01-15 18:52:38.57	297.40	17.22	-34.8	-36.0	28.8	3.02e+01	47	27	0	242745344	44	6112
2026-01-15 18:52:41.60	296.68	17.05	-34.7	-35.9	28.8	3.02e+01	59	27	0	247988224	44	6007
2026-01-15 18:52:44.63	295.97	16.87	-35.7	-37.0	27.8	3.02e+01	60	27	0	253755392	44	6854
2026-01-15 18:52:47.66	295.28	16.68	-34.7	-35.9	28.8	3.02e+01	60	27	0	259522560	44	6034
2026-01-15 18:52:50.69	294.59	16.50	-34.9	-36.1	28.8	3.02e+01	57	27	0	265289728	44	6146
2026-01-15 18:52:53.72	293.91	16.31	-35.0	-36.3	28.6	3.02e+01	57	27	0	271056896	44	6333
2026-01-15 18:52:56.75	293.23	16.12	-35.1	-36.4	28.4	3.02e+01	58	27	0	276299776	44	6356
2026-01-15 18:52:59.78	292.57	15.93	-35.2	-36.5	28.3	3.02e+01	54	27	0	282066944	44	6470
2026-01-15 18:53:02.81	291.92	15.74	-34.9	-36.1	28.8	3.02e+01	52	27	0	287834112	44	6196
2026-01-15 18:53:05.83	291.28	15.54	-34.8	-36.1	28.8	3.02e+01	59	27	0	293601280	44	6151
2026-01-15 18:53:08.87	290.64	15.34	-35.0	-36.2	28.7	3.02e+01	62	27	0	299368448	44	6276
2026-01-15 18:53:11.89	290.02	15.14	-35.0	-36.3	28.7	3.02e+01	59	27	0	305135616	44	6285
2026-01-15 18:53:14.92	289.40	14.94	-34.9	-36.2	28.7	3.02e+01	59	27	0	310902784	44	6223
2026-01-15 18:53:17.95	288.79	14.74	-34.9	-36.2	28.7	3.02e+01	58	27	0	316145664	44	6215
2026-01-15 18:53:20.98	288.19	14.54	-34.9	-36.1	28.8	3.02e+01	56	27	0	321912832	44	6157
2026-01-15 18:53:24.01	287.60	14.33	-35.0	-36.3	28.6	3.02e+01	44	27	0	327680000	44	6278
2026-01-15 18:53:27.04	287.02	14.13	-35.1	-36.3	28.5	3.02e+01	60	27	0	333447168	44	6344
2026-01-15 18:53:30.07	286.45	13.92	-34.9	-36.2	28.7	3.02e+01	60	27	0	339214336	44	6212
2026-01-15 18:53:33.09	285.88	13.72	-35.0	-36.3	28.5	3.02e+01	60	27	0	344457216	44	6290
2026-01-15 18:53:36.12	285.33	13.51	-35.2	-36.4	28.4	3.02e+01	62	27	0	350224384	44	6410
2026-01-15 18:53:39.15	284.78	13.30	-34.9	-36.1	28.7	3.02e+01	57	27	0	355991552	44	6178
2026-01-15 18:53:42.18	284.24	13.10	-35.2	-36.5	28.3	3.02e+01	49	27	0	361758720	44	6437
2026-01-15 18:53:45.21	283.71	12.89	-35.4	-36.7	28.2	3.02e+01	47	27	0	367525888	44	6589
2026-01-15 18:53:48.24	283.19	12.68	-35.5	-36.8	28.0	3.02e+01	57	27	0	373293056	44	6693
2026-01-15 18:53:51.27	282.67	12.47	-35.1	-36.4	28.5	3.02e+01	60	27	0	379060224	44	6360
2026-01-15 18:53:54.30	282.16	12.26	-35.2	-36.5	28.3	3.02e+01	58	27	0	384303104	44	6454
2026-01-15 18:53:57.33	281.66	12.05	-35.4	-36.7	28.1	3.02e+01	61	27	0	390070272	44	6585
2026-01-15 18:54:00.36	281.17	11.84	-35.5	-36.8	27.9	3.02e+01	59	27	0	395837440	44	6667
2026-01-15 18:54:03.38	280.69	11.63	-35.2	-36.5	28.3	3.02e+01	58	27	0	401604608	44	6444
2026-01-15 18:54:06.41	280.21	11.42	-35.7	-37.0	27.8	3.02e+01	46	26	0	407371776	44	6850
2026-01-15 18:54:09.44	279.74	11.21	-35.3	-36.5	28.3	3.02e+01	47	27	0	412614656	44	6479
2026-01-15 18:54:12.47	279.28	11.01	-35.7	-37.0	27.7	3.02e+01	60	27	0	418381824	44	6874
2026-01-15 18:54:15.50	278.83	10.80	-35.8	-37.1	27.6	3.02e+01	52	27	0	424148992	44	6936
2026-01-15 18:54:18.53	278.38	10.59	-35.4	-36.7	28.1	3.02e+01	57	27	0	429916160	44	6614
2026-01-15 18:54:21.56	277.94	10.38	-35.7	-37.0	27.7	3.02e+01	59	27	0	435683328	44	6853
2026-01-15 18:54:24.59	277.50	10.17	-35.6	-36.9	27.8	3.02e+01	59	27	0	441450496	44	6781
2026-01-15 18:54:27.62	277.07	9.97	-35.8	-37.1	27.6	3.02e+01	51	27	0	447217664	44	6937
2026-01-15 18:54:30.65	276.65	9.76	-35.9	-37.2	27.5	3.02e+01	52	27	0	452460544	46	6269
2026-01-15 18:54:33.68	276.24	9.56	-35.8	-37.1	27.7	3.02e+01	58	27	0	458227712	46	6162
2026-01-15 18:54:36.71	275.83	9.35	-35.9	-37.2	27.6	3.02e+01	57	27	0	463994880	46	6241
2026-01-15 18:54:39.74	275.43	9.15	-36.1	-37.4	27.4	3.02e+01	57	27	0	469762048	46	6385
2026-01-15 18:54:42.77	275.03	8.94	-36.0	-37.3	27.4	3.02e+01	59	27	0	475529216	46	6349
2026-01-15 18:54:45.81	274.64	8.74	-36.0	-37.4	27.3	3.02e+01	57	27	0	480772096	46	6376
2026-01-15 18:54:48.84	274.26	8.53	-36.0	-37.3	27.3	3.02e+01	45	27	0	486539264	46	6347
2026-01-15 18:54:51.87	273.88	8.33	-36.0	-37.4	27.2	3.02e+01	47	27	0	492306432	46	6358
2026-01-15 18:54:54.90	273.51	8.13	-36.1	-37.4	27.2	3.02e+01	54	27	0	498073600	46	6381
2026-01-15 18:54:57.92	273.14	7.93	-36.4	-37.7	26.9	3.02e+01	60	27	0	503840768	46	6635
2026-01-15 18:55:00.95	272.78	7.73	-36.4	-37.8	26.8	3.02e+01	58	27	0	509607936	46	6664
2026-01-15 18:55:03.98	272.43	7.53	-36.4	-37.8	26.8	3.02e+01	57	26	0	515375104	46	6701
2026-01-15 18:55:07.01	272.08	7.33	-36.2	-37.6	27.1	3.02e+01	61	26	0	520617984	46	6511
2026-01-15 18:55:10.04	271.73	7.13	-36.2	-37.6	27.0	3.02e+01	60	27	0	526385152	46	6499
2026-01-15 18:55:13.06	271.40	6.94	-36.6	-38.0	26.6	3.02e+01	57	27	0	532152320	46	6805
2026-01-15 18:55:16.09	271.06	6.74	-36.7	-38.2	26.4	3.02e+01	46	27	0	537919488	46	6970
2026-01-15 18:55:19.12	270.73	6.55	-36.5	-37.9	26.7	3.02e+01	59	26	0	543686656	46	6738
2026-01-15 18:55:22.15	270.41	6.35	-36.5	-37.9	26.6	3.02e+01	58	27	0	548929536	46	6798
2026-01-15 18:55:25.17	270.09	6.16	-36.6	-38.0	26.5	3.02e+01	60	27	0	554696704	46	6826
2026-01-15 18:55:28.20	269.77	5.97	-36.6	-38.0	26.4	3.02e+01	57	26	0	560463872	46	6814
2026-01-15 18:55:31.23	269.46	5.77	-36.9	-38.3	26.0	3.02e+01	61	27	0	566231040	46	7105
2026-01-15 18:55:34.25	269.16	5.58	-37.1	-38.5	25.9	3.02e+01	48	27	0	571998208	48	6485
2026-01-15 18:55:37.29	268.85	5.39	-37.3	-38.8	25.6	3.02e+01	45	27	0	577765376	48	6673
2026-01-15 18:55:40.31	268.56	5.20	-37.0	-38.5	25.9	3.02e+01	61	27	0	583532544	48	6446
2026-01-15 18:55:43.34	268.27	5.01	-37.3	-38.8	25.7	3.02e+01	58	27	0	588775424	48	6670
2026-01-15 18:55:46.37	267.98	4.83	-37.4	-38.9	25.5	3.02e+01	58	27	0	594542592	48	6754
2026-01-15 18:55:49.40	267.69	4.64	-37.4	-38.9	25.5	3.02e+01	61	27	0	600309760	48	6773
2026-01-15 18:55:52.43	267.41	4.45	-37.2	-38.6	25.6	3.02e+01	59	27	0	606076928	48	6569
2026-01-15 18:55:55.46	267.14	4.27	-37.2	-38.7	25.6	3.02e+01	59	27	0	611844096	48	6619
2026-01-15 18:55:58.49	266.86	4.08	-37.6	-39.1	25.2	3.02e+01	50	27	0	617086976	48	6953
2026-01-15 18:56:01.51	266.59	3.90	-37.5	-39.1	25.1	3.02e+01	61	27	0	622854144	48	6890
2026-01-15 18:56:04.54	266.33	3.72	-37.7	-39.2	25.1	3.02e+01	57	27	0	628621312	50	6266
2026-01-15 18:56:07.57	266.07	3.54	-37.7	-39.3	24.8	3.02e+01	59	27	0	634388480	50	6313
2026-01-15 18:56:10.60	265.81	3.35	-37.9	-39.5	24.5	3.02e+01	59	27	0	640155648	50	6493
2026-01-15 18:56:13.63	265.56	3.17	-38.1	-39.8	24.2	3.02e+01	54	27	0	645922816	50	6688
2026-01-15 18:56:16.66	265.31	2.99	-47.0	-64.7	3.5	3.02e+01	0	27	104	651165696	60	66391
2026-01-15 18:56:19.69	265.06	2.82	-48.2	-66.1	3.5	3.02e+01	0	27	104	651165696	60	77272
2026-01-15 18:56:22.71	264.82	2.64	-48.4	-66.3	3.5	3.02e+01	0	27	104	651165696	60	79255
2026-01-15 18:56:25.74	264.58	2.46	-48.3	-66.3	3.5	3.02e+01	0	27	104	651165696	60	79352
2026-01-15 18:56:28.77	264.34	2.28	-48.3	-66.3	3.5	3.02e+01	0	27	104	651165696	60	79199
2026-01-15 18:56:31.80	264.10	2.11	-48.3	-66.4	3.5	3.02e+01	0	27	104	651165696	60	80474
2026-01-15 18:56:34.83	263.87	1.93	-48.2	-66.2	3.5	3.02e+01	0	27	104	651165696	60	78359
2026-01-15 18:56:37.86	263.65	1.76	-48.4	-66.3	3.5	3.02e+01	0	27	104	651165696	60	79755
2026-01-15 18:56:40.88	263.42	1.59	-48.3	-66.2	3.5	3.02e+01	0	27	104	651165696	60	78831
2026-01-15 18:56:43.91	263.20	1.41	-48.3	-66.2	3.5	3.02e+01	0	27	104	651165696	60	78821
2026-01-15 18:56:46.94	262.98	1.24	-48.3	-66.2	3.5	3.02e+01	0	27	104	651165696	60	78574
2026-01-15 18:56:49.97	262.77	1.07	-48.3	-66.2	3.5	3.02e+01	0	27	104	651165696	60	78852
2026-01-15 18:56:53.00	262.55	0.90	-48.2	-66.1	3.5	3.02e+01	0	27	104	651165696	60	78070
2026-01-15 18:56:56.03	262.34	0.73	-48.3	-66.2	3.5	3.02e+01	0	27	104	651165696	60	78876
2026-01-15 18:56:59.06	262.13	0.56	-48.3	-66.2	3.5	3.02e+01	0	27	104	651165696	60	78669
2026-01-15 18:57:02.09	261.93	0.39	-48.3	-66.2	3.5	3.02e+01	0	27	104	651165696	60	79018
2026-01-15 18:57:05.12	261.73	0.23	-48.3	-66.2	3.5	3.02e+01	0	27	104	651165696	60	78698
2026-01-15 18:57:08.15	261.53	0.06	-48.3	-66.2	3.5	3.02e+01	0	27	104	651165696	60	78791

#Closed at: 2026-01-15 18:57:09
#Recorded file [651 MB]: D:/lorett/data/35029_260116_064458.dat