passes_logs/2026/01/15/R4.6S_Anadyr/R4.6S_Anadyr__20260115_212140_SUOMI_NPP_rec.log

#Pass ID: 20260115_212140_SUOMI NPP
#Satellite: SUOMI NPP
#Configuration: NPP
#almurnet v.1.7.20251203
#Start time: 2026-01-15 21:21:41

#Version: 2.2.20231116
#Station: R4.6S_Anadyr
#Location: 177.4865 lon 64.73178 lat
#TLE: 1 37849U 11061A   26014.61059675  .00000037  00000+0  38639-4 0  9994
#TLE: 2 37849  98.7810 316.6625 0002460  64.3781 295.7649 14.19525105736658

#Time	Az	El	Level	Level2	SNR	BER	BlckErr	Temp	State	Recorded	gain1	gain2
2026-01-15 21:21:41.46	87.24	0.04	-48.0	-60.5	3.4	1.52e+00	0	26	0	0	60	37217
2026-01-15 21:21:45.49	86.99	0.26	-48.0	-63.2	3.6	1.51e+00	0	27	104	0	60	52314
2026-01-15 21:21:49.53	86.73	0.47	-48.0	-63.2	3.6	1.51e+00	0	27	104	0	60	52300
2026-01-15 21:21:53.56	86.47	0.68	-48.0	-63.2	3.6	1.51e+00	0	27	104	0	60	52247
2026-01-15 21:21:57.59	86.20	0.90	-45.2	-62.3	3.6	1.51e+00	0	27	104	0	60	47142
2026-01-15 21:22:01.63	85.93	1.11	-44.7	-61.5	3.6	1.51e+00	0	27	104	0	60	42741
2026-01-15 21:22:05.66	85.66	1.33	-44.6	-61.4	3.6	1.51e+00	0	27	104	0	60	42413
2026-01-15 21:22:09.70	85.38	1.55	-44.7	-61.4	3.6	1.51e+00	0	27	104	0	60	42307
2026-01-15 21:22:13.74	85.09	1.76	-44.6	-61.2	3.5	1.51e+00	0	28	104	0	60	41283
2026-01-15 21:22:17.77	84.80	1.98	-44.6	-60.8	3.6	1.51e+00	0	28	104	0	60	39729
2026-01-15 21:22:21.81	84.51	2.20	-44.6	-61.4	3.6	1.51e+00	0	28	104	0	60	42264
2026-01-15 21:22:25.86	84.21	2.43	-44.6	-61.4	3.6	1.51e+00	0	28	104	0	60	42358
2026-01-15 21:22:29.90	83.91	2.65	-44.6	-59.8	3.6	1.51e+00	0	28	104	0	60	35216
2026-01-15 21:22:33.94	83.60	2.87	-44.6	-60.4	3.6	1.51e+00	0	28	104	0	60	37755
2026-01-15 21:22:37.98	83.29	3.10	-44.1	-52.7	6.4	2.89e-01	0	28	0	3145728	60	15594
2026-01-15 21:22:42.02	82.97	3.32	-44.1	-59.2	3.6	9.07e-01	0	28	104	8388608	60	32991
2026-01-15 21:22:46.05	82.65	3.55	-40.9	-43.2	17.1	0.00e+00	0	28	0	9437184	54	7371
2026-01-15 21:22:50.09	82.33	3.78	-40.4	-42.2	17.9	0.00e+00	0	28	0	17825792	54	6590
2026-01-15 21:22:54.13	81.99	4.01	-40.6	-42.5	17.8	0.00e+00	0	28	0	25165824	54	6797
2026-01-15 21:22:58.17	81.66	4.24	-40.7	-42.6	17.8	0.00e+00	0	28	0	32505856	54	6909
2026-01-15 21:23:02.20	81.31	4.47	-40.3	-42.0	18.4	0.00e+00	0	28	0	39845888	54	6453
2026-01-15 21:23:06.24	80.96	4.70	-40.3	-42.1	18.4	0.00e+00	0	28	0	48234496	54	6482
2026-01-15 21:23:10.27	80.61	4.93	-39.9	-41.5	18.9	0.00e+00	0	28	0	55574528	54	6058
2026-01-15 21:23:14.31	80.25	5.16	-39.6	-41.1	19.4	0.00e+00	0	28	0	62914560	52	6483
2026-01-15 21:23:18.35	79.88	5.40	-40.0	-41.6	19.0	0.00e+00	0	28	0	70254592	52	6903
2026-01-15 21:23:22.39	79.51	5.64	-39.9	-41.5	19.3	0.00e+00	0	28	0	77594624	52	6776
2026-01-15 21:23:26.42	79.13	5.87	-40.1	-41.7	18.9	0.00e+00	0	28	0	85983232	52	6964
2026-01-15 21:23:30.46	78.75	6.11	-40.6	-42.3	18.5	0.00e+00	0	28	0	93323264	52	7492
2026-01-15 21:23:34.50	78.35	6.35	-40.4	-42.0	18.7	0.00e+00	0	28	0	100663296	54	6404
2026-01-15 21:23:38.54	77.95	6.59	-40.8	-42.4	18.4	0.00e+00	0	28	0	108003328	54	6759
2026-01-15 21:23:42.57	77.55	6.83	-39.9	-41.3	19.4	0.00e+00	0	28	0	116391936	54	5962
2026-01-15 21:23:46.61	77.14	7.07	-39.8	-41.2	19.6	0.00e+00	0	28	0	123731968	52	6571
2026-01-15 21:23:50.64	76.72	7.31	-39.9	-41.3	19.6	0.00e+00	0	28	0	131072000	52	6686
2026-01-15 21:23:54.69	76.29	7.55	-39.9	-41.4	19.5	0.00e+00	0	28	0	138412032	52	6716
2026-01-15 21:23:58.72	75.86	7.80	-40.0	-41.5	19.4	0.00e+00	0	28	0	145752064	52	6801
2026-01-15 21:24:02.76	75.42	8.04	-40.2	-41.8	19.2	0.00e+00	0	28	0	154140672	52	7034
2026-01-15 21:24:06.80	74.97	8.29	-40.0	-41.5	19.4	0.00e+00	0	28	0	161480704	52	6792
2026-01-15 21:24:10.84	74.51	8.53	-39.7	-41.1	19.8	0.00e+00	0	28	0	168820736	52	6503
2026-01-15 21:24:14.87	74.04	8.78	-39.4	-40.7	20.2	0.00e+00	0	28	0	176160768	52	6245
2026-01-15 21:24:18.91	73.57	9.03	-39.3	-40.7	20.2	0.00e+00	0	28	0	183500800	52	6194
2026-01-15 21:24:22.95	73.09	9.27	-39.1	-40.4	20.6	0.00e+00	0	28	0	191889408	52	6001
2026-01-15 21:24:26.99	72.60	9.52	-39.2	-40.6	20.4	0.00e+00	0	28	0	199229440	52	6127
2026-01-15 21:24:31.03	72.10	9.77	-39.1	-40.5	20.5	0.00e+00	0	28	0	206569472	52	6038
2026-01-15 21:24:35.07	71.59	10.02	-39.6	-41.0	20.0	0.00e+00	0	28	0	213909504	52	6412
2026-01-15 21:24:39.11	71.08	10.27	-39.5	-40.9	20.2	0.00e+00	0	28	0	222298112	52	6318
2026-01-15 21:24:43.14	70.55	10.52	-39.2	-40.5	20.5	0.00e+00	0	28	0	229638144	52	6047
2026-01-15 21:24:47.18	70.02	10.77	-38.8	-40.0	21.0	0.00e+00	0	28	0	236978176	50	6456
2026-01-15 21:24:51.22	69.47	11.02	-39.0	-40.3	20.7	0.00e+00	0	28	0	244318208	50	6621
2026-01-15 21:24:55.26	68.92	11.26	-38.9	-40.2	20.5	0.00e+00	0	28	0	251658240	50	6606
2026-01-15 21:24:59.30	68.36	11.51	-38.8	-40.1	20.9	0.00e+00	0	28	0	260046848	50	6473
2026-01-15 21:25:03.33	67.78	11.76	-38.9	-40.1	20.9	0.00e+00	0	28	0	267386880	50	6533
2026-01-15 21:25:07.37	67.20	12.01	-38.6	-39.7	21.2	0.00e+00	0	28	0	274726912	50	6232
2026-01-15 21:25:11.41	66.61	12.26	-38.7	-39.9	21.0	0.00e+00	0	28	0	282066944	50	6373
2026-01-15 21:25:15.45	66.00	12.51	-39.0	-40.2	20.9	0.00e+00	0	28	0	290455552	50	6600
2026-01-15 21:25:19.49	65.39	12.75	-39.3	-40.6	20.5	0.00e+00	0	28	0	297795584	50	6902
2026-01-15 21:25:23.52	64.77	13.00	-39.2	-40.4	20.7	0.00e+00	0	28	0	305135616	50	6765
2026-01-15 21:25:27.56	64.13	13.25	-38.9	-40.2	20.9	0.00e+00	0	28	0	312475648	50	6543
2026-01-15 21:25:31.60	63.49	13.49	-38.9	-40.1	21.0	0.00e+00	0	28	0	319815680	50	6525
2026-01-15 21:25:35.63	62.83	13.73	-38.5	-39.6	21.3	0.00e+00	0	28	0	328204288	50	6172
2026-01-15 21:25:39.67	62.17	13.97	-38.9	-40.1	21.0	0.00e+00	0	28	0	335544320	50	6481
2026-01-15 21:25:43.71	61.49	14.21	-38.7	-39.9	21.1	0.00e+00	0	28	0	342884352	50	6336
2026-01-15 21:25:47.75	60.80	14.45	-38.3	-39.5	21.6	0.00e+00	0	28	0	350224384	50	6037
2026-01-15 21:25:51.79	60.10	14.69	-37.9	-38.9	21.8	0.00e+00	0	28	0	358612992	50	5689
2026-01-15 21:25:55.83	59.38	14.92	-37.3	-38.3	22.6	0.00e+00	0	28	0	365953024	48	5934
2026-01-15 21:25:59.87	58.66	15.15	-37.1	-38.1	22.8	0.00e+00	0	28	0	373293056	48	5770
2026-01-15 21:26:03.91	57.93	15.38	-36.9	-37.9	22.9	0.00e+00	0	28	0	380633088	48	5631
2026-01-15 21:26:07.95	57.18	15.61	-36.9	-37.8	22.7	0.00e+00	0	28	0	387973120	46	6287
2026-01-15 21:26:11.99	56.42	15.83	-37.2	-38.2	22.6	0.00e+00	0	28	0	396361728	46	6601
2026-01-15 21:26:16.02	55.65	16.05	-37.1	-38.1	22.7	0.00e+00	0	28	0	403701760	46	6499
2026-01-15 21:26:20.06	54.87	16.27	-36.8	-37.8	23.0	0.00e+00	0	28	0	411041792	46	6296
2026-01-15 21:26:24.10	54.08	16.48	-36.2	-37.1	23.5	0.00e+00	0	28	0	418381824	46	5823
2026-01-15 21:26:28.13	53.28	16.69	-36.9	-37.9	22.9	0.00e+00	0	28	0	426770432	46	6383
2026-01-15 21:26:32.17	52.46	16.90	-36.9	-37.8	23.0	0.00e+00	0	28	0	434110464	46	6304
2026-01-15 21:26:36.21	51.64	17.10	-36.6	-37.5	23.0	0.00e+00	0	28	0	441450496	46	6057
2026-01-15 21:26:40.25	50.80	17.30	-35.8	-36.6	24.0	0.00e+00	0	28	0	448790528	46	5489
2026-01-15 21:26:44.29	49.95	17.49	-35.6	-36.4	24.0	0.00e+00	0	28	0	456130560	44	6024
2026-01-15 21:26:48.33	49.10	17.68	-35.8	-36.7	23.7	0.00e+00	0	28	0	464519168	44	6181
2026-01-15 21:26:52.37	48.23	17.86	-36.2	-37.1	23.6	0.00e+00	0	28	0	471859200	44	6476
2026-01-15 21:26:56.40	47.35	18.03	-36.7	-37.7	23.1	0.00e+00	0	28	0	479199232	46	6213
2026-01-15 21:27:00.44	46.46	18.20	-36.4	-37.3	23.6	0.00e+00	0	28	0	486539264	46	5914
2026-01-15 21:27:04.48	45.56	18.37	-35.5	-36.3	24.1	0.00e+00	0	28	0	494927872	44	5960
2026-01-15 21:27:08.52	44.65	18.52	-35.3	-36.1	24.4	0.00e+00	0	28	0	502267904	44	5768
2026-01-15 21:27:12.55	43.73	18.68	-35.8	-36.6	23.9	0.00e+00	0	28	0	509607936	44	6144
2026-01-15 21:27:16.59	42.81	18.82	-35.8	-36.7	23.8	0.00e+00	0	28	0	516947968	44	6219
2026-01-15 21:27:20.63	41.87	18.96	-36.3	-37.2	23.5	0.00e+00	0	28	0	524288000	44	6590
2026-01-15 21:27:24.67	40.92	19.09	-36.6	-37.5	23.3	0.00e+00	0	28	0	532676608	46	6072
2026-01-15 21:27:28.70	39.97	19.21	-37.0	-37.9	23.0	0.00e+00	0	28	0	540016640	46	6366
2026-01-15 21:27:32.74	39.01	19.32	-37.1	-38.1	22.9	0.00e+00	0	28	0	547356672	46	6492
2026-01-15 21:27:36.78	38.05	19.43	-36.7	-37.6	23.3	0.00e+00	0	28	0	554696704	46	6119
2026-01-15 21:27:40.81	37.08	19.53	-37.3	-38.3	22.5	0.00e+00	0	28	0	563085312	46	6646
2026-01-15 21:27:44.85	36.10	19.62	-37.2	-38.2	22.7	0.00e+00	0	28	0	570425344	48	5875
2026-01-15 21:27:48.89	35.11	19.70	-38.0	-39.1	22.0	0.00e+00	0	28	0	577765376	48	6479
2026-01-15 21:27:52.93	34.12	19.77	-38.3	-39.5	21.8	0.00e+00	0	27	0	585105408	48	6807
2026-01-15 21:27:56.97	33.13	19.84	-37.1	-38.0	22.9	0.00e+00	0	28	0	592445440	48	5735
2026-01-15 21:28:01.00	32.13	19.89	-37.3	-38.3	22.7	0.00e+00	0	28	0	600834048	48	5903
2026-01-15 21:28:05.04	31.13	19.94	-37.7	-38.7	22.3	0.00e+00	0	28	0	608174080	48	6234
2026-01-15 21:28:09.07	30.13	19.97	-37.2	-38.2	22.7	0.00e+00	0	28	0	615514112	48	5871
2026-01-15 21:28:13.11	29.12	20.00	-37.5	-38.5	22.6	0.00e+00	0	28	0	622854144	48	6100
2026-01-15 21:28:17.15	28.11	20.02	-37.2	-38.2	22.8	0.00e+00	0	28	0	630194176	48	5864
2026-01-15 21:28:21.18	27.11	20.03	-36.9	-37.9	22.9	0.00e+00	0	27	0	638582784	48	5634
2026-01-15 21:28:25.21	26.10	20.03	-37.1	-38.1	22.6	0.00e+00	0	28	0	645922816	48	5797
2026-01-15 21:28:29.25	25.09	20.02	-38.0	-39.1	22.0	0.00e+00	0	27	0	653262848	48	6498
2026-01-15 21:28:33.29	24.09	20.00	-37.7	-38.7	22.4	0.00e+00	0	28	0	660602880	48	6209
2026-01-15 21:28:37.33	23.08	19.97	-36.0	-36.9	22.8	0.00e+00	0	28	0	668991488	46	5639
2026-01-15 21:28:41.36	22.08	19.93	-35.8	-36.6	24.0	0.00e+00	0	28	0	676331520	44	6136
2026-01-15 21:28:45.40	21.08	19.89	-35.7	-36.6	24.0	0.00e+00	0	28	0	683671552	44	6104
2026-01-15 21:28:49.44	20.08	19.83	-35.8	-36.7	24.0	0.00e+00	0	27	0	691011584	44	6181
2026-01-15 21:28:53.48	19.09	19.77	-35.6	-36.5	24.1	0.00e+00	0	27	0	698351616	44	6072
2026-01-15 21:28:57.51	18.10	19.69	-35.6	-36.4	24.1	0.00e+00	0	27	0	706740224	44	5993
2026-01-15 21:29:01.55	17.12	19.61	-35.8	-36.6	23.9	0.00e+00	0	28	0	714080256	44	6161
2026-01-15 21:29:05.59	16.14	19.52	-36.1	-37.0	23.7	0.00e+00	0	28	0	721420288	44	6391
2026-01-15 21:29:09.63	15.17	19.42	-35.6	-36.4	24.1	0.00e+00	0	28	0	728760320	44	6027
2026-01-15 21:29:13.67	14.20	19.32	-36.6	-37.6	23.1	0.00e+00	0	28	0	737148928	44	6869
2026-01-15 21:29:17.70	13.25	19.20	-38.0	-39.1	22.0	0.00e+00	0	28	0	744488960	48	6534
2026-01-15 21:29:21.74	12.29	19.08	-37.8	-38.9	22.2	0.00e+00	0	27	0	751828992	48	6318
2026-01-15 21:29:25.78	11.35	18.95	-37.9	-39.1	22.0	0.00e+00	0	27	0	759169024	48	6469
2026-01-15 21:29:29.82	10.42	18.81	-38.1	-39.2	21.9	0.00e+00	0	27	0	766509056	48	6611
2026-01-15 21:29:33.85	9.49	18.67	-37.7	-38.8	22.3	0.00e+00	0	28	0	774897664	48	6254
2026-01-15 21:29:37.89	8.58	18.52	-36.9	-37.9	23.1	0.00e+00	0	27	0	782237696	48	5644
2026-01-15 21:29:41.93	7.67	18.36	-37.5	-38.5	22.6	0.00e+00	0	28	0	789577728	48	6088
2026-01-15 21:29:45.98	6.77	18.19	-37.1	-38.1	22.9	0.00e+00	0	28	0	796917760	48	5815
2026-01-15 21:29:50.01	5.88	18.02	-36.3	-37.2	23.5	0.00e+00	0	28	0	805306368	46	5871
2026-01-15 21:29:54.05	5.01	17.85	-35.9	-36.7	23.8	0.00e+00	0	28	0	812646400	46	5564
2026-01-15 21:29:58.09	4.14	17.67	-37.3	-38.3	22.7	0.00e+00	0	27	0	819986432	46	6670
2026-01-15 21:30:02.13	3.28	17.48	-38.4	-39.6	21.7	0.00e+00	0	28	0	827326464	48	6869
2026-01-15 21:30:06.17	2.44	17.29	-38.2	-39.3	21.8	0.00e+00	0	28	0	834666496	48	6685
2026-01-15 21:30:10.20	1.61	17.09	-38.6	-39.8	21.3	0.00e+00	0	28	0	843055104	50	6293
2026-01-15 21:30:14.24	0.78	16.89	-38.0	-39.1	22.1	0.00e+00	0	28	0	850395136	50	5787
2026-01-15 21:30:18.28	359.97	16.69	-36.6	-37.5	23.3	0.00e+00	0	28	0	857735168	46	6099
2026-01-15 21:30:22.31	359.17	16.48	-36.5	-37.4	23.4	0.00e+00	0	28	0	865075200	46	6010
2026-01-15 21:30:26.35	358.38	16.26	-37.5	-38.6	22.4	0.00e+00	0	28	0	873463808	48	6124
2026-01-15 21:30:30.39	357.60	16.05	-37.1	-38.0	22.9	0.00e+00	0	28	0	880803840	48	5754
2026-01-15 21:30:34.43	356.84	15.83	-37.1	-38.1	22.8	0.00e+00	0	28	0	888143872	46	6509
2026-01-15 21:30:38.47	356.08	15.60	-38.6	-39.8	21.4	0.00e+00	0	27	0	895483904	48	7018
2026-01-15 21:30:42.51	355.34	15.38	-38.7	-39.9	21.1	0.00e+00	0	27	0	902823936	50	6382
2026-01-15 21:30:46.55	354.61	15.15	-38.1	-39.2	21.9	0.00e+00	0	28	0	911212544	50	5891
2026-01-15 21:30:50.59	353.89	14.92	-38.0	-39.1	21.9	0.00e+00	0	27	0	918552576	50	5801
2026-01-15 21:30:54.62	353.18	14.68	-38.0	-39.1	21.9	0.00e+00	0	27	0	925892608	50	5806
2026-01-15 21:30:58.65	352.48	14.45	-39.0	-40.2	21.0	0.00e+00	0	28	0	933232640	50	6585
2026-01-15 21:31:02.66	351.80	14.21	-38.6	-39.7	21.5	0.00e+00	0	27	0	940572672	50	6211
2026-01-15 21:31:06.70	351.12	13.97	-37.4	-38.4	22.4	0.00e+00	0	27	0	948961280	48	6033
2026-01-15 21:31:10.74	350.46	13.73	-37.8	-38.9	22.0	0.00e+00	0	27	0	956301312	48	6387
2026-01-15 21:31:14.78	349.81	13.49	-38.0	-39.1	21.9	0.00e+00	0	27	0	963641344	48	6523
2026-01-15 21:31:18.82	349.16	13.24	-37.6	-38.7	22.3	0.00e+00	0	27	0	970981376	48	6203
2026-01-15 21:31:22.85	348.53	13.00	-37.3	-38.3	22.6	0.00e+00	0	27	0	979369984	48	5932
2026-01-15 21:31:26.89	347.91	12.75	-36.5	-37.4	23.2	0.00e+00	0	27	0	986710016	46	6025
2026-01-15 21:31:30.93	347.30	12.51	-35.9	-36.8	23.7	0.00e+00	0	27	0	994050048	46	5607
2026-01-15 21:31:34.97	346.70	12.26	-36.6	-37.5	23.1	0.00e+00	0	27	0	1001390080	46	6072
2026-01-15 21:31:39.00	346.11	12.01	-37.1	-38.1	22.7	0.00e+00	0	27	0	1008730112	46	6503
2026-01-15 21:31:43.04	345.53	11.77	-37.1	-38.1	22.7	0.00e+00	0	27	0	1017118720	46	6532
2026-01-15 21:31:47.08	344.96	11.52	-36.7	-37.7	23.0	0.00e+00	0	27	0	1024458752	46	6194
2026-01-15 21:31:51.12	344.40	11.27	-36.8	-37.7	22.9	0.00e+00	0	27	0	1031798784	46	6242
2026-01-15 21:31:55.16	343.85	11.02	-37.2	-38.2	22.6	0.00e+00	0	27	0	1039138816	46	6587
2026-01-15 21:31:59.19	343.31	10.77	-37.8	-38.9	21.9	0.00e+00	0	27	0	1047527424	48	6371
2026-01-15 21:32:03.23	342.78	10.52	-38.1	-39.2	21.8	0.00e+00	0	27	0	1054867456	48	6592
2026-01-15 21:32:07.27	342.25	10.27	-37.4	-38.4	22.3	0.00e+00	0	27	0	1062207488	48	6032
2026-01-15 21:32:11.30	341.74	10.03	-36.9	-37.9	22.7	0.00e+00	0	27	0	1069547520	46	6332
2026-01-15 21:32:15.34	341.24	9.78	-37.4	-38.6	21.7	0.00e+00	0	27	0	1076887552	46	6857
2026-01-15 21:32:19.38	340.74	9.53	-38.3	-39.6	21.2	0.00e+00	0	27	0	1085276160	48	6868
2026-01-15 21:32:23.42	340.25	9.28	-37.9	-39.1	21.7	0.00e+00	0	28	0	1092616192	48	6519
2026-01-15 21:32:27.46	339.77	9.03	-37.5	-38.7	21.9	0.00e+00	0	27	0	1099956224	48	6174
2026-01-15 21:32:31.50	339.30	8.79	-38.0	-39.3	21.7	0.00e+00	0	28	0	1107296256	48	6636
2026-01-15 21:32:35.54	338.84	8.54	-38.2	-39.4	21.4	0.00e+00	0	27	0	1115684864	48	6736
2026-01-15 21:32:39.57	338.38	8.30	-38.6	-40.0	20.8	0.00e+00	0	27	0	1123024896	50	6420
2026-01-15 21:32:43.61	337.94	8.05	-38.9	-40.3	20.5	0.00e+00	0	27	0	1130364928	50	6670
2026-01-15 21:32:47.65	337.50	7.81	-38.5	-39.8	20.9	0.00e+00	0	27	0	1137704960	50	6312
2026-01-15 21:32:51.69	337.07	7.57	-38.5	-39.8	20.9	0.00e+00	0	27	0	1145044992	50	6300
2026-01-15 21:32:55.73	336.64	7.32	-39.1	-40.4	20.3	0.00e+00	0	27	0	1153433600	50	6768
2026-01-15 21:32:59.77	336.22	7.08	-39.8	-41.3	19.5	0.00e+00	0	27	0	1160773632	52	6645
2026-01-15 21:33:03.80	335.82	6.84	-39.6	-41.1	19.7	0.00e+00	0	27	0	1168113664	52	6481
2026-01-15 21:33:07.84	335.41	6.60	-39.0	-40.3	20.2	0.00e+00	0	27	0	1175453696	52	5924
2026-01-15 21:33:11.88	335.02	6.36	-39.2	-40.6	19.8	0.00e+00	0	27	0	1183842304	52	6135
2026-01-15 21:33:15.92	334.63	6.12	-39.7	-41.4	18.9	0.00e+00	0	27	0	1191182336	52	6696
2026-01-15 21:33:19.96	334.24	5.89	-40.4	-42.3	17.7	0.00e+00	0	27	0	1198522368	52	7443
2026-01-15 21:33:24.00	333.87	5.65	-40.7	-42.9	16.7	0.00e+00	0	27	0	1205862400	54	7101
2026-01-15 21:33:28.05	333.49	5.41	-41.2	-43.6	15.9	0.00e+00	0	27	0	1213202432	54	7758
2026-01-15 21:33:32.08	333.13	5.18	-41.3	-44.0	15.2	0.00e+00	0	27	0	1221591040	54	8048
2026-01-15 21:33:36.12	332.77	4.95	-41.3	-43.8	15.6	0.00e+00	0	27	0	1228931072	54	7868
2026-01-15 21:33:40.16	332.42	4.72	-41.5	-44.0	15.7	0.00e+00	0	27	0	1236271104	54	8118
2026-01-15 21:33:44.20	332.07	4.48	-42.0	-44.6	15.3	0.00e+00	0	27	0	1243611136	56	7696
2026-01-15 21:33:48.24	331.73	4.25	-42.2	-44.9	15.3	0.00e+00	0	28	0	1251999744	56	7960
2026-01-15 21:33:52.28	331.40	4.02	-42.2	-44.9	15.2	0.00e+00	0	27	0	1259339776	56	8003
2026-01-15 21:33:56.32	331.07	3.80	-42.2	-44.9	15.2	0.00e+00	0	27	0	1266679808	56	7989
2026-01-15 21:34:00.36	330.74	3.57	-41.9	-44.4	15.5	0.00e+00	0	28	0	1274019840	56	7569
2026-01-15 21:34:04.39	330.42	3.34	-41.5	-44.0	15.8	0.00e+00	0	27	0	1281359872	56	7174
2026-01-15 21:34:08.44	330.11	3.12	-41.8	-44.7	14.5	7.00e-07	0	27	0	1289748480	56	7781
2026-01-15 21:34:12.48	329.80	2.89	-47.6	-62.7	3.6	1.51e+00	0	28	104	1292894208	60	49320
2026-01-15 21:34:16.51	329.50	2.67	-48.2	-63.4	3.6	1.51e+00	0	27	104	1292894208	60	53231
2026-01-15 21:34:20.55	329.20	2.45	-48.1	-63.4	3.6	1.51e+00	0	27	104	1292894208	60	53184
2026-01-15 21:34:24.59	328.90	2.23	-48.0	-63.2	3.6	1.51e+00	0	27	104	1292894208	60	52079
2026-01-15 21:34:28.63	328.61	2.00	-48.1	-63.3	3.6	1.51e+00	0	27	104	1292894208	60	52929
2026-01-15 21:34:32.66	328.33	1.79	-48.0	-63.2	3.6	1.51e+00	0	27	104	1292894208	60	52531
2026-01-15 21:34:36.70	328.04	1.57	-48.0	-63.2	3.6	1.51e+00	0	28	104	1292894208	60	52451
2026-01-15 21:34:40.74	327.77	1.35	-48.0	-63.3	3.6	1.51e+00	0	28	104	1292894208	60	52767
2026-01-15 21:34:44.78	327.49	1.13	-48.1	-63.3	3.6	1.51e+00	0	28	104	1292894208	60	52902
2026-01-15 21:34:48.82	327.23	0.92	-48.0	-63.3	3.6	1.51e+00	0	27	104	1292894208	60	52610
2026-01-15 21:34:52.86	326.96	0.70	-48.0	-63.2	3.6	1.51e+00	0	27	104	1292894208	60	52441
2026-01-15 21:34:56.90	326.70	0.49	-47.9	-63.2	3.6	1.51e+00	0	28	104	1292894208	60	52223
2026-01-15 21:35:00.94	326.44	0.28	-47.9	-63.2	3.6	1.51e+00	0	27	104	1292894208	60	51973
2026-01-15 21:35:04.97	326.19	0.07	-47.9	-63.2	3.6	1.51e+00	0	28	104	1292894208	60	52264

#Closed at: 2026-01-15 21:35:06
#Recorded file [1292 MB]: D:/lorett/data/35029_260116_092141.dat