passes_logs/2026/01/15/R4.6S_Anadyr/R4.6S_Anadyr__20260115_223048_NOAA_21_JPSS-2_rec.log

#Pass ID: 20260115_223048_NOAA 21 (JPSS-2)
#Satellite: NOAA 21 (JPSS-2)
#Configuration: NOAA-21
#almurnet v.1.7.20251203
#Start time: 2026-01-15 22:30:49

#Version: 2.2.20231116
#Station: R4.6S_Anadyr
#Location: 177.4865 lon 64.73178 lat
#TLE: 1 54234U 22150A   26014.58979933  .00000039  00000+0  39403-4 0  9998
#TLE: 2 54234  98.7497 315.4945 0000653 294.6373  65.4735 14.19534652164756

#Time	Az	El	Level	Level2	SNR	BER	BlckErr	Temp	State	Recorded	gain1	gain2
2026-01-15 22:30:49.21	114.96	0.06	-48.6	-66.4	3.5	7.72e-01	0	24	0	0	60	80120
2026-01-15 22:30:53.24	114.79	0.29	-48.5	-61.3	3.5	1.52e+00	0	26	104	0	60	40941
2026-01-15 22:30:57.28	114.63	0.53	-48.2	-61.1	3.5	1.52e+00	0	26	104	0	60	40061
2026-01-15 22:31:01.29	114.46	0.76	-47.9	-61.1	3.5	1.52e+00	0	26	104	0	60	39613
2026-01-15 22:31:05.33	114.28	0.99	-46.3	-60.2	3.5	1.51e+00	0	26	104	0	60	36054
2026-01-15 22:31:09.36	114.11	1.23	-44.5	-59.1	3.5	1.52e+00	0	26	104	0	60	31600
2026-01-15 22:31:13.40	113.93	1.47	-44.5	-59.1	3.5	1.51e+00	0	26	104	0	60	31680
2026-01-15 22:31:17.44	113.74	1.71	-44.5	-59.0	3.5	1.51e+00	0	26	104	0	60	31461
2026-01-15 22:31:21.48	113.56	1.95	-44.5	-59.0	3.5	1.51e+00	0	26	104	0	60	31230
2026-01-15 22:31:25.51	113.37	2.20	-44.5	-58.8	3.5	1.52e+00	0	26	104	0	60	30587
2026-01-15 22:31:29.55	113.18	2.44	-44.6	-59.0	3.5	1.52e+00	0	27	104	0	60	31196
2026-01-15 22:31:33.59	112.98	2.69	-44.5	-58.8	3.5	1.52e+00	0	27	104	0	60	30621
2026-01-15 22:31:37.63	112.78	2.94	-44.5	-58.4	3.5	1.52e+00	0	27	104	0	60	29152
2026-01-15 22:31:41.67	112.58	3.19	-44.0	-53.3	5.5	1.17e+00	123	27	104	0	60	16138
2026-01-15 22:31:45.70	112.37	3.45	-40.5	-43.2	15.1	0.00e+00	122	27	0	10485760	54	7128
2026-01-15 22:31:49.74	112.16	3.70	-42.3	-45.5	9.5	1.91e-04	123	27	0	18874368	52	10468
2026-01-15 22:31:53.77	111.95	3.96	-39.8	-41.8	16.2	0.00e+00	120	27	0	25165824	54	6115
2026-01-15 22:31:57.81	111.73	4.22	-38.3	-39.9	18.4	0.00e+00	122	27	0	37748736	50	6178
2026-01-15 22:32:01.85	111.51	4.48	-37.6	-38.9	19.4	0.00e+00	120	27	0	50331648	48	6200
2026-01-15 22:32:05.89	111.28	4.75	-37.4	-38.7	19.7	0.00e+00	122	27	0	62914560	48	6015
2026-01-15 22:32:09.92	111.05	5.01	-37.1	-38.3	20.1	0.00e+00	120	27	0	75497472	46	6494
2026-01-15 22:32:13.96	110.81	5.28	-36.8	-38.2	20.4	0.00e+00	123	27	0	88080384	46	6369
2026-01-15 22:32:18.00	110.57	5.55	-36.6	-37.9	20.6	0.00e+00	122	27	0	100663296	46	6171
2026-01-15 22:32:22.04	110.33	5.82	-36.4	-37.7	20.9	0.00e+00	123	27	0	113246208	46	6039
2026-01-15 22:32:26.08	110.08	6.10	-36.3	-37.5	21.1	0.00e+00	122	27	0	126877696	46	5921
2026-01-15 22:32:30.12	109.82	6.38	-36.3	-37.5	21.1	0.00e+00	123	27	0	138412032	46	5912
2026-01-15 22:32:34.15	109.56	6.66	-36.0	-37.2	21.4	0.00e+00	123	27	0	152043520	46	5667
2026-01-15 22:32:38.19	109.30	6.94	-36.1	-37.2	21.3	0.00e+00	122	27	0	164626432	46	5718
2026-01-15 22:32:42.23	109.03	7.22	-36.0	-37.1	21.6	0.00e+00	122	27	0	177209344	46	5646
2026-01-15 22:32:46.27	108.75	7.51	-35.7	-36.8	21.8	0.00e+00	123	27	0	189792256	44	6098
2026-01-15 22:32:50.30	108.47	7.80	-35.7	-36.8	22.0	0.00e+00	122	27	0	202375168	44	6066
2026-01-15 22:32:54.34	108.18	8.10	-35.3	-36.4	22.2	0.00e+00	123	27	0	214958080	44	5796
2026-01-15 22:32:58.38	107.88	8.39	-35.3	-36.4	22.2	0.00e+00	121	27	0	227540992	44	5798
2026-01-15 22:33:02.41	107.58	8.69	-35.0	-36.1	22.4	0.00e+00	122	27	0	240123904	44	5651
2026-01-15 22:33:06.45	107.28	8.99	-34.8	-35.9	22.6	0.00e+00	122	27	0	252706816	44	5485
2026-01-15 22:33:10.48	106.96	9.29	-35.0	-36.0	22.6	0.00e+00	123	27	0	265289728	44	5565
2026-01-15 22:33:14.52	106.64	9.60	-35.0	-36.1	22.6	0.00e+00	123	27	0	277872640	44	5597
2026-01-15 22:33:18.55	106.32	9.91	-34.9	-35.9	22.7	0.00e+00	123	27	0	290455552	42	6155
2026-01-15 22:33:22.59	105.98	10.22	-34.6	-35.6	23.0	0.00e+00	123	27	0	303038464	42	5970
2026-01-15 22:33:26.63	105.64	10.54	-34.6	-35.6	23.0	0.00e+00	122	27	0	315621376	42	5958
2026-01-15 22:33:30.67	105.29	10.86	-34.6	-35.6	23.1	0.00e+00	120	27	0	328204288	42	5941
2026-01-15 22:33:34.71	104.93	11.18	-34.2	-35.4	23.2	0.00e+00	120	27	0	340787200	42	5850
2026-01-15 22:33:38.74	104.56	11.51	-34.2	-35.3	23.3	0.00e+00	123	27	0	353370112	42	5773
2026-01-15 22:33:42.77	104.19	11.83	-34.1	-35.1	23.5	0.00e+00	120	27	0	365953024	42	5624
2026-01-15 22:33:46.81	103.81	12.16	-34.2	-35.1	23.5	0.00e+00	123	27	0	378535936	42	5639
2026-01-15 22:33:50.85	103.41	12.50	-34.1	-35.2	23.4	0.00e+00	122	27	0	391118848	42	5684
2026-01-15 22:33:54.89	103.01	12.84	-33.9	-35.0	23.6	0.00e+00	124	27	0	403701760	42	5538
2026-01-15 22:33:58.92	102.60	13.18	-34.0	-35.0	23.6	0.00e+00	123	27	0	416284672	42	5537
2026-01-15 22:34:02.95	102.18	13.52	-34.1	-35.1	23.4	0.00e+00	123	27	0	428867584	42	5622
2026-01-15 22:34:06.99	101.75	13.87	-34.0	-34.9	23.6	0.00e+00	123	27	0	441450496	42	5514
2026-01-15 22:34:11.03	101.31	14.22	-33.9	-34.8	23.7	0.00e+00	123	27	0	454033408	42	5448
2026-01-15 22:34:15.07	100.85	14.57	-33.9	-34.9	23.7	0.00e+00	123	27	0	466616320	42	5471
2026-01-15 22:34:19.10	100.39	14.93	-34.0	-34.9	23.7	0.00e+00	120	27	0	479199232	42	5527
2026-01-15 22:34:23.14	99.91	15.29	-34.2	-35.2	23.5	0.00e+00	123	27	0	491782144	42	5670
2026-01-15 22:34:27.18	99.43	15.66	-34.6	-35.6	23.3	0.00e+00	123	27	0	504365056	42	5938
2026-01-15 22:34:31.21	98.93	16.02	-34.3	-35.3	23.6	0.00e+00	123	27	0	516947968	42	5788
2026-01-15 22:34:35.25	98.41	16.39	-34.3	-35.3	23.6	0.00e+00	123	27	0	529530880	42	5732
2026-01-15 22:34:39.29	97.89	16.77	-34.4	-35.3	23.5	0.00e+00	122	27	0	542113792	42	5783
2026-01-15 22:34:43.33	97.35	17.15	-34.4	-35.3	23.5	0.00e+00	123	27	0	555745280	42	5790
2026-01-15 22:34:47.37	96.79	17.53	-34.2	-35.2	23.6	0.00e+00	123	27	0	568328192	42	5699
2026-01-15 22:34:51.41	96.23	17.91	-34.1	-35.1	23.7	0.00e+00	123	27	0	580911104	42	5651
2026-01-15 22:34:55.44	95.64	18.30	-34.2	-35.2	23.7	0.00e+00	123	27	0	593494016	42	5669
2026-01-15 22:34:59.48	95.05	18.69	-34.1	-35.0	23.8	0.00e+00	123	27	0	606076928	42	5583
2026-01-15 22:35:03.52	94.43	19.08	-33.5	-34.4	24.3	0.00e+00	122	27	0	618659840	40	5840
2026-01-15 22:35:07.55	93.80	19.47	-33.4	-34.3	24.2	0.00e+00	123	27	0	631242752	40	5784
2026-01-15 22:35:11.58	93.16	19.87	-33.2	-34.2	24.4	0.00e+00	120	27	0	643825664	40	5664
2026-01-15 22:35:15.63	92.49	20.27	-33.1	-33.9	24.6	0.00e+00	122	27	0	656408576	40	5529
2026-01-15 22:35:19.66	91.81	20.67	-33.0	-33.9	24.6	0.00e+00	120	27	0	668991488	40	5508
2026-01-15 22:35:23.70	91.11	21.08	-33.1	-34.0	24.4	0.00e+00	122	27	0	681574400	40	5572
2026-01-15 22:35:27.74	90.39	21.48	-33.1	-34.0	24.5	0.00e+00	123	27	0	694157312	40	5587
2026-01-15 22:35:31.78	89.65	21.89	-32.8	-33.7	24.7	0.00e+00	123	27	0	706740224	40	5374
2026-01-15 22:35:35.82	88.90	22.30	-33.1	-34.0	24.6	0.00e+00	123	27	0	719323136	40	5533
2026-01-15 22:35:39.86	88.12	22.71	-33.2	-34.1	24.6	0.00e+00	120	27	0	731906048	40	5597
2026-01-15 22:35:43.90	87.32	23.12	-32.9	-33.8	24.8	0.00e+00	122	27	0	744488960	40	5428
2026-01-15 22:35:47.94	86.50	23.53	-33.4	-34.3	24.4	0.00e+00	122	27	0	757071872	40	5766
2026-01-15 22:35:51.98	85.65	23.94	-33.2	-34.0	24.7	0.00e+00	120	27	0	769654784	40	5589
2026-01-15 22:35:56.02	84.79	24.35	-32.7	-33.6	24.8	0.00e+00	120	27	0	782237696	38	5944
2026-01-15 22:36:00.06	83.90	24.76	-33.2	-34.1	24.5	0.00e+00	122	27	0	794820608	38	6341
2026-01-15 22:36:04.08	82.99	25.17	-32.9	-33.8	24.9	0.00e+00	123	27	0	807403520	38	6081
2026-01-15 22:36:08.11	82.06	25.57	-33.3	-34.1	24.5	0.00e+00	122	27	0	819986432	38	6348
2026-01-15 22:36:12.14	81.10	25.97	-33.7	-34.6	24.2	0.00e+00	122	27	0	832569344	40	5938
2026-01-15 22:36:16.18	80.11	26.37	-33.7	-34.7	24.1	0.00e+00	123	27	0	845152256	40	6006
2026-01-15 22:36:20.22	79.10	26.77	-33.8	-34.8	24.1	0.00e+00	123	27	0	857735168	40	6073
2026-01-15 22:36:24.25	78.07	27.16	-33.7	-34.6	24.1	0.00e+00	123	27	0	870318080	40	5994
2026-01-15 22:36:28.29	77.00	27.55	-33.5	-34.5	24.4	0.00e+00	123	27	0	882900992	40	5863
2026-01-15 22:36:32.33	75.92	27.93	-33.6	-34.5	24.3	0.00e+00	123	27	0	895483904	40	5898
2026-01-15 22:36:36.37	74.80	28.30	-33.5	-34.4	24.3	0.00e+00	120	27	0	908066816	40	5851
2026-01-15 22:36:40.40	73.67	28.67	-33.5	-34.4	24.3	0.00e+00	122	27	0	921698304	40	5820
2026-01-15 22:36:44.44	72.50	29.03	-33.2	-34.1	24.6	0.00e+00	122	27	0	933232640	40	5631
2026-01-15 22:36:48.48	71.31	29.38	-33.8	-34.7	24.1	0.00e+00	122	27	0	946864128	40	6057
2026-01-15 22:36:52.52	70.09	29.72	-33.6	-34.5	24.2	0.00e+00	120	27	0	959447040	40	5912
2026-01-15 22:36:56.55	68.85	30.04	-33.8	-34.7	24.3	0.00e+00	122	27	0	972029952	40	6006
2026-01-15 22:37:00.58	67.58	30.36	-33.3	-34.2	24.6	0.00e+00	122	28	0	984612864	40	5680
2026-01-15 22:37:04.62	66.29	30.66	-33.9	-34.8	24.2	0.00e+00	120	27	0	997195776	40	6118
2026-01-15 22:37:08.65	64.97	30.95	-34.2	-35.1	24.0	0.00e+00	123	28	0	1009778688	40	6289
2026-01-15 22:37:12.69	63.63	31.23	-34.9	-35.9	23.4	0.00e+00	123	28	0	1022361600	42	6149
2026-01-15 22:37:16.72	62.27	31.49	-34.7	-35.6	23.6	0.00e+00	123	28	0	1034944512	42	5958
2026-01-15 22:37:20.76	60.89	31.73	-34.5	-35.5	23.8	0.00e+00	123	27	0	1047527424	42	5869
2026-01-15 22:37:24.79	59.49	31.96	-34.4	-35.4	23.8	0.00e+00	123	28	0	1060110336	42	5802
2026-01-15 22:37:28.83	58.06	32.16	-34.9	-35.9	23.4	0.00e+00	120	28	0	1072693248	42	6136
2026-01-15 22:37:32.87	56.62	32.35	-34.5	-35.5	23.7	0.00e+00	122	28	0	1085276160	42	5870
2026-01-15 22:37:36.90	55.17	32.52	-34.3	-35.2	23.9	0.00e+00	123	28	0	1097859072	42	5722
2026-01-15 22:37:40.93	53.70	32.67	-34.3	-35.2	24.0	0.00e+00	121	28	0	1110441984	42	5690
2026-01-15 22:37:44.97	52.22	32.80	-34.7	-35.6	23.6	0.00e+00	120	28	0	1123024896	42	5967
2026-01-15 22:37:49.00	50.72	32.90	-35.2	-36.1	23.2	0.00e+00	123	28	0	1135607808	42	6342
2026-01-15 22:37:53.04	49.22	32.99	-34.8	-35.8	23.3	0.00e+00	120	28	0	1148190720	42	6093
2026-01-15 22:37:57.08	47.71	33.05	-34.6	-35.5	23.7	0.00e+00	120	28	0	1160773632	42	5893
2026-01-15 22:38:01.12	46.20	33.09	-34.9	-35.9	23.4	0.00e+00	123	28	0	1173356544	42	6144
2026-01-15 22:38:05.15	44.68	33.11	-35.0	-35.9	23.3	0.00e+00	123	28	0	1185939456	42	6199
2026-01-15 22:38:09.19	43.17	33.10	-34.3	-35.3	23.9	0.00e+00	122	28	0	1198522368	42	5730
2026-01-15 22:38:13.23	41.65	33.07	-34.2	-35.1	24.1	0.00e+00	123	28	0	1211105280	42	5612
2026-01-15 22:38:17.26	40.14	33.02	-34.7	-35.6	23.4	0.00e+00	123	28	0	1223688192	42	5994
2026-01-15 22:38:21.30	38.63	32.95	-34.9	-35.9	23.4	0.00e+00	120	28	0	1236271104	42	6155
2026-01-15 22:38:25.34	37.14	32.85	-34.3	-35.3	23.7	0.00e+00	123	28	0	1248854016	42	5739
2026-01-15 22:38:29.38	35.65	32.73	-34.5	-35.5	23.6	0.00e+00	123	28	0	1261436928	42	5867
2026-01-15 22:38:33.42	34.17	32.59	-34.5	-35.4	23.7	0.00e+00	122	28	0	1274019840	42	5851
2026-01-15 22:38:37.45	32.71	32.43	-34.3	-35.2	23.9	0.00e+00	122	28	0	1286602752	42	5700
2026-01-15 22:38:41.49	31.27	32.25	-34.4	-35.3	23.6	0.00e+00	123	28	0	1299185664	42	5772
2026-01-15 22:38:45.53	29.84	32.06	-34.4	-35.4	23.7	0.00e+00	122	28	0	1311768576	42	5818
2026-01-15 22:38:49.57	28.42	31.84	-34.8	-35.8	23.1	0.00e+00	122	28	0	1324351488	42	6083
2026-01-15 22:38:53.60	27.04	31.60	-33.8	-34.8	23.9	0.00e+00	123	28	0	1337982976	42	5417
2026-01-15 22:38:57.64	25.66	31.35	-33.8	-34.7	24.2	0.00e+00	123	29	0	1349517312	40	6030
2026-01-15 22:39:01.68	24.32	31.08	-34.0	-34.9	23.9	0.00e+00	120	28	0	1363148800	40	6147
2026-01-15 22:39:05.72	22.99	30.80	-34.7	-35.7	23.5	0.00e+00	122	29	0	1375731712	40	6788
2026-01-15 22:39:09.76	21.69	30.51	-34.2	-35.1	23.8	0.00e+00	120	28	0	1388314624	42	5626
2026-01-15 22:39:13.80	20.41	30.20	-34.1	-35.0	24.0	0.00e+00	123	29	0	1400897536	40	6225
2026-01-15 22:39:17.84	19.16	29.87	-34.1	-35.0	23.8	0.00e+00	123	29	0	1413480448	40	6244
2026-01-15 22:39:21.87	17.93	29.54	-33.6	-34.5	24.4	0.00e+00	122	29	0	1426063360	40	5905
2026-01-15 22:39:25.91	16.73	29.20	-33.7	-34.6	24.0	0.00e+00	123	29	0	1438646272	40	5990
2026-01-15 22:39:29.94	15.56	28.84	-32.9	-33.8	24.9	0.00e+00	123	29	0	1451229184	38	6097
2026-01-15 22:39:33.98	14.41	28.48	-34.0	-34.9	24.0	0.00e+00	120	29	0	1463812096	40	6156
2026-01-15 22:39:38.01	13.29	28.11	-33.3	-34.2	24.6	0.00e+00	123	29	0	1476395008	40	5670
2026-01-15 22:39:42.05	12.19	27.74	-33.6	-34.5	24.5	0.00e+00	122	29	0	1488977920	40	5890
2026-01-15 22:39:46.09	11.12	27.35	-33.3	-34.2	24.7	0.00e+00	123	29	0	1501560832	40	5661
2026-01-15 22:39:50.13	10.08	26.96	-33.6	-34.5	24.4	0.00e+00	123	29	0	1514143744	40	5864
2026-01-15 22:39:54.16	9.06	26.57	-33.6	-34.5	24.4	0.00e+00	121	29	0	1526726656	40	5864
2026-01-15 22:39:58.20	8.07	26.17	-33.4	-34.3	24.5	0.00e+00	120	29	0	1539309568	40	5763
2026-01-15 22:40:02.24	7.10	25.77	-33.1	-34.0	24.2	0.00e+00	122	29	0	1551892480	40	5577
2026-01-15 22:40:06.28	6.15	25.37	-33.2	-34.1	24.6	0.00e+00	122	29	0	1564475392	40	5643
2026-01-15 22:40:10.31	5.24	24.97	-34.0	-34.9	24.1	0.00e+00	123	29	0	1577058304	40	6155
2026-01-15 22:40:14.34	4.34	24.56	-33.2	-34.0	24.6	0.00e+00	123	29	0	1589641216	40	5590
2026-01-15 22:40:18.38	3.47	24.15	-32.7	-33.6	24.9	0.00e+00	122	29	0	1602224128	38	5963
2026-01-15 22:40:22.42	2.62	23.74	-33.0	-33.9	24.5	0.00e+00	123	29	0	1614807040	38	6197
2026-01-15 22:40:26.45	1.79	23.33	-33.2	-34.1	24.3	0.00e+00	123	29	0	1627389952	38	6305
2026-01-15 22:40:30.49	0.98	22.92	-33.8	-34.8	23.7	0.00e+00	120	29	0	1639972864	40	6065
2026-01-15 22:40:34.52	0.20	22.52	-33.5	-34.4	24.3	0.00e+00	127	29	0	1652555776	40	5858
2026-01-15 22:40:38.56	359.44	22.11	-33.6	-34.5	24.3	0.00e+00	122	29	0	1665138688	40	5915
2026-01-15 22:40:42.60	358.69	21.70	-33.5	-34.4	24.3	0.00e+00	122	29	0	1677721600	40	5842
2026-01-15 22:40:46.63	357.97	21.30	-33.0	-33.9	24.6	0.00e+00	122	29	0	1690304512	40	5491
2026-01-15 22:40:50.66	357.26	20.90	-33.1	-34.1	24.7	0.00e+00	122	29	0	1702887424	40	5595
2026-01-15 22:40:54.70	356.58	20.49	-32.9	-33.8	24.7	0.00e+00	123	29	0	1715470336	40	5445
2026-01-15 22:40:58.74	355.91	20.09	-32.6	-33.5	25.0	0.00e+00	122	29	0	1728053248	38	5874
2026-01-15 22:41:02.78	355.25	19.70	-32.8	-33.7	24.9	0.00e+00	122	29	0	1740636160	38	6040
2026-01-15 22:41:06.81	354.62	19.30	-33.5	-34.4	24.3	0.00e+00	120	29	0	1753219072	38	6572
2026-01-15 22:41:10.85	354.00	18.91	-33.4	-34.3	24.3	0.00e+00	121	29	0	1765801984	38	6445
2026-01-15 22:41:14.89	353.40	18.52	-33.3	-34.2	24.4	0.00e+00	121	29	0	1778384896	38	6358
2026-01-15 22:41:18.92	352.81	18.14	-33.7	-34.6	24.2	0.00e+00	120	30	0	1792016384	38	6702
2026-01-15 22:41:22.96	352.24	17.75	-34.2	-35.2	23.8	0.00e+00	122	30	0	1804599296	40	6389
2026-01-15 22:41:27.00	351.68	17.37	-33.9	-34.9	23.8	0.00e+00	123	30	0	1817182208	40	6139
2026-01-15 22:41:31.04	351.14	16.99	-33.8	-34.7	24.0	0.00e+00	122	30	0	1829765120	40	6063
2026-01-15 22:41:35.08	350.61	16.62	-33.9	-34.8	24.1	0.00e+00	118	30	0	1842348032	40	6088
2026-01-15 22:41:39.11	350.10	16.25	-34.4	-35.3	23.7	0.00e+00	123	30	0	1854930944	40	6494
2026-01-15 22:41:43.14	349.59	15.88	-34.4	-35.3	23.6	0.00e+00	121	30	0	1867513856	40	6484
2026-01-15 22:41:47.17	349.10	15.52	-34.1	-35.0	23.8	0.00e+00	123	30	0	1880096768	40	6237
2026-01-15 22:41:51.21	348.63	15.16	-34.2	-35.1	23.7	0.00e+00	122	30	0	1892679680	40	6315
2026-01-15 22:41:55.25	348.16	14.80	-34.5	-35.4	23.5	0.00e+00	123	30	0	1905262592	40	6531
2026-01-15 22:41:59.28	347.70	14.44	-34.7	-35.6	23.3	0.00e+00	123	30	0	1917845504	40	6714
2026-01-15 22:42:03.32	347.26	14.09	-34.9	-35.8	23.1	0.00e+00	120	30	0	1930428416	42	6134
2026-01-15 22:42:07.36	346.82	13.74	-34.8	-35.8	23.0	0.00e+00	123	30	0	1943011328	42	6069
2026-01-15 22:42:11.39	346.40	13.40	-34.7	-35.7	23.0	0.00e+00	124	30	0	1955594240	42	5999
2026-01-15 22:42:15.43	345.99	13.06	-34.5	-35.5	23.2	0.00e+00	123	30	0	1968177152	42	5909
2026-01-15 22:42:19.47	345.58	12.72	-34.7	-35.6	23.2	0.00e+00	120	30	0	1980760064	42	5981
2026-01-15 22:42:23.51	345.19	12.38	-35.0	-36.0	22.9	0.00e+00	122	30	0	1993342976	42	6228
2026-01-15 22:42:27.54	344.81	12.05	-35.3	-36.3	22.5	0.00e+00	120	30	0	2005925888	42	6448
2026-01-15 22:42:31.58	344.43	11.72	-35.3	-36.3	22.3	0.00e+00	123	30	0	2018508800	42	6493
2026-01-15 22:42:35.62	344.06	11.40	-35.2	-36.2	22.5	0.00e+00	122	30	0	2031091712	42	6391
2026-01-15 22:42:39.66	343.70	11.07	-34.7	-35.7	22.9	0.00e+00	122	30	0	2043674624	42	6040
2026-01-15 22:42:43.69	343.35	10.76	-35.0	-35.9	22.9	0.00e+00	122	30	0	2056257536	42	6203
2026-01-15 22:42:47.72	343.01	10.44	-35.0	-36.0	22.9	0.00e+00	123	30	0	2068840448	42	6255
2026-01-15 22:42:51.76	342.67	10.13	-35.3	-36.3	22.6	0.00e+00	123	30	0	2081423360	42	6452
2026-01-15 22:42:55.80	342.34	9.82	-35.7	-36.7	22.1	0.00e+00	122	30	0	2094006272	42	6782
2026-01-15 22:42:59.84	342.02	9.51	-35.6	-36.7	22.2	0.00e+00	123	30	0	2106589184	44	6008
2026-01-15 22:43:03.88	341.71	9.20	-35.5	-36.5	22.2	0.00e+00	123	30	0	2119172096	44	5901
2026-01-15 22:43:07.91	341.40	8.90	-35.4	-36.4	22.2	0.00e+00	120	30	0	2131755008	44	5856
2026-01-15 22:43:11.95	341.10	8.60	-35.6	-36.6	22.1	0.00e+00	123	30	0	2144337920	44	5967
2026-01-15 22:43:15.98	340.81	8.31	-35.7	-36.7	21.9	0.00e+00	122	30	0	2156920832	44	6038
2026-01-15 22:43:20.02	340.52	8.01	-36.0	-37.1	21.7	0.00e+00	122	30	0	2169503744	44	6278
2026-01-15 22:43:24.05	340.24	7.72	-36.3	-37.5	21.3	0.00e+00	123	30	0	2183135232	44	6592
2026-01-15 22:43:28.09	339.96	7.44	-36.1	-37.3	21.4	0.00e+00	122	30	0	2194669568	44	6426
2026-01-15 22:43:32.13	339.69	7.15	-36.4	-37.5	21.2	0.00e+00	123	30	0	2207252480	44	6604
2026-01-15 22:43:36.16	339.43	6.87	-36.3	-37.4	21.2	0.00e+00	120	30	0	2220883968	44	6569
2026-01-15 22:43:40.20	339.17	6.59	-36.7	-37.9	20.9	0.00e+00	120	30	0	2232418304	44	6887
2026-01-15 22:43:44.24	338.91	6.31	-36.3	-37.5	21.1	0.00e+00	123	30	0	2246049792	44	6596
2026-01-15 22:43:48.27	338.66	6.03	-36.3	-37.5	21.0	0.00e+00	122	30	0	2258632704	44	6609
2026-01-15 22:43:52.31	338.42	5.76	-36.7	-38.0	20.5	0.00e+00	123	30	0	2271215616	44	6975
2026-01-15 22:43:56.35	338.18	5.49	-37.7	-39.1	19.3	0.00e+00	120	30	0	2283798528	46	7067
2026-01-15 22:44:00.39	337.94	5.22	-38.7	-40.4	17.4	0.00e+00	121	30	0	2296381440	48	7341
2026-01-15 22:44:04.42	337.71	4.95	-40.1	-42.4	14.6	0.00e+00	123	30	0	2308964352	52	7372
2026-01-15 22:44:08.46	337.49	4.69	-41.7	-45.8	9.7	8.47e-03	123	30	0	2321547264	54	9697
2026-01-15 22:44:12.49	337.27	4.43	-42.6	-50.4	5.4	1.50e+00	0	30	104	2333081600	56	14631
2026-01-15 22:44:16.53	337.05	4.17	-42.8	-53.6	3.7	1.49e+00	0	30	104	2333081600	58	18839
2026-01-15 22:44:20.57	336.83	3.91	-42.9	-55.3	3.5	1.51e+00	0	31	104	2333081600	58	22977
2026-01-15 22:44:24.60	336.63	3.65	-42.9	-55.5	3.5	1.52e+00	0	31	104	2333081600	58	23442
2026-01-15 22:44:28.64	336.42	3.40	-43.1	-55.8	3.5	1.52e+00	0	31	104	2333081600	58	24422
2026-01-15 22:44:32.67	336.22	3.15	-43.0	-55.9	3.5	1.52e+00	0	31	104	2333081600	58	24466
2026-01-15 22:44:36.71	336.02	2.90	-47.2	-60.0	3.5	1.52e+00	0	31	104	2333081600	60	35282
2026-01-15 22:44:40.74	335.83	2.65	-48.3	-61.1	3.5	1.52e+00	0	31	104	2333081600	60	39837
2026-01-15 22:44:44.78	335.64	2.40	-48.4	-61.2	3.5	1.52e+00	0	31	104	2333081600	60	40507
2026-01-15 22:44:48.82	335.45	2.16	-47.9	-61.1	3.5	1.52e+00	0	31	104	2333081600	60	39711
2026-01-15 22:44:52.86	335.26	1.91	-48.3	-61.2	3.5	1.52e+00	0	31	104	2333081600	60	40306
2026-01-15 22:44:56.90	335.08	1.67	-48.2	-61.1	3.5	1.51e+00	0	31	104	2333081600	60	40008
2026-01-15 22:45:00.93	334.90	1.43	-48.1	-61.0	3.5	1.52e+00	0	31	104	2333081600	60	39590
2026-01-15 22:45:04.96	334.73	1.20	-48.1	-61.1	3.5	1.52e+00	0	31	104	2333081600	60	39610
2026-01-15 22:45:09.00	334.56	0.96	-48.2	-61.1	3.5	1.52e+00	0	31	104	2333081600	60	39778
2026-01-15 22:45:13.04	334.39	0.72	-48.1	-61.0	3.5	1.52e+00	0	31	104	2333081600	60	39543
2026-01-15 22:45:17.08	334.22	0.49	-48.1	-61.1	3.5	1.52e+00	0	31	104	2333081600	60	39615
2026-01-15 22:45:21.12	334.06	0.26	-48.1	-61.1	3.5	1.52e+00	0	31	104	2333081600	60	39669
2026-01-15 22:45:25.16	333.90	0.03	-48.1	-61.1	3.5	1.52e+00	0	31	104	2333081600	60	39645

#Closed at: 2026-01-15 22:45:25
#Recorded file [2333 MB]: D:/lorett/data/35029_260116_103049.dat