passes_logs/2026/01/15/R4.6S_Anadyr/R4.6S_Anadyr__20260115_144433_SUOMI_NPP_rec.log

#Pass ID: 20260115_144433_SUOMI NPP
#Satellite: SUOMI NPP
#Configuration: NPP
#almurnet v.1.7.20251203
#Start time: 2026-01-15 14:44:34

#Version: 2.2.20231116
#Station: R4.6S_Anadyr
#Location: 177.4865 lon 64.73178 lat
#TLE: 1 37849U 11061A   26014.61059675  .00000037  00000+0  38639-4 0  9994
#TLE: 2 37849  98.7810 316.6625 0002460  64.3781 295.7649 14.19525105736658

#Time	Az	El	Level	Level2	SNR	BER	BlckErr	Temp	State	Recorded	gain1	gain2
2026-01-15 14:44:34.95	20.44	0.08	-48.3	-60.8	3.4	1.51e+00	0	26	0	0	60	38392
2026-01-15 14:44:38.99	20.47	0.32	-48.3	-63.5	3.6	1.51e+00	0	27	104	0	60	53878
2026-01-15 14:44:43.03	20.49	0.56	-48.2	-63.5	3.6	1.51e+00	0	27	104	0	60	53869
2026-01-15 14:44:47.06	20.52	0.81	-47.9	-63.1	3.6	1.51e+00	0	27	104	0	60	51780
2026-01-15 14:44:51.10	20.54	1.06	-46.9	-62.1	3.6	1.51e+00	0	27	104	0	60	45954
2026-01-15 14:44:55.14	20.57	1.31	-46.7	-61.8	3.6	1.51e+00	0	27	104	0	60	44462
2026-01-15 14:44:59.18	20.59	1.56	-46.6	-61.8	3.6	1.51e+00	0	27	104	0	60	44432
2026-01-15 14:45:03.21	20.62	1.81	-46.6	-61.8	3.6	1.51e+00	0	27	104	0	60	44629
2026-01-15 14:45:07.26	20.65	2.07	-46.6	-61.8	3.6	1.51e+00	0	28	104	0	60	44442
2026-01-15 14:45:11.29	20.67	2.33	-46.6	-60.5	3.6	1.51e+00	0	27	104	0	60	38138
2026-01-15 14:45:15.33	20.70	2.59	-46.5	-59.8	3.6	1.51e+00	0	28	104	0	60	35232
2026-01-15 14:45:19.37	20.73	2.86	-46.1	-53.9	5.8	6.27e-01	0	28	0	2097152	60	17850
2026-01-15 14:45:23.41	20.75	3.12	-44.0	-47.8	12.9	2.68e-04	69	28	0	9437184	60	8836
2026-01-15 14:45:27.44	20.78	3.39	-42.7	-45.4	15.3	0.00e+00	0	28	0	16777216	58	7534
2026-01-15 14:45:31.48	20.81	3.66	-44.0	-47.8	12.7	2.74e-05	0	28	0	25165824	60	8862
2026-01-15 14:45:35.51	20.83	3.94	-45.1	-50.2	9.2	4.08e-03	0	28	0	32505856	60	11663
2026-01-15 14:45:39.56	20.86	4.22	-45.4	-51.0	9.4	1.65e-01	78	28	0	32505856	60	12822
2026-01-15 14:45:43.60	20.89	4.50	-44.1	-47.6	13.3	1.44e-05	0	28	0	39845888	60	8623
2026-01-15 14:45:47.64	20.92	4.78	-44.2	-47.8	13.3	3.89e-05	0	28	0	47185920	60	8916
2026-01-15 14:45:51.68	20.94	5.07	-42.7	-45.1	15.8	0.00e+00	0	28	0	54525952	58	7317
2026-01-15 14:45:55.71	20.97	5.35	-41.8	-43.9	17.2	0.00e+00	79	28	0	62914560	58	6355
2026-01-15 14:45:59.75	21.00	5.65	-41.3	-43.2	17.9	0.00e+00	0	28	0	70254592	56	6577
2026-01-15 14:46:03.79	21.03	5.94	-41.3	-43.1	18.1	0.00e+00	0	28	0	77594624	56	6490
2026-01-15 14:46:07.83	21.06	6.24	-41.2	-42.9	18.2	0.00e+00	12	28	0	84934656	56	6376
2026-01-15 14:46:11.87	21.09	6.55	-40.9	-42.6	18.5	0.00e+00	0	28	0	93323264	54	6888
2026-01-15 14:46:15.90	21.12	6.85	-40.8	-42.5	18.6	0.00e+00	0	28	0	100663296	54	6799
2026-01-15 14:46:19.94	21.14	7.16	-40.6	-42.3	18.9	0.00e+00	0	28	0	108003328	54	6619
2026-01-15 14:46:23.98	21.17	7.48	-40.4	-42.0	19.1	0.00e+00	52	28	0	115343360	54	6436
2026-01-15 14:46:28.01	21.20	7.79	-40.2	-41.8	19.4	0.00e+00	0	28	0	122683392	54	6258
2026-01-15 14:46:32.05	21.23	8.11	-40.1	-41.6	19.6	0.00e+00	0	28	0	131072000	54	6167
2026-01-15 14:46:36.09	21.27	8.44	-40.0	-41.4	19.8	0.00e+00	9	28	0	138412032	54	5999
2026-01-15 14:46:40.12	21.30	8.77	-39.9	-41.4	19.8	0.00e+00	90	28	0	145752064	52	6726
2026-01-15 14:46:44.16	21.33	9.10	-39.5	-40.8	20.3	0.00e+00	0	28	0	153092096	52	6297
2026-01-15 14:46:48.20	21.36	9.44	-39.5	-40.8	20.4	0.00e+00	0	28	0	160432128	52	6277
2026-01-15 14:46:52.23	21.39	9.79	-39.3	-40.6	20.6	0.00e+00	11	28	0	168820736	52	6167
2026-01-15 14:46:56.27	21.42	10.14	-39.1	-40.4	20.9	0.00e+00	51	28	0	176160768	52	5965
2026-01-15 14:47:00.30	21.45	10.49	-39.0	-40.2	21.0	0.00e+00	0	28	0	183500800	52	5849
2026-01-15 14:47:04.33	21.49	10.85	-38.7	-39.9	21.3	0.00e+00	0	28	0	190840832	50	6336
2026-01-15 14:47:08.37	21.52	11.21	-38.5	-39.7	21.4	0.00e+00	7	28	0	199229440	50	6238
2026-01-15 14:47:12.41	21.55	11.58	-38.3	-39.4	21.6	0.00e+00	0	28	0	206569472	50	6025
2026-01-15 14:47:16.44	21.59	11.96	-38.1	-39.3	21.8	0.00e+00	0	28	0	213909504	50	5908
2026-01-15 14:47:20.48	21.62	12.34	-37.8	-39.0	22.1	0.00e+00	0	28	0	221249536	50	5708
2026-01-15 14:47:24.52	21.66	12.72	-37.7	-38.8	22.2	0.00e+00	92	28	0	228589568	48	6278
2026-01-15 14:47:28.56	21.69	13.12	-37.5	-38.6	22.5	0.00e+00	0	28	0	236978176	48	6108
2026-01-15 14:47:32.60	21.73	13.52	-37.3	-38.3	22.7	0.00e+00	0	28	0	244318208	48	5921
2026-01-15 14:47:36.65	21.76	13.93	-37.1	-38.1	22.8	0.00e+00	0	28	0	251658240	48	5805
2026-01-15 14:47:40.69	21.80	14.34	-37.0	-37.9	22.9	0.00e+00	71	28	0	258998272	48	5672
2026-01-15 14:47:44.72	21.84	14.76	-37.1	-38.0	22.9	0.00e+00	0	28	0	267386880	48	5756
2026-01-15 14:47:48.76	21.88	15.19	-37.0	-38.0	22.9	0.00e+00	0	28	0	274726912	48	5718
2026-01-15 14:47:52.80	21.91	15.62	-37.0	-38.0	23.0	0.00e+00	67	28	0	282066944	48	5720
2026-01-15 14:47:56.84	21.95	16.07	-36.9	-37.8	23.1	0.00e+00	0	28	0	289406976	46	6304
2026-01-15 14:48:00.88	21.99	16.52	-36.5	-37.4	23.3	0.00e+00	0	28	0	296747008	46	5985
2026-01-15 14:48:04.91	22.03	16.98	-36.6	-37.5	22.9	0.00e+00	0	28	0	305135616	46	6052
2026-01-15 14:48:08.95	22.08	17.45	-36.4	-37.3	23.6	0.00e+00	13	28	0	312475648	46	5930
2026-01-15 14:48:12.98	22.12	17.93	-36.4	-37.3	23.5	0.00e+00	0	28	0	319815680	46	5956
2026-01-15 14:48:17.03	22.16	18.42	-36.7	-37.6	23.3	0.00e+00	0	28	0	327155712	46	6155
2026-01-15 14:48:21.06	22.20	18.92	-37.0	-38.0	23.1	0.00e+00	0	28	0	335544320	46	6393
2026-01-15 14:48:25.11	22.25	19.43	-37.0	-38.0	23.1	0.00e+00	83	28	0	342884352	46	6398
2026-01-15 14:48:29.15	22.29	19.94	-37.0	-38.0	23.2	0.00e+00	0	28	0	350224384	46	6423
2026-01-15 14:48:33.18	22.34	20.47	-37.3	-38.3	22.8	0.00e+00	17	28	0	357564416	46	6675
2026-01-15 14:48:37.22	22.39	21.02	-37.6	-38.6	22.7	0.00e+00	73	28	0	364904448	46	6925
2026-01-15 14:48:41.25	22.44	21.57	-37.9	-39.0	22.4	0.00e+00	0	28	0	373293056	48	6425
2026-01-15 14:48:45.29	22.49	22.13	-37.7	-38.7	22.5	0.00e+00	0	28	0	380633088	48	6233
2026-01-15 14:48:49.33	22.54	22.71	-37.8	-38.8	22.6	0.00e+00	0	28	0	387973120	48	6271
2026-01-15 14:48:53.37	22.59	23.31	-37.9	-38.9	22.5	0.00e+00	21	28	0	395313152	48	6357
2026-01-15 14:48:57.41	22.64	23.91	-38.1	-39.2	22.2	0.00e+00	0	28	0	403701760	48	6551
2026-01-15 14:49:01.45	22.70	24.53	-37.6	-38.6	22.6	0.00e+00	0	28	0	411041792	48	6139
2026-01-15 14:49:05.49	22.76	25.17	-37.7	-38.7	22.6	0.00e+00	0	28	0	418381824	48	6188
2026-01-15 14:49:09.52	22.81	25.82	-37.9	-38.9	22.5	0.00e+00	83	28	0	425721856	48	6361
2026-01-15 14:49:13.56	22.87	26.49	-37.8	-38.9	22.5	0.00e+00	0	28	0	433061888	48	6322
2026-01-15 14:49:17.60	22.94	27.17	-37.6	-38.5	22.8	0.00e+00	0	28	0	441450496	48	6100
2026-01-15 14:49:21.63	23.00	27.87	-38.3	-39.3	22.1	0.00e+00	13	28	0	448790528	48	6686
2026-01-15 14:49:25.67	23.07	28.60	-38.1	-39.1	22.4	0.00e+00	92	28	0	456130560	50	5774
2026-01-15 14:49:29.70	23.14	29.33	-38.0	-39.0	22.4	0.00e+00	0	28	0	463470592	50	5761
2026-01-15 14:49:33.74	23.21	30.09	-39.2	-40.4	21.5	0.00e+00	0	28	0	471859200	50	6728
2026-01-15 14:49:37.78	23.28	30.88	-39.7	-41.0	20.8	0.00e+00	17	28	0	479199232	52	6403
2026-01-15 14:49:41.82	23.36	31.68	-40.1	-41.4	20.4	0.00e+00	0	28	0	486539264	52	6751
2026-01-15 14:49:45.86	23.44	32.50	-40.5	-41.9	20.0	0.00e+00	0	28	0	493879296	54	6366
2026-01-15 14:49:49.89	23.52	33.35	-40.3	-41.6	20.3	0.00e+00	0	28	0	501219328	54	6164
2026-01-15 14:49:53.93	23.61	34.22	-39.0	-40.1	21.4	0.00e+00	90	28	0	509607936	52	5799
2026-01-15 14:49:57.96	23.70	35.12	-37.8	-38.8	22.7	0.00e+00	0	28	0	516947968	50	5591
2026-01-15 14:50:02.00	23.79	36.04	-36.3	-37.1	24.0	0.00e+00	0	28	0	524288000	46	5827
2026-01-15 14:50:06.03	23.89	36.99	-36.5	-37.4	23.7	0.00e+00	0	28	0	531628032	46	5981
2026-01-15 14:50:10.07	23.99	37.97	-36.0	-36.8	24.2	0.00e+00	92	28	0	540016640	46	5614
2026-01-15 14:50:14.11	24.11	38.98	-36.0	-36.9	24.1	0.00e+00	15	28	0	547356672	46	5642
2026-01-15 14:50:18.14	24.22	40.02	-36.5	-37.4	23.8	0.00e+00	0	28	0	554696704	46	5980
2026-01-15 14:50:22.18	24.34	41.09	-37.5	-38.5	22.9	0.00e+00	19	28	0	562036736	46	6779
2026-01-15 14:50:26.22	24.47	42.20	-37.1	-38.0	23.2	0.00e+00	0	28	0	569376768	46	6442
2026-01-15 14:50:30.26	24.61	43.34	-38.0	-39.1	22.5	0.00e+00	0	28	0	577765376	48	6466
2026-01-15 14:50:34.30	24.76	44.51	-37.2	-38.1	23.3	0.00e+00	0	28	0	585105408	48	5827
2026-01-15 14:50:38.34	24.92	45.72	-38.0	-39.0	22.6	0.00e+00	20	28	0	592445440	48	6392
2026-01-15 14:50:42.37	25.09	46.96	-39.8	-41.0	20.9	0.00e+00	0	28	0	599785472	50	7220
2026-01-15 14:50:46.41	25.27	48.25	-42.1	-44.0	17.7	0.00e+00	0	28	0	607125504	56	7230
2026-01-15 14:50:50.45	25.47	49.57	-40.4	-41.9	20.2	0.00e+00	0	28	0	615514112	54	6359
2026-01-15 14:50:54.49	25.68	50.93	-38.4	-39.5	22.2	0.00e+00	73	28	0	622854144	50	6054
2026-01-15 14:50:58.53	25.91	52.34	-36.0	-36.8	24.3	0.00e+00	0	28	0	630194176	46	5584
2026-01-15 14:51:02.56	26.17	53.78	-36.8	-37.7	23.6	0.00e+00	0	28	0	637534208	46	6231
2026-01-15 14:51:06.60	26.45	55.27	-35.1	-35.9	24.7	0.00e+00	17	28	0	645922816	44	5650
2026-01-15 14:51:10.64	26.76	56.80	-34.6	-35.4	25.1	0.00e+00	82	28	0	653262848	42	5983
2026-01-15 14:51:14.68	27.10	58.37	-36.5	-37.4	23.9	0.00e+00	0	28	0	660602880	46	6016
2026-01-15 14:51:18.72	27.49	59.98	-35.9	-36.7	24.2	0.00e+00	0	28	0	667942912	46	5536
2026-01-15 14:51:22.76	27.93	61.64	-34.2	-34.9	25.5	0.00e+00	16	28	0	675282944	42	5695
2026-01-15 14:51:26.79	28.42	63.33	-34.1	-34.8	25.5	0.00e+00	0	28	0	683671552	42	5628
2026-01-15 14:51:30.83	29.00	65.06	-36.0	-36.9	24.1	0.00e+00	0	28	0	691011584	44	6331
2026-01-15 14:51:34.87	29.67	66.84	-38.0	-39.0	22.4	0.00e+00	0	28	0	698351616	48	6439
2026-01-15 14:51:38.91	30.46	68.64	-38.9	-40.0	21.6	0.00e+00	92	28	0	705691648	50	6411
2026-01-15 14:51:42.95	31.40	70.49	-39.8	-41.0	20.7	0.00e+00	0	28	0	714080256	50	7226
2026-01-15 14:51:46.99	32.56	72.36	-36.1	-36.9	24.1	0.00e+00	0	28	0	721420288	46	5654
2026-01-15 14:51:51.02	34.00	74.24	-34.7	-35.4	25.2	0.00e+00	0	28	0	728760320	42	5991
2026-01-15 14:51:55.06	35.86	76.16	-36.5	-37.3	23.8	0.00e+00	89	28	0	736100352	46	5924
2026-01-15 14:51:59.10	38.34	78.08	-38.6	-39.7	21.7	0.00e+00	0	28	0	743440384	50	6193
2026-01-15 14:52:03.14	41.78	79.99	-38.3	-39.3	22.2	0.00e+00	0	28	0	751828992	50	5911
2026-01-15 14:52:07.18	46.85	81.87	-41.7	-43.4	18.9	0.00e+00	35	28	0	759169024	56	6714
2026-01-15 14:52:11.21	54.88	83.65	-36.6	-37.4	23.7	0.00e+00	0	28	0	766509056	46	6003
2026-01-15 14:52:15.25	68.77	85.24	-36.9	-37.8	23.5	0.00e+00	0	28	0	773849088	46	6288
2026-01-15 14:52:19.28	93.16	86.31	-37.8	-38.8	22.6	0.00e+00	0	28	0	782237696	48	6262
2026-01-15 14:52:23.32	126.21	86.38	-35.9	-36.6	24.2	0.00e+00	92	28	0	789577728	46	5501
2026-01-15 14:52:27.36	152.11	85.40	-37.8	-38.8	22.4	0.00e+00	0	28	0	796917760	50	5598
2026-01-15 14:52:31.40	166.98	83.85	-36.6	-37.5	23.7	0.00e+00	0	28	0	804257792	46	6057
2026-01-15 14:52:35.44	175.52	82.07	-38.7	-39.8	21.9	0.00e+00	0	28	0	811597824	48	7014
2026-01-15 14:52:39.48	180.85	80.20	-37.0	-37.8	23.5	0.00e+00	49	28	0	819986432	48	5597
2026-01-15 14:52:43.52	184.44	78.29	-39.8	-41.1	21.0	0.00e+00	0	28	0	827326464	52	6481
2026-01-15 14:52:47.55	187.00	76.37	-37.0	-37.9	23.1	0.00e+00	0	28	0	834666496	48	5650
2026-01-15 14:52:51.59	188.91	74.46	-39.7	-40.9	20.2	0.00e+00	0	28	0	842006528	50	7108
2026-01-15 14:52:55.63	190.40	72.56	-40.7	-42.2	19.4	0.00e+00	79	28	0	850395136	54	6543
2026-01-15 14:52:59.67	191.59	70.68	-42.0	-43.7	19.2	0.00e+00	0	28	0	857735168	56	6961
2026-01-15 14:53:03.71	192.55	68.83	-38.2	-39.2	22.1	0.00e+00	0	28	0	865075200	48	6568
2026-01-15 14:53:07.75	193.36	67.02	-39.5	-40.8	21.0	0.00e+00	16	28	0	872415232	50	7023
2026-01-15 14:53:11.78	194.04	65.24	-38.4	-39.5	22.1	0.00e+00	0	28	0	879755264	50	6054
2026-01-15 14:53:15.82	194.62	63.50	-37.7	-38.7	22.6	0.00e+00	0	28	0	888143872	46	6928
2026-01-15 14:53:19.86	195.13	61.80	-35.1	-35.8	25.0	0.00e+00	0	28	0	895483904	42	6315
2026-01-15 14:53:23.90	195.57	60.13	-38.1	-39.2	22.5	0.00e+00	90	28	0	902823936	48	6540
2026-01-15 14:53:27.93	195.96	58.52	-36.0	-36.8	24.3	0.00e+00	0	28	0	910163968	46	5626
2026-01-15 14:53:31.97	196.31	56.94	-36.8	-37.7	23.6	0.00e+00	0	28	0	918552576	48	5562
2026-01-15 14:53:36.01	196.62	55.40	-36.8	-37.7	23.6	0.00e+00	0	28	0	925892608	46	6194
2026-01-15 14:53:40.05	196.91	53.90	-39.8	-41.2	20.9	0.00e+00	48	28	0	933232640	52	6542
2026-01-15 14:53:44.09	197.16	52.45	-37.7	-38.7	22.6	0.00e+00	0	28	0	940572672	46	6964
2026-01-15 14:53:48.13	197.40	51.04	-38.0	-39.1	22.5	0.00e+00	17	28	0	947912704	50	5793
2026-01-15 14:53:52.16	197.61	49.67	-37.2	-38.2	23.1	0.00e+00	17	28	0	956301312	46	6571
2026-01-15 14:53:56.20	197.81	48.34	-42.3	-44.5	18.2	0.00e+00	92	28	0	963641344	58	6784
2026-01-15 14:54:00.24	197.99	47.04	-35.7	-36.4	24.5	0.00e+00	17	28	0	970981376	44	6012
2026-01-15 14:54:04.28	198.16	45.79	-38.7	-39.8	21.5	0.00e+00	0	28	0	978321408	50	6259
2026-01-15 14:54:08.32	198.32	44.57	-37.7	-38.8	22.6	0.00e+00	14	28	0	986710016	50	5568
2026-01-15 14:54:12.36	198.47	43.39	-35.0	-35.8	24.9	0.00e+00	0	28	0	994050048	42	6263
2026-01-15 14:54:16.40	198.61	42.25	-38.2	-39.2	22.2	0.00e+00	0	28	0	1001390080	48	6582
2026-01-15 14:54:20.44	198.74	41.13	-38.6	-39.7	22.0	0.00e+00	0	28	0	1008730112	52	5516
2026-01-15 14:54:24.47	198.86	40.06	-36.8	-37.6	23.5	0.00e+00	44	28	0	1016070144	44	6887
2026-01-15 14:54:28.51	198.97	39.01	-41.6	-43.2	18.6	0.00e+00	0	28	0	1024458752	54	7382
2026-01-15 14:54:32.55	199.08	38.00	-44.1	-47.3	15.0	7.00e-07	0	28	0	1031798784	60	8360
2026-01-15 14:54:36.59	199.19	37.01	-39.3	-40.4	21.3	0.00e+00	0	28	0	1039138816	52	6005
2026-01-15 14:54:40.63	199.29	36.05	-37.8	-38.7	22.7	0.00e+00	92	28	0	1046478848	48	6214
2026-01-15 14:54:44.67	199.38	35.12	-43.4	-45.7	16.6	0.00e+00	0	28	0	1054867456	58	7857
2026-01-15 14:54:48.71	199.47	34.22	-44.7	-48.2	13.7	7.00e-07	0	28	0	1062207488	60	9291
2026-01-15 14:54:52.75	199.56	33.34	-41.4	-43.0	19.0	0.00e+00	92	28	0	1069547520	56	6456
2026-01-15 14:54:56.78	199.64	32.49	-39.8	-41.0	21.0	0.00e+00	0	28	0	1076887552	54	5699
2026-01-15 14:55:00.82	199.72	31.66	-38.9	-40.0	21.7	0.00e+00	0	28	0	1084227584	52	5724
2026-01-15 14:55:04.86	199.79	30.85	-38.6	-39.6	22.0	0.00e+00	0	28	0	1092616192	50	6130
2026-01-15 14:55:08.90	199.87	30.07	-38.7	-39.8	21.4	0.00e+00	90	28	0	1099956224	50	6253
2026-01-15 14:55:12.94	199.94	29.30	-40.8	-42.2	19.7	0.00e+00	0	28	0	1107296256	54	6615
2026-01-15 14:55:16.98	200.00	28.56	-40.3	-41.6	19.7	0.00e+00	0	28	0	1114636288	54	6163
2026-01-15 14:55:21.02	200.07	27.84	-37.0	-37.9	23.4	0.00e+00	0	28	0	1123024896	48	5651
2026-01-15 14:55:25.06	200.13	27.13	-36.8	-37.6	23.5	0.00e+00	79	28	0	1130364928	46	6168
2026-01-15 14:55:29.10	200.19	26.44	-37.6	-38.5	22.9	0.00e+00	0	28	0	1137704960	46	6822
2026-01-15 14:55:33.13	200.25	25.77	-37.5	-38.5	22.9	0.00e+00	0	28	0	1145044992	48	6059
2026-01-15 14:55:37.17	200.31	25.12	-37.2	-38.2	23.0	0.00e+00	11	28	0	1152385024	48	5866
2026-01-15 14:55:41.21	200.36	24.48	-37.2	-38.2	23.0	0.00e+00	77	28	0	1160773632	48	5859
2026-01-15 14:55:45.24	200.41	23.85	-36.6	-37.5	23.6	0.00e+00	0	28	0	1168113664	46	6064
2026-01-15 14:55:49.28	200.47	23.24	-36.7	-37.6	23.5	0.00e+00	0	28	0	1175453696	46	6110
2026-01-15 14:55:53.32	200.52	22.65	-36.4	-37.3	23.8	0.00e+00	56	28	0	1182793728	46	5925
2026-01-15 14:55:57.36	200.57	22.07	-35.7	-36.5	24.4	0.00e+00	0	28	0	1191182336	46	5437
2026-01-15 14:56:01.40	200.61	21.50	-35.5	-36.4	24.4	0.00e+00	0	28	0	1198522368	44	5969
2026-01-15 14:56:05.44	200.66	20.94	-36.3	-37.2	23.8	0.00e+00	0	28	0	1205862400	44	6559
2026-01-15 14:56:09.48	200.71	20.40	-37.2	-38.1	23.1	0.00e+00	79	28	0	1213202432	46	6518
2026-01-15 14:56:13.51	200.75	19.87	-37.8	-38.8	22.5	0.00e+00	0	28	0	1220542464	48	6302
2026-01-15 14:56:17.55	200.79	19.35	-38.2	-39.3	22.1	0.00e+00	0	28	0	1228931072	48	6617
2026-01-15 14:56:21.59	200.84	18.83	-38.4	-39.5	21.9	0.00e+00	7	28	0	1236271104	48	6814
2026-01-15 14:56:25.63	200.88	18.33	-38.4	-39.5	21.9	0.00e+00	76	28	0	1243611136	48	6806
2026-01-15 14:56:29.66	200.92	17.84	-38.5	-39.5	21.9	0.00e+00	0	28	0	1250951168	48	6834
2026-01-15 14:56:33.70	200.96	17.36	-38.2	-39.2	22.1	0.00e+00	0	28	0	1258291200	48	6572
2026-01-15 14:56:37.74	201.00	16.89	-37.9	-39.0	22.3	0.00e+00	7	28	0	1266679808	48	6400
2026-01-15 14:56:41.78	201.04	16.43	-37.8	-38.8	22.2	0.00e+00	0	28	0	1274019840	48	6303
2026-01-15 14:56:45.81	201.07	15.98	-38.2	-39.3	21.9	0.00e+00	0	28	0	1281359872	48	6642
2026-01-15 14:56:49.85	201.11	15.53	-38.6	-39.7	21.7	0.00e+00	0	28	0	1288699904	50	6211
2026-01-15 14:56:53.89	201.15	15.09	-38.8	-40.0	21.4	0.00e+00	73	28	0	1297088512	50	6432
2026-01-15 14:56:57.92	201.18	14.66	-39.3	-40.5	21.0	0.00e+00	0	28	0	1304428544	50	6839
2026-01-15 14:57:01.96	201.22	14.24	-39.3	-40.5	20.9	0.00e+00	0	28	0	1311768576	50	6797
2026-01-15 14:57:06.00	201.25	13.83	-39.2	-40.3	21.1	0.00e+00	0	28	0	1319108608	50	6685
2026-01-15 14:57:10.04	201.28	13.42	-38.6	-39.7	21.5	0.00e+00	76	28	0	1326448640	50	6243
2026-01-15 14:57:14.07	201.32	13.02	-38.4	-39.5	21.9	0.00e+00	0	28	0	1334837248	50	6044
2026-01-15 14:57:18.11	201.35	12.62	-38.1	-39.2	22.0	0.00e+00	0	28	0	1342177280	50	5886
2026-01-15 14:57:22.15	201.38	12.23	-38.1	-39.1	22.0	0.00e+00	5	28	0	1349517312	50	5809
2026-01-15 14:57:26.19	201.41	11.85	-37.9	-38.9	22.3	0.00e+00	0	28	0	1356857344	50	5655
2026-01-15 14:57:30.23	201.44	11.47	-37.9	-39.0	22.1	0.00e+00	0	28	0	1365245952	50	5726
2026-01-15 14:57:34.27	201.48	11.10	-37.8	-38.8	22.2	0.00e+00	0	28	0	1372585984	50	5630
2026-01-15 14:57:38.30	201.51	10.74	-37.8	-38.8	22.2	0.00e+00	32	28	0	1379926016	48	6270
2026-01-15 14:57:42.33	201.53	10.38	-38.0	-39.0	22.1	0.00e+00	0	28	0	1387266048	48	6463
2026-01-15 14:57:46.37	201.56	10.02	-37.9	-39.0	22.1	0.00e+00	0	28	0	1394606080	48	6417
2026-01-15 14:57:50.41	201.59	9.67	-37.8	-38.8	22.2	0.00e+00	0	28	0	1402994688	48	6312
2026-01-15 14:57:54.45	201.62	9.33	-38.0	-39.1	21.9	0.00e+00	91	28	0	1410334720	48	6493
2026-01-15 14:57:58.48	201.65	8.99	-37.9	-38.9	22.0	0.00e+00	0	28	0	1417674752	48	6343
2026-01-15 14:58:02.52	201.68	8.65	-38.0	-39.1	21.8	0.00e+00	0	28	0	1425014784	48	6506
2026-01-15 14:58:06.56	201.71	8.32	-37.9	-39.0	21.9	0.00e+00	56	28	0	1432354816	48	6461
2026-01-15 14:58:10.59	201.73	7.99	-38.1	-39.2	21.7	0.00e+00	90	28	0	1440743424	48	6554
2026-01-15 14:58:14.63	201.76	7.67	-38.1	-39.2	21.7	0.00e+00	0	28	0	1448083456	48	6594
2026-01-15 14:58:18.67	201.79	7.35	-38.4	-39.5	21.5	0.00e+00	0	28	0	1455423488	48	6793
2026-01-15 14:58:22.71	201.81	7.04	-38.1	-39.2	21.7	0.00e+00	72	28	0	1462763520	48	6544
2026-01-15 14:58:26.74	201.84	6.73	-38.4	-39.5	21.4	0.00e+00	0	28	0	1471152128	48	6827
2026-01-15 14:58:30.78	201.86	6.42	-38.5	-39.6	21.3	0.00e+00	0	28	0	1478492160	48	6917
2026-01-15 14:58:34.82	201.89	6.12	-38.6	-39.8	21.1	0.00e+00	0	28	0	1485832192	50	6276
2026-01-15 14:58:38.86	201.92	5.82	-38.7	-39.8	21.1	0.00e+00	70	28	0	1493172224	50	6300
2026-01-15 14:58:42.89	201.94	5.52	-38.9	-40.1	20.7	0.00e+00	0	28	0	1500512256	50	6493
2026-01-15 14:58:46.93	201.96	5.23	-38.9	-40.1	20.8	0.00e+00	0	28	0	1508900864	50	6505
2026-01-15 14:58:50.97	201.99	4.94	-39.0	-40.2	20.6	0.00e+00	0	28	0	1516240896	50	6551
2026-01-15 14:58:55.00	202.01	4.65	-39.0	-40.2	20.6	0.00e+00	92	28	0	1523580928	50	6549
2026-01-15 14:58:59.04	202.04	4.37	-39.0	-40.2	20.4	0.00e+00	0	28	0	1530920960	50	6609
2026-01-15 14:59:03.08	202.06	4.08	-39.2	-40.5	20.1	0.00e+00	0	28	0	1539309568	50	6839
2026-01-15 14:59:07.11	202.08	3.81	-39.5	-40.8	19.8	0.00e+00	81	28	0	1546649600	50	7071
2026-01-15 14:59:11.15	202.11	3.53	-39.7	-41.1	19.5	0.00e+00	78	28	0	1553989632	52	6517
2026-01-15 14:59:15.19	202.13	3.26	-39.9	-41.3	19.2	0.00e+00	0	28	0	1561329664	52	6680
2026-01-15 14:59:19.23	202.15	2.99	-40.1	-41.6	18.6	0.00e+00	0	28	0	1568669696	52	6909
2026-01-15 14:59:23.27	202.18	2.72	-47.5	-63.2	3.6	1.51e+00	0	28	104	1569718272	60	52092
2026-01-15 14:59:27.31	202.20	2.46	-47.9	-63.4	3.6	1.51e+00	0	28	104	1569718272	60	53601
2026-01-15 14:59:31.35	202.22	2.19	-48.2	-63.5	3.6	1.51e+00	0	28	104	1569718272	60	53888
2026-01-15 14:59:35.38	202.24	1.94	-48.2	-63.3	3.6	1.51e+00	0	28	104	1569718272	60	53085
2026-01-15 14:59:39.42	202.27	1.68	-48.3	-63.5	3.6	1.51e+00	0	29	104	1569718272	60	54097
2026-01-15 14:59:43.46	202.29	1.42	-48.3	-63.5	3.6	1.51e+00	0	28	104	1569718272	60	53806
2026-01-15 14:59:47.50	202.31	1.17	-48.2	-63.5	3.6	1.51e+00	0	28	104	1569718272	60	53811
2026-01-15 14:59:51.54	202.33	0.92	-48.2	-63.4	3.6	1.51e+00	0	28	104	1569718272	60	53610
2026-01-15 14:59:55.58	202.35	0.67	-48.2	-63.5	3.6	1.51e+00	0	28	104	1569718272	60	53843
2026-01-15 14:59:59.62	202.37	0.42	-48.2	-63.4	3.6	1.51e+00	0	29	104	1569718272	60	53455
2026-01-15 15:00:03.66	202.40	0.18	-48.2	-63.4	3.6	1.51e+00	0	29	104	1569718272	60	53237

#Closed at: 2026-01-15 15:00:06
#Recorded file [1569 MB]: D:/lorett/data/35029_260116_024434.dat