passes_logs/2026/01/15/R4.6S_Anadyr/R4.6S_Anadyr__20260115_114429_NOAA_20_JPSS-1_rec.log

#Pass ID: 20260115_114429_NOAA 20 (JPSS-1)
#Satellite: NOAA 20 (JPSS-1)
#Configuration: NOAA 20
#almurnet v.1.7.20251203
#Start time: 2026-01-15 11:44:34

#Version: 2.2.20231116
#Station: R4.6S_Anadyr
#Location: 177.4865 lon 64.73178 lat
#TLE: 1 43013U 17073A   26014.55467351  .00000038  00000+0  38801-4 0  9992
#TLE: 2 43013  98.7635 315.4987 0001517  39.9279 320.2008 14.19535859422677

#Time	Az	El	Level	Level2	SNR	BER	BlckErr	Temp	State	Recorded	gain1	gain2
2026-01-15 11:44:34.38	20.61	0.22	-48.8	-50.3	5.7	0.00e+00	0	26	0	0	60	40015
2026-01-15 11:44:37.40	20.89	0.35	-48.6	-63.8	3.6	1.51e+00	0	28	104	0	60	56121
2026-01-15 11:44:40.43	21.17	0.48	-48.6	-63.8	3.6	1.51e+00	0	28	104	0	60	56009
2026-01-15 11:44:43.46	21.45	0.60	-48.4	-63.6	3.6	1.51e+00	0	28	104	0	60	54761
2026-01-15 11:44:46.49	21.74	0.73	-48.1	-63.3	3.6	1.51e+00	0	28	104	0	60	52772
2026-01-15 11:44:49.52	22.03	0.86	-47.3	-62.5	3.6	1.51e+00	0	28	104	0	60	48205
2026-01-15 11:44:52.55	22.32	0.98	-46.9	-61.9	3.6	1.51e+00	0	28	104	0	60	44988
2026-01-15 11:44:55.58	22.61	1.11	-46.9	-62.0	3.6	1.51e+00	0	28	104	0	60	45472
2026-01-15 11:44:58.61	22.91	1.24	-46.9	-62.0	3.6	1.51e+00	0	28	104	0	60	45438
2026-01-15 11:45:01.64	23.21	1.36	-46.8	-62.0	3.6	1.51e+00	0	28	104	0	60	45485
2026-01-15 11:45:04.67	23.51	1.49	-46.8	-62.0	3.6	1.51e+00	0	28	104	0	60	45367
2026-01-15 11:45:07.70	23.81	1.61	-46.8	-62.0	3.6	1.51e+00	0	28	104	0	60	45330
2026-01-15 11:45:10.72	24.12	1.74	-46.8	-62.0	3.6	1.51e+00	0	28	104	0	60	45290
2026-01-15 11:45:13.75	24.43	1.87	-46.8	-62.0	3.6	1.51e+00	0	28	104	0	60	45338
2026-01-15 11:45:16.77	24.73	1.99	-46.8	-62.0	3.6	1.51e+00	0	28	104	0	60	45613
2026-01-15 11:45:19.80	25.05	2.12	-46.8	-62.0	3.6	1.51e+00	0	28	104	0	60	45434
2026-01-15 11:45:22.83	25.36	2.25	-46.8	-61.9	3.6	1.51e+00	0	28	104	0	60	44850
2026-01-15 11:45:25.86	25.68	2.37	-46.8	-61.9	3.6	1.51e+00	0	28	104	0	60	45125
2026-01-15 11:45:28.89	26.00	2.50	-46.8	-61.9	3.6	1.51e+00	0	28	104	0	60	45071
2026-01-15 11:45:31.92	26.33	2.62	-46.8	-60.6	3.6	1.51e+00	0	28	104	0	60	38860
2026-01-15 11:45:34.95	26.65	2.75	-45.9	-52.3	7.9	3.09e-01	0	28	0	1048576	60	14835
2026-01-15 11:45:37.98	26.98	2.87	-42.2	-44.4	16.5	0.00e+00	0	28	0	6291456	58	6769
2026-01-15 11:45:41.01	27.31	3.00	-42.3	-44.5	16.4	0.00e+00	0	28	0	12582912	56	7683
2026-01-15 11:45:44.04	27.65	3.12	-41.9	-43.9	17.1	1.37e-02	0	28	0	17825792	56	7114
2026-01-15 11:45:47.07	27.98	3.25	-43.0	-45.6	14.3	6.09e-01	0	28	104	18874368	56	8628
2026-01-15 11:45:50.10	28.32	3.37	-42.1	-44.2	16.8	0.00e+00	0	28	0	23068672	58	6575
2026-01-15 11:45:53.13	28.67	3.50	-43.2	-45.8	15.5	0.00e+00	0	28	0	28311552	58	7880
2026-01-15 11:45:56.16	29.01	3.62	-42.7	-45.0	16.5	0.00e+00	0	28	0	34603008	58	7177
2026-01-15 11:45:59.19	29.36	3.75	-42.3	-44.5	16.7	0.00e+00	0	29	0	39845888	58	6774
2026-01-15 11:46:02.22	29.71	3.87	-42.8	-45.2	15.8	0.00e+00	0	29	0	46137344	58	7345
2026-01-15 11:46:05.25	30.06	3.99	-42.9	-45.2	16.0	0.00e+00	0	29	0	51380224	58	7417
2026-01-15 11:46:08.28	30.42	4.12	-42.9	-45.4	15.8	0.00e+00	0	29	0	56623104	58	7514
2026-01-15 11:46:11.31	30.78	4.24	-43.4	-46.2	15.5	0.00e+00	0	29	0	62914560	58	8237
2026-01-15 11:46:14.34	31.14	4.36	-42.2	-44.3	17.2	0.00e+00	0	29	0	68157440	58	6662
2026-01-15 11:46:17.37	31.51	4.48	-40.9	-42.5	18.9	0.00e+00	0	29	0	74448896	56	6070
2026-01-15 11:46:20.40	31.88	4.60	-40.4	-41.9	19.4	0.00e+00	0	28	0	79691776	54	6332
2026-01-15 11:46:23.43	32.25	4.72	-40.1	-41.5	19.8	0.00e+00	0	28	0	85983232	54	6041
2026-01-15 11:46:26.45	32.62	4.84	-39.8	-41.2	20.1	0.00e+00	0	28	0	91226112	54	5845
2026-01-15 11:46:29.48	33.00	4.96	-39.7	-41.0	20.3	0.00e+00	0	28	0	96468992	52	6457
2026-01-15 11:46:32.50	33.37	5.08	-39.7	-41.0	20.4	0.00e+00	0	29	0	102760448	52	6440
2026-01-15 11:46:35.53	33.76	5.20	-39.5	-40.8	20.6	0.00e+00	0	29	0	108003328	52	6265
2026-01-15 11:46:38.56	34.14	5.32	-39.8	-41.1	20.3	0.00e+00	0	29	0	114294784	52	6472
2026-01-15 11:46:41.59	34.53	5.44	-39.8	-41.1	20.4	0.00e+00	0	29	0	119537664	52	6477
2026-01-15 11:46:44.62	34.92	5.56	-39.9	-41.3	20.1	0.00e+00	0	29	0	124780544	52	6620
2026-01-15 11:46:47.64	35.32	5.67	-40.0	-41.4	20.0	0.00e+00	0	29	0	131072000	52	6722
2026-01-15 11:46:50.67	35.72	5.79	-40.1	-41.5	19.8	0.00e+00	0	29	0	136314880	52	6818
2026-01-15 11:46:53.70	36.12	5.91	-40.3	-41.6	20.1	0.00e+00	0	29	0	142606336	52	6926
2026-01-15 11:46:56.73	36.52	6.02	-40.5	-41.9	19.8	0.00e+00	0	29	0	147849216	52	7150
2026-01-15 11:46:59.76	36.93	6.14	-40.0	-41.3	20.2	0.00e+00	0	29	0	154140672	52	6661
2026-01-15 11:47:02.78	37.34	6.25	-39.9	-41.2	20.3	0.00e+00	0	29	0	159383552	52	6581
2026-01-15 11:47:05.81	37.75	6.36	-40.1	-41.4	20.1	0.00e+00	0	29	0	164626432	52	6723
2026-01-15 11:47:08.83	38.17	6.47	-40.1	-41.5	20.0	0.00e+00	0	29	0	170917888	52	6777
2026-01-15 11:47:11.86	38.58	6.59	-39.9	-41.2	20.2	0.00e+00	0	29	0	176160768	52	6604
2026-01-15 11:47:14.89	39.01	6.70	-39.7	-41.0	20.6	0.00e+00	0	29	0	182452224	52	6391
2026-01-15 11:47:17.92	39.43	6.81	-39.8	-41.1	20.5	0.00e+00	0	29	0	187695104	52	6468
2026-01-15 11:47:20.95	39.86	6.92	-39.8	-41.1	20.5	0.00e+00	0	29	0	192937984	52	6528
2026-01-15 11:47:23.98	40.29	7.02	-39.5	-40.8	20.8	0.00e+00	0	29	0	199229440	52	6246
2026-01-15 11:47:27.01	40.73	7.13	-39.6	-40.9	20.8	0.00e+00	0	29	0	204472320	52	6318
2026-01-15 11:47:30.04	41.17	7.24	-39.6	-40.8	20.6	0.00e+00	0	29	0	210763776	52	6260
2026-01-15 11:47:33.07	41.61	7.34	-39.8	-41.1	20.5	0.00e+00	0	29	0	216006656	52	6480
2026-01-15 11:47:36.09	42.05	7.45	-40.0	-41.3	20.4	0.00e+00	0	29	0	222298112	52	6636
2026-01-15 11:47:39.12	42.50	7.55	-39.9	-41.1	20.5	0.00e+00	0	29	0	227540992	52	6528
2026-01-15 11:47:42.15	42.95	7.65	-39.9	-41.2	20.3	0.00e+00	0	29	0	232783872	52	6611
2026-01-15 11:47:45.18	43.40	7.75	-40.1	-41.4	20.3	0.00e+00	0	29	0	239075328	52	6768
2026-01-15 11:47:48.21	43.86	7.85	-40.2	-41.5	20.2	0.00e+00	0	29	0	244318208	52	6807
2026-01-15 11:47:51.25	44.32	7.95	-40.4	-41.8	19.8	0.00e+00	0	29	0	250609664	52	7011
2026-01-15 11:47:54.27	44.78	8.05	-39.9	-41.2	20.5	0.00e+00	0	29	0	255852544	52	6580
2026-01-15 11:47:57.30	45.25	8.15	-40.1	-41.4	20.3	0.00e+00	0	29	0	261095424	52	6751
2026-01-15 11:48:00.33	45.72	8.24	-40.2	-41.5	20.2	0.00e+00	0	29	0	267386880	52	6848
2026-01-15 11:48:03.36	46.19	8.34	-40.1	-41.4	20.3	0.00e+00	0	29	0	272629760	52	6758
2026-01-15 11:48:06.39	46.66	8.43	-40.1	-41.4	20.3	0.00e+00	0	29	0	278921216	52	6733
2026-01-15 11:48:09.42	47.14	8.52	-40.2	-41.5	20.3	0.00e+00	0	29	0	284164096	52	6807
2026-01-15 11:48:12.45	47.62	8.61	-40.3	-41.6	20.0	0.00e+00	0	29	0	290455552	52	6923
2026-01-15 11:48:15.48	48.10	8.70	-39.9	-41.2	20.6	0.00e+00	0	29	0	295698432	52	6586
2026-01-15 11:48:18.50	48.59	8.79	-39.8	-41.1	20.7	0.00e+00	0	29	0	300941312	52	6500
2026-01-15 11:48:21.53	49.07	8.87	-40.0	-41.3	20.5	0.00e+00	0	29	0	307232768	52	6654
2026-01-15 11:48:24.56	49.57	8.96	-39.9	-41.2	20.6	0.00e+00	0	29	0	312475648	52	6573
2026-01-15 11:48:27.59	50.06	9.04	-40.1	-41.4	20.4	0.00e+00	0	29	0	318767104	52	6728
2026-01-15 11:48:30.61	50.56	9.12	-39.8	-41.0	20.7	0.00e+00	0	29	0	324009984	52	6461
2026-01-15 11:48:33.65	51.06	9.20	-39.7	-40.9	20.9	0.00e+00	0	29	0	329252864	52	6382
2026-01-15 11:48:36.68	51.56	9.28	-39.8	-41.0	20.8	0.00e+00	0	29	0	335544320	52	6417
2026-01-15 11:48:39.70	52.06	9.35	-39.8	-41.0	20.7	0.00e+00	0	29	0	340787200	52	6426
2026-01-15 11:48:42.73	52.57	9.43	-39.8	-41.1	20.7	0.00e+00	0	29	0	347078656	52	6476
2026-01-15 11:48:45.76	53.08	9.50	-39.7	-41.0	20.8	0.00e+00	0	29	0	352321536	52	6404
2026-01-15 11:48:48.79	53.59	9.57	-39.6	-40.8	21.0	0.00e+00	0	29	0	357564416	52	6277
2026-01-15 11:48:51.82	54.11	9.64	-39.4	-40.6	21.2	0.00e+00	0	29	0	363855872	52	6115
2026-01-15 11:48:54.85	54.62	9.71	-39.4	-40.5	21.3	0.00e+00	0	29	0	369098752	52	6081
2026-01-15 11:48:57.88	55.14	9.77	-39.3	-40.5	21.3	0.00e+00	0	29	0	375390208	52	6057
2026-01-15 11:49:00.91	55.67	9.83	-39.4	-40.6	21.1	0.00e+00	0	29	0	380633088	52	6135
2026-01-15 11:49:03.94	56.19	9.90	-39.5	-40.7	21.1	0.00e+00	0	29	0	386924544	52	6223
2026-01-15 11:49:06.97	56.71	9.96	-39.6	-40.7	21.1	0.00e+00	0	29	0	392167424	52	6241
2026-01-15 11:49:10.00	57.24	10.01	-39.7	-40.9	20.9	0.00e+00	0	29	0	397410304	52	6343
2026-01-15 11:49:13.03	57.77	10.07	-39.5	-40.7	21.1	0.00e+00	0	29	0	403701760	52	6185
2026-01-15 11:49:16.05	58.30	10.12	-39.7	-40.9	21.0	0.00e+00	0	29	0	408944640	52	6348
2026-01-15 11:49:19.08	58.84	10.17	-40.1	-41.4	20.4	0.00e+00	0	29	0	415236096	52	6724
2026-01-15 11:49:22.11	59.37	10.22	-40.1	-41.4	20.5	0.00e+00	0	29	0	420478976	52	6737
2026-01-15 11:49:25.13	59.91	10.27	-40.3	-41.6	20.3	0.00e+00	0	29	0	425721856	52	6869
2026-01-15 11:49:28.16	60.45	10.32	-40.4	-41.7	20.2	0.00e+00	0	29	0	432013312	52	6989
2026-01-15 11:49:31.19	60.99	10.36	-40.6	-42.0	19.7	0.00e+00	0	29	0	437256192	54	6421
2026-01-15 11:49:34.22	61.53	10.40	-40.9	-42.4	19.5	0.00e+00	0	29	0	443547648	54	6721
2026-01-15 11:49:37.25	62.07	10.44	-40.8	-42.3	19.5	0.00e+00	0	29	0	448790528	54	6639
2026-01-15 11:49:40.28	62.62	10.48	-40.8	-42.2	19.7	0.00e+00	0	29	0	455081984	54	6577
2026-01-15 11:49:43.30	63.16	10.51	-40.1	-41.5	20.4	0.00e+00	0	29	0	460324864	54	6038
2026-01-15 11:49:46.33	63.71	10.54	-40.1	-41.5	20.4	0.00e+00	0	29	0	465567744	54	6038
2026-01-15 11:49:49.36	64.26	10.57	-40.4	-41.7	20.1	0.00e+00	0	29	0	471859200	54	6217
2026-01-15 11:49:52.38	64.81	10.60	-40.5	-41.8	20.0	0.00e+00	0	29	0	477102080	54	6308
2026-01-15 11:49:55.41	65.36	10.62	-40.2	-41.5	20.4	0.00e+00	0	29	0	483393536	54	6065
2026-01-15 11:49:58.44	65.91	10.65	-39.7	-40.9	20.8	0.00e+00	0	29	0	488636416	52	6388
2026-01-15 11:50:01.47	66.46	10.67	-39.9	-41.1	20.8	0.00e+00	0	29	0	493879296	52	6521
2026-01-15 11:50:04.50	67.02	10.69	-39.8	-41.0	20.8	0.00e+00	0	29	0	500170752	52	6443
2026-01-15 11:50:07.52	67.57	10.70	-39.8	-41.0	20.8	0.00e+00	0	29	0	505413632	52	6449
2026-01-15 11:50:10.55	68.12	10.72	-39.9	-41.2	20.6	0.00e+00	0	29	0	511705088	52	6567
2026-01-15 11:50:13.58	68.68	10.73	-39.8	-41.0	20.8	0.00e+00	0	29	0	516947968	52	6431
2026-01-15 11:50:16.61	69.23	10.74	-39.3	-40.5	21.2	0.00e+00	0	29	0	523239424	52	6047
2026-01-15 11:50:19.63	69.79	10.74	-39.4	-40.6	21.2	0.00e+00	0	29	0	528482304	52	6159
2026-01-15 11:50:22.66	70.34	10.75	-39.3	-40.5	21.2	0.00e+00	0	29	0	533725184	52	6055
2026-01-15 11:50:25.69	70.90	10.75	-39.7	-41.0	20.9	0.00e+00	0	29	0	540016640	52	6406
2026-01-15 11:50:28.72	71.46	10.75	-39.6	-40.8	21.0	0.00e+00	0	29	0	545259520	52	6298
2026-01-15 11:50:31.75	72.01	10.75	-39.0	-40.2	21.6	0.00e+00	0	29	0	551550976	52	5860
2026-01-15 11:50:34.78	72.57	10.74	-39.0	-40.3	21.4	0.00e+00	0	29	0	556793856	50	6645
2026-01-15 11:50:37.80	73.12	10.73	-38.6	-39.8	21.8	0.00e+00	0	29	0	562036736	50	6303
2026-01-15 11:50:40.84	73.68	10.72	-38.5	-39.6	21.9	0.00e+00	0	29	0	568328192	50	6165
2026-01-15 11:50:43.86	74.23	10.71	-38.1	-39.3	22.4	0.00e+00	0	29	0	573571072	50	5910
2026-01-15 11:50:46.89	74.79	10.69	-38.1	-39.3	22.3	0.00e+00	0	29	0	579862528	50	5923
2026-01-15 11:50:49.92	75.34	10.68	-38.0	-39.3	22.4	0.00e+00	0	29	0	585105408	50	5911
2026-01-15 11:50:52.94	75.89	10.66	-38.2	-39.5	22.2	0.00e+00	0	29	0	591396864	50	6064
2026-01-15 11:50:55.97	76.44	10.64	-38.2	-39.6	22.1	0.00e+00	0	29	0	596639744	50	6152
2026-01-15 11:50:59.00	77.00	10.61	-38.0	-39.4	22.4	0.00e+00	0	29	0	601882624	50	5974
2026-01-15 11:51:02.03	77.55	10.58	-38.3	-39.6	22.2	0.00e+00	0	29	0	608174080	50	6135
2026-01-15 11:51:05.06	78.10	10.56	-38.2	-39.4	22.3	0.00e+00	0	29	0	613416960	50	5981
2026-01-15 11:51:08.08	78.64	10.53	-38.5	-39.7	22.1	0.00e+00	0	29	0	619708416	50	6174
2026-01-15 11:51:11.11	79.19	10.49	-38.9	-40.0	21.8	0.00e+00	0	29	0	624951296	50	6419
2026-01-15 11:51:14.14	79.74	10.46	-39.2	-40.4	21.4	0.00e+00	0	29	0	630194176	50	6732
2026-01-15 11:51:17.17	80.28	10.42	-39.0	-40.1	21.5	0.00e+00	0	29	0	636485632	50	6535
2026-01-15 11:51:20.19	80.83	10.38	-38.7	-39.8	21.8	0.00e+00	0	29	0	641728512	50	6295
2026-01-15 11:51:23.22	81.37	10.34	-38.5	-39.6	21.8	0.00e+00	0	29	0	648019968	50	6135
2026-01-15 11:51:26.25	81.91	10.29	-38.5	-39.6	22.0	0.00e+00	0	29	0	653262848	50	6123
2026-01-15 11:51:29.29	82.45	10.24	-38.4	-39.6	22.0	0.00e+00	0	29	0	658505728	50	6108
2026-01-15 11:51:32.31	82.99	10.20	-38.4	-39.5	22.1	0.00e+00	0	29	0	664797184	50	6070
2026-01-15 11:51:35.34	83.52	10.15	-38.3	-39.4	22.2	0.00e+00	0	29	0	670040064	50	5986
2026-01-15 11:51:38.37	84.06	10.09	-38.4	-39.5	22.0	0.00e+00	0	29	0	676331520	50	6043
2026-01-15 11:51:41.40	84.59	10.04	-39.0	-40.1	22.1	0.00e+00	0	29	0	681574400	50	6486
2026-01-15 11:51:44.43	85.12	9.98	-38.1	-39.2	22.5	0.00e+00	0	29	0	687865856	50	5842
2026-01-15 11:51:47.46	85.65	9.92	-38.0	-39.0	22.5	0.00e+00	0	29	0	693108736	50	5748
2026-01-15 11:51:50.49	86.17	9.86	-38.0	-39.1	22.4	0.00e+00	0	29	0	698351616	50	5787
2026-01-15 11:51:53.52	86.70	9.80	-38.1	-39.3	22.3	0.00e+00	0	29	0	704643072	50	5925
2026-01-15 11:51:56.54	87.22	9.73	-38.0	-39.2	22.4	0.00e+00	0	29	0	709885952	50	5832
2026-01-15 11:51:59.57	87.74	9.67	-38.4	-39.4	22.2	0.00e+00	0	29	0	716177408	50	6014
2026-01-15 11:52:02.60	88.25	9.60	-38.3	-39.4	22.2	0.00e+00	0	29	0	721420288	50	6005
2026-01-15 11:52:05.64	88.77	9.53	-37.8	-39.2	22.4	0.00e+00	0	29	0	726663168	50	5872
2026-01-15 11:52:08.67	89.28	9.45	-37.5	-38.9	22.6	0.00e+00	0	29	0	732954624	48	6345
2026-01-15 11:52:11.70	89.79	9.38	-38.3	-39.4	22.2	0.00e+00	0	29	0	738197504	48	6697
2026-01-15 11:52:14.72	90.30	9.31	-38.2	-39.7	21.9	0.00e+00	0	29	0	744488960	48	6931
2026-01-15 11:52:17.75	90.80	9.23	-38.1	-39.6	22.0	0.00e+00	0	29	0	749731840	48	6899
2026-01-15 11:52:20.78	91.31	9.15	-38.2	-39.7	21.9	0.00e+00	0	29	0	756023296	48	6952
2026-01-15 11:52:23.80	91.80	9.07	-38.3	-39.8	21.6	0.00e+00	0	29	0	761266176	48	7042
2026-01-15 11:52:26.83	92.30	8.99	-38.7	-40.1	21.5	0.00e+00	0	29	0	766509056	48	7280
2026-01-15 11:52:29.86	92.80	8.90	-39.2	-40.5	21.1	0.00e+00	0	29	0	772800512	50	6789
2026-01-15 11:52:32.89	93.29	8.82	-39.6	-40.9	20.7	0.00e+00	0	29	0	778043392	50	7090
2026-01-15 11:52:35.92	93.78	8.73	-40.2	-41.6	20.1	0.00e+00	0	29	0	784334848	52	6863
2026-01-15 11:52:38.95	94.26	8.64	-40.4	-41.9	19.7	0.00e+00	0	29	0	789577728	52	7098
2026-01-15 11:52:41.97	94.74	8.55	-40.2	-41.6	20.0	0.00e+00	0	29	0	794820608	52	6913
2026-01-15 11:52:45.00	95.22	8.46	-39.9	-41.5	20.1	0.00e+00	0	29	0	801112064	52	6790
2026-01-15 11:52:48.03	95.70	8.37	-40.0	-41.5	20.1	0.00e+00	0	29	0	806354944	52	6837
2026-01-15 11:52:51.06	96.18	8.27	-39.9	-41.6	20.0	0.00e+00	0	29	0	812646400	52	6918
2026-01-15 11:52:54.08	96.65	8.18	-40.1	-41.9	19.7	0.00e+00	0	29	0	817889280	52	7137
2026-01-15 11:52:57.11	97.11	8.08	-40.9	-42.8	18.8	0.00e+00	0	29	0	824180736	54	7032
2026-01-15 11:53:00.14	97.58	7.98	-41.5	-43.4	18.2	0.00e+00	0	29	0	829423616	54	7555
2026-01-15 11:53:03.16	98.04	7.88	-41.2	-43.4	18.1	0.00e+00	0	29	0	834666496	54	7541
2026-01-15 11:53:06.19	98.50	7.78	-41.0	-43.1	18.4	0.00e+00	0	29	0	840957952	54	7286
2026-01-15 11:53:09.22	98.96	7.68	-40.5	-42.9	18.7	0.00e+00	0	29	0	846200832	54	7145
2026-01-15 11:53:12.25	99.41	7.58	-40.7	-42.7	18.9	0.00e+00	0	29	0	852492288	54	6970
2026-01-15 11:53:15.28	99.86	7.48	-41.0	-42.7	18.8	0.00e+00	0	29	0	857735168	54	6938
2026-01-15 11:53:18.30	100.31	7.37	-41.0	-43.0	18.6	0.00e+00	0	29	0	862978048	54	7225
2026-01-15 11:53:21.33	100.75	7.27	-41.4	-43.2	18.5	0.00e+00	0	29	0	869269504	54	7338
2026-01-15 11:53:24.36	101.19	7.16	-41.1	-42.7	18.8	0.00e+00	0	29	0	874512384	54	6955
2026-01-15 11:53:27.39	101.63	7.05	-40.6	-42.1	19.4	0.00e+00	0	29	0	880803840	54	6489
2026-01-15 11:53:30.42	102.06	6.94	-40.4	-42.4	18.9	0.00e+00	0	29	0	886046720	54	6761
2026-01-15 11:53:33.44	102.49	6.83	-40.2	-42.9	18.5	0.00e+00	0	29	0	892338176	54	7151
2026-01-15 11:53:36.47	102.92	6.72	-40.1	-42.8	18.6	0.00e+00	0	29	0	897581056	54	7020
2026-01-15 11:53:39.49	103.35	6.61	-40.5	-42.2	19.2	0.00e+00	0	29	0	902823936	54	6548
2026-01-15 11:53:42.52	103.77	6.50	-40.4	-41.9	19.4	0.00e+00	0	29	0	909115392	54	6356
2026-01-15 11:53:45.55	104.19	6.39	-40.3	-41.8	19.5	0.00e+00	0	29	0	914358272	54	6297
2026-01-15 11:53:48.57	104.60	6.27	-40.2	-42.0	19.3	0.00e+00	0	29	0	920649728	54	6416
2026-01-15 11:53:51.61	105.02	6.16	-39.1	-41.9	19.4	0.00e+00	0	29	0	925892608	52	7132
2026-01-15 11:53:54.63	105.43	6.04	-39.5	-41.7	19.5	0.00e+00	0	29	0	931135488	52	6996
2026-01-15 11:53:57.66	105.83	5.93	-40.5	-42.1	19.2	0.00e+00	0	29	0	937426944	52	7301
2026-01-15 11:54:00.69	106.24	5.81	-40.4	-42.1	19.2	0.00e+00	0	29	0	942669824	52	7326
2026-01-15 11:54:03.72	106.64	5.69	-39.9	-41.5	19.8	0.00e+00	0	29	0	948961280	52	6823
2026-01-15 11:54:06.74	107.03	5.58	-39.5	-40.9	20.3	0.00e+00	0	29	0	954204160	52	6331
2026-01-15 11:54:09.77	107.43	5.46	-38.3	-40.8	20.3	0.00e+00	0	29	0	959447040	50	7050
2026-01-15 11:54:12.80	107.82	5.34	-38.0	-40.9	20.2	0.00e+00	0	29	0	965738496	50	7169
2026-01-15 11:54:15.82	108.21	5.22	-38.8	-41.0	20.1	0.00e+00	0	29	0	970981376	50	7218
2026-01-15 11:54:18.85	108.59	5.10	-37.7	-40.7	20.4	0.00e+00	0	29	0	977272832	50	6995
2026-01-15 11:54:21.88	108.97	4.98	-39.2	-41.0	20.1	0.00e+00	0	29	0	982515712	50	7172
2026-01-15 11:54:24.90	109.35	4.86	-39.5	-41.2	19.8	0.00e+00	0	29	0	988807168	50	7377
2026-01-15 11:54:27.93	109.73	4.74	-40.2	-41.8	19.3	0.00e+00	0	29	0	994050048	52	7036
2026-01-15 11:54:30.96	110.10	4.62	-39.8	-41.5	19.6	0.00e+00	0	29	0	999292928	52	6805
2026-01-15 11:54:33.98	110.47	4.49	-39.6	-40.9	20.1	0.00e+00	0	29	0	1005584384	52	6389
2026-01-15 11:54:37.01	110.84	4.37	-39.5	-41.0	19.9	0.00e+00	0	29	0	1010827264	52	6438
2026-01-15 11:54:40.04	111.20	4.25	-39.8	-41.3	19.8	0.00e+00	0	29	0	1017118720	52	6620
2026-01-15 11:54:43.07	111.56	4.12	-40.0	-41.5	19.4	0.00e+00	0	29	0	1022361600	52	6847
2026-01-15 11:54:46.10	111.92	4.00	-39.8	-41.5	19.3	0.00e+00	0	29	0	1027604480	52	6782
2026-01-15 11:54:49.13	112.28	3.88	-38.8	-41.3	19.3	0.00e+00	0	29	0	1033895936	50	7460
2026-01-15 11:54:52.16	112.63	3.75	-39.4	-41.3	19.4	0.00e+00	0	29	0	1039138816	50	7453
2026-01-15 11:54:55.18	112.98	3.63	-39.7	-41.7	19.0	0.00e+00	0	29	0	1045430272	52	6968
2026-01-15 11:54:58.21	113.33	3.50	-39.9	-42.1	18.5	0.00e+00	0	29	0	1050673152	52	7300
2026-01-15 11:55:01.24	113.67	3.38	-39.5	-42.0	18.7	0.00e+00	0	29	0	1055916032	52	7189
2026-01-15 11:55:04.26	114.01	3.25	-39.8	-42.4	18.1	0.00e+00	0	29	0	1062207488	52	7540
2026-01-15 11:55:07.29	114.35	3.12	-40.0	-42.3	18.2	0.00e+00	0	29	0	1067450368	52	7470
2026-01-15 11:55:10.32	114.69	3.00	-40.5	-42.6	17.3	0.00e+00	0	29	0	1073741824	52	7768
2026-01-15 11:55:13.35	115.02	2.87	-47.9	-63.3	3.6	1.51e+00	0	29	104	1073741824	60	52957
2026-01-15 11:55:16.38	115.35	2.75	-48.5	-63.7	3.6	1.51e+00	0	29	104	1073741824	60	55030
2026-01-15 11:55:19.41	115.68	2.62	-48.3	-63.7	3.5	1.51e+00	0	29	104	1073741824	60	55545
2026-01-15 11:55:22.44	116.00	2.49	-48.5	-63.8	3.6	1.51e+00	0	29	104	1073741824	60	55997
2026-01-15 11:55:25.47	116.32	2.36	-48.5	-63.6	3.6	1.51e+00	0	29	104	1073741824	60	54893
2026-01-15 11:55:28.50	116.64	2.24	-48.5	-63.6	3.6	1.51e+00	0	29	104	1073741824	60	54904
2026-01-15 11:55:31.53	116.96	2.11	-48.4	-63.6	3.6	1.51e+00	0	29	104	1073741824	60	54716
2026-01-15 11:55:34.56	117.28	1.98	-48.4	-63.6	3.6	1.51e+00	0	29	104	1073741824	60	54696
2026-01-15 11:55:37.59	117.59	1.86	-48.4	-63.6	3.6	1.51e+00	0	29	104	1073741824	60	54678
2026-01-15 11:55:40.62	117.90	1.73	-48.4	-63.7	3.6	1.51e+00	0	29	104	1073741824	60	55042
2026-01-15 11:55:43.65	118.20	1.60	-48.4	-63.6	3.6	1.51e+00	0	29	104	1073741824	60	54726
2026-01-15 11:55:46.67	118.51	1.47	-48.4	-63.6	3.6	1.51e+00	0	29	104	1073741824	60	54653
2026-01-15 11:55:49.70	118.81	1.34	-48.4	-63.6	3.6	1.51e+00	0	29	104	1073741824	60	54715
2026-01-15 11:55:52.73	119.11	1.22	-48.4	-63.6	3.6	1.51e+00	0	29	104	1073741824	60	54777
2026-01-15 11:55:55.76	119.41	1.09	-48.4	-63.6	3.6	1.51e+00	0	29	104	1073741824	60	54829
2026-01-15 11:55:58.79	119.70	0.96	-48.4	-63.6	3.6	1.51e+00	0	29	104	1073741824	60	54450
2026-01-15 11:56:01.82	119.99	0.83	-48.4	-63.6	3.6	1.51e+00	0	29	104	1073741824	60	54532
2026-01-15 11:56:04.85	120.28	0.70	-48.4	-63.6	3.6	1.51e+00	0	29	104	1073741824	60	54966
2026-01-15 11:56:07.88	120.57	0.58	-48.4	-63.6	3.6	1.51e+00	0	29	104	1073741824	60	54581
2026-01-15 11:56:10.91	120.85	0.45	-48.4	-63.6	3.6	1.51e+00	0	29	104	1073741824	60	54666
2026-01-15 11:56:13.95	121.14	0.32	-48.4	-63.6	3.6	1.51e+00	0	29	104	1073741824	60	54579
2026-01-15 11:56:16.98	121.42	0.19	-48.4	-63.6	3.6	1.51e+00	0	29	104	1073741824	60	54731
2026-01-15 11:56:20.01	121.70	0.06	-48.4	-63.6	3.6	1.51e+00	0	29	104	1073741824	60	54480

#Closed at: 2026-01-15 11:56:22
#Recorded file [1073 MB]: D:/lorett/data/35029_260115_234434.dat