passes_logs/2026/01/15/R4.6S_Anadyr/R4.6S_Anadyr__20260115_182504_NOAA_20_JPSS-1_rec.log

#Pass ID: 20260115_182504_NOAA 20 (JPSS-1)
#Satellite: NOAA 20 (JPSS-1)
#Configuration: NOAA 20
#almurnet v.1.7.20251203
#Start time: 2026-01-15 18:25:06

#Version: 2.2.20231116
#Station: R4.6S_Anadyr
#Location: 177.4865 lon 64.73178 lat
#TLE: 1 43013U 17073A   26014.55467351  .00000038  00000+0  38801-4 0  9992
#TLE: 2 43013  98.7635 315.4987 0001517  39.9279 320.2008 14.19535859422677

#Time	Az	El	Level	Level2	SNR	BER	BlckErr	Temp	State	Recorded	gain1	gain2
2026-01-15 18:25:06.33	40.39	0.09	-48.0	-62.9	3.5	1.51e+00	0	24	0	0	60	50219
2026-01-15 18:25:10.36	40.11	0.29	-48.2	-63.4	3.6	1.51e+00	0	26	104	0	60	53615
2026-01-15 18:25:14.40	39.81	0.49	-48.0	-63.3	3.6	1.51e+00	0	26	104	0	60	52947
2026-01-15 18:25:18.44	39.52	0.69	-47.8	-63.0	3.6	1.51e+00	0	26	104	0	60	50992
2026-01-15 18:25:22.48	39.22	0.90	-46.5	-61.7	3.6	1.51e+00	0	26	104	0	60	43845
2026-01-15 18:25:26.51	38.91	1.10	-46.3	-61.5	3.6	1.51e+00	0	26	104	0	60	42850
2026-01-15 18:25:30.55	38.61	1.31	-46.3	-61.5	3.6	1.51e+00	0	26	104	0	60	42785
2026-01-15 18:25:34.59	38.29	1.51	-46.3	-61.4	3.6	1.51e+00	0	26	104	0	60	42559
2026-01-15 18:25:38.63	37.97	1.72	-46.3	-61.5	3.6	1.51e+00	0	26	104	0	60	42820
2026-01-15 18:25:42.67	37.65	1.93	-46.3	-61.3	3.6	1.51e+00	0	26	104	0	60	41784
2026-01-15 18:25:46.70	37.33	2.14	-46.2	-61.0	3.6	1.51e+00	0	26	104	0	60	40552
2026-01-15 18:25:50.74	36.99	2.34	-46.2	-61.4	3.6	1.51e+00	0	26	104	0	60	42244
2026-01-15 18:25:54.78	36.66	2.55	-46.2	-61.1	3.6	1.51e+00	0	26	104	0	60	40855
2026-01-15 18:25:58.82	36.31	2.76	-46.2	-60.9	3.6	1.51e+00	0	26	104	0	60	40188
2026-01-15 18:26:02.86	35.97	2.97	-45.2	-51.3	8.3	1.21e-01	27	26	0	1048576	60	13347
2026-01-15 18:26:06.90	35.61	3.18	-45.9	-55.6	3.6	0.00e+00	61	26	0	8388608	60	21902
2026-01-15 18:26:10.94	35.26	3.40	-42.6	-45.3	15.2	0.00e+00	0	26	0	11534336	60	6618
2026-01-15 18:26:14.98	34.89	3.61	-41.6	-43.7	17.0	0.00e+00	92	26	0	18874368	56	6940
2026-01-15 18:26:19.01	34.53	3.82	-41.5	-43.6	17.1	0.00e+00	0	26	0	27262976	56	6872
2026-01-15 18:26:23.05	34.15	4.03	-41.2	-43.1	17.7	0.00e+00	54	26	0	34603008	56	6487
2026-01-15 18:26:27.09	33.77	4.25	-41.3	-43.3	17.5	0.00e+00	23	27	0	41943040	56	6626
2026-01-15 18:26:31.13	33.39	4.46	-41.4	-43.4	17.4	0.00e+00	92	26	0	49283072	56	6729
2026-01-15 18:26:35.16	33.00	4.67	-41.5	-43.5	17.2	0.00e+00	0	26	0	57671680	56	6773
2026-01-15 18:26:39.20	32.60	4.89	-41.4	-43.2	17.7	0.00e+00	26	26	0	65011712	56	6596
2026-01-15 18:26:43.23	32.19	5.10	-41.3	-43.1	17.9	0.00e+00	2	27	0	72351744	56	6501
2026-01-15 18:26:47.28	31.78	5.32	-41.1	-42.9	18.1	0.00e+00	73	27	0	79691776	56	6336
2026-01-15 18:26:51.31	31.37	5.54	-41.3	-43.1	17.9	0.00e+00	0	27	0	87031808	56	6490
2026-01-15 18:26:55.35	30.95	5.75	-41.0	-42.8	18.3	0.00e+00	0	27	0	95420416	56	6251
2026-01-15 18:26:59.39	30.52	5.97	-41.0	-42.7	18.4	0.00e+00	92	27	0	102760448	56	6216
2026-01-15 18:27:03.43	30.08	6.19	-40.8	-42.5	18.6	0.00e+00	52	27	0	110100480	56	6053
2026-01-15 18:27:07.46	29.64	6.40	-40.6	-42.2	18.8	0.00e+00	0	27	0	117440512	54	6585
2026-01-15 18:27:11.50	29.19	6.62	-40.3	-41.8	19.2	0.00e+00	0	27	0	125829120	54	6275
2026-01-15 18:27:15.54	28.73	6.84	-40.2	-41.6	19.4	0.00e+00	92	27	0	133169152	54	6168
2026-01-15 18:27:19.58	28.27	7.06	-40.1	-41.5	19.6	0.00e+00	0	27	0	140509184	54	6069
2026-01-15 18:27:23.62	27.80	7.27	-40.0	-41.4	19.6	0.00e+00	0	27	0	147849216	54	6008
2026-01-15 18:27:27.66	27.32	7.49	-39.7	-41.1	20.0	0.00e+00	54	27	0	155189248	52	6504
2026-01-15 18:27:31.70	26.84	7.71	-39.6	-40.9	20.2	0.00e+00	92	27	0	163577856	52	6389
2026-01-15 18:27:35.74	26.34	7.93	-39.7	-41.1	20.1	0.00e+00	6	27	0	170917888	52	6494
2026-01-15 18:27:39.78	25.84	8.14	-39.9	-41.3	19.9	0.00e+00	0	27	0	178257920	52	6666
2026-01-15 18:27:43.82	25.34	8.36	-39.8	-41.2	20.1	0.00e+00	0	27	0	185597952	52	6559
2026-01-15 18:27:47.86	24.82	8.58	-39.6	-40.9	20.3	0.00e+00	92	27	0	193986560	52	6390
2026-01-15 18:27:51.90	24.30	8.79	-39.7	-41.0	20.3	0.00e+00	8	27	0	201326592	52	6419
2026-01-15 18:27:55.93	23.77	9.01	-39.5	-40.7	20.5	0.00e+00	7	27	0	208666624	52	6224
2026-01-15 18:27:59.97	23.23	9.22	-39.3	-40.5	20.7	0.00e+00	5	27	0	216006656	52	6099
2026-01-15 18:28:04.01	22.68	9.44	-39.6	-40.9	20.4	0.00e+00	81	27	0	223346688	52	6373
2026-01-15 18:28:08.05	22.12	9.65	-39.4	-40.7	20.6	0.00e+00	28	27	0	231735296	52	6203
2026-01-15 18:28:12.09	21.56	9.87	-39.4	-40.6	20.7	0.00e+00	54	27	0	239075328	52	6141
2026-01-15 18:28:16.12	20.98	10.08	-39.4	-40.6	20.8	0.00e+00	18	27	0	246415360	52	6143
2026-01-15 18:28:20.16	20.40	10.29	-39.2	-40.4	20.9	0.00e+00	91	27	0	253755392	52	6011
2026-01-15 18:28:24.20	19.81	10.50	-39.5	-40.8	20.6	0.00e+00	28	27	0	262144000	52	6265
2026-01-15 18:28:28.25	19.21	10.71	-39.3	-40.5	20.8	0.00e+00	22	27	0	269484032	52	6082
2026-01-15 18:28:32.29	18.60	10.92	-39.2	-40.5	20.9	0.00e+00	92	27	0	276824064	52	6085
2026-01-15 18:28:36.33	17.99	11.12	-39.1	-40.3	21.1	0.00e+00	0	27	0	284164096	52	5929
2026-01-15 18:28:40.37	17.36	11.33	-39.0	-40.1	21.2	0.00e+00	0	27	0	291504128	52	5827
2026-01-15 18:28:44.41	16.73	11.53	-38.6	-39.7	21.6	0.00e+00	0	27	0	299892736	50	6229
2026-01-15 18:28:48.45	16.08	11.73	-38.5	-39.6	21.7	0.00e+00	92	27	0	307232768	50	6128
2026-01-15 18:28:52.48	15.43	11.93	-37.9	-38.9	22.4	0.00e+00	51	27	0	314572800	50	5659
2026-01-15 18:28:56.52	14.77	12.12	-38.1	-39.1	22.2	0.00e+00	57	27	0	321912832	50	5798
2026-01-15 18:29:00.56	14.10	12.32	-37.8	-38.8	22.5	0.00e+00	0	27	0	330301440	50	5607
2026-01-15 18:29:04.60	13.42	12.51	-38.1	-39.1	22.3	0.00e+00	90	27	0	337641472	50	5803
2026-01-15 18:29:08.63	12.74	12.70	-37.6	-38.6	22.6	0.00e+00	0	27	0	344981504	48	6164
2026-01-15 18:29:12.67	12.04	12.89	-37.5	-38.5	22.9	0.00e+00	29	27	0	352321536	48	6052
2026-01-15 18:29:16.71	11.33	13.07	-37.2	-38.1	23.1	0.00e+00	0	27	0	359661568	48	5810
2026-01-15 18:29:20.75	10.62	13.25	-37.0	-38.0	23.4	0.00e+00	90	27	0	368050176	48	5711
2026-01-15 18:29:24.79	9.89	13.43	-36.9	-37.8	23.5	0.00e+00	0	27	0	375390208	48	5620
2026-01-15 18:29:28.83	9.16	13.60	-37.0	-38.0	23.4	0.00e+00	0	27	0	382730240	48	5716
2026-01-15 18:29:32.88	8.42	13.78	-37.3	-38.3	23.0	0.00e+00	14	27	0	390070272	48	5897
2026-01-15 18:29:36.91	7.67	13.94	-37.5	-38.5	22.9	0.00e+00	92	27	0	398458880	48	6077
2026-01-15 18:29:40.95	6.91	14.11	-37.5	-38.4	23.0	0.00e+00	0	27	0	405798912	48	6027
2026-01-15 18:29:44.99	6.14	14.27	-37.2	-38.2	23.2	0.00e+00	0	27	0	413138944	48	5864
2026-01-15 18:29:49.03	5.37	14.42	-37.2	-38.1	23.3	0.00e+00	33	27	0	420478976	48	5811
2026-01-15 18:29:53.06	4.59	14.57	-37.0	-37.9	23.6	0.00e+00	92	27	0	427819008	48	5646
2026-01-15 18:29:57.10	3.80	14.72	-37.1	-38.0	23.4	0.00e+00	58	27	0	436207616	48	5749
2026-01-15 18:30:01.10	3.00	14.86	-36.8	-37.7	23.3	0.00e+00	0	27	0	443547648	48	5539
2026-01-15 18:30:05.14	2.20	14.99	-37.0	-38.0	23.5	0.00e+00	92	27	0	450887680	48	5707
2026-01-15 18:30:09.18	1.38	15.13	-36.8	-37.7	23.8	0.00e+00	57	27	0	458227712	48	5564
2026-01-15 18:30:13.22	0.56	15.25	-37.0	-37.9	23.5	0.00e+00	0	27	0	465567744	48	5683
2026-01-15 18:30:17.26	359.73	15.37	-36.8	-37.7	23.7	0.00e+00	52	27	0	473956352	46	6220
2026-01-15 18:30:21.30	358.90	15.49	-37.2	-38.1	23.3	0.00e+00	92	27	0	481296384	46	6507
2026-01-15 18:30:25.33	358.06	15.60	-37.0	-37.9	23.5	0.00e+00	52	27	0	488636416	46	6327
2026-01-15 18:30:29.37	357.21	15.70	-37.0	-37.9	23.5	0.00e+00	0	27	0	495976448	46	6377
2026-01-15 18:30:33.41	356.36	15.80	-37.0	-37.9	23.6	0.00e+00	23	27	0	504365056	46	6348
2026-01-15 18:30:37.45	355.50	15.90	-37.4	-38.4	23.0	0.00e+00	91	27	0	511705088	46	6739
2026-01-15 18:30:41.49	354.63	15.98	-37.2	-38.2	23.2	0.00e+00	29	27	0	519045120	46	6603
2026-01-15 18:30:45.53	353.76	16.06	-37.6	-38.6	23.0	0.00e+00	0	27	0	526385152	46	6850
2026-01-15 18:30:49.56	352.89	16.13	-37.2	-38.2	23.2	0.00e+00	0	27	0	533725184	46	6577
2026-01-15 18:30:53.60	352.02	16.20	-37.3	-38.3	23.2	0.00e+00	93	27	0	542113792	46	6616
2026-01-15 18:30:57.64	351.13	16.26	-37.4	-38.3	23.3	0.00e+00	59	27	0	549453824	46	6631
2026-01-15 18:31:01.68	350.25	16.31	-37.6	-38.5	22.8	0.00e+00	29	27	0	556793856	46	6818
2026-01-15 18:31:05.72	349.36	16.36	-37.6	-38.6	23.0	0.00e+00	58	27	0	564133888	48	6107
2026-01-15 18:31:09.76	348.47	16.40	-37.6	-38.6	22.9	0.00e+00	92	27	0	572522496	48	6127
2026-01-15 18:31:13.80	347.58	16.43	-37.6	-38.6	23.0	0.00e+00	0	27	0	579862528	48	6108
2026-01-15 18:31:17.84	346.68	16.46	-37.4	-38.4	23.1	0.00e+00	0	27	0	587202560	48	6003
2026-01-15 18:31:21.88	345.79	16.47	-37.5	-38.4	23.1	0.00e+00	0	27	0	594542592	48	6019
2026-01-15 18:31:25.91	344.89	16.48	-37.3	-38.3	23.2	0.00e+00	92	27	0	601882624	48	5905
2026-01-15 18:31:29.95	344.00	16.49	-37.5	-38.4	23.1	0.00e+00	0	27	0	610271232	48	6028
2026-01-15 18:31:33.99	343.10	16.48	-37.8	-38.7	22.8	0.00e+00	0	27	0	617611264	48	6241
2026-01-15 18:31:38.03	342.20	16.47	-37.3	-38.2	23.2	0.00e+00	0	27	0	624951296	48	5879
2026-01-15 18:31:42.07	341.31	16.46	-37.4	-38.4	23.1	0.00e+00	91	27	0	632291328	48	5977
2026-01-15 18:31:46.11	340.41	16.43	-37.7	-38.8	22.8	0.00e+00	2	27	0	640679936	48	6251
2026-01-15 18:31:50.14	339.52	16.40	-37.8	-38.9	22.6	0.00e+00	0	27	0	648019968	48	6323
2026-01-15 18:31:54.18	338.63	16.36	-37.4	-38.5	23.0	0.00e+00	91	27	0	655360000	48	6052
2026-01-15 18:31:58.22	337.74	16.32	-37.3	-38.3	23.1	0.00e+00	30	27	0	662700032	48	5963
2026-01-15 18:32:02.26	336.86	16.26	-37.5	-38.5	23.1	0.00e+00	23	27	0	670040064	48	6065
2026-01-15 18:32:06.29	335.98	16.20	-37.3	-38.3	23.2	0.00e+00	53	27	0	678428672	48	5911
2026-01-15 18:32:10.33	335.10	16.14	-37.1	-38.1	23.4	0.00e+00	92	27	0	685768704	48	5774
2026-01-15 18:32:14.37	334.23	16.06	-37.2	-38.2	23.3	0.00e+00	0	27	0	693108736	48	5834
2026-01-15 18:32:18.41	333.36	15.98	-36.8	-37.8	23.8	0.00e+00	0	27	0	700448768	48	5571
2026-01-15 18:32:22.45	332.49	15.90	-37.0	-37.9	23.3	0.00e+00	52	27	0	708837376	48	5647
2026-01-15 18:32:26.49	331.63	15.81	-37.3	-38.2	23.2	0.00e+00	91	27	0	716177408	48	5883
2026-01-15 18:32:30.53	330.78	15.71	-37.3	-38.2	23.2	0.00e+00	0	27	0	723517440	48	5890
2026-01-15 18:32:34.56	329.93	15.61	-37.2	-38.2	23.2	0.00e+00	0	27	0	730857472	48	5833
2026-01-15 18:32:38.60	329.09	15.50	-37.4	-38.4	23.1	0.00e+00	0	27	0	738197504	48	5991
2026-01-15 18:32:42.64	328.25	15.38	-37.7	-38.7	22.9	0.00e+00	91	27	0	746586112	48	6177
2026-01-15 18:32:46.68	327.42	15.26	-37.7	-38.7	22.8	0.00e+00	26	27	0	753926144	48	6194
2026-01-15 18:32:50.71	326.60	15.13	-37.8	-38.8	22.8	0.00e+00	0	27	0	761266176	48	6300
2026-01-15 18:32:54.75	325.79	15.00	-37.6	-38.5	23.0	0.00e+00	0	27	0	768606208	48	6077
2026-01-15 18:32:58.79	324.98	14.86	-37.4	-38.3	23.2	0.00e+00	51	27	0	776994816	48	5924
2026-01-15 18:33:02.83	324.18	14.72	-37.3	-38.2	23.2	0.00e+00	25	27	0	784334848	48	5888
2026-01-15 18:33:06.87	323.39	14.58	-37.4	-38.4	23.0	0.00e+00	65	27	0	791674880	48	5990
2026-01-15 18:33:10.90	322.61	14.43	-37.3	-38.3	23.2	0.00e+00	86	27	0	799014912	48	5901
2026-01-15 18:33:14.93	321.83	14.27	-37.4	-38.3	23.1	0.00e+00	12	27	0	806354944	48	5939
2026-01-15 18:33:18.98	321.06	14.11	-37.1	-38.0	23.4	0.00e+00	6	27	0	814743552	48	5752
2026-01-15 18:33:23.02	320.30	13.95	-37.5	-38.4	23.0	0.00e+00	28	27	0	822083584	48	6032
2026-01-15 18:33:27.06	319.55	13.78	-37.7	-38.7	22.8	0.00e+00	77	27	0	829423616	48	6218
2026-01-15 18:33:31.10	318.81	13.61	-37.3	-38.2	23.2	0.00e+00	0	27	0	836763648	48	5867
2026-01-15 18:33:35.14	318.07	13.43	-37.8	-38.8	22.7	0.00e+00	56	27	0	845152256	48	6262
2026-01-15 18:33:39.17	317.35	13.26	-38.3	-39.3	22.2	0.00e+00	0	27	0	852492288	48	6670
2026-01-15 18:33:43.21	316.63	13.08	-38.3	-39.3	22.1	0.00e+00	92	27	0	859832320	48	6685
2026-01-15 18:33:47.25	315.93	12.89	-38.4	-39.5	21.9	0.00e+00	0	27	0	867172352	48	6801
2026-01-15 18:33:51.29	315.23	12.71	-38.9	-40.0	21.5	0.00e+00	0	27	0	874512384	50	6457
2026-01-15 18:33:55.32	314.54	12.52	-39.1	-40.3	21.3	0.00e+00	0	27	0	882900992	50	6640
2026-01-15 18:33:59.37	313.86	12.32	-39.4	-40.6	21.0	0.00e+00	90	27	0	890241024	50	6865
2026-01-15 18:34:03.41	313.19	12.13	-39.3	-40.5	21.1	0.00e+00	0	27	0	897581056	50	6815
2026-01-15 18:34:07.45	312.52	11.93	-39.8	-41.0	20.6	0.00e+00	26	27	0	904921088	52	6455
2026-01-15 18:34:11.49	311.87	11.73	-40.0	-41.3	20.3	0.00e+00	0	27	0	913309696	52	6690
2026-01-15 18:34:15.53	311.23	11.53	-39.9	-41.2	20.3	0.00e+00	90	27	0	920649728	52	6604
2026-01-15 18:34:19.57	310.59	11.33	-39.8	-41.1	20.3	0.00e+00	0	27	0	927989760	52	6522
2026-01-15 18:34:23.61	309.96	11.13	-39.9	-41.2	20.4	0.00e+00	24	27	0	935329792	52	6585
2026-01-15 18:34:27.65	309.35	10.92	-40.1	-41.4	20.2	0.00e+00	0	27	0	942669824	52	6719
2026-01-15 18:34:31.69	308.74	10.71	-39.9	-41.2	20.3	0.00e+00	91	27	0	951058432	52	6611
2026-01-15 18:34:35.73	308.14	10.50	-40.0	-41.3	20.2	0.00e+00	5	27	0	958398464	52	6655
2026-01-15 18:34:39.77	307.55	10.29	-39.9	-41.2	20.3	0.00e+00	0	27	0	965738496	52	6608
2026-01-15 18:34:43.80	306.96	10.08	-39.6	-40.8	20.7	0.00e+00	0	27	0	973078528	52	6286
2026-01-15 18:34:47.84	306.39	9.87	-39.4	-40.6	20.9	0.00e+00	92	27	0	981467136	52	6146
2026-01-15 18:34:51.88	305.82	9.66	-39.2	-40.3	21.2	0.00e+00	62	27	0	988807168	52	5951
2026-01-15 18:34:55.92	305.27	9.44	-39.1	-40.3	21.2	0.00e+00	5	27	0	996147200	52	5929
2026-01-15 18:34:59.96	304.72	9.23	-39.0	-40.2	21.3	0.00e+00	89	27	0	1003487232	52	5843
2026-01-15 18:35:04.00	304.18	9.01	-38.5	-39.6	21.7	0.00e+00	19	27	0	1010827264	50	6113
2026-01-15 18:35:08.04	303.64	8.80	-38.6	-39.7	21.6	0.00e+00	23	27	0	1019215872	50	6230
2026-01-15 18:35:12.08	303.12	8.58	-38.2	-39.2	22.1	0.00e+00	57	27	0	1026555904	50	5893
2026-01-15 18:35:16.12	302.60	8.36	-38.1	-39.1	22.1	0.00e+00	92	27	0	1033895936	50	5812
2026-01-15 18:35:20.16	302.09	8.15	-37.9	-38.9	22.3	0.00e+00	2	27	0	1041235968	50	5654
2026-01-15 18:35:24.20	301.59	7.93	-38.2	-39.3	21.9	0.00e+00	23	27	0	1049624576	50	5904
2026-01-15 18:35:28.23	301.10	7.71	-38.7	-39.9	21.2	0.00e+00	0	27	0	1056964608	50	6353
2026-01-15 18:35:32.27	300.61	7.50	-38.2	-39.2	22.0	0.00e+00	92	27	0	1064304640	50	5893
2026-01-15 18:35:36.31	300.13	7.28	-38.0	-39.1	22.1	0.00e+00	60	27	0	1071644672	50	5791
2026-01-15 18:35:40.36	299.66	7.06	-38.2	-39.3	21.8	0.00e+00	2	27	0	1078984704	50	5928
2026-01-15 18:35:44.40	299.19	6.84	-38.5	-39.6	21.5	0.00e+00	0	27	0	1087373312	50	6148
2026-01-15 18:35:48.44	298.74	6.62	-38.5	-39.7	21.4	0.00e+00	92	27	0	1094713344	50	6182
2026-01-15 18:35:52.48	298.28	6.41	-38.5	-39.6	21.4	0.00e+00	58	27	0	1102053376	50	6171
2026-01-15 18:35:56.51	297.84	6.19	-38.4	-39.5	21.5	0.00e+00	0	27	0	1109393408	50	6094
2026-01-15 18:36:00.55	297.41	5.97	-38.5	-39.6	21.5	0.00e+00	0	27	0	1117782016	50	6137
2026-01-15 18:36:04.58	296.98	5.76	-39.1	-40.4	20.7	0.00e+00	21	27	0	1125122048	50	6694
2026-01-15 18:36:08.62	296.55	5.54	-39.1	-40.4	20.6	0.00e+00	7	27	0	1133510656	50	6714
2026-01-15 18:36:12.66	296.13	5.32	-39.4	-40.7	20.3	0.00e+00	0	27	0	1140850688	50	6943
2026-01-15 18:36:16.69	295.72	5.11	-39.4	-40.6	20.3	0.00e+00	92	27	0	1148190720	50	6926
2026-01-15 18:36:20.73	295.32	4.89	-39.7	-41.1	19.8	0.00e+00	4	27	0	1155530752	50	7273
2026-01-15 18:36:24.77	294.92	4.68	-39.4	-40.8	20.1	0.00e+00	60	27	0	1162870784	52	6247
2026-01-15 18:36:28.80	294.53	4.46	-40.2	-41.7	19.3	0.00e+00	0	27	0	1171259392	52	6944
2026-01-15 18:36:32.84	294.14	4.25	-40.2	-41.8	19.1	0.00e+00	92	27	0	1178599424	52	7014
2026-01-15 18:36:36.88	293.76	4.03	-40.4	-41.9	18.9	0.00e+00	0	27	0	1185939456	52	7158
2026-01-15 18:36:40.92	293.38	3.82	-40.4	-42.0	18.7	0.00e+00	19	27	0	1193279488	52	7197
2026-01-15 18:36:44.96	293.01	3.61	-40.5	-42.2	18.5	0.00e+00	0	27	0	1201668096	52	7361
2026-01-15 18:36:49.00	292.65	3.40	-40.5	-42.2	18.5	0.00e+00	92	27	0	1209008128	54	6587
2026-01-15 18:36:53.04	292.29	3.18	-40.8	-42.6	18.0	0.00e+00	0	27	0	1216348160	54	6915
2026-01-15 18:36:57.08	291.94	2.97	-47.2	-62.3	3.6	7.70e-01	0	27	104	1222639616	60	47009
2026-01-15 18:37:01.12	291.59	2.76	-48.1	-63.3	3.6	1.51e+00	0	27	104	1222639616	60	52690
2026-01-15 18:37:05.16	291.24	2.55	-48.2	-63.4	3.6	1.51e+00	0	27	104	1222639616	60	53440
2026-01-15 18:37:09.20	290.91	2.34	-48.0	-63.3	3.6	1.51e+00	0	27	104	1222639616	60	52725
2026-01-15 18:37:13.24	290.57	2.14	-48.1	-63.2	3.6	1.51e+00	0	27	104	1222639616	60	52418
2026-01-15 18:37:17.27	290.25	1.93	-48.2	-63.4	3.6	1.51e+00	0	27	104	1222639616	60	53331
2026-01-15 18:37:21.31	289.92	1.72	-48.1	-63.3	3.6	1.51e+00	0	27	104	1222639616	60	52881
2026-01-15 18:37:25.35	289.60	1.51	-48.1	-63.3	3.6	1.51e+00	0	27	104	1222639616	60	52736
2026-01-15 18:37:29.39	289.29	1.31	-48.1	-63.3	3.6	1.51e+00	0	27	104	1222639616	60	52879
2026-01-15 18:37:33.43	288.98	1.10	-48.0	-63.2	3.6	1.51e+00	0	27	104	1222639616	60	52528
2026-01-15 18:37:37.46	288.67	0.90	-48.0	-63.2	3.6	1.51e+00	0	27	104	1222639616	60	52361
2026-01-15 18:37:41.49	288.37	0.69	-48.0	-63.2	3.6	1.51e+00	0	27	104	1222639616	60	52093
2026-01-15 18:37:45.53	288.07	0.49	-48.1	-63.3	3.6	1.51e+00	0	27	104	1222639616	60	52803
2026-01-15 18:37:49.58	287.78	0.29	-48.0	-63.2	3.6	1.51e+00	0	27	104	1222639616	60	52499
2026-01-15 18:37:53.62	287.49	0.09	-48.0	-63.2	3.6	1.51e+00	0	27	104	1222639616	60	52458
2026-01-15 18:37:57.65	287.21	-0.11	-48.0	-63.2	3.6	1.51e+00	0	27	104	1222639616	60	52159

#Closed at: 2026-01-15 18:37:58
#Recorded file [1222 MB]: D:/lorett/data/35029_260116_062506.dat