passes_logs/2026/01/15/R4.6S_Anadyr/R4.6S_Anadyr__20260115_130406_SUOMI_NPP_rec.log

#Pass ID: 20260115_130406_SUOMI NPP
#Satellite: SUOMI NPP
#Configuration: NPP
#almurnet v.1.7.20251203
#Start time: 2026-01-15 13:04:09

#Version: 2.2.20231116
#Station: R4.6S_Anadyr
#Location: 177.4865 lon 64.73178 lat
#TLE: 1 37849U 11061A   26014.61059675  .00000037  00000+0  38639-4 0  9994
#TLE: 2 37849  98.7810 316.6625 0002460  64.3781 295.7649 14.19525105736658

#Time	Az	El	Level	Level2	SNR	BER	BlckErr	Temp	State	Recorded	gain1	gain2
2026-01-15 13:04:09.18	18.92	0.17	-48.4	-62.2	3.3	1.54e+00	0	27	0	0	60	46549
2026-01-15 13:04:13.21	19.15	0.38	-48.5	-63.7	3.6	1.51e+00	0	28	104	0	60	55422
2026-01-15 13:04:17.25	19.38	0.60	-48.3	-63.5	3.6	1.51e+00	0	28	104	0	60	54038
2026-01-15 13:04:21.29	19.62	0.82	-47.5	-62.7	3.6	1.51e+00	0	28	104	0	60	49125
2026-01-15 13:04:25.33	19.86	1.05	-46.8	-61.9	3.6	1.51e+00	0	28	104	0	60	44937
2026-01-15 13:04:29.37	20.10	1.27	-46.8	-62.0	3.6	1.51e+00	0	28	104	0	60	45392
2026-01-15 13:04:33.40	20.34	1.49	-46.8	-61.9	3.6	1.51e+00	0	28	104	0	60	45214
2026-01-15 13:04:37.44	20.59	1.72	-46.8	-61.8	3.6	1.51e+00	0	28	104	0	60	44652
2026-01-15 13:04:41.48	20.84	1.95	-46.8	-61.9	3.6	1.51e+00	0	28	104	0	60	44972
2026-01-15 13:04:45.52	21.09	2.18	-46.8	-61.8	3.6	1.51e+00	0	28	104	0	60	44609
2026-01-15 13:04:49.55	21.35	2.41	-46.7	-60.6	3.6	1.51e+00	0	28	104	0	60	38917
2026-01-15 13:04:53.60	21.62	2.64	-45.5	-51.1	9.3	6.11e-02	0	28	0	2097152	60	12925
2026-01-15 13:04:57.64	21.88	2.87	-41.6	-43.6	17.3	0.00e+00	0	28	0	10485760	56	6853
2026-01-15 13:05:01.68	22.15	3.11	-41.8	-43.9	16.9	0.00e+00	0	28	0	17825792	54	7986
2026-01-15 13:05:05.72	22.43	3.34	-46.6	-60.1	3.6	7.00e-07	0	28	104	25165824	60	36550
2026-01-15 13:05:09.76	22.71	3.58	-43.3	-46.2	5.9	1.49e+00	0	28	104	27262976	60	7421
2026-01-15 13:05:13.80	22.99	3.82	-40.7	-42.3	18.5	0.00e+00	0	28	0	32505856	56	5920
2026-01-15 13:05:17.83	23.27	4.06	-40.5	-42.0	18.8	0.00e+00	0	28	0	39845888	54	6446
2026-01-15 13:05:21.87	23.57	4.30	-40.0	-41.5	19.5	0.00e+00	0	28	0	47185920	54	6059
2026-01-15 13:05:25.91	23.86	4.55	-39.7	-41.0	19.9	0.00e+00	0	28	0	55574528	52	6455
2026-01-15 13:05:29.95	24.16	4.79	-39.6	-40.9	20.1	0.00e+00	0	28	0	62914560	52	6358
2026-01-15 13:05:33.99	24.47	5.04	-39.9	-41.3	19.7	0.00e+00	0	28	0	70254592	52	6677
2026-01-15 13:05:38.02	24.78	5.29	-39.8	-41.3	19.8	0.00e+00	0	28	0	77594624	52	6621
2026-01-15 13:05:42.06	25.09	5.54	-39.7	-41.1	20.0	0.00e+00	0	28	0	85983232	52	6472
2026-01-15 13:05:46.10	25.41	5.79	-39.6	-41.0	20.1	0.00e+00	0	28	0	93323264	52	6405
2026-01-15 13:05:50.14	25.74	6.05	-39.3	-40.5	20.6	0.00e+00	0	28	0	100663296	52	6061
2026-01-15 13:05:54.17	26.07	6.30	-39.2	-40.4	20.7	0.00e+00	0	28	0	108003328	52	6011
2026-01-15 13:05:58.21	26.41	6.56	-38.8	-40.0	21.1	0.00e+00	0	28	0	115343360	52	5730
2026-01-15 13:06:02.25	26.75	6.82	-38.8	-39.9	21.3	0.00e+00	0	28	0	123731968	50	6376
2026-01-15 13:06:06.29	27.10	7.08	-38.6	-39.8	21.3	0.00e+00	0	28	0	131072000	50	6261
2026-01-15 13:06:10.32	27.45	7.35	-38.4	-39.5	21.5	0.00e+00	0	28	0	138412032	50	6048
2026-01-15 13:06:14.36	27.81	7.61	-38.6	-39.8	21.2	0.00e+00	0	28	0	145752064	50	6255
2026-01-15 13:06:18.40	28.18	7.88	-38.6	-39.8	21.4	0.00e+00	0	28	0	154140672	50	6266
2026-01-15 13:06:22.44	28.55	8.15	-38.7	-39.8	21.4	0.00e+00	0	28	0	161480704	50	6304
2026-01-15 13:06:26.48	28.93	8.42	-38.7	-39.8	21.4	0.00e+00	0	28	0	168820736	50	6283
2026-01-15 13:06:30.52	29.32	8.69	-38.9	-40.1	21.1	0.00e+00	0	28	0	176160768	50	6524
2026-01-15 13:06:34.56	29.71	8.97	-38.9	-40.1	21.1	0.00e+00	0	29	0	183500800	50	6466
2026-01-15 13:06:38.59	30.11	9.24	-39.0	-40.1	21.1	0.00e+00	0	28	0	191889408	50	6516
2026-01-15 13:06:42.63	30.52	9.52	-38.5	-39.6	21.7	0.00e+00	0	28	0	199229440	50	6119
2026-01-15 13:06:46.67	30.93	9.80	-38.2	-39.3	22.0	0.00e+00	0	28	0	206569472	50	5907
2026-01-15 13:06:50.70	31.35	10.08	-37.8	-38.8	22.4	0.00e+00	0	29	0	213909504	48	6281
2026-01-15 13:06:54.74	31.78	10.37	-37.7	-38.7	22.4	0.00e+00	0	29	0	222298112	48	6192
2026-01-15 13:06:58.78	32.22	10.65	-37.8	-38.8	22.3	0.00e+00	0	29	0	229638144	48	6300
2026-01-15 13:07:02.82	32.67	10.94	-38.2	-39.2	22.1	0.00e+00	0	28	0	236978176	48	6611
2026-01-15 13:07:06.86	33.13	11.23	-38.4	-39.5	21.8	0.00e+00	0	28	0	244318208	48	6798
2026-01-15 13:07:10.90	33.59	11.52	-38.5	-39.5	21.9	0.00e+00	0	28	0	251658240	48	6834
2026-01-15 13:07:14.94	34.06	11.82	-38.5	-39.6	21.7	0.00e+00	0	28	0	260046848	48	6896
2026-01-15 13:07:18.98	34.55	12.11	-38.9	-40.0	21.4	0.00e+00	0	29	0	267386880	50	6458
2026-01-15 13:07:23.01	35.04	12.41	-38.9	-40.0	21.5	0.00e+00	0	29	0	274726912	50	6449
2026-01-15 13:07:27.05	35.54	12.71	-38.7	-39.8	21.6	0.00e+00	0	29	0	282066944	50	6260
2026-01-15 13:07:31.09	36.05	13.01	-38.1	-39.2	22.0	0.00e+00	0	29	0	290455552	50	5840
2026-01-15 13:07:35.13	36.57	13.31	-37.7	-38.7	22.5	0.00e+00	0	29	0	297795584	48	6216
2026-01-15 13:07:39.17	37.10	13.62	-37.7	-38.7	22.7	0.00e+00	0	28	0	305135616	48	6215
2026-01-15 13:07:43.21	37.65	13.92	-37.6	-38.6	22.7	0.00e+00	0	29	0	312475648	48	6148
2026-01-15 13:07:47.24	38.20	14.23	-37.4	-38.4	22.8	0.00e+00	0	29	0	319815680	48	5986
2026-01-15 13:07:51.28	38.76	14.54	-37.4	-38.4	22.9	0.00e+00	0	29	0	328204288	48	5982
2026-01-15 13:07:55.32	39.34	14.85	-37.7	-38.7	22.5	0.00e+00	0	29	0	335544320	48	6239
2026-01-15 13:07:59.36	39.93	15.16	-38.0	-39.0	22.4	0.00e+00	0	29	0	342884352	48	6448
2026-01-15 13:08:03.40	40.53	15.47	-38.1	-39.2	22.3	0.00e+00	0	29	0	350224384	48	6559
2026-01-15 13:08:07.44	41.14	15.79	-37.7	-38.7	22.5	0.00e+00	0	29	0	358612992	48	6193
2026-01-15 13:08:11.48	41.77	16.10	-36.9	-37.8	23.4	0.00e+00	0	29	0	365953024	48	5572
2026-01-15 13:08:15.51	42.40	16.42	-36.6	-37.5	23.5	0.00e+00	0	29	0	373293056	46	6065
2026-01-15 13:08:19.55	43.05	16.73	-36.3	-37.2	23.7	0.00e+00	0	29	0	380633088	46	5832
2026-01-15 13:08:23.59	43.72	17.05	-36.4	-37.2	23.8	0.00e+00	0	29	0	387973120	46	5877
2026-01-15 13:08:27.63	44.40	17.37	-37.1	-38.0	23.2	0.00e+00	0	29	0	396361728	46	6416
2026-01-15 13:08:31.66	45.09	17.68	-36.9	-37.8	23.4	0.00e+00	0	29	0	403701760	46	6271
2026-01-15 13:08:35.70	45.79	18.00	-37.2	-38.1	23.2	0.00e+00	0	29	0	411041792	46	6477
2026-01-15 13:08:39.73	46.51	18.32	-37.3	-38.2	23.1	0.00e+00	0	29	0	418381824	46	6595
2026-01-15 13:08:43.77	47.25	18.64	-36.7	-37.6	23.6	0.00e+00	0	29	0	425721856	46	6149
2026-01-15 13:08:47.81	48.00	18.95	-36.4	-37.2	23.9	0.00e+00	0	29	0	434110464	46	5887
2026-01-15 13:08:51.85	48.77	19.27	-35.8	-36.6	24.2	0.00e+00	0	29	0	441450496	44	6169
2026-01-15 13:08:55.89	49.55	19.58	-35.5	-36.3	24.5	0.00e+00	0	29	0	448790528	44	5964
2026-01-15 13:08:59.92	50.34	19.90	-35.3	-36.1	24.7	0.00e+00	0	28	0	456130560	44	5780
2026-01-15 13:09:03.96	51.16	20.21	-35.1	-35.9	24.7	0.00e+00	0	29	0	464519168	44	5661
2026-01-15 13:09:08.00	51.99	20.52	-35.5	-36.3	24.6	0.00e+00	0	29	0	471859200	44	5945
2026-01-15 13:09:12.03	52.83	20.83	-35.6	-36.4	24.5	0.00e+00	0	29	0	479199232	44	5986
2026-01-15 13:09:16.07	53.69	21.13	-35.5	-36.3	24.6	0.00e+00	0	29	0	486539264	44	5936
2026-01-15 13:09:20.11	54.57	21.44	-35.4	-36.2	24.6	0.00e+00	0	29	0	493879296	44	5891
2026-01-15 13:09:24.15	55.47	21.73	-35.8	-36.7	24.4	0.00e+00	0	29	0	502267904	44	6189
2026-01-15 13:09:28.19	56.39	22.03	-35.7	-36.5	24.5	0.00e+00	0	29	0	509607936	44	6079
2026-01-15 13:09:32.22	57.31	22.32	-36.1	-37.0	24.0	0.00e+00	0	29	0	516947968	44	6448
2026-01-15 13:09:36.26	58.26	22.61	-35.7	-36.6	24.3	0.00e+00	0	29	0	524288000	44	6115
2026-01-15 13:09:40.30	59.23	22.89	-36.8	-37.7	23.5	0.00e+00	0	29	0	532676608	46	6207
2026-01-15 13:09:44.33	60.21	23.17	-35.8	-36.6	24.4	0.00e+00	0	29	0	540016640	46	5444
2026-01-15 13:09:48.37	61.21	23.44	-36.8	-37.7	23.4	0.00e+00	0	29	0	547356672	46	6217
2026-01-15 13:09:52.40	62.22	23.71	-37.3	-38.2	23.2	0.00e+00	0	29	0	554696704	46	6566
2026-01-15 13:09:56.44	63.25	23.96	-38.1	-39.1	22.5	0.00e+00	0	29	0	562036736	48	6474
2026-01-15 13:10:00.48	64.30	24.22	-37.5	-38.4	22.8	0.00e+00	0	29	0	570425344	48	6026
2026-01-15 13:10:04.52	65.37	24.46	-39.0	-40.1	21.7	0.00e+00	0	29	0	577765376	50	6522
2026-01-15 13:10:08.55	66.45	24.70	-39.7	-40.9	21.1	0.00e+00	0	29	0	585105408	52	6325
2026-01-15 13:10:12.59	67.55	24.92	-38.0	-39.0	22.6	0.00e+00	0	29	0	592445440	50	5741
2026-01-15 13:10:16.63	68.66	25.14	-40.6	-42.1	19.9	0.00e+00	0	29	0	599785472	52	7331
2026-01-15 13:10:20.67	69.79	25.35	-40.0	-41.2	20.7	0.00e+00	0	29	0	608174080	54	5889
2026-01-15 13:10:24.70	70.93	25.55	-39.9	-41.2	20.9	0.00e+00	0	29	0	615514112	52	6543
2026-01-15 13:10:28.74	72.09	25.74	-39.5	-40.7	21.2	0.00e+00	0	29	0	622854144	52	6219
2026-01-15 13:10:32.78	73.26	25.91	-39.7	-40.9	21.1	0.00e+00	0	29	0	630194176	52	6327
2026-01-15 13:10:36.82	74.44	26.08	-40.9	-42.4	19.8	0.00e+00	0	29	0	638582784	54	6704
2026-01-15 13:10:40.85	75.63	26.23	-39.3	-40.4	21.3	0.00e+00	0	29	0	645922816	52	6024
2026-01-15 13:10:44.89	76.84	26.37	-38.6	-39.6	22.2	0.00e+00	0	29	0	653262848	50	6156
2026-01-15 13:10:48.93	78.06	26.50	-40.0	-41.2	20.7	0.00e+00	0	29	0	660602880	52	6605
2026-01-15 13:10:52.96	79.28	26.62	-39.6	-40.8	21.2	0.00e+00	0	29	0	667942912	52	6316
2026-01-15 13:10:57.00	80.51	26.72	-39.0	-40.1	21.7	0.00e+00	0	29	0	676331520	50	6516
2026-01-15 13:11:01.05	81.76	26.81	-39.5	-40.7	21.3	0.00e+00	0	29	0	683671552	52	6198
2026-01-15 13:11:05.08	83.00	26.88	-38.4	-39.4	22.2	0.00e+00	0	29	0	691011584	50	6030
2026-01-15 13:11:09.12	84.25	26.94	-38.9	-40.0	21.7	0.00e+00	0	29	0	698351616	50	6419
2026-01-15 13:11:13.16	85.51	26.99	-39.6	-40.9	21.1	0.00e+00	0	29	0	706740224	50	7097
2026-01-15 13:11:17.20	86.77	27.02	-39.3	-40.5	21.4	0.00e+00	0	29	0	714080256	50	6785
2026-01-15 13:11:21.24	88.03	27.04	-39.5	-40.7	21.2	0.00e+00	0	29	0	721420288	52	6243
2026-01-15 13:11:25.27	89.29	27.04	-38.6	-39.6	22.1	0.00e+00	0	29	0	728760320	50	6168
2026-01-15 13:11:29.31	90.55	27.03	-38.0	-39.1	22.6	0.00e+00	0	29	0	736100352	50	5767
2026-01-15 13:11:33.35	91.81	27.00	-39.7	-40.9	21.0	0.00e+00	0	29	0	744488960	50	7104
2026-01-15 13:11:37.38	93.07	26.96	-38.8	-39.9	21.9	0.00e+00	0	29	0	751828992	52	5641
2026-01-15 13:11:41.42	94.33	26.91	-38.1	-39.2	22.4	0.00e+00	0	29	0	759169024	50	5861
2026-01-15 13:11:45.46	95.58	26.84	-38.0	-38.9	22.7	0.00e+00	0	29	0	766509056	50	5669
2026-01-15 13:11:49.50	96.82	26.75	-38.2	-39.3	22.4	0.00e+00	0	29	0	774897664	50	5897
2026-01-15 13:11:53.54	98.06	26.65	-37.3	-38.2	23.1	0.00e+00	0	29	0	782237696	48	5884
2026-01-15 13:11:57.58	99.29	26.54	-38.1	-39.2	22.3	0.00e+00	0	29	0	789577728	48	6559
2026-01-15 13:12:01.62	100.51	26.42	-38.4	-39.5	22.3	0.00e+00	0	29	0	796917760	50	6034
2026-01-15 13:12:05.66	101.72	26.28	-36.8	-37.7	23.6	0.00e+00	0	29	0	804257792	46	6179
2026-01-15 13:12:09.69	102.92	26.13	-35.8	-36.6	24.5	0.00e+00	0	29	0	812646400	44	6121
2026-01-15 13:12:13.73	104.11	25.97	-37.2	-38.1	23.1	0.00e+00	0	29	0	819986432	46	6529
2026-01-15 13:12:17.77	105.28	25.80	-35.7	-36.6	24.4	0.00e+00	0	29	0	827326464	46	5476
2026-01-15 13:12:21.81	106.45	25.61	-35.5	-36.4	24.5	0.00e+00	0	29	0	834666496	44	5985
2026-01-15 13:12:25.85	107.60	25.41	-35.0	-35.8	24.9	0.00e+00	0	29	0	843055104	44	5571
2026-01-15 13:12:29.88	108.73	25.21	-36.3	-37.1	24.0	0.00e+00	0	29	0	850395136	44	6524
2026-01-15 13:12:33.92	109.85	24.99	-35.0	-35.7	25.0	0.00e+00	0	29	0	857735168	44	5563
2026-01-15 13:12:37.96	110.96	24.77	-35.2	-36.0	24.8	0.00e+00	0	29	0	865075200	42	6422
2026-01-15 13:12:42.00	112.05	24.53	-35.9	-36.7	24.3	0.00e+00	0	29	0	872415232	44	6245
2026-01-15 13:12:46.04	113.13	24.29	-35.5	-36.3	24.5	0.00e+00	0	29	0	880803840	44	5911
2026-01-15 13:12:50.07	114.18	24.04	-35.9	-36.7	24.2	0.00e+00	0	29	0	888143872	44	6229
2026-01-15 13:12:54.11	115.22	23.78	-35.9	-36.7	24.2	0.00e+00	0	29	0	895483904	44	6224
2026-01-15 13:12:58.15	116.25	23.52	-37.0	-38.0	23.2	0.00e+00	0	29	0	902823936	46	6461
2026-01-15 13:13:02.19	117.26	23.25	-36.2	-37.1	23.9	0.00e+00	0	29	0	911212544	46	5798
2026-01-15 13:13:06.23	118.25	22.97	-36.0	-36.9	24.2	0.00e+00	0	29	0	918552576	44	6357
2026-01-15 13:13:10.26	119.22	22.69	-36.5	-37.4	23.7	0.00e+00	0	29	0	925892608	44	6747
2026-01-15 13:13:14.30	120.18	22.40	-36.4	-37.3	23.9	0.00e+00	0	29	0	933232640	44	6660
2026-01-15 13:13:18.34	121.12	22.11	-36.7	-37.7	23.6	0.00e+00	0	29	0	940572672	46	6191
2026-01-15 13:13:22.38	122.04	21.81	-36.4	-37.3	23.8	0.00e+00	0	29	0	948961280	46	5936
2026-01-15 13:13:26.42	122.94	21.51	-37.3	-38.3	23.0	0.00e+00	0	29	0	956301312	46	6642
2026-01-15 13:13:30.46	123.83	21.21	-37.4	-38.4	23.1	0.00e+00	0	29	0	963641344	48	6032
2026-01-15 13:13:34.49	124.70	20.90	-35.8	-36.6	24.1	0.00e+00	0	29	0	970981376	44	6131
2026-01-15 13:13:38.53	125.56	20.59	-37.0	-38.1	23.1	0.00e+00	0	29	0	978321408	46	6495
2026-01-15 13:13:42.57	126.39	20.28	-38.1	-39.3	22.3	0.00e+00	0	29	0	986710016	48	6629
2026-01-15 13:13:46.61	127.22	19.97	-37.0	-37.9	23.3	0.00e+00	0	29	0	994050048	48	5691
2026-01-15 13:13:50.65	128.02	19.65	-35.8	-36.7	24.2	0.00e+00	0	29	0	1001390080	44	6176
2026-01-15 13:13:54.69	128.81	19.33	-37.6	-38.6	22.7	0.00e+00	0	29	0	1008730112	46	6907
2026-01-15 13:13:58.73	129.58	19.02	-37.3	-38.3	23.1	0.00e+00	0	29	0	1017118720	48	5897
2026-01-15 13:14:02.77	130.34	18.70	-36.9	-37.8	23.4	0.00e+00	0	29	0	1024458752	46	6270
2026-01-15 13:14:06.80	131.08	18.38	-36.2	-37.1	23.8	0.00e+00	0	29	0	1031798784	46	5808
2026-01-15 13:14:10.84	131.81	18.06	-36.3	-37.3	23.7	0.00e+00	0	29	0	1039138816	46	5900
2026-01-15 13:14:14.88	132.52	17.74	-36.6	-37.7	23.5	0.00e+00	0	29	0	1046478848	46	6202
2026-01-15 13:14:18.91	133.22	17.42	-36.9	-37.8	23.3	0.00e+00	0	29	0	1054867456	46	6294
2026-01-15 13:14:22.95	133.90	17.10	-38.0	-39.1	22.3	0.00e+00	0	29	0	1062207488	48	6480
2026-01-15 13:14:26.99	134.57	16.78	-37.2	-38.2	22.9	0.00e+00	0	29	0	1069547520	48	5839
2026-01-15 13:14:31.03	135.23	16.46	-36.8	-37.7	23.3	0.00e+00	0	29	0	1076887552	46	6194
2026-01-15 13:14:35.07	135.87	16.14	-36.4	-37.3	23.7	0.00e+00	0	29	0	1085276160	46	5924
2026-01-15 13:14:39.11	136.50	15.83	-36.2	-37.1	23.9	0.00e+00	0	29	0	1092616192	46	5768
2026-01-15 13:14:43.14	137.12	15.51	-36.8	-37.7	23.4	0.00e+00	0	29	0	1099956224	46	6196
2026-01-15 13:14:47.18	137.72	15.20	-37.6	-38.6	22.7	0.00e+00	0	29	0	1107296256	46	6853
2026-01-15 13:14:51.22	138.32	14.88	-37.6	-38.6	22.0	0.00e+00	0	29	0	1114636288	48	6157
2026-01-15 13:14:55.26	138.90	14.57	-37.2	-38.1	23.0	0.00e+00	0	29	0	1123024896	48	5820
2026-01-15 13:14:59.29	139.47	14.26	-36.8	-37.7	23.2	0.00e+00	0	29	0	1130364928	48	5566
2026-01-15 13:15:03.33	140.02	13.95	-36.8	-37.8	23.2	0.00e+00	0	29	0	1137704960	46	6251
2026-01-15 13:15:07.37	140.57	13.64	-37.0	-38.0	22.9	0.00e+00	0	29	0	1145044992	46	6403
2026-01-15 13:15:11.41	141.11	13.33	-37.9	-38.9	21.9	0.00e+00	0	29	0	1153433600	48	6376
2026-01-15 13:15:15.45	141.63	13.03	-39.0	-40.2	20.7	0.00e+00	0	29	0	1160773632	50	6578
2026-01-15 13:15:19.49	142.15	12.72	-39.0	-40.3	20.6	0.00e+00	0	29	0	1168113664	50	6661
2026-01-15 13:15:23.52	142.65	12.42	-38.3	-39.4	21.4	0.00e+00	0	29	0	1175453696	50	5992
2026-01-15 13:15:27.56	143.15	12.12	-38.4	-39.5	21.5	0.00e+00	0	29	0	1182793728	50	6063
2026-01-15 13:15:31.60	143.63	11.82	-38.9	-40.1	20.9	0.00e+00	0	29	0	1191182336	50	6493
2026-01-15 13:15:35.63	144.11	11.53	-38.8	-39.9	21.3	0.00e+00	0	29	0	1198522368	50	6372
2026-01-15 13:15:39.67	144.57	11.23	-38.3	-39.4	21.6	0.00e+00	0	29	0	1205862400	50	5991
2026-01-15 13:15:43.71	145.03	10.94	-38.3	-39.4	21.6	0.00e+00	0	29	0	1213202432	50	6025
2026-01-15 13:15:47.75	145.48	10.65	-38.7	-39.8	21.3	0.00e+00	0	29	0	1221591040	50	6279
2026-01-15 13:15:51.78	145.92	10.36	-38.5	-39.6	21.6	0.00e+00	0	29	0	1228931072	50	6144
2026-01-15 13:15:55.82	146.35	10.07	-38.2	-39.3	21.8	0.00e+00	0	29	0	1236271104	50	5913
2026-01-15 13:15:59.86	146.78	9.79	-38.5	-39.6	21.6	0.00e+00	0	29	0	1243611136	50	6114
2026-01-15 13:16:03.90	147.19	9.51	-39.1	-40.4	20.9	0.00e+00	0	29	0	1250951168	50	6712
2026-01-15 13:16:07.94	147.60	9.23	-39.7	-41.0	20.2	0.00e+00	0	29	0	1259339776	50	7216
2026-01-15 13:16:11.97	148.00	8.95	-39.8	-41.1	20.2	0.00e+00	0	29	0	1266679808	52	6522
2026-01-15 13:16:16.01	148.40	8.67	-38.9	-40.1	21.0	0.00e+00	0	29	0	1274019840	52	5820
2026-01-15 13:16:20.05	148.78	8.39	-38.8	-40.0	21.2	0.00e+00	0	29	0	1281359872	50	6400
2026-01-15 13:16:24.09	149.17	8.12	-38.8	-40.0	21.0	0.00e+00	0	29	0	1289748480	50	6437
2026-01-15 13:16:28.13	149.54	7.85	-38.4	-39.5	21.5	0.00e+00	0	29	0	1297088512	50	6048
2026-01-15 13:16:32.17	149.91	7.58	-38.5	-39.7	21.3	0.00e+00	0	29	0	1304428544	50	6185
2026-01-15 13:16:36.21	150.27	7.31	-38.5	-39.6	21.3	0.00e+00	0	29	0	1311768576	50	6162
2026-01-15 13:16:40.24	150.62	7.05	-38.3	-39.5	21.4	0.00e+00	0	29	0	1319108608	50	6035
2026-01-15 13:16:44.28	150.97	6.78	-38.2	-39.3	21.5	0.00e+00	0	29	0	1327497216	50	5951
2026-01-15 13:16:48.32	151.31	6.52	-38.6	-39.8	21.1	0.00e+00	0	29	0	1334837248	50	6298
2026-01-15 13:16:52.35	151.65	6.26	-39.0	-40.3	20.4	0.00e+00	0	29	0	1342177280	50	6663
2026-01-15 13:16:56.40	151.98	6.00	-39.9	-41.3	19.6	0.00e+00	0	29	0	1349517312	52	6641
2026-01-15 13:17:00.43	152.30	5.75	-40.1	-41.7	19.2	0.00e+00	0	29	0	1356857344	52	6928
2026-01-15 13:17:04.47	152.62	5.49	-40.5	-42.1	18.8	0.00e+00	0	29	0	1365245952	52	7286
2026-01-15 13:17:08.51	152.94	5.24	-40.5	-42.2	18.4	0.00e+00	0	29	0	1372585984	52	7400
2026-01-15 13:17:12.55	153.25	4.99	-41.2	-43.2	17.0	0.00e+00	0	29	0	1379926016	54	7411
2026-01-15 13:17:16.59	153.55	4.74	-41.6	-43.9	16.2	0.00e+00	0	29	0	1387266048	54	8020
2026-01-15 13:17:20.62	153.85	4.49	-42.2	-44.9	15.0	0.00e+00	0	29	0	1395654656	56	8009
2026-01-15 13:17:24.66	154.15	4.24	-42.6	-45.8	14.0	7.00e-07	0	29	0	1402994688	56	8865
2026-01-15 13:17:28.70	154.44	4.00	-42.6	-45.9	13.8	1.06e-05	0	29	0	1410334720	58	7961
2026-01-15 13:17:32.74	154.72	3.75	-42.5	-45.8	13.8	4.50e-06	0	29	0	1417674752	58	7881
2026-01-15 13:17:36.77	155.00	3.51	-42.7	-46.0	13.7	9.90e-06	0	29	0	1425014784	58	8067
2026-01-15 13:17:40.81	155.28	3.27	-42.5	-45.5	14.4	7.00e-07	0	29	0	1433403392	58	7641
2026-01-15 13:17:44.85	155.55	3.04	-42.2	-45.0	14.9	0.00e+00	0	29	0	1440743424	58	7234
2026-01-15 13:17:48.89	155.82	2.80	-47.8	-63.1	3.6	1.51e+00	0	29	104	1441792000	60	51371
2026-01-15 13:17:52.93	156.09	2.56	-48.3	-63.6	3.6	1.51e+00	0	29	104	1441792000	60	54461
2026-01-15 13:17:56.96	156.35	2.33	-48.5	-63.7	3.6	1.51e+00	0	29	104	1441792000	60	55080
2026-01-15 13:18:01.01	156.60	2.10	-48.4	-63.6	3.6	1.51e+00	0	29	104	1441792000	60	54629
2026-01-15 13:18:05.04	156.86	1.87	-48.3	-63.5	3.6	1.51e+00	0	29	104	1441792000	60	54304
2026-01-15 13:18:09.08	157.10	1.64	-48.3	-63.5	3.6	1.51e+00	0	29	104	1441792000	60	54265
2026-01-15 13:18:13.12	157.35	1.41	-48.3	-63.5	3.6	1.51e+00	0	29	104	1441792000	60	53863
2026-01-15 13:18:17.16	157.59	1.18	-48.3	-63.5	3.6	1.51e+00	0	29	104	1441792000	60	54101
2026-01-15 13:18:21.20	157.83	0.96	-48.3	-63.5	3.6	1.51e+00	0	29	104	1441792000	60	53907
2026-01-15 13:18:25.23	158.07	0.73	-48.3	-63.5	3.6	1.51e+00	0	29	104	1441792000	60	53966
2026-01-15 13:18:29.27	158.30	0.51	-48.3	-63.5	3.6	1.51e+00	0	29	104	1441792000	60	54139
2026-01-15 13:18:33.31	158.53	0.29	-48.3	-63.5	3.6	1.51e+00	0	29	104	1441792000	60	53954
2026-01-15 13:18:37.35	158.75	0.07	-48.3	-63.5	3.6	1.51e+00	0	29	104	1441792000	60	53987

#Closed at: 2026-01-15 13:18:41
#Recorded file [1441 MB]: D:/lorett/data/35029_260116_010409.dat