passes_logs/2026/01/15/R4.6S_Anadyr/R4.6S_Anadyr__20260115_011943_NOAA_20_JPSS-1_rec.log

#Pass ID: 20260115_011943_NOAA 20 (JPSS-1)
#Satellite: NOAA 20 (JPSS-1)
#Configuration: NOAA 20
#almurnet v.1.7.20251203
#Start time: 2026-01-15 01:19:44

#Version: 2.2.20231116
#Station: R4.6S_Anadyr
#Location: 177.4865 lon 64.73178 lat
#TLE: 1 43013U 17073A   26014.55467351  .00000038  00000+0  38801-4 0  9992
#TLE: 2 43013  98.7635 315.4987 0001517  39.9279 320.2008 14.19535859422677

#Time	Az	El	Level	Level2	SNR	BER	BlckErr	Temp	State	Recorded	gain1	gain2
2026-01-15 01:19:44.71	184.44	0.05	-48.9	-63.8	3.5	1.51e+00	0	27	0	0	60	56120
2026-01-15 01:19:48.75	184.59	0.28	-48.9	-64.2	3.6	1.51e+00	0	28	104	0	60	58627
2026-01-15 01:19:52.79	184.74	0.52	-49.0	-64.2	3.6	1.51e+00	0	28	104	0	60	58527
2026-01-15 01:19:56.83	184.89	0.75	-48.5	-63.7	3.5	1.51e+00	0	28	104	0	60	55520
2026-01-15 01:20:00.87	185.05	0.99	-47.6	-62.7	3.6	1.51e+00	0	28	104	0	60	49364
2026-01-15 01:20:04.91	185.21	1.23	-47.6	-62.7	3.6	1.51e+00	0	28	104	0	60	49577
2026-01-15 01:20:08.95	185.37	1.48	-47.6	-62.7	3.6	1.51e+00	0	29	104	0	60	49452
2026-01-15 01:20:12.99	185.53	1.72	-47.6	-62.6	3.6	1.51e+00	0	28	104	0	60	48795
2026-01-15 01:20:17.03	185.69	1.97	-47.6	-62.7	3.6	1.51e+00	0	29	104	0	60	49424
2026-01-15 01:20:21.06	185.86	2.22	-47.6	-62.7	3.6	1.51e+00	0	29	104	0	60	49158
2026-01-15 01:20:25.10	186.03	2.47	-47.6	-62.3	3.6	1.51e+00	0	29	104	0	60	46862
2026-01-15 01:20:29.14	186.20	2.72	-47.6	-62.1	3.6	1.51e+00	0	29	104	0	60	45938
2026-01-15 01:20:33.18	186.38	2.97	-46.6	-52.7	8.5	6.74e-02	0	29	0	2097152	60	15563
2026-01-15 01:20:37.22	186.56	3.23	-43.0	-45.2	16.6	0.00e+00	0	29	0	9437184	60	6607
2026-01-15 01:20:41.25	186.74	3.49	-42.7	-44.9	16.7	0.00e+00	0	29	0	16777216	58	7092
2026-01-15 01:20:45.29	186.92	3.75	-47.5	-61.3	3.6	5.72e-01	0	29	104	24117248	60	41874
2026-01-15 01:20:49.33	187.11	4.02	-41.9	-43.7	18.3	0.00e+00	0	29	0	27262976	58	6194
2026-01-15 01:20:53.36	187.30	4.28	-41.7	-43.4	18.7	0.00e+00	0	29	0	34603008	56	6696
2026-01-15 01:20:57.40	187.49	4.55	-41.7	-43.4	18.5	0.00e+00	0	29	0	41943040	56	6693
2026-01-15 01:21:01.44	187.69	4.82	-41.5	-43.1	19.0	0.00e+00	0	29	0	49283072	56	6524
2026-01-15 01:21:05.48	187.89	5.09	-41.3	-42.9	19.2	0.00e+00	0	29	0	56623104	56	6339
2026-01-15 01:21:09.52	188.09	5.37	-41.1	-42.6	19.4	0.00e+00	0	29	0	65011712	56	6163
2026-01-15 01:21:13.55	188.30	5.65	-41.0	-42.5	19.7	0.00e+00	0	29	0	72351744	56	6049
2026-01-15 01:21:17.59	188.51	5.93	-40.9	-42.4	19.8	0.00e+00	0	29	0	79691776	56	5967
2026-01-15 01:21:21.63	188.73	6.21	-40.8	-42.2	19.9	0.00e+00	0	29	0	87031808	54	6559
2026-01-15 01:21:25.67	188.95	6.50	-40.8	-42.1	19.9	0.00e+00	0	29	0	95420416	54	6524
2026-01-15 01:21:29.71	189.17	6.79	-40.5	-41.8	20.3	0.00e+00	0	29	0	102760448	54	6253
2026-01-15 01:21:33.74	189.40	7.08	-40.4	-41.7	20.5	0.00e+00	0	29	0	110100480	54	6178
2026-01-15 01:21:37.78	189.63	7.38	-40.3	-41.6	20.6	0.00e+00	0	29	0	117440512	54	6123
2026-01-15 01:21:41.81	189.86	7.68	-40.6	-41.9	20.4	0.00e+00	0	29	0	124780544	54	6353
2026-01-15 01:21:45.85	190.11	7.98	-40.1	-41.4	20.8	0.00e+00	0	29	0	133169152	54	5976
2026-01-15 01:21:49.88	190.35	8.28	-39.9	-41.1	21.1	0.00e+00	0	29	0	140509184	54	5772
2026-01-15 01:21:53.92	190.60	8.59	-39.7	-40.9	21.4	0.00e+00	0	29	0	147849216	52	6344
2026-01-15 01:21:57.95	190.86	8.90	-39.6	-40.7	21.5	0.00e+00	0	29	0	155189248	52	6245
2026-01-15 01:22:01.99	191.12	9.22	-39.5	-40.6	21.7	0.00e+00	0	29	0	163577856	52	6141
2026-01-15 01:22:06.02	191.38	9.54	-39.4	-40.5	21.7	0.00e+00	0	29	0	170917888	52	6088
2026-01-15 01:22:10.06	191.66	9.86	-39.5	-40.6	21.7	0.00e+00	0	29	0	178257920	52	6122
2026-01-15 01:22:14.10	191.93	10.19	-39.2	-40.2	22.0	0.00e+00	0	29	0	185597952	52	5882
2026-01-15 01:22:18.14	192.22	10.52	-39.2	-40.3	22.0	0.00e+00	0	29	0	192937984	52	5928
2026-01-15 01:22:22.17	192.51	10.85	-39.1	-40.2	22.1	0.00e+00	0	29	0	201326592	52	5837
2026-01-15 01:22:26.21	192.80	11.19	-38.9	-39.9	22.4	0.00e+00	0	29	0	208666624	52	5667
2026-01-15 01:22:30.25	193.11	11.53	-38.7	-39.7	22.5	0.00e+00	0	29	0	216006656	50	6213
2026-01-15 01:22:34.28	193.41	11.88	-38.6	-39.6	22.7	0.00e+00	0	29	0	223346688	50	6104
2026-01-15 01:22:38.32	193.73	12.23	-38.6	-39.6	22.7	0.00e+00	0	29	0	230686720	50	6109
2026-01-15 01:22:42.36	194.05	12.58	-38.5	-39.5	22.8	0.00e+00	0	29	0	239075328	50	6049
2026-01-15 01:22:46.40	194.39	12.94	-38.3	-39.3	23.0	0.00e+00	0	29	0	246415360	50	5907
2026-01-15 01:22:50.43	194.72	13.31	-38.4	-39.4	22.9	0.00e+00	0	29	0	253755392	50	5994
2026-01-15 01:22:54.47	195.07	13.67	-38.4	-39.4	23.0	0.00e+00	0	29	0	261095424	50	5994
2026-01-15 01:22:58.50	195.43	14.05	-38.2	-39.2	23.1	0.00e+00	0	29	0	269484032	50	5840
2026-01-15 01:23:02.54	195.79	14.42	-38.0	-38.9	23.3	0.00e+00	0	29	0	276824064	50	5678
2026-01-15 01:23:06.58	196.16	14.81	-38.0	-38.9	23.3	0.00e+00	0	29	0	284164096	50	5691
2026-01-15 01:23:10.61	196.55	15.19	-38.0	-38.9	23.3	0.00e+00	0	29	0	291504128	50	5668
2026-01-15 01:23:14.65	196.94	15.59	-37.9	-39.0	23.2	0.00e+00	0	29	0	298844160	50	5736
2026-01-15 01:23:18.69	197.34	15.99	-38.0	-39.2	23.0	0.00e+00	0	29	0	307232768	48	6611
2026-01-15 01:23:22.73	197.75	16.39	-38.5	-39.4	23.0	0.00e+00	0	29	0	314572800	48	6757
2026-01-15 01:23:26.77	198.18	16.80	-38.4	-39.4	23.0	0.00e+00	0	29	0	321912832	48	6731
2026-01-15 01:23:30.80	198.61	17.21	-38.6	-39.6	22.9	0.00e+00	0	29	0	329252864	48	6853
2026-01-15 01:23:34.84	199.06	17.63	-38.4	-39.4	23.0	0.00e+00	0	29	0	337641472	48	6742
2026-01-15 01:23:38.88	199.52	18.06	-38.2	-39.2	23.2	0.00e+00	0	29	0	344981504	48	6547
2026-01-15 01:23:42.92	199.99	18.49	-38.2	-39.1	23.3	0.00e+00	0	29	0	352321536	48	6508
2026-01-15 01:23:46.96	200.47	18.92	-38.1	-39.1	23.3	0.00e+00	0	29	0	359661568	48	6494
2026-01-15 01:23:51.00	200.97	19.37	-38.1	-39.0	23.4	0.00e+00	0	29	0	367001600	48	6448
2026-01-15 01:23:55.03	201.48	19.81	-38.1	-39.0	23.5	0.00e+00	0	29	0	375390208	48	6436
2026-01-15 01:23:59.07	202.01	20.27	-38.3	-39.3	23.1	0.00e+00	0	29	0	382730240	48	6632
2026-01-15 01:24:03.11	202.56	20.73	-38.6	-39.6	22.9	0.00e+00	0	29	0	390070272	48	6884
2026-01-15 01:24:07.15	203.11	21.19	-38.7	-39.7	22.8	0.00e+00	0	29	0	397410304	50	6200
2026-01-15 01:24:11.18	203.69	21.67	-38.8	-39.8	22.8	0.00e+00	0	29	0	405798912	50	6247
2026-01-15 01:24:15.22	204.28	22.14	-39.1	-40.1	22.4	0.00e+00	0	29	0	413138944	50	6523
2026-01-15 01:24:19.26	204.89	22.63	-38.6	-39.6	22.9	0.00e+00	0	29	0	420478976	50	6135
2026-01-15 01:24:23.30	205.52	23.12	-38.6	-39.6	22.9	0.00e+00	0	29	0	427819008	50	6116
2026-01-15 01:24:27.34	206.17	23.61	-38.5	-39.5	22.9	0.00e+00	0	29	0	435159040	50	6047
2026-01-15 01:24:31.38	206.84	24.12	-38.7	-39.7	22.9	0.00e+00	0	29	0	443547648	50	6189
2026-01-15 01:24:35.41	207.53	24.62	-38.9	-39.9	22.7	0.00e+00	0	29	0	450887680	50	6333
2026-01-15 01:24:39.45	208.24	25.13	-39.1	-40.2	22.4	0.00e+00	0	29	0	458227712	50	6563
2026-01-15 01:24:43.49	208.98	25.65	-39.1	-40.1	22.5	0.00e+00	0	29	0	465567744	50	6533
2026-01-15 01:24:47.52	209.74	26.17	-39.0	-40.0	22.7	0.00e+00	0	29	0	473956352	50	6410
2026-01-15 01:24:51.56	210.52	26.70	-38.9	-39.9	22.7	0.00e+00	0	29	0	481296384	50	6368
2026-01-15 01:24:55.59	211.33	27.23	-38.8	-39.7	22.8	0.00e+00	0	29	0	488636416	50	6238
2026-01-15 01:24:59.63	212.17	27.77	-39.3	-40.3	22.3	0.00e+00	0	29	0	495976448	50	6650
2026-01-15 01:25:03.67	213.03	28.31	-39.3	-40.4	22.3	0.00e+00	0	29	0	503316480	50	6715
2026-01-15 01:25:07.71	213.93	28.86	-39.1	-40.1	22.5	0.00e+00	0	29	0	511705088	50	6527
2026-01-15 01:25:11.74	214.85	29.40	-39.7	-40.8	21.9	0.00e+00	0	29	0	519045120	50	7053
2026-01-15 01:25:15.78	215.81	29.95	-39.4	-40.5	22.3	0.00e+00	0	29	0	526385152	52	6051
2026-01-15 01:25:19.82	216.79	30.51	-40.0	-41.2	21.6	0.00e+00	0	29	0	533725184	52	6546
2026-01-15 01:25:23.85	217.81	31.06	-40.6	-41.8	21.0	0.00e+00	0	29	0	541065216	52	7083
2026-01-15 01:25:27.89	218.87	31.61	-40.9	-42.2	20.5	0.00e+00	0	29	0	549453824	54	6615
2026-01-15 01:25:31.93	219.96	32.16	-40.5	-41.7	21.0	0.00e+00	0	29	0	556793856	54	6242
2026-01-15 01:25:35.97	221.09	32.71	-40.7	-41.9	20.9	0.00e+00	0	29	0	564133888	54	6366
2026-01-15 01:25:40.01	222.26	33.26	-39.9	-41.0	21.6	0.00e+00	0	29	0	571473920	54	5742
2026-01-15 01:25:44.05	223.47	33.81	-40.8	-42.0	20.8	0.00e+00	0	29	0	579862528	54	6451
2026-01-15 01:25:48.09	224.71	34.35	-40.1	-41.2	21.5	0.00e+00	0	29	0	587202560	54	5865
2026-01-15 01:25:52.12	226.00	34.88	-39.7	-40.7	22.0	0.00e+00	0	29	0	594542592	52	6236
2026-01-15 01:25:56.16	227.33	35.41	-41.4	-42.8	20.0	0.00e+00	0	29	0	601882624	54	7067
2026-01-15 01:26:00.18	228.69	35.93	-40.4	-41.6	21.3	0.00e+00	0	29	0	609222656	54	6105
2026-01-15 01:26:04.21	230.11	36.43	-41.1	-42.4	20.4	0.00e+00	0	29	0	617611264	54	6727
2026-01-15 01:26:08.24	231.56	36.93	-41.4	-42.7	20.4	0.00e+00	0	29	0	624951296	56	6223
2026-01-15 01:26:12.28	233.06	37.41	-40.3	-41.5	21.2	0.00e+00	0	29	0	632291328	54	6063
2026-01-15 01:26:16.31	234.61	37.88	-40.9	-42.1	20.7	0.00e+00	0	29	0	639631360	54	6494
2026-01-15 01:26:20.35	236.20	38.32	-40.0	-41.1	21.7	0.00e+00	0	29	0	646971392	54	5787
2026-01-15 01:26:24.40	237.83	38.76	-40.1	-41.3	21.5	0.00e+00	0	29	0	655360000	52	6635
2026-01-15 01:26:28.43	239.50	39.16	-42.1	-43.6	19.4	0.00e+00	0	29	0	662700032	56	6900
2026-01-15 01:26:32.46	241.21	39.55	-41.9	-43.4	19.7	0.00e+00	0	29	0	670040064	56	6693
2026-01-15 01:26:36.50	242.97	39.91	-41.8	-43.2	19.9	0.00e+00	0	29	0	677380096	56	6564
2026-01-15 01:26:40.54	244.76	40.25	-40.9	-42.2	20.9	0.00e+00	0	29	0	685768704	56	5846
2026-01-15 01:26:44.58	246.58	40.55	-39.6	-40.7	22.1	0.00e+00	0	29	0	693108736	52	6184
2026-01-15 01:26:48.62	248.44	40.83	-40.1	-41.2	21.7	0.00e+00	0	29	0	700448768	52	6615
2026-01-15 01:26:52.65	250.33	41.07	-40.6	-41.7	21.1	0.00e+00	0	29	0	707788800	52	6996
2026-01-15 01:26:56.69	252.24	41.28	-41.6	-43.0	19.9	0.00e+00	0	29	0	715128832	54	7199
2026-01-15 01:27:00.73	254.18	41.46	-41.1	-42.4	20.7	0.00e+00	0	29	0	723517440	56	5965
2026-01-15 01:27:04.77	256.13	41.60	-42.6	-44.2	18.9	0.00e+00	0	29	0	730857472	56	7365
2026-01-15 01:27:08.81	258.11	41.70	-40.5	-41.7	21.2	0.00e+00	0	29	0	738197504	54	6184
2026-01-15 01:27:12.85	260.09	41.77	-41.7	-43.1	20.0	0.00e+00	0	29	0	745537536	54	7269
2026-01-15 01:27:16.89	262.07	41.80	-39.5	-40.5	22.3	0.00e+00	0	29	0	753926144	52	6051
2026-01-15 01:27:20.93	264.06	41.79	-40.9	-42.2	20.8	0.00e+00	0	29	0	761266176	54	6562
2026-01-15 01:27:24.97	266.04	41.75	-39.9	-41.0	21.8	0.00e+00	0	29	0	768606208	54	5716
2026-01-15 01:27:29.01	268.02	41.66	-38.4	-39.3	23.4	0.00e+00	0	29	0	775946240	50	5911
2026-01-15 01:27:33.05	269.98	41.54	-38.9	-39.9	22.8	0.00e+00	0	29	0	783286272	50	6355
2026-01-15 01:27:37.09	271.93	41.39	-40.9	-42.1	20.8	0.00e+00	0	29	0	791674880	54	6530
2026-01-15 01:27:41.12	273.85	41.20	-40.1	-41.2	21.7	0.00e+00	0	29	0	799014912	54	5852
2026-01-15 01:27:45.16	275.75	40.97	-40.6	-41.7	21.1	0.00e+00	0	29	0	806354944	54	6245
2026-01-15 01:27:49.20	277.63	40.71	-41.9	-43.3	19.7	0.00e+00	0	29	0	813694976	56	6681
2026-01-15 01:27:53.24	279.47	40.43	-42.0	-43.5	19.5	0.00e+00	0	29	0	822083584	56	6821
2026-01-15 01:27:57.28	281.28	40.11	-40.8	-42.0	20.8	0.00e+00	0	29	0	829423616	54	6410
2026-01-15 01:28:01.31	283.04	39.76	-39.8	-40.8	21.9	0.00e+00	0	29	0	836763648	54	5620
2026-01-15 01:28:05.35	284.78	39.39	-39.8	-40.9	22.0	0.00e+00	0	29	0	844103680	52	6336
2026-01-15 01:28:09.38	286.47	39.00	-38.5	-39.4	23.2	0.00e+00	0	29	0	851443712	50	6008
2026-01-15 01:28:13.42	288.12	38.58	-37.6	-38.5	24.1	0.00e+00	0	29	0	859832320	48	6060
2026-01-15 01:28:17.46	289.73	38.14	-37.6	-38.5	23.8	0.00e+00	0	29	0	867172352	48	6079
2026-01-15 01:28:21.51	291.30	37.69	-36.5	-37.3	25.0	0.00e+00	0	29	0	874512384	46	5911
2026-01-15 01:28:25.54	292.82	37.22	-36.7	-37.6	24.8	0.00e+00	0	29	0	881852416	46	6104
2026-01-15 01:28:29.58	294.30	36.73	-37.7	-38.6	23.9	0.00e+00	0	29	0	890241024	46	6900
2026-01-15 01:28:33.62	295.73	36.23	-37.0	-37.8	24.6	0.00e+00	0	29	0	897581056	48	5615
2026-01-15 01:28:37.65	297.12	35.72	-36.8	-37.7	24.7	0.00e+00	0	29	0	904921088	48	5506
2026-01-15 01:28:41.69	298.47	35.20	-37.7	-38.6	23.9	0.00e+00	0	29	0	912261120	48	6136
2026-01-15 01:28:45.73	299.78	34.68	-39.2	-40.2	22.5	0.00e+00	0	29	0	919601152	50	6591
2026-01-15 01:28:49.77	301.05	34.14	-38.4	-39.4	23.3	0.00e+00	0	29	0	927989760	50	5972
2026-01-15 01:28:53.81	302.27	33.60	-38.9	-39.9	22.6	0.00e+00	0	29	0	935329792	50	6381
2026-01-15 01:28:57.85	303.46	33.06	-38.0	-38.9	23.6	0.00e+00	0	29	0	942669824	50	5668
2026-01-15 01:29:01.89	304.61	32.51	-41.0	-42.3	20.6	0.00e+00	0	29	0	950009856	54	6670
2026-01-15 01:29:05.93	305.72	31.96	-39.8	-40.9	21.9	0.00e+00	0	29	0	958398464	54	5655
2026-01-15 01:29:09.97	306.79	31.41	-40.5	-41.7	21.2	0.00e+00	0	29	0	965738496	54	6224
2026-01-15 01:29:14.01	307.83	30.86	-38.2	-39.0	23.5	0.00e+00	0	29	0	973078528	50	5755
2026-01-15 01:29:18.05	308.84	30.31	-40.0	-41.1	21.7	0.00e+00	0	29	0	980418560	54	5801
2026-01-15 01:29:22.09	309.81	29.77	-38.1	-39.0	23.5	0.00e+00	0	29	0	987758592	50	5752
2026-01-15 01:29:26.12	310.75	29.22	-40.0	-41.1	21.6	0.00e+00	0	29	0	996147200	52	6494
2026-01-15 01:29:30.16	311.65	28.68	-37.1	-37.9	24.4	0.00e+00	0	29	0	1003487232	48	5670
2026-01-15 01:29:34.19	312.53	28.14	-38.8	-39.8	22.3	0.00e+00	0	29	0	1010827264	48	7045
2026-01-15 01:29:38.22	313.38	27.60	-36.6	-37.3	24.9	0.00e+00	0	29	0	1018167296	46	5959
2026-01-15 01:29:42.26	314.21	27.07	-37.8	-38.7	23.7	0.00e+00	0	29	0	1026555904	46	6975
2026-01-15 01:29:46.30	315.00	26.55	-38.2	-39.2	23.3	0.00e+00	0	29	0	1033895936	48	6550
2026-01-15 01:29:50.33	315.77	26.02	-36.2	-37.0	25.1	0.00e+00	0	29	0	1041235968	46	5724
2026-01-15 01:29:54.37	316.52	25.51	-37.3	-38.2	24.2	0.00e+00	0	29	0	1048576000	46	6580
2026-01-15 01:29:58.41	317.25	24.99	-36.1	-36.8	25.3	0.00e+00	0	29	0	1055916032	46	5618
2026-01-15 01:30:02.45	317.95	24.49	-36.3	-37.0	25.1	0.00e+00	0	29	0	1064304640	44	6463
2026-01-15 01:30:06.48	318.63	23.99	-36.7	-37.5	24.7	0.00e+00	0	29	0	1071644672	46	6084
2026-01-15 01:30:10.52	319.29	23.49	-36.6	-37.4	24.9	0.00e+00	0	29	0	1078984704	46	5972
2026-01-15 01:30:14.56	319.93	23.00	-37.1	-37.9	24.4	0.00e+00	0	29	0	1086324736	46	6380
2026-01-15 01:30:18.60	320.55	22.51	-37.1	-37.9	24.4	0.00e+00	0	29	0	1094713344	46	6359
2026-01-15 01:30:22.64	321.15	22.04	-36.9	-37.7	24.5	0.00e+00	0	29	0	1102053376	46	6239
2026-01-15 01:30:26.68	321.74	21.56	-37.4	-38.3	24.0	0.00e+00	0	29	0	1109393408	46	6645
2026-01-15 01:30:30.71	322.30	21.10	-37.4	-38.3	24.0	0.00e+00	0	29	0	1116733440	46	6630
2026-01-15 01:30:34.75	322.86	20.64	-38.1	-39.1	23.3	0.00e+00	0	29	0	1124073472	48	6476
2026-01-15 01:30:38.78	323.39	20.18	-39.2	-40.3	22.2	0.00e+00	0	29	0	1132462080	50	6649
2026-01-15 01:30:42.82	323.91	19.73	-38.2	-39.2	23.3	0.00e+00	0	29	0	1139802112	50	5831
2026-01-15 01:30:46.86	324.42	19.29	-37.5	-38.4	23.9	0.00e+00	0	29	0	1147142144	48	6008
2026-01-15 01:30:50.90	324.91	18.85	-38.0	-38.9	23.2	0.00e+00	0	29	0	1154482176	48	6388
2026-01-15 01:30:54.94	325.39	18.42	-38.5	-39.5	22.9	0.00e+00	0	29	0	1162870784	48	6811
2026-01-15 01:30:58.97	325.86	18.00	-38.2	-39.2	23.2	0.00e+00	0	29	0	1170210816	48	6553
2026-01-15 01:31:03.01	326.31	17.58	-37.9	-38.8	23.5	0.00e+00	0	29	0	1177550848	48	6274
2026-01-15 01:31:07.05	326.76	17.16	-37.8	-38.7	23.6	0.00e+00	0	29	0	1184890880	48	6198
2026-01-15 01:31:11.09	327.19	16.75	-38.1	-39.1	23.2	0.00e+00	0	29	0	1192230912	48	6478
2026-01-15 01:31:15.13	327.61	16.35	-38.4	-39.4	22.9	0.00e+00	0	29	0	1200619520	48	6722
2026-01-15 01:31:19.16	328.02	15.95	-38.3	-39.3	23.1	0.00e+00	0	29	0	1207959552	48	6651
2026-01-15 01:31:23.20	328.41	15.56	-38.3	-39.2	23.1	0.00e+00	0	29	0	1215299584	48	6606
2026-01-15 01:31:27.24	328.80	15.17	-38.6	-39.5	22.8	0.00e+00	0	29	0	1222639616	48	6848
2026-01-15 01:31:31.27	329.18	14.78	-38.8	-39.8	22.6	0.00e+00	0	29	0	1229979648	50	6273
2026-01-15 01:31:35.30	329.55	14.41	-38.8	-39.8	22.4	0.00e+00	0	29	0	1238368256	50	6304
2026-01-15 01:31:39.33	329.92	14.03	-38.5	-39.5	22.7	0.00e+00	0	29	0	1245708288	50	6098
2026-01-15 01:31:43.37	330.27	13.66	-38.4	-39.4	22.8	0.00e+00	0	29	0	1253048320	50	6000
2026-01-15 01:31:47.41	330.61	13.30	-38.5	-39.5	22.7	0.00e+00	0	29	0	1260388352	50	6092
2026-01-15 01:31:51.45	330.95	12.94	-38.6	-39.6	22.7	0.00e+00	0	29	0	1268776960	50	6149
2026-01-15 01:31:55.49	331.28	12.58	-38.8	-39.8	22.4	0.00e+00	0	29	0	1276116992	50	6302
2026-01-15 01:31:59.53	331.61	12.23	-39.3	-40.4	21.8	0.00e+00	0	29	0	1283457024	50	6716
2026-01-15 01:32:03.56	331.92	11.89	-39.3	-40.4	21.7	0.00e+00	0	29	0	1290797056	50	6738
2026-01-15 01:32:07.60	332.23	11.54	-39.3	-40.4	21.7	0.00e+00	0	29	0	1298137088	50	6742
2026-01-15 01:32:11.64	332.53	11.21	-39.3	-40.4	21.7	0.00e+00	0	29	0	1306525696	50	6767
2026-01-15 01:32:15.68	332.83	10.87	-39.3	-40.4	21.8	0.00e+00	0	29	0	1313865728	50	6727
2026-01-15 01:32:19.71	333.12	10.54	-39.4	-40.5	21.7	0.00e+00	0	29	0	1321205760	50	6781
2026-01-15 01:32:23.75	333.40	10.21	-39.4	-40.5	21.6	0.00e+00	0	29	0	1328545792	50	6837
2026-01-15 01:32:27.79	333.68	9.89	-39.8	-41.0	21.1	0.00e+00	0	29	0	1336934400	52	6436
2026-01-15 01:32:31.83	333.95	9.57	-40.3	-41.5	20.6	0.00e+00	0	29	0	1344274432	52	6826
2026-01-15 01:32:35.86	334.21	9.26	-40.4	-41.7	20.3	0.00e+00	0	29	0	1351614464	52	6980
2026-01-15 01:32:39.90	334.48	8.94	-40.4	-41.7	20.4	0.00e+00	0	29	0	1358954496	52	6994
2026-01-15 01:32:43.94	334.73	8.63	-40.5	-41.8	20.3	0.00e+00	0	29	0	1366294528	52	7033
2026-01-15 01:32:47.98	334.98	8.33	-40.3	-41.6	20.5	0.00e+00	0	29	0	1374683136	52	6878
2026-01-15 01:32:52.02	335.23	8.03	-40.3	-41.6	20.5	0.00e+00	0	29	0	1382023168	52	6889
2026-01-15 01:32:56.06	335.47	7.73	-40.5	-41.8	20.1	0.00e+00	0	29	0	1389363200	52	7077
2026-01-15 01:33:00.10	335.71	7.43	-40.5	-41.8	20.1	0.00e+00	0	29	0	1396703232	54	6272
2026-01-15 01:33:04.14	335.94	7.14	-40.8	-42.3	19.6	0.00e+00	0	29	0	1405091840	54	6636
2026-01-15 01:33:08.17	336.17	6.85	-41.0	-42.5	19.4	0.00e+00	0	29	0	1412431872	54	6816
2026-01-15 01:33:12.22	336.40	6.56	-41.4	-43.0	19.0	0.00e+00	0	29	0	1419771904	54	7223
2026-01-15 01:33:16.24	336.61	6.28	-41.6	-43.3	18.5	0.00e+00	0	29	0	1427111936	56	6683
2026-01-15 01:33:20.28	336.83	5.99	-42.0	-43.9	17.8	0.00e+00	0	29	0	1434451968	56	7121
2026-01-15 01:33:24.32	337.04	5.72	-42.3	-44.6	16.5	0.00e+00	0	29	0	1442840576	56	7697
2026-01-15 01:33:28.36	337.25	5.44	-42.8	-45.9	14.4	0.00e+00	0	29	0	1450180608	58	7956
2026-01-15 01:33:32.40	337.46	5.17	-43.2	-47.0	12.7	3.28e-05	0	29	0	1457520640	58	9075
2026-01-15 01:33:36.44	337.66	4.89	-43.6	-48.4	10.5	2.42e-03	0	30	0	1464860672	58	10728
2026-01-15 01:33:40.48	337.86	4.63	-43.9	-49.9	8.5	3.13e-02	0	30	0	1473249280	60	11338
2026-01-15 01:33:44.51	338.06	4.36	-44.1	-51.8	6.2	2.19e-01	0	30	0	1480589312	60	13990
2026-01-15 01:33:48.55	338.25	4.10	-44.1	-54.1	4.1	1.00e+00	28	30	0	1487929344	60	18279
2026-01-15 01:33:52.59	338.44	3.83	-44.0	-57.5	3.6	1.50e+00	0	30	104	1488977920	60	26998
2026-01-15 01:33:56.63	338.63	3.58	-43.9	-58.8	3.6	1.51e+00	0	30	104	1488977920	60	31326
2026-01-15 01:34:00.66	338.81	3.32	-44.0	-59.2	3.6	1.51e+00	0	30	104	1488977920	60	33091
2026-01-15 01:34:04.70	338.99	3.06	-44.1	-59.3	3.6	1.51e+00	0	30	104	1488977920	60	33466
2026-01-15 01:34:08.74	339.17	2.81	-48.6	-63.7	3.6	1.51e+00	0	30	104	1488977920	60	55596
2026-01-15 01:34:12.78	339.34	2.56	-48.9	-64.1	3.6	1.51e+00	0	30	104	1488977920	60	58149
2026-01-15 01:34:16.82	339.52	2.31	-48.5	-64.2	3.6	1.51e+00	0	30	104	1488977920	60	58435
2026-01-15 01:34:20.86	339.69	2.07	-48.9	-64.1	3.6	1.51e+00	0	30	104	1488977920	60	58174
2026-01-15 01:34:24.90	339.85	1.82	-49.0	-64.1	3.6	1.51e+00	0	30	104	1488977920	60	58278
2026-01-15 01:34:28.93	340.02	1.58	-48.9	-64.2	3.6	1.51e+00	0	30	104	1488977920	60	58320
2026-01-15 01:34:32.97	340.18	1.34	-48.9	-64.1	3.6	1.51e+00	0	30	104	1488977920	60	57898
2026-01-15 01:34:37.01	340.34	1.10	-48.9	-64.1	3.6	1.51e+00	0	30	104	1488977920	60	57916
2026-01-15 01:34:41.05	340.50	0.86	-48.9	-64.0	3.6	1.51e+00	0	30	104	1488977920	60	57581
2026-01-15 01:34:45.09	340.66	0.63	-48.9	-64.1	3.6	1.51e+00	0	30	104	1488977920	60	57773
2026-01-15 01:34:49.13	340.81	0.39	-48.9	-64.1	3.6	1.51e+00	0	30	104	1488977920	60	57983
2026-01-15 01:34:53.17	340.96	0.16	-48.9	-64.1	3.6	1.51e+00	0	30	104	1488977920	60	57685
2026-01-15 01:34:57.21	341.11	-0.07	-48.9	-64.1	3.6	1.51e+00	0	30	104	1488977920	60	57653

#Closed at: 2026-01-15 01:34:58
#Recorded file [1488 MB]: D:/lorett/data/35029_260115_131944.dat