passes_logs/2026/01/15/R4.6S_Anadyr/R4.6S_Anadyr__20260115_215725_AQUA_rec.log

#Pass ID: 20260115_215725_AQUA
#Satellite: AQUA
#Configuration: AQUA
#almurnet v.1.7.20251203
#Start time: 2026-01-15 21:57:31

#Version: 2.2.20231116
#Station: R4.6S_Anadyr
#Location: 177.4865 lon 64.73178 lat
#TLE: 1 27424U 02022A   26014.61231444  .00000653  00000+0  14070-3 0  9991
#TLE: 2 27424  98.4080 341.0332 0002042  78.9336 335.9961 14.61820174260839

#Time	Az	El	Level	Level2	SNR	BER	BlckErr	Temp	State	Recorded	gain1	gain2
2026-01-15 21:57:31.26	61.41	0.26	-48.4	-49.9	5.7	0.00e+00	0	28	0	0	60	38445
2026-01-15 21:57:34.28	61.13	0.41	-48.6	-66.6	3.5	7.72e-01	0	29	104	0	60	81960
2026-01-15 21:57:37.27	60.85	0.55	-48.4	-66.5	3.5	7.72e-01	0	29	104	0	60	81459
2026-01-15 21:57:40.22	60.57	0.69	-48.0	-66.3	3.5	7.72e-01	0	29	104	0	60	79699
2026-01-15 21:57:43.15	60.29	0.83	-46.8	-65.8	3.5	7.72e-01	0	29	104	0	60	75184
2026-01-15 21:57:46.09	60.00	0.97	-44.9	-64.8	3.5	7.72e-01	0	29	104	0	60	67101
2026-01-15 21:57:49.01	59.72	1.11	-44.8	-64.9	3.5	7.72e-01	0	29	104	0	60	67325
2026-01-15 21:57:51.95	59.42	1.25	-44.8	-64.8	3.5	7.72e-01	0	29	104	0	60	67085
2026-01-15 21:57:54.89	59.13	1.39	-44.7	-64.9	3.5	7.72e-01	0	29	104	0	60	67329
2026-01-15 21:57:57.82	58.83	1.53	-44.7	-64.8	3.5	7.72e-01	0	29	104	0	60	67072
2026-01-15 21:58:00.75	58.54	1.67	-44.7	-64.8	3.5	7.72e-01	0	29	104	0	60	67067
2026-01-15 21:58:03.68	58.23	1.81	-44.8	-64.9	3.5	7.72e-01	0	29	104	0	60	67329
2026-01-15 21:58:06.61	57.93	1.95	-44.7	-64.7	3.5	7.72e-01	0	29	104	0	60	66183
2026-01-15 21:58:09.54	57.62	2.10	-44.6	-64.7	3.5	7.72e-01	0	29	104	0	60	66323
2026-01-15 21:58:12.47	57.31	2.24	-44.7	-64.5	3.5	7.72e-01	0	29	104	0	60	64803
2026-01-15 21:58:15.40	56.99	2.38	-44.6	-64.4	3.5	7.72e-01	0	29	104	0	60	63684
2026-01-15 21:58:18.33	56.67	2.52	-44.7	-64.8	3.5	7.72e-01	0	29	104	0	60	67024
2026-01-15 21:58:21.27	56.35	2.66	-44.7	-64.8	3.5	7.72e-01	0	29	104	0	60	66621
2026-01-15 21:58:24.20	56.02	2.80	-44.6	-64.1	3.5	7.72e-01	0	29	104	0	60	61950
2026-01-15 21:58:27.13	55.69	2.94	-42.7	-56.3	3.5	7.72e-01	0	29	104	0	60	25119
2026-01-15 21:58:30.06	55.36	3.08	-47.1	-64.9	3.5	7.72e-01	0	30	104	0	60	67839
2026-01-15 21:58:32.99	55.02	3.22	-45.1	-63.1	3.5	7.72e-01	0	30	104	0	60	55264
2026-01-15 21:58:35.93	54.68	3.36	-38.1	-49.4	3.6	7.72e-01	0	30	104	0	52	18036
2026-01-15 21:58:38.86	54.34	3.51	-37.9	-48.6	3.5	7.72e-01	0	29	104	0	50	18327
2026-01-15 21:58:41.79	53.99	3.65	-42.7	-54.9	3.5	7.72e-01	0	30	104	0	60	21496
2026-01-15 21:58:44.73	53.64	3.79	-38.6	-49.8	3.5	7.72e-01	0	30	104	0	52	18798
2026-01-15 21:58:47.66	53.28	3.93	-42.5	-54.2	3.5	7.72e-01	0	30	104	0	56	24812
2026-01-15 21:58:50.59	52.92	4.07	-42.8	-60.3	3.5	7.72e-01	0	30	104	0	60	39796
2026-01-15 21:58:53.52	52.56	4.21	-37.6	-48.7	3.5	7.72e-01	0	30	104	0	50	18561
2026-01-15 21:58:56.46	52.19	4.35	-38.7	-49.7	3.5	7.72e-01	0	30	104	0	50	20926
2026-01-15 21:58:59.39	51.82	4.49	-44.3	-57.3	3.5	7.72e-01	0	30	104	0	60	28346
2026-01-15 21:59:02.32	51.44	4.63	-40.8	-52.6	3.5	7.72e-01	0	30	104	0	56	20710
2026-01-15 21:59:05.26	51.06	4.77	-40.6	-52.8	3.5	7.72e-01	0	30	104	0	56	21124
2026-01-15 21:59:08.19	50.68	4.90	-44.5	-57.1	3.5	7.72e-01	0	30	104	0	60	27409
2026-01-15 21:59:11.11	50.30	5.04	-38.1	-48.6	3.5	7.72e-01	0	30	104	0	50	18426
2026-01-15 21:59:14.05	49.90	5.18	-37.0	-47.5	3.5	7.72e-01	0	30	104	0	50	16256
2026-01-15 21:59:16.97	49.51	5.32	-45.3	-63.2	3.5	7.72e-01	0	30	104	0	60	55721
2026-01-15 21:59:19.90	49.11	5.46	-40.5	-52.6	3.5	7.72e-01	0	30	104	0	58	18316
2026-01-15 21:59:22.83	48.71	5.59	-39.7	-51.0	3.5	7.72e-01	0	30	104	0	54	19282
2026-01-15 21:59:25.77	48.30	5.73	-39.9	-50.8	3.5	7.72e-01	0	30	104	0	52	21223
2026-01-15 21:59:28.70	47.88	5.86	-38.1	-48.7	3.5	7.72e-01	0	30	104	0	52	16576
2026-01-15 21:59:31.62	47.47	6.00	-37.1	-47.6	3.5	7.72e-01	0	30	104	0	50	16383
2026-01-15 21:59:34.56	47.05	6.13	-38.8	-49.7	3.5	7.72e-01	0	30	104	0	50	20915
2026-01-15 21:59:37.49	46.62	6.27	-45.1	-62.3	3.5	7.72e-01	0	30	104	0	60	50091
2026-01-15 21:59:40.42	46.19	6.40	-40.7	-52.5	3.5	7.72e-01	0	30	104	0	56	20544
2026-01-15 21:59:43.37	45.76	6.54	-43.7	-59.0	3.7	7.72e-01	0	30	104	0	60	34414
2026-01-15 21:59:46.30	45.32	6.67	-38.7	-49.4	3.5	7.72e-01	0	30	104	0	50	20214
2026-01-15 21:59:49.23	44.87	6.80	-37.6	-48.2	3.5	7.72e-01	0	30	104	0	50	17572
2026-01-15 21:59:52.16	44.43	6.93	-37.9	-48.7	3.6	7.72e-01	0	30	104	0	50	18593
2026-01-15 21:59:55.09	43.98	7.06	-46.3	-65.2	3.5	7.72e-01	0	30	104	0	60	70312
2026-01-15 21:59:58.02	43.52	7.19	-39.8	-50.8	3.5	7.72e-01	0	30	104	0	54	18926
2026-01-15 22:00:00.95	43.06	7.32	-46.5	-65.3	3.5	7.72e-01	0	30	104	0	60	70759
2026-01-15 22:00:03.89	42.59	7.44	-38.0	-48.7	3.5	7.72e-01	0	30	104	0	50	18590
2026-01-15 22:00:06.82	42.12	7.57	-37.5	-48.0	3.5	7.72e-01	0	30	104	0	50	17173
2026-01-15 22:00:09.75	41.65	7.70	-37.1	-47.6	3.5	7.72e-01	0	30	104	0	46	20674
2026-01-15 22:00:12.68	41.17	7.82	-44.2	-57.6	3.6	7.72e-01	0	30	104	0	56	36609
2026-01-15 22:00:15.61	40.69	7.94	-37.4	-48.1	3.5	7.72e-01	0	30	104	0	50	17311
2026-01-15 22:00:18.54	40.20	8.06	-45.9	-59.8	3.5	7.72e-01	0	30	104	0	60	37734
2026-01-15 22:00:21.47	39.71	8.18	-40.5	-51.9	3.4	7.72e-01	0	30	104	0	60	15179
2026-01-15 22:00:24.40	39.21	8.30	-38.5	-49.3	3.5	7.72e-01	0	30	104	0	52	17826
2026-01-15 22:00:27.33	38.71	8.42	-36.3	-46.7	3.5	7.72e-01	0	30	104	0	48	16646
2026-01-15 22:00:30.26	38.21	8.54	-41.6	-52.8	3.6	7.72e-01	0	30	104	0	60	16782
2026-01-15 22:00:33.20	37.69	8.65	-37.1	-47.7	3.5	7.72e-01	0	30	104	0	48	18602
2026-01-15 22:00:36.13	37.18	8.77	-43.1	-55.0	3.5	7.72e-01	0	30	104	0	60	21683
2026-01-15 22:00:39.06	36.66	8.88	-44.8	-57.3	3.5	7.72e-01	0	30	104	0	60	28274
2026-01-15 22:00:41.99	36.14	8.99	-39.3	-50.1	3.5	7.72e-01	0	30	104	0	54	17463
2026-01-15 22:00:44.92	35.61	9.10	-42.6	-54.1	3.5	7.72e-01	0	30	104	0	58	21886
2026-01-15 22:00:47.85	35.08	9.21	-45.7	-64.2	3.5	7.72e-01	0	30	104	0	60	62215
2026-01-15 22:00:50.78	34.54	9.31	-35.8	-46.3	3.5	7.72e-01	0	30	104	0	46	17809
2026-01-15 22:00:53.72	34.00	9.42	-38.1	-48.7	3.5	7.72e-01	0	30	104	0	48	20910
2026-01-15 22:00:56.64	33.46	9.52	-43.5	-55.6	3.5	7.72e-01	0	30	104	0	60	23285
2026-01-15 22:00:59.57	32.91	9.62	-39.8	-50.6	3.5	7.72e-01	0	30	104	0	54	18326
2026-01-15 22:01:02.49	32.36	9.72	-44.5	-56.7	3.5	7.72e-01	0	30	104	0	60	26296
2026-01-15 22:01:05.42	31.80	9.81	-44.9	-58.0	3.5	7.72e-01	0	30	104	0	60	30406
2026-01-15 22:01:08.36	31.24	9.91	-37.4	-48.0	3.5	7.72e-01	0	30	104	0	50	17170
2026-01-15 22:01:11.28	30.68	10.00	-35.7	-46.1	3.4	7.72e-01	0	30	104	0	46	17467
2026-01-15 22:01:14.21	30.11	10.09	-46.0	-60.9	3.5	7.72e-01	0	30	104	0	60	42665
2026-01-15 22:01:17.14	29.54	10.18	-38.7	-49.3	3.5	7.72e-01	0	30	104	0	52	17773
2026-01-15 22:01:20.07	28.96	10.26	-38.7	-49.3	3.5	7.72e-01	0	30	104	0	52	17794
2026-01-15 22:01:23.01	28.38	10.34	-47.4	-65.0	3.5	7.72e-01	0	30	104	0	60	68448
2026-01-15 22:01:25.95	27.80	10.42	-40.6	-51.4	3.5	7.72e-01	0	30	104	0	58	16067
2026-01-15 22:01:28.88	27.21	10.50	-37.4	-47.9	3.5	7.72e-01	0	30	104	0	50	16951
2026-01-15 22:01:31.81	26.62	10.58	-47.4	-63.5	3.5	7.72e-01	0	30	104	0	60	57628
2026-01-15 22:01:34.75	26.03	10.65	-36.0	-46.3	3.5	7.72e-01	0	30	104	0	48	15851
2026-01-15 22:01:37.68	25.43	10.72	-35.7	-46.1	3.5	7.72e-01	0	30	104	0	46	17381
2026-01-15 22:01:40.61	24.83	10.79	-39.5	-50.1	3.5	7.72e-01	0	30	104	0	48	24559
2026-01-15 22:01:43.54	24.23	10.86	-44.3	-48.2	4.9	7.72e-01	0	30	104	524288	60	9889
2026-01-15 22:01:46.47	23.62	10.92	-38.6	-40.3	25.1	7.72e-01	0	30	0	3670016	52	6292
2026-01-15 22:01:49.40	23.01	10.98	-36.8	-38.2	26.7	7.72e-01	0	30	0	8912896	48	6263
2026-01-15 22:01:52.33	22.40	11.03	-35.9	-37.3	27.7	7.72e-01	0	30	0	14680064	46	6292
2026-01-15 22:01:55.26	21.79	11.09	-35.2	-36.5	28.3	7.72e-01	0	30	0	19922944	46	5733
2026-01-15 22:01:58.19	21.18	11.14	-35.2	-36.5	28.3	7.72e-01	0	30	0	25690112	46	5757
2026-01-15 22:02:01.13	20.56	11.19	-35.2	-36.6	28.3	7.72e-01	0	30	0	30932992	46	5798
2026-01-15 22:02:04.05	19.94	11.23	-35.2	-36.5	28.3	7.72e-01	0	30	0	36700160	46	5769
2026-01-15 22:02:06.99	19.31	11.28	-35.2	-36.5	28.4	7.72e-01	0	30	0	41943040	46	5741
2026-01-15 22:02:09.91	18.69	11.32	-35.2	-36.5	28.3	7.72e-01	0	30	0	47710208	46	5752
2026-01-15 22:02:12.85	18.06	11.35	-35.1	-36.4	28.4	7.72e-01	0	30	0	52953088	46	5666
2026-01-15 22:02:15.78	17.44	11.39	-35.0	-36.2	28.6	7.72e-01	0	30	0	58720256	44	6252
2026-01-15 22:02:18.71	16.81	11.42	-35.2	-36.5	28.3	7.72e-01	0	30	0	63963136	44	6456
2026-01-15 22:02:21.64	16.18	11.44	-35.1	-36.3	28.5	7.72e-01	0	30	0	69730304	44	6347
2026-01-15 22:02:24.58	15.55	11.47	-35.1	-36.4	28.4	7.72e-01	0	30	0	74973184	44	6403
2026-01-15 22:02:27.51	14.91	11.49	-35.2	-36.4	28.4	7.72e-01	0	30	0	80216064	44	6412
2026-01-15 22:02:30.44	14.28	11.50	-35.3	-36.5	28.4	7.72e-01	0	30	0	85983232	44	6497
2026-01-15 22:02:33.37	13.65	11.52	-35.1	-36.4	28.4	7.72e-01	0	30	0	91226112	44	6360
2026-01-15 22:02:36.30	13.01	11.53	-35.1	-36.4	28.4	7.72e-01	0	30	0	96993280	44	6379
2026-01-15 22:02:39.23	12.38	11.54	-35.1	-36.4	28.4	7.72e-01	0	30	0	102760448	44	6370
2026-01-15 22:02:42.16	11.74	11.54	-35.3	-36.6	28.2	7.72e-01	0	30	0	108003328	44	6541
2026-01-15 22:02:45.09	11.11	11.54	-35.1	-36.3	28.5	7.72e-01	0	30	0	113246208	44	6340
2026-01-15 22:02:48.02	10.47	11.54	-35.2	-36.5	28.3	7.72e-01	0	30	0	119013376	44	6468
2026-01-15 22:02:50.95	9.84	11.54	-35.2	-36.5	28.3	7.72e-01	0	30	0	124256256	44	6446
2026-01-15 22:02:53.88	9.20	11.53	-35.1	-36.4	28.4	7.72e-01	0	30	0	130023424	44	6384
2026-01-15 22:02:56.81	8.57	11.52	-35.3	-36.5	28.3	7.72e-01	0	30	0	135266304	44	6481
2026-01-15 22:02:59.74	7.93	11.50	-35.3	-36.5	28.3	7.72e-01	0	30	0	141033472	44	6497
2026-01-15 22:03:02.68	7.30	11.48	-35.4	-36.6	28.3	7.72e-01	0	30	0	146276352	44	6563
2026-01-15 22:03:05.61	6.67	11.46	-35.3	-36.6	28.3	7.72e-01	0	30	0	152043520	44	6513
2026-01-15 22:03:08.55	6.03	11.44	-35.1	-36.4	28.3	7.72e-01	0	30	0	157286400	44	6377
2026-01-15 22:03:11.48	5.41	11.41	-35.2	-36.5	28.3	7.72e-01	0	30	0	163053568	44	6466
2026-01-15 22:03:14.41	4.78	11.38	-35.2	-36.5	28.4	7.72e-01	0	30	0	168296448	44	6432
2026-01-15 22:03:17.33	4.15	11.35	-35.5	-36.8	28.1	7.72e-01	0	30	0	174063616	44	6686
2026-01-15 22:03:20.26	3.53	11.31	-35.1	-36.3	28.4	7.72e-01	0	30	0	179306496	44	6349
2026-01-15 22:03:23.19	2.90	11.27	-35.2	-36.5	28.3	7.72e-01	0	30	0	185073664	44	6437
2026-01-15 22:03:26.12	2.28	11.23	-35.1	-36.4	28.4	7.72e-01	0	30	0	190316544	44	6382
2026-01-15 22:03:29.05	1.66	11.18	-35.1	-36.4	28.5	7.72e-01	0	30	0	196083712	44	6358
2026-01-15 22:03:31.99	1.04	11.13	-35.1	-36.3	28.5	7.72e-01	0	30	0	201326592	44	6329
2026-01-15 22:03:34.93	0.43	11.08	-35.3	-36.6	28.2	7.72e-01	0	30	0	207093760	44	6512
2026-01-15 22:03:37.85	359.82	11.03	-35.3	-36.5	28.4	7.72e-01	0	30	0	212336640	44	6479
2026-01-15 22:03:40.79	359.21	10.97	-35.4	-36.7	28.2	7.72e-01	0	30	0	218103808	44	6601
2026-01-15 22:03:43.72	358.60	10.91	-35.3	-36.5	28.3	7.72e-01	0	30	0	223346688	44	6491
2026-01-15 22:03:46.65	357.99	10.85	-35.2	-36.5	28.3	7.72e-01	0	30	0	229113856	44	6439
2026-01-15 22:03:49.58	357.39	10.78	-35.4	-36.7	28.1	7.72e-01	0	30	0	234356736	44	6609
2026-01-15 22:03:52.52	356.79	10.71	-35.2	-36.5	28.3	7.72e-01	0	30	0	239599616	44	6471
2026-01-15 22:03:55.45	356.20	10.64	-35.3	-36.5	28.3	7.72e-01	0	30	0	245366784	44	6483
2026-01-15 22:03:58.38	355.60	10.57	-35.4	-36.7	28.1	7.72e-01	0	30	0	251133952	44	6617
2026-01-15 22:04:01.31	355.02	10.49	-35.6	-36.9	28.0	7.72e-01	0	30	0	256376832	44	6739
2026-01-15 22:04:04.24	354.43	10.41	-35.3	-36.6	28.2	7.72e-01	0	30	0	261619712	44	6514
2026-01-15 22:04:07.18	353.85	10.33	-35.4	-36.7	28.2	7.72e-01	0	30	0	267386880	44	6580
2026-01-15 22:04:10.11	353.27	10.25	-35.6	-36.9	28.0	7.72e-01	0	30	0	272629760	44	6737
2026-01-15 22:04:13.04	352.69	10.16	-35.5	-36.8	28.0	7.72e-01	0	29	0	278396928	44	6709
2026-01-15 22:04:15.98	352.12	10.08	-35.4	-36.7	28.1	7.72e-01	0	30	0	284164096	44	6627
2026-01-15 22:04:18.91	351.55	9.98	-35.9	-37.2	27.7	7.72e-01	0	30	0	289406976	46	6268
2026-01-15 22:04:21.84	350.99	9.89	-35.9	-37.2	27.6	7.72e-01	0	30	0	294649856	46	6262
2026-01-15 22:04:24.77	350.43	9.80	-35.9	-37.2	27.6	7.72e-01	0	30	0	300417024	46	6263
2026-01-15 22:04:27.70	349.88	9.70	-36.0	-37.3	27.6	7.72e-01	0	30	0	305659904	46	6288
2026-01-15 22:04:30.63	349.32	9.60	-36.3	-37.7	27.2	7.72e-01	0	29	0	311427072	46	6586
2026-01-15 22:04:33.57	348.77	9.50	-35.5	-36.7	28.0	7.72e-01	0	29	0	316669952	46	5919
2026-01-15 22:04:36.50	348.23	9.40	-37.1	-38.6	26.3	7.72e-01	0	29	0	322437120	46	7325
2026-01-15 22:04:39.43	347.69	9.30	-35.6	-36.9	27.8	7.72e-01	0	29	0	327680000	46	5998
2026-01-15 22:04:42.36	347.16	9.19	-37.0	-38.4	26.1	7.72e-01	0	29	0	333447168	46	7201
2026-01-15 22:04:45.30	346.63	9.08	-35.8	-37.1	27.7	7.72e-01	0	29	0	338690048	46	6140
2026-01-15 22:04:48.23	346.10	8.97	-36.7	-38.1	26.6	7.72e-01	0	29	0	344457216	46	6926
2026-01-15 22:04:51.17	345.58	8.86	-36.1	-37.5	27.3	7.72e-01	0	29	0	349700096	46	6425
2026-01-15 22:04:54.10	345.06	8.75	-35.9	-37.2	27.6	7.72e-01	0	29	0	355467264	46	6246
2026-01-15 22:04:57.03	344.55	8.64	-36.8	-38.2	26.7	7.72e-01	0	29	0	360710144	46	7009
2026-01-15 22:04:59.95	344.04	8.52	-36.2	-37.5	27.3	7.72e-01	0	29	0	366477312	46	6474
2026-01-15 22:05:02.89	343.53	8.41	-36.3	-37.7	27.1	7.72e-01	0	29	0	371720192	46	6602
2026-01-15 22:05:05.82	343.04	8.29	-37.1	-38.6	26.3	7.72e-01	0	29	0	377487360	48	6524
2026-01-15 22:05:08.74	342.54	8.17	-36.4	-37.8	27.0	7.72e-01	0	29	0	382730240	48	5937
2026-01-15 22:05:11.68	342.05	8.05	-36.4	-37.7	27.0	7.72e-01	0	29	0	388497408	48	5907
2026-01-15 22:05:14.60	341.57	7.93	-36.6	-38.0	26.8	7.72e-01	0	29	0	393740288	48	6119
2026-01-15 22:05:17.54	341.08	7.80	-36.4	-37.8	26.9	7.72e-01	0	29	0	399507456	48	5952
2026-01-15 22:05:20.47	340.60	7.68	-36.5	-37.9	26.9	7.72e-01	0	29	0	404750336	48	6010
2026-01-15 22:05:23.40	340.13	7.55	-36.4	-37.8	26.8	7.72e-01	0	29	0	410517504	48	5936
2026-01-15 22:05:26.34	339.66	7.43	-37.0	-38.4	26.4	7.72e-01	0	29	0	415760384	48	6390
2026-01-15 22:05:29.27	339.20	7.30	-37.0	-38.5	26.5	7.72e-01	0	29	0	421003264	48	6431
2026-01-15 22:05:32.20	338.74	7.17	-37.1	-38.6	26.1	7.72e-01	0	29	0	426770432	48	6546
2026-01-15 22:05:35.13	338.29	7.04	-37.1	-38.6	25.9	7.72e-01	0	29	0	432537600	48	6524
2026-01-15 22:05:38.07	337.83	6.91	-37.1	-38.5	26.1	7.72e-01	0	29	0	437780480	48	6446
2026-01-15 22:05:41.00	337.39	6.78	-37.5	-38.9	25.6	7.72e-01	0	29	0	443023360	48	6802
2026-01-15 22:05:43.93	336.95	6.65	-37.3	-38.7	25.8	7.72e-01	0	29	0	448790528	48	6647
2026-01-15 22:05:46.86	336.51	6.52	-37.1	-38.5	26.1	7.72e-01	0	29	0	454033408	48	6465
2026-01-15 22:05:49.79	336.08	6.39	-36.6	-38.0	26.4	7.72e-01	0	29	0	459800576	48	6115
2026-01-15 22:05:52.73	335.65	6.25	-37.5	-39.1	25.4	7.72e-01	0	29	0	465567744	48	6892
2026-01-15 22:05:55.66	335.22	6.12	-38.2	-39.9	24.4	7.72e-01	0	29	0	470810624	50	6784
2026-01-15 22:05:58.60	334.80	5.98	-38.4	-40.1	24.0	7.72e-01	0	29	0	476053504	50	6905
2026-01-15 22:06:01.53	334.39	5.85	-38.6	-40.4	23.3	7.72e-01	0	29	0	481820672	50	7206
2026-01-15 22:06:04.46	333.98	5.71	-38.8	-40.6	23.0	7.72e-01	0	29	0	487063552	52	6568
2026-01-15 22:06:07.39	333.57	5.58	-38.9	-40.7	23.0	7.72e-01	0	29	0	492830720	52	6639
2026-01-15 22:06:10.33	333.17	5.44	-38.8	-40.6	23.2	7.72e-01	0	29	0	498073600	52	6539
2026-01-15 22:06:13.26	332.77	5.30	-38.6	-40.4	23.5	7.72e-01	0	29	0	503840768	52	6377
2026-01-15 22:06:16.19	332.38	5.16	-38.6	-40.3	23.9	7.72e-01	0	29	0	509083648	52	6340
2026-01-15 22:06:19.12	331.99	5.03	-37.9	-39.5	24.8	7.72e-01	0	29	0	514850816	50	6427
2026-01-15 22:06:22.05	331.60	4.89	-37.5	-39.0	25.3	7.72e-01	0	29	0	520093696	50	6082
2026-01-15 22:06:24.98	331.22	4.75	-37.8	-39.3	25.1	7.72e-01	0	29	0	525860864	50	6344
2026-01-15 22:06:27.91	330.84	4.61	-38.0	-39.5	24.9	7.72e-01	0	29	0	531103744	50	6475
2026-01-15 22:06:30.84	330.47	4.47	-38.0	-39.6	24.8	7.72e-01	0	29	0	536870912	50	6534
2026-01-15 22:06:33.77	330.10	4.33	-37.9	-39.5	24.9	7.72e-01	0	29	0	542113792	50	6441
2026-01-15 22:06:36.71	329.73	4.19	-38.0	-39.5	24.9	7.72e-01	0	29	0	547880960	50	6481
2026-01-15 22:06:39.64	329.37	4.05	-37.8	-39.4	25.0	7.72e-01	0	29	0	553123840	50	6378
2026-01-15 22:06:42.57	329.01	3.91	-37.5	-39.0	25.3	7.72e-01	0	29	0	558891008	50	6107
2026-01-15 22:06:45.50	328.66	3.77	-37.6	-39.2	25.1	7.72e-01	0	29	0	564133888	50	6216
2026-01-15 22:06:48.44	328.31	3.63	-38.3	-40.0	24.3	7.72e-01	0	29	0	569901056	50	6816
2026-01-15 22:06:51.37	327.96	3.49	-37.9	-39.4	24.8	7.72e-01	0	29	0	575143936	50	6409
2026-01-15 22:06:54.30	327.62	3.35	-38.0	-39.6	24.6	7.72e-01	0	29	0	580911104	50	6567
2026-01-15 22:06:57.23	327.28	3.21	-38.9	-40.7	23.7	7.72e-01	0	29	0	586153984	50	7430
2026-01-15 22:07:00.16	326.94	3.07	-39.1	-40.8	23.2	7.72e-01	0	29	0	591921152	50	7517
2026-01-15 22:07:03.08	326.61	2.93	-48.1	-65.9	3.5	7.72e-01	0	29	104	594018304	60	75932
2026-01-15 22:07:06.02	326.28	2.79	-48.5	-66.5	3.5	7.72e-01	0	29	104	594018304	60	81750
2026-01-15 22:07:08.95	325.96	2.64	-48.4	-66.6	3.5	7.72e-01	0	29	104	594018304	60	82225
2026-01-15 22:07:11.88	325.64	2.50	-48.4	-66.7	3.5	7.72e-01	0	29	104	594018304	60	82941
2026-01-15 22:07:14.81	325.32	2.36	-48.4	-66.4	3.5	7.72e-01	0	29	104	594018304	60	80781
2026-01-15 22:07:17.75	325.00	2.22	-48.7	-66.6	3.5	7.72e-01	0	29	104	594018304	60	82528
2026-01-15 22:07:20.68	324.69	2.08	-48.6	-66.6	3.5	7.72e-01	0	29	104	594018304	60	81884
2026-01-15 22:07:23.62	324.38	1.94	-48.6	-66.6	3.5	7.72e-01	0	29	104	594018304	60	81808
2026-01-15 22:07:26.55	324.08	1.80	-48.6	-66.6	3.5	7.72e-01	0	29	104	594018304	60	82291
2026-01-15 22:07:29.49	323.78	1.66	-48.6	-66.5	3.5	7.72e-01	0	29	104	594018304	60	81384
2026-01-15 22:07:32.42	323.48	1.52	-48.6	-66.5	3.5	7.72e-01	0	29	104	594018304	60	81586
2026-01-15 22:07:35.35	323.18	1.38	-48.6	-66.5	3.5	7.72e-01	0	29	104	594018304	60	81276
2026-01-15 22:07:38.29	322.89	1.24	-48.6	-66.5	3.5	7.72e-01	0	29	104	594018304	60	81355
2026-01-15 22:07:41.21	322.60	1.10	-48.6	-66.5	3.5	7.72e-01	0	29	104	594018304	60	81525
2026-01-15 22:07:44.14	322.32	0.96	-48.6	-66.5	3.5	7.72e-01	0	29	104	594018304	60	81694
2026-01-15 22:07:47.08	322.04	0.82	-48.6	-66.5	3.5	7.72e-01	0	29	104	594018304	60	81461
2026-01-15 22:07:50.01	321.76	0.68	-48.5	-66.4	3.5	7.72e-01	0	29	104	594018304	60	80790
2026-01-15 22:07:52.94	321.48	0.54	-48.6	-66.6	3.6	7.72e-01	0	29	104	594018304	60	81960
2026-01-15 22:07:55.87	321.21	0.40	-48.6	-66.5	3.5	7.72e-01	0	29	104	594018304	60	81745
2026-01-15 22:07:58.80	320.94	0.26	-48.6	-66.4	3.5	7.72e-01	0	29	104	594018304	60	80622
2026-01-15 22:08:01.73	320.67	0.12	-48.6	-66.5	3.5	7.72e-01	0	29	104	594018304	60	81152
2026-01-15 22:08:04.67	320.40	-0.02	-48.6	-66.5	3.5	7.72e-01	0	29	104	594018304	60	81228

#Closed at: 2026-01-15 22:08:07
#Recorded file [594 MB]: D:/lorett/data/35029_260116_095731.dat