passes_logs/2026/01/15/R4.6S_Anadyr/R4.6S_Anadyr__20260115_052216_FENGYUN_3D_rec.log

#Pass ID: 20260115_052216_FENGYUN 3D
#Satellite: FENGYUN 3D
#Configuration: FENGYUN 3D
#almurnet v.1.7.20251203
#Start time: 2026-01-15 05:22:18

#Version: 2.2.20231116
#Station: R4.6S_Anadyr
#Location: 177.4865 lon 64.73178 lat
#TLE: 1 43010U 17072A   26014.65117763 -.00000217  00000+0 -80772-4 0  9993
#TLE: 2 43010  98.9933 346.4618 0002330 108.4699 251.6730 14.19694700423204

#Time	Az	El	Level	Level2	SNR	BER	BlckErr	Temp	State	Recorded	gain1	gain2
2026-01-15 05:22:18.49	240.46	0.07	-48.7	-60.3	3.5	8.45e-01	0	27	0	0	60	37204
2026-01-15 05:22:21.51	240.74	0.19	-48.8	-60.9	3.6	8.45e-01	0	28	104	0	60	40040
2026-01-15 05:22:24.54	241.03	0.32	-48.8	-61.0	3.6	8.45e-01	0	28	104	0	60	40626
2026-01-15 05:22:27.57	241.32	0.44	-48.9	-61.1	3.6	8.45e-01	0	28	104	0	60	41000
2026-01-15 05:22:30.60	241.61	0.56	-48.9	-61.0	3.6	8.45e-01	0	28	104	0	60	40698
2026-01-15 05:22:33.63	241.91	0.69	-48.6	-60.6	3.6	8.45e-01	0	28	104	0	60	38918
2026-01-15 05:22:36.66	242.20	0.81	-47.2	-59.2	3.6	8.46e-01	0	29	104	0	60	33137
2026-01-15 05:22:39.69	242.50	0.94	-47.2	-59.2	3.6	8.45e-01	0	29	104	0	60	33048
2026-01-15 05:22:42.72	242.81	1.06	-47.2	-59.2	3.6	8.46e-01	0	29	104	0	60	33006
2026-01-15 05:22:45.75	243.11	1.19	-47.2	-59.2	3.6	8.46e-01	0	29	104	0	60	33063
2026-01-15 05:22:48.77	243.42	1.31	-47.2	-59.2	3.6	8.45e-01	0	29	104	0	60	32811
2026-01-15 05:22:51.80	243.72	1.43	-47.2	-59.2	3.6	8.46e-01	0	29	104	0	60	32928
2026-01-15 05:22:54.83	244.04	1.56	-47.2	-59.2	3.6	8.45e-01	0	29	104	0	60	32874
2026-01-15 05:22:57.85	244.35	1.68	-47.1	-59.0	3.6	8.46e-01	0	29	104	0	60	32391
2026-01-15 05:23:00.88	244.67	1.80	-47.1	-59.1	3.6	8.44e-01	0	29	104	0	60	32644
2026-01-15 05:23:03.91	244.99	1.93	-47.2	-59.2	3.6	8.45e-01	0	29	104	0	60	32898
2026-01-15 05:23:06.95	245.31	2.05	-47.1	-59.0	3.6	8.45e-01	0	29	104	0	60	32033
2026-01-15 05:23:09.98	245.63	2.17	-47.1	-58.8	3.6	8.44e-01	0	29	104	0	60	31314
2026-01-15 05:23:13.01	245.96	2.30	-47.1	-58.1	3.6	8.44e-01	0	29	104	0	60	29081
2026-01-15 05:23:16.04	246.29	2.42	-47.1	-58.3	3.6	8.45e-01	0	29	104	0	60	29819
2026-01-15 05:23:19.07	246.62	2.54	-46.9	-56.4	3.6	8.44e-01	0	29	104	0	60	23844
2026-01-15 05:23:22.10	246.96	2.66	-46.9	-56.9	3.7	8.43e-01	0	29	104	0	60	25175
2026-01-15 05:23:25.13	247.29	2.79	-45.8	-51.1	6.9	4.59e-01	0	29	104	0	60	13047
2026-01-15 05:23:28.16	247.63	2.91	-41.7	-43.4	14.8	1.10e-06	0	29	0	15728640	56	6763
2026-01-15 05:23:31.19	247.98	3.03	-41.8	-43.6	15.0	0.00e+00	0	29	0	33554432	56	6914
2026-01-15 05:23:34.21	248.32	3.15	-38.9	-39.9	18.4	0.00e+00	0	29	0	44040192	50	6390
2026-01-15 05:23:37.25	248.67	3.27	-38.6	-39.7	18.8	0.00e+00	0	29	0	60817408	50	6195
2026-01-15 05:23:40.28	249.02	3.39	-38.6	-39.6	18.8	0.00e+00	0	29	0	77594624	50	6162
2026-01-15 05:23:43.31	249.37	3.51	-36.8	-37.7	20.7	0.00e+00	0	29	0	94371840	46	6201
2026-01-15 05:23:46.34	249.73	3.63	-36.5	-37.4	21.1	0.00e+00	0	29	0	111149056	46	5999
2026-01-15 05:23:49.37	250.09	3.75	-36.0	-36.8	21.6	0.00e+00	0	29	0	128974848	46	5592
2026-01-15 05:23:52.40	250.45	3.87	-35.9	-36.7	21.7	0.00e+00	0	29	0	145752064	44	6238
2026-01-15 05:23:55.43	250.82	3.99	-36.0	-36.9	21.5	0.00e+00	0	29	0	162529280	44	6338
2026-01-15 05:23:58.46	251.18	4.10	-36.1	-36.9	21.5	0.00e+00	0	29	0	180355072	44	6372
2026-01-15 05:24:01.49	251.55	4.22	-36.0	-36.8	21.7	0.00e+00	0	29	0	197132288	44	6316
2026-01-15 05:24:04.52	251.93	4.34	-36.1	-36.9	21.5	0.00e+00	0	29	0	213909504	44	6387
2026-01-15 05:24:07.55	252.30	4.46	-36.1	-36.9	21.6	0.00e+00	0	29	0	230686720	44	6359
2026-01-15 05:24:10.57	252.68	4.57	-35.8	-36.7	21.9	0.00e+00	0	29	0	248512512	44	6204
2026-01-15 05:24:13.60	253.06	4.69	-35.7	-36.5	22.0	0.00e+00	0	29	0	265289728	44	6047
2026-01-15 05:24:16.63	253.45	4.80	-35.4	-36.1	22.4	0.00e+00	0	29	0	282066944	44	5825
2026-01-15 05:24:19.66	253.84	4.92	-35.4	-36.2	22.4	0.00e+00	0	29	0	298844160	44	5839
2026-01-15 05:24:22.68	254.23	5.03	-35.3	-36.0	22.4	0.00e+00	0	29	0	315621376	44	5757
2026-01-15 05:24:25.71	254.62	5.14	-35.3	-36.0	22.6	0.00e+00	0	29	0	333447168	44	5742
2026-01-15 05:24:28.74	255.02	5.26	-35.2	-36.0	22.6	0.00e+00	0	29	0	350224384	44	5726
2026-01-15 05:24:31.77	255.42	5.37	-35.1	-35.9	22.7	0.00e+00	0	29	0	367001600	44	5653
2026-01-15 05:24:34.80	255.82	5.48	-35.5	-36.3	22.3	0.00e+00	0	29	0	384827392	44	5931
2026-01-15 05:24:37.83	256.23	5.59	-35.6	-36.4	22.2	0.00e+00	0	29	0	401604608	44	5978
2026-01-15 05:24:40.86	256.63	5.70	-35.0	-35.7	22.9	0.00e+00	0	29	0	418381824	44	5542
2026-01-15 05:24:43.89	257.04	5.81	-35.0	-35.8	22.9	0.00e+00	0	29	0	435159040	44	5594
2026-01-15 05:24:46.92	257.46	5.92	-35.2	-35.9	22.8	0.00e+00	0	29	0	452984832	44	5672
2026-01-15 05:24:49.95	257.88	6.02	-34.9	-35.7	23.0	0.00e+00	0	29	0	469762048	44	5503
2026-01-15 05:24:52.98	258.30	6.13	-35.0	-35.7	22.8	0.00e+00	0	29	0	486539264	44	5565
2026-01-15 05:24:56.00	258.72	6.24	-34.8	-35.5	23.1	0.00e+00	0	29	0	503316480	42	6098
2026-01-15 05:24:59.03	259.14	6.34	-34.8	-35.5	23.2	0.00e+00	0	29	0	520093696	42	6038
2026-01-15 05:25:02.06	259.57	6.45	-34.8	-35.6	23.1	0.00e+00	0	29	0	537919488	42	6116
2026-01-15 05:25:05.09	260.01	6.55	-34.6	-35.4	23.3	0.00e+00	0	29	0	554696704	42	5966
2026-01-15 05:25:08.12	260.44	6.65	-34.9	-35.7	23.1	0.00e+00	0	29	0	571473920	42	6203
2026-01-15 05:25:11.15	260.88	6.75	-34.5	-35.3	23.4	0.00e+00	0	29	0	589299712	42	5911
2026-01-15 05:25:14.18	261.32	6.85	-34.7	-35.5	23.3	0.00e+00	0	29	0	606076928	42	6037
2026-01-15 05:25:17.21	261.76	6.95	-34.7	-35.4	23.3	0.00e+00	0	29	0	622854144	42	6006
2026-01-15 05:25:20.23	262.21	7.05	-34.6	-35.4	23.5	0.00e+00	0	29	0	639631360	42	5980
2026-01-15 05:25:23.26	262.66	7.14	-34.7	-35.5	23.2	0.00e+00	0	29	0	657457152	42	6052
2026-01-15 05:25:26.29	263.11	7.24	-34.8	-35.6	23.2	0.00e+00	0	29	0	674234368	42	6117
2026-01-15 05:25:29.32	263.57	7.34	-34.6	-35.3	23.4	0.00e+00	0	29	0	691011584	42	5963
2026-01-15 05:25:32.35	264.02	7.43	-34.6	-35.4	23.5	0.00e+00	0	29	0	707788800	42	5984
2026-01-15 05:25:35.38	264.48	7.52	-34.8	-35.6	22.5	0.00e+00	0	29	0	724566016	42	6112
2026-01-15 05:25:38.41	264.95	7.61	-34.8	-35.5	23.3	0.00e+00	0	29	0	741343232	42	6073
2026-01-15 05:25:41.44	265.41	7.70	-34.1	-34.8	23.9	0.00e+00	0	29	0	758120448	42	5623
2026-01-15 05:25:44.47	265.88	7.79	-34.1	-34.8	23.9	0.00e+00	0	29	0	775946240	42	5603
2026-01-15 05:25:47.50	266.36	7.88	-34.0	-34.7	24.1	0.00e+00	0	29	0	792723456	42	5517
2026-01-15 05:25:50.52	266.83	7.96	-34.1	-34.8	23.9	0.00e+00	0	29	0	809500672	42	5628
2026-01-15 05:25:53.55	267.31	8.05	-34.1	-34.9	23.9	0.00e+00	0	29	0	827326464	42	5631
2026-01-15 05:25:56.58	267.79	8.13	-34.1	-34.8	23.9	0.00e+00	0	29	0	844103680	42	5623
2026-01-15 05:25:59.61	268.27	8.21	-34.1	-34.8	23.8	0.00e+00	0	29	0	860880896	42	5617
2026-01-15 05:26:02.64	268.75	8.29	-34.0	-34.7	24.0	0.00e+00	0	29	0	877658112	42	5544
2026-01-15 05:26:05.67	269.24	8.37	-34.1	-34.8	24.0	0.00e+00	0	29	0	895483904	42	5598
2026-01-15 05:26:08.70	269.73	8.44	-34.2	-35.0	23.8	0.00e+00	0	29	0	912261120	42	5729
2026-01-15 05:26:11.73	270.22	8.52	-34.1	-34.8	24.0	0.00e+00	0	29	0	929038336	42	5615
2026-01-15 05:26:14.76	270.72	8.59	-34.0	-34.8	24.0	0.00e+00	0	29	0	945815552	42	5568
2026-01-15 05:26:17.78	271.21	8.67	-34.1	-34.9	23.9	0.00e+00	0	29	0	962592768	42	5653
2026-01-15 05:26:20.81	271.71	8.74	-34.2	-34.9	23.8	0.00e+00	0	29	0	980418560	42	5673
2026-01-15 05:26:23.84	272.21	8.80	-34.0	-34.7	23.9	0.00e+00	0	29	0	997195776	42	5551
2026-01-15 05:26:26.87	272.72	8.87	-33.9	-34.6	24.1	0.00e+00	0	29	0	1013972992	42	5479
2026-01-15 05:26:29.89	273.22	8.94	-34.2	-34.9	23.9	0.00e+00	0	29	0	1030750208	42	5646
2026-01-15 05:26:32.92	273.73	9.00	-34.1	-34.8	23.8	0.00e+00	0	29	0	1048576000	42	5615
2026-01-15 05:26:35.95	274.24	9.06	-34.2	-35.0	23.8	0.00e+00	0	29	0	1065353216	42	5733
2026-01-15 05:26:38.97	274.75	9.12	-33.9	-34.6	24.2	0.00e+00	0	29	0	1082130432	42	5494
2026-01-15 05:26:42.00	275.27	9.18	-33.8	-34.5	24.2	0.00e+00	0	29	0	1099956224	40	6058
2026-01-15 05:26:45.03	275.78	9.23	-33.6	-34.3	24.4	0.00e+00	0	29	0	1116733440	40	5960
2026-01-15 05:26:48.06	276.30	9.29	-33.6	-34.3	24.3	0.00e+00	0	29	0	1133510656	40	5934
2026-01-15 05:26:51.09	276.82	9.34	-33.7	-34.4	24.4	0.00e+00	0	29	0	1150287872	40	6004
2026-01-15 05:26:54.12	277.34	9.39	-33.7	-34.4	24.3	0.00e+00	0	29	0	1167065088	40	5997
2026-01-15 05:26:57.14	277.87	9.44	-33.5	-34.2	24.6	0.00e+00	0	29	0	1184890880	40	5860
2026-01-15 05:27:00.16	278.39	9.48	-33.4	-34.0	24.7	0.00e+00	0	29	0	1201668096	40	5750
2026-01-15 05:27:03.17	278.91	9.53	-33.6	-34.2	24.5	0.00e+00	0	30	0	1218445312	40	5875
2026-01-15 05:27:06.20	279.44	9.57	-33.8	-34.5	24.3	0.00e+00	0	29	0	1235222528	40	6071
2026-01-15 05:27:09.23	279.97	9.61	-33.8	-34.5	24.3	0.00e+00	0	29	0	1251999744	40	6067
2026-01-15 05:27:12.26	280.50	9.65	-33.6	-34.3	24.5	0.00e+00	0	29	0	1269825536	40	5913
2026-01-15 05:27:15.29	281.03	9.68	-33.5	-34.2	24.5	0.00e+00	0	29	0	1286602752	40	5856
2026-01-15 05:27:18.31	281.57	9.72	-33.6	-34.3	24.5	0.00e+00	0	29	0	1303379968	40	5935
2026-01-15 05:27:21.34	282.10	9.75	-33.7	-34.4	24.4	0.00e+00	0	29	0	1320157184	40	5995
2026-01-15 05:27:24.37	282.64	9.78	-33.8	-34.5	24.3	0.00e+00	0	29	0	1337982976	40	6058
2026-01-15 05:27:27.39	283.17	9.81	-33.8	-34.5	24.3	0.00e+00	0	29	0	1354760192	40	6083
2026-01-15 05:27:30.42	283.71	9.83	-33.7	-34.4	24.3	0.00e+00	0	29	0	1371537408	40	5984
2026-01-15 05:27:33.45	284.25	9.86	-33.7	-34.4	24.3	0.00e+00	0	29	0	1389363200	40	6011
2026-01-15 05:27:36.48	284.79	9.88	-33.5	-34.2	24.5	0.00e+00	0	29	0	1406140416	40	5873
2026-01-15 05:27:39.51	285.33	9.89	-33.5	-34.2	24.6	0.00e+00	0	29	0	1422917632	40	5831
2026-01-15 05:27:42.54	285.87	9.91	-33.5	-34.2	24.5	0.00e+00	0	29	0	1439694848	40	5874
2026-01-15 05:27:45.57	286.41	9.93	-33.7	-34.4	24.4	0.00e+00	0	29	0	1456472064	40	6008
2026-01-15 05:27:48.60	286.95	9.94	-33.7	-34.4	24.4	0.00e+00	0	29	0	1474297856	40	6001
2026-01-15 05:27:51.63	287.49	9.95	-33.8	-34.5	24.3	0.00e+00	0	29	0	1491075072	40	6058
2026-01-15 05:27:54.66	288.03	9.96	-33.7	-34.3	24.4	0.00e+00	0	29	0	1507852288	40	5955
2026-01-15 05:27:57.69	288.58	9.96	-33.3	-34.0	24.7	0.00e+00	0	29	0	1524629504	40	5741
2026-01-15 05:28:00.72	289.12	9.96	-33.6	-34.3	24.5	0.00e+00	0	29	0	1542455296	40	5938
2026-01-15 05:28:03.75	289.66	9.96	-33.6	-34.3	24.4	0.00e+00	0	29	0	1559232512	40	5958
2026-01-15 05:28:06.77	290.20	9.96	-33.5	-34.2	24.5	0.00e+00	0	29	0	1576009728	40	5872
2026-01-15 05:28:09.80	290.74	9.96	-33.4	-34.1	24.6	0.00e+00	0	29	0	1593835520	40	5793
2026-01-15 05:28:12.83	291.29	9.95	-33.5	-34.2	24.5	0.00e+00	0	29	0	1610612736	40	5878
2026-01-15 05:28:15.86	291.83	9.95	-33.6	-34.4	24.3	0.00e+00	0	29	0	1627389952	40	5982
2026-01-15 05:28:18.89	292.37	9.94	-33.6	-34.3	24.4	0.00e+00	0	29	0	1644167168	40	5938
2026-01-15 05:28:21.91	292.91	9.92	-33.5	-34.2	24.5	0.00e+00	0	29	0	1660944384	40	5851
2026-01-15 05:28:24.94	293.45	9.91	-33.6	-34.2	24.4	0.00e+00	0	30	0	1678770176	40	5882
2026-01-15 05:28:27.97	293.99	9.89	-33.7	-34.4	24.4	0.00e+00	0	29	0	1695547392	40	6017
2026-01-15 05:28:31.00	294.53	9.87	-33.6	-34.4	24.4	0.00e+00	0	29	0	1712324608	40	5967
2026-01-15 05:28:34.03	295.07	9.85	-33.6	-34.3	24.4	0.00e+00	0	29	0	1729101824	40	5952
2026-01-15 05:28:37.06	295.60	9.83	-33.7	-34.5	24.3	0.00e+00	0	29	0	1746927616	40	6064
2026-01-15 05:28:40.08	296.14	9.80	-33.9	-34.7	24.1	0.00e+00	0	29	0	1763704832	40	6181
2026-01-15 05:28:43.11	296.67	9.77	-34.0	-34.7	24.1	0.00e+00	0	29	0	1780482048	40	6230
2026-01-15 05:28:46.13	297.21	9.74	-34.0	-34.8	24.1	0.00e+00	0	29	0	1797259264	40	6263
2026-01-15 05:28:49.16	297.74	9.71	-33.8	-34.4	24.4	0.00e+00	0	29	0	1815085056	40	6020
2026-01-15 05:28:52.19	298.27	9.68	-33.8	-34.5	24.2	0.00e+00	0	29	0	1831862272	40	6085
2026-01-15 05:28:55.22	298.80	9.64	-33.7	-34.4	24.3	0.00e+00	0	29	0	1848639488	40	6016
2026-01-15 05:28:58.25	299.33	9.60	-33.5	-34.2	24.5	0.00e+00	0	30	0	1865416704	40	5862
2026-01-15 05:29:01.28	299.86	9.56	-33.5	-34.2	24.5	0.00e+00	0	29	0	1883242496	40	5861
2026-01-15 05:29:04.31	300.39	9.52	-33.8	-34.6	24.2	0.00e+00	0	29	0	1900019712	40	6110
2026-01-15 05:29:07.34	300.92	9.47	-33.9	-34.5	24.1	0.00e+00	0	29	0	1916796928	40	6091
2026-01-15 05:29:10.37	301.44	9.43	-33.6	-34.3	24.4	0.00e+00	0	30	0	1933574144	40	5947
2026-01-15 05:29:13.40	301.96	9.38	-33.7	-34.3	24.2	0.00e+00	0	29	0	1951399936	40	5962
2026-01-15 05:29:16.43	302.48	9.33	-33.7	-34.4	24.2	0.00e+00	0	29	0	1968177152	40	6031
2026-01-15 05:29:19.46	303.00	9.28	-33.8	-34.5	24.1	0.00e+00	0	29	0	1984954368	40	6103
2026-01-15 05:29:22.48	303.51	9.22	-34.0	-34.7	24.1	0.00e+00	0	29	0	2001731584	40	6199
2026-01-15 05:29:25.51	304.03	9.17	-34.0	-34.8	24.1	0.00e+00	0	29	0	2019557376	40	6284
2026-01-15 05:29:28.54	304.54	9.11	-33.9	-34.6	24.2	0.00e+00	0	29	0	2036334592	40	6126
2026-01-15 05:29:31.57	305.05	9.05	-34.1	-34.8	24.0	0.00e+00	0	30	0	2053111808	40	6268
2026-01-15 05:29:34.59	305.56	8.99	-34.1	-34.7	24.0	0.00e+00	0	29	0	2069889024	40	6243
2026-01-15 05:29:37.62	306.07	8.92	-34.1	-34.8	24.0	0.00e+00	0	29	0	2087714816	40	6317
2026-01-15 05:29:40.65	306.57	8.86	-34.0	-34.6	24.0	0.00e+00	0	29	0	2104492032	40	6146
2026-01-15 05:29:43.68	307.07	8.79	-34.1	-34.9	24.0	0.00e+00	0	29	0	2121269248	40	6330
2026-01-15 05:29:46.71	307.57	8.72	-34.1	-34.9	24.0	0.00e+00	0	29	0	2138046464	40	6336
2026-01-15 05:29:49.74	308.07	8.65	-34.2	-35.0	23.8	0.00e+00	0	29	0	2154823680	40	6426
2026-01-15 05:29:52.76	308.56	8.58	-34.2	-35.0	23.8	0.00e+00	0	29	0	2172649472	40	6391
2026-01-15 05:29:55.79	309.06	8.51	-34.2	-34.9	23.8	0.00e+00	0	29	0	2189426688	40	6369
2026-01-15 05:29:58.82	309.55	8.43	-34.3	-35.1	23.7	0.00e+00	0	29	0	2206203904	40	6518
2026-01-15 05:30:01.85	310.04	8.36	-34.4	-35.1	23.6	0.00e+00	0	29	0	2222981120	40	6509
2026-01-15 05:30:04.88	310.52	8.28	-34.4	-35.1	23.7	0.00e+00	0	29	0	2240806912	40	6468
2026-01-15 05:30:07.90	311.00	8.20	-34.4	-35.1	23.6	0.00e+00	0	29	0	2257584128	40	6524
2026-01-15 05:30:10.93	311.48	8.12	-34.5	-35.2	23.6	0.00e+00	0	29	0	2274361344	40	6543
2026-01-15 05:30:13.96	311.96	8.04	-34.3	-35.0	23.7	0.00e+00	0	29	0	2292187136	40	6413
2026-01-15 05:30:16.99	312.44	7.95	-34.4	-35.1	23.6	0.00e+00	0	29	0	2308964352	40	6524
2026-01-15 05:30:20.01	312.91	7.87	-34.3	-34.9	23.7	0.00e+00	0	29	0	2325741568	40	6376
2026-01-15 05:30:23.04	313.38	7.78	-34.3	-35.1	23.6	0.00e+00	0	29	0	2342518784	40	6500
2026-01-15 05:30:26.07	313.84	7.69	-34.4	-35.2	23.5	0.00e+00	0	29	0	2359296000	40	6576
2026-01-15 05:30:29.10	314.31	7.60	-34.5	-35.2	23.4	0.00e+00	0	29	0	2377121792	40	6591
2026-01-15 05:30:32.13	314.77	7.51	-34.8	-35.5	23.0	0.00e+00	0	29	0	2393899008	42	6084
2026-01-15 05:30:35.16	315.23	7.42	-34.7	-35.6	23.2	0.00e+00	0	29	0	2410676224	42	6119
2026-01-15 05:30:38.19	315.68	7.33	-34.6	-35.4	23.3	0.00e+00	0	29	0	2427453440	42	5991
2026-01-15 05:30:41.22	316.14	7.23	-34.3	-35.1	23.5	0.00e+00	0	29	0	2445279232	42	5784
2026-01-15 05:30:44.25	316.59	7.14	-34.3	-35.0	23.6	0.00e+00	0	29	0	2462056448	42	5731
2026-01-15 05:30:47.28	317.03	7.04	-34.7	-35.4	23.2	0.00e+00	0	29	0	2478833664	42	6025
2026-01-15 05:30:50.31	317.48	6.94	-35.1	-35.9	22.8	0.00e+00	0	29	0	2495610880	42	6331
2026-01-15 05:30:53.34	317.92	6.85	-35.0	-35.8	22.9	0.00e+00	0	29	0	2513436672	42	6304
2026-01-15 05:30:56.36	318.36	6.75	-35.1	-35.8	22.8	0.00e+00	0	29	0	2530213888	42	6251
2026-01-15 05:30:59.39	318.79	6.65	-34.8	-35.6	23.1	0.00e+00	0	29	0	2546991104	42	6112
2026-01-15 05:31:02.42	319.23	6.54	-35.0	-35.7	22.8	0.00e+00	0	29	0	2563768320	42	6239
2026-01-15 05:31:05.44	319.65	6.44	-34.9	-35.6	22.9	0.00e+00	0	29	0	2580545536	42	6143
2026-01-15 05:31:08.47	320.08	6.34	-34.8	-35.6	23.0	0.00e+00	0	29	0	2598371328	42	6138
2026-01-15 05:31:11.50	320.50	6.23	-34.9	-35.7	22.9	0.00e+00	0	29	0	2615148544	42	6194
2026-01-15 05:31:14.53	320.93	6.13	-34.8	-35.6	23.0	0.00e+00	0	29	0	2631925760	42	6139
2026-01-15 05:31:17.56	321.34	6.02	-35.0	-35.7	22.9	0.00e+00	0	29	0	2649751552	42	6211
2026-01-15 05:31:20.58	321.76	5.92	-35.2	-36.1	22.6	0.00e+00	0	29	0	2666528768	42	6489
2026-01-15 05:31:23.61	322.17	5.81	-35.2	-36.0	22.5	0.00e+00	0	29	0	2683305984	42	6446
2026-01-15 05:31:26.64	322.58	5.70	-35.3	-36.1	22.4	0.00e+00	0	29	0	2700083200	42	6512
2026-01-15 05:31:29.66	322.98	5.59	-35.5	-36.3	22.3	0.00e+00	0	29	0	2717908992	42	6685
2026-01-15 05:31:32.69	323.39	5.48	-35.4	-36.2	22.3	0.00e+00	0	30	0	2734686208	42	6579
2026-01-15 05:31:35.72	323.79	5.37	-35.6	-36.4	22.1	0.00e+00	0	30	0	2751463424	42	6741
2026-01-15 05:31:38.74	324.19	5.26	-35.3	-36.0	22.4	0.00e+00	0	29	0	2768240640	42	6419
2026-01-15 05:31:41.77	324.58	5.15	-35.5	-36.3	22.2	0.00e+00	0	29	0	2785017856	42	6643
2026-01-15 05:31:44.80	324.97	5.04	-35.6	-36.4	22.0	0.00e+00	0	29	0	2802843648	42	6768
2026-01-15 05:31:47.83	325.36	4.93	-35.4	-36.2	22.2	0.00e+00	0	29	0	2819620864	42	6575
2026-01-15 05:31:50.85	325.75	4.81	-35.5	-36.3	22.2	0.00e+00	0	29	0	2836398080	42	6680
2026-01-15 05:31:53.88	326.13	4.70	-35.7	-36.5	21.9	0.00e+00	0	29	0	2853175296	42	6779
2026-01-15 05:31:56.91	326.51	4.58	-35.6	-36.5	21.7	0.00e+00	0	29	0	2871001088	44	6065
2026-01-15 05:31:59.94	326.89	4.47	-35.6	-36.4	21.9	0.00e+00	0	29	0	2887778304	44	5988
2026-01-15 05:32:02.97	327.26	4.35	-35.4	-36.3	22.0	0.00e+00	0	29	0	2904555520	44	5940
2026-01-15 05:32:06.00	327.63	4.24	-36.1	-37.0	21.5	0.00e+00	0	29	0	2921332736	44	6422
2026-01-15 05:32:09.02	328.00	4.12	-36.2	-37.1	21.1	0.00e+00	0	29	0	2939158528	44	6490
2026-01-15 05:32:12.05	328.37	4.00	-36.0	-36.8	21.3	0.00e+00	0	29	0	2955935744	44	6316
2026-01-15 05:32:15.08	328.73	3.89	-35.7	-36.6	21.4	0.00e+00	0	29	0	2972712960	44	6139
2026-01-15 05:32:18.11	329.09	3.77	-35.7	-36.5	21.4	0.00e+00	0	29	0	2989490176	44	6095
2026-01-15 05:32:21.14	329.45	3.65	-35.7	-36.5	21.4	0.00e+00	0	29	0	3007315968	44	6041
2026-01-15 05:32:24.17	329.81	3.53	-36.6	-37.5	20.1	0.00e+00	0	29	0	3024093184	44	6795
2026-01-15 05:32:27.20	330.16	3.41	-37.0	-38.1	19.4	0.00e+00	0	29	0	3040870400	46	6491
2026-01-15 05:32:30.23	330.51	3.29	-37.8	-38.9	18.2	0.00e+00	0	29	0	3057647616	48	6355
2026-01-15 05:32:33.26	330.85	3.17	-39.1	-40.5	16.1	0.00e+00	0	29	0	3075473408	50	6830
2026-01-15 05:32:36.29	331.20	3.05	-40.3	-42.3	13.6	4.50e-06	0	29	0	3092250624	52	7484
2026-01-15 05:32:39.32	331.54	2.93	-48.1	-60.1	3.6	8.45e-01	0	29	104	3099590656	60	36621
2026-01-15 05:32:42.34	331.88	2.81	-48.6	-60.7	3.6	8.45e-01	0	29	104	3099590656	60	39267
2026-01-15 05:32:45.38	332.22	2.69	-48.7	-60.9	3.6	8.46e-01	0	30	104	3099590656	60	40004
2026-01-15 05:32:48.40	332.55	2.57	-48.3	-60.8	3.6	8.46e-01	0	29	104	3099590656	60	39601
2026-01-15 05:32:51.43	332.88	2.45	-48.7	-60.8	3.6	8.46e-01	0	29	104	3099590656	60	39709
2026-01-15 05:32:54.46	333.21	2.33	-48.9	-61.0	3.6	8.46e-01	0	30	104	3099590656	60	40380
2026-01-15 05:32:57.49	333.53	2.21	-48.8	-60.9	3.6	8.46e-01	0	30	104	3099590656	60	40055
2026-01-15 05:33:00.52	333.86	2.09	-48.8	-60.8	3.6	8.45e-01	0	30	104	3099590656	60	39735
2026-01-15 05:33:03.55	334.18	1.97	-48.8	-60.8	3.6	8.44e-01	0	30	104	3099590656	60	39725
2026-01-15 05:33:06.57	334.50	1.84	-48.7	-60.8	3.6	8.45e-01	0	30	104	3099590656	60	39710
2026-01-15 05:33:09.60	334.81	1.72	-48.7	-60.8	3.6	8.45e-01	0	30	104	3099590656	60	39663
2026-01-15 05:33:12.63	335.12	1.60	-48.7	-60.8	3.6	8.45e-01	0	30	104	3099590656	60	39719
2026-01-15 05:33:15.66	335.44	1.48	-48.7	-60.8	3.6	8.44e-01	0	30	104	3099590656	60	39694
2026-01-15 05:33:18.69	335.74	1.35	-48.7	-60.8	3.6	8.46e-01	0	30	104	3099590656	60	39663
2026-01-15 05:33:21.71	336.05	1.23	-48.7	-60.8	3.6	8.45e-01	0	30	104	3099590656	60	39415
2026-01-15 05:33:24.74	336.35	1.11	-48.7	-60.8	3.6	8.44e-01	0	30	104	3099590656	60	39718
2026-01-15 05:33:27.77	336.65	0.99	-48.7	-60.8	3.6	8.46e-01	0	30	104	3099590656	60	39492
2026-01-15 05:33:30.81	336.95	0.86	-48.7	-60.8	3.6	8.45e-01	0	30	104	3099590656	60	39656
2026-01-15 05:33:33.84	337.25	0.74	-48.7	-60.8	3.6	8.46e-01	0	30	104	3099590656	60	39484
2026-01-15 05:33:36.86	337.54	0.62	-48.7	-60.7	3.6	8.45e-01	0	30	104	3099590656	60	39391
2026-01-15 05:33:39.89	337.84	0.49	-48.7	-60.7	3.6	8.45e-01	0	30	104	3099590656	60	39341
2026-01-15 05:33:42.92	338.13	0.37	-48.7	-60.8	3.6	8.44e-01	0	30	104	3099590656	60	39484
2026-01-15 05:33:45.94	338.41	0.25	-48.7	-60.8	3.6	8.46e-01	0	30	104	3099590656	60	39568
2026-01-15 05:33:48.97	338.70	0.12	-48.7	-60.7	3.6	8.44e-01	0	30	104	3099590656	60	39297
2026-01-15 05:33:52.00	338.98	0.00	-48.7	-60.8	3.6	8.45e-01	0	30	104	3099590656	60	39461

#Closed at: 2026-01-15 05:33:52
#Recorded file [3099 MB]: D:/lorett/data/35029_260115_172218.dat