passes_logs/2026/01/15/R4.6S_Anadyr/R4.6S_Anadyr__20260115_020741_AQUA_rec.log

#Pass ID: 20260115_020741_AQUA
#Satellite: AQUA
#Configuration: AQUA
#almurnet v.1.7.20251203
#Start time: 2026-01-15 02:07:43

#Version: 2.2.20231116
#Station: R4.6S_Anadyr
#Location: 177.4865 lon 64.73178 lat
#TLE: 1 27424U 02022A   26014.61231444  .00000653  00000+0  14070-3 0  9991
#TLE: 2 27424  98.4080 341.0332 0002042  78.9336 335.9961 14.61820174260839

#Time	Az	El	Level	Level2	SNR	BER	BlckErr	Temp	State	Recorded	gain1	gain2
2026-01-15 02:07:43.41	161.09	0.09	-48.9	-63.8	3.6	1.51e+00	0	27	0	0	60	55890
2026-01-15 02:07:47.44	161.12	0.34	-49.3	-67.2	3.5	3.02e+01	0	28	104	0	60	87667
2026-01-15 02:07:51.48	161.16	0.59	-49.2	-67.1	3.5	3.02e+01	0	28	104	0	60	87146
2026-01-15 02:07:55.52	161.19	0.85	-48.3	-66.3	3.5	3.02e+01	0	28	104	0	60	79304
2026-01-15 02:07:59.56	161.23	1.11	-47.6	-65.7	3.5	3.02e+01	0	28	104	0	60	74535
2026-01-15 02:08:03.60	161.27	1.37	-47.6	-65.6	3.5	3.02e+01	0	28	104	0	60	73748
2026-01-15 02:08:07.64	161.31	1.63	-47.6	-64.7	3.5	3.02e+01	0	28	104	0	60	65757
2026-01-15 02:08:11.68	161.34	1.90	-47.6	-63.9	3.6	3.02e+01	0	29	104	0	60	60514
2026-01-15 02:08:15.72	161.38	2.17	-47.6	-65.4	3.5	3.02e+01	0	28	104	0	60	71974
2026-01-15 02:08:19.76	161.42	2.44	-47.6	-65.3	3.5	3.02e+01	0	29	104	0	60	70466
2026-01-15 02:08:23.80	161.46	2.72	-47.4	-61.1	3.7	3.02e+01	0	29	104	0	60	43705
2026-01-15 02:08:27.84	161.50	2.99	-47.4	-60.3	3.8	3.02e+01	0	29	104	0	60	40018
2026-01-15 02:08:31.87	161.54	3.27	-44.7	-48.6	16.7	3.02e+01	0	29	0	5767168	60	10315
2026-01-15 02:08:35.91	161.58	3.56	-40.0	-41.8	23.4	3.02e+01	0	29	0	13107200	56	5948
2026-01-15 02:08:39.95	161.63	3.85	-39.7	-41.5	23.6	3.02e+01	0	29	0	20447232	54	6425
2026-01-15 02:08:43.99	161.67	4.14	-47.2	-57.5	6.3	3.02e+01	90	29	0	28311552	60	28906
2026-01-15 02:08:48.02	161.71	4.43	-39.4	-41.0	24.3	3.02e+01	0	29	0	33030144	52	6881
2026-01-15 02:08:52.06	161.76	4.73	-38.8	-40.4	24.7	3.02e+01	0	29	0	40894464	52	6362
2026-01-15 02:08:56.09	161.80	5.03	-37.8	-39.3	26.0	3.02e+01	0	29	0	48234496	50	6307
2026-01-15 02:09:00.13	161.85	5.34	-37.3	-38.7	26.5	3.02e+01	0	29	0	56098816	50	5925
2026-01-15 02:09:04.17	161.89	5.64	-36.8	-38.2	26.9	3.02e+01	0	29	0	63438848	48	6229
2026-01-15 02:09:08.20	161.94	5.96	-36.9	-38.2	27.0	3.02e+01	0	29	0	70778880	48	6275
2026-01-15 02:09:12.24	161.99	6.28	-36.9	-38.3	26.9	3.02e+01	0	29	0	78643200	48	6310
2026-01-15 02:09:16.28	162.04	6.60	-36.6	-38.0	27.3	3.02e+01	0	29	0	85983232	48	6075
2026-01-15 02:09:20.31	162.09	6.92	-36.5	-37.8	27.4	3.02e+01	0	29	0	93847552	48	5983
2026-01-15 02:09:24.35	162.14	7.26	-36.5	-37.8	27.4	3.02e+01	0	29	0	101187584	48	5990
2026-01-15 02:09:28.39	162.19	7.59	-36.0	-37.3	28.0	3.02e+01	0	29	0	109051904	48	5604
2026-01-15 02:09:32.42	162.24	7.93	-36.1	-37.4	27.9	3.02e+01	0	29	0	116391936	46	6403
2026-01-15 02:09:36.46	162.30	8.28	-35.9	-37.1	28.2	3.02e+01	0	29	0	123731968	46	6191
2026-01-15 02:09:40.50	162.35	8.63	-35.8	-37.1	28.2	3.02e+01	0	29	0	131596288	46	6166
2026-01-15 02:09:44.54	162.41	8.99	-35.7	-37.0	28.3	3.02e+01	0	29	0	138936320	46	6098
2026-01-15 02:09:48.57	162.46	9.35	-35.8	-37.1	28.2	3.02e+01	0	29	0	146800640	46	6162
2026-01-15 02:09:52.61	162.52	9.72	-35.9	-37.2	28.2	3.02e+01	0	29	0	154140672	46	6228
2026-01-15 02:09:56.65	162.58	10.10	-35.7	-37.0	28.4	3.02e+01	0	29	0	162004992	46	6074
2026-01-15 02:10:00.68	162.64	10.48	-35.5	-36.7	28.6	3.02e+01	0	29	0	169345024	46	5915
2026-01-15 02:10:04.72	162.70	10.87	-35.5	-36.8	28.7	3.02e+01	0	29	0	177209344	46	5942
2026-01-15 02:10:08.76	162.77	11.27	-35.2	-36.5	28.9	3.02e+01	0	29	0	184549376	46	5749
2026-01-15 02:10:12.79	162.83	11.67	-35.1	-36.3	29.1	3.02e+01	0	29	0	191889408	46	5649
2026-01-15 02:10:16.83	162.90	12.08	-35.2	-36.4	29.0	3.02e+01	0	29	0	199753728	46	5684
2026-01-15 02:10:20.86	162.96	12.50	-35.7	-45.9	3.6	3.02e+01	0	29	104	200278016	46	16935
2026-01-15 02:10:24.90	163.03	12.92	-46.7	-60.3	3.5	3.02e+01	0	29	104	200278016	60	39755
2026-01-15 02:10:28.94	163.11	13.36	-37.7	-48.0	3.6	3.02e+01	0	29	104	200278016	50	17092
2026-01-15 02:10:32.97	163.18	13.80	-45.0	-57.1	3.8	3.02e+01	0	29	104	200278016	60	27526
2026-01-15 02:10:37.00	163.25	14.25	-36.0	-46.2	3.7	3.02e+01	0	29	104	200278016	48	15707
2026-01-15 02:10:41.04	163.33	14.72	-47.3	-62.0	3.5	3.02e+01	0	29	104	200278016	60	48416
2026-01-15 02:10:45.07	163.41	15.19	-40.5	-51.1	3.5	3.02e+01	0	29	104	200278016	56	17489
2026-01-15 02:10:49.10	163.49	15.67	-47.4	-61.7	3.5	3.02e+01	0	29	104	200278016	60	46841
2026-01-15 02:10:53.14	163.58	16.16	-38.7	-49.2	3.5	3.02e+01	0	29	104	200278016	52	17628
2026-01-15 02:10:57.17	163.66	16.67	-48.3	-65.5	3.5	3.02e+01	0	29	104	200278016	60	72365
2026-01-15 02:11:01.20	163.75	17.18	-46.9	-60.4	3.5	3.02e+01	0	29	104	200278016	60	40291
2026-01-15 02:11:05.24	163.84	17.71	-36.2	-46.4	3.5	3.02e+01	0	29	104	200278016	48	16104
2026-01-15 02:11:09.27	163.94	18.25	-37.0	-47.3	3.6	3.02e+01	0	29	104	200278016	52	14074
2026-01-15 02:11:13.32	164.04	18.81	-38.3	-48.7	3.5	3.02e+01	0	29	104	200278016	52	16689
2026-01-15 02:11:17.36	164.14	19.38	-38.1	-48.5	3.5	3.02e+01	0	29	104	200278016	52	16202
2026-01-15 02:11:21.40	164.25	19.96	-36.2	-46.4	3.5	3.02e+01	0	29	104	200278016	48	16123
2026-01-15 02:11:25.44	164.35	20.56	-35.3	-45.6	3.5	3.02e+01	0	29	104	200278016	46	16414
2026-01-15 02:11:29.47	164.47	21.17	-36.6	-46.9	3.5	3.02e+01	0	29	104	200278016	48	16996
2026-01-15 02:11:33.51	164.58	21.81	-37.4	-47.7	3.5	3.02e+01	0	29	104	200278016	50	16582
2026-01-15 02:11:37.55	164.71	22.45	-43.1	-54.3	3.5	3.02e+01	0	29	104	200278016	60	19875
2026-01-15 02:11:41.59	164.83	23.12	-35.8	-46.1	3.6	3.02e+01	0	29	104	200278016	46	17379
2026-01-15 02:11:45.63	164.96	23.81	-45.0	-57.0	3.7	3.02e+01	0	29	104	200278016	56	34157
2026-01-15 02:11:49.66	165.10	24.51	-36.4	-46.6	3.5	3.02e+01	0	29	104	200278016	48	16489
2026-01-15 02:11:53.70	165.25	25.24	-40.8	-51.5	3.5	3.02e+01	0	29	104	200278016	56	18227
2026-01-15 02:11:57.74	165.40	25.99	-36.6	-46.9	3.5	3.02e+01	0	29	104	200278016	48	16952
2026-01-15 02:12:01.78	165.55	26.76	-41.4	-52.2	3.3	3.02e+01	0	29	104	200278016	48	31168
2026-01-15 02:12:05.81	165.72	27.56	-37.6	-47.9	3.5	3.02e+01	0	29	104	200278016	50	17079
2026-01-15 02:12:09.85	165.89	28.38	-46.3	-58.8	3.5	3.02e+01	0	29	104	200278016	60	33472
2026-01-15 02:12:13.88	166.07	29.23	-37.2	-47.6	3.5	3.02e+01	0	29	104	200278016	50	16347
2026-01-15 02:12:17.92	166.26	30.11	-47.2	-60.8	3.5	3.02e+01	0	29	104	200278016	60	42330
2026-01-15 02:12:21.95	166.46	31.01	-45.6	-57.8	3.5	3.02e+01	0	29	104	200278016	60	29788
2026-01-15 02:12:26.00	166.67	31.95	-35.1	-45.3	3.5	3.02e+01	0	29	104	200278016	46	15851
2026-01-15 02:12:30.02	166.89	32.92	-42.4	-53.2	3.5	3.02e+01	0	29	104	200278016	58	19835
2026-01-15 02:12:34.06	167.13	33.92	-37.7	-48.0	3.5	3.02e+01	0	29	104	200278016	50	17260
2026-01-15 02:12:38.10	167.38	34.96	-43.1	-54.2	3.5	3.02e+01	0	29	104	200278016	58	22043
2026-01-15 02:12:42.14	167.65	36.04	-38.6	-49.0	3.5	3.02e+01	0	29	104	200278016	52	17227
2026-01-15 02:12:46.17	167.94	37.15	-42.0	-52.8	3.5	3.02e+01	0	29	104	200278016	60	16852
2026-01-15 02:12:50.21	168.25	38.31	-39.2	-49.6	3.5	3.02e+01	0	29	104	200278016	54	16484
2026-01-15 02:12:54.24	168.57	39.50	-39.2	-49.7	3.5	3.02e+01	0	29	104	200278016	56	14877
2026-01-15 02:12:58.28	168.93	40.75	-48.5	-66.0	3.5	3.02e+01	0	29	104	200278016	60	76865
2026-01-15 02:13:02.32	169.31	42.04	-36.9	-47.4	3.5	3.02e+01	0	29	104	200278016	50	16029
2026-01-15 02:13:06.36	169.72	43.37	-39.9	-50.5	3.2	3.02e+01	0	29	104	200278016	60	12859
2026-01-15 02:13:10.40	170.17	44.76	-38.9	-49.3	3.5	3.02e+01	0	29	104	200278016	52	17719
2026-01-15 02:13:14.43	170.66	46.19	-44.4	-56.0	3.5	3.02e+01	0	29	104	200278016	60	24392
2026-01-15 02:13:18.47	171.20	47.68	-35.6	-45.8	3.6	3.02e+01	0	29	104	200278016	46	16889
2026-01-15 02:13:22.51	171.79	49.22	-35.7	-45.9	3.5	3.02e+01	0	29	104	200278016	52	12071
2026-01-15 02:13:26.54	172.44	50.81	-41.6	-52.3	3.5	3.02e+01	0	29	104	200278016	56	20073
2026-01-15 02:13:30.58	173.17	52.46	-39.0	-49.5	3.5	3.02e+01	0	29	104	200278016	48	22895
2026-01-15 02:13:34.62	173.98	54.16	-43.4	-54.5	3.5	3.02e+01	0	29	104	200278016	60	20428
2026-01-15 02:13:38.66	174.89	55.92	-40.4	-50.9	3.5	3.02e+01	0	29	104	200278016	56	16932
2026-01-15 02:13:42.69	175.93	57.72	-38.7	-49.0	3.5	3.02e+01	0	29	104	200278016	48	21644
2026-01-15 02:13:46.73	177.12	59.59	-37.2	-47.5	3.5	3.02e+01	0	29	104	200278016	50	16162
2026-01-15 02:13:50.76	178.49	61.49	-48.8	-65.8	3.5	3.02e+01	0	29	104	200278016	60	75255
2026-01-15 02:13:54.80	180.09	63.44	-44.2	-55.7	3.5	3.02e+01	0	29	104	200278016	60	23533
2026-01-15 02:13:58.84	181.98	65.42	-47.0	-60.4	3.5	3.02e+01	0	29	104	200278016	60	40267
2026-01-15 02:14:02.88	184.25	67.43	-44.7	-56.4	3.5	3.02e+01	0	29	104	200278016	60	25552
2026-01-15 02:14:06.91	186.99	69.44	-46.3	-59.0	3.5	3.02e+01	0	29	104	200278016	60	34469
2026-01-15 02:14:10.95	190.38	71.45	-42.5	-53.5	3.5	3.02e+01	0	29	104	200278016	60	18265
2026-01-15 02:14:14.99	194.64	73.42	-48.6	-65.8	3.5	3.02e+01	0	29	104	200278016	60	75394
2026-01-15 02:14:19.01	200.06	75.31	-46.9	-60.8	3.5	3.02e+01	0	29	104	200278016	60	42233
2026-01-15 02:14:23.05	207.09	77.06	-41.8	-52.7	3.5	3.02e+01	0	29	104	200278016	58	18590
2026-01-15 02:14:27.09	216.23	78.59	-48.7	-65.7	3.5	3.02e+01	0	29	104	200278016	60	74007
2026-01-15 02:14:31.13	227.86	79.76	-40.9	-51.6	3.5	3.02e+01	0	29	104	200278016	56	18513
2026-01-15 02:14:35.16	241.78	80.43	-48.4	-64.4	3.5	3.02e+01	0	29	104	200278016	60	63753
2026-01-15 02:14:39.20	256.84	80.48	-38.4	-48.9	3.5	3.02e+01	0	29	104	200278016	52	16906
2026-01-15 02:14:43.24	271.09	79.91	-41.3	-52.1	3.5	3.02e+01	0	30	104	200278016	60	15550
2026-01-15 02:14:47.27	283.12	78.82	-41.3	-51.9	3.5	3.02e+01	0	29	104	200278016	56	19096
2026-01-15 02:14:51.31	292.66	77.34	-40.1	-50.6	3.5	3.02e+01	0	29	104	200278016	58	14681
2026-01-15 02:14:55.35	300.02	75.62	-45.6	-58.0	3.5	3.02e+01	0	30	104	200278016	60	30509
2026-01-15 02:14:59.38	305.68	73.75	-42.4	-53.6	3.5	3.02e+01	0	29	104	200278016	56	23185
2026-01-15 02:15:03.42	310.11	71.80	-43.6	-55.1	3.5	3.02e+01	0	29	104	200278016	60	21838
2026-01-15 02:15:07.45	313.62	69.80	-40.6	-51.5	3.5	3.02e+01	0	29	104	200278016	56	18189
2026-01-15 02:15:11.49	316.47	67.79	-48.3	-64.2	3.5	3.02e+01	0	29	104	200278016	60	62175
2026-01-15 02:15:15.53	318.80	65.78	-42.3	-53.5	3.5	3.02e+01	0	29	104	200278016	60	18173
2026-01-15 02:15:19.56	320.75	63.80	-39.2	-50.0	3.5	3.02e+01	0	29	104	200278016	50	21551
2026-01-15 02:15:23.60	322.39	61.85	-40.0	-50.3	3.5	3.02e+01	0	29	104	200278016	56	15886
2026-01-15 02:15:27.64	323.80	59.94	-36.6	-47.0	3.5	3.02e+01	0	29	104	200278016	46	19339
2026-01-15 02:15:31.68	325.02	58.08	-40.3	-50.9	3.5	3.02e+01	0	29	104	200278016	56	17059
2026-01-15 02:15:35.72	326.08	56.26	-38.5	-48.8	3.7	3.02e+01	0	29	104	200278016	48	21232
2026-01-15 02:15:39.76	327.02	54.50	-38.8	-49.3	3.5	3.02e+01	0	29	104	200278016	50	19994
2026-01-15 02:15:43.79	327.84	52.80	-40.5	-51.3	3.5	3.02e+01	0	29	104	200278016	56	17741
2026-01-15 02:15:47.83	328.59	51.14	-48.2	-63.2	3.5	3.02e+01	0	29	104	200278016	60	55574
2026-01-15 02:15:51.86	329.25	49.55	-39.3	-49.9	3.5	3.02e+01	0	29	104	200278016	54	16909
2026-01-15 02:15:55.90	329.85	48.00	-40.4	-50.9	3.5	3.02e+01	0	29	104	200278016	50	23912
2026-01-15 02:15:59.94	330.40	46.51	-37.2	-47.7	3.5	3.02e+01	0	29	104	200278016	50	16520
2026-01-15 02:16:03.97	330.89	45.07	-43.0	-54.1	3.5	3.02e+01	0	29	104	200278016	58	21834
2026-01-15 02:16:08.01	331.35	43.68	-40.8	-51.2	3.5	3.02e+01	0	29	104	200278016	56	17607
2026-01-15 02:16:12.04	331.77	42.35	-43.3	-54.5	3.5	3.02e+01	0	29	104	200278016	60	20341
2026-01-15 02:16:16.08	332.16	41.06	-46.0	-58.3	3.5	3.02e+01	0	29	104	200278016	60	31776
2026-01-15 02:16:20.11	332.51	39.81	-40.9	-51.4	3.5	3.02e+01	0	29	104	200278016	56	17920
2026-01-15 02:16:24.14	332.85	38.61	-48.5	-64.3	3.5	3.02e+01	0	29	104	200278016	60	63040
2026-01-15 02:16:28.18	333.16	37.45	-37.2	-47.4	3.5	3.02e+01	0	29	104	200278016	50	16037
2026-01-15 02:16:32.21	333.45	36.34	-47.8	-62.1	3.5	3.02e+01	0	29	104	200278016	60	48816
2026-01-15 02:16:36.25	333.72	35.26	-40.2	-50.8	3.5	3.02e+01	0	29	104	200278016	54	18945
2026-01-15 02:16:40.29	333.98	34.21	-37.8	-48.0	3.5	3.02e+01	0	29	104	200278016	54	13679
2026-01-15 02:16:44.33	334.22	33.21	-39.7	-50.2	3.5	3.02e+01	0	29	104	200278016	54	17511
2026-01-15 02:16:48.36	334.45	32.24	-35.4	-45.6	3.5	3.02e+01	0	29	104	200278016	46	16402
2026-01-15 02:16:52.40	334.66	31.29	-40.0	-41.6	25.0	3.02e+01	0	30	0	200802304	58	5198
2026-01-15 02:16:56.44	334.86	30.38	-34.8	-36.0	29.7	3.02e+01	0	29	0	208666624	44	6101
2026-01-15 02:17:00.48	335.06	29.50	-34.2	-35.3	30.3	3.02e+01	0	29	0	216006656	42	6333
2026-01-15 02:17:04.51	335.24	28.65	-34.4	-35.6	30.1	3.02e+01	0	29	0	223870976	42	6510
2026-01-15 02:17:08.55	335.42	27.83	-34.4	-35.6	29.9	3.02e+01	0	29	0	231211008	42	6523
2026-01-15 02:17:12.58	335.58	27.03	-34.4	-35.6	30.0	3.02e+01	0	29	0	239075328	42	6522
2026-01-15 02:17:16.62	335.74	26.26	-34.7	-35.9	29.9	3.02e+01	0	29	0	246415360	42	6761
2026-01-15 02:17:20.66	335.90	25.50	-34.8	-36.0	29.7	3.02e+01	0	29	0	253755392	42	6841
2026-01-15 02:17:24.70	336.04	24.78	-34.8	-36.0	29.5	3.02e+01	0	29	0	261619712	44	6105
2026-01-15 02:17:28.73	336.18	24.07	-34.9	-36.1	29.5	3.02e+01	0	29	0	268959744	44	6186
2026-01-15 02:17:32.78	336.32	23.38	-35.1	-36.4	29.3	3.02e+01	0	29	0	276824064	44	6357
2026-01-15 02:17:36.82	336.45	22.71	-35.1	-36.4	29.3	3.02e+01	0	29	0	284164096	44	6351
2026-01-15 02:17:40.85	336.57	22.06	-34.9	-36.1	29.5	3.02e+01	0	29	0	292028416	44	6191
2026-01-15 02:17:44.89	336.69	21.43	-34.9	-36.1	29.5	3.02e+01	0	29	0	299368448	44	6141
2026-01-15 02:17:48.92	336.80	20.81	-34.8	-36.0	29.7	3.02e+01	0	29	0	307232768	44	6067
2026-01-15 02:17:52.96	336.92	20.21	-34.8	-36.0	29.7	3.02e+01	0	29	0	314572800	44	6080
2026-01-15 02:17:57.00	337.02	19.63	-34.7	-35.9	29.7	3.02e+01	0	29	0	321912832	44	6046
2026-01-15 02:18:01.04	337.13	19.06	-34.6	-35.8	29.7	3.02e+01	0	29	0	329777152	44	5991
2026-01-15 02:18:05.07	337.23	18.50	-34.5	-35.7	29.8	3.02e+01	0	29	0	337117184	44	5903
2026-01-15 02:18:09.11	337.33	17.96	-34.7	-35.9	29.7	3.02e+01	0	29	0	344981504	44	5996
2026-01-15 02:18:13.15	337.42	17.43	-34.7	-35.9	29.6	3.02e+01	0	29	0	352321536	44	6008
2026-01-15 02:18:17.19	337.51	16.91	-34.6	-35.9	29.6	3.02e+01	0	29	0	360185856	44	5996
2026-01-15 02:18:21.23	337.60	16.41	-34.7	-35.9	29.6	3.02e+01	0	29	0	367525888	44	6040
2026-01-15 02:18:25.26	337.69	15.91	-34.7	-35.9	29.6	3.02e+01	0	29	0	374865920	44	6041
2026-01-15 02:18:29.30	337.77	15.43	-34.7	-35.9	29.5	3.02e+01	0	29	0	382730240	44	6040
2026-01-15 02:18:33.34	337.86	14.96	-34.7	-35.9	29.5	3.02e+01	0	29	0	390070272	44	6059
2026-01-15 02:18:37.37	337.94	14.49	-34.7	-35.9	29.5	3.02e+01	0	29	0	397934592	44	6022
2026-01-15 02:18:41.41	338.01	14.04	-34.8	-36.0	29.4	3.02e+01	0	29	0	405274624	44	6084
2026-01-15 02:18:45.46	338.09	13.59	-34.9	-36.1	29.4	3.02e+01	0	29	0	413138944	44	6151
2026-01-15 02:18:49.49	338.16	13.16	-34.9	-36.1	29.3	3.02e+01	0	29	0	420478976	44	6147
2026-01-15 02:18:53.53	338.24	12.73	-35.1	-36.3	29.1	3.02e+01	0	29	0	428343296	44	6321
2026-01-15 02:18:57.57	338.31	12.31	-35.2	-36.5	28.9	3.02e+01	0	29	0	435683328	44	6439
2026-01-15 02:19:01.61	338.38	11.90	-35.2	-36.4	29.0	3.02e+01	0	29	0	443023360	44	6385
2026-01-15 02:19:05.64	338.44	11.50	-35.1	-36.4	29.0	3.02e+01	0	29	0	450887680	44	6370
2026-01-15 02:19:09.68	338.51	11.10	-35.4	-36.6	28.7	3.02e+01	0	29	0	458227712	44	6547
2026-01-15 02:19:13.71	338.58	10.71	-35.3	-36.6	28.8	3.02e+01	0	29	0	466092032	44	6538
2026-01-15 02:19:17.75	338.64	10.33	-35.4	-36.7	28.7	3.02e+01	0	29	0	473432064	44	6588
2026-01-15 02:19:21.78	338.70	9.96	-35.3	-36.6	28.7	3.02e+01	0	29	0	481296384	44	6542
2026-01-15 02:19:25.82	338.76	9.59	-35.5	-36.8	28.5	3.02e+01	0	29	0	488636416	44	6687
2026-01-15 02:19:29.86	338.82	9.22	-35.7	-36.9	28.3	3.02e+01	0	29	0	495976448	44	6782
2026-01-15 02:19:33.89	338.88	8.86	-35.7	-36.9	28.4	3.02e+01	0	29	0	503840768	44	6803
2026-01-15 02:19:37.92	338.94	8.51	-35.9	-37.2	28.1	3.02e+01	0	29	0	511180800	44	6967
2026-01-15 02:19:41.96	338.99	8.17	-36.0	-37.2	28.0	3.02e+01	0	29	0	519045120	46	6261
2026-01-15 02:19:46.00	339.05	7.82	-36.2	-37.5	27.9	3.02e+01	0	29	0	526385152	46	6458
2026-01-15 02:19:50.04	339.11	7.49	-36.4	-37.8	27.5	3.02e+01	0	29	0	534249472	46	6664
2026-01-15 02:19:54.08	339.16	7.16	-36.4	-37.7	27.5	3.02e+01	0	30	0	541589504	46	6632
2026-01-15 02:19:58.11	339.21	6.83	-36.5	-37.8	27.4	3.02e+01	0	29	0	548929536	46	6715
2026-01-15 02:20:02.14	339.26	6.51	-36.5	-37.9	27.2	3.02e+01	0	29	0	556793856	46	6759
2026-01-15 02:20:06.18	339.32	6.19	-36.5	-37.8	27.3	3.02e+01	0	29	0	564133888	46	6725
2026-01-15 02:20:10.22	339.37	5.87	-36.6	-38.0	26.9	3.02e+01	0	29	0	571998208	46	6845
2026-01-15 02:20:14.26	339.42	5.56	-37.4	-38.9	25.9	3.02e+01	0	29	0	579338240	48	6732
2026-01-15 02:20:18.30	339.46	5.26	-38.5	-40.2	24.2	3.02e+01	0	29	0	587202560	50	7035
2026-01-15 02:20:22.33	339.51	4.96	-40.4	-42.7	20.9	3.02e+01	0	29	0	594542592	54	7396
2026-01-15 02:20:26.37	339.56	4.66	-42.2	-45.7	17.1	3.02e+01	0	29	0	602406912	58	8354
2026-01-15 02:20:30.40	339.61	4.37	-43.7	-50.0	12.2	3.02e+01	0	29	0	609746944	60	12168
2026-01-15 02:20:34.44	339.65	4.07	-44.3	-54.3	6.7	3.02e+01	91	30	0	617086976	60	19998
2026-01-15 02:20:38.48	339.70	3.79	-44.5	-59.1	4.1	3.02e+01	0	29	104	619708416	60	34651
2026-01-15 02:20:42.52	339.74	3.50	-44.7	-62.5	3.5	3.02e+01	0	30	104	619708416	60	51194
2026-01-15 02:20:46.55	339.79	3.22	-44.7	-62.3	3.5	3.02e+01	0	29	104	619708416	60	49905
2026-01-15 02:20:50.59	339.83	2.94	-48.2	-66.1	3.5	3.02e+01	0	30	104	619708416	60	78023
2026-01-15 02:20:54.64	339.88	2.67	-48.8	-67.0	3.5	3.02e+01	0	30	104	619708416	60	86527
2026-01-15 02:20:58.67	339.92	2.40	-48.9	-67.1	3.5	3.02e+01	0	30	104	619708416	60	87096
2026-01-15 02:21:02.71	339.96	2.13	-49.0	-67.0	3.5	3.02e+01	0	30	104	619708416	60	86454
2026-01-15 02:21:06.75	340.00	1.86	-49.2	-67.1	3.5	3.02e+01	0	30	104	619708416	60	87529
2026-01-15 02:21:10.78	340.05	1.60	-49.2	-67.1	3.5	3.02e+01	0	30	104	619708416	60	86858
2026-01-15 02:21:14.82	340.09	1.34	-49.2	-67.1	3.5	3.02e+01	0	30	104	619708416	60	86912
2026-01-15 02:21:18.86	340.13	1.08	-49.2	-67.1	3.5	3.02e+01	0	30	104	619708416	60	87193
2026-01-15 02:21:22.90	340.17	0.82	-49.2	-67.1	3.5	3.02e+01	0	30	104	619708416	60	86713
2026-01-15 02:21:26.94	340.21	0.57	-49.2	-67.0	3.5	3.02e+01	0	30	104	619708416	60	86572
2026-01-15 02:21:30.98	340.25	0.32	-49.2	-67.0	3.5	3.02e+01	0	30	104	619708416	60	86291
2026-01-15 02:21:35.01	340.29	0.07	-49.1	-67.0	3.5	3.02e+01	0	30	104	619708416	60	86390

#Closed at: 2026-01-15 02:21:39
#Recorded file [619 MB]: D:/lorett/data/35029_260115_140743.dat