passes_logs/2026/01/15/R4.6S_Anadyr/R4.6S_Anadyr__20260115_233238_AQUA_rec.log

#Pass ID: 20260115_233238_AQUA
#Satellite: AQUA
#Configuration: AQUA
#almurnet v.1.7.20251203
#Start time: 2026-01-15 23:35:45

#Version: 2.2.20231116
#Station: R4.6S_Anadyr
#Location: 177.4865 lon 64.73178 lat
#TLE: 1 27424U 02022A   26014.61231444  .00000653  00000+0  14070-3 0  9991
#TLE: 2 27424  98.4080 341.0332 0002042  78.9336 335.9961 14.61820174260839

#Time	Az	El	Level	Level2	SNR	BER	BlckErr	Temp	State	Recorded	gain1	gain2
2026-01-15 23:35:45.93	76.12	11.47	-48.1	-63.1	3.5	1.51e+00	0	28	0	0	60	51514
2026-01-15 23:35:48.95	75.62	11.67	-48.6	-66.5	3.5	3.02e+01	0	28	104	0	60	81231
2026-01-15 23:35:51.98	75.12	11.87	-48.7	-66.5	3.5	3.02e+01	0	28	104	0	60	81425
2026-01-15 23:35:55.01	74.61	12.07	-48.4	-66.5	3.5	3.02e+01	0	28	104	0	60	81554
2026-01-15 23:35:58.04	74.10	12.27	-47.2	-66.4	3.5	3.02e+01	0	28	104	0	60	80104
2026-01-15 23:36:01.05	73.57	12.47	-47.9	-66.1	3.5	3.02e+01	0	28	104	0	60	77773
2026-01-15 23:36:04.08	73.04	12.67	-47.9	-66.0	3.5	3.02e+01	0	28	104	0	60	76738
2026-01-15 23:36:07.11	72.50	12.86	-47.8	-65.9	3.5	3.02e+01	0	28	104	0	60	76239
2026-01-15 23:36:10.14	71.95	13.06	-47.8	-65.9	3.5	3.02e+01	0	28	104	0	60	75885
2026-01-15 23:36:13.17	71.40	13.26	-47.8	-65.9	3.5	3.02e+01	0	28	104	0	60	75618
2026-01-15 23:36:16.20	70.83	13.46	-47.8	-66.0	3.5	3.02e+01	0	28	104	0	60	76377
2026-01-15 23:36:19.22	70.26	13.65	-47.8	-65.9	3.5	3.02e+01	0	28	104	0	60	76220
2026-01-15 23:36:22.25	69.68	13.85	-47.8	-65.9	3.5	3.02e+01	0	28	104	0	60	75986
2026-01-15 23:36:25.28	69.09	14.04	-47.7	-65.8	3.5	3.02e+01	0	28	104	0	60	75444
2026-01-15 23:36:28.31	68.49	14.23	-47.7	-65.9	3.5	3.02e+01	0	28	104	0	60	75707
2026-01-15 23:36:31.34	67.89	14.42	-47.7	-65.5	3.5	3.02e+01	0	28	104	0	60	72764
2026-01-15 23:36:34.37	67.27	14.61	-47.7	-65.5	3.5	3.02e+01	0	28	104	0	60	72128
2026-01-15 23:36:37.40	66.65	14.80	-47.7	-65.6	3.5	3.02e+01	0	28	104	0	60	73103
2026-01-15 23:36:40.43	66.02	14.99	-47.5	-64.4	3.5	3.02e+01	0	28	104	0	60	64236
2026-01-15 23:36:43.46	65.38	15.17	-39.1	-49.8	3.6	3.02e+01	0	28	104	0	54	16735
2026-01-15 23:36:46.49	64.73	15.35	-36.7	-47.2	3.6	3.02e+01	0	28	104	0	54	12461
2026-01-15 23:36:49.52	64.07	15.54	-43.8	-56.0	3.5	3.02e+01	0	28	104	0	60	24331
2026-01-15 23:36:52.55	63.41	15.71	-35.4	-45.7	3.5	3.02e+01	0	28	104	0	46	16598
2026-01-15 23:36:55.57	62.73	15.89	-37.3	-47.8	3.3	3.02e+01	0	28	104	0	46	21225
2026-01-15 23:36:58.60	62.05	16.06	-42.5	-58.7	3.5	3.02e+01	0	28	104	0	60	33055
2026-01-15 23:37:01.63	61.36	16.23	-39.9	-51.5	3.5	3.02e+01	0	28	104	0	54	20511
2026-01-15 23:37:04.66	60.66	16.40	-38.1	-49.2	3.6	3.02e+01	0	28	104	0	48	22027
2026-01-15 23:37:07.69	59.95	16.57	-37.3	-47.7	3.5	3.02e+01	0	28	104	0	50	16644
2026-01-15 23:37:10.71	59.24	16.73	-37.3	-47.8	3.5	3.02e+01	0	28	104	0	48	18888
2026-01-15 23:37:13.74	58.52	16.89	-43.4	-56.2	3.5	3.02e+01	0	28	104	0	54	35297
2026-01-15 23:37:16.76	57.79	17.04	-37.8	-48.3	3.5	3.02e+01	0	28	104	0	52	15878
2026-01-15 23:37:19.79	57.05	17.19	-35.2	-45.6	3.5	3.02e+01	0	28	104	0	46	16444
2026-01-15 23:37:22.82	56.30	17.34	-44.8	-58.7	3.5	3.02e+01	0	28	104	0	56	41583
2026-01-15 23:37:25.85	55.54	17.49	-39.5	-50.2	3.5	3.02e+01	0	28	104	0	56	15660
2026-01-15 23:37:28.87	54.78	17.63	-38.6	-49.1	3.5	3.02e+01	0	28	104	0	52	17415
2026-01-15 23:37:31.89	54.01	17.76	-43.5	-55.5	3.5	3.02e+01	0	28	104	0	56	28804
2026-01-15 23:37:34.92	53.23	17.89	-37.0	-47.3	3.5	3.02e+01	0	28	104	0	48	17847
2026-01-15 23:37:37.95	52.45	18.02	-35.5	-45.8	3.5	3.02e+01	0	28	104	0	46	16760
2026-01-15 23:37:40.98	51.66	18.14	-47.6	-65.2	3.5	3.02e+01	0	28	104	0	60	70317
2026-01-15 23:37:44.01	50.86	18.26	-36.5	-46.9	3.5	3.02e+01	0	28	104	0	48	16966
2026-01-15 23:37:47.03	50.05	18.37	-35.0	-45.4	3.5	3.02e+01	0	28	104	0	46	15958
2026-01-15 23:37:50.06	49.24	18.48	-47.4	-65.6	3.5	3.02e+01	0	28	104	0	60	73626
2026-01-15 23:37:53.09	48.43	18.58	-38.8	-49.5	3.5	3.02e+01	0	28	104	0	54	16215
2026-01-15 23:37:56.12	47.60	18.68	-39.4	-50.0	3.5	3.02e+01	0	28	104	0	54	17174
2026-01-15 23:37:59.15	46.77	18.77	-44.7	-57.0	3.5	3.02e+01	0	28	104	0	60	27270
2026-01-15 23:38:02.17	45.94	18.86	-37.4	-47.7	3.5	3.02e+01	0	28	104	0	50	16696
2026-01-15 23:38:05.20	45.10	18.94	-35.5	-45.7	3.6	3.02e+01	0	28	104	0	46	16571
2026-01-15 23:38:08.23	44.26	19.01	-46.7	-56.1	13.0	3.02e+01	0	28	0	0	60	24665
2026-01-15 23:38:11.26	43.41	19.08	-36.1	-37.4	27.8	3.02e+01	0	28	0	3145728	48	5710
2026-01-15 23:38:14.28	42.56	19.15	-34.9	-36.2	28.9	3.02e+01	0	28	0	8912896	44	6207
2026-01-15 23:38:17.31	41.71	19.20	-34.7	-35.9	29.0	3.02e+01	0	28	0	14155776	44	6042
2026-01-15 23:38:20.34	40.85	19.25	-34.7	-35.9	29.0	3.02e+01	0	28	0	19922944	44	6063
2026-01-15 23:38:23.37	39.99	19.30	-34.9	-36.2	28.9	3.02e+01	0	28	0	25690112	44	6209
2026-01-15 23:38:26.40	39.13	19.33	-34.8	-36.1	28.9	3.02e+01	0	28	0	31457280	44	6163
2026-01-15 23:38:29.42	38.27	19.36	-34.8	-36.0	28.9	3.02e+01	0	28	0	37224448	44	6112
2026-01-15 23:38:32.45	37.40	19.39	-35.0	-36.2	28.8	3.02e+01	0	28	0	42467328	44	6255
2026-01-15 23:38:35.48	36.53	19.41	-34.8	-36.0	28.9	3.02e+01	0	28	0	48234496	44	6127
2026-01-15 23:38:38.50	35.67	19.42	-34.9	-36.2	28.9	3.02e+01	0	28	0	54001664	44	6240
2026-01-15 23:38:41.53	34.80	19.42	-35.0	-36.2	28.8	3.02e+01	0	28	0	59768832	44	6265
2026-01-15 23:38:44.56	33.93	19.42	-34.9	-36.2	28.8	3.02e+01	0	28	0	65536000	44	6225
2026-01-15 23:38:47.59	33.06	19.41	-35.0	-36.2	28.7	3.02e+01	0	28	0	71303168	44	6248
2026-01-15 23:38:50.61	32.19	19.40	-34.9	-36.1	28.9	3.02e+01	0	28	0	76546048	44	6160
2026-01-15 23:38:53.64	31.33	19.37	-35.0	-36.2	28.8	3.02e+01	0	28	0	82313216	44	6241
2026-01-15 23:38:56.67	30.46	19.35	-34.9	-36.1	28.8	3.02e+01	0	28	0	88080384	44	6161
2026-01-15 23:38:59.70	29.60	19.31	-35.0	-36.3	28.7	3.02e+01	0	28	0	93847552	44	6311
2026-01-15 23:39:02.72	28.74	19.27	-34.8	-36.0	28.9	3.02e+01	0	28	0	99614720	44	6102
2026-01-15 23:39:05.76	27.88	19.22	-35.0	-36.3	28.7	3.02e+01	0	28	0	105381888	44	6312
2026-01-15 23:39:08.78	27.02	19.17	-34.8	-36.0	28.9	3.02e+01	0	28	0	110624768	44	6099
2026-01-15 23:39:11.81	26.17	19.11	-35.0	-36.2	28.7	3.02e+01	0	28	0	116391936	44	6247
2026-01-15 23:39:14.84	25.32	19.04	-35.0	-36.3	28.7	3.02e+01	0	28	0	122159104	44	6292
2026-01-15 23:39:17.86	24.48	18.97	-35.1	-36.3	28.7	3.02e+01	0	28	0	127926272	44	6311
2026-01-15 23:39:20.89	23.64	18.90	-35.1	-36.4	28.6	3.02e+01	0	28	0	133693440	44	6352
2026-01-15 23:39:23.92	22.81	18.81	-34.8	-36.1	28.8	3.02e+01	0	27	0	138936320	44	6148
2026-01-15 23:39:26.95	21.98	18.72	-35.0	-36.3	28.7	3.02e+01	0	28	0	144703488	44	6306
2026-01-15 23:39:29.97	21.16	18.63	-34.8	-36.1	28.8	3.02e+01	0	27	0	150470656	44	6160
2026-01-15 23:39:33.00	20.34	18.53	-34.8	-36.0	28.9	3.02e+01	0	28	0	156237824	44	6114
2026-01-15 23:39:36.02	19.53	18.42	-34.9	-36.2	28.7	3.02e+01	0	28	0	162004992	44	6235
2026-01-15 23:39:39.05	18.72	18.31	-34.8	-36.0	28.8	3.02e+01	0	28	0	167772160	44	6114
2026-01-15 23:39:42.08	17.92	18.20	-34.8	-36.1	28.7	3.02e+01	0	28	0	173539328	44	6155
2026-01-15 23:39:45.11	17.13	18.08	-34.8	-36.0	28.8	3.02e+01	0	27	0	178782208	44	6107
2026-01-15 23:39:48.13	16.34	17.95	-34.8	-36.1	28.8	3.02e+01	0	28	0	184549376	44	6153
2026-01-15 23:39:51.16	15.56	17.82	-34.7	-35.9	28.9	3.02e+01	0	28	0	190316544	44	6064
2026-01-15 23:39:54.19	14.79	17.69	-34.9	-36.1	28.7	3.02e+01	0	28	0	196083712	44	6205
2026-01-15 23:39:57.22	14.02	17.55	-34.8	-36.0	28.8	3.02e+01	0	28	0	201850880	44	6122
2026-01-15 23:40:00.25	13.27	17.41	-34.7	-35.9	28.9	3.02e+01	0	27	0	207093760	44	6042
2026-01-15 23:40:03.27	12.52	17.26	-34.9	-36.1	28.8	3.02e+01	0	28	0	212860928	44	6174
2026-01-15 23:40:06.30	11.78	17.11	-34.7	-35.9	29.0	3.02e+01	0	28	0	218628096	44	6035
2026-01-15 23:40:09.32	11.05	16.96	-34.7	-35.9	28.9	3.02e+01	0	28	0	224395264	44	6035
2026-01-15 23:40:12.35	10.32	16.80	-34.9	-36.1	28.8	3.02e+01	0	27	0	230162432	44	6182
2026-01-15 23:40:15.38	9.60	16.64	-34.7	-35.9	28.9	3.02e+01	0	28	0	235929600	44	6050
2026-01-15 23:40:18.41	8.89	16.48	-34.8	-36.0	28.8	3.02e+01	0	27	0	241172480	44	6096
2026-01-15 23:40:21.44	8.19	16.31	-34.5	-35.7	29.0	3.02e+01	0	28	0	246939648	44	5924
2026-01-15 23:40:24.47	7.50	16.14	-34.9	-36.2	28.7	3.02e+01	0	28	0	252706816	44	6210
2026-01-15 23:40:27.50	6.82	15.97	-34.7	-35.9	28.9	3.02e+01	0	27	0	258473984	44	6044
2026-01-15 23:40:30.52	6.14	15.80	-34.6	-35.8	29.0	3.02e+01	0	28	0	264241152	44	5973
2026-01-15 23:40:33.55	5.48	15.62	-34.7	-35.9	28.9	3.02e+01	0	28	0	270008320	44	6047
2026-01-15 23:40:36.58	4.82	15.44	-34.8	-36.1	28.7	3.02e+01	0	28	0	275251200	44	6156
2026-01-15 23:40:39.61	4.17	15.26	-34.6	-35.8	29.0	3.02e+01	0	27	0	281018368	44	5951
2026-01-15 23:40:42.63	3.53	15.08	-34.8	-36.0	28.8	3.02e+01	0	27	0	286785536	44	6116
2026-01-15 23:40:45.66	2.89	14.89	-34.7	-36.0	28.8	3.02e+01	0	27	0	292552704	44	6081
2026-01-15 23:40:48.68	2.27	14.71	-34.9	-36.1	28.8	3.02e+01	0	27	0	298319872	44	6197
2026-01-15 23:40:51.71	1.66	14.52	-35.2	-36.5	28.5	3.02e+01	0	27	0	303562752	44	6433
2026-01-15 23:40:54.74	1.05	14.33	-34.6	-35.8	28.9	3.02e+01	0	27	0	309329920	44	5967
2026-01-15 23:40:57.77	0.45	14.14	-34.7	-35.9	28.9	3.02e+01	0	27	0	315097088	44	6048
2026-01-15 23:41:00.80	359.86	13.94	-34.9	-36.1	28.6	3.02e+01	0	27	0	320864256	44	6196
2026-01-15 23:41:03.82	359.28	13.75	-35.0	-36.2	28.6	3.02e+01	0	27	0	326631424	44	6242
2026-01-15 23:41:06.85	358.70	13.56	-34.8	-36.1	28.8	3.02e+01	0	27	0	332398592	44	6142
2026-01-15 23:41:09.87	358.14	13.36	-35.1	-36.4	28.4	3.02e+01	0	27	0	338165760	44	6360
2026-01-15 23:41:12.90	357.58	13.16	-34.7	-36.0	28.7	3.02e+01	0	27	0	343408640	44	6080
2026-01-15 23:41:15.92	357.03	12.97	-35.1	-36.4	28.4	3.02e+01	0	27	0	349175808	44	6366
2026-01-15 23:41:18.95	356.49	12.77	-35.0	-36.3	28.5	3.02e+01	0	28	0	354942976	44	6290
2026-01-15 23:41:21.98	355.96	12.57	-34.8	-36.1	28.6	3.02e+01	0	27	0	360710144	44	6136
2026-01-15 23:41:25.01	355.43	12.37	-35.2	-36.5	28.3	3.02e+01	0	27	0	366477312	44	6430
2026-01-15 23:41:28.04	354.91	12.17	-35.1	-36.3	28.4	3.02e+01	0	27	0	371720192	44	6340
2026-01-15 23:41:31.06	354.40	11.97	-35.5	-36.8	28.0	3.02e+01	0	27	0	377487360	44	6673
2026-01-15 23:41:34.09	353.90	11.77	-35.1	-36.3	28.4	3.02e+01	0	27	0	383254528	44	6323
2026-01-15 23:41:37.12	353.40	11.57	-36.3	-37.7	27.3	3.02e+01	0	27	0	389021696	46	6592
2026-01-15 23:41:40.15	352.92	11.37	-36.4	-37.7	27.1	3.02e+01	0	27	0	394788864	46	6618
2026-01-15 23:41:43.18	352.43	11.17	-36.4	-37.8	26.9	3.02e+01	0	27	0	400556032	48	5952
2026-01-15 23:41:46.21	351.96	10.97	-35.8	-37.1	27.5	3.02e+01	0	27	0	405798912	46	6159
2026-01-15 23:41:49.24	351.49	10.77	-34.9	-36.1	28.5	3.02e+01	0	27	0	411566080	44	6166
2026-01-15 23:41:52.26	351.04	10.57	-36.0	-37.4	27.4	3.02e+01	0	27	0	417333248	46	6397
2026-01-15 23:41:55.29	350.58	10.37	-35.9	-37.2	27.2	3.02e+01	0	27	0	423100416	46	6258
2026-01-15 23:41:58.32	350.14	10.17	-35.0	-36.2	28.2	3.02e+01	0	27	0	428867584	46	5564
2026-01-15 23:42:01.34	349.70	9.97	-36.7	-38.1	26.6	3.02e+01	0	27	0	434634752	46	6952
2026-01-15 23:42:04.37	349.27	9.77	-36.9	-38.4	26.4	3.02e+01	0	27	0	439877632	48	6387
2026-01-15 23:42:07.40	348.84	9.57	-35.7	-37.0	27.0	3.02e+01	0	28	0	445644800	46	6092
2026-01-15 23:42:10.42	348.42	9.38	-35.8	-37.0	27.5	3.02e+01	0	27	0	451411968	46	6125
2026-01-15 23:42:13.45	348.01	9.18	-35.6	-36.9	27.5	3.02e+01	0	27	0	457179136	46	6004
2026-01-15 23:42:16.48	347.60	8.98	-36.3	-37.7	27.0	3.02e+01	0	27	0	462946304	46	6595
2026-01-15 23:42:19.51	347.20	8.78	-36.6	-38.0	26.6	3.02e+01	0	27	0	468189184	46	6836
2026-01-15 23:42:22.54	346.80	8.58	-36.9	-38.3	26.4	3.02e+01	0	27	0	473956352	46	7116
2026-01-15 23:42:25.56	346.41	8.39	-36.6	-38.0	26.5	3.02e+01	0	27	0	479723520	48	6126
2026-01-15 23:42:28.59	346.03	8.19	-36.3	-37.7	27.0	3.02e+01	0	27	0	485490688	46	6604
2026-01-15 23:42:31.62	345.65	8.00	-36.5	-37.9	26.8	3.02e+01	0	27	0	491257856	46	6775
2026-01-15 23:42:34.65	345.28	7.80	-36.7	-38.1	26.6	3.02e+01	0	27	0	497025024	46	6929
2026-01-15 23:42:37.67	344.91	7.61	-36.6	-38.0	26.6	3.02e+01	0	27	0	502792192	46	6826
2026-01-15 23:42:40.70	344.55	7.41	-36.6	-38.1	26.5	3.02e+01	0	27	0	508035072	46	6906
2026-01-15 23:42:43.73	344.20	7.22	-36.8	-38.2	26.3	3.02e+01	0	27	0	513802240	46	7035
2026-01-15 23:42:46.76	343.84	7.03	-36.5	-37.9	26.5	3.02e+01	0	27	0	519569408	46	6801
2026-01-15 23:42:49.78	343.50	6.84	-36.2	-37.6	26.8	3.02e+01	0	27	0	525336576	46	6526
2026-01-15 23:42:52.81	343.16	6.65	-36.5	-37.8	26.7	3.02e+01	0	27	0	531103744	46	6723
2026-01-15 23:42:55.84	342.82	6.46	-36.7	-38.1	26.3	3.02e+01	0	27	0	536346624	46	6896
2026-01-15 23:42:58.87	342.49	6.27	-37.2	-38.7	25.6	3.02e+01	0	27	0	542113792	48	6575
2026-01-15 23:43:01.89	342.17	6.08	-37.7	-39.3	24.9	3.02e+01	0	27	0	547880960	48	7050
2026-01-15 23:43:04.92	341.85	5.89	-38.0	-39.7	24.2	3.02e+01	0	27	0	553648128	50	6586
2026-01-15 23:43:07.95	341.53	5.70	-38.1	-39.8	24.1	3.02e+01	0	27	0	559415296	50	6680
2026-01-15 23:43:10.98	341.22	5.51	-39.1	-41.0	22.6	3.02e+01	0	27	0	565182464	52	6847
2026-01-15 23:43:14.01	340.91	5.33	-39.8	-42.0	21.3	3.02e+01	0	27	0	570425344	52	7687
2026-01-15 23:43:17.04	340.61	5.14	-40.3	-42.9	20.0	3.02e+01	0	27	0	576192512	54	7576
2026-01-15 23:43:20.07	340.31	4.96	-41.0	-43.8	19.1	3.02e+01	0	27	0	581959680	56	7502
2026-01-15 23:43:23.09	340.01	4.77	-41.8	-45.4	17.1	3.02e+01	0	27	0	587726848	56	9016
2026-01-15 23:43:26.12	339.72	4.59	-42.5	-47.1	15.2	3.02e+01	0	27	0	593494016	58	9743
2026-01-15 23:43:29.15	339.44	4.41	-42.9	-48.3	13.6	3.02e+01	0	27	0	599261184	58	11228
2026-01-15 23:43:32.18	339.16	4.23	-43.3	-50.3	11.2	3.02e+01	0	27	0	604504064	60	12541
2026-01-15 23:43:35.20	338.88	4.04	-43.6	-52.5	8.2	3.02e+01	44	27	0	610271232	60	16321
2026-01-15 23:43:38.23	338.60	3.86	-43.7	-56.2	3.9	3.02e+01	0	27	104	615514112	60	24962
2026-01-15 23:43:41.26	338.33	3.68	-43.8	-58.5	4.0	3.02e+01	0	27	104	615514112	60	32519
2026-01-15 23:43:44.29	338.07	3.51	-43.7	-60.3	3.5	3.02e+01	0	27	104	615514112	60	39994
2026-01-15 23:43:47.32	337.80	3.33	-43.9	-60.3	3.5	3.02e+01	0	28	104	615514112	60	39878
2026-01-15 23:43:50.34	337.54	3.15	-43.8	-61.0	3.5	3.02e+01	0	27	104	615514112	60	42982
2026-01-15 23:43:53.37	337.29	2.97	-47.5	-65.4	3.5	3.02e+01	0	27	104	615514112	60	71916
2026-01-15 23:43:56.40	337.03	2.80	-48.4	-66.4	3.5	3.02e+01	0	27	104	615514112	60	80069
2026-01-15 23:43:59.43	336.79	2.62	-48.6	-66.6	3.5	3.02e+01	0	27	104	615514112	60	82631
2026-01-15 23:44:02.45	336.54	2.45	-48.5	-66.6	3.5	3.02e+01	0	28	104	615514112	60	81848
2026-01-15 23:44:05.48	336.30	2.28	-48.5	-66.4	3.5	3.02e+01	0	27	104	615514112	60	80491
2026-01-15 23:44:08.51	336.06	2.10	-48.5	-66.5	3.5	3.02e+01	0	27	104	615514112	60	80877
2026-01-15 23:44:11.54	335.82	1.93	-48.5	-66.5	3.5	3.02e+01	0	28	104	615514112	60	80884
2026-01-15 23:44:14.57	335.59	1.76	-48.5	-66.4	3.5	3.02e+01	0	28	104	615514112	60	80515
2026-01-15 23:44:17.60	335.36	1.59	-48.5	-66.4	3.5	3.02e+01	0	27	104	615514112	60	80042
2026-01-15 23:44:20.62	335.13	1.42	-48.5	-66.4	3.5	3.02e+01	0	27	104	615514112	60	80032
2026-01-15 23:44:23.65	334.91	1.25	-48.5	-66.4	3.5	3.02e+01	0	27	104	615514112	60	80079
2026-01-15 23:44:26.68	334.69	1.08	-48.4	-66.3	3.5	3.02e+01	0	27	104	615514112	60	79841
2026-01-15 23:44:29.71	334.47	0.91	-48.4	-66.3	3.5	3.02e+01	0	27	104	615514112	60	79898
2026-01-15 23:44:32.74	334.26	0.74	-48.5	-66.3	3.5	3.02e+01	0	27	104	615514112	60	79665
2026-01-15 23:44:35.77	334.04	0.58	-48.5	-66.4	3.5	3.02e+01	0	27	104	615514112	60	80430
2026-01-15 23:44:38.80	333.83	0.41	-48.5	-66.4	3.5	3.02e+01	0	28	104	615514112	60	80373
2026-01-15 23:44:41.82	333.63	0.25	-48.5	-66.4	3.5	3.02e+01	0	27	104	615514112	60	80544
2026-01-15 23:44:44.85	333.42	0.08	-48.5	-66.3	3.5	3.02e+01	0	27	104	615514112	60	79626

#Closed at: 2026-01-15 23:44:47
#Recorded file [615 MB]: D:/lorett/data/35029_260116_113545.dat