passes_logs/2026/01/15/R4.6S_Anadyr/R4.6S_Anadyr__20260115_202140_AQUA_rec.log

#Pass ID: 20260115_202140_AQUA
#Satellite: AQUA
#Configuration: AQUA
#almurnet v.1.7.20251203
#Start time: 2026-01-15 20:21:42

#Version: 2.2.20231116
#Station: R4.6S_Anadyr
#Location: 177.4865 lon 64.73178 lat
#TLE: 1 27424U 02022A   26014.61231444  .00000653  00000+0  14070-3 0  9991
#TLE: 2 27424  98.4080 341.0332 0002042  78.9336 335.9961 14.61820174260839

#Time	Az	El	Level	Level2	SNR	BER	BlckErr	Temp	State	Recorded	gain1	gain2
2026-01-15 20:21:42.74	38.17	0.11	-48.0	-62.9	3.5	1.51e+00	0	26	0	0	60	50491
2026-01-15 20:21:45.76	37.90	0.26	-48.4	-66.3	3.5	3.02e+01	0	28	104	0	60	79273
2026-01-15 20:21:48.79	37.62	0.40	-48.4	-66.4	3.5	3.02e+01	0	28	104	0	60	80191
2026-01-15 20:21:51.83	37.34	0.55	-48.3	-66.2	3.5	3.02e+01	0	28	104	0	60	78184
2026-01-15 20:21:54.85	37.06	0.69	-47.9	-65.9	3.5	3.02e+01	0	28	104	0	60	76319
2026-01-15 20:21:57.89	36.77	0.84	-47.4	-65.4	3.5	3.02e+01	0	28	104	0	60	71492
2026-01-15 20:22:00.92	36.48	0.99	-46.1	-64.5	3.5	3.02e+01	0	28	104	0	60	64703
2026-01-15 20:22:03.95	36.19	1.13	-46.0	-64.5	3.5	3.02e+01	0	28	104	0	60	64475
2026-01-15 20:22:06.98	35.89	1.28	-46.1	-64.5	3.5	3.02e+01	0	28	104	0	60	64561
2026-01-15 20:22:10.01	35.59	1.42	-46.0	-64.4	3.5	3.02e+01	0	28	104	0	60	63963
2026-01-15 20:22:13.04	35.29	1.57	-46.0	-64.4	3.5	3.02e+01	0	28	104	0	60	63704
2026-01-15 20:22:16.07	34.98	1.72	-46.0	-64.4	3.5	3.02e+01	0	28	104	0	60	63797
2026-01-15 20:22:19.09	34.67	1.86	-46.0	-64.3	3.5	3.02e+01	0	29	104	0	60	62958
2026-01-15 20:22:22.12	34.36	2.01	-46.0	-64.3	3.5	3.02e+01	0	29	104	0	60	63188
2026-01-15 20:22:25.15	34.04	2.16	-46.0	-64.2	3.5	3.02e+01	0	29	104	0	60	62173
2026-01-15 20:22:28.17	33.72	2.30	-46.0	-63.9	3.5	3.02e+01	0	29	104	0	60	60450
2026-01-15 20:22:31.20	33.40	2.45	-46.0	-64.4	3.5	3.02e+01	0	29	104	0	60	64131
2026-01-15 20:22:34.23	33.07	2.60	-46.0	-64.4	3.5	3.02e+01	0	29	104	0	60	63639
2026-01-15 20:22:37.26	32.74	2.74	-45.8	-63.1	3.5	3.02e+01	0	29	104	0	60	54949
2026-01-15 20:22:40.29	32.40	2.89	-45.9	-63.4	3.5	3.02e+01	0	29	104	0	60	57077
2026-01-15 20:22:43.33	32.06	3.04	-44.2	-57.8	3.5	3.02e+01	0	29	104	0	60	30011
2026-01-15 20:22:46.36	31.72	3.18	-45.2	-60.8	3.5	3.02e+01	0	29	104	0	60	42008
2026-01-15 20:22:49.38	31.38	3.33	-37.7	-48.3	3.5	3.02e+01	0	29	104	0	50	17780
2026-01-15 20:22:52.41	31.02	3.48	-38.7	-49.5	3.5	3.02e+01	0	29	104	0	50	20532
2026-01-15 20:22:55.44	30.67	3.62	-46.1	-64.0	3.5	3.02e+01	0	29	104	0	60	61091
2026-01-15 20:22:58.47	30.31	3.77	-38.5	-49.2	3.5	3.02e+01	0	29	104	0	52	17511
2026-01-15 20:23:01.50	29.95	3.92	-37.4	-47.9	3.6	3.02e+01	0	29	104	0	50	16949
2026-01-15 20:23:04.52	29.58	4.06	-46.6	-64.7	3.5	3.02e+01	0	29	104	0	60	66051
2026-01-15 20:23:07.55	29.21	4.21	-37.9	-48.4	3.5	3.02e+01	0	29	104	0	50	18075
2026-01-15 20:23:10.58	28.84	4.36	-37.2	-47.7	3.5	3.02e+01	0	29	104	0	50	16552
2026-01-15 20:23:13.61	28.46	4.50	-46.6	-63.6	3.5	3.02e+01	0	29	104	0	60	58424
2026-01-15 20:23:16.64	28.07	4.65	-39.7	-50.6	3.5	3.02e+01	0	29	104	0	54	18330
2026-01-15 20:23:19.67	27.68	4.79	-38.6	-49.2	3.5	3.02e+01	0	29	104	0	52	17607
2026-01-15 20:23:22.70	27.29	4.94	-41.5	-52.8	3.5	3.02e+01	0	29	104	0	60	16750
2026-01-15 20:23:25.73	26.89	5.08	-39.7	-50.6	3.5	3.02e+01	0	29	104	0	56	16493
2026-01-15 20:23:28.76	26.49	5.23	-42.1	-53.6	3.6	3.02e+01	0	29	104	0	56	23078
2026-01-15 20:23:31.79	26.09	5.37	-45.1	-58.3	3.5	3.02e+01	0	29	104	0	60	31610
2026-01-15 20:23:34.82	25.68	5.52	-37.0	-47.4	3.5	3.02e+01	0	29	104	0	48	17966
2026-01-15 20:23:37.85	25.26	5.66	-37.2	-47.7	3.5	3.02e+01	0	29	104	0	48	18612
2026-01-15 20:23:40.87	24.84	5.80	-46.0	-60.9	3.5	3.02e+01	0	29	104	0	60	42480
2026-01-15 20:23:43.90	24.42	5.94	-38.9	-49.5	3.5	3.02e+01	0	29	104	0	52	18187
2026-01-15 20:23:46.93	23.99	6.09	-36.8	-47.3	3.5	3.02e+01	0	29	104	0	48	17729
2026-01-15 20:23:49.96	23.56	6.23	-40.0	-50.7	3.5	3.02e+01	0	29	104	0	56	16644
2026-01-15 20:23:52.98	23.12	6.37	-39.4	-50.0	3.5	3.02e+01	0	29	104	0	54	17263
2026-01-15 20:23:56.02	22.68	6.51	-44.8	-57.6	3.5	3.02e+01	0	29	104	0	60	29116
2026-01-15 20:23:59.04	22.23	6.65	-46.2	-60.9	3.5	3.02e+01	0	29	104	0	60	42684
2026-01-15 20:24:02.07	21.78	6.78	-38.6	-49.2	3.5	3.02e+01	0	29	104	0	52	17585
2026-01-15 20:24:05.10	21.32	6.92	-43.0	-54.5	3.5	3.02e+01	0	29	104	0	58	22989
2026-01-15 20:24:08.13	20.86	7.06	-40.0	-50.8	3.5	3.02e+01	0	30	104	0	56	16839
2026-01-15 20:24:11.16	20.39	7.20	-38.8	-49.4	3.5	3.02e+01	0	29	104	0	52	18075
2026-01-15 20:24:14.19	19.92	7.33	-42.5	-54.0	3.5	3.02e+01	0	30	104	0	58	21595
2026-01-15 20:24:17.22	19.45	7.46	-45.9	-59.9	3.5	3.02e+01	0	30	104	0	60	38170
2026-01-15 20:24:20.25	18.96	7.60	-36.5	-46.9	3.5	3.02e+01	0	30	104	0	48	16983
2026-01-15 20:24:23.28	18.48	7.73	-36.1	-46.4	3.5	3.02e+01	0	30	104	0	46	17994
2026-01-15 20:24:26.31	17.99	7.86	-43.4	-55.3	3.5	3.02e+01	0	30	104	0	60	22374
2026-01-15 20:24:29.34	17.49	7.99	-36.8	-47.2	3.5	3.02e+01	0	30	104	0	48	17674
2026-01-15 20:24:32.37	16.99	8.12	-36.9	-47.3	3.5	3.02e+01	0	30	104	0	48	17799
2026-01-15 20:24:35.39	16.49	8.25	-43.0	-54.6	3.5	3.02e+01	0	30	104	0	60	20631
2026-01-15 20:24:38.42	15.98	8.37	-37.8	-48.3	3.5	3.02e+01	0	30	104	0	50	17722
2026-01-15 20:24:41.45	15.46	8.50	-38.9	-49.5	3.5	3.02e+01	0	30	104	0	50	20495
2026-01-15 20:24:44.48	14.94	8.62	-36.7	-47.1	3.5	3.02e+01	0	30	104	0	48	17301
2026-01-15 20:24:47.51	14.41	8.74	-36.2	-46.6	3.5	3.02e+01	0	30	104	0	48	16431
2026-01-15 20:24:50.54	13.88	8.86	-45.4	-58.7	3.5	3.02e+01	0	30	104	0	60	33074
2026-01-15 20:24:53.56	13.35	8.98	-36.9	-47.3	3.5	3.02e+01	0	30	104	0	52	14075
2026-01-15 20:24:56.59	12.81	9.10	-35.9	-46.3	3.5	3.02e+01	0	30	104	0	46	17788
2026-01-15 20:24:59.62	12.27	9.22	-37.6	-48.1	3.5	3.02e+01	0	30	104	0	46	21825
2026-01-15 20:25:02.64	11.72	9.33	-43.9	-55.9	3.5	3.02e+01	0	30	104	0	54	33738
2026-01-15 20:25:05.67	11.17	9.44	-40.1	-50.8	3.6	3.02e+01	0	30	104	0	56	16883
2026-01-15 20:25:08.69	10.61	9.55	-40.4	-51.3	3.5	3.02e+01	0	30	104	0	56	17714
2026-01-15 20:25:11.72	10.05	9.66	-36.0	-46.3	3.5	3.02e+01	0	30	104	0	48	15944
2026-01-15 20:25:14.75	9.48	9.77	-35.9	-46.2	3.6	3.02e+01	0	30	104	0	46	17512
2026-01-15 20:25:17.78	8.91	9.87	-39.4	-50.0	3.5	3.02e+01	0	30	104	0	50	21659
2026-01-15 20:25:20.81	8.33	9.97	-47.5	-64.9	3.5	3.02e+01	0	30	104	0	60	67607
2026-01-15 20:25:23.84	7.75	10.07	-35.7	-46.1	3.5	3.02e+01	0	30	104	0	46	17421
2026-01-15 20:25:26.87	7.16	10.17	-39.6	-50.2	3.5	3.02e+01	0	30	104	0	56	15680
2026-01-15 20:25:29.90	6.57	10.26	-39.6	-50.3	3.5	3.02e+01	0	30	104	0	52	19926
2026-01-15 20:25:32.93	5.98	10.36	-38.7	-49.3	3.5	3.02e+01	0	30	104	0	52	17708
2026-01-15 20:25:35.96	5.38	10.45	-41.3	-52.3	3.5	3.02e+01	0	30	104	0	54	22356
2026-01-15 20:25:38.99	4.78	10.54	-47.2	-63.2	3.5	3.02e+01	0	30	104	0	60	55527
2026-01-15 20:25:42.01	4.18	10.62	-37.7	-48.2	3.5	3.02e+01	0	30	104	0	50	17660
2026-01-15 20:25:45.04	3.57	10.70	-38.7	-49.2	3.5	3.02e+01	0	30	104	0	52	17605
2026-01-15 20:25:48.07	2.95	10.78	-39.4	-50.0	3.4	3.02e+01	0	30	104	0	50	21663
2026-01-15 20:25:51.10	2.34	10.86	-35.8	-46.1	3.5	3.02e+01	0	30	104	0	46	17371
2026-01-15 20:25:54.12	1.72	10.94	-38.4	-48.7	3.6	3.02e+01	0	30	104	0	50	18719
2026-01-15 20:25:57.15	1.10	11.01	-42.0	-44.7	20.7	3.02e+01	58	30	104	0	56	8287
2026-01-15 20:26:00.18	0.47	11.08	-39.1	-40.8	24.3	3.02e+01	59	30	0	5242880	52	6661
2026-01-15 20:26:03.21	359.84	11.14	-38.8	-40.4	24.0	3.02e+01	58	30	0	11010048	52	6377
2026-01-15 20:26:06.24	359.21	11.20	-38.2	-39.7	25.2	3.02e+01	46	30	0	16777216	50	6587
2026-01-15 20:26:09.27	358.57	11.26	-37.7	-39.2	25.7	3.02e+01	45	30	0	22544384	50	6211
2026-01-15 20:26:12.29	357.93	11.32	-36.8	-38.2	26.6	3.02e+01	58	30	0	27787264	48	6255
2026-01-15 20:26:15.31	357.29	11.37	-35.8	-37.1	27.8	3.02e+01	59	30	0	33554432	46	6150
2026-01-15 20:26:18.35	356.65	11.43	-35.1	-36.3	28.4	3.02e+01	59	30	0	39321600	46	5645
2026-01-15 20:26:21.38	356.00	11.47	-35.1	-36.4	28.3	3.02e+01	58	30	0	45088768	46	5683
2026-01-15 20:26:24.40	355.35	11.52	-35.1	-36.3	28.3	3.02e+01	59	30	0	50855936	46	5652
2026-01-15 20:26:27.43	354.70	11.56	-35.0	-36.3	28.4	3.02e+01	60	30	0	56623104	44	6283
2026-01-15 20:26:30.46	354.05	11.59	-35.1	-36.4	28.3	3.02e+01	49	30	0	62390272	44	6386
2026-01-15 20:26:33.49	353.40	11.63	-35.2	-36.4	28.2	3.02e+01	44	30	0	67633152	44	6412
2026-01-15 20:26:36.51	352.74	11.66	-35.0	-36.2	28.6	3.02e+01	58	29	0	73400320	44	6241
2026-01-15 20:26:39.54	352.09	11.69	-35.2	-36.5	28.3	3.02e+01	59	30	0	79167488	44	6464
2026-01-15 20:26:42.57	351.43	11.71	-35.1	-36.4	28.3	3.02e+01	60	30	0	84934656	44	6354
2026-01-15 20:26:45.60	350.77	11.73	-35.2	-36.4	28.3	3.02e+01	57	29	0	90701824	44	6402
2026-01-15 20:26:48.63	350.11	11.75	-35.2	-36.5	28.2	3.02e+01	60	30	0	95944704	44	6444
2026-01-15 20:26:51.65	349.45	11.76	-35.2	-36.4	28.2	3.02e+01	49	30	0	101711872	44	6405
2026-01-15 20:26:54.68	348.79	11.77	-35.1	-36.4	28.3	3.02e+01	49	30	0	107479040	44	6377
2026-01-15 20:26:57.71	348.12	11.78	-35.1	-36.4	28.3	3.02e+01	60	29	0	113246208	44	6361
2026-01-15 20:27:00.74	347.46	11.78	-35.3	-36.6	28.1	3.02e+01	57	29	0	119013376	44	6518
2026-01-15 20:27:03.77	346.80	11.78	-35.2	-36.4	28.2	3.02e+01	61	29	0	124780544	44	6405
2026-01-15 20:27:06.79	346.14	11.77	-35.2	-36.5	28.2	3.02e+01	57	29	0	130023424	44	6461
2026-01-15 20:27:09.82	345.48	11.77	-35.3	-36.5	28.1	3.02e+01	65	29	0	135790592	44	6495
2026-01-15 20:27:12.85	344.81	11.75	-35.4	-36.7	28.1	3.02e+01	62	29	0	141557760	44	6603
2026-01-15 20:27:15.88	344.15	11.74	-35.4	-36.6	28.0	3.02e+01	51	29	0	147324928	44	6563
2026-01-15 20:27:18.91	343.49	11.72	-35.3	-36.5	28.2	3.02e+01	56	29	0	153092096	44	6498
2026-01-15 20:27:21.94	342.83	11.70	-35.2	-36.5	28.2	3.02e+01	56	29	0	158859264	44	6439
2026-01-15 20:27:24.97	342.18	11.67	-35.3	-36.6	28.1	3.02e+01	56	29	0	164102144	44	6544
2026-01-15 20:27:28.00	341.52	11.65	-35.2	-36.5	28.2	3.02e+01	60	29	0	169869312	44	6452
2026-01-15 20:27:31.04	340.86	11.61	-35.4	-36.7	28.2	3.02e+01	57	29	0	175636480	44	6596
2026-01-15 20:27:34.06	340.21	11.58	-35.5	-36.8	28.0	3.02e+01	61	29	0	181403648	44	6678
2026-01-15 20:27:37.09	339.56	11.54	-35.4	-36.7	28.0	3.02e+01	56	29	0	187170816	44	6615
2026-01-15 20:27:40.12	338.91	11.50	-35.3	-36.6	28.1	3.02e+01	46	29	0	192937984	44	6531
2026-01-15 20:27:43.15	338.26	11.45	-35.3	-36.5	28.2	3.02e+01	56	29	0	198705152	44	6495
2026-01-15 20:27:46.18	337.61	11.40	-35.6	-36.9	27.9	3.02e+01	58	29	0	203948032	44	6774
2026-01-15 20:27:49.21	336.97	11.35	-35.2	-36.5	28.2	3.02e+01	57	29	0	209715200	44	6445
2026-01-15 20:27:52.24	336.33	11.30	-35.4	-36.7	28.2	3.02e+01	59	29	0	215482368	44	6574
2026-01-15 20:27:55.27	335.69	11.24	-35.6	-37.0	27.8	3.02e+01	62	29	0	221249536	44	6808
2026-01-15 20:27:58.30	335.06	11.18	-35.3	-36.5	28.1	3.02e+01	46	29	0	227016704	44	6478
2026-01-15 20:28:01.33	334.43	11.11	-35.9	-37.2	27.5	3.02e+01	47	29	0	232259584	46	6231
2026-01-15 20:28:04.35	333.80	11.05	-35.8	-37.1	27.6	3.02e+01	58	29	0	238026752	46	6199
2026-01-15 20:28:07.38	333.17	10.98	-35.4	-36.6	28.0	3.02e+01	61	29	0	243793920	46	5852
2026-01-15 20:28:10.41	332.55	10.90	-35.5	-36.8	27.9	3.02e+01	58	29	0	249561088	46	5937
2026-01-15 20:28:13.44	331.93	10.83	-35.9	-37.2	27.6	3.02e+01	57	29	0	255328256	46	6220
2026-01-15 20:28:16.47	331.31	10.75	-35.5	-36.8	27.9	3.02e+01	58	29	0	261095424	46	5984
2026-01-15 20:28:19.50	330.70	10.67	-36.2	-37.5	27.3	3.02e+01	60	29	0	266338304	46	6457
2026-01-15 20:28:22.52	330.10	10.58	-35.6	-36.9	27.8	3.02e+01	53	29	0	272105472	46	6036
2026-01-15 20:28:25.55	329.49	10.50	-35.5	-36.8	27.9	3.02e+01	60	29	0	277872640	46	5960
2026-01-15 20:28:28.58	328.89	10.41	-36.1	-37.4	27.4	3.02e+01	64	29	0	283639808	46	6399
2026-01-15 20:28:31.61	328.30	10.32	-35.7	-37.1	27.6	3.02e+01	58	29	0	289406976	46	6138
2026-01-15 20:28:34.64	327.70	10.22	-35.4	-36.7	28.0	3.02e+01	60	29	0	295174144	46	5885
2026-01-15 20:28:37.67	327.11	10.13	-36.7	-38.2	26.7	3.02e+01	55	29	0	300417024	46	6968
2026-01-15 20:28:40.69	326.53	10.03	-36.3	-37.6	27.3	3.02e+01	55	29	0	306184192	46	6566
2026-01-15 20:28:43.71	325.96	9.93	-35.8	-37.0	27.6	3.02e+01	57	29	0	311951360	46	6109
2026-01-15 20:28:46.74	325.38	9.82	-37.5	-39.1	25.7	3.02e+01	46	29	0	317718528	48	6907
2026-01-15 20:28:49.77	324.81	9.72	-35.7	-37.0	27.7	3.02e+01	57	29	0	323485696	46	6066
2026-01-15 20:28:52.80	324.24	9.61	-35.2	-36.4	28.1	3.02e+01	59	29	0	328728576	46	5719
2026-01-15 20:28:55.83	323.68	9.50	-36.9	-38.3	26.5	3.02e+01	63	29	0	334495744	46	7089
2026-01-15 20:28:58.86	323.12	9.39	-36.2	-37.6	27.2	3.02e+01	60	29	0	340262912	46	6545
2026-01-15 20:29:01.88	322.57	9.28	-36.5	-37.8	26.9	3.02e+01	57	29	0	346030080	46	6718
2026-01-15 20:29:04.91	322.03	9.16	-35.7	-37.0	27.7	3.02e+01	46	29	0	351797248	46	6100
2026-01-15 20:29:07.94	321.48	9.05	-36.0	-37.4	27.3	3.02e+01	50	29	0	357564416	46	6354
2026-01-15 20:29:10.97	320.95	8.93	-36.0	-37.3	27.4	3.02e+01	56	29	0	363331584	46	6326
2026-01-15 20:29:14.00	320.41	8.81	-36.1	-37.5	27.2	3.02e+01	59	29	0	368574464	46	6429
2026-01-15 20:29:17.03	319.88	8.69	-36.4	-37.8	26.9	3.02e+01	60	29	0	374341632	46	6667
2026-01-15 20:29:20.06	319.36	8.57	-36.4	-37.7	27.0	3.02e+01	61	29	0	380108800	46	6634
2026-01-15 20:29:23.08	318.84	8.44	-36.3	-37.7	27.0	3.02e+01	49	29	0	385875968	46	6613
2026-01-15 20:29:26.11	318.33	8.32	-36.4	-37.8	26.8	3.02e+01	58	29	0	391643136	46	6716
2026-01-15 20:29:29.14	317.82	8.19	-36.3	-37.7	26.9	3.02e+01	54	29	0	396886016	46	6582
2026-01-15 20:29:32.17	317.32	8.06	-36.0	-37.3	27.3	3.02e+01	54	29	0	402653184	48	5657
2026-01-15 20:29:35.19	316.82	7.93	-36.2	-37.5	27.1	3.02e+01	62	29	0	408420352	48	5768
2026-01-15 20:29:38.23	316.32	7.80	-37.0	-38.5	26.2	3.02e+01	61	29	0	414187520	48	6451
2026-01-15 20:29:41.26	315.83	7.67	-37.7	-39.3	25.3	3.02e+01	59	29	0	419954688	48	7103
2026-01-15 20:29:44.29	315.35	7.54	-37.8	-39.4	25.1	3.02e+01	58	29	0	425721856	48	7175
2026-01-15 20:29:47.32	314.87	7.40	-37.1	-38.6	25.9	3.02e+01	60	29	0	430964736	48	6568
2026-01-15 20:29:50.35	314.39	7.27	-36.8	-38.2	26.3	3.02e+01	60	29	0	436731904	46	7024
2026-01-15 20:29:53.37	313.92	7.13	-36.4	-37.9	26.7	3.02e+01	50	29	0	442499072	46	6728
2026-01-15 20:29:56.40	313.46	7.00	-37.6	-39.1	25.6	3.02e+01	62	29	0	448266240	48	6895
2026-01-15 20:29:59.43	313.00	6.86	-36.6	-38.0	26.5	3.02e+01	61	29	0	454033408	48	6091
2026-01-15 20:30:02.45	312.54	6.72	-36.6	-38.0	26.5	3.02e+01	61	29	0	459800576	48	6068
2026-01-15 20:30:05.48	312.09	6.58	-36.9	-38.3	26.1	3.02e+01	55	29	0	465043456	48	6320
2026-01-15 20:30:08.51	311.65	6.44	-36.8	-38.2	26.4	3.02e+01	61	29	0	470810624	48	6246
2026-01-15 20:30:11.54	311.21	6.30	-36.9	-38.3	26.2	3.02e+01	58	29	0	476577792	48	6345
2026-01-15 20:30:14.57	310.77	6.16	-37.2	-38.7	25.9	3.02e+01	50	29	0	482344960	48	6612
2026-01-15 20:30:17.60	310.34	6.02	-36.8	-38.2	26.3	3.02e+01	58	29	0	488112128	48	6275
2026-01-15 20:30:20.63	309.91	5.88	-37.1	-38.7	26.0	3.02e+01	60	29	0	493879296	48	6577
2026-01-15 20:30:23.66	309.49	5.74	-36.9	-38.4	26.1	3.02e+01	59	29	0	499122176	48	6358
2026-01-15 20:30:26.69	309.07	5.59	-37.2	-38.7	25.8	3.02e+01	60	29	0	504889344	48	6647
2026-01-15 20:30:29.72	308.66	5.45	-37.2	-38.7	25.8	3.02e+01	57	29	0	510656512	48	6617
2026-01-15 20:30:32.75	308.25	5.31	-36.8	-38.2	26.2	3.02e+01	61	29	0	516423680	48	6260
2026-01-15 20:30:35.78	307.84	5.16	-37.2	-38.7	25.8	3.02e+01	50	29	0	522190848	48	6585
2026-01-15 20:30:38.81	307.44	5.02	-37.5	-39.1	25.4	3.02e+01	45	29	0	527958016	48	6926
2026-01-15 20:30:41.84	307.05	4.87	-37.1	-38.6	25.8	3.02e+01	59	29	0	533200896	48	6526
2026-01-15 20:30:44.86	306.66	4.73	-37.6	-39.2	25.2	3.02e+01	63	29	0	538968064	48	6995
2026-01-15 20:30:47.89	306.27	4.58	-37.1	-38.6	25.7	3.02e+01	61	29	0	544735232	48	6570
2026-01-15 20:30:50.92	305.89	4.43	-37.6	-39.2	25.2	3.02e+01	58	29	0	550502400	48	7022
2026-01-15 20:30:53.95	305.51	4.29	-37.4	-38.9	25.3	3.02e+01	58	29	0	556269568	48	6780
2026-01-15 20:30:56.98	305.13	4.14	-38.2	-39.8	24.5	3.02e+01	56	29	0	562036736	50	6717
2026-01-15 20:31:00.01	304.76	4.00	-37.5	-39.0	25.3	3.02e+01	52	29	0	567279616	50	6114
2026-01-15 20:31:03.01	304.40	3.85	-38.0	-39.7	24.7	3.02e+01	58	29	0	573046784	50	6597
2026-01-15 20:31:06.04	304.04	3.70	-37.6	-39.2	25.1	3.02e+01	57	29	0	578813952	50	6209
2026-01-15 20:31:09.07	303.68	3.56	-38.0	-39.6	24.6	3.02e+01	58	29	0	584581120	50	6552
2026-01-15 20:31:12.10	303.33	3.41	-37.8	-39.3	24.8	3.02e+01	62	29	0	590348288	50	6346
2026-01-15 20:31:15.13	302.98	3.26	-37.9	-39.6	24.6	3.02e+01	60	29	0	595591168	50	6519
2026-01-15 20:31:18.16	302.63	3.12	-38.1	-39.7	24.2	3.02e+01	58	28	0	601358336	50	6621
2026-01-15 20:31:21.19	302.29	2.97	-47.5	-65.3	3.5	3.02e+01	0	29	104	606076928	60	71240
2026-01-15 20:31:24.21	301.95	2.82	-48.4	-66.2	3.5	3.02e+01	0	29	104	606076928	60	78522
2026-01-15 20:31:27.24	301.62	2.68	-48.5	-66.3	3.5	3.02e+01	0	29	104	606076928	60	79462
2026-01-15 20:31:30.27	301.29	2.53	-48.4	-66.4	3.5	3.02e+01	0	29	104	606076928	60	80736
2026-01-15 20:31:33.30	300.96	2.38	-48.3	-66.3	3.5	3.02e+01	0	29	104	606076928	60	79229
2026-01-15 20:31:36.33	300.64	2.23	-48.1	-66.2	3.5	3.02e+01	0	29	104	606076928	60	78959
2026-01-15 20:31:39.36	300.32	2.09	-48.4	-66.3	3.5	3.02e+01	0	29	104	606076928	60	79807
2026-01-15 20:31:42.38	300.00	1.94	-48.4	-66.3	3.5	3.02e+01	0	29	104	606076928	60	79602
2026-01-15 20:31:45.41	299.69	1.79	-48.4	-66.2	3.5	3.02e+01	0	29	104	606076928	60	78691
2026-01-15 20:31:48.44	299.38	1.65	-48.4	-66.2	3.5	3.02e+01	0	29	104	606076928	60	78793
2026-01-15 20:31:51.48	299.07	1.50	-48.3	-66.2	3.5	3.02e+01	0	29	104	606076928	60	78499
2026-01-15 20:31:54.51	298.77	1.35	-48.3	-66.2	3.5	3.02e+01	0	29	104	606076928	60	78857
2026-01-15 20:31:57.54	298.47	1.21	-48.3	-66.2	3.5	3.02e+01	0	29	104	606076928	60	78905
2026-01-15 20:32:00.57	298.17	1.06	-48.2	-66.1	3.5	3.02e+01	0	29	104	606076928	60	77872
2026-01-15 20:32:03.60	297.88	0.92	-48.3	-66.2	3.5	3.02e+01	0	29	104	606076928	60	78158
2026-01-15 20:32:06.63	297.59	0.77	-48.4	-66.3	3.5	3.02e+01	0	29	104	606076928	60	79267
2026-01-15 20:32:09.66	297.31	0.63	-48.3	-66.2	3.5	3.02e+01	0	29	104	606076928	60	78192
2026-01-15 20:32:12.69	297.02	0.48	-48.2	-66.2	3.5	3.02e+01	0	29	104	606076928	60	78230
2026-01-15 20:32:15.72	296.74	0.33	-48.2	-66.1	3.5	3.02e+01	0	28	104	606076928	60	78024
2026-01-15 20:32:18.75	296.47	0.19	-48.3	-66.1	3.5	3.02e+01	0	29	104	606076928	60	78122
2026-01-15 20:32:21.78	296.19	0.04	-48.3	-66.2	3.5	3.02e+01	0	29	104	606076928	60	78889
2026-01-15 20:32:24.80	295.92	-0.10	-48.3	-66.2	3.5	3.02e+01	0	29	104	606076928	60	78454

#Closed at: 2026-01-15 20:32:25
#Recorded file [606 MB]: D:/lorett/data/35029_260116_082142.dat