passes_logs/2026/01/15/R4.6S_Anadyr/R4.6S_Anadyr__20260115_205235_NOAA_21_JPSS-2_rec.log

#Pass ID: 20260115_205235_NOAA 21 (JPSS-2)
#Satellite: NOAA 21 (JPSS-2)
#Configuration: NOAA-21
#almurnet v.1.7.20251203
#Start time: 2026-01-15 20:52:36

#Version: 2.2.20231116
#Station: R4.6S_Anadyr
#Location: 177.4865 lon 64.73178 lat
#TLE: 1 54234U 22150A   26014.58979933  .00000039  00000+0  39403-4 0  9998
#TLE: 2 54234  98.7497 315.4945 0000653 294.6373  65.4735 14.19534652164756

#Time	Az	El	Level	Level2	SNR	BER	BlckErr	Temp	State	Recorded	gain1	gain2
2026-01-15 20:52:36.24	78.70	0.05	-48.3	-66.0	3.5	3.02e+01	0	25	0	0	60	77086
2026-01-15 20:52:40.28	78.42	0.26	-48.1	-61.0	3.5	1.52e+00	0	26	104	0	60	39176
2026-01-15 20:52:44.32	78.14	0.47	-48.1	-61.1	3.5	1.52e+00	0	26	104	0	60	39715
2026-01-15 20:52:48.36	77.86	0.67	-48.0	-60.9	3.5	1.52e+00	0	26	104	0	60	38767
2026-01-15 20:52:52.40	77.57	0.88	-47.1	-59.9	3.5	1.52e+00	0	26	104	0	60	34860
2026-01-15 20:52:56.44	77.28	1.09	-45.5	-59.1	3.5	1.52e+00	0	26	104	0	60	31535
2026-01-15 20:53:00.48	76.98	1.30	-45.5	-59.0	3.5	1.51e+00	0	26	104	0	60	31296
2026-01-15 20:53:04.52	76.68	1.51	-45.5	-59.0	3.5	1.52e+00	0	27	104	0	60	31159
2026-01-15 20:53:08.56	76.37	1.72	-45.5	-58.8	3.5	1.52e+00	0	26	104	0	60	30705
2026-01-15 20:53:12.60	76.06	1.93	-45.4	-58.1	3.5	1.51e+00	0	27	104	0	60	28096
2026-01-15 20:53:16.64	75.75	2.15	-45.4	-58.8	3.5	1.52e+00	0	27	104	0	60	30676
2026-01-15 20:53:20.68	75.43	2.36	-45.4	-58.9	3.5	1.52e+00	0	27	104	0	60	30749
2026-01-15 20:53:24.71	75.11	2.57	-45.2	-57.0	3.6	1.50e+00	0	27	104	0	60	24962
2026-01-15 20:53:28.75	74.78	2.79	-45.3	-58.2	3.5	1.52e+00	0	27	104	0	60	28395
2026-01-15 20:53:32.79	74.44	3.01	-44.2	-50.2	7.3	9.88e-02	123	27	0	1048576	60	11308
2026-01-15 20:53:36.83	74.10	3.22	-45.7	-58.0	3.5	8.27e-01	0	27	104	9437184	60	27730
2026-01-15 20:53:40.86	73.76	3.44	-37.9	-39.2	19.1	0.00e+00	122	27	0	16777216	50	5713
2026-01-15 20:53:44.90	73.41	3.66	-37.8	-39.2	19.1	0.00e+00	123	27	0	29360128	48	6365
2026-01-15 20:53:48.94	73.05	3.88	-37.1	-38.4	19.9	0.00e+00	122	27	0	41943040	46	6511
2026-01-15 20:53:52.98	72.69	4.10	-36.8	-38.0	20.3	0.00e+00	118	27	0	54525952	46	6254
2026-01-15 20:53:57.02	72.32	4.32	-37.6	-38.9	19.7	0.00e+00	123	27	0	67108864	46	6884
2026-01-15 20:54:01.06	71.95	4.54	-36.9	-38.1	20.2	0.00e+00	122	27	0	79691776	46	6290
2026-01-15 20:54:05.10	71.57	4.76	-37.2	-38.4	20.1	0.00e+00	123	27	0	92274688	46	6545
2026-01-15 20:54:09.14	71.19	4.98	-37.3	-38.5	20.0	0.00e+00	123	27	0	104857600	46	6605
2026-01-15 20:54:13.18	70.80	5.20	-37.0	-38.2	20.3	0.00e+00	122	27	0	117440512	46	6389
2026-01-15 20:54:17.23	70.40	5.43	-36.9	-38.1	20.5	0.00e+00	123	27	0	130023424	46	6291
2026-01-15 20:54:21.27	70.00	5.65	-36.9	-38.0	20.5	0.00e+00	122	27	0	142606336	46	6277
2026-01-15 20:54:25.31	69.59	5.88	-36.9	-38.1	20.5	0.00e+00	122	27	0	155189248	46	6300
2026-01-15 20:54:29.35	69.17	6.10	-36.9	-38.1	20.5	0.00e+00	122	27	0	167772160	46	6310
2026-01-15 20:54:33.39	68.75	6.33	-36.9	-38.1	20.5	0.00e+00	123	27	0	180355072	46	6305
2026-01-15 20:54:37.43	68.32	6.55	-36.8	-38.0	20.7	0.00e+00	123	27	0	192937984	46	6211
2026-01-15 20:54:41.47	67.88	6.78	-36.4	-37.5	21.0	0.00e+00	121	27	0	205520896	46	5904
2026-01-15 20:54:45.52	67.44	7.01	-36.4	-37.5	21.1	0.00e+00	123	27	0	218103808	46	5871
2026-01-15 20:54:49.56	66.99	7.23	-36.2	-37.3	21.2	0.00e+00	120	27	0	230686720	46	5776
2026-01-15 20:54:53.60	66.53	7.46	-36.0	-37.1	21.6	0.00e+00	120	27	0	243269632	46	5597
2026-01-15 20:54:57.64	66.07	7.69	-35.7	-36.7	21.8	0.00e+00	122	27	0	255852544	44	6059
2026-01-15 20:55:01.68	65.59	7.92	-35.3	-36.3	22.3	0.00e+00	120	27	0	268435456	44	5743
2026-01-15 20:55:05.72	65.11	8.15	-35.6	-36.6	21.9	0.00e+00	122	27	0	281018368	44	5968
2026-01-15 20:55:09.76	64.63	8.37	-35.2	-36.2	22.3	0.00e+00	123	27	0	294649856	44	5722
2026-01-15 20:55:13.80	64.13	8.60	-35.3	-36.4	22.1	0.00e+00	120	27	0	307232768	44	5794
2026-01-15 20:55:17.84	63.63	8.83	-35.2	-36.3	22.1	0.00e+00	122	27	0	319815680	44	5739
2026-01-15 20:55:21.87	63.11	9.06	-35.4	-36.5	22.2	0.00e+00	123	27	0	332398592	44	5860
2026-01-15 20:55:25.91	62.59	9.29	-34.9	-35.9	22.7	0.00e+00	123	27	0	344981504	44	5488
2026-01-15 20:55:29.95	62.07	9.52	-34.7	-35.7	22.9	0.00e+00	120	27	0	357564416	42	6011
2026-01-15 20:55:33.99	61.53	9.74	-34.7	-35.7	23.0	0.00e+00	121	27	0	370147328	42	5998
2026-01-15 20:55:38.03	60.98	9.97	-34.5	-35.5	23.2	0.00e+00	123	27	0	382730240	42	5860
2026-01-15 20:55:42.07	60.43	10.20	-34.9	-35.9	22.7	0.00e+00	122	27	0	395313152	42	6145
2026-01-15 20:55:46.11	59.87	10.42	-34.7	-35.7	23.1	0.00e+00	122	27	0	407896064	42	6022
2026-01-15 20:55:50.15	59.29	10.65	-34.6	-35.5	23.2	0.00e+00	122	27	0	420478976	42	5904
2026-01-15 20:55:54.19	58.71	10.87	-34.6	-35.6	23.0	0.00e+00	122	27	0	433061888	42	5929
2026-01-15 20:55:58.24	58.12	11.10	-34.8	-35.8	22.9	0.00e+00	123	27	0	445644800	42	6072
2026-01-15 20:56:02.28	57.52	11.32	-34.7	-35.7	22.9	0.00e+00	122	27	0	458227712	42	6030
2026-01-15 20:56:06.32	56.91	11.54	-34.8	-35.8	22.7	0.00e+00	123	27	0	470810624	42	6101
2026-01-15 20:56:10.36	56.30	11.76	-35.1	-36.1	22.7	0.00e+00	122	27	0	483393536	42	6308
2026-01-15 20:56:14.40	55.67	11.98	-34.9	-35.9	22.9	0.00e+00	122	27	0	495976448	42	6148
2026-01-15 20:56:18.44	55.03	12.20	-35.0	-36.0	22.8	0.00e+00	122	27	0	508559360	42	6243
2026-01-15 20:56:22.48	54.39	12.41	-35.0	-35.9	22.9	0.00e+00	123	27	0	521142272	42	6186
2026-01-15 20:56:26.52	53.73	12.63	-34.7	-35.7	23.2	0.00e+00	123	27	0	533725184	42	6033
2026-01-15 20:56:30.56	53.06	12.84	-34.4	-35.4	23.3	0.00e+00	123	27	0	546308096	42	5808
2026-01-15 20:56:34.60	52.39	13.05	-34.2	-35.2	23.5	0.00e+00	122	27	0	558891008	42	5665
2026-01-15 20:56:38.64	51.70	13.26	-34.6	-35.6	23.0	0.00e+00	121	27	0	571473920	42	5933
2026-01-15 20:56:42.68	51.01	13.46	-34.7	-35.6	23.1	0.00e+00	122	27	0	584056832	42	5991
2026-01-15 20:56:46.72	50.30	13.67	-34.5	-35.5	23.2	0.00e+00	123	27	0	596639744	42	5882
2026-01-15 20:56:50.76	49.59	13.87	-34.5	-35.5	23.3	0.00e+00	122	27	0	610271232	42	5877
2026-01-15 20:56:54.80	48.86	14.07	-34.3	-35.3	23.4	0.00e+00	122	27	0	622854144	42	5755
2026-01-15 20:56:58.84	48.13	14.26	-34.3	-35.3	23.4	0.00e+00	123	27	0	635437056	42	5753
2026-01-15 20:57:02.88	47.38	14.45	-34.5	-35.4	23.3	0.00e+00	123	27	0	648019968	42	5830
2026-01-15 20:57:06.92	46.63	14.64	-34.3	-35.2	23.4	0.00e+00	123	27	0	660602880	42	5701
2026-01-15 20:57:10.96	45.87	14.82	-34.4	-35.3	23.4	0.00e+00	121	27	0	673185792	42	5758
2026-01-15 20:57:15.00	45.10	15.00	-34.2	-35.2	23.5	0.00e+00	123	27	0	685768704	42	5697
2026-01-15 20:57:19.05	44.31	15.18	-34.1	-35.0	23.7	0.00e+00	123	27	0	698351616	42	5582
2026-01-15 20:57:23.09	43.52	15.35	-33.7	-34.6	24.0	0.00e+00	123	27	0	710934528	40	5954
2026-01-15 20:57:27.13	42.72	15.52	-33.9	-34.8	23.7	0.00e+00	122	27	0	723517440	40	6133
2026-01-15 20:57:31.17	41.91	15.68	-34.0	-34.9	23.6	0.00e+00	123	27	0	736100352	40	6180
2026-01-15 20:57:35.21	41.09	15.84	-34.0	-34.9	23.6	0.00e+00	122	27	0	748683264	40	6177
2026-01-15 20:57:39.25	40.27	15.99	-34.0	-34.9	23.6	0.00e+00	120	27	0	761266176	40	6178
2026-01-15 20:57:43.29	39.43	16.14	-34.0	-34.9	23.7	0.00e+00	122	27	0	773849088	40	6169
2026-01-15 20:57:47.33	38.59	16.28	-34.0	-35.0	23.7	0.00e+00	122	27	0	786432000	40	6217
2026-01-15 20:57:51.37	37.74	16.42	-33.6	-34.5	24.1	0.00e+00	123	27	0	799014912	40	5916
2026-01-15 20:57:55.41	36.88	16.55	-33.8	-34.7	23.9	0.00e+00	122	27	0	811597824	40	6035
2026-01-15 20:57:59.45	36.01	16.68	-33.7	-34.6	23.9	0.00e+00	123	27	0	824180736	40	5948
2026-01-15 20:58:03.49	35.14	16.80	-33.8	-34.8	23.8	0.00e+00	120	27	0	836763648	40	6073
2026-01-15 20:58:07.54	34.25	16.91	-34.1	-35.0	23.7	0.00e+00	120	27	0	849346560	40	6248
2026-01-15 20:58:11.58	33.37	17.02	-33.9	-34.8	23.9	0.00e+00	122	27	0	861929472	40	6109
2026-01-15 20:58:15.62	32.47	17.12	-33.5	-34.5	24.1	0.00e+00	123	27	0	874512384	40	5866
2026-01-15 20:58:19.66	31.58	17.21	-33.6	-34.5	24.0	0.00e+00	122	27	0	887095296	40	5905
2026-01-15 20:58:23.69	30.67	17.29	-33.8	-34.7	24.0	0.00e+00	117	27	0	899678208	40	6021
2026-01-15 20:58:27.73	29.76	17.37	-34.0	-34.9	23.8	0.00e+00	123	27	0	912261120	40	6179
2026-01-15 20:58:31.77	28.85	17.45	-34.0	-35.0	23.8	0.00e+00	123	27	0	925892608	40	6213
2026-01-15 20:58:35.82	27.93	17.51	-33.7	-34.7	24.0	0.00e+00	123	27	0	938475520	40	6003
2026-01-15 20:58:39.86	27.01	17.57	-33.5	-34.4	24.1	0.00e+00	122	27	0	951058432	40	5844
2026-01-15 20:58:43.89	26.09	17.62	-33.6	-34.5	24.0	0.00e+00	123	27	0	963641344	40	5924
2026-01-15 20:58:47.93	25.16	17.66	-33.8	-34.7	23.8	0.00e+00	122	27	0	976224256	40	6031
2026-01-15 20:58:51.97	24.23	17.69	-33.9	-34.8	23.7	0.00e+00	122	27	0	988807168	40	6078
2026-01-15 20:58:56.01	23.30	17.72	-34.2	-35.2	23.4	0.00e+00	123	27	0	1001390080	40	6366
2026-01-15 20:59:00.05	22.37	17.74	-34.0	-35.0	23.6	0.00e+00	123	27	0	1013972992	40	6233
2026-01-15 20:59:04.09	21.43	17.75	-33.8	-34.7	24.0	0.00e+00	122	27	0	1026555904	40	6012
2026-01-15 20:59:08.13	20.50	17.75	-33.9	-34.8	23.8	0.00e+00	123	27	0	1039138816	40	6119
2026-01-15 20:59:12.17	19.56	17.74	-33.8	-34.7	23.8	0.00e+00	122	27	0	1051721728	40	6023
2026-01-15 20:59:16.21	18.63	17.73	-33.7	-34.6	23.9	0.00e+00	123	27	0	1064304640	40	5932
2026-01-15 20:59:20.24	17.70	17.71	-33.8	-34.7	23.9	0.00e+00	120	27	0	1076887552	40	6057
2026-01-15 20:59:24.28	16.77	17.68	-33.6	-34.5	24.1	0.00e+00	123	27	0	1089470464	40	5904
2026-01-15 20:59:28.32	15.84	17.65	-33.7	-34.7	23.9	0.00e+00	122	27	0	1102053376	40	6000
2026-01-15 20:59:32.36	14.91	17.60	-33.5	-34.4	24.1	0.00e+00	123	27	0	1114636288	40	5835
2026-01-15 20:59:36.40	13.99	17.55	-33.8	-34.8	23.9	0.00e+00	123	27	0	1127219200	40	6070
2026-01-15 20:59:40.44	13.07	17.49	-33.9	-34.9	23.8	0.00e+00	123	27	0	1139802112	40	6160
2026-01-15 20:59:44.48	12.15	17.42	-34.0	-35.0	23.6	0.00e+00	122	27	0	1152385024	40	6221
2026-01-15 20:59:48.53	11.24	17.35	-33.8	-34.7	23.9	0.00e+00	122	27	0	1164967936	40	6054
2026-01-15 20:59:52.56	10.34	17.27	-33.4	-34.4	24.1	0.00e+00	122	27	0	1177550848	40	5802
2026-01-15 20:59:56.60	9.43	17.18	-33.6	-34.5	24.1	0.00e+00	123	27	0	1190133760	40	5906
2026-01-15 21:00:00.64	8.54	17.09	-33.5	-34.5	24.1	0.00e+00	123	27	0	1202716672	40	5866
2026-01-15 21:00:04.68	7.65	16.99	-33.7	-34.6	24.1	0.00e+00	123	27	0	1215299584	40	5990
2026-01-15 21:00:08.71	6.77	16.88	-33.8	-34.7	23.9	0.00e+00	123	27	0	1227882496	40	6055
2026-01-15 21:00:12.75	5.89	16.76	-34.0	-34.9	23.7	0.00e+00	121	27	0	1241513984	40	6165
2026-01-15 21:00:16.79	5.02	16.64	-33.8	-34.7	23.9	0.00e+00	122	27	0	1253048320	40	6014
2026-01-15 21:00:20.83	4.15	16.52	-33.6	-34.6	24.0	0.00e+00	123	27	0	1266679808	40	5933
2026-01-15 21:00:24.87	3.30	16.38	-33.7	-34.7	23.9	0.00e+00	121	27	0	1279262720	40	6006
2026-01-15 21:00:28.90	2.45	16.24	-33.8	-34.7	23.9	0.00e+00	122	27	0	1291845632	40	6063
2026-01-15 21:00:32.94	1.61	16.10	-33.8	-34.8	23.9	0.00e+00	123	27	0	1304428544	40	6080
2026-01-15 21:00:36.98	0.78	15.95	-33.8	-34.8	23.9	0.00e+00	122	27	0	1317011456	40	6075
2026-01-15 21:00:41.02	359.96	15.80	-33.6	-34.6	23.9	0.00e+00	123	27	0	1329594368	40	5942
2026-01-15 21:00:45.07	359.14	15.64	-33.8	-34.8	23.8	0.00e+00	123	27	0	1342177280	40	6083
2026-01-15 21:00:49.11	358.34	15.47	-34.0	-34.9	23.8	0.00e+00	123	27	0	1354760192	40	6165
2026-01-15 21:00:53.15	357.54	15.30	-33.6	-34.6	24.0	0.00e+00	123	27	0	1367343104	40	5936
2026-01-15 21:00:57.19	356.75	15.13	-33.8	-34.7	23.8	0.00e+00	122	27	0	1379926016	40	6060
2026-01-15 21:01:01.23	355.97	14.95	-34.2	-35.1	23.5	0.00e+00	123	27	0	1392508928	40	6334
2026-01-15 21:01:05.27	355.21	14.77	-34.0	-35.0	23.7	0.00e+00	123	27	0	1405091840	40	6224
2026-01-15 21:01:09.31	354.45	14.59	-34.1	-35.0	23.6	0.00e+00	122	27	0	1417674752	40	6259
2026-01-15 21:01:13.35	353.70	14.40	-34.0	-35.0	23.6	0.00e+00	122	27	0	1430257664	40	6223
2026-01-15 21:01:17.39	352.96	14.21	-34.1	-35.0	23.6	0.00e+00	123	27	0	1442840576	40	6262
2026-01-15 21:01:21.43	352.23	14.01	-34.3	-35.2	23.5	0.00e+00	123	27	0	1455423488	40	6387
2026-01-15 21:01:25.47	351.51	13.81	-34.6	-35.5	23.2	0.00e+00	122	27	0	1468006400	40	6642
2026-01-15 21:01:29.51	350.80	13.61	-34.3	-35.3	23.2	0.00e+00	123	27	0	1480589312	40	6456
2026-01-15 21:01:33.56	350.09	13.41	-34.4	-35.4	23.3	0.00e+00	120	27	0	1493172224	40	6512
2026-01-15 21:01:37.60	349.40	13.20	-34.4	-35.3	23.4	0.00e+00	122	27	0	1505755136	40	6497
2026-01-15 21:01:41.64	348.72	13.00	-34.0	-34.9	23.7	0.00e+00	123	27	0	1518338048	40	6197
2026-01-15 21:01:45.68	348.05	12.78	-34.0	-35.0	23.6	0.00e+00	123	27	0	1530920960	40	6207
2026-01-15 21:01:49.72	347.39	12.57	-34.3	-35.3	23.2	0.00e+00	122	27	0	1543503872	40	6431
2026-01-15 21:01:53.76	346.74	12.36	-34.2	-35.2	23.3	0.00e+00	123	27	0	1557135360	40	6370
2026-01-15 21:01:57.80	346.10	12.14	-34.8	-35.8	22.9	0.00e+00	122	27	0	1569718272	42	6070
2026-01-15 21:02:01.84	345.46	11.92	-35.0	-36.0	22.6	0.00e+00	123	27	0	1582301184	42	6272
2026-01-15 21:02:05.88	344.84	11.70	-35.0	-36.0	22.7	0.00e+00	120	27	0	1594884096	42	6227
2026-01-15 21:02:09.93	344.23	11.48	-35.3	-36.3	22.5	0.00e+00	122	27	0	1607467008	42	6498
2026-01-15 21:02:13.97	343.62	11.26	-35.4	-36.5	22.2	0.00e+00	122	27	0	1620049920	42	6594
2026-01-15 21:02:18.00	343.03	11.04	-35.3	-36.3	22.5	0.00e+00	120	27	0	1632632832	42	6439
2026-01-15 21:02:22.04	342.44	10.82	-35.0	-36.0	22.7	0.00e+00	122	27	0	1645215744	42	6218
2026-01-15 21:02:26.08	341.87	10.59	-35.2	-36.3	22.6	0.00e+00	120	27	0	1657798656	42	6433
2026-01-15 21:02:30.12	341.30	10.37	-35.1	-36.1	22.6	0.00e+00	122	27	0	1670381568	42	6338
2026-01-15 21:02:34.15	340.74	10.14	-34.9	-35.9	22.6	0.00e+00	122	27	0	1682964480	42	6182
2026-01-15 21:02:38.19	340.19	9.91	-35.1	-36.1	22.5	0.00e+00	123	27	0	1695547392	42	6345
2026-01-15 21:02:42.23	339.65	9.69	-35.0	-36.0	22.6	0.00e+00	122	27	0	1708130304	42	6262
2026-01-15 21:02:46.27	339.12	9.46	-35.2	-36.2	22.4	0.00e+00	122	27	0	1720713216	42	6401
2026-01-15 21:02:50.30	338.59	9.23	-35.2	-36.1	22.5	0.00e+00	123	27	0	1733296128	42	6346
2026-01-15 21:02:54.34	338.08	9.01	-35.6	-36.6	22.2	0.00e+00	122	27	0	1745879040	42	6692
2026-01-15 21:02:58.38	337.57	8.78	-35.7	-36.8	21.9	0.00e+00	123	27	0	1758461952	44	6066
2026-01-15 21:03:02.41	337.07	8.55	-35.9	-36.9	21.7	0.00e+00	123	27	0	1771044864	44	6176
2026-01-15 21:03:06.45	336.58	8.32	-35.6	-36.7	21.9	0.00e+00	123	27	0	1783627776	44	6027
2026-01-15 21:03:10.49	336.09	8.09	-35.9	-37.0	21.8	0.00e+00	123	27	0	1796210688	44	6228
2026-01-15 21:03:14.53	335.62	7.87	-36.0	-37.0	21.6	0.00e+00	123	27	0	1808793600	44	6273
2026-01-15 21:03:18.56	335.15	7.64	-35.8	-36.9	21.6	0.00e+00	123	27	0	1821376512	44	6147
2026-01-15 21:03:22.60	334.69	7.41	-35.5	-36.5	21.9	0.00e+00	123	27	0	1833959424	44	5921
2026-01-15 21:03:26.64	334.23	7.19	-35.4	-36.4	22.1	0.00e+00	123	27	0	1846542336	44	5811
2026-01-15 21:03:30.68	333.79	6.96	-35.9	-37.0	21.5	0.00e+00	123	27	0	1859125248	44	6214
2026-01-15 21:03:34.71	333.35	6.73	-36.0	-37.1	21.4	0.00e+00	122	27	0	1871708160	44	6308
2026-01-15 21:03:38.75	332.92	6.51	-35.9	-37.0	21.4	0.00e+00	123	27	0	1884291072	44	6222
2026-01-15 21:03:42.79	332.49	6.28	-35.6	-36.6	21.8	0.00e+00	123	27	0	1896873984	44	5965
2026-01-15 21:03:46.82	332.07	6.06	-35.9	-36.9	21.5	0.00e+00	122	27	0	1909456896	44	6192
2026-01-15 21:03:50.86	331.66	5.83	-36.8	-38.0	20.5	0.00e+00	123	27	0	1923088384	46	6235
2026-01-15 21:03:54.90	331.25	5.61	-37.1	-38.2	20.3	0.00e+00	123	27	0	1934622720	46	6423
2026-01-15 21:03:58.93	330.85	5.38	-36.8	-38.0	20.4	0.00e+00	123	27	0	1948254208	46	6237
2026-01-15 21:04:02.97	330.46	5.16	-36.6	-37.8	20.7	0.00e+00	122	27	0	1960837120	46	6083
2026-01-15 21:04:07.00	330.08	4.94	-36.8	-38.0	20.5	0.00e+00	123	27	0	1973420032	46	6230
2026-01-15 21:04:11.04	329.69	4.72	-37.1	-38.3	20.2	7.00e-07	123	27	0	1986002944	46	6437
2026-01-15 21:04:15.07	329.32	4.50	-37.7	-39.0	19.5	0.00e+00	123	27	0	1998585856	48	6243
2026-01-15 21:04:19.11	328.95	4.28	-37.7	-39.0	19.4	0.00e+00	123	27	0	2011168768	48	6248
2026-01-15 21:04:23.14	328.59	4.06	-36.8	-38.0	20.2	0.00e+00	122	27	0	2023751680	48	5575
2026-01-15 21:04:27.17	328.23	3.84	-36.6	-37.7	20.5	0.00e+00	123	27	0	2036334592	46	6061
2026-01-15 21:04:31.20	327.88	3.62	-36.5	-37.7	20.5	0.00e+00	123	27	0	2048917504	46	6003
2026-01-15 21:04:35.23	327.53	3.40	-37.3	-38.6	19.7	0.00e+00	120	27	0	2061500416	46	6673
2026-01-15 21:04:39.27	327.19	3.19	-37.8	-39.1	19.1	0.00e+00	122	27	0	2074083328	46	7119
2026-01-15 21:04:43.31	326.85	2.97	-47.0	-59.7	3.5	1.52e+00	0	27	104	2083520512	60	34039
2026-01-15 21:04:47.35	326.52	2.75	-48.1	-61.0	3.5	1.52e+00	0	27	104	2083520512	60	39369
2026-01-15 21:04:51.39	326.20	2.54	-48.3	-61.1	3.5	1.51e+00	0	27	104	2083520512	60	40002
2026-01-15 21:04:55.42	325.88	2.33	-48.0	-60.9	3.5	1.52e+00	0	27	104	2083520512	60	38758
2026-01-15 21:04:59.46	325.56	2.11	-48.1	-60.9	3.5	1.52e+00	0	27	104	2083520512	60	39102
2026-01-15 21:05:03.50	325.25	1.90	-48.0	-60.8	3.5	1.52e+00	0	27	104	2083520512	60	38688
2026-01-15 21:05:07.53	324.94	1.69	-47.9	-60.9	3.5	1.52e+00	0	27	104	2083520512	60	38855
2026-01-15 21:05:11.57	324.64	1.48	-48.0	-60.9	3.5	1.52e+00	0	27	104	2083520512	60	38707
2026-01-15 21:05:15.61	324.34	1.27	-47.9	-60.8	3.5	1.52e+00	0	27	104	2083520512	60	38682
2026-01-15 21:05:19.65	324.04	1.06	-48.0	-60.9	3.5	1.52e+00	0	27	104	2083520512	60	38910
2026-01-15 21:05:23.68	323.76	0.85	-47.9	-60.8	3.5	1.52e+00	0	28	104	2083520512	60	38367
2026-01-15 21:05:27.71	323.47	0.64	-47.9	-60.8	3.5	1.52e+00	0	28	104	2083520512	60	38663
2026-01-15 21:05:31.75	323.19	0.44	-48.0	-60.9	3.5	1.52e+00	0	28	104	2083520512	60	39102
2026-01-15 21:05:35.78	322.91	0.23	-47.9	-60.8	3.5	1.52e+00	0	28	104	2083520512	60	38507
2026-01-15 21:05:39.82	322.64	0.03	-48.0	-60.9	3.5	1.52e+00	0	28	104	2083520512	60	38884

#Closed at: 2026-01-15 21:05:43
#Recorded file [2083 MB]: D:/lorett/data/35029_260116_085236.dat