passes_logs/2026/01/15/R4.6S_Anadyr/R4.6S_Anadyr__20260115_194333_SUOMI_NPP_rec.log

#Pass ID: 20260115_194333_SUOMI NPP
#Satellite: SUOMI NPP
#Configuration: NPP
#almurnet v.1.7.20251203
#Start time: 2026-01-15 19:43:36

#Version: 2.2.20231116
#Station: R4.6S_Anadyr
#Location: 177.4865 lon 64.73178 lat
#TLE: 1 37849U 11061A   26014.61059675  .00000037  00000+0  38639-4 0  9994
#TLE: 2 37849  98.7810 316.6625 0002460  64.3781 295.7649 14.19525105736658

#Time	Az	El	Level	Level2	SNR	BER	BlckErr	Temp	State	Recorded	gain1	gain2
2026-01-15 19:43:36.02	56.42	0.12	-47.8	-59.5	3.5	8.46e-01	0	24	0	0	60	34286
2026-01-15 19:43:39.05	56.19	0.26	-48.1	-63.3	3.6	1.51e+00	0	26	104	0	60	53073
2026-01-15 19:43:42.08	55.95	0.41	-48.2	-63.4	3.6	1.51e+00	0	26	104	0	60	53429
2026-01-15 19:43:45.11	55.72	0.56	-48.1	-63.3	3.6	1.51e+00	0	26	104	0	60	53058
2026-01-15 19:43:48.14	55.48	0.71	-47.8	-63.1	3.6	1.51e+00	0	26	104	0	60	51895
2026-01-15 19:43:51.17	55.24	0.86	-47.3	-62.6	3.6	1.51e+00	0	26	104	0	60	48624
2026-01-15 19:43:54.20	55.00	1.00	-46.3	-61.5	3.6	1.51e+00	0	26	104	0	60	42799
2026-01-15 19:43:57.23	54.75	1.15	-46.3	-61.5	3.6	1.51e+00	0	26	104	0	60	42781
2026-01-15 19:44:00.25	54.51	1.30	-46.3	-61.4	3.6	1.51e+00	0	26	104	0	60	42640
2026-01-15 19:44:03.28	54.26	1.45	-46.2	-61.4	3.6	1.51e+00	0	26	104	0	60	42586
2026-01-15 19:44:06.31	54.00	1.60	-46.2	-61.4	3.6	1.51e+00	0	26	104	0	60	42344
2026-01-15 19:44:09.34	53.75	1.75	-46.2	-61.4	3.6	1.51e+00	0	26	104	0	60	42256
2026-01-15 19:44:12.37	53.49	1.90	-46.2	-61.2	3.6	1.51e+00	0	26	104	0	60	41429
2026-01-15 19:44:15.40	53.23	2.05	-46.2	-60.7	3.6	1.51e+00	0	26	104	0	60	39272
2026-01-15 19:44:18.42	52.97	2.20	-46.2	-61.3	3.6	1.51e+00	0	26	104	0	60	41797
2026-01-15 19:44:21.46	52.70	2.35	-46.2	-61.3	3.6	1.51e+00	0	27	104	0	60	42185
2026-01-15 19:44:24.49	52.43	2.50	-46.2	-61.2	3.6	1.51e+00	0	27	104	0	60	41643
2026-01-15 19:44:27.52	52.16	2.65	-46.1	-59.7	3.6	1.51e+00	0	27	104	0	60	34844
2026-01-15 19:44:30.55	51.88	2.80	-46.2	-61.0	3.6	1.51e+00	0	27	104	0	60	40334
2026-01-15 19:44:33.57	51.60	2.95	-45.8	-54.6	4.9	9.39e-01	0	27	0	1048576	60	19464
2026-01-15 19:44:36.60	51.32	3.11	-46.2	-58.1	3.7	1.51e+00	0	27	104	5242880	60	29182
2026-01-15 19:44:39.63	51.04	3.26	-46.1	-58.8	3.5	4.75e-04	0	27	0	6291456	60	31603
2026-01-15 19:44:42.66	50.75	3.41	-41.8	-44.1	16.2	0.00e+00	0	27	0	8388608	56	7274
2026-01-15 19:44:45.69	50.46	3.56	-41.6	-43.8	16.6	0.00e+00	85	27	0	13631488	56	7029
2026-01-15 19:44:48.72	50.17	3.72	-41.3	-43.3	17.3	0.00e+00	92	27	0	18874368	56	6657
2026-01-15 19:44:51.75	49.87	3.87	-41.4	-43.4	17.1	0.00e+00	0	27	0	25165824	56	6728
2026-01-15 19:44:54.78	49.57	4.02	-41.4	-43.4	17.3	0.00e+00	67	27	0	30408704	56	6698
2026-01-15 19:44:57.81	49.27	4.17	-41.3	-43.3	17.4	0.00e+00	49	27	0	36700160	56	6617
2026-01-15 19:45:00.84	48.96	4.33	-41.2	-43.1	17.4	0.00e+00	0	27	0	41943040	56	6508
2026-01-15 19:45:03.86	48.65	4.48	-41.7	-43.9	17.0	0.00e+00	0	27	0	47185920	56	7149
2026-01-15 19:45:06.90	48.34	4.63	-41.2	-43.1	17.7	0.00e+00	92	27	0	53477376	56	6524
2026-01-15 19:45:09.93	48.02	4.79	-41.0	-42.9	17.9	0.00e+00	0	27	0	58720256	56	6352
2026-01-15 19:45:12.95	47.70	4.94	-41.1	-43.0	17.7	0.00e+00	0	27	0	65011712	56	6429
2026-01-15 19:45:15.98	47.38	5.09	-41.0	-42.8	18.0	0.00e+00	90	27	0	70254592	56	6276
2026-01-15 19:45:19.01	47.05	5.24	-41.0	-42.9	18.0	0.00e+00	92	27	0	76546048	56	6320
2026-01-15 19:45:22.04	46.72	5.40	-40.8	-42.5	18.2	0.00e+00	0	27	0	81788928	54	6832
2026-01-15 19:45:25.07	46.39	5.55	-40.7	-42.4	18.4	0.00e+00	0	27	0	87031808	54	6714
2026-01-15 19:45:28.09	46.05	5.70	-40.3	-41.9	18.9	0.00e+00	0	27	0	93323264	54	6340
2026-01-15 19:45:31.12	45.71	5.86	-39.9	-41.3	19.4	0.00e+00	0	27	0	98566144	54	5957
2026-01-15 19:45:34.15	45.37	6.01	-39.8	-41.2	19.6	0.00e+00	33	27	0	104857600	54	5854
2026-01-15 19:45:37.18	45.02	6.16	-39.7	-41.1	19.5	0.00e+00	90	27	0	110100480	52	6523
2026-01-15 19:45:40.21	44.67	6.31	-39.8	-41.2	19.6	0.00e+00	24	27	0	115343360	52	6578
2026-01-15 19:45:43.24	44.31	6.47	-39.7	-41.1	19.6	0.00e+00	0	27	0	121634816	52	6502
2026-01-15 19:45:46.27	43.95	6.62	-39.8	-41.2	19.6	0.00e+00	87	27	0	126877696	52	6576
2026-01-15 19:45:49.30	43.59	6.77	-40.2	-41.7	19.2	0.00e+00	92	27	0	133169152	52	6950
2026-01-15 19:45:52.33	43.22	6.92	-40.0	-41.5	19.5	0.00e+00	0	27	0	138412032	52	6818
2026-01-15 19:45:55.36	42.85	7.08	-40.0	-41.5	19.5	0.00e+00	17	27	0	144703488	52	6777
2026-01-15 19:45:58.38	42.47	7.23	-40.3	-41.8	19.1	0.00e+00	9	27	0	149946368	52	7054
2026-01-15 19:46:01.41	42.09	7.38	-40.2	-41.7	19.3	0.00e+00	0	27	0	155189248	52	6955
2026-01-15 19:46:04.44	41.71	7.53	-40.1	-41.7	19.3	0.00e+00	0	27	0	161480704	52	6930
2026-01-15 19:46:07.46	41.32	7.68	-40.1	-41.6	19.4	0.00e+00	92	27	0	166723584	52	6871
2026-01-15 19:46:10.49	40.93	7.83	-40.0	-41.5	19.7	0.00e+00	4	27	0	173015040	52	6793
2026-01-15 19:46:13.52	40.53	7.98	-39.8	-41.1	20.0	0.00e+00	0	27	0	178257920	52	6532
2026-01-15 19:46:16.55	40.13	8.13	-39.6	-41.0	20.0	0.00e+00	61	27	0	183500800	52	6422
2026-01-15 19:46:19.58	39.73	8.28	-39.8	-41.2	19.7	0.00e+00	90	27	0	189792256	52	6605
2026-01-15 19:46:22.61	39.32	8.43	-40.1	-41.6	19.4	0.00e+00	0	27	0	195035136	52	6879
2026-01-15 19:46:25.64	38.91	8.58	-40.3	-41.8	19.2	0.00e+00	0	27	0	201326592	52	7082
2026-01-15 19:46:28.67	38.49	8.72	-40.3	-41.8	19.3	0.00e+00	74	27	0	206569472	52	7055
2026-01-15 19:46:31.70	38.07	8.87	-39.9	-41.3	19.7	0.00e+00	0	27	0	212860928	52	6683
2026-01-15 19:46:34.73	37.64	9.02	-39.6	-41.0	20.0	0.00e+00	0	27	0	218103808	52	6423
2026-01-15 19:46:37.76	37.21	9.16	-39.5	-40.9	20.2	0.00e+00	0	27	0	223346688	52	6333
2026-01-15 19:46:40.78	36.78	9.31	-39.2	-40.4	20.5	0.00e+00	5	27	0	229638144	52	6027
2026-01-15 19:46:43.81	36.34	9.45	-39.0	-40.2	20.8	0.00e+00	0	27	0	234881024	52	5892
2026-01-15 19:46:46.84	35.90	9.59	-38.7	-39.9	21.0	0.00e+00	0	27	0	241172480	50	6366
2026-01-15 19:46:49.88	35.45	9.74	-38.3	-39.4	21.4	0.00e+00	58	27	0	246415360	50	5994
2026-01-15 19:46:52.91	34.99	9.88	-38.2	-39.3	21.6	0.00e+00	0	27	0	251658240	50	5964
2026-01-15 19:46:55.93	34.54	10.02	-37.8	-38.9	21.9	0.00e+00	0	27	0	257949696	48	6349
2026-01-15 19:46:58.96	34.08	10.16	-38.2	-39.3	21.6	0.00e+00	91	27	0	263192576	48	6644
2026-01-15 19:47:01.98	33.61	10.29	-38.3	-39.5	21.4	0.00e+00	10	27	0	269484032	48	6836
2026-01-15 19:47:05.02	33.14	10.43	-38.2	-39.4	21.5	0.00e+00	0	27	0	274726912	48	6699
2026-01-15 19:47:08.05	32.66	10.57	-38.0	-39.1	21.8	0.00e+00	0	27	0	281018368	48	6486
2026-01-15 19:47:11.08	32.19	10.70	-37.5	-38.5	22.2	0.00e+00	79	27	0	286261248	48	6067
2026-01-15 19:47:14.11	31.70	10.84	-37.0	-38.0	22.6	0.00e+00	0	27	0	291504128	48	5728
2026-01-15 19:47:17.14	31.21	10.97	-37.1	-38.1	22.6	0.00e+00	0	27	0	297795584	48	5790
2026-01-15 19:47:20.17	30.72	11.10	-37.3	-38.4	22.3	0.00e+00	59	27	0	303038464	48	5970
2026-01-15 19:47:23.20	30.22	11.23	-37.6	-38.6	22.2	0.00e+00	0	27	0	309329920	48	6140
2026-01-15 19:47:26.23	29.72	11.36	-37.0	-38.0	22.6	0.00e+00	0	27	0	314572800	48	5733
2026-01-15 19:47:29.26	29.21	11.49	-36.7	-37.6	23.0	0.00e+00	13	27	0	319815680	46	6160
2026-01-15 19:47:32.29	28.70	11.61	-36.8	-37.8	22.8	0.00e+00	10	27	0	326107136	46	6288
2026-01-15 19:47:35.32	28.19	11.74	-37.3	-38.3	22.3	0.00e+00	0	27	0	331350016	46	6649
2026-01-15 19:47:38.35	27.67	11.86	-37.6	-38.7	22.2	0.00e+00	0	27	0	337641472	46	6932
2026-01-15 19:47:41.38	27.15	11.98	-37.6	-38.7	22.1	0.00e+00	8	27	0	342884352	46	6929
2026-01-15 19:47:44.41	26.62	12.10	-37.5	-38.5	22.3	0.00e+00	0	27	0	349175808	48	6066
2026-01-15 19:47:47.44	26.08	12.21	-37.5	-38.6	22.3	0.00e+00	0	27	0	354418688	48	6120
2026-01-15 19:47:50.47	25.55	12.33	-37.9	-39.0	21.9	0.00e+00	80	27	0	359661568	48	6436
2026-01-15 19:47:53.49	25.01	12.44	-37.7	-38.8	22.1	0.00e+00	0	27	0	365953024	48	6289
2026-01-15 19:47:56.52	24.46	12.55	-37.6	-38.7	22.2	0.00e+00	0	27	0	371195904	48	6195
2026-01-15 19:47:59.55	23.91	12.66	-37.1	-38.1	22.7	0.00e+00	0	27	0	377487360	48	5784
2026-01-15 19:48:02.58	23.36	12.77	-37.4	-38.4	22.5	0.00e+00	8	27	0	382730240	48	5985
2026-01-15 19:48:05.60	22.80	12.87	-37.3	-38.3	22.5	0.00e+00	0	27	0	387973120	48	5928
2026-01-15 19:48:08.63	22.24	12.97	-37.0	-38.0	22.8	0.00e+00	0	27	0	394264576	48	5746
2026-01-15 19:48:11.66	21.68	13.07	-37.1	-38.1	22.6	0.00e+00	61	27	0	399507456	48	5781
2026-01-15 19:48:14.68	21.11	13.17	-37.7	-38.8	22.1	0.00e+00	0	27	0	405798912	48	6285
2026-01-15 19:48:17.71	20.54	13.26	-38.1	-39.3	21.7	0.00e+00	0	27	0	411041792	48	6647
2026-01-15 19:48:20.74	19.96	13.36	-37.6	-38.6	22.2	0.00e+00	92	27	0	417333248	48	6128
2026-01-15 19:48:23.77	19.38	13.45	-37.1	-38.0	22.8	0.00e+00	0	27	0	422576128	46	6437
2026-01-15 19:48:26.79	18.80	13.53	-36.8	-37.8	22.9	0.00e+00	0	27	0	427819008	46	6263
2026-01-15 19:48:29.82	18.21	13.62	-36.6	-37.6	23.2	0.00e+00	0	27	0	434110464	46	6115
2026-01-15 19:48:32.85	17.62	13.70	-37.0	-37.9	22.9	0.00e+00	58	27	0	439353344	46	6377
2026-01-15 19:48:35.88	17.03	13.78	-36.4	-37.3	23.4	0.00e+00	0	27	0	445644800	46	5910
2026-01-15 19:48:38.91	16.43	13.85	-36.8	-37.7	22.8	0.00e+00	0	27	0	450887680	46	6231
2026-01-15 19:48:41.94	15.83	13.93	-37.5	-38.5	22.4	0.00e+00	89	27	0	456130560	46	6805
2026-01-15 19:48:44.97	15.23	14.00	-37.4	-38.4	22.3	0.00e+00	0	27	0	462422016	46	6733
2026-01-15 19:48:48.00	14.62	14.07	-37.8	-38.8	22.2	0.00e+00	0	27	0	467664896	48	6312
2026-01-15 19:48:51.03	14.01	14.13	-37.7	-38.7	22.2	0.00e+00	91	27	0	473956352	48	6243
2026-01-15 19:48:54.07	13.40	14.19	-37.7	-38.8	22.1	0.00e+00	0	27	0	479199232	48	6298
2026-01-15 19:48:57.09	12.79	14.25	-37.8	-38.8	22.2	0.00e+00	0	27	0	485490688	48	6311
2026-01-15 19:49:00.12	12.17	14.31	-37.4	-38.4	22.5	0.00e+00	0	27	0	490733568	48	6020
2026-01-15 19:49:03.14	11.56	14.36	-36.9	-37.9	22.9	0.00e+00	7	27	0	495976448	48	5641
2026-01-15 19:49:06.17	10.94	14.41	-36.9	-37.9	23.0	0.00e+00	9	27	0	502267904	48	5656
2026-01-15 19:49:09.20	10.31	14.45	-37.1	-38.0	22.8	0.00e+00	25	27	0	507510784	46	6464
2026-01-15 19:49:12.23	9.69	14.49	-37.4	-38.5	22.4	0.00e+00	91	27	0	513802240	46	6804
2026-01-15 19:49:15.26	9.06	14.53	-36.9	-37.9	22.9	0.00e+00	0	27	0	519045120	46	6349
2026-01-15 19:49:18.29	8.44	14.57	-37.0	-38.0	22.8	0.00e+00	0	27	0	524288000	46	6433
2026-01-15 19:49:21.32	7.81	14.60	-37.6	-38.6	22.4	0.00e+00	55	27	0	530579456	46	6919
2026-01-15 19:49:24.34	7.18	14.63	-37.6	-38.6	22.3	0.00e+00	0	27	0	535822336	48	6171
2026-01-15 19:49:27.37	6.55	14.65	-37.4	-38.4	22.5	0.00e+00	0	27	0	542113792	48	5979
2026-01-15 19:49:30.40	5.92	14.68	-37.7	-38.7	22.3	0.00e+00	0	27	0	547356672	48	6228
2026-01-15 19:49:33.43	5.28	14.69	-37.2	-38.2	22.7	0.00e+00	92	27	0	552599552	48	5829
2026-01-15 19:49:36.46	4.65	14.71	-37.2	-38.2	22.8	0.00e+00	0	27	0	558891008	48	5854
2026-01-15 19:49:39.49	4.01	14.72	-37.5	-38.6	22.4	0.00e+00	0	27	0	564133888	48	6123
2026-01-15 19:49:42.52	3.38	14.73	-37.5	-38.6	22.4	0.00e+00	80	27	0	570425344	48	6119
2026-01-15 19:49:45.55	2.74	14.73	-37.6	-38.7	22.3	0.00e+00	0	27	0	575668224	48	6190
2026-01-15 19:49:48.58	2.11	14.73	-37.2	-38.2	22.8	0.00e+00	0	27	0	581959680	48	5837
2026-01-15 19:49:51.61	1.47	14.73	-36.8	-37.7	23.1	0.00e+00	0	27	0	587202560	48	5550
2026-01-15 19:49:54.64	0.84	14.72	-37.1	-38.1	22.8	0.00e+00	18	27	0	592445440	46	6532
2026-01-15 19:49:57.67	0.20	14.71	-37.6	-38.7	22.3	0.00e+00	0	27	0	598736896	46	6966
2026-01-15 19:50:00.70	359.57	14.70	-37.8	-38.8	22.3	0.00e+00	0	27	0	603979776	48	6283
2026-01-15 19:50:03.73	358.94	14.68	-37.9	-39.0	22.1	0.00e+00	91	27	0	610271232	48	6419
2026-01-15 19:50:06.76	358.30	14.66	-38.0	-39.1	21.9	0.00e+00	0	27	0	615514112	48	6531
2026-01-15 19:50:09.79	357.67	14.64	-37.9	-39.0	22.1	0.00e+00	0	27	0	621805568	48	6427
2026-01-15 19:50:12.82	357.04	14.61	-37.4	-38.5	22.3	0.00e+00	56	27	0	627048448	48	6041
2026-01-15 19:50:15.85	356.41	14.58	-36.9	-37.9	22.9	0.00e+00	0	27	0	632291328	48	5663
2026-01-15 19:50:18.88	355.78	14.54	-37.2	-38.3	22.7	0.00e+00	0	27	0	638582784	48	5920
2026-01-15 19:50:21.91	355.16	14.51	-37.2	-38.3	22.7	0.00e+00	0	27	0	643825664	48	5954
2026-01-15 19:50:24.94	354.53	14.47	-36.8	-37.7	23.2	0.00e+00	56	27	0	650117120	46	6227
2026-01-15 19:50:27.97	353.91	14.42	-36.7	-37.6	23.1	0.00e+00	0	27	0	655360000	46	6124
2026-01-15 19:50:31.00	353.29	14.37	-37.0	-38.0	22.9	0.00e+00	0	27	0	660602880	46	6454
2026-01-15 19:50:34.03	352.67	14.32	-37.4	-38.4	22.6	0.00e+00	91	27	0	666894336	46	6730
2026-01-15 19:50:37.06	352.05	14.27	-37.8	-38.9	22.2	0.00e+00	0	27	0	672137216	48	6335
2026-01-15 19:50:40.09	351.44	14.21	-37.8	-38.8	22.2	0.00e+00	0	27	0	678428672	48	6300
2026-01-15 19:50:43.11	350.83	14.15	-37.6	-38.7	22.6	0.00e+00	49	27	0	683671552	48	6182
2026-01-15 19:50:46.14	350.22	14.09	-37.3	-38.4	22.6	0.00e+00	8	27	0	689963008	48	5974
2026-01-15 19:50:49.17	349.61	14.02	-37.1	-38.1	22.8	0.00e+00	11	27	0	695205888	48	5784
2026-01-15 19:50:52.20	349.01	13.95	-37.2	-38.2	22.8	0.00e+00	0	27	0	700448768	48	5837
2026-01-15 19:50:55.23	348.41	13.88	-36.8	-37.7	23.1	0.00e+00	68	27	0	706740224	48	5555
2026-01-15 19:50:58.26	347.81	13.80	-36.8	-37.7	23.0	0.00e+00	0	27	0	711983104	46	6241
2026-01-15 19:51:01.29	347.22	13.73	-37.1	-38.1	22.8	0.00e+00	0	27	0	718274560	46	6517
2026-01-15 19:51:04.32	346.63	13.64	-37.5	-38.6	22.4	0.00e+00	91	27	0	723517440	46	6879
2026-01-15 19:51:07.35	346.04	13.56	-37.3	-38.4	22.4	0.00e+00	0	27	0	728760320	46	6729
2026-01-15 19:51:10.37	345.46	13.47	-37.4	-38.5	22.5	0.00e+00	0	27	0	735051776	46	6803
2026-01-15 19:51:13.40	344.87	13.39	-37.7	-38.9	22.1	0.00e+00	78	27	0	740294656	46	7145
2026-01-15 19:51:16.43	344.30	13.29	-37.4	-38.6	22.4	0.00e+00	0	27	0	746586112	48	6122
2026-01-15 19:51:19.45	343.72	13.20	-37.1	-38.2	22.6	0.00e+00	0	27	0	751828992	48	5893
2026-01-15 19:51:22.49	343.15	13.10	-36.8	-37.9	22.9	0.00e+00	0	27	0	758120448	48	5675
2026-01-15 19:51:25.51	342.59	13.00	-36.8	-37.9	22.8	0.00e+00	85	27	0	763363328	46	6381
2026-01-15 19:51:28.54	342.03	12.90	-36.6	-37.7	23.1	0.00e+00	0	27	0	768606208	46	6191
2026-01-15 19:51:31.57	341.47	12.80	-36.1	-37.1	23.4	0.00e+00	0	27	0	774897664	46	5828
2026-01-15 19:51:34.60	340.91	12.69	-36.4	-37.4	23.2	0.00e+00	75	27	0	780140544	46	6030
2026-01-15 19:51:37.63	340.36	12.59	-36.8	-38.0	22.7	0.00e+00	0	27	0	786432000	46	6401
2026-01-15 19:51:40.65	339.82	12.48	-37.4	-38.6	22.3	0.00e+00	0	27	0	791674880	46	6889
2026-01-15 19:51:43.68	339.28	12.36	-37.8	-39.2	21.8	0.00e+00	92	27	0	796917760	48	6577
2026-01-15 19:51:46.71	338.74	12.25	-37.8	-39.1	21.9	0.00e+00	44	27	0	803209216	48	6503
2026-01-15 19:51:49.74	338.20	12.13	-37.7	-39.0	21.9	0.00e+00	0	27	0	808452096	48	6397
2026-01-15 19:51:52.77	337.68	12.02	-37.8	-39.0	21.8	0.00e+00	0	27	0	814743552	48	6407
2026-01-15 19:51:55.80	337.15	11.90	-38.0	-39.2	21.8	0.00e+00	90	27	0	819986432	48	6601
2026-01-15 19:51:58.83	336.63	11.78	-38.0	-39.2	21.7	0.00e+00	0	27	0	825229312	48	6604
2026-01-15 19:52:01.86	336.11	11.65	-38.1	-39.3	21.6	0.00e+00	0	27	0	831520768	48	6617
2026-01-15 19:52:04.89	335.60	11.53	-38.4	-39.6	21.6	0.00e+00	34	27	0	836763648	48	6918
2026-01-15 19:52:07.92	335.09	11.40	-38.3	-39.4	21.4	0.00e+00	0	27	0	843055104	48	6759
2026-01-15 19:52:10.95	334.59	11.27	-37.8	-38.8	22.2	0.00e+00	0	27	0	848297984	48	6260
2026-01-15 19:52:13.98	334.09	11.14	-37.6	-38.6	22.2	0.00e+00	9	27	0	854589440	48	6166
2026-01-15 19:52:17.00	333.60	11.01	-38.6	-39.7	21.3	0.00e+00	67	27	0	859832320	48	7005
2026-01-15 19:52:20.04	333.11	10.88	-39.6	-41.0	20.1	0.00e+00	0	27	0	865075200	50	7182
2026-01-15 19:52:23.07	332.62	10.75	-39.1	-40.4	20.8	0.00e+00	0	27	0	871366656	50	6695
2026-01-15 19:52:26.10	332.14	10.61	-38.5	-39.7	21.4	0.00e+00	20	27	0	876609536	50	6195
2026-01-15 19:52:29.13	331.67	10.48	-39.3	-40.6	20.5	0.00e+00	0	27	0	882900992	50	6874
2026-01-15 19:52:32.15	331.20	10.34	-40.4	-42.0	19.2	0.00e+00	0	27	0	888143872	52	7176
2026-01-15 19:52:35.18	330.73	10.20	-41.6	-43.4	17.8	0.00e+00	66	27	0	893386752	54	7594
2026-01-15 19:52:38.21	330.27	10.06	-41.0	-42.7	18.7	0.00e+00	0	27	0	899678208	54	6942
2026-01-15 19:52:41.23	329.81	9.92	-40.8	-42.4	18.8	0.00e+00	0	27	0	904921088	54	6751
2026-01-15 19:52:44.26	329.36	9.78	-40.8	-42.4	18.8	0.00e+00	0	27	0	911212544	54	6741
2026-01-15 19:52:47.29	328.91	9.64	-40.3	-41.7	19.5	0.00e+00	75	27	0	916455424	54	6229
2026-01-15 19:52:50.32	328.46	9.50	-39.7	-41.1	20.0	0.00e+00	0	27	0	921698304	52	6479
2026-01-15 19:52:53.35	328.02	9.36	-40.0	-41.5	19.7	0.00e+00	26	27	0	927989760	52	6771
2026-01-15 19:52:56.38	327.59	9.21	-39.8	-41.1	20.0	0.00e+00	92	27	0	933232640	52	6522
2026-01-15 19:52:59.41	327.15	9.07	-39.4	-40.7	20.4	0.00e+00	0	27	0	939524096	52	6176
2026-01-15 19:53:02.44	326.73	8.92	-39.0	-40.3	20.8	0.00e+00	0	27	0	944766976	52	5902
2026-01-15 19:53:05.46	326.31	8.77	-38.9	-40.1	20.8	0.00e+00	92	27	0	951058432	52	5820
2026-01-15 19:53:08.49	325.89	8.63	-39.2	-40.5	20.5	0.00e+00	0	27	0	956301312	52	6072
2026-01-15 19:53:11.52	325.47	8.48	-39.5	-40.8	20.2	0.00e+00	0	27	0	961544192	52	6287
2026-01-15 19:53:14.54	325.06	8.33	-39.6	-41.0	20.1	0.00e+00	0	27	0	967835648	52	6404
2026-01-15 19:53:17.57	324.66	8.18	-39.7	-41.0	20.1	0.00e+00	0	27	0	973078528	52	6435
2026-01-15 19:53:20.60	324.26	8.03	-39.4	-40.7	20.2	0.00e+00	0	27	0	979369984	52	6180
2026-01-15 19:53:23.63	323.86	7.88	-39.3	-40.5	20.6	0.00e+00	0	27	0	984612864	52	6100
2026-01-15 19:53:26.66	323.47	7.73	-39.1	-40.4	20.5	0.00e+00	75	27	0	989855744	52	6009
2026-01-15 19:53:29.69	323.08	7.58	-38.7	-40.0	20.9	0.00e+00	0	27	0	996147200	50	6396
2026-01-15 19:53:32.72	322.69	7.43	-38.1	-39.2	21.6	0.00e+00	0	27	0	1001390080	50	5880
2026-01-15 19:53:35.74	322.31	7.28	-37.9	-39.0	21.8	0.00e+00	92	27	0	1007681536	50	5716
2026-01-15 19:53:38.77	321.94	7.13	-38.1	-39.2	21.6	0.00e+00	0	27	0	1012924416	50	5861
2026-01-15 19:53:41.80	321.56	6.98	-38.3	-39.4	21.3	0.00e+00	0	27	0	1019215872	50	5997
2026-01-15 19:53:44.83	321.20	6.83	-38.4	-39.6	21.2	0.00e+00	0	27	0	1024458752	50	6104
2026-01-15 19:53:47.85	320.83	6.67	-38.1	-39.2	21.6	0.00e+00	57	27	0	1029701632	50	5839
2026-01-15 19:53:50.88	320.47	6.52	-38.2	-39.3	21.4	0.00e+00	0	27	0	1035993088	50	5935
2026-01-15 19:53:53.91	320.11	6.37	-38.3	-39.5	21.2	0.00e+00	0	27	0	1041235968	50	6049
2026-01-15 19:53:56.94	319.76	6.22	-38.8	-40.0	20.7	0.00e+00	92	27	0	1047527424	50	6453
2026-01-15 19:53:59.96	319.41	6.06	-39.0	-40.3	20.5	0.00e+00	0	27	0	1052770304	50	6651
2026-01-15 19:54:02.99	319.07	5.91	-39.0	-40.3	20.5	0.00e+00	0	27	0	1058013184	50	6618
2026-01-15 19:54:06.02	318.72	5.76	-38.8	-40.1	20.6	0.00e+00	49	27	0	1064304640	50	6489
2026-01-15 19:54:09.05	318.39	5.61	-38.7	-39.9	20.8	0.00e+00	0	27	0	1069547520	50	6328
2026-01-15 19:54:12.08	318.05	5.45	-38.7	-39.9	20.5	0.00e+00	0	27	0	1075838976	50	6348
2026-01-15 19:54:15.11	317.72	5.30	-38.6	-39.8	20.8	0.00e+00	0	27	0	1081081856	50	6269
2026-01-15 19:54:18.13	317.39	5.15	-38.2	-39.3	21.2	0.00e+00	67	27	0	1086324736	50	5954
2026-01-15 19:54:21.16	317.07	4.99	-38.3	-39.5	21.0	0.00e+00	0	27	0	1092616192	50	6042
2026-01-15 19:54:24.20	316.75	4.84	-38.1	-39.2	21.3	0.00e+00	33	27	0	1097859072	50	5860
2026-01-15 19:54:27.23	316.43	4.69	-38.5	-39.7	20.8	0.00e+00	92	27	0	1104150528	50	6189
2026-01-15 19:54:30.26	316.12	4.53	-39.1	-40.4	20.2	0.00e+00	0	27	0	1109393408	50	6740
2026-01-15 19:54:33.28	315.81	4.38	-39.5	-40.9	19.7	0.00e+00	0	27	0	1115684864	50	7170
2026-01-15 19:54:36.31	315.50	4.23	-39.3	-40.7	19.9	0.00e+00	33	27	0	1120927744	50	6951
2026-01-15 19:54:39.34	315.20	4.08	-39.7	-41.2	19.5	0.00e+00	31	27	0	1126170624	50	7340
2026-01-15 19:54:42.36	314.90	3.92	-38.8	-40.1	20.2	0.00e+00	0	27	0	1132462080	50	6509
2026-01-15 19:54:45.40	314.60	3.77	-38.6	-39.8	20.6	0.00e+00	0	27	0	1137704960	50	6316
2026-01-15 19:54:48.43	314.30	3.62	-38.3	-39.4	20.7	0.00e+00	88	27	0	1143996416	50	6032
2026-01-15 19:54:51.45	314.01	3.47	-39.0	-40.3	20.1	0.00e+00	0	27	0	1149239296	50	6640
2026-01-15 19:54:54.48	313.73	3.32	-39.4	-40.8	19.6	0.00e+00	0	27	0	1154482176	50	7051
2026-01-15 19:54:57.51	313.44	3.16	-40.1	-41.7	18.8	0.00e+00	87	27	0	1160773632	52	6937
2026-01-15 19:55:00.54	313.16	3.01	-46.1	-55.6	3.6	0.00e+00	0	27	104	1166016512	58	24363
2026-01-15 19:55:03.56	312.88	2.86	-47.9	-63.1	3.6	1.51e+00	0	27	104	1166016512	60	51730
2026-01-15 19:55:06.59	312.61	2.71	-48.2	-63.4	3.6	1.51e+00	0	27	104	1166016512	60	53492
2026-01-15 19:55:09.62	312.33	2.56	-48.1	-63.4	3.6	1.51e+00	0	27	104	1166016512	60	53543
2026-01-15 19:55:12.65	312.06	2.41	-47.9	-63.3	3.6	1.51e+00	0	27	104	1166016512	60	52866
2026-01-15 19:55:15.67	311.80	2.26	-48.0	-63.2	3.6	1.51e+00	0	27	104	1166016512	60	52524
2026-01-15 19:55:18.70	311.53	2.11	-48.2	-63.4	3.6	1.51e+00	0	27	104	1166016512	60	53288
2026-01-15 19:55:21.73	311.27	1.96	-48.1	-63.3	3.6	1.51e+00	0	27	104	1166016512	60	52789
2026-01-15 19:55:24.76	311.01	1.81	-48.1	-63.3	3.6	1.51e+00	0	27	104	1166016512	60	53088
2026-01-15 19:55:27.79	310.76	1.66	-48.1	-63.3	3.6	1.51e+00	0	27	104	1166016512	60	52911
2026-01-15 19:55:30.82	310.50	1.51	-48.1	-63.3	3.6	1.51e+00	0	27	104	1166016512	60	52840
2026-01-15 19:55:33.85	310.25	1.36	-48.0	-63.2	3.6	1.51e+00	0	27	104	1166016512	60	52545
2026-01-15 19:55:36.88	310.00	1.21	-48.1	-63.2	3.5	1.51e+00	0	27	104	1166016512	60	52408
2026-01-15 19:55:39.91	309.76	1.06	-48.2	-63.3	3.6	1.51e+00	0	27	104	1166016512	60	53116
2026-01-15 19:55:42.94	309.51	0.91	-48.1	-63.3	3.6	1.51e+00	0	27	104	1166016512	60	52797
2026-01-15 19:55:45.97	309.27	0.76	-48.1	-63.3	3.6	1.51e+00	0	27	104	1166016512	60	52923
2026-01-15 19:55:49.00	309.03	0.62	-48.1	-63.2	3.6	1.51e+00	0	27	104	1166016512	60	52465
2026-01-15 19:55:52.03	308.80	0.47	-48.0	-63.2	3.6	1.51e+00	0	27	104	1166016512	60	52268
2026-01-15 19:55:55.05	308.57	0.32	-48.1	-63.2	3.6	1.51e+00	0	27	104	1166016512	60	52457
2026-01-15 19:55:58.08	308.34	0.17	-48.0	-63.1	3.6	1.51e+00	0	27	104	1166016512	60	51778
2026-01-15 19:56:01.11	308.11	0.03	-48.1	-63.3	3.6	1.51e+00	0	27	104	1166016512	60	52890

#Closed at: 2026-01-15 19:56:03
#Recorded file [1166 MB]: D:/lorett/data/35029_260116_074336.dat