passes_logs/2026/01/15/R4.6S_Anadyr/R4.6S_Anadyr__20260115_170731_AQUA_rec.log

#Pass ID: 20260115_170731_AQUA
#Satellite: AQUA
#Configuration: AQUA
#almurnet v.1.7.20251203
#Start time: 2026-01-15 17:07:33

#Version: 2.2.20231116
#Station: R4.6S_Anadyr
#Location: 177.4865 lon 64.73178 lat
#TLE: 1 27424U 02022A   26014.61231444  .00000653  00000+0  14070-3 0  9991
#TLE: 2 27424  98.4080 341.0332 0002042  78.9336 335.9961 14.61820174260839

#Time	Az	El	Level	Level2	SNR	BER	BlckErr	Temp	State	Recorded	gain1	gain2
2026-01-15 17:07:33.51	20.79	0.10	-48.0	-62.9	3.6	1.51e+00	0	25	0	0	60	50438
2026-01-15 17:07:37.55	20.71	0.35	-48.5	-66.5	3.5	3.02e+01	0	26	104	0	60	81072
2026-01-15 17:07:41.59	20.62	0.59	-48.4	-66.4	3.5	3.02e+01	0	26	104	0	60	80344
2026-01-15 17:07:45.63	20.54	0.85	-48.0	-65.9	3.5	3.02e+01	0	26	104	0	60	76110
2026-01-15 17:07:49.67	20.45	1.10	-47.0	-64.9	3.5	3.02e+01	0	26	104	0	60	67558
2026-01-15 17:07:53.71	20.36	1.36	-47.0	-64.7	3.5	3.02e+01	0	26	104	0	60	66185
2026-01-15 17:07:57.75	20.27	1.62	-47.0	-64.8	3.5	3.02e+01	0	26	104	0	60	66498
2026-01-15 17:08:01.79	20.17	1.88	-47.0	-63.5	3.5	3.02e+01	0	26	104	0	60	57794
2026-01-15 17:08:05.82	20.07	2.14	-47.0	-64.2	3.5	3.02e+01	0	27	104	0	60	62482
2026-01-15 17:08:09.86	19.98	2.41	-47.0	-64.5	3.5	3.02e+01	0	27	104	0	60	64422
2026-01-15 17:08:13.90	19.88	2.68	-46.9	-61.9	3.6	3.02e+01	0	27	104	0	60	48069
2026-01-15 17:08:17.94	19.77	2.95	-46.9	-61.5	4.1	3.02e+01	0	27	104	0	60	45965
2026-01-15 17:08:21.98	19.67	3.22	-46.0	-53.0	11.1	3.02e+01	59	27	0	2097152	60	17266
2026-01-15 17:08:26.02	19.56	3.50	-42.1	-44.8	19.8	3.02e+01	58	27	0	9437184	60	6687
2026-01-15 17:08:30.06	19.45	3.78	-41.7	-44.2	20.1	3.02e+01	63	27	0	17301504	58	7010
2026-01-15 17:08:34.10	19.33	4.06	-46.7	-59.3	3.8	3.02e+01	0	27	104	22020096	60	35407
2026-01-15 17:08:38.14	19.22	4.35	-36.8	-38.2	26.0	3.02e+01	45	27	0	25690112	48	6236
2026-01-15 17:08:42.18	19.10	4.64	-36.4	-37.8	26.5	3.02e+01	61	27	0	33554432	48	5984
2026-01-15 17:08:46.21	18.97	4.94	-36.2	-37.6	26.7	3.02e+01	48	27	0	40894464	48	5830
2026-01-15 17:08:50.25	18.85	5.23	-36.3	-37.7	26.7	3.02e+01	59	27	0	48758784	48	5859
2026-01-15 17:08:54.29	18.72	5.53	-36.3	-37.6	26.7	3.02e+01	59	27	0	56098816	48	5848
2026-01-15 17:08:58.32	18.59	5.84	-36.0	-37.3	27.1	3.02e+01	62	27	0	63963136	46	6347
2026-01-15 17:09:02.36	18.45	6.15	-35.7	-37.0	27.4	3.02e+01	53	27	0	71303168	46	6112
2026-01-15 17:09:06.39	18.31	6.46	-35.8	-37.1	27.4	3.02e+01	61	27	0	78643200	46	6171
2026-01-15 17:09:10.43	18.17	6.78	-35.7	-37.0	27.5	3.02e+01	61	27	0	86507520	46	6095
2026-01-15 17:09:14.47	18.02	7.10	-35.8	-37.1	27.5	3.02e+01	59	27	0	93847552	46	6171
2026-01-15 17:09:18.50	17.87	7.42	-36.0	-37.3	27.3	3.02e+01	47	27	0	101711872	46	6327
2026-01-15 17:09:22.53	17.72	7.75	-35.7	-37.0	27.6	3.02e+01	58	27	0	109051904	46	6114
2026-01-15 17:09:26.57	17.56	8.08	-34.9	-36.6	27.9	3.02e+01	46	27	0	116916224	46	5826
2026-01-15 17:09:30.61	17.40	8.42	-35.1	-36.6	28.0	3.02e+01	60	27	0	124256256	44	6504
2026-01-15 17:09:34.65	17.23	8.77	-35.2	-36.5	28.1	3.02e+01	51	27	0	131596288	44	6469
2026-01-15 17:09:38.69	17.06	9.12	-35.1	-36.4	28.3	3.02e+01	59	27	0	139460608	44	6355
2026-01-15 17:09:42.72	16.88	9.47	-35.0	-36.3	28.4	3.02e+01	44	27	0	146800640	44	6288
2026-01-15 17:09:46.75	16.70	9.83	-34.8	-36.0	28.5	3.02e+01	61	27	0	154664960	44	6124
2026-01-15 17:09:50.79	16.51	10.19	-34.8	-36.1	28.5	3.02e+01	53	27	0	162004992	44	6171
2026-01-15 17:09:54.83	16.31	10.56	-34.6	-35.9	28.7	3.02e+01	59	27	0	169869312	44	6003
2026-01-15 17:09:58.87	16.11	10.94	-34.6	-35.8	28.8	3.02e+01	59	27	0	177209344	44	5960
2026-01-15 17:10:02.91	15.91	11.33	-34.5	-35.7	29.0	3.02e+01	60	27	0	185073664	44	5904
2026-01-15 17:10:06.95	15.69	11.71	-34.1	-35.4	29.3	3.02e+01	60	27	0	192413696	44	5662
2026-01-15 17:10:10.98	15.47	12.11	-34.4	-35.7	29.0	3.02e+01	59	27	0	199753728	44	5883
2026-01-15 17:10:15.02	15.25	12.51	-34.1	-35.3	29.3	3.02e+01	61	27	0	207618048	44	5618
2026-01-15 17:10:19.06	15.01	12.92	-34.1	-35.3	29.4	3.02e+01	52	27	0	214958080	44	5624
2026-01-15 17:10:23.09	14.77	13.34	-34.2	-35.4	29.3	3.02e+01	61	27	0	222822400	42	6376
2026-01-15 17:10:27.13	14.52	13.76	-34.1	-35.3	29.5	3.02e+01	57	27	0	230162432	42	6300
2026-01-15 17:10:31.17	14.27	14.20	-34.2	-35.4	29.4	3.02e+01	58	27	0	238026752	42	6399
2026-01-15 17:10:35.20	14.00	14.64	-34.2	-35.4	29.4	3.02e+01	60	27	0	245366784	42	6383
2026-01-15 17:10:39.24	13.73	15.09	-34.1	-35.3	29.4	3.02e+01	58	27	0	253231104	42	6349
2026-01-15 17:10:43.28	13.44	15.55	-34.0	-35.2	29.6	3.02e+01	57	27	0	260571136	42	6256
2026-01-15 17:10:47.32	13.14	16.01	-33.8	-35.0	29.8	3.02e+01	57	27	0	267911168	42	6066
2026-01-15 17:10:51.35	12.84	16.49	-33.7	-34.9	29.8	3.02e+01	59	27	0	275775488	42	6049
2026-01-15 17:10:55.39	12.52	16.97	-33.9	-35.1	29.8	3.02e+01	60	27	0	283115520	42	6147
2026-01-15 17:10:59.43	12.19	17.47	-33.9	-35.1	29.8	3.02e+01	46	27	0	290979840	42	6167
2026-01-15 17:11:03.47	11.85	17.97	-33.9	-35.1	29.7	3.02e+01	59	27	0	298319872	42	6182
2026-01-15 17:11:07.50	11.50	18.49	-34.2	-35.4	29.5	3.02e+01	49	27	0	306184192	42	6377
2026-01-15 17:11:11.54	11.13	19.02	-34.2	-35.4	29.5	3.02e+01	62	27	0	313524224	42	6405
2026-01-15 17:11:15.58	10.75	19.56	-34.3	-35.5	29.4	3.02e+01	53	27	0	321388544	42	6428
2026-01-15 17:11:19.62	10.36	20.11	-33.9	-35.1	29.8	3.02e+01	53	27	0	328728576	42	6190
2026-01-15 17:11:23.66	9.94	20.67	-34.1	-35.3	29.7	3.02e+01	47	27	0	336068608	42	6309
2026-01-15 17:11:27.70	9.51	21.24	-34.4	-35.6	29.4	3.02e+01	56	27	0	343932928	42	6527
2026-01-15 17:11:31.73	9.07	21.83	-34.3	-35.5	29.5	3.02e+01	50	27	0	351272960	42	6454
2026-01-15 17:11:35.76	8.60	22.43	-34.3	-35.5	29.5	3.02e+01	59	27	0	359137280	42	6498
2026-01-15 17:11:39.80	8.11	23.05	-34.4	-35.7	29.4	3.02e+01	57	27	0	366477312	42	6578
2026-01-15 17:11:43.84	7.60	23.67	-34.7	-35.9	29.2	3.02e+01	58	27	0	374341632	42	6791
2026-01-15 17:11:47.87	7.07	24.32	-34.6	-35.8	29.3	3.02e+01	50	27	0	381681664	42	6673
2026-01-15 17:11:51.91	6.52	24.97	-34.3	-35.5	29.5	3.02e+01	60	27	0	389021696	42	6493
2026-01-15 17:11:55.94	5.94	25.65	-34.7	-35.9	29.3	3.02e+01	51	27	0	396886016	42	6773
2026-01-15 17:11:59.98	5.33	26.33	-34.2	-35.4	29.6	3.02e+01	57	27	0	404226048	42	6385
2026-01-15 17:12:04.02	4.70	27.04	-34.6	-35.8	29.4	3.02e+01	51	27	0	412090368	42	6684
2026-01-15 17:12:08.06	4.03	27.76	-34.0	-35.2	29.9	3.02e+01	57	27	0	419430400	42	6243
2026-01-15 17:12:12.09	3.33	28.50	-34.1	-35.2	29.8	3.02e+01	44	27	0	427294720	42	6272
2026-01-15 17:12:16.13	2.59	29.25	-33.7	-34.9	30.1	3.02e+01	60	27	0	434634752	42	6029
2026-01-15 17:12:20.17	1.82	30.02	-33.8	-35.0	30.0	3.02e+01	55	27	0	441974784	42	6103
2026-01-15 17:12:24.20	1.01	30.80	-33.7	-34.9	30.1	3.02e+01	59	27	0	449839104	42	6027
2026-01-15 17:12:28.24	0.15	31.61	-34.1	-35.3	29.8	3.02e+01	63	27	0	457179136	42	6291
2026-01-15 17:12:32.28	359.25	32.43	-33.6	-34.8	30.2	3.02e+01	59	27	0	465043456	42	5969
2026-01-15 17:12:36.32	358.30	33.26	-34.2	-35.4	29.7	3.02e+01	61	27	0	472383488	42	6367
2026-01-15 17:12:40.35	357.29	34.11	-34.1	-35.3	29.7	3.02e+01	58	27	0	480247808	42	6335
2026-01-15 17:12:44.39	356.23	34.98	-34.6	-35.8	29.4	3.02e+01	57	27	0	487587840	42	6669
2026-01-15 17:12:48.43	355.11	35.86	-34.8	-36.1	29.1	3.02e+01	59	27	0	495452160	42	6886
2026-01-15 17:12:52.47	353.92	36.75	-35.4	-36.6	28.7	3.02e+01	60	27	0	502792192	44	6538
2026-01-15 17:12:56.51	352.67	37.66	-36.0	-37.3	28.1	3.02e+01	57	27	0	510132224	44	7097
2026-01-15 17:13:00.54	351.34	38.57	-35.7	-37.0	28.4	3.02e+01	58	27	0	517996544	46	6082
2026-01-15 17:13:04.58	349.93	39.49	-36.0	-37.3	28.1	3.02e+01	59	27	0	525336576	46	6337
2026-01-15 17:13:08.62	348.43	40.42	-36.1	-37.4	28.0	3.02e+01	56	27	0	533200896	46	6403
2026-01-15 17:13:12.65	346.85	41.35	-35.7	-37.0	28.4	3.02e+01	58	27	0	540540928	46	6103
2026-01-15 17:13:16.69	345.16	42.27	-35.6	-36.8	28.5	3.02e+01	58	27	0	548405248	46	5978
2026-01-15 17:13:20.73	343.38	43.20	-35.8	-37.0	28.4	3.02e+01	53	27	0	555745280	46	6119
2026-01-15 17:13:24.77	341.48	44.11	-35.1	-36.3	29.0	3.02e+01	59	27	0	563085312	46	5635
2026-01-15 17:13:28.80	339.48	45.01	-35.2	-36.5	28.8	3.02e+01	58	27	0	570949632	46	5747
2026-01-15 17:13:32.84	337.36	45.89	-35.4	-36.6	28.6	3.02e+01	61	27	0	578289664	46	5837
2026-01-15 17:13:36.88	335.11	46.75	-35.4	-36.7	28.6	3.02e+01	58	27	0	586153984	46	5867
2026-01-15 17:13:40.91	332.74	47.57	-35.6	-36.8	28.5	3.02e+01	61	27	0	593494016	46	5968
2026-01-15 17:13:44.95	330.24	48.35	-35.4	-36.7	28.6	3.02e+01	61	27	0	601358336	46	5876
2026-01-15 17:13:48.99	327.61	49.08	-35.9	-37.2	27.9	3.02e+01	59	27	0	608698368	46	6229
2026-01-15 17:13:53.03	324.85	49.76	-35.1	-36.4	28.8	3.02e+01	59	27	0	616562688	46	5664
2026-01-15 17:13:57.07	321.97	50.37	-35.4	-36.7	28.6	3.02e+01	59	27	0	623902720	44	6593
2026-01-15 17:14:01.11	318.98	50.91	-34.8	-36.1	29.0	3.02e+01	50	27	0	631242752	44	6144
2026-01-15 17:14:05.14	315.89	51.38	-34.8	-36.1	29.1	3.02e+01	60	27	0	639107072	44	6146
2026-01-15 17:14:09.18	312.71	51.75	-34.4	-35.6	29.5	3.02e+01	44	27	0	646447104	44	5818
2026-01-15 17:14:13.22	309.45	52.04	-34.9	-36.1	29.1	3.02e+01	57	27	0	654311424	44	6172
2026-01-15 17:14:17.25	306.15	52.23	-34.5	-35.7	29.3	3.02e+01	44	27	0	661651456	44	5917
2026-01-15 17:14:21.29	302.80	52.32	-35.1	-36.3	28.9	3.02e+01	59	27	0	669515776	44	6348
2026-01-15 17:14:25.32	299.45	52.32	-35.7	-37.0	28.2	3.02e+01	47	27	0	676855808	44	6841
2026-01-15 17:14:29.36	296.11	52.21	-34.5	-35.8	29.1	3.02e+01	64	27	0	684195840	42	6667
2026-01-15 17:14:33.40	292.81	52.00	-34.7	-35.9	28.0	3.02e+01	47	27	0	692060160	44	6051
2026-01-15 17:14:37.44	289.56	51.70	-34.6	-35.7	28.9	3.02e+01	57	27	0	699400192	44	5879
2026-01-15 17:14:41.47	286.39	51.31	-37.2	-38.7	26.6	3.02e+01	62	27	0	707264512	46	7412
2026-01-15 17:14:45.51	283.31	50.83	-35.2	-36.4	28.4	3.02e+01	59	27	0	714604544	44	6400
2026-01-15 17:14:49.55	280.33	50.27	-34.5	-35.7	28.9	3.02e+01	58	27	0	722468864	44	5894
2026-01-15 17:14:53.58	277.48	49.65	-35.0	-36.3	28.8	3.02e+01	59	27	0	729808896	42	7085
2026-01-15 17:14:57.62	274.74	48.96	-34.3	-35.5	29.6	3.02e+01	59	27	0	737148928	44	5727
2026-01-15 17:15:01.65	272.13	48.22	-34.6	-35.8	29.4	3.02e+01	59	27	0	745013248	42	6707
2026-01-15 17:15:05.69	269.64	47.43	-34.6	-35.9	29.3	3.02e+01	59	27	0	752353280	42	6750
2026-01-15 17:15:09.73	267.29	46.60	-34.8	-36.0	29.2	3.02e+01	63	27	0	760217600	42	6818
2026-01-15 17:15:13.76	265.06	45.74	-34.1	-35.3	29.8	3.02e+01	59	27	0	767557632	44	5601
2026-01-15 17:15:17.80	262.95	44.85	-34.7	-35.9	29.4	3.02e+01	60	27	0	775421952	44	6007
2026-01-15 17:15:21.84	260.96	43.95	-34.2	-35.4	29.7	3.02e+01	56	27	0	782761984	44	5705
2026-01-15 17:15:25.87	259.08	43.03	-34.8	-36.0	29.3	3.02e+01	56	27	0	790102016	44	6097
2026-01-15 17:15:29.91	257.31	42.10	-34.7	-35.9	29.2	3.02e+01	59	27	0	797966336	44	6023
2026-01-15 17:15:33.94	255.64	41.17	-35.2	-36.5	28.7	3.02e+01	58	27	0	805306368	44	6442
2026-01-15 17:15:37.97	254.07	40.24	-35.8	-37.0	28.3	3.02e+01	59	27	0	813170688	46	6112
2026-01-15 17:15:42.00	252.59	39.31	-35.7	-36.9	28.3	3.02e+01	61	27	0	820510720	46	6025
2026-01-15 17:15:46.04	251.19	38.39	-36.1	-37.4	28.0	3.02e+01	57	27	0	828375040	46	6374
2026-01-15 17:15:50.07	249.87	37.47	-36.0	-37.2	28.2	3.02e+01	59	27	0	835715072	46	6256
2026-01-15 17:15:54.11	248.62	36.57	-35.8	-37.1	28.2	3.02e+01	58	27	0	843579392	46	6160
2026-01-15 17:15:58.15	247.44	35.67	-36.1	-37.3	28.1	3.02e+01	45	27	0	850919424	46	6349
2026-01-15 17:16:02.19	246.32	34.79	-35.5	-36.8	28.5	3.02e+01	58	27	0	858259456	46	5947
2026-01-15 17:16:06.23	245.27	33.93	-35.1	-36.3	28.7	3.02e+01	61	27	0	866123776	44	6342
2026-01-15 17:16:10.26	244.27	33.08	-34.8	-36.0	29.1	3.02e+01	57	27	0	873463808	44	6097
2026-01-15 17:16:14.30	243.32	32.24	-34.3	-35.5	29.4	3.02e+01	52	27	0	881328128	44	5783
2026-01-15 17:16:18.33	242.43	31.42	-34.4	-35.6	29.5	3.02e+01	60	27	0	888668160	44	5801
2026-01-15 17:16:22.36	241.58	30.62	-34.5	-35.7	29.4	3.02e+01	52	27	0	896532480	44	5916
2026-01-15 17:16:26.40	240.77	29.83	-34.4	-35.6	29.5	3.02e+01	58	27	0	903872512	42	6530
2026-01-15 17:16:30.44	240.00	29.06	-34.3	-35.5	29.6	3.02e+01	50	27	0	911736832	42	6449
2026-01-15 17:16:34.47	239.27	28.31	-34.3	-35.5	29.5	3.02e+01	61	27	0	919076864	42	6491
2026-01-15 17:16:38.51	238.57	27.58	-34.5	-35.7	29.4	3.02e+01	54	27	0	926416896	42	6579
2026-01-15 17:16:42.54	237.91	26.86	-34.6	-35.8	29.1	3.02e+01	61	27	0	934281216	42	6698
2026-01-15 17:16:46.58	237.27	26.15	-34.6	-35.8	29.2	3.02e+01	44	27	0	941621248	42	6699
2026-01-15 17:16:50.62	236.67	25.46	-35.0	-36.2	28.9	3.02e+01	59	27	0	949485568	44	6262
2026-01-15 17:16:54.65	236.09	24.79	-34.6	-35.8	29.2	3.02e+01	44	27	0	956825600	44	5962
2026-01-15 17:16:58.69	235.54	24.14	-34.8	-36.1	29.0	3.02e+01	59	27	0	964689920	44	6147
2026-01-15 17:17:02.72	235.01	23.49	-35.1	-36.3	28.8	3.02e+01	44	27	0	972029952	44	6322
2026-01-15 17:17:06.76	234.50	22.87	-34.6	-35.8	29.1	3.02e+01	53	27	0	979369984	44	5958
2026-01-15 17:17:10.80	234.02	22.25	-35.0	-36.3	28.7	3.02e+01	53	27	0	987234304	44	6314
2026-01-15 17:17:14.84	233.55	21.65	-34.8	-36.0	29.0	3.02e+01	59	27	0	994574336	44	6095
2026-01-15 17:17:18.88	233.10	21.06	-34.6	-35.8	29.1	3.02e+01	59	27	0	1002438656	44	5973
2026-01-15 17:17:22.91	232.67	20.49	-34.8	-36.0	29.0	3.02e+01	57	27	0	1009778688	44	6101
2026-01-15 17:17:26.95	232.26	19.93	-34.7	-36.0	29.1	3.02e+01	58	27	0	1017643008	44	6066
2026-01-15 17:17:30.98	231.87	19.38	-34.8	-36.1	29.0	3.02e+01	58	27	0	1024983040	44	6154
2026-01-15 17:17:35.02	231.49	18.84	-34.8	-36.1	28.9	3.02e+01	57	27	0	1032323072	44	6153
2026-01-15 17:17:39.06	231.12	18.31	-35.2	-36.4	28.6	3.02e+01	60	27	0	1040187392	44	6393
2026-01-15 17:17:43.09	230.76	17.80	-35.1	-36.3	28.6	3.02e+01	59	27	0	1047527424	44	6313
2026-01-15 17:17:47.13	230.42	17.29	-34.7	-35.9	29.0	3.02e+01	61	27	0	1055391744	44	6029
2026-01-15 17:17:51.16	230.10	16.80	-34.6	-35.8	29.1	3.02e+01	63	27	0	1062731776	44	5934
2026-01-15 17:17:55.20	229.78	16.31	-34.6	-35.8	29.0	3.02e+01	60	27	0	1070596096	44	5978
2026-01-15 17:17:59.23	229.47	15.84	-34.7	-35.9	28.9	3.02e+01	58	27	0	1077936128	44	6059
2026-01-15 17:18:03.27	229.18	15.37	-34.8	-36.0	28.8	3.02e+01	58	27	0	1085800448	44	6096
2026-01-15 17:18:07.31	228.89	14.91	-34.8	-36.0	28.9	3.02e+01	55	27	0	1093140480	44	6099
2026-01-15 17:18:11.34	228.62	14.46	-34.9	-36.1	28.7	3.02e+01	61	27	0	1100480512	44	6155
2026-01-15 17:18:15.38	228.35	14.02	-34.9	-36.2	28.7	3.02e+01	61	27	0	1108344832	44	6207
2026-01-15 17:18:19.42	228.09	13.59	-34.9	-36.1	28.7	3.02e+01	63	27	0	1115684864	44	6175
2026-01-15 17:18:23.46	227.84	13.17	-35.0	-36.3	28.5	3.02e+01	61	27	0	1123549184	44	6281
2026-01-15 17:18:27.50	227.60	12.75	-35.1	-36.3	28.4	3.02e+01	46	27	0	1130889216	44	6335
2026-01-15 17:18:31.53	227.36	12.34	-35.4	-36.6	28.2	3.02e+01	60	27	0	1138753536	44	6555
2026-01-15 17:18:35.57	227.13	11.94	-35.5	-36.8	28.0	3.02e+01	46	27	0	1146093568	44	6716
2026-01-15 17:18:39.61	226.91	11.54	-35.6	-36.9	27.9	3.02e+01	60	27	0	1153433600	44	6762
2026-01-15 17:18:43.64	226.70	11.15	-35.8	-37.1	27.7	3.02e+01	60	27	0	1161297920	44	6962
2026-01-15 17:18:47.68	226.49	10.77	-36.0	-37.3	26.9	3.02e+01	55	27	0	1168637952	44	7065
2026-01-15 17:18:51.72	226.29	10.39	-36.3	-37.8	27.2	3.02e+01	49	27	0	1176502272	46	6668
2026-01-15 17:18:55.75	226.09	10.02	-36.2	-37.7	27.2	3.02e+01	58	27	0	1183842304	46	6613
2026-01-15 17:18:59.79	225.90	9.66	-36.4	-37.8	27.1	3.02e+01	50	27	0	1191706624	46	6680
2026-01-15 17:19:03.83	225.72	9.30	-36.5	-37.8	27.0	3.02e+01	60	27	0	1199046656	46	6714
2026-01-15 17:19:07.87	225.54	8.94	-36.6	-38.0	26.7	3.02e+01	38	27	0	1206386688	46	6877
2026-01-15 17:19:11.91	225.36	8.59	-36.8	-38.3	26.5	3.02e+01	56	27	0	1214251008	46	7063
2026-01-15 17:19:15.95	225.19	8.25	-36.7	-38.4	26.4	3.02e+01	52	27	0	1221591040	46	7135
2026-01-15 17:19:19.98	225.03	7.91	-36.8	-38.6	26.2	3.02e+01	60	27	0	1229455360	46	7337
2026-01-15 17:19:24.02	224.87	7.58	-37.1	-38.9	25.9	3.02e+01	46	27	0	1236795392	48	6732
2026-01-15 17:19:28.06	224.71	7.25	-37.4	-39.1	25.6	3.02e+01	63	27	0	1244659712	48	6889
2026-01-15 17:19:32.10	224.56	6.92	-36.7	-39.1	25.5	3.02e+01	44	27	0	1251999744	48	6919
2026-01-15 17:19:36.13	224.41	6.60	-37.0	-39.5	25.1	3.02e+01	58	27	0	1259864064	48	7284
2026-01-15 17:19:40.17	224.26	6.29	-37.1	-39.5	25.0	3.02e+01	56	27	0	1267204096	48	7287
2026-01-15 17:19:44.21	224.12	5.97	-37.2	-39.7	24.8	3.02e+01	58	27	0	1274544128	48	7419
2026-01-15 17:19:48.25	223.98	5.67	-37.4	-39.8	24.5	3.02e+01	60	27	0	1282408448	48	7545
2026-01-15 17:19:52.28	223.85	5.36	-37.6	-40.1	24.3	3.02e+01	59	27	0	1289748480	48	7810
2026-01-15 17:19:56.32	223.72	5.06	-37.7	-40.3	24.0	3.02e+01	59	27	0	1297612800	48	7909
2026-01-15 17:20:00.36	223.59	4.76	-37.6	-40.2	24.1	3.02e+01	59	27	0	1304952832	48	7836
2026-01-15 17:20:04.40	223.46	4.47	-37.7	-40.6	23.6	3.02e+01	57	27	0	1312817152	48	8183
2026-01-15 17:20:08.44	223.34	4.18	-37.5	-40.8	23.3	3.02e+01	53	27	0	1320157184	48	8458
2026-01-15 17:20:12.47	223.22	3.89	-37.0	-40.9	23.1	3.02e+01	58	27	0	1327497216	48	8541
2026-01-15 17:20:16.51	223.11	3.61	-36.8	-41.1	22.9	3.02e+01	61	27	0	1335361536	48	8696
2026-01-15 17:20:20.55	222.99	3.33	-37.4	-41.7	22.2	3.02e+01	62	27	0	1342701568	48	9371
2026-01-15 17:20:24.59	222.88	3.05	-37.2	-41.6	22.3	3.02e+01	58	27	0	1350565888	48	9275
2026-01-15 17:20:28.62	222.77	2.78	-48.3	-66.2	3.5	3.02e+01	0	27	104	1352138752	60	78594
2026-01-15 17:20:32.66	222.67	2.50	-48.5	-66.4	3.5	3.02e+01	0	27	104	1352138752	60	80376
2026-01-15 17:20:36.70	222.56	2.23	-48.4	-66.4	3.5	3.02e+01	0	28	104	1352138752	60	80153
2026-01-15 17:20:40.74	222.46	1.97	-48.3	-66.3	3.5	3.02e+01	0	27	104	1352138752	60	79140
2026-01-15 17:20:44.78	222.36	1.70	-48.5	-66.4	3.5	3.02e+01	0	27	104	1352138752	60	80780
2026-01-15 17:20:48.82	222.26	1.44	-48.5	-66.5	3.5	3.02e+01	0	27	104	1352138752	60	81037
2026-01-15 17:20:52.86	222.17	1.18	-48.5	-66.4	3.5	3.02e+01	0	27	104	1352138752	60	80388
2026-01-15 17:20:56.91	222.08	0.93	-48.4	-66.3	3.5	3.02e+01	0	28	104	1352138752	60	79685
2026-01-15 17:21:00.94	221.98	0.67	-48.4	-66.3	3.5	3.02e+01	0	27	104	1352138752	60	79831
2026-01-15 17:21:04.98	221.90	0.42	-48.4	-66.3	3.5	3.02e+01	0	28	104	1352138752	60	79473
2026-01-15 17:21:09.02	221.81	0.17	-48.4	-66.3	3.5	3.02e+01	0	27	104	1352138752	60	79936
2026-01-15 17:21:13.06	221.72	-0.07	-48.4	-66.3	3.5	3.02e+01	0	28	104	1352138752	60	79799

#Closed at: 2026-01-15 17:21:14
#Recorded file [1352 MB]: D:/lorett/data/35029_260116_050733.dat