passes_logs/2026/01/15/R4.6S_Anadyr/R4.6S_Anadyr__20260115_214543_TY-42_rec.log

#Pass ID: 20260115_214543_TY-42
#Satellite: TY-42
#Configuration: TY-42_900M
#almurnet v.1.7.20251203
#Start time: 2026-01-15 21:46:16

#Version: 2.2.20231116
#Station: R4.6S_Anadyr
#Location: 177.4865 lon 64.73178 lat
#TLE: 1 64048U 25103A   26014.69425926  .00008005  00000-0  38191-3 0 09997
#TLE: 2 64048 097.4117 090.1174 0001564 091.0855 218.1626 15.19145944 36760

#Time	Az	El	Level	Level2	SNR	BER	BlckErr	Temp	State	Recorded	gain1	gain2
2026-01-15 21:46:16.23	25.81	1.79	-48.0	-63.0	3.5	1.51e+00	0	24	0	0	60	51084
2026-01-15 21:46:19.26	26.13	1.96	-46.5	-49.0	6.1	0.00e+00	0	26	104	0	60	34549
2026-01-15 21:46:22.28	26.44	2.13	-46.5	-49.0	6.1	0.00e+00	0	26	104	0	60	34547
2026-01-15 21:46:25.31	26.77	2.31	-46.5	-49.0	6.1	0.00e+00	0	26	104	0	60	34590
2026-01-15 21:46:28.34	27.09	2.48	-46.4	-49.0	6.1	0.00e+00	0	26	104	0	60	34496
2026-01-15 21:46:31.37	27.42	2.66	-46.4	-49.0	6.1	0.00e+00	0	27	104	0	60	34608
2026-01-15 21:46:34.39	27.76	2.83	-46.4	-49.0	6.1	0.00e+00	0	27	104	0	60	34483
2026-01-15 21:46:37.42	28.10	3.01	-46.5	-49.0	6.1	0.00e+00	0	27	104	0	60	34566
2026-01-15 21:46:40.45	28.45	3.18	-46.4	-49.0	6.1	0.00e+00	0	27	104	0	60	34390
2026-01-15 21:46:43.48	28.80	3.36	-46.3	-49.0	6.1	0.00e+00	0	27	104	0	60	34440
2026-01-15 21:46:46.51	29.16	3.54	-46.7	-49.2	6.1	0.00e+00	0	27	104	0	60	35417
2026-01-15 21:46:49.54	29.52	3.72	-46.0	-48.5	6.1	0.00e+00	0	27	104	0	60	32445
2026-01-15 21:46:52.56	29.88	3.90	-45.9	-48.2	6.1	0.00e+00	0	27	104	0	60	31327
2026-01-15 21:46:55.59	30.26	4.08	-35.6	-36.0	10.6	0.00e+00	0	27	104	0	56	9691
2026-01-15 21:46:58.62	30.63	4.26	-31.1	-31.3	12.7	0.00e+00	387	27	104	117440512	44	11303
2026-01-15 21:47:01.65	31.02	4.44	-27.8	-28.2	15.7	4.48e-02	0	28	0	377487360	30	17702
2026-01-15 21:47:04.68	31.41	4.63	-27.5	-28.0	15.7	1.25e-03	0	28	0	721420288	30	17213
2026-01-15 21:47:07.70	31.80	4.81	-28.2	-28.6	15.9	1.39e-03	0	28	0	1065353216	30	18567
2026-01-15 21:47:10.73	32.21	5.00	-27.2	-27.7	16.1	1.06e-03	0	28	0	1400897536	30	16623
2026-01-15 21:47:13.75	32.61	5.18	-26.6	-27.1	16.3	2.83e-04	0	28	0	1744830464	28	17467
2026-01-15 21:47:16.78	33.03	5.37	-26.7	-27.1	16.2	1.42e-04	0	28	0	2080374784	28	17568
2026-01-15 21:47:19.81	33.45	5.55	-26.8	-27.3	16.2	2.18e-04	0	28	0	2424307712	28	17916
2026-01-15 21:47:22.84	33.88	5.74	-26.5	-27.0	16.2	1.74e-04	0	28	0	2759852032	28	17397
2026-01-15 21:47:25.87	34.31	5.93	-26.4	-26.9	16.5	8.17e-05	0	28	0	3103784960	28	17067
2026-01-15 21:47:28.90	34.76	6.12	-26.3	-26.8	16.4	1.25e-04	0	28	0	3447717888	28	16952
2026-01-15 21:47:31.92	35.20	6.31	-26.5	-26.9	16.5	9.26e-05	0	28	0	3783262208	28	17150
2026-01-15 21:47:34.95	35.66	6.50	-26.2	-26.7	16.5	7.08e-05	0	28	0	4127195136	28	16678
2026-01-15 21:47:37.98	36.12	6.69	-26.1	-26.6	16.6	4.90e-05	0	28	0	4462739456	28	16473
2026-01-15 21:47:41.01	36.59	6.88	-26.0	-26.5	16.5	7.08e-05	0	28	0	4806672384	28	16248
2026-01-15 21:47:44.04	37.07	7.07	-25.8	-26.3	16.7	3.81e-05	0	28	0	5142216704	28	15928
2026-01-15 21:47:47.07	37.56	7.26	-25.8	-26.3	16.7	2.72e-05	0	29	0	5486149632	28	15887
2026-01-15 21:47:50.10	38.05	7.45	-25.8	-26.2	16.6	3.26e-05	0	28	0	5830082560	26	17788
2026-01-15 21:47:53.12	38.55	7.64	-25.5	-26.0	16.5	5.40e-06	0	29	0	6165626880	26	17354
2026-01-15 21:47:56.15	39.06	7.84	-25.5	-26.0	16.2	8.17e-05	0	29	0	6509559808	26	17353
2026-01-15 21:47:59.17	39.57	8.03	-25.5	-26.0	16.6	1.14e-04	0	29	0	6853492736	26	17275
2026-01-15 21:48:02.19	40.10	8.22	-25.3	-25.8	16.8	4.35e-05	0	29	0	7189037056	26	16939
2026-01-15 21:48:05.22	40.63	8.42	-25.1	-25.6	16.8	5.40e-06	0	29	0	7532969984	26	16563
2026-01-15 21:48:08.25	41.18	8.61	-25.3	-25.7	16.8	0.00e+00	0	29	0	7876902912	26	16771
2026-01-15 21:48:11.28	41.73	8.80	-25.1	-25.6	16.9	1.63e-05	0	29	0	8212447232	26	16430
2026-01-15 21:48:14.30	42.29	9.00	-25.0	-25.5	16.9	5.40e-06	0	29	0	8556380160	26	16333
2026-01-15 21:48:17.32	42.85	9.19	-24.9	-25.4	17.0	1.08e-05	0	29	0	8891924480	26	16132
2026-01-15 21:48:20.35	43.43	9.38	-24.8	-25.3	16.9	5.40e-06	0	29	0	9235857408	24	17828
2026-01-15 21:48:23.38	44.02	9.58	-24.7	-25.2	16.8	0.00e+00	0	29	0	9571401728	24	17760
2026-01-15 21:48:26.40	44.62	9.77	-24.7	-25.2	17.0	5.40e-06	0	29	0	9915334656	24	17653
2026-01-15 21:48:29.43	45.22	9.96	-24.5	-25.0	16.9	5.40e-06	0	29	0	10250878976	24	17313
2026-01-15 21:48:32.46	45.84	10.15	-24.6	-25.1	16.7	0.00e+00	0	29	0	10594811904	24	17412
2026-01-15 21:48:35.48	46.46	10.34	-24.5	-25.0	16.6	1.08e-05	0	29	0	10930356224	24	17217
2026-01-15 21:48:38.51	47.10	10.54	-24.4	-24.9	16.6	5.40e-06	0	29	0	11274289152	24	17114
2026-01-15 21:48:41.54	47.75	10.73	-24.3	-24.8	17.0	0.00e+00	0	29	0	11609833472	24	16976
2026-01-15 21:48:44.57	48.40	10.91	-24.4	-24.9	17.0	0.00e+00	0	29	0	11953766400	24	17007
2026-01-15 21:48:47.59	49.07	11.10	-24.3	-24.7	16.9	0.00e+00	0	29	0	12297699328	24	16801
2026-01-15 21:48:50.62	49.74	11.29	-24.2	-24.7	17.0	5.40e-06	0	29	0	12641632256	24	16706
2026-01-15 21:48:53.64	50.43	11.47	-24.2	-24.7	16.7	0.00e+00	0	29	0	12977176576	24	16671
2026-01-15 21:48:56.67	51.12	11.66	-24.2	-24.7	16.6	5.40e-06	0	29	0	13321109504	24	16690
2026-01-15 21:48:59.70	51.83	11.84	-24.2	-24.6	16.9	5.40e-06	0	29	0	13665042432	24	16600
2026-01-15 21:49:02.72	52.55	12.02	-24.1	-24.6	16.8	5.40e-06	0	29	0	14000586752	24	16429
2026-01-15 21:49:05.75	53.28	12.20	-24.6	-25.1	16.5	1.08e-05	0	29	0	14344519680	24	17481
2026-01-15 21:49:08.78	54.01	12.38	-24.8	-25.3	16.4	2.72e-05	0	29	0	14680064000	24	17837
2026-01-15 21:49:11.80	54.76	12.55	-24.0	-24.5	16.9	4.90e-05	0	29	0	15023996928	24	16351
2026-01-15 21:49:14.83	55.52	12.73	-23.9	-24.4	16.7	0.00e+00	0	30	0	15359541248	24	16093
2026-01-15 21:49:17.86	56.29	12.90	-23.9	-24.4	16.9	1.63e-05	0	29	0	15703474176	24	16131
2026-01-15 21:49:20.88	57.07	13.06	-23.8	-24.2	16.8	0.00e+00	0	29	0	16039018496	22	17789
2026-01-15 21:49:23.91	57.86	13.23	-23.7	-24.1	17.0	0.00e+00	0	29	0	16382951424	22	17570
2026-01-15 21:49:26.94	58.66	13.39	-23.4	-23.9	16.9	5.40e-06	0	29	0	16718495744	22	17047
2026-01-15 21:49:29.96	59.47	13.55	-23.1	-23.6	16.7	0.00e+00	0	29	0	17062428672	22	16589
2026-01-15 21:49:32.99	60.29	13.70	-23.1	-23.5	15.3	5.40e-06	0	29	0	17397972992	22	16401
2026-01-15 21:49:36.02	61.13	13.86	-23.1	-23.6	16.5	1.08e-05	0	29	0	17741905920	22	16512
2026-01-15 21:49:39.04	61.97	14.00	-22.9	-23.3	15.8	3.81e-05	0	29	0	18085838848	22	16041
2026-01-15 21:49:42.07	62.82	14.15	-23.1	-23.6	16.9	1.08e-05	0	29	0	18429771776	22	16529
2026-01-15 21:49:45.10	63.68	14.29	-23.0	-23.5	17.1	5.40e-06	0	30	0	18765316096	22	16292
2026-01-15 21:49:48.13	64.55	14.42	-23.0	-23.5	17.1	0.00e+00	0	29	0	19109249024	22	16333
2026-01-15 21:49:51.15	65.43	14.55	-22.8	-23.3	16.8	0.00e+00	0	29	0	19453181952	22	16015
2026-01-15 21:49:54.18	66.32	14.68	-22.8	-23.3	16.3	0.00e+00	0	29	0	19788726272	22	15957
2026-01-15 21:49:57.21	67.21	14.80	-22.8	-23.2	17.0	1.63e-05	0	30	0	20132659200	20	17772
2026-01-15 21:50:00.24	68.12	14.92	-22.8	-23.2	17.1	0.00e+00	0	30	0	20468203520	20	17798
2026-01-15 21:50:03.27	69.04	15.03	-22.8	-23.3	17.1	0.00e+00	0	29	0	20812136448	20	17838
2026-01-15 21:50:06.30	69.96	15.13	-22.7	-23.1	16.4	0.00e+00	0	30	0	21156069376	20	17520
2026-01-15 21:50:09.32	70.88	15.23	-45.7	-48.5	6.1	0.00e+00	0	29	104	21248344064	60	32446
2026-01-15 21:50:12.35	71.82	15.33	-47.8	-50.4	6.1	3.81e-05	0	29	104	21248344064	60	40493
2026-01-15 21:50:15.38	72.76	15.42	-47.8	-50.4	6.1	3.81e-05	0	29	104	21248344064	60	40740
2026-01-15 21:50:18.41	73.71	15.50	-47.7	-50.3	6.1	0.00e+00	0	29	104	21248344064	60	39944
2026-01-15 21:50:21.44	74.67	15.57	-47.3	-50.0	6.1	0.00e+00	0	29	104	21248344064	60	38582
2026-01-15 21:50:24.47	75.63	15.64	-47.0	-49.7	6.1	0.00e+00	0	29	104	21248344064	60	37582
2026-01-15 21:50:27.50	76.60	15.71	-44.9	-47.7	6.3	0.00e+00	0	29	104	21248344064	60	29816
2026-01-15 21:50:30.53	77.57	15.76	-47.2	-49.8	6.1	0.00e+00	0	29	104	21248344064	60	37993
2026-01-15 21:50:33.56	78.54	15.81	-47.8	-50.4	6.1	0.00e+00	0	29	104	21248344064	60	40378
2026-01-15 21:50:36.59	79.52	15.85	-47.3	-49.9	6.1	0.00e+00	0	29	104	21248344064	60	38368
2026-01-15 21:50:39.62	80.50	15.89	-47.3	-49.9	6.1	0.00e+00	0	29	104	21248344064	60	38436
2026-01-15 21:50:42.65	81.49	15.92	-47.4	-50.0	6.1	0.00e+00	0	29	104	21248344064	60	38812
2026-01-15 21:50:45.67	82.47	15.94	-46.7	-49.8	6.1	0.00e+00	0	29	104	21248344064	60	38007
2026-01-15 21:50:48.70	83.46	15.95	-46.8	-49.9	6.1	0.00e+00	0	29	104	21248344064	60	38435
2026-01-15 21:50:51.73	84.45	15.96	-47.6	-50.2	6.1	0.00e+00	0	29	104	21248344064	60	39479
2026-01-15 21:50:54.76	85.44	15.96	-47.7	-50.2	6.1	0.00e+00	0	29	104	21248344064	60	39759
2026-01-15 21:50:57.79	86.42	15.95	-47.3	-50.0	6.1	0.00e+00	0	29	104	21248344064	60	38693
2026-01-15 21:51:00.82	87.41	15.94	-47.2	-49.8	6.1	0.00e+00	0	29	104	21248344064	60	37908
2026-01-15 21:51:03.84	88.39	15.92	-47.4	-50.2	6.1	0.00e+00	0	29	104	21248344064	60	39782
2026-01-15 21:51:06.88	89.38	15.89	-47.8	-50.4	6.1	0.00e+00	0	29	104	21248344064	60	40396
2026-01-15 21:51:09.91	90.36	15.85	-47.5	-50.2	6.1	0.00e+00	0	29	104	21248344064	60	39599
2026-01-15 21:51:12.93	91.34	15.81	-47.8	-50.3	6.1	0.00e+00	0	29	104	21248344064	60	40181
2026-01-15 21:51:15.96	92.32	15.76	-47.4	-50.1	6.1	0.00e+00	0	29	104	21248344064	60	39212
2026-01-15 21:51:18.99	93.29	15.70	-47.0	-49.7	6.1	0.00e+00	0	29	104	21248344064	60	37207
2026-01-15 21:51:22.01	94.25	15.64	-47.5	-50.1	6.1	0.00e+00	0	29	104	21248344064	60	39046
2026-01-15 21:51:25.04	95.22	15.57	-47.1	-49.7	6.0	0.00e+00	0	29	104	21248344064	60	37445
2026-01-15 21:51:28.07	96.17	15.49	-47.7	-50.2	6.1	0.00e+00	0	29	104	21248344064	60	39800
2026-01-15 21:51:31.10	97.13	15.41	-47.7	-50.3	6.1	0.00e+00	0	29	104	21248344064	60	39923
2026-01-15 21:51:34.13	98.07	15.32	-47.6	-50.3	6.1	0.00e+00	0	29	104	21248344064	60	40124
2026-01-15 21:51:37.16	99.01	15.23	-47.7	-50.2	6.1	0.00e+00	0	29	104	21248344064	60	39733
2026-01-15 21:51:40.18	99.94	15.13	-47.4	-50.0	6.1	0.00e+00	0	29	104	21248344064	60	38667
2026-01-15 21:51:43.20	100.86	15.02	-47.5	-50.2	6.1	0.00e+00	0	29	104	21248344064	60	39597
2026-01-15 21:51:46.23	101.78	14.91	-47.3	-49.9	6.1	0.00e+00	0	29	104	21248344064	60	38285
2026-01-15 21:51:49.25	102.68	14.79	-47.2	-50.0	6.1	0.00e+00	0	29	104	21248344064	60	38705
2026-01-15 21:51:52.28	103.59	14.67	-47.7	-50.3	6.1	0.00e+00	0	29	104	21248344064	60	40101
2026-01-15 21:51:55.30	104.47	14.54	-47.5	-50.1	6.1	0.00e+00	0	29	104	21248344064	60	39189
2026-01-15 21:51:58.33	105.36	14.41	-47.7	-50.2	6.1	0.00e+00	0	29	104	21248344064	60	39674
2026-01-15 21:52:01.36	106.23	14.27	-47.5	-50.1	6.1	0.00e+00	0	29	104	21248344064	60	39254
2026-01-15 21:52:04.38	107.09	14.13	-47.7	-50.2	6.1	0.00e+00	0	29	104	21248344064	60	39829
2026-01-15 21:52:07.41	107.95	13.99	-47.4	-50.1	6.1	0.00e+00	0	29	104	21248344064	60	39110
2026-01-15 21:52:10.44	108.79	13.84	-47.7	-50.3	6.1	0.00e+00	0	29	104	21248344064	60	39900
2026-01-15 21:52:13.47	109.63	13.68	-47.7	-50.3	6.1	0.00e+00	0	29	104	21248344064	60	39925
2026-01-15 21:52:16.50	110.45	13.53	-47.7	-50.2	6.1	0.00e+00	0	29	104	21248344064	60	39607
2026-01-15 21:52:19.53	111.27	13.37	-47.6	-50.2	6.1	0.00e+00	0	29	104	21248344064	60	39463
2026-01-15 21:52:22.55	112.07	13.20	-47.5	-50.2	6.1	0.00e+00	0	29	104	21248344064	60	39594
2026-01-15 21:52:25.58	112.87	13.04	-47.5	-50.1	6.1	0.00e+00	0	29	104	21248344064	60	39107
2026-01-15 21:52:28.60	113.65	12.87	-47.6	-50.2	6.1	0.00e+00	0	29	104	21248344064	60	39644
2026-01-15 21:52:31.63	114.42	12.70	-47.5	-50.1	6.1	0.00e+00	0	29	104	21248344064	60	39130
2026-01-15 21:52:34.66	115.18	12.52	-47.3	-50.1	6.1	0.00e+00	0	29	104	21248344064	60	38999
2026-01-15 21:52:37.69	115.94	12.35	-47.5	-50.1	6.1	0.00e+00	0	29	104	21248344064	60	39040
2026-01-15 21:52:40.72	116.68	12.17	-47.4	-50.1	6.1	0.00e+00	0	29	104	21248344064	60	39204
2026-01-15 21:52:43.74	117.41	11.99	-47.7	-50.2	6.1	0.00e+00	0	29	104	21248344064	60	39492
2026-01-15 21:52:46.77	118.13	11.81	-47.3	-50.1	6.1	0.00e+00	0	29	104	21248344064	60	39330
2026-01-15 21:52:49.80	118.84	11.62	-47.6	-50.1	6.1	0.00e+00	0	29	104	21248344064	60	39326
2026-01-15 21:52:52.83	119.54	11.43	-47.4	-50.1	6.1	0.00e+00	0	29	104	21248344064	60	39038
2026-01-15 21:52:55.86	120.23	11.25	-47.6	-50.1	6.1	0.00e+00	0	29	104	21248344064	60	39072
2026-01-15 21:52:58.89	120.91	11.06	-47.3	-50.0	6.1	0.00e+00	0	29	104	21248344064	60	38760
2026-01-15 21:53:01.91	121.58	10.87	-47.6	-50.1	6.1	0.00e+00	0	29	104	21248344064	60	39312
2026-01-15 21:53:04.94	122.23	10.68	-47.4	-50.1	6.1	0.00e+00	0	29	104	21248344064	60	39162
2026-01-15 21:53:07.97	122.88	10.49	-47.6	-50.1	6.1	0.00e+00	0	29	104	21248344064	60	39182
2026-01-15 21:53:11.00	123.52	10.29	-47.3	-50.1	6.1	0.00e+00	0	29	104	21248344064	60	38970
2026-01-15 21:53:14.03	124.15	10.10	-47.6	-50.0	6.1	0.00e+00	0	29	104	21248344064	60	38817
2026-01-15 21:53:17.06	124.77	9.91	-47.4	-50.0	6.1	0.00e+00	0	29	104	21248344064	60	38844
2026-01-15 21:53:20.08	125.38	9.71	-47.4	-50.0	6.1	0.00e+00	0	29	104	21248344064	60	38513
2026-01-15 21:53:23.11	125.98	9.52	-47.0	-49.9	6.1	0.00e+00	0	29	104	21248344064	60	38279
2026-01-15 21:53:26.14	126.57	9.32	-47.1	-49.7	6.1	0.00e+00	0	29	104	21248344064	60	37313
2026-01-15 21:53:29.17	127.15	9.13	-46.5	-49.4	6.1	0.00e+00	0	29	104	21248344064	60	36064
2026-01-15 21:53:32.19	127.72	8.93	-46.9	-49.7	6.1	0.00e+00	0	29	104	21248344064	60	37365
2026-01-15 21:53:35.22	128.28	8.74	-47.4	-49.9	6.1	0.00e+00	0	29	104	21248344064	60	38497
2026-01-15 21:53:38.25	128.83	8.54	-47.1	-49.9	6.1	0.00e+00	0	29	104	21248344064	60	38258
2026-01-15 21:53:41.27	129.38	8.35	-47.4	-49.9	6.1	0.00e+00	0	29	104	21248344064	60	38112
2026-01-15 21:53:44.30	129.91	8.15	-47.4	-49.9	6.1	0.00e+00	0	29	104	21248344064	60	38258
2026-01-15 21:53:47.33	130.44	7.96	-47.3	-49.8	6.1	0.00e+00	0	29	104	21248344064	60	37880
2026-01-15 21:53:50.35	130.96	7.76	-47.1	-49.9	6.1	0.00e+00	0	29	104	21248344064	60	38165
2026-01-15 21:53:53.38	131.47	7.57	-47.3	-49.8	6.1	0.00e+00	0	29	104	21248344064	60	37745
2026-01-15 21:53:56.41	131.97	7.37	-47.3	-49.8	6.1	0.00e+00	0	29	104	21248344064	60	37859
2026-01-15 21:53:59.44	132.47	7.18	-47.1	-49.6	6.0	0.00e+00	0	29	104	21248344064	60	37128
2026-01-15 21:54:02.47	132.95	6.99	-47.1	-49.7	6.1	0.00e+00	0	29	104	21248344064	60	37578
2026-01-15 21:54:05.50	133.43	6.79	-47.2	-49.7	6.1	0.00e+00	0	29	104	21248344064	60	37631
2026-01-15 21:54:08.52	133.90	6.60	-47.2	-49.7	6.1	0.00e+00	0	29	104	21248344064	60	37581
2026-01-15 21:54:11.55	134.37	6.41	-47.0	-49.6	6.1	0.00e+00	0	29	104	21248344064	60	37120
2026-01-15 21:54:14.58	134.82	6.22	-47.1	-49.6	6.1	0.00e+00	0	29	104	21248344064	60	37137
2026-01-15 21:54:17.61	135.27	6.03	-46.9	-49.5	6.1	0.00e+00	0	30	104	21248344064	60	36694
2026-01-15 21:54:20.64	135.72	5.84	-47.1	-49.6	6.1	0.00e+00	0	30	104	21248344064	60	36877
2026-01-15 21:54:23.67	136.15	5.65	-47.0	-49.6	6.1	0.00e+00	0	30	104	21248344064	60	36797
2026-01-15 21:54:26.69	136.58	5.46	-47.0	-49.5	6.1	0.00e+00	0	30	104	21248344064	60	36674
2026-01-15 21:54:29.72	137.00	5.27	-46.8	-49.5	6.1	0.00e+00	0	30	104	21248344064	60	36761
2026-01-15 21:54:32.75	137.42	5.08	-46.9	-49.4	6.1	0.00e+00	0	30	104	21248344064	60	36230
2026-01-15 21:54:35.78	137.83	4.90	-46.9	-49.4	6.1	0.00e+00	0	30	104	21248344064	60	36303
2026-01-15 21:54:38.81	138.23	4.71	-46.7	-49.2	6.1	0.00e+00	0	30	104	21248344064	60	35450
2026-01-15 21:54:41.83	138.62	4.52	-46.3	-49.1	6.1	0.00e+00	0	30	104	21248344064	60	34942
2026-01-15 21:54:44.86	139.01	4.34	-46.6	-49.1	6.1	0.00e+00	0	30	104	21248344064	60	34768
2026-01-15 21:54:47.89	139.40	4.16	-46.5	-49.0	6.1	0.00e+00	0	30	104	21248344064	60	34556
2026-01-15 21:54:50.92	139.78	3.97	-45.2	-47.9	6.1	0.00e+00	0	30	104	21248344064	60	30446
2026-01-15 21:54:53.95	140.15	3.79	-45.1	-47.7	6.1	0.00e+00	0	30	104	21248344064	60	29664
2026-01-15 21:54:56.97	140.52	3.61	-45.2	-47.7	6.1	0.00e+00	0	30	104	21248344064	60	29706
2026-01-15 21:55:00.00	140.88	3.43	-44.9	-47.5	6.1	0.00e+00	0	30	104	21248344064	60	28992
2026-01-15 21:55:03.03	141.24	3.25	-45.2	-47.8	6.1	0.00e+00	0	30	104	21248344064	60	29911
2026-01-15 21:55:06.06	141.59	3.07	-45.2	-47.7	6.1	0.00e+00	0	30	104	21248344064	60	29753
2026-01-15 21:55:09.08	141.93	2.89	-47.5	-50.0	6.1	0.00e+00	0	30	104	21248344064	60	38855
2026-01-15 21:55:12.12	142.27	2.71	-48.1	-50.6	6.1	0.00e+00	0	30	104	21248344064	60	41530
2026-01-15 21:55:15.14	142.61	2.54	-48.4	-50.9	6.1	0.00e+00	0	30	104	21248344064	60	42989
2026-01-15 21:55:18.17	142.94	2.36	-48.4	-50.9	6.1	0.00e+00	0	30	104	21248344064	60	42947
2026-01-15 21:55:21.20	143.27	2.19	-48.4	-51.0	6.1	0.00e+00	0	30	104	21248344064	60	43315
2026-01-15 21:55:24.23	143.59	2.01	-48.4	-50.9	6.1	0.00e+00	0	30	104	21248344064	60	42845
2026-01-15 21:55:27.25	143.90	1.84	-48.4	-51.0	6.1	0.00e+00	0	30	104	21248344064	60	43225
2026-01-15 21:55:30.28	144.22	1.67	-48.4	-50.9	6.1	0.00e+00	0	30	104	21248344064	60	43008
2026-01-15 21:55:33.32	144.53	1.49	-48.4	-50.9	6.1	0.00e+00	0	30	104	21248344064	60	43026
2026-01-15 21:55:36.35	144.83	1.32	-48.4	-51.0	6.1	0.00e+00	0	30	104	21248344064	60	43242
2026-01-15 21:55:39.37	145.13	1.15	-48.4	-50.9	6.1	0.00e+00	0	30	104	21248344064	60	43173
2026-01-15 21:55:42.40	145.42	0.98	-48.5	-51.0	6.1	0.00e+00	0	30	104	21248344064	60	43320
2026-01-15 21:55:45.43	145.71	0.81	-48.4	-50.9	6.1	0.00e+00	0	30	104	21248344064	60	43100
2026-01-15 21:55:48.46	146.00	0.64	-48.4	-50.9	6.1	0.00e+00	0	30	104	21248344064	60	43007
2026-01-15 21:55:51.50	146.29	0.48	-48.4	-50.9	6.1	0.00e+00	0	30	104	21248344064	60	43040
2026-01-15 21:55:54.53	146.57	0.31	-48.5	-51.0	6.1	0.00e+00	0	30	104	21248344064	60	43231
2026-01-15 21:55:57.56	146.84	0.14	-48.4	-50.9	6.1	0.00e+00	0	30	104	21248344064	60	43093
2026-01-15 21:56:00.59	147.11	-0.02	-48.4	-50.9	6.1	0.00e+00	0	30	104	21248344064	60	42971

#Closed at: 2026-01-15 21:56:01
#Recorded file [21248 MB]: D:/lorett/data/35029_260116_094616.dat