passes_logs/2026/01/15/R4.6S_Anadyr/R4.6S_Anadyr__20260115_152956_AQUA_rec.log

#Pass ID: 20260115_152956_AQUA
#Satellite: AQUA
#Configuration: AQUA
#almurnet v.1.7.20251203
#Start time: 2026-01-15 15:29:59

#Version: 2.2.20231116
#Station: R4.6S_Anadyr
#Location: 177.4865 lon 64.73178 lat
#TLE: 1 27424U 02022A   26014.61231444  .00000653  00000+0  14070-3 0  9991
#TLE: 2 27424  98.4080 341.0332 0002042  78.9336 335.9961 14.61820174260839

#Time	Az	El	Level	Level2	SNR	BER	BlckErr	Temp	State	Recorded	gain1	gain2
2026-01-15 15:29:59.65	19.66	0.17	-48.1	-63.0	3.5	1.51e+00	0	25	0	0	60	51350
2026-01-15 15:30:03.68	19.80	0.41	-48.5	-66.4	3.5	3.02e+01	0	27	104	0	60	80858
2026-01-15 15:30:07.71	19.95	0.65	-48.3	-66.5	3.5	3.02e+01	0	27	104	0	60	81361
2026-01-15 15:30:11.75	20.10	0.90	-48.0	-66.0	3.5	3.02e+01	0	27	104	0	60	76400
2026-01-15 15:30:15.80	20.26	1.15	-46.9	-64.9	3.5	3.02e+01	0	27	104	0	60	67282
2026-01-15 15:30:19.84	20.42	1.40	-47.0	-64.9	3.5	3.02e+01	0	27	104	0	60	67521
2026-01-15 15:30:23.88	20.58	1.65	-47.0	-64.8	3.5	3.02e+01	0	27	104	0	60	66608
2026-01-15 15:30:27.92	20.74	1.91	-47.0	-64.7	3.5	3.02e+01	0	27	104	0	60	66348
2026-01-15 15:30:31.96	20.90	2.16	-47.0	-64.7	3.5	3.02e+01	0	27	104	0	60	66044
2026-01-15 15:30:36.00	21.07	2.42	-47.0	-64.9	3.5	3.02e+01	0	27	104	0	60	67395
2026-01-15 15:30:40.03	21.24	2.69	-46.8	-61.0	3.7	3.02e+01	0	27	104	0	60	43289
2026-01-15 15:30:44.07	21.41	2.95	-46.4	-56.2	8.4	3.02e+01	54	27	104	0	60	24775
2026-01-15 15:30:48.12	21.59	3.22	-40.1	-42.1	22.3	3.02e+01	58	27	0	7340032	56	6179
2026-01-15 15:30:52.16	21.77	3.49	-37.8	-48.3	3.6	3.02e+01	0	27	104	7340032	50	17705
2026-01-15 15:30:56.20	21.95	3.76	-41.7	-52.9	3.4	3.02e+01	0	27	104	7340032	56	21499
2026-01-15 15:31:00.24	22.14	4.04	-46.9	-64.6	3.5	3.02e+01	0	27	104	7340032	60	65645
2026-01-15 15:31:04.27	22.33	4.32	-40.6	-51.4	4.0	3.02e+01	0	27	104	7340032	56	17940
2026-01-15 15:31:08.31	22.52	4.60	-44.3	-56.7	3.9	3.02e+01	0	28	104	7340032	60	26332
2026-01-15 15:31:12.34	22.72	4.88	-38.0	-48.6	3.5	3.02e+01	0	27	104	7340032	50	18403
2026-01-15 15:31:16.38	22.92	5.17	-43.4	-55.2	3.5	3.02e+01	0	28	104	7340032	60	22196
2026-01-15 15:31:20.42	23.13	5.46	-42.7	-54.2	3.5	3.02e+01	0	28	104	7340032	60	19803
2026-01-15 15:31:24.46	23.34	5.76	-37.2	-47.6	3.5	3.02e+01	0	28	104	7340032	50	16403
2026-01-15 15:31:28.50	23.55	6.06	-38.9	-49.5	3.5	3.02e+01	0	28	104	7340032	56	14494
2026-01-15 15:31:32.53	23.77	6.36	-37.9	-48.4	3.5	3.02e+01	0	27	104	7340032	52	16060
2026-01-15 15:31:36.57	23.99	6.67	-46.6	-61.9	3.5	3.02e+01	0	28	104	7340032	60	48132
2026-01-15 15:31:40.61	24.22	6.98	-39.0	-49.5	3.5	3.02e+01	0	28	104	7340032	54	16309
2026-01-15 15:31:44.65	24.45	7.29	-43.8	-55.6	3.5	3.02e+01	0	28	104	7340032	54	32819
2026-01-15 15:31:48.69	24.69	7.61	-37.6	-48.0	3.5	3.02e+01	0	28	104	7340032	50	17258
2026-01-15 15:31:52.73	24.93	7.93	-37.5	-48.0	3.5	3.02e+01	0	28	104	7340032	48	19263
2026-01-15 15:31:56.77	25.18	8.25	-42.3	-53.5	3.5	3.02e+01	0	28	104	7340032	60	18172
2026-01-15 15:32:00.81	25.43	8.59	-39.5	-50.3	3.5	3.02e+01	0	28	104	7340032	54	17728
2026-01-15 15:32:04.84	25.69	8.92	-44.0	-56.2	3.4	3.02e+01	0	28	104	7340032	58	27846
2026-01-15 15:32:08.88	25.96	9.26	-39.4	-50.0	3.5	3.02e+01	0	28	104	7340032	54	17225
2026-01-15 15:32:12.92	26.23	9.60	-36.7	-47.0	3.5	3.02e+01	0	28	104	7340032	48	17224
2026-01-15 15:32:16.95	26.51	9.95	-36.6	-46.9	3.5	3.02e+01	0	28	104	7340032	48	16971
2026-01-15 15:32:20.99	26.79	10.31	-47.6	-64.5	3.5	3.02e+01	0	28	104	7340032	60	64725
2026-01-15 15:32:25.03	27.09	10.66	-41.3	-52.6	3.5	3.02e+01	0	28	104	7340032	58	18379
2026-01-15 15:32:29.07	27.39	11.03	-46.4	-60.7	3.5	3.02e+01	0	28	104	7340032	60	41951
2026-01-15 15:32:33.10	27.69	11.40	-38.6	-49.2	3.5	3.02e+01	0	28	104	7340032	52	17599
2026-01-15 15:32:37.14	28.01	11.77	-41.9	-53.2	3.5	3.02e+01	0	28	104	7340032	58	19833
2026-01-15 15:32:41.18	28.33	12.16	-44.8	-57.4	3.5	3.02e+01	0	28	104	7340032	60	28428
2026-01-15 15:32:45.22	28.67	12.54	-37.1	-47.4	3.5	3.02e+01	0	28	104	7340032	48	18097
2026-01-15 15:32:49.26	29.01	12.94	-44.8	-57.5	3.5	3.02e+01	0	28	104	7340032	60	28899
2026-01-15 15:32:53.30	29.36	13.34	-38.4	-48.9	3.5	3.02e+01	0	28	104	7340032	52	16955
2026-01-15 15:32:57.33	29.72	13.74	-43.9	-56.1	3.5	3.02e+01	0	28	104	7340032	60	24540
2026-01-15 15:33:01.37	30.09	14.16	-38.0	-48.4	3.5	3.02e+01	0	28	104	7340032	50	17934
2026-01-15 15:33:05.41	30.47	14.58	-35.4	-45.7	3.5	3.02e+01	0	28	104	7340032	46	16567
2026-01-15 15:33:09.44	30.87	15.00	-36.9	-47.2	3.6	3.02e+01	0	28	104	7340032	48	17578
2026-01-15 15:33:13.48	31.27	15.44	-37.1	-47.4	3.6	3.02e+01	0	28	104	7340032	50	16131
2026-01-15 15:33:17.51	31.69	15.88	-43.6	-55.3	3.5	3.02e+01	0	28	104	7340032	60	22312
2026-01-15 15:33:21.55	32.12	16.33	-36.9	-47.3	3.5	3.02e+01	0	28	104	7340032	50	15909
2026-01-15 15:33:25.60	32.56	16.79	-40.8	-51.7	3.5	3.02e+01	0	28	104	7340032	48	29502
2026-01-15 15:33:29.63	33.02	17.25	-35.5	-45.8	3.5	3.02e+01	0	28	104	7340032	46	16749
2026-01-15 15:33:33.67	33.49	17.73	-43.3	-54.8	3.5	3.02e+01	0	28	104	7340032	60	21158
2026-01-15 15:33:37.71	33.98	18.21	-35.5	-45.8	3.5	3.02e+01	0	28	104	7340032	46	16778
2026-01-15 15:33:41.75	34.49	18.70	-46.7	-60.8	3.5	3.02e+01	0	28	104	7340032	60	42054
2026-01-15 15:33:45.79	35.01	19.20	-40.4	-51.1	3.5	3.02e+01	0	28	104	7340032	56	17420
2026-01-15 15:33:49.83	35.55	19.71	-45.7	-58.9	3.5	3.02e+01	0	28	104	7340032	60	33763
2026-01-15 15:33:53.86	36.11	20.23	-38.1	-48.5	3.5	3.02e+01	0	28	104	7340032	52	16254
2026-01-15 15:33:57.90	36.68	20.75	-42.6	-53.9	3.5	3.02e+01	0	28	104	7340032	56	24120
2026-01-15 15:34:01.94	37.28	21.29	-44.8	-57.9	3.5	3.02e+01	0	28	104	7340032	60	30151
2026-01-15 15:34:05.97	37.90	21.84	-35.4	-45.6	3.5	3.02e+01	0	28	104	7340032	46	16345
2026-01-15 15:34:10.01	38.54	22.40	-44.4	-56.4	3.6	3.02e+01	0	28	104	7340032	60	25462
2026-01-15 15:34:14.05	39.21	22.96	-36.4	-46.6	3.5	3.02e+01	0	28	104	7340032	48	16478
2026-01-15 15:34:18.09	39.91	23.54	-47.5	-63.6	3.5	3.02e+01	0	28	104	7340032	60	58259
2026-01-15 15:34:22.12	40.62	24.12	-35.0	-45.2	3.6	3.02e+01	0	28	104	7340032	46	15630
2026-01-15 15:34:26.16	41.37	24.72	-36.8	-47.2	3.5	3.02e+01	0	28	104	7340032	48	17613
2026-01-15 15:34:30.20	42.15	25.33	-36.8	-47.2	3.6	3.02e+01	0	28	104	7340032	48	17539
2026-01-15 15:34:34.23	42.95	25.94	-38.7	-49.2	3.5	3.02e+01	0	28	104	7340032	52	17524
2026-01-15 15:34:38.27	43.80	26.57	-47.8	-65.1	3.5	3.02e+01	0	28	104	7340032	60	69527
2026-01-15 15:34:42.31	44.67	27.21	-40.4	-51.2	3.5	3.02e+01	0	28	104	7340032	56	17650
2026-01-15 15:34:46.35	45.59	27.85	-36.9	-47.4	3.4	3.02e+01	0	28	104	7340032	54	12757
2026-01-15 15:34:50.39	46.54	28.51	-35.0	-45.3	3.5	3.02e+01	0	28	104	7340032	46	15772
2026-01-15 15:34:54.43	47.53	29.17	-48.1	-65.5	3.5	3.02e+01	0	28	104	7340032	60	72534
2026-01-15 15:34:58.46	48.56	29.84	-37.6	-48.0	3.6	3.02e+01	0	28	104	7340032	50	17106
2026-01-15 15:35:02.50	49.64	30.51	-35.7	-45.9	3.4	3.02e+01	0	28	104	7340032	46	17021
2026-01-15 15:35:06.54	50.76	31.20	-37.0	-47.3	3.5	3.02e+01	0	28	104	7340032	48	17813
2026-01-15 15:35:10.58	51.94	31.89	-38.9	-49.5	3.6	3.02e+01	0	28	104	7340032	52	18203
2026-01-15 15:35:14.62	53.17	32.58	-36.6	-46.8	3.6	3.02e+01	0	28	104	7340032	50	15035
2026-01-15 15:35:18.66	54.45	33.27	-38.7	-49.1	3.5	3.02e+01	0	28	104	7340032	48	21909
2026-01-15 15:35:22.69	55.79	33.97	-40.8	-51.6	3.5	3.02e+01	0	28	104	7340032	50	26075
2026-01-15 15:35:26.73	57.18	34.67	-37.2	-47.5	3.5	3.02e+01	0	28	104	7340032	50	16294
2026-01-15 15:35:30.77	58.64	35.36	-45.8	-58.7	3.5	3.02e+01	0	28	104	7340032	60	33102
2026-01-15 15:35:34.80	60.16	36.05	-38.0	-48.5	3.5	3.02e+01	0	28	104	7340032	50	18110
2026-01-15 15:35:38.84	61.75	36.73	-48.1	-65.3	3.5	3.02e+01	0	28	104	7340032	60	70682
2026-01-15 15:35:42.88	63.41	37.40	-35.9	-46.1	3.5	3.02e+01	0	28	104	7340032	46	17311
2026-01-15 15:35:46.91	65.13	38.05	-39.1	-49.7	3.5	3.02e+01	0	28	104	7340032	52	18707
2026-01-15 15:35:50.95	66.93	38.70	-38.5	-49.0	3.5	3.02e+01	0	28	104	7340032	54	15374
2026-01-15 15:35:54.99	68.80	39.32	-38.0	-48.3	3.6	3.02e+01	0	28	104	7340032	48	19854
2026-01-15 15:35:59.03	70.75	39.92	-47.2	-61.5	3.5	3.02e+01	0	28	104	7340032	60	45801
2026-01-15 15:36:03.04	72.75	40.49	-34.8	-44.9	3.5	3.02e+01	0	28	104	7340032	44	17038
2026-01-15 15:36:07.07	74.83	41.03	-44.8	-56.9	3.5	3.02e+01	0	28	104	7340032	60	27061
2026-01-15 15:36:11.11	76.99	41.54	-34.8	-45.1	3.5	3.02e+01	0	28	104	7340032	44	17336
2026-01-15 15:36:15.15	79.21	42.01	-48.0	-64.0	3.5	3.02e+01	0	28	104	7340032	60	60687
2026-01-15 15:36:19.19	81.50	42.44	-36.3	-46.6	3.5	3.02e+01	0	28	104	7340032	48	16398
2026-01-15 15:36:23.23	83.84	42.82	-35.5	-45.7	3.5	3.02e+01	0	28	104	7340032	48	14812
2026-01-15 15:36:27.26	86.24	43.15	-37.3	-47.6	3.5	3.02e+01	0	28	104	7340032	50	16393
2026-01-15 15:36:31.30	88.68	43.43	-38.2	-48.6	3.5	3.02e+01	0	28	104	7340032	50	18351
2026-01-15 15:36:35.34	91.17	43.66	-43.3	-54.8	3.5	3.02e+01	0	28	104	7340032	60	21066
2026-01-15 15:36:39.38	93.69	43.83	-35.2	-45.5	3.5	3.02e+01	0	28	104	7340032	44	18131
2026-01-15 15:36:43.41	96.22	43.93	-38.0	-48.6	3.5	3.02e+01	0	28	104	7340032	56	13107
2026-01-15 15:36:47.45	98.77	43.98	-36.8	-47.1	3.5	3.02e+01	0	28	104	7340032	48	17475
2026-01-15 15:36:51.48	101.32	43.97	-47.3	-62.3	3.6	3.02e+01	0	28	104	7340032	60	50004
2026-01-15 15:36:55.52	103.87	43.89	-35.7	-46.0	3.5	3.02e+01	0	28	104	7340032	46	17097
2026-01-15 15:36:59.56	106.40	43.75	-36.7	-46.9	3.5	3.02e+01	0	28	104	7340032	44	21400
2026-01-15 15:37:03.60	108.91	43.56	-34.8	-45.0	3.5	3.02e+01	0	28	104	7340032	44	17243
2026-01-15 15:37:07.63	111.37	43.31	-41.2	-52.1	3.5	3.02e+01	0	28	104	7340032	58	17463
2026-01-15 15:37:11.67	113.80	43.00	-38.6	-49.0	3.5	3.02e+01	0	28	104	7340032	54	15318
2026-01-15 15:37:15.71	116.18	42.64	-38.2	-48.7	3.5	3.02e+01	0	28	104	7340032	46	23327
2026-01-15 15:37:19.75	118.50	42.24	-41.1	-51.7	3.5	3.02e+01	0	28	104	7340032	50	26260
2026-01-15 15:37:23.79	120.76	41.79	-35.3	-36.5	28.7	3.02e+01	45	28	0	10485760	46	5778
2026-01-15 15:37:27.83	122.96	41.29	-34.8	-36.0	29.2	3.02e+01	59	28	0	17825792	44	6096
2026-01-15 15:37:31.87	125.09	40.77	-34.9	-36.1	29.1	3.02e+01	46	28	0	25690112	44	6198
2026-01-15 15:37:35.91	127.14	40.21	-35.0	-36.3	28.9	3.02e+01	60	28	0	33030144	44	6282
2026-01-15 15:37:39.95	129.13	39.62	-35.0	-36.2	29.0	3.02e+01	48	28	0	40894464	44	6253
2026-01-15 15:37:43.99	131.04	39.00	-35.2	-36.5	28.7	3.02e+01	60	28	0	48234496	44	6465
2026-01-15 15:37:48.02	132.87	38.37	-35.0	-36.3	28.9	3.02e+01	39	28	0	55574528	44	6314
2026-01-15 15:37:52.06	134.64	37.71	-34.8	-36.0	29.2	3.02e+01	57	28	0	63438848	44	6088
2026-01-15 15:37:56.09	136.33	37.05	-34.5	-35.7	29.4	3.02e+01	50	28	0	70778880	44	5880
2026-01-15 15:38:00.13	137.96	36.37	-34.2	-35.4	29.6	3.02e+01	60	28	0	78643200	44	5703
2026-01-15 15:38:04.17	139.52	35.68	-33.9	-35.1	30.0	3.02e+01	59	28	0	85983232	42	6176
2026-01-15 15:38:08.21	141.02	34.99	-33.9	-35.0	30.0	3.02e+01	60	28	0	93847552	42	6117
2026-01-15 15:38:12.24	142.45	34.29	-33.5	-34.6	30.2	3.02e+01	60	28	0	101187584	42	5856
2026-01-15 15:38:16.28	143.82	33.59	-33.3	-34.4	30.4	3.02e+01	58	28	0	108527616	42	5703
2026-01-15 15:38:20.32	145.13	32.89	-33.1	-34.3	30.5	3.02e+01	59	28	0	116391936	42	5605
2026-01-15 15:38:24.36	146.39	32.19	-33.0	-34.2	30.6	3.02e+01	62	28	0	123731968	40	6229
2026-01-15 15:38:28.40	147.59	31.50	-33.0	-34.2	30.6	3.02e+01	60	28	0	131596288	40	6222
2026-01-15 15:38:32.44	148.75	30.81	-32.9	-34.0	30.8	3.02e+01	60	28	0	138936320	40	6107
2026-01-15 15:38:36.48	149.85	30.12	-33.2	-34.4	30.4	3.02e+01	56	28	0	146800640	40	6396
2026-01-15 15:38:40.52	150.91	29.45	-33.0	-34.1	30.7	3.02e+01	61	28	0	154140672	40	6199
2026-01-15 15:38:44.55	151.92	28.78	-33.3	-34.5	30.4	3.02e+01	62	28	0	162004992	40	6453
2026-01-15 15:38:48.59	152.90	28.12	-33.3	-34.4	30.4	3.02e+01	58	28	0	169345024	40	6422
2026-01-15 15:38:52.63	153.83	27.46	-33.5	-34.7	30.2	3.02e+01	58	28	0	176685056	40	6624
2026-01-15 15:38:56.67	154.72	26.82	-33.7	-34.9	29.9	3.02e+01	57	28	0	184549376	40	6733
2026-01-15 15:39:00.70	155.58	26.19	-33.8	-34.9	29.7	3.02e+01	60	28	0	191889408	40	6800
2026-01-15 15:39:04.74	156.41	25.56	-33.7	-34.8	30.0	3.02e+01	58	28	0	199753728	40	6709
2026-01-15 15:39:08.78	157.20	24.94	-33.9	-35.1	29.8	3.02e+01	59	28	0	207093760	40	6901
2026-01-15 15:39:12.82	157.96	24.34	-33.9	-35.1	29.8	3.02e+01	54	28	0	214958080	42	6187
2026-01-15 15:39:16.86	158.70	23.74	-34.2	-35.4	29.7	3.02e+01	64	28	0	222298112	42	6358
2026-01-15 15:39:20.89	159.40	23.16	-34.2	-35.4	29.6	3.02e+01	58	28	0	230162432	42	6387
2026-01-15 15:39:24.93	160.08	22.59	-34.0	-35.2	29.6	3.02e+01	61	28	0	237502464	42	6240
2026-01-15 15:39:28.97	160.74	22.02	-33.9	-35.1	29.8	3.02e+01	59	28	0	244842496	42	6168
2026-01-15 15:39:33.01	161.37	21.47	-34.2	-35.4	29.5	3.02e+01	58	28	0	252706816	42	6373
2026-01-15 15:39:37.04	161.98	20.92	-34.1	-35.4	29.5	3.02e+01	52	28	0	260046848	42	6354
2026-01-15 15:39:41.08	162.57	20.39	-34.0	-35.2	29.7	3.02e+01	59	28	0	267911168	42	6206
2026-01-15 15:39:45.12	163.13	19.86	-33.9	-35.0	29.7	3.02e+01	51	28	0	275251200	42	6133
2026-01-15 15:39:49.15	163.68	19.35	-33.8	-35.0	29.8	3.02e+01	49	28	0	283115520	42	6113
2026-01-15 15:39:53.19	164.21	18.84	-33.7	-34.9	29.9	3.02e+01	46	28	0	290455552	42	6044
2026-01-15 15:39:57.23	164.72	18.34	-33.8	-34.9	29.9	3.02e+01	58	28	0	297795584	42	6060
2026-01-15 15:40:01.27	165.22	17.85	-33.7	-34.9	29.9	3.02e+01	55	28	0	305659904	42	6053
2026-01-15 15:40:05.31	165.70	17.37	-33.6	-34.8	29.9	3.02e+01	60	28	0	312999936	42	5975
2026-01-15 15:40:09.35	166.16	16.90	-33.7	-34.9	29.8	3.02e+01	43	28	0	320864256	42	6023
2026-01-15 15:40:13.39	166.61	16.44	-33.8	-35.0	29.8	3.02e+01	58	28	0	328204288	42	6107
2026-01-15 15:40:17.43	167.05	15.98	-33.8	-35.0	29.7	3.02e+01	56	28	0	336068608	42	6084
2026-01-15 15:40:21.47	167.47	15.53	-33.7	-34.8	29.8	3.02e+01	59	28	0	343408640	42	5987
2026-01-15 15:40:25.51	167.88	15.09	-33.8	-35.0	29.8	3.02e+01	57	28	0	351272960	42	6102
2026-01-15 15:40:29.55	168.28	14.66	-33.9	-35.1	29.6	3.02e+01	60	28	0	358612992	42	6190
2026-01-15 15:40:33.58	168.67	14.23	-34.0	-35.2	29.5	3.02e+01	58	28	0	365953024	42	6231
2026-01-15 15:40:37.62	169.04	13.82	-34.0	-35.2	29.5	3.02e+01	59	28	0	373817344	42	6267
2026-01-15 15:40:41.66	169.41	13.40	-34.1	-35.3	29.4	3.02e+01	60	28	0	381157376	42	6320
2026-01-15 15:40:45.70	169.76	13.00	-34.1	-35.3	29.4	3.02e+01	62	28	0	389021696	42	6325
2026-01-15 15:40:49.74	170.11	12.60	-34.1	-35.3	29.4	3.02e+01	51	28	0	396361728	42	6335
2026-01-15 15:40:53.78	170.44	12.21	-34.2	-35.4	29.3	3.02e+01	59	28	0	404226048	42	6388
2026-01-15 15:40:57.81	170.77	11.82	-34.3	-35.5	29.2	3.02e+01	57	28	0	411566080	42	6468
2026-01-15 15:41:01.85	171.09	11.44	-34.5	-35.7	29.1	3.02e+01	58	28	0	419430400	42	6620
2026-01-15 15:41:05.88	171.40	11.07	-34.5	-35.8	28.9	3.02e+01	56	28	0	426770432	42	6668
2026-01-15 15:41:09.92	171.70	10.70	-34.6	-35.8	28.8	3.02e+01	59	28	0	434110464	42	6705
2026-01-15 15:41:13.96	171.99	10.34	-34.8	-36.1	28.7	3.02e+01	59	28	0	441974784	42	6884
2026-01-15 15:41:18.00	172.28	9.98	-34.8	-36.1	28.6	3.02e+01	62	28	0	449314816	44	6135
2026-01-15 15:41:22.04	172.56	9.63	-34.9	-36.2	28.5	3.02e+01	57	28	0	457179136	44	6219
2026-01-15 15:41:26.08	172.83	9.28	-34.9	-36.1	28.5	3.02e+01	57	28	0	464519168	44	6193
2026-01-15 15:41:30.12	173.10	8.93	-34.9	-36.2	28.4	3.02e+01	61	28	0	472383488	44	6225
2026-01-15 15:41:34.15	173.36	8.60	-35.0	-36.2	28.4	3.02e+01	46	28	0	479723520	44	6273
2026-01-15 15:41:38.19	173.61	8.26	-35.1	-36.3	28.2	3.02e+01	57	28	0	487587840	44	6333
2026-01-15 15:41:42.23	173.86	7.93	-35.2	-36.5	28.1	3.02e+01	56	28	0	494927872	44	6469
2026-01-15 15:41:46.27	174.10	7.61	-35.5	-36.8	27.8	3.02e+01	57	28	0	502267904	44	6667
2026-01-15 15:41:50.31	174.34	7.29	-35.4	-36.7	27.8	3.02e+01	47	28	0	510132224	44	6624
2026-01-15 15:41:54.34	174.57	6.97	-35.6	-37.0	27.6	3.02e+01	61	28	0	517472256	44	6809
2026-01-15 15:41:58.38	174.80	6.66	-35.7	-37.1	27.5	3.02e+01	48	28	0	525336576	44	6887
2026-01-15 15:42:02.42	175.02	6.35	-35.9	-37.2	27.3	3.02e+01	58	28	0	532676608	44	7012
2026-01-15 15:42:06.46	175.24	6.04	-36.3	-37.6	27.0	3.02e+01	52	28	0	540540928	46	6559
2026-01-15 15:42:10.50	175.45	5.74	-36.3	-37.7	26.7	3.02e+01	57	28	0	547880960	46	6609
2026-01-15 15:42:14.54	175.66	5.45	-36.2	-37.6	26.9	3.02e+01	45	28	0	555220992	46	6505
2026-01-15 15:42:18.58	175.86	5.15	-36.3	-37.7	26.6	3.02e+01	61	28	0	563085312	46	6644
2026-01-15 15:42:22.62	176.06	4.86	-36.6	-38.0	26.4	3.02e+01	44	28	0	570425344	46	6818
2026-01-15 15:42:26.67	176.26	4.57	-36.6	-38.0	26.3	3.02e+01	58	28	0	578289664	46	6871
2026-01-15 15:42:30.70	176.45	4.29	-36.6	-38.1	26.2	3.02e+01	46	28	0	585629696	46	6896
2026-01-15 15:42:34.74	176.64	4.01	-36.7	-38.2	26.1	3.02e+01	60	28	0	593494016	46	6965
2026-01-15 15:42:38.78	176.83	3.73	-36.9	-38.4	25.8	3.02e+01	45	28	0	600834048	46	7178
2026-01-15 15:42:42.82	177.01	3.45	-37.1	-38.6	25.8	3.02e+01	58	28	0	608698368	48	6566
2026-01-15 15:42:46.85	177.19	3.18	-37.0	-38.5	25.6	3.02e+01	64	28	0	616038400	48	6471
2026-01-15 15:42:50.90	177.36	2.91	-47.4	-65.8	3.5	3.02e+01	0	28	104	620756992	60	74790
2026-01-15 15:42:54.94	177.53	2.64	-48.3	-66.3	3.5	3.02e+01	0	28	104	620756992	60	79781
2026-01-15 15:42:58.98	177.70	2.38	-48.6	-66.5	3.5	3.02e+01	0	28	104	620756992	60	81399
2026-01-15 15:43:03.01	177.87	2.11	-48.4	-66.4	3.5	3.02e+01	0	28	104	620756992	60	80725
2026-01-15 15:43:07.06	178.03	1.85	-48.5	-66.4	3.5	3.02e+01	0	28	104	620756992	60	80512
2026-01-15 15:43:11.09	178.19	1.60	-48.4	-66.3	3.5	3.02e+01	0	28	104	620756992	60	79859
2026-01-15 15:43:15.14	178.35	1.34	-48.4	-66.4	3.5	3.02e+01	0	28	104	620756992	60	80135
2026-01-15 15:43:19.17	178.50	1.09	-48.4	-66.3	3.5	3.02e+01	0	28	104	620756992	60	79379
2026-01-15 15:43:23.21	178.65	0.84	-48.4	-66.4	3.5	3.02e+01	0	28	104	620756992	60	80025
2026-01-15 15:43:27.25	178.80	0.59	-48.4	-66.4	3.5	3.02e+01	0	28	104	620756992	60	79981
2026-01-15 15:43:31.28	178.95	0.35	-48.4	-66.4	3.5	3.02e+01	0	28	104	620756992	60	80083
2026-01-15 15:43:35.32	179.09	0.10	-48.4	-66.4	3.5	3.02e+01	0	28	104	620756992	60	80255
2026-01-15 15:43:39.36	179.23	-0.14	-48.4	-66.4	3.5	3.02e+01	0	28	104	620756992	60	79953

#Closed at: 2026-01-15 15:43:39
#Recorded file [620 MB]: D:/lorett/data/35029_260116_032959.dat