passes_logs/2026/01/15/R4.6S_Anadyr/R4.6S_Anadyr__20260115_132447_NOAA_20_JPSS-1_rec.log

#Pass ID: 20260115_132447_NOAA 20 (JPSS-1)
#Satellite: NOAA 20 (JPSS-1)
#Configuration: NOAA 20
#almurnet v.1.7.20251203
#Start time: 2026-01-15 13:24:48

#Version: 2.2.20231116
#Station: R4.6S_Anadyr
#Location: 177.4865 lon 64.73178 lat
#TLE: 1 43013U 17073A   26014.55467351  .00000038  00000+0  38801-4 0  9992
#TLE: 2 43013  98.7635 315.4987 0001517  39.9279 320.2008 14.19535859422677

#Time	Az	El	Level	Level2	SNR	BER	BlckErr	Temp	State	Recorded	gain1	gain2
2026-01-15 13:24:48.36	18.83	0.04	-48.3	-63.2	3.5	1.51e+00	0	26	0	0	60	52308
2026-01-15 13:24:52.40	19.01	0.27	-48.2	-63.7	3.6	1.51e+00	0	27	104	0	60	55037
2026-01-15 13:24:56.43	19.19	0.50	-48.4	-63.6	3.6	1.51e+00	0	28	104	0	60	54618
2026-01-15 13:25:00.47	19.37	0.73	-47.7	-63.0	3.6	1.51e+00	0	28	104	0	60	50787
2026-01-15 13:25:04.51	19.55	0.96	-46.7	-61.9	3.6	1.51e+00	0	28	104	0	60	45081
2026-01-15 13:25:08.55	19.74	1.19	-46.7	-61.9	3.6	1.51e+00	0	28	104	0	60	45104
2026-01-15 13:25:12.59	19.92	1.43	-46.7	-61.9	3.6	1.51e+00	0	28	104	0	60	45057
2026-01-15 13:25:16.63	20.11	1.67	-46.7	-61.9	3.6	1.51e+00	0	28	104	0	60	44945
2026-01-15 13:25:20.67	20.31	1.91	-46.7	-61.9	3.6	1.51e+00	0	28	104	0	60	44880
2026-01-15 13:25:24.71	20.51	2.15	-46.7	-61.9	3.5	1.51e+00	0	28	104	0	60	44916
2026-01-15 13:25:28.75	20.70	2.39	-46.6	-61.0	3.6	1.51e+00	0	28	104	0	60	40761
2026-01-15 13:25:32.79	20.91	2.63	-46.5	-58.9	3.7	1.51e+00	0	28	104	0	60	31673
2026-01-15 13:25:36.83	21.11	2.88	-44.0	-47.5	13.4	2.28e-05	0	28	0	5242880	60	8526
2026-01-15 13:25:40.87	21.32	3.13	-41.9	-44.0	16.8	0.00e+00	0	28	0	12582912	58	6456
2026-01-15 13:25:44.91	21.53	3.38	-44.1	-47.8	13.0	6.80e-06	0	28	0	19922944	60	8879
2026-01-15 13:25:48.95	21.75	3.63	-45.6	-51.6	5.1	1.49e+00	0	28	104	26214400	60	13676
2026-01-15 13:25:52.99	21.97	3.89	-42.9	-45.5	15.4	0.00e+00	0	28	0	27262976	60	6780
2026-01-15 13:25:57.03	22.19	4.14	-41.7	-43.7	17.4	0.00e+00	0	28	0	34603008	58	6202
2026-01-15 13:26:01.07	22.41	4.40	-41.8	-43.7	17.6	0.00e+00	0	28	0	41943040	56	6976
2026-01-15 13:26:05.10	22.64	4.66	-41.5	-43.3	18.0	0.00e+00	0	28	0	50331648	56	6641
2026-01-15 13:26:09.14	22.88	4.92	-41.2	-42.9	18.3	0.00e+00	0	28	0	57671680	56	6323
2026-01-15 13:26:13.18	23.11	5.19	-41.2	-42.9	18.4	0.00e+00	0	28	0	65011712	56	6337
2026-01-15 13:26:17.22	23.35	5.46	-41.1	-42.7	18.7	0.00e+00	0	28	0	72351744	56	6199
2026-01-15 13:26:21.26	23.60	5.73	-40.9	-42.5	18.9	0.00e+00	0	28	0	80740352	56	6095
2026-01-15 13:26:25.29	23.85	6.00	-40.8	-42.4	19.1	0.00e+00	0	28	0	88080384	54	6693
2026-01-15 13:26:29.33	24.10	6.27	-40.5	-41.9	19.4	0.00e+00	0	28	0	95420416	54	6388
2026-01-15 13:26:33.37	24.36	6.55	-40.4	-41.8	19.6	0.00e+00	0	28	0	102760448	54	6276
2026-01-15 13:26:37.41	24.62	6.83	-40.2	-41.6	19.9	0.00e+00	0	28	0	110100480	54	6136
2026-01-15 13:26:41.45	24.89	7.11	-40.1	-41.5	19.9	0.00e+00	0	28	0	118489088	54	6079
2026-01-15 13:26:45.48	25.16	7.40	-40.1	-41.5	20.1	0.00e+00	0	28	0	125829120	54	6074
2026-01-15 13:26:49.52	25.44	7.68	-39.8	-41.1	20.5	0.00e+00	0	28	0	133169152	54	5792
2026-01-15 13:26:53.56	25.72	7.97	-39.6	-40.9	20.7	0.00e+00	0	28	0	140509184	52	6332
2026-01-15 13:26:57.60	26.01	8.27	-39.3	-40.5	21.0	0.00e+00	0	28	0	148897792	52	6091
2026-01-15 13:27:01.63	26.30	8.56	-39.4	-40.6	21.1	0.00e+00	0	28	0	156237824	52	6105
2026-01-15 13:27:05.67	26.60	8.86	-39.3	-40.5	21.1	0.00e+00	0	29	0	163577856	52	6086
2026-01-15 13:27:09.70	26.91	9.16	-39.7	-40.9	20.6	0.00e+00	0	29	0	170917888	52	6373
2026-01-15 13:27:13.74	27.22	9.47	-39.3	-40.5	21.2	0.00e+00	0	29	0	178257920	52	6054
2026-01-15 13:27:17.78	27.53	9.78	-39.0	-40.2	21.5	0.00e+00	0	29	0	186646528	52	5846
2026-01-15 13:27:21.82	27.86	10.09	-38.9	-40.0	21.7	0.00e+00	0	28	0	193986560	52	5712
2026-01-15 13:27:25.86	28.19	10.40	-38.8	-39.9	21.8	0.00e+00	0	29	0	201326592	50	6383
2026-01-15 13:27:29.89	28.52	10.72	-38.4	-39.5	22.1	0.00e+00	0	28	0	208666624	50	6042
2026-01-15 13:27:33.93	28.87	11.04	-38.2	-39.2	22.4	0.00e+00	0	29	0	217055232	50	5855
2026-01-15 13:27:37.96	29.22	11.36	-37.9	-38.9	22.7	0.00e+00	0	29	0	224395264	50	5655
2026-01-15 13:27:42.00	29.58	11.69	-37.6	-38.6	23.0	0.00e+00	0	29	0	231735296	48	6120
2026-01-15 13:27:46.04	29.94	12.02	-37.8	-38.8	22.8	0.00e+00	0	29	0	239075328	48	6263
2026-01-15 13:27:50.07	30.31	12.36	-37.8	-38.7	22.9	0.00e+00	0	29	0	246415360	48	6236
2026-01-15 13:27:54.11	30.70	12.70	-37.9	-38.9	22.8	0.00e+00	0	28	0	254803968	48	6320
2026-01-15 13:27:58.15	31.09	13.04	-37.6	-38.6	23.0	0.00e+00	0	28	0	262144000	48	6130
2026-01-15 13:28:02.19	31.49	13.38	-37.6	-38.6	23.1	0.00e+00	0	29	0	269484032	48	6129
2026-01-15 13:28:06.22	31.89	13.73	-37.6	-38.6	23.1	0.00e+00	0	29	0	276824064	48	6118
2026-01-15 13:28:10.26	32.31	14.09	-37.7	-38.7	23.0	0.00e+00	0	29	0	285212672	48	6207
2026-01-15 13:28:14.30	32.74	14.44	-37.5	-38.4	23.4	0.00e+00	0	29	0	292552704	48	5985
2026-01-15 13:28:18.34	33.18	14.80	-37.7	-38.6	23.1	0.00e+00	0	28	0	299892736	48	6143
2026-01-15 13:28:22.38	33.62	15.17	-37.6	-38.5	23.3	0.00e+00	0	29	0	307232768	48	6067
2026-01-15 13:28:26.42	34.08	15.54	-37.8	-38.8	23.0	0.00e+00	0	29	0	314572800	48	6289
2026-01-15 13:28:30.45	34.55	15.91	-38.2	-39.2	22.6	0.00e+00	0	28	0	322961408	48	6548
2026-01-15 13:28:34.50	35.03	16.29	-38.4	-39.4	22.4	0.00e+00	0	29	0	330301440	48	6718
2026-01-15 13:28:38.54	35.53	16.67	-38.7	-39.8	22.1	0.00e+00	0	28	0	337641472	50	6270
2026-01-15 13:28:42.58	36.03	17.05	-39.1	-40.2	21.8	0.00e+00	0	28	0	344981504	50	6565
2026-01-15 13:28:46.61	36.55	17.44	-38.8	-39.9	22.0	0.00e+00	0	29	0	353370112	50	6335
2026-01-15 13:28:50.65	37.08	17.84	-38.6	-39.6	22.3	0.00e+00	0	29	0	360710144	50	6160
2026-01-15 13:28:54.70	37.62	18.23	-38.6	-39.7	22.3	0.00e+00	0	29	0	368050176	50	6194
2026-01-15 13:28:58.74	38.18	18.63	-38.9	-40.0	22.0	0.00e+00	0	29	0	375390208	50	6415
2026-01-15 13:29:02.76	38.75	19.04	-38.8	-39.8	22.2	0.00e+00	0	29	0	382730240	50	6294
2026-01-15 13:29:06.79	39.34	19.45	-38.7	-39.8	22.2	0.00e+00	0	29	0	391118848	50	6265
2026-01-15 13:29:10.83	39.94	19.86	-38.5	-39.6	22.4	0.00e+00	0	29	0	398458880	50	6116
2026-01-15 13:29:14.87	40.56	20.28	-38.3	-39.3	22.6	0.00e+00	0	29	0	405798912	50	5942
2026-01-15 13:29:18.90	41.19	20.69	-38.1	-39.0	22.9	0.00e+00	0	29	0	413138944	50	5749
2026-01-15 13:29:22.94	41.84	21.12	-37.9	-38.9	23.1	0.00e+00	0	29	0	421527552	50	5665
2026-01-15 13:29:26.98	42.51	21.55	-37.5	-38.4	23.5	0.00e+00	0	29	0	428867584	48	6018
2026-01-15 13:29:31.02	43.20	21.98	-37.3	-38.2	23.6	0.00e+00	0	28	0	436207616	48	5881
2026-01-15 13:29:35.06	43.91	22.41	-37.1	-38.0	23.8	0.00e+00	0	29	0	443547648	48	5749
2026-01-15 13:29:39.09	44.63	22.85	-36.8	-37.6	24.2	0.00e+00	0	29	0	450887680	46	6138
2026-01-15 13:29:43.14	45.38	23.29	-36.6	-37.5	24.3	0.00e+00	0	28	0	459276288	46	6044
2026-01-15 13:29:47.18	46.15	23.73	-36.7	-37.6	24.2	0.00e+00	0	29	0	466616320	46	6135
2026-01-15 13:29:51.22	46.94	24.17	-36.6	-37.4	24.3	0.00e+00	0	29	0	473956352	46	6030
2026-01-15 13:29:55.26	47.75	24.62	-36.5	-37.3	24.5	0.00e+00	0	29	0	481296384	46	5915
2026-01-15 13:29:59.30	48.59	25.07	-36.4	-37.2	24.6	0.00e+00	0	29	0	489684992	46	5882
2026-01-15 13:30:03.34	49.44	25.52	-36.7	-37.5	24.3	0.00e+00	0	29	0	497025024	46	6075
2026-01-15 13:30:07.38	50.33	25.97	-37.0	-37.9	24.1	0.00e+00	0	29	0	504365056	46	6348
2026-01-15 13:30:11.41	51.23	26.42	-36.8	-37.6	24.3	0.00e+00	0	29	0	511705088	46	6144
2026-01-15 13:30:15.45	52.16	26.87	-37.4	-38.3	23.7	0.00e+00	0	29	0	519045120	46	6627
2026-01-15 13:30:19.49	53.12	27.32	-37.5	-38.5	23.5	0.00e+00	0	29	0	527433728	46	6771
2026-01-15 13:30:23.53	54.11	27.77	-38.4	-39.4	22.6	0.00e+00	0	29	0	534773760	48	6749
2026-01-15 13:30:27.57	55.12	28.21	-38.4	-39.4	22.7	0.00e+00	0	29	0	542113792	48	6722
2026-01-15 13:30:31.60	56.16	28.66	-39.1	-40.2	21.9	0.00e+00	0	29	0	549453824	50	6554
2026-01-15 13:30:35.64	57.23	29.10	-39.8	-41.0	21.3	0.00e+00	0	29	0	557842432	52	6401
2026-01-15 13:30:39.68	58.33	29.54	-40.8	-42.2	20.2	0.00e+00	0	29	0	565182464	54	6561
2026-01-15 13:30:43.72	59.45	29.97	-42.5	-44.3	18.2	0.00e+00	0	29	0	572522496	56	7508
2026-01-15 13:30:47.76	60.61	30.40	-42.6	-44.4	18.1	0.00e+00	0	29	0	579862528	56	7546
2026-01-15 13:30:51.79	61.80	30.81	-42.2	-43.9	18.5	0.00e+00	0	29	0	587202560	56	7153
2026-01-15 13:30:55.83	63.02	31.23	-42.2	-43.9	18.5	0.00e+00	0	29	0	595591168	56	7145
2026-01-15 13:30:59.87	64.27	31.63	-41.4	-42.9	19.6	0.00e+00	0	29	0	602931200	56	6318
2026-01-15 13:31:03.91	65.55	32.03	-39.9	-41.1	21.1	0.00e+00	0	29	0	610271232	54	5790
2026-01-15 13:31:07.94	66.85	32.41	-39.8	-41.1	21.3	0.00e+00	0	29	0	617611264	52	6504
2026-01-15 13:31:11.98	68.20	32.78	-38.7	-39.7	22.4	0.00e+00	0	29	0	625999872	50	6244
2026-01-15 13:31:16.02	69.57	33.14	-39.0	-40.1	22.1	0.00e+00	0	29	0	633339904	50	6526
2026-01-15 13:31:20.06	70.97	33.49	-38.1	-39.0	23.1	0.00e+00	0	29	0	640679936	50	5756
2026-01-15 13:31:24.10	72.40	33.81	-38.2	-39.2	23.0	0.00e+00	0	29	0	648019968	50	5832
2026-01-15 13:31:28.14	73.86	34.13	-38.9	-39.9	22.1	0.00e+00	0	29	0	655360000	50	6385
2026-01-15 13:31:32.18	75.34	34.42	-39.9	-41.1	21.3	0.00e+00	0	29	0	663748608	52	6486
2026-01-15 13:31:36.22	76.85	34.70	-40.4	-41.7	20.6	0.00e+00	0	29	0	671088640	52	7000
2026-01-15 13:31:40.26	78.39	34.96	-40.1	-41.4	21.0	0.00e+00	0	29	0	678428672	52	6695
2026-01-15 13:31:44.30	79.95	35.19	-39.1	-40.1	22.1	0.00e+00	0	29	0	685768704	52	5828
2026-01-15 13:31:48.34	81.53	35.41	-38.2	-39.2	23.0	0.00e+00	0	29	0	694157312	50	5852
2026-01-15 13:31:52.38	83.13	35.60	-38.4	-39.4	22.8	0.00e+00	0	29	0	701497344	50	5998
2026-01-15 13:31:56.42	84.75	35.77	-40.1	-41.3	21.1	0.00e+00	0	29	0	708837376	52	6665
2026-01-15 13:32:00.46	86.39	35.91	-40.2	-41.5	20.9	0.00e+00	0	29	0	716177408	52	6788
2026-01-15 13:32:04.49	88.03	36.03	-40.6	-41.9	20.5	0.00e+00	0	29	0	723517440	54	6322
2026-01-15 13:32:08.53	89.69	36.12	-40.8	-42.2	20.2	0.00e+00	0	29	0	731906048	54	6541
2026-01-15 13:32:12.57	91.35	36.18	-40.5	-41.9	20.5	0.00e+00	0	29	0	739246080	54	6320
2026-01-15 13:32:16.61	93.02	36.22	-39.7	-40.8	21.5	0.00e+00	0	29	0	746586112	52	6280
2026-01-15 13:32:20.65	94.70	36.23	-40.0	-41.3	21.0	0.00e+00	0	29	0	753926144	52	6648
2026-01-15 13:32:24.69	96.37	36.22	-38.8	-39.8	22.4	0.00e+00	0	29	0	762314752	52	5604
2026-01-15 13:32:28.72	98.04	36.18	-39.5	-40.6	21.7	0.00e+00	0	29	0	769654784	50	6899
2026-01-15 13:32:32.77	99.71	36.11	-38.3	-39.4	22.7	0.00e+00	0	29	0	776994816	50	5989
2026-01-15 13:32:36.80	101.36	36.01	-39.9	-41.0	21.3	0.00e+00	0	29	0	784334848	52	6439
2026-01-15 13:32:40.84	103.01	35.89	-41.3	-42.8	19.5	0.00e+00	0	29	0	791674880	54	7060
2026-01-15 13:32:44.88	104.64	35.75	-40.1	-41.4	21.0	0.00e+00	0	29	0	800063488	54	5971
2026-01-15 13:32:48.92	106.26	35.58	-40.0	-41.3	21.0	0.00e+00	0	29	0	807403520	54	5961
2026-01-15 13:32:52.95	107.86	35.39	-40.2	-41.6	20.9	0.00e+00	0	29	0	814743552	52	6856
2026-01-15 13:32:56.99	109.44	35.17	-38.9	-39.9	22.4	0.00e+00	0	29	0	822083584	52	5660
2026-01-15 13:33:01.04	111.00	34.93	-38.8	-39.8	22.4	0.00e+00	0	29	0	830472192	50	6300
2026-01-15 13:33:05.08	112.54	34.67	-38.1	-39.1	23.1	0.00e+00	0	29	0	837812224	50	5794
2026-01-15 13:33:09.11	114.05	34.39	-37.8	-38.8	23.3	0.00e+00	0	29	0	845152256	48	6258
2026-01-15 13:33:13.15	115.53	34.09	-38.4	-39.4	22.8	0.00e+00	0	29	0	852492288	50	5976
2026-01-15 13:33:17.19	116.99	33.78	-38.8	-39.8	22.4	0.00e+00	0	29	0	859832320	50	6299
2026-01-15 13:33:21.22	118.42	33.44	-38.1	-39.1	22.8	0.00e+00	0	29	0	868220928	50	5765
2026-01-15 13:33:25.26	119.82	33.10	-39.2	-40.3	22.1	0.00e+00	0	29	0	875560960	50	6621
2026-01-15 13:33:29.29	121.19	32.73	-40.0	-41.2	21.2	0.00e+00	0	29	0	882900992	52	6559
2026-01-15 13:33:33.32	122.53	32.36	-39.8	-41.0	21.3	0.00e+00	0	29	0	890241024	54	5702
2026-01-15 13:33:37.36	123.84	31.97	-40.6	-41.9	20.3	0.00e+00	0	29	0	897581056	54	6378
2026-01-15 13:33:41.40	125.12	31.58	-39.4	-40.5	22.1	0.00e+00	0	29	0	905969664	52	6040
2026-01-15 13:33:45.43	126.36	31.17	-40.4	-41.7	20.6	0.00e+00	0	29	0	913309696	54	6200
2026-01-15 13:33:49.47	127.58	30.75	-40.6	-41.9	20.4	0.00e+00	0	29	0	920649728	52	7124
2026-01-15 13:33:53.51	128.77	30.33	-38.3	-39.2	23.0	0.00e+00	0	29	0	927989760	50	5877
2026-01-15 13:33:57.55	129.93	29.90	-39.6	-40.7	21.5	0.00e+00	0	29	0	936378368	50	6977
2026-01-15 13:34:01.59	131.06	29.47	-38.5	-39.5	22.5	0.00e+00	0	29	0	943718400	50	6083
2026-01-15 13:34:05.62	132.15	29.03	-40.8	-42.2	20.2	0.00e+00	0	29	0	951058432	54	6541
2026-01-15 13:34:09.67	133.23	28.58	-40.7	-42.0	20.2	0.00e+00	0	29	0	958398464	54	6453
2026-01-15 13:34:13.70	134.26	28.14	-39.9	-41.1	21.3	0.00e+00	0	29	0	965738496	52	6528
2026-01-15 13:34:17.74	135.28	27.69	-40.8	-42.1	19.7	0.00e+00	0	29	0	974127104	54	6518
2026-01-15 13:34:21.78	136.26	27.24	-37.1	-37.9	23.9	0.00e+00	0	29	0	981467136	48	5692
2026-01-15 13:34:25.81	137.22	26.78	-38.0	-39.0	22.9	0.00e+00	0	29	0	988807168	48	6441
2026-01-15 13:34:29.85	138.15	26.33	-37.1	-38.0	23.9	0.00e+00	0	29	0	996147200	48	5724
2026-01-15 13:34:33.89	139.06	25.88	-37.0	-37.9	23.9	0.00e+00	0	29	0	1004535808	46	6371
2026-01-15 13:34:37.93	139.94	25.42	-36.7	-37.6	24.2	0.00e+00	0	29	0	1011875840	46	6118
2026-01-15 13:34:41.97	140.80	24.97	-36.3	-37.2	24.4	0.00e+00	0	29	0	1019215872	46	5889
2026-01-15 13:34:46.00	141.63	24.52	-35.7	-36.6	25.2	0.00e+00	0	29	0	1026555904	46	5443
2026-01-15 13:34:50.04	142.44	24.07	-35.2	-36.0	25.4	0.00e+00	0	29	0	1033895936	44	5714
2026-01-15 13:34:54.08	143.23	23.63	-36.1	-37.0	24.6	0.00e+00	0	29	0	1042284544	44	6404
2026-01-15 13:34:58.11	143.99	23.18	-35.3	-36.0	25.4	0.00e+00	0	29	0	1049624576	44	5752
2026-01-15 13:35:02.15	144.74	22.74	-36.0	-36.8	24.8	0.00e+00	0	29	0	1056964608	44	6292
2026-01-15 13:35:06.19	145.46	22.30	-36.1	-36.9	24.8	0.00e+00	0	29	0	1064304640	44	6358
2026-01-15 13:35:10.23	146.17	21.86	-35.8	-36.6	25.1	0.00e+00	0	29	0	1072693248	44	6155
2026-01-15 13:35:14.27	146.86	21.43	-36.2	-37.0	24.7	0.00e+00	0	29	0	1080033280	44	6411
2026-01-15 13:35:18.31	147.53	21.00	-36.2	-37.0	24.7	0.00e+00	0	29	0	1087373312	44	6439
2026-01-15 13:35:22.35	148.18	20.58	-36.5	-37.3	24.4	0.00e+00	0	29	0	1094713344	44	6650
2026-01-15 13:35:26.39	148.81	20.15	-36.6	-37.4	24.3	0.00e+00	0	29	0	1102053376	46	6003
2026-01-15 13:35:30.43	149.43	19.73	-36.2	-37.0	24.6	0.00e+00	0	29	0	1110441984	46	5717
2026-01-15 13:35:34.47	150.03	19.32	-37.5	-38.4	23.5	0.00e+00	0	29	0	1117782016	46	6713
2026-01-15 13:35:38.51	150.62	18.91	-37.3	-38.3	23.5	0.00e+00	0	29	0	1125122048	46	6617
2026-01-15 13:35:42.55	151.19	18.50	-37.5	-38.4	23.4	0.00e+00	0	29	0	1132462080	46	6718
2026-01-15 13:35:46.59	151.74	18.10	-38.6	-39.6	22.2	0.00e+00	0	29	0	1140850688	48	6927
2026-01-15 13:35:50.63	152.29	17.70	-37.9	-38.9	23.0	0.00e+00	0	29	0	1148190720	48	6324
2026-01-15 13:35:54.67	152.81	17.30	-37.1	-38.1	23.5	0.00e+00	0	29	0	1155530752	48	5768
2026-01-15 13:35:58.71	153.33	16.91	-38.3	-39.3	22.3	0.00e+00	0	29	0	1162870784	48	6680
2026-01-15 13:36:02.68	153.82	16.53	-39.9	-41.5	20.0	0.00e+00	0	29	0	1170210816	52	6790
2026-01-15 13:36:06.72	154.32	16.15	-40.8	-42.5	18.7	0.00e+00	0	29	0	1178599424	52	7608
2026-01-15 13:36:10.75	154.79	15.77	-41.5	-43.4	17.6	0.00e+00	0	29	0	1185939456	54	7558
2026-01-15 13:36:14.79	155.26	15.40	-41.3	-43.1	18.0	0.00e+00	0	29	0	1193279488	54	7295
2026-01-15 13:36:18.83	155.72	15.03	-40.8	-42.5	18.7	0.00e+00	0	29	0	1200619520	54	6812
2026-01-15 13:36:22.86	156.16	14.66	-39.6	-40.8	20.7	0.00e+00	0	29	0	1209008128	52	6317
2026-01-15 13:36:26.90	156.60	14.30	-38.0	-39.0	22.6	0.00e+00	0	29	0	1216348160	50	5738
2026-01-15 13:36:30.94	157.02	13.94	-37.6	-38.5	23.1	0.00e+00	0	29	0	1223688192	48	6073
2026-01-15 13:36:34.98	157.44	13.58	-37.9	-38.8	22.9	0.00e+00	0	29	0	1231028224	48	6302
2026-01-15 13:36:39.02	157.85	13.23	-38.1	-39.2	22.5	0.00e+00	0	29	0	1238368256	48	6553
2026-01-15 13:36:43.06	158.24	12.89	-38.3	-39.3	22.3	0.00e+00	0	29	0	1246756864	48	6672
2026-01-15 13:36:47.10	158.63	12.54	-38.0	-39.0	22.6	0.00e+00	0	29	0	1254096896	48	6440
2026-01-15 13:36:51.13	159.01	12.20	-37.8	-38.8	22.8	0.00e+00	0	29	0	1261436928	48	6305
2026-01-15 13:36:55.17	159.38	11.87	-37.8	-38.8	22.8	0.00e+00	0	29	0	1268776960	48	6277
2026-01-15 13:36:59.20	159.74	11.53	-38.0	-39.0	22.6	0.00e+00	0	29	0	1277165568	48	6410
2026-01-15 13:37:03.24	160.10	11.21	-38.2	-39.2	22.3	0.00e+00	0	29	0	1284505600	48	6593
2026-01-15 13:37:07.27	160.45	10.88	-38.6	-39.7	21.9	0.00e+00	0	29	0	1291845632	48	6958
2026-01-15 13:37:11.31	160.79	10.56	-38.7	-39.8	21.7	0.00e+00	0	29	0	1299185664	50	6296
2026-01-15 13:37:15.34	161.12	10.24	-38.9	-40.0	21.5	0.00e+00	0	29	0	1306525696	50	6452
2026-01-15 13:37:19.38	161.45	9.92	-38.9	-40.0	21.6	0.00e+00	0	29	0	1314914304	50	6429
2026-01-15 13:37:23.42	161.77	9.61	-38.9	-40.1	21.5	0.00e+00	0	29	0	1322254336	50	6473
2026-01-15 13:37:27.46	162.08	9.30	-39.2	-40.4	21.1	0.00e+00	0	29	0	1329594368	50	6742
2026-01-15 13:37:31.50	162.39	8.99	-39.5	-40.7	20.9	0.00e+00	0	29	0	1336934400	50	6953
2026-01-15 13:37:35.53	162.69	8.69	-39.6	-40.9	20.7	0.00e+00	0	29	0	1344274432	52	6354
2026-01-15 13:37:39.58	162.99	8.39	-40.0	-41.3	20.3	0.00e+00	0	29	0	1352663040	52	6625
2026-01-15 13:37:43.61	163.28	8.09	-39.9	-41.2	20.4	0.00e+00	0	29	0	1360003072	52	6576
2026-01-15 13:37:47.65	163.57	7.80	-39.9	-41.2	20.3	0.00e+00	0	29	0	1367343104	52	6540
2026-01-15 13:37:51.69	163.84	7.51	-39.8	-41.1	20.3	0.00e+00	0	29	0	1374683136	52	6514
2026-01-15 13:37:55.72	164.12	7.22	-39.8	-41.1	20.3	0.00e+00	0	29	0	1383071744	52	6524
2026-01-15 13:37:59.76	164.39	6.93	-40.1	-41.4	19.9	0.00e+00	0	29	0	1390411776	52	6733
2026-01-15 13:38:03.80	164.65	6.65	-40.3	-41.7	19.7	0.00e+00	0	29	0	1397751808	52	6961
2026-01-15 13:38:07.84	164.91	6.37	-40.6	-42.1	19.2	0.00e+00	0	29	0	1405091840	52	7312
2026-01-15 13:38:11.88	165.17	6.09	-41.0	-42.6	18.7	0.00e+00	0	29	0	1412431872	54	6867
2026-01-15 13:38:15.92	165.42	5.81	-41.2	-42.9	18.4	0.00e+00	0	29	0	1420820480	54	7116
2026-01-15 13:38:19.96	165.66	5.54	-41.5	-43.4	17.9	0.00e+00	0	29	0	1428160512	54	7516
2026-01-15 13:38:24.00	165.90	5.27	-41.7	-43.6	17.7	0.00e+00	0	29	0	1435500544	56	6925
2026-01-15 13:38:28.04	166.14	5.00	-41.7	-43.6	17.7	0.00e+00	0	29	0	1442840576	56	6905
2026-01-15 13:38:32.08	166.38	4.73	-41.5	-43.4	17.9	0.00e+00	0	29	0	1451229184	56	6711
2026-01-15 13:38:36.12	166.60	4.47	-41.4	-43.2	17.9	0.00e+00	0	29	0	1458569216	56	6587
2026-01-15 13:38:40.16	166.83	4.21	-41.3	-43.0	18.1	0.00e+00	0	29	0	1465909248	56	6449
2026-01-15 13:38:44.20	167.05	3.95	-41.1	-42.8	18.3	0.00e+00	0	29	0	1473249280	56	6277
2026-01-15 13:38:48.24	167.27	3.69	-41.1	-42.8	18.1	0.00e+00	0	29	0	1480589312	56	6285
2026-01-15 13:38:52.27	167.48	3.44	-41.2	-42.9	18.0	0.00e+00	0	29	0	1488977920	56	6388
2026-01-15 13:38:56.31	167.70	3.18	-41.3	-43.1	17.7	0.00e+00	0	29	0	1496317952	56	6509
2026-01-15 13:39:00.35	167.90	2.93	-47.2	-62.4	3.6	1.51e+00	0	29	104	1502609408	60	47491
2026-01-15 13:39:04.39	168.11	2.68	-48.3	-63.5	3.6	1.51e+00	0	29	104	1502609408	60	53977
2026-01-15 13:39:08.42	168.31	2.44	-48.5	-63.7	3.6	1.51e+00	0	29	104	1502609408	60	55481
2026-01-15 13:39:12.46	168.51	2.19	-48.4	-63.6	3.6	1.51e+00	0	29	104	1502609408	60	54801
2026-01-15 13:39:16.50	168.70	1.95	-48.4	-63.6	3.6	1.51e+00	0	29	104	1502609408	60	54849
2026-01-15 13:39:20.54	168.90	1.70	-48.4	-63.5	3.6	1.51e+00	0	29	104	1502609408	60	54375
2026-01-15 13:39:24.58	169.09	1.46	-48.4	-63.6	3.6	1.51e+00	0	29	104	1502609408	60	54448
2026-01-15 13:39:28.61	169.27	1.23	-48.4	-63.6	3.6	1.51e+00	0	29	104	1502609408	60	54451
2026-01-15 13:39:32.65	169.46	0.99	-48.4	-63.6	3.6	1.51e+00	0	29	104	1502609408	60	54499
2026-01-15 13:39:36.69	169.64	0.75	-48.4	-63.6	3.6	1.51e+00	0	29	104	1502609408	60	54437
2026-01-15 13:39:40.73	169.82	0.52	-48.4	-63.6	3.6	1.51e+00	0	29	104	1502609408	60	54736
2026-01-15 13:39:44.77	169.99	0.29	-48.4	-63.5	3.6	1.51e+00	0	29	104	1502609408	60	54350
2026-01-15 13:39:48.81	170.17	0.06	-48.4	-63.6	3.6	1.51e+00	0	29	104	1502609408	60	54481

#Closed at: 2026-01-15 13:39:51
#Recorded file [1502 MB]: D:/lorett/data/35029_260116_012448.dat