passes_logs/2026/01/15/R4.6S_Anadyr/R4.6S_Anadyr__20260115_141451_NOAA_21_JPSS-2_rec.log

#Pass ID: 20260115_141451_NOAA 21 (JPSS-2)
#Satellite: NOAA 21 (JPSS-2)
#Configuration: NOAA-21
#almurnet v.1.7.20251203
#Start time: 2026-01-15 14:14:53

#Version: 2.2.20231116
#Station: R4.6S_Anadyr
#Location: 177.4865 lon 64.73178 lat
#TLE: 1 54234U 22150A   26014.58979933  .00000039  00000+0  39403-4 0  9998
#TLE: 2 54234  98.7497 315.4945 0000653 294.6373  65.4735 14.19534652164756

#Time	Az	El	Level	Level2	SNR	BER	BlckErr	Temp	State	Recorded	gain1	gain2
2026-01-15 14:14:53.99	19.66	0.12	-48.4	-63.2	3.5	1.51e+00	0	26	0	0	60	52337
2026-01-15 14:14:58.03	19.74	0.36	-48.3	-61.3	3.5	1.52e+00	0	27	104	0	60	40693
2026-01-15 14:15:02.07	19.81	0.60	-48.3	-61.3	3.5	1.52e+00	0	27	104	0	60	40759
2026-01-15 14:15:06.11	19.89	0.85	-48.1	-60.9	3.5	1.52e+00	0	28	104	0	60	38924
2026-01-15 14:15:10.15	19.96	1.09	-47.1	-59.9	3.5	1.52e+00	0	28	104	0	60	34786
2026-01-15 14:15:14.19	20.04	1.34	-46.8	-59.6	3.5	1.52e+00	0	28	104	0	60	33448
2026-01-15 14:15:18.23	20.12	1.59	-46.8	-59.6	3.5	1.52e+00	0	28	104	0	60	33349
2026-01-15 14:15:22.27	20.20	1.84	-46.8	-59.6	3.5	1.52e+00	0	28	104	0	60	33402
2026-01-15 14:15:26.31	20.28	2.10	-46.8	-59.6	3.5	1.52e+00	0	28	104	0	60	33348
2026-01-15 14:15:30.34	20.36	2.35	-46.6	-57.9	3.5	1.51e+00	0	28	104	0	60	27658
2026-01-15 14:15:34.38	20.45	2.61	-46.6	-57.6	3.5	1.50e+00	0	28	104	0	60	26690
2026-01-15 14:15:38.42	20.53	2.87	-44.7	-48.9	9.6	3.87e-02	123	28	0	1048576	60	9736
2026-01-15 14:15:42.46	20.62	3.14	-40.1	-41.8	17.1	0.00e+00	123	28	0	13631488	54	6070
2026-01-15 14:15:46.50	20.71	3.40	-38.2	-39.6	19.1	0.00e+00	120	28	0	26214400	50	5952
2026-01-15 14:15:50.54	20.79	3.67	-40.8	-42.6	16.2	0.00e+00	123	28	0	38797312	52	7520
2026-01-15 14:15:54.58	20.88	3.94	-42.7	-45.3	12.8	4.53e-02	120	28	0	51380224	58	7228
2026-01-15 14:15:58.61	20.97	4.22	-39.5	-41.1	17.8	0.00e+00	123	28	0	53477376	52	6320
2026-01-15 14:16:02.65	21.07	4.49	-38.3	-39.6	19.3	0.00e+00	122	28	0	66060288	50	5933
2026-01-15 14:16:06.69	21.16	4.77	-37.4	-38.6	20.1	0.00e+00	123	28	0	78643200	48	5983
2026-01-15 14:16:10.74	21.25	5.06	-37.3	-38.5	20.3	0.00e+00	123	28	0	91226112	48	5874
2026-01-15 14:16:14.78	21.35	5.34	-37.1	-38.3	20.5	0.00e+00	123	28	0	103809024	48	5762
2026-01-15 14:16:18.82	21.45	5.63	-37.0	-38.1	20.7	0.00e+00	123	28	0	116391936	48	5646
2026-01-15 14:16:22.86	21.55	5.92	-37.0	-38.1	20.8	0.00e+00	123	28	0	128974848	48	5636
2026-01-15 14:16:26.90	21.65	6.22	-36.9	-38.0	20.8	0.00e+00	122	28	0	141557760	48	5569
2026-01-15 14:16:30.94	21.75	6.52	-36.9	-38.0	21.0	0.00e+00	123	28	0	154140672	48	5584
2026-01-15 14:16:34.97	21.86	6.82	-36.6	-37.7	21.3	0.00e+00	123	29	0	166723584	46	6009
2026-01-15 14:16:39.01	21.96	7.12	-36.3	-37.4	21.5	0.00e+00	121	28	0	179306496	46	5816
2026-01-15 14:16:43.05	22.07	7.43	-36.2	-37.2	21.6	0.00e+00	122	28	0	191889408	46	5721
2026-01-15 14:16:47.08	22.18	7.74	-36.2	-37.2	21.7	0.00e+00	123	28	0	204472320	46	5703
2026-01-15 14:16:51.12	22.30	8.06	-36.1	-37.2	21.7	0.00e+00	123	29	0	217055232	46	5670
2026-01-15 14:16:55.16	22.41	8.38	-36.4	-37.5	21.4	0.00e+00	122	28	0	229638144	46	5901
2026-01-15 14:16:59.20	22.53	8.71	-36.1	-37.1	21.9	0.00e+00	122	28	0	242221056	46	5642
2026-01-15 14:17:03.23	22.65	9.03	-35.6	-36.6	22.4	0.00e+00	122	29	0	254803968	44	5943
2026-01-15 14:17:07.27	22.77	9.37	-35.5	-36.5	22.4	0.00e+00	120	29	0	267386880	44	5918
2026-01-15 14:17:11.31	22.89	9.70	-35.4	-36.4	22.5	0.00e+00	123	29	0	279969792	44	5857
2026-01-15 14:17:15.35	23.02	10.05	-35.2	-36.2	22.7	0.00e+00	122	29	0	292552704	44	5709
2026-01-15 14:17:19.39	23.15	10.39	-35.2	-36.2	22.8	0.00e+00	122	29	0	305135616	44	5697
2026-01-15 14:17:23.43	23.28	10.75	-35.2	-36.2	22.8	0.00e+00	123	29	0	317718528	44	5668
2026-01-15 14:17:27.47	23.41	11.10	-35.0	-35.9	23.1	0.00e+00	122	29	0	331350016	44	5508
2026-01-15 14:17:31.51	23.55	11.46	-35.0	-36.0	23.0	0.00e+00	123	29	0	343932928	44	5556
2026-01-15 14:17:35.54	23.69	11.83	-34.8	-35.7	23.3	0.00e+00	122	29	0	356515840	42	6032
2026-01-15 14:17:39.58	23.83	12.20	-34.6	-35.5	23.4	0.00e+00	120	29	0	369098752	42	5921
2026-01-15 14:17:43.62	23.98	12.58	-34.8	-35.7	23.3	0.00e+00	123	29	0	381681664	42	6043
2026-01-15 14:17:47.65	24.13	12.96	-34.5	-35.4	23.6	0.00e+00	123	29	0	394264576	42	5812
2026-01-15 14:17:51.70	24.28	13.36	-34.3	-35.3	23.7	0.00e+00	121	29	0	406847488	42	5744
2026-01-15 14:17:55.73	24.44	13.75	-34.2	-35.2	23.9	0.00e+00	123	29	0	419430400	42	5663
2026-01-15 14:17:59.77	24.60	14.15	-34.1	-35.1	23.9	0.00e+00	120	29	0	432013312	42	5602
2026-01-15 14:18:03.82	24.76	14.56	-34.3	-35.2	23.8	0.00e+00	123	29	0	444596224	42	5688
2026-01-15 14:18:07.85	24.93	14.98	-34.4	-35.3	23.8	0.00e+00	122	29	0	457179136	42	5761
2026-01-15 14:18:11.89	25.10	15.40	-34.2	-35.1	23.9	0.00e+00	120	29	0	469762048	42	5645
2026-01-15 14:18:15.93	25.28	15.83	-34.2	-35.1	23.8	0.00e+00	123	29	0	482344960	42	5640
2026-01-15 14:18:19.97	25.46	16.27	-34.3	-35.2	23.8	0.00e+00	122	29	0	494927872	42	5722
2026-01-15 14:18:24.00	25.65	16.71	-34.3	-35.3	23.8	0.00e+00	122	29	0	507510784	42	5733
2026-01-15 14:18:28.04	25.84	17.17	-34.6	-35.5	23.6	0.00e+00	123	29	0	520093696	42	5901
2026-01-15 14:18:32.07	26.04	17.63	-34.7	-35.6	23.5	0.00e+00	122	29	0	532676608	42	5970
2026-01-15 14:18:36.11	26.24	18.10	-34.8	-35.7	23.5	0.00e+00	123	29	0	545259520	42	6046
2026-01-15 14:18:40.14	26.45	18.58	-34.7	-35.7	23.5	0.00e+00	122	29	0	557842432	42	6006
2026-01-15 14:18:44.18	26.66	19.07	-34.6	-35.5	23.7	0.00e+00	123	29	0	570425344	42	5896
2026-01-15 14:18:48.22	26.88	19.57	-34.4	-35.4	23.8	0.00e+00	120	29	0	583008256	42	5793
2026-01-15 14:18:52.26	27.11	20.07	-34.1	-35.0	24.0	0.00e+00	120	29	0	595591168	42	5570
2026-01-15 14:18:56.30	27.35	20.59	-33.9	-34.8	24.0	0.00e+00	120	29	0	608174080	42	5464
2026-01-15 14:19:00.34	27.59	21.12	-33.4	-34.3	24.5	0.00e+00	123	29	0	620756992	40	5767
2026-01-15 14:19:04.38	27.84	21.66	-33.1	-34.0	24.6	0.00e+00	122	29	0	633339904	40	5572
2026-01-15 14:19:08.42	28.10	22.21	-33.0	-33.9	24.8	0.00e+00	120	29	0	645922816	40	5493
2026-01-15 14:19:12.46	28.37	22.77	-32.9	-33.8	25.0	0.00e+00	120	29	0	658505728	40	5441
2026-01-15 14:19:16.49	28.65	23.35	-32.9	-33.8	25.0	0.00e+00	123	29	0	671088640	40	5410
2026-01-15 14:19:20.53	28.93	23.93	-32.9	-33.8	25.0	0.00e+00	121	29	0	683671552	40	5408
2026-01-15 14:19:24.57	29.23	24.53	-33.0	-33.9	24.9	0.00e+00	123	29	0	697303040	40	5470
2026-01-15 14:19:28.61	29.54	25.15	-33.2	-34.1	24.8	0.00e+00	123	29	0	709885952	40	5622
2026-01-15 14:19:32.64	29.86	25.77	-33.2	-34.1	24.9	0.00e+00	123	29	0	722468864	40	5616
2026-01-15 14:19:36.67	30.19	26.41	-33.8	-34.6	24.5	0.00e+00	124	29	0	735051776	40	5992
2026-01-15 14:19:40.71	30.53	27.07	-34.1	-35.0	24.2	0.00e+00	123	29	0	747634688	40	6231
2026-01-15 14:19:44.75	30.89	27.74	-34.3	-35.2	24.1	0.00e+00	120	29	0	760217600	40	6391
2026-01-15 14:19:48.79	31.27	28.42	-34.5	-35.4	23.9	0.00e+00	122	29	0	772800512	40	6518
2026-01-15 14:19:52.83	31.66	29.13	-34.4	-35.4	23.9	0.00e+00	123	29	0	785383424	40	6501
2026-01-15 14:19:56.86	32.06	29.84	-34.1	-35.0	24.1	0.00e+00	123	29	0	797966336	40	6268
2026-01-15 14:20:00.90	32.49	30.58	-33.8	-34.7	24.5	0.00e+00	122	29	0	810549248	40	6024
2026-01-15 14:20:04.95	32.93	31.34	-33.6	-34.5	24.6	0.00e+00	124	29	0	823132160	40	5923
2026-01-15 14:20:08.99	33.40	32.11	-33.7	-34.6	24.5	0.00e+00	123	29	0	835715072	40	5967
2026-01-15 14:20:13.03	33.89	32.90	-34.2	-35.1	24.1	0.00e+00	123	29	0	848297984	40	6314
2026-01-15 14:20:17.07	34.40	33.71	-34.3	-35.2	24.1	0.00e+00	122	29	0	860880896	40	6384
2026-01-15 14:20:21.11	34.93	34.54	-34.8	-35.7	23.7	0.00e+00	123	29	0	873463808	42	6040
2026-01-15 14:20:25.15	35.49	35.38	-35.5	-36.4	23.1	0.00e+00	122	29	0	886046720	42	6558
2026-01-15 14:20:29.19	36.09	36.25	-35.9	-36.8	22.9	0.00e+00	123	29	0	898629632	44	6130
2026-01-15 14:20:33.23	36.71	37.14	-36.1	-37.2	22.5	0.00e+00	123	29	0	911212544	44	6354
2026-01-15 14:20:37.28	37.37	38.06	-36.4	-37.4	22.2	0.00e+00	122	29	0	923795456	44	6572
2026-01-15 14:20:41.31	38.07	38.98	-36.4	-37.5	22.2	0.00e+00	122	29	0	936378368	44	6580
2026-01-15 14:20:45.35	38.80	39.94	-36.2	-37.2	22.4	0.00e+00	122	29	0	948961280	44	6387
2026-01-15 14:20:49.39	39.58	40.91	-36.3	-37.4	22.4	0.00e+00	123	29	0	961544192	44	6499
2026-01-15 14:20:53.43	40.41	41.90	-36.1	-37.1	22.5	0.00e+00	120	29	0	974127104	44	6297
2026-01-15 14:20:57.47	41.29	42.92	-36.9	-37.9	21.9	0.00e+00	123	29	0	986710016	44	6950
2026-01-15 14:21:01.51	42.23	43.95	-36.4	-37.4	22.2	0.00e+00	120	29	0	999292928	46	5810
2026-01-15 14:21:05.54	43.23	45.01	-36.1	-37.1	22.5	0.00e+00	122	29	0	1011875840	46	5623
2026-01-15 14:21:09.59	44.30	46.08	-36.6	-37.7	22.1	0.00e+00	123	29	0	1024458752	46	6011
2026-01-15 14:21:13.63	45.44	47.17	-36.1	-37.1	22.6	0.00e+00	123	29	0	1038090240	46	5656
2026-01-15 14:21:17.67	46.66	48.28	-36.5	-37.6	22.1	0.00e+00	122	29	0	1050673152	46	5935
2026-01-15 14:21:21.71	47.98	49.40	-36.2	-37.2	22.4	0.00e+00	122	29	0	1063256064	46	5714
2026-01-15 14:21:25.75	49.39	50.53	-36.2	-37.2	22.6	0.00e+00	120	29	0	1075838976	46	5691
2026-01-15 14:21:29.79	50.92	51.68	-35.5	-36.5	23.2	0.00e+00	123	29	0	1088421888	44	5863
2026-01-15 14:21:33.82	52.56	52.82	-34.6	-35.5	23.8	0.00e+00	123	29	0	1101004800	42	5888
2026-01-15 14:21:37.86	54.33	53.97	-33.7	-34.6	24.6	0.00e+00	122	29	0	1113587712	42	5315
2026-01-15 14:21:41.90	56.25	55.11	-34.1	-35.1	24.1	0.00e+00	123	29	0	1126170624	40	6303
2026-01-15 14:21:45.93	58.33	56.24	-33.2	-34.1	24.7	0.00e+00	122	29	0	1138753536	40	5601
2026-01-15 14:21:49.97	60.59	57.36	-33.4	-34.3	24.6	0.00e+00	122	29	0	1151336448	40	5764
2026-01-15 14:21:54.01	63.03	58.46	-32.7	-33.6	25.3	0.00e+00	123	29	0	1163919360	38	5939
2026-01-15 14:21:58.05	65.69	59.52	-32.9	-33.8	25.0	0.00e+00	123	29	0	1176502272	38	6117
2026-01-15 14:22:02.08	68.55	60.54	-32.1	-33.0	25.6	0.00e+00	122	29	0	1189085184	38	5557
2026-01-15 14:22:06.12	71.66	61.51	-32.4	-33.3	25.5	0.00e+00	120	29	0	1201668096	38	5736
2026-01-15 14:22:10.16	75.00	62.42	-32.3	-33.2	25.4	0.00e+00	122	29	0	1214251008	38	5667
2026-01-15 14:22:14.20	78.60	63.25	-32.2	-33.0	25.4	0.00e+00	123	29	0	1226833920	38	5580
2026-01-15 14:22:18.24	82.44	63.98	-32.9	-33.7	25.0	0.00e+00	123	29	0	1239416832	38	6058
2026-01-15 14:22:22.28	86.51	64.62	-32.6	-33.5	25.3	0.00e+00	122	29	0	1251999744	38	5894
2026-01-15 14:22:26.31	90.79	65.14	-31.8	-32.6	25.6	0.00e+00	120	29	0	1264582656	38	5339
2026-01-15 14:22:30.35	95.25	65.53	-32.5	-33.3	25.2	0.00e+00	122	29	0	1277165568	36	6497
2026-01-15 14:22:34.39	99.85	65.79	-31.8	-32.7	25.8	0.00e+00	123	29	0	1289748480	38	5348
2026-01-15 14:22:38.43	104.52	65.90	-32.2	-33.0	25.2	0.00e+00	120	29	0	1302331392	38	5569
2026-01-15 14:22:42.46	109.21	65.87	-33.3	-34.2	24.8	0.00e+00	123	29	0	1314914304	38	6352
2026-01-15 14:22:46.50	113.86	65.70	-32.1	-33.0	25.5	0.00e+00	123	29	0	1327497216	38	5560
2026-01-15 14:22:50.54	118.41	65.39	-32.5	-33.4	24.9	0.00e+00	122	29	0	1340080128	38	5853
2026-01-15 14:22:54.58	122.81	64.94	-33.3	-34.2	24.9	0.00e+00	123	29	0	1352663040	38	6358
2026-01-15 14:22:58.62	127.02	64.37	-32.3	-33.2	25.3	0.00e+00	122	29	0	1365245952	38	5680
2026-01-15 14:23:02.66	131.00	63.69	-32.7	-33.5	25.3	0.00e+00	123	29	0	1377828864	38	5895
2026-01-15 14:23:06.69	134.74	62.92	-33.6	-34.5	24.7	0.00e+00	123	29	0	1390411776	38	6610
2026-01-15 14:23:10.73	138.24	62.05	-32.2	-33.0	25.3	0.00e+00	123	29	0	1404043264	38	5590
2026-01-15 14:23:14.76	141.48	61.12	-33.3	-34.2	24.9	0.00e+00	122	29	0	1416626176	40	5694
2026-01-15 14:23:18.79	144.49	60.13	-32.3	-33.1	25.6	0.00e+00	123	29	0	1429209088	36	6321
2026-01-15 14:23:22.83	147.27	59.09	-33.0	-33.9	24.5	0.00e+00	120	29	0	1441792000	40	5501
2026-01-15 14:23:26.87	149.84	58.00	-34.5	-35.4	23.8	0.00e+00	122	29	0	1454374912	40	6555
2026-01-15 14:23:30.91	152.21	56.89	-33.3	-34.2	24.0	0.00e+00	122	29	0	1466957824	40	5678
2026-01-15 14:23:34.95	154.40	55.76	-35.3	-36.3	23.1	0.00e+00	124	29	0	1479540736	42	6450
2026-01-15 14:23:38.99	156.42	54.62	-34.8	-35.8	22.6	0.00e+00	123	29	0	1492123648	42	6103
2026-01-15 14:23:43.03	158.28	53.47	-34.9	-35.8	23.7	0.00e+00	122	29	0	1504706560	42	6117
2026-01-15 14:23:47.07	160.00	52.32	-34.7	-35.8	22.3	0.00e+00	120	29	0	1517289472	42	6077
2026-01-15 14:23:51.11	161.60	51.17	-35.6	-36.6	22.7	0.00e+00	122	29	0	1529872384	42	6725
2026-01-15 14:23:55.14	163.07	50.03	-37.3	-38.5	21.0	0.00e+00	122	29	0	1542455296	46	6596
2026-01-15 14:23:59.18	164.45	48.90	-35.2	-36.1	23.4	0.00e+00	120	29	0	1555038208	44	5658
2026-01-15 14:24:03.22	165.72	47.78	-36.7	-37.8	21.9	0.00e+00	123	29	0	1567621120	46	6108
2026-01-15 14:24:07.26	166.92	46.67	-36.1	-37.1	22.2	0.00e+00	120	29	0	1580204032	46	5613
2026-01-15 14:24:11.30	168.03	45.59	-36.3	-37.4	22.3	0.00e+00	122	29	0	1592786944	46	5796
2026-01-15 14:24:15.33	169.07	44.52	-37.8	-39.0	20.6	0.00e+00	122	29	0	1605369856	46	6986
2026-01-15 14:24:19.38	170.04	43.46	-36.4	-37.4	22.3	0.00e+00	122	29	0	1617952768	46	5836
2026-01-15 14:24:23.42	170.96	42.43	-36.8	-37.9	22.1	0.00e+00	120	29	0	1630535680	46	6136
2026-01-15 14:24:27.46	171.81	41.42	-35.8	-36.8	22.9	0.00e+00	123	29	0	1643118592	44	6093
2026-01-15 14:24:31.50	172.62	40.43	-36.1	-37.1	22.5	0.00e+00	121	29	0	1655701504	44	6336
2026-01-15 14:24:35.54	173.38	39.46	-36.7	-37.8	22.1	0.00e+00	123	29	0	1668284416	44	6812
2026-01-15 14:24:39.58	174.10	38.52	-36.4	-37.4	21.8	0.00e+00	123	29	0	1680867328	44	6549
2026-01-15 14:24:43.61	174.78	37.59	-35.0	-36.0	23.2	0.00e+00	122	29	0	1693450240	44	5558
2026-01-15 14:24:47.65	175.43	36.69	-34.5	-35.4	23.9	0.00e+00	123	29	0	1706033152	42	5813
2026-01-15 14:24:51.69	176.04	35.80	-34.4	-35.4	24.1	0.00e+00	123	29	0	1718616064	42	5794
2026-01-15 14:24:55.73	176.62	34.94	-34.7	-35.6	23.8	0.00e+00	123	29	0	1731198976	42	5962
2026-01-15 14:24:59.77	177.17	34.10	-36.3	-37.3	22.2	0.00e+00	123	29	0	1744830464	44	6492
2026-01-15 14:25:03.81	177.69	33.27	-35.1	-36.1	23.0	0.00e+00	123	29	0	1757413376	44	5654
2026-01-15 14:25:07.85	178.19	32.47	-34.1	-35.0	23.8	0.00e+00	120	29	0	1768947712	42	5588
2026-01-15 14:25:11.89	178.67	31.68	-33.4	-34.3	24.8	0.00e+00	120	29	0	1782579200	40	5747
2026-01-15 14:25:15.94	179.12	30.91	-33.5	-34.3	24.8	0.00e+00	123	29	0	1795162112	40	5770
2026-01-15 14:25:19.98	179.56	30.16	-34.0	-34.9	24.3	0.00e+00	122	29	0	1807745024	40	6174
2026-01-15 14:25:24.02	179.97	29.43	-34.5	-35.4	24.0	0.00e+00	123	29	0	1820327936	40	6547
2026-01-15 14:25:28.06	180.37	28.72	-34.4	-35.4	23.8	0.00e+00	123	29	0	1832910848	40	6512
2026-01-15 14:25:32.09	180.75	28.02	-34.4	-35.3	23.8	0.00e+00	120	29	0	1845493760	40	6487
2026-01-15 14:25:36.13	181.12	27.34	-34.0	-34.9	24.2	0.00e+00	123	29	0	1858076672	40	6178
2026-01-15 14:25:40.17	181.47	26.67	-33.2	-34.1	24.9	0.00e+00	120	29	0	1870659584	40	5637
2026-01-15 14:25:44.21	181.81	26.02	-32.6	-33.4	25.2	0.00e+00	120	29	0	1883242496	38	5849
2026-01-15 14:25:48.25	182.14	25.38	-32.8	-33.7	25.1	0.00e+00	120	29	0	1895825408	38	6023
2026-01-15 14:25:52.28	182.45	24.76	-33.1	-34.0	24.9	0.00e+00	123	29	0	1908408320	38	6241
2026-01-15 14:25:56.32	182.75	24.15	-33.2	-34.0	25.0	0.00e+00	122	29	0	1920991232	38	6262
2026-01-15 14:26:00.36	183.04	23.55	-33.4	-34.3	24.6	0.00e+00	122	29	0	1933574144	38	6485
2026-01-15 14:26:04.40	183.32	22.97	-33.5	-34.4	24.6	0.00e+00	121	29	0	1946157056	38	6540
2026-01-15 14:26:08.44	183.60	22.40	-33.7	-34.6	24.4	0.00e+00	123	29	0	1958739968	40	5976
2026-01-15 14:26:12.48	183.86	21.84	-33.6	-34.5	24.4	0.00e+00	123	29	0	1971322880	40	5911
2026-01-15 14:26:16.52	184.11	21.29	-33.5	-34.4	24.5	0.00e+00	122	29	0	1983905792	40	5813
2026-01-15 14:26:20.56	184.36	20.75	-33.4	-34.4	24.4	0.00e+00	122	29	0	1996488704	40	5794
2026-01-15 14:26:24.59	184.60	20.23	-33.6	-34.6	24.2	0.00e+00	123	29	0	2009071616	40	5941
2026-01-15 14:26:28.63	184.83	19.71	-33.6	-34.6	24.2	0.00e+00	123	29	0	2021654528	40	5940
2026-01-15 14:26:32.67	185.05	19.21	-33.5	-34.4	24.2	0.00e+00	123	29	0	2034237440	40	5813
2026-01-15 14:26:36.71	185.27	18.71	-33.5	-34.4	24.1	0.00e+00	122	29	0	2046820352	40	5858
2026-01-15 14:26:40.75	185.48	18.22	-33.6	-34.5	24.1	0.00e+00	123	29	0	2059403264	40	5919
2026-01-15 14:26:44.78	185.68	17.75	-33.7	-34.7	24.1	0.00e+00	121	29	0	2071986176	40	5998
2026-01-15 14:26:48.82	185.88	17.28	-33.8	-34.7	24.2	0.00e+00	120	29	0	2084569088	40	6008
2026-01-15 14:26:52.86	186.07	16.82	-33.9	-34.8	24.2	0.00e+00	121	29	0	2098200576	40	6105
2026-01-15 14:26:56.90	186.26	16.37	-34.0	-34.9	24.1	0.00e+00	123	29	0	2109734912	40	6198
2026-01-15 14:27:00.94	186.44	15.92	-34.1	-35.0	24.0	0.00e+00	123	29	0	2123366400	40	6243
2026-01-15 14:27:04.98	186.62	15.49	-34.3	-35.2	23.8	0.00e+00	122	29	0	2135949312	40	6417
2026-01-15 14:27:09.01	186.79	15.06	-34.3	-35.3	23.7	0.00e+00	123	29	0	2148532224	40	6437
2026-01-15 14:27:13.05	186.96	14.64	-34.7	-35.6	23.5	0.00e+00	122	29	0	2161115136	40	6683
2026-01-15 14:27:17.09	187.12	14.22	-34.9	-35.8	23.4	0.00e+00	123	29	0	2173698048	42	6119
2026-01-15 14:27:21.13	187.28	13.82	-35.2	-36.2	23.1	0.00e+00	121	29	0	2186280960	42	6358
2026-01-15 14:27:25.16	187.44	13.42	-35.2	-36.2	23.1	0.00e+00	120	29	0	2198863872	42	6356
2026-01-15 14:27:29.20	187.59	13.02	-35.2	-36.2	23.0	0.00e+00	122	29	0	2211446784	42	6384
2026-01-15 14:27:33.24	187.74	12.63	-35.2	-36.2	23.1	0.00e+00	122	29	0	2224029696	42	6364
2026-01-15 14:27:37.28	187.89	12.25	-35.2	-36.2	23.0	0.00e+00	123	29	0	2236612608	42	6372
2026-01-15 14:27:41.32	188.03	11.87	-35.2	-36.2	22.9	0.00e+00	123	29	0	2249195520	42	6391
2026-01-15 14:27:45.35	188.17	11.50	-35.4	-36.4	22.7	0.00e+00	123	29	0	2261778432	42	6521
2026-01-15 14:27:49.40	188.30	11.14	-35.5	-36.5	22.7	0.00e+00	122	29	0	2274361344	42	6578
2026-01-15 14:27:53.44	188.44	10.78	-35.5	-36.5	22.6	0.00e+00	122	29	0	2286944256	42	6600
2026-01-15 14:27:57.48	188.57	10.42	-35.6	-36.6	22.4	0.00e+00	123	29	0	2299527168	42	6702
2026-01-15 14:28:01.52	188.69	10.07	-35.6	-36.6	22.5	0.00e+00	122	29	0	2312110080	42	6691
2026-01-15 14:28:05.55	188.82	9.72	-35.5	-36.6	22.5	0.00e+00	123	29	0	2324692992	42	6660
2026-01-15 14:28:09.59	188.94	9.38	-35.6	-36.7	22.3	0.00e+00	123	29	0	2337275904	44	5998
2026-01-15 14:28:13.63	189.06	9.05	-35.8	-36.8	22.2	0.00e+00	122	29	0	2349858816	44	6115
2026-01-15 14:28:17.67	189.18	8.71	-35.9	-36.9	22.1	0.00e+00	120	29	0	2362441728	44	6164
2026-01-15 14:28:21.71	189.29	8.39	-35.9	-36.9	22.1	0.00e+00	123	29	0	2375024640	44	6173
2026-01-15 14:28:25.75	189.40	8.06	-36.1	-37.1	21.9	0.00e+00	120	29	0	2387607552	44	6309
2026-01-15 14:28:29.79	189.51	7.74	-36.4	-37.4	21.7	0.00e+00	123	29	0	2400190464	44	6548
2026-01-15 14:28:33.83	189.62	7.43	-36.5	-37.5	21.6	0.00e+00	122	29	0	2412773376	44	6632
2026-01-15 14:28:37.87	189.73	7.12	-36.6	-37.6	21.5	0.00e+00	122	29	0	2425356288	44	6706
2026-01-15 14:28:41.91	189.83	6.81	-36.7	-37.8	21.3	0.00e+00	123	29	0	2438987776	46	6109
2026-01-15 14:28:45.96	189.93	6.50	-36.9	-38.0	21.1	0.00e+00	122	29	0	2451570688	46	6231
2026-01-15 14:28:50.00	190.03	6.20	-36.9	-38.0	21.1	0.00e+00	122	29	0	2464153600	46	6251
2026-01-15 14:28:54.04	190.13	5.90	-37.0	-38.2	20.9	0.00e+00	123	29	0	2476736512	46	6373
2026-01-15 14:28:58.09	190.23	5.61	-37.3	-38.6	20.5	0.00e+00	123	29	0	2489319424	46	6669
2026-01-15 14:29:02.09	190.33	5.32	-37.3	-38.5	20.6	0.00e+00	123	29	0	2501902336	46	6619
2026-01-15 14:29:06.12	190.42	5.03	-37.6	-38.7	20.3	0.00e+00	124	29	0	2514485248	46	6799
2026-01-15 14:29:10.16	190.51	4.75	-37.8	-39.1	19.9	0.00e+00	120	29	0	2527068160	48	6287
2026-01-15 14:29:14.20	190.60	4.46	-38.1	-39.4	19.6	0.00e+00	122	29	0	2539651072	48	6537
2026-01-15 14:29:18.24	190.69	4.18	-38.1	-39.4	19.6	0.00e+00	122	29	0	2552233984	48	6530
2026-01-15 14:29:22.28	190.78	3.91	-38.2	-39.5	19.4	0.00e+00	121	29	0	2564816896	48	6586
2026-01-15 14:29:26.32	190.86	3.63	-38.0	-39.3	19.5	0.00e+00	122	29	0	2577399808	48	6466
2026-01-15 14:29:30.35	190.95	3.36	-38.5	-39.9	18.7	0.00e+00	118	29	0	2589982720	48	6902
2026-01-15 14:29:34.39	191.03	3.09	-38.7	-40.1	18.7	0.00e+00	123	29	0	2602565632	50	6323
2026-01-15 14:29:38.43	191.12	2.83	-47.6	-60.8	3.5	1.52e+00	0	29	104	2605711360	60	38695
2026-01-15 14:29:42.46	191.20	2.57	-47.9	-61.2	3.5	1.52e+00	0	29	104	2605711360	60	40136
2026-01-15 14:29:46.50	191.28	2.31	-48.2	-61.3	3.5	1.51e+00	0	29	104	2605711360	60	40565
2026-01-15 14:29:50.54	191.36	2.05	-48.3	-61.2	3.5	1.52e+00	0	29	104	2605711360	60	40120
2026-01-15 14:29:54.58	191.43	1.79	-48.4	-61.3	3.5	1.52e+00	0	29	104	2605711360	60	40660
2026-01-15 14:29:58.62	191.51	1.54	-48.4	-61.2	3.5	1.52e+00	0	29	104	2605711360	60	40408
2026-01-15 14:30:02.65	191.58	1.28	-48.4	-61.2	3.5	1.52e+00	0	29	104	2605711360	60	40306
2026-01-15 14:30:06.69	191.66	1.03	-48.3	-61.2	3.5	1.52e+00	0	29	104	2605711360	60	40184
2026-01-15 14:30:10.73	191.73	0.79	-48.3	-61.2	3.5	1.52e+00	0	29	104	2605711360	60	40262
2026-01-15 14:30:14.77	191.80	0.54	-48.3	-61.2	3.5	1.52e+00	0	29	104	2605711360	60	40190
2026-01-15 14:30:18.81	191.88	0.30	-48.3	-61.2	3.5	1.52e+00	0	29	104	2605711360	60	40143
2026-01-15 14:30:22.85	191.95	0.06	-48.3	-61.2	3.5	1.52e+00	0	29	104	2605711360	60	40083

#Closed at: 2026-01-15 14:30:26
#Recorded file [2605 MB]: D:/lorett/data/35029_260116_021453.dat