passes_logs/2026/01/15/R4.6S_Anadyr/R4.6S_Anadyr__20260115_123425_NOAA_21_JPSS-2_rec.log

#Pass ID: 20260115_123425_NOAA 21 (JPSS-2)
#Satellite: NOAA 21 (JPSS-2)
#Configuration: NOAA-21
#almurnet v.1.7.20251203
#Start time: 2026-01-15 12:34:28

#Version: 2.2.20231116
#Station: R4.6S_Anadyr
#Location: 177.4865 lon 64.73178 lat
#TLE: 1 54234U 22150A   26014.58979933  .00000039  00000+0  39403-4 0  9998
#TLE: 2 54234  98.7497 315.4945 0000653 294.6373  65.4735 14.19534652164756

#Time	Az	El	Level	Level2	SNR	BER	BlckErr	Temp	State	Recorded	gain1	gain2
2026-01-15 12:34:28.47	19.00	0.16	-48.4	-59.8	3.3	1.54e+00	0	28	0	0	60	34324
2026-01-15 12:34:32.51	19.28	0.37	-48.5	-61.4	3.5	1.52e+00	0	28	104	0	60	41124
2026-01-15 12:34:36.55	19.56	0.57	-48.2	-61.1	3.5	1.52e+00	0	28	104	0	60	39797
2026-01-15 12:34:40.58	19.84	0.78	-47.5	-60.3	3.5	1.52e+00	0	28	104	0	60	36237
2026-01-15 12:34:44.62	20.13	0.99	-46.7	-59.5	3.5	1.52e+00	0	28	104	0	60	33306
2026-01-15 12:34:48.66	20.42	1.20	-46.7	-59.5	3.5	1.52e+00	0	28	104	0	60	33077
2026-01-15 12:34:52.70	20.72	1.41	-46.7	-59.5	3.5	1.52e+00	0	28	104	0	60	33313
2026-01-15 12:34:56.74	21.02	1.62	-46.7	-59.5	3.5	1.51e+00	0	28	104	0	60	33140
2026-01-15 12:35:00.78	21.32	1.83	-46.7	-59.5	3.5	1.52e+00	0	28	104	0	60	33058
2026-01-15 12:35:04.82	21.63	2.04	-46.7	-59.5	3.5	1.52e+00	0	28	104	0	60	33086
2026-01-15 12:35:08.86	21.94	2.26	-46.6	-58.2	3.6	1.51e+00	0	28	104	0	60	28554
2026-01-15 12:35:12.90	22.25	2.47	-45.9	-53.5	5.8	5.35e-01	0	29	104	0	60	16654
2026-01-15 12:35:16.94	22.57	2.69	-40.6	-42.3	16.5	0.00e+00	0	29	0	11534336	56	5785
2026-01-15 12:35:20.98	22.90	2.90	-40.8	-42.7	16.0	0.00e+00	0	29	0	24117248	52	7584
2026-01-15 12:35:25.01	23.23	3.12	-39.8	-41.4	17.4	0.00e+00	0	29	0	36700160	52	6528
2026-01-15 12:35:29.05	23.56	3.34	-40.5	-42.3	16.7	0.00e+00	0	29	0	42991616	54	6447
2026-01-15 12:35:33.08	23.90	3.56	-41.1	-43.0	16.6	0.00e+00	0	29	0	55574528	54	7042
2026-01-15 12:35:37.12	24.24	3.78	-40.3	-42.0	16.7	0.00e+00	0	29	0	68157440	54	6210
2026-01-15 12:35:41.16	24.59	4.00	-40.2	-41.8	16.9	0.00e+00	0	29	0	80740352	54	6112
2026-01-15 12:35:45.20	24.94	4.22	-39.6	-41.1	17.9	0.00e+00	0	29	0	93323264	52	6304
2026-01-15 12:35:49.24	25.30	4.44	-38.2	-39.5	19.5	0.00e+00	0	29	0	105906176	50	5891
2026-01-15 12:35:53.27	25.67	4.67	-38.4	-39.7	19.4	0.00e+00	0	29	0	118489088	50	6008
2026-01-15 12:35:57.31	26.03	4.89	-38.2	-39.4	19.6	0.00e+00	0	29	0	131072000	50	5844
2026-01-15 12:36:01.30	26.40	5.12	-37.9	-39.1	20.0	0.00e+00	0	29	0	143654912	50	5646
2026-01-15 12:36:05.34	26.78	5.34	-38.1	-39.4	19.9	0.00e+00	0	29	0	156237824	50	5805
2026-01-15 12:36:09.38	27.17	5.57	-37.9	-39.1	20.0	0.00e+00	0	29	0	168820736	48	6318
2026-01-15 12:36:13.42	27.56	5.80	-37.7	-38.9	20.2	0.00e+00	0	29	0	181403648	48	6204
2026-01-15 12:36:17.46	27.96	6.03	-37.6	-38.8	20.4	0.00e+00	0	29	0	193986560	48	6065
2026-01-15 12:36:21.50	28.36	6.26	-37.4	-38.6	20.5	0.00e+00	0	29	0	206569472	48	5934
2026-01-15 12:36:25.54	28.77	6.49	-37.8	-39.0	20.4	0.00e+00	0	29	0	219152384	48	6214
2026-01-15 12:36:29.58	29.18	6.73	-37.2	-38.3	20.9	0.00e+00	0	29	0	231735296	48	5760
2026-01-15 12:36:33.63	29.61	6.96	-37.0	-38.1	21.1	0.00e+00	0	29	0	244318208	48	5634
2026-01-15 12:36:37.67	30.04	7.19	-37.2	-38.3	20.8	0.00e+00	0	29	0	256901120	48	5757
2026-01-15 12:36:41.71	30.47	7.43	-36.8	-37.9	21.2	0.00e+00	0	29	0	269484032	46	6164
2026-01-15 12:36:45.75	30.91	7.67	-36.8	-37.9	21.3	0.00e+00	0	29	0	282066944	46	6152
2026-01-15 12:36:49.79	31.36	7.90	-36.7	-37.8	21.4	0.00e+00	0	29	0	295698432	46	6088
2026-01-15 12:36:53.83	31.82	8.14	-36.5	-37.6	21.6	0.00e+00	0	29	0	307232768	46	5930
2026-01-15 12:36:57.87	32.28	8.38	-36.4	-37.4	21.7	0.00e+00	0	29	0	320864256	46	5844
2026-01-15 12:37:01.91	32.75	8.62	-36.4	-37.5	21.9	0.00e+00	0	29	0	333447168	46	5865
2026-01-15 12:37:05.94	33.23	8.86	-36.0	-37.1	22.1	0.00e+00	0	29	0	346030080	46	5607
2026-01-15 12:37:09.99	33.71	9.10	-36.0	-37.0	22.2	0.00e+00	0	29	0	358612992	46	5554
2026-01-15 12:37:14.03	34.20	9.34	-36.0	-37.0	22.2	0.00e+00	0	29	0	371195904	46	5570
2026-01-15 12:37:18.06	34.70	9.58	-35.9	-37.0	22.3	0.00e+00	0	29	0	383778816	46	5547
2026-01-15 12:37:22.10	35.21	9.82	-35.9	-36.9	22.2	0.00e+00	0	29	0	396361728	46	5520
2026-01-15 12:37:26.14	35.73	10.06	-35.8	-36.8	22.3	0.00e+00	0	29	0	408944640	44	6074
2026-01-15 12:37:30.18	36.25	10.31	-35.7	-36.7	22.5	0.00e+00	0	29	0	421527552	44	6045
2026-01-15 12:37:34.22	36.79	10.55	-35.8	-36.8	22.5	0.00e+00	0	29	0	434110464	44	6100
2026-01-15 12:37:38.26	37.33	10.79	-35.7	-36.7	22.6	0.00e+00	0	29	0	446693376	44	5996
2026-01-15 12:37:42.30	37.88	11.04	-35.6	-36.6	22.7	0.00e+00	0	29	0	459276288	44	5938
2026-01-15 12:37:46.35	38.44	11.28	-35.4	-36.4	22.7	0.00e+00	0	29	0	471859200	44	5840
2026-01-15 12:37:50.39	39.01	11.52	-35.4	-36.3	22.8	0.00e+00	0	29	0	484442112	44	5779
2026-01-15 12:37:54.43	39.59	11.77	-35.5	-36.5	22.7	0.00e+00	0	29	0	497025024	44	5915
2026-01-15 12:37:58.46	40.18	12.01	-35.8	-36.8	22.6	0.00e+00	0	29	0	509607936	44	6069
2026-01-15 12:38:02.50	40.77	12.25	-35.6	-36.7	22.4	0.00e+00	0	29	0	522190848	44	5995
2026-01-15 12:38:06.54	41.38	12.49	-35.6	-36.6	22.6	0.00e+00	0	29	0	534773760	44	5969
2026-01-15 12:38:10.57	41.99	12.73	-35.2	-36.2	22.9	0.00e+00	0	29	0	547356672	44	5694
2026-01-15 12:38:14.61	42.62	12.98	-35.2	-36.2	22.9	0.00e+00	0	29	0	559939584	44	5660
2026-01-15 12:38:18.66	43.26	13.22	-35.3	-36.3	22.9	0.00e+00	0	29	0	572522496	44	5742
2026-01-15 12:38:22.70	43.90	13.46	-35.3	-36.2	22.9	0.00e+00	0	29	0	585105408	44	5717
2026-01-15 12:38:26.73	44.56	13.70	-35.2	-36.2	23.1	0.00e+00	0	29	0	598736896	44	5688
2026-01-15 12:38:30.77	45.22	13.93	-35.0	-35.9	23.4	0.00e+00	0	29	0	610271232	44	5525
2026-01-15 12:38:34.81	45.90	14.17	-34.9	-35.8	23.4	0.00e+00	0	29	0	622854144	44	5442
2026-01-15 12:38:38.85	46.59	14.40	-35.2	-36.2	23.0	0.00e+00	0	29	0	636485632	44	5680
2026-01-15 12:38:42.89	47.29	14.64	-35.2	-36.2	23.1	0.00e+00	0	29	0	649068544	44	5696
2026-01-15 12:38:46.94	48.00	14.87	-35.1	-36.0	23.3	0.00e+00	0	29	0	661651456	44	5580
2026-01-15 12:38:50.98	48.72	15.10	-35.1	-36.1	23.3	0.00e+00	0	29	0	674234368	44	5596
2026-01-15 12:38:55.01	49.45	15.33	-34.8	-35.7	23.5	0.00e+00	0	29	0	686817280	42	6027
2026-01-15 12:38:59.06	50.19	15.55	-34.8	-35.8	23.4	0.00e+00	0	29	0	699400192	42	6090
2026-01-15 12:39:03.09	50.94	15.78	-35.1	-36.0	23.2	0.00e+00	0	29	0	711983104	42	6257
2026-01-15 12:39:07.13	51.70	16.00	-34.9	-35.9	23.4	0.00e+00	0	29	0	724566016	42	6141
2026-01-15 12:39:11.17	52.48	16.21	-34.7	-35.6	23.6	0.00e+00	0	29	0	737148928	42	5951
2026-01-15 12:39:15.21	53.26	16.43	-34.7	-35.7	23.5	0.00e+00	0	29	0	749731840	42	5995
2026-01-15 12:39:19.25	54.06	16.64	-34.9	-35.8	23.5	0.00e+00	0	29	0	762314752	42	6124
2026-01-15 12:39:23.29	54.86	16.85	-34.5	-35.4	23.9	0.00e+00	0	29	0	774897664	42	5829
2026-01-15 12:39:27.33	55.68	17.05	-34.4	-35.3	23.8	0.00e+00	0	29	0	787480576	42	5746
2026-01-15 12:39:31.37	56.51	17.25	-34.5	-35.5	23.7	0.00e+00	0	29	0	800063488	42	5878
2026-01-15 12:39:35.41	57.35	17.45	-34.4	-35.4	23.8	0.00e+00	0	29	0	812646400	42	5792
2026-01-15 12:39:39.45	58.20	17.64	-34.1	-35.1	23.9	0.00e+00	0	29	0	825229312	42	5597
2026-01-15 12:39:43.49	59.06	17.83	-34.2	-35.1	23.9	0.00e+00	0	29	0	837812224	42	5653
2026-01-15 12:39:47.53	59.93	18.01	-34.1	-35.0	24.0	0.00e+00	0	29	0	850395136	42	5560
2026-01-15 12:39:51.57	60.81	18.19	-33.9	-34.8	24.1	0.00e+00	0	29	0	862978048	42	5419
2026-01-15 12:39:55.61	61.70	18.36	-33.8	-34.8	24.2	0.00e+00	0	29	0	875560960	42	5434
2026-01-15 12:39:59.65	62.61	18.52	-33.9	-34.8	24.0	0.00e+00	0	29	0	888143872	42	5462
2026-01-15 12:40:03.69	63.52	18.68	-33.9	-34.9	24.1	0.00e+00	0	29	0	900726784	40	6168
2026-01-15 12:40:07.73	64.44	18.84	-34.0	-34.9	24.2	0.00e+00	0	29	0	914358272	40	6202
2026-01-15 12:40:11.77	65.36	18.99	-34.3	-35.2	23.7	0.00e+00	0	29	0	925892608	40	6414
2026-01-15 12:40:15.81	66.30	19.13	-34.2	-35.1	24.1	0.00e+00	0	29	0	938475520	42	5626
2026-01-15 12:40:19.85	67.25	19.26	-33.7	-34.6	24.3	0.00e+00	0	29	0	952107008	40	5971
2026-01-15 12:40:23.88	68.20	19.39	-33.8	-34.8	24.3	0.00e+00	0	29	0	964689920	40	6068
2026-01-15 12:40:27.93	69.16	19.51	-33.7	-34.6	24.4	0.00e+00	0	29	0	977272832	40	5980
2026-01-15 12:40:31.96	70.13	19.62	-33.8	-34.7	24.4	0.00e+00	0	29	0	989855744	40	6060
2026-01-15 12:40:36.00	71.10	19.73	-33.6	-34.5	24.6	0.00e+00	0	29	0	1002438656	40	5900
2026-01-15 12:40:40.04	72.09	19.83	-33.8	-34.7	24.2	0.00e+00	0	29	0	1015021568	40	6064
2026-01-15 12:40:44.07	73.07	19.92	-33.8	-34.7	24.4	0.00e+00	0	29	0	1027604480	40	6015
2026-01-15 12:40:48.12	74.07	20.00	-34.0	-34.9	24.2	0.00e+00	0	29	0	1040187392	40	6175
2026-01-15 12:40:52.16	75.07	20.07	-33.9	-34.8	24.3	0.00e+00	0	29	0	1052770304	40	6080
2026-01-15 12:40:56.20	76.07	20.14	-33.7	-34.6	24.3	0.00e+00	0	29	0	1065353216	40	5947
2026-01-15 12:41:00.24	77.08	20.19	-33.7	-34.7	24.3	0.00e+00	0	29	0	1077936128	40	6009
2026-01-15 12:41:04.28	78.09	20.24	-33.8	-34.7	24.3	0.00e+00	0	29	0	1090519040	40	6058
2026-01-15 12:41:08.32	79.10	20.28	-34.0	-34.9	24.2	0.00e+00	0	29	0	1103101952	40	6163
2026-01-15 12:41:12.36	80.12	20.31	-34.0	-34.9	24.1	0.00e+00	0	29	0	1115684864	40	6203
2026-01-15 12:41:16.39	81.13	20.33	-33.7	-34.7	24.2	0.00e+00	0	29	0	1128267776	40	5997
2026-01-15 12:41:20.44	82.15	20.34	-33.7	-34.6	24.3	0.00e+00	0	29	0	1140850688	40	5957
2026-01-15 12:41:24.48	83.17	20.34	-33.8	-34.7	24.3	0.00e+00	0	29	0	1153433600	40	6036
2026-01-15 12:41:28.51	84.19	20.34	-33.8	-34.7	24.4	0.00e+00	0	29	0	1166016512	40	6035
2026-01-15 12:41:32.54	85.20	20.32	-34.3	-35.2	24.0	0.00e+00	0	29	0	1178599424	40	6422
2026-01-15 12:41:36.57	86.22	20.30	-34.1	-35.0	24.0	0.00e+00	0	29	0	1191182336	40	6247
2026-01-15 12:41:40.61	87.23	20.27	-34.7	-35.7	23.7	0.00e+00	0	29	0	1203765248	40	6732
2026-01-15 12:41:44.65	88.25	20.23	-34.8	-35.7	23.5	0.00e+00	0	29	0	1216348160	42	6051
2026-01-15 12:41:48.70	89.26	20.18	-34.3	-35.3	24.0	0.00e+00	0	29	0	1228931072	42	5740
2026-01-15 12:41:52.74	90.27	20.12	-33.6	-34.5	24.3	0.00e+00	0	29	0	1241513984	40	5913
2026-01-15 12:41:56.77	91.27	20.05	-33.5	-34.4	24.5	0.00e+00	0	29	0	1254096896	40	5841
2026-01-15 12:42:00.82	92.27	19.98	-33.6	-34.5	24.4	0.00e+00	0	29	0	1266679808	40	5910
2026-01-15 12:42:04.86	93.26	19.89	-33.4	-34.2	24.6	0.00e+00	0	29	0	1279262720	40	5720
2026-01-15 12:42:08.90	94.25	19.80	-33.4	-34.3	24.6	0.00e+00	0	29	0	1292894208	40	5729
2026-01-15 12:42:12.94	95.23	19.70	-33.4	-34.3	24.5	0.00e+00	0	29	0	1305477120	40	5770
2026-01-15 12:42:16.98	96.21	19.59	-33.8	-34.7	24.3	0.00e+00	0	29	0	1318060032	40	6054
2026-01-15 12:42:21.02	97.18	19.48	-33.8	-34.7	24.3	0.00e+00	0	29	0	1330642944	40	5998
2026-01-15 12:42:25.06	98.14	19.35	-33.5	-34.4	24.5	0.00e+00	0	29	0	1343225856	40	5841
2026-01-15 12:42:29.10	99.09	19.22	-33.6	-34.5	24.3	0.00e+00	0	29	0	1355808768	40	5908
2026-01-15 12:42:33.14	100.04	19.09	-33.9	-34.8	24.4	0.00e+00	0	29	0	1368391680	40	6122
2026-01-15 12:42:37.18	100.98	18.94	-33.7	-34.6	24.4	0.00e+00	0	29	0	1380974592	40	5968
2026-01-15 12:42:41.21	101.91	18.79	-33.7	-34.6	24.4	0.00e+00	0	29	0	1393557504	40	5961
2026-01-15 12:42:45.25	102.83	18.64	-33.6	-34.6	24.2	0.00e+00	0	29	0	1406140416	40	5933
2026-01-15 12:42:49.29	103.74	18.47	-33.5	-34.5	24.3	0.00e+00	0	29	0	1418723328	40	5909
2026-01-15 12:42:53.33	104.64	18.31	-33.5	-34.7	24.2	0.00e+00	0	29	0	1431306240	40	6005
2026-01-15 12:42:57.37	105.53	18.13	-34.0	-34.9	23.9	0.00e+00	0	29	0	1443889152	40	6196
2026-01-15 12:43:01.41	106.41	17.95	-34.0	-35.0	24.0	0.00e+00	0	29	0	1456472064	40	6229
2026-01-15 12:43:05.44	107.28	17.77	-34.1	-35.0	23.9	0.00e+00	0	29	0	1469054976	40	6269
2026-01-15 12:43:09.48	108.14	17.58	-34.0	-35.0	23.6	0.00e+00	0	29	0	1481637888	40	6239
2026-01-15 12:43:13.52	108.99	17.38	-34.0	-35.0	23.9	0.00e+00	0	29	0	1494220800	40	6246
2026-01-15 12:43:17.56	109.83	17.19	-33.7	-34.7	24.2	0.00e+00	0	29	0	1506803712	40	6028
2026-01-15 12:43:21.59	110.66	16.98	-34.4	-35.3	23.7	0.00e+00	0	29	0	1519386624	40	6450
2026-01-15 12:43:25.63	111.47	16.78	-34.2	-35.2	23.8	0.00e+00	0	29	0	1531969536	40	6353
2026-01-15 12:43:29.67	112.28	16.57	-33.9	-34.9	24.1	0.00e+00	0	29	0	1544552448	40	6151
2026-01-15 12:43:33.71	113.08	16.35	-34.2	-35.1	24.0	0.00e+00	0	29	0	1557135360	40	6329
2026-01-15 12:43:37.75	113.86	16.14	-34.6	-35.6	23.6	0.00e+00	0	30	0	1569718272	40	6672
2026-01-15 12:43:41.79	114.64	15.92	-34.4	-35.5	23.6	0.00e+00	0	29	0	1582301184	42	5868
2026-01-15 12:43:45.84	115.40	15.69	-34.2	-35.2	23.9	0.00e+00	0	29	0	1594884096	42	5695
2026-01-15 12:43:49.87	116.15	15.47	-34.5	-35.5	23.6	0.00e+00	0	29	0	1607467008	42	5868
2026-01-15 12:43:53.91	116.89	15.24	-34.8	-35.8	23.5	0.00e+00	0	29	0	1620049920	42	6103
2026-01-15 12:43:57.95	117.63	15.01	-34.7	-35.6	23.5	0.00e+00	0	29	0	1633681408	42	5981
2026-01-15 12:44:01.99	118.34	14.78	-34.5	-35.7	23.4	0.00e+00	0	29	0	1646264320	42	5998
2026-01-15 12:44:06.03	119.05	14.54	-34.4	-35.5	23.6	0.00e+00	0	29	0	1658847232	42	5893
2026-01-15 12:44:10.07	119.75	14.31	-34.5	-35.5	23.6	0.00e+00	0	29	0	1671430144	42	5870
2026-01-15 12:44:14.11	120.44	14.07	-34.6	-35.6	23.5	0.00e+00	0	29	0	1684013056	42	5967
2026-01-15 12:44:18.15	121.12	13.83	-34.5	-35.5	23.6	0.00e+00	0	29	0	1696595968	42	5903
2026-01-15 12:44:22.18	121.78	13.59	-34.4	-35.4	23.8	0.00e+00	0	29	0	1709178880	42	5808
2026-01-15 12:44:26.22	122.44	13.35	-34.3	-35.3	23.8	0.00e+00	0	29	0	1721761792	42	5733
2026-01-15 12:44:30.26	123.08	13.11	-34.3	-35.3	23.8	0.00e+00	0	29	0	1734344704	42	5732
2026-01-15 12:44:34.30	123.72	12.86	-34.6	-35.5	23.5	0.00e+00	0	29	0	1746927616	42	5903
2026-01-15 12:44:38.35	124.34	12.62	-34.8	-35.8	23.3	0.00e+00	0	29	0	1759510528	42	6091
2026-01-15 12:44:42.38	124.96	12.38	-35.0	-35.9	23.2	0.00e+00	0	29	0	1772093440	42	6191
2026-01-15 12:44:46.43	125.56	12.13	-35.2	-36.2	22.9	0.00e+00	0	29	0	1784676352	42	6364
2026-01-15 12:44:50.47	126.16	11.89	-35.3	-36.3	22.8	0.00e+00	0	29	0	1797259264	42	6439
2026-01-15 12:44:54.51	126.75	11.64	-35.4	-36.3	22.8	0.00e+00	0	29	0	1809842176	42	6494
2026-01-15 12:44:58.55	127.32	11.40	-35.2	-36.2	23.0	0.00e+00	0	29	0	1822425088	42	6413
2026-01-15 12:45:02.59	127.89	11.15	-35.1	-36.1	23.0	0.00e+00	0	29	0	1835008000	42	6309
2026-01-15 12:45:06.63	128.45	10.90	-35.2	-36.2	22.9	0.00e+00	0	29	0	1847590912	42	6383
2026-01-15 12:45:10.67	129.00	10.66	-35.5	-36.5	22.7	0.00e+00	0	29	0	1860173824	42	6617
2026-01-15 12:45:14.71	129.54	10.41	-35.5	-36.5	22.7	0.00e+00	0	29	0	1872756736	42	6574
2026-01-15 12:45:18.75	130.07	10.17	-35.5	-36.5	22.6	0.00e+00	0	29	0	1885339648	42	6597
2026-01-15 12:45:22.79	130.60	9.92	-35.5	-36.5	22.5	0.00e+00	0	29	0	1897922560	42	6585
2026-01-15 12:45:26.83	131.11	9.68	-35.8	-36.8	22.2	0.00e+00	0	29	0	1910505472	44	6134
2026-01-15 12:45:30.86	131.62	9.44	-35.7	-36.8	22.3	0.00e+00	0	29	0	1923088384	44	6080
2026-01-15 12:45:34.90	132.12	9.19	-35.8	-36.8	22.2	0.00e+00	0	29	0	1935671296	44	6119
2026-01-15 12:45:38.94	132.61	8.95	-35.9	-36.9	22.1	0.00e+00	0	29	0	1949302784	44	6181
2026-01-15 12:45:42.98	133.09	8.71	-36.0	-37.1	21.9	0.00e+00	0	29	0	1960837120	44	6284
2026-01-15 12:45:47.02	133.57	8.47	-36.0	-37.1	22.0	0.00e+00	0	29	0	1974468608	44	6308
2026-01-15 12:45:51.05	134.04	8.23	-36.1	-37.1	21.9	0.00e+00	0	29	0	1987051520	44	6345
2026-01-15 12:45:55.10	134.50	7.98	-35.8	-36.9	22.0	0.00e+00	0	29	0	1999634432	44	6179
2026-01-15 12:45:59.14	134.95	7.75	-35.9	-37.0	21.9	0.00e+00	0	29	0	2012217344	44	6242
2026-01-15 12:46:03.18	135.40	7.51	-36.1	-37.3	21.7	0.00e+00	0	29	0	2024800256	44	6426
2026-01-15 12:46:07.22	135.84	7.27	-36.1	-37.2	21.8	0.00e+00	0	29	0	2037383168	44	6380
2026-01-15 12:46:11.27	136.27	7.03	-36.0	-37.0	21.9	0.00e+00	0	29	0	2049966080	44	6265
2026-01-15 12:46:15.30	136.70	6.79	-36.1	-37.2	21.6	0.00e+00	0	29	0	2062548992	44	6381
2026-01-15 12:46:19.34	137.12	6.56	-36.1	-37.2	21.7	0.00e+00	0	29	0	2075131904	44	6378
2026-01-15 12:46:23.38	137.53	6.32	-36.2	-37.2	21.6	0.00e+00	0	29	0	2087714816	44	6407
2026-01-15 12:46:27.42	137.94	6.09	-36.6	-37.7	21.1	0.00e+00	0	29	0	2100297728	44	6786
2026-01-15 12:46:31.46	138.34	5.86	-36.9	-38.0	20.6	0.00e+00	0	29	0	2112880640	46	6276
2026-01-15 12:46:35.50	138.73	5.63	-37.9	-39.2	19.3	0.00e+00	0	29	0	2125463552	48	6412
2026-01-15 12:46:39.54	139.12	5.40	-38.8	-40.2	18.3	0.00e+00	0	29	0	2138046464	48	7192
2026-01-15 12:46:43.57	139.50	5.17	-40.2	-42.0	16.4	0.00e+00	0	29	0	2150629376	52	6992
2026-01-15 12:46:47.62	139.88	4.94	-41.4	-43.7	13.5	1.44e-05	0	29	0	2163212288	54	7630
2026-01-15 12:46:51.66	140.25	4.71	-42.7	-46.2	10.7	4.93e-03	0	30	0	2175795200	56	8998
2026-01-15 12:46:55.70	140.62	4.48	-43.7	-48.4	7.5	8.57e-02	0	29	0	2188378112	58	10319
2026-01-15 12:46:59.74	140.98	4.26	-44.2	-50.0	6.4	2.50e-01	0	29	0	2200961024	60	11094
2026-01-15 12:47:03.78	141.34	4.03	-44.1	-51.7	6.0	1.19e+00	0	29	104	2205155328	60	13450
2026-01-15 12:47:07.82	141.69	3.81	-44.1	-49.4	7.4	1.18e-01	0	29	0	2215641088	60	10368
2026-01-15 12:47:11.86	142.03	3.58	-43.1	-47.5	9.8	1.33e-02	0	29	0	2228224000	60	8319
2026-01-15 12:47:15.89	142.37	3.36	-42.7	-46.3	11.2	2.77e-03	0	30	0	2240806912	58	8126
2026-01-15 12:47:19.93	142.71	3.14	-42.2	-45.1	12.6	1.13e-04	0	30	0	2253389824	58	7049
2026-01-15 12:47:23.97	143.04	2.92	-47.4	-60.4	3.6	1.52e+00	0	30	104	2260729856	60	36812
2026-01-15 12:47:28.01	143.36	2.70	-48.0	-61.2	3.5	1.52e+00	0	30	104	2260729856	60	40124
2026-01-15 12:47:32.05	143.69	2.48	-48.5	-61.3	3.5	1.52e+00	0	29	104	2260729856	60	40966
2026-01-15 12:47:36.08	144.00	2.27	-48.5	-61.3	3.5	1.52e+00	0	30	104	2260729856	60	40672
2026-01-15 12:47:40.12	144.32	2.05	-48.4	-61.2	3.5	1.52e+00	0	30	104	2260729856	60	40408
2026-01-15 12:47:44.16	144.62	1.84	-48.4	-61.2	3.5	1.52e+00	0	30	104	2260729856	60	40495
2026-01-15 12:47:48.20	144.93	1.62	-48.4	-61.2	3.5	1.52e+00	0	30	104	2260729856	60	40475
2026-01-15 12:47:52.24	145.23	1.41	-48.4	-61.2	3.5	1.52e+00	0	30	104	2260729856	60	40214
2026-01-15 12:47:56.27	145.52	1.20	-48.4	-61.2	3.5	1.52e+00	0	29	104	2260729856	60	40233
2026-01-15 12:48:00.31	145.82	0.99	-48.4	-61.2	3.5	1.52e+00	0	30	104	2260729856	60	40191
2026-01-15 12:48:04.35	146.10	0.77	-48.4	-61.3	3.5	1.52e+00	0	30	104	2260729856	60	40587
2026-01-15 12:48:08.39	146.39	0.57	-48.4	-61.2	3.5	1.52e+00	0	29	104	2260729856	60	40258
2026-01-15 12:48:12.43	146.67	0.36	-48.4	-61.2	3.5	1.52e+00	0	30	104	2260729856	60	40425
2026-01-15 12:48:16.47	146.95	0.15	-48.4	-61.2	3.5	1.52e+00	0	30	104	2260729856	60	40382
2026-01-15 12:48:20.51	147.22	-0.06	-48.4	-61.2	3.5	1.52e+00	0	30	104	2260729856	60	40270

#Closed at: 2026-01-15 12:48:20
#Recorded file [2260 MB]: D:/lorett/data/35029_260116_003428.dat