passes_logs/2026/01/15/R4.6S_Anadyr/R4.6S_Anadyr__20260115_164528_NOAA_20_JPSS-1_rec.log

#Pass ID: 20260115_164528_NOAA 20 (JPSS-1)
#Satellite: NOAA 20 (JPSS-1)
#Configuration: NOAA 20
#almurnet v.1.7.20251203
#Start time: 2026-01-15 16:45:28

#Version: 2.2.20231116
#Station: R4.6S_Anadyr
#Location: 177.4865 lon 64.73178 lat
#TLE: 1 43013U 17073A   26014.55467351  .00000038  00000+0  38801-4 0  9992
#TLE: 2 43013  98.7635 315.4987 0001517  39.9279 320.2008 14.19535859422677

#Time	Az	El	Level	Level2	SNR	BER	BlckErr	Temp	State	Recorded	gain1	gain2
2026-01-15 16:45:28.95	27.72	0.03	-48.1	-62.9	3.5	1.51e+00	0	25	0	0	60	50764
2026-01-15 16:45:32.99	27.53	0.26	-48.2	-63.4	3.6	1.51e+00	0	26	104	0	60	53722
2026-01-15 16:45:37.02	27.34	0.48	-47.8	-63.3	3.6	1.51e+00	0	26	104	0	60	53119
2026-01-15 16:45:41.06	27.14	0.71	-47.1	-62.8	3.6	1.51e+00	0	26	104	0	60	50140
2026-01-15 16:45:45.10	26.95	0.94	-46.4	-61.6	3.6	1.51e+00	0	27	104	0	60	43561
2026-01-15 16:45:49.14	26.75	1.17	-46.4	-61.6	3.6	1.51e+00	0	27	104	0	60	43699
2026-01-15 16:45:53.18	26.54	1.41	-46.4	-61.6	3.6	1.51e+00	0	27	104	0	60	43624
2026-01-15 16:45:57.22	26.34	1.64	-46.4	-61.6	3.6	1.51e+00	0	27	104	0	60	43455
2026-01-15 16:46:01.26	26.13	1.88	-46.4	-61.5	3.6	1.51e+00	0	27	104	0	60	42966
2026-01-15 16:46:05.29	25.91	2.11	-46.3	-61.4	3.6	1.51e+00	0	27	104	0	60	42445
2026-01-15 16:46:09.34	25.69	2.35	-46.4	-61.6	3.6	1.51e+00	0	27	104	0	60	43375
2026-01-15 16:46:13.38	25.47	2.59	-46.4	-61.4	3.6	1.51e+00	0	27	104	0	60	42672
2026-01-15 16:46:17.42	25.24	2.84	-46.3	-61.1	3.6	1.51e+00	0	27	104	0	60	40956
2026-01-15 16:46:21.46	25.01	3.08	-46.0	-55.5	4.8	1.19e+00	0	27	0	0	60	21471
2026-01-15 16:46:25.50	24.78	3.33	-44.4	-48.8	11.4	2.09e-03	0	27	0	7340032	60	9967
2026-01-15 16:46:29.54	24.54	3.57	-44.5	-49.2	10.5	8.04e-02	92	27	104	11534336	60	10436
2026-01-15 16:46:33.58	24.30	3.82	-40.6	-42.3	18.4	0.00e+00	7	27	0	14680064	54	6660
2026-01-15 16:46:37.61	24.05	4.07	-40.5	-42.2	18.5	0.00e+00	6	27	0	22020096	54	6576
2026-01-15 16:46:41.65	23.80	4.32	-40.5	-42.2	18.7	0.00e+00	1	27	0	29360128	54	6552
2026-01-15 16:46:45.69	23.54	4.58	-40.6	-42.3	18.6	0.00e+00	92	27	0	36700160	54	6648
2026-01-15 16:46:49.73	23.28	4.84	-40.7	-42.4	18.5	0.00e+00	27	27	0	45088768	54	6739
2026-01-15 16:46:53.77	23.02	5.09	-40.5	-42.1	18.9	0.00e+00	52	27	0	52428800	54	6469
2026-01-15 16:46:57.80	22.75	5.35	-40.4	-42.0	18.9	0.00e+00	68	27	0	59768832	54	6433
2026-01-15 16:47:01.84	22.47	5.61	-40.3	-41.8	19.2	0.00e+00	46	27	0	67108864	54	6281
2026-01-15 16:47:05.89	22.19	5.88	-40.3	-41.8	19.2	0.00e+00	0	27	0	74448896	54	6311
2026-01-15 16:47:09.92	21.90	6.14	-40.4	-41.9	19.1	0.00e+00	52	27	0	82837504	54	6375
2026-01-15 16:47:13.96	21.61	6.41	-40.1	-41.6	19.5	0.00e+00	90	27	0	90177536	54	6128
2026-01-15 16:47:18.00	21.31	6.68	-39.9	-41.3	19.8	0.00e+00	0	27	0	97517568	54	5919
2026-01-15 16:47:22.03	21.01	6.95	-39.9	-41.3	19.8	0.00e+00	0	27	0	104857600	54	5938
2026-01-15 16:47:26.07	20.70	7.23	-39.8	-41.1	20.1	0.00e+00	0	27	0	113246208	54	5813
2026-01-15 16:47:30.11	20.38	7.50	-39.7	-41.1	20.2	0.00e+00	92	27	0	120586240	52	6485
2026-01-15 16:47:34.15	20.06	7.78	-39.5	-40.8	20.5	0.00e+00	55	27	0	127926272	52	6280
2026-01-15 16:47:38.19	19.73	8.06	-39.3	-40.6	20.7	0.00e+00	0	27	0	135266304	52	6120
2026-01-15 16:47:42.22	19.39	8.35	-39.3	-40.6	20.7	0.00e+00	0	27	0	142606336	52	6130
2026-01-15 16:47:46.26	19.05	8.63	-39.4	-40.6	20.7	0.00e+00	92	27	0	150994944	52	6171
2026-01-15 16:47:50.30	18.70	8.92	-39.4	-40.7	20.7	0.00e+00	0	27	0	158334976	52	6184
2026-01-15 16:47:54.34	18.34	9.21	-39.3	-40.5	20.8	0.00e+00	0	27	0	165675008	52	6100
2026-01-15 16:47:58.37	17.98	9.50	-39.1	-40.3	21.0	0.00e+00	7	27	0	173015040	52	5963
2026-01-15 16:48:02.41	17.61	9.79	-39.1	-40.3	21.1	0.00e+00	92	27	0	181403648	52	5924
2026-01-15 16:48:06.45	17.23	10.09	-39.1	-40.4	21.1	0.00e+00	7	27	0	188743680	52	5995
2026-01-15 16:48:10.49	16.84	10.39	-39.2	-40.4	21.0	0.00e+00	30	27	0	196083712	52	5985
2026-01-15 16:48:14.53	16.44	10.69	-38.9	-40.1	21.2	0.00e+00	15	27	0	203423744	52	5791
2026-01-15 16:48:18.56	16.04	10.99	-39.0	-40.1	21.3	0.00e+00	92	27	0	210763776	52	5807
2026-01-15 16:48:22.60	15.62	11.30	-39.0	-40.2	21.2	0.00e+00	57	27	0	219152384	52	5854
2026-01-15 16:48:26.64	15.20	11.60	-38.9	-40.1	21.4	0.00e+00	6	27	0	226492416	52	5796
2026-01-15 16:48:30.68	14.77	11.91	-38.9	-40.0	21.4	0.00e+00	6	27	0	233832448	52	5747
2026-01-15 16:48:34.72	14.32	12.23	-39.1	-40.2	21.2	0.00e+00	51	27	0	241172480	52	5896
2026-01-15 16:48:38.76	13.87	12.54	-38.9	-40.0	21.4	0.00e+00	29	27	0	248512512	50	6445
2026-01-15 16:48:42.80	13.41	12.86	-38.9	-40.1	21.5	0.00e+00	2	27	0	256901120	50	6482
2026-01-15 16:48:46.84	12.94	13.18	-39.0	-40.2	21.4	0.00e+00	77	27	0	264241152	50	6571
2026-01-15 16:48:50.87	12.45	13.50	-38.9	-40.0	21.5	0.00e+00	3	27	0	271581184	50	6416
2026-01-15 16:48:54.91	11.96	13.82	-38.7	-39.8	21.6	0.00e+00	0	28	0	278921216	50	6301
2026-01-15 16:48:58.95	11.46	14.14	-38.5	-39.6	21.9	0.00e+00	5	28	0	287309824	50	6153
2026-01-15 16:49:02.99	10.94	14.47	-38.6	-39.7	21.8	0.00e+00	90	27	0	294649856	50	6204
2026-01-15 16:49:07.02	10.41	14.80	-38.5	-39.6	22.0	0.00e+00	0	27	0	301989888	50	6117
2026-01-15 16:49:11.06	9.87	15.13	-38.6	-39.7	21.8	0.00e+00	0	28	0	309329920	50	6233
2026-01-15 16:49:15.09	9.32	15.46	-38.4	-39.4	22.0	0.00e+00	0	27	0	316669952	50	6019
2026-01-15 16:49:19.13	8.75	15.80	-38.1	-39.2	22.4	0.00e+00	92	27	0	325058560	50	5837
2026-01-15 16:49:23.17	8.17	16.14	-38.0	-39.0	22.5	0.00e+00	0	28	0	332398592	50	5751
2026-01-15 16:49:27.21	7.58	16.47	-38.0	-39.0	22.6	0.00e+00	0	27	0	339738624	50	5712
2026-01-15 16:49:31.25	6.97	16.81	-37.8	-38.8	22.7	0.00e+00	2	27	0	347078656	50	5585
2026-01-15 16:49:35.29	6.35	17.16	-37.7	-38.7	22.8	0.00e+00	92	28	0	355467264	48	6201
2026-01-15 16:49:39.33	5.72	17.50	-37.7	-38.6	23.0	0.00e+00	2	28	0	362807296	48	6166
2026-01-15 16:49:43.37	5.07	17.84	-37.6	-38.6	23.0	0.00e+00	56	28	0	370147328	48	6106
2026-01-15 16:49:47.41	4.40	18.18	-37.9	-38.8	22.9	0.00e+00	4	27	0	377487360	48	6315
2026-01-15 16:49:51.44	3.72	18.53	-37.6	-38.6	23.0	0.00e+00	92	27	0	384827392	48	6145
2026-01-15 16:49:55.48	3.03	18.87	-37.5	-38.5	23.0	0.00e+00	0	27	0	393216000	48	6073
2026-01-15 16:49:59.52	2.31	19.22	-37.8	-38.8	22.8	0.00e+00	62	27	0	400556032	48	6250
2026-01-15 16:50:03.56	1.58	19.57	-38.0	-39.0	22.7	0.00e+00	25	28	0	407896064	48	6412
2026-01-15 16:50:07.59	0.84	19.91	-38.0	-39.0	22.7	0.00e+00	92	27	0	415236096	48	6393
2026-01-15 16:50:11.63	0.08	20.25	-38.0	-39.0	22.7	0.00e+00	0	27	0	423624704	48	6403
2026-01-15 16:50:15.67	359.29	20.60	-37.7	-38.7	22.9	0.00e+00	0	27	0	430964736	48	6222
2026-01-15 16:50:19.70	358.50	20.94	-37.7	-38.6	23.0	0.00e+00	36	27	0	438304768	48	6173
2026-01-15 16:50:23.74	357.68	21.28	-37.7	-38.7	22.9	0.00e+00	92	27	0	445644800	48	6236
2026-01-15 16:50:27.78	356.84	21.62	-37.5	-38.5	23.1	0.00e+00	0	27	0	452984832	48	6061
2026-01-15 16:50:31.82	355.99	21.96	-37.2	-38.1	23.5	0.00e+00	0	27	0	461373440	48	5776
2026-01-15 16:50:35.85	355.12	22.29	-37.0	-37.9	23.7	0.00e+00	92	28	0	468713472	48	5633
2026-01-15 16:50:39.89	354.22	22.63	-36.6	-37.5	24.0	0.00e+00	52	27	0	476053504	46	6035
2026-01-15 16:50:43.93	353.31	22.96	-36.6	-37.5	24.1	0.00e+00	49	27	0	483393536	46	6053
2026-01-15 16:50:47.96	352.38	23.28	-36.5	-37.3	24.3	0.00e+00	0	28	0	491782144	46	5961
2026-01-15 16:50:52.00	351.43	23.60	-36.3	-37.2	24.4	0.00e+00	92	27	0	499122176	46	5838
2026-01-15 16:50:56.04	350.46	23.92	-36.2	-37.1	24.5	0.00e+00	0	27	0	506462208	46	5786
2026-01-15 16:51:00.07	349.47	24.22	-36.6	-37.4	24.0	0.00e+00	33	27	0	513802240	46	6023
2026-01-15 16:51:04.11	348.46	24.53	-36.5	-37.4	24.2	0.00e+00	28	27	0	521142272	46	6002
2026-01-15 16:51:08.16	347.43	24.83	-36.4	-37.3	24.2	0.00e+00	92	28	0	529530880	46	5914
2026-01-15 16:51:12.19	346.38	25.12	-36.6	-37.5	24.1	0.00e+00	53	27	0	536870912	46	6067
2026-01-15 16:51:16.23	345.31	25.40	-36.7	-37.6	24.0	0.00e+00	0	27	0	544210944	46	6167
2026-01-15 16:51:20.27	344.22	25.68	-37.0	-37.9	23.7	0.00e+00	17	28	0	551550976	46	6359
2026-01-15 16:51:24.31	343.11	25.94	-36.7	-37.6	23.9	0.00e+00	92	28	0	558891008	46	6147
2026-01-15 16:51:28.35	341.98	26.20	-36.6	-37.4	24.2	0.00e+00	27	28	0	567279616	46	6022
2026-01-15 16:51:32.39	340.84	26.44	-36.8	-37.7	23.7	0.00e+00	49	28	0	574619648	46	6209
2026-01-15 16:51:36.43	339.67	26.68	-37.0	-38.0	23.8	0.00e+00	6	27	0	581959680	46	6396
2026-01-15 16:51:40.47	338.50	26.91	-36.8	-37.7	23.9	0.00e+00	92	28	0	589299712	46	6240
2026-01-15 16:51:44.50	337.30	27.12	-36.8	-37.8	23.8	0.00e+00	0	27	0	597688320	46	6269
2026-01-15 16:51:48.54	336.09	27.32	-37.0	-37.9	23.8	0.00e+00	53	27	0	605028352	46	6347
2026-01-15 16:51:52.58	334.86	27.51	-37.3	-38.3	23.4	0.00e+00	91	27	0	612368384	46	6619
2026-01-15 16:51:56.61	333.62	27.68	-37.5	-38.4	23.3	0.00e+00	92	27	0	619708416	46	6756
2026-01-15 16:52:00.65	332.37	27.84	-37.8	-38.8	22.7	0.00e+00	0	28	0	627048448	48	6299
2026-01-15 16:52:04.69	331.10	27.98	-37.9	-38.9	22.9	0.00e+00	32	27	0	635437056	48	6347
2026-01-15 16:52:08.73	329.83	28.11	-38.0	-39.0	22.9	0.00e+00	89	27	0	642777088	48	6418
2026-01-15 16:52:12.76	328.54	28.23	-37.9	-38.8	23.0	0.00e+00	66	27	0	650117120	48	6299
2026-01-15 16:52:16.80	327.24	28.33	-38.2	-39.2	22.6	0.00e+00	0	27	0	657457152	48	6543
2026-01-15 16:52:20.84	325.94	28.41	-38.5	-39.5	22.4	0.00e+00	0	27	0	665845760	48	6844
2026-01-15 16:52:24.88	324.63	28.48	-38.7	-39.7	22.1	0.00e+00	90	27	0	673185792	50	6243
2026-01-15 16:52:28.92	323.32	28.52	-39.0	-40.1	21.9	0.00e+00	55	28	0	680525824	50	6466
2026-01-15 16:52:32.95	322.00	28.56	-39.0	-40.1	21.9	0.00e+00	56	27	0	687865856	50	6484
2026-01-15 16:52:36.99	320.68	28.57	-38.4	-39.4	22.5	0.00e+00	0	28	0	695205888	50	6009
2026-01-15 16:52:41.03	319.36	28.57	-38.2	-39.2	22.7	0.00e+00	92	28	0	703594496	50	5841
2026-01-15 16:52:45.07	318.04	28.55	-38.1	-39.1	22.7	0.00e+00	33	28	0	710934528	50	5808
2026-01-15 16:52:49.11	316.72	28.52	-38.3	-39.3	22.6	0.00e+00	28	28	0	718274560	50	5920
2026-01-15 16:52:53.14	315.41	28.47	-37.8	-38.8	23.1	0.00e+00	49	28	0	725614592	50	5603
2026-01-15 16:52:57.18	314.10	28.40	-37.7	-38.6	23.2	0.00e+00	90	28	0	734003200	48	6138
2026-01-15 16:53:01.22	312.80	28.31	-37.4	-38.3	23.5	0.00e+00	2	27	0	741343232	48	5916
2026-01-15 16:53:05.26	311.50	28.21	-37.1	-38.0	23.7	0.00e+00	0	28	0	748683264	48	5756
2026-01-15 16:53:09.29	310.22	28.10	-36.6	-37.4	24.2	0.00e+00	5	28	0	756023296	46	6033
2026-01-15 16:53:13.33	308.94	27.96	-36.7	-37.5	24.1	0.00e+00	92	28	0	763363328	46	6086
2026-01-15 16:53:17.37	307.67	27.82	-36.9	-37.7	23.6	0.00e+00	6	27	0	771751936	46	6239
2026-01-15 16:53:21.41	306.42	27.66	-36.6	-37.5	24.2	0.00e+00	6	27	0	779091968	46	6044
2026-01-15 16:53:25.45	305.18	27.48	-37.0	-37.9	23.8	0.00e+00	5	28	0	786432000	46	6348
2026-01-15 16:53:29.48	303.95	27.29	-37.6	-38.6	23.2	0.00e+00	92	27	0	793772032	46	6871
2026-01-15 16:53:33.52	302.74	27.09	-37.7	-38.6	23.2	0.00e+00	60	28	0	802160640	48	6161
2026-01-15 16:53:37.56	301.55	26.87	-38.0	-39.0	22.9	0.00e+00	0	27	0	809500672	48	6394
2026-01-15 16:53:41.59	300.37	26.65	-38.2	-39.2	22.6	0.00e+00	8	27	0	816840704	48	6567
2026-01-15 16:53:45.63	299.21	26.41	-38.2	-39.2	22.6	0.00e+00	17	28	0	824180736	48	6567
2026-01-15 16:53:49.67	298.06	26.16	-38.4	-39.5	22.4	0.00e+00	0	27	0	831520768	48	6779
2026-01-15 16:53:53.70	296.94	25.90	-38.7	-39.7	22.2	0.00e+00	31	28	0	839909376	48	6976
2026-01-15 16:53:57.74	295.83	25.64	-38.4	-39.4	22.5	0.00e+00	92	27	0	847249408	50	5978
2026-01-15 16:54:01.77	294.74	25.36	-38.3	-39.3	22.6	0.00e+00	0	28	0	854589440	50	5946
2026-01-15 16:54:05.81	293.67	25.08	-38.2	-39.2	22.7	0.00e+00	0	27	0	861929472	50	5837
2026-01-15 16:54:09.85	292.62	24.78	-38.1	-39.1	22.7	0.00e+00	0	28	0	869269504	50	5806
2026-01-15 16:54:13.89	291.59	24.48	-38.0	-38.9	22.9	0.00e+00	91	28	0	877658112	50	5683
2026-01-15 16:54:17.93	290.58	24.18	-37.3	-38.2	23.5	0.00e+00	51	27	0	884998144	48	5890
2026-01-15 16:54:21.96	289.59	23.87	-37.3	-38.2	23.5	0.00e+00	30	27	0	892338176	48	5884
2026-01-15 16:54:25.99	288.62	23.55	-37.0	-37.8	23.8	0.00e+00	2	27	0	899678208	48	5627
2026-01-15 16:54:30.02	287.68	23.23	-36.7	-37.5	24.1	0.00e+00	92	27	0	908066816	46	6099
2026-01-15 16:54:34.05	286.75	22.90	-36.4	-37.3	24.2	0.00e+00	0	28	0	915406848	46	5914
2026-01-15 16:54:38.09	285.83	22.57	-36.6	-37.4	24.1	0.00e+00	32	27	0	922746880	46	6003
2026-01-15 16:54:42.13	284.94	22.24	-36.5	-37.3	24.2	0.00e+00	0	28	0	930086912	46	5928
2026-01-15 16:54:46.17	284.07	21.91	-36.4	-37.2	24.4	0.00e+00	92	28	0	937426944	46	5881
2026-01-15 16:54:50.21	283.21	21.57	-35.9	-36.7	24.8	0.00e+00	2	28	0	945815552	46	5532
2026-01-15 16:54:54.25	282.38	21.23	-35.7	-36.5	24.9	0.00e+00	0	27	0	953155584	44	6068
2026-01-15 16:54:58.29	281.56	20.88	-35.5	-36.3	25.0	0.00e+00	0	28	0	960495616	44	5936
2026-01-15 16:55:02.33	280.76	20.54	-35.3	-36.0	25.3	0.00e+00	92	28	0	967835648	44	5754
2026-01-15 16:55:06.37	279.98	20.19	-35.3	-36.1	25.3	0.00e+00	5	27	0	976224256	44	5765
2026-01-15 16:55:10.41	279.21	19.85	-35.5	-36.3	25.1	0.00e+00	6	27	0	983564288	44	5903
2026-01-15 16:55:14.44	278.47	19.50	-35.4	-36.2	25.1	0.00e+00	0	28	0	990904320	44	5887
2026-01-15 16:55:18.48	277.74	19.16	-35.3	-36.1	25.2	0.00e+00	92	27	0	998244352	44	5812
2026-01-15 16:55:22.52	277.02	18.81	-35.4	-36.2	25.0	0.00e+00	28	28	0	1005584384	44	5868
2026-01-15 16:55:26.56	276.33	18.46	-35.7	-36.5	24.7	0.00e+00	8	28	0	1013972992	44	6035
2026-01-15 16:55:30.60	275.65	18.12	-36.0	-36.8	24.6	0.00e+00	83	28	0	1021313024	44	6287
2026-01-15 16:55:34.64	274.98	17.77	-35.9	-36.7	24.6	0.00e+00	92	28	0	1028653056	44	6209
2026-01-15 16:55:38.67	274.33	17.43	-36.2	-37.1	24.3	0.00e+00	0	27	0	1035993088	44	6482
2026-01-15 16:55:42.71	273.69	17.09	-36.8	-37.7	23.8	0.00e+00	27	28	0	1044381696	46	6208
2026-01-15 16:55:46.75	273.07	16.74	-36.8	-37.6	23.8	0.00e+00	92	28	0	1051721728	46	6169
2026-01-15 16:55:50.79	272.47	16.40	-36.7	-37.6	23.9	0.00e+00	0	28	0	1059061760	46	6110
2026-01-15 16:55:54.83	271.87	16.07	-36.8	-37.7	23.8	0.00e+00	0	27	0	1066401792	46	6175
2026-01-15 16:55:58.86	271.29	15.73	-36.9	-37.8	23.7	0.00e+00	0	28	0	1073741824	46	6247
2026-01-15 16:56:02.90	270.73	15.39	-36.9	-37.8	23.6	0.00e+00	91	27	0	1082130432	46	6296
2026-01-15 16:56:06.94	270.17	15.06	-37.3	-38.2	23.3	0.00e+00	26	27	0	1089470464	46	6614
2026-01-15 16:56:10.98	269.63	14.73	-37.4	-38.3	23.2	0.00e+00	0	27	0	1096810496	46	6683
2026-01-15 16:56:15.01	269.10	14.40	-37.5	-38.5	23.0	0.00e+00	0	27	0	1104150528	46	6801
2026-01-15 16:56:19.05	268.59	14.07	-37.6	-38.6	22.9	0.00e+00	92	28	0	1112539136	46	6864
2026-01-15 16:56:23.09	268.08	13.74	-37.6	-38.5	22.9	0.00e+00	0	28	0	1119879168	46	6816
2026-01-15 16:56:27.13	267.58	13.42	-37.8	-38.8	22.7	0.00e+00	0	27	0	1127219200	48	6258
2026-01-15 16:56:31.17	267.10	13.10	-37.9	-38.9	22.5	0.00e+00	0	28	0	1134559232	48	6359
2026-01-15 16:56:35.20	266.63	12.78	-38.0	-39.1	22.3	0.00e+00	96	27	0	1141899264	48	6487
2026-01-15 16:56:39.24	266.17	12.46	-38.5	-39.6	21.8	0.00e+00	0	28	0	1150287872	48	6874
2026-01-15 16:56:43.28	265.71	12.15	-38.8	-39.9	21.6	0.00e+00	0	27	0	1157627904	50	6358
2026-01-15 16:56:47.31	265.27	11.84	-38.7	-39.8	21.7	0.00e+00	0	28	0	1164967936	50	6311
2026-01-15 16:56:51.35	264.84	11.53	-38.8	-39.9	21.6	0.00e+00	91	28	0	1172307968	50	6372
2026-01-15 16:56:55.39	264.41	11.22	-39.0	-40.1	17.7	0.00e+00	60	28	0	1180696576	50	6518
2026-01-15 16:56:59.43	264.00	10.91	-39.0	-40.1	21.4	0.00e+00	3	28	0	1188036608	52	5799
2026-01-15 16:57:03.47	263.59	10.61	-39.0	-40.1	21.3	0.00e+00	36	27	0	1195376640	52	5814
2026-01-15 16:57:07.51	263.19	10.31	-38.8	-39.9	21.5	0.00e+00	15	28	0	1202716672	52	5676
2026-01-15 16:57:11.54	262.80	10.01	-39.0	-40.2	21.3	0.00e+00	22	28	0	1210056704	52	5865
2026-01-15 16:57:15.58	262.42	9.71	-39.2	-40.4	21.0	0.00e+00	64	28	0	1218445312	52	5990
2026-01-15 16:57:19.62	262.05	9.42	-39.4	-40.6	20.8	0.00e+00	90	28	0	1225785344	52	6152
2026-01-15 16:57:23.66	261.68	9.13	-39.5	-40.8	20.6	0.00e+00	6	27	0	1233125376	52	6289
2026-01-15 16:57:27.70	261.32	8.84	-39.8	-41.1	20.3	0.00e+00	17	28	0	1240465408	52	6507
2026-01-15 16:57:31.74	260.97	8.55	-39.9	-41.2	20.2	0.00e+00	66	28	0	1248854016	52	6599
2026-01-15 16:57:35.77	260.62	8.27	-39.9	-41.3	20.1	0.00e+00	92	28	0	1256194048	52	6655
2026-01-15 16:57:39.81	260.29	7.98	-40.0	-41.3	20.0	0.00e+00	2	28	0	1263534080	52	6675
2026-01-15 16:57:43.85	259.96	7.70	-40.0	-41.4	19.9	0.00e+00	0	27	0	1270874112	52	6732
2026-01-15 16:57:47.89	259.63	7.42	-39.8	-41.1	20.1	0.00e+00	21	27	0	1278214144	52	6510
2026-01-15 16:57:51.92	259.31	7.15	-39.9	-41.3	19.9	0.00e+00	90	27	0	1286602752	52	6648
2026-01-15 16:57:55.96	259.00	6.87	-40.0	-41.4	19.8	0.00e+00	65	28	0	1293942784	52	6769
2026-01-15 16:57:59.99	258.70	6.60	-40.4	-41.9	19.3	0.00e+00	64	27	0	1301282816	52	7160
2026-01-15 16:58:04.03	258.40	6.33	-40.4	-41.9	19.3	0.00e+00	0	27	0	1308622848	52	7145
2026-01-15 16:58:08.07	258.10	6.06	-40.5	-42.1	19.1	0.00e+00	92	28	0	1317011456	54	6475
2026-01-15 16:58:12.11	257.81	5.80	-40.7	-42.3	18.8	0.00e+00	22	27	0	1324351488	54	6628
2026-01-15 16:58:16.15	257.53	5.53	-40.8	-42.4	18.5	0.00e+00	22	27	0	1331691520	54	6766
2026-01-15 16:58:20.19	257.25	5.27	-41.0	-42.7	18.4	0.00e+00	62	28	0	1339031552	54	6966
2026-01-15 16:58:24.23	256.98	5.01	-41.4	-43.3	17.7	0.00e+00	90	28	0	1346371584	54	7432
2026-01-15 16:58:28.26	256.71	4.75	-41.1	-42.9	18.1	0.00e+00	13	28	0	1354760192	54	7111
2026-01-15 16:58:32.29	256.45	4.50	-41.1	-43.0	17.8	0.00e+00	0	28	0	1362100224	54	7178
2026-01-15 16:58:36.33	256.19	4.24	-40.7	-42.4	18.3	0.00e+00	0	27	0	1369440256	54	6718
2026-01-15 16:58:40.38	255.93	3.99	-41.1	-42.9	17.8	0.00e+00	92	28	0	1376780288	54	7159
2026-01-15 16:58:44.42	255.68	3.74	-41.3	-43.2	17.5	0.00e+00	4	28	0	1385168896	54	7348
2026-01-15 16:58:48.45	255.44	3.49	-41.2	-43.0	17.6	0.00e+00	1	28	0	1392508928	54	7236
2026-01-15 16:58:52.49	255.20	3.24	-41.4	-43.4	17.2	0.00e+00	64	28	0	1399848960	54	7554
2026-01-15 16:58:56.53	254.96	3.00	-46.6	-61.0	3.6	4.50e-01	0	28	104	1407188992	60	40437
2026-01-15 16:59:00.56	254.73	2.75	-48.0	-63.2	3.6	1.51e+00	0	28	104	1407188992	60	52072
2026-01-15 16:59:04.60	254.50	2.51	-48.1	-63.3	3.6	1.51e+00	0	28	104	1407188992	60	52801
2026-01-15 16:59:08.64	254.28	2.27	-47.8	-63.3	3.6	1.51e+00	0	28	104	1407188992	60	52666
2026-01-15 16:59:12.67	254.06	2.03	-47.8	-63.2	3.6	1.51e+00	0	28	104	1407188992	60	52475
2026-01-15 16:59:16.71	253.84	1.79	-48.0	-63.2	3.6	1.51e+00	0	28	104	1407188992	60	52547
2026-01-15 16:59:20.75	253.63	1.56	-48.0	-63.2	3.6	1.51e+00	0	28	104	1407188992	60	52502
2026-01-15 16:59:24.79	253.42	1.32	-48.0	-63.2	3.6	1.51e+00	0	28	104	1407188992	60	52546
2026-01-15 16:59:28.83	253.21	1.09	-48.0	-63.2	3.6	1.51e+00	0	28	104	1407188992	60	52486
2026-01-15 16:59:32.86	253.01	0.86	-48.0	-63.2	3.6	1.51e+00	0	28	104	1407188992	60	52239
2026-01-15 16:59:36.90	252.81	0.63	-48.0	-63.2	3.6	1.51e+00	0	28	104	1407188992	60	52158
2026-01-15 16:59:40.94	252.61	0.40	-48.0	-63.2	3.6	1.51e+00	0	28	104	1407188992	60	52371
2026-01-15 16:59:44.98	252.42	0.17	-48.0	-63.2	3.6	1.51e+00	0	28	104	1407188992	60	52166

#Closed at: 2026-01-15 16:59:48
#Recorded file [1407 MB]: D:/lorett/data/35029_260116_044528.dat