passes_logs/2026/01/15/R4.6S_Anadyr/R4.6S_Anadyr__20260115_230005_SUOMI_NPP_rec.log

#Pass ID: 20260115_230005_SUOMI NPP
#Satellite: SUOMI NPP
#Configuration: NPP
#almurnet v.1.7.20251203
#Start time: 2026-01-15 23:00:07

#Version: 2.2.20231116
#Station: R4.6S_Anadyr
#Location: 177.4865 lon 64.73178 lat
#TLE: 1 37849U 11061A   26014.61059675  .00000037  00000+0  38639-4 0  9994
#TLE: 2 37849  98.7810 316.6625 0002460  64.3781 295.7649 14.19525105736658

#Time	Az	El	Level	Level2	SNR	BER	BlckErr	Temp	State	Recorded	gain1	gain2
2026-01-15 23:00:07.50	124.70	0.14	-48.2	-60.7	3.5	1.52e+00	0	25	0	0	60	38225
2026-01-15 23:00:11.53	124.58	0.38	-48.4	-63.6	3.6	1.51e+00	0	26	104	0	60	54398
2026-01-15 23:00:15.57	124.45	0.61	-48.2	-63.5	3.6	1.51e+00	0	26	104	0	60	54276
2026-01-15 23:00:19.61	124.32	0.86	-48.2	-63.4	3.6	1.51e+00	0	26	104	0	60	53590
2026-01-15 23:00:23.65	124.18	1.10	-47.6	-63.0	3.6	1.51e+00	0	26	104	0	60	50879
2026-01-15 23:00:27.68	124.05	1.34	-44.6	-61.7	3.6	1.51e+00	0	26	104	0	60	44190
2026-01-15 23:00:31.72	123.91	1.59	-44.6	-61.7	3.5	1.51e+00	0	27	104	0	60	43782
2026-01-15 23:00:35.76	123.77	1.84	-44.6	-61.7	3.5	1.51e+00	0	27	104	0	60	43898
2026-01-15 23:00:39.80	123.62	2.09	-44.6	-61.6	3.6	1.51e+00	0	27	104	0	60	43253
2026-01-15 23:00:43.84	123.48	2.34	-44.5	-61.6	3.6	1.51e+00	0	27	104	0	60	43487
2026-01-15 23:00:47.88	123.33	2.59	-44.6	-61.5	3.6	1.51e+00	0	27	104	0	60	42932
2026-01-15 23:00:51.92	123.17	2.85	-44.5	-61.0	3.6	1.51e+00	0	27	104	0	60	40758
2026-01-15 23:00:55.95	123.02	3.11	-44.5	-61.6	3.6	1.51e+00	0	27	104	0	60	43225
2026-01-15 23:01:00.00	122.86	3.37	-43.6	-50.3	10.2	2.78e-02	0	27	0	3145728	60	11783
2026-01-15 23:01:04.04	122.70	3.63	-41.1	-44.1	16.6	0.00e+00	0	27	0	10485760	56	7283
2026-01-15 23:01:08.07	122.54	3.90	-44.0	-52.8	7.8	4.60e-03	0	27	0	13631488	60	15824
2026-01-15 23:01:12.11	122.37	4.17	-41.4	-43.9	16.8	0.00e+00	0	27	0	16777216	56	7092
2026-01-15 23:01:16.15	122.20	4.44	-39.5	-40.9	19.5	0.00e+00	0	27	0	25165824	52	6356
2026-01-15 23:01:20.18	122.02	4.71	-39.9	-41.4	19.3	0.00e+00	0	27	0	32505856	52	6694
2026-01-15 23:01:24.21	121.85	4.98	-40.2	-41.9	18.8	0.00e+00	0	27	0	39845888	52	7118
2026-01-15 23:01:28.24	121.67	5.26	-40.0	-41.6	19.1	0.00e+00	0	27	0	47185920	52	6911
2026-01-15 23:01:32.28	121.48	5.54	-39.4	-41.0	19.8	0.00e+00	0	27	0	54525952	52	6403
2026-01-15 23:01:36.31	121.29	5.82	-39.6	-41.3	19.4	0.00e+00	0	27	0	62914560	52	6624
2026-01-15 23:01:40.35	121.10	6.11	-39.8	-41.5	19.1	0.00e+00	0	27	0	70254592	52	6813
2026-01-15 23:01:44.38	120.90	6.40	-39.3	-40.6	20.1	0.00e+00	0	27	0	77594624	52	6151
2026-01-15 23:01:48.42	120.70	6.69	-39.7	-41.1	19.7	0.00e+00	0	27	0	84934656	52	6536
2026-01-15 23:01:52.45	120.50	6.98	-39.8	-41.3	19.6	0.00e+00	0	27	0	92274688	52	6675
2026-01-15 23:01:56.48	120.29	7.28	-39.7	-41.1	19.8	0.00e+00	0	27	0	100663296	52	6495
2026-01-15 23:02:00.52	120.07	7.58	-39.2	-40.5	20.3	0.00e+00	0	27	0	108003328	52	6065
2026-01-15 23:02:04.56	119.86	7.89	-39.1	-40.4	20.4	0.00e+00	0	27	0	115343360	52	6025
2026-01-15 23:02:08.60	119.63	8.19	-39.4	-40.8	20.2	0.00e+00	0	27	0	122683392	52	6275
2026-01-15 23:02:12.63	119.40	8.50	-39.0	-40.3	20.7	0.00e+00	0	27	0	131072000	52	5947
2026-01-15 23:02:16.66	119.17	8.82	-39.2	-40.5	20.5	0.00e+00	0	27	0	138412032	52	6072
2026-01-15 23:02:20.70	118.93	9.13	-39.0	-40.2	20.8	0.00e+00	0	27	0	145752064	52	5886
2026-01-15 23:02:24.73	118.68	9.46	-38.5	-39.7	21.2	0.00e+00	0	27	0	153092096	50	6222
2026-01-15 23:02:28.77	118.43	9.78	-38.3	-39.5	21.4	0.00e+00	0	27	0	160432128	50	6088
2026-01-15 23:02:32.80	118.18	10.11	-38.5	-39.8	21.1	0.00e+00	0	27	0	168820736	50	6317
2026-01-15 23:02:36.84	117.91	10.44	-38.0	-39.1	21.8	0.00e+00	0	27	0	176160768	50	5790
2026-01-15 23:02:40.88	117.65	10.78	-37.8	-39.0	21.9	0.00e+00	0	27	0	183500800	48	6403
2026-01-15 23:02:44.92	117.37	11.12	-38.1	-39.4	21.6	0.00e+00	0	27	0	190840832	48	6708
2026-01-15 23:02:48.95	117.09	11.46	-38.0	-39.3	21.7	0.00e+00	0	27	0	198180864	48	6638
2026-01-15 23:02:52.98	116.80	11.81	-37.9	-39.2	21.9	0.00e+00	0	27	0	206569472	48	6556
2026-01-15 23:02:57.02	116.50	12.16	-38.4	-39.6	21.4	0.00e+00	0	27	0	213909504	48	6905
2026-01-15 23:03:01.06	116.20	12.52	-38.0	-39.1	21.8	0.00e+00	0	27	0	221249536	48	6518
2026-01-15 23:03:05.09	115.88	12.88	-37.9	-39.2	21.8	0.00e+00	0	27	0	228589568	48	6604
2026-01-15 23:03:09.13	115.56	13.25	-37.8	-39.5	21.5	0.00e+00	0	27	0	236978176	48	6830
2026-01-15 23:03:13.16	115.24	13.62	-37.6	-38.7	22.3	0.00e+00	0	27	0	244318208	48	6213
2026-01-15 23:03:17.19	114.90	13.99	-37.7	-38.8	22.1	0.00e+00	0	27	0	251658240	48	6263
2026-01-15 23:03:21.23	114.55	14.37	-37.8	-38.9	22.1	0.00e+00	0	27	0	258998272	48	6390
2026-01-15 23:03:25.27	114.20	14.76	-37.2	-38.4	22.5	0.00e+00	0	27	0	266338304	48	6007
2026-01-15 23:03:29.30	113.83	15.15	-37.3	-38.4	22.5	0.00e+00	0	27	0	274726912	46	6768
2026-01-15 23:03:33.34	113.46	15.54	-37.5	-38.5	22.5	0.00e+00	0	27	0	282066944	46	6803
2026-01-15 23:03:37.38	113.07	15.94	-37.7	-38.8	22.3	0.00e+00	0	27	0	289406976	48	6278
2026-01-15 23:03:41.41	112.68	16.35	-38.2	-39.3	21.9	0.00e+00	0	27	0	296747008	48	6649
2026-01-15 23:03:45.45	112.27	16.76	-37.7	-38.8	22.4	0.00e+00	0	27	0	304087040	48	6252
2026-01-15 23:03:49.48	111.85	17.18	-38.1	-39.2	22.0	0.00e+00	0	27	0	312475648	48	6556
2026-01-15 23:03:53.52	111.42	17.60	-37.6	-38.6	22.6	0.00e+00	0	27	0	319815680	48	6162
2026-01-15 23:03:57.56	110.97	18.03	-37.9	-39.0	22.2	0.00e+00	0	27	0	327155712	48	6408
2026-01-15 23:04:01.60	110.52	18.46	-37.6	-38.7	22.6	0.00e+00	0	27	0	334495744	48	6177
2026-01-15 23:04:05.63	110.05	18.90	-37.1	-38.2	22.7	0.00e+00	0	27	0	342884352	48	5896
2026-01-15 23:04:09.67	109.56	19.34	-37.5	-38.5	22.5	0.00e+00	0	27	0	350224384	48	6093
2026-01-15 23:04:13.70	109.06	19.79	-37.3	-38.4	22.8	0.00e+00	0	27	0	357564416	48	6001
2026-01-15 23:04:17.74	108.55	20.25	-38.0	-39.1	22.0	0.00e+00	0	27	0	364904448	48	6535
2026-01-15 23:04:21.77	108.02	20.71	-38.0	-39.0	22.1	0.00e+00	0	27	0	372244480	48	6451
2026-01-15 23:04:25.81	107.47	21.18	-38.1	-39.2	22.0	0.00e+00	0	27	0	380633088	48	6572
2026-01-15 23:04:29.84	106.90	21.65	-37.8	-38.8	22.4	0.00e+00	0	27	0	387973120	48	6315
2026-01-15 23:04:33.88	106.32	22.13	-38.4	-39.6	21.8	0.00e+00	0	27	0	395313152	48	6919
2026-01-15 23:04:37.92	105.72	22.62	-38.0	-39.8	21.5	0.00e+00	0	27	0	402653184	48	7071
2026-01-15 23:04:41.95	105.10	23.11	-38.0	-39.6	21.8	0.00e+00	0	27	0	411041792	48	6872
2026-01-15 23:04:45.98	104.46	23.61	-38.0	-39.1	22.2	0.00e+00	0	27	0	418381824	48	6490
2026-01-15 23:04:50.02	103.80	24.11	-37.8	-38.9	22.4	0.00e+00	0	27	0	425721856	48	6374
2026-01-15 23:04:54.06	103.11	24.62	-37.5	-38.5	22.6	0.00e+00	0	27	0	433061888	48	6092
2026-01-15 23:04:58.10	102.40	25.13	-37.5	-38.5	22.8	0.00e+00	0	27	0	440401920	48	6062
2026-01-15 23:05:02.13	101.67	25.65	-38.0	-39.1	22.3	0.00e+00	0	27	0	448790528	48	6465
2026-01-15 23:05:06.17	100.92	26.18	-38.4	-39.4	21.9	0.00e+00	0	27	0	456130560	48	6764
2026-01-15 23:05:10.21	100.14	26.70	-39.3	-40.6	20.9	0.00e+00	0	27	0	463470592	50	6896
2026-01-15 23:05:14.24	99.33	27.24	-39.0	-40.2	21.6	0.00e+00	0	27	0	470810624	50	6592
2026-01-15 23:05:18.27	98.50	27.77	-39.8	-41.2	20.3	0.00e+00	0	27	0	479199232	52	6573
2026-01-15 23:05:22.31	97.63	28.31	-40.5	-41.9	20.0	0.00e+00	0	27	0	486539264	54	6379
2026-01-15 23:05:26.34	96.74	28.85	-40.5	-41.9	19.8	0.00e+00	0	27	0	493879296	54	6379
2026-01-15 23:05:30.38	95.81	29.40	-40.3	-41.7	19.9	0.00e+00	0	27	0	501219328	54	6232
2026-01-15 23:05:34.42	94.85	29.94	-39.7	-40.9	20.8	0.00e+00	0	27	0	508559360	52	6351
2026-01-15 23:05:38.45	93.86	30.49	-39.0	-40.2	21.3	0.00e+00	0	27	0	516947968	50	6595
2026-01-15 23:05:42.49	92.83	31.04	-39.4	-40.6	21.0	0.00e+00	0	27	0	524288000	50	6882
2026-01-15 23:05:46.53	91.77	31.59	-39.4	-40.5	21.2	0.00e+00	0	27	0	531628032	52	6101
2026-01-15 23:05:50.57	90.67	32.13	-39.6	-40.9	20.7	0.00e+00	0	27	0	538968064	52	6362
2026-01-15 23:05:54.60	89.54	32.68	-39.0	-40.2	21.4	0.00e+00	0	27	0	546308096	52	5884
2026-01-15 23:05:58.64	88.36	33.22	-38.9	-40.1	21.4	0.00e+00	0	27	0	554696704	50	6537
2026-01-15 23:06:02.67	87.15	33.75	-38.8	-40.0	21.7	0.00e+00	0	27	0	562036736	50	6409
2026-01-15 23:06:06.71	85.90	34.28	-39.1	-40.2	21.3	0.00e+00	0	27	0	569376768	50	6594
2026-01-15 23:06:10.74	84.60	34.80	-40.5	-42.0	19.8	0.00e+00	0	27	0	576716800	52	7203
2026-01-15 23:06:14.78	83.26	35.32	-41.2	-42.9	19.2	0.00e+00	0	27	0	585105408	54	7089
2026-01-15 23:06:18.82	81.88	35.82	-41.5	-43.3	18.7	0.00e+00	0	27	0	592445440	54	7439
2026-01-15 23:06:22.85	80.46	36.31	-40.8	-42.4	19.4	0.00e+00	0	27	0	599785472	54	6698
2026-01-15 23:06:26.88	79.00	36.79	-39.3	-40.5	21.2	0.00e+00	0	27	0	607125504	52	6072
2026-01-15 23:06:30.92	77.48	37.25	-39.2	-40.4	21.3	0.00e+00	0	27	0	614465536	52	6030
2026-01-15 23:06:34.95	75.93	37.69	-38.5	-39.6	21.9	0.00e+00	0	27	0	622854144	50	6164
2026-01-15 23:06:38.99	74.34	38.12	-38.2	-39.2	22.5	0.00e+00	0	27	0	630194176	50	5891
2026-01-15 23:06:43.02	72.71	38.52	-36.9	-37.8	23.4	0.00e+00	0	27	0	637534208	48	5619
2026-01-15 23:06:47.06	71.03	38.91	-38.5	-39.7	21.4	0.00e+00	0	27	0	644874240	48	6943
2026-01-15 23:06:51.10	69.31	39.26	-36.4	-37.3	23.7	0.00e+00	0	27	0	652214272	46	5935
2026-01-15 23:06:55.13	67.56	39.59	-36.8	-37.7	23.5	0.00e+00	0	27	0	660602880	46	6238
2026-01-15 23:06:59.17	65.78	39.90	-37.6	-38.6	22.7	0.00e+00	0	27	0	667942912	46	6891
2026-01-15 23:07:03.21	63.96	40.17	-36.8	-37.7	23.4	0.00e+00	0	27	0	675282944	46	6214
2026-01-15 23:07:07.24	62.11	40.41	-37.4	-38.4	22.9	0.00e+00	0	27	0	682622976	46	6747
2026-01-15 23:07:11.28	60.24	40.62	-36.6	-37.4	23.7	0.00e+00	0	27	0	691011584	46	6033
2026-01-15 23:07:15.31	58.35	40.79	-37.0	-37.9	23.1	0.00e+00	0	27	0	698351616	46	6385
2026-01-15 23:07:19.35	56.43	40.93	-37.7	-38.7	22.7	0.00e+00	0	27	0	705691648	46	6992
2026-01-15 23:07:23.39	54.50	41.04	-37.7	-38.7	22.7	0.00e+00	0	27	0	713031680	48	6234
2026-01-15 23:07:27.42	52.57	41.10	-38.2	-39.3	22.5	0.00e+00	0	27	0	720371712	48	6623
2026-01-15 23:07:31.47	50.62	41.13	-38.3	-39.4	22.2	0.00e+00	0	27	0	728760320	48	6703
2026-01-15 23:07:35.50	48.68	41.12	-38.5	-39.6	22.0	0.00e+00	0	27	0	736100352	48	6860
2026-01-15 23:07:39.54	46.73	41.08	-42.0	-43.9	18.3	0.00e+00	0	27	0	743440384	56	7140
2026-01-15 23:07:43.58	44.80	41.00	-40.7	-42.2	19.3	0.00e+00	0	27	0	750780416	54	6601
2026-01-15 23:07:47.61	42.88	40.88	-40.7	-42.1	19.8	0.00e+00	0	27	0	759169024	54	6500
2026-01-15 23:07:51.65	40.97	40.72	-41.8	-43.6	18.6	0.00e+00	0	27	0	766509056	56	6889
2026-01-15 23:07:55.68	39.09	40.53	-40.0	-41.4	20.3	0.00e+00	0	27	0	773849088	54	5978
2026-01-15 23:07:59.72	37.23	40.31	-42.0	-44.0	18.2	0.00e+00	0	27	0	781189120	56	7220
2026-01-15 23:08:03.75	35.40	40.06	-38.9	-40.1	21.5	0.00e+00	0	27	0	788529152	52	5823
2026-01-15 23:08:07.79	33.60	39.77	-37.1	-38.1	23.2	0.00e+00	0	27	0	796917760	48	5776
2026-01-15 23:08:11.83	31.83	39.45	-37.0	-37.9	23.4	0.00e+00	0	27	0	804257792	48	5658
2026-01-15 23:08:15.86	30.10	39.11	-35.5	-36.4	24.4	0.00e+00	0	27	0	811597824	44	5965
2026-01-15 23:08:19.90	28.40	38.74	-35.5	-36.4	24.4	0.00e+00	0	27	0	818937856	44	5979
2026-01-15 23:08:23.94	26.75	38.35	-35.0	-35.8	24.8	0.00e+00	0	27	0	826277888	44	5591
2026-01-15 23:08:27.98	25.13	37.94	-37.3	-38.3	23.0	0.00e+00	0	27	0	834666496	46	6666
2026-01-15 23:08:32.01	23.56	37.51	-35.5	-36.3	24.3	0.00e+00	0	27	0	842006528	44	5925
2026-01-15 23:08:36.05	22.03	37.05	-37.3	-38.3	22.9	0.00e+00	0	27	0	849346560	46	6650
2026-01-15 23:08:40.09	20.54	36.59	-35.8	-36.6	24.2	0.00e+00	0	27	0	856686592	44	6164
2026-01-15 23:08:44.12	19.10	36.10	-37.8	-38.9	22.4	0.00e+00	0	27	0	865075200	46	7091
2026-01-15 23:08:48.16	17.70	35.61	-36.8	-37.8	23.3	0.00e+00	0	27	0	872415232	46	6248
2026-01-15 23:08:52.20	16.34	35.10	-37.3	-38.3	22.9	0.00e+00	0	27	0	879755264	48	5920
2026-01-15 23:08:56.24	15.02	34.59	-38.2	-39.3	22.1	0.00e+00	0	27	0	887095296	48	6662
2026-01-15 23:09:00.27	13.75	34.06	-38.2	-39.5	22.0	0.00e+00	0	27	0	894435328	50	6050
2026-01-15 23:09:04.31	12.51	33.53	-37.5	-38.5	22.9	0.00e+00	0	27	0	902823936	48	6060
2026-01-15 23:09:08.34	11.32	33.00	-39.2	-40.4	21.3	0.00e+00	0	27	0	910163968	50	6706
2026-01-15 23:09:12.38	10.17	32.46	-38.8	-39.9	21.6	0.00e+00	0	27	0	917504000	50	6383
2026-01-15 23:09:16.42	9.05	31.91	-40.4	-41.8	19.9	0.00e+00	0	27	0	924844032	52	7011
2026-01-15 23:09:20.46	7.97	31.37	-41.0	-42.6	19.3	0.00e+00	0	27	0	933232640	56	6118
2026-01-15 23:09:24.50	6.93	30.82	-40.6	-42.0	19.9	0.00e+00	0	27	0	940572672	52	7251
2026-01-15 23:09:28.53	5.92	30.28	-39.1	-40.4	21.3	0.00e+00	0	27	0	947912704	52	5976
2026-01-15 23:09:32.57	4.95	29.73	-39.4	-40.6	21.0	0.00e+00	0	27	0	955252736	52	6161
2026-01-15 23:09:36.61	4.01	29.19	-39.9	-41.2	20.4	0.00e+00	0	27	0	962592768	52	6600
2026-01-15 23:09:40.64	3.10	28.65	-38.3	-39.4	22.1	0.00e+00	0	27	0	970981376	50	5975
2026-01-15 23:09:44.68	2.22	28.11	-38.3	-39.3	22.2	0.00e+00	0	27	0	978321408	50	5941
2026-01-15 23:09:48.72	1.37	27.57	-37.5	-38.5	22.6	0.00e+00	0	27	0	985661440	48	6036
2026-01-15 23:09:52.76	0.55	27.04	-38.0	-39.0	22.3	0.00e+00	0	27	0	993001472	48	6450
2026-01-15 23:09:56.79	359.76	26.51	-38.6	-39.7	21.6	0.00e+00	0	27	0	1001390080	48	6964
2026-01-15 23:10:00.83	358.99	25.99	-38.6	-39.8	21.5	0.00e+00	0	27	0	1008730112	50	6258
2026-01-15 23:10:04.87	358.25	25.47	-38.5	-39.6	22.0	0.00e+00	0	27	0	1016070144	50	6106
2026-01-15 23:10:08.90	357.53	24.95	-37.4	-38.5	22.8	0.00e+00	0	27	0	1023410176	48	6038
2026-01-15 23:10:12.94	356.84	24.44	-37.8	-38.8	22.5	0.00e+00	0	27	0	1030750208	48	6291
2026-01-15 23:10:16.98	356.17	23.94	-37.2	-38.1	22.9	0.00e+00	0	27	0	1039138816	48	5824
2026-01-15 23:10:21.02	355.52	23.44	-36.9	-37.8	23.2	0.00e+00	0	27	0	1046478848	46	6314
2026-01-15 23:10:25.06	354.89	22.95	-39.2	-40.6	20.9	0.00e+00	0	27	0	1053818880	50	6877
2026-01-15 23:10:29.09	354.28	22.46	-39.1	-40.4	21.1	0.00e+00	0	27	0	1061158912	50	6751
2026-01-15 23:10:33.13	353.69	21.98	-38.7	-39.8	21.6	0.00e+00	0	27	0	1069547520	50	6292
2026-01-15 23:10:37.17	353.11	21.50	-38.3	-39.3	22.0	0.00e+00	0	27	0	1076887552	50	5948
2026-01-15 23:10:41.21	352.56	21.03	-38.1	-39.2	22.0	0.00e+00	0	27	0	1084227584	50	5845
2026-01-15 23:10:45.24	352.02	20.57	-37.6	-38.7	22.5	0.00e+00	0	27	0	1091567616	48	6196
2026-01-15 23:10:49.27	351.50	20.11	-37.4	-38.4	22.8	0.00e+00	0	27	0	1098907648	48	5991
2026-01-15 23:10:53.31	351.00	19.66	-38.4	-39.5	21.8	0.00e+00	0	27	0	1107296256	48	6804
2026-01-15 23:10:57.35	350.51	19.21	-38.9	-40.1	21.3	0.00e+00	0	27	0	1114636288	50	6499
2026-01-15 23:11:01.39	350.03	18.77	-38.3	-39.3	22.0	0.00e+00	0	27	0	1121976320	50	5939
2026-01-15 23:11:05.43	349.57	18.34	-38.1	-39.1	22.0	0.00e+00	0	27	0	1129316352	48	6528
2026-01-15 23:11:09.46	349.12	17.91	-38.6	-39.7	21.7	0.00e+00	0	27	0	1136656384	48	6972
2026-01-15 23:11:13.50	348.68	17.48	-39.2	-40.5	20.9	0.00e+00	0	27	0	1145044992	50	6787
2026-01-15 23:11:17.54	348.26	17.06	-39.3	-40.5	20.9	0.00e+00	0	27	0	1152385024	50	6841
2026-01-15 23:11:21.58	347.85	16.65	-38.3	-39.4	21.9	0.00e+00	0	27	0	1159725056	50	5993
2026-01-15 23:11:25.62	347.45	16.24	-37.4	-38.4	22.6	0.00e+00	0	27	0	1167065088	48	5995
2026-01-15 23:11:29.65	347.06	15.84	-37.6	-38.7	22.3	0.00e+00	0	27	0	1175453696	48	6192
2026-01-15 23:11:33.69	346.68	15.45	-38.1	-39.2	22.0	0.00e+00	0	27	0	1182793728	48	6591
2026-01-15 23:11:37.72	346.31	15.05	-38.3	-39.4	21.7	0.00e+00	0	27	0	1190133760	48	6714
2026-01-15 23:11:41.76	345.96	14.67	-38.1	-39.2	22.0	0.00e+00	0	27	0	1197473792	48	6554
2026-01-15 23:11:45.79	345.61	14.29	-38.6	-39.8	21.4	0.00e+00	0	27	0	1204813824	48	7012
2026-01-15 23:11:49.82	345.27	13.91	-39.5	-40.8	20.4	0.00e+00	0	27	0	1213202432	50	7080
2026-01-15 23:11:53.86	344.94	13.54	-40.0	-41.5	19.9	0.00e+00	0	27	0	1220542464	52	6799
2026-01-15 23:11:57.89	344.62	13.17	-39.8	-41.2	20.2	0.00e+00	0	27	0	1227882496	52	6594
2026-01-15 23:12:01.93	344.30	12.81	-39.5	-40.8	20.4	0.00e+00	0	27	0	1235222528	52	6304
2026-01-15 23:12:05.97	344.00	12.45	-39.3	-40.6	20.8	0.00e+00	0	27	0	1243611136	52	6104
2026-01-15 23:12:10.00	343.70	12.09	-39.4	-40.7	20.7	0.00e+00	0	27	0	1250951168	52	6187
2026-01-15 23:12:14.03	343.41	11.75	-39.2	-40.5	20.8	0.00e+00	0	27	0	1258291200	52	6066
2026-01-15 23:12:18.06	343.12	11.40	-39.1	-40.3	20.9	0.00e+00	0	27	0	1265631232	52	5947
2026-01-15 23:12:22.10	342.85	11.06	-39.3	-40.6	20.6	0.00e+00	0	27	0	1272971264	52	6119
2026-01-15 23:12:26.14	342.58	10.72	-39.5	-40.8	20.6	0.00e+00	0	27	0	1281359872	52	6256
2026-01-15 23:12:30.17	342.31	10.39	-39.7	-41.1	20.1	0.00e+00	0	27	0	1288699904	52	6522
2026-01-15 23:12:34.21	342.06	10.06	-40.0	-41.4	19.9	0.00e+00	0	27	0	1296039936	52	6728
2026-01-15 23:12:38.24	341.81	9.73	-40.1	-41.5	19.7	0.00e+00	0	27	0	1303379968	52	6813
2026-01-15 23:12:42.28	341.56	9.41	-40.3	-41.8	19.4	0.00e+00	0	27	0	1310720000	52	7028
2026-01-15 23:12:46.31	341.32	9.09	-40.2	-41.7	19.4	0.00e+00	0	27	0	1319108608	52	6993
2026-01-15 23:12:50.35	341.09	8.78	-40.7	-42.3	18.9	0.00e+00	0	27	0	1326448640	52	7461
2026-01-15 23:12:54.39	340.86	8.46	-40.5	-42.0	19.0	0.00e+00	0	27	0	1333788672	54	6452
2026-01-15 23:12:58.42	340.63	8.16	-40.4	-42.0	19.1	0.00e+00	0	27	0	1341128704	54	6422
2026-01-15 23:13:02.46	340.41	7.85	-40.4	-42.0	19.0	0.00e+00	0	27	0	1348468736	54	6428
2026-01-15 23:13:06.50	340.20	7.55	-40.2	-41.7	19.2	0.00e+00	0	27	0	1356857344	54	6228
2026-01-15 23:13:10.53	339.99	7.25	-40.2	-41.7	19.4	0.00e+00	0	27	0	1364197376	54	6205
2026-01-15 23:13:14.56	339.79	6.96	-40.2	-41.8	19.2	0.00e+00	0	27	0	1371537408	54	6261
2026-01-15 23:13:18.60	339.59	6.66	-40.0	-41.5	19.3	0.00e+00	0	27	0	1378877440	54	6070
2026-01-15 23:13:22.64	339.39	6.37	-40.1	-41.7	19.1	0.00e+00	0	27	0	1387266048	54	6217
2026-01-15 23:13:26.67	339.20	6.09	-40.3	-41.9	18.7	0.00e+00	0	27	0	1394606080	54	6355
2026-01-15 23:13:30.71	339.01	5.80	-40.7	-42.5	18.0	0.00e+00	0	27	0	1401946112	54	6827
2026-01-15 23:13:34.74	338.83	5.52	-41.2	-43.4	17.2	0.00e+00	0	27	0	1409286144	54	7569
2026-01-15 23:13:38.78	338.65	5.24	-41.7	-44.5	15.4	0.00e+00	0	27	0	1416626176	54	8527
2026-01-15 23:13:42.82	338.47	4.97	-42.6	-46.4	13.1	5.30e-06	0	27	0	1425014784	56	9541
2026-01-15 23:13:46.86	338.30	4.69	-43.1	-48.4	10.3	3.32e-03	0	27	0	1432354816	58	10647
2026-01-15 23:13:50.89	338.13	4.42	-43.3	-50.4	7.0	1.25e-01	0	27	0	1439694848	58	13452
2026-01-15 23:13:54.93	337.96	4.15	-43.2	-53.0	4.2	8.70e-01	0	27	0	1447034880	58	18195
2026-01-15 23:13:58.96	337.80	3.89	-43.1	-56.8	3.6	1.51e+00	0	27	104	1449132032	58	27937
2026-01-15 23:14:02.99	337.64	3.62	-43.0	-58.2	3.6	1.51e+00	0	27	104	1449132032	58	32943
2026-01-15 23:14:07.03	337.49	3.36	-43.0	-58.1	3.6	1.51e+00	0	27	104	1449132032	58	32484
2026-01-15 23:14:11.06	337.33	3.10	-42.9	-58.1	3.6	1.51e+00	0	27	104	1449132032	58	32664
2026-01-15 23:14:15.10	337.18	2.85	-47.7	-62.9	3.6	1.51e+00	0	27	104	1449132032	60	50434
2026-01-15 23:14:19.14	337.03	2.59	-48.3	-63.5	3.6	1.51e+00	0	27	104	1449132032	60	53912
2026-01-15 23:14:23.18	336.89	2.34	-48.1	-63.5	3.6	1.51e+00	0	27	104	1449132032	60	53874
2026-01-15 23:14:27.22	336.75	2.09	-48.2	-63.4	3.6	1.51e+00	0	27	104	1449132032	60	53247
2026-01-15 23:14:31.25	336.61	1.84	-48.2	-63.4	3.6	1.51e+00	0	27	104	1449132032	60	53262
2026-01-15 23:14:35.29	336.47	1.59	-48.3	-63.5	3.6	1.51e+00	0	27	104	1449132032	60	53789
2026-01-15 23:14:39.33	336.34	1.35	-48.2	-63.4	3.6	1.51e+00	0	27	104	1449132032	60	53600
2026-01-15 23:14:43.37	336.21	1.10	-48.1	-63.3	3.6	1.51e+00	0	27	104	1449132032	60	53079
2026-01-15 23:14:47.40	336.08	0.86	-48.1	-63.4	3.6	1.51e+00	0	27	104	1449132032	60	53267
2026-01-15 23:14:51.44	335.95	0.62	-48.1	-63.3	3.6	1.51e+00	0	27	104	1449132032	60	52564
2026-01-15 23:14:55.48	335.83	0.39	-48.1	-63.3	3.5	1.51e+00	0	27	104	1449132032	60	52869
2026-01-15 23:14:59.51	335.70	0.15	-48.1	-63.3	3.6	1.51e+00	0	27	104	1449132032	60	52924
2026-01-15 23:15:03.55	335.58	-0.08	-48.1	-63.3	3.6	1.51e+00	0	27	104	1449132032	60	52833

#Closed at: 2026-01-15 23:15:04
#Recorded file [1449 MB]: D:/lorett/data/35029_260116_110007.dat