passes_logs/2026/01/15/R4.6S_Anadyr/R4.6S_Anadyr__20260115_033841_FENGYUN_3D_rec.log

#Pass ID: 20260115_033841_FENGYUN 3D
#Satellite: FENGYUN 3D
#Configuration: FENGYUN 3D
#almurnet v.1.7.20251203
#Start time: 2026-01-15 03:38:43

#Version: 2.2.20231116
#Station: R4.6S_Anadyr
#Location: 177.4865 lon 64.73178 lat
#TLE: 1 43010U 17072A   26014.65117763 -.00000217  00000+0 -80772-4 0  9993
#TLE: 2 43010  98.9933 346.4618 0002330 108.4699 251.6730 14.19694700423204

#Time	Az	El	Level	Level2	SNR	BER	BlckErr	Temp	State	Recorded	gain1	gain2
2026-01-15 03:38:43.01	191.51	0.08	-48.8	-63.6	3.5	1.51e+00	0	27	0	0	60	54751
2026-01-15 03:38:47.05	191.70	0.30	-48.8	-60.9	3.6	8.46e-01	0	28	104	0	60	40256
2026-01-15 03:38:51.08	191.89	0.53	-48.9	-61.1	3.6	8.46e-01	0	28	104	0	60	40797
2026-01-15 03:38:55.12	192.07	0.77	-48.4	-60.7	3.6	8.44e-01	0	28	104	0	60	39030
2026-01-15 03:38:59.16	192.27	1.00	-47.5	-59.5	3.6	8.47e-01	0	28	104	0	60	33992
2026-01-15 03:39:03.20	192.46	1.23	-47.4	-59.4	3.6	8.46e-01	0	28	104	0	60	33596
2026-01-15 03:39:07.24	192.66	1.47	-47.4	-59.4	3.6	8.46e-01	0	29	104	0	60	33880
2026-01-15 03:39:11.27	192.86	1.71	-47.4	-59.4	3.6	8.44e-01	0	29	104	0	60	33694
2026-01-15 03:39:15.32	193.07	1.95	-47.4	-59.5	3.6	8.45e-01	0	29	104	0	60	34011
2026-01-15 03:39:19.35	193.27	2.19	-47.4	-59.5	3.6	8.46e-01	0	29	104	0	60	34066
2026-01-15 03:39:23.39	193.48	2.43	-47.4	-59.2	3.6	8.46e-01	0	29	104	0	60	33012
2026-01-15 03:39:27.43	193.70	2.68	-47.1	-56.6	3.8	8.40e-01	0	29	104	0	60	24349
2026-01-15 03:39:31.47	193.91	2.93	-46.3	-51.4	6.2	6.67e-01	0	29	0	1048576	60	13439
2026-01-15 03:39:35.51	194.13	3.18	-39.4	-40.6	18.1	0.00e+00	0	29	0	24117248	52	6129
2026-01-15 03:39:39.55	194.36	3.43	-37.3	-38.2	20.2	0.00e+00	0	29	0	46137344	48	5888
2026-01-15 03:39:43.59	194.59	3.68	-37.4	-38.2	21.0	3.50e-01	0	29	0	67108864	54	4165
2026-01-15 03:39:47.63	194.82	3.93	-38.0	-39.0	19.3	0.00e+00	0	29	0	90177536	50	5748
2026-01-15 03:39:51.67	195.05	4.19	-38.1	-39.1	19.7	0.00e+00	0	29	0	112197632	48	6506
2026-01-15 03:39:55.71	195.29	4.45	-36.6	-37.5	21.3	0.00e+00	0	29	0	135266304	46	6036
2026-01-15 03:39:59.75	195.54	4.71	-35.4	-36.2	22.4	0.00e+00	0	29	0	157286400	44	5856
2026-01-15 03:40:03.79	195.78	4.98	-35.3	-36.1	22.5	0.00e+00	0	29	0	180355072	44	5782
2026-01-15 03:40:07.83	196.03	5.24	-35.1	-35.9	22.8	0.00e+00	0	29	0	203423744	44	5677
2026-01-15 03:40:11.87	196.29	5.51	-35.0	-35.8	23.0	0.00e+00	0	29	0	225443840	44	5589
2026-01-15 03:40:15.90	196.55	5.78	-34.9	-35.7	23.1	0.00e+00	0	29	0	248512512	44	5536
2026-01-15 03:40:19.94	196.82	6.05	-35.0	-35.8	23.1	0.00e+00	0	29	0	271581184	42	6271
2026-01-15 03:40:23.98	197.09	6.33	-34.8	-35.5	23.3	0.00e+00	0	29	0	294649856	42	6072
2026-01-15 03:40:28.02	197.36	6.60	-34.5	-35.3	23.6	0.00e+00	0	29	0	316669952	42	5914
2026-01-15 03:40:32.06	197.64	6.88	-34.4	-35.2	23.7	0.00e+00	0	29	0	339738624	42	5840
2026-01-15 03:40:36.10	197.93	7.17	-34.3	-35.0	23.8	0.00e+00	0	29	0	361758720	42	5759
2026-01-15 03:40:40.13	198.21	7.45	-34.5	-35.2	23.7	0.00e+00	0	29	0	384827392	42	5893
2026-01-15 03:40:44.16	198.51	7.74	-34.5	-35.3	23.6	0.00e+00	0	29	0	407896064	42	5897
2026-01-15 03:40:48.20	198.81	8.03	-35.0	-35.8	23.3	0.00e+00	0	29	0	429916160	42	6256
2026-01-15 03:40:52.23	199.12	8.32	-34.5	-35.2	23.7	0.00e+00	0	29	0	452984832	42	5890
2026-01-15 03:40:56.27	199.43	8.62	-34.2	-35.0	24.0	0.00e+00	0	29	0	476053504	42	5719
2026-01-15 03:41:00.31	199.75	8.91	-33.9	-34.6	24.4	0.00e+00	0	29	0	498073600	42	5458
2026-01-15 03:41:04.35	200.08	9.22	-33.7	-34.4	24.6	0.00e+00	0	29	0	521142272	42	5354
2026-01-15 03:41:08.39	200.41	9.52	-33.6	-34.3	24.6	0.00e+00	0	29	0	544210944	40	5931
2026-01-15 03:41:12.42	200.75	9.83	-33.5	-34.1	24.8	0.00e+00	0	29	0	566231040	40	5817
2026-01-15 03:41:16.46	201.09	10.14	-33.4	-34.1	24.8	0.00e+00	0	29	0	589299712	40	5810
2026-01-15 03:41:20.50	201.44	10.45	-33.4	-34.1	24.8	0.00e+00	0	29	0	612368384	40	5805
2026-01-15 03:41:24.54	201.80	10.77	-33.3	-34.0	25.0	0.00e+00	0	29	0	634388480	40	5707
2026-01-15 03:41:28.58	202.17	11.09	-33.1	-33.8	25.1	0.00e+00	0	29	0	657457152	40	5587
2026-01-15 03:41:32.61	202.55	11.41	-32.9	-33.6	25.3	0.00e+00	0	29	0	680525824	40	5483
2026-01-15 03:41:36.65	202.93	11.73	-32.9	-33.6	25.4	0.00e+00	0	29	0	702545920	40	5454
2026-01-15 03:41:40.69	203.32	12.06	-32.9	-33.5	25.4	0.00e+00	0	29	0	725614592	40	5436
2026-01-15 03:41:44.73	203.72	12.40	-32.8	-33.4	25.5	0.00e+00	0	29	0	748683264	38	6022
2026-01-15 03:41:48.77	204.13	12.73	-32.7	-33.3	25.7	0.00e+00	0	29	0	770703360	38	5939
2026-01-15 03:41:52.81	204.55	13.07	-32.5	-33.1	25.8	0.00e+00	0	29	0	793772032	38	5826
2026-01-15 03:41:56.85	204.97	13.41	-32.5	-33.2	25.8	0.00e+00	0	29	0	816840704	38	5840
2026-01-15 03:42:00.88	205.41	13.76	-32.4	-33.1	25.9	0.00e+00	0	29	0	838860800	38	5773
2026-01-15 03:42:04.92	205.86	14.11	-32.2	-32.8	26.1	0.00e+00	0	29	0	861929472	38	5615
2026-01-15 03:42:08.96	206.31	14.46	-32.3	-33.0	25.9	0.00e+00	0	29	0	884998144	38	5704
2026-01-15 03:42:12.99	206.78	14.82	-32.3	-33.0	26.0	0.00e+00	0	29	0	907018240	38	5721
2026-01-15 03:42:17.03	207.26	15.17	-32.1	-32.8	26.2	0.00e+00	0	30	0	930086912	38	5576
2026-01-15 03:42:21.07	207.75	15.54	-32.1	-32.7	26.2	0.00e+00	0	29	0	952107008	38	5554
2026-01-15 03:42:25.10	208.25	15.90	-31.8	-32.4	26.5	0.00e+00	0	29	0	975175680	38	5353
2026-01-15 03:42:29.14	208.76	16.27	-32.2	-32.9	26.2	0.00e+00	0	29	0	998244352	38	5651
2026-01-15 03:42:33.18	209.29	16.65	-32.1	-32.8	26.2	0.00e+00	0	29	0	1021313024	38	5582
2026-01-15 03:42:37.22	209.83	17.03	-32.0	-32.6	26.3	0.00e+00	0	30	0	1043333120	38	5488
2026-01-15 03:42:41.26	210.38	17.41	-31.6	-32.3	26.7	0.00e+00	0	30	0	1066401792	36	5910
2026-01-15 03:42:45.29	210.95	17.79	-31.6	-32.3	26.6	0.00e+00	0	29	0	1089470464	36	5920
2026-01-15 03:42:49.33	211.53	18.18	-31.6	-32.3	26.7	0.00e+00	0	29	0	1111490560	36	5912
2026-01-15 03:42:53.37	212.12	18.57	-31.4	-32.1	26.7	0.00e+00	0	29	0	1134559232	36	5808
2026-01-15 03:42:57.40	212.73	18.96	-31.2	-31.9	26.9	0.00e+00	0	29	0	1156579328	36	5652
2026-01-15 03:43:01.44	213.36	19.36	-31.1	-31.7	27.1	0.00e+00	0	29	0	1179648000	36	5558
2026-01-15 03:43:05.48	214.00	19.76	-31.1	-31.8	27.1	0.00e+00	0	29	0	1202716672	36	5599
2026-01-15 03:43:09.51	214.65	20.16	-31.1	-31.8	27.1	0.00e+00	0	29	0	1224736768	36	5582
2026-01-15 03:43:13.55	215.33	20.57	-31.1	-31.7	27.1	0.00e+00	0	29	0	1247805440	36	5538
2026-01-15 03:43:17.59	216.02	20.97	-30.9	-31.5	27.3	0.00e+00	0	29	0	1270874112	36	5412
2026-01-15 03:43:21.64	216.73	21.39	-30.8	-31.5	27.3	0.00e+00	0	29	0	1293942784	36	5396
2026-01-15 03:43:25.67	217.46	21.80	-30.7	-31.3	27.4	0.00e+00	0	29	0	1315962880	34	5935
2026-01-15 03:43:29.71	218.21	22.21	-30.6	-31.2	27.4	0.00e+00	0	29	0	1339031552	34	5878
2026-01-15 03:43:33.75	218.98	22.63	-30.4	-31.0	27.7	0.00e+00	0	29	0	1361051648	34	5718
2026-01-15 03:43:37.78	219.76	23.05	-30.3	-30.8	27.7	0.00e+00	0	29	0	1384120320	34	5627
2026-01-15 03:43:41.82	220.57	23.47	-30.3	-30.9	27.7	0.00e+00	0	29	0	1407188992	34	5693
2026-01-15 03:43:45.86	221.40	23.89	-30.4	-31.0	27.6	0.00e+00	0	30	0	1429209088	34	5753
2026-01-15 03:43:49.89	222.25	24.31	-30.0	-30.6	28.0	0.00e+00	0	29	0	1452277760	34	5494
2026-01-15 03:43:53.93	223.13	24.73	-30.0	-30.6	27.9	0.00e+00	0	29	0	1475346432	34	5476
2026-01-15 03:43:57.97	224.03	25.15	-30.1	-30.7	27.8	0.00e+00	0	29	0	1497366528	34	5556
2026-01-15 03:44:02.01	224.95	25.57	-30.1	-30.7	27.9	0.00e+00	0	29	0	1520435200	34	5559
2026-01-15 03:44:06.04	225.89	25.99	-30.1	-30.8	27.9	0.00e+00	0	29	0	1543503872	34	5578
2026-01-15 03:44:10.07	226.86	26.40	-29.8	-30.4	28.2	0.00e+00	0	29	0	1565523968	32	5999
2026-01-15 03:44:14.11	227.86	26.82	-29.8	-30.4	28.2	0.00e+00	0	29	0	1588592640	32	5979
2026-01-15 03:44:18.15	228.88	27.23	-29.5	-30.1	28.4	0.00e+00	0	29	0	1611661312	32	5809
2026-01-15 03:44:22.19	229.93	27.64	-29.7	-30.3	28.3	0.00e+00	0	30	0	1633681408	32	5926
2026-01-15 03:44:26.23	231.00	28.04	-29.6	-30.2	28.4	0.00e+00	0	29	0	1656750080	32	5843
2026-01-15 03:44:30.26	232.10	28.44	-29.4	-30.0	28.4	0.00e+00	0	29	0	1679818752	32	5758
2026-01-15 03:44:34.30	233.22	28.83	-29.4	-30.0	28.4	0.00e+00	0	29	0	1701838848	32	5756
2026-01-15 03:44:38.34	234.38	29.22	-29.4	-30.1	28.4	0.00e+00	0	30	0	1724907520	32	5767
2026-01-15 03:44:42.37	235.56	29.59	-29.6	-30.2	28.4	0.00e+00	0	29	0	1746927616	32	5842
2026-01-15 03:44:46.41	236.77	29.96	-30.0	-30.7	28.0	0.00e+00	0	30	0	1769996288	32	6176
2026-01-15 03:44:50.45	238.00	30.32	-29.5	-30.1	28.5	0.00e+00	0	29	0	1793064960	32	5779
2026-01-15 03:44:54.49	239.26	30.67	-29.6	-30.2	28.4	0.00e+00	0	29	0	1816133632	32	5861
2026-01-15 03:44:58.52	240.55	31.01	-29.4	-30.0	28.5	0.00e+00	0	30	0	1838153728	32	5733
2026-01-15 03:45:02.56	241.86	31.34	-29.7	-30.3	28.4	0.00e+00	0	29	0	1861222400	32	5909
2026-01-15 03:45:06.60	243.21	31.65	-29.4	-29.9	28.5	0.00e+00	0	29	0	1884291072	32	5691
2026-01-15 03:45:10.64	244.57	31.95	-29.4	-30.0	28.5	0.00e+00	0	30	0	1906311168	32	5756
2026-01-15 03:45:14.68	245.96	32.24	-29.2	-29.7	28.6	0.00e+00	0	29	0	1929379840	32	5560
2026-01-15 03:45:18.71	247.37	32.51	-29.5	-30.1	28.5	0.00e+00	0	29	0	1951399936	32	5805
2026-01-15 03:45:22.75	248.81	32.76	-29.4	-30.0	28.5	0.00e+00	0	30	0	1974468608	32	5759
2026-01-15 03:45:26.79	250.27	32.99	-29.6	-30.2	28.3	0.00e+00	0	29	0	1997537280	32	5860
2026-01-15 03:45:30.82	251.74	33.21	-29.5	-30.1	28.5	0.00e+00	0	29	0	2019557376	32	5766
2026-01-15 03:45:34.85	253.23	33.40	-29.4	-30.0	28.6	0.00e+00	0	30	0	2042626048	32	5727
2026-01-15 03:45:38.89	254.75	33.58	-29.4	-30.1	28.4	0.00e+00	0	30	0	2065694720	32	5796
2026-01-15 03:45:42.93	256.27	33.73	-29.4	-30.0	28.6	0.00e+00	0	29	0	2087714816	32	5735
2026-01-15 03:45:46.97	257.81	33.86	-29.3	-29.9	28.6	0.00e+00	0	29	0	2110783488	32	5680
2026-01-15 03:45:51.00	259.36	33.97	-29.2	-29.8	28.6	0.00e+00	0	29	0	2133852160	32	5599
2026-01-15 03:45:55.04	260.92	34.06	-29.1	-29.8	28.6	0.00e+00	0	29	0	2155872256	32	5571
2026-01-15 03:45:59.08	262.49	34.12	-29.0	-29.6	28.8	0.00e+00	0	29	0	2178940928	32	5492
2026-01-15 03:46:03.11	264.06	34.16	-29.2	-29.9	28.6	0.00e+00	0	29	0	2202009600	32	5632
2026-01-15 03:46:07.15	265.63	34.18	-29.1	-29.7	28.7	0.00e+00	0	29	0	2224029696	32	5551
2026-01-15 03:46:11.19	267.21	34.17	-29.2	-29.8	28.5	0.00e+00	0	29	0	2247098368	32	5591
2026-01-15 03:46:15.22	268.78	34.14	-29.1	-29.6	28.5	0.00e+00	0	29	0	2270167040	32	5484
2026-01-15 03:46:19.25	270.34	34.09	-29.3	-30.0	28.4	0.00e+00	0	29	0	2292187136	32	5719
2026-01-15 03:46:23.29	271.91	34.01	-29.1	-29.7	28.7	0.00e+00	0	29	0	2315255808	32	5539
2026-01-15 03:46:27.33	273.46	33.91	-29.3	-29.9	28.6	0.00e+00	0	29	0	2338324480	32	5662
2026-01-15 03:46:31.37	275.01	33.79	-29.2	-29.9	28.6	0.00e+00	0	29	0	2360344576	32	5638
2026-01-15 03:46:35.40	276.53	33.65	-29.2	-29.9	28.6	0.00e+00	0	29	0	2383413248	32	5636
2026-01-15 03:46:39.44	278.05	33.48	-29.4	-30.0	28.5	0.00e+00	0	29	0	2406481920	32	5740
2026-01-15 03:46:43.48	279.55	33.29	-29.6	-30.2	28.3	0.00e+00	0	30	0	2428502016	32	5839
2026-01-15 03:46:47.52	281.04	33.09	-29.6	-30.3	28.4	0.00e+00	0	30	0	2451570688	32	5900
2026-01-15 03:46:51.56	282.50	32.86	-29.3	-30.0	28.6	0.00e+00	0	30	0	2474639360	32	5721
2026-01-15 03:46:55.59	283.94	32.62	-29.6	-30.2	28.3	0.00e+00	0	29	0	2496659456	32	5852
2026-01-15 03:46:59.63	285.36	32.36	-29.4	-30.1	28.5	0.00e+00	0	29	0	2519728128	32	5774
2026-01-15 03:47:03.66	286.75	32.08	-29.8	-30.5	28.3	0.00e+00	0	29	0	2541748224	32	6038
2026-01-15 03:47:07.70	288.13	31.79	-29.8	-30.5	28.1	0.00e+00	0	29	0	2564816896	32	6094
2026-01-15 03:47:11.74	289.48	31.48	-29.7	-30.4	28.1	0.00e+00	0	29	0	2587885568	32	5996
2026-01-15 03:47:15.78	290.80	31.16	-29.7	-30.2	28.3	0.00e+00	0	30	0	2609905664	32	5884
2026-01-15 03:47:19.81	292.09	30.83	-29.6	-30.3	28.2	0.00e+00	0	29	0	2632974336	32	5899
2026-01-15 03:47:23.85	293.36	30.49	-29.8	-30.5	28.2	0.00e+00	0	30	0	2656043008	32	6038
2026-01-15 03:47:27.89	294.61	30.13	-29.5	-30.2	28.4	0.00e+00	0	29	0	2679111680	32	5875
2026-01-15 03:47:31.93	295.82	29.77	-29.9	-30.6	28.1	0.00e+00	0	29	0	2701131776	32	6131
2026-01-15 03:47:35.96	297.01	29.39	-29.5	-30.1	28.3	0.00e+00	0	30	0	2724200448	32	5771
2026-01-15 03:47:40.00	298.17	29.01	-30.1	-30.8	27.9	0.00e+00	0	29	0	2746220544	32	6287
2026-01-15 03:47:44.04	299.31	28.63	-29.7	-30.3	28.2	0.00e+00	0	30	0	2769289216	32	5904
2026-01-15 03:47:48.08	300.42	28.23	-30.2	-30.9	27.8	0.00e+00	0	30	0	2792357888	32	6351
2026-01-15 03:47:52.11	301.50	27.83	-29.6	-30.3	28.2	0.00e+00	0	29	0	2814377984	32	5939
2026-01-15 03:47:56.15	302.55	27.43	-30.1	-30.7	27.8	0.00e+00	0	30	0	2837446656	32	6174
2026-01-15 03:48:00.18	303.58	27.02	-29.9	-30.6	28.0	0.00e+00	0	29	0	2860515328	32	6146
2026-01-15 03:48:04.22	304.58	26.61	-30.0	-30.7	27.7	0.00e+00	0	30	0	2882535424	32	6208
2026-01-15 03:48:08.26	305.56	26.20	-30.0	-30.7	27.8	0.00e+00	0	30	0	2905604096	32	6230
2026-01-15 03:48:12.30	306.52	25.78	-30.2	-30.9	27.3	0.00e+00	0	29	0	2928672768	32	6331
2026-01-15 03:48:16.34	307.45	25.37	-30.1	-30.6	27.8	0.00e+00	0	29	0	2950692864	32	6148
2026-01-15 03:48:20.37	308.35	24.95	-30.3	-31.0	27.7	0.00e+00	0	29	0	2973761536	32	6401
2026-01-15 03:48:24.41	309.23	24.53	-30.2	-30.9	27.8	0.00e+00	0	30	0	2996830208	32	6344
2026-01-15 03:48:28.45	310.09	24.11	-30.4	-31.1	27.6	0.00e+00	0	30	0	3018850304	32	6486
2026-01-15 03:48:32.49	310.93	23.70	-30.3	-30.8	27.7	0.00e+00	0	30	0	3041918976	32	6293
2026-01-15 03:48:36.53	311.75	23.28	-30.4	-31.0	27.6	0.00e+00	0	30	0	3063939072	32	6421
2026-01-15 03:48:40.57	312.54	22.86	-30.4	-30.9	27.6	0.00e+00	0	30	0	3087007744	32	6377
2026-01-15 03:48:44.60	313.32	22.45	-30.8	-31.5	27.2	0.00e+00	0	30	0	3110076416	34	6092
2026-01-15 03:48:48.64	314.07	22.03	-31.0	-31.6	27.1	0.00e+00	0	29	0	3133145088	34	6171
2026-01-15 03:48:52.68	314.81	21.62	-31.3	-32.0	26.9	0.00e+00	0	29	0	3155165184	34	6417
2026-01-15 03:48:56.71	315.52	21.21	-31.4	-32.0	26.8	0.00e+00	0	29	0	3178233856	34	6394
2026-01-15 03:49:00.75	316.22	20.81	-31.1	-31.7	27.0	0.00e+00	0	30	0	3201302528	34	6196
2026-01-15 03:49:04.79	316.90	20.40	-31.1	-31.8	27.0	0.00e+00	0	30	0	3223322624	34	6277
2026-01-15 03:49:08.83	317.57	20.00	-31.3	-31.9	26.7	0.00e+00	0	29	0	3246391296	34	6366
2026-01-15 03:49:12.87	318.22	19.60	-31.4	-32.1	26.8	0.00e+00	0	29	0	3268411392	34	6493
2026-01-15 03:49:16.90	318.85	19.21	-31.5	-32.2	26.6	0.00e+00	0	30	0	3291480064	34	6601
2026-01-15 03:49:20.93	319.46	18.82	-31.7	-32.4	26.6	0.00e+00	0	29	0	3314548736	36	5985
2026-01-15 03:49:24.97	320.06	18.43	-31.8	-32.3	26.5	0.00e+00	0	30	0	3336568832	36	5964
2026-01-15 03:49:29.01	320.65	18.04	-31.7	-32.3	26.4	0.00e+00	0	30	0	3359637504	36	5941
2026-01-15 03:49:33.05	321.22	17.66	-32.1	-32.6	26.2	0.00e+00	0	30	0	3382706176	36	6159
2026-01-15 03:49:37.08	321.78	17.28	-32.5	-33.1	25.8	0.00e+00	0	30	0	3405774848	36	6494
2026-01-15 03:49:41.12	322.32	16.90	-32.4	-32.9	25.8	0.00e+00	0	29	0	3427794944	38	5686
2026-01-15 03:49:45.15	322.85	16.53	-32.3	-33.1	25.9	0.00e+00	0	29	0	3450863616	38	5763
2026-01-15 03:49:49.18	323.37	16.16	-32.5	-33.0	25.7	0.00e+00	0	30	0	3472883712	38	5759
2026-01-15 03:49:53.22	323.88	15.79	-32.5	-33.1	25.8	0.00e+00	0	30	0	3495952384	38	5809
2026-01-15 03:49:57.26	324.37	15.43	-32.3	-32.9	25.8	0.00e+00	0	29	0	3519021056	38	5691
2026-01-15 03:50:01.29	324.86	15.07	-32.3	-33.0	25.9	0.00e+00	0	29	0	3541041152	38	5699
2026-01-15 03:50:05.33	325.33	14.72	-32.6	-33.2	25.6	0.00e+00	0	29	0	3564109824	38	5853
2026-01-15 03:50:09.37	325.79	14.37	-32.7	-33.2	25.5	0.00e+00	0	29	0	3587178496	38	5894
2026-01-15 03:50:13.40	326.24	14.02	-32.8	-33.4	25.5	0.00e+00	0	29	0	3609198592	38	5973
2026-01-15 03:50:17.44	326.69	13.67	-32.7	-33.4	25.5	0.00e+00	0	29	0	3632267264	38	5965
2026-01-15 03:50:21.48	327.12	13.33	-33.0	-33.6	25.2	0.00e+00	0	29	0	3655335936	38	6136
2026-01-15 03:50:25.53	327.54	12.99	-33.3	-34.0	24.8	0.00e+00	0	29	0	3677356032	38	6394
2026-01-15 03:50:29.56	327.96	12.66	-33.2	-34.0	24.9	0.00e+00	0	29	0	3700424704	38	6447
2026-01-15 03:50:33.60	328.36	12.32	-33.5	-34.1	24.7	0.00e+00	0	30	0	3723493376	38	6515
2026-01-15 03:50:37.64	328.76	12.00	-33.4	-34.0	24.8	0.00e+00	0	29	0	3745513472	38	6461
2026-01-15 03:50:41.68	329.15	11.67	-33.3	-34.1	24.8	0.00e+00	0	30	0	3768582144	38	6504
2026-01-15 03:50:45.71	329.53	11.35	-33.6	-34.2	24.5	0.00e+00	0	30	0	3791650816	38	6598
2026-01-15 03:50:49.74	329.90	11.03	-33.6	-34.3	24.4	0.00e+00	0	30	0	3813670912	40	5916
2026-01-15 03:50:53.78	330.26	10.72	-34.0	-34.6	24.0	0.00e+00	0	30	0	3836739584	40	6165
2026-01-15 03:50:57.82	330.62	10.40	-33.7	-34.5	24.4	0.00e+00	0	30	0	3858759680	40	6064
2026-01-15 03:51:01.86	330.97	10.09	-34.0	-34.6	24.0	0.00e+00	0	30	0	3881828352	40	6172
2026-01-15 03:51:05.89	331.31	9.79	-34.3	-35.1	23.7	0.00e+00	0	29	0	3904897024	40	6488
2026-01-15 03:51:09.93	331.65	9.48	-34.2	-34.8	23.8	0.00e+00	0	30	0	3927965696	40	6283
2026-01-15 03:51:13.97	331.98	9.18	-34.3	-35.1	23.7	0.00e+00	0	30	0	3949985792	40	6466
2026-01-15 03:51:18.01	332.30	8.88	-34.2	-34.9	23.7	0.00e+00	0	29	0	3973054464	40	6370
2026-01-15 03:51:22.06	332.62	8.59	-34.4	-35.0	23.4	0.00e+00	0	30	0	3996123136	40	6456
2026-01-15 03:51:26.09	332.93	8.30	-34.1	-34.8	23.8	0.00e+00	0	30	0	4018143232	40	6279
2026-01-15 03:51:30.13	333.24	8.01	-34.3	-34.9	23.6	0.00e+00	0	30	0	4041211904	40	6385
2026-01-15 03:51:34.17	333.54	7.72	-34.4	-35.0	23.5	0.00e+00	0	30	0	4063232000	40	6436
2026-01-15 03:51:38.21	333.84	7.43	-34.5	-35.2	23.2	0.00e+00	0	30	0	4086300672	40	6579
2026-01-15 03:51:42.24	334.13	7.15	-34.4	-35.1	23.3	0.00e+00	0	30	0	4109369344	40	6515
2026-01-15 03:51:46.27	334.41	6.87	-34.4	-35.3	23.3	0.00e+00	0	30	0	4131389440	40	6626
2026-01-15 03:51:50.30	334.69	6.60	-34.6	-35.3	23.0	0.00e+00	0	30	0	4154458112	42	5950
2026-01-15 03:51:54.34	334.96	6.32	-34.7	-35.6	22.5	0.00e+00	0	30	0	4177526784	42	6132
2026-01-15 03:51:58.38	335.23	6.05	-35.2	-36.1	21.9	0.00e+00	0	30	0	4199546880	42	6520
2026-01-15 03:52:02.42	335.50	5.78	-36.3	-37.3	20.3	0.00e+00	0	30	0	4222615552	44	6616
2026-01-15 03:52:06.45	335.76	5.51	-37.5	-38.6	18.5	0.00e+00	0	30	0	4245684224	46	6887
2026-01-15 03:52:10.49	336.02	5.25	-39.0	-40.5	16.1	0.00e+00	0	30	0	4267704320	50	6770
2026-01-15 03:52:14.53	336.27	4.99	-40.6	-42.7	13.1	2.97e-05	0	30	0	4290772992	52	7814
2026-01-15 03:52:18.56	336.52	4.73	-42.0	-45.3	9.7	1.30e-02	0	30	0	4313841664	56	8369
2026-01-15 03:52:22.60	336.76	4.47	-42.8	-47.5	6.7	2.18e-01	0	30	0	4335861760	58	9632
2026-01-15 03:52:26.63	337.00	4.21	-43.3	-49.5	4.5	7.68e-01	0	30	0	4351590400	58	12171
2026-01-15 03:52:30.67	337.24	3.96	-43.5	-53.3	3.8	8.42e-01	0	30	104	4351590400	58	18792
2026-01-15 03:52:34.71	337.47	3.70	-43.6	-54.4	3.6	8.44e-01	0	30	104	4351590400	58	21230
2026-01-15 03:52:38.75	337.70	3.45	-43.8	-55.8	3.6	8.45e-01	0	30	104	4351590400	60	22314
2026-01-15 03:52:42.79	337.92	3.20	-43.8	-55.7	3.6	8.45e-01	0	30	104	4351590400	60	22042
2026-01-15 03:52:46.83	338.15	2.96	-44.2	-56.2	3.6	8.45e-01	0	30	104	4351590400	60	23406
2026-01-15 03:52:50.86	338.36	2.71	-48.6	-60.7	3.6	8.46e-01	0	30	104	4351590400	60	39250
2026-01-15 03:52:54.90	338.58	2.47	-48.8	-61.0	3.6	8.45e-01	0	30	104	4351590400	60	40522
2026-01-15 03:52:58.94	338.79	2.23	-48.6	-60.8	3.6	8.44e-01	0	30	104	4351590400	60	39678
2026-01-15 03:53:02.98	339.00	1.99	-48.9	-61.0	3.6	8.46e-01	0	30	104	4351590400	60	40388
2026-01-15 03:53:07.01	339.21	1.75	-48.8	-60.9	3.6	8.45e-01	0	30	104	4351590400	60	40105
2026-01-15 03:53:11.05	339.41	1.52	-48.8	-60.8	3.6	8.44e-01	0	30	104	4351590400	60	39821
2026-01-15 03:53:15.09	339.61	1.28	-48.8	-60.8	3.6	8.45e-01	0	30	104	4351590400	60	39822
2026-01-15 03:53:19.13	339.81	1.05	-48.8	-60.9	3.6	8.45e-01	0	30	104	4351590400	60	39954
2026-01-15 03:53:23.16	340.00	0.82	-48.8	-60.8	3.6	8.45e-01	0	30	104	4351590400	60	39632
2026-01-15 03:53:27.20	340.19	0.59	-48.7	-60.8	3.6	8.45e-01	0	30	104	4351590400	60	39718
2026-01-15 03:53:31.24	340.38	0.36	-48.7	-60.8	3.6	8.45e-01	0	30	104	4351590400	60	39507
2026-01-15 03:53:35.28	340.57	0.13	-48.7	-60.8	3.6	8.45e-01	0	30	104	4351590400	60	39675

#Closed at: 2026-01-15 03:53:38
#Recorded file [4351 MB]: D:/lorett/data/35029_260115_153843.dat