passes_logs/2026/01/15/R4.6S_Anadyr/R4.6S_Anadyr__20260115_002858_NOAA_21_JPSS-2_rec.log

#Pass ID: 20260115_002858_NOAA 21 (JPSS-2)
#Satellite: NOAA 21 (JPSS-2)
#Configuration: NOAA-21
#almurnet v.1.7.20251203
#Start time: 2026-01-15 00:29:00

#Version: 2.2.20231116
#Station: R4.6S_Anadyr
#Location: 177.4865 lon 64.73178 lat
#TLE: 1 54234U 22150A   26014.58979933  .00000039  00000+0  39403-4 0  9998
#TLE: 2 54234  98.7497 315.4945 0000653 294.6373  65.4735 14.19534652164756

#Time	Az	El	Level	Level2	SNR	BER	BlckErr	Temp	State	Recorded	gain1	gain2
2026-01-15 00:29:00.14	162.91	0.08	-48.9	-63.7	3.5	1.51e+00	0	26	0	0	60	55251
2026-01-15 00:29:04.17	162.96	0.32	-49.0	-61.9	3.5	1.52e+00	0	28	104	0	60	43489
2026-01-15 00:29:08.22	163.01	0.57	-49.0	-61.8	3.5	1.52e+00	0	28	104	0	60	43037
2026-01-15 00:29:12.25	163.05	0.81	-48.5	-61.4	3.5	1.52e+00	0	28	104	0	60	41182
2026-01-15 00:29:16.29	163.10	1.06	-47.4	-60.3	3.5	1.52e+00	0	28	104	0	60	36210
2026-01-15 00:29:20.33	163.15	1.31	-47.4	-60.1	3.5	1.52e+00	0	28	104	0	60	35677
2026-01-15 00:29:24.37	163.20	1.57	-47.4	-59.9	3.5	1.52e+00	0	28	104	0	60	34828
2026-01-15 00:29:28.41	163.25	1.82	-47.4	-60.0	3.5	1.52e+00	0	29	104	0	60	35263
2026-01-15 00:29:32.45	163.30	2.08	-47.4	-60.2	3.5	1.52e+00	0	29	104	0	60	35935
2026-01-15 00:29:36.49	163.35	2.34	-47.4	-59.8	3.5	1.52e+00	0	29	104	0	60	34473
2026-01-15 00:29:40.53	163.40	2.60	-47.3	-58.6	3.5	1.51e+00	0	29	104	0	60	29781
2026-01-15 00:29:44.57	163.45	2.87	-47.2	-57.5	3.9	1.49e+00	0	29	104	0	60	26343
2026-01-15 00:29:48.61	163.51	3.14	-44.1	-47.1	12.6	6.80e-04	123	29	0	6291456	60	7905
2026-01-15 00:29:52.65	163.56	3.41	-39.9	-41.4	18.0	0.00e+00	123	29	0	18874368	54	5805
2026-01-15 00:29:56.69	163.61	3.68	-39.7	-41.2	18.2	0.00e+00	120	29	0	31457280	52	6381
2026-01-15 00:30:00.73	163.67	3.96	-46.4	-52.7	4.6	0.00e+00	123	29	0	44040192	60	15198
2026-01-15 00:30:04.77	163.73	4.24	-39.3	-40.6	18.9	0.00e+00	122	29	0	49283072	52	5988
2026-01-15 00:30:08.80	163.78	4.52	-38.5	-39.8	19.8	0.00e+00	120	29	0	61865984	50	6069
2026-01-15 00:30:12.84	163.84	4.80	-38.0	-39.2	20.3	0.00e+00	123	29	0	74448896	50	5722
2026-01-15 00:30:16.88	163.90	5.09	-38.0	-39.2	20.2	0.00e+00	123	29	0	87031808	50	5675
2026-01-15 00:30:20.91	163.96	5.38	-37.9	-39.1	20.5	0.00e+00	123	29	0	99614720	50	5646
2026-01-15 00:30:24.95	164.02	5.67	-37.8	-39.0	20.6	0.00e+00	123	29	0	112197632	48	6247
2026-01-15 00:30:28.99	164.08	5.97	-37.7	-38.8	20.6	0.00e+00	122	29	0	124780544	48	6129
2026-01-15 00:30:33.03	164.14	6.27	-37.5	-38.6	21.0	0.00e+00	123	29	0	137363456	48	5946
2026-01-15 00:30:37.05	164.21	6.58	-37.1	-38.2	21.3	0.00e+00	123	29	0	149946368	48	5698
2026-01-15 00:30:41.09	164.27	6.88	-37.2	-38.3	21.3	0.00e+00	123	29	0	162529280	48	5748
2026-01-15 00:30:45.13	164.34	7.20	-37.0	-38.0	21.5	0.00e+00	123	29	0	175112192	48	5578
2026-01-15 00:30:49.17	164.40	7.51	-36.7	-37.8	21.8	0.00e+00	123	29	0	187695104	46	6089
2026-01-15 00:30:53.21	164.47	7.83	-36.7	-37.8	21.9	0.00e+00	123	29	0	200278016	46	6065
2026-01-15 00:30:57.25	164.54	8.15	-36.6	-37.7	22.0	0.00e+00	120	29	0	212860928	46	6018
2026-01-15 00:31:01.28	164.61	8.48	-36.4	-37.5	22.2	0.00e+00	123	29	0	225443840	46	5868
2026-01-15 00:31:05.32	164.68	8.81	-36.3	-37.3	22.3	0.00e+00	123	29	0	238026752	46	5769
2026-01-15 00:31:09.36	164.76	9.15	-36.1	-37.1	22.5	0.00e+00	123	29	0	250609664	46	5655
2026-01-15 00:31:13.40	164.83	9.49	-36.1	-37.1	22.5	0.00e+00	120	29	0	263192576	46	5595
2026-01-15 00:31:17.44	164.91	9.84	-36.0	-37.0	22.7	0.00e+00	123	29	0	275775488	46	5564
2026-01-15 00:31:21.47	164.98	10.19	-35.7	-36.7	23.0	0.00e+00	120	29	0	288358400	44	5995
2026-01-15 00:31:25.51	165.06	10.54	-35.7	-36.7	22.9	0.00e+00	122	29	0	300941312	44	5996
2026-01-15 00:31:29.55	165.14	10.90	-35.4	-36.4	23.2	0.00e+00	123	29	0	313524224	44	5793
2026-01-15 00:31:33.59	165.23	11.27	-35.2	-36.2	23.3	0.00e+00	120	29	0	326107136	44	5678
2026-01-15 00:31:37.63	165.31	11.64	-35.3	-36.2	23.4	0.00e+00	123	29	0	338690048	44	5712
2026-01-15 00:31:41.67	165.40	12.02	-35.0	-35.9	23.5	0.00e+00	122	29	0	351272960	44	5527
2026-01-15 00:31:45.70	165.49	12.40	-35.0	-36.0	23.6	0.00e+00	123	29	0	364904448	44	5539
2026-01-15 00:31:49.75	165.58	12.79	-34.9	-35.8	23.7	0.00e+00	123	29	0	376438784	44	5430
2026-01-15 00:31:53.79	165.67	13.19	-34.9	-35.8	23.7	0.00e+00	122	29	0	390070272	42	6126
2026-01-15 00:31:57.82	165.76	13.59	-34.8	-35.7	23.9	0.00e+00	120	29	0	402653184	42	6035
2026-01-15 00:32:01.86	165.86	14.00	-34.9	-35.8	23.8	0.00e+00	123	29	0	415236096	42	6097
2026-01-15 00:32:05.89	165.96	14.41	-34.7	-35.6	23.9	0.00e+00	123	29	0	427819008	42	5988
2026-01-15 00:32:09.94	166.06	14.84	-34.6	-35.5	24.1	0.00e+00	123	29	0	440401920	42	5911
2026-01-15 00:32:13.98	166.16	15.27	-34.6	-35.5	24.0	0.00e+00	120	29	0	452984832	42	5923
2026-01-15 00:32:18.02	166.27	15.70	-34.8	-35.7	24.0	0.00e+00	122	29	0	465567744	42	6015
2026-01-15 00:32:22.05	166.38	16.15	-34.8	-35.7	23.9	0.00e+00	122	29	0	478150656	42	6064
2026-01-15 00:32:26.09	166.49	16.60	-34.8	-35.7	24.0	0.00e+00	120	29	0	490733568	42	6018
2026-01-15 00:32:30.13	166.60	17.07	-34.8	-35.7	23.9	0.00e+00	122	29	0	503316480	42	6022
2026-01-15 00:32:34.17	166.72	17.54	-34.9	-35.8	23.9	0.00e+00	122	29	0	515899392	42	6085
2026-01-15 00:32:38.21	166.84	18.02	-34.8	-35.8	24.0	0.00e+00	123	29	0	528482304	42	6072
2026-01-15 00:32:42.24	166.97	18.51	-34.8	-35.8	24.0	0.00e+00	123	29	0	541065216	42	6074
2026-01-15 00:32:46.28	167.10	19.01	-34.8	-35.8	24.0	0.00e+00	123	29	0	553648128	42	6073
2026-01-15 00:32:50.31	167.23	19.52	-34.8	-35.7	24.0	0.00e+00	123	29	0	566231040	42	6033
2026-01-15 00:32:54.35	167.36	20.04	-34.5	-35.4	24.2	0.00e+00	123	29	0	578813952	42	5810
2026-01-15 00:32:58.39	167.51	20.57	-34.4	-35.3	24.3	0.00e+00	122	29	0	591396864	42	5729
2026-01-15 00:33:02.42	167.65	21.11	-34.0	-34.9	24.6	0.00e+00	123	29	0	603979776	42	5507
2026-01-15 00:33:06.46	167.80	21.67	-33.6	-34.5	24.9	0.00e+00	123	29	0	616562688	40	5864
2026-01-15 00:33:10.49	167.95	22.23	-33.3	-34.2	25.2	0.00e+00	122	29	0	629145600	40	5679
2026-01-15 00:33:14.53	168.11	22.81	-33.1	-34.0	25.2	0.00e+00	123	29	0	641728512	40	5557
2026-01-15 00:33:18.57	168.28	23.40	-33.1	-33.9	25.4	0.00e+00	123	29	0	654311424	40	5527
2026-01-15 00:33:22.60	168.45	24.01	-33.3	-34.2	25.1	0.00e+00	122	29	0	666894336	40	5673
2026-01-15 00:33:26.64	168.63	24.63	-33.4	-34.3	25.1	0.00e+00	122	29	0	679477248	40	5746
2026-01-15 00:33:30.68	168.81	25.27	-33.5	-34.4	25.0	0.00e+00	120	30	0	692060160	40	5794
2026-01-15 00:33:34.72	169.01	25.92	-33.6	-34.5	25.0	0.00e+00	123	29	0	704643072	40	5865
2026-01-15 00:33:38.76	169.20	26.58	-33.9	-34.8	24.7	0.00e+00	123	30	0	717225984	40	6085
2026-01-15 00:33:42.79	169.41	27.26	-34.3	-35.1	24.5	0.00e+00	122	29	0	729808896	40	6347
2026-01-15 00:33:46.83	169.63	27.96	-34.6	-35.5	24.2	0.00e+00	123	29	0	742391808	40	6627
2026-01-15 00:33:50.87	169.85	28.68	-34.8	-35.7	24.1	0.00e+00	123	30	0	756023296	42	6042
2026-01-15 00:33:54.90	170.08	29.42	-34.7	-35.6	24.2	0.00e+00	123	30	0	767557632	42	5944
2026-01-15 00:33:58.94	170.33	30.17	-34.5	-35.4	24.4	0.00e+00	120	29	0	781189120	42	5829
2026-01-15 00:34:02.97	170.58	30.95	-34.1	-35.0	24.6	0.00e+00	120	30	0	793772032	42	5569
2026-01-15 00:34:07.01	170.85	31.74	-33.5	-34.4	25.0	0.00e+00	122	30	0	806354944	40	5823
2026-01-15 00:34:11.05	171.13	32.56	-33.7	-34.5	25.0	0.00e+00	123	30	0	818937856	40	5915
2026-01-15 00:34:15.09	171.43	33.40	-34.6	-35.5	24.3	0.00e+00	122	30	0	831520768	40	6624
2026-01-15 00:34:19.13	171.73	34.26	-35.5	-36.4	23.6	0.00e+00	120	30	0	844103680	42	6543
2026-01-15 00:34:23.18	172.06	35.15	-35.6	-36.5	23.6	0.00e+00	123	30	0	856686592	42	6621
2026-01-15 00:34:27.22	172.40	36.06	-35.9	-36.9	23.2	0.00e+00	121	30	0	869269504	44	6158
2026-01-15 00:34:31.26	172.76	37.00	-37.0	-38.0	22.2	0.00e+00	122	30	0	881852416	46	6266
2026-01-15 00:34:35.30	173.15	37.96	-36.8	-37.9	22.2	0.00e+00	123	30	0	894435328	46	6142
2026-01-15 00:34:39.33	173.55	38.94	-36.3	-37.3	22.7	0.00e+00	122	29	0	907018240	46	5748
2026-01-15 00:34:43.37	173.98	39.96	-36.5	-37.5	22.5	0.00e+00	123	30	0	919601152	46	5901
2026-01-15 00:34:47.41	174.44	41.01	-36.6	-37.6	22.7	0.00e+00	120	30	0	932184064	46	5971
2026-01-15 00:34:51.45	174.92	42.08	-37.5	-38.6	21.7	0.00e+00	122	30	0	944766976	46	6658
2026-01-15 00:34:55.49	175.44	43.18	-37.2	-38.2	22.2	0.00e+00	123	29	0	957349888	48	5682
2026-01-15 00:34:59.52	176.00	44.31	-36.9	-37.9	22.5	0.00e+00	123	30	0	969932800	46	6179
2026-01-15 00:35:03.56	176.60	45.48	-37.3	-38.3	22.1	0.00e+00	123	30	0	982515712	46	6440
2026-01-15 00:35:07.60	177.24	46.67	-37.1	-38.1	22.3	0.00e+00	123	30	0	995098624	46	6301
2026-01-15 00:35:11.64	177.93	47.90	-35.9	-36.9	23.3	0.00e+00	123	30	0	1007681536	46	5493
2026-01-15 00:35:15.67	178.67	49.15	-35.6	-36.5	23.6	0.00e+00	123	30	0	1020264448	44	5920
2026-01-15 00:35:19.70	179.48	50.44	-36.0	-37.0	23.1	0.00e+00	120	30	0	1032847360	44	6212
2026-01-15 00:35:23.73	180.36	51.76	-36.0	-36.9	23.2	0.00e+00	122	30	0	1045430272	44	6193
2026-01-15 00:35:27.77	181.32	53.10	-35.9	-36.9	23.3	0.00e+00	123	30	0	1058013184	44	6166
2026-01-15 00:35:31.81	182.38	54.48	-35.0	-35.9	24.0	0.00e+00	122	30	0	1070596096	44	5487
2026-01-15 00:35:35.85	183.54	55.88	-34.9	-35.8	24.1	0.00e+00	123	30	0	1083179008	42	6097
2026-01-15 00:35:39.89	184.82	57.31	-34.7	-35.6	24.2	0.00e+00	123	30	0	1095761920	42	5943
2026-01-15 00:35:43.93	186.25	58.76	-33.3	-34.2	25.2	0.00e+00	123	30	0	1108344832	40	5687
2026-01-15 00:35:47.96	187.83	60.22	-33.5	-34.4	25.0	0.00e+00	122	30	0	1121976320	40	5820
2026-01-15 00:35:52.00	189.61	61.70	-33.3	-34.2	25.3	0.00e+00	123	30	0	1134559232	40	5666
2026-01-15 00:35:56.04	191.62	63.19	-32.5	-33.3	25.9	0.00e+00	122	30	0	1146093568	38	5755
2026-01-15 00:36:00.06	193.87	64.66	-32.8	-33.6	25.8	0.00e+00	123	30	0	1159725056	38	5967
2026-01-15 00:36:04.10	196.45	66.13	-32.9	-33.7	25.6	0.00e+00	123	30	0	1172307968	38	6042
2026-01-15 00:36:08.13	199.40	67.58	-32.6	-33.5	25.6	0.00e+00	120	30	0	1184890880	38	5864
2026-01-15 00:36:12.17	202.79	68.99	-33.1	-34.0	25.2	0.00e+00	123	30	0	1197473792	38	6221
2026-01-15 00:36:16.21	206.69	70.35	-32.9	-33.8	25.4	0.00e+00	122	30	0	1210056704	38	6070
2026-01-15 00:36:20.25	211.19	71.62	-32.7	-33.5	25.8	0.00e+00	120	30	0	1222639616	38	5889
2026-01-15 00:36:24.29	216.37	72.78	-33.0	-33.9	25.4	0.00e+00	120	30	0	1235222528	38	6135
2026-01-15 00:36:28.33	222.28	73.81	-33.1	-33.9	25.5	0.00e+00	122	29	0	1247805440	38	6190
2026-01-15 00:36:32.36	228.93	74.65	-33.3	-34.2	25.2	0.00e+00	123	30	0	1260388352	38	6415
2026-01-15 00:36:36.40	236.29	75.28	-33.6	-34.5	25.0	0.00e+00	123	30	0	1272971264	38	6617
2026-01-15 00:36:40.44	244.20	75.66	-33.1	-34.0	25.3	0.00e+00	123	30	0	1285554176	38	6230
2026-01-15 00:36:44.48	252.38	75.76	-33.0	-33.8	25.5	0.00e+00	123	30	0	1298137088	38	6123
2026-01-15 00:36:48.52	260.52	75.59	-32.8	-33.7	25.6	0.00e+00	122	30	0	1310720000	38	6002
2026-01-15 00:36:52.56	268.30	75.14	-33.5	-34.4	25.1	0.00e+00	120	30	0	1323302912	40	5816
2026-01-15 00:36:56.59	275.48	74.46	-33.0	-33.9	25.3	0.00e+00	122	30	0	1335885824	40	5502
2026-01-15 00:37:00.63	281.96	73.57	-33.3	-34.2	25.2	0.00e+00	123	30	0	1348468736	40	5676
2026-01-15 00:37:04.67	287.68	72.51	-33.2	-34.0	25.1	0.00e+00	123	30	0	1361051648	40	5575
2026-01-15 00:37:08.71	292.67	71.31	-32.7	-33.5	25.7	0.00e+00	123	30	0	1373634560	38	5897
2026-01-15 00:37:12.75	297.01	70.02	-34.1	-35.0	24.5	0.00e+00	123	30	0	1386217472	40	6237
2026-01-15 00:37:16.78	300.77	68.65	-35.0	-35.9	23.9	0.00e+00	123	30	0	1398800384	42	6198
2026-01-15 00:37:20.82	304.04	67.24	-33.2	-34.1	25.2	0.00e+00	122	30	0	1411383296	40	5612
2026-01-15 00:37:24.86	306.89	65.78	-34.6	-35.6	24.2	0.00e+00	122	29	0	1423966208	42	5934
2026-01-15 00:37:28.89	309.38	64.31	-32.7	-33.6	25.6	0.00e+00	120	30	0	1436549120	38	5943
2026-01-15 00:37:32.93	311.57	62.83	-33.9	-34.8	24.7	0.00e+00	122	30	0	1449132032	40	6127
2026-01-15 00:37:36.96	313.51	61.36	-32.7	-33.5	25.6	0.00e+00	122	30	0	1461714944	38	5909
2026-01-15 00:37:41.00	315.24	59.88	-34.0	-34.9	24.8	0.00e+00	122	30	0	1474297856	40	6189
2026-01-15 00:37:45.04	316.78	58.43	-33.4	-34.2	25.2	0.00e+00	123	30	0	1486880768	40	5712
2026-01-15 00:37:49.08	318.17	56.99	-34.8	-35.8	23.6	0.00e+00	122	30	0	1499463680	42	6072
2026-01-15 00:37:53.12	319.42	55.57	-34.3	-35.2	24.5	0.00e+00	123	29	0	1512046592	42	5692
2026-01-15 00:37:57.16	320.55	54.18	-35.2	-36.2	23.8	0.00e+00	123	30	0	1525678080	42	6371
2026-01-15 00:38:01.20	321.58	52.81	-34.9	-35.9	24.1	0.00e+00	123	30	0	1538260992	44	5479
2026-01-15 00:38:05.24	322.53	51.48	-36.6	-37.6	22.6	0.00e+00	123	30	0	1550843904	44	6683
2026-01-15 00:38:09.28	323.39	50.17	-36.3	-37.2	22.9	0.00e+00	122	30	0	1563426816	46	5713
2026-01-15 00:38:13.32	324.18	48.89	-37.2	-38.3	21.6	0.00e+00	123	30	0	1576009728	46	6439
2026-01-15 00:38:17.36	324.92	47.65	-36.8	-37.9	22.2	0.00e+00	123	30	0	1588592640	46	6146
2026-01-15 00:38:21.40	325.59	46.43	-37.5	-38.6	21.8	0.00e+00	123	30	0	1601175552	46	6655
2026-01-15 00:38:25.43	326.22	45.25	-37.7	-38.8	21.6	0.00e+00	123	30	0	1613758464	48	6104
2026-01-15 00:38:29.47	326.81	44.10	-37.2	-38.2	21.8	0.00e+00	122	30	0	1626341376	48	5711
2026-01-15 00:38:33.51	327.35	42.98	-36.7	-37.7	22.1	0.00e+00	120	30	0	1638924288	48	5396
2026-01-15 00:38:37.55	327.87	41.89	-36.5	-37.5	22.6	0.00e+00	123	30	0	1651507200	46	5875
2026-01-15 00:38:41.59	328.35	40.82	-36.5	-37.5	22.7	0.00e+00	122	30	0	1664090112	46	5870
2026-01-15 00:38:45.63	328.80	39.79	-37.4	-38.4	21.9	0.00e+00	120	30	0	1676673024	46	6568
2026-01-15 00:38:49.67	329.22	38.79	-36.8	-37.8	22.5	0.00e+00	123	30	0	1689255936	46	6094
2026-01-15 00:38:53.70	329.62	37.81	-36.3	-37.3	22.8	0.00e+00	123	30	0	1701838848	46	5773
2026-01-15 00:38:57.75	330.00	36.85	-36.0	-37.0	23.2	0.00e+00	123	30	0	1714421760	46	5575
2026-01-15 00:39:01.78	330.36	35.93	-35.9	-36.8	23.3	0.00e+00	122	30	0	1727004672	46	5462
2026-01-15 00:39:05.82	330.69	35.03	-35.6	-36.6	23.3	0.00e+00	123	30	0	1739587584	44	5945
2026-01-15 00:39:09.86	331.02	34.15	-36.6	-37.6	22.6	0.00e+00	123	30	0	1752170496	44	6705
2026-01-15 00:39:13.90	331.32	33.30	-36.2	-37.2	23.1	0.00e+00	123	30	0	1764753408	46	5696
2026-01-15 00:39:17.93	331.61	32.47	-35.1	-36.1	23.9	0.00e+00	123	30	0	1777336320	44	5596
2026-01-15 00:39:21.97	331.89	31.66	-34.8	-35.7	24.2	0.00e+00	122	30	0	1789919232	42	6016
2026-01-15 00:39:26.01	332.16	30.87	-34.8	-35.7	24.1	0.00e+00	122	30	0	1802502144	42	6023
2026-01-15 00:39:30.05	332.41	30.11	-34.4	-35.3	24.4	0.00e+00	123	29	0	1815085056	42	5752
2026-01-15 00:39:34.08	332.66	29.36	-34.0	-34.9	24.6	0.00e+00	123	30	0	1827667968	42	5510
2026-01-15 00:39:38.11	332.89	28.63	-34.4	-35.3	24.4	0.00e+00	123	30	0	1840250880	42	5784
2026-01-15 00:39:42.15	333.11	27.92	-34.5	-35.4	24.4	0.00e+00	123	30	0	1852833792	42	5795
2026-01-15 00:39:46.19	333.33	27.23	-34.4	-35.2	24.5	0.00e+00	123	30	0	1866465280	42	5724
2026-01-15 00:39:50.23	333.53	26.55	-34.3	-35.2	24.5	0.00e+00	123	30	0	1877999616	42	5706
2026-01-15 00:39:54.27	333.73	25.89	-34.3	-35.2	24.4	0.00e+00	120	30	0	1891631104	42	5698
2026-01-15 00:39:58.31	333.92	25.24	-34.4	-35.4	24.3	0.00e+00	120	30	0	1904214016	42	5795
2026-01-15 00:40:02.35	334.11	24.61	-34.3	-35.2	24.3	0.00e+00	123	30	0	1916796928	42	5676
2026-01-15 00:40:06.39	334.29	24.00	-34.3	-35.2	24.2	0.00e+00	123	30	0	1929379840	42	5720
2026-01-15 00:40:10.43	334.46	23.40	-34.6	-35.5	23.9	0.00e+00	123	30	0	1941962752	42	5899
2026-01-15 00:40:14.46	334.62	22.81	-34.9	-35.9	23.7	0.00e+00	123	30	0	1954545664	42	6146
2026-01-15 00:40:18.49	334.78	22.24	-34.9	-35.8	23.9	0.00e+00	123	30	0	1967128576	42	6111
2026-01-15 00:40:22.53	334.94	21.68	-34.4	-35.3	24.3	0.00e+00	120	30	0	1979711488	42	5756
2026-01-15 00:40:26.57	335.09	21.13	-33.9	-34.8	24.5	0.00e+00	122	30	0	1992294400	42	5439
2026-01-15 00:40:30.61	335.24	20.59	-33.9	-34.8	24.5	0.00e+00	122	30	0	2004877312	42	5467
2026-01-15 00:40:34.64	335.38	20.06	-34.0	-34.9	24.6	0.00e+00	122	30	0	2017460224	42	5502
2026-01-15 00:40:38.68	335.51	19.55	-34.0	-34.9	24.7	0.00e+00	120	30	0	2030043136	42	5488
2026-01-15 00:40:42.71	335.65	19.04	-34.1	-35.0	24.5	0.00e+00	123	30	0	2042626048	42	5562
2026-01-15 00:40:46.75	335.78	18.54	-34.2	-35.1	24.5	0.00e+00	121	30	0	2055208960	42	5637
2026-01-15 00:40:50.79	335.90	18.06	-34.4	-35.3	24.3	0.00e+00	123	29	0	2067791872	42	5726
2026-01-15 00:40:54.83	336.03	17.58	-34.7	-35.6	24.0	0.00e+00	123	30	0	2080374784	42	5982
2026-01-15 00:40:58.86	336.15	17.11	-34.7	-35.6	24.0	0.00e+00	122	30	0	2092957696	42	5971
2026-01-15 00:41:02.90	336.26	16.65	-34.9	-35.9	23.9	0.00e+00	123	30	0	2105540608	42	6147
2026-01-15 00:41:06.94	336.38	16.20	-35.3	-36.2	23.6	0.00e+00	123	30	0	2118123520	42	6384
2026-01-15 00:41:10.97	336.49	15.76	-35.4	-36.4	23.4	0.00e+00	120	30	0	2130706432	42	6538
2026-01-15 00:41:15.01	336.60	15.33	-35.5	-36.5	23.4	0.00e+00	123	30	0	2143289344	42	6578
2026-01-15 00:41:19.05	336.70	14.90	-35.6	-36.6	23.1	0.00e+00	122	30	0	2155872256	44	5967
2026-01-15 00:41:23.09	336.80	14.48	-35.7	-36.7	23.1	0.00e+00	122	30	0	2168455168	44	6033
2026-01-15 00:41:27.13	336.91	14.07	-35.5	-36.5	23.2	0.00e+00	123	30	0	2181038080	44	5913
2026-01-15 00:41:31.17	337.00	13.66	-35.5	-36.5	23.2	0.00e+00	122	30	0	2193620992	44	5895
2026-01-15 00:41:35.21	337.10	13.26	-35.8	-36.8	22.9	0.00e+00	122	30	0	2206203904	44	6110
2026-01-15 00:41:39.24	337.19	12.87	-35.7	-36.7	23.0	0.00e+00	122	30	0	2218786816	44	6063
2026-01-15 00:41:43.28	337.29	12.48	-35.9	-37.0	22.7	0.00e+00	120	30	0	2231369728	44	6208
2026-01-15 00:41:47.32	337.38	12.10	-36.0	-37.0	22.6	0.00e+00	124	30	0	2243952640	44	6269
2026-01-15 00:41:51.36	337.47	11.73	-36.1	-37.1	22.5	0.00e+00	123	30	0	2257584128	44	6328
2026-01-15 00:41:55.40	337.55	11.36	-36.1	-37.1	22.5	0.00e+00	122	30	0	2270167040	44	6324
2026-01-15 00:41:59.43	337.64	10.99	-36.1	-37.1	22.6	0.00e+00	120	30	0	2282749952	44	6315
2026-01-15 00:42:03.47	337.72	10.63	-36.1	-37.1	22.5	0.00e+00	123	30	0	2295332864	44	6333
2026-01-15 00:42:07.51	337.80	10.28	-36.1	-37.1	22.5	0.00e+00	123	30	0	2307915776	44	6293
2026-01-15 00:42:11.55	337.88	9.93	-36.3	-37.3	22.3	0.00e+00	122	30	0	2320498688	44	6472
2026-01-15 00:42:15.59	337.96	9.59	-36.5	-37.6	22.1	0.00e+00	123	30	0	2333081600	44	6672
2026-01-15 00:42:19.63	338.04	9.25	-36.3	-37.4	22.3	0.00e+00	123	30	0	2345664512	44	6511
2026-01-15 00:42:23.66	338.11	8.92	-36.5	-37.5	22.1	0.00e+00	123	30	0	2358247424	44	6647
2026-01-15 00:42:27.70	338.19	8.59	-36.8	-37.8	21.9	0.00e+00	122	30	0	2370830336	44	6857
2026-01-15 00:42:31.73	338.26	8.26	-36.9	-38.0	21.8	0.00e+00	122	30	0	2383413248	46	6210
2026-01-15 00:42:35.77	338.34	7.94	-37.0	-38.1	21.6	0.00e+00	122	30	0	2395996160	46	6305
2026-01-15 00:42:39.81	338.41	7.62	-37.3	-38.4	21.3	0.00e+00	123	30	0	2408579072	46	6552
2026-01-15 00:42:43.85	338.48	7.31	-37.2	-38.3	21.3	7.00e-07	122	30	0	2421161984	46	6474
2026-01-15 00:42:47.88	338.55	7.00	-37.4	-38.5	21.1	0.00e+00	123	30	0	2433744896	46	6585
2026-01-15 00:42:51.92	338.61	6.69	-37.6	-38.7	20.9	0.00e+00	120	30	0	2446327808	46	6780
2026-01-15 00:42:55.96	338.68	6.39	-37.7	-38.8	20.7	0.00e+00	120	30	0	2458910720	46	6863
2026-01-15 00:43:00.00	338.75	6.09	-37.5	-38.7	20.8	0.00e+00	123	30	0	2471493632	48	5995
2026-01-15 00:43:04.04	338.81	5.79	-37.7	-38.9	20.5	0.00e+00	122	30	0	2484076544	48	6191
2026-01-15 00:43:08.07	338.87	5.50	-38.2	-39.5	19.6	0.00e+00	121	30	0	2496659456	48	6624
2026-01-15 00:43:12.11	338.94	5.21	-39.4	-41.0	17.8	0.00e+00	123	30	0	2509242368	50	6976
2026-01-15 00:43:16.15	339.00	4.93	-40.8	-43.0	15.0	0.00e+00	123	30	0	2521825280	54	6968
2026-01-15 00:43:20.19	339.06	4.64	-42.3	-45.5	11.8	2.70e-04	122	30	0	2534408192	56	8310
2026-01-15 00:43:24.23	339.12	4.36	-43.3	-48.5	7.6	6.49e-02	123	30	0	2546991104	58	10454
2026-01-15 00:43:28.27	339.18	4.08	-43.9	-52.9	4.6	7.52e-01	122	30	104	2553282560	60	15428
2026-01-15 00:43:32.31	339.24	3.81	-44.0	-56.2	3.5	1.52e+00	0	30	104	2553282560	60	22637
2026-01-15 00:43:36.34	339.30	3.54	-44.2	-56.7	3.5	1.52e+00	0	30	104	2553282560	60	23989
2026-01-15 00:43:40.38	339.36	3.27	-44.0	-56.8	3.5	1.52e+00	0	30	104	2553282560	60	24242
2026-01-15 00:43:44.41	339.41	3.00	-44.1	-57.0	3.5	1.51e+00	0	30	104	2553282560	60	24749
2026-01-15 00:43:48.45	339.47	2.74	-48.8	-61.6	3.5	1.52e+00	0	30	104	2553282560	60	42387
2026-01-15 00:43:52.48	339.52	2.48	-49.0	-61.9	3.5	1.52e+00	0	30	104	2553282560	60	43512
2026-01-15 00:43:56.53	339.58	2.22	-48.7	-61.7	3.5	1.52e+00	0	30	104	2553282560	60	42896
2026-01-15 00:44:00.57	339.63	1.96	-49.1	-62.0	3.5	1.52e+00	0	30	104	2553282560	60	43949
2026-01-15 00:44:04.61	339.69	1.71	-49.0	-61.9	3.5	1.51e+00	0	30	104	2553282560	60	43593
2026-01-15 00:44:08.65	339.74	1.45	-49.0	-61.8	3.5	1.52e+00	0	30	104	2553282560	60	43248
2026-01-15 00:44:12.69	339.79	1.20	-49.0	-61.8	3.5	1.52e+00	0	30	104	2553282560	60	43302
2026-01-15 00:44:16.73	339.84	0.95	-49.0	-61.8	3.5	1.52e+00	0	30	104	2553282560	60	43215
2026-01-15 00:44:20.77	339.90	0.71	-49.0	-61.8	3.5	1.52e+00	0	30	104	2553282560	60	43375
2026-01-15 00:44:24.80	339.95	0.46	-48.9	-61.8	3.5	1.52e+00	0	30	104	2553282560	60	43085
2026-01-15 00:44:28.84	340.00	0.22	-48.9	-61.8	3.5	1.52e+00	0	30	104	2553282560	60	43038
2026-01-15 00:44:32.88	340.05	-0.02	-48.9	-61.8	3.5	1.52e+00	0	30	104	2553282560	60	42992

#Closed at: 2026-01-15 00:44:34
#Recorded file [2553 MB]: D:/lorett/data/35029_260115_122900.dat