passes_logs/2026/01/15/R4.6S_Anadyr/R4.6S_Anadyr__20260115_005846_SUOMI_NPP_rec.log

#Pass ID: 20260115_005846_SUOMI NPP
#Satellite: SUOMI NPP
#Configuration: NPP
#almurnet v.1.7.20251203
#Start time: 2026-01-15 00:58:49

#Version: 2.2.20231116
#Station: R4.6S_Anadyr
#Location: 177.4865 lon 64.73178 lat
#TLE: 1 37849U 11061A   26014.61059675  .00000037  00000+0  38639-4 0  9994
#TLE: 2 37849  98.7810 316.6625 0002460  64.3781 295.7649 14.19525105736658

#Time	Az	El	Level	Level2	SNR	BER	BlckErr	Temp	State	Recorded	gain1	gain2
2026-01-15 00:58:49.98	173.63	0.18	-49.0	-62.7	3.3	1.54e+00	0	28	0	0	60	49403
2026-01-15 00:58:54.01	173.73	0.42	-49.0	-64.3	3.6	1.51e+00	0	28	104	0	60	58971
2026-01-15 00:58:58.05	173.83	0.66	-49.0	-64.2	3.6	1.51e+00	0	28	104	0	60	58354
2026-01-15 00:59:02.09	173.93	0.91	-48.4	-63.5	3.6	1.51e+00	0	28	104	0	60	54312
2026-01-15 00:59:06.13	174.03	1.15	-47.5	-62.5	3.6	1.51e+00	0	28	104	0	60	47987
2026-01-15 00:59:10.17	174.14	1.40	-47.4	-62.2	3.6	1.51e+00	0	28	104	0	60	46541
2026-01-15 00:59:14.20	174.24	1.65	-47.4	-62.1	3.6	1.51e+00	0	28	104	0	60	46151
2026-01-15 00:59:18.24	174.35	1.91	-47.5	-62.5	3.6	1.51e+00	0	28	104	0	60	48064
2026-01-15 00:59:22.28	174.46	2.16	-47.5	-62.6	3.6	1.51e+00	0	28	104	0	60	48762
2026-01-15 00:59:26.32	174.57	2.42	-47.4	-61.6	3.6	1.51e+00	0	28	104	0	60	43443
2026-01-15 00:59:30.36	174.68	2.68	-47.4	-62.1	3.6	1.51e+00	0	28	104	0	60	46181
2026-01-15 00:59:34.39	174.79	2.94	-46.5	-52.6	8.3	1.83e-01	0	29	0	2097152	60	15427
2026-01-15 00:59:38.43	174.91	3.20	-42.5	-44.5	16.9	0.00e+00	0	29	0	9437184	58	6834
2026-01-15 00:59:42.47	175.03	3.47	-40.5	-41.9	19.3	0.00e+00	0	28	0	16777216	54	6372
2026-01-15 00:59:46.51	175.14	3.74	-41.1	-42.6	17.4	0.00e+00	0	29	0	25165824	56	6159
2026-01-15 00:59:50.55	175.27	4.01	-46.1	-51.7	10.7	1.37e+00	0	29	104	31457280	60	13902
2026-01-15 00:59:54.58	175.39	4.29	-43.8	-46.6	15.5	0.00e+00	0	29	0	37748736	60	7701
2026-01-15 00:59:58.62	175.51	4.56	-43.8	-46.3	16.3	0.00e+00	0	29	0	45088768	60	7499
2026-01-15 01:00:02.66	175.64	4.84	-43.1	-45.3	16.2	0.00e+00	0	29	0	52428800	60	6678
2026-01-15 01:00:06.69	175.77	5.13	-42.2	-44.1	17.7	0.00e+00	0	29	0	60817408	58	6501
2026-01-15 01:00:10.73	175.90	5.41	-40.5	-41.9	19.7	0.00e+00	0	29	0	68157440	54	6352
2026-01-15 01:00:14.77	176.04	5.70	-40.0	-41.3	20.2	0.00e+00	0	29	0	75497472	54	5931
2026-01-15 01:00:18.80	176.18	5.99	-39.9	-41.2	20.4	0.00e+00	0	29	0	82837504	52	6568
2026-01-15 01:00:22.84	176.32	6.29	-39.8	-41.1	20.5	0.00e+00	0	29	0	91226112	52	6478
2026-01-15 01:00:26.87	176.46	6.59	-39.5	-40.7	20.9	0.00e+00	0	29	0	98566144	52	6218
2026-01-15 01:00:30.90	176.60	6.89	-39.7	-40.9	20.7	0.00e+00	0	29	0	105906176	52	6334
2026-01-15 01:00:34.94	176.75	7.19	-39.3	-40.5	21.1	0.00e+00	0	29	0	113246208	52	6059
2026-01-15 01:00:38.98	176.90	7.50	-39.4	-40.6	21.1	0.00e+00	0	29	0	120586240	52	6145
2026-01-15 01:00:43.02	177.05	7.82	-39.5	-40.7	21.0	0.00e+00	0	29	0	128974848	52	6182
2026-01-15 01:00:47.06	177.21	8.13	-39.1	-40.2	21.4	0.00e+00	0	29	0	136314880	52	5869
2026-01-15 01:00:51.09	177.37	8.45	-39.0	-40.1	21.5	0.00e+00	0	29	0	143654912	52	5803
2026-01-15 01:00:55.13	177.53	8.78	-38.9	-40.0	21.7	0.00e+00	0	29	0	150994944	52	5743
2026-01-15 01:00:59.17	177.70	9.11	-38.9	-40.0	21.6	0.00e+00	0	29	0	158334976	52	5725
2026-01-15 01:01:03.21	177.87	9.44	-38.8	-39.9	21.8	0.00e+00	0	29	0	166723584	50	6355
2026-01-15 01:01:07.25	178.04	9.78	-38.6	-39.6	22.1	0.00e+00	0	29	0	174063616	50	6134
2026-01-15 01:01:11.30	178.22	10.12	-38.7	-39.7	22.0	0.00e+00	0	29	0	181403648	50	6215
2026-01-15 01:01:15.34	178.40	10.46	-38.7	-39.7	22.1	0.00e+00	0	29	0	188743680	50	6224
2026-01-15 01:01:19.38	178.58	10.81	-38.6	-39.7	22.1	0.00e+00	0	29	0	197132288	50	6197
2026-01-15 01:01:23.41	178.77	11.17	-38.2	-39.2	22.4	0.00e+00	0	29	0	204472320	50	5861
2026-01-15 01:01:27.45	178.97	11.53	-38.0	-39.0	22.8	0.00e+00	0	29	0	211812352	50	5736
2026-01-15 01:01:31.48	179.16	11.89	-37.8	-38.8	22.9	0.00e+00	0	29	0	219152384	50	5574
2026-01-15 01:01:35.53	179.37	12.27	-37.7	-38.7	22.9	0.00e+00	0	29	0	226492416	48	6203
2026-01-15 01:01:39.57	179.57	12.64	-37.7	-38.7	23.0	0.00e+00	0	29	0	234881024	48	6184
2026-01-15 01:01:43.60	179.79	13.02	-37.8	-38.7	22.9	0.00e+00	0	29	0	242221056	48	6220
2026-01-15 01:01:47.64	180.00	13.41	-37.6	-38.5	23.1	0.00e+00	0	29	0	249561088	48	6099
2026-01-15 01:01:51.68	180.23	13.81	-37.5	-38.4	23.2	0.00e+00	0	29	0	256901120	48	6011
2026-01-15 01:01:55.72	180.46	14.21	-37.1	-38.0	23.5	0.00e+00	0	29	0	265289728	48	5740
2026-01-15 01:01:59.75	180.69	14.61	-37.3	-38.2	23.4	0.00e+00	0	29	0	272629760	48	5872
2026-01-15 01:02:03.78	180.93	15.02	-37.3	-38.2	23.5	0.00e+00	0	29	0	279969792	48	5886
2026-01-15 01:02:07.82	181.18	15.44	-37.5	-38.4	23.2	0.00e+00	0	29	0	287309824	48	6032
2026-01-15 01:02:11.86	181.43	15.87	-38.0	-39.0	22.9	0.00e+00	0	29	0	294649856	48	6393
2026-01-15 01:02:15.90	181.69	16.30	-37.9	-38.8	23.0	0.00e+00	0	29	0	303038464	48	6310
2026-01-15 01:02:19.94	181.96	16.74	-37.8	-38.8	23.1	0.00e+00	0	29	0	310378496	48	6272
2026-01-15 01:02:23.98	182.23	17.19	-37.7	-38.6	23.1	0.00e+00	0	29	0	317718528	48	6133
2026-01-15 01:02:28.01	182.52	17.64	-38.4	-39.4	22.5	0.00e+00	0	29	0	325058560	48	6734
2026-01-15 01:02:32.05	182.81	18.11	-38.5	-39.5	22.5	0.00e+00	0	29	0	333447168	48	6803
2026-01-15 01:02:36.09	183.11	18.58	-38.2	-39.2	22.7	0.00e+00	0	29	0	340787200	48	6586
2026-01-15 01:02:40.13	183.42	19.06	-38.4	-39.4	22.6	0.00e+00	0	29	0	348127232	48	6742
2026-01-15 01:02:44.16	183.74	19.55	-38.0	-39.0	22.9	0.00e+00	0	29	0	355467264	48	6423
2026-01-15 01:02:48.20	184.06	20.05	-37.9	-38.8	23.0	0.00e+00	0	29	0	362807296	48	6278
2026-01-15 01:02:52.24	184.40	20.55	-37.2	-38.0	23.7	0.00e+00	0	29	0	371195904	48	5735
2026-01-15 01:02:56.28	184.75	21.07	-36.4	-37.3	24.1	0.00e+00	0	29	0	378535936	46	5897
2026-01-15 01:03:00.31	185.11	21.59	-36.2	-37.0	24.5	0.00e+00	0	29	0	385875968	46	5699
2026-01-15 01:03:04.35	185.49	22.13	-35.8	-36.6	24.7	0.00e+00	0	29	0	393216000	46	5487
2026-01-15 01:03:08.39	185.87	22.68	-35.7	-36.5	24.7	0.00e+00	0	29	0	400556032	44	6073
2026-01-15 01:03:12.43	186.27	23.24	-36.1	-36.9	24.6	0.00e+00	0	29	0	408944640	44	6359
2026-01-15 01:03:16.46	186.69	23.80	-36.1	-37.0	24.5	0.00e+00	0	29	0	416284672	44	6400
2026-01-15 01:03:20.50	187.11	24.38	-36.0	-36.8	24.6	0.00e+00	0	29	0	423624704	44	6266
2026-01-15 01:03:24.54	187.56	24.97	-35.9	-36.7	24.7	0.00e+00	0	29	0	430964736	44	6212
2026-01-15 01:03:28.57	188.02	25.57	-35.9	-36.7	24.5	0.00e+00	0	29	0	439353344	44	6208
2026-01-15 01:03:32.61	188.49	26.19	-35.7	-36.5	24.7	0.00e+00	0	29	0	446693376	44	6073
2026-01-15 01:03:36.64	188.99	26.81	-35.8	-36.6	24.8	0.00e+00	0	29	0	454033408	44	6127
2026-01-15 01:03:40.67	189.50	27.45	-35.8	-36.6	24.7	0.00e+00	0	29	0	461373440	44	6130
2026-01-15 01:03:44.71	190.04	28.10	-36.2	-37.0	24.4	0.00e+00	0	29	0	468713472	44	6455
2026-01-15 01:03:48.75	190.60	28.77	-36.8	-37.7	23.8	0.00e+00	0	29	0	477102080	46	6206
2026-01-15 01:03:52.79	191.18	29.45	-37.7	-38.6	23.3	0.00e+00	0	29	0	484442112	46	6896
2026-01-15 01:03:56.82	191.78	30.14	-39.1	-40.1	22.2	0.00e+00	0	29	0	491782144	50	6522
2026-01-15 01:04:00.86	192.41	30.84	-40.0	-41.2	21.3	0.00e+00	0	29	0	499122176	52	6571
2026-01-15 01:04:04.90	193.07	31.56	-40.5	-41.7	20.7	0.00e+00	0	29	0	507510784	52	6972
2026-01-15 01:04:08.93	193.76	32.29	-39.6	-40.7	21.6	0.00e+00	0	29	0	514850816	52	6225
2026-01-15 01:04:12.97	194.48	33.04	-39.1	-40.1	22.1	0.00e+00	0	29	0	522190848	52	5827
2026-01-15 01:04:17.01	195.23	33.79	-38.8	-39.8	22.4	0.00e+00	0	29	0	529530880	50	6255
2026-01-15 01:04:21.05	196.02	34.57	-39.0	-40.0	22.2	0.00e+00	0	29	0	536870912	50	6430
2026-01-15 01:04:25.08	196.84	35.35	-39.1	-40.1	22.2	0.00e+00	0	29	0	545259520	50	6537
2026-01-15 01:04:29.11	197.70	36.15	-38.4	-39.3	22.8	0.00e+00	0	29	0	552599552	50	5927
2026-01-15 01:04:33.15	198.61	36.96	-38.1	-39.1	22.9	0.00e+00	0	29	0	559939584	48	6480
2026-01-15 01:04:37.18	199.56	37.78	-39.3	-40.4	22.0	0.00e+00	0	29	0	567279616	50	6729
2026-01-15 01:04:41.22	200.56	38.62	-39.5	-40.6	21.7	0.00e+00	0	29	0	574619648	52	6119
2026-01-15 01:04:45.26	201.62	39.47	-38.6	-39.7	22.5	0.00e+00	0	29	0	583008256	50	6175
2026-01-15 01:04:49.30	202.73	40.32	-37.6	-38.5	23.5	0.00e+00	0	29	0	590348288	48	6099
2026-01-15 01:04:53.34	203.90	41.19	-38.2	-39.2	22.9	0.00e+00	0	29	0	597688320	48	6568
2026-01-15 01:04:57.37	205.13	42.06	-37.0	-37.8	23.9	0.00e+00	0	29	0	605028352	46	6271
2026-01-15 01:05:01.41	206.43	42.93	-37.8	-38.7	23.1	0.00e+00	0	29	0	613416960	48	6219
2026-01-15 01:05:05.45	207.80	43.81	-38.2	-39.1	22.8	0.00e+00	0	29	0	620756992	48	6532
2026-01-15 01:05:09.49	209.25	44.69	-38.9	-39.9	22.3	0.00e+00	0	29	0	628097024	50	6379
2026-01-15 01:05:13.53	210.78	45.58	-38.1	-39.0	23.1	0.00e+00	0	29	0	635437056	48	6420
2026-01-15 01:05:17.57	212.40	46.45	-40.1	-41.3	21.2	0.00e+00	0	29	0	642777088	52	6682
2026-01-15 01:05:21.61	214.11	47.32	-41.6	-43.1	19.7	0.00e+00	0	29	0	651165696	56	6508
2026-01-15 01:05:25.65	215.91	48.18	-41.3	-42.7	20.1	0.00e+00	0	29	0	658505728	56	6193
2026-01-15 01:05:29.69	217.81	49.02	-39.8	-40.9	21.5	0.00e+00	0	29	0	665845760	52	6387
2026-01-15 01:05:33.72	219.82	49.84	-39.3	-40.3	21.9	0.00e+00	0	29	0	673185792	52	5945
2026-01-15 01:05:37.76	221.94	50.64	-38.3	-39.3	22.7	0.00e+00	0	29	0	681574400	50	5930
2026-01-15 01:05:41.80	224.17	51.41	-38.5	-39.5	22.7	0.00e+00	0	29	0	688914432	50	6094
2026-01-15 01:05:45.84	226.51	52.15	-36.1	-36.9	24.6	0.00e+00	0	29	0	696254464	46	5689
2026-01-15 01:05:49.88	228.97	52.84	-36.3	-37.1	24.4	0.00e+00	0	29	0	703594496	46	5780
2026-01-15 01:05:53.91	231.54	53.49	-37.4	-38.3	23.4	0.00e+00	0	29	0	710934528	48	5924
2026-01-15 01:05:57.95	234.23	54.09	-36.6	-37.4	24.3	0.00e+00	0	29	0	719323136	48	5364
2026-01-15 01:06:01.98	237.01	54.62	-36.9	-37.8	24.1	0.00e+00	0	29	0	726663168	46	6271
2026-01-15 01:06:06.02	239.90	55.10	-35.9	-36.7	24.7	0.00e+00	0	29	0	734003200	46	5533
2026-01-15 01:06:10.06	242.88	55.50	-35.6	-36.4	24.7	0.00e+00	0	29	0	741343232	44	6005
2026-01-15 01:06:14.10	245.94	55.83	-36.9	-37.7	23.8	0.00e+00	0	29	0	749731840	46	6234
2026-01-15 01:06:18.14	249.06	56.08	-38.1	-39.1	22.5	0.00e+00	0	29	0	757071872	48	6479
2026-01-15 01:06:22.18	252.23	56.25	-38.6	-39.7	22.5	0.00e+00	0	29	0	764411904	50	6190
2026-01-15 01:06:26.22	255.43	56.33	-36.8	-37.7	24.0	0.00e+00	0	29	0	771751936	48	5516
2026-01-15 01:06:30.25	258.63	56.33	-36.6	-37.4	24.3	0.00e+00	0	29	0	779091968	46	6016
2026-01-15 01:06:34.28	261.82	56.24	-37.3	-38.2	23.8	0.00e+00	0	29	0	787480576	48	5883
2026-01-15 01:06:38.32	264.98	56.07	-37.2	-38.1	23.7	0.00e+00	0	29	0	794820608	48	5777
2026-01-15 01:06:42.36	268.10	55.82	-37.2	-38.0	23.9	0.00e+00	0	29	0	802160640	46	6461
2026-01-15 01:06:46.39	271.15	55.49	-37.5	-38.4	23.2	0.00e+00	0	29	0	809500672	46	6757
2026-01-15 01:06:50.43	274.12	55.08	-37.4	-38.3	23.6	0.00e+00	0	29	0	817889280	48	5904
2026-01-15 01:06:54.47	277.00	54.61	-38.3	-39.4	22.7	0.00e+00	0	29	0	825229312	48	6699
2026-01-15 01:06:58.51	279.79	54.07	-39.6	-40.8	21.7	0.00e+00	0	29	0	832569344	52	6274
2026-01-15 01:07:02.55	282.47	53.47	-37.4	-38.2	23.7	0.00e+00	0	29	0	839909376	48	5893
2026-01-15 01:07:06.58	285.02	52.82	-36.8	-37.6	24.2	0.00e+00	0	29	0	847249408	46	6144
2026-01-15 01:07:10.61	287.47	52.13	-37.7	-38.7	23.2	0.00e+00	0	29	0	855638016	48	6188
2026-01-15 01:07:14.65	289.81	51.40	-38.2	-39.1	22.9	0.00e+00	0	29	0	862978048	50	5825
2026-01-15 01:07:18.69	292.03	50.63	-39.9	-41.1	21.4	0.00e+00	0	29	0	870318080	52	6496
2026-01-15 01:07:22.72	294.14	49.83	-37.9	-38.8	23.2	0.00e+00	0	29	0	877658112	48	6277
2026-01-15 01:07:26.76	296.14	49.01	-39.7	-40.8	21.6	0.00e+00	0	29	0	884998144	54	5593
2026-01-15 01:07:30.80	298.04	48.17	-38.8	-39.8	22.5	0.00e+00	0	29	0	893386752	50	6286
2026-01-15 01:07:34.83	299.83	47.32	-37.3	-38.2	23.7	0.00e+00	0	29	0	900726784	46	6549
2026-01-15 01:07:38.87	301.53	46.45	-37.4	-38.2	23.6	0.00e+00	0	29	0	908066816	48	5889
2026-01-15 01:07:42.91	303.14	45.58	-42.0	-43.6	19.4	0.00e+00	0	29	0	915406848	56	6900
2026-01-15 01:07:46.95	304.67	44.70	-40.5	-41.7	20.8	0.00e+00	0	29	0	923795456	54	6245
2026-01-15 01:07:50.99	306.11	43.82	-46.2	-50.0	12.7	1.08e-04	0	29	0	931135488	60	11394
2026-01-15 01:07:55.02	307.48	42.95	-45.6	-48.6	14.1	0.00e+00	0	29	0	938475520	60	9725
2026-01-15 01:07:59.06	308.77	42.08	-44.2	-46.6	16.5	0.00e+00	0	29	0	945815552	60	7697
2026-01-15 01:08:03.10	310.00	41.21	-40.3	-41.5	21.0	0.00e+00	0	29	0	953155584	54	6055
2026-01-15 01:08:07.13	311.17	40.35	-41.8	-43.2	19.4	0.00e+00	0	29	0	961544192	56	6615
2026-01-15 01:08:11.16	312.27	39.50	-40.9	-42.2	20.3	0.00e+00	0	29	0	968884224	54	6549
2026-01-15 01:08:15.18	313.32	38.66	-41.7	-43.2	19.6	0.00e+00	0	29	0	976224256	56	6548
2026-01-15 01:08:19.23	314.32	37.83	-37.9	-38.8	23.3	0.00e+00	0	30	0	983564288	50	5598
2026-01-15 01:08:23.27	315.27	37.01	-40.2	-41.4	21.5	0.00e+00	0	29	0	991952896	52	6707
2026-01-15 01:08:27.30	316.17	36.20	-37.4	-38.3	23.5	0.00e+00	0	29	0	999292928	48	5935
2026-01-15 01:08:31.34	317.04	35.41	-39.5	-40.6	21.7	0.00e+00	0	29	0	1006632960	50	6903
2026-01-15 01:08:35.38	317.86	34.63	-38.9	-39.9	22.3	0.00e+00	0	29	0	1013972992	52	5670
2026-01-15 01:08:39.42	318.65	33.86	-38.3	-39.2	22.9	0.00e+00	0	29	0	1021313024	50	5884
2026-01-15 01:08:43.45	319.40	33.10	-40.0	-41.2	21.3	0.00e+00	0	29	0	1029701632	52	6591
2026-01-15 01:08:47.49	320.12	32.36	-38.9	-40.0	22.3	0.00e+00	0	29	0	1037041664	52	5728
2026-01-15 01:08:51.52	320.80	31.63	-38.7	-39.6	22.5	0.00e+00	0	29	0	1044381696	50	6170
2026-01-15 01:08:55.56	321.46	30.92	-38.7	-39.6	22.5	0.00e+00	0	29	0	1051721728	50	6173
2026-01-15 01:08:59.60	322.09	30.22	-40.1	-41.3	21.0	0.00e+00	0	29	0	1060110336	52	6650
2026-01-15 01:09:03.63	322.69	29.53	-41.3	-42.6	20.0	0.00e+00	0	29	0	1067450368	54	6898
2026-01-15 01:09:07.67	323.27	28.86	-38.7	-39.7	22.5	0.00e+00	0	29	0	1074790400	52	5525
2026-01-15 01:09:11.71	323.83	28.19	-38.0	-38.9	23.0	0.00e+00	0	29	0	1082130432	50	5672
2026-01-15 01:09:15.75	324.37	27.55	-38.5	-39.5	22.6	0.00e+00	0	29	0	1089470464	50	6092
2026-01-15 01:09:19.78	324.88	26.91	-37.1	-38.0	23.6	0.00e+00	0	29	0	1097859072	48	5739
2026-01-15 01:09:23.81	325.38	26.29	-37.4	-38.3	23.5	0.00e+00	0	29	0	1105199104	46	6644
2026-01-15 01:09:27.86	325.86	25.68	-39.5	-40.6	21.6	0.00e+00	0	29	0	1112539136	50	6905
2026-01-15 01:09:31.90	326.32	25.08	-42.5	-44.3	18.2	0.00e+00	0	29	0	1119879168	56	7431
2026-01-15 01:09:35.94	326.76	24.49	-41.1	-42.5	19.9	0.00e+00	0	29	0	1127219200	56	6090
2026-01-15 01:09:39.97	327.19	23.91	-38.9	-39.9	22.2	0.00e+00	0	29	0	1135607808	52	5656
2026-01-15 01:09:44.01	327.60	23.35	-37.8	-38.8	22.9	0.00e+00	0	29	0	1142947840	50	5596
2026-01-15 01:09:48.05	328.01	22.79	-38.1	-39.1	22.8	0.00e+00	0	29	0	1150287872	48	6518
2026-01-15 01:09:52.09	328.39	22.25	-38.8	-39.9	22.2	0.00e+00	0	29	0	1157627904	50	6346
2026-01-15 01:09:56.13	328.77	21.71	-39.1	-40.3	21.9	0.00e+00	0	29	0	1166016512	50	6638
2026-01-15 01:10:00.16	329.13	21.19	-39.3	-40.5	21.8	0.00e+00	0	29	0	1173356544	50	6779
2026-01-15 01:10:04.20	329.48	20.68	-38.7	-39.7	22.2	0.00e+00	0	29	0	1180696576	50	6190
2026-01-15 01:10:08.24	329.82	20.17	-37.8	-38.7	23.1	0.00e+00	0	29	0	1188036608	50	5558
2026-01-15 01:10:12.28	330.15	19.68	-37.5	-38.4	23.4	0.00e+00	0	29	0	1195376640	48	5980
2026-01-15 01:10:16.32	330.47	19.19	-37.6	-38.5	23.2	0.00e+00	0	29	0	1203765248	48	6062
2026-01-15 01:10:20.35	330.78	18.71	-37.9	-38.8	22.8	0.00e+00	0	29	0	1211105280	48	6304
2026-01-15 01:10:24.39	331.08	18.24	-37.6	-38.6	23.1	0.00e+00	0	29	0	1218445312	48	6112
2026-01-15 01:10:28.42	331.38	17.78	-37.5	-38.4	23.3	0.00e+00	0	29	0	1225785344	48	6007
2026-01-15 01:10:32.46	331.66	17.33	-37.4	-38.3	23.3	0.00e+00	0	29	0	1234173952	48	5963
2026-01-15 01:10:36.50	331.94	16.88	-37.6	-38.6	23.0	0.00e+00	0	29	0	1241513984	48	6123
2026-01-15 01:10:40.54	332.21	16.44	-38.3	-39.3	22.5	0.00e+00	0	29	0	1248854016	48	6661
2026-01-15 01:10:44.57	332.47	16.01	-39.0	-40.1	21.9	0.00e+00	0	29	0	1256194048	50	6520
2026-01-15 01:10:48.61	332.73	15.59	-39.3	-40.5	21.5	0.00e+00	0	29	0	1263534080	50	6809
2026-01-15 01:10:52.65	332.97	15.17	-39.7	-40.9	21.1	0.00e+00	0	29	0	1271922688	52	6368
2026-01-15 01:10:56.69	333.22	14.76	-39.1	-40.3	21.6	0.00e+00	0	29	0	1279262720	52	5923
2026-01-15 01:11:00.72	333.45	14.36	-38.6	-39.7	22.2	0.00e+00	0	29	0	1286602752	50	6188
2026-01-15 01:11:04.76	333.68	13.96	-38.3	-39.3	22.5	0.00e+00	0	29	0	1293942784	50	5927
2026-01-15 01:11:08.80	333.91	13.57	-37.7	-38.6	23.0	0.00e+00	0	29	0	1302331392	48	6140
2026-01-15 01:11:12.84	334.13	13.18	-37.4	-38.3	23.2	0.00e+00	0	29	0	1309671424	48	5964
2026-01-15 01:11:16.88	334.34	12.80	-37.7	-38.7	22.9	0.00e+00	0	29	0	1317011456	48	6188
2026-01-15 01:11:20.92	334.55	12.42	-38.0	-39.0	22.6	0.00e+00	0	29	0	1324351488	48	6400
2026-01-15 01:11:24.96	334.76	12.06	-38.3	-39.3	22.2	0.00e+00	0	29	0	1331691520	48	6664
2026-01-15 01:11:29.00	334.96	11.69	-38.6	-39.7	22.0	0.00e+00	0	29	0	1340080128	50	6181
2026-01-15 01:11:33.03	335.16	11.33	-38.8	-39.9	21.9	0.00e+00	0	29	0	1347420160	50	6335
2026-01-15 01:11:37.07	335.35	10.98	-38.8	-39.8	21.7	0.00e+00	0	29	0	1354760192	50	6316
2026-01-15 01:11:41.11	335.54	10.63	-38.8	-39.9	21.7	0.00e+00	0	29	0	1362100224	50	6371
2026-01-15 01:11:45.14	335.72	10.28	-38.6	-39.6	21.8	0.00e+00	0	29	0	1370488832	50	6149
2026-01-15 01:11:49.18	335.90	9.94	-38.6	-39.6	22.0	0.00e+00	0	29	0	1377828864	50	6151
2026-01-15 01:11:53.22	336.08	9.61	-38.6	-39.6	22.0	0.00e+00	0	29	0	1385168896	50	6169
2026-01-15 01:11:57.26	336.25	9.28	-38.7	-39.8	21.8	0.00e+00	0	29	0	1392508928	50	6300
2026-01-15 01:12:01.30	336.42	8.95	-38.8	-39.9	21.8	0.00e+00	0	29	0	1399848960	50	6377
2026-01-15 01:12:05.33	336.58	8.63	-39.0	-40.1	21.5	0.00e+00	0	29	0	1408237568	50	6499
2026-01-15 01:12:09.37	336.75	8.31	-39.5	-40.7	20.8	0.00e+00	0	29	0	1415577600	50	7000
2026-01-15 01:12:13.41	336.90	7.99	-39.8	-41.0	20.7	0.00e+00	0	29	0	1422917632	52	6427
2026-01-15 01:12:17.44	337.06	7.68	-40.0	-41.3	20.3	0.00e+00	0	29	0	1430257664	52	6658
2026-01-15 01:12:21.49	337.22	7.37	-40.0	-41.3	20.3	0.00e+00	0	29	0	1437597696	52	6631
2026-01-15 01:12:25.52	337.37	7.07	-40.3	-41.7	20.0	0.00e+00	0	29	0	1445986304	52	6947
2026-01-15 01:12:29.56	337.51	6.77	-40.6	-42.1	19.5	0.00e+00	0	29	0	1453326336	52	7316
2026-01-15 01:12:33.60	337.66	6.47	-40.5	-41.9	19.6	0.00e+00	0	29	0	1460666368	54	6358
2026-01-15 01:12:37.63	337.80	6.18	-40.7	-42.2	19.3	0.00e+00	0	29	0	1468006400	54	6609
2026-01-15 01:12:41.67	337.94	5.89	-40.8	-42.4	19.0	0.00e+00	0	29	0	1476395008	54	6769
2026-01-15 01:12:45.71	338.08	5.60	-41.6	-43.5	17.7	0.00e+00	0	29	0	1483735040	54	7664
2026-01-15 01:12:49.75	338.22	5.31	-42.2	-44.5	16.4	0.00e+00	0	29	0	1491075072	56	7648
2026-01-15 01:12:53.78	338.35	5.03	-42.8	-45.9	14.2	7.00e-07	0	29	0	1498415104	58	8021
2026-01-15 01:12:57.82	338.48	4.75	-43.5	-47.9	11.5	4.58e-04	0	29	0	1505755136	58	10087
2026-01-15 01:13:01.85	338.61	4.48	-43.9	-50.6	8.0	4.33e-02	0	29	0	1514143744	60	12195
2026-01-15 01:13:05.89	338.74	4.20	-44.1	-53.1	4.7	5.73e-01	0	29	0	1521483776	60	16259
2026-01-15 01:13:09.93	338.86	3.93	-44.0	-57.1	3.7	1.48e+00	0	29	104	1524629504	60	25743
2026-01-15 01:13:13.97	338.99	3.66	-44.0	-58.5	3.6	1.51e+00	0	29	104	1524629504	60	30356
2026-01-15 01:13:18.01	339.11	3.40	-44.2	-59.2	3.6	1.51e+00	0	29	104	1524629504	60	32933
2026-01-15 01:13:22.04	339.23	3.13	-44.0	-59.2	3.6	1.51e+00	0	29	104	1524629504	60	33115
2026-01-15 01:13:26.08	339.34	2.87	-48.2	-63.4	3.6	1.51e+00	0	30	104	1524629504	60	53486
2026-01-15 01:13:30.12	339.46	2.61	-48.9	-64.1	3.6	1.51e+00	0	30	104	1524629504	60	57749
2026-01-15 01:13:34.16	339.57	2.36	-48.7	-64.2	3.6	1.51e+00	0	29	104	1524629504	60	58347
2026-01-15 01:13:38.20	339.69	2.10	-48.8	-64.0	3.6	1.51e+00	0	29	104	1524629504	60	57543
2026-01-15 01:13:42.24	339.80	1.85	-49.0	-64.2	3.6	1.51e+00	0	29	104	1524629504	60	58547
2026-01-15 01:13:46.28	339.91	1.60	-49.0	-64.2	3.6	1.51e+00	0	29	104	1524629504	60	58347
2026-01-15 01:13:50.32	340.02	1.35	-48.9	-64.1	3.6	1.51e+00	0	29	104	1524629504	60	57986
2026-01-15 01:13:54.36	340.12	1.11	-48.9	-64.1	3.6	1.51e+00	0	30	104	1524629504	60	58230
2026-01-15 01:13:58.40	340.23	0.86	-48.9	-64.2	3.6	1.51e+00	0	29	104	1524629504	60	58290
2026-01-15 01:14:02.44	340.33	0.62	-48.9	-64.1	3.6	1.51e+00	0	30	104	1524629504	60	58018
2026-01-15 01:14:06.47	340.43	0.38	-48.9	-64.1	3.6	1.51e+00	0	30	104	1524629504	60	57662
2026-01-15 01:14:10.51	340.54	0.14	-48.9	-64.1	3.6	1.51e+00	0	29	104	1524629504	60	57925
2026-01-15 01:14:14.55	340.64	-0.09	-48.9	-64.1	3.6	1.51e+00	0	29	104	1524629504	60	57832

#Closed at: 2026-01-15 01:14:14
#Recorded file [1524 MB]: D:/lorett/data/35029_260115_125849.dat