passes_logs/2026/01/15/R4.6S_Anadyr/R4.6S_Anadyr__20260115_232026_NOAA_20_JPSS-1_rec.log

#Pass ID: 20260115_232026_NOAA 20 (JPSS-1)
#Satellite: NOAA 20 (JPSS-1)
#Configuration: NOAA 20
#almurnet v.1.7.20251203
#Start time: 2026-01-15 23:20:28

#Version: 2.2.20231116
#Station: R4.6S_Anadyr
#Location: 177.4865 lon 64.73178 lat
#TLE: 1 43013U 17073A   26014.55467351  .00000038  00000+0  38801-4 0  9992
#TLE: 2 43013  98.7635 315.4987 0001517  39.9279 320.2008 14.19535859422677

#Time	Az	El	Level	Level2	SNR	BER	BlckErr	Temp	State	Recorded	gain1	gain2
2026-01-15 23:20:28.34	134.68	0.08	-48.1	-63.0	3.5	1.51e+00	0	26	0	0	60	50850
2026-01-15 23:20:32.37	134.59	0.32	-48.4	-63.6	3.6	1.51e+00	0	27	104	0	60	54691
2026-01-15 23:20:36.41	134.51	0.56	-48.2	-63.4	3.6	1.51e+00	0	28	104	0	60	53423
2026-01-15 23:20:40.45	134.42	0.81	-47.7	-63.1	3.6	1.51e+00	0	28	104	0	60	51681
2026-01-15 23:20:44.49	134.33	1.06	-47.0	-62.2	3.6	1.51e+00	0	28	104	0	60	46646
2026-01-15 23:20:48.53	134.24	1.30	-45.7	-61.8	3.6	1.51e+00	0	28	104	0	60	44450
2026-01-15 23:20:52.56	134.15	1.56	-45.7	-61.8	3.6	1.51e+00	0	28	104	0	60	44482
2026-01-15 23:20:56.61	134.05	1.81	-45.6	-61.6	3.6	1.51e+00	0	28	104	0	60	43444
2026-01-15 23:21:00.64	133.96	2.06	-45.6	-61.5	3.6	1.51e+00	0	28	104	0	60	42881
2026-01-15 23:21:04.68	133.86	2.32	-45.6	-61.7	3.6	1.51e+00	0	28	104	0	60	44145
2026-01-15 23:21:08.72	133.76	2.58	-45.6	-61.2	3.6	1.51e+00	0	28	104	0	60	41341
2026-01-15 23:21:12.76	133.66	2.84	-45.5	-60.4	3.6	1.51e+00	0	28	104	0	60	37664
2026-01-15 23:21:16.80	133.55	3.11	-45.4	-58.4	4.0	1.51e+00	0	29	104	0	60	30020
2026-01-15 23:21:20.84	133.45	3.37	-43.1	-46.8	14.1	2.61e-04	0	28	0	6291456	60	7939
2026-01-15 23:21:24.88	133.34	3.64	-40.8	-43.0	17.9	0.00e+00	0	28	0	13631488	56	6408
2026-01-15 23:21:28.92	133.23	3.91	-44.9	-52.6	6.9	6.94e-01	0	29	104	16777216	60	15499
2026-01-15 23:21:32.96	133.11	4.19	-39.5	-40.9	20.0	0.00e+00	0	29	0	18874368	52	6380
2026-01-15 23:21:36.99	133.00	4.46	-38.8	-40.3	20.5	0.00e+00	0	29	0	26214400	52	5900
2026-01-15 23:21:41.03	132.88	4.74	-38.7	-40.3	20.4	0.00e+00	0	29	0	33554432	50	6676
2026-01-15 23:21:45.07	132.76	5.03	-38.3	-39.7	21.1	0.00e+00	0	29	0	41943040	50	6196
2026-01-15 23:21:49.10	132.64	5.31	-38.5	-39.8	21.1	0.00e+00	0	29	0	49283072	50	6249
2026-01-15 23:21:53.14	132.51	5.60	-38.6	-39.9	21.1	0.00e+00	0	29	0	56623104	50	6322
2026-01-15 23:21:57.17	132.39	5.89	-38.4	-39.6	21.3	0.00e+00	0	29	0	63963136	50	6139
2026-01-15 23:22:01.20	132.25	6.19	-38.2	-39.4	21.6	0.00e+00	0	29	0	71303168	50	5979
2026-01-15 23:22:05.24	132.12	6.48	-38.3	-39.5	21.6	0.00e+00	0	29	0	79691776	50	6079
2026-01-15 23:22:09.28	131.98	6.79	-38.4	-39.6	21.4	0.00e+00	0	29	0	87031808	50	6117
2026-01-15 23:22:13.32	131.84	7.09	-38.3	-39.6	21.5	0.00e+00	0	29	0	94371840	50	6120
2026-01-15 23:22:17.35	131.70	7.40	-37.8	-39.1	22.0	0.00e+00	0	29	0	101711872	50	5801
2026-01-15 23:22:21.39	131.55	7.71	-37.8	-39.0	22.2	0.00e+00	0	29	0	109051904	48	6413
2026-01-15 23:22:25.42	131.40	8.02	-37.9	-39.0	22.1	0.00e+00	0	29	0	117440512	48	6447
2026-01-15 23:22:29.46	131.25	8.34	-38.0	-39.1	22.1	0.00e+00	0	29	0	124780544	48	6497
2026-01-15 23:22:33.50	131.09	8.67	-37.7	-38.7	22.4	0.00e+00	0	29	0	132120576	48	6243
2026-01-15 23:22:37.54	130.93	8.99	-37.6	-38.7	22.5	0.00e+00	0	29	0	139460608	48	6191
2026-01-15 23:22:41.58	130.77	9.33	-37.8	-38.8	22.4	0.00e+00	0	29	0	147849216	48	6298
2026-01-15 23:22:45.61	130.60	9.66	-37.6	-38.6	22.6	0.00e+00	0	29	0	155189248	48	6161
2026-01-15 23:22:49.65	130.42	10.00	-37.7	-38.7	22.5	0.00e+00	0	29	0	162529280	48	6216
2026-01-15 23:22:53.68	130.25	10.34	-37.6	-38.5	22.6	0.00e+00	0	29	0	169869312	48	6102
2026-01-15 23:22:57.72	130.06	10.69	-37.6	-38.6	22.6	0.00e+00	0	29	0	177209344	48	6136
2026-01-15 23:23:01.76	129.88	11.04	-37.6	-38.6	22.7	0.00e+00	0	29	0	185597952	48	6124
2026-01-15 23:23:05.79	129.68	11.40	-37.3	-38.3	23.0	0.00e+00	0	29	0	192937984	48	5940
2026-01-15 23:23:09.83	129.49	11.77	-37.4	-38.5	22.9	0.00e+00	0	29	0	200278016	48	6037
2026-01-15 23:23:13.86	129.29	12.13	-37.4	-38.3	22.9	0.00e+00	0	30	0	207618048	48	5963
2026-01-15 23:23:17.90	129.08	12.51	-37.3	-38.2	23.1	0.00e+00	0	29	0	214958080	48	5872
2026-01-15 23:23:21.93	128.86	12.88	-37.2	-38.2	23.2	0.00e+00	0	30	0	223346688	48	5838
2026-01-15 23:23:25.97	128.65	13.27	-37.2	-38.1	23.3	0.00e+00	0	29	0	230686720	48	5805
2026-01-15 23:23:30.01	128.42	13.66	-37.0	-37.9	23.4	0.00e+00	0	29	0	238026752	48	5685
2026-01-15 23:23:34.04	128.19	14.05	-37.1	-38.0	23.4	0.00e+00	0	30	0	245366784	48	5753
2026-01-15 23:23:38.07	127.95	14.46	-36.9	-37.8	23.6	0.00e+00	0	30	0	253755392	48	5581
2026-01-15 23:23:42.11	127.71	14.86	-36.8	-37.7	23.6	0.00e+00	0	30	0	261095424	48	5559
2026-01-15 23:23:46.14	127.45	15.28	-36.9	-37.8	23.5	0.00e+00	0	30	0	268435456	46	6311
2026-01-15 23:23:50.18	127.19	15.70	-36.7	-37.6	23.8	0.00e+00	0	30	0	275775488	46	6160
2026-01-15 23:23:54.22	126.92	16.13	-36.7	-37.7	23.8	0.00e+00	0	30	0	283115520	46	6191
2026-01-15 23:23:58.25	126.65	16.56	-36.8	-37.8	23.6	0.00e+00	0	30	0	291504128	46	6269
2026-01-15 23:24:02.29	126.36	17.00	-36.7	-37.7	23.8	0.00e+00	0	30	0	298844160	46	6178
2026-01-15 23:24:06.33	126.07	17.45	-36.8	-37.7	23.8	0.00e+00	0	30	0	306184192	46	6225
2026-01-15 23:24:10.36	125.77	17.91	-36.8	-37.7	23.8	0.00e+00	0	30	0	313524224	46	6186
2026-01-15 23:24:14.39	125.46	18.37	-36.8	-37.7	23.8	0.00e+00	0	30	0	321912832	46	6236
2026-01-15 23:24:18.43	125.14	18.84	-37.1	-38.0	23.6	0.00e+00	0	30	0	329252864	46	6431
2026-01-15 23:24:22.47	124.80	19.33	-37.1	-37.9	23.6	0.00e+00	0	30	0	336592896	46	6388
2026-01-15 23:24:26.50	124.46	19.81	-37.3	-38.3	23.3	0.00e+00	0	30	0	343932928	46	6635
2026-01-15 23:24:30.54	124.10	20.31	-37.5	-38.4	23.2	0.00e+00	0	30	0	351272960	46	6747
2026-01-15 23:24:34.58	123.73	20.82	-37.7	-38.7	22.9	0.00e+00	0	30	0	359661568	48	6217
2026-01-15 23:24:38.62	123.35	21.33	-37.8	-38.8	22.9	0.00e+00	0	30	0	367001600	48	6300
2026-01-15 23:24:42.65	122.96	21.86	-37.8	-38.7	23.0	0.00e+00	0	30	0	374341632	48	6218
2026-01-15 23:24:46.69	122.55	22.39	-38.0	-38.9	22.8	0.00e+00	0	30	0	381681664	48	6387
2026-01-15 23:24:50.73	122.13	22.94	-38.1	-39.2	22.7	0.00e+00	0	30	0	390070272	48	6552
2026-01-15 23:24:54.77	121.69	23.49	-38.4	-39.4	22.4	0.00e+00	0	30	0	397410304	48	6748
2026-01-15 23:24:58.80	121.24	24.05	-38.5	-39.6	22.2	0.00e+00	0	30	0	404750336	48	6884
2026-01-15 23:25:02.84	120.76	24.63	-38.5	-39.6	22.2	0.00e+00	0	30	0	412090368	48	6895
2026-01-15 23:25:06.88	120.27	25.21	-38.8	-39.9	22.0	0.00e+00	0	30	0	419430400	50	6355
2026-01-15 23:25:10.91	119.77	25.81	-38.8	-39.9	22.0	0.00e+00	0	30	0	427819008	50	6357
2026-01-15 23:25:14.94	119.24	26.41	-38.9	-40.0	21.9	0.00e+00	0	30	0	435159040	50	6415
2026-01-15 23:25:18.98	118.69	27.03	-38.6	-39.7	22.2	0.00e+00	0	30	0	442499072	50	6174
2026-01-15 23:25:23.01	118.12	27.65	-38.8	-39.9	22.1	0.00e+00	0	30	0	449839104	50	6319
2026-01-15 23:25:27.05	117.52	28.29	-38.6	-39.7	22.2	0.00e+00	0	30	0	457179136	50	6188
2026-01-15 23:25:31.09	116.90	28.95	-38.5	-39.5	22.4	0.00e+00	0	30	0	465567744	50	6093
2026-01-15 23:25:35.13	116.25	29.61	-38.8	-39.8	22.1	0.00e+00	0	30	0	472907776	50	6290
2026-01-15 23:25:39.16	115.58	30.28	-38.9	-40.0	22.0	0.00e+00	0	30	0	480247808	50	6453
2026-01-15 23:25:43.20	114.87	30.96	-38.9	-40.0	22.0	0.00e+00	0	30	0	487587840	50	6407
2026-01-15 23:25:47.24	114.14	31.66	-39.1	-40.2	21.7	0.00e+00	0	30	0	495976448	50	6558
2026-01-15 23:25:51.27	113.37	32.37	-39.5	-40.6	21.4	0.00e+00	0	30	0	503316480	50	6918
2026-01-15 23:25:55.31	112.57	33.08	-39.8	-41.0	21.1	0.00e+00	0	30	0	510656512	52	6434
2026-01-15 23:25:59.34	111.73	33.81	-39.5	-40.7	21.4	0.00e+00	0	30	0	517996544	52	6206
2026-01-15 23:26:03.38	110.85	34.55	-39.9	-41.1	21.1	0.00e+00	0	30	0	525336576	52	6511
2026-01-15 23:26:07.41	109.93	35.29	-39.1	-40.2	21.8	0.00e+00	0	30	0	533725184	52	5844
2026-01-15 23:26:11.45	108.96	36.05	-39.1	-40.2	22.0	0.00e+00	0	30	0	541065216	52	5860
2026-01-15 23:26:15.48	107.95	36.81	-39.0	-40.2	21.8	0.00e+00	0	30	0	548405248	50	6571
2026-01-15 23:26:19.51	106.90	37.58	-38.9	-39.9	22.1	0.00e+00	0	30	0	555745280	50	6362
2026-01-15 23:26:23.55	105.78	38.36	-39.5	-40.6	21.4	0.00e+00	0	30	0	563085312	50	6895
2026-01-15 23:26:27.58	104.62	39.14	-39.5	-40.7	21.3	0.00e+00	0	30	0	571473920	50	6961
2026-01-15 23:26:31.61	103.40	39.93	-39.5	-40.6	21.4	0.00e+00	0	30	0	578813952	50	6911
2026-01-15 23:26:35.65	102.11	40.72	-39.1	-40.2	21.9	0.00e+00	0	30	0	586153984	50	6543
2026-01-15 23:26:39.69	100.76	41.50	-40.2	-41.5	20.7	0.00e+00	0	30	0	593494016	52	6772
2026-01-15 23:26:43.72	99.34	42.29	-40.1	-41.4	20.7	0.00e+00	0	30	0	601882624	54	5997
2026-01-15 23:26:47.76	97.85	43.07	-39.7	-40.9	21.2	0.00e+00	0	30	0	609222656	52	6328
2026-01-15 23:26:51.80	96.29	43.84	-39.8	-41.0	21.1	0.00e+00	0	29	0	616562688	52	6398
2026-01-15 23:26:55.84	94.64	44.61	-40.0	-41.2	20.9	0.00e+00	0	29	0	623902720	52	6570
2026-01-15 23:26:59.88	92.92	45.36	-39.2	-40.2	21.9	0.00e+00	0	29	0	631242752	52	5879
2026-01-15 23:27:03.91	91.12	46.09	-38.4	-39.4	22.5	0.00e+00	0	29	0	639631360	50	6027
2026-01-15 23:27:07.94	89.23	46.81	-38.8	-39.9	22.1	0.00e+00	0	29	0	646971392	50	6337
2026-01-15 23:27:11.97	87.26	47.49	-38.7	-39.8	22.2	0.00e+00	0	29	0	654311424	50	6282
2026-01-15 23:27:16.00	85.20	48.16	-38.6	-39.6	22.3	0.00e+00	0	29	0	661651456	50	6157
2026-01-15 23:27:20.04	83.04	48.79	-39.7	-40.8	21.3	0.00e+00	0	30	0	670040064	50	7067
2026-01-15 23:27:24.07	80.81	49.38	-39.6	-40.8	21.4	0.00e+00	0	29	0	677380096	52	6265
2026-01-15 23:27:28.11	78.48	49.93	-39.6	-40.7	21.3	0.00e+00	0	29	0	684720128	52	6239
2026-01-15 23:27:32.14	76.08	50.43	-40.1	-41.3	20.7	0.00e+00	0	29	0	692060160	52	6666
2026-01-15 23:27:36.18	73.59	50.89	-39.2	-40.3	21.8	0.00e+00	0	29	0	699400192	52	5951
2026-01-15 23:27:40.22	71.03	51.29	-38.0	-39.0	22.9	0.00e+00	0	29	0	707788800	50	5737
2026-01-15 23:27:44.25	68.41	51.63	-36.0	-36.8	24.9	0.00e+00	0	29	0	715128832	46	5628
2026-01-15 23:27:48.29	65.73	51.90	-35.0	-35.8	25.2	0.00e+00	0	29	0	722468864	44	5575
2026-01-15 23:27:52.33	63.01	52.12	-34.9	-35.6	25.9	0.00e+00	0	29	0	729808896	42	6171
2026-01-15 23:27:56.37	60.25	52.26	-34.8	-35.5	25.9	0.00e+00	0	29	0	738197504	42	6093
2026-01-15 23:28:00.41	57.48	52.34	-35.1	-35.8	25.6	0.00e+00	0	29	0	745537536	42	6302
2026-01-15 23:28:04.44	54.70	52.35	-35.5	-36.3	25.2	0.00e+00	0	29	0	752877568	42	6661
2026-01-15 23:28:08.48	51.92	52.29	-35.6	-36.3	25.2	0.00e+00	0	29	0	760217600	42	6677
2026-01-15 23:28:12.52	49.16	52.15	-35.5	-36.3	25.1	0.00e+00	0	29	0	767557632	44	5922
2026-01-15 23:28:16.55	46.44	51.95	-35.1	-35.8	25.6	0.00e+00	0	29	0	775946240	44	5618
2026-01-15 23:28:20.59	43.75	51.69	-35.3	-36.1	25.5	0.00e+00	0	29	0	783286272	44	5776
2026-01-15 23:28:24.62	41.12	51.36	-35.7	-36.4	25.2	0.00e+00	0	29	0	790626304	44	6026
2026-01-15 23:28:28.66	38.55	50.98	-37.0	-37.9	23.9	0.00e+00	0	29	0	797966336	46	6350
2026-01-15 23:28:32.69	36.06	50.53	-37.8	-38.7	23.1	0.00e+00	0	29	0	805306368	48	6228
2026-01-15 23:28:36.73	33.64	50.04	-39.4	-40.5	21.6	0.00e+00	0	29	0	813694976	50	6829
2026-01-15 23:28:40.76	31.30	49.50	-39.8	-41.0	21.0	0.00e+00	0	29	0	821035008	52	6435
2026-01-15 23:28:44.80	29.04	48.92	-39.6	-40.8	21.2	0.00e+00	0	29	0	828375040	52	6291
2026-01-15 23:28:48.83	26.88	48.30	-38.9	-40.0	22.0	0.00e+00	0	29	0	835715072	50	6455
2026-01-15 23:28:52.87	24.80	47.65	-39.1	-40.3	21.9	0.00e+00	0	29	0	844103680	50	6619
2026-01-15 23:28:56.91	22.80	46.96	-40.1	-41.4	20.7	0.00e+00	0	29	0	851443712	52	6726
2026-01-15 23:29:00.95	20.90	46.25	-40.3	-41.7	20.4	0.00e+00	0	29	0	858783744	54	6178
2026-01-15 23:29:04.98	19.08	45.53	-40.4	-41.7	20.4	0.00e+00	0	29	0	866123776	54	6180
2026-01-15 23:29:09.02	17.35	44.78	-40.1	-41.4	20.8	0.00e+00	0	29	0	873463808	54	5979
2026-01-15 23:29:13.06	15.69	44.02	-39.1	-40.1	21.9	0.00e+00	0	29	0	881852416	52	5827
2026-01-15 23:29:17.09	14.12	43.25	-39.1	-40.2	21.8	0.00e+00	0	29	0	889192448	50	6565
2026-01-15 23:29:21.13	12.62	42.48	-38.7	-39.7	22.2	0.00e+00	0	29	0	896532480	50	6238
2026-01-15 23:29:25.16	11.19	41.69	-40.3	-41.6	20.6	0.00e+00	0	29	0	903872512	52	6855
2026-01-15 23:29:29.20	9.83	40.91	-40.1	-41.4	20.8	0.00e+00	0	29	0	912261120	52	6716
2026-01-15 23:29:33.23	8.53	40.13	-40.6	-42.0	20.1	0.00e+00	0	29	0	919601152	52	7219
2026-01-15 23:29:37.27	7.30	39.34	-41.6	-43.2	18.9	0.00e+00	0	29	0	926941184	54	7412
2026-01-15 23:29:41.30	6.12	38.56	-40.1	-41.4	20.8	0.00e+00	0	29	0	934281216	54	5974
2026-01-15 23:29:45.35	5.00	37.78	-40.2	-41.5	20.5	0.00e+00	0	29	0	941621248	52	6798
2026-01-15 23:29:49.38	3.94	37.02	-39.8	-41.2	20.9	0.00e+00	0	29	0	950009856	52	6540
2026-01-15 23:29:53.42	2.92	36.25	-39.2	-40.3	21.7	0.00e+00	0	29	0	957349888	52	5937
2026-01-15 23:29:57.46	1.94	35.50	-39.5	-40.7	21.2	0.00e+00	0	29	0	964689920	52	6239
2026-01-15 23:30:01.49	1.02	34.75	-39.5	-40.9	21.2	0.00e+00	0	29	0	972029952	52	6343
2026-01-15 23:30:05.53	0.13	34.02	-40.2	-41.5	20.7	0.00e+00	0	29	0	979369984	52	6797
2026-01-15 23:30:09.56	359.29	33.29	-40.0	-41.3	20.8	0.00e+00	0	29	0	987758592	52	6684
2026-01-15 23:30:13.59	358.48	32.57	-40.1	-41.5	20.6	0.00e+00	0	29	0	995098624	52	6825
2026-01-15 23:30:17.63	357.71	31.87	-39.2	-40.4	21.6	0.00e+00	0	29	0	1002438656	52	5991
2026-01-15 23:30:21.67	356.97	31.17	-39.4	-40.6	21.4	0.00e+00	0	29	0	1009778688	52	6127
2026-01-15 23:30:25.71	356.26	30.49	-39.5	-40.7	21.3	0.00e+00	0	29	0	1018167296	52	6238
2026-01-15 23:30:29.74	355.58	29.81	-39.2	-40.4	21.6	0.00e+00	0	29	0	1025507328	52	5973
2026-01-15 23:30:33.77	354.94	29.15	-38.9	-40.0	22.0	0.00e+00	0	29	0	1032847360	52	5703
2026-01-15 23:30:37.81	354.31	28.50	-38.3	-39.3	22.6	0.00e+00	0	29	0	1040187392	50	5963
2026-01-15 23:30:41.85	353.71	27.86	-38.1	-39.2	22.7	0.00e+00	0	29	0	1047527424	50	5841
2026-01-15 23:30:45.88	353.14	27.24	-38.1	-39.2	22.7	0.00e+00	0	29	0	1055916032	50	5851
2026-01-15 23:30:49.92	352.59	26.62	-38.0	-39.0	22.8	0.00e+00	0	29	0	1063256064	50	5741
2026-01-15 23:30:53.95	352.06	26.01	-38.3	-39.3	22.5	0.00e+00	0	29	0	1070596096	50	5932
2026-01-15 23:30:57.99	351.54	25.42	-38.2	-39.3	22.6	0.00e+00	0	29	0	1077936128	50	5910
2026-01-15 23:31:02.00	351.06	24.84	-38.1	-39.2	22.7	0.00e+00	0	28	0	1085276160	50	5834
2026-01-15 23:31:06.04	350.58	24.26	-37.4	-38.3	23.3	0.00e+00	0	29	0	1093664768	48	5956
2026-01-15 23:31:10.07	350.13	23.70	-37.3	-38.2	23.5	0.00e+00	0	29	0	1101004800	48	5845
2026-01-15 23:31:14.11	349.69	23.15	-37.5	-38.4	23.3	0.00e+00	0	29	0	1108344832	48	5993
2026-01-15 23:31:18.15	349.26	22.60	-37.5	-38.4	23.2	0.00e+00	0	29	0	1115684864	48	6021
2026-01-15 23:31:22.18	348.85	22.07	-37.7	-38.7	23.1	0.00e+00	0	29	0	1123024896	48	6195
2026-01-15 23:31:26.21	348.46	21.54	-37.9	-38.9	22.9	0.00e+00	0	28	0	1131413504	48	6323
2026-01-15 23:31:30.25	348.08	21.03	-38.0	-39.0	22.7	0.00e+00	0	29	0	1138753536	48	6454
2026-01-15 23:31:34.29	347.71	20.52	-38.2	-39.2	22.5	0.00e+00	0	28	0	1146093568	48	6577
2026-01-15 23:31:38.32	347.36	20.02	-37.9	-38.8	22.9	0.00e+00	0	29	0	1153433600	48	6305
2026-01-15 23:31:42.36	347.01	19.53	-37.6	-38.5	23.1	0.00e+00	0	28	0	1161822208	48	6096
2026-01-15 23:31:46.39	346.68	19.05	-37.5	-38.4	23.2	0.00e+00	0	29	0	1169162240	48	6011
2026-01-15 23:31:50.43	346.36	18.58	-37.5	-38.5	23.1	0.00e+00	0	29	0	1176502272	48	6059
2026-01-15 23:31:54.47	346.04	18.12	-37.6	-38.6	23.1	0.00e+00	0	29	0	1183842304	48	6109
2026-01-15 23:31:58.50	345.74	17.66	-37.8	-38.8	22.8	0.00e+00	0	28	0	1191182336	48	6302
2026-01-15 23:32:02.54	345.45	17.21	-38.0	-39.0	22.6	0.00e+00	0	28	0	1199570944	48	6430
2026-01-15 23:32:06.57	345.17	16.77	-38.2	-39.3	22.3	0.00e+00	0	28	0	1206910976	48	6647
2026-01-15 23:32:10.61	344.89	16.33	-38.3	-39.4	22.2	0.00e+00	0	28	0	1214251008	48	6720
2026-01-15 23:32:14.65	344.62	15.91	-38.2	-39.2	22.2	0.00e+00	0	28	0	1221591040	48	6573
2026-01-15 23:32:18.68	344.36	15.49	-38.0	-39.1	22.5	0.00e+00	0	28	0	1229979648	48	6477
2026-01-15 23:32:22.72	344.11	15.07	-38.1	-39.2	22.4	0.00e+00	0	28	0	1237319680	48	6575
2026-01-15 23:32:26.75	343.87	14.66	-38.2	-39.3	22.3	0.00e+00	0	28	0	1244659712	48	6630
2026-01-15 23:32:30.79	343.63	14.26	-38.2	-39.3	22.2	0.00e+00	0	28	0	1251999744	48	6668
2026-01-15 23:32:34.82	343.40	13.87	-38.5	-39.6	21.9	0.00e+00	0	28	0	1259339776	48	6892
2026-01-15 23:32:38.86	343.18	13.47	-38.8	-40.0	21.6	0.00e+00	0	28	0	1267728384	50	6410
2026-01-15 23:32:42.89	342.96	13.09	-39.0	-40.2	21.4	0.00e+00	0	28	0	1275068416	50	6595
2026-01-15 23:32:46.93	342.75	12.71	-39.0	-40.2	21.3	0.00e+00	0	28	0	1282408448	50	6552
2026-01-15 23:32:50.97	342.54	12.34	-38.9	-40.1	21.4	0.00e+00	0	28	0	1289748480	50	6494
2026-01-15 23:32:55.00	342.34	11.97	-38.7	-39.9	21.6	0.00e+00	0	28	0	1298137088	50	6341
2026-01-15 23:32:59.03	342.14	11.61	-38.8	-40.0	21.5	0.00e+00	0	28	0	1305477120	50	6402
2026-01-15 23:33:03.05	341.95	11.25	-39.1	-40.2	21.2	0.00e+00	0	28	0	1312817152	50	6603
2026-01-15 23:33:07.08	341.77	10.90	-39.1	-40.4	21.1	0.00e+00	0	28	0	1320157184	50	6696
2026-01-15 23:33:11.12	341.59	10.55	-39.3	-40.6	20.9	0.00e+00	0	28	0	1327497216	50	6856
2026-01-15 23:33:15.15	341.41	10.21	-39.5	-40.8	20.7	0.00e+00	0	28	0	1335885824	50	7020
2026-01-15 23:33:19.19	341.24	9.87	-39.8	-41.1	20.3	0.00e+00	0	28	0	1343225856	52	6512
2026-01-15 23:33:23.22	341.07	9.53	-40.0	-41.4	19.9	0.00e+00	0	28	0	1350565888	52	6741
2026-01-15 23:33:27.26	340.91	9.20	-40.1	-41.5	19.8	0.00e+00	0	28	0	1357905920	52	6842
2026-01-15 23:33:31.29	340.75	8.87	-40.2	-41.6	19.6	0.00e+00	0	28	0	1365245952	52	6910
2026-01-15 23:33:35.33	340.60	8.55	-40.1	-41.6	19.7	0.00e+00	0	28	0	1373634560	52	6859
2026-01-15 23:33:39.36	340.45	8.23	-40.3	-41.8	19.5	0.00e+00	0	28	0	1380974592	52	7063
2026-01-15 23:33:43.40	340.30	7.92	-40.3	-41.8	19.5	0.00e+00	0	28	0	1388314624	52	7070
2026-01-15 23:33:47.43	340.15	7.60	-40.4	-42.0	19.3	0.00e+00	0	28	0	1395654656	52	7189
2026-01-15 23:33:51.47	340.01	7.30	-40.6	-42.3	18.9	0.00e+00	0	28	0	1402994688	52	7427
2026-01-15 23:33:55.51	339.87	6.99	-40.7	-42.4	18.7	0.00e+00	0	28	0	1411383296	54	6743
2026-01-15 23:33:59.54	339.74	6.69	-40.8	-42.5	18.6	0.00e+00	0	28	0	1418723328	54	6815
2026-01-15 23:34:03.58	339.61	6.39	-40.7	-42.4	18.7	0.00e+00	0	28	0	1426063360	54	6704
2026-01-15 23:34:07.61	339.48	6.10	-40.6	-42.4	18.5	7.00e-07	0	28	0	1433403392	54	6711
2026-01-15 23:34:11.65	339.35	5.81	-40.8	-42.7	18.0	0.00e+00	0	28	0	1440743424	54	7007
2026-01-15 23:34:15.69	339.23	5.52	-41.1	-43.3	17.2	0.00e+00	0	28	0	1449132032	54	7482
2026-01-15 23:34:19.72	339.11	5.23	-41.5	-44.1	15.8	0.00e+00	0	28	0	1456472064	54	8170
2026-01-15 23:34:23.75	338.99	4.95	-42.2	-46.0	13.3	1.29e-05	0	28	0	1463812096	56	9060
2026-01-15 23:34:27.79	338.88	4.67	-42.7	-48.1	10.2	4.25e-03	0	28	0	1471152128	58	10338
2026-01-15 23:34:31.82	338.77	4.39	-43.0	-50.9	6.2	1.73e-01	0	28	0	1479540736	58	14173
2026-01-15 23:34:35.86	338.66	4.12	-43.1	-53.0	4.2	8.49e-01	0	28	0	1486880768	58	18031
2026-01-15 23:34:39.89	338.55	3.85	-42.9	-56.9	3.6	1.51e+00	0	28	104	1487929344	58	28265
2026-01-15 23:34:43.94	338.44	3.58	-43.0	-58.3	3.6	1.51e+00	0	28	104	1487929344	58	33308
2026-01-15 23:34:47.97	338.34	3.31	-43.0	-58.2	3.6	1.51e+00	0	28	104	1487929344	58	32931
2026-01-15 23:34:52.00	338.24	3.05	-42.9	-58.2	3.6	1.51e+00	0	28	104	1487929344	58	33148
2026-01-15 23:34:56.04	338.14	2.79	-48.0	-63.2	3.6	1.51e+00	0	28	104	1487929344	60	52216
2026-01-15 23:35:00.08	338.04	2.53	-48.4	-63.6	3.6	1.51e+00	0	28	104	1487929344	60	54457
2026-01-15 23:35:04.12	337.95	2.27	-47.9	-63.4	3.6	1.51e+00	0	28	104	1487929344	60	53286
2026-01-15 23:35:08.16	337.86	2.01	-48.2	-63.4	3.6	1.51e+00	0	28	104	1487929344	60	53209
2026-01-15 23:35:12.20	337.77	1.76	-48.1	-63.3	3.6	1.51e+00	0	28	104	1487929344	60	52969
2026-01-15 23:35:16.23	337.68	1.51	-48.2	-63.4	3.6	1.51e+00	0	28	104	1487929344	60	53382
2026-01-15 23:35:20.27	337.59	1.26	-48.3	-63.4	3.6	1.51e+00	0	28	104	1487929344	60	53461
2026-01-15 23:35:24.31	337.50	1.01	-48.1	-63.4	3.6	1.51e+00	0	28	104	1487929344	60	53185
2026-01-15 23:35:28.34	337.42	0.77	-48.1	-63.3	3.6	1.51e+00	0	28	104	1487929344	60	52882
2026-01-15 23:35:32.38	337.34	0.53	-48.2	-63.4	3.6	1.51e+00	0	28	104	1487929344	60	53610
2026-01-15 23:35:36.42	337.26	0.29	-48.2	-63.5	3.6	1.51e+00	0	28	104	1487929344	60	53877
2026-01-15 23:35:40.46	337.18	0.05	-48.1	-63.3	3.6	1.51e+00	0	28	104	1487929344	60	53122

#Closed at: 2026-01-15 23:35:42
#Recorded file [1487 MB]: D:/lorett/data/35029_260116_112028.dat