passes_logs/2026/01/15/R4.6S_Anadyr/R4.6S_Anadyr__20260115_085330_TY-42_rec.log

#Pass ID: 20260115_085330_TY-42
#Satellite: TY-42
#Configuration: TY-42_900M
#almurnet v.1.7.20251203
#Start time: 2026-01-15 08:54:01

#Version: 2.2.20231116
#Station: R4.6S_Anadyr
#Location: 177.4865 lon 64.73178 lat
#TLE: 1 64048U 25103A   26014.69425926  .00008005  00000-0  38191-3 0 09997
#TLE: 2 64048 097.4117 090.1174 0001564 091.0855 218.1626 15.19145944 36760

#Time	Az	El	Level	Level2	SNR	BER	BlckErr	Temp	State	Recorded	gain1	gain2
2026-01-15 08:54:01.64	144.44	2.11	-48.7	-60.2	3.5	8.44e-01	0	27	0	0	60	37169
2026-01-15 08:54:04.66	144.37	2.32	-46.7	-49.3	6.1	0.00e+00	0	28	104	0	60	35610
2026-01-15 08:54:07.69	144.29	2.53	-46.7	-49.3	6.1	0.00e+00	0	28	104	0	60	35663
2026-01-15 08:54:10.72	144.21	2.75	-46.7	-49.3	6.1	0.00e+00	0	29	104	0	60	35709
2026-01-15 08:54:13.75	144.12	2.97	-46.7	-49.2	6.1	0.00e+00	0	29	104	0	60	35482
2026-01-15 08:54:16.77	144.04	3.19	-46.7	-49.3	6.1	0.00e+00	0	29	104	0	60	35691
2026-01-15 08:54:19.80	143.95	3.41	-46.7	-49.3	6.1	0.00e+00	0	29	104	0	60	35554
2026-01-15 08:54:22.83	143.87	3.64	-46.7	-49.2	6.1	0.00e+00	0	29	104	0	60	35503
2026-01-15 08:54:25.86	143.78	3.86	-46.7	-49.3	6.1	0.00e+00	0	29	104	0	60	35718
2026-01-15 08:54:28.89	143.68	4.09	-46.8	-49.3	6.1	0.00e+00	0	29	104	0	60	35806
2026-01-15 08:54:31.91	143.59	4.33	-46.6	-49.2	6.1	0.00e+00	0	29	104	0	60	35154
2026-01-15 08:54:34.94	143.50	4.56	-46.9	-49.5	6.1	0.00e+00	0	29	104	0	60	36436
2026-01-15 08:54:37.96	143.40	4.80	-46.6	-49.2	6.1	0.00e+00	0	29	104	0	60	35451
2026-01-15 08:54:40.99	143.30	5.04	-46.7	-49.2	6.1	0.00e+00	0	29	104	0	60	35515
2026-01-15 08:54:44.02	143.19	5.28	-46.5	-49.1	6.1	0.00e+00	0	29	104	0	60	34781
2026-01-15 08:54:47.05	143.09	5.53	-33.5	-33.8	11.0	0.00e+00	0	29	104	0	40	19063
2026-01-15 08:54:50.07	142.98	5.78	-45.2	-47.1	6.2	0.00e+00	0	30	104	0	60	27739
2026-01-15 08:54:53.10	142.87	6.03	-32.9	-33.4	13.1	0.00e+00	0	30	0	109051904	42	16132
2026-01-15 08:54:56.13	142.76	6.29	-32.3	-32.8	13.3	5.78e-02	0	30	0	452984832	40	16891
2026-01-15 08:54:59.16	142.64	6.55	-31.7	-32.2	13.8	5.24e-02	0	30	0	788529152	38	17746
2026-01-15 08:55:02.19	142.53	6.81	-31.7	-32.2	13.7	3.64e-02	0	30	0	1132462080	38	17663
2026-01-15 08:55:05.21	142.40	7.08	-31.5	-32.0	13.9	3.10e-02	0	30	0	1468006400	38	17336
2026-01-15 08:55:08.24	142.28	7.35	-31.4	-31.9	13.9	3.47e-02	0	30	0	1811939328	38	17069
2026-01-15 08:55:11.27	142.15	7.62	-31.3	-31.8	14.2	2.94e-02	0	30	0	2155872256	38	16827
2026-01-15 08:55:14.30	142.02	7.90	-30.7	-31.2	14.4	2.10e-02	0	30	0	2491416576	36	17778
2026-01-15 08:55:17.32	141.89	8.18	-30.5	-31.0	14.6	1.63e-02	0	30	0	2835349504	36	17306
2026-01-15 08:55:20.34	141.75	8.46	-30.2	-30.7	14.7	1.26e-02	0	31	0	3170893824	36	16779
2026-01-15 08:55:23.37	141.61	8.75	-30.1	-30.6	14.7	1.19e-02	0	30	0	3514826752	36	16506
2026-01-15 08:55:26.40	141.47	9.05	-30.0	-30.5	14.6	1.22e-02	0	31	0	3850371072	36	16344
2026-01-15 08:55:29.42	141.32	9.35	-29.9	-30.4	14.8	1.28e-02	0	31	0	4194304000	36	16225
2026-01-15 08:55:32.45	141.16	9.65	-29.9	-30.4	14.9	1.08e-02	0	31	0	4538236928	36	16138
2026-01-15 08:55:35.48	141.01	9.96	-29.6	-30.1	15.0	9.62e-03	0	31	0	4873781248	34	17535
2026-01-15 08:55:38.50	140.85	10.27	-29.3	-29.8	15.1	7.79e-03	0	31	0	5217714176	34	16907
2026-01-15 08:55:41.53	140.68	10.59	-29.1	-29.6	14.9	6.47e-03	0	31	0	5553258496	34	16538
2026-01-15 08:55:44.56	140.51	10.91	-28.7	-29.2	15.2	6.75e-03	0	31	0	5897191424	32	17702
2026-01-15 08:55:47.60	140.33	11.24	-28.0	-28.5	15.4	4.60e-03	0	31	0	6241124352	32	16290
2026-01-15 08:55:50.63	140.15	11.58	-27.8	-28.3	15.6	2.69e-03	0	31	0	6576668672	30	17865
2026-01-15 08:55:53.65	139.97	11.91	-27.1	-27.7	16.0	1.02e-03	0	31	0	6920601600	30	16644
2026-01-15 08:55:56.67	139.78	12.26	-26.4	-26.9	16.2	6.37e-04	0	31	0	7264534528	28	17087
2026-01-15 08:55:59.69	139.58	12.61	-25.7	-26.3	16.5	2.62e-04	0	31	0	7600078848	26	17831
2026-01-15 08:56:02.72	139.38	12.97	-25.0	-25.6	16.7	5.99e-05	0	31	0	7944011776	26	16473
2026-01-15 08:56:05.75	139.17	13.34	-24.9	-25.5	16.6	6.53e-05	0	31	0	8287944704	26	16241
2026-01-15 08:56:08.78	138.95	13.71	-24.4	-25.0	16.7	3.81e-05	0	31	0	8623489024	24	17254
2026-01-15 08:56:11.81	138.73	14.09	-24.3	-24.8	16.8	1.08e-05	0	31	0	8967421952	24	16922
2026-01-15 08:56:14.84	138.50	14.48	-23.9	-24.5	16.9	0.00e+00	0	31	0	9302966272	24	16312
2026-01-15 08:56:17.86	138.26	14.87	-23.7	-24.2	16.9	1.08e-05	0	31	0	9646899200	22	17789
2026-01-15 08:56:20.89	138.01	15.27	-23.5	-24.0	16.8	0.00e+00	0	31	0	9982443520	22	17387
2026-01-15 08:56:23.92	137.76	15.69	-23.3	-23.8	16.7	2.17e-05	0	31	0	10326376448	22	16963
2026-01-15 08:56:26.95	137.50	16.11	-23.2	-23.7	16.8	2.17e-05	0	31	0	10670309376	22	16683
2026-01-15 08:56:29.98	137.22	16.53	-23.1	-23.6	16.9	1.08e-05	0	31	0	11005853696	22	16543
2026-01-15 08:56:33.00	136.94	16.97	-22.9	-23.4	16.9	1.63e-05	0	31	0	11349786624	22	16228
2026-01-15 08:56:36.03	136.65	17.42	-22.6	-23.2	16.9	0.00e+00	0	31	0	11685330944	20	17652
2026-01-15 08:56:39.06	136.35	17.88	-22.5	-23.1	17.1	0.00e+00	0	31	0	12029263872	20	17423
2026-01-15 08:56:42.08	136.04	18.34	-22.3	-22.8	17.3	0.00e+00	0	31	0	12364808192	20	16983
2026-01-15 08:56:45.11	135.71	18.82	-22.2	-22.7	17.3	0.00e+00	0	31	0	12708741120	20	16799
2026-01-15 08:56:48.14	135.37	19.31	-21.8	-22.4	17.3	0.00e+00	0	31	0	13052674048	20	16080
2026-01-15 08:56:51.17	135.02	19.81	-21.5	-22.1	17.2	0.00e+00	0	32	0	13388218368	18	17422
2026-01-15 08:56:54.19	134.66	20.32	-21.2	-21.8	17.3	0.00e+00	0	32	0	13732151296	18	16823
2026-01-15 08:56:57.22	134.28	20.85	-20.9	-21.4	17.3	0.00e+00	0	32	0	14076084224	18	16232
2026-01-15 08:57:00.25	133.89	21.38	-20.8	-21.3	17.4	0.00e+00	0	31	0	14411628544	16	17943
2026-01-15 08:57:03.27	133.48	21.93	-20.5	-21.0	17.4	0.00e+00	0	31	0	14755561472	16	17393
2026-01-15 08:57:06.30	133.05	22.50	-20.6	-21.1	17.5	0.00e+00	0	32	0	15091105792	16	17513
2026-01-15 08:57:09.33	132.60	23.08	-20.5	-21.1	17.6	0.00e+00	0	32	0	15435038720	16	17428
2026-01-15 08:57:12.36	132.14	23.67	-20.3	-20.9	17.5	0.00e+00	0	32	0	15778971648	16	17042
2026-01-15 08:57:15.39	131.65	24.28	-19.9	-20.5	17.4	0.00e+00	0	32	0	16114515968	16	16315
2026-01-15 08:57:18.42	131.14	24.90	-19.8	-20.4	17.4	0.00e+00	0	32	0	16458448896	14	18067
2026-01-15 08:57:21.45	130.61	25.54	-19.4	-19.9	17.6	0.00e+00	0	32	0	16793993216	14	17172
2026-01-15 08:57:24.48	130.05	26.19	-19.1	-19.6	17.6	0.00e+00	0	32	0	17137926144	14	16513
2026-01-15 08:57:27.51	129.47	26.87	-18.6	-19.2	17.6	0.00e+00	0	32	0	17481859072	12	17633
2026-01-15 08:57:30.54	128.85	27.56	-18.6	-19.1	17.6	0.00e+00	0	32	0	17817403392	12	17583
2026-01-15 08:57:33.57	128.21	28.26	-18.0	-18.5	17.6	0.00e+00	0	32	0	18161336320	12	16396
2026-01-15 08:57:36.60	127.54	28.99	-17.9	-18.4	17.7	0.00e+00	0	31	0	18496880640	12	16065
2026-01-15 08:57:39.63	126.83	29.73	-17.5	-18.0	17.6	0.00e+00	0	32	0	18840813568	10	17323
2026-01-15 08:57:42.65	126.08	30.49	-17.2	-17.7	17.6	0.00e+00	0	32	0	19184746496	10	16630
2026-01-15 08:57:45.68	125.30	31.27	-16.9	-17.4	17.7	0.00e+00	0	32	0	19520290816	10	16081
2026-01-15 08:57:48.71	124.47	32.07	-48.7	-51.2	6.1	0.00e+00	0	32	104	19822280704	60	44483
2026-01-15 08:57:51.74	123.59	32.89	-48.8	-51.3	6.1	0.00e+00	0	31	104	19822280704	60	44888
2026-01-15 08:57:54.77	122.67	33.73	-48.8	-51.3	6.1	0.00e+00	0	31	104	19822280704	60	45027
2026-01-15 08:57:57.80	121.69	34.58	-48.7	-51.2	6.1	0.00e+00	0	31	104	19822280704	60	44545
2026-01-15 08:58:00.83	120.65	35.46	-48.8	-51.3	6.1	0.00e+00	0	31	104	19822280704	60	44978
2026-01-15 08:58:03.86	119.56	36.35	-48.8	-51.3	6.1	0.00e+00	0	31	104	19822280704	60	44793
2026-01-15 08:58:06.89	118.39	37.26	-48.8	-51.3	6.1	0.00e+00	0	31	104	19822280704	60	44899
2026-01-15 08:58:09.92	117.16	38.18	-48.7	-51.2	6.1	0.00e+00	0	31	104	19822280704	60	44625
2026-01-15 08:58:12.95	115.85	39.12	-48.7	-51.2	6.1	0.00e+00	0	31	104	19822280704	60	44285
2026-01-15 08:58:15.98	114.46	40.07	-48.8	-51.3	6.1	0.00e+00	0	31	104	19822280704	60	44734
2026-01-15 08:58:19.00	112.98	41.02	-48.6	-51.1	6.1	0.00e+00	0	31	104	19822280704	60	43953
2026-01-15 08:58:22.03	111.40	41.99	-48.6	-51.1	6.1	0.00e+00	0	31	104	19822280704	60	44044
2026-01-15 08:58:25.06	109.72	42.96	-48.8	-51.2	6.1	0.00e+00	0	31	104	19822280704	60	44635
2026-01-15 08:58:28.09	107.94	43.93	-48.8	-51.3	6.1	0.00e+00	0	31	104	19822280704	60	45012
2026-01-15 08:58:31.12	106.03	44.89	-48.7	-51.2	6.1	0.00e+00	0	31	104	19822280704	60	44614
2026-01-15 08:58:34.15	104.00	45.84	-48.6	-51.2	6.1	0.00e+00	0	32	104	19822280704	60	44256
2026-01-15 08:58:37.17	101.86	46.77	-48.7	-51.2	6.1	0.00e+00	0	31	104	19822280704	60	44683
2026-01-15 08:58:40.19	99.57	47.68	-48.8	-51.3	6.1	0.00e+00	0	31	104	19822280704	60	44902
2026-01-15 08:58:43.21	97.15	48.56	-48.7	-51.2	6.1	0.00e+00	0	31	104	19822280704	60	44458
2026-01-15 08:58:46.24	94.57	49.40	-48.8	-51.3	6.1	0.00e+00	0	31	104	19822280704	60	44863
2026-01-15 08:58:49.27	91.85	50.20	-48.7	-51.2	6.1	0.00e+00	0	31	104	19822280704	60	44708
2026-01-15 08:58:52.30	88.99	50.93	-48.8	-51.3	6.1	0.00e+00	0	32	104	19822280704	60	44740
2026-01-15 08:58:55.33	85.98	51.61	-48.8	-51.3	6.1	0.00e+00	0	32	104	19822280704	60	44854
2026-01-15 08:58:58.36	82.84	52.20	-48.7	-51.3	6.1	0.00e+00	0	32	104	19822280704	60	44824
2026-01-15 08:59:01.38	79.59	52.72	-48.8	-51.3	6.1	0.00e+00	0	32	104	19822280704	60	44817
2026-01-15 08:59:04.41	76.22	53.14	-48.8	-51.3	6.1	0.00e+00	0	31	104	19822280704	60	44769
2026-01-15 08:59:07.44	72.76	53.46	-48.7	-51.1	6.1	0.00e+00	0	31	104	19822280704	60	44201
2026-01-15 08:59:10.47	69.24	53.68	-48.8	-51.3	6.1	0.00e+00	0	31	104	19822280704	60	45182
2026-01-15 08:59:13.49	65.68	53.79	-48.7	-51.2	6.0	0.00e+00	0	31	104	19822280704	60	44663
2026-01-15 08:59:16.52	62.10	53.79	-48.7	-51.2	6.1	0.00e+00	0	31	104	19822280704	60	44599
2026-01-15 08:59:19.54	58.55	53.67	-48.8	-51.3	6.1	0.00e+00	0	31	104	19822280704	60	45091
2026-01-15 08:59:22.57	55.03	53.45	-48.7	-51.2	6.1	0.00e+00	0	32	104	19822280704	60	44583
2026-01-15 08:59:25.60	51.58	53.13	-48.8	-51.2	6.1	0.00e+00	0	32	104	19822280704	60	44657
2026-01-15 08:59:28.63	48.21	52.70	-48.8	-51.3	6.1	0.00e+00	0	32	104	19822280704	60	44960
2026-01-15 08:59:31.65	44.97	52.19	-48.7	-51.2	6.1	0.00e+00	0	32	104	19822280704	60	44511
2026-01-15 08:59:34.68	41.83	51.59	-48.7	-51.2	6.1	0.00e+00	0	31	104	19822280704	60	44337
2026-01-15 08:59:37.71	38.83	50.92	-48.7	-51.2	6.1	0.00e+00	0	31	104	19822280704	60	44546
2026-01-15 08:59:40.74	35.98	50.18	-48.8	-51.3	6.1	0.00e+00	0	31	104	19822280704	60	44867
2026-01-15 08:59:43.76	33.28	49.39	-48.8	-51.3	6.1	0.00e+00	0	31	104	19822280704	60	44944
2026-01-15 08:59:46.79	30.71	48.55	-48.8	-51.3	6.1	0.00e+00	0	31	104	19822280704	60	45044
2026-01-15 08:59:49.82	28.29	47.67	-48.8	-51.3	6.1	0.00e+00	0	31	104	19822280704	60	44876
2026-01-15 08:59:52.84	26.01	46.76	-48.7	-51.3	6.1	0.00e+00	0	31	104	19822280704	60	44843
2026-01-15 08:59:55.87	23.86	45.83	-48.8	-51.2	6.1	0.00e+00	0	31	104	19822280704	60	44722
2026-01-15 08:59:58.90	21.84	44.88	-48.8	-51.3	6.1	0.00e+00	0	31	104	19822280704	60	44869
2026-01-15 09:00:01.92	19.95	43.92	-48.8	-51.3	6.1	0.00e+00	0	31	104	19822280704	60	44902
2026-01-15 09:00:04.95	18.17	42.96	-48.8	-51.3	6.1	0.00e+00	0	31	104	19822280704	60	45158
2026-01-15 09:00:07.98	16.50	42.00	-48.6	-51.2	6.1	0.00e+00	0	31	104	19822280704	60	44263
2026-01-15 09:00:11.01	14.93	41.03	-48.8	-51.2	6.1	0.00e+00	0	31	104	19822280704	60	44532
2026-01-15 09:00:14.03	13.46	40.08	-48.5	-51.0	6.1	0.00e+00	0	31	104	19822280704	60	43629
2026-01-15 09:00:17.06	12.07	39.14	-48.4	-50.9	6.1	0.00e+00	0	31	104	19822280704	60	43105
2026-01-15 09:00:20.09	10.76	38.20	-48.8	-51.3	6.1	0.00e+00	0	31	104	19822280704	60	44895
2026-01-15 09:00:23.11	9.54	37.29	-48.6	-51.1	6.1	0.00e+00	0	31	104	19822280704	60	43971
2026-01-15 09:00:26.13	8.38	36.39	-48.7	-51.2	6.1	0.00e+00	0	31	104	19822280704	60	44521
2026-01-15 09:00:29.16	7.29	35.50	-48.6	-51.1	6.1	0.00e+00	0	31	104	19822280704	60	43898
2026-01-15 09:00:32.18	6.26	34.63	-48.7	-51.2	6.1	0.00e+00	0	32	104	19822280704	60	44414
2026-01-15 09:00:35.21	5.29	33.78	-48.7	-51.2	6.1	0.00e+00	0	31	104	19822280704	60	44288
2026-01-15 09:00:38.23	4.37	32.95	-48.5	-51.1	6.1	0.00e+00	0	31	104	19822280704	60	43709
2026-01-15 09:00:41.26	3.50	32.13	-48.6	-51.1	6.1	0.00e+00	0	31	104	19822280704	60	43897
2026-01-15 09:00:44.29	2.67	31.34	-48.6	-51.1	6.1	0.00e+00	0	32	104	19822280704	60	43870
2026-01-15 09:00:47.32	1.89	30.56	-48.5	-51.0	6.1	0.00e+00	0	31	104	19822280704	60	43507
2026-01-15 09:00:50.35	1.14	29.80	-48.4	-51.0	6.1	0.00e+00	0	31	104	19822280704	60	43256
2026-01-15 09:00:53.38	0.43	29.06	-48.6	-51.1	6.1	0.00e+00	0	32	104	19822280704	60	43781
2026-01-15 09:00:56.41	359.76	28.34	-48.5	-51.0	6.1	0.00e+00	0	31	104	19822280704	60	43690
2026-01-15 09:00:59.43	359.12	27.63	-48.7	-51.2	6.1	0.00e+00	0	32	104	19822280704	60	44514
2026-01-15 09:01:02.46	358.51	26.95	-48.7	-51.2	6.1	0.00e+00	0	31	104	19822280704	60	44278
2026-01-15 09:01:05.49	357.93	26.28	-48.7	-51.2	6.1	0.00e+00	0	32	104	19822280704	60	44423
2026-01-15 09:01:08.51	357.38	25.63	-48.6	-51.1	6.1	0.00e+00	0	32	104	19822280704	60	44152
2026-01-15 09:01:11.54	356.85	24.99	-48.6	-51.1	6.1	0.00e+00	0	31	104	19822280704	60	44010
2026-01-15 09:01:14.57	356.34	24.37	-48.6	-51.1	6.1	0.00e+00	0	32	104	19822280704	60	44041
2026-01-15 09:01:17.60	355.86	23.76	-48.6	-51.1	6.1	0.00e+00	0	32	104	19822280704	60	43833
2026-01-15 09:01:20.63	355.39	23.17	-48.6	-51.1	6.1	0.00e+00	0	32	104	19822280704	60	44138
2026-01-15 09:01:23.66	354.95	22.60	-48.6	-51.1	6.1	0.00e+00	0	31	104	19822280704	60	44101
2026-01-15 09:01:26.68	354.52	22.04	-48.6	-51.1	6.1	0.00e+00	0	31	104	19822280704	60	44214
2026-01-15 09:01:29.71	354.11	21.49	-48.6	-51.2	6.1	0.00e+00	0	32	104	19822280704	60	44272
2026-01-15 09:01:32.74	353.72	20.95	-48.6	-51.1	6.1	0.00e+00	0	31	104	19822280704	60	43918
2026-01-15 09:01:35.77	353.34	20.43	-48.5	-51.1	6.1	0.00e+00	0	32	104	19822280704	60	43766
2026-01-15 09:01:38.80	352.98	19.92	-48.6	-51.1	6.1	0.00e+00	0	31	104	19822280704	60	44009
2026-01-15 09:01:41.82	352.63	19.42	-48.6	-51.1	6.1	0.00e+00	0	31	104	19822280704	60	43928
2026-01-15 09:01:44.85	352.29	18.93	-48.6	-51.1	6.1	0.00e+00	0	32	104	19822280704	60	43984
2026-01-15 09:01:47.88	351.97	18.46	-48.6	-51.0	6.1	0.00e+00	0	31	104	19822280704	60	43609
2026-01-15 09:01:50.91	351.66	17.99	-48.5	-51.1	6.1	0.00e+00	0	31	104	19822280704	60	43761
2026-01-15 09:01:53.93	351.36	17.53	-48.6	-51.1	6.1	0.00e+00	0	31	104	19822280704	60	43811
2026-01-15 09:01:56.96	351.07	17.09	-48.5	-51.0	6.1	0.00e+00	0	31	104	19822280704	60	43534
2026-01-15 09:01:59.98	350.79	16.65	-48.5	-51.0	6.1	0.00e+00	0	31	104	19822280704	60	43568
2026-01-15 09:02:03.01	350.52	16.23	-48.5	-51.0	6.1	0.00e+00	0	31	104	19822280704	60	43400
2026-01-15 09:02:06.03	350.26	15.81	-48.5	-51.0	6.1	0.00e+00	0	31	104	19822280704	60	43690
2026-01-15 09:02:09.06	350.01	15.40	-48.4	-50.9	6.1	0.00e+00	0	31	104	19822280704	60	43072
2026-01-15 09:02:12.09	349.76	15.00	-48.4	-50.9	6.1	0.00e+00	0	31	104	19822280704	60	43035
2026-01-15 09:02:15.11	349.53	14.60	-48.4	-50.9	6.1	0.00e+00	0	31	104	19822280704	60	42820
2026-01-15 09:02:18.14	349.30	14.22	-48.2	-50.8	6.1	0.00e+00	0	31	104	19822280704	60	42483
2026-01-15 09:02:21.16	349.08	13.84	-48.4	-50.9	6.1	0.00e+00	0	31	104	19822280704	60	42881
2026-01-15 09:02:24.19	348.86	13.47	-48.4	-50.9	6.1	0.00e+00	0	31	104	19822280704	60	42721
2026-01-15 09:02:27.22	348.65	13.10	-48.4	-50.9	6.1	0.00e+00	0	31	104	19822280704	60	42966
2026-01-15 09:02:30.25	348.45	12.74	-48.4	-50.9	6.1	0.00e+00	0	31	104	19822280704	60	42927
2026-01-15 09:02:33.27	348.26	12.39	-48.3	-50.8	6.1	0.00e+00	0	31	104	19822280704	60	42650
2026-01-15 09:02:36.30	348.07	12.05	-48.2	-50.8	6.1	0.00e+00	0	31	104	19822280704	60	42351
2026-01-15 09:02:39.32	347.88	11.71	-48.3	-50.8	6.1	0.00e+00	0	31	104	19822280704	60	42271
2026-01-15 09:02:42.35	347.70	11.37	-48.4	-50.9	6.1	0.00e+00	0	31	104	19822280704	60	42860
2026-01-15 09:02:45.37	347.53	11.05	-48.2	-50.7	6.1	0.00e+00	0	31	104	19822280704	60	42034
2026-01-15 09:02:48.40	347.36	10.72	-48.2	-50.7	6.1	0.00e+00	0	32	104	19822280704	60	41851
2026-01-15 09:02:51.43	347.20	10.41	-48.2	-50.7	6.1	0.00e+00	0	31	104	19822280704	60	42019
2026-01-15 09:02:54.45	347.04	10.10	-48.3	-50.7	6.1	0.00e+00	0	31	104	19822280704	60	42218
2026-01-15 09:02:57.48	346.88	9.79	-48.2	-50.7	6.1	0.00e+00	0	32	104	19822280704	60	42020
2026-01-15 09:03:00.51	346.73	9.49	-48.1	-50.6	6.1	0.00e+00	0	32	104	19822280704	60	41567
2026-01-15 09:03:03.53	346.59	9.19	-48.0	-50.5	6.1	0.00e+00	0	31	104	19822280704	60	41251
2026-01-15 09:03:06.56	346.44	8.90	-48.2	-50.7	6.1	0.00e+00	0	31	104	19822280704	60	42037
2026-01-15 09:03:09.59	346.30	8.61	-48.1	-50.6	6.1	0.00e+00	0	32	104	19822280704	60	41563
2026-01-15 09:03:12.62	346.17	8.32	-48.0	-50.5	6.1	0.00e+00	0	31	104	19822280704	60	41089
2026-01-15 09:03:15.64	346.04	8.04	-48.0	-50.5	6.1	0.00e+00	0	31	104	19822280704	60	41152
2026-01-15 09:03:18.67	345.91	7.76	-48.0	-50.5	6.1	0.00e+00	0	31	104	19822280704	60	41174
2026-01-15 09:03:21.69	345.78	7.49	-48.0	-50.5	6.1	0.00e+00	0	31	104	19822280704	60	41117
2026-01-15 09:03:24.72	345.66	7.22	-47.8	-50.3	6.1	0.00e+00	0	31	104	19822280704	60	40255
2026-01-15 09:03:27.75	345.54	6.96	-47.7	-50.2	6.1	0.00e+00	0	31	104	19822280704	60	39719
2026-01-15 09:03:30.77	345.42	6.69	-47.7	-50.2	6.1	0.00e+00	0	32	104	19822280704	60	39802
2026-01-15 09:03:33.79	345.31	6.44	-47.9	-50.4	6.1	0.00e+00	0	32	104	19822280704	60	40577
2026-01-15 09:03:36.82	345.20	6.18	-47.1	-49.7	6.1	0.00e+00	0	32	104	19822280704	60	37326
2026-01-15 09:03:39.85	345.09	5.93	-46.7	-49.2	6.1	0.00e+00	0	31	104	19822280704	60	35193
2026-01-15 09:03:42.88	344.99	5.68	-45.8	-48.3	6.1	0.00e+00	0	31	104	19822280704	60	31850
2026-01-15 09:03:45.91	344.88	5.43	-46.1	-48.7	6.1	0.00e+00	0	32	104	19822280704	60	33223
2026-01-15 09:03:48.93	344.78	5.19	-46.9	-49.4	6.1	0.00e+00	0	31	104	19822280704	60	36031
2026-01-15 09:03:51.96	344.68	4.95	-44.5	-47.1	6.1	0.00e+00	0	31	104	19822280704	60	27607
2026-01-15 09:03:54.99	344.59	4.71	-44.6	-47.1	6.1	0.00e+00	0	31	104	19822280704	60	27740
2026-01-15 09:03:58.01	344.49	4.48	-44.3	-46.8	6.0	0.00e+00	0	31	104	19822280704	60	26756
2026-01-15 09:04:01.04	344.40	4.24	-44.0	-46.5	6.1	0.00e+00	0	32	104	19822280704	60	25777
2026-01-15 09:04:04.07	344.31	4.01	-44.1	-46.6	6.1	0.00e+00	0	31	104	19822280704	60	26175
2026-01-15 09:04:07.09	344.23	3.79	-44.7	-47.2	6.1	0.00e+00	0	31	104	19822280704	60	28179
2026-01-15 09:04:10.12	344.14	3.56	-44.0	-46.5	6.1	0.00e+00	0	31	104	19822280704	60	25804
2026-01-15 09:04:13.14	344.06	3.34	-43.9	-46.4	6.1	0.00e+00	0	31	104	19822280704	60	25610
2026-01-15 09:04:16.17	343.97	3.12	-43.8	-46.3	6.1	0.00e+00	0	31	104	19822280704	60	25352
2026-01-15 09:04:19.20	343.89	2.90	-47.9	-50.4	6.1	0.00e+00	0	31	104	19822280704	60	40736
2026-01-15 09:04:22.21	343.82	2.69	-48.7	-51.2	6.1	0.00e+00	0	31	104	19822280704	60	44655
2026-01-15 09:04:25.24	343.74	2.47	-49.0	-51.5	6.1	0.00e+00	0	31	104	19822280704	60	45928
2026-01-15 09:04:28.27	343.66	2.26	-48.8	-51.4	6.1	0.00e+00	0	31	104	19822280704	60	45417
2026-01-15 09:04:31.30	343.59	2.05	-48.3	-50.9	6.1	0.00e+00	0	31	104	19822280704	60	42720
2026-01-15 09:04:34.33	343.52	1.84	-48.9	-51.4	6.0	0.00e+00	0	31	104	19822280704	60	45542
2026-01-15 09:04:37.35	343.45	1.64	-48.9	-51.4	6.1	0.00e+00	0	31	104	19822280704	60	45424
2026-01-15 09:04:40.39	343.38	1.43	-48.9	-51.4	6.1	0.00e+00	0	32	104	19822280704	60	45433
2026-01-15 09:04:43.42	343.31	1.23	-48.9	-51.4	6.1	0.00e+00	0	32	104	19822280704	60	45397
2026-01-15 09:04:46.45	343.24	1.03	-48.9	-51.4	6.1	0.00e+00	0	32	104	19822280704	60	45273
2026-01-15 09:04:49.47	343.18	0.83	-48.8	-51.3	6.1	0.00e+00	0	31	104	19822280704	60	45133
2026-01-15 09:04:52.49	343.12	0.63	-48.8	-51.3	6.1	0.00e+00	0	31	104	19822280704	60	44888
2026-01-15 09:04:55.52	343.05	0.44	-48.8	-51.3	6.1	0.00e+00	0	32	104	19822280704	60	45146
2026-01-15 09:04:58.55	342.99	0.24	-48.8	-51.3	6.1	0.00e+00	0	32	104	19822280704	60	45117
2026-01-15 09:05:01.57	342.93	0.05	-48.8	-51.3	6.1	0.00e+00	0	32	104	19822280704	60	44930

#Closed at: 2026-01-15 09:05:02
#Recorded file [19822 MB]: D:/lorett/data/35029_260115_205401.dat