passes_logs/2026/01/15/R4.6S_Anadyr/R4.6S_Anadyr__20260115_150514_NOAA_20_JPSS-1_rec.log

#Pass ID: 20260115_150514_NOAA 20 (JPSS-1)
#Satellite: NOAA 20 (JPSS-1)
#Configuration: NOAA 20
#almurnet v.1.7.20251203
#Start time: 2026-01-15 15:05:16

#Version: 2.2.20231116
#Station: R4.6S_Anadyr
#Location: 177.4865 lon 64.73178 lat
#TLE: 1 43013U 17073A   26014.55467351  .00000038  00000+0  38801-4 0  9992
#TLE: 2 43013  98.7635 315.4987 0001517  39.9279 320.2008 14.19535859422677

#Time	Az	El	Level	Level2	SNR	BER	BlckErr	Temp	State	Recorded	gain1	gain2
2026-01-15 15:05:16.19	21.34	0.07	-48.2	-63.1	3.5	1.51e+00	0	26	0	0	60	51475
2026-01-15 15:05:20.22	21.31	0.32	-48.2	-63.5	3.6	1.51e+00	0	27	104	0	60	53999
2026-01-15 15:05:24.26	21.29	0.56	-48.1	-63.3	3.6	1.51e+00	0	27	104	0	60	52909
2026-01-15 15:05:28.30	21.26	0.81	-47.1	-62.7	3.6	1.51e+00	0	27	104	0	60	49542
2026-01-15 15:05:32.34	21.24	1.05	-46.6	-61.9	3.6	1.51e+00	0	27	104	0	60	44788
2026-01-15 15:05:36.38	21.21	1.30	-46.6	-61.7	3.6	1.51e+00	0	27	104	0	60	44078
2026-01-15 15:05:40.42	21.19	1.56	-46.6	-61.7	3.6	1.51e+00	0	27	104	0	60	43780
2026-01-15 15:05:44.46	21.16	1.81	-46.6	-61.8	3.6	1.51e+00	0	27	104	0	60	44347
2026-01-15 15:05:48.50	21.13	2.07	-46.6	-61.8	3.6	1.51e+00	0	27	104	0	60	44324
2026-01-15 15:05:52.53	21.10	2.33	-46.5	-61.0	3.6	1.51e+00	0	27	104	0	60	40668
2026-01-15 15:05:56.57	21.07	2.59	-46.5	-60.1	3.6	1.51e+00	0	28	104	0	60	36407
2026-01-15 15:06:00.61	21.04	2.85	-46.3	-55.9	4.3	1.39e+00	6	28	0	0	60	22597
2026-01-15 15:06:04.65	21.01	3.12	-44.8	-49.5	11.0	6.12e-03	5	28	0	7340032	60	10816
2026-01-15 15:06:08.69	20.98	3.39	-43.4	-46.5	14.3	1.50e-06	92	28	0	14680064	60	7608
2026-01-15 15:06:12.73	20.94	3.66	-44.0	-47.7	12.9	2.44e-05	82	28	0	23068672	60	8769
2026-01-15 15:06:16.76	20.91	3.93	-46.6	-59.4	3.6	2.89e-05	0	28	104	30408704	60	33925
2026-01-15 15:06:20.80	20.87	4.21	-42.3	-44.6	16.0	8.77e-02	2	28	0	30408704	58	6854
2026-01-15 15:06:24.84	20.84	4.49	-41.1	-42.9	18.1	0.00e+00	90	28	0	37748736	56	6335
2026-01-15 15:06:28.87	20.80	4.77	-41.2	-43.0	18.1	0.00e+00	0	28	0	45088768	56	6446
2026-01-15 15:06:32.91	20.76	5.06	-40.9	-42.6	18.5	0.00e+00	82	28	0	52428800	56	6158
2026-01-15 15:06:36.95	20.72	5.35	-40.8	-42.4	18.7	0.00e+00	0	28	0	60817408	56	6008
2026-01-15 15:06:40.99	20.68	5.64	-40.6	-42.2	18.9	0.00e+00	92	28	0	68157440	54	6593
2026-01-15 15:06:45.03	20.64	5.93	-40.6	-42.2	19.0	0.00e+00	0	28	0	75497472	54	6601
2026-01-15 15:06:49.07	20.60	6.23	-40.5	-42.1	19.1	0.00e+00	2	28	0	82837504	54	6476
2026-01-15 15:06:53.11	20.55	6.53	-40.5	-42.0	19.2	0.00e+00	87	28	0	90177536	54	6448
2026-01-15 15:06:57.15	20.51	6.84	-40.4	-41.9	19.3	0.00e+00	92	28	0	98566144	54	6356
2026-01-15 15:07:01.19	20.46	7.15	-40.1	-41.5	19.8	0.00e+00	0	28	0	105906176	54	6074
2026-01-15 15:07:05.23	20.41	7.46	-40.1	-41.5	19.8	0.00e+00	0	28	0	113246208	54	6037
2026-01-15 15:07:09.27	20.36	7.78	-39.9	-41.2	20.1	0.00e+00	90	28	0	120586240	54	5881
2026-01-15 15:07:13.31	20.31	8.10	-39.9	-41.3	20.1	0.00e+00	82	28	0	128974848	52	6621
2026-01-15 15:07:17.35	20.26	8.43	-39.7	-41.0	20.4	0.00e+00	0	28	0	136314880	52	6451
2026-01-15 15:07:21.39	20.20	8.76	-39.7	-40.9	20.5	0.00e+00	0	28	0	143654912	52	6378
2026-01-15 15:07:25.42	20.15	9.09	-39.5	-40.8	20.6	0.00e+00	90	28	0	150994944	52	6301
2026-01-15 15:07:29.46	20.09	9.43	-39.6	-40.8	20.7	0.00e+00	5	28	0	158334976	52	6284
2026-01-15 15:07:33.50	20.03	9.77	-39.3	-40.6	20.9	0.00e+00	83	28	0	166723584	52	6106
2026-01-15 15:07:37.54	19.97	10.12	-39.3	-40.4	21.1	0.00e+00	0	28	0	174063616	52	6033
2026-01-15 15:07:41.58	19.90	10.47	-39.4	-40.6	20.9	0.00e+00	90	28	0	181403648	52	6152
2026-01-15 15:07:45.62	19.84	10.83	-39.1	-40.3	21.1	0.00e+00	0	28	0	188743680	52	5950
2026-01-15 15:07:49.66	19.77	11.19	-38.9	-40.2	21.3	0.00e+00	0	28	0	197132288	52	5858
2026-01-15 15:07:53.69	19.70	11.56	-38.8	-40.0	21.5	0.00e+00	6	28	0	204472320	50	6419
2026-01-15 15:07:57.73	19.63	11.93	-38.8	-39.9	21.6	0.00e+00	92	28	0	211812352	50	6352
2026-01-15 15:08:01.77	19.55	12.31	-38.8	-39.9	21.7	0.00e+00	82	28	0	219152384	50	6322
2026-01-15 15:08:05.81	19.48	12.69	-38.6	-39.7	21.9	0.00e+00	0	28	0	226492416	50	6198
2026-01-15 15:08:09.85	19.40	13.09	-38.5	-39.5	22.1	0.00e+00	2	28	0	234881024	50	6084
2026-01-15 15:08:13.89	19.32	13.48	-38.3	-39.4	22.1	0.00e+00	92	28	0	242221056	50	6000
2026-01-15 15:08:17.93	19.23	13.89	-38.2	-39.2	22.4	0.00e+00	82	28	0	249561088	50	5851
2026-01-15 15:08:21.97	19.15	14.30	-38.1	-39.1	22.4	0.00e+00	80	28	0	256901120	50	5813
2026-01-15 15:08:26.00	19.06	14.72	-38.0	-39.0	22.5	0.00e+00	91	28	0	265289728	50	5720
2026-01-15 15:08:30.04	18.96	15.14	-37.9	-38.9	22.7	0.00e+00	62	28	0	272629760	50	5677
2026-01-15 15:08:34.08	18.87	15.57	-37.7	-38.7	22.9	0.00e+00	0	28	0	279969792	48	6207
2026-01-15 15:08:38.11	18.77	16.01	-37.6	-38.5	23.0	0.00e+00	81	28	0	287309824	48	6092
2026-01-15 15:08:42.14	18.66	16.46	-37.5	-38.4	23.2	0.00e+00	90	28	0	294649856	48	6001
2026-01-15 15:08:46.18	18.56	16.92	-37.4	-38.3	23.2	0.00e+00	81	28	0	303038464	48	5944
2026-01-15 15:08:50.22	18.45	17.38	-37.3	-38.2	23.3	0.00e+00	0	28	0	310378496	48	5871
2026-01-15 15:08:54.25	18.33	17.86	-37.1	-38.1	23.5	0.00e+00	0	28	0	317718528	48	5770
2026-01-15 15:08:58.29	18.21	18.34	-37.1	-38.0	23.6	0.00e+00	92	28	0	325058560	48	5728
2026-01-15 15:09:02.33	18.09	18.83	-36.9	-37.8	23.7	0.00e+00	82	28	0	333447168	48	5615
2026-01-15 15:09:06.36	17.96	19.33	-36.8	-37.7	23.8	0.00e+00	2	28	0	340787200	48	5538
2026-01-15 15:09:10.40	17.83	19.85	-36.8	-37.7	23.8	0.00e+00	5	28	0	348127232	46	6220
2026-01-15 15:09:14.43	17.69	20.37	-36.6	-37.4	24.1	0.00e+00	92	28	0	355467264	46	6031
2026-01-15 15:09:18.48	17.55	20.90	-36.4	-37.3	24.3	0.00e+00	0	28	0	362807296	46	5897
2026-01-15 15:09:22.51	17.40	21.45	-36.3	-37.1	24.4	0.00e+00	85	28	0	371195904	46	5800
2026-01-15 15:09:26.55	17.25	22.01	-36.1	-37.0	24.6	0.00e+00	84	28	0	378535936	46	5703
2026-01-15 15:09:30.59	17.08	22.58	-35.9	-36.8	24.7	0.00e+00	92	28	0	385875968	46	5576
2026-01-15 15:09:34.63	16.92	23.16	-36.2	-37.0	24.6	0.00e+00	8	28	0	393216000	46	5715
2026-01-15 15:09:38.67	16.74	23.76	-36.1	-36.9	24.6	0.00e+00	0	28	0	401604608	46	5665
2026-01-15 15:09:42.71	16.56	24.36	-36.1	-36.9	24.5	0.00e+00	55	28	0	408944640	46	5683
2026-01-15 15:09:46.74	16.37	24.99	-36.2	-37.1	24.5	0.00e+00	92	28	0	416284672	46	5777
2026-01-15 15:09:50.78	16.17	25.63	-36.4	-37.2	24.4	0.00e+00	0	28	0	423624704	46	5885
2026-01-15 15:09:54.82	15.96	26.28	-36.9	-37.7	24.0	0.00e+00	0	28	0	430964736	46	6245
2026-01-15 15:09:58.85	15.75	26.95	-37.6	-38.6	23.2	0.00e+00	0	28	0	439353344	46	6871
2026-01-15 15:10:02.89	15.52	27.63	-37.8	-38.8	23.0	0.00e+00	92	28	0	446693376	48	6280
2026-01-15 15:10:06.92	15.28	28.33	-37.6	-38.6	23.2	0.00e+00	81	28	0	454033408	48	6120
2026-01-15 15:10:10.96	15.03	29.05	-38.5	-39.5	22.4	0.00e+00	0	28	0	461373440	48	6785
2026-01-15 15:10:15.00	14.77	29.79	-38.9	-40.0	22.0	0.00e+00	62	28	0	469762048	50	6403
2026-01-15 15:10:19.04	14.50	30.55	-39.3	-40.5	21.5	0.00e+00	92	28	0	477102080	50	6790
2026-01-15 15:10:23.08	14.21	31.33	-39.8	-41.0	21.0	0.00e+00	0	28	0	484442112	52	6462
2026-01-15 15:10:27.12	13.90	32.13	-40.0	-41.3	20.7	0.00e+00	0	28	0	491782144	52	6653
2026-01-15 15:10:31.16	13.58	32.94	-39.8	-41.2	20.9	0.00e+00	92	28	0	499122176	52	6567
2026-01-15 15:10:35.20	13.24	33.78	-39.8	-41.3	20.8	0.00e+00	0	28	0	507510784	52	6636
2026-01-15 15:10:39.24	12.89	34.65	-39.4	-40.6	21.5	0.00e+00	2	28	0	514850816	52	6127
2026-01-15 15:10:43.27	12.51	35.53	-38.7	-39.8	22.2	0.00e+00	0	28	0	522190848	50	6263
2026-01-15 15:10:47.30	12.11	36.44	-38.0	-39.0	23.0	0.00e+00	92	28	0	529530880	50	5702
2026-01-15 15:10:51.34	11.69	37.37	-37.9	-38.8	23.2	0.00e+00	0	28	0	536870912	50	5607
2026-01-15 15:10:55.37	11.24	38.33	-38.3	-39.3	22.7	0.00e+00	0	28	0	545259520	50	5932
2026-01-15 15:10:59.41	10.76	39.31	-39.0	-40.1	22.0	0.00e+00	0	28	0	552599552	50	6472
2026-01-15 15:11:03.45	10.25	40.32	-39.4	-40.5	21.6	0.00e+00	92	28	0	559939584	50	6780
2026-01-15 15:11:07.49	9.71	41.36	-39.5	-40.6	21.5	0.00e+00	0	28	0	567279616	52	6152
2026-01-15 15:11:11.52	9.13	42.42	-39.9	-41.2	21.0	0.00e+00	85	28	0	575668224	52	6545
2026-01-15 15:11:15.56	8.51	43.51	-39.4	-40.5	21.5	0.00e+00	87	28	0	583008256	52	6074
2026-01-15 15:11:19.60	7.84	44.63	-39.4	-40.6	21.5	0.00e+00	90	28	0	590348288	52	6125
2026-01-15 15:11:23.64	7.12	45.78	-38.9	-40.0	22.1	0.00e+00	0	28	0	597688320	52	5741
2026-01-15 15:11:27.68	6.34	46.96	-39.1	-40.2	21.9	0.00e+00	0	28	0	605028352	50	6559
2026-01-15 15:11:31.71	5.51	48.16	-38.9	-39.9	22.1	0.00e+00	0	28	0	613416960	50	6387
2026-01-15 15:11:35.75	4.60	49.39	-38.5	-39.6	22.4	0.00e+00	92	28	0	620756992	50	6129
2026-01-15 15:11:39.79	3.62	50.64	-37.5	-38.5	23.5	0.00e+00	0	28	0	628097024	48	6050
2026-01-15 15:11:43.82	2.55	51.92	-36.8	-37.7	24.0	0.00e+00	0	28	0	635437056	48	5526
2026-01-15 15:11:47.86	1.38	53.22	-36.2	-37.1	24.6	0.00e+00	0	28	0	643825664	46	5798
2026-01-15 15:11:51.90	0.09	54.55	-36.9	-37.8	24.0	0.00e+00	90	28	0	651165696	46	6312
2026-01-15 15:11:55.93	358.69	55.89	-37.3	-38.2	23.6	0.00e+00	0	28	0	658505728	46	6615
2026-01-15 15:11:59.97	357.13	57.25	-39.1	-40.3	21.7	0.00e+00	81	28	0	665845760	50	6624
2026-01-15 15:12:04.01	355.41	58.61	-39.1	-40.3	21.7	0.00e+00	90	28	0	673185792	50	6622
2026-01-15 15:12:08.05	353.50	59.99	-38.1	-39.1	22.9	0.00e+00	5	28	0	681574400	50	5805
2026-01-15 15:12:12.08	351.38	61.35	-36.3	-37.1	24.5	0.00e+00	0	28	0	688914432	46	5776
2026-01-15 15:12:16.12	349.01	62.71	-36.7	-37.5	24.1	0.00e+00	77	28	0	696254464	46	6088
2026-01-15 15:12:20.16	346.35	64.05	-36.6	-37.5	24.2	0.00e+00	92	28	0	703594496	46	6040
2026-01-15 15:12:24.20	343.37	65.36	-38.9	-40.0	22.0	0.00e+00	0	28	0	710934528	50	6464
2026-01-15 15:12:28.23	340.03	66.62	-39.3	-40.4	21.6	0.00e+00	0	28	0	719323136	50	6742
2026-01-15 15:12:32.27	336.27	67.81	-40.0	-41.3	20.7	0.00e+00	0	28	0	726663168	52	6658
2026-01-15 15:12:36.31	332.06	68.93	-39.1	-40.3	21.7	0.00e+00	92	28	0	734003200	50	6627
2026-01-15 15:12:40.35	327.36	69.93	-38.8	-39.9	22.3	0.00e+00	2	28	0	741343232	50	6357
2026-01-15 15:12:44.38	322.18	70.81	-37.5	-38.4	23.4	0.00e+00	79	28	0	749731840	48	6010
2026-01-15 15:12:48.42	316.50	71.53	-37.4	-38.3	23.2	0.00e+00	0	28	0	757071872	48	5958
2026-01-15 15:12:52.46	310.40	72.06	-38.0	-39.0	22.8	0.00e+00	92	28	0	764411904	48	6410
2026-01-15 15:12:56.50	303.97	72.40	-38.7	-39.7	22.2	0.00e+00	0	28	0	771751936	50	6197
2026-01-15 15:13:00.54	297.37	72.52	-38.6	-39.6	22.2	0.00e+00	86	28	0	779091968	50	6127
2026-01-15 15:13:04.58	290.76	72.41	-38.2	-39.2	22.6	0.00e+00	0	28	0	787480576	50	5871
2026-01-15 15:13:08.62	284.32	72.09	-37.3	-38.3	23.5	0.00e+00	92	28	0	794820608	48	5919
2026-01-15 15:13:12.66	278.19	71.56	-36.8	-37.7	24.0	0.00e+00	7	28	0	802160640	46	6200
2026-01-15 15:13:16.70	272.49	70.85	-38.6	-39.7	22.3	0.00e+00	2	28	0	809500672	48	6942
2026-01-15 15:13:20.74	267.26	69.98	-39.0	-40.1	21.7	0.00e+00	0	28	0	817889280	50	6496
2026-01-15 15:13:24.78	262.54	68.98	-39.9	-41.1	20.9	0.00e+00	92	28	0	825229312	52	6502
2026-01-15 15:13:28.82	258.29	67.87	-40.9	-42.3	19.8	0.00e+00	0	28	0	832569344	54	6677
2026-01-15 15:13:32.86	254.51	66.67	-39.1	-40.2	21.7	0.00e+00	0	28	0	839909376	52	5886
2026-01-15 15:13:36.89	251.14	65.42	-37.1	-38.0	23.7	0.00e+00	0	28	0	847249408	48	5720
2026-01-15 15:13:40.93	248.14	64.11	-35.4	-36.2	25.2	0.00e+00	90	28	0	855638016	44	5867
2026-01-15 15:13:44.96	245.47	62.77	-36.1	-37.0	24.4	0.00e+00	0	28	0	862978048	44	6406
2026-01-15 15:13:49.00	243.08	61.41	-36.2	-37.1	24.6	0.00e+00	0	28	0	870318080	44	6476
2026-01-15 15:13:53.04	240.94	60.04	-37.7	-38.7	23.2	0.00e+00	57	28	0	877658112	48	6228
2026-01-15 15:13:57.08	239.02	58.66	-39.4	-40.6	21.5	0.00e+00	0	28	0	886046720	50	6865
2026-01-15 15:14:01.13	237.29	57.29	-39.4	-40.6	21.4	0.00e+00	80	28	0	893386752	50	6900
2026-01-15 15:14:05.17	235.72	55.93	-37.8	-38.8	23.1	0.00e+00	79	28	0	900726784	50	5583
2026-01-15 15:14:09.21	234.31	54.58	-36.3	-37.1	24.4	0.00e+00	92	28	0	908066816	46	5818
2026-01-15 15:14:13.25	233.02	53.25	-36.1	-36.9	24.6	0.00e+00	0	28	0	916455424	46	5673
2026-01-15 15:14:17.29	231.84	51.94	-36.7	-37.6	24.1	0.00e+00	0	28	0	923795456	46	6128
2026-01-15 15:14:21.33	230.76	50.66	-37.8	-38.7	23.2	0.00e+00	0	28	0	931135488	46	6979
2026-01-15 15:14:25.36	229.77	49.40	-38.9	-40.0	21.9	0.00e+00	92	28	0	938475520	50	6430
2026-01-15 15:14:29.40	228.86	48.16	-39.3	-40.4	21.6	0.00e+00	0	28	0	945815552	50	6729
2026-01-15 15:14:33.43	228.02	46.96	-39.4	-40.6	21.5	0.00e+00	5	28	0	954204160	50	6858
2026-01-15 15:14:37.48	227.24	45.78	-39.2	-40.4	21.7	0.00e+00	0	28	0	961544192	50	6714
2026-01-15 15:14:41.51	226.52	44.63	-39.3	-40.4	21.7	0.00e+00	90	28	0	968884224	50	6728
2026-01-15 15:14:45.55	225.85	43.50	-39.6	-40.7	21.3	0.00e+00	0	28	0	976224256	52	6237
2026-01-15 15:14:49.59	225.22	42.41	-39.5	-40.7	21.4	0.00e+00	6	28	0	983564288	52	6213
2026-01-15 15:14:53.63	224.64	41.34	-40.5	-41.8	20.1	0.00e+00	0	28	0	991952896	52	7080
2026-01-15 15:14:57.67	224.09	40.30	-40.3	-41.7	20.5	0.00e+00	92	28	0	999292928	52	6946
2026-01-15 15:15:01.70	223.58	39.28	-39.9	-41.2	21.0	0.00e+00	81	28	0	1006632960	52	6540
2026-01-15 15:15:05.74	223.10	38.30	-39.6	-40.8	21.3	0.00e+00	0	28	0	1013972992	52	6292
2026-01-15 15:15:09.78	222.65	37.33	-38.6	-39.7	22.3	0.00e+00	69	28	0	1022361600	50	6232
2026-01-15 15:15:13.81	222.22	36.40	-38.9	-40.0	22.0	0.00e+00	71	28	0	1029701632	50	6409
2026-01-15 15:15:17.85	221.82	35.49	-38.8	-39.9	22.1	0.00e+00	0	28	0	1037041664	50	6358
2026-01-15 15:15:21.89	221.44	34.60	-39.8	-41.1	21.0	0.00e+00	0	28	0	1044381696	52	6495
2026-01-15 15:15:25.93	221.08	33.73	-39.8	-41.1	21.0	0.00e+00	92	28	0	1051721728	52	6486
2026-01-15 15:15:29.97	220.74	32.89	-40.7	-42.2	19.9	0.00e+00	0	28	0	1060110336	54	6563
2026-01-15 15:15:34.01	220.42	32.07	-41.2	-42.7	19.4	0.00e+00	0	28	0	1067450368	54	6949
2026-01-15 15:15:38.06	220.11	31.26	-41.4	-43.0	19.1	0.00e+00	0	28	0	1074790400	54	7245
2026-01-15 15:15:42.09	219.82	30.49	-41.1	-42.6	19.4	0.00e+00	92	28	0	1082130432	54	6910
2026-01-15 15:15:46.13	219.54	29.73	-40.8	-42.3	19.8	0.00e+00	0	28	0	1090519040	54	6641
2026-01-15 15:15:50.17	219.28	28.99	-40.6	-42.0	20.0	0.00e+00	81	28	0	1097859072	54	6460
2026-01-15 15:15:54.20	219.03	28.26	-40.7	-42.1	19.9	0.00e+00	0	28	0	1105199104	54	6538
2026-01-15 15:15:58.24	218.79	27.56	-40.2	-41.6	20.4	0.00e+00	92	28	0	1112539136	54	6110
2026-01-15 15:16:02.28	218.56	26.87	-39.7	-41.0	21.0	0.00e+00	0	28	0	1119879168	52	6419
2026-01-15 15:16:06.32	218.34	26.20	-39.5	-40.7	21.3	0.00e+00	81	28	0	1128267776	52	6193
2026-01-15 15:16:10.35	218.13	25.54	-39.3	-40.5	21.4	0.00e+00	0	28	0	1135607808	52	6094
2026-01-15 15:16:14.39	217.93	24.90	-39.5	-40.8	21.1	0.00e+00	92	28	0	1142947840	52	6317
2026-01-15 15:16:18.43	217.74	24.28	-39.4	-40.7	21.3	0.00e+00	0	28	0	1150287872	52	6174
2026-01-15 15:16:22.47	217.55	23.67	-38.2	-39.3	22.5	0.00e+00	8	28	0	1158676480	50	5951
2026-01-15 15:16:26.51	217.38	23.07	-37.9	-38.9	22.7	0.00e+00	0	28	0	1166016512	50	5685
2026-01-15 15:16:30.55	217.21	22.48	-37.6	-38.5	23.2	0.00e+00	91	28	0	1173356544	48	6092
2026-01-15 15:16:34.59	217.04	21.91	-37.6	-38.5	23.1	0.00e+00	86	28	0	1180696576	48	6102
2026-01-15 15:16:38.63	216.89	21.35	-37.7	-38.6	23.0	0.00e+00	6	28	0	1188036608	48	6167
2026-01-15 15:16:42.66	216.73	20.81	-38.0	-39.0	22.8	0.00e+00	0	28	0	1196425216	48	6408
2026-01-15 15:16:46.70	216.59	20.27	-38.2	-39.3	22.5	0.00e+00	90	28	0	1203765248	48	6625
2026-01-15 15:16:50.74	216.45	19.75	-38.3	-39.4	22.3	0.00e+00	81	28	0	1211105280	48	6730
2026-01-15 15:16:54.77	216.31	19.23	-38.5	-39.6	22.3	0.00e+00	81	28	0	1218445312	48	6856
2026-01-15 15:16:58.81	216.18	18.73	-38.4	-39.5	22.1	0.00e+00	89	28	0	1226833920	48	6818
2026-01-15 15:17:02.85	216.06	18.23	-38.5	-39.5	22.2	0.00e+00	92	28	0	1234173952	48	6829
2026-01-15 15:17:06.88	215.94	17.75	-38.3	-39.4	22.3	0.00e+00	0	28	0	1241513984	48	6701
2026-01-15 15:17:10.92	215.82	17.28	-38.4	-39.5	22.3	0.00e+00	82	28	0	1248854016	48	6784
2026-01-15 15:17:14.96	215.71	16.81	-38.5	-39.5	22.2	0.00e+00	92	28	0	1256194048	48	6829
2026-01-15 15:17:19.00	215.60	16.35	-38.6	-39.7	22.0	0.00e+00	0	28	0	1264582656	48	6977
2026-01-15 15:17:23.04	215.49	15.90	-38.7	-39.8	21.9	0.00e+00	2	28	0	1271922688	50	6315
2026-01-15 15:17:27.07	215.39	15.46	-38.8	-39.9	21.8	0.00e+00	0	28	0	1279262720	50	6366
2026-01-15 15:17:31.11	215.29	15.03	-39.0	-40.2	21.6	0.00e+00	90	28	0	1286602752	50	6550
2026-01-15 15:17:35.15	215.20	14.60	-39.2	-40.3	21.3	0.00e+00	80	28	0	1294991360	50	6688
2026-01-15 15:17:39.19	215.10	14.18	-39.4	-40.6	21.2	0.00e+00	0	28	0	1302331392	50	6867
2026-01-15 15:17:43.22	215.01	13.77	-39.4	-40.6	21.2	0.00e+00	0	28	0	1309671424	50	6912
2026-01-15 15:17:47.26	214.93	13.37	-39.4	-40.6	21.2	0.00e+00	92	28	0	1317011456	50	6870
2026-01-15 15:17:51.30	214.84	12.97	-39.4	-40.6	21.1	0.00e+00	0	28	0	1324351488	50	6914
2026-01-15 15:17:55.33	214.76	12.58	-39.3	-40.4	21.2	0.00e+00	0	28	0	1332740096	50	6751
2026-01-15 15:17:59.37	214.68	12.19	-39.4	-40.6	21.1	0.00e+00	76	28	0	1340080128	50	6879
2026-01-15 15:18:03.41	214.61	11.81	-39.3	-40.5	21.1	0.00e+00	92	28	0	1347420160	50	6786
2026-01-15 15:18:07.45	214.53	11.43	-39.6	-40.8	20.8	0.00e+00	0	28	0	1354760192	50	7087
2026-01-15 15:18:11.49	214.46	11.07	-39.7	-41.0	20.7	0.00e+00	0	28	0	1362100224	52	6416
2026-01-15 15:18:15.53	214.39	10.70	-39.7	-41.0	20.7	0.00e+00	0	28	0	1370488832	52	6392
2026-01-15 15:18:19.57	214.32	10.34	-39.8	-41.0	20.6	0.00e+00	92	28	0	1377828864	52	6440
2026-01-15 15:18:23.61	214.25	9.99	-39.9	-41.2	20.5	0.00e+00	4	28	0	1385168896	52	6540
2026-01-15 15:18:27.65	214.19	9.64	-39.7	-41.0	20.5	0.00e+00	8	28	0	1392508928	52	6429
2026-01-15 15:18:31.70	214.13	9.30	-39.8	-41.1	20.5	0.00e+00	25	28	0	1400897536	52	6529
2026-01-15 15:18:35.74	214.06	8.96	-39.8	-41.1	20.4	0.00e+00	82	28	0	1408237568	52	6504
2026-01-15 15:18:39.77	214.01	8.63	-39.9	-41.2	20.3	0.00e+00	81	28	0	1415577600	52	6605
2026-01-15 15:18:43.81	213.95	8.30	-40.1	-41.5	20.0	0.00e+00	1	28	0	1422917632	52	6823
2026-01-15 15:18:47.85	213.89	7.97	-40.0	-41.4	20.1	0.00e+00	92	28	0	1431306240	52	6735
2026-01-15 15:18:51.89	213.84	7.65	-40.2	-41.6	19.8	0.00e+00	0	28	0	1438646272	52	6899
2026-01-15 15:18:55.93	213.78	7.33	-40.2	-41.7	19.8	0.00e+00	0	28	0	1445986304	52	6933
2026-01-15 15:18:59.97	213.73	7.02	-40.3	-41.8	19.5	0.00e+00	8	28	0	1453326336	52	7066
2026-01-15 15:19:04.01	213.68	6.71	-40.5	-42.0	19.4	0.00e+00	92	28	0	1460666368	52	7241
2026-01-15 15:19:08.05	213.63	6.40	-40.6	-42.2	19.1	0.00e+00	2	28	0	1469054976	52	7350
2026-01-15 15:19:12.08	213.58	6.10	-40.6	-42.1	19.1	0.00e+00	0	28	0	1476395008	52	7329
2026-01-15 15:19:16.12	213.54	5.80	-40.8	-42.4	18.8	0.00e+00	0	28	0	1483735040	54	6693
2026-01-15 15:19:20.16	213.49	5.50	-40.8	-42.4	18.9	0.00e+00	91	28	0	1491075072	54	6694
2026-01-15 15:19:24.20	213.45	5.21	-40.8	-42.4	18.7	0.00e+00	78	28	0	1498415104	54	6762
2026-01-15 15:19:28.24	213.40	4.92	-40.9	-42.6	18.4	0.00e+00	0	28	0	1506803712	54	6849
2026-01-15 15:19:32.27	213.36	4.64	-41.1	-42.9	18.2	0.00e+00	2	28	0	1514143744	54	7101
2026-01-15 15:19:36.31	213.32	4.35	-41.3	-43.1	17.9	0.00e+00	92	28	0	1521483776	54	7279
2026-01-15 15:19:40.35	213.28	4.07	-41.0	-42.8	18.1	0.00e+00	76	28	0	1528823808	54	7032
2026-01-15 15:19:44.39	213.24	3.79	-41.2	-43.1	17.8	0.00e+00	78	28	0	1537212416	54	7260
2026-01-15 15:19:48.43	213.20	3.52	-41.4	-43.4	17.5	0.00e+00	0	28	0	1544552448	54	7536
2026-01-15 15:19:52.47	213.17	3.25	-41.8	-43.9	17.0	0.00e+00	90	28	0	1551892480	56	7123
2026-01-15 15:19:56.50	213.13	2.98	-46.7	-61.0	3.6	3.08e-01	0	28	104	1559232512	60	40561
2026-01-15 15:20:00.54	213.10	2.71	-48.0	-63.3	3.6	1.51e+00	0	28	104	1559232512	60	52663
2026-01-15 15:20:04.58	213.06	2.45	-48.2	-63.5	3.6	1.51e+00	0	28	104	1559232512	60	53777
2026-01-15 15:20:08.62	213.03	2.18	-48.3	-63.5	3.6	1.51e+00	0	28	104	1559232512	60	54309
2026-01-15 15:20:12.65	212.99	1.93	-48.2	-63.4	3.6	1.51e+00	0	28	104	1559232512	60	53291
2026-01-15 15:20:16.69	212.96	1.67	-48.3	-63.5	3.6	1.51e+00	0	28	104	1559232512	60	54140
2026-01-15 15:20:20.73	212.93	1.41	-48.2	-63.5	3.6	1.51e+00	0	28	104	1559232512	60	53792
2026-01-15 15:20:24.76	212.90	1.16	-48.2	-63.4	3.6	1.51e+00	0	28	104	1559232512	60	53211
2026-01-15 15:20:28.80	212.87	0.91	-48.2	-63.4	3.6	1.51e+00	0	28	104	1559232512	60	53202
2026-01-15 15:20:32.84	212.84	0.66	-48.2	-63.3	3.6	1.51e+00	0	28	104	1559232512	60	52963
2026-01-15 15:20:36.88	212.81	0.42	-48.1	-63.3	3.6	1.51e+00	0	29	104	1559232512	60	52914
2026-01-15 15:20:40.92	212.78	0.17	-48.1	-63.4	3.6	1.51e+00	0	29	104	1559232512	60	53254

#Closed at: 2026-01-15 15:20:44
#Recorded file [1559 MB]: D:/lorett/data/35029_260116_030516.dat