passes_logs/2026/01/15/R4.6S_Anadyr/R4.6S_Anadyr__20260115_180440_SUOMI_NPP_rec.log

#Pass ID: 20260115_180440_SUOMI NPP
#Satellite: SUOMI NPP
#Configuration: NPP
#almurnet v.1.7.20251203
#Start time: 2026-01-15 18:04:42

#Version: 2.2.20231116
#Station: R4.6S_Anadyr
#Location: 177.4865 lon 64.73178 lat
#TLE: 1 37849U 11061A   26014.61059675  .00000037  00000+0  38639-4 0  9994
#TLE: 2 37849  98.7810 316.6625 0002460  64.3781 295.7649 14.19525105736658

#Time	Az	El	Level	Level2	SNR	BER	BlckErr	Temp	State	Recorded	gain1	gain2
2026-01-15 18:04:42.36	36.41	0.10	-48.0	-59.7	3.5	8.46e-01	0	24	0	0	60	34756
2026-01-15 18:04:46.40	36.14	0.30	-48.2	-63.4	3.6	1.51e+00	0	26	104	0	60	53584
2026-01-15 18:04:50.44	35.86	0.51	-48.1	-63.3	3.6	1.51e+00	0	26	104	0	60	53059
2026-01-15 18:04:54.48	35.58	0.72	-47.7	-63.0	3.6	1.51e+00	0	26	104	0	60	51011
2026-01-15 18:04:58.52	35.30	0.93	-46.5	-61.7	3.6	1.51e+00	0	26	104	0	60	43717
2026-01-15 18:05:02.56	35.01	1.14	-46.4	-61.5	3.6	1.51e+00	0	26	104	0	60	42967
2026-01-15 18:05:06.60	34.72	1.35	-46.4	-61.5	3.6	1.51e+00	0	26	104	0	60	43132
2026-01-15 18:05:10.64	34.43	1.56	-46.3	-61.4	3.6	1.51e+00	0	26	104	0	60	42663
2026-01-15 18:05:14.68	34.13	1.78	-46.3	-61.5	3.6	1.51e+00	0	26	104	0	60	42901
2026-01-15 18:05:18.72	33.82	1.99	-46.3	-61.2	3.6	1.51e+00	0	26	104	0	60	41618
2026-01-15 18:05:22.76	33.52	2.21	-46.3	-61.2	3.6	1.51e+00	0	27	104	0	60	41548
2026-01-15 18:05:26.80	33.20	2.42	-46.3	-61.4	3.6	1.51e+00	0	26	104	0	60	42616
2026-01-15 18:05:30.84	32.88	2.64	-46.3	-61.0	3.6	1.51e+00	0	27	104	0	60	40456
2026-01-15 18:05:34.88	32.56	2.86	-46.3	-61.1	3.6	1.51e+00	0	27	104	0	60	40985
2026-01-15 18:05:38.92	32.23	3.07	-45.3	-51.5	8.4	6.32e-02	0	27	0	4194304	60	13547
2026-01-15 18:05:42.95	31.90	3.29	-46.2	-58.8	3.5	0.00e+00	0	27	0	7340032	60	31476
2026-01-15 18:05:46.99	31.56	3.51	-42.8	-45.5	15.0	0.00e+00	0	27	0	10485760	60	6833
2026-01-15 18:05:51.03	31.21	3.73	-41.5	-43.5	17.0	0.00e+00	0	27	0	18874368	56	6809
2026-01-15 18:05:55.07	30.86	3.95	-41.3	-43.2	17.4	0.00e+00	83	26	0	26214400	56	6604
2026-01-15 18:05:59.10	30.51	4.17	-40.3	-42.0	18.6	0.00e+00	0	27	0	33554432	54	6398
2026-01-15 18:06:03.14	30.15	4.40	-40.5	-42.1	18.5	0.00e+00	0	27	0	40894464	54	6524
2026-01-15 18:06:07.17	29.78	4.62	-40.0	-41.5	19.1	0.00e+00	0	27	0	48234496	54	6048
2026-01-15 18:06:11.21	29.41	4.84	-40.1	-41.6	19.0	0.00e+00	39	27	0	56623104	54	6132
2026-01-15 18:06:15.25	29.03	5.07	-40.0	-41.5	19.1	0.00e+00	0	27	0	63963136	54	6083
2026-01-15 18:06:19.29	28.65	5.29	-40.4	-42.0	18.8	0.00e+00	0	27	0	71303168	54	6395
2026-01-15 18:06:23.33	28.26	5.52	-40.6	-42.3	18.5	0.00e+00	0	27	0	78643200	54	6622
2026-01-15 18:06:27.37	27.86	5.75	-40.6	-42.2	18.6	0.00e+00	52	27	0	85983232	54	6567
2026-01-15 18:06:31.40	27.46	5.97	-40.5	-42.1	18.7	0.00e+00	0	27	0	94371840	54	6506
2026-01-15 18:06:35.44	27.04	6.20	-40.6	-42.3	18.6	0.00e+00	0	27	0	101711872	54	6633
2026-01-15 18:06:39.48	26.63	6.43	-40.3	-41.8	19.0	0.00e+00	0	27	0	109051904	54	6315
2026-01-15 18:06:43.52	26.20	6.66	-40.1	-41.6	19.0	0.00e+00	82	27	0	116391936	54	6113
2026-01-15 18:06:47.56	25.77	6.89	-40.1	-41.7	19.2	0.00e+00	0	27	0	124780544	54	6179
2026-01-15 18:06:51.60	25.33	7.12	-40.2	-41.8	19.1	0.00e+00	0	27	0	132120576	54	6290
2026-01-15 18:06:55.63	24.89	7.35	-40.3	-41.9	19.1	0.00e+00	87	27	0	139460608	54	6320
2026-01-15 18:06:59.67	24.44	7.58	-40.4	-41.9	19.1	0.00e+00	0	27	0	146800640	54	6385
2026-01-15 18:07:03.71	23.98	7.81	-40.2	-41.8	19.1	0.00e+00	0	27	0	154140672	54	6261
2026-01-15 18:07:07.75	23.51	8.05	-39.8	-41.2	19.8	0.00e+00	0	27	0	162529280	52	6577
2026-01-15 18:07:11.79	23.04	8.28	-39.5	-40.9	20.1	0.00e+00	51	27	0	169869312	52	6319
2026-01-15 18:07:15.83	22.55	8.51	-39.4	-40.7	20.2	0.00e+00	0	27	0	177209344	52	6240
2026-01-15 18:07:19.87	22.06	8.74	-39.7	-41.0	20.0	0.00e+00	0	27	0	184549376	52	6452
2026-01-15 18:07:23.91	21.56	8.98	-39.5	-40.9	20.1	0.00e+00	0	27	0	192937984	52	6328
2026-01-15 18:07:27.94	21.06	9.21	-39.9	-41.3	19.6	0.00e+00	90	27	0	200278016	52	6687
2026-01-15 18:07:31.98	20.54	9.44	-39.3	-40.6	20.4	0.00e+00	0	27	0	207618048	52	6139
2026-01-15 18:07:36.02	20.02	9.67	-39.1	-40.4	20.6	0.00e+00	0	27	0	214958080	52	6004
2026-01-15 18:07:40.05	19.48	9.90	-39.3	-40.5	20.4	0.00e+00	0	27	0	222298112	52	6095
2026-01-15 18:07:44.09	18.94	10.14	-39.2	-40.5	20.6	0.00e+00	0	27	0	230686720	52	6076
2026-01-15 18:07:48.13	18.39	10.37	-39.5	-40.9	20.2	0.00e+00	1	27	0	238026752	52	6335
2026-01-15 18:07:52.17	17.83	10.60	-39.2	-40.5	20.6	0.00e+00	0	27	0	245366784	52	6044
2026-01-15 18:07:56.21	17.26	10.83	-39.3	-40.6	20.6	0.00e+00	88	27	0	252706816	52	6135
2026-01-15 18:08:00.26	16.68	11.06	-38.8	-39.9	21.0	0.00e+00	0	27	0	261095424	52	5688
2026-01-15 18:08:04.30	16.10	11.29	-39.0	-40.2	20.9	0.00e+00	0	27	0	268435456	50	6612
2026-01-15 18:08:08.34	15.50	11.52	-39.2	-40.5	20.6	0.00e+00	0	27	0	275775488	50	6780
2026-01-15 18:08:12.37	14.90	11.74	-39.1	-40.3	20.8	0.00e+00	50	27	0	283115520	50	6638
2026-01-15 18:08:16.42	14.28	11.97	-39.5	-40.8	20.4	0.00e+00	0	27	0	290455552	50	7042
2026-01-15 18:08:20.46	13.65	12.20	-39.5	-40.9	20.3	0.00e+00	0	27	0	298844160	50	7123
2026-01-15 18:08:24.50	13.02	12.42	-39.2	-40.5	20.8	0.00e+00	85	27	0	306184192	52	6045
2026-01-15 18:08:28.54	12.37	12.64	-39.1	-40.3	20.8	0.00e+00	0	27	0	313524224	52	5961
2026-01-15 18:08:32.58	11.72	12.86	-39.1	-40.4	20.8	0.00e+00	0	27	0	320864256	52	5984
2026-01-15 18:08:36.62	11.05	13.08	-38.7	-39.9	21.2	0.00e+00	0	27	0	329252864	50	6370
2026-01-15 18:08:40.66	10.38	13.30	-38.4	-39.6	21.6	0.00e+00	0	27	0	336592896	50	6109
2026-01-15 18:08:44.70	9.69	13.51	-37.7	-38.7	22.3	0.00e+00	0	27	0	343932928	48	6223
2026-01-15 18:08:48.74	9.00	13.72	-37.7	-38.7	22.4	0.00e+00	0	27	0	351272960	48	6225
2026-01-15 18:08:52.78	8.29	13.93	-37.6	-38.7	22.4	0.00e+00	0	27	0	359661568	48	6179
2026-01-15 18:08:56.81	7.58	14.14	-37.4	-38.4	22.5	0.00e+00	85	27	0	367001600	48	6014
2026-01-15 18:09:00.85	6.85	14.35	-37.2	-38.1	22.8	0.00e+00	0	27	0	374341632	48	5815
2026-01-15 18:09:04.89	6.12	14.55	-38.1	-39.2	21.9	0.00e+00	0	27	0	381681664	48	6552
2026-01-15 18:09:08.93	5.37	14.75	-37.7	-38.8	22.1	0.00e+00	73	27	0	389021696	48	6305
2026-01-15 18:09:12.96	4.61	14.94	-37.6	-38.7	22.4	0.00e+00	90	27	0	397410304	48	6191
2026-01-15 18:09:17.00	3.85	15.13	-36.2	-37.1	23.7	0.00e+00	0	27	0	404750336	46	5796
2026-01-15 18:09:21.04	3.07	15.32	-36.9	-37.9	23.1	0.00e+00	0	27	0	412090368	46	6336
2026-01-15 18:09:25.08	2.29	15.50	-36.8	-37.7	23.2	0.00e+00	17	27	0	419430400	46	6238
2026-01-15 18:09:29.12	1.49	15.68	-37.1	-38.1	22.9	0.00e+00	0	27	0	426770432	46	6490
2026-01-15 18:09:33.16	0.69	15.86	-36.7	-37.7	23.2	0.00e+00	0	27	0	435159040	46	6177
2026-01-15 18:09:37.20	359.87	16.03	-37.0	-38.0	23.0	0.00e+00	0	27	0	442499072	46	6392
2026-01-15 18:09:41.24	359.05	16.19	-36.8	-37.8	23.1	0.00e+00	89	27	0	449839104	46	6253
2026-01-15 18:09:45.27	358.21	16.35	-36.6	-37.5	23.3	0.00e+00	0	27	0	457179136	46	6084
2026-01-15 18:09:49.32	357.37	16.51	-37.3	-38.3	22.4	0.00e+00	0	27	0	465567744	46	6687
2026-01-15 18:09:53.35	356.52	16.66	-36.9	-37.8	23.1	0.00e+00	0	27	0	472907776	48	5601
2026-01-15 18:09:57.39	355.66	16.80	-36.5	-37.4	23.4	0.00e+00	92	27	0	480247808	46	6020
2026-01-15 18:10:01.43	354.79	16.94	-36.1	-37.0	22.8	0.00e+00	32	27	0	487587840	46	5738
2026-01-15 18:10:05.47	353.92	17.07	-35.9	-36.8	23.8	0.00e+00	0	27	0	494927872	44	6260
2026-01-15 18:10:09.50	353.04	17.20	-36.0	-37.0	23.8	0.00e+00	0	27	0	503316480	44	6406
2026-01-15 18:10:13.54	352.15	17.32	-36.8	-37.9	22.9	0.00e+00	0	27	0	510656512	46	6321
2026-01-15 18:10:17.58	351.25	17.43	-36.9	-37.8	23.2	0.00e+00	0	27	0	517996544	46	6305
2026-01-15 18:10:21.62	350.34	17.54	-37.2	-38.2	22.9	0.00e+00	0	27	0	525336576	46	6563
2026-01-15 18:10:25.66	349.43	17.64	-37.0	-37.9	23.1	0.00e+00	88	27	0	533725184	46	6369
2026-01-15 18:10:29.70	348.52	17.73	-37.6	-38.6	22.6	0.00e+00	0	27	0	541065216	46	6866
2026-01-15 18:10:33.73	347.60	17.82	-36.4	-37.3	23.6	0.00e+00	0	27	0	548405248	46	5955
2026-01-15 18:10:37.77	346.67	17.89	-37.0	-38.0	23.1	0.00e+00	0	27	0	555745280	46	6396
2026-01-15 18:10:41.81	345.74	17.96	-36.9	-37.8	23.1	0.00e+00	86	27	0	563085312	46	6268
2026-01-15 18:10:45.84	344.81	18.03	-37.5	-38.5	22.6	0.00e+00	0	27	0	571473920	46	6833
2026-01-15 18:10:49.88	343.87	18.08	-38.6	-39.8	21.5	0.00e+00	0	27	0	578813952	48	7079
2026-01-15 18:10:53.92	342.92	18.13	-38.3	-39.5	21.7	0.00e+00	1	27	0	586153984	50	6054
2026-01-15 18:10:57.96	341.98	18.17	-37.8	-38.9	22.3	0.00e+00	92	27	0	593494016	50	5647
2026-01-15 18:11:02.00	341.03	18.20	-37.4	-38.4	22.6	0.00e+00	0	27	0	601882624	48	6026
2026-01-15 18:11:06.03	340.08	18.22	-37.1	-38.1	22.8	0.00e+00	0	27	0	609222656	48	5799
2026-01-15 18:11:10.07	339.13	18.23	-36.9	-37.9	23.1	0.00e+00	0	27	0	616562688	46	6373
2026-01-15 18:11:14.11	338.18	18.24	-37.1	-38.3	22.8	0.00e+00	0	27	0	623902720	46	6626
2026-01-15 18:11:18.15	337.23	18.24	-37.4	-38.5	22.7	0.00e+00	0	27	0	631242752	46	6814
2026-01-15 18:11:22.19	336.28	18.23	-36.8	-37.8	23.2	0.00e+00	0	27	0	639631360	46	6258
2026-01-15 18:11:26.23	335.33	18.21	-37.3	-38.3	22.8	0.00e+00	90	27	0	646971392	46	6665
2026-01-15 18:11:30.26	334.38	18.18	-38.1	-39.2	21.8	0.00e+00	0	27	0	654311424	48	6558
2026-01-15 18:11:34.30	333.44	18.15	-37.5	-38.5	22.6	0.00e+00	0	27	0	661651456	48	6099
2026-01-15 18:11:38.33	332.49	18.11	-36.8	-37.7	23.2	0.00e+00	41	27	0	670040064	46	6218
2026-01-15 18:11:42.37	331.55	18.06	-37.4	-38.4	22.7	0.00e+00	66	27	0	677380096	46	6738
2026-01-15 18:11:46.41	330.62	18.00	-36.8	-37.7	23.2	0.00e+00	0	27	0	684720128	46	6220
2026-01-15 18:11:50.45	329.68	17.93	-36.8	-37.8	23.3	0.00e+00	0	27	0	692060160	46	6247
2026-01-15 18:11:54.48	328.75	17.86	-36.2	-37.0	23.7	0.00e+00	2	27	0	699400192	46	5759
2026-01-15 18:11:58.52	327.83	17.78	-36.1	-36.9	23.8	0.00e+00	0	27	0	707788800	46	5680
2026-01-15 18:12:02.56	326.91	17.69	-36.1	-37.0	23.8	0.00e+00	0	27	0	715128832	46	5699
2026-01-15 18:12:06.60	325.99	17.60	-36.6	-37.6	23.3	0.00e+00	0	27	0	722468864	46	6116
2026-01-15 18:12:10.64	325.08	17.49	-36.7	-37.6	23.3	0.00e+00	87	27	0	729808896	46	6123
2026-01-15 18:12:14.68	324.18	17.38	-36.9	-37.9	23.1	0.00e+00	0	27	0	738197504	46	6341
2026-01-15 18:12:18.72	323.29	17.27	-37.8	-38.9	22.3	0.00e+00	0	27	0	745537536	48	6328
2026-01-15 18:12:22.76	322.40	17.14	-37.3	-38.2	22.7	0.00e+00	0	27	0	752877568	48	5871
2026-01-15 18:12:26.79	321.52	17.02	-37.3	-38.3	22.8	0.00e+00	85	27	0	760217600	48	5897
2026-01-15 18:12:30.83	320.65	16.88	-37.1	-38.0	22.9	0.00e+00	0	27	0	767557632	48	5736
2026-01-15 18:12:34.86	319.78	16.74	-38.2	-39.3	22.0	0.00e+00	0	27	0	775946240	48	6618
2026-01-15 18:12:38.90	318.93	16.59	-38.1	-39.2	22.1	0.00e+00	0	27	0	783286272	48	6565
2026-01-15 18:12:42.94	318.08	16.44	-37.6	-38.6	22.6	0.00e+00	54	27	0	790626304	48	6128
2026-01-15 18:12:46.98	317.24	16.28	-37.5	-38.4	22.7	0.00e+00	0	27	0	797966336	48	6026
2026-01-15 18:12:51.01	316.41	16.12	-36.9	-37.8	23.0	0.00e+00	0	27	0	805306368	48	5616
2026-01-15 18:12:55.05	315.59	15.95	-36.3	-37.2	23.6	0.00e+00	0	27	0	813694976	46	5878
2026-01-15 18:12:59.09	314.78	15.78	-36.5	-37.3	23.4	0.00e+00	0	27	0	821035008	46	5959
2026-01-15 18:13:03.14	313.97	15.60	-37.4	-38.4	22.6	0.00e+00	0	27	0	828375040	46	6756
2026-01-15 18:13:07.18	313.18	15.42	-38.3	-39.4	21.8	0.00e+00	0	27	0	835715072	48	6768
2026-01-15 18:13:11.22	312.40	15.23	-38.1	-39.1	22.0	0.00e+00	86	27	0	844103680	48	6538
2026-01-15 18:13:15.26	311.63	15.05	-38.6	-39.7	21.6	0.00e+00	0	27	0	851443712	50	6216
2026-01-15 18:13:19.30	310.86	14.85	-38.4	-39.5	21.7	0.00e+00	0	27	0	858783744	50	6050
2026-01-15 18:13:23.34	310.11	14.66	-37.7	-38.8	22.4	0.00e+00	0	27	0	866123776	48	6247
2026-01-15 18:13:27.38	309.37	14.46	-37.2	-38.2	22.8	0.00e+00	61	27	0	874512384	48	5844
2026-01-15 18:13:31.42	308.64	14.25	-37.6	-38.5	22.5	0.00e+00	0	27	0	881852416	48	6081
2026-01-15 18:13:35.45	307.91	14.05	-38.1	-39.2	22.0	0.00e+00	30	27	0	889192448	48	6549
2026-01-15 18:13:39.49	307.20	13.84	-37.6	-38.6	22.5	0.00e+00	73	27	0	896532480	48	6105
2026-01-15 18:13:43.53	306.50	13.63	-37.8	-38.7	22.4	0.00e+00	0	27	0	903872512	48	6232
2026-01-15 18:13:47.57	305.81	13.41	-39.3	-40.5	20.7	0.00e+00	0	27	0	912261120	50	6776
2026-01-15 18:13:51.61	305.13	13.20	-40.7	-42.2	19.4	0.00e+00	0	27	0	919601152	52	7400
2026-01-15 18:13:55.64	304.46	12.98	-39.9	-41.2	20.3	0.00e+00	85	27	0	926941184	54	5864
2026-01-15 18:13:59.68	303.79	12.76	-39.2	-40.4	20.9	0.00e+00	0	27	0	934281216	52	5991
2026-01-15 18:14:03.72	303.14	12.54	-38.5	-39.6	21.6	0.00e+00	0	27	0	941621248	50	6108
2026-01-15 18:14:07.76	302.50	12.32	-38.6	-39.7	21.3	0.00e+00	0	27	0	950009856	50	6211
2026-01-15 18:14:11.80	301.87	12.09	-38.7	-39.8	21.3	0.00e+00	83	27	0	957349888	50	6294
2026-01-15 18:14:15.83	301.25	11.87	-38.2	-39.3	21.9	0.00e+00	0	27	0	964689920	50	5899
2026-01-15 18:14:19.87	300.63	11.64	-38.0	-39.1	22.0	0.00e+00	0	27	0	972029952	50	5774
2026-01-15 18:14:23.91	300.03	11.41	-38.3	-39.3	21.7	0.00e+00	0	27	0	980418560	50	5958
2026-01-15 18:14:27.95	299.44	11.18	-38.6	-39.7	21.3	0.00e+00	0	27	0	987758592	50	6195
2026-01-15 18:14:31.98	298.85	10.95	-38.4	-39.5	21.5	0.00e+00	0	27	0	995098624	50	6098
2026-01-15 18:14:36.02	298.28	10.72	-38.0	-39.1	21.8	0.00e+00	0	27	0	1002438656	50	5804
2026-01-15 18:14:40.06	297.71	10.49	-37.5	-38.5	22.4	0.00e+00	84	27	0	1009778688	48	6076
2026-01-15 18:14:44.10	297.16	10.26	-36.8	-37.7	23.1	0.00e+00	0	27	0	1018167296	48	5530
2026-01-15 18:14:48.14	296.61	10.03	-37.4	-38.4	22.5	0.00e+00	0	27	0	1025507328	46	6697
2026-01-15 18:14:52.18	296.07	9.80	-37.6	-38.6	22.3	0.00e+00	0	27	0	1032847360	46	6862
2026-01-15 18:14:56.22	295.54	9.56	-37.2	-38.1	22.6	0.00e+00	84	27	0	1040187392	46	6517
2026-01-15 18:15:00.26	295.02	9.33	-37.1	-38.0	22.7	0.00e+00	0	27	0	1048576000	46	6451
2026-01-15 18:15:04.30	294.50	9.10	-37.6	-38.6	22.2	7.00e-07	0	27	0	1055916032	46	6919
2026-01-15 18:15:08.33	294.00	8.87	-37.7	-38.8	21.9	0.00e+00	57	27	0	1063256064	48	6264
2026-01-15 18:15:12.37	293.50	8.63	-37.9	-39.0	21.9	0.00e+00	90	27	0	1070596096	48	6424
2026-01-15 18:15:16.41	293.01	8.40	-38.3	-39.5	21.4	0.00e+00	0	27	0	1077936128	48	6779
2026-01-15 18:15:20.44	292.53	8.17	-38.3	-39.4	21.0	0.00e+00	0	27	0	1086324736	48	6769
2026-01-15 18:15:24.48	292.06	7.94	-37.5	-38.5	22.1	0.00e+00	73	27	0	1093664768	48	6071
2026-01-15 18:15:28.52	291.59	7.70	-37.2	-38.2	22.4	0.00e+00	0	27	0	1101004800	48	5830
2026-01-15 18:15:32.56	291.13	7.47	-37.9	-39.0	21.7	0.00e+00	0	27	0	1108344832	48	6447
2026-01-15 18:15:36.60	290.68	7.24	-38.7	-39.9	20.9	0.00e+00	0	27	0	1116733440	48	7116
2026-01-15 18:15:40.65	290.24	7.01	-38.4	-39.6	21.2	0.00e+00	73	27	0	1124073472	50	6135
2026-01-15 18:15:44.69	289.80	6.78	-38.3	-39.4	21.2	0.00e+00	0	27	0	1131413504	50	5997
2026-01-15 18:15:48.72	289.37	6.55	-37.9	-39.0	21.7	0.00e+00	0	27	0	1138753536	50	5702
2026-01-15 18:15:52.76	288.95	6.32	-38.2	-39.3	21.4	0.00e+00	0	27	0	1146093568	50	5915
2026-01-15 18:15:56.80	288.54	6.09	-38.8	-40.0	20.8	0.00e+00	92	27	0	1154482176	50	6399
2026-01-15 18:16:00.83	288.13	5.87	-39.3	-40.6	20.2	0.00e+00	0	27	0	1161822208	50	6875
2026-01-15 18:16:04.86	287.73	5.64	-39.5	-40.9	19.9	0.00e+00	6	27	0	1169162240	50	7106
2026-01-15 18:16:08.90	287.33	5.41	-39.4	-40.7	20.0	0.00e+00	0	27	0	1176502272	50	6973
2026-01-15 18:16:12.94	286.94	5.19	-39.3	-40.6	20.1	0.00e+00	0	27	0	1184890880	50	6870
2026-01-15 18:16:16.98	286.56	4.96	-39.9	-41.3	19.4	0.00e+00	0	27	0	1192230912	52	6681
2026-01-15 18:16:21.01	286.18	4.74	-40.4	-42.1	18.6	0.00e+00	0	27	0	1199570944	52	7265
2026-01-15 18:16:25.05	285.81	4.51	-40.8	-42.5	18.2	0.00e+00	76	27	0	1206910976	54	6843
2026-01-15 18:16:29.09	285.44	4.29	-40.4	-42.0	18.6	0.00e+00	0	27	0	1214251008	54	6414
2026-01-15 18:16:33.13	285.08	4.07	-39.7	-41.1	19.4	0.00e+00	0	27	0	1222639616	54	5828
2026-01-15 18:16:37.17	284.73	3.84	-40.1	-41.7	18.9	0.00e+00	0	27	0	1229979648	52	6971
2026-01-15 18:16:41.20	284.38	3.62	-40.5	-42.3	18.0	0.00e+00	65	27	0	1237319680	52	7434
2026-01-15 18:16:45.24	284.04	3.40	-40.7	-42.5	18.0	0.00e+00	0	27	0	1244659712	54	6787
2026-01-15 18:16:49.28	283.70	3.18	-40.3	-42.0	18.6	0.00e+00	0	27	0	1251999744	54	6407
2026-01-15 18:16:53.32	283.37	2.97	-47.1	-62.2	3.6	1.51e+00	0	27	104	1259339776	60	46813
2026-01-15 18:16:57.36	283.04	2.75	-48.0	-63.2	3.6	1.51e+00	0	27	104	1259339776	60	52163
2026-01-15 18:17:01.40	282.71	2.53	-48.1	-63.3	3.6	1.51e+00	0	27	104	1259339776	60	52650
2026-01-15 18:17:05.44	282.40	2.31	-48.1	-63.3	3.6	1.51e+00	0	27	104	1259339776	60	53009
2026-01-15 18:17:09.47	282.08	2.10	-48.0	-63.2	3.6	1.51e+00	0	27	104	1259339776	60	52147
2026-01-15 18:17:13.51	281.77	1.89	-48.2	-63.4	3.6	1.51e+00	0	27	104	1259339776	60	53172
2026-01-15 18:17:17.55	281.47	1.67	-48.1	-63.3	3.6	1.51e+00	0	27	104	1259339776	60	52684
2026-01-15 18:17:21.59	281.17	1.46	-48.1	-63.2	3.5	1.51e+00	0	27	104	1259339776	60	52378
2026-01-15 18:17:25.63	280.88	1.25	-48.0	-63.2	3.6	1.51e+00	0	27	104	1259339776	60	52384
2026-01-15 18:17:29.66	280.59	1.04	-48.0	-63.2	3.6	1.51e+00	0	27	104	1259339776	60	52318
2026-01-15 18:17:33.70	280.30	0.83	-48.0	-63.2	3.6	1.51e+00	0	27	104	1259339776	60	52537
2026-01-15 18:17:37.74	280.02	0.62	-48.0	-63.2	3.6	1.51e+00	0	27	104	1259339776	60	52130
2026-01-15 18:17:41.77	279.74	0.41	-48.1	-63.2	3.6	1.51e+00	0	27	104	1259339776	60	52192
2026-01-15 18:17:45.81	279.46	0.20	-48.0	-63.2	3.6	1.51e+00	0	27	104	1259339776	60	52302
2026-01-15 18:17:49.85	279.19	-0.01	-48.0	-63.2	3.6	1.51e+00	0	27	104	1259339776	60	52383

#Closed at: 2026-01-15 18:17:52
#Recorded file [1259 MB]: D:/lorett/data/35029_260116_060442.dat