passes_logs/2026/01/15/R4.6S_Anadyr/R4.6S_Anadyr__20260115_024111_SUOMI_NPP_rec.log

#Pass ID: 20260115_024111_SUOMI NPP
#Satellite: SUOMI NPP
#Configuration: NPP
#almurnet v.1.7.20251203
#Start time: 2026-01-15 02:41:12

#Version: 2.2.20231116
#Station: R4.6S_Anadyr
#Location: 177.4865 lon 64.73178 lat
#TLE: 1 37849U 11061A   26014.61059675  .00000037  00000+0  38639-4 0  9994
#TLE: 2 37849  98.7810 316.6625 0002460  64.3781 295.7649 14.19525105736658

#Time	Az	El	Level	Level2	SNR	BER	BlckErr	Temp	State	Recorded	gain1	gain2
2026-01-15 02:41:12.79	219.26	0.06	-49.1	-66.9	3.5	3.02e+01	0	27	0	0	60	84761
2026-01-15 02:41:16.83	219.56	0.26	-48.7	-64.0	3.6	1.51e+00	0	28	104	0	60	57567
2026-01-15 02:41:20.87	219.87	0.45	-48.9	-64.1	3.6	1.51e+00	0	28	104	0	60	58008
2026-01-15 02:41:24.91	220.18	0.66	-48.1	-63.9	3.6	1.51e+00	0	28	104	0	60	56747
2026-01-15 02:41:28.95	220.49	0.86	-47.8	-62.9	3.6	1.51e+00	0	28	104	0	60	50322
2026-01-15 02:41:32.99	220.81	1.06	-46.7	-61.9	3.6	1.51e+00	0	28	104	0	60	44987
2026-01-15 02:41:37.03	221.13	1.26	-46.7	-61.8	3.6	1.51e+00	0	29	104	0	60	44611
2026-01-15 02:41:41.07	221.46	1.46	-46.7	-61.9	3.6	1.51e+00	0	29	104	0	60	44886
2026-01-15 02:41:45.11	221.79	1.67	-46.7	-61.9	3.6	1.51e+00	0	29	104	0	60	44786
2026-01-15 02:41:49.15	222.12	1.87	-46.7	-61.8	3.6	1.51e+00	0	29	104	0	60	44340
2026-01-15 02:41:53.19	222.46	2.08	-46.7	-61.7	3.6	1.51e+00	0	29	104	0	60	43934
2026-01-15 02:41:57.23	222.81	2.28	-46.7	-61.8	3.6	1.51e+00	0	29	104	0	60	44281
2026-01-15 02:42:01.27	223.16	2.49	-46.7	-61.7	3.6	1.51e+00	0	29	104	0	60	43833
2026-01-15 02:42:05.30	223.51	2.70	-46.0	-53.3	6.6	3.02e-01	0	29	0	2097152	60	16807
2026-01-15 02:42:09.34	223.87	2.91	-44.2	-47.9	12.8	5.56e-05	0	29	0	9437184	60	8937
2026-01-15 02:42:13.37	224.23	3.11	-44.1	-47.6	13.7	3.00e-06	0	29	0	16777216	60	8714
2026-01-15 02:42:17.41	224.59	3.32	-45.6	-51.4	9.4	9.15e-05	0	29	0	22020096	60	13470
2026-01-15 02:42:21.44	224.97	3.53	-44.3	-47.9	13.1	1.67e-05	0	29	0	29360128	60	8940
2026-01-15 02:42:25.48	225.34	3.74	-44.6	-48.4	12.6	9.15e-05	0	29	0	36700160	60	9510
2026-01-15 02:42:29.52	225.73	3.96	-44.7	-48.7	12.3	1.79e-04	0	29	0	44040192	60	9823
2026-01-15 02:42:33.56	226.12	4.17	-44.8	-48.8	12.3	2.04e-04	0	29	0	51380224	60	9932
2026-01-15 02:42:37.59	226.51	4.38	-44.7	-48.6	12.4	2.33e-04	0	29	0	59768832	60	9719
2026-01-15 02:42:41.63	226.91	4.59	-44.6	-48.4	12.5	8.62e-05	0	29	0	67108864	60	9507
2026-01-15 02:42:45.67	227.31	4.81	-44.7	-48.5	12.6	6.71e-05	0	29	0	74448896	60	9604
2026-01-15 02:42:49.70	227.72	5.02	-44.9	-48.8	12.4	8.62e-05	0	29	0	81788928	60	9941
2026-01-15 02:42:53.74	228.14	5.23	-44.8	-48.5	12.7	9.00e-05	0	29	0	89128960	60	9645
2026-01-15 02:42:57.77	228.56	5.45	-44.7	-48.4	12.8	5.41e-05	0	29	0	97517568	60	9551
2026-01-15 02:43:01.82	228.99	5.67	-44.8	-48.5	12.9	4.34e-05	0	29	0	104857600	60	9598
2026-01-15 02:43:05.85	229.42	5.88	-45.2	-49.3	12.0	3.07e-04	0	29	0	112197632	60	10564
2026-01-15 02:43:09.89	229.86	6.10	-45.4	-49.5	11.9	2.04e-04	0	29	0	119537664	60	10832
2026-01-15 02:43:13.93	230.31	6.31	-45.5	-49.8	11.6	5.35e-04	0	29	0	127926272	60	11194
2026-01-15 02:43:17.96	230.76	6.53	-45.5	-49.8	11.8	4.48e-04	0	29	0	135266304	60	11136
2026-01-15 02:43:22.00	231.22	6.75	-45.6	-49.7	12.0	3.79e-04	0	29	0	142606336	60	11001
2026-01-15 02:43:26.04	231.69	6.97	-45.3	-49.1	12.6	1.36e-04	0	29	0	149946368	60	10261
2026-01-15 02:43:30.08	232.16	7.19	-45.1	-48.6	13.1	2.82e-05	0	29	0	157286400	60	9763
2026-01-15 02:43:34.12	232.64	7.40	-45.2	-49.0	12.9	4.88e-05	0	29	0	165675008	60	10158
2026-01-15 02:43:38.15	233.13	7.62	-45.1	-48.6	13.3	2.21e-05	0	29	0	173015040	60	9739
2026-01-15 02:43:42.19	233.62	7.84	-44.9	-48.2	13.7	6.10e-06	0	29	0	180355072	60	9335
2026-01-15 02:43:46.23	234.12	8.06	-44.9	-48.2	13.7	6.80e-06	0	29	0	187695104	60	9252
2026-01-15 02:43:50.27	234.63	8.28	-44.8	-48.0	14.0	1.50e-06	0	29	0	196083712	60	9130
2026-01-15 02:43:54.31	235.15	8.50	-44.6	-47.6	14.4	1.50e-06	0	29	0	203423744	60	8712
2026-01-15 02:43:58.34	235.67	8.71	-44.5	-47.4	14.5	0.00e+00	0	29	0	210763776	60	8475
2026-01-15 02:44:02.38	236.20	8.93	-44.1	-46.8	15.3	0.00e+00	0	29	0	218103808	60	7932
2026-01-15 02:44:06.42	236.74	9.15	-43.7	-46.0	16.2	0.00e+00	0	29	0	225443840	60	7215
2026-01-15 02:44:10.46	237.29	9.37	-43.3	-45.6	16.5	0.00e+00	0	29	0	233832448	60	6851
2026-01-15 02:44:14.49	237.84	9.59	-43.1	-45.3	16.9	0.00e+00	0	29	0	241172480	60	6648
2026-01-15 02:44:18.53	238.40	9.80	-42.6	-44.5	17.5	0.00e+00	0	29	0	248512512	58	6777
2026-01-15 02:44:22.57	238.97	10.02	-42.3	-44.1	17.9	0.00e+00	0	29	0	255852544	58	6479
2026-01-15 02:44:26.60	239.55	10.23	-41.9	-43.6	18.5	0.00e+00	0	29	0	264241152	58	6135
2026-01-15 02:44:30.63	240.14	10.45	-41.7	-43.3	18.8	0.00e+00	0	29	0	271581184	56	6641
2026-01-15 02:44:34.66	240.73	10.66	-41.5	-43.0	19.0	0.00e+00	0	29	0	278921216	56	6431
2026-01-15 02:44:38.69	241.33	10.88	-40.6	-42.0	19.9	0.00e+00	0	29	0	286261248	54	6415
2026-01-15 02:44:42.73	241.95	11.09	-39.9	-41.2	20.7	0.00e+00	0	30	0	293601280	54	5842
2026-01-15 02:44:46.76	242.57	11.30	-39.7	-40.9	21.0	0.00e+00	0	29	0	301989888	52	6362
2026-01-15 02:44:50.80	243.20	11.51	-38.5	-39.5	22.2	0.00e+00	0	29	0	309329920	50	6048
2026-01-15 02:44:54.83	243.83	11.72	-38.1	-39.0	22.6	0.00e+00	0	29	0	316669952	50	5742
2026-01-15 02:44:58.87	244.48	11.93	-38.3	-39.3	22.4	0.00e+00	0	29	0	324009984	50	5939
2026-01-15 02:45:02.90	245.13	12.13	-38.1	-39.1	22.7	0.00e+00	0	29	0	331350016	50	5770
2026-01-15 02:45:06.94	245.80	12.34	-37.9	-38.8	22.9	0.00e+00	0	29	0	339738624	50	5604
2026-01-15 02:45:10.98	246.47	12.54	-37.7	-38.7	23.0	0.00e+00	0	29	0	347078656	48	6182
2026-01-15 02:45:15.01	247.15	12.74	-38.1	-39.0	22.7	0.00e+00	0	29	0	354418688	48	6442
2026-01-15 02:45:19.06	247.85	12.94	-38.2	-39.2	22.6	0.00e+00	0	29	0	361758720	48	6559
2026-01-15 02:45:23.09	248.55	13.13	-38.1	-39.1	22.8	0.00e+00	0	29	0	370147328	48	6474
2026-01-15 02:45:27.13	249.26	13.33	-37.9	-38.8	22.9	0.00e+00	0	29	0	377487360	48	6277
2026-01-15 02:45:31.16	249.97	13.52	-38.5	-39.6	22.3	0.00e+00	0	29	0	384827392	48	6854
2026-01-15 02:45:35.20	250.70	13.71	-38.8	-39.8	22.2	0.00e+00	0	29	0	392167424	50	6258
2026-01-15 02:45:39.24	251.44	13.89	-39.0	-40.1	21.9	0.00e+00	0	29	0	399507456	50	6475
2026-01-15 02:45:43.28	252.18	14.07	-39.4	-40.4	21.7	0.00e+00	0	29	0	407896064	52	6027
2026-01-15 02:45:47.32	252.94	14.25	-38.9	-39.9	21.9	0.00e+00	0	29	0	415236096	52	5674
2026-01-15 02:45:51.36	253.70	14.43	-38.8	-39.9	22.1	0.00e+00	0	29	0	422576128	52	5648
2026-01-15 02:45:55.39	254.47	14.60	-39.1	-40.1	21.9	0.00e+00	0	29	0	429916160	52	5814
2026-01-15 02:45:59.43	255.25	14.77	-39.4	-40.5	21.6	0.00e+00	0	29	0	438304768	52	6103
2026-01-15 02:46:03.47	256.04	14.94	-39.0	-40.0	22.1	0.00e+00	0	29	0	445644800	52	5736
2026-01-15 02:46:07.51	256.84	15.10	-39.4	-40.5	21.6	0.00e+00	0	29	0	452984832	52	6071
2026-01-15 02:46:11.54	257.64	15.25	-39.6	-40.7	21.4	0.00e+00	0	29	0	460324864	52	6214
2026-01-15 02:46:15.58	258.46	15.41	-40.0	-41.2	21.0	0.00e+00	0	29	0	467664896	52	6596
2026-01-15 02:46:19.62	259.28	15.55	-39.3	-40.3	21.8	0.00e+00	0	29	0	476053504	52	5947
2026-01-15 02:46:23.65	260.11	15.70	-39.3	-40.3	21.7	0.00e+00	0	29	0	483393536	52	5961
2026-01-15 02:46:27.69	260.94	15.84	-39.4	-40.5	21.5	0.00e+00	0	29	0	490733568	52	6089
2026-01-15 02:46:31.72	261.79	15.97	-39.2	-40.3	21.7	0.00e+00	0	29	0	498073600	52	5924
2026-01-15 02:46:35.75	262.64	16.10	-38.5	-39.5	22.5	0.00e+00	0	29	0	506462208	50	6073
2026-01-15 02:46:39.79	263.50	16.22	-37.9	-38.8	22.9	0.00e+00	0	29	0	513802240	50	5612
2026-01-15 02:46:43.82	264.36	16.34	-38.1	-39.0	22.8	0.00e+00	0	29	0	521142272	50	5735
2026-01-15 02:46:47.86	265.23	16.45	-38.0	-38.9	22.9	0.00e+00	0	29	0	528482304	50	5671
2026-01-15 02:46:51.89	266.11	16.56	-39.1	-40.1	21.9	0.00e+00	0	29	0	535822336	50	6514
2026-01-15 02:46:55.93	266.99	16.66	-39.1	-40.2	21.8	0.00e+00	0	29	0	544210944	50	6581
2026-01-15 02:46:59.96	267.88	16.75	-38.3	-39.2	22.7	0.00e+00	0	29	0	551550976	50	5895
2026-01-15 02:47:03.99	268.77	16.84	-37.7	-38.6	23.1	0.00e+00	0	29	0	558891008	48	6121
2026-01-15 02:47:08.03	269.67	16.92	-38.5	-39.5	22.3	0.00e+00	0	29	0	566231040	48	6842
2026-01-15 02:47:12.07	270.57	16.99	-38.4	-39.4	22.6	0.00e+00	0	29	0	573571072	48	6700
2026-01-15 02:47:16.10	271.48	17.06	-38.6	-39.6	22.4	0.00e+00	0	29	0	581959680	50	6145
2026-01-15 02:47:20.14	272.39	17.12	-37.7	-38.6	23.2	0.00e+00	0	29	0	589299712	48	6129
2026-01-15 02:47:24.18	273.30	17.18	-38.3	-39.3	22.6	0.00e+00	0	29	0	596639744	48	6672
2026-01-15 02:47:28.21	274.22	17.22	-37.9	-38.8	23.0	0.00e+00	0	29	0	603979776	48	6273
2026-01-15 02:47:32.25	275.14	17.26	-39.5	-40.6	21.5	0.00e+00	0	29	0	611319808	50	6885
2026-01-15 02:47:36.29	276.06	17.30	-39.5	-40.6	21.5	0.00e+00	0	29	0	619708416	50	6906
2026-01-15 02:47:40.33	276.99	17.33	-39.9	-41.1	21.3	0.00e+00	0	29	0	627048448	52	6476
2026-01-15 02:47:44.37	277.91	17.34	-39.3	-40.4	21.8	0.00e+00	0	30	0	634388480	52	5990
2026-01-15 02:47:48.40	278.84	17.36	-38.9	-40.0	22.0	0.00e+00	0	29	0	641728512	52	5702
2026-01-15 02:47:52.43	279.76	17.36	-39.2	-40.2	22.0	0.00e+00	0	29	0	650117120	50	6606
2026-01-15 02:47:56.47	280.69	17.36	-38.9	-39.9	22.2	0.00e+00	0	30	0	657457152	50	6387
2026-01-15 02:48:00.51	281.61	17.35	-38.9	-39.9	22.2	0.00e+00	0	29	0	664797184	50	6375
2026-01-15 02:48:04.55	282.54	17.34	-38.7	-39.7	22.2	0.00e+00	0	29	0	672137216	50	6174
2026-01-15 02:48:08.58	283.46	17.31	-38.2	-39.1	22.8	0.00e+00	0	29	0	679477248	50	5821
2026-01-15 02:48:12.61	284.38	17.28	-38.4	-39.4	22.5	0.00e+00	0	29	0	687865856	50	6001
2026-01-15 02:48:16.65	285.30	17.24	-39.2	-40.3	21.9	0.00e+00	0	29	0	695205888	50	6630
2026-01-15 02:48:20.68	286.22	17.20	-39.1	-40.2	21.9	0.00e+00	0	29	0	702545920	50	6583
2026-01-15 02:48:24.72	287.13	17.15	-39.4	-40.5	21.7	0.00e+00	0	29	0	709885952	50	6791
2026-01-15 02:48:28.76	288.05	17.09	-39.4	-40.5	21.5	0.00e+00	0	29	0	718274560	50	6788
2026-01-15 02:48:32.79	288.95	17.03	-38.1	-39.0	22.8	0.00e+00	0	29	0	725614592	50	5727
2026-01-15 02:48:36.83	289.86	16.95	-37.7	-38.7	23.1	0.00e+00	0	29	0	732954624	48	6175
2026-01-15 02:48:40.87	290.76	16.88	-38.3	-39.3	22.6	0.00e+00	0	29	0	740294656	48	6646
2026-01-15 02:48:44.90	291.65	16.79	-38.7	-39.7	22.1	0.00e+00	0	30	0	747634688	50	6184
2026-01-15 02:48:48.94	292.54	16.70	-38.4	-39.3	22.6	0.00e+00	0	29	0	756023296	50	5948
2026-01-15 02:48:52.98	293.42	16.61	-37.9	-38.9	23.1	0.00e+00	0	29	0	763363328	48	6318
2026-01-15 02:48:57.01	294.30	16.50	-37.7	-38.6	23.2	0.00e+00	0	29	0	770703360	48	6129
2026-01-15 02:49:01.05	295.17	16.39	-37.7	-38.6	23.2	0.00e+00	0	29	0	778043392	48	6137
2026-01-15 02:49:05.08	296.03	16.28	-37.7	-38.7	23.1	0.00e+00	0	29	0	786432000	48	6192
2026-01-15 02:49:09.12	296.89	16.16	-37.6	-38.5	23.3	0.00e+00	0	29	0	793772032	48	6044
2026-01-15 02:49:13.16	297.75	16.04	-37.7	-38.6	23.0	0.00e+00	0	29	0	801112064	48	6165
2026-01-15 02:49:17.19	298.59	15.91	-37.2	-38.1	23.6	0.00e+00	0	29	0	808452096	48	5782
2026-01-15 02:49:21.23	299.43	15.77	-36.8	-37.6	23.9	0.00e+00	0	29	0	815792128	46	6150
2026-01-15 02:49:25.27	300.26	15.63	-37.4	-38.3	23.4	0.00e+00	0	29	0	824180736	46	6686
2026-01-15 02:49:29.30	301.08	15.48	-37.1	-38.0	23.7	0.00e+00	0	29	0	831520768	46	6414
2026-01-15 02:49:33.33	301.89	15.34	-37.6	-38.6	23.2	0.00e+00	0	29	0	838860800	46	6858
2026-01-15 02:49:37.37	302.70	15.18	-37.5	-38.4	23.2	0.00e+00	0	29	0	846200832	48	6001
2026-01-15 02:49:41.40	303.50	15.02	-37.2	-38.0	23.5	0.00e+00	0	29	0	853540864	48	5749
2026-01-15 02:49:45.44	304.29	14.86	-37.5	-38.4	23.2	0.00e+00	0	29	0	861929472	48	6008
2026-01-15 02:49:49.48	305.07	14.69	-37.5	-38.5	23.3	0.00e+00	0	29	0	869269504	48	6039
2026-01-15 02:49:53.51	305.84	14.53	-37.8	-38.7	23.0	0.00e+00	0	29	0	876609536	48	6231
2026-01-15 02:49:57.55	306.60	14.35	-38.9	-40.0	21.9	0.00e+00	0	29	0	883949568	50	6427
2026-01-15 02:50:01.58	307.36	14.18	-38.7	-39.8	22.1	0.00e+00	0	29	0	892338176	50	6270
2026-01-15 02:50:05.62	308.10	14.00	-38.5	-39.5	22.4	0.00e+00	0	29	0	899678208	50	6063
2026-01-15 02:50:09.65	308.84	13.81	-39.1	-40.2	21.8	0.00e+00	0	29	0	907018240	50	6547
2026-01-15 02:50:13.69	309.57	13.63	-39.0	-40.0	21.9	0.00e+00	0	29	0	914358272	50	6434
2026-01-15 02:50:17.73	310.29	13.44	-38.9	-40.0	21.9	0.00e+00	0	29	0	921698304	50	6410
2026-01-15 02:50:21.76	311.00	13.25	-39.3	-40.4	21.4	0.00e+00	0	29	0	930086912	50	6767
2026-01-15 02:50:25.80	311.70	13.06	-39.9	-41.1	21.0	0.00e+00	0	29	0	937426944	52	6472
2026-01-15 02:50:29.83	312.39	12.86	-40.0	-41.2	20.9	0.00e+00	0	29	0	944766976	52	6579
2026-01-15 02:50:33.87	313.08	12.66	-38.7	-39.8	22.1	0.00e+00	0	29	0	952107008	52	5595
2026-01-15 02:50:37.90	313.75	12.46	-38.9	-40.0	22.0	0.00e+00	0	29	0	959447040	50	6402
2026-01-15 02:50:41.94	314.42	12.26	-39.2	-40.3	21.5	0.00e+00	0	29	0	967835648	50	6645
2026-01-15 02:50:45.98	315.08	12.06	-39.5	-40.7	21.2	0.00e+00	0	29	0	975175680	50	6937
2026-01-15 02:50:50.01	315.73	11.85	-40.0	-41.2	20.8	0.00e+00	0	29	0	982515712	52	6605
2026-01-15 02:50:54.05	316.37	11.65	-39.7	-40.9	21.1	0.00e+00	0	29	0	989855744	52	6356
2026-01-15 02:50:58.09	317.00	11.44	-39.5	-40.6	21.3	0.00e+00	0	29	0	998244352	52	6154
2026-01-15 02:51:02.13	317.62	11.23	-38.8	-39.9	21.8	0.00e+00	0	29	0	1005584384	52	5663
2026-01-15 02:51:06.16	318.23	11.02	-38.4	-39.5	22.2	0.00e+00	0	29	0	1012924416	50	6047
2026-01-15 02:51:10.20	318.84	10.81	-38.7	-39.8	21.8	0.00e+00	0	30	0	1020264448	50	6266
2026-01-15 02:51:14.23	319.44	10.60	-38.6	-39.7	22.1	0.00e+00	0	30	0	1027604480	50	6208
2026-01-15 02:51:18.27	320.02	10.39	-38.4	-39.5	22.2	0.00e+00	0	29	0	1035993088	50	6049
2026-01-15 02:51:22.29	320.60	10.17	-38.6	-39.7	22.0	0.00e+00	0	29	0	1043333120	50	6188
2026-01-15 02:51:26.33	321.18	9.96	-38.6	-39.7	21.8	0.00e+00	0	30	0	1050673152	50	6187
2026-01-15 02:51:30.37	321.74	9.74	-38.0	-39.0	22.6	0.00e+00	0	30	0	1058013184	50	5708
2026-01-15 02:51:34.40	322.30	9.53	-37.6	-38.6	22.9	0.00e+00	0	30	0	1065353216	48	6121
2026-01-15 02:51:38.43	322.84	9.31	-38.1	-39.1	22.3	0.00e+00	0	29	0	1073741824	48	6516
2026-01-15 02:51:42.47	323.38	9.10	-38.4	-39.4	22.1	0.00e+00	0	30	0	1081081856	48	6762
2026-01-15 02:51:46.50	323.92	8.88	-39.0	-40.1	21.5	0.00e+00	0	30	0	1088421888	50	6535
2026-01-15 02:51:50.54	324.44	8.67	-38.9	-40.0	21.5	0.00e+00	0	29	0	1095761920	50	6422
2026-01-15 02:51:54.57	324.96	8.45	-38.7	-39.8	21.7	0.00e+00	0	30	0	1104150528	50	6270
2026-01-15 02:51:58.60	325.47	8.23	-38.2	-39.2	22.2	0.00e+00	0	29	0	1111490560	50	5872
2026-01-15 02:52:02.64	325.97	8.02	-38.7	-39.8	21.7	0.00e+00	0	29	0	1118830592	50	6280
2026-01-15 02:52:06.68	326.47	7.80	-39.2	-40.3	21.2	0.00e+00	0	30	0	1126170624	50	6681
2026-01-15 02:52:10.72	326.96	7.58	-39.1	-40.3	21.1	0.00e+00	0	29	0	1133510656	50	6639
2026-01-15 02:52:14.75	327.44	7.37	-39.5	-40.7	20.8	0.00e+00	0	30	0	1141899264	50	7002
2026-01-15 02:52:18.78	327.92	7.15	-39.9	-41.2	20.3	0.00e+00	0	30	0	1149239296	52	6565
2026-01-15 02:52:22.82	328.39	6.94	-40.3	-41.7	19.9	0.00e+00	0	30	0	1156579328	52	7000
2026-01-15 02:52:26.85	328.85	6.72	-40.0	-41.4	20.2	0.00e+00	0	29	0	1163919360	52	6714
2026-01-15 02:52:30.89	329.30	6.51	-40.4	-41.9	19.7	0.00e+00	0	30	0	1172307968	52	7092
2026-01-15 02:52:34.93	329.75	6.29	-40.7	-42.1	19.5	0.00e+00	0	30	0	1179648000	52	7322
2026-01-15 02:52:38.97	330.20	6.08	-40.3	-41.7	19.8	0.00e+00	0	30	0	1186988032	54	6189
2026-01-15 02:52:43.00	330.63	5.86	-39.7	-40.9	20.5	0.00e+00	0	30	0	1194328064	52	6367
2026-01-15 02:52:47.05	331.07	5.65	-39.8	-41.1	20.2	0.00e+00	0	30	0	1201668096	52	6474
2026-01-15 02:52:51.08	331.49	5.44	-40.8	-42.3	19.0	0.00e+00	0	30	0	1210056704	54	6669
2026-01-15 02:52:55.12	331.91	5.22	-42.3	-44.3	17.2	0.00e+00	0	30	0	1217396736	56	7446
2026-01-15 02:52:59.16	332.32	5.01	-42.6	-44.8	16.5	0.00e+00	0	30	0	1224736768	56	7924
2026-01-15 02:53:03.19	332.73	4.80	-43.0	-45.8	14.7	7.00e-07	0	30	0	1232076800	58	7914
2026-01-15 02:53:07.23	333.13	4.59	-43.8	-49.0	9.8	3.86e-03	0	30	0	1239416832	58	11414
2026-01-15 02:53:11.26	333.53	4.38	-43.9	-52.3	5.2	3.76e-01	0	30	0	1247805440	60	14879
2026-01-15 02:53:15.30	333.92	4.17	-43.7	-56.7	3.7	1.49e+00	0	30	104	1250951168	60	24660
2026-01-15 02:53:19.33	334.31	3.96	-43.6	-58.0	3.6	1.51e+00	0	30	104	1250951168	60	28736
2026-01-15 02:53:23.37	334.69	3.75	-43.7	-58.7	3.6	1.51e+00	0	30	104	1250951168	60	31032
2026-01-15 02:53:27.41	335.06	3.54	-43.8	-58.9	3.6	1.51e+00	0	30	104	1250951168	60	31799
2026-01-15 02:53:31.44	335.43	3.33	-43.9	-59.0	3.6	1.51e+00	0	30	104	1250951168	60	32161
2026-01-15 02:53:35.47	335.80	3.13	-43.8	-59.0	3.6	1.51e+00	0	30	104	1250951168	60	32138
2026-01-15 02:53:39.51	336.16	2.92	-48.1	-63.3	3.6	1.51e+00	0	30	104	1250951168	60	52870
2026-01-15 02:53:43.55	336.52	2.71	-48.8	-64.0	3.6	1.51e+00	0	30	104	1250951168	60	57371
2026-01-15 02:53:47.59	336.87	2.51	-48.5	-64.0	3.6	1.51e+00	0	30	104	1250951168	60	57529
2026-01-15 02:53:51.62	337.21	2.31	-48.8	-64.0	3.6	1.51e+00	0	30	104	1250951168	60	57571
2026-01-15 02:53:55.66	337.56	2.10	-48.9	-64.1	3.6	1.51e+00	0	30	104	1250951168	60	57792
2026-01-15 02:53:59.70	337.90	1.90	-48.9	-64.0	3.6	1.51e+00	0	30	104	1250951168	60	57480
2026-01-15 02:54:03.74	338.23	1.70	-48.8	-64.0	3.6	1.51e+00	0	30	104	1250951168	60	57377
2026-01-15 02:54:07.77	338.56	1.50	-48.8	-64.0	3.6	1.51e+00	0	30	104	1250951168	60	57225
2026-01-15 02:54:11.81	338.88	1.29	-48.8	-64.0	3.6	1.51e+00	0	30	104	1250951168	60	57050
2026-01-15 02:54:15.85	339.21	1.09	-48.8	-64.0	3.6	1.51e+00	0	30	104	1250951168	60	57043
2026-01-15 02:54:19.88	339.52	0.89	-48.8	-63.9	3.6	1.51e+00	0	30	104	1250951168	60	56886
2026-01-15 02:54:23.92	339.84	0.70	-48.8	-63.9	3.6	1.51e+00	0	30	104	1250951168	60	56868
2026-01-15 02:54:27.96	340.15	0.50	-48.8	-63.9	3.6	1.51e+00	0	30	104	1250951168	60	56773
2026-01-15 02:54:32.00	340.45	0.30	-48.8	-63.9	3.6	1.51e+00	0	30	104	1250951168	60	56931
2026-01-15 02:54:36.04	340.75	0.10	-48.8	-63.9	3.6	1.51e+00	0	30	104	1250951168	60	56868

#Closed at: 2026-01-15 02:54:38
#Recorded file [1250 MB]: D:/lorett/data/35029_260115_144112.dat