passes_logs/2026/01/15/R4.6S_Anadyr/R4.6S_Anadyr__20260115_172352_FENGYUN_3D_rec.log

#Pass ID: 20260115_172352_FENGYUN 3D
#Satellite: FENGYUN 3D
#Configuration: FENGYUN 3D
#almurnet v.1.7.20251203
#Start time: 2026-01-15 17:23:53

#Version: 2.2.20231116
#Station: R4.6S_Anadyr
#Location: 177.4865 lon 64.73178 lat
#TLE: 1 43010U 17072A   26014.65117763 -.00000217  00000+0 -80772-4 0  9993
#TLE: 2 43010  98.9933 346.4618 0002330 108.4699 251.6730 14.19694700423204

#Time	Az	El	Level	Level2	SNR	BER	BlckErr	Temp	State	Recorded	gain1	gain2
2026-01-15 17:23:53.14	22.49	0.05	-48.4	-66.2	3.5	3.02e+01	0	25	0	0	60	78678
2026-01-15 17:23:57.19	22.45	0.30	-48.2	-60.3	3.6	8.46e-01	0	26	104	0	60	37424
2026-01-15 17:24:01.23	22.40	0.54	-48.1	-60.2	3.6	8.45e-01	0	26	104	0	60	36840
2026-01-15 17:24:05.27	22.35	0.79	-46.9	-59.5	3.6	8.47e-01	0	26	104	0	60	34206
2026-01-15 17:24:09.32	22.30	1.03	-46.5	-58.6	3.6	8.44e-01	0	27	104	0	60	30802
2026-01-15 17:24:13.36	22.25	1.28	-46.5	-58.4	3.6	8.45e-01	0	27	104	0	60	30050
2026-01-15 17:24:17.40	22.20	1.53	-46.4	-57.7	3.6	8.44e-01	0	27	104	0	60	27671
2026-01-15 17:24:21.44	22.14	1.79	-46.4	-58.4	3.6	8.45e-01	0	27	104	0	60	29999
2026-01-15 17:24:25.48	22.09	2.04	-46.5	-58.5	3.6	8.46e-01	0	27	104	0	60	30378
2026-01-15 17:24:29.52	22.03	2.30	-46.4	-57.4	3.6	8.45e-01	0	27	104	0	60	26854
2026-01-15 17:24:33.55	21.98	2.56	-46.2	-55.8	3.8	8.42e-01	0	27	104	0	60	22252
2026-01-15 17:24:37.59	21.92	2.82	-46.0	-53.2	4.1	8.32e-01	0	27	0	0	60	16510
2026-01-15 17:24:41.63	21.86	3.09	-42.4	-44.7	12.8	2.32e-04	0	27	0	16777216	58	6952
2026-01-15 17:24:45.67	21.80	3.36	-38.8	-40.1	17.5	0.00e+00	0	27	0	39845888	52	5793
2026-01-15 17:24:49.71	21.73	3.63	-39.7	-41.2	16.3	0.00e+00	0	27	0	62914560	50	7351
2026-01-15 17:24:53.75	21.67	3.90	-46.2	-55.2	3.4	0.00e+00	0	27	0	77594624	60	20871
2026-01-15 17:24:57.78	21.60	4.17	-35.2	-36.0	21.7	0.00e+00	0	27	0	85983232	44	5742
2026-01-15 17:25:01.82	21.53	4.45	-35.1	-35.9	21.8	0.00e+00	0	27	0	109051904	44	5687
2026-01-15 17:25:05.85	21.47	4.73	-34.9	-35.7	22.1	0.00e+00	0	27	0	131072000	42	6185
2026-01-15 17:25:09.89	21.39	5.02	-34.9	-35.7	22.0	0.00e+00	0	27	0	154140672	42	6223
2026-01-15 17:25:13.92	21.32	5.30	-34.6	-35.4	22.3	0.00e+00	0	27	0	177209344	42	6010
2026-01-15 17:25:17.96	21.25	5.59	-34.7	-35.5	22.4	0.00e+00	0	27	0	200278016	42	6037
2026-01-15 17:25:22.00	21.17	5.89	-34.4	-35.2	22.7	0.00e+00	0	27	0	222298112	42	5860
2026-01-15 17:25:26.04	21.09	6.18	-34.5	-35.3	22.6	0.00e+00	0	27	0	245366784	42	5907
2026-01-15 17:25:30.07	21.01	6.48	-34.4	-35.1	22.8	0.00e+00	0	27	0	267386880	42	5805
2026-01-15 17:25:34.11	20.93	6.79	-34.3	-35.1	22.9	0.00e+00	0	27	0	290455552	42	5763
2026-01-15 17:25:38.15	20.85	7.09	-34.1	-34.8	23.1	0.00e+00	0	27	0	313524224	42	5606
2026-01-15 17:25:42.19	20.76	7.41	-34.1	-34.8	23.2	0.00e+00	0	27	0	335544320	42	5630
2026-01-15 17:25:46.23	20.67	7.72	-33.7	-34.4	23.6	0.00e+00	0	27	0	358612992	40	5983
2026-01-15 17:25:50.27	20.58	8.04	-33.6	-34.3	23.7	0.00e+00	0	27	0	381681664	40	5931
2026-01-15 17:25:54.31	20.49	8.36	-33.4	-34.1	23.8	0.00e+00	0	27	0	404750336	40	5804
2026-01-15 17:25:58.35	20.39	8.69	-33.3	-34.0	24.1	0.00e+00	0	27	0	426770432	40	5735
2026-01-15 17:26:02.38	20.29	9.02	-33.0	-33.7	24.3	0.00e+00	0	27	0	449839104	40	5543
2026-01-15 17:26:06.42	20.19	9.35	-32.9	-33.6	24.4	0.00e+00	0	27	0	471859200	40	5472
2026-01-15 17:26:10.46	20.09	9.69	-33.0	-33.6	24.4	0.00e+00	0	27	0	494927872	40	5500
2026-01-15 17:26:14.49	19.98	10.04	-32.8	-33.5	24.6	0.00e+00	0	27	0	517996544	38	6044
2026-01-15 17:26:18.53	19.87	10.38	-32.7	-33.4	24.5	0.00e+00	0	27	0	540016640	38	5992
2026-01-15 17:26:22.57	19.76	10.74	-32.6	-33.3	24.7	0.00e+00	0	27	0	563085312	38	5913
2026-01-15 17:26:26.61	19.64	11.10	-32.4	-33.1	24.9	0.00e+00	0	27	0	586153984	38	5780
2026-01-15 17:26:30.64	19.52	11.46	-32.4	-33.1	25.0	0.00e+00	0	27	0	608174080	38	5790
2026-01-15 17:26:34.68	19.40	11.83	-32.4	-33.1	25.0	0.00e+00	0	27	0	631242752	38	5795
2026-01-15 17:26:38.72	19.27	12.20	-32.3	-32.9	25.2	0.00e+00	0	27	0	654311424	38	5689
2026-01-15 17:26:42.76	19.14	12.58	-32.2	-32.8	25.2	0.00e+00	0	27	0	676331520	38	5612
2026-01-15 17:26:46.81	19.01	12.97	-32.2	-32.9	25.3	0.00e+00	0	27	0	699400192	38	5642
2026-01-15 17:26:50.85	18.87	13.36	-32.4	-33.0	25.1	0.00e+00	0	27	0	722468864	38	5750
2026-01-15 17:26:54.88	18.73	13.76	-32.1	-32.8	25.3	0.00e+00	0	27	0	744488960	38	5587
2026-01-15 17:26:58.92	18.58	14.17	-31.9	-32.6	25.6	0.00e+00	0	27	0	767557632	38	5440
2026-01-15 17:27:02.97	18.43	14.58	-31.8	-32.4	25.7	0.00e+00	0	27	0	790626304	38	5361
2026-01-15 17:27:07.01	18.27	15.00	-31.8	-32.5	25.7	0.00e+00	0	27	0	813694976	36	6043
2026-01-15 17:27:11.04	18.11	15.42	-31.6	-32.2	25.9	0.00e+00	0	27	0	835715072	36	5878
2026-01-15 17:27:15.08	17.95	15.86	-31.3	-32.0	26.0	0.00e+00	0	27	0	858783744	36	5736
2026-01-15 17:27:19.12	17.77	16.30	-31.2	-31.9	26.2	0.00e+00	0	27	0	880803840	36	5645
2026-01-15 17:27:23.15	17.60	16.74	-31.1	-31.7	26.3	0.00e+00	0	27	0	903872512	36	5510
2026-01-15 17:27:27.19	17.41	17.20	-31.1	-31.8	26.3	0.00e+00	0	27	0	926941184	36	5577
2026-01-15 17:27:31.23	17.23	17.66	-30.8	-31.5	26.6	0.00e+00	0	27	0	948961280	36	5383
2026-01-15 17:27:35.26	17.03	18.14	-30.6	-31.2	26.8	0.00e+00	0	27	0	972029952	34	5894
2026-01-15 17:27:39.30	16.83	18.62	-30.5	-31.1	26.8	0.00e+00	0	27	0	995098624	34	5803
2026-01-15 17:27:43.34	16.62	19.11	-30.3	-30.9	27.0	0.00e+00	0	27	0	1017118720	34	5651
2026-01-15 17:27:47.37	16.40	19.61	-30.4	-31.0	27.0	0.00e+00	0	27	0	1040187392	34	5749
2026-01-15 17:27:51.41	16.18	20.12	-30.4	-31.1	27.0	0.00e+00	0	27	0	1063256064	34	5770
2026-01-15 17:27:55.45	15.94	20.64	-30.1	-30.8	27.3	0.00e+00	0	27	0	1085276160	34	5567
2026-01-15 17:27:59.50	15.70	21.17	-30.1	-30.7	27.2	0.00e+00	0	27	0	1108344832	34	5548
2026-01-15 17:28:03.54	15.45	21.72	-29.8	-30.4	27.5	0.00e+00	0	27	0	1131413504	34	5331
2026-01-15 17:28:07.58	15.19	22.27	-29.8	-30.4	27.5	0.00e+00	0	27	0	1153433600	32	5990
2026-01-15 17:28:11.62	14.92	22.84	-29.8	-30.4	27.6	0.00e+00	0	27	0	1176502272	32	5996
2026-01-15 17:28:15.66	14.64	23.41	-29.8	-30.5	27.5	0.00e+00	0	27	0	1199570944	32	6036
2026-01-15 17:28:19.70	14.35	24.00	-29.8	-30.5	27.5	0.00e+00	0	27	0	1221591040	32	6042
2026-01-15 17:28:23.74	14.04	24.60	-29.6	-30.2	27.7	0.00e+00	0	27	0	1244659712	32	5892
2026-01-15 17:28:27.78	13.73	25.22	-29.4	-30.0	27.9	0.00e+00	0	27	0	1267728384	32	5757
2026-01-15 17:28:31.82	13.40	25.85	-29.2	-29.9	28.1	0.00e+00	0	27	0	1289748480	32	5639
2026-01-15 17:28:35.86	13.05	26.49	-29.2	-29.8	28.1	0.00e+00	0	27	0	1312817152	32	5589
2026-01-15 17:28:39.90	12.69	27.15	-29.5	-30.1	27.9	0.00e+00	0	27	0	1335885824	32	5789
2026-01-15 17:28:43.94	12.32	27.82	-29.3	-30.0	27.9	0.00e+00	0	27	0	1357905920	32	5711
2026-01-15 17:28:47.97	11.93	28.51	-29.1	-29.7	28.1	0.00e+00	0	27	0	1380974592	32	5508
2026-01-15 17:28:52.00	11.52	29.21	-29.1	-29.7	28.3	0.00e+00	0	27	0	1404043264	32	5541
2026-01-15 17:28:56.04	11.09	29.93	-29.2	-29.8	28.2	0.00e+00	0	27	0	1426063360	32	5592
2026-01-15 17:29:00.07	10.64	30.66	-29.4	-30.0	28.0	0.00e+00	0	27	0	1449132032	32	5750
2026-01-15 17:29:04.09	10.17	31.41	-28.9	-29.5	28.4	0.00e+00	0	27	0	1471152128	32	5417
2026-01-15 17:29:08.12	9.67	32.18	-28.8	-29.5	28.4	0.00e+00	0	27	0	1494220800	30	6037
2026-01-15 17:29:12.16	9.15	32.97	-28.6	-29.2	28.6	0.00e+00	0	27	0	1517289472	30	5859
2026-01-15 17:29:16.19	8.61	33.77	-28.6	-29.2	28.6	0.00e+00	0	27	0	1539309568	30	5851
2026-01-15 17:29:20.23	8.03	34.60	-28.7	-29.3	28.5	0.00e+00	0	27	0	1562378240	30	5921
2026-01-15 17:29:24.26	7.43	35.44	-28.5	-29.1	28.7	0.00e+00	0	27	0	1585446912	30	5797
2026-01-15 17:29:28.30	6.79	36.30	-28.3	-29.0	28.8	0.00e+00	0	27	0	1607467008	30	5698
2026-01-15 17:29:32.34	6.11	37.19	-28.5	-29.1	28.7	0.00e+00	0	27	0	1630535680	30	5809
2026-01-15 17:29:36.38	5.40	38.09	-28.8	-29.4	28.3	0.00e+00	0	27	0	1653604352	30	5976
2026-01-15 17:29:40.41	4.64	39.01	-28.7	-29.3	28.3	0.00e+00	0	27	0	1675624448	30	5917
2026-01-15 17:29:44.45	3.84	39.94	-28.5	-29.0	28.8	0.00e+00	0	27	0	1698693120	30	5752
2026-01-15 17:29:48.49	2.99	40.90	-29.0	-29.6	28.3	0.00e+00	0	27	0	1721761792	30	6124
2026-01-15 17:29:52.53	2.08	41.88	-29.0	-29.6	28.3	0.00e+00	0	27	0	1743781888	30	6112
2026-01-15 17:29:56.56	1.12	42.87	-29.2	-29.8	28.0	0.00e+00	0	27	0	1766850560	30	6289
2026-01-15 17:30:00.60	0.10	43.88	-29.4	-30.1	27.9	0.00e+00	0	27	0	1789919232	30	6476
2026-01-15 17:30:04.64	359.00	44.91	-29.5	-30.1	27.9	0.00e+00	0	27	0	1811939328	30	6480
2026-01-15 17:30:08.68	357.83	45.95	-29.2	-29.8	28.0	0.00e+00	0	27	0	1835008000	30	6305
2026-01-15 17:30:12.72	356.58	47.00	-29.4	-30.0	28.0	0.00e+00	0	27	0	1858076672	30	6436
2026-01-15 17:30:16.75	355.25	48.07	-29.7	-30.3	27.8	0.00e+00	0	27	0	1880096768	30	6630
2026-01-15 17:30:20.79	353.81	49.14	-29.4	-30.0	27.9	0.00e+00	0	27	0	1903165440	32	5721
2026-01-15 17:30:24.83	352.27	50.22	-30.4	-31.0	27.2	0.00e+00	0	27	0	1926234112	32	6461
2026-01-15 17:30:28.87	350.62	51.30	-30.4	-31.0	27.2	0.00e+00	0	27	0	1948254208	32	6442
2026-01-15 17:30:32.90	348.84	52.37	-29.8	-30.4	27.5	0.00e+00	0	27	0	1971322880	32	6009
2026-01-15 17:30:36.94	346.93	53.44	-30.6	-31.2	27.1	0.00e+00	0	27	0	1994391552	32	6551
2026-01-15 17:30:40.98	344.86	54.50	-29.7	-30.3	27.7	0.00e+00	0	27	0	2016411648	32	5959
2026-01-15 17:30:45.02	342.64	55.54	-29.5	-30.2	27.8	0.00e+00	0	27	0	2039480320	32	5834
2026-01-15 17:30:49.06	340.25	56.55	-29.9	-30.5	27.5	0.00e+00	0	27	0	2062548992	32	6090
2026-01-15 17:30:53.10	337.68	57.53	-30.3	-30.9	27.3	0.00e+00	0	27	0	2084569088	32	6387
2026-01-15 17:30:57.14	334.92	58.46	-30.3	-31.0	27.3	0.00e+00	0	27	0	2107637760	32	6415
2026-01-15 17:31:01.17	331.98	59.34	-29.9	-30.5	27.6	0.00e+00	0	27	0	2130706432	32	6075
2026-01-15 17:31:05.21	328.82	60.16	-29.6	-30.2	27.8	0.00e+00	0	27	0	2152726528	32	5866
2026-01-15 17:31:09.25	325.47	60.91	-29.4	-30.0	28.0	0.00e+00	0	27	0	2175795200	32	5741
2026-01-15 17:31:13.28	321.93	61.57	-29.1	-29.7	28.2	0.00e+00	0	27	0	2198863872	32	5549
2026-01-15 17:31:17.32	318.20	62.13	-29.0	-29.6	28.3	0.00e+00	0	27	0	2220883968	30	6130
2026-01-15 17:31:21.36	314.31	62.60	-29.5	-30.1	27.9	0.00e+00	0	27	0	2243952640	30	6508
2026-01-15 17:31:25.39	310.29	62.95	-29.5	-30.1	27.9	0.00e+00	0	27	0	2265972736	30	6521
2026-01-15 17:31:29.43	306.17	63.17	-28.6	-29.2	28.5	0.00e+00	0	27	0	2289041408	30	5837
2026-01-15 17:31:33.47	301.99	63.28	-28.8	-29.4	28.3	0.00e+00	0	27	0	2312110080	30	5993
2026-01-15 17:31:37.51	297.79	63.25	-28.7	-29.3	28.4	0.00e+00	0	27	0	2335178752	30	5908
2026-01-15 17:31:41.55	293.62	63.10	-28.2	-28.8	28.5	0.00e+00	0	27	0	2357198848	30	5616
2026-01-15 17:31:45.58	289.54	62.83	-28.5	-29.1	28.6	0.00e+00	0	27	0	2380267520	30	5769
2026-01-15 17:31:49.61	285.57	62.44	-28.9	-29.5	28.3	0.00e+00	0	27	0	2403336192	30	6036
2026-01-15 17:31:53.65	281.73	61.94	-28.7	-29.4	28.3	0.00e+00	0	27	0	2425356288	30	5975
2026-01-15 17:31:57.69	278.06	61.33	-29.4	-29.9	28.0	0.00e+00	0	27	0	2448424960	30	6374
2026-01-15 17:32:01.72	274.59	60.64	-29.2	-29.9	28.2	0.00e+00	0	27	0	2470445056	30	6318
2026-01-15 17:32:05.76	271.30	59.87	-28.8	-29.4	28.4	0.00e+00	0	27	0	2493513728	30	5999
2026-01-15 17:32:09.79	268.23	59.02	-29.3	-29.8	27.9	0.00e+00	0	27	0	2516582400	30	6313
2026-01-15 17:32:13.83	265.34	58.12	-29.3	-29.9	27.9	0.00e+00	0	27	0	2538602496	30	6341
2026-01-15 17:32:17.87	262.65	57.17	-29.5	-30.1	27.8	0.00e+00	0	27	0	2561671168	32	5791
2026-01-15 17:32:21.91	260.14	56.17	-29.9	-30.4	27.6	0.00e+00	0	27	0	2584739840	32	6032
2026-01-15 17:32:25.95	257.81	55.15	-29.9	-30.5	27.6	0.00e+00	0	27	0	2606759936	32	6101
2026-01-15 17:32:29.98	255.65	54.10	-29.6	-30.3	27.7	0.00e+00	0	27	0	2629828608	32	5937
2026-01-15 17:32:34.02	253.64	53.04	-29.7	-30.2	27.7	0.00e+00	0	27	0	2652897280	32	5888
2026-01-15 17:32:38.06	251.77	51.96	-29.5	-30.0	27.9	0.00e+00	0	27	0	2674917376	32	5713
2026-01-15 17:32:42.10	250.04	50.88	-29.6	-30.3	27.7	0.00e+00	0	27	0	2697986048	32	5944
2026-01-15 17:32:46.13	248.43	49.80	-29.5	-30.0	27.9	0.00e+00	0	27	0	2721054720	32	5736
2026-01-15 17:32:50.17	246.92	48.72	-29.4	-30.1	27.9	0.00e+00	0	27	0	2743074816	32	5810
2026-01-15 17:32:54.21	245.52	47.64	-29.0	-29.7	28.0	0.00e+00	0	27	0	2766143488	32	5511
2026-01-15 17:32:58.25	244.21	46.58	-28.5	-29.0	28.3	0.00e+00	0	27	0	2789212160	30	5723
2026-01-15 17:33:02.28	242.99	45.53	-28.7	-29.3	28.4	0.00e+00	0	27	0	2811232256	30	5930
2026-01-15 17:33:06.32	241.85	44.49	-28.5	-29.1	28.6	0.00e+00	0	27	0	2834300928	30	5828
2026-01-15 17:33:10.36	240.78	43.46	-28.5	-29.0	28.6	0.00e+00	0	27	0	2857369600	30	5761
2026-01-15 17:33:14.40	239.78	42.46	-28.5	-29.2	28.6	0.00e+00	0	27	0	2879389696	30	5843
2026-01-15 17:33:18.44	238.83	41.47	-28.9	-29.4	28.3	0.00e+00	0	27	0	2902458368	30	6005
2026-01-15 17:33:22.48	237.95	40.49	-28.6	-29.3	28.6	0.00e+00	0	27	0	2925527040	30	5928
2026-01-15 17:33:26.52	237.11	39.54	-28.4	-29.1	28.6	0.00e+00	0	27	0	2947547136	30	5797
2026-01-15 17:33:30.56	236.33	38.60	-28.5	-29.0	28.6	0.00e+00	0	27	0	2970615808	30	5757
2026-01-15 17:33:34.59	235.58	37.69	-28.4	-29.0	28.6	0.00e+00	0	27	0	2993684480	30	5755
2026-01-15 17:33:38.63	234.88	36.79	-28.6	-29.1	28.5	0.00e+00	0	27	0	3015704576	30	5811
2026-01-15 17:33:42.67	234.22	35.91	-28.6	-29.2	28.4	0.00e+00	0	27	0	3038773248	30	5892
2026-01-15 17:33:46.71	233.59	35.06	-28.8	-29.5	28.3	0.00e+00	0	27	0	3061841920	30	6059
2026-01-15 17:33:50.74	232.99	34.22	-28.5	-29.2	28.5	0.00e+00	0	27	0	3083862016	30	5836
2026-01-15 17:33:54.78	232.43	33.40	-28.5	-29.2	28.5	0.00e+00	0	27	0	3106930688	30	5830
2026-01-15 17:33:58.82	231.89	32.60	-28.9	-29.5	28.2	0.00e+00	0	27	0	3129999360	30	6041
2026-01-15 17:34:02.86	231.37	31.81	-28.6	-29.2	28.4	0.00e+00	0	27	0	3152019456	30	5833
2026-01-15 17:34:06.89	230.89	31.05	-28.7	-29.2	28.4	0.00e+00	0	27	0	3175088128	30	5849
2026-01-15 17:34:10.93	230.42	30.30	-28.8	-29.3	28.3	0.00e+00	0	27	0	3198156800	30	5923
2026-01-15 17:34:14.97	229.98	29.57	-29.1	-29.6	28.1	0.00e+00	0	27	0	3220176896	30	6160
2026-01-15 17:34:19.01	229.56	28.85	-29.1	-29.8	28.1	0.00e+00	0	27	0	3243245568	30	6268
2026-01-15 17:34:23.05	229.15	28.15	-29.2	-29.8	28.1	0.00e+00	0	27	0	3265265664	30	6298
2026-01-15 17:34:27.08	228.76	27.47	-29.1	-29.8	28.1	0.00e+00	0	27	0	3288334336	30	6272
2026-01-15 17:34:31.12	228.39	26.80	-29.1	-29.8	28.1	0.00e+00	0	27	0	3311403008	30	6267
2026-01-15 17:34:35.16	228.04	26.15	-29.0	-29.7	28.1	0.00e+00	0	27	0	3334471680	30	6205
2026-01-15 17:34:39.20	227.70	25.51	-29.2	-29.9	27.9	0.00e+00	0	27	0	3356491776	30	6340
2026-01-15 17:34:43.24	227.37	24.88	-29.3	-29.9	27.7	0.00e+00	0	27	0	3379560448	30	6381
2026-01-15 17:34:47.28	227.06	24.27	-29.2	-29.9	27.8	0.00e+00	0	27	0	3402629120	30	6350
2026-01-15 17:34:51.32	226.75	23.67	-29.3	-29.9	27.7	0.00e+00	0	27	0	3424649216	30	6389
2026-01-15 17:34:55.35	226.47	23.08	-29.4	-29.9	27.6	0.00e+00	0	27	0	3447717888	30	6367
2026-01-15 17:34:59.40	226.19	22.51	-29.7	-30.4	27.3	0.00e+00	0	27	0	3469737984	30	6726
2026-01-15 17:35:03.44	225.92	21.95	-29.6	-30.1	27.5	0.00e+00	0	27	0	3492806656	32	5807
2026-01-15 17:35:07.48	225.66	21.40	-29.5	-30.2	27.4	0.00e+00	0	27	0	3515875328	32	5891
2026-01-15 17:35:11.51	225.41	20.86	-29.8	-30.4	27.2	0.00e+00	0	27	0	3538944000	32	5991
2026-01-15 17:35:15.55	225.17	20.33	-30.0	-30.6	27.2	0.00e+00	0	27	0	3560964096	32	6104
2026-01-15 17:35:19.59	224.94	19.81	-30.2	-30.8	26.9	0.00e+00	0	27	0	3584032768	32	6296
2026-01-15 17:35:23.63	224.71	19.30	-30.4	-31.0	26.8	0.00e+00	0	27	0	3607101440	32	6463
2026-01-15 17:35:27.67	224.50	18.80	-30.6	-31.3	26.6	0.00e+00	0	27	0	3629121536	32	6684
2026-01-15 17:35:31.70	224.29	18.32	-30.5	-31.2	26.6	0.00e+00	0	27	0	3652190208	32	6593
2026-01-15 17:35:35.74	224.09	17.84	-30.4	-31.0	26.8	0.00e+00	0	27	0	3674210304	32	6393
2026-01-15 17:35:39.78	223.89	17.37	-30.3	-30.8	26.8	0.00e+00	0	27	0	3697278976	32	6303
2026-01-15 17:35:43.81	223.70	16.90	-30.4	-31.0	26.8	0.00e+00	0	27	0	3720347648	32	6463
2026-01-15 17:35:47.85	223.52	16.45	-30.4	-31.0	26.7	0.00e+00	0	27	0	3742367744	32	6432
2026-01-15 17:35:51.89	223.34	16.00	-30.8	-31.3	26.4	0.00e+00	0	27	0	3765436416	32	6670
2026-01-15 17:35:55.92	223.17	15.57	-31.2	-31.9	26.1	0.00e+00	0	27	0	3788505088	34	6348
2026-01-15 17:35:59.96	223.01	15.13	-31.3	-31.8	26.0	0.00e+00	0	27	0	3811573760	34	6312
2026-01-15 17:36:04.00	222.84	14.71	-31.6	-32.2	25.7	0.00e+00	0	27	0	3832545280	34	6578
2026-01-15 17:36:08.04	222.69	14.29	-31.7	-32.4	25.6	0.00e+00	0	27	0	3854565376	34	6763
2026-01-15 17:36:12.07	222.54	13.88	-31.8	-32.4	25.5	0.00e+00	0	27	0	3877634048	36	6020
2026-01-15 17:36:16.11	222.39	13.48	-32.1	-32.7	25.3	0.00e+00	0	27	0	3900702720	36	6192
2026-01-15 17:36:20.15	222.24	13.08	-32.2	-32.8	25.1	0.00e+00	0	27	0	3922722816	36	6250
2026-01-15 17:36:24.18	222.11	12.69	-32.1	-32.7	25.2	0.00e+00	0	27	0	3945791488	36	6238
2026-01-15 17:36:28.21	221.97	12.31	-32.3	-33.1	25.0	0.00e+00	0	27	0	3967811584	36	6483
2026-01-15 17:36:32.26	221.84	11.93	-32.5	-33.1	24.9	0.00e+00	0	27	0	3990880256	36	6515
2026-01-15 17:36:36.29	221.71	11.56	-32.5	-33.1	24.8	0.00e+00	0	27	0	4013948928	36	6506
2026-01-15 17:36:40.33	221.59	11.19	-32.6	-33.2	24.7	0.00e+00	0	27	0	4035969024	38	5880
2026-01-15 17:36:44.37	221.47	10.83	-32.8	-33.4	24.5	0.00e+00	0	27	0	4059037696	38	6016
2026-01-15 17:36:48.40	221.35	10.47	-32.9	-33.5	24.4	0.00e+00	0	27	0	4082106368	38	6099
2026-01-15 17:36:52.43	221.23	10.12	-32.9	-33.7	24.5	0.00e+00	0	27	0	4104126464	38	6209
2026-01-15 17:36:56.47	221.12	9.77	-32.8	-33.6	24.4	0.00e+00	0	27	0	4127195136	38	6121
2026-01-15 17:37:00.51	221.01	9.43	-33.0	-33.8	24.2	0.00e+00	0	27	0	4150263808	38	6276
2026-01-15 17:37:04.55	220.91	9.09	-33.0	-33.6	24.2	0.00e+00	0	27	0	4172283904	38	6157
2026-01-15 17:37:08.58	220.81	8.76	-33.0	-33.8	24.2	0.00e+00	0	27	0	4195352576	38	6272
2026-01-15 17:37:12.61	220.70	8.43	-33.0	-33.7	24.1	0.00e+00	0	27	0	4218421248	38	6199
2026-01-15 17:37:16.65	220.61	8.10	-33.2	-33.8	24.0	0.00e+00	0	27	0	4240441344	38	6293
2026-01-15 17:37:20.69	220.51	7.78	-33.4	-34.2	23.8	0.00e+00	0	27	0	4263510016	38	6570
2026-01-15 17:37:24.73	220.42	7.46	-33.6	-34.2	23.6	0.00e+00	0	27	0	4286578688	38	6585
2026-01-15 17:37:28.76	220.33	7.15	-33.6	-34.4	23.5	0.00e+00	0	27	0	4308598784	38	6753
2026-01-15 17:37:32.80	220.24	6.84	-33.7	-34.5	23.3	0.00e+00	0	27	0	4331667456	40	6063
2026-01-15 17:37:36.84	220.15	6.53	-33.9	-34.6	23.1	0.00e+00	0	27	0	4353687552	40	6133
2026-01-15 17:37:40.87	220.07	6.23	-34.0	-34.9	23.0	0.00e+00	0	27	0	4376756224	40	6328
2026-01-15 17:37:44.91	219.98	5.93	-34.0	-34.7	22.9	0.00e+00	0	27	0	4399824896	40	6196
2026-01-15 17:37:48.95	219.90	5.64	-34.1	-34.7	22.8	0.00e+00	0	27	0	4422893568	40	6241
2026-01-15 17:37:52.99	219.82	5.34	-34.3	-35.0	22.6	0.00e+00	0	27	0	4444913664	40	6407
2026-01-15 17:37:57.03	219.75	5.05	-34.4	-35.1	22.4	0.00e+00	0	27	0	4467982336	40	6539
2026-01-15 17:38:01.06	219.67	4.77	-34.4	-35.3	22.4	0.00e+00	0	27	0	4491051008	40	6616
2026-01-15 17:38:05.09	219.60	4.48	-34.5	-35.2	22.1	0.00e+00	0	27	0	4513071104	40	6614
2026-01-15 17:38:09.13	219.52	4.20	-34.5	-35.3	22.2	0.00e+00	0	27	0	4536139776	42	5958
2026-01-15 17:38:13.17	219.45	3.93	-35.1	-36.0	21.5	0.00e+00	0	27	0	4558159872	42	6415
2026-01-15 17:38:17.21	219.39	3.65	-35.5	-36.3	21.2	0.00e+00	0	27	0	4581228544	42	6671
2026-01-15 17:38:21.25	219.32	3.38	-35.0	-35.8	21.5	0.00e+00	0	27	0	4604297216	42	6270
2026-01-15 17:38:25.29	219.25	3.11	-35.3	-36.1	21.0	0.00e+00	0	27	0	4626317312	44	5782
2026-01-15 17:38:29.32	219.19	2.84	-47.6	-59.8	3.6	8.45e-01	0	27	104	4634705920	60	35234
2026-01-15 17:38:33.36	219.12	2.58	-48.0	-60.2	3.6	8.45e-01	0	27	104	4634705920	60	37132
2026-01-15 17:38:37.40	219.06	2.31	-47.6	-60.2	3.6	8.46e-01	0	27	104	4634705920	60	36872
2026-01-15 17:38:41.43	219.00	2.06	-48.0	-60.1	3.6	8.45e-01	0	27	104	4634705920	60	36712
2026-01-15 17:38:45.47	218.94	1.80	-48.2	-60.3	3.6	8.45e-01	0	27	104	4634705920	60	37263
2026-01-15 17:38:49.51	218.88	1.54	-48.1	-60.2	3.6	8.45e-01	0	27	104	4634705920	60	36869
2026-01-15 17:38:53.54	218.83	1.29	-48.1	-60.1	3.5	8.45e-01	0	27	104	4634705920	60	36706
2026-01-15 17:38:57.58	218.77	1.04	-48.0	-60.1	3.6	8.45e-01	0	27	104	4634705920	60	36770
2026-01-15 17:39:01.62	218.72	0.79	-48.0	-60.0	3.6	8.46e-01	0	27	104	4634705920	60	36351
2026-01-15 17:39:05.66	218.66	0.54	-48.0	-60.1	3.6	8.47e-01	0	27	104	4634705920	60	36458
2026-01-15 17:39:09.70	218.61	0.30	-48.1	-60.2	3.6	8.46e-01	0	27	104	4634705920	60	37120
2026-01-15 17:39:13.74	218.56	0.06	-48.0	-60.2	3.6	8.45e-01	0	27	104	4634705920	60	36864

#Closed at: 2026-01-15 17:39:15
#Recorded file [4634 MB]: D:/lorett/data/35029_260116_052353.dat