passes_logs/2026/01/15/R4.6S_Anadyr/R4.6S_Anadyr__20260115_200342_NOAA_20_JPSS-1_rec.log

#Pass ID: 20260115_200342_NOAA 20 (JPSS-1)
#Satellite: NOAA 20 (JPSS-1)
#Configuration: NOAA 20
#almurnet v.1.7.20251203
#Start time: 2026-01-15 20:03:45

#Version: 2.2.20231116
#Station: R4.6S_Anadyr
#Location: 177.4865 lon 64.73178 lat
#TLE: 1 43013U 17073A   26014.55467351  .00000038  00000+0  38801-4 0  9992
#TLE: 2 43013  98.7635 315.4987 0001517  39.9279 320.2008 14.19535859422677

#Time	Az	El	Level	Level2	SNR	BER	BlckErr	Temp	State	Recorded	gain1	gain2
2026-01-15 20:03:45.97	63.11	0.15	-48.1	-61.9	3.3	1.54e+00	0	25	0	0	60	45053
2026-01-15 20:03:49.00	62.88	0.30	-48.2	-63.4	3.6	1.51e+00	0	26	104	0	60	53639
2026-01-15 20:03:52.03	62.65	0.45	-48.1	-63.3	3.6	1.51e+00	0	26	104	0	60	53073
2026-01-15 20:03:55.06	62.42	0.60	-47.7	-63.2	3.6	1.51e+00	0	26	104	0	60	52362
2026-01-15 20:03:58.09	62.19	0.75	-47.4	-62.6	3.6	1.51e+00	0	26	104	0	60	48724
2026-01-15 20:04:01.12	61.95	0.90	-46.3	-61.5	3.6	1.51e+00	0	26	104	0	60	42930
2026-01-15 20:04:04.15	61.71	1.05	-46.2	-61.4	3.6	1.51e+00	0	26	104	0	60	42591
2026-01-15 20:04:07.18	61.47	1.20	-46.2	-61.4	3.6	1.51e+00	0	26	104	0	60	42403
2026-01-15 20:04:10.21	61.22	1.35	-46.2	-61.4	3.6	1.51e+00	0	26	104	0	60	42238
2026-01-15 20:04:13.24	60.97	1.50	-46.2	-61.4	3.6	1.51e+00	0	26	104	0	60	42382
2026-01-15 20:04:16.26	60.73	1.65	-46.2	-61.3	3.6	1.51e+00	0	26	104	0	60	41967
2026-01-15 20:04:19.29	60.47	1.80	-46.2	-61.2	3.6	1.51e+00	0	26	104	0	60	41639
2026-01-15 20:04:22.31	60.22	1.95	-46.2	-61.0	3.5	1.51e+00	0	26	104	0	60	40558
2026-01-15 20:04:25.34	59.96	2.11	-46.1	-60.7	3.6	1.51e+00	0	26	104	0	60	39229
2026-01-15 20:04:28.37	59.70	2.26	-46.1	-61.3	3.6	1.51e+00	0	26	104	0	60	41998
2026-01-15 20:04:31.40	59.44	2.41	-46.1	-61.2	3.6	1.51e+00	0	26	104	0	60	41604
2026-01-15 20:04:34.43	59.17	2.56	-46.1	-60.7	3.6	1.51e+00	0	26	104	0	60	39359
2026-01-15 20:04:37.46	58.90	2.72	-46.1	-60.0	3.6	1.51e+00	0	26	104	0	60	36279
2026-01-15 20:04:40.49	58.63	2.87	-46.1	-60.0	3.5	1.51e+00	0	26	104	0	60	36141
2026-01-15 20:04:43.52	58.35	3.02	-45.8	-54.5	4.9	6.39e-01	92	26	0	2097152	60	19228
2026-01-15 20:04:46.55	58.07	3.17	-45.8	-54.9	4.3	1.49e+00	0	26	104	6291456	60	20177
2026-01-15 20:04:49.57	57.79	3.33	-46.1	-58.8	3.9	1.51e+00	0	26	104	6291456	60	31525
2026-01-15 20:04:52.60	57.51	3.48	-41.8	-43.9	16.8	0.00e+00	92	26	0	9437184	56	7143
2026-01-15 20:04:55.63	57.22	3.64	-41.7	-43.8	16.8	0.00e+00	90	26	0	15728640	56	7088
2026-01-15 20:04:58.66	56.93	3.79	-41.6	-43.7	16.9	0.00e+00	90	26	0	20971520	56	6961
2026-01-15 20:05:01.69	56.64	3.95	-41.8	-44.0	16.6	0.00e+00	1	26	0	26214400	56	7219
2026-01-15 20:05:04.72	56.34	4.10	-41.8	-43.9	16.9	0.00e+00	92	26	0	32505856	56	7122
2026-01-15 20:05:07.75	56.04	4.25	-41.5	-43.5	17.4	0.00e+00	90	27	0	37748736	56	6774
2026-01-15 20:05:10.77	55.74	4.41	-41.6	-43.6	17.3	0.00e+00	13	26	0	44040192	56	6859
2026-01-15 20:05:13.80	55.43	4.56	-41.2	-43.1	17.8	0.00e+00	92	26	0	49283072	56	6490
2026-01-15 20:05:16.83	55.12	4.72	-41.1	-43.0	17.9	0.00e+00	92	26	0	54525952	56	6392
2026-01-15 20:05:19.86	54.81	4.87	-40.9	-42.7	18.2	0.00e+00	69	26	0	60817408	56	6219
2026-01-15 20:05:22.89	54.49	5.03	-40.7	-42.4	18.4	0.00e+00	0	27	0	66060288	54	6740
2026-01-15 20:05:25.92	54.17	5.19	-41.0	-42.8	18.1	0.00e+00	92	26	0	72351744	54	7013
2026-01-15 20:05:28.95	53.85	5.34	-40.5	-42.2	18.7	0.00e+00	0	27	0	77594624	54	6550
2026-01-15 20:05:31.98	53.52	5.50	-40.5	-42.1	18.8	0.00e+00	13	27	0	83886080	54	6476
2026-01-15 20:05:35.00	53.19	5.65	-40.5	-42.1	18.7	0.00e+00	90	27	0	89128960	54	6530
2026-01-15 20:05:38.03	52.86	5.81	-40.3	-41.8	19.0	0.00e+00	0	27	0	94371840	54	6311
2026-01-15 20:05:41.06	52.52	5.96	-40.0	-41.4	19.5	0.00e+00	0	27	0	100663296	54	6010
2026-01-15 20:05:44.08	52.18	6.12	-40.1	-41.6	19.4	0.00e+00	92	27	0	105906176	54	6114
2026-01-15 20:05:47.11	51.83	6.27	-39.9	-41.4	19.6	0.00e+00	92	27	0	112197632	54	5986
2026-01-15 20:05:50.14	51.48	6.43	-39.9	-41.4	19.6	7.00e-07	16	27	0	117440512	54	5993
2026-01-15 20:05:53.17	51.13	6.59	-40.2	-41.7	19.4	1.50e-06	92	27	0	122683392	54	6238
2026-01-15 20:05:56.20	50.77	6.74	-40.3	-41.8	19.3	0.00e+00	92	27	0	128974848	54	6264
2026-01-15 20:05:59.22	50.41	6.90	-40.2	-41.8	19.3	0.00e+00	15	26	0	134217728	54	6254
2026-01-15 20:06:02.25	50.04	7.05	-40.3	-41.8	19.3	0.00e+00	0	27	0	140509184	54	6292
2026-01-15 20:06:05.28	49.67	7.20	-40.2	-41.6	19.5	0.00e+00	92	27	0	145752064	54	6173
2026-01-15 20:06:08.31	49.30	7.36	-39.8	-41.2	19.8	0.00e+00	0	26	0	152043520	54	5888
2026-01-15 20:06:11.34	48.92	7.51	-39.8	-41.3	19.8	0.00e+00	2	26	0	157286400	54	5899
2026-01-15 20:06:14.36	48.54	7.67	-39.8	-41.2	19.9	0.00e+00	92	27	0	162529280	54	5837
2026-01-15 20:06:17.39	48.16	7.82	-39.9	-41.2	19.9	0.00e+00	50	27	0	168820736	52	6594
2026-01-15 20:06:20.42	47.77	7.97	-39.8	-41.2	20.0	0.00e+00	14	27	0	174063616	52	6547
2026-01-15 20:06:23.45	47.37	8.13	-39.8	-41.1	20.1	0.00e+00	92	27	0	180355072	52	6538
2026-01-15 20:06:26.48	46.97	8.28	-39.7	-41.1	20.2	0.00e+00	92	27	0	185597952	52	6488
2026-01-15 20:06:29.51	46.57	8.43	-39.5	-40.8	20.4	0.00e+00	6	27	0	190840832	52	6255
2026-01-15 20:06:32.53	46.17	8.58	-39.5	-40.8	20.4	0.00e+00	92	27	0	197132288	52	6291
2026-01-15 20:06:35.56	45.76	8.74	-39.4	-40.7	20.5	0.00e+00	90	27	0	202375168	52	6179
2026-01-15 20:06:38.59	45.34	8.89	-39.4	-40.7	20.5	0.00e+00	13	27	0	208666624	52	6223
2026-01-15 20:06:41.62	44.92	9.04	-39.4	-40.7	20.5	0.00e+00	6	27	0	213909504	52	6214
2026-01-15 20:06:44.65	44.50	9.19	-39.5	-40.8	20.5	0.00e+00	92	27	0	220200960	52	6249
2026-01-15 20:06:47.68	44.07	9.34	-39.4	-40.6	20.6	0.00e+00	80	26	0	225443840	52	6168
2026-01-15 20:06:50.71	43.63	9.48	-39.4	-40.7	20.6	0.00e+00	5	27	0	230686720	52	6187
2026-01-15 20:06:53.74	43.19	9.63	-39.3	-40.6	20.7	0.00e+00	92	27	0	236978176	52	6107
2026-01-15 20:06:56.77	42.75	9.78	-39.2	-40.5	20.8	0.00e+00	92	27	0	242221056	52	6059
2026-01-15 20:06:59.79	42.31	9.93	-38.9	-40.1	21.1	0.00e+00	16	27	0	248512512	52	5792
2026-01-15 20:07:02.83	41.85	10.07	-38.8	-40.0	21.3	0.00e+00	92	27	0	253755392	52	5732
2026-01-15 20:07:05.86	41.40	10.22	-38.7	-39.8	21.4	0.00e+00	91	27	0	258998272	50	6282
2026-01-15 20:07:08.88	40.94	10.36	-38.3	-39.4	21.9	0.00e+00	0	27	0	265289728	50	5988
2026-01-15 20:07:11.91	40.47	10.50	-38.2	-39.3	21.9	0.00e+00	0	27	0	270532608	50	5932
2026-01-15 20:07:14.94	40.00	10.64	-37.9	-38.9	22.3	0.00e+00	3	27	0	276824064	50	5658
2026-01-15 20:07:17.97	39.53	10.78	-37.8	-38.9	22.2	0.00e+00	0	27	0	282066944	48	6332
2026-01-15 20:07:21.00	39.05	10.92	-38.0	-39.0	22.3	0.00e+00	67	27	0	288358400	48	6438
2026-01-15 20:07:24.03	38.57	11.06	-37.7	-38.7	22.5	0.00e+00	67	27	0	293601280	48	6232
2026-01-15 20:07:27.06	38.08	11.20	-37.7	-38.7	22.5	0.00e+00	92	27	0	298844160	48	6200
2026-01-15 20:07:30.09	37.58	11.33	-37.7	-38.7	22.6	0.00e+00	0	27	0	305135616	48	6240
2026-01-15 20:07:33.12	37.09	11.47	-37.5	-38.4	22.8	0.00e+00	0	27	0	310378496	48	6028
2026-01-15 20:07:36.15	36.58	11.60	-37.3	-38.3	23.0	0.00e+00	90	27	0	316669952	48	5920
2026-01-15 20:07:39.18	36.08	11.73	-37.1	-38.0	23.2	0.00e+00	0	27	0	321912832	48	5740
2026-01-15 20:07:42.20	35.57	11.86	-37.0	-38.0	22.5	0.00e+00	66	27	0	327155712	48	5696
2026-01-15 20:07:45.23	35.05	11.99	-37.0	-37.9	23.2	0.00e+00	92	27	0	333447168	48	5657
2026-01-15 20:07:48.26	34.53	12.12	-37.1	-38.1	23.2	0.00e+00	64	27	0	338690048	48	5792
2026-01-15 20:07:51.28	34.01	12.24	-37.2	-38.2	23.0	0.00e+00	66	27	0	344981504	48	5830
2026-01-15 20:07:54.31	33.48	12.36	-37.5	-38.5	22.7	0.00e+00	0	27	0	350224384	48	6088
2026-01-15 20:07:57.34	32.94	12.48	-37.3	-38.3	22.8	0.00e+00	16	27	0	356515840	48	5916
2026-01-15 20:08:00.37	32.41	12.60	-37.5	-38.5	22.7	0.00e+00	0	27	0	361758720	48	6073
2026-01-15 20:08:03.40	31.86	12.72	-37.5	-38.5	22.7	0.00e+00	0	27	0	367001600	48	6088
2026-01-15 20:08:06.43	31.32	12.84	-37.5	-38.5	22.7	0.00e+00	92	27	0	373293056	48	6066
2026-01-15 20:08:09.45	30.77	12.95	-37.4	-38.3	22.9	0.00e+00	7	27	0	378535936	48	5946
2026-01-15 20:08:12.49	30.21	13.06	-37.3	-38.2	22.6	0.00e+00	5	27	0	384827392	48	5880
2026-01-15 20:08:15.52	29.65	13.17	-37.3	-38.3	22.9	0.00e+00	91	27	0	390070272	48	5935
2026-01-15 20:08:18.55	29.08	13.28	-37.3	-38.2	23.0	0.00e+00	14	27	0	395313152	48	5887
2026-01-15 20:08:21.58	28.52	13.38	-37.2	-38.1	23.1	0.00e+00	6	27	0	401604608	48	5808
2026-01-15 20:08:24.61	27.94	13.48	-37.0	-37.9	23.2	0.00e+00	92	27	0	406847488	48	5695
2026-01-15 20:08:27.64	27.37	13.58	-37.1	-38.1	23.0	0.00e+00	82	27	0	413138944	48	5777
2026-01-15 20:08:30.67	26.79	13.68	-37.0	-38.0	23.2	0.00e+00	0	27	0	418381824	48	5715
2026-01-15 20:08:33.70	26.20	13.78	-37.0	-38.0	23.2	0.00e+00	5	27	0	424673280	48	5700
2026-01-15 20:08:36.72	25.62	13.87	-36.9	-37.8	23.3	0.00e+00	81	27	0	429916160	48	5628
2026-01-15 20:08:39.75	25.03	13.96	-36.8	-37.8	23.4	0.00e+00	17	27	0	435159040	46	6247
2026-01-15 20:08:42.78	24.43	14.04	-37.0	-38.0	23.2	0.00e+00	3	27	0	441450496	46	6412
2026-01-15 20:08:45.81	23.83	14.13	-36.8	-37.7	23.5	0.00e+00	92	27	0	446693376	46	6184
2026-01-15 20:08:48.84	23.23	14.21	-37.0	-37.9	23.3	0.00e+00	65	27	0	452984832	46	6384
2026-01-15 20:08:51.86	22.63	14.29	-37.1	-38.0	23.2	0.00e+00	0	27	0	458227712	46	6442
2026-01-15 20:08:54.89	22.02	14.36	-37.4	-38.3	22.9	0.00e+00	93	27	0	463470592	46	6668
2026-01-15 20:08:57.92	21.41	14.43	-37.4	-38.4	22.9	0.00e+00	0	27	0	469762048	46	6732
2026-01-15 20:09:00.95	20.79	14.50	-37.5	-38.5	22.8	0.00e+00	16	27	0	475004928	46	6801
2026-01-15 20:09:03.98	20.18	14.57	-37.7	-38.7	22.6	0.00e+00	15	27	0	481296384	48	6226
2026-01-15 20:09:07.01	19.56	14.63	-37.8	-38.8	22.6	0.00e+00	0	27	0	486539264	48	6284
2026-01-15 20:09:10.04	18.94	14.69	-37.8	-38.8	22.5	0.00e+00	64	27	0	492830720	48	6315
2026-01-15 20:09:13.07	18.31	14.75	-37.6	-38.6	22.8	0.00e+00	0	27	0	498073600	48	6131
2026-01-15 20:09:16.10	17.68	14.80	-37.4	-38.3	22.9	7.00e-07	90	27	0	503316480	48	5947
2026-01-15 20:09:19.13	17.06	14.85	-37.3	-38.2	23.0	0.00e+00	2	27	0	509607936	48	5880
2026-01-15 20:09:22.16	16.42	14.89	-37.1	-38.1	23.2	0.00e+00	2	27	0	514850816	48	5765
2026-01-15 20:09:25.19	15.79	14.94	-37.4	-38.3	23.0	0.00e+00	90	27	0	521142272	48	5956
2026-01-15 20:09:28.22	15.16	14.98	-37.5	-38.4	22.8	0.00e+00	70	27	0	526385152	48	6018
2026-01-15 20:09:31.25	14.52	15.01	-37.3	-38.2	23.1	0.00e+00	0	27	0	531628032	48	5884
2026-01-15 20:09:34.28	13.88	15.04	-37.3	-38.3	22.9	0.00e+00	92	27	0	537919488	48	5941
2026-01-15 20:09:37.31	13.24	15.07	-37.2	-38.2	23.1	0.00e+00	0	27	0	543162368	48	5864
2026-01-15 20:09:40.33	12.60	15.10	-37.3	-38.3	23.0	0.00e+00	1	27	0	549453824	48	5944
2026-01-15 20:09:43.36	11.96	15.12	-37.6	-38.5	22.8	0.00e+00	2	27	0	554696704	48	6103
2026-01-15 20:09:46.39	11.32	15.14	-37.3	-38.3	22.9	0.00e+00	92	27	0	560988160	48	5936
2026-01-15 20:09:49.42	10.68	15.15	-37.3	-38.3	23.0	0.00e+00	67	27	0	566231040	48	5924
2026-01-15 20:09:52.45	10.03	15.16	-37.2	-38.1	23.2	0.00e+00	67	27	0	571473920	48	5818
2026-01-15 20:09:55.48	9.39	15.17	-37.1	-38.1	23.1	0.00e+00	90	27	0	577765376	48	5802
2026-01-15 20:09:58.51	8.75	15.17	-37.4	-38.3	23.0	0.00e+00	7	27	0	583008256	48	5952
2026-01-15 20:10:01.54	8.10	15.17	-37.3	-38.3	23.0	0.00e+00	0	27	0	589299712	48	5927
2026-01-15 20:10:04.57	7.46	15.17	-37.1	-38.0	23.3	0.00e+00	92	27	0	594542592	48	5726
2026-01-15 20:10:07.60	6.81	15.16	-37.3	-38.2	23.0	0.00e+00	15	27	0	599785472	48	5893
2026-01-15 20:10:10.63	6.17	15.15	-37.5	-38.5	22.8	0.00e+00	14	27	0	606076928	48	6067
2026-01-15 20:10:13.66	5.53	15.14	-37.6	-38.5	22.8	0.00e+00	92	27	0	611319808	48	6099
2026-01-15 20:10:16.69	4.89	15.12	-37.7	-38.7	22.7	0.00e+00	0	27	0	617611264	48	6199
2026-01-15 20:10:19.72	4.25	15.10	-37.7	-38.7	22.7	0.00e+00	0	27	0	622854144	48	6219
2026-01-15 20:10:22.75	3.61	15.07	-37.4	-38.4	22.9	0.00e+00	5	27	0	629145600	48	5987
2026-01-15 20:10:25.78	2.97	15.04	-37.3	-38.3	23.0	0.00e+00	92	27	0	634388480	48	5918
2026-01-15 20:10:28.80	2.33	15.01	-37.6	-38.6	22.7	0.00e+00	70	27	0	639631360	48	6163
2026-01-15 20:10:31.83	1.69	14.97	-37.7	-38.8	22.6	0.00e+00	11	27	0	645922816	48	6263
2026-01-15 20:10:34.86	1.06	14.93	-37.6	-38.6	22.8	0.00e+00	91	27	0	651165696	48	6116
2026-01-15 20:10:37.89	0.43	14.89	-37.2	-38.2	23.1	0.00e+00	0	27	0	657457152	48	5852
2026-01-15 20:10:40.92	359.80	14.84	-37.2	-38.2	23.1	0.00e+00	0	27	0	662700032	48	5833
2026-01-15 20:10:43.94	359.17	14.79	-37.2	-38.2	23.1	0.00e+00	90	27	0	667942912	48	5836
2026-01-15 20:10:46.97	358.54	14.74	-37.2	-38.1	23.2	0.00e+00	1	27	0	674234368	48	5821
2026-01-15 20:10:50.00	357.92	14.68	-37.3	-38.2	23.1	0.00e+00	15	27	0	679477248	48	5883
2026-01-15 20:10:53.03	357.30	14.62	-37.1	-38.1	23.1	0.00e+00	15	27	0	685768704	48	5798
2026-01-15 20:10:56.06	356.68	14.56	-37.0	-38.0	23.3	0.00e+00	91	27	0	691011584	48	5713
2026-01-15 20:10:59.09	356.06	14.50	-37.1	-38.0	23.3	0.00e+00	0	27	0	697303040	48	5739
2026-01-15 20:11:02.11	355.45	14.43	-37.3	-38.3	22.9	0.00e+00	0	27	0	702545920	48	5949
2026-01-15 20:11:05.14	354.84	14.35	-37.4	-38.4	22.9	0.00e+00	92	27	0	707788800	48	6012
2026-01-15 20:11:08.17	354.23	14.28	-37.5	-38.4	22.9	0.00e+00	15	27	0	714080256	48	6021
2026-01-15 20:11:11.20	353.63	14.20	-37.4	-38.4	23.0	0.00e+00	65	27	0	719323136	48	6007
2026-01-15 20:11:14.23	353.03	14.12	-37.5	-38.6	22.8	0.00e+00	92	27	0	725614592	48	6121
2026-01-15 20:11:17.25	352.43	14.04	-37.5	-38.5	23.0	0.00e+00	0	27	0	730857472	48	6036
2026-01-15 20:11:20.28	351.84	13.95	-37.5	-38.5	22.9	0.00e+00	65	27	0	736100352	48	6079
2026-01-15 20:11:23.31	351.25	13.86	-37.5	-38.5	22.8	0.00e+00	0	27	0	742391808	48	6084
2026-01-15 20:11:26.34	350.66	13.77	-37.5	-38.5	22.9	0.00e+00	0	27	0	747634688	48	6066
2026-01-15 20:11:29.37	350.08	13.67	-37.2	-38.1	23.1	0.00e+00	0	27	0	753926144	48	5825
2026-01-15 20:11:32.40	349.50	13.57	-37.2	-38.1	23.0	0.00e+00	8	27	0	759169024	48	5808
2026-01-15 20:11:35.42	348.92	13.48	-37.2	-38.2	23.2	0.00e+00	90	27	0	764411904	48	5858
2026-01-15 20:11:38.45	348.35	13.37	-37.0	-38.0	23.3	0.00e+00	0	27	0	770703360	48	5728
2026-01-15 20:11:41.48	347.79	13.27	-37.3	-38.3	23.1	0.00e+00	66	27	0	775946240	48	5901
2026-01-15 20:11:44.50	347.22	13.16	-37.3	-38.3	22.9	0.00e+00	92	27	0	782237696	48	5918
2026-01-15 20:11:47.53	346.67	13.05	-37.3	-38.3	23.0	0.00e+00	5	27	0	787480576	48	5948
2026-01-15 20:11:50.56	346.11	12.94	-37.1	-38.2	23.1	0.00e+00	13	27	0	793772032	48	5835
2026-01-15 20:11:53.59	345.56	12.83	-37.4	-38.5	22.8	0.00e+00	50	27	0	799014912	48	6068
2026-01-15 20:11:56.62	345.01	12.71	-37.0	-38.1	23.1	0.00e+00	6	27	0	804257792	48	5808
2026-01-15 20:11:59.64	344.47	12.59	-37.1	-38.2	23.0	0.00e+00	73	27	0	810549248	48	5874
2026-01-15 20:12:02.67	343.94	12.48	-37.2	-38.3	23.0	0.00e+00	0	27	0	815792128	48	5909
2026-01-15 20:12:05.70	343.40	12.35	-37.5	-38.7	22.6	0.00e+00	87	27	0	822083584	48	6181
2026-01-15 20:12:08.73	342.87	12.23	-37.7	-38.8	22.4	0.00e+00	6	27	0	827326464	48	6304
2026-01-15 20:12:11.76	342.35	12.11	-37.8	-39.0	22.3	0.00e+00	7	27	0	832569344	48	6429
2026-01-15 20:12:14.79	341.83	11.98	-38.0	-39.2	22.0	0.00e+00	92	27	0	838860800	48	6590
2026-01-15 20:12:17.82	341.32	11.85	-38.1	-39.4	21.9	0.00e+00	11	27	0	844103680	48	6716
2026-01-15 20:12:20.85	340.80	11.72	-38.3	-39.7	21.6	0.00e+00	75	27	0	850395136	48	6930
2026-01-15 20:12:23.87	340.30	11.59	-38.6	-40.1	21.2	0.00e+00	90	27	0	855638016	48	7336
2026-01-15 20:12:26.90	339.80	11.46	-38.9	-40.4	21.0	0.00e+00	0	27	0	861929472	50	6745
2026-01-15 20:12:29.93	339.30	11.32	-39.1	-40.6	20.8	0.00e+00	0	27	0	867172352	50	6907
2026-01-15 20:12:32.95	338.81	11.19	-39.1	-40.6	20.8	0.00e+00	12	27	0	872415232	50	6856
2026-01-15 20:12:35.98	338.33	11.05	-39.2	-40.7	20.6	0.00e+00	0	27	0	878706688	50	7003
2026-01-15 20:12:39.00	337.84	10.91	-39.7	-41.3	20.1	0.00e+00	12	27	0	883949568	50	7438
2026-01-15 20:12:42.03	337.37	10.77	-40.0	-41.5	19.8	0.00e+00	70	27	0	890241024	52	6844
2026-01-15 20:12:45.06	336.89	10.63	-39.8	-41.3	20.0	0.00e+00	89	27	0	895483904	52	6684
2026-01-15 20:12:48.09	336.42	10.49	-39.9	-41.3	20.0	0.00e+00	0	27	0	900726784	52	6682
2026-01-15 20:12:51.12	335.96	10.35	-40.0	-41.5	19.8	0.00e+00	0	26	0	907018240	52	6842
2026-01-15 20:12:54.15	335.50	10.21	-40.2	-41.8	19.5	0.00e+00	92	27	0	912261120	52	7047
2026-01-15 20:12:57.17	335.05	10.06	-40.3	-41.9	19.5	0.00e+00	11	27	0	918552576	52	7134
2026-01-15 20:13:00.20	334.60	9.92	-40.2	-41.7	19.6	0.00e+00	74	27	0	923795456	52	6943
2026-01-15 20:13:03.23	334.15	9.77	-40.2	-41.7	19.6	0.00e+00	90	27	0	929038336	52	6943
2026-01-15 20:13:06.26	333.71	9.62	-40.3	-41.9	19.4	0.00e+00	0	27	0	935329792	52	7102
2026-01-15 20:13:09.29	333.27	9.48	-40.2	-41.6	19.6	0.00e+00	0	27	0	940572672	52	6926
2026-01-15 20:13:12.31	332.84	9.33	-40.0	-41.4	19.9	0.00e+00	35	27	0	946864128	52	6717
2026-01-15 20:13:15.34	332.41	9.18	-39.7	-41.0	20.3	0.00e+00	0	27	0	952107008	52	6432
2026-01-15 20:13:18.37	331.99	9.03	-39.7	-41.1	20.1	0.00e+00	0	27	0	958398464	52	6482
2026-01-15 20:13:21.40	331.57	8.88	-39.8	-41.2	20.0	0.00e+00	9	27	0	963641344	52	6582
2026-01-15 20:13:24.43	331.16	8.73	-39.9	-41.3	20.0	0.00e+00	92	27	0	968884224	52	6623
2026-01-15 20:13:27.46	330.74	8.58	-39.5	-40.8	20.4	0.00e+00	0	27	0	975175680	52	6269
2026-01-15 20:13:30.48	330.34	8.43	-39.3	-40.5	20.7	0.00e+00	0	27	0	980418560	52	6080
2026-01-15 20:13:33.51	329.94	8.27	-38.9	-40.1	21.0	0.00e+00	90	27	0	986710016	52	5815
2026-01-15 20:13:36.54	329.54	8.12	-38.7	-39.9	21.3	0.00e+00	10	27	0	991952896	52	5669
2026-01-15 20:13:39.58	329.15	7.97	-38.5	-39.7	21.4	0.00e+00	5	27	0	997195776	50	6194
2026-01-15 20:13:42.60	328.76	7.82	-38.5	-39.7	21.4	0.00e+00	90	27	0	1003487232	50	6174
2026-01-15 20:13:45.63	328.37	7.66	-38.2	-39.3	21.8	0.00e+00	0	27	0	1008730112	50	5908
2026-01-15 20:13:48.66	327.99	7.51	-38.3	-39.4	21.7	0.00e+00	82	27	0	1015021568	50	5983
2026-01-15 20:13:51.69	327.62	7.35	-38.2	-39.3	21.8	0.00e+00	6	27	0	1020264448	50	5911
2026-01-15 20:13:54.72	327.24	7.20	-38.1	-39.2	21.8	0.00e+00	86	27	0	1026555904	50	5876
2026-01-15 20:13:57.75	326.88	7.04	-38.0	-39.1	21.9	0.00e+00	4	27	0	1031798784	50	5805
2026-01-15 20:14:00.78	326.51	6.89	-38.2	-39.3	21.5	0.00e+00	9	27	0	1037041664	50	5952
2026-01-15 20:14:03.80	326.15	6.73	-38.3	-39.4	21.5	0.00e+00	92	27	0	1043333120	50	6015
2026-01-15 20:14:06.83	325.80	6.58	-38.4	-39.5	21.4	0.00e+00	72	27	0	1048576000	50	6086
2026-01-15 20:14:09.86	325.44	6.42	-38.1	-39.2	21.7	0.00e+00	0	27	0	1054867456	50	5894
2026-01-15 20:14:12.89	325.10	6.27	-38.0	-39.1	21.7	0.00e+00	92	27	0	1060110336	50	5819
2026-01-15 20:14:15.92	324.75	6.11	-38.3	-39.5	21.4	0.00e+00	0	27	0	1065353216	50	6058
2026-01-15 20:14:18.95	324.41	5.96	-38.5	-39.7	21.2	0.00e+00	0	27	0	1071644672	50	6221
2026-01-15 20:14:21.98	324.07	5.80	-38.6	-39.8	21.1	0.00e+00	91	27	0	1076887552	50	6288
2026-01-15 20:14:25.01	323.74	5.65	-38.7	-40.0	21.0	0.00e+00	0	27	0	1083179008	50	6396
2026-01-15 20:14:28.03	323.41	5.49	-38.6	-39.8	21.0	0.00e+00	79	27	0	1088421888	50	6310
2026-01-15 20:14:31.06	323.08	5.34	-38.7	-39.9	21.0	0.00e+00	76	27	0	1094713344	50	6376
2026-01-15 20:14:34.09	322.76	5.18	-38.7	-40.0	20.9	0.00e+00	92	27	0	1099956224	50	6404
2026-01-15 20:14:37.12	322.44	5.03	-38.8	-40.0	20.8	0.00e+00	0	27	0	1105199104	50	6444
2026-01-15 20:14:40.14	322.12	4.87	-38.9	-40.2	20.6	0.00e+00	0	27	0	1111490560	50	6559
2026-01-15 20:14:43.17	321.81	4.72	-39.2	-40.4	20.4	0.00e+00	92	27	0	1116733440	50	6767
2026-01-15 20:14:46.20	321.50	4.56	-39.3	-40.7	20.0	0.00e+00	8	27	0	1123024896	50	6943
2026-01-15 20:14:49.23	321.20	4.41	-39.5	-40.9	19.9	0.00e+00	7	27	0	1128267776	50	7095
2026-01-15 20:14:52.26	320.89	4.25	-39.6	-41.0	19.8	0.00e+00	92	27	0	1133510656	50	7210
2026-01-15 20:14:55.29	320.60	4.10	-39.7	-41.2	19.5	0.00e+00	2	27	0	1139802112	52	6552
2026-01-15 20:14:58.32	320.30	3.94	-39.7	-41.2	19.5	0.00e+00	0	27	0	1145044992	52	6543
2026-01-15 20:15:01.35	320.01	3.79	-39.9	-41.4	19.1	0.00e+00	7	27	0	1151336448	52	6735
2026-01-15 20:15:04.38	319.72	3.63	-40.4	-42.1	18.5	0.00e+00	0	27	0	1156579328	52	7290
2026-01-15 20:15:07.41	319.43	3.48	-40.7	-42.4	18.1	0.00e+00	0	27	0	1162870784	54	6748
2026-01-15 20:15:10.44	319.15	3.33	-40.7	-42.4	18.1	0.00e+00	78	27	0	1168113664	54	6753
2026-01-15 20:15:13.46	318.87	3.17	-40.5	-42.2	18.3	0.00e+00	90	27	0	1173356544	54	6589
2026-01-15 20:15:16.49	318.59	3.02	-45.4	-51.8	3.5	5.00e-02	0	27	0	1179648000	56	17689
2026-01-15 20:15:19.52	318.32	2.87	-47.9	-63.0	3.6	1.51e+00	0	27	104	1179648000	60	51085
2026-01-15 20:15:22.55	318.05	2.71	-48.1	-63.3	3.6	1.51e+00	0	27	104	1179648000	60	52974
2026-01-15 20:15:25.58	317.78	2.56	-48.1	-63.4	3.6	1.51e+00	0	27	104	1179648000	60	53228
2026-01-15 20:15:28.61	317.51	2.41	-48.0	-63.3	3.6	1.51e+00	0	27	104	1179648000	60	52789
2026-01-15 20:15:31.64	317.25	2.26	-48.0	-63.1	3.6	1.51e+00	0	27	104	1179648000	60	51898
2026-01-15 20:15:34.66	316.99	2.10	-48.1	-63.3	3.6	1.51e+00	0	27	104	1179648000	60	52794
2026-01-15 20:15:37.69	316.73	1.95	-48.0	-63.2	3.6	1.51e+00	0	27	104	1179648000	60	52191
2026-01-15 20:15:40.72	316.48	1.80	-48.0	-63.2	3.5	1.51e+00	0	27	104	1179648000	60	52390
2026-01-15 20:15:43.75	316.23	1.65	-48.0	-63.2	3.6	1.51e+00	0	27	104	1179648000	60	52210
2026-01-15 20:15:46.78	315.98	1.50	-48.0	-63.2	3.6	1.51e+00	0	27	104	1179648000	60	52332
2026-01-15 20:15:49.81	315.73	1.35	-48.0	-63.2	3.6	1.51e+00	0	27	104	1179648000	60	52405
2026-01-15 20:15:52.83	315.49	1.20	-48.0	-63.2	3.6	1.51e+00	0	27	104	1179648000	60	52207
2026-01-15 20:15:55.86	315.25	1.05	-47.9	-63.1	3.6	1.51e+00	0	27	104	1179648000	60	51799
2026-01-15 20:15:58.89	315.01	0.90	-48.0	-63.1	3.6	1.51e+00	0	27	104	1179648000	60	51870
2026-01-15 20:16:01.92	314.77	0.75	-48.0	-63.2	3.6	1.51e+00	0	27	104	1179648000	60	52460
2026-01-15 20:16:04.95	314.54	0.60	-47.9	-63.1	3.6	1.51e+00	0	27	104	1179648000	60	51681
2026-01-15 20:16:07.97	314.31	0.45	-47.9	-63.1	3.6	1.51e+00	0	27	104	1179648000	60	51758
2026-01-15 20:16:11.00	314.08	0.30	-47.9	-63.1	3.6	1.51e+00	0	27	104	1179648000	60	51842
2026-01-15 20:16:14.03	313.85	0.16	-48.0	-63.1	3.6	1.51e+00	0	27	104	1179648000	60	51917
2026-01-15 20:16:17.06	313.63	0.01	-47.9	-63.1	3.6	1.51e+00	0	27	104	1179648000	60	51826

#Closed at: 2026-01-15 20:16:19
#Recorded file [1179 MB]: D:/lorett/data/35029_260116_080345.dat