passes_logs/2026/01/15/R4.6S_Anadyr/R4.6S_Anadyr__20260115_030250_NOAA_20_JPSS-1_rec.log

#Pass ID: 20260115_030250_NOAA 20 (JPSS-1)
#Satellite: NOAA 20 (JPSS-1)
#Configuration: NOAA 20
#almurnet v.1.7.20251203
#Start time: 2026-01-15 03:02:52

#Version: 2.2.20231116
#Station: R4.6S_Anadyr
#Location: 177.4865 lon 64.73178 lat
#TLE: 1 43013U 17073A   26014.55467351  .00000038  00000+0  38801-4 0  9992
#TLE: 2 43013  98.7635 315.4987 0001517  39.9279 320.2008 14.19535859422677

#Time	Az	El	Level	Level2	SNR	BER	BlckErr	Temp	State	Recorded	gain1	gain2
2026-01-15 03:02:52.95	232.01	0.12	-48.8	-63.7	3.6	1.51e+00	0	27	0	0	60	55061
2026-01-15 03:02:55.98	232.27	0.25	-48.9	-64.0	3.6	1.51e+00	0	28	104	0	60	57536
2026-01-15 03:02:59.00	232.54	0.39	-48.9	-64.1	3.6	1.51e+00	0	29	104	0	60	57804
2026-01-15 03:03:02.03	232.80	0.52	-48.7	-64.2	3.6	1.51e+00	0	28	104	0	60	58600
2026-01-15 03:03:05.06	233.07	0.66	-48.9	-64.0	3.6	1.51e+00	0	28	104	0	60	57405
2026-01-15 03:03:08.08	233.34	0.80	-48.2	-63.4	3.6	1.51e+00	0	28	104	0	60	53381
2026-01-15 03:03:11.11	233.62	0.93	-46.6	-61.8	3.6	1.51e+00	0	29	104	0	60	44397
2026-01-15 03:03:14.14	233.89	1.07	-46.6	-61.8	3.6	1.51e+00	0	29	104	0	60	44383
2026-01-15 03:03:17.17	234.17	1.21	-46.6	-61.8	3.6	1.51e+00	0	29	104	0	60	44290
2026-01-15 03:03:20.20	234.46	1.34	-46.6	-61.8	3.6	1.51e+00	0	29	104	0	60	44307
2026-01-15 03:03:23.22	234.74	1.48	-46.6	-61.8	3.6	1.51e+00	0	29	104	0	60	44286
2026-01-15 03:03:26.25	235.02	1.62	-46.6	-61.8	3.6	1.51e+00	0	29	104	0	60	44322
2026-01-15 03:03:29.28	235.31	1.75	-46.6	-61.8	3.6	1.51e+00	0	29	104	0	60	44376
2026-01-15 03:03:32.31	235.61	1.89	-46.6	-61.8	3.6	1.51e+00	0	29	104	0	60	44343
2026-01-15 03:03:35.33	235.90	2.03	-46.6	-61.8	3.6	1.51e+00	0	29	104	0	60	44248
2026-01-15 03:03:38.36	236.20	2.16	-46.6	-61.7	3.6	1.51e+00	0	29	104	0	60	44210
2026-01-15 03:03:41.38	236.49	2.30	-46.6	-61.7	3.6	1.51e+00	0	29	104	0	60	44087
2026-01-15 03:03:44.41	236.80	2.44	-46.6	-61.7	3.6	1.51e+00	0	29	104	0	60	43986
2026-01-15 03:03:47.44	237.10	2.58	-46.6	-61.7	3.6	1.51e+00	0	29	104	0	60	44068
2026-01-15 03:03:50.46	237.41	2.71	-46.6	-61.8	3.6	1.51e+00	0	29	104	0	60	44570
2026-01-15 03:03:53.49	237.72	2.85	-46.6	-61.7	3.6	1.51e+00	0	29	104	0	60	43900
2026-01-15 03:03:56.52	238.03	2.99	-46.6	-61.6	3.6	1.51e+00	0	29	104	0	60	43705
2026-01-15 03:03:59.55	238.35	3.13	-46.7	-61.6	3.6	1.51e+00	0	29	104	0	60	43214
2026-01-15 03:04:02.58	238.67	3.26	-46.7	-61.3	3.6	1.51e+00	0	29	104	0	60	42115
2026-01-15 03:04:05.61	238.99	3.40	-46.6	-61.6	3.6	1.51e+00	0	29	104	0	60	43426
2026-01-15 03:04:08.63	239.31	3.54	-46.7	-60.4	3.6	1.51e+00	0	29	104	0	60	37891
2026-01-15 03:04:11.66	239.64	3.67	-46.7	-59.0	3.9	1.48e+00	0	29	104	0	60	32247
2026-01-15 03:04:14.69	239.97	3.81	-46.7	-56.9	4.0	1.36e+00	9	29	0	0	60	25185
2026-01-15 03:04:17.72	240.30	3.95	-46.6	-55.3	4.8	6.66e-01	0	29	0	6291456	60	20989
2026-01-15 03:04:20.74	240.64	4.09	-46.4	-54.6	5.5	4.45e-01	0	29	0	11534336	60	19313
2026-01-15 03:04:23.77	240.98	4.22	-46.3	-53.7	6.4	2.68e-01	0	29	0	16777216	60	17590
2026-01-15 03:04:26.80	241.32	4.36	-46.2	-52.8	7.7	9.34e-02	0	29	0	23068672	60	15694
2026-01-15 03:04:29.83	241.67	4.50	-45.9	-51.6	9.1	2.80e-02	0	29	0	28311552	60	13811
2026-01-15 03:04:32.85	242.01	4.63	-45.5	-50.3	10.8	2.67e-03	0	29	0	34603008	60	11789
2026-01-15 03:04:35.88	242.36	4.77	-45.0	-48.9	12.3	3.07e-04	0	29	0	39845888	60	10116
2026-01-15 03:04:38.91	242.72	4.90	-44.7	-48.1	13.4	4.11e-05	0	29	0	45088768	60	9176
2026-01-15 03:04:41.93	243.08	5.04	-44.3	-47.4	14.2	3.80e-06	0	29	0	51380224	60	8430
2026-01-15 03:04:44.96	243.44	5.18	-44.1	-47.0	14.7	0.00e+00	0	29	0	56623104	60	8051
2026-01-15 03:04:47.99	243.80	5.31	-43.5	-46.0	15.7	0.00e+00	0	29	0	62914560	60	7213
2026-01-15 03:04:51.02	244.17	5.45	-43.3	-45.8	16.0	0.00e+00	0	29	0	68157440	60	7020
2026-01-15 03:04:54.05	244.54	5.58	-43.1	-45.4	16.4	0.00e+00	0	29	0	74448896	60	6722
2026-01-15 03:04:57.07	244.91	5.71	-42.5	-44.5	17.2	0.00e+00	0	29	0	79691776	58	6828
2026-01-15 03:05:00.10	245.29	5.85	-42.2	-44.1	17.7	0.00e+00	0	29	0	84934656	58	6497
2026-01-15 03:05:03.13	245.67	5.98	-41.6	-43.3	18.5	0.00e+00	0	29	0	91226112	56	6658
2026-01-15 03:05:06.16	246.06	6.12	-41.3	-42.8	19.1	0.00e+00	0	29	0	96468992	56	6305
2026-01-15 03:05:09.19	246.44	6.25	-41.0	-42.5	19.4	0.00e+00	0	29	0	102760448	56	6046
2026-01-15 03:05:12.21	246.83	6.38	-40.6	-42.0	19.9	0.00e+00	0	29	0	108003328	54	6409
2026-01-15 03:05:15.24	247.23	6.51	-40.2	-41.5	20.4	0.00e+00	0	29	0	113246208	54	6066
2026-01-15 03:05:18.27	247.63	6.65	-40.2	-41.4	20.5	0.00e+00	0	29	0	119537664	54	6018
2026-01-15 03:05:21.29	248.03	6.78	-39.8	-41.0	20.9	0.00e+00	0	29	0	124780544	54	5739
2026-01-15 03:05:24.32	248.43	6.91	-39.8	-41.0	21.0	0.00e+00	0	29	0	131072000	52	6403
2026-01-15 03:05:27.35	248.84	7.04	-39.6	-40.7	21.2	0.00e+00	0	29	0	136314880	52	6219
2026-01-15 03:05:30.38	249.25	7.17	-39.5	-40.6	21.4	0.00e+00	0	29	0	142606336	52	6145
2026-01-15 03:05:33.40	249.67	7.30	-39.4	-40.5	21.5	0.00e+00	0	29	0	147849216	52	6080
2026-01-15 03:05:36.43	250.09	7.42	-39.4	-40.5	21.5	0.00e+00	0	29	0	153092096	52	6049
2026-01-15 03:05:39.46	250.51	7.55	-39.3	-40.4	21.6	0.00e+00	0	29	0	159383552	52	6013
2026-01-15 03:05:42.49	250.93	7.68	-39.3	-40.5	21.6	0.00e+00	0	29	0	164626432	52	6035
2026-01-15 03:05:45.51	251.36	7.80	-39.3	-40.4	21.7	0.00e+00	0	29	0	170917888	52	5989
2026-01-15 03:05:48.54	251.80	7.93	-39.3	-40.4	21.6	0.00e+00	0	29	0	176160768	52	5996
2026-01-15 03:05:51.56	252.23	8.05	-39.3	-40.4	21.6	0.00e+00	0	30	0	181403648	52	6030
2026-01-15 03:05:54.58	252.67	8.18	-39.3	-40.4	21.7	0.00e+00	0	29	0	187695104	52	5985
2026-01-15 03:05:57.61	253.11	8.30	-39.4	-40.5	21.7	0.00e+00	0	30	0	192937984	52	6046
2026-01-15 03:06:00.64	253.56	8.42	-39.4	-40.5	21.7	0.00e+00	0	29	0	199229440	52	6056
2026-01-15 03:06:03.67	254.01	8.55	-39.7	-40.8	21.3	0.00e+00	0	30	0	204472320	52	6288
2026-01-15 03:06:06.70	254.47	8.67	-39.6	-40.7	21.4	0.00e+00	0	29	0	209715200	52	6229
2026-01-15 03:06:09.73	254.93	8.78	-39.6	-40.8	21.5	0.00e+00	0	29	0	216006656	52	6257
2026-01-15 03:06:12.75	255.39	8.90	-39.5	-40.6	21.6	0.00e+00	0	29	0	221249536	52	6114
2026-01-15 03:06:15.78	255.85	9.02	-39.5	-40.6	21.6	0.00e+00	0	29	0	227540992	52	6135
2026-01-15 03:06:18.80	256.32	9.14	-39.7	-40.8	21.4	0.00e+00	0	29	0	232783872	52	6298
2026-01-15 03:06:21.83	256.79	9.25	-39.8	-40.9	21.3	0.00e+00	0	29	0	239075328	52	6367
2026-01-15 03:06:24.86	257.27	9.36	-39.8	-41.0	21.3	0.00e+00	0	29	0	244318208	52	6393
2026-01-15 03:06:27.89	257.75	9.48	-39.6	-40.7	21.5	0.00e+00	0	29	0	249561088	52	6198
2026-01-15 03:06:30.92	258.23	9.59	-39.8	-41.0	21.2	0.00e+00	0	29	0	255852544	52	6416
2026-01-15 03:06:33.95	258.72	9.70	-39.9	-41.0	21.3	0.00e+00	0	29	0	261095424	52	6456
2026-01-15 03:06:36.97	259.21	9.81	-40.0	-41.2	21.2	0.00e+00	0	30	0	267386880	52	6589
2026-01-15 03:06:40.00	259.70	9.91	-39.7	-40.8	21.4	0.00e+00	0	29	0	272629760	52	6270
2026-01-15 03:06:43.03	260.20	10.02	-39.7	-40.9	21.4	0.00e+00	0	30	0	277872640	52	6319
2026-01-15 03:06:46.05	260.70	10.12	-39.9	-41.0	21.2	0.00e+00	0	30	0	284164096	52	6447
2026-01-15 03:06:49.08	261.21	10.23	-40.0	-41.2	21.1	0.00e+00	0	29	0	289406976	52	6541
2026-01-15 03:06:52.10	261.71	10.33	-39.8	-41.0	21.3	0.00e+00	0	29	0	295698432	52	6396
2026-01-15 03:06:55.13	262.22	10.43	-39.7	-40.8	21.4	0.00e+00	0	29	0	300941312	52	6287
2026-01-15 03:06:58.15	262.74	10.53	-39.5	-40.7	21.6	0.00e+00	0	29	0	306184192	52	6186
2026-01-15 03:07:01.17	263.25	10.62	-39.6	-40.7	21.5	0.00e+00	0	30	0	312475648	52	6216
2026-01-15 03:07:04.20	263.77	10.72	-39.9	-41.1	21.2	0.00e+00	0	29	0	317718528	52	6484
2026-01-15 03:07:07.22	264.30	10.81	-39.9	-41.1	21.2	0.00e+00	0	29	0	324009984	52	6504
2026-01-15 03:07:10.25	264.82	10.90	-39.9	-41.0	21.3	0.00e+00	0	29	0	329252864	52	6455
2026-01-15 03:07:13.27	265.35	10.99	-39.9	-41.1	21.2	0.00e+00	0	30	0	335544320	52	6479
2026-01-15 03:07:16.30	265.89	11.08	-39.7	-40.8	21.4	0.00e+00	0	29	0	340787200	52	6300
2026-01-15 03:07:19.33	266.42	11.17	-39.7	-40.9	21.4	0.00e+00	0	29	0	346030080	52	6320
2026-01-15 03:07:22.36	266.96	11.25	-39.7	-40.8	21.4	0.00e+00	0	29	0	352321536	52	6310
2026-01-15 03:07:25.38	267.51	11.33	-40.0	-41.1	21.1	0.00e+00	0	29	0	357564416	52	6522
2026-01-15 03:07:28.41	268.05	11.41	-40.2	-41.5	20.8	0.00e+00	0	29	0	363855872	52	6779
2026-01-15 03:07:31.44	268.60	11.49	-40.1	-41.3	21.0	0.00e+00	0	29	0	369098752	52	6630
2026-01-15 03:07:34.47	269.15	11.56	-40.1	-41.3	21.1	0.00e+00	0	29	0	374341632	52	6667
2026-01-15 03:07:37.49	269.70	11.64	-39.6	-40.7	21.7	0.00e+00	0	29	0	380633088	52	6203
2026-01-15 03:07:40.52	270.26	11.71	-39.4	-40.5	21.8	0.00e+00	0	29	0	385875968	52	6062
2026-01-15 03:07:43.55	270.82	11.78	-39.5	-40.7	21.6	0.00e+00	0	29	0	392167424	52	6178
2026-01-15 03:07:46.57	271.38	11.84	-39.6	-40.7	21.6	0.00e+00	0	30	0	397410304	52	6228
2026-01-15 03:07:49.61	271.94	11.91	-39.4	-40.5	21.8	0.00e+00	0	29	0	402653184	52	6054
2026-01-15 03:07:52.63	272.51	11.97	-39.0	-40.0	22.2	0.00e+00	0	29	0	408944640	52	5724
2026-01-15 03:07:55.66	273.08	12.03	-38.9	-39.9	22.3	0.00e+00	0	30	0	414187520	52	5670
2026-01-15 03:07:58.69	273.65	12.09	-39.1	-40.2	22.0	0.00e+00	0	30	0	420478976	52	5859
2026-01-15 03:08:01.71	274.22	12.14	-39.5	-40.6	21.6	0.00e+00	0	29	0	425721856	52	6170
2026-01-15 03:08:04.74	274.79	12.20	-39.8	-41.0	21.4	0.00e+00	0	29	0	432013312	52	6394
2026-01-15 03:08:07.76	275.37	12.25	-39.7	-40.8	21.5	0.00e+00	0	29	0	437256192	52	6292
2026-01-15 03:08:10.79	275.95	12.29	-39.8	-41.0	21.3	0.00e+00	0	29	0	442499072	52	6405
2026-01-15 03:08:13.81	276.53	12.34	-40.1	-41.3	21.2	0.00e+00	0	29	0	448790528	52	6634
2026-01-15 03:08:16.84	277.11	12.38	-40.4	-41.6	20.7	0.00e+00	0	29	0	454033408	52	6925
2026-01-15 03:08:19.87	277.69	12.42	-40.3	-41.5	20.8	0.00e+00	0	29	0	460324864	52	6837
2026-01-15 03:08:22.89	278.28	12.46	-40.1	-41.3	21.0	0.00e+00	0	29	0	465567744	52	6645
2026-01-15 03:08:25.92	278.86	12.49	-40.3	-41.5	20.9	0.00e+00	0	29	0	470810624	52	6781
2026-01-15 03:08:28.95	279.45	12.52	-40.2	-41.5	20.9	0.00e+00	0	29	0	477102080	52	6774
2026-01-15 03:08:31.97	280.04	12.55	-40.1	-41.3	21.1	0.00e+00	0	29	0	482344960	52	6671
2026-01-15 03:08:35.00	280.63	12.58	-39.8	-40.9	21.3	0.00e+00	0	29	0	488636416	52	6385
2026-01-15 03:08:38.03	281.22	12.60	-39.9	-41.1	21.4	0.00e+00	0	30	0	493879296	52	6478
2026-01-15 03:08:41.05	281.81	12.62	-40.1	-41.3	21.1	0.00e+00	0	29	0	499122176	52	6642
2026-01-15 03:08:44.08	282.40	12.64	-39.9	-41.0	21.4	0.00e+00	0	29	0	505413632	52	6428
2026-01-15 03:08:47.10	282.99	12.66	-39.8	-40.9	21.5	0.00e+00	0	29	0	510656512	52	6344
2026-01-15 03:08:50.13	283.58	12.67	-39.4	-40.4	21.9	0.00e+00	0	29	0	516947968	52	6029
2026-01-15 03:08:53.16	284.18	12.68	-39.5	-40.6	21.7	0.00e+00	0	29	0	522190848	52	6116
2026-01-15 03:08:56.18	284.77	12.69	-39.7	-40.8	21.5	0.00e+00	0	30	0	528482304	52	6297
2026-01-15 03:08:59.21	285.36	12.69	-39.5	-40.6	21.8	0.00e+00	0	29	0	533725184	52	6146
2026-01-15 03:09:02.24	285.96	12.69	-39.2	-40.3	22.1	0.00e+00	0	29	0	538968064	52	5902
2026-01-15 03:09:05.26	286.55	12.69	-39.2	-40.3	22.0	0.00e+00	0	30	0	545259520	52	5916
2026-01-15 03:09:08.28	287.14	12.69	-39.0	-40.0	22.3	0.00e+00	0	29	0	550502400	52	5745
2026-01-15 03:09:11.31	287.74	12.68	-38.8	-39.8	22.4	0.00e+00	0	30	0	556793856	52	5627
2026-01-15 03:09:14.33	288.33	12.67	-38.7	-39.6	22.6	0.00e+00	0	29	0	562036736	50	6172
2026-01-15 03:09:17.36	288.92	12.66	-38.4	-39.4	22.8	0.00e+00	0	29	0	567279616	50	5989
2026-01-15 03:09:20.39	289.51	12.64	-38.6	-39.6	22.6	0.00e+00	0	29	0	573571072	50	6113
2026-01-15 03:09:23.41	290.10	12.63	-38.4	-39.4	22.8	0.00e+00	0	30	0	578813952	50	5997
2026-01-15 03:09:26.44	290.69	12.61	-38.3	-39.3	22.9	0.00e+00	0	30	0	585105408	50	5931
2026-01-15 03:09:29.47	291.28	12.58	-38.2	-39.1	23.0	0.00e+00	0	29	0	590348288	50	5814
2026-01-15 03:09:32.49	291.87	12.56	-38.4	-39.3	22.9	0.00e+00	0	29	0	595591168	50	5955
2026-01-15 03:09:35.51	292.46	12.53	-38.1	-39.0	23.1	0.00e+00	0	29	0	601882624	50	5759
2026-01-15 03:09:38.54	293.05	12.50	-38.4	-39.3	23.0	0.00e+00	0	29	0	607125504	50	5950
2026-01-15 03:09:41.57	293.63	12.46	-38.4	-39.4	22.9	0.00e+00	0	30	0	613416960	50	5979
2026-01-15 03:09:44.59	294.21	12.43	-38.2	-39.2	23.0	0.00e+00	0	30	0	618659840	50	5842
2026-01-15 03:09:47.62	294.80	12.39	-38.4	-39.4	22.8	0.00e+00	0	30	0	624951296	50	5999
2026-01-15 03:09:50.65	295.38	12.35	-38.4	-39.4	22.8	0.00e+00	0	30	0	630194176	50	6011
2026-01-15 03:09:53.67	295.96	12.30	-38.5	-39.4	22.7	0.00e+00	0	30	0	635437056	50	6033
2026-01-15 03:09:56.70	296.53	12.26	-38.3	-39.3	22.9	0.00e+00	0	29	0	641728512	50	5943
2026-01-15 03:09:59.72	297.11	12.21	-38.4	-39.3	22.9	0.00e+00	0	29	0	646971392	50	5955
2026-01-15 03:10:02.75	297.68	12.15	-38.6	-39.6	22.6	0.00e+00	0	29	0	653262848	50	6143
2026-01-15 03:10:05.78	298.25	12.10	-39.0	-40.0	22.2	0.00e+00	0	30	0	658505728	50	6445
2026-01-15 03:10:08.81	298.82	12.04	-38.9	-39.9	22.3	0.00e+00	0	30	0	663748608	50	6367
2026-01-15 03:10:11.84	299.39	11.98	-38.5	-39.5	22.8	0.00e+00	0	30	0	670040064	50	6044
2026-01-15 03:10:14.86	299.95	11.92	-38.3	-39.3	22.9	0.00e+00	0	30	0	675282944	50	5910
2026-01-15 03:10:17.89	300.52	11.86	-38.3	-39.2	23.0	0.00e+00	0	30	0	681574400	50	5864
2026-01-15 03:10:20.91	301.08	11.79	-38.2	-39.1	23.0	0.00e+00	0	30	0	686817280	50	5824
2026-01-15 03:10:23.94	301.63	11.73	-38.4	-39.3	23.0	0.00e+00	0	29	0	692060160	50	5959
2026-01-15 03:10:26.97	302.19	11.65	-38.4	-39.4	22.8	0.00e+00	0	30	0	698351616	50	6004
2026-01-15 03:10:30.00	302.74	11.58	-38.3	-39.3	22.8	0.00e+00	0	30	0	703594496	50	5945
2026-01-15 03:10:33.02	303.29	11.51	-38.4	-39.4	22.8	0.00e+00	0	30	0	709885952	50	5965
2026-01-15 03:10:36.05	303.84	11.43	-38.4	-39.4	22.8	0.00e+00	0	30	0	715128832	50	6021
2026-01-15 03:10:39.07	304.38	11.35	-38.1	-39.0	23.1	0.00e+00	0	30	0	721420288	50	5730
2026-01-15 03:10:42.10	304.92	11.27	-38.1	-39.1	23.0	0.00e+00	0	30	0	726663168	50	5764
2026-01-15 03:10:45.13	305.46	11.19	-38.1	-39.0	23.1	0.00e+00	0	30	0	731906048	50	5747
2026-01-15 03:10:48.16	306.00	11.10	-38.1	-39.1	22.9	0.00e+00	0	29	0	738197504	50	5797
2026-01-15 03:10:51.18	306.53	11.02	-38.2	-39.1	23.0	0.00e+00	0	30	0	743440384	50	5807
2026-01-15 03:10:54.21	307.06	10.93	-37.9	-38.8	23.0	0.00e+00	0	30	0	749731840	50	5600
2026-01-15 03:10:57.24	307.58	10.84	-37.8	-38.8	23.2	0.00e+00	0	30	0	754974720	50	5580
2026-01-15 03:11:00.27	308.11	10.75	-38.3	-39.3	22.8	0.00e+00	0	30	0	760217600	50	5917
2026-01-15 03:11:03.30	308.62	10.65	-38.4	-39.3	22.8	0.00e+00	0	29	0	766509056	50	5955
2026-01-15 03:11:06.33	309.14	10.56	-38.5	-39.5	22.7	0.00e+00	0	30	0	771751936	50	6073
2026-01-15 03:11:09.36	309.65	10.46	-38.6	-39.6	22.5	0.00e+00	0	30	0	778043392	50	6138
2026-01-15 03:11:12.38	310.16	10.36	-38.9	-39.9	22.1	0.00e+00	0	29	0	783286272	50	6382
2026-01-15 03:11:15.41	310.67	10.26	-39.2	-40.2	21.9	0.00e+00	0	29	0	789577728	50	6597
2026-01-15 03:11:18.44	311.17	10.16	-39.5	-40.6	21.4	0.00e+00	0	30	0	794820608	50	6920
2026-01-15 03:11:21.47	311.67	10.05	-40.0	-41.2	21.0	0.00e+00	0	29	0	800063488	52	6570
2026-01-15 03:11:24.49	312.17	9.95	-40.2	-41.5	20.7	0.00e+00	0	29	0	806354944	52	6808
2026-01-15 03:11:27.52	312.66	9.84	-40.1	-41.3	20.9	0.00e+00	0	29	0	811597824	52	6679
2026-01-15 03:11:30.55	313.15	9.74	-40.2	-41.5	20.9	0.00e+00	0	30	0	817889280	52	6775
2026-01-15 03:11:33.58	313.64	9.63	-40.3	-41.5	20.6	0.00e+00	0	29	0	823132160	52	6844
2026-01-15 03:11:36.61	314.12	9.52	-40.7	-42.0	20.2	0.00e+00	0	29	0	828375040	52	7208
2026-01-15 03:11:39.63	314.59	9.41	-41.0	-42.4	19.8	0.00e+00	0	29	0	834666496	54	6712
2026-01-15 03:11:42.65	315.07	9.29	-41.4	-42.9	19.3	0.00e+00	0	29	0	839909376	54	7148
2026-01-15 03:11:45.68	315.54	9.18	-41.9	-43.6	18.8	0.00e+00	0	30	0	846200832	56	6868
2026-01-15 03:11:48.71	316.01	9.06	-41.8	-43.4	18.9	0.00e+00	0	30	0	851443712	56	6698
2026-01-15 03:11:51.74	316.47	8.95	-41.5	-43.0	19.2	0.00e+00	0	30	0	856686592	56	6430
2026-01-15 03:11:54.77	316.93	8.83	-41.3	-42.8	19.4	0.00e+00	0	30	0	862978048	56	6290
2026-01-15 03:11:57.80	317.39	8.71	-41.2	-42.6	19.6	0.00e+00	0	30	0	868220928	56	6167
2026-01-15 03:12:00.83	317.84	8.59	-41.4	-42.9	19.3	0.00e+00	0	30	0	874512384	56	6366
2026-01-15 03:12:03.85	318.29	8.47	-41.8	-43.4	18.9	0.00e+00	0	30	0	879755264	56	6721
2026-01-15 03:12:06.88	318.74	8.35	-41.7	-43.3	19.0	0.00e+00	0	30	0	886046720	56	6626
2026-01-15 03:12:09.91	319.18	8.23	-41.4	-42.9	19.2	0.00e+00	0	30	0	891289600	56	6360
2026-01-15 03:12:12.94	319.62	8.11	-40.9	-42.3	19.8	0.00e+00	0	30	0	896532480	56	5923
2026-01-15 03:12:15.96	320.06	7.99	-41.1	-42.5	19.6	0.00e+00	0	30	0	902823936	56	6087
2026-01-15 03:12:18.99	320.49	7.86	-41.4	-42.9	19.2	0.00e+00	0	30	0	908066816	56	6368
2026-01-15 03:12:22.02	320.92	7.74	-41.3	-42.8	19.4	0.00e+00	0	30	0	914358272	56	6251
2026-01-15 03:12:25.05	321.34	7.61	-40.8	-42.2	19.9	0.00e+00	0	29	0	919601152	56	5831
2026-01-15 03:12:28.07	321.76	7.49	-40.3	-41.6	20.4	0.00e+00	0	30	0	924844032	54	6144
2026-01-15 03:12:31.09	322.18	7.36	-40.3	-41.6	20.3	0.00e+00	0	30	0	931135488	54	6164
2026-01-15 03:12:34.12	322.59	7.23	-40.7	-42.0	19.9	0.00e+00	0	30	0	936378368	54	6449
2026-01-15 03:12:37.15	323.00	7.10	-40.6	-42.0	19.8	0.00e+00	0	30	0	942669824	54	6427
2026-01-15 03:12:40.18	323.41	6.97	-40.8	-42.2	19.9	0.00e+00	0	30	0	947912704	54	6560
2026-01-15 03:12:43.20	323.81	6.84	-40.8	-42.2	19.7	0.00e+00	0	29	0	953155584	54	6584
2026-01-15 03:12:46.23	324.22	6.72	-40.8	-42.2	19.8	0.00e+00	0	29	0	959447040	54	6588
2026-01-15 03:12:49.26	324.61	6.58	-40.1	-41.4	20.4	0.00e+00	0	29	0	964689920	54	6026
2026-01-15 03:12:52.28	325.01	6.45	-40.0	-41.2	20.5	0.00e+00	0	30	0	970981376	54	5888
2026-01-15 03:12:55.31	325.40	6.32	-39.9	-41.1	20.5	0.00e+00	0	30	0	976224256	52	6523
2026-01-15 03:12:58.34	325.78	6.19	-39.6	-41.2	19.5	7.36e-03	0	30	0	982515712	52	6614
2026-01-15 03:13:01.37	326.17	6.06	-39.8	-41.8	19.0	7.96e-03	0	30	0	987758592	52	7037
2026-01-15 03:13:04.40	326.55	5.93	-39.9	-41.8	19.5	5.57e-03	0	30	0	993001472	52	7077
2026-01-15 03:13:07.42	326.92	5.79	-39.3	-41.0	19.6	6.97e-03	0	30	0	999292928	52	6447
2026-01-15 03:13:10.45	327.30	5.66	-39.3	-41.2	19.0	8.56e-03	0	30	0	1004535808	52	6600
2026-01-15 03:13:13.48	327.67	5.53	-40.2	-41.6	20.1	1.21e-03	0	30	0	1010827264	52	6868
2026-01-15 03:13:16.51	328.03	5.39	-40.3	-41.6	20.1	0.00e+00	0	30	0	1016070144	52	6900
2026-01-15 03:13:19.54	328.40	5.26	-39.8	-41.1	20.6	0.00e+00	0	30	0	1021313024	52	6469
2026-01-15 03:13:22.57	328.76	5.13	-39.6	-40.8	20.7	0.00e+00	0	30	0	1027604480	52	6285
2026-01-15 03:13:25.59	329.12	4.99	-39.8	-41.0	20.6	0.00e+00	0	30	0	1032847360	52	6443
2026-01-15 03:13:28.62	329.47	4.86	-37.4	-41.1	17.3	2.48e-02	0	29	0	1039138816	48	8183
2026-01-15 03:13:31.65	329.82	4.72	-37.2	-41.4	16.8	2.42e-02	0	30	0	1044381696	48	8508
2026-01-15 03:13:34.67	330.17	4.59	-37.2	-41.3	17.6	2.16e-02	0	30	0	1050673152	48	8418
2026-01-15 03:13:37.70	330.52	4.45	-37.5	-41.0	18.1	1.35e-02	0	30	0	1055916032	48	8133
2026-01-15 03:13:40.73	330.86	4.32	-38.1	-41.2	17.7	1.40e-02	0	30	0	1061158912	50	7422
2026-01-15 03:13:43.76	331.20	4.18	-37.6	-41.7	16.4	3.66e-02	0	30	0	1067450368	48	8817
2026-01-15 03:13:46.79	331.53	4.05	-36.1	-42.8	15.3	4.47e-02	0	30	0	1072693248	46	11164
2026-01-15 03:13:49.81	331.87	3.91	-42.3	-45.0	14.9	0.00e+00	0	30	0	1078984704	56	8101
2026-01-15 03:13:52.84	332.20	3.78	-43.1	-47.7	11.0	6.52e-04	0	30	0	1084227584	58	9844
2026-01-15 03:13:55.87	332.52	3.64	-43.6	-51.2	5.9	2.06e-01	0	30	0	1089470464	58	14699
2026-01-15 03:13:58.90	332.85	3.50	-43.7	-56.4	3.7	1.50e+00	0	30	104	1093664768	58	26891
2026-01-15 03:14:01.92	333.17	3.37	-43.7	-58.1	3.6	1.51e+00	0	30	104	1093664768	58	32763
2026-01-15 03:14:04.95	333.49	3.23	-43.7	-58.7	3.6	1.51e+00	0	30	104	1093664768	58	35061
2026-01-15 03:14:07.98	333.80	3.10	-43.7	-58.7	3.6	1.51e+00	0	30	104	1093664768	58	34812
2026-01-15 03:14:11.00	334.12	2.96	-44.2	-59.0	3.6	1.51e+00	0	30	104	1093664768	58	36108
2026-01-15 03:14:14.02	334.43	2.83	-48.6	-63.7	3.6	1.51e+00	0	30	104	1093664768	60	55298
2026-01-15 03:14:17.05	334.73	2.69	-48.8	-64.0	3.6	1.51e+00	0	30	104	1093664768	60	57455
2026-01-15 03:14:20.08	335.04	2.55	-48.8	-64.1	3.6	1.51e+00	0	30	104	1093664768	60	58276
2026-01-15 03:14:23.10	335.34	2.42	-48.8	-64.0	3.6	1.51e+00	0	30	104	1093664768	60	57263
2026-01-15 03:14:26.12	335.64	2.28	-48.8	-64.0	3.6	1.51e+00	0	30	104	1093664768	60	57183
2026-01-15 03:14:29.14	335.94	2.15	-48.9	-64.0	3.6	1.51e+00	0	30	104	1093664768	60	57470
2026-01-15 03:14:32.17	336.23	2.01	-48.9	-64.0	3.6	1.51e+00	0	30	104	1093664768	60	57418
2026-01-15 03:14:35.20	336.52	1.88	-48.9	-64.0	3.6	1.51e+00	0	30	104	1093664768	60	57391
2026-01-15 03:14:38.22	336.81	1.74	-48.8	-64.0	3.6	1.51e+00	0	30	104	1093664768	60	57098
2026-01-15 03:14:41.25	337.10	1.61	-48.8	-63.9	3.5	1.51e+00	0	30	104	1093664768	60	56705
2026-01-15 03:14:44.28	337.39	1.47	-48.8	-64.0	3.6	1.51e+00	0	30	104	1093664768	60	57188
2026-01-15 03:14:47.31	337.67	1.34	-48.8	-64.0	3.6	1.51e+00	0	30	104	1093664768	60	57174
2026-01-15 03:14:50.34	337.95	1.20	-48.8	-64.0	3.6	1.51e+00	0	30	104	1093664768	60	57034
2026-01-15 03:14:53.37	338.23	1.07	-48.8	-64.0	3.6	1.51e+00	0	30	104	1093664768	60	57306
2026-01-15 03:14:56.39	338.50	0.93	-48.8	-64.0	3.6	1.51e+00	0	30	104	1093664768	60	57119
2026-01-15 03:14:59.42	338.77	0.80	-48.8	-63.9	3.6	1.51e+00	0	30	104	1093664768	60	56843
2026-01-15 03:15:02.45	339.04	0.66	-48.8	-64.0	3.6	1.51e+00	0	30	104	1093664768	60	56990
2026-01-15 03:15:05.48	339.31	0.53	-48.8	-63.9	3.6	1.51e+00	0	30	104	1093664768	60	56775
2026-01-15 03:15:08.50	339.58	0.39	-48.8	-63.9	3.6	1.51e+00	0	30	104	1093664768	60	56942
2026-01-15 03:15:11.53	339.84	0.26	-48.8	-64.0	3.6	1.51e+00	0	30	104	1093664768	60	57162
2026-01-15 03:15:14.56	340.10	0.12	-48.8	-63.9	3.6	1.51e+00	0	30	104	1093664768	60	56793
2026-01-15 03:15:17.59	340.36	-0.01	-48.8	-63.9	3.6	1.51e+00	0	30	104	1093664768	60	56596

#Closed at: 2026-01-15 03:15:20
#Recorded file [1093 MB]: D:/lorett/data/35029_260115_150252.dat