passes_logs/2026/01/15/R4.6S_Anadyr/R4.6S_Anadyr__20260115_190359_FENGYUN_3D_rec.log

#Pass ID: 20260115_190359_FENGYUN 3D
#Satellite: FENGYUN 3D
#Configuration: FENGYUN 3D
#almurnet v.1.7.20251203
#Start time: 2026-01-15 19:04:03

#Version: 2.2.20231116
#Station: R4.6S_Anadyr
#Location: 177.4865 lon 64.73178 lat
#TLE: 1 43010U 17072A   26014.65117763 -.00000217  00000+0 -80772-4 0  9993
#TLE: 2 43010  98.9933 346.4618 0002330 108.4699 251.6730 14.19694700423204

#Time	Az	El	Level	Level2	SNR	BER	BlckErr	Temp	State	Recorded	gain1	gain2
2026-01-15 19:04:03.09	29.50	0.18	-47.9	-58.7	3.3	8.40e-01	0	26	0	0	60	31209
2026-01-15 19:04:07.13	29.29	0.41	-48.1	-60.2	3.6	8.45e-01	0	26	104	0	60	37065
2026-01-15 19:04:11.16	29.09	0.63	-47.7	-59.8	3.6	8.44e-01	0	26	104	0	60	35409
2026-01-15 19:04:15.20	28.87	0.86	-46.8	-58.9	3.6	8.47e-01	0	26	104	0	60	31947
2026-01-15 19:04:19.24	28.66	1.08	-46.3	-58.3	3.6	8.45e-01	0	26	104	0	60	29628
2026-01-15 19:04:23.28	28.44	1.31	-46.3	-58.4	3.6	8.45e-01	0	26	104	0	60	29908
2026-01-15 19:04:27.32	28.21	1.54	-46.3	-58.4	3.6	8.46e-01	0	27	104	0	60	29942
2026-01-15 19:04:31.36	27.99	1.78	-46.2	-58.2	3.6	8.44e-01	0	27	104	0	60	29295
2026-01-15 19:04:35.39	27.76	2.01	-46.2	-57.6	3.6	8.45e-01	0	27	104	0	60	27514
2026-01-15 19:04:39.43	27.52	2.24	-46.2	-58.4	3.6	8.46e-01	0	27	104	0	60	29934
2026-01-15 19:04:43.47	27.29	2.48	-46.2	-58.3	3.6	8.45e-01	0	27	104	0	60	29874
2026-01-15 19:04:47.51	27.04	2.72	-46.1	-56.5	3.6	8.45e-01	0	27	104	0	60	24212
2026-01-15 19:04:51.55	26.80	2.96	-45.9	-54.9	4.0	8.44e-01	0	27	104	0	60	20144
2026-01-15 19:04:55.58	26.55	3.20	-43.3	-46.2	10.9	5.49e-03	0	27	0	16777216	60	7396
2026-01-15 19:04:59.62	26.29	3.44	-46.0	-55.1	3.9	8.45e-01	0	27	104	33554432	60	20492
2026-01-15 19:05:03.66	26.03	3.68	-39.9	-41.3	6.1	8.42e-01	0	27	104	40894464	60	4201
2026-01-15 19:05:07.71	25.76	3.93	-35.3	-36.1	21.3	0.00e+00	0	27	0	58720256	44	5807
2026-01-15 19:05:11.75	25.49	4.17	-35.4	-36.3	21.3	0.00e+00	0	27	0	80740352	44	5903
2026-01-15 19:05:15.78	25.22	4.42	-35.0	-35.8	21.9	0.00e+00	0	27	0	103809024	42	6297
2026-01-15 19:05:19.82	24.94	4.67	-34.6	-35.4	22.3	0.00e+00	0	27	0	125829120	42	5983
2026-01-15 19:05:23.86	24.66	4.93	-34.5	-35.3	22.4	0.00e+00	0	27	0	148897792	42	5962
2026-01-15 19:05:27.91	24.37	5.18	-34.4	-35.2	22.5	0.00e+00	0	27	0	171966464	42	5865
2026-01-15 19:05:31.95	24.07	5.44	-34.6	-35.4	22.4	0.00e+00	0	27	0	193986560	42	5968
2026-01-15 19:05:35.99	23.77	5.69	-34.3	-35.1	22.8	0.00e+00	0	27	0	217055232	42	5768
2026-01-15 19:05:40.03	23.46	5.95	-34.3	-35.0	22.8	0.00e+00	0	27	0	240123904	42	5753
2026-01-15 19:05:44.07	23.15	6.21	-34.4	-35.2	22.7	0.00e+00	0	28	0	263192576	42	5847
2026-01-15 19:05:48.11	22.83	6.47	-34.4	-35.2	22.7	0.00e+00	0	28	0	285212672	42	5853
2026-01-15 19:05:52.16	22.51	6.74	-34.3	-35.0	23.0	0.00e+00	0	28	0	308281344	42	5739
2026-01-15 19:05:56.20	22.18	7.01	-34.1	-34.8	23.1	0.00e+00	0	28	0	330301440	42	5625
2026-01-15 19:06:00.24	21.84	7.27	-34.2	-34.9	22.9	0.00e+00	0	28	0	353370112	42	5692
2026-01-15 19:06:04.28	21.50	7.54	-33.9	-34.7	23.3	0.00e+00	0	28	0	376438784	42	5528
2026-01-15 19:06:08.33	21.15	7.82	-33.7	-34.5	23.5	0.00e+00	0	28	0	399507456	40	6054
2026-01-15 19:06:12.37	20.79	8.09	-33.6	-34.3	23.7	0.00e+00	0	28	0	421527552	40	5960
2026-01-15 19:06:16.41	20.43	8.36	-33.6	-34.3	23.7	0.00e+00	0	28	0	444596224	40	5944
2026-01-15 19:06:20.45	20.06	8.64	-33.6	-34.3	23.7	0.00e+00	0	28	0	467664896	40	5923
2026-01-15 19:06:24.49	19.68	8.92	-33.4	-34.2	23.9	0.00e+00	0	28	0	489684992	40	5830
2026-01-15 19:06:28.53	19.29	9.20	-33.4	-34.1	23.9	0.00e+00	0	28	0	512753664	40	5803
2026-01-15 19:06:32.56	18.90	9.48	-33.4	-34.1	24.0	0.00e+00	0	28	0	535822336	40	5779
2026-01-15 19:06:36.61	18.49	9.77	-33.2	-33.9	24.2	0.00e+00	0	28	0	557842432	40	5668
2026-01-15 19:06:40.65	18.08	10.06	-32.9	-33.6	24.5	0.00e+00	0	28	0	580911104	40	5456
2026-01-15 19:06:44.68	17.67	10.34	-32.9	-33.6	24.6	0.00e+00	0	28	0	603979776	38	6127
2026-01-15 19:06:48.73	17.24	10.64	-33.0	-33.7	24.5	0.00e+00	0	28	0	625999872	38	6193
2026-01-15 19:06:52.76	16.80	10.93	-33.0	-33.7	24.5	0.00e+00	0	28	0	649068544	38	6211
2026-01-15 19:06:56.80	16.36	11.22	-32.7	-33.4	24.8	0.00e+00	0	28	0	672137216	38	6010
2026-01-15 19:07:00.84	15.90	11.52	-32.8	-33.5	24.7	0.00e+00	0	28	0	694157312	38	6067
2026-01-15 19:07:04.89	15.44	11.82	-32.8	-33.6	24.7	0.00e+00	0	28	0	717225984	38	6104
2026-01-15 19:07:08.93	14.96	12.11	-32.6	-33.3	24.9	0.00e+00	0	29	0	740294656	38	5933
2026-01-15 19:07:12.97	14.48	12.42	-32.5	-33.2	25.0	0.00e+00	0	28	0	762314752	38	5842
2026-01-15 19:07:17.01	13.98	12.72	-32.4	-33.1	25.1	0.00e+00	0	29	0	785383424	38	5819
2026-01-15 19:07:21.05	13.48	13.02	-32.3	-33.0	25.2	0.00e+00	0	29	0	808452096	38	5740
2026-01-15 19:07:25.09	12.96	13.33	-32.3	-33.0	25.2	0.00e+00	0	29	0	830472192	38	5700
2026-01-15 19:07:29.13	12.43	13.64	-32.1	-32.8	25.3	0.00e+00	0	29	0	853540864	38	5585
2026-01-15 19:07:33.17	11.89	13.94	-31.8	-32.5	25.6	0.00e+00	0	29	0	876609536	38	5425
2026-01-15 19:07:37.21	11.34	14.25	-31.9	-32.6	25.6	0.00e+00	0	29	0	899678208	38	5440
2026-01-15 19:07:41.25	10.78	14.56	-31.7	-32.3	25.8	0.00e+00	0	29	0	921698304	36	5951
2026-01-15 19:07:45.29	10.21	14.88	-32.0	-32.6	25.6	0.00e+00	0	29	0	944766976	36	6164
2026-01-15 19:07:49.33	9.62	15.19	-31.6	-32.3	25.9	0.00e+00	0	29	0	966787072	36	5960
2026-01-15 19:07:53.36	9.02	15.50	-31.5	-32.2	26.0	0.00e+00	0	29	0	989855744	36	5852
2026-01-15 19:07:57.40	8.41	15.82	-31.6	-32.3	25.9	0.00e+00	0	29	0	1012924416	36	5933
2026-01-15 19:08:01.45	7.78	16.13	-31.4	-32.1	26.1	0.00e+00	0	29	0	1034944512	36	5773
2026-01-15 19:08:05.49	7.14	16.45	-31.2	-31.9	26.3	0.00e+00	0	29	0	1058013184	36	5658
2026-01-15 19:08:09.53	6.49	16.77	-31.1	-31.8	26.3	0.00e+00	0	29	0	1081081856	36	5585
2026-01-15 19:08:13.56	5.82	17.08	-31.1	-31.8	26.5	0.00e+00	0	29	0	1104150528	36	5571
2026-01-15 19:08:17.61	5.14	17.40	-31.2	-31.9	26.3	0.00e+00	0	29	0	1126170624	36	5664
2026-01-15 19:08:21.65	4.44	17.72	-30.9	-31.6	26.6	0.00e+00	0	29	0	1149239296	36	5458
2026-01-15 19:08:25.69	3.73	18.03	-31.3	-32.0	26.4	0.00e+00	0	29	0	1171259392	36	5715
2026-01-15 19:08:29.73	3.00	18.35	-31.0	-31.7	26.5	0.00e+00	0	29	0	1194328064	36	5538
2026-01-15 19:08:33.76	2.26	18.66	-30.8	-31.5	26.7	0.00e+00	0	29	0	1217396736	36	5396
2026-01-15 19:08:37.80	1.50	18.98	-30.6	-31.2	26.9	0.00e+00	0	29	0	1239416832	34	5884
2026-01-15 19:08:41.84	0.73	19.29	-30.7	-31.3	26.8	0.00e+00	0	29	0	1262485504	34	5919
2026-01-15 19:08:45.87	359.94	19.60	-30.6	-31.3	26.8	0.00e+00	0	29	0	1285554176	34	5928
2026-01-15 19:08:49.92	359.13	19.91	-30.5	-31.1	27.0	0.00e+00	0	29	0	1308622848	34	5817
2026-01-15 19:08:53.96	358.31	20.21	-30.6	-31.2	26.9	0.00e+00	0	29	0	1330642944	34	5887
2026-01-15 19:08:58.00	357.47	20.51	-30.3	-31.0	27.1	0.00e+00	0	29	0	1353711616	34	5702
2026-01-15 19:09:02.04	356.61	20.81	-30.2	-30.8	27.3	0.00e+00	0	29	0	1375731712	34	5591
2026-01-15 19:09:06.07	355.74	21.11	-30.1	-30.7	27.4	0.00e+00	0	29	0	1398800384	34	5520
2026-01-15 19:09:10.12	354.84	21.40	-30.0	-30.6	27.4	0.00e+00	0	29	0	1421869056	34	5495
2026-01-15 19:09:14.16	353.94	21.69	-30.2	-30.9	27.1	0.00e+00	0	29	0	1444937728	34	5633
2026-01-15 19:09:18.20	353.01	21.98	-30.1	-30.7	27.3	0.00e+00	0	29	0	1466957824	34	5550
2026-01-15 19:09:22.24	352.07	22.26	-30.1	-30.8	27.3	0.00e+00	0	29	0	1490026496	34	5573
2026-01-15 19:09:26.28	351.11	22.53	-29.9	-30.6	27.4	0.00e+00	0	29	0	1513095168	34	5448
2026-01-15 19:09:30.32	350.13	22.80	-30.1	-30.8	27.3	0.00e+00	0	29	0	1535115264	34	5568
2026-01-15 19:09:34.36	349.14	23.06	-29.7	-30.3	27.6	0.00e+00	0	29	0	1558183936	32	5960
2026-01-15 19:09:38.41	348.12	23.31	-29.9	-30.6	27.5	0.00e+00	0	30	0	1581252608	32	6115
2026-01-15 19:09:42.45	347.09	23.56	-29.9	-30.5	27.6	0.00e+00	0	29	0	1603272704	32	6058
2026-01-15 19:09:46.49	346.05	23.80	-29.7	-30.3	27.6	0.00e+00	0	29	0	1626341376	32	5944
2026-01-15 19:09:50.53	344.99	24.03	-29.8	-30.5	27.7	0.00e+00	0	30	0	1649410048	32	6058
2026-01-15 19:09:54.57	343.92	24.25	-29.8	-30.4	27.6	0.00e+00	0	29	0	1671430144	32	6008
2026-01-15 19:09:58.61	342.83	24.46	-29.7	-30.3	27.7	0.00e+00	0	29	0	1694498816	32	5949
2026-01-15 19:10:02.65	341.72	24.67	-29.4	-30.1	27.9	0.00e+00	0	30	0	1717567488	32	5784
2026-01-15 19:10:06.69	340.60	24.86	-29.4	-30.1	27.9	0.00e+00	0	30	0	1739587584	32	5768
2026-01-15 19:10:10.73	339.47	25.04	-29.4	-30.1	27.9	0.00e+00	0	30	0	1762656256	32	5762
2026-01-15 19:10:14.77	338.32	25.21	-29.3	-29.9	28.1	0.00e+00	0	30	0	1785724928	32	5654
2026-01-15 19:10:18.81	337.16	25.37	-29.7	-30.4	27.7	0.00e+00	0	30	0	1807745024	32	5996
2026-01-15 19:10:22.85	335.99	25.52	-29.6	-30.3	27.7	0.00e+00	0	30	0	1830813696	32	5898
2026-01-15 19:10:26.89	334.81	25.65	-29.4	-30.0	27.9	0.00e+00	0	30	0	1853882368	32	5755
2026-01-15 19:10:30.93	333.63	25.77	-29.4	-30.0	27.9	0.00e+00	0	30	0	1875902464	32	5750
2026-01-15 19:10:34.97	332.43	25.88	-29.6	-30.2	27.8	0.00e+00	0	30	0	1898971136	32	5896
2026-01-15 19:10:39.01	331.22	25.98	-29.5	-30.1	27.9	0.00e+00	0	30	0	1922039808	32	5805
2026-01-15 19:10:43.06	330.00	26.06	-29.6	-30.2	27.8	0.00e+00	0	30	0	1945108480	32	5857
2026-01-15 19:10:47.10	328.79	26.12	-29.9	-30.5	27.6	0.00e+00	0	30	0	1967128576	32	6086
2026-01-15 19:10:51.14	327.56	26.18	-29.7	-30.4	27.7	0.00e+00	0	30	0	1990197248	32	5981
2026-01-15 19:10:55.18	326.33	26.22	-29.3	-29.9	28.0	0.00e+00	0	30	0	2012217344	32	5683
2026-01-15 19:10:59.22	325.10	26.24	-29.3	-29.9	28.0	0.00e+00	0	30	0	2035286016	32	5685
2026-01-15 19:11:03.27	323.87	26.25	-29.4	-30.0	27.9	0.00e+00	0	30	0	2058354688	32	5732
2026-01-15 19:11:07.31	322.64	26.24	-29.7	-30.4	27.7	0.00e+00	0	30	0	2081423360	32	6000
2026-01-15 19:11:11.35	321.41	26.22	-29.5	-30.1	27.9	0.00e+00	0	30	0	2103443456	32	5788
2026-01-15 19:11:15.39	320.18	26.19	-29.2	-29.8	28.0	0.00e+00	0	30	0	2126512128	32	5587
2026-01-15 19:11:19.43	318.95	26.14	-29.4	-30.0	27.8	0.00e+00	0	30	0	2149580800	32	5734
2026-01-15 19:11:23.47	317.73	26.08	-29.5	-30.1	27.8	0.00e+00	0	30	0	2171600896	32	5796
2026-01-15 19:11:27.51	316.52	26.00	-29.6	-30.3	27.8	0.00e+00	0	30	0	2194669568	32	5909
2026-01-15 19:11:31.55	315.31	25.91	-29.3	-29.9	28.0	0.00e+00	0	30	0	2216689664	32	5685
2026-01-15 19:11:35.59	314.11	25.81	-29.3	-30.0	27.8	0.00e+00	0	30	0	2239758336	32	5728
2026-01-15 19:11:39.63	312.91	25.69	-29.4	-30.1	27.9	0.00e+00	0	30	0	2262827008	32	5779
2026-01-15 19:11:43.67	311.73	25.56	-29.4	-30.0	27.9	0.00e+00	0	30	0	2285895680	32	5703
2026-01-15 19:11:47.72	310.55	25.42	-29.3	-29.9	28.0	0.00e+00	0	30	0	2307915776	32	5693
2026-01-15 19:11:51.76	309.39	25.26	-29.0	-29.6	28.2	0.00e+00	0	30	0	2330984448	32	5451
2026-01-15 19:11:55.80	308.24	25.09	-29.3	-29.9	28.0	0.00e+00	0	30	0	2354053120	32	5641
2026-01-15 19:11:59.84	307.10	24.91	-29.5	-30.1	27.8	0.00e+00	0	30	0	2376073216	32	5775
2026-01-15 19:12:03.88	305.97	24.73	-29.6	-30.2	27.8	0.00e+00	0	30	0	2399141888	32	5841
2026-01-15 19:12:07.92	304.86	24.53	-29.2	-29.9	28.1	0.00e+00	0	30	0	2422210560	32	5665
2026-01-15 19:12:11.97	303.76	24.31	-29.3	-29.9	27.9	0.00e+00	0	30	0	2444230656	32	5638
2026-01-15 19:12:16.01	302.68	24.10	-29.3	-30.0	28.0	0.00e+00	0	30	0	2467299328	32	5756
2026-01-15 19:12:20.05	301.61	23.87	-29.5	-30.1	27.8	0.00e+00	0	30	0	2490368000	32	5795
2026-01-15 19:12:24.09	300.56	23.63	-29.5	-30.1	27.8	0.00e+00	0	30	0	2512388096	32	5781
2026-01-15 19:12:28.14	299.52	23.38	-29.4	-30.1	28.0	0.00e+00	0	30	0	2535456768	32	5765
2026-01-15 19:12:32.18	298.51	23.13	-29.2	-29.9	28.0	0.00e+00	0	30	0	2558525440	32	5665
2026-01-15 19:12:36.22	297.50	22.87	-29.4	-29.9	27.8	0.00e+00	0	30	0	2581594112	32	5695
2026-01-15 19:12:40.25	296.52	22.61	-29.6	-30.3	27.7	0.00e+00	0	30	0	2603614208	32	5931
2026-01-15 19:12:44.29	295.55	22.33	-29.9	-30.5	27.5	0.00e+00	0	30	0	2626682880	32	6037
2026-01-15 19:12:48.34	294.60	22.05	-29.6	-30.3	27.7	0.00e+00	0	30	0	2648702976	32	5915
2026-01-15 19:12:52.37	293.67	21.77	-29.8	-30.3	27.6	0.00e+00	0	30	0	2671771648	32	5945
2026-01-15 19:12:56.41	292.75	21.48	-30.0	-30.6	27.2	0.00e+00	0	29	0	2694840320	32	6148
2026-01-15 19:13:00.45	291.85	21.19	-30.1	-30.7	27.1	0.00e+00	0	30	0	2716860416	32	6180
2026-01-15 19:13:04.49	290.97	20.90	-29.7	-30.4	27.4	0.00e+00	0	29	0	2739929088	32	5990
2026-01-15 19:13:08.53	290.11	20.60	-30.1	-30.7	27.1	0.00e+00	0	29	0	2762997760	32	6209
2026-01-15 19:13:12.58	289.26	20.29	-30.1	-30.7	27.1	0.00e+00	0	29	0	2786066432	32	6200
2026-01-15 19:13:16.62	288.43	19.99	-30.4	-31.1	26.8	0.00e+00	0	29	0	2808086528	32	6500
2026-01-15 19:13:20.66	287.61	19.68	-30.5	-31.2	26.4	0.00e+00	0	29	0	2831155200	32	6552
2026-01-15 19:13:24.70	286.81	19.37	-30.5	-31.1	26.6	0.00e+00	0	29	0	2853175296	32	6528
2026-01-15 19:13:28.74	286.03	19.05	-30.4	-31.0	26.8	0.00e+00	0	29	0	2876243968	32	6444
2026-01-15 19:13:32.78	285.27	18.74	-30.5	-31.2	26.7	0.00e+00	0	29	0	2899312640	32	6598
2026-01-15 19:13:36.83	284.51	18.43	-30.5	-31.2	26.8	0.00e+00	0	29	0	2922381312	32	6574
2026-01-15 19:13:40.86	283.78	18.11	-30.4	-31.1	26.8	0.00e+00	0	29	0	2944401408	32	6510
2026-01-15 19:13:44.90	283.06	17.79	-30.9	-31.7	26.4	0.00e+00	0	29	0	2967470080	34	6180
2026-01-15 19:13:48.94	282.36	17.48	-30.8	-31.4	26.4	0.00e+00	0	29	0	2990538752	34	6018
2026-01-15 19:13:52.98	281.67	17.16	-30.8	-31.5	26.4	0.00e+00	0	29	0	3012558848	34	6064
2026-01-15 19:13:57.03	280.99	16.84	-30.8	-31.5	26.5	0.00e+00	0	29	0	3035627520	34	6092
2026-01-15 19:14:01.07	280.33	16.52	-31.0	-31.7	26.3	0.00e+00	0	29	0	3058696192	34	6212
2026-01-15 19:14:05.11	279.69	16.21	-31.4	-32.2	26.0	0.00e+00	0	29	0	3080716288	34	6559
2026-01-15 19:14:09.15	279.05	15.89	-31.3	-31.8	26.1	0.00e+00	0	29	0	3103784960	34	6315
2026-01-15 19:14:13.19	278.43	15.57	-31.4	-32.1	26.0	0.00e+00	0	29	0	3126853632	34	6498
2026-01-15 19:14:17.23	277.83	15.26	-31.6	-32.2	25.8	0.00e+00	0	29	0	3148873728	34	6566
2026-01-15 19:14:21.27	277.23	14.94	-31.4	-32.0	25.9	0.00e+00	0	29	0	3171942400	34	6434
2026-01-15 19:14:25.31	276.65	14.63	-31.6	-32.2	25.8	0.00e+00	0	29	0	3195011072	34	6566
2026-01-15 19:14:29.36	276.08	14.32	-31.6	-32.2	25.7	0.00e+00	0	29	0	3217031168	36	5848
2026-01-15 19:14:33.40	275.53	14.01	-31.7	-32.3	25.7	0.00e+00	0	29	0	3240099840	36	5901
2026-01-15 19:14:37.44	274.98	13.70	-31.9	-32.6	25.5	0.00e+00	0	29	0	3263168512	36	6158
2026-01-15 19:14:41.48	274.45	13.39	-32.0	-32.7	25.3	0.00e+00	0	29	0	3285188608	36	6241
2026-01-15 19:14:45.52	273.93	13.08	-32.0	-32.6	25.4	0.00e+00	0	29	0	3308257280	36	6133
2026-01-15 19:14:49.56	273.42	12.77	-32.1	-32.9	25.3	0.00e+00	0	29	0	3331325952	36	6347
2026-01-15 19:14:53.60	272.92	12.47	-32.4	-33.2	25.0	0.00e+00	0	29	0	3354394624	36	6580
2026-01-15 19:14:57.64	272.43	12.17	-32.9	-33.7	24.5	0.00e+00	0	29	0	3376414720	38	6190
2026-01-15 19:15:01.69	271.95	11.87	-32.5	-33.3	24.8	0.00e+00	0	29	0	3399483392	38	5906
2026-01-15 19:15:05.73	271.48	11.57	-32.5	-33.1	24.9	0.00e+00	0	29	0	3421503488	38	5793
2026-01-15 19:15:09.77	271.02	11.27	-32.5	-33.3	24.9	0.00e+00	0	29	0	3444572160	38	5901
2026-01-15 19:15:13.80	270.57	10.98	-32.6	-33.2	24.8	0.00e+00	0	29	0	3467640832	38	5870
2026-01-15 19:15:17.84	270.13	10.68	-32.8	-33.4	24.6	0.00e+00	0	29	0	3489660928	38	6025
2026-01-15 19:15:21.88	269.69	10.39	-33.1	-33.9	24.3	0.00e+00	0	29	0	3512729600	38	6353
2026-01-15 19:15:25.92	269.27	10.10	-33.0	-33.8	24.3	0.00e+00	0	29	0	3535798272	38	6263
2026-01-15 19:15:29.97	268.85	9.81	-33.0	-33.6	24.4	0.00e+00	0	29	0	3558866944	38	6137
2026-01-15 19:15:34.00	268.45	9.53	-33.5	-34.3	23.8	0.00e+00	0	29	0	3580887040	38	6638
2026-01-15 19:15:38.04	268.05	9.24	-33.2	-33.9	24.0	0.00e+00	0	29	0	3603955712	38	6361
2026-01-15 19:15:42.08	267.66	8.96	-33.3	-34.0	24.0	0.00e+00	0	29	0	3625975808	38	6395
2026-01-15 19:15:46.12	267.27	8.68	-33.4	-34.3	23.8	0.00e+00	0	29	0	3649044480	38	6620
2026-01-15 19:15:50.16	266.90	8.40	-33.6	-34.3	23.7	0.00e+00	0	29	0	3672113152	40	5930
2026-01-15 19:15:54.21	266.53	8.13	-33.7	-34.4	23.4	0.00e+00	0	29	0	3695181824	40	6014
2026-01-15 19:15:58.25	266.17	7.85	-33.7	-34.4	23.5	0.00e+00	0	29	0	3717201920	40	6024
2026-01-15 19:16:02.28	265.81	7.58	-33.6	-34.3	23.6	0.00e+00	0	29	0	3740270592	40	5960
2026-01-15 19:16:06.33	265.46	7.31	-34.1	-34.7	23.2	0.00e+00	0	29	0	3763339264	40	6235
2026-01-15 19:16:10.37	265.12	7.04	-33.8	-34.5	23.3	0.00e+00	0	29	0	3785359360	40	6035
2026-01-15 19:16:14.41	264.79	6.77	-34.0	-34.8	23.1	0.00e+00	0	29	0	3808428032	40	6291
2026-01-15 19:16:18.45	264.46	6.51	-33.9	-34.7	23.1	0.00e+00	0	29	0	3830448128	40	6216
2026-01-15 19:16:22.49	264.14	6.24	-34.2	-35.0	23.1	0.00e+00	0	29	0	3853516800	42	5706
2026-01-15 19:16:26.53	263.82	5.98	-34.2	-34.9	23.0	0.00e+00	0	29	0	3876585472	42	5634
2026-01-15 19:16:30.57	263.51	5.72	-34.1	-35.0	22.8	0.00e+00	0	29	0	3899654144	42	5696
2026-01-15 19:16:34.61	263.20	5.46	-34.2	-35.0	22.8	0.00e+00	0	29	0	3921674240	42	5733
2026-01-15 19:16:38.65	262.90	5.21	-34.4	-35.1	22.5	0.00e+00	0	29	0	3944742912	42	5786
2026-01-15 19:16:42.69	262.61	4.95	-34.3	-35.0	22.7	0.00e+00	0	29	0	3967811584	42	5703
2026-01-15 19:16:46.73	262.32	4.70	-34.5	-35.3	22.4	0.00e+00	0	29	0	3989831680	42	5946
2026-01-15 19:16:50.77	262.04	4.45	-34.8	-35.6	22.0	0.00e+00	0	29	0	4012900352	42	6171
2026-01-15 19:16:54.81	261.76	4.20	-35.0	-35.8	21.9	0.00e+00	0	29	0	4035969024	42	6301
2026-01-15 19:16:58.86	261.49	3.95	-35.4	-36.3	21.5	0.00e+00	0	29	0	4057989120	42	6645
2026-01-15 19:17:02.90	261.22	3.70	-34.9	-35.6	21.7	0.00e+00	0	29	0	4081057792	42	6167
2026-01-15 19:17:06.94	260.95	3.46	-34.9	-35.8	21.6	0.00e+00	0	29	0	4104126464	42	6309
2026-01-15 19:17:10.98	260.69	3.21	-35.3	-36.1	21.3	0.00e+00	0	29	0	4126146560	44	5806
2026-01-15 19:17:15.02	260.44	2.97	-47.0	-59.1	3.6	8.45e-01	0	29	104	4146069504	60	32572
2026-01-15 19:17:19.06	260.19	2.73	-47.9	-60.1	3.6	8.46e-01	0	29	104	4146069504	60	36424
2026-01-15 19:17:23.10	259.94	2.49	-48.0	-60.1	3.6	8.45e-01	0	29	104	4146069504	60	36540
2026-01-15 19:17:27.14	259.70	2.26	-48.0	-60.3	3.6	8.44e-01	0	29	104	4146069504	60	37213
2026-01-15 19:17:31.17	259.46	2.02	-47.9	-60.1	3.6	8.45e-01	0	29	104	4146069504	60	36407
2026-01-15 19:17:35.21	259.23	1.79	-47.9	-60.1	3.6	8.46e-01	0	29	104	4146069504	60	36677
2026-01-15 19:17:39.25	258.99	1.56	-47.9	-60.1	3.6	8.46e-01	0	29	104	4146069504	60	36557
2026-01-15 19:17:43.29	258.77	1.32	-48.0	-60.1	3.6	8.45e-01	0	29	104	4146069504	60	36767
2026-01-15 19:17:47.33	258.54	1.09	-48.0	-60.1	3.6	8.45e-01	0	29	104	4146069504	60	36750
2026-01-15 19:17:51.36	258.33	0.87	-47.9	-60.1	3.6	8.45e-01	0	29	104	4146069504	60	36547
2026-01-15 19:17:55.41	258.11	0.64	-47.9	-60.0	3.6	8.45e-01	0	29	104	4146069504	60	36290
2026-01-15 19:17:59.45	257.90	0.41	-47.9	-60.0	3.6	8.45e-01	0	29	104	4146069504	60	36271
2026-01-15 19:18:03.48	257.69	0.19	-47.9	-60.1	3.6	8.44e-01	0	29	104	4146069504	60	36466
2026-01-15 19:18:07.52	257.48	-0.03	-47.9	-60.1	3.6	8.45e-01	0	29	104	4146069504	60	36413

#Closed at: 2026-01-15 19:18:09
#Recorded file [4146 MB]: D:/lorett/data/35029_260116_070403.dat