passes_logs/2026/01/14/PlanumMoscow/PlanumMoscow__20260114_001807_METEOR-M2_4_rec.log

#Pass ID: 20260114_001807_METEOR-M2 4
#Satellite: METEOR-M2 4
#Configuration: METEOR-M2 4
#Start time: 2026-01-14 00:18:12.587206

#LorettStation: 1.0.0 05.05.2024
#Station: PlanumMoscow
#Location: 37.6253844 lon 55.6713361 lat
#TLE: 1 59051U 24039A   25293.94737965  .00000087  00000+0  58459-4 0  9998
#TLE: 2 59051  98.6671 251.7071 0007726 135.4772 224.7028 14.22388966 85257

#Time	Az	El	Level	SNR
2026-01-14 00:21:51.012369	40.3	26.2	-61.7	7.8
2026-01-14 00:21:53.257876	40.7	26.5	-62.2	9.1
2026-01-14 00:21:55.501392	41.1	26.8	-63.4	9.7
2026-01-14 00:21:57.745899	41.5	27.1	-62.6	9.2
2026-01-14 00:21:59.990405	41.9	27.4	-63.9	11.6
2026-01-14 00:22:02.235417	42.3	27.7	-62.4	9.4
2026-01-14 00:22:04.478943	42.7	28.1	-63.7	9.5
2026-01-14 00:22:06.723450	43.1	28.4	-63.9	11.4
2026-01-14 00:22:08.967462	43.6	28.7	-63.4	10.6
2026-01-14 00:22:11.212474	44.0	29.1	-63.7	10.9
2026-01-14 00:22:13.455989	44.5	29.4	-63.9	10.9
2026-01-14 00:22:15.700000	44.9	29.7	-64.4	9.4
2026-01-14 00:22:17.944507	45.4	30.1	-64.0	10.9
2026-01-14 00:22:20.189013	45.9	30.4	-63.9	11.7
2026-01-14 00:22:22.433025	46.4	30.7	-64.8	12.6
2026-01-14 00:22:24.677037	46.9	31.1	-64.8	12.0
2026-01-14 00:22:26.921056	47.4	31.4	-64.8	12.9
2026-01-14 00:22:29.165096	47.9	31.8	-64.8	11.7
2026-01-14 00:22:31.409603	48.5	32.1	-64.7	12.3
2026-01-14 00:22:33.654117	49.0	32.5	-64.3	11.8
2026-01-14 00:22:35.898663	49.6	32.8	-64.3	11.7
2026-01-14 00:22:38.142684	50.1	33.2	-64.4	12.8
2026-01-14 00:22:40.387232	50.7	33.5	-64.0	11.5
2026-01-14 00:22:42.631246	51.3	33.9	-64.2	11.8
2026-01-14 00:22:44.875761	51.9	34.2	-64.3	11.7
2026-01-14 00:22:47.122307	52.6	34.6	-64.1	11.2
2026-01-14 00:22:49.371831	53.2	35.0	-64.8	11.8
2026-01-14 00:22:51.616842	53.8	35.3	-64.0	11.1
2026-01-14 00:22:53.860910	54.5	35.7	-64.0	10.8
2026-01-14 00:22:56.104930	55.2	36.0	-64.8	11.4
2026-01-14 00:22:58.348971	55.9	36.4	-64.9	12.0
2026-01-14 00:23:00.593477	56.6	36.7	-64.8	12.0
2026-01-14 00:23:02.837497	57.3	37.1	-64.6	11.0
2026-01-14 00:23:05.081554	58.0	37.4	-64.1	11.8
2026-01-14 00:23:07.330063	58.8	37.8	-63.8	10.3
2026-01-14 00:23:09.574615	59.6	38.1	-63.6	10.1
2026-01-14 00:23:11.819130	60.4	38.5	-64.1	10.1
2026-01-14 00:23:14.063676	61.2	38.8	-63.8	10.0
2026-01-14 00:23:16.307193	62.0	39.2	-63.8	9.8
2026-01-14 00:23:18.551699	62.8	39.5	-64.3	11.1
2026-01-14 00:23:20.795286	63.7	39.8	-64.4	11.0
2026-01-14 00:23:23.039793	64.5	40.2	-65.2	9.7
2026-01-14 00:23:25.284318	65.4	40.5	-64.4	9.9
2026-01-14 00:23:27.528352	66.3	40.8	-64.2	11.8
2026-01-14 00:23:29.772363	67.3	41.1	-63.3	7.4
2026-01-14 00:23:32.015918	68.2	41.4	-64.1	8.5
2026-01-14 00:23:34.258444	69.2	41.7	-63.2	6.9
2026-01-14 00:23:36.501970	70.2	42.0	-64.0	9.3
2026-01-14 00:23:38.745515	71.2	42.3	-65.0	10.7
2026-01-14 00:23:40.988542	72.2	42.6	-64.8	8.6
2026-01-14 00:23:43.234098	73.2	42.9	-63.7	3.0
2026-01-14 00:23:45.478109	74.3	43.1	-65.4	11.1
2026-01-14 00:23:47.721185	75.3	43.4	-65.2	9.3
2026-01-14 00:23:49.965734	76.4	43.6	-65.9	10.4
2026-01-14 00:23:52.209258	77.5	43.9	-66.7	11.9
2026-01-14 00:23:54.454326	78.6	44.1	-66.0	9.9
2026-01-14 00:23:56.698359	79.8	44.3	-64.5	9.1
2026-01-14 00:23:58.941927	80.9	44.5	-65.5	10.8
2026-01-14 00:24:01.185442	82.1	44.7	-65.5	9.6
2026-01-14 00:24:03.428990	83.3	44.9	-65.5	8.4
2026-01-14 00:24:05.673001	84.4	45.1	-65.8	10.3
2026-01-14 00:24:07.918524	85.6	45.2	-65.8	9.8
2026-01-14 00:24:10.161078	86.9	45.4	-66.1	8.7
2026-01-14 00:24:12.403144	88.1	45.5	-65.1	6.7
2026-01-14 00:24:14.646660	89.3	45.6	-67.0	10.0
2026-01-14 00:24:16.890750	90.6	45.7	-67.0	12.0
2026-01-14 00:24:19.133770	91.8	45.8	-66.3	10.3
2026-01-14 00:24:21.377781	93.1	45.9	-67.1	12.3
2026-01-14 00:24:23.621792	94.3	46.0	-66.8	11.3
2026-01-14 00:24:25.865803	95.6	46.0	-67.1	9.8
2026-01-14 00:24:28.110310	96.9	46.0	-66.0	8.2
2026-01-14 00:24:30.354817	98.1	46.0	-65.2	9.1
2026-01-14 00:24:32.599324	99.4	46.0	-66.7	10.3
2026-01-14 00:24:34.846336	100.7	46.0	-67.2	10.7
2026-01-14 00:24:37.090843	102.0	46.0	-65.6	5.6
2026-01-14 00:24:39.336350	103.2	45.9	-68.2	10.9
2026-01-14 00:24:41.584362	104.5	45.9	-66.9	10.5
2026-01-14 00:24:43.828869	105.7	45.8	-67.1	10.0
2026-01-14 00:24:46.073376	107.0	45.7	-66.8	11.3
2026-01-14 00:24:48.317386	108.2	45.6	-66.6	9.8
2026-01-14 00:24:50.562398	109.5	45.5	-65.0	10.4
2026-01-14 00:24:52.806410	110.7	45.4	-64.0	7.5
2026-01-14 00:24:55.050422	111.9	45.2	-66.4	11.4
2026-01-14 00:24:57.294929	113.1	45.0	-66.3	9.8
2026-01-14 00:24:59.538445	114.3	44.9	-67.0	10.9
2026-01-14 00:25:01.782952	115.5	44.7	-66.9	10.9
2026-01-14 00:25:04.027458	116.6	44.5	-67.4	11.6
2026-01-14 00:25:06.270973	117.8	44.3	-67.4	11.0
2026-01-14 00:25:08.520481	118.9	44.1	-67.1	11.0
2026-01-14 00:25:10.764988	120.0	43.8	-66.8	10.4
2026-01-14 00:25:13.008998	121.1	43.6	-67.2	12.8
2026-01-14 00:25:15.255515	122.2	43.3	-67.1	12.2
2026-01-14 00:25:17.500022	123.3	43.1	-67.4	12.9
2026-01-14 00:25:19.744529	124.4	42.8	-66.8	12.6
2026-01-14 00:25:21.989036	125.4	42.5	-63.9	4.6
2026-01-14 00:25:24.237048	126.4	42.2	-67.1	13.3
2026-01-14 00:25:26.481555	127.4	41.9	-66.1	13.4
2026-01-14 00:25:28.725566	128.4	41.6	-66.5	11.4
2026-01-14 00:25:30.973577	129.3	41.3	-66.8	12.9
2026-01-14 00:25:33.218084	130.3	41.0	-67.1	12.7
2026-01-14 00:25:35.462591	131.2	40.7	-66.9	12.2
2026-01-14 00:25:37.706107	132.1	40.4	-67.0	13.1
2026-01-14 00:25:39.951632	133.0	40.1	-67.5	13.0
2026-01-14 00:25:42.202140	133.9	39.7	-67.3	13.0
2026-01-14 00:25:44.446647	134.7	39.4	-66.9	13.1
2026-01-14 00:25:46.692659	135.6	39.0	-66.9	13.3
2026-01-14 00:25:48.937166	136.4	38.7	-66.7	12.7
2026-01-14 00:25:51.181177	137.2	38.4	-66.7	13.1
2026-01-14 00:25:53.425693	138.0	38.0	-65.8	13.0
2026-01-14 00:25:55.670200	138.8	37.7	-67.0	13.7
2026-01-14 00:25:57.914706	139.5	37.3	-67.1	13.6
2026-01-14 00:26:00.159213	140.2	36.9	-66.6	12.6
2026-01-14 00:26:02.402233	141.0	36.6	-66.9	13.9
2026-01-14 00:26:04.647245	141.7	36.2	-66.7	14.5
2026-01-14 00:26:06.891751	142.4	35.9	-66.4	13.7
2026-01-14 00:26:09.136258	143.0	35.5	-66.4	14.2
2026-01-14 00:26:11.379773	143.7	35.2	-66.9	14.6
2026-01-14 00:26:13.623785	144.4	34.8	-66.7	14.2
2026-01-14 00:26:15.867301	145.0	34.4	-66.8	15.3
2026-01-14 00:26:18.111312	145.6	34.1	-66.3	15.3
2026-01-14 00:26:20.354332	146.2	33.7	-66.6	14.7
2026-01-14 00:26:22.598839	146.8	33.4	-66.9	14.9
2026-01-14 00:26:24.843346	147.4	33.0	-66.7	15.1
2026-01-14 00:26:27.087853	148.0	32.7	-66.3	14.2
2026-01-14 00:26:29.333369	148.5	32.3	-66.3	15.1
2026-01-14 00:26:31.577876	149.1	32.0	-66.5	14.9
2026-01-14 00:26:33.822383	149.6	31.6	-67.0	15.1
2026-01-14 00:26:36.066394	150.1	31.3	-67.1	15.3
2026-01-14 00:26:38.310901	150.6	30.9	-67.1	14.9
2026-01-14 00:26:40.554911	151.1	30.6	-66.9	14.9
2026-01-14 00:26:42.799426	151.6	30.2	-66.8	13.9
2026-01-14 00:26:45.042941	152.1	29.9	-66.8	14.9
2026-01-14 00:26:47.286952	152.6	29.5	-66.9	14.8
2026-01-14 00:26:49.530963	153.0	29.2	-66.8	15.2
2026-01-14 00:26:51.774487	153.5	28.9	-66.8	15.3
2026-01-14 00:26:54.018994	153.9	28.5	-66.9	14.4
2026-01-14 00:26:56.263501	154.4	28.2	-66.7	14.4
2026-01-14 00:26:58.508513	154.8	27.9	-67.2	14.3
2026-01-14 00:27:00.753020	155.2	27.5	-67.3	14.9
2026-01-14 00:27:02.998031	155.6	27.2	-67.1	15.0
2026-01-14 00:27:05.241546	156.0	26.9	-67.1	14.2
2026-01-14 00:27:07.486053	156.4	26.6	-67.3	15.1
2026-01-14 00:27:09.730065	156.8	26.3	-67.2	15.1
2026-01-14 00:27:11.973580	157.2	25.9	-67.2	15.1
2026-01-14 00:27:14.218087	157.6	25.6	-66.7	14.5
2026-01-14 00:27:16.462098	157.9	25.3	-67.2	15.6
2026-01-14 00:27:18.706110	158.3	25.0	-67.3	15.5
2026-01-14 00:27:20.950122	158.6	24.7	-66.8	14.3
2026-01-14 00:27:23.194629	159.0	24.4	-66.8	15.7
2026-01-14 00:27:25.438143	159.3	24.1	-66.7	15.2
2026-01-14 00:27:27.682650	159.6	23.8	-67.0	15.4
2026-01-14 00:27:29.926661	160.0	23.5	-67.2	15.4
2026-01-14 00:27:32.170672	160.3	23.2	-66.9	14.3
2026-01-14 00:27:34.415179	160.6	22.9	-67.0	14.3
2026-01-14 00:27:36.659190	160.9	22.6	-67.4	14.6
2026-01-14 00:27:38.903697	161.2	22.3	-67.2	14.8
2026-01-14 00:27:41.148203	161.5	22.1	-67.5	14.4
2026-01-14 00:27:43.392215	161.8	21.8	-67.8	14.5
2026-01-14 00:27:45.636722	162.1	21.5	-67.5	14.5
2026-01-14 00:27:47.881228	162.4	21.2	-67.6	13.8
2026-01-14 00:27:50.124744	162.6	21.0	-67.4	14.2
2026-01-14 00:27:52.369251	162.9	20.7	-67.5	14.0
2026-01-14 00:27:54.613758	163.2	20.4	-67.4	13.9
2026-01-14 00:27:56.857769	163.4	20.1	-67.4	14.0
2026-01-14 00:27:59.102276	163.7	19.9	-67.1	14.3
2026-01-14 00:28:01.346782	164.0	19.6	-67.0	13.6
2026-01-14 00:28:03.591289	164.2	19.4	-67.3	13.8
2026-01-14 00:28:05.835301	164.5	19.1	-67.2	13.6
2026-01-14 00:28:08.079312	164.7	18.8	-67.3	13.5
2026-01-14 00:28:10.324324	164.9	18.6	-67.0	13.1
2026-01-14 00:28:12.568343	165.2	18.3	-67.2	13.6
2026-01-14 00:28:14.810869	165.4	18.1	-67.3	13.2
2026-01-14 00:28:17.053395	165.6	17.8	-66.8	12.9
2026-01-14 00:28:19.296911	165.9	17.6	-67.1	13.0
2026-01-14 00:28:21.540425	166.1	17.3	-67.0	12.9
2026-01-14 00:28:23.784436	166.3	17.1	-67.0	12.4
2026-01-14 00:28:26.028448	166.5	16.9	-66.9	12.9
2026-01-14 00:28:28.271963	166.7	16.6	-66.7	12.5
2026-01-14 00:28:30.515983	166.9	16.4	-66.5	12.7
2026-01-14 00:28:32.759995	167.1	16.2	-66.6	12.5
2026-01-14 00:28:35.003016	167.3	15.9	-66.6	11.7
2026-01-14 00:28:37.246037	167.5	15.7	-66.8	12.3
2026-01-14 00:28:39.489552	167.7	15.5	-66.8	12.0
2026-01-14 00:28:41.733563	167.9	15.2	-66.6	12.0
2026-01-14 00:28:43.978080	168.1	15.0	-66.9	11.6
2026-01-14 00:28:46.223100	168.3	14.8	-66.9	11.5
2026-01-14 00:28:48.467607	168.5	14.6	-66.5	11.5
2026-01-14 00:28:50.711618	168.7	14.4	-66.7	11.4
2026-01-14 00:28:52.955134	168.8	14.1	-66.4	10.0
2026-01-14 00:28:55.198155	169.0	13.9	-66.7	11.4
2026-01-14 00:28:57.442166	169.2	13.7	-66.3	10.5
2026-01-14 00:28:59.684690	169.4	13.5	-66.4	10.4
2026-01-14 00:29:01.930225	169.5	13.3	-66.3	10.9
2026-01-14 00:29:04.172254	169.7	13.1	-66.1	11.1
2026-01-14 00:29:06.415274	169.9	12.9	-66.4	11.3
2026-01-14 00:29:08.657797	170.0	12.7	-66.6	10.4
2026-01-14 00:29:10.905810	170.2	12.5	-66.2	10.0
2026-01-14 00:29:13.148830	170.3	12.3	-65.3	7.9
2026-01-14 00:29:15.392841	170.5	12.1	-66.6	10.4
2026-01-14 00:29:17.636356	170.7	11.9	-66.2	9.4
2026-01-14 00:29:19.879376	170.8	11.7	-66.4	8.7
2026-01-14 00:29:22.122397	171.0	11.5	-66.6	9.6
2026-01-14 00:29:24.366903	171.1	11.3	-66.6	9.5
2026-01-14 00:29:26.609923	171.3	11.1	-66.2	9.3
2026-01-14 00:29:28.853934	171.4	10.9	-66.1	9.5
2026-01-14 00:29:31.095467	171.5	10.7	-65.8	8.8
2026-01-14 00:29:33.337496	171.7	10.5	-66.5	8.4
2026-01-14 00:29:35.581508	171.8	10.3	-66.5	9.5
2026-01-14 00:29:37.825023	172.0	10.1	-66.3	8.3
2026-01-14 00:29:40.068539	172.1	9.9	-66.4	9.4
2026-01-14 00:29:42.310073	172.2	9.8	-66.2	9.2
2026-01-14 00:29:44.554084	172.4	9.6	-66.2	8.6
2026-01-14 00:29:46.798591	172.5	9.4	-66.5	9.6
2026-01-14 00:29:49.042116	172.6	9.2	-66.2	9.3
2026-01-14 00:29:51.286127	172.8	9.0	-66.4	8.8
2026-01-14 00:29:53.529147	172.9	8.9	-66.2	7.8
2026-01-14 00:29:55.773158	173.0	8.7	-66.6	9.2
2026-01-14 00:29:58.016176	173.1	8.5	-66.6	7.8
2026-01-14 00:30:00.259196	173.3	8.3	-66.3	8.9
2026-01-14 00:30:02.503703	173.4	8.1	-66.3	9.1
2026-01-14 00:30:04.747722	173.5	8.0	-66.2	8.3
2026-01-14 00:30:06.990742	173.6	7.8	-66.5	7.8
2026-01-14 00:30:09.234264	173.7	7.6	-66.2	8.1
2026-01-14 00:30:11.477323	173.8	7.5	-65.6	7.1
2026-01-14 00:30:13.721379	174.0	7.3	-66.4	8.2
2026-01-14 00:30:15.964940	174.1	7.1	-66.5	7.2
2026-01-14 00:30:18.207968	174.2	7.0	-66.3	8.7
2026-01-14 00:30:20.452980	174.3	6.8	-66.3	7.6
2026-01-14 00:30:22.697027	174.4	6.6	-66.7	7.5
2026-01-14 00:30:24.945551	174.5	6.5	-66.6	7.9
2026-01-14 00:30:27.189587	174.6	6.3	-66.5	7.1
2026-01-14 00:30:29.433109	174.7	6.1	-65.8	6.5
2026-01-14 00:30:31.680664	174.8	6.0	-67.7	4.8
2026-01-14 00:30:33.923684	174.9	5.8	-71.3	0.0
2026-01-14 00:30:36.167226	175.0	5.7	-71.4	0.0
2026-01-14 00:30:38.413247	175.1	5.5	-71.5	0.0
2026-01-14 00:30:40.656763	175.2	5.3	-72.4	0.0
2026-01-14 00:30:42.899329	175.3	5.2	-72.4	0.0
2026-01-14 00:30:45.142367	175.4	5.0	-71.8	0.0
#Closed at: 2026-01-14 00:18:07.589347