passes_logs/2026/01/14/PlanumMoscow/PlanumMoscow__20260114_015819_METEOR-M2_4_rec.log

#Pass ID: 20260114_015819_METEOR-M2 4
#Satellite: METEOR-M2 4
#Configuration: METEOR-M2 4
#Start time: 2026-01-14 01:58:24.780862

#LorettStation: 1.0.0 05.05.2024
#Station: PlanumMoscow
#Location: 37.6253844 lon 55.6713361 lat
#TLE: 1 59051U 24039A   25293.94737965  .00000087  00000+0  58459-4 0  9998
#TLE: 2 59051  98.6671 251.7071 0007726 135.4772 224.7028 14.22388966 85257

#Time	Az	El	Level	SNR
2026-01-14 02:02:03.195135	349.5	25.3	-60.3	6.5
2026-01-14 02:02:05.444705	349.0	25.6	-60.5	6.7
2026-01-14 02:02:07.688724	348.6	25.9	-60.0	6.5
2026-01-14 02:02:09.932240	348.2	26.1	-60.3	6.3
2026-01-14 02:02:12.174811	347.7	26.4	-60.6	6.3
2026-01-14 02:02:14.416868	347.3	26.7	-60.5	6.4
2026-01-14 02:02:16.660383	346.8	27.0	-60.5	6.4
2026-01-14 02:02:18.904403	346.3	27.3	-60.5	6.9
2026-01-14 02:02:21.147954	345.8	27.6	-60.6	6.7
2026-01-14 02:02:23.390485	345.3	27.9	-59.9	7.2
2026-01-14 02:02:25.633532	344.8	28.1	-59.9	6.9
2026-01-14 02:02:27.877551	344.3	28.4	-60.2	6.8
2026-01-14 02:02:30.121563	343.8	28.7	-60.0	6.4
2026-01-14 02:02:32.364134	343.3	29.0	-59.8	7.0
2026-01-14 02:02:34.606657	342.7	29.3	-59.8	6.7
2026-01-14 02:02:36.849706	342.2	29.6	-59.7	6.8
2026-01-14 02:02:39.093733	341.6	29.9	-59.6	6.7
2026-01-14 02:02:41.337791	341.1	30.2	-59.8	7.1
2026-01-14 02:02:43.581809	340.5	30.5	-59.8	7.0
2026-01-14 02:02:45.825324	339.9	30.7	-59.9	6.5
2026-01-14 02:02:48.068381	339.3	31.0	-59.9	6.6
2026-01-14 02:02:50.312407	338.7	31.3	-59.6	5.5
2026-01-14 02:02:52.555466	338.0	31.6	-59.7	6.0
2026-01-14 02:02:54.799484	337.4	31.9	-59.3	5.7
2026-01-14 02:02:57.042044	336.8	32.2	-59.4	5.8
2026-01-14 02:02:59.285566	336.1	32.5	-59.7	5.7
2026-01-14 02:03:01.529585	335.4	32.7	-59.9	5.8
2026-01-14 02:03:03.773636	334.7	33.0	-59.5	5.7
2026-01-14 02:03:06.017151	334.1	33.3	-59.3	5.8
2026-01-14 02:03:08.261239	333.3	33.6	-59.5	5.7
2026-01-14 02:03:10.506793	332.6	33.8	-59.8	5.5
2026-01-14 02:03:12.750804	331.9	34.1	-59.8	5.1
2026-01-14 02:03:14.994822	331.2	34.4	-59.8	5.2
2026-01-14 02:03:17.239328	330.4	34.6	-60.1	5.4
2026-01-14 02:03:19.486875	329.6	34.9	-60.2	5.3
2026-01-14 02:03:21.730917	328.9	35.2	-59.8	6.0
2026-01-14 02:03:23.975936	328.1	35.4	-59.6	6.3
2026-01-14 02:03:26.219957	327.3	35.7	-60.0	6.3
2026-01-14 02:03:28.464501	326.4	35.9	-59.9	6.4
2026-01-14 02:03:30.708520	325.6	36.1	-59.7	6.4
2026-01-14 02:03:32.952072	324.8	36.4	-60.2	6.8
2026-01-14 02:03:35.196587	323.9	36.6	-60.0	6.4
2026-01-14 02:03:37.441094	323.1	36.8	-60.2	6.8
2026-01-14 02:03:39.685136	322.2	37.0	-60.7	6.5
2026-01-14 02:03:41.928203	321.3	37.2	-61.0	7.2
2026-01-14 02:03:44.172710	320.4	37.4	-61.3	6.9
2026-01-14 02:03:46.416732	319.5	37.6	-61.4	7.2
2026-01-14 02:03:48.661276	318.6	37.8	-61.3	7.8
2026-01-14 02:03:50.906800	317.6	38.0	-61.6	7.9
2026-01-14 02:03:53.151307	316.7	38.2	-61.8	8.1
2026-01-14 02:03:55.395851	315.7	38.3	-62.1	8.1
2026-01-14 02:03:57.640365	314.8	38.5	-62.7	8.1
2026-01-14 02:03:59.884414	313.8	38.6	-63.0	8.2
2026-01-14 02:04:02.128927	312.8	38.8	-63.2	9.2
2026-01-14 02:04:04.372466	311.8	38.9	-63.7	9.6
2026-01-14 02:04:06.616484	310.8	39.0	-63.9	9.7
2026-01-14 02:04:08.860497	309.8	39.1	-64.2	9.6
2026-01-14 02:04:11.104553	308.8	39.2	-64.5	10.8
2026-01-14 02:04:13.349067	307.8	39.3	-64.8	11.5
2026-01-14 02:04:15.593124	306.8	39.4	-65.3	11.9
2026-01-14 02:04:17.838648	305.7	39.5	-65.5	12.7
2026-01-14 02:04:20.082200	304.7	39.5	-65.7	13.0
2026-01-14 02:04:22.326707	303.7	39.6	-66.0	13.5
2026-01-14 02:04:24.571214	302.6	39.6	-66.4	13.4
2026-01-14 02:04:26.814774	301.6	39.6	-66.7	13.5
2026-01-14 02:04:29.059290	300.6	39.7	-66.8	12.8
2026-01-14 02:04:31.303339	299.5	39.7	-67.0	13.9
2026-01-14 02:04:33.547855	298.5	39.7	-67.3	13.4
2026-01-14 02:04:35.794399	297.4	39.7	-66.9	13.4
2026-01-14 02:04:38.037923	296.4	39.6	-67.1	14.7
2026-01-14 02:04:40.281467	295.4	39.6	-66.1	13.3
2026-01-14 02:04:42.525974	294.3	39.5	-66.7	14.5
2026-01-14 02:04:44.772498	293.3	39.5	-66.3	14.0
2026-01-14 02:04:47.016539	292.3	39.4	-66.1	13.2
2026-01-14 02:04:49.260550	291.2	39.3	-66.3	14.0
2026-01-14 02:04:51.504598	290.2	39.3	-65.9	13.4
2026-01-14 02:04:53.750618	289.2	39.2	-65.8	12.2
2026-01-14 02:04:55.993172	288.2	39.0	-66.0	12.2
2026-01-14 02:04:58.237687	287.2	38.9	-65.7	11.3
2026-01-14 02:05:00.481698	286.2	38.8	-65.6	9.3
2026-01-14 02:05:02.725756	285.2	38.7	-65.7	10.9
2026-01-14 02:05:04.970270	284.3	38.5	-65.2	10.6
2026-01-14 02:05:07.215312	283.3	38.4	-64.9	10.1
2026-01-14 02:05:09.459353	282.3	38.2	-64.5	10.6
2026-01-14 02:05:11.707418	281.4	38.0	-64.3	10.4
2026-01-14 02:05:13.951932	280.4	37.9	-64.4	10.1
2026-01-14 02:05:16.196439	279.5	37.7	-64.3	11.6
2026-01-14 02:05:18.440481	278.6	37.5	-64.2	10.8
2026-01-14 02:05:20.684012	277.7	37.3	-63.9	11.0
2026-01-14 02:05:22.928052	276.8	37.1	-63.6	10.1
2026-01-14 02:05:25.172566	275.9	36.9	-64.1	9.3
2026-01-14 02:05:27.415617	275.0	36.6	-64.1	9.0
2026-01-14 02:05:29.662636	274.2	36.4	-63.2	7.9
2026-01-14 02:05:31.907176	273.3	36.2	-63.4	9.1
2026-01-14 02:05:34.151691	272.5	35.9	-63.6	8.9
2026-01-14 02:05:36.395205	271.7	35.7	-63.7	8.9
2026-01-14 02:05:38.639247	270.9	35.5	-63.7	8.1
2026-01-14 02:05:40.883762	270.1	35.2	-63.8	8.8
2026-01-14 02:05:43.127818	269.3	34.9	-63.9	7.2
2026-01-14 02:05:45.372333	268.5	34.7	-63.6	8.3
2026-01-14 02:05:47.615383	267.7	34.4	-64.2	8.1
2026-01-14 02:05:49.859897	267.0	34.2	-64.0	8.6
2026-01-14 02:05:52.103959	266.3	33.9	-63.4	7.7
2026-01-14 02:05:54.347970	265.5	33.6	-63.3	8.0
2026-01-14 02:05:56.593485	264.8	33.3	-63.8	9.4
2026-01-14 02:05:58.837030	264.1	33.1	-64.2	9.0
2026-01-14 02:06:01.081041	263.4	32.8	-63.0	8.5
2026-01-14 02:06:03.325080	262.8	32.5	-63.5	8.2
2026-01-14 02:06:05.571596	262.1	32.2	-63.7	7.4
2026-01-14 02:06:07.815654	261.4	31.9	-62.9	7.3
2026-01-14 02:06:10.059170	260.8	31.6	-63.0	7.9
2026-01-14 02:06:12.302695	260.2	31.4	-63.5	8.6
2026-01-14 02:06:14.547240	259.5	31.1	-63.6	7.4
2026-01-14 02:06:16.791260	258.9	30.8	-63.8	8.9
2026-01-14 02:06:19.036300	258.3	30.5	-63.5	8.3
2026-01-14 02:06:21.280833	257.8	30.2	-63.4	7.3
2026-01-14 02:06:23.524844	257.2	29.9	-63.2	7.6
2026-01-14 02:06:25.769884	256.6	29.6	-62.1	8.5
2026-01-14 02:06:28.014398	256.1	29.3	-63.2	9.9
2026-01-14 02:06:30.256951	255.5	29.0	-63.3	9.9
2026-01-14 02:06:32.501465	255.0	28.7	-63.3	9.4
2026-01-14 02:06:34.746506	254.4	28.4	-62.2	6.3
2026-01-14 02:06:36.990050	253.9	28.2	-62.2	7.5
2026-01-14 02:06:39.234105	253.4	27.9	-63.5	8.8
2026-01-14 02:06:41.480127	252.9	27.6	-63.4	9.1
2026-01-14 02:06:43.723642	252.4	27.3	-63.7	8.4
2026-01-14 02:06:45.967187	252.0	27.0	-62.9	7.4
2026-01-14 02:06:48.210709	251.5	26.7	-63.1	7.6
2026-01-14 02:06:50.454750	251.0	26.4	-63.8	9.5
2026-01-14 02:06:52.699264	250.6	26.1	-63.8	8.8
2026-01-14 02:06:54.943810	250.1	25.9	-62.9	9.4
2026-01-14 02:06:57.187847	249.7	25.6	-63.2	8.3
2026-01-14 02:06:59.431385	249.3	25.3	-62.6	7.5
2026-01-14 02:07:01.675892	248.8	25.0	-63.0	9.3
2026-01-14 02:07:03.921407	248.4	24.7	-63.2	8.2
2026-01-14 02:07:06.164960	248.0	24.4	-62.6	7.7
2026-01-14 02:07:08.407978	247.6	24.2	-63.7	9.9
2026-01-14 02:07:10.652027	247.2	23.9	-63.6	8.4
2026-01-14 02:07:12.896542	246.8	23.6	-63.4	9.2
2026-01-14 02:07:15.140590	246.4	23.4	-63.5	7.3
2026-01-14 02:07:17.385114	246.1	23.1	-63.9	8.7
2026-01-14 02:07:19.629621	245.7	22.8	-64.2	8.6
2026-01-14 02:07:21.873670	245.3	22.5	-64.3	9.2
2026-01-14 02:07:24.117690	245.0	22.3	-63.5	7.2
2026-01-14 02:07:26.364239	244.6	22.0	-62.5	6.0
2026-01-14 02:07:28.608755	244.3	21.7	-63.4	6.5
2026-01-14 02:07:30.853302	244.0	21.5	-64.5	8.2
2026-01-14 02:07:33.097313	243.6	21.2	-64.2	8.1
2026-01-14 02:07:35.341324	243.3	21.0	-64.2	8.7
2026-01-14 02:07:37.584869	243.0	20.7	-64.1	8.4
2026-01-14 02:07:39.829385	242.7	20.5	-63.0	5.6
2026-01-14 02:07:42.072429	242.4	20.2	-64.8	8.9
2026-01-14 02:07:44.316943	242.1	20.0	-65.0	8.9
2026-01-14 02:07:46.561489	241.8	19.7	-63.5	7.9
2026-01-14 02:07:48.805500	241.5	19.5	-65.3	9.5
2026-01-14 02:07:51.049519	241.2	19.2	-65.5	9.5
2026-01-14 02:07:53.292576	240.9	19.0	-65.5	9.2
2026-01-14 02:07:55.536586	240.6	18.7	-64.3	7.7
2026-01-14 02:07:57.781101	240.3	18.5	-65.0	8.7
2026-01-14 02:08:00.025145	240.1	18.2	-65.1	8.6
2026-01-14 02:08:02.268669	239.8	18.0	-65.1	9.7
2026-01-14 02:08:04.512712	239.5	17.8	-64.5	8.3
2026-01-14 02:08:06.757226	239.3	17.5	-64.1	9.2
2026-01-14 02:08:09.001733	239.0	17.3	-64.7	7.8
2026-01-14 02:08:11.244788	238.8	17.1	-65.7	10.3
2026-01-14 02:08:13.488809	238.5	16.8	-64.7	8.7
2026-01-14 02:08:15.733851	238.3	16.6	-64.4	7.5
2026-01-14 02:08:17.978367	238.0	16.4	-65.2	8.4
2026-01-14 02:08:20.221881	237.8	16.2	-64.7	7.0
2026-01-14 02:08:22.465937	237.6	15.9	-65.5	8.9
2026-01-14 02:08:24.710444	237.3	15.7	-64.8	8.6
2026-01-14 02:08:26.954487	237.1	15.5	-65.3	10.1
2026-01-14 02:08:29.198498	236.9	15.3	-65.8	10.0
2026-01-14 02:08:31.443014	236.7	15.1	-65.4	8.1
2026-01-14 02:08:33.687062	236.5	14.8	-64.9	9.7
2026-01-14 02:08:35.932578	236.2	14.6	-65.1	8.4
2026-01-14 02:08:38.176627	236.0	14.4	-66.1	10.1
2026-01-14 02:08:40.422135	235.8	14.2	-66.1	9.3
2026-01-14 02:08:42.666650	235.6	14.0	-66.3	9.2
2026-01-14 02:08:44.910697	235.4	13.8	-65.8	8.8
2026-01-14 02:08:47.154244	235.2	13.6	-66.6	9.4
2026-01-14 02:08:49.397797	235.0	13.4	-66.5	8.7
2026-01-14 02:08:51.643319	234.8	13.2	-65.8	6.4
2026-01-14 02:08:53.886890	234.7	13.0	-66.5	8.5
2026-01-14 02:08:56.128927	234.5	12.8	-65.6	8.5
2026-01-14 02:08:58.372442	234.3	12.6	-66.1	7.8
2026-01-14 02:09:00.617501	234.1	12.4	-66.2	7.9
2026-01-14 02:09:02.860053	233.9	12.2	-66.3	9.0
2026-01-14 02:09:05.102093	233.7	12.0	-65.7	8.6
2026-01-14 02:09:07.345617	233.6	11.8	-66.8	9.5
2026-01-14 02:09:09.588665	233.4	11.6	-66.3	8.8
2026-01-14 02:09:11.832683	233.2	11.4	-66.9	8.6
2026-01-14 02:09:14.076732	233.1	11.2	-66.5	8.0
2026-01-14 02:09:16.321247	232.9	11.0	-66.4	7.8
2026-01-14 02:09:18.565266	232.7	10.8	-67.1	8.1
2026-01-14 02:09:20.791942	232.6	10.6	-66.2	6.7
2026-01-14 02:09:23.037971	232.4	10.4	-66.9	9.5
2026-01-14 02:09:25.282019	232.3	10.3	-67.1	9.1
2026-01-14 02:09:27.525080	232.1	10.1	-67.0	9.6
2026-01-14 02:09:29.768597	232.0	9.9	-66.9	9.4
2026-01-14 02:09:32.012112	231.8	9.7	-66.8	9.4
2026-01-14 02:09:34.256124	231.7	9.5	-66.9	9.5
2026-01-14 02:09:36.499143	231.5	9.4	-66.4	8.0
2026-01-14 02:09:38.741668	231.4	9.2	-66.3	8.5
2026-01-14 02:09:40.984201	231.2	9.0	-66.7	8.9
2026-01-14 02:09:43.227220	231.1	8.8	-66.5	8.9
2026-01-14 02:09:45.471231	230.9	8.7	-66.6	9.1
2026-01-14 02:09:47.714251	230.8	8.5	-66.8	9.4
2026-01-14 02:09:49.956281	230.7	8.3	-66.8	8.2
2026-01-14 02:09:52.204292	230.5	8.1	-66.4	7.0
2026-01-14 02:09:54.452809	230.4	8.0	-67.1	8.7
2026-01-14 02:09:56.701821	230.3	7.8	-66.9	8.6
2026-01-14 02:09:58.957346	230.1	7.6	-66.8	8.3
2026-01-14 02:10:01.201853	230.0	7.5	-66.5	7.8
2026-01-14 02:10:03.444873	229.9	7.3	-66.6	7.7
2026-01-14 02:10:05.688389	229.8	7.1	-66.4	8.3
2026-01-14 02:10:07.933896	229.6	7.0	-67.1	7.0
2026-01-14 02:10:10.178410	229.5	6.8	-66.4	5.2
2026-01-14 02:10:12.421438	229.4	6.6	-67.0	7.9
2026-01-14 02:10:14.664458	229.3	6.5	-67.3	7.1
2026-01-14 02:10:16.908469	229.2	6.3	-67.3	8.2
2026-01-14 02:10:19.151488	229.0	6.1	-67.6	9.5
2026-01-14 02:10:21.395003	228.9	6.0	-66.1	0.1
2026-01-14 02:10:23.638519	228.8	5.8	-66.6	0.0
2026-01-14 02:10:25.882034	228.7	5.7	-67.6	0.0
2026-01-14 02:10:28.124557	228.6	5.5	-69.9	0.0
2026-01-14 02:10:30.368072	228.5	5.4	-72.2	0.0
2026-01-14 02:10:32.613083	228.4	5.2	-72.2	0.0
2026-01-14 02:10:34.857103	228.3	5.0	-71.9	0.0
#Closed at: 2026-01-14 01:58:19.783106