passes_logs/2026/01/14/PlanumMoscow/PlanumMoscow__20260114_075947_METOP-B_rec.log

#Pass ID: 20260114_075947_METOP-B
#Satellite: METOP-B
#Configuration: METOP-B
#Start time: 2026-01-14 07:59:52.055696

#LorettStation: 1.0.0 05.05.2024
#Station: PlanumMoscow
#Location: 37.6253844 lon 55.6713361 lat
#TLE: 1 38771U 12049A   25293.92766658  .00000266  00000+0  14193-3 0  9996
#TLE: 2 38771  98.6882 344.7603 0001609 341.5209  18.5909 14.21379342679275

#Time	Az	El	Level	SNR
2026-01-14 08:03:30.451758	354.0	26.7	-59.5	0.0
2026-01-14 08:03:32.696274	353.6	27.0	-60.6	1.6
2026-01-14 08:03:34.939295	353.2	27.4	-61.4	4.1
2026-01-14 08:03:37.185821	352.8	27.7	-60.4	1.7
2026-01-14 08:03:39.429832	352.4	28.0	-61.9	4.5
2026-01-14 08:03:41.675357	352.0	28.3	-62.3	4.1
2026-01-14 08:03:43.921874	351.6	28.7	-61.9	3.7
2026-01-14 08:03:46.165898	351.2	29.0	-62.7	4.0
2026-01-14 08:03:48.409909	350.7	29.4	-63.2	5.6
2026-01-14 08:03:50.655425	350.3	29.7	-62.5	5.1
2026-01-14 08:03:52.898941	349.8	30.1	-61.5	4.1
2026-01-14 08:03:55.142953	349.4	30.4	-62.7	5.7
2026-01-14 08:03:57.386964	348.9	30.7	-63.3	6.6
2026-01-14 08:03:59.630976	348.4	31.1	-62.8	5.5
2026-01-14 08:04:01.874493	347.9	31.5	-63.0	6.2
2026-01-14 08:04:04.118503	347.4	31.8	-61.6	5.8
2026-01-14 08:04:06.362515	346.9	32.2	-62.3	6.4
2026-01-14 08:04:08.606047	346.3	32.5	-62.9	7.1
2026-01-14 08:04:10.848573	345.8	32.9	-62.9	6.4
2026-01-14 08:04:13.092088	345.2	33.2	-62.0	6.7
2026-01-14 08:04:15.336595	344.7	33.6	-61.8	4.6
2026-01-14 08:04:17.580615	344.1	34.0	-62.7	5.2
2026-01-14 08:04:19.824626	343.5	34.3	-62.5	5.3
2026-01-14 08:04:22.069637	342.9	34.7	-62.2	3.5
2026-01-14 08:04:24.317659	342.2	35.1	-62.4	4.9
2026-01-14 08:04:26.561670	341.6	35.4	-62.3	6.8
2026-01-14 08:04:28.805185	340.9	35.8	-62.0	6.5
2026-01-14 08:04:31.049196	340.3	36.1	-62.0	7.4
2026-01-14 08:04:33.293722	339.6	36.5	-61.7	4.6
2026-01-14 08:04:35.537733	338.9	36.9	-63.1	8.6
2026-01-14 08:04:37.780753	338.2	37.2	-62.1	5.2
2026-01-14 08:04:40.026774	337.4	37.6	-61.7	3.4
2026-01-14 08:04:42.270786	336.7	38.0	-62.2	8.5
2026-01-14 08:04:44.514310	335.9	38.3	-61.3	5.8
2026-01-14 08:04:46.756833	335.1	38.7	-62.9	7.6
2026-01-14 08:04:49.003855	334.3	39.0	-62.7	9.3
2026-01-14 08:04:51.246875	333.5	39.4	-62.4	7.7
2026-01-14 08:04:53.489398	332.7	39.7	-62.9	7.6
2026-01-14 08:04:55.732931	331.8	40.1	-62.5	7.9
2026-01-14 08:04:57.976446	331.0	40.4	-62.8	7.2
2026-01-14 08:05:00.219466	330.1	40.7	-63.1	9.1
2026-01-14 08:05:02.463983	329.2	41.1	-63.2	8.8
2026-01-14 08:05:04.707496	328.2	41.4	-62.0	6.0
2026-01-14 08:05:06.951507	327.3	41.7	-62.8	8.8
2026-01-14 08:05:09.196014	326.3	42.0	-62.4	7.7
2026-01-14 08:05:11.440521	325.3	42.3	-62.5	7.4
2026-01-14 08:05:13.683045	324.3	42.6	-62.9	9.1
2026-01-14 08:05:15.926561	323.3	42.9	-62.0	7.3
2026-01-14 08:05:18.171068	322.3	43.2	-63.0	8.4
2026-01-14 08:05:20.415575	321.2	43.5	-62.4	7.4
2026-01-14 08:05:22.659090	320.1	43.7	-62.7	8.5
2026-01-14 08:05:24.902606	319.0	44.0	-62.3	8.6
2026-01-14 08:05:27.146617	317.9	44.2	-61.8	7.2
2026-01-14 08:05:29.391124	316.8	44.5	-62.1	7.7
2026-01-14 08:05:31.634640	315.7	44.7	-62.5	8.7
2026-01-14 08:05:33.878662	314.5	44.9	-61.6	6.9
2026-01-14 08:05:36.122673	313.3	45.1	-62.4	10.0
2026-01-14 08:05:38.365692	312.1	45.3	-62.3	8.8
2026-01-14 08:05:40.608713	310.9	45.5	-62.1	7.6
2026-01-14 08:05:42.852723	309.7	45.6	-62.6	8.6
2026-01-14 08:05:45.096239	308.5	45.8	-62.5	8.9
2026-01-14 08:05:47.340251	307.2	45.9	-62.9	9.5
2026-01-14 08:05:49.581784	306.0	46.0	-61.1	3.2
2026-01-14 08:05:51.824308	304.7	46.1	-63.3	8.8
2026-01-14 08:05:54.067329	303.5	46.2	-61.2	5.3
2026-01-14 08:05:56.310845	302.2	46.3	-62.9	7.7
2026-01-14 08:05:58.554362	300.9	46.3	-63.1	8.5
2026-01-14 08:06:00.797878	299.6	46.4	-61.7	7.1
2026-01-14 08:06:03.041897	298.3	46.4	-63.2	8.6
2026-01-14 08:06:05.287918	297.1	46.4	-62.8	7.9
2026-01-14 08:06:07.529450	295.8	46.4	-63.1	8.7
2026-01-14 08:06:09.772967	294.5	46.4	-62.7	8.9
2026-01-14 08:06:12.018978	293.2	46.3	-61.9	5.9
2026-01-14 08:06:14.261503	291.9	46.3	-62.4	6.3
2026-01-14 08:06:16.505019	290.6	46.2	-63.3	8.2
2026-01-14 08:06:18.748046	289.4	46.1	-63.1	8.0
2026-01-14 08:06:20.994580	288.1	46.0	-62.8	8.5
2026-01-14 08:06:23.237600	286.9	45.9	-63.1	7.6
2026-01-14 08:06:25.480621	285.6	45.8	-63.1	9.3
2026-01-14 08:06:27.723645	284.4	45.6	-62.6	6.7
2026-01-14 08:06:29.967170	283.2	45.5	-62.6	6.9
2026-01-14 08:06:32.209692	282.0	45.3	-62.8	7.0
2026-01-14 08:06:34.453703	280.8	45.1	-62.4	9.2
2026-01-14 08:06:36.697219	279.6	44.9	-61.9	6.5
2026-01-14 08:06:38.940735	278.4	44.7	-62.6	7.7
2026-01-14 08:06:41.184251	277.3	44.5	-62.4	8.5
2026-01-14 08:06:43.428262	276.2	44.2	-61.8	7.8
2026-01-14 08:06:45.672274	275.0	44.0	-61.7	7.2
2026-01-14 08:06:47.916285	273.9	43.7	-62.1	7.6
2026-01-14 08:06:50.159820	272.9	43.5	-61.4	7.2
2026-01-14 08:06:52.404345	271.8	43.2	-62.0	7.6
2026-01-14 08:06:54.646375	270.8	42.9	-60.4	1.7
2026-01-14 08:06:56.887909	269.7	42.6	-61.4	5.9
2026-01-14 08:06:59.131930	268.7	42.3	-60.8	4.0
2026-01-14 08:07:01.374952	267.7	42.0	-61.3	5.0
2026-01-14 08:07:03.618963	266.8	41.7	-61.3	6.8
2026-01-14 08:07:05.861984	265.8	41.4	-60.4	5.1
2026-01-14 08:07:08.111501	264.9	41.1	-60.2	1.9
2026-01-14 08:07:10.355512	264.0	40.7	-60.4	3.8
2026-01-14 08:07:12.600027	263.1	40.4	-60.1	5.2
2026-01-14 08:07:14.846534	262.2	40.1	-60.1	3.6
2026-01-14 08:07:17.090049	261.4	39.7	-59.5	2.2
2026-01-14 08:07:19.333565	260.5	39.4	-60.2	3.9
2026-01-14 08:07:21.576586	259.7	39.0	-58.9	1.4
2026-01-14 08:07:23.819606	258.9	38.7	-58.7	1.6
2026-01-14 08:07:26.063618	258.1	38.3	-58.8	1.2
2026-01-14 08:07:28.306145	257.3	37.9	-59.0	3.1
2026-01-14 08:07:30.548670	256.6	37.6	-58.4	5.5
2026-01-14 08:07:32.794194	255.9	37.2	-58.4	0.0
2026-01-14 08:07:35.038204	255.1	36.9	-57.3	0.0
2026-01-14 08:07:37.282216	254.4	36.5	-58.8	2.2
2026-01-14 08:07:39.525732	253.7	36.1	-58.1	0.0
2026-01-14 08:07:41.769247	253.1	35.8	-59.6	3.6
2026-01-14 08:07:44.013267	252.4	35.4	-57.7	0.8
2026-01-14 08:07:46.256783	251.8	35.0	-58.4	0.0
2026-01-14 08:07:48.500308	251.1	34.7	-56.7	0.0
2026-01-14 08:07:50.743330	250.5	34.3	-58.4	0.0
2026-01-14 08:07:52.986855	249.9	33.9	-58.0	0.0
2026-01-14 08:07:55.229380	249.4	33.6	-57.3	0.1
2026-01-14 08:07:57.477392	248.8	33.2	-57.1	0.0
2026-01-14 08:07:59.721404	248.2	32.8	-58.6	3.0
2026-01-14 08:08:01.965415	247.7	32.5	-56.7	0.0
2026-01-14 08:08:04.213427	247.1	32.1	-56.4	0.0
2026-01-14 08:08:06.457934	246.6	31.8	-57.5	0.0
2026-01-14 08:08:08.702946	246.1	31.4	-55.9	0.0
2026-01-14 08:08:10.946461	245.6	31.0	-56.0	0.0
2026-01-14 08:08:13.190472	245.1	30.7	-57.5	0.0
2026-01-14 08:08:15.433996	244.6	30.3	-57.5	0.0
2026-01-14 08:08:17.678503	244.2	30.0	-57.0	0.0
2026-01-14 08:08:19.922018	243.7	29.6	-57.8	0.0
2026-01-14 08:08:22.166029	243.2	29.3	-56.8	0.0
2026-01-14 08:08:24.409050	242.8	29.0	-57.0	0.0
2026-01-14 08:08:26.652565	242.4	28.6	-58.0	0.0
2026-01-14 08:08:28.900082	241.9	28.3	-54.8	0.0
2026-01-14 08:08:31.144589	241.5	28.0	-56.0	0.0
2026-01-14 08:08:33.391097	241.1	27.6	-54.8	0.0
2026-01-14 08:08:35.635117	240.7	27.3	-55.2	0.0
2026-01-14 08:08:37.879128	240.3	27.0	-56.6	0.0
2026-01-14 08:08:40.122643	240.0	26.6	-55.2	0.0
2026-01-14 08:08:42.364677	239.6	26.3	-54.5	0.0
2026-01-14 08:08:44.610221	239.2	26.0	-55.3	0.0
2026-01-14 08:08:46.853758	238.9	25.7	-54.8	0.0
2026-01-14 08:08:49.097770	238.5	25.4	-53.9	0.0
2026-01-14 08:08:51.341284	238.2	25.0	-56.3	0.0
2026-01-14 08:08:53.584303	237.8	24.7	-54.3	0.0
2026-01-14 08:08:55.827323	237.5	24.4	-54.5	0.0
2026-01-14 08:08:58.068865	237.2	24.1	-57.2	0.0
2026-01-14 08:09:00.313380	236.9	23.8	-56.1	0.0
2026-01-14 08:09:02.556896	236.6	23.5	-56.8	0.0
2026-01-14 08:09:04.800908	236.3	23.2	-56.3	0.0
2026-01-14 08:09:07.044918	236.0	22.9	-54.3	0.0
2026-01-14 08:09:09.287947	235.7	22.6	-57.4	0.0
2026-01-14 08:09:11.530969	235.4	22.4	-55.4	0.0
2026-01-14 08:09:13.772997	235.1	22.1	-55.4	0.0
2026-01-14 08:09:16.016512	234.8	21.8	-55.4	0.0
2026-01-14 08:09:18.261019	234.6	21.5	-57.6	0.0
2026-01-14 08:09:20.505030	234.3	21.2	-59.1	0.0
2026-01-14 08:09:22.748546	234.0	20.9	-57.1	0.0
2026-01-14 08:09:24.991575	233.8	20.7	-55.8	0.0
2026-01-14 08:09:27.234604	233.5	20.4	-55.7	0.0
2026-01-14 08:09:29.478121	233.3	20.1	-58.0	0.0
2026-01-14 08:09:31.720644	233.0	19.9	-58.9	0.0
2026-01-14 08:09:33.965151	232.8	19.6	-57.4	0.0
2026-01-14 08:09:36.208668	232.6	19.3	-58.5	0.0
2026-01-14 08:09:38.451686	232.3	19.1	-57.9	0.0
2026-01-14 08:09:40.678750	232.1	18.8	-59.6	0.0
2026-01-14 08:09:42.922761	231.9	18.6	-59.0	0.0
2026-01-14 08:09:45.167268	231.7	18.3	-58.4	0.0
2026-01-14 08:09:47.410288	231.4	18.0	-58.3	0.0
2026-01-14 08:09:49.653804	231.2	17.8	-60.1	0.0
2026-01-14 08:09:51.899321	231.0	17.6	-59.5	0.0
2026-01-14 08:09:54.141845	230.8	17.3	-57.4	0.0
2026-01-14 08:09:56.384865	230.6	17.1	-58.1	0.0
2026-01-14 08:09:58.626894	230.4	16.8	-56.9	0.0
2026-01-14 08:10:00.870410	230.2	16.6	-56.5	0.0
2026-01-14 08:10:03.114422	230.0	16.3	-57.8	0.0
2026-01-14 08:10:05.356946	229.8	16.1	-57.8	0.0
2026-01-14 08:10:07.601460	229.6	15.9	-60.7	0.0
2026-01-14 08:10:09.844976	229.5	15.6	-60.5	0.4
2026-01-14 08:10:12.092492	229.3	15.4	-61.3	0.0
2026-01-14 08:10:14.336008	229.1	15.2	-60.9	0.0
2026-01-14 08:10:16.579027	228.9	15.0	-60.1	0.0
2026-01-14 08:10:18.821551	228.8	14.7	-61.2	0.0
2026-01-14 08:10:21.063093	228.6	14.5	-59.6	0.0
2026-01-14 08:10:23.306609	228.4	14.3	-58.1	0.0
2026-01-14 08:10:25.550133	228.3	14.1	-56.9	0.0
2026-01-14 08:10:27.794649	228.1	13.9	-61.6	0.0
2026-01-14 08:10:30.039659	227.9	13.6	-59.1	0.0
2026-01-14 08:10:32.283175	227.8	13.4	-60.9	0.0
2026-01-14 08:10:34.527691	227.6	13.2	-60.7	0.0
2026-01-14 08:10:36.771207	227.5	13.0	-60.5	0.0
2026-01-14 08:10:39.013235	227.3	12.8	-61.5	0.0
2026-01-14 08:10:41.257247	227.2	12.6	-61.9	0.0
2026-01-14 08:10:43.501258	227.0	12.4	-62.5	0.0
2026-01-14 08:10:45.744774	226.9	12.2	-60.4	0.0
2026-01-14 08:10:47.987794	226.7	12.0	-61.2	0.0
2026-01-14 08:10:50.231805	226.6	11.8	-62.2	0.0
2026-01-14 08:10:52.474825	226.5	11.6	-62.8	0.0
2026-01-14 08:10:54.718845	226.3	11.4	-61.5	0.0
2026-01-14 08:10:56.965866	226.2	11.2	-62.0	0.0
2026-01-14 08:10:59.209382	226.1	11.0	-62.6	0.0
2026-01-14 08:11:01.452907	225.9	10.8	-63.2	0.0
2026-01-14 08:11:03.700928	225.8	10.6	-61.7	0.0
2026-01-14 08:11:05.945435	225.7	10.4	-61.9	0.0
2026-01-14 08:11:08.190446	225.6	10.2	-62.4	0.0
2026-01-14 08:11:10.433466	225.4	10.0	-62.4	0.0
2026-01-14 08:11:12.677972	225.3	9.8	-62.5	0.0
2026-01-14 08:11:14.922489	225.2	9.7	-61.7	0.0
2026-01-14 08:11:17.166996	225.1	9.5	-61.2	0.0
2026-01-14 08:11:19.415023	225.0	9.3	-62.2	0.0
2026-01-14 08:11:21.657538	224.8	9.1	-60.8	0.0
2026-01-14 08:11:23.901550	224.7	8.9	-63.2	0.0
2026-01-14 08:11:26.144570	224.6	8.7	-63.0	0.0
2026-01-14 08:11:28.388581	224.5	8.6	-63.0	0.0
2026-01-14 08:11:30.632592	224.4	8.4	-63.1	0.0
2026-01-14 08:11:32.875612	224.3	8.2	-63.1	0.0
2026-01-14 08:11:35.119624	224.2	8.0	-63.4	0.0
2026-01-14 08:11:37.363644	224.1	7.9	-63.3	0.0
2026-01-14 08:11:39.608152	224.0	7.7	-64.2	0.0
2026-01-14 08:11:41.853172	223.9	7.5	-64.1	0.0
2026-01-14 08:11:44.097697	223.8	7.4	-64.0	0.0
2026-01-14 08:11:46.341709	223.7	7.2	-64.6	0.0
2026-01-14 08:11:48.588730	223.6	7.0	-64.9	0.0
2026-01-14 08:11:50.832740	223.5	6.8	-64.4	0.0
2026-01-14 08:11:53.075760	223.4	6.7	-64.4	0.0
2026-01-14 08:11:55.317275	223.3	6.5	-65.0	0.9
2026-01-14 08:11:57.561295	223.2	6.3	-64.3	0.0
2026-01-14 08:11:59.804810	223.1	6.2	-65.0	0.0
2026-01-14 08:12:02.048326	223.0	6.0	-65.6	0.9
2026-01-14 08:12:04.290354	222.9	5.9	-63.6	0.0
2026-01-14 08:12:06.534861	222.8	5.7	-62.0	0.0
2026-01-14 08:12:08.779873	222.7	5.5	-64.2	0.0
2026-01-14 08:12:11.022906	222.6	5.4	-65.9	0.0
2026-01-14 08:12:13.265925	222.6	5.2	-69.6	0.0
2026-01-14 08:12:15.509440	222.5	5.1	-71.1	0.0
#Closed at: 2026-01-14 07:59:47.057554