passes_logs/2026/01/14/PlanumMoscow/PlanumMoscow__20260114_073045_METEOR-M2_3_rec.log

#Pass ID: 20260114_073045_METEOR-M2 3
#Satellite: METEOR-M2 3
#Configuration: METEOR-M2 3
#Start time: 2026-01-14 07:30:50.508940

#LorettStation: 1.0.0 05.05.2024
#Station: PlanumMoscow
#Location: 37.6253844 lon 55.6713361 lat
#TLE: 1 57166U 23091A   25293.99389264  .00000062  00000+0  46113-4 0  9997
#TLE: 2 57166  98.6457 348.4330 0004759 135.3141 224.8422 14.24016546120475

#Time	Az	El	Level	SNR
2026-01-14 07:34:28.887240	15.6	29.5	-60.3	5.9
2026-01-14 07:34:31.132253	15.6	29.9	-59.5	4.2
2026-01-14 07:34:33.375767	15.6	30.4	-59.8	4.5
2026-01-14 07:34:35.621299	15.6	30.8	-59.5	3.4
2026-01-14 07:34:37.863328	15.5	31.3	-59.5	4.6
2026-01-14 07:34:40.106863	15.5	31.7	-59.6	4.1
2026-01-14 07:34:42.350392	15.5	32.2	-58.5	4.9
2026-01-14 07:34:44.594402	15.5	32.7	-58.9	5.0
2026-01-14 07:34:46.838413	15.5	33.1	-58.3	5.5
2026-01-14 07:34:49.082425	15.4	33.6	-57.6	2.4
2026-01-14 07:34:51.327446	15.4	34.1	-58.6	3.1
2026-01-14 07:34:53.571457	15.4	34.6	-59.3	2.5
2026-01-14 07:34:55.814993	15.4	35.1	-58.5	3.2
2026-01-14 07:34:58.057517	15.3	35.6	-57.7	2.3
2026-01-14 07:35:00.301033	15.3	36.2	-58.7	3.2
2026-01-14 07:35:02.544549	15.3	36.7	-58.4	2.7
2026-01-14 07:35:04.788559	15.2	37.2	-60.0	2.5
2026-01-14 07:35:07.036086	15.2	37.8	-58.1	1.6
2026-01-14 07:35:09.278125	15.2	38.4	-58.6	2.3
2026-01-14 07:35:11.520649	15.1	38.9	-59.6	4.7
2026-01-14 07:35:13.764661	15.1	39.5	-58.1	1.2
2026-01-14 07:35:16.013186	15.1	40.1	-59.8	3.9
2026-01-14 07:35:18.256710	15.0	40.7	-59.0	3.7
2026-01-14 07:35:20.500722	15.0	41.3	-60.0	3.5
2026-01-14 07:35:22.746741	14.9	41.9	-58.5	0.0
2026-01-14 07:35:24.990753	14.9	42.6	-59.7	2.6
2026-01-14 07:35:27.233772	14.8	43.2	-60.6	3.6
2026-01-14 07:35:29.477784	14.8	43.9	-59.6	2.7
2026-01-14 07:35:31.720812	14.7	44.5	-60.6	5.0
2026-01-14 07:35:33.964824	14.7	45.2	-60.1	3.2
2026-01-14 07:35:36.208349	14.6	45.9	-59.4	3.1
2026-01-14 07:35:38.451873	14.5	46.6	-61.0	2.4
2026-01-14 07:35:40.695388	14.5	47.3	-60.6	3.5
2026-01-14 07:35:42.940895	14.4	48.1	-60.2	2.8
2026-01-14 07:35:45.184410	14.3	48.8	-60.9	4.7
2026-01-14 07:35:47.433431	14.3	49.5	-61.2	4.2
2026-01-14 07:35:49.677443	14.2	50.3	-62.4	6.6
2026-01-14 07:35:51.921460	14.1	51.1	-61.3	6.3
2026-01-14 07:35:54.165985	14.0	51.9	-62.3	7.1
2026-01-14 07:35:56.411997	13.9	52.7	-61.9	6.5
2026-01-14 07:35:58.656504	13.8	53.5	-63.0	6.4
2026-01-14 07:36:00.900515	13.7	54.3	-63.4	5.9
2026-01-14 07:36:03.149022	13.6	55.2	-64.1	4.9
2026-01-14 07:36:05.392538	13.4	56.0	-64.1	4.4
2026-01-14 07:36:07.636550	13.3	56.9	-64.1	4.9
2026-01-14 07:36:09.880560	13.2	57.8	-64.2	4.6
2026-01-14 07:36:12.123579	13.0	58.7	-64.7	5.6
2026-01-14 07:36:14.367589	12.9	59.6	-63.4	3.0
2026-01-14 07:36:16.612115	12.7	60.5	-64.5	6.8
2026-01-14 07:36:18.855648	12.5	61.5	-64.5	6.3
2026-01-14 07:36:21.098668	12.3	62.4	-64.8	7.6
2026-01-14 07:36:23.342184	12.1	63.4	-65.1	9.3
2026-01-14 07:36:25.584710	11.8	64.4	-64.6	8.1
2026-01-14 07:36:27.830747	11.5	65.4	-64.1	6.8
2026-01-14 07:36:30.074263	11.3	66.4	-64.5	7.4
2026-01-14 07:36:32.316788	10.9	67.4	-64.3	7.3
2026-01-14 07:36:34.560799	10.6	68.4	-65.5	7.6
2026-01-14 07:36:36.803819	10.2	69.5	-65.6	7.8
2026-01-14 07:36:39.048326	9.7	70.5	-65.6	8.1
2026-01-14 07:36:41.292336	9.2	71.6	-65.7	8.4
2026-01-14 07:36:43.534861	8.7	72.6	-65.6	8.5
2026-01-14 07:36:45.778890	8.0	73.7	-65.5	9.3
2026-01-14 07:36:48.023405	7.3	74.8	-65.4	9.7
2026-01-14 07:36:50.265932	6.4	75.9	-66.2	10.8
2026-01-14 07:36:52.508951	5.4	77.0	-66.0	10.3
2026-01-14 07:36:54.754467	4.2	78.1	-66.1	10.2
2026-01-14 07:36:56.997487	2.7	79.2	-65.9	10.1
2026-01-14 07:36:59.241014	0.9	80.3	-66.2	11.4
2026-01-14 07:37:01.483539	358.6	81.4	-66.5	10.8
2026-01-14 07:37:03.727550	355.7	82.5	-66.7	12.2
2026-01-14 07:37:05.970075	351.8	83.5	-66.4	11.7
2026-01-14 07:37:08.213591	346.3	84.5	-66.6	12.9
2026-01-14 07:37:10.457621	338.4	85.5	-66.3	12.2
2026-01-14 07:37:12.701633	326.7	86.3	-66.3	12.8
2026-01-14 07:37:14.945644	309.4	86.9	-66.7	12.3
2026-01-14 07:37:17.190151	287.0	87.1	-67.7	11.4
2026-01-14 07:37:19.431684	265.0	86.9	-68.4	11.5
2026-01-14 07:37:21.674704	248.2	86.3	-68.1	12.0
2026-01-14 07:37:23.918244	236.9	85.4	-67.8	13.5
2026-01-14 07:37:26.162751	229.3	84.5	-67.1	13.8
2026-01-14 07:37:28.405770	224.0	83.4	-66.9	14.7
2026-01-14 07:37:30.649782	220.1	82.4	-66.5	14.3
2026-01-14 07:37:32.893297	217.3	81.3	-67.1	14.1
2026-01-14 07:37:35.136317	215.0	80.2	-67.4	12.5
2026-01-14 07:37:37.380823	213.3	79.1	-67.9	12.3
2026-01-14 07:37:39.624350	211.8	78.0	-67.6	11.5
2026-01-14 07:37:41.866379	210.6	76.9	-67.9	12.8
2026-01-14 07:37:44.109895	209.6	75.8	-67.7	13.7
2026-01-14 07:37:46.353906	208.8	74.7	-67.3	14.7
2026-01-14 07:37:48.598413	208.1	73.6	-67.1	14.7
2026-01-14 07:37:50.842929	207.4	72.5	-67.1	13.6
2026-01-14 07:37:53.088444	206.9	71.4	-67.2	13.4
2026-01-14 07:37:55.332475	206.4	70.4	-67.2	12.7
2026-01-14 07:37:57.576486	205.9	69.3	-67.5	12.4
2026-01-14 07:37:59.819505	205.5	68.3	-67.2	11.3
2026-01-14 07:38:02.062529	205.2	67.3	-67.5	12.9
2026-01-14 07:38:04.306044	204.9	66.2	-67.7	12.3
2026-01-14 07:38:06.549559	204.6	65.2	-67.1	12.4
2026-01-14 07:38:08.792588	204.3	64.2	-66.8	12.7
2026-01-14 07:38:11.038105	204.1	63.3	-66.7	11.1
2026-01-14 07:38:13.281620	203.8	62.3	-67.2	12.0
2026-01-14 07:38:15.525136	203.6	61.3	-66.8	11.5
2026-01-14 07:38:17.774148	203.4	60.4	-67.1	11.5
2026-01-14 07:38:20.018655	203.3	59.5	-66.4	11.0
2026-01-14 07:38:22.260684	203.1	58.5	-66.5	11.0
2026-01-14 07:38:24.503705	202.9	57.6	-66.2	11.5
2026-01-14 07:38:26.747221	202.8	56.8	-66.0	9.6
2026-01-14 07:38:28.991232	202.7	55.9	-66.5	10.2
2026-01-14 07:38:31.234262	202.5	55.0	-65.0	7.4
2026-01-14 07:38:33.476786	202.4	54.2	-65.9	8.8
2026-01-14 07:38:35.723808	202.3	53.3	-65.1	8.2
2026-01-14 07:38:37.967323	202.2	52.5	-65.9	9.1
2026-01-14 07:38:40.210342	202.1	51.7	-66.3	9.4
2026-01-14 07:38:42.453371	202.0	50.9	-64.7	6.9
2026-01-14 07:38:44.696392	201.9	50.1	-65.4	9.3
2026-01-14 07:38:46.940404	201.9	49.4	-65.5	9.8
2026-01-14 07:38:49.184415	201.8	48.6	-64.8	9.8
2026-01-14 07:38:51.428428	201.7	47.9	-64.4	7.3
2026-01-14 07:38:53.676968	201.6	47.2	-63.2	6.9
2026-01-14 07:38:55.921482	201.6	46.4	-62.9	8.8
2026-01-14 07:38:58.164998	201.5	45.7	-64.0	8.8
2026-01-14 07:39:00.408030	201.4	45.0	-64.0	10.7
2026-01-14 07:39:02.651546	201.4	44.4	-64.3	10.8
2026-01-14 07:39:04.895557	201.3	43.7	-64.4	8.9
2026-01-14 07:39:07.142065	201.3	43.0	-63.7	9.9
2026-01-14 07:39:09.386085	201.2	42.4	-63.5	10.1
2026-01-14 07:39:11.629107	201.2	41.8	-64.9	11.1
2026-01-14 07:39:13.872622	201.1	41.1	-64.5	10.7
2026-01-14 07:39:16.116634	201.1	40.5	-63.5	9.2
2026-01-14 07:39:18.360150	201.1	39.9	-64.0	10.3
2026-01-14 07:39:20.603170	201.0	39.3	-62.5	9.7
2026-01-14 07:39:22.846189	201.0	38.7	-61.1	7.9
2026-01-14 07:39:25.089208	200.9	38.2	-62.5	8.7
2026-01-14 07:39:27.337220	200.9	37.6	-63.3	9.3
2026-01-14 07:39:29.581231	200.9	37.0	-61.9	8.6
2026-01-14 07:39:31.825243	200.8	36.5	-62.4	8.4
2026-01-14 07:39:34.070265	200.8	36.0	-61.7	9.5
2026-01-14 07:39:36.314780	200.8	35.4	-63.0	11.1
2026-01-14 07:39:38.558791	200.7	34.9	-62.7	9.7
2026-01-14 07:39:40.788626	200.7	34.4	-62.0	8.4
2026-01-14 07:39:43.033142	200.7	33.9	-61.4	9.2
2026-01-14 07:39:45.277649	200.7	33.4	-61.9	6.4
2026-01-14 07:39:47.520670	200.6	32.9	-63.5	10.8
2026-01-14 07:39:49.763203	200.6	32.4	-60.8	8.4
2026-01-14 07:39:52.006718	200.6	32.0	-62.8	8.0
2026-01-14 07:39:54.250233	200.6	31.5	-59.5	2.2
2026-01-14 07:39:56.493749	200.6	31.1	-61.8	6.6
2026-01-14 07:39:58.736273	200.5	30.6	-63.1	9.7
2026-01-14 07:40:00.980283	200.5	30.2	-61.3	3.9
2026-01-14 07:40:03.225295	200.5	29.7	-63.2	8.6
2026-01-14 07:40:05.468811	200.5	29.3	-61.5	6.0
2026-01-14 07:40:07.712822	200.5	28.9	-63.5	5.8
2026-01-14 07:40:09.956833	200.4	28.5	-61.3	4.7
2026-01-14 07:40:12.199359	200.4	28.0	-61.5	9.0
2026-01-14 07:40:14.442378	200.4	27.6	-60.9	4.1
2026-01-14 07:40:16.690895	200.4	27.2	-63.6	10.0
2026-01-14 07:40:18.934412	200.4	26.9	-60.2	2.5
2026-01-14 07:40:21.177927	200.4	26.5	-59.7	1.3
2026-01-14 07:40:23.421938	200.3	26.1	-61.3	1.3
2026-01-14 07:40:25.665950	200.3	25.7	-60.9	4.6
2026-01-14 07:40:27.910466	200.3	25.3	-61.8	10.0
2026-01-14 07:40:30.154486	200.3	25.0	-62.4	10.3
2026-01-14 07:40:32.401515	200.3	24.6	-62.5	11.0
2026-01-14 07:40:34.644565	200.3	24.3	-62.0	5.2
2026-01-14 07:40:36.889569	200.3	23.9	-62.6	3.7
2026-01-14 07:40:39.132590	200.3	23.6	-62.5	0.6
2026-01-14 07:40:41.377097	200.3	23.2	-63.1	6.6
2026-01-14 07:40:43.620117	200.2	22.9	-61.4	3.9
2026-01-14 07:40:45.864138	200.2	22.5	-63.3	6.3
2026-01-14 07:40:48.108150	200.2	22.2	-58.5	3.2
2026-01-14 07:40:50.350683	200.2	21.9	-61.6	8.6
2026-01-14 07:40:52.592219	200.2	21.6	-61.7	5.5
2026-01-14 07:40:54.836231	200.2	21.3	-62.7	10.6
2026-01-14 07:40:57.080251	200.2	20.9	-61.9	7.3
2026-01-14 07:40:59.324262	200.2	20.6	-63.2	9.2
2026-01-14 07:41:01.569272	200.2	20.3	-63.4	9.5
2026-01-14 07:41:03.813787	200.2	20.0	-63.3	9.0
2026-01-14 07:41:06.058301	200.2	19.7	-62.9	6.2
2026-01-14 07:41:08.301816	200.2	19.4	-63.5	9.8
2026-01-14 07:41:10.544340	200.2	19.2	-61.2	6.8
2026-01-14 07:41:12.787370	200.1	18.9	-63.4	7.0
2026-01-14 07:41:15.030389	200.1	18.6	-62.9	7.3
2026-01-14 07:41:17.273905	200.1	18.3	-62.1	7.7
2026-01-14 07:41:19.516927	200.1	18.0	-62.8	9.3
2026-01-14 07:41:21.760442	200.1	17.8	-62.3	7.5
2026-01-14 07:41:24.003958	200.1	17.5	-62.3	7.9
2026-01-14 07:41:26.250979	200.1	17.2	-62.8	7.7
2026-01-14 07:41:28.494496	200.1	17.0	-62.8	9.4
2026-01-14 07:41:30.738507	200.1	16.7	-63.2	7.9
2026-01-14 07:41:32.982023	200.1	16.4	-64.0	9.8
2026-01-14 07:41:35.225040	200.1	16.2	-63.6	10.7
2026-01-14 07:41:37.468556	200.1	15.9	-63.1	7.9
2026-01-14 07:41:39.713075	200.1	15.7	-61.0	7.1
2026-01-14 07:41:41.956590	200.1	15.4	-63.9	8.2
2026-01-14 07:41:44.199610	200.1	15.2	-62.9	4.1
2026-01-14 07:41:46.442630	200.1	14.9	-63.1	8.2
2026-01-14 07:41:48.687651	200.1	14.7	-63.8	8.3
2026-01-14 07:41:50.931671	200.1	14.5	-63.3	2.8
2026-01-14 07:41:53.175683	200.1	14.2	-63.2	8.0
2026-01-14 07:41:55.419703	200.1	14.0	-63.6	7.7
2026-01-14 07:41:57.662228	200.1	13.7	-63.8	4.7
2026-01-14 07:41:59.907239	200.1	13.5	-61.9	8.2
2026-01-14 07:42:02.150756	200.1	13.3	-60.8	4.8
2026-01-14 07:42:04.393776	200.1	13.1	-61.2	3.3
2026-01-14 07:42:06.636301	200.1	12.8	-61.5	3.0
2026-01-14 07:42:08.878825	200.1	12.6	-61.5	3.2
2026-01-14 07:42:11.122340	200.0	12.4	-62.6	7.6
2026-01-14 07:42:13.365855	200.0	12.2	-60.9	4.4
2026-01-14 07:42:15.608875	200.0	12.0	-59.8	1.8
2026-01-14 07:42:17.853382	200.0	11.8	-62.4	3.1
2026-01-14 07:42:20.096897	200.0	11.5	-63.5	4.5
2026-01-14 07:42:22.337438	200.0	11.3	-62.5	4.9
2026-01-14 07:42:24.580468	200.0	11.1	-62.7	5.1
2026-01-14 07:42:26.824984	200.0	10.9	-62.1	3.3
2026-01-14 07:42:29.067510	200.0	10.7	-63.2	4.7
2026-01-14 07:42:31.310036	200.0	10.5	-56.6	2.9
2026-01-14 07:42:33.554543	200.0	10.3	-62.5	2.3
2026-01-14 07:42:35.798554	200.0	10.1	-61.6	0.0
2026-01-14 07:42:38.043591	200.0	9.9	-62.1	1.1
2026-01-14 07:42:40.286612	200.0	9.7	-62.5	1.3
2026-01-14 07:42:42.530624	200.0	9.5	-60.9	0.0
2026-01-14 07:42:44.773643	200.0	9.3	-60.6	0.0
2026-01-14 07:42:47.017655	200.0	9.1	-61.6	1.2
2026-01-14 07:42:49.260179	200.0	9.0	-59.9	0.0
2026-01-14 07:42:51.502208	200.0	8.8	-59.7	0.0
2026-01-14 07:42:53.745724	200.0	8.6	-59.4	0.0
2026-01-14 07:42:55.988743	200.0	8.4	-60.3	1.2
2026-01-14 07:42:58.232753	200.0	8.2	-59.4	0.0
2026-01-14 07:43:00.476765	200.0	8.0	-58.9	0.0
2026-01-14 07:43:02.720290	200.0	7.8	-60.8	0.2
2026-01-14 07:43:04.964302	200.0	7.7	-61.3	0.0
2026-01-14 07:43:07.208313	200.0	7.5	-60.0	0.0
2026-01-14 07:43:09.452343	200.0	7.3	-59.4	0.0
2026-01-14 07:43:11.696354	200.0	7.1	-60.6	0.0
2026-01-14 07:43:13.939374	200.0	7.0	-58.6	0.0
2026-01-14 07:43:16.182890	200.0	6.8	-58.0	0.0
2026-01-14 07:43:18.426901	200.0	6.6	-60.5	0.0
2026-01-14 07:43:20.671417	200.0	6.4	-60.0	0.0
2026-01-14 07:43:22.915429	200.0	6.3	-56.4	0.0
2026-01-14 07:43:25.158449	200.0	6.1	-59.3	0.0
2026-01-14 07:43:27.400965	200.0	5.9	-62.5	0.0
2026-01-14 07:43:29.644490	200.0	5.8	-67.8	0.0
2026-01-14 07:43:31.887509	200.0	5.6	-70.1	0.0
2026-01-14 07:43:34.129043	200.0	5.4	-71.7	0.0
2026-01-14 07:43:36.373054	200.0	5.3	-70.9	0.0
2026-01-14 07:43:38.615588	200.0	5.1	-71.1	0.0
#Closed at: 2026-01-14 07:30:45.511135