passes_logs/2026/01/14/PlanumMoscow/PlanumMoscow__20260114_061936_METOP-B_rec.log

#Pass ID: 20260114_061936_METOP-B
#Satellite: METOP-B
#Configuration: METOP-B
#Start time: 2026-01-14 06:19:41.423255

#LorettStation: 1.0.0 05.05.2024
#Station: PlanumMoscow
#Location: 37.6253844 lon 55.6713361 lat
#TLE: 1 38771U 12049A   25293.92766658  .00000266  00000+0  14193-3 0  9996
#TLE: 2 38771  98.6882 344.7603 0001609 341.5209  18.5909 14.21379342679275

#Time	Az	El	Level	SNR
2026-01-14 06:23:19.818335	45.9	24.6	-61.2	1.5
2026-01-14 06:23:22.063347	46.3	24.9	-61.8	0.0
2026-01-14 06:23:24.306862	46.8	25.2	-61.5	2.7
2026-01-14 06:23:26.550379	47.2	25.4	-62.4	1.4
2026-01-14 06:23:28.793895	47.7	25.7	-62.2	1.7
2026-01-14 06:23:31.037412	48.1	26.0	-62.0	2.9
2026-01-14 06:23:33.281918	48.6	26.2	-62.0	1.4
2026-01-14 06:23:35.525939	49.1	26.5	-62.1	3.4
2026-01-14 06:23:37.769950	49.6	26.8	-61.4	0.2
2026-01-14 06:23:40.014468	50.1	27.1	-63.0	3.2
2026-01-14 06:23:42.257983	50.6	27.3	-62.6	2.6
2026-01-14 06:23:44.501994	51.1	27.6	-62.2	3.5
2026-01-14 06:23:46.746015	51.6	27.9	-62.8	4.2
2026-01-14 06:23:48.988539	52.1	28.2	-63.1	4.4
2026-01-14 06:23:51.233046	52.7	28.4	-62.3	3.1
2026-01-14 06:23:53.482563	53.2	28.7	-62.5	3.3
2026-01-14 06:23:55.726575	53.8	29.0	-62.1	2.3
2026-01-14 06:23:57.970586	54.3	29.3	-63.3	3.3
2026-01-14 06:24:00.214102	54.9	29.5	-62.3	1.0
2026-01-14 06:24:02.458114	55.5	29.8	-62.6	2.8
2026-01-14 06:24:04.701143	56.1	30.1	-61.8	0.3
2026-01-14 06:24:06.945154	56.7	30.4	-62.9	0.9
2026-01-14 06:24:09.191671	57.3	30.6	-62.4	0.0
2026-01-14 06:24:11.436178	58.0	30.9	-61.3	0.0
2026-01-14 06:24:13.680190	58.6	31.2	-62.3	0.9
2026-01-14 06:24:15.922218	59.3	31.4	-61.4	0.0
2026-01-14 06:24:18.167229	59.9	31.7	-61.2	0.0
2026-01-14 06:24:20.411241	60.6	32.0	-61.2	0.0
2026-01-14 06:24:22.655253	61.3	32.2	-61.4	0.0
2026-01-14 06:24:24.899264	62.0	32.5	-60.7	0.0
2026-01-14 06:24:27.142285	62.7	32.7	-61.0	0.0
2026-01-14 06:24:29.386296	63.4	33.0	-60.5	0.0
2026-01-14 06:24:31.628821	64.1	33.3	-60.0	0.0
2026-01-14 06:24:33.872346	64.8	33.5	-60.2	0.0
2026-01-14 06:24:36.115861	65.6	33.7	-60.4	0.0
2026-01-14 06:24:38.359872	66.3	34.0	-60.8	0.0
2026-01-14 06:24:40.603883	67.1	34.2	-60.0	0.0
2026-01-14 06:24:42.847398	67.9	34.5	-58.5	0.0
2026-01-14 06:24:45.092418	68.7	34.7	-59.6	0.0
2026-01-14 06:24:47.334448	69.5	34.9	-60.3	0.0
2026-01-14 06:24:49.577964	70.3	35.1	-59.4	0.0
2026-01-14 06:24:51.827481	71.1	35.4	-59.3	0.0
2026-01-14 06:24:54.072493	72.0	35.6	-58.4	0.0
2026-01-14 06:24:56.317000	72.8	35.8	-58.3	0.0
2026-01-14 06:24:58.559524	73.7	36.0	-58.7	0.0
2026-01-14 06:25:00.806545	74.5	36.2	-58.9	0.0
2026-01-14 06:25:03.050557	75.4	36.4	-58.5	0.0
2026-01-14 06:25:05.296064	76.3	36.5	-57.6	0.0
2026-01-14 06:25:07.540075	77.2	36.7	-57.9	0.0
2026-01-14 06:25:09.782104	78.1	36.9	-58.6	0.0
2026-01-14 06:25:12.026115	79.0	37.1	-60.5	0.0
2026-01-14 06:25:14.269632	80.0	37.2	-59.5	0.0
2026-01-14 06:25:16.513653	80.9	37.4	-59.4	0.0
2026-01-14 06:25:18.758160	81.8	37.5	-58.9	0.0
2026-01-14 06:25:21.001685	82.8	37.6	-60.9	0.0
2026-01-14 06:25:23.245697	83.7	37.8	-60.8	0.0
2026-01-14 06:25:25.488718	84.7	37.9	-60.4	1.8
2026-01-14 06:25:27.733233	85.7	38.0	-61.0	1.0
2026-01-14 06:25:29.978244	86.7	38.1	-61.8	1.1
2026-01-14 06:25:32.221264	87.6	38.2	-62.6	0.0
2026-01-14 06:25:34.465275	88.6	38.2	-62.9	2.8
2026-01-14 06:25:36.709287	89.6	38.3	-63.0	3.4
2026-01-14 06:25:38.951811	90.6	38.4	-62.2	2.4
2026-01-14 06:25:41.193345	91.6	38.4	-62.2	2.7
2026-01-14 06:25:43.434879	92.6	38.5	-63.0	2.9
2026-01-14 06:25:45.676414	93.6	38.5	-62.7	3.4
2026-01-14 06:25:47.919443	94.6	38.5	-63.1	2.1
2026-01-14 06:25:50.162959	95.6	38.5	-63.3	2.6
2026-01-14 06:25:52.407970	96.6	38.5	-63.7	2.7
2026-01-14 06:25:54.651982	97.7	38.5	-63.7	5.6
2026-01-14 06:25:56.894020	98.7	38.5	-64.2	4.9
2026-01-14 06:25:59.136553	99.7	38.5	-63.4	4.7
2026-01-14 06:26:01.380128	100.7	38.4	-63.0	3.8
2026-01-14 06:26:03.622652	101.7	38.4	-63.1	2.4
2026-01-14 06:26:05.868159	102.7	38.3	-62.9	1.1
2026-01-14 06:26:08.111674	103.7	38.3	-64.3	5.9
2026-01-14 06:26:10.355686	104.7	38.2	-63.1	3.2
2026-01-14 06:26:12.599215	105.6	38.1	-62.1	1.1
2026-01-14 06:26:14.842235	106.6	38.0	-63.0	0.0
2026-01-14 06:26:17.084768	107.6	37.9	-62.7	2.5
2026-01-14 06:26:19.327294	108.6	37.8	-63.5	4.0
2026-01-14 06:26:21.571829	109.5	37.7	-63.5	3.4
2026-01-14 06:26:23.815343	110.5	37.6	-63.0	4.7
2026-01-14 06:26:26.058373	111.4	37.4	-63.7	4.4
2026-01-14 06:26:28.302393	112.4	37.3	-63.2	0.6
2026-01-14 06:26:30.545909	113.3	37.1	-63.5	3.3
2026-01-14 06:26:32.789921	114.2	37.0	-62.9	5.5
2026-01-14 06:26:35.032940	115.1	36.8	-64.0	3.1
2026-01-14 06:26:37.275960	116.0	36.6	-63.8	2.5
2026-01-14 06:26:39.520476	116.9	36.5	-63.7	4.8
2026-01-14 06:26:41.764487	117.8	36.3	-63.3	3.6
2026-01-14 06:26:44.007506	118.7	36.1	-62.9	4.4
2026-01-14 06:26:46.253517	119.6	35.9	-62.9	3.9
2026-01-14 06:26:48.499528	120.4	35.7	-63.1	0.0
2026-01-14 06:26:50.743540	121.3	35.5	-63.4	4.6
2026-01-14 06:26:52.987560	122.1	35.2	-62.3	3.3
2026-01-14 06:26:55.229587	122.9	35.0	-62.3	3.7
2026-01-14 06:26:57.473599	123.7	34.8	-61.9	4.5
2026-01-14 06:26:59.717611	124.5	34.6	-62.4	5.4
2026-01-14 06:27:01.961621	125.3	34.3	-61.7	3.4
2026-01-14 06:27:04.205137	126.1	34.1	-62.4	4.3
2026-01-14 06:27:06.448653	126.9	33.8	-62.8	4.8
2026-01-14 06:27:08.693181	127.6	33.6	-63.7	6.6
2026-01-14 06:27:10.937193	128.4	33.4	-63.2	4.1
2026-01-14 06:27:13.181205	129.1	33.1	-63.7	4.8
2026-01-14 06:27:15.424729	129.8	32.8	-63.8	6.0
2026-01-14 06:27:17.668750	130.5	32.6	-64.1	6.8
2026-01-14 06:27:19.911769	131.2	32.3	-64.1	7.2
2026-01-14 06:27:22.155789	131.9	32.1	-61.9	3.2
2026-01-14 06:27:24.399800	132.6	31.8	-63.2	6.7
2026-01-14 06:27:26.643812	133.3	31.5	-63.6	6.9
2026-01-14 06:27:28.887823	133.9	31.3	-64.6	7.9
2026-01-14 06:27:31.130347	134.6	31.0	-64.8	7.5
2026-01-14 06:27:33.372872	135.2	30.7	-64.3	5.4
2026-01-14 06:27:35.616389	135.8	30.4	-64.6	5.2
2026-01-14 06:27:37.859430	136.4	30.2	-64.7	7.6
2026-01-14 06:27:40.102450	137.0	29.9	-64.5	5.9
2026-01-14 06:27:42.345471	137.6	29.6	-64.1	4.5
2026-01-14 06:27:44.588987	138.2	29.3	-65.0	7.7
2026-01-14 06:27:46.834504	138.8	29.1	-64.0	5.0
2026-01-14 06:27:49.078524	139.4	28.8	-64.1	6.7
2026-01-14 06:27:51.321544	139.9	28.5	-64.0	4.6
2026-01-14 06:27:53.565555	140.5	28.2	-64.0	6.5
2026-01-14 06:27:55.809566	141.0	28.0	-64.4	6.5
2026-01-14 06:27:58.055073	141.5	27.7	-64.1	6.7
2026-01-14 06:28:00.299085	142.0	27.4	-64.4	7.3
2026-01-14 06:28:02.543097	142.6	27.1	-64.3	7.8
2026-01-14 06:28:04.786126	143.1	26.9	-64.8	8.0
2026-01-14 06:28:07.029654	143.6	26.6	-64.5	7.1
2026-01-14 06:28:09.274148	144.0	26.3	-65.1	7.8
2026-01-14 06:28:11.516177	144.5	26.0	-64.7	8.2
2026-01-14 06:28:13.759207	145.0	25.8	-64.8	8.4
2026-01-14 06:28:16.004218	145.4	25.5	-64.2	7.4
2026-01-14 06:28:18.247239	145.9	25.2	-64.6	8.7
2026-01-14 06:28:20.490268	146.3	25.0	-63.3	5.4
2026-01-14 06:28:22.733784	146.8	24.7	-64.5	7.8
2026-01-14 06:28:24.978291	147.2	24.4	-64.6	8.0
2026-01-14 06:28:27.220319	147.6	24.2	-64.9	7.8
2026-01-14 06:28:29.464844	148.1	23.9	-64.4	6.4
2026-01-14 06:28:31.707864	148.5	23.6	-64.7	7.1
2026-01-14 06:28:33.951876	148.9	23.4	-64.7	7.7
2026-01-14 06:28:36.194895	149.3	23.1	-64.9	6.6
2026-01-14 06:28:38.439907	149.7	22.8	-65.0	7.4
2026-01-14 06:28:40.684918	150.0	22.6	-64.5	5.7
2026-01-14 06:28:42.928435	150.4	22.3	-65.1	6.9
2026-01-14 06:28:45.171952	150.8	22.1	-65.1	6.1
2026-01-14 06:28:47.415468	151.2	21.8	-65.2	5.4
2026-01-14 06:28:49.659479	151.5	21.6	-65.3	6.5
2026-01-14 06:28:51.903986	151.9	21.3	-65.0	6.1
2026-01-14 06:28:54.147006	152.2	21.1	-65.1	6.4
2026-01-14 06:28:56.390522	152.6	20.8	-65.4	7.6
2026-01-14 06:28:58.634534	152.9	20.6	-65.1	6.4
2026-01-14 06:29:00.878049	153.2	20.3	-65.2	6.0
2026-01-14 06:29:03.120573	153.6	20.1	-65.0	6.5
2026-01-14 06:29:05.365080	153.9	19.8	-65.0	5.7
2026-01-14 06:29:07.608596	154.2	19.6	-65.1	6.2
2026-01-14 06:29:09.851617	154.5	19.3	-65.1	6.3
2026-01-14 06:29:12.094646	154.8	19.1	-65.6	7.4
2026-01-14 06:29:14.336676	155.1	18.9	-65.3	7.3
2026-01-14 06:29:16.579696	155.4	18.6	-65.4	7.0
2026-01-14 06:29:18.824230	155.7	18.4	-64.7	6.5
2026-01-14 06:29:21.068241	156.0	18.2	-65.2	7.1
2026-01-14 06:29:23.312253	156.3	17.9	-65.4	6.9
2026-01-14 06:29:25.556760	156.6	17.7	-65.4	6.7
2026-01-14 06:29:27.799781	156.9	17.5	-64.4	6.4
2026-01-14 06:29:30.043801	157.1	17.2	-65.2	6.9
2026-01-14 06:29:32.287327	157.4	17.0	-65.4	6.4
2026-01-14 06:29:34.530843	157.7	16.8	-65.7	6.9
2026-01-14 06:29:36.773864	157.9	16.6	-65.8	6.5
2026-01-14 06:29:39.018371	158.2	16.3	-65.5	6.3
2026-01-14 06:29:41.262390	158.4	16.1	-65.6	5.7
2026-01-14 06:29:43.504419	158.7	15.9	-65.0	6.2
2026-01-14 06:29:45.746449	158.9	15.7	-65.8	6.5
2026-01-14 06:29:47.987983	159.2	15.5	-65.5	5.7
2026-01-14 06:29:50.231499	159.4	15.3	-65.6	6.4
2026-01-14 06:29:52.477511	159.7	15.1	-65.7	6.2
2026-01-14 06:29:54.721028	159.9	14.8	-65.7	5.7
2026-01-14 06:29:56.965544	160.1	14.6	-65.6	6.2
2026-01-14 06:29:59.210565	160.4	14.4	-66.0	6.3
2026-01-14 06:30:01.454576	160.6	14.2	-65.6	3.6
2026-01-14 06:30:03.698587	160.8	14.0	-65.6	6.0
2026-01-14 06:30:05.942599	161.0	13.8	-65.4	5.3
2026-01-14 06:30:08.185627	161.2	13.6	-65.5	5.3
2026-01-14 06:30:10.429143	161.5	13.4	-65.3	5.1
2026-01-14 06:30:12.673154	161.7	13.2	-65.3	3.7
2026-01-14 06:30:14.915182	161.9	13.0	-64.5	4.2
2026-01-14 06:30:17.159193	162.1	12.8	-64.9	2.9
2026-01-14 06:30:19.402213	162.3	12.6	-65.2	4.2
2026-01-14 06:30:21.645728	162.5	12.4	-65.1	3.3
2026-01-14 06:30:23.888748	162.7	12.2	-65.2	4.0
2026-01-14 06:30:26.132759	162.9	12.0	-65.4	4.7
2026-01-14 06:30:28.376771	163.1	11.8	-65.1	4.4
2026-01-14 06:30:30.620781	163.3	11.7	-65.6	4.1
2026-01-14 06:30:32.866793	163.4	11.5	-65.4	4.3
2026-01-14 06:30:35.109812	163.6	11.3	-65.3	3.5
2026-01-14 06:30:37.352336	163.8	11.1	-65.6	3.7
2026-01-14 06:30:39.596843	164.0	10.9	-64.7	2.6
2026-01-14 06:30:41.841864	164.2	10.7	-65.2	3.0
2026-01-14 06:30:44.085379	164.3	10.5	-64.9	2.1
2026-01-14 06:30:46.328402	164.5	10.4	-64.6	2.6
2026-01-14 06:30:48.572413	164.7	10.2	-64.8	0.5
2026-01-14 06:30:50.815935	164.9	10.0	-65.3	3.1
2026-01-14 06:30:53.059955	165.0	9.8	-65.1	3.5
2026-01-14 06:30:55.303966	165.2	9.6	-65.1	2.7
2026-01-14 06:30:57.546491	165.4	9.5	-64.7	1.5
2026-01-14 06:30:59.791503	165.5	9.3	-64.6	0.7
2026-01-14 06:31:02.035019	165.7	9.1	-64.8	1.7
2026-01-14 06:31:04.279525	165.8	8.9	-64.6	1.8
2026-01-14 06:31:06.524536	166.0	8.8	-64.3	0.0
2026-01-14 06:31:08.768052	166.2	8.6	-64.9	2.6
2026-01-14 06:31:11.012063	166.3	8.4	-64.8	0.0
2026-01-14 06:31:13.255084	166.5	8.3	-64.5	0.0
2026-01-14 06:31:15.497608	166.6	8.1	-63.9	0.0
2026-01-14 06:31:17.741619	166.8	7.9	-64.4	0.0
2026-01-14 06:31:19.985134	166.9	7.8	-64.9	0.8
2026-01-14 06:31:22.227658	167.1	7.6	-65.3	2.7
2026-01-14 06:31:24.470678	167.2	7.4	-65.1	1.7
2026-01-14 06:31:26.714689	167.3	7.3	-64.7	0.0
2026-01-14 06:31:28.959196	167.5	7.1	-65.2	0.0
2026-01-14 06:31:31.206711	167.6	6.9	-65.1	0.0
2026-01-14 06:31:33.451722	167.8	6.8	-64.7	0.0
2026-01-14 06:31:35.694742	167.9	6.6	-64.6	0.0
2026-01-14 06:31:37.938258	168.0	6.5	-64.5	0.0
2026-01-14 06:31:40.184775	168.2	6.3	-64.2	0.5
2026-01-14 06:31:42.428786	168.3	6.1	-64.8	0.0
2026-01-14 06:31:44.672301	168.4	6.0	-65.5	1.5
2026-01-14 06:31:46.914825	168.6	5.8	-69.6	0.0
2026-01-14 06:31:49.159846	168.7	5.7	-69.1	0.0
2026-01-14 06:31:51.402369	168.8	5.5	-68.8	0.0
2026-01-14 06:31:53.646876	168.9	5.4	-69.0	0.0
2026-01-14 06:31:55.889904	169.1	5.2	-71.1	0.0
2026-01-14 06:31:58.132925	169.2	5.1	-70.7	0.0
#Closed at: 2026-01-14 06:19:36.425419