passes_logs/2026/01/14/PlanumMoscow/PlanumMoscow__20260114_083736_METOP-C_rec.log

#Pass ID: 20260114_083736_METOP-C
#Satellite: METOP-C
#Configuration: METOP-C
#Start time: 2026-01-14 08:37:41.627460

#LorettStation: 1.0.0 05.05.2024
#Station: PlanumMoscow
#Location: 37.6253844 lon 55.6713361 lat
#TLE: 1 43689U 18087A   25293.88981035  .00000265  00000+0  14109-3 0  9997
#TLE: 2 43689  98.7006 352.4487 0002041 122.1097 238.0279 14.21482740360838

#Time	Az	El	Level	SNR
2026-01-14 08:41:20.568075	351.4	26.0	-63.0	0.0
2026-01-14 08:41:22.812133	350.9	26.3	-63.1	0.0
2026-01-14 08:41:25.056144	350.5	26.6	-64.1	0.0
2026-01-14 08:41:27.299668	350.1	26.9	-64.5	0.4
2026-01-14 08:41:29.542717	349.7	27.2	-64.0	0.0
2026-01-14 08:41:31.785745	349.2	27.5	-64.2	0.0
2026-01-14 08:41:34.030756	348.8	27.8	-64.3	0.0
2026-01-14 08:41:36.274767	348.3	28.1	-64.2	0.0
2026-01-14 08:41:38.517299	347.9	28.4	-64.8	0.5
2026-01-14 08:41:40.760816	347.4	28.8	-65.0	0.0
2026-01-14 08:41:43.005323	346.9	29.1	-64.8	0.0
2026-01-14 08:41:45.251838	346.4	29.4	-65.3	0.3
2026-01-14 08:41:47.496353	345.9	29.7	-64.3	0.5
2026-01-14 08:41:49.739869	345.4	30.0	-63.1	0.0
2026-01-14 08:41:51.983888	344.8	30.3	-64.4	0.2
2026-01-14 08:41:54.230901	344.3	30.7	-66.0	1.9
2026-01-14 08:41:56.473920	343.8	31.0	-64.9	0.5
2026-01-14 08:41:58.718436	343.2	31.3	-65.2	0.3
2026-01-14 08:42:00.962455	342.6	31.6	-66.0	0.0
2026-01-14 08:42:03.206466	342.0	31.9	-65.3	0.0
2026-01-14 08:42:05.450973	341.4	32.3	-66.1	0.0
2026-01-14 08:42:07.693994	340.8	32.6	-65.3	0.0
2026-01-14 08:42:09.937509	340.2	32.9	-65.9	2.1
2026-01-14 08:42:12.181025	339.6	33.2	-65.9	0.0
2026-01-14 08:42:14.425037	338.9	33.5	-65.7	0.0
2026-01-14 08:42:16.669563	338.3	33.8	-65.4	0.0
2026-01-14 08:42:18.913078	337.6	34.2	-65.0	0.0
2026-01-14 08:42:21.155106	336.9	34.5	-66.3	0.0
2026-01-14 08:42:23.399118	336.2	34.8	-65.8	0.0
2026-01-14 08:42:25.642633	335.5	35.1	-64.8	0.0
2026-01-14 08:42:27.885652	334.8	35.4	-65.4	0.0
2026-01-14 08:42:30.129663	334.1	35.7	-66.2	0.0
2026-01-14 08:42:32.375692	333.3	36.0	-66.2	0.0
2026-01-14 08:42:34.619703	332.5	36.3	-65.6	0.0
2026-01-14 08:42:36.863714	331.8	36.6	-65.7	0.0
2026-01-14 08:42:39.107725	331.0	36.9	-66.2	0.0
2026-01-14 08:42:41.350744	330.2	37.2	-66.0	0.0
2026-01-14 08:42:43.593268	329.3	37.5	-66.0	0.0
2026-01-14 08:42:45.836783	328.5	37.8	-66.2	0.0
2026-01-14 08:42:48.083308	327.6	38.0	-66.8	0.0
2026-01-14 08:42:50.326824	326.8	38.3	-66.6	0.0
2026-01-14 08:42:52.571330	325.9	38.6	-67.3	0.0
2026-01-14 08:42:54.814846	325.0	38.8	-66.1	0.0
2026-01-14 08:42:57.058362	324.1	39.1	-66.8	0.0
2026-01-14 08:42:59.301877	323.1	39.4	-66.6	0.0
2026-01-14 08:43:01.544400	322.2	39.6	-67.3	0.0
2026-01-14 08:43:03.788412	321.3	39.8	-66.8	0.0
2026-01-14 08:43:06.031431	320.3	40.1	-67.1	0.0
2026-01-14 08:43:08.274955	319.3	40.3	-66.0	0.0
2026-01-14 08:43:10.518470	318.3	40.5	-67.6	0.0
2026-01-14 08:43:12.761489	317.3	40.7	-65.5	0.0
2026-01-14 08:43:15.003519	316.3	40.9	-66.8	0.0
2026-01-14 08:43:17.247547	315.2	41.1	-66.4	0.0
2026-01-14 08:43:19.490072	314.2	41.2	-66.4	0.0
2026-01-14 08:43:21.734083	313.1	41.4	-66.9	0.0
2026-01-14 08:43:23.978094	312.1	41.5	-67.1	0.0
2026-01-14 08:43:26.221610	311.0	41.7	-67.2	0.0
2026-01-14 08:43:28.467622	309.9	41.8	-66.1	0.0
2026-01-14 08:43:30.712138	308.8	41.9	-64.3	0.0
2026-01-14 08:43:32.955653	307.7	42.0	-67.1	0.0
2026-01-14 08:43:35.201674	306.6	42.1	-66.8	0.0
2026-01-14 08:43:37.444699	305.5	42.2	-66.6	0.0
2026-01-14 08:43:39.688210	304.4	42.3	-66.8	0.0
2026-01-14 08:43:41.931725	303.3	42.4	-65.0	0.0
2026-01-14 08:43:44.177746	302.1	42.4	-65.6	0.0
2026-01-14 08:43:46.421262	301.0	42.4	-65.4	0.0
2026-01-14 08:43:48.664777	299.9	42.5	-66.3	0.0
2026-01-14 08:43:50.908815	298.7	42.5	-65.4	0.0
2026-01-14 08:43:53.152827	297.6	42.5	-66.4	0.0
2026-01-14 08:43:55.397342	296.5	42.5	-65.2	0.0
2026-01-14 08:43:57.640362	295.3	42.4	-66.0	0.0
2026-01-14 08:43:59.884373	294.2	42.4	-66.8	0.0
2026-01-14 08:44:02.127889	293.1	42.3	-66.4	0.0
2026-01-14 08:44:04.372404	291.9	42.3	-66.1	0.0
2026-01-14 08:44:06.620425	290.8	42.2	-65.5	0.0
2026-01-14 08:44:08.863950	289.7	42.1	-67.3	0.0
2026-01-14 08:44:11.107969	288.6	42.0	-64.7	0.0
2026-01-14 08:44:13.351485	287.5	41.9	-66.9	0.0
2026-01-14 08:44:15.595000	286.4	41.8	-65.5	0.0
2026-01-14 08:44:17.839507	285.3	41.6	-66.9	0.0
2026-01-14 08:44:20.083031	284.2	41.5	-65.5	0.0
2026-01-14 08:44:22.328538	283.2	41.3	-66.2	0.0
2026-01-14 08:44:24.573549	282.1	41.2	-65.1	0.0
2026-01-14 08:44:26.818064	281.1	41.0	-65.6	0.0
2026-01-14 08:44:29.061084	280.1	40.8	-65.3	0.0
2026-01-14 08:44:31.305095	279.0	40.6	-64.5	0.0
2026-01-14 08:44:33.549611	278.0	40.4	-65.6	0.0
2026-01-14 08:44:35.793631	277.0	40.2	-64.2	0.0
2026-01-14 08:44:38.041147	276.1	39.9	-64.5	0.0
2026-01-14 08:44:40.285158	275.1	39.7	-64.4	0.0
2026-01-14 08:44:42.528673	274.1	39.5	-63.6	0.0
2026-01-14 08:44:44.772189	273.2	39.2	-63.6	0.0
2026-01-14 08:44:47.016696	272.3	39.0	-63.5	0.0
2026-01-14 08:44:49.260213	271.4	38.7	-63.0	0.0
2026-01-14 08:44:51.503232	270.5	38.5	-61.2	0.0
2026-01-14 08:44:53.746756	269.6	38.2	-61.9	0.0
2026-01-14 08:44:55.990779	268.7	37.9	-62.7	0.0
2026-01-14 08:44:58.233303	267.9	37.6	-62.6	0.0
2026-01-14 08:45:00.477819	267.1	37.3	-62.4	0.0
2026-01-14 08:45:02.721334	266.2	37.1	-62.4	0.0
2026-01-14 08:45:04.964850	265.4	36.8	-63.0	0.0
2026-01-14 08:45:07.209887	264.6	36.5	-63.5	0.0
2026-01-14 08:45:09.453403	263.9	36.2	-61.7	0.0
2026-01-14 08:45:11.697414	263.1	35.9	-61.0	0.0
2026-01-14 08:45:13.941921	262.3	35.6	-62.1	0.0
2026-01-14 08:45:16.185941	261.6	35.2	-62.6	0.0
2026-01-14 08:45:18.430962	260.9	34.9	-61.1	0.0
2026-01-14 08:45:20.673486	260.2	34.6	-61.2	0.0
2026-01-14 08:45:22.917507	259.5	34.3	-59.9	0.0
2026-01-14 08:45:25.161031	258.8	34.0	-60.4	0.0
2026-01-14 08:45:27.404052	258.1	33.7	-58.9	0.0
2026-01-14 08:45:29.648559	257.5	33.4	-60.8	0.0
2026-01-14 08:45:31.893572	256.8	33.0	-60.3	0.0
2026-01-14 08:45:34.141584	256.2	32.7	-61.3	0.0
2026-01-14 08:45:36.385595	255.6	32.4	-59.8	0.0
2026-01-14 08:45:38.629111	255.0	32.1	-62.4	0.0
2026-01-14 08:45:40.872131	254.4	31.7	-61.3	0.0
2026-01-14 08:45:43.119647	253.8	31.4	-59.5	0.0
2026-01-14 08:45:45.362171	253.3	31.1	-59.6	0.0
2026-01-14 08:45:47.606182	252.7	30.8	-58.1	0.0
2026-01-14 08:45:49.855194	252.1	30.5	-58.7	0.0
2026-01-14 08:45:52.098710	251.6	30.1	-58.8	0.0
2026-01-14 08:45:54.343226	251.1	29.8	-60.5	0.0
2026-01-14 08:45:56.586247	250.6	29.5	-58.7	0.0
2026-01-14 08:45:58.829772	250.1	29.2	-56.9	0.0
2026-01-14 08:46:01.073288	249.6	28.9	-59.2	0.0
2026-01-14 08:46:03.317795	249.1	28.6	-58.0	0.0
2026-01-14 08:46:05.560816	248.6	28.2	-58.4	0.0
2026-01-14 08:46:07.803836	248.1	27.9	-59.9	0.0
2026-01-14 08:46:10.047847	247.7	27.6	-59.1	0.0
2026-01-14 08:46:12.290867	247.2	27.3	-59.8	0.0
2026-01-14 08:46:14.536392	246.8	27.0	-59.7	0.0
2026-01-14 08:46:16.781403	246.4	26.7	-61.9	0.0
2026-01-14 08:46:19.024424	245.9	26.4	-58.4	0.0
2026-01-14 08:46:21.267444	245.5	26.1	-59.0	0.0
2026-01-14 08:46:23.515456	245.1	25.8	-58.9	0.0
2026-01-14 08:46:25.758972	244.7	25.5	-61.2	0.0
2026-01-14 08:46:28.001505	244.3	25.2	-58.8	0.0
2026-01-14 08:46:30.245517	243.9	24.9	-59.3	0.0
2026-01-14 08:46:32.493035	243.6	24.6	-57.0	0.0
2026-01-14 08:46:34.737046	243.2	24.3	-58.7	0.0
2026-01-14 08:46:36.980067	242.8	24.0	-57.3	0.0
2026-01-14 08:46:39.225078	242.5	23.7	-57.8	0.0
2026-01-14 08:46:41.468603	242.1	23.5	-59.3	0.0
2026-01-14 08:46:43.713120	241.8	23.2	-58.9	0.0
2026-01-14 08:46:45.957132	241.4	22.9	-57.7	0.0
2026-01-14 08:46:48.203144	241.1	22.6	-58.9	0.0
2026-01-14 08:46:50.446660	240.8	22.3	-59.9	0.0
2026-01-14 08:46:52.690179	240.5	22.1	-58.1	0.0
2026-01-14 08:46:54.934189	240.1	21.8	-56.9	0.0
2026-01-14 08:46:57.176715	239.8	21.5	-58.7	0.0
2026-01-14 08:46:59.421222	239.5	21.3	-58.5	0.0
2026-01-14 08:47:01.665233	239.2	21.0	-59.1	0.0
2026-01-14 08:47:03.908748	238.9	20.7	-58.7	0.0
2026-01-14 08:47:06.151768	238.7	20.5	-59.6	0.0
2026-01-14 08:47:08.394299	238.4	20.2	-57.1	0.0
2026-01-14 08:47:10.637815	238.1	19.9	-57.2	0.0
2026-01-14 08:47:12.881340	237.8	19.7	-55.4	0.0
2026-01-14 08:47:15.127847	237.6	19.4	-57.9	0.0
2026-01-14 08:47:17.372364	237.3	19.2	-55.2	0.0
2026-01-14 08:47:19.615880	237.0	18.9	-58.3	0.0
2026-01-14 08:47:21.862396	236.8	18.7	-57.1	0.0
2026-01-14 08:47:24.107417	236.5	18.4	-57.2	0.0
2026-01-14 08:47:26.351924	236.3	18.2	-56.5	0.0
2026-01-14 08:47:28.595440	236.0	17.9	-57.8	0.0
2026-01-14 08:47:30.844451	235.8	17.7	-57.0	0.0
2026-01-14 08:47:33.086977	235.6	17.5	-58.8	0.0
2026-01-14 08:47:35.330491	235.3	17.2	-57.4	0.0
2026-01-14 08:47:37.577513	235.1	17.0	-59.6	0.0
2026-01-14 08:47:39.821525	234.9	16.7	-57.6	0.0
2026-01-14 08:47:42.065536	234.7	16.5	-60.8	0.0
2026-01-14 08:47:44.308061	234.4	16.3	-58.7	0.0
2026-01-14 08:47:46.553587	234.2	16.0	-58.0	0.0
2026-01-14 08:47:48.796607	234.0	15.8	-57.0	0.0
2026-01-14 08:47:51.040130	233.8	15.6	-56.9	0.0
2026-01-14 08:47:53.283645	233.6	15.4	-58.6	0.0
2026-01-14 08:47:55.530665	233.4	15.1	-59.1	0.0
2026-01-14 08:47:57.774181	233.2	14.9	-57.4	0.0
2026-01-14 08:48:00.017200	233.0	14.7	-60.1	0.0
2026-01-14 08:48:02.260229	232.8	14.5	-59.7	0.0
2026-01-14 08:48:04.504746	232.6	14.3	-60.4	0.0
2026-01-14 08:48:06.748757	232.4	14.1	-57.6	0.0
2026-01-14 08:48:08.992769	232.3	13.8	-60.4	0.0
2026-01-14 08:48:11.234303	232.1	13.6	-56.6	0.0
2026-01-14 08:48:13.478315	231.9	13.4	-57.1	0.0
2026-01-14 08:48:15.723326	231.7	13.2	-58.6	0.0
2026-01-14 08:48:17.967337	231.6	13.0	-57.1	0.0
2026-01-14 08:48:20.213367	231.4	12.8	-58.8	0.0
2026-01-14 08:48:22.457874	231.2	12.6	-57.9	0.0
2026-01-14 08:48:24.700400	231.0	12.4	-56.8	0.0
2026-01-14 08:48:26.943440	230.9	12.2	-59.5	0.0
2026-01-14 08:48:29.186461	230.7	12.0	-59.2	0.0
2026-01-14 08:48:31.431472	230.6	11.8	-57.3	0.0
2026-01-14 08:48:33.674492	230.4	11.6	-59.0	0.0
2026-01-14 08:48:35.918007	230.3	11.4	-56.7	0.0
2026-01-14 08:48:38.162524	230.1	11.2	-59.7	0.0
2026-01-14 08:48:40.406535	230.0	11.0	-58.2	0.0
2026-01-14 08:48:42.650051	229.8	10.8	-58.4	0.0
2026-01-14 08:48:44.896569	229.7	10.6	-59.3	0.0
2026-01-14 08:48:47.141581	229.5	10.5	-59.4	0.0
2026-01-14 08:48:49.386097	229.4	10.3	-59.8	0.0
2026-01-14 08:48:51.632108	229.2	10.1	-57.7	0.0
2026-01-14 08:48:53.878634	229.1	9.9	-60.3	0.0
2026-01-14 08:48:56.122645	229.0	9.7	-58.0	0.0
2026-01-14 08:48:58.366160	228.8	9.5	-61.1	0.0
2026-01-14 08:49:00.609179	228.7	9.4	-60.9	0.0
2026-01-14 08:49:02.854207	228.6	9.2	-61.0	0.0
2026-01-14 08:49:05.097236	228.4	9.0	-61.8	0.0
2026-01-14 08:49:07.341743	228.3	8.8	-61.1	0.0
2026-01-14 08:49:09.584276	228.2	8.6	-60.9	0.0
2026-01-14 08:49:11.827800	228.0	8.5	-61.0	0.0
2026-01-14 08:49:14.072812	227.9	8.3	-60.1	0.0
2026-01-14 08:49:16.316338	227.8	8.1	-60.5	0.0
2026-01-14 08:49:18.558863	227.7	7.9	-60.0	0.0
2026-01-14 08:49:20.802895	227.6	7.8	-61.3	0.0
2026-01-14 08:49:23.044925	227.4	7.6	-60.5	0.0
2026-01-14 08:49:25.287449	227.3	7.4	-61.8	0.0
2026-01-14 08:49:27.529480	227.2	7.3	-61.7	0.0
2026-01-14 08:49:29.772996	227.1	7.1	-61.3	0.0
2026-01-14 08:49:32.017008	227.0	6.9	-61.9	0.0
2026-01-14 08:49:34.261019	226.9	6.8	-62.1	0.0
2026-01-14 08:49:36.506040	226.8	6.6	-62.2	0.0
2026-01-14 08:49:38.749556	226.7	6.4	-61.8	0.0
2026-01-14 08:49:40.992088	226.5	6.3	-62.5	0.0
2026-01-14 08:49:43.234118	226.4	6.1	-62.6	0.0
2026-01-14 08:49:45.477146	226.3	6.0	-61.1	0.0
2026-01-14 08:49:47.721157	226.2	5.8	-58.3	0.0
2026-01-14 08:49:49.963682	226.1	5.6	-63.9	0.0
2026-01-14 08:49:52.207216	226.0	5.5	-63.1	0.0
2026-01-14 08:49:54.452228	225.9	5.3	-68.3	0.0
2026-01-14 08:49:56.694753	225.8	5.2	-71.0	0.0
2026-01-14 08:49:58.936782	225.7	5.0	-70.4	0.0
#Closed at: 2026-01-14 08:37:36.629588