passes_logs/2026/01/14/PlanumMoscow/PlanumMoscow__20260114_174926_METOP-B_rec.log

#Pass ID: 20260114_174926_METOP-B
#Satellite: METOP-B
#Configuration: METOP-B
#Start time: 2026-01-14 17:49:31.641471

#LorettStation: 1.0.0 05.05.2024
#Station: PlanumMoscow
#Location: 37.6253844 lon 55.6713361 lat
#TLE: 1 38771U 12049A   25293.92766658  .00000266  00000+0  14193-3 0  9996
#TLE: 2 38771  98.6882 344.7603 0001609 341.5209  18.5909 14.21379342679275

#Time	Az	El	Level	SNR
2026-01-14 17:53:10.058586	179.3	29.2	-62.8	7.0
2026-01-14 17:53:12.304133	179.5	29.6	-63.1	8.0
2026-01-14 17:53:14.553649	179.7	30.0	-63.9	8.6
2026-01-14 17:53:16.797685	179.9	30.5	-64.0	8.7
2026-01-14 17:53:19.041202	180.1	30.9	-63.2	7.2
2026-01-14 17:53:21.284725	180.3	31.3	-63.4	7.6
2026-01-14 17:53:23.528786	180.5	31.8	-64.2	8.4
2026-01-14 17:53:25.773293	180.7	32.2	-64.3	8.3
2026-01-14 17:53:28.018800	181.0	32.7	-63.8	6.2
2026-01-14 17:53:30.262861	181.2	33.1	-64.4	8.4
2026-01-14 17:53:32.511387	181.5	33.6	-64.5	8.8
2026-01-14 17:53:34.755420	181.7	34.1	-63.6	5.7
2026-01-14 17:53:36.999432	182.0	34.5	-63.5	7.7
2026-01-14 17:53:39.242954	182.2	35.0	-64.0	8.3
2026-01-14 17:53:41.488006	182.5	35.5	-64.4	8.8
2026-01-14 17:53:43.733057	182.8	36.0	-63.8	8.3
2026-01-14 17:53:45.976572	183.1	36.5	-64.1	7.3
2026-01-14 17:53:48.220096	183.4	37.0	-63.9	8.9
2026-01-14 17:53:50.468156	183.7	37.6	-63.8	6.6
2026-01-14 17:53:52.712177	184.0	38.1	-63.4	5.4
2026-01-14 17:53:54.954733	184.3	38.6	-64.0	5.1
2026-01-14 17:53:57.203755	184.7	39.2	-63.4	6.5
2026-01-14 17:53:59.447787	185.0	39.7	-63.9	9.3
2026-01-14 17:54:01.691851	185.4	40.3	-63.8	7.5
2026-01-14 17:54:03.935400	185.8	40.9	-64.8	9.0
2026-01-14 17:54:06.184453	186.2	41.4	-63.8	9.0
2026-01-14 17:54:08.428464	186.6	42.0	-64.2	7.9
2026-01-14 17:54:10.671989	187.0	42.6	-64.9	9.4
2026-01-14 17:54:12.925043	187.4	43.2	-64.7	8.8
2026-01-14 17:54:15.168139	187.9	43.8	-64.4	7.5
2026-01-14 17:54:17.411687	188.3	44.4	-64.3	9.0
2026-01-14 17:54:19.656744	188.8	45.0	-63.8	7.5
2026-01-14 17:54:21.901771	189.3	45.7	-64.3	9.3
2026-01-14 17:54:24.145815	189.9	46.3	-64.3	8.4
2026-01-14 17:54:26.388347	190.4	47.0	-63.8	7.7
2026-01-14 17:54:28.632921	191.0	47.6	-63.5	6.9
2026-01-14 17:54:30.879963	191.6	48.3	-62.9	6.0
2026-01-14 17:54:33.124023	192.2	48.9	-63.7	5.9
2026-01-14 17:54:35.368035	192.8	49.6	-65.4	8.4
2026-01-14 17:54:37.612055	193.5	50.3	-65.0	8.4
2026-01-14 17:54:39.857067	194.2	51.0	-65.1	7.3
2026-01-14 17:54:42.100086	195.0	51.7	-65.5	8.8
2026-01-14 17:54:44.342115	195.7	52.3	-65.6	8.6
2026-01-14 17:54:46.586126	196.5	53.0	-65.3	7.6
2026-01-14 17:54:48.828651	197.4	53.7	-64.5	7.2
2026-01-14 17:54:51.072167	198.3	54.4	-64.9	9.0
2026-01-14 17:54:53.317178	199.2	55.2	-65.2	8.9
2026-01-14 17:54:55.560694	200.2	55.9	-64.9	8.4
2026-01-14 17:54:57.804705	201.2	56.6	-65.0	7.9
2026-01-14 17:55:00.046735	202.3	57.3	-65.0	7.7
2026-01-14 17:55:02.294251	203.5	58.0	-66.0	8.0
2026-01-14 17:55:04.537766	204.7	58.7	-65.6	8.0
2026-01-14 17:55:06.781776	205.9	59.4	-66.0	5.7
2026-01-14 17:55:09.024796	207.3	60.1	-65.9	7.4
2026-01-14 17:55:11.270808	208.7	60.8	-66.3	6.8
2026-01-14 17:55:13.514819	210.2	61.5	-66.4	7.4
2026-01-14 17:55:15.759326	211.8	62.1	-66.5	8.2
2026-01-14 17:55:18.002345	213.4	62.8	-66.6	7.8
2026-01-14 17:55:20.244870	215.2	63.4	-66.2	6.6
2026-01-14 17:55:22.487393	217.0	64.1	-66.7	7.1
2026-01-14 17:55:24.731412	219.0	64.7	-67.0	7.3
2026-01-14 17:55:26.977433	221.0	65.2	-67.0	6.1
2026-01-14 17:55:29.221444	223.2	65.8	-66.6	5.5
2026-01-14 17:55:31.464959	225.5	66.3	-67.0	7.2
2026-01-14 17:55:33.710475	227.8	66.8	-67.1	6.1
2026-01-14 17:55:35.953991	230.3	67.3	-66.7	6.5
2026-01-14 17:55:38.198002	232.9	67.7	-67.3	7.0
2026-01-14 17:55:40.442509	235.6	68.1	-66.7	4.6
2026-01-14 17:55:42.686024	238.4	68.4	-66.5	6.4
2026-01-14 17:55:44.930044	241.3	68.7	-66.6	6.0
2026-01-14 17:55:47.174055	244.3	68.9	-66.9	5.1
2026-01-14 17:55:49.417570	247.3	69.1	-67.2	6.7
2026-01-14 17:55:51.661581	250.4	69.3	-67.4	5.9
2026-01-14 17:55:53.905096	253.5	69.3	-67.5	5.6
2026-01-14 17:55:56.149107	256.6	69.4	-67.8	4.6
2026-01-14 17:55:58.391632	259.7	69.3	-67.7	3.5
2026-01-14 17:56:00.635660	262.8	69.2	-67.6	2.6
2026-01-14 17:56:02.878184	265.9	69.1	-68.0	5.0
2026-01-14 17:56:05.121699	268.9	68.9	-67.8	3.9
2026-01-14 17:56:07.365214	271.8	68.6	-67.6	4.2
2026-01-14 17:56:09.609225	274.7	68.3	-67.4	2.7
2026-01-14 17:56:11.853237	277.4	67.9	-67.2	1.8
2026-01-14 17:56:14.096257	280.1	67.6	-67.6	3.8
2026-01-14 17:56:16.339773	282.7	67.1	-67.3	4.3
2026-01-14 17:56:18.583289	285.1	66.6	-67.7	4.5
2026-01-14 17:56:20.826818	287.4	66.1	-67.3	2.1
2026-01-14 17:56:23.068349	289.7	65.6	-67.2	1.8
2026-01-14 17:56:25.312360	291.8	65.0	-67.5	4.0
2026-01-14 17:56:27.555876	293.8	64.4	-67.4	3.3
2026-01-14 17:56:29.800414	295.7	63.8	-67.1	3.4
2026-01-14 17:56:32.044429	297.5	63.2	-67.2	3.3
2026-01-14 17:56:34.288936	299.2	62.6	-67.2	3.9
2026-01-14 17:56:36.533443	300.9	61.9	-66.6	0.0
2026-01-14 17:56:38.779463	302.4	61.2	-67.4	4.6
2026-01-14 17:56:41.023970	303.9	60.5	-67.0	5.4
2026-01-14 17:56:43.267981	305.3	59.9	-66.3	3.1
2026-01-14 17:56:45.510504	306.6	59.2	-66.1	5.2
2026-01-14 17:56:47.754515	307.8	58.5	-65.1	6.0
2026-01-14 17:56:49.996543	309.0	57.8	-66.0	5.1
2026-01-14 17:56:52.240058	310.1	57.0	-66.5	6.7
2026-01-14 17:56:54.486078	311.2	56.3	-66.2	6.4
2026-01-14 17:56:56.730089	312.2	55.6	-66.6	5.0
2026-01-14 17:56:58.973605	313.2	54.9	-63.6	2.2
2026-01-14 17:57:01.217617	314.1	54.2	-66.8	5.2
2026-01-14 17:57:03.459644	314.9	53.5	-66.1	4.3
2026-01-14 17:57:05.702169	315.8	52.8	-64.2	2.6
2026-01-14 17:57:07.947676	316.6	52.1	-66.6	5.2
2026-01-14 17:57:10.191191	317.3	51.4	-66.1	5.4
2026-01-14 17:57:12.435202	318.1	50.8	-66.2	5.4
2026-01-14 17:57:14.678718	318.8	50.1	-66.0	4.2
2026-01-14 17:57:16.922728	319.4	49.4	-65.9	7.2
2026-01-14 17:57:19.166748	320.0	48.7	-65.1	4.7
2026-01-14 17:57:21.410759	320.7	48.1	-65.4	5.2
2026-01-14 17:57:23.654275	321.2	47.4	-65.3	6.3
2026-01-14 17:57:25.897791	321.8	46.8	-65.9	7.6
2026-01-14 17:57:28.141306	322.3	46.1	-65.7	7.4
2026-01-14 17:57:30.385333	322.9	45.5	-65.6	7.8
2026-01-14 17:57:32.629849	323.4	44.9	-64.6	5.6
2026-01-14 17:57:34.878357	323.8	44.3	-64.6	6.7
2026-01-14 17:57:37.121881	324.3	43.7	-65.2	6.6
2026-01-14 17:57:39.365893	324.7	43.1	-65.0	5.2
2026-01-14 17:57:41.610399	325.2	42.5	-65.1	5.5
2026-01-14 17:57:43.854411	325.6	41.9	-64.1	3.1
2026-01-14 17:57:46.097925	326.0	41.3	-64.7	6.8
2026-01-14 17:57:48.342432	326.4	40.7	-65.1	5.8
2026-01-14 17:57:50.586453	326.7	40.2	-65.0	5.6
2026-01-14 17:57:52.830464	327.1	39.6	-63.8	5.2
2026-01-14 17:57:55.074475	327.4	39.1	-63.1	4.2
2026-01-14 17:57:57.317990	327.8	38.5	-64.1	6.1
2026-01-14 17:57:59.562001	328.1	38.0	-63.9	4.7
2026-01-14 17:58:01.805020	328.4	37.5	-64.0	6.7
2026-01-14 17:58:04.053536	328.7	37.0	-63.3	3.7
2026-01-14 17:58:06.297052	329.0	36.4	-63.8	4.0
2026-01-14 17:58:08.540577	329.3	35.9	-64.3	5.1
2026-01-14 17:58:10.783606	329.6	35.4	-64.7	5.1
2026-01-14 17:58:13.026130	329.9	35.0	-64.7	5.3
2026-01-14 17:58:15.268655	330.1	34.5	-64.2	5.6
2026-01-14 17:58:17.512187	330.4	34.0	-65.1	6.5
2026-01-14 17:58:19.755711	330.6	33.5	-64.9	6.4
2026-01-14 17:58:21.999226	330.9	33.1	-64.4	5.9
2026-01-14 17:58:24.242741	331.1	32.6	-65.1	3.9
2026-01-14 17:58:26.486752	331.3	32.2	-64.6	5.5
2026-01-14 17:58:28.730267	331.6	31.7	-64.9	7.0
2026-01-14 17:58:30.973286	331.8	31.3	-63.9	5.7
2026-01-14 17:58:33.216801	332.0	30.9	-64.0	4.8
2026-01-14 17:58:35.461308	332.2	30.4	-64.4	4.6
2026-01-14 17:58:37.703832	332.4	30.0	-65.1	5.4
2026-01-14 17:58:39.946356	332.6	29.6	-64.2	4.1
2026-01-14 17:58:42.190367	332.8	29.2	-64.6	5.7
2026-01-14 17:58:44.433386	333.0	28.8	-64.8	6.2
2026-01-14 17:58:46.677397	333.2	28.4	-65.1	4.6
2026-01-14 17:58:48.921904	333.4	28.0	-65.1	6.2
2026-01-14 17:58:51.165915	333.5	27.6	-65.8	5.2
2026-01-14 17:58:53.409927	333.7	27.2	-65.8	4.8
2026-01-14 17:58:55.652946	333.9	26.9	-65.5	5.8
2026-01-14 17:58:57.896469	334.0	26.5	-65.1	5.0
2026-01-14 17:59:00.140480	334.2	26.1	-65.5	6.5
2026-01-14 17:59:02.383996	334.4	25.8	-65.3	5.6
2026-01-14 17:59:04.628502	334.5	25.4	-64.8	4.1
2026-01-14 17:59:06.872514	334.7	25.1	-65.2	4.0
2026-01-14 17:59:09.116029	334.8	24.7	-65.9	5.1
2026-01-14 17:59:11.360040	334.9	24.4	-64.9	2.0
2026-01-14 17:59:13.604051	335.1	24.0	-65.9	5.6
2026-01-14 17:59:15.847566	335.2	23.7	-66.0	6.1
2026-01-14 17:59:18.090091	335.4	23.4	-65.7	5.2
2026-01-14 17:59:20.334607	335.5	23.0	-65.6	5.3
2026-01-14 17:59:22.578618	335.6	22.7	-64.8	6.0
2026-01-14 17:59:24.821638	335.8	22.4	-65.5	6.5
2026-01-14 17:59:27.065164	335.9	22.1	-65.9	6.0
2026-01-14 17:59:29.309176	336.0	21.8	-65.9	5.0
2026-01-14 17:59:31.553187	336.1	21.5	-66.0	5.3
2026-01-14 17:59:33.796720	336.2	21.2	-64.9	4.6
2026-01-14 17:59:36.040739	336.4	20.9	-65.5	5.7
2026-01-14 17:59:38.284255	336.5	20.6	-66.1	5.8
2026-01-14 17:59:40.527275	336.6	20.3	-65.4	4.5
2026-01-14 17:59:42.769798	336.7	20.0	-66.0	5.6
2026-01-14 17:59:45.012321	336.8	19.7	-65.4	6.3
2026-01-14 17:59:47.256829	336.9	19.4	-65.7	4.9
2026-01-14 17:59:49.501344	337.0	19.1	-66.1	6.3
2026-01-14 17:59:51.744858	337.1	18.9	-66.0	4.9
2026-01-14 17:59:53.988870	337.2	18.6	-65.8	5.7
2026-01-14 17:59:56.232881	337.3	18.3	-65.7	6.4
2026-01-14 17:59:58.476397	337.4	18.0	-65.5	4.6
2026-01-14 18:00:00.720407	337.5	17.8	-65.8	4.9
2026-01-14 18:00:02.963922	337.6	17.5	-65.7	5.2
2026-01-14 18:00:05.208439	337.7	17.3	-66.3	4.8
2026-01-14 18:00:07.451457	337.8	17.0	-66.3	4.9
2026-01-14 18:00:09.695485	337.9	16.7	-66.0	5.6
2026-01-14 18:00:11.939034	338.0	16.5	-65.4	3.9
2026-01-14 18:00:14.182557	338.1	16.2	-66.2	6.1
2026-01-14 18:00:16.431128	338.2	16.0	-66.5	5.2
2026-01-14 18:00:18.674148	338.2	15.8	-66.3	5.1
2026-01-14 18:00:20.917697	338.3	15.5	-66.2	4.8
2026-01-14 18:00:23.165718	338.4	15.3	-66.2	4.1
2026-01-14 18:00:25.410243	338.5	15.0	-66.2	4.9
2026-01-14 18:00:27.653791	338.6	14.8	-66.0	5.4
2026-01-14 18:00:29.897316	338.7	14.6	-65.8	4.1
2026-01-14 18:00:32.142380	338.7	14.3	-65.5	4.2
2026-01-14 18:00:34.386400	338.8	14.1	-65.4	3.9
2026-01-14 18:00:36.629925	338.9	13.9	-66.3	5.0
2026-01-14 18:00:38.878433	339.0	13.7	-65.6	2.8
2026-01-14 18:00:41.119470	339.0	13.4	-65.4	2.3
2026-01-14 18:00:43.362036	339.1	13.2	-65.5	3.7
2026-01-14 18:00:45.606056	339.2	13.0	-65.4	2.8
2026-01-14 18:00:47.848626	339.3	12.8	-66.1	2.9
2026-01-14 18:00:50.091679	339.3	12.6	-66.0	2.9
2026-01-14 18:00:52.334732	339.4	12.3	-66.0	1.9
2026-01-14 18:00:54.578247	339.5	12.1	-65.2	2.3
2026-01-14 18:00:56.822331	339.5	11.9	-65.7	2.0
2026-01-14 18:00:59.068352	339.6	11.7	-66.1	2.9
2026-01-14 18:01:01.312363	339.7	11.5	-66.2	2.7
2026-01-14 18:01:03.555422	339.7	11.3	-65.6	1.1
2026-01-14 18:01:05.798947	339.8	11.1	-65.4	1.9
2026-01-14 18:01:08.041997	339.9	10.9	-65.9	3.0
2026-01-14 18:01:10.285027	339.9	10.7	-65.5	2.4
2026-01-14 18:01:12.530071	340.0	10.5	-65.4	3.2
2026-01-14 18:01:14.772596	340.1	10.3	-64.7	0.0
2026-01-14 18:01:17.015625	340.1	10.1	-64.5	0.0
2026-01-14 18:01:19.259172	340.2	9.9	-63.6	0.0
2026-01-14 18:01:21.502200	340.2	9.7	-63.1	0.0
2026-01-14 18:01:23.745263	340.3	9.6	-63.0	0.0
2026-01-14 18:01:25.988786	340.4	9.4	-62.5	0.0
2026-01-14 18:01:28.231344	340.4	9.2	-63.5	0.0
2026-01-14 18:01:30.474372	340.5	9.0	-64.3	0.0
2026-01-14 18:01:32.718400	340.5	8.8	-64.3	0.0
2026-01-14 18:01:34.961947	340.6	8.6	-64.8	0.0
2026-01-14 18:01:37.204008	340.7	8.4	-63.9	0.0
2026-01-14 18:01:39.447565	340.7	8.3	-65.1	0.0
2026-01-14 18:01:41.692079	340.8	8.1	-65.0	0.1
2026-01-14 18:01:43.935625	340.8	7.9	-64.1	0.0
2026-01-14 18:01:46.179656	340.9	7.7	-65.4	0.0
2026-01-14 18:01:48.423203	340.9	7.6	-60.4	0.0
2026-01-14 18:01:50.666223	341.0	7.4	-64.4	0.0
2026-01-14 18:01:52.908261	341.0	7.2	-64.8	0.0
2026-01-14 18:01:55.152321	341.1	7.0	-64.9	0.0
2026-01-14 18:01:57.395390	341.1	6.9	-64.5	0.0
2026-01-14 18:01:59.637915	341.2	6.7	-64.5	0.0
2026-01-14 18:02:01.879456	341.2	6.5	-65.2	0.0
2026-01-14 18:02:04.122526	341.3	6.4	-64.2	0.0
2026-01-14 18:02:06.366544	341.3	6.2	-63.8	0.0
2026-01-14 18:02:08.609620	341.4	6.0	-64.8	0.0
2026-01-14 18:02:10.853134	341.4	5.9	-67.1	0.0
2026-01-14 18:02:13.096199	341.5	5.7	-68.3	0.0
2026-01-14 18:02:15.340724	341.5	5.5	-68.6	0.0
2026-01-14 18:02:17.583298	341.6	5.4	-68.4	0.0
2026-01-14 18:02:19.835825	341.6	5.2	-67.8	0.0
2026-01-14 18:02:22.080846	341.7	5.1	-66.7	0.0
#Closed at: 2026-01-14 17:49:26.643348