passes_logs/2026/01/14/PlanumMoscow/PlanumMoscow__20260114_065723_METOP-C_rec.log

#Pass ID: 20260114_065723_METOP-C
#Satellite: METOP-C
#Configuration: METOP-C
#Start time: 2026-01-14 06:57:28.325687

#LorettStation: 1.0.0 05.05.2024
#Station: PlanumMoscow
#Location: 37.6253844 lon 55.6713361 lat
#TLE: 1 43689U 18087A   25293.88981035  .00000265  00000+0  14109-3 0  9997
#TLE: 2 43689  98.7006 352.4487 0002041 122.1097 238.0279 14.21482740360838

#Time	Az	El	Level	SNR
2026-01-14 07:01:06.742731	42.8	25.5	-63.4	0.0
2026-01-14 07:01:08.987750	43.2	25.8	-62.9	0.0
2026-01-14 07:01:11.232257	43.6	26.1	-63.1	0.0
2026-01-14 07:01:13.475773	44.1	26.4	-63.4	0.0
2026-01-14 07:01:15.719784	44.5	26.7	-62.7	0.0
2026-01-14 07:01:17.962309	44.9	27.0	-62.9	0.0
2026-01-14 07:01:20.205329	45.4	27.3	-64.0	0.0
2026-01-14 07:01:22.448347	45.8	27.6	-63.7	0.0
2026-01-14 07:01:24.690872	46.3	27.9	-63.7	0.0
2026-01-14 07:01:26.937387	46.8	28.2	-63.6	0.0
2026-01-14 07:01:29.180903	47.2	28.5	-63.3	0.0
2026-01-14 07:01:31.424914	47.7	28.8	-63.2	0.0
2026-01-14 07:01:33.670926	48.2	29.1	-63.9	0.0
2026-01-14 07:01:35.914937	48.7	29.5	-64.7	0.0
2026-01-14 07:01:38.157956	49.2	29.8	-63.2	0.0
2026-01-14 07:01:40.401968	49.8	30.1	-63.0	0.0
2026-01-14 07:01:42.646997	50.3	30.4	-63.1	0.0
2026-01-14 07:01:44.890513	50.9	30.7	-62.5	0.0
2026-01-14 07:01:47.133541	51.4	31.0	-62.9	0.0
2026-01-14 07:01:49.376580	52.0	31.3	-63.5	0.0
2026-01-14 07:01:51.620601	52.6	31.7	-63.3	0.0
2026-01-14 07:01:53.865611	53.2	32.0	-63.9	0.0
2026-01-14 07:01:56.109128	53.8	32.3	-64.1	0.0
2026-01-14 07:01:58.351653	54.4	32.6	-63.3	0.0
2026-01-14 07:02:00.594178	55.0	32.9	-63.4	0.0
2026-01-14 07:02:02.837693	55.6	33.2	-62.7	0.0
2026-01-14 07:02:05.078731	56.3	33.5	-62.9	0.0
2026-01-14 07:02:07.322750	57.0	33.9	-63.5	0.0
2026-01-14 07:02:09.566760	57.6	34.2	-63.1	0.0
2026-01-14 07:02:11.810772	58.3	34.5	-61.9	0.0
2026-01-14 07:02:14.053800	59.0	34.8	-62.0	0.0
2026-01-14 07:02:16.296820	59.7	35.1	-61.3	0.0
2026-01-14 07:02:18.539840	60.5	35.4	-61.5	0.0
2026-01-14 07:02:20.782870	61.2	35.7	-60.9	0.0
2026-01-14 07:02:23.029404	62.0	36.0	-60.6	0.0
2026-01-14 07:02:25.271929	62.7	36.3	-61.5	0.0
2026-01-14 07:02:27.515941	63.5	36.6	-59.9	0.0
2026-01-14 07:02:29.759456	64.3	36.9	-59.9	0.0
2026-01-14 07:02:32.002981	65.1	37.2	-60.5	0.0
2026-01-14 07:02:34.245999	65.9	37.5	-60.5	0.0
2026-01-14 07:02:36.489018	66.8	37.8	-58.9	0.0
2026-01-14 07:02:38.733534	67.6	38.0	-58.0	0.0
2026-01-14 07:02:40.978041	68.5	38.3	-61.4	0.0
2026-01-14 07:02:43.222062	69.4	38.6	-61.7	0.0
2026-01-14 07:02:45.466569	70.3	38.8	-59.2	0.0
2026-01-14 07:02:47.713590	71.2	39.1	-61.3	0.0
2026-01-14 07:02:49.957601	72.1	39.3	-61.0	0.0
2026-01-14 07:02:52.200124	73.1	39.6	-61.2	0.0
2026-01-14 07:02:54.441658	74.0	39.8	-62.3	0.0
2026-01-14 07:02:56.688696	75.0	40.1	-61.6	0.0
2026-01-14 07:02:58.930725	76.0	40.3	-60.1	0.0
2026-01-14 07:03:01.174240	77.0	40.5	-62.5	0.0
2026-01-14 07:03:03.421262	78.0	40.7	-64.0	0.0
2026-01-14 07:03:05.665274	79.0	40.9	-64.3	0.0
2026-01-14 07:03:07.908787	80.0	41.1	-63.3	0.0
2026-01-14 07:03:10.152303	81.1	41.2	-61.0	0.0
2026-01-14 07:03:12.396819	82.1	41.4	-62.7	0.0
2026-01-14 07:03:14.640334	83.2	41.6	-63.2	0.0
2026-01-14 07:03:16.884345	84.3	41.7	-63.4	0.0
2026-01-14 07:03:19.133367	85.4	41.9	-63.6	0.0
2026-01-14 07:03:21.375397	86.5	42.0	-64.0	0.0
2026-01-14 07:03:23.617922	87.6	42.1	-64.5	0.0
2026-01-14 07:03:25.860456	88.7	42.2	-63.5	0.0
2026-01-14 07:03:28.105972	89.8	42.3	-64.9	0.0
2026-01-14 07:03:30.349486	90.9	42.4	-64.9	0.0
2026-01-14 07:03:32.593498	92.1	42.4	-64.3	0.0
2026-01-14 07:03:34.838519	93.2	42.5	-64.4	0.0
2026-01-14 07:03:37.082529	94.3	42.5	-64.7	0.0
2026-01-14 07:03:39.326541	95.5	42.6	-63.9	0.0
2026-01-14 07:03:41.570552	96.6	42.6	-65.8	0.0
2026-01-14 07:03:43.814068	97.7	42.6	-64.2	0.0
2026-01-14 07:03:46.057584	98.9	42.6	-65.2	0.0
2026-01-14 07:03:48.301594	100.0	42.6	-64.7	0.0
2026-01-14 07:03:50.548102	101.2	42.5	-64.2	0.0
2026-01-14 07:03:52.792121	102.3	42.5	-65.5	0.0
2026-01-14 07:03:55.036132	103.4	42.4	-66.9	0.0
2026-01-14 07:03:57.280143	104.6	42.4	-64.0	0.0
2026-01-14 07:03:59.524154	105.7	42.3	-64.1	0.0
2026-01-14 07:04:01.770680	106.8	42.2	-65.0	0.0
2026-01-14 07:04:04.014196	107.9	42.1	-65.1	0.0
2026-01-14 07:04:06.256223	109.0	42.0	-65.9	0.0
2026-01-14 07:04:08.501244	110.1	41.8	-64.4	0.0
2026-01-14 07:04:10.745255	111.2	41.7	-65.9	0.0
2026-01-14 07:04:12.989267	112.3	41.6	-65.2	0.0
2026-01-14 07:04:15.232782	113.3	41.4	-65.7	0.0
2026-01-14 07:04:17.476297	114.4	41.2	-64.5	0.0
2026-01-14 07:04:19.716839	115.4	41.1	-64.5	0.0
2026-01-14 07:04:21.959867	116.5	40.9	-64.3	0.0
2026-01-14 07:04:24.205897	117.5	40.7	-66.5	0.0
2026-01-14 07:04:26.449422	118.5	40.5	-66.3	0.0
2026-01-14 07:04:28.694442	119.5	40.2	-64.9	0.0
2026-01-14 07:04:30.937958	120.5	40.0	-62.8	0.0
2026-01-14 07:04:33.183989	121.5	39.8	-63.6	0.0
2026-01-14 07:04:35.428496	122.4	39.6	-63.1	0.0
2026-01-14 07:04:37.673012	123.4	39.3	-64.3	0.0
2026-01-14 07:04:39.915534	124.3	39.1	-65.0	0.0
2026-01-14 07:04:42.159050	125.2	38.8	-64.5	0.0
2026-01-14 07:04:44.403062	126.1	38.5	-64.3	0.0
2026-01-14 07:04:46.647569	127.0	38.3	-64.9	0.0
2026-01-14 07:04:48.893093	127.9	38.0	-65.5	0.0
2026-01-14 07:04:51.136122	128.7	37.7	-65.0	0.0
2026-01-14 07:04:53.380132	129.6	37.4	-64.7	0.0
2026-01-14 07:04:55.624639	130.4	37.2	-64.9	0.0
2026-01-14 07:04:57.868156	131.2	36.9	-66.3	0.0
2026-01-14 07:05:00.111184	132.0	36.6	-65.7	0.0
2026-01-14 07:05:02.355195	132.8	36.3	-65.5	0.0
2026-01-14 07:05:04.599219	133.6	36.0	-66.3	0.0
2026-01-14 07:05:06.846744	134.3	35.7	-66.6	0.0
2026-01-14 07:05:09.090258	135.1	35.4	-67.2	0.0
2026-01-14 07:05:11.335775	135.8	35.0	-66.4	0.0
2026-01-14 07:05:13.582797	136.5	34.7	-66.2	0.0
2026-01-14 07:05:15.826312	137.2	34.4	-66.3	0.0
2026-01-14 07:05:18.070323	137.9	34.1	-67.1	0.0
2026-01-14 07:05:20.313341	138.6	33.8	-66.6	0.0
2026-01-14 07:05:22.555370	139.2	33.5	-67.8	0.0
2026-01-14 07:05:24.798390	139.9	33.2	-68.5	0.0
2026-01-14 07:05:27.042402	140.5	32.8	-67.3	0.0
2026-01-14 07:05:29.285917	141.2	32.5	-67.6	0.0
2026-01-14 07:05:31.533433	141.8	32.2	-67.7	0.0
2026-01-14 07:05:33.777445	142.4	31.9	-68.3	0.0
2026-01-14 07:05:36.021960	143.0	31.6	-68.1	0.0
2026-01-14 07:05:38.267487	143.6	31.2	-68.3	0.0
2026-01-14 07:05:40.510515	144.1	30.9	-68.0	0.0
2026-01-14 07:05:42.755032	144.7	30.6	-68.1	0.0
2026-01-14 07:05:44.999042	145.2	30.3	-67.8	0.0
2026-01-14 07:05:47.243053	145.8	30.0	-68.0	0.0
2026-01-14 07:05:49.484588	146.3	29.7	-68.5	0.0
2026-01-14 07:05:51.728600	146.8	29.4	-68.3	0.0
2026-01-14 07:05:53.972629	147.3	29.0	-68.4	0.0
2026-01-14 07:05:56.217641	147.8	28.7	-68.4	0.0
2026-01-14 07:05:58.461652	148.3	28.4	-68.7	0.0
2026-01-14 07:06:00.705664	148.8	28.1	-69.0	0.0
2026-01-14 07:06:02.948684	149.3	27.8	-69.7	0.0
2026-01-14 07:06:05.192201	149.7	27.5	-68.5	0.0
2026-01-14 07:06:07.436212	150.2	27.2	-69.1	0.0
2026-01-14 07:06:09.679727	150.6	26.9	-68.6	0.0
2026-01-14 07:06:11.922251	151.1	26.6	-68.9	0.0
2026-01-14 07:06:14.165767	151.5	26.3	-68.9	0.0
2026-01-14 07:06:16.409283	151.9	26.0	-68.7	0.0
2026-01-14 07:06:18.653303	152.3	25.7	-68.4	0.0
2026-01-14 07:06:20.895828	152.7	25.4	-69.2	0.0
2026-01-14 07:06:23.138847	153.1	25.1	-69.7	0.0
2026-01-14 07:06:25.382361	153.5	24.8	-69.4	0.0
2026-01-14 07:06:27.624886	153.9	24.5	-69.5	0.0
2026-01-14 07:06:29.869403	154.3	24.2	-68.9	0.0
2026-01-14 07:06:32.113415	154.6	23.9	-69.6	0.0
2026-01-14 07:06:34.357427	155.0	23.7	-69.0	0.0
2026-01-14 07:06:36.602448	155.4	23.4	-69.1	0.0
2026-01-14 07:06:38.846459	155.7	23.1	-69.6	0.0
2026-01-14 07:06:41.091471	156.1	22.8	-69.2	0.0
2026-01-14 07:06:43.335977	156.4	22.5	-69.2	0.0
2026-01-14 07:06:45.583991	156.7	22.3	-69.6	0.0
2026-01-14 07:06:47.827505	157.1	22.0	-69.4	0.0
2026-01-14 07:06:50.071020	157.4	21.7	-69.5	0.0
2026-01-14 07:06:52.315535	157.7	21.5	-69.4	0.0
2026-01-14 07:06:54.560547	158.0	21.2	-69.7	0.0
2026-01-14 07:06:56.804558	158.3	20.9	-68.8	0.0
2026-01-14 07:06:59.048074	158.6	20.7	-69.1	0.0
2026-01-14 07:07:01.292095	158.9	20.4	-68.2	0.0
2026-01-14 07:07:03.534618	159.2	20.1	-68.5	0.0
2026-01-14 07:07:05.778630	159.5	19.9	-68.4	0.0
2026-01-14 07:07:08.021651	159.8	19.6	-68.3	0.0
2026-01-14 07:07:10.267683	160.1	19.4	-68.0	0.0
2026-01-14 07:07:12.511695	160.3	19.1	-68.8	0.0
2026-01-14 07:07:14.754712	160.6	18.9	-69.0	0.0
2026-01-14 07:07:17.001734	160.9	18.6	-68.4	0.0
2026-01-14 07:07:19.245745	161.1	18.4	-68.5	0.0
2026-01-14 07:07:21.489756	161.4	18.1	-68.0	0.0
2026-01-14 07:07:23.733272	161.6	17.9	-67.7	0.0
2026-01-14 07:07:25.977283	161.9	17.7	-67.9	0.0
2026-01-14 07:07:28.221295	162.1	17.4	-67.9	0.3
2026-01-14 07:07:30.465305	162.4	17.2	-67.2	0.0
2026-01-14 07:07:32.709317	162.6	17.0	-67.5	1.0
2026-01-14 07:07:34.952346	162.8	16.7	-67.3	0.0
2026-01-14 07:07:37.194376	163.1	16.5	-67.4	0.0
2026-01-14 07:07:39.437404	163.3	16.3	-67.6	0.0
2026-01-14 07:07:41.681415	163.5	16.0	-68.0	0.2
2026-01-14 07:07:43.925426	163.8	15.8	-67.7	0.0
2026-01-14 07:07:46.169437	164.0	15.6	-67.3	0.5
2026-01-14 07:07:48.414944	164.2	15.4	-67.6	2.1
2026-01-14 07:07:50.661956	164.4	15.2	-67.3	0.5
2026-01-14 07:07:52.903986	164.6	14.9	-67.6	2.8
2026-01-14 07:07:55.146015	164.8	14.7	-67.7	0.0
2026-01-14 07:07:57.388046	165.0	14.5	-67.0	0.0
2026-01-14 07:07:59.631066	165.2	14.3	-67.2	1.9
2026-01-14 07:08:01.874103	165.4	14.1	-66.7	0.0
2026-01-14 07:08:04.116627	165.6	13.9	-66.1	1.3
2026-01-14 07:08:06.361144	165.8	13.7	-65.8	0.0
2026-01-14 07:08:08.605156	166.0	13.5	-66.1	0.0
2026-01-14 07:08:10.849166	166.2	13.2	-65.9	0.0
2026-01-14 07:08:13.094682	166.4	13.0	-66.0	0.0
2026-01-14 07:08:15.338701	166.5	12.8	-65.7	0.0
2026-01-14 07:08:17.582713	166.7	12.6	-65.7	0.9
2026-01-14 07:08:19.826724	166.9	12.4	-66.0	0.0
2026-01-14 07:08:22.071745	167.1	12.2	-65.4	0.0
2026-01-14 07:08:24.315261	167.3	12.0	-65.3	0.0
2026-01-14 07:08:26.559272	167.4	11.8	-66.0	1.1
2026-01-14 07:08:28.803779	167.6	11.6	-65.2	0.0
2026-01-14 07:08:31.047791	167.8	11.5	-65.3	0.0
2026-01-14 07:08:33.291801	167.9	11.3	-65.5	0.0
2026-01-14 07:08:35.534326	168.1	11.1	-65.9	0.2
2026-01-14 07:08:37.778337	168.2	10.9	-66.0	0.0
2026-01-14 07:08:40.026359	168.4	10.7	-65.6	0.0
2026-01-14 07:08:42.268884	168.6	10.5	-65.7	0.0
2026-01-14 07:08:44.511409	168.7	10.3	-65.9	0.9
2026-01-14 07:08:46.758429	168.9	10.1	-65.9	2.6
2026-01-14 07:08:49.001457	169.0	10.0	-65.6	1.5
2026-01-14 07:08:51.243980	169.2	9.8	-66.1	2.1
2026-01-14 07:08:53.487495	169.3	9.6	-66.1	0.8
2026-01-14 07:08:55.731010	169.5	9.4	-65.3	1.9
2026-01-14 07:08:57.975022	169.6	9.2	-65.3	1.7
2026-01-14 07:09:00.218537	169.7	9.1	-65.5	1.4
2026-01-14 07:09:02.462052	169.9	8.9	-64.9	0.1
2026-01-14 07:09:04.705072	170.0	8.7	-65.2	1.1
2026-01-14 07:09:06.947606	170.2	8.5	-64.3	0.0
2026-01-14 07:09:09.191624	170.3	8.4	-65.2	0.0
2026-01-14 07:09:11.434148	170.4	8.2	-64.6	0.0
2026-01-14 07:09:13.677664	170.6	8.0	-65.1	0.0
2026-01-14 07:09:15.921675	170.7	7.8	-64.9	0.0
2026-01-14 07:09:18.165687	170.8	7.7	-65.2	0.0
2026-01-14 07:09:20.412203	171.0	7.5	-64.8	0.0
2026-01-14 07:09:22.656214	171.1	7.3	-65.2	0.0
2026-01-14 07:09:24.900225	171.2	7.2	-65.1	0.0
2026-01-14 07:09:27.144237	171.3	7.0	-65.2	0.0
2026-01-14 07:09:29.388248	171.5	6.8	-64.9	0.0
2026-01-14 07:09:31.632259	171.6	6.7	-64.6	0.0
2026-01-14 07:09:33.875288	171.7	6.5	-64.6	0.0
2026-01-14 07:09:36.103195	171.8	6.4	-64.1	0.0
2026-01-14 07:09:38.345729	171.9	6.2	-64.6	0.0
2026-01-14 07:09:40.590237	172.1	6.0	-64.3	0.0
2026-01-14 07:09:42.832762	172.2	5.9	-67.7	2.3
2026-01-14 07:09:45.074792	172.3	5.7	-69.1	0.0
2026-01-14 07:09:47.318812	172.4	5.6	-69.1	0.0
2026-01-14 07:09:49.562841	172.5	5.4	-70.0	0.0
2026-01-14 07:09:51.807357	172.6	5.3	-70.7	0.0
2026-01-14 07:09:54.049384	172.7	5.1	-71.3	0.0
2026-01-14 07:09:56.292404	172.8	4.9	-71.6	0.0
#Closed at: 2026-01-14 06:57:23.326603