passes_logs/2025/01/16/X_MFTI_02/X_MFTI_02__20250116_235852_NOAA_20_rec.log

#Pass ID: 20250116_235852_NOAA 20
#Satellite: NOAA 20
#Configuration: NOAA 20
#Start time: 2025-01-16 23:58:48

#Version: 1.5.20200625
#Station: X_MFTI_02
#Location: 37.5186 lon 55.9291 lat
#TLE: 1 43013U 17073A   23362.44808611  .00000160  00000+0  96626-4 0  9996
#TLE: 2 43013  98.7331 297.9536 0000783  57.5916 302.5335 14.19555620316533

#Time	Az	El	Level	Level2	SNR	BER	Gain	Gain2
2025-01-16 23:58:50.38	342.02	69.37	
2025-01-16 23:58:50.60	341.84	69.45	
2025-01-16 23:58:50.81	341.66	69.52	
2025-01-16 23:58:51.02	341.47	69.60	
2025-01-16 23:58:51.22	341.30	69.67	
2025-01-16 23:58:51.42	341.12	69.74	
2025-01-16 23:58:51.63	340.94	69.82	
2025-01-16 23:58:51.84	340.75	69.89	
2025-01-16 23:58:52.05	340.56	69.97	
2025-01-16 23:58:52.25	340.38	70.04	
2025-01-16 23:58:52.46	340.19	70.12	
2025-01-16 23:58:52.66	340.00	70.19	
2025-01-16 23:58:52.86	339.82	70.26	
2025-01-16 23:58:53.06	339.63	70.33	
2025-01-16 23:58:53.26	339.44	70.40	
2025-01-16 23:58:53.47	339.24	70.48	
2025-01-16 23:58:53.67	339.05	70.55	
2025-01-16 23:58:53.88	338.84	70.62	
2025-01-16 23:58:54.08	338.65	70.69	
2025-01-16 23:58:54.29	338.44	70.77	
2025-01-16 23:58:54.50	338.24	70.84	
2025-01-16 23:58:54.71	338.03	70.91	
2025-01-16 23:58:54.91	337.82	70.98	
2025-01-16 23:58:55.12	337.61	71.06	
2025-01-16 23:58:55.33	337.40	71.13	
2025-01-16 23:58:55.53	337.19	71.20	
2025-01-16 23:58:55.74	336.97	71.27	
2025-01-16 23:58:55.94	336.76	71.34	
2025-01-16 23:58:56.14	336.55	71.41	
2025-01-16 23:58:56.34	336.34	71.48	
2025-01-16 23:58:56.55	336.11	71.55	
2025-01-16 23:58:56.75	335.90	71.61	
2025-01-16 23:58:56.95	335.68	71.68	
2025-01-16 23:58:57.16	335.45	71.75	
2025-01-16 23:58:57.37	335.21	71.82	
2025-01-16 23:58:57.57	334.99	71.89	
2025-01-16 23:58:57.78	334.75	71.96	
2025-01-16 23:58:57.99	334.51	72.03	
2025-01-16 23:58:58.20	334.27	72.10	
2025-01-16 23:58:58.41	334.03	72.17	
2025-01-16 23:58:58.61	333.80	72.24	
2025-01-16 23:58:58.82	333.55	72.31	
2025-01-16 23:58:59.04	333.29	72.38	
2025-01-16 23:58:59.25	333.04	72.45	
2025-01-16 23:58:59.46	332.79	72.51	
2025-01-16 23:58:59.66	332.55	72.58	
2025-01-16 23:58:59.87	332.29	72.65	
2025-01-16 23:59:00.08	332.03	72.71	
2025-01-16 23:59:00.29	331.77	72.78	
2025-01-16 23:59:00.49	331.52	72.84	
2025-01-16 23:59:00.69	331.27	72.91	
2025-01-16 23:59:00.90	331.00	72.97	
2025-01-16 23:59:01.11	330.73	73.04	
2025-01-16 23:59:01.31	330.47	73.10	
2025-01-16 23:59:01.52	330.20	73.17	
2025-01-16 23:59:01.72	329.93	73.23	
2025-01-16 23:59:01.92	329.67	73.29	
2025-01-16 23:59:02.13	329.39	73.35	
2025-01-16 23:59:02.33	329.12	73.41	
2025-01-16 23:59:02.54	328.83	73.48	
2025-01-16 23:59:02.75	328.55	73.54	
2025-01-16 23:59:02.96	328.26	73.60	
2025-01-16 23:59:03.16	327.98	73.66	
2025-01-16 23:59:03.37	327.69	73.72	
2025-01-16 23:59:03.57	327.40	73.78	
2025-01-16 23:59:03.78	327.10	73.84	
2025-01-16 23:59:03.99	326.80	73.91	
2025-01-16 23:59:04.19	326.51	73.96	
2025-01-16 23:59:04.40	326.21	74.02	
2025-01-16 23:59:04.60	325.92	74.08	
2025-01-16 23:59:04.81	325.61	74.14	
2025-01-16 23:59:05.01	325.31	74.20	
2025-01-16 23:59:05.21	325.01	74.25	
2025-01-16 23:59:05.42	324.69	74.31	
2025-01-16 23:59:05.62	324.39	74.36	
2025-01-16 23:59:05.82	324.08	74.42	
2025-01-16 23:59:06.03	323.75	74.47	
2025-01-16 23:59:06.25	323.41	74.53	
2025-01-16 23:59:06.45	323.10	74.59	
2025-01-16 23:59:06.66	322.77	74.64	
2025-01-16 23:59:06.86	322.45	74.69	
2025-01-16 23:59:07.07	322.11	74.75	
2025-01-16 23:59:07.27	321.79	74.80	
2025-01-16 23:59:07.48	321.44	74.85	
2025-01-16 23:59:07.68	321.12	74.90	
2025-01-16 23:59:07.88	320.79	74.95	
2025-01-16 23:59:08.09	320.44	75.01	
2025-01-16 23:59:08.29	320.10	75.05	
2025-01-16 23:59:08.50	319.75	75.11	
2025-01-16 23:59:08.71	319.39	75.16	
2025-01-16 23:59:08.92	319.03	75.21	
2025-01-16 23:59:09.12	318.69	75.25	
2025-01-16 23:59:09.32	318.34	75.30	
2025-01-16 23:59:09.52	317.99	75.34	
2025-01-16 23:59:09.73	317.63	75.39	
2025-01-16 23:59:09.93	317.27	75.44	
2025-01-16 23:59:10.14	316.90	75.48	
2025-01-16 23:59:10.34	316.54	75.53	
2025-01-16 23:59:10.54	316.18	75.57	
2025-01-16 23:59:10.74	315.82	75.61	
2025-01-16 23:59:10.95	315.43	75.66	
2025-01-16 23:59:11.15	315.07	75.70	
2025-01-16 23:59:11.35	314.70	75.74	
2025-01-16 23:59:11.57	314.29	75.79	
2025-01-16 23:59:11.77	313.91	75.83	
2025-01-16 23:59:11.97	313.54	75.86	
2025-01-16 23:59:12.18	313.14	75.90	
2025-01-16 23:59:12.39	312.74	75.94	
2025-01-16 23:59:12.60	312.34	75.98	
2025-01-16 23:59:12.81	311.94	76.02	
2025-01-16 23:59:13.02	311.53	76.06	
2025-01-16 23:59:13.22	311.14	76.10	
2025-01-16 23:59:13.44	310.71	76.13	
2025-01-16 23:59:13.64	310.32	76.17	
2025-01-16 23:59:13.84	309.92	76.20	
2025-01-16 23:59:14.05	309.50	76.24	
2025-01-16 23:59:14.25	309.10	76.27	
2025-01-16 23:59:14.46	308.68	76.30	
2025-01-16 23:59:14.66	308.28	76.33	
2025-01-16 23:59:14.87	307.85	76.37	
2025-01-16 23:59:15.07	307.44	76.39	
2025-01-16 23:59:15.28	307.01	76.43	
2025-01-16 23:59:15.49	306.58	76.46	
2025-01-16 23:59:15.70	306.15	76.48	
2025-01-16 23:59:15.91	305.71	76.51	
2025-01-16 23:59:16.11	305.30	76.54	
2025-01-16 23:59:16.32	304.86	76.56	
2025-01-16 23:59:16.53	304.42	76.59	
2025-01-16 23:59:16.73	304.00	76.61	
2025-01-16 23:59:16.94	303.55	76.64	
2025-01-16 23:59:17.15	303.11	76.66	
2025-01-16 23:59:17.36	302.66	76.69	
2025-01-16 23:59:17.56	302.23	76.71	
2025-01-16 23:59:17.76	301.80	76.73	
2025-01-16 23:59:17.96	301.37	76.75	
2025-01-16 23:59:18.17	300.92	76.77	
2025-01-16 23:59:18.37	300.49	76.78	
2025-01-16 23:59:18.57	300.05	76.80	
2025-01-16 23:59:18.78	299.59	76.82	
2025-01-16 23:59:18.98	299.16	76.83	
2025-01-16 23:59:19.19	298.70	76.85	
2025-01-16 23:59:19.39	298.26	76.86	
2025-01-16 23:59:19.59	297.82	76.88	
2025-01-16 23:59:19.80	297.36	76.89	
2025-01-16 23:59:20.01	296.89	76.90	
2025-01-16 23:59:20.23	296.41	76.92	
2025-01-16 23:59:20.44	295.94	76.93	
2025-01-16 23:59:20.64	295.50	76.94	
2025-01-16 23:59:20.84	295.05	76.95	
2025-01-16 23:59:21.05	294.59	76.95	
2025-01-16 23:59:21.25	294.14	76.96	
2025-01-16 23:59:21.47	293.65	76.97	
2025-01-16 23:59:21.67	293.20	76.97	
2025-01-16 23:59:21.88	292.73	76.98	
2025-01-16 23:59:22.08	292.29	76.98	
2025-01-16 23:59:22.29	291.82	76.99	
2025-01-16 23:59:22.50	291.35	76.99	
2025-01-16 23:59:22.71	290.88	76.99	
2025-01-16 23:59:22.92	290.41	76.99	
2025-01-16 23:59:23.12	289.96	76.99	
2025-01-16 23:59:23.34	289.47	76.99	
2025-01-16 23:59:23.55	289.00	76.99	
2025-01-16 23:59:23.76	288.53	76.99	
2025-01-16 23:59:23.97	288.06	76.98	
2025-01-16 23:59:24.18	287.59	76.98	
2025-01-16 23:59:24.38	287.14	76.97	
2025-01-16 23:59:24.58	286.69	76.97	
2025-01-16 23:59:24.79	286.22	76.96	
2025-01-16 23:59:24.99	285.78	76.95	
2025-01-16 23:59:25.19	285.33	76.95	
2025-01-16 23:59:25.39	284.89	76.94	
2025-01-16 23:59:25.60	284.42	76.93	
2025-01-16 23:59:25.81	283.96	76.92	
2025-01-16 23:59:26.02	283.49	76.91	
2025-01-16 23:59:26.22	283.05	76.89	
2025-01-16 23:59:26.43	282.59	76.88	
2025-01-16 23:59:26.64	282.13	76.87	
2025-01-16 23:59:26.85	281.67	76.85	
2025-01-16 23:59:27.06	281.21	76.83	
2025-01-16 23:59:27.26	280.77	76.82	
2025-01-16 23:59:27.47	280.31	76.80	
2025-01-16 23:59:27.68	279.86	76.78	
2025-01-16 23:59:27.89	279.40	76.76	
2025-01-16 23:59:28.09	278.97	76.75	
2025-01-16 23:59:28.30	278.52	76.72	
2025-01-16 23:59:28.51	278.07	76.70	
2025-01-16 23:59:28.71	277.64	76.68	
2025-01-16 23:59:28.92	277.19	76.66	
2025-01-16 23:59:29.12	276.77	76.64	
2025-01-16 23:59:29.32	276.35	76.61	
2025-01-16 23:59:29.53	275.90	76.59	
2025-01-16 23:59:29.75	275.44	76.56	
2025-01-16 23:59:29.96	275.00	76.53	
2025-01-16 23:59:30.16	274.59	76.51	
2025-01-16 23:59:30.37	274.15	76.48	
2025-01-16 23:59:30.57	273.74	76.45	
2025-01-16 23:59:30.77	273.33	76.42	
2025-01-16 23:59:30.98	272.90	76.39	
2025-01-16 23:59:31.18	272.49	76.36	
2025-01-16 23:59:31.39	272.06	76.33	
2025-01-16 23:59:31.60	271.64	76.30	
2025-01-16 23:59:31.81	271.22	76.27	
2025-01-16 23:59:32.01	270.82	76.23	
2025-01-16 23:59:32.23	270.38	76.20	
2025-01-16 23:59:32.43	269.98	76.16	
2025-01-16 23:59:32.63	269.59	76.13	
2025-01-16 23:59:32.83	269.20	76.09	
2025-01-16 23:59:33.04	268.79	76.06	
2025-01-16 23:59:33.24	268.40	76.02	
2025-01-16 23:59:33.44	268.02	75.98	
2025-01-16 23:59:33.65	267.62	75.94	
2025-01-16 23:59:33.85	267.24	75.91	
2025-01-16 23:59:34.06	266.84	75.87	
2025-01-16 23:59:34.27	266.44	75.82	
2025-01-16 23:59:34.48	266.05	75.78	
2025-01-16 23:59:34.68	265.68	75.74	
2025-01-16 23:59:34.89	265.29	75.70	
2025-01-16 23:59:35.10	264.90	75.66	
2025-01-16 23:59:35.30	264.54	75.61	
2025-01-16 23:59:35.51	264.16	75.57	
2025-01-16 23:59:35.71	263.80	75.53	
2025-01-16 23:59:35.92	263.42	75.48	
2025-01-16 23:59:36.13	263.05	75.43	
2025-01-16 23:59:36.34	262.68	75.39	
2025-01-16 23:59:36.54	262.33	75.34	
2025-01-16 23:59:36.75	261.96	75.29	
2025-01-16 23:59:36.96	261.60	75.24	
2025-01-16 23:59:37.16	261.25	75.20	
2025-01-16 23:59:37.36	260.91	75.15	
2025-01-16 23:59:37.58	260.54	75.09	
2025-01-16 23:59:37.79	260.18	75.04	
2025-01-16 23:59:38.00	259.83	74.99	
2025-01-16 23:59:38.21	259.48	74.94	
2025-01-16 23:59:38.41	259.15	74.89	
2025-01-16 23:59:38.63	258.79	74.83	
2025-01-16 23:59:38.83	258.47	74.78	
2025-01-16 23:59:39.04	258.13	74.73	
2025-01-16 23:59:39.25	257.79	74.67	
2025-01-16 23:59:39.46	257.46	74.62	
2025-01-16 23:59:39.66	257.14	74.57	
2025-01-16 23:59:39.88	256.80	74.51	
2025-01-16 23:59:40.08	256.49	74.45	
2025-01-16 23:59:40.29	256.16	74.40	
2025-01-16 23:59:40.49	255.86	74.34	
2025-01-16 23:59:40.69	255.55	74.29	
2025-01-16 23:59:40.90	255.24	74.23	
2025-01-16 23:59:41.10	254.94	74.17	
2025-01-16 23:59:41.31	254.63	74.11	
2025-01-16 23:59:41.52	254.32	74.06	
2025-01-16 23:59:41.72	254.02	74.00	
2025-01-16 23:59:41.93	253.72	73.94	
2025-01-16 23:59:42.14	253.42	73.88	
2025-01-16 23:59:42.34	253.13	73.82	
2025-01-16 23:59:42.55	252.83	73.76	
2025-01-16 23:59:42.76	252.54	73.70	
2025-01-16 23:59:42.96	252.26	73.64	
2025-01-16 23:59:43.16	251.98	73.58	
2025-01-16 23:59:43.37	251.69	73.51	
2025-01-16 23:59:43.57	251.42	73.45	
2025-01-16 23:59:43.77	251.15	73.39	
2025-01-16 23:59:43.98	250.86	73.33	
2025-01-16 23:59:44.19	250.58	73.26	
2025-01-16 23:59:44.39	250.32	73.20	
2025-01-16 23:59:44.60	250.04	73.14	
2025-01-16 23:59:44.81	249.77	73.07	
2025-01-16 23:59:45.01	249.51	73.01	
2025-01-16 23:59:45.21	249.26	72.95	
2025-01-16 23:59:45.42	248.99	72.88	
2025-01-16 23:59:45.62	248.74	72.82	
2025-01-16 23:59:45.83	248.48	72.75	
2025-01-16 23:59:46.03	248.23	72.69	
2025-01-16 23:59:46.24	247.97	72.62	
2025-01-16 23:59:46.44	247.72	72.56	
2025-01-16 23:59:46.65	247.47	72.49	
2025-01-16 23:59:46.86	247.22	72.42	
2025-01-16 23:59:47.07	246.97	72.35	
2025-01-16 23:59:47.27	246.73	72.28	
2025-01-16 23:59:47.48	246.48	72.22	
2025-01-16 23:59:47.68	246.25	72.15	
2025-01-16 23:59:47.89	246.01	72.08	
2025-01-16 23:59:48.10	245.77	72.01	
2025-01-16 23:59:48.30	245.54	71.94	
2025-01-16 23:59:48.50	245.32	71.88	
2025-01-16 23:59:48.71	245.08	71.81	
2025-01-16 23:59:48.91	244.86	71.74	
2025-01-16 23:59:49.12	244.63	71.67	
2025-01-16 23:59:49.33	244.40	71.60	
2025-01-16 23:59:49.53	244.18	71.53	
2025-01-16 23:59:49.74	243.96	71.46	
2025-01-16 23:59:49.94	243.75	71.39	
2025-01-16 23:59:50.15	243.52	71.31	
2025-01-16 23:59:50.36	243.31	71.24	
2025-01-16 23:59:50.57	243.09	71.17	
2025-01-16 23:59:50.77	242.88	71.10	
2025-01-16 23:59:50.98	242.67	71.03	
2025-01-16 23:59:51.18	242.46	70.96	
2025-01-16 23:59:51.40	242.24	70.88	
2025-01-16 23:59:51.61	242.03	70.81	
2025-01-16 23:59:51.83	241.82	70.73	
2025-01-16 23:59:52.03	241.62	70.66	
2025-01-16 23:59:52.24	241.41	70.59	
2025-01-16 23:59:52.44	241.22	70.51	
2025-01-16 23:59:52.65	241.02	70.44	
2025-01-16 23:59:52.85	240.83	70.37	
2025-01-16 23:59:53.06	240.63	70.29	
2025-01-16 23:59:53.26	240.45	70.22	
2025-01-16 23:59:53.46	240.26	70.15	
2025-01-16 23:59:53.68	240.06	70.07	

#Closed at: 2025-01-16 23:59:53