passes_logs/2025/01/16/X_MFTI_02/X_MFTI_02__20250116_100815_NOAA_20_rec.log

#Pass ID: 20250116_100815_NOAA 20
#Satellite: NOAA 20
#Configuration: NOAA 20
#Start time: 2025-01-16 10:08:10

#Version: 1.5.20200625
#Station: X_MFTI_02
#Location: 37.5186 lon 55.9291 lat
#TLE: 1 43013U 17073A   23362.44808611  .00000160  00000+0  96626-4 0  9996
#TLE: 2 43013  98.7331 297.9536 0000783  57.5916 302.5335 14.19555620316533

#Time	Az	El	Level	Level2	SNR	BER	Gain	Gain2
2025-01-16 10:08:12.71	179.92	69.18	
2025-01-16 10:08:12.91	180.00	69.26	
2025-01-16 10:08:13.12	180.09	69.36	
2025-01-16 10:08:13.32	180.17	69.45	
2025-01-16 10:08:13.53	180.26	69.54	
2025-01-16 10:08:13.74	180.34	69.63	
2025-01-16 10:08:13.94	180.43	69.72	
2025-01-16 10:08:14.14	180.51	69.81	
2025-01-16 10:08:14.35	180.60	69.90	
2025-01-16 10:08:14.56	180.69	70.00	
2025-01-16 10:08:14.76	180.78	70.08	
2025-01-16 10:08:14.96	180.87	70.17	
2025-01-16 10:08:15.17	180.96	70.27	
2025-01-16 10:08:15.38	181.06	70.36	
2025-01-16 10:08:15.58	181.15	70.45	
2025-01-16 10:08:15.79	181.25	70.54	
2025-01-16 10:08:15.99	181.34	70.63	
2025-01-16 10:08:16.20	181.44	70.73	
2025-01-16 10:08:16.40	181.53	70.82	
2025-01-16 10:08:16.61	181.63	70.91	
2025-01-16 10:08:16.81	181.73	71.00	
2025-01-16 10:08:17.03	181.84	71.10	
2025-01-16 10:08:17.23	181.93	71.19	
2025-01-16 10:08:17.44	182.04	71.28	
2025-01-16 10:08:17.64	182.14	71.37	
2025-01-16 10:08:17.85	182.25	71.46	
2025-01-16 10:08:18.05	182.35	71.55	
2025-01-16 10:08:18.26	182.46	71.65	
2025-01-16 10:08:18.46	182.56	71.74	
2025-01-16 10:08:18.66	182.67	71.83	
2025-01-16 10:08:18.88	182.79	71.92	
2025-01-16 10:08:19.08	182.89	72.01	
2025-01-16 10:08:19.29	183.01	72.11	
2025-01-16 10:08:19.50	183.13	72.20	
2025-01-16 10:08:19.71	183.24	72.30	
2025-01-16 10:08:19.91	183.36	72.38	
2025-01-16 10:08:20.11	183.47	72.47	
2025-01-16 10:08:20.32	183.59	72.57	
2025-01-16 10:08:20.53	183.71	72.66	
2025-01-16 10:08:20.74	183.84	72.76	
2025-01-16 10:08:20.94	183.96	72.85	
2025-01-16 10:08:21.15	184.09	72.94	
2025-01-16 10:08:21.36	184.21	73.03	
2025-01-16 10:08:21.56	184.34	73.12	
2025-01-16 10:08:21.76	184.46	73.21	
2025-01-16 10:08:21.96	184.59	73.30	
2025-01-16 10:08:22.17	184.72	73.40	
2025-01-16 10:08:22.38	184.86	73.49	
2025-01-16 10:08:22.59	185.00	73.58	
2025-01-16 10:08:22.79	185.13	73.67	
2025-01-16 10:08:23.00	185.27	73.77	
2025-01-16 10:08:23.21	185.41	73.86	
2025-01-16 10:08:23.42	185.56	73.96	
2025-01-16 10:08:23.63	185.70	74.05	
2025-01-16 10:08:23.83	185.84	74.14	
2025-01-16 10:08:24.03	185.99	74.23	
2025-01-16 10:08:24.24	186.14	74.32	
2025-01-16 10:08:24.44	186.28	74.41	
2025-01-16 10:08:24.65	186.44	74.51	
2025-01-16 10:08:24.85	186.59	74.59	
2025-01-16 10:08:25.06	186.75	74.69	
2025-01-16 10:08:25.26	186.90	74.78	
2025-01-16 10:08:25.47	187.06	74.87	
2025-01-16 10:08:25.67	187.22	74.96	
2025-01-16 10:08:25.87	187.38	75.05	
2025-01-16 10:08:26.08	187.55	75.14	
2025-01-16 10:08:26.29	187.72	75.24	
2025-01-16 10:08:26.49	187.88	75.32	
2025-01-16 10:08:26.70	188.06	75.42	
2025-01-16 10:08:26.90	188.23	75.51	
2025-01-16 10:08:27.10	188.40	75.60	
2025-01-16 10:08:27.31	188.58	75.69	
2025-01-16 10:08:27.52	188.77	75.78	
2025-01-16 10:08:27.72	188.95	75.87	
2025-01-16 10:08:27.92	189.13	75.96	
2025-01-16 10:08:28.13	189.32	76.05	
2025-01-16 10:08:28.34	189.52	76.14	
2025-01-16 10:08:28.54	189.70	76.23	
2025-01-16 10:08:28.75	189.90	76.32	
2025-01-16 10:08:28.95	190.10	76.41	
2025-01-16 10:08:29.16	190.30	76.50	
2025-01-16 10:08:29.37	190.51	76.60	
2025-01-16 10:08:29.57	190.71	76.68	
2025-01-16 10:08:29.78	190.93	76.78	
2025-01-16 10:08:29.98	191.14	76.86	
2025-01-16 10:08:30.19	191.36	76.95	
2025-01-16 10:08:30.39	191.57	77.04	
2025-01-16 10:08:30.60	191.80	77.13	
2025-01-16 10:08:30.80	192.02	77.22	
2025-01-16 10:08:31.01	192.25	77.31	
2025-01-16 10:08:31.21	192.48	77.40	
2025-01-16 10:08:31.42	192.72	77.49	
2025-01-16 10:08:31.63	192.96	77.58	
2025-01-16 10:08:31.84	193.21	77.67	
2025-01-16 10:08:32.05	193.46	77.76	
2025-01-16 10:08:32.25	193.70	77.85	
2025-01-16 10:08:32.46	193.96	77.94	
2025-01-16 10:08:32.67	194.22	78.02	
2025-01-16 10:08:32.88	194.49	78.11	
2025-01-16 10:08:33.08	194.75	78.20	
2025-01-16 10:08:33.30	195.04	78.29	
2025-01-16 10:08:33.50	195.30	78.38	
2025-01-16 10:08:33.71	195.59	78.47	
2025-01-16 10:08:33.91	195.86	78.55	
2025-01-16 10:08:34.11	196.14	78.63	
2025-01-16 10:08:34.31	196.42	78.72	
2025-01-16 10:08:34.52	196.73	78.81	
2025-01-16 10:08:34.72	197.02	78.89	
2025-01-16 10:08:34.92	197.31	78.97	
2025-01-16 10:08:35.12	197.61	79.05	
2025-01-16 10:08:35.33	197.94	79.14	
2025-01-16 10:08:35.53	198.25	79.22	
2025-01-16 10:08:35.73	198.56	79.31	
2025-01-16 10:08:35.94	198.90	79.39	
2025-01-16 10:08:36.15	199.24	79.48	
2025-01-16 10:08:36.36	199.59	79.56	
2025-01-16 10:08:36.56	199.92	79.64	
2025-01-16 10:08:36.76	200.26	79.72	
2025-01-16 10:08:36.97	200.63	79.81	
2025-01-16 10:08:37.18	201.00	79.89	
2025-01-16 10:08:37.38	201.36	79.97	
2025-01-16 10:08:37.58	201.72	80.05	
2025-01-16 10:08:37.79	202.11	80.13	
2025-01-16 10:08:37.99	202.49	80.21	
2025-01-16 10:08:38.20	202.89	80.29	
2025-01-16 10:08:38.41	203.30	80.37	
2025-01-16 10:08:38.61	203.70	80.45	
2025-01-16 10:08:38.82	204.12	80.53	
2025-01-16 10:08:39.03	204.55	80.61	
2025-01-16 10:08:39.24	204.99	80.69	
2025-01-16 10:08:39.45	205.44	80.77	
2025-01-16 10:08:39.65	205.87	80.84	
2025-01-16 10:08:39.86	206.33	80.92	
2025-01-16 10:08:40.06	206.78	80.99	
2025-01-16 10:08:40.27	207.25	81.07	
2025-01-16 10:08:40.47	207.71	81.14	
2025-01-16 10:08:40.68	208.21	81.22	
2025-01-16 10:08:40.88	208.69	81.29	
2025-01-16 10:08:41.08	209.17	81.36	
2025-01-16 10:08:41.29	209.69	81.43	
2025-01-16 10:08:41.50	210.22	81.51	
2025-01-16 10:08:41.71	210.75	81.58	
2025-01-16 10:08:41.91	211.27	81.65	
2025-01-16 10:08:42.12	211.83	81.72	
2025-01-16 10:08:42.33	212.39	81.79	
2025-01-16 10:08:42.54	212.97	81.86	
2025-01-16 10:08:42.74	213.53	81.92	
2025-01-16 10:08:42.94	214.09	81.99	
2025-01-16 10:08:43.15	214.69	82.05	
2025-01-16 10:08:43.36	215.31	82.12	
2025-01-16 10:08:43.56	215.90	82.18	
2025-01-16 10:08:43.76	216.51	82.24	
2025-01-16 10:08:43.96	217.12	82.30	
2025-01-16 10:08:44.17	217.78	82.37	
2025-01-16 10:08:44.37	218.41	82.42	
2025-01-16 10:08:44.58	219.09	82.49	
2025-01-16 10:08:44.79	219.77	82.54	
2025-01-16 10:08:45.00	220.47	82.60	
2025-01-16 10:08:45.21	221.18	82.66	
2025-01-16 10:08:45.41	221.86	82.71	
2025-01-16 10:08:45.61	222.56	82.77	
2025-01-16 10:08:45.81	223.27	82.82	
2025-01-16 10:08:46.02	224.02	82.87	
2025-01-16 10:08:46.23	224.78	82.92	
2025-01-16 10:08:46.44	225.56	82.97	
2025-01-16 10:08:46.65	226.34	83.02	
2025-01-16 10:08:46.85	227.10	83.07	
2025-01-16 10:08:47.06	227.91	83.11	
2025-01-16 10:08:47.27	228.72	83.16	
2025-01-16 10:08:47.47	229.51	83.20	
2025-01-16 10:08:47.67	230.31	83.24	
2025-01-16 10:08:47.88	231.16	83.28	
2025-01-16 10:08:48.09	232.02	83.32	
2025-01-16 10:08:48.30	232.89	83.36	
2025-01-16 10:08:48.50	233.73	83.39	
2025-01-16 10:08:48.71	234.61	83.43	
2025-01-16 10:08:48.91	235.47	83.46	
2025-01-16 10:08:49.12	236.38	83.49	
2025-01-16 10:08:49.33	237.29	83.52	
2025-01-16 10:08:49.54	238.21	83.55	
2025-01-16 10:08:49.75	239.15	83.58	
2025-01-16 10:08:49.95	240.04	83.60	
2025-01-16 10:08:50.15	240.94	83.63	
2025-01-16 10:08:50.36	241.89	83.65	
2025-01-16 10:08:50.57	242.85	83.67	
2025-01-16 10:08:50.77	243.77	83.69	
2025-01-16 10:08:50.98	244.74	83.70	
2025-01-16 10:08:51.19	245.72	83.72	
2025-01-16 10:08:51.40	246.70	83.73	
2025-01-16 10:08:51.60	247.63	83.74	
2025-01-16 10:08:51.81	248.62	83.75	
2025-01-16 10:08:52.01	249.56	83.76	
2025-01-16 10:08:52.22	250.55	83.77	
2025-01-16 10:08:52.44	251.59	83.77	
2025-01-16 10:08:52.64	252.54	83.77	
2025-01-16 10:08:52.84	253.49	83.77	
2025-01-16 10:08:53.05	254.48	83.77	
2025-01-16 10:08:53.25	255.43	83.77	
2025-01-16 10:08:53.45	256.37	83.76	
2025-01-16 10:08:53.67	257.41	83.76	
2025-01-16 10:08:53.87	258.35	83.75	
2025-01-16 10:08:54.08	259.33	83.74	
2025-01-16 10:08:54.28	260.27	83.73	
2025-01-16 10:08:54.48	261.20	83.71	
2025-01-16 10:08:54.69	262.17	83.70	
2025-01-16 10:08:54.89	263.10	83.68	
2025-01-16 10:08:55.09	264.01	83.66	
2025-01-16 10:08:55.30	264.97	83.64	
2025-01-16 10:08:55.51	265.92	83.62	
2025-01-16 10:08:55.72	266.86	83.59	
2025-01-16 10:08:55.92	267.75	83.57	
2025-01-16 10:08:56.12	268.64	83.54	
2025-01-16 10:08:56.33	269.56	83.51	
2025-01-16 10:08:56.53	270.43	83.48	
2025-01-16 10:08:56.74	271.33	83.45	
2025-01-16 10:08:56.94	272.18	83.42	
2025-01-16 10:08:57.14	273.03	83.39	
2025-01-16 10:08:57.34	273.86	83.35	
2025-01-16 10:08:57.55	274.73	83.31	
2025-01-16 10:08:57.75	275.54	83.27	
2025-01-16 10:08:57.96	276.39	83.23	
2025-01-16 10:08:58.16	277.19	83.19	
2025-01-16 10:08:58.36	277.97	83.15	
2025-01-16 10:08:58.56	278.75	83.11	
2025-01-16 10:08:58.77	279.56	83.06	
2025-01-16 10:08:58.97	280.31	83.02	
2025-01-16 10:08:59.18	281.10	82.97	
2025-01-16 10:08:59.38	281.83	82.92	
2025-01-16 10:08:59.58	282.56	82.87	
2025-01-16 10:08:59.78	283.27	82.82	
2025-01-16 10:08:59.99	284.01	82.76	
2025-01-16 10:09:00.20	284.74	82.71	
2025-01-16 10:09:00.40	285.43	82.66	
2025-01-16 10:09:00.61	286.14	82.60	
2025-01-16 10:09:00.81	286.80	82.54	
2025-01-16 10:09:01.02	287.49	82.48	
2025-01-16 10:09:01.22	288.13	82.43	
2025-01-16 10:09:01.42	288.76	82.37	
2025-01-16 10:09:01.64	289.45	82.30	
2025-01-16 10:09:01.84	290.06	82.24	
2025-01-16 10:09:02.04	290.66	82.18	
2025-01-16 10:09:02.25	291.29	82.11	
2025-01-16 10:09:02.45	291.87	82.05	
2025-01-16 10:09:02.66	292.47	81.98	
2025-01-16 10:09:02.86	293.04	81.92	
2025-01-16 10:09:03.06	293.59	81.86	
2025-01-16 10:09:03.27	294.17	81.79	
2025-01-16 10:09:03.48	294.73	81.72	
2025-01-16 10:09:03.68	295.26	81.65	
2025-01-16 10:09:03.88	295.78	81.58	
2025-01-16 10:09:04.09	296.32	81.51	
2025-01-16 10:09:04.30	296.84	81.44	
2025-01-16 10:09:04.51	297.36	81.36	
2025-01-16 10:09:04.71	297.85	81.29	
2025-01-16 10:09:04.91	298.33	81.22	
2025-01-16 10:09:05.11	298.80	81.15	
2025-01-16 10:09:05.32	299.28	81.07	
2025-01-16 10:09:05.52	299.73	81.00	
2025-01-16 10:09:05.73	300.20	80.92	
2025-01-16 10:09:05.93	300.64	80.85	
2025-01-16 10:09:06.14	301.10	80.77	
2025-01-16 10:09:06.35	301.54	80.69	
2025-01-16 10:09:06.56	301.98	80.61	
2025-01-16 10:09:06.76	302.39	80.54	
2025-01-16 10:09:06.96	302.79	80.46	
2025-01-16 10:09:07.17	303.21	80.38	
2025-01-16 10:09:07.37	303.60	80.30	
2025-01-16 10:09:07.58	304.00	80.22	
2025-01-16 10:09:07.78	304.38	80.14	
2025-01-16 10:09:07.98	304.75	80.06	
2025-01-16 10:09:08.19	305.13	79.98	
2025-01-16 10:09:08.39	305.49	79.90	
2025-01-16 10:09:08.60	305.87	79.82	
2025-01-16 10:09:08.80	306.21	79.74	
2025-01-16 10:09:09.00	306.56	79.66	
2025-01-16 10:09:09.20	306.89	79.58	
2025-01-16 10:09:09.41	307.24	79.49	
2025-01-16 10:09:09.62	307.58	79.41	
2025-01-16 10:09:09.83	307.92	79.32	
2025-01-16 10:09:10.03	308.24	79.24	
2025-01-16 10:09:10.23	308.55	79.16	
2025-01-16 10:09:10.43	308.85	79.07	
2025-01-16 10:09:10.64	309.17	78.99	
2025-01-16 10:09:10.84	309.47	78.91	
2025-01-16 10:09:11.04	309.76	78.82	
2025-01-16 10:09:11.24	310.05	78.74	
2025-01-16 10:09:11.46	310.36	78.65	
2025-01-16 10:09:11.66	310.64	78.56	
2025-01-16 10:09:11.87	310.93	78.47	
2025-01-16 10:09:12.08	311.21	78.39	
2025-01-16 10:09:12.28	311.48	78.30	
2025-01-16 10:09:12.48	311.74	78.22	
2025-01-16 10:09:12.69	312.01	78.13	
2025-01-16 10:09:12.89	312.27	78.04	
2025-01-16 10:09:13.10	312.53	77.95	
2025-01-16 10:09:13.30	312.78	77.87	
2025-01-16 10:09:13.50	313.02	77.78	
2025-01-16 10:09:13.70	313.26	77.70	
2025-01-16 10:09:13.91	313.51	77.61	
2025-01-16 10:09:14.11	313.74	77.52	
2025-01-16 10:09:14.31	313.97	77.43	
2025-01-16 10:09:14.52	314.21	77.34	
2025-01-16 10:09:14.72	314.43	77.26	
2025-01-16 10:09:14.94	314.68	77.16	
2025-01-16 10:09:15.14	314.89	77.07	
2025-01-16 10:09:15.35	315.12	76.98	
2025-01-16 10:09:15.55	315.33	76.90	
2025-01-16 10:09:15.76	315.55	76.80	
2025-01-16 10:09:15.98	315.77	76.71	
2025-01-16 10:09:16.18	315.97	76.62	
2025-01-16 10:09:16.39	316.18	76.53	
2025-01-16 10:09:16.59	316.38	76.44	
2025-01-16 10:09:16.79	316.57	76.35	
2025-01-16 10:09:16.99	316.77	76.27	
2025-01-16 10:09:17.20	316.96	76.17	
2025-01-16 10:09:17.40	317.15	76.09	
2025-01-16 10:09:17.61	317.34	75.99	
2025-01-16 10:09:17.81	317.53	75.90	
2025-01-16 10:09:18.02	317.71	75.81	
2025-01-16 10:09:18.22	317.89	75.72	
2025-01-16 10:09:18.42	318.06	75.64	
2025-01-16 10:09:18.63	318.25	75.54	
2025-01-16 10:09:18.84	318.42	75.45	
2025-01-16 10:09:19.05	318.60	75.36	
2025-01-16 10:09:19.25	318.77	75.27	
2025-01-16 10:09:19.45	318.93	75.18	
2025-01-16 10:09:19.66	319.10	75.09	
2025-01-16 10:09:19.86	319.26	75.00	
2025-01-16 10:09:20.06	319.42	74.91	
2025-01-16 10:09:20.27	319.58	74.81	
2025-01-16 10:09:20.47	319.73	74.73	
2025-01-16 10:09:20.67	319.89	74.64	
2025-01-16 10:09:20.88	320.04	74.54	
2025-01-16 10:09:21.08	320.19	74.45	
2025-01-16 10:09:21.28	320.34	74.37	
2025-01-16 10:09:21.48	320.48	74.28	
2025-01-16 10:09:21.69	320.63	74.18	
2025-01-16 10:09:21.90	320.78	74.09	
2025-01-16 10:09:22.10	320.92	74.00	
2025-01-16 10:09:22.31	321.06	73.91	
2025-01-16 10:09:22.51	321.20	73.82	
2025-01-16 10:09:22.71	321.34	73.73	
2025-01-16 10:09:22.92	321.48	73.63	
2025-01-16 10:09:23.13	321.61	73.54	
2025-01-16 10:09:23.33	321.74	73.45	
2025-01-16 10:09:23.54	321.88	73.36	
2025-01-16 10:09:23.74	322.01	73.27	
2025-01-16 10:09:23.95	322.14	73.17	
2025-01-16 10:09:24.15	322.26	73.08	
2025-01-16 10:09:24.36	322.39	72.99	
2025-01-16 10:09:24.56	322.51	72.90	
2025-01-16 10:09:24.76	322.63	72.81	
2025-01-16 10:09:24.97	322.76	72.72	
2025-01-16 10:09:25.17	322.88	72.63	
2025-01-16 10:09:25.38	323.00	72.53	
2025-01-16 10:09:25.59	323.12	72.44	
2025-01-16 10:09:25.80	323.24	72.35	
2025-01-16 10:09:26.00	323.35	72.26	
2025-01-16 10:09:26.20	323.46	72.17	
2025-01-16 10:09:26.40	323.57	72.08	
2025-01-16 10:09:26.61	323.69	71.98	
2025-01-16 10:09:26.81	323.79	71.90	
2025-01-16 10:09:27.01	323.90	71.81	
2025-01-16 10:09:27.22	324.01	71.71	
2025-01-16 10:09:27.42	324.11	71.62	
2025-01-16 10:09:27.62	324.22	71.53	
2025-01-16 10:09:27.82	324.32	71.44	
2025-01-16 10:09:28.03	324.43	71.35	
2025-01-16 10:09:28.23	324.53	71.26	
2025-01-16 10:09:28.44	324.63	71.17	
2025-01-16 10:09:28.64	324.73	71.08	
2025-01-16 10:09:28.85	324.83	70.99	
2025-01-16 10:09:29.07	324.94	70.89	
2025-01-16 10:09:29.27	325.03	70.80	
2025-01-16 10:09:29.48	325.13	70.70	
2025-01-16 10:09:29.68	325.22	70.62	
2025-01-16 10:09:29.88	325.32	70.53	
2025-01-16 10:09:30.08	325.41	70.44	

#Closed at: 2025-01-16 10:09:30