passes_logs/2026/01/24/R2.0S_Moscow/R2.0S_Moscow__20260124_110749_NOAA_21_JPSS-2_rec.log

#Pass ID: 20260124_110749_NOAA 21 (JPSS-2)
#Satellite: NOAA 21 (JPSS-2)
#Configuration: NOAA-21
#almurnet v.1.7.20251203
#Start time: 2026-01-24 11:08:20

#Version: 2.2.20231116
#Station: R2.0S_Moscow
#Location: 37.707566 lon 55.798166 lat
#TLE: 1 54234U 22150A   26023.61190495  .00000215  00000+0  12293-3 0  9993
#TLE: 2 54234  98.7508 324.4078 0000700 226.6110 133.5008 14.19538339166032

#Time	Az	El	Level	Level2	SNR	BER	BlckErr	Temp	State	Recorded	gain1	gain2
2026-01-24 11:08:20.49	198.67	3.89	-45.0	-56.8	3.8	8.46e-01	0	61	0	0	60	14890
2026-01-24 11:08:24.52	198.93	4.14	-45.3	-57.7	3.8	1.49e+00	0	62	104	0	62	14830
2026-01-24 11:08:28.57	199.19	4.39	-44.7	-57.2	3.8	1.49e+00	0	62	104	0	61	14855
2026-01-24 11:08:32.61	199.46	4.65	-44.0	-56.2	3.8	1.49e+00	0	62	104	0	59	14741
2026-01-24 11:08:36.65	199.74	4.90	-43.9	-56.2	3.8	1.49e+00	0	62	104	0	59	14723
2026-01-24 11:08:40.69	200.02	5.16	-43.9	-56.1	3.8	1.49e+00	0	62	104	0	59	14663
2026-01-24 11:08:44.74	200.30	5.42	-43.9	-56.0	3.8	1.49e+00	0	62	104	0	59	14378
2026-01-24 11:08:48.78	200.59	5.69	-43.9	-55.9	3.8	1.49e+00	0	61	104	0	59	14314
2026-01-24 11:08:52.82	200.89	5.95	-43.7	-54.3	3.8	1.49e+00	0	62	104	0	59	11883
2026-01-24 11:08:56.85	201.18	6.22	-43.5	-52.6	3.9	1.44e+00	0	62	104	0	58	10355
2026-01-24 11:09:00.89	201.49	6.49	-43.1	-50.3	5.2	6.60e-01	0	62	0	2097152	58	7955
2026-01-24 11:09:04.93	201.80	6.76	-43.0	-49.9	5.4	5.25e-01	0	62	0	14680064	57	8065
2026-01-24 11:09:08.97	202.12	7.03	-43.2	-51.4	4.0	7.72e-01	2	61	104	27262976	57	9604
2026-01-24 11:09:13.01	202.44	7.31	-42.8	-49.1	5.9	3.69e-01	0	62	0	37748736	57	7304
2026-01-24 11:09:17.06	202.76	7.59	-41.6	-46.0	8.5	5.03e-02	0	62	0	50331648	55	5774
2026-01-24 11:09:21.10	203.10	7.87	-40.8	-44.4	10.3	5.22e-03	0	62	0	62914560	53	5346
2026-01-24 11:09:25.14	203.44	8.15	-43.4	-51.7	4.0	1.42e+00	0	62	104	74448896	57	9844
2026-01-24 11:09:29.19	203.78	8.43	-42.5	-47.7	7.2	4.02e-02	0	61	0	79691776	55	7030
2026-01-24 11:09:33.23	204.14	8.72	-40.6	-43.7	11.1	1.56e-03	0	62	0	92274688	53	4960
2026-01-24 11:09:37.27	204.50	9.01	-40.3	-43.4	11.2	1.30e-03	0	61	0	104857600	52	5099
2026-01-24 11:09:41.31	204.86	9.30	-40.2	-43.2	11.4	1.09e-03	0	62	0	117440512	52	4980
2026-01-24 11:09:45.35	205.24	9.60	-40.2	-43.1	11.7	6.06e-04	0	62	0	130023424	52	4905
2026-01-24 11:09:49.39	205.62	9.89	-40.2	-43.1	11.9	4.38e-04	0	62	0	142606336	52	4880
2026-01-24 11:09:53.42	206.00	10.19	-40.1	-42.9	12.1	2.39e-04	0	62	0	155189248	52	4811
2026-01-24 11:09:57.46	206.40	10.50	-40.2	-42.9	12.2	2.34e-04	0	62	0	167772160	52	4809
2026-01-24 11:10:01.50	206.80	10.80	-40.1	-42.9	12.3	1.49e-04	0	62	0	180355072	52	4784
2026-01-24 11:10:05.54	207.22	11.11	-40.1	-42.8	12.3	1.54e-04	0	62	0	192937984	52	4751
2026-01-24 11:10:09.58	207.64	11.42	-40.0	-42.7	12.5	1.46e-04	0	62	0	205520896	52	4669
2026-01-24 11:10:13.61	208.07	11.73	-40.1	-42.7	12.6	1.02e-04	0	62	0	218103808	51	4937
2026-01-24 11:10:17.65	208.50	12.04	-40.0	-42.5	12.9	8.23e-05	0	62	0	230686720	51	4836
2026-01-24 11:10:21.69	208.95	12.36	-40.0	-42.4	13.0	3.58e-05	0	62	0	243269632	51	4810
2026-01-24 11:10:25.73	209.41	12.68	-40.0	-42.4	13.1	3.05e-05	0	62	0	255852544	51	4811
2026-01-24 11:10:29.77	209.88	13.00	-39.9	-42.3	13.3	3.12e-05	0	62	0	268435456	51	4730
2026-01-24 11:10:33.81	210.35	13.33	-39.8	-42.2	13.4	1.90e-05	0	62	0	281018368	51	4671
2026-01-24 11:10:37.85	210.84	13.65	-39.9	-42.4	13.3	1.90e-05	0	62	0	293601280	51	4773
2026-01-24 11:10:41.89	211.34	13.98	-39.9	-42.3	13.3	2.59e-05	0	62	0	306184192	51	4757
2026-01-24 11:10:45.93	211.84	14.32	-39.9	-42.3	13.3	2.05e-05	0	62	0	318767104	51	4750
2026-01-24 11:10:49.98	212.37	14.65	-39.8	-42.2	13.5	1.29e-05	0	62	0	331350016	51	4656
2026-01-24 11:10:54.01	212.90	14.99	-39.9	-42.3	13.3	1.06e-05	0	62	0	344981504	51	4744
2026-01-24 11:10:58.05	213.44	15.33	-40.0	-42.4	13.3	2.82e-05	0	62	0	357564416	51	4777
2026-01-24 11:11:02.09	213.99	15.67	-39.9	-42.3	13.4	2.13e-05	0	62	0	370147328	51	4738
2026-01-24 11:11:06.13	214.56	16.02	-40.0	-42.4	13.3	1.98e-05	0	62	0	382730240	51	4809
2026-01-24 11:11:10.17	215.14	16.36	-40.1	-42.5	13.2	1.90e-05	0	62	0	395313152	51	4868
2026-01-24 11:11:14.22	215.74	16.71	-40.1	-42.5	13.2	2.36e-05	0	62	0	407896064	51	4836
2026-01-24 11:11:18.26	216.34	17.06	-40.0	-42.4	13.3	1.60e-05	0	62	0	420478976	51	4813
2026-01-24 11:11:22.29	216.96	17.41	-40.0	-42.4	13.4	1.52e-05	0	62	0	433061888	51	4794
2026-01-24 11:11:26.33	217.60	17.77	-40.0	-42.4	13.4	1.52e-05	0	62	0	445644800	51	4786
2026-01-24 11:11:30.38	218.25	18.13	-39.8	-42.0	13.8	3.00e-06	0	62	0	458227712	51	4572
2026-01-24 11:11:34.42	218.91	18.48	-39.6	-41.8	14.0	3.00e-06	0	62	0	470810624	51	4491
2026-01-24 11:11:38.45	219.59	18.84	-39.7	-41.9	13.9	3.00e-06	0	62	0	483393536	51	4525
2026-01-24 11:11:42.49	220.29	19.20	-39.7	-41.9	13.9	5.30e-06	0	62	0	495976448	51	4536
2026-01-24 11:11:46.53	221.00	19.56	-39.7	-41.9	14.0	3.80e-06	0	62	0	508559360	51	4508
2026-01-24 11:11:50.57	221.73	19.93	-39.7	-41.9	14.0	3.80e-06	0	62	0	521142272	51	4502
2026-01-24 11:11:54.60	222.47	20.29	-39.6	-41.7	14.1	7.00e-07	0	62	0	533725184	51	4440
2026-01-24 11:11:58.64	223.24	20.65	-39.5	-41.6	14.3	1.50e-06	0	62	0	546308096	50	4607
2026-01-24 11:12:02.68	224.02	21.02	-39.4	-41.4	14.5	7.00e-07	0	62	0	558891008	50	4528
2026-01-24 11:12:06.72	224.82	21.38	-39.2	-41.2	14.6	0.00e+00	0	62	0	571473920	50	4441
2026-01-24 11:12:10.76	225.63	21.74	-39.3	-41.3	14.6	7.00e-07	0	62	0	584056832	50	4467
2026-01-24 11:12:14.80	226.47	22.10	-39.2	-41.2	14.7	0.00e+00	0	62	0	596639744	50	4407
2026-01-24 11:12:18.84	227.33	22.46	-39.3	-41.3	14.6	0.00e+00	0	62	0	609222656	50	4459
2026-01-24 11:12:22.87	228.20	22.82	-39.1	-41.1	14.8	0.00e+00	0	62	0	621805568	50	4373
2026-01-24 11:12:26.91	229.09	23.18	-39.1	-41.1	14.7	0.00e+00	0	62	0	634388480	50	4388
2026-01-24 11:12:30.95	230.01	23.53	-39.2	-41.2	14.6	0.00e+00	0	62	0	646971392	50	4438
2026-01-24 11:12:34.99	230.94	23.89	-39.4	-41.5	14.4	0.00e+00	0	62	0	659554304	50	4597
2026-01-24 11:12:39.02	231.90	24.23	-39.5	-41.6	14.3	7.00e-07	0	62	0	672137216	50	4625
2026-01-24 11:12:43.06	232.87	24.58	-39.4	-41.5	14.4	1.50e-06	0	62	0	685768704	50	4570
2026-01-24 11:12:47.10	233.87	24.92	-39.5	-41.5	14.4	0.00e+00	0	62	0	698351616	50	4594
2026-01-24 11:12:51.13	234.89	25.26	-39.6	-41.7	14.2	7.00e-07	0	62	0	710934528	50	4678
2026-01-24 11:12:55.17	235.93	25.59	-39.6	-41.8	14.2	0.00e+00	0	62	0	723517440	50	4722
2026-01-24 11:12:59.21	236.99	25.91	-39.5	-41.6	14.3	0.00e+00	0	62	0	736100352	50	4617
2026-01-24 11:13:03.25	238.07	26.23	-39.4	-41.5	14.5	1.50e-06	0	62	0	748683264	50	4566
2026-01-24 11:13:07.29	239.18	26.54	-39.4	-41.5	14.4	1.50e-06	0	62	0	761266176	50	4576
2026-01-24 11:13:11.33	240.30	26.84	-39.4	-41.5	14.4	0.00e+00	0	62	0	773849088	50	4571
2026-01-24 11:13:15.37	241.45	27.14	-39.4	-41.4	14.4	0.00e+00	0	62	0	786432000	50	4533
2026-01-24 11:13:19.41	242.61	27.42	-39.2	-41.2	14.6	0.00e+00	0	62	0	799014912	50	4422
2026-01-24 11:13:23.45	243.80	27.69	-39.4	-41.4	14.5	7.00e-07	0	62	0	811597824	50	4536
2026-01-24 11:13:27.49	245.01	27.96	-39.3	-41.3	14.6	2.20e-06	0	62	0	824180736	50	4464
2026-01-24 11:13:31.53	246.23	28.21	-39.7	-41.8	14.1	7.00e-07	0	62	0	836763648	50	4750
2026-01-24 11:13:35.57	247.47	28.45	-39.3	-41.3	14.6	0.00e+00	0	62	0	849346560	50	4454
2026-01-24 11:13:39.61	248.74	28.68	-39.5	-41.6	14.3	0.00e+00	0	62	0	861929472	50	4641
2026-01-24 11:13:43.65	250.01	28.90	-39.4	-41.4	14.5	7.00e-07	0	62	0	874512384	50	4521
2026-01-24 11:13:47.68	251.31	29.10	-39.4	-41.4	14.5	7.00e-07	0	62	0	887095296	50	4524
2026-01-24 11:13:51.72	252.62	29.29	-39.6	-41.8	14.2	7.00e-07	0	62	0	899678208	50	4715
2026-01-24 11:13:55.76	253.94	29.46	-39.6	-41.7	14.2	7.00e-07	0	62	0	912261120	50	4687
2026-01-24 11:13:59.80	255.28	29.61	-39.6	-41.8	14.1	2.20e-06	0	62	0	924844032	50	4711
2026-01-24 11:14:03.84	256.63	29.75	-39.8	-42.0	13.9	4.50e-06	0	62	0	937426944	50	4850
2026-01-24 11:14:07.88	257.99	29.88	-39.8	-42.0	13.9	7.00e-07	0	62	0	950009856	50	4844
2026-01-24 11:14:11.92	259.36	29.98	-39.8	-42.0	13.9	3.80e-06	0	62	0	962592768	50	4863
2026-01-24 11:14:15.96	260.74	30.07	-39.6	-41.7	14.2	1.50e-06	0	62	0	975175680	50	4690
2026-01-24 11:14:19.99	262.12	30.14	-39.8	-42.1	13.8	4.50e-06	0	62	0	987758592	50	4893
2026-01-24 11:14:24.03	263.51	30.20	-39.6	-41.7	14.3	7.00e-07	0	62	0	1000341504	50	4654
2026-01-24 11:14:28.07	264.90	30.23	-39.6	-41.7	14.2	1.50e-06	0	62	0	1012924416	50	4702
2026-01-24 11:14:32.10	266.29	30.25	-39.7	-41.8	14.1	1.50e-06	0	62	0	1026555904	50	4759
2026-01-24 11:14:36.14	267.69	30.25	-39.7	-41.8	14.1	0.00e+00	0	62	0	1039138816	50	4732
2026-01-24 11:14:40.18	269.08	30.23	-39.5	-41.5	14.4	0.00e+00	0	62	0	1051721728	50	4576
2026-01-24 11:14:44.21	270.47	30.19	-39.8	-42.0	13.9	2.20e-06	0	62	0	1064304640	50	4835
2026-01-24 11:14:48.25	271.86	30.13	-39.8	-42.0	13.9	4.50e-06	0	62	0	1076887552	50	4839
2026-01-24 11:14:52.29	273.24	30.06	-39.7	-41.9	14.0	2.20e-06	0	62	0	1089470464	50	4765
2026-01-24 11:14:56.33	274.62	29.97	-39.8	-42.0	13.9	2.20e-06	0	62	0	1102053376	50	4858
2026-01-24 11:15:00.37	275.98	29.86	-39.7	-41.9	14.0	7.00e-07	0	62	0	1114636288	50	4803
2026-01-24 11:15:04.41	277.34	29.73	-39.7	-41.8	14.1	3.80e-06	0	62	0	1127219200	50	4755
2026-01-24 11:15:08.45	278.69	29.59	-39.7	-41.8	14.1	2.20e-06	0	62	0	1139802112	50	4745
2026-01-24 11:15:12.49	280.02	29.43	-39.6	-41.7	14.2	1.50e-06	0	62	0	1152385024	50	4704
2026-01-24 11:15:16.52	281.34	29.26	-39.6	-41.8	14.2	0.00e+00	0	62	0	1164967936	50	4706
2026-01-24 11:15:20.56	282.64	29.07	-39.4	-41.5	14.4	7.00e-07	0	62	0	1177550848	50	4556
2026-01-24 11:15:24.60	283.93	28.87	-39.6	-41.7	14.1	7.00e-07	0	62	0	1190133760	50	4698
2026-01-24 11:15:28.63	285.20	28.65	-39.5	-41.6	14.3	1.50e-06	0	62	0	1202716672	50	4624
2026-01-24 11:15:32.67	286.46	28.43	-39.5	-41.6	14.3	0.00e+00	0	62	0	1215299584	50	4632
2026-01-24 11:15:36.71	287.69	28.18	-39.5	-41.5	14.3	0.00e+00	0	62	0	1227882496	50	4596
2026-01-24 11:15:40.74	288.91	27.93	-39.4	-41.5	14.4	1.50e-06	0	62	0	1240465408	50	4559
2026-01-24 11:15:44.78	290.11	27.67	-39.4	-41.5	14.4	7.00e-07	0	62	0	1253048320	50	4562
2026-01-24 11:15:48.82	291.29	27.39	-39.2	-41.2	14.7	0.00e+00	0	62	0	1265631232	50	4406
2026-01-24 11:15:52.86	292.45	27.11	-39.3	-41.4	14.5	7.00e-07	0	62	0	1278214144	50	4514
2026-01-24 11:15:56.90	293.59	26.81	-39.3	-41.3	14.6	0.00e+00	0	62	0	1290797056	50	4466
2026-01-24 11:16:00.93	294.70	26.51	-39.2	-41.3	14.6	7.00e-07	0	62	0	1303379968	50	4443
2026-01-24 11:16:04.97	295.80	26.20	-39.4	-41.5	14.5	0.00e+00	0	62	0	1315962880	50	4549
2026-01-24 11:16:09.01	296.87	25.89	-39.5	-41.7	14.1	3.00e-06	0	62	0	1328545792	50	4669
2026-01-24 11:16:13.04	297.92	25.56	-39.3	-41.4	14.5	2.20e-06	0	62	0	1341128704	50	4496
2026-01-24 11:16:17.08	298.96	25.24	-39.5	-41.7	14.2	0.00e+00	0	62	0	1353711616	50	4657
2026-01-24 11:16:21.13	299.97	24.90	-39.6	-41.8	14.0	2.20e-06	0	62	0	1366294528	50	4743
2026-01-24 11:16:25.17	300.96	24.56	-39.0	-41.0	14.8	7.00e-07	0	62	0	1378877440	50	4318
2026-01-24 11:16:29.20	301.93	24.22	-39.1	-41.1	14.7	7.00e-07	0	62	0	1392508928	49	4635
2026-01-24 11:16:33.24	302.88	23.87	-39.1	-41.1	14.7	0.00e+00	0	62	0	1405091840	49	4627
2026-01-24 11:16:37.28	303.81	23.52	-39.2	-41.2	14.5	0.00e+00	0	62	0	1417674752	49	4700
2026-01-24 11:16:41.31	304.72	23.17	-39.2	-41.3	14.5	0.00e+00	0	62	0	1430257664	49	4725
2026-01-24 11:16:45.35	305.61	22.82	-39.2	-41.3	14.5	0.00e+00	0	62	0	1442840576	49	4728
2026-01-24 11:16:49.39	306.47	22.46	-39.0	-41.0	14.7	7.00e-07	0	62	0	1455423488	49	4577
2026-01-24 11:16:53.43	307.32	22.10	-39.0	-41.0	14.7	7.00e-07	0	62	0	1468006400	49	4575
2026-01-24 11:16:57.47	308.16	21.74	-39.0	-41.0	14.8	0.00e+00	0	62	0	1480589312	49	4550
2026-01-24 11:17:01.51	308.97	21.38	-38.9	-40.9	14.8	0.00e+00	0	62	0	1493172224	49	4504
2026-01-24 11:17:05.55	309.76	21.02	-39.3	-41.3	14.3	0.00e+00	0	62	0	1505755136	49	4752
2026-01-24 11:17:09.59	310.54	20.66	-39.4	-41.6	14.1	1.50e-06	0	62	0	1518338048	49	4876
2026-01-24 11:17:13.63	311.30	20.30	-39.2	-41.3	14.3	7.00e-07	0	62	0	1530920960	49	4752
2026-01-24 11:17:17.67	312.04	19.94	-39.3	-41.4	14.2	7.00e-07	0	62	0	1543503872	49	4797
2026-01-24 11:17:21.71	312.76	19.59	-39.4	-41.5	14.2	2.20e-06	0	62	0	1556086784	49	4858
2026-01-24 11:17:25.74	313.47	19.23	-39.4	-41.6	14.1	0.00e+00	0	62	0	1568669696	49	4892
2026-01-24 11:17:29.78	314.16	18.87	-39.4	-41.6	14.1	7.00e-07	0	62	0	1581252608	49	4897
2026-01-24 11:17:33.82	314.84	18.51	-39.5	-41.7	13.9	4.50e-06	0	62	0	1593835520	49	4941
2026-01-24 11:17:37.85	315.50	18.16	-39.7	-42.1	13.6	6.80e-06	0	62	0	1606418432	50	4898
2026-01-24 11:17:41.89	316.14	17.81	-39.8	-42.2	13.4	1.06e-05	0	62	0	1619001344	50	4964
2026-01-24 11:17:45.94	316.78	17.46	-39.9	-42.3	13.2	2.21e-05	0	62	0	1631584256	50	5020
2026-01-24 11:17:49.98	317.40	17.11	-39.8	-42.2	13.4	1.83e-05	0	62	0	1644167168	50	4964
2026-01-24 11:17:54.01	318.00	16.76	-39.9	-42.3	13.3	1.37e-05	0	62	0	1656750080	50	4997
2026-01-24 11:17:58.05	318.59	16.41	-39.5	-41.7	13.9	3.00e-06	0	62	0	1669332992	50	4685
2026-01-24 11:18:02.09	319.17	16.07	-39.5	-41.7	13.8	6.10e-06	0	62	0	1681915904	50	4690
2026-01-24 11:18:06.13	319.73	15.73	-39.7	-42.0	13.5	6.10e-06	0	62	0	1694498816	50	4822
2026-01-24 11:18:10.17	320.29	15.39	-39.9	-42.2	13.3	2.28e-05	0	62	0	1707081728	50	4978
2026-01-24 11:18:14.21	320.83	15.05	-39.9	-42.3	13.2	2.67e-05	0	62	0	1719664640	50	5007
2026-01-24 11:18:18.25	321.36	14.72	-39.9	-42.3	13.2	3.12e-05	0	62	0	1733296128	50	5011
2026-01-24 11:18:22.28	321.87	14.39	-39.9	-42.4	13.0	3.28e-05	0	62	0	1745879040	50	5071
2026-01-24 11:18:26.32	322.38	14.06	-40.1	-42.6	12.8	5.41e-05	0	62	0	1758461952	50	5192
2026-01-24 11:18:30.36	322.88	13.73	-40.1	-42.7	12.7	7.78e-05	0	62	0	1771044864	50	5276
2026-01-24 11:18:34.40	323.36	13.41	-40.2	-42.8	12.6	9.53e-05	0	62	0	1783627776	50	5283
2026-01-24 11:18:38.44	323.84	13.09	-40.2	-42.9	12.5	1.42e-04	0	62	0	1796210688	51	5050
2026-01-24 11:18:42.48	324.31	12.77	-40.2	-42.8	12.5	1.17e-04	0	62	0	1808793600	51	5009
2026-01-24 11:18:46.52	324.76	12.45	-40.1	-42.7	12.6	1.04e-04	0	62	0	1821376512	51	4970
2026-01-24 11:18:50.56	325.21	12.14	-40.2	-42.8	12.4	1.47e-04	0	62	0	1833959424	51	5030
2026-01-24 11:18:54.60	325.65	11.83	-40.3	-43.2	12.0	3.01e-04	0	62	0	1846542336	51	5242
2026-01-24 11:18:58.63	326.08	11.52	-40.3	-43.1	12.1	2.88e-04	0	62	0	1859125248	51	5194
2026-01-24 11:19:02.67	326.50	11.21	-40.3	-43.1	12.1	2.53e-04	0	62	0	1871708160	51	5188
2026-01-24 11:19:06.71	326.91	10.91	-40.4	-43.2	12.0	2.71e-04	0	62	0	1884291072	51	5223
2026-01-24 11:19:10.75	327.31	10.60	-40.3	-43.1	12.0	3.23e-04	0	62	0	1896873984	51	5214
2026-01-24 11:19:14.79	327.71	10.31	-40.3	-43.2	11.9	4.14e-04	0	62	0	1909456896	51	5223
2026-01-24 11:19:18.82	328.10	10.01	-40.4	-43.3	11.7	5.65e-04	0	62	0	1922039808	51	5328
2026-01-24 11:19:22.86	328.48	9.72	-40.5	-43.5	11.5	8.85e-04	0	62	0	1934622720	51	5455
2026-01-24 11:19:26.90	328.86	9.42	-40.4	-43.3	11.7	6.27e-04	0	62	0	1947205632	51	5330
2026-01-24 11:19:30.93	329.22	9.14	-40.4	-43.4	11.5	8.74e-04	0	62	0	1959788544	51	5372
2026-01-24 11:19:34.97	329.58	8.85	-40.5	-43.6	11.2	1.21e-03	0	62	0	1972371456	51	5502
2026-01-24 11:19:39.02	329.94	8.56	-40.7	-44.0	10.8	2.44e-03	0	62	0	1984954368	51	5761
2026-01-24 11:19:43.05	330.29	8.28	-40.7	-44.0	10.6	2.90e-03	0	62	0	1997537280	52	5454
2026-01-24 11:19:47.09	330.63	8.00	-40.6	-43.9	10.8	2.52e-03	0	62	0	2010120192	52	5354
2026-01-24 11:19:51.13	330.96	7.72	-44.9	-57.4	3.8	1.49e+00	0	62	104	2012217344	60	15953
2026-01-24 11:19:55.17	331.29	7.45	-45.2	-57.7	3.8	1.49e+00	0	62	104	2012217344	61	15598
2026-01-24 11:19:59.21	331.61	7.18	-45.2	-57.6	3.8	1.49e+00	0	62	104	2012217344	60	16416
2026-01-24 11:20:03.25	331.93	6.90	-45.1	-57.5	3.8	1.49e+00	0	62	104	2012217344	60	16200
2026-01-24 11:20:07.30	332.25	6.63	-45.1	-57.5	3.8	1.49e+00	0	62	104	2012217344	60	16142
2026-01-24 11:20:11.34	332.55	6.37	-45.1	-57.5	3.8	1.49e+00	0	62	104	2012217344	60	16177
2026-01-24 11:20:15.38	332.85	6.10	-45.1	-57.5	3.8	1.49e+00	0	62	104	2012217344	60	16228
2026-01-24 11:20:19.42	333.15	5.84	-45.1	-57.5	3.8	1.49e+00	0	62	104	2012217344	60	16135
2026-01-24 11:20:23.46	333.44	5.58	-45.1	-57.5	3.8	1.49e+00	0	62	104	2012217344	60	16166
2026-01-24 11:20:27.50	333.73	5.32	-45.1	-57.5	3.8	1.49e+00	0	62	104	2012217344	60	16134
2026-01-24 11:20:31.55	334.01	5.06	-45.1	-57.5	3.8	1.49e+00	0	62	104	2012217344	60	16163
2026-01-24 11:20:35.59	334.29	4.81	-45.1	-57.5	3.8	1.49e+00	0	62	104	2012217344	60	16162
2026-01-24 11:20:39.63	334.56	4.56	-44.9	-57.4	3.8	1.49e+00	0	62	104	2012217344	60	16122
2026-01-24 11:20:43.67	334.83	4.31	-45.0	-57.5	3.8	1.49e+00	0	62	104	2012217344	60	16188
2026-01-24 11:20:47.71	335.10	4.06	-45.0	-57.4	3.8	1.49e+00	0	62	104	2012217344	60	16125
2026-01-24 11:20:51.76	335.36	3.81	-45.1	-57.4	3.8	1.49e+00	0	62	104	2012217344	60	16108
2026-01-24 11:20:55.80	335.62	3.56	-45.1	-57.4	3.8	1.49e+00	0	62	104	2012217344	60	16077
2026-01-24 11:20:59.84	335.87	3.32	-45.1	-57.4	3.8	1.49e+00	0	62	104	2012217344	60	16112
2026-01-24 11:21:03.88	336.12	3.08	-45.0	-57.4	3.8	1.49e+00	0	62	104	2012217344	60	16080
2026-01-24 11:21:07.92	336.36	2.84	-45.1	-57.4	3.8	1.49e+00	0	62	104	2012217344	60	16057
2026-01-24 11:21:11.97	336.61	2.60	-45.1	-57.5	3.8	1.49e+00	0	62	104	2012217344	60	16168
2026-01-24 11:21:16.00	336.84	2.36	-45.1	-57.4	3.8	1.49e+00	0	62	104	2012217344	60	16083
2026-01-24 11:21:20.04	337.08	2.13	-45.1	-57.4	3.8	1.49e+00	0	62	104	2012217344	60	16011

#Closed at: 2026-01-24 11:21:23
#Recorded file [2012 MB]: D:/lorett/data/31039_260124_140820.dat