passes_logs/2026/01/24/R2.0S_Moscow/R2.0S_Moscow__20260124_092653_NOAA_21_JPSS-2_rec.log

#Pass ID: 20260124_092653_NOAA 21 (JPSS-2)
#Satellite: NOAA 21 (JPSS-2)
#Configuration: NOAA-21
#almurnet v.1.7.20251203
#Start time: 2026-01-24 09:26:55

#Version: 2.2.20231116
#Station: R2.0S_Moscow
#Location: 37.707566 lon 55.798166 lat
#TLE: 1 54234U 22150A   26023.61190495  .00000215  00000+0  12293-3 0  9993
#TLE: 2 54234  98.7508 324.4078 0000700 226.6110 133.5008 14.19538339166032

#Time	Az	El	Level	Level2	SNR	BER	BlckErr	Temp	State	Recorded	gain1	gain2
2026-01-24 09:26:55.24	146.83	2.14	-43.8	-56.1	3.8	1.49e+00	0	52	0	0	58	15559
2026-01-24 09:26:59.29	146.75	2.40	-43.7	-56.1	3.8	1.49e+00	0	52	104	0	59	14619
2026-01-24 09:27:03.33	146.67	2.66	-43.7	-56.1	3.8	1.49e+00	0	53	104	0	58	15515
2026-01-24 09:27:07.37	146.59	2.92	-43.6	-56.1	3.8	1.49e+00	0	53	104	0	58	15505
2026-01-24 09:27:11.41	146.51	3.19	-43.7	-56.1	3.8	1.49e+00	0	53	104	0	57	16336
2026-01-24 09:27:15.46	146.43	3.46	-43.7	-56.1	3.8	1.49e+00	0	53	104	0	58	15442
2026-01-24 09:27:19.50	146.35	3.73	-43.6	-56.1	3.8	1.49e+00	0	54	104	0	58	15482
2026-01-24 09:27:23.54	146.26	4.01	-43.7	-56.1	3.8	1.49e+00	0	54	104	0	58	15434
2026-01-24 09:27:27.58	146.17	4.29	-43.6	-56.0	3.8	1.49e+00	0	54	104	0	58	15263
2026-01-24 09:27:31.62	146.08	4.57	-43.6	-55.7	3.8	1.49e+00	0	54	104	0	57	15600
2026-01-24 09:27:35.66	145.99	4.85	-43.6	-55.2	3.8	1.49e+00	0	55	104	0	57	14872
2026-01-24 09:27:39.71	145.90	5.14	-43.7	-55.9	3.8	1.49e+00	0	55	104	0	57	15966
2026-01-24 09:27:43.75	145.80	5.43	-43.7	-55.8	3.8	1.49e+00	0	55	104	0	57	15828
2026-01-24 09:27:47.79	145.71	5.72	-43.6	-55.2	3.8	1.49e+00	0	55	104	0	57	14779
2026-01-24 09:27:51.83	145.61	6.02	-43.4	-53.1	4.1	1.48e+00	0	55	104	0	57	11648
2026-01-24 09:27:55.87	145.50	6.31	-43.2	-52.4	3.9	1.43e+00	0	56	104	0	57	10738
2026-01-24 09:27:59.91	145.40	6.62	-43.3	-52.2	4.0	1.42e+00	0	56	104	0	57	10475
2026-01-24 09:28:03.96	145.29	6.92	-43.6	-54.9	3.8	1.49e+00	0	56	104	0	57	14261
2026-01-24 09:28:08.00	145.18	7.23	-43.4	-54.1	3.8	1.49e+00	0	56	104	0	57	12992
2026-01-24 09:28:12.04	145.07	7.55	-42.4	-48.3	6.5	2.98e-01	0	56	0	5242880	56	7077
2026-01-24 09:28:16.09	144.96	7.87	-41.1	-45.1	9.4	1.78e-02	0	57	0	16777216	54	5516
2026-01-24 09:28:20.12	144.84	8.19	-43.6	-55.0	3.8	1.49e+00	0	57	104	25165824	58	13639
2026-01-24 09:28:24.16	144.72	8.51	-41.2	-45.2	9.3	2.48e-02	0	57	0	34603008	54	5592
2026-01-24 09:28:28.20	144.60	8.84	-40.3	-43.5	11.2	1.73e-03	0	57	0	47185920	52	5143
2026-01-24 09:28:32.24	144.47	9.17	-40.2	-43.4	11.3	1.31e-03	0	57	0	59768832	52	5089
2026-01-24 09:28:36.27	144.34	9.51	-40.3	-43.4	11.3	1.11e-03	0	57	0	72351744	52	5090
2026-01-24 09:28:40.31	144.21	9.85	-40.3	-43.3	11.8	7.03e-04	0	57	0	84934656	51	5303
2026-01-24 09:28:44.35	144.07	10.20	-40.3	-43.2	11.8	4.78e-04	0	58	0	98566144	51	5268
2026-01-24 09:28:48.39	143.93	10.55	-40.3	-43.2	11.9	3.58e-04	0	57	0	110100480	51	5266
2026-01-24 09:28:52.43	143.79	10.91	-40.1	-42.9	12.3	1.48e-04	0	58	0	123731968	50	5344
2026-01-24 09:28:56.46	143.64	11.27	-40.0	-42.7	12.5	1.11e-04	0	58	0	136314880	50	5265
2026-01-24 09:29:00.50	143.49	11.64	-39.6	-42.4	12.8	2.69e-04	0	58	0	148897792	50	5089
2026-01-24 09:29:04.54	143.34	12.01	-39.6	-42.4	12.9	8.54e-05	0	58	0	161480704	50	5069
2026-01-24 09:29:08.58	143.18	12.39	-39.7	-42.4	13.0	6.33e-05	0	58	0	174063616	50	5070
2026-01-24 09:29:12.62	143.02	12.77	-39.6	-42.1	13.3	5.95e-05	0	58	0	186646528	50	4908
2026-01-24 09:29:16.66	142.85	13.16	-39.6	-42.1	13.4	3.43e-05	0	58	0	199229440	50	4884
2026-01-24 09:29:20.70	142.68	13.56	-39.6	-42.0	13.5	6.17e-05	0	58	0	211812352	50	4823
2026-01-24 09:29:24.74	142.50	13.96	-39.7	-42.1	13.5	9.90e-06	0	58	0	224395264	50	4889
2026-01-24 09:29:28.78	142.31	14.37	-39.7	-42.1	13.5	1.67e-05	0	58	0	236978176	50	4909
2026-01-24 09:29:32.82	142.13	14.78	-39.7	-42.0	13.6	7.60e-06	0	59	0	249561088	50	4869
2026-01-24 09:29:36.85	141.93	15.20	-39.7	-42.1	13.5	9.10e-06	0	58	0	262144000	50	4879
2026-01-24 09:29:40.89	141.73	15.63	-39.7	-42.1	13.1	2.29e-03	0	59	0	274726912	50	4926
2026-01-24 09:29:44.93	141.53	16.07	-39.8	-42.2	13.3	6.24e-04	0	59	0	287309824	50	4983
2026-01-24 09:29:48.97	141.31	16.51	-39.7	-42.4	13.1	2.78e-03	0	59	0	299892736	50	5051
2026-01-24 09:29:53.01	141.09	16.96	-39.8	-42.4	13.3	4.26e-04	0	59	0	312475648	50	5065
2026-01-24 09:29:57.05	140.87	17.42	-39.9	-42.6	12.9	6.32e-04	0	59	0	325058560	50	5211
2026-01-24 09:30:01.09	140.63	17.89	-39.9	-42.5	13.2	1.87e-04	0	59	0	337641472	50	5102
2026-01-24 09:30:05.13	140.39	18.37	-39.9	-42.4	13.4	2.72e-04	0	59	0	350224384	50	5043
2026-01-24 09:30:09.17	140.14	18.85	-40.1	-42.6	13.3	9.30e-05	0	59	0	362807296	50	5186
2026-01-24 09:30:13.21	139.88	19.35	-40.0	-42.4	13.5	2.21e-05	0	59	0	375390208	50	5054
2026-01-24 09:30:17.25	139.62	19.85	-40.0	-42.3	13.5	1.14e-05	0	59	0	387973120	50	5030
2026-01-24 09:30:21.28	139.34	20.36	-39.8	-42.1	13.8	6.10e-06	0	59	0	400556032	50	4921
2026-01-24 09:30:25.32	139.06	20.88	-39.7	-41.9	14.0	0.00e+00	0	59	0	413138944	50	4805
2026-01-24 09:30:29.36	138.76	21.42	-39.3	-41.4	14.5	1.50e-06	0	59	0	425721856	50	4527
2026-01-24 09:30:33.40	138.45	21.96	-39.2	-41.2	14.7	7.00e-07	0	59	0	439353344	50	4435
2026-01-24 09:30:37.45	138.13	22.52	-39.1	-41.1	14.8	7.00e-07	0	60	0	451936256	50	4373
2026-01-24 09:30:41.49	137.80	23.08	-39.1	-41.1	14.9	7.00e-07	0	60	0	464519168	50	4370
2026-01-24 09:30:45.53	137.46	23.66	-39.0	-41.0	15.0	0.00e+00	0	60	0	477102080	49	4567
2026-01-24 09:30:49.57	137.10	24.25	-39.1	-41.2	14.8	0.00e+00	0	59	0	489684992	49	4655
2026-01-24 09:30:53.60	136.73	24.85	-39.3	-41.3	14.7	0.00e+00	0	60	0	502267904	49	4724
2026-01-24 09:30:57.64	136.35	25.47	-39.3	-41.3	14.7	0.00e+00	0	60	0	514850816	49	4755
2026-01-24 09:31:01.66	135.95	26.09	-39.3	-41.3	14.7	7.00e-07	0	60	0	527433728	49	4758
2026-01-24 09:31:05.70	135.53	26.73	-39.7	-41.8	14.3	1.50e-06	0	60	0	540016640	49	5018
2026-01-24 09:31:09.74	135.09	27.39	-39.9	-42.1	14.0	3.80e-06	0	60	0	552599552	50	4882
2026-01-24 09:31:13.78	134.64	28.06	-39.8	-42.1	14.0	3.00e-06	0	60	0	565182464	50	4874
2026-01-24 09:31:17.81	134.16	28.74	-39.9	-42.1	14.0	2.20e-06	0	60	0	577765376	50	4887
2026-01-24 09:31:21.85	133.67	29.43	-39.7	-41.8	14.4	0.00e+00	0	60	0	590348288	50	4738
2026-01-24 09:31:25.89	133.15	30.15	-39.6	-41.7	14.5	0.00e+00	0	60	0	602931200	50	4688
2026-01-24 09:31:29.93	132.60	30.87	-39.8	-42.0	14.2	3.00e-06	0	60	0	615514112	50	4849
2026-01-24 09:31:33.97	132.04	31.62	-39.9	-42.1	14.1	2.20e-06	0	60	0	628097024	50	4907
2026-01-24 09:31:38.01	131.44	32.38	-39.8	-41.9	14.3	1.50e-06	0	60	0	640679936	50	4809
2026-01-24 09:31:42.05	130.81	33.15	-40.1	-42.3	13.9	3.00e-06	0	60	0	653262848	50	5037
2026-01-24 09:31:46.09	130.16	33.94	-40.5	-42.9	13.3	1.75e-05	0	60	0	665845760	51	5055
2026-01-24 09:31:50.13	129.47	34.75	-40.6	-43.2	13.0	4.04e-05	0	60	0	678428672	52	4935
2026-01-24 09:31:54.17	128.74	35.57	-40.5	-43.0	13.2	2.59e-05	0	60	0	691011584	52	4846
2026-01-24 09:31:58.21	127.98	36.41	-40.7	-43.3	12.8	5.72e-05	0	60	0	703594496	52	5021
2026-01-24 09:32:02.25	127.17	37.26	-40.8	-43.4	12.7	4.57e-05	0	60	0	716177408	52	5075
2026-01-24 09:32:06.29	126.32	38.13	-40.8	-43.4	12.7	9.15e-05	0	60	0	728760320	52	5083
2026-01-24 09:32:10.33	125.43	39.02	-40.7	-43.3	12.9	4.88e-05	0	60	0	741343232	52	5013
2026-01-24 09:32:14.37	124.48	39.92	-40.7	-43.3	12.9	4.88e-05	0	60	0	753926144	52	5009
2026-01-24 09:32:18.41	123.48	40.83	-41.0	-43.7	12.5	1.49e-04	0	60	0	766509056	52	5255
2026-01-24 09:32:22.44	122.42	41.76	-41.2	-44.0	12.3	1.89e-04	0	60	0	780140544	52	5420
2026-01-24 09:32:26.48	121.29	42.70	-41.6	-44.8	11.4	8.53e-04	0	60	0	791674880	53	5599
2026-01-24 09:32:30.52	120.10	43.65	-41.7	-44.8	11.4	9.49e-04	0	60	0	805306368	54	5320
2026-01-24 09:32:34.56	118.83	44.60	-41.9	-45.1	11.1	1.42e-03	0	61	0	817889280	54	5509
2026-01-24 09:32:38.59	117.48	45.56	-41.8	-45.0	11.2	1.33e-03	0	60	0	830472192	54	5458
2026-01-24 09:32:42.63	116.05	46.53	-41.7	-44.8	11.4	7.23e-04	0	60	0	843055104	54	5328
2026-01-24 09:32:46.67	114.53	47.50	-41.6	-44.7	11.5	7.06e-04	0	60	0	855638016	54	5261
2026-01-24 09:32:50.71	112.90	48.47	-41.8	-45.0	11.3	1.23e-03	0	61	0	868220928	54	5439
2026-01-24 09:32:54.75	111.18	49.43	-41.6	-44.6	11.6	7.57e-04	0	61	0	880803840	54	5190
2026-01-24 09:32:58.79	109.34	50.39	-41.1	-43.8	12.5	1.46e-04	0	60	0	893386752	54	4744
2026-01-24 09:33:02.82	107.38	51.32	-41.3	-44.2	12.1	2.85e-04	0	61	0	905969664	54	4934
2026-01-24 09:33:06.86	105.30	52.24	-41.2	-44.0	12.4	1.37e-04	0	61	0	918552576	54	4837
2026-01-24 09:33:10.90	103.08	53.14	-40.7	-43.2	13.1	3.58e-05	0	61	0	931135488	53	4673
2026-01-24 09:33:14.94	100.72	54.00	-40.9	-43.5	12.9	5.72e-05	0	61	0	943718400	53	4818
2026-01-24 09:33:18.98	98.22	54.83	-40.4	-42.8	13.6	3.80e-06	0	61	0	956301312	52	4710
2026-01-24 09:33:23.01	95.59	55.61	-39.8	-41.8	14.6	7.00e-07	0	61	0	968884224	51	4483
2026-01-24 09:33:27.05	92.80	56.33	-40.1	-42.3	14.2	7.00e-07	0	61	0	981467136	51	4708
2026-01-24 09:33:31.09	89.86	57.00	-39.8	-41.9	14.6	7.00e-07	0	61	0	994050048	51	4501
2026-01-24 09:33:35.13	86.79	57.60	-39.6	-41.6	14.9	0.00e+00	0	61	0	1006632960	50	4600
2026-01-24 09:33:39.17	83.59	58.12	-39.5	-41.5	15.0	0.00e+00	0	61	0	1019215872	50	4557
2026-01-24 09:33:43.21	80.27	58.55	-39.9	-42.0	14.4	0.00e+00	0	61	0	1031798784	50	4854
2026-01-24 09:33:47.24	76.86	58.90	-40.1	-42.3	14.2	1.50e-06	0	61	0	1044381696	50	4988
2026-01-24 09:33:51.28	73.37	59.15	-40.0	-42.1	14.3	0.00e+00	0	61	0	1056964608	51	4642
2026-01-24 09:33:55.32	69.81	59.31	-39.5	-41.4	14.9	0.00e+00	0	61	0	1069547520	50	4540
2026-01-24 09:33:59.36	66.24	59.36	-39.0	-40.8	15.5	0.00e+00	0	61	0	1082130432	50	4230
2026-01-24 09:34:03.40	62.66	59.31	-39.6	-41.6	14.9	0.00e+00	0	61	0	1094713344	50	4603
2026-01-24 09:34:07.44	59.11	59.16	-39.7	-41.8	14.6	7.00e-07	0	61	0	1107296256	50	4712
2026-01-24 09:34:11.48	55.61	58.91	-39.2	-41.1	15.2	0.00e+00	0	61	0	1119879168	50	4370
2026-01-24 09:34:15.52	52.19	58.56	-39.6	-41.6	14.8	0.00e+00	0	61	0	1132462080	50	4606
2026-01-24 09:34:19.56	48.88	58.13	-40.2	-42.5	13.9	3.80e-06	0	61	0	1145044992	51	4822
2026-01-24 09:34:23.60	45.67	57.61	-39.9	-42.1	14.2	0.00e+00	0	61	0	1158676480	51	4615
2026-01-24 09:34:27.64	42.60	57.02	-39.9	-42.0	14.3	7.00e-07	0	61	0	1171259392	51	4581
2026-01-24 09:34:31.68	39.67	56.35	-40.1	-42.3	14.0	1.50e-06	0	61	0	1183842304	51	4719
2026-01-24 09:34:35.72	36.88	55.63	-40.7	-43.1	13.1	3.43e-05	0	61	0	1196425216	52	4920
2026-01-24 09:34:39.76	34.24	54.85	-40.3	-42.6	13.4	1.67e-05	0	61	0	1209008128	52	4651
2026-01-24 09:34:43.80	31.74	54.03	-41.3	-44.2	11.9	3.13e-04	0	61	0	1221591040	53	5235
2026-01-24 09:34:47.84	29.39	53.17	-40.2	-42.5	13.6	1.67e-05	0	61	0	1234173952	52	4592
2026-01-24 09:34:51.87	27.18	52.28	-41.6	-44.6	11.4	1.23e-03	0	61	0	1246756864	54	5204
2026-01-24 09:34:55.91	25.09	51.37	-40.3	-42.7	13.3	2.28e-05	0	61	0	1259339776	52	4656
2026-01-24 09:34:59.95	23.13	50.43	-41.8	-45.0	11.0	1.59e-03	0	61	0	1271922688	54	5407
2026-01-24 09:35:03.99	21.29	49.48	-40.9	-43.5	12.5	1.05e-04	0	61	0	1284505600	53	4856
2026-01-24 09:35:08.02	19.57	48.52	-41.9	-45.3	10.8	2.36e-03	0	61	0	1297088512	54	5620
2026-01-24 09:35:12.06	17.95	47.56	-40.6	-43.2	12.9	5.49e-05	0	61	0	1309671424	52	4940
2026-01-24 09:35:16.10	16.43	46.59	-42.3	-46.0	10.0	6.78e-03	0	61	0	1322254336	55	5783
2026-01-24 09:35:20.14	15.00	45.63	-41.5	-44.7	11.3	1.47e-03	0	61	0	1334837248	54	5260
2026-01-24 09:35:24.19	13.65	44.67	-41.0	-43.7	12.4	1.32e-04	0	61	0	1347420160	52	5267
2026-01-24 09:35:28.22	12.38	43.72	-41.6	-44.7	10.9	4.03e-03	0	61	0	1360003072	55	4928
2026-01-24 09:35:32.26	11.19	42.77	-41.5	-44.4	11.5	7.98e-04	0	61	0	1372585984	53	5401
2026-01-24 09:35:36.30	10.07	41.84	-42.1	-45.6	10.3	5.68e-03	0	61	0	1385168896	55	5513
2026-01-24 09:35:40.34	9.01	40.91	-41.2	-44.4	11.5	1.08e-03	0	61	0	1397751808	54	5085
2026-01-24 09:35:44.38	8.00	40.00	-40.1	-42.3	13.7	6.80e-06	0	61	0	1410334720	52	4482
2026-01-24 09:35:48.42	7.06	39.11	-41.9	-45.2	10.8	1.64e-03	0	61	0	1422917632	54	5571
2026-01-24 09:35:52.46	6.16	38.22	-41.1	-43.9	12.0	3.57e-04	0	61	0	1435500544	53	5096
2026-01-24 09:35:56.50	5.32	37.36	-40.3	-42.8	13.1	3.12e-05	0	61	0	1448083456	52	4751
2026-01-24 09:36:00.54	4.51	36.50	-40.1	-42.4	13.5	9.10e-06	0	61	0	1461714944	52	4544
2026-01-24 09:36:04.58	3.75	35.67	-40.8	-43.5	12.4	9.91e-05	0	61	0	1473249280	52	5134
2026-01-24 09:36:08.62	3.03	34.85	-40.8	-43.5	12.5	1.79e-04	0	61	0	1485832192	52	5101
2026-01-24 09:36:12.66	2.34	34.05	-40.0	-42.2	13.8	6.80e-06	0	61	0	1499463680	51	4693
2026-01-24 09:36:16.69	1.68	33.26	-40.1	-42.3	13.6	1.06e-05	0	61	0	1512046592	51	4742
2026-01-24 09:36:20.73	1.06	32.49	-40.2	-42.5	13.4	1.60e-05	0	61	0	1524629504	51	4863
2026-01-24 09:36:24.77	0.47	31.73	-40.2	-42.5	13.5	9.10e-06	0	61	0	1537212416	51	4843
2026-01-24 09:36:28.81	359.90	30.99	-39.7	-41.8	14.2	3.00e-06	0	61	0	1549795328	51	4466
2026-01-24 09:36:32.84	359.36	30.27	-39.8	-41.9	13.9	3.80e-06	0	61	0	1562378240	51	4539
2026-01-24 09:36:36.88	358.84	29.56	-40.3	-42.7	13.2	1.83e-05	0	61	0	1574961152	51	4942
2026-01-24 09:36:40.92	358.35	28.86	-40.4	-42.9	13.0	3.50e-05	0	61	0	1587544064	51	5049
2026-01-24 09:36:44.96	357.88	28.18	-40.1	-42.5	13.3	2.13e-05	0	61	0	1600126976	51	4836
2026-01-24 09:36:49.00	357.42	27.52	-39.8	-42.0	13.8	7.60e-06	0	61	0	1612709888	51	4590
2026-01-24 09:36:53.04	356.99	26.86	-39.2	-41.3	14.6	0.00e+00	0	61	0	1625292800	50	4447
2026-01-24 09:36:57.08	356.57	26.22	-39.1	-41.1	14.7	0.00e+00	0	61	0	1637875712	50	4349
2026-01-24 09:37:01.12	356.17	25.60	-39.2	-41.2	14.5	7.00e-07	0	61	0	1650458624	50	4441
2026-01-24 09:37:05.16	355.79	24.99	-39.2	-41.3	14.2	1.50e-06	0	61	0	1663041536	50	4491
2026-01-24 09:37:09.19	355.42	24.39	-39.3	-41.5	14.0	3.00e-06	0	61	0	1675624448	50	4580
2026-01-24 09:37:13.23	355.07	23.80	-39.6	-41.9	13.5	7.60e-06	0	61	0	1688207360	50	4784
2026-01-24 09:37:17.27	354.73	23.22	-39.6	-42.0	13.3	2.13e-05	0	61	0	1700790272	50	4853
2026-01-24 09:37:21.31	354.40	22.66	-39.7	-42.3	12.7	7.32e-05	0	61	0	1713373184	50	5013
2026-01-24 09:37:25.35	354.08	22.11	-39.4	-42.0	12.5	1.01e-04	0	61	0	1725956096	50	4839
2026-01-24 09:37:29.39	353.78	21.56	-39.2	-42.0	12.0	2.74e-04	0	61	0	1738539008	50	4834
2026-01-24 09:37:33.42	353.49	21.03	-40.2	-44.4	9.1	1.84e-02	0	61	0	1751121920	51	6011
2026-01-24 09:37:37.46	353.20	20.51	-41.2	-49.4	4.5	1.38e+00	2	61	104	1762656256	52	10164
2026-01-24 09:37:41.50	352.93	20.00	-41.3	-53.4	3.8	1.49e+00	0	61	104	1762656256	53	15196
2026-01-24 09:37:45.54	352.67	19.50	-41.1	-53.5	3.8	1.49e+00	0	61	104	1762656256	53	15276
2026-01-24 09:37:49.58	352.41	19.00	-40.7	-53.0	3.8	1.49e+00	0	61	104	1762656256	53	14461
2026-01-24 09:37:53.61	352.16	18.52	-40.8	-53.0	3.8	1.49e+00	0	61	104	1762656256	53	14538
2026-01-24 09:37:57.65	351.93	18.05	-40.7	-53.0	3.8	1.49e+00	0	61	104	1762656256	53	14497
2026-01-24 09:38:01.69	351.69	17.58	-40.7	-53.0	3.8	1.49e+00	0	61	104	1762656256	53	14485
2026-01-24 09:38:05.73	351.47	17.12	-40.7	-53.0	3.8	1.49e+00	0	61	104	1762656256	53	14407
2026-01-24 09:38:09.77	351.25	16.67	-40.7	-53.0	3.8	1.49e+00	0	61	104	1762656256	53	14384
2026-01-24 09:38:13.81	351.04	16.23	-40.7	-53.0	3.8	1.49e+00	0	62	104	1762656256	53	14421
2026-01-24 09:38:17.85	350.84	15.79	-40.7	-52.9	3.8	1.49e+00	0	61	104	1762656256	53	14354
2026-01-24 09:38:21.89	350.64	15.37	-40.7	-53.1	3.8	1.49e+00	0	61	104	1762656256	53	14550
2026-01-24 09:38:25.93	350.45	14.95	-40.9	-53.2	3.8	1.49e+00	0	61	104	1762656256	53	14789
2026-01-24 09:38:29.97	350.27	14.53	-40.9	-53.3	3.8	1.49e+00	0	61	104	1762656256	53	14913
2026-01-24 09:38:34.01	350.09	14.12	-40.9	-53.2	3.8	1.49e+00	0	62	104	1762656256	53	14780
2026-01-24 09:38:38.05	349.91	13.72	-40.7	-53.1	3.8	1.49e+00	0	61	104	1762656256	53	14560
2026-01-24 09:38:42.09	349.74	13.33	-40.7	-53.0	3.8	1.49e+00	0	61	104	1762656256	53	14387
2026-01-24 09:38:46.13	349.58	12.94	-40.7	-53.0	3.8	1.49e+00	0	62	104	1762656256	53	14501
2026-01-24 09:38:50.17	349.42	12.56	-40.7	-53.0	3.8	1.49e+00	0	61	104	1762656256	53	14494
2026-01-24 09:38:54.20	349.27	12.18	-40.7	-53.0	3.8	1.49e+00	0	62	104	1762656256	53	14489
2026-01-24 09:38:58.24	349.11	11.81	-40.7	-53.0	3.8	1.49e+00	0	61	104	1762656256	53	14451
2026-01-24 09:39:02.28	348.97	11.44	-40.7	-53.1	3.8	1.49e+00	0	61	104	1762656256	53	14544
2026-01-24 09:39:06.31	348.82	11.08	-40.8	-53.1	3.8	1.49e+00	0	62	104	1762656256	53	14676
2026-01-24 09:39:10.35	348.68	10.73	-40.9	-53.2	3.8	1.49e+00	0	61	104	1762656256	53	14782
2026-01-24 09:39:14.39	348.55	10.38	-40.9	-53.2	3.8	1.49e+00	0	62	104	1762656256	53	14827
2026-01-24 09:39:18.42	348.42	10.03	-40.9	-53.1	3.8	1.49e+00	0	62	104	1762656256	53	14671
2026-01-24 09:39:22.46	348.29	9.69	-40.9	-53.2	3.8	1.49e+00	0	62	104	1762656256	53	14759
2026-01-24 09:39:26.50	348.16	9.35	-40.9	-53.3	3.8	1.49e+00	0	62	104	1762656256	53	14886
2026-01-24 09:39:30.54	348.04	9.02	-40.9	-53.3	3.8	1.49e+00	0	62	104	1762656256	53	14910
2026-01-24 09:39:34.57	347.92	8.69	-40.9	-53.2	3.8	1.49e+00	0	62	104	1762656256	53	14841
2026-01-24 09:39:38.61	347.81	8.37	-40.9	-53.2	3.8	1.49e+00	0	62	104	1762656256	53	14802
2026-01-24 09:39:42.65	347.69	8.05	-40.9	-53.2	3.8	1.49e+00	0	61	104	1762656256	53	14749
2026-01-24 09:39:46.69	347.58	7.73	-44.4	-56.6	3.8	1.49e+00	0	62	104	1762656256	59	15534
2026-01-24 09:39:50.72	347.48	7.42	-45.1	-57.6	3.8	1.49e+00	0	62	104	1762656256	60	16349
2026-01-24 09:39:54.77	347.37	7.11	-45.0	-57.6	3.8	1.49e+00	0	62	104	1762656256	60	16394
2026-01-24 09:39:58.81	347.27	6.80	-45.2	-57.5	3.8	1.49e+00	0	62	104	1762656256	60	16285
2026-01-24 09:40:02.85	347.17	6.50	-45.1	-57.4	3.8	1.49e+00	0	62	104	1762656256	60	16091
2026-01-24 09:40:06.89	347.07	6.20	-45.1	-57.4	3.8	1.49e+00	0	62	104	1762656256	60	16058
2026-01-24 09:40:10.93	346.98	5.90	-45.0	-57.4	3.8	1.49e+00	0	62	104	1762656256	60	16026
2026-01-24 09:40:14.97	346.88	5.61	-45.1	-57.4	3.8	1.49e+00	0	62	104	1762656256	60	16040
2026-01-24 09:40:19.02	346.79	5.32	-45.0	-57.4	3.8	1.49e+00	0	62	104	1762656256	60	16009
2026-01-24 09:40:23.06	346.70	5.04	-45.0	-57.4	3.8	1.49e+00	0	62	104	1762656256	60	15958
2026-01-24 09:40:27.10	346.62	4.75	-45.0	-57.4	3.8	1.49e+00	0	62	104	1762656256	60	16020
2026-01-24 09:40:31.14	346.53	4.47	-45.0	-57.4	3.8	1.49e+00	0	62	104	1762656256	60	15993
2026-01-24 09:40:35.18	346.45	4.20	-45.0	-57.3	3.8	1.49e+00	0	62	104	1762656256	60	15936
2026-01-24 09:40:39.22	346.37	3.92	-44.9	-57.3	3.8	1.49e+00	0	62	104	1762656256	60	15857
2026-01-24 09:40:43.26	346.29	3.65	-45.0	-57.4	3.8	1.49e+00	0	62	104	1762656256	60	15961
2026-01-24 09:40:47.31	346.21	3.38	-44.9	-57.4	3.8	1.49e+00	0	62	104	1762656256	60	15973
2026-01-24 09:40:51.35	346.14	3.11	-45.0	-57.3	3.8	1.49e+00	0	62	104	1762656256	60	15876
2026-01-24 09:40:55.39	346.06	2.85	-44.9	-57.3	3.8	1.49e+00	0	62	104	1762656256	60	15938
2026-01-24 09:40:59.43	345.99	2.59	-45.0	-57.3	3.8	1.49e+00	0	61	104	1762656256	60	15912
2026-01-24 09:41:03.47	345.92	2.33	-44.9	-57.3	3.8	1.49e+00	0	62	104	1762656256	60	15870
2026-01-24 09:41:07.52	345.85	2.07	-45.0	-57.3	3.8	1.49e+00	0	62	104	1762656256	60	15907

#Closed at: 2026-01-24 09:41:10
#Recorded file [1762 MB]: D:/lorett/data/31039_260124_122655.dat