passes_logs/2026/01/24/R2.0S_Moscow/R2.0S_Moscow__20260124_074858_NOAA_21_JPSS-2_rec.log

#Pass ID: 20260124_074858_NOAA 21 (JPSS-2)
#Satellite: NOAA 21 (JPSS-2)
#Configuration: NOAA-21
#almurnet v.1.7.20251203
#Start time: 2026-01-24 07:48:58

#Version: 2.2.20231116
#Station: R2.0S_Moscow
#Location: 37.707566 lon 55.798166 lat
#TLE: 1 54234U 22150A   26023.61190495  .00000215  00000+0  12293-3 0  9993
#TLE: 2 54234  98.7508 324.4078 0000700 226.6110 133.5008 14.19538339166032

#Time	Az	El	Level	Level2	SNR	BER	BlckErr	Temp	State	Recorded	gain1	gain2
2026-01-24 07:48:58.06	98.42	2.00	-40.2	-52.6	3.8	1.49e+00	0	51	0	0	51	15500
2026-01-24 07:49:01.09	98.18	2.16	-40.3	-52.6	3.8	1.49e+00	0	52	104	0	51	15491
2026-01-24 07:49:04.12	97.92	2.31	-40.1	-52.5	3.8	1.49e+00	0	52	104	0	51	15400
2026-01-24 07:49:07.16	97.67	2.47	-39.3	-52.6	3.8	1.49e+00	0	52	104	0	49	17413
2026-01-24 07:49:10.19	97.41	2.63	-40.2	-52.6	3.8	1.49e+00	0	52	104	0	51	15450
2026-01-24 07:49:13.22	97.15	2.78	-40.2	-52.6	3.8	1.49e+00	0	53	104	0	51	15539
2026-01-24 07:49:16.25	96.88	2.94	-40.3	-52.8	3.8	1.49e+00	0	53	104	0	51	15852
2026-01-24 07:49:19.28	96.62	3.10	-40.2	-52.6	3.8	1.49e+00	0	53	104	0	51	15483
2026-01-24 07:49:22.31	96.35	3.26	-40.0	-52.6	3.8	1.49e+00	0	53	104	0	51	15409
2026-01-24 07:49:25.34	96.08	3.42	-40.3	-52.6	3.8	1.49e+00	0	54	104	0	51	15494
2026-01-24 07:49:28.37	95.80	3.58	-40.0	-52.5	3.8	1.49e+00	0	54	104	0	51	15330
2026-01-24 07:49:31.40	95.52	3.73	-39.7	-52.5	3.8	1.49e+00	0	54	104	0	51	15339
2026-01-24 07:49:34.43	95.24	3.89	-39.9	-52.6	3.8	1.49e+00	0	54	104	0	50	16333
2026-01-24 07:49:37.46	94.95	4.05	-40.1	-52.6	3.8	1.49e+00	0	55	104	0	50	16406
2026-01-24 07:49:40.49	94.67	4.21	-40.0	-52.6	3.8	1.49e+00	0	54	104	0	51	15436
2026-01-24 07:49:43.52	94.37	4.38	-40.3	-52.6	3.8	1.49e+00	0	55	104	0	51	15492
2026-01-24 07:49:46.56	94.08	4.54	-40.3	-52.6	3.8	1.49e+00	0	55	104	0	51	15539
2026-01-24 07:49:49.58	93.78	4.70	-40.3	-52.6	3.8	1.49e+00	0	55	104	0	51	15479
2026-01-24 07:49:52.62	93.48	4.86	-40.3	-52.6	3.8	1.49e+00	0	55	104	0	51	15476
2026-01-24 07:49:55.65	93.17	5.02	-40.3	-52.6	3.8	1.49e+00	0	55	104	0	51	15496
2026-01-24 07:49:58.68	92.87	5.18	-40.2	-52.6	3.8	1.49e+00	0	56	104	0	51	15479
2026-01-24 07:50:01.71	92.55	5.34	-40.1	-52.6	3.8	1.49e+00	0	55	104	0	51	15416
2026-01-24 07:50:04.74	92.24	5.51	-40.1	-52.6	3.8	1.49e+00	0	56	104	0	51	15489
2026-01-24 07:50:07.77	91.92	5.67	-40.2	-52.6	3.8	1.49e+00	0	56	104	0	51	15465
2026-01-24 07:50:10.80	91.60	5.83	-39.7	-52.5	3.8	1.49e+00	0	56	104	0	51	15360
2026-01-24 07:50:13.83	91.27	5.99	-40.3	-52.6	3.8	1.49e+00	0	56	104	0	51	15468
2026-01-24 07:50:16.87	90.94	6.16	-40.3	-52.6	3.8	1.49e+00	0	56	104	0	51	15473
2026-01-24 07:50:19.90	90.60	6.32	-40.3	-52.6	3.8	1.49e+00	0	56	104	0	51	15496
2026-01-24 07:50:22.93	90.27	6.48	-40.3	-52.6	3.8	1.49e+00	0	57	104	0	51	15469
2026-01-24 07:50:25.97	89.92	6.65	-40.3	-52.6	3.8	1.49e+00	0	57	104	0	51	15457
2026-01-24 07:50:29.00	89.58	6.81	-38.1	-52.3	3.9	1.49e+00	0	57	104	0	48	17721
2026-01-24 07:50:32.03	89.23	6.97	-40.2	-52.6	3.8	1.49e+00	0	57	104	0	51	15412
2026-01-24 07:50:35.06	88.88	7.14	-39.9	-52.6	3.8	1.49e+00	0	57	104	0	50	16346
2026-01-24 07:50:38.09	88.52	7.30	-40.2	-52.6	3.8	1.49e+00	0	57	104	0	50	16318
2026-01-24 07:50:41.12	88.16	7.46	-39.9	-52.6	3.8	1.49e+00	0	57	104	0	50	16341
2026-01-24 07:50:44.15	87.79	7.63	-39.9	-52.6	3.8	1.49e+00	0	57	104	0	50	16343
2026-01-24 07:50:47.18	87.42	7.79	-39.7	-52.5	3.8	1.49e+00	0	57	104	0	51	15353
2026-01-24 07:50:50.22	87.05	7.95	-40.3	-52.6	3.8	1.49e+00	0	58	104	0	51	15481
2026-01-24 07:50:53.25	86.67	8.12	-40.1	-52.7	3.8	1.49e+00	0	58	104	0	50	16506
2026-01-24 07:50:56.28	86.28	8.28	-40.4	-52.9	3.8	1.49e+00	0	58	104	0	51	15982
2026-01-24 07:50:59.30	85.90	8.44	-40.2	-52.6	3.8	1.49e+00	0	58	104	0	51	15449
2026-01-24 07:51:02.33	85.51	8.60	-40.1	-52.6	3.8	1.49e+00	0	58	104	0	50	16421
2026-01-24 07:51:05.36	85.11	8.77	-39.9	-52.7	3.8	1.49e+00	0	58	104	0	51	15690
2026-01-24 07:51:08.39	84.71	8.93	-39.6	-52.4	3.8	1.49e+00	0	58	104	0	50	16119
2026-01-24 07:51:11.42	84.30	9.09	-39.9	-52.4	3.8	1.49e+00	0	58	104	0	50	16106
2026-01-24 07:51:14.44	83.90	9.25	-40.0	-52.5	3.8	1.49e+00	0	58	104	0	50	16215
2026-01-24 07:51:17.47	83.48	9.41	-40.1	-52.5	3.8	1.49e+00	0	58	104	0	50	16216
2026-01-24 07:51:20.50	83.06	9.57	-40.1	-52.5	3.8	1.49e+00	0	58	104	0	51	15267
2026-01-24 07:51:23.53	82.64	9.73	-39.9	-52.3	3.8	1.49e+00	0	58	104	0	51	15049
2026-01-24 07:51:26.55	82.21	9.89	-39.9	-52.4	3.8	1.49e+00	0	58	104	0	51	15126
2026-01-24 07:51:29.58	81.78	10.05	-40.0	-52.5	3.8	1.49e+00	0	58	104	0	51	15255
2026-01-24 07:51:32.61	81.34	10.21	-40.1	-52.5	3.8	1.49e+00	0	59	104	0	51	15298
2026-01-24 07:51:35.64	80.90	10.37	-40.2	-52.6	3.8	1.49e+00	0	59	104	0	51	15456
2026-01-24 07:51:38.67	80.45	10.52	-40.2	-52.6	3.8	1.49e+00	0	59	104	0	51	15413
2026-01-24 07:51:41.70	80.00	10.68	-40.4	-52.7	3.8	1.49e+00	0	59	104	0	51	15699
2026-01-24 07:51:44.73	79.54	10.84	-40.3	-52.7	3.8	1.49e+00	0	59	104	0	51	15602
2026-01-24 07:51:47.75	79.08	10.99	-40.5	-52.8	3.8	1.49e+00	0	59	104	0	51	15932
2026-01-24 07:51:50.78	78.61	11.14	-40.5	-52.9	3.8	1.49e+00	0	59	104	0	51	15994
2026-01-24 07:51:53.81	78.14	11.30	-40.6	-52.9	3.8	1.49e+00	0	59	104	0	51	16109
2026-01-24 07:51:56.84	77.67	11.45	-40.5	-52.8	3.8	1.49e+00	0	59	104	0	52	15023
2026-01-24 07:51:59.86	77.18	11.60	-40.8	-53.2	3.8	1.49e+00	0	59	104	0	52	15583
2026-01-24 07:52:02.89	76.70	11.75	-40.9	-53.2	3.8	1.49e+00	0	59	104	0	52	15729
2026-01-24 07:52:05.92	76.21	11.90	-40.8	-53.2	3.8	1.49e+00	0	59	104	0	52	15620
2026-01-24 07:52:08.95	75.71	12.05	-40.8	-53.1	3.8	1.49e+00	0	59	104	0	52	15522
2026-01-24 07:52:11.98	75.21	12.19	-41.1	-53.4	3.8	1.49e+00	0	59	104	0	52	16080
2026-01-24 07:52:15.01	74.70	12.34	-41.0	-53.4	3.8	1.49e+00	0	59	104	0	52	15998
2026-01-24 07:52:18.03	74.19	12.48	-41.2	-53.4	3.8	1.49e+00	0	59	104	0	52	16102
2026-01-24 07:52:21.06	73.67	12.62	-41.1	-53.4	3.8	1.49e+00	0	60	104	0	52	16068
2026-01-24 07:52:24.09	73.15	12.77	-40.9	-53.3	3.8	1.49e+00	0	59	104	0	52	15842
2026-01-24 07:52:27.12	72.62	12.90	-41.0	-53.3	3.8	1.49e+00	0	60	104	0	52	15874
2026-01-24 07:52:30.14	72.09	13.04	-41.0	-53.3	3.8	1.49e+00	0	60	104	0	52	15906
2026-01-24 07:52:33.18	71.55	13.18	-40.9	-53.3	3.8	1.49e+00	0	60	104	0	53	14999
2026-01-24 07:52:36.20	71.01	13.31	-41.3	-53.6	3.8	1.49e+00	0	60	104	0	53	15531
2026-01-24 07:52:39.23	70.46	13.45	-41.0	-53.4	3.8	1.49e+00	0	60	104	0	53	15108
2026-01-24 07:52:42.26	69.91	13.58	-41.5	-52.4	3.8	1.49e+00	0	60	104	0	53	13552
2026-01-24 07:52:45.29	69.35	13.70	-41.5	-53.2	3.8	1.49e+00	0	60	104	0	53	14836
2026-01-24 07:52:48.32	68.79	13.83	-41.3	-50.5	3.9	1.46e+00	0	60	104	0	53	10844
2026-01-24 07:52:51.35	68.23	13.96	-41.3	-53.2	3.8	1.49e+00	0	60	104	0	54	13992
2026-01-24 07:52:54.38	67.65	14.08	-40.5	-46.7	6.2	3.24e-01	0	60	0	1048576	53	6969
2026-01-24 07:52:57.41	67.08	14.20	-40.3	-45.1	8.0	8.16e-02	0	60	0	10485760	52	6189
2026-01-24 07:53:00.43	66.50	14.32	-40.1	-44.0	9.5	1.66e-02	0	60	0	19922944	52	5462
2026-01-24 07:53:03.46	65.91	14.43	-39.7	-42.8	11.2	2.41e-03	0	60	0	29360128	51	5039
2026-01-24 07:53:06.49	65.32	14.54	-39.7	-42.7	11.4	7.38e-04	0	60	0	38797312	50	5272
2026-01-24 07:53:09.52	64.73	14.65	-39.6	-42.5	11.8	5.49e-04	0	60	0	48234496	50	5148
2026-01-24 07:53:12.55	64.13	14.76	-39.6	-42.5	12.1	2.82e-04	0	60	0	57671680	50	5102
2026-01-24 07:53:15.57	63.53	14.87	-39.7	-42.5	12.2	2.23e-04	0	60	0	67108864	50	5120
2026-01-24 07:53:18.60	62.92	14.97	-39.9	-42.6	12.2	2.07e-04	0	60	0	76546048	50	5214
2026-01-24 07:53:21.63	62.31	15.07	-39.8	-42.6	12.4	1.54e-04	0	60	0	85983232	50	5164
2026-01-24 07:53:24.66	61.69	15.16	-39.6	-42.2	12.9	6.79e-05	0	60	0	96468992	50	4945
2026-01-24 07:53:27.69	61.08	15.26	-39.7	-42.3	12.9	4.34e-05	0	60	0	105906176	50	5006
2026-01-24 07:53:30.72	60.45	15.35	-39.7	-42.3	12.9	4.50e-05	0	60	0	115343360	50	4989
2026-01-24 07:53:33.75	59.83	15.44	-39.8	-42.4	12.7	6.48e-05	0	60	0	124780544	50	5093
2026-01-24 07:53:36.78	59.19	15.52	-39.7	-42.2	13.0	3.89e-05	0	60	0	134217728	50	4965
2026-01-24 07:53:39.81	58.56	15.60	-39.5	-42.0	13.3	1.83e-05	0	60	0	143654912	50	4829
2026-01-24 07:53:42.84	57.92	15.68	-39.5	-42.0	13.3	1.75e-05	0	60	0	153092096	50	4820
2026-01-24 07:53:45.86	57.28	15.75	-39.6	-42.0	13.2	1.90e-05	0	60	0	162529280	50	4864
2026-01-24 07:53:48.89	56.64	15.82	-39.6	-42.1	13.2	2.36e-05	0	60	0	171966464	50	4906
2026-01-24 07:53:51.92	55.99	15.89	-39.5	-41.9	13.5	1.60e-05	0	60	0	181403648	50	4772
2026-01-24 07:53:54.95	55.34	15.96	-39.6	-42.0	13.2	1.90e-05	0	60	0	190840832	50	4859
2026-01-24 07:53:57.99	54.69	16.02	-39.7	-42.1	13.2	2.97e-05	0	60	0	200278016	50	4920
2026-01-24 07:54:01.01	54.04	16.07	-39.8	-42.3	13.1	4.11e-05	0	60	0	209715200	50	4990
2026-01-24 07:54:04.04	53.38	16.13	-39.6	-42.1	13.3	2.59e-05	0	60	0	219152384	50	4885
2026-01-24 07:54:07.07	52.72	16.18	-39.5	-41.8	13.5	9.90e-06	0	61	0	228589568	50	4754
2026-01-24 07:54:10.10	52.06	16.22	-39.5	-41.8	13.5	1.22e-05	0	60	0	238026752	50	4732
2026-01-24 07:54:13.13	51.39	16.26	-39.7	-42.2	13.2	1.83e-05	0	60	0	247463936	50	4942
2026-01-24 07:54:16.16	50.73	16.30	-40.0	-42.6	12.7	5.11e-05	0	61	0	256901120	50	5187
2026-01-24 07:54:19.19	50.06	16.33	-39.9	-42.4	12.9	5.41e-05	0	61	0	266338304	50	5100
2026-01-24 07:54:22.22	49.39	16.36	-39.9	-42.5	12.9	4.65e-05	0	61	0	275775488	50	5104
2026-01-24 07:54:25.25	48.72	16.39	-40.0	-42.5	12.9	5.34e-05	0	60	0	285212672	50	5137
2026-01-24 07:54:28.28	48.05	16.41	-39.9	-42.5	12.9	5.49e-05	0	61	0	294649856	50	5106
2026-01-24 07:54:31.31	47.38	16.43	-39.8	-42.3	13.2	2.74e-05	0	61	0	304087040	50	4989
2026-01-24 07:54:34.34	46.71	16.45	-39.7	-42.2	13.2	2.36e-05	0	60	0	313524224	50	4948
2026-01-24 07:54:37.37	46.04	16.46	-39.8	-42.3	13.1	2.67e-05	0	61	0	322961408	50	5018
2026-01-24 07:54:40.40	45.36	16.46	-39.9	-42.4	13.0	2.97e-05	0	61	0	332398592	50	5063
2026-01-24 07:54:43.43	44.69	16.47	-39.9	-42.5	12.9	5.95e-05	0	61	0	341835776	50	5121
2026-01-24 07:54:46.45	44.02	16.46	-39.7	-42.2	13.2	3.50e-05	0	61	0	351272960	50	4946
2026-01-24 07:54:49.49	43.34	16.46	-39.7	-42.1	13.3	1.98e-05	0	61	0	360710144	50	4898
2026-01-24 07:54:52.52	42.67	16.45	-39.6	-42.0	13.5	8.30e-06	0	61	0	370147328	50	4820
2026-01-24 07:54:55.55	42.00	16.43	-39.6	-42.0	13.5	1.14e-05	0	61	0	379584512	50	4816
2026-01-24 07:54:58.58	41.33	16.42	-39.7	-42.1	13.3	2.51e-05	0	61	0	389021696	50	4913
2026-01-24 07:55:01.61	40.66	16.39	-39.7	-42.2	13.3	2.67e-05	0	61	0	398458880	50	4930
2026-01-24 07:55:04.63	39.99	16.37	-39.6	-42.0	13.4	1.29e-05	0	61	0	407896064	50	4856
2026-01-24 07:55:07.66	39.32	16.34	-39.5	-41.8	13.6	7.60e-06	0	61	0	418381824	50	4736
2026-01-24 07:55:10.69	38.66	16.31	-39.6	-42.0	13.5	1.29e-05	0	61	0	426770432	50	4820
2026-01-24 07:55:13.72	37.99	16.27	-39.8	-42.3	13.2	3.28e-05	0	61	0	437256192	50	5006
2026-01-24 07:55:16.75	37.33	16.23	-39.9	-42.4	13.0	4.34e-05	0	61	0	445644800	50	5083
2026-01-24 07:55:19.78	36.67	16.18	-39.7	-42.1	13.3	2.28e-05	0	61	0	456130560	50	4891
2026-01-24 07:55:22.80	36.01	16.13	-39.7	-42.1	13.4	1.14e-05	0	61	0	465567744	50	4871
2026-01-24 07:55:25.83	35.35	16.08	-39.9	-42.4	13.0	3.81e-05	0	61	0	475004928	50	5077
2026-01-24 07:55:28.86	34.70	16.03	-39.9	-42.4	13.0	4.95e-05	0	61	0	484442112	50	5076
2026-01-24 07:55:31.89	34.05	15.97	-39.7	-42.1	13.3	1.60e-05	0	61	0	493879296	50	4904
2026-01-24 07:55:34.92	33.40	15.90	-39.7	-42.1	13.3	2.21e-05	0	61	0	503316480	50	4918
2026-01-24 07:55:37.95	32.75	15.84	-39.6	-42.0	13.4	1.22e-05	0	61	0	512753664	50	4854
2026-01-24 07:55:40.98	32.11	15.77	-39.7	-42.1	13.2	1.75e-05	0	61	0	522190848	50	4920
2026-01-24 07:55:44.01	31.47	15.69	-39.7	-42.1	13.3	1.37e-05	0	61	0	531628032	50	4910
2026-01-24 07:55:47.04	30.83	15.61	-39.7	-42.1	13.3	1.37e-05	0	61	0	541065216	50	4884
2026-01-24 07:55:50.07	30.20	15.53	-39.5	-41.9	13.5	6.10e-06	0	61	0	550502400	50	4761
2026-01-24 07:55:53.10	29.57	15.45	-39.6	-42.0	13.4	1.83e-05	0	61	0	559939584	50	4867
2026-01-24 07:55:56.13	28.94	15.36	-39.7	-42.1	13.2	1.90e-05	0	61	0	569376768	50	4918
2026-01-24 07:55:59.16	28.32	15.27	-39.8	-42.3	13.1	2.44e-05	0	61	0	578813952	50	4984
2026-01-24 07:56:02.19	27.70	15.18	-39.8	-42.3	13.1	4.27e-05	0	61	0	588251136	50	4985
2026-01-24 07:56:05.22	27.09	15.08	-39.6	-42.0	13.3	1.90e-05	0	61	0	597688320	50	4848
2026-01-24 07:56:08.25	26.48	14.99	-39.7	-42.1	13.2	2.28e-05	0	61	0	607125504	50	4916
2026-01-24 07:56:11.28	25.87	14.88	-39.8	-42.3	13.1	2.44e-05	0	61	0	616562688	50	4989
2026-01-24 07:56:14.31	25.27	14.78	-39.8	-42.3	13.0	4.57e-05	0	61	0	625999872	50	5028
2026-01-24 07:56:17.34	24.67	14.67	-39.8	-42.3	13.0	3.73e-05	0	61	0	635437056	50	5002
2026-01-24 07:56:20.37	24.08	14.56	-39.8	-42.3	13.0	4.19e-05	0	61	0	644874240	50	5023
2026-01-24 07:56:23.40	23.49	14.45	-39.7	-42.4	12.9	3.81e-05	0	61	0	654311424	50	5044
2026-01-24 07:56:26.42	22.91	14.34	-39.7	-42.5	12.7	6.71e-05	0	61	0	663748608	50	5150
2026-01-24 07:56:29.45	22.33	14.22	-39.6	-42.4	12.8	7.40e-05	0	61	0	673185792	50	5093
2026-01-24 07:56:32.48	21.75	14.10	-38.4	-42.3	12.7	6.56e-05	0	61	0	682622976	48	5633
2026-01-24 07:56:35.51	21.18	13.98	-39.1	-42.6	12.5	1.09e-04	0	61	0	692060160	48	5789
2026-01-24 07:56:38.54	20.62	13.85	-39.4	-42.4	12.7	7.78e-05	0	61	0	701497344	49	5374
2026-01-24 07:56:41.58	20.06	13.73	-39.3	-42.2	13.0	4.57e-05	0	61	0	710934528	49	5235
2026-01-24 07:56:44.60	19.50	13.60	-39.6	-42.3	12.9	4.50e-05	0	61	0	720371712	49	5284
2026-01-24 07:56:47.63	18.95	13.47	-39.8	-42.6	12.5	8.62e-05	0	61	0	729808896	50	5188
2026-01-24 07:56:50.66	18.41	13.34	-40.0	-42.7	12.4	1.61e-04	0	61	0	739246080	50	5249
2026-01-24 07:56:53.69	17.87	13.21	-39.9	-42.7	12.4	1.45e-04	0	61	0	748683264	50	5225
2026-01-24 07:56:56.71	17.33	13.07	-39.9	-42.7	12.4	1.33e-04	0	61	0	759169024	50	5235
2026-01-24 07:56:59.74	16.80	12.93	-40.1	-43.0	12.1	2.44e-04	0	61	0	767557632	50	5414
2026-01-24 07:57:02.77	16.28	12.79	-40.1	-43.1	11.9	3.80e-04	0	61	0	778043392	51	5165
2026-01-24 07:57:05.81	15.75	12.65	-40.2	-43.2	11.8	5.20e-04	0	61	0	787480576	51	5231
2026-01-24 07:57:08.84	15.24	12.51	-40.1	-43.0	11.9	4.91e-04	0	61	0	796917760	51	5121
2026-01-24 07:57:11.87	14.73	12.37	-39.9	-42.7	12.1	2.43e-04	0	61	0	806354944	51	4960
2026-01-24 07:57:14.90	14.22	12.22	-39.8	-42.7	12.1	2.49e-04	0	61	0	815792128	51	4943
2026-01-24 07:57:17.93	13.72	12.08	-39.9	-42.8	12.0	3.39e-04	0	61	0	825229312	51	4989
2026-01-24 07:57:20.96	13.23	11.93	-40.0	-43.0	11.6	6.97e-04	0	61	0	834666496	51	5132
2026-01-24 07:57:24.00	12.73	11.78	-40.1	-43.4	11.0	1.81e-03	0	61	0	844103680	51	5353
2026-01-24 07:57:27.03	12.25	11.63	-40.1	-43.4	10.7	2.58e-03	0	61	0	853540864	51	5400
2026-01-24 07:57:30.05	11.77	11.48	-39.9	-43.2	10.8	2.78e-03	0	61	0	862978048	51	5242
2026-01-24 07:57:33.08	11.30	11.33	-39.8	-43.3	10.3	4.89e-03	0	61	0	872415232	51	5329
2026-01-24 07:57:36.11	10.82	11.18	-40.5	-45.4	7.8	6.68e-02	0	61	0	881852416	51	6761
2026-01-24 07:57:39.14	10.36	11.02	-40.9	-48.1	5.2	5.57e-01	0	61	0	891289600	52	8743
2026-01-24 07:57:42.18	9.90	10.87	-41.1	-50.6	4.1	1.47e+00	0	61	104	893386752	52	11624
2026-01-24 07:57:45.20	9.44	10.71	-41.1	-52.3	3.8	1.49e+00	0	62	104	893386752	53	13337
2026-01-24 07:57:48.23	8.99	10.56	-41.1	-52.7	3.8	1.49e+00	0	61	104	893386752	54	13144
2026-01-24 07:57:51.26	8.55	10.40	-40.7	-52.7	3.8	1.49e+00	0	61	104	893386752	53	13988
2026-01-24 07:57:54.29	8.11	10.25	-40.5	-52.9	3.8	1.49e+00	0	61	104	893386752	52	15078
2026-01-24 07:57:57.32	7.67	10.09	-40.1	-52.4	3.8	1.49e+00	0	61	104	893386752	51	15133
2026-01-24 07:58:00.35	7.24	9.93	-39.8	-52.2	3.8	1.49e+00	0	61	104	893386752	51	14711
2026-01-24 07:58:03.38	6.82	9.77	-39.7	-52.1	3.8	1.49e+00	0	61	104	893386752	51	14544
2026-01-24 07:58:06.41	6.39	9.61	-39.7	-52.0	3.8	1.49e+00	0	61	104	893386752	51	14512
2026-01-24 07:58:09.43	5.98	9.45	-39.7	-52.1	3.8	1.49e+00	0	61	104	893386752	51	14556
2026-01-24 07:58:12.46	5.57	9.29	-39.7	-52.0	3.8	1.49e+00	0	62	104	893386752	51	14487
2026-01-24 07:58:15.50	5.16	9.13	-39.8	-52.1	3.8	1.49e+00	0	61	104	893386752	51	14688
2026-01-24 07:58:18.53	4.75	8.97	-39.9	-52.2	3.8	1.49e+00	0	61	104	893386752	51	14838
2026-01-24 07:58:21.55	4.36	8.81	-39.7	-52.1	3.8	1.49e+00	0	61	104	893386752	51	14633
2026-01-24 07:58:24.58	3.96	8.65	-39.8	-52.1	3.8	1.49e+00	0	62	104	893386752	51	14612
2026-01-24 07:58:27.61	3.57	8.48	-39.8	-52.1	3.8	1.49e+00	0	61	104	893386752	51	14648
2026-01-24 07:58:30.64	3.19	8.32	-39.8	-52.1	3.8	1.49e+00	0	61	104	893386752	51	14657
2026-01-24 07:58:33.67	2.81	8.16	-39.7	-52.0	3.8	1.49e+00	0	61	104	893386752	51	14487
2026-01-24 07:58:36.70	2.43	8.00	-39.8	-52.1	3.8	1.49e+00	0	62	104	893386752	51	14590
2026-01-24 07:58:39.72	2.06	7.83	-44.9	-57.4	3.8	1.49e+00	0	62	104	893386752	60	15973
2026-01-24 07:58:42.75	1.69	7.67	-45.3	-57.8	3.8	1.49e+00	0	62	104	893386752	61	15785
2026-01-24 07:58:45.78	1.33	7.51	-45.4	-57.9	3.8	1.49e+00	0	62	104	893386752	61	15971
2026-01-24 07:58:48.82	0.97	7.35	-45.3	-57.7	3.8	1.49e+00	0	61	104	893386752	61	15638
2026-01-24 07:58:51.85	0.61	7.18	-45.2	-57.5	3.8	1.49e+00	0	62	104	893386752	61	15349
2026-01-24 07:58:54.88	0.26	7.02	-45.1	-57.5	3.8	1.49e+00	0	62	104	893386752	61	15301
2026-01-24 07:58:57.91	359.92	6.86	-45.1	-57.5	3.8	1.49e+00	0	62	104	893386752	61	15258
2026-01-24 07:59:00.94	359.57	6.69	-45.1	-57.5	3.8	1.49e+00	0	62	104	893386752	61	15300
2026-01-24 07:59:03.98	359.23	6.53	-45.1	-57.4	3.8	1.49e+00	0	62	104	893386752	61	15219
2026-01-24 07:59:07.01	358.90	6.37	-45.1	-57.4	3.8	1.49e+00	0	61	104	893386752	60	16100
2026-01-24 07:59:10.04	358.57	6.21	-45.1	-57.4	3.8	1.49e+00	0	62	104	893386752	60	16111
2026-01-24 07:59:13.07	358.24	6.04	-45.1	-57.5	3.8	1.49e+00	0	62	104	893386752	60	16153
2026-01-24 07:59:16.10	357.91	5.88	-45.1	-57.4	3.8	1.49e+00	0	61	104	893386752	60	16108
2026-01-24 07:59:19.13	357.59	5.72	-45.1	-57.4	3.8	1.49e+00	0	62	104	893386752	60	16089
2026-01-24 07:59:22.16	357.28	5.56	-45.1	-57.4	3.8	1.49e+00	0	62	104	893386752	60	16093
2026-01-24 07:59:25.19	356.96	5.40	-45.1	-57.4	3.8	1.49e+00	0	62	104	893386752	60	16123
2026-01-24 07:59:28.22	356.66	5.23	-45.1	-57.4	3.8	1.49e+00	0	62	104	893386752	60	16061
2026-01-24 07:59:31.26	356.35	5.07	-45.0	-57.4	3.8	1.49e+00	0	62	104	893386752	60	16041
2026-01-24 07:59:34.29	356.05	4.91	-45.1	-57.4	3.8	1.49e+00	0	62	104	893386752	60	16040
2026-01-24 07:59:37.32	355.75	4.75	-45.1	-57.4	3.8	1.49e+00	0	62	104	893386752	60	16074
2026-01-24 07:59:40.35	355.45	4.59	-45.0	-57.4	3.8	1.49e+00	0	62	104	893386752	60	16045
2026-01-24 07:59:43.38	355.16	4.43	-45.1	-57.4	3.8	1.49e+00	0	62	104	893386752	60	16028
2026-01-24 07:59:46.41	354.87	4.27	-45.0	-57.4	3.8	1.49e+00	0	62	104	893386752	60	15965
2026-01-24 07:59:49.44	354.59	4.11	-45.0	-57.4	3.8	1.49e+00	0	62	104	893386752	60	16028
2026-01-24 07:59:52.47	354.30	3.95	-45.0	-57.4	3.8	1.49e+00	0	62	104	893386752	60	16014
2026-01-24 07:59:55.51	354.02	3.79	-45.0	-57.4	3.8	1.49e+00	0	62	104	893386752	60	16015
2026-01-24 07:59:58.54	353.75	3.63	-45.0	-57.4	3.8	1.49e+00	0	62	104	893386752	60	15993
2026-01-24 08:00:01.57	353.47	3.47	-45.0	-57.4	3.8	1.49e+00	0	62	104	893386752	60	15988
2026-01-24 08:00:04.60	353.20	3.31	-45.0	-57.4	3.8	1.49e+00	0	62	104	893386752	60	15998
2026-01-24 08:00:07.63	352.94	3.15	-45.0	-57.4	3.8	1.49e+00	0	62	104	893386752	60	16030
2026-01-24 08:00:10.67	352.67	3.00	-45.0	-57.4	3.8	1.49e+00	0	62	104	893386752	60	16013
2026-01-24 08:00:13.70	352.41	2.84	-45.0	-57.4	3.8	1.49e+00	0	62	104	893386752	60	15945
2026-01-24 08:00:16.73	352.15	2.68	-45.0	-57.4	3.8	1.49e+00	0	62	104	893386752	60	16030
2026-01-24 08:00:19.76	351.90	2.52	-44.9	-57.4	3.8	1.49e+00	0	62	104	893386752	60	16032
2026-01-24 08:00:22.79	351.65	2.37	-45.0	-57.4	3.8	1.49e+00	0	62	104	893386752	60	15973
2026-01-24 08:00:25.82	351.40	2.21	-45.0	-57.4	3.8	1.49e+00	0	62	104	893386752	60	15969
2026-01-24 08:00:28.85	351.15	2.06	-45.0	-57.4	3.8	1.49e+00	0	62	104	893386752	60	15995

#Closed at: 2026-01-24 08:00:30
#Recorded file [893 MB]: D:/lorett/data/31039_260124_104857.dat