passes_logs/2026/01/24/R2.0S_Moscow/R2.0S_Moscow__20260124_081751_SUOMI_NPP_rec.log

#Pass ID: 20260124_081751_SUOMI NPP
#Satellite: SUOMI NPP
#Configuration: NPP
#almurnet v.1.7.20251203
#Start time: 2026-01-24 08:17:53

#Version: 2.2.20231116
#Station: R2.0S_Moscow
#Location: 37.707566 lon 55.798166 lat
#TLE: 1 37849U 11061A   26023.63275593  .00000212  00000+0  12133-3 0  9990
#TLE: 2 37849  98.7820 325.6074 0002234  48.9695 311.1673 14.19528901737937

#Time	Az	El	Level	Level2	SNR	BER	BlckErr	Temp	State	Recorded	gain1	gain2
2026-01-24 08:17:53.45	110.53	2.11	-33.2	-46.1	3.8	1.50e+00	0	52	0	0	27	29341
2026-01-24 08:17:56.47	110.32	2.28	-29.3	-45.8	4.0	1.50e+00	0	52	104	0	32	21220
2026-01-24 08:17:59.51	110.11	2.45	-25.7	-44.0	3.8	1.50e+00	0	53	104	0	22	30674
2026-01-24 08:18:02.54	109.89	2.63	-24.8	-40.3	4.0	1.50e+00	0	53	104	0	19	23690
2026-01-24 08:18:05.57	109.68	2.80	-26.9	-43.2	3.9	1.50e+00	0	53	104	0	25	23471
2026-01-24 08:18:08.60	109.46	2.97	-23.8	-40.9	3.9	1.50e+00	0	53	104	0	18	26821
2026-01-24 08:18:11.63	109.24	3.14	-30.1	-44.8	3.9	1.50e+00	0	53	0	0	27	25217
2026-01-24 08:18:14.66	109.01	3.32	-32.1	-47.1	3.6	1.50e+00	0	54	104	0	24	39127
2026-01-24 08:18:17.70	108.78	3.49	-27.5	-43.1	3.9	1.50e+00	0	54	104	0	29	18467
2026-01-24 08:18:20.73	108.55	3.67	-31.9	-44.8	3.9	1.50e+00	0	54	104	0	26	26474
2026-01-24 08:18:23.76	108.32	3.85	-28.3	-46.6	3.9	1.50e+00	0	54	104	0	29	27695
2026-01-24 08:18:26.79	108.08	4.02	-27.5	-45.3	3.4	1.50e+00	0	54	104	0	26	28345
2026-01-24 08:18:29.82	107.85	4.20	-30.7	-48.0	3.5	1.50e+00	0	54	104	0	27	36445
2026-01-24 08:18:32.86	107.60	4.38	-24.7	-41.3	4.0	1.50e+00	0	55	104	0	24	19923
2026-01-24 08:18:35.89	107.36	4.56	-19.5	-39.0	3.8	1.50e+00	0	55	104	0	21	18096
2026-01-24 08:18:38.92	107.11	4.74	-26.6	-46.2	3.8	1.50e+00	0	55	104	0	29	26302
2026-01-24 08:18:41.95	106.86	4.92	-32.1	-47.1	3.9	1.50e+00	0	55	104	0	27	32883
2026-01-24 08:18:44.98	106.60	5.10	-22.4	-42.4	3.8	1.50e+00	0	56	104	0	28	17890
2026-01-24 08:18:48.01	106.35	5.28	-23.2	-44.1	3.8	1.50e+00	0	56	104	0	24	27429
2026-01-24 08:18:51.04	106.09	5.46	-33.2	-49.2	4.0	1.50e+00	0	55	104	0	37	23437
2026-01-24 08:18:54.08	105.82	5.65	-30.2	-42.1	3.8	1.50e+00	0	56	104	0	19	29343
2026-01-24 08:18:57.11	105.55	5.83	-24.1	-40.0	3.8	1.50e+00	0	56	104	0	19	22989
2026-01-24 08:19:00.14	105.28	6.02	-25.2	-40.9	3.8	1.50e+00	0	56	104	0	15	32126
2026-01-24 08:19:03.17	105.01	6.20	-25.2	-41.9	4.1	1.50e+00	0	56	104	0	32	13428
2026-01-24 08:19:06.20	104.73	6.39	-29.5	-47.6	3.9	1.50e+00	0	56	104	0	27	34597
2026-01-24 08:19:09.23	104.45	6.58	-33.0	-48.6	3.9	1.50e+00	0	56	104	0	30	32921
2026-01-24 08:19:12.26	104.16	6.76	-24.6	-40.7	3.6	1.50e+00	0	56	104	0	18	26298
2026-01-24 08:19:15.30	103.87	6.95	-26.2	-44.3	4.1	1.50e+00	0	57	104	0	27	23595
2026-01-24 08:19:18.33	103.58	7.14	-30.5	-44.7	4.0	1.50e+00	0	57	104	0	28	23473
2026-01-24 08:19:21.36	103.28	7.33	-16.6	-38.3	4.0	1.50e+00	0	57	104	0	10	31508
2026-01-24 08:19:24.39	102.98	7.52	-24.1	-45.4	4.0	1.50e+00	0	57	104	0	25	30168
2026-01-24 08:19:27.42	102.67	7.71	-23.6	-40.4	3.8	1.50e+00	0	57	104	0	13	33958
2026-01-24 08:19:30.45	102.36	7.90	-26.4	-43.2	4.1	1.46e+00	0	57	104	0	31	16560
2026-01-24 08:19:33.49	102.05	8.10	-31.3	-49.0	3.6	1.50e+00	0	57	104	0	31	32189
2026-01-24 08:19:36.52	101.73	8.29	-29.3	-43.9	4.0	1.50e+00	0	57	104	0	26	23978
2026-01-24 08:19:39.55	101.41	8.48	-32.4	-45.6	4.1	1.50e+00	0	57	104	0	34	18444
2026-01-24 08:19:42.58	101.08	8.68	-21.3	-39.1	3.7	1.50e+00	0	58	104	0	14	27487
2026-01-24 08:19:45.61	100.75	8.87	-32.2	-48.1	4.2	1.50e+00	0	57	104	0	33	25960
2026-01-24 08:19:48.63	100.41	9.07	-20.1	-39.2	3.8	1.50e+00	0	58	104	0	16	24885
2026-01-24 08:19:51.66	100.07	9.26	-30.1	-45.7	4.2	1.48e+00	0	58	104	0	33	19635
2026-01-24 08:19:54.69	99.73	9.46	-14.7	-37.0	3.8	1.50e+00	0	58	104	0	1	45650
2026-01-24 08:19:57.72	99.38	9.66	-32.2	-47.2	4.3	1.50e+00	0	58	0	0	30	28000
2026-01-24 08:20:00.75	99.02	9.85	-24.2	-41.6	4.0	1.50e+00	0	58	104	0	21	24684
2026-01-24 08:20:03.77	98.66	10.05	-34.1	-47.0	4.2	1.48e+00	0	58	104	0	33	22907
2026-01-24 08:20:06.80	98.30	10.25	-32.7	-48.4	4.6	1.48e+00	0	58	104	0	35	24124
2026-01-24 08:20:09.83	97.93	10.45	-32.9	-47.0	4.3	1.48e+00	0	58	104	0	34	21510
2026-01-24 08:20:12.85	97.55	10.65	-26.3	-40.2	3.9	1.50e+00	0	58	104	0	21	21017
2026-01-24 08:20:15.88	97.17	10.85	-34.6	-50.3	4.3	9.54e-01	0	58	0	0	40	22382
2026-01-24 08:20:18.91	96.79	11.05	-35.9	-51.8	4.1	1.50e+00	0	58	104	0	41	25187
2026-01-24 08:20:21.94	96.40	11.25	-35.7	-50.1	4.7	1.41e+00	0	59	0	0	43	18321
2026-01-24 08:20:24.97	96.00	11.45	-30.8	-51.9	4.0	1.48e+00	0	59	104	1048576	40	26906
2026-01-24 08:20:28.00	95.60	11.65	-27.8	-47.6	3.9	1.49e+00	0	59	104	1048576	41	15423
2026-01-24 08:20:31.02	95.19	11.85	-42.6	-52.0	5.1	1.85e-01	0	59	0	1048576	55	11522
2026-01-24 08:20:34.05	94.78	12.05	-41.4	-47.2	8.9	8.79e-02	0	59	0	3145728	53	7373
2026-01-24 08:20:37.08	94.36	12.26	-41.6	-47.6	8.5	3.41e-02	0	59	0	9437184	53	7789
2026-01-24 08:20:40.11	93.94	12.46	-41.2	-46.5	9.8	1.32e-02	0	59	0	14680064	53	6807
2026-01-24 08:20:43.14	93.50	12.66	-41.4	-47.0	9.3	2.26e-02	0	59	0	20971520	53	7274
2026-01-24 08:20:46.17	93.07	12.86	-41.5	-47.0	9.2	2.25e-02	0	59	0	26214400	53	7286
2026-01-24 08:20:49.19	92.63	13.06	-41.6	-47.5	8.7	3.63e-02	0	59	0	31457280	53	7717
2026-01-24 08:20:52.22	92.18	13.27	-41.3	-47.2	9.0	2.64e-02	0	59	0	37748736	53	7373
2026-01-24 08:20:55.25	91.72	13.47	-41.4	-47.0	9.1	2.21e-02	0	59	0	42991616	53	7286
2026-01-24 08:20:58.27	91.26	13.67	-41.4	-47.0	9.1	2.80e-02	0	59	0	49283072	53	7249
2026-01-24 08:21:01.30	90.79	13.87	-41.2	-46.5	9.5	1.35e-02	0	59	0	54525952	53	6876
2026-01-24 08:21:04.33	90.32	14.07	-41.4	-47.3	8.8	4.04e-02	0	59	0	59768832	53	7527
2026-01-24 08:21:07.36	89.84	14.27	-41.1	-46.4	9.5	1.29e-02	0	59	0	66060288	53	6785
2026-01-24 08:21:10.39	89.35	14.48	-41.4	-47.7	8.1	5.44e-02	0	59	0	71303168	53	7876
2026-01-24 08:21:13.42	88.85	14.68	-41.4	-47.5	8.3	5.68e-02	0	59	0	77594624	53	7699
2026-01-24 08:21:16.45	88.35	14.88	-41.6	-48.4	7.4	1.21e-01	0	60	0	82837504	53	8512
2026-01-24 08:21:19.47	87.85	15.07	-41.4	-48.1	7.5	9.90e-02	0	60	0	89128960	53	8257
2026-01-24 08:21:22.50	87.33	15.27	-41.5	-49.1	6.5	1.39e+00	0	60	104	93323264	54	8735
2026-01-24 08:21:25.53	86.81	15.47	-41.7	-50.6	5.3	1.01e+00	0	60	0	94371840	54	10336
2026-01-24 08:21:28.56	86.28	15.67	-41.4	-49.4	6.2	2.93e-01	0	59	0	100663296	54	9037
2026-01-24 08:21:31.59	85.74	15.86	-41.4	-48.8	6.8	2.23e-01	0	60	0	105906176	54	8372
2026-01-24 08:21:34.62	85.20	16.06	-42.2	-52.4	4.6	7.03e-01	0	60	0	109051904	54	12809
2026-01-24 08:21:37.65	84.65	16.25	-41.1	-47.7	7.8	1.14e-01	0	59	0	112197632	54	7402
2026-01-24 08:21:40.68	84.09	16.45	-41.4	-47.5	8.3	5.64e-02	0	60	0	117440512	54	7278
2026-01-24 08:21:43.71	83.53	16.64	-41.4	-47.4	8.4	4.57e-02	0	60	0	122683392	54	7140
2026-01-24 08:21:46.74	82.96	16.83	-41.2	-46.9	8.8	4.01e-02	0	60	0	128974848	54	6790
2026-01-24 08:21:49.76	82.38	17.02	-40.9	-46.2	9.6	1.42e-02	0	60	0	134217728	53	6632
2026-01-24 08:21:52.79	81.79	17.20	-41.0	-46.3	9.7	1.04e-02	0	60	0	140509184	53	6669
2026-01-24 08:21:55.82	81.20	17.39	-41.0	-46.2	9.7	1.18e-02	0	60	0	145752064	53	6612
2026-01-24 08:21:58.84	80.60	17.57	-40.7	-46.3	9.4	1.54e-02	0	60	0	150994944	53	6654
2026-01-24 08:22:01.87	79.99	17.75	-40.7	-46.8	8.6	3.93e-02	0	60	0	157286400	53	7044
2026-01-24 08:22:04.90	79.37	17.93	-40.8	-47.2	8.1	6.52e-02	0	60	0	162529280	53	7441
2026-01-24 08:22:07.93	78.75	18.11	-40.9	-47.0	8.5	4.86e-02	0	60	0	168820736	53	7242
2026-01-24 08:22:10.96	78.12	18.29	-41.0	-46.9	8.8	3.01e-02	0	60	0	174063616	53	7146
2026-01-24 08:22:13.99	77.48	18.46	-40.8	-46.1	9.5	2.31e-02	0	60	0	179306496	53	6568
2026-01-24 08:22:17.01	76.84	18.63	-40.9	-46.4	9.2	2.08e-02	0	60	0	185597952	53	6797
2026-01-24 08:22:20.04	76.19	18.80	-40.7	-46.2	9.6	1.77e-02	0	60	0	190840832	53	6587
2026-01-24 08:22:23.07	75.53	18.96	-40.7	-46.0	9.8	1.17e-02	0	60	0	197132288	53	6468
2026-01-24 08:22:26.10	74.86	19.12	-40.4	-45.2	10.6	3.98e-03	0	60	0	202375168	52	6252
2026-01-24 08:22:29.13	74.19	19.28	-40.5	-45.2	10.8	2.04e-03	0	60	0	208666624	52	6251
2026-01-24 08:22:32.16	73.51	19.44	-40.9	-45.6	10.6	3.10e-03	0	60	0	213909504	52	6555
2026-01-24 08:22:35.19	72.82	19.59	-41.0	-45.8	10.6	2.75e-03	0	60	0	219152384	52	6657
2026-01-24 08:22:38.21	72.13	19.74	-40.9	-45.6	10.8	2.92e-03	0	60	0	225443840	52	6561
2026-01-24 08:22:41.24	71.42	19.88	-41.1	-45.9	10.7	2.34e-03	0	60	0	230686720	52	6753
2026-01-24 08:22:44.27	70.72	20.03	-41.0	-45.1	11.9	4.81e-04	0	60	0	236978176	52	6168
2026-01-24 08:22:47.30	70.00	20.16	-40.9	-44.6	12.5	1.10e-04	0	60	0	242221056	52	5850
2026-01-24 08:22:50.33	69.28	20.30	-40.5	-43.9	13.4	1.44e-05	0	60	0	247463936	52	5392
2026-01-24 08:22:53.36	68.55	20.43	-40.7	-44.1	13.3	1.44e-05	0	60	0	253755392	52	5520
2026-01-24 08:22:56.39	67.82	20.55	-40.8	-44.2	13.4	1.44e-05	0	60	0	258998272	52	5544
2026-01-24 08:22:59.42	67.08	20.67	-40.8	-44.1	13.5	8.30e-06	0	60	0	265289728	52	5492
2026-01-24 08:23:02.45	66.34	20.79	-41.2	-44.9	12.8	4.04e-05	0	60	0	270532608	52	6010
2026-01-24 08:23:05.48	65.59	20.90	-41.5	-45.5	12.2	2.25e-04	0	60	0	276824064	53	6082
2026-01-24 08:23:08.51	64.83	21.01	-41.6	-45.7	11.9	3.83e-04	0	60	0	282066944	53	6244
2026-01-24 08:23:11.54	64.07	21.11	-41.8	-46.1	11.7	6.79e-04	0	60	0	287309824	54	6146
2026-01-24 08:23:14.57	63.30	21.21	-41.7	-46.0	11.7	6.03e-04	0	61	0	293601280	54	6084
2026-01-24 08:23:17.60	62.53	21.30	-41.4	-45.4	12.3	2.01e-04	0	60	0	298844160	54	5669
2026-01-24 08:23:20.63	61.76	21.39	-41.6	-45.7	12.0	2.44e-04	0	60	0	305135616	54	5908
2026-01-24 08:23:23.65	60.98	21.47	-42.0	-46.7	11.0	1.60e-03	0	60	0	310378496	54	6591
2026-01-24 08:23:26.68	60.20	21.55	-41.9	-46.3	11.3	1.18e-03	0	60	0	315621376	54	6332
2026-01-24 08:23:29.71	59.41	21.62	-41.6	-45.6	12.1	2.66e-04	0	60	0	321912832	54	5838
2026-01-24 08:23:32.74	58.62	21.68	-41.8	-46.2	11.5	7.61e-04	0	60	0	327155712	54	6260
2026-01-24 08:23:35.77	57.83	21.74	-41.5	-45.6	12.2	3.39e-04	0	60	0	333447168	54	5793
2026-01-24 08:23:38.80	57.03	21.80	-41.7	-45.9	11.8	4.87e-04	0	61	0	338690048	54	6018
2026-01-24 08:23:41.83	56.23	21.85	-42.1	-46.9	10.8	2.50e-03	0	60	0	344981504	54	6786
2026-01-24 08:23:44.86	55.43	21.89	-42.4	-47.7	10.0	6.54e-03	0	61	0	350224384	55	6985
2026-01-24 08:23:47.89	54.63	21.92	-42.3	-47.4	10.3	6.95e-03	0	61	0	355467264	55	6730
2026-01-24 08:23:50.92	53.82	21.96	-41.9	-46.4	11.3	1.24e-03	0	61	0	361758720	55	6037
2026-01-24 08:23:53.94	53.02	21.98	-41.4	-45.4	12.4	1.74e-04	0	60	0	367001600	54	5674
2026-01-24 08:23:56.97	52.21	22.00	-41.2	-44.9	12.9	3.73e-05	0	61	0	373293056	54	5359
2026-01-24 08:24:00.00	51.40	22.01	-41.2	-45.0	12.9	4.27e-05	0	61	0	378535936	54	5411
2026-01-24 08:24:03.03	50.59	22.02	-41.4	-45.3	12.6	9.07e-05	0	61	0	383778816	54	5612
2026-01-24 08:24:06.06	49.79	22.02	-41.6	-45.7	12.1	2.20e-04	0	61	0	390070272	54	5917
2026-01-24 08:24:09.09	48.98	22.01	-41.6	-45.6	12.2	2.28e-04	0	61	0	395313152	54	5807
2026-01-24 08:24:12.12	48.17	22.00	-41.2	-44.8	13.1	4.34e-05	0	61	0	401604608	54	5282
2026-01-24 08:24:15.15	47.36	21.98	-41.1	-44.6	13.2	2.13e-05	0	61	0	406847488	54	5207
2026-01-24 08:24:18.18	46.56	21.96	-41.2	-44.7	13.1	4.50e-05	0	61	0	413138944	54	5266
2026-01-24 08:24:21.20	45.75	21.93	-40.9	-44.2	13.6	4.50e-06	0	61	0	418381824	53	5253
2026-01-24 08:24:24.23	44.95	21.89	-41.1	-44.6	13.3	1.14e-05	0	61	0	423624704	53	5490
2026-01-24 08:24:27.26	44.15	21.85	-41.0	-44.3	13.6	9.10e-06	0	61	0	429916160	53	5305
2026-01-24 08:24:30.29	43.35	21.80	-40.7	-43.8	14.1	1.50e-06	0	61	0	435159040	53	4990
2026-01-24 08:24:33.32	42.56	21.75	-40.8	-44.1	13.8	1.50e-06	0	60	0	441450496	53	5162
2026-01-24 08:24:36.35	41.76	21.69	-41.0	-44.4	13.5	9.10e-06	0	61	0	446693376	53	5353
2026-01-24 08:24:39.38	40.97	21.63	-40.9	-44.3	13.7	6.80e-06	0	61	0	451936256	53	5280
2026-01-24 08:24:42.41	40.19	21.55	-40.8	-44.0	13.9	3.00e-06	0	61	0	458227712	53	5123
2026-01-24 08:24:45.44	39.41	21.48	-40.8	-44.0	13.9	1.50e-06	0	61	0	463470592	53	5148
2026-01-24 08:24:48.46	38.63	21.40	-41.2	-44.8	13.1	3.58e-05	0	61	0	469762048	53	5624
2026-01-24 08:24:51.49	37.86	21.31	-41.5	-45.3	12.5	9.15e-05	0	61	0	475004928	53	5963
2026-01-24 08:24:54.52	37.09	21.22	-41.2	-44.9	13.0	2.59e-05	0	61	0	480247808	53	5661
2026-01-24 08:24:57.55	36.32	21.12	-41.3	-45.0	12.9	4.95e-05	0	61	0	486539264	53	5744
2026-01-24 08:25:00.58	35.56	21.02	-41.7	-45.8	12.1	1.33e-04	0	61	0	491782144	53	6295
2026-01-24 08:25:03.61	34.81	20.91	-42.0	-46.5	11.4	1.24e-03	0	61	0	498073600	54	6428
2026-01-24 08:25:06.63	34.06	20.80	-42.0	-46.5	11.3	8.74e-04	0	61	0	503316480	54	6454
2026-01-24 08:25:09.67	33.32	20.69	-41.8	-46.1	11.8	5.71e-04	0	61	0	509607936	54	6133
2026-01-24 08:25:12.69	32.58	20.57	-41.7	-45.9	11.9	4.03e-04	0	61	0	514850816	54	6017
2026-01-24 08:25:15.72	31.85	20.44	-41.8	-46.0	11.8	6.07e-04	0	61	0	520093696	54	6118
2026-01-24 08:25:18.75	31.13	20.31	-41.5	-45.4	12.4	2.04e-04	0	61	0	526385152	54	5657
2026-01-24 08:25:21.78	30.41	20.18	-41.4	-45.1	12.6	1.22e-04	0	61	0	531628032	54	5520
2026-01-24 08:25:24.81	29.69	20.04	-41.2	-44.8	13.1	4.88e-05	0	61	0	537919488	54	5283
2026-01-24 08:25:27.84	28.99	19.90	-41.5	-45.4	12.4	6.10e-05	0	61	0	543162368	54	5680
2026-01-24 08:25:30.86	28.29	19.76	-41.9	-46.3	11.4	6.64e-04	0	61	0	548405248	54	6321
2026-01-24 08:25:33.89	27.60	19.61	-42.1	-47.0	10.8	2.53e-03	0	61	0	554696704	54	6819
2026-01-24 08:25:36.92	26.91	19.46	-42.1	-46.8	10.9	2.13e-03	0	61	0	559939584	54	6667
2026-01-24 08:25:39.95	26.23	19.30	-42.7	-48.6	9.1	1.68e-02	0	61	0	566231040	55	7725
2026-01-24 08:25:42.98	25.56	19.14	-42.7	-48.3	9.4	2.12e-02	0	61	0	571473920	56	7115
2026-01-24 08:25:46.01	24.90	18.98	-42.2	-46.9	10.9	2.65e-03	0	61	0	577765376	56	6040
2026-01-24 08:25:49.03	24.24	18.82	-41.4	-45.4	12.3	1.67e-04	0	61	0	583008256	54	5703
2026-01-24 08:25:52.06	23.59	18.65	-41.0	-44.6	13.2	3.05e-05	0	61	0	588251136	54	5172
2026-01-24 08:25:55.09	22.95	18.48	-41.0	-44.6	13.1	2.67e-05	0	61	0	594542592	53	5492
2026-01-24 08:25:58.12	22.31	18.31	-41.0	-44.7	13.0	4.73e-05	0	61	0	599785472	53	5545
2026-01-24 08:26:01.15	21.68	18.14	-40.8	-44.2	13.5	1.29e-05	0	61	0	606076928	53	5240
2026-01-24 08:26:04.18	21.06	17.96	-41.2	-45.0	12.8	3.81e-05	0	61	0	611319808	53	5736
2026-01-24 08:26:07.20	20.45	17.78	-41.9	-46.4	11.2	7.35e-04	0	61	0	616562688	54	6403
2026-01-24 08:26:10.23	19.84	17.60	-41.9	-46.7	10.9	2.53e-03	0	61	0	622854144	54	6589
2026-01-24 08:26:13.26	19.24	17.42	-41.8	-46.3	11.3	1.03e-03	0	61	0	628097024	54	6309
2026-01-24 08:26:16.28	18.65	17.23	-41.4	-45.4	12.2	2.43e-04	0	61	0	634388480	54	5722
2026-01-24 08:26:19.31	18.07	17.05	-41.3	-45.2	12.4	1.24e-04	0	61	0	639631360	54	5548
2026-01-24 08:26:22.34	17.49	16.86	-41.1	-44.7	12.9	5.95e-05	0	61	0	644874240	54	5276
2026-01-24 08:26:25.37	16.92	16.67	-41.4	-45.5	12.1	2.30e-04	0	61	0	651165696	54	5757
2026-01-24 08:26:28.40	16.36	16.48	-41.7	-46.2	11.3	1.15e-03	0	61	0	656408576	54	6253
2026-01-24 08:26:31.43	15.81	16.29	-41.5	-45.6	11.9	4.32e-04	0	61	0	662700032	54	5826
2026-01-24 08:26:34.46	15.26	16.10	-41.5	-45.8	11.7	5.80e-04	0	61	0	667942912	54	5955
2026-01-24 08:26:37.49	14.72	15.90	-41.6	-46.0	11.6	7.77e-04	0	61	0	674234368	54	6063
2026-01-24 08:26:40.52	14.18	15.71	-41.5	-45.7	11.7	6.37e-04	0	61	0	679477248	54	5903
2026-01-24 08:26:43.54	13.66	15.51	-41.2	-45.2	12.2	3.50e-04	0	61	0	684720128	54	5545
2026-01-24 08:26:46.57	13.14	15.31	-41.0	-44.7	12.7	9.00e-05	0	61	0	691011584	53	5558
2026-01-24 08:26:49.60	12.63	15.12	-41.1	-45.0	12.3	1.33e-04	0	61	0	696254464	53	5762
2026-01-24 08:26:52.63	12.12	14.92	-40.9	-44.5	12.8	9.91e-05	0	61	0	702545920	53	5459
2026-01-24 08:26:55.66	11.62	14.72	-40.5	-43.9	13.4	1.22e-05	0	61	0	707788800	52	5389
2026-01-24 08:26:58.68	11.13	14.52	-40.5	-43.9	13.3	1.06e-05	0	61	0	713031680	52	5357
2026-01-24 08:27:01.71	10.65	14.32	-40.6	-44.2	12.9	5.26e-05	0	61	0	719323136	52	5546
2026-01-24 08:27:04.74	10.17	14.12	-40.9	-44.8	12.1	1.94e-04	0	61	0	724566016	52	5982
2026-01-24 08:27:07.77	9.69	13.92	-40.9	-45.0	11.9	4.02e-04	0	61	0	730857472	52	6085
2026-01-24 08:27:10.80	9.23	13.72	-40.5	-44.2	12.6	1.07e-04	0	61	0	736100352	52	5544
2026-01-24 08:27:13.83	8.77	13.52	-40.5	-44.3	12.4	9.61e-05	0	61	0	742391808	52	5637
2026-01-24 08:27:16.85	8.32	13.32	-40.4	-44.3	12.2	1.88e-04	0	61	0	747634688	52	5614
2026-01-24 08:27:19.89	7.87	13.11	-40.8	-45.5	10.8	2.37e-03	0	61	0	752877568	52	6439
2026-01-24 08:27:22.91	7.43	12.91	-40.7	-45.6	10.4	5.28e-03	0	61	0	759169024	52	6514
2026-01-24 08:27:25.95	7.00	12.71	-40.6	-45.3	10.7	3.32e-03	0	61	0	764411904	52	6299
2026-01-24 08:27:28.98	6.57	12.51	-40.0	-44.3	11.3	2.91e-03	0	61	0	770703360	52	5620
2026-01-24 08:27:32.00	6.15	12.31	-39.8	-44.3	11.0	1.99e-03	0	61	0	775946240	51	5936
2026-01-24 08:27:35.03	5.73	12.11	-40.4	-46.5	8.4	4.03e-02	0	61	0	781189120	51	7712
2026-01-24 08:27:38.06	5.32	11.91	-40.9	-50.0	5.2	4.52e-01	0	61	0	787480576	52	10831
2026-01-24 08:27:41.09	4.91	11.71	-40.9	-52.8	4.0	1.41e+00	0	61	0	791674880	52	15012
2026-01-24 08:27:44.12	4.51	11.51	-40.7	-55.2	3.8	1.49e+00	0	61	104	791674880	52	19713
2026-01-24 08:27:47.14	4.12	11.31	-40.7	-55.2	3.8	1.49e+00	0	61	104	791674880	53	18683
2026-01-24 08:27:50.17	3.73	11.11	-40.7	-55.3	3.8	1.49e+00	0	61	104	791674880	52	19846
2026-01-24 08:27:53.20	3.35	10.91	-40.1	-54.7	3.8	1.49e+00	0	61	104	791674880	51	19627
2026-01-24 08:27:56.23	2.97	10.71	-39.9	-54.4	3.8	1.49e+00	0	61	104	791674880	51	19105
2026-01-24 08:27:59.26	2.60	10.51	-40.3	-54.8	3.8	1.49e+00	0	61	104	791674880	51	20041
2026-01-24 08:28:02.29	2.23	10.31	-40.1	-54.7	3.8	1.49e+00	0	62	104	791674880	51	19759
2026-01-24 08:28:05.31	1.87	10.11	-40.0	-54.6	3.8	1.49e+00	0	61	104	791674880	51	19509
2026-01-24 08:28:08.34	1.52	9.92	-39.9	-54.4	3.8	1.49e+00	0	61	104	791674880	51	19043
2026-01-24 08:28:11.38	1.16	9.72	-39.9	-54.4	3.8	1.49e+00	0	61	104	791674880	51	19159
2026-01-24 08:28:14.40	0.82	9.52	-39.9	-54.5	3.8	1.49e+00	0	61	104	791674880	51	19185
2026-01-24 08:28:17.43	0.47	9.33	-39.9	-54.5	3.8	1.49e+00	0	62	104	791674880	51	19183
2026-01-24 08:28:20.46	0.14	9.13	-39.9	-54.4	3.8	1.49e+00	0	61	104	791674880	51	19102
2026-01-24 08:28:23.49	359.80	8.94	-39.9	-54.5	3.8	1.49e+00	0	62	104	791674880	51	19218
2026-01-24 08:28:26.52	359.48	8.74	-39.9	-54.5	3.8	1.49e+00	0	61	104	791674880	51	19187
2026-01-24 08:28:29.55	359.15	8.55	-39.9	-54.4	3.8	1.49e+00	0	61	104	791674880	51	19135
2026-01-24 08:28:32.58	358.83	8.36	-39.8	-54.3	3.8	1.49e+00	0	61	104	791674880	51	18918
2026-01-24 08:28:35.61	358.52	8.16	-39.8	-54.3	3.8	1.49e+00	0	62	104	791674880	51	18869
2026-01-24 08:28:38.64	358.20	7.97	-39.9	-54.4	3.8	1.49e+00	0	61	104	791674880	51	19106
2026-01-24 08:28:41.67	357.90	7.78	-44.9	-59.6	3.8	1.49e+00	0	62	104	791674880	60	20706
2026-01-24 08:28:44.70	357.60	7.59	-45.3	-60.0	3.8	1.49e+00	0	61	104	791674880	61	20502
2026-01-24 08:28:47.73	357.30	7.40	-45.3	-60.0	3.8	1.49e+00	0	61	104	791674880	61	20425
2026-01-24 08:28:50.76	357.00	7.21	-45.3	-59.9	3.8	1.49e+00	0	61	104	791674880	61	20121
2026-01-24 08:28:53.79	356.71	7.02	-45.3	-59.8	3.8	1.49e+00	0	61	104	791674880	61	20062
2026-01-24 08:28:56.82	356.42	6.84	-45.2	-59.7	3.8	1.49e+00	0	61	104	791674880	61	19817
2026-01-24 08:28:59.86	356.14	6.65	-45.2	-59.7	3.8	1.49e+00	0	62	104	791674880	61	19791
2026-01-24 08:29:02.89	355.86	6.46	-45.1	-59.7	3.8	1.49e+00	0	62	104	791674880	61	19814
2026-01-24 08:29:05.91	355.59	6.28	-45.1	-59.7	3.8	1.49e+00	0	61	104	791674880	60	20953
2026-01-24 08:29:08.94	355.32	6.09	-45.1	-59.7	3.8	1.49e+00	0	61	104	791674880	60	20855
2026-01-24 08:29:11.98	355.05	5.91	-45.1	-59.7	3.8	1.49e+00	0	62	104	791674880	60	20857
2026-01-24 08:29:15.01	354.78	5.72	-45.1	-59.7	3.8	1.49e+00	0	62	104	791674880	60	20838
2026-01-24 08:29:18.04	354.52	5.54	-45.1	-59.7	3.8	1.49e+00	0	62	104	791674880	60	20839
2026-01-24 08:29:21.07	354.26	5.36	-45.1	-59.7	3.8	1.49e+00	0	61	104	791674880	60	20796
2026-01-24 08:29:24.10	354.01	5.18	-45.1	-59.6	3.8	1.49e+00	0	62	104	791674880	60	20763
2026-01-24 08:29:27.13	353.76	5.00	-44.8	-59.6	3.8	1.49e+00	0	61	104	791674880	60	20775
2026-01-24 08:29:30.16	353.51	4.82	-45.1	-59.6	3.8	1.49e+00	0	61	104	791674880	60	20752
2026-01-24 08:29:33.20	353.26	4.64	-45.1	-59.7	3.8	1.49e+00	0	62	104	791674880	60	20792
2026-01-24 08:29:36.23	353.02	4.46	-45.1	-59.6	3.8	1.49e+00	0	62	104	791674880	60	20742
2026-01-24 08:29:39.26	352.78	4.28	-44.7	-59.6	3.8	1.49e+00	0	62	104	791674880	60	20707
2026-01-24 08:29:42.29	352.55	4.10	-45.0	-59.6	3.8	1.49e+00	0	62	104	791674880	60	20670
2026-01-24 08:29:45.32	352.31	3.93	-45.0	-59.6	3.8	1.49e+00	0	61	104	791674880	60	20661
2026-01-24 08:29:48.35	352.08	3.75	-45.0	-59.6	3.8	1.49e+00	0	62	104	791674880	60	20686
2026-01-24 08:29:51.38	351.86	3.58	-45.0	-59.6	3.8	1.49e+00	0	61	104	791674880	60	20672
2026-01-24 08:29:54.42	351.63	3.40	-45.0	-59.6	3.8	1.49e+00	0	62	104	791674880	60	20673
2026-01-24 08:29:57.45	351.41	3.23	-45.0	-59.6	3.8	1.49e+00	0	61	104	791674880	60	20640
2026-01-24 08:30:00.48	351.19	3.05	-45.0	-59.6	3.8	1.49e+00	0	61	104	791674880	60	20655
2026-01-24 08:30:03.51	350.98	2.88	-45.0	-59.6	3.8	1.49e+00	0	61	104	791674880	60	20606
2026-01-24 08:30:06.54	350.76	2.71	-45.0	-59.6	3.8	1.49e+00	0	61	104	791674880	60	20615
2026-01-24 08:30:09.57	350.55	2.54	-45.0	-59.6	3.8	1.49e+00	0	61	104	791674880	60	20602
2026-01-24 08:30:12.60	350.34	2.37	-44.8	-59.6	3.8	1.49e+00	0	61	104	791674880	60	20628
2026-01-24 08:30:15.63	350.14	2.20	-45.0	-59.6	3.8	1.49e+00	0	61	104	791674880	60	20660
2026-01-24 08:30:18.66	349.94	2.03	-45.0	-59.6	3.8	1.49e+00	0	61	104	791674880	60	20598

#Closed at: 2026-01-24 08:30:20
#Recorded file [791 MB]: D:/lorett/data/31039_260124_111753.dat