passes_logs/2026/01/24/R2.0S_Moscow/R2.0S_Moscow__20260124_113818_SUOMI_NPP_rec.log

#Pass ID: 20260124_113818_SUOMI NPP
#Satellite: SUOMI NPP
#Configuration: NPP
#almurnet v.1.7.20251203
#Start time: 2026-01-24 11:38:19

#Version: 2.2.20231116
#Station: R2.0S_Moscow
#Location: 37.707566 lon 55.798166 lat
#TLE: 1 37849U 11061A   26023.63275593  .00000212  00000+0  12133-3 0  9990
#TLE: 2 37849  98.7820 325.6074 0002234  48.9695 311.1673 14.19528901737937

#Time	Az	El	Level	Level2	SNR	BER	BlckErr	Temp	State	Recorded	gain1	gain2
2026-01-24 11:38:19.91	210.74	2.06	-44.1	-58.5	3.8	1.49e+00	0	52	0	0	59	19335
2026-01-24 11:38:22.93	210.97	2.23	-44.1	-58.5	3.8	1.49e+00	0	53	104	0	59	19307
2026-01-24 11:38:25.96	211.20	2.39	-44.1	-58.5	3.8	1.49e+00	0	53	104	0	59	19344
2026-01-24 11:38:29.00	211.44	2.56	-44.1	-58.5	3.8	1.49e+00	0	53	104	0	59	19301
2026-01-24 11:38:32.03	211.68	2.72	-44.0	-58.5	3.8	1.49e+00	0	53	104	0	59	19302
2026-01-24 11:38:35.06	211.92	2.89	-44.1	-58.5	3.8	1.49e+00	0	53	104	0	59	19302
2026-01-24 11:38:38.09	212.17	3.05	-44.0	-58.5	3.8	1.49e+00	0	54	104	0	59	19305
2026-01-24 11:38:41.12	212.42	3.22	-44.0	-58.5	3.8	1.49e+00	0	54	104	0	59	19260
2026-01-24 11:38:44.15	212.67	3.39	-44.0	-58.5	3.8	1.49e+00	0	54	104	0	59	19238
2026-01-24 11:38:47.18	212.92	3.55	-44.0	-58.5	3.8	1.49e+00	0	54	104	0	59	19298
2026-01-24 11:38:50.21	213.18	3.72	-44.0	-58.5	3.8	1.49e+00	0	54	104	0	59	19277
2026-01-24 11:38:53.24	213.44	3.89	-44.0	-58.5	3.8	1.49e+00	0	54	104	0	59	19226
2026-01-24 11:38:56.28	213.70	4.06	-44.0	-58.5	3.8	1.49e+00	0	55	104	0	59	19273
2026-01-24 11:38:59.30	213.96	4.23	-44.0	-58.5	3.8	1.49e+00	0	55	104	0	59	19253
2026-01-24 11:39:02.34	214.23	4.40	-44.0	-58.5	3.8	1.49e+00	0	55	104	0	59	19274
2026-01-24 11:39:05.37	214.50	4.57	-44.0	-58.5	3.8	1.49e+00	0	55	104	0	59	19229
2026-01-24 11:39:08.39	214.77	4.75	-44.0	-58.5	3.8	1.49e+00	0	55	104	0	59	19240
2026-01-24 11:39:11.42	215.05	4.92	-44.0	-58.5	3.8	1.49e+00	0	55	104	0	59	19218
2026-01-24 11:39:14.45	215.33	5.09	-44.0	-58.4	3.8	1.49e+00	0	56	104	0	59	19135
2026-01-24 11:39:17.49	215.62	5.27	-44.0	-58.4	3.8	1.49e+00	0	56	104	0	59	19110
2026-01-24 11:39:20.52	215.90	5.44	-44.0	-58.4	3.8	1.49e+00	0	56	104	0	59	19006
2026-01-24 11:39:23.55	216.19	5.61	-44.0	-58.3	3.8	1.49e+00	0	56	104	0	59	18819
2026-01-24 11:39:26.58	216.49	5.79	-44.0	-58.2	3.8	1.49e+00	0	56	104	0	59	18675
2026-01-24 11:39:29.61	216.78	5.97	-44.0	-58.1	3.8	1.49e+00	0	56	104	0	59	18470
2026-01-24 11:39:32.64	217.08	6.14	-44.0	-57.8	3.8	1.49e+00	0	56	104	0	59	17830
2026-01-24 11:39:35.67	217.39	6.32	-43.9	-57.2	3.8	1.49e+00	0	57	104	0	59	16605
2026-01-24 11:39:38.70	217.69	6.50	-43.9	-56.0	3.8	1.49e+00	0	56	104	0	59	14439
2026-01-24 11:39:41.73	218.00	6.67	-43.7	-54.2	4.4	1.33e+00	0	57	0	0	59	11747
2026-01-24 11:39:44.75	218.32	6.85	-43.6	-52.9	5.0	7.45e-01	0	57	0	6291456	59	10118
2026-01-24 11:39:47.79	218.64	7.03	-43.5	-52.7	5.1	6.39e-01	0	57	0	11534336	58	10480
2026-01-24 11:39:50.82	218.96	7.21	-43.7	-53.7	4.6	8.53e-01	0	57	0	17825792	58	11801
2026-01-24 11:39:53.85	219.29	7.39	-43.6	-53.6	4.6	9.37e-01	0	57	0	23068672	58	11682
2026-01-24 11:39:56.88	219.62	7.57	-43.4	-52.1	5.4	6.27e-01	0	57	0	28311552	58	9818
2026-01-24 11:39:59.91	219.95	7.75	-43.0	-49.9	7.3	1.60e-01	0	57	0	34603008	58	7565
2026-01-24 11:40:02.94	220.29	7.94	-42.6	-48.6	8.5	5.53e-02	0	57	0	39845888	57	6909
2026-01-24 11:40:05.97	220.63	8.12	-42.5	-47.8	9.5	2.20e-02	0	57	0	46137344	56	6697
2026-01-24 11:40:09.00	220.98	8.30	-43.2	-50.2	7.2	9.67e-02	0	58	0	49283072	57	8327
2026-01-24 11:40:12.02	221.33	8.48	-42.4	-47.7	9.7	1.32e-02	0	58	0	54525952	56	6573
2026-01-24 11:40:15.05	221.68	8.67	-42.3	-47.3	10.1	7.52e-03	0	58	0	60817408	56	6278
2026-01-24 11:40:18.08	222.04	8.85	-42.2	-47.0	10.4	4.46e-03	0	58	0	66060288	56	6082
2026-01-24 11:40:21.11	222.40	9.03	-42.1	-46.6	10.9	2.12e-03	0	58	0	71303168	56	5813
2026-01-24 11:40:24.14	222.77	9.22	-42.0	-46.5	11.0	2.39e-03	0	58	0	77594624	56	5740
2026-01-24 11:40:27.17	223.14	9.40	-41.8	-46.1	11.3	1.34e-03	0	58	0	82837504	55	5794
2026-01-24 11:40:30.19	223.52	9.59	-41.8	-46.0	11.3	1.31e-03	0	58	0	89128960	55	5788
2026-01-24 11:40:33.22	223.90	9.77	-41.8	-46.1	11.3	1.28e-03	0	58	0	94371840	55	5854
2026-01-24 11:40:36.25	224.29	9.96	-42.0	-46.5	10.8	2.12e-03	0	58	0	100663296	55	6118
2026-01-24 11:40:39.28	224.68	10.14	-41.9	-46.4	11.0	2.16e-03	0	59	0	105906176	55	6034
2026-01-24 11:40:42.31	225.08	10.33	-41.9	-46.3	11.1	1.49e-03	0	59	0	111149056	55	5972
2026-01-24 11:40:45.34	225.48	10.52	-41.9	-46.3	11.2	1.06e-03	0	59	0	117440512	55	5950
2026-01-24 11:40:48.37	225.88	10.70	-41.9	-46.2	11.2	1.09e-03	0	59	0	122683392	55	5907
2026-01-24 11:40:51.40	226.29	10.89	-41.9	-46.2	11.3	1.32e-03	0	59	0	128974848	55	5868
2026-01-24 11:40:54.42	226.71	11.08	-41.8	-46.0	11.5	8.94e-04	0	59	0	134217728	55	5785
2026-01-24 11:40:57.45	227.13	11.26	-41.8	-45.9	11.6	7.05e-04	0	59	0	139460608	55	5709
2026-01-24 11:41:00.48	227.56	11.45	-41.6	-45.6	11.9	5.38e-04	0	59	0	145752064	55	5494
2026-01-24 11:41:03.51	227.99	11.64	-41.7	-45.7	11.8	4.42e-04	0	59	0	150994944	55	5577
2026-01-24 11:41:06.54	228.43	11.82	-41.8	-45.9	11.7	6.50e-04	0	59	0	157286400	55	5683
2026-01-24 11:41:09.57	228.87	12.01	-41.8	-45.9	11.7	6.19e-04	0	59	0	162529280	55	5692
2026-01-24 11:41:12.59	229.31	12.19	-41.9	-46.1	11.5	8.23e-04	0	59	0	168820736	55	5800
2026-01-24 11:41:15.62	229.77	12.38	-41.9	-46.2	11.4	7.57e-04	0	59	0	174063616	55	5856
2026-01-24 11:41:18.65	230.23	12.57	-41.9	-46.1	11.5	7.25e-04	0	59	0	179306496	55	5796
2026-01-24 11:41:21.67	230.69	12.75	-41.8	-46.0	11.7	6.69e-04	0	59	0	185597952	55	5725
2026-01-24 11:41:24.70	231.16	12.94	-41.8	-45.9	11.7	5.58e-04	0	59	0	190840832	55	5694
2026-01-24 11:41:27.73	231.64	13.12	-41.7	-45.6	12.0	3.32e-04	0	59	0	197132288	55	5520
2026-01-24 11:41:30.76	232.12	13.31	-41.6	-45.3	12.4	1.93e-04	0	59	0	202375168	55	5334
2026-01-24 11:41:33.79	232.61	13.49	-41.4	-45.1	12.6	7.78e-05	0	60	0	207618048	54	5484
2026-01-24 11:41:36.81	233.10	13.68	-41.4	-45.0	12.7	9.68e-05	0	60	0	213909504	54	5430
2026-01-24 11:41:39.84	233.60	13.86	-41.4	-45.1	12.6	1.20e-04	0	60	0	219152384	54	5474
2026-01-24 11:41:42.87	234.11	14.04	-41.5	-45.3	12.4	1.55e-04	0	59	0	225443840	54	5619
2026-01-24 11:41:45.90	234.62	14.22	-41.6	-45.5	12.2	2.20e-04	0	60	0	230686720	54	5737
2026-01-24 11:41:48.93	235.14	14.40	-41.7	-45.6	12.1	1.90e-04	0	59	0	236978176	54	5823
2026-01-24 11:41:51.96	235.66	14.58	-41.9	-46.1	11.7	4.44e-04	0	60	0	242221056	54	6143
2026-01-24 11:41:54.99	236.19	14.76	-41.9	-46.1	11.7	6.83e-04	0	60	0	247463936	54	6134
2026-01-24 11:41:58.02	236.73	14.94	-41.6	-45.4	12.3	1.99e-04	0	60	0	253755392	54	5688
2026-01-24 11:42:01.04	237.27	15.12	-41.6	-45.4	12.4	9.68e-05	0	60	0	258998272	54	5693
2026-01-24 11:42:04.07	237.82	15.30	-41.8	-45.8	11.9	2.28e-04	0	60	0	265289728	54	5980
2026-01-24 11:42:07.10	238.37	15.47	-41.7	-45.5	12.4	1.46e-04	0	60	0	270532608	54	5724
2026-01-24 11:42:10.13	238.93	15.64	-41.5	-45.1	12.7	6.33e-05	0	60	0	275775488	54	5511
2026-01-24 11:42:13.16	239.50	15.82	-41.4	-45.0	12.8	5.56e-05	0	60	0	282066944	54	5441
2026-01-24 11:42:16.18	240.08	15.99	-41.3	-44.8	13.0	3.81e-05	0	60	0	287309824	54	5320
2026-01-24 11:42:19.21	240.66	16.16	-41.4	-44.9	12.9	3.89e-05	0	60	0	293601280	54	5372
2026-01-24 11:42:22.24	241.24	16.32	-41.5	-45.2	12.7	8.46e-05	0	60	0	298844160	54	5539
2026-01-24 11:42:25.26	241.83	16.49	-41.4	-45.0	12.7	9.23e-05	0	60	0	305135616	54	5439
2026-01-24 11:42:28.29	242.43	16.65	-41.4	-44.9	12.9	3.73e-05	0	60	0	310378496	54	5358
2026-01-24 11:42:31.33	243.04	16.81	-41.5	-45.1	12.6	8.46e-05	0	60	0	315621376	54	5528
2026-01-24 11:42:34.35	243.65	16.97	-41.7	-45.4	12.3	1.78e-04	0	60	0	321912832	54	5717
2026-01-24 11:42:37.38	244.27	17.13	-41.6	-45.4	12.4	1.68e-04	0	60	0	327155712	54	5677
2026-01-24 11:42:40.41	244.90	17.29	-41.6	-45.5	12.1	1.07e-03	0	60	0	333447168	54	5753
2026-01-24 11:42:43.43	245.53	17.44	-41.8	-46.0	11.5	1.03e-02	0	60	0	338690048	54	6114
2026-01-24 11:42:46.46	246.16	17.59	-41.7	-45.9	11.6	1.00e-02	0	60	0	343932928	54	6012
2026-01-24 11:42:49.49	246.81	17.74	-41.2	-46.1	11.3	1.61e-02	0	60	0	350224384	54	6151
2026-01-24 11:42:52.51	247.46	17.88	-42.0	-46.5	11.1	9.65e-03	0	60	0	355467264	54	6451
2026-01-24 11:42:55.54	248.11	18.03	-42.1	-46.8	10.7	1.20e-02	0	60	0	361758720	54	6696
2026-01-24 11:42:58.57	248.77	18.17	-42.4	-47.0	10.7	3.78e-03	0	60	0	367001600	55	6459
2026-01-24 11:43:01.60	249.44	18.31	-42.4	-47.1	10.6	3.31e-03	0	60	0	372244480	55	6511
2026-01-24 11:43:04.63	250.12	18.44	-42.5	-47.3	10.4	4.24e-03	0	60	0	378535936	55	6682
2026-01-24 11:43:07.66	250.79	18.57	-42.3	-46.9	10.8	3.22e-03	0	61	0	383778816	55	6381
2026-01-24 11:43:10.68	251.48	18.70	-42.2	-46.5	11.3	9.13e-04	0	60	0	390070272	55	6074
2026-01-24 11:43:13.71	252.17	18.82	-42.3	-46.7	11.1	1.35e-03	0	60	0	395313152	55	6240
2026-01-24 11:43:16.74	252.86	18.94	-41.9	-45.8	11.9	4.59e-04	0	61	0	400556032	55	5631
2026-01-24 11:43:19.77	253.57	19.06	-41.9	-45.8	12.0	2.55e-04	0	60	0	406847488	55	5621
2026-01-24 11:43:22.79	254.27	19.17	-42.0	-46.0	11.8	4.55e-04	0	60	0	412090368	55	5749
2026-01-24 11:43:25.83	254.98	19.28	-41.5	-45.1	12.7	1.19e-04	0	61	0	418381824	55	5203
2026-01-24 11:43:28.85	255.70	19.39	-41.7	-45.5	12.3	1.27e-04	0	61	0	423624704	55	5426
2026-01-24 11:43:31.88	256.42	19.49	-41.5	-45.2	12.7	1.27e-04	0	60	0	429916160	55	5228
2026-01-24 11:43:34.91	257.14	19.59	-41.2	-44.5	13.3	2.05e-05	0	61	0	435159040	54	5151
2026-01-24 11:43:37.94	257.87	19.68	-41.3	-44.7	13.2	2.59e-05	0	61	0	440401920	54	5220
2026-01-24 11:43:40.97	258.61	19.77	-40.9	-44.0	13.7	6.10e-06	0	60	0	446693376	53	5158
2026-01-24 11:43:43.99	259.34	19.86	-41.3	-44.7	13.1	2.21e-05	0	61	0	451936256	53	5570
2026-01-24 11:43:47.02	260.09	19.94	-41.4	-44.9	12.9	3.50e-05	0	61	0	458227712	53	5684
2026-01-24 11:43:50.05	260.83	20.01	-41.3	-44.7	13.1	3.50e-05	0	61	0	463470592	53	5564
2026-01-24 11:43:53.08	261.58	20.08	-41.4	-44.9	12.9	6.10e-05	0	61	0	468713472	53	5657
2026-01-24 11:43:56.11	262.33	20.15	-41.2	-44.5	13.3	2.28e-05	0	61	0	475004928	53	5418
2026-01-24 11:43:59.14	263.09	20.21	-41.5	-45.1	12.6	7.47e-05	0	61	0	480247808	53	5828
2026-01-24 11:44:02.16	263.84	20.27	-41.2	-44.5	13.4	2.13e-05	0	61	0	486539264	53	5433
2026-01-24 11:44:05.19	264.61	20.32	-41.4	-44.9	12.9	3.96e-05	0	61	0	491782144	53	5670
2026-01-24 11:44:08.22	265.37	20.37	-41.6	-45.2	12.6	1.36e-04	0	61	0	498073600	53	5912
2026-01-24 11:44:11.25	266.13	20.41	-41.7	-45.5	12.3	1.24e-04	0	61	0	503316480	53	6109
2026-01-24 11:44:14.28	266.90	20.45	-41.9	-45.9	11.9	3.75e-04	0	61	0	508559360	54	6010
2026-01-24 11:44:17.31	267.67	20.48	-41.5	-45.0	12.8	9.84e-05	0	61	0	514850816	54	5453
2026-01-24 11:44:20.34	268.44	20.51	-41.5	-45.1	12.7	7.40e-05	0	61	0	520093696	54	5479
2026-01-24 11:44:23.37	269.21	20.53	-41.4	-44.9	12.9	4.27e-05	0	61	0	526385152	54	5398
2026-01-24 11:44:26.40	269.98	20.55	-41.6	-45.2	12.5	7.62e-05	0	61	0	531628032	54	5587
2026-01-24 11:44:29.42	270.75	20.56	-41.9	-46.0	11.7	4.23e-04	0	61	0	536870912	54	6087
2026-01-24 11:44:32.45	271.53	20.57	-41.9	-46.0	11.8	4.66e-04	0	61	0	543162368	54	6092
2026-01-24 11:44:35.47	272.30	20.57	-42.0	-46.0	11.7	5.38e-04	0	61	0	548405248	54	6105
2026-01-24 11:44:38.50	273.07	20.56	-41.8	-45.7	12.1	2.94e-04	0	61	0	554696704	54	5882
2026-01-24 11:44:41.53	273.85	20.56	-42.0	-46.0	11.7	4.15e-04	0	61	0	559939584	54	6117
2026-01-24 11:44:44.56	274.62	20.54	-41.8	-45.6	12.1	2.94e-04	0	61	0	566231040	54	5852
2026-01-24 11:44:47.59	275.39	20.52	-41.9	-45.9	11.8	2.47e-04	0	61	0	571473920	54	6050
2026-01-24 11:44:50.62	276.16	20.50	-42.1	-46.3	11.4	8.16e-04	0	61	0	576716800	54	6336
2026-01-24 11:44:53.64	276.93	20.47	-42.0	-46.2	11.5	6.48e-04	0	61	0	583008256	54	6210
2026-01-24 11:44:56.67	277.69	20.43	-42.1	-46.4	11.3	9.52e-04	0	61	0	588251136	54	6413
2026-01-24 11:44:59.70	278.46	20.39	-41.8	-45.7	12.0	4.49e-04	0	61	0	594542592	54	5880
2026-01-24 11:45:02.73	279.22	20.35	-41.6	-45.4	12.4	1.62e-04	0	61	0	599785472	54	5664
2026-01-24 11:45:05.76	279.98	20.30	-41.6	-45.2	12.6	1.11e-04	0	61	0	605028352	54	5590
2026-01-24 11:45:08.78	280.74	20.25	-41.8	-45.6	12.2	1.97e-04	0	61	0	611319808	54	5838
2026-01-24 11:45:11.82	281.50	20.19	-41.8	-45.7	12.0	4.19e-04	0	61	0	616562688	54	5919
2026-01-24 11:45:14.85	282.25	20.12	-41.7	-45.5	12.2	1.69e-04	0	61	0	622854144	54	5770
2026-01-24 11:45:17.88	283.00	20.05	-41.7	-45.6	12.2	2.02e-04	0	61	0	628097024	54	5801
2026-01-24 11:45:20.90	283.74	19.98	-41.7	-45.6	12.1	2.71e-04	0	61	0	634388480	54	5842
2026-01-24 11:45:23.93	284.49	19.90	-41.6	-45.3	12.5	1.77e-04	0	61	0	639631360	54	5624
2026-01-24 11:45:26.96	285.22	19.82	-41.6	-45.3	12.5	1.34e-04	0	61	0	644874240	54	5621
2026-01-24 11:45:29.99	285.96	19.73	-41.8	-45.7	12.1	2.72e-04	0	61	0	651165696	54	5860
2026-01-24 11:45:33.02	286.69	19.64	-41.8	-45.7	12.1	2.30e-04	0	61	0	656408576	54	5861
2026-01-24 11:45:36.04	287.41	19.55	-42.1	-46.5	11.2	1.25e-03	0	61	0	662700032	54	6457
2026-01-24 11:45:39.07	288.13	19.45	-41.9	-46.0	11.7	8.43e-04	0	61	0	667942912	54	6103
2026-01-24 11:45:42.10	288.85	19.35	-41.4	-45.1	12.6	1.08e-04	0	61	0	673185792	54	5478
2026-01-24 11:45:45.13	289.56	19.24	-41.6	-45.4	12.3	1.31e-04	0	61	0	679477248	54	5677
2026-01-24 11:45:48.16	290.27	19.13	-41.4	-45.0	12.7	9.07e-05	0	61	0	684720128	54	5459
2026-01-24 11:45:51.18	290.97	19.02	-41.3	-44.8	12.9	3.50e-05	0	61	0	691011584	54	5336
2026-01-24 11:45:54.21	291.66	18.90	-41.6	-45.4	12.4	1.69e-04	0	61	0	696254464	54	5689
2026-01-24 11:45:57.24	292.36	18.78	-41.4	-45.0	12.7	1.07e-04	0	61	0	701497344	54	5423
2026-01-24 11:46:00.27	293.04	18.65	-41.1	-44.5	13.2	2.36e-05	0	61	0	707788800	54	5122
2026-01-24 11:46:03.30	293.72	18.52	-41.2	-44.6	13.1	3.35e-05	0	61	0	713031680	54	5200
2026-01-24 11:46:06.33	294.40	18.39	-41.3	-44.9	12.9	4.65e-05	0	61	0	719323136	54	5349
2026-01-24 11:46:09.36	295.06	18.26	-41.5	-45.2	12.5	8.16e-05	0	61	0	724566016	54	5571
2026-01-24 11:46:12.39	295.73	18.12	-41.7	-45.6	12.0	2.67e-04	0	61	0	730857472	54	5817
2026-01-24 11:46:15.42	296.38	17.98	-41.5	-45.2	12.4	1.30e-04	0	61	0	736100352	54	5577
2026-01-24 11:46:18.45	297.03	17.84	-41.5	-45.3	12.4	1.06e-04	0	61	0	741343232	54	5623
2026-01-24 11:46:21.48	297.68	17.69	-41.6	-45.3	12.3	1.52e-04	0	61	0	747634688	54	5652
2026-01-24 11:46:24.51	298.32	17.54	-41.8	-45.9	11.8	3.03e-04	0	61	0	752877568	54	6003
2026-01-24 11:46:27.54	298.95	17.39	-42.2	-46.7	10.8	2.00e-03	0	61	0	759169024	54	6612
2026-01-24 11:46:30.56	299.57	17.24	-41.9	-46.0	11.6	9.15e-04	0	61	0	764411904	55	5750
2026-01-24 11:46:33.59	300.19	17.08	-41.9	-46.2	11.5	9.01e-04	0	61	0	769654784	55	5868
2026-01-24 11:46:36.62	300.80	16.93	-41.8	-45.8	11.8	4.63e-04	0	61	0	775946240	55	5627
2026-01-24 11:46:39.65	301.41	16.77	-41.6	-45.3	12.3	2.17e-04	0	61	0	781189120	55	5339
2026-01-24 11:46:42.68	302.01	16.60	-41.8	-46.0	11.6	5.24e-04	0	61	0	787480576	55	5729
2026-01-24 11:46:45.71	302.61	16.44	-42.2	-46.8	10.8	2.90e-03	0	61	0	792723456	55	6309
2026-01-24 11:46:48.73	303.19	16.28	-42.3	-47.2	10.3	6.78e-03	0	61	0	799014912	55	6602
2026-01-24 11:46:51.76	303.77	16.11	-42.3	-47.0	10.5	3.46e-03	0	61	0	804257792	55	6445
2026-01-24 11:46:54.79	304.35	15.94	-42.0	-46.2	11.3	1.18e-03	0	61	0	809500672	55	5917
2026-01-24 11:46:57.82	304.92	15.77	-41.6	-45.6	12.0	2.79e-04	0	61	0	815792128	55	5485
2026-01-24 11:47:00.84	305.48	15.60	-41.8	-45.8	11.8	4.10e-04	0	61	0	821035008	55	5638
2026-01-24 11:47:03.88	306.04	15.43	-42.3	-47.1	10.3	3.37e-03	0	61	0	827326464	55	6551
2026-01-24 11:47:06.91	306.59	15.25	-42.3	-47.2	10.3	6.15e-03	0	61	0	832569344	55	6585
2026-01-24 11:47:09.93	307.13	15.08	-42.1	-46.5	11.0	1.93e-03	0	61	0	837812224	55	6113
2026-01-24 11:47:12.96	307.67	14.90	-41.9	-46.3	11.2	1.81e-03	0	61	0	844103680	55	5952
2026-01-24 11:47:15.99	308.20	14.73	-41.8	-46.0	11.5	1.08e-03	0	61	0	849346560	55	5728
2026-01-24 11:47:19.01	308.72	14.55	-41.6	-45.6	11.9	3.90e-04	0	61	0	855638016	55	5499
2026-01-24 11:47:22.04	309.24	14.37	-41.9	-46.3	11.2	1.04e-03	0	61	0	860880896	55	5927
2026-01-24 11:47:25.07	309.76	14.19	-42.1	-46.7	10.7	2.38e-03	0	61	0	867172352	55	6258
2026-01-24 11:47:28.10	310.26	14.01	-41.8	-46.0	11.5	1.10e-03	0	61	0	872415232	55	5756
2026-01-24 11:47:31.13	310.76	13.83	-41.7	-45.7	11.7	5.73e-04	0	61	0	877658112	55	5575
2026-01-24 11:47:34.16	311.26	13.65	-41.7	-45.9	11.6	6.47e-04	0	61	0	883949568	55	5659
2026-01-24 11:47:37.18	311.75	13.47	-41.8	-46.0	11.4	9.17e-04	0	61	0	889192448	55	5747
2026-01-24 11:47:40.21	312.23	13.28	-41.7	-45.9	11.5	6.73e-04	0	61	0	895483904	55	5686
2026-01-24 11:47:43.24	312.71	13.10	-41.8	-46.0	11.4	8.75e-04	0	61	0	900726784	55	5767
2026-01-24 11:47:46.27	313.18	12.92	-41.7	-45.9	11.5	8.23e-04	0	61	0	905969664	55	5704
2026-01-24 11:47:49.30	313.65	12.73	-41.5	-45.5	11.9	3.33e-04	0	61	0	912261120	55	5441
2026-01-24 11:47:52.33	314.11	12.55	-41.3	-45.0	12.5	1.28e-04	0	61	0	917504000	54	5406
2026-01-24 11:47:55.35	314.56	12.37	-41.4	-45.2	12.2	2.39e-04	0	61	0	923795456	54	5571
2026-01-24 11:47:58.38	315.01	12.18	-41.7	-45.9	11.4	7.15e-04	0	62	0	929038336	54	6052
2026-01-24 11:48:01.40	315.45	12.00	-41.6	-45.8	11.6	6.69e-04	0	61	0	935329792	54	5958
2026-01-24 11:48:04.43	315.89	11.81	-41.4	-45.3	12.1	3.65e-04	0	62	0	940572672	54	5611
2026-01-24 11:48:07.46	316.33	11.63	-41.4	-45.3	12.1	3.42e-04	0	62	0	945815552	54	5645
2026-01-24 11:48:10.49	316.76	11.44	-41.7	-46.0	11.4	1.02e-03	0	61	0	952107008	54	6069
2026-01-24 11:48:13.52	317.18	11.26	-41.6	-45.8	11.5	7.76e-04	0	61	0	957349888	54	5938
2026-01-24 11:48:16.54	317.59	11.07	-41.5	-45.6	11.8	4.55e-04	0	62	0	963641344	54	5789
2026-01-24 11:48:19.57	318.01	10.89	-41.6	-45.8	11.5	7.84e-04	0	61	0	968884224	54	5948
2026-01-24 11:48:22.60	318.42	10.71	-42.0	-46.7	10.6	3.03e-03	0	61	0	974127104	54	6604
2026-01-24 11:48:25.63	318.82	10.52	-42.1	-47.0	10.2	5.50e-03	0	61	0	980418560	54	6859
2026-01-24 11:48:28.66	319.22	10.34	-42.0	-46.7	10.6	3.42e-03	0	62	0	985661440	54	6579
2026-01-24 11:48:31.69	319.61	10.15	-41.9	-46.4	10.8	3.10e-03	0	62	0	991952896	54	6397
2026-01-24 11:48:34.71	320.00	9.97	-42.0	-46.8	10.4	4.09e-03	0	62	0	997195776	54	6692
2026-01-24 11:48:37.74	320.38	9.79	-42.0	-46.9	10.3	5.02e-03	0	61	0	1002438656	54	6780
2026-01-24 11:48:40.77	320.76	9.60	-41.9	-46.6	10.5	4.70e-03	0	61	0	1008730112	54	6570
2026-01-24 11:48:43.80	321.13	9.42	-41.9	-46.5	10.7	3.15e-03	0	61	0	1013972992	54	6456
2026-01-24 11:48:46.83	321.51	9.24	-41.9	-46.6	10.5	3.82e-03	0	61	0	1020264448	54	6566
2026-01-24 11:48:49.85	321.87	9.06	-42.0	-47.0	10.1	7.71e-03	0	62	0	1025507328	54	6833
2026-01-24 11:48:52.88	322.23	8.87	-42.0	-46.8	10.2	5.66e-03	0	61	0	1031798784	54	6689
2026-01-24 11:48:55.91	322.59	8.69	-41.8	-46.3	10.8	2.42e-03	0	61	0	1037041664	54	6342
2026-01-24 11:48:58.94	322.94	8.51	-41.6	-46.1	11.0	1.75e-03	0	61	0	1042284544	54	6133
2026-01-24 11:49:01.97	323.29	8.33	-41.7	-46.2	10.9	2.54e-03	0	61	0	1048576000	54	6218
2026-01-24 11:49:04.99	323.63	8.15	-42.0	-47.0	10.0	6.41e-03	0	62	0	1053818880	54	6838
2026-01-24 11:49:08.02	323.97	7.97	-44.2	-57.7	3.8	1.46e+00	0	61	104	1059061760	58	18708
2026-01-24 11:49:11.05	324.31	7.79	-44.8	-59.5	3.8	1.49e+00	0	61	104	1059061760	60	20366
2026-01-24 11:49:14.08	324.64	7.61	-45.2	-59.8	3.8	1.49e+00	0	62	104	1059061760	60	21080
2026-01-24 11:49:17.11	324.97	7.44	-45.2	-59.9	3.8	1.49e+00	0	62	104	1059061760	60	21264
2026-01-24 11:49:20.14	325.30	7.26	-45.2	-59.8	3.8	1.49e+00	0	61	104	1059061760	60	21071
2026-01-24 11:49:23.17	325.62	7.08	-45.1	-59.7	3.8	1.49e+00	0	62	104	1059061760	61	19663
2026-01-24 11:49:26.20	325.93	6.90	-45.1	-59.7	3.8	1.49e+00	0	62	104	1059061760	60	20866
2026-01-24 11:49:29.24	326.25	6.73	-45.1	-59.7	3.8	1.49e+00	0	62	104	1059061760	60	20882
2026-01-24 11:49:32.27	326.56	6.55	-45.1	-59.7	3.8	1.49e+00	0	61	104	1059061760	60	20828
2026-01-24 11:49:35.30	326.87	6.37	-45.1	-59.6	3.8	1.49e+00	0	61	104	1059061760	60	20776
2026-01-24 11:49:38.33	327.17	6.20	-45.1	-59.7	3.8	1.49e+00	0	62	104	1059061760	60	20837
2026-01-24 11:49:41.36	327.47	6.03	-45.1	-59.7	3.8	1.49e+00	0	61	104	1059061760	60	20838
2026-01-24 11:49:44.40	327.77	5.85	-45.0	-59.6	3.8	1.49e+00	0	62	104	1059061760	60	20753
2026-01-24 11:49:47.43	328.06	5.68	-45.0	-59.7	3.8	1.49e+00	0	61	104	1059061760	60	20800
2026-01-24 11:49:50.46	328.35	5.51	-45.1	-59.7	3.8	1.49e+00	0	62	104	1059061760	60	20804
2026-01-24 11:49:53.49	328.63	5.33	-45.0	-59.7	3.8	1.49e+00	0	61	104	1059061760	60	20779
2026-01-24 11:49:56.52	328.92	5.16	-45.0	-59.6	3.8	1.49e+00	0	62	104	1059061760	60	20773
2026-01-24 11:49:59.55	329.20	4.99	-45.0	-59.7	3.8	1.49e+00	0	62	104	1059061760	60	20820
2026-01-24 11:50:02.58	329.47	4.82	-45.0	-59.6	3.8	1.49e+00	0	61	104	1059061760	60	20703
2026-01-24 11:50:05.61	329.75	4.65	-45.0	-59.6	3.8	1.49e+00	0	62	104	1059061760	60	20748
2026-01-24 11:50:08.64	330.02	4.48	-45.0	-59.6	3.8	1.49e+00	0	62	104	1059061760	60	20751
2026-01-24 11:50:11.68	330.29	4.31	-45.0	-59.6	3.8	1.49e+00	0	62	104	1059061760	60	20716
2026-01-24 11:50:14.71	330.55	4.14	-45.0	-59.6	3.8	1.49e+00	0	61	104	1059061760	60	20753
2026-01-24 11:50:17.74	330.82	3.98	-45.0	-59.6	3.8	1.49e+00	0	62	104	1059061760	60	20734
2026-01-24 11:50:20.77	331.07	3.81	-45.0	-59.6	3.8	1.49e+00	0	62	104	1059061760	60	20658
2026-01-24 11:50:23.80	331.33	3.64	-45.0	-59.6	3.8	1.49e+00	0	62	104	1059061760	60	20724
2026-01-24 11:50:26.83	331.59	3.48	-45.0	-59.6	3.8	1.49e+00	0	62	104	1059061760	60	20629
2026-01-24 11:50:29.87	331.84	3.31	-45.0	-59.6	3.8	1.49e+00	0	62	104	1059061760	60	20715
2026-01-24 11:50:32.90	332.09	3.15	-45.0	-59.7	3.8	1.49e+00	0	62	104	1059061760	60	20813
2026-01-24 11:50:35.93	332.33	2.98	-45.0	-59.6	3.8	1.49e+00	0	61	104	1059061760	60	20743
2026-01-24 11:50:38.96	332.58	2.82	-45.0	-59.6	3.8	1.49e+00	0	62	104	1059061760	60	20656
2026-01-24 11:50:41.99	332.82	2.66	-45.0	-59.6	3.8	1.49e+00	0	62	104	1059061760	60	20638
2026-01-24 11:50:45.02	333.05	2.49	-45.0	-59.6	3.8	1.49e+00	0	62	104	1059061760	60	20686
2026-01-24 11:50:48.06	333.29	2.33	-45.0	-59.6	3.8	1.49e+00	0	62	104	1059061760	60	20607
2026-01-24 11:50:51.09	333.52	2.17	-45.0	-59.6	3.8	1.49e+00	0	61	104	1059061760	60	20701
2026-01-24 11:50:54.12	333.76	2.01	-45.0	-59.6	3.8	1.49e+00	0	62	104	1059061760	60	20693

#Closed at: 2026-01-24 11:50:55
#Recorded file [1059 MB]: D:/lorett/data/31039_260124_143819.dat