passes_logs/2026/01/24/R2.0S_Moscow/R2.0S_Moscow__20260124_024347_FENGYUN_3D_rec.log

#Pass ID: 20260124_024347_FENGYUN 3D
#Satellite: FENGYUN 3D
#Configuration: FENGYUN 3D
#almurnet v.1.7.20251203
#Start time: 2026-01-24 02:43:49

#Version: 2.2.20231116
#Station: R2.0S_Moscow
#Location: 37.707566 lon 55.798166 lat
#TLE: 1 43010U 17072A   26022.96745493  .00000490  00000+0  25355-3 0  9999
#TLE: 2 43010  98.9955 354.9072 0002484  95.6139 264.5320 14.19700039424383

#Time	Az	El	Level	Level2	SNR	BER	BlckErr	Temp	State	Recorded	gain1	gain2
2026-01-24 02:43:49.44	12.83	2.13	-40.0	-51.6	3.8	8.45e-01	0	52	0	0	52	13017
2026-01-24 02:43:53.48	12.68	2.38	-40.0	-51.6	3.8	8.46e-01	0	52	104	0	52	12993
2026-01-24 02:43:57.53	12.53	2.63	-40.0	-51.6	3.8	8.46e-01	0	53	104	0	52	12980
2026-01-24 02:44:01.57	12.37	2.89	-40.0	-51.6	3.8	8.46e-01	0	53	104	0	52	12961
2026-01-24 02:44:05.61	12.21	3.14	-40.0	-51.5	3.8	8.47e-01	0	53	104	0	52	12929
2026-01-24 02:44:09.66	12.05	3.40	-40.0	-51.5	3.8	8.46e-01	0	54	104	0	52	12946
2026-01-24 02:44:13.70	11.88	3.66	-40.0	-51.5	3.8	8.45e-01	0	54	104	0	52	12906
2026-01-24 02:44:17.73	11.71	3.93	-40.0	-51.5	3.8	8.46e-01	0	54	104	0	52	12836
2026-01-24 02:44:21.78	11.54	4.19	-40.1	-51.4	3.8	8.46e-01	0	55	104	0	51	13513
2026-01-24 02:44:25.82	11.36	4.46	-40.0	-51.3	3.8	8.48e-01	0	55	104	0	51	13392
2026-01-24 02:44:29.86	11.18	4.73	-40.0	-51.3	3.8	8.46e-01	0	55	104	0	51	13372
2026-01-24 02:44:33.90	10.99	5.00	-40.0	-51.5	3.8	8.47e-01	0	55	104	0	51	13602
2026-01-24 02:44:37.94	10.81	5.28	-40.1	-51.6	3.8	8.46e-01	0	55	104	0	51	13810
2026-01-24 02:44:41.98	10.61	5.55	-40.1	-51.6	3.8	8.46e-01	0	55	104	0	51	13842
2026-01-24 02:44:46.02	10.42	5.84	-40.1	-51.6	3.8	8.46e-01	0	56	104	0	51	13757
2026-01-24 02:44:50.07	10.22	6.12	-40.1	-51.6	3.8	8.46e-01	0	56	104	0	51	13781
2026-01-24 02:44:54.11	10.01	6.40	-40.1	-51.6	3.8	8.46e-01	0	56	104	0	51	13771
2026-01-24 02:44:58.15	9.81	6.69	-40.1	-51.6	3.8	8.46e-01	0	56	104	0	51	13781
2026-01-24 02:45:02.19	9.59	6.98	-40.1	-51.6	3.8	8.45e-01	0	56	104	0	51	13783
2026-01-24 02:45:06.24	9.37	7.28	-40.1	-51.6	3.8	8.46e-01	0	57	104	0	51	13760
2026-01-24 02:45:10.28	9.15	7.58	-40.1	-51.6	3.8	8.47e-01	0	57	104	0	51	13802
2026-01-24 02:45:14.32	8.92	7.88	-40.1	-51.6	3.8	8.46e-01	0	57	104	0	51	13769
2026-01-24 02:45:18.36	8.69	8.18	-40.1	-51.6	3.8	8.46e-01	0	57	104	0	51	13805
2026-01-24 02:45:22.39	8.45	8.49	-40.1	-51.6	3.8	8.46e-01	0	57	104	0	51	13847
2026-01-24 02:45:26.43	8.21	8.80	-40.0	-51.6	3.8	8.45e-01	0	57	104	0	51	13764
2026-01-24 02:45:30.47	7.96	9.11	-40.0	-51.6	3.8	8.45e-01	0	58	104	0	51	13764
2026-01-24 02:45:34.50	7.71	9.43	-40.0	-51.5	3.8	8.47e-01	0	58	104	0	51	13722
2026-01-24 02:45:38.55	7.45	9.75	-39.8	-51.3	3.8	8.45e-01	0	58	104	0	51	13399
2026-01-24 02:45:42.58	7.18	10.07	-40.2	-51.8	3.8	8.46e-01	0	58	104	0	51	14152
2026-01-24 02:45:46.62	6.91	10.40	-39.9	-51.5	3.8	8.46e-01	0	58	104	0	51	13667
2026-01-24 02:45:50.66	6.63	10.73	-40.7	-52.1	3.8	8.45e-01	0	58	104	0	51	14655
2026-01-24 02:45:54.69	6.34	11.06	-40.2	-51.5	3.8	8.44e-01	0	58	104	0	51	13681
2026-01-24 02:45:58.73	6.05	11.40	-41.1	-51.3	3.8	8.45e-01	0	58	104	0	52	12662
2026-01-24 02:46:02.77	5.75	11.75	-41.0	-47.5	5.2	7.63e-01	0	58	0	0	53	7657
2026-01-24 02:46:06.81	5.44	12.09	-40.1	-44.4	7.9	1.03e-01	0	58	0	18874368	52	5713
2026-01-24 02:46:10.84	5.12	12.44	-37.6	-40.1	12.2	3.56e-04	0	59	0	41943040	47	4646
2026-01-24 02:46:14.89	4.80	12.80	-37.9	-40.6	11.9	5.08e-04	0	59	0	63963136	47	4876
2026-01-24 02:46:18.93	4.47	13.16	-38.9	-42.1	10.5	5.12e-03	0	59	0	87031808	48	5487
2026-01-24 02:46:22.96	4.13	13.52	-38.4	-41.1	11.7	1.02e-03	0	59	0	110100480	48	4883
2026-01-24 02:46:27.00	3.78	13.89	-37.6	-39.8	13.4	3.20e-05	0	59	0	132120576	47	4462
2026-01-24 02:46:31.04	3.42	14.26	-38.2	-40.6	12.6	1.21e-04	0	59	0	155189248	47	4918
2026-01-24 02:46:35.08	3.05	14.64	-37.7	-39.7	13.9	1.25e-05	0	59	0	178257920	47	4440
2026-01-24 02:46:39.11	2.67	15.02	-37.9	-40.0	13.9	1.02e-05	0	59	0	200278016	47	4548
2026-01-24 02:46:43.15	2.28	15.41	-37.8	-39.8	14.3	2.20e-06	0	59	0	223346688	46	4744
2026-01-24 02:46:47.19	1.88	15.80	-37.6	-39.5	14.7	1.10e-06	0	59	0	246415360	46	4582
2026-01-24 02:46:51.23	1.47	16.20	-37.6	-39.4	14.8	0.00e+00	0	59	0	268435456	46	4545
2026-01-24 02:46:55.27	1.05	16.60	-37.7	-39.7	14.7	0.00e+00	0	59	0	291504128	46	4658
2026-01-24 02:46:59.30	0.61	17.01	-37.6	-39.5	14.9	1.10e-06	0	59	0	314572800	46	4577
2026-01-24 02:47:03.34	0.17	17.42	-37.6	-39.4	15.1	0.00e+00	0	59	0	336592896	46	4515
2026-01-24 02:47:07.39	359.71	17.84	-37.3	-39.1	15.4	0.00e+00	0	59	0	359661568	46	4352
2026-01-24 02:47:11.42	359.24	18.26	-37.3	-39.1	15.4	0.00e+00	0	59	0	381681664	46	4369
2026-01-24 02:47:15.46	358.75	18.68	-37.0	-38.7	15.7	0.00e+00	0	59	0	404750336	46	4179
2026-01-24 02:47:19.50	358.25	19.12	-36.9	-38.6	15.7	0.00e+00	0	60	0	427819008	45	4388
2026-01-24 02:47:23.54	357.73	19.55	-37.0	-38.8	15.4	0.00e+00	0	60	0	450887680	45	4443
2026-01-24 02:47:27.58	357.20	20.00	-36.7	-38.5	15.5	0.00e+00	0	60	0	472907776	45	4311
2026-01-24 02:47:31.62	356.65	20.45	-36.6	-38.4	15.4	0.00e+00	0	60	0	495976448	45	4262
2026-01-24 02:47:35.65	356.09	20.90	-36.5	-38.3	15.3	0.00e+00	0	60	0	519045120	45	4210
2026-01-24 02:47:39.69	355.51	21.36	-36.2	-37.9	15.8	0.00e+00	0	60	0	541065216	44	4257
2026-01-24 02:47:43.73	354.91	21.82	-36.0	-37.7	15.9	0.00e+00	0	60	0	564133888	43	4399
2026-01-24 02:47:47.77	354.29	22.29	-36.1	-37.7	16.2	0.00e+00	0	60	0	586153984	43	4399
2026-01-24 02:47:51.80	353.66	22.76	-36.5	-38.1	15.8	0.00e+00	0	60	0	609222656	43	4649
2026-01-24 02:47:55.84	353.00	23.24	-36.5	-38.1	16.0	0.00e+00	0	60	0	632291328	43	4647
2026-01-24 02:47:59.88	352.32	23.73	-36.0	-37.4	16.9	0.00e+00	0	60	0	655360000	43	4281
2026-01-24 02:48:03.92	351.62	24.22	-36.2	-37.8	16.7	0.00e+00	0	60	0	677380096	43	4442
2026-01-24 02:48:07.96	350.90	24.71	-36.0	-37.5	17.0	0.00e+00	0	60	0	700448768	43	4320
2026-01-24 02:48:11.99	350.15	25.20	-35.8	-37.2	17.3	0.00e+00	0	60	0	723517440	43	4192
2026-01-24 02:48:16.03	349.38	25.70	-35.7	-37.1	17.5	0.00e+00	0	60	0	745537536	43	4130
2026-01-24 02:48:20.06	348.59	26.21	-35.8	-37.2	17.5	0.00e+00	0	60	0	768606208	43	4161
2026-01-24 02:48:24.11	347.76	26.72	-35.7	-37.1	17.7	0.00e+00	0	60	0	790626304	43	4115
2026-01-24 02:48:28.15	346.91	27.23	-35.5	-36.9	18.0	0.00e+00	0	60	0	813694976	43	4021
2026-01-24 02:48:32.19	346.03	27.74	-35.7	-37.1	17.8	0.00e+00	0	60	0	836763648	43	4129
2026-01-24 02:48:36.22	345.13	28.25	-35.8	-37.2	17.7	0.00e+00	0	60	0	858783744	43	4177
2026-01-24 02:48:40.26	344.19	28.77	-35.7	-37.1	17.9	0.00e+00	0	60	0	881852416	43	4101
2026-01-24 02:48:44.30	343.22	29.29	-35.8	-37.2	17.9	0.00e+00	0	60	0	904921088	43	4156
2026-01-24 02:48:48.34	342.22	29.80	-35.6	-37.0	18.1	0.00e+00	0	60	0	927989760	43	4068
2026-01-24 02:48:52.37	341.19	30.32	-35.5	-36.8	18.2	0.00e+00	0	60	0	950009856	42	4236
2026-01-24 02:48:56.42	340.12	30.83	-35.6	-36.9	18.2	0.00e+00	0	61	0	973078528	42	4283
2026-01-24 02:49:00.45	339.02	31.34	-35.5	-36.8	18.3	0.00e+00	0	61	0	995098624	42	4213
2026-01-24 02:49:04.49	337.89	31.85	-35.4	-36.8	18.4	0.00e+00	0	60	0	1018167296	42	4205
2026-01-24 02:49:08.53	336.71	32.36	-35.3	-36.6	18.5	0.00e+00	0	61	0	1041235968	42	4132
2026-01-24 02:49:12.57	335.50	32.85	-35.3	-36.6	18.6	0.00e+00	0	60	0	1063256064	42	4104
2026-01-24 02:49:16.61	334.25	33.34	-35.1	-36.4	18.8	0.00e+00	0	60	0	1086324736	42	4007
2026-01-24 02:49:20.64	332.97	33.83	-35.1	-36.4	18.8	0.00e+00	0	61	0	1109393408	42	4008
2026-01-24 02:49:24.68	331.64	34.30	-35.0	-36.3	18.9	0.00e+00	0	61	0	1132462080	41	4199
2026-01-24 02:49:28.73	330.27	34.76	-35.0	-36.3	18.8	0.00e+00	0	60	0	1154482176	41	4194
2026-01-24 02:49:32.77	328.87	35.21	-34.9	-36.1	19.0	0.00e+00	0	60	0	1177550848	41	4133
2026-01-24 02:49:36.81	327.42	35.65	-35.2	-36.5	18.7	0.00e+00	0	60	0	1199570944	41	4297
2026-01-24 02:49:40.85	325.94	36.07	-35.1	-36.4	18.8	0.00e+00	0	61	0	1222639616	41	4244
2026-01-24 02:49:44.88	324.42	36.47	-34.8	-36.0	19.1	0.00e+00	0	61	0	1245708288	41	4060
2026-01-24 02:49:48.92	322.86	36.86	-35.0	-36.2	18.9	0.00e+00	0	61	0	1267728384	41	4183
2026-01-24 02:49:52.96	321.27	37.22	-35.0	-36.2	18.9	0.00e+00	0	61	0	1290797056	41	4165
2026-01-24 02:49:57.00	319.64	37.57	-35.3	-36.6	18.5	0.00e+00	0	61	0	1313865728	41	4363
2026-01-24 02:50:01.04	317.98	37.88	-35.0	-36.2	18.9	0.00e+00	0	61	0	1336934400	41	4182
2026-01-24 02:50:05.08	316.28	38.18	-35.0	-36.2	18.9	0.00e+00	0	61	0	1358954496	41	4193
2026-01-24 02:50:09.12	314.55	38.44	-35.2	-36.5	18.7	0.00e+00	0	61	0	1382023168	41	4303
2026-01-24 02:50:13.16	312.80	38.68	-35.1	-36.3	18.8	0.00e+00	0	61	0	1404043264	41	4226
2026-01-24 02:50:17.19	311.03	38.89	-35.2	-36.5	18.6	0.00e+00	0	61	0	1427111936	41	4322
2026-01-24 02:50:21.23	309.23	39.07	-35.0	-36.3	18.9	0.00e+00	0	61	0	1450180608	41	4199
2026-01-24 02:50:25.27	307.41	39.22	-35.1	-36.3	18.8	0.00e+00	0	61	0	1472200704	41	4222
2026-01-24 02:50:29.31	305.58	39.33	-34.9	-36.1	19.0	0.00e+00	0	61	0	1495269376	41	4138
2026-01-24 02:50:33.35	303.73	39.41	-34.9	-36.2	19.0	0.00e+00	0	61	0	1518338048	41	4146
2026-01-24 02:50:37.39	301.88	39.46	-35.0	-36.2	18.9	0.00e+00	0	61	0	1541406720	41	4190
2026-01-24 02:50:41.42	300.03	39.47	-34.9	-36.1	19.0	0.00e+00	0	61	0	1563426816	41	4114
2026-01-24 02:50:45.46	298.18	39.45	-34.8	-36.0	19.1	0.00e+00	0	61	0	1586495488	41	4086
2026-01-24 02:50:49.50	296.33	39.40	-34.8	-36.0	19.1	0.00e+00	0	61	0	1608515584	41	4073
2026-01-24 02:50:53.54	294.48	39.31	-34.8	-36.0	19.1	0.00e+00	0	61	0	1631584256	41	4060
2026-01-24 02:50:57.58	292.65	39.19	-34.5	-35.7	19.4	0.00e+00	0	61	0	1654652928	41	3944
2026-01-24 02:51:01.62	290.84	39.03	-34.6	-35.8	19.3	0.00e+00	0	61	0	1676673024	40	4233
2026-01-24 02:51:05.65	289.04	38.85	-34.7	-35.9	19.2	0.00e+00	0	61	0	1699741696	40	4277
2026-01-24 02:51:09.69	287.27	38.63	-34.9	-36.2	19.0	0.00e+00	0	61	0	1722810368	40	4398
2026-01-24 02:51:13.73	285.52	38.38	-34.9	-36.2	19.0	0.00e+00	0	61	0	1745879040	40	4398
2026-01-24 02:51:17.78	283.79	38.11	-34.4	-35.6	19.5	0.00e+00	0	61	0	1767899136	40	4125
2026-01-24 02:51:21.81	282.11	37.81	-34.8	-36.1	19.0	0.00e+00	0	61	0	1790967808	40	4352
2026-01-24 02:51:25.85	280.45	37.49	-34.7	-35.9	19.2	0.00e+00	0	61	0	1812987904	40	4267
2026-01-24 02:51:29.89	278.82	37.14	-34.7	-35.9	19.2	0.00e+00	0	61	0	1836056576	40	4260
2026-01-24 02:51:33.92	277.23	36.77	-34.4	-35.6	19.5	0.00e+00	0	61	0	1859125248	40	4136
2026-01-24 02:51:37.96	275.68	36.38	-34.7	-35.9	19.2	0.00e+00	0	61	0	1881145344	40	4287
2026-01-24 02:51:42.01	274.16	35.97	-34.8	-36.0	19.1	0.00e+00	0	61	0	1904214016	40	4324
2026-01-24 02:51:46.04	272.69	35.54	-34.7	-35.9	19.2	0.00e+00	0	61	0	1927282688	40	4259
2026-01-24 02:51:50.08	271.25	35.10	-34.5	-35.7	19.4	0.00e+00	0	61	0	1950351360	40	4181
2026-01-24 02:51:54.12	269.85	34.65	-34.6	-35.8	19.2	0.00e+00	0	61	0	1972371456	40	4236
2026-01-24 02:51:58.16	268.49	34.18	-34.7	-35.9	19.2	0.00e+00	0	61	0	1995440128	40	4278
2026-01-24 02:52:02.20	267.16	33.70	-34.7	-35.9	19.1	0.00e+00	0	61	0	2017460224	40	4289
2026-01-24 02:52:06.23	265.88	33.22	-34.9	-36.2	18.9	0.00e+00	0	61	0	2040528896	40	4393
2026-01-24 02:52:10.27	264.64	32.72	-34.7	-35.9	19.1	0.00e+00	0	61	0	2063597568	40	4257
2026-01-24 02:52:14.31	263.43	32.22	-35.0	-36.2	18.8	0.00e+00	0	61	0	2085617664	40	4426
2026-01-24 02:52:18.36	262.26	31.71	-34.9	-36.2	18.9	0.00e+00	0	61	0	2108686336	40	4406
2026-01-24 02:52:22.39	261.13	31.20	-34.7	-35.9	19.1	0.00e+00	0	61	0	2131755008	40	4283
2026-01-24 02:52:26.43	260.03	30.69	-34.5	-35.7	19.3	0.00e+00	0	61	0	2154823680	40	4154
2026-01-24 02:52:30.47	258.97	30.17	-34.8	-36.1	19.0	0.00e+00	0	61	0	2176843776	40	4348
2026-01-24 02:52:34.51	257.94	29.65	-34.8	-36.1	19.0	0.00e+00	0	61	0	2199912448	40	4351
2026-01-24 02:52:38.55	256.94	29.13	-35.0	-36.2	18.8	0.00e+00	0	61	0	2221932544	40	4440
2026-01-24 02:52:42.59	255.98	28.62	-35.1	-36.4	18.6	0.00e+00	0	61	0	2245001216	40	4528
2026-01-24 02:52:46.63	255.04	28.10	-35.1	-36.4	18.6	0.00e+00	0	61	0	2268069888	40	4536
2026-01-24 02:52:50.67	254.14	27.58	-35.2	-36.5	18.5	0.00e+00	0	61	0	2290089984	40	4556
2026-01-24 02:52:54.71	253.26	27.07	-35.2	-36.5	18.5	0.00e+00	0	61	0	2313158656	40	4572
2026-01-24 02:52:58.74	252.42	26.56	-35.3	-36.6	18.3	0.00e+00	0	61	0	2336227328	41	4381
2026-01-24 02:53:02.78	251.60	26.05	-35.3	-36.7	18.3	0.00e+00	0	61	0	2359296000	41	4394
2026-01-24 02:53:06.82	250.80	25.54	-35.6	-36.9	18.1	0.00e+00	0	61	0	2381316096	41	4518
2026-01-24 02:53:10.85	250.03	25.04	-35.7	-37.1	17.9	0.00e+00	0	61	0	2404384768	42	4371
2026-01-24 02:53:14.89	249.29	24.54	-35.6	-37.0	18.0	0.00e+00	0	61	0	2426404864	42	4303
2026-01-24 02:53:18.94	248.57	24.05	-35.7	-37.1	17.9	0.00e+00	0	61	0	2449473536	42	4346
2026-01-24 02:53:22.98	247.87	23.56	-35.6	-37.0	18.0	0.00e+00	0	61	0	2472542208	42	4300
2026-01-24 02:53:27.01	247.19	23.07	-35.6	-36.9	18.0	0.00e+00	0	61	0	2494562304	42	4279
2026-01-24 02:53:31.05	246.53	22.59	-35.6	-36.9	18.0	0.00e+00	0	61	0	2517630976	42	4288
2026-01-24 02:53:35.09	245.90	22.12	-35.8	-37.1	17.8	0.00e+00	0	61	0	2540699648	42	4387
2026-01-24 02:53:39.13	245.28	21.65	-35.9	-37.3	17.6	0.00e+00	0	61	0	2563768320	42	4465
2026-01-24 02:53:43.17	244.68	21.18	-35.8	-37.2	17.7	0.00e+00	0	61	0	2585788416	42	4426
2026-01-24 02:53:47.21	244.10	20.72	-35.8	-37.2	17.7	0.00e+00	0	61	0	2608857088	42	4414
2026-01-24 02:53:51.25	243.54	20.27	-35.9	-37.3	17.6	0.00e+00	0	61	0	2630877184	42	4487
2026-01-24 02:53:55.29	242.99	19.82	-36.0	-37.5	17.4	0.00e+00	0	61	0	2653945856	42	4547
2026-01-24 02:53:59.33	242.46	19.38	-36.1	-37.5	17.3	0.00e+00	0	61	0	2677014528	42	4597
2026-01-24 02:54:03.37	241.94	18.94	-36.3	-37.7	17.1	0.00e+00	0	61	0	2699034624	43	4440
2026-01-24 02:54:07.41	241.44	18.51	-36.3	-37.7	17.1	0.00e+00	0	61	0	2722103296	43	4427
2026-01-24 02:54:11.45	240.95	18.08	-36.4	-38.0	16.9	0.00e+00	0	61	0	2745171968	43	4547
2026-01-24 02:54:15.49	240.48	17.66	-36.5	-38.0	16.8	0.00e+00	0	61	0	2768240640	43	4586
2026-01-24 02:54:19.53	240.02	17.24	-36.6	-38.2	16.6	0.00e+00	0	61	0	2790260736	43	4659
2026-01-24 02:54:23.57	239.57	16.83	-36.9	-38.5	16.5	0.00e+00	0	61	0	2813329408	44	4555
2026-01-24 02:54:27.61	239.14	16.42	-36.9	-38.5	16.4	0.00e+00	0	61	0	2835349504	44	4583
2026-01-24 02:54:31.64	238.72	16.02	-37.0	-38.5	16.4	0.00e+00	0	61	0	2858418176	44	4589
2026-01-24 02:54:35.68	238.31	15.62	-37.1	-38.7	16.2	0.00e+00	0	61	0	2881486848	44	4700
2026-01-24 02:54:39.72	237.90	15.23	-37.3	-38.9	16.0	0.00e+00	0	61	0	2903506944	45	4544
2026-01-24 02:54:43.76	237.51	14.84	-37.4	-39.1	15.8	0.00e+00	0	61	0	2926575616	45	4609
2026-01-24 02:54:47.79	237.13	14.46	-37.4	-39.1	15.7	0.00e+00	0	61	0	2949644288	45	4648
2026-01-24 02:54:51.83	236.76	14.08	-37.5	-39.2	15.6	0.00e+00	0	61	0	2972712960	45	4660
2026-01-24 02:54:55.87	236.40	13.71	-37.7	-39.4	15.4	0.00e+00	0	61	0	2994733056	45	4795
2026-01-24 02:54:59.91	236.05	13.34	-37.6	-39.3	15.5	0.00e+00	0	61	0	3017801728	45	4742
2026-01-24 02:55:03.95	235.71	12.98	-37.8	-39.5	15.3	0.00e+00	0	61	0	3039821824	46	4582
2026-01-24 02:55:07.99	235.38	12.62	-37.8	-39.6	15.1	1.10e-06	0	61	0	3062890496	46	4640
2026-01-24 02:55:12.03	235.05	12.26	-38.0	-39.8	14.9	0.00e+00	0	61	0	3085959168	46	4735
2026-01-24 02:55:16.06	234.73	11.91	-38.1	-40.0	14.7	1.10e-06	0	61	0	3107979264	46	4854
2026-01-24 02:55:20.10	234.42	11.56	-38.2	-40.1	14.6	0.00e+00	0	61	0	3131047936	46	4920
2026-01-24 02:55:24.15	234.12	11.22	-38.1	-40.0	14.6	0.00e+00	0	61	0	3154116608	47	4580
2026-01-24 02:55:28.19	233.82	10.88	-38.1	-40.0	14.7	1.10e-06	0	61	0	3177185280	47	4551
2026-01-24 02:55:32.22	233.53	10.55	-38.1	-40.1	14.6	2.20e-06	0	61	0	3199205376	47	4602
2026-01-24 02:55:36.26	233.25	10.22	-38.2	-40.2	14.5	1.10e-06	0	61	0	3222274048	47	4659
2026-01-24 02:55:40.29	232.98	9.89	-38.3	-40.3	14.3	1.10e-06	0	61	0	3244294144	47	4726
2026-01-24 02:55:44.33	232.71	9.56	-38.4	-40.4	14.2	1.10e-06	0	61	0	3267362816	47	4772
2026-01-24 02:55:48.37	232.44	9.24	-38.5	-40.6	13.9	8.00e-06	0	61	0	3290431488	47	4891
2026-01-24 02:55:52.41	232.19	8.93	-38.6	-40.7	13.8	8.00e-06	0	62	0	3312451584	47	4930
2026-01-24 02:55:56.44	231.94	8.61	-38.7	-40.8	13.6	9.10e-06	0	61	0	3335520256	47	5035
2026-01-24 02:56:00.49	231.69	8.30	-38.8	-41.0	13.5	1.48e-05	0	61	0	3358588928	48	4841
2026-01-24 02:56:04.53	231.45	8.00	-41.5	-45.3	9.5	2.05e-05	0	61	0	3381657600	53	5950
2026-01-24 02:56:08.57	231.21	7.69	-45.1	-56.8	3.8	8.47e-01	0	61	104	3382706176	60	15049
2026-01-24 02:56:12.61	230.98	7.39	-45.2	-57.0	3.8	8.46e-01	0	62	104	3382706176	61	14403
2026-01-24 02:56:16.65	230.76	7.09	-45.2	-56.9	3.8	8.45e-01	0	61	104	3382706176	61	14276
2026-01-24 02:56:20.70	230.53	6.80	-45.2	-56.9	3.8	8.46e-01	0	61	104	3382706176	61	14277
2026-01-24 02:56:24.74	230.32	6.51	-45.1	-56.8	3.8	8.45e-01	0	61	104	3382706176	61	14138
2026-01-24 02:56:28.77	230.11	6.22	-45.1	-56.8	3.8	8.45e-01	0	61	104	3382706176	61	14158
2026-01-24 02:56:32.82	229.90	5.93	-45.1	-56.8	3.8	8.46e-01	0	61	104	3382706176	61	14087
2026-01-24 02:56:36.86	229.70	5.65	-45.1	-56.8	3.8	8.47e-01	0	61	104	3382706176	61	14137
2026-01-24 02:56:40.90	229.50	5.37	-45.1	-56.8	3.8	8.46e-01	0	62	104	3382706176	61	14108
2026-01-24 02:56:44.94	229.30	5.09	-45.1	-56.8	3.8	8.48e-01	0	62	104	3382706176	61	14103
2026-01-24 02:56:48.98	229.11	4.82	-45.1	-56.8	3.8	8.45e-01	0	61	104	3382706176	61	14098
2026-01-24 02:56:53.02	228.92	4.55	-45.1	-56.8	3.8	8.46e-01	0	61	104	3382706176	61	14085
2026-01-24 02:56:57.07	228.74	4.27	-45.1	-56.8	3.8	8.46e-01	0	61	104	3382706176	61	14053
2026-01-24 02:57:01.11	228.56	4.01	-45.0	-56.8	3.8	8.46e-01	0	62	104	3382706176	61	14079
2026-01-24 02:57:05.15	228.38	3.74	-45.0	-56.8	3.8	8.46e-01	0	61	104	3382706176	61	14080
2026-01-24 02:57:09.19	228.21	3.48	-45.0	-56.8	3.8	8.47e-01	0	61	104	3382706176	61	14064
2026-01-24 02:57:13.23	228.04	3.22	-45.0	-56.7	3.8	8.46e-01	0	61	104	3382706176	61	14029
2026-01-24 02:57:17.28	227.87	2.96	-45.1	-56.8	3.8	8.46e-01	0	61	104	3382706176	61	14066
2026-01-24 02:57:21.32	227.70	2.70	-45.0	-56.8	3.8	8.45e-01	0	62	104	3382706176	61	14130
2026-01-24 02:57:25.36	227.54	2.45	-45.0	-56.7	3.8	8.46e-01	0	62	104	3382706176	61	14037
2026-01-24 02:57:29.40	227.38	2.20	-45.0	-56.7	3.8	8.45e-01	0	61	104	3382706176	61	14041
2026-01-24 02:57:33.44	227.23	1.95	-45.0	-56.8	3.8	8.45e-01	0	61	104	3382706176	61	14084

#Closed at: 2026-01-24 02:57:34
#Recorded file [3382 MB]: D:/lorett/data/31039_260124_054349.dat