passes_logs/2026/01/24/R2.0S_Moscow/R2.0S_Moscow__20260124_200613_FENGYUN_3G_rec.log

#Pass ID: 20260124_200613_FENGYUN 3G
#Satellite: FENGYUN 3G
#Configuration: FENGYUN 3G
#almurnet v.1.7.20251203
#Start time: 2026-01-24 20:06:14

#Version: 2.2.20231116
#Station: R2.0S_Moscow
#Location: 37.707566 lon 55.798166 lat
#TLE: 1 56232U 23055A   26024.24521059  .00049620  00000+0  74824-3 0  9993
#TLE: 2 56232  49.9947   8.2107 0004117  75.2128 284.9296 15.54221826157636

#Time	Az	El	Level	Level2	SNR	BER	BlckErr	Temp	State	Recorded	gain1	gain2
2026-01-24 20:06:14.26	257.83	2.06	-44.1	-62.2	3.8	8.46e-01	0	52	0	0	60	27849
2026-01-24 20:06:17.29	257.63	2.26	-44.1	-62.2	3.8	8.47e-01	0	52	104	0	60	28002
2026-01-24 20:06:20.32	257.43	2.46	-44.1	-62.2	3.8	8.47e-01	0	52	104	0	60	27822
2026-01-24 20:06:23.35	257.22	2.66	-44.1	-62.0	3.8	8.46e-01	0	53	104	0	60	27336
2026-01-24 20:06:26.38	257.01	2.86	-44.1	-62.0	3.8	8.47e-01	0	53	104	0	60	27344
2026-01-24 20:06:29.41	256.79	3.07	-44.1	-62.1	3.8	8.46e-01	0	53	104	0	60	27638
2026-01-24 20:06:32.45	256.57	3.28	-44.1	-62.2	3.8	8.46e-01	0	53	104	0	60	27929
2026-01-24 20:06:35.48	256.35	3.49	-44.1	-62.2	3.8	8.45e-01	0	53	104	0	60	27769
2026-01-24 20:06:38.51	256.12	3.70	-44.1	-62.1	3.8	8.46e-01	0	54	104	0	60	27647
2026-01-24 20:06:41.54	255.88	3.91	-44.1	-62.2	3.8	8.45e-01	0	54	104	0	60	27771
2026-01-24 20:06:44.57	255.64	4.13	-44.1	-62.1	3.8	8.46e-01	0	54	104	0	60	27697
2026-01-24 20:06:47.60	255.40	4.35	-44.1	-61.7	3.8	8.46e-01	0	54	104	0	60	26236
2026-01-24 20:06:50.63	255.15	4.57	-44.1	-61.2	3.8	8.46e-01	0	54	104	0	60	24741
2026-01-24 20:06:53.66	254.89	4.80	-44.0	-61.5	3.8	8.47e-01	0	55	104	0	60	25622
2026-01-24 20:06:56.69	254.63	5.02	-44.0	-61.7	3.8	8.47e-01	0	55	104	0	60	26439
2026-01-24 20:06:59.72	254.36	5.25	-44.0	-60.7	3.8	8.46e-01	0	55	104	0	60	23540
2026-01-24 20:07:02.76	254.09	5.48	-44.0	-59.1	4.1	8.44e-01	0	55	0	0	60	19573
2026-01-24 20:07:05.79	253.80	5.72	-44.0	-58.9	4.1	8.39e-01	0	55	0	0	59	20097
2026-01-24 20:07:08.82	253.52	5.95	-44.0	-58.2	4.3	8.36e-01	0	55	0	0	59	18697
2026-01-24 20:07:11.85	253.22	6.19	-43.9	-56.7	4.9	8.17e-01	0	56	0	0	59	15631
2026-01-24 20:07:14.88	252.92	6.44	-43.5	-52.8	8.0	3.82e-01	0	56	0	2097152	59	9995
2026-01-24 20:07:17.91	252.61	6.68	-43.1	-50.5	10.5	2.40e-02	0	56	0	5767168	58	8140
2026-01-24 20:07:20.94	252.29	6.93	-43.2	-51.1	9.9	2.97e-03	0	56	0	8912896	58	8699
2026-01-24 20:07:23.98	251.97	7.18	-44.0	-57.0	4.9	6.08e-02	0	56	0	12058624	58	17084
2026-01-24 20:07:27.01	251.64	7.44	-43.7	-54.3	6.5	8.42e-01	0	56	0	12058624	58	12636
2026-01-24 20:07:30.04	251.30	7.70	-42.1	-47.2	13.9	4.53e-04	0	56	0	15204352	56	6222
2026-01-24 20:07:33.07	250.95	7.96	-41.1	-45.3	15.8	0.00e+00	0	56	0	18874368	54	5598
2026-01-24 20:07:36.10	250.59	8.22	-41.7	-46.5	14.6	4.05e-04	0	57	0	22020096	55	6075
2026-01-24 20:07:39.13	250.22	8.49	-43.2	-51.2	9.6	1.95e-02	0	56	0	25165824	57	9378
2026-01-24 20:07:42.15	249.84	8.76	-40.6	-44.3	16.8	0.00e+00	0	57	0	28835840	53	5302
2026-01-24 20:07:45.18	249.46	9.04	-40.6	-44.1	16.9	0.00e+00	0	57	0	31981568	53	5212
2026-01-24 20:07:48.22	249.06	9.32	-40.4	-43.7	17.4	0.00e+00	0	57	0	35651584	52	5264
2026-01-24 20:07:51.24	248.65	9.60	-40.3	-43.5	17.7	0.00e+00	0	57	0	38797312	52	5139
2026-01-24 20:07:54.27	248.23	9.88	-40.3	-43.6	17.7	0.00e+00	0	57	0	42467328	52	5169
2026-01-24 20:07:57.30	247.80	10.17	-40.3	-43.6	17.6	0.00e+00	0	57	0	45613056	52	5205
2026-01-24 20:08:00.33	247.36	10.47	-40.3	-43.6	17.7	0.00e+00	0	57	0	49283072	52	5180
2026-01-24 20:08:03.35	246.90	10.76	-40.3	-43.4	17.8	0.00e+00	0	57	0	52428800	52	5097
2026-01-24 20:08:06.38	246.43	11.07	-40.0	-43.0	18.4	0.00e+00	0	57	0	56098816	51	5125
2026-01-24 20:08:09.41	245.95	11.37	-40.0	-43.0	18.4	0.00e+00	0	58	0	59244544	51	5122
2026-01-24 20:08:12.44	245.46	11.68	-40.0	-43.0	18.4	0.00e+00	0	57	0	62914560	51	5135
2026-01-24 20:08:15.47	244.95	12.00	-39.9	-42.8	18.6	0.00e+00	0	58	0	66060288	51	5029
2026-01-24 20:08:18.50	244.42	12.32	-39.9	-42.7	18.7	0.00e+00	0	58	0	69730304	51	4968
2026-01-24 20:08:21.53	243.88	12.64	-39.6	-42.4	19.1	0.00e+00	0	58	0	72876032	51	4785
2026-01-24 20:08:24.56	243.33	12.97	-39.9	-42.7	18.7	0.00e+00	0	58	0	76546048	51	4978
2026-01-24 20:08:27.59	242.75	13.30	-39.9	-42.7	18.7	0.00e+00	0	58	0	79691776	51	4980
2026-01-24 20:08:30.62	242.16	13.64	-39.4	-42.0	19.5	0.00e+00	0	58	0	83361792	50	4828
2026-01-24 20:08:33.64	241.56	13.98	-39.3	-41.9	19.7	0.00e+00	0	58	0	86507520	50	4771
2026-01-24 20:08:36.67	240.93	14.32	-39.3	-41.9	19.6	0.00e+00	0	58	0	90177536	50	4798
2026-01-24 20:08:39.70	240.29	14.67	-39.3	-41.9	19.7	0.00e+00	0	58	0	93323264	50	4784
2026-01-24 20:08:42.73	239.62	15.03	-39.2	-41.7	19.9	0.00e+00	0	58	0	96993280	50	4676
2026-01-24 20:08:45.76	238.93	15.39	-39.0	-41.5	20.1	0.00e+00	0	58	0	100139008	50	4568
2026-01-24 20:08:48.79	238.23	15.75	-38.9	-41.4	20.3	0.00e+00	0	58	0	103809024	49	4761
2026-01-24 20:08:51.82	237.50	16.12	-38.8	-41.2	20.5	0.00e+00	0	58	0	106954752	49	4668
2026-01-24 20:08:54.85	236.74	16.49	-38.8	-41.1	20.5	0.00e+00	0	58	0	110624768	49	4622
2026-01-24 20:08:57.88	235.96	16.86	-38.5	-40.8	20.9	0.00e+00	0	59	0	113770496	49	4457
2026-01-24 20:09:00.91	235.16	17.24	-38.6	-40.9	20.8	0.00e+00	0	58	0	117440512	48	4777
2026-01-24 20:09:03.94	234.33	17.62	-38.6	-40.9	20.9	0.00e+00	0	58	0	120586240	48	4761
2026-01-24 20:09:06.97	233.48	18.01	-38.3	-40.5	21.2	0.00e+00	0	59	0	124256256	48	4589
2026-01-24 20:09:09.99	232.60	18.40	-38.1	-40.2	21.5	0.00e+00	0	59	0	127401984	48	4432
2026-01-24 20:09:13.02	231.69	18.79	-38.4	-40.5	21.2	0.00e+00	0	59	0	131072000	48	4592
2026-01-24 20:09:16.05	230.75	19.18	-38.6	-40.9	20.9	0.00e+00	0	59	0	134217728	48	4795
2026-01-24 20:09:19.08	229.78	19.57	-38.1	-40.2	21.5	0.00e+00	0	59	0	137887744	48	4434
2026-01-24 20:09:22.11	228.78	19.97	-37.8	-39.9	21.8	0.00e+00	0	59	0	141033472	47	4524
2026-01-24 20:09:25.14	227.74	20.37	-38.0	-40.1	21.6	0.00e+00	0	59	0	144703488	47	4642
2026-01-24 20:09:28.16	226.68	20.76	-38.1	-40.2	21.5	0.00e+00	0	59	0	147849216	47	4691
2026-01-24 20:09:31.20	225.58	21.16	-37.9	-40.0	21.8	0.00e+00	0	59	0	151519232	47	4577
2026-01-24 20:09:34.22	224.45	21.55	-37.6	-39.6	22.1	0.00e+00	0	59	0	154664960	47	4382
2026-01-24 20:09:37.25	223.28	21.95	-37.7	-39.7	22.2	0.00e+00	0	59	0	158334976	47	4396
2026-01-24 20:09:40.28	222.08	22.33	-37.6	-39.6	22.2	0.00e+00	0	59	0	161480704	47	4362
2026-01-24 20:09:43.31	220.83	22.72	-37.5	-39.4	22.4	0.00e+00	0	59	0	165150720	46	4518
2026-01-24 20:09:46.34	219.56	23.10	-37.5	-39.4	22.4	0.00e+00	0	59	0	168296448	46	4519
2026-01-24 20:09:49.36	218.25	23.47	-37.7	-39.7	22.1	0.00e+00	0	59	0	171966464	46	4658
2026-01-24 20:09:52.40	216.89	23.84	-37.4	-39.3	22.5	0.00e+00	0	59	0	175112192	46	4458
2026-01-24 20:09:55.42	215.51	24.20	-37.2	-39.1	22.7	0.00e+00	0	59	0	178782208	46	4386
2026-01-24 20:09:58.45	214.08	24.55	-37.2	-39.0	22.8	0.00e+00	0	59	0	181927936	46	4340
2026-01-24 20:10:01.48	212.62	24.88	-36.9	-38.7	23.1	0.00e+00	0	59	0	185597952	45	4416
2026-01-24 20:10:04.51	211.12	25.21	-37.0	-38.8	23.0	0.00e+00	0	59	0	188743680	45	4461
2026-01-24 20:10:07.54	209.59	25.52	-36.7	-38.5	23.3	0.00e+00	0	59	0	192413696	45	4332
2026-01-24 20:10:10.57	208.02	25.81	-36.9	-38.7	23.1	0.00e+00	0	59	0	195559424	45	4402
2026-01-24 20:10:13.60	206.42	26.09	-36.9	-38.8	23.0	0.00e+00	0	59	0	199229440	45	4459
2026-01-24 20:10:16.63	204.79	26.34	-36.7	-38.5	23.3	0.00e+00	0	59	0	202375168	45	4314
2026-01-24 20:10:19.65	203.13	26.58	-36.8	-38.6	23.2	0.00e+00	0	59	0	206045184	45	4362
2026-01-24 20:10:22.69	201.44	26.80	-36.6	-38.4	23.3	0.00e+00	0	60	0	209190912	44	4502
2026-01-24 20:10:25.71	199.73	26.99	-36.5	-38.2	23.5	0.00e+00	0	59	0	212860928	44	4429
2026-01-24 20:10:28.75	197.99	27.16	-36.4	-38.2	23.6	0.00e+00	0	59	0	216006656	44	4418
2026-01-24 20:10:31.78	196.23	27.31	-37.0	-38.8	23.0	0.00e+00	0	60	0	219676672	44	4751
2026-01-24 20:10:34.80	194.46	27.43	-36.6	-38.4	23.3	0.00e+00	0	60	0	222822400	44	4525
2026-01-24 20:10:37.83	192.68	27.52	-36.6	-38.3	23.4	0.00e+00	0	60	0	226492416	44	4481
2026-01-24 20:10:40.86	190.88	27.59	-36.5	-38.2	23.6	0.00e+00	0	60	0	229638144	44	4419
2026-01-24 20:10:43.88	189.08	27.63	-36.8	-38.6	23.1	0.00e+00	0	60	0	233308160	44	4624
2026-01-24 20:10:46.91	187.28	27.64	-36.9	-38.7	23.0	0.00e+00	0	60	0	236453888	44	4694
2026-01-24 20:10:49.94	185.47	27.62	-36.7	-38.5	23.3	0.00e+00	0	60	0	240123904	44	4549
2026-01-24 20:10:52.97	183.67	27.57	-36.5	-38.3	23.4	0.00e+00	0	60	0	243269632	44	4471
2026-01-24 20:10:56.00	181.88	27.50	-36.3	-38.0	23.7	0.00e+00	0	60	0	246939648	44	4322
2026-01-24 20:10:59.03	180.09	27.40	-36.7	-38.5	23.3	0.00e+00	0	60	0	250085376	44	4568
2026-01-24 20:11:02.06	178.32	27.27	-36.4	-38.1	23.5	0.00e+00	0	60	0	253755392	44	4390
2026-01-24 20:11:05.09	176.57	27.12	-35.8	-37.5	24.1	0.00e+00	0	60	0	256901120	43	4306
2026-01-24 20:11:08.12	174.84	26.94	-36.8	-38.6	23.3	0.00e+00	0	60	0	260571136	45	4368
2026-01-24 20:11:11.15	173.13	26.74	-36.0	-37.7	24.1	0.00e+00	0	60	0	263716864	44	4179
2026-01-24 20:11:14.18	171.45	26.51	-36.4	-38.2	23.5	0.00e+00	0	60	0	267386880	43	4658
2026-01-24 20:11:17.21	169.80	26.27	-36.7	-38.6	23.1	0.00e+00	0	60	0	270532608	43	4879
2026-01-24 20:11:20.24	168.18	26.01	-37.2	-39.1	22.8	0.00e+00	0	60	0	274202624	44	4900
2026-01-24 20:11:23.27	166.59	25.72	-37.3	-39.2	22.8	0.00e+00	0	60	0	277348352	45	4663
2026-01-24 20:11:26.30	165.03	25.43	-36.8	-38.6	23.3	0.00e+00	0	60	0	281018368	45	4390
2026-01-24 20:11:29.33	163.50	25.11	-37.6	-39.5	22.5	0.00e+00	0	60	0	284164096	45	4866
2026-01-24 20:11:32.35	162.02	24.78	-37.2	-39.1	22.9	0.00e+00	0	60	0	287834112	46	4381
2026-01-24 20:11:35.38	160.57	24.44	-37.6	-39.6	22.5	0.00e+00	0	60	0	290979840	46	4601
2026-01-24 20:11:38.41	159.15	24.09	-37.4	-39.3	22.7	0.00e+00	0	60	0	294649856	46	4455
2026-01-24 20:11:41.44	157.78	23.73	-37.1	-38.9	23.1	0.00e+00	0	60	0	297795584	46	4285
2026-01-24 20:11:44.47	156.43	23.36	-37.7	-39.7	22.4	0.00e+00	0	60	0	301465600	46	4672
2026-01-24 20:11:47.50	155.13	22.99	-37.5	-39.5	22.5	0.00e+00	0	60	0	304611328	46	4583
2026-01-24 20:11:50.52	153.87	22.61	-37.2	-39.2	22.8	0.00e+00	0	60	0	308281344	46	4395
2026-01-24 20:11:53.56	152.63	22.22	-37.7	-39.7	22.3	0.00e+00	0	60	0	311427072	46	4688
2026-01-24 20:11:56.58	151.44	21.83	-38.0	-40.1	21.9	0.00e+00	0	60	0	315097088	46	4901
2026-01-24 20:11:59.61	150.28	21.44	-37.9	-40.0	22.0	0.00e+00	0	60	0	318242816	46	4851
2026-01-24 20:12:02.64	149.16	21.04	-38.1	-40.2	21.8	0.00e+00	0	60	0	321912832	46	4979
2026-01-24 20:12:05.67	148.07	20.64	-38.1	-40.2	21.8	0.00e+00	0	60	0	325058560	46	4958
2026-01-24 20:12:08.70	147.01	20.25	-38.3	-40.5	21.5	0.00e+00	0	60	0	328728576	47	4864
2026-01-24 20:12:11.73	145.99	19.85	-38.1	-40.2	21.7	0.00e+00	0	60	0	331874304	47	4700
2026-01-24 20:12:14.76	144.99	19.45	-38.6	-40.9	21.1	0.00e+00	0	60	0	335544320	47	5084
2026-01-24 20:12:17.79	144.03	19.06	-38.5	-40.7	21.2	0.00e+00	0	60	0	338690048	47	4982
2026-01-24 20:12:20.82	143.10	18.67	-38.4	-40.7	21.2	0.00e+00	0	60	0	342360064	47	4961
2026-01-24 20:12:23.84	142.20	18.28	-38.3	-40.6	21.3	0.00e+00	0	60	0	345505792	47	4886
2026-01-24 20:12:26.87	141.33	17.89	-38.5	-40.8	21.1	0.00e+00	0	60	0	349175808	47	5018
2026-01-24 20:12:29.90	140.48	17.51	-38.7	-41.0	21.0	0.00e+00	0	60	0	352321536	48	4840
2026-01-24 20:12:32.93	139.66	17.13	-38.5	-40.8	21.1	0.00e+00	0	60	0	355991552	48	4730
2026-01-24 20:12:35.96	138.86	16.75	-38.8	-41.2	20.7	0.00e+00	0	60	0	359137280	48	4936
2026-01-24 20:12:38.99	138.09	16.37	-39.1	-41.6	20.3	0.00e+00	0	60	0	362807296	48	5191
2026-01-24 20:12:42.02	137.35	16.00	-39.1	-41.6	19.4	1.10e-06	0	60	0	365953024	48	5217
2026-01-24 20:12:45.04	136.62	15.64	-38.8	-41.5	20.2	4.80e-05	0	60	0	369623040	48	5129
2026-01-24 20:12:48.07	135.92	15.28	-33.5	-41.6	19.1	4.88e-03	0	60	0	372768768	47	5477
2026-01-24 20:12:51.10	135.24	14.92	-36.3	-41.7	17.9	1.08e-03	0	60	0	376438784	45	6214
2026-01-24 20:12:54.13	134.58	14.57	-38.9	-42.0	18.1	5.51e-02	0	60	0	379584512	48	5418
2026-01-24 20:12:57.16	133.94	14.22	-36.3	-41.9	15.1	4.46e-03	0	61	0	382730240	46	6037
2026-01-24 20:13:00.19	133.32	13.87	-38.7	-42.5	15.0	1.09e-02	0	61	0	386400256	48	5751
2026-01-24 20:13:03.22	132.72	13.53	-37.6	-43.0	12.3	5.78e-02	0	61	0	389545984	45	7255
2026-01-24 20:13:06.25	132.13	13.20	-25.6	-40.9	6.3	2.27e-01	0	60	104	392167424	28	15219
2026-01-24 20:13:09.28	131.56	12.87	-31.2	-41.8	10.5	7.80e-01	0	60	0	392691712	35	11175
2026-01-24 20:13:12.31	131.01	12.54	-26.9	-41.1	5.0	6.31e-01	0	60	104	394264576	21	23158
2026-01-24 20:13:15.34	130.47	12.22	-24.7	-40.9	6.4	6.75e-01	0	61	0	394264576	20	24093
2026-01-24 20:13:18.36	129.96	11.90	-23.7	-41.1	6.4	6.54e-01	0	61	0	394264576	22	21840
2026-01-24 20:13:21.39	129.45	11.59	-19.5	-38.6	4.0	8.30e-01	0	61	104	394264576	9	34628
2026-01-24 20:13:24.42	128.96	11.28	-20.8	-38.7	3.9	8.33e-01	0	61	104	394264576	12	29511
2026-01-24 20:13:27.45	128.48	10.97	-21.2	-39.7	4.4	8.33e-01	0	61	104	394264576	18	23484
2026-01-24 20:13:30.48	128.02	10.67	-16.2	-37.1	3.6	8.26e-01	0	61	104	394264576	4	38832
2026-01-24 20:13:33.50	127.57	10.37	-19.4	-39.0	3.6	8.33e-01	0	61	104	394264576	7	40739
2026-01-24 20:13:36.53	127.13	10.08	-23.3	-41.1	4.7	8.23e-01	0	61	104	394264576	18	27533
2026-01-24 20:13:39.56	126.70	9.79	-23.8	-42.6	3.9	8.30e-01	0	61	104	394264576	16	36835
2026-01-24 20:13:42.59	126.28	9.51	-22.5	-43.4	4.5	8.36e-01	0	61	104	394264576	20	31977
2026-01-24 20:13:45.62	125.87	9.23	-26.2	-42.0	4.5	8.33e-01	0	60	104	394264576	23	22783
2026-01-24 20:13:48.64	125.48	8.95	-22.4	-40.9	5.0	8.28e-01	0	61	104	394264576	25	17991
2026-01-24 20:13:51.67	125.10	8.67	-28.9	-44.6	5.6	7.63e-01	0	60	0	394264576	26	25992
2026-01-24 20:13:54.70	124.72	8.40	-28.4	-43.4	4.4	7.85e-01	0	61	104	394264576	27	21340
2026-01-24 20:13:57.74	124.35	8.14	-31.7	-47.4	4.4	8.33e-01	0	61	104	394264576	31	26963
2026-01-24 20:14:00.76	124.00	7.87	-41.8	-62.1	3.8	7.36e-01	0	61	104	394264576	53	41242
2026-01-24 20:14:03.80	123.65	7.61	-45.3	-63.5	3.8	8.46e-01	0	61	104	394264576	61	30715
2026-01-24 20:14:06.83	123.31	7.35	-45.7	-64.0	3.8	8.47e-01	0	61	104	394264576	62	30718
2026-01-24 20:14:09.86	122.98	7.10	-45.7	-64.0	3.8	8.46e-01	0	60	104	394264576	62	30626
2026-01-24 20:14:12.89	122.66	6.85	-45.5	-63.7	3.8	8.47e-01	0	61	104	394264576	62	29358
2026-01-24 20:14:15.92	122.34	6.60	-45.3	-63.4	3.8	8.45e-01	0	61	104	394264576	62	28393
2026-01-24 20:14:18.95	122.04	6.36	-45.3	-63.4	3.8	8.47e-01	0	61	104	394264576	62	28475
2026-01-24 20:14:21.98	121.74	6.12	-45.3	-63.4	3.8	8.47e-01	0	61	104	394264576	62	28364
2026-01-24 20:14:25.01	121.44	5.88	-45.3	-63.3	3.8	8.46e-01	0	61	104	394264576	62	28343
2026-01-24 20:14:28.05	121.16	5.64	-45.3	-63.3	3.8	8.45e-01	0	61	104	394264576	62	28319
2026-01-24 20:14:31.08	120.88	5.41	-45.3	-63.3	3.8	8.46e-01	0	61	104	394264576	62	28318
2026-01-24 20:14:34.10	120.61	5.18	-45.3	-63.3	3.8	8.46e-01	0	61	104	394264576	61	30015
2026-01-24 20:14:37.13	120.34	4.95	-45.2	-63.3	3.8	8.46e-01	0	61	104	394264576	61	29981
2026-01-24 20:14:40.16	120.08	4.72	-45.2	-63.3	3.8	8.45e-01	0	61	104	394264576	61	29964
2026-01-24 20:14:43.20	119.82	4.50	-45.2	-63.3	3.8	8.46e-01	0	61	104	394264576	61	29890
2026-01-24 20:14:46.23	119.57	4.28	-45.2	-63.3	3.8	8.46e-01	0	61	104	394264576	61	29826
2026-01-24 20:14:49.26	119.33	4.06	-45.2	-63.3	3.8	8.46e-01	0	61	104	394264576	61	29872
2026-01-24 20:14:52.30	119.09	3.84	-45.2	-63.3	3.8	8.46e-01	0	61	104	394264576	61	29823
2026-01-24 20:14:55.33	118.85	3.63	-45.2	-63.3	3.8	8.46e-01	0	61	104	394264576	61	29851
2026-01-24 20:14:58.36	118.62	3.42	-45.2	-63.3	3.8	8.46e-01	0	61	104	394264576	61	29808
2026-01-24 20:15:01.39	118.40	3.21	-45.2	-63.3	3.8	8.45e-01	0	61	104	394264576	61	29821
2026-01-24 20:15:04.42	118.18	3.00	-45.2	-63.3	3.8	8.46e-01	0	61	104	394264576	61	29895
2026-01-24 20:15:07.45	117.97	2.79	-45.2	-63.3	3.8	8.46e-01	0	61	104	394264576	61	29741
2026-01-24 20:15:10.48	117.76	2.59	-45.2	-63.3	3.8	8.46e-01	0	61	104	394264576	61	29724
2026-01-24 20:15:13.52	117.55	2.39	-45.2	-63.3	3.8	8.46e-01	0	61	104	394264576	61	29778
2026-01-24 20:15:16.55	117.35	2.19	-45.2	-63.3	3.8	8.47e-01	0	61	104	394264576	61	29704
2026-01-24 20:15:19.58	117.15	1.99	-44.7	-63.3	3.8	8.46e-01	0	61	104	394264576	61	29726

#Closed at: 2026-01-24 20:15:22
#Recorded file [394 MB]: D:/lorett/data/31039_260124_230614.dat