passes_logs/2026/01/24/R2.0S_Moscow/R2.0S_Moscow__20260124_013548_AQUA_rec.log

#Pass ID: 20260124_013548_AQUA
#Satellite: AQUA
#Configuration: AQUA
#almurnet v.1.7.20251203
#Start time: 2026-01-24 01:35:48

#Version: 2.2.20231116
#Station: R2.0S_Moscow
#Location: 37.707566 lon 55.798166 lat
#TLE: 1 27424U 02022A   26022.96978264  .00001879  00000+0  38593-3 0  9993
#TLE: 2 27424  98.4100 349.5315 0001958  69.4371  21.4765 14.61848807262053

#Time	Az	El	Level	Level2	SNR	BER	BlckErr	Temp	State	Recorded	gain1	gain2
2026-01-24 01:35:48.28	14.25	2.01	-43.9	-62.8	3.8	7.45e-01	0	53	0	0	59	31480
2026-01-24 01:35:51.30	14.22	2.21	-43.9	-62.8	3.8	7.43e-01	0	53	104	0	58	33375
2026-01-24 01:35:54.33	14.19	2.41	-43.9	-62.8	3.8	7.46e-01	0	53	104	0	58	33319
2026-01-24 01:35:57.37	14.17	2.62	-43.9	-62.7	3.8	7.47e-01	0	54	104	0	58	33305
2026-01-24 01:36:00.40	14.14	2.83	-43.9	-62.8	3.8	7.43e-01	0	54	104	0	58	33333
2026-01-24 01:36:03.43	14.11	3.03	-43.9	-62.7	3.8	7.47e-01	0	54	104	0	58	33286
2026-01-24 01:36:06.46	14.08	3.24	-43.9	-62.7	3.8	7.46e-01	0	54	104	0	58	33280
2026-01-24 01:36:09.49	14.05	3.45	-43.9	-62.7	3.8	7.48e-01	0	54	104	0	58	33273
2026-01-24 01:36:12.53	14.02	3.67	-43.9	-62.7	3.8	7.44e-01	0	54	104	0	58	33086
2026-01-24 01:36:15.56	13.99	3.88	-43.9	-62.6	3.8	7.47e-01	0	55	104	0	58	32648
2026-01-24 01:36:18.59	13.96	4.10	-43.9	-62.5	3.8	7.46e-01	0	55	104	0	58	32180
2026-01-24 01:36:21.62	13.93	4.31	-43.8	-62.3	3.8	7.43e-01	0	55	104	0	58	31533
2026-01-24 01:36:24.65	13.89	4.53	-43.8	-62.2	3.8	7.45e-01	0	55	104	0	58	31339
2026-01-24 01:36:27.68	13.86	4.76	-43.8	-62.2	3.8	7.43e-01	0	55	104	0	58	31443
2026-01-24 01:36:30.71	13.82	4.98	-43.8	-62.1	3.8	7.47e-01	0	55	104	0	58	31059
2026-01-24 01:36:33.74	13.79	5.21	-43.7	-61.8	3.8	7.43e-01	0	56	104	0	58	29877
2026-01-24 01:36:36.77	13.75	5.44	-43.6	-61.3	3.8	7.45e-01	0	56	104	0	58	28324
2026-01-24 01:36:39.81	13.71	5.67	-43.6	-61.1	3.8	7.44e-01	0	56	104	0	58	27447
2026-01-24 01:36:42.84	13.68	5.90	-43.6	-61.1	3.8	7.45e-01	0	56	104	0	58	27424
2026-01-24 01:36:45.87	13.64	6.14	-43.7	-61.7	3.8	7.44e-01	0	56	104	0	58	29553
2026-01-24 01:36:48.90	13.60	6.37	-43.8	-62.3	3.8	7.44e-01	0	56	104	0	58	31453
2026-01-24 01:36:51.93	13.56	6.61	-43.6	-61.0	3.8	7.44e-01	0	57	104	0	58	27116
2026-01-24 01:36:54.96	13.51	6.86	-42.9	-58.6	3.8	7.45e-01	0	56	104	0	57	21876
2026-01-24 01:36:58.00	13.47	7.10	-42.1	-56.5	3.8	7.44e-01	0	57	104	0	56	18230
2026-01-24 01:37:01.03	13.43	7.35	-41.6	-55.4	3.8	7.44e-01	0	57	104	0	55	17044
2026-01-24 01:37:04.06	13.38	7.60	-41.5	-55.3	3.8	7.42e-01	0	57	104	0	54	17869
2026-01-24 01:37:07.09	13.33	7.85	-42.0	-56.3	3.8	7.43e-01	0	57	104	0	54	19872
2026-01-24 01:37:10.12	13.29	8.11	-42.9	-57.9	3.8	7.42e-01	0	57	104	0	56	21469
2026-01-24 01:37:13.15	13.24	8.37	-43.3	-58.6	3.8	7.43e-01	0	57	104	0	58	20742
2026-01-24 01:37:16.18	13.19	8.63	-41.6	-55.4	3.8	7.47e-01	0	57	104	0	55	17058
2026-01-24 01:37:19.21	13.14	8.90	-41.9	-55.7	3.9	7.45e-01	0	58	104	0	55	17542
2026-01-24 01:37:22.23	13.09	9.16	-42.3	-57.7	3.8	7.44e-01	0	58	104	0	55	22025
2026-01-24 01:37:25.26	13.03	9.43	-41.5	-55.1	3.8	7.45e-01	0	58	104	0	55	16350
2026-01-24 01:37:28.29	12.98	9.71	-44.2	-62.7	3.8	7.43e-01	0	58	104	0	58	32937
2026-01-24 01:37:31.32	12.92	9.99	-41.5	-55.0	3.8	7.43e-01	0	58	104	0	54	17176
2026-01-24 01:37:34.34	12.86	10.27	-41.8	-55.1	3.8	7.44e-01	0	58	104	0	54	17376
2026-01-24 01:37:37.37	12.80	10.55	-42.4	-56.0	3.8	7.39e-01	0	58	104	0	56	17132
2026-01-24 01:37:40.40	12.74	10.84	-41.5	-55.0	3.8	7.42e-01	0	58	104	0	55	16223
2026-01-24 01:37:43.43	12.68	11.14	-41.5	-54.6	3.8	7.43e-01	0	58	104	0	55	15574
2026-01-24 01:37:46.46	12.62	11.43	-42.5	-57.0	3.8	7.43e-01	0	58	104	0	56	19357
2026-01-24 01:37:49.49	12.55	11.73	-41.9	-55.5	3.8	7.48e-01	0	58	104	0	55	17242
2026-01-24 01:37:52.52	12.49	12.04	-44.1	-60.8	3.9	7.42e-01	0	58	104	0	59	25007
2026-01-24 01:37:55.55	12.42	12.35	-43.1	-49.6	12.5	6.03e-01	0	58	0	1572864	56	8194
2026-01-24 01:37:58.56	12.35	12.66	-42.5	-47.5	14.8	6.00e-01	0	59	0	7340032	56	6473
2026-01-24 01:38:01.59	12.27	12.98	-41.8	-45.8	16.7	5.99e-01	0	59	0	13107200	55	5604
2026-01-24 01:38:04.62	12.20	13.30	-41.4	-44.8	17.8	5.99e-01	0	59	0	18350080	54	5312
2026-01-24 01:38:07.64	12.12	13.62	-41.2	-44.6	18.1	6.02e-01	0	59	0	24117248	54	5183
2026-01-24 01:38:10.67	12.04	13.96	-41.2	-44.5	18.3	6.00e-01	0	59	0	29884416	54	5110
2026-01-24 01:38:13.70	11.96	14.29	-41.1	-44.3	18.5	5.99e-01	0	59	0	35651584	54	5032
2026-01-24 01:38:16.72	11.88	14.64	-41.2	-44.3	18.6	6.00e-01	0	59	0	41418752	54	5037
2026-01-24 01:38:19.75	11.79	14.98	-41.0	-44.1	18.9	5.99e-01	0	59	0	47185920	54	4877
2026-01-24 01:38:22.78	11.70	15.34	-41.2	-44.2	18.8	6.01e-01	0	59	0	52428800	54	4961
2026-01-24 01:38:25.81	11.61	15.70	-41.3	-44.4	18.7	6.01e-01	0	59	0	58195968	54	5075
2026-01-24 01:38:28.83	11.52	16.06	-41.3	-44.3	18.8	5.98e-01	0	59	0	63963136	54	5040
2026-01-24 01:38:31.86	11.42	16.43	-41.4	-44.5	18.7	6.00e-01	0	59	0	69730304	54	5110
2026-01-24 01:38:34.89	11.32	16.81	-41.4	-44.4	18.8	6.01e-01	0	59	0	75497472	54	5098
2026-01-24 01:38:37.92	11.22	17.19	-41.4	-44.4	18.9	5.99e-01	0	59	0	81264640	54	5076
2026-01-24 01:38:40.95	11.11	17.58	-41.3	-44.2	19.1	6.00e-01	0	59	0	86507520	54	4970
2026-01-24 01:38:43.98	11.00	17.98	-41.3	-44.2	19.1	6.00e-01	0	59	0	92274688	54	4975
2026-01-24 01:38:47.01	10.89	18.38	-41.2	-44.1	19.2	6.00e-01	0	60	0	98041856	54	4919
2026-01-24 01:38:50.04	10.78	18.80	-41.2	-44.1	19.3	6.02e-01	0	60	0	103809024	54	4880
2026-01-24 01:38:53.06	10.66	19.21	-41.3	-44.2	19.2	6.02e-01	0	59	0	109576192	54	4981
2026-01-24 01:38:56.09	10.53	19.64	-41.4	-44.4	19.0	6.00e-01	0	60	0	115343360	54	5083
2026-01-24 01:38:59.12	10.41	20.07	-41.5	-44.6	18.8	6.03e-01	0	60	0	120586240	54	5173
2026-01-24 01:39:02.14	10.27	20.52	-41.5	-44.5	19.0	6.00e-01	0	60	0	126353408	54	5116
2026-01-24 01:39:05.17	10.14	20.97	-41.5	-44.5	19.0	6.00e-01	0	60	0	132120576	54	5123
2026-01-24 01:39:08.20	10.00	21.43	-41.5	-44.5	19.0	5.97e-01	0	60	0	137887744	54	5120
2026-01-24 01:39:11.22	9.85	21.90	-41.5	-44.5	19.0	5.99e-01	0	60	0	143654912	54	5150
2026-01-24 01:39:14.25	9.70	22.38	-41.5	-44.4	19.1	6.02e-01	0	60	0	149422080	54	5080
2026-01-24 01:39:17.28	9.54	22.87	-41.5	-44.4	19.2	6.01e-01	0	60	0	154664960	54	5066
2026-01-24 01:39:20.31	9.38	23.37	-41.4	-44.3	19.3	6.01e-01	0	60	0	160432128	54	4985
2026-01-24 01:39:23.34	9.21	23.88	-41.4	-44.3	19.2	6.00e-01	0	60	0	166199296	54	5041
2026-01-24 01:39:26.37	9.04	24.40	-41.5	-44.5	19.1	6.02e-01	0	60	0	171966464	54	5112
2026-01-24 01:39:29.40	8.86	24.93	-41.6	-44.6	19.0	5.98e-01	0	60	0	177733632	54	5199
2026-01-24 01:39:32.43	8.67	25.47	-41.7	-44.7	18.9	6.00e-01	0	60	0	182976512	54	5257
2026-01-24 01:39:35.46	8.48	26.03	-41.5	-44.5	19.1	6.02e-01	0	60	0	188743680	54	5121
2026-01-24 01:39:38.48	8.27	26.59	-41.4	-44.3	19.3	6.02e-01	0	60	0	194510848	54	5004
2026-01-24 01:39:41.51	8.06	27.17	-41.4	-44.3	19.4	6.00e-01	0	60	0	200278016	54	5019
2026-01-24 01:39:44.54	7.84	27.77	-41.4	-44.3	19.4	6.01e-01	0	60	0	206045184	54	4988
2026-01-24 01:39:47.57	7.61	28.37	-41.3	-44.1	19.6	6.02e-01	0	60	0	211812352	54	4891
2026-01-24 01:39:50.60	7.38	28.99	-41.1	-43.8	19.9	5.99e-01	0	60	0	217579520	54	4724
2026-01-24 01:39:53.63	7.13	29.63	-41.2	-43.9	19.8	6.02e-01	0	60	0	222822400	54	4790
2026-01-24 01:39:56.66	6.87	30.28	-41.2	-43.9	19.8	6.00e-01	0	60	0	228589568	54	4776
2026-01-24 01:39:59.68	6.60	30.94	-41.2	-43.9	19.9	6.01e-01	0	60	0	234356736	54	4774
2026-01-24 01:40:02.71	6.31	31.63	-41.3	-44.1	19.6	6.02e-01	0	60	0	240123904	54	4912
2026-01-24 01:40:05.74	6.02	32.33	-41.4	-44.2	19.5	6.00e-01	0	60	0	245891072	54	4981
2026-01-24 01:40:08.77	5.70	33.04	-41.5	-44.4	19.4	6.01e-01	0	60	0	251133952	54	5075
2026-01-24 01:40:11.80	5.38	33.78	-41.6	-44.4	19.3	5.97e-01	0	60	0	256901120	54	5093
2026-01-24 01:40:14.83	5.04	34.53	-41.9	-45.0	18.8	5.99e-01	0	61	0	262668288	54	5406
2026-01-24 01:40:17.86	4.68	35.30	-42.0	-45.2	18.6	5.99e-01	0	60	0	268435456	54	5555
2026-01-24 01:40:20.89	4.30	36.09	-42.3	-45.6	18.2	6.01e-01	0	60	0	274202624	55	5497
2026-01-24 01:40:23.92	3.90	36.89	-42.5	-45.9	17.9	6.04e-01	0	60	0	279969792	55	5705
2026-01-24 01:40:26.95	3.48	37.72	-42.7	-46.3	17.5	5.99e-01	0	60	0	285736960	55	5989
2026-01-24 01:40:29.98	3.04	38.57	-43.1	-47.0	16.9	5.98e-01	0	60	0	290979840	56	6120
2026-01-24 01:40:33.01	2.57	39.44	-43.0	-46.7	17.2	6.03e-01	0	60	0	296747008	56	5886
2026-01-24 01:40:36.03	2.08	40.33	-43.3	-47.4	16.5	6.02e-01	0	60	0	302514176	57	6020
2026-01-24 01:40:39.06	1.55	41.24	-42.8	-46.3	17.7	6.00e-01	0	61	0	308281344	57	5286
2026-01-24 01:40:42.09	0.99	42.18	-42.5	-45.8	18.2	6.00e-01	0	60	0	314048512	56	5332
2026-01-24 01:40:45.12	0.40	43.14	-42.3	-45.5	18.5	5.99e-01	0	60	0	319291392	56	5101
2026-01-24 01:40:48.15	359.77	44.12	-42.1	-45.1	19.0	6.02e-01	0	61	0	325058560	56	4886
2026-01-24 01:40:51.18	359.10	45.12	-42.0	-45.0	19.0	6.01e-01	0	60	0	330825728	56	4821
2026-01-24 01:40:54.20	358.39	46.14	-42.1	-45.3	18.6	5.97e-01	0	60	0	336592896	55	5315
2026-01-24 01:40:57.23	357.62	47.18	-42.2	-45.5	18.5	5.99e-01	0	60	0	342360064	55	5406
2026-01-24 01:41:00.26	356.80	48.25	-41.8	-44.8	19.2	6.04e-01	0	61	0	348127232	55	4997
2026-01-24 01:41:03.29	355.91	49.34	-42.0	-45.0	19.0	5.99e-01	0	61	0	353894400	55	5109
2026-01-24 01:41:06.32	354.96	50.45	-42.0	-45.0	18.9	6.01e-01	0	60	0	359137280	55	5125
2026-01-24 01:41:09.35	353.93	51.58	-41.6	-44.4	19.6	6.00e-01	0	61	0	364904448	55	4776
2026-01-24 01:41:12.37	352.83	52.73	-41.3	-44.0	20.0	6.00e-01	0	61	0	370671616	54	4828
2026-01-24 01:41:15.40	351.63	53.89	-41.1	-43.7	20.3	5.98e-01	0	61	0	376438784	54	4666
2026-01-24 01:41:18.43	350.32	55.07	-41.4	-44.2	19.8	6.04e-01	0	61	0	382205952	54	4933
2026-01-24 01:41:21.46	348.90	56.26	-41.8	-44.7	19.4	6.00e-01	0	61	0	387448832	54	5242
2026-01-24 01:41:24.49	347.35	57.45	-42.1	-45.2	18.9	6.00e-01	0	61	0	393216000	54	5549
2026-01-24 01:41:27.52	345.66	58.66	-42.0	-45.0	19.0	6.02e-01	0	61	0	398983168	55	5158
2026-01-24 01:41:30.55	343.80	59.86	-42.3	-45.6	18.4	5.99e-01	0	61	0	404750336	55	5473
2026-01-24 01:41:33.58	341.76	61.05	-42.6	-45.9	18.2	6.00e-01	0	61	0	410517504	56	5363
2026-01-24 01:41:36.61	339.51	62.24	-43.0	-46.7	17.4	6.01e-01	0	61	0	416284672	56	5872
2026-01-24 01:41:39.64	337.04	63.40	-43.5	-47.5	16.6	6.00e-01	0	61	0	422051840	57	6118
2026-01-24 01:41:42.67	334.30	64.53	-43.4	-47.5	16.6	5.98e-01	0	61	0	427294720	57	6113
2026-01-24 01:41:45.69	331.30	65.62	-44.0	-48.7	15.5	6.02e-01	0	61	0	433061888	58	6581
2026-01-24 01:41:48.72	327.98	66.66	-44.2	-49.1	14.9	6.00e-01	0	61	0	438829056	58	6945
2026-01-24 01:41:51.75	324.32	67.64	-44.2	-49.1	15.0	5.97e-01	0	61	0	444596224	59	6510
2026-01-24 01:41:54.77	320.33	68.53	-44.4	-49.7	14.3	5.99e-01	0	61	0	450363392	59	6980
2026-01-24 01:41:57.80	315.97	69.33	-44.3	-49.3	14.6	6.01e-01	0	61	0	455606272	59	6706
2026-01-24 01:42:00.83	311.25	70.01	-44.1	-49.0	15.1	6.00e-01	0	61	0	461373440	59	6427
2026-01-24 01:42:03.86	306.21	70.56	-44.4	-49.7	14.3	6.02e-01	0	61	0	467140608	59	7035
2026-01-24 01:42:06.88	300.92	70.96	-44.2	-49.1	14.8	5.99e-01	0	61	0	472907776	59	6563
2026-01-24 01:42:09.91	295.42	71.20	-44.3	-49.6	14.4	6.02e-01	0	61	0	478674944	59	6898
2026-01-24 01:42:12.94	289.81	71.28	-44.3	-49.4	14.6	6.02e-01	0	61	0	484442112	59	6775
2026-01-24 01:42:15.97	284.21	71.19	-44.2	-49.1	14.8	6.01e-01	0	61	0	489684992	59	6539
2026-01-24 01:42:19.00	278.72	70.93	-44.1	-49.0	15.0	6.02e-01	0	61	0	495452160	59	6435
2026-01-24 01:42:22.03	273.42	70.51	-44.2	-49.1	14.8	6.01e-01	0	61	0	501219328	59	6558
2026-01-24 01:42:25.05	268.43	69.95	-44.1	-48.9	15.0	6.00e-01	0	61	0	506986496	59	6391
2026-01-24 01:42:28.09	263.72	69.26	-44.4	-49.7	14.3	6.02e-01	0	61	0	512753664	59	6976
2026-01-24 01:42:31.12	259.39	68.45	-44.0	-49.0	14.6	6.00e-01	0	61	0	518520832	60	6071
2026-01-24 01:42:34.14	255.42	67.55	-44.4	-49.7	14.2	6.02e-01	0	61	0	523763712	59	6977
2026-01-24 01:42:37.17	251.79	66.57	-44.2	-49.2	14.7	6.00e-01	0	61	0	529530880	59	6576
2026-01-24 01:42:40.20	248.49	65.52	-44.1	-48.9	15.0	6.00e-01	0	61	0	535298048	59	6367
2026-01-24 01:42:43.23	245.50	64.42	-44.2	-49.1	14.8	5.97e-01	0	61	0	541065216	59	6539
2026-01-24 01:42:46.25	242.80	63.29	-44.1	-48.9	15.0	6.00e-01	0	61	0	546832384	58	6769
2026-01-24 01:42:49.28	240.34	62.12	-43.3	-47.3	16.7	6.00e-01	0	61	0	552599552	58	5617
2026-01-24 01:42:52.31	238.11	60.93	-42.7	-46.1	17.8	6.02e-01	0	61	0	557842432	57	5204
2026-01-24 01:42:55.34	236.08	59.73	-42.9	-46.5	17.4	6.00e-01	0	61	0	563609600	57	5432
2026-01-24 01:42:58.37	234.24	58.52	-42.8	-46.3	17.7	6.01e-01	0	61	0	569376768	56	5595
2026-01-24 01:43:01.40	232.56	57.32	-42.3	-45.5	18.4	6.01e-01	0	61	0	575143936	56	5127
2026-01-24 01:43:04.42	231.02	56.12	-41.9	-44.9	19.0	6.01e-01	0	61	0	580911104	55	5059
2026-01-24 01:43:07.45	229.61	54.93	-41.2	-43.8	20.0	5.99e-01	0	61	0	586153984	54	4749
2026-01-24 01:43:10.48	228.31	53.75	-41.2	-43.8	20.1	6.02e-01	0	61	0	591921152	54	4713
2026-01-24 01:43:13.51	227.12	52.58	-41.4	-44.1	19.7	6.00e-01	0	61	0	597688320	53	5193
2026-01-24 01:43:16.54	226.01	51.43	-40.9	-43.4	20.4	6.01e-01	0	61	0	603455488	53	4802
2026-01-24 01:43:19.57	224.99	50.30	-41.8	-44.8	19.0	5.98e-01	0	61	0	609222656	54	5336
2026-01-24 01:43:22.60	224.05	49.19	-41.6	-44.4	19.5	6.01e-01	0	61	0	614989824	54	5080
2026-01-24 01:43:25.62	223.17	48.10	-41.8	-44.8	19.1	6.00e-01	0	61	0	620232704	54	5323
2026-01-24 01:43:28.65	222.35	47.03	-41.7	-44.5	19.3	5.99e-01	0	61	0	625999872	54	5131
2026-01-24 01:43:31.68	221.59	45.98	-41.4	-44.2	19.7	6.01e-01	0	61	0	631767040	54	4933
2026-01-24 01:43:34.71	220.87	44.96	-41.8	-44.8	19.0	6.00e-01	0	61	0	637534208	54	5328
2026-01-24 01:43:37.74	220.20	43.95	-41.7	-44.6	19.2	5.99e-01	0	61	0	643301376	54	5214
2026-01-24 01:43:40.76	219.58	42.98	-41.9	-44.9	19.0	6.03e-01	0	61	0	649068544	54	5366
2026-01-24 01:43:43.79	218.99	42.02	-42.1	-45.3	18.6	6.02e-01	0	61	0	654311424	54	5593
2026-01-24 01:43:46.82	218.43	41.08	-42.0	-45.1	18.8	6.02e-01	0	61	0	660078592	54	5489
2026-01-24 01:43:49.85	217.91	40.17	-42.7	-46.2	17.7	5.98e-01	0	61	0	665845760	55	5894
2026-01-24 01:43:52.88	217.42	39.27	-42.8	-46.3	17.6	5.98e-01	0	61	0	671612928	56	5649
2026-01-24 01:43:55.90	216.95	38.41	-42.9	-46.6	17.3	5.98e-01	0	61	0	677380096	56	5815
2026-01-24 01:43:58.93	216.51	37.56	-42.8	-46.4	17.5	5.99e-01	0	61	0	683147264	56	5712
2026-01-24 01:44:01.96	216.09	36.73	-42.7	-46.3	17.6	5.99e-01	0	61	0	688390144	56	5613
2026-01-24 01:44:04.99	215.69	35.92	-42.6	-46.0	18.0	5.99e-01	0	61	0	694157312	56	5410
2026-01-24 01:44:08.02	215.31	35.13	-42.0	-45.0	18.9	6.01e-01	0	61	0	699924480	56	4868
2026-01-24 01:44:11.05	214.95	34.35	-41.8	-44.8	19.1	6.03e-01	0	61	0	705691648	55	4986
2026-01-24 01:44:14.08	214.61	33.60	-41.5	-44.3	19.5	6.00e-01	0	61	0	711458816	55	4758
2026-01-24 01:44:17.10	214.29	32.87	-41.4	-44.2	19.6	6.00e-01	0	61	0	717225984	54	4941
2026-01-24 01:44:20.13	213.97	32.15	-41.2	-43.8	20.0	6.01e-01	0	61	0	722468864	54	4750
2026-01-24 01:44:23.16	213.68	31.45	-41.2	-43.9	19.9	5.99e-01	0	61	0	728236032	54	4764
2026-01-24 01:44:26.19	213.39	30.77	-40.9	-43.5	20.3	5.99e-01	0	61	0	734003200	53	4855
2026-01-24 01:44:29.22	213.12	30.10	-40.9	-43.4	20.3	6.03e-01	0	61	0	739770368	53	4811
2026-01-24 01:44:32.24	212.86	29.45	-40.9	-43.4	20.4	6.01e-01	0	61	0	745537536	53	4782
2026-01-24 01:44:35.26	212.61	28.82	-41.1	-43.7	20.0	6.01e-01	0	61	0	750780416	53	4960
2026-01-24 01:44:38.29	212.37	28.20	-41.1	-43.8	19.9	6.01e-01	0	61	0	756547584	53	5016
2026-01-24 01:44:41.32	212.14	27.59	-41.4	-44.2	19.6	6.01e-01	0	61	0	762314752	53	5231
2026-01-24 01:44:44.35	211.92	27.00	-41.5	-44.4	19.3	5.99e-01	0	61	0	768081920	53	5357
2026-01-24 01:44:47.37	211.71	26.42	-41.4	-44.3	19.4	6.02e-01	0	61	0	773849088	53	5304
2026-01-24 01:44:50.40	211.51	25.85	-41.4	-44.3	19.4	5.97e-01	0	61	0	779616256	53	5286
2026-01-24 01:44:53.44	211.31	25.29	-41.6	-44.5	19.1	5.98e-01	0	61	0	785383424	53	5437
2026-01-24 01:44:56.46	211.12	24.75	-41.5	-44.3	19.3	5.99e-01	0	61	0	790626304	53	5329
2026-01-24 01:44:59.49	210.94	24.22	-41.5	-44.5	19.2	6.00e-01	0	61	0	796393472	53	5419
2026-01-24 01:45:02.52	210.77	23.69	-41.6	-44.7	19.0	6.02e-01	0	61	0	802160640	53	5549
2026-01-24 01:45:05.55	210.60	23.18	-41.4	-44.7	19.0	6.01e-01	0	61	0	807927808	53	5546
2026-01-24 01:45:08.58	210.43	22.68	-41.6	-44.6	19.0	6.01e-01	0	61	0	813694976	53	5526
2026-01-24 01:45:11.61	210.28	22.19	-41.6	-44.5	19.1	5.98e-01	0	61	0	818937856	53	5447
2026-01-24 01:45:14.63	210.12	21.72	-41.7	-44.7	18.9	6.02e-01	0	61	0	824705024	53	5569
2026-01-24 01:45:17.66	209.98	21.25	-41.8	-44.9	18.7	6.01e-01	0	61	0	830472192	54	5351
2026-01-24 01:45:20.69	209.83	20.78	-41.6	-44.8	18.8	6.00e-01	0	61	0	836239360	54	5311
2026-01-24 01:45:23.72	209.70	20.33	-41.5	-44.6	18.9	5.99e-01	0	61	0	842006528	54	5205
2026-01-24 01:45:26.75	209.56	19.89	-41.4	-44.6	18.8	6.01e-01	0	61	0	847773696	54	5173
2026-01-24 01:45:29.78	209.43	19.45	-41.5	-44.5	19.0	5.99e-01	0	61	0	853540864	54	5140
2026-01-24 01:45:32.80	209.31	19.03	-41.5	-44.5	19.0	6.00e-01	0	61	0	858783744	54	5132
2026-01-24 01:45:35.83	209.19	18.61	-41.6	-44.6	18.8	6.00e-01	0	61	0	864550912	54	5218
2026-01-24 01:45:38.86	209.07	18.20	-41.6	-44.7	18.8	6.00e-01	0	61	0	870318080	54	5251
2026-01-24 01:45:41.89	208.96	17.79	-41.7	-44.9	18.6	6.01e-01	0	61	0	876085248	54	5342
2026-01-24 01:45:44.91	208.85	17.39	-41.7	-44.9	18.5	6.00e-01	0	61	0	881852416	54	5376
2026-01-24 01:45:47.94	208.74	17.00	-41.6	-44.8	18.6	5.98e-01	0	61	0	887095296	54	5306
2026-01-24 01:45:50.97	208.63	16.62	-41.4	-44.8	18.6	6.00e-01	0	61	0	892862464	54	5280
2026-01-24 01:45:54.00	208.53	16.24	-41.5	-44.7	18.7	6.00e-01	0	61	0	898629632	54	5228
2026-01-24 01:45:57.03	208.43	15.87	-41.6	-44.7	18.7	6.00e-01	0	61	0	904396800	54	5228
2026-01-24 01:46:00.05	208.34	15.51	-41.5	-44.5	18.9	6.01e-01	0	61	0	910163968	54	5132
2026-01-24 01:46:03.08	208.24	15.15	-41.5	-44.5	18.8	5.98e-01	0	61	0	915931136	54	5158
2026-01-24 01:46:06.11	208.15	14.79	-41.5	-44.6	18.8	6.01e-01	0	61	0	921174016	54	5196
2026-01-24 01:46:09.14	208.07	14.44	-41.5	-44.6	18.8	6.00e-01	0	61	0	926941184	54	5169
2026-01-24 01:46:12.17	207.98	14.10	-41.5	-44.6	18.7	6.00e-01	0	61	0	932708352	54	5163
2026-01-24 01:46:15.20	207.90	13.76	-41.6	-44.7	18.5	6.01e-01	0	61	0	938475520	54	5275
2026-01-24 01:46:18.22	207.82	13.43	-41.6	-44.8	18.5	5.98e-01	0	61	0	944242688	54	5284
2026-01-24 01:46:21.25	207.74	13.11	-41.6	-44.8	18.5	6.01e-01	0	61	0	950009856	54	5301
2026-01-24 01:46:24.27	207.66	12.78	-41.6	-44.8	18.4	6.01e-01	0	61	0	955252736	54	5328
2026-01-24 01:46:27.30	207.58	12.47	-41.6	-44.8	18.3	6.01e-01	0	61	0	961019904	54	5332
2026-01-24 01:46:30.33	207.51	12.15	-41.6	-44.9	18.3	6.00e-01	0	61	0	966787072	54	5373
2026-01-24 01:46:33.36	207.44	11.84	-41.6	-44.9	18.3	6.00e-01	0	61	0	972554240	54	5359
2026-01-24 01:46:36.39	207.37	11.54	-41.6	-44.9	18.2	6.00e-01	0	61	0	978321408	54	5372
2026-01-24 01:46:39.41	207.30	11.24	-41.6	-44.9	18.1	6.01e-01	0	61	0	983564288	54	5392
2026-01-24 01:46:42.44	207.24	10.94	-41.7	-45.0	18.1	5.99e-01	0	61	0	989331456	54	5438
2026-01-24 01:46:45.47	207.17	10.65	-41.8	-45.2	17.8	6.00e-01	0	61	0	995098624	54	5575
2026-01-24 01:46:48.50	207.11	10.36	-41.7	-45.1	17.8	6.01e-01	0	61	0	1000865792	54	5523
2026-01-24 01:46:51.53	207.05	10.07	-41.7	-45.1	17.8	6.03e-01	0	61	0	1006632960	54	5521
2026-01-24 01:46:54.56	206.99	9.79	-41.7	-45.2	17.7	5.99e-01	0	61	0	1012400128	54	5577
2026-01-24 01:46:57.59	206.93	9.51	-41.8	-45.4	17.5	6.02e-01	0	61	0	1018167296	54	5689
2026-01-24 01:47:00.62	206.87	9.24	-41.8	-45.5	17.4	6.02e-01	0	61	0	1023410176	54	5724
2026-01-24 01:47:03.64	206.81	8.97	-41.8	-45.5	17.3	6.03e-01	0	61	0	1029177344	54	5763
2026-01-24 01:47:06.67	206.76	8.70	-41.9	-45.7	17.1	6.00e-01	0	61	0	1034944512	54	5872
2026-01-24 01:47:09.70	206.70	8.43	-41.9	-45.6	17.1	6.00e-01	0	61	0	1040711680	54	5836
2026-01-24 01:47:12.73	206.65	8.17	-41.8	-45.7	17.0	5.98e-01	0	61	0	1046478848	54	5860
2026-01-24 01:47:15.76	206.60	7.91	-45.6	-63.8	3.8	7.48e-01	0	61	104	1050673152	61	31501
2026-01-24 01:47:18.79	206.55	7.65	-46.1	-64.7	3.8	7.47e-01	0	61	104	1050673152	62	32991
2026-01-24 01:47:21.82	206.50	7.40	-46.3	-64.8	3.8	7.44e-01	0	61	104	1050673152	63	31692
2026-01-24 01:47:24.86	206.45	7.15	-46.3	-64.8	3.8	7.48e-01	0	61	104	1050673152	63	31710
2026-01-24 01:47:27.89	206.41	6.90	-46.2	-64.7	3.8	7.44e-01	0	61	104	1050673152	63	31211
2026-01-24 01:47:30.92	206.36	6.66	-46.2	-64.7	3.8	7.44e-01	0	61	104	1050673152	63	31097
2026-01-24 01:47:33.95	206.32	6.41	-46.2	-64.6	3.8	7.46e-01	0	62	104	1050673152	63	31068
2026-01-24 01:47:36.98	206.27	6.17	-46.2	-64.6	3.8	7.49e-01	0	62	104	1050673152	63	31052
2026-01-24 01:47:40.01	206.23	5.93	-46.1	-64.6	3.8	7.44e-01	0	61	104	1050673152	63	31045
2026-01-24 01:47:43.04	206.19	5.70	-46.2	-64.6	3.8	7.44e-01	0	61	104	1050673152	63	31028
2026-01-24 01:47:46.07	206.14	5.47	-46.1	-64.6	3.8	7.44e-01	0	62	104	1050673152	63	30988
2026-01-24 01:47:49.11	206.10	5.23	-46.1	-64.6	3.8	7.43e-01	0	61	104	1050673152	63	31061
2026-01-24 01:47:52.14	206.06	5.00	-46.1	-64.6	3.8	7.48e-01	0	61	104	1050673152	63	31033
2026-01-24 01:47:55.17	206.03	4.78	-46.1	-64.6	3.8	7.44e-01	0	61	104	1050673152	63	30955
2026-01-24 01:47:58.20	205.99	4.55	-46.1	-64.6	3.8	7.45e-01	0	61	104	1050673152	63	30964
2026-01-24 01:48:01.23	205.95	4.33	-46.1	-64.6	3.8	7.44e-01	0	61	104	1050673152	63	30916
2026-01-24 01:48:04.26	205.91	4.11	-46.1	-64.6	3.8	7.43e-01	0	61	104	1050673152	63	30948
2026-01-24 01:48:07.29	205.88	3.89	-46.1	-64.6	3.8	7.44e-01	0	61	104	1050673152	63	30943
2026-01-24 01:48:10.32	205.84	3.68	-46.1	-64.6	3.8	7.45e-01	0	61	104	1050673152	63	30879
2026-01-24 01:48:13.36	205.81	3.46	-46.1	-64.6	3.8	7.44e-01	0	62	104	1050673152	63	30900
2026-01-24 01:48:16.39	205.77	3.25	-46.1	-64.6	3.8	7.41e-01	0	61	104	1050673152	63	30849
2026-01-24 01:48:19.42	205.74	3.04	-46.1	-64.6	3.8	7.45e-01	0	62	104	1050673152	63	30922
2026-01-24 01:48:22.45	205.71	2.83	-46.1	-64.6	3.8	7.47e-01	0	62	104	1050673152	63	30879
2026-01-24 01:48:25.48	205.68	2.62	-46.1	-64.6	3.8	7.43e-01	0	62	104	1050673152	63	30824
2026-01-24 01:48:28.52	205.64	2.41	-46.1	-64.6	3.8	7.44e-01	0	62	104	1050673152	63	30819
2026-01-24 01:48:31.55	205.61	2.21	-46.1	-64.6	3.8	7.43e-01	0	62	104	1050673152	63	30886
2026-01-24 01:48:34.58	205.58	2.01	-46.1	-64.6	3.8	7.41e-01	0	61	104	1050673152	63	30864

#Closed at: 2026-01-24 01:48:36
#Recorded file [1050 MB]: D:/lorett/data/31039_260124_043548.dat