passes_logs/2026/01/24/R2.0S_Moscow/R2.0S_Moscow__20260124_222728_NOAA_20_JPSS-1_rec.log

#Pass ID: 20260124_222728_NOAA 20 (JPSS-1)
#Satellite: NOAA 20 (JPSS-1)
#Configuration: NOAA 20
#almurnet v.1.7.20251203
#Start time: 2026-01-24 22:27:29

#Version: 2.2.20231116
#Station: R2.0S_Moscow
#Location: 37.707566 lon 55.798166 lat
#TLE: 1 43013U 17073A   26024.42258823  .00000183  00000+0  10747-3 0  9990
#TLE: 2 43013  98.7646 325.2629 0001105  25.8644 334.2587 14.19539754424075

#Time	Az	El	Level	Level2	SNR	BER	BlckErr	Temp	State	Recorded	gain1	gain2
2026-01-24 22:27:29.03	23.02	2.01	-42.8	-57.3	3.8	1.49e+00	0	52	0	0	57	18804
2026-01-24 22:27:33.06	23.26	2.25	-42.8	-57.2	3.8	1.49e+00	0	53	104	0	57	18729
2026-01-24 22:27:37.10	23.50	2.48	-42.8	-57.2	3.8	1.49e+00	0	53	104	0	57	18712
2026-01-24 22:27:41.14	23.74	2.72	-42.8	-57.3	3.8	1.49e+00	0	53	104	0	57	18747
2026-01-24 22:27:45.18	23.99	2.96	-42.8	-57.3	3.8	1.49e+00	0	54	104	0	57	18743
2026-01-24 22:27:49.22	24.25	3.20	-42.8	-57.3	3.8	1.49e+00	0	54	104	0	57	18763
2026-01-24 22:27:53.27	24.50	3.44	-42.8	-57.3	3.8	1.49e+00	0	54	104	0	57	18790
2026-01-24 22:27:57.31	24.76	3.68	-42.8	-57.3	3.8	1.49e+00	0	54	104	0	57	18805
2026-01-24 22:28:01.35	25.03	3.93	-42.8	-57.2	3.8	1.49e+00	0	55	104	0	57	18726
2026-01-24 22:28:05.40	25.29	4.17	-42.8	-57.3	3.8	1.49e+00	0	55	104	0	57	18779
2026-01-24 22:28:09.44	25.57	4.42	-42.8	-57.3	3.8	1.49e+00	0	55	104	0	57	18744
2026-01-24 22:28:13.48	25.84	4.67	-42.8	-57.3	3.8	1.49e+00	0	55	104	0	57	18735
2026-01-24 22:28:17.53	26.12	4.93	-42.8	-57.3	3.8	1.49e+00	0	56	104	0	57	18732
2026-01-24 22:28:21.57	26.41	5.18	-42.8	-57.3	3.8	1.49e+00	0	56	104	0	57	18759
2026-01-24 22:28:25.61	26.70	5.44	-42.8	-57.2	3.8	1.49e+00	0	56	104	0	57	18711
2026-01-24 22:28:29.65	27.00	5.70	-42.8	-57.2	3.8	1.49e+00	0	56	104	0	57	18683
2026-01-24 22:28:33.69	27.30	5.96	-42.8	-57.1	3.8	1.49e+00	0	57	104	0	57	18502
2026-01-24 22:28:37.74	27.60	6.22	-42.8	-57.1	3.8	1.49e+00	0	56	104	0	57	18421
2026-01-24 22:28:41.78	27.91	6.48	-42.7	-56.8	3.8	1.49e+00	0	57	104	0	57	17874
2026-01-24 22:28:45.82	28.23	6.75	-42.6	-55.2	3.8	1.49e+00	0	57	104	0	57	14733
2026-01-24 22:28:49.86	28.55	7.02	-42.7	-55.4	3.8	1.49e+00	0	57	104	0	57	15092
2026-01-24 22:28:53.90	28.88	7.29	-42.7	-55.7	3.8	1.49e+00	0	57	104	0	57	15718
2026-01-24 22:28:57.95	29.21	7.56	-41.8	-49.2	6.6	2.72e-01	0	58	0	4194304	55	8351
2026-01-24 22:29:01.98	29.55	7.83	-41.5	-48.3	7.5	1.09e-01	0	57	0	11534336	54	7926
2026-01-24 22:29:06.03	29.89	8.11	-41.7	-48.2	7.8	6.38e-02	0	58	0	18874368	54	7834
2026-01-24 22:29:10.07	30.24	8.39	-42.2	-50.7	5.8	3.06e-02	0	58	0	23068672	55	9883
2026-01-24 22:29:14.11	30.60	8.67	-41.5	-46.8	9.6	1.25e-02	0	58	0	30408704	54	6720
2026-01-24 22:29:18.14	30.96	8.95	-41.5	-46.5	10.1	6.79e-03	0	58	0	38797312	54	6465
2026-01-24 22:29:22.18	31.33	9.24	-41.5	-46.4	10.2	4.66e-03	0	58	0	46137344	54	6416
2026-01-24 22:29:26.22	31.71	9.53	-41.5	-46.3	10.5	3.48e-03	0	58	0	53477376	54	6276
2026-01-24 22:29:30.25	32.10	9.82	-41.5	-46.2	10.7	2.89e-03	0	59	0	60817408	54	6207
2026-01-24 22:29:34.29	32.49	10.11	-41.7	-46.5	10.4	4.92e-03	0	58	0	69206016	54	6493
2026-01-24 22:29:38.33	32.89	10.41	-41.8	-46.8	10.2	5.72e-03	0	58	0	76546048	54	6649
2026-01-24 22:29:42.36	33.30	10.70	-41.7	-46.4	10.7	3.20e-03	0	59	0	83886080	54	6379
2026-01-24 22:29:46.40	33.71	11.00	-41.7	-46.2	11.0	1.93e-03	0	59	0	91226112	54	6253
2026-01-24 22:29:50.44	34.14	11.30	-41.6	-45.9	11.3	1.26e-03	0	59	0	98566144	54	6054
2026-01-24 22:29:54.48	34.57	11.61	-41.7	-46.0	11.3	1.11e-03	0	59	0	106954752	54	6113
2026-01-24 22:29:58.52	35.01	11.92	-41.6	-45.9	11.5	8.98e-04	0	59	0	114294784	54	6014
2026-01-24 22:30:02.55	35.46	12.22	-41.6	-45.9	11.5	7.82e-04	0	59	0	121634816	54	6015
2026-01-24 22:30:06.59	35.92	12.54	-41.6	-45.8	11.7	6.90e-04	0	59	0	128974848	54	5925
2026-01-24 22:30:10.63	36.39	12.85	-41.7	-45.9	11.6	7.48e-04	0	59	0	136314880	54	6033
2026-01-24 22:30:14.66	36.86	13.17	-41.8	-46.0	11.5	7.43e-04	0	59	0	144703488	54	6119
2026-01-24 22:30:18.70	37.35	13.48	-41.9	-46.2	11.2	1.20e-03	0	59	0	152043520	54	6273
2026-01-24 22:30:22.74	37.85	13.81	-41.7	-45.9	11.7	6.90e-04	0	59	0	159383552	54	6025
2026-01-24 22:30:26.78	38.36	14.13	-41.8	-45.9	11.7	5.19e-04	0	59	0	166723584	54	6028
2026-01-24 22:30:30.82	38.88	14.46	-41.7	-45.9	11.7	5.16e-04	0	59	0	175112192	54	6026
2026-01-24 22:30:34.86	39.41	14.78	-41.7	-45.7	11.9	4.03e-04	0	60	0	182452224	54	5914
2026-01-24 22:30:38.89	39.95	15.11	-41.6	-45.5	12.1	2.87e-04	0	60	0	189792256	54	5781
2026-01-24 22:30:42.93	40.51	15.45	-41.6	-45.6	12.1	2.25e-04	0	60	0	197132288	54	5797
2026-01-24 22:30:46.97	41.08	15.78	-41.7	-45.7	12.0	3.47e-04	0	60	0	204472320	54	5876
2026-01-24 22:30:51.00	41.65	16.12	-41.6	-45.5	12.3	1.73e-04	0	60	0	212860928	54	5744
2026-01-24 22:30:55.04	42.24	16.45	-41.5	-45.2	12.6	9.61e-05	0	60	0	220200960	54	5539
2026-01-24 22:30:59.08	42.85	16.79	-41.4	-45.1	12.7	9.38e-05	0	60	0	227540992	54	5491
2026-01-24 22:31:03.10	43.47	17.14	-41.5	-45.1	12.8	7.17e-05	0	60	0	234881024	54	5489
2026-01-24 22:31:07.14	44.10	17.48	-41.5	-45.2	12.7	7.01e-05	0	60	0	243269632	54	5539
2026-01-24 22:31:11.18	44.74	17.82	-41.4	-45.0	12.9	4.80e-05	0	60	0	250609664	54	5423
2026-01-24 22:31:15.22	45.40	18.17	-41.4	-45.0	12.9	4.34e-05	0	60	0	257949696	54	5418
2026-01-24 22:31:19.25	46.08	18.52	-41.3	-44.8	13.1	3.12e-05	0	60	0	265289728	54	5333
2026-01-24 22:31:23.29	46.77	18.87	-41.3	-44.8	13.1	3.43e-05	0	60	0	272629760	54	5330
2026-01-24 22:31:27.33	47.48	19.22	-41.3	-44.8	13.2	1.60e-05	0	60	0	281018368	54	5299
2026-01-24 22:31:31.37	48.20	19.57	-41.2	-44.6	13.4	1.14e-05	0	60	0	288358400	54	5184
2026-01-24 22:31:35.41	48.94	19.92	-41.2	-44.4	13.5	1.06e-05	0	60	0	295698432	54	5098
2026-01-24 22:31:39.45	49.69	20.27	-41.1	-44.3	13.7	8.30e-06	0	60	0	303038464	54	5023
2026-01-24 22:31:43.48	50.47	20.62	-41.0	-44.1	13.9	3.80e-06	0	60	0	311427072	53	5217
2026-01-24 22:31:47.52	51.26	20.97	-41.0	-44.2	13.8	3.00e-06	0	60	0	318767104	53	5220
2026-01-24 22:31:51.56	52.06	21.32	-41.2	-44.5	13.5	6.80e-06	0	60	0	326107136	53	5413
2026-01-24 22:31:55.60	52.89	21.67	-41.2	-44.5	13.5	1.44e-05	0	60	0	333447168	53	5448
2026-01-24 22:31:59.64	53.73	22.02	-41.1	-44.4	13.6	8.30e-06	0	60	0	340787200	53	5374
2026-01-24 22:32:03.67	54.59	22.36	-41.2	-44.5	13.6	8.30e-06	0	60	0	349175808	53	5426
2026-01-24 22:32:07.71	55.48	22.71	-41.0	-44.1	13.9	6.10e-06	0	60	0	356515840	53	5201
2026-01-24 22:32:11.74	56.38	23.05	-41.1	-44.3	13.7	5.30e-06	0	61	0	363855872	53	5337
2026-01-24 22:32:15.78	57.30	23.39	-41.3	-44.7	13.4	2.74e-05	0	60	0	371195904	53	5536
2026-01-24 22:32:19.81	58.23	23.72	-41.4	-44.8	13.3	1.44e-05	0	60	0	378535936	53	5638
2026-01-24 22:32:23.85	59.20	24.05	-41.5	-45.0	13.0	2.74e-05	0	60	0	386924544	53	5782
2026-01-24 22:32:27.89	60.18	24.38	-41.6	-45.1	12.9	3.81e-05	0	60	0	394264576	53	5847
2026-01-24 22:32:31.93	61.18	24.71	-41.5	-45.1	13.0	3.05e-05	0	60	0	401604608	53	5792
2026-01-24 22:32:35.96	62.20	25.02	-41.9	-45.7	12.4	1.42e-04	0	61	0	408944640	54	5875
2026-01-24 22:32:40.00	63.24	25.34	-42.1	-46.2	11.9	4.10e-04	0	61	0	417333248	54	6211
2026-01-24 22:32:44.04	64.30	25.64	-42.2	-46.3	11.7	5.29e-04	0	61	0	424673280	54	6335
2026-01-24 22:32:48.08	65.38	25.94	-42.3	-46.5	11.6	7.44e-04	0	61	0	432013312	55	6094
2026-01-24 22:32:52.12	66.48	26.23	-42.5	-47.1	11.0	1.92e-03	0	60	0	439353344	55	6530
2026-01-24 22:32:56.16	67.60	26.52	-42.5	-47.1	10.9	2.28e-03	0	61	0	446693376	55	6539
2026-01-24 22:33:00.20	68.74	26.79	-42.6	-47.3	10.7	2.83e-03	0	61	0	455081984	55	6672
2026-01-24 22:33:04.23	69.90	27.05	-42.6	-47.2	10.8	2.90e-03	0	61	0	462422016	55	6640
2026-01-24 22:33:08.27	71.08	27.31	-42.6	-47.2	10.8	2.74e-03	0	61	0	469762048	55	6628
2026-01-24 22:33:12.30	72.28	27.55	-42.9	-47.7	10.5	3.53e-03	0	61	0	477102080	56	6587
2026-01-24 22:33:16.34	73.49	27.79	-42.9	-47.6	10.7	2.23e-03	0	61	0	485490688	56	6496
2026-01-24 22:33:20.38	74.72	28.01	-43.4	-49.0	9.2	1.64e-02	0	61	0	492830720	57	7261
2026-01-24 22:33:24.42	75.97	28.22	-43.4	-49.2	9.0	2.32e-02	0	61	0	500170752	57	7408
2026-01-24 22:33:28.46	77.24	28.41	-43.3	-48.6	9.7	1.35e-02	0	61	0	507510784	57	6901
2026-01-24 22:33:32.49	78.52	28.59	-43.1	-48.2	10.1	6.57e-03	0	61	0	514850816	57	6634
2026-01-24 22:33:36.53	79.81	28.76	-43.1	-48.3	9.9	8.42e-03	0	61	0	523239424	57	6652
2026-01-24 22:33:40.57	81.12	28.92	-43.4	-49.0	9.2	1.97e-02	0	61	0	530579456	57	7287
2026-01-24 22:33:44.61	82.44	29.05	-43.4	-49.0	9.3	1.83e-02	0	61	0	537919488	57	7214
2026-01-24 22:33:48.65	83.77	29.17	-43.1	-48.1	10.2	7.43e-03	0	61	0	545259520	57	6517
2026-01-24 22:33:52.69	85.10	29.28	-42.9	-47.6	10.7	3.15e-03	0	61	0	553648128	57	6196
2026-01-24 22:33:56.73	86.45	29.37	-43.1	-48.0	10.3	5.12e-03	0	61	0	560988160	57	6469
2026-01-24 22:34:00.77	87.80	29.44	-42.7	-47.1	11.3	1.24e-03	0	61	0	568328192	57	5829
2026-01-24 22:34:04.81	89.16	29.50	-43.3	-48.4	9.9	8.19e-03	0	61	0	575668224	57	6777
2026-01-24 22:34:08.85	90.53	29.54	-42.8	-47.4	11.0	2.34e-03	0	61	0	583008256	57	6001
2026-01-24 22:34:12.88	91.89	29.56	-42.6	-46.9	11.5	7.64e-04	0	61	0	591396864	57	5685
2026-01-24 22:34:16.92	93.26	29.56	-42.9	-47.6	10.9	2.15e-03	0	61	0	598736896	57	6137
2026-01-24 22:34:20.96	94.62	29.55	-42.7	-47.0	11.5	1.01e-03	0	61	0	606076928	57	5742
2026-01-24 22:34:25.00	95.99	29.51	-43.1	-48.0	10.3	3.70e-03	0	61	0	613416960	57	6476
2026-01-24 22:34:29.04	97.35	29.46	-43.3	-48.4	9.9	1.05e-02	0	61	0	621805568	57	6761
2026-01-24 22:34:33.07	98.70	29.40	-43.0	-47.7	10.7	2.58e-03	0	61	0	629145600	57	6226
2026-01-24 22:34:37.11	100.05	29.32	-43.7	-49.6	8.7	3.00e-02	0	61	0	636485632	57	7785
2026-01-24 22:34:41.15	101.40	29.22	-43.3	-48.5	9.8	1.01e-02	0	61	0	643825664	57	6869
2026-01-24 22:34:45.19	102.73	29.10	-43.3	-48.6	9.8	1.09e-02	0	61	0	651165696	57	6894
2026-01-24 22:34:49.22	104.06	28.97	-43.2	-48.2	10.1	5.38e-03	0	61	0	659554304	57	6643
2026-01-24 22:34:53.26	105.37	28.82	-43.3	-48.4	9.9	1.09e-02	0	61	0	666894336	57	6781
2026-01-24 22:34:57.30	106.67	28.66	-42.8	-47.2	11.2	1.51e-03	0	61	0	674234368	57	5902
2026-01-24 22:35:01.34	107.96	28.48	-42.5	-46.7	11.8	4.99e-04	0	61	0	681574400	57	5533
2026-01-24 22:35:05.37	109.23	28.29	-42.6	-46.9	11.5	7.77e-04	0	61	0	688914432	57	5718
2026-01-24 22:35:09.41	110.49	28.08	-42.5	-46.6	11.8	6.39e-04	0	61	0	697303040	57	5519
2026-01-24 22:35:13.45	111.73	27.87	-42.2	-46.0	12.5	1.11e-04	0	61	0	704643072	56	5444
2026-01-24 22:35:17.48	112.95	27.64	-42.6	-46.9	11.6	3.98e-04	0	61	0	711983104	56	6001
2026-01-24 22:35:21.52	114.16	27.40	-42.8	-47.2	11.2	1.36e-03	0	61	0	719323136	56	6266
2026-01-24 22:35:25.56	115.35	27.14	-42.7	-47.0	11.5	1.21e-03	0	61	0	727711744	56	6078
2026-01-24 22:35:29.60	116.52	26.88	-42.4	-46.5	11.9	3.62e-04	0	61	0	735051776	56	5761
2026-01-24 22:35:33.64	117.68	26.61	-42.7	-47.2	11.2	1.33e-03	0	61	0	742391808	56	6231
2026-01-24 22:35:37.68	118.81	26.33	-42.8	-47.2	11.2	1.38e-03	0	61	0	749731840	56	6254
2026-01-24 22:35:41.72	119.92	26.03	-42.5	-46.6	11.8	6.01e-04	0	61	0	757071872	56	5842
2026-01-24 22:35:45.76	121.01	25.74	-42.2	-46.1	12.3	1.97e-04	0	61	0	765460480	56	5481
2026-01-24 22:35:49.79	122.08	25.43	-41.8	-45.3	12.9	4.27e-05	0	61	0	772800512	55	5338
2026-01-24 22:35:53.83	123.14	25.12	-42.1	-46.1	12.2	2.21e-04	0	61	0	780140544	55	5804
2026-01-24 22:35:57.87	124.17	24.80	-42.2	-46.2	12.1	2.00e-04	0	61	0	787480576	55	5858
2026-01-24 22:36:01.90	125.18	24.48	-41.8	-45.5	12.8	1.26e-04	0	61	0	795869184	55	5437
2026-01-24 22:36:05.94	126.17	24.15	-42.2	-46.2	12.0	1.73e-04	0	61	0	803209216	55	5876
2026-01-24 22:36:09.98	127.14	23.82	-42.0	-45.7	12.5	1.43e-04	0	61	0	810549248	55	5584
2026-01-24 22:36:14.01	128.09	23.48	-42.6	-47.3	10.9	1.48e-03	0	61	0	817889280	55	6650
2026-01-24 22:36:18.05	129.02	23.14	-42.4	-46.6	11.6	7.45e-04	0	61	0	825229312	55	6153
2026-01-24 22:36:22.09	129.93	22.80	-42.7	-47.4	10.8	2.75e-03	0	61	0	833617920	55	6754
2026-01-24 22:36:26.13	130.83	22.45	-42.1	-46.0	12.2	2.37e-04	0	61	0	840957952	55	5762
2026-01-24 22:36:30.17	131.70	22.10	-42.4	-46.9	11.2	1.16e-03	0	61	0	848297984	55	6359
2026-01-24 22:36:34.20	132.55	21.75	-42.0	-45.9	12.3	2.21e-04	0	61	0	855638016	55	5692
2026-01-24 22:36:38.24	133.39	21.40	-42.5	-47.2	11.0	1.63e-03	0	61	0	864026624	55	6584
2026-01-24 22:36:42.28	134.20	21.05	-42.0	-46.0	12.2	4.35e-04	0	61	0	871366656	55	5739
2026-01-24 22:36:46.32	135.00	20.69	-41.7	-45.4	12.7	5.95e-05	0	61	0	878706688	55	5393
2026-01-24 22:36:50.35	135.78	20.34	-41.7	-45.4	12.7	8.62e-05	0	61	0	886046720	55	5378
2026-01-24 22:36:54.39	136.55	19.99	-41.7	-45.4	12.7	6.25e-05	0	61	0	893386752	55	5389
2026-01-24 22:36:58.43	137.29	19.63	-41.9	-45.7	12.3	1.36e-04	0	61	0	901775360	55	5578
2026-01-24 22:37:02.46	138.02	19.28	-41.4	-44.9	13.2	2.67e-05	0	61	0	909115392	54	5352
2026-01-24 22:37:06.50	138.74	18.93	-41.4	-44.9	13.2	2.13e-05	0	61	0	916455424	54	5380
2026-01-24 22:37:10.54	139.44	18.58	-41.1	-44.4	13.7	3.80e-06	0	61	0	923795456	54	5045
2026-01-24 22:37:14.58	140.12	18.22	-41.3	-44.6	13.4	1.22e-05	0	61	0	932184064	54	5208
2026-01-24 22:37:18.61	140.79	17.87	-41.5	-45.2	12.8	2.63e-04	0	61	0	939524096	53	5879
2026-01-24 22:37:22.65	141.44	17.53	-41.5	-45.1	12.8	7.70e-05	0	61	0	946864128	53	5852
2026-01-24 22:37:26.69	142.08	17.18	-41.4	-45.0	13.0	3.66e-05	0	61	0	954204160	53	5725
2026-01-24 22:37:30.73	142.70	16.83	-41.4	-45.0	13.0	3.58e-05	0	61	0	961544192	53	5725
2026-01-24 22:37:34.77	143.31	16.49	-41.6	-45.3	12.6	1.07e-04	0	62	0	969932800	53	5973
2026-01-24 22:37:38.81	143.91	16.15	-41.5	-45.3	12.6	1.09e-04	0	61	0	977272832	53	5938
2026-01-24 22:37:42.84	144.49	15.81	-41.9	-46.0	11.8	3.85e-04	0	61	0	984612864	54	6108
2026-01-24 22:37:46.88	145.06	15.47	-41.9	-46.2	11.7	5.81e-04	0	61	0	991952896	54	6209
2026-01-24 22:37:50.92	145.62	15.13	-42.0	-46.3	11.5	8.81e-04	0	61	0	1000341504	54	6320
2026-01-24 22:37:54.96	146.17	14.80	-42.2	-46.7	11.0	1.62e-03	0	62	0	1007681536	54	6623
2026-01-24 22:37:59.00	146.71	14.47	-42.2	-47.0	10.7	3.34e-03	0	61	0	1015021568	55	6429
2026-01-24 22:38:03.03	147.23	14.14	-42.2	-46.9	10.7	2.42e-03	0	61	0	1022361600	55	6387
2026-01-24 22:38:07.07	147.74	13.81	-42.0	-46.3	11.3	1.15e-03	0	62	0	1029701632	55	5974
2026-01-24 22:38:11.10	148.24	13.49	-41.8	-46.1	11.6	8.60e-04	0	61	0	1038090240	54	6164
2026-01-24 22:38:15.14	148.73	13.17	-42.1	-46.6	11.0	1.73e-03	0	61	0	1045430272	54	6530
2026-01-24 22:38:19.18	149.22	12.85	-42.1	-46.9	10.7	3.71e-03	0	62	0	1052770304	54	6759
2026-01-24 22:38:23.22	149.69	12.53	-41.9	-46.5	11.0	2.41e-03	0	61	0	1060110336	54	6433
2026-01-24 22:38:27.25	150.15	12.21	-41.8	-46.1	11.5	8.13e-04	0	61	0	1068498944	54	6136
2026-01-24 22:38:31.29	150.60	11.90	-41.7	-46.0	11.4	8.60e-04	0	62	0	1075838976	54	6116
2026-01-24 22:38:35.33	151.04	11.59	-41.9	-46.6	10.8	1.83e-03	0	61	0	1083179008	54	6515
2026-01-24 22:38:39.37	151.48	11.28	-41.9	-46.7	10.7	3.00e-03	0	62	0	1090519040	54	6591
2026-01-24 22:38:43.41	151.90	10.98	-41.8	-46.4	11.0	1.72e-03	0	62	0	1097859072	54	6348
2026-01-24 22:38:47.44	152.32	10.67	-41.6	-46.0	11.3	1.02e-03	0	62	0	1106247680	54	6085
2026-01-24 22:38:51.48	152.73	10.37	-41.7	-46.2	11.1	1.76e-03	0	61	0	1113587712	54	6226
2026-01-24 22:38:55.52	153.13	10.07	-41.7	-46.3	10.9	1.79e-03	0	62	0	1120927744	54	6296
2026-01-24 22:38:59.55	153.52	9.78	-41.8	-46.6	10.6	3.50e-03	0	61	0	1128267776	54	6501
2026-01-24 22:39:03.59	153.91	9.49	-41.7	-46.3	10.8	2.28e-03	0	61	0	1136656384	54	6333
2026-01-24 22:39:07.63	154.29	9.19	-41.6	-46.2	10.8	2.30e-03	0	62	0	1143996416	54	6258
2026-01-24 22:39:11.67	154.66	8.91	-41.6	-46.4	10.6	2.90e-03	0	62	0	1151336448	54	6392
2026-01-24 22:39:15.70	155.02	8.62	-41.8	-46.8	10.1	6.57e-03	0	61	0	1158676480	54	6689
2026-01-24 22:39:19.74	155.38	8.34	-41.8	-46.9	10.0	8.03e-03	0	61	0	1166016512	54	6751
2026-01-24 22:39:23.77	155.73	8.05	-41.7	-46.9	9.8	9.56e-03	0	61	0	1174405120	54	6783
2026-01-24 22:39:27.81	156.07	7.77	-45.2	-59.9	3.8	1.49e+00	0	61	104	1176502272	60	21448
2026-01-24 22:39:31.86	156.41	7.50	-45.5	-60.2	3.8	1.49e+00	0	62	104	1176502272	61	21011
2026-01-24 22:39:35.90	156.74	7.22	-45.4	-60.0	3.8	1.49e+00	0	62	104	1176502272	61	20511
2026-01-24 22:39:39.94	157.07	6.95	-45.4	-59.9	3.8	1.49e+00	0	61	104	1176502272	61	20296
2026-01-24 22:39:43.98	157.39	6.68	-45.3	-59.9	3.8	1.49e+00	0	62	104	1176502272	61	20151
2026-01-24 22:39:48.02	157.71	6.41	-45.3	-59.9	3.8	1.49e+00	0	62	104	1176502272	61	20085
2026-01-24 22:39:52.06	158.02	6.14	-45.3	-59.8	3.8	1.49e+00	0	62	104	1176502272	61	20064
2026-01-24 22:39:56.11	158.32	5.88	-45.2	-59.8	3.8	1.49e+00	0	62	104	1176502272	61	20057
2026-01-24 22:40:00.15	158.62	5.61	-45.2	-59.8	3.8	1.49e+00	0	62	104	1176502272	61	20041
2026-01-24 22:40:04.19	158.91	5.35	-45.2	-59.8	3.8	1.49e+00	0	62	104	1176502272	61	19935
2026-01-24 22:40:08.23	159.20	5.09	-45.2	-59.8	3.8	1.49e+00	0	62	104	1176502272	61	19855
2026-01-24 22:40:12.27	159.48	4.84	-45.2	-59.8	3.8	1.49e+00	0	62	104	1176502272	61	19926
2026-01-24 22:40:16.32	159.76	4.58	-45.1	-59.7	3.8	1.49e+00	0	62	104	1176502272	61	19840
2026-01-24 22:40:20.36	160.04	4.33	-45.2	-59.7	3.8	1.49e+00	0	62	104	1176502272	61	19830
2026-01-24 22:40:24.40	160.31	4.08	-45.1	-59.7	3.8	1.49e+00	0	62	104	1176502272	61	19790
2026-01-24 22:40:28.44	160.57	3.83	-45.1	-59.7	3.8	1.49e+00	0	62	104	1176502272	61	19690
2026-01-24 22:40:32.48	160.84	3.58	-45.1	-59.7	3.8	1.49e+00	0	62	104	1176502272	61	19712
2026-01-24 22:40:36.52	161.09	3.33	-45.1	-59.7	3.8	1.49e+00	0	62	104	1176502272	61	19682
2026-01-24 22:40:40.57	161.35	3.09	-45.1	-59.7	3.8	1.49e+00	0	62	104	1176502272	61	19714
2026-01-24 22:40:44.61	161.60	2.85	-45.1	-59.7	3.8	1.49e+00	0	62	104	1176502272	61	19731
2026-01-24 22:40:48.65	161.84	2.60	-45.1	-59.7	3.8	1.49e+00	0	62	104	1176502272	61	19639
2026-01-24 22:40:52.69	162.08	2.37	-45.1	-59.7	3.8	1.49e+00	0	62	104	1176502272	61	19727
2026-01-24 22:40:56.74	162.32	2.13	-45.1	-59.6	3.8	1.49e+00	0	62	104	1176502272	61	19560
2026-01-24 22:41:00.78	162.56	1.89	-45.1	-59.6	3.8	1.49e+00	0	62	104	1176502272	61	19608

#Closed at: 2026-01-24 22:41:01
#Recorded file [1176 MB]: D:/lorett/data/31039_260125_012728.dat