passes_logs/2026/01/24/R2.0S_Moscow/R2.0S_Moscow__20260124_010325_FENGYUN_3D_rec.log

#Pass ID: 20260124_010325_FENGYUN 3D
#Satellite: FENGYUN 3D
#Configuration: FENGYUN 3D
#almurnet v.1.7.20251203
#Start time: 2026-01-24 01:03:28

#Version: 2.2.20231116
#Station: R2.0S_Moscow
#Location: 37.707566 lon 55.798166 lat
#TLE: 1 43010U 17072A   26022.96745493  .00000490  00000+0  25355-3 0  9999
#TLE: 2 43010  98.9955 354.9072 0002484  95.6139 264.5320 14.19700039424383

#Time	Az	El	Level	Level2	SNR	BER	BlckErr	Temp	State	Recorded	gain1	gain2
2026-01-24 01:03:28.02	20.28	2.14	-42.0	-53.6	3.8	8.46e-01	0	52	0	0	56	13003
2026-01-24 01:03:32.05	20.42	2.39	-41.9	-53.4	3.8	8.47e-01	0	53	104	0	55	13507
2026-01-24 01:03:36.09	20.57	2.64	-41.9	-53.4	3.8	8.47e-01	0	53	104	0	55	13523
2026-01-24 01:03:40.14	20.73	2.90	-41.9	-53.4	3.8	8.47e-01	0	53	104	0	55	13495
2026-01-24 01:03:44.18	20.88	3.15	-41.9	-53.4	3.8	8.47e-01	0	54	104	0	55	13503
2026-01-24 01:03:48.22	21.04	3.41	-41.9	-53.4	3.8	8.45e-01	0	54	104	0	55	13477
2026-01-24 01:03:52.26	21.20	3.67	-41.9	-53.4	3.8	8.47e-01	0	54	104	0	55	13477
2026-01-24 01:03:56.30	21.36	3.94	-41.9	-53.4	3.8	8.46e-01	0	54	104	0	55	13511
2026-01-24 01:04:00.34	21.52	4.21	-41.9	-53.4	3.8	8.47e-01	0	55	104	0	55	13541
2026-01-24 01:04:04.38	21.69	4.47	-41.9	-53.4	3.8	8.47e-01	0	55	104	0	55	13491
2026-01-24 01:04:08.42	21.86	4.75	-41.9	-53.4	3.8	8.46e-01	0	55	104	0	55	13499
2026-01-24 01:04:12.46	22.03	5.02	-41.9	-53.4	3.8	8.46e-01	0	55	104	0	55	13482
2026-01-24 01:04:16.50	22.20	5.30	-41.8	-53.4	3.8	8.46e-01	0	55	104	0	55	13525
2026-01-24 01:04:20.55	22.38	5.58	-41.8	-53.4	3.8	8.47e-01	0	56	104	0	55	13483
2026-01-24 01:04:24.59	22.56	5.86	-41.8	-53.4	3.8	8.46e-01	0	56	104	0	55	13443
2026-01-24 01:04:28.63	22.75	6.15	-41.8	-53.4	3.8	8.46e-01	0	56	104	0	55	13488
2026-01-24 01:04:32.67	22.94	6.44	-41.8	-53.4	3.8	8.46e-01	0	56	104	0	55	13515
2026-01-24 01:04:36.71	23.13	6.73	-41.9	-53.4	3.8	8.46e-01	0	56	104	0	55	13473
2026-01-24 01:04:40.75	23.32	7.02	-41.8	-53.2	3.8	8.45e-01	0	57	104	0	55	13197
2026-01-24 01:04:44.79	23.52	7.32	-41.8	-52.6	3.8	8.45e-01	0	57	104	0	55	12329
2026-01-24 01:04:48.83	23.72	7.62	-41.4	-50.1	4.1	8.39e-01	0	57	0	0	54	9781
2026-01-24 01:04:52.87	23.93	7.93	-40.3	-45.5	6.7	2.58e-01	0	57	0	6291456	52	6430
2026-01-24 01:04:56.92	24.14	8.23	-39.3	-42.4	10.9	6.60e-01	0	57	0	22020096	49	5343
2026-01-24 01:05:00.96	24.35	8.55	-38.7	-41.4	12.0	1.90e-04	0	57	0	44040192	49	4780
2026-01-24 01:05:05.00	24.57	8.86	-38.8	-41.4	12.1	1.92e-04	0	58	0	67108864	49	4773
2026-01-24 01:05:09.04	24.79	9.18	-38.6	-41.1	12.6	7.89e-05	0	58	0	90177536	49	4608
2026-01-24 01:05:13.07	25.02	9.50	-38.7	-41.1	12.7	4.34e-05	0	58	0	113246208	49	4633
2026-01-24 01:05:17.11	25.25	9.83	-39.1	-41.6	12.4	9.26e-05	0	58	0	135266304	49	4890
2026-01-24 01:05:21.15	25.49	10.16	-38.9	-41.2	12.9	2.97e-05	0	58	0	158334976	49	4694
2026-01-24 01:05:25.20	25.73	10.49	-38.7	-41.0	13.3	1.02e-05	0	58	0	181403648	49	4576
2026-01-24 01:05:29.23	25.98	10.83	-38.6	-40.8	13.5	6.80e-06	0	58	0	203423744	49	4457
2026-01-24 01:05:33.27	26.23	11.18	-38.5	-40.6	13.9	0.00e+00	0	58	0	226492416	48	4617
2026-01-24 01:05:37.31	26.49	11.52	-38.5	-40.6	13.9	1.10e-06	0	58	0	248512512	48	4647
2026-01-24 01:05:41.35	26.75	11.88	-38.5	-40.5	14.0	0.00e+00	0	59	0	271581184	48	4592
2026-01-24 01:05:45.38	27.02	12.23	-38.4	-40.4	14.2	1.10e-06	0	59	0	294649856	48	4523
2026-01-24 01:05:49.42	27.30	12.59	-38.4	-40.4	14.3	0.00e+00	0	59	0	317718528	48	4539
2026-01-24 01:05:53.46	27.58	12.96	-38.4	-40.3	14.4	0.00e+00	0	59	0	339738624	48	4493
2026-01-24 01:05:57.51	27.87	13.33	-38.2	-40.1	14.6	0.00e+00	0	59	0	362807296	48	4376
2026-01-24 01:06:01.55	28.17	13.71	-38.1	-40.0	14.8	1.10e-06	0	59	0	385875968	48	4331
2026-01-24 01:06:05.59	28.47	14.09	-38.1	-39.9	14.9	0.00e+00	0	59	0	407896064	48	4274
2026-01-24 01:06:09.62	28.78	14.48	-37.8	-39.6	15.2	0.00e+00	0	59	0	430964736	47	4386
2026-01-24 01:06:13.66	29.10	14.87	-37.8	-39.7	15.2	0.00e+00	0	59	0	452984832	47	4397
2026-01-24 01:06:17.70	29.43	15.27	-37.8	-39.6	15.2	0.00e+00	0	59	0	476053504	47	4371
2026-01-24 01:06:21.74	29.76	15.67	-37.6	-39.4	15.5	0.00e+00	0	59	0	499122176	47	4243
2026-01-24 01:06:25.78	30.11	16.08	-37.6	-39.4	15.5	0.00e+00	0	59	0	522190848	47	4256
2026-01-24 01:06:29.82	30.46	16.50	-37.4	-39.2	15.7	0.00e+00	0	59	0	544210944	46	4398
2026-01-24 01:06:33.85	30.82	16.92	-37.5	-39.2	15.7	0.00e+00	0	60	0	567279616	46	4431
2026-01-24 01:06:37.89	31.20	17.35	-37.2	-38.8	16.1	0.00e+00	0	59	0	590348288	46	4234
2026-01-24 01:06:41.93	31.58	17.78	-37.1	-38.7	16.3	0.00e+00	0	59	0	612368384	46	4161
2026-01-24 01:06:45.97	31.97	18.23	-37.1	-38.7	16.3	0.00e+00	0	60	0	635437056	46	4157
2026-01-24 01:06:50.01	32.38	18.68	-37.0	-38.6	16.5	0.00e+00	0	60	0	657457152	45	4342
2026-01-24 01:06:54.04	32.79	19.13	-36.9	-38.5	16.6	0.00e+00	0	60	0	680525824	45	4327
2026-01-24 01:06:58.08	33.22	19.59	-36.9	-38.5	16.6	0.00e+00	0	60	0	703594496	45	4319
2026-01-24 01:07:02.12	33.66	20.06	-36.9	-38.4	16.7	0.00e+00	0	60	0	725614592	45	4280
2026-01-24 01:07:06.15	34.12	20.54	-36.8	-38.3	16.8	0.00e+00	0	60	0	748683264	45	4240
2026-01-24 01:07:10.19	34.59	21.03	-36.8	-38.3	16.8	0.00e+00	0	60	0	771751936	45	4230
2026-01-24 01:07:14.23	35.07	21.52	-36.7	-38.2	16.9	0.00e+00	0	60	0	794820608	45	4168
2026-01-24 01:07:18.27	35.57	22.02	-36.6	-38.1	17.1	0.00e+00	0	60	0	816840704	45	4108
2026-01-24 01:07:22.31	36.08	22.53	-36.4	-37.9	17.2	0.00e+00	0	60	0	839909376	44	4271
2026-01-24 01:07:26.35	36.61	23.05	-36.5	-38.0	17.2	0.00e+00	0	60	0	861929472	44	4320
2026-01-24 01:07:30.39	37.16	23.57	-36.4	-37.8	17.4	0.00e+00	0	60	0	884998144	44	4234
2026-01-24 01:07:34.42	37.73	24.10	-36.0	-37.4	17.8	0.00e+00	0	60	0	908066816	44	4020
2026-01-24 01:07:38.46	38.32	24.64	-35.8	-37.1	17.9	0.00e+00	0	60	0	930086912	43	4144
2026-01-24 01:07:42.50	38.92	25.19	-35.8	-37.2	17.9	0.00e+00	0	60	0	953155584	43	4173
2026-01-24 01:07:46.54	39.55	25.75	-35.8	-37.1	17.9	0.00e+00	0	60	0	976224256	43	4145
2026-01-24 01:07:50.58	40.20	26.32	-35.6	-37.0	18.1	0.00e+00	0	60	0	999292928	43	4071
2026-01-24 01:07:54.61	40.87	26.89	-35.4	-36.7	18.4	0.00e+00	0	60	0	1021313024	42	4187
2026-01-24 01:07:58.65	41.56	27.47	-35.4	-36.7	18.4	0.00e+00	0	60	0	1044381696	42	4188
2026-01-24 01:08:02.69	42.29	28.06	-35.6	-36.9	18.2	0.00e+00	0	60	0	1066401792	42	4276
2026-01-24 01:08:06.73	43.03	28.66	-35.5	-36.8	18.4	0.00e+00	0	60	0	1089470464	42	4210
2026-01-24 01:08:10.77	43.81	29.27	-35.4	-36.7	18.4	0.00e+00	0	60	0	1112539136	42	4186
2026-01-24 01:08:14.81	44.62	29.88	-35.5	-36.9	18.3	0.00e+00	0	60	0	1134559232	42	4248
2026-01-24 01:08:18.84	45.45	30.50	-35.7	-37.0	18.2	0.00e+00	0	61	0	1157627904	42	4324
2026-01-24 01:08:22.88	46.32	31.13	-35.3	-36.8	18.1	0.00e+00	0	61	0	1180696576	42	4197
2026-01-24 01:08:26.92	47.22	31.76	-35.2	-36.6	18.2	0.00e+00	0	60	0	1203765248	42	4144
2026-01-24 01:08:30.96	48.16	32.40	-35.3	-36.8	18.1	0.00e+00	0	61	0	1225785344	42	4210
2026-01-24 01:08:35.00	49.14	33.05	-35.1	-36.5	18.4	0.00e+00	0	61	0	1248854016	42	4078
2026-01-24 01:08:39.04	50.15	33.70	-35.2	-36.7	18.2	0.00e+00	0	61	0	1270874112	42	4168
2026-01-24 01:08:43.07	51.20	34.35	-35.2	-36.7	18.2	0.00e+00	0	61	0	1293942784	42	4163
2026-01-24 01:08:47.11	52.30	35.01	-35.2	-36.6	18.3	0.00e+00	0	61	0	1317011456	42	4110
2026-01-24 01:08:51.16	53.45	35.67	-35.2	-36.6	18.3	0.00e+00	0	61	0	1339031552	42	4119
2026-01-24 01:08:55.20	54.64	36.33	-34.9	-36.3	18.6	0.00e+00	0	61	0	1362100224	41	4227
2026-01-24 01:08:59.23	55.87	36.99	-35.1	-36.6	18.3	0.00e+00	0	61	0	1385168896	41	4341
2026-01-24 01:09:03.27	57.16	37.65	-35.0	-36.4	18.5	0.00e+00	0	61	0	1408237568	41	4272
2026-01-24 01:09:07.31	58.50	38.30	-35.1	-36.5	18.4	0.00e+00	0	61	0	1430257664	41	4308
2026-01-24 01:09:11.35	59.89	38.95	-35.2	-36.7	18.3	0.00e+00	0	61	0	1453326336	41	4404
2026-01-24 01:09:15.39	61.34	39.59	-35.1	-36.5	18.4	0.00e+00	0	61	0	1475346432	41	4321
2026-01-24 01:09:19.43	62.85	40.22	-35.2	-36.6	18.3	0.00e+00	0	61	0	1498415104	41	4386
2026-01-24 01:09:23.46	64.41	40.84	-35.0	-36.4	18.6	0.00e+00	0	61	0	1521483776	41	4277
2026-01-24 01:09:27.51	66.04	41.45	-35.1	-36.5	18.4	0.00e+00	0	61	0	1543503872	41	4334
2026-01-24 01:09:31.55	67.73	42.04	-35.0	-36.4	18.6	0.00e+00	0	61	0	1566572544	41	4285
2026-01-24 01:09:35.58	69.47	42.61	-35.3	-36.7	18.2	0.00e+00	0	61	0	1589641216	41	4436
2026-01-24 01:09:39.62	71.28	43.16	-35.3	-36.7	18.2	0.00e+00	0	61	0	1612709888	41	4440
2026-01-24 01:09:43.66	73.15	43.69	-35.6	-37.1	17.9	0.00e+00	0	61	0	1634729984	41	4641
2026-01-24 01:09:47.71	75.09	44.19	-35.2	-36.6	18.5	0.00e+00	0	61	0	1657798656	41	4343
2026-01-24 01:09:51.75	77.08	44.65	-35.3	-36.7	18.4	0.00e+00	0	61	0	1679818752	41	4416
2026-01-24 01:09:55.79	79.13	45.09	-35.6	-37.1	17.9	0.00e+00	0	61	0	1702887424	41	4635
2026-01-24 01:09:59.83	81.23	45.49	-35.4	-36.8	18.3	0.00e+00	0	61	0	1725956096	41	4463
2026-01-24 01:10:03.86	83.38	45.85	-35.5	-36.9	18.2	0.00e+00	0	61	0	1747976192	41	4529
2026-01-24 01:10:07.90	85.58	46.16	-35.2	-36.6	18.5	0.00e+00	0	61	0	1771044864	41	4345
2026-01-24 01:10:11.94	87.82	46.44	-35.5	-37.0	18.1	0.00e+00	0	61	0	1794113536	41	4568
2026-01-24 01:10:15.98	90.10	46.66	-35.6	-37.0	18.1	0.00e+00	0	61	0	1817182208	41	4562
2026-01-24 01:10:20.02	92.41	46.84	-35.3	-36.7	18.5	0.00e+00	0	61	0	1839202304	41	4402
2026-01-24 01:10:24.06	94.74	46.97	-35.3	-36.7	18.3	0.00e+00	0	61	0	1862270976	41	4436
2026-01-24 01:10:28.09	97.07	47.05	-35.3	-36.7	18.5	0.00e+00	0	61	0	1884291072	41	4392
2026-01-24 01:10:32.13	99.43	47.08	-35.5	-36.9	18.2	0.00e+00	0	61	0	1907359744	41	4517
2026-01-24 01:10:36.17	101.78	47.05	-35.3	-36.7	18.4	0.00e+00	0	61	0	1930428416	41	4438
2026-01-24 01:10:40.21	104.13	46.98	-35.5	-36.9	18.2	0.00e+00	0	61	0	1952448512	41	4530
2026-01-24 01:10:44.25	106.46	46.85	-35.4	-36.8	18.3	0.00e+00	0	61	0	1975517184	41	4482
2026-01-24 01:10:48.28	108.77	46.68	-35.3	-36.6	18.5	0.00e+00	0	61	0	1998585856	41	4390
2026-01-24 01:10:52.32	111.05	46.45	-35.4	-36.9	18.3	0.00e+00	0	61	0	2021654528	41	4509
2026-01-24 01:10:56.36	113.29	46.18	-35.6	-37.1	18.0	0.00e+00	0	61	0	2043674624	42	4348
2026-01-24 01:11:00.40	115.50	45.86	-35.6	-37.0	18.1	0.00e+00	0	61	0	2066743296	42	4330
2026-01-24 01:11:04.44	117.66	45.51	-35.6	-37.0	18.1	0.00e+00	0	62	0	2088763392	42	4337
2026-01-24 01:11:08.49	119.77	45.11	-35.4	-36.8	18.3	0.00e+00	0	61	0	2111832064	42	4226
2026-01-24 01:11:12.53	121.83	44.67	-35.4	-36.9	18.2	0.00e+00	0	62	0	2134900736	42	4251
2026-01-24 01:11:16.57	123.83	44.21	-35.8	-37.3	17.8	0.00e+00	0	61	0	2157969408	42	4462
2026-01-24 01:11:20.61	125.76	43.71	-35.8	-37.3	17.8	0.00e+00	0	62	0	2179989504	42	4460
2026-01-24 01:11:24.65	127.64	43.18	-35.6	-37.0	18.1	0.00e+00	0	62	0	2203058176	42	4329
2026-01-24 01:11:28.69	129.46	42.63	-35.8	-37.2	17.9	0.00e+00	0	61	0	2226126848	42	4430
2026-01-24 01:11:32.73	131.22	42.06	-35.4	-36.8	18.2	0.00e+00	0	61	0	2248146944	42	4234
2026-01-24 01:11:36.77	132.91	41.46	-35.2	-36.6	18.4	0.00e+00	0	61	0	2271215616	42	4118
2026-01-24 01:11:40.80	134.54	40.86	-35.4	-36.8	18.2	0.00e+00	0	61	0	2293235712	42	4237
2026-01-24 01:11:44.84	136.11	40.23	-35.2	-36.6	18.4	0.00e+00	0	62	0	2316304384	42	4140
2026-01-24 01:11:48.88	137.63	39.60	-35.1	-36.5	18.5	0.00e+00	0	62	0	2339373056	41	4336
2026-01-24 01:11:52.92	139.08	38.95	-35.2	-36.6	18.4	0.00e+00	0	61	0	2362441728	41	4362
2026-01-24 01:11:56.96	140.49	38.30	-34.9	-36.2	18.7	0.00e+00	0	62	0	2384461824	41	4193
2026-01-24 01:12:00.99	141.83	37.65	-35.0	-36.3	18.6	0.00e+00	0	61	0	2407530496	41	4233
2026-01-24 01:12:05.04	143.12	36.98	-35.1	-36.5	18.4	0.00e+00	0	61	0	2430599168	41	4320
2026-01-24 01:12:09.07	144.36	36.32	-35.1	-36.5	18.5	0.00e+00	0	61	0	2452619264	41	4337
2026-01-24 01:12:13.11	145.56	35.66	-35.0	-36.3	18.6	0.00e+00	0	61	0	2475687936	41	4228
2026-01-24 01:12:17.15	146.71	35.00	-35.1	-36.6	18.3	0.00e+00	0	61	0	2497708032	41	4355
2026-01-24 01:12:21.19	147.81	34.33	-35.1	-36.5	18.3	0.00e+00	0	61	0	2520776704	41	4339
2026-01-24 01:12:25.23	148.87	33.68	-34.9	-36.3	18.6	0.00e+00	0	61	0	2543845376	41	4222
2026-01-24 01:12:29.26	149.88	33.02	-35.2	-36.6	18.2	0.00e+00	0	61	0	2565865472	41	4383
2026-01-24 01:12:33.30	150.86	32.37	-35.4	-36.8	18.0	0.00e+00	0	61	0	2588934144	41	4473
2026-01-24 01:12:37.35	151.81	31.73	-35.3	-36.8	18.1	0.00e+00	0	61	0	2612002816	41	4462
2026-01-24 01:12:41.39	152.71	31.09	-35.4	-36.8	18.0	0.00e+00	0	61	0	2635071488	41	4482
2026-01-24 01:12:45.43	153.59	30.46	-35.2	-36.7	18.1	0.00e+00	0	62	0	2657091584	41	4410
2026-01-24 01:12:49.46	154.42	29.83	-35.4	-36.9	17.9	0.00e+00	0	61	0	2680160256	41	4498
2026-01-24 01:12:53.51	155.23	29.21	-35.6	-37.1	17.6	0.00e+00	0	62	0	2702180352	41	4647
2026-01-24 01:12:57.54	156.01	28.60	-35.3	-36.8	18.0	0.00e+00	0	62	0	2725249024	41	4447
2026-01-24 01:13:01.59	156.76	28.00	-35.3	-36.8	18.0	0.00e+00	0	61	0	2748317696	41	4451
2026-01-24 01:13:05.62	157.48	27.41	-35.2	-36.7	18.1	0.00e+00	0	62	0	2771386368	41	4397
2026-01-24 01:13:09.66	158.18	26.82	-35.4	-36.9	17.8	0.00e+00	0	61	0	2793406464	41	4534
2026-01-24 01:13:13.70	158.85	26.24	-35.6	-37.1	17.6	0.00e+00	0	61	0	2816475136	41	4625
2026-01-24 01:13:17.74	159.50	25.67	-35.5	-36.9	17.8	0.00e+00	0	62	0	2839543808	41	4545
2026-01-24 01:13:21.77	160.13	25.11	-35.4	-36.9	17.8	0.00e+00	0	61	0	2861563904	41	4517
2026-01-24 01:13:25.81	160.74	24.56	-35.5	-37.0	17.7	0.00e+00	0	61	0	2884632576	41	4566
2026-01-24 01:13:29.84	161.32	24.02	-35.6	-37.1	17.5	0.00e+00	0	61	0	2906652672	41	4650
2026-01-24 01:13:33.88	161.89	23.48	-35.9	-37.4	17.3	0.00e+00	0	61	0	2929721344	42	4513
2026-01-24 01:13:37.92	162.44	22.95	-36.1	-37.7	17.0	0.00e+00	0	62	0	2952790016	42	4671
2026-01-24 01:13:41.96	162.97	22.43	-36.2	-37.8	16.8	0.00e+00	0	61	0	2974810112	43	4484
2026-01-24 01:13:46.00	163.48	21.92	-36.1	-37.8	16.9	0.00e+00	0	62	0	2997878784	43	4451
2026-01-24 01:13:50.03	163.98	21.42	-36.1	-37.7	16.9	0.00e+00	0	62	0	3020947456	43	4433
2026-01-24 01:13:54.07	164.46	20.92	-36.1	-37.7	16.9	0.00e+00	0	62	0	3044016128	43	4436
2026-01-24 01:13:58.12	164.93	20.43	-36.4	-38.1	16.5	0.00e+00	0	62	0	3066036224	43	4606
2026-01-24 01:14:02.16	165.39	19.95	-36.5	-38.2	16.4	0.00e+00	0	62	0	3089104896	43	4670
2026-01-24 01:14:06.20	165.83	19.48	-36.5	-38.2	16.4	0.00e+00	0	61	0	3111124992	43	4665
2026-01-24 01:14:10.23	166.25	19.01	-36.5	-38.2	16.4	0.00e+00	0	61	0	3134193664	43	4656
2026-01-24 01:14:14.27	166.67	18.55	-36.6	-38.3	16.3	0.00e+00	0	62	0	3157262336	43	4720
2026-01-24 01:14:18.31	167.07	18.10	-36.9	-38.6	16.1	0.00e+00	0	61	0	3179282432	44	4651
2026-01-24 01:14:22.35	167.46	17.66	-36.9	-38.7	16.1	0.00e+00	0	62	0	3202351104	44	4672
2026-01-24 01:14:26.39	167.85	17.22	-37.2	-38.9	15.8	0.00e+00	0	62	0	3225419776	44	4811
2026-01-24 01:14:30.42	168.22	16.79	-37.3	-39.1	15.7	0.00e+00	0	61	0	3247439872	45	4601
2026-01-24 01:14:34.45	168.58	16.36	-37.3	-39.2	15.6	0.00e+00	0	62	0	3270508544	45	4652
2026-01-24 01:14:38.49	168.93	15.94	-37.6	-39.5	15.2	0.00e+00	0	61	0	3293577216	45	4836
2026-01-24 01:14:42.53	169.27	15.53	-37.6	-39.5	15.1	0.00e+00	0	62	0	3315597312	45	4856
2026-01-24 01:14:46.56	169.60	15.13	-37.7	-39.6	15.0	0.00e+00	0	62	0	3338665984	46	4627
2026-01-24 01:14:50.60	169.93	14.72	-37.8	-39.7	14.9	0.00e+00	0	62	0	3361734656	46	4696
2026-01-24 01:14:54.64	170.24	14.33	-37.8	-39.8	14.8	0.00e+00	0	62	0	3383754752	46	4728
2026-01-24 01:14:58.68	170.55	13.94	-38.0	-40.0	14.6	0.00e+00	0	62	0	3406823424	46	4844
2026-01-24 01:15:02.72	170.85	13.56	-38.1	-40.1	14.4	0.00e+00	0	62	0	3429892096	46	4917
2026-01-24 01:15:06.76	171.15	13.18	-38.1	-40.2	14.3	0.00e+00	0	62	0	3451912192	46	4950
2026-01-24 01:15:10.80	171.43	12.80	-38.2	-40.3	14.2	1.10e-06	0	62	0	3474980864	47	4725
2026-01-24 01:15:14.84	171.71	12.44	-38.2	-40.3	14.1	1.10e-06	0	62	0	3498049536	47	4737
2026-01-24 01:15:18.87	171.99	12.07	-38.3	-40.4	14.0	2.20e-06	0	62	0	3520069632	47	4813
2026-01-24 01:15:22.91	172.25	11.71	-38.4	-40.6	13.8	1.10e-06	0	62	0	3543138304	47	4890
2026-01-24 01:15:26.95	172.51	11.36	-38.3	-40.5	13.9	3.40e-06	0	62	0	3566206976	47	4831
2026-01-24 01:15:30.99	172.77	11.01	-38.2	-40.4	14.0	1.10e-06	0	62	0	3588227072	47	4773
2026-01-24 01:15:35.03	173.02	10.67	-38.3	-40.5	13.8	2.20e-06	0	62	0	3611295744	47	4842
2026-01-24 01:15:39.06	173.26	10.33	-38.3	-40.5	13.8	6.80e-06	0	61	0	3634364416	47	4845
2026-01-24 01:15:43.10	173.50	9.99	-38.4	-40.7	13.5	5.70e-06	0	62	0	3656384512	47	4931
2026-01-24 01:15:47.14	173.73	9.66	-38.4	-40.7	13.4	8.00e-06	0	62	0	3679453184	47	4948
2026-01-24 01:15:51.18	173.96	9.33	-38.4	-40.8	13.3	1.25e-05	0	62	0	3702521856	47	4995
2026-01-24 01:15:55.21	174.19	9.00	-38.6	-41.0	12.9	2.97e-05	0	62	0	3724541952	47	5130
2026-01-24 01:15:59.25	174.40	8.68	-38.5	-41.1	12.7	5.03e-05	0	62	0	3747610624	47	5162
2026-01-24 01:16:03.29	174.62	8.37	-38.6	-41.3	12.3	1.14e-04	0	62	0	3770679296	47	5301
2026-01-24 01:16:07.33	174.83	8.05	-38.9	-41.7	11.8	2.99e-04	0	62	0	3792699392	48	5230
2026-01-24 01:16:11.37	175.04	7.74	-44.8	-56.6	3.8	8.46e-01	0	62	104	3802136576	60	14686
2026-01-24 01:16:15.41	175.24	7.44	-45.2	-56.9	3.8	8.46e-01	0	62	104	3802136576	60	15193
2026-01-24 01:16:19.46	175.44	7.13	-45.3	-57.0	3.8	8.46e-01	0	62	104	3802136576	61	14381
2026-01-24 01:16:23.50	175.63	6.84	-45.2	-56.9	3.8	8.46e-01	0	62	104	3802136576	61	14359
2026-01-24 01:16:27.54	175.82	6.54	-45.1	-56.9	3.8	8.47e-01	0	61	104	3802136576	61	14248
2026-01-24 01:16:31.58	176.01	6.25	-45.1	-56.9	3.8	8.47e-01	0	62	104	3802136576	61	14250
2026-01-24 01:16:35.62	176.19	5.96	-45.1	-56.8	3.8	8.47e-01	0	62	104	3802136576	61	14164
2026-01-24 01:16:39.67	176.37	5.67	-45.1	-56.9	3.8	8.45e-01	0	62	104	3802136576	61	14219
2026-01-24 01:16:43.71	176.55	5.38	-45.1	-56.8	3.8	8.46e-01	0	62	104	3802136576	61	14145
2026-01-24 01:16:47.75	176.72	5.10	-45.1	-56.8	3.8	8.46e-01	0	62	104	3802136576	61	14131
2026-01-24 01:16:51.79	176.89	4.82	-45.1	-56.8	3.8	8.46e-01	0	62	104	3802136576	61	14094
2026-01-24 01:16:55.84	177.06	4.55	-45.1	-56.8	3.8	8.47e-01	0	62	104	3802136576	61	14121
2026-01-24 01:16:59.88	177.23	4.27	-45.1	-56.8	3.8	8.45e-01	0	62	104	3802136576	61	14080
2026-01-24 01:17:03.92	177.39	4.00	-45.1	-56.8	3.8	8.46e-01	0	62	104	3802136576	61	14124
2026-01-24 01:17:07.96	177.55	3.74	-45.1	-56.8	3.8	8.45e-01	0	62	104	3802136576	61	14082
2026-01-24 01:17:12.00	177.70	3.47	-45.0	-56.7	3.8	8.45e-01	0	62	104	3802136576	61	14010
2026-01-24 01:17:16.05	177.86	3.21	-45.0	-56.7	3.8	8.46e-01	0	62	104	3802136576	61	14029
2026-01-24 01:17:20.09	178.01	2.94	-45.0	-56.7	3.8	8.46e-01	0	62	104	3802136576	61	14045
2026-01-24 01:17:24.13	178.16	2.69	-45.0	-56.8	3.8	8.46e-01	0	62	104	3802136576	61	14057
2026-01-24 01:17:28.17	178.30	2.43	-45.0	-56.7	3.8	8.46e-01	0	62	104	3802136576	61	14035
2026-01-24 01:17:32.21	178.45	2.18	-45.0	-56.8	3.8	8.45e-01	0	62	104	3802136576	61	14080
2026-01-24 01:17:36.25	178.59	1.92	-45.0	-56.8	3.8	8.46e-01	0	62	104	3802136576	61	14069

#Closed at: 2026-01-24 01:17:36
#Recorded file [3802 MB]: D:/lorett/data/31039_260124_040327.dat