passes_logs/2026/01/24/R2.0S_Moscow/R2.0S_Moscow__20260124_105437_FENGYUN_3D_rec.log

#Pass ID: 20260124_105437_FENGYUN 3D
#Satellite: FENGYUN 3D
#Configuration: FENGYUN 3D
#almurnet v.1.7.20251203
#Start time: 2026-01-24 10:54:37

#Version: 2.2.20231116
#Station: R2.0S_Moscow
#Location: 37.707566 lon 55.798166 lat
#TLE: 1 43010U 17072A   26023.60174628  .00000324  00000+0  17481-3 0  9994
#TLE: 2 43010  98.9958 355.5514 0002482  93.7422 266.4037 14.19699955424476

#Time	Az	El	Level	Level2	SNR	BER	BlckErr	Temp	State	Recorded	gain1	gain2
2026-01-24 10:54:37.93	129.18	2.04	-31.4	-46.3	4.3	8.36e-01	0	52	0	0	37	16878
2026-01-24 10:54:41.96	129.00	2.29	-25.1	-40.0	3.7	8.35e-01	0	52	104	0	26	15385
2026-01-24 10:54:46.00	128.82	2.54	-34.9	-49.5	4.2	8.37e-01	0	53	104	0	40	20422
2026-01-24 10:54:50.04	128.64	2.79	-31.7	-44.8	3.7	8.41e-01	0	53	104	0	34	16731
2026-01-24 10:54:54.09	128.45	3.04	-33.9	-49.1	4.1	8.32e-01	0	53	104	0	36	24545
2026-01-24 10:54:58.13	128.26	3.30	-34.7	-50.5	4.2	8.36e-01	0	54	104	0	43	19213
2026-01-24 10:55:02.17	128.07	3.56	-35.4	-49.7	4.1	8.39e-01	0	54	104	0	36	26353
2026-01-24 10:55:06.22	127.87	3.82	-33.1	-47.5	4.4	8.39e-01	0	54	104	0	37	19343
2026-01-24 10:55:10.26	127.67	4.08	-32.8	-47.8	4.4	8.39e-01	0	54	104	0	33	25087
2026-01-24 10:55:14.30	127.46	4.35	-29.8	-43.4	4.2	8.38e-01	0	55	104	0	30	17909
2026-01-24 10:55:18.34	127.25	4.61	-31.2	-44.2	4.0	8.33e-01	0	55	104	0	29	20960
2026-01-24 10:55:22.38	127.04	4.88	-29.5	-43.9	3.7	8.24e-01	0	55	104	0	21	31900
2026-01-24 10:55:26.42	126.82	5.15	-26.4	-39.9	3.8	8.33e-01	0	56	104	0	23	17942
2026-01-24 10:55:30.46	126.60	5.43	-28.8	-43.5	4.2	8.34e-01	0	56	104	0	27	21752
2026-01-24 10:55:34.50	126.38	5.70	-36.0	-50.1	4.3	8.35e-01	0	56	104	0	35	29073
2026-01-24 10:55:38.54	126.15	5.98	-33.4	-47.6	4.2	8.38e-01	0	56	0	0	38	18314
2026-01-24 10:55:42.59	125.91	6.27	-35.6	-50.4	3.6	8.39e-01	0	56	104	0	38	25371
2026-01-24 10:55:46.63	125.67	6.55	-26.8	-40.0	3.7	8.41e-01	0	56	104	0	37	8149
2026-01-24 10:55:50.67	125.43	6.84	-31.5	-46.2	3.7	8.43e-01	0	57	104	0	21	41833
2026-01-24 10:55:54.71	125.18	7.13	-32.2	-47.6	4.0	8.40e-01	0	57	104	0	32	25878
2026-01-24 10:55:58.75	124.92	7.42	-31.8	-47.3	4.1	8.35e-01	0	57	104	0	34	22291
2026-01-24 10:56:02.79	124.66	7.71	-28.4	-41.2	4.1	8.38e-01	0	57	104	0	35	10477
2026-01-24 10:56:06.83	124.40	8.01	-32.1	-42.3	6.3	6.33e-01	0	57	0	0	38	9951
2026-01-24 10:56:10.87	124.13	8.31	-30.2	-44.3	4.6	7.89e-01	0	57	0	1048576	34	15825
2026-01-24 10:56:14.91	123.85	8.62	-37.8	-49.2	3.8	8.43e-01	0	57	104	1048576	44	15584
2026-01-24 10:56:18.95	123.57	8.92	-37.7	-48.0	4.9	7.88e-01	0	58	104	1048576	50	9609
2026-01-24 10:56:22.98	123.28	9.23	-33.7	-43.9	6.1	5.32e-01	0	58	0	4194304	40	10744
2026-01-24 10:56:27.02	122.98	9.55	-36.6	-42.0	8.9	2.90e-01	0	58	0	17825792	44	6820
2026-01-24 10:56:31.06	122.68	9.86	-36.4	-42.3	9.5	3.76e-01	0	58	0	33554432	45	6691
2026-01-24 10:56:35.10	122.37	10.18	-34.6	-42.8	7.7	3.57e-01	0	58	0	47185920	39	9945
2026-01-24 10:56:39.14	122.05	10.51	-36.4	-42.1	8.6	1.95e-01	0	58	0	60817408	40	8673
2026-01-24 10:56:43.17	121.73	10.83	-33.8	-41.7	8.3	2.55e-01	0	58	0	77594624	37	9896
2026-01-24 10:56:47.21	121.40	11.16	-33.1	-41.3	8.2	1.71e-01	0	58	0	95420416	43	6662
2026-01-24 10:56:51.25	121.06	11.50	-34.2	-41.4	9.3	1.35e-01	0	59	0	115343360	43	6782
2026-01-24 10:56:55.29	120.71	11.83	-35.4	-41.0	10.6	7.50e-02	0	59	0	135266304	44	6125
2026-01-24 10:56:59.33	120.36	12.17	-34.9	-40.6	7.3	2.02e-01	0	59	0	155189248	38	8246
2026-01-24 10:57:03.37	119.99	12.52	-34.7	-40.8	10.3	2.78e-01	0	59	0	175112192	43	6277
2026-01-24 10:57:07.41	119.62	12.87	-36.5	-41.1	11.8	2.50e-01	0	59	0	193986560	44	6202
2026-01-24 10:57:11.45	119.24	13.22	-35.0	-40.7	11.0	1.99e-01	0	59	0	214958080	43	6228
2026-01-24 10:57:15.48	118.85	13.57	-34.7	-40.7	12.5	6.07e-02	0	59	0	235929600	45	5530
2026-01-24 10:57:19.53	118.44	13.93	-34.6	-40.5	10.7	7.76e-02	0	59	0	256901120	44	5783
2026-01-24 10:57:23.57	118.03	14.30	-36.1	-40.3	12.5	8.82e-02	0	59	0	278921216	44	5650
2026-01-24 10:57:27.61	117.61	14.67	-37.8	-40.2	13.6	9.79e-03	0	59	0	300941312	46	4962
2026-01-24 10:57:31.64	117.18	15.04	-37.6	-39.9	14.5	1.84e-03	0	60	0	324009984	46	4767
2026-01-24 10:57:35.69	116.73	15.41	-37.6	-39.9	14.0	1.58e-03	0	59	0	347078656	45	5063
2026-01-24 10:57:39.73	116.28	15.79	-37.3	-39.9	13.7	1.33e-03	0	59	0	370147328	45	5044
2026-01-24 10:57:43.77	115.81	16.18	-37.7	-39.8	14.6	1.52e-03	0	59	0	392167424	45	5030
2026-01-24 10:57:47.81	115.33	16.57	-37.4	-39.7	14.9	2.15e-04	0	59	0	415236096	45	4945
2026-01-24 10:57:51.84	114.84	16.96	-37.6	-39.6	14.9	2.51e-05	0	60	0	438304768	45	4922
2026-01-24 10:57:55.89	114.33	17.35	-37.4	-39.3	15.4	2.20e-06	0	60	0	460324864	45	4739
2026-01-24 10:57:59.93	113.81	17.75	-37.2	-39.1	15.6	0.00e+00	0	60	0	483393536	45	4633
2026-01-24 10:58:03.96	113.27	18.16	-37.2	-39.0	15.8	1.10e-06	0	60	0	505413632	45	4546
2026-01-24 10:58:08.00	112.73	18.57	-37.1	-38.9	15.8	0.00e+00	0	60	0	528482304	45	4530
2026-01-24 10:58:12.04	112.16	18.98	-37.1	-38.9	15.8	0.00e+00	0	60	0	551550976	45	4543
2026-01-24 10:58:16.08	111.58	19.40	-37.1	-38.9	15.9	0.00e+00	0	60	0	573571072	45	4518
2026-01-24 10:58:20.12	110.98	19.82	-36.8	-38.5	16.3	0.00e+00	0	60	0	596639744	45	4328
2026-01-24 10:58:24.16	110.37	20.24	-36.9	-38.6	16.2	0.00e+00	0	60	0	619708416	45	4387
2026-01-24 10:58:28.20	109.74	20.67	-36.7	-38.5	16.4	0.00e+00	0	60	0	642777088	45	4295
2026-01-24 10:58:32.24	109.09	21.10	-36.5	-38.2	16.7	0.00e+00	0	60	0	664797184	45	4154
2026-01-24 10:58:36.27	108.42	21.53	-36.5	-38.2	16.7	0.00e+00	0	60	0	687865856	44	4419
2026-01-24 10:58:40.31	107.74	21.97	-36.7	-38.4	16.5	0.00e+00	0	60	0	709885952	44	4497
2026-01-24 10:58:44.35	107.03	22.41	-36.5	-38.2	16.6	0.00e+00	0	60	0	732954624	44	4405
2026-01-24 10:58:48.39	106.30	22.86	-36.4	-38.1	16.8	0.00e+00	0	60	0	756023296	44	4344
2026-01-24 10:58:52.43	105.55	23.30	-36.4	-38.0	16.8	0.00e+00	0	60	0	779091968	44	4323
2026-01-24 10:58:56.47	104.78	23.75	-36.5	-38.2	16.7	0.00e+00	0	60	0	801112064	44	4420
2026-01-24 10:59:00.51	103.99	24.20	-36.4	-38.0	16.9	0.00e+00	0	60	0	824180736	44	4325
2026-01-24 10:59:04.55	103.17	24.66	-36.2	-37.8	17.1	0.00e+00	0	60	0	847249408	44	4228
2026-01-24 10:59:08.59	102.33	25.11	-36.1	-37.7	17.2	0.00e+00	0	60	0	869269504	44	4168
2026-01-24 10:59:12.63	101.47	25.56	-35.8	-37.4	17.4	0.00e+00	0	61	0	892338176	43	4247
2026-01-24 10:59:16.67	100.57	26.02	-35.7	-37.2	17.6	0.00e+00	0	61	0	914358272	43	4166
2026-01-24 10:59:20.70	99.66	26.47	-35.6	-37.1	17.7	0.00e+00	0	61	0	937426944	43	4109
2026-01-24 10:59:24.74	98.72	26.93	-35.5	-37.0	17.8	0.00e+00	0	61	0	960495616	43	4082
2026-01-24 10:59:28.78	97.74	27.38	-35.5	-37.0	17.8	0.00e+00	0	61	0	983564288	42	4301
2026-01-24 10:59:32.82	96.75	27.83	-35.4	-36.9	17.9	0.00e+00	0	61	0	1005584384	42	4281
2026-01-24 10:59:36.85	95.72	28.28	-35.5	-37.0	17.8	0.00e+00	0	61	0	1028653056	42	4336
2026-01-24 10:59:40.89	94.66	28.72	-35.6	-37.1	17.7	0.00e+00	0	61	0	1051721728	42	4386
2026-01-24 10:59:44.93	93.58	29.16	-35.5	-37.0	17.9	0.00e+00	0	61	0	1073741824	42	4295
2026-01-24 10:59:48.97	92.46	29.60	-35.5	-37.0	17.9	0.00e+00	0	61	0	1096810496	42	4299
2026-01-24 10:59:53.01	91.31	30.03	-35.3	-36.8	18.1	0.00e+00	0	61	0	1118830592	42	4197
2026-01-24 10:59:57.04	90.14	30.45	-35.2	-36.6	18.3	0.00e+00	0	61	0	1141899264	42	4122
2026-01-24 11:00:01.09	88.92	30.86	-35.2	-36.7	18.2	0.00e+00	0	61	0	1164967936	42	4155
2026-01-24 11:00:05.12	87.69	31.27	-35.1	-36.5	18.4	0.00e+00	0	61	0	1186988032	42	4068
2026-01-24 11:00:09.16	86.42	31.66	-35.0	-36.4	18.4	0.00e+00	0	61	0	1210056704	41	4283
2026-01-24 11:00:13.20	85.11	32.05	-35.0	-36.5	18.4	0.00e+00	0	61	0	1233125376	41	4298
2026-01-24 11:00:17.23	83.78	32.42	-35.0	-36.4	18.5	0.00e+00	0	61	0	1256194048	41	4252
2026-01-24 11:00:21.28	82.42	32.78	-34.9	-36.3	18.6	0.00e+00	0	61	0	1278214144	41	4216
2026-01-24 11:00:25.32	81.02	33.12	-35.1	-36.5	18.4	0.00e+00	0	61	0	1301282816	41	4315
2026-01-24 11:00:29.36	79.60	33.45	-35.0	-36.4	18.4	0.00e+00	0	61	0	1323302912	41	4285
2026-01-24 11:00:33.39	78.15	33.76	-35.2	-36.6	18.2	0.00e+00	0	61	0	1346371584	41	4382
2026-01-24 11:00:37.43	76.67	34.05	-35.0	-36.4	18.4	0.00e+00	0	61	0	1369440256	41	4286
2026-01-24 11:00:41.46	75.17	34.33	-35.0	-36.4	18.4	0.00e+00	0	61	0	1391460352	41	4283
2026-01-24 11:00:45.50	73.64	34.58	-35.1	-36.6	18.3	0.00e+00	0	61	0	1414529024	41	4368
2026-01-24 11:00:49.54	72.09	34.81	-35.1	-36.6	18.3	0.00e+00	0	61	0	1437597696	41	4345
2026-01-24 11:00:53.58	70.52	35.02	-35.2	-36.7	18.2	0.00e+00	0	61	0	1460666368	41	4406
2026-01-24 11:00:57.62	68.93	35.20	-34.9	-36.2	18.6	0.00e+00	0	61	0	1482686464	41	4187
2026-01-24 11:01:01.65	67.32	35.36	-35.1	-36.5	18.4	0.00e+00	0	61	0	1505755136	41	4314
2026-01-24 11:01:05.69	65.70	35.50	-34.8	-36.2	18.7	0.00e+00	0	61	0	1527775232	41	4170
2026-01-24 11:01:09.73	64.07	35.61	-34.9	-36.3	18.6	0.00e+00	0	61	0	1550843904	41	4211
2026-01-24 11:01:13.77	62.42	35.69	-34.9	-36.3	18.6	0.00e+00	0	61	0	1573912576	41	4213
2026-01-24 11:01:17.80	60.78	35.74	-35.2	-36.6	18.3	0.00e+00	0	61	0	1595932672	41	4363
2026-01-24 11:01:21.84	59.12	35.77	-35.1	-36.5	18.4	0.00e+00	0	61	0	1619001344	41	4318
2026-01-24 11:01:25.88	57.46	35.78	-34.9	-36.3	18.6	0.00e+00	0	61	0	1642070016	41	4197
2026-01-24 11:01:29.92	55.81	35.75	-34.8	-36.1	18.8	0.00e+00	0	61	0	1664090112	41	4137
2026-01-24 11:01:33.96	54.16	35.70	-35.1	-36.5	18.4	0.00e+00	0	61	0	1687158784	41	4340
2026-01-24 11:01:38.00	52.51	35.62	-35.3	-36.7	18.2	0.00e+00	0	61	0	1710227456	41	4434
2026-01-24 11:01:42.04	50.88	35.51	-35.0	-36.4	18.5	0.00e+00	0	61	0	1732247552	41	4273
2026-01-24 11:01:46.08	49.25	35.38	-34.8	-36.2	18.7	0.00e+00	0	61	0	1755316224	41	4178
2026-01-24 11:01:50.12	47.65	35.22	-35.0	-36.5	18.5	0.00e+00	0	61	0	1778384896	41	4297
2026-01-24 11:01:54.16	46.06	35.04	-34.9	-36.3	18.6	0.00e+00	0	61	0	1800404992	41	4228
2026-01-24 11:01:58.20	44.48	34.83	-34.9	-36.3	18.6	0.00e+00	0	61	0	1823473664	41	4241
2026-01-24 11:02:02.24	42.93	34.61	-34.9	-36.3	18.6	0.00e+00	0	61	0	1846542336	41	4198
2026-01-24 11:02:06.27	41.41	34.36	-35.0	-36.4	18.5	0.00e+00	0	61	0	1868562432	41	4255
2026-01-24 11:02:10.32	39.90	34.09	-35.0	-36.5	18.5	0.00e+00	0	61	0	1891631104	41	4293
2026-01-24 11:02:14.35	38.43	33.80	-35.1	-36.5	18.4	0.00e+00	0	61	0	1914699776	41	4336
2026-01-24 11:02:18.39	36.98	33.49	-35.2	-36.5	18.8	0.00e+00	0	61	0	1936719872	41	4297
2026-01-24 11:02:22.42	35.56	33.16	-35.2	-36.5	18.8	0.00e+00	0	61	0	1959788544	41	4326
2026-01-24 11:02:26.46	34.16	32.82	-35.2	-36.5	18.8	0.00e+00	0	61	0	1982857216	41	4293
2026-01-24 11:02:30.50	32.80	32.47	-35.2	-36.4	18.8	0.00e+00	0	61	0	2004877312	41	4291
2026-01-24 11:02:34.54	31.47	32.10	-35.3	-36.6	18.6	0.00e+00	0	61	0	2027945984	41	4365
2026-01-24 11:02:38.58	30.16	31.72	-35.2	-36.5	18.7	0.00e+00	0	61	0	2051014656	41	4324
2026-01-24 11:02:42.62	28.89	31.32	-35.3	-36.5	18.7	0.00e+00	0	61	0	2073034752	41	4333
2026-01-24 11:02:46.66	27.65	30.92	-35.4	-36.7	18.5	0.00e+00	0	61	0	2096103424	41	4401
2026-01-24 11:02:50.70	26.44	30.51	-35.3	-36.6	18.6	0.00e+00	0	61	0	2119172096	41	4386
2026-01-24 11:02:54.74	25.27	30.09	-35.3	-36.6	18.6	0.00e+00	0	61	0	2141192192	41	4354
2026-01-24 11:02:58.78	24.12	29.66	-35.5	-36.8	18.4	0.00e+00	0	61	0	2164260864	41	4454
2026-01-24 11:03:02.82	23.00	29.23	-35.4	-36.7	18.4	0.00e+00	0	61	0	2187329536	41	4437
2026-01-24 11:03:06.86	21.92	28.79	-35.4	-36.8	18.5	0.00e+00	0	61	0	2209349632	41	4442
2026-01-24 11:03:10.90	20.86	28.35	-35.6	-37.0	18.2	0.00e+00	0	61	0	2232418304	41	4557
2026-01-24 11:03:14.94	19.84	27.90	-35.6	-36.9	18.2	0.00e+00	0	61	0	2255486976	41	4523
2026-01-24 11:03:18.98	18.84	27.45	-35.7	-37.1	18.1	0.00e+00	0	62	0	2278555648	42	4346
2026-01-24 11:03:23.02	17.87	27.00	-35.9	-37.3	17.9	0.00e+00	0	61	0	2300575744	42	4448
2026-01-24 11:03:27.05	16.93	26.55	-36.0	-37.4	17.8	0.00e+00	0	61	0	2323644416	42	4509
2026-01-24 11:03:31.09	16.01	26.10	-35.9	-37.3	17.9	0.00e+00	0	61	0	2345664512	42	4446
2026-01-24 11:03:35.13	15.12	25.64	-36.1	-37.6	17.5	0.00e+00	0	61	0	2368733184	42	4616
2026-01-24 11:03:39.18	14.26	25.19	-36.1	-37.5	17.6	0.00e+00	0	61	0	2391801856	42	4559
2026-01-24 11:03:43.21	13.42	24.74	-36.1	-37.5	17.6	0.00e+00	0	62	0	2413821952	42	4584
2026-01-24 11:03:47.25	12.60	24.29	-36.4	-37.8	17.2	0.00e+00	0	61	0	2436890624	43	4486
2026-01-24 11:03:51.29	11.81	23.84	-36.4	-37.9	17.2	0.00e+00	0	61	0	2459959296	43	4521
2026-01-24 11:03:55.33	11.04	23.39	-36.2	-37.6	17.4	0.00e+00	0	61	0	2481979392	43	4370
2026-01-24 11:03:59.37	10.29	22.95	-36.1	-37.5	17.5	0.00e+00	0	61	0	2505048064	43	4325
2026-01-24 11:04:03.40	9.57	22.51	-36.1	-37.5	17.5	0.00e+00	0	62	0	2528116736	43	4319
2026-01-24 11:04:07.44	8.87	22.07	-36.1	-37.5	17.5	0.00e+00	0	61	0	2550136832	43	4300
2026-01-24 11:04:11.48	8.18	21.63	-36.3	-37.8	17.1	0.00e+00	0	61	0	2573205504	43	4477
2026-01-24 11:04:15.52	7.51	21.20	-36.5	-38.0	16.9	0.00e+00	0	61	0	2596274176	43	4575
2026-01-24 11:04:19.56	6.87	20.77	-36.4	-37.9	16.9	0.00e+00	0	62	0	2618294272	43	4532
2026-01-24 11:04:23.59	6.24	20.34	-36.4	-37.9	16.9	0.00e+00	0	61	0	2641362944	43	4530
2026-01-24 11:04:27.63	5.63	19.92	-36.6	-38.2	16.6	0.00e+00	0	61	0	2664431616	43	4674
2026-01-24 11:04:31.67	5.03	19.50	-36.6	-38.1	16.7	0.00e+00	0	61	0	2686451712	43	4640
2026-01-24 11:04:35.71	4.45	19.08	-36.7	-38.2	16.5	0.00e+00	0	61	0	2709520384	43	4700
2026-01-24 11:04:39.75	3.89	18.67	-36.9	-38.6	16.3	0.00e+00	0	62	0	2732589056	44	4603
2026-01-24 11:04:43.78	3.35	18.27	-37.0	-38.7	16.1	0.00e+00	0	61	0	2754609152	44	4670
2026-01-24 11:04:47.82	2.81	17.86	-37.0	-38.7	16.0	0.00e+00	0	62	0	2777677824	44	4682
2026-01-24 11:04:51.85	2.30	17.47	-37.2	-38.9	15.7	0.00e+00	0	61	0	2800746496	45	4509
2026-01-24 11:04:55.90	1.79	17.07	-37.3	-39.1	15.4	0.00e+00	0	61	0	2822766592	45	4606
2026-01-24 11:04:59.93	1.30	16.68	-37.3	-39.1	15.4	0.00e+00	0	62	0	2845835264	45	4600
2026-01-24 11:05:03.97	0.82	16.29	-37.3	-39.1	15.1	0.00e+00	0	62	0	2867855360	45	4635
2026-01-24 11:05:08.01	0.36	15.91	-37.4	-39.2	14.9	0.00e+00	0	61	0	2890924032	45	4685
2026-01-24 11:05:12.04	359.91	15.53	-37.6	-39.6	14.4	0.00e+00	0	62	0	2913992704	45	4893
2026-01-24 11:05:16.09	359.46	15.15	-37.7	-39.7	14.1	0.00e+00	0	62	0	2937061376	45	4963
2026-01-24 11:05:20.13	359.03	14.78	-37.6	-39.7	13.8	9.10e-06	0	62	0	2959081472	46	4657
2026-01-24 11:05:24.17	358.61	14.42	-37.6	-39.8	13.4	1.02e-05	0	62	0	2982150144	46	4728
2026-01-24 11:05:28.21	358.20	14.05	-37.5	-39.6	13.6	1.25e-05	0	62	0	3005218816	46	4631
2026-01-24 11:05:32.25	357.80	13.69	-37.5	-39.9	12.9	1.03e-04	0	62	0	3027238912	46	4761
2026-01-24 11:05:36.29	357.42	13.34	-36.8	-39.0	13.4	2.05e-05	0	62	0	3050307584	45	4597
2026-01-24 11:05:40.32	357.04	12.99	-37.2	-39.6	12.5	2.07e-04	0	62	0	3072327680	45	4909
2026-01-24 11:05:44.36	356.67	12.64	-37.1	-39.7	12.2	2.46e-04	0	61	0	3095396352	45	4939
2026-01-24 11:05:48.41	356.30	12.30	-39.6	-44.7	6.8	1.50e-01	0	62	0	3118465024	49	6987
2026-01-24 11:05:52.44	355.95	11.96	-40.6	-50.9	3.8	8.46e-01	0	61	104	3123707904	51	12796
2026-01-24 11:05:56.48	355.61	11.62	-40.3	-51.9	3.8	8.46e-01	0	62	104	3123707904	51	14242
2026-01-24 11:06:00.52	355.27	11.29	-40.2	-51.8	3.8	8.46e-01	0	62	104	3123707904	52	13283
2026-01-24 11:06:04.55	354.94	10.96	-40.2	-51.7	3.8	8.45e-01	0	62	104	3123707904	52	13252
2026-01-24 11:06:08.59	354.62	10.63	-40.2	-51.7	3.8	8.46e-01	0	62	104	3123707904	52	13215
2026-01-24 11:06:12.63	354.31	10.31	-40.1	-51.7	3.8	8.47e-01	0	62	104	3123707904	52	13119
2026-01-24 11:06:16.67	354.00	9.99	-40.1	-51.7	3.8	8.46e-01	0	62	104	3123707904	52	13144
2026-01-24 11:06:20.70	353.71	9.68	-40.2	-51.7	3.8	8.47e-01	0	62	104	3123707904	52	13190
2026-01-24 11:06:24.74	353.41	9.36	-40.2	-51.7	3.8	8.47e-01	0	62	104	3123707904	52	13259
2026-01-24 11:06:28.78	353.13	9.05	-40.3	-51.9	3.8	8.46e-01	0	62	104	3123707904	52	13455
2026-01-24 11:06:32.81	352.85	8.75	-40.4	-52.0	3.8	8.45e-01	0	62	104	3123707904	52	13582
2026-01-24 11:06:36.85	352.57	8.44	-40.5	-52.0	3.8	8.46e-01	0	62	104	3123707904	52	13682
2026-01-24 11:06:40.89	352.31	8.14	-40.4	-51.9	3.8	8.46e-01	0	62	104	3123707904	52	13532
2026-01-24 11:06:44.93	352.04	7.85	-43.0	-54.5	3.8	8.46e-01	0	62	104	3123707904	56	14396
2026-01-24 11:06:48.97	351.79	7.55	-45.2	-57.0	3.8	8.46e-01	0	61	104	3123707904	60	15248
2026-01-24 11:06:53.02	351.54	7.26	-45.3	-57.1	3.8	8.46e-01	0	62	104	3123707904	61	14547
2026-01-24 11:06:57.06	351.29	6.97	-45.3	-57.0	3.8	8.47e-01	0	62	104	3123707904	61	14411
2026-01-24 11:07:01.10	351.05	6.68	-45.1	-56.8	3.8	8.45e-01	0	62	104	3123707904	60	15017
2026-01-24 11:07:05.15	350.81	6.40	-45.1	-56.8	3.8	8.46e-01	0	62	104	3123707904	60	14986
2026-01-24 11:07:09.19	350.58	6.12	-45.1	-56.8	3.8	8.47e-01	0	62	104	3123707904	60	15007
2026-01-24 11:07:13.23	350.36	5.84	-45.1	-56.8	3.8	8.46e-01	0	62	104	3123707904	60	15013
2026-01-24 11:07:17.28	350.13	5.56	-45.1	-56.8	3.8	8.47e-01	0	62	104	3123707904	60	14945
2026-01-24 11:07:21.32	349.92	5.29	-45.1	-56.8	3.8	8.46e-01	0	62	104	3123707904	60	14960
2026-01-24 11:07:25.36	349.70	5.02	-45.1	-56.8	3.8	8.45e-01	0	62	104	3123707904	60	14943
2026-01-24 11:07:29.40	349.50	4.75	-45.1	-56.8	3.8	8.47e-01	0	62	104	3123707904	60	14921
2026-01-24 11:07:33.45	349.29	4.48	-45.0	-56.8	3.8	8.46e-01	0	62	104	3123707904	60	14957
2026-01-24 11:07:37.49	349.09	4.22	-45.1	-56.8	3.8	8.44e-01	0	62	104	3123707904	60	14909
2026-01-24 11:07:41.53	348.89	3.95	-45.1	-56.8	3.8	8.47e-01	0	62	104	3123707904	60	14898
2026-01-24 11:07:45.57	348.70	3.69	-45.1	-56.8	3.8	8.45e-01	0	62	104	3123707904	60	14901
2026-01-24 11:07:49.62	348.51	3.44	-45.0	-56.7	3.8	8.45e-01	0	62	104	3123707904	60	14842
2026-01-24 11:07:53.66	348.33	3.18	-45.0	-56.8	3.8	8.46e-01	0	62	104	3123707904	60	14917
2026-01-24 11:07:57.70	348.14	2.93	-45.1	-56.8	3.8	8.46e-01	0	62	104	3123707904	60	14911
2026-01-24 11:08:01.75	347.96	2.68	-45.0	-56.7	3.8	8.46e-01	0	62	104	3123707904	60	14866
2026-01-24 11:08:05.79	347.79	2.43	-45.0	-56.7	3.8	8.46e-01	0	62	104	3123707904	60	14873
2026-01-24 11:08:09.83	347.62	2.18	-44.9	-56.7	3.8	8.46e-01	0	62	104	3123707904	60	14853

#Closed at: 2026-01-24 11:08:13
#Recorded file [3123 MB]: D:/lorett/data/31039_260124_135437.dat