passes_logs/2026/01/24/R2.0S_Moscow/R2.0S_Moscow__20260124_155929_FENGYUN_3E_rec.log

#Pass ID: 20260124_155929_FENGYUN 3E
#Satellite: FENGYUN 3E
#Configuration: FENGYUN 3E
#almurnet v.1.7.20251203
#Start time: 2026-01-24 15:59:29

#Version: 2.2.20231116
#Station: R2.0S_Moscow
#Location: 37.707566 lon 55.798166 lat
#TLE: 1 49008U 21062A   26024.23699167 -.00000179  00000+0 -63840-4 0  9992
#TLE: 2 49008  98.7493  29.2570 0002404 119.1229 241.0188 14.19886095236155

#Time	Az	El	Level	Level2	SNR	BER	BlckErr	Temp	State	Recorded	gain1	gain2
2026-01-24 15:59:29.65	215.64	2.01	-44.5	-55.5	3.8	8.47e-01	0	52	0	0	59	12913
2026-01-24 15:59:32.67	215.89	2.17	-44.5	-55.5	3.8	8.46e-01	0	52	104	0	59	12920
2026-01-24 15:59:35.70	216.14	2.33	-44.5	-55.5	3.8	8.47e-01	0	53	104	0	59	12936
2026-01-24 15:59:38.74	216.40	2.48	-44.5	-55.5	3.8	8.44e-01	0	53	104	0	59	12878
2026-01-24 15:59:41.77	216.66	2.64	-44.5	-55.5	3.8	8.46e-01	0	53	104	0	59	12951
2026-01-24 15:59:44.80	216.92	2.80	-44.5	-55.5	3.8	8.46e-01	0	53	104	0	59	12865
2026-01-24 15:59:47.83	217.18	2.96	-44.5	-55.5	3.8	8.46e-01	0	54	104	0	59	12905
2026-01-24 15:59:50.86	217.45	3.12	-44.5	-55.5	3.8	8.45e-01	0	54	104	0	59	12945
2026-01-24 15:59:53.89	217.72	3.28	-44.5	-55.5	3.8	8.47e-01	0	54	104	0	59	12893
2026-01-24 15:59:56.92	217.99	3.44	-44.5	-55.5	3.8	8.46e-01	0	54	104	0	59	12898
2026-01-24 15:59:59.95	218.26	3.60	-44.5	-55.5	3.8	8.46e-01	0	54	104	0	59	12900
2026-01-24 16:00:02.98	218.54	3.76	-44.5	-55.5	3.8	8.46e-01	0	55	104	0	59	12871
2026-01-24 16:00:06.02	218.82	3.92	-44.5	-55.5	3.8	8.45e-01	0	55	104	0	59	12873
2026-01-24 16:00:09.05	219.11	4.08	-44.5	-55.5	3.8	8.46e-01	0	55	104	0	59	12891
2026-01-24 16:00:12.08	219.39	4.24	-44.5	-55.5	3.8	8.47e-01	0	55	104	0	59	12844
2026-01-24 16:00:15.11	219.68	4.41	-44.5	-55.5	3.8	8.46e-01	0	55	104	0	59	12895
2026-01-24 16:00:18.14	219.98	4.57	-44.5	-55.5	3.8	8.46e-01	0	55	104	0	59	12895
2026-01-24 16:00:21.17	220.27	4.73	-44.5	-55.5	3.8	8.46e-01	0	56	104	0	59	12908
2026-01-24 16:00:24.20	220.57	4.90	-44.5	-55.5	3.8	8.47e-01	0	56	104	0	59	12909
2026-01-24 16:00:27.23	220.88	5.06	-44.5	-55.5	3.8	8.47e-01	0	56	104	0	59	12864
2026-01-24 16:00:30.26	221.18	5.23	-44.5	-55.5	3.8	8.46e-01	0	56	104	0	59	12884
2026-01-24 16:00:33.29	221.49	5.39	-44.5	-55.5	3.8	8.46e-01	0	56	104	0	59	12836
2026-01-24 16:00:36.33	221.81	5.56	-44.5	-55.4	3.8	8.46e-01	0	56	104	0	59	12783
2026-01-24 16:00:39.36	222.12	5.72	-44.5	-55.3	3.8	8.46e-01	0	56	104	0	59	12653
2026-01-24 16:00:42.39	222.44	5.89	-44.4	-55.3	3.8	8.46e-01	0	57	104	0	59	12526
2026-01-24 16:00:45.42	222.76	6.05	-44.4	-55.0	3.8	8.46e-01	0	57	104	0	59	12168
2026-01-24 16:00:48.45	223.09	6.22	-44.3	-54.5	3.8	8.46e-01	0	57	104	0	59	11444
2026-01-24 16:00:51.48	223.42	6.38	-44.2	-53.7	3.8	8.45e-01	0	57	104	0	59	10495
2026-01-24 16:00:54.51	223.76	6.55	-44.0	-52.4	4.1	8.43e-01	0	57	0	0	59	9049
2026-01-24 16:00:57.55	224.10	6.72	-43.7	-50.5	4.7	8.07e-01	0	57	0	0	58	7661
2026-01-24 16:01:00.58	224.44	6.89	-43.0	-48.3	6.1	3.71e-01	0	57	0	4194304	57	6313
2026-01-24 16:01:03.61	224.78	7.05	-42.6	-47.1	7.1	1.39e-01	0	58	0	26214400	56	5829
2026-01-24 16:01:06.64	225.13	7.22	-42.7	-47.4	6.8	1.68e-01	0	58	0	48234496	56	6035
2026-01-24 16:01:09.67	225.49	7.39	-42.7	-47.3	6.9	1.87e-01	0	58	0	70254592	56	5975
2026-01-24 16:01:12.71	225.84	7.56	-41.6	-45.2	8.9	3.53e-02	0	58	0	92274688	54	5243
2026-01-24 16:01:15.74	226.20	7.73	-40.3	-42.9	11.3	1.34e-03	0	58	0	114294784	51	4813
2026-01-24 16:01:18.77	226.57	7.90	-39.4	-41.5	12.7	7.09e-05	0	58	0	136314880	49	4596
2026-01-24 16:01:21.81	226.94	8.06	-44.4	-52.3	4.2	8.40e-01	0	58	0	155189248	58	9433
2026-01-24 16:01:24.83	227.31	8.23	-40.3	-42.7	11.6	3.13e-04	0	58	0	164626432	51	4693
2026-01-24 16:01:27.86	227.69	8.40	-38.8	-40.7	13.8	8.00e-06	0	58	0	186646528	48	4402
2026-01-24 16:01:30.89	228.07	8.57	-38.6	-40.4	14.0	0.00e+00	0	58	0	207618048	48	4267
2026-01-24 16:01:33.92	228.46	8.74	-38.4	-40.2	14.0	3.40e-06	0	59	0	229638144	47	4437
2026-01-24 16:01:36.95	228.85	8.91	-38.4	-40.2	14.0	0.00e+00	0	59	0	251658240	47	4434
2026-01-24 16:01:39.98	229.24	9.08	-38.4	-40.2	14.0	0.00e+00	0	59	0	273678336	47	4427
2026-01-24 16:01:43.01	229.64	9.24	-38.3	-40.2	14.2	0.00e+00	0	59	0	295698432	47	4392
2026-01-24 16:01:46.04	230.05	9.41	-38.2	-40.0	14.3	2.20e-06	0	59	0	317718528	47	4325
2026-01-24 16:01:49.07	230.46	9.58	-38.3	-40.0	14.3	0.00e+00	0	59	0	339738624	47	4318
2026-01-24 16:01:52.10	230.87	9.75	-38.4	-40.2	14.1	1.10e-06	0	59	0	360710144	47	4421
2026-01-24 16:01:55.13	231.29	9.92	-38.5	-40.3	14.0	2.20e-06	0	59	0	382730240	47	4482
2026-01-24 16:01:58.16	231.71	10.09	-38.4	-40.2	14.1	3.40e-06	0	59	0	404750336	47	4437
2026-01-24 16:02:01.19	232.14	10.25	-38.2	-40.0	14.4	1.10e-06	0	59	0	426770432	47	4316
2026-01-24 16:02:04.22	232.57	10.42	-38.0	-39.6	14.8	0.00e+00	0	59	0	448790528	46	4384
2026-01-24 16:02:07.25	233.01	10.59	-38.0	-39.7	14.7	0.00e+00	0	59	0	470810624	46	4424
2026-01-24 16:02:10.28	233.45	10.76	-38.1	-39.8	14.7	0.00e+00	0	59	0	492830720	46	4442
2026-01-24 16:02:13.31	233.89	10.92	-37.8	-39.4	15.0	0.00e+00	0	59	0	514850816	46	4257
2026-01-24 16:02:16.34	234.35	11.09	-37.6	-39.2	15.3	0.00e+00	0	59	0	535822336	46	4169
2026-01-24 16:02:19.37	234.80	11.25	-37.7	-39.3	15.2	0.00e+00	0	60	0	557842432	46	4196
2026-01-24 16:02:22.40	235.26	11.42	-37.7	-39.2	15.2	0.00e+00	0	59	0	579862528	46	4192
2026-01-24 16:02:25.43	235.73	11.58	-37.7	-39.3	15.2	0.00e+00	0	59	0	601882624	46	4207
2026-01-24 16:02:28.45	236.20	11.75	-37.8	-39.4	15.1	0.00e+00	0	60	0	623902720	46	4267
2026-01-24 16:02:31.48	236.68	11.91	-37.7	-39.3	15.2	0.00e+00	0	60	0	644874240	46	4202
2026-01-24 16:02:34.51	237.16	12.07	-37.6	-39.2	15.3	0.00e+00	0	60	0	666894336	46	4166
2026-01-24 16:02:37.54	237.65	12.23	-37.5	-39.1	15.5	0.00e+00	0	60	0	688914432	46	4099
2026-01-24 16:02:40.57	238.14	12.40	-37.4	-38.9	15.6	0.00e+00	0	60	0	710934528	45	4287
2026-01-24 16:02:43.60	238.64	12.56	-37.5	-39.0	15.5	0.00e+00	0	60	0	732954624	45	4322
2026-01-24 16:02:46.63	239.14	12.71	-37.5	-39.1	15.4	0.00e+00	0	60	0	754974720	45	4368
2026-01-24 16:02:49.66	239.65	12.87	-37.4	-38.9	15.6	0.00e+00	0	60	0	776994816	45	4290
2026-01-24 16:02:52.69	240.16	13.03	-37.3	-38.8	15.8	0.00e+00	0	60	0	797966336	45	4217
2026-01-24 16:02:55.72	240.68	13.19	-37.3	-38.8	15.8	0.00e+00	0	60	0	819986432	45	4221
2026-01-24 16:02:58.75	241.20	13.34	-37.3	-38.8	15.8	0.00e+00	0	60	0	842006528	45	4196
2026-01-24 16:03:01.78	241.73	13.49	-37.4	-38.9	15.6	0.00e+00	0	60	0	864026624	45	4268
2026-01-24 16:03:04.81	242.27	13.65	-37.3	-38.8	15.7	0.00e+00	0	60	0	886046720	45	4233
2026-01-24 16:03:07.83	242.80	13.80	-37.3	-38.7	15.8	0.00e+00	0	60	0	908066816	45	4189
2026-01-24 16:03:10.86	243.35	13.95	-37.1	-38.6	16.0	0.00e+00	0	60	0	930086912	45	4133
2026-01-24 16:03:13.89	243.90	14.09	-37.2	-38.7	15.8	0.00e+00	0	60	0	951058432	45	4192
2026-01-24 16:03:16.93	244.46	14.24	-37.1	-38.6	16.0	0.00e+00	0	60	0	973078528	45	4103
2026-01-24 16:03:19.96	245.02	14.39	-36.9	-38.4	16.2	0.00e+00	0	60	0	995098624	44	4254
2026-01-24 16:03:22.99	245.59	14.53	-37.0	-38.5	16.1	0.00e+00	0	60	0	1017118720	44	4303
2026-01-24 16:03:26.02	246.16	14.67	-37.0	-38.5	16.1	0.00e+00	0	61	0	1039138816	44	4310
2026-01-24 16:03:29.05	246.74	14.81	-36.9	-38.3	16.3	0.00e+00	0	60	0	1061158912	44	4240
2026-01-24 16:03:32.08	247.32	14.95	-37.0	-38.5	16.1	0.00e+00	0	61	0	1083179008	44	4316
2026-01-24 16:03:35.11	247.91	15.08	-36.9	-38.4	16.2	0.00e+00	0	61	0	1105199104	44	4258
2026-01-24 16:03:38.13	248.50	15.22	-36.8	-38.3	16.4	0.00e+00	0	61	0	1126170624	44	4195
2026-01-24 16:03:41.16	249.09	15.35	-36.8	-38.2	16.5	0.00e+00	0	60	0	1148190720	44	4150
2026-01-24 16:03:44.19	249.70	15.48	-36.9	-38.3	16.3	0.00e+00	0	61	0	1170210816	44	4224
2026-01-24 16:03:47.22	250.30	15.60	-36.8	-38.2	16.4	0.00e+00	0	61	0	1192230912	44	4166
2026-01-24 16:03:50.24	250.92	15.73	-36.8	-38.2	16.5	0.00e+00	0	60	0	1214251008	44	4156
2026-01-24 16:03:53.27	251.53	15.85	-37.0	-38.4	16.2	0.00e+00	0	61	0	1236271104	44	4271
2026-01-24 16:03:56.30	252.16	15.97	-37.0	-38.5	16.2	0.00e+00	0	61	0	1257242624	44	4299
2026-01-24 16:03:59.33	252.78	16.08	-37.0	-38.4	16.2	0.00e+00	0	61	0	1279262720	44	4274
2026-01-24 16:04:02.36	253.42	16.20	-36.9	-38.3	16.3	0.00e+00	0	61	0	1301282816	44	4220
2026-01-24 16:04:05.39	254.05	16.31	-36.9	-38.3	16.4	0.00e+00	0	61	0	1323302912	44	4195
2026-01-24 16:04:08.41	254.69	16.42	-36.8	-38.2	16.5	0.00e+00	0	61	0	1345323008	44	4155
2026-01-24 16:04:11.44	255.34	16.52	-36.6	-38.0	16.7	0.00e+00	0	61	0	1367343104	44	4064
2026-01-24 16:04:14.47	255.99	16.62	-36.6	-38.0	16.6	0.00e+00	0	61	0	1389363200	44	4072
2026-01-24 16:04:17.50	256.64	16.72	-36.6	-37.9	16.7	0.00e+00	0	61	0	1410334720	44	4041
2026-01-24 16:04:20.53	257.30	16.82	-36.6	-37.9	16.7	0.00e+00	0	61	0	1432354816	44	4027
2026-01-24 16:04:23.56	257.96	16.91	-36.3	-37.7	16.8	0.00e+00	0	61	0	1454374912	43	4164
2026-01-24 16:04:26.59	258.63	17.00	-36.4	-37.7	16.8	0.00e+00	0	61	0	1476395008	43	4172
2026-01-24 16:04:29.62	259.30	17.09	-36.4	-37.8	16.7	0.00e+00	0	61	0	1498415104	43	4194
2026-01-24 16:04:32.65	259.97	17.17	-36.3	-37.7	16.8	0.00e+00	0	61	0	1520435200	43	4154
2026-01-24 16:04:35.68	260.65	17.25	-36.2	-37.5	16.9	0.00e+00	0	61	0	1542455296	43	4089
2026-01-24 16:04:38.71	261.33	17.32	-36.5	-37.8	16.7	0.00e+00	0	61	0	1564475392	43	4220
2026-01-24 16:04:41.74	262.01	17.39	-36.7	-38.2	16.3	0.00e+00	0	61	0	1585446912	43	4410
2026-01-24 16:04:44.76	262.70	17.46	-36.5	-37.9	16.5	0.00e+00	0	61	0	1607467008	43	4271
2026-01-24 16:04:47.79	263.39	17.52	-36.5	-37.9	16.6	0.00e+00	0	61	0	1629487104	43	4243
2026-01-24 16:04:50.82	264.08	17.58	-36.7	-38.1	16.4	0.00e+00	0	61	0	1651507200	43	4371
2026-01-24 16:04:53.85	264.77	17.64	-36.5	-37.8	16.6	0.00e+00	0	61	0	1672478720	43	4241
2026-01-24 16:04:56.88	265.47	17.69	-36.2	-37.5	16.9	0.00e+00	0	61	0	1694498816	43	4068
2026-01-24 16:04:59.91	266.17	17.74	-36.1	-37.4	17.1	0.00e+00	0	61	0	1716518912	43	4027
2026-01-24 16:05:02.94	266.87	17.79	-36.2	-37.6	16.9	0.00e+00	0	61	0	1738539008	43	4103
2026-01-24 16:05:05.97	267.57	17.83	-36.3	-37.6	16.8	0.00e+00	0	61	0	1760559104	43	4126
2026-01-24 16:05:09.00	268.28	17.86	-36.3	-37.7	16.8	0.00e+00	0	61	0	1782579200	43	4147
2026-01-24 16:05:12.03	268.99	17.89	-36.3	-37.6	16.8	0.00e+00	0	61	0	1804599296	43	4126
2026-01-24 16:05:15.05	269.69	17.92	-36.3	-37.6	16.8	0.00e+00	0	61	0	1826619392	43	4128
2026-01-24 16:05:18.08	270.40	17.94	-36.2	-37.5	17.0	0.00e+00	0	61	0	1847590912	43	4073
2026-01-24 16:05:21.11	271.11	17.96	-36.1	-37.4	17.0	0.00e+00	0	61	0	1869611008	43	4033
2026-01-24 16:05:24.14	271.82	17.98	-36.1	-37.4	17.0	0.00e+00	0	61	0	1891631104	43	4044
2026-01-24 16:05:27.17	272.53	17.99	-36.2	-37.5	16.9	0.00e+00	0	61	0	1913651200	43	4097
2026-01-24 16:05:30.20	273.24	18.00	-36.2	-37.6	16.9	0.00e+00	0	61	0	1935671296	43	4113
2026-01-24 16:05:33.22	273.95	18.00	-36.4	-37.7	16.7	0.00e+00	0	61	0	1957691392	43	4183
2026-01-24 16:05:36.25	274.66	18.00	-36.1	-37.4	17.0	0.00e+00	0	61	0	1978662912	43	4027
2026-01-24 16:05:39.28	275.38	17.99	-36.1	-37.4	17.0	0.00e+00	0	61	0	2000683008	43	4049
2026-01-24 16:05:42.31	276.09	17.98	-36.0	-37.3	17.1	0.00e+00	0	61	0	2022703104	42	4213
2026-01-24 16:05:45.34	276.80	17.96	-36.1	-37.4	17.0	0.00e+00	0	61	0	2044723200	42	4256
2026-01-24 16:05:48.37	277.51	17.95	-36.3	-37.7	16.7	0.00e+00	0	61	0	2066743296	42	4416
2026-01-24 16:05:51.40	278.21	17.92	-36.5	-37.9	16.5	0.00e+00	0	61	0	2088763392	42	4525
2026-01-24 16:05:54.43	278.92	17.89	-36.3	-37.7	16.7	0.00e+00	0	61	0	2110783488	42	4426
2026-01-24 16:05:57.45	279.63	17.86	-36.2	-37.5	16.9	0.00e+00	0	61	0	2132803584	42	4309
2026-01-24 16:06:00.48	280.33	17.83	-36.3	-37.7	16.7	0.00e+00	0	61	0	2153775104	42	4408
2026-01-24 16:06:03.51	281.03	17.79	-36.3	-37.6	16.8	0.00e+00	0	61	0	2175795200	42	4382
2026-01-24 16:06:06.54	281.73	17.74	-36.5	-37.8	16.6	0.00e+00	0	61	0	2197815296	42	4488
2026-01-24 16:06:09.57	282.43	17.70	-36.6	-37.9	16.5	0.00e+00	0	62	0	2219835392	42	4545
2026-01-24 16:06:12.60	283.13	17.64	-36.4	-37.7	16.7	0.00e+00	0	61	0	2241855488	42	4432
2026-01-24 16:06:15.63	283.82	17.59	-36.5	-37.9	16.5	0.00e+00	0	61	0	2263875584	42	4526
2026-01-24 16:06:18.66	284.51	17.53	-36.5	-37.8	16.6	0.00e+00	0	62	0	2285895680	42	4478
2026-01-24 16:06:21.69	285.20	17.46	-36.5	-37.9	16.5	0.00e+00	0	61	0	2306867200	42	4524
2026-01-24 16:06:24.72	285.88	17.40	-36.6	-38.0	16.4	0.00e+00	0	61	0	2328887296	42	4556
2026-01-24 16:06:27.75	286.57	17.33	-36.3	-37.7	16.7	0.00e+00	0	62	0	2350907392	42	4396
2026-01-24 16:06:30.78	287.25	17.25	-36.5	-37.9	16.5	0.00e+00	0	62	0	2372927488	42	4524
2026-01-24 16:06:33.81	287.92	17.17	-36.5	-37.9	16.5	0.00e+00	0	62	0	2394947584	42	4523
2026-01-24 16:06:36.84	288.59	17.09	-36.3	-37.7	16.7	0.00e+00	0	61	0	2416967680	42	4419
2026-01-24 16:06:39.86	289.26	17.01	-36.4	-37.8	16.5	0.00e+00	0	62	0	2438987776	42	4457
2026-01-24 16:06:42.89	289.92	16.92	-36.4	-37.8	16.5	0.00e+00	0	62	0	2459959296	42	4479
2026-01-24 16:06:45.92	290.58	16.83	-36.5	-37.8	16.5	0.00e+00	0	61	0	2481979392	42	4483
2026-01-24 16:06:48.95	291.24	16.73	-36.5	-37.9	16.4	0.00e+00	0	62	0	2503999488	42	4529
2026-01-24 16:06:51.98	291.89	16.63	-36.7	-38.1	16.2	0.00e+00	0	62	0	2526019584	42	4625
2026-01-24 16:06:55.00	292.54	16.53	-36.7	-38.1	16.2	0.00e+00	0	62	0	2548039680	43	4373
2026-01-24 16:06:58.03	293.18	16.43	-36.7	-38.1	16.2	0.00e+00	0	62	0	2569011200	43	4367
2026-01-24 16:07:01.06	293.82	16.32	-36.6	-38.0	16.3	0.00e+00	0	62	0	2591031296	43	4316
2026-01-24 16:07:04.09	294.46	16.21	-36.5	-38.0	16.3	0.00e+00	0	61	0	2613051392	43	4295
2026-01-24 16:07:07.12	295.09	16.10	-36.6	-38.0	16.3	0.00e+00	0	62	0	2635071488	43	4338
2026-01-24 16:07:10.15	295.71	15.98	-36.6	-38.0	16.2	0.00e+00	0	62	0	2657091584	43	4338
2026-01-24 16:07:13.17	296.33	15.86	-36.5	-37.9	16.4	0.00e+00	0	62	0	2679111680	43	4259
2026-01-24 16:07:16.21	296.95	15.74	-36.6	-38.0	16.2	0.00e+00	0	62	0	2701131776	43	4327
2026-01-24 16:07:19.24	297.56	15.62	-36.8	-38.3	16.0	0.00e+00	0	62	0	2722103296	43	4443
2026-01-24 16:07:22.26	298.16	15.49	-36.9	-38.4	15.9	0.00e+00	0	62	0	2744123392	43	4530
2026-01-24 16:07:25.30	298.77	15.37	-37.0	-38.5	15.8	0.00e+00	0	62	0	2766143488	43	4547
2026-01-24 16:07:28.33	299.36	15.24	-37.0	-38.6	15.7	0.00e+00	0	62	0	2788163584	43	4610
2026-01-24 16:07:31.36	299.95	15.10	-36.9	-38.4	15.9	0.00e+00	0	62	0	2810183680	43	4520
2026-01-24 16:07:34.39	300.54	14.97	-36.9	-38.3	16.0	0.00e+00	0	62	0	2832203776	43	4489
2026-01-24 16:07:37.41	301.12	14.83	-36.9	-38.4	15.9	0.00e+00	0	62	0	2854223872	43	4500
2026-01-24 16:07:40.44	301.69	14.70	-37.0	-38.6	15.7	0.00e+00	0	62	0	2875195392	43	4606
2026-01-24 16:07:43.47	302.26	14.56	-36.9	-38.4	15.8	0.00e+00	0	62	0	2897215488	43	4533
2026-01-24 16:07:46.50	302.83	14.41	-37.0	-38.5	15.8	0.00e+00	0	62	0	2919235584	43	4562
2026-01-24 16:07:49.52	303.38	14.27	-37.1	-38.6	15.6	0.00e+00	0	62	0	2941255680	43	4622
2026-01-24 16:07:52.55	303.94	14.13	-37.1	-38.7	15.6	0.00e+00	0	61	0	2963275776	43	4666
2026-01-24 16:07:55.58	304.49	13.98	-37.2	-38.7	15.6	0.00e+00	0	61	0	2985295872	43	4681
2026-01-24 16:07:58.61	305.03	13.83	-37.1	-38.7	15.6	0.00e+00	0	62	0	3007315968	43	4663
2026-01-24 16:08:01.64	305.57	13.68	-37.3	-38.8	15.6	0.00e+00	0	62	0	3028287488	44	4467
2026-01-24 16:08:04.67	306.10	13.53	-37.3	-38.9	15.5	0.00e+00	0	62	0	3050307584	44	4497
2026-01-24 16:08:07.70	306.63	13.38	-37.5	-39.0	15.3	0.00e+00	0	62	0	3072327680	44	4598
2026-01-24 16:08:10.73	307.15	13.23	-37.7	-39.3	15.0	0.00e+00	0	62	0	3094347776	44	4752
2026-01-24 16:08:13.76	307.67	13.07	-37.5	-39.2	15.2	0.00e+00	0	62	0	3116367872	45	4392
2026-01-24 16:08:16.79	308.18	12.92	-37.6	-39.3	15.0	0.00e+00	0	62	0	3138387968	45	4448
2026-01-24 16:08:19.82	308.69	12.76	-37.7	-39.4	14.9	0.00e+00	0	62	0	3160408064	45	4502
2026-01-24 16:08:22.85	309.19	12.60	-37.8	-39.4	14.9	0.00e+00	0	62	0	3181379584	45	4523
2026-01-24 16:08:25.88	309.68	12.44	-37.8	-39.4	14.9	0.00e+00	0	62	0	3203399680	45	4536
2026-01-24 16:08:28.91	310.17	12.28	-37.7	-39.3	15.0	0.00e+00	0	62	0	3225419776	45	4466
2026-01-24 16:08:31.94	310.66	12.12	-37.7	-39.3	15.0	0.00e+00	0	62	0	3247439872	45	4456
2026-01-24 16:08:34.97	311.14	11.96	-37.6	-39.2	15.0	0.00e+00	0	62	0	3269459968	45	4431
2026-01-24 16:08:38.00	311.62	11.80	-37.8	-39.4	14.8	0.00e+00	0	62	0	3291480064	45	4543
2026-01-24 16:08:41.03	312.09	11.64	-38.0	-39.8	14.5	0.00e+00	0	62	0	3313500160	45	4706
2026-01-24 16:08:44.06	312.55	11.48	-38.0	-39.8	14.5	2.20e-06	0	62	0	3335520256	45	4715
2026-01-24 16:08:47.09	313.01	11.31	-38.0	-39.7	14.5	0.00e+00	0	62	0	3356491776	45	4689
2026-01-24 16:08:50.12	313.47	11.15	-37.9	-39.7	14.6	1.10e-06	0	62	0	3378511872	45	4661
2026-01-24 16:08:53.15	313.92	10.98	-37.7	-39.4	14.8	1.10e-06	0	62	0	3400531968	45	4525
2026-01-24 16:08:56.18	314.36	10.82	-37.6	-39.2	15.0	0.00e+00	0	62	0	3422552064	45	4430
2026-01-24 16:08:59.21	314.80	10.65	-37.8	-39.5	14.7	0.00e+00	0	62	0	3444572160	45	4562
2026-01-24 16:09:02.24	315.24	10.49	-38.0	-39.8	14.4	0.00e+00	0	62	0	3465543680	45	4714
2026-01-24 16:09:05.27	315.67	10.32	-38.2	-40.0	14.1	2.20e-06	0	62	0	3487563776	45	4855
2026-01-24 16:09:08.30	316.10	10.16	-38.4	-40.4	13.8	2.20e-06	0	62	0	3509583872	46	4761
2026-01-24 16:09:11.33	316.52	9.99	-38.5	-40.5	13.7	8.00e-06	0	62	0	3531603968	46	4816
2026-01-24 16:09:14.36	316.94	9.82	-38.4	-40.2	13.9	1.10e-06	0	62	0	3553624064	46	4703
2026-01-24 16:09:17.39	317.35	9.66	-38.2	-40.0	14.1	1.10e-06	0	62	0	3575644160	46	4571
2026-01-24 16:09:20.42	317.76	9.49	-38.1	-39.9	14.3	0.00e+00	0	62	0	3597664256	46	4497
2026-01-24 16:09:23.44	318.16	9.32	-37.9	-39.7	14.4	1.10e-06	0	62	0	3618635776	46	4416
2026-01-24 16:09:26.47	318.56	9.16	-38.0	-39.8	14.3	0.00e+00	0	62	0	3640655872	46	4478
2026-01-24 16:09:29.50	318.95	8.99	-38.3	-40.2	13.9	2.20e-06	0	62	0	3662675968	46	4679
2026-01-24 16:09:32.53	319.34	8.82	-38.4	-40.3	13.7	4.50e-06	0	62	0	3684696064	46	4737
2026-01-24 16:09:35.56	319.73	8.66	-38.6	-40.6	13.4	4.50e-06	0	62	0	3706716160	46	4886
2026-01-24 16:09:38.59	320.11	8.49	-38.8	-40.9	13.1	2.17e-05	0	62	0	3728736256	47	4769
2026-01-24 16:09:41.62	320.49	8.32	-38.7	-40.8	13.2	1.48e-05	0	62	0	3750756352	47	4725
2026-01-24 16:09:44.65	320.86	8.16	-38.7	-40.7	13.3	1.83e-05	0	62	0	3772776448	47	4654
2026-01-24 16:09:47.68	321.23	7.99	-43.7	-50.7	4.3	8.00e-06	0	62	0	3793747968	57	8343
2026-01-24 16:09:50.72	321.60	7.82	-45.2	-56.2	3.8	8.47e-01	0	62	104	3794796544	59	13998
2026-01-24 16:09:53.75	321.96	7.65	-45.5	-56.8	3.8	8.45e-01	0	62	104	3794796544	60	14204
2026-01-24 16:09:56.78	322.32	7.49	-45.5	-56.9	3.8	8.46e-01	0	62	104	3794796544	60	14350
2026-01-24 16:09:59.81	322.67	7.32	-45.4	-56.8	3.8	8.46e-01	0	62	104	3794796544	60	14106
2026-01-24 16:10:02.84	323.02	7.16	-45.4	-56.7	3.8	8.45e-01	0	62	104	3794796544	60	13995
2026-01-24 16:10:05.88	323.37	6.99	-45.3	-56.7	3.8	8.47e-01	0	62	104	3794796544	60	14007
2026-01-24 16:10:08.91	323.71	6.82	-45.4	-56.7	3.8	8.47e-01	0	62	104	3794796544	60	13998
2026-01-24 16:10:11.94	324.05	6.66	-45.0	-56.7	3.8	8.46e-01	0	62	104	3794796544	60	13988
2026-01-24 16:10:14.97	324.38	6.49	-45.3	-56.7	3.8	8.46e-01	0	62	104	3794796544	60	13936
2026-01-24 16:10:18.00	324.71	6.33	-45.3	-56.7	3.8	8.47e-01	0	62	104	3794796544	60	13941
2026-01-24 16:10:21.04	325.04	6.16	-45.3	-56.7	3.8	8.45e-01	0	62	104	3794796544	60	14025
2026-01-24 16:10:24.07	325.37	6.00	-45.3	-56.7	3.8	8.45e-01	0	62	104	3794796544	60	13982
2026-01-24 16:10:27.10	325.69	5.84	-45.3	-56.7	3.8	8.47e-01	0	62	104	3794796544	60	13973
2026-01-24 16:10:30.13	326.00	5.67	-45.3	-56.7	3.8	8.46e-01	0	62	104	3794796544	60	13890
2026-01-24 16:10:33.16	326.32	5.51	-45.3	-56.7	3.8	8.46e-01	0	62	104	3794796544	60	13925
2026-01-24 16:10:36.20	326.63	5.35	-45.3	-56.7	3.8	8.47e-01	0	62	104	3794796544	60	14003
2026-01-24 16:10:39.23	326.94	5.18	-45.3	-56.7	3.8	8.46e-01	0	62	104	3794796544	60	13896
2026-01-24 16:10:42.26	327.24	5.02	-45.3	-56.7	3.8	8.45e-01	0	62	104	3794796544	60	13903
2026-01-24 16:10:45.29	327.54	4.86	-45.3	-56.6	3.8	8.46e-01	0	62	104	3794796544	60	13883
2026-01-24 16:10:48.32	327.84	4.70	-45.3	-56.7	3.8	8.45e-01	0	62	104	3794796544	60	13894
2026-01-24 16:10:51.35	328.13	4.54	-45.3	-56.7	3.8	8.45e-01	0	62	104	3794796544	60	13906
2026-01-24 16:10:54.38	328.42	4.38	-45.3	-56.7	3.8	8.46e-01	0	62	104	3794796544	60	13916
2026-01-24 16:10:57.42	328.71	4.22	-45.3	-56.7	3.8	8.46e-01	0	62	104	3794796544	60	13921
2026-01-24 16:11:00.45	329.00	4.06	-45.3	-56.7	3.8	8.46e-01	0	62	104	3794796544	60	13919
2026-01-24 16:11:03.48	329.28	3.90	-45.3	-56.6	3.8	8.45e-01	0	62	104	3794796544	60	13826
2026-01-24 16:11:06.51	329.56	3.74	-45.3	-56.7	3.8	8.47e-01	0	62	104	3794796544	60	13899
2026-01-24 16:11:09.54	329.84	3.58	-45.3	-56.7	3.8	8.46e-01	0	62	104	3794796544	60	13911
2026-01-24 16:11:12.58	330.11	3.42	-45.3	-56.7	3.8	8.46e-01	0	62	104	3794796544	60	13913
2026-01-24 16:11:15.61	330.38	3.26	-45.2	-56.7	3.8	8.46e-01	0	62	104	3794796544	60	13935
2026-01-24 16:11:18.64	330.65	3.10	-45.3	-56.7	3.8	8.45e-01	0	62	104	3794796544	60	13908
2026-01-24 16:11:21.67	330.92	2.95	-45.3	-56.6	3.8	8.46e-01	0	62	104	3794796544	60	13858
2026-01-24 16:11:24.70	331.18	2.79	-45.3	-56.7	3.8	8.46e-01	0	62	104	3794796544	60	13891
2026-01-24 16:11:27.73	331.44	2.63	-45.3	-56.6	3.8	8.45e-01	0	62	104	3794796544	60	13856
2026-01-24 16:11:30.76	331.70	2.48	-45.3	-56.7	3.8	8.46e-01	0	62	104	3794796544	60	13894
2026-01-24 16:11:33.80	331.95	2.32	-45.3	-56.7	3.8	8.46e-01	0	62	104	3794796544	60	13916
2026-01-24 16:11:36.83	332.21	2.17	-45.3	-56.6	3.8	8.46e-01	0	62	104	3794796544	60	13883
2026-01-24 16:11:39.86	332.46	2.01	-45.3	-56.7	3.8	8.46e-01	0	62	104	3794796544	60	13893

#Closed at: 2026-01-24 16:11:40
#Recorded file [3794 MB]: D:/lorett/data/31039_260124_185929.dat