passes_logs/2026/01/24/R2.0S_Moscow/R2.0S_Moscow__20260124_231721_NOAA_21_JPSS-2_rec.log

#Pass ID: 20260124_231721_NOAA 21 (JPSS-2)
#Satellite: NOAA 21 (JPSS-2)
#Configuration: NOAA-21
#almurnet v.1.7.20251203
#Start time: 2026-01-24 23:17:20

#Version: 2.2.20231116
#Station: R2.0S_Moscow
#Location: 37.707566 lon 55.798166 lat
#TLE: 1 54234U 22150A   26024.45772595  .00000201  00000+0  11607-3 0  9996
#TLE: 2 54234  98.7508 325.2435 0000728 220.7365 139.3757 14.19538765166156

#Time	Az	El	Level	Level2	SNR	BER	BlckErr	Temp	State	Recorded	gain1	gain2
2026-01-24 23:17:20.65	17.93	1.96	-41.7	-54.0	3.8	1.49e+00	0	52	0	0	55	14506
2026-01-24 23:17:24.68	18.01	2.22	-41.7	-54.0	3.8	1.49e+00	0	52	104	0	55	14500
2026-01-24 23:17:28.72	18.10	2.48	-41.7	-54.0	3.8	1.49e+00	0	53	104	0	55	14470
2026-01-24 23:17:32.76	18.19	2.74	-41.7	-54.0	3.8	1.49e+00	0	53	104	0	55	14451
2026-01-24 23:17:36.80	18.27	3.00	-41.7	-54.0	3.8	1.49e+00	0	53	104	0	55	14455
2026-01-24 23:17:40.85	18.36	3.26	-41.7	-54.1	3.8	1.49e+00	0	53	104	0	55	14548
2026-01-24 23:17:44.89	18.45	3.53	-41.7	-54.0	3.8	1.49e+00	0	54	104	0	55	14510
2026-01-24 23:17:48.93	18.54	3.80	-41.7	-54.0	3.8	1.49e+00	0	54	104	0	55	14484
2026-01-24 23:17:52.97	18.64	4.07	-41.7	-54.0	3.8	1.49e+00	0	55	104	0	55	14463
2026-01-24 23:17:57.01	18.73	4.35	-41.7	-54.0	3.8	1.49e+00	0	54	104	0	55	14469
2026-01-24 23:18:01.06	18.83	4.63	-41.6	-54.0	3.8	1.49e+00	0	55	104	0	55	14393
2026-01-24 23:18:05.10	18.93	4.91	-41.6	-54.0	3.8	1.49e+00	0	55	104	0	55	14490
2026-01-24 23:18:09.14	19.03	5.19	-41.6	-54.0	3.8	1.49e+00	0	55	104	0	55	14460
2026-01-24 23:18:13.18	19.13	5.48	-41.6	-54.0	3.8	1.49e+00	0	56	104	0	55	14464
2026-01-24 23:18:17.22	19.23	5.77	-41.7	-54.0	3.8	1.49e+00	0	56	104	0	55	14438
2026-01-24 23:18:21.27	19.33	6.06	-41.6	-54.0	3.8	1.49e+00	0	56	104	0	55	14462
2026-01-24 23:18:25.31	19.44	6.36	-41.6	-54.0	3.8	1.49e+00	0	56	104	0	55	14417
2026-01-24 23:18:29.35	19.55	6.66	-41.6	-54.0	3.8	1.49e+00	0	56	104	0	55	14426
2026-01-24 23:18:33.39	19.65	6.96	-41.6	-53.9	3.8	1.49e+00	0	57	104	0	55	14335
2026-01-24 23:18:37.43	19.77	7.27	-41.6	-53.9	3.8	1.49e+00	0	57	104	0	55	14218
2026-01-24 23:18:41.47	19.88	7.58	-41.6	-53.7	3.8	1.49e+00	0	57	104	0	55	13935
2026-01-24 23:18:45.51	20.00	7.89	-41.5	-53.1	3.8	1.49e+00	0	57	104	0	55	13062
2026-01-24 23:18:49.55	20.11	8.21	-41.5	-50.4	3.9	1.49e+00	0	57	104	0	55	9572
2026-01-24 23:18:53.59	20.23	8.53	-40.4	-44.4	9.4	2.10e-02	0	57	0	4194304	52	5716
2026-01-24 23:18:57.63	20.35	8.86	-40.4	-44.2	9.7	9.73e-03	0	57	0	16777216	52	5569
2026-01-24 23:19:01.68	20.48	9.19	-40.4	-44.2	9.9	9.77e-03	0	57	0	29360128	52	5545
2026-01-24 23:19:05.72	20.61	9.52	-40.2	-43.6	10.5	4.05e-03	0	57	0	41943040	52	5179
2026-01-24 23:19:09.75	20.73	9.86	-40.0	-43.2	11.2	1.23e-03	0	58	0	54525952	52	4954
2026-01-24 23:19:13.79	20.87	10.21	-40.1	-43.2	11.5	9.37e-04	0	58	0	67108864	51	5246
2026-01-24 23:19:17.83	21.00	10.55	-40.2	-43.2	11.6	7.65e-04	0	58	0	79691776	51	5227
2026-01-24 23:19:21.88	21.14	10.91	-40.2	-43.1	11.8	4.61e-04	0	58	0	92274688	51	5217
2026-01-24 23:19:25.92	21.28	11.27	-40.2	-43.1	12.0	3.28e-04	0	58	0	104857600	51	5168
2026-01-24 23:19:29.95	21.42	11.63	-40.1	-42.9	12.2	2.84e-04	0	58	0	117440512	51	5077
2026-01-24 23:19:34.00	21.57	12.00	-40.0	-42.7	12.5	1.29e-04	0	58	0	130023424	51	4943
2026-01-24 23:19:38.03	21.72	12.37	-40.0	-42.6	12.7	9.68e-05	0	58	0	142606336	51	4902
2026-01-24 23:19:42.07	21.87	12.76	-39.9	-42.5	12.8	6.63e-05	0	59	0	155189248	51	4868
2026-01-24 23:19:46.11	22.03	13.14	-39.9	-42.5	12.8	7.47e-05	0	59	0	167772160	51	4866
2026-01-24 23:19:50.15	22.19	13.53	-39.8	-42.3	13.0	3.89e-05	0	59	0	181403648	51	4756
2026-01-24 23:19:54.19	22.36	13.93	-39.9	-42.4	13.0	4.34e-05	0	59	0	192937984	51	4792
2026-01-24 23:19:58.23	22.53	14.34	-39.8	-42.3	13.1	2.59e-05	0	59	0	206569472	51	4725
2026-01-24 23:20:02.26	22.70	14.75	-39.8	-42.3	13.1	2.82e-05	0	59	0	219152384	51	4741
2026-01-24 23:20:06.30	22.88	15.17	-39.7	-42.1	13.3	1.52e-05	0	59	0	231735296	51	4644
2026-01-24 23:20:10.35	23.06	15.59	-39.7	-42.1	13.4	1.22e-05	0	59	0	244318208	51	4613
2026-01-24 23:20:14.39	23.25	16.03	-39.7	-42.0	13.5	1.44e-05	0	59	0	256901120	51	4591
2026-01-24 23:20:18.43	23.44	16.47	-39.8	-42.2	13.4	1.98e-05	0	59	0	269484032	51	4686
2026-01-24 23:20:22.47	23.63	16.92	-40.0	-42.4	13.2	1.83e-05	0	59	0	282066944	51	4797
2026-01-24 23:20:26.51	23.84	17.37	-40.0	-42.5	13.2	2.44e-05	0	59	0	294649856	51	4820
2026-01-24 23:20:30.55	24.05	17.84	-40.0	-42.5	13.2	2.67e-05	0	59	0	307232768	51	4838
2026-01-24 23:20:34.59	24.26	18.31	-40.1	-42.5	13.2	2.67e-05	0	59	0	319815680	51	4856
2026-01-24 23:20:38.62	24.48	18.79	-40.1	-42.6	13.1	3.05e-05	0	60	0	332398592	51	4892
2026-01-24 23:20:42.66	24.71	19.29	-40.0	-42.4	13.3	1.37e-05	0	60	0	344981504	51	4795
2026-01-24 23:20:46.70	24.94	19.79	-39.9	-42.2	13.5	1.44e-05	0	60	0	357564416	51	4700
2026-01-24 23:20:50.75	25.18	20.30	-39.6	-41.9	13.9	2.20e-06	0	60	0	370147328	51	4505
2026-01-24 23:20:54.78	25.43	20.82	-39.5	-41.6	14.2	3.00e-06	0	60	0	382730240	50	4641
2026-01-24 23:20:58.82	25.69	21.36	-39.1	-41.1	14.7	0.00e+00	0	60	0	395313152	50	4372
2026-01-24 23:21:02.86	25.96	21.90	-38.8	-40.7	15.1	0.00e+00	0	60	0	407896064	49	4437
2026-01-24 23:21:06.89	26.23	22.45	-38.8	-40.7	15.2	0.00e+00	0	60	0	420478976	49	4418
2026-01-24 23:21:10.93	26.51	23.02	-38.8	-40.7	15.2	0.00e+00	0	60	0	433061888	49	4394
2026-01-24 23:21:14.97	26.81	23.60	-38.9	-40.8	15.1	0.00e+00	0	60	0	445644800	49	4461
2026-01-24 23:21:19.01	27.11	24.19	-39.0	-41.0	14.9	0.00e+00	0	60	0	458227712	49	4560
2026-01-24 23:21:23.04	27.43	24.79	-39.1	-41.2	14.8	0.00e+00	0	60	0	470810624	49	4656
2026-01-24 23:21:27.09	27.76	25.41	-39.4	-41.5	14.5	0.00e+00	0	60	0	483393536	49	4821
2026-01-24 23:21:31.13	28.10	26.04	-39.6	-41.7	14.2	7.00e-07	0	60	0	495976448	49	4975
2026-01-24 23:21:35.17	28.45	26.69	-39.8	-42.0	13.9	3.00e-06	0	60	0	508559360	50	4853
2026-01-24 23:21:39.21	28.82	27.35	-40.0	-42.3	13.7	9.90e-06	0	60	0	522190848	50	5036
2026-01-24 23:21:43.25	29.20	28.02	-40.1	-42.5	13.5	8.30e-06	0	60	0	533725184	50	5117
2026-01-24 23:21:47.28	29.60	28.71	-40.0	-42.3	13.7	9.90e-06	0	60	0	547356672	51	4736
2026-01-24 23:21:51.32	30.02	29.42	-39.9	-42.2	13.9	3.80e-06	0	60	0	559939584	51	4660
2026-01-24 23:21:55.36	30.45	30.14	-39.8	-42.1	14.0	3.00e-06	0	60	0	572522496	51	4605
2026-01-24 23:21:59.40	30.90	30.88	-39.7	-41.8	14.2	0.00e+00	0	60	0	585105408	51	4485
2026-01-24 23:22:03.43	31.38	31.64	-39.7	-41.8	14.3	7.00e-07	0	60	0	597688320	51	4461
2026-01-24 23:22:07.47	31.87	32.42	-39.7	-41.8	14.3	1.50e-06	0	60	0	610271232	51	4451
2026-01-24 23:22:11.51	32.39	33.21	-39.8	-42.0	14.1	7.00e-07	0	60	0	622854144	51	4549
2026-01-24 23:22:15.55	32.94	34.02	-40.1	-42.5	13.7	6.10e-06	0	61	0	635437056	51	4815
2026-01-24 23:22:19.58	33.51	34.85	-40.7	-43.2	12.9	4.34e-05	0	61	0	648019968	51	5260
2026-01-24 23:22:23.62	34.11	35.71	-41.2	-44.1	11.9	3.33e-04	0	60	0	660602880	52	5472
2026-01-24 23:22:27.66	34.75	36.58	-41.3	-44.3	11.7	4.86e-04	0	60	0	673185792	53	5302
2026-01-24 23:22:31.70	35.41	37.47	-41.3	-44.4	11.7	5.86e-04	0	60	0	685768704	53	5348
2026-01-24 23:22:35.74	36.12	38.38	-41.3	-44.3	11.7	5.03e-04	0	61	0	698351616	53	5299
2026-01-24 23:22:39.78	36.87	39.31	-41.1	-43.9	12.1	3.07e-04	0	61	0	710934528	53	5090
2026-01-24 23:22:43.82	37.66	40.27	-40.9	-43.5	12.5	1.40e-04	0	60	0	723517440	53	4855
2026-01-24 23:22:47.85	38.49	41.24	-40.9	-43.6	12.4	1.36e-04	0	61	0	736100352	53	4924
2026-01-24 23:22:51.89	39.38	42.23	-40.8	-43.5	12.7	9.46e-05	0	61	0	748683264	53	4820
2026-01-24 23:22:55.94	40.32	43.24	-41.5	-44.6	11.4	7.90e-04	0	61	0	761266176	53	5503
2026-01-24 23:22:59.97	41.33	44.27	-42.1	-45.6	10.4	3.94e-03	0	61	0	773849088	54	5797
2026-01-24 23:23:04.01	42.40	45.32	-42.0	-45.6	10.4	4.51e-03	0	61	0	786432000	55	5474
2026-01-24 23:23:08.05	43.54	46.38	-42.1	-45.6	10.4	3.91e-03	0	61	0	799014912	55	5489
2026-01-24 23:23:12.09	44.77	47.46	-41.2	-44.1	11.9	4.47e-04	0	61	0	811597824	54	4905
2026-01-24 23:23:16.13	46.08	48.55	-41.0	-43.8	12.3	1.69e-04	0	61	0	824180736	53	4991
2026-01-24 23:23:20.17	47.49	49.66	-41.4	-44.3	11.8	4.94e-04	0	61	0	836763648	53	5332
2026-01-24 23:23:24.21	49.00	50.77	-41.0	-43.7	12.3	2.37e-04	0	61	0	849346560	53	4966
2026-01-24 23:23:28.25	50.62	51.88	-40.7	-43.3	12.9	4.34e-05	0	61	0	861929472	53	4706
2026-01-24 23:23:32.29	52.38	53.00	-40.5	-42.9	13.3	1.22e-05	0	61	0	874512384	52	4792
2026-01-24 23:23:36.33	54.27	54.11	-39.9	-42.1	14.2	2.20e-06	0	61	0	888143872	51	4616
2026-01-24 23:23:40.37	56.31	55.22	-39.5	-41.4	14.9	0.00e+00	0	61	0	900726784	50	4540
2026-01-24 23:23:44.41	58.52	56.31	-39.5	-41.5	14.8	0.00e+00	0	61	0	913309696	50	4564
2026-01-24 23:23:48.45	60.90	57.37	-39.8	-41.9	14.3	7.00e-07	0	61	0	925892608	50	4783
2026-01-24 23:23:52.49	63.47	58.41	-39.3	-41.2	15.1	0.00e+00	0	61	0	938475520	50	4399
2026-01-24 23:23:56.53	66.25	59.41	-39.2	-41.1	15.2	0.00e+00	0	61	0	951058432	50	4374
2026-01-24 23:24:00.57	69.24	60.35	-39.2	-41.2	15.1	0.00e+00	0	61	0	963641344	50	4404
2026-01-24 23:24:04.61	72.45	61.24	-38.5	-40.2	16.0	0.00e+00	0	61	0	976224256	49	4176
2026-01-24 23:24:08.65	75.89	62.05	-38.7	-40.5	15.7	0.00e+00	0	61	0	988807168	49	4314
2026-01-24 23:24:12.69	79.55	62.78	-38.9	-40.6	15.6	0.00e+00	0	61	0	1001390080	49	4389
2026-01-24 23:24:16.74	83.43	63.42	-38.6	-40.3	15.8	0.00e+00	0	61	0	1013972992	49	4234
2026-01-24 23:24:20.77	87.49	63.94	-38.8	-40.6	15.6	0.00e+00	0	61	0	1026555904	49	4356
2026-01-24 23:24:24.81	91.73	64.35	-38.3	-39.9	16.2	0.00e+00	0	61	0	1039138816	48	4285
2026-01-24 23:24:28.85	96.10	64.63	-38.9	-40.7	15.5	0.00e+00	0	61	0	1051721728	49	4412
2026-01-24 23:24:32.90	100.56	64.78	-39.0	-40.8	15.4	0.00e+00	0	61	0	1064304640	49	4469
2026-01-24 23:24:36.94	105.04	64.80	-38.6	-40.3	15.9	0.00e+00	0	61	0	1076887552	49	4203
2026-01-24 23:24:40.98	109.50	64.67	-39.1	-41.0	15.3	0.00e+00	0	61	0	1089470464	50	4302
2026-01-24 23:24:45.01	113.88	64.41	-39.0	-40.8	15.4	0.00e+00	0	61	0	1102053376	48	4746
2026-01-24 23:24:49.05	118.14	64.03	-38.8	-40.6	15.6	0.00e+00	0	61	0	1114636288	48	4615
2026-01-24 23:24:53.10	122.26	63.52	-39.0	-40.9	15.1	0.00e+00	0	61	0	1127219200	49	4522
2026-01-24 23:24:57.13	126.17	62.90	-39.1	-41.0	15.2	0.00e+00	0	61	0	1139802112	48	4863
2026-01-24 23:25:01.18	129.88	62.18	-38.8	-40.6	15.5	0.00e+00	0	61	0	1152385024	48	4625
2026-01-24 23:25:05.22	133.36	61.38	-39.8	-41.9	14.2	2.20e-06	0	61	0	1164967936	50	4787
2026-01-24 23:25:09.26	136.62	60.51	-39.9	-42.1	14.1	2.20e-06	0	61	0	1178599424	50	4891
2026-01-24 23:25:13.30	139.65	59.57	-38.4	-40.1	16.0	0.00e+00	0	61	0	1190133760	48	4358
2026-01-24 23:25:17.34	142.47	58.57	-40.3	-42.6	13.6	4.50e-06	0	61	0	1203765248	51	4897
2026-01-24 23:25:21.37	145.07	57.54	-38.8	-40.6	15.5	0.00e+00	0	61	0	1216348160	49	4357
2026-01-24 23:25:25.41	147.49	56.48	-40.6	-43.0	13.2	2.74e-05	0	61	0	1228931072	51	5151
2026-01-24 23:25:29.45	149.73	55.39	-39.4	-41.3	14.9	0.00e+00	0	61	0	1241513984	50	4463
2026-01-24 23:25:33.49	151.81	54.28	-40.8	-43.4	12.6	1.05e-04	0	61	0	1254096896	52	5086
2026-01-24 23:25:37.53	153.73	53.17	-39.9	-42.0	14.1	1.50e-06	0	61	0	1266679808	51	4556
2026-01-24 23:25:41.57	155.50	52.04	-40.9	-43.6	12.4	9.99e-05	0	61	0	1279262720	52	5163
2026-01-24 23:25:45.61	157.16	50.92	-40.9	-43.6	12.3	1.64e-04	0	61	0	1291845632	52	5179
2026-01-24 23:25:49.65	158.69	49.80	-41.5	-44.6	11.4	9.77e-04	0	61	0	1304428544	53	5489
2026-01-24 23:25:53.69	160.12	48.69	-41.3	-44.2	11.8	6.08e-04	0	61	0	1317011456	54	4952
2026-01-24 23:25:57.73	161.45	47.59	-41.9	-45.3	10.6	2.84e-03	0	61	0	1329594368	54	5632
2026-01-24 23:26:01.77	162.69	46.51	-41.3	-44.2	11.6	8.80e-04	0	61	0	1342177280	54	4966
2026-01-24 23:26:05.81	163.84	45.43	-41.5	-44.5	11.3	9.79e-04	0	61	0	1354760192	54	5149
2026-01-24 23:26:09.85	164.93	44.38	-41.7	-45.0	10.9	1.83e-03	0	61	0	1367343104	54	5453
2026-01-24 23:26:13.90	165.95	43.34	-41.7	-45.0	10.9	3.36e-03	0	61	0	1379926016	54	5414
2026-01-24 23:26:17.94	166.90	42.32	-41.3	-44.3	11.6	6.46e-04	0	61	0	1392508928	54	4998
2026-01-24 23:26:21.98	167.80	41.32	-40.9	-43.7	12.1	2.21e-04	0	61	0	1405091840	53	4930
2026-01-24 23:26:26.02	168.64	40.34	-41.0	-43.8	12.1	2.60e-04	0	61	0	1417674752	53	5008
2026-01-24 23:26:30.06	169.44	39.38	-41.5	-44.7	11.0	1.60e-03	0	61	0	1430257664	53	5572
2026-01-24 23:26:34.10	170.19	38.44	-41.0	-43.7	12.1	3.11e-04	0	61	0	1442840576	53	4975
2026-01-24 23:26:38.13	170.90	37.52	-41.0	-43.8	11.8	5.23e-04	0	61	0	1455423488	53	5011
2026-01-24 23:26:42.17	171.58	36.62	-40.2	-42.5	13.2	2.36e-05	0	61	0	1468006400	52	4595
2026-01-24 23:26:46.21	172.22	35.74	-40.0	-42.3	13.6	5.30e-06	0	61	0	1480589312	51	4723
2026-01-24 23:26:50.25	172.82	34.88	-40.2	-42.5	13.4	1.06e-05	0	61	0	1493172224	51	4826
2026-01-24 23:26:54.29	173.40	34.04	-40.8	-43.6	12.1	1.76e-04	0	61	0	1505755136	52	5206
2026-01-24 23:26:58.32	173.95	33.22	-40.7	-43.5	12.2	2.29e-04	0	61	0	1519386624	52	5105
2026-01-24 23:27:02.36	174.47	32.42	-40.4	-43.0	12.6	1.17e-04	0	62	0	1531969536	52	4832
2026-01-24 23:27:06.40	174.97	31.64	-40.0	-42.3	13.5	1.14e-05	0	61	0	1544552448	51	4706
2026-01-24 23:27:10.44	175.45	30.87	-39.3	-41.4	14.5	0.00e+00	0	61	0	1557135360	50	4503
2026-01-24 23:27:14.48	175.90	30.13	-39.6	-41.7	14.2	7.00e-07	0	61	0	1569718272	50	4656
2026-01-24 23:27:18.52	176.34	29.40	-40.0	-42.3	13.5	1.14e-05	0	61	0	1582301184	50	5041
2026-01-24 23:27:22.56	176.75	28.68	-40.1	-42.5	13.3	1.22e-05	0	61	0	1594884096	50	5116
2026-01-24 23:27:26.60	177.15	27.99	-40.1	-42.5	13.3	1.37e-05	0	62	0	1607467008	50	5119
2026-01-24 23:27:30.63	177.54	27.31	-39.8	-42.1	13.7	6.80e-06	0	61	0	1620049920	50	4871
2026-01-24 23:27:34.67	177.91	26.64	-39.5	-41.7	14.1	3.00e-06	0	61	0	1632632832	50	4671
2026-01-24 23:27:38.71	178.26	25.99	-38.9	-40.9	14.9	0.00e+00	0	61	0	1645215744	49	4503
2026-01-24 23:27:42.75	178.60	25.35	-38.9	-40.8	14.9	0.00e+00	0	62	0	1657798656	49	4454
2026-01-24 23:27:46.79	178.93	24.73	-39.1	-41.1	14.6	0.00e+00	0	61	0	1670381568	49	4605
2026-01-24 23:27:50.82	179.24	24.12	-39.0	-41.0	14.7	7.00e-07	0	61	0	1682964480	49	4571
2026-01-24 23:27:54.86	179.55	23.53	-39.2	-41.3	14.4	1.50e-06	0	62	0	1695547392	49	4740
2026-01-24 23:27:58.90	179.84	22.94	-39.4	-41.5	14.2	2.20e-06	0	61	0	1708130304	49	4837
2026-01-24 23:28:02.94	180.13	22.37	-39.5	-41.7	14.0	3.80e-06	0	61	0	1720713216	49	4946
2026-01-24 23:28:06.98	180.40	21.81	-39.4	-41.5	14.1	7.00e-07	0	61	0	1733296128	49	4860
2026-01-24 23:28:11.02	180.66	21.27	-39.3	-41.4	14.2	2.20e-06	0	62	0	1745879040	49	4795
2026-01-24 23:28:15.06	180.92	20.73	-39.3	-41.4	14.2	7.00e-07	0	62	0	1758461952	49	4801
2026-01-24 23:28:19.09	181.17	20.21	-39.4	-41.5	14.0	7.00e-07	0	61	0	1771044864	49	4868
2026-01-24 23:28:23.13	181.41	19.69	-39.4	-41.5	14.0	2.20e-06	0	61	0	1783627776	49	4868
2026-01-24 23:28:27.17	181.64	19.18	-39.4	-41.6	13.9	7.00e-07	0	61	0	1796210688	49	4882
2026-01-24 23:28:31.20	181.87	18.69	-39.3	-41.5	14.0	2.20e-06	0	61	0	1808793600	49	4817
2026-01-24 23:28:35.24	182.09	18.20	-39.3	-41.4	14.0	3.80e-06	0	61	0	1821376512	49	4810
2026-01-24 23:28:39.29	182.30	17.73	-39.4	-41.6	13.9	3.80e-06	0	61	0	1833959424	49	4925
2026-01-24 23:28:43.33	182.50	17.26	-39.5	-41.7	13.9	7.00e-07	0	61	0	1846542336	49	4942
2026-01-24 23:28:47.37	182.71	16.80	-39.5	-41.8	13.8	5.30e-06	0	61	0	1860173824	49	4995
2026-01-24 23:28:51.41	182.90	16.34	-39.6	-41.8	13.7	4.50e-06	0	61	0	1872756736	49	5029
2026-01-24 23:28:55.45	183.09	15.90	-39.6	-41.9	13.6	1.29e-05	0	61	0	1885339648	49	5094
2026-01-24 23:28:59.49	183.27	15.46	-39.7	-42.0	13.5	1.14e-05	0	61	0	1897922560	49	5153
2026-01-24 23:29:03.53	183.45	15.04	-39.8	-42.3	13.3	2.36e-05	0	61	0	1910505472	50	4993
2026-01-24 23:29:07.57	183.63	14.61	-40.0	-42.5	13.0	2.89e-05	0	62	0	1923088384	50	5134
2026-01-24 23:29:11.61	183.80	14.20	-40.1	-42.7	12.8	6.48e-05	0	61	0	1935671296	50	5250
2026-01-24 23:29:15.65	183.97	13.79	-40.3	-43.0	12.5	1.22e-04	0	61	0	1948254208	51	5125
2026-01-24 23:29:19.68	184.13	13.39	-40.3	-43.0	12.5	1.19e-04	0	61	0	1960837120	51	5121
2026-01-24 23:29:23.73	184.29	13.00	-40.3	-43.0	12.4	1.67e-04	0	61	0	1973420032	51	5147
2026-01-24 23:29:27.76	184.44	12.61	-40.3	-43.0	12.5	1.12e-04	0	61	0	1986002944	51	5104
2026-01-24 23:29:31.80	184.59	12.23	-40.2	-42.9	12.4	1.40e-04	0	62	0	1998585856	51	5092
2026-01-24 23:29:35.84	184.74	11.85	-40.3	-43.1	12.3	1.92e-04	0	62	0	2011168768	51	5182
2026-01-24 23:29:39.88	184.88	11.48	-40.5	-43.3	12.0	3.57e-04	0	62	0	2023751680	51	5292
2026-01-24 23:29:43.92	185.02	11.11	-40.4	-43.3	12.0	3.00e-04	0	61	0	2036334592	51	5285
2026-01-24 23:29:47.96	185.16	10.75	-40.5	-43.3	11.9	3.69e-04	0	62	0	2048917504	51	5328
2026-01-24 23:29:52.00	185.29	10.39	-40.5	-43.3	11.9	3.50e-04	0	61	0	2061500416	51	5325
2026-01-24 23:29:56.03	185.42	10.04	-40.4	-43.3	11.8	3.87e-04	0	62	0	2074083328	51	5330
2026-01-24 23:30:00.07	185.55	9.70	-40.4	-43.4	11.8	4.45e-04	0	61	0	2086666240	51	5345
2026-01-24 23:30:04.11	185.68	9.36	-40.5	-43.4	11.7	5.65e-04	0	62	0	2099249152	51	5401
2026-01-24 23:30:08.16	185.80	9.02	-40.5	-43.5	11.6	7.86e-04	0	62	0	2111832064	51	5437
2026-01-24 23:30:12.20	185.92	8.69	-40.6	-43.7	11.3	9.59e-04	0	62	0	2124414976	51	5587
2026-01-24 23:30:16.24	186.04	8.36	-40.6	-43.8	11.2	1.26e-03	0	62	0	2136997888	52	5295
2026-01-24 23:30:20.28	186.15	8.04	-40.7	-43.9	11.0	2.60e-03	0	62	0	2149580800	52	5387
2026-01-24 23:30:24.32	186.27	7.72	-45.0	-57.4	3.8	1.49e+00	0	62	104	2151677952	60	16105
2026-01-24 23:30:28.36	186.38	7.40	-45.3	-57.7	3.8	1.49e+00	0	62	104	2151677952	61	15674
2026-01-24 23:30:32.40	186.49	7.09	-45.3	-57.7	3.8	1.49e+00	0	62	104	2151677952	61	15689
2026-01-24 23:30:36.45	186.60	6.78	-45.2	-57.6	3.8	1.49e+00	0	62	104	2151677952	61	15484
2026-01-24 23:30:40.49	186.70	6.47	-45.2	-57.6	3.8	1.49e+00	0	62	104	2151677952	61	15442
2026-01-24 23:30:44.53	186.80	6.17	-45.2	-57.6	3.8	1.49e+00	0	62	104	2151677952	61	15420
2026-01-24 23:30:48.57	186.91	5.87	-45.2	-57.5	3.8	1.49e+00	0	62	104	2151677952	61	15358
2026-01-24 23:30:52.61	187.00	5.58	-45.2	-57.6	3.8	1.49e+00	0	62	104	2151677952	61	15418
2026-01-24 23:30:56.66	187.10	5.29	-45.1	-57.5	3.8	1.49e+00	0	61	104	2151677952	61	15282
2026-01-24 23:31:00.68	187.20	5.00	-45.1	-57.5	3.8	1.49e+00	0	62	104	2151677952	61	15318
2026-01-24 23:31:04.73	187.29	4.72	-45.1	-57.5	3.8	1.49e+00	0	62	104	2151677952	61	15258
2026-01-24 23:31:08.77	187.39	4.43	-45.1	-57.5	3.8	1.49e+00	0	62	104	2151677952	61	15314
2026-01-24 23:31:12.81	187.48	4.15	-45.1	-57.5	3.8	1.49e+00	0	62	104	2151677952	61	15294
2026-01-24 23:31:16.85	187.57	3.88	-45.1	-57.5	3.8	1.49e+00	0	62	104	2151677952	61	15246
2026-01-24 23:31:20.89	187.65	3.60	-45.1	-57.5	3.8	1.49e+00	0	62	104	2151677952	61	15229
2026-01-24 23:31:24.93	187.74	3.33	-45.1	-57.4	3.8	1.49e+00	0	62	104	2151677952	61	15214
2026-01-24 23:31:28.98	187.83	3.06	-45.1	-57.5	3.8	1.49e+00	0	62	104	2151677952	61	15240
2026-01-24 23:31:33.02	187.91	2.80	-45.1	-57.4	3.8	1.49e+00	0	62	104	2151677952	61	15184
2026-01-24 23:31:37.06	187.99	2.53	-45.1	-57.5	3.8	1.49e+00	0	62	104	2151677952	61	15258
2026-01-24 23:31:41.10	188.07	2.27	-45.1	-57.4	3.8	1.49e+00	0	62	104	2151677952	61	15207
2026-01-24 23:31:45.15	188.15	2.01	-45.1	-57.4	3.8	1.49e+00	0	62	104	2151677952	61	15200

#Closed at: 2026-01-24 23:31:47
#Recorded file [2151 MB]: D:/lorett/data/31039_260125_021720.dat