passes_logs/2026/01/24/R2.0S_Moscow/R2.0S_Moscow__20260124_060734_FENGYUN_3E_rec.log

#Pass ID: 20260124_060734_FENGYUN 3E
#Satellite: FENGYUN 3E
#Configuration: FENGYUN 3E
#almurnet v.1.7.20251203
#Start time: 2026-01-24 06:07:34

#Version: 2.2.20231116
#Station: R2.0S_Moscow
#Location: 37.707566 lon 55.798166 lat
#TLE: 1 49008U 21062A   26023.60278097 -.00000097  00000+0 -24964-4 0  9990
#TLE: 2 49008  98.7490  28.6300 0002358 120.0933 240.0477 14.19886577236062

#Time	Az	El	Level	Level2	SNR	BER	BlckErr	Temp	State	Recorded	gain1	gain2
2026-01-24 06:07:34.42	8.84	1.98	-40.3	-51.0	3.8	8.47e-01	0	52	0	0	51	12230
2026-01-24 06:07:37.45	8.60	2.13	-40.2	-51.0	3.8	8.47e-01	0	52	104	0	51	12160
2026-01-24 06:07:40.48	8.35	2.29	-40.2	-51.0	3.8	8.47e-01	0	52	104	0	51	12184
2026-01-24 06:07:43.51	8.09	2.44	-40.2	-51.0	3.8	8.46e-01	0	52	104	0	51	12159
2026-01-24 06:07:46.54	7.83	2.60	-40.2	-51.0	3.8	8.46e-01	0	53	104	0	51	12136
2026-01-24 06:07:49.57	7.58	2.76	-40.2	-51.0	3.8	8.46e-01	0	53	104	0	51	12148
2026-01-24 06:07:52.61	7.31	2.91	-40.2	-51.0	3.8	8.46e-01	0	53	104	0	51	12171
2026-01-24 06:07:55.64	7.05	3.07	-40.2	-51.0	3.8	8.46e-01	0	54	104	0	51	12152
2026-01-24 06:07:58.67	6.78	3.23	-40.2	-51.0	3.8	8.46e-01	0	54	104	0	51	12124
2026-01-24 06:08:01.70	6.51	3.38	-40.2	-51.0	3.8	8.47e-01	0	54	104	0	51	12110
2026-01-24 06:08:04.73	6.23	3.54	-40.2	-51.0	3.8	8.45e-01	0	54	104	0	51	12101
2026-01-24 06:08:07.76	5.95	3.70	-40.2	-51.0	3.8	8.45e-01	0	54	104	0	51	12118
2026-01-24 06:08:10.79	5.67	3.86	-40.2	-51.0	3.8	8.46e-01	0	55	104	0	51	12120
2026-01-24 06:08:13.83	5.39	4.02	-40.2	-51.0	3.8	8.46e-01	0	55	104	0	51	12097
2026-01-24 06:08:16.86	5.10	4.18	-40.2	-51.0	3.8	8.47e-01	0	55	104	0	51	12102
2026-01-24 06:08:19.89	4.81	4.33	-40.2	-51.0	3.8	8.46e-01	0	55	104	0	51	12136
2026-01-24 06:08:22.92	4.52	4.49	-40.2	-51.0	3.8	8.47e-01	0	55	104	0	51	12117
2026-01-24 06:08:25.96	4.22	4.65	-40.2	-50.9	3.8	8.47e-01	0	55	104	0	51	12078
2026-01-24 06:08:28.99	3.92	4.81	-40.2	-51.0	3.8	8.45e-01	0	56	104	0	51	12102
2026-01-24 06:08:32.02	3.61	4.97	-40.2	-51.0	3.8	8.47e-01	0	56	104	0	51	12103
2026-01-24 06:08:35.05	3.31	5.13	-40.2	-50.9	3.8	8.46e-01	0	56	104	0	51	12091
2026-01-24 06:08:38.08	3.00	5.29	-40.2	-51.0	3.8	8.47e-01	0	56	104	0	51	12113
2026-01-24 06:08:41.11	2.68	5.46	-40.2	-50.9	3.8	8.46e-01	0	56	104	0	51	12085
2026-01-24 06:08:44.14	2.36	5.62	-40.2	-50.9	3.8	8.46e-01	0	56	104	0	51	12088
2026-01-24 06:08:47.18	2.04	5.78	-40.2	-51.0	3.8	8.45e-01	0	57	104	0	51	12142
2026-01-24 06:08:50.21	1.72	5.94	-40.2	-50.9	3.8	8.45e-01	0	57	104	0	51	12089
2026-01-24 06:08:53.24	1.39	6.10	-40.2	-51.0	3.8	8.46e-01	0	57	104	0	51	12096
2026-01-24 06:08:56.27	1.05	6.26	-40.2	-50.9	3.8	8.45e-01	0	57	104	0	51	12069
2026-01-24 06:08:59.30	0.72	6.42	-40.2	-50.9	3.8	8.45e-01	0	57	104	0	51	12069
2026-01-24 06:09:02.34	0.37	6.58	-40.2	-51.0	3.8	8.46e-01	0	57	104	0	51	12101
2026-01-24 06:09:05.37	0.03	6.74	-40.2	-51.0	3.8	8.46e-01	0	57	104	0	51	12112
2026-01-24 06:09:08.40	359.68	6.91	-40.2	-51.0	3.8	8.45e-01	0	58	104	0	51	12099
2026-01-24 06:09:11.43	359.33	7.07	-40.1	-50.9	3.8	8.47e-01	0	58	104	0	51	12089
2026-01-24 06:09:14.46	358.97	7.23	-40.1	-50.9	3.8	8.47e-01	0	58	104	0	51	12053
2026-01-24 06:09:17.49	358.61	7.39	-40.1	-51.0	3.8	8.46e-01	0	58	104	0	51	12111
2026-01-24 06:09:20.52	358.25	7.55	-40.1	-50.9	3.8	8.45e-01	0	58	104	0	51	12040
2026-01-24 06:09:23.55	357.88	7.71	-40.1	-50.9	3.8	8.46e-01	0	58	104	0	51	12042
2026-01-24 06:09:26.58	357.50	7.87	-40.1	-50.9	3.8	8.47e-01	0	58	104	0	51	12070
2026-01-24 06:09:29.61	357.13	8.03	-40.3	-51.1	3.8	8.47e-01	0	58	104	0	51	12245
2026-01-24 06:09:32.64	356.74	8.19	-40.4	-51.2	3.8	8.47e-01	0	58	104	0	51	12462
2026-01-24 06:09:35.67	356.36	8.36	-40.3	-51.1	3.8	8.45e-01	0	58	104	0	51	12318
2026-01-24 06:09:38.70	355.97	8.52	-40.4	-51.2	3.8	8.47e-01	0	58	104	0	51	12382
2026-01-24 06:09:41.73	355.57	8.68	-40.4	-51.2	3.8	8.46e-01	0	58	104	0	51	12412
2026-01-24 06:09:44.76	355.17	8.84	-40.6	-51.4	3.8	8.46e-01	0	58	104	0	51	12665
2026-01-24 06:09:47.79	354.77	8.99	-40.6	-51.3	3.8	8.47e-01	0	59	104	0	51	12663
2026-01-24 06:09:50.81	354.36	9.15	-40.7	-51.4	3.8	8.46e-01	0	58	104	0	51	12706
2026-01-24 06:09:53.84	353.95	9.31	-40.5	-51.3	3.8	8.46e-01	0	59	104	0	51	12603
2026-01-24 06:09:56.87	353.53	9.47	-40.9	-51.7	3.8	8.45e-01	0	59	104	0	51	13153
2026-01-24 06:09:59.90	353.11	9.63	-40.7	-51.5	3.8	8.46e-01	0	59	104	0	51	12874
2026-01-24 06:10:02.93	352.68	9.78	-40.8	-51.6	3.8	8.46e-01	0	59	104	0	51	13010
2026-01-24 06:10:05.96	352.25	9.94	-40.9	-51.7	3.8	8.46e-01	0	59	104	0	51	13164
2026-01-24 06:10:08.99	351.81	10.10	-40.9	-51.7	3.8	8.46e-01	0	59	104	0	51	13167
2026-01-24 06:10:12.02	351.37	10.25	-41.0	-51.8	3.8	8.46e-01	0	59	104	0	51	13320
2026-01-24 06:10:15.05	350.92	10.41	-41.2	-52.0	3.8	8.46e-01	0	59	104	0	51	13573
2026-01-24 06:10:18.08	350.47	10.56	-40.8	-51.6	3.8	8.46e-01	0	59	104	0	52	12343
2026-01-24 06:10:21.10	350.02	10.71	-41.2	-52.0	3.8	8.46e-01	0	59	104	0	52	12890
2026-01-24 06:10:24.13	349.56	10.87	-41.0	-51.8	3.8	8.46e-01	0	59	104	0	52	12572
2026-01-24 06:10:27.16	349.09	11.02	-41.1	-52.0	3.8	8.46e-01	0	59	104	0	52	12818
2026-01-24 06:10:30.19	348.62	11.17	-41.2	-52.0	3.8	8.45e-01	0	59	104	0	52	12827
2026-01-24 06:10:33.21	348.14	11.32	-41.4	-52.3	3.8	8.47e-01	0	59	104	0	52	13314
2026-01-24 06:10:36.25	347.66	11.46	-41.3	-52.2	3.8	8.45e-01	0	60	104	0	52	13202
2026-01-24 06:10:39.28	347.18	11.61	-41.5	-52.3	3.8	8.46e-01	0	60	104	0	52	13309
2026-01-24 06:10:42.30	346.69	11.76	-41.4	-52.2	3.8	8.46e-01	0	60	104	0	52	13223
2026-01-24 06:10:45.33	346.19	11.90	-41.1	-52.0	3.8	8.46e-01	0	60	104	0	52	12837
2026-01-24 06:10:48.36	345.69	12.05	-41.1	-51.9	3.8	8.47e-01	0	60	104	0	52	12719
2026-01-24 06:10:51.39	345.18	12.19	-41.0	-51.9	3.8	8.45e-01	0	60	104	0	52	12675
2026-01-24 06:10:54.42	344.67	12.33	-41.0	-51.8	3.8	8.46e-01	0	60	104	0	52	12541
2026-01-24 06:10:57.45	344.16	12.47	-40.9	-51.7	3.8	8.46e-01	0	60	104	0	52	12518
2026-01-24 06:11:00.48	343.64	12.61	-40.9	-51.7	3.8	8.47e-01	0	60	104	0	52	12458
2026-01-24 06:11:03.51	343.11	12.74	-41.0	-51.8	3.8	8.46e-01	0	60	104	0	52	12562
2026-01-24 06:11:06.53	342.58	12.88	-41.0	-51.8	3.8	8.46e-01	0	60	104	0	52	12653
2026-01-24 06:11:09.56	342.05	13.01	-40.8	-51.6	3.8	8.47e-01	0	60	104	0	52	12350
2026-01-24 06:11:12.59	341.51	13.14	-40.9	-51.6	3.8	8.45e-01	0	60	104	0	52	12368
2026-01-24 06:11:15.62	340.96	13.27	-41.0	-51.7	3.8	8.46e-01	0	60	104	0	52	12448
2026-01-24 06:11:18.64	340.41	13.40	-41.2	-51.9	3.8	8.46e-01	0	60	104	0	52	12765
2026-01-24 06:11:21.67	339.86	13.52	-41.2	-51.6	3.8	8.45e-01	0	60	104	0	53	11581
2026-01-24 06:11:24.70	339.30	13.65	-40.8	-44.8	7.6	1.22e-01	0	61	0	10485760	52	5655
2026-01-24 06:11:27.73	338.73	13.77	-40.4	-43.6	9.5	1.63e-02	0	61	0	32505856	51	5192
2026-01-24 06:11:30.76	338.16	13.89	-37.9	-39.9	13.5	1.94e-05	0	61	0	53477376	46	4496
2026-01-24 06:11:33.79	337.59	14.01	-38.2	-40.1	13.6	9.10e-06	0	60	0	75497472	46	4650
2026-01-24 06:11:36.82	337.01	14.12	-37.9	-39.7	14.3	0.00e+00	0	61	0	97517568	46	4422
2026-01-24 06:11:39.85	336.43	14.23	-37.7	-39.4	14.7	0.00e+00	0	61	0	119537664	46	4269
2026-01-24 06:11:42.88	335.84	14.34	-37.8	-39.5	14.7	0.00e+00	0	61	0	141557760	46	4304
2026-01-24 06:11:45.91	335.25	14.45	-37.3	-38.9	15.3	0.00e+00	0	61	0	163577856	45	4275
2026-01-24 06:11:48.94	334.65	14.55	-37.3	-38.8	15.6	0.00e+00	0	61	0	185597952	45	4224
2026-01-24 06:11:51.97	334.05	14.66	-37.2	-38.8	15.6	0.00e+00	0	61	0	206569472	45	4200
2026-01-24 06:11:55.00	333.45	14.75	-37.3	-38.9	15.6	0.00e+00	0	61	0	228589568	45	4265
2026-01-24 06:11:58.03	332.84	14.85	-37.5	-39.1	15.4	0.00e+00	0	61	0	250609664	45	4354
2026-01-24 06:12:01.06	332.22	14.94	-37.3	-38.9	15.6	0.00e+00	0	61	0	272629760	45	4250
2026-01-24 06:12:04.09	331.61	15.03	-37.2	-38.8	15.8	0.00e+00	0	61	0	294649856	45	4198
2026-01-24 06:12:07.12	330.99	15.12	-37.2	-38.7	15.9	0.00e+00	0	60	0	316669952	45	4181
2026-01-24 06:12:10.15	330.36	15.21	-37.2	-38.7	15.8	0.00e+00	0	61	0	338690048	45	4193
2026-01-24 06:12:13.18	329.74	15.29	-37.2	-38.7	15.9	0.00e+00	0	61	0	360710144	45	4171
2026-01-24 06:12:16.22	329.10	15.37	-37.2	-38.7	15.9	0.00e+00	0	61	0	381681664	45	4187
2026-01-24 06:12:19.25	328.47	15.44	-36.9	-38.4	16.3	0.00e+00	0	61	0	403701760	44	4253
2026-01-24 06:12:22.28	327.83	15.51	-36.8	-38.1	16.5	0.00e+00	0	61	0	425721856	44	4142
2026-01-24 06:12:25.31	327.19	15.58	-36.9	-38.3	16.3	0.00e+00	0	61	0	447741952	44	4209
2026-01-24 06:12:28.33	326.55	15.64	-37.0	-38.4	16.2	0.00e+00	0	61	0	469762048	44	4277
2026-01-24 06:12:31.36	325.90	15.71	-37.1	-38.5	16.2	0.00e+00	0	61	0	491782144	44	4320
2026-01-24 06:12:34.39	325.25	15.76	-37.0	-38.5	16.2	0.00e+00	0	61	0	513802240	44	4302
2026-01-24 06:12:37.42	324.60	15.82	-36.8	-38.2	16.4	0.00e+00	0	61	0	534773760	44	4185
2026-01-24 06:12:40.44	323.95	15.87	-36.7	-38.0	16.7	0.00e+00	0	61	0	556793856	44	4085
2026-01-24 06:12:43.47	323.29	15.91	-36.5	-37.9	16.8	0.00e+00	0	61	0	578813952	44	4022
2026-01-24 06:12:46.50	322.64	15.96	-36.6	-38.0	16.7	0.00e+00	0	61	0	600834048	44	4079
2026-01-24 06:12:49.53	321.98	16.00	-36.9	-38.3	16.5	0.00e+00	0	61	0	622854144	44	4196
2026-01-24 06:12:52.56	321.32	16.03	-36.8	-38.2	16.5	0.00e+00	0	61	0	644874240	44	4174
2026-01-24 06:12:55.59	320.65	16.06	-36.7	-38.1	16.6	0.00e+00	0	61	0	666894336	44	4117
2026-01-24 06:12:58.61	319.99	16.09	-36.6	-38.0	16.7	0.00e+00	0	61	0	687865856	44	4059
2026-01-24 06:13:01.64	319.32	16.11	-36.6	-38.0	16.7	0.00e+00	0	61	0	709885952	44	4064
2026-01-24 06:13:04.67	318.66	16.13	-36.7	-38.0	16.7	0.00e+00	0	61	0	731906048	44	4088
2026-01-24 06:13:07.70	317.99	16.15	-36.6	-37.9	16.8	0.00e+00	0	61	0	753926144	44	4031
2026-01-24 06:13:10.73	317.32	16.16	-36.5	-37.9	16.8	0.00e+00	0	61	0	775946240	44	4013
2026-01-24 06:13:13.76	316.65	16.17	-36.7	-38.1	16.6	0.00e+00	0	61	0	796917760	44	4112
2026-01-24 06:13:16.79	315.99	16.17	-36.9	-38.3	16.5	0.00e+00	0	61	0	818937856	44	4201
2026-01-24 06:13:19.82	315.32	16.17	-37.1	-38.5	16.2	0.00e+00	0	61	0	840957952	44	4310
2026-01-24 06:13:22.84	314.65	16.17	-37.1	-38.5	16.2	0.00e+00	0	61	0	862978048	44	4314
2026-01-24 06:13:25.87	313.98	16.16	-37.1	-38.6	16.2	0.00e+00	0	61	0	884998144	44	4341
2026-01-24 06:13:28.90	313.31	16.15	-37.1	-38.5	16.2	0.00e+00	0	61	0	907018240	44	4318
2026-01-24 06:13:31.93	312.64	16.14	-36.8	-38.2	16.5	0.00e+00	0	61	0	929038336	44	4160
2026-01-24 06:13:34.96	311.98	16.12	-36.7	-38.1	16.6	0.00e+00	0	61	0	950009856	44	4106
2026-01-24 06:13:37.99	311.31	16.09	-36.6	-37.9	16.8	0.00e+00	0	61	0	972029952	44	4046
2026-01-24 06:13:41.01	310.65	16.07	-36.7	-38.0	16.7	0.00e+00	0	61	0	994050048	44	4088
2026-01-24 06:13:44.04	309.98	16.04	-36.7	-38.0	16.7	0.00e+00	0	61	0	1016070144	44	4077
2026-01-24 06:13:47.07	309.32	16.00	-36.5	-37.9	16.8	0.00e+00	0	61	0	1038090240	44	4014
2026-01-24 06:13:50.10	308.66	15.96	-36.6	-37.9	16.8	0.00e+00	0	61	0	1060110336	44	4043
2026-01-24 06:13:53.13	308.00	15.92	-36.6	-38.0	16.7	0.00e+00	0	61	0	1082130432	44	4063
2026-01-24 06:13:56.16	307.35	15.87	-36.8	-38.2	16.4	0.00e+00	0	61	0	1103101952	44	4174
2026-01-24 06:13:59.19	306.69	15.82	-36.9	-38.3	16.4	0.00e+00	0	61	0	1125122048	44	4199
2026-01-24 06:14:02.22	306.04	15.77	-36.9	-38.3	16.3	0.00e+00	0	61	0	1147142144	44	4234
2026-01-24 06:14:05.24	305.39	15.71	-36.8	-38.2	16.4	0.00e+00	0	61	0	1169162240	44	4183
2026-01-24 06:14:08.27	304.74	15.65	-37.0	-38.4	16.2	0.00e+00	0	61	0	1191182336	44	4249
2026-01-24 06:14:11.30	304.10	15.59	-36.9	-38.3	16.3	0.00e+00	0	61	0	1213202432	44	4241
2026-01-24 06:14:14.33	303.45	15.52	-36.9	-38.3	16.3	0.00e+00	0	61	0	1235222528	44	4218
2026-01-24 06:14:17.36	302.81	15.45	-36.9	-38.3	16.3	0.00e+00	0	61	0	1256194048	44	4242
2026-01-24 06:14:20.39	302.18	15.37	-36.9	-38.3	16.3	0.00e+00	0	61	0	1278214144	44	4225
2026-01-24 06:14:23.41	301.55	15.30	-36.9	-38.3	16.3	0.00e+00	0	61	0	1300234240	44	4219
2026-01-24 06:14:26.44	300.92	15.22	-37.0	-38.4	16.2	0.00e+00	0	61	0	1322254336	44	4271
2026-01-24 06:14:29.47	300.29	15.13	-37.0	-38.4	16.2	0.00e+00	0	61	0	1344274432	44	4270
2026-01-24 06:14:32.50	299.67	15.04	-36.9	-38.3	16.3	0.00e+00	0	61	0	1366294528	44	4227
2026-01-24 06:14:35.52	299.05	14.96	-36.9	-38.3	16.3	0.00e+00	0	61	0	1388314624	44	4221
2026-01-24 06:14:38.55	298.44	14.86	-37.1	-38.5	16.0	0.00e+00	0	61	0	1409286144	44	4322
2026-01-24 06:14:41.58	297.83	14.77	-37.3	-38.8	15.7	0.00e+00	0	61	0	1431306240	44	4476
2026-01-24 06:14:44.61	297.22	14.67	-37.1	-38.6	15.9	0.00e+00	0	62	0	1453326336	44	4364
2026-01-24 06:14:47.63	296.62	14.57	-36.8	-38.3	16.2	0.00e+00	0	61	0	1475346432	44	4194
2026-01-24 06:14:50.66	296.02	14.46	-37.0	-38.5	15.9	0.00e+00	0	61	0	1497366528	44	4307
2026-01-24 06:14:53.69	295.43	14.35	-37.3	-38.8	15.6	0.00e+00	0	62	0	1519386624	44	4477
2026-01-24 06:14:56.72	294.83	14.24	-37.2	-38.7	15.6	0.00e+00	0	61	0	1541406720	44	4428
2026-01-24 06:14:59.75	294.25	14.13	-36.9	-38.3	15.9	0.00e+00	0	62	0	1562378240	44	4225
2026-01-24 06:15:02.78	293.67	14.02	-36.8	-38.3	15.9	0.00e+00	0	61	0	1584398336	44	4202
2026-01-24 06:15:05.80	293.09	13.90	-36.9	-38.4	15.6	0.00e+00	0	61	0	1606418432	44	4290
2026-01-24 06:15:08.83	292.52	13.78	-37.2	-38.8	15.1	0.00e+00	0	61	0	1628438528	44	4477
2026-01-24 06:15:11.86	291.95	13.66	-37.4	-39.0	14.9	0.00e+00	0	61	0	1649410048	44	4582
2026-01-24 06:15:14.89	291.39	13.54	-37.3	-39.0	14.8	0.00e+00	0	61	0	1671430144	44	4565
2026-01-24 06:15:17.92	290.83	13.41	-37.2	-38.8	14.8	1.10e-06	0	61	0	1693450240	44	4480
2026-01-24 06:15:20.95	290.28	13.28	-37.3	-39.0	14.5	0.00e+00	0	62	0	1715470336	44	4593
2026-01-24 06:15:23.97	289.73	13.15	-37.4	-39.1	14.4	0.00e+00	0	61	0	1737490432	44	4648
2026-01-24 06:15:27.00	289.19	13.02	-37.4	-39.2	14.3	1.10e-06	0	61	0	1759510528	44	4667
2026-01-24 06:15:30.03	288.65	12.89	-37.5	-39.3	14.0	6.80e-06	0	62	0	1781530624	44	4749
2026-01-24 06:15:33.06	288.12	12.76	-37.7	-39.6	13.7	9.10e-06	0	61	0	1802502144	44	4904
2026-01-24 06:15:36.09	287.59	12.62	-37.8	-39.8	13.4	1.83e-05	0	61	0	1824522240	45	4734
2026-01-24 06:15:39.12	287.06	12.48	-38.2	-40.3	12.7	8.01e-05	0	62	0	1846542336	45	5032
2026-01-24 06:15:42.15	286.54	12.34	-38.5	-40.9	12.1	2.45e-04	0	61	0	1868562432	46	5043
2026-01-24 06:15:45.18	286.03	12.20	-38.6	-41.0	11.9	5.02e-04	0	62	0	1890582528	46	5117
2026-01-24 06:15:48.21	285.52	12.06	-38.5	-40.8	12.1	2.79e-04	0	61	0	1912602624	46	5020
2026-01-24 06:15:51.24	285.02	11.91	-38.6	-40.9	12.0	3.07e-04	0	61	0	1934622720	46	5051
2026-01-24 06:15:54.27	284.52	11.77	-38.7	-41.1	11.9	4.52e-04	0	62	0	1956642816	46	5169
2026-01-24 06:15:57.30	284.02	11.62	-38.6	-40.9	12.0	3.52e-04	0	62	0	1977614336	47	4775
2026-01-24 06:16:00.33	283.54	11.47	-38.3	-40.5	12.5	1.58e-04	0	61	0	1999634432	47	4569
2026-01-24 06:16:03.36	283.05	11.33	-38.1	-40.2	12.8	6.52e-05	0	62	0	2021654528	47	4417
2026-01-24 06:16:06.39	282.57	11.18	-37.9	-40.0	13.1	3.66e-05	0	61	0	2043674624	46	4546
2026-01-24 06:16:09.42	282.10	11.02	-37.5	-39.3	14.0	5.70e-06	0	62	0	2065694720	46	4217
2026-01-24 06:16:12.44	281.63	10.87	-37.4	-39.2	14.1	1.10e-06	0	62	0	2087714816	45	4407
2026-01-24 06:16:15.47	281.17	10.72	-37.8	-39.7	13.7	1.02e-05	0	61	0	2109734912	45	4661
2026-01-24 06:16:18.50	280.71	10.57	-37.8	-39.7	13.6	5.70e-06	0	62	0	2130706432	45	4681
2026-01-24 06:16:21.53	280.25	10.41	-38.0	-40.0	13.1	3.08e-05	0	62	0	2152726528	45	4852
2026-01-24 06:16:24.56	279.80	10.26	-38.1	-40.2	12.8	4.80e-05	0	62	0	2174746624	45	4968
2026-01-24 06:16:27.59	279.36	10.10	-38.4	-40.6	12.2	2.13e-04	0	61	0	2196766720	46	4926
2026-01-24 06:16:30.61	278.92	9.95	-38.7	-41.1	11.7	6.14e-04	0	62	0	2218786816	46	5201
2026-01-24 06:16:33.64	278.48	9.79	-38.9	-41.6	10.8	2.86e-03	0	62	0	2240806912	47	5218
2026-01-24 06:16:36.67	278.05	9.63	-39.5	-42.7	9.7	1.23e-02	0	62	0	2262827008	48	5552
2026-01-24 06:16:39.70	277.63	9.47	-39.9	-43.6	8.5	4.16e-02	0	62	0	2283798528	49	5809
2026-01-24 06:16:42.73	277.20	9.32	-40.3	-44.6	7.4	1.20e-01	0	62	0	2305818624	50	6143
2026-01-24 06:16:45.76	276.79	9.16	-40.6	-45.7	6.2	2.87e-01	0	62	0	2327838720	50	6978
2026-01-24 06:16:48.79	276.38	9.00	-40.5	-49.7	3.8	8.30e-01	0	62	104	2345664512	51	10415
2026-01-24 06:16:51.82	275.97	8.84	-41.0	-48.4	4.4	8.31e-01	0	62	0	2345664512	52	8497
2026-01-24 06:16:54.85	275.56	8.68	-41.0	-49.4	4.0	8.43e-01	0	62	104	2345664512	52	9537
2026-01-24 06:16:57.88	275.17	8.52	-40.9	-50.1	3.8	8.44e-01	0	62	104	2345664512	52	10330
2026-01-24 06:17:00.91	274.77	8.36	-41.0	-51.1	3.8	8.45e-01	0	62	104	2345664512	52	11639
2026-01-24 06:17:03.93	274.38	8.20	-40.4	-51.0	3.8	8.45e-01	0	62	104	2345664512	51	12155
2026-01-24 06:17:06.96	274.00	8.04	-40.5	-51.1	3.8	8.45e-01	0	62	104	2345664512	51	12345
2026-01-24 06:17:09.99	273.62	7.87	-45.2	-56.5	3.8	8.46e-01	0	62	104	2345664512	60	13639
2026-01-24 06:17:13.02	273.24	7.71	-45.5	-56.9	3.8	8.47e-01	0	62	104	2345664512	60	14247
2026-01-24 06:17:16.05	272.87	7.55	-45.6	-56.9	3.8	8.46e-01	0	62	104	2345664512	60	14368
2026-01-24 06:17:19.08	272.50	7.39	-45.6	-56.9	3.8	8.46e-01	0	61	104	2345664512	60	14364
2026-01-24 06:17:22.12	272.13	7.23	-45.5	-56.9	3.8	8.46e-01	0	62	104	2345664512	60	14284
2026-01-24 06:17:25.15	271.77	7.06	-45.5	-56.8	3.8	8.46e-01	0	62	104	2345664512	60	14182
2026-01-24 06:17:28.18	271.42	6.90	-45.5	-56.9	3.8	8.47e-01	0	62	104	2345664512	60	14246
2026-01-24 06:17:31.21	271.06	6.74	-45.5	-56.8	3.8	8.47e-01	0	62	104	2345664512	60	14206
2026-01-24 06:17:34.24	270.72	6.58	-45.5	-56.9	3.8	8.46e-01	0	62	104	2345664512	60	14223
2026-01-24 06:17:37.27	270.37	6.42	-45.5	-56.9	3.8	8.47e-01	0	62	104	2345664512	60	14267
2026-01-24 06:17:40.30	270.03	6.26	-44.8	-56.4	3.8	8.46e-01	0	62	104	2345664512	59	14346
2026-01-24 06:17:43.34	269.69	6.09	-45.5	-56.8	3.8	8.47e-01	0	62	104	2345664512	60	14160
2026-01-24 06:17:46.37	269.36	5.93	-45.5	-56.8	3.8	8.45e-01	0	62	104	2345664512	60	14163
2026-01-24 06:17:49.40	269.03	5.77	-45.5	-56.8	3.8	8.46e-01	0	62	104	2345664512	60	14161
2026-01-24 06:17:52.43	268.71	5.61	-45.5	-56.8	3.8	8.46e-01	0	62	104	2345664512	60	14133
2026-01-24 06:17:55.46	268.39	5.45	-45.5	-56.8	3.8	8.47e-01	0	62	104	2345664512	60	14124
2026-01-24 06:17:58.50	268.07	5.29	-45.4	-56.8	3.8	8.46e-01	0	62	104	2345664512	60	14093
2026-01-24 06:18:01.53	267.75	5.13	-45.5	-56.8	3.8	8.47e-01	0	62	104	2345664512	60	14184
2026-01-24 06:18:04.56	267.44	4.97	-45.4	-56.8	3.8	8.47e-01	0	62	104	2345664512	60	14145
2026-01-24 06:18:07.59	267.13	4.80	-45.4	-56.8	3.8	8.46e-01	0	62	104	2345664512	60	14139
2026-01-24 06:18:10.62	266.83	4.64	-45.5	-56.8	3.8	8.44e-01	0	62	104	2345664512	60	14098
2026-01-24 06:18:13.65	266.53	4.48	-45.4	-56.8	3.8	8.46e-01	0	62	104	2345664512	60	14085
2026-01-24 06:18:16.68	266.23	4.32	-45.4	-56.7	3.8	8.46e-01	0	62	104	2345664512	60	14024
2026-01-24 06:18:19.72	265.94	4.16	-45.4	-56.8	3.8	8.46e-01	0	62	104	2345664512	60	14108
2026-01-24 06:18:22.75	265.65	4.01	-45.4	-56.8	3.8	8.47e-01	0	62	104	2345664512	60	14057
2026-01-24 06:18:25.78	265.36	3.85	-45.4	-56.7	3.8	8.46e-01	0	62	104	2345664512	60	14042
2026-01-24 06:18:28.81	265.07	3.69	-45.4	-56.8	3.8	8.46e-01	0	62	104	2345664512	60	14048
2026-01-24 06:18:31.85	264.79	3.53	-45.4	-56.8	3.8	8.45e-01	0	62	104	2345664512	60	14088
2026-01-24 06:18:34.88	264.51	3.37	-45.4	-56.8	3.8	8.47e-01	0	62	104	2345664512	60	14058
2026-01-24 06:18:37.91	264.24	3.21	-45.4	-56.8	3.8	8.47e-01	0	62	104	2345664512	60	14069
2026-01-24 06:18:40.94	263.97	3.06	-45.4	-56.7	3.8	8.46e-01	0	62	104	2345664512	60	14040
2026-01-24 06:18:43.98	263.70	2.90	-45.4	-56.7	3.8	8.47e-01	0	62	104	2345664512	60	14006
2026-01-24 06:18:47.01	263.43	2.74	-45.4	-56.8	3.8	8.47e-01	0	62	104	2345664512	60	14054
2026-01-24 06:18:50.04	263.17	2.58	-45.4	-56.7	3.8	8.46e-01	0	62	104	2345664512	60	14018
2026-01-24 06:18:53.07	262.91	2.43	-45.4	-56.8	3.8	8.46e-01	0	62	104	2345664512	60	14061
2026-01-24 06:18:56.10	262.65	2.27	-45.4	-56.7	3.8	8.46e-01	0	62	104	2345664512	60	14033
2026-01-24 06:18:59.13	262.39	2.12	-45.4	-56.8	3.8	8.46e-01	0	62	104	2345664512	60	14091
2026-01-24 06:19:02.16	262.14	1.96	-45.4	-56.7	3.8	8.46e-01	0	62	104	2345664512	60	14037

#Closed at: 2026-01-24 06:19:03
#Recorded file [2345 MB]: D:/lorett/data/31039_260124_090734.dat