passes_logs/2026/01/24/R2.0S_Moscow/R2.0S_Moscow__20260124_123421_FENGYUN_3D_rec.log

#Pass ID: 20260124_123421_FENGYUN 3D
#Satellite: FENGYUN 3D
#Configuration: FENGYUN 3D
#almurnet v.1.7.20251203
#Start time: 2026-01-24 12:34:20

#Version: 2.2.20231116
#Station: R2.0S_Moscow
#Location: 37.707566 lon 55.798166 lat
#TLE: 1 43010U 17072A   26023.60174628  .00000324  00000+0  17481-3 0  9994
#TLE: 2 43010  98.9958 355.5514 0002482  93.7422 266.4037 14.19699955424476

#Time	Az	El	Level	Level2	SNR	BER	BlckErr	Temp	State	Recorded	gain1	gain2
2026-01-24 12:34:20.51	177.72	1.96	-43.9	-55.5	3.8	8.47e-01	0	52	0	0	59	13650
2026-01-24 12:34:24.55	177.83	2.22	-43.9	-55.5	3.8	8.46e-01	0	52	104	0	59	13606
2026-01-24 12:34:28.59	177.96	2.47	-43.9	-55.5	3.8	8.46e-01	0	53	104	0	59	13630
2026-01-24 12:34:32.63	178.08	2.73	-43.9	-55.5	3.8	8.46e-01	0	53	104	0	59	13606
2026-01-24 12:34:36.67	178.20	3.00	-43.8	-55.5	3.8	8.46e-01	0	53	104	0	59	13623
2026-01-24 12:34:40.71	178.33	3.26	-43.8	-55.4	3.8	8.47e-01	0	54	104	0	59	13559
2026-01-24 12:34:44.75	178.46	3.53	-43.9	-55.5	3.8	8.45e-01	0	54	104	0	59	13601
2026-01-24 12:34:48.79	178.59	3.80	-43.9	-55.4	3.8	8.46e-01	0	54	104	0	59	13562
2026-01-24 12:34:52.84	178.73	4.07	-43.9	-55.5	3.8	8.46e-01	0	54	104	0	59	13595
2026-01-24 12:34:56.88	178.86	4.34	-43.9	-55.5	3.8	8.47e-01	0	55	104	0	59	13616
2026-01-24 12:35:00.92	179.00	4.62	-43.8	-55.4	3.8	8.45e-01	0	55	104	0	59	13555
2026-01-24 12:35:04.96	179.14	4.90	-43.8	-55.1	3.8	8.46e-01	0	55	104	0	59	13039
2026-01-24 12:35:09.00	179.29	5.18	-43.6	-53.0	4.0	8.45e-01	0	55	104	0	59	10215
2026-01-24 12:35:13.04	179.43	5.47	-43.1	-50.5	4.7	8.08e-01	0	56	0	0	58	8129
2026-01-24 12:35:17.08	179.58	5.76	-42.8	-49.3	5.3	7.20e-01	0	56	0	0	57	7531
2026-01-24 12:35:21.13	179.73	6.05	-42.3	-47.8	6.5	2.81e-01	0	56	0	19922944	56	6698
2026-01-24 12:35:25.17	179.89	6.35	-42.4	-48.0	6.3	2.78e-01	0	56	0	42991616	56	6816
2026-01-24 12:35:29.21	180.04	6.64	-42.5	-48.3	6.1	3.63e-01	0	56	0	65011712	56	7082
2026-01-24 12:35:33.26	180.20	6.95	-42.1	-47.2	7.0	1.92e-01	0	56	0	88080384	56	6230
2026-01-24 12:35:37.30	180.37	7.25	-40.7	-44.4	9.6	1.75e-02	0	57	0	111149056	53	5352
2026-01-24 12:35:41.34	180.53	7.56	-39.5	-42.2	11.9	7.49e-04	0	57	0	133169152	51	4678
2026-01-24 12:35:45.38	180.70	7.87	-38.9	-41.3	12.8	7.55e-05	0	57	0	156237824	49	4741
2026-01-24 12:35:49.42	180.88	8.19	-40.4	-43.6	10.6	1.70e-03	0	57	0	179306496	51	5516
2026-01-24 12:35:53.46	181.06	8.51	-40.9	-44.7	9.2	7.00e-01	0	57	0	198180864	54	5229
2026-01-24 12:35:57.51	181.24	8.83	-38.4	-40.6	13.7	1.71e-05	0	57	0	221249536	48	4642
2026-01-24 12:36:01.55	181.42	9.16	-38.5	-40.7	13.7	1.02e-05	0	58	0	243269632	48	4704
2026-01-24 12:36:05.59	181.61	9.49	-38.5	-40.7	13.7	1.37e-05	0	58	0	266338304	48	4690
2026-01-24 12:36:09.62	181.80	9.83	-38.6	-40.8	13.7	4.50e-06	0	58	0	289406976	48	4710
2026-01-24 12:36:13.66	182.00	10.17	-38.7	-41.0	13.6	1.60e-05	0	58	0	311427072	48	4821
2026-01-24 12:36:17.70	182.20	10.51	-38.6	-40.8	13.7	2.17e-05	0	58	0	334495744	48	4729
2026-01-24 12:36:21.74	182.41	10.86	-38.5	-40.7	13.8	8.00e-06	0	58	0	357564416	48	4675
2026-01-24 12:36:25.78	182.62	11.21	-38.4	-40.5	14.1	5.70e-06	0	58	0	379584512	48	4572
2026-01-24 12:36:29.81	182.83	11.57	-38.2	-40.2	14.4	2.20e-06	0	58	0	402653184	48	4438
2026-01-24 12:36:33.85	183.05	11.94	-38.0	-40.0	14.7	0.00e+00	0	58	0	425721856	48	4305
2026-01-24 12:36:37.89	183.28	12.31	-37.9	-39.9	14.6	2.20e-06	0	58	0	447741952	47	4524
2026-01-24 12:36:41.94	183.51	12.68	-37.9	-40.0	14.6	2.20e-06	0	59	0	470810624	47	4551
2026-01-24 12:36:45.98	183.75	13.06	-37.9	-39.9	14.7	0.00e+00	0	59	0	493879296	47	4523
2026-01-24 12:36:50.02	183.99	13.45	-37.8	-39.8	14.8	0.00e+00	0	59	0	516947968	47	4458
2026-01-24 12:36:54.06	184.24	13.84	-37.7	-39.6	15.0	0.00e+00	0	59	0	538968064	47	4375
2026-01-24 12:36:58.10	184.49	14.24	-37.6	-39.5	15.2	0.00e+00	0	59	0	562036736	47	4293
2026-01-24 12:37:02.13	184.75	14.64	-37.4	-39.3	15.4	0.00e+00	0	59	0	584056832	46	4459
2026-01-24 12:37:06.17	185.02	15.05	-37.6	-39.4	15.3	0.00e+00	0	59	0	607125504	46	4545
2026-01-24 12:37:10.21	185.30	15.46	-37.5	-39.3	15.4	0.00e+00	0	59	0	630194176	46	4483
2026-01-24 12:37:14.25	185.58	15.89	-37.4	-39.2	15.5	0.00e+00	0	59	0	652214272	46	4423
2026-01-24 12:37:18.28	185.87	16.31	-37.1	-38.9	15.8	0.00e+00	0	59	0	675282944	46	4276
2026-01-24 12:37:22.32	186.17	16.75	-37.0	-38.7	16.0	0.00e+00	0	59	0	698351616	46	4171
2026-01-24 12:37:26.36	186.48	17.20	-37.0	-38.7	16.0	0.00e+00	0	59	0	720371712	45	4441
2026-01-24 12:37:30.40	186.80	17.65	-36.9	-38.6	16.1	0.00e+00	0	59	0	743440384	45	4380
2026-01-24 12:37:34.43	187.12	18.10	-36.8	-38.5	16.2	0.00e+00	0	59	0	766509056	45	4311
2026-01-24 12:37:38.47	187.46	18.57	-36.6	-38.3	16.5	0.00e+00	0	59	0	788529152	45	4226
2026-01-24 12:37:42.51	187.80	19.05	-36.7	-38.4	16.4	0.00e+00	0	59	0	811597824	45	4272
2026-01-24 12:37:46.56	188.16	19.53	-36.7	-38.4	16.4	0.00e+00	0	59	0	834666496	45	4269
2026-01-24 12:37:50.59	188.53	20.02	-36.5	-38.2	16.6	0.00e+00	0	60	0	856686592	45	4161
2026-01-24 12:37:54.64	188.91	20.52	-36.3	-37.9	16.9	0.00e+00	0	60	0	879755264	44	4291
2026-01-24 12:37:58.67	189.30	21.03	-36.4	-38.0	16.9	0.00e+00	0	60	0	902823936	44	4298
2026-01-24 12:38:02.71	189.70	21.55	-36.2	-37.8	17.1	0.00e+00	0	60	0	924844032	44	4215
2026-01-24 12:38:06.75	190.12	22.08	-36.1	-37.7	17.2	0.00e+00	0	60	0	947912704	44	4171
2026-01-24 12:38:10.80	190.55	22.61	-36.0	-37.5	17.3	0.00e+00	0	60	0	970981376	44	4087
2026-01-24 12:38:14.83	190.99	23.16	-36.2	-37.8	17.1	0.00e+00	0	60	0	993001472	44	4227
2026-01-24 12:38:18.87	191.46	23.72	-36.4	-38.0	16.9	0.00e+00	0	60	0	1016070144	44	4308
2026-01-24 12:38:22.91	191.93	24.28	-36.1	-37.7	17.2	0.00e+00	0	60	0	1039138816	44	4168
2026-01-24 12:38:26.95	192.43	24.86	-35.8	-37.3	17.4	0.00e+00	0	60	0	1061158912	43	4228
2026-01-24 12:38:30.99	192.94	25.45	-35.4	-36.9	17.8	0.00e+00	0	60	0	1084227584	42	4269
2026-01-24 12:38:35.03	193.47	26.05	-35.6	-37.1	17.6	0.00e+00	0	60	0	1107296256	42	4375
2026-01-24 12:38:39.06	194.02	26.66	-35.5	-37.0	17.7	0.00e+00	0	60	0	1129316352	42	4307
2026-01-24 12:38:43.10	194.60	27.28	-35.5	-37.0	17.8	0.00e+00	0	60	0	1152385024	42	4292
2026-01-24 12:38:47.15	195.19	27.92	-35.6	-37.1	17.7	0.00e+00	0	60	0	1175453696	42	4349
2026-01-24 12:38:51.19	195.81	28.56	-35.5	-37.0	17.7	0.00e+00	0	60	0	1197473792	42	4323
2026-01-24 12:38:55.22	196.45	29.22	-35.5	-37.0	17.8	0.00e+00	0	60	0	1220542464	42	4304
2026-01-24 12:38:59.26	197.13	29.88	-35.6	-37.1	17.7	0.00e+00	0	60	0	1243611136	42	4373
2026-01-24 12:39:03.30	197.82	30.56	-35.6	-37.0	17.8	0.00e+00	0	61	0	1265631232	42	4339
2026-01-24 12:39:07.34	198.55	31.25	-35.3	-36.7	18.1	0.00e+00	0	60	0	1288699904	42	4189
2026-01-24 12:39:11.38	199.31	31.96	-35.4	-36.8	18.0	0.00e+00	0	60	0	1311768576	42	4231
2026-01-24 12:39:15.42	200.10	32.67	-35.5	-37.0	17.9	0.00e+00	0	60	0	1334837248	42	4296
2026-01-24 12:39:19.46	200.93	33.39	-35.2	-36.6	18.2	0.00e+00	0	61	0	1356857344	42	4122
2026-01-24 12:39:23.50	201.79	34.13	-35.0	-36.4	18.5	0.00e+00	0	61	0	1379926016	41	4250
2026-01-24 12:39:27.54	202.70	34.88	-35.0	-36.4	18.4	0.00e+00	0	61	0	1401946112	41	4283
2026-01-24 12:39:31.58	203.64	35.63	-34.8	-36.1	18.7	0.00e+00	0	61	0	1425014784	41	4141
2026-01-24 12:39:35.62	204.63	36.40	-35.0	-36.4	18.4	0.00e+00	0	60	0	1448083456	41	4256
2026-01-24 12:39:39.66	205.67	37.17	-35.1	-36.6	18.3	0.00e+00	0	61	0	1470103552	41	4350
2026-01-24 12:39:43.70	206.76	37.95	-35.2	-36.6	18.3	0.00e+00	0	61	0	1493172224	41	4361
2026-01-24 12:39:47.74	207.89	38.74	-35.2	-36.6	18.3	0.00e+00	0	61	0	1516240896	41	4374
2026-01-24 12:39:51.78	209.09	39.53	-35.0	-36.3	18.5	0.00e+00	0	61	0	1539309568	41	4235
2026-01-24 12:39:55.82	210.34	40.33	-35.2	-36.6	18.3	0.00e+00	0	61	0	1561329664	41	4358
2026-01-24 12:39:59.85	211.65	41.12	-35.1	-36.4	18.4	0.00e+00	0	61	0	1584398336	41	4280
2026-01-24 12:40:03.89	213.04	41.92	-35.2	-36.6	18.2	0.00e+00	0	61	0	1606418432	41	4382
2026-01-24 12:40:07.93	214.49	42.72	-35.2	-36.7	18.2	0.00e+00	0	61	0	1629487104	41	4404
2026-01-24 12:40:11.96	216.00	43.51	-35.3	-36.7	18.1	0.00e+00	0	61	0	1652555776	41	4432
2026-01-24 12:40:16.00	217.60	44.29	-35.3	-36.8	18.1	0.00e+00	0	61	0	1674575872	41	4446
2026-01-24 12:40:20.04	219.28	45.07	-35.7	-37.2	17.7	0.00e+00	0	61	0	1697644544	41	4665
2026-01-24 12:40:24.08	221.04	45.83	-35.4	-36.8	18.1	0.00e+00	0	61	0	1720713216	41	4464
2026-01-24 12:40:28.12	222.89	46.58	-35.5	-37.0	18.0	0.00e+00	0	61	0	1743781888	41	4562
2026-01-24 12:40:32.16	224.82	47.30	-35.5	-37.0	17.9	0.00e+00	0	61	0	1765801984	41	4568
2026-01-24 12:40:36.19	226.84	48.00	-35.5	-36.9	18.0	0.00e+00	0	61	0	1788870656	41	4513
2026-01-24 12:40:40.23	228.95	48.68	-35.2	-36.5	18.4	0.00e+00	0	61	0	1810890752	41	4326
2026-01-24 12:40:44.27	231.15	49.32	-35.5	-36.9	18.0	0.00e+00	0	61	0	1833959424	41	4536
2026-01-24 12:40:48.32	233.45	49.92	-35.8	-37.3	17.7	0.00e+00	0	61	0	1857028096	42	4451
2026-01-24 12:40:52.35	235.83	50.48	-35.8	-37.2	17.7	0.00e+00	0	61	0	1879048192	42	4434
2026-01-24 12:40:56.39	238.30	50.99	-36.1	-37.6	17.4	0.00e+00	0	61	0	1902116864	42	4617
2026-01-24 12:41:00.43	240.85	51.45	-35.7	-37.2	17.7	0.00e+00	0	61	0	1925185536	42	4394
2026-01-24 12:41:04.47	243.47	51.86	-35.6	-37.0	17.9	0.00e+00	0	61	0	1948254208	42	4319
2026-01-24 12:41:08.51	246.16	52.21	-35.8	-37.3	17.7	0.00e+00	0	61	0	1970274304	42	4447
2026-01-24 12:41:12.55	248.91	52.49	-35.9	-37.4	17.5	0.00e+00	0	61	0	1993342976	42	4536
2026-01-24 12:41:16.58	251.69	52.70	-35.9	-37.3	17.6	0.00e+00	0	61	0	2015363072	42	4491
2026-01-24 12:41:20.62	254.52	52.85	-36.2	-37.7	17.2	0.00e+00	0	61	0	2038431744	42	4691
2026-01-24 12:41:24.65	257.36	52.93	-36.2	-37.8	17.1	0.00e+00	0	61	0	2061500416	43	4464
2026-01-24 12:41:28.70	260.22	52.93	-36.3	-37.9	17.0	0.00e+00	0	61	0	2083520512	43	4512
2026-01-24 12:41:32.74	263.07	52.86	-35.9	-37.4	17.5	0.00e+00	0	61	0	2106589184	43	4267
2026-01-24 12:41:36.78	265.90	52.73	-35.8	-37.3	17.7	0.00e+00	0	61	0	2129657856	43	4197
2026-01-24 12:41:40.81	268.69	52.52	-35.9	-37.4	17.5	0.00e+00	0	61	0	2151677952	43	4261
2026-01-24 12:41:44.85	271.44	52.25	-35.4	-36.8	18.0	0.00e+00	0	61	0	2174746624	42	4215
2026-01-24 12:41:48.89	274.14	51.91	-35.9	-37.4	17.4	0.00e+00	0	61	0	2197815296	42	4544
2026-01-24 12:41:52.92	276.76	51.51	-35.9	-37.4	17.5	0.00e+00	0	61	0	2219835392	42	4501
2026-01-24 12:41:56.97	279.32	51.06	-35.4	-36.9	18.0	0.00e+00	0	61	0	2242904064	42	4252
2026-01-24 12:42:01.01	281.80	50.55	-35.5	-37.0	17.9	0.00e+00	0	61	0	2265972736	42	4311
2026-01-24 12:42:05.04	284.18	50.00	-35.6	-37.0	17.8	0.00e+00	0	61	0	2287992832	42	4336
2026-01-24 12:42:09.08	286.48	49.41	-35.7	-37.1	17.8	0.00e+00	0	61	0	2311061504	42	4373
2026-01-24 12:42:13.12	288.69	48.78	-35.5	-36.8	18.3	0.00e+00	0	61	0	2334130176	42	4232
2026-01-24 12:42:17.16	290.81	48.11	-35.3	-36.6	18.6	0.00e+00	0	61	0	2356150272	42	4102
2026-01-24 12:42:21.20	292.85	47.41	-35.4	-36.7	18.4	0.00e+00	0	61	0	2379218944	42	4176
2026-01-24 12:42:25.24	294.79	46.69	-35.5	-36.8	18.3	0.00e+00	0	61	0	2402287616	42	4221
2026-01-24 12:42:29.28	296.64	45.95	-35.5	-36.8	18.3	0.00e+00	0	61	0	2424307712	42	4231
2026-01-24 12:42:33.32	298.41	45.20	-35.7	-37.0	18.1	0.00e+00	0	61	0	2447376384	42	4339
2026-01-24 12:42:37.36	300.09	44.42	-35.4	-36.7	18.4	0.00e+00	0	61	0	2470445056	42	4171
2026-01-24 12:42:41.40	301.70	43.64	-35.4	-36.7	18.4	0.00e+00	0	61	0	2492465152	42	4176
2026-01-24 12:42:45.44	303.23	42.86	-35.4	-36.7	18.4	0.00e+00	0	61	0	2515533824	42	4155
2026-01-24 12:42:49.47	304.68	42.06	-35.3	-36.6	18.5	0.00e+00	0	61	0	2538602496	42	4105
2026-01-24 12:42:53.51	306.07	41.27	-35.1	-36.4	18.7	0.00e+00	0	61	0	2560622592	42	4021
2026-01-24 12:42:57.55	307.39	40.48	-35.2	-36.4	18.6	0.00e+00	0	61	0	2583691264	42	4040
2026-01-24 12:43:01.59	308.65	39.68	-35.0	-36.2	18.8	0.00e+00	0	61	0	2606759936	41	4177
2026-01-24 12:43:05.64	309.85	38.89	-35.0	-36.3	18.8	0.00e+00	0	61	0	2628780032	41	4221
2026-01-24 12:43:09.68	311.00	38.11	-35.0	-36.3	18.7	0.00e+00	0	61	0	2651848704	41	4210
2026-01-24 12:43:13.72	312.09	37.33	-34.9	-36.1	18.9	0.00e+00	0	61	0	2674917376	41	4124
2026-01-24 12:43:17.76	313.13	36.56	-35.2	-36.4	18.6	0.00e+00	0	61	0	2696937472	41	4284
2026-01-24 12:43:21.80	314.12	35.80	-34.8	-36.0	19.0	0.00e+00	0	61	0	2720006144	41	4075
2026-01-24 12:43:25.83	315.07	35.05	-35.1	-36.3	18.7	0.00e+00	0	61	0	2743074816	41	4233
2026-01-24 12:43:29.87	315.98	34.31	-35.0	-36.3	18.7	0.00e+00	0	61	0	2766143488	41	4216
2026-01-24 12:43:33.91	316.85	33.57	-35.2	-36.4	18.6	0.00e+00	0	61	0	2788163584	41	4288
2026-01-24 12:43:37.96	317.68	32.85	-35.1	-36.4	18.6	0.00e+00	0	61	0	2811232256	41	4274
2026-01-24 12:43:41.99	318.48	32.14	-35.1	-36.4	18.6	0.00e+00	0	61	0	2833252352	41	4255
2026-01-24 12:43:46.03	319.24	31.44	-35.4	-36.7	18.3	0.00e+00	0	61	0	2856321024	41	4435
2026-01-24 12:43:50.07	319.97	30.75	-35.7	-37.0	18.0	0.00e+00	0	61	0	2879389696	41	4594
2026-01-24 12:43:54.11	320.67	30.07	-35.5	-36.8	18.1	0.00e+00	0	61	0	2901409792	41	4487
2026-01-24 12:43:58.15	321.35	29.41	-35.4	-36.8	18.2	0.00e+00	0	61	0	2924478464	41	4451
2026-01-24 12:44:02.19	322.00	28.75	-35.2	-36.5	18.5	0.00e+00	0	61	0	2947547136	41	4317
2026-01-24 12:44:06.22	322.62	28.11	-35.4	-36.8	18.1	0.00e+00	0	61	0	2970615808	41	4464
2026-01-24 12:44:10.26	323.22	27.48	-35.5	-36.8	18.1	0.00e+00	0	61	0	2992635904	41	4490
2026-01-24 12:44:14.29	323.79	26.86	-35.2	-36.5	18.4	0.00e+00	0	61	0	3015704576	41	4318
2026-01-24 12:44:18.33	324.35	26.25	-35.3	-36.6	18.3	0.00e+00	0	61	0	3037724672	41	4356
2026-01-24 12:44:22.38	324.89	25.65	-35.4	-36.8	18.1	0.00e+00	0	61	0	3060793344	41	4460
2026-01-24 12:44:26.41	325.40	25.07	-35.4	-36.7	18.1	0.00e+00	0	62	0	3083862016	41	4430
2026-01-24 12:44:30.45	325.90	24.49	-35.5	-36.9	18.0	0.00e+00	0	61	0	3105882112	41	4495
2026-01-24 12:44:34.48	326.38	23.93	-35.9	-37.3	17.6	0.00e+00	0	61	0	3128950784	42	4444
2026-01-24 12:44:38.52	326.84	23.37	-36.1	-37.5	17.4	0.00e+00	0	61	0	3152019456	42	4585
2026-01-24 12:44:42.56	327.29	22.82	-36.1	-37.5	17.3	0.00e+00	0	61	0	3174039552	42	4579
2026-01-24 12:44:46.60	327.73	22.29	-36.1	-37.5	17.3	0.00e+00	0	61	0	3197108224	42	4574
2026-01-24 12:44:50.63	328.15	21.76	-36.0	-37.5	17.3	0.00e+00	0	61	0	3220176896	42	4555
2026-01-24 12:44:54.67	328.56	21.25	-36.3	-37.8	17.0	0.00e+00	0	61	0	3242196992	43	4452
2026-01-24 12:44:58.72	328.95	20.74	-36.3	-37.8	16.9	0.00e+00	0	61	0	3265265664	43	4486
2026-01-24 12:45:02.76	329.33	20.24	-36.4	-37.9	16.8	0.00e+00	0	61	0	3288334336	43	4521
2026-01-24 12:45:06.79	329.70	19.75	-36.5	-38.0	16.7	0.00e+00	0	62	0	3310354432	43	4581
2026-01-24 12:45:10.83	330.06	19.27	-36.5	-38.0	16.7	0.00e+00	0	61	0	3333423104	43	4597
2026-01-24 12:45:14.87	330.41	18.79	-36.7	-38.3	16.4	0.00e+00	0	61	0	3356491776	43	4717
2026-01-24 12:45:18.91	330.75	18.33	-37.0	-38.5	16.3	0.00e+00	0	61	0	3378511872	44	4591
2026-01-24 12:45:22.95	331.08	17.87	-37.1	-38.8	16.0	0.00e+00	0	62	0	3401580544	44	4716
2026-01-24 12:45:26.99	331.40	17.42	-37.2	-38.8	15.9	0.00e+00	0	61	0	3424649216	44	4759
2026-01-24 12:45:31.03	331.71	16.98	-37.4	-39.1	15.7	0.00e+00	0	61	0	3446669312	45	4599
2026-01-24 12:45:35.06	332.02	16.54	-37.3	-39.1	15.6	0.00e+00	0	61	0	3469737984	45	4600
2026-01-24 12:45:39.11	332.31	16.11	-37.6	-39.4	15.2	0.00e+00	0	61	0	3492806656	45	4799
2026-01-24 12:45:43.15	332.60	15.69	-37.6	-39.4	15.2	0.00e+00	0	61	0	3514826752	45	4802
2026-01-24 12:45:47.18	332.88	15.28	-37.7	-39.6	15.0	0.00e+00	0	62	0	3537895424	46	4605
2026-01-24 12:45:51.23	333.15	14.87	-37.8	-39.6	15.0	0.00e+00	0	61	0	3560964096	46	4620
2026-01-24 12:45:55.26	333.42	14.47	-37.9	-39.8	14.7	0.00e+00	0	61	0	3582984192	46	4737
2026-01-24 12:45:59.31	333.68	14.07	-37.9	-39.9	14.6	0.00e+00	0	61	0	3606052864	46	4765
2026-01-24 12:46:03.35	333.93	13.68	-38.0	-39.9	14.5	1.10e-06	0	61	0	3629121536	46	4807
2026-01-24 12:46:07.39	334.18	13.29	-38.1	-40.1	14.3	2.20e-06	0	61	0	3651141632	46	4901
2026-01-24 12:46:11.42	334.42	12.91	-38.1	-40.1	14.2	1.10e-06	0	61	0	3674210304	46	4904
2026-01-24 12:46:15.46	334.65	12.54	-38.1	-40.2	14.1	3.40e-06	0	61	0	3697278976	46	4944
2026-01-24 12:46:19.50	334.88	12.17	-38.1	-40.1	14.2	5.70e-06	0	62	0	3719299072	47	4615
2026-01-24 12:46:23.54	335.11	11.81	-38.2	-40.2	13.9	6.80e-06	0	61	0	3742367744	47	4685
2026-01-24 12:46:27.57	335.33	11.45	-38.1	-40.2	13.9	4.50e-06	0	61	0	3765436416	47	4679
2026-01-24 12:46:31.61	335.54	11.10	-38.2	-40.3	13.7	8.00e-06	0	61	0	3787456512	47	4745
2026-01-24 12:46:35.65	335.75	10.75	-38.2	-40.3	13.6	6.80e-06	0	62	0	3810525184	47	4759
2026-01-24 12:46:39.68	335.96	10.41	-38.2	-40.3	13.6	1.02e-05	0	62	0	3833593856	47	4750
2026-01-24 12:46:43.72	336.16	10.07	-38.2	-40.4	13.4	2.74e-05	0	62	0	3855613952	47	4812
2026-01-24 12:46:47.76	336.36	9.73	-38.3	-40.6	13.2	4.00e-05	0	62	0	3878682624	47	4876
2026-01-24 12:46:51.80	336.55	9.40	-38.3	-40.5	13.2	4.57e-05	0	62	0	3901751296	47	4869
2026-01-24 12:46:55.84	336.74	9.07	-38.5	-40.8	12.8	6.52e-05	0	61	0	3923771392	47	5002
2026-01-24 12:46:59.87	336.92	8.75	-38.6	-41.1	12.4	1.86e-04	0	62	0	3946840064	47	5195
2026-01-24 12:47:03.91	337.11	8.43	-38.6	-41.1	12.3	2.67e-04	0	62	0	3969908736	47	5187
2026-01-24 12:47:07.95	337.28	8.12	-38.3	-40.8	12.5	1.90e-04	0	61	0	3991928832	47	4987
2026-01-24 12:47:12.00	337.46	7.81	-44.7	-56.2	3.8	8.46e-01	0	61	104	4001366016	59	14757
2026-01-24 12:47:16.04	337.63	7.50	-45.1	-56.9	3.8	8.46e-01	0	61	104	4001366016	60	15140
2026-01-24 12:47:20.08	337.80	7.19	-45.1	-56.9	3.8	8.46e-01	0	62	104	4001366016	60	15163
2026-01-24 12:47:24.13	337.96	6.89	-45.2	-56.9	3.8	8.45e-01	0	62	104	4001366016	61	14361
2026-01-24 12:47:28.17	338.13	6.59	-45.1	-56.8	3.8	8.46e-01	0	62	104	4001366016	60	15019
2026-01-24 12:47:32.21	338.29	6.30	-45.1	-56.9	3.8	8.45e-01	0	62	104	4001366016	60	15064
2026-01-24 12:47:36.25	338.44	6.01	-45.1	-56.8	3.8	8.47e-01	0	62	104	4001366016	60	15017
2026-01-24 12:47:40.29	338.60	5.72	-45.0	-56.8	3.8	8.46e-01	0	62	104	4001366016	60	15003
2026-01-24 12:47:44.33	338.75	5.44	-45.1	-56.8	3.8	8.46e-01	0	62	104	4001366016	60	14999
2026-01-24 12:47:48.37	338.90	5.15	-45.1	-56.8	3.8	8.45e-01	0	62	104	4001366016	60	14973
2026-01-24 12:47:52.41	339.04	4.87	-44.8	-56.8	3.8	8.46e-01	0	62	104	4001366016	60	14987
2026-01-24 12:47:56.45	339.19	4.60	-45.1	-56.8	3.8	8.46e-01	0	62	104	4001366016	60	14953
2026-01-24 12:48:00.49	339.33	4.32	-45.0	-56.8	3.8	8.46e-01	0	62	104	4001366016	60	14952
2026-01-24 12:48:04.54	339.47	4.05	-45.0	-56.8	3.8	8.46e-01	0	62	104	4001366016	60	14928
2026-01-24 12:48:08.58	339.61	3.78	-45.0	-56.8	3.8	8.46e-01	0	62	104	4001366016	60	14885
2026-01-24 12:48:12.62	339.74	3.52	-44.9	-56.8	3.8	8.45e-01	0	62	104	4001366016	60	14880
2026-01-24 12:48:16.66	339.87	3.25	-45.0	-56.8	3.8	8.46e-01	0	62	104	4001366016	60	14922
2026-01-24 12:48:20.71	340.00	2.99	-45.0	-56.8	3.8	8.45e-01	0	62	104	4001366016	60	14902
2026-01-24 12:48:24.75	340.13	2.73	-45.0	-56.8	3.8	8.45e-01	0	62	104	4001366016	60	14888
2026-01-24 12:48:28.79	340.26	2.48	-45.0	-56.8	3.8	8.45e-01	0	62	104	4001366016	60	14892
2026-01-24 12:48:32.83	340.38	2.22	-45.0	-56.7	3.8	8.47e-01	0	62	104	4001366016	60	14826
2026-01-24 12:48:36.87	340.51	1.97	-45.0	-56.8	3.8	8.46e-01	0	62	104	4001366016	60	14884

#Closed at: 2026-01-24 12:48:38
#Recorded file [4001 MB]: D:/lorett/data/31039_260124_153420.dat