passes_logs/2026/01/24/R2.0S_Moscow/R2.0S_Moscow__20260124_031341_AQUA_rec.log

#Pass ID: 20260124_031341_AQUA
#Satellite: AQUA
#Configuration: AQUA
#almurnet v.1.7.20251203
#Start time: 2026-01-24 03:13:42

#Version: 2.2.20231116
#Station: R2.0S_Moscow
#Location: 37.707566 lon 55.798166 lat
#TLE: 1 27424U 02022A   26022.96978264  .00001879  00000+0  38593-3 0  9993
#TLE: 2 27424  98.4100 349.5315 0001958  69.4371  21.4765 14.61848807262053

#Time	Az	El	Level	Level2	SNR	BER	BlckErr	Temp	State	Recorded	gain1	gain2
2026-01-24 03:13:42.54	5.30	2.06	-41.0	-60.0	3.8	7.43e-01	0	52	0	0	54	30673
2026-01-24 03:13:45.58	5.03	2.23	-41.0	-60.0	3.8	7.46e-01	0	53	104	0	52	34456
2026-01-24 03:13:48.61	4.76	2.39	-41.0	-60.0	3.8	7.46e-01	0	53	104	0	52	34342
2026-01-24 03:13:51.64	4.48	2.56	-41.0	-60.0	3.8	7.47e-01	0	53	104	0	52	34311
2026-01-24 03:13:54.67	4.20	2.72	-41.0	-60.0	3.8	7.47e-01	0	53	104	0	52	34327
2026-01-24 03:13:57.70	3.92	2.89	-41.0	-60.0	3.8	7.44e-01	0	53	104	0	52	34327
2026-01-24 03:14:00.73	3.64	3.06	-41.0	-60.0	3.8	7.43e-01	0	54	104	0	52	34341
2026-01-24 03:14:03.76	3.35	3.22	-41.0	-60.0	3.8	7.46e-01	0	54	104	0	52	34317
2026-01-24 03:14:06.80	3.05	3.39	-41.0	-60.0	3.8	7.42e-01	0	54	104	0	52	34308
2026-01-24 03:14:09.83	2.75	3.56	-41.0	-60.0	3.8	7.48e-01	0	54	104	0	52	34282
2026-01-24 03:14:12.86	2.45	3.73	-41.0	-60.0	3.8	7.46e-01	0	54	104	0	52	34273
2026-01-24 03:14:15.89	2.15	3.90	-41.0	-60.0	3.8	7.46e-01	0	55	104	0	52	34355
2026-01-24 03:14:18.92	1.84	4.07	-41.0	-60.0	3.8	7.48e-01	0	54	104	0	52	34259
2026-01-24 03:14:21.95	1.52	4.24	-41.0	-60.0	3.8	7.47e-01	0	55	104	0	52	34249
2026-01-24 03:14:24.98	1.20	4.41	-41.0	-60.0	3.8	7.46e-01	0	55	104	0	52	34247
2026-01-24 03:14:28.01	0.88	4.58	-41.0	-60.0	3.8	7.45e-01	0	55	104	0	52	34246
2026-01-24 03:14:31.04	0.56	4.75	-41.0	-60.0	3.8	7.45e-01	0	55	104	0	52	34145
2026-01-24 03:14:34.06	0.23	4.92	-41.0	-59.9	3.8	7.42e-01	0	55	104	0	52	34010
2026-01-24 03:14:37.10	359.89	5.09	-41.0	-59.9	3.8	7.47e-01	0	56	104	0	52	33997
2026-01-24 03:14:40.13	359.55	5.26	-41.0	-60.0	3.8	7.46e-01	0	56	104	0	52	34183
2026-01-24 03:14:43.16	359.21	5.44	-41.0	-60.0	3.8	7.42e-01	0	56	104	0	52	34181
2026-01-24 03:14:46.19	358.86	5.61	-41.0	-60.0	3.8	7.46e-01	0	56	104	0	52	34306
2026-01-24 03:14:49.22	358.50	5.78	-41.0	-60.0	3.8	7.41e-01	0	56	104	0	52	34211
2026-01-24 03:14:52.25	358.14	5.96	-41.0	-60.0	3.8	7.47e-01	0	56	104	0	52	34174
2026-01-24 03:14:55.28	357.78	6.13	-41.0	-60.0	3.8	7.43e-01	0	57	104	0	52	34186
2026-01-24 03:14:58.31	357.41	6.31	-41.0	-60.0	3.8	7.46e-01	0	57	104	0	52	34320
2026-01-24 03:15:01.34	357.04	6.48	-41.0	-60.0	3.8	7.45e-01	0	57	104	0	52	34243
2026-01-24 03:15:04.38	356.66	6.65	-41.0	-60.0	3.8	7.45e-01	0	57	104	0	52	34178
2026-01-24 03:15:07.41	356.28	6.83	-41.0	-60.0	3.8	7.48e-01	0	57	104	0	52	34247
2026-01-24 03:15:10.44	355.89	7.00	-41.0	-60.0	3.8	7.46e-01	0	57	104	0	52	34291
2026-01-24 03:15:13.47	355.50	7.18	-41.0	-60.0	3.8	7.42e-01	0	57	104	0	52	34261
2026-01-24 03:15:16.50	355.10	7.35	-41.0	-60.0	3.8	7.47e-01	0	57	104	0	52	34230
2026-01-24 03:15:19.53	354.69	7.53	-41.0	-60.0	3.8	7.44e-01	0	57	104	0	52	34169
2026-01-24 03:15:22.57	354.28	7.71	-41.0	-60.0	3.8	7.46e-01	0	57	104	0	52	34172
2026-01-24 03:15:25.60	353.87	7.88	-41.0	-60.0	3.8	7.44e-01	0	58	104	0	52	34162
2026-01-24 03:15:28.63	353.44	8.06	-41.1	-60.2	3.8	7.42e-01	0	58	104	0	52	34883
2026-01-24 03:15:31.66	353.02	8.23	-41.3	-60.3	3.8	7.45e-01	0	57	104	0	53	33426
2026-01-24 03:15:34.69	352.59	8.41	-41.4	-60.3	3.8	7.45e-01	0	58	104	0	53	33667
2026-01-24 03:15:37.72	352.15	8.58	-41.5	-60.5	3.8	7.46e-01	0	58	104	0	53	34244
2026-01-24 03:15:40.75	351.70	8.76	-41.4	-60.4	3.8	7.45e-01	0	58	104	0	53	33891
2026-01-24 03:15:43.78	351.25	8.93	-41.6	-60.6	3.8	7.47e-01	0	58	104	0	54	32571
2026-01-24 03:15:46.81	350.80	9.11	-41.6	-60.6	3.8	7.43e-01	0	58	104	0	54	32641
2026-01-24 03:15:49.84	350.33	9.28	-41.7	-60.7	3.8	7.43e-01	0	58	104	0	54	33057
2026-01-24 03:15:52.87	349.87	9.45	-41.5	-60.6	3.8	7.48e-01	0	58	104	0	54	32559
2026-01-24 03:15:55.90	349.39	9.63	-41.6	-60.6	3.8	7.41e-01	0	58	104	0	54	32717
2026-01-24 03:15:58.93	348.91	9.80	-41.7	-60.7	3.8	7.46e-01	0	58	104	0	54	33134
2026-01-24 03:16:01.96	348.42	9.97	-42.0	-60.9	3.8	7.46e-01	0	58	104	0	54	33996
2026-01-24 03:16:04.99	347.93	10.15	-42.0	-60.9	3.8	7.47e-01	0	58	104	0	54	33831
2026-01-24 03:16:08.01	347.43	10.32	-42.0	-60.9	3.8	7.44e-01	0	58	104	0	54	33957
2026-01-24 03:16:11.04	346.92	10.49	-41.9	-60.9	3.8	7.44e-01	0	59	104	0	54	33910
2026-01-24 03:16:14.07	346.41	10.66	-41.7	-60.7	3.8	7.47e-01	0	59	104	0	54	32929
2026-01-24 03:16:17.10	345.89	10.83	-41.6	-60.6	3.8	7.43e-01	0	59	104	0	54	32662
2026-01-24 03:16:20.13	345.37	10.99	-41.6	-60.6	3.8	7.47e-01	0	59	104	0	54	32626
2026-01-24 03:16:23.16	344.83	11.16	-41.6	-60.6	3.8	7.42e-01	0	59	104	0	54	32794
2026-01-24 03:16:26.18	344.30	11.33	-41.6	-60.6	3.8	7.47e-01	0	59	104	0	54	32692
2026-01-24 03:16:29.21	343.75	11.49	-41.3	-60.3	3.8	7.44e-01	0	59	104	0	54	31589
2026-01-24 03:16:32.24	343.20	11.66	-41.5	-60.5	3.8	7.45e-01	0	59	104	0	54	32213
2026-01-24 03:16:35.26	342.64	11.82	-41.5	-60.5	3.8	7.48e-01	0	59	104	0	54	32323
2026-01-24 03:16:38.30	342.07	11.98	-41.4	-60.5	3.8	7.46e-01	0	59	104	0	54	32191
2026-01-24 03:16:41.33	341.50	12.14	-41.4	-60.4	3.8	7.46e-01	0	59	104	0	54	32083
2026-01-24 03:16:44.35	340.92	12.30	-41.5	-60.6	3.8	7.45e-01	0	59	104	0	54	32724
2026-01-24 03:16:47.38	340.33	12.45	-41.6	-60.6	3.8	7.44e-01	0	59	104	0	54	32853
2026-01-24 03:16:50.41	339.74	12.61	-42.4	-60.3	3.8	7.45e-01	0	59	104	0	56	28266
2026-01-24 03:16:53.44	339.14	12.76	-43.2	-60.8	3.8	7.44e-01	0	59	104	0	57	28167
2026-01-24 03:16:56.47	338.53	12.91	-42.9	-58.0	3.8	7.47e-01	0	59	104	0	56	21566
2026-01-24 03:16:59.49	337.92	13.06	-42.5	-57.8	3.8	7.44e-01	0	60	104	0	55	22380
2026-01-24 03:17:02.53	337.29	13.21	-41.7	-55.0	3.8	7.46e-01	0	60	104	0	55	16271
2026-01-24 03:17:05.56	336.66	13.35	-43.9	-59.5	3.8	7.45e-01	0	60	104	0	58	22838
2026-01-24 03:17:08.58	336.03	13.49	-42.2	-55.5	3.8	7.46e-01	0	59	104	0	55	17259
2026-01-24 03:17:11.61	335.39	13.63	-41.8	-54.8	3.8	7.49e-01	0	60	104	0	55	15854
2026-01-24 03:17:14.64	334.74	13.77	-43.1	-57.1	3.8	7.46e-01	0	60	104	0	56	19540
2026-01-24 03:17:17.67	334.09	13.91	-42.7	-56.5	3.8	7.44e-01	0	60	104	0	57	17137
2026-01-24 03:17:20.70	333.43	14.04	-42.7	-56.2	3.8	7.44e-01	0	60	104	0	55	18542
2026-01-24 03:17:23.73	332.76	14.17	-43.8	-58.3	3.8	7.45e-01	0	60	104	0	59	18773
2026-01-24 03:17:26.76	332.09	14.29	-42.5	-55.8	3.8	7.47e-01	0	60	104	0	56	16849
2026-01-24 03:17:29.79	331.41	14.42	-44.6	-60.9	3.8	7.45e-01	0	60	104	0	60	24021
2026-01-24 03:17:32.81	330.73	14.54	-43.6	-58.1	3.8	7.48e-01	0	60	104	0	57	20748
2026-01-24 03:17:35.84	330.03	14.65	-42.6	-56.0	3.8	7.47e-01	0	60	104	0	57	16247
2026-01-24 03:17:38.87	329.34	14.77	-44.5	-59.8	3.8	7.45e-01	0	60	104	0	59	22425
2026-01-24 03:17:41.90	328.63	14.88	-42.4	-55.6	3.8	7.45e-01	0	60	104	0	56	16358
2026-01-24 03:17:44.93	327.92	14.98	-43.2	-56.8	3.8	7.47e-01	0	60	104	0	56	18827
2026-01-24 03:17:47.96	327.21	15.09	-44.0	-58.6	3.8	7.42e-01	0	60	104	0	59	19506
2026-01-24 03:17:50.98	326.49	15.18	-42.7	-56.0	3.8	7.45e-01	0	60	104	0	57	16163
2026-01-24 03:17:54.01	325.77	15.28	-45.1	-63.2	3.8	7.46e-01	0	60	104	0	60	31183
2026-01-24 03:17:57.04	325.04	15.37	-44.0	-58.7	3.8	7.44e-01	0	60	104	0	58	20913
2026-01-24 03:18:00.06	324.31	15.46	-42.2	-55.3	3.8	7.47e-01	0	60	104	0	56	15779
2026-01-24 03:18:03.09	323.57	15.54	-43.8	-58.1	3.8	7.45e-01	0	60	104	0	58	19549
2026-01-24 03:18:06.12	322.83	15.62	-42.8	-56.2	3.8	7.47e-01	0	60	104	0	57	16552
2026-01-24 03:18:09.15	322.08	15.69	-43.2	-56.8	3.9	7.38e-01	0	60	104	0	57	17739
2026-01-24 03:18:12.17	321.33	15.76	-44.5	-60.5	3.9	7.44e-01	0	60	104	0	60	22926
2026-01-24 03:18:15.20	320.58	15.83	-42.3	-55.5	3.8	7.44e-01	0	60	104	0	56	16208
2026-01-24 03:18:18.23	319.82	15.89	-43.5	-57.8	3.9	7.45e-01	0	60	104	0	58	18768
2026-01-24 03:18:21.26	319.06	15.94	-45.2	-63.3	3.8	7.38e-01	0	60	104	0	61	29813
2026-01-24 03:18:24.29	318.29	15.99	-42.2	-55.1	3.8	7.42e-01	0	60	104	0	56	15510
2026-01-24 03:18:27.31	317.53	16.04	-43.6	-57.9	3.9	7.45e-01	0	60	104	0	58	19123
2026-01-24 03:18:30.34	316.76	16.08	-42.3	-55.2	3.8	7.44e-01	0	60	104	0	56	15648
2026-01-24 03:18:33.37	315.99	16.12	-43.0	-56.5	3.9	7.44e-01	0	60	104	0	58	16239
2026-01-24 03:18:36.40	315.21	16.15	-42.6	-55.8	3.8	7.47e-01	0	61	104	0	57	15854
2026-01-24 03:18:39.43	314.44	16.18	-42.2	-55.0	3.8	7.44e-01	0	60	104	0	56	15247
2026-01-24 03:18:42.46	313.66	16.20	-42.3	-55.3	3.8	7.43e-01	0	61	104	0	56	15795
2026-01-24 03:18:45.48	312.89	16.21	-44.2	-58.7	3.9	7.44e-01	0	60	104	0	59	19711
2026-01-24 03:18:48.51	312.11	16.22	-42.3	-55.4	3.8	7.43e-01	0	61	104	0	56	16113
2026-01-24 03:18:51.54	311.33	16.23	-43.9	-57.9	3.8	7.44e-01	0	60	104	0	59	18059
2026-01-24 03:18:54.57	310.55	16.23	-42.3	-55.3	3.8	7.43e-01	0	60	104	0	56	15908
2026-01-24 03:18:57.60	309.77	16.23	-44.0	-58.4	3.8	7.45e-01	0	61	104	0	59	19006
2026-01-24 03:19:00.63	308.99	16.22	-43.2	-56.6	3.8	7.46e-01	0	61	104	0	56	18495
2026-01-24 03:19:03.65	308.22	16.20	-42.2	-55.1	3.8	7.46e-01	0	60	104	0	56	15506
2026-01-24 03:19:06.68	307.44	16.19	-42.8	-55.8	3.8	7.45e-01	0	60	104	0	56	16710
2026-01-24 03:19:09.71	306.66	16.16	-43.0	-56.8	3.9	7.43e-01	0	61	104	0	58	16862
2026-01-24 03:19:12.74	305.89	16.13	-44.5	-59.6	3.8	7.44e-01	0	60	104	0	59	21907
2026-01-24 03:19:15.77	305.11	16.10	-44.1	-59.0	3.8	7.46e-01	0	60	104	0	58	21591
2026-01-24 03:19:18.80	304.34	16.06	-42.3	-55.2	3.8	7.44e-01	0	61	104	0	56	15601
2026-01-24 03:19:21.82	303.58	16.01	-43.4	-57.6	3.8	7.45e-01	0	61	104	0	58	18309
2026-01-24 03:19:24.85	302.81	15.97	-45.3	-63.6	3.7	7.48e-01	0	61	104	0	61	30817
2026-01-24 03:19:27.88	302.04	15.91	-42.4	-55.6	3.8	7.45e-01	0	61	104	0	56	16497
2026-01-24 03:19:30.91	301.28	15.85	-43.5	-58.0	3.8	7.45e-01	0	60	104	0	57	20335
2026-01-24 03:19:33.94	300.53	15.79	-42.2	-55.3	3.8	7.47e-01	0	60	104	0	56	15942
2026-01-24 03:19:36.96	299.77	15.72	-44.6	-60.7	3.7	7.45e-01	0	61	104	0	60	23348
2026-01-24 03:19:39.99	299.02	15.65	-44.8	-61.0	3.8	7.46e-01	0	61	104	0	60	24382
2026-01-24 03:19:43.02	298.28	15.58	-42.2	-55.3	3.8	7.46e-01	0	61	104	0	56	15793
2026-01-24 03:19:46.05	297.54	15.49	-44.1	-59.3	3.8	7.46e-01	0	61	104	0	59	21088
2026-01-24 03:19:49.08	296.80	15.41	-45.0	-63.3	3.8	7.44e-01	0	61	104	0	60	31487
2026-01-24 03:19:52.10	296.07	15.32	-42.1	-55.1	3.8	7.45e-01	0	61	104	0	56	15551
2026-01-24 03:19:55.13	295.34	15.23	-43.9	-58.8	3.9	7.45e-01	0	61	104	0	58	21230
2026-01-24 03:19:58.16	294.62	15.13	-42.2	-54.9	3.8	7.43e-01	0	61	104	0	56	15166
2026-01-24 03:20:01.19	293.90	15.03	-44.1	-58.6	3.9	7.47e-01	0	61	104	0	59	19469
2026-01-24 03:20:04.22	293.18	14.92	-43.7	-58.3	3.9	7.44e-01	0	61	104	0	59	18829
2026-01-24 03:20:07.24	292.48	14.82	-41.9	-54.5	3.8	7.48e-01	0	61	104	0	55	15291
2026-01-24 03:20:10.27	291.78	14.70	-43.0	-56.9	3.8	7.42e-01	0	61	104	0	58	17006
2026-01-24 03:20:13.30	291.08	14.59	-44.7	-63.1	3.8	7.42e-01	0	61	104	0	59	32799
2026-01-24 03:20:16.34	290.39	14.47	-42.1	-55.5	3.8	7.41e-01	0	61	104	0	56	16134
2026-01-24 03:20:19.37	289.70	14.35	-42.9	-57.1	3.8	7.45e-01	0	61	104	0	57	18493
2026-01-24 03:20:22.39	289.03	14.22	-42.0	-55.2	3.8	7.43e-01	0	61	104	0	56	15615
2026-01-24 03:20:25.42	288.35	14.09	-44.5	-60.8	3.8	7.45e-01	0	61	104	0	59	25073
2026-01-24 03:20:28.45	287.69	13.96	-41.5	-45.1	17.0	6.04e-01	0	61	0	1572864	55	5205
2026-01-24 03:20:31.48	287.03	13.83	-41.7	-45.5	16.9	6.01e-01	0	61	0	6815744	55	5454
2026-01-24 03:20:34.51	286.37	13.69	-41.8	-45.9	16.6	6.02e-01	0	61	0	12582912	54	5994
2026-01-24 03:20:37.53	285.73	13.55	-41.5	-45.4	17.0	6.02e-01	0	61	0	18350080	54	5700
2026-01-24 03:20:40.56	285.09	13.41	-41.6	-45.5	17.0	6.02e-01	0	61	0	24117248	54	5775
2026-01-24 03:20:43.59	284.46	13.27	-41.4	-45.1	17.3	6.02e-01	0	61	0	29884416	54	5502
2026-01-24 03:20:46.62	283.83	13.12	-41.5	-45.4	16.9	6.02e-01	0	61	0	35127296	54	5706
2026-01-24 03:20:49.65	283.21	12.97	-41.2	-44.8	17.6	6.02e-01	0	61	0	40894464	54	5290
2026-01-24 03:20:52.68	282.60	12.82	-41.7	-45.7	16.9	6.04e-01	0	61	0	46661632	54	5860
2026-01-24 03:20:55.71	281.99	12.67	-41.6	-45.2	17.4	6.02e-01	0	61	0	52428800	54	5586
2026-01-24 03:20:58.74	281.39	12.51	-41.6	-45.3	17.3	6.02e-01	0	61	0	58195968	54	5612
2026-01-24 03:21:01.77	280.80	12.36	-41.7	-45.5	17.1	6.04e-01	0	61	0	63963136	54	5735
2026-01-24 03:21:04.79	280.21	12.20	-41.5	-45.2	17.4	6.02e-01	0	61	0	69730304	54	5583
2026-01-24 03:21:07.82	279.63	12.04	-41.5	-45.2	17.3	6.03e-01	0	61	0	74973184	54	5566
2026-01-24 03:21:10.85	279.06	11.88	-41.6	-45.3	17.2	6.04e-01	0	61	0	80740352	54	5641
2026-01-24 03:21:13.88	278.49	11.72	-41.7	-45.5	17.1	6.04e-01	0	61	0	86507520	54	5738
2026-01-24 03:21:16.91	277.93	11.55	-41.6	-45.4	17.1	6.01e-01	0	61	0	92274688	54	5663
2026-01-24 03:21:19.94	277.38	11.39	-41.5	-45.3	17.0	6.02e-01	0	61	0	98041856	54	5633
2026-01-24 03:21:22.97	276.84	11.22	-41.5	-45.4	16.8	6.03e-01	0	61	0	103284736	54	5715
2026-01-24 03:21:26.00	276.30	11.06	-41.5	-45.5	16.7	6.03e-01	0	61	0	109051904	54	5742
2026-01-24 03:21:29.03	275.76	10.89	-41.7	-46.0	16.1	6.01e-01	0	61	0	114819072	54	6065
2026-01-24 03:21:32.05	275.24	10.72	-41.6	-46.0	15.9	6.03e-01	0	61	0	120586240	54	6102
2026-01-24 03:21:35.09	274.72	10.55	-41.7	-46.3	15.5	6.03e-01	0	61	0	126353408	54	6292
2026-01-24 03:21:38.11	274.21	10.38	-41.7	-46.6	15.1	6.05e-01	0	61	0	132120576	54	6524
2026-01-24 03:21:41.14	273.70	10.21	-41.9	-47.3	14.2	6.03e-01	0	61	0	137887744	54	7071
2026-01-24 03:21:44.17	273.20	10.03	-42.1	-47.9	13.5	6.07e-01	0	61	0	143130624	54	7628
2026-01-24 03:21:47.20	272.71	9.86	-42.1	-48.3	13.0	6.06e-01	0	61	0	148897792	54	7931
2026-01-24 03:21:50.23	272.22	9.69	-42.2	-48.7	12.5	6.07e-01	0	61	0	154664960	55	7886
2026-01-24 03:21:53.26	271.74	9.51	-42.2	-48.8	12.4	6.08e-01	0	61	0	160432128	55	7968
2026-01-24 03:21:56.29	271.27	9.34	-42.1	-48.6	12.5	6.08e-01	0	61	0	166199296	55	7747
2026-01-24 03:21:59.31	270.80	9.17	-42.0	-48.5	12.5	6.08e-01	0	61	0	171442176	55	7708
2026-01-24 03:22:02.34	270.34	8.99	-42.0	-48.9	12.0	6.04e-01	0	61	0	177209344	55	8048
2026-01-24 03:22:05.37	269.88	8.82	-42.1	-49.9	10.7	6.17e-01	0	61	0	182976512	55	9045
2026-01-24 03:22:08.40	269.43	8.64	-42.0	-50.6	9.9	6.22e-01	0	61	0	188743680	55	9718
2026-01-24 03:22:11.43	268.99	8.46	-42.0	-52.0	8.2	6.41e-01	60	61	0	194510848	55	11488
2026-01-24 03:22:14.45	268.55	8.29	-42.1	-53.0	7.2	6.56e-01	91	61	0	200278016	55	12890
2026-01-24 03:22:17.49	268.12	8.11	-42.2	-53.6	6.7	6.70e-01	92	61	0	205520896	55	13827
2026-01-24 03:22:20.52	267.69	7.94	-45.4	-64.0	3.8	7.41e-01	0	61	104	209190912	61	32315
2026-01-24 03:22:23.55	267.27	7.76	-46.1	-64.6	3.8	7.44e-01	0	61	104	209190912	62	32807
2026-01-24 03:22:26.58	266.85	7.58	-46.2	-64.8	3.8	7.48e-01	0	61	104	209190912	62	33314
2026-01-24 03:22:29.61	266.44	7.41	-46.2	-64.8	3.8	7.44e-01	0	61	104	209190912	63	31614
2026-01-24 03:22:32.65	266.04	7.23	-46.2	-64.7	3.8	7.46e-01	0	61	104	209190912	63	31196
2026-01-24 03:22:35.68	265.64	7.06	-46.2	-64.7	3.8	7.45e-01	0	61	104	209190912	63	31346
2026-01-24 03:22:38.71	265.25	6.88	-46.1	-64.6	3.8	7.49e-01	0	61	104	209190912	63	31010
2026-01-24 03:22:41.74	264.86	6.71	-46.1	-64.6	3.8	7.48e-01	0	62	104	209190912	63	30937
2026-01-24 03:22:44.77	264.47	6.53	-46.1	-64.6	3.8	7.44e-01	0	61	104	209190912	63	30932
2026-01-24 03:22:47.80	264.09	6.35	-46.1	-64.6	3.8	7.46e-01	0	61	104	209190912	63	30930
2026-01-24 03:22:50.84	263.72	6.18	-46.1	-64.6	3.8	7.45e-01	0	61	104	209190912	63	30924
2026-01-24 03:22:53.87	263.35	6.00	-46.1	-64.6	3.8	7.45e-01	0	61	104	209190912	63	30859
2026-01-24 03:22:56.90	262.99	5.83	-46.1	-64.6	3.8	7.47e-01	0	61	104	209190912	63	30836
2026-01-24 03:22:59.93	262.63	5.66	-46.1	-64.6	3.8	7.45e-01	0	61	104	209190912	63	30882
2026-01-24 03:23:02.97	262.27	5.48	-46.1	-64.6	3.8	7.46e-01	0	62	104	209190912	63	30855
2026-01-24 03:23:06.00	261.92	5.31	-46.1	-64.6	3.8	7.47e-01	0	61	104	209190912	63	30827
2026-01-24 03:23:09.03	261.58	5.14	-46.1	-64.6	3.8	7.44e-01	0	62	104	209190912	63	30888
2026-01-24 03:23:12.06	261.24	4.96	-46.1	-64.6	3.8	7.44e-01	0	61	104	209190912	62	32600
2026-01-24 03:23:15.09	260.90	4.79	-46.1	-64.6	3.8	7.45e-01	0	61	104	209190912	62	32661
2026-01-24 03:23:18.12	260.57	4.62	-46.1	-64.6	3.8	7.50e-01	0	61	104	209190912	62	32579
2026-01-24 03:23:21.15	260.24	4.45	-46.1	-64.6	3.8	7.45e-01	0	61	104	209190912	62	32711
2026-01-24 03:23:24.18	259.92	4.28	-46.0	-64.6	3.8	7.44e-01	0	62	104	209190912	62	32703
2026-01-24 03:23:27.21	259.60	4.11	-46.1	-64.6	3.8	7.48e-01	0	61	104	209190912	62	32685
2026-01-24 03:23:30.24	259.29	3.94	-46.0	-64.6	3.8	7.43e-01	0	62	104	209190912	62	32616
2026-01-24 03:23:33.27	258.98	3.77	-46.1	-64.6	3.8	7.46e-01	0	61	104	209190912	62	32621
2026-01-24 03:23:36.30	258.67	3.60	-46.1	-64.6	3.8	7.49e-01	0	61	104	209190912	62	32601
2026-01-24 03:23:39.33	258.37	3.43	-46.1	-64.6	3.8	7.46e-01	0	61	104	209190912	62	32555
2026-01-24 03:23:42.36	258.07	3.26	-46.1	-64.6	3.8	7.43e-01	0	62	104	209190912	62	32565
2026-01-24 03:23:45.39	257.77	3.09	-46.1	-64.5	3.8	7.45e-01	0	62	104	209190912	62	32547
2026-01-24 03:23:48.42	257.48	2.93	-46.0	-64.6	3.8	7.43e-01	0	62	104	209190912	62	32558
2026-01-24 03:23:51.46	257.19	2.76	-46.0	-64.5	3.8	7.44e-01	0	61	104	209190912	62	32532
2026-01-24 03:23:54.49	256.91	2.59	-46.0	-64.6	3.8	7.43e-01	0	62	104	209190912	62	32587
2026-01-24 03:23:57.52	256.63	2.43	-46.1	-64.6	3.8	7.48e-01	0	62	104	209190912	62	32587
2026-01-24 03:24:00.55	256.35	2.26	-46.1	-64.6	3.8	7.42e-01	0	62	104	209190912	62	32554
2026-01-24 03:24:03.58	256.08	2.10	-46.1	-64.5	3.8	7.46e-01	0	61	104	209190912	62	32548

#Closed at: 2026-01-24 03:24:05
#Recorded file [209 MB]: D:/lorett/data/31039_260124_061342.dat