passes_logs/2026/01/24/R2.0S_Moscow/R2.0S_Moscow__20260124_141720_FENGYUN_3E_rec.log

#Pass ID: 20260124_141720_FENGYUN 3E
#Satellite: FENGYUN 3E
#Configuration: FENGYUN 3E
#almurnet v.1.7.20251203
#Start time: 2026-01-24 14:17:20

#Version: 2.2.20231116
#Station: R2.0S_Moscow
#Location: 37.707566 lon 55.798166 lat
#TLE: 1 49008U 21062A   26024.23699167 -.00000179  00000+0 -63840-4 0  9992
#TLE: 2 49008  98.7493  29.2570 0002404 119.1229 241.0188 14.19886095236155

#Time	Az	El	Level	Level2	SNR	BER	BlckErr	Temp	State	Recorded	gain1	gain2
2026-01-24 14:17:20.72	163.11	2.03	-44.4	-55.4	3.8	8.46e-01	0	52	0	0	59	12713
2026-01-24 14:17:24.76	163.14	2.29	-44.4	-55.4	3.8	8.47e-01	0	52	104	0	59	12733
2026-01-24 14:17:28.80	163.16	2.55	-44.4	-55.4	3.8	8.47e-01	0	52	104	0	59	12690
2026-01-24 14:17:32.85	163.19	2.82	-44.4	-55.3	3.8	8.46e-01	0	53	104	0	59	12657
2026-01-24 14:17:36.89	163.22	3.09	-44.4	-55.3	3.8	8.45e-01	0	53	104	0	59	12598
2026-01-24 14:17:40.93	163.24	3.36	-44.3	-55.2	3.8	8.46e-01	0	54	104	0	59	12474
2026-01-24 14:17:44.97	163.27	3.63	-44.2	-54.6	3.8	8.45e-01	0	54	104	0	59	11671
2026-01-24 14:17:49.01	163.30	3.91	-44.2	-54.5	3.8	8.46e-01	0	54	104	0	59	11490
2026-01-24 14:17:53.05	163.32	4.19	-44.3	-55.0	3.8	8.45e-01	0	54	104	0	58	12905
2026-01-24 14:17:57.09	163.35	4.47	-44.3	-55.1	3.8	8.47e-01	0	54	104	0	58	12964
2026-01-24 14:18:01.13	163.38	4.76	-44.1	-55.0	3.8	8.45e-01	0	55	104	0	57	13617
2026-01-24 14:18:05.18	163.41	5.05	-44.1	-54.5	3.8	8.46e-01	0	55	104	0	57	12854
2026-01-24 14:18:09.22	163.44	5.34	-43.9	-53.5	3.8	8.45e-01	0	55	104	0	57	11469
2026-01-24 14:18:13.26	163.47	5.63	-43.8	-51.6	4.2	8.39e-01	0	55	0	0	57	9278
2026-01-24 14:18:17.30	163.50	5.93	-43.4	-50.2	4.7	8.01e-01	0	56	0	0	57	7888
2026-01-24 14:18:21.35	163.53	6.24	-43.1	-49.6	5.1	7.65e-01	0	56	0	0	57	7318
2026-01-24 14:18:25.39	163.56	6.54	-43.2	-50.0	4.9	7.80e-01	0	56	0	0	57	7633
2026-01-24 14:18:29.43	163.59	6.85	-43.7	-52.1	4.1	8.40e-01	0	56	0	0	56	10405
2026-01-24 14:18:33.47	163.62	7.16	-43.0	-49.4	5.2	7.73e-01	0	56	0	0	56	7576
2026-01-24 14:18:37.51	163.65	7.48	-41.1	-44.8	9.0	2.35e-02	0	57	0	23068672	53	5303
2026-01-24 14:18:41.56	163.68	7.80	-39.1	-41.7	12.3	2.13e-04	0	57	0	52428800	49	4673
2026-01-24 14:18:45.60	163.72	8.13	-38.3	-40.7	13.2	1.02e-05	0	57	0	81788928	47	4674
2026-01-24 14:18:49.64	163.75	8.46	-38.7	-41.2	12.8	8.86e-03	0	57	0	110100480	47	4965
2026-01-24 14:18:53.67	163.78	8.79	-38.2	-40.6	13.4	9.10e-06	0	57	0	139460608	46	4875
2026-01-24 14:18:57.71	163.82	9.13	-38.0	-40.3	13.7	1.10e-06	0	57	0	168820736	46	4712
2026-01-24 14:19:01.76	163.85	9.47	-37.9	-40.1	13.8	4.50e-06	0	58	0	198180864	46	4649
2026-01-24 14:19:05.80	163.89	9.82	-37.6	-39.7	14.3	0.00e+00	0	58	0	227540992	46	4431
2026-01-24 14:19:09.83	163.92	10.17	-37.5	-39.6	14.5	0.00e+00	0	58	0	256901120	45	4617
2026-01-24 14:19:13.87	163.96	10.53	-37.3	-39.4	14.7	0.00e+00	0	58	0	285212672	45	4538
2026-01-24 14:19:17.91	164.00	10.89	-37.2	-39.3	14.8	0.00e+00	0	58	0	314572800	45	4467
2026-01-24 14:19:21.95	164.04	11.26	-37.1	-39.2	15.0	0.00e+00	0	58	0	343932928	45	4415
2026-01-24 14:19:25.99	164.08	11.64	-37.1	-39.1	15.1	0.00e+00	0	58	0	373293056	45	4377
2026-01-24 14:19:30.03	164.12	12.02	-37.1	-39.2	15.1	0.00e+00	0	58	0	402653184	45	4392
2026-01-24 14:19:34.07	164.16	12.40	-37.1	-39.1	15.2	0.00e+00	0	59	0	430964736	44	4601
2026-01-24 14:19:38.11	164.20	12.79	-36.9	-38.8	15.5	0.00e+00	0	58	0	460324864	44	4491
2026-01-24 14:19:42.15	164.24	13.19	-36.8	-38.7	15.6	0.00e+00	0	59	0	489684992	44	4437
2026-01-24 14:19:46.19	164.28	13.60	-36.8	-38.8	15.6	0.00e+00	0	59	0	519045120	44	4452
2026-01-24 14:19:50.23	164.32	14.01	-36.7	-38.6	15.8	0.00e+00	0	59	0	548405248	44	4357
2026-01-24 14:19:54.27	164.37	14.43	-36.7	-38.5	15.8	0.00e+00	0	59	0	576716800	44	4340
2026-01-24 14:19:58.31	164.41	14.86	-36.3	-38.1	16.1	0.00e+00	0	59	0	606076928	43	4376
2026-01-24 14:20:02.35	164.46	15.29	-36.2	-38.0	16.3	0.00e+00	0	59	0	635437056	43	4312
2026-01-24 14:20:06.39	164.51	15.73	-36.2	-38.0	16.3	0.00e+00	0	59	0	664797184	43	4318
2026-01-24 14:20:10.43	164.56	16.18	-36.1	-37.9	16.4	0.00e+00	0	59	0	694157312	43	4247
2026-01-24 14:20:14.46	164.61	16.64	-36.2	-38.0	16.4	0.00e+00	0	59	0	722468864	43	4293
2026-01-24 14:20:18.50	164.66	17.11	-36.1	-37.9	16.4	0.00e+00	0	59	0	751828992	42	4524
2026-01-24 14:20:22.54	164.71	17.59	-36.1	-37.9	16.5	0.00e+00	0	60	0	781189120	42	4494
2026-01-24 14:20:26.58	164.76	18.07	-36.1	-37.9	16.4	0.00e+00	0	60	0	810549248	42	4542
2026-01-24 14:20:30.61	164.82	18.57	-36.0	-37.8	16.6	0.00e+00	0	59	0	838860800	42	4452
2026-01-24 14:20:34.65	164.87	19.07	-35.9	-37.6	16.7	0.00e+00	0	60	0	868220928	42	4380
2026-01-24 14:20:38.69	164.93	19.59	-35.7	-37.4	17.0	0.00e+00	0	60	0	897581056	42	4250
2026-01-24 14:20:42.74	164.99	20.12	-35.5	-37.1	17.2	0.00e+00	0	59	0	926941184	41	4377
2026-01-24 14:20:46.78	165.05	20.66	-35.2	-36.9	17.4	0.00e+00	0	60	0	956301312	41	4255
2026-01-24 14:20:50.82	165.11	21.21	-35.1	-36.7	17.6	0.00e+00	0	60	0	985661440	41	4192
2026-01-24 14:20:54.86	165.18	21.78	-35.0	-36.6	17.7	0.00e+00	0	60	0	1013972992	40	4385
2026-01-24 14:20:58.90	165.24	22.35	-34.9	-36.6	17.8	0.00e+00	0	60	0	1043333120	40	4348
2026-01-24 14:21:02.94	165.31	22.94	-34.9	-36.5	17.7	0.00e+00	0	60	0	1072693248	40	4333
2026-01-24 14:21:06.98	165.38	23.55	-34.9	-36.6	17.6	0.00e+00	0	60	0	1102053376	40	4374
2026-01-24 14:21:11.02	165.46	24.16	-35.0	-36.7	17.5	0.00e+00	0	60	0	1131413504	40	4434
2026-01-24 14:21:15.06	165.53	24.80	-35.1	-36.9	17.4	0.00e+00	0	60	0	1159725056	40	4501
2026-01-24 14:21:19.09	165.61	25.44	-34.9	-36.6	17.6	0.00e+00	0	60	0	1189085184	40	4381
2026-01-24 14:21:23.13	165.69	26.11	-34.7	-36.4	17.9	0.00e+00	0	60	0	1218445312	40	4262
2026-01-24 14:21:27.17	165.77	26.79	-34.6	-36.2	18.2	0.00e+00	0	60	0	1247805440	39	4402
2026-01-24 14:21:31.21	165.86	27.49	-34.5	-36.1	18.3	0.00e+00	0	60	0	1277165568	39	4347
2026-01-24 14:21:35.24	165.95	28.21	-34.5	-36.1	18.4	0.00e+00	0	61	0	1306525696	39	4341
2026-01-24 14:21:39.28	166.04	28.94	-34.5	-36.0	18.4	0.00e+00	0	60	0	1334837248	39	4325
2026-01-24 14:21:43.32	166.14	29.70	-34.8	-36.4	18.1	0.00e+00	0	60	0	1364197376	39	4524
2026-01-24 14:21:47.37	166.24	30.48	-34.9	-36.6	17.9	0.00e+00	0	61	0	1393557504	39	4603
2026-01-24 14:21:51.40	166.35	31.27	-34.6	-36.2	18.3	0.00e+00	0	60	0	1422917632	39	4416
2026-01-24 14:21:55.44	166.46	32.09	-34.6	-36.3	18.2	0.00e+00	0	61	0	1452277760	39	4445
2026-01-24 14:21:59.48	166.58	32.94	-34.6	-36.3	18.2	0.00e+00	0	61	0	1480589312	39	4450
2026-01-24 14:22:03.52	166.70	33.81	-34.6	-36.3	18.1	0.00e+00	0	61	0	1509949440	39	4481
2026-01-24 14:22:07.56	166.83	34.70	-34.6	-36.3	18.1	0.00e+00	0	61	0	1539309568	39	4490
2026-01-24 14:22:11.60	166.96	35.62	-34.4	-36.1	18.4	0.00e+00	0	61	0	1568669696	39	4364
2026-01-24 14:22:15.64	167.10	36.56	-34.4	-36.0	18.5	0.00e+00	0	61	0	1598029824	39	4329
2026-01-24 14:22:19.68	167.25	37.54	-34.6	-36.2	18.3	0.00e+00	0	61	0	1627389952	39	4414
2026-01-24 14:22:23.72	167.41	38.54	-34.9	-36.6	17.9	0.00e+00	0	61	0	1655701504	39	4615
2026-01-24 14:22:27.77	167.58	39.58	-35.1	-36.7	17.8	0.00e+00	0	61	0	1685061632	39	4699
2026-01-24 14:22:31.81	167.76	40.64	-34.9	-36.5	18.0	0.00e+00	0	61	0	1714421760	39	4596
2026-01-24 14:22:35.85	167.94	41.74	-34.9	-36.5	18.0	0.00e+00	0	61	0	1743781888	39	4557
2026-01-24 14:22:39.89	168.15	42.87	-35.0	-36.5	18.1	0.00e+00	0	61	0	1773142016	39	4591
2026-01-24 14:22:43.93	168.36	44.04	-35.0	-36.5	18.2	0.00e+00	0	61	0	1801453568	39	4575
2026-01-24 14:22:47.97	168.59	45.24	-35.7	-36.9	18.1	0.00e+00	0	61	0	1830813696	41	4263
2026-01-24 14:22:52.00	168.84	46.47	-36.0	-37.3	17.8	0.00e+00	0	61	0	1860173824	41	4449
2026-01-24 14:22:56.04	169.11	47.75	-35.9	-37.1	17.9	0.00e+00	0	61	0	1889533952	41	4376
2026-01-24 14:23:00.08	169.40	49.06	-36.7	-38.0	17.1	0.00e+00	0	61	0	1918894080	43	4315
2026-01-24 14:23:04.12	169.71	50.42	-36.5	-37.8	17.3	0.00e+00	0	61	0	1947205632	43	4203
2026-01-24 14:23:08.16	170.06	51.81	-36.4	-37.7	17.4	0.00e+00	0	61	0	1976565760	43	4178
2026-01-24 14:23:12.19	170.43	53.24	-36.8	-38.1	17.0	0.00e+00	0	61	0	2005925888	43	4375
2026-01-24 14:23:16.23	170.85	54.71	-36.6	-37.9	17.1	0.00e+00	0	61	0	2035286016	43	4258
2026-01-24 14:23:20.27	171.30	56.23	-36.5	-37.8	17.3	0.00e+00	0	61	0	2063597568	43	4228
2026-01-24 14:23:24.31	171.82	57.78	-36.5	-37.7	17.3	0.00e+00	0	61	0	2092957696	43	4183
2026-01-24 14:23:28.35	172.39	59.38	-36.6	-37.9	17.2	0.00e+00	0	61	0	2122317824	43	4268
2026-01-24 14:23:32.38	173.03	61.01	-36.2	-37.5	17.6	0.00e+00	0	61	0	2151677952	43	4065
2026-01-24 14:23:36.42	173.77	62.69	-36.1	-37.3	17.7	0.00e+00	0	61	0	2181038080	42	4240
2026-01-24 14:23:40.46	174.61	64.40	-35.1	-36.2	18.8	0.00e+00	0	61	0	2209349632	41	3943
2026-01-24 14:23:44.50	175.59	66.14	-35.6	-36.8	18.3	0.00e+00	0	61	0	2238709760	41	4232
2026-01-24 14:23:48.54	176.74	67.92	-35.0	-36.1	18.9	0.00e+00	0	61	0	2268069888	41	3906
2026-01-24 14:23:52.58	178.11	69.72	-35.3	-36.5	18.6	0.00e+00	0	61	0	2297430016	40	4302
2026-01-24 14:23:56.62	179.77	71.55	-35.7	-37.0	18.1	0.00e+00	0	61	0	2326790144	40	4550
2026-01-24 14:24:00.66	181.81	73.39	-35.5	-36.6	18.4	0.00e+00	0	61	0	2355101696	41	4139
2026-01-24 14:24:04.69	184.38	75.23	-34.9	-36.1	19.0	0.00e+00	0	61	0	2384461824	40	4105
2026-01-24 14:24:08.74	187.72	77.06	-34.0	-35.1	20.0	0.00e+00	0	61	0	2413821952	38	4100
2026-01-24 14:24:12.78	192.17	78.86	-33.8	-34.8	20.2	0.00e+00	0	61	0	2443182080	38	3982
2026-01-24 14:24:16.82	198.33	80.58	-33.7	-34.7	20.4	0.00e+00	0	61	0	2472542208	38	3917
2026-01-24 14:24:20.85	207.12	82.16	-34.2	-35.2	19.9	0.00e+00	0	61	0	2501902336	38	4174
2026-01-24 14:24:24.89	219.95	83.48	-34.2	-35.3	19.8	0.00e+00	0	61	0	2530213888	38	4197
2026-01-24 14:24:28.93	237.90	84.34	-34.4	-35.4	19.6	0.00e+00	0	61	0	2559574016	38	4291
2026-01-24 14:24:32.97	259.36	84.51	-34.3	-35.3	19.7	0.00e+00	0	61	0	2588934144	38	4235
2026-01-24 14:24:37.00	279.23	83.92	-34.7	-35.7	19.2	0.00e+00	0	61	0	2618294272	38	4440
2026-01-24 14:24:41.05	294.25	82.77	-34.0	-35.1	20.0	0.00e+00	0	61	0	2647654400	39	3880
2026-01-24 14:24:45.09	304.59	81.28	-34.2	-35.2	19.9	0.00e+00	0	61	0	2675965952	38	4176
2026-01-24 14:24:49.12	311.72	79.61	-33.8	-34.8	20.3	0.00e+00	0	61	0	2705326080	38	3988
2026-01-24 14:24:53.16	316.82	77.84	-33.8	-34.8	20.3	0.00e+00	0	61	0	2734686208	38	3982
2026-01-24 14:24:57.20	320.57	76.03	-34.5	-35.6	19.5	0.00e+00	0	62	0	2764046336	38	4350
2026-01-24 14:25:01.24	323.44	74.19	-34.8	-35.9	19.1	0.00e+00	0	61	0	2793406464	39	4272
2026-01-24 14:25:05.28	325.69	72.35	-35.7	-36.9	18.1	2.20e-06	0	61	0	2822766592	41	4277
2026-01-24 14:25:09.32	327.50	70.52	-35.9	-37.1	17.9	0.00e+00	0	61	0	2851078144	41	4377
2026-01-24 14:25:13.36	328.98	68.71	-35.2	-36.4	18.7	1.10e-06	0	61	0	2880438272	41	4008
2026-01-24 14:25:17.40	330.22	66.93	-34.9	-36.0	19.1	0.00e+00	0	61	0	2909798400	40	4094
2026-01-24 14:25:21.44	331.27	65.17	-35.3	-36.5	18.6	0.00e+00	0	61	0	2939158528	40	4307
2026-01-24 14:25:25.48	332.17	63.45	-35.5	-36.6	18.4	0.00e+00	0	62	0	2968518656	40	4360
2026-01-24 14:25:29.52	332.95	61.76	-36.4	-37.6	17.5	0.00e+00	0	61	0	2996830208	42	4386
2026-01-24 14:25:33.56	333.63	60.12	-37.0	-38.3	16.8	0.00e+00	0	61	0	3026190336	43	4483
2026-01-24 14:25:37.60	334.23	58.51	-36.8	-38.1	17.1	0.00e+00	0	61	0	3055550464	43	4367
2026-01-24 14:25:41.63	334.77	56.94	-36.8	-38.1	17.1	0.00e+00	0	61	0	3084910592	43	4351
2026-01-24 14:25:45.67	335.25	55.41	-36.4	-37.6	17.6	0.00e+00	0	62	0	3113222144	43	4129
2026-01-24 14:25:49.71	335.68	53.93	-36.6	-37.8	17.3	0.00e+00	0	61	0	3142582272	43	4234
2026-01-24 14:25:53.74	336.07	52.48	-36.6	-37.9	17.2	0.00e+00	0	61	0	3171942400	43	4287
2026-01-24 14:25:57.78	336.43	51.08	-36.4	-37.7	17.5	0.00e+00	0	61	0	3201302528	43	4146
2026-01-24 14:26:01.82	336.76	49.71	-36.3	-37.5	17.6	0.00e+00	0	62	0	3230662656	43	4098
2026-01-24 14:26:05.86	337.06	48.39	-36.2	-37.4	17.7	0.00e+00	0	61	0	3258974208	43	4040
2026-01-24 14:26:09.91	337.34	47.09	-35.7	-36.9	18.3	0.00e+00	0	61	0	3288334336	42	4005
2026-01-24 14:26:13.95	337.60	45.84	-35.6	-36.7	18.4	0.00e+00	0	61	0	3317694464	41	4180
2026-01-24 14:26:17.99	337.84	44.63	-35.4	-36.5	18.5	0.00e+00	0	61	0	3347054592	41	4076
2026-01-24 14:26:22.02	338.06	43.46	-35.1	-36.2	18.9	0.00e+00	0	62	0	3376414720	41	3939
2026-01-24 14:26:26.06	338.27	42.32	-35.5	-36.7	18.4	0.00e+00	0	61	0	3404726272	41	4146
2026-01-24 14:26:30.10	338.46	41.21	-35.4	-36.5	18.5	0.00e+00	0	62	0	3434086400	41	4090
2026-01-24 14:26:34.14	338.65	40.13	-35.6	-36.8	18.2	0.00e+00	0	62	0	3463446528	41	4216
2026-01-24 14:26:38.18	338.82	39.09	-35.8	-37.0	18.1	0.00e+00	0	62	0	3492806656	41	4315
2026-01-24 14:26:42.22	338.98	38.08	-35.2	-36.3	18.7	0.00e+00	0	62	0	3522166784	41	3980
2026-01-24 14:26:46.25	339.14	37.09	-34.9	-36.0	19.0	0.00e+00	0	61	0	3551526912	40	4053
2026-01-24 14:26:50.29	339.28	36.14	-34.8	-35.9	19.1	0.00e+00	0	61	0	3579838464	40	4008
2026-01-24 14:26:54.33	339.42	35.21	-34.8	-35.9	19.0	0.00e+00	0	62	0	3609198592	40	4026
2026-01-24 14:26:58.37	339.56	34.31	-34.7	-35.8	19.1	0.00e+00	0	62	0	3638558720	40	3990
2026-01-24 14:27:02.41	339.68	33.43	-34.9	-35.9	18.9	0.00e+00	0	62	0	3667918848	40	4049
2026-01-24 14:27:06.44	339.80	32.58	-34.8	-35.9	19.0	0.00e+00	0	62	0	3697278976	40	4021
2026-01-24 14:27:10.48	339.92	31.76	-34.9	-36.1	18.8	0.00e+00	0	61	0	3725590528	40	4107
2026-01-24 14:27:14.53	340.03	30.95	-35.0	-36.1	18.5	0.00e+00	0	62	0	3754950656	40	4143
2026-01-24 14:27:18.56	340.13	30.17	-35.3	-36.5	18.4	0.00e+00	0	61	0	3784310784	40	4310
2026-01-24 14:27:22.60	340.23	29.40	-35.4	-36.5	18.2	0.00e+00	0	62	0	3813670912	40	4338
2026-01-24 14:27:26.64	340.33	28.66	-35.6	-36.8	17.9	0.00e+00	0	62	0	3843031040	40	4460
2026-01-24 14:27:30.69	340.43	27.94	-35.6	-36.8	17.9	0.00e+00	0	62	0	3872391168	41	4215
2026-01-24 14:27:34.72	340.52	27.23	-35.6	-36.8	17.9	0.00e+00	0	62	0	3900702720	41	4242
2026-01-24 14:27:38.76	340.60	26.55	-35.4	-36.6	18.0	0.00e+00	0	61	0	3930062848	41	4117
2026-01-24 14:27:42.80	340.69	25.88	-35.4	-36.7	17.9	0.00e+00	0	61	0	3959422976	41	4146
2026-01-24 14:27:46.84	340.77	25.22	-35.2	-36.3	18.1	0.00e+00	0	62	0	3988783104	41	4004
2026-01-24 14:27:50.88	340.85	24.58	-35.1	-36.3	18.1	0.00e+00	0	62	0	4018143232	41	3976
2026-01-24 14:27:54.92	340.93	23.96	-35.1	-36.3	18.0	0.00e+00	0	62	0	4046454784	41	3980
2026-01-24 14:27:58.96	341.00	23.35	-35.1	-36.3	17.9	0.00e+00	0	62	0	4075814912	41	3998
2026-01-24 14:28:02.99	341.07	22.76	-35.3	-36.6	17.4	0.00e+00	0	62	0	4105175040	41	4106
2026-01-24 14:28:07.03	341.14	22.18	-35.2	-36.5	16.8	0.00e+00	0	62	0	4134535168	41	4095
2026-01-24 14:28:11.06	341.21	21.61	-34.9	-36.2	16.8	0.00e+00	0	62	0	4162846720	40	4162
2026-01-24 14:28:15.11	341.28	21.06	-36.3	-37.9	14.6	0.00e+00	0	62	0	4192206848	42	4534
2026-01-24 14:28:19.15	341.34	20.51	-39.7	-43.3	8.6	2.68e-02	0	62	0	4221566976	49	5617
2026-01-24 14:28:23.19	341.40	19.98	-41.5	-50.0	3.9	8.40e-01	0	62	104	4235198464	52	10215
2026-01-24 14:28:27.22	341.47	19.46	-41.9	-52.1	3.8	8.46e-01	0	62	104	4235198464	53	12274
2026-01-24 14:28:31.26	341.52	18.95	-41.1	-51.7	3.8	8.48e-01	0	62	104	4235198464	53	11765
2026-01-24 14:28:35.30	341.58	18.45	-41.1	-51.8	3.8	8.47e-01	0	62	104	4235198464	53	11933
2026-01-24 14:28:39.34	341.64	17.97	-40.9	-51.6	3.8	8.47e-01	0	62	104	4235198464	52	12373
2026-01-24 14:28:43.38	341.70	17.49	-40.9	-51.6	3.8	8.46e-01	0	62	104	4235198464	52	12329
2026-01-24 14:28:47.42	341.75	17.01	-40.8	-51.6	3.8	8.47e-01	0	62	104	4235198464	52	12297
2026-01-24 14:28:51.45	341.80	16.55	-40.9	-51.6	3.8	8.46e-01	0	62	104	4235198464	52	12357
2026-01-24 14:28:55.49	341.86	16.10	-40.9	-51.7	3.8	8.48e-01	0	62	104	4235198464	52	12438
2026-01-24 14:28:59.53	341.91	15.66	-40.9	-51.7	3.8	8.46e-01	0	62	104	4235198464	52	12426
2026-01-24 14:29:03.57	341.96	15.22	-40.8	-51.6	3.8	8.45e-01	0	62	104	4235198464	52	12307
2026-01-24 14:29:07.61	342.01	14.79	-40.8	-51.6	3.8	8.46e-01	0	62	104	4235198464	52	12284
2026-01-24 14:29:11.64	342.05	14.37	-40.8	-51.6	3.8	8.45e-01	0	62	104	4235198464	52	12291
2026-01-24 14:29:15.68	342.10	13.95	-40.8	-51.6	3.8	8.47e-01	0	62	104	4235198464	52	12312
2026-01-24 14:29:19.72	342.15	13.55	-40.9	-51.7	3.8	8.47e-01	0	62	104	4235198464	52	12416
2026-01-24 14:29:23.76	342.19	13.15	-40.9	-51.7	3.8	8.45e-01	0	62	104	4235198464	52	12450
2026-01-24 14:29:27.79	342.24	12.75	-40.9	-51.7	3.8	8.46e-01	0	62	104	4235198464	52	12417
2026-01-24 14:29:31.83	342.28	12.37	-40.8	-51.6	3.8	8.47e-01	0	62	104	4235198464	52	12260
2026-01-24 14:29:35.87	342.33	11.98	-40.7	-51.5	3.8	8.46e-01	0	62	104	4235198464	52	12197
2026-01-24 14:29:39.91	342.37	11.61	-40.7	-51.5	3.8	8.46e-01	0	62	104	4235198464	52	12187
2026-01-24 14:29:43.94	342.41	11.24	-40.7	-51.5	3.8	8.46e-01	0	62	104	4235198464	52	12216
2026-01-24 14:29:47.98	342.45	10.87	-40.8	-51.6	3.8	8.46e-01	0	62	104	4235198464	52	12327
2026-01-24 14:29:52.02	342.49	10.51	-40.8	-51.6	3.8	8.46e-01	0	62	104	4235198464	52	12375
2026-01-24 14:29:56.06	342.54	10.16	-40.8	-51.7	3.8	8.45e-01	0	62	104	4235198464	51	13133
2026-01-24 14:30:00.10	342.58	9.81	-40.7	-51.5	3.8	8.46e-01	0	62	104	4235198464	51	12874
2026-01-24 14:30:04.14	342.61	9.47	-40.6	-51.4	3.8	8.46e-01	0	62	104	4235198464	51	12722
2026-01-24 14:30:08.18	342.65	9.13	-40.7	-51.5	3.8	8.47e-01	0	62	104	4235198464	51	12885
2026-01-24 14:30:12.22	342.69	8.79	-40.8	-51.6	3.8	8.47e-01	0	62	104	4235198464	51	13076
2026-01-24 14:30:16.26	342.73	8.46	-40.8	-51.6	3.8	8.44e-01	0	62	104	4235198464	51	13081
2026-01-24 14:30:20.29	342.77	8.14	-40.7	-51.5	3.8	8.46e-01	0	62	104	4235198464	51	12894
2026-01-24 14:30:24.33	342.80	7.81	-44.8	-55.8	3.8	8.46e-01	0	62	104	4235198464	59	13309
2026-01-24 14:30:28.37	342.84	7.50	-45.5	-56.8	3.8	8.47e-01	0	62	104	4235198464	60	14140
2026-01-24 14:30:32.42	342.88	7.18	-45.6	-57.0	3.8	8.47e-01	0	62	104	4235198464	60	14380
2026-01-24 14:30:36.46	342.91	6.87	-45.3	-56.9	3.8	8.46e-01	0	62	104	4235198464	60	14258
2026-01-24 14:30:40.50	342.95	6.56	-45.4	-56.8	3.8	8.47e-01	0	62	104	4235198464	60	14113
2026-01-24 14:30:44.54	342.98	6.26	-45.5	-56.8	3.8	8.46e-01	0	62	104	4235198464	60	14137
2026-01-24 14:30:48.58	343.02	5.96	-45.4	-56.8	3.8	8.46e-01	0	62	104	4235198464	60	14160
2026-01-24 14:30:52.63	343.05	5.66	-45.4	-56.8	3.8	8.46e-01	0	62	104	4235198464	60	14100
2026-01-24 14:30:56.67	343.09	5.37	-45.4	-56.8	3.8	8.46e-01	0	62	104	4235198464	60	14144
2026-01-24 14:31:00.69	343.12	5.08	-45.4	-56.8	3.8	8.45e-01	0	62	104	4235198464	60	14146
2026-01-24 14:31:04.74	343.15	4.80	-45.4	-56.8	3.8	8.46e-01	0	62	104	4235198464	60	14086
2026-01-24 14:31:08.78	343.19	4.51	-45.4	-56.8	3.8	8.47e-01	0	62	104	4235198464	60	14157
2026-01-24 14:31:12.82	343.22	4.23	-45.4	-56.7	3.8	8.48e-01	0	62	104	4235198464	60	14022
2026-01-24 14:31:16.86	343.25	3.96	-45.4	-56.8	3.8	8.46e-01	0	62	104	4235198464	60	14053
2026-01-24 14:31:20.90	343.28	3.68	-45.4	-56.8	3.8	8.46e-01	0	62	104	4235198464	60	14082
2026-01-24 14:31:24.94	343.32	3.41	-45.4	-56.7	3.8	8.46e-01	0	62	104	4235198464	60	14026
2026-01-24 14:31:28.99	343.35	3.14	-45.4	-56.8	3.8	8.46e-01	0	62	104	4235198464	60	14048
2026-01-24 14:31:33.03	343.38	2.87	-45.4	-56.8	3.8	8.47e-01	0	62	104	4235198464	60	14120
2026-01-24 14:31:37.07	343.41	2.61	-45.4	-56.7	3.8	8.46e-01	0	62	104	4235198464	60	14024
2026-01-24 14:31:41.11	343.44	2.35	-45.4	-56.7	3.8	8.46e-01	0	62	104	4235198464	60	13989
2026-01-24 14:31:45.16	343.47	2.09	-45.4	-56.7	3.8	8.46e-01	0	62	104	4235198464	60	14046

#Closed at: 2026-01-24 14:31:47
#Recorded file [4235 MB]: D:/lorett/data/31039_260124_171720.dat