passes_logs/2026/01/24/R2.0S_Moscow/R2.0S_Moscow__20260124_095628_SUOMI_NPP_rec.log

#Pass ID: 20260124_095628_SUOMI NPP
#Satellite: SUOMI NPP
#Configuration: NPP
#almurnet v.1.7.20251203
#Start time: 2026-01-24 09:56:30

#Version: 2.2.20231116
#Station: R2.0S_Moscow
#Location: 37.707566 lon 55.798166 lat
#TLE: 1 37849U 11061A   26023.63275593  .00000212  00000+0  12133-3 0  9990
#TLE: 2 37849  98.7820 325.6074 0002234  48.9695 311.1673 14.19528901737937

#Time	Az	El	Level	Level2	SNR	BER	BlckErr	Temp	State	Recorded	gain1	gain2
2026-01-24 09:56:30.45	158.94	2.14	-44.0	-58.6	3.8	1.49e+00	0	52	0	0	59	19490
2026-01-24 09:56:34.49	158.94	2.40	-44.0	-58.6	3.8	1.49e+00	0	52	104	0	59	19448
2026-01-24 09:56:38.53	158.94	2.67	-44.0	-58.6	3.8	1.49e+00	0	53	104	0	59	19477
2026-01-24 09:56:42.58	158.94	2.94	-44.0	-58.6	3.8	1.49e+00	0	53	104	0	59	19400
2026-01-24 09:56:46.62	158.93	3.21	-44.0	-58.6	3.8	1.49e+00	0	53	104	0	59	19467
2026-01-24 09:56:50.66	158.93	3.48	-44.0	-58.6	3.8	1.49e+00	0	54	104	0	59	19412
2026-01-24 09:56:54.70	158.93	3.76	-44.0	-58.6	3.8	1.49e+00	0	54	104	0	59	19444
2026-01-24 09:56:58.75	158.93	4.04	-44.0	-58.6	3.8	1.49e+00	0	54	104	0	59	19395
2026-01-24 09:57:02.79	158.93	4.32	-44.0	-58.5	3.8	1.49e+00	0	54	104	0	59	19383
2026-01-24 09:57:06.83	158.93	4.60	-44.0	-58.5	3.8	1.49e+00	0	54	104	0	59	19346
2026-01-24 09:57:10.87	158.92	4.89	-44.0	-58.5	3.8	1.49e+00	0	55	104	0	59	19266
2026-01-24 09:57:14.91	158.92	5.18	-44.0	-58.4	3.8	1.49e+00	0	55	104	0	59	19037
2026-01-24 09:57:18.95	158.92	5.47	-43.9	-57.9	3.8	1.49e+00	0	55	104	0	59	18080
2026-01-24 09:57:22.99	158.91	5.77	-43.9	-56.6	3.8	1.49e+00	0	55	104	0	59	15576
2026-01-24 09:57:27.03	158.91	6.07	-43.8	-56.0	3.9	1.48e+00	0	56	104	0	59	14401
2026-01-24 09:57:31.07	158.91	6.38	-43.8	-55.8	4.0	1.48e+00	0	56	104	0	59	14176
2026-01-24 09:57:35.11	158.90	6.68	-43.9	-57.3	3.8	1.49e+00	0	56	104	0	59	16705
2026-01-24 09:57:39.16	158.90	7.00	-44.0	-58.2	3.8	1.49e+00	0	56	104	0	59	18563
2026-01-24 09:57:43.20	158.89	7.31	-43.8	-55.1	4.1	1.45e+00	0	56	0	0	59	13109
2026-01-24 09:57:47.24	158.89	7.63	-43.2	-51.2	6.2	3.25e-01	0	56	0	6291456	58	8774
2026-01-24 09:57:51.28	158.88	7.95	-42.8	-49.1	8.0	7.11e-02	0	57	0	13631488	57	7366
2026-01-24 09:57:55.32	158.88	8.28	-43.1	-50.1	7.3	4.51e-02	0	57	0	17825792	57	8233
2026-01-24 09:57:59.36	158.87	8.61	-42.7	-48.8	8.4	4.15e-02	0	57	0	22020096	57	7095
2026-01-24 09:58:03.40	158.87	8.95	-42.6	-48.4	8.9	2.85e-02	0	57	0	29360128	57	6758
2026-01-24 09:58:07.43	158.86	9.29	-42.5	-48.1	9.3	2.26e-02	0	57	0	36700160	57	6524
2026-01-24 09:58:11.47	158.85	9.64	-42.5	-47.9	9.5	1.30e-02	0	57	0	44040192	56	6787
2026-01-24 09:58:15.51	158.84	9.99	-42.6	-48.0	9.5	1.29e-02	0	58	0	51380224	56	6820
2026-01-24 09:58:19.55	158.84	10.34	-42.5	-47.7	9.9	9.26e-03	0	58	0	59768832	56	6619
2026-01-24 09:58:23.59	158.83	10.70	-42.5	-47.6	10.0	7.64e-03	0	58	0	67108864	56	6506
2026-01-24 09:58:27.62	158.82	11.07	-42.4	-47.2	10.5	4.63e-03	0	58	0	74448896	56	6218
2026-01-24 09:58:31.66	158.81	11.44	-42.4	-47.1	10.6	3.35e-03	0	58	0	81788928	56	6188
2026-01-24 09:58:35.70	158.80	11.82	-42.3	-46.9	10.9	3.03e-03	0	58	0	89128960	56	6042
2026-01-24 09:58:39.73	158.79	12.20	-42.4	-47.1	10.8	2.13e-03	0	58	0	97517568	56	6141
2026-01-24 09:58:43.77	158.78	12.59	-42.4	-46.9	11.0	2.01e-03	0	59	0	104857600	56	6050
2026-01-24 09:58:47.81	158.77	12.99	-42.4	-46.8	11.1	1.66e-03	0	59	0	112197632	56	5992
2026-01-24 09:58:51.85	158.75	13.39	-42.4	-46.8	11.2	1.77e-03	0	59	0	119537664	56	5991
2026-01-24 09:58:55.89	158.74	13.80	-42.4	-46.8	11.3	1.09e-03	0	59	0	127926272	56	5941
2026-01-24 09:58:59.93	158.73	14.22	-42.2	-46.4	11.7	6.00e-04	0	59	0	135266304	56	5671
2026-01-24 09:59:03.97	158.71	14.64	-42.2	-46.3	11.8	4.26e-04	0	59	0	142606336	56	5653
2026-01-24 09:59:08.00	158.70	15.07	-41.9	-45.8	12.2	1.79e-04	0	59	0	149946368	55	5593
2026-01-24 09:59:12.04	158.68	15.51	-41.9	-45.7	12.3	1.62e-04	0	59	0	157286400	55	5562
2026-01-24 09:59:16.08	158.66	15.96	-41.8	-45.5	12.5	1.02e-04	0	59	0	165675008	55	5441
2026-01-24 09:59:20.11	158.65	16.41	-41.8	-45.5	12.5	1.41e-04	0	59	0	173015040	55	5439
2026-01-24 09:59:24.15	158.63	16.88	-41.7	-45.3	12.7	6.63e-05	0	59	0	180355072	55	5334
2026-01-24 09:59:28.19	158.61	17.35	-41.7	-45.2	12.8	5.95e-05	0	59	0	187695104	55	5278
2026-01-24 09:59:32.23	158.59	17.83	-41.6	-45.1	13.0	4.11e-05	0	59	0	196083712	55	5198
2026-01-24 09:59:36.26	158.57	18.32	-41.5	-44.9	13.1	4.88e-05	0	59	0	203423744	55	5064
2026-01-24 09:59:40.30	158.54	18.82	-41.6	-45.1	13.0	3.28e-05	0	59	0	210763776	54	5514
2026-01-24 09:59:44.34	158.52	19.34	-41.7	-45.3	12.8	9.30e-05	0	60	0	218103808	54	5597
2026-01-24 09:59:48.37	158.49	19.86	-41.8	-45.4	12.7	5.79e-05	0	59	0	225443840	54	5712
2026-01-24 09:59:52.41	158.47	20.39	-41.7	-45.4	12.7	1.27e-04	0	60	0	233832448	54	5696
2026-01-24 09:59:56.45	158.44	20.94	-41.9	-45.8	12.3	1.33e-04	0	60	0	241172480	54	5949
2026-01-24 10:00:00.49	158.41	21.50	-42.0	-45.9	12.2	2.50e-04	0	60	0	248512512	54	6042
2026-01-24 10:00:04.53	158.38	22.07	-42.0	-46.0	12.2	1.95e-04	0	60	0	255852544	54	6076
2026-01-24 10:00:08.56	158.35	22.65	-41.9	-45.7	12.4	2.69e-04	0	60	0	264241152	54	5910
2026-01-24 10:00:12.60	158.31	23.25	-41.8	-45.4	12.7	8.92e-05	0	60	0	271581184	54	5717
2026-01-24 10:00:16.64	158.28	23.86	-41.6	-45.1	13.1	4.73e-05	0	60	0	278921216	54	5515
2026-01-24 10:00:20.68	158.24	24.49	-41.6	-45.0	13.2	2.13e-05	0	60	0	286261248	54	5413
2026-01-24 10:00:24.71	158.20	25.13	-41.6	-45.0	13.1	4.95e-05	0	60	0	293601280	54	5447
2026-01-24 10:00:28.75	158.16	25.79	-41.2	-44.3	13.8	4.50e-06	0	60	0	301989888	54	5038
2026-01-24 10:00:32.79	158.12	26.46	-41.2	-44.4	13.8	6.10e-06	0	60	0	309329920	54	5057
2026-01-24 10:00:36.83	158.07	27.15	-41.7	-45.2	12.9	3.66e-05	0	60	0	316669952	54	5550
2026-01-24 10:00:40.86	158.02	27.86	-42.0	-45.8	12.3	1.36e-04	0	60	0	324009984	54	5970
2026-01-24 10:00:44.90	157.97	28.59	-42.0	-45.7	12.4	1.50e-04	0	60	0	331350016	54	5919
2026-01-24 10:00:48.94	157.91	29.34	-42.3	-46.4	11.8	5.36e-04	0	60	0	339738624	55	5999
2026-01-24 10:00:52.97	157.86	30.11	-42.9	-47.5	10.7	2.63e-03	0	60	0	347078656	56	6450
2026-01-24 10:00:57.01	157.79	30.90	-42.7	-47.1	11.1	2.54e-03	0	60	0	354418688	56	6195
2026-01-24 10:01:01.05	157.73	31.71	-43.4	-48.8	9.4	1.07e-02	0	60	0	361758720	57	7087
2026-01-24 10:01:05.08	157.66	32.54	-43.8	-50.1	8.0	6.28e-02	0	60	0	370147328	58	7754
2026-01-24 10:01:09.12	157.59	33.40	-43.7	-49.7	8.5	5.12e-02	0	60	0	377487360	58	7453
2026-01-24 10:01:13.16	157.51	34.28	-43.5	-49.1	9.1	4.04e-02	0	60	0	384827392	58	6952
2026-01-24 10:01:17.20	157.42	35.19	-42.3	-46.2	12.1	5.32e-04	0	61	0	392167424	56	5581
2026-01-24 10:01:21.24	157.33	36.12	-42.0	-45.6	12.6	8.31e-05	0	60	0	399507456	55	5499
2026-01-24 10:01:25.27	157.24	37.09	-41.6	-45.0	13.3	1.29e-05	0	60	0	407896064	54	5425
2026-01-24 10:01:29.31	157.14	38.08	-41.2	-44.3	14.0	1.50e-06	0	60	0	415236096	53	5282
2026-01-24 10:01:33.35	157.03	39.10	-41.3	-44.4	13.8	1.22e-05	0	60	0	422576128	53	5383
2026-01-24 10:01:37.38	156.91	40.15	-41.2	-44.3	13.9	1.50e-06	0	61	0	429916160	53	5299
2026-01-24 10:01:41.42	156.79	41.24	-41.0	-43.9	14.3	7.00e-07	0	60	0	438304768	53	5084
2026-01-24 10:01:45.46	156.65	42.35	-41.7	-45.0	13.2	2.28e-05	0	61	0	445644800	54	5464
2026-01-24 10:01:49.50	156.50	43.51	-41.7	-45.1	13.2	1.83e-05	0	61	0	452984832	54	5476
2026-01-24 10:01:53.53	156.34	44.69	-42.4	-46.5	11.5	5.55e-04	0	61	0	460324864	55	6116
2026-01-24 10:01:57.57	156.17	45.92	-42.4	-46.4	11.8	5.01e-04	0	61	0	467664896	55	6061
2026-01-24 10:02:01.61	155.99	47.18	-43.6	-49.3	9.0	3.14e-02	0	61	0	476053504	58	7104
2026-01-24 10:02:05.65	155.78	48.48	-43.2	-48.1	10.3	6.37e-03	0	61	0	483393536	58	6161
2026-01-24 10:02:09.69	155.56	49.82	-42.2	-45.9	12.6	1.36e-04	0	61	0	490733568	56	5353
2026-01-24 10:02:13.73	155.31	51.20	-41.1	-44.1	14.1	3.80e-06	0	61	0	498073600	54	4892
2026-01-24 10:02:17.76	155.04	52.62	-41.8	-45.3	13.1	2.36e-05	0	61	0	506462208	54	5596
2026-01-24 10:02:21.80	154.74	54.08	-41.4	-44.6	13.7	1.52e-05	0	61	0	513802240	54	5196
2026-01-24 10:02:25.84	154.41	55.58	-41.6	-44.9	13.4	1.29e-05	0	61	0	521142272	54	5401
2026-01-24 10:02:29.88	154.03	57.13	-41.9	-45.4	12.9	3.28e-05	0	61	0	528482304	54	5673
2026-01-24 10:02:33.91	153.62	58.71	-42.7	-46.9	11.5	2.50e-03	0	61	0	535822336	56	6025
2026-01-24 10:02:37.95	153.14	60.34	-43.2	-48.1	10.2	6.50e-03	0	61	0	544210944	57	6555
2026-01-24 10:02:41.99	152.59	62.01	-42.6	-46.6	11.8	1.21e-03	0	61	0	551550976	57	5496
2026-01-24 10:02:46.03	151.97	63.72	-40.8	-43.6	14.6	7.00e-07	0	61	0	558891008	53	4890
2026-01-24 10:02:50.07	151.24	65.47	-41.1	-44.1	14.1	7.00e-07	0	61	0	566231040	53	5175
2026-01-24 10:02:54.11	150.38	67.25	-42.4	-46.5	11.7	3.26e-04	0	61	0	574619648	55	6098
2026-01-24 10:02:58.15	149.36	69.06	-43.3	-48.3	9.8	9.71e-03	0	61	0	581959680	57	6719
2026-01-24 10:03:02.19	148.13	70.90	-44.0	-50.8	7.2	8.57e-02	0	61	0	589299712	58	8459
2026-01-24 10:03:06.22	146.61	72.76	-41.2	-44.3	13.8	3.80e-06	0	61	0	596639744	54	4994
2026-01-24 10:03:10.26	144.69	74.65	-42.0	-45.6	12.5	1.37e-05	0	61	0	603979776	54	5841
2026-01-24 10:03:14.30	142.21	76.53	-43.4	-48.6	9.6	9.85e-03	0	61	0	612368384	57	6920
2026-01-24 10:03:18.34	138.88	78.41	-43.7	-49.6	8.5	2.56e-02	0	61	0	619708416	58	7318
2026-01-24 10:03:22.38	134.24	80.26	-43.2	-48.2	9.9	1.91e-02	0	61	0	627048448	58	6207
2026-01-24 10:03:26.41	127.47	82.02	-41.6	-45.0	13.0	3.89e-04	0	61	0	634388480	55	5151
2026-01-24 10:03:30.46	116.97	83.63	-40.9	-43.7	14.5	2.20e-06	0	61	0	642777088	53	4965
2026-01-24 10:03:34.50	100.36	84.90	-41.7	-45.2	12.9	1.83e-05	0	61	0	650117120	54	5564
2026-01-24 10:03:38.54	76.33	85.53	-41.5	-44.8	13.3	7.60e-06	0	61	0	657457152	54	5290
2026-01-24 10:03:42.57	50.59	85.23	-43.2	-47.8	10.7	6.94e-05	0	61	0	664797184	56	6677
2026-01-24 10:03:46.61	31.11	84.17	-40.8	-43.5	14.6	7.00e-07	0	61	0	672137216	53	4852
2026-01-24 10:03:50.64	18.67	82.66	-42.4	-46.6	11.6	1.36e-04	0	61	0	680525824	55	6162
2026-01-24 10:03:54.68	10.71	80.94	-42.6	-46.7	11.7	9.27e-04	0	61	0	687865856	56	5908
2026-01-24 10:03:58.72	5.38	79.12	-43.7	-49.4	8.8	1.44e-02	0	61	0	695205888	57	7622
2026-01-24 10:04:02.76	1.63	77.26	-41.7	-45.0	13.3	4.50e-06	0	61	0	702545920	54	5408
2026-01-24 10:04:06.80	358.87	75.37	-41.6	-44.8	13.4	3.73e-05	0	61	0	709885952	55	5027
2026-01-24 10:04:10.83	356.77	73.49	-41.5	-44.8	13.5	7.60e-06	0	61	0	718274560	54	5286
2026-01-24 10:04:14.87	355.11	71.63	-43.2	-48.0	10.3	2.04e-03	0	61	0	725614592	56	6841
2026-01-24 10:04:18.91	353.78	69.78	-43.5	-48.8	9.4	2.45e-02	0	61	0	732954624	58	6667
2026-01-24 10:04:22.94	352.69	67.96	-43.8	-50.0	8.2	7.41e-02	0	61	0	740294656	58	7635
2026-01-24 10:04:26.98	351.77	66.17	-42.5	-46.5	11.8	3.87e-04	0	61	0	748683264	56	5746
2026-01-24 10:04:31.02	351.00	64.42	-41.9	-45.4	12.8	2.13e-05	0	61	0	756023296	54	5700
2026-01-24 10:04:35.06	350.34	62.70	-42.0	-45.7	12.6	4.95e-05	0	61	0	763363328	55	5533
2026-01-24 10:04:39.09	349.77	61.02	-41.4	-44.6	13.6	3.80e-06	0	61	0	770703360	53	5528
2026-01-24 10:04:43.13	349.27	59.38	-41.1	-44.0	14.2	1.06e-05	0	61	0	778043392	54	4848
2026-01-24 10:04:47.17	348.83	57.79	-41.5	-44.7	13.5	2.59e-05	0	61	0	786432000	54	5277
2026-01-24 10:04:51.21	348.44	56.23	-41.0	-43.8	14.5	1.50e-06	0	61	0	793772032	53	5006
2026-01-24 10:04:55.25	348.09	54.71	-40.7	-43.4	14.8	0.00e+00	0	61	0	801112064	52	5069
2026-01-24 10:04:59.28	347.78	53.24	-41.5	-44.7	13.5	3.20e-05	0	61	0	808452096	54	5252
2026-01-24 10:05:03.32	347.50	51.81	-43.7	-49.8	8.6	9.36e-03	0	61	0	816840704	57	7910
2026-01-24 10:05:07.36	347.25	50.42	-42.3	-46.0	12.3	1.02e-04	0	61	0	824180736	56	5450
2026-01-24 10:05:11.40	347.02	49.07	-42.4	-46.2	12.2	7.62e-05	0	61	0	831520768	56	5556
2026-01-24 10:05:15.44	346.81	47.76	-43.1	-47.9	10.4	1.44e-02	0	61	0	838860800	58	5998
2026-01-24 10:05:19.47	346.61	46.49	-41.8	-45.3	12.9	3.20e-05	0	61	0	846200832	54	5610
2026-01-24 10:05:23.52	346.44	45.25	-44.4	-52.7	5.9	1.38e-01	0	61	0	854589440	59	9890
2026-01-24 10:05:27.56	346.28	44.06	-42.4	-46.4	11.9	2.77e-04	0	61	0	861929472	56	5677
2026-01-24 10:05:31.60	346.13	42.89	-43.3	-48.7	9.5	1.13e-02	0	61	0	869269504	57	6976
2026-01-24 10:05:35.63	345.99	41.77	-44.3	-52.6	5.8	3.47e-01	0	61	0	876609536	59	9748
2026-01-24 10:05:39.67	345.86	40.68	-42.8	-47.3	10.9	1.66e-02	0	61	0	884998144	57	5974
2026-01-24 10:05:43.70	345.74	39.62	-42.7	-47.1	11.2	5.77e-04	0	61	0	892338176	56	6155
2026-01-24 10:05:47.74	345.63	38.59	-43.8	-50.1	8.1	7.97e-02	0	61	0	899678208	58	7778
2026-01-24 10:05:51.77	345.53	37.59	-43.7	-50.0	8.0	3.79e-02	0	61	0	907018240	58	7708
2026-01-24 10:05:55.82	345.43	36.62	-43.1	-48.0	10.1	8.66e-03	0	61	0	914358272	58	6082
2026-01-24 10:05:59.86	345.34	35.67	-42.7	-47.2	11.0	5.30e-03	0	62	0	922746880	57	5857
2026-01-24 10:06:03.89	345.26	34.76	-43.8	-50.4	7.7	6.30e-02	0	62	0	930086912	58	8017
2026-01-24 10:06:07.93	345.18	33.87	-44.4	-53.2	5.4	6.08e-01	0	61	0	937426944	59	10497
2026-01-24 10:06:11.97	345.11	33.01	-44.6	-54.4	4.8	6.30e-02	0	62	0	942669824	59	12091
2026-01-24 10:06:16.01	345.04	32.17	-43.3	-48.8	9.3	2.07e-02	0	62	0	950009856	58	6656
2026-01-24 10:06:20.04	344.97	31.35	-43.0	-48.0	10.0	1.09e-02	0	61	0	957349888	58	6099
2026-01-24 10:06:24.08	344.91	30.56	-42.9	-47.6	10.6	3.64e-03	0	61	0	965738496	57	6145
2026-01-24 10:06:28.12	344.85	29.78	-43.4	-49.3	8.6	3.08e-02	0	62	0	973078528	57	7499
2026-01-24 10:06:32.16	344.80	29.03	-43.3	-49.2	8.6	4.23e-02	0	62	0	980418560	57	7406
2026-01-24 10:06:36.20	344.75	28.29	-42.7	-47.4	10.4	5.04e-03	0	61	0	987758592	57	6052
2026-01-24 10:06:40.24	344.70	27.58	-42.0	-45.8	12.1	3.85e-04	0	62	0	996147200	56	5324
2026-01-24 10:06:44.28	344.66	26.88	-41.7	-45.5	12.3	1.73e-04	0	61	0	1003487232	55	5436
2026-01-24 10:06:48.32	344.61	26.20	-41.9	-45.9	11.7	4.41e-04	0	61	0	1010827264	55	5687
2026-01-24 10:06:52.36	344.57	25.54	-42.1	-46.6	10.9	2.84e-03	0	61	0	1018167296	55	6197
2026-01-24 10:06:56.40	344.53	24.90	-42.1	-46.6	10.7	4.01e-03	0	62	0	1025507328	55	6192
2026-01-24 10:07:00.43	344.50	24.27	-41.7	-45.9	11.3	9.96e-04	0	62	0	1033895936	55	5696
2026-01-24 10:07:04.47	344.46	23.65	-41.2	-45.1	12.0	3.21e-04	0	62	0	1041235968	54	5527
2026-01-24 10:07:08.51	344.43	23.05	-40.8	-44.7	12.0	2.39e-04	0	61	0	1048576000	53	5568
2026-01-24 10:07:12.55	344.40	22.46	-40.3	-44.1	12.0	3.46e-04	0	61	0	1055916032	52	5504
2026-01-24 10:07:16.59	344.37	21.89	-39.9	-43.6	12.4	1.23e-04	0	61	0	1064304640	51	5488
2026-01-24 10:07:20.63	344.35	21.33	-40.6	-45.9	9.6	4.81e-03	0	62	0	1071644672	51	7159
2026-01-24 10:07:24.67	344.32	20.78	-41.3	-52.5	4.2	1.31e+00	0	62	0	1078984704	53	13639
2026-01-24 10:07:28.70	344.30	20.24	-41.2	-55.6	3.8	1.49e+00	0	62	104	1078984704	53	19566
2026-01-24 10:07:32.75	344.28	19.71	-41.1	-55.7	3.8	1.49e+00	0	62	104	1078984704	53	19707
2026-01-24 10:07:36.78	344.25	19.20	-41.0	-55.5	3.8	1.49e+00	0	62	104	1078984704	53	19218
2026-01-24 10:07:40.82	344.23	18.70	-40.7	-55.2	3.8	1.49e+00	0	61	104	1078984704	53	18668
2026-01-24 10:07:44.86	344.22	18.20	-40.6	-55.1	3.8	1.49e+00	0	61	104	1078984704	53	18497
2026-01-24 10:07:48.90	344.20	17.72	-40.7	-55.1	3.8	1.49e+00	0	62	104	1078984704	53	18513
2026-01-24 10:07:52.94	344.18	17.24	-40.7	-55.2	3.8	1.49e+00	0	62	104	1078984704	53	18578
2026-01-24 10:07:56.98	344.16	16.77	-40.6	-55.1	3.8	1.49e+00	0	62	104	1078984704	53	18383
2026-01-24 10:08:01.01	344.15	16.32	-40.6	-55.1	3.8	1.49e+00	0	62	104	1078984704	53	18350
2026-01-24 10:08:05.05	344.14	15.87	-40.6	-55.1	3.8	1.49e+00	0	62	104	1078984704	53	18466
2026-01-24 10:08:09.09	344.12	15.43	-40.6	-55.1	3.8	1.49e+00	0	61	104	1078984704	53	18486
2026-01-24 10:08:13.13	344.11	14.99	-40.6	-55.1	3.8	1.49e+00	0	62	104	1078984704	53	18353
2026-01-24 10:08:17.16	344.10	14.57	-40.5	-55.0	3.8	1.49e+00	0	61	104	1078984704	53	18240
2026-01-24 10:08:21.20	344.09	14.15	-40.6	-55.0	3.8	1.49e+00	0	62	104	1078984704	53	18268
2026-01-24 10:08:25.24	344.08	13.74	-40.6	-55.1	3.8	1.49e+00	0	61	104	1078984704	53	18408
2026-01-24 10:08:29.28	344.07	13.34	-40.6	-55.1	3.8	1.49e+00	0	62	104	1078984704	53	18343
2026-01-24 10:08:33.31	344.06	12.94	-40.5	-55.0	3.8	1.49e+00	0	62	104	1078984704	52	19240
2026-01-24 10:08:37.35	344.05	12.55	-40.4	-54.9	3.8	1.49e+00	0	61	104	1078984704	52	19028
2026-01-24 10:08:41.39	344.05	12.16	-40.4	-54.9	3.8	1.49e+00	0	62	104	1078984704	52	19031
2026-01-24 10:08:45.43	344.04	11.79	-40.5	-55.0	3.8	1.49e+00	0	62	104	1078984704	52	19296
2026-01-24 10:08:49.47	344.03	11.41	-40.6	-55.1	3.8	1.49e+00	0	61	104	1078984704	52	19498
2026-01-24 10:08:53.50	344.03	11.05	-40.5	-55.0	3.8	1.49e+00	0	62	104	1078984704	52	19189
2026-01-24 10:08:57.54	344.02	10.68	-40.3	-54.8	3.8	1.49e+00	0	62	104	1078984704	52	18881
2026-01-24 10:09:01.58	344.02	10.33	-40.3	-54.8	3.8	1.49e+00	0	62	104	1078984704	52	18852
2026-01-24 10:09:05.62	344.02	9.98	-40.4	-54.9	3.8	1.49e+00	0	62	104	1078984704	52	19152
2026-01-24 10:09:09.65	344.01	9.63	-40.6	-55.1	3.8	1.49e+00	0	62	104	1078984704	52	19416
2026-01-24 10:09:13.69	344.01	9.29	-40.6	-55.1	3.8	1.49e+00	0	62	104	1078984704	52	19518
2026-01-24 10:09:17.73	344.01	8.95	-40.5	-55.0	3.8	1.49e+00	0	62	104	1078984704	52	19332
2026-01-24 10:09:21.77	344.01	8.62	-40.4	-54.9	3.8	1.49e+00	0	62	104	1078984704	52	19065
2026-01-24 10:09:25.81	344.01	8.29	-40.4	-54.9	3.8	1.49e+00	0	62	104	1078984704	52	19002
2026-01-24 10:09:29.85	344.00	7.96	-40.3	-54.8	3.8	1.49e+00	0	62	104	1078984704	52	18915
2026-01-24 10:09:33.90	344.00	7.64	-44.8	-59.4	3.8	1.49e+00	0	61	104	1078984704	60	20298
2026-01-24 10:09:37.94	344.00	7.33	-45.1	-59.8	3.8	1.49e+00	0	62	104	1078984704	60	21100
2026-01-24 10:09:41.98	344.00	7.01	-45.2	-59.8	3.8	1.49e+00	0	61	104	1078984704	60	21036
2026-01-24 10:09:46.02	344.00	6.71	-45.1	-59.7	3.8	1.49e+00	0	62	104	1078984704	60	20814
2026-01-24 10:09:50.07	344.00	6.40	-45.1	-59.6	3.8	1.49e+00	0	62	104	1078984704	60	20758
2026-01-24 10:09:54.11	344.01	6.10	-45.1	-59.7	3.8	1.49e+00	0	62	104	1078984704	60	20803
2026-01-24 10:09:58.15	344.01	5.80	-45.0	-59.6	3.8	1.49e+00	0	62	104	1078984704	60	20660
2026-01-24 10:10:02.19	344.01	5.51	-45.1	-59.6	3.8	1.49e+00	0	62	104	1078984704	60	20738
2026-01-24 10:10:06.23	344.01	5.22	-45.0	-59.6	3.8	1.49e+00	0	62	104	1078984704	60	20707
2026-01-24 10:10:10.27	344.01	4.93	-45.0	-59.6	3.8	1.49e+00	0	62	104	1078984704	60	20668
2026-01-24 10:10:14.31	344.02	4.64	-43.0	-59.4	3.7	1.49e+00	0	62	104	1078984704	58	22524
2026-01-24 10:10:18.36	344.02	4.36	-45.0	-59.6	3.8	1.49e+00	0	62	104	1078984704	60	20594
2026-01-24 10:10:22.40	344.02	4.08	-45.0	-59.5	3.8	1.49e+00	0	62	104	1078984704	60	20511
2026-01-24 10:10:26.44	344.03	3.81	-45.0	-59.5	3.8	1.49e+00	0	62	104	1078984704	60	20447
2026-01-24 10:10:30.48	344.03	3.53	-45.0	-59.5	3.8	1.49e+00	0	62	104	1078984704	60	20495
2026-01-24 10:10:34.52	344.03	3.26	-44.9	-59.6	3.8	1.49e+00	0	62	104	1078984704	60	20561
2026-01-24 10:10:38.56	344.04	2.99	-45.0	-59.5	3.8	1.49e+00	0	62	104	1078984704	60	20521
2026-01-24 10:10:42.60	344.04	2.73	-44.9	-59.5	3.8	1.49e+00	0	62	104	1078984704	60	20446
2026-01-24 10:10:46.64	344.05	2.47	-44.9	-59.5	3.8	1.49e+00	0	62	104	1078984704	60	20439
2026-01-24 10:10:50.69	344.05	2.20	-44.9	-59.5	3.8	1.49e+00	0	62	104	1078984704	60	20401

#Closed at: 2026-01-24 10:10:54
#Recorded file [1078 MB]: D:/lorett/data/31039_260124_125630.dat