passes_logs/2026/01/24/R2.0S_Moscow/R2.0S_Moscow__20260124_124737_AQUA_rec.log

#Pass ID: 20260124_124737_AQUA
#Satellite: AQUA
#Configuration: AQUA
#almurnet v.1.7.20251203
#Start time: 2026-01-24 12:48:45

#Version: 2.2.20231116
#Station: R2.0S_Moscow
#Location: 37.707566 lon 55.798166 lat
#TLE: 1 27424U 02022A   26023.58972979  .00001888  00000+0  38753-3 0  9997
#TLE: 2 27424  98.4100 350.1620 0001948  68.5331  43.0280 14.61852003262140

#Time	Az	El	Level	Level2	SNR	BER	BlckErr	Temp	State	Recorded	gain1	gain2
2026-01-24 12:48:45.08	201.53	6.41	-45.0	-56.7	3.8	8.45e-01	0	61	0	0	60	14809
2026-01-24 12:48:48.10	201.79	6.62	-46.3	-64.8	3.8	7.45e-01	0	62	104	0	63	31769
2026-01-24 12:48:51.13	202.06	6.84	-46.1	-64.6	3.8	7.44e-01	0	61	104	0	63	30817
2026-01-24 12:48:54.16	202.33	7.05	-45.7	-63.9	3.8	7.45e-01	0	61	104	0	63	28396
2026-01-24 12:48:57.19	202.61	7.27	-45.4	-63.3	3.8	7.47e-01	0	61	104	0	62	28093
2026-01-24 12:49:00.23	202.89	7.49	-45.3	-63.1	3.8	7.47e-01	0	61	104	0	62	27635
2026-01-24 12:49:03.26	203.17	7.71	-45.3	-62.6	3.8	7.44e-01	0	61	104	0	62	26048
2026-01-24 12:49:06.29	203.47	7.94	-45.3	-62.1	3.8	7.41e-01	0	62	104	0	62	24567
2026-01-24 12:49:09.32	203.76	8.16	-45.3	-61.1	4.0	7.42e-01	0	61	104	0	62	21938
2026-01-24 12:49:12.35	204.06	8.39	-45.2	-58.9	4.4	7.21e-01	0	62	104	0	62	17020
2026-01-24 12:49:15.38	204.36	8.62	-44.9	-55.9	6.7	6.69e-01	92	62	0	2097152	61	12710
2026-01-24 12:49:18.42	204.68	8.85	-44.6	-53.1	9.4	6.30e-01	0	62	0	7340032	61	9197
2026-01-24 12:49:21.44	204.99	9.08	-44.2	-51.2	11.4	6.16e-01	0	61	0	13107200	60	7880
2026-01-24 12:49:24.48	205.31	9.31	-44.0	-50.7	12.0	6.12e-01	0	62	0	18874368	60	7451
2026-01-24 12:49:27.51	205.64	9.55	-44.2	-51.7	11.0	6.17e-01	0	62	0	24641536	60	8278
2026-01-24 12:49:30.54	205.97	9.79	-44.2	-51.5	11.1	6.17e-01	0	62	0	30408704	60	8094
2026-01-24 12:49:33.57	206.31	10.02	-43.6	-48.9	14.1	6.06e-01	0	61	0	36175872	59	6408
2026-01-24 12:49:36.60	206.65	10.26	-42.6	-46.7	16.5	6.07e-01	0	62	0	41418752	57	5552
2026-01-24 12:49:39.63	207.00	10.51	-43.0	-47.3	16.3	6.06e-01	0	62	0	47185920	56	6310
2026-01-24 12:49:42.66	207.35	10.75	-44.8	-55.4	8.0	6.57e-01	83	62	0	52953088	60	12782
2026-01-24 12:49:45.69	207.71	11.00	-42.3	-46.1	17.1	6.04e-01	0	62	0	56098816	56	5468
2026-01-24 12:49:48.72	208.08	11.24	-41.9	-45.4	17.7	6.04e-01	0	62	0	61865984	55	5373
2026-01-24 12:49:51.75	208.46	11.49	-41.9	-45.4	17.8	6.07e-01	0	62	0	67633152	55	5345
2026-01-24 12:49:54.78	208.84	11.74	-41.8	-45.2	17.9	6.07e-01	0	61	0	73400320	55	5264
2026-01-24 12:49:57.81	209.22	12.00	-41.9	-45.3	17.9	6.08e-01	0	61	0	79167488	55	5312
2026-01-24 12:50:00.84	209.62	12.25	-41.7	-45.0	18.2	6.08e-01	0	62	0	84934656	55	5132
2026-01-24 12:50:03.86	210.02	12.51	-41.8	-45.1	18.2	6.06e-01	0	62	0	90177536	55	5173
2026-01-24 12:50:06.89	210.43	12.77	-41.8	-45.1	18.1	6.07e-01	0	62	0	95944704	55	5208
2026-01-24 12:50:09.92	210.85	13.03	-41.7	-45.0	18.3	6.06e-01	0	61	0	101711872	55	5128
2026-01-24 12:50:12.96	211.27	13.29	-41.7	-45.0	18.4	6.06e-01	0	62	0	107479040	55	5115
2026-01-24 12:50:15.99	211.70	13.55	-41.7	-44.9	18.4	6.06e-01	0	61	0	113246208	55	5090
2026-01-24 12:50:19.01	212.14	13.82	-41.8	-45.0	18.3	6.07e-01	0	61	0	119013376	55	5127
2026-01-24 12:50:22.04	212.59	14.08	-41.8	-45.1	18.3	6.07e-01	0	62	0	124256256	55	5183
2026-01-24 12:50:25.07	213.05	14.35	-41.7	-44.8	18.5	6.06e-01	0	62	0	130023424	54	5337
2026-01-24 12:50:28.09	213.51	14.62	-41.7	-44.9	18.5	6.07e-01	0	62	0	135790592	54	5378
2026-01-24 12:50:31.13	213.99	14.90	-41.7	-44.9	18.5	6.06e-01	0	62	0	141557760	54	5363
2026-01-24 12:50:34.15	214.47	15.17	-41.7	-44.9	18.6	6.05e-01	0	62	0	147324928	54	5341
2026-01-24 12:50:37.19	214.97	15.45	-41.6	-44.8	18.6	6.07e-01	0	62	0	153092096	54	5297
2026-01-24 12:50:40.22	215.47	15.72	-41.6	-44.7	18.8	6.06e-01	0	62	0	158334976	54	5238
2026-01-24 12:50:43.24	215.98	16.00	-41.6	-44.8	18.6	6.04e-01	0	61	0	164102144	54	5323
2026-01-24 12:50:46.27	216.51	16.28	-41.7	-44.9	18.6	6.07e-01	0	62	0	169869312	53	5676
2026-01-24 12:50:49.30	217.04	16.56	-41.7	-44.8	18.6	6.05e-01	0	62	0	175636480	54	5316
2026-01-24 12:50:52.34	217.59	16.84	-41.6	-44.7	18.8	6.06e-01	0	61	0	181403648	54	5228
2026-01-24 12:50:55.37	218.14	17.13	-41.6	-44.7	18.8	6.07e-01	0	62	0	187170816	54	5257
2026-01-24 12:50:58.39	218.70	17.41	-41.5	-44.6	19.0	6.07e-01	0	62	0	192413696	54	5166
2026-01-24 12:51:01.42	219.28	17.70	-41.6	-44.6	18.9	6.07e-01	0	62	0	198180864	54	5176
2026-01-24 12:51:04.45	219.87	17.99	-41.5	-44.5	19.0	6.07e-01	0	62	0	203948032	54	5132
2026-01-24 12:51:07.48	220.47	18.27	-41.6	-44.6	19.0	6.08e-01	0	61	0	209715200	54	5175
2026-01-24 12:51:10.51	221.08	18.56	-41.5	-44.5	19.0	6.05e-01	0	61	0	215482368	54	5154
2026-01-24 12:51:13.54	221.70	18.85	-41.6	-44.7	18.9	6.07e-01	0	62	0	221249536	54	5230
2026-01-24 12:51:16.57	222.34	19.14	-41.7	-44.8	18.7	6.06e-01	0	62	0	226492416	54	5327
2026-01-24 12:51:19.60	222.99	19.43	-41.6	-44.6	19.0	6.05e-01	0	61	0	232259584	54	5162
2026-01-24 12:51:22.63	223.65	19.72	-41.6	-44.6	18.9	6.06e-01	0	62	0	238026752	54	5208
2026-01-24 12:51:25.66	224.32	20.01	-41.7	-44.8	18.8	6.07e-01	0	61	0	243793920	54	5287
2026-01-24 12:51:28.69	225.01	20.30	-41.6	-44.6	19.0	6.07e-01	0	61	0	249561088	54	5199
2026-01-24 12:51:31.72	225.71	20.59	-41.6	-44.7	18.9	6.07e-01	0	62	0	255328256	54	5231
2026-01-24 12:51:34.75	226.43	20.88	-41.7	-44.8	18.8	6.07e-01	0	62	0	260571136	54	5282
2026-01-24 12:51:37.78	227.15	21.17	-41.7	-44.8	18.8	6.05e-01	0	62	0	266338304	54	5323
2026-01-24 12:51:40.81	227.90	21.46	-41.7	-44.7	18.9	6.06e-01	0	62	0	272105472	54	5225
2026-01-24 12:51:43.83	228.65	21.74	-41.8	-44.9	18.8	6.05e-01	0	62	0	277872640	54	5350
2026-01-24 12:51:46.86	229.42	22.03	-41.8	-44.9	18.7	6.06e-01	0	62	0	283639808	54	5393
2026-01-24 12:51:49.89	230.21	22.31	-41.8	-44.9	18.7	6.06e-01	0	62	0	289406976	54	5393
2026-01-24 12:51:52.92	231.01	22.59	-41.9	-45.0	18.6	6.07e-01	0	62	0	294649856	54	5436
2026-01-24 12:51:55.95	231.83	22.87	-41.8	-45.0	18.6	6.06e-01	0	62	0	300417024	54	5405
2026-01-24 12:51:58.98	232.66	23.14	-41.8	-44.9	18.7	6.07e-01	0	62	0	306184192	54	5345
2026-01-24 12:52:02.01	233.50	23.42	-41.8	-44.9	18.7	6.08e-01	0	62	0	311951360	54	5358
2026-01-24 12:52:05.04	234.36	23.69	-41.8	-44.9	18.7	6.06e-01	0	62	0	317718528	54	5363
2026-01-24 12:52:08.07	235.24	23.96	-41.9	-45.1	18.5	6.06e-01	0	62	0	323485696	54	5489
2026-01-24 12:52:11.10	236.13	24.22	-41.9	-45.1	18.5	6.07e-01	0	62	0	328728576	54	5502
2026-01-24 12:52:14.13	237.04	24.48	-42.1	-45.3	18.3	6.04e-01	0	62	0	334495744	54	5646
2026-01-24 12:52:17.16	237.96	24.73	-42.1	-45.3	18.3	6.06e-01	0	62	0	340262912	54	5649
2026-01-24 12:52:20.19	238.90	24.98	-42.0	-45.3	18.3	6.06e-01	0	62	0	346030080	54	5626
2026-01-24 12:52:23.22	239.85	25.22	-41.9	-45.1	18.5	6.07e-01	0	61	0	351797248	54	5511
2026-01-24 12:52:26.25	240.82	25.46	-42.0	-45.2	18.5	6.06e-01	0	62	0	357564416	54	5546
2026-01-24 12:52:29.27	241.80	25.69	-42.0	-45.2	18.5	6.06e-01	0	62	0	362807296	54	5555
2026-01-24 12:52:32.30	242.79	25.92	-42.0	-45.2	18.4	6.08e-01	0	62	0	368574464	54	5581
2026-01-24 12:52:35.34	243.81	26.14	-41.9	-45.2	18.5	6.05e-01	0	62	0	374341632	54	5529
2026-01-24 12:52:38.37	244.83	26.35	-42.0	-45.2	18.4	6.06e-01	0	61	0	380108800	54	5574
2026-01-24 12:52:41.40	245.87	26.55	-41.8	-45.0	18.6	6.04e-01	0	62	0	385875968	54	5417
2026-01-24 12:52:44.42	246.92	26.74	-42.0	-45.2	18.5	6.08e-01	0	62	0	391643136	54	5531
2026-01-24 12:52:47.45	247.98	26.93	-42.0	-45.2	18.4	6.05e-01	0	62	0	396886016	54	5532
2026-01-24 12:52:50.48	249.06	27.11	-41.9	-45.1	18.5	6.06e-01	0	62	0	402653184	54	5495
2026-01-24 12:52:53.51	250.15	27.28	-41.9	-45.0	18.6	6.06e-01	0	62	0	408420352	54	5463
2026-01-24 12:52:56.55	251.25	27.43	-41.9	-45.1	18.5	6.07e-01	0	62	0	414187520	54	5473
2026-01-24 12:52:59.57	252.36	27.58	-41.9	-45.0	18.6	6.06e-01	0	62	0	419954688	54	5456
2026-01-24 12:53:02.60	253.48	27.72	-41.8	-44.9	18.7	6.06e-01	0	62	0	425721856	54	5384
2026-01-24 12:53:05.63	254.61	27.85	-41.7	-44.8	18.8	6.07e-01	0	62	0	431489024	54	5312
2026-01-24 12:53:08.66	255.75	27.96	-41.8	-45.0	18.7	6.05e-01	0	62	0	436731904	54	5411
2026-01-24 12:53:11.69	256.90	28.07	-41.8	-44.8	18.8	6.04e-01	0	62	0	442499072	54	5325
2026-01-24 12:53:14.72	258.05	28.16	-41.8	-44.9	18.7	6.04e-01	0	62	0	448266240	54	5351
2026-01-24 12:53:17.75	259.21	28.24	-41.7	-44.7	18.9	6.07e-01	0	62	0	454033408	54	5261
2026-01-24 12:53:20.78	260.38	28.31	-41.8	-44.8	18.8	6.06e-01	0	62	0	459800576	54	5316
2026-01-24 12:53:23.81	261.55	28.37	-41.8	-44.9	18.7	6.06e-01	0	62	0	465043456	54	5398
2026-01-24 12:53:26.83	262.72	28.41	-41.6	-44.5	19.1	6.06e-01	0	62	0	470810624	54	5157
2026-01-24 12:53:29.86	263.90	28.44	-41.6	-44.6	19.0	6.04e-01	0	61	0	476577792	54	5204
2026-01-24 12:53:32.89	265.08	28.46	-41.7	-44.6	19.0	6.04e-01	0	62	0	482344960	54	5216
2026-01-24 12:53:35.93	266.26	28.47	-41.7	-44.8	18.8	6.05e-01	0	62	0	488112128	54	5311
2026-01-24 12:53:38.96	267.44	28.47	-41.7	-44.8	18.8	6.05e-01	0	62	0	493879296	54	5317
2026-01-24 12:53:41.99	268.62	28.45	-41.8	-44.8	18.8	6.06e-01	0	62	0	499646464	54	5331
2026-01-24 12:53:45.02	269.80	28.42	-41.6	-44.6	19.1	6.06e-01	0	62	0	504889344	54	5177
2026-01-24 12:53:48.05	270.97	28.37	-41.6	-44.6	19.0	6.05e-01	0	62	0	510656512	54	5190
2026-01-24 12:53:51.07	272.14	28.32	-41.5	-44.4	19.2	6.06e-01	0	62	0	516423680	54	5098
2026-01-24 12:53:54.10	273.30	28.25	-41.6	-44.6	19.0	6.07e-01	0	62	0	522190848	54	5170
2026-01-24 12:53:57.13	274.46	28.17	-41.5	-44.5	19.1	6.06e-01	0	62	0	527958016	54	5106
2026-01-24 12:54:00.16	275.61	28.08	-41.7	-44.7	18.9	6.04e-01	0	62	0	533200896	54	5257
2026-01-24 12:54:03.19	276.76	27.97	-41.6	-44.5	19.0	6.05e-01	0	62	0	538968064	54	5144
2026-01-24 12:54:06.21	277.89	27.86	-41.7	-44.7	18.9	6.06e-01	0	62	0	544735232	54	5234
2026-01-24 12:54:09.24	279.02	27.73	-41.6	-44.5	19.0	6.03e-01	0	62	0	550502400	54	5159
2026-01-24 12:54:12.27	280.14	27.60	-41.7	-44.8	18.8	6.06e-01	0	61	0	556269568	54	5295
2026-01-24 12:54:15.30	281.25	27.45	-41.5	-44.5	19.1	6.06e-01	0	62	0	562036736	54	5134
2026-01-24 12:54:18.33	282.35	27.29	-41.6	-44.5	19.1	6.05e-01	0	62	0	567279616	54	5145
2026-01-24 12:54:21.36	283.44	27.13	-41.6	-44.5	19.1	6.06e-01	0	62	0	573046784	54	5127
2026-01-24 12:54:24.39	284.51	26.95	-41.5	-44.5	19.1	6.05e-01	0	62	0	578813952	54	5132
2026-01-24 12:54:27.42	285.57	26.77	-41.7	-44.8	18.8	6.04e-01	0	62	0	584581120	54	5299
2026-01-24 12:54:30.45	286.62	26.57	-41.7	-44.8	18.9	6.06e-01	0	62	0	590348288	54	5280
2026-01-24 12:54:33.48	287.66	26.37	-41.8	-44.8	18.8	6.06e-01	0	62	0	596115456	54	5336
2026-01-24 12:54:36.50	288.68	26.16	-41.7	-44.7	18.9	6.05e-01	0	62	0	601358336	54	5268
2026-01-24 12:54:39.53	289.69	25.95	-41.7	-44.7	18.8	6.07e-01	0	62	0	607125504	54	5273
2026-01-24 12:54:42.56	290.68	25.73	-41.7	-44.7	18.8	6.04e-01	0	62	0	612892672	54	5258
2026-01-24 12:54:45.59	291.66	25.50	-41.7	-44.8	18.7	6.06e-01	0	62	0	618659840	54	5305
2026-01-24 12:54:48.62	292.63	25.26	-41.7	-44.8	18.7	6.07e-01	0	62	0	624427008	54	5286
2026-01-24 12:54:51.64	293.57	25.02	-41.8	-44.9	18.6	6.04e-01	0	62	0	630194176	54	5373
2026-01-24 12:54:54.67	294.51	24.77	-41.9	-45.1	18.4	6.06e-01	0	62	0	635437056	54	5497
2026-01-24 12:54:57.70	295.43	24.52	-41.8	-44.9	18.5	6.05e-01	0	62	0	641204224	54	5371
2026-01-24 12:55:00.73	296.33	24.26	-41.8	-44.9	18.5	6.06e-01	0	62	0	646971392	54	5360
2026-01-24 12:55:03.76	297.22	24.00	-41.8	-45.0	18.4	6.06e-01	0	62	0	652738560	54	5404
2026-01-24 12:55:06.79	298.10	23.74	-41.7	-44.8	18.5	6.06e-01	0	62	0	658505728	54	5338
2026-01-24 12:55:09.82	298.95	23.47	-41.8	-45.0	18.3	6.07e-01	0	62	0	664272896	54	5428
2026-01-24 12:55:12.85	299.80	23.20	-41.8	-45.0	18.3	6.04e-01	0	62	0	669515776	54	5456
2026-01-24 12:55:15.87	300.62	22.93	-41.7	-44.8	18.6	6.06e-01	0	62	0	675282944	54	5323
2026-01-24 12:55:18.90	301.44	22.65	-41.7	-44.8	18.6	6.06e-01	0	62	0	681050112	54	5334
2026-01-24 12:55:21.93	302.24	22.37	-41.8	-45.0	18.5	6.08e-01	0	62	0	686817280	54	5420
2026-01-24 12:55:24.96	303.02	22.09	-41.8	-45.0	18.5	6.07e-01	0	62	0	692584448	54	5408
2026-01-24 12:55:27.99	303.79	21.81	-41.8	-45.0	18.5	6.07e-01	0	62	0	698351616	54	5414
2026-01-24 12:55:31.02	304.55	21.53	-41.6	-44.7	18.8	6.06e-01	0	62	0	703594496	54	5250
2026-01-24 12:55:34.04	305.29	21.24	-41.7	-44.9	18.6	6.04e-01	0	62	0	709361664	54	5383
2026-01-24 12:55:37.07	306.01	20.96	-41.6	-44.8	18.7	6.06e-01	0	62	0	715128832	54	5282
2026-01-24 12:55:40.10	306.73	20.67	-41.6	-44.6	18.8	6.06e-01	0	62	0	720896000	54	5198
2026-01-24 12:55:43.14	307.43	20.38	-41.7	-44.9	18.5	6.07e-01	0	62	0	726663168	54	5358
2026-01-24 12:55:46.17	308.11	20.09	-41.6	-44.7	18.8	6.06e-01	0	62	0	732430336	54	5225
2026-01-24 12:55:49.19	308.78	19.81	-41.5	-44.6	18.8	6.05e-01	0	62	0	737673216	54	5202
2026-01-24 12:55:52.22	309.44	19.52	-41.6	-44.8	18.7	6.03e-01	0	62	0	743440384	54	5281
2026-01-24 12:55:55.25	310.09	19.23	-41.6	-44.7	18.7	6.07e-01	0	62	0	749207552	54	5228
2026-01-24 12:55:58.28	310.73	18.94	-41.6	-44.7	18.7	6.05e-01	0	62	0	754974720	54	5258
2026-01-24 12:56:01.31	311.35	18.66	-41.5	-44.6	18.8	6.07e-01	0	62	0	760741888	54	5199
2026-01-24 12:56:04.34	311.96	18.37	-41.5	-44.6	18.8	6.06e-01	0	62	0	766509056	54	5181
2026-01-24 12:56:07.37	312.56	18.09	-41.6	-44.7	18.7	6.05e-01	0	62	0	771751936	54	5262
2026-01-24 12:56:10.40	313.15	17.80	-41.6	-44.7	18.7	6.09e-01	0	62	0	777519104	54	5231
2026-01-24 12:56:13.42	313.72	17.52	-41.6	-44.7	18.6	6.06e-01	0	62	0	783286272	54	5235
2026-01-24 12:56:16.45	314.28	17.24	-41.4	-44.4	18.8	6.06e-01	0	62	0	789053440	54	5096
2026-01-24 12:56:19.48	314.84	16.96	-41.5	-44.6	18.5	6.06e-01	0	62	0	794820608	54	5212
2026-01-24 12:56:22.51	315.38	16.68	-41.5	-44.6	18.5	6.07e-01	0	62	0	800587776	54	5201
2026-01-24 12:56:25.54	315.91	16.40	-41.4	-44.4	18.7	6.08e-01	0	62	0	805830656	54	5099
2026-01-24 12:56:28.56	316.44	16.12	-41.4	-44.5	18.7	6.07e-01	0	62	0	811597824	54	5116
2026-01-24 12:56:31.59	316.95	15.84	-41.5	-44.6	18.5	6.05e-01	0	62	0	817364992	54	5211
2026-01-24 12:56:34.62	317.45	15.57	-41.5	-44.6	18.5	6.08e-01	0	62	0	823132160	54	5207
2026-01-24 12:56:37.65	317.95	15.30	-41.5	-44.7	18.4	6.07e-01	0	62	0	828899328	54	5269
2026-01-24 12:56:40.68	318.43	15.02	-41.6	-44.8	18.2	6.05e-01	0	62	0	834666496	54	5335
2026-01-24 12:56:43.71	318.91	14.75	-41.5	-44.6	18.4	6.06e-01	0	62	0	839909376	54	5203
2026-01-24 12:56:46.74	319.37	14.49	-41.6	-44.9	18.1	6.06e-01	0	62	0	845676544	54	5352
2026-01-24 12:56:49.77	319.83	14.22	-41.5	-44.8	18.3	6.04e-01	0	62	0	851443712	54	5302
2026-01-24 12:56:52.80	320.28	13.95	-41.5	-44.8	18.2	6.07e-01	0	62	0	857210880	54	5309
2026-01-24 12:56:55.83	320.72	13.69	-41.6	-44.8	18.1	6.04e-01	0	62	0	862978048	54	5331
2026-01-24 12:56:58.85	321.15	13.43	-41.5	-44.8	18.2	6.07e-01	0	62	0	868745216	54	5280
2026-01-24 12:57:01.88	321.58	13.17	-41.6	-44.9	18.1	6.04e-01	0	62	0	873988096	54	5344
2026-01-24 12:57:04.91	322.00	12.91	-41.6	-44.9	18.1	6.06e-01	0	62	0	879755264	54	5373
2026-01-24 12:57:07.94	322.41	12.65	-41.7	-45.1	17.8	6.07e-01	0	62	0	885522432	54	5485
2026-01-24 12:57:10.97	322.81	12.40	-41.7	-45.1	17.8	6.06e-01	0	62	0	891289600	54	5492
2026-01-24 12:57:14.00	323.20	12.15	-41.7	-45.2	17.7	6.04e-01	0	62	0	897056768	54	5532
2026-01-24 12:57:17.03	323.59	11.90	-41.7	-45.2	17.6	6.07e-01	0	62	0	902823936	54	5533
2026-01-24 12:57:20.06	323.97	11.65	-41.7	-45.1	17.6	6.06e-01	0	62	0	908066816	54	5472
2026-01-24 12:57:23.08	324.35	11.40	-41.7	-45.2	17.6	6.04e-01	0	62	0	913833984	54	5565
2026-01-24 12:57:26.12	324.72	11.15	-41.8	-45.3	17.5	6.05e-01	0	62	0	919601152	54	5639
2026-01-24 12:57:29.14	325.08	10.91	-41.9	-45.6	17.3	6.05e-01	0	62	0	925368320	54	5798
2026-01-24 12:57:32.17	325.44	10.67	-41.9	-45.5	17.4	6.08e-01	0	62	0	931135488	54	5788
2026-01-24 12:57:35.20	325.79	10.43	-41.9	-45.6	17.3	6.06e-01	0	62	0	936902656	54	5825
2026-01-24 12:57:38.23	326.13	10.19	-41.9	-45.7	17.2	6.05e-01	0	62	0	942145536	54	5884
2026-01-24 12:57:41.25	326.47	9.95	-42.0	-45.8	17.1	6.06e-01	0	62	0	947912704	54	5958
2026-01-24 12:57:44.29	326.80	9.72	-41.9	-45.7	17.2	6.06e-01	0	62	0	953679872	54	5866
2026-01-24 12:57:47.32	327.13	9.48	-42.0	-45.8	17.0	6.05e-01	0	62	0	959447040	54	5973
2026-01-24 12:57:50.34	327.45	9.25	-42.0	-45.9	16.9	6.08e-01	0	62	0	965214208	54	6031
2026-01-24 12:57:53.37	327.77	9.02	-42.0	-46.0	16.7	6.07e-01	0	62	0	970457088	54	6116
2026-01-24 12:57:56.40	328.08	8.79	-42.1	-46.1	16.6	6.06e-01	0	62	0	976224256	54	6198
2026-01-24 12:57:59.43	328.38	8.57	-42.1	-46.3	16.4	6.06e-01	0	62	0	981991424	54	6291
2026-01-24 12:58:02.46	328.69	8.34	-42.1	-46.3	16.4	6.07e-01	0	62	0	987758592	54	6292
2026-01-24 12:58:05.49	328.98	8.12	-42.1	-46.3	16.3	6.08e-01	0	62	0	993525760	54	6313
2026-01-24 12:58:08.52	329.27	7.90	-45.2	-61.3	4.1	7.41e-01	0	62	104	997195776	60	25163
2026-01-24 12:58:11.55	329.56	7.68	-46.0	-64.5	3.8	7.46e-01	0	62	104	997195776	62	32549
2026-01-24 12:58:14.59	329.85	7.46	-46.2	-64.8	3.9	7.44e-01	0	62	104	997195776	63	31641
2026-01-24 12:58:17.62	330.13	7.24	-46.2	-64.8	3.8	7.46e-01	0	62	104	997195776	63	31479
2026-01-24 12:58:20.65	330.40	7.02	-46.2	-64.7	3.8	7.45e-01	0	62	104	997195776	62	33205
2026-01-24 12:58:23.68	330.67	6.81	-46.1	-64.6	3.8	7.43e-01	0	62	104	997195776	62	32692
2026-01-24 12:58:26.71	330.94	6.60	-46.1	-64.6	3.8	7.45e-01	0	62	104	997195776	62	32626
2026-01-24 12:58:29.75	331.20	6.39	-46.1	-64.6	3.8	7.47e-01	0	62	104	997195776	62	32683
2026-01-24 12:58:32.78	331.46	6.18	-46.1	-64.6	3.8	7.45e-01	0	62	104	997195776	62	32648
2026-01-24 12:58:35.81	331.71	5.97	-46.1	-64.5	3.8	7.45e-01	0	62	104	997195776	62	32531
2026-01-24 12:58:38.84	331.96	5.76	-46.0	-64.5	3.8	7.46e-01	0	62	104	997195776	62	32459
2026-01-24 12:58:41.87	332.21	5.56	-45.9	-64.5	3.8	7.45e-01	0	62	104	997195776	62	32463
2026-01-24 12:58:44.90	332.46	5.35	-46.0	-64.5	3.8	7.47e-01	0	62	104	997195776	62	32497
2026-01-24 12:58:47.93	332.70	5.15	-46.0	-64.5	3.8	7.44e-01	0	62	104	997195776	62	32485
2026-01-24 12:58:50.96	332.93	4.95	-46.0	-64.5	3.8	7.46e-01	0	62	104	997195776	62	32444
2026-01-24 12:58:53.99	333.17	4.75	-46.0	-64.5	3.8	7.44e-01	0	62	104	997195776	62	32441
2026-01-24 12:58:57.03	333.40	4.55	-46.0	-64.5	3.8	7.46e-01	0	62	104	997195776	62	32404
2026-01-24 12:59:00.06	333.63	4.35	-46.0	-64.5	3.8	7.50e-01	0	62	104	997195776	62	32456
2026-01-24 12:59:03.09	333.85	4.16	-46.0	-64.5	3.8	7.45e-01	0	62	104	997195776	62	32442
2026-01-24 12:59:06.12	334.07	3.96	-46.0	-64.5	3.8	7.45e-01	0	62	104	997195776	62	32326
2026-01-24 12:59:09.16	334.29	3.77	-46.0	-64.5	3.8	7.45e-01	0	62	104	997195776	62	32325
2026-01-24 12:59:12.19	334.50	3.58	-46.0	-64.5	3.8	7.42e-01	0	62	104	997195776	62	32421
2026-01-24 12:59:15.22	334.72	3.38	-46.0	-64.5	3.8	7.45e-01	0	62	104	997195776	62	32338
2026-01-24 12:59:18.25	334.93	3.19	-46.0	-64.5	3.8	7.44e-01	0	62	104	997195776	62	32425
2026-01-24 12:59:21.28	335.13	3.01	-46.0	-64.5	3.8	7.47e-01	0	62	104	997195776	62	32374
2026-01-24 12:59:24.32	335.34	2.82	-46.0	-64.5	3.8	7.47e-01	0	62	104	997195776	62	32300
2026-01-24 12:59:27.35	335.54	2.63	-46.0	-64.5	3.8	7.45e-01	0	62	104	997195776	62	32328
2026-01-24 12:59:30.38	335.74	2.45	-46.0	-64.5	3.8	7.49e-01	0	62	104	997195776	62	32354
2026-01-24 12:59:33.41	335.93	2.26	-46.0	-64.5	3.8	7.46e-01	0	62	104	997195776	62	32343
2026-01-24 12:59:36.44	336.13	2.08	-46.0	-64.5	3.8	7.45e-01	0	62	104	997195776	62	32283

#Closed at: 2026-01-24 12:59:38
#Recorded file [997 MB]: D:/lorett/data/31039_260124_154844.dat