passes_logs/2026/01/24/R2.0S_Moscow/R2.0S_Moscow__20260124_002632_NOAA_20_JPSS-1_rec.log

#Pass ID: 20260124_002632_NOAA 20 (JPSS-1)
#Satellite: NOAA 20 (JPSS-1)
#Configuration: NOAA 20
#almurnet v.1.7.20251203
#Start time: 2026-01-24 00:26:34

#Version: 2.2.20231116
#Station: R2.0S_Moscow
#Location: 37.707566 lon 55.798166 lat
#TLE: 1 43013U 17073A   26022.94240312  .00000200  00000+0  11574-3 0  9998
#TLE: 2 43013  98.7645 323.7982 0001179  28.0279 332.0961 14.19539020423863

#Time	Az	El	Level	Level2	SNR	BER	BlckErr	Temp	State	Recorded	gain1	gain2
2026-01-24 00:26:34.60	13.05	2.15	-40.4	-54.9	3.8	1.49e+00	0	53	0	0	52	19152
2026-01-24 00:26:38.62	12.93	2.40	-40.4	-55.0	3.8	1.49e+00	0	53	104	0	52	19170
2026-01-24 00:26:42.66	12.81	2.66	-40.4	-54.9	3.8	1.49e+00	0	54	104	0	52	19166
2026-01-24 00:26:46.71	12.69	2.91	-40.4	-54.9	3.8	1.49e+00	0	54	104	0	52	19130
2026-01-24 00:26:50.75	12.56	3.18	-40.4	-54.9	3.8	1.49e+00	0	54	104	0	52	19138
2026-01-24 00:26:54.79	12.43	3.44	-40.4	-54.9	3.8	1.49e+00	0	54	104	0	52	19094
2026-01-24 00:26:58.83	12.30	3.70	-40.4	-54.9	3.8	1.49e+00	0	55	104	0	52	19123
2026-01-24 00:27:02.87	12.16	3.97	-40.4	-54.9	3.8	1.49e+00	0	55	104	0	52	19072
2026-01-24 00:27:06.91	12.03	4.24	-40.4	-54.8	3.8	1.49e+00	0	55	104	0	52	18853
2026-01-24 00:27:10.95	11.89	4.51	-40.3	-54.6	3.8	1.49e+00	0	55	104	0	52	18415
2026-01-24 00:27:14.99	11.74	4.79	-40.4	-54.5	3.8	1.49e+00	0	56	104	0	52	18295
2026-01-24 00:27:19.04	11.59	5.07	-40.3	-54.7	3.8	1.49e+00	0	56	104	0	52	18596
2026-01-24 00:27:23.08	11.44	5.35	-40.4	-54.7	3.8	1.49e+00	0	56	104	0	52	18676
2026-01-24 00:27:27.12	11.29	5.63	-40.3	-54.4	3.8	1.49e+00	0	56	104	0	52	18008
2026-01-24 00:27:31.17	11.13	5.92	-40.3	-54.2	3.8	1.49e+00	0	56	104	0	52	17680
2026-01-24 00:27:35.21	10.97	6.21	-40.3	-54.4	3.8	1.49e+00	0	56	104	0	52	17909
2026-01-24 00:27:39.25	10.81	6.50	-40.3	-54.6	3.8	1.49e+00	0	57	104	0	52	18401
2026-01-24 00:27:43.29	10.64	6.80	-40.3	-54.8	3.8	1.49e+00	0	57	104	0	52	18874
2026-01-24 00:27:47.34	10.47	7.10	-40.3	-54.9	3.8	1.49e+00	0	57	104	0	52	19139
2026-01-24 00:27:51.38	10.30	7.40	-40.3	-54.9	3.8	1.49e+00	0	57	104	0	52	19049
2026-01-24 00:27:55.42	10.12	7.70	-40.4	-54.9	3.8	1.49e+00	0	57	104	0	52	19051
2026-01-24 00:27:59.46	9.94	8.01	-40.3	-54.9	3.8	1.49e+00	0	57	104	0	52	18978
2026-01-24 00:28:03.50	9.75	8.32	-40.3	-54.9	3.8	1.49e+00	0	58	104	0	52	18982
2026-01-24 00:28:07.54	9.56	8.64	-40.2	-54.6	3.8	1.49e+00	0	58	104	0	52	18474
2026-01-24 00:28:11.58	9.36	8.96	-40.1	-54.6	3.8	1.49e+00	0	58	104	0	52	18449
2026-01-24 00:28:15.62	9.16	9.28	-40.3	-54.9	3.8	1.49e+00	0	58	104	0	52	19046
2026-01-24 00:28:19.66	8.95	9.61	-40.1	-54.6	3.8	1.49e+00	0	58	104	0	51	19539
2026-01-24 00:28:23.69	8.74	9.94	-40.4	-54.9	3.8	1.49e+00	0	58	104	0	52	19045
2026-01-24 00:28:27.73	8.53	10.27	-40.0	-54.6	3.8	1.49e+00	0	58	104	0	52	18398
2026-01-24 00:28:31.77	8.31	10.61	-40.6	-55.1	3.8	1.49e+00	0	58	104	0	52	19437
2026-01-24 00:28:35.81	8.08	10.96	-40.2	-54.7	3.8	1.49e+00	0	59	104	0	52	18729
2026-01-24 00:28:39.84	7.85	11.30	-42.0	-52.2	4.5	1.29e+00	0	59	0	0	54	12516
2026-01-24 00:28:43.88	7.61	11.66	-41.3	-49.1	6.2	3.20e-01	0	59	0	4194304	53	9226
2026-01-24 00:28:47.92	7.36	12.01	-41.7	-48.5	7.4	7.34e-02	0	59	0	11534336	53	8564
2026-01-24 00:28:51.95	7.11	12.37	-41.4	-54.4	3.8	6.56e-01	0	59	104	18874368	53	16969
2026-01-24 00:28:55.99	6.85	12.74	-40.5	-45.1	10.6	3.04e-03	0	59	0	24117248	52	6196
2026-01-24 00:29:00.03	6.59	13.11	-40.7	-45.4	10.6	4.36e-03	0	59	0	31457280	52	6400
2026-01-24 00:29:04.07	6.31	13.49	-40.7	-45.0	11.3	1.21e-03	0	59	0	39845888	52	6072
2026-01-24 00:29:08.11	6.03	13.87	-41.0	-45.3	11.4	1.13e-03	0	59	0	47185920	52	6281
2026-01-24 00:29:12.15	5.75	14.26	-41.0	-45.3	11.4	1.08e-03	0	59	0	54525952	52	6325
2026-01-24 00:29:16.18	5.45	14.65	-41.0	-45.1	11.8	6.50e-04	0	59	0	61865984	52	6152
2026-01-24 00:29:20.22	5.15	15.05	-41.1	-45.1	12.0	3.46e-04	0	59	0	69206016	52	6137
2026-01-24 00:29:24.26	4.84	15.45	-41.1	-45.1	12.0	2.75e-04	0	59	0	77594624	52	6142
2026-01-24 00:29:28.30	4.51	15.86	-41.1	-45.0	12.2	2.35e-04	0	60	0	84934656	52	6129
2026-01-24 00:29:32.34	4.18	16.28	-41.2	-45.1	12.1	3.03e-04	0	60	0	92274688	53	5829
2026-01-24 00:29:36.38	3.84	16.70	-41.4	-45.5	11.7	3.52e-04	0	60	0	99614720	53	6093
2026-01-24 00:29:40.41	3.49	17.13	-41.4	-45.4	12.0	2.60e-04	0	60	0	108003328	53	5995
2026-01-24 00:29:44.45	3.13	17.56	-41.3	-45.2	12.3	2.37e-04	0	60	0	115343360	53	5878
2026-01-24 00:29:48.48	2.76	18.00	-41.5	-45.3	12.2	1.97e-04	0	60	0	122683392	53	5989
2026-01-24 00:29:52.53	2.37	18.45	-41.6	-45.5	12.0	2.72e-04	0	60	0	130023424	53	6123
2026-01-24 00:29:56.56	1.98	18.90	-41.7	-45.7	11.9	4.00e-04	0	60	0	137363456	53	6270
2026-01-24 00:30:00.60	1.57	19.37	-41.8	-45.8	11.9	4.24e-04	0	60	0	145752064	54	5967
2026-01-24 00:30:04.63	1.15	19.83	-41.9	-46.1	11.6	6.49e-04	0	60	0	153092096	54	6152
2026-01-24 00:30:08.67	0.71	20.31	-41.9	-46.1	11.6	6.99e-04	0	60	0	160432128	54	6170
2026-01-24 00:30:12.71	0.26	20.79	-42.0	-46.4	11.3	1.01e-03	0	60	0	167772160	54	6383
2026-01-24 00:30:16.75	359.80	21.28	-42.1	-46.6	11.1	1.57e-03	0	60	0	176160768	54	6510
2026-01-24 00:30:20.79	359.32	21.78	-42.1	-46.5	11.2	1.65e-03	0	60	0	183500800	54	6452
2026-01-24 00:30:24.82	358.82	22.29	-42.1	-46.6	11.0	1.83e-03	0	60	0	190840832	54	6529
2026-01-24 00:30:28.86	358.31	22.80	-42.2	-46.7	10.9	1.95e-03	0	60	0	198180864	54	6600
2026-01-24 00:30:32.90	357.78	23.32	-42.2	-46.8	10.8	2.36e-03	0	60	0	205520896	55	6342
2026-01-24 00:30:36.94	357.23	23.85	-42.2	-46.8	10.8	2.38e-03	0	60	0	213909504	55	6301
2026-01-24 00:30:40.98	356.66	24.39	-42.2	-46.8	10.9	2.40e-03	0	60	0	221249536	55	6277
2026-01-24 00:30:45.01	356.07	24.94	-42.2	-46.7	11.0	2.63e-03	0	60	0	228589568	55	6232
2026-01-24 00:30:49.05	355.46	25.49	-42.1	-46.4	11.3	1.29e-03	0	60	0	235929600	55	6019
2026-01-24 00:30:53.09	354.82	26.05	-42.2	-46.6	11.2	1.15e-03	0	60	0	243269632	55	6152
2026-01-24 00:30:57.13	354.17	26.62	-42.2	-46.6	11.2	1.47e-03	0	60	0	251658240	55	6166
2026-01-24 00:31:01.14	353.49	27.19	-42.2	-46.5	11.4	1.02e-03	0	61	0	258998272	55	6083
2026-01-24 00:31:05.18	352.78	27.78	-42.1	-46.2	11.7	6.29e-04	0	60	0	266338304	55	5882
2026-01-24 00:31:09.22	352.05	28.37	-42.2	-46.4	11.6	7.67e-04	0	61	0	273678336	55	6009
2026-01-24 00:31:13.26	351.28	28.97	-42.2	-46.4	11.6	6.47e-04	0	61	0	282066944	55	6025
2026-01-24 00:31:17.29	350.49	29.58	-42.3	-46.4	11.6	7.75e-04	0	61	0	289406976	55	6046
2026-01-24 00:31:21.33	349.67	30.19	-42.4	-46.7	11.3	9.98e-04	0	61	0	296747008	55	6263
2026-01-24 00:31:25.37	348.81	30.81	-42.9	-47.6	10.6	2.95e-03	0	61	0	304087040	56	6537
2026-01-24 00:31:29.41	347.92	31.43	-43.0	-47.9	10.3	4.67e-03	0	61	0	311427072	56	6799
2026-01-24 00:31:33.45	347.00	32.07	-43.2	-48.3	9.9	1.03e-02	0	61	0	319815680	57	6672
2026-01-24 00:31:37.49	346.03	32.70	-43.2	-48.3	9.9	1.04e-02	0	61	0	327155712	57	6672
2026-01-24 00:31:41.53	345.03	33.34	-43.3	-48.4	9.8	9.54e-03	0	61	0	334495744	57	6801
2026-01-24 00:31:45.57	343.99	33.98	-43.4	-48.7	9.4	1.59e-02	0	61	0	341835776	57	7036
2026-01-24 00:31:49.61	342.90	34.63	-43.3	-48.5	9.7	1.10e-02	0	61	0	350224384	57	6854
2026-01-24 00:31:53.64	341.77	35.27	-43.3	-48.5	9.7	1.22e-02	0	61	0	357564416	57	6835
2026-01-24 00:31:57.68	340.60	35.92	-43.0	-47.6	10.6	3.39e-03	0	61	0	364904448	57	6180
2026-01-24 00:32:01.72	339.37	36.56	-43.0	-47.8	10.6	3.23e-03	0	61	0	372244480	57	6287
2026-01-24 00:32:05.76	338.10	37.20	-42.9	-47.5	10.9	2.24e-03	0	61	0	379584512	57	6101
2026-01-24 00:32:09.79	336.78	37.84	-42.8	-47.2	11.2	1.22e-03	0	61	0	387973120	57	5887
2026-01-24 00:32:13.83	335.40	38.47	-42.9	-47.3	11.1	1.89e-03	0	61	0	395313152	57	5965
2026-01-24 00:32:17.87	333.96	39.09	-43.0	-47.6	10.8	2.69e-03	0	61	0	402653184	57	6148
2026-01-24 00:32:21.90	332.48	39.70	-43.1	-47.9	10.4	3.92e-03	0	61	0	409993216	57	6365
2026-01-24 00:32:25.94	330.93	40.30	-43.2	-48.2	10.1	7.05e-03	0	61	0	417333248	57	6626
2026-01-24 00:32:29.98	329.33	40.89	-43.3	-48.4	9.8	1.03e-02	0	61	0	425721856	57	6765
2026-01-24 00:32:34.01	327.67	41.46	-42.8	-47.1	11.2	2.22e-03	0	61	0	433061888	57	5838
2026-01-24 00:32:38.05	325.95	42.00	-42.3	-46.0	12.4	1.72e-04	0	61	0	440401920	56	5433
2026-01-24 00:32:42.09	324.16	42.53	-41.8	-45.2	13.1	2.44e-05	0	61	0	447741952	55	5241
2026-01-24 00:32:46.13	322.32	43.03	-41.8	-45.2	13.1	2.82e-05	0	61	0	456130560	55	5259
2026-01-24 00:32:50.17	320.43	43.51	-41.8	-45.2	13.2	3.05e-05	0	61	0	463470592	55	5224
2026-01-24 00:32:54.21	318.48	43.95	-41.9	-45.4	12.9	5.11e-05	0	61	0	470810624	55	5358
2026-01-24 00:32:58.24	316.48	44.36	-42.3	-46.3	11.9	4.19e-04	0	61	0	478150656	55	5932
2026-01-24 00:33:02.27	314.43	44.73	-42.5	-46.5	11.7	5.05e-04	0	61	0	485490688	55	6126
2026-01-24 00:33:06.31	312.32	45.06	-42.6	-46.9	11.3	1.03e-03	0	61	0	493879296	55	6367
2026-01-24 00:33:10.35	310.18	45.35	-42.6	-46.7	11.5	8.30e-04	0	61	0	501219328	55	6268
2026-01-24 00:33:14.38	308.00	45.60	-42.7	-47.1	11.1	1.38e-03	0	61	0	508559360	55	6510
2026-01-24 00:33:18.42	305.79	45.81	-43.0	-47.6	10.6	3.34e-03	0	61	0	515899392	56	6563
2026-01-24 00:33:22.46	303.55	45.96	-43.1	-47.9	10.4	3.96e-03	0	61	0	524288000	56	6765
2026-01-24 00:33:26.50	301.29	46.07	-43.3	-48.5	9.8	1.12e-02	0	61	0	531628032	57	6804
2026-01-24 00:33:30.53	299.02	46.13	-43.1	-47.9	10.4	3.97e-03	0	61	0	538968064	57	6369
2026-01-24 00:33:34.57	296.75	46.14	-43.2	-48.0	10.3	5.55e-03	0	61	0	546308096	57	6467
2026-01-24 00:33:38.61	294.47	46.10	-43.1	-47.7	10.6	3.43e-03	0	61	0	553648128	57	6256
2026-01-24 00:33:42.64	292.21	46.01	-43.2	-48.1	10.2	5.93e-03	0	61	0	562036736	57	6529
2026-01-24 00:33:46.68	289.97	45.87	-43.2	-48.0	10.3	6.93e-03	0	61	0	569376768	57	6480
2026-01-24 00:33:50.72	287.74	45.69	-43.3	-48.3	9.9	7.68e-03	0	61	0	576716800	57	6682
2026-01-24 00:33:54.76	285.54	45.46	-43.6	-49.2	9.0	3.38e-02	0	61	0	584056832	58	6983
2026-01-24 00:33:58.80	283.38	45.18	-43.5	-49.1	9.2	2.07e-02	0	61	0	591396864	58	6887
2026-01-24 00:34:02.83	281.26	44.86	-43.2	-48.0	10.3	6.29e-03	0	61	0	599785472	58	6099
2026-01-24 00:34:06.87	279.19	44.50	-43.1	-47.9	10.3	5.27e-03	0	61	0	607125504	58	6048
2026-01-24 00:34:10.91	277.16	44.11	-42.7	-46.9	11.5	6.30e-04	0	61	0	614465536	57	5668
2026-01-24 00:34:14.94	275.19	43.68	-42.4	-46.3	12.1	2.10e-04	0	61	0	621805568	56	5607
2026-01-24 00:34:18.98	273.26	43.21	-42.2	-45.9	12.4	1.34e-04	0	61	0	630194176	56	5391
2026-01-24 00:34:23.02	271.40	42.72	-41.2	-44.2	14.0	2.20e-06	0	61	0	637534208	54	4983
2026-01-24 00:34:27.06	269.59	42.20	-41.0	-43.9	14.3	7.00e-07	0	61	0	644874240	54	4798
2026-01-24 00:34:31.10	267.84	41.66	-40.4	-43.0	15.2	0.00e+00	0	61	0	652214272	52	4862
2026-01-24 00:34:35.14	266.15	41.10	-40.8	-43.7	14.6	7.00e-07	0	61	0	659554304	52	5223
2026-01-24 00:34:39.18	264.52	40.52	-40.9	-43.7	14.5	1.50e-06	0	61	0	667942912	52	5268
2026-01-24 00:34:43.22	262.95	39.92	-40.8	-43.6	14.6	0.00e+00	0	61	0	675282944	52	5212
2026-01-24 00:34:47.25	261.44	39.31	-41.0	-43.9	14.3	7.00e-07	0	61	0	682622976	52	5362
2026-01-24 00:34:51.29	259.98	38.69	-40.8	-43.6	14.6	0.00e+00	0	61	0	689963008	52	5170
2026-01-24 00:34:55.33	258.57	38.06	-41.1	-44.2	14.0	7.00e-07	0	61	0	698351616	52	5540
2026-01-24 00:34:59.37	257.22	37.42	-41.3	-44.5	13.6	9.10e-06	0	61	0	705691648	53	5442
2026-01-24 00:35:03.42	255.92	36.78	-41.6	-45.0	13.2	3.05e-05	0	61	0	713031680	53	5758
2026-01-24 00:35:07.45	254.68	36.13	-41.6	-45.0	13.1	3.28e-05	0	61	0	720371712	53	5768
2026-01-24 00:35:11.49	253.48	35.48	-42.3	-46.4	11.7	3.88e-04	0	61	0	727711744	55	6050
2026-01-24 00:35:15.53	252.33	34.84	-42.3	-46.3	11.8	4.66e-04	0	62	0	736100352	55	5964
2026-01-24 00:35:19.57	251.22	34.19	-43.1	-47.9	10.3	4.39e-03	0	61	0	743440384	56	6790
2026-01-24 00:35:23.61	250.16	33.54	-43.2	-48.2	10.0	8.37e-03	0	61	0	750780416	56	7010
2026-01-24 00:35:27.64	249.14	32.90	-43.4	-48.9	9.3	1.72e-02	0	61	0	758120448	57	7172
2026-01-24 00:35:31.68	248.16	32.26	-43.5	-49.2	8.9	2.26e-02	0	61	0	766509056	57	7411
2026-01-24 00:35:35.72	247.21	31.62	-43.3	-48.6	9.5	1.54e-02	0	62	0	773849088	57	6926
2026-01-24 00:35:39.76	246.31	30.99	-43.2	-48.5	9.7	1.01e-02	0	61	0	781189120	57	6802
2026-01-24 00:35:43.79	245.44	30.37	-43.2	-48.5	9.7	1.05e-02	0	61	0	788529152	57	6828
2026-01-24 00:35:47.83	244.60	29.75	-43.0	-47.9	10.2	8.81e-03	0	62	0	795869184	57	6409
2026-01-24 00:35:51.87	243.79	29.14	-42.8	-47.4	10.8	2.43e-03	0	62	0	804257792	57	6003
2026-01-24 00:35:55.90	243.01	28.54	-42.8	-47.4	10.8	2.81e-03	0	62	0	811597824	57	6039
2026-01-24 00:35:59.94	242.26	27.94	-42.6	-46.9	11.3	1.24e-03	0	61	0	818937856	57	5686
2026-01-24 00:36:03.98	241.54	27.35	-42.5	-46.7	11.6	1.03e-03	0	62	0	826277888	56	5874
2026-01-24 00:36:08.02	240.85	26.77	-42.5	-46.7	11.4	9.52e-04	0	62	0	834666496	56	5909
2026-01-24 00:36:12.06	240.18	26.19	-42.5	-46.7	11.5	9.15e-04	0	61	0	842006528	56	5874
2026-01-24 00:36:16.10	239.53	25.62	-42.6	-46.9	11.3	9.81e-04	0	62	0	849346560	56	6011
2026-01-24 00:36:20.13	238.91	25.07	-42.5	-46.7	11.5	1.06e-03	0	62	0	856686592	56	5900
2026-01-24 00:36:24.17	238.31	24.52	-42.3	-46.2	12.0	3.39e-04	0	61	0	864026624	56	5553
2026-01-24 00:36:28.21	237.73	23.97	-42.3	-46.3	11.9	3.89e-04	0	62	0	872415232	56	5636
2026-01-24 00:36:32.25	237.17	23.44	-42.3	-46.3	11.8	3.99e-04	0	61	0	879755264	56	5646
2026-01-24 00:36:36.28	236.63	22.91	-42.4	-46.7	11.4	8.35e-04	0	62	0	887095296	56	5897
2026-01-24 00:36:40.32	236.11	22.39	-42.4	-46.7	11.4	8.89e-04	0	62	0	894435328	56	5899
2026-01-24 00:36:44.36	235.60	21.88	-42.5	-46.8	11.3	1.04e-03	0	61	0	902823936	56	5981
2026-01-24 00:36:48.40	235.11	21.38	-42.2	-46.3	11.9	5.17e-04	0	62	0	910163968	56	5600
2026-01-24 00:36:52.43	234.64	20.88	-42.2	-46.3	11.9	4.32e-04	0	61	0	917504000	56	5597
2026-01-24 00:36:56.47	234.18	20.40	-42.3	-46.4	11.7	5.06e-04	0	62	0	924844032	56	5671
2026-01-24 00:37:00.51	233.73	19.92	-42.3	-46.4	11.6	6.73e-04	0	61	0	932184064	56	5718
2026-01-24 00:37:04.55	233.30	19.44	-42.2	-46.3	11.8	5.46e-04	0	62	0	940572672	56	5607
2026-01-24 00:37:08.59	232.89	18.98	-42.1	-46.0	12.1	3.22e-04	0	62	0	947912704	56	5421
2026-01-24 00:37:12.63	232.48	18.52	-42.2	-46.3	11.8	4.68e-04	0	62	0	955252736	56	5615
2026-01-24 00:37:16.67	232.09	18.07	-42.4	-46.8	11.2	1.33e-03	0	62	0	962592768	56	5984
2026-01-24 00:37:20.70	231.71	17.62	-42.4	-46.7	11.3	1.39e-03	0	61	0	970981376	56	5922
2026-01-24 00:37:24.74	231.34	17.18	-42.3	-46.5	11.5	8.69e-04	0	62	0	978321408	56	5752
2026-01-24 00:37:28.78	230.98	16.75	-42.3	-46.5	11.5	8.28e-04	0	62	0	985661440	56	5766
2026-01-24 00:37:32.81	230.64	16.33	-42.4	-46.9	11.1	1.62e-03	0	62	0	993001472	56	6019
2026-01-24 00:37:36.85	230.30	15.91	-42.4	-46.9	11.0	1.98e-03	0	61	0	1000341504	56	6023
2026-01-24 00:37:40.89	229.97	15.49	-42.5	-47.0	10.9	2.35e-03	0	61	0	1008730112	56	6128
2026-01-24 00:37:44.93	229.65	15.09	-42.4	-46.8	11.1	1.66e-03	0	62	0	1016070144	56	5961
2026-01-24 00:37:48.97	229.34	14.68	-42.4	-46.9	11.0	1.84e-03	0	61	0	1023410176	56	6013
2026-01-24 00:37:53.00	229.04	14.29	-42.5	-47.3	10.6	3.62e-03	0	61	0	1030750208	56	6276
2026-01-24 00:37:57.04	228.74	13.90	-42.6	-47.4	10.4	4.15e-03	0	61	0	1039138816	56	6362
2026-01-24 00:38:01.08	228.46	13.51	-42.6	-47.5	10.3	5.59e-03	0	61	0	1046478848	56	6430
2026-01-24 00:38:05.12	228.18	13.13	-42.6	-47.5	10.3	5.53e-03	0	62	0	1053818880	56	6465
2026-01-24 00:38:09.16	227.91	12.76	-42.6	-47.5	10.2	5.69e-03	0	62	0	1061158912	56	6478
2026-01-24 00:38:13.20	227.64	12.39	-42.6	-47.5	10.2	5.67e-03	0	62	0	1068498944	56	6471
2026-01-24 00:38:17.24	227.38	12.03	-42.6	-47.7	9.9	8.19e-03	0	62	0	1076887552	56	6629
2026-01-24 00:38:21.28	227.13	11.67	-42.7	-47.8	9.9	8.72e-03	0	62	0	1084227584	56	6655
2026-01-24 00:38:25.31	226.89	11.31	-42.7	-48.0	9.7	1.10e-02	0	61	0	1091567616	56	6813
2026-01-24 00:38:29.35	226.65	10.96	-42.7	-47.9	9.7	1.01e-02	0	61	0	1098907648	56	6742
2026-01-24 00:38:33.39	226.42	10.62	-42.7	-48.0	9.6	1.19e-02	0	62	0	1107296256	56	6844
2026-01-24 00:38:37.42	226.19	10.27	-42.8	-48.3	9.3	1.89e-02	0	61	0	1114636288	56	7057
2026-01-24 00:38:41.46	225.97	9.94	-42.8	-48.5	9.0	2.32e-02	0	61	0	1121976320	56	7225
2026-01-24 00:38:45.50	225.75	9.60	-42.8	-48.5	9.0	2.49e-02	0	62	0	1129316352	56	7210
2026-01-24 00:38:49.53	225.54	9.28	-42.7	-48.3	9.1	2.51e-02	0	62	0	1136656384	56	7116
2026-01-24 00:38:53.57	225.33	8.95	-42.7	-48.5	8.9	2.44e-02	0	62	0	1145044992	56	7226
2026-01-24 00:38:57.61	225.13	8.63	-42.6	-48.1	9.2	2.14e-02	0	62	0	1152385024	56	6947
2026-01-24 00:39:01.65	224.93	8.31	-42.7	-48.4	8.9	2.46e-02	0	62	0	1159725056	56	7167
2026-01-24 00:39:05.69	224.74	8.00	-44.0	-54.7	4.3	3.03e-02	38	62	0	1167065088	58	13115
2026-01-24 00:39:09.73	224.55	7.69	-45.1	-59.7	3.8	1.49e+00	0	62	104	1167065088	60	20968
2026-01-24 00:39:13.77	224.37	7.38	-45.2	-59.8	3.8	1.49e+00	0	62	104	1167065088	61	20012
2026-01-24 00:39:17.81	224.18	7.07	-45.1	-59.8	3.8	1.49e+00	0	62	104	1167065088	61	19851
2026-01-24 00:39:21.85	224.01	6.77	-45.1	-59.7	3.8	1.49e+00	0	62	104	1167065088	61	19796
2026-01-24 00:39:25.89	223.84	6.48	-45.1	-59.7	3.8	1.49e+00	0	62	104	1167065088	61	19732
2026-01-24 00:39:29.94	223.67	6.18	-45.1	-59.7	3.8	1.49e+00	0	62	104	1167065088	61	19702
2026-01-24 00:39:33.98	223.50	5.89	-45.1	-59.6	3.8	1.49e+00	0	62	104	1167065088	61	19552
2026-01-24 00:39:38.02	223.34	5.60	-45.1	-59.6	3.8	1.49e+00	0	62	104	1167065088	61	19577
2026-01-24 00:39:42.06	223.18	5.32	-45.0	-59.6	3.8	1.49e+00	0	62	104	1167065088	61	19599
2026-01-24 00:39:46.10	223.02	5.04	-45.0	-59.7	3.8	1.49e+00	0	62	104	1167065088	61	19632
2026-01-24 00:39:50.15	222.87	4.75	-45.0	-59.6	3.8	1.49e+00	0	62	104	1167065088	61	19614
2026-01-24 00:39:54.19	222.72	4.48	-45.0	-59.6	3.8	1.49e+00	0	62	104	1167065088	61	19562
2026-01-24 00:39:58.23	222.57	4.20	-45.0	-59.6	3.8	1.49e+00	0	62	104	1167065088	61	19548
2026-01-24 00:40:02.27	222.43	3.93	-45.0	-59.6	3.8	1.49e+00	0	62	104	1167065088	61	19586
2026-01-24 00:40:06.31	222.29	3.66	-45.0	-59.6	3.8	1.49e+00	0	62	104	1167065088	61	19592
2026-01-24 00:40:10.36	222.15	3.40	-45.0	-59.6	3.8	1.49e+00	0	62	104	1167065088	61	19588
2026-01-24 00:40:14.40	222.02	3.13	-45.0	-59.6	3.8	1.49e+00	0	62	104	1167065088	61	19504
2026-01-24 00:40:18.44	221.88	2.87	-45.0	-59.6	3.8	1.49e+00	0	62	104	1167065088	61	19612
2026-01-24 00:40:22.48	221.75	2.61	-45.0	-59.6	3.8	1.49e+00	0	62	104	1167065088	61	19505
2026-01-24 00:40:26.53	221.62	2.35	-45.0	-59.6	3.8	1.49e+00	0	62	104	1167065088	61	19559
2026-01-24 00:40:30.57	221.50	2.10	-45.0	-59.6	3.8	1.49e+00	0	62	104	1167065088	61	19548

#Closed at: 2026-01-24 00:40:34
#Recorded file [1167 MB]: D:/lorett/data/31039_260124_032634.dat