passes_logs/2026/01/24/R2.0S_Moscow/R2.0S_Moscow__20260124_220705_SUOMI_NPP_rec.log

#Pass ID: 20260124_220705_SUOMI NPP
#Satellite: SUOMI NPP
#Configuration: NPP
#almurnet v.1.7.20251203
#Start time: 2026-01-24 22:07:06

#Version: 2.2.20231116
#Station: R2.0S_Moscow
#Location: 37.707566 lon 55.798166 lat
#TLE: 1 37849U 11061A   26024.54906732  .00000185  00000+0  10878-3 0  9990
#TLE: 2 37849  98.7821 326.5159 0002200  47.3746 312.7615 14.19529340738061

#Time	Az	El	Level	Level2	SNR	BER	BlckErr	Temp	State	Recorded	gain1	gain2
2026-01-24 22:07:06.34	26.48	2.02	-42.3	-56.8	3.8	1.49e+00	0	52	0	0	56	18801
2026-01-24 22:07:09.36	26.71	2.18	-42.3	-56.8	3.8	1.49e+00	0	52	104	0	56	18833
2026-01-24 22:07:12.39	26.95	2.34	-42.2	-56.8	3.8	1.49e+00	0	52	104	0	56	18735
2026-01-24 22:07:15.42	27.19	2.50	-42.2	-56.8	3.8	1.49e+00	0	53	104	0	56	18792
2026-01-24 22:07:18.45	27.43	2.67	-42.2	-56.8	3.8	1.49e+00	0	53	104	0	56	18791
2026-01-24 22:07:21.48	27.68	2.83	-42.3	-56.8	3.8	1.49e+00	0	53	104	0	56	18798
2026-01-24 22:07:24.51	27.92	2.99	-42.2	-56.8	3.8	1.49e+00	0	53	104	0	56	18752
2026-01-24 22:07:27.54	28.17	3.15	-42.2	-56.8	3.8	1.49e+00	0	53	104	0	56	18765
2026-01-24 22:07:30.58	28.43	3.32	-42.2	-56.8	3.8	1.49e+00	0	54	104	0	56	18738
2026-01-24 22:07:33.61	28.68	3.48	-42.2	-56.8	3.8	1.49e+00	0	54	104	0	56	18741
2026-01-24 22:07:36.64	28.94	3.65	-42.2	-56.8	3.8	1.49e+00	0	54	104	0	56	18779
2026-01-24 22:07:39.67	29.20	3.81	-42.2	-56.8	3.8	1.49e+00	0	54	104	0	56	18784
2026-01-24 22:07:42.70	29.46	3.98	-42.2	-56.8	3.8	1.49e+00	0	54	104	0	56	18810
2026-01-24 22:07:45.73	29.73	4.14	-42.2	-56.8	3.8	1.49e+00	0	54	104	0	56	18762
2026-01-24 22:07:48.77	30.00	4.31	-42.2	-56.8	3.8	1.49e+00	0	55	104	0	56	18825
2026-01-24 22:07:51.80	30.27	4.48	-42.2	-56.8	3.8	1.49e+00	0	55	104	0	56	18756
2026-01-24 22:07:54.83	30.54	4.65	-42.2	-56.8	3.8	1.49e+00	0	55	104	0	56	18777
2026-01-24 22:07:57.86	30.82	4.81	-42.2	-56.7	3.8	1.49e+00	0	55	104	0	56	18726
2026-01-24 22:08:00.89	31.10	4.98	-42.2	-56.8	3.8	1.49e+00	0	55	104	0	56	18771
2026-01-24 22:08:03.92	31.38	5.15	-42.2	-56.8	3.8	1.49e+00	0	55	104	0	56	18804
2026-01-24 22:08:06.95	31.67	5.32	-42.2	-56.8	3.8	1.49e+00	0	55	104	0	56	18774
2026-01-24 22:08:09.98	31.96	5.49	-42.2	-56.8	3.8	1.49e+00	0	56	104	0	56	18736
2026-01-24 22:08:13.01	32.25	5.66	-42.2	-56.8	3.8	1.49e+00	0	56	104	0	56	18733
2026-01-24 22:08:16.05	32.55	5.84	-42.2	-56.7	3.8	1.49e+00	0	56	104	0	56	18712
2026-01-24 22:08:19.08	32.85	6.01	-42.2	-56.7	3.8	1.49e+00	0	56	104	0	56	18725
2026-01-24 22:08:22.11	33.16	6.18	-42.2	-56.8	3.8	1.49e+00	0	56	104	0	56	18741
2026-01-24 22:08:25.14	33.46	6.35	-42.2	-56.7	3.8	1.49e+00	0	56	104	0	56	18646
2026-01-24 22:08:28.17	33.77	6.53	-42.2	-56.7	3.8	1.49e+00	0	57	104	0	56	18546
2026-01-24 22:08:31.20	34.09	6.70	-42.2	-56.7	3.8	1.49e+00	0	57	104	0	56	18645
2026-01-24 22:08:34.23	34.40	6.88	-42.2	-56.8	3.8	1.49e+00	0	57	104	0	56	18775
2026-01-24 22:08:37.26	34.72	7.05	-42.2	-56.6	3.8	1.49e+00	0	57	104	0	56	18449
2026-01-24 22:08:40.29	35.05	7.23	-42.2	-56.7	3.8	1.49e+00	0	57	104	0	56	18546
2026-01-24 22:08:43.33	35.38	7.40	-42.2	-56.7	3.8	1.49e+00	0	57	104	0	56	18701
2026-01-24 22:08:46.36	35.71	7.58	-42.2	-56.8	3.8	1.49e+00	0	57	104	0	56	18759
2026-01-24 22:08:49.39	36.05	7.76	-42.2	-55.8	3.8	1.49e+00	0	57	104	0	56	16836
2026-01-24 22:08:52.42	36.39	7.93	-41.8	-52.4	4.4	1.39e+00	0	57	0	0	55	11981
2026-01-24 22:08:55.45	36.73	8.11	-41.4	-50.2	5.7	1.38e-01	0	57	0	5242880	54	9909
2026-01-24 22:08:58.48	37.08	8.29	-41.3	-46.4	9.7	1.52e-01	0	57	0	9437184	54	6392
2026-01-24 22:09:01.51	37.43	8.47	-41.7	-47.9	8.2	6.46e-02	0	58	0	14680064	54	7595
2026-01-24 22:09:04.53	37.79	8.65	-41.5	-47.0	9.1	2.28e-02	0	57	0	20971520	54	6867
2026-01-24 22:09:07.56	38.15	8.83	-41.4	-46.9	9.4	1.57e-02	0	58	0	26214400	54	6739
2026-01-24 22:09:10.59	38.51	9.01	-41.5	-46.9	9.4	1.86e-02	0	58	0	31457280	54	6725
2026-01-24 22:09:13.62	38.88	9.19	-41.5	-46.7	9.8	1.19e-02	0	58	0	37748736	54	6618
2026-01-24 22:09:16.65	39.26	9.37	-41.8	-47.2	9.5	1.13e-02	0	58	0	42991616	54	7003
2026-01-24 22:09:19.67	39.64	9.54	-41.9	-47.4	9.4	1.59e-02	0	58	0	49283072	54	7123
2026-01-24 22:09:22.70	40.02	9.73	-42.0	-47.5	9.3	1.96e-02	0	58	0	54525952	54	7239
2026-01-24 22:09:25.73	40.41	9.91	-41.9	-47.0	9.9	9.17e-03	0	58	0	59768832	54	6848
2026-01-24 22:09:28.76	40.80	10.09	-41.9	-47.0	10.0	7.27e-03	0	58	0	66060288	54	6812
2026-01-24 22:09:31.79	41.19	10.27	-41.9	-47.0	9.9	8.17e-03	0	58	0	71303168	54	6866
2026-01-24 22:09:34.82	41.60	10.45	-41.9	-47.0	10.0	8.74e-03	0	58	0	77594624	54	6819
2026-01-24 22:09:37.85	42.00	10.63	-41.9	-46.9	10.2	5.15e-03	0	59	0	82837504	54	6731
2026-01-24 22:09:40.87	42.41	10.81	-41.8	-46.5	10.6	3.32e-03	0	58	0	89128960	54	6487
2026-01-24 22:09:43.90	42.83	10.99	-41.7	-46.1	11.0	2.05e-03	0	59	0	94371840	54	6186
2026-01-24 22:09:46.93	43.25	11.17	-41.7	-46.2	11.0	2.21e-03	0	59	0	99614720	54	6270
2026-01-24 22:09:49.96	43.68	11.36	-41.9	-46.6	10.6	2.32e-03	0	59	0	105906176	54	6516
2026-01-24 22:09:52.99	44.11	11.54	-41.8	-46.5	10.7	2.94e-03	0	59	0	111149056	54	6457
2026-01-24 22:09:56.02	44.54	11.72	-41.9	-46.6	10.7	2.57e-03	0	59	0	117440512	54	6522
2026-01-24 22:09:59.04	44.98	11.90	-41.9	-46.5	10.8	2.66e-03	0	59	0	122683392	54	6439
2026-01-24 22:10:02.07	45.43	12.08	-41.7	-46.1	11.2	1.45e-03	0	59	0	127926272	54	6165
2026-01-24 22:10:05.10	45.88	12.26	-41.7	-46.1	11.3	1.74e-03	0	59	0	134217728	54	6135
2026-01-24 22:10:08.12	46.34	12.44	-41.8	-46.1	11.2	1.18e-03	0	59	0	139460608	54	6195
2026-01-24 22:10:11.15	46.80	12.62	-41.6	-45.8	11.5	8.67e-04	0	59	0	145752064	54	5961
2026-01-24 22:10:14.18	47.27	12.80	-41.4	-45.3	12.1	3.48e-04	0	59	0	150994944	54	5628
2026-01-24 22:10:17.21	47.75	12.98	-41.4	-45.4	12.1	1.83e-04	0	59	0	157286400	54	5667
2026-01-24 22:10:20.24	48.23	13.16	-41.6	-45.6	11.8	4.08e-04	0	59	0	162529280	54	5849
2026-01-24 22:10:23.27	48.71	13.34	-41.6	-45.7	11.7	6.57e-04	0	59	0	167772160	54	5897
2026-01-24 22:10:26.29	49.20	13.52	-41.5	-45.6	11.9	4.24e-04	0	59	0	174063616	54	5798
2026-01-24 22:10:29.32	49.70	13.69	-41.4	-45.2	12.3	2.21e-04	0	59	0	179306496	54	5572
2026-01-24 22:10:32.35	50.21	13.87	-41.3	-45.2	12.3	1.65e-04	0	59	0	185597952	54	5536
2026-01-24 22:10:35.38	50.71	14.05	-41.3	-45.1	12.4	1.48e-04	0	59	0	190840832	54	5466
2026-01-24 22:10:38.41	51.23	14.22	-41.4	-45.2	12.3	1.91e-04	0	59	0	196083712	54	5557
2026-01-24 22:10:41.44	51.75	14.39	-41.5	-45.4	12.2	2.22e-04	0	60	0	202375168	54	5663
2026-01-24 22:10:44.47	52.28	14.57	-41.6	-45.6	11.9	3.63e-04	0	60	0	207618048	54	5799
2026-01-24 22:10:47.50	52.81	14.74	-41.5	-45.4	12.2	2.37e-04	0	59	0	213909504	54	5677
2026-01-24 22:10:50.53	53.35	14.91	-41.5	-45.4	12.2	2.13e-04	0	59	0	219152384	54	5672
2026-01-24 22:10:53.56	53.89	15.08	-41.7	-45.8	11.8	4.73e-04	0	60	0	225443840	54	5950
2026-01-24 22:10:56.59	54.45	15.25	-41.8	-46.1	11.4	7.78e-04	0	60	0	230686720	54	6178
2026-01-24 22:10:59.62	55.00	15.42	-41.7	-45.9	11.7	6.29e-04	0	60	0	235929600	54	6007
2026-01-24 22:11:02.65	55.57	15.58	-41.9	-46.3	11.2	1.06e-03	0	60	0	242221056	54	6327
2026-01-24 22:11:05.67	56.13	15.75	-42.1	-46.8	10.8	2.45e-03	0	60	0	247463936	54	6651
2026-01-24 22:11:08.70	56.71	15.91	-42.0	-46.5	11.1	1.93e-03	0	60	0	253755392	54	6430
2026-01-24 22:11:11.73	57.29	16.07	-42.0	-46.5	11.0	1.73e-03	0	60	0	258998272	54	6424
2026-01-24 22:11:14.76	57.88	16.23	-42.0	-46.6	10.9	2.07e-03	0	60	0	264241152	54	6531
2026-01-24 22:11:17.79	58.47	16.39	-42.0	-46.6	10.9	2.24e-03	0	60	0	270532608	54	6533
2026-01-24 22:11:20.82	59.07	16.54	-42.2	-46.9	10.6	2.82e-03	0	60	0	275775488	54	6747
2026-01-24 22:11:23.85	59.68	16.70	-42.0	-46.6	10.9	2.27e-03	0	60	0	282066944	54	6502
2026-01-24 22:11:26.87	60.29	16.85	-42.2	-46.9	10.6	2.34e-03	0	60	0	287309824	54	6772
2026-01-24 22:11:29.90	60.91	17.00	-42.3	-47.3	10.2	5.66e-03	0	60	0	293601280	55	6659
2026-01-24 22:11:32.93	61.53	17.15	-42.1	-46.8	10.7	4.60e-03	0	60	0	298844160	55	6330
2026-01-24 22:11:35.96	62.16	17.29	-42.1	-46.6	11.0	1.99e-03	0	60	0	304087040	55	6158
2026-01-24 22:11:38.99	62.80	17.43	-42.1	-46.6	10.9	2.08e-03	0	60	0	310378496	55	6193
2026-01-24 22:11:42.01	63.44	17.57	-41.9	-46.2	11.3	1.24e-03	0	60	0	315621376	55	5923
2026-01-24 22:11:45.04	64.08	17.71	-41.9	-46.2	11.3	1.05e-03	0	60	0	321912832	55	5896
2026-01-24 22:11:48.07	64.74	17.84	-41.9	-46.3	11.2	1.38e-03	0	60	0	327155712	55	5968
2026-01-24 22:11:51.10	65.40	17.98	-41.6	-45.6	12.0	5.34e-04	0	60	0	332398592	55	5494
2026-01-24 22:11:54.13	66.06	18.10	-41.5	-45.4	12.0	2.94e-04	0	60	0	338690048	54	5707
2026-01-24 22:11:57.16	66.73	18.23	-41.6	-45.8	11.5	7.54e-04	0	60	0	343932928	54	5989
2026-01-24 22:12:00.19	67.41	18.35	-41.5	-45.8	11.5	1.14e-03	0	60	0	350224384	54	5934
2026-01-24 22:12:03.21	68.09	18.47	-41.5	-45.7	11.5	1.01e-03	0	60	0	355467264	54	5870
2026-01-24 22:12:06.24	68.77	18.59	-41.2	-45.3	11.7	5.21e-04	0	60	0	361758720	54	5643
2026-01-24 22:12:09.27	69.46	18.70	-41.0	-45.1	11.8	4.57e-04	0	60	0	367001600	53	5791
2026-01-24 22:12:12.30	70.16	18.81	-41.3	-45.9	10.7	1.41e-03	0	60	0	372244480	53	6385
2026-01-24 22:12:15.33	70.86	18.91	-41.3	-46.4	10.0	6.04e-03	0	60	0	378535936	53	6741
2026-01-24 22:12:18.36	71.57	19.01	-41.3	-46.5	9.7	7.84e-03	0	60	0	383778816	53	6839
2026-01-24 22:12:21.39	72.28	19.11	-41.3	-46.5	9.8	8.70e-03	0	60	0	390070272	53	6830
2026-01-24 22:12:24.42	72.99	19.20	-41.3	-46.4	9.9	8.00e-03	0	61	0	395313152	53	6759
2026-01-24 22:12:27.45	73.71	19.29	-41.4	-46.8	9.4	1.41e-02	0	60	0	400556032	53	7118
2026-01-24 22:12:30.48	74.43	19.38	-41.1	-46.1	10.0	8.63e-03	0	60	0	406847488	53	6544
2026-01-24 22:12:33.51	75.16	19.46	-41.1	-46.4	9.7	9.07e-03	0	60	0	412090368	53	6772
2026-01-24 22:12:36.54	75.89	19.53	-41.5	-47.0	9.3	1.79e-02	0	60	0	418381824	53	7221
2026-01-24 22:12:39.57	76.63	19.61	-41.5	-47.1	9.2	1.73e-02	0	61	0	423624704	53	7339
2026-01-24 22:12:42.60	77.36	19.67	-41.8	-47.5	8.8	2.68e-02	0	61	0	429916160	54	7273
2026-01-24 22:12:45.63	78.10	19.74	-41.7	-47.2	9.2	2.15e-02	0	61	0	435159040	54	6997
2026-01-24 22:12:48.66	78.85	19.80	-41.5	-46.8	9.6	1.16e-02	0	61	0	440401920	54	6696
2026-01-24 22:12:51.69	79.59	19.85	-41.6	-47.0	9.6	1.57e-02	0	60	0	446693376	55	6421
2026-01-24 22:12:54.72	80.34	19.90	-41.6	-46.3	10.5	4.96e-03	0	60	0	451936256	55	5982
2026-01-24 22:12:57.74	81.09	19.94	-41.7	-46.5	10.4	3.21e-03	0	61	0	458227712	55	6089
2026-01-24 22:13:00.77	81.84	19.98	-42.0	-47.3	9.7	1.08e-02	0	61	0	463470592	55	6655
2026-01-24 22:13:03.80	82.60	20.02	-41.9	-47.0	10.0	8.59e-03	0	61	0	468713472	55	6425
2026-01-24 22:13:06.83	83.36	20.05	-41.8	-46.8	10.1	9.11e-03	0	61	0	475004928	55	6311
2026-01-24 22:13:09.86	84.11	20.07	-41.5	-46.3	10.4	5.12e-03	0	61	0	480247808	55	5980
2026-01-24 22:13:12.89	84.87	20.09	-41.6	-46.9	9.7	9.06e-03	0	61	0	486539264	54	6763
2026-01-24 22:13:15.92	85.63	20.11	-41.6	-46.9	9.7	1.24e-02	0	61	0	491782144	54	6798
2026-01-24 22:13:18.95	86.39	20.12	-41.8	-47.4	9.2	1.69e-02	0	61	0	497025024	54	7142
2026-01-24 22:13:21.98	87.16	20.13	-41.9	-47.7	8.9	3.06e-02	0	61	0	503316480	54	7393
2026-01-24 22:13:25.01	87.92	20.13	-41.8	-47.4	9.3	2.05e-02	0	61	0	508559360	54	7161
2026-01-24 22:13:28.04	88.68	20.12	-42.0	-47.5	9.4	1.64e-02	0	61	0	514850816	54	7268
2026-01-24 22:13:31.07	89.44	20.11	-41.9	-46.8	10.4	4.99e-03	0	61	0	520093696	54	6683
2026-01-24 22:13:34.09	90.20	20.10	-41.7	-45.9	11.5	9.02e-04	0	61	0	526385152	54	6057
2026-01-24 22:13:37.12	90.96	20.08	-41.6	-45.6	12.0	3.87e-04	0	61	0	531628032	54	5835
2026-01-24 22:13:40.15	91.72	20.05	-41.8	-46.0	11.6	6.73e-04	0	61	0	536870912	54	6111
2026-01-24 22:13:43.18	92.47	20.02	-42.0	-46.3	11.4	8.64e-04	0	61	0	543162368	54	6304
2026-01-24 22:13:46.21	93.23	19.99	-41.9	-46.0	11.7	8.25e-04	0	61	0	548405248	54	6065
2026-01-24 22:13:49.23	93.98	19.95	-41.9	-45.9	12.0	4.81e-04	0	61	0	554696704	54	6011
2026-01-24 22:13:52.26	94.73	19.90	-41.9	-45.9	12.0	4.53e-04	0	61	0	559939584	54	6005
2026-01-24 22:13:55.29	95.48	19.86	-41.7	-45.5	12.4	1.69e-04	0	61	0	565182464	54	5741
2026-01-24 22:13:58.32	96.23	19.80	-41.8	-45.7	12.2	2.37e-04	0	61	0	571473920	54	5915
2026-01-24 22:14:01.35	96.98	19.74	-41.9	-45.8	12.1	3.79e-04	0	61	0	576716800	54	5982
2026-01-24 22:14:04.37	97.72	19.68	-41.9	-46.0	11.9	4.72e-04	0	61	0	583008256	54	6066
2026-01-24 22:14:07.40	98.46	19.61	-42.2	-46.7	11.1	1.99e-03	0	61	0	588251136	55	6251
2026-01-24 22:14:10.43	99.19	19.54	-41.9	-46.0	11.8	6.33e-04	0	61	0	593494016	55	5777
2026-01-24 22:14:13.45	99.92	19.47	-41.6	-45.3	12.6	1.07e-04	0	61	0	599785472	54	5630
2026-01-24 22:14:16.48	100.65	19.38	-41.8	-45.8	12.1	3.04e-04	0	61	0	605028352	54	5945
2026-01-24 22:14:19.51	101.38	19.30	-41.5	-45.1	12.8	1.10e-04	0	61	0	611319808	53	5809
2026-01-24 22:14:22.54	102.10	19.21	-41.5	-45.3	12.6	1.01e-04	0	61	0	616562688	53	5932
2026-01-24 22:14:25.57	102.81	19.12	-41.4	-45.6	12.3	2.04e-04	0	61	0	622854144	54	5797
2026-01-24 22:14:28.59	103.53	19.02	-41.4	-44.9	12.9	7.32e-05	0	61	0	628097024	54	5401
2026-01-24 22:14:31.62	104.23	18.92	-41.4	-44.9	13.0	1.98e-05	0	61	0	633339904	54	5382
2026-01-24 22:14:34.64	104.93	18.81	-41.4	-45.1	12.8	6.71e-05	0	61	0	639631360	54	5486
2026-01-24 22:14:37.67	105.63	18.71	-41.4	-45.0	12.9	4.27e-05	0	61	0	644874240	54	5417
2026-01-24 22:14:40.69	106.33	18.59	-41.6	-45.4	12.5	4.27e-05	0	61	0	651165696	54	5668
2026-01-24 22:14:43.72	107.01	18.48	-41.8	-45.8	12.0	3.09e-04	0	61	0	656408576	54	5975
2026-01-24 22:14:46.75	107.70	18.36	-41.7	-45.6	12.3	1.45e-04	0	61	0	661651456	54	5799
2026-01-24 22:14:49.78	108.38	18.24	-41.7	-45.5	12.4	1.70e-04	0	61	0	667942912	54	5756
2026-01-24 22:14:52.81	109.05	18.11	-41.7	-45.5	12.3	1.30e-04	0	61	0	673185792	54	5768
2026-01-24 22:14:55.84	109.72	17.98	-42.0	-46.2	11.6	5.92e-04	0	61	0	679477248	54	6226
2026-01-24 22:14:58.87	110.38	17.85	-41.9	-46.1	11.7	5.55e-04	0	61	0	684720128	54	6168
2026-01-24 22:15:01.91	111.04	17.71	-42.1	-46.5	11.3	9.73e-04	0	61	0	691011584	54	6480
2026-01-24 22:15:04.93	111.69	17.58	-42.0	-46.2	11.6	1.11e-03	0	61	0	696254464	54	6248
2026-01-24 22:15:07.96	112.33	17.44	-41.8	-45.8	12.0	3.54e-04	0	61	0	701497344	54	5987
2026-01-24 22:15:10.99	112.97	17.29	-42.1	-46.4	11.4	1.02e-03	0	61	0	707788800	54	6382
2026-01-24 22:15:14.02	113.60	17.15	-42.2	-46.9	10.8	2.85e-03	0	61	0	713031680	55	6373
2026-01-24 22:15:17.05	114.23	17.00	-42.1	-46.6	11.1	1.80e-03	0	61	0	719323136	55	6176
2026-01-24 22:15:20.08	114.85	16.85	-42.2	-46.7	11.0	1.65e-03	0	61	0	724566016	55	6239
2026-01-24 22:15:23.10	115.47	16.70	-42.2	-46.8	10.9	2.68e-03	0	61	0	729808896	55	6288
2026-01-24 22:15:26.13	116.07	16.54	-42.1	-46.6	11.1	1.46e-03	0	61	0	736100352	54	6517
2026-01-24 22:15:29.16	116.68	16.38	-42.2	-47.2	10.4	3.82e-03	0	61	0	741343232	55	6605
2026-01-24 22:15:32.19	117.27	16.23	-42.4	-47.7	9.7	1.64e-02	0	61	0	747634688	55	7033
2026-01-24 22:15:35.21	117.86	16.07	-41.6	-47.1	10.4	8.45e-03	0	61	0	752877568	55	6538
2026-01-24 22:15:38.25	118.45	15.90	-42.1	-46.8	10.7	3.34e-03	0	61	0	759169024	54	6655
2026-01-24 22:15:41.27	119.03	15.74	-42.0	-46.6	10.9	3.04e-03	0	61	0	764411904	54	6518
2026-01-24 22:15:44.30	119.60	15.57	-41.6	-46.1	11.4	2.22e-03	0	61	0	769654784	54	6153
2026-01-24 22:15:47.33	120.16	15.41	-41.9	-46.5	10.9	2.94e-02	0	61	0	775946240	54	6475
2026-01-24 22:15:50.36	120.72	15.24	-41.1	-46.3	10.9	7.03e-03	0	61	0	781189120	53	6647
2026-01-24 22:15:53.39	121.28	15.07	-39.3	-46.2	11.1	3.32e-03	0	61	0	787480576	54	6219
2026-01-24 22:15:56.41	121.82	14.90	-41.9	-46.9	10.5	7.19e-03	0	61	0	792723456	54	6748
2026-01-24 22:15:59.44	122.37	14.72	-42.0	-46.9	10.5	9.09e-03	0	61	0	797966336	54	6768
2026-01-24 22:16:02.47	122.90	14.55	-41.1	-46.4	10.6	4.74e-03	0	61	0	804257792	54	6365
2026-01-24 22:16:05.50	123.43	14.38	-41.8	-46.4	11.0	7.36e-03	0	61	0	809500672	54	6377
2026-01-24 22:16:08.53	123.95	14.20	-41.7	-46.5	10.8	1.23e-02	0	61	0	815792128	54	6466
2026-01-24 22:16:11.56	124.47	14.02	-41.4	-46.0	11.0	7.75e-03	0	61	0	821035008	53	6446
2026-01-24 22:16:14.59	124.98	13.85	-38.7	-45.7	11.4	1.28e-02	0	61	0	827326464	52	6577
2026-01-24 22:16:17.61	125.49	13.67	-41.0	-46.4	9.0	8.78e-02	0	61	0	832569344	47	9578
2026-01-24 22:16:20.64	125.99	13.49	-40.7	-46.6	9.4	1.10e-01	0	61	0	837812224	52	7357
2026-01-24 22:16:23.67	126.48	13.31	-38.7	-46.0	8.8	2.20e-01	0	61	0	844103680	48	8574
2026-01-24 22:16:26.70	126.97	13.13	-24.4	-39.7	7.1	5.42e-01	0	61	0	849346560	27	13997
2026-01-24 22:16:29.73	127.45	12.95	-34.9	-44.6	5.4	1.40e+00	0	61	104	849346560	39	12270
2026-01-24 22:16:32.76	127.93	12.77	-28.3	-44.0	4.9	1.35e+00	0	61	104	849346560	28	21576
2026-01-24 22:16:35.79	128.40	12.59	-25.2	-38.7	4.2	1.49e+00	0	61	104	849346560	19	19787
2026-01-24 22:16:38.82	128.86	12.40	-27.1	-42.1	3.8	1.49e+00	0	61	0	849346560	22	24458
2026-01-24 22:16:41.85	129.32	12.22	-29.5	-45.2	4.3	1.44e+00	0	61	104	849346560	24	31363
2026-01-24 22:16:44.88	129.78	12.04	-24.5	-39.9	4.2	1.41e+00	0	61	104	849346560	15	28660
2026-01-24 22:16:47.91	130.23	11.86	-21.9	-36.1	3.7	1.50e+00	0	61	104	849346560	12	21890
2026-01-24 22:16:50.94	130.67	11.67	-26.8	-44.9	4.4	1.50e+00	0	62	104	849346560	27	25295
2026-01-24 22:16:53.97	131.11	11.49	-28.5	-47.8	4.4	1.50e+00	0	61	104	849346560	31	28250
2026-01-24 22:16:57.00	131.54	11.31	-19.6	-33.6	3.6	1.40e+00	0	61	104	849346560	8	20601
2026-01-24 22:17:00.02	131.97	11.12	-21.4	-38.3	4.1	1.47e+00	0	61	104	849346560	17	21136
2026-01-24 22:17:03.05	132.39	10.94	-25.0	-39.5	4.3	1.47e+00	0	62	104	849346560	19	21717
2026-01-24 22:17:06.08	132.81	10.76	-27.5	-46.0	4.5	1.50e+00	0	61	104	849346560	30	24190
2026-01-24 22:17:09.11	133.22	10.57	-28.2	-44.4	4.1	1.50e+00	0	62	0	849346560	25	26829
2026-01-24 22:17:12.14	133.63	10.39	-28.0	-43.0	4.2	1.50e+00	0	61	104	849346560	21	28682
2026-01-24 22:17:15.17	134.03	10.21	-39.5	-49.4	3.7	1.51e+00	0	61	104	849346560	26	44936
2026-01-24 22:17:18.20	134.43	10.03	-38.6	-55.3	4.2	1.50e+00	0	62	104	849346560	51	21074
2026-01-24 22:17:21.23	134.82	9.84	-34.1	-51.4	4.1	1.50e+00	0	61	104	849346560	41	24000
2026-01-24 22:17:24.25	135.21	9.66	-37.6	-53.7	4.4	1.51e+00	0	61	104	849346560	43	27780
2026-01-24 22:17:27.28	135.59	9.48	-35.1	-53.0	3.8	1.50e+00	0	61	104	849346560	40	30648
2026-01-24 22:17:30.31	135.97	9.30	-35.7	-53.5	4.1	1.50e+00	0	61	104	849346560	44	25637
2026-01-24 22:17:33.34	136.34	9.11	-41.6	-56.3	3.8	1.50e+00	0	61	104	849346560	53	21195
2026-01-24 22:17:36.37	136.71	8.93	-42.0	-56.6	3.8	1.49e+00	0	61	104	849346560	54	20760
2026-01-24 22:17:39.40	137.08	8.75	-37.4	-55.2	3.9	1.49e+00	0	61	104	849346560	52	19823
2026-01-24 22:17:42.43	137.44	8.57	-39.6	-56.3	3.9	1.49e+00	0	61	104	849346560	52	22340
2026-01-24 22:17:45.46	137.80	8.39	-42.0	-56.7	3.9	1.49e+00	0	62	104	849346560	54	20781
2026-01-24 22:17:48.49	138.15	8.21	-42.5	-57.3	3.8	1.49e+00	0	62	104	849346560	55	21036
2026-01-24 22:17:51.51	138.50	8.03	-42.9	-57.5	3.8	1.49e+00	0	61	104	849346560	56	20457
2026-01-24 22:17:54.54	138.84	7.85	-44.8	-59.6	3.8	1.49e+00	0	61	104	849346560	60	20755
2026-01-24 22:17:57.57	139.18	7.67	-45.4	-60.2	3.8	1.49e+00	0	61	104	849346560	61	20867
2026-01-24 22:18:00.60	139.52	7.49	-45.6	-60.4	3.8	1.49e+00	0	61	104	849346560	61	21440
2026-01-24 22:18:03.64	139.85	7.31	-45.5	-60.2	3.8	1.49e+00	0	62	104	849346560	61	20892
2026-01-24 22:18:06.67	140.18	7.14	-45.4	-60.0	3.8	1.49e+00	0	61	104	849346560	61	20523
2026-01-24 22:18:09.70	140.51	6.96	-45.2	-59.8	3.8	1.49e+00	0	61	104	849346560	61	20027
2026-01-24 22:18:12.73	140.83	6.78	-45.2	-59.8	3.8	1.49e+00	0	62	104	849346560	61	19967
2026-01-24 22:18:15.76	141.14	6.61	-45.2	-59.8	3.8	1.49e+00	0	62	104	849346560	61	19989
2026-01-24 22:18:18.79	141.46	6.43	-45.2	-59.8	3.8	1.49e+00	0	61	104	849346560	61	20015
2026-01-24 22:18:21.83	141.77	6.25	-45.2	-59.7	3.8	1.49e+00	0	62	104	849346560	61	19824
2026-01-24 22:18:24.86	142.07	6.08	-45.2	-59.8	3.8	1.49e+00	0	62	104	849346560	61	19870
2026-01-24 22:18:27.89	142.38	5.90	-45.2	-59.8	3.8	1.49e+00	0	62	104	849346560	61	19864
2026-01-24 22:18:30.92	142.68	5.73	-45.2	-59.7	3.8	1.49e+00	0	62	104	849346560	61	19836
2026-01-24 22:18:33.95	142.97	5.56	-45.2	-59.8	3.8	1.49e+00	0	61	104	849346560	61	19849
2026-01-24 22:18:36.99	143.26	5.38	-45.1	-59.7	3.8	1.49e+00	0	62	104	849346560	61	19713
2026-01-24 22:18:40.02	143.55	5.21	-45.1	-59.7	3.8	1.49e+00	0	61	104	849346560	61	19767
2026-01-24 22:18:43.05	143.84	5.04	-45.1	-59.7	3.8	1.49e+00	0	62	104	849346560	61	19784
2026-01-24 22:18:46.08	144.12	4.87	-45.1	-59.7	3.8	1.49e+00	0	61	104	849346560	61	19760
2026-01-24 22:18:49.11	144.40	4.70	-45.1	-59.7	3.8	1.49e+00	0	62	104	849346560	61	19803
2026-01-24 22:18:52.14	144.68	4.53	-45.1	-59.7	3.8	1.49e+00	0	62	104	849346560	61	19655
2026-01-24 22:18:55.18	144.95	4.36	-45.1	-59.7	3.8	1.49e+00	0	61	104	849346560	61	19710
2026-01-24 22:18:58.21	145.22	4.19	-45.1	-59.7	3.8	1.49e+00	0	62	104	849346560	61	19629
2026-01-24 22:19:01.24	145.49	4.02	-45.1	-59.7	3.8	1.49e+00	0	62	104	849346560	61	19716
2026-01-24 22:19:04.27	145.75	3.85	-45.1	-59.7	3.8	1.49e+00	0	61	104	849346560	61	19698
2026-01-24 22:19:07.30	146.02	3.68	-45.1	-59.7	3.8	1.49e+00	0	62	104	849346560	60	20813
2026-01-24 22:19:10.33	146.27	3.52	-45.1	-59.7	3.8	1.49e+00	0	62	104	849346560	60	20839
2026-01-24 22:19:13.37	146.53	3.35	-45.1	-59.7	3.8	1.49e+00	0	62	104	849346560	60	20845
2026-01-24 22:19:16.40	146.78	3.18	-45.1	-59.7	3.8	1.49e+00	0	62	104	849346560	60	20781
2026-01-24 22:19:19.43	147.03	3.02	-45.1	-59.7	3.8	1.49e+00	0	62	104	849346560	60	20819
2026-01-24 22:19:22.46	147.28	2.85	-45.0	-59.7	3.8	1.49e+00	0	61	104	849346560	60	20844
2026-01-24 22:19:25.49	147.53	2.69	-45.1	-59.7	3.8	1.49e+00	0	62	104	849346560	60	20803
2026-01-24 22:19:28.53	147.77	2.52	-45.1	-59.7	3.8	1.49e+00	0	61	104	849346560	60	20842
2026-01-24 22:19:31.56	148.01	2.36	-45.1	-59.7	3.8	1.49e+00	0	62	104	849346560	60	20812
2026-01-24 22:19:34.59	148.25	2.20	-45.1	-59.7	3.8	1.49e+00	0	62	104	849346560	60	20831
2026-01-24 22:19:37.62	148.48	2.04	-45.0	-59.6	3.8	1.49e+00	0	61	104	849346560	60	20765

#Closed at: 2026-01-24 22:19:39
#Recorded file [849 MB]: D:/lorett/data/31039_260125_010706.dat