passes_logs/2026/01/24/R2.0S_Moscow/R2.0S_Moscow__20260124_101704_NOAA_20_JPSS-1_rec.log

#Pass ID: 20260124_101704_NOAA 20 (JPSS-1)
#Satellite: NOAA 20 (JPSS-1)
#Configuration: NOAA 20
#almurnet v.1.7.20251203
#Start time: 2026-01-24 10:17:05

#Version: 2.2.20231116
#Station: R2.0S_Moscow
#Location: 37.707566 lon 55.798166 lat
#TLE: 1 43013U 17073A   26023.57676825  .00000205  00000+0  11821-3 0  9990
#TLE: 2 43013  98.7645 324.4259 0001147  27.0566 333.0670 14.19539368423954

#Time	Az	El	Level	Level2	SNR	BER	BlckErr	Temp	State	Recorded	gain1	gain2
2026-01-24 10:17:05.14	171.17	2.01	-43.4	-57.9	3.8	1.49e+00	0	53	0	0	58	19121
2026-01-24 10:17:09.17	171.25	2.27	-43.4	-57.9	3.8	1.49e+00	0	53	104	0	58	19032
2026-01-24 10:17:13.22	171.32	2.53	-43.4	-57.9	3.8	1.49e+00	0	54	104	0	58	18999
2026-01-24 10:17:17.26	171.40	2.80	-43.4	-57.9	3.8	1.49e+00	0	54	104	0	58	19074
2026-01-24 10:17:21.30	171.48	3.06	-43.4	-57.9	3.8	1.49e+00	0	54	104	0	58	19064
2026-01-24 10:17:25.34	171.56	3.33	-43.4	-57.9	3.8	1.49e+00	0	55	104	0	58	19000
2026-01-24 10:17:29.39	171.64	3.61	-43.4	-57.9	3.8	1.49e+00	0	55	104	0	58	19009
2026-01-24 10:17:33.43	171.73	3.88	-43.4	-57.9	3.8	1.49e+00	0	55	104	0	58	18986
2026-01-24 10:17:37.47	171.81	4.16	-43.4	-57.8	3.8	1.49e+00	0	55	104	0	58	18741
2026-01-24 10:17:41.51	171.90	4.44	-43.4	-57.3	3.8	1.49e+00	0	55	104	0	58	17794
2026-01-24 10:17:45.55	171.99	4.72	-43.3	-57.0	3.8	1.49e+00	0	56	104	0	58	17229
2026-01-24 10:17:49.59	172.08	5.01	-43.3	-56.6	3.8	1.49e+00	0	56	104	0	58	16461
2026-01-24 10:17:53.63	172.17	5.29	-43.2	-55.2	3.9	1.47e+00	0	56	104	0	58	13960
2026-01-24 10:17:57.68	172.26	5.59	-43.2	-54.6	4.1	1.41e+00	0	56	0	0	58	13070
2026-01-24 10:18:01.72	172.35	5.88	-43.1	-54.5	4.1	1.40e+00	0	56	0	0	58	12828
2026-01-24 10:18:05.76	172.45	6.18	-43.2	-54.5	4.1	1.39e+00	0	57	0	0	58	12822
2026-01-24 10:18:09.80	172.55	6.48	-43.1	-54.4	4.2	1.39e+00	0	57	0	0	58	12725
2026-01-24 10:18:13.84	172.65	6.79	-43.1	-54.0	4.3	1.37e+00	0	57	0	0	58	12131
2026-01-24 10:18:17.88	172.75	7.10	-42.9	-52.3	5.0	7.32e-01	0	57	0	6291456	57	10608
2026-01-24 10:18:21.92	172.85	7.41	-42.4	-49.7	6.9	2.00e-01	0	57	0	13631488	56	8328
2026-01-24 10:18:25.97	172.96	7.73	-41.8	-47.7	8.7	4.23e-02	0	58	0	22020096	55	6983
2026-01-24 10:18:30.01	173.07	8.05	-41.7	-47.2	9.2	1.83e-02	0	58	0	29360128	55	6624
2026-01-24 10:18:34.05	173.18	8.37	-43.1	-50.7	6.5	1.02e-01	0	58	0	36700160	56	9315
2026-01-24 10:18:38.09	173.29	8.70	-41.6	-46.5	10.3	5.26e-03	0	58	0	41943040	55	6084
2026-01-24 10:18:42.13	173.40	9.03	-41.6	-46.4	10.4	4.31e-03	0	58	0	49283072	55	6053
2026-01-24 10:18:46.16	173.52	9.37	-41.6	-46.3	10.7	3.05e-03	0	58	0	56623104	55	5941
2026-01-24 10:18:50.20	173.64	9.71	-41.7	-46.4	10.7	2.52e-03	0	58	0	65011712	55	6000
2026-01-24 10:18:54.24	173.76	10.06	-41.6	-46.1	11.1	1.69e-03	0	59	0	72351744	55	5799
2026-01-24 10:18:58.27	173.88	10.41	-41.6	-46.0	11.2	1.35e-03	0	59	0	79691776	55	5784
2026-01-24 10:19:02.31	174.01	10.77	-41.6	-45.8	11.4	9.77e-04	0	59	0	87031808	55	5650
2026-01-24 10:19:06.35	174.14	11.13	-41.6	-45.8	11.6	6.42e-04	0	59	0	95420416	55	5606
2026-01-24 10:19:10.39	174.27	11.50	-41.5	-45.5	11.9	4.26e-04	0	59	0	102760448	55	5438
2026-01-24 10:19:14.42	174.41	11.87	-41.5	-45.5	11.9	3.68e-04	0	59	0	110100480	54	5732
2026-01-24 10:19:18.46	174.55	12.25	-41.4	-45.3	12.2	2.62e-04	0	59	0	117440512	54	5606
2026-01-24 10:19:22.50	174.69	12.63	-41.4	-45.3	12.2	2.30e-04	0	59	0	124780544	54	5615
2026-01-24 10:19:26.54	174.84	13.02	-41.3	-45.1	12.5	1.36e-04	0	59	0	133169152	54	5488
2026-01-24 10:19:30.58	174.99	13.42	-41.4	-45.2	12.4	1.74e-04	0	59	0	140509184	54	5552
2026-01-24 10:19:34.62	175.14	13.82	-41.4	-45.1	12.5	1.07e-04	0	59	0	147849216	54	5510
2026-01-24 10:19:38.65	175.30	14.23	-41.4	-45.2	12.4	1.65e-04	0	59	0	155189248	54	5553
2026-01-24 10:19:42.69	175.46	14.64	-41.5	-45.3	12.4	1.60e-04	0	59	0	163577856	54	5606
2026-01-24 10:19:46.74	175.63	15.07	-41.5	-45.3	12.4	1.06e-04	0	59	0	170917888	54	5604
2026-01-24 10:19:50.78	175.80	15.50	-41.5	-45.2	12.5	1.27e-04	0	59	0	178257920	54	5551
2026-01-24 10:19:54.81	175.97	15.93	-41.5	-45.3	12.4	1.43e-04	0	60	0	185597952	54	5613
2026-01-24 10:19:58.85	176.15	16.38	-41.7	-45.6	12.1	2.22e-04	0	60	0	192937984	54	5829
2026-01-24 10:20:02.89	176.33	16.83	-41.8	-45.9	11.8	3.92e-04	0	60	0	201326592	54	6011
2026-01-24 10:20:06.93	176.52	17.30	-42.0	-46.1	11.6	6.29e-04	0	60	0	208666624	54	6177
2026-01-24 10:20:10.96	176.72	17.77	-42.0	-46.2	11.6	6.58e-04	0	60	0	216006656	54	6208
2026-01-24 10:20:15.00	176.92	18.25	-42.0	-46.2	11.6	7.37e-04	0	60	0	223346688	54	6211
2026-01-24 10:20:19.04	177.13	18.73	-42.0	-46.2	11.6	6.32e-04	0	60	0	230686720	54	6240
2026-01-24 10:20:23.08	177.34	19.23	-42.0	-46.1	11.6	6.14e-04	0	60	0	239075328	54	6194
2026-01-24 10:20:27.12	177.56	19.74	-42.1	-46.3	11.5	7.80e-04	0	60	0	246415360	54	6308
2026-01-24 10:20:31.16	177.79	20.26	-42.1	-46.3	11.5	7.86e-04	0	60	0	253755392	54	6339
2026-01-24 10:20:35.20	178.03	20.79	-42.1	-46.4	11.4	8.98e-04	0	60	0	261095424	54	6373
2026-01-24 10:20:39.23	178.27	21.33	-42.1	-46.3	11.5	7.99e-04	0	60	0	269484032	54	6324
2026-01-24 10:20:43.27	178.52	21.88	-42.1	-46.2	11.6	6.48e-04	0	60	0	276824064	54	6261
2026-01-24 10:20:47.31	178.78	22.44	-42.0	-46.1	11.8	5.23e-04	0	60	0	284164096	54	6137
2026-01-24 10:20:51.35	179.05	23.02	-42.0	-46.1	11.9	3.87e-04	0	60	0	291504128	54	6147
2026-01-24 10:20:55.39	179.33	23.60	-42.0	-46.0	11.9	4.58e-04	0	60	0	298844160	54	6110
2026-01-24 10:20:59.43	179.62	24.20	-41.9	-45.9	12.0	3.52e-04	0	60	0	307232768	54	6009
2026-01-24 10:21:03.47	179.92	24.82	-42.0	-46.1	11.9	4.05e-04	0	61	0	314572800	54	6160
2026-01-24 10:21:07.50	180.23	25.44	-42.1	-46.1	11.8	4.54e-04	0	61	0	321912832	54	6194
2026-01-24 10:21:11.54	180.55	26.09	-42.2	-46.3	11.7	6.53e-04	0	60	0	329252864	54	6314
2026-01-24 10:21:15.58	180.89	26.74	-42.2	-46.4	11.6	5.55e-04	0	61	0	337641472	54	6382
2026-01-24 10:21:19.62	181.24	27.42	-42.1	-46.2	11.8	4.61e-04	0	60	0	344981504	54	6222
2026-01-24 10:21:23.65	181.60	28.10	-42.1	-46.1	11.9	3.97e-04	0	61	0	352321536	54	6177
2026-01-24 10:21:27.69	181.98	28.81	-42.1	-46.1	11.9	3.31e-04	0	61	0	359661568	54	6175
2026-01-24 10:21:31.73	182.38	29.53	-42.3	-46.6	11.4	8.25e-04	0	61	0	367001600	55	6186
2026-01-24 10:21:35.77	182.79	30.26	-42.5	-47.0	11.0	1.97e-03	0	61	0	375390208	55	6462
2026-01-24 10:21:39.80	183.22	31.02	-42.7	-47.3	10.6	3.19e-03	0	61	0	382730240	55	6717
2026-01-24 10:21:43.84	183.68	31.79	-43.0	-48.0	10.2	6.43e-03	0	61	0	390070272	56	6802
2026-01-24 10:21:47.88	184.15	32.59	-43.0	-47.8	10.3	5.77e-03	0	61	0	397410304	56	6700
2026-01-24 10:21:51.91	184.65	33.40	-42.8	-47.3	10.8	2.35e-03	0	61	0	405798912	56	6340
2026-01-24 10:21:55.95	185.17	34.23	-42.8	-47.3	11.0	2.04e-03	0	61	0	413138944	56	6280
2026-01-24 10:21:59.99	185.72	35.08	-42.8	-47.3	11.0	2.13e-03	0	61	0	420478976	56	6283
2026-01-24 10:22:04.03	186.30	35.95	-43.0	-47.9	10.3	5.10e-03	0	61	0	427819008	56	6741
2026-01-24 10:22:08.07	186.91	36.85	-43.1	-48.0	10.1	6.76e-03	0	61	0	435159040	56	6879
2026-01-24 10:22:12.10	187.56	37.76	-43.3	-48.6	9.5	1.21e-02	0	61	0	443547648	57	6900
2026-01-24 10:22:16.14	188.24	38.69	-43.6	-49.5	8.7	3.35e-02	0	61	0	450887680	57	7718
2026-01-24 10:22:20.18	188.96	39.65	-43.5	-49.2	8.9	3.33e-02	0	61	0	458227712	57	7447
2026-01-24 10:22:24.21	189.72	40.63	-43.7	-49.9	8.3	5.15e-02	0	61	0	465567744	58	7601
2026-01-24 10:22:28.25	190.53	41.63	-43.4	-48.9	9.4	1.96e-02	0	61	0	473956352	58	6724
2026-01-24 10:22:32.29	191.39	42.65	-43.2	-48.3	10.0	7.40e-03	0	61	0	481296384	58	6315
2026-01-24 10:22:36.33	192.31	43.69	-42.9	-47.5	10.9	2.57e-03	0	61	0	488636416	57	6106
2026-01-24 10:22:40.37	193.29	44.76	-43.0	-47.8	10.5	2.95e-03	0	61	0	495976448	57	6318
2026-01-24 10:22:44.40	194.34	45.84	-43.1	-47.9	10.4	4.00e-03	0	61	0	503316480	57	6388
2026-01-24 10:22:48.44	195.46	46.94	-43.2	-48.4	9.9	8.84e-03	0	61	0	511705088	57	6744
2026-01-24 10:22:52.48	196.66	48.06	-42.9	-47.4	10.9	1.61e-03	0	61	0	519045120	57	5999
2026-01-24 10:22:56.52	197.96	49.19	-42.8	-47.2	11.1	2.22e-03	0	61	0	526385152	57	5916
2026-01-24 10:23:00.56	199.35	50.34	-41.6	-45.0	13.3	2.13e-05	0	61	0	533725184	55	5103
2026-01-24 10:23:04.59	200.84	51.49	-40.7	-43.4	14.9	0.00e+00	0	61	0	542113792	52	5088
2026-01-24 10:23:08.63	202.46	52.65	-40.0	-42.4	16.0	0.00e+00	0	61	0	549453824	51	4761
2026-01-24 10:23:12.67	204.21	53.82	-39.7	-41.9	16.5	0.00e+00	0	61	0	556793856	50	4793
2026-01-24 10:23:16.71	206.10	54.98	-40.2	-42.6	15.8	0.00e+00	0	61	0	564133888	51	4898
2026-01-24 10:23:20.75	208.16	56.13	-41.2	-44.3	14.0	4.50e-06	0	61	0	571473920	53	5317
2026-01-24 10:23:24.78	210.38	57.27	-41.8	-45.4	12.8	3.96e-05	0	61	0	579862528	54	5688
2026-01-24 10:23:28.82	212.81	58.39	-42.1	-46.0	12.2	2.08e-04	0	61	0	587202560	54	6084
2026-01-24 10:23:32.86	215.43	59.48	-42.0	-45.7	12.6	9.00e-05	0	61	0	594542592	54	5888
2026-01-24 10:23:36.89	218.28	60.52	-41.4	-44.6	13.7	3.80e-06	0	61	0	601882624	54	5171
2026-01-24 10:23:40.93	221.37	61.52	-41.2	-44.3	14.0	2.20e-06	0	61	0	610271232	54	5005
2026-01-24 10:23:44.97	224.70	62.45	-41.3	-44.4	13.9	1.50e-06	0	61	0	617611264	53	5345
2026-01-24 10:23:49.01	228.29	63.31	-41.2	-44.2	14.0	1.50e-06	0	61	0	624951296	53	5256
2026-01-24 10:23:53.04	232.13	64.08	-41.5	-44.8	13.5	1.06e-05	0	61	0	632291328	53	5594
2026-01-24 10:23:57.08	236.22	64.74	-41.9	-45.5	12.7	6.63e-05	0	61	0	639631360	54	5743
2026-01-24 10:24:01.12	240.53	65.29	-42.0	-45.8	12.4	9.76e-05	0	61	0	648019968	54	5970
2026-01-24 10:24:05.16	245.04	65.71	-42.3	-46.4	11.8	4.97e-04	0	61	0	655360000	55	6051
2026-01-24 10:24:09.19	249.68	66.00	-42.9	-47.6	10.7	1.95e-03	0	61	0	662700032	56	6523
2026-01-24 10:24:13.23	254.42	66.14	-42.1	-45.7	12.5	2.49e-04	0	61	0	670040064	56	5258
2026-01-24 10:24:17.27	259.18	66.13	-42.3	-46.3	11.9	6.71e-04	0	61	0	678428672	55	5946
2026-01-24 10:24:21.31	263.92	65.97	-41.9	-45.5	12.7	9.53e-05	0	61	0	685768704	54	5738
2026-01-24 10:24:25.35	268.55	65.67	-42.1	-46.0	12.0	4.80e-04	0	61	0	693108736	55	5751
2026-01-24 10:24:29.39	273.03	65.23	-41.8	-45.3	12.9	2.51e-05	0	61	0	700448768	54	5610
2026-01-24 10:24:33.42	277.30	64.67	-41.7	-45.1	13.1	1.90e-05	0	61	0	707788800	54	5502
2026-01-24 10:24:37.46	281.36	63.99	-40.9	-43.7	14.6	0.00e+00	0	61	0	716177408	53	4934
2026-01-24 10:24:41.50	285.17	63.22	-39.9	-42.2	16.1	0.00e+00	0	61	0	723517440	51	4671
2026-01-24 10:24:45.54	288.72	62.35	-39.2	-41.2	17.1	0.00e+00	0	61	0	730857472	50	4405
2026-01-24 10:24:49.58	292.02	61.41	-39.5	-41.7	16.6	0.00e+00	0	61	0	738197504	50	4690
2026-01-24 10:24:53.61	295.07	60.41	-40.9	-43.8	14.4	7.00e-07	0	61	0	746586112	52	5333
2026-01-24 10:24:57.65	297.89	59.36	-41.7	-45.1	13.1	2.21e-05	0	61	0	753926144	53	5819
2026-01-24 10:25:01.69	300.49	58.27	-41.5	-44.7	13.5	1.06e-05	0	61	0	761266176	54	5260
2026-01-24 10:25:05.73	302.88	57.16	-40.4	-43.0	15.3	0.00e+00	0	61	0	768606208	52	4820
2026-01-24 10:25:09.77	305.09	56.02	-39.5	-41.8	16.5	0.00e+00	0	61	0	775946240	51	4481
2026-01-24 10:25:13.81	307.12	54.87	-39.2	-41.3	17.0	0.00e+00	0	61	0	784334848	50	4463
2026-01-24 10:25:17.84	308.99	53.71	-39.8	-42.0	16.3	0.00e+00	0	61	0	791674880	50	4854
2026-01-24 10:25:21.88	310.72	52.55	-40.1	-42.5	15.8	0.00e+00	0	61	0	799014912	51	4841
2026-01-24 10:25:25.92	312.32	51.39	-41.5	-44.7	13.5	2.51e-05	0	61	0	806354944	53	5567
2026-01-24 10:25:29.96	313.80	50.24	-42.3	-46.2	12.0	2.94e-04	0	61	0	814743552	55	5869
2026-01-24 10:25:34.00	315.18	49.11	-43.1	-48.1	10.2	7.30e-03	0	61	0	822083584	57	6500
2026-01-24 10:25:38.04	316.46	47.98	-43.7	-49.8	8.3	6.13e-02	0	61	0	829423616	58	7534
2026-01-24 10:25:42.07	317.65	46.87	-43.5	-49.2	9.0	2.30e-02	0	62	0	836763648	58	7004
2026-01-24 10:25:46.11	318.76	45.78	-42.7	-46.9	11.3	9.27e-04	0	61	0	844103680	57	5713
2026-01-24 10:25:50.15	319.80	44.70	-42.0	-45.6	12.8	9.15e-05	0	61	0	852492288	56	5180
2026-01-24 10:25:54.19	320.77	43.65	-40.8	-43.6	14.6	1.50e-06	0	62	0	859832320	53	4909
2026-01-24 10:25:58.23	321.68	42.61	-42.2	-46.1	12.1	7.17e-05	0	61	0	867172352	54	6153
2026-01-24 10:26:02.26	322.54	41.60	-40.8	-43.6	14.6	0.00e+00	0	61	0	874512384	53	4897
2026-01-24 10:26:06.30	323.34	40.60	-41.9	-45.5	12.7	4.04e-05	0	61	0	882900992	54	5728
2026-01-24 10:26:10.34	324.10	39.63	-42.1	-46.0	12.0	4.72e-04	0	61	0	890241024	55	5777
2026-01-24 10:26:14.38	324.82	38.68	-40.6	-43.3	14.9	7.00e-07	0	61	0	897581056	53	4721
2026-01-24 10:26:18.41	325.49	37.76	-42.2	-46.3	11.8	5.32e-04	0	61	0	904921088	55	5955
2026-01-24 10:26:22.45	326.14	36.85	-41.2	-44.3	13.9	6.80e-06	0	61	0	912261120	54	5001
2026-01-24 10:26:26.49	326.74	35.96	-41.6	-45.1	13.1	1.52e-05	0	61	0	920649728	53	5790
2026-01-24 10:26:30.52	327.32	35.10	-42.1	-46.1	11.9	4.45e-04	0	61	0	927989760	55	5840
2026-01-24 10:26:34.56	327.87	34.25	-41.6	-45.0	13.1	6.94e-05	0	61	0	935329792	55	5136
2026-01-24 10:26:38.60	328.39	33.43	-41.7	-45.2	12.9	5.03e-05	0	62	0	942669824	54	5557
2026-01-24 10:26:42.64	328.89	32.62	-42.3	-46.4	11.6	5.77e-04	0	62	0	951058432	55	6010
2026-01-24 10:26:46.68	329.36	31.83	-42.4	-46.7	11.2	1.06e-03	0	62	0	958398464	55	6273
2026-01-24 10:26:50.72	329.81	31.06	-43.0	-48.0	10.1	6.20e-03	0	61	0	965738496	56	6858
2026-01-24 10:26:54.76	330.24	30.31	-42.8	-47.5	10.6	3.04e-03	0	62	0	973078528	56	6423
2026-01-24 10:26:58.80	330.66	29.58	-42.3	-46.3	11.9	4.62e-04	0	62	0	980418560	56	5597
2026-01-24 10:27:02.84	331.05	28.87	-42.4	-46.4	11.6	6.36e-04	0	62	0	988807168	56	5718
2026-01-24 10:27:06.88	331.43	28.17	-42.4	-46.7	11.4	9.35e-04	0	61	0	996147200	56	5882
2026-01-24 10:27:10.92	331.80	27.48	-42.4	-46.5	11.5	8.78e-04	0	61	0	1003487232	56	5783
2026-01-24 10:27:14.96	332.15	26.82	-42.0	-45.7	12.3	2.18e-04	0	61	0	1010827264	56	5278
2026-01-24 10:27:18.99	332.48	26.17	-41.4	-44.9	13.1	3.89e-05	0	61	0	1018167296	54	5351
2026-01-24 10:27:23.03	332.81	25.53	-41.5	-45.0	12.9	3.81e-05	0	62	0	1026555904	54	5406
2026-01-24 10:27:27.06	333.12	24.91	-41.8	-45.5	12.3	1.89e-04	0	61	0	1033895936	54	5778
2026-01-24 10:27:31.11	333.42	24.30	-41.8	-45.7	12.2	1.96e-04	0	61	0	1041235968	54	5869
2026-01-24 10:27:35.15	333.71	23.70	-41.3	-44.7	13.1	4.65e-05	0	62	0	1048576000	54	5249
2026-01-24 10:27:39.19	333.99	23.12	-40.8	-43.8	14.0	3.00e-06	0	61	0	1056964608	53	5032
2026-01-24 10:27:43.22	334.26	22.55	-40.6	-43.6	14.2	2.20e-06	0	61	0	1064304640	53	4884
2026-01-24 10:27:47.26	334.52	21.99	-40.7	-43.7	14.1	2.20e-06	0	61	0	1071644672	53	4938
2026-01-24 10:27:51.30	334.77	21.44	-40.9	-44.1	13.6	3.80e-06	0	61	0	1078984704	53	5211
2026-01-24 10:27:55.34	335.02	20.90	-41.1	-44.6	13.0	2.59e-05	0	62	0	1086324736	53	5499
2026-01-24 10:27:59.37	335.26	20.38	-41.0	-44.5	13.1	2.44e-05	0	61	0	1094713344	53	5405
2026-01-24 10:28:03.41	335.48	19.86	-40.8	-44.1	13.4	9.10e-06	0	61	0	1102053376	53	5186
2026-01-24 10:28:07.45	335.71	19.36	-40.7	-44.0	13.4	2.13e-05	0	61	0	1109393408	53	5134
2026-01-24 10:28:11.49	335.92	18.86	-40.5	-43.7	13.7	8.30e-06	0	61	0	1116733440	53	4932
2026-01-24 10:28:15.53	336.13	18.38	-40.6	-43.9	13.4	1.14e-05	0	62	0	1125122048	53	5063
2026-01-24 10:28:19.57	336.34	17.90	-40.8	-44.2	13.0	4.27e-05	0	62	0	1132462080	53	5251
2026-01-24 10:28:23.61	336.53	17.43	-40.7	-44.2	13.0	3.81e-05	0	62	0	1139802112	53	5236
2026-01-24 10:28:27.64	336.73	16.97	-41.0	-44.7	12.3	1.62e-04	0	61	0	1147142144	53	5590
2026-01-24 10:28:31.68	336.91	16.52	-41.1	-45.1	11.9	4.03e-04	0	61	0	1154482176	53	5798
2026-01-24 10:28:35.72	337.10	16.08	-40.9	-44.7	12.3	2.18e-04	0	62	0	1162870784	53	5562
2026-01-24 10:28:39.76	337.27	15.64	-40.8	-44.7	12.1	2.33e-04	0	61	0	1170210816	53	5560
2026-01-24 10:28:43.79	337.45	15.22	-41.0	-45.3	11.2	1.08e-03	0	61	0	1177550848	53	5975
2026-01-24 10:28:47.83	337.61	14.80	-41.1	-45.5	10.8	2.78e-03	0	61	0	1184890880	53	6125
2026-01-24 10:28:51.87	337.78	14.38	-40.8	-45.2	11.1	1.87e-03	0	61	0	1193279488	53	5877
2026-01-24 10:28:55.90	337.94	13.98	-40.7	-44.8	11.4	8.69e-04	0	61	0	1200619520	53	5647
2026-01-24 10:28:59.94	338.10	13.58	-40.6	-44.8	11.3	1.10e-03	0	62	0	1207959552	53	5613
2026-01-24 10:29:03.98	338.25	13.18	-40.6	-45.0	11.0	1.61e-03	0	62	0	1215299584	53	5767
2026-01-24 10:29:08.02	338.40	12.79	-40.6	-45.3	10.5	3.61e-03	0	62	0	1222639616	53	5928
2026-01-24 10:29:12.06	338.54	12.41	-40.6	-45.6	9.9	7.22e-03	0	62	0	1231028224	53	6191
2026-01-24 10:29:16.09	338.69	12.04	-40.8	-46.4	9.0	2.37e-02	0	62	0	1238368256	53	6733
2026-01-24 10:29:20.13	338.83	11.67	-40.9	-47.1	8.1	5.08e-02	0	62	0	1245708288	53	7351
2026-01-24 10:29:24.17	338.96	11.30	-41.1	-47.9	7.2	1.31e-01	0	62	0	1253048320	53	8075
2026-01-24 10:29:28.21	339.10	10.94	-41.8	-51.8	4.5	1.20e+00	10	62	0	1260388352	54	11868
2026-01-24 10:29:32.25	339.23	10.59	-41.1	-50.1	5.3	6.73e-01	0	62	0	1263534080	53	10294
2026-01-24 10:29:36.29	339.35	10.24	-41.1	-50.9	4.7	8.58e-01	0	62	0	1270874112	53	11416
2026-01-24 10:29:40.32	339.48	9.89	-41.0	-54.8	3.8	1.49e+00	0	62	104	1275068416	53	17827
2026-01-24 10:29:44.36	339.60	9.55	-41.0	-52.8	4.0	1.46e+00	0	62	0	1275068416	53	14200
2026-01-24 10:29:48.40	339.72	9.22	-41.0	-55.0	3.8	1.49e+00	0	61	104	1275068416	53	18134
2026-01-24 10:29:52.44	339.84	8.89	-40.8	-54.1	3.8	1.49e+00	0	62	104	1275068416	53	16326
2026-01-24 10:29:56.47	339.96	8.56	-40.6	-55.1	3.8	1.49e+00	0	62	104	1275068416	52	19411
2026-01-24 10:30:00.51	340.07	8.24	-41.0	-54.6	3.8	1.49e+00	0	62	104	1275068416	53	17459
2026-01-24 10:30:04.56	340.18	7.92	-43.8	-58.2	3.8	1.49e+00	0	62	104	1275068416	58	19650
2026-01-24 10:30:08.60	340.29	7.60	-45.0	-59.6	3.8	1.49e+00	0	62	104	1275068416	60	20701
2026-01-24 10:30:12.64	340.40	7.29	-45.2	-59.8	3.8	1.49e+00	0	62	104	1275068416	61	20061
2026-01-24 10:30:16.68	340.51	6.98	-45.2	-59.8	3.8	1.49e+00	0	62	104	1275068416	60	21125
2026-01-24 10:30:20.72	340.61	6.68	-45.1	-59.7	3.8	1.49e+00	0	62	104	1275068416	60	20795
2026-01-24 10:30:24.76	340.71	6.38	-45.1	-59.6	3.8	1.49e+00	0	62	104	1275068416	60	20773
2026-01-24 10:30:28.81	340.81	6.08	-45.1	-59.7	3.8	1.49e+00	0	62	104	1275068416	60	20846
2026-01-24 10:30:32.85	340.91	5.79	-45.1	-59.6	3.8	1.49e+00	0	62	104	1275068416	60	20706
2026-01-24 10:30:36.89	341.01	5.50	-45.1	-59.6	3.8	1.49e+00	0	62	104	1275068416	60	20700
2026-01-24 10:30:40.93	341.11	5.21	-45.0	-59.6	3.8	1.49e+00	0	62	104	1275068416	60	20729
2026-01-24 10:30:44.98	341.20	4.92	-45.1	-59.6	3.8	1.49e+00	0	62	104	1275068416	60	20726
2026-01-24 10:30:49.02	341.29	4.64	-45.0	-59.6	3.8	1.49e+00	0	62	104	1275068416	60	20737
2026-01-24 10:30:53.06	341.38	4.36	-45.0	-59.6	3.8	1.49e+00	0	62	104	1275068416	60	20681
2026-01-24 10:30:57.10	341.47	4.09	-45.0	-59.6	3.8	1.49e+00	0	62	104	1275068416	60	20600
2026-01-24 10:31:01.12	341.56	3.82	-45.0	-59.6	3.8	1.49e+00	0	62	104	1275068416	60	20631
2026-01-24 10:31:05.16	341.65	3.55	-44.8	-59.5	3.8	1.49e+00	0	62	104	1275068416	60	20535
2026-01-24 10:31:09.21	341.74	3.28	-44.6	-59.6	3.8	1.49e+00	0	62	104	1275068416	60	20623
2026-01-24 10:31:13.25	341.82	3.01	-45.0	-59.5	3.8	1.49e+00	0	62	104	1275068416	60	20522
2026-01-24 10:31:17.29	341.91	2.75	-45.0	-59.6	3.8	1.49e+00	0	62	104	1275068416	60	20569
2026-01-24 10:31:21.33	341.99	2.49	-45.0	-59.5	3.8	1.49e+00	0	62	104	1275068416	60	20527
2026-01-24 10:31:25.37	342.07	2.23	-44.9	-59.5	3.8	1.49e+00	0	62	104	1275068416	60	20537

#Closed at: 2026-01-24 10:31:29
#Recorded file [1275 MB]: D:/lorett/data/31039_260124_131704.dat