passes_logs/2026/01/24/R2.0S_Moscow/R2.0S_Moscow__20260124_234705_SUOMI_NPP_rec.log

#Pass ID: 20260124_234705_SUOMI NPP
#Satellite: SUOMI NPP
#Configuration: NPP
#almurnet v.1.7.20251203
#Start time: 2026-01-24 23:47:07

#Version: 2.2.20231116
#Station: R2.0S_Moscow
#Location: 37.707566 lon 55.798166 lat
#TLE: 1 37849U 11061A   26024.54906732  .00000185  00000+0  10878-3 0  9990
#TLE: 2 37849  98.7821 326.5159 0002200  47.3746 312.7615 14.19529340738061

#Time	Az	El	Level	Level2	SNR	BER	BlckErr	Temp	State	Recorded	gain1	gain2
2026-01-24 23:47:07.69	16.06	2.14	-42.4	-57.1	3.8	1.49e+00	0	52	0	0	56	19395
2026-01-24 23:47:11.73	16.07	2.40	-42.4	-57.0	3.8	1.49e+00	0	53	104	0	56	19371
2026-01-24 23:47:15.77	16.08	2.67	-42.4	-57.0	3.8	1.49e+00	0	53	104	0	56	19367
2026-01-24 23:47:19.81	16.09	2.93	-42.4	-57.0	3.8	1.49e+00	0	53	104	0	56	19347
2026-01-24 23:47:23.85	16.10	3.20	-42.4	-57.0	3.8	1.49e+00	0	53	104	0	56	19328
2026-01-24 23:47:27.89	16.10	3.47	-42.4	-57.0	3.8	1.49e+00	0	54	104	0	56	19321
2026-01-24 23:47:31.93	16.11	3.74	-42.4	-57.0	3.8	1.49e+00	0	54	104	0	56	19302
2026-01-24 23:47:35.97	16.12	4.02	-42.4	-57.0	3.8	1.49e+00	0	54	104	0	56	19316
2026-01-24 23:47:40.02	16.13	4.30	-42.4	-57.0	3.8	1.49e+00	0	55	104	0	56	19375
2026-01-24 23:47:44.06	16.14	4.58	-42.4	-57.0	3.8	1.49e+00	0	55	104	0	56	19325
2026-01-24 23:47:48.10	16.15	4.86	-42.4	-57.0	3.8	1.49e+00	0	55	104	0	56	19311
2026-01-24 23:47:52.14	16.16	5.15	-42.4	-57.0	3.8	1.49e+00	0	55	104	0	56	19224
2026-01-24 23:47:56.18	16.16	5.44	-42.4	-57.0	3.8	1.49e+00	0	56	104	0	56	19269
2026-01-24 23:48:00.23	16.17	5.73	-42.4	-57.0	3.8	1.49e+00	0	55	104	0	56	19197
2026-01-24 23:48:04.27	16.18	6.03	-42.4	-57.0	3.8	1.49e+00	0	56	104	0	56	19301
2026-01-24 23:48:08.31	16.19	6.33	-42.4	-56.9	3.8	1.49e+00	0	56	104	0	56	19031
2026-01-24 23:48:12.35	16.19	6.64	-42.4	-56.7	3.8	1.49e+00	0	56	104	0	56	18666
2026-01-24 23:48:16.39	16.20	6.94	-42.3	-56.0	3.8	1.49e+00	0	56	104	0	56	17226
2026-01-24 23:48:20.43	16.21	7.26	-42.1	-53.4	4.2	1.40e+00	0	56	0	0	56	12735
2026-01-24 23:48:24.47	16.21	7.57	-41.4	-49.2	6.4	2.91e-01	0	57	0	6291456	54	8769
2026-01-24 23:48:28.51	16.22	7.89	-41.2	-48.2	7.3	1.03e-01	0	57	0	13631488	54	7831
2026-01-24 23:48:32.55	16.22	8.21	-41.9	-50.5	4.6	1.48e+00	0	57	104	19922944	55	9624
2026-01-24 23:48:36.59	16.23	8.54	-42.1	-50.2	6.1	2.98e-01	0	57	0	24117248	55	9296
2026-01-24 23:48:40.63	16.24	8.87	-42.1	-49.2	7.0	2.01e-01	0	57	0	31457280	55	8367
2026-01-24 23:48:44.67	16.24	9.21	-42.5	-49.1	7.7	1.35e+00	0	58	0	37748736	56	7746
2026-01-24 23:48:48.71	16.24	9.55	-42.2	-48.0	8.7	3.36e-02	0	57	0	42991616	56	6879
2026-01-24 23:48:52.74	16.25	9.89	-42.2	-48.0	8.9	2.38e-02	0	58	0	50331648	56	6821
2026-01-24 23:48:56.78	16.25	10.25	-42.2	-47.8	9.1	2.16e-02	0	57	0	57671680	56	6689
2026-01-24 23:49:00.82	16.26	10.60	-42.2	-47.8	9.1	2.06e-02	0	58	0	66060288	56	6694
2026-01-24 23:49:04.86	16.26	10.96	-42.1	-47.4	9.7	1.08e-02	0	58	0	73400320	56	6358
2026-01-24 23:49:08.90	16.26	11.33	-42.2	-47.5	9.7	9.25e-03	0	58	0	80740352	56	6425
2026-01-24 23:49:12.93	16.27	11.70	-42.1	-47.1	10.2	6.18e-03	0	58	0	88080384	56	6157
2026-01-24 23:49:16.97	16.27	12.08	-42.0	-46.9	10.4	4.85e-03	0	58	0	95420416	56	6030
2026-01-24 23:49:21.01	16.27	12.46	-41.9	-46.7	10.4	4.10e-03	0	58	0	103809024	55	6261
2026-01-24 23:49:25.05	16.27	12.85	-41.8	-46.4	10.8	2.83e-03	0	58	0	111149056	55	6019
2026-01-24 23:49:29.09	16.27	13.25	-41.8	-46.4	10.8	2.25e-03	0	58	0	118489088	55	6058
2026-01-24 23:49:33.13	16.27	13.65	-41.7	-46.0	11.3	1.33e-03	0	59	0	125829120	55	5782
2026-01-24 23:49:37.17	16.28	14.06	-41.7	-46.0	11.3	1.20e-03	0	59	0	134217728	55	5786
2026-01-24 23:49:41.21	16.27	14.48	-41.5	-45.6	11.8	4.73e-04	0	59	0	141557760	55	5515
2026-01-24 23:49:45.24	16.27	14.90	-41.5	-45.5	12.0	3.36e-04	0	59	0	148897792	54	5740
2026-01-24 23:49:49.28	16.27	15.33	-41.4	-45.3	12.2	2.84e-04	0	59	0	156237824	54	5611
2026-01-24 23:49:53.32	16.27	15.77	-41.6	-45.6	12.0	2.35e-04	0	59	0	163577856	54	5796
2026-01-24 23:49:57.36	16.27	16.22	-41.5	-45.5	12.1	3.58e-04	0	59	0	171966464	54	5758
2026-01-24 23:50:01.39	16.27	16.67	-41.6	-45.6	12.1	3.08e-04	0	59	0	179306496	54	5808
2026-01-24 23:50:05.44	16.26	17.14	-41.5	-45.3	12.5	1.71e-04	0	59	0	186646528	54	5601
2026-01-24 23:50:09.48	16.26	17.61	-41.4	-45.2	12.5	1.15e-04	0	59	0	193986560	54	5545
2026-01-24 23:50:13.52	16.26	18.09	-41.4	-45.1	12.6	8.62e-05	0	59	0	202375168	54	5517
2026-01-24 23:50:17.55	16.25	18.58	-41.5	-45.3	12.5	1.20e-04	0	59	0	209715200	54	5633
2026-01-24 23:50:21.60	16.24	19.09	-41.6	-45.4	12.4	1.37e-04	0	60	0	217055232	54	5706
2026-01-24 23:50:25.63	16.24	19.60	-41.7	-45.6	12.2	1.49e-04	0	60	0	224395264	54	5811
2026-01-24 23:50:29.67	16.23	20.12	-41.6	-45.3	12.6	1.09e-04	0	60	0	231735296	54	5629
2026-01-24 23:50:33.71	16.22	20.66	-41.5	-45.2	12.7	8.31e-05	0	59	0	240123904	54	5572
2026-01-24 23:50:37.75	16.21	21.20	-41.7	-45.4	12.5	1.03e-04	0	60	0	247463936	54	5707
2026-01-24 23:50:41.79	16.20	21.76	-41.7	-45.6	12.3	1.55e-04	0	60	0	254803968	54	5808
2026-01-24 23:50:45.83	16.19	22.33	-41.8	-45.6	12.4	1.39e-04	0	60	0	262144000	54	5789
2026-01-24 23:50:49.86	16.18	22.92	-41.7	-45.4	12.5	1.23e-04	0	60	0	270532608	54	5684
2026-01-24 23:50:53.90	16.17	23.52	-41.7	-45.4	12.6	8.31e-05	0	60	0	277872640	54	5692
2026-01-24 23:50:57.94	16.15	24.13	-41.8	-45.6	12.3	1.23e-04	0	60	0	285212672	54	5843
2026-01-24 23:51:01.97	16.14	24.75	-41.8	-45.5	12.5	9.46e-05	0	60	0	292552704	54	5723
2026-01-24 23:51:06.02	16.12	25.40	-41.6	-45.2	12.8	6.79e-05	0	60	0	299892736	54	5563
2026-01-24 23:51:10.05	16.10	26.05	-41.7	-45.3	12.7	6.10e-05	0	60	0	308281344	54	5611
2026-01-24 23:51:14.09	16.08	26.73	-42.0	-45.9	12.3	1.60e-04	0	60	0	315621376	54	6031
2026-01-24 23:51:18.13	16.06	27.42	-41.9	-45.6	12.4	1.61e-04	0	60	0	322961408	54	5847
2026-01-24 23:51:22.17	16.04	28.13	-42.0	-46.0	12.1	2.75e-04	0	60	0	330301440	54	6071
2026-01-24 23:51:26.21	16.01	28.86	-42.5	-47.0	11.0	1.95e-03	0	60	0	338690048	55	6464
2026-01-24 23:51:30.25	15.99	29.61	-42.9	-47.7	10.6	2.72e-03	0	60	0	346030080	56	6580
2026-01-24 23:51:34.28	15.96	30.38	-42.8	-47.4	10.8	3.11e-03	0	60	0	353370112	56	6365
2026-01-24 23:51:38.32	15.93	31.17	-42.8	-47.5	10.6	3.81e-03	0	60	0	360710144	56	6488
2026-01-24 23:51:42.36	15.90	31.98	-42.7	-47.2	11.1	1.98e-03	0	60	0	368050176	56	6251
2026-01-24 23:51:46.40	15.86	32.82	-42.7	-47.3	10.9	1.44e-03	0	60	0	376438784	56	6295
2026-01-24 23:51:50.44	15.82	33.68	-42.9	-47.5	10.7	2.34e-03	0	60	0	383778816	56	6494
2026-01-24 23:51:54.48	15.78	34.56	-42.4	-46.5	11.7	6.10e-04	0	60	0	391118848	56	5739
2026-01-24 23:51:58.51	15.74	35.47	-41.7	-45.3	12.9	7.01e-05	0	61	0	398458880	55	5293
2026-01-24 23:52:02.55	15.69	36.40	-41.3	-44.4	13.7	9.10e-06	0	61	0	406847488	54	5091
2026-01-24 23:52:06.59	15.64	37.37	-41.1	-44.1	14.1	1.50e-06	0	61	0	414187520	54	4924
2026-01-24 23:52:10.63	15.58	38.36	-41.0	-44.0	14.2	2.20e-06	0	61	0	421527552	54	4858
2026-01-24 23:52:14.66	15.52	39.38	-40.8	-43.6	14.5	0.00e+00	0	61	0	428867584	53	4916
2026-01-24 23:52:18.70	15.46	40.44	-41.0	-44.1	14.2	2.20e-06	0	61	0	436207616	53	5162
2026-01-24 23:52:22.74	15.39	41.52	-41.1	-44.2	14.0	2.20e-06	0	61	0	444596224	53	5250
2026-01-24 23:52:26.78	15.31	42.65	-41.5	-44.9	13.3	3.00e-06	0	61	0	451936256	53	5684
2026-01-24 23:52:30.82	15.23	43.80	-41.7	-45.2	13.0	2.97e-05	0	61	0	459276288	54	5553
2026-01-24 23:52:34.86	15.14	44.99	-42.1	-46.0	12.3	1.46e-04	0	61	0	466616320	54	6077
2026-01-24 23:52:38.89	15.04	46.22	-42.9	-47.5	10.8	4.58e-03	0	61	0	475004928	56	6462
2026-01-24 23:52:42.93	14.93	47.48	-42.9	-47.4	11.2	1.62e-03	0	61	0	482344960	56	6368
2026-01-24 23:52:46.97	14.81	48.79	-43.0	-47.8	10.5	5.51e-03	0	61	0	489684992	57	6290
2026-01-24 23:52:51.00	14.68	50.13	-42.7	-47.0	11.3	1.14e-03	0	61	0	497025024	57	5769
2026-01-24 23:52:55.04	14.54	51.51	-41.1	-44.1	14.2	1.50e-06	0	61	0	504365056	54	4888
2026-01-24 23:52:59.08	14.38	52.94	-41.8	-45.4	12.8	2.44e-05	0	61	0	512753664	54	5708
2026-01-24 23:53:03.12	14.20	54.41	-40.4	-43.0	15.3	0.00e+00	0	61	0	520093696	52	4842
2026-01-24 23:53:07.16	14.00	55.92	-41.5	-44.7	13.6	9.10e-06	0	61	0	527433728	53	5551
2026-01-24 23:53:11.20	13.78	57.47	-41.7	-45.2	13.2	1.29e-05	0	61	0	534773760	54	5539
2026-01-24 23:53:15.23	13.52	59.06	-42.4	-46.6	11.6	5.59e-04	0	61	0	543162368	55	6198
2026-01-24 23:53:19.27	13.23	60.70	-42.2	-46.1	12.2	1.89e-04	0	61	0	550502400	55	5819
2026-01-24 23:53:23.31	12.90	62.38	-41.1	-44.1	14.2	7.00e-07	0	61	0	557842432	54	4902
2026-01-24 23:53:27.35	12.52	64.10	-40.2	-42.7	15.6	0.00e+00	0	61	0	565182464	52	4654
2026-01-24 23:53:31.39	12.07	65.86	-41.2	-44.2	14.1	4.50e-06	0	61	0	572522496	53	5226
2026-01-24 23:53:35.43	11.54	67.67	-42.4	-46.5	11.7	3.68e-04	0	61	0	580911104	55	6127
2026-01-24 23:53:39.47	10.90	69.50	-43.8	-50.0	8.2	3.65e-02	0	61	0	588251136	58	7671
2026-01-24 23:53:43.51	10.12	71.37	-43.3	-48.3	9.7	1.57e-02	0	61	0	595591168	58	6313
2026-01-24 23:53:47.54	9.16	73.27	-43.1	-48.0	10.2	1.17e-02	0	61	0	602931200	58	6078
2026-01-24 23:53:51.58	7.93	75.20	-43.2	-48.2	10.3	4.73e-03	0	61	0	611319808	57	6575
2026-01-24 23:53:55.62	6.30	77.14	-43.9	-50.5	7.7	1.39e-01	0	61	0	618659840	58	8125
2026-01-24 23:53:59.66	4.06	79.10	-43.9	-50.3	7.8	1.00e-01	0	61	0	625999872	58	7970
2026-01-24 23:54:03.69	0.83	81.05	-43.3	-48.5	9.7	7.83e-03	0	61	0	633339904	58	6467
2026-01-24 23:54:07.73	355.75	82.98	-41.5	-44.9	13.2	2.05e-05	0	61	0	640679936	54	5358
2026-01-24 23:54:11.77	346.90	84.83	-41.1	-44.0	14.1	0.00e+00	0	61	0	649068544	53	5153
2026-01-24 23:54:15.80	329.28	86.42	-43.3	-48.5	9.8	2.13e-03	0	61	0	656408576	57	6835
2026-01-24 23:54:19.84	293.86	87.29	-43.7	-49.9	8.1	2.48e-01	0	61	0	663748608	59	7190
2026-01-24 23:54:23.88	254.35	86.74	-42.8	-47.1	11.0	3.86e-03	0	61	0	671088640	57	5846
2026-01-24 23:54:27.92	233.04	85.26	-40.5	-43.1	14.9	1.50e-06	0	61	0	679477248	53	4641
2026-01-24 23:54:31.96	222.66	83.45	-41.5	-44.9	13.2	1.06e-05	0	61	0	686817280	53	5709
2026-01-24 23:54:36.00	216.90	81.53	-42.0	-45.8	12.2	3.43e-05	0	61	0	694157312	54	5973
2026-01-24 23:54:40.04	213.30	79.58	-42.7	-47.2	11.0	2.60e-03	0	61	0	701497344	56	6219
2026-01-24 23:54:44.08	210.87	77.62	-41.9	-45.5	12.4	1.65e-04	0	61	0	708837376	55	5453
2026-01-24 23:54:48.12	209.12	75.66	-41.6	-44.8	13.3	6.79e-05	0	61	0	717225984	55	5033
2026-01-24 23:54:52.15	207.80	73.73	-41.2	-44.2	13.9	1.83e-05	0	61	0	724566016	54	4950
2026-01-24 23:54:56.19	206.78	71.82	-42.9	-47.5	10.7	2.04e-03	0	61	0	731906048	56	6451
2026-01-24 23:55:00.23	205.96	69.94	-43.7	-49.7	8.4	3.66e-02	0	61	0	739246080	58	7452
2026-01-24 23:55:04.27	205.29	68.09	-43.9	-50.2	7.8	3.73e-02	0	61	0	747634688	58	7896
2026-01-24 23:55:08.30	204.74	66.28	-42.5	-46.4	11.7	2.92e-03	0	61	0	754974720	56	5721
2026-01-24 23:55:12.34	204.27	64.50	-42.4	-46.3	12.0	2.73e-04	0	61	0	762314752	56	5631
2026-01-24 23:55:16.38	203.87	62.77	-41.8	-45.3	12.7	9.68e-05	0	61	0	769654784	55	5328
2026-01-24 23:55:20.42	203.52	61.07	-40.6	-43.3	14.8	0.00e+00	0	61	0	776994816	52	4999
2026-01-24 23:55:24.46	203.22	59.42	-40.4	-43.0	15.2	7.00e-07	0	61	0	785383424	52	4845
2026-01-24 23:55:28.50	202.96	57.81	-42.5	-46.7	11.5	7.02e-04	0	61	0	792723456	55	6223
2026-01-24 23:55:32.54	202.73	56.24	-41.6	-44.9	13.2	3.89e-05	0	61	0	800063488	55	5091
2026-01-24 23:55:36.58	202.52	54.71	-41.2	-44.3	13.9	1.06e-05	0	61	0	807403520	54	5003
2026-01-24 23:55:40.61	202.34	53.24	-41.6	-44.9	13.3	1.42e-04	0	62	0	815792128	54	5360
2026-01-24 23:55:44.65	202.17	51.79	-42.9	-47.5	10.9	1.91e-03	0	61	0	823132160	56	6424
2026-01-24 23:55:48.69	202.03	50.40	-43.5	-49.1	9.1	2.32e-02	0	61	0	830472192	57	7321
2026-01-24 23:55:52.73	201.89	49.04	-43.2	-48.4	9.8	7.32e-03	0	61	0	837812224	57	6758
2026-01-24 23:55:56.76	201.77	47.72	-43.1	-48.1	10.1	2.45e-02	0	61	0	845152256	58	6138
2026-01-24 23:56:00.80	201.66	46.44	-41.3	-44.4	13.8	1.50e-06	0	61	0	853540864	54	5086
2026-01-24 23:56:04.84	201.55	45.20	-43.0	-47.8	10.7	1.28e-03	0	61	0	860880896	56	6694
2026-01-24 23:56:08.88	201.46	44.00	-42.9	-47.6	10.6	4.01e-03	0	61	0	868220928	57	6179
2026-01-24 23:56:12.92	201.37	42.83	-41.5	-44.8	13.3	5.18e-05	0	61	0	875560960	55	5000
2026-01-24 23:56:16.97	201.29	41.70	-43.1	-48.0	10.1	5.32e-03	0	61	0	883949568	56	6877
2026-01-24 23:56:21.00	201.22	40.60	-42.5	-46.7	11.6	8.44e-04	0	61	0	891289600	56	5859
2026-01-24 23:56:25.04	201.15	39.54	-43.0	-47.7	10.5	4.15e-03	0	61	0	898629632	56	6637
2026-01-24 23:56:29.08	201.09	38.50	-43.3	-48.5	9.5	3.32e-03	0	61	0	905969664	57	6877
2026-01-24 23:56:33.11	201.03	37.50	-43.3	-48.8	9.3	2.78e-02	0	61	0	913309696	57	7065
2026-01-24 23:56:37.15	200.98	36.52	-43.2	-48.5	9.6	1.29e-02	0	62	0	921698304	57	6871
2026-01-24 23:56:41.19	200.93	35.58	-42.4	-46.4	11.7	1.71e-03	0	61	0	929038336	56	5713
2026-01-24 23:56:45.23	200.88	34.66	-42.4	-46.6	11.4	5.56e-04	0	61	0	936378368	55	6187
2026-01-24 23:56:49.27	200.84	33.77	-44.2	-52.4	5.9	2.21e-01	0	62	0	943718400	59	9579
2026-01-24 23:56:53.31	200.80	32.90	-43.5	-49.3	8.7	3.62e-02	0	61	0	952107008	58	7119
2026-01-24 23:56:57.34	200.76	32.06	-42.2	-46.1	12.1	3.02e-04	0	62	0	959447040	56	5479
2026-01-24 23:57:01.39	200.72	31.24	-42.4	-46.6	11.6	4.93e-04	0	61	0	966787072	56	5807
2026-01-24 23:57:05.42	200.69	30.44	-42.4	-46.5	11.6	8.06e-04	0	61	0	974127104	56	5755
2026-01-24 23:57:09.46	200.66	29.66	-42.8	-47.5	10.7	1.95e-03	0	62	0	981467136	56	6427
2026-01-24 23:57:13.50	200.63	28.91	-43.3	-48.7	9.2	2.31e-02	0	61	0	989855744	57	7014
2026-01-24 23:57:17.54	200.60	28.17	-42.8	-47.5	10.5	5.45e-03	0	61	0	997195776	57	6121
2026-01-24 23:57:21.58	200.58	27.45	-41.6	-45.2	12.8	1.01e-04	0	61	0	1004535808	55	5233
2026-01-24 23:57:25.62	200.55	26.76	-41.1	-44.3	13.7	5.30e-06	0	61	0	1011875840	54	5017
2026-01-24 23:57:29.66	200.53	26.07	-41.4	-44.7	13.3	1.83e-05	0	62	0	1019215872	54	5254
2026-01-24 23:57:33.69	200.51	25.41	-42.3	-46.6	11.3	7.45e-04	0	61	0	1027604480	55	6137
2026-01-24 23:57:37.73	200.49	24.76	-42.3	-46.6	11.3	1.13e-03	0	61	0	1034944512	55	6183
2026-01-24 23:57:41.77	200.47	24.13	-41.3	-44.7	13.3	2.36e-05	0	62	0	1042284544	54	5236
2026-01-24 23:57:45.81	200.46	23.51	-41.0	-44.1	13.9	5.30e-06	0	61	0	1049624576	54	4895
2026-01-24 23:57:49.85	200.44	22.91	-41.5	-45.1	12.8	3.81e-05	0	62	0	1058013184	54	5494
2026-01-24 23:57:53.89	200.43	22.32	-41.7	-45.3	12.6	7.32e-05	0	62	0	1065353216	54	5652
2026-01-24 23:57:57.92	200.41	21.75	-41.5	-45.0	12.9	5.56e-05	0	61	0	1072693248	54	5462
2026-01-24 23:58:01.96	200.40	21.18	-41.7	-45.4	12.5	9.46e-05	0	61	0	1080033280	54	5701
2026-01-24 23:58:06.00	200.39	20.63	-41.9	-45.8	12.1	1.85e-04	0	61	0	1087373312	54	5924
2026-01-24 23:58:10.04	200.38	20.09	-41.8	-45.7	12.2	1.91e-04	0	61	0	1095761920	54	5866
2026-01-24 23:58:14.08	200.37	19.57	-42.0	-46.0	11.8	4.24e-04	0	61	0	1103101952	54	6108
2026-01-24 23:58:18.11	200.36	19.05	-42.2	-46.6	11.2	1.26e-03	0	62	0	1110441984	55	6160
2026-01-24 23:58:22.15	200.35	18.54	-42.6	-47.6	10.0	7.61e-03	0	61	0	1117782016	55	6958
2026-01-24 23:58:26.19	200.34	18.05	-43.1	-48.7	9.1	1.88e-02	0	61	0	1126170624	56	7415
2026-01-24 23:58:30.23	200.33	17.56	-43.2	-49.2	8.6	4.47e-02	0	62	0	1133510656	57	7383
2026-01-24 23:58:34.27	200.32	17.09	-43.1	-48.8	9.0	2.35e-02	0	61	0	1140850688	57	7049
2026-01-24 23:58:38.30	200.32	16.62	-42.8	-47.9	9.9	9.29e-03	0	61	0	1148190720	57	6389
2026-01-24 23:58:42.34	200.31	16.16	-42.5	-47.3	10.6	3.88e-03	0	61	0	1155530752	57	5924
2026-01-24 23:58:46.38	200.30	15.71	-42.4	-46.9	11.0	2.09e-03	0	61	0	1163919360	56	6032
2026-01-24 23:58:50.42	200.30	15.27	-42.4	-47.0	10.8	2.72e-03	0	62	0	1171259392	56	6063
2026-01-24 23:58:54.46	200.30	14.83	-42.3	-46.8	10.9	1.72e-03	0	62	0	1178599424	56	5990
2026-01-24 23:58:58.50	200.29	14.41	-42.2	-46.6	11.2	1.82e-03	0	62	0	1185939456	56	5824
2026-01-24 23:59:02.53	200.29	13.99	-42.3	-46.9	10.8	2.02e-03	0	62	0	1194328064	56	5996
2026-01-24 23:59:06.57	200.28	13.58	-42.3	-46.8	10.8	2.52e-03	0	61	0	1201668096	56	5992
2026-01-24 23:59:10.61	200.28	13.17	-42.2	-46.7	10.9	2.06e-03	0	62	0	1209008128	56	5908
2026-01-24 23:59:14.65	200.28	12.77	-42.2	-46.6	11.0	2.08e-03	0	61	0	1216348160	56	5853
2026-01-24 23:59:18.68	200.28	12.38	-42.2	-46.8	10.9	2.19e-03	0	62	0	1223688192	56	5967
2026-01-24 23:59:22.73	200.27	11.99	-42.3	-46.9	10.6	3.19e-03	0	62	0	1232076800	56	6049
2026-01-24 23:59:26.76	200.27	11.62	-42.3	-47.0	10.5	3.58e-03	0	61	0	1239416832	56	6107
2026-01-24 23:59:30.79	200.27	11.24	-42.2	-46.9	10.6	3.54e-03	0	61	0	1246756864	56	6018
2026-01-24 23:59:34.83	200.27	10.87	-42.2	-46.9	10.6	2.37e-03	0	62	0	1254096896	56	6047
2026-01-24 23:59:38.87	200.27	10.51	-42.1	-46.7	10.8	3.19e-03	0	62	0	1262485504	56	5881
2026-01-24 23:59:42.91	200.27	10.15	-42.1	-46.7	10.8	2.25e-03	0	62	0	1269825536	56	5859
2026-01-24 23:59:46.95	200.27	9.80	-42.1	-46.8	10.6	3.73e-03	0	62	0	1277165568	56	5940
2026-01-24 23:59:50.99	200.27	9.45	-42.0	-46.7	10.7	3.41e-03	0	62	0	1284505600	56	5876
2026-01-24 23:59:55.03	200.27	9.11	-42.1	-46.9	10.4	4.21e-03	0	61	0	1291845632	56	6023
2026-01-24 23:59:59.07	200.27	8.77	-42.1	-47.1	10.1	5.51e-03	0	61	0	1300234240	56	6140
2026-01-25 00:00:03.11	200.27	8.44	-42.1	-47.1	9.9	6.82e-03	0	62	0	1307574272	56	6193
2026-01-25 00:00:07.15	200.27	8.11	-42.1	-47.3	9.6	1.07e-02	0	62	0	1314914304	56	6302
2026-01-25 00:00:11.19	200.27	7.78	-44.8	-59.5	3.8	1.49e+00	0	62	104	1318060032	60	20519
2026-01-25 00:00:15.23	200.28	7.46	-45.2	-59.9	3.8	1.49e+00	0	62	104	1318060032	60	21334
2026-01-25 00:00:19.27	200.28	7.15	-45.2	-59.9	3.8	1.49e+00	0	61	104	1318060032	61	20163
2026-01-25 00:00:23.32	200.28	6.83	-45.2	-59.8	3.8	1.49e+00	0	62	104	1318060032	61	19949
2026-01-25 00:00:27.36	200.28	6.52	-45.1	-59.7	3.8	1.49e+00	0	62	104	1318060032	61	19781
2026-01-25 00:00:31.40	200.28	6.22	-45.1	-59.7	3.8	1.49e+00	0	62	104	1318060032	61	19806
2026-01-25 00:00:35.44	200.29	5.92	-45.1	-59.7	3.8	1.49e+00	0	62	104	1318060032	61	19819
2026-01-25 00:00:39.48	200.29	5.62	-45.1	-59.7	3.8	1.49e+00	0	61	104	1318060032	61	19738
2026-01-25 00:00:43.52	200.29	5.32	-45.1	-59.7	3.8	1.49e+00	0	62	104	1318060032	61	19786
2026-01-25 00:00:47.57	200.29	5.03	-45.1	-59.7	3.8	1.49e+00	0	62	104	1318060032	61	19755
2026-01-25 00:00:51.61	200.30	4.74	-45.1	-59.7	3.8	1.49e+00	0	61	104	1318060032	61	19704
2026-01-25 00:00:55.65	200.30	4.45	-45.1	-59.7	3.8	1.49e+00	0	62	104	1318060032	61	19658
2026-01-25 00:00:59.69	200.30	4.17	-45.1	-59.7	3.8	1.49e+00	0	62	104	1318060032	61	19718
2026-01-25 00:01:03.73	200.31	3.89	-45.1	-59.7	3.8	1.49e+00	0	62	104	1318060032	61	19660
2026-01-25 00:01:07.77	200.31	3.62	-45.1	-59.7	3.8	1.49e+00	0	62	104	1318060032	61	19662
2026-01-25 00:01:11.81	200.31	3.34	-45.1	-59.7	3.8	1.49e+00	0	62	104	1318060032	61	19673
2026-01-25 00:01:15.86	200.32	3.07	-45.1	-59.6	3.8	1.49e+00	0	62	104	1318060032	61	19571
2026-01-25 00:01:19.89	200.32	2.80	-45.1	-59.7	3.8	1.49e+00	0	62	104	1318060032	61	19632
2026-01-25 00:01:23.93	200.33	2.54	-45.0	-59.6	3.8	1.49e+00	0	62	104	1318060032	61	19590
2026-01-25 00:01:27.97	200.33	2.27	-45.0	-59.7	3.8	1.49e+00	0	62	104	1318060032	61	19615
2026-01-25 00:01:32.01	200.33	2.01	-45.0	-59.6	3.8	1.49e+00	0	61	104	1318060032	61	19565

#Closed at: 2026-01-25 00:01:34
#Recorded file [1318 MB]: D:/lorett/data/31039_260125_024707.dat