passes_logs/2026/01/24/R2.0S_Moscow/R2.0S_Moscow__20260124_000554_SUOMI_NPP_rec.log

#Pass ID: 20260124_000554_SUOMI NPP
#Satellite: SUOMI NPP
#Configuration: NPP
#almurnet v.1.7.20251203
#Start time: 2026-01-24 00:10:05

#Version: 2.2.20231116
#Station: R2.0S_Moscow
#Location: 37.707566 lon 55.798166 lat
#TLE: 1 37849U 11061A   26022.92790088  .00000200  00000+0  11571-3 0  9994
#TLE: 2 37849  98.7820 324.9085 0002258  50.1112 310.0263 14.19528452737839

#Time	Az	El	Level	Level2	SNR	BER	BlckErr	Temp	State	Recorded	gain1	gain2
2026-01-24 00:10:05.87	7.01	26.74	-46.0	-64.6	3.8	7.44e-01	0	61	0	0	63	30767
2026-01-24 00:10:08.90	6.78	27.25	-45.4	-60.1	3.8	1.49e+00	0	61	104	0	62	19438
2026-01-24 00:10:11.93	6.54	27.76	-45.2	-59.9	3.8	1.49e+00	0	61	104	0	62	19048
2026-01-24 00:10:14.96	6.29	28.28	-45.2	-59.8	3.8	1.49e+00	0	61	104	0	62	18934
2026-01-24 00:10:17.99	6.03	28.81	-45.2	-59.8	3.8	1.49e+00	0	61	104	0	62	18920
2026-01-24 00:10:21.02	5.77	29.34	-45.2	-59.8	3.8	1.49e+00	0	61	104	0	62	18869
2026-01-24 00:10:24.05	5.49	29.89	-45.2	-59.8	3.8	1.49e+00	0	61	104	0	62	18896
2026-01-24 00:10:27.08	5.20	30.45	-45.2	-59.8	3.8	1.49e+00	0	61	104	0	62	18936
2026-01-24 00:10:30.11	4.91	31.02	-45.2	-59.7	3.8	1.49e+00	0	61	104	0	62	18706
2026-01-24 00:10:33.14	4.60	31.60	-45.1	-59.6	3.8	1.49e+00	0	61	104	0	62	18437
2026-01-24 00:10:36.18	4.28	32.19	-45.2	-59.7	3.8	1.49e+00	0	61	104	0	62	18669
2026-01-24 00:10:39.20	3.95	32.79	-45.1	-59.7	3.8	1.49e+00	0	61	104	0	62	18587
2026-01-24 00:10:42.24	3.60	33.40	-45.1	-58.6	3.8	1.49e+00	0	61	104	0	62	16341
2026-01-24 00:10:45.27	3.25	34.02	-45.1	-58.8	3.8	1.49e+00	0	61	104	0	62	16778
2026-01-24 00:10:48.30	2.87	34.66	-45.1	-58.6	3.8	1.49e+00	0	61	104	0	62	16318
2026-01-24 00:10:51.33	2.48	35.30	-44.6	-53.4	5.5	5.37e-01	0	61	0	3145728	61	9579
2026-01-24 00:10:54.36	2.08	35.96	-45.0	-57.0	3.9	1.42e+00	0	61	104	6291456	61	14421
2026-01-24 00:10:57.39	1.66	36.63	-44.3	-52.0	6.6	3.03e-01	0	61	0	9437184	60	8589
2026-01-24 00:11:00.42	1.22	37.31	-44.0	-50.4	7.9	8.02e-02	0	61	0	15728640	59	7620
2026-01-24 00:11:03.46	0.76	38.01	-44.6	-53.4	5.4	9.93e-01	0	61	0	20971520	60	10094
2026-01-24 00:11:06.48	0.28	38.71	-43.6	-49.1	9.1	2.53e-02	0	61	0	26214400	59	6567
2026-01-24 00:11:09.52	359.77	39.44	-43.7	-49.3	9.0	1.87e-02	0	61	0	32505856	58	7091
2026-01-24 00:11:12.54	359.25	40.16	-43.8	-49.9	8.4	3.78e-02	0	61	0	37748736	58	7577
2026-01-24 00:11:15.57	358.70	40.91	-43.9	-50.2	8.2	6.30e-02	0	61	0	42991616	58	7829
2026-01-24 00:11:18.60	358.12	41.67	-43.5	-48.6	9.8	1.28e-02	0	61	0	49283072	58	6547
2026-01-24 00:11:21.62	357.52	42.43	-43.1	-47.8	10.7	7.18e-03	0	61	0	54525952	58	5937
2026-01-24 00:11:24.65	356.88	43.21	-43.0	-47.4	11.0	2.22e-03	0	61	0	60817408	57	6049
2026-01-24 00:11:27.68	356.22	44.01	-42.8	-47.1	11.4	9.44e-04	0	61	0	66060288	57	5815
2026-01-24 00:11:30.71	355.51	44.81	-42.4	-46.1	12.3	1.84e-04	0	61	0	71303168	56	5524
2026-01-24 00:11:33.74	354.77	45.63	-42.6	-46.6	11.9	4.26e-04	0	61	0	77594624	56	5819
2026-01-24 00:11:36.77	353.99	46.46	-42.4	-46.3	12.1	2.74e-04	0	61	0	82837504	56	5618
2026-01-24 00:11:39.80	353.17	47.29	-42.4	-46.3	12.1	2.28e-04	0	61	0	89128960	56	5642
2026-01-24 00:11:42.83	352.30	48.14	-42.7	-46.8	11.7	7.91e-04	0	61	0	94371840	56	5979
2026-01-24 00:11:45.86	351.38	49.00	-42.1	-45.7	12.8	7.40e-05	0	61	0	100663296	56	5233
2026-01-24 00:11:48.88	350.41	49.86	-41.5	-44.6	13.5	6.80e-06	0	61	0	105906176	55	4904
2026-01-24 00:11:51.91	349.38	50.74	-40.9	-43.7	14.7	7.00e-07	0	62	0	111149056	53	4938
2026-01-24 00:11:54.94	348.28	51.62	-41.3	-44.3	14.1	3.00e-06	0	61	0	117440512	53	5283
2026-01-24 00:11:57.97	347.12	52.50	-41.3	-44.4	14.0	1.50e-06	0	61	0	122683392	53	5350
2026-01-24 00:12:01.00	345.89	53.39	-42.4	-46.4	11.9	2.68e-04	0	61	0	128974848	55	6020
2026-01-24 00:12:04.03	344.58	54.28	-42.1	-45.9	12.5	1.17e-04	0	61	0	134217728	55	5672
2026-01-24 00:12:07.05	343.19	55.16	-42.6	-46.9	11.4	1.22e-03	0	61	0	139460608	55	6354
2026-01-24 00:12:10.08	341.70	56.04	-42.5	-46.5	11.8	4.39e-04	0	62	0	145752064	55	6113
2026-01-24 00:12:13.11	340.11	56.92	-42.6	-46.7	11.6	2.76e-04	0	62	0	150994944	55	6259
2026-01-24 00:12:16.13	338.43	57.79	-42.2	-46.0	12.3	1.87e-04	0	61	0	157286400	55	5747
2026-01-24 00:12:19.17	336.62	58.65	-42.7	-47.0	11.2	4.52e-04	0	61	0	162529280	55	6491
2026-01-24 00:12:22.20	334.70	59.49	-42.3	-46.1	12.2	2.01e-04	0	61	0	168820736	55	5854
2026-01-24 00:12:25.23	332.65	60.31	-41.8	-45.1	13.1	7.78e-05	0	61	0	174063616	55	5217
2026-01-24 00:12:28.26	330.47	61.11	-40.4	-43.0	15.3	0.00e+00	0	61	0	179306496	52	4821
2026-01-24 00:12:31.28	328.15	61.87	-41.4	-44.5	13.7	3.00e-06	0	61	0	185597952	53	5444
2026-01-24 00:12:34.31	325.68	62.60	-41.5	-44.9	13.3	5.30e-06	0	61	0	190840832	53	5706
2026-01-24 00:12:37.34	323.05	63.29	-40.9	-43.7	14.5	1.50e-06	0	62	0	197132288	53	4975
2026-01-24 00:12:40.36	320.29	63.93	-41.5	-44.7	13.6	1.37e-05	0	61	0	202375168	53	5549
2026-01-24 00:12:43.39	317.36	64.53	-40.4	-43.0	15.2	0.00e+00	0	61	0	207618048	52	4829
2026-01-24 00:12:46.42	314.28	65.06	-42.0	-45.7	12.6	5.56e-05	0	62	0	213909504	54	5856
2026-01-24 00:12:49.45	311.06	65.53	-42.2	-46.0	12.2	2.35e-04	0	61	0	219152384	55	5760
2026-01-24 00:12:52.47	307.73	65.92	-40.9	-43.7	14.4	0.00e+00	0	61	0	225443840	53	4979
2026-01-24 00:12:55.50	304.27	66.25	-41.6	-44.9	13.6	8.30e-06	0	61	0	230686720	53	5684
2026-01-24 00:12:58.53	300.71	66.49	-41.3	-44.4	13.8	3.00e-06	0	61	0	236978176	53	5377
2026-01-24 00:13:01.56	297.09	66.65	-41.0	-43.9	14.3	0.00e+00	0	61	0	242221056	52	5397
2026-01-24 00:13:04.59	293.43	66.72	-41.1	-44.1	14.0	0.00e+00	0	61	0	247463936	53	5206
2026-01-24 00:13:07.61	289.78	66.70	-41.6	-45.1	13.1	9.90e-06	0	61	0	253755392	53	5789
2026-01-24 00:13:10.64	286.13	66.60	-41.5	-44.7	13.4	1.90e-05	0	61	0	258998272	54	5242
2026-01-24 00:13:13.67	282.53	66.42	-41.2	-44.3	13.9	3.00e-06	0	62	0	265289728	54	5010
2026-01-24 00:13:16.70	279.00	66.15	-41.1	-44.1	14.1	5.30e-06	0	61	0	270532608	53	5206
2026-01-24 00:13:19.73	275.57	65.80	-41.5	-44.7	13.4	2.44e-05	0	61	0	275775488	54	5253
2026-01-24 00:13:22.76	272.27	65.37	-41.7	-45.0	13.1	4.88e-05	0	61	0	282066944	54	5442
2026-01-24 00:13:25.79	269.09	64.88	-40.9	-43.7	14.4	7.00e-07	0	61	0	287309824	53	4968
2026-01-24 00:13:28.82	266.06	64.33	-40.8	-43.5	14.7	0.00e+00	0	61	0	293601280	52	5133
2026-01-24 00:13:31.85	263.19	63.71	-40.6	-43.2	15.0	7.00e-07	0	61	0	298844160	52	4950
2026-01-24 00:13:34.88	260.46	63.05	-40.7	-43.4	14.9	0.00e+00	0	61	0	305135616	51	5396
2026-01-24 00:13:37.91	257.89	62.35	-42.6	-47.0	11.1	6.30e-04	0	61	0	310378496	55	6444
2026-01-24 00:13:40.94	255.46	61.60	-41.9	-45.4	12.8	1.56e-04	0	61	0	315621376	55	5375
2026-01-24 00:13:43.97	253.18	60.82	-42.5	-46.7	11.4	3.42e-04	0	61	0	321912832	55	6253
2026-01-24 00:13:47.00	251.04	60.01	-43.2	-48.0	10.3	3.92e-03	0	61	0	327155712	57	6465
2026-01-24 00:13:50.03	249.04	59.18	-41.9	-45.3	12.9	8.16e-05	0	62	0	333447168	55	5308
2026-01-24 00:13:53.06	247.15	58.33	-43.3	-48.6	9.7	4.38e-03	0	61	0	338690048	57	6885
2026-01-24 00:13:56.08	245.40	57.47	-43.0	-47.5	10.7	2.05e-03	0	61	0	343932928	57	6091
2026-01-24 00:13:59.11	243.74	56.60	-43.3	-48.4	9.8	1.50e-02	0	61	0	350224384	57	6768
2026-01-24 00:14:02.14	242.19	55.72	-42.6	-46.6	11.7	6.65e-04	0	61	0	355467264	57	5506
2026-01-24 00:14:05.17	240.73	54.83	-42.2	-45.8	12.5	2.08e-04	0	61	0	361758720	56	5321
2026-01-24 00:14:08.20	239.36	53.94	-41.7	-45.1	13.1	1.52e-05	0	61	0	367001600	55	5208
2026-01-24 00:14:11.23	238.08	53.05	-41.9	-45.5	12.6	3.50e-04	0	61	0	373293056	55	5443
2026-01-24 00:14:14.25	236.87	52.16	-42.4	-46.5	11.7	7.09e-04	0	61	0	378535936	55	6071
2026-01-24 00:14:17.28	235.73	51.27	-41.6	-44.9	13.3	1.44e-05	0	61	0	383778816	54	5399
2026-01-24 00:14:20.31	234.66	50.39	-41.7	-45.1	13.1	2.28e-05	0	61	0	390070272	54	5525
2026-01-24 00:14:23.34	233.65	49.52	-42.7	-47.1	11.0	7.57e-04	0	61	0	395313152	55	6535
2026-01-24 00:14:26.37	232.69	48.65	-42.9	-47.4	10.8	1.18e-02	0	61	0	401604608	57	6058
2026-01-24 00:14:29.40	231.79	47.80	-42.3	-46.3	11.9	9.53e-05	0	61	0	406847488	55	5940
2026-01-24 00:14:32.42	230.93	46.95	-41.4	-44.5	13.7	1.14e-05	0	61	0	412090368	54	5137
2026-01-24 00:14:35.44	230.13	46.12	-43.2	-48.2	10.0	3.77e-03	0	61	0	418381824	56	7038
2026-01-24 00:14:38.47	229.36	45.29	-43.6	-49.4	8.7	5.31e-02	0	61	0	423624704	58	7156
2026-01-24 00:14:41.50	228.63	44.48	-43.2	-48.2	10.1	3.79e-03	0	61	0	429916160	57	6603
2026-01-24 00:14:44.53	227.94	43.67	-42.6	-46.7	11.6	7.32e-04	0	61	0	435159040	57	5571
2026-01-24 00:14:47.56	227.28	42.88	-42.1	-45.7	12.5	9.30e-05	0	61	0	440401920	56	5246
2026-01-24 00:14:50.58	226.65	42.10	-42.5	-46.8	11.4	3.75e-04	0	61	0	446693376	55	6311
2026-01-24 00:14:53.61	226.06	41.34	-44.0	-50.6	7.6	6.26e-02	0	61	0	451936256	58	8209
2026-01-24 00:14:56.64	225.49	40.58	-44.1	-51.1	7.2	1.35e-01	0	62	0	458227712	59	8231
2026-01-24 00:14:59.67	224.95	39.84	-42.6	-46.7	11.6	8.55e-04	0	61	0	463470592	57	5546
2026-01-24 00:15:02.70	224.43	39.11	-42.4	-46.2	12.0	2.25e-04	0	61	0	469762048	56	5584
2026-01-24 00:15:05.73	223.93	38.39	-42.8	-47.3	11.0	1.79e-03	0	61	0	475004928	56	6278
2026-01-24 00:15:08.76	223.46	37.69	-43.8	-49.9	8.3	3.04e-02	0	61	0	480247808	58	7607
2026-01-24 00:15:11.78	223.00	37.00	-43.8	-50.1	8.2	5.87e-02	0	61	0	486539264	58	7751
2026-01-24 00:15:14.81	222.57	36.32	-44.0	-51.0	7.2	9.13e-02	0	62	0	491782144	58	8587
2026-01-24 00:15:17.84	222.15	35.65	-43.5	-49.0	9.2	3.76e-02	0	61	0	498073600	58	6827
2026-01-24 00:15:20.87	221.75	34.99	-43.4	-48.9	9.3	1.32e-02	0	61	0	503316480	58	6740
2026-01-24 00:15:23.90	221.37	34.35	-42.3	-46.1	12.2	2.97e-04	0	62	0	508559360	56	5509
2026-01-24 00:15:26.93	221.00	33.72	-42.5	-46.9	11.1	8.46e-04	0	61	0	514850816	55	6371
2026-01-24 00:15:29.96	220.64	33.10	-43.3	-48.6	9.5	1.37e-02	0	61	0	520093696	57	6954
2026-01-24 00:15:32.99	220.30	32.49	-42.9	-47.5	10.7	3.19e-03	0	61	0	526385152	57	6079
2026-01-24 00:15:36.02	219.97	31.89	-43.1	-48.0	10.2	7.67e-03	0	61	0	531628032	57	6459
2026-01-24 00:15:39.05	219.65	31.30	-42.2	-46.1	12.1	3.36e-04	0	62	0	537919488	56	5503
2026-01-24 00:15:42.07	219.35	30.73	-42.2	-46.0	12.2	2.66e-04	0	62	0	543162368	56	5457
2026-01-24 00:15:45.10	219.06	30.16	-42.6	-46.8	11.4	8.64e-04	0	62	0	548405248	56	5985
2026-01-24 00:15:48.13	218.77	29.60	-42.8	-47.2	11.0	1.62e-03	0	61	0	554696704	56	6268
2026-01-24 00:15:51.16	218.50	29.05	-43.5	-49.4	8.7	2.44e-02	0	62	0	559939584	57	7580
2026-01-24 00:15:54.19	218.23	28.52	-43.7	-49.9	7.9	1.10e-01	0	61	0	566231040	58	7613
2026-01-24 00:15:57.22	217.98	27.99	-43.4	-49.0	9.1	3.05e-02	0	62	0	571473920	58	6862
2026-01-24 00:16:00.24	217.73	27.47	-43.1	-48.0	10.1	6.16e-03	0	61	0	576716800	58	6120
2026-01-24 00:16:03.27	217.49	26.96	-42.8	-47.4	10.7	3.69e-03	0	61	0	583008256	57	6016
2026-01-24 00:16:06.30	217.26	26.46	-42.4	-46.5	11.7	7.06e-04	0	61	0	588251136	56	5729
2026-01-24 00:16:09.33	217.03	25.97	-42.2	-46.2	12.0	4.74e-04	0	61	0	594542592	56	5566
2026-01-24 00:16:12.36	216.82	25.49	-42.6	-47.0	11.1	1.33e-03	0	62	0	599785472	56	6122
2026-01-24 00:16:15.38	216.61	25.01	-42.8	-47.4	10.6	3.51e-03	0	61	0	606076928	56	6417
2026-01-24 00:16:18.41	216.40	24.55	-42.9	-47.7	10.4	3.28e-03	0	61	0	611319808	56	6616
2026-01-24 00:16:21.44	216.20	24.09	-43.0	-48.0	10.0	5.18e-03	0	61	0	616562688	56	6854
2026-01-24 00:16:24.46	216.01	23.64	-43.2	-48.7	9.2	1.49e-02	0	61	0	622854144	57	7022
2026-01-24 00:16:27.50	215.82	23.19	-43.3	-49.0	9.0	2.91e-02	0	62	0	628097024	57	7223
2026-01-24 00:16:30.52	215.64	22.75	-43.0	-48.1	9.9	1.13e-02	0	62	0	634388480	57	6557
2026-01-24 00:16:33.55	215.47	22.32	-42.6	-47.1	11.0	1.60e-03	0	62	0	639631360	57	5848
2026-01-24 00:16:36.58	215.30	21.90	-42.0	-45.9	12.2	2.55e-04	0	62	0	644874240	56	5372
2026-01-24 00:16:39.61	215.13	21.48	-41.5	-45.1	12.8	4.95e-05	0	62	0	651165696	55	5173
2026-01-24 00:16:42.63	214.97	21.07	-41.5	-45.0	13.0	5.18e-05	0	62	0	656408576	54	5422
2026-01-24 00:16:45.66	214.81	20.67	-41.6	-45.2	12.7	6.63e-05	0	62	0	662700032	54	5542
2026-01-24 00:16:48.69	214.66	20.27	-41.8	-45.6	12.3	9.99e-05	0	61	0	667942912	54	5805
2026-01-24 00:16:51.72	214.51	19.88	-42.0	-46.1	11.8	4.97e-04	0	61	0	674234368	54	6133
2026-01-24 00:16:54.75	214.36	19.49	-42.1	-46.2	11.6	6.20e-04	0	62	0	679477248	54	6257
2026-01-24 00:16:57.78	214.22	19.11	-42.2	-46.4	11.4	8.58e-04	0	62	0	684720128	54	6403
2026-01-24 00:17:00.80	214.09	18.74	-42.1	-46.3	11.5	1.02e-03	0	61	0	691011584	55	5974
2026-01-24 00:17:03.83	213.95	18.37	-42.3	-46.6	11.2	9.55e-04	0	62	0	696254464	55	6174
2026-01-24 00:17:06.86	213.82	18.01	-42.3	-46.8	11.0	2.41e-03	0	62	0	702545920	55	6322
2026-01-24 00:17:09.88	213.69	17.65	-42.9	-48.0	9.9	6.19e-03	0	62	0	707788800	56	6816
2026-01-24 00:17:12.91	213.57	17.30	-42.9	-48.1	9.7	1.21e-02	0	62	0	713031680	56	6947
2026-01-24 00:17:15.94	213.45	16.95	-42.8	-47.8	10.1	7.67e-03	0	62	0	719323136	56	6670
2026-01-24 00:17:18.97	213.33	16.60	-42.3	-46.7	11.3	1.20e-03	0	62	0	724566016	56	5857
2026-01-24 00:17:22.00	213.21	16.26	-41.8	-45.7	12.0	3.35e-04	0	61	0	730857472	55	5571
2026-01-24 00:17:25.03	213.10	15.93	-41.5	-45.2	12.6	1.01e-04	0	62	0	736100352	55	5223
2026-01-24 00:17:28.05	212.99	15.60	-41.5	-45.0	12.7	1.10e-04	0	61	0	741343232	54	5456
2026-01-24 00:17:31.08	212.88	15.27	-41.6	-45.3	12.4	2.32e-04	0	62	0	747634688	54	5638
2026-01-24 00:17:34.11	212.78	14.95	-41.9	-46.1	11.6	5.58e-04	0	62	0	752877568	54	6135
2026-01-24 00:17:37.14	212.68	14.63	-42.1	-46.5	11.2	1.11e-03	0	62	0	759169024	54	6456
2026-01-24 00:17:40.17	212.58	14.32	-42.3	-47.0	10.6	3.15e-03	0	61	0	764411904	55	6454
2026-01-24 00:17:43.20	212.48	14.01	-42.4	-47.2	10.4	4.07e-03	0	62	0	770703360	55	6621
2026-01-24 00:17:46.22	212.38	13.70	-42.3	-47.1	10.5	4.23e-03	0	62	0	775946240	55	6495
2026-01-24 00:17:49.25	212.29	13.40	-42.2	-46.8	10.7	3.11e-03	0	61	0	781189120	55	6338
2026-01-24 00:17:52.28	212.20	13.10	-42.0	-46.4	11.1	1.88e-03	0	62	0	787480576	55	6058
2026-01-24 00:17:55.31	212.11	12.81	-42.0	-46.4	11.1	1.29e-03	0	62	0	792723456	55	6059
2026-01-24 00:17:58.34	212.02	12.51	-42.0	-46.3	11.2	1.52e-03	0	61	0	799014912	55	5942
2026-01-24 00:18:01.37	211.93	12.23	-42.0	-46.4	11.1	1.51e-03	0	61	0	804257792	55	6022
2026-01-24 00:18:04.39	211.85	11.94	-42.0	-46.4	11.1	1.46e-03	0	61	0	809500672	55	6009
2026-01-24 00:18:07.42	211.77	11.66	-42.0	-46.5	11.0	1.82e-03	0	62	0	815792128	55	6099
2026-01-24 00:18:10.45	211.68	11.38	-42.2	-46.9	10.5	2.65e-03	0	62	0	821035008	55	6402
2026-01-24 00:18:13.48	211.61	11.11	-42.2	-46.9	10.5	3.14e-03	0	62	0	827326464	55	6408
2026-01-24 00:18:16.50	211.53	10.83	-42.2	-47.0	10.4	4.08e-03	0	62	0	832569344	55	6459
2026-01-24 00:18:19.53	211.45	10.56	-42.2	-47.0	10.4	5.45e-03	0	62	0	838860800	55	6459
2026-01-24 00:18:22.56	211.38	10.30	-42.2	-47.0	10.3	5.19e-03	0	61	0	844103680	55	6432
2026-01-24 00:18:25.59	211.30	10.03	-42.3	-47.3	9.9	7.26e-03	0	62	0	849346560	55	6704
2026-01-24 00:18:28.62	211.23	9.77	-42.2	-47.3	10.0	8.26e-03	0	61	0	855638016	55	6652
2026-01-24 00:18:31.65	211.16	9.51	-42.2	-47.2	10.0	1.09e-02	0	62	0	860880896	55	6640
2026-01-24 00:18:34.68	211.09	9.26	-42.2	-47.4	9.8	9.90e-03	0	61	0	867172352	55	6731
2026-01-24 00:18:37.71	211.03	9.00	-42.2	-47.3	9.8	1.04e-02	0	62	0	872415232	55	6701
2026-01-24 00:18:40.74	210.96	8.75	-42.2	-47.5	9.6	1.16e-02	0	62	0	877658112	55	6847
2026-01-24 00:18:43.77	210.90	8.50	-42.2	-47.6	9.5	1.46e-02	0	61	0	883949568	55	6902
2026-01-24 00:18:46.80	210.83	8.26	-42.4	-48.0	9.0	1.70e-02	0	61	0	889192448	55	7231
2026-01-24 00:18:49.83	210.77	8.01	-42.3	-47.7	9.2	1.97e-02	0	61	0	895483904	55	7032
2026-01-24 00:18:52.85	210.71	7.77	-44.8	-59.5	3.8	1.49e+00	0	62	104	896532480	60	20495
2026-01-24 00:18:55.89	210.65	7.53	-45.1	-59.8	3.8	1.49e+00	0	61	104	896532480	60	21124
2026-01-24 00:18:58.92	210.59	7.30	-45.2	-59.9	3.8	1.49e+00	0	61	104	896532480	60	21308
2026-01-24 00:19:01.95	210.53	7.06	-45.1	-59.7	3.8	1.49e+00	0	62	104	896532480	61	19837
2026-01-24 00:19:04.98	210.47	6.83	-45.1	-59.7	3.8	1.49e+00	0	62	104	896532480	61	19702
2026-01-24 00:19:08.01	210.42	6.60	-45.1	-59.7	3.8	1.49e+00	0	61	104	896532480	61	19676
2026-01-24 00:19:11.05	210.36	6.37	-45.1	-59.7	3.8	1.49e+00	0	61	104	896532480	61	19699
2026-01-24 00:19:14.08	210.31	6.14	-45.1	-59.7	3.8	1.49e+00	0	62	104	896532480	61	19629
2026-01-24 00:19:17.11	210.25	5.92	-45.1	-59.6	3.8	1.49e+00	0	61	104	896532480	61	19593
2026-01-24 00:19:20.14	210.20	5.69	-45.0	-59.6	3.8	1.49e+00	0	62	104	896532480	61	19608
2026-01-24 00:19:23.17	210.15	5.47	-45.0	-59.7	3.8	1.49e+00	0	61	104	896532480	61	19631
2026-01-24 00:19:26.20	210.10	5.25	-45.0	-59.6	3.8	1.49e+00	0	62	104	896532480	61	19496
2026-01-24 00:19:29.23	210.05	5.04	-45.0	-59.6	3.8	1.49e+00	0	62	104	896532480	61	19583
2026-01-24 00:19:32.26	210.00	4.82	-45.0	-59.6	3.8	1.49e+00	0	62	104	896532480	61	19596
2026-01-24 00:19:35.29	209.95	4.61	-45.0	-59.7	3.8	1.49e+00	0	61	104	896532480	61	19620
2026-01-24 00:19:38.33	209.91	4.39	-45.0	-59.6	3.8	1.49e+00	0	62	104	896532480	61	19547
2026-01-24 00:19:41.35	209.86	4.18	-45.0	-59.6	3.8	1.49e+00	0	62	104	896532480	61	19576
2026-01-24 00:19:44.38	209.82	3.98	-44.9	-59.6	3.8	1.49e+00	0	61	104	896532480	61	19470
2026-01-24 00:19:47.42	209.77	3.77	-45.0	-59.6	3.8	1.49e+00	0	62	104	896532480	61	19556
2026-01-24 00:19:50.45	209.73	3.56	-45.0	-59.6	3.8	1.49e+00	0	62	104	896532480	61	19537
2026-01-24 00:19:53.48	209.68	3.36	-45.0	-59.6	3.8	1.49e+00	0	62	104	896532480	61	19516
2026-01-24 00:19:56.51	209.64	3.15	-45.0	-59.6	3.8	1.49e+00	0	62	104	896532480	61	19593
2026-01-24 00:19:59.54	209.60	2.95	-45.0	-59.6	3.8	1.49e+00	0	62	104	896532480	61	19511
2026-01-24 00:20:02.57	209.56	2.75	-45.0	-59.6	3.8	1.49e+00	0	62	104	896532480	61	19501
2026-01-24 00:20:05.61	209.52	2.55	-45.0	-59.6	3.8	1.49e+00	0	62	104	896532480	61	19469
2026-01-24 00:20:08.64	209.48	2.36	-45.0	-59.6	3.8	1.49e+00	0	62	104	896532480	61	19515
2026-01-24 00:20:11.67	209.44	2.16	-45.0	-59.6	3.8	1.49e+00	0	62	104	896532480	61	19484

#Closed at: 2026-01-24 00:20:14
#Recorded file [896 MB]: D:/lorett/data/31039_260124_031005.dat