passes_logs/2026/01/24/R2.0S_Moscow/R2.0S_Moscow__20260124_083744_NOAA_20_JPSS-1_rec.log

#Pass ID: 20260124_083744_NOAA 20 (JPSS-1)
#Satellite: NOAA 20 (JPSS-1)
#Configuration: NOAA 20
#almurnet v.1.7.20251203
#Start time: 2026-01-24 08:37:46

#Version: 2.2.20231116
#Station: R2.0S_Moscow
#Location: 37.707566 lon 55.798166 lat
#TLE: 1 43013U 17073A   26023.57676825  .00000205  00000+0  11821-3 0  9990
#TLE: 2 43013  98.7645 324.4259 0001147  27.0566 333.0670 14.19539368423954

#Time	Az	El	Level	Level2	SNR	BER	BlckErr	Temp	State	Recorded	gain1	gain2
2026-01-24 08:37:46.12	122.70	2.10	-21.6	-39.1	4.1	1.50e+00	0	53	0	0	13	29123
2026-01-24 08:37:50.15	122.49	2.34	-20.8	-38.7	3.8	1.50e+00	0	53	104	0	9	35283
2026-01-24 08:37:54.19	122.27	2.58	-20.1	-39.4	3.9	1.50e+00	0	53	104	0	11	33757
2026-01-24 08:37:58.23	122.04	2.82	-13.5	-31.9	4.0	1.50e+00	0	54	104	0	0	27035
2026-01-24 08:38:02.28	121.82	3.07	-20.9	-39.3	3.7	1.50e+00	0	54	104	0	11	33679
2026-01-24 08:38:06.32	121.58	3.32	-20.1	-38.2	3.9	1.50e+00	0	54	104	0	10	31096
2026-01-24 08:38:10.36	121.35	3.57	-12.5	-29.9	3.3	1.50e+00	0	54	104	0	1	20281
2026-01-24 08:38:14.40	121.11	3.82	-19.5	-37.8	3.9	1.50e+00	0	55	104	0	11	28169
2026-01-24 08:38:18.45	120.87	4.08	-21.7	-40.5	3.9	1.50e+00	0	55	104	0	14	32488
2026-01-24 08:38:22.49	120.62	4.33	-21.1	-37.9	4.1	1.50e+00	0	55	104	0	12	26821
2026-01-24 08:38:26.53	120.36	4.59	-17.8	-34.7	3.8	1.50e+00	0	55	104	0	8	23443
2026-01-24 08:38:30.57	120.11	4.85	-15.6	-34.4	3.7	1.50e+00	0	56	104	0	8	22736
2026-01-24 08:38:34.61	119.85	5.11	-18.3	-36.1	3.9	1.50e+00	0	56	104	0	8	27530
2026-01-24 08:38:38.65	119.58	5.38	-21.8	-38.8	3.8	1.50e+00	0	56	104	0	11	31594
2026-01-24 08:38:42.70	119.31	5.64	-19.4	-35.9	3.8	1.50e+00	0	56	104	0	9	25544
2026-01-24 08:38:46.74	119.03	5.91	-22.1	-39.9	3.9	1.50e+00	0	56	104	0	13	32170
2026-01-24 08:38:50.78	118.75	6.18	-20.8	-39.9	3.8	1.50e+00	0	56	104	0	13	32144
2026-01-24 08:38:54.82	118.46	6.45	-22.5	-40.3	4.0	1.50e+00	0	57	104	0	13	33518
2026-01-24 08:38:58.86	118.16	6.73	-17.9	-37.2	3.9	1.50e+00	0	57	104	0	8	31203
2026-01-24 08:39:02.91	117.86	7.01	-17.5	-35.7	4.2	1.50e+00	0	57	104	0	6	29628
2026-01-24 08:39:06.95	117.56	7.29	-21.1	-39.7	3.9	1.50e+00	0	57	104	0	13	31442
2026-01-24 08:39:10.99	117.25	7.57	-18.6	-34.7	3.8	1.50e+00	0	57	104	0	6	26398
2026-01-24 08:39:15.03	116.93	7.85	-17.6	-36.4	4.1	1.50e+00	0	57	104	0	12	22753
2026-01-24 08:39:19.07	116.60	8.14	-22.6	-42.2	3.6	1.50e+00	0	58	104	0	17	32972
2026-01-24 08:39:23.11	116.27	8.43	-23.3	-40.8	3.6	1.50e+00	0	58	104	0	14	33313
2026-01-24 08:39:27.15	115.93	8.72	-19.0	-36.6	4.0	1.50e+00	0	58	104	0	12	23115
2026-01-24 08:39:31.18	115.59	9.01	-19.2	-35.7	3.8	1.50e+00	0	58	104	0	6	29556
2026-01-24 08:39:35.22	115.24	9.30	-19.5	-36.1	4.1	1.50e+00	0	58	104	0	8	27486
2026-01-24 08:39:39.26	114.88	9.60	-17.2	-36.4	3.5	1.50e+00	0	58	104	0	6	31848
2026-01-24 08:39:43.29	114.51	9.90	-20.4	-38.7	3.8	1.50e+00	0	59	104	0	12	29486
2026-01-24 08:39:47.33	114.14	10.21	-19.5	-35.9	3.6	1.50e+00	0	58	104	0	9	25434
2026-01-24 08:39:51.37	113.75	10.51	-21.8	-40.9	3.9	1.49e+00	0	58	104	0	17	28665
2026-01-24 08:39:55.41	113.36	10.82	-25.8	-44.0	3.9	1.48e+00	0	59	104	0	24	27143
2026-01-24 08:39:59.46	112.96	11.13	-29.7	-47.5	4.6	1.42e+00	0	59	104	0	35	21667
2026-01-24 08:40:03.49	112.55	11.44	-31.9	-51.3	4.2	1.50e+00	0	59	104	1048576	38	28182
2026-01-24 08:40:07.53	112.14	11.76	-31.8	-52.0	4.1	1.50e+00	0	59	104	1048576	39	28970
2026-01-24 08:40:11.57	111.71	12.08	-39.3	-48.9	7.2	4.83e-01	9	59	0	3145728	49	11310
2026-01-24 08:40:15.61	111.27	12.40	-38.9	-47.0	9.6	2.82e-02	0	59	0	10485760	51	8148
2026-01-24 08:40:19.64	110.83	12.72	-40.7	-46.6	10.4	6.87e-03	0	59	0	18874368	53	6933
2026-01-24 08:40:23.68	110.37	13.05	-39.2	-47.2	9.9	2.71e-02	0	59	0	26214400	53	7411
2026-01-24 08:40:27.72	109.90	13.38	-36.3	-46.8	8.8	7.02e-03	0	59	0	33554432	44	11908
2026-01-24 08:40:31.76	109.43	13.71	-28.9	-46.6	7.3	1.02e-01	0	59	0	40894464	36	18505
2026-01-24 08:40:35.79	108.94	14.04	-36.4	-47.1	9.3	1.50e-02	0	59	0	48234496	48	9722
2026-01-24 08:40:39.83	108.44	14.38	-41.3	-46.9	10.1	8.67e-03	0	60	0	56623104	53	7142
2026-01-24 08:40:43.87	107.93	14.72	-39.5	-46.5	10.4	3.96e-03	0	59	0	63963136	50	8121
2026-01-24 08:40:47.91	107.40	15.06	-41.8	-46.6	10.6	2.50e-03	0	60	0	71303168	54	6554
2026-01-24 08:40:51.95	106.87	15.40	-41.7	-46.0	11.4	1.20e-03	0	60	0	78643200	53	6443
2026-01-24 08:40:55.99	106.32	15.75	-41.0	-46.4	10.2	5.68e-03	0	60	0	87031808	53	6768
2026-01-24 08:41:00.03	105.76	16.09	-41.7	-45.9	11.6	1.57e-03	0	60	0	94371840	53	6371
2026-01-24 08:41:04.07	105.18	16.44	-41.6	-45.9	11.6	5.92e-04	0	60	0	101711872	53	6363
2026-01-24 08:41:08.11	104.59	16.80	-41.7	-45.8	11.7	4.17e-04	0	60	0	109051904	53	6328
2026-01-24 08:41:12.15	103.99	17.15	-41.5	-45.8	11.7	5.59e-04	0	60	0	116391936	54	5974
2026-01-24 08:41:16.18	103.37	17.50	-42.1	-46.1	11.8	5.28e-04	0	60	0	124780544	53	6497
2026-01-24 08:41:20.22	102.74	17.86	-41.7	-46.0	11.6	7.54e-04	0	60	0	132120576	54	6090
2026-01-24 08:41:24.26	102.09	18.22	-41.7	-45.8	11.8	4.89e-04	0	60	0	139460608	53	6317
2026-01-24 08:41:28.29	101.43	18.58	-41.6	-45.7	12.0	5.03e-04	0	60	0	146800640	53	6218
2026-01-24 08:41:32.33	100.75	18.94	-41.8	-46.0	11.7	7.03e-04	0	60	0	155189248	54	6071
2026-01-24 08:41:36.37	100.05	19.30	-42.0	-46.3	11.4	1.71e-03	0	60	0	162529280	54	6324
2026-01-24 08:41:40.41	99.34	19.67	-42.0	-46.4	11.3	8.26e-04	0	60	0	169869312	54	6372
2026-01-24 08:41:44.45	98.61	20.03	-41.8	-45.9	11.8	5.05e-04	0	60	0	177209344	54	6058
2026-01-24 08:41:48.48	97.86	20.39	-41.7	-45.8	12.0	3.45e-04	0	60	0	184549376	54	5934
2026-01-24 08:41:52.52	97.10	20.76	-41.8	-45.9	11.9	4.55e-04	0	61	0	192937984	54	6022
2026-01-24 08:41:56.56	96.31	21.12	-41.8	-45.9	11.9	4.56e-04	0	60	0	200278016	54	5997
2026-01-24 08:42:00.60	95.51	21.48	-41.6	-45.6	12.2	2.30e-04	0	60	0	207618048	54	5796
2026-01-24 08:42:04.63	94.69	21.85	-41.5	-45.4	12.4	1.38e-04	0	60	0	214958080	54	5681
2026-01-24 08:42:08.67	93.85	22.21	-41.4	-45.2	12.5	1.47e-04	0	61	0	223346688	54	5543
2026-01-24 08:42:12.71	92.99	22.57	-41.1	-44.6	13.2	2.97e-05	0	61	0	230686720	54	5176
2026-01-24 08:42:16.74	92.11	22.92	-41.2	-44.6	13.1	2.89e-05	0	61	0	238026752	54	5216
2026-01-24 08:42:20.78	91.20	23.28	-41.2	-44.6	13.2	1.52e-05	0	61	0	245366784	54	5180
2026-01-24 08:42:24.82	90.28	23.63	-41.1	-44.5	13.3	2.36e-05	0	61	0	252706816	54	5136
2026-01-24 08:42:28.86	89.34	23.98	-41.1	-44.4	13.4	6.80e-06	0	60	0	261095424	54	5091
2026-01-24 08:42:32.90	88.37	24.32	-41.3	-44.8	13.1	3.73e-05	0	61	0	268435456	54	5297
2026-01-24 08:42:36.94	87.39	24.66	-41.4	-45.0	12.8	4.57e-05	0	61	0	275775488	54	5447
2026-01-24 08:42:40.98	86.38	24.99	-41.5	-45.2	12.6	6.71e-05	0	61	0	283115520	54	5585
2026-01-24 08:42:45.01	85.35	25.32	-41.5	-45.1	12.7	1.01e-04	0	61	0	290455552	54	5521
2026-01-24 08:42:49.05	84.30	25.64	-41.5	-45.2	12.7	6.10e-05	0	61	0	298844160	54	5576
2026-01-24 08:42:53.09	83.23	25.96	-41.7	-45.6	12.3	1.46e-04	0	61	0	306184192	54	5814
2026-01-24 08:42:57.12	82.14	26.26	-41.5	-45.2	12.8	1.46e-04	0	61	0	313524224	54	5543
2026-01-24 08:43:01.16	81.02	26.56	-41.5	-45.2	12.8	7.55e-05	0	61	0	320864256	54	5533
2026-01-24 08:43:05.20	79.89	26.85	-41.5	-45.0	12.9	4.42e-05	0	61	0	329252864	54	5464
2026-01-24 08:43:09.24	78.73	27.13	-41.6	-45.4	12.6	1.02e-04	0	61	0	336592896	54	5669
2026-01-24 08:43:13.28	77.56	27.40	-41.6	-45.3	12.7	8.85e-05	0	60	0	343932928	54	5629
2026-01-24 08:43:17.32	76.36	27.66	-41.8	-45.7	12.3	1.75e-04	0	60	0	351272960	54	5874
2026-01-24 08:43:21.36	75.15	27.91	-41.8	-45.6	12.4	1.77e-04	0	61	0	358612992	54	5851
2026-01-24 08:43:25.39	73.92	28.14	-42.0	-46.0	12.0	2.65e-04	0	61	0	367001600	54	6103
2026-01-24 08:43:29.43	72.66	28.37	-42.2	-46.5	11.5	9.26e-04	0	61	0	374341632	55	6092
2026-01-24 08:43:33.47	71.40	28.57	-42.2	-46.4	11.6	6.10e-04	0	61	0	381681664	55	6041
2026-01-24 08:43:37.51	70.11	28.77	-42.2	-46.5	11.6	8.89e-04	0	61	0	389021696	55	6074
2026-01-24 08:43:41.55	68.81	28.95	-42.3	-46.6	11.4	9.70e-04	0	61	0	397410304	55	6182
2026-01-24 08:43:45.58	67.50	29.11	-42.2	-46.4	11.7	6.81e-04	0	61	0	404750336	55	6013
2026-01-24 08:43:49.62	66.18	29.26	-42.5	-47.1	10.9	1.75e-03	0	61	0	412090368	55	6499
2026-01-24 08:43:53.66	64.84	29.39	-42.5	-47.1	10.9	1.86e-03	0	61	0	419430400	55	6527
2026-01-24 08:43:57.70	63.50	29.50	-42.7	-47.4	10.6	3.44e-03	0	61	0	426770432	55	6799
2026-01-24 08:44:01.73	62.14	29.60	-42.9	-47.7	10.5	4.17e-03	0	61	0	435159040	56	6605
2026-01-24 08:44:05.77	60.78	29.68	-42.9	-47.9	10.3	4.12e-03	0	61	0	442499072	56	6747
2026-01-24 08:44:09.81	59.41	29.74	-42.8	-47.6	10.5	4.85e-03	0	61	0	449839104	56	6560
2026-01-24 08:44:13.84	58.04	29.78	-42.9	-47.7	10.5	4.28e-03	0	61	0	457179136	56	6594
2026-01-24 08:44:17.88	56.67	29.80	-42.9	-47.7	10.5	4.33e-03	0	61	0	465567744	56	6597
2026-01-24 08:44:21.92	55.29	29.81	-42.7	-47.4	10.9	2.15e-03	0	61	0	472907776	56	6351
2026-01-24 08:44:25.96	53.92	29.79	-42.7	-47.2	11.0	1.61e-03	0	61	0	480247808	56	6268
2026-01-24 08:44:30.00	52.54	29.76	-42.3	-46.5	11.8	5.24e-04	0	61	0	487587840	56	5742
2026-01-24 08:44:34.02	51.18	29.71	-42.4	-46.5	11.7	4.73e-04	0	61	0	494927872	56	5776
2026-01-24 08:44:38.06	49.81	29.64	-42.5	-46.8	11.4	7.38e-04	0	61	0	503316480	56	5975
2026-01-24 08:44:42.10	48.45	29.56	-42.3	-46.4	11.9	3.49e-04	0	61	0	510656512	56	5693
2026-01-24 08:44:46.14	47.10	29.45	-42.3	-46.4	11.9	3.88e-04	0	61	0	517996544	56	5685
2026-01-24 08:44:50.17	45.77	29.33	-42.4	-46.6	11.8	5.81e-04	0	61	0	525336576	56	5795
2026-01-24 08:44:54.21	44.44	29.20	-42.3	-46.4	11.9	3.62e-04	0	61	0	533725184	56	5664
2026-01-24 08:44:58.25	43.12	29.04	-42.4	-46.6	11.7	6.06e-04	0	61	0	541065216	56	5846
2026-01-24 08:45:02.29	41.82	28.87	-42.7	-47.3	11.0	1.83e-03	0	61	0	548405248	56	6286
2026-01-24 08:45:06.33	40.53	28.69	-42.8	-47.5	10.7	3.06e-03	0	61	0	555745280	56	6490
2026-01-24 08:45:10.37	39.25	28.49	-42.8	-47.6	10.6	3.52e-03	0	61	0	563085312	56	6560
2026-01-24 08:45:14.40	38.00	28.27	-42.8	-47.5	10.7	2.62e-03	0	61	0	571473920	56	6431
2026-01-24 08:45:18.44	36.76	28.05	-42.9	-47.8	10.4	4.82e-03	0	61	0	578813952	56	6705
2026-01-24 08:45:22.48	35.54	27.81	-42.9	-47.7	10.5	3.79e-03	0	61	0	586153984	56	6600
2026-01-24 08:45:26.52	34.33	27.56	-42.7	-47.4	10.8	2.15e-03	0	61	0	593494016	56	6359
2026-01-24 08:45:30.56	33.15	27.29	-42.8	-47.4	10.9	2.01e-03	0	62	0	601882624	56	6363
2026-01-24 08:45:34.59	31.99	27.02	-42.7	-47.1	11.1	1.92e-03	0	61	0	609222656	56	6194
2026-01-24 08:45:38.63	30.85	26.74	-42.4	-46.5	11.8	5.35e-04	0	61	0	616562688	56	5756
2026-01-24 08:45:42.67	29.72	26.44	-42.5	-46.8	11.4	8.60e-04	0	61	0	623902720	56	5983
2026-01-24 08:45:46.70	28.63	26.14	-42.3	-46.4	11.8	4.76e-04	0	61	0	631242752	56	5681
2026-01-24 08:45:50.74	27.55	25.83	-42.1	-45.9	12.3	2.47e-04	0	61	0	639631360	56	5386
2026-01-24 08:45:54.78	26.49	25.52	-42.1	-45.9	12.2	1.93e-04	0	61	0	646971392	56	5379
2026-01-24 08:45:58.82	25.45	25.19	-41.7	-45.4	12.7	9.07e-05	0	61	0	654311424	55	5378
2026-01-24 08:46:02.85	24.44	24.86	-41.7	-45.3	12.7	8.31e-05	0	61	0	661651456	55	5328
2026-01-24 08:46:06.89	23.44	24.53	-41.4	-44.9	13.2	4.42e-05	0	61	0	670040064	54	5362
2026-01-24 08:46:10.93	22.47	24.19	-41.2	-44.4	13.7	7.60e-06	0	61	0	677380096	54	5064
2026-01-24 08:46:14.97	21.52	23.84	-40.9	-44.0	14.1	7.00e-07	0	61	0	684720128	53	5122
2026-01-24 08:46:19.01	20.59	23.50	-41.0	-44.1	13.9	1.50e-06	0	61	0	692060160	53	5180
2026-01-24 08:46:23.05	19.68	23.15	-40.6	-43.5	14.5	7.00e-07	0	61	0	699400192	53	4852
2026-01-24 08:46:27.09	18.79	22.79	-40.5	-43.3	14.7	0.00e+00	0	61	0	707788800	52	5041
2026-01-24 08:46:31.12	17.92	22.44	-40.6	-43.4	14.6	7.00e-07	0	61	0	715128832	52	5093
2026-01-24 08:46:35.16	17.07	22.08	-40.5	-43.3	14.8	0.00e+00	0	61	0	722468864	52	4999
2026-01-24 08:46:39.20	16.24	21.72	-40.5	-43.3	14.7	0.00e+00	0	61	0	729808896	52	5040
2026-01-24 08:46:43.23	15.44	21.36	-40.6	-43.6	14.4	7.00e-07	0	61	0	738197504	52	5160
2026-01-24 08:46:47.27	14.65	21.00	-40.6	-43.5	14.5	7.00e-07	0	61	0	745537536	52	5134
2026-01-24 08:46:51.31	13.87	20.64	-40.8	-43.8	14.1	0.00e+00	0	62	0	752877568	52	5337
2026-01-24 08:46:55.35	13.12	20.27	-40.8	-43.9	14.1	3.00e-06	0	61	0	760217600	52	5346
2026-01-24 08:46:59.39	12.38	19.91	-41.0	-44.3	13.6	3.00e-06	0	61	0	767557632	52	5633
2026-01-24 08:47:03.42	11.67	19.55	-41.2	-44.6	13.3	1.60e-05	0	61	0	775946240	52	5790
2026-01-24 08:47:07.46	10.97	19.19	-41.2	-44.6	13.2	1.83e-05	0	61	0	783286272	53	5473
2026-01-24 08:47:11.50	10.28	18.83	-41.3	-44.8	13.0	3.20e-05	0	61	0	790626304	53	5622
2026-01-24 08:47:15.54	9.61	18.47	-41.4	-45.1	12.6	9.91e-05	0	61	0	797966336	53	5811
2026-01-24 08:47:19.58	8.96	18.11	-41.5	-45.2	12.4	1.17e-04	0	61	0	806354944	53	5914
2026-01-24 08:47:23.62	8.32	17.76	-41.5	-45.3	12.3	1.79e-04	0	61	0	813694976	53	5974
2026-01-24 08:47:27.66	7.70	17.40	-41.5	-45.4	12.2	2.21e-04	0	61	0	821035008	53	6033
2026-01-24 08:47:31.70	7.10	17.05	-41.5	-45.6	11.8	3.39e-04	0	61	0	828375040	53	6164
2026-01-24 08:47:35.74	6.50	16.70	-41.6	-45.8	11.5	7.57e-04	0	61	0	835715072	53	6343
2026-01-24 08:47:39.77	5.93	16.35	-41.6	-46.0	11.3	1.15e-03	0	61	0	844103680	53	6428
2026-01-24 08:47:43.81	5.36	16.00	-41.6	-46.0	11.2	1.19e-03	0	61	0	851443712	53	6447
2026-01-24 08:47:47.85	4.81	15.65	-41.5	-46.0	11.0	1.71e-03	0	61	0	858783744	53	6486
2026-01-24 08:47:51.88	4.27	15.31	-41.6	-46.3	10.5	3.23e-03	0	62	0	866123776	53	6711
2026-01-24 08:47:55.92	3.74	14.97	-41.5	-46.3	10.3	3.52e-03	0	61	0	874512384	53	6716
2026-01-24 08:47:59.96	3.23	14.63	-41.2	-46.0	10.4	3.99e-03	0	61	0	881852416	53	6441
2026-01-24 08:48:04.00	2.73	14.30	-41.2	-46.7	9.1	2.08e-02	0	61	0	889192448	53	7016
2026-01-24 08:48:08.03	2.24	13.96	-40.4	-45.1	10.5	3.75e-03	0	61	0	896532480	52	6183
2026-01-24 08:48:12.07	1.76	13.63	-40.8	-47.1	8.1	4.48e-02	0	61	0	903872512	52	7764
2026-01-24 08:48:16.11	1.29	13.30	-41.1	-50.5	5.0	5.72e-01	0	61	0	912261120	52	11531
2026-01-24 08:48:20.15	0.83	12.98	-40.5	-55.1	3.8	1.49e+00	0	61	104	914358272	52	19440
2026-01-24 08:48:24.19	0.38	12.65	-41.2	-54.3	3.8	1.49e+00	0	61	104	914358272	54	15910
2026-01-24 08:48:28.23	359.95	12.33	-40.2	-54.8	3.8	1.49e+00	0	61	104	914358272	52	18824
2026-01-24 08:48:32.27	359.52	12.01	-40.1	-54.6	3.8	1.49e+00	0	61	104	914358272	52	18468
2026-01-24 08:48:36.31	359.10	11.70	-39.9	-54.5	3.8	1.49e+00	0	61	104	914358272	51	19227
2026-01-24 08:48:40.34	358.69	11.38	-40.4	-55.0	3.8	1.49e+00	0	62	104	914358272	51	20329
2026-01-24 08:48:44.38	358.29	11.07	-39.8	-54.4	3.8	1.49e+00	0	61	104	914358272	51	19083
2026-01-24 08:48:48.42	357.90	10.77	-40.2	-54.8	3.8	1.49e+00	0	61	104	914358272	51	19869
2026-01-24 08:48:52.45	357.51	10.46	-39.9	-54.3	3.8	1.49e+00	0	62	104	914358272	51	18946
2026-01-24 08:48:56.49	357.14	10.16	-39.9	-54.3	3.8	1.49e+00	0	62	104	914358272	51	18884
2026-01-24 08:49:00.53	356.77	9.86	-39.8	-54.4	3.8	1.49e+00	0	62	104	914358272	51	19055
2026-01-24 08:49:04.57	356.41	9.56	-39.8	-54.4	3.8	1.49e+00	0	62	104	914358272	51	19059
2026-01-24 08:49:08.61	356.06	9.26	-39.9	-54.4	3.8	1.49e+00	0	62	104	914358272	51	19147
2026-01-24 08:49:12.64	355.72	8.97	-40.0	-54.5	3.8	1.49e+00	0	62	104	914358272	51	19279
2026-01-24 08:49:16.68	355.38	8.68	-40.0	-54.5	3.8	1.49e+00	0	62	104	914358272	51	19338
2026-01-24 08:49:20.72	355.05	8.39	-40.0	-54.5	3.8	1.49e+00	0	62	104	914358272	51	19359
2026-01-24 08:49:24.76	354.72	8.10	-40.0	-54.5	3.8	1.49e+00	0	62	104	914358272	51	19290
2026-01-24 08:49:28.80	354.41	7.82	-44.3	-58.8	3.8	1.49e+00	0	62	104	914358272	59	19987
2026-01-24 08:49:32.85	354.10	7.54	-45.3	-60.0	3.8	1.49e+00	0	62	104	914358272	61	20322
2026-01-24 08:49:36.89	353.79	7.26	-45.3	-60.0	3.8	1.49e+00	0	62	104	914358272	61	20366
2026-01-24 08:49:40.93	353.49	6.98	-45.2	-59.8	3.8	1.49e+00	0	62	104	914358272	61	20010
2026-01-24 08:49:44.97	353.20	6.70	-45.1	-59.7	3.8	1.49e+00	0	62	104	914358272	61	19714
2026-01-24 08:49:49.02	352.91	6.43	-45.1	-59.7	3.8	1.49e+00	0	62	104	914358272	61	19646
2026-01-24 08:49:53.06	352.63	6.16	-45.1	-59.7	3.8	1.49e+00	0	62	104	914358272	61	19631
2026-01-24 08:49:57.10	352.35	5.89	-45.1	-59.7	3.8	1.49e+00	0	62	104	914358272	61	19624
2026-01-24 08:50:01.14	352.08	5.63	-45.1	-59.6	3.8	1.49e+00	0	62	104	914358272	61	19564
2026-01-24 08:50:05.18	351.82	5.36	-45.0	-59.6	3.8	1.49e+00	0	62	104	914358272	61	19497
2026-01-24 08:50:09.23	351.56	5.10	-45.0	-59.6	3.8	1.49e+00	0	62	104	914358272	61	19569
2026-01-24 08:50:13.27	351.30	4.84	-45.0	-59.6	3.8	1.49e+00	0	62	104	914358272	61	19418
2026-01-24 08:50:17.31	351.05	4.58	-45.0	-59.6	3.8	1.49e+00	0	62	104	914358272	61	19467
2026-01-24 08:50:21.35	350.81	4.32	-45.0	-59.6	3.8	1.49e+00	0	62	104	914358272	60	20670
2026-01-24 08:50:25.39	350.56	4.07	-45.0	-59.6	3.8	1.49e+00	0	62	104	914358272	60	20574
2026-01-24 08:50:29.43	350.33	3.82	-45.0	-59.6	3.8	1.49e+00	0	62	104	914358272	60	20610
2026-01-24 08:50:33.48	350.09	3.57	-45.0	-59.6	3.8	1.49e+00	0	62	104	914358272	60	20646
2026-01-24 08:50:37.52	349.86	3.32	-45.0	-59.6	3.8	1.49e+00	0	62	104	914358272	60	20603
2026-01-24 08:50:41.56	349.64	3.07	-45.0	-59.6	3.8	1.49e+00	0	62	104	914358272	60	20594
2026-01-24 08:50:45.60	349.42	2.82	-45.0	-59.6	3.8	1.49e+00	0	62	104	914358272	60	20562
2026-01-24 08:50:49.64	349.20	2.58	-44.9	-59.5	3.8	1.49e+00	0	62	104	914358272	60	20507
2026-01-24 08:50:53.68	348.99	2.34	-45.0	-59.5	3.8	1.49e+00	0	62	104	914358272	60	20505
2026-01-24 08:50:57.73	348.78	2.10	-45.0	-59.5	3.8	1.49e+00	0	62	104	914358272	60	20523

#Closed at: 2026-01-24 08:51:00
#Recorded file [914 MB]: D:/lorett/data/31039_260124_113745.dat