passes_logs/2026/01/24/R2.0S_Moscow/R2.0S_Moscow__20260124_011642_NOAA_21_JPSS-2_rec.log

#Pass ID: 20260124_011642_NOAA 21 (JPSS-2)
#Satellite: NOAA 21 (JPSS-2)
#Configuration: NOAA-21
#almurnet v.1.7.20251203
#Start time: 2026-01-24 01:17:43

#Version: 2.2.20231116
#Station: R2.0S_Moscow
#Location: 37.707566 lon 55.798166 lat
#TLE: 1 54234U 22150A   26022.90705406  .00000208  00000+0  11937-3 0  9994
#TLE: 2 54234  98.7507 323.7115 0000669 231.3756 128.7360 14.19537879165931

#Time	Az	El	Level	Level2	SNR	BER	BlckErr	Temp	State	Recorded	gain1	gain2
2026-01-24 01:17:43.54	6.12	5.62	-45.0	-56.8	3.8	8.46e-01	0	62	0	0	61	14064
2026-01-24 01:17:46.56	5.87	5.80	-45.4	-57.9	3.8	1.49e+00	0	62	104	0	62	15066
2026-01-24 01:17:49.59	5.63	5.99	-45.2	-57.7	3.8	1.49e+00	0	62	104	0	62	14831
2026-01-24 01:17:52.62	5.37	6.18	-44.0	-56.2	3.8	1.49e+00	0	61	104	0	59	14826
2026-01-24 01:17:55.65	5.12	6.37	-40.0	-52.4	3.8	1.49e+00	0	62	104	0	51	15061
2026-01-24 01:17:58.68	4.86	6.57	-40.0	-52.3	3.8	1.49e+00	0	61	104	0	51	14995
2026-01-24 01:18:01.72	4.60	6.76	-40.0	-52.3	3.8	1.49e+00	0	62	104	0	51	14977
2026-01-24 01:18:04.75	4.33	6.95	-40.0	-52.3	3.8	1.49e+00	0	62	104	0	51	14960
2026-01-24 01:18:07.78	4.06	7.15	-40.0	-52.2	3.8	1.49e+00	0	62	104	0	51	14879
2026-01-24 01:18:10.81	3.79	7.34	-40.0	-52.3	3.8	1.49e+00	0	62	104	0	51	14885
2026-01-24 01:18:13.84	3.51	7.54	-39.9	-52.2	3.8	1.49e+00	0	62	104	0	51	14868
2026-01-24 01:18:16.87	3.23	7.74	-39.9	-52.2	3.8	1.49e+00	0	62	104	0	51	14866
2026-01-24 01:18:19.90	2.95	7.93	-39.9	-52.3	3.8	1.49e+00	0	62	104	0	51	14890
2026-01-24 01:18:22.93	2.66	8.13	-39.9	-52.2	3.8	1.49e+00	0	62	104	0	51	14877
2026-01-24 01:18:25.97	2.36	8.33	-39.9	-52.3	3.8	1.49e+00	0	62	104	0	51	14891
2026-01-24 01:18:29.00	2.07	8.53	-39.9	-52.2	3.8	1.49e+00	0	62	104	0	51	14855
2026-01-24 01:18:32.03	1.76	8.74	-39.9	-52.2	3.8	1.49e+00	0	61	104	0	51	14851
2026-01-24 01:18:35.06	1.46	8.94	-39.9	-52.2	3.8	1.49e+00	0	62	104	0	51	14857
2026-01-24 01:18:38.09	1.15	9.14	-39.9	-52.2	3.8	1.49e+00	0	62	104	0	51	14834
2026-01-24 01:18:41.12	0.83	9.34	-40.0	-52.3	3.8	1.49e+00	0	62	104	0	51	14961
2026-01-24 01:18:44.15	0.51	9.55	-40.1	-52.5	3.8	1.49e+00	0	62	104	0	51	15281
2026-01-24 01:18:47.18	0.19	9.75	-40.0	-52.4	3.8	1.49e+00	0	62	104	0	51	15077
2026-01-24 01:18:50.21	359.86	9.96	-40.1	-52.4	3.8	1.49e+00	0	62	104	0	51	15156
2026-01-24 01:18:53.24	359.53	10.17	-40.0	-52.3	3.8	1.49e+00	0	62	104	0	51	14907
2026-01-24 01:18:56.26	359.19	10.37	-40.2	-52.5	3.8	1.49e+00	0	62	104	0	51	15383
2026-01-24 01:18:59.29	358.85	10.58	-40.1	-52.4	3.8	1.49e+00	0	62	104	0	51	15118
2026-01-24 01:19:02.32	358.50	10.79	-40.2	-52.6	3.8	1.49e+00	0	62	104	0	51	15471
2026-01-24 01:19:05.35	358.14	11.00	-40.0	-52.4	3.8	1.49e+00	0	62	104	0	51	15068
2026-01-24 01:19:08.38	357.78	11.21	-40.4	-52.8	3.8	1.49e+00	0	62	104	0	51	15772
2026-01-24 01:19:11.40	357.42	11.42	-40.0	-52.3	3.8	1.49e+00	0	62	104	0	51	15023
2026-01-24 01:19:14.43	357.05	11.64	-40.1	-52.4	3.8	1.49e+00	0	62	104	0	51	15076
2026-01-24 01:19:17.46	356.67	11.85	-41.3	-51.3	3.8	1.49e+00	0	62	104	0	53	11820
2026-01-24 01:19:20.48	356.29	12.06	-41.0	-49.1	4.5	1.26e+00	3	62	104	0	53	9230
2026-01-24 01:19:23.51	355.91	12.27	-41.2	-51.3	3.9	1.49e+00	0	62	104	0	53	11853
2026-01-24 01:19:26.54	355.52	12.49	-40.9	-51.4	3.8	1.49e+00	0	62	104	0	52	12730
2026-01-24 01:19:29.57	355.12	12.70	-40.8	-51.7	3.8	1.49e+00	0	62	104	0	52	13250
2026-01-24 01:19:32.60	354.71	12.92	-40.5	-52.9	3.8	1.49e+00	0	62	104	0	52	15056
2026-01-24 01:19:35.63	354.30	13.14	-40.4	-52.7	3.8	1.49e+00	0	62	104	0	52	14864
2026-01-24 01:19:38.65	353.89	13.35	-40.4	-52.7	3.8	1.49e+00	0	62	104	0	52	14745
2026-01-24 01:19:41.68	353.46	13.57	-40.6	-52.9	3.8	1.49e+00	0	62	104	0	52	15159
2026-01-24 01:19:44.71	353.03	13.78	-40.5	-52.8	3.8	1.49e+00	0	62	104	0	52	15034
2026-01-24 01:19:47.74	352.60	14.00	-40.7	-53.0	3.8	1.49e+00	0	62	104	0	52	15384
2026-01-24 01:19:50.76	352.16	14.22	-40.7	-53.0	3.8	1.49e+00	0	62	104	0	52	15327
2026-01-24 01:19:53.79	351.71	14.44	-40.7	-53.0	3.8	1.49e+00	0	62	104	0	52	15352
2026-01-24 01:19:56.82	351.25	14.65	-40.7	-53.0	3.8	1.49e+00	0	62	104	0	52	15263
2026-01-24 01:19:59.85	350.79	14.87	-40.9	-53.3	3.8	1.49e+00	0	62	104	0	52	15774
2026-01-24 01:20:02.88	350.32	15.09	-40.7	-53.1	3.8	1.49e+00	0	62	104	0	52	15409
2026-01-24 01:20:05.91	349.84	15.31	-40.8	-53.1	3.8	1.49e+00	0	62	104	0	52	15543
2026-01-24 01:20:08.94	349.35	15.53	-41.0	-53.3	3.8	1.49e+00	0	62	104	0	53	14939
2026-01-24 01:20:11.97	348.86	15.74	-41.4	-53.6	3.8	1.49e+00	0	62	104	0	53	15442
2026-01-24 01:20:15.00	348.36	15.96	-41.3	-53.6	3.8	1.49e+00	0	62	104	0	53	15525
2026-01-24 01:20:18.03	347.86	16.18	-41.4	-53.7	3.8	1.49e+00	0	62	104	0	53	15609
2026-01-24 01:20:21.06	347.34	16.40	-41.4	-53.6	3.8	1.49e+00	0	62	104	0	53	15462
2026-01-24 01:20:24.09	346.82	16.61	-41.2	-53.4	3.8	1.49e+00	0	62	104	0	53	15193
2026-01-24 01:20:27.12	346.29	16.83	-41.1	-53.3	3.8	1.49e+00	0	62	104	0	53	15043
2026-01-24 01:20:30.15	345.76	17.04	-41.0	-53.3	3.8	1.49e+00	0	62	104	0	53	14907
2026-01-24 01:20:33.18	345.21	17.26	-41.1	-53.4	3.8	1.49e+00	0	62	104	0	53	15121
2026-01-24 01:20:36.20	344.66	17.47	-40.8	-53.1	3.8	1.49e+00	0	62	104	0	53	14665
2026-01-24 01:20:39.23	344.10	17.68	-40.6	-52.9	3.8	1.49e+00	0	62	104	0	53	14295
2026-01-24 01:20:42.26	343.53	17.89	-40.7	-53.0	3.8	1.49e+00	0	62	104	0	53	14429
2026-01-24 01:20:45.28	342.96	18.10	-40.7	-53.0	3.8	1.49e+00	0	62	104	0	53	14405
2026-01-24 01:20:48.31	342.37	18.31	-40.7	-53.0	3.8	1.49e+00	0	62	104	0	53	14538
2026-01-24 01:20:51.35	341.77	18.52	-40.7	-53.0	3.8	1.49e+00	0	62	104	0	53	14436
2026-01-24 01:20:54.37	341.18	18.73	-41.1	-53.5	3.8	1.49e+00	0	62	104	0	53	15235
2026-01-24 01:20:57.40	340.57	18.93	-40.9	-52.8	3.8	1.49e+00	0	62	104	0	53	14120
2026-01-24 01:21:00.43	339.95	19.14	-41.0	-53.2	3.8	1.49e+00	0	62	104	0	53	14723
2026-01-24 01:21:03.45	339.32	19.34	-41.3	-51.6	3.8	1.47e+00	0	62	104	0	53	12255
2026-01-24 01:21:06.48	338.69	19.53	-40.3	-43.6	10.4	1.49e+00	2	62	104	3145728	52	5196
2026-01-24 01:21:09.51	338.04	19.73	-39.7	-42.5	12.0	4.47e-04	0	62	0	9437184	51	4856
2026-01-24 01:21:12.54	337.39	19.93	-39.8	-42.4	12.5	1.46e-04	0	62	0	18874368	51	4794
2026-01-24 01:21:15.57	336.73	20.12	-39.3	-41.6	13.7	9.10e-06	0	62	0	28311552	50	4605
2026-01-24 01:21:18.60	336.06	20.31	-39.2	-41.4	13.9	2.20e-06	0	62	0	37748736	50	4501
2026-01-24 01:21:21.63	335.39	20.49	-39.2	-41.4	14.0	1.50e-06	0	62	0	47185920	50	4494
2026-01-24 01:21:24.66	334.70	20.68	-39.3	-41.4	14.1	1.50e-06	0	62	0	56623104	50	4507
2026-01-24 01:21:27.69	334.01	20.86	-39.3	-41.4	14.2	3.00e-06	0	62	0	66060288	50	4522
2026-01-24 01:21:30.72	333.31	21.04	-39.4	-41.5	14.0	3.00e-06	0	62	0	75497472	50	4587
2026-01-24 01:21:33.75	332.60	21.21	-39.3	-41.5	14.2	2.20e-06	0	62	0	84934656	50	4553
2026-01-24 01:21:36.78	331.88	21.38	-39.1	-41.2	14.5	7.00e-07	0	62	0	94371840	50	4394
2026-01-24 01:21:39.81	331.15	21.55	-39.0	-41.1	14.6	0.00e+00	0	62	0	103809024	50	4342
2026-01-24 01:21:42.84	330.42	21.71	-39.1	-41.1	14.5	0.00e+00	0	62	0	113246208	50	4385
2026-01-24 01:21:45.86	329.68	21.87	-39.1	-41.1	14.6	0.00e+00	0	62	0	122683392	50	4386
2026-01-24 01:21:48.89	328.93	22.02	-39.3	-41.3	14.3	1.50e-06	0	62	0	132120576	50	4480
2026-01-24 01:21:51.92	328.17	22.17	-39.4	-41.6	14.2	7.00e-07	0	62	0	141557760	50	4605
2026-01-24 01:21:54.96	327.40	22.32	-39.4	-41.5	14.3	2.20e-06	0	62	0	150994944	50	4550
2026-01-24 01:21:57.99	326.63	22.46	-39.2	-41.3	14.5	7.00e-07	0	62	0	160432128	50	4448
2026-01-24 01:22:01.01	325.86	22.60	-39.2	-41.2	14.5	0.00e+00	0	62	0	169869312	50	4412
2026-01-24 01:22:04.04	325.07	22.73	-39.0	-41.0	14.7	0.00e+00	0	62	0	179306496	50	4292
2026-01-24 01:22:07.07	324.28	22.86	-39.2	-41.2	14.5	0.00e+00	0	62	0	188743680	49	4668
2026-01-24 01:22:10.10	323.48	22.98	-39.2	-41.2	14.5	7.00e-07	0	62	0	198180864	49	4683
2026-01-24 01:22:13.13	322.68	23.09	-39.1	-41.1	14.6	7.00e-07	0	62	0	207618048	49	4613
2026-01-24 01:22:16.16	321.87	23.20	-39.2	-41.2	14.5	0.00e+00	0	62	0	217055232	49	4690
2026-01-24 01:22:19.19	321.05	23.31	-39.3	-41.3	14.4	1.50e-06	0	62	0	226492416	49	4728
2026-01-24 01:22:22.22	320.23	23.40	-39.1	-41.1	14.6	0.00e+00	0	62	0	235929600	49	4612
2026-01-24 01:22:25.25	319.40	23.50	-39.0	-40.9	14.8	7.00e-07	0	62	0	245366784	49	4530
2026-01-24 01:22:28.28	318.57	23.58	-39.1	-41.1	14.6	7.00e-07	0	62	0	254803968	49	4621
2026-01-24 01:22:31.31	317.73	23.66	-39.2	-41.2	14.5	7.00e-07	0	62	0	264241152	49	4676
2026-01-24 01:22:34.34	316.89	23.73	-39.0	-41.0	14.7	0.00e+00	0	62	0	273678336	49	4591
2026-01-24 01:22:37.37	316.05	23.80	-39.1	-41.0	14.7	0.00e+00	0	62	0	283115520	49	4594
2026-01-24 01:22:40.39	315.20	23.86	-39.0	-41.0	14.7	7.00e-07	0	62	0	292552704	49	4583
2026-01-24 01:22:43.42	314.35	23.91	-38.8	-40.8	14.9	0.00e+00	0	62	0	301989888	49	4443
2026-01-24 01:22:46.45	313.50	23.96	-38.9	-40.8	14.9	0.00e+00	0	62	0	312475648	49	4461
2026-01-24 01:22:49.48	312.64	24.00	-38.8	-40.7	14.9	0.00e+00	0	62	0	320864256	49	4419
2026-01-24 01:22:52.50	311.79	24.03	-39.0	-40.9	14.8	0.00e+00	0	62	0	331350016	49	4530
2026-01-24 01:22:55.53	310.93	24.06	-39.0	-40.9	14.8	0.00e+00	0	62	0	339738624	49	4531
2026-01-24 01:22:58.56	310.07	24.08	-39.1	-41.2	14.6	2.20e-06	0	62	0	350224384	49	4654
2026-01-24 01:23:01.59	309.21	24.09	-39.1	-41.1	14.6	1.50e-06	0	62	0	359661568	49	4642
2026-01-24 01:23:04.63	308.34	24.10	-39.0	-41.0	14.7	7.00e-07	0	62	0	369098752	49	4595
2026-01-24 01:23:07.65	307.48	24.09	-39.1	-41.1	14.6	0.00e+00	0	62	0	378535936	49	4633
2026-01-24 01:23:10.68	306.62	24.08	-39.1	-41.2	14.5	0.00e+00	0	62	0	387973120	49	4660
2026-01-24 01:23:13.71	305.76	24.07	-39.2	-41.3	14.4	7.00e-07	0	62	0	397410304	49	4731
2026-01-24 01:23:16.74	304.90	24.05	-39.3	-41.4	14.3	3.80e-06	0	62	0	406847488	49	4797
2026-01-24 01:23:19.77	304.04	24.02	-39.1	-41.1	14.6	7.00e-07	0	62	0	416284672	49	4649
2026-01-24 01:23:22.80	303.18	23.98	-39.1	-41.1	14.6	0.00e+00	0	62	0	425721856	49	4643
2026-01-24 01:23:25.83	302.33	23.94	-39.0	-41.0	14.7	0.00e+00	0	62	0	435159040	49	4573
2026-01-24 01:23:28.86	301.47	23.88	-38.9	-40.9	14.8	7.00e-07	0	62	0	444596224	49	4511
2026-01-24 01:23:31.89	300.62	23.83	-38.9	-40.9	14.9	0.00e+00	0	62	0	454033408	49	4499
2026-01-24 01:23:34.92	299.78	23.76	-38.8	-40.8	14.9	7.00e-07	0	62	0	463470592	49	4459
2026-01-24 01:23:37.95	298.93	23.69	-38.9	-40.8	14.9	0.00e+00	0	62	0	472907776	49	4463
2026-01-24 01:23:40.98	298.09	23.62	-38.9	-40.8	14.9	0.00e+00	0	62	0	482344960	49	4482
2026-01-24 01:23:44.01	297.26	23.53	-38.9	-40.8	14.9	0.00e+00	0	62	0	491782144	49	4452
2026-01-24 01:23:47.04	296.43	23.44	-39.0	-40.9	14.8	0.00e+00	0	62	0	501219328	49	4533
2026-01-24 01:23:50.07	295.60	23.35	-39.1	-41.1	14.6	0.00e+00	0	62	0	510656512	49	4649
2026-01-24 01:23:53.10	294.78	23.25	-39.2	-41.3	14.4	0.00e+00	0	62	0	520093696	49	4739
2026-01-24 01:23:56.12	293.97	23.14	-39.2	-41.2	14.5	0.00e+00	0	62	0	529530880	49	4671
2026-01-24 01:23:59.15	293.16	23.03	-38.9	-40.8	14.9	0.00e+00	0	62	0	538968064	49	4464
2026-01-24 01:24:02.18	292.36	22.91	-38.9	-40.8	14.8	0.00e+00	0	62	0	548405248	49	4484
2026-01-24 01:24:05.21	291.56	22.78	-39.2	-41.3	14.4	2.20e-06	0	62	0	557842432	49	4729
2026-01-24 01:24:08.24	290.77	22.65	-39.1	-41.2	14.5	7.00e-07	0	62	0	567279616	49	4668
2026-01-24 01:24:11.26	289.99	22.52	-39.3	-41.4	14.3	7.00e-07	0	62	0	576716800	49	4769
2026-01-24 01:24:14.29	289.21	22.38	-39.3	-41.4	14.2	2.20e-06	0	62	0	586153984	49	4812
2026-01-24 01:24:17.32	288.44	22.24	-39.3	-41.4	14.3	2.20e-06	0	62	0	595591168	49	4787
2026-01-24 01:24:20.36	287.68	22.09	-39.4	-41.5	14.1	2.20e-06	0	62	0	605028352	49	4848
2026-01-24 01:24:23.38	286.93	21.93	-39.4	-41.5	14.1	3.80e-06	0	62	0	614465536	49	4855
2026-01-24 01:24:26.41	286.18	21.78	-39.3	-41.4	14.3	7.00e-07	0	62	0	623902720	49	4766
2026-01-24 01:24:29.44	285.44	21.61	-39.8	-42.1	13.6	1.14e-05	0	62	0	633339904	50	4872
2026-01-24 01:24:32.46	284.71	21.45	-39.8	-42.2	13.5	1.06e-05	0	62	0	642777088	50	4944
2026-01-24 01:24:35.49	283.98	21.28	-39.6	-41.9	13.8	3.00e-06	0	62	0	653262848	50	4760
2026-01-24 01:24:38.52	283.27	21.11	-39.7	-41.9	13.7	5.30e-06	0	62	0	661651456	50	4792
2026-01-24 01:24:41.55	282.56	20.93	-39.9	-42.3	13.3	1.90e-05	0	62	0	672137216	50	5040
2026-01-24 01:24:44.58	281.86	20.75	-39.8	-42.1	13.5	1.37e-05	0	62	0	680525824	50	4888
2026-01-24 01:24:47.61	281.17	20.57	-39.5	-41.6	14.0	3.00e-06	0	62	0	691011584	50	4645
2026-01-24 01:24:50.64	280.48	20.38	-39.5	-41.7	13.9	3.80e-06	0	62	0	700448768	50	4664
2026-01-24 01:24:53.67	279.81	20.19	-39.3	-41.5	14.1	7.00e-07	0	62	0	709885952	50	4547
2026-01-24 01:24:56.70	279.14	20.00	-39.2	-41.2	14.4	2.20e-06	0	62	0	719323136	50	4424
2026-01-24 01:24:59.73	278.48	19.80	-39.2	-41.3	14.3	2.20e-06	0	62	0	728760320	50	4456
2026-01-24 01:25:02.76	277.83	19.61	-39.4	-41.5	14.1	2.20e-06	0	62	0	738197504	50	4593
2026-01-24 01:25:05.79	277.19	19.41	-39.3	-41.4	14.2	3.00e-06	0	62	0	747634688	50	4521
2026-01-24 01:25:08.82	276.56	19.21	-39.3	-41.5	14.1	7.00e-07	0	62	0	757071872	50	4559
2026-01-24 01:25:11.85	275.93	19.01	-39.5	-41.7	13.9	4.50e-06	0	62	0	766509056	50	4701
2026-01-24 01:25:14.88	275.32	18.80	-39.8	-42.1	13.5	1.14e-05	0	62	0	775946240	50	4881
2026-01-24 01:25:17.91	274.71	18.59	-39.8	-42.2	13.4	1.83e-05	0	62	0	785383424	50	4941
2026-01-24 01:25:20.94	274.11	18.39	-39.6	-41.9	13.7	9.10e-06	0	62	0	794820608	50	4773
2026-01-24 01:25:23.97	273.52	18.18	-39.3	-41.4	14.1	3.80e-06	0	62	0	804257792	50	4541
2026-01-24 01:25:27.00	272.93	17.97	-39.3	-41.4	14.1	2.20e-06	0	62	0	813694976	50	4517
2026-01-24 01:25:30.03	272.36	17.75	-39.3	-41.5	13.9	3.00e-06	0	62	0	823132160	50	4577
2026-01-24 01:25:33.05	271.79	17.54	-39.6	-41.8	13.6	8.30e-06	0	62	0	832569344	50	4748
2026-01-24 01:25:36.08	271.23	17.33	-39.9	-42.4	13.1	2.51e-05	0	62	0	842006528	50	5056
2026-01-24 01:25:39.11	270.68	17.11	-39.9	-42.4	13.1	3.05e-05	0	62	0	851443712	50	5059
2026-01-24 01:25:42.14	270.14	16.90	-39.8	-42.2	13.3	2.28e-05	0	62	0	860880896	50	4941
2026-01-24 01:25:45.17	269.60	16.68	-39.4	-41.7	13.8	6.80e-06	0	62	0	870318080	50	4664
2026-01-24 01:25:48.20	269.07	16.46	-39.2	-41.3	14.1	3.00e-06	0	62	0	879755264	50	4491
2026-01-24 01:25:51.23	268.55	16.25	-39.2	-41.3	14.1	7.00e-07	0	62	0	889192448	50	4492
2026-01-24 01:25:54.25	268.04	16.03	-39.5	-41.8	13.6	7.60e-06	0	62	0	898629632	50	4716
2026-01-24 01:25:57.28	267.54	15.81	-39.8	-42.3	13.1	2.44e-05	0	62	0	908066816	50	4991
2026-01-24 01:26:00.31	267.04	15.59	-40.0	-42.5	13.0	4.27e-05	0	62	0	917504000	50	5122
2026-01-24 01:26:03.34	266.55	15.37	-40.0	-42.6	12.9	4.65e-05	0	62	0	926941184	50	5162
2026-01-24 01:26:06.37	266.06	15.15	-39.8	-42.2	13.2	2.67e-05	0	62	0	936378368	50	4962
2026-01-24 01:26:09.40	265.59	14.93	-39.6	-41.9	13.5	1.44e-05	0	62	0	945815552	50	4809
2026-01-24 01:26:12.42	265.12	14.72	-39.8	-42.1	13.2	1.98e-05	0	62	0	955252736	50	4918
2026-01-24 01:26:15.45	264.66	14.50	-40.1	-42.7	12.7	5.56e-05	0	62	0	964689920	50	5227
2026-01-24 01:26:18.48	264.20	14.28	-40.0	-42.5	12.9	6.56e-05	0	62	0	974127104	50	5158
2026-01-24 01:26:21.51	263.75	14.06	-39.5	-41.7	13.7	6.10e-06	0	62	0	983564288	50	4679
2026-01-24 01:26:24.54	263.31	13.84	-39.4	-41.7	13.8	5.30e-06	0	62	0	994050048	50	4659
2026-01-24 01:26:27.57	262.87	13.62	-39.7	-42.1	13.3	1.29e-05	0	62	0	1002438656	50	4898
2026-01-24 01:26:30.60	262.44	13.41	-40.0	-42.5	12.8	6.86e-05	0	62	0	1012924416	50	5158
2026-01-24 01:26:33.63	262.02	13.19	-40.1	-42.8	12.6	1.04e-04	0	62	0	1021313024	50	5282
2026-01-24 01:26:36.65	261.61	12.97	-40.1	-42.8	12.6	9.61e-05	0	62	0	1031798784	50	5283
2026-01-24 01:26:39.68	261.20	12.75	-40.1	-42.7	12.6	9.15e-05	0	62	0	1041235968	50	5277
2026-01-24 01:26:42.71	260.79	12.54	-40.2	-42.9	12.4	1.30e-04	0	62	0	1050673152	50	5348
2026-01-24 01:26:45.74	260.39	12.32	-40.1	-42.8	12.5	1.27e-04	0	62	0	1060110336	50	5288
2026-01-24 01:26:48.77	260.00	12.11	-40.3	-43.0	12.2	2.09e-04	0	62	0	1069547520	51	5118
2026-01-24 01:26:51.80	259.61	11.89	-40.2	-42.9	12.3	1.75e-04	0	62	0	1078984704	51	5093
2026-01-24 01:26:54.83	259.23	11.68	-40.3	-43.1	12.2	1.77e-04	0	62	0	1088421888	51	5164
2026-01-24 01:26:57.86	258.86	11.47	-40.3	-43.0	12.1	2.23e-04	0	62	0	1097859072	51	5149
2026-01-24 01:27:00.89	258.49	11.25	-40.1	-42.8	12.3	1.85e-04	0	62	0	1107296256	51	5003
2026-01-24 01:27:03.91	258.12	11.04	-40.0	-42.7	12.5	1.28e-04	0	62	0	1116733440	51	4933
2026-01-24 01:27:06.94	257.76	10.83	-40.2	-42.9	12.2	2.23e-04	0	62	0	1126170624	51	5098
2026-01-24 01:27:09.97	257.41	10.62	-40.4	-43.3	11.8	3.58e-04	0	62	0	1135607808	51	5300
2026-01-24 01:27:13.00	257.06	10.41	-40.6	-43.6	11.5	7.55e-04	0	62	0	1145044992	51	5495
2026-01-24 01:27:16.03	256.72	10.20	-40.6	-43.7	11.4	9.64e-04	0	62	0	1154482176	51	5573
2026-01-24 01:27:19.05	256.38	10.00	-40.4	-43.3	11.8	5.60e-04	0	62	0	1163919360	51	5340
2026-01-24 01:27:22.09	256.04	9.79	-40.3	-43.2	11.9	4.36e-04	0	62	0	1173356544	51	5224
2026-01-24 01:27:25.12	255.71	9.58	-40.2	-43.0	12.0	3.02e-04	0	62	0	1182793728	51	5155
2026-01-24 01:27:28.15	255.39	9.38	-40.4	-43.3	11.7	4.65e-04	0	62	0	1192230912	51	5318
2026-01-24 01:27:31.18	255.07	9.17	-40.6	-43.7	11.4	1.04e-03	0	62	0	1201668096	51	5553
2026-01-24 01:27:34.21	254.75	8.97	-40.7	-43.9	11.0	1.88e-03	0	62	0	1211105280	52	5400
2026-01-24 01:27:37.24	254.44	8.76	-40.8	-44.1	10.8	2.61e-03	0	62	0	1220542464	52	5477
2026-01-24 01:27:40.27	254.14	8.56	-40.7	-43.9	10.9	2.16e-03	0	62	0	1229979648	52	5374
2026-01-24 01:27:43.30	253.83	8.36	-40.7	-43.9	10.9	2.32e-03	0	62	0	1239416832	52	5355
2026-01-24 01:27:46.33	253.54	8.16	-40.4	-43.4	11.4	9.94e-04	0	62	0	1248854016	52	5093
2026-01-24 01:27:49.36	253.24	7.96	-44.5	-56.6	3.8	1.49e+00	0	62	104	1256194048	59	15402
2026-01-24 01:27:52.40	252.95	7.76	-45.0	-57.4	3.8	1.49e+00	0	62	104	1256194048	60	16072
2026-01-24 01:27:55.43	252.66	7.56	-45.1	-57.6	3.8	1.49e+00	0	62	104	1256194048	60	16351
2026-01-24 01:27:58.46	252.38	7.36	-45.2	-57.6	3.8	1.49e+00	0	62	104	1256194048	60	16322
2026-01-24 01:28:01.49	252.10	7.17	-45.1	-57.5	3.8	1.49e+00	0	62	104	1256194048	60	16200
2026-01-24 01:28:04.52	251.83	6.97	-45.2	-57.5	3.8	1.49e+00	0	62	104	1256194048	60	16263
2026-01-24 01:28:07.56	251.56	6.78	-45.0	-57.4	3.8	1.49e+00	0	62	104	1256194048	60	16109
2026-01-24 01:28:10.59	251.29	6.58	-45.1	-57.4	3.8	1.49e+00	0	62	104	1256194048	60	16075
2026-01-24 01:28:13.62	251.03	6.39	-45.0	-57.4	3.8	1.49e+00	0	62	104	1256194048	60	15998
2026-01-24 01:28:16.65	250.77	6.20	-45.0	-57.4	3.8	1.49e+00	0	62	104	1256194048	60	16117
2026-01-24 01:28:19.68	250.51	6.01	-45.0	-57.4	3.8	1.49e+00	0	62	104	1256194048	60	15996
2026-01-24 01:28:22.71	250.26	5.82	-45.0	-57.4	3.8	1.49e+00	0	62	104	1256194048	60	16020
2026-01-24 01:28:25.75	250.01	5.63	-45.0	-57.4	3.8	1.49e+00	0	62	104	1256194048	60	16013
2026-01-24 01:28:28.78	249.76	5.44	-45.0	-57.4	3.8	1.49e+00	0	62	104	1256194048	60	16039
2026-01-24 01:28:31.81	249.52	5.25	-45.0	-57.4	3.8	1.49e+00	0	62	104	1256194048	60	16012
2026-01-24 01:28:34.85	249.28	5.06	-45.0	-57.4	3.8	1.49e+00	0	62	104	1256194048	60	15988
2026-01-24 01:28:37.88	249.04	4.88	-45.0	-57.4	3.8	1.49e+00	0	62	104	1256194048	60	15985
2026-01-24 01:28:40.91	248.81	4.69	-45.0	-57.4	3.8	1.49e+00	0	62	104	1256194048	60	16015
2026-01-24 01:28:43.94	248.58	4.51	-45.0	-57.4	3.8	1.49e+00	0	62	104	1256194048	60	15989
2026-01-24 01:28:46.97	248.35	4.32	-45.0	-57.4	3.8	1.49e+00	0	62	104	1256194048	60	15955
2026-01-24 01:28:50.00	248.13	4.14	-45.0	-57.4	3.8	1.49e+00	0	62	104	1256194048	60	16051
2026-01-24 01:28:53.04	247.90	3.96	-45.0	-57.4	3.8	1.49e+00	0	62	104	1256194048	60	16051
2026-01-24 01:28:56.07	247.69	3.78	-45.0	-57.3	3.8	1.49e+00	0	62	104	1256194048	60	15885
2026-01-24 01:28:59.10	247.47	3.60	-45.0	-57.4	3.8	1.49e+00	0	62	104	1256194048	60	15981
2026-01-24 01:29:02.13	247.26	3.42	-45.0	-57.4	3.8	1.49e+00	0	62	104	1256194048	60	16020
2026-01-24 01:29:05.16	247.05	3.24	-45.0	-57.4	3.8	1.49e+00	0	62	104	1256194048	60	15972
2026-01-24 01:29:08.19	246.84	3.06	-45.0	-57.4	3.8	1.49e+00	0	62	104	1256194048	60	15963
2026-01-24 01:29:11.23	246.63	2.88	-45.0	-57.4	3.8	1.49e+00	0	62	104	1256194048	60	16013
2026-01-24 01:29:14.26	246.43	2.71	-45.0	-57.3	3.8	1.49e+00	0	62	104	1256194048	60	15928
2026-01-24 01:29:17.29	246.23	2.53	-45.0	-57.4	3.8	1.49e+00	0	62	104	1256194048	60	16006
2026-01-24 01:29:20.32	246.03	2.36	-45.0	-57.4	3.8	1.49e+00	0	62	104	1256194048	60	15961
2026-01-24 01:29:23.35	245.83	2.18	-45.0	-57.3	3.8	1.49e+00	0	62	104	1256194048	60	15915
2026-01-24 01:29:26.38	245.64	2.01	-45.0	-57.4	3.8	1.49e+00	0	62	104	1256194048	60	15957

#Closed at: 2026-01-24 01:29:28
#Recorded file [1256 MB]: D:/lorett/data/31039_260124_041743.dat