passes_logs/2026/01/24/R2.0S_Moscow/R2.0S_Moscow__20260124_014631_SUOMI_NPP_rec.log

#Pass ID: 20260124_014631_SUOMI NPP
#Satellite: SUOMI NPP
#Configuration: NPP
#almurnet v.1.7.20251203
#Start time: 2026-01-24 01:48:42

#Version: 2.2.20231116
#Station: R2.0S_Moscow
#Location: 37.707566 lon 55.798166 lat
#TLE: 1 37849U 11061A   26022.92790088  .00000200  00000+0  11571-3 0  9994
#TLE: 2 37849  98.7820 324.9085 0002258  50.1112 310.0263 14.19528452737839

#Time	Az	El	Level	Level2	SNR	BER	BlckErr	Temp	State	Recorded	gain1	gain2
2026-01-24 01:48:42.97	356.22	9.28	-46.1	-64.6	3.8	7.43e-01	0	61	0	0	63	30860
2026-01-24 01:48:46.00	355.83	9.45	-45.3	-59.9	3.8	1.49e+00	0	61	104	0	62	19102
2026-01-24 01:48:49.03	355.43	9.63	-45.2	-59.8	3.8	1.49e+00	0	61	104	0	62	18841
2026-01-24 01:48:52.06	355.03	9.80	-42.1	-56.6	3.8	1.49e+00	0	61	104	0	56	18439
2026-01-24 01:48:55.09	354.63	9.97	-41.1	-55.6	3.8	1.49e+00	0	61	104	0	54	18378
2026-01-24 01:48:58.12	354.22	10.14	-40.9	-55.4	3.9	1.49e+00	0	61	104	0	53	19051
2026-01-24 01:49:01.15	353.80	10.31	-40.9	-55.4	3.9	1.49e+00	0	61	104	0	53	19037
2026-01-24 01:49:04.19	353.38	10.49	-40.8	-55.4	3.8	1.49e+00	0	61	104	0	53	19109
2026-01-24 01:49:07.22	352.96	10.66	-40.9	-55.4	3.8	1.49e+00	0	61	104	0	53	19130
2026-01-24 01:49:10.25	352.52	10.83	-40.9	-55.5	3.8	1.49e+00	0	61	104	0	53	19224
2026-01-24 01:49:13.28	352.09	11.00	-40.8	-55.4	3.8	1.49e+00	0	62	104	0	53	19110
2026-01-24 01:49:16.31	351.65	11.17	-40.8	-55.4	3.9	1.49e+00	0	61	104	0	53	18978
2026-01-24 01:49:19.35	351.20	11.34	-40.9	-55.4	3.8	1.49e+00	0	62	104	0	53	18998
2026-01-24 01:49:22.38	350.75	11.51	-40.8	-55.5	3.8	1.49e+00	0	61	104	0	53	19229
2026-01-24 01:49:25.41	350.29	11.68	-41.0	-55.5	3.8	1.49e+00	0	61	104	0	53	19368
2026-01-24 01:49:28.44	349.83	11.84	-41.0	-55.5	3.8	1.49e+00	0	62	104	0	53	19353
2026-01-24 01:49:31.47	349.36	12.01	-41.0	-55.5	3.8	1.49e+00	0	61	104	0	53	19351
2026-01-24 01:49:34.50	348.89	12.18	-41.0	-55.5	3.8	1.49e+00	0	61	104	0	53	19337
2026-01-24 01:49:37.53	348.41	12.34	-41.0	-55.5	3.8	1.49e+00	0	61	104	0	53	19380
2026-01-24 01:49:40.56	347.93	12.51	-41.1	-55.6	3.8	1.49e+00	0	61	104	0	53	19555
2026-01-24 01:49:43.59	347.44	12.67	-41.2	-55.7	3.8	1.49e+00	0	61	104	0	53	19688
2026-01-24 01:49:46.62	346.94	12.83	-41.3	-55.8	3.8	1.49e+00	0	61	104	0	53	19853
2026-01-24 01:49:49.64	346.44	12.99	-41.2	-55.7	3.8	1.49e+00	0	62	104	0	53	19831
2026-01-24 01:49:52.67	345.94	13.15	-40.8	-55.3	3.8	1.49e+00	0	62	104	0	53	18935
2026-01-24 01:49:55.70	345.43	13.31	-40.8	-55.3	3.8	1.49e+00	0	61	104	0	53	18867
2026-01-24 01:49:58.73	344.91	13.47	-40.7	-55.3	3.8	1.49e+00	0	61	104	0	53	18745
2026-01-24 01:50:01.76	344.38	13.63	-41.0	-55.5	3.8	1.49e+00	0	61	104	0	53	19228
2026-01-24 01:50:04.79	343.86	13.78	-40.7	-55.2	3.8	1.49e+00	0	61	104	0	53	18688
2026-01-24 01:50:07.81	343.32	13.94	-40.7	-55.2	3.8	1.49e+00	0	61	104	0	53	18555
2026-01-24 01:50:10.84	342.78	14.09	-40.7	-55.2	3.8	1.49e+00	0	61	104	0	53	18568
2026-01-24 01:50:13.87	342.24	14.24	-40.7	-55.2	3.8	1.49e+00	0	62	104	0	53	18618
2026-01-24 01:50:16.90	341.69	14.39	-40.7	-55.2	3.8	1.49e+00	0	62	104	0	53	18630
2026-01-24 01:50:19.93	341.13	14.53	-40.7	-55.2	3.8	1.49e+00	0	61	104	0	52	19725
2026-01-24 01:50:22.96	340.57	14.68	-40.8	-55.3	3.8	1.49e+00	0	62	104	0	52	20002
2026-01-24 01:50:25.99	340.00	14.82	-40.7	-55.2	3.8	1.49e+00	0	61	104	0	53	18638
2026-01-24 01:50:29.02	339.42	14.96	-42.3	-52.6	4.4	1.43e+00	0	61	0	0	55	12281
2026-01-24 01:50:32.04	338.85	15.10	-40.9	-47.0	8.4	7.68e-02	0	61	0	3145728	53	7225
2026-01-24 01:50:35.07	338.26	15.24	-40.5	-45.1	10.8	2.06e-03	0	61	0	8388608	52	6180
2026-01-24 01:50:38.10	337.67	15.37	-41.0	-45.8	10.5	3.45e-03	0	61	0	14680064	52	6663
2026-01-24 01:50:41.13	337.08	15.50	-40.8	-44.8	12.0	2.80e-04	0	61	0	19922944	52	5970
2026-01-24 01:50:44.16	336.48	15.63	-41.0	-45.1	11.9	3.55e-04	0	61	0	26214400	53	5811
2026-01-24 01:50:47.19	335.87	15.76	-41.1	-45.1	12.1	3.78e-04	0	61	0	31457280	53	5825
2026-01-24 01:50:50.21	335.26	15.89	-41.0	-44.8	12.5	9.84e-05	0	61	0	36700160	53	5601
2026-01-24 01:50:53.24	334.64	16.01	-41.0	-44.7	12.7	5.79e-05	0	62	0	42991616	53	5589
2026-01-24 01:50:56.27	334.02	16.13	-41.2	-45.1	12.3	1.91e-04	0	61	0	48234496	53	5810
2026-01-24 01:50:59.30	333.40	16.24	-41.0	-44.5	13.0	4.42e-05	0	61	0	54525952	53	5463
2026-01-24 01:51:02.33	332.76	16.36	-41.1	-44.6	12.9	2.74e-05	0	61	0	59768832	53	5502
2026-01-24 01:51:05.36	332.13	16.47	-41.5	-45.6	12.0	2.39e-04	0	62	0	65011712	53	6148
2026-01-24 01:51:08.38	331.49	16.57	-41.4	-45.3	12.2	2.35e-04	0	61	0	71303168	53	5966
2026-01-24 01:51:11.41	330.84	16.68	-41.1	-44.7	12.9	5.26e-05	0	61	0	76546048	53	5586
2026-01-24 01:51:14.44	330.19	16.78	-41.2	-44.8	12.8	6.56e-05	0	61	0	82837504	53	5618
2026-01-24 01:51:17.47	329.54	16.88	-40.7	-43.9	13.7	9.90e-06	0	62	0	88080384	53	5077
2026-01-24 01:51:20.50	328.88	16.97	-40.6	-43.7	13.9	5.30e-06	0	61	0	94371840	53	4966
2026-01-24 01:51:23.53	328.22	17.06	-41.0	-44.3	13.4	1.22e-05	0	62	0	99614720	53	5314
2026-01-24 01:51:26.56	327.55	17.15	-41.1	-44.6	13.1	2.82e-05	0	62	0	104857600	53	5497
2026-01-24 01:51:29.58	326.88	17.23	-41.1	-44.5	13.2	2.05e-05	0	61	0	111149056	53	5423
2026-01-24 01:51:32.61	326.21	17.31	-41.2	-44.7	12.9	4.27e-05	0	62	0	116391936	53	5576
2026-01-24 01:51:35.64	325.53	17.38	-41.5	-45.4	12.3	1.26e-04	0	61	0	122683392	53	6012
2026-01-24 01:51:38.67	324.85	17.45	-41.3	-44.8	12.8	6.94e-05	0	61	0	127926272	53	5652
2026-01-24 01:51:41.70	324.17	17.52	-41.3	-45.0	12.7	5.49e-05	0	62	0	133169152	53	5745
2026-01-24 01:51:44.73	323.48	17.58	-41.6	-45.6	12.1	1.90e-04	0	62	0	139460608	53	6175
2026-01-24 01:51:47.76	322.79	17.64	-41.4	-45.2	12.5	1.48e-04	0	62	0	144703488	53	5879
2026-01-24 01:51:50.78	322.10	17.70	-41.1	-44.6	13.2	1.90e-05	0	62	0	150994944	53	5480
2026-01-24 01:51:53.81	321.40	17.75	-41.4	-45.1	12.6	6.94e-05	0	61	0	156237824	53	5804
2026-01-24 01:51:56.84	320.71	17.80	-41.5	-45.3	12.4	1.22e-04	0	62	0	162529280	53	5930
2026-01-24 01:51:59.86	320.01	17.84	-41.3	-44.9	12.8	5.26e-05	0	61	0	167772160	53	5698
2026-01-24 01:52:02.89	319.31	17.88	-41.5	-45.4	12.2	1.99e-04	0	61	0	173015040	53	6045
2026-01-24 01:52:05.92	318.60	17.91	-42.1	-46.8	10.8	1.78e-03	0	62	0	179306496	54	6684
2026-01-24 01:52:08.94	317.90	17.94	-42.1	-46.8	10.8	2.55e-03	0	61	0	184549376	55	6332
2026-01-24 01:52:11.97	317.20	17.96	-41.9	-46.4	11.3	1.13e-03	0	62	0	190840832	55	6004
2026-01-24 01:52:15.00	316.49	17.98	-41.7	-45.9	11.7	5.89e-04	0	62	0	196083712	55	5718
2026-01-24 01:52:18.03	315.78	18.00	-41.6	-45.8	11.9	2.87e-04	0	62	0	201326592	55	5594
2026-01-24 01:52:21.05	315.07	18.01	-41.6	-45.6	12.1	2.74e-04	0	61	0	207618048	55	5476
2026-01-24 01:52:24.08	314.36	18.02	-41.1	-44.7	13.0	5.34e-05	0	62	0	212860928	54	5271
2026-01-24 01:52:27.11	313.66	18.02	-41.1	-44.7	13.0	3.28e-05	0	62	0	219152384	53	5546
2026-01-24 01:52:30.14	312.95	18.02	-41.4	-45.2	12.5	9.76e-05	0	62	0	224395264	53	5875
2026-01-24 01:52:33.17	312.24	18.01	-41.8	-46.0	11.7	4.81e-04	0	62	0	229638144	54	6080
2026-01-24 01:52:36.20	311.53	18.00	-41.6	-45.7	12.0	3.87e-04	0	61	0	235929600	54	5864
2026-01-24 01:52:39.22	310.82	17.99	-41.5	-45.3	12.4	1.74e-04	0	61	0	241172480	54	5609
2026-01-24 01:52:42.25	310.11	17.97	-41.4	-45.2	12.5	9.46e-05	0	61	0	247463936	54	5556
2026-01-24 01:52:45.28	309.41	17.94	-41.9	-46.3	11.4	1.10e-03	0	62	0	252706816	54	6299
2026-01-24 01:52:48.31	308.70	17.91	-42.2	-46.9	10.7	3.12e-03	0	61	0	258998272	55	6394
2026-01-24 01:52:51.33	308.00	17.88	-42.0	-46.5	11.1	2.23e-03	0	61	0	264241152	55	6114
2026-01-24 01:52:54.36	307.30	17.84	-41.5	-45.4	12.2	3.57e-04	0	61	0	269484032	55	5389
2026-01-24 01:52:57.39	306.60	17.80	-41.4	-45.2	12.4	1.14e-04	0	61	0	275775488	54	5591
2026-01-24 01:53:00.42	305.90	17.75	-41.3	-44.9	12.7	8.08e-05	0	61	0	281018368	54	5399
2026-01-24 01:53:03.45	305.20	17.70	-41.2	-44.8	12.9	4.57e-05	0	61	0	287309824	54	5319
2026-01-24 01:53:06.47	304.51	17.65	-41.6	-45.3	12.4	8.01e-05	0	61	0	292552704	54	5624
2026-01-24 01:53:09.50	303.82	17.59	-41.2	-44.6	13.2	4.19e-05	0	61	0	297795584	54	5217
2026-01-24 01:53:12.53	303.13	17.52	-40.9	-44.0	13.8	8.30e-06	0	61	0	304087040	53	5118
2026-01-24 01:53:15.56	302.45	17.46	-40.9	-44.0	13.8	5.30e-06	0	61	0	309329920	53	5124
2026-01-24 01:53:18.59	301.76	17.39	-40.9	-44.0	13.7	5.30e-06	0	61	0	315621376	53	5133
2026-01-24 01:53:21.62	301.09	17.31	-41.0	-44.3	13.4	6.80e-06	0	61	0	320864256	53	5313
2026-01-24 01:53:24.64	300.41	17.23	-41.2	-44.7	13.0	3.35e-05	0	61	0	327155712	53	5565
2026-01-24 01:53:27.67	299.74	17.15	-41.3	-44.9	12.8	8.85e-05	0	62	0	332398592	53	5709
2026-01-24 01:53:30.70	299.07	17.06	-41.4	-45.1	12.6	6.79e-05	0	62	0	337641472	53	5826
2026-01-24 01:53:33.73	298.41	16.97	-41.6	-45.4	12.3	1.94e-04	0	61	0	343932928	53	6052
2026-01-24 01:53:36.76	297.75	16.88	-41.8	-45.7	11.9	4.49e-04	0	61	0	349175808	54	5920
2026-01-24 01:53:39.78	297.09	16.78	-41.8	-45.7	11.9	3.47e-04	0	61	0	355467264	54	5908
2026-01-24 01:53:42.81	296.44	16.68	-41.8	-45.8	11.9	3.47e-04	0	61	0	360710144	54	5929
2026-01-24 01:53:45.84	295.80	16.58	-41.6	-45.4	12.2	2.44e-04	0	62	0	365953024	54	5704
2026-01-24 01:53:48.87	295.15	16.47	-41.7	-45.7	12.0	1.96e-04	0	61	0	372244480	54	5860
2026-01-24 01:53:51.90	294.51	16.36	-41.9	-46.1	11.4	7.15e-04	0	61	0	377487360	54	6182
2026-01-24 01:53:54.93	293.88	16.25	-41.8	-45.8	11.8	5.16e-04	0	61	0	383778816	54	5969
2026-01-24 01:53:57.95	293.26	16.13	-41.6	-45.5	12.1	3.99e-04	0	61	0	389021696	54	5762
2026-01-24 01:54:00.98	292.63	16.01	-41.6	-45.5	12.0	3.23e-04	0	61	0	395313152	54	5749
2026-01-24 01:54:04.01	292.01	15.89	-41.4	-45.2	12.3	2.17e-04	0	61	0	400556032	54	5547
2026-01-24 01:54:07.04	291.40	15.76	-41.3	-45.0	12.5	1.50e-04	0	61	0	405798912	54	5460
2026-01-24 01:54:10.07	290.79	15.64	-41.1	-44.5	13.0	5.56e-05	0	61	0	412090368	54	5147
2026-01-24 01:54:13.10	290.19	15.51	-40.9	-44.2	13.4	1.98e-05	0	62	0	417333248	53	5239
2026-01-24 01:54:16.13	289.59	15.37	-41.1	-44.6	12.9	3.28e-05	0	62	0	423624704	53	5500
2026-01-24 01:54:19.16	289.00	15.24	-41.3	-45.2	12.2	1.92e-04	0	62	0	428867584	53	5859
2026-01-24 01:54:22.18	288.41	15.10	-41.8	-46.2	11.2	1.10e-03	0	62	0	434110464	54	6244
2026-01-24 01:54:25.21	287.83	14.96	-41.9	-46.4	11.0	2.24e-03	0	62	0	440401920	54	6349
2026-01-24 01:54:28.24	287.26	14.82	-41.7	-46.0	11.3	1.09e-03	0	62	0	445644800	54	6080
2026-01-24 01:54:31.27	286.69	14.68	-41.7	-46.0	11.3	1.27e-03	0	61	0	451936256	54	6084
2026-01-24 01:54:34.30	286.12	14.53	-41.8	-46.2	11.0	1.69e-03	0	61	0	457179136	54	6256
2026-01-24 01:54:37.33	285.56	14.39	-41.5	-45.6	11.6	9.96e-04	0	62	0	463470592	54	5851
2026-01-24 01:54:40.35	285.01	14.24	-41.5	-45.6	11.6	7.07e-04	0	62	0	468713472	54	5839
2026-01-24 01:54:43.38	284.46	14.09	-41.5	-45.6	11.6	7.86e-04	0	62	0	473956352	54	5815
2026-01-24 01:54:46.41	283.92	13.93	-41.2	-45.0	12.3	1.88e-04	0	61	0	480247808	54	5414
2026-01-24 01:54:49.44	283.38	13.78	-41.3	-45.3	11.9	2.75e-04	0	62	0	485490688	54	5593
2026-01-24 01:54:52.47	282.85	13.63	-41.6	-45.8	11.4	8.49e-04	0	62	0	491782144	54	5937
2026-01-24 01:54:55.50	282.32	13.47	-41.5	-45.7	11.5	1.15e-03	0	61	0	497025024	54	5906
2026-01-24 01:54:58.53	281.80	13.31	-41.6	-45.9	11.3	9.71e-04	0	61	0	502267904	54	6059
2026-01-24 01:55:01.56	281.29	13.15	-41.6	-45.8	11.4	8.72e-04	0	62	0	508559360	54	5939
2026-01-24 01:55:04.59	280.78	12.99	-41.9	-46.6	10.5	2.89e-03	0	61	0	513802240	54	6546
2026-01-24 01:55:07.62	280.28	12.83	-42.5	-48.5	8.6	2.46e-02	0	61	0	520093696	55	7645
2026-01-24 01:55:10.65	279.78	12.67	-42.9	-49.5	7.6	9.21e-02	0	62	0	525336576	56	8170
2026-01-24 01:55:13.67	279.29	12.50	-42.7	-48.7	8.4	4.74e-02	0	62	0	530579456	56	7406
2026-01-24 01:55:16.70	278.80	12.34	-42.6	-48.5	8.5	3.53e-02	0	62	0	536870912	56	7273
2026-01-24 01:55:19.73	278.32	12.17	-42.4	-47.9	9.3	2.26e-02	0	61	0	542113792	56	6724
2026-01-24 01:55:22.76	277.85	12.00	-42.0	-46.8	10.3	6.17e-03	0	62	0	548405248	56	5990
2026-01-24 01:55:25.79	277.38	11.84	-41.9	-46.9	10.0	6.93e-03	0	62	0	553648128	55	6349
2026-01-24 01:55:28.82	276.91	11.67	-41.9	-47.0	9.8	9.86e-03	0	62	0	559939584	55	6484
2026-01-24 01:55:31.84	276.45	11.50	-41.8	-46.8	9.9	9.24e-03	0	61	0	565182464	55	6329
2026-01-24 01:55:34.87	276.00	11.33	-41.7	-46.5	10.1	5.77e-03	0	62	0	570425344	55	6131
2026-01-24 01:55:37.90	275.55	11.16	-41.6	-46.5	10.1	7.48e-03	0	62	0	576716800	55	6108
2026-01-24 01:55:40.93	275.11	10.99	-41.7	-46.8	9.7	9.15e-03	0	62	0	581959680	55	6299
2026-01-24 01:55:43.96	274.67	10.82	-41.7	-47.2	9.2	1.94e-02	0	62	0	588251136	55	6601
2026-01-24 01:55:46.99	274.23	10.65	-41.7	-47.6	8.7	3.69e-02	0	62	0	593494016	55	6880
2026-01-24 01:55:50.01	273.81	10.48	-41.7	-47.7	8.5	4.45e-02	0	62	0	598736896	55	6965
2026-01-24 01:55:53.04	273.38	10.31	-41.7	-47.8	8.2	6.18e-02	0	62	0	605028352	55	7119
2026-01-24 01:55:56.07	272.96	10.13	-41.7	-48.0	7.9	6.49e-02	0	62	0	610271232	55	7226
2026-01-24 01:55:59.10	272.55	9.96	-41.5	-48.1	7.6	9.21e-02	0	62	0	616562688	55	7328
2026-01-24 01:56:02.12	272.14	9.79	-41.3	-47.7	7.9	7.40e-02	0	61	0	621805568	54	7444
2026-01-24 01:56:05.15	271.74	9.62	-41.2	-47.4	8.1	6.19e-02	0	61	0	628097024	54	7183
2026-01-24 01:56:08.18	271.34	9.44	-41.2	-47.6	7.8	7.65e-02	0	62	0	633339904	54	7350
2026-01-24 01:56:11.21	270.95	9.27	-41.2	-47.8	7.6	9.73e-02	0	62	0	638582784	54	7483
2026-01-24 01:56:14.24	270.56	9.10	-41.1	-48.0	7.2	1.41e-01	0	61	0	644874240	54	7703
2026-01-24 01:56:17.26	270.18	8.93	-40.2	-52.3	3.9	1.46e+00	0	62	104	649068544	52	14053
2026-01-24 01:56:20.29	269.80	8.75	-41.3	-49.5	5.8	3.61e-01	0	62	0	653262848	53	9683
2026-01-24 01:56:23.32	269.42	8.58	-41.2	-50.4	5.1	5.93e-01	0	62	0	658505728	53	10730
2026-01-24 01:56:26.35	269.05	8.41	-41.1	-51.6	4.4	9.67e-01	0	61	0	663748608	53	12325
2026-01-24 01:56:29.37	268.69	8.23	-41.0	-54.2	3.8	1.49e+00	0	62	104	663748608	53	16642
2026-01-24 01:56:32.40	268.32	8.06	-40.3	-53.8	3.8	1.49e+00	0	61	104	663748608	51	17730
2026-01-24 01:56:35.44	267.96	7.89	-44.6	-59.4	3.8	1.49e+00	0	61	104	663748608	60	20138
2026-01-24 01:56:38.46	267.61	7.71	-45.1	-59.8	3.8	1.49e+00	0	62	104	663748608	60	21108
2026-01-24 01:56:41.49	267.26	7.54	-45.2	-59.8	3.8	1.49e+00	0	62	104	663748608	60	21223
2026-01-24 01:56:44.53	266.92	7.37	-45.2	-59.8	3.8	1.49e+00	0	62	104	663748608	61	19993
2026-01-24 01:56:47.56	266.58	7.20	-45.1	-59.7	3.8	1.49e+00	0	62	104	663748608	61	19771
2026-01-24 01:56:50.59	266.24	7.02	-45.1	-59.7	3.8	1.49e+00	0	62	104	663748608	61	19711
2026-01-24 01:56:53.62	265.91	6.85	-45.1	-59.7	3.8	1.49e+00	0	61	104	663748608	61	19617
2026-01-24 01:56:56.65	265.58	6.68	-45.1	-59.7	3.8	1.49e+00	0	62	104	663748608	61	19715
2026-01-24 01:56:59.68	265.25	6.51	-45.1	-59.7	3.8	1.49e+00	0	62	104	663748608	61	19708
2026-01-24 01:57:02.72	264.93	6.34	-45.1	-59.7	3.8	1.49e+00	0	62	104	663748608	61	19639
2026-01-24 01:57:05.75	264.61	6.17	-45.1	-59.7	3.8	1.49e+00	0	61	104	663748608	61	19628
2026-01-24 01:57:08.78	264.30	6.00	-45.1	-59.6	3.8	1.49e+00	0	62	104	663748608	61	19599
2026-01-24 01:57:11.81	263.99	5.83	-45.1	-59.7	3.8	1.49e+00	0	62	104	663748608	61	19634
2026-01-24 01:57:14.84	263.69	5.66	-45.1	-59.6	3.8	1.49e+00	0	62	104	663748608	61	19588
2026-01-24 01:57:17.87	263.38	5.49	-45.1	-59.6	3.8	1.49e+00	0	62	104	663748608	61	19599
2026-01-24 01:57:20.91	263.08	5.32	-45.1	-59.7	3.8	1.49e+00	0	62	104	663748608	61	19683
2026-01-24 01:57:23.94	262.79	5.15	-45.1	-59.6	3.8	1.49e+00	0	62	104	663748608	61	19574
2026-01-24 01:57:26.97	262.50	4.98	-45.1	-59.7	3.8	1.49e+00	0	62	104	663748608	61	19635
2026-01-24 01:57:30.00	262.21	4.81	-45.0	-59.6	3.8	1.49e+00	0	61	104	663748608	61	19594
2026-01-24 01:57:33.03	261.92	4.65	-45.0	-59.6	3.8	1.49e+00	0	62	104	663748608	61	19555
2026-01-24 01:57:36.06	261.64	4.48	-45.1	-59.6	3.8	1.49e+00	0	62	104	663748608	61	19566
2026-01-24 01:57:39.10	261.36	4.31	-45.0	-59.6	3.8	1.49e+00	0	61	104	663748608	61	19508
2026-01-24 01:57:42.13	261.09	4.15	-45.1	-59.6	3.8	1.49e+00	0	61	104	663748608	61	19580
2026-01-24 01:57:45.16	260.82	3.98	-45.0	-59.6	3.8	1.49e+00	0	62	104	663748608	61	19563
2026-01-24 01:57:48.19	260.55	3.81	-45.0	-59.6	3.8	1.49e+00	0	62	104	663748608	61	19542
2026-01-24 01:57:51.22	260.28	3.65	-45.0	-59.6	3.8	1.49e+00	0	62	104	663748608	61	19596
2026-01-24 01:57:54.25	260.02	3.49	-45.0	-59.6	3.8	1.49e+00	0	61	104	663748608	61	19601
2026-01-24 01:57:57.28	259.76	3.32	-45.0	-59.6	3.8	1.49e+00	0	61	104	663748608	61	19532
2026-01-24 01:58:00.32	259.50	3.16	-45.0	-59.6	3.8	1.49e+00	0	62	104	663748608	61	19545
2026-01-24 01:58:03.35	259.25	2.99	-45.0	-59.6	3.8	1.49e+00	0	62	104	663748608	61	19538
2026-01-24 01:58:06.38	259.00	2.83	-45.0	-59.6	3.8	1.49e+00	0	62	104	663748608	61	19498
2026-01-24 01:58:09.41	258.75	2.67	-45.0	-59.6	3.8	1.49e+00	0	62	104	663748608	61	19574
2026-01-24 01:58:12.44	258.50	2.51	-45.0	-59.6	3.8	1.49e+00	0	62	104	663748608	61	19553
2026-01-24 01:58:15.47	258.26	2.34	-45.0	-59.6	3.8	1.49e+00	0	61	104	663748608	61	19515
2026-01-24 01:58:18.50	258.02	2.18	-45.0	-59.6	3.8	1.49e+00	0	62	104	663748608	61	19598
2026-01-24 01:58:21.54	257.78	2.02	-45.0	-59.6	3.8	1.49e+00	0	62	104	663748608	61	19532

#Closed at: 2026-01-24 01:58:24
#Recorded file [663 MB]: D:/lorett/data/31039_260124_044842.dat