passes_logs/2026/01/24/R2.0S_Moscow/R2.0S_Moscow__20260124_183011_FENGYUN_3G_rec.log

#Pass ID: 20260124_183011_FENGYUN 3G
#Satellite: FENGYUN 3G
#Configuration: FENGYUN 3G
#almurnet v.1.7.20251203
#Start time: 2026-01-24 18:30:11

#Version: 2.2.20231116
#Station: R2.0S_Moscow
#Location: 37.707566 lon 55.798166 lat
#TLE: 1 56232U 23055A   26024.24521059  .00049620  00000+0  74824-3 0  9993
#TLE: 2 56232  49.9947   8.2107 0004117  75.2128 284.9296 15.54221826157636

#Time	Az	El	Level	Level2	SNR	BER	BlckErr	Temp	State	Recorded	gain1	gain2
2026-01-24 18:30:11.55	236.69	2.02	-44.1	-62.2	3.8	8.47e-01	0	51	0	0	60	27993
2026-01-24 18:30:14.58	236.48	2.22	-44.1	-62.2	3.8	8.45e-01	0	52	104	0	60	27737
2026-01-24 18:30:17.61	236.26	2.42	-44.1	-62.2	3.8	8.47e-01	0	52	104	0	60	27812
2026-01-24 18:30:20.64	236.03	2.61	-44.1	-62.3	3.8	8.46e-01	0	52	104	0	60	28037
2026-01-24 18:30:23.67	235.80	2.82	-44.1	-62.2	3.8	8.47e-01	0	52	104	0	60	27816
2026-01-24 18:30:26.70	235.56	3.02	-44.1	-62.1	3.8	8.46e-01	0	53	104	0	60	27568
2026-01-24 18:30:29.73	235.32	3.23	-44.1	-62.1	3.8	8.46e-01	0	53	104	0	60	27474
2026-01-24 18:30:32.76	235.08	3.43	-44.1	-62.1	3.8	8.46e-01	0	53	104	0	60	27564
2026-01-24 18:30:35.80	234.83	3.64	-44.1	-62.2	3.8	8.46e-01	0	53	104	0	60	27945
2026-01-24 18:30:38.83	234.57	3.85	-44.1	-62.2	3.8	8.46e-01	0	53	104	0	60	27972
2026-01-24 18:30:41.86	234.31	4.07	-44.1	-62.2	3.8	8.45e-01	0	53	104	0	60	27715
2026-01-24 18:30:44.89	234.04	4.28	-44.1	-62.2	3.8	8.46e-01	0	54	104	0	60	27782
2026-01-24 18:30:47.93	233.77	4.50	-44.1	-62.0	3.8	8.47e-01	0	54	104	0	60	27280
2026-01-24 18:30:50.96	233.49	4.72	-44.1	-61.1	3.8	8.47e-01	0	54	104	0	60	24465
2026-01-24 18:30:53.99	233.21	4.95	-44.1	-61.2	3.8	8.46e-01	0	54	104	0	60	24976
2026-01-24 18:30:57.02	232.91	5.17	-44.1	-61.7	3.8	8.46e-01	0	55	104	0	60	26372
2026-01-24 18:31:00.04	232.62	5.40	-44.1	-61.2	3.8	8.47e-01	0	55	104	0	60	24730
2026-01-24 18:31:03.04	232.32	5.62	-44.1	-59.5	4.0	8.45e-01	0	55	0	0	59	21529
2026-01-24 18:31:06.08	232.00	5.86	-44.1	-58.4	4.3	8.38e-01	0	55	0	0	59	19014
2026-01-24 18:31:09.11	231.68	6.09	-44.0	-58.1	4.3	8.31e-01	0	55	0	0	59	18428
2026-01-24 18:31:12.14	231.36	6.33	-44.0	-57.1	4.7	8.26e-01	0	55	0	0	59	16485
2026-01-24 18:31:15.17	231.02	6.57	-43.7	-53.6	7.3	5.73e-01	0	55	0	1572864	59	10981
2026-01-24 18:31:18.20	230.68	6.81	-43.2	-50.6	10.4	3.97e-02	0	56	0	4718592	58	8270
2026-01-24 18:31:21.24	230.33	7.06	-43.4	-51.5	9.6	4.49e-03	0	56	0	8388608	58	9071
2026-01-24 18:31:24.27	229.97	7.31	-44.1	-59.2	4.1	9.37e-02	0	56	0	11010048	58	22028
2026-01-24 18:31:27.30	229.60	7.56	-43.5	-52.1	8.7	8.43e-01	0	56	0	12058624	58	9799
2026-01-24 18:31:30.33	229.23	7.81	-41.7	-46.4	14.5	4.11e-05	0	56	0	15204352	55	6054
2026-01-24 18:31:33.36	228.84	8.07	-41.4	-45.8	15.3	1.10e-06	0	56	0	18874368	54	5971
2026-01-24 18:31:36.39	228.44	8.33	-43.1	-50.5	9.5	5.82e-02	0	56	0	22020096	58	8152
2026-01-24 18:31:39.42	228.04	8.59	-40.8	-44.5	16.6	2.54e-01	0	56	0	25165824	53	5404
2026-01-24 18:31:42.45	227.62	8.86	-40.7	-44.4	16.7	0.00e+00	0	57	0	28311552	53	5401
2026-01-24 18:31:45.47	227.20	9.13	-40.7	-44.3	16.8	0.00e+00	0	56	0	31981568	53	5339
2026-01-24 18:31:48.50	226.76	9.40	-40.5	-44.0	17.2	0.00e+00	0	57	0	35127296	53	5140
2026-01-24 18:31:51.53	226.31	9.68	-40.6	-44.0	17.2	0.00e+00	0	57	0	38797312	52	5450
2026-01-24 18:31:54.56	225.85	9.96	-40.5	-44.0	17.3	0.00e+00	0	57	0	41943040	52	5416
2026-01-24 18:31:57.59	225.37	10.24	-40.6	-44.1	17.1	0.00e+00	0	57	0	45613056	52	5484
2026-01-24 18:32:00.62	224.89	10.53	-40.5	-43.9	17.4	0.00e+00	0	57	0	48758784	52	5358
2026-01-24 18:32:03.64	224.39	10.82	-40.3	-43.5	17.8	0.00e+00	0	57	0	52428800	52	5104
2026-01-24 18:32:06.67	223.87	11.11	-40.2	-43.4	17.9	0.00e+00	0	57	0	55574528	52	5082
2026-01-24 18:32:09.70	223.35	11.41	-40.1	-43.2	18.2	0.00e+00	0	57	0	59244544	52	4930
2026-01-24 18:32:12.73	222.80	11.71	-40.1	-43.2	18.2	0.00e+00	0	57	0	62390272	52	4961
2026-01-24 18:32:15.75	222.25	12.01	-40.0	-42.9	18.6	0.00e+00	0	57	0	66060288	51	5068
2026-01-24 18:32:18.79	221.67	12.32	-39.7	-42.5	19.0	0.00e+00	0	57	0	69206016	51	4846
2026-01-24 18:32:21.82	221.08	12.63	-39.8	-42.6	18.9	0.00e+00	0	58	0	72876032	51	4889
2026-01-24 18:32:24.85	220.48	12.95	-39.8	-42.6	18.9	0.00e+00	0	58	0	76021760	51	4910
2026-01-24 18:32:27.87	219.86	13.27	-39.7	-42.4	19.1	0.00e+00	0	58	0	79691776	51	4804
2026-01-24 18:32:30.90	219.22	13.59	-39.7	-42.4	19.2	0.00e+00	0	58	0	82837504	51	4788
2026-01-24 18:32:33.93	218.56	13.91	-39.4	-42.0	19.6	0.00e+00	0	58	0	86507520	50	4859
2026-01-24 18:32:36.96	217.88	14.24	-39.4	-42.0	19.6	0.00e+00	0	58	0	89653248	50	4860
2026-01-24 18:32:39.99	217.18	14.57	-39.5	-42.1	19.5	0.00e+00	0	58	0	93323264	50	4908
2026-01-24 18:32:43.01	216.46	14.91	-39.0	-41.4	20.2	0.00e+00	0	58	0	96468992	50	4527
2026-01-24 18:32:46.04	215.72	15.24	-38.8	-41.2	20.4	0.00e+00	0	58	0	100139008	49	4669
2026-01-24 18:32:49.07	214.96	15.59	-39.0	-41.5	20.2	0.00e+00	0	58	0	103284736	49	4817
2026-01-24 18:32:52.10	214.18	15.93	-39.0	-41.4	20.3	0.00e+00	0	58	0	106954752	49	4763
2026-01-24 18:32:55.13	213.37	16.27	-38.6	-40.9	20.8	0.00e+00	0	58	0	110100480	48	4761
2026-01-24 18:32:58.16	212.54	16.62	-38.6	-40.9	20.8	0.00e+00	0	58	0	113770496	48	4786
2026-01-24 18:33:01.18	211.68	16.97	-38.8	-41.1	20.6	0.00e+00	0	58	0	116916224	48	4886
2026-01-24 18:33:04.21	210.80	17.32	-38.6	-40.8	20.8	0.00e+00	0	58	0	120586240	48	4747
2026-01-24 18:33:07.24	209.90	17.67	-38.3	-40.5	21.1	0.00e+00	0	58	0	123731968	48	4582
2026-01-24 18:33:10.27	208.96	18.03	-38.2	-40.3	21.4	0.00e+00	0	58	0	127401984	48	4460
2026-01-24 18:33:13.30	208.00	18.38	-38.4	-40.6	21.1	0.00e+00	0	58	0	130547712	48	4621
2026-01-24 18:33:16.33	207.01	18.74	-38.5	-40.7	21.0	0.00e+00	0	58	0	134217728	48	4684
2026-01-24 18:33:19.36	205.99	19.09	-38.3	-40.5	21.2	0.00e+00	0	59	0	137363456	48	4547
2026-01-24 18:33:22.38	204.95	19.44	-37.9	-40.0	21.7	0.00e+00	0	59	0	141033472	47	4586
2026-01-24 18:33:25.41	203.87	19.79	-38.1	-40.3	21.4	0.00e+00	0	59	0	144179200	47	4712
2026-01-24 18:33:28.44	202.76	20.14	-38.2	-40.4	21.2	0.00e+00	0	58	0	147849216	47	4807
2026-01-24 18:33:31.47	201.63	20.48	-37.6	-39.6	22.1	0.00e+00	0	59	0	150994944	47	4360
2026-01-24 18:33:34.50	200.46	20.82	-37.4	-39.3	22.4	0.00e+00	0	59	0	154664960	46	4482
2026-01-24 18:33:37.53	199.26	21.16	-37.4	-39.4	22.3	0.00e+00	0	59	0	157810688	46	4495
2026-01-24 18:33:40.56	198.03	21.49	-37.5	-39.5	22.2	0.00e+00	0	59	0	161480704	46	4564
2026-01-24 18:33:43.59	196.76	21.81	-37.5	-39.5	22.2	0.00e+00	0	59	0	164626432	46	4590
2026-01-24 18:33:46.61	195.47	22.13	-37.7	-39.7	22.0	0.00e+00	0	59	0	168296448	46	4669
2026-01-24 18:33:49.64	194.15	22.44	-37.6	-39.7	22.1	0.00e+00	0	59	0	171442176	46	4652
2026-01-24 18:33:52.67	192.79	22.73	-37.2	-39.1	22.6	0.00e+00	0	59	0	175112192	46	4390
2026-01-24 18:33:55.70	191.40	23.02	-37.3	-39.3	22.5	0.00e+00	0	59	0	178257920	46	4451
2026-01-24 18:33:58.73	189.99	23.30	-37.0	-38.9	22.8	0.00e+00	0	59	0	181927936	46	4274
2026-01-24 18:34:01.76	188.54	23.56	-37.1	-39.0	22.7	0.00e+00	0	59	0	185073664	46	4312
2026-01-24 18:34:04.78	187.07	23.81	-37.3	-39.2	22.4	0.00e+00	0	59	0	188743680	46	4427
2026-01-24 18:34:07.81	185.57	24.04	-37.1	-38.9	22.7	0.00e+00	0	59	0	191889408	46	4285
2026-01-24 18:34:10.84	184.05	24.26	-37.3	-39.2	22.5	0.00e+00	0	59	0	195559424	46	4431
2026-01-24 18:34:13.87	182.50	24.46	-37.4	-39.3	22.5	0.00e+00	0	59	0	198705152	46	4472
2026-01-24 18:34:16.90	180.92	24.64	-37.7	-39.7	22.0	0.00e+00	0	59	0	202375168	46	4673
2026-01-24 18:34:19.93	179.33	24.80	-37.5	-39.5	22.2	0.00e+00	0	59	0	205520896	46	4560
2026-01-24 18:34:22.96	177.72	24.95	-37.6	-39.6	22.1	0.00e+00	0	59	0	209190912	46	4632
2026-01-24 18:34:25.99	176.10	25.07	-37.3	-39.2	22.6	0.00e+00	0	59	0	212336640	46	4414
2026-01-24 18:34:29.02	174.46	25.17	-37.3	-39.2	22.7	0.00e+00	0	59	0	216006656	46	4430
2026-01-24 18:34:32.05	172.81	25.24	-36.6	-38.4	23.4	0.00e+00	0	59	0	219152384	45	4263
2026-01-24 18:34:35.08	171.15	25.30	-36.4	-38.1	23.7	0.00e+00	0	59	0	222822400	44	4355
2026-01-24 18:34:38.10	169.50	25.33	-36.9	-38.7	23.2	0.00e+00	0	59	0	225968128	44	4659
2026-01-24 18:34:41.13	167.83	25.34	-37.6	-39.5	22.4	0.00e+00	0	59	0	229638144	45	4863
2026-01-24 18:34:44.16	166.17	25.33	-37.3	-39.2	22.8	0.00e+00	0	60	0	232783872	45	4672
2026-01-24 18:34:47.19	164.51	25.29	-36.9	-38.7	23.3	0.00e+00	0	60	0	236453888	45	4398
2026-01-24 18:34:50.22	162.85	25.23	-36.8	-38.7	23.2	0.00e+00	0	60	0	239599616	45	4397
2026-01-24 18:34:53.25	161.21	25.15	-37.1	-38.9	23.0	0.00e+00	0	60	0	243269632	44	4810
2026-01-24 18:34:56.28	159.57	25.04	-37.6	-39.6	22.3	0.00e+00	0	59	0	246415360	45	4915
2026-01-24 18:34:59.31	157.95	24.92	-37.2	-39.1	22.8	0.00e+00	0	59	0	250085376	45	4646
2026-01-24 18:35:02.33	156.35	24.77	-37.8	-39.9	22.3	0.00e+00	0	59	0	253231104	46	4761
2026-01-24 18:35:05.36	154.76	24.60	-37.8	-39.8	22.2	0.00e+00	0	59	0	256901120	46	4742
2026-01-24 18:35:08.39	153.20	24.42	-37.4	-39.4	22.6	0.00e+00	0	59	0	260046848	46	4519
2026-01-24 18:35:11.42	151.65	24.22	-37.6	-39.6	22.5	0.00e+00	0	60	0	263716864	46	4622
2026-01-24 18:35:14.45	150.14	24.00	-37.1	-39.1	23.0	0.00e+00	0	60	0	266862592	46	4344
2026-01-24 18:35:17.48	148.64	23.76	-37.0	-38.8	23.2	0.00e+00	0	60	0	270532608	45	4486
2026-01-24 18:35:20.50	147.18	23.51	-37.4	-39.3	22.7	0.00e+00	0	60	0	273678336	45	4748
2026-01-24 18:35:23.53	145.74	23.24	-37.1	-39.0	23.0	0.00e+00	0	59	0	277348352	45	4566
2026-01-24 18:35:26.56	144.33	22.97	-37.7	-39.7	22.3	0.00e+00	0	60	0	280494080	45	4975
2026-01-24 18:35:29.60	142.95	22.67	-37.4	-39.4	22.6	0.00e+00	0	60	0	284164096	46	4504
2026-01-24 18:35:32.62	141.60	22.38	-37.6	-39.6	22.5	0.00e+00	0	60	0	287309824	46	4610
2026-01-24 18:35:35.65	140.29	22.07	-38.0	-40.2	21.8	0.00e+00	0	60	0	290979840	46	4939
2026-01-24 18:35:38.68	139.00	21.75	-37.3	-39.2	22.8	0.00e+00	0	60	0	294125568	46	4436
2026-01-24 18:35:41.71	137.75	21.42	-37.6	-39.6	22.4	0.00e+00	0	60	0	297795584	46	4638
2026-01-24 18:35:44.74	136.52	21.09	-38.1	-40.3	21.7	0.00e+00	0	60	0	300941312	46	5028
2026-01-24 18:35:47.77	135.33	20.76	-38.1	-40.2	21.7	0.00e+00	0	60	0	304611328	47	4698
2026-01-24 18:35:50.80	134.17	20.42	-38.0	-40.1	21.8	0.00e+00	0	60	0	307757056	47	4630
2026-01-24 18:35:53.82	133.04	20.07	-38.0	-40.2	21.8	0.00e+00	0	60	0	311427072	47	4659
2026-01-24 18:35:56.85	131.94	19.72	-37.8	-40.0	21.9	0.00e+00	0	60	0	314572800	46	4860
2026-01-24 18:35:59.88	130.88	19.37	-38.3	-40.5	21.4	0.00e+00	0	60	0	318242816	47	4840
2026-01-24 18:36:02.92	129.83	19.02	-38.1	-40.3	21.5	1.94e-05	0	60	0	321388544	46	5023
2026-01-24 18:36:05.94	128.83	18.67	-38.3	-40.6	21.2	8.00e-06	0	60	0	325058560	47	4912
2026-01-24 18:36:08.98	127.84	18.32	-38.3	-40.5	20.8	0.00e+00	0	60	0	328204288	47	4843
2026-01-24 18:36:12.00	126.89	17.96	-37.9	-40.3	21.2	0.00e+00	0	60	0	331874304	46	5038
2026-01-24 18:36:15.03	125.96	17.61	-38.5	-40.8	21.0	0.00e+00	0	60	0	335020032	47	5025
2026-01-24 18:36:18.06	125.06	17.26	-38.7	-41.1	20.6	0.00e+00	0	60	0	338690048	47	5164
2026-01-24 18:36:21.09	124.19	16.91	-38.8	-41.3	20.4	0.00e+00	0	60	0	341835776	48	4989
2026-01-24 18:36:24.12	123.34	16.56	-38.9	-41.4	20.3	0.00e+00	0	60	0	345505792	48	5073
2026-01-24 18:36:27.14	122.52	16.22	-36.3	-40.7	20.2	0.00e+00	0	60	0	348651520	46	5233
2026-01-24 18:36:30.17	121.71	15.87	-38.1	-41.6	19.9	1.10e-06	0	60	0	352321536	48	5193
2026-01-24 18:36:33.20	120.94	15.53	-38.9	-41.7	19.1	2.17e-05	0	60	0	355467264	48	5219
2026-01-24 18:36:36.23	120.18	15.19	-37.6	-41.5	18.9	1.25e-04	0	60	0	359137280	47	5429
2026-01-24 18:36:39.26	119.45	14.85	-38.8	-41.9	18.6	3.00e-04	0	60	0	362283008	48	5393
2026-01-24 18:36:42.29	118.73	14.52	-38.9	-42.4	16.8	4.21e-04	0	60	0	365953024	47	6061
2026-01-24 18:36:45.31	118.04	14.19	-38.2	-42.2	16.0	1.29e-03	0	60	0	369098752	44	7027
2026-01-24 18:36:48.34	117.37	13.86	-36.2	-41.7	17.3	6.87e-04	0	60	0	372768768	43	7007
2026-01-24 18:36:51.38	116.71	13.54	-37.0	-42.5	16.4	3.21e-03	0	60	0	375914496	41	8658
2026-01-24 18:36:54.41	116.08	13.22	-37.1	-43.0	15.8	1.10e-02	0	60	0	379584512	44	7653
2026-01-24 18:36:57.43	115.46	12.90	-35.0	-42.3	17.0	1.37e-03	0	60	0	382730240	43	7542
2026-01-24 18:37:00.46	114.86	12.59	-38.0	-42.7	17.3	6.14e-04	0	60	0	386400256	44	7435
2026-01-24 18:37:03.49	114.27	12.28	-38.0	-43.1	17.0	4.31e-04	0	60	0	389545984	47	6560
2026-01-24 18:37:06.52	113.71	11.97	-37.4	-43.1	16.0	3.34e-03	0	60	0	393216000	47	6517
2026-01-24 18:37:09.55	113.15	11.67	-33.9	-43.0	13.3	4.00e-03	0	60	0	396361728	41	9119
2026-01-24 18:37:12.58	112.61	11.37	-36.5	-43.0	15.1	2.86e-02	0	60	0	400031744	44	7702
2026-01-24 18:37:15.61	112.09	11.07	-36.1	-43.4	13.7	1.63e-02	0	60	0	403177472	43	8506
2026-01-24 18:37:18.64	111.58	10.78	-34.4	-45.8	11.0	5.21e-02	0	60	0	406847488	42	11836
2026-01-24 18:37:21.67	111.09	10.49	-35.4	-45.5	10.8	7.26e-02	0	60	0	409993216	41	12191
2026-01-24 18:37:24.70	110.60	10.21	-35.4	-43.3	12.7	3.37e-02	0	60	0	413663232	40	10008
2026-01-24 18:37:27.72	110.13	9.93	-34.4	-44.1	12.4	4.07e-02	0	60	0	416808960	43	9245
2026-01-24 18:37:30.75	109.68	9.65	-33.2	-44.5	12.2	5.40e-02	0	60	0	420478976	42	10269
2026-01-24 18:37:33.78	109.23	9.37	-35.4	-44.2	12.9	2.93e-02	0	60	0	423624704	42	9875
2026-01-24 18:37:36.81	108.79	9.10	-36.3	-44.5	11.7	2.76e-02	0	60	0	427294720	43	9715
2026-01-24 18:37:39.83	108.37	8.83	-36.3	-44.0	14.5	1.38e-02	0	60	0	430440448	45	8143
2026-01-24 18:37:42.86	107.96	8.57	-35.9	-45.1	13.3	8.23e-03	0	60	0	434110464	45	9225
2026-01-24 18:37:45.89	107.56	8.30	-36.6	-44.8	12.3	7.46e-03	0	60	0	437256192	46	8373
2026-01-24 18:37:48.92	107.16	8.04	-38.5	-46.5	10.8	3.58e-03	0	61	0	440926208	46	10236
2026-01-24 18:37:51.95	106.78	7.79	-44.9	-63.2	3.8	8.43e-01	0	60	104	441450496	60	31119
2026-01-24 18:37:54.98	106.41	7.53	-45.4	-63.8	3.8	8.46e-01	0	60	104	441450496	61	31450
2026-01-24 18:37:58.01	106.04	7.28	-45.8	-64.2	3.8	8.47e-01	0	60	104	441450496	62	31105
2026-01-24 18:38:01.04	105.68	7.04	-45.6	-63.9	3.8	8.46e-01	0	60	104	441450496	62	30098
2026-01-24 18:38:04.08	105.34	6.79	-45.5	-63.6	3.8	8.47e-01	0	60	104	441450496	62	29227
2026-01-24 18:38:07.11	105.00	6.55	-45.3	-63.4	3.8	8.46e-01	0	60	104	441450496	62	28508
2026-01-24 18:38:10.14	104.66	6.31	-45.2	-63.4	3.8	8.46e-01	0	60	104	441450496	62	28409
2026-01-24 18:38:13.17	104.34	6.07	-45.3	-63.3	3.8	8.46e-01	0	60	104	441450496	61	29998
2026-01-24 18:38:16.20	104.02	5.84	-45.3	-63.3	3.8	8.46e-01	0	60	104	441450496	61	29977
2026-01-24 18:38:19.23	103.71	5.61	-45.2	-63.3	3.8	8.46e-01	0	60	104	441450496	61	29933
2026-01-24 18:38:22.26	103.41	5.38	-45.2	-63.3	3.8	8.46e-01	0	61	104	441450496	61	29886
2026-01-24 18:38:25.29	103.12	5.15	-45.2	-63.3	3.8	8.46e-01	0	61	104	441450496	61	29893
2026-01-24 18:38:28.32	102.83	4.93	-45.2	-63.3	3.8	8.46e-01	0	61	104	441450496	61	29935
2026-01-24 18:38:31.36	102.54	4.71	-45.2	-63.3	3.8	8.48e-01	0	60	104	441450496	61	29870
2026-01-24 18:38:34.39	102.27	4.49	-45.2	-63.3	3.8	8.46e-01	0	61	104	441450496	61	29919
2026-01-24 18:38:37.42	102.00	4.27	-45.2	-63.3	3.8	8.45e-01	0	61	104	441450496	61	29906
2026-01-24 18:38:40.45	101.73	4.05	-45.2	-63.3	3.8	8.46e-01	0	61	104	441450496	61	29825
2026-01-24 18:38:43.48	101.47	3.84	-45.2	-63.3	3.8	8.46e-01	0	61	104	441450496	61	29857
2026-01-24 18:38:46.52	101.22	3.63	-45.2	-63.3	3.8	8.47e-01	0	61	104	441450496	61	29767
2026-01-24 18:38:49.55	100.97	3.42	-45.2	-63.3	3.8	8.47e-01	0	60	104	441450496	61	29744
2026-01-24 18:38:52.58	100.73	3.21	-45.2	-63.3	3.8	8.46e-01	0	61	104	441450496	61	29787
2026-01-24 18:38:55.61	100.49	3.01	-45.2	-63.3	3.8	8.46e-01	0	61	104	441450496	61	29708
2026-01-24 18:38:58.64	100.25	2.81	-45.2	-63.3	3.8	8.47e-01	0	60	104	441450496	60	31510
2026-01-24 18:39:01.68	100.02	2.60	-45.2	-63.3	3.8	8.47e-01	0	61	104	441450496	60	31572
2026-01-24 18:39:04.71	99.80	2.40	-45.2	-63.3	3.8	8.46e-01	0	61	104	441450496	60	31532
2026-01-24 18:39:07.74	99.58	2.21	-45.2	-63.3	3.8	8.45e-01	0	61	104	441450496	60	31489
2026-01-24 18:39:10.77	99.37	2.01	-45.2	-63.3	3.8	8.47e-01	0	61	104	441450496	60	31515

#Closed at: 2026-01-24 18:39:13
#Recorded file [441 MB]: D:/lorett/data/31039_260124_213011.dat