passes_logs/2026/01/24/R2.0S_Moscow/R2.0S_Moscow__20260124_042657_FENGYUN_3E_rec.log

#Pass ID: 20260124_042657_FENGYUN 3E
#Satellite: FENGYUN 3E
#Configuration: FENGYUN 3E
#almurnet v.1.7.20251203
#Start time: 2026-01-24 04:26:58

#Version: 2.2.20231116
#Station: R2.0S_Moscow
#Location: 37.707566 lon 55.798166 lat
#TLE: 1 49008U 21062A   26022.96857035  .00000014  00000+0  27449-4 0  9991
#TLE: 2 49008  98.7488  28.0032 0002359 122.8887 237.2516 14.19886951235971

#Time	Az	El	Level	Level2	SNR	BER	BlckErr	Temp	State	Recorded	gain1	gain2
2026-01-24 04:26:58.30	14.06	2.07	-42.6	-53.5	3.8	8.45e-01	0	52	0	0	56	12216
2026-01-24 04:27:02.34	13.98	2.32	-42.6	-53.5	3.8	8.47e-01	0	53	104	0	56	12217
2026-01-24 04:27:06.38	13.91	2.58	-42.6	-53.6	3.8	8.46e-01	0	53	104	0	56	12248
2026-01-24 04:27:10.43	13.83	2.84	-42.6	-53.5	3.8	8.46e-01	0	54	104	0	56	12187
2026-01-24 04:27:14.47	13.76	3.11	-42.6	-53.5	3.8	8.45e-01	0	54	104	0	56	12117
2026-01-24 04:27:18.51	13.68	3.38	-42.6	-53.4	3.8	8.45e-01	0	54	104	0	56	12086
2026-01-24 04:27:22.55	13.60	3.65	-42.6	-53.2	3.8	8.47e-01	0	54	104	0	56	11799
2026-01-24 04:27:26.60	13.51	3.92	-42.5	-53.0	3.8	8.48e-01	0	54	104	0	56	11502
2026-01-24 04:27:30.64	13.43	4.19	-42.3	-52.3	3.8	8.46e-01	0	55	104	0	55	11215
2026-01-24 04:27:34.68	13.34	4.47	-42.2	-51.8	3.8	8.46e-01	0	55	104	0	55	10620
2026-01-24 04:27:38.73	13.25	4.75	-42.2	-51.9	3.8	8.46e-01	0	55	104	0	55	10729
2026-01-24 04:27:42.77	13.16	5.03	-42.3	-52.1	3.8	8.46e-01	0	55	104	0	55	10985
2026-01-24 04:27:46.81	13.07	5.32	-42.1	-51.1	3.9	8.45e-01	0	55	104	0	55	9723
2026-01-24 04:27:50.85	12.97	5.61	-42.0	-50.3	4.0	8.41e-01	0	56	0	0	55	8958
2026-01-24 04:27:54.89	12.87	5.90	-41.9	-49.9	4.2	8.37e-01	0	56	0	0	54	8967
2026-01-24 04:27:58.93	12.77	6.20	-42.2	-51.8	3.8	8.46e-01	0	57	104	0	54	11277
2026-01-24 04:28:02.97	12.67	6.49	-42.3	-52.7	3.8	8.46e-01	0	56	104	0	54	12490
2026-01-24 04:28:07.01	12.57	6.80	-41.2	-46.9	5.5	7.38e-01	0	57	0	0	53	6766
2026-01-24 04:28:11.06	12.46	7.10	-39.3	-42.5	9.7	1.45e-02	0	57	0	27262976	49	5105
2026-01-24 04:28:15.10	12.35	7.41	-38.1	-40.5	11.6	9.75e-04	0	57	0	56623104	47	4579
2026-01-24 04:28:19.15	12.24	7.73	-38.0	-40.4	11.7	6.04e-04	0	57	0	85983232	46	4795
2026-01-24 04:28:23.19	12.12	8.04	-39.0	-42.0	10.0	8.70e-03	0	57	0	114294784	47	5462
2026-01-24 04:28:27.24	12.00	8.36	-38.0	-40.4	11.7	1.30e-03	0	57	0	143654912	46	4786
2026-01-24 04:28:31.27	11.88	8.69	-37.8	-40.2	11.9	3.48e-04	0	58	0	166723584	46	4656
2026-01-24 04:28:35.32	11.75	9.02	-37.8	-40.2	11.8	5.03e-04	0	58	0	195035136	46	4683
2026-01-24 04:28:39.36	11.63	9.35	-38.0	-40.5	11.5	7.13e-04	0	58	0	224395264	46	4834
2026-01-24 04:28:43.40	11.50	9.69	-38.0	-40.4	11.6	5.47e-04	0	58	0	253755392	46	4793
2026-01-24 04:28:47.43	11.36	10.03	-37.9	-40.3	11.8	3.11e-04	0	58	0	283115520	46	4706
2026-01-24 04:28:51.47	11.22	10.37	-38.3	-41.0	10.9	1.48e-03	0	58	0	312475648	46	5117
2026-01-24 04:28:55.51	11.08	10.72	-39.0	-42.0	9.8	7.90e-03	0	58	0	341835776	47	5427
2026-01-24 04:28:59.54	10.93	11.08	-38.9	-41.8	10.3	4.55e-03	0	58	0	370147328	47	5314
2026-01-24 04:29:03.58	10.78	11.44	-38.4	-40.9	11.5	5.70e-04	0	59	0	399507456	47	4787
2026-01-24 04:29:07.62	10.63	11.81	-37.6	-39.6	13.2	2.86e-05	0	59	0	428867584	46	4386
2026-01-24 04:29:11.66	10.47	12.18	-37.1	-38.9	14.3	2.20e-06	0	59	0	458227712	45	4259
2026-01-24 04:29:15.70	10.31	12.55	-37.1	-38.8	14.6	0.00e+00	0	59	0	487587840	45	4232
2026-01-24 04:29:19.73	10.14	12.94	-37.6	-39.4	14.3	0.00e+00	0	59	0	515899392	45	4517
2026-01-24 04:29:23.77	9.97	13.33	-36.9	-38.5	15.3	0.00e+00	0	59	0	545259520	44	4292
2026-01-24 04:29:27.80	9.79	13.72	-36.8	-38.4	15.5	0.00e+00	0	59	0	574619648	44	4267
2026-01-24 04:29:31.84	9.61	14.12	-36.9	-38.5	15.5	0.00e+00	0	59	0	603979776	44	4312
2026-01-24 04:29:35.88	9.42	14.53	-36.9	-38.4	15.7	0.00e+00	0	59	0	632291328	44	4273
2026-01-24 04:29:39.92	9.23	14.94	-36.9	-38.4	15.8	0.00e+00	0	59	0	661651456	44	4269
2026-01-24 04:29:43.96	9.03	15.36	-36.8	-38.3	16.0	0.00e+00	0	59	0	691011584	44	4205
2026-01-24 04:29:48.00	8.82	15.79	-36.7	-38.2	16.2	0.00e+00	0	60	0	720371712	44	4153
2026-01-24 04:29:52.04	8.61	16.22	-36.8	-38.2	16.3	0.00e+00	0	60	0	748683264	44	4150
2026-01-24 04:29:56.07	8.39	16.66	-36.8	-38.3	16.3	0.00e+00	0	60	0	778043392	44	4196
2026-01-24 04:30:00.12	8.16	17.12	-36.8	-38.2	16.4	0.00e+00	0	60	0	807403520	44	4178
2026-01-24 04:30:04.16	7.93	17.57	-36.6	-38.0	16.6	0.00e+00	0	60	0	836763648	44	4081
2026-01-24 04:30:08.20	7.68	18.04	-36.2	-37.6	16.9	0.00e+00	0	60	0	866123776	43	4108
2026-01-24 04:30:12.24	7.43	18.51	-36.0	-37.3	17.2	0.00e+00	0	60	0	895483904	42	4224
2026-01-24 04:30:16.28	7.18	19.00	-36.1	-37.4	17.2	0.00e+00	0	60	0	923795456	42	4285
2026-01-24 04:30:20.32	6.91	19.49	-36.2	-37.5	17.1	0.00e+00	0	60	0	953155584	42	4309
2026-01-24 04:30:24.36	6.63	19.99	-36.0	-37.3	17.3	0.00e+00	0	60	0	982515712	42	4211
2026-01-24 04:30:28.39	6.35	20.50	-36.0	-37.3	17.4	0.00e+00	0	60	0	1011875840	42	4213
2026-01-24 04:30:32.43	6.05	21.02	-36.0	-37.3	17.4	0.00e+00	0	60	0	1041235968	42	4200
2026-01-24 04:30:36.47	5.74	21.55	-36.1	-37.3	17.3	0.00e+00	0	60	0	1070596096	42	4241
2026-01-24 04:30:40.51	5.42	22.09	-35.9	-37.1	17.6	0.00e+00	0	60	0	1098907648	42	4131
2026-01-24 04:30:44.55	5.09	22.65	-35.7	-36.9	17.8	0.00e+00	0	60	0	1128267776	42	4018
2026-01-24 04:30:48.59	4.75	23.21	-35.5	-36.7	18.0	0.00e+00	0	60	0	1157627904	41	4156
2026-01-24 04:30:52.63	4.39	23.78	-35.6	-36.8	18.0	0.00e+00	0	60	0	1186988032	41	4196
2026-01-24 04:30:56.67	4.02	24.37	-35.4	-36.6	18.2	0.00e+00	0	61	0	1216348160	41	4112
2026-01-24 04:31:00.68	3.64	24.97	-35.3	-36.5	18.3	0.00e+00	0	60	0	1244659712	41	4059
2026-01-24 04:31:04.72	3.24	25.58	-35.3	-36.4	18.3	0.00e+00	0	60	0	1274019840	41	4049
2026-01-24 04:31:08.75	2.82	26.20	-35.3	-36.5	18.3	0.00e+00	0	61	0	1303379968	41	4072
2026-01-24 04:31:12.80	2.39	26.84	-35.2	-36.4	18.4	0.00e+00	0	61	0	1332740096	41	4015
2026-01-24 04:31:16.83	1.93	27.48	-35.3	-36.4	18.4	0.00e+00	0	61	0	1361051648	41	4034
2026-01-24 04:31:20.87	1.46	28.15	-35.3	-36.4	18.4	0.00e+00	0	61	0	1390411776	41	4032
2026-01-24 04:31:24.90	0.97	28.82	-35.2	-36.3	18.5	0.00e+00	0	61	0	1419771904	41	3995
2026-01-24 04:31:28.94	0.45	29.52	-35.1	-36.2	18.6	0.00e+00	0	61	0	1449132032	41	3949
2026-01-24 04:31:32.98	359.91	30.22	-35.1	-36.2	18.7	0.00e+00	0	61	0	1477443584	41	3921
2026-01-24 04:31:37.02	359.35	30.94	-34.8	-35.9	19.0	0.00e+00	0	61	0	1506803712	40	4022
2026-01-24 04:31:41.06	358.75	31.68	-34.8	-35.8	19.1	0.00e+00	0	61	0	1536163840	40	4000
2026-01-24 04:31:45.10	358.13	32.43	-35.0	-36.1	18.8	0.00e+00	0	61	0	1565523968	40	4123
2026-01-24 04:31:49.15	357.48	33.20	-35.2	-36.3	18.7	0.00e+00	0	61	0	1594884096	40	4203
2026-01-24 04:31:53.19	356.80	33.98	-35.1	-36.2	18.7	0.00e+00	0	61	0	1624244224	40	4191
2026-01-24 04:31:57.23	356.08	34.78	-35.0	-36.0	18.9	0.00e+00	0	61	0	1652555776	40	4096
2026-01-24 04:32:01.27	355.33	35.59	-34.8	-35.9	19.1	0.00e+00	0	61	0	1681915904	40	4018
2026-01-24 04:32:05.31	354.54	36.42	-35.0	-36.1	18.9	0.00e+00	0	61	0	1711276032	40	4122
2026-01-24 04:32:09.35	353.70	37.26	-34.9	-36.0	19.0	0.00e+00	0	61	0	1740636160	40	4088
2026-01-24 04:32:13.39	352.82	38.12	-35.2	-36.3	18.7	0.00e+00	0	61	0	1769996288	40	4229
2026-01-24 04:32:17.42	351.89	38.98	-35.4	-36.5	18.5	0.00e+00	0	61	0	1798307840	40	4321
2026-01-24 04:32:21.46	350.91	39.87	-35.3	-36.5	18.6	0.00e+00	0	61	0	1827667968	40	4300
2026-01-24 04:32:25.50	349.87	40.76	-35.5	-36.7	18.4	0.00e+00	0	61	0	1857028096	40	4396
2026-01-24 04:32:29.54	348.77	41.67	-35.7	-36.8	18.2	0.00e+00	0	61	0	1886388224	41	4238
2026-01-24 04:32:33.58	347.60	42.59	-35.3	-36.4	18.7	0.00e+00	0	61	0	1915748352	41	4027
2026-01-24 04:32:37.61	346.37	43.51	-34.6	-35.7	19.4	0.00e+00	0	61	0	1945108480	40	3916
2026-01-24 04:32:41.65	345.06	44.45	-35.5	-36.6	18.5	0.00e+00	0	61	0	1973420032	40	4364
2026-01-24 04:32:45.69	343.68	45.39	-35.6	-36.8	18.3	0.00e+00	0	61	0	2002780160	41	4224
2026-01-24 04:32:49.73	342.20	46.33	-35.4	-36.6	18.6	0.00e+00	0	61	0	2032140288	40	4360
2026-01-24 04:32:53.77	340.64	47.27	-36.6	-37.9	17.3	0.00e+00	0	61	0	2061500416	42	4528
2026-01-24 04:32:57.81	338.97	48.20	-36.6	-37.9	17.3	0.00e+00	0	61	0	2090860544	43	4265
2026-01-24 04:33:01.83	337.21	49.12	-36.7	-38.0	17.1	0.00e+00	0	61	0	2119172096	43	4334
2026-01-24 04:33:05.87	335.33	50.04	-37.0	-38.3	16.9	0.00e+00	0	61	0	2148532224	43	4469
2026-01-24 04:33:09.91	333.34	50.94	-36.6	-37.8	17.4	0.00e+00	0	61	0	2177892352	43	4239
2026-01-24 04:33:13.95	331.22	51.82	-36.8	-38.2	17.1	0.00e+00	0	61	0	2207252480	43	4393
2026-01-24 04:33:17.99	328.98	52.66	-36.6	-37.8	17.4	0.00e+00	0	61	0	2236612608	43	4237
2026-01-24 04:33:22.03	326.60	53.48	-36.8	-38.1	17.1	0.00e+00	0	62	0	2264924160	43	4389
2026-01-24 04:33:26.06	324.10	54.25	-36.2	-37.4	17.7	0.00e+00	0	61	0	2294284288	43	4040
2026-01-24 04:33:30.10	321.45	54.98	-36.5	-37.7	17.5	0.00e+00	0	61	0	2323644416	43	4175
2026-01-24 04:33:34.14	318.67	55.65	-36.4	-37.7	17.5	0.00e+00	0	62	0	2353004544	43	4155
2026-01-24 04:33:38.18	315.76	56.26	-36.1	-37.3	17.9	0.00e+00	0	61	0	2381316096	42	4201
2026-01-24 04:33:42.22	312.72	56.80	-36.4	-37.7	17.5	0.00e+00	0	62	0	2410676224	42	4403
2026-01-24 04:33:46.25	309.58	57.27	-36.3	-37.5	17.6	0.00e+00	0	62	0	2440036352	42	4301
2026-01-24 04:33:50.29	306.33	57.65	-36.6	-37.9	17.2	0.00e+00	0	61	0	2469396480	43	4261
2026-01-24 04:33:54.33	303.00	57.95	-36.2	-37.4	17.7	0.00e+00	0	61	0	2498756608	43	4049
2026-01-24 04:33:58.37	299.60	58.15	-36.7	-38.0	17.2	0.00e+00	0	62	0	2527068160	43	4331
2026-01-24 04:34:02.41	296.16	58.26	-36.4	-37.6	17.5	0.00e+00	0	62	0	2556428288	43	4135
2026-01-24 04:34:06.44	292.72	58.27	-37.1	-38.4	16.9	0.00e+00	0	61	0	2585788416	44	4263
2026-01-24 04:34:10.48	289.27	58.18	-36.3	-37.5	17.6	0.00e+00	0	61	0	2615148544	43	4079
2026-01-24 04:34:14.52	285.86	58.00	-36.6	-37.8	17.3	0.00e+00	0	62	0	2644508672	43	4241
2026-01-24 04:34:18.56	282.51	57.73	-36.5	-37.8	17.4	0.00e+00	0	62	0	2673868800	43	4199
2026-01-24 04:34:22.60	279.24	57.36	-36.4	-37.7	17.5	0.00e+00	0	61	0	2702180352	43	4159
2026-01-24 04:34:26.64	276.06	56.91	-36.6	-37.9	17.3	0.00e+00	0	61	0	2731540480	43	4245
2026-01-24 04:34:30.67	273.00	56.39	-36.0	-37.2	18.0	0.00e+00	0	62	0	2760900608	42	4171
2026-01-24 04:34:34.71	270.05	55.79	-36.2	-37.5	17.8	0.00e+00	0	62	0	2790260736	42	4292
2026-01-24 04:34:38.76	267.23	55.13	-36.2	-37.4	17.7	0.00e+00	0	62	0	2819620864	42	4282
2026-01-24 04:34:42.80	264.55	54.41	-36.1	-37.3	17.8	0.00e+00	0	62	0	2847932416	42	4219
2026-01-24 04:34:46.83	262.01	53.65	-36.1	-37.3	17.8	0.00e+00	0	61	0	2877292544	42	4242
2026-01-24 04:34:50.87	259.60	52.84	-36.3	-37.5	17.6	0.00e+00	0	62	0	2906652672	42	4338
2026-01-24 04:34:54.91	257.32	52.00	-36.2	-37.5	17.7	0.00e+00	0	62	0	2936012800	42	4295
2026-01-24 04:34:58.95	255.17	51.12	-35.9	-37.1	18.0	0.00e+00	0	61	0	2965372928	42	4137
2026-01-24 04:35:02.99	253.14	50.22	-36.1	-37.3	17.8	0.00e+00	0	62	0	2993684480	42	4214
2026-01-24 04:35:07.03	251.24	49.31	-35.9	-37.0	18.1	0.00e+00	0	62	0	3023044608	42	4087
2026-01-24 04:35:11.07	249.44	48.38	-36.1	-37.3	17.8	0.00e+00	0	62	0	3052404736	42	4230
2026-01-24 04:35:15.10	247.75	47.45	-35.6	-36.8	18.3	0.00e+00	0	62	0	3081764864	42	3979
2026-01-24 04:35:19.14	246.16	46.50	-35.6	-36.8	18.3	0.00e+00	0	62	0	3110076416	41	4216
2026-01-24 04:35:23.18	244.66	45.56	-35.1	-36.2	18.9	0.00e+00	0	62	0	3139436544	41	3934
2026-01-24 04:35:27.22	243.25	44.62	-35.2	-36.3	18.8	0.00e+00	0	62	0	3168796672	41	3976
2026-01-24 04:35:31.26	241.92	43.68	-35.1	-36.2	18.9	0.00e+00	0	62	0	3198156800	40	4150
2026-01-24 04:35:35.30	240.67	42.75	-35.2	-36.3	18.8	0.00e+00	0	62	0	3227516928	40	4227
2026-01-24 04:35:39.34	239.49	41.82	-35.1	-36.2	18.9	0.00e+00	0	62	0	3256877056	40	4168
2026-01-24 04:35:43.38	238.37	40.91	-35.5	-36.6	18.5	0.00e+00	0	62	0	3285188608	40	4371
2026-01-24 04:35:47.43	237.31	40.00	-35.3	-36.5	18.6	0.00e+00	0	62	0	3314548736	40	4292
2026-01-24 04:35:51.46	236.32	39.11	-35.1	-36.3	18.8	0.00e+00	0	62	0	3343908864	40	4202
2026-01-24 04:35:55.50	235.37	38.24	-34.6	-35.7	19.3	0.00e+00	0	62	0	3373268992	40	3929
2026-01-24 04:35:59.54	234.48	37.37	-34.9	-36.0	19.0	0.00e+00	0	62	0	3401580544	40	4084
2026-01-24 04:36:03.58	233.63	36.52	-34.9	-36.0	19.0	0.00e+00	0	62	0	3430940672	40	4098
2026-01-24 04:36:07.61	232.83	35.69	-35.1	-36.2	18.9	0.00e+00	0	62	0	3460300800	40	4156
2026-01-24 04:36:11.65	232.06	34.87	-34.5	-35.6	19.2	0.00e+00	0	62	0	3489660928	39	4119
2026-01-24 04:36:15.69	231.33	34.07	-34.7	-35.7	19.3	0.00e+00	0	62	0	3519021056	39	4177
2026-01-24 04:36:19.72	230.64	33.28	-34.6	-35.7	19.3	0.00e+00	0	62	0	3548381184	39	4164
2026-01-24 04:36:23.76	229.98	32.51	-34.7	-35.8	19.3	0.00e+00	0	62	0	3576692736	39	4199
2026-01-24 04:36:27.80	229.35	31.75	-34.8	-35.9	19.2	0.00e+00	0	62	0	3606052864	39	4259
2026-01-24 04:36:31.84	228.75	31.01	-34.7	-35.7	19.2	0.00e+00	0	62	0	3635412992	39	4176
2026-01-24 04:36:35.87	228.18	30.28	-34.9	-36.1	19.0	0.00e+00	0	62	0	3664773120	39	4346
2026-01-24 04:36:39.92	227.63	29.57	-35.0	-36.1	18.9	0.00e+00	0	62	0	3694133248	39	4345
2026-01-24 04:36:43.96	227.11	28.87	-34.8	-35.8	19.1	0.00e+00	0	62	0	3722444800	39	4239
2026-01-24 04:36:48.00	226.61	28.19	-35.0	-36.1	18.8	0.00e+00	0	62	0	3751804928	39	4387
2026-01-24 04:36:52.03	226.13	27.52	-35.2	-36.3	18.6	0.00e+00	0	62	0	3781165056	40	4235
2026-01-24 04:36:56.07	225.67	26.87	-35.2	-36.3	18.6	0.00e+00	0	62	0	3810525184	40	4213
2026-01-24 04:37:00.11	225.23	26.22	-35.3	-36.5	18.4	0.00e+00	0	62	0	3839885312	40	4305
2026-01-24 04:37:04.15	224.80	25.60	-35.3	-36.5	18.4	0.00e+00	0	62	0	3869245440	40	4305
2026-01-24 04:37:08.19	224.39	24.98	-34.9	-36.0	18.9	0.00e+00	0	62	0	3897556992	40	4063
2026-01-24 04:37:12.23	224.00	24.38	-34.8	-35.8	19.0	0.00e+00	0	62	0	3926917120	40	3999
2026-01-24 04:37:16.26	223.63	23.79	-34.9	-36.0	18.8	0.00e+00	0	62	0	3956277248	40	4069
2026-01-24 04:37:20.30	223.26	23.21	-35.1	-36.3	18.6	0.00e+00	0	62	0	3985637376	40	4204
2026-01-24 04:37:24.34	222.91	22.64	-35.5	-36.6	18.2	0.00e+00	0	62	0	4014997504	40	4386
2026-01-24 04:37:28.38	222.58	22.08	-35.5	-36.7	18.1	0.00e+00	0	62	0	4043309056	40	4430
2026-01-24 04:37:32.42	222.25	21.54	-35.6	-36.8	18.0	0.00e+00	0	62	0	4072669184	40	4471
2026-01-24 04:37:36.46	221.94	21.00	-35.7	-36.9	17.9	0.00e+00	0	62	0	4102029312	41	4253
2026-01-24 04:37:40.50	221.64	20.48	-35.7	-36.9	17.9	0.00e+00	0	62	0	4131389440	41	4248
2026-01-24 04:37:44.54	221.35	19.96	-35.8	-37.0	17.8	0.00e+00	0	62	0	4160749568	41	4308
2026-01-24 04:37:48.58	221.07	19.46	-35.8	-37.0	17.8	0.00e+00	0	62	0	4189061120	41	4309
2026-01-24 04:37:52.62	220.79	18.96	-35.9	-37.1	17.6	0.00e+00	0	62	0	4218421248	41	4387
2026-01-24 04:37:56.66	220.53	18.47	-36.1	-37.4	17.3	0.00e+00	0	62	0	4247781376	41	4508
2026-01-24 04:38:00.70	220.28	18.00	-36.3	-37.6	17.1	0.00e+00	0	62	0	4277141504	42	4383
2026-01-24 04:38:04.73	220.03	17.53	-36.5	-37.9	16.9	0.00e+00	0	62	0	4305453056	42	4502
2026-01-24 04:38:08.77	219.79	17.07	-36.7	-38.1	16.6	0.00e+00	0	62	0	4334813184	42	4620
2026-01-24 04:38:12.81	219.56	16.61	-36.7	-38.0	16.6	0.00e+00	0	62	0	4364173312	42	4584
2026-01-24 04:38:16.85	219.34	16.17	-36.7	-38.0	16.6	0.00e+00	0	62	0	4393533440	43	4327
2026-01-24 04:38:20.89	219.12	15.73	-36.6	-38.0	16.7	0.00e+00	0	62	0	4422893568	43	4306
2026-01-24 04:38:24.92	218.91	15.30	-36.7	-38.0	16.6	0.00e+00	0	62	0	4451205120	43	4330
2026-01-24 04:38:28.96	218.70	14.88	-36.8	-38.2	16.4	0.00e+00	0	62	0	4480565248	43	4404
2026-01-24 04:38:33.00	218.50	14.46	-36.9	-38.4	16.2	0.00e+00	0	62	0	4509925376	43	4496
2026-01-24 04:38:37.04	218.31	14.05	-37.1	-38.6	16.0	0.00e+00	0	62	0	4539285504	43	4626
2026-01-24 04:38:41.07	218.12	13.65	-37.2	-38.7	15.9	0.00e+00	0	62	0	4568645632	43	4658
2026-01-24 04:38:45.11	217.94	13.25	-37.4	-38.9	15.7	0.00e+00	0	62	0	4596957184	44	4530
2026-01-24 04:38:49.16	217.76	12.86	-37.4	-38.9	15.7	0.00e+00	0	62	0	4626317312	44	4536
2026-01-24 04:38:53.20	217.59	12.48	-37.6	-39.1	15.6	0.00e+00	0	62	0	4655677440	44	4618
2026-01-24 04:38:57.23	217.42	12.10	-37.6	-39.1	15.5	0.00e+00	0	62	0	4685037568	44	4647
2026-01-24 04:39:01.27	217.26	11.73	-37.8	-39.4	15.2	0.00e+00	0	62	0	4714397696	45	4510
2026-01-24 04:39:05.31	217.10	11.36	-37.9	-39.5	15.0	0.00e+00	0	62	0	4743757824	45	4575
2026-01-24 04:39:09.35	216.95	10.99	-38.0	-39.7	14.8	0.00e+00	0	62	0	4772069376	45	4661
2026-01-24 04:39:13.38	216.80	10.64	-38.1	-39.8	14.7	0.00e+00	0	62	0	4801429504	45	4734
2026-01-24 04:39:17.42	216.65	10.28	-38.2	-39.9	14.5	1.10e-06	0	62	0	4830789632	46	4525
2026-01-24 04:39:21.45	216.51	9.94	-38.4	-40.2	14.2	4.50e-06	0	62	0	4860149760	46	4657
2026-01-24 04:39:25.50	216.37	9.59	-38.3	-40.1	14.2	2.20e-06	0	62	0	4889509888	46	4650
2026-01-24 04:39:29.53	216.23	9.25	-38.4	-40.2	14.0	2.20e-06	0	62	0	4917821440	46	4699
2026-01-24 04:39:33.58	216.10	8.92	-38.5	-40.3	13.9	2.20e-06	0	62	0	4947181568	46	4753
2026-01-24 04:39:37.61	215.97	8.59	-38.5	-40.4	13.8	4.50e-06	0	62	0	4976541696	46	4794
2026-01-24 04:39:41.65	215.84	8.26	-38.6	-40.5	13.6	5.70e-06	0	62	0	5005901824	46	4854
2026-01-24 04:39:45.69	215.72	7.94	-45.1	-56.1	3.8	8.45e-01	0	62	104	5027921920	59	13810
2026-01-24 04:39:49.73	215.60	7.62	-45.5	-56.8	3.8	8.46e-01	0	62	104	5027921920	60	14201
2026-01-24 04:39:53.77	215.48	7.31	-45.6	-57.0	3.8	8.45e-01	0	62	104	5027921920	60	14401
2026-01-24 04:39:57.81	215.36	7.00	-45.5	-56.9	3.8	8.46e-01	0	62	104	5027921920	60	14308
2026-01-24 04:40:01.85	215.25	6.69	-45.5	-56.9	3.8	8.46e-01	0	62	104	5027921920	60	14284
2026-01-24 04:40:05.89	215.14	6.39	-45.5	-56.9	3.8	8.46e-01	0	62	104	5027921920	60	14253
2026-01-24 04:40:09.94	215.03	6.09	-45.5	-56.9	3.8	8.46e-01	0	62	104	5027921920	60	14232
2026-01-24 04:40:13.98	214.93	5.79	-45.5	-56.9	3.8	8.46e-01	0	62	104	5027921920	60	14261
2026-01-24 04:40:18.02	214.83	5.50	-45.5	-56.9	3.8	8.45e-01	0	62	104	5027921920	60	14232
2026-01-24 04:40:22.06	214.73	5.21	-45.5	-56.9	3.8	8.48e-01	0	62	104	5027921920	60	14212
2026-01-24 04:40:26.10	214.63	4.92	-45.5	-56.8	3.8	8.46e-01	0	62	104	5027921920	60	14172
2026-01-24 04:40:30.14	214.53	4.64	-45.5	-56.8	3.8	8.47e-01	0	62	104	5027921920	60	14191
2026-01-24 04:40:34.18	214.44	4.35	-45.5	-56.8	3.8	8.46e-01	0	62	104	5027921920	60	14181
2026-01-24 04:40:38.23	214.34	4.07	-45.5	-56.8	3.8	8.47e-01	0	62	104	5027921920	60	14144
2026-01-24 04:40:42.27	214.25	3.80	-45.5	-56.8	3.8	8.46e-01	0	62	104	5027921920	60	14158
2026-01-24 04:40:46.31	214.17	3.53	-44.9	-56.8	3.8	8.46e-01	0	62	104	5027921920	60	14201
2026-01-24 04:40:50.35	214.08	3.26	-45.5	-56.8	3.8	8.47e-01	0	62	104	5027921920	60	14161
2026-01-24 04:40:54.40	213.99	2.99	-45.5	-56.8	3.8	8.46e-01	0	62	104	5027921920	60	14202
2026-01-24 04:40:58.44	213.91	2.72	-45.5	-56.8	3.8	8.46e-01	0	62	104	5027921920	60	14163
2026-01-24 04:41:02.48	213.83	2.46	-45.5	-56.8	3.8	8.46e-01	0	62	104	5027921920	60	14161
2026-01-24 04:41:06.52	213.75	2.20	-45.5	-56.8	3.8	8.47e-01	0	62	104	5027921920	60	14158

#Closed at: 2026-01-24 04:41:10
#Recorded file [5027 MB]: D:/lorett/data/31039_260124_072658.dat