passes_logs/2026/01/01/R2.0S_Moscow/R2.0S_Moscow__20260101_013740_AQUA_rec.log

#Pass ID: 20260101_013740_AQUA
#Satellite: AQUA
#Configuration: AQUA
#almurnet v.1.7.20251203
#Start time: 2026-01-01 01:37:40

#Version: 2.2.20231116
#Station: R2.0S_Moscow
#Location: 37.707566 lon 55.798166 lat
#TLE: 1 27424U 02022A   25364.96158943  .00001951  00000+0  40088-3 0  9998
#TLE: 2 27424  98.4061 326.1389 0001917  95.3187 305.7939 14.61780362258696

#Time	Az	El	Level	Level2	SNR	BER	BlckErr	Temp	State	Recorded	gain1	gain2
2026-01-01 01:37:40.99	13.76	2.05	-44.3	-63.0	3.8	7.45e-01	0	48	0	0	60	30625
2026-01-01 01:37:44.02	13.72	2.25	-44.5	-63.4	3.8	7.48e-01	0	48	104	0	59	33787
2026-01-01 01:37:47.05	13.68	2.45	-44.5	-63.4	3.8	7.46e-01	0	49	104	0	59	33783
2026-01-01 01:37:50.08	13.64	2.65	-44.5	-63.4	3.8	7.45e-01	0	49	104	0	59	33788
2026-01-01 01:37:53.12	13.60	2.86	-44.5	-63.4	3.8	7.49e-01	0	49	104	0	59	33724
2026-01-01 01:37:56.15	13.56	3.07	-44.5	-63.4	3.8	7.45e-01	0	49	104	0	59	33745
2026-01-01 01:37:59.18	13.52	3.28	-44.5	-63.3	3.8	7.45e-01	0	49	104	0	59	33628
2026-01-01 01:38:02.22	13.47	3.49	-44.5	-63.3	3.8	7.42e-01	0	49	104	0	59	33496
2026-01-01 01:38:05.25	13.43	3.70	-44.5	-63.3	3.8	7.47e-01	0	50	104	0	59	33383
2026-01-01 01:38:08.28	13.38	3.91	-44.5	-63.3	3.8	7.47e-01	0	50	104	0	59	33400
2026-01-01 01:38:11.31	13.34	4.13	-44.5	-63.3	3.8	7.48e-01	0	50	104	0	59	33349
2026-01-01 01:38:14.35	13.29	4.35	-44.5	-63.3	3.8	7.46e-01	0	51	104	0	59	33648
2026-01-01 01:38:17.38	13.24	4.57	-44.5	-63.3	3.8	7.44e-01	0	51	104	0	59	33682
2026-01-01 01:38:20.42	13.19	4.79	-44.5	-63.3	3.8	7.44e-01	0	51	104	0	59	33668
2026-01-01 01:38:23.45	13.14	5.02	-44.5	-63.3	3.8	7.46e-01	0	51	104	0	59	33538
2026-01-01 01:38:26.48	13.09	5.24	-44.5	-63.1	3.8	7.45e-01	0	51	104	0	59	32774
2026-01-01 01:38:29.51	13.03	5.47	-44.4	-62.7	3.8	7.45e-01	0	51	104	0	59	31398
2026-01-01 01:38:32.55	12.98	5.70	-44.4	-62.5	3.8	7.46e-01	0	52	104	0	59	30605
2026-01-01 01:38:35.58	12.92	5.93	-44.3	-62.3	3.8	7.43e-01	0	51	104	0	59	29910
2026-01-01 01:38:38.61	12.87	6.17	-44.2	-61.9	3.8	7.41e-01	0	52	104	0	59	28646
2026-01-01 01:38:41.64	12.81	6.41	-43.9	-60.5	3.8	7.44e-01	0	52	104	0	59	24334
2026-01-01 01:38:44.67	12.75	6.65	-43.1	-57.9	3.8	7.44e-01	0	52	104	0	58	19050
2026-01-01 01:38:47.71	12.69	6.89	-41.8	-55.2	3.8	7.46e-01	0	52	104	0	55	16580
2026-01-01 01:38:50.74	12.63	7.13	-40.6	-53.2	3.8	7.45e-01	0	52	104	0	53	14719
2026-01-01 01:38:53.77	12.57	7.38	-39.9	-51.9	3.8	7.47e-01	0	52	104	0	51	14320
2026-01-01 01:38:56.81	12.50	7.63	-39.6	-51.6	3.8	7.42e-01	0	52	104	0	51	13760
2026-01-01 01:38:59.84	12.44	7.88	-39.9	-52.0	3.8	7.44e-01	0	52	104	0	51	14413
2026-01-01 01:39:02.87	12.37	8.14	-43.0	-57.1	3.8	7.44e-01	0	53	104	0	56	19427
2026-01-01 01:39:05.91	12.30	8.40	-40.2	-52.3	3.8	7.46e-01	0	53	104	0	51	14995
2026-01-01 01:39:08.94	12.23	8.66	-39.1	-50.8	3.8	7.43e-01	0	53	104	0	50	13362
2026-01-01 01:39:11.97	12.16	8.93	-40.0	-52.1	3.8	7.45e-01	0	53	104	0	52	13850
2026-01-01 01:39:15.00	12.08	9.19	-40.9	-54.7	3.8	7.44e-01	0	53	104	0	52	18623
2026-01-01 01:39:18.03	12.01	9.46	-39.1	-51.0	3.8	7.39e-01	0	53	104	0	50	13585
2026-01-01 01:39:21.06	11.93	9.74	-41.7	-54.6	3.8	7.46e-01	0	53	104	0	54	16479
2026-01-01 01:39:24.09	11.85	10.01	-40.0	-52.1	3.8	7.45e-01	0	53	104	0	52	13750
2026-01-01 01:39:27.13	11.77	10.30	-40.7	-53.1	3.8	7.44e-01	0	53	104	0	52	15551
2026-01-01 01:39:30.16	11.69	10.58	-40.9	-53.4	3.9	7.42e-01	0	54	104	0	53	15093
2026-01-01 01:39:33.19	11.60	10.87	-39.1	-50.9	3.8	7.43e-01	0	54	104	0	50	13488
2026-01-01 01:39:36.22	11.51	11.16	-41.2	-55.5	3.8	7.41e-01	0	54	104	0	53	19203
2026-01-01 01:39:39.25	11.43	11.46	-44.2	-60.8	3.8	7.43e-01	0	54	104	0	59	25245
2026-01-01 01:39:42.28	11.33	11.76	-39.5	-51.3	3.8	7.45e-01	0	54	104	0	51	13325
2026-01-01 01:39:45.32	11.24	12.06	-43.7	-59.2	3.9	7.42e-01	0	54	104	0	58	22142
2026-01-01 01:39:48.35	11.14	12.37	-38.9	-50.5	3.8	7.42e-01	0	54	104	0	49	13601
2026-01-01 01:39:51.38	11.04	12.68	-40.2	-52.2	3.8	7.43e-01	0	54	104	0	52	14032
2026-01-01 01:39:54.41	10.94	13.00	-38.9	-50.2	3.8	7.44e-01	0	54	104	0	49	13175
2026-01-01 01:39:57.44	10.84	13.32	-38.5	-49.9	3.8	7.42e-01	0	54	104	0	49	12781
2026-01-01 01:40:00.47	10.73	13.64	-38.8	-50.2	3.8	7.44e-01	0	54	104	0	49	13204
2026-01-01 01:40:03.51	10.62	13.98	-40.4	-52.2	3.8	7.45e-01	0	54	104	0	52	13922
2026-01-01 01:40:06.54	10.51	14.31	-38.6	-50.0	3.8	7.42e-01	0	55	104	0	49	12843
2026-01-01 01:40:09.57	10.39	14.65	-40.6	-43.4	18.6	5.99e-01	0	55	0	524288	53	4763
2026-01-01 01:40:12.60	10.28	15.00	-38.1	-39.9	23.2	6.01e-01	0	54	0	5767168	48	4291
2026-01-01 01:40:15.63	10.15	15.35	-38.1	-39.9	23.3	6.00e-01	0	55	0	11534336	48	4270
2026-01-01 01:40:18.66	10.03	15.71	-37.6	-39.4	23.4	6.00e-01	0	55	0	17301504	47	4281
2026-01-01 01:40:21.69	9.90	16.07	-37.5	-39.4	23.5	6.00e-01	0	55	0	23068672	47	4248
2026-01-01 01:40:24.72	9.77	16.44	-37.5	-39.3	23.6	6.04e-01	0	55	0	28835840	47	4226
2026-01-01 01:40:27.74	9.63	16.81	-37.6	-39.4	23.6	6.00e-01	0	55	0	34078720	47	4247
2026-01-01 01:40:30.77	9.49	17.19	-37.6	-39.4	23.5	6.00e-01	0	55	0	39845888	47	4266
2026-01-01 01:40:33.80	9.34	17.58	-37.6	-39.5	23.5	6.02e-01	0	55	0	45613056	47	4303
2026-01-01 01:40:36.83	9.20	17.97	-37.6	-39.5	23.5	6.04e-01	0	55	0	51380224	47	4293
2026-01-01 01:40:39.85	9.04	18.37	-37.6	-39.4	23.6	6.02e-01	0	55	0	57147392	47	4262
2026-01-01 01:40:42.88	8.88	18.78	-37.5	-39.3	23.6	6.05e-01	0	55	0	62914560	47	4234
2026-01-01 01:40:45.91	8.72	19.20	-37.5	-39.3	23.7	6.04e-01	0	55	0	68681728	47	4210
2026-01-01 01:40:48.94	8.55	19.62	-37.6	-39.4	23.6	5.99e-01	0	55	0	73924608	47	4252
2026-01-01 01:40:51.97	8.38	20.05	-37.6	-39.4	23.7	6.02e-01	0	55	0	79691776	47	4269
2026-01-01 01:40:55.00	8.20	20.49	-37.6	-39.4	23.6	6.01e-01	0	55	0	85458944	47	4289
2026-01-01 01:40:58.03	8.01	20.93	-37.7	-39.5	23.6	6.01e-01	0	55	0	91226112	47	4312
2026-01-01 01:41:01.06	7.82	21.39	-37.6	-39.4	23.6	6.04e-01	0	56	0	96993280	47	4282
2026-01-01 01:41:04.09	7.62	21.85	-37.5	-39.3	23.8	6.01e-01	0	55	0	102236160	47	4219
2026-01-01 01:41:07.12	7.42	22.33	-37.6	-39.4	23.7	6.00e-01	0	55	0	108003328	47	4246
2026-01-01 01:41:10.15	7.21	22.81	-37.7	-39.4	23.6	6.01e-01	0	55	0	113770496	47	4287
2026-01-01 01:41:13.18	6.99	23.30	-37.7	-39.5	23.6	6.01e-01	0	56	0	119537664	47	4314
2026-01-01 01:41:16.20	6.76	23.80	-37.9	-39.8	23.4	6.02e-01	0	55	0	125304832	47	4458
2026-01-01 01:41:19.24	6.53	24.32	-37.9	-39.8	23.4	6.03e-01	0	56	0	131072000	47	4457
2026-01-01 01:41:22.26	6.28	24.84	-37.7	-39.5	23.6	5.99e-01	0	56	0	136839168	47	4340
2026-01-01 01:41:25.29	6.03	25.37	-37.7	-39.5	23.6	6.02e-01	0	56	0	142082048	47	4315
2026-01-01 01:41:28.32	5.77	25.92	-37.6	-39.4	23.7	6.04e-01	0	56	0	147849216	47	4283
2026-01-01 01:41:31.35	5.50	26.47	-37.6	-39.4	23.8	6.02e-01	0	56	0	153616384	47	4247
2026-01-01 01:41:34.38	5.21	27.04	-37.5	-39.2	24.0	6.01e-01	0	56	0	159383552	47	4174
2026-01-01 01:41:37.41	4.92	27.62	-37.4	-39.2	23.9	6.01e-01	0	56	0	165150720	46	4404
2026-01-01 01:41:40.44	4.61	28.22	-37.2	-38.9	24.3	6.00e-01	0	56	0	170917888	46	4279
2026-01-01 01:41:43.48	4.29	28.82	-37.3	-39.1	24.2	6.01e-01	0	56	0	176160768	46	4341
2026-01-01 01:41:46.50	3.96	29.44	-37.3	-39.0	24.3	6.03e-01	0	56	0	181927936	46	4305
2026-01-01 01:41:49.53	3.62	30.08	-37.0	-38.6	24.6	6.02e-01	0	56	0	187695104	45	4365
2026-01-01 01:41:52.56	3.26	30.73	-37.2	-38.9	24.3	6.02e-01	0	56	0	193462272	45	4521
2026-01-01 01:41:55.59	2.88	31.39	-37.3	-39.0	24.2	6.00e-01	0	56	0	199229440	45	4554
2026-01-01 01:41:58.62	2.49	32.07	-37.2	-38.9	24.4	6.00e-01	0	56	0	204996608	45	4505
2026-01-01 01:42:01.65	2.08	32.76	-37.3	-39.0	24.3	6.00e-01	0	56	0	210239488	45	4552
2026-01-01 01:42:04.68	1.65	33.47	-37.3	-39.0	24.3	6.01e-01	0	56	0	216006656	45	4569
2026-01-01 01:42:07.72	1.19	34.20	-37.9	-39.7	23.6	6.03e-01	0	56	0	221773824	46	4675
2026-01-01 01:42:10.75	0.72	34.94	-38.0	-39.8	23.6	6.01e-01	0	56	0	227540992	46	4712
2026-01-01 01:42:13.77	0.22	35.69	-38.1	-39.9	23.2	6.02e-01	0	56	0	233308160	46	4803
2026-01-01 01:42:16.80	359.70	36.47	-39.6	-41.7	22.1	6.03e-01	0	56	0	239075328	49	4949
2026-01-01 01:42:19.83	359.16	37.26	-39.2	-41.1	22.6	5.98e-01	0	56	0	244318208	49	4651
2026-01-01 01:42:22.86	358.58	38.07	-40.0	-42.2	21.7	6.01e-01	0	56	0	250085376	50	4946
2026-01-01 01:42:25.89	357.97	38.90	-39.5	-41.6	22.2	6.06e-01	0	56	0	255852544	50	4625
2026-01-01 01:42:28.92	357.33	39.74	-39.8	-42.0	21.9	6.00e-01	0	56	0	261619712	50	4839
2026-01-01 01:42:31.96	356.65	40.61	-39.5	-41.6	22.2	6.01e-01	0	56	0	267386880	50	4637
2026-01-01 01:42:34.99	355.93	41.49	-39.3	-41.3	22.5	6.00e-01	0	56	0	273154048	50	4492
2026-01-01 01:42:38.02	355.18	42.39	-39.1	-41.1	22.8	6.01e-01	0	56	0	278396928	50	4363
2026-01-01 01:42:41.05	354.37	43.30	-38.6	-40.4	23.4	6.02e-01	0	56	0	284164096	49	4291
2026-01-01 01:42:44.08	353.52	44.24	-38.4	-40.2	23.6	6.02e-01	0	56	0	289931264	48	4430
2026-01-01 01:42:47.11	352.62	45.18	-38.6	-40.5	23.3	6.03e-01	0	56	0	295698432	48	4567
2026-01-01 01:42:50.14	351.65	46.15	-38.9	-40.8	23.1	6.03e-01	0	56	0	301465600	48	4717
2026-01-01 01:42:53.17	350.63	47.13	-38.4	-40.2	23.7	6.02e-01	0	56	0	307232768	48	4416
2026-01-01 01:42:56.20	349.53	48.12	-38.7	-40.6	23.3	6.03e-01	0	56	0	312999936	48	4608
2026-01-01 01:42:59.23	348.36	49.13	-38.4	-40.2	23.6	6.02e-01	0	56	0	318242816	48	4412
2026-01-01 01:43:02.26	347.11	50.14	-38.4	-40.1	23.7	5.99e-01	0	56	0	324009984	48	4379
2026-01-01 01:43:05.29	345.77	51.17	-38.1	-39.8	24.0	6.01e-01	0	56	0	329777152	48	4222
2026-01-01 01:43:08.32	344.34	52.20	-37.6	-39.3	24.1	6.01e-01	0	57	0	335544320	46	4492
2026-01-01 01:43:11.35	342.80	53.23	-37.6	-39.4	24.1	6.01e-01	0	57	0	341311488	46	4499
2026-01-01 01:43:14.38	341.14	54.26	-37.1	-38.7	24.7	6.01e-01	0	56	0	346554368	46	4189
2026-01-01 01:43:17.41	339.36	55.29	-37.4	-39.0	24.4	6.00e-01	0	56	0	352321536	46	4326
2026-01-01 01:43:20.44	337.44	56.31	-37.7	-39.5	24.0	6.01e-01	0	56	0	358088704	46	4560
2026-01-01 01:43:23.47	335.37	57.31	-38.2	-40.0	23.5	6.03e-01	0	57	0	363855872	46	4829
2026-01-01 01:43:26.50	333.15	58.30	-38.4	-40.3	23.2	5.99e-01	0	57	0	369623040	47	4719
2026-01-01 01:43:29.53	330.76	59.26	-38.9	-40.8	23.1	6.02e-01	0	57	0	375390208	48	4750
2026-01-01 01:43:32.56	328.18	60.18	-38.9	-40.8	22.9	6.05e-01	0	56	0	381157376	49	4460
2026-01-01 01:43:35.59	325.42	61.06	-39.5	-41.5	22.3	6.02e-01	0	57	0	386400256	49	4868
2026-01-01 01:43:38.62	322.46	61.89	-39.7	-41.8	22.1	6.03e-01	0	57	0	392167424	50	4706
2026-01-01 01:43:41.65	319.29	62.66	-40.0	-42.2	21.6	6.03e-01	0	56	0	397934592	50	4971
2026-01-01 01:43:44.68	315.93	63.37	-40.4	-42.8	21.2	6.04e-01	0	57	0	403701760	51	5004
2026-01-01 01:43:47.71	312.37	63.99	-40.7	-43.2	20.8	6.00e-01	0	57	0	409468928	51	5245
2026-01-01 01:43:50.74	308.62	64.52	-40.9	-43.5	20.5	6.01e-01	0	57	0	414711808	52	5125
2026-01-01 01:43:53.77	304.72	64.95	-41.2	-43.9	19.9	6.02e-01	0	57	0	420478976	53	5070
2026-01-01 01:43:56.80	300.68	65.28	-41.0	-43.6	20.2	6.03e-01	0	57	0	426246144	53	4922
2026-01-01 01:43:59.83	296.53	65.49	-41.2	-44.0	20.0	6.06e-01	0	57	0	432013312	53	5105
2026-01-01 01:44:02.86	292.33	65.59	-41.6	-44.6	19.3	6.04e-01	0	57	0	437780480	53	5505
2026-01-01 01:44:05.89	288.12	65.57	-41.7	-44.7	19.2	6.03e-01	0	57	0	443547648	54	5219
2026-01-01 01:44:08.92	283.93	65.42	-41.7	-44.7	19.3	6.00e-01	0	57	0	449314816	54	5237
2026-01-01 01:44:11.95	279.82	65.17	-41.4	-44.2	19.7	6.01e-01	0	57	0	454557696	54	4959
2026-01-01 01:44:14.98	275.82	64.80	-41.9	-45.0	19.0	6.03e-01	0	57	0	460324864	54	5433
2026-01-01 01:44:18.01	271.97	64.33	-41.5	-44.4	19.5	6.02e-01	0	57	0	466092032	54	5075
2026-01-01 01:44:21.04	268.29	63.76	-41.3	-44.0	19.8	6.01e-01	0	57	0	471859200	54	4855
2026-01-01 01:44:24.07	264.80	63.11	-40.7	-43.2	20.6	6.02e-01	0	57	0	477626368	53	4696
2026-01-01 01:44:27.09	261.52	62.38	-40.6	-43.0	20.7	6.01e-01	0	57	0	482869248	53	4597
2026-01-01 01:44:30.12	258.43	61.58	-40.4	-42.8	21.0	6.00e-01	0	57	0	488636416	52	4739
2026-01-01 01:44:33.15	255.54	60.73	-40.4	-42.8	21.1	6.01e-01	0	57	0	494403584	51	5033
2026-01-01 01:44:36.18	252.84	59.83	-40.1	-42.3	21.6	6.03e-01	0	57	0	500170752	51	4753
2026-01-01 01:44:39.21	250.34	58.89	-39.4	-41.4	22.5	6.04e-01	0	57	0	505937920	50	4520
2026-01-01 01:44:42.24	248.00	57.91	-38.9	-40.8	23.1	6.01e-01	0	57	0	511705088	49	4458
2026-01-01 01:44:45.27	245.84	56.92	-38.9	-40.8	23.1	6.01e-01	0	57	0	517472256	49	4476
2026-01-01 01:44:48.30	243.83	55.90	-38.4	-40.2	23.7	6.04e-01	0	57	0	522715136	48	4394
2026-01-01 01:44:51.33	241.96	54.88	-37.5	-39.2	24.2	6.02e-01	0	57	0	528482304	47	4176
2026-01-01 01:44:54.36	240.22	53.84	-37.3	-38.9	24.5	6.02e-01	0	57	0	534249472	46	4264
2026-01-01 01:44:57.39	238.61	52.81	-37.1	-38.7	24.7	6.01e-01	0	57	0	540016640	46	4193
2026-01-01 01:45:00.42	237.10	51.77	-36.9	-38.5	24.9	6.04e-01	0	57	0	545783808	45	4326
2026-01-01 01:45:03.45	235.70	50.74	-37.6	-39.4	24.1	6.01e-01	0	57	0	551550976	45	4770
2026-01-01 01:45:06.48	234.39	49.72	-37.3	-39.0	24.5	6.01e-01	0	57	0	556793856	45	4550
2026-01-01 01:45:09.51	233.17	48.70	-37.7	-39.4	24.0	6.01e-01	0	57	0	562561024	46	4531
2026-01-01 01:45:12.54	232.03	47.69	-37.4	-39.1	24.3	6.01e-01	0	57	0	568328192	46	4370
2026-01-01 01:45:15.57	230.96	46.70	-38.0	-39.8	23.7	6.01e-01	0	57	0	574095360	46	4745
2026-01-01 01:45:18.60	229.96	45.73	-37.3	-39.0	24.4	6.01e-01	0	57	0	579862528	46	4298
2026-01-01 01:45:21.63	229.01	44.76	-37.9	-39.8	23.7	6.01e-01	0	57	0	585629696	46	4711
2026-01-01 01:45:24.66	228.13	43.82	-37.7	-39.4	24.0	6.03e-01	0	57	0	590872576	46	4513
2026-01-01 01:45:27.69	227.29	42.89	-37.8	-39.5	23.9	6.04e-01	0	57	0	596639744	46	4598
2026-01-01 01:45:30.72	226.50	41.97	-38.5	-40.4	23.1	6.01e-01	0	57	0	602406912	47	4797
2026-01-01 01:45:33.75	225.76	41.08	-38.5	-40.4	23.1	6.01e-01	0	57	0	608174080	47	4771
2026-01-01 01:45:36.78	225.06	40.20	-39.1	-41.1	22.8	6.02e-01	0	57	0	613941248	48	4906
2026-01-01 01:45:39.81	224.39	39.34	-39.4	-41.5	22.4	6.00e-01	0	57	0	619708416	49	4838
2026-01-01 01:45:42.84	223.76	38.50	-39.4	-41.5	22.4	6.01e-01	0	57	0	624951296	49	4815
2026-01-01 01:45:45.87	223.17	37.68	-39.5	-41.5	22.3	6.00e-01	0	57	0	630718464	49	4869
2026-01-01 01:45:48.90	222.60	36.87	-39.6	-41.8	22.1	6.04e-01	0	57	0	636485632	49	4985
2026-01-01 01:45:51.93	222.06	36.08	-39.1	-41.1	22.7	6.01e-01	0	57	0	642252800	49	4640
2026-01-01 01:45:54.96	221.55	35.31	-38.9	-40.8	23.0	6.01e-01	0	57	0	648019968	49	4484
2026-01-01 01:45:57.98	221.06	34.56	-38.5	-40.3	23.5	5.99e-01	0	57	0	653787136	49	4238
2026-01-01 01:46:01.01	220.59	33.82	-38.5	-40.4	23.4	6.05e-01	0	57	0	659030016	49	4255
2026-01-01 01:46:04.04	220.15	33.10	-37.5	-39.3	24.1	6.01e-01	0	57	0	664797184	47	4197
2026-01-01 01:46:07.07	219.72	32.39	-37.3	-39.0	24.4	6.00e-01	0	57	0	670564352	46	4295
2026-01-01 01:46:10.10	219.32	31.70	-37.3	-39.0	24.4	6.02e-01	0	57	0	676331520	46	4311
2026-01-01 01:46:13.13	218.93	31.03	-37.3	-39.0	24.3	6.04e-01	0	57	0	682098688	46	4333
2026-01-01 01:46:16.16	218.56	30.37	-37.3	-38.9	24.4	6.04e-01	0	57	0	687865856	46	4283
2026-01-01 01:46:19.19	218.20	29.72	-37.5	-39.2	24.2	6.00e-01	0	57	0	693108736	46	4415
2026-01-01 01:46:22.22	217.86	29.09	-37.3	-38.9	24.3	6.01e-01	0	57	0	698875904	46	4290
2026-01-01 01:46:25.25	217.53	28.47	-37.3	-39.0	24.3	6.00e-01	0	57	0	704643072	46	4312
2026-01-01 01:46:28.28	217.21	27.87	-37.4	-39.1	24.2	6.05e-01	0	57	0	710410240	46	4366
2026-01-01 01:46:31.31	216.91	27.28	-37.6	-39.4	24.0	6.04e-01	0	57	0	716177408	46	4503
2026-01-01 01:46:34.34	216.62	26.70	-37.8	-39.6	23.7	6.00e-01	0	57	0	721944576	46	4621
2026-01-01 01:46:37.37	216.34	26.13	-37.7	-39.5	23.8	6.04e-01	0	57	0	727187456	46	4556
2026-01-01 01:46:40.40	216.07	25.58	-37.8	-39.6	23.7	6.01e-01	0	57	0	732954624	46	4617
2026-01-01 01:46:43.43	215.81	25.04	-37.9	-39.8	23.5	5.99e-01	0	57	0	738721792	46	4718
2026-01-01 01:46:46.47	215.56	24.50	-38.1	-39.9	23.4	6.01e-01	0	57	0	744488960	46	4795
2026-01-01 01:46:49.49	215.32	23.99	-38.2	-40.0	23.3	6.01e-01	0	57	0	750256128	46	4853
2026-01-01 01:46:52.52	215.08	23.47	-38.1	-40.0	23.3	6.02e-01	0	57	0	756023296	46	4843
2026-01-01 01:46:55.55	214.86	22.98	-38.1	-40.0	23.3	6.02e-01	0	57	0	761790464	46	4823
2026-01-01 01:46:58.58	214.64	22.49	-38.2	-40.0	23.2	6.03e-01	0	57	0	767033344	46	4868
2026-01-01 01:47:01.61	214.43	22.00	-38.3	-40.2	23.0	6.01e-01	0	57	0	772800512	47	4703
2026-01-01 01:47:04.64	214.22	21.53	-38.3	-40.2	23.0	5.99e-01	0	57	0	778567680	47	4693
2026-01-01 01:47:07.67	214.03	21.07	-38.2	-40.1	23.1	6.01e-01	0	57	0	784334848	47	4609
2026-01-01 01:47:10.70	213.84	20.62	-38.0	-39.8	23.3	6.01e-01	0	57	0	790102016	47	4480
2026-01-01 01:47:13.73	213.65	20.17	-38.0	-39.8	23.3	6.03e-01	0	57	0	795344896	47	4492
2026-01-01 01:47:16.77	213.47	19.73	-38.1	-40.0	23.2	5.98e-01	0	57	0	801112064	47	4552
2026-01-01 01:47:19.79	213.30	19.31	-38.2	-40.1	23.1	6.02e-01	0	57	0	806879232	47	4621
2026-01-01 01:47:22.82	213.13	18.89	-38.2	-40.1	23.0	6.03e-01	0	57	0	812646400	47	4638
2026-01-01 01:47:25.85	212.97	18.47	-38.1	-40.0	23.2	6.00e-01	0	57	0	818413568	47	4546
2026-01-01 01:47:28.88	212.81	18.07	-38.0	-39.8	23.3	5.99e-01	0	57	0	824180736	47	4491
2026-01-01 01:47:31.91	212.65	17.67	-37.9	-39.7	23.4	6.02e-01	0	57	0	829947904	47	4441
2026-01-01 01:47:34.94	212.50	17.27	-37.9	-39.8	23.3	6.02e-01	0	57	0	835190784	47	4460
2026-01-01 01:47:37.97	212.36	16.89	-38.0	-39.8	23.3	6.01e-01	0	57	0	840957952	47	4484
2026-01-01 01:47:41.00	212.22	16.51	-38.0	-39.9	23.2	6.03e-01	0	57	0	846725120	47	4511
2026-01-01 01:47:44.03	212.08	16.14	-38.0	-39.9	23.2	6.00e-01	0	57	0	852492288	47	4519
2026-01-01 01:47:47.06	211.95	15.77	-38.2	-40.1	23.0	6.04e-01	0	57	0	858259456	47	4610
2026-01-01 01:47:50.08	211.82	15.41	-38.1	-40.1	23.0	6.03e-01	0	57	0	863502336	47	4614
2026-01-01 01:47:53.11	211.69	15.05	-38.2	-40.2	22.9	6.02e-01	0	57	0	869269504	47	4663
2026-01-01 01:47:56.14	211.57	14.70	-38.2	-40.2	22.9	6.00e-01	0	57	0	875036672	47	4656
2026-01-01 01:47:59.17	211.45	14.36	-38.2	-40.2	22.8	6.01e-01	0	57	0	880803840	47	4667
2026-01-01 01:48:02.20	211.33	14.02	-38.2	-40.1	22.8	6.02e-01	0	57	0	886571008	47	4651
2026-01-01 01:48:05.23	211.22	13.68	-38.1	-40.1	22.9	6.03e-01	0	57	0	892338176	47	4618
2026-01-01 01:48:08.26	211.11	13.35	-38.2	-40.1	22.9	6.01e-01	0	57	0	897581056	47	4621
2026-01-01 01:48:11.29	211.00	13.03	-38.2	-40.1	22.8	6.00e-01	0	57	0	903348224	47	4638
2026-01-01 01:48:14.33	210.89	12.71	-38.3	-40.2	22.6	6.02e-01	0	57	0	909115392	47	4703
2026-01-01 01:48:17.36	210.79	12.39	-38.3	-40.3	22.6	6.02e-01	0	57	0	914882560	47	4739
2026-01-01 01:48:20.39	210.69	12.08	-38.2	-40.2	22.6	6.03e-01	0	57	0	920649728	47	4702
2026-01-01 01:48:23.42	210.59	11.78	-38.2	-40.2	22.6	6.02e-01	0	57	0	926416896	47	4672
2026-01-01 01:48:26.45	210.50	11.47	-38.2	-40.2	22.6	6.02e-01	0	57	0	932184064	47	4689
2026-01-01 01:48:29.49	210.40	11.17	-38.3	-40.3	22.5	6.04e-01	0	57	0	937426944	47	4714
2026-01-01 01:48:32.51	210.31	10.88	-38.3	-40.4	22.4	6.00e-01	0	57	0	943194112	47	4778
2026-01-01 01:48:35.54	210.22	10.59	-38.3	-40.4	22.4	6.03e-01	0	57	0	948961280	47	4780
2026-01-01 01:48:38.57	210.14	10.30	-38.4	-40.5	22.3	6.02e-01	0	57	0	954728448	47	4832
2026-01-01 01:48:41.60	210.05	10.02	-38.5	-40.6	22.2	6.00e-01	0	57	0	960495616	47	4882
2026-01-01 01:48:44.62	209.97	9.74	-38.5	-40.6	22.1	6.02e-01	0	57	0	965738496	47	4910
2026-01-01 01:48:47.65	209.89	9.46	-38.6	-40.8	21.9	6.01e-01	0	57	0	971505664	47	5018
2026-01-01 01:48:50.68	209.81	9.19	-38.7	-40.9	21.8	6.01e-01	0	57	0	977272832	47	5054
2026-01-01 01:48:53.71	209.73	8.92	-39.1	-41.3	21.7	6.02e-01	0	57	0	983040000	48	5011
2026-01-01 01:48:56.75	209.65	8.65	-39.1	-41.3	21.7	5.98e-01	0	57	0	988807168	48	5001
2026-01-01 01:48:59.78	209.58	8.39	-39.1	-41.4	21.6	6.02e-01	0	57	0	994574336	48	5054
2026-01-01 01:49:02.80	209.51	8.13	-39.1	-41.4	21.5	6.02e-01	0	57	0	1000341504	48	5066
2026-01-01 01:49:05.84	209.43	7.87	-45.4	-64.0	3.8	7.47e-01	0	57	104	1003487232	61	32278
2026-01-01 01:49:08.87	209.36	7.61	-45.9	-64.6	3.8	7.48e-01	0	57	104	1003487232	62	32759
2026-01-01 01:49:11.89	209.30	7.36	-46.0	-64.8	3.8	7.47e-01	0	58	104	1003487232	62	33533
2026-01-01 01:49:14.93	209.23	7.11	-45.9	-64.7	3.8	7.46e-01	0	58	104	1003487232	62	33306
2026-01-01 01:49:17.96	209.16	6.86	-45.9	-64.7	3.8	7.46e-01	0	57	104	1003487232	62	33006
2026-01-01 01:49:20.99	209.10	6.62	-45.9	-64.7	3.8	7.46e-01	0	58	104	1003487232	62	33041
2026-01-01 01:49:24.02	209.04	6.38	-45.9	-64.7	3.8	7.45e-01	0	57	104	1003487232	62	33029
2026-01-01 01:49:27.06	208.98	6.14	-45.9	-64.7	3.8	7.45e-01	0	57	104	1003487232	62	33025
2026-01-01 01:49:30.09	208.92	5.90	-45.9	-64.7	3.8	7.46e-01	0	57	104	1003487232	62	33019
2026-01-01 01:49:33.12	208.86	5.67	-45.9	-64.7	3.8	7.46e-01	0	57	104	1003487232	62	33019
2026-01-01 01:49:36.16	208.80	5.43	-45.9	-64.7	3.8	7.47e-01	0	57	104	1003487232	62	32979
2026-01-01 01:49:39.19	208.74	5.20	-45.9	-64.7	3.8	7.45e-01	0	58	104	1003487232	62	32975
2026-01-01 01:49:42.22	208.69	4.97	-45.9	-64.6	3.8	7.44e-01	0	58	104	1003487232	62	32890
2026-01-01 01:49:45.25	208.63	4.75	-45.9	-64.6	3.8	7.43e-01	0	58	104	1003487232	62	32917
2026-01-01 01:49:48.28	208.58	4.53	-45.9	-64.6	3.8	7.44e-01	0	58	104	1003487232	62	32921
2026-01-01 01:49:51.32	208.52	4.30	-45.9	-64.6	3.8	7.43e-01	0	58	104	1003487232	62	32841
2026-01-01 01:49:54.35	208.47	4.08	-45.9	-64.6	3.8	7.44e-01	0	58	104	1003487232	62	32845
2026-01-01 01:49:57.38	208.42	3.87	-45.8	-64.6	3.8	7.47e-01	0	57	104	1003487232	62	32836
2026-01-01 01:50:00.42	208.37	3.65	-45.8	-64.6	3.8	7.44e-01	0	58	104	1003487232	62	32822
2026-01-01 01:50:03.45	208.32	3.44	-45.8	-64.6	3.8	7.46e-01	0	58	104	1003487232	62	32846
2026-01-01 01:50:06.48	208.27	3.22	-45.8	-64.6	3.8	7.42e-01	0	58	104	1003487232	62	32888
2026-01-01 01:50:09.52	208.23	3.01	-45.8	-64.6	3.8	7.42e-01	0	58	104	1003487232	62	32839
2026-01-01 01:50:12.55	208.18	2.80	-45.8	-64.6	3.8	7.45e-01	0	58	104	1003487232	62	32808
2026-01-01 01:50:15.58	208.14	2.60	-45.8	-64.6	3.8	7.47e-01	0	58	104	1003487232	62	32751
2026-01-01 01:50:18.62	208.09	2.39	-45.8	-64.6	3.8	7.46e-01	0	58	104	1003487232	62	32822
2026-01-01 01:50:21.65	208.05	2.19	-45.8	-64.6	3.8	7.46e-01	0	58	104	1003487232	62	32716
2026-01-01 01:50:24.68	208.00	1.99	-45.8	-64.6	3.8	7.46e-01	0	58	104	1003487232	62	32765

#Closed at: 2026-01-01 01:50:25
#Recorded file [1003 MB]: D:/lorett/data/31039_260101_043740.dat