passes_logs/2026/01/01/R2.0S_Moscow/R2.0S_Moscow__20260101_104829_NOAA_20_JPSS-1_rec.log

#Pass ID: 20260101_104829_NOAA 20 (JPSS-1)
#Satellite: NOAA 20 (JPSS-1)
#Configuration: NOAA 20
#almurnet v.1.7.20251203
#Start time: 2026-01-01 10:48:28

#Version: 2.2.20231116
#Station: R2.0S_Moscow
#Location: 37.707566 lon 55.798166 lat
#TLE: 1 43013U 17073A   25365.45761817  .00000173  00000+0  10307-3 0  9993
#TLE: 2 43013  98.7620 301.5517 0001951  60.3814 299.7557 14.19531661420675

#Time	Az	El	Level	Level2	SNR	BER	BlckErr	Temp	State	Recorded	gain1	gain2
2026-01-01 10:48:28.89	186.94	1.97	-44.2	-58.7	3.8	1.49e+00	0	49	0	0	60	18545
2026-01-01 10:48:32.92	187.11	2.21	-44.1	-58.7	3.8	1.49e+00	0	49	104	0	60	18548
2026-01-01 10:48:36.97	187.29	2.46	-44.2	-58.7	3.8	1.49e+00	0	49	104	0	60	18550
2026-01-01 10:48:41.01	187.46	2.72	-44.1	-58.7	3.8	1.49e+00	0	50	104	0	60	18538
2026-01-01 10:48:45.06	187.65	2.97	-44.1	-58.7	3.8	1.49e+00	0	50	104	0	60	18531
2026-01-01 10:48:49.10	187.83	3.23	-44.1	-58.7	3.8	1.49e+00	0	50	104	0	60	18529
2026-01-01 10:48:53.15	188.02	3.49	-44.1	-58.6	3.8	1.49e+00	0	50	104	0	60	18504
2026-01-01 10:48:57.19	188.21	3.75	-44.1	-58.7	3.8	1.49e+00	0	51	104	0	60	18537
2026-01-01 10:49:01.24	188.40	4.01	-44.1	-58.6	3.8	1.49e+00	0	51	104	0	60	18514
2026-01-01 10:49:05.28	188.60	4.28	-44.1	-58.6	3.8	1.49e+00	0	51	104	0	60	18440
2026-01-01 10:49:09.32	188.80	4.54	-44.1	-58.6	3.8	1.49e+00	0	51	104	0	60	18306
2026-01-01 10:49:13.37	189.01	4.82	-44.1	-58.6	3.8	1.49e+00	0	51	104	0	60	18348
2026-01-01 10:49:17.41	189.22	5.09	-44.1	-58.6	3.8	1.49e+00	0	52	104	0	60	18452
2026-01-01 10:49:21.45	189.43	5.36	-44.1	-58.6	3.8	1.49e+00	0	52	104	0	60	18446
2026-01-01 10:49:25.50	189.64	5.64	-44.1	-58.5	3.8	1.49e+00	0	52	104	0	60	18262
2026-01-01 10:49:29.54	189.86	5.92	-44.1	-58.4	3.8	1.49e+00	0	52	104	0	60	18000
2026-01-01 10:49:33.58	190.09	6.21	-44.1	-58.2	3.8	1.49e+00	0	53	104	0	60	17606
2026-01-01 10:49:37.62	190.31	6.49	-44.1	-58.3	3.8	1.49e+00	0	52	104	0	60	17834
2026-01-01 10:49:41.67	190.55	6.78	-44.0	-57.0	3.8	1.49e+00	0	53	104	0	60	15312
2026-01-01 10:49:45.71	190.78	7.07	-43.5	-51.6	5.9	4.82e-01	0	53	0	3145728	59	8690
2026-01-01 10:49:49.75	191.02	7.37	-42.3	-47.0	10.3	1.06e-02	0	53	0	11534336	56	6122
2026-01-01 10:49:53.80	191.27	7.67	-40.9	-44.4	12.9	8.08e-05	0	53	0	18874368	53	5352
2026-01-01 10:49:57.84	191.52	7.97	-40.6	-43.8	13.5	9.10e-06	0	54	0	26214400	53	5014
2026-01-01 10:50:01.88	191.78	8.27	-43.1	-49.8	7.9	8.92e-05	0	54	0	33554432	56	8445
2026-01-01 10:50:05.92	192.04	8.58	-40.7	-43.9	13.4	1.52e-05	0	54	0	41943040	53	5059
2026-01-01 10:50:09.96	192.30	8.89	-40.3	-43.3	14.1	3.00e-06	0	54	0	49283072	52	5012
2026-01-01 10:50:14.00	192.58	9.20	-40.2	-43.0	14.4	0.00e+00	0	54	0	56623104	52	4844
2026-01-01 10:50:18.04	192.85	9.52	-40.1	-42.9	14.6	7.00e-07	0	54	0	63963136	52	4776
2026-01-01 10:50:22.08	193.14	9.84	-40.0	-42.8	14.7	0.00e+00	0	54	0	71303168	52	4718
2026-01-01 10:50:26.12	193.43	10.16	-40.0	-42.7	14.8	0.00e+00	0	54	0	79691776	51	4941
2026-01-01 10:50:30.16	193.72	10.49	-40.0	-42.7	14.8	0.00e+00	0	55	0	87031808	51	4939
2026-01-01 10:50:34.20	194.02	10.83	-39.8	-42.4	15.1	0.00e+00	0	55	0	94371840	51	4808
2026-01-01 10:50:38.24	194.33	11.16	-39.8	-42.4	15.1	0.00e+00	0	54	0	101711872	51	4814
2026-01-01 10:50:42.28	194.65	11.50	-39.8	-42.4	15.2	0.00e+00	0	55	0	110100480	51	4762
2026-01-01 10:50:46.32	194.97	11.84	-39.7	-42.2	15.3	0.00e+00	0	55	0	117440512	51	4700
2026-01-01 10:50:50.36	195.30	12.19	-39.7	-42.2	15.4	0.00e+00	0	55	0	124780544	51	4678
2026-01-01 10:50:54.40	195.64	12.54	-39.6	-42.1	15.6	0.00e+00	0	55	0	132120576	51	4609
2026-01-01 10:50:58.44	195.98	12.90	-39.6	-42.0	15.8	0.00e+00	0	55	0	140509184	51	4554
2026-01-01 10:51:02.48	196.33	13.26	-39.4	-41.6	16.1	0.00e+00	0	55	0	147849216	50	4649
2026-01-01 10:51:06.52	196.70	13.63	-39.3	-41.5	16.3	0.00e+00	0	55	0	155189248	50	4570
2026-01-01 10:51:10.56	197.07	14.00	-39.2	-41.4	16.4	0.00e+00	0	55	0	162529280	50	4507
2026-01-01 10:51:14.60	197.45	14.37	-39.1	-41.3	16.5	0.00e+00	0	55	0	169869312	50	4475
2026-01-01 10:51:18.64	197.84	14.75	-39.2	-41.4	16.4	0.00e+00	0	55	0	178257920	50	4538
2026-01-01 10:51:22.68	198.23	15.13	-39.3	-41.5	16.3	0.00e+00	0	55	0	185597952	50	4588
2026-01-01 10:51:26.72	198.64	15.52	-39.4	-41.7	16.1	0.00e+00	0	55	0	192937984	50	4676
2026-01-01 10:51:30.76	199.06	15.92	-39.6	-41.9	15.9	0.00e+00	0	56	0	200278016	50	4786
2026-01-01 10:51:34.80	199.49	16.31	-39.6	-41.9	16.0	0.00e+00	0	56	0	208666624	50	4786
2026-01-01 10:51:38.85	199.93	16.72	-39.4	-41.7	16.2	0.00e+00	0	56	0	216006656	50	4680
2026-01-01 10:51:42.89	200.39	17.13	-39.3	-41.4	16.5	0.00e+00	0	56	0	223346688	50	4539
2026-01-01 10:51:46.93	200.85	17.54	-39.1	-41.3	16.6	0.00e+00	0	56	0	230686720	50	4459
2026-01-01 10:51:50.97	201.33	17.96	-39.1	-41.2	16.8	0.00e+00	0	56	0	238026752	50	4420
2026-01-01 10:51:55.01	201.82	18.39	-39.2	-41.4	16.6	0.00e+00	0	56	0	246415360	50	4508
2026-01-01 10:51:59.04	202.32	18.81	-39.3	-41.5	16.5	0.00e+00	0	56	0	253755392	50	4588
2026-01-01 10:52:03.08	202.84	19.25	-39.5	-41.8	16.3	0.00e+00	0	56	0	261095424	50	4724
2026-01-01 10:52:07.12	203.38	19.69	-39.6	-42.0	16.1	0.00e+00	0	56	0	268435456	50	4815
2026-01-01 10:52:11.16	203.92	20.14	-39.7	-42.0	16.0	0.00e+00	0	56	0	276824064	50	4865
2026-01-01 10:52:15.19	204.49	20.59	-39.8	-42.1	16.0	0.00e+00	0	56	0	284164096	50	4902
2026-01-01 10:52:19.23	205.07	21.04	-39.8	-42.2	15.9	0.00e+00	0	56	0	291504128	50	4931
2026-01-01 10:52:23.27	205.66	21.51	-39.8	-42.1	16.0	0.00e+00	0	56	0	298844160	50	4924
2026-01-01 10:52:27.31	206.28	21.97	-39.7	-42.0	16.0	0.00e+00	0	56	0	306184192	50	4863
2026-01-01 10:52:31.35	206.91	22.45	-39.8	-42.2	16.0	0.00e+00	0	56	0	314572800	50	4933
2026-01-01 10:52:35.38	207.56	22.92	-39.8	-42.1	16.0	0.00e+00	0	56	0	321912832	50	4924
2026-01-01 10:52:39.42	208.24	23.41	-39.8	-42.1	16.1	0.00e+00	0	57	0	329252864	50	4881
2026-01-01 10:52:43.46	208.93	23.90	-39.8	-42.1	16.1	0.00e+00	0	56	0	336592896	50	4876
2026-01-01 10:52:47.50	209.64	24.39	-39.7	-42.0	16.1	0.00e+00	0	56	0	344981504	50	4867
2026-01-01 10:52:51.54	210.38	24.89	-39.9	-42.3	15.8	0.00e+00	0	56	0	352321536	50	5032
2026-01-01 10:52:55.58	211.14	25.39	-39.9	-42.2	15.9	0.00e+00	0	56	0	359661568	50	4975
2026-01-01 10:52:59.62	211.92	25.90	-39.9	-42.3	15.9	0.00e+00	0	57	0	367001600	50	5020
2026-01-01 10:53:03.66	212.73	26.41	-40.2	-42.7	15.5	0.00e+00	0	56	0	374341632	50	5232
2026-01-01 10:53:07.70	213.57	26.92	-40.2	-42.7	15.5	0.00e+00	0	57	0	382730240	51	4957
2026-01-01 10:53:11.73	214.43	27.44	-40.2	-42.6	15.6	0.00e+00	0	56	0	390070272	51	4906
2026-01-01 10:53:15.77	215.32	27.96	-40.4	-43.0	15.2	0.00e+00	0	57	0	397410304	51	5148
2026-01-01 10:53:19.81	216.24	28.48	-40.4	-43.0	15.2	0.00e+00	0	57	0	404750336	51	5142
2026-01-01 10:53:23.85	217.18	29.01	-40.4	-43.0	15.2	7.00e-07	0	57	0	413138944	51	5123
2026-01-01 10:53:27.88	218.16	29.53	-40.4	-43.0	15.2	0.00e+00	0	57	0	420478976	51	5153
2026-01-01 10:53:31.92	219.17	30.06	-40.6	-43.2	15.0	0.00e+00	0	57	0	427819008	51	5257
2026-01-01 10:53:35.96	220.21	30.58	-40.5	-43.1	15.1	0.00e+00	0	57	0	435159040	51	5199
2026-01-01 10:53:40.00	221.29	31.11	-40.4	-43.0	15.3	0.00e+00	0	57	0	442499072	51	5116
2026-01-01 10:53:44.04	222.40	31.63	-40.6	-43.2	14.9	0.00e+00	0	57	0	450887680	51	5271
2026-01-01 10:53:48.08	223.55	32.15	-40.9	-43.8	14.3	0.00e+00	0	57	0	458227712	52	5304
2026-01-01 10:53:52.12	224.74	32.67	-41.1	-44.1	14.0	1.50e-06	0	57	0	465567744	52	5472
2026-01-01 10:53:56.16	225.96	33.18	-41.4	-44.5	13.5	7.60e-06	0	57	0	472907776	53	5462
2026-01-01 10:54:00.21	227.22	33.69	-41.8	-45.3	12.8	6.02e-05	0	57	0	481296384	54	5626
2026-01-01 10:54:04.24	228.52	34.19	-42.3	-46.2	11.8	3.42e-04	0	57	0	488636416	55	5911
2026-01-01 10:54:08.29	229.86	34.68	-42.0	-45.7	12.2	2.19e-04	0	57	0	495976448	55	5579
2026-01-01 10:54:12.33	231.24	35.16	-42.0	-45.7	12.4	1.40e-04	0	57	0	503316480	55	5534
2026-01-01 10:54:16.37	232.65	35.62	-42.0	-45.7	12.4	1.73e-04	0	57	0	510656512	55	5533
2026-01-01 10:54:20.41	234.11	36.08	-41.5	-44.8	13.3	2.21e-05	0	57	0	519045120	55	5023
2026-01-01 10:54:24.45	235.61	36.52	-41.9	-45.5	12.6	9.53e-05	0	57	0	526385152	54	5752
2026-01-01 10:54:28.49	237.15	36.94	-41.2	-44.2	13.9	9.10e-06	0	57	0	533725184	54	4969
2026-01-01 10:54:32.53	238.72	37.35	-40.7	-43.5	14.6	0.00e+00	0	57	0	541065216	53	4854
2026-01-01 10:54:36.57	240.34	37.73	-40.3	-42.8	15.3	0.00e+00	0	57	0	549453824	52	4740
2026-01-01 10:54:40.61	241.99	38.09	-40.5	-43.1	15.0	0.00e+00	0	57	0	556793856	52	4913
2026-01-01 10:54:44.66	243.68	38.44	-40.7	-43.5	14.7	0.00e+00	0	57	0	564133888	52	5130
2026-01-01 10:54:48.70	245.40	38.75	-40.6	-43.3	14.9	0.00e+00	0	57	0	571473920	52	5006
2026-01-01 10:54:52.73	247.14	39.04	-40.9	-43.8	14.3	0.00e+00	0	57	0	578813952	52	5311
2026-01-01 10:54:56.77	248.93	39.30	-40.7	-43.5	14.7	0.00e+00	0	57	0	587202560	52	5101
2026-01-01 10:55:00.81	250.73	39.54	-40.3	-42.8	15.4	0.00e+00	0	57	0	594542592	52	4727
2026-01-01 10:55:04.85	252.57	39.74	-41.1	-44.1	14.1	7.00e-07	0	57	0	601882624	52	5487
2026-01-01 10:55:08.89	254.42	39.91	-40.1	-42.4	15.8	0.00e+00	0	57	0	609222656	51	4793
2026-01-01 10:55:12.93	256.29	40.05	-40.7	-43.5	14.6	7.00e-07	0	57	0	617611264	52	5130
2026-01-01 10:55:16.97	258.17	40.15	-40.6	-43.2	14.9	0.00e+00	0	57	0	624951296	52	4968
2026-01-01 10:55:21.01	260.07	40.22	-42.2	-46.1	12.0	1.72e-04	0	57	0	632291328	54	6179
2026-01-01 10:55:25.05	261.97	40.26	-42.2	-46.2	11.9	4.94e-04	0	57	0	639631360	55	5882
2026-01-01 10:55:29.09	263.87	40.26	-41.8	-45.4	12.7	6.63e-05	0	57	0	646971392	55	5369
2026-01-01 10:55:33.13	265.77	40.23	-41.0	-43.8	14.3	2.20e-06	0	57	0	655360000	54	4758
2026-01-01 10:55:37.17	267.66	40.16	-41.0	-43.9	14.2	2.20e-06	0	57	0	662700032	53	5075
2026-01-01 10:55:41.21	269.54	40.06	-40.8	-43.5	14.6	0.00e+00	0	57	0	670040064	53	4856
2026-01-01 10:55:45.25	271.41	39.92	-41.3	-44.3	13.8	8.30e-06	0	57	0	677380096	53	5339
2026-01-01 10:55:49.29	273.26	39.75	-41.3	-44.4	13.7	3.00e-06	0	57	0	685768704	53	5366
2026-01-01 10:55:53.33	275.09	39.55	-41.6	-44.9	13.3	3.35e-05	0	57	0	693108736	53	5708
2026-01-01 10:55:57.37	276.90	39.32	-41.7	-45.1	13.0	7.09e-05	0	57	0	700448768	54	5510
2026-01-01 10:56:01.41	278.68	39.06	-41.7	-45.1	13.0	2.74e-05	0	57	0	707788800	54	5494
2026-01-01 10:56:05.45	280.43	38.78	-40.7	-43.4	14.8	0.00e+00	0	57	0	715128832	53	4770
2026-01-01 10:56:09.50	282.15	38.46	-40.5	-43.1	15.1	7.00e-07	0	57	0	723517440	52	4895
2026-01-01 10:56:13.54	283.84	38.12	-41.0	-43.9	14.3	7.00e-07	0	58	0	730857472	52	5402
2026-01-01 10:56:17.58	285.49	37.76	-39.9	-42.2	16.0	0.00e+00	0	57	0	738197504	51	4699
2026-01-01 10:56:21.61	287.10	37.38	-38.6	-40.5	17.7	0.00e+00	0	57	0	745537536	49	4316
2026-01-01 10:56:25.66	288.67	36.98	-39.9	-42.2	16.1	0.00e+00	0	57	0	753926144	50	4937
2026-01-01 10:56:29.70	290.21	36.56	-38.6	-40.5	17.8	0.00e+00	0	58	0	761266176	49	4308
2026-01-01 10:56:33.74	291.71	36.12	-38.5	-40.3	17.9	0.00e+00	0	58	0	768606208	48	4475
2026-01-01 10:56:37.78	293.16	35.67	-39.4	-41.5	16.8	0.00e+00	0	58	0	775946240	49	4842
2026-01-01 10:56:41.82	294.58	35.21	-39.0	-41.0	17.2	0.00e+00	0	57	0	783286272	49	4563
2026-01-01 10:56:45.86	295.95	34.73	-40.1	-42.6	15.7	0.00e+00	0	57	0	791674880	51	4880
2026-01-01 10:56:49.90	297.29	34.25	-40.4	-43.0	15.2	0.00e+00	0	57	0	799014912	51	5139
2026-01-01 10:56:53.94	298.59	33.75	-40.1	-42.5	15.8	0.00e+00	0	57	0	806354944	51	4830
2026-01-01 10:56:57.98	299.85	33.25	-41.2	-44.2	13.9	5.30e-06	0	58	0	813694976	53	5269
2026-01-01 10:57:02.02	301.07	32.74	-41.2	-44.3	13.8	7.00e-07	0	57	0	822083584	53	5311
2026-01-01 10:57:06.06	302.25	32.23	-40.7	-43.5	14.7	7.00e-07	0	58	0	829423616	53	4825
2026-01-01 10:57:10.10	303.40	31.71	-41.5	-44.9	13.3	3.80e-06	0	57	0	836763648	53	5664
2026-01-01 10:57:14.13	304.51	31.19	-40.7	-43.5	14.7	7.00e-07	0	58	0	844103680	53	4818
2026-01-01 10:57:18.17	305.58	30.67	-42.4	-46.7	11.3	9.18e-04	0	58	0	851443712	55	6243
2026-01-01 10:57:22.21	306.63	30.15	-41.1	-44.2	13.9	1.50e-06	0	57	0	859832320	54	4936
2026-01-01 10:57:26.25	307.64	29.63	-42.1	-46.0	12.0	2.68e-04	0	57	0	867172352	54	6077
2026-01-01 10:57:30.29	308.61	29.10	-39.7	-42.0	16.2	0.00e+00	0	58	0	874512384	51	4557
2026-01-01 10:57:34.33	309.56	28.58	-40.9	-43.9	14.2	2.20e-06	0	57	0	881852416	52	5374
2026-01-01 10:57:38.37	310.48	28.06	-38.6	-40.6	17.6	0.00e+00	0	58	0	890241024	49	4343
2026-01-01 10:57:42.42	311.37	27.55	-39.8	-42.2	16.0	0.00e+00	0	58	0	897581056	50	4945
2026-01-01 10:57:46.46	312.23	27.03	-38.9	-40.9	17.2	0.00e+00	0	58	0	904921088	49	4531
2026-01-01 10:57:50.50	313.07	26.52	-39.3	-41.4	16.7	0.00e+00	0	58	0	912261120	49	4813
2026-01-01 10:57:54.54	313.88	26.01	-37.6	-39.3	18.7	0.00e+00	0	58	0	919601152	47	4208
2026-01-01 10:57:58.58	314.66	25.51	-37.7	-39.4	18.6	0.00e+00	0	58	0	927989760	46	4512
2026-01-01 10:58:02.62	315.42	25.01	-38.7	-40.6	17.4	0.00e+00	0	58	0	935329792	48	4646
2026-01-01 10:58:06.65	316.16	24.52	-37.9	-39.6	18.3	0.00e+00	0	58	0	942669824	47	4367
2026-01-01 10:58:10.69	316.87	24.03	-38.3	-40.2	17.8	0.00e+00	0	58	0	950009856	47	4673
2026-01-01 10:58:14.73	317.57	23.54	-38.1	-39.9	18.0	0.00e+00	0	58	0	958398464	47	4525
2026-01-01 10:58:18.77	318.24	23.06	-37.8	-39.6	18.3	0.00e+00	0	58	0	965738496	47	4362
2026-01-01 10:58:22.81	318.89	22.59	-38.6	-40.6	17.3	0.00e+00	0	58	0	973078528	47	4918
2026-01-01 10:58:26.85	319.53	22.12	-38.6	-40.5	17.5	0.00e+00	0	58	0	980418560	48	4594
2026-01-01 10:58:30.89	320.15	21.65	-38.5	-40.4	17.6	0.00e+00	0	58	0	988807168	48	4514
2026-01-01 10:58:34.93	320.74	21.19	-38.8	-40.9	17.2	0.00e+00	0	58	0	996147200	48	4760
2026-01-01 10:58:38.97	321.33	20.74	-38.4	-40.2	17.7	0.00e+00	0	57	0	1003487232	48	4441
2026-01-01 10:58:43.01	321.89	20.29	-38.4	-40.3	17.7	0.00e+00	0	58	0	1010827264	48	4467
2026-01-01 10:58:47.05	322.44	19.84	-39.2	-41.4	16.5	0.00e+00	0	58	0	1018167296	49	4793
2026-01-01 10:58:51.09	322.97	19.41	-39.2	-41.4	16.5	0.00e+00	0	58	0	1026555904	49	4796
2026-01-01 10:58:55.12	323.49	18.97	-39.4	-41.7	16.2	0.00e+00	0	58	0	1033895936	49	4963
2026-01-01 10:58:59.16	324.00	18.55	-40.1	-42.7	15.3	0.00e+00	0	58	0	1041235968	50	5238
2026-01-01 10:59:03.20	324.49	18.13	-39.6	-41.9	16.0	0.00e+00	0	58	0	1048576000	50	4812
2026-01-01 10:59:07.24	324.97	17.71	-39.1	-41.3	16.7	0.00e+00	0	58	0	1055916032	50	4448
2026-01-01 10:59:11.28	325.44	17.30	-39.5	-41.7	16.2	0.00e+00	0	58	0	1064304640	50	4696
2026-01-01 10:59:15.31	325.89	16.89	-39.7	-42.1	15.8	0.00e+00	0	58	0	1071644672	50	4923
2026-01-01 10:59:19.35	326.34	16.49	-39.9	-42.3	15.5	0.00e+00	0	58	0	1078984704	50	5032
2026-01-01 10:59:23.39	326.77	16.09	-39.4	-41.6	16.2	0.00e+00	0	58	0	1086324736	50	4636
2026-01-01 10:59:27.43	327.19	15.70	-39.5	-41.9	16.0	0.00e+00	0	58	0	1094713344	50	4769
2026-01-01 10:59:31.47	327.60	15.32	-39.7	-42.1	15.7	0.00e+00	0	58	0	1102053376	50	4925
2026-01-01 10:59:35.50	328.00	14.94	-40.0	-42.6	15.2	0.00e+00	0	58	0	1109393408	50	5215
2026-01-01 10:59:39.54	328.39	14.56	-40.0	-42.6	15.2	0.00e+00	0	58	0	1116733440	50	5216
2026-01-01 10:59:43.58	328.78	14.19	-39.5	-41.9	15.9	0.00e+00	0	58	0	1124073472	50	4761
2026-01-01 10:59:47.62	329.15	13.82	-39.5	-41.8	15.9	0.00e+00	0	58	0	1132462080	50	4748
2026-01-01 10:59:51.66	329.51	13.46	-39.8	-42.2	15.5	0.00e+00	0	58	0	1139802112	50	4983
2026-01-01 10:59:55.70	329.87	13.10	-40.0	-42.6	15.1	0.00e+00	0	58	0	1147142144	50	5204
2026-01-01 10:59:59.74	330.22	12.74	-40.0	-42.7	15.0	0.00e+00	0	58	0	1154482176	50	5261
2026-01-01 11:00:03.78	330.56	12.39	-39.9	-42.5	15.2	0.00e+00	0	58	0	1162870784	50	5126
2026-01-01 11:00:07.83	330.89	12.05	-39.8	-42.3	15.3	0.00e+00	0	58	0	1170210816	50	5013
2026-01-01 11:00:11.86	331.22	11.70	-39.7	-42.2	15.4	0.00e+00	0	58	0	1177550848	50	4947
2026-01-01 11:00:15.90	331.54	11.37	-39.8	-42.3	15.3	0.00e+00	0	58	0	1184890880	50	5023
2026-01-01 11:00:19.94	331.85	11.03	-39.8	-42.4	15.1	0.00e+00	0	58	0	1193279488	50	5093
2026-01-01 11:00:23.98	332.15	10.70	-40.0	-42.8	14.8	0.00e+00	0	58	0	1200619520	50	5299
2026-01-01 11:00:28.02	332.45	10.38	-40.1	-42.9	14.6	7.00e-07	0	58	0	1207959552	50	5365
2026-01-01 11:00:32.06	332.75	10.05	-40.2	-43.1	14.4	0.00e+00	0	58	0	1215299584	51	5186
2026-01-01 11:00:36.10	333.03	9.73	-40.4	-43.4	14.0	1.50e-06	0	58	0	1222639616	51	5371
2026-01-01 11:00:40.14	333.31	9.42	-40.5	-43.5	13.8	4.50e-06	0	58	0	1231028224	51	5458
2026-01-01 11:00:44.18	333.59	9.11	-40.5	-43.7	13.6	4.50e-06	0	58	0	1238368256	51	5530
2026-01-01 11:00:48.22	333.86	8.80	-40.5	-43.6	13.7	6.80e-06	0	58	0	1245708288	51	5490
2026-01-01 11:00:52.26	334.12	8.49	-40.6	-43.8	13.4	1.06e-05	0	58	0	1253048320	51	5625
2026-01-01 11:00:56.29	334.38	8.19	-40.7	-44.0	13.2	1.98e-05	0	58	0	1261436928	51	5746
2026-01-01 11:01:00.33	334.64	7.89	-44.7	-59.0	3.8	1.49e+00	0	58	104	1265631232	59	20485
2026-01-01 11:01:04.37	334.89	7.59	-45.1	-59.6	3.8	1.49e+00	0	58	104	1265631232	60	20716
2026-01-01 11:01:08.41	335.13	7.30	-45.1	-59.7	3.8	1.49e+00	0	58	104	1265631232	60	20944
2026-01-01 11:01:12.45	335.37	7.01	-45.1	-59.7	3.8	1.49e+00	0	58	104	1265631232	60	20778
2026-01-01 11:01:16.50	335.61	6.72	-45.1	-59.6	3.8	1.49e+00	0	58	104	1265631232	60	20696
2026-01-01 11:01:20.54	335.84	6.44	-45.0	-59.6	3.8	1.49e+00	0	58	104	1265631232	60	20685
2026-01-01 11:01:24.58	336.07	6.16	-45.0	-59.6	3.8	1.49e+00	0	58	104	1265631232	60	20661
2026-01-01 11:01:28.63	336.30	5.88	-45.0	-59.6	3.8	1.49e+00	0	58	104	1265631232	60	20612
2026-01-01 11:01:32.67	336.52	5.60	-45.0	-59.6	3.8	1.49e+00	0	58	104	1265631232	60	20681
2026-01-01 11:01:36.72	336.73	5.33	-45.0	-59.6	3.8	1.49e+00	0	58	104	1265631232	60	20626
2026-01-01 11:01:40.76	336.95	5.05	-45.0	-59.6	3.8	1.49e+00	0	58	104	1265631232	60	20617
2026-01-01 11:01:44.81	337.16	4.78	-45.0	-59.6	3.8	1.49e+00	0	58	104	1265631232	60	20630
2026-01-01 11:01:48.85	337.36	4.52	-45.0	-59.6	3.8	1.49e+00	0	58	104	1265631232	60	20627
2026-01-01 11:01:52.89	337.56	4.25	-45.0	-59.6	3.8	1.49e+00	0	58	104	1265631232	60	20668
2026-01-01 11:01:56.94	337.76	3.99	-45.0	-59.6	3.8	1.49e+00	0	58	104	1265631232	60	20545
2026-01-01 11:02:00.98	337.96	3.73	-45.0	-59.6	3.8	1.49e+00	0	58	104	1265631232	60	20579
2026-01-01 11:02:05.03	338.15	3.47	-45.0	-59.6	3.8	1.49e+00	0	58	104	1265631232	60	20566
2026-01-01 11:02:09.07	338.34	3.22	-45.0	-59.6	3.8	1.49e+00	0	58	104	1265631232	60	20553
2026-01-01 11:02:13.11	338.53	2.97	-45.0	-59.6	3.8	1.49e+00	0	58	104	1265631232	60	20552
2026-01-01 11:02:17.16	338.71	2.72	-45.0	-59.6	3.8	1.49e+00	0	58	104	1265631232	60	20549
2026-01-01 11:02:21.20	338.90	2.47	-45.0	-59.6	3.8	1.49e+00	0	58	104	1265631232	60	20547
2026-01-01 11:02:25.24	339.07	2.22	-45.0	-59.5	3.8	1.49e+00	0	58	104	1265631232	60	20531
2026-01-01 11:02:29.29	339.25	1.97	-45.0	-59.6	3.8	1.49e+00	0	58	104	1265631232	60	20545

#Closed at: 2026-01-01 11:02:31
#Recorded file [1265 MB]: D:/lorett/data/31039_260101_134828.dat