passes_logs/2026/01/01/R2.0S_Moscow/R2.0S_Moscow__20260101_111129_AQUA_rec.log

#Pass ID: 20260101_111129_AQUA
#Satellite: AQUA
#Configuration: AQUA
#almurnet v.1.7.20251203
#Start time: 2026-01-01 11:11:30

#Version: 2.2.20231116
#Station: R2.0S_Moscow
#Location: 37.707566 lon 55.798166 lat
#TLE: 1 27424U 02022A   25364.96158943  .00001951  00000+0  40088-3 0  9998
#TLE: 2 27424  98.4061 326.1389 0001917  95.3187 305.7939 14.61780362258696

#Time	Az	El	Level	Level2	SNR	BER	BlckErr	Temp	State	Recorded	gain1	gain2
2026-01-01 11:11:30.08	147.47	2.01	-44.7	-63.4	3.8	7.46e-01	0	48	0	0	61	30350
2026-01-01 11:11:33.12	147.40	2.21	-44.7	-63.4	3.8	7.48e-01	0	49	104	0	60	32053
2026-01-01 11:11:36.16	147.33	2.41	-44.7	-63.4	3.8	7.46e-01	0	49	104	0	60	32052
2026-01-01 11:11:39.19	147.26	2.62	-44.7	-63.4	3.8	7.45e-01	0	49	104	0	60	32046
2026-01-01 11:11:42.22	147.19	2.82	-44.7	-63.4	3.8	7.48e-01	0	49	104	0	60	32053
2026-01-01 11:11:45.25	147.12	3.03	-44.7	-63.4	3.8	7.42e-01	0	49	104	0	60	32056
2026-01-01 11:11:48.28	147.05	3.24	-44.7	-63.4	3.8	7.46e-01	0	50	104	0	60	32058
2026-01-01 11:11:51.31	146.97	3.45	-44.7	-63.4	3.8	7.45e-01	0	50	104	0	60	32122
2026-01-01 11:11:54.34	146.90	3.66	-44.6	-63.4	3.8	7.44e-01	0	50	104	0	60	32130
2026-01-01 11:11:57.37	146.82	3.88	-44.7	-63.4	3.8	7.43e-01	0	50	104	0	60	32019
2026-01-01 11:12:00.41	146.74	4.10	-44.7	-63.4	3.8	7.44e-01	0	51	104	0	60	32060
2026-01-01 11:12:03.44	146.66	4.31	-44.7	-63.4	3.8	7.50e-01	0	51	104	0	60	32021
2026-01-01 11:12:06.47	146.58	4.53	-44.7	-63.3	3.8	7.45e-01	0	51	104	0	60	31609
2026-01-01 11:12:09.51	146.50	4.76	-44.7	-62.8	3.8	7.43e-01	0	51	104	0	60	29745
2026-01-01 11:12:12.54	146.42	4.98	-44.7	-62.7	3.8	7.44e-01	0	51	104	0	60	29497
2026-01-01 11:12:15.57	146.33	5.21	-44.7	-63.3	3.8	7.45e-01	0	51	104	0	60	31607
2026-01-01 11:12:18.60	146.24	5.43	-44.7	-63.1	3.8	7.45e-01	0	51	104	0	60	30970
2026-01-01 11:12:21.64	146.15	5.66	-44.7	-62.5	3.8	7.39e-01	0	51	104	0	60	28917
2026-01-01 11:12:24.67	146.06	5.90	-44.7	-61.4	3.8	7.47e-01	0	52	104	0	60	25374
2026-01-01 11:12:27.70	145.97	6.13	-44.6	-59.7	3.9	7.33e-01	0	52	104	0	60	20925
2026-01-01 11:12:30.74	145.88	6.37	-44.6	-58.4	4.7	7.17e-01	0	52	104	0	60	18062
2026-01-01 11:12:33.77	145.78	6.61	-44.5	-57.4	5.2	7.03e-01	0	52	0	0	60	16090
2026-01-01 11:12:36.80	145.68	6.85	-44.3	-55.2	6.9	6.66e-01	92	52	0	2097152	60	12479
2026-01-01 11:12:39.84	145.58	7.10	-43.9	-51.4	11.1	6.17e-01	0	52	0	7864320	59	8550
2026-01-01 11:12:42.87	145.48	7.34	-42.8	-47.7	15.0	6.08e-01	0	52	0	13631488	57	6258
2026-01-01 11:12:45.90	145.38	7.59	-41.3	-44.8	17.8	6.06e-01	0	53	0	19398656	54	5322
2026-01-01 11:12:48.93	145.27	7.85	-40.2	-43.0	19.6	6.08e-01	0	53	0	25165824	52	4827
2026-01-01 11:12:51.97	145.16	8.10	-40.5	-43.4	19.0	6.06e-01	0	53	0	30932992	52	5076
2026-01-01 11:12:55.00	145.05	8.36	-43.4	-49.5	13.4	6.10e-01	0	53	0	36175872	57	7631
2026-01-01 11:12:58.03	144.94	8.62	-39.5	-42.0	20.7	6.07e-01	0	53	0	41943040	51	4560
2026-01-01 11:13:01.05	144.83	8.88	-39.4	-41.8	20.8	6.07e-01	0	53	0	47710208	50	4759
2026-01-01 11:13:04.08	144.71	9.15	-39.4	-41.8	21.0	6.04e-01	0	53	0	53477376	50	4707
2026-01-01 11:13:07.11	144.59	9.42	-39.3	-41.7	21.1	6.06e-01	0	54	0	59244544	50	4677
2026-01-01 11:13:10.14	144.47	9.69	-39.3	-41.6	21.2	6.05e-01	0	53	0	65011712	50	4620
2026-01-01 11:13:13.17	144.34	9.97	-39.2	-41.5	21.3	6.06e-01	0	53	0	70254592	50	4587
2026-01-01 11:13:16.20	144.21	10.25	-39.2	-41.4	21.5	6.06e-01	0	54	0	76021760	50	4529
2026-01-01 11:13:19.22	144.08	10.53	-39.1	-41.3	21.6	6.07e-01	0	54	0	81788928	50	4484
2026-01-01 11:13:22.25	143.95	10.82	-39.0	-41.2	21.8	6.07e-01	0	54	0	87556096	49	4657
2026-01-01 11:13:25.28	143.81	11.11	-38.9	-41.0	22.0	6.08e-01	0	54	0	93323264	49	4580
2026-01-01 11:13:28.31	143.67	11.40	-38.7	-40.7	22.3	6.06e-01	0	54	0	99090432	49	4432
2026-01-01 11:13:31.34	143.53	11.70	-38.6	-40.6	22.5	6.06e-01	0	54	0	104333312	49	4353
2026-01-01 11:13:34.37	143.38	12.00	-38.4	-40.4	22.7	6.06e-01	0	54	0	110100480	48	4509
2026-01-01 11:13:37.40	143.23	12.31	-38.3	-40.2	22.9	6.08e-01	0	54	0	115867648	48	4440
2026-01-01 11:13:40.43	143.08	12.62	-38.2	-40.1	23.0	6.06e-01	0	54	0	121634816	48	4378
2026-01-01 11:13:43.46	142.92	12.93	-38.2	-40.1	23.0	6.08e-01	0	54	0	127401984	48	4369
2026-01-01 11:13:46.48	142.76	13.25	-38.3	-40.1	23.0	6.07e-01	0	54	0	132644864	48	4391
2026-01-01 11:13:49.51	142.60	13.57	-38.3	-40.2	23.0	6.07e-01	0	55	0	138412032	48	4431
2026-01-01 11:13:52.55	142.43	13.90	-38.4	-40.3	22.9	6.07e-01	0	55	0	144179200	48	4486
2026-01-01 11:13:55.58	142.26	14.23	-38.4	-40.3	22.9	6.07e-01	0	55	0	149946368	48	4474
2026-01-01 11:13:58.61	142.08	14.57	-38.3	-40.2	23.0	6.06e-01	0	55	0	155713536	48	4440
2026-01-01 11:14:01.64	141.90	14.91	-38.2	-40.1	23.1	6.05e-01	0	55	0	161480704	48	4381
2026-01-01 11:14:04.67	141.71	15.26	-38.1	-40.0	23.3	6.06e-01	0	55	0	167247872	48	4314
2026-01-01 11:14:07.70	141.52	15.61	-38.1	-39.9	23.4	6.04e-01	0	55	0	172490752	48	4264
2026-01-01 11:14:10.73	141.32	15.97	-38.0	-39.9	23.5	6.05e-01	0	55	0	178257920	48	4246
2026-01-01 11:14:13.76	141.12	16.33	-37.7	-39.6	23.4	6.05e-01	0	55	0	184025088	47	4355
2026-01-01 11:14:16.79	140.91	16.70	-37.8	-39.6	23.4	6.07e-01	0	55	0	189792256	47	4373
2026-01-01 11:14:19.82	140.70	17.07	-37.8	-39.6	23.4	6.08e-01	0	55	0	195559424	47	4368
2026-01-01 11:14:22.85	140.48	17.45	-37.9	-39.7	23.3	6.07e-01	0	55	0	201326592	47	4427
2026-01-01 11:14:25.88	140.25	17.84	-38.0	-39.9	23.2	6.07e-01	0	55	0	206569472	47	4499
2026-01-01 11:14:28.90	140.02	18.23	-38.1	-40.0	23.1	6.07e-01	0	55	0	212336640	47	4547
2026-01-01 11:14:31.93	139.78	18.63	-38.1	-40.0	23.0	6.05e-01	0	55	0	218103808	47	4591
2026-01-01 11:14:34.96	139.53	19.04	-38.1	-40.0	23.1	6.06e-01	0	55	0	223870976	47	4561
2026-01-01 11:14:37.99	139.28	19.45	-37.9	-39.8	23.3	6.06e-01	0	55	0	229638144	47	4477
2026-01-01 11:14:41.02	139.02	19.87	-37.8	-39.7	23.5	6.07e-01	0	55	0	235405312	47	4398
2026-01-01 11:14:44.05	138.75	20.30	-38.0	-39.8	23.3	6.05e-01	0	55	0	240648192	47	4486
2026-01-01 11:14:47.08	138.47	20.73	-38.2	-40.1	23.1	6.07e-01	0	55	0	246415360	47	4616
2026-01-01 11:14:50.11	138.19	21.18	-38.3	-40.2	23.0	6.05e-01	0	55	0	252182528	47	4674
2026-01-01 11:14:53.13	137.89	21.63	-38.2	-40.1	23.2	6.04e-01	0	55	0	257949696	47	4603
2026-01-01 11:14:56.16	137.59	22.09	-38.1	-40.0	23.2	6.08e-01	0	56	0	263716864	47	4583
2026-01-01 11:14:59.19	137.28	22.55	-38.2	-40.1	23.2	6.06e-01	0	56	0	269484032	47	4618
2026-01-01 11:15:02.22	136.95	23.03	-38.3	-40.3	23.0	6.05e-01	0	56	0	274726912	47	4718
2026-01-01 11:15:05.25	136.62	23.51	-38.5	-40.4	22.9	6.07e-01	0	56	0	280494080	47	4786
2026-01-01 11:15:08.28	136.27	24.01	-38.4	-40.4	22.9	6.08e-01	0	55	0	286261248	47	4764
2026-01-01 11:15:11.31	135.91	24.51	-38.2	-40.1	23.2	6.05e-01	0	56	0	292028416	47	4626
2026-01-01 11:15:14.33	135.54	25.02	-38.4	-40.3	23.0	6.07e-01	0	56	0	297795584	47	4742
2026-01-01 11:15:17.36	135.16	25.54	-38.6	-40.5	22.8	6.07e-01	0	56	0	303562752	47	4842
2026-01-01 11:15:20.39	134.76	26.07	-38.1	-40.0	23.3	6.07e-01	0	56	0	308805632	47	4574
2026-01-01 11:15:23.42	134.35	26.61	-37.9	-39.7	23.6	6.05e-01	0	56	0	314572800	47	4427
2026-01-01 11:15:26.45	133.92	27.16	-38.1	-40.0	23.4	6.06e-01	0	56	0	320339968	47	4564
2026-01-01 11:15:29.48	133.48	27.72	-37.9	-39.6	23.7	6.06e-01	0	56	0	326107136	47	4391
2026-01-01 11:15:32.51	133.02	28.30	-38.0	-39.8	23.6	6.06e-01	0	56	0	331874304	47	4450
2026-01-01 11:15:35.53	132.54	28.88	-37.8	-39.6	23.8	6.05e-01	0	56	0	337117184	47	4350
2026-01-01 11:15:38.56	132.04	29.47	-37.6	-39.4	24.0	6.05e-01	0	56	0	342884352	47	4245
2026-01-01 11:15:41.60	131.53	30.08	-37.7	-39.4	24.0	6.05e-01	0	56	0	348651520	47	4263
2026-01-01 11:15:44.63	130.99	30.69	-37.8	-39.5	23.9	6.04e-01	0	56	0	354418688	47	4331
2026-01-01 11:15:47.66	130.43	31.32	-37.6	-39.3	24.1	6.06e-01	0	56	0	360185856	47	4220
2026-01-01 11:15:50.69	129.85	31.96	-37.7	-39.4	24.0	6.06e-01	0	56	0	365953024	47	4288
2026-01-01 11:15:53.71	129.24	32.61	-37.6	-39.3	24.1	6.08e-01	0	56	0	371720192	47	4225
2026-01-01 11:15:56.74	128.61	33.27	-38.2	-40.1	23.4	6.07e-01	0	56	0	376963072	47	4629
2026-01-01 11:15:59.77	127.95	33.95	-38.0	-39.8	23.6	6.05e-01	0	56	0	382730240	47	4478
2026-01-01 11:16:02.80	127.26	34.63	-38.3	-40.1	23.4	6.04e-01	0	56	0	388497408	47	4651
2026-01-01 11:16:05.84	126.53	35.33	-39.2	-41.1	22.8	6.07e-01	0	56	0	394264576	48	4925
2026-01-01 11:16:08.86	125.78	36.04	-38.9	-40.8	23.1	6.05e-01	0	56	0	400031744	48	4735
2026-01-01 11:16:11.89	124.99	36.75	-39.6	-41.6	22.3	6.07e-01	0	56	0	405798912	49	4913
2026-01-01 11:16:14.92	124.17	37.48	-39.6	-41.6	22.3	6.08e-01	0	56	0	411041792	49	4914
2026-01-01 11:16:17.94	123.31	38.22	-39.9	-42.0	21.9	6.05e-01	0	56	0	416808960	50	4866
2026-01-01 11:16:20.97	122.40	38.97	-40.0	-42.2	21.8	6.09e-01	0	56	0	422576128	50	4967
2026-01-01 11:16:24.00	121.45	39.73	-40.1	-42.3	21.7	6.07e-01	0	56	0	428343296	50	5019
2026-01-01 11:16:27.03	120.45	40.49	-39.6	-41.7	22.3	6.08e-01	0	56	0	434110464	50	4666
2026-01-01 11:16:30.06	119.40	41.27	-39.5	-41.6	22.4	6.08e-01	0	56	0	439877632	50	4620
2026-01-01 11:16:33.08	118.31	42.04	-39.3	-41.2	22.7	6.04e-01	0	56	0	445120512	50	4429
2026-01-01 11:16:36.12	117.15	42.83	-39.3	-41.3	22.7	6.07e-01	0	56	0	450887680	50	4454
2026-01-01 11:16:39.14	115.94	43.61	-39.2	-41.2	22.8	6.06e-01	0	56	0	456654848	50	4401
2026-01-01 11:16:42.17	114.66	44.40	-39.0	-40.9	23.0	6.07e-01	0	56	0	462422016	50	4274
2026-01-01 11:16:45.20	113.32	45.19	-39.3	-41.3	22.7	6.07e-01	0	56	0	468189184	49	4741
2026-01-01 11:16:48.24	111.90	45.99	-39.2	-41.1	22.9	6.05e-01	0	56	0	473432064	49	4637
2026-01-01 11:16:51.27	110.42	46.77	-39.1	-41.0	23.0	6.06e-01	0	56	0	479199232	49	4566
2026-01-01 11:16:54.30	108.85	47.55	-39.4	-41.4	22.6	6.05e-01	0	56	0	484966400	49	4776
2026-01-01 11:16:57.33	107.21	48.31	-39.8	-42.0	22.0	6.05e-01	0	56	0	490733568	50	4830
2026-01-01 11:17:00.35	105.48	49.07	-39.7	-41.7	22.3	6.07e-01	0	57	0	496500736	50	4702
2026-01-01 11:17:03.39	103.66	49.81	-39.2	-41.2	22.9	6.06e-01	0	57	0	502267904	50	4401
2026-01-01 11:17:06.42	101.75	50.53	-39.2	-41.1	23.0	6.07e-01	0	57	0	508035072	50	4358
2026-01-01 11:17:09.45	99.76	51.22	-39.1	-41.0	23.0	6.06e-01	0	57	0	513277952	50	4315
2026-01-01 11:17:12.47	97.67	51.88	-39.2	-41.2	22.9	6.09e-01	0	57	0	519045120	49	4671
2026-01-01 11:17:15.50	95.48	52.52	-38.9	-40.8	23.2	6.08e-01	0	57	0	524812288	48	4722
2026-01-01 11:17:18.53	93.20	53.12	-38.7	-40.6	23.5	6.06e-01	0	57	0	530579456	48	4602
2026-01-01 11:17:21.56	90.82	53.68	-38.6	-40.4	23.7	6.07e-01	0	57	0	536346624	48	4519
2026-01-01 11:17:24.59	88.36	54.19	-38.5	-40.3	23.8	6.05e-01	0	57	0	542113792	48	4463
2026-01-01 11:17:27.62	85.81	54.65	-38.7	-40.5	23.6	6.07e-01	0	57	0	547356672	48	4551
2026-01-01 11:17:30.65	83.18	55.06	-38.9	-40.8	23.3	6.06e-01	0	56	0	553123840	48	4709
2026-01-01 11:17:33.68	80.48	55.40	-39.2	-41.1	23.0	6.08e-01	0	57	0	558891008	49	4633
2026-01-01 11:17:36.71	77.71	55.69	-38.9	-40.8	23.3	6.06e-01	0	57	0	564658176	49	4467
2026-01-01 11:17:39.74	74.90	55.91	-38.9	-40.8	23.3	6.05e-01	0	57	0	570425344	49	4466
2026-01-01 11:17:42.76	72.05	56.06	-39.3	-41.3	22.9	6.07e-01	0	57	0	576192512	49	4723
2026-01-01 11:17:45.79	69.18	56.15	-39.0	-40.8	23.3	6.11e-01	0	57	0	581435392	49	4476
2026-01-01 11:17:48.82	66.29	56.16	-39.1	-41.0	23.1	6.07e-01	0	56	0	587202560	50	4304
2026-01-01 11:17:51.85	63.41	56.11	-39.2	-41.2	22.9	6.07e-01	0	57	0	592969728	50	4400
2026-01-01 11:17:54.88	60.54	55.98	-39.4	-41.3	22.8	6.06e-01	0	57	0	598736896	49	4756
2026-01-01 11:17:57.91	57.71	55.79	-39.7	-41.8	22.4	6.05e-01	0	57	0	604504064	49	5015
2026-01-01 11:18:00.94	54.93	55.53	-39.5	-41.6	22.6	6.05e-01	0	57	0	610271232	50	4606
2026-01-01 11:18:03.97	52.20	55.21	-39.4	-41.4	22.8	6.07e-01	0	57	0	615514112	49	4767
2026-01-01 11:18:07.00	49.55	54.82	-39.0	-40.9	23.2	6.08e-01	0	57	0	621281280	49	4519
2026-01-01 11:18:10.03	46.97	54.38	-39.1	-41.0	23.0	6.06e-01	0	57	0	627048448	49	4593
2026-01-01 11:18:13.06	44.47	53.89	-39.1	-41.0	23.1	6.07e-01	0	57	0	632815616	50	4303
2026-01-01 11:18:16.09	42.06	53.36	-38.6	-40.4	23.7	6.05e-01	0	57	0	638582784	48	4508
2026-01-01 11:18:19.11	39.75	52.78	-38.3	-40.2	23.5	6.08e-01	0	57	0	644349952	47	4667
2026-01-01 11:18:22.14	37.53	52.16	-37.4	-39.0	24.6	6.07e-01	0	57	0	649592832	46	4315
2026-01-01 11:18:25.17	35.40	51.51	-37.7	-39.4	24.2	6.05e-01	0	57	0	655360000	47	4290
2026-01-01 11:18:28.20	33.37	50.82	-37.9	-39.7	23.9	6.07e-01	0	57	0	661127168	47	4401
2026-01-01 11:18:31.23	31.43	50.12	-38.0	-39.8	23.8	6.06e-01	0	57	0	666894336	47	4469
2026-01-01 11:18:34.26	29.58	49.39	-37.7	-39.4	24.2	6.06e-01	0	57	0	672661504	47	4268
2026-01-01 11:18:37.29	27.82	48.64	-37.8	-39.5	24.1	6.05e-01	0	57	0	678428672	47	4319
2026-01-01 11:18:40.32	26.14	47.88	-38.0	-39.7	23.9	6.07e-01	0	57	0	683671552	47	4428
2026-01-01 11:18:43.35	24.55	47.11	-37.4	-39.1	24.5	6.06e-01	0	57	0	689438720	46	4342
2026-01-01 11:18:46.38	23.03	46.33	-38.0	-39.8	23.7	6.03e-01	0	57	0	695205888	46	4755
2026-01-01 11:18:49.41	21.60	45.55	-37.6	-39.3	24.3	6.06e-01	0	57	0	700973056	46	4445
2026-01-01 11:18:52.44	20.23	44.76	-38.0	-39.8	23.7	6.06e-01	0	57	0	706740224	46	4726
2026-01-01 11:18:55.47	18.93	43.98	-38.2	-40.0	23.6	6.07e-01	0	57	0	712507392	46	4845
2026-01-01 11:18:58.50	17.69	43.19	-38.5	-40.3	23.2	6.07e-01	0	57	0	717750272	47	4745
2026-01-01 11:19:01.53	16.51	42.41	-38.5	-40.4	23.1	6.06e-01	0	57	0	723517440	47	4801
2026-01-01 11:19:04.56	15.39	41.63	-39.1	-41.0	22.9	6.05e-01	0	57	0	729284608	49	4590
2026-01-01 11:19:07.59	14.33	40.86	-39.2	-41.2	22.8	6.05e-01	0	57	0	735051776	49	4672
2026-01-01 11:19:10.62	13.31	40.09	-39.9	-42.1	21.8	6.05e-01	0	57	0	740818944	50	4911
2026-01-01 11:19:13.65	12.35	39.33	-39.9	-42.1	21.9	6.07e-01	0	57	0	746586112	50	4876
2026-01-01 11:19:16.68	11.43	38.58	-40.0	-42.2	21.8	6.06e-01	0	57	0	751828992	50	4965
2026-01-01 11:19:19.71	10.55	37.84	-39.7	-41.8	22.1	6.06e-01	0	57	0	757596160	50	4733
2026-01-01 11:19:22.75	9.71	37.11	-39.5	-41.6	22.4	6.08e-01	0	57	0	763363328	50	4605
2026-01-01 11:19:25.77	8.91	36.39	-39.7	-41.8	22.1	6.07e-01	0	57	0	769130496	50	4727
2026-01-01 11:19:28.80	8.14	35.69	-39.2	-41.2	22.7	6.05e-01	0	57	0	774897664	50	4403
2026-01-01 11:19:31.83	7.41	34.99	-39.0	-40.9	23.0	6.07e-01	0	57	0	780664832	50	4281
2026-01-01 11:19:34.87	6.71	34.30	-39.0	-40.9	23.0	6.06e-01	0	57	0	785907712	49	4535
2026-01-01 11:19:37.90	6.04	33.62	-38.6	-40.4	23.4	6.06e-01	0	57	0	791674880	49	4277
2026-01-01 11:19:40.93	5.40	32.96	-38.1	-39.9	23.9	6.05e-01	0	57	0	797442048	48	4265
2026-01-01 11:19:43.96	4.78	32.31	-38.1	-39.8	24.0	6.06e-01	0	57	0	803209216	48	4216
2026-01-01 11:19:46.99	4.19	31.66	-38.0	-39.8	24.1	6.06e-01	0	57	0	808976384	48	4202
2026-01-01 11:19:50.01	3.63	31.04	-37.3	-39.0	24.3	6.06e-01	0	57	0	814743552	46	4323
2026-01-01 11:19:53.04	3.08	30.42	-37.5	-39.2	24.2	6.05e-01	0	57	0	819986432	46	4423
2026-01-01 11:19:56.07	2.56	29.81	-37.6	-39.4	24.0	6.06e-01	0	57	0	825753600	46	4498
2026-01-01 11:19:59.11	2.05	29.21	-37.5	-39.2	24.1	6.06e-01	0	57	0	831520768	46	4441
2026-01-01 11:20:02.14	1.57	28.63	-37.6	-39.3	24.0	6.01e-01	0	57	0	837287936	46	4464
2026-01-01 11:20:05.16	1.11	28.06	-37.7	-39.5	23.9	6.01e-01	0	57	0	843055104	46	4567
2026-01-01 11:20:08.20	0.66	27.49	-37.6	-39.4	24.0	6.00e-01	0	57	0	848822272	46	4494
2026-01-01 11:20:11.23	0.23	26.94	-37.8	-39.6	23.7	6.02e-01	0	57	0	854065152	46	4636
2026-01-01 11:20:14.26	359.81	26.39	-38.2	-40.1	23.3	5.98e-01	0	57	0	859832320	46	4875
2026-01-01 11:20:17.28	359.41	25.86	-38.1	-40.0	23.2	6.00e-01	0	57	0	865599488	46	4853
2026-01-01 11:20:20.31	359.02	25.34	-38.0	-39.8	23.4	6.02e-01	0	57	0	871366656	46	4757
2026-01-01 11:20:23.34	358.65	24.83	-38.1	-39.9	23.4	6.01e-01	0	57	0	877133824	46	4790
2026-01-01 11:20:26.37	358.29	24.32	-38.1	-39.9	23.3	6.02e-01	0	57	0	882900992	46	4813
2026-01-01 11:20:29.40	357.94	23.83	-38.2	-40.1	23.2	6.01e-01	0	57	0	888143872	46	4888
2026-01-01 11:20:32.43	357.60	23.34	-38.3	-40.3	22.9	6.03e-01	0	57	0	893911040	47	4723
2026-01-01 11:20:35.45	357.27	22.87	-38.2	-40.2	23.0	6.03e-01	0	57	0	899678208	47	4654
2026-01-01 11:20:38.48	356.96	22.40	-38.1	-40.0	23.1	6.01e-01	0	57	0	905445376	47	4559
2026-01-01 11:20:41.51	356.65	21.94	-38.1	-40.0	23.1	6.05e-01	0	57	0	911212544	47	4564
2026-01-01 11:20:44.54	356.35	21.48	-38.3	-40.2	22.7	6.04e-01	0	57	0	916979712	47	4704
2026-01-01 11:20:47.57	356.07	21.04	-38.0	-39.9	22.9	6.01e-01	0	57	0	922222592	47	4524
2026-01-01 11:20:50.60	355.79	20.60	-38.7	-41.0	21.4	6.03e-01	0	57	0	927989760	47	5138
2026-01-01 11:20:53.63	355.52	20.17	-40.4	-44.2	17.4	6.01e-01	0	57	0	933756928	51	5890
2026-01-01 11:20:56.66	355.26	19.75	-41.0	-47.6	12.6	6.07e-01	0	57	0	939524096	52	8179
2026-01-01 11:20:59.68	355.00	19.34	-41.3	-52.0	7.3	6.55e-01	92	58	0	945291264	53	12860
2026-01-01 11:21:02.71	354.76	18.93	-41.4	-56.7	4.2	7.31e-01	0	57	104	947388416	53	22180
2026-01-01 11:21:05.74	354.52	18.53	-41.6	-59.2	3.8	7.44e-01	0	57	104	947388416	53	29659
2026-01-01 11:21:08.77	354.28	18.13	-41.5	-59.4	3.8	7.44e-01	0	57	104	947388416	53	30074
2026-01-01 11:21:11.81	354.06	17.75	-41.4	-59.6	3.8	7.44e-01	0	57	104	947388416	53	31041
2026-01-01 11:21:14.84	353.84	17.36	-40.7	-60.1	3.8	7.45e-01	0	57	104	947388416	53	32851
2026-01-01 11:21:17.87	353.62	16.99	-39.9	-60.2	3.8	7.44e-01	0	57	104	947388416	51	37292
2026-01-01 11:21:20.90	353.42	16.62	-41.0	-60.2	3.8	7.43e-01	0	57	104	947388416	52	34900
2026-01-01 11:21:23.93	353.21	16.25	-40.6	-60.3	3.8	7.44e-01	0	58	104	947388416	52	35628
2026-01-01 11:21:26.96	353.02	15.89	-40.4	-60.1	3.8	7.45e-01	0	57	104	947388416	51	36933
2026-01-01 11:21:29.99	352.83	15.54	-40.9	-59.9	3.8	7.45e-01	0	57	104	947388416	52	34077
2026-01-01 11:21:33.02	352.64	15.19	-40.7	-60.1	3.8	7.43e-01	0	57	104	947388416	52	34768
2026-01-01 11:21:36.05	352.46	14.85	-41.4	-60.4	3.8	7.43e-01	0	57	104	947388416	53	33792
2026-01-01 11:21:39.09	352.28	14.51	-41.1	-60.3	3.8	7.44e-01	0	58	104	947388416	53	33502
2026-01-01 11:21:42.11	352.11	14.18	-41.3	-60.3	3.8	7.42e-01	0	58	104	947388416	53	33474
2026-01-01 11:21:45.14	351.94	13.85	-41.3	-60.4	3.8	7.46e-01	0	57	104	947388416	53	33986
2026-01-01 11:21:48.18	351.77	13.53	-41.1	-60.2	3.8	7.46e-01	0	57	104	947388416	53	33241
2026-01-01 11:21:51.21	351.61	13.21	-41.3	-60.4	3.8	7.47e-01	0	58	104	947388416	53	33754
2026-01-01 11:21:54.24	351.46	12.89	-41.5	-60.5	3.8	7.40e-01	0	58	104	947388416	53	34207
2026-01-01 11:21:57.27	351.31	12.58	-41.2	-60.2	3.8	7.47e-01	0	57	104	947388416	53	33138
2026-01-01 11:22:00.31	351.16	12.27	-41.3	-60.3	3.8	7.48e-01	0	58	104	947388416	53	33512
2026-01-01 11:22:03.34	351.01	11.97	-41.1	-60.1	3.8	7.49e-01	0	58	104	947388416	53	32843
2026-01-01 11:22:06.37	350.87	11.67	-41.2	-60.3	3.8	7.46e-01	0	58	104	947388416	53	33412
2026-01-01 11:22:09.40	350.73	11.38	-40.9	-59.8	3.8	7.46e-01	0	58	104	947388416	53	31785
2026-01-01 11:22:12.43	350.60	11.09	-40.9	-59.8	3.8	7.45e-01	0	58	104	947388416	53	31647
2026-01-01 11:22:15.46	350.46	10.80	-40.9	-60.0	3.8	7.43e-01	0	58	104	947388416	53	32467
2026-01-01 11:22:18.49	350.33	10.52	-40.9	-60.1	3.8	7.46e-01	0	58	104	947388416	53	32700
2026-01-01 11:22:21.52	350.21	10.24	-41.1	-60.3	3.8	7.46e-01	0	58	104	947388416	53	33332
2026-01-01 11:22:24.55	350.08	9.96	-41.0	-60.1	3.8	7.47e-01	0	58	104	947388416	53	32790
2026-01-01 11:22:27.58	349.96	9.69	-41.1	-60.1	3.8	7.48e-01	0	58	104	947388416	53	32912
2026-01-01 11:22:30.61	349.85	9.42	-41.4	-60.4	3.8	7.46e-01	0	58	104	947388416	53	33789
2026-01-01 11:22:33.64	349.73	9.15	-41.2	-60.2	3.8	7.44e-01	0	58	104	947388416	53	32974
2026-01-01 11:22:36.68	349.62	8.88	-41.1	-60.1	3.8	7.45e-01	0	58	104	947388416	53	32673
2026-01-01 11:22:39.71	349.51	8.62	-41.3	-60.2	3.8	7.45e-01	0	58	104	947388416	53	33270
2026-01-01 11:22:42.74	349.40	8.36	-41.2	-60.1	3.8	7.43e-01	0	58	104	947388416	53	32784
2026-01-01 11:22:45.77	349.29	8.11	-41.6	-60.5	3.8	7.43e-01	0	58	104	947388416	53	34284
2026-01-01 11:22:48.81	349.19	7.85	-41.7	-61.0	3.8	7.41e-01	0	58	104	947388416	53	36404
2026-01-01 11:22:51.84	349.09	7.60	-45.8	-64.5	3.8	7.47e-01	0	58	104	947388416	62	32406
2026-01-01 11:22:54.87	348.99	7.36	-46.0	-64.8	3.8	7.45e-01	0	58	104	947388416	62	33389
2026-01-01 11:22:57.91	348.89	7.11	-45.9	-64.8	3.8	7.45e-01	0	58	104	947388416	62	33588
2026-01-01 11:23:00.94	348.79	6.87	-46.0	-64.8	3.8	7.44e-01	0	58	104	947388416	62	33454
2026-01-01 11:23:03.97	348.70	6.63	-46.0	-64.8	3.8	7.45e-01	0	58	104	947388416	62	33418
2026-01-01 11:23:07.01	348.61	6.39	-46.0	-64.7	3.8	7.45e-01	0	58	104	947388416	62	33273
2026-01-01 11:23:10.04	348.52	6.15	-46.0	-64.7	3.8	7.43e-01	0	58	104	947388416	62	33204
2026-01-01 11:23:13.07	348.43	5.92	-46.0	-64.7	3.8	7.47e-01	0	58	104	947388416	62	33225
2026-01-01 11:23:16.11	348.34	5.69	-46.0	-64.7	3.8	7.48e-01	0	58	104	947388416	62	33240
2026-01-01 11:23:19.14	348.26	5.46	-45.9	-64.7	3.8	7.47e-01	0	58	104	947388416	62	33162
2026-01-01 11:23:22.17	348.18	5.24	-45.9	-64.7	3.8	7.48e-01	0	58	104	947388416	62	33115
2026-01-01 11:23:25.20	348.09	5.01	-45.9	-64.7	3.8	7.44e-01	0	58	104	947388416	62	33062
2026-01-01 11:23:28.24	348.01	4.79	-45.9	-64.7	3.8	7.44e-01	0	58	104	947388416	62	33040
2026-01-01 11:23:31.27	347.94	4.57	-45.9	-64.7	3.8	7.47e-01	0	58	104	947388416	62	33027
2026-01-01 11:23:34.30	347.86	4.35	-45.9	-64.7	3.8	7.43e-01	0	58	104	947388416	62	32989
2026-01-01 11:23:37.34	347.78	4.13	-45.9	-64.7	3.8	7.46e-01	0	58	104	947388416	62	33048
2026-01-01 11:23:40.37	347.71	3.92	-45.9	-64.7	3.8	7.43e-01	0	58	104	947388416	62	32995
2026-01-01 11:23:43.40	347.64	3.71	-45.9	-64.7	3.8	7.45e-01	0	58	104	947388416	62	33046
2026-01-01 11:23:46.44	347.57	3.49	-45.9	-64.7	3.8	7.44e-01	0	58	104	947388416	62	32977
2026-01-01 11:23:49.47	347.50	3.28	-45.9	-64.7	3.8	7.44e-01	0	58	104	947388416	62	33022
2026-01-01 11:23:52.50	347.43	3.08	-45.9	-64.7	3.8	7.42e-01	0	58	104	947388416	62	32957
2026-01-01 11:23:55.53	347.36	2.87	-45.9	-64.7	3.8	7.46e-01	0	58	104	947388416	62	32991
2026-01-01 11:23:58.57	347.29	2.67	-45.9	-64.7	3.8	7.45e-01	0	58	104	947388416	62	33006
2026-01-01 11:24:01.60	347.23	2.46	-45.9	-64.7	3.8	7.43e-01	0	58	104	947388416	62	32954
2026-01-01 11:24:04.63	347.16	2.26	-45.9	-64.7	3.8	7.47e-01	0	58	104	947388416	62	33088
2026-01-01 11:24:07.67	347.10	2.06	-45.9	-64.7	3.8	7.44e-01	0	58	104	947388416	62	33063
2026-01-01 11:24:10.70	347.04	1.86	-45.9	-64.7	3.8	7.45e-01	0	58	104	947388416	62	33028

#Closed at: 2026-01-01 11:24:11
#Recorded file [947 MB]: D:/lorett/data/31039_260101_141129.dat