passes_logs/2026/01/01/R2.0S_Moscow/R2.0S_Moscow__20260101_081857_NOAA_21_JPSS-2_rec.log

#Pass ID: 20260101_081857_NOAA 21 (JPSS-2)
#Satellite: NOAA 21 (JPSS-2)
#Configuration: NOAA-21
#almurnet v.1.7.20251203
#Start time: 2026-01-01 08:18:59

#Version: 2.2.20231116
#Station: R2.0S_Moscow
#Location: 37.707566 lon 55.798166 lat
#TLE: 1 54234U 22150A   25365.42224288  .00000199  00000+0  11529-3 0  9990
#TLE: 2 54234  98.7483 301.4995 0001320 356.2106   3.9060 14.19530300162743

#Time	Az	El	Level	Level2	SNR	BER	BlckErr	Temp	State	Recorded	gain1	gain2
2026-01-01 08:18:59.53	113.51	2.12	-40.2	-52.4	3.8	1.50e+00	0	48	0	0	51	15075
2026-01-01 08:19:02.56	113.31	2.29	-37.0	-52.6	3.8	1.49e+00	0	48	104	0	55	12239
2026-01-01 08:19:05.60	113.11	2.47	-37.6	-49.5	3.9	1.51e+00	0	49	104	0	43	17218
2026-01-01 08:19:08.63	112.91	2.64	-41.2	-54.3	3.8	1.50e+00	0	49	104	0	55	15048
2026-01-01 08:19:11.66	112.70	2.82	-42.3	-54.3	3.8	1.50e+00	0	49	104	0	55	15018
2026-01-01 08:19:14.70	112.49	2.99	-42.0	-54.0	3.9	1.49e+00	0	50	104	0	55	14515
2026-01-01 08:19:17.73	112.28	3.17	-41.4	-53.6	3.9	1.50e+00	0	50	104	0	54	14588
2026-01-01 08:19:20.76	112.07	3.35	-42.5	-53.9	3.9	1.49e+00	0	50	104	0	54	15145
2026-01-01 08:19:23.79	111.85	3.53	-41.0	-53.7	3.9	1.50e+00	0	50	104	0	47	22218
2026-01-01 08:19:26.83	111.63	3.71	-42.6	-54.6	3.8	1.49e+00	0	50	104	0	55	15466
2026-01-01 08:19:29.86	111.41	3.89	-39.5	-52.2	4.0	1.50e+00	0	51	104	0	51	14753
2026-01-01 08:19:32.89	111.19	4.07	-42.3	-54.9	3.2	1.50e+00	0	51	104	0	46	26999
2026-01-01 08:19:35.93	110.96	4.25	-41.6	-54.1	3.7	1.50e+00	0	51	104	0	54	15536
2026-01-01 08:19:38.96	110.73	4.43	-41.6	-54.0	3.9	1.49e+00	0	51	104	0	56	13600
2026-01-01 08:19:41.99	110.50	4.61	-42.0	-53.7	3.9	1.49e+00	0	51	104	0	55	13995
2026-01-01 08:19:45.03	110.26	4.80	-41.8	-54.2	3.8	1.49e+00	0	52	104	0	56	14014
2026-01-01 08:19:48.06	110.02	4.98	-33.6	-48.9	3.3	1.50e+00	0	52	104	0	49	11400
2026-01-01 08:19:51.09	109.78	5.17	-42.2	-54.3	3.8	1.50e+00	0	52	104	0	54	15836
2026-01-01 08:19:54.13	109.54	5.36	-41.8	-53.3	4.0	1.49e+00	0	52	104	0	56	12558
2026-01-01 08:19:57.16	109.29	5.54	-42.7	-54.8	3.8	1.49e+00	0	52	104	0	56	14886
2026-01-01 08:20:00.19	109.04	5.73	-42.7	-54.1	3.8	1.49e+00	0	52	104	0	54	15561
2026-01-01 08:20:03.23	108.78	5.92	-42.4	-54.4	3.9	1.49e+00	0	52	104	0	55	15188
2026-01-01 08:20:06.26	108.52	6.11	-42.4	-54.7	3.8	1.49e+00	0	53	104	0	56	14807
2026-01-01 08:20:09.29	108.26	6.30	-42.8	-54.7	3.8	1.49e+00	0	53	104	0	56	14728
2026-01-01 08:20:12.33	107.99	6.49	-41.8	-54.1	3.8	1.49e+00	0	53	104	0	53	16378
2026-01-01 08:20:15.36	107.72	6.69	-41.7	-54.5	3.9	1.49e+00	0	53	104	0	56	14432
2026-01-01 08:20:18.39	107.45	6.88	-39.7	-53.0	3.9	1.49e+00	0	53	104	0	53	14537
2026-01-01 08:20:21.42	107.17	7.07	-42.3	-54.1	4.0	1.49e+00	0	53	104	0	55	14581
2026-01-01 08:20:24.46	106.89	7.27	-42.3	-52.6	3.9	1.49e+00	0	53	104	0	55	12348
2026-01-01 08:20:27.49	106.61	7.46	-41.3	-47.3	5.7	1.23e+00	11	54	104	0	53	7530
2026-01-01 08:20:30.53	106.32	7.66	-38.4	-41.8	10.8	2.51e-02	0	54	0	8388608	48	5301
2026-01-01 08:20:33.56	106.03	7.86	-36.6	-39.1	14.1	3.43e-03	0	54	0	17825792	44	4919
2026-01-01 08:20:36.59	105.73	8.06	-36.6	-40.2	12.4	4.78e-03	0	54	0	27262976	45	5264
2026-01-01 08:20:39.62	105.43	8.25	-38.4	-42.1	8.6	2.70e-01	4	54	0	35651584	47	5841
2026-01-01 08:20:42.65	105.13	8.45	-37.6	-40.0	12.3	1.78e-02	0	54	0	45088768	45	5105
2026-01-01 08:20:45.68	104.82	8.65	-36.9	-39.6	11.8	2.57e-02	0	54	0	54525952	45	4903
2026-01-01 08:20:48.71	104.50	8.86	-36.5	-38.7	11.9	4.22e-02	0	54	0	63963136	43	4933
2026-01-01 08:20:51.74	104.19	9.06	-35.5	-38.5	13.0	2.21e-02	0	54	0	73400320	43	4856
2026-01-01 08:20:54.77	103.86	9.26	-36.5	-39.0	12.3	2.81e-02	0	54	0	82837504	44	4866
2026-01-01 08:20:57.80	103.54	9.46	-36.2	-38.8	11.9	2.05e-02	0	54	0	92274688	43	5000
2026-01-01 08:21:00.83	103.21	9.67	-35.2	-38.5	12.9	2.43e-02	0	55	0	101711872	43	4833
2026-01-01 08:21:03.87	102.87	9.87	-34.5	-38.5	9.9	5.21e-02	0	55	0	110100480	41	5407
2026-01-01 08:21:06.90	102.53	10.08	-34.9	-38.1	10.1	5.24e-01	4	55	0	119537664	41	5215
2026-01-01 08:21:09.93	102.18	10.29	-34.5	-37.9	10.2	1.91e-01	3	55	0	125829120	41	5064
2026-01-01 08:21:12.96	101.83	10.49	-30.9	-38.2	8.8	3.54e-01	13	55	0	127926272	38	6223
2026-01-01 08:21:15.99	101.47	10.70	-34.0	-37.2	9.6	2.07e-01	8	55	0	135266304	38	5575
2026-01-01 08:21:19.02	101.11	10.91	-34.3	-40.0	6.9	5.32e-01	3	55	0	138412032	38	7710
2026-01-01 08:21:22.05	100.74	11.12	-33.7	-39.6	4.8	1.44e+00	0	55	104	138412032	39	6942
2026-01-01 08:21:25.08	100.37	11.33	-34.4	-41.5	6.8	1.01e+00	0	55	0	138412032	40	8089
2026-01-01 08:21:28.11	99.99	11.54	-32.1	-36.4	9.3	1.24e+00	10	55	104	139460608	33	6747
2026-01-01 08:21:31.14	99.61	11.75	-29.5	-40.0	4.8	1.19e+00	0	55	104	140509184	40	6806
2026-01-01 08:21:34.18	99.22	11.96	-34.8	-39.6	8.3	4.20e-01	7	55	0	141557760	42	5813
2026-01-01 08:21:37.20	98.83	12.18	-33.9	-36.9	11.7	1.36e-01	0	56	0	145752064	40	4803
2026-01-01 08:21:40.23	98.43	12.39	-35.4	-37.9	12.8	5.62e-02	0	56	0	155189248	42	4762
2026-01-01 08:21:43.26	98.02	12.60	-36.2	-38.1	12.8	3.03e-02	0	56	0	164626432	42	4907
2026-01-01 08:21:46.29	97.61	12.82	-33.7	-37.8	10.0	2.59e-02	0	56	0	174063616	41	5036
2026-01-01 08:21:49.31	97.19	13.03	-36.1	-37.8	16.3	6.29e-04	0	56	0	183500800	42	4706
2026-01-01 08:21:52.34	96.77	13.24	-36.3	-37.8	16.7	2.25e-04	0	56	0	192937984	43	4481
2026-01-01 08:21:55.38	96.34	13.46	-36.4	-37.9	16.8	0.00e+00	0	56	0	202375168	43	4532
2026-01-01 08:21:58.41	95.90	13.67	-36.2	-37.7	17.0	0.00e+00	0	56	0	211812352	43	4438
2026-01-01 08:22:01.44	95.45	13.89	-36.2	-37.6	17.1	0.00e+00	0	56	0	221249536	43	4379
2026-01-01 08:22:04.48	95.00	14.10	-36.3	-37.8	17.0	0.00e+00	0	56	0	231735296	43	4449
2026-01-01 08:22:07.51	94.55	14.32	-36.5	-38.0	16.7	0.00e+00	0	56	0	240123904	43	4597
2026-01-01 08:22:10.54	94.08	14.54	-36.5	-38.1	16.7	0.00e+00	0	56	0	250609664	43	4633
2026-01-01 08:22:13.57	93.61	14.75	-36.4	-37.9	16.9	0.00e+00	0	56	0	260046848	43	4525
2026-01-01 08:22:16.61	93.13	14.97	-36.6	-38.1	16.6	0.00e+00	0	56	0	269484032	43	4650
2026-01-01 08:22:19.64	92.65	15.18	-36.9	-38.5	16.4	0.00e+00	0	56	0	278921216	44	4597
2026-01-01 08:22:22.67	92.16	15.40	-36.9	-38.5	16.5	0.00e+00	0	56	0	288358400	44	4553
2026-01-01 08:22:25.69	91.66	15.61	-36.5	-38.0	16.9	0.00e+00	0	56	0	297795584	44	4322
2026-01-01 08:22:28.72	91.15	15.83	-36.7	-38.2	16.7	0.00e+00	0	56	0	307232768	44	4436
2026-01-01 08:22:31.75	90.64	16.04	-36.6	-38.2	16.7	0.00e+00	0	56	0	316669952	44	4414
2026-01-01 08:22:34.78	90.12	16.25	-36.4	-37.9	16.9	0.00e+00	0	56	0	326107136	44	4266
2026-01-01 08:22:37.81	89.59	16.47	-36.6	-38.2	16.5	0.00e+00	0	56	0	335544320	44	4416
2026-01-01 08:22:40.84	89.06	16.68	-36.9	-38.6	15.8	0.00e+00	0	56	0	344981504	44	4647
2026-01-01 08:22:43.87	88.51	16.89	-36.9	-38.7	15.5	0.00e+00	0	57	0	354418688	44	4682
2026-01-01 08:22:46.90	87.96	17.10	-37.2	-39.2	14.8	0.00e+00	0	56	0	363855872	44	4931
2026-01-01 08:22:49.93	87.40	17.31	-37.5	-39.7	13.9	2.20e-06	0	56	0	373293056	45	4983
2026-01-01 08:22:52.96	86.83	17.52	-37.6	-40.0	13.4	1.83e-05	0	57	0	382730240	45	5113
2026-01-01 08:22:55.99	86.26	17.73	-37.6	-40.0	13.3	1.60e-05	0	56	0	392167424	45	5156
2026-01-01 08:22:59.02	85.68	17.93	-37.6	-39.9	13.6	1.14e-05	0	56	0	401604608	45	5072
2026-01-01 08:23:02.05	85.09	18.14	-37.4	-39.6	14.3	7.00e-07	0	56	0	411041792	45	4877
2026-01-01 08:23:05.08	84.49	18.34	-37.1	-39.0	15.1	7.00e-07	0	57	0	420478976	45	4572
2026-01-01 08:23:08.11	83.88	18.54	-37.0	-38.8	15.4	0.00e+00	0	57	0	429916160	45	4470
2026-01-01 08:23:11.15	83.26	18.74	-37.0	-38.7	15.8	0.00e+00	0	56	0	439353344	45	4434
2026-01-01 08:23:14.18	82.64	18.94	-37.0	-38.8	15.6	0.00e+00	0	56	0	448790528	45	4491
2026-01-01 08:23:17.21	82.01	19.14	-36.9	-38.7	15.5	0.00e+00	0	57	0	458227712	45	4421
2026-01-01 08:23:20.24	81.37	19.33	-37.0	-38.8	15.3	0.00e+00	0	57	0	467664896	45	4491
2026-01-01 08:23:23.27	80.72	19.52	-36.9	-38.9	15.1	0.00e+00	0	57	0	477102080	45	4499
2026-01-01 08:23:26.30	80.06	19.71	-36.8	-38.8	15.1	0.00e+00	0	57	0	486539264	45	4448
2026-01-01 08:23:29.33	79.40	19.90	-36.8	-38.7	15.2	0.00e+00	0	57	0	495976448	45	4427
2026-01-01 08:23:32.36	78.73	20.08	-36.9	-38.8	15.2	0.00e+00	0	57	0	505413632	45	4473
2026-01-01 08:23:35.39	78.05	20.26	-36.8	-38.6	15.7	0.00e+00	0	57	0	514850816	45	4368
2026-01-01 08:23:38.42	77.36	20.44	-36.6	-38.3	16.1	0.00e+00	0	57	0	524288000	45	4229
2026-01-01 08:23:41.45	76.66	20.62	-36.7	-38.4	16.1	0.00e+00	0	57	0	533725184	45	4251
2026-01-01 08:23:44.49	75.96	20.79	-36.5	-38.2	16.3	0.00e+00	0	57	0	544210944	45	4169
2026-01-01 08:23:47.52	75.24	20.96	-36.4	-38.0	16.6	0.00e+00	0	57	0	553648128	44	4298
2026-01-01 08:23:50.54	74.53	21.12	-36.4	-38.0	16.6	0.00e+00	0	57	0	563085312	44	4310
2026-01-01 08:23:53.58	73.80	21.28	-36.2	-37.8	16.9	0.00e+00	0	57	0	572522496	44	4199
2026-01-01 08:23:56.61	73.06	21.44	-36.0	-37.5	17.2	0.00e+00	0	57	0	581959680	44	4091
2026-01-01 08:23:59.64	72.32	21.59	-35.6	-37.1	17.5	0.00e+00	0	57	0	591396864	43	4103
2026-01-01 08:24:02.67	71.57	21.74	-35.5	-36.9	17.8	0.00e+00	0	57	0	600834048	43	4024
2026-01-01 08:24:05.70	70.81	21.88	-35.7	-37.1	17.8	0.00e+00	0	57	0	610271232	43	4105
2026-01-01 08:24:08.73	70.05	22.02	-35.7	-37.0	17.9	0.00e+00	0	57	0	619708416	43	4094
2026-01-01 08:24:11.76	69.28	22.16	-35.7	-37.0	18.0	0.00e+00	0	57	0	629145600	43	4098
2026-01-01 08:24:14.79	68.50	22.29	-35.6	-37.0	18.1	0.00e+00	0	57	0	638582784	43	4059
2026-01-01 08:24:17.82	67.72	22.41	-35.5	-36.9	18.3	0.00e+00	0	57	0	648019968	43	4021
2026-01-01 08:24:20.85	66.93	22.53	-35.5	-36.8	18.3	0.00e+00	0	57	0	657457152	43	3992
2026-01-01 08:24:23.88	66.14	22.65	-35.5	-36.8	18.4	0.00e+00	0	57	0	666894336	42	4218
2026-01-01 08:24:26.91	65.33	22.75	-35.3	-36.6	18.5	0.00e+00	0	57	0	676331520	42	4144
2026-01-01 08:24:29.94	64.53	22.86	-35.4	-36.7	18.4	0.00e+00	0	57	0	685768704	42	4190
2026-01-01 08:24:32.96	63.72	22.96	-35.5	-36.8	18.4	0.00e+00	0	57	0	695205888	42	4214
2026-01-01 08:24:35.99	62.90	23.05	-35.4	-36.7	18.4	0.00e+00	0	57	0	704643072	42	4186
2026-01-01 08:24:39.02	62.08	23.13	-35.3	-36.6	18.5	0.00e+00	0	57	0	714080256	42	4131
2026-01-01 08:24:42.05	61.25	23.21	-35.5	-36.8	18.4	0.00e+00	0	57	0	723517440	42	4209
2026-01-01 08:24:45.08	60.43	23.28	-35.7	-37.0	18.2	0.00e+00	0	57	0	732954624	42	4317
2026-01-01 08:24:48.12	59.59	23.35	-35.8	-37.1	18.1	0.00e+00	0	57	0	742391808	42	4380
2026-01-01 08:24:51.15	58.75	23.41	-35.7	-37.0	18.2	0.00e+00	0	57	0	751828992	42	4313
2026-01-01 08:24:54.18	57.91	23.47	-35.6	-36.9	18.4	0.00e+00	0	57	0	761266176	42	4268
2026-01-01 08:24:57.21	57.07	23.51	-35.5	-36.9	18.4	0.00e+00	0	57	0	770703360	42	4254
2026-01-01 08:25:00.24	56.23	23.55	-35.4	-36.8	18.5	0.00e+00	0	57	0	780140544	42	4197
2026-01-01 08:25:03.27	55.38	23.59	-35.6	-36.9	18.4	0.00e+00	0	57	0	789577728	42	4271
2026-01-01 08:25:06.30	54.53	23.62	-35.6	-36.9	18.3	0.00e+00	0	57	0	799014912	42	4291
2026-01-01 08:25:09.33	53.68	23.64	-35.8	-37.1	18.2	0.00e+00	0	57	0	808452096	42	4379
2026-01-01 08:25:12.36	52.83	23.65	-35.8	-37.2	18.1	0.00e+00	0	57	0	817889280	42	4401
2026-01-01 08:25:15.39	51.98	23.66	-35.6	-36.9	18.4	0.00e+00	0	57	0	827326464	42	4257
2026-01-01 08:25:18.42	51.13	23.66	-35.5	-36.8	18.5	0.00e+00	0	58	0	836763648	42	4213
2026-01-01 08:25:21.45	50.28	23.65	-35.5	-36.8	18.5	0.00e+00	0	57	0	847249408	42	4218
2026-01-01 08:25:24.48	49.43	23.64	-35.5	-36.8	18.5	0.00e+00	0	57	0	856686592	42	4224
2026-01-01 08:25:27.51	48.58	23.62	-35.4	-36.7	18.5	0.00e+00	0	57	0	866123776	42	4188
2026-01-01 08:25:30.54	47.73	23.59	-35.4	-36.7	18.6	0.00e+00	0	57	0	875560960	42	4156
2026-01-01 08:25:33.57	46.88	23.56	-35.4	-36.6	18.5	0.00e+00	0	57	0	884998144	42	4145
2026-01-01 08:25:36.61	46.04	23.52	-35.2	-36.5	18.8	0.00e+00	0	57	0	894435328	42	4059
2026-01-01 08:25:39.64	45.20	23.47	-35.3	-36.6	18.7	0.00e+00	0	57	0	903872512	42	4126
2026-01-01 08:25:42.67	44.36	23.42	-35.4	-36.7	18.5	0.00e+00	0	57	0	913309696	42	4164
2026-01-01 08:25:45.70	43.52	23.36	-35.5	-36.8	18.5	0.00e+00	0	58	0	922746880	42	4222
2026-01-01 08:25:48.73	42.69	23.29	-35.5	-36.8	18.5	0.00e+00	0	58	0	932184064	42	4224
2026-01-01 08:25:51.76	41.86	23.22	-35.5	-36.8	18.4	0.00e+00	0	58	0	941621248	42	4233
2026-01-01 08:25:54.79	41.04	23.14	-35.6	-36.9	18.4	0.00e+00	0	58	0	951058432	42	4268
2026-01-01 08:25:57.82	40.22	23.05	-35.3	-36.6	18.7	0.00e+00	0	57	0	960495616	42	4132
2026-01-01 08:26:00.85	39.40	22.96	-35.5	-36.7	18.6	0.00e+00	0	58	0	969932800	42	4193
2026-01-01 08:26:03.88	38.59	22.87	-35.8	-37.1	18.2	0.00e+00	0	58	0	979369984	42	4367
2026-01-01 08:26:06.91	37.78	22.76	-35.6	-37.0	18.4	0.00e+00	0	57	0	988807168	42	4293
2026-01-01 08:26:09.94	36.98	22.66	-35.6	-37.0	18.4	0.00e+00	0	58	0	998244352	42	4299
2026-01-01 08:26:12.97	36.19	22.54	-35.6	-36.9	18.4	0.00e+00	0	58	0	1007681536	42	4272
2026-01-01 08:26:16.01	35.40	22.42	-35.7	-37.0	18.3	0.00e+00	0	57	0	1017118720	42	4333
2026-01-01 08:26:19.04	34.62	22.30	-36.0	-37.3	18.0	0.00e+00	0	58	0	1026555904	42	4488
2026-01-01 08:26:22.07	33.84	22.17	-35.9	-37.3	18.0	0.00e+00	0	58	0	1035993088	42	4472
2026-01-01 08:26:25.10	33.07	22.04	-35.7	-37.0	18.2	0.00e+00	0	57	0	1045430272	42	4318
2026-01-01 08:26:28.13	32.31	21.90	-36.1	-37.5	17.8	0.00e+00	0	58	0	1054867456	42	4572
2026-01-01 08:26:31.16	31.56	21.75	-36.2	-37.6	17.7	0.00e+00	0	57	0	1064304640	43	4361
2026-01-01 08:26:34.19	30.81	21.61	-35.9	-37.3	18.0	0.00e+00	0	58	0	1073741824	43	4217
2026-01-01 08:26:37.22	30.07	21.46	-36.2	-37.6	17.7	0.00e+00	0	58	0	1083179008	43	4379
2026-01-01 08:26:40.25	29.34	21.30	-36.1	-37.5	17.8	0.00e+00	0	58	0	1092616192	43	4315
2026-01-01 08:26:43.28	28.61	21.14	-35.9	-37.2	18.0	0.00e+00	0	58	0	1102053376	43	4186
2026-01-01 08:26:46.31	27.90	20.98	-35.9	-37.2	18.1	0.00e+00	0	58	0	1111490560	43	4175
2026-01-01 08:26:49.34	27.19	20.81	-35.9	-37.3	18.0	0.00e+00	0	58	0	1120927744	43	4211
2026-01-01 08:26:52.37	26.48	20.64	-35.8	-37.1	18.1	0.00e+00	0	58	0	1130364928	43	4139
2026-01-01 08:26:55.40	25.79	20.46	-36.0	-37.3	17.9	0.00e+00	0	58	0	1139802112	43	4231
2026-01-01 08:26:58.43	25.10	20.29	-36.2	-37.6	17.7	0.00e+00	0	58	0	1150287872	43	4366
2026-01-01 08:27:01.46	24.43	20.11	-35.8	-37.1	18.1	0.00e+00	0	58	0	1159725056	43	4124
2026-01-01 08:27:04.49	23.76	19.92	-35.8	-37.2	18.1	0.00e+00	0	58	0	1169162240	43	4148
2026-01-01 08:27:07.52	23.09	19.74	-36.1	-37.5	17.8	0.00e+00	0	58	0	1178599424	43	4327
2026-01-01 08:27:10.55	22.44	19.55	-36.5	-38.0	17.3	0.00e+00	0	58	0	1188036608	43	4561
2026-01-01 08:27:13.59	21.79	19.36	-35.9	-37.3	17.9	0.00e+00	0	58	0	1197473792	43	4218
2026-01-01 08:27:16.62	21.16	19.17	-35.9	-37.3	17.9	0.00e+00	0	58	0	1206910976	43	4221
2026-01-01 08:27:19.65	20.53	18.97	-35.8	-37.1	18.1	0.00e+00	0	58	0	1216348160	43	4130
2026-01-01 08:27:22.68	19.91	18.77	-35.7	-37.0	18.2	0.00e+00	0	58	0	1225785344	43	4070
2026-01-01 08:27:25.72	19.29	18.57	-36.0	-37.3	17.9	0.00e+00	0	58	0	1235222528	43	4241
2026-01-01 08:27:28.75	18.69	18.37	-36.4	-37.9	17.4	0.00e+00	0	58	0	1244659712	43	4506
2026-01-01 08:27:31.78	18.09	18.17	-36.3	-37.7	17.5	0.00e+00	0	58	0	1254096896	43	4420
2026-01-01 08:27:34.81	17.50	17.97	-36.0	-37.4	17.8	0.00e+00	0	58	0	1263534080	43	4260
2026-01-01 08:27:37.84	16.92	17.76	-36.1	-37.5	17.7	0.00e+00	0	58	0	1272971264	43	4315
2026-01-01 08:27:40.87	16.35	17.55	-36.1	-37.5	17.7	0.00e+00	0	58	0	1282408448	43	4326
2026-01-01 08:27:43.90	15.79	17.35	-35.9	-37.3	17.9	0.00e+00	0	58	0	1291845632	43	4217
2026-01-01 08:27:46.93	15.23	17.14	-35.7	-37.1	18.2	0.00e+00	0	58	0	1301282816	43	4117
2026-01-01 08:27:49.96	14.68	16.93	-36.1	-37.5	17.7	0.00e+00	0	58	0	1310720000	43	4331
2026-01-01 08:27:53.00	14.14	16.72	-36.2	-37.6	17.6	0.00e+00	0	58	0	1320157184	43	4373
2026-01-01 08:27:56.03	13.61	16.51	-36.2	-37.6	17.6	0.00e+00	0	58	0	1329594368	43	4369
2026-01-01 08:27:59.06	13.08	16.29	-36.4	-37.9	17.4	0.00e+00	0	58	0	1339031552	43	4505
2026-01-01 08:28:02.09	12.56	16.08	-36.5	-38.0	17.2	0.00e+00	0	58	0	1348468736	43	4578
2026-01-01 08:28:05.12	12.05	15.87	-36.5	-38.0	17.2	0.00e+00	0	58	0	1357905920	43	4585
2026-01-01 08:28:08.16	11.55	15.65	-36.5	-38.0	17.2	0.00e+00	0	58	0	1367343104	43	4585
2026-01-01 08:28:11.19	11.05	15.44	-36.6	-38.1	17.1	0.00e+00	0	58	0	1376780288	43	4638
2026-01-01 08:28:14.22	10.56	15.23	-36.6	-38.1	17.1	0.00e+00	0	58	0	1386217472	43	4633
2026-01-01 08:28:17.25	10.08	15.01	-36.5	-38.0	17.1	0.00e+00	0	58	0	1395654656	43	4586
2026-01-01 08:28:20.28	9.61	14.80	-36.4	-37.9	17.2	0.00e+00	0	58	0	1406140416	43	4535
2026-01-01 08:28:23.31	9.14	14.58	-36.9	-38.5	16.8	0.00e+00	0	58	0	1414529024	44	4553
2026-01-01 08:28:26.34	8.68	14.37	-37.2	-38.8	16.4	0.00e+00	0	58	0	1425014784	45	4473
2026-01-01 08:28:29.37	8.22	14.16	-37.2	-38.8	16.3	0.00e+00	0	58	0	1433403392	45	4474
2026-01-01 08:28:32.40	7.78	13.94	-37.0	-38.6	16.4	0.00e+00	0	58	0	1443889152	45	4355
2026-01-01 08:28:35.43	7.33	13.73	-37.1	-38.7	16.3	0.00e+00	0	58	0	1453326336	45	4425
2026-01-01 08:28:38.46	6.90	13.51	-37.1	-38.7	16.3	0.00e+00	0	58	0	1462763520	45	4421
2026-01-01 08:28:41.49	6.47	13.30	-37.5	-39.3	15.6	0.00e+00	0	58	0	1472200704	45	4753
2026-01-01 08:28:44.53	6.05	13.09	-37.8	-39.7	15.2	0.00e+00	0	58	0	1481637888	46	4660
2026-01-01 08:28:47.56	5.63	12.87	-37.4	-39.2	15.6	0.00e+00	0	58	0	1491075072	46	4394
2026-01-01 08:28:50.59	5.22	12.66	-35.8	-37.4	16.6	0.00e+00	0	58	0	1500512256	43	4255
2026-01-01 08:28:53.62	4.82	12.45	-37.7	-40.3	12.9	8.30e-06	0	58	0	1509949440	45	5329
2026-01-01 08:28:56.65	4.42	12.24	-40.3	-47.8	5.1	4.60e-01	0	58	0	1519386624	51	8895
2026-01-01 08:28:59.68	4.03	12.02	-40.3	-52.5	3.8	1.49e+00	0	58	104	1519386624	51	15378
2026-01-01 08:29:02.71	3.65	11.81	-39.8	-52.2	3.8	1.49e+00	0	58	104	1519386624	51	14801
2026-01-01 08:29:05.74	3.27	11.60	-39.8	-52.2	3.8	1.49e+00	0	58	104	1519386624	51	14750
2026-01-01 08:29:08.77	2.89	11.39	-39.9	-52.3	3.8	1.49e+00	0	58	104	1519386624	51	14959
2026-01-01 08:29:11.80	2.52	11.18	-39.8	-52.2	3.8	1.49e+00	0	58	104	1519386624	51	14709
2026-01-01 08:29:14.83	2.16	10.98	-39.7	-52.1	3.8	1.49e+00	0	58	104	1519386624	51	14639
2026-01-01 08:29:17.86	1.80	10.77	-39.7	-52.1	3.8	1.49e+00	0	58	104	1519386624	51	14647
2026-01-01 08:29:20.89	1.45	10.56	-39.8	-52.2	3.8	1.49e+00	0	58	104	1519386624	51	14777
2026-01-01 08:29:23.92	1.10	10.35	-39.7	-52.1	3.8	1.49e+00	0	58	104	1519386624	51	14624
2026-01-01 08:29:26.95	0.75	10.15	-39.8	-52.2	3.8	1.49e+00	0	58	104	1519386624	51	14810
2026-01-01 08:29:29.98	0.42	9.94	-39.4	-52.2	3.8	1.49e+00	0	58	104	1519386624	50	15624
2026-01-01 08:29:33.02	0.08	9.74	-39.4	-52.2	3.8	1.49e+00	0	58	104	1519386624	50	15598
2026-01-01 08:29:36.05	359.75	9.54	-39.6	-52.2	3.8	1.49e+00	0	58	104	1519386624	50	15677
2026-01-01 08:29:39.08	359.43	9.33	-39.2	-52.1	3.8	1.49e+00	0	58	104	1519386624	50	15484
2026-01-01 08:29:42.11	359.11	9.13	-39.4	-52.1	3.8	1.49e+00	0	58	104	1519386624	49	16481
2026-01-01 08:29:45.14	358.80	8.93	-39.1	-52.1	3.8	1.49e+00	0	58	104	1519386624	49	16358
2026-01-01 08:29:48.17	358.49	8.73	-39.3	-52.1	3.8	1.49e+00	0	58	104	1519386624	49	16478
2026-01-01 08:29:51.20	358.18	8.53	-38.5	-52.0	3.8	1.49e+00	0	58	104	1519386624	48	17274
2026-01-01 08:29:54.23	357.88	8.33	-38.0	-51.9	3.8	1.49e+00	0	58	104	1519386624	47	18055
2026-01-01 08:29:57.26	357.58	8.13	-37.8	-51.8	3.8	1.49e+00	0	59	104	1519386624	47	17690
2026-01-01 08:30:00.30	357.29	7.93	-40.2	-52.6	3.8	1.49e+00	0	59	104	1519386624	50	16384
2026-01-01 08:30:03.33	357.00	7.74	-45.0	-57.3	3.8	1.49e+00	0	58	104	1519386624	60	15931
2026-01-01 08:30:06.36	356.71	7.54	-45.2	-57.6	3.8	1.49e+00	0	58	104	1519386624	60	16377
2026-01-01 08:30:09.40	356.43	7.35	-45.2	-57.6	3.8	1.49e+00	0	58	104	1519386624	61	15405
2026-01-01 08:30:12.43	356.15	7.15	-45.1	-57.5	3.8	1.49e+00	0	58	104	1519386624	61	15290
2026-01-01 08:30:15.46	355.88	6.96	-45.0	-57.4	3.8	1.49e+00	0	58	104	1519386624	61	15121
2026-01-01 08:30:18.49	355.61	6.77	-45.0	-57.4	3.8	1.49e+00	0	59	104	1519386624	61	15088
2026-01-01 08:30:21.53	355.34	6.57	-45.0	-57.4	3.8	1.49e+00	0	58	104	1519386624	61	15101
2026-01-01 08:30:24.56	355.08	6.38	-45.0	-57.4	3.8	1.49e+00	0	58	104	1519386624	61	15077
2026-01-01 08:30:27.59	354.82	6.19	-45.0	-57.4	3.8	1.49e+00	0	59	104	1519386624	61	15073
2026-01-01 08:30:30.63	354.56	6.00	-45.0	-57.3	3.8	1.49e+00	0	58	104	1519386624	61	15024
2026-01-01 08:30:33.66	354.31	5.82	-45.0	-57.3	3.8	1.49e+00	0	58	104	1519386624	61	15024
2026-01-01 08:30:36.69	354.06	5.63	-45.0	-57.4	3.8	1.49e+00	0	58	104	1519386624	61	15059
2026-01-01 08:30:39.72	353.82	5.44	-45.0	-57.3	3.8	1.49e+00	0	59	104	1519386624	61	15034
2026-01-01 08:30:42.76	353.58	5.25	-45.0	-57.3	3.8	1.49e+00	0	59	104	1519386624	61	14994
2026-01-01 08:30:45.79	353.34	5.07	-45.0	-57.3	3.8	1.49e+00	0	58	104	1519386624	61	15036
2026-01-01 08:30:48.82	353.10	4.89	-45.0	-57.3	3.8	1.49e+00	0	59	104	1519386624	61	14978
2026-01-01 08:30:51.85	352.87	4.70	-45.0	-57.3	3.8	1.49e+00	0	58	104	1519386624	61	14998
2026-01-01 08:30:54.89	352.64	4.52	-45.0	-57.3	3.8	1.49e+00	0	58	104	1519386624	61	14992
2026-01-01 08:30:57.91	352.41	4.34	-45.0	-57.3	3.8	1.49e+00	0	58	104	1519386624	61	14974
2026-01-01 08:31:00.94	352.19	4.16	-45.0	-57.3	3.8	1.49e+00	0	58	104	1519386624	61	15025
2026-01-01 08:31:03.98	351.97	3.98	-45.0	-57.3	3.8	1.49e+00	0	59	104	1519386624	61	14986
2026-01-01 08:31:07.01	351.75	3.80	-45.0	-57.3	3.8	1.49e+00	0	59	104	1519386624	61	15007
2026-01-01 08:31:10.04	351.54	3.62	-45.0	-57.3	3.8	1.49e+00	0	58	104	1519386624	61	15002
2026-01-01 08:31:13.08	351.32	3.44	-44.9	-57.3	3.8	1.49e+00	0	58	104	1519386624	61	14977
2026-01-01 08:31:16.11	351.11	3.26	-44.9	-57.3	3.8	1.49e+00	0	58	104	1519386624	61	14978
2026-01-01 08:31:19.14	350.91	3.09	-45.0	-57.3	3.8	1.49e+00	0	58	104	1519386624	61	14930
2026-01-01 08:31:22.17	350.70	2.91	-44.9	-57.3	3.8	1.49e+00	0	59	104	1519386624	61	14970
2026-01-01 08:31:25.21	350.50	2.74	-45.0	-57.3	3.8	1.49e+00	0	59	104	1519386624	61	14920
2026-01-01 08:31:28.24	350.30	2.56	-44.9	-57.3	3.8	1.49e+00	0	59	104	1519386624	61	14932
2026-01-01 08:31:31.28	350.10	2.39	-44.9	-57.3	3.8	1.49e+00	0	59	104	1519386624	61	14914
2026-01-01 08:31:34.31	349.91	2.21	-44.9	-57.3	3.8	1.49e+00	0	58	104	1519386624	61	14952
2026-01-01 08:31:37.34	349.72	2.04	-44.9	-57.3	3.8	1.49e+00	0	59	104	1519386624	61	14969
2026-01-01 08:31:40.38	349.53	1.87	-44.9	-57.3	3.8	1.49e+00	0	59	104	1519386624	61	14941

#Closed at: 2026-01-01 08:31:40
#Recorded file [1519 MB]: D:/lorett/data/31039_260101_111859.dat