passes_logs/2026/01/01/R2.0S_Moscow/R2.0S_Moscow__20260101_145641_FENGYUN_3E_rec.log

#Pass ID: 20260101_145641_FENGYUN 3E
#Satellite: FENGYUN 3E
#Configuration: FENGYUN 3E
#almurnet v.1.7.20251203
#Start time: 2026-01-01 14:56:42

#Version: 2.2.20231116
#Station: R2.0S_Moscow
#Location: 37.707566 lon 55.798166 lat
#TLE: 1 49008U 21062A   25365.98258168  .00000149  00000+0  90987-4 0  9990
#TLE: 2 49008  98.7481   6.2763 0001360 169.3782 190.7423 14.19883270232859

#Time	Az	El	Level	Level2	SNR	BER	BlckErr	Temp	State	Recorded	gain1	gain2
2026-01-01 14:56:42.71	182.65	2.09	-44.4	-55.3	3.8	8.46e-01	0	48	0	0	59	12649
2026-01-01 14:56:46.75	182.80	2.34	-44.4	-55.3	3.8	8.45e-01	0	49	104	0	59	12633
2026-01-01 14:56:50.80	182.95	2.60	-44.4	-55.4	3.8	8.46e-01	0	49	104	0	59	12681
2026-01-01 14:56:54.84	183.10	2.86	-44.4	-55.4	3.8	8.45e-01	0	49	104	0	59	12668
2026-01-01 14:56:58.88	183.26	3.12	-44.4	-55.3	3.8	8.46e-01	0	49	104	0	59	12630
2026-01-01 14:57:02.92	183.41	3.38	-44.4	-55.3	3.8	8.46e-01	0	50	104	0	59	12626
2026-01-01 14:57:06.97	183.57	3.64	-44.4	-55.4	3.8	8.47e-01	0	50	104	0	59	12695
2026-01-01 14:57:11.01	183.74	3.91	-44.4	-55.3	3.8	8.47e-01	0	50	104	0	59	12636
2026-01-01 14:57:15.05	183.90	4.18	-44.4	-55.3	3.8	8.47e-01	0	50	104	0	59	12521
2026-01-01 14:57:19.10	184.07	4.45	-44.4	-55.2	3.8	8.47e-01	0	51	104	0	59	12438
2026-01-01 14:57:23.14	184.24	4.72	-44.4	-55.1	3.8	8.46e-01	0	51	104	0	59	12352
2026-01-01 14:57:27.19	184.42	5.00	-44.4	-55.2	3.8	8.46e-01	0	51	104	0	59	12477
2026-01-01 14:57:31.23	184.59	5.28	-44.4	-55.3	3.8	8.45e-01	0	51	104	0	59	12612
2026-01-01 14:57:35.27	184.78	5.56	-44.4	-55.2	3.8	8.47e-01	0	52	104	0	59	12468
2026-01-01 14:57:39.32	184.96	5.85	-44.3	-54.6	3.8	8.47e-01	0	52	104	0	59	11554
2026-01-01 14:57:43.36	185.15	6.14	-44.2	-54.0	3.8	8.46e-01	0	52	104	0	59	10903
2026-01-01 14:57:47.40	185.34	6.43	-44.3	-54.6	3.8	8.45e-01	0	52	104	0	59	11674
2026-01-01 14:57:51.45	185.53	6.72	-43.7	-51.1	4.4	8.37e-01	0	52	0	0	58	8270
2026-01-01 14:57:55.49	185.73	7.02	-40.9	-44.2	9.7	1.93e-02	0	53	0	18874368	52	5246
2026-01-01 14:57:59.53	185.94	7.32	-37.6	-39.7	14.1	6.80e-06	0	53	0	48234496	46	4418
2026-01-01 14:58:03.58	186.14	7.62	-35.3	-37.1	16.4	0.00e+00	0	53	0	77594624	41	4347
2026-01-01 14:58:07.62	186.35	7.93	-34.9	-36.6	16.9	0.00e+00	0	53	0	106954752	40	4376
2026-01-01 14:58:11.66	186.57	8.24	-34.9	-36.6	17.0	0.00e+00	0	53	0	135266304	40	4376
2026-01-01 14:58:15.70	186.79	8.56	-34.6	-36.4	17.1	0.00e+00	0	53	0	164626432	40	4243
2026-01-01 14:58:19.74	187.01	8.87	-34.6	-36.3	17.2	0.00e+00	0	54	0	192937984	40	4228
2026-01-01 14:58:23.78	187.24	9.20	-34.5	-36.2	17.4	0.00e+00	0	54	0	222298112	39	4408
2026-01-01 14:58:27.83	187.47	9.52	-34.3	-36.0	17.6	0.00e+00	0	54	0	251658240	39	4312
2026-01-01 14:58:31.87	187.71	9.85	-34.2	-35.9	17.7	0.00e+00	0	54	0	281018368	39	4243
2026-01-01 14:58:35.91	187.96	10.18	-34.1	-35.7	17.8	0.00e+00	0	54	0	310378496	39	4174
2026-01-01 14:58:39.95	188.20	10.52	-34.0	-35.6	18.0	0.00e+00	0	54	0	338690048	38	4389
2026-01-01 14:58:43.99	188.46	10.86	-33.9	-35.6	18.0	0.00e+00	0	54	0	368050176	38	4360
2026-01-01 14:58:48.04	188.72	11.21	-33.8	-35.5	18.1	0.00e+00	0	55	0	397410304	38	4320
2026-01-01 14:58:52.08	188.99	11.56	-33.7	-35.4	18.2	0.00e+00	0	55	0	426770432	38	4261
2026-01-01 14:58:56.12	189.26	11.92	-33.7	-35.4	18.2	0.00e+00	0	54	0	456130560	38	4279
2026-01-01 14:59:00.16	189.54	12.27	-33.6	-35.3	18.3	0.00e+00	0	55	0	485490688	37	4463
2026-01-01 14:59:04.20	189.82	12.64	-33.6	-35.3	18.3	0.00e+00	0	55	0	513802240	37	4468
2026-01-01 14:59:08.24	190.11	13.01	-33.5	-35.2	18.4	0.00e+00	0	55	0	543162368	37	4430
2026-01-01 14:59:12.28	190.41	13.38	-33.3	-35.0	18.6	0.00e+00	0	55	0	572522496	37	4301
2026-01-01 14:59:16.32	190.72	13.76	-33.2	-34.9	18.7	0.00e+00	0	55	0	601882624	37	4278
2026-01-01 14:59:20.36	191.03	14.15	-33.1	-34.7	18.9	0.00e+00	0	55	0	631242752	36	4441
2026-01-01 14:59:24.40	191.36	14.54	-32.9	-34.6	19.0	0.00e+00	0	55	0	659554304	36	4356
2026-01-01 14:59:28.44	191.69	14.93	-32.8	-34.4	19.2	0.00e+00	0	55	0	688914432	36	4279
2026-01-01 14:59:32.48	192.03	15.33	-32.9	-34.5	19.1	0.00e+00	0	55	0	718274560	36	4327
2026-01-01 14:59:36.52	192.37	15.74	-32.7	-34.4	19.2	0.00e+00	0	55	0	747634688	36	4261
2026-01-01 14:59:40.56	192.73	16.15	-31.9	-33.6	19.2	0.00e+00	0	56	0	776994816	34	4370
2026-01-01 14:59:44.61	193.10	16.57	-31.8	-33.4	19.3	0.00e+00	0	56	0	806354944	34	4287
2026-01-01 14:59:48.65	193.47	17.00	-31.7	-33.4	19.4	0.00e+00	0	56	0	834666496	34	4255
2026-01-01 14:59:52.69	193.86	17.43	-31.6	-33.2	19.6	0.00e+00	0	56	0	864026624	33	4405
2026-01-01 14:59:56.73	194.26	17.87	-31.4	-33.0	19.7	0.00e+00	0	56	0	893386752	33	4299
2026-01-01 15:00:00.77	194.67	18.31	-31.3	-32.8	19.8	0.00e+00	0	56	0	922746880	33	4234
2026-01-01 15:00:04.81	195.09	18.77	-31.2	-32.7	19.9	0.00e+00	0	56	0	952107008	33	4180
2026-01-01 15:00:08.85	195.52	19.22	-31.2	-32.7	19.8	0.00e+00	0	56	0	981467136	33	4192
2026-01-01 15:00:12.89	195.97	19.69	-31.2	-32.8	19.7	0.00e+00	0	56	0	1009778688	32	4483
2026-01-01 15:00:16.93	196.43	20.16	-31.2	-32.9	19.6	0.00e+00	0	56	0	1039138816	32	4527
2026-01-01 15:00:20.97	196.91	20.64	-30.8	-32.3	20.1	0.00e+00	0	56	0	1068498944	32	4236
2026-01-01 15:00:25.01	197.39	21.13	-30.9	-32.6	19.8	0.00e+00	0	56	0	1097859072	32	4373
2026-01-01 15:00:29.06	197.90	21.62	-30.8	-32.5	19.9	0.00e+00	0	56	0	1127219200	32	4314
2026-01-01 15:00:33.10	198.42	22.13	-30.5	-32.1	20.2	0.00e+00	0	56	0	1155530752	31	4378
2026-01-01 15:00:37.14	198.96	22.64	-30.6	-32.1	20.2	0.00e+00	0	57	0	1184890880	31	4382
2026-01-01 15:00:41.18	199.51	23.15	-30.6	-32.2	20.2	0.00e+00	0	56	0	1214251008	31	4415
2026-01-01 15:00:45.23	200.08	23.68	-30.5	-32.1	20.3	0.00e+00	0	56	0	1243611136	31	4362
2026-01-01 15:00:49.27	200.67	24.21	-30.5	-32.1	20.3	0.00e+00	0	57	0	1272971264	31	4359
2026-01-01 15:00:53.31	201.29	24.75	-30.3	-31.8	20.5	0.00e+00	0	56	0	1302331392	30	4478
2026-01-01 15:00:57.34	201.92	25.30	-30.3	-31.8	20.4	0.00e+00	0	57	0	1330642944	30	4480
2026-01-01 15:01:01.38	202.57	25.86	-30.3	-31.8	20.4	0.00e+00	0	56	0	1360003072	30	4493
2026-01-01 15:01:05.42	203.25	26.42	-30.2	-31.7	20.5	0.00e+00	0	57	0	1389363200	30	4432
2026-01-01 15:01:09.47	203.95	27.00	-29.9	-31.4	20.8	0.00e+00	0	57	0	1418723328	30	4263
2026-01-01 15:01:13.51	204.68	27.57	-29.7	-31.1	21.2	0.00e+00	0	57	0	1448083456	30	4117
2026-01-01 15:01:17.55	205.43	28.16	-30.0	-31.5	20.9	0.00e+00	0	57	0	1477443584	30	4327
2026-01-01 15:01:21.59	206.21	28.76	-29.9	-31.4	21.0	0.00e+00	0	57	0	1505755136	30	4285
2026-01-01 15:01:25.63	207.02	29.36	-29.9	-31.4	21.0	0.00e+00	0	57	0	1535115264	30	4246
2026-01-01 15:01:29.67	207.86	29.96	-30.0	-31.6	20.7	0.00e+00	0	57	0	1564475392	30	4374
2026-01-01 15:01:33.72	208.73	30.58	-30.1	-31.7	20.6	0.00e+00	0	57	0	1593835520	30	4413
2026-01-01 15:01:37.76	209.63	31.20	-29.9	-31.5	20.7	0.00e+00	0	57	0	1623195648	30	4307
2026-01-01 15:01:41.80	210.57	31.83	-29.8	-31.4	20.8	0.00e+00	0	57	0	1652555776	30	4255
2026-01-01 15:01:45.84	211.55	32.45	-29.8	-31.3	20.9	0.00e+00	0	57	0	1680867328	30	4236
2026-01-01 15:01:49.88	212.56	33.09	-29.7	-31.2	21.1	0.00e+00	0	57	0	1710227456	30	4157
2026-01-01 15:01:53.93	213.62	33.73	-29.5	-31.0	21.2	0.00e+00	0	57	0	1739587584	30	4072
2026-01-01 15:01:57.97	214.71	34.37	-29.8	-31.4	21.0	0.00e+00	0	57	0	1768947712	29	4504
2026-01-01 15:02:02.01	215.85	35.01	-29.9	-31.4	21.0	0.00e+00	0	57	0	1798307840	29	4509
2026-01-01 15:02:06.05	217.03	35.65	-30.1	-31.6	20.8	0.00e+00	0	57	0	1827667968	29	4649
2026-01-01 15:02:10.09	218.26	36.29	-30.2	-31.8	20.5	0.00e+00	0	57	0	1855979520	29	4722
2026-01-01 15:02:14.13	219.54	36.93	-30.0	-31.5	20.7	0.00e+00	0	57	0	1885339648	29	4581
2026-01-01 15:02:18.17	220.86	37.56	-30.0	-31.4	20.9	0.00e+00	0	57	0	1914699776	29	4544
2026-01-01 15:02:22.21	222.24	38.19	-30.6	-31.5	22.1	0.00e+00	0	57	0	1944059904	31	4079
2026-01-01 15:02:26.25	223.67	38.81	-30.7	-31.7	22.0	0.00e+00	0	57	0	1973420032	31	4147
2026-01-01 15:02:30.29	225.16	39.42	-30.9	-31.8	21.8	0.00e+00	0	57	0	2001731584	31	4210
2026-01-01 15:02:34.33	226.70	40.02	-30.7	-31.6	22.1	0.00e+00	0	57	0	2031091712	31	4114
2026-01-01 15:02:38.38	228.30	40.60	-30.5	-31.3	22.3	0.00e+00	0	57	0	2060451840	31	4002
2026-01-01 15:02:42.42	229.95	41.17	-30.9	-31.8	21.9	0.00e+00	0	57	0	2089811968	31	4207
2026-01-01 15:02:46.46	231.67	41.73	-30.4	-31.3	22.3	0.00e+00	0	57	0	2119172096	31	3975
2026-01-01 15:02:50.50	233.44	42.26	-30.8	-31.7	21.9	0.00e+00	0	57	0	2148532224	31	4192
2026-01-01 15:02:54.54	235.26	42.76	-30.7	-31.6	22.0	0.00e+00	0	57	0	2176843776	31	4132
2026-01-01 15:02:58.58	237.15	43.24	-30.7	-31.6	22.0	0.00e+00	0	57	0	2206203904	31	4130
2026-01-01 15:03:02.62	239.08	43.69	-31.0	-31.9	21.7	0.00e+00	0	57	0	2235564032	31	4284
2026-01-01 15:03:06.66	241.07	44.11	-31.4	-32.3	21.6	0.00e+00	0	57	0	2264924160	32	4209
2026-01-01 15:03:10.70	243.12	44.50	-30.9	-31.8	22.0	0.00e+00	0	57	0	2294284288	32	3977
2026-01-01 15:03:14.74	245.20	44.85	-31.8	-32.8	21.1	0.00e+00	0	57	0	2322595840	33	4225
2026-01-01 15:03:18.78	247.33	45.15	-31.8	-32.8	21.1	0.00e+00	0	57	0	2351955968	33	4197
2026-01-01 15:03:22.82	249.50	45.42	-31.2	-32.1	21.7	0.00e+00	0	57	0	2381316096	33	3906
2026-01-01 15:03:26.86	251.70	45.64	-31.2	-32.1	21.7	0.00e+00	0	57	0	2410676224	33	3906
2026-01-01 15:03:30.91	253.94	45.82	-31.4	-32.3	21.5	0.00e+00	0	57	0	2440036352	33	3982
2026-01-01 15:03:34.95	256.19	45.95	-31.3	-32.2	21.6	0.00e+00	0	58	0	2469396480	33	3926
2026-01-01 15:03:38.99	258.46	46.04	-31.6	-32.5	21.3	0.00e+00	0	57	0	2497708032	33	4091
2026-01-01 15:03:43.04	260.74	46.07	-31.2	-32.1	21.7	0.00e+00	0	58	0	2527068160	33	3884
2026-01-01 15:03:47.08	263.01	46.06	-31.5	-32.4	21.4	0.00e+00	0	57	0	2556428288	33	4037
2026-01-01 15:03:51.12	265.28	45.99	-31.6	-32.6	21.2	0.00e+00	0	57	0	2585788416	33	4113
2026-01-01 15:03:55.16	267.54	45.88	-31.5	-32.5	21.3	0.00e+00	0	58	0	2615148544	33	4061
2026-01-01 15:03:59.20	269.78	45.73	-31.2	-32.1	21.7	0.00e+00	0	57	0	2644508672	33	3907
2026-01-01 15:04:03.24	271.99	45.52	-31.3	-32.2	21.6	0.00e+00	0	58	0	2672820224	33	3924
2026-01-01 15:04:07.28	274.17	45.28	-31.4	-32.4	21.4	0.00e+00	0	57	0	2702180352	32	4244
2026-01-01 15:04:11.32	276.32	44.99	-31.1	-32.0	21.8	0.00e+00	0	58	0	2731540480	32	4055
2026-01-01 15:04:15.36	278.42	44.66	-31.5	-32.4	21.4	0.00e+00	0	57	0	2760900608	32	4286
2026-01-01 15:04:19.40	280.48	44.29	-31.3	-32.2	21.6	0.00e+00	0	58	0	2790260736	32	4167
2026-01-01 15:04:23.44	282.49	43.89	-31.5	-32.4	21.4	0.00e+00	0	58	0	2818572288	33	4041
2026-01-01 15:04:27.49	284.45	43.45	-31.3	-32.2	21.6	0.00e+00	0	58	0	2847932416	33	3950
2026-01-01 15:04:31.53	286.36	42.98	-31.5	-32.4	21.4	0.00e+00	0	57	0	2877292544	33	4034
2026-01-01 15:04:35.57	288.20	42.49	-30.9	-31.7	22.1	0.00e+00	0	58	0	2906652672	32	3958
2026-01-01 15:04:39.60	289.99	41.97	-31.3	-32.2	21.6	0.00e+00	0	58	0	2936012800	32	4178
2026-01-01 15:04:43.64	291.72	41.43	-31.0	-31.9	21.5	0.00e+00	0	58	0	2964324352	32	4028
2026-01-01 15:04:47.68	293.40	40.87	-30.8	-31.7	22.1	0.00e+00	0	58	0	2993684480	32	3944
2026-01-01 15:04:51.72	295.02	40.30	-31.1	-32.1	21.7	0.00e+00	0	58	0	3023044608	32	4102
2026-01-01 15:04:55.76	296.58	39.71	-31.1	-32.1	21.7	0.00e+00	0	58	0	3052404736	32	4101
2026-01-01 15:04:59.81	298.09	39.10	-30.9	-31.8	22.0	0.00e+00	0	58	0	3081764864	32	3963
2026-01-01 15:05:03.85	299.54	38.49	-30.8	-31.7	22.1	0.00e+00	0	57	0	3111124992	32	3928
2026-01-01 15:05:07.89	300.94	37.87	-30.9	-31.8	22.0	0.00e+00	0	58	0	3139436544	32	3975
2026-01-01 15:05:11.93	302.28	37.24	-30.6	-31.4	22.2	0.00e+00	0	58	0	3168796672	32	3820
2026-01-01 15:05:15.98	303.58	36.61	-30.8	-31.7	22.0	0.00e+00	0	58	0	3198156800	32	3938
2026-01-01 15:05:20.02	304.83	35.97	-30.9	-31.9	21.9	0.00e+00	0	58	0	3227516928	32	4011
2026-01-01 15:05:24.06	306.03	35.33	-30.8	-31.7	22.1	0.00e+00	0	58	0	3256877056	32	3914
2026-01-01 15:05:28.10	307.18	34.70	-30.3	-31.2	22.3	0.00e+00	0	58	0	3286237184	31	3933
2026-01-01 15:05:32.15	308.30	34.06	-30.4	-31.3	22.2	0.00e+00	0	58	0	3315597312	31	3974
2026-01-01 15:05:36.19	309.36	33.42	-31.0	-31.9	21.7	0.00e+00	0	58	0	3343908864	31	4268
2026-01-01 15:05:40.23	310.39	32.79	-30.6	-31.5	22.0	0.00e+00	0	58	0	3373268992	31	4092
2026-01-01 15:05:44.27	311.38	32.16	-30.5	-31.4	22.2	0.00e+00	0	58	0	3402629120	31	4015
2026-01-01 15:05:48.31	312.33	31.54	-30.7	-31.6	22.0	0.00e+00	0	58	0	3431989248	31	4105
2026-01-01 15:05:52.35	313.25	30.92	-30.8	-31.7	21.9	0.00e+00	0	58	0	3461349376	31	4183
2026-01-01 15:05:56.39	314.14	30.31	-30.9	-31.9	21.7	0.00e+00	0	58	0	3489660928	31	4245
2026-01-01 15:06:00.43	314.99	29.70	-30.9	-31.8	21.7	0.00e+00	0	58	0	3519021056	31	4211
2026-01-01 15:06:04.47	315.81	29.10	-30.6	-31.5	21.9	0.00e+00	0	58	0	3548381184	31	4095
2026-01-01 15:06:08.52	316.60	28.51	-30.7	-31.5	22.0	0.00e+00	0	58	0	3577741312	31	4098
2026-01-01 15:06:12.55	317.37	27.92	-30.9	-31.8	21.6	0.00e+00	0	58	0	3607101440	31	4206
2026-01-01 15:06:16.60	318.11	27.34	-31.0	-31.9	21.6	0.00e+00	0	58	0	3636461568	31	4281
2026-01-01 15:06:20.64	318.82	26.77	-30.9	-31.8	21.7	0.00e+00	0	58	0	3664773120	31	4232
2026-01-01 15:06:24.68	319.50	26.21	-30.8	-31.8	21.7	0.00e+00	0	58	0	3694133248	31	4196
2026-01-01 15:06:28.72	320.17	25.65	-30.8	-31.7	21.6	0.00e+00	0	58	0	3723493376	31	4179
2026-01-01 15:06:32.76	320.81	25.10	-31.0	-32.0	21.3	0.00e+00	0	58	0	3752853504	31	4302
2026-01-01 15:06:36.80	321.43	24.56	-31.2	-32.1	21.4	0.00e+00	0	58	0	3782213632	31	4381
2026-01-01 15:06:40.84	322.03	24.03	-31.1	-32.0	21.5	0.00e+00	0	58	0	3810525184	31	4326
2026-01-01 15:06:44.89	322.61	23.50	-30.9	-31.8	21.7	0.00e+00	0	58	0	3839885312	31	4226
2026-01-01 15:06:48.93	323.18	22.98	-31.0	-32.0	21.5	0.00e+00	0	58	0	3869245440	31	4294
2026-01-01 15:06:52.97	323.72	22.47	-31.5	-32.4	21.2	0.00e+00	0	58	0	3898605568	32	4286
2026-01-01 15:06:57.01	324.25	21.97	-31.6	-32.5	21.1	0.00e+00	0	58	0	3927965696	32	4319
2026-01-01 15:07:01.02	324.76	21.48	-31.4	-32.4	21.2	0.00e+00	0	58	0	3956277248	32	4244
2026-01-01 15:07:05.07	325.26	20.99	-31.4	-32.3	21.2	0.00e+00	0	58	0	3985637376	32	4234
2026-01-01 15:07:09.11	325.74	20.51	-31.6	-32.6	21.0	0.00e+00	0	58	0	4014997504	32	4343
2026-01-01 15:07:13.15	326.21	20.04	-31.8	-32.7	20.8	0.00e+00	0	58	0	4044357632	33	4178
2026-01-01 15:07:17.19	326.66	19.57	-31.9	-32.9	20.7	0.00e+00	0	58	0	4072669184	33	4257
2026-01-01 15:07:21.23	327.10	19.11	-32.0	-33.0	20.6	0.00e+00	0	58	0	4102029312	33	4313
2026-01-01 15:07:25.27	327.53	18.66	-32.0	-33.0	20.5	0.00e+00	0	58	0	4131389440	33	4319
2026-01-01 15:07:29.31	327.95	18.21	-32.0	-32.9	20.5	0.00e+00	0	58	0	4160749568	33	4287
2026-01-01 15:07:33.36	328.35	17.77	-32.1	-33.0	20.5	0.00e+00	0	58	0	4190109696	33	4331
2026-01-01 15:07:37.40	328.75	17.34	-32.0	-33.0	20.4	0.00e+00	0	58	0	4219469824	33	4323
2026-01-01 15:07:41.44	329.13	16.92	-32.2	-33.2	20.3	0.00e+00	0	58	0	4247781376	33	4392
2026-01-01 15:07:45.48	329.50	16.50	-32.4	-33.3	20.1	0.00e+00	0	58	0	4277141504	34	4236
2026-01-01 15:07:49.53	329.87	16.08	-32.6	-33.6	19.8	0.00e+00	0	58	0	4306501632	34	4391
2026-01-01 15:07:53.57	330.22	15.67	-32.8	-33.8	19.6	0.00e+00	0	58	0	4335861760	35	4241
2026-01-01 15:07:57.61	330.57	15.27	-33.0	-34.1	19.4	0.00e+00	0	58	0	4365221888	35	4349
2026-01-01 15:08:01.65	330.90	14.88	-33.1	-34.2	19.3	0.00e+00	0	58	0	4394582016	35	4397
2026-01-01 15:08:05.70	331.23	14.49	-33.2	-34.2	19.2	0.00e+00	0	58	0	4423942144	35	4440
2026-01-01 15:08:09.74	331.55	14.10	-33.1	-34.2	19.2	0.00e+00	0	58	0	4452253696	35	4419
2026-01-01 15:08:13.78	331.87	13.72	-33.1	-34.2	19.2	0.00e+00	0	58	0	4481613824	35	4408
2026-01-01 15:08:17.83	332.17	13.34	-33.9	-35.0	19.1	0.00e+00	0	58	0	4510973952	37	4305
2026-01-01 15:08:21.87	332.47	12.98	-34.0	-35.1	19.0	0.00e+00	0	58	0	4540334080	37	4355
2026-01-01 15:08:25.91	332.76	12.61	-34.1	-35.3	18.9	0.00e+00	0	58	0	4569694208	37	4444
2026-01-01 15:08:29.96	333.05	12.25	-34.3	-35.4	18.7	0.00e+00	0	58	0	4599054336	38	4280
2026-01-01 15:08:34.00	333.33	11.89	-34.4	-35.5	18.6	0.00e+00	0	58	0	4627365888	38	4320
2026-01-01 15:08:38.04	333.60	11.54	-34.5	-35.6	18.5	0.00e+00	0	58	0	4656726016	38	4369
2026-01-01 15:08:42.08	333.86	11.20	-34.5	-35.7	18.4	0.00e+00	0	58	0	4686086144	38	4403
2026-01-01 15:08:46.12	334.12	10.86	-34.5	-35.7	18.3	0.00e+00	0	58	0	4715446272	38	4393
2026-01-01 15:08:50.16	334.38	10.52	-34.6	-35.8	18.2	0.00e+00	0	58	0	4744806400	38	4450
2026-01-01 15:08:54.20	334.63	10.19	-34.7	-35.9	18.1	0.00e+00	0	58	0	4773117952	39	4276
2026-01-01 15:08:58.25	334.87	9.86	-34.8	-36.0	18.0	0.00e+00	0	58	0	4802478080	39	4293
2026-01-01 15:09:02.28	335.11	9.53	-34.9	-36.1	17.8	0.00e+00	0	58	0	4831838208	39	4363
2026-01-01 15:09:06.32	335.35	9.21	-34.9	-36.2	17.8	0.00e+00	0	58	0	4861198336	39	4399
2026-01-01 15:09:10.36	335.58	8.89	-35.2	-36.4	17.5	0.00e+00	0	58	0	4890558464	39	4518
2026-01-01 15:09:14.40	335.80	8.58	-35.2	-36.4	17.3	0.00e+00	0	58	0	4919918592	40	4287
2026-01-01 15:09:18.44	336.02	8.27	-35.3	-36.6	17.1	0.00e+00	0	58	0	4948230144	40	4355
2026-01-01 15:09:22.49	336.24	7.96	-44.6	-55.6	3.8	8.45e-01	0	58	104	4971298816	58	13755
2026-01-01 15:09:26.53	336.45	7.66	-45.2	-56.4	3.8	8.46e-01	0	58	104	4971298816	60	13533
2026-01-01 15:09:30.58	336.66	7.35	-45.4	-56.6	3.8	8.47e-01	0	58	104	4971298816	60	13733
2026-01-01 15:09:34.62	336.86	7.06	-45.3	-56.5	3.8	8.45e-01	0	58	104	4971298816	60	13573
2026-01-01 15:09:38.66	337.07	6.76	-45.3	-56.4	3.8	8.47e-01	0	58	104	4971298816	60	13480
2026-01-01 15:09:42.70	337.26	6.47	-45.2	-56.4	3.8	8.46e-01	0	58	104	4971298816	60	13435
2026-01-01 15:09:46.74	337.46	6.18	-45.2	-56.4	3.8	8.45e-01	0	58	104	4971298816	60	13432
2026-01-01 15:09:50.78	337.65	5.90	-45.0	-56.2	3.8	8.46e-01	0	58	104	4971298816	60	13244
2026-01-01 15:09:54.83	337.83	5.62	-45.1	-56.3	3.8	8.46e-01	0	58	104	4971298816	60	13284
2026-01-01 15:09:58.87	338.02	5.34	-45.2	-56.3	3.8	8.45e-01	0	58	104	4971298816	60	13345
2026-01-01 15:10:02.91	338.20	5.06	-45.2	-56.3	3.8	8.45e-01	0	58	104	4971298816	60	13323
2026-01-01 15:10:06.96	338.38	4.79	-45.2	-56.3	3.8	8.46e-01	0	58	104	4971298816	60	13330
2026-01-01 15:10:11.00	338.55	4.51	-45.2	-56.3	3.8	8.46e-01	0	58	104	4971298816	60	13348
2026-01-01 15:10:15.05	338.72	4.24	-45.1	-56.3	3.8	8.46e-01	0	58	104	4971298816	60	13304
2026-01-01 15:10:19.09	338.89	3.98	-45.2	-56.3	3.8	8.46e-01	0	58	104	4971298816	60	13399
2026-01-01 15:10:23.13	339.06	3.71	-45.2	-56.3	3.8	8.45e-01	0	58	104	4971298816	60	13300
2026-01-01 15:10:27.18	339.22	3.45	-45.1	-56.3	3.8	8.47e-01	0	58	104	4971298816	60	13293
2026-01-01 15:10:31.22	339.38	3.19	-45.2	-56.3	3.8	8.47e-01	0	58	104	4971298816	60	13346
2026-01-01 15:10:35.26	339.54	2.94	-45.2	-56.3	3.8	8.46e-01	0	58	104	4971298816	60	13287
2026-01-01 15:10:39.31	339.70	2.68	-45.1	-56.3	3.8	8.46e-01	0	58	104	4971298816	60	13331
2026-01-01 15:10:43.35	339.85	2.43	-45.2	-56.3	3.8	8.46e-01	0	58	104	4971298816	60	13361
2026-01-01 15:10:47.40	340.01	2.18	-45.2	-56.3	3.8	8.46e-01	0	59	104	4971298816	60	13361

#Closed at: 2026-01-01 15:10:50
#Recorded file [4971 MB]: D:/lorett/data/31039_260101_175642.dat