passes_logs/2026/01/01/R2.0S_Moscow/R2.0S_Moscow__20260101_124938_AQUA_rec.log

#Pass ID: 20260101_124938_AQUA
#Satellite: AQUA
#Configuration: AQUA
#almurnet v.1.7.20251203
#Start time: 2026-01-01 12:49:39

#Version: 2.2.20231116
#Station: R2.0S_Moscow
#Location: 37.707566 lon 55.798166 lat
#TLE: 1 27424U 02022A   25365.92641128  .00002078  00000+0  42628-3 0  9990
#TLE: 2 27424  98.4058 327.1196 0001962  94.7781 340.6230 14.61783896258835

#Time	Az	El	Level	Level2	SNR	BER	BlckErr	Temp	State	Recorded	gain1	gain2
2026-01-01 12:49:39.14	199.31	2.06	-44.9	-63.7	3.8	7.43e-01	0	48	0	0	61	31130
2026-01-01 12:49:42.17	199.52	2.25	-44.9	-63.7	3.8	7.46e-01	0	48	104	0	60	32943
2026-01-01 12:49:45.20	199.73	2.43	-44.9	-63.7	3.8	7.46e-01	0	48	104	0	60	32947
2026-01-01 12:49:48.23	199.94	2.62	-44.9	-63.6	3.8	7.43e-01	0	48	104	0	60	32918
2026-01-01 12:49:51.27	200.15	2.80	-44.9	-63.6	3.8	7.48e-01	0	49	104	0	60	32886
2026-01-01 12:49:54.30	200.37	2.99	-44.9	-63.7	3.8	7.47e-01	0	49	104	0	60	32999
2026-01-01 12:49:57.33	200.59	3.18	-44.9	-63.6	3.8	7.41e-01	0	49	104	0	60	32850
2026-01-01 12:50:00.37	200.82	3.37	-44.9	-63.6	3.8	7.41e-01	0	49	104	0	60	32906
2026-01-01 12:50:03.40	201.04	3.56	-44.9	-63.7	3.8	7.46e-01	0	50	104	0	60	32940
2026-01-01 12:50:06.43	201.27	3.75	-44.9	-63.6	3.8	7.48e-01	0	50	104	0	60	32870
2026-01-01 12:50:09.46	201.51	3.94	-44.9	-63.6	3.8	7.47e-01	0	50	104	0	60	32872
2026-01-01 12:50:12.50	201.74	4.13	-44.9	-63.6	3.8	7.46e-01	0	50	104	0	60	32888
2026-01-01 12:50:15.53	201.98	4.33	-44.9	-63.6	3.8	7.46e-01	0	50	104	0	60	32926
2026-01-01 12:50:18.56	202.23	4.53	-44.9	-63.6	3.8	7.45e-01	0	50	104	0	60	32896
2026-01-01 12:50:21.59	202.47	4.72	-44.9	-63.6	3.8	7.43e-01	0	50	104	0	60	32904
2026-01-01 12:50:24.63	202.72	4.92	-44.9	-63.6	3.8	7.46e-01	0	51	104	0	60	32841
2026-01-01 12:50:27.66	202.98	5.12	-44.9	-63.7	3.8	7.43e-01	0	51	104	0	60	32953
2026-01-01 12:50:30.69	203.23	5.32	-44.9	-63.5	3.8	7.44e-01	0	51	104	0	60	32399
2026-01-01 12:50:33.72	203.50	5.53	-44.9	-63.2	3.8	7.44e-01	0	51	104	0	60	31397
2026-01-01 12:50:36.76	203.76	5.73	-44.9	-62.8	3.8	7.46e-01	0	51	104	0	60	29856
2026-01-01 12:50:39.79	204.03	5.93	-44.9	-63.0	3.8	7.45e-01	0	52	104	0	60	30722
2026-01-01 12:50:42.82	204.30	6.14	-44.9	-63.5	3.8	7.45e-01	0	52	104	0	60	32205
2026-01-01 12:50:45.86	204.58	6.35	-44.9	-63.0	3.8	7.46e-01	0	52	104	0	60	30579
2026-01-01 12:50:48.89	204.86	6.56	-44.8	-61.3	4.0	7.40e-01	0	52	104	0	60	25077
2026-01-01 12:50:51.92	205.15	6.77	-44.8	-61.3	3.8	7.39e-01	0	52	104	0	60	25087
2026-01-01 12:50:54.95	205.44	6.98	-44.8	-62.6	3.8	7.47e-01	0	52	104	0	60	29247
2026-01-01 12:50:57.98	205.73	7.19	-44.6	-56.4	6.0	6.82e-01	91	52	0	0	60	14331
2026-01-01 12:51:01.02	206.03	7.41	-43.5	-49.3	13.6	6.09e-01	0	52	0	5767168	59	6664
2026-01-01 12:51:04.05	206.34	7.62	-41.2	-44.5	18.4	6.06e-01	0	53	0	11534336	54	5116
2026-01-01 12:51:07.08	206.64	7.84	-39.8	-42.3	20.6	6.06e-01	0	53	0	17301504	51	4746
2026-01-01 12:51:10.11	206.96	8.06	-39.8	-42.3	20.6	6.06e-01	0	53	0	22544384	51	4745
2026-01-01 12:51:13.14	207.28	8.28	-43.3	-48.9	13.9	6.07e-01	0	53	0	28311552	57	7129
2026-01-01 12:51:16.17	207.60	8.50	-39.8	-42.3	20.9	6.07e-01	0	53	0	34078720	51	4715
2026-01-01 12:51:19.20	207.93	8.72	-39.2	-41.5	21.6	6.07e-01	0	53	0	39845888	50	4561
2026-01-01 12:51:22.23	208.26	8.95	-39.2	-41.5	21.6	6.06e-01	0	53	0	45613056	50	4561
2026-01-01 12:51:25.26	208.60	9.17	-39.2	-41.4	21.7	6.05e-01	0	53	0	51380224	50	4530
2026-01-01 12:51:28.29	208.95	9.40	-39.0	-41.2	21.9	6.07e-01	0	53	0	57147392	50	4408
2026-01-01 12:51:31.32	209.30	9.63	-39.0	-41.1	22.0	6.04e-01	0	54	0	62390272	50	4381
2026-01-01 12:51:34.35	209.65	9.86	-39.0	-41.2	22.0	6.06e-01	0	53	0	68157440	50	4393
2026-01-01 12:51:37.38	210.01	10.09	-38.9	-41.0	22.1	6.07e-01	0	54	0	73924608	49	4587
2026-01-01 12:51:40.41	210.38	10.33	-38.9	-41.0	22.2	6.08e-01	0	54	0	79691776	49	4588
2026-01-01 12:51:43.44	210.76	10.56	-38.9	-40.9	22.2	6.06e-01	0	54	0	85458944	49	4545
2026-01-01 12:51:46.47	211.14	10.80	-38.8	-40.8	22.4	6.06e-01	0	54	0	90701824	49	4489
2026-01-01 12:51:49.50	211.53	11.03	-38.8	-40.9	22.4	6.06e-01	0	54	0	96468992	49	4498
2026-01-01 12:51:52.53	211.92	11.27	-38.8	-40.8	22.4	6.05e-01	0	54	0	102236160	49	4480
2026-01-01 12:51:55.56	212.32	11.51	-38.7	-40.8	22.5	6.05e-01	0	54	0	108003328	49	4449
2026-01-01 12:51:58.59	212.73	11.76	-38.6	-40.6	22.7	6.06e-01	0	54	0	113770496	49	4367
2026-01-01 12:52:01.62	213.14	12.00	-38.6	-40.6	22.7	6.06e-01	0	54	0	119537664	49	4371
2026-01-01 12:52:04.65	213.57	12.24	-38.6	-40.6	22.7	6.07e-01	0	54	0	125304832	49	4366
2026-01-01 12:52:07.68	213.99	12.49	-38.6	-40.6	22.7	6.09e-01	0	54	0	130547712	49	4355
2026-01-01 12:52:10.71	214.43	12.74	-38.5	-40.4	22.9	6.06e-01	0	54	0	136314880	48	4530
2026-01-01 12:52:13.74	214.88	12.99	-38.6	-40.6	22.8	6.05e-01	0	55	0	142082048	48	4600
2026-01-01 12:52:16.77	215.33	13.24	-38.5	-40.4	22.9	6.06e-01	0	55	0	147849216	48	4542
2026-01-01 12:52:19.81	215.79	13.49	-38.5	-40.4	22.9	6.07e-01	0	54	0	153616384	48	4537
2026-01-01 12:52:22.83	216.26	13.74	-38.5	-40.4	23.0	6.06e-01	0	54	0	159383552	48	4523
2026-01-01 12:52:25.87	216.74	14.00	-38.4	-40.3	23.0	6.04e-01	0	55	0	164626432	48	4492
2026-01-01 12:52:28.89	217.22	14.25	-38.4	-40.3	23.1	6.05e-01	0	55	0	170393600	48	4491
2026-01-01 12:52:31.92	217.72	14.51	-38.4	-40.2	23.2	6.06e-01	0	55	0	176160768	48	4439
2026-01-01 12:52:34.95	218.22	14.77	-38.3	-40.2	23.3	6.06e-01	0	55	0	181927936	48	4406
2026-01-01 12:52:37.98	218.74	15.02	-38.2	-40.1	23.4	6.06e-01	0	55	0	187695104	48	4348
2026-01-01 12:52:41.01	219.26	15.28	-38.4	-40.2	23.2	6.07e-01	0	55	0	193462272	48	4441
2026-01-01 12:52:44.05	219.79	15.55	-38.3	-40.1	23.3	6.05e-01	0	55	0	198705152	48	4375
2026-01-01 12:52:47.07	220.33	15.81	-38.1	-40.0	23.5	6.04e-01	0	55	0	204472320	48	4303
2026-01-01 12:52:50.10	220.88	16.07	-38.0	-39.9	23.6	6.07e-01	0	55	0	210239488	48	4249
2026-01-01 12:52:53.13	221.44	16.33	-38.1	-40.0	23.5	6.07e-01	0	55	0	216006656	48	4293
2026-01-01 12:52:56.16	222.02	16.59	-38.2	-40.0	23.5	6.06e-01	0	55	0	221773824	48	4312
2026-01-01 12:52:59.19	222.60	16.86	-38.1	-39.9	23.6	6.05e-01	0	55	0	227540992	48	4274
2026-01-01 12:53:02.22	223.19	17.12	-38.1	-39.9	23.6	6.05e-01	0	55	0	232783872	48	4279
2026-01-01 12:53:05.25	223.80	17.39	-38.1	-39.9	23.6	6.05e-01	0	55	0	238551040	48	4264
2026-01-01 12:53:08.28	224.41	17.65	-38.2	-40.0	23.5	6.07e-01	0	55	0	244318208	48	4334
2026-01-01 12:53:11.31	225.04	17.92	-38.1	-39.9	23.6	6.06e-01	0	55	0	250085376	48	4270
2026-01-01 12:53:14.34	225.68	18.18	-38.1	-39.9	23.6	6.07e-01	0	55	0	255852544	48	4279
2026-01-01 12:53:17.38	226.33	18.45	-38.2	-40.0	23.5	6.07e-01	0	56	0	261619712	48	4324
2026-01-01 12:53:20.41	226.99	18.71	-38.1	-39.9	23.6	6.06e-01	0	55	0	266862592	48	4284
2026-01-01 12:53:23.44	227.66	18.97	-38.1	-39.9	23.6	6.07e-01	0	56	0	272629760	48	4273
2026-01-01 12:53:26.47	228.35	19.24	-38.1	-39.9	23.7	6.06e-01	0	55	0	278396928	48	4253
2026-01-01 12:53:29.50	229.05	19.50	-38.2	-40.0	23.6	6.04e-01	0	55	0	284164096	48	4324
2026-01-01 12:53:32.53	229.76	19.76	-38.1	-39.9	23.6	6.05e-01	0	56	0	289931264	48	4272
2026-01-01 12:53:35.56	230.48	20.02	-38.2	-40.0	23.5	6.07e-01	0	56	0	295698432	48	4325
2026-01-01 12:53:38.59	231.21	20.28	-38.1	-39.9	23.6	6.06e-01	0	56	0	301465600	48	4287
2026-01-01 12:53:41.62	231.96	20.53	-38.2	-40.0	23.6	6.06e-01	0	56	0	306708480	48	4320
2026-01-01 12:53:44.64	232.72	20.79	-38.2	-40.1	23.5	6.04e-01	0	56	0	312475648	48	4354
2026-01-01 12:53:47.68	233.50	21.04	-38.3	-40.1	23.4	6.08e-01	0	56	0	318242816	48	4387
2026-01-01 12:53:50.71	234.28	21.29	-38.2	-40.1	23.5	6.07e-01	0	56	0	324009984	48	4348
2026-01-01 12:53:53.74	235.08	21.54	-38.2	-40.0	23.6	6.07e-01	0	56	0	329777152	48	4330
2026-01-01 12:53:56.76	235.89	21.78	-38.3	-40.1	23.5	6.06e-01	0	56	0	335020032	48	4363
2026-01-01 12:53:59.79	236.72	22.02	-38.3	-40.1	23.5	6.07e-01	0	56	0	340787200	48	4354
2026-01-01 12:54:02.82	237.56	22.26	-38.4	-40.3	23.3	6.07e-01	0	56	0	346554368	48	4455
2026-01-01 12:54:05.85	238.41	22.49	-38.4	-40.3	23.3	6.06e-01	0	56	0	352321536	48	4472
2026-01-01 12:54:08.88	239.28	22.72	-38.5	-40.3	23.3	6.05e-01	0	56	0	358088704	48	4488
2026-01-01 12:54:11.91	240.16	22.95	-38.4	-40.3	23.3	6.04e-01	0	56	0	363855872	48	4474
2026-01-01 12:54:14.94	241.05	23.17	-38.4	-40.3	23.3	6.06e-01	0	56	0	369623040	48	4447
2026-01-01 12:54:17.97	241.95	23.39	-38.5	-40.4	23.2	6.06e-01	0	56	0	374865920	48	4523
2026-01-01 12:54:21.00	242.87	23.60	-38.3	-40.1	23.5	6.07e-01	0	56	0	380633088	48	4372
2026-01-01 12:54:24.03	243.80	23.80	-38.5	-40.3	23.3	6.06e-01	0	56	0	386400256	48	4492
2026-01-01 12:54:27.06	244.74	24.00	-38.5	-40.3	23.3	6.05e-01	0	56	0	392167424	48	4479
2026-01-01 12:54:30.09	245.70	24.20	-38.4	-40.2	23.4	6.07e-01	0	56	0	397934592	48	4441
2026-01-01 12:54:33.12	246.66	24.38	-38.6	-40.5	23.2	6.04e-01	0	56	0	403177472	48	4558
2026-01-01 12:54:36.15	247.64	24.56	-38.6	-40.5	23.2	6.04e-01	0	56	0	408944640	48	4552
2026-01-01 12:54:39.18	248.63	24.73	-38.4	-40.2	23.4	6.06e-01	0	56	0	414711808	48	4423
2026-01-01 12:54:42.21	249.63	24.90	-38.5	-40.4	23.2	6.07e-01	0	56	0	420478976	48	4520
2026-01-01 12:54:45.24	250.64	25.06	-38.5	-40.3	23.3	6.06e-01	0	56	0	426246144	48	4483
2026-01-01 12:54:48.27	251.66	25.21	-38.5	-40.4	23.2	6.08e-01	0	56	0	432013312	48	4526
2026-01-01 12:54:51.30	252.69	25.35	-38.5	-40.4	23.2	6.07e-01	0	56	0	437780480	48	4517
2026-01-01 12:54:54.33	253.73	25.48	-38.4	-40.3	23.4	6.05e-01	0	56	0	443023360	48	4463
2026-01-01 12:54:57.36	254.78	25.60	-38.6	-40.4	23.2	6.02e-01	0	56	0	448790528	48	4528
2026-01-01 12:55:00.39	255.83	25.72	-38.5	-40.4	23.3	6.06e-01	0	56	0	454557696	48	4501
2026-01-01 12:55:03.42	256.90	25.82	-38.4	-40.3	23.3	6.08e-01	0	56	0	460324864	48	4468
2026-01-01 12:55:06.45	257.97	25.91	-38.4	-40.2	23.4	6.08e-01	0	56	0	466092032	48	4426
2026-01-01 12:55:09.48	259.04	26.00	-38.4	-40.3	23.4	6.07e-01	0	56	0	471334912	48	4462
2026-01-01 12:55:12.51	260.12	26.07	-38.4	-40.3	23.4	6.06e-01	0	56	0	477102080	48	4457
2026-01-01 12:55:15.54	261.21	26.14	-38.4	-40.2	23.5	6.06e-01	0	56	0	482869248	48	4416
2026-01-01 12:55:18.57	262.30	26.19	-38.3	-40.2	21.8	6.04e-01	0	56	0	488636416	48	4406
2026-01-01 12:55:21.60	263.39	26.24	-38.4	-40.2	23.5	6.06e-01	0	56	0	494403584	48	4412
2026-01-01 12:55:24.63	264.49	26.27	-38.3	-40.1	23.5	6.07e-01	0	56	0	500170752	48	4374
2026-01-01 12:55:27.66	265.58	26.29	-38.4	-40.3	23.4	6.05e-01	0	56	0	505937920	48	4462
2026-01-01 12:55:30.69	266.68	26.30	-38.3	-40.1	23.5	6.05e-01	0	56	0	511180800	48	4372
2026-01-01 12:55:33.72	267.78	26.30	-38.4	-40.2	23.4	6.05e-01	0	56	0	516947968	48	4430
2026-01-01 12:55:36.75	268.88	26.29	-38.2	-40.0	23.7	6.06e-01	0	56	0	522715136	48	4317
2026-01-01 12:55:39.78	269.98	26.27	-38.3	-40.2	23.5	6.05e-01	0	56	0	528482304	48	4401
2026-01-01 12:55:42.81	271.07	26.24	-38.3	-40.1	23.5	6.07e-01	0	56	0	534249472	48	4369
2026-01-01 12:55:45.84	272.17	26.20	-38.2	-40.0	23.6	6.07e-01	0	57	0	540016640	48	4307
2026-01-01 12:55:48.87	273.26	26.14	-38.2	-40.0	23.6	6.06e-01	0	56	0	545259520	48	4336
2026-01-01 12:55:51.90	274.34	26.08	-38.2	-40.0	23.6	6.07e-01	0	57	0	551026688	48	4309
2026-01-01 12:55:54.93	275.42	26.01	-38.1	-39.9	23.7	6.08e-01	0	56	0	556793856	48	4273
2026-01-01 12:55:57.96	276.50	25.93	-38.3	-40.1	23.6	6.07e-01	0	57	0	562561024	48	4369
2026-01-01 12:56:00.99	277.57	25.83	-38.2	-39.9	23.7	6.07e-01	0	56	0	568328192	48	4286
2026-01-01 12:56:04.02	278.63	25.73	-38.2	-40.0	23.5	6.07e-01	0	57	0	574095360	48	4338
2026-01-01 12:56:07.04	279.68	25.62	-38.2	-40.0	23.6	6.08e-01	0	57	0	579338240	48	4327
2026-01-01 12:56:10.07	280.72	25.50	-38.2	-40.0	23.6	6.06e-01	0	56	0	585105408	48	4324
2026-01-01 12:56:13.10	281.76	25.37	-38.2	-40.0	23.6	6.07e-01	0	57	0	590872576	48	4305
2026-01-01 12:56:16.13	282.79	25.23	-38.1	-39.9	23.7	6.04e-01	0	56	0	596639744	48	4247
2026-01-01 12:56:19.16	283.81	25.08	-38.2	-40.0	23.6	6.07e-01	0	57	0	602406912	48	4320
2026-01-01 12:56:22.19	284.82	24.92	-38.1	-39.9	23.7	6.07e-01	0	57	0	608174080	48	4250
2026-01-01 12:56:25.22	285.82	24.76	-38.2	-40.1	23.6	6.04e-01	0	57	0	613416960	48	4347
2026-01-01 12:56:28.25	286.80	24.59	-38.2	-40.0	23.6	6.04e-01	0	57	0	619184128	48	4336
2026-01-01 12:56:31.28	287.78	24.41	-38.1	-39.9	23.7	6.09e-01	0	57	0	624951296	48	4279
2026-01-01 12:56:34.31	288.74	24.23	-38.2	-39.9	23.6	6.06e-01	0	57	0	630718464	48	4289
2026-01-01 12:56:37.34	289.70	24.04	-38.1	-39.9	23.7	6.06e-01	0	57	0	636485632	48	4243
2026-01-01 12:56:40.37	290.64	23.84	-38.2	-40.1	23.5	6.07e-01	0	57	0	642252800	48	4343
2026-01-01 12:56:43.40	291.57	23.64	-38.1	-39.9	23.7	6.04e-01	0	57	0	647495680	48	4247
2026-01-01 12:56:46.43	292.48	23.43	-38.1	-39.9	23.7	6.06e-01	0	57	0	653262848	48	4263
2026-01-01 12:56:49.45	293.38	23.21	-38.2	-40.0	23.5	6.05e-01	0	57	0	659030016	48	4334
2026-01-01 12:56:52.48	294.27	22.99	-38.2	-40.0	23.5	6.04e-01	0	57	0	664797184	48	4326
2026-01-01 12:56:55.51	295.15	22.77	-38.1	-39.9	23.7	6.05e-01	0	57	0	670564352	48	4251
2026-01-01 12:56:58.54	296.01	22.54	-38.2	-40.1	23.5	6.07e-01	0	57	0	676331520	48	4346
2026-01-01 12:57:01.57	296.86	22.31	-38.1	-39.9	23.6	6.06e-01	0	57	0	681574400	48	4270
2026-01-01 12:57:04.61	297.70	22.07	-38.0	-39.8	23.7	6.07e-01	0	57	0	687341568	48	4242
2026-01-01 12:57:07.64	298.53	21.84	-37.6	-39.4	23.7	6.07e-01	0	57	0	693108736	47	4261
2026-01-01 12:57:10.66	299.34	21.59	-37.7	-39.6	23.6	6.06e-01	0	57	0	698875904	47	4344
2026-01-01 12:57:13.69	300.13	21.35	-37.6	-39.3	23.8	6.07e-01	0	57	0	704643072	47	4237
2026-01-01 12:57:16.72	300.92	21.10	-37.7	-39.5	23.6	6.05e-01	0	57	0	710410240	47	4337
2026-01-01 12:57:19.75	301.69	20.85	-37.6	-39.3	23.7	6.05e-01	0	57	0	715653120	47	4242
2026-01-01 12:57:22.78	302.45	20.60	-37.6	-39.4	23.6	6.07e-01	0	57	0	721420288	47	4281
2026-01-01 12:57:25.81	303.20	20.34	-37.7	-39.5	23.6	6.07e-01	0	57	0	727187456	47	4316
2026-01-01 12:57:28.84	303.93	20.09	-37.6	-39.4	23.7	6.06e-01	0	57	0	732954624	47	4278
2026-01-01 12:57:31.87	304.65	19.83	-37.5	-39.3	23.8	6.05e-01	0	57	0	738721792	47	4205
2026-01-01 12:57:34.90	305.36	19.57	-37.6	-39.4	23.6	6.07e-01	0	57	0	744488960	47	4276
2026-01-01 12:57:37.93	306.06	19.31	-37.5	-39.3	23.7	6.04e-01	0	57	0	749731840	47	4214
2026-01-01 12:57:40.96	306.74	19.05	-37.6	-39.4	23.7	6.06e-01	0	57	0	755499008	46	4526
2026-01-01 12:57:43.99	307.41	18.79	-37.5	-39.3	23.8	6.06e-01	0	57	0	761266176	46	4444
2026-01-01 12:57:47.02	308.07	18.53	-37.5	-39.3	23.8	6.05e-01	0	57	0	767033344	46	4453
2026-01-01 12:57:50.05	308.72	18.27	-37.5	-39.3	23.7	6.07e-01	0	57	0	772800512	46	4481
2026-01-01 12:57:53.07	309.36	18.01	-37.5	-39.3	23.7	6.04e-01	0	57	0	778567680	46	4483
2026-01-01 12:57:56.10	309.98	17.74	-37.4	-39.1	23.9	6.05e-01	0	57	0	783810560	46	4391
2026-01-01 12:57:59.13	310.60	17.48	-37.5	-39.2	23.8	6.07e-01	0	57	0	789577728	46	4430
2026-01-01 12:58:02.16	311.20	17.22	-37.5	-39.4	23.6	6.06e-01	0	57	0	795344896	46	4494
2026-01-01 12:58:05.19	311.79	16.96	-37.4	-39.2	23.8	6.07e-01	0	57	0	801112064	46	4417
2026-01-01 12:58:08.22	312.37	16.69	-37.5	-39.3	23.7	6.07e-01	0	57	0	806879232	46	4465
2026-01-01 12:58:11.24	312.94	16.43	-37.6	-39.4	23.6	6.05e-01	0	57	0	812646400	46	4505
2026-01-01 12:58:14.28	313.51	16.17	-37.4	-39.2	23.7	6.05e-01	0	57	0	817889280	46	4426
2026-01-01 12:58:17.31	314.06	15.91	-37.4	-39.2	23.7	6.09e-01	0	57	0	823656448	46	4437
2026-01-01 12:58:20.33	314.60	15.65	-37.5	-39.3	23.6	6.05e-01	0	57	0	829423616	46	4460
2026-01-01 12:58:23.36	315.13	15.40	-37.6	-39.4	23.5	6.06e-01	0	57	0	835190784	46	4532
2026-01-01 12:58:26.39	315.65	15.14	-37.6	-39.5	23.4	6.06e-01	0	57	0	840957952	46	4564
2026-01-01 12:58:29.42	316.17	14.88	-37.6	-39.4	23.5	6.06e-01	0	57	0	846725120	46	4538
2026-01-01 12:58:32.45	316.67	14.63	-37.6	-39.4	23.5	6.04e-01	0	57	0	851968000	46	4509
2026-01-01 12:58:35.48	317.17	14.37	-37.5	-39.4	23.5	6.00e-01	0	57	0	857735168	46	4498
2026-01-01 12:58:38.51	317.65	14.12	-37.6	-39.5	23.4	6.02e-01	0	57	0	863502336	46	4562
2026-01-01 12:58:41.54	318.13	13.87	-37.6	-39.4	23.5	6.03e-01	0	57	0	869269504	46	4525
2026-01-01 12:58:44.57	318.60	13.62	-37.7	-39.6	23.3	6.02e-01	0	57	0	875036672	46	4614
2026-01-01 12:58:47.60	319.06	13.37	-37.7	-39.6	23.2	6.01e-01	0	57	0	880803840	46	4634
2026-01-01 12:58:50.63	319.51	13.12	-37.7	-39.6	23.2	6.04e-01	0	57	0	886571008	46	4634
2026-01-01 12:58:53.67	319.96	12.87	-37.9	-39.8	23.0	6.03e-01	0	57	0	891813888	46	4725
2026-01-01 12:58:56.70	320.40	12.62	-37.9	-39.8	23.0	6.03e-01	0	57	0	897581056	46	4738
2026-01-01 12:58:59.73	320.83	12.38	-37.9	-39.8	23.0	6.01e-01	0	57	0	903348224	46	4713
2026-01-01 12:59:02.76	321.25	12.14	-37.9	-39.9	22.9	6.01e-01	0	57	0	909115392	46	4762
2026-01-01 12:59:05.79	321.67	11.90	-38.0	-39.9	22.9	6.01e-01	0	57	0	914882560	46	4787
2026-01-01 12:59:08.82	322.07	11.66	-37.9	-39.9	22.9	6.02e-01	0	57	0	920125440	46	4763
2026-01-01 12:59:11.85	322.48	11.42	-38.0	-40.0	22.8	6.00e-01	0	57	0	925892608	46	4830
2026-01-01 12:59:14.88	322.87	11.18	-38.1	-40.1	22.6	6.03e-01	0	57	0	931659776	46	4916
2026-01-01 12:59:17.91	323.26	10.94	-38.1	-40.2	22.6	6.01e-01	0	57	0	937426944	46	4931
2026-01-01 12:59:20.94	323.64	10.71	-38.4	-40.5	22.3	6.03e-01	0	57	0	943194112	47	4815
2026-01-01 12:59:23.97	324.02	10.48	-38.5	-40.6	22.2	6.00e-01	0	57	0	948961280	47	4886
2026-01-01 12:59:27.00	324.39	10.24	-38.4	-40.4	22.3	6.04e-01	0	57	0	954728448	47	4803
2026-01-01 12:59:30.02	324.75	10.02	-38.5	-40.7	22.0	6.02e-01	0	57	0	959971328	47	4949
2026-01-01 12:59:33.05	325.11	9.79	-38.4	-40.5	22.2	6.00e-01	0	57	0	965738496	47	4822
2026-01-01 12:59:36.08	325.46	9.56	-38.4	-40.5	22.2	6.03e-01	0	57	0	971505664	47	4855
2026-01-01 12:59:39.11	325.81	9.33	-38.5	-40.6	22.1	6.03e-01	0	57	0	977272832	47	4879
2026-01-01 12:59:42.14	326.15	9.11	-38.5	-40.7	22.0	5.99e-01	0	57	0	983040000	47	4949
2026-01-01 12:59:45.17	326.48	8.89	-38.6	-40.7	21.9	6.00e-01	0	57	0	988282880	47	4977
2026-01-01 12:59:48.20	326.81	8.67	-38.5	-40.7	21.9	6.00e-01	0	57	0	994050048	47	4951
2026-01-01 12:59:51.22	327.13	8.45	-38.6	-40.8	21.8	6.00e-01	0	57	0	999817216	47	5037
2026-01-01 12:59:54.25	327.45	8.23	-39.2	-41.4	21.5	6.05e-01	0	57	0	1005584384	48	5098
2026-01-01 12:59:57.28	327.77	8.01	-39.2	-41.5	21.4	6.01e-01	0	57	0	1011351552	49	4836
2026-01-01 13:00:00.31	328.08	7.80	-45.6	-64.3	3.8	7.44e-01	0	57	104	1011875840	61	33511
2026-01-01 13:00:03.35	328.39	7.58	-46.0	-64.7	3.8	7.48e-01	0	57	104	1011875840	62	33308
2026-01-01 13:00:06.37	328.69	7.37	-42.1	-64.9	3.6	7.47e-01	0	57	104	1011875840	55	50840
2026-01-01 13:00:09.40	328.98	7.16	-46.0	-64.7	3.8	7.47e-01	0	57	104	1011875840	62	33261
2026-01-01 13:00:12.43	329.27	6.95	-45.8	-64.7	3.8	7.47e-01	0	57	104	1011875840	62	33115
2026-01-01 13:00:15.47	329.56	6.74	-45.9	-64.7	3.8	7.45e-01	0	57	104	1011875840	62	33117
2026-01-01 13:00:18.50	329.85	6.53	-45.9	-64.7	3.8	7.43e-01	0	57	104	1011875840	62	33133
2026-01-01 13:00:21.53	330.13	6.32	-45.9	-64.7	3.8	7.43e-01	0	58	104	1011875840	62	33039
2026-01-01 13:00:24.57	330.40	6.12	-45.9	-64.7	3.8	7.46e-01	0	57	104	1011875840	62	33078
2026-01-01 13:00:27.60	330.67	5.92	-45.9	-64.7	3.8	7.44e-01	0	57	104	1011875840	62	33022
2026-01-01 13:00:30.63	330.94	5.71	-45.9	-64.7	3.8	7.46e-01	0	57	104	1011875840	62	33055
2026-01-01 13:00:33.66	331.20	5.51	-45.9	-64.7	3.8	7.47e-01	0	57	104	1011875840	62	32992
2026-01-01 13:00:36.70	331.46	5.31	-45.9	-64.7	3.8	7.45e-01	0	58	104	1011875840	62	32974
2026-01-01 13:00:39.73	331.72	5.11	-45.9	-64.7	3.8	7.43e-01	0	57	104	1011875840	62	32934
2026-01-01 13:00:42.76	331.97	4.92	-45.9	-64.7	3.8	7.48e-01	0	58	104	1011875840	62	32978
2026-01-01 13:00:45.80	332.22	4.72	-45.9	-64.7	3.8	7.48e-01	0	58	104	1011875840	62	33022
2026-01-01 13:00:48.83	332.47	4.53	-45.9	-64.7	3.8	7.48e-01	0	57	104	1011875840	62	33021
2026-01-01 13:00:51.86	332.71	4.33	-45.9	-64.7	3.8	7.49e-01	0	58	104	1011875840	62	32970
2026-01-01 13:00:54.89	332.95	4.14	-45.8	-64.7	3.8	7.44e-01	0	57	104	1011875840	62	32958
2026-01-01 13:00:57.92	333.19	3.95	-45.9	-64.7	3.8	7.46e-01	0	58	104	1011875840	62	32931
2026-01-01 13:01:00.95	333.42	3.76	-45.9	-64.6	3.8	7.44e-01	0	57	104	1011875840	62	32915
2026-01-01 13:01:03.98	333.65	3.57	-45.9	-64.6	3.8	7.44e-01	0	58	104	1011875840	62	32925
2026-01-01 13:01:07.01	333.87	3.38	-45.9	-64.7	3.8	7.45e-01	0	58	104	1011875840	62	32960
2026-01-01 13:01:10.05	334.10	3.19	-45.8	-64.6	3.8	7.46e-01	0	58	104	1011875840	62	32923
2026-01-01 13:01:13.08	334.32	3.01	-45.9	-64.6	3.8	7.49e-01	0	58	104	1011875840	62	32853
2026-01-01 13:01:16.11	334.54	2.82	-45.9	-64.6	3.8	7.47e-01	0	58	104	1011875840	62	32899
2026-01-01 13:01:19.15	334.75	2.64	-45.9	-64.6	3.8	7.46e-01	0	57	104	1011875840	62	32865
2026-01-01 13:01:22.18	334.97	2.46	-45.9	-64.6	3.8	7.45e-01	0	57	104	1011875840	62	32899
2026-01-01 13:01:25.21	335.18	2.28	-45.9	-64.6	3.8	7.45e-01	0	58	104	1011875840	62	32824
2026-01-01 13:01:28.24	335.38	2.09	-45.9	-64.6	3.8	7.47e-01	0	58	104	1011875840	62	32890
2026-01-01 13:01:31.28	335.59	1.91	-45.7	-64.6	3.8	7.41e-01	0	58	104	1011875840	62	32875

#Closed at: 2026-01-01 13:01:32
#Recorded file [1011 MB]: D:/lorett/data/31039_260101_154938.dat