passes_logs/2026/01/01/R2.0S_Moscow/R2.0S_Moscow__20260101_225825_NOAA_20_JPSS-1_rec.log

#Pass ID: 20260101_225825_NOAA 20 (JPSS-1)
#Satellite: NOAA 20 (JPSS-1)
#Configuration: NOAA 20
#almurnet v.1.7.20251203
#Start time: 2026-01-01 22:58:25

#Version: 2.2.20231116
#Station: R2.0S_Moscow
#Location: 37.707566 lon 55.798166 lat
#TLE: 1 43013U 17073A   26001.30344297  .00000183  00000+0  10758-3 0  9995
#TLE: 2 43013  98.7621 302.3885 0001938  59.1624 300.9742 14.19532032420790

#Time	Az	El	Level	Level2	SNR	BER	BlckErr	Temp	State	Recorded	gain1	gain2
2026-01-01 22:58:25.74	19.66	2.01	-40.2	-55.7	3.8	1.49e+00	0	49	0	0	52	20833
2026-01-01 22:58:29.79	19.81	2.26	-40.3	-55.7	3.8	1.49e+00	0	49	104	0	51	22258
2026-01-01 22:58:33.83	19.95	2.51	-40.3	-55.7	3.8	1.49e+00	0	49	104	0	51	22241
2026-01-01 22:58:37.88	20.10	2.76	-40.3	-55.7	3.8	1.49e+00	0	50	104	0	51	22261
2026-01-01 22:58:41.92	20.25	3.02	-40.2	-55.7	3.8	1.49e+00	0	50	104	0	51	22211
2026-01-01 22:58:45.97	20.40	3.28	-40.3	-55.7	3.8	1.49e+00	0	50	104	0	51	22135
2026-01-01 22:58:50.01	20.55	3.54	-40.3	-55.7	3.8	1.49e+00	0	50	104	0	51	22227
2026-01-01 22:58:54.05	20.71	3.80	-40.3	-55.7	3.8	1.49e+00	0	50	104	0	51	22209
2026-01-01 22:58:58.10	20.87	4.07	-40.3	-55.7	3.8	1.49e+00	0	51	104	0	51	22226
2026-01-01 22:59:02.14	21.03	4.34	-40.3	-55.7	3.8	1.49e+00	0	51	104	0	51	22192
2026-01-01 22:59:06.18	21.19	4.61	-40.3	-55.7	3.8	1.49e+00	0	51	104	0	51	22176
2026-01-01 22:59:10.23	21.36	4.88	-40.3	-55.7	3.8	1.49e+00	0	51	104	0	51	22180
2026-01-01 22:59:14.27	21.53	5.16	-40.3	-55.7	3.8	1.49e+00	0	52	104	0	51	22199
2026-01-01 22:59:18.32	21.70	5.44	-40.3	-55.7	3.8	1.49e+00	0	52	104	0	51	22161
2026-01-01 22:59:22.36	21.87	5.72	-40.3	-55.7	3.8	1.49e+00	0	52	104	0	51	22214
2026-01-01 22:59:26.40	22.05	6.01	-40.3	-55.7	3.8	1.49e+00	0	52	104	0	51	22214
2026-01-01 22:59:30.45	22.23	6.29	-40.3	-55.7	3.8	1.49e+00	0	53	104	0	51	22191
2026-01-01 22:59:34.49	22.42	6.59	-40.3	-55.7	3.8	1.49e+00	0	53	104	0	51	22195
2026-01-01 22:59:38.54	22.61	6.88	-40.3	-55.7	3.8	1.49e+00	0	53	104	0	51	22011
2026-01-01 22:59:42.58	22.80	7.18	-40.3	-55.2	3.8	1.49e+00	0	53	104	0	51	20851
2026-01-01 22:59:46.62	22.99	7.48	-40.2	-54.1	3.8	1.49e+00	0	53	104	0	51	18451
2026-01-01 22:59:50.67	23.19	7.78	-40.1	-51.4	4.4	1.28e+00	65	54	0	0	51	13535
2026-01-01 22:59:54.71	23.39	8.09	-39.7	-46.6	8.3	1.26e-01	0	53	0	7340032	51	7747
2026-01-01 22:59:58.75	23.60	8.40	-39.6	-45.7	9.9	1.85e-03	0	54	0	12582912	50	7388
2026-01-01 23:00:02.79	23.81	8.71	-40.4	-44.1	12.7	9.07e-05	0	54	0	19922944	51	5830
2026-01-01 23:00:06.83	24.03	9.03	-40.1	-43.4	13.6	8.30e-06	0	54	0	28311552	51	5368
2026-01-01 23:00:10.87	24.24	9.35	-39.9	-42.9	14.2	7.00e-07	0	54	0	35651584	51	5068
2026-01-01 23:00:14.90	24.47	9.68	-39.8	-42.7	14.4	7.00e-07	0	54	0	42991616	51	4979
2026-01-01 23:00:18.94	24.69	10.01	-39.8	-42.6	14.6	0.00e+00	0	54	0	50331648	51	4912
2026-01-01 23:00:22.98	24.93	10.34	-39.7	-42.5	14.8	0.00e+00	0	54	0	58720256	51	4833
2026-01-01 23:00:27.02	25.17	10.68	-39.7	-42.5	14.9	0.00e+00	0	54	0	66060288	51	4818
2026-01-01 23:00:31.06	25.41	11.02	-39.6	-42.2	15.1	0.00e+00	0	55	0	73400320	51	4693
2026-01-01 23:00:35.10	25.66	11.37	-39.6	-42.1	15.3	0.00e+00	0	55	0	80740352	51	4643
2026-01-01 23:00:39.14	25.91	11.72	-39.5	-42.1	15.4	0.00e+00	0	55	0	88080384	51	4604
2026-01-01 23:00:43.18	26.17	12.07	-39.3	-41.7	15.7	0.00e+00	0	55	0	96468992	50	4675
2026-01-01 23:00:47.21	26.44	12.43	-39.3	-41.6	15.8	0.00e+00	0	55	0	103809024	50	4648
2026-01-01 23:00:51.25	26.71	12.80	-39.2	-41.6	15.9	0.00e+00	0	55	0	111149056	50	4611
2026-01-01 23:00:55.29	26.99	13.17	-39.2	-41.5	15.9	0.00e+00	0	55	0	118489088	50	4590
2026-01-01 23:00:59.33	27.27	13.54	-39.0	-41.3	16.2	0.00e+00	0	55	0	126877696	50	4458
2026-01-01 23:01:03.36	27.56	13.92	-38.9	-41.2	16.3	0.00e+00	0	55	0	134217728	49	4673
2026-01-01 23:01:07.40	27.86	14.31	-38.9	-41.2	16.4	0.00e+00	0	55	0	141557760	49	4666
2026-01-01 23:01:11.43	28.17	14.70	-39.0	-41.2	16.5	0.00e+00	0	55	0	148897792	49	4654
2026-01-01 23:01:15.47	28.48	15.10	-38.9	-41.0	16.7	0.00e+00	0	55	0	156237824	49	4576
2026-01-01 23:01:19.51	28.80	15.50	-38.7	-40.9	16.8	0.00e+00	0	55	0	164626432	49	4498
2026-01-01 23:01:23.55	29.13	15.91	-38.8	-40.9	16.8	0.00e+00	0	55	0	171966464	49	4522
2026-01-01 23:01:27.59	29.47	16.33	-38.8	-40.9	16.8	0.00e+00	0	55	0	179306496	49	4514
2026-01-01 23:01:31.63	29.82	16.75	-38.9	-41.1	16.6	0.00e+00	0	55	0	186646528	49	4633
2026-01-01 23:01:35.67	30.18	17.18	-39.1	-41.3	16.5	0.00e+00	0	56	0	195035136	49	4738
2026-01-01 23:01:39.70	30.55	17.61	-39.2	-41.4	16.4	0.00e+00	0	55	0	202375168	49	4800
2026-01-01 23:01:43.74	30.92	18.05	-39.3	-41.5	16.3	0.00e+00	0	56	0	209715200	49	4862
2026-01-01 23:01:47.78	31.31	18.50	-39.2	-41.4	16.4	0.00e+00	0	56	0	217055232	49	4810
2026-01-01 23:01:51.82	31.71	18.95	-39.4	-41.7	16.1	0.00e+00	0	56	0	224395264	49	4955
2026-01-01 23:01:55.86	32.12	19.42	-39.5	-41.8	16.1	0.00e+00	0	56	0	232783872	49	5015
2026-01-01 23:01:59.90	32.55	19.89	-39.4	-41.7	16.2	0.00e+00	0	56	0	240123904	49	4941
2026-01-01 23:02:03.94	32.98	20.36	-39.2	-41.4	16.5	0.00e+00	0	56	0	247463936	49	4795
2026-01-01 23:02:07.97	33.43	20.85	-39.1	-41.3	16.7	0.00e+00	0	56	0	254803968	49	4725
2026-01-01 23:02:12.01	33.90	21.34	-39.2	-41.4	16.6	0.00e+00	0	56	0	263192576	49	4777
2026-01-01 23:02:16.05	34.38	21.84	-39.1	-41.2	16.7	0.00e+00	0	56	0	270532608	49	4677
2026-01-01 23:02:20.09	34.87	22.35	-39.2	-41.3	16.6	0.00e+00	0	56	0	277872640	49	4745
2026-01-01 23:02:24.13	35.38	22.87	-39.2	-41.4	16.6	0.00e+00	0	56	0	285212672	49	4807
2026-01-01 23:02:28.17	35.91	23.40	-39.1	-41.3	16.7	0.00e+00	0	56	0	292552704	49	4717
2026-01-01 23:02:32.21	36.45	23.93	-39.0	-41.1	16.9	0.00e+00	0	56	0	300941312	49	4622
2026-01-01 23:02:36.25	37.01	24.47	-39.1	-41.2	16.8	0.00e+00	0	56	0	308281344	49	4676
2026-01-01 23:02:40.29	37.59	25.02	-39.2	-41.4	16.7	0.00e+00	0	56	0	315621376	49	4765
2026-01-01 23:02:44.33	38.20	25.58	-39.2	-41.3	16.8	0.00e+00	0	56	0	322961408	49	4713
2026-01-01 23:02:48.37	38.82	26.15	-39.1	-41.2	16.9	0.00e+00	0	56	0	331350016	49	4670
2026-01-01 23:02:52.41	39.46	26.73	-39.5	-41.8	16.3	0.00e+00	0	56	0	338690048	49	4997
2026-01-01 23:02:56.44	40.13	27.31	-39.8	-42.2	15.9	0.00e+00	0	57	0	346030080	50	4955
2026-01-01 23:03:00.48	40.82	27.91	-40.0	-42.4	15.7	0.00e+00	0	57	0	353370112	50	5075
2026-01-01 23:03:04.53	41.55	28.51	-40.2	-42.8	15.4	0.00e+00	0	57	0	360710144	50	5280
2026-01-01 23:03:08.57	42.29	29.13	-40.4	-43.0	15.1	0.00e+00	0	57	0	369098752	51	5150
2026-01-01 23:03:12.61	43.07	29.75	-40.8	-43.7	14.3	1.50e-06	0	57	0	376438784	52	5250
2026-01-01 23:03:16.65	43.87	30.37	-40.7	-43.5	14.6	7.00e-07	0	57	0	383778816	52	5108
2026-01-01 23:03:20.69	44.71	31.01	-40.3	-42.9	15.2	0.00e+00	0	56	0	391118848	52	4781
2026-01-01 23:03:24.72	45.57	31.65	-40.2	-42.8	15.2	0.00e+00	0	57	0	399507456	52	4746
2026-01-01 23:03:28.76	46.48	32.30	-39.5	-42.3	15.7	0.00e+00	0	57	0	406847488	51	4712
2026-01-01 23:03:32.80	47.42	32.96	-39.9	-42.3	15.9	0.00e+00	0	57	0	414187520	51	4718
2026-01-01 23:03:36.84	48.40	33.62	-40.0	-42.3	15.8	0.00e+00	0	57	0	421527552	51	4753
2026-01-01 23:03:40.88	49.41	34.29	-40.1	-42.5	15.6	0.00e+00	0	57	0	428867584	51	4860
2026-01-01 23:03:44.92	50.48	34.96	-40.0	-42.3	15.8	0.00e+00	0	57	0	437256192	51	4759
2026-01-01 23:03:48.96	51.58	35.64	-40.2	-42.7	15.5	0.00e+00	0	57	0	444596224	51	4938
2026-01-01 23:03:53.00	52.73	36.31	-39.7	-42.0	16.2	0.00e+00	0	57	0	451936256	51	4571
2026-01-01 23:03:57.03	53.93	36.99	-39.0	-41.0	17.3	0.00e+00	0	57	0	459276288	49	4563
2026-01-01 23:04:01.07	55.18	37.67	-39.7	-41.9	16.2	0.00e+00	0	57	0	467664896	49	5087
2026-01-01 23:04:05.11	56.48	38.35	-39.3	-41.4	16.8	0.00e+00	0	57	0	475004928	49	4804
2026-01-01 23:04:09.15	57.83	39.02	-39.2	-41.3	16.9	0.00e+00	0	57	0	482344960	49	4742
2026-01-01 23:04:13.19	59.24	39.69	-40.0	-42.3	15.9	0.00e+00	0	57	0	489684992	50	5040
2026-01-01 23:04:17.23	60.72	40.35	-39.6	-41.9	16.4	0.00e+00	0	57	0	497025024	50	4768
2026-01-01 23:04:21.27	62.25	41.00	-39.4	-41.5	16.8	0.00e+00	0	57	0	505413632	50	4546
2026-01-01 23:04:25.31	63.84	41.64	-39.0	-40.9	17.3	0.00e+00	0	57	0	512753664	49	4545
2026-01-01 23:04:29.35	65.49	42.27	-39.3	-41.3	16.9	0.00e+00	0	57	0	520093696	49	4754
2026-01-01 23:04:33.38	67.21	42.87	-39.5	-41.7	16.6	0.00e+00	0	57	0	527433728	49	4927
2026-01-01 23:04:37.42	68.99	43.46	-40.1	-42.5	15.8	0.00e+00	0	57	0	535822336	50	5140
2026-01-01 23:04:41.46	70.84	44.03	-40.2	-42.7	15.7	0.00e+00	0	57	0	543162368	51	4934
2026-01-01 23:04:45.50	72.76	44.57	-40.5	-43.1	15.0	7.00e-07	0	57	0	550502400	52	4925
2026-01-01 23:04:49.54	74.74	45.09	-40.2	-42.7	15.4	0.00e+00	0	58	0	557842432	52	4687
2026-01-01 23:04:53.58	76.78	45.57	-41.1	-44.2	14.0	0.00e+00	0	57	0	565182464	52	5531
2026-01-01 23:04:57.61	78.88	46.01	-40.7	-43.5	14.8	0.00e+00	0	57	0	573571072	53	4837
2026-01-01 23:05:01.65	81.03	46.42	-41.0	-43.9	14.4	0.00e+00	0	57	0	580911104	53	5047
2026-01-01 23:05:05.69	83.25	46.79	-40.2	-42.7	15.6	0.00e+00	0	57	0	588251136	52	4668
2026-01-01 23:05:09.73	85.51	47.11	-40.1	-42.4	16.0	0.00e+00	0	57	0	595591168	51	4786
2026-01-01 23:05:13.77	87.82	47.39	-41.2	-44.2	14.0	0.00e+00	0	57	0	603979776	52	5577
2026-01-01 23:05:17.81	90.16	47.61	-40.4	-42.9	15.3	0.00e+00	0	57	0	611319808	52	4793
2026-01-01 23:05:21.85	92.53	47.79	-40.7	-43.5	14.8	0.00e+00	0	57	0	618659840	52	5105
2026-01-01 23:05:25.89	94.93	47.92	-39.4	-41.5	16.9	0.00e+00	0	57	0	625999872	50	4582
2026-01-01 23:05:29.93	97.34	47.99	-39.8	-42.0	16.3	0.00e+00	0	57	0	633339904	50	4843
2026-01-01 23:05:33.97	99.76	48.01	-40.1	-42.5	15.9	0.00e+00	0	57	0	641728512	50	5103
2026-01-01 23:05:38.01	102.18	47.97	-40.1	-42.5	15.8	0.00e+00	0	57	0	649068544	51	4851
2026-01-01 23:05:42.05	104.59	47.88	-40.3	-42.8	15.5	0.00e+00	0	57	0	656408576	51	5035
2026-01-01 23:05:46.09	106.98	47.73	-40.1	-42.5	15.7	0.00e+00	0	57	0	663748608	52	4581
2026-01-01 23:05:50.13	109.35	47.54	-40.1	-42.5	15.8	0.00e+00	0	57	0	672137216	52	4565
2026-01-01 23:05:54.17	111.68	47.29	-41.4	-44.6	13.5	7.60e-06	0	57	0	679477248	53	5478
2026-01-01 23:05:58.20	113.97	47.00	-41.6	-44.9	13.3	4.50e-06	0	57	0	686817280	53	5689
2026-01-01 23:06:02.23	116.21	46.66	-41.9	-45.4	12.8	3.58e-05	0	57	0	694157312	54	5708
2026-01-01 23:06:06.27	118.41	46.28	-41.8	-45.2	13.0	7.70e-05	0	57	0	701497344	55	5275
2026-01-01 23:06:10.31	120.55	45.85	-42.0	-45.7	12.5	3.41e-04	0	58	0	709885952	55	5545
2026-01-01 23:06:14.35	122.64	45.39	-40.2	-42.6	15.7	0.00e+00	0	57	0	717225984	52	4625
2026-01-01 23:06:18.38	124.66	44.90	-39.4	-41.4	16.9	0.00e+00	0	57	0	724566016	50	4540
2026-01-01 23:06:22.43	126.62	44.37	-39.3	-41.4	16.9	0.00e+00	0	58	0	731906048	50	4529
2026-01-01 23:06:26.47	128.52	43.82	-38.0	-39.8	18.6	0.00e+00	0	57	0	740294656	48	4197
2026-01-01 23:06:30.50	130.34	43.24	-39.1	-41.1	17.2	0.00e+00	0	58	0	747634688	49	4618
2026-01-01 23:06:34.55	132.11	42.64	-39.6	-41.8	16.6	0.00e+00	0	57	0	754974720	49	5009
2026-01-01 23:06:38.59	133.81	42.02	-39.5	-41.6	16.8	0.00e+00	0	58	0	762314752	49	4896
2026-01-01 23:06:42.63	135.45	41.39	-38.9	-40.9	17.4	0.00e+00	0	58	0	769654784	49	4496
2026-01-01 23:06:46.67	137.02	40.74	-40.5	-43.1	15.3	0.00e+00	0	58	0	778043392	51	5161
2026-01-01 23:06:50.71	138.54	40.08	-40.7	-43.4	15.0	0.00e+00	0	57	0	785383424	51	5342
2026-01-01 23:06:54.75	139.99	39.42	-39.1	-41.1	17.2	0.00e+00	0	57	0	792723456	50	4388
2026-01-01 23:06:58.78	141.38	38.74	-41.9	-45.6	12.5	2.69e-04	0	58	0	800063488	55	5521
2026-01-01 23:07:02.83	142.72	38.06	-41.0	-44.0	14.3	7.00e-07	0	57	0	808452096	52	5423
2026-01-01 23:07:06.87	144.01	37.38	-40.8	-43.5	14.6	7.00e-07	0	58	0	815792128	53	4861
2026-01-01 23:07:10.90	145.24	36.70	-41.3	-44.5	13.7	0.00e+00	0	58	0	823132160	53	5446
2026-01-01 23:07:14.95	146.42	36.02	-40.1	-42.5	15.7	0.00e+00	0	57	0	830472192	52	4580
2026-01-01 23:07:18.98	147.56	35.34	-41.3	-44.5	13.7	1.50e-06	0	57	0	838860800	53	5417
2026-01-01 23:07:23.02	148.65	34.66	-40.3	-42.8	15.4	0.00e+00	0	57	0	846200832	52	4746
2026-01-01 23:07:27.06	149.69	33.99	-40.7	-43.5	14.7	0.00e+00	0	57	0	853540864	52	5119
2026-01-01 23:07:31.10	150.70	33.32	-41.1	-44.2	14.0	8.46e-05	0	57	0	860880896	54	4931
2026-01-01 23:07:35.14	151.67	32.65	-40.3	-42.8	15.4	0.00e+00	0	57	0	868220928	51	5040
2026-01-01 23:07:39.18	152.59	32.00	-41.1	-44.2	13.9	8.30e-06	0	57	0	876609536	53	5229
2026-01-01 23:07:43.22	153.49	31.34	-39.7	-41.9	16.3	0.00e+00	0	57	0	883949568	51	4527
2026-01-01 23:07:47.26	154.34	30.70	-41.7	-45.2	12.9	6.80e-06	0	57	0	891289600	53	5911
2026-01-01 23:07:51.30	155.17	30.06	-41.2	-44.4	13.6	5.30e-06	0	57	0	898629632	54	5084
2026-01-01 23:07:55.34	155.96	29.43	-40.5	-43.2	14.9	7.00e-07	0	58	0	907018240	52	4960
2026-01-01 23:07:59.38	156.73	28.81	-41.1	-44.2	13.8	2.20e-06	0	58	0	914358272	52	5573
2026-01-01 23:08:03.41	157.46	28.20	-40.3	-42.9	15.2	0.00e+00	0	58	0	921698304	52	4766
2026-01-01 23:08:07.45	158.17	27.60	-39.6	-41.8	16.3	0.00e+00	0	58	0	929038336	51	4493
2026-01-01 23:08:11.49	158.86	27.00	-39.9	-42.2	15.9	0.00e+00	0	58	0	936378368	51	4685
2026-01-01 23:08:15.53	159.51	26.42	-40.0	-42.4	15.7	0.00e+00	0	57	0	944766976	51	4788
2026-01-01 23:08:19.57	160.15	25.84	-39.8	-42.2	15.9	0.00e+00	0	57	0	952107008	51	4653
2026-01-01 23:08:23.61	160.77	25.27	-40.0	-42.5	15.6	0.00e+00	0	58	0	959447040	51	4825
2026-01-01 23:08:27.65	161.36	24.71	-40.6	-43.4	14.7	0.00e+00	0	58	0	966787072	51	5367
2026-01-01 23:08:31.68	161.93	24.16	-39.8	-42.2	15.8	0.00e+00	0	58	0	974127104	51	4696
2026-01-01 23:08:35.72	162.49	23.62	-39.3	-41.4	16.6	0.00e+00	0	58	0	982515712	50	4539
2026-01-01 23:08:39.76	163.02	23.08	-39.6	-41.9	16.1	0.00e+00	0	58	0	989855744	50	4784
2026-01-01 23:08:43.80	163.54	22.56	-39.8	-42.1	15.8	0.00e+00	0	58	0	997195776	50	4925
2026-01-01 23:08:47.83	164.04	22.04	-40.0	-42.5	15.5	0.00e+00	0	58	0	1004535808	50	5121
2026-01-01 23:08:51.87	164.53	21.53	-39.8	-42.2	15.8	0.00e+00	0	58	0	1012924416	50	4946
2026-01-01 23:08:55.91	165.00	21.03	-39.6	-41.8	16.1	0.00e+00	0	58	0	1020264448	50	4751
2026-01-01 23:08:59.95	165.46	20.54	-39.9	-42.4	15.6	0.00e+00	0	58	0	1027604480	50	5063
2026-01-01 23:09:03.97	165.90	20.06	-40.4	-43.2	14.7	0.00e+00	0	58	0	1034944512	51	5234
2026-01-01 23:09:08.00	166.33	19.58	-40.5	-43.4	14.6	7.00e-07	0	58	0	1042284544	51	5354
2026-01-01 23:09:12.04	166.75	19.11	-39.9	-42.4	15.5	0.00e+00	0	57	0	1050673152	51	4789
2026-01-01 23:09:16.08	167.15	18.65	-39.6	-41.9	16.0	0.00e+00	0	57	0	1058013184	51	4515
2026-01-01 23:09:20.12	167.55	18.19	-39.3	-41.5	16.4	0.00e+00	0	58	0	1065353216	50	4564
2026-01-01 23:09:24.15	167.93	17.75	-39.4	-41.7	16.1	0.00e+00	0	58	0	1072693248	50	4690
2026-01-01 23:09:28.19	168.30	17.30	-39.7	-42.1	15.8	0.00e+00	0	58	0	1081081856	50	4878
2026-01-01 23:09:32.23	168.66	16.87	-39.5	-41.9	15.9	0.00e+00	0	58	0	1088421888	50	4794
2026-01-01 23:09:36.27	169.02	16.44	-39.3	-41.5	16.3	0.00e+00	0	58	0	1095761920	50	4597
2026-01-01 23:09:40.30	169.36	16.02	-39.1	-41.3	16.5	0.00e+00	0	58	0	1103101952	50	4461
2026-01-01 23:09:44.34	169.69	15.61	-39.0	-41.2	16.5	0.00e+00	0	58	0	1110441984	50	4426
2026-01-01 23:09:48.38	170.02	15.20	-39.3	-41.5	16.3	0.00e+00	0	58	0	1118830592	50	4566
2026-01-01 23:09:52.42	170.33	14.79	-39.6	-42.0	15.7	0.00e+00	0	58	0	1126170624	50	4845
2026-01-01 23:09:56.46	170.64	14.40	-39.9	-42.5	15.2	0.00e+00	0	58	0	1133510656	50	5140
2026-01-01 23:10:00.49	170.94	14.01	-40.1	-42.8	14.8	0.00e+00	0	58	0	1140850688	50	5331
2026-01-01 23:10:04.53	171.23	13.62	-39.9	-42.5	15.1	0.00e+00	0	57	0	1149239296	50	5152
2026-01-01 23:10:08.57	171.52	13.24	-39.7	-42.2	15.4	0.00e+00	0	58	0	1156579328	50	4954
2026-01-01 23:10:12.61	171.80	12.86	-39.5	-41.9	15.6	0.00e+00	0	58	0	1163919360	50	4810
2026-01-01 23:10:16.65	172.07	12.49	-39.4	-41.8	15.8	0.00e+00	0	58	0	1171259392	50	4722
2026-01-01 23:10:20.69	172.34	12.13	-39.4	-41.9	15.7	0.00e+00	0	58	0	1178599424	50	4764
2026-01-01 23:10:24.73	172.60	11.77	-39.6	-42.1	15.3	0.00e+00	0	58	0	1186988032	50	4921
2026-01-01 23:10:28.77	172.85	11.41	-39.8	-42.4	15.1	0.00e+00	0	58	0	1194328064	50	5080
2026-01-01 23:10:32.81	173.10	11.06	-39.9	-42.6	14.8	7.00e-07	0	58	0	1201668096	50	5202
2026-01-01 23:10:36.84	173.34	10.72	-40.0	-42.8	14.6	0.00e+00	0	58	0	1209008128	50	5311
2026-01-01 23:10:40.88	173.58	10.37	-40.1	-43.0	14.4	0.00e+00	0	58	0	1217396736	50	5427
2026-01-01 23:10:44.92	173.81	10.04	-39.9	-42.7	14.7	0.00e+00	0	58	0	1224736768	50	5233
2026-01-01 23:10:48.95	174.04	9.70	-40.0	-42.8	14.5	0.00e+00	0	58	0	1232076800	50	5293
2026-01-01 23:10:52.99	174.26	9.37	-39.8	-42.6	14.7	0.00e+00	0	58	0	1239416832	50	5162
2026-01-01 23:10:57.03	174.48	9.05	-39.8	-42.6	14.6	7.00e-07	0	58	0	1246756864	50	5191
2026-01-01 23:11:01.05	174.69	8.73	-39.9	-42.7	14.4	0.00e+00	0	58	0	1255145472	50	5247
2026-01-01 23:11:05.09	174.90	8.41	-39.8	-42.7	14.2	1.50e-06	0	58	0	1262485504	50	5279
2026-01-01 23:11:09.13	175.11	8.10	-39.9	-43.0	13.7	4.50e-06	0	58	0	1269825536	50	5435
2026-01-01 23:11:13.17	175.31	7.79	-44.7	-59.2	3.8	1.49e+00	0	58	104	1272971264	60	19708
2026-01-01 23:11:17.21	175.51	7.48	-45.0	-59.5	3.8	1.49e+00	0	58	104	1272971264	60	20477
2026-01-01 23:11:21.25	175.70	7.17	-45.0	-59.5	3.8	1.49e+00	0	58	104	1272971264	60	20495
2026-01-01 23:11:25.29	175.89	6.87	-44.9	-59.4	3.8	1.49e+00	0	58	104	1272971264	60	20264
2026-01-01 23:11:29.33	176.07	6.58	-44.9	-59.4	3.8	1.49e+00	0	58	104	1272971264	60	20219
2026-01-01 23:11:33.38	176.26	6.28	-44.9	-59.4	3.8	1.49e+00	0	58	104	1272971264	60	20204
2026-01-01 23:11:37.42	176.43	5.99	-44.9	-59.4	3.8	1.49e+00	0	58	104	1272971264	60	20164
2026-01-01 23:11:41.47	176.61	5.70	-44.9	-59.4	3.8	1.49e+00	0	58	104	1272971264	60	20169
2026-01-01 23:11:45.51	176.78	5.42	-44.8	-59.4	3.8	1.49e+00	0	58	104	1272971264	60	20171
2026-01-01 23:11:49.56	176.95	5.14	-44.9	-59.4	3.8	1.49e+00	0	58	104	1272971264	60	20196
2026-01-01 23:11:53.60	177.12	4.86	-44.9	-59.4	3.8	1.49e+00	0	58	104	1272971264	60	20162
2026-01-01 23:11:57.64	177.28	4.58	-44.8	-59.4	3.8	1.49e+00	0	58	104	1272971264	60	20131
2026-01-01 23:12:01.69	177.44	4.31	-44.8	-59.4	3.8	1.49e+00	0	58	104	1272971264	60	20140
2026-01-01 23:12:05.73	177.60	4.03	-44.8	-59.4	3.8	1.49e+00	0	58	104	1272971264	60	20156
2026-01-01 23:12:09.78	177.76	3.76	-44.8	-59.4	3.8	1.49e+00	0	58	104	1272971264	60	20141
2026-01-01 23:12:13.82	177.91	3.50	-44.8	-59.4	3.8	1.49e+00	0	58	104	1272971264	60	20131
2026-01-01 23:12:17.87	178.06	3.23	-44.8	-59.4	3.8	1.49e+00	0	58	104	1272971264	60	20154
2026-01-01 23:12:21.91	178.21	2.97	-44.8	-59.4	3.8	1.49e+00	0	58	104	1272971264	60	20097
2026-01-01 23:12:25.95	178.35	2.71	-44.8	-59.4	3.8	1.49e+00	0	58	104	1272971264	60	20130
2026-01-01 23:12:30.00	178.49	2.46	-44.8	-59.4	3.8	1.49e+00	0	58	104	1272971264	60	20106
2026-01-01 23:12:34.04	178.63	2.20	-44.8	-59.4	3.8	1.49e+00	0	58	104	1272971264	60	20105
2026-01-01 23:12:38.09	178.77	1.95	-44.8	-59.4	3.8	1.49e+00	0	58	104	1272971264	60	20116

#Closed at: 2026-01-01 23:12:38
#Recorded file [1272 MB]: D:/lorett/data/31039_260102_015825.dat