passes_logs/2026/01/01/R2.0S_Moscow/R2.0S_Moscow__20260101_223742_SUOMI_NPP_rec.log

#Pass ID: 20260101_223742_SUOMI NPP
#Satellite: SUOMI NPP
#Configuration: NPP
#almurnet v.1.7.20251203
#Start time: 2026-01-01 22:37:42

#Version: 2.2.20231116
#Station: R2.0S_Moscow
#Location: 37.707566 lon 55.798166 lat
#TLE: 1 37849U 11061A   26001.07732418  .00000182  00000+0  10735-3 0  9990
#TLE: 2 37849  98.7795 303.2470 0002580  87.2016 272.9455 14.19520779734739

#Time	Az	El	Level	Level2	SNR	BER	BlckErr	Temp	State	Recorded	gain1	gain2
2026-01-01 22:37:42.78	22.36	2.03	-42.7	-57.5	3.8	1.49e+00	0	48	0	0	57	19198
2026-01-01 22:37:46.81	22.58	2.26	-42.7	-57.5	3.8	1.49e+00	0	48	104	0	56	20387
2026-01-01 22:37:50.86	22.80	2.50	-42.7	-57.5	3.8	1.49e+00	0	48	104	0	56	20323
2026-01-01 22:37:54.90	23.03	2.74	-42.7	-57.5	3.8	1.49e+00	0	49	104	0	56	20313
2026-01-01 22:37:58.95	23.26	2.99	-42.7	-57.5	3.8	1.49e+00	0	49	104	0	56	20435
2026-01-01 22:38:02.99	23.49	3.23	-42.7	-57.5	3.8	1.49e+00	0	49	104	0	56	20350
2026-01-01 22:38:07.04	23.73	3.48	-42.6	-57.5	3.8	1.49e+00	0	50	104	0	56	20325
2026-01-01 22:38:11.08	23.97	3.73	-42.6	-57.5	3.8	1.49e+00	0	50	104	0	56	20324
2026-01-01 22:38:15.13	24.21	3.98	-42.6	-57.5	3.8	1.49e+00	0	50	104	0	56	20326
2026-01-01 22:38:19.17	24.46	4.23	-42.7	-57.5	3.8	1.49e+00	0	50	104	0	56	20326
2026-01-01 22:38:23.22	24.71	4.48	-42.7	-57.5	3.8	1.49e+00	0	51	104	0	56	20343
2026-01-01 22:38:27.26	24.97	4.74	-42.7	-57.4	3.8	1.49e+00	0	51	104	0	56	20259
2026-01-01 22:38:31.30	25.23	5.00	-42.7	-57.5	3.8	1.49e+00	0	51	104	0	56	20334
2026-01-01 22:38:35.35	25.49	5.26	-42.7	-57.4	3.8	1.49e+00	0	51	104	0	56	20298
2026-01-01 22:38:39.39	25.76	5.52	-42.7	-57.4	3.8	1.49e+00	0	51	104	0	56	20277
2026-01-01 22:38:43.44	26.04	5.79	-42.6	-57.5	3.8	1.49e+00	0	52	104	0	56	20308
2026-01-01 22:38:47.48	26.32	6.05	-42.6	-57.4	3.8	1.49e+00	0	52	104	0	56	20293
2026-01-01 22:38:51.53	26.60	6.32	-42.6	-57.4	3.8	1.49e+00	0	52	104	0	56	20243
2026-01-01 22:38:55.57	26.89	6.60	-42.7	-57.5	3.8	1.49e+00	0	52	104	0	56	20314
2026-01-01 22:38:59.62	27.18	6.87	-42.7	-57.3	3.8	1.49e+00	0	52	104	0	56	19951
2026-01-01 22:39:03.66	27.48	7.15	-42.1	-51.1	5.5	6.68e-01	0	52	0	2097152	56	9733
2026-01-01 22:39:07.70	27.78	7.42	-40.6	-45.5	10.5	3.63e-03	0	52	0	10485760	53	6079
2026-01-01 22:39:11.75	28.09	7.71	-39.7	-43.4	12.8	9.46e-05	0	53	0	17825792	51	5400
2026-01-01 22:39:15.79	28.41	7.99	-39.8	-43.7	12.5	4.27e-05	0	53	0	25165824	50	5892
2026-01-01 22:39:19.83	28.73	8.28	-41.3	-45.8	11.3	2.05e-05	0	53	0	31457280	53	6284
2026-01-01 22:39:23.87	29.06	8.56	-39.8	-42.8	14.1	3.00e-06	0	53	0	38797312	51	5034
2026-01-01 22:39:27.91	29.39	8.85	-39.8	-42.8	14.1	3.80e-06	0	53	0	46137344	51	5030
2026-01-01 22:39:31.95	29.73	9.15	-39.8	-42.8	14.2	0.00e+00	0	53	0	54525952	51	4995
2026-01-01 22:39:35.98	30.08	9.44	-39.9	-42.9	14.2	0.00e+00	0	54	0	61865984	51	5056
2026-01-01 22:39:40.02	30.43	9.74	-39.9	-42.9	14.2	7.00e-07	0	54	0	69206016	51	5083
2026-01-01 22:39:44.06	30.79	10.04	-39.6	-42.3	14.8	0.00e+00	0	54	0	76546048	51	4731
2026-01-01 22:39:48.10	31.15	10.35	-39.6	-42.3	14.8	7.00e-07	0	54	0	83886080	51	4753
2026-01-01 22:39:52.13	31.53	10.66	-39.2	-41.7	15.4	0.00e+00	0	54	0	92274688	50	4697
2026-01-01 22:39:56.18	31.91	10.97	-39.0	-41.4	15.8	0.00e+00	0	54	0	99614720	49	4766
2026-01-01 22:40:00.22	32.30	11.28	-39.2	-41.6	15.6	0.00e+00	0	54	0	106954752	49	4907
2026-01-01 22:40:04.25	32.70	11.59	-39.4	-41.9	15.4	7.00e-07	0	54	0	114294784	49	5072
2026-01-01 22:40:08.29	33.10	11.91	-39.2	-41.7	15.7	0.00e+00	0	54	0	122683392	49	4927
2026-01-01 22:40:12.33	33.52	12.23	-39.1	-41.5	15.8	0.00e+00	0	55	0	130023424	49	4858
2026-01-01 22:40:16.37	33.94	12.56	-38.8	-41.1	16.2	0.00e+00	0	55	0	137363456	49	4617
2026-01-01 22:40:20.40	34.37	12.89	-38.7	-40.9	16.4	0.00e+00	0	55	0	144703488	49	4534
2026-01-01 22:40:24.44	34.81	13.22	-39.0	-41.2	16.1	0.00e+00	0	55	0	152043520	49	4689
2026-01-01 22:40:28.48	35.27	13.55	-39.1	-41.4	16.0	0.00e+00	0	55	0	160432128	49	4799
2026-01-01 22:40:32.52	35.73	13.89	-39.2	-41.5	15.9	0.00e+00	0	55	0	167772160	49	4855
2026-01-01 22:40:36.56	36.20	14.23	-39.1	-41.5	16.0	0.00e+00	0	55	0	175112192	49	4828
2026-01-01 22:40:40.60	36.68	14.57	-39.1	-41.4	16.0	0.00e+00	0	55	0	182452224	49	4802
2026-01-01 22:40:44.64	37.17	14.92	-39.3	-41.7	15.8	0.00e+00	0	55	0	190840832	49	4954
2026-01-01 22:40:48.68	37.68	15.27	-39.4	-41.9	15.6	0.00e+00	0	55	0	198180864	49	5063
2026-01-01 22:40:52.71	38.19	15.62	-39.5	-41.9	15.6	0.00e+00	0	55	0	205520896	49	5088
2026-01-01 22:40:56.75	38.72	15.97	-39.4	-41.8	15.7	0.00e+00	0	55	0	212860928	49	5040
2026-01-01 22:41:00.79	39.26	16.33	-39.3	-41.6	16.0	0.00e+00	0	55	0	220200960	49	4902
2026-01-01 22:41:04.83	39.81	16.69	-39.1	-41.4	16.3	0.00e+00	0	55	0	228589568	49	4778
2026-01-01 22:41:08.87	40.38	17.05	-38.9	-41.0	16.6	0.00e+00	0	55	0	235929600	49	4584
2026-01-01 22:41:12.91	40.96	17.42	-38.8	-41.0	16.6	0.00e+00	0	56	0	243269632	49	4570
2026-01-01 22:41:16.94	41.55	17.79	-38.8	-41.0	16.7	0.00e+00	0	56	0	250609664	49	4550
2026-01-01 22:41:20.98	42.16	18.16	-38.8	-40.9	16.8	0.00e+00	0	56	0	258998272	49	4501
2026-01-01 22:41:25.02	42.78	18.54	-38.5	-40.5	17.1	0.00e+00	0	56	0	266338304	49	4340
2026-01-01 22:41:29.06	43.41	18.91	-38.5	-40.5	17.1	0.00e+00	0	56	0	273678336	48	4592
2026-01-01 22:41:33.10	44.07	19.29	-38.3	-40.3	17.4	0.00e+00	0	56	0	281018368	48	4452
2026-01-01 22:41:37.14	44.74	19.67	-38.1	-40.0	17.7	0.00e+00	0	56	0	288358400	48	4293
2026-01-01 22:41:41.18	45.42	20.06	-37.9	-39.7	17.9	0.00e+00	0	56	0	296747008	47	4425
2026-01-01 22:41:45.21	46.12	20.44	-37.8	-39.7	17.9	0.00e+00	0	56	0	304087040	47	4401
2026-01-01 22:41:49.25	46.84	20.83	-37.8	-39.6	17.9	0.00e+00	0	56	0	311427072	47	4370
2026-01-01 22:41:53.29	47.58	21.22	-37.7	-39.5	18.0	0.00e+00	0	56	0	318767104	47	4329
2026-01-01 22:41:57.33	48.33	21.61	-37.9	-39.8	17.8	0.00e+00	0	56	0	326107136	47	4465
2026-01-01 22:42:01.36	49.11	22.00	-38.4	-40.4	17.3	0.00e+00	0	56	0	334495744	47	4765
2026-01-01 22:42:05.40	49.90	22.39	-38.6	-40.7	16.9	0.00e+00	0	56	0	341835776	47	4971
2026-01-01 22:42:09.44	50.71	22.78	-38.6	-40.6	17.1	0.00e+00	0	56	0	349175808	48	4636
2026-01-01 22:42:13.47	51.54	23.17	-38.4	-40.3	17.5	0.00e+00	0	56	0	356515840	48	4489
2026-01-01 22:42:17.51	52.40	23.56	-38.4	-40.4	17.4	0.00e+00	0	56	0	364904448	48	4528
2026-01-01 22:42:21.55	53.28	23.96	-38.4	-40.3	17.6	0.00e+00	0	56	0	372244480	48	4458
2026-01-01 22:42:25.59	54.17	24.35	-37.9	-39.7	18.0	0.00e+00	0	56	0	379584512	47	4419
2026-01-01 22:42:29.62	55.09	24.73	-37.8	-39.6	18.1	0.00e+00	0	56	0	386924544	47	4346
2026-01-01 22:42:33.66	56.03	25.12	-38.4	-40.4	17.3	0.00e+00	0	56	0	394264576	47	4800
2026-01-01 22:42:37.70	57.00	25.51	-38.9	-41.0	16.8	0.00e+00	0	56	0	402653184	48	4857
2026-01-01 22:42:41.74	57.99	25.89	-38.5	-40.5	17.2	0.00e+00	0	56	0	409993216	48	4596
2026-01-01 22:42:45.78	59.00	26.26	-38.4	-40.3	17.5	0.00e+00	0	56	0	417333248	48	4476
2026-01-01 22:42:49.82	60.03	26.64	-38.6	-40.6	17.2	0.00e+00	0	56	0	424673280	48	4630
2026-01-01 22:42:53.85	61.09	27.00	-38.2	-40.1	17.7	0.00e+00	0	56	0	433061888	48	4376
2026-01-01 22:42:57.90	62.18	27.37	-38.6	-40.6	17.2	0.00e+00	0	57	0	440401920	48	4630
2026-01-01 22:43:01.93	63.28	27.72	-38.7	-40.6	17.2	0.00e+00	0	56	0	447741952	48	4645
2026-01-01 22:43:05.97	64.41	28.07	-38.4	-40.3	17.5	0.00e+00	0	56	0	455081984	48	4469
2026-01-01 22:43:10.01	65.57	28.42	-38.6	-40.6	17.3	0.00e+00	0	56	0	462422016	48	4620
2026-01-01 22:43:14.05	66.75	28.75	-39.1	-41.2	16.7	0.00e+00	0	56	0	470810624	48	4968
2026-01-01 22:43:18.09	67.96	29.07	-39.3	-41.5	16.5	0.00e+00	0	57	0	478150656	49	4822
2026-01-01 22:43:22.12	69.18	29.39	-39.9	-42.3	15.7	0.00e+00	0	57	0	485490688	50	5035
2026-01-01 22:43:26.16	70.44	29.69	-39.5	-41.8	16.2	0.00e+00	0	57	0	492830720	50	4730
2026-01-01 22:43:30.19	71.71	29.98	-40.4	-43.1	15.0	0.00e+00	0	56	0	501219328	51	5186
2026-01-01 22:43:34.23	73.01	30.26	-41.4	-44.8	13.0	3.66e-05	0	57	0	508559360	53	5642
2026-01-01 22:43:38.27	74.33	30.52	-40.8	-43.8	14.2	1.50e-06	0	57	0	515899392	53	4992
2026-01-01 22:43:42.31	75.67	30.78	-41.2	-44.5	13.4	1.14e-05	0	57	0	523239424	53	5427
2026-01-01 22:43:46.34	77.03	31.01	-40.6	-43.4	14.4	7.00e-07	0	57	0	530579456	53	4814
2026-01-01 22:43:50.38	78.41	31.23	-40.4	-43.1	14.8	0.00e+00	0	57	0	538968064	51	5210
2026-01-01 22:43:54.42	79.81	31.43	-40.3	-43.0	14.9	7.00e-07	0	57	0	546308096	52	4826
2026-01-01 22:43:58.45	81.22	31.62	-39.8	-42.2	15.7	0.00e+00	0	57	0	553648128	51	4691
2026-01-01 22:44:02.49	82.65	31.79	-40.1	-42.6	15.4	0.00e+00	0	57	0	560988160	50	5185
2026-01-01 22:44:06.53	84.09	31.94	-40.3	-43.0	14.9	0.00e+00	0	57	0	569376768	52	4839
2026-01-01 22:44:10.57	85.55	32.07	-39.4	-41.7	16.3	0.00e+00	0	57	0	576716800	50	4660
2026-01-01 22:44:14.61	87.02	32.18	-40.1	-42.5	15.5	0.00e+00	0	57	0	584056832	50	5143
2026-01-01 22:44:18.65	88.50	32.27	-39.6	-41.8	16.1	0.00e+00	0	57	0	591396864	51	4476
2026-01-01 22:44:22.69	89.98	32.34	-39.7	-42.0	15.9	0.00e+00	0	57	0	598736896	51	4597
2026-01-01 22:44:26.72	91.47	32.38	-39.8	-42.2	15.8	0.00e+00	0	57	0	607125504	51	4676
2026-01-01 22:44:30.76	92.96	32.41	-40.0	-42.4	15.6	0.00e+00	0	57	0	614465536	51	4812
2026-01-01 22:44:34.80	94.46	32.42	-40.2	-42.8	15.2	0.00e+00	0	57	0	621805568	51	5008
2026-01-01 22:44:38.83	95.95	32.40	-39.5	-41.7	16.3	0.00e+00	0	57	0	629145600	50	4660
2026-01-01 22:44:42.87	97.44	32.37	-39.8	-42.1	15.9	0.00e+00	0	57	0	636485632	50	4924
2026-01-01 22:44:46.91	98.93	32.31	-40.0	-42.4	15.6	0.00e+00	0	57	0	644874240	50	5065
2026-01-01 22:44:50.95	100.41	32.23	-39.6	-41.8	16.2	0.00e+00	0	57	0	652214272	50	4758
2026-01-01 22:44:54.99	101.89	32.13	-40.5	-43.3	14.7	7.00e-07	0	57	0	659554304	52	4989
2026-01-01 22:44:59.02	103.35	32.01	-40.2	-42.9	15.1	0.00e+00	0	57	0	666894336	52	4760
2026-01-01 22:45:03.06	104.81	31.88	-39.5	-41.7	16.2	0.00e+00	0	57	0	675282944	50	4678
2026-01-01 22:45:07.10	106.25	31.72	-40.3	-42.9	15.1	7.00e-07	0	57	0	682622976	52	4798
2026-01-01 22:45:11.14	107.67	31.54	-40.0	-42.5	15.5	0.00e+00	0	57	0	689963008	51	4827
2026-01-01 22:45:15.18	109.09	31.35	-39.2	-41.2	16.8	0.00e+00	0	57	0	697303040	50	4436
2026-01-01 22:45:19.22	110.48	31.14	-39.6	-41.8	16.3	0.00e+00	0	57	0	704643072	50	4729
2026-01-01 22:45:23.26	111.85	30.91	-39.3	-41.5	16.6	0.00e+00	0	57	0	713031680	50	4556
2026-01-01 22:45:27.30	113.21	30.67	-38.8	-40.8	17.1	0.00e+00	0	57	0	720371712	49	4484
2026-01-01 22:45:31.34	114.55	30.41	-39.9	-42.4	15.7	0.00e+00	0	57	0	727711744	50	5066
2026-01-01 22:45:35.38	115.86	30.14	-39.0	-41.1	16.9	0.00e+00	0	57	0	735051776	49	4614
2026-01-01 22:45:39.42	117.15	29.85	-39.8	-42.2	15.8	0.00e+00	0	57	0	743440384	50	4983
2026-01-01 22:45:43.46	118.42	29.55	-39.5	-41.8	16.2	0.00e+00	0	57	0	750780416	50	4714
2026-01-01 22:45:47.50	119.67	29.24	-39.9	-42.3	15.8	0.00e+00	0	57	0	758120448	51	4727
2026-01-01 22:45:51.53	120.89	28.92	-40.1	-42.6	15.6	0.00e+00	0	57	0	765460480	50	5177
2026-01-01 22:45:55.57	122.09	28.59	-39.9	-42.3	15.7	0.00e+00	0	57	0	772800512	51	4741
2026-01-01 22:45:59.61	123.26	28.25	-39.8	-42.1	16.0	0.00e+00	0	57	0	781189120	51	4616
2026-01-01 22:46:03.64	124.41	27.91	-40.2	-42.7	15.3	0.00e+00	0	57	0	788529152	50	5265
2026-01-01 22:46:07.68	125.54	27.55	-41.2	-44.5	13.4	5.79e-05	0	57	0	795869184	53	5403
2026-01-01 22:46:11.72	126.64	27.19	-40.5	-43.3	14.7	0.00e+00	0	57	0	803209216	52	4995
2026-01-01 22:46:15.76	127.72	26.82	-41.0	-44.1	13.8	7.60e-06	0	57	0	811597824	53	5190
2026-01-01 22:46:19.80	128.77	26.45	-40.8	-43.7	14.3	0.00e+00	0	57	0	818937856	52	5220
2026-01-01 22:46:23.83	129.79	26.07	-41.1	-44.2	13.7	3.80e-06	0	57	0	826277888	53	5264
2026-01-01 22:46:27.87	130.80	25.69	-42.1	-46.2	11.7	1.59e-04	0	57	0	833617920	54	6227
2026-01-01 22:46:31.92	131.78	25.30	-41.4	-44.7	13.2	3.81e-05	0	57	0	840957952	54	5243
2026-01-01 22:46:35.96	132.74	24.92	-42.0	-45.9	11.9	3.84e-04	0	57	0	849346560	54	6048
2026-01-01 22:46:39.99	133.67	24.53	-40.3	-42.9	15.1	0.00e+00	0	57	0	856686592	51	5045
2026-01-01 22:46:44.03	134.59	24.13	-41.2	-44.6	13.3	2.36e-05	0	57	0	864026624	53	5466
2026-01-01 22:46:48.07	135.48	23.74	-40.1	-42.6	15.3	0.00e+00	0	58	0	871366656	51	4925
2026-01-01 22:46:52.11	136.35	23.35	-41.7	-45.5	12.4	5.64e-05	0	57	0	879755264	54	5735
2026-01-01 22:46:56.15	137.20	22.95	-40.3	-43.0	14.9	7.00e-07	0	57	0	887095296	52	4850
2026-01-01 22:47:00.19	138.02	22.56	-39.3	-41.5	16.4	0.00e+00	0	57	0	894435328	50	4569
2026-01-01 22:47:04.23	138.83	22.16	-37.6	-39.3	18.4	0.00e+00	0	57	0	901775360	47	4221
2026-01-01 22:47:08.27	139.62	21.77	-39.0	-41.1	16.8	0.00e+00	0	57	0	909115392	48	4920
2026-01-01 22:47:12.31	140.38	21.37	-39.8	-42.2	15.7	0.00e+00	0	57	0	917504000	50	4947
2026-01-01 22:47:16.35	141.13	20.98	-39.1	-41.2	16.6	0.00e+00	0	57	0	924844032	50	4441
2026-01-01 22:47:20.38	141.86	20.59	-38.9	-41.0	16.8	0.00e+00	0	57	0	932184064	49	4592
2026-01-01 22:47:24.42	142.58	20.20	-38.7	-40.7	17.1	0.00e+00	0	57	0	939524096	49	4416
2026-01-01 22:47:28.45	143.27	19.81	-38.5	-40.5	17.3	0.00e+00	0	57	0	947912704	49	4301
2026-01-01 22:47:32.49	143.95	19.43	-38.8	-40.9	16.9	0.00e+00	0	57	0	955252736	48	4768
2026-01-01 22:47:36.54	144.61	19.04	-38.7	-40.8	17.0	0.00e+00	0	57	0	962592768	48	4710
2026-01-01 22:47:40.58	145.26	18.66	-37.9	-39.7	18.0	0.00e+00	0	57	0	969932800	47	4410
2026-01-01 22:47:44.61	145.89	18.28	-38.0	-39.9	17.8	0.00e+00	0	57	0	977272832	47	4502
2026-01-01 22:47:48.65	146.50	17.91	-38.3	-40.3	17.3	0.00e+00	0	57	0	985661440	47	4737
2026-01-01 22:47:52.69	147.11	17.53	-38.3	-40.2	17.4	0.00e+00	0	57	0	993001472	47	4680
2026-01-01 22:47:56.73	147.69	17.16	-39.4	-41.8	16.0	0.00e+00	0	57	0	1000341504	49	4984
2026-01-01 22:48:00.77	148.27	16.79	-40.0	-42.6	15.2	0.00e+00	0	58	0	1007681536	50	5187
2026-01-01 22:48:04.81	148.83	16.43	-40.1	-42.7	15.0	0.00e+00	0	57	0	1016070144	50	5275
2026-01-01 22:48:08.85	149.37	16.07	-39.4	-41.8	16.0	0.00e+00	0	57	0	1023410176	50	4728
2026-01-01 22:48:12.89	149.91	15.71	-39.5	-41.9	15.8	0.00e+00	0	58	0	1030750208	50	4803
2026-01-01 22:48:16.93	150.43	15.35	-39.9	-42.4	15.3	0.00e+00	0	58	0	1038090240	50	5082
2026-01-01 22:48:20.97	150.94	15.00	-39.5	-41.9	15.7	0.00e+00	0	57	0	1045430272	50	4783
2026-01-01 22:48:25.00	151.44	14.65	-39.2	-41.5	16.2	0.00e+00	0	58	0	1053818880	50	4546
2026-01-01 22:48:29.04	151.92	14.30	-39.2	-41.4	16.2	0.00e+00	0	57	0	1061158912	49	4800
2026-01-01 22:48:33.08	152.40	13.96	-39.5	-42.0	15.6	0.00e+00	0	57	0	1068498944	49	5119
2026-01-01 22:48:37.12	152.87	13.62	-39.4	-41.8	15.7	0.00e+00	0	58	0	1075838976	49	5014
2026-01-01 22:48:41.16	153.32	13.28	-39.0	-41.3	16.3	0.00e+00	0	57	0	1084227584	49	4709
2026-01-01 22:48:45.20	153.77	12.94	-39.2	-41.6	15.9	0.00e+00	0	57	0	1091567616	49	4884
2026-01-01 22:48:49.24	154.20	12.61	-39.6	-42.1	15.4	0.00e+00	0	57	0	1098907648	49	5217
2026-01-01 22:48:53.27	154.63	12.28	-39.5	-42.0	15.5	0.00e+00	0	57	0	1106247680	50	4825
2026-01-01 22:48:57.31	155.05	11.96	-39.4	-41.9	15.5	0.00e+00	0	58	0	1113587712	50	4785
2026-01-01 22:49:01.35	155.46	11.63	-39.4	-41.9	15.5	0.00e+00	0	58	0	1121976320	50	4785
2026-01-01 22:49:05.39	155.86	11.31	-39.7	-42.3	15.1	0.00e+00	0	57	0	1129316352	50	5006
2026-01-01 22:49:09.42	156.25	11.00	-39.6	-42.2	15.1	0.00e+00	0	57	0	1136656384	50	4967
2026-01-01 22:49:13.46	156.63	10.68	-39.6	-42.3	15.1	0.00e+00	0	58	0	1143996416	50	4999
2026-01-01 22:49:17.50	157.01	10.37	-39.2	-41.6	15.7	0.00e+00	0	57	0	1152385024	50	4627
2026-01-01 22:49:21.54	157.38	10.06	-39.2	-41.6	15.7	0.00e+00	0	58	0	1159725056	50	4615
2026-01-01 22:49:25.58	157.74	9.76	-39.0	-41.3	15.9	0.00e+00	0	58	0	1167065088	50	4489
2026-01-01 22:49:29.62	158.09	9.46	-39.1	-41.5	15.7	0.00e+00	0	57	0	1174405120	49	4839
2026-01-01 22:49:33.66	158.44	9.16	-39.3	-41.8	15.3	0.00e+00	0	57	0	1181745152	49	5017
2026-01-01 22:49:37.70	158.78	8.86	-39.5	-42.2	14.9	0.00e+00	0	57	0	1190133760	49	5224
2026-01-01 22:49:41.74	159.12	8.56	-39.6	-42.3	14.7	1.50e-06	0	57	0	1197473792	49	5322
2026-01-01 22:49:45.78	159.44	8.27	-39.8	-42.7	14.3	1.50e-06	0	57	0	1204813824	50	5229
2026-01-01 22:49:49.81	159.76	7.98	-44.1	-58.1	3.8	1.60e-05	0	57	104	1212153856	58	19430
2026-01-01 22:49:53.86	160.08	7.70	-45.0	-59.6	3.8	1.49e+00	0	57	104	1212153856	60	20639
2026-01-01 22:49:57.90	160.39	7.41	-45.1	-59.7	3.8	1.49e+00	0	58	104	1212153856	60	20849
2026-01-01 22:50:01.94	160.69	7.13	-45.0	-59.5	3.8	1.49e+00	0	58	104	1212153856	60	20466
2026-01-01 22:50:05.98	160.99	6.85	-44.9	-59.5	3.8	1.49e+00	0	57	104	1212153856	60	20391
2026-01-01 22:50:10.03	161.28	6.57	-44.9	-59.5	3.8	1.49e+00	0	58	104	1212153856	60	20338
2026-01-01 22:50:14.07	161.57	6.30	-44.9	-59.4	3.8	1.49e+00	0	57	104	1212153856	60	20283
2026-01-01 22:50:18.12	161.85	6.03	-44.9	-59.4	3.8	1.49e+00	0	58	104	1212153856	60	20297
2026-01-01 22:50:22.16	162.13	5.76	-44.9	-59.5	3.8	1.49e+00	0	58	104	1212153856	60	20340
2026-01-01 22:50:26.20	162.41	5.49	-44.9	-59.4	3.8	1.49e+00	0	58	104	1212153856	60	20295
2026-01-01 22:50:30.25	162.67	5.22	-44.9	-59.4	3.8	1.49e+00	0	58	104	1212153856	60	20296
2026-01-01 22:50:34.30	162.94	4.96	-44.9	-59.4	3.8	1.49e+00	0	58	104	1212153856	60	20267
2026-01-01 22:50:38.34	163.20	4.70	-44.9	-59.5	3.8	1.49e+00	0	57	104	1212153856	60	20325
2026-01-01 22:50:42.38	163.45	4.44	-44.9	-59.5	3.8	1.49e+00	0	58	104	1212153856	60	20331
2026-01-01 22:50:46.43	163.70	4.18	-44.9	-59.4	3.8	1.49e+00	0	58	104	1212153856	60	20268
2026-01-01 22:50:50.47	163.95	3.93	-44.9	-59.4	3.8	1.49e+00	0	58	104	1212153856	60	20243
2026-01-01 22:50:54.52	164.19	3.67	-44.9	-59.4	3.8	1.49e+00	0	58	104	1212153856	60	20214
2026-01-01 22:50:58.56	164.43	3.42	-44.9	-59.4	3.8	1.49e+00	0	58	104	1212153856	60	20194
2026-01-01 22:51:02.60	164.66	3.17	-44.9	-59.4	3.8	1.49e+00	0	57	104	1212153856	60	20260
2026-01-01 22:51:06.65	164.89	2.92	-44.9	-59.4	3.8	1.49e+00	0	57	104	1212153856	60	20286
2026-01-01 22:51:10.69	165.12	2.68	-44.8	-59.4	3.8	1.49e+00	0	57	104	1212153856	60	20202
2026-01-01 22:51:14.74	165.34	2.43	-44.8	-59.4	3.8	1.49e+00	0	58	104	1212153856	60	20211
2026-01-01 22:51:18.78	165.56	2.19	-44.8	-59.4	3.8	1.49e+00	0	58	104	1212153856	60	20159
2026-01-01 22:51:22.83	165.78	1.95	-44.8	-59.4	3.8	1.49e+00	0	58	104	1212153856	60	20172

#Closed at: 2026-01-01 22:51:24
#Recorded file [1212 MB]: D:/lorett/data/31039_260102_013742.dat