passes_logs/2026/01/01/R2.0S_Moscow/R2.0S_Moscow__20260101_053106_FENGYUN_3G_rec.log

#Pass ID: 20260101_053106_FENGYUN 3G
#Satellite: FENGYUN 3G
#Configuration: FENGYUN 3G
#almurnet v.1.7.20251203
#Start time: 2026-01-01 05:31:08

#Version: 2.2.20231116
#Station: R2.0S_Moscow
#Location: 37.707566 lon 55.798166 lat
#TLE: 1 56232U 23055A   25365.50856095  .00043589  00000+0  69982-3 0  9997
#TLE: 2 56232  49.9923 130.6499 0004081 319.7782  40.2882 15.52545779153944

#Time	Az	El	Level	Level2	SNR	BER	BlckErr	Temp	State	Recorded	gain1	gain2
2026-01-01 05:31:08.15	255.65	2.11	-44.1	-62.3	3.8	8.46e-01	0	48	0	0	60	28213
2026-01-01 05:31:11.19	255.46	2.31	-44.1	-62.3	3.8	8.46e-01	0	48	104	0	60	28183
2026-01-01 05:31:14.22	255.27	2.51	-44.1	-62.3	3.8	8.46e-01	0	48	104	0	60	28175
2026-01-01 05:31:17.25	255.07	2.72	-44.1	-62.3	3.8	8.45e-01	0	49	104	0	60	28112
2026-01-01 05:31:20.29	254.87	2.92	-44.1	-62.3	3.8	8.47e-01	0	49	104	0	60	28182
2026-01-01 05:31:23.32	254.67	3.13	-44.1	-62.3	3.8	8.46e-01	0	49	104	0	60	28078
2026-01-01 05:31:26.35	254.46	3.34	-44.1	-62.2	3.8	8.47e-01	0	49	104	0	60	27718
2026-01-01 05:31:29.38	254.25	3.55	-44.0	-62.0	3.8	8.45e-01	0	49	104	0	60	27146
2026-01-01 05:31:32.42	254.03	3.76	-44.1	-61.9	3.8	8.46e-01	0	50	104	0	60	26885
2026-01-01 05:31:35.45	253.81	3.98	-44.1	-62.0	3.8	8.48e-01	0	50	104	0	60	27358
2026-01-01 05:31:38.49	253.58	4.20	-44.1	-62.2	3.8	8.46e-01	0	50	104	0	60	28022
2026-01-01 05:31:41.52	253.35	4.42	-44.1	-62.3	3.8	8.46e-01	0	50	104	0	60	28237
2026-01-01 05:31:44.55	253.11	4.64	-44.1	-62.3	3.8	8.46e-01	0	50	104	0	60	28119
2026-01-01 05:31:47.59	252.87	4.87	-44.0	-62.1	3.8	8.45e-01	0	51	104	0	60	27526
2026-01-01 05:31:50.62	252.62	5.10	-44.1	-61.7	3.8	8.46e-01	0	51	104	0	60	26266
2026-01-01 05:31:53.65	252.37	5.33	-44.0	-61.2	3.8	8.46e-01	0	51	104	0	60	24885
2026-01-01 05:31:56.68	252.11	5.56	-44.0	-61.6	3.8	8.47e-01	0	51	104	0	60	25892
2026-01-01 05:31:59.72	251.84	5.80	-44.1	-62.2	3.8	8.47e-01	0	51	104	0	60	27895
2026-01-01 05:32:02.75	251.57	6.04	-44.1	-62.1	3.8	8.46e-01	0	51	104	0	60	27436
2026-01-01 05:32:05.78	251.29	6.28	-44.0	-60.3	3.8	8.45e-01	0	52	104	0	60	22412
2026-01-01 05:32:08.82	251.01	6.53	-44.0	-57.9	4.5	8.40e-01	0	52	0	0	59	17961
2026-01-01 05:32:11.85	250.72	6.77	-44.0	-57.8	4.5	7.98e-01	0	52	0	0	59	17813
2026-01-01 05:32:14.89	250.42	7.02	-44.1	-60.0	3.9	8.42e-01	0	52	104	0	59	22815
2026-01-01 05:32:17.92	250.11	7.28	-43.2	-51.0	9.9	7.47e-01	0	52	0	1572864	58	8617
2026-01-01 05:32:20.95	249.80	7.54	-40.8	-44.6	16.4	1.59e-03	0	52	0	4718592	53	5486
2026-01-01 05:32:23.99	249.47	7.80	-38.5	-41.0	20.2	0.00e+00	0	52	0	8388608	49	4554
2026-01-01 05:32:27.02	249.14	8.06	-38.0	-40.3	20.9	0.00e+00	0	52	0	11534336	47	4712
2026-01-01 05:32:30.05	248.81	8.33	-43.4	-52.6	8.6	4.50e-06	0	53	0	14680064	57	10916
2026-01-01 05:32:33.08	248.46	8.60	-38.0	-40.3	20.9	0.00e+00	0	53	0	18350080	48	4475
2026-01-01 05:32:36.11	248.10	8.87	-37.9	-40.1	21.1	0.00e+00	0	53	0	21495808	47	4640
2026-01-01 05:32:39.13	247.74	9.15	-37.6	-39.8	21.5	0.00e+00	0	53	0	25165824	47	4462
2026-01-01 05:32:42.16	247.36	9.43	-37.4	-39.4	21.8	0.00e+00	0	53	0	28311552	46	4534
2026-01-01 05:32:45.19	246.98	9.72	-37.6	-39.7	21.6	0.00e+00	0	53	0	31981568	46	4681
2026-01-01 05:32:48.22	246.58	10.01	-37.4	-39.5	21.8	0.00e+00	0	53	0	35127296	46	4581
2026-01-01 05:32:51.25	246.17	10.30	-36.7	-38.7	22.6	0.00e+00	0	53	0	38797312	45	4394
2026-01-01 05:32:54.28	245.76	10.60	-36.3	-38.1	23.2	0.00e+00	0	53	0	41943040	44	4387
2026-01-01 05:32:57.30	245.33	10.90	-36.5	-38.3	23.0	0.00e+00	0	53	0	45613056	44	4479
2026-01-01 05:33:00.34	244.88	11.21	-36.6	-38.5	22.9	0.00e+00	0	53	0	48758784	44	4555
2026-01-01 05:33:03.36	244.43	11.52	-36.8	-38.7	22.7	0.00e+00	0	54	0	52428800	44	4691
2026-01-01 05:33:06.39	243.96	11.84	-36.7	-38.6	22.8	0.00e+00	0	53	0	55574528	44	4640
2026-01-01 05:33:09.42	243.48	12.16	-36.1	-37.9	23.5	0.00e+00	0	54	0	59244544	44	4274
2026-01-01 05:33:12.45	242.99	12.48	-35.7	-37.4	23.8	0.00e+00	0	54	0	62390272	43	4250
2026-01-01 05:33:15.48	242.48	12.81	-35.8	-37.6	23.6	0.00e+00	0	54	0	66060288	43	4365
2026-01-01 05:33:18.51	241.95	13.14	-35.9	-37.6	23.6	0.00e+00	0	54	0	69206016	43	4370
2026-01-01 05:33:21.54	241.41	13.48	-35.6	-37.3	23.9	0.00e+00	0	54	0	72876032	43	4220
2026-01-01 05:33:24.57	240.85	13.83	-35.2	-36.9	24.3	0.00e+00	0	54	0	76021760	42	4259
2026-01-01 05:33:27.60	240.28	14.18	-35.6	-37.3	23.9	0.00e+00	0	54	0	79691776	42	4473
2026-01-01 05:33:30.62	239.69	14.53	-35.6	-37.3	24.0	0.00e+00	0	54	0	82837504	42	4488
2026-01-01 05:33:33.65	239.07	14.89	-35.2	-36.8	24.5	0.00e+00	0	54	0	86507520	42	4215
2026-01-01 05:33:36.68	238.44	15.25	-35.4	-37.0	24.3	0.00e+00	0	54	0	89653248	42	4325
2026-01-01 05:33:39.71	237.79	15.62	-35.3	-37.0	24.3	0.00e+00	0	54	0	93323264	42	4302
2026-01-01 05:33:42.74	237.12	15.99	-34.7	-36.3	25.0	0.00e+00	0	54	0	96468992	41	4199
2026-01-01 05:33:45.77	236.43	16.37	-34.5	-36.1	25.3	0.00e+00	0	54	0	100139008	40	4351
2026-01-01 05:33:48.80	235.71	16.75	-34.2	-35.7	25.5	0.00e+00	0	54	0	103284736	40	4178
2026-01-01 05:33:51.83	234.98	17.14	-34.1	-35.6	25.6	0.00e+00	0	55	0	106954752	40	4139
2026-01-01 05:33:54.86	234.21	17.53	-34.1	-35.6	25.7	0.00e+00	0	55	0	110100480	40	4137
2026-01-01 05:33:57.88	233.43	17.93	-34.2	-35.6	25.7	0.00e+00	0	55	0	113770496	39	4385
2026-01-01 05:34:00.91	232.61	18.33	-34.0	-35.5	25.8	0.00e+00	0	55	0	116916224	39	4320
2026-01-01 05:34:03.94	231.77	18.73	-34.0	-35.5	25.9	0.00e+00	0	55	0	120586240	39	4326
2026-01-01 05:34:06.97	230.90	19.14	-34.0	-35.4	26.0	0.00e+00	0	54	0	123731968	39	4276
2026-01-01 05:34:10.00	230.01	19.55	-34.0	-35.5	26.0	0.00e+00	0	55	0	127401984	39	4297
2026-01-01 05:34:13.03	229.08	19.97	-34.0	-35.4	26.0	0.00e+00	0	55	0	130547712	39	4283
2026-01-01 05:34:16.06	228.12	20.38	-33.7	-35.1	26.3	0.00e+00	0	55	0	134217728	39	4133
2026-01-01 05:34:19.09	227.13	20.80	-33.8	-35.3	26.2	0.00e+00	0	55	0	137363456	39	4210
2026-01-01 05:34:22.12	226.11	21.22	-33.8	-35.3	26.2	0.00e+00	0	55	0	141033472	39	4205
2026-01-01 05:34:25.15	225.05	21.64	-33.9	-35.4	26.1	0.00e+00	0	55	0	144179200	39	4259
2026-01-01 05:34:28.18	223.96	22.06	-33.5	-34.9	26.6	0.00e+00	0	55	0	147849216	38	4268
2026-01-01 05:34:31.20	222.83	22.48	-33.3	-34.7	26.8	0.00e+00	0	55	0	150994944	38	4156
2026-01-01 05:34:34.23	221.67	22.90	-33.4	-34.8	26.7	0.00e+00	0	55	0	154664960	38	4196
2026-01-01 05:34:37.27	220.46	23.32	-33.1	-34.5	26.9	0.00e+00	0	55	0	157810688	38	4076
2026-01-01 05:34:40.29	219.23	23.74	-33.1	-34.5	27.0	0.00e+00	0	55	0	161480704	37	4306
2026-01-01 05:34:43.32	217.95	24.15	-32.9	-34.2	27.2	0.00e+00	0	55	0	164626432	37	4180
2026-01-01 05:34:46.36	216.63	24.55	-32.7	-34.0	27.4	0.00e+00	0	55	0	168296448	37	4069
2026-01-01 05:34:49.39	215.27	24.95	-33.1	-34.5	27.0	0.00e+00	0	55	0	171442176	37	4293
2026-01-01 05:34:52.42	213.88	25.34	-32.9	-34.2	27.2	0.00e+00	0	55	0	175112192	37	4192
2026-01-01 05:34:55.45	212.44	25.72	-32.9	-34.2	27.2	0.00e+00	0	55	0	178257920	37	4181
2026-01-01 05:34:58.48	210.96	26.09	-32.6	-33.9	27.5	0.00e+00	0	55	0	181927936	37	4040
2026-01-01 05:35:01.51	209.45	26.44	-32.5	-33.8	27.5	0.00e+00	0	55	0	185073664	37	3998
2026-01-01 05:35:04.54	207.90	26.78	-32.8	-34.2	27.3	0.00e+00	0	56	0	188743680	36	4395
2026-01-01 05:35:07.58	206.30	27.11	-33.0	-34.3	27.2	0.00e+00	0	55	0	191889408	36	4488
2026-01-01 05:35:10.61	204.67	27.42	-32.5	-33.8	27.5	0.00e+00	0	56	0	195559424	36	4232
2026-01-01 05:35:13.64	203.01	27.71	-32.9	-34.3	27.2	0.00e+00	0	55	0	198705152	36	4467
2026-01-01 05:35:16.66	201.32	27.97	-32.4	-33.7	27.7	0.00e+00	0	56	0	202375168	36	4161
2026-01-01 05:35:19.69	199.59	28.22	-32.0	-33.3	27.5	0.00e+00	0	55	0	205520896	34	4479
2026-01-01 05:35:22.72	197.84	28.44	-32.1	-33.4	27.4	0.00e+00	0	55	0	209190912	34	4526
2026-01-01 05:35:25.75	196.06	28.64	-32.5	-33.9	27.0	0.00e+00	0	56	0	212336640	35	4499
2026-01-01 05:35:28.78	194.25	28.81	-31.9	-33.3	27.5	0.00e+00	0	56	0	216006656	35	4202
2026-01-01 05:35:31.81	192.43	28.95	-32.3	-33.7	27.1	0.00e+00	0	56	0	219152384	35	4425
2026-01-01 05:35:34.84	190.59	29.07	-31.6	-33.0	27.7	0.00e+00	0	56	0	222822400	35	4062
2026-01-01 05:35:37.87	188.73	29.15	-31.8	-33.1	27.7	0.00e+00	0	56	0	225968128	35	4133
2026-01-01 05:35:40.90	186.87	29.21	-31.4	-32.7	28.0	0.00e+00	0	56	0	229638144	34	4170
2026-01-01 05:35:43.93	185.00	29.23	-31.7	-33.0	27.8	0.00e+00	0	56	0	232783872	34	4314
2026-01-01 05:35:46.96	183.13	29.22	-31.7	-33.0	27.8	0.00e+00	0	56	0	236453888	34	4321
2026-01-01 05:35:49.98	181.27	29.19	-32.2	-33.5	27.3	0.00e+00	0	56	0	239599616	34	4593
2026-01-01 05:35:53.01	179.42	29.12	-31.8	-33.1	27.6	0.00e+00	0	56	0	243269632	34	4386
2026-01-01 05:35:56.04	177.57	29.02	-31.9	-33.2	27.6	0.00e+00	0	56	0	246415360	34	4417
2026-01-01 05:35:59.07	175.73	28.89	-31.9	-33.2	27.6	0.00e+00	0	56	0	250085376	34	4439
2026-01-01 05:36:02.10	173.92	28.74	-32.1	-33.5	27.4	0.00e+00	0	56	0	253231104	35	4307
2026-01-01 05:36:05.13	172.12	28.56	-32.0	-33.4	27.5	0.00e+00	0	56	0	256901120	35	4252
2026-01-01 05:36:08.16	170.35	28.35	-31.3	-32.7	28.1	0.00e+00	0	56	0	260046848	34	4158
2026-01-01 05:36:11.19	168.61	28.12	-32.1	-33.5	27.4	0.00e+00	0	56	0	263716864	34	4584
2026-01-01 05:36:14.23	166.89	27.86	-31.8	-33.1	27.7	0.00e+00	0	56	0	266862592	34	4389
2026-01-01 05:36:17.26	165.21	27.58	-32.0	-33.3	27.6	0.00e+00	0	56	0	270532608	34	4493
2026-01-01 05:36:20.29	163.57	27.29	-32.1	-33.5	27.5	0.00e+00	0	56	0	273678336	35	4296
2026-01-01 05:36:23.32	161.95	26.97	-32.2	-33.6	27.4	0.00e+00	0	56	0	277348352	35	4391
2026-01-01 05:36:26.35	160.38	26.64	-31.9	-33.3	27.7	0.00e+00	0	56	0	280494080	35	4199
2026-01-01 05:36:29.38	158.84	26.29	-33.0	-34.3	27.3	0.00e+00	0	56	0	284164096	37	4239
2026-01-01 05:36:32.41	157.35	25.93	-32.5	-33.8	27.8	0.00e+00	0	56	0	287309824	36	4226
2026-01-01 05:36:35.44	155.89	25.56	-32.7	-34.1	27.4	0.00e+00	0	56	0	290979840	36	4361
2026-01-01 05:36:38.47	154.47	25.17	-33.6	-35.0	26.7	0.00e+00	0	56	0	294125568	37	4577
2026-01-01 05:36:41.50	153.09	24.78	-32.6	-34.0	27.5	0.00e+00	0	56	0	297795584	37	4067
2026-01-01 05:36:44.53	151.75	24.38	-32.5	-33.9	27.6	0.00e+00	0	56	0	300941312	37	4025
2026-01-01 05:36:47.56	150.45	23.97	-32.7	-34.0	27.5	0.00e+00	0	56	0	304611328	36	4337
2026-01-01 05:36:50.60	149.19	23.56	-33.2	-34.6	26.9	0.00e+00	0	56	0	307757056	37	4388
2026-01-01 05:36:53.63	147.97	23.14	-32.7	-34.1	27.4	0.00e+00	0	56	0	311427072	37	4114
2026-01-01 05:36:56.66	146.78	22.73	-33.1	-34.5	27.0	0.00e+00	0	56	0	314572800	37	4293
2026-01-01 05:36:59.69	145.63	22.31	-33.7	-35.2	26.4	0.00e+00	0	56	0	318242816	37	4653
2026-01-01 05:37:02.72	144.52	21.88	-33.1	-34.5	27.0	0.00e+00	0	56	0	321388544	37	4318
2026-01-01 05:37:05.75	143.45	21.46	-33.6	-35.0	26.5	0.00e+00	0	56	0	325058560	38	4320
2026-01-01 05:37:08.78	142.41	21.04	-33.7	-35.2	26.3	0.00e+00	0	56	0	328204288	38	4417
2026-01-01 05:37:11.81	141.40	20.62	-34.0	-35.5	25.9	0.00e+00	0	56	0	331874304	38	4586
2026-01-01 05:37:14.84	140.42	20.20	-33.4	-34.9	26.5	0.00e+00	0	56	0	335020032	38	4246
2026-01-01 05:37:17.87	139.48	19.79	-34.3	-35.8	25.6	0.00e+00	0	56	0	338690048	39	4461
2026-01-01 05:37:20.90	138.56	19.38	-34.1	-35.6	25.8	0.00e+00	0	56	0	341835776	39	4355
2026-01-01 05:37:23.93	137.68	18.97	-34.3	-35.8	25.6	0.00e+00	0	56	0	345505792	39	4466
2026-01-01 05:37:26.96	136.82	18.56	-34.2	-35.7	25.7	0.00e+00	0	56	0	348651520	39	4423
2026-01-01 05:37:29.99	135.99	18.16	-34.1	-35.6	25.7	0.00e+00	0	56	0	352321536	39	4376
2026-01-01 05:37:33.02	135.19	17.76	-34.1	-35.6	25.7	0.00e+00	0	56	0	355467264	39	4386
2026-01-01 05:37:36.05	134.42	17.37	-34.5	-36.2	25.1	0.00e+00	0	56	0	359137280	39	4667
2026-01-01 05:37:39.08	133.66	16.98	-30.2	-34.9	22.8	2.20e-06	0	56	0	362283008	34	5398
2026-01-01 05:37:42.11	132.94	16.59	-34.3	-35.8	25.1	0.00e+00	0	56	0	365953024	39	4481
2026-01-01 05:37:45.14	132.23	16.21	-34.6	-36.5	24.4	2.51e-05	0	56	0	369098752	40	4553
2026-01-01 05:37:48.17	131.55	15.83	-35.0	-36.7	22.2	2.44e-04	0	56	0	372768768	40	4662
2026-01-01 05:37:51.20	130.89	15.46	-33.5	-35.9	24.8	1.48e-05	0	56	0	375914496	39	4525
2026-01-01 05:37:54.23	130.25	15.10	-34.1	-36.7	21.3	1.94e-05	0	56	0	379584512	38	5261
2026-01-01 05:37:57.26	129.62	14.74	-35.1	-37.7	17.2	1.80e-02	0	56	0	382730240	40	5252
2026-01-01 05:38:00.29	129.02	14.38	-30.8	-37.2	16.5	2.42e-03	0	56	0	386400256	35	6623
2026-01-01 05:38:03.32	128.44	14.03	-32.8	-37.0	17.9	7.84e-03	0	56	0	389545984	36	6063
2026-01-01 05:38:06.35	127.87	13.68	-28.6	-36.8	15.6	1.23e-02	0	56	0	393216000	32	7478
2026-01-01 05:38:09.38	127.32	13.34	-29.6	-37.5	15.5	1.61e-02	0	56	0	396361728	33	7689
2026-01-01 05:38:12.41	126.79	13.01	-31.6	-37.7	16.8	1.33e-02	0	56	0	399507456	37	6258
2026-01-01 05:38:15.44	126.27	12.67	-34.4	-38.4	15.9	3.88e-02	0	56	0	402653184	38	6416
2026-01-01 05:38:18.47	125.76	12.35	-34.6	-38.3	16.7	1.50e-02	0	57	0	406323200	39	5951
2026-01-01 05:38:21.50	125.27	12.02	-31.6	-38.1	16.7	3.29e-02	0	56	0	409468928	35	7326
2026-01-01 05:38:24.53	124.80	11.71	-33.8	-38.7	19.3	3.90e-03	0	56	0	413138944	42	5259
2026-01-01 05:38:27.56	124.34	11.39	-34.7	-38.4	19.8	2.72e-02	0	56	0	416284672	41	5368
2026-01-01 05:38:30.59	123.89	11.08	-35.3	-38.5	20.8	2.15e-04	0	57	0	419954688	42	5133
2026-01-01 05:38:33.63	123.45	10.78	-36.3	-38.4	21.7	1.42e-03	0	56	0	423100416	43	4813
2026-01-01 05:38:36.66	123.03	10.48	-36.4	-38.6	21.4	6.89e-04	0	56	0	426770432	42	5206
2026-01-01 05:38:39.68	122.61	10.18	-35.6	-38.9	21.2	9.10e-06	0	57	0	429916160	42	5347
2026-01-01 05:38:42.71	122.21	9.89	-35.9	-42.6	17.1	9.26e-05	0	57	0	433586176	43	7742
2026-01-01 05:38:45.74	121.82	9.60	-35.9	-43.1	14.9	5.99e-02	0	56	0	436731904	43	8269
2026-01-01 05:38:48.77	121.44	9.32	-33.2	-45.0	13.0	2.12e-02	0	57	0	440401920	42	10903
2026-01-01 05:38:51.80	121.07	9.04	-29.7	-36.9	17.4	1.30e-02	0	56	0	443547648	29	8987
2026-01-01 05:38:54.83	120.71	8.76	-27.8	-42.2	12.0	1.75e-01	0	56	0	446693376	26	19762
2026-01-01 05:38:57.86	120.36	8.49	-24.7	-43.2	8.7	1.39e-01	0	57	0	449839104	20	31229
2026-01-01 05:39:00.89	120.01	8.22	-22.2	-41.9	7.8	3.42e-01	0	57	0	452460544	18	30297
2026-01-01 05:39:03.92	119.68	7.96	-21.8	-46.3	3.6	2.97e-01	0	57	104	455081984	14	63339
2026-01-01 05:39:06.95	119.35	7.69	-45.0	-63.1	3.8	8.46e-01	0	57	104	455081984	60	30962
2026-01-01 05:39:09.99	119.03	7.43	-45.3	-63.5	3.8	8.45e-01	0	57	104	455081984	61	30534
2026-01-01 05:39:13.02	118.72	7.18	-45.4	-63.7	3.8	8.45e-01	0	57	104	455081984	61	31148
2026-01-01 05:39:16.05	118.42	6.93	-45.2	-63.5	3.8	8.46e-01	0	57	104	455081984	61	30650
2026-01-01 05:39:19.09	118.12	6.68	-45.1	-63.5	3.8	8.46e-01	0	57	104	455081984	61	30400
2026-01-01 05:39:22.12	117.83	6.43	-45.1	-63.4	3.8	8.46e-01	0	57	104	455081984	61	30120
2026-01-01 05:39:25.15	117.55	6.19	-45.1	-63.4	3.8	8.47e-01	0	57	104	455081984	61	30153
2026-01-01 05:39:28.19	117.28	5.95	-45.0	-63.4	3.8	8.47e-01	0	57	104	455081984	61	30067
2026-01-01 05:39:31.22	117.01	5.71	-45.1	-63.4	3.8	8.45e-01	0	57	104	455081984	61	30139
2026-01-01 05:39:34.25	116.75	5.47	-45.0	-63.4	3.8	8.44e-01	0	57	104	455081984	61	30076
2026-01-01 05:39:37.29	116.49	5.24	-45.1	-63.4	3.8	8.46e-01	0	57	104	455081984	61	30113
2026-01-01 05:39:40.32	116.24	5.01	-45.0	-63.4	3.8	8.47e-01	0	57	104	455081984	61	30106
2026-01-01 05:39:43.35	115.99	4.78	-45.0	-63.4	3.8	8.47e-01	0	57	104	455081984	61	30060
2026-01-01 05:39:46.38	115.75	4.56	-45.0	-63.4	3.8	8.46e-01	0	57	104	455081984	61	30097
2026-01-01 05:39:49.42	115.52	4.34	-45.0	-63.4	3.8	8.46e-01	0	57	104	455081984	61	30058
2026-01-01 05:39:52.45	115.29	4.12	-45.0	-63.4	3.8	8.45e-01	0	57	104	455081984	61	30061
2026-01-01 05:39:55.48	115.06	3.90	-45.0	-63.4	3.8	8.46e-01	0	57	104	455081984	61	30119
2026-01-01 05:39:58.52	114.84	3.68	-45.0	-63.3	3.8	8.46e-01	0	57	104	455081984	61	29950
2026-01-01 05:40:01.55	114.63	3.47	-45.0	-63.3	3.8	8.46e-01	0	57	104	455081984	61	30002
2026-01-01 05:40:04.58	114.42	3.26	-45.0	-63.3	3.8	8.46e-01	0	57	104	455081984	61	29968
2026-01-01 05:40:07.61	114.21	3.05	-45.0	-63.3	3.8	8.47e-01	0	57	104	455081984	61	29975
2026-01-01 05:40:10.65	114.01	2.85	-45.0	-63.3	3.8	8.46e-01	0	57	104	455081984	61	29911
2026-01-01 05:40:13.68	113.81	2.64	-45.0	-63.3	3.8	8.47e-01	0	57	104	455081984	61	30020
2026-01-01 05:40:16.71	113.62	2.44	-45.0	-63.3	3.8	8.46e-01	0	57	104	455081984	61	29989
2026-01-01 05:40:19.75	113.43	2.24	-45.0	-63.4	3.8	8.47e-01	0	57	104	455081984	61	30052
2026-01-01 05:40:22.78	113.24	2.04	-45.0	-63.3	3.8	8.46e-01	0	57	104	455081984	61	29963

#Closed at: 2026-01-01 05:40:24
#Recorded file [455 MB]: D:/lorett/data/31039_260101_083107.dat