passes_logs/2026/01/01/R2.0S_Moscow/R2.0S_Moscow__20260101_005741_NOAA_20_JPSS-1_rec.log

#Pass ID: 20260101_005741_NOAA 20 (JPSS-1)
#Satellite: NOAA 20 (JPSS-1)
#Configuration: NOAA 20
#almurnet v.1.7.20251203
#Start time: 2026-01-01 00:57:42

#Version: 2.2.20231116
#Station: R2.0S_Moscow
#Location: 37.707566 lon 55.798166 lat
#TLE: 1 43013U 17073A   25365.45761817  .00000173  00000+0  10307-3 0  9993
#TLE: 2 43013  98.7620 301.5517 0001951  60.3814 299.7557 14.19531661420675

#Time	Az	El	Level	Level2	SNR	BER	BlckErr	Temp	State	Recorded	gain1	gain2
2026-01-01 00:57:42.00	11.32	2.05	-39.6	-54.2	3.8	1.49e+00	0	49	0	0	51	18640
2026-01-01 00:57:46.05	11.11	2.29	-39.6	-54.2	3.8	1.49e+00	0	49	104	0	50	19729
2026-01-01 00:57:50.10	10.90	2.54	-39.6	-54.2	3.8	1.49e+00	0	49	104	0	50	19763
2026-01-01 00:57:54.14	10.69	2.78	-39.6	-54.2	3.8	1.49e+00	0	50	104	0	50	19804
2026-01-01 00:57:58.19	10.48	3.03	-39.6	-54.2	3.8	1.49e+00	0	50	104	0	50	19740
2026-01-01 00:58:02.23	10.26	3.27	-39.6	-54.2	3.8	1.49e+00	0	50	104	0	50	19782
2026-01-01 00:58:06.27	10.03	3.52	-39.6	-54.2	3.8	1.49e+00	0	50	104	0	50	19768
2026-01-01 00:58:10.32	9.80	3.78	-39.6	-54.2	3.8	1.49e+00	0	51	104	0	50	19715
2026-01-01 00:58:14.36	9.57	4.03	-39.6	-54.2	3.8	1.49e+00	0	51	104	0	50	19760
2026-01-01 00:58:18.40	9.33	4.28	-39.6	-54.2	3.8	1.49e+00	0	51	104	0	50	19699
2026-01-01 00:58:22.45	9.09	4.54	-39.6	-54.2	3.8	1.49e+00	0	52	104	0	50	19764
2026-01-01 00:58:26.49	8.85	4.80	-39.6	-54.2	3.8	1.49e+00	0	52	104	0	50	19703
2026-01-01 00:58:30.54	8.59	5.06	-39.6	-54.2	3.8	1.49e+00	0	52	104	0	50	19741
2026-01-01 00:58:34.58	8.34	5.33	-39.6	-54.2	3.8	1.49e+00	0	52	104	0	50	19750
2026-01-01 00:58:38.62	8.08	5.59	-39.6	-54.2	3.8	1.49e+00	0	52	104	0	50	19732
2026-01-01 00:58:42.67	7.81	5.86	-39.6	-54.2	3.8	1.49e+00	0	53	104	0	50	19720
2026-01-01 00:58:46.71	7.54	6.13	-39.6	-54.2	3.8	1.49e+00	0	53	104	0	50	19694
2026-01-01 00:58:50.75	7.27	6.40	-39.6	-54.2	3.8	1.49e+00	0	53	104	0	50	19686
2026-01-01 00:58:54.79	6.98	6.67	-39.6	-54.2	3.8	1.49e+00	0	53	104	0	50	19745
2026-01-01 00:58:58.84	6.70	6.95	-39.6	-54.2	3.8	1.49e+00	0	53	104	0	50	19746
2026-01-01 00:59:02.88	6.40	7.23	-39.6	-54.2	3.8	1.49e+00	0	54	104	0	50	19731
2026-01-01 00:59:06.93	6.10	7.51	-39.6	-54.2	3.8	1.49e+00	0	54	104	0	50	19679
2026-01-01 00:59:10.97	5.80	7.79	-39.6	-54.2	3.8	1.49e+00	0	54	104	0	50	19687
2026-01-01 00:59:15.01	5.49	8.08	-39.7	-54.3	3.8	1.49e+00	0	54	104	0	50	20041
2026-01-01 00:59:19.05	5.17	8.37	-39.7	-54.3	3.8	1.49e+00	0	54	104	0	50	19951
2026-01-01 00:59:23.10	4.84	8.66	-39.6	-54.3	3.8	1.49e+00	0	54	104	0	50	19844
2026-01-01 00:59:27.14	4.51	8.95	-39.7	-54.4	3.8	1.49e+00	0	54	104	0	50	20079
2026-01-01 00:59:31.18	4.17	9.25	-39.6	-54.3	3.8	1.49e+00	0	54	104	0	50	19854
2026-01-01 00:59:35.22	3.83	9.54	-39.6	-54.3	3.8	1.49e+00	0	54	104	0	50	19857
2026-01-01 00:59:39.26	3.47	9.84	-39.7	-54.3	3.8	1.49e+00	0	54	104	0	50	20064
2026-01-01 00:59:43.30	3.11	10.15	-39.6	-54.3	3.8	1.49e+00	0	55	104	0	50	19853
2026-01-01 00:59:47.35	2.74	10.45	-39.8	-54.3	3.8	1.49e+00	0	55	104	0	50	20028
2026-01-01 00:59:51.39	2.37	10.76	-39.7	-54.3	3.8	1.49e+00	0	55	104	0	50	19996
2026-01-01 00:59:55.43	1.98	11.07	-39.7	-54.3	3.8	1.49e+00	0	55	104	0	50	20026
2026-01-01 00:59:59.48	1.59	11.39	-39.7	-54.3	3.8	1.49e+00	0	55	104	0	50	19959
2026-01-01 01:00:03.52	1.18	11.70	-39.7	-54.4	3.8	1.49e+00	0	55	104	0	50	20241
2026-01-01 01:00:07.56	0.77	12.02	-39.8	-54.5	3.8	1.49e+00	0	55	104	0	50	20391
2026-01-01 01:00:11.60	0.35	12.34	-39.8	-54.4	3.8	1.49e+00	0	55	104	0	50	20099
2026-01-01 01:00:15.64	359.92	12.66	-39.9	-53.8	3.8	1.49e+00	0	55	104	0	51	17845
2026-01-01 01:00:19.68	359.48	12.99	-40.5	-51.8	3.9	1.49e+00	0	55	104	0	51	14062
2026-01-01 01:00:23.72	359.03	13.32	-41.1	-46.9	9.0	4.54e-02	0	55	0	6291456	52	7582
2026-01-01 01:00:27.76	358.56	13.65	-40.5	-44.1	12.8	1.37e-04	0	55	0	13631488	53	5192
2026-01-01 01:00:31.81	358.09	13.99	-39.8	-42.7	14.4	0.00e+00	0	56	0	22020096	51	4962
2026-01-01 01:00:35.84	357.61	14.32	-40.1	-43.2	13.9	4.50e-06	0	55	0	29360128	51	5273
2026-01-01 01:00:39.88	357.11	14.66	-39.5	-42.2	14.8	0.00e+00	0	56	0	36700160	51	4690
2026-01-01 01:00:43.92	356.61	15.01	-39.8	-43.1	13.5	3.00e-06	0	56	0	44040192	50	5493
2026-01-01 01:00:47.95	356.09	15.35	-40.7	-46.8	8.5	2.80e-02	0	56	0	52428800	52	7471
2026-01-01 01:00:51.99	355.56	15.70	-40.7	-51.8	4.3	1.15e+00	0	56	0	58720256	52	13283
2026-01-01 01:00:56.02	355.01	16.05	-40.3	-54.3	3.8	1.49e+00	0	56	104	58720256	52	17820
2026-01-01 01:01:00.06	354.45	16.40	-40.0	-54.8	3.8	1.49e+00	0	56	104	58720256	51	19854
2026-01-01 01:01:04.10	353.88	16.75	-40.2	-54.9	3.8	1.49e+00	0	56	104	58720256	51	20155
2026-01-01 01:01:08.14	353.30	17.11	-40.3	-55.3	3.8	1.49e+00	0	56	104	58720256	51	21081
2026-01-01 01:01:12.18	352.70	17.47	-40.0	-55.0	3.8	1.49e+00	0	56	104	58720256	51	20495
2026-01-01 01:01:16.22	352.08	17.83	-40.5	-55.1	3.8	1.49e+00	0	56	104	58720256	51	20766
2026-01-01 01:01:20.26	351.45	18.19	-40.2	-54.9	3.8	1.49e+00	0	56	104	58720256	51	20189
2026-01-01 01:01:24.31	350.81	18.55	-40.2	-54.9	3.8	1.49e+00	0	56	104	58720256	52	18959
2026-01-01 01:01:28.35	350.15	18.92	-40.1	-54.8	3.8	1.49e+00	0	57	104	58720256	52	18855
2026-01-01 01:01:32.39	349.47	19.29	-40.1	-54.8	3.8	1.49e+00	0	57	104	58720256	52	18857
2026-01-01 01:01:36.43	348.77	19.65	-40.1	-54.9	3.8	1.49e+00	0	57	104	58720256	52	19027
2026-01-01 01:01:40.48	348.06	20.02	-40.1	-54.8	3.8	1.49e+00	0	57	104	58720256	51	19896
2026-01-01 01:01:44.52	347.33	20.39	-40.3	-54.5	3.8	1.49e+00	0	57	104	58720256	51	19313
2026-01-01 01:01:48.56	346.58	20.76	-41.1	-52.3	4.2	1.37e+00	0	57	0	58720256	52	14151
2026-01-01 01:01:52.60	345.82	21.13	-41.5	-50.2	5.6	6.02e-01	0	57	0	61865984	53	10449
2026-01-01 01:01:56.65	345.03	21.50	-41.5	-46.5	10.2	1.31e-02	0	57	0	69206016	53	6853
2026-01-01 01:02:00.69	344.23	21.87	-40.8	-44.2	13.2	3.66e-05	0	57	0	76546048	53	5240
2026-01-01 01:02:04.73	343.40	22.24	-39.7	-42.2	15.4	0.00e+00	0	57	0	83886080	51	4673
2026-01-01 01:02:08.77	342.56	22.61	-39.7	-42.2	15.5	0.00e+00	0	57	0	91226112	51	4685
2026-01-01 01:02:12.81	341.70	22.97	-39.4	-41.6	16.2	0.00e+00	0	57	0	99614720	50	4638
2026-01-01 01:02:16.85	340.81	23.34	-39.2	-41.4	16.5	0.00e+00	0	57	0	106954752	50	4507
2026-01-01 01:02:20.89	339.90	23.70	-39.0	-41.1	16.9	0.00e+00	0	57	0	114294784	49	4607
2026-01-01 01:02:24.92	338.98	24.05	-39.2	-41.4	16.7	0.00e+00	0	57	0	121634816	49	4768
2026-01-01 01:02:28.96	338.03	24.41	-39.2	-41.3	16.7	0.00e+00	0	57	0	130023424	49	4744
2026-01-01 01:02:33.00	337.06	24.76	-38.9	-40.9	17.2	0.00e+00	0	57	0	137363456	49	4505
2026-01-01 01:02:37.04	336.07	25.10	-38.8	-40.8	17.3	0.00e+00	0	57	0	144703488	49	4468
2026-01-01 01:02:41.08	335.05	25.44	-38.7	-40.7	17.4	0.00e+00	0	57	0	152043520	49	4405
2026-01-01 01:02:45.12	334.02	25.78	-39.1	-41.2	16.9	0.00e+00	0	57	0	159383552	49	4682
2026-01-01 01:02:49.16	332.96	26.11	-39.3	-41.5	16.6	0.00e+00	0	57	0	167772160	49	4849
2026-01-01 01:02:53.20	331.87	26.43	-39.4	-41.6	16.5	0.00e+00	0	57	0	175112192	49	4920
2026-01-01 01:02:57.23	330.77	26.74	-39.6	-41.9	16.2	0.00e+00	0	57	0	182452224	49	5078
2026-01-01 01:03:01.27	329.65	27.05	-39.7	-42.0	16.1	0.00e+00	0	57	0	189792256	50	4859
2026-01-01 01:03:05.31	328.50	27.34	-39.8	-42.2	16.0	0.00e+00	0	57	0	198180864	50	4943
2026-01-01 01:03:09.35	327.33	27.63	-39.8	-42.2	16.0	0.00e+00	0	57	0	205520896	50	4937
2026-01-01 01:03:13.38	326.15	27.91	-39.9	-42.2	16.0	0.00e+00	0	57	0	212860928	50	4972
2026-01-01 01:03:17.42	324.94	28.17	-39.8	-42.1	16.1	0.00e+00	0	57	0	220200960	50	4890
2026-01-01 01:03:21.46	323.71	28.42	-39.7	-41.9	16.2	0.00e+00	0	57	0	227540992	50	4813
2026-01-01 01:03:25.50	322.46	28.66	-40.0	-42.4	15.8	0.00e+00	0	57	0	235929600	50	5073
2026-01-01 01:03:29.54	321.19	28.89	-40.2	-42.7	15.5	0.00e+00	0	57	0	243269632	50	5221
2026-01-01 01:03:33.58	319.90	29.10	-40.2	-42.7	15.4	0.00e+00	0	57	0	250609664	51	4980
2026-01-01 01:03:37.62	318.60	29.30	-40.3	-42.9	15.3	0.00e+00	0	57	0	257949696	51	5066
2026-01-01 01:03:41.66	317.28	29.48	-40.7	-43.5	14.6	7.00e-07	0	57	0	266338304	52	5123
2026-01-01 01:03:45.69	315.95	29.65	-40.3	-42.9	15.2	0.00e+00	0	57	0	273678336	52	4802
2026-01-01 01:03:49.74	314.61	29.80	-40.2	-42.7	15.4	0.00e+00	0	57	0	281018368	52	4679
2026-01-01 01:03:53.78	313.25	29.93	-40.3	-42.9	15.3	7.00e-07	0	57	0	288358400	52	4764
2026-01-01 01:03:57.82	311.88	30.04	-40.4	-43.1	15.1	0.00e+00	0	57	0	295698432	52	4878
2026-01-01 01:04:01.86	310.50	30.14	-40.4	-43.0	15.1	0.00e+00	0	57	0	304087040	52	4827
2026-01-01 01:04:05.90	309.12	30.22	-40.5	-43.2	14.9	0.00e+00	0	57	0	311427072	52	4953
2026-01-01 01:04:09.94	307.73	30.28	-40.7	-43.5	14.5	0.00e+00	0	57	0	318767104	52	5137
2026-01-01 01:04:13.98	306.33	30.32	-41.2	-44.3	13.7	4.50e-06	0	57	0	326107136	52	5652
2026-01-01 01:04:18.02	304.93	30.34	-41.2	-44.4	13.6	9.90e-06	0	57	0	334495744	53	5371
2026-01-01 01:04:22.06	303.53	30.34	-40.9	-43.9	14.2	1.50e-06	0	57	0	341835776	53	5058
2026-01-01 01:04:26.09	302.14	30.32	-41.0	-44.1	14.0	2.20e-06	0	57	0	349175808	53	5177
2026-01-01 01:04:30.13	300.74	30.29	-40.9	-43.9	14.1	1.50e-06	0	57	0	356515840	53	5063
2026-01-01 01:04:34.17	299.35	30.23	-40.5	-43.2	14.9	0.00e+00	0	57	0	363855872	52	4929
2026-01-01 01:04:38.21	297.96	30.16	-40.2	-42.7	15.4	0.00e+00	0	57	0	372244480	52	4672
2026-01-01 01:04:42.25	296.58	30.06	-40.0	-42.5	15.6	0.00e+00	0	57	0	379584512	51	4824
2026-01-01 01:04:46.28	295.21	29.95	-40.6	-43.2	14.9	0.00e+00	0	58	0	386924544	51	5279
2026-01-01 01:04:50.32	293.85	29.83	-40.3	-42.8	15.3	0.00e+00	0	57	0	394264576	51	5025
2026-01-01 01:04:54.36	292.50	29.68	-40.1	-42.6	15.6	0.00e+00	0	57	0	402653184	51	4882
2026-01-01 01:04:58.40	291.16	29.52	-40.3	-42.8	15.3	0.00e+00	0	57	0	409993216	51	5040
2026-01-01 01:05:02.44	289.84	29.34	-40.0	-42.4	15.7	0.00e+00	0	57	0	417333248	51	4791
2026-01-01 01:05:06.48	288.53	29.14	-40.0	-42.4	15.8	0.00e+00	0	57	0	424673280	51	4763
2026-01-01 01:05:10.51	287.24	28.94	-40.0	-42.5	15.7	0.00e+00	0	58	0	432013312	51	4817
2026-01-01 01:05:14.55	285.97	28.71	-40.5	-43.2	14.8	0.00e+00	0	58	0	440401920	51	5279
2026-01-01 01:05:18.59	284.71	28.47	-40.4	-43.2	14.9	0.00e+00	0	57	0	447741952	52	4931
2026-01-01 01:05:22.63	283.47	28.22	-40.5	-43.2	14.8	7.00e-07	0	58	0	455081984	52	4935
2026-01-01 01:05:26.67	282.26	27.96	-40.8	-43.7	14.3	7.00e-07	0	57	0	462422016	52	5230
2026-01-01 01:05:30.71	281.06	27.69	-40.7	-43.5	14.4	0.00e+00	0	57	0	470810624	52	5150
2026-01-01 01:05:34.75	279.88	27.40	-40.5	-43.2	14.8	0.00e+00	0	58	0	478150656	52	4966
2026-01-01 01:05:38.79	278.73	27.11	-40.5	-43.3	14.7	0.00e+00	0	58	0	485490688	52	4993
2026-01-01 01:05:42.83	277.59	26.80	-40.3	-42.9	15.2	0.00e+00	0	57	0	492830720	52	4763
2026-01-01 01:05:46.87	276.48	26.49	-40.0	-42.5	15.5	0.00e+00	0	58	0	500170752	52	4578
2026-01-01 01:05:50.91	275.39	26.17	-40.0	-42.4	15.6	0.00e+00	0	58	0	508559360	51	4791
2026-01-01 01:05:54.95	274.32	25.84	-39.8	-42.2	15.9	0.00e+00	0	58	0	515899392	51	4658
2026-01-01 01:05:58.99	273.28	25.51	-39.7	-42.1	16.0	0.00e+00	0	58	0	523239424	51	4618
2026-01-01 01:06:03.01	272.26	25.17	-39.7	-42.0	16.1	0.00e+00	0	58	0	530579456	51	4579
2026-01-01 01:06:07.04	271.26	24.82	-39.5	-41.7	16.3	0.00e+00	0	58	0	538968064	50	4703
2026-01-01 01:06:11.08	270.28	24.47	-39.2	-41.3	16.7	0.00e+00	0	58	0	546308096	50	4490
2026-01-01 01:06:15.12	269.32	24.12	-38.9	-41.0	17.1	0.00e+00	0	58	0	553648128	49	4568
2026-01-01 01:06:19.16	268.39	23.76	-38.8	-40.8	17.2	0.00e+00	0	57	0	560988160	49	4458
2026-01-01 01:06:23.20	267.47	23.39	-38.5	-40.4	17.7	0.00e+00	0	57	0	568328192	48	4513
2026-01-01 01:06:27.24	266.58	23.03	-38.2	-40.0	18.0	0.00e+00	0	58	0	576716800	48	4335
2026-01-01 01:06:31.28	265.71	22.66	-38.2	-40.1	17.9	0.00e+00	0	58	0	584056832	48	4348
2026-01-01 01:06:35.32	264.86	22.30	-37.8	-39.6	18.3	0.00e+00	0	58	0	591396864	47	4375
2026-01-01 01:06:39.36	264.02	21.93	-37.5	-39.1	18.7	0.00e+00	0	58	0	598736896	46	4387
2026-01-01 01:06:43.39	263.21	21.56	-37.4	-39.1	18.8	0.00e+00	0	58	0	607125504	46	4342
2026-01-01 01:06:47.43	262.42	21.19	-37.4	-39.1	18.7	0.00e+00	0	58	0	614465536	46	4363
2026-01-01 01:06:51.47	261.65	20.81	-37.3	-39.0	18.9	0.00e+00	0	58	0	621805568	46	4298
2026-01-01 01:06:55.51	260.89	20.44	-37.5	-39.2	18.6	0.00e+00	0	58	0	629145600	46	4419
2026-01-01 01:06:59.55	260.15	20.07	-37.5	-39.2	18.6	0.00e+00	0	58	0	636485632	46	4437
2026-01-01 01:07:03.59	259.43	19.70	-37.4	-39.1	18.7	0.00e+00	0	58	0	644874240	46	4391
2026-01-01 01:07:07.63	258.73	19.33	-37.9	-39.7	18.1	0.00e+00	0	58	0	652214272	46	4685
2026-01-01 01:07:11.66	258.05	18.97	-37.9	-39.8	18.0	0.00e+00	0	58	0	659554304	46	4706
2026-01-01 01:07:15.70	257.38	18.60	-38.1	-40.0	17.7	0.00e+00	0	58	0	666894336	46	4863
2026-01-01 01:07:19.74	256.73	18.23	-38.6	-40.6	17.2	0.00e+00	0	58	0	675282944	47	4899
2026-01-01 01:07:23.78	256.09	17.87	-38.6	-40.7	17.1	0.00e+00	0	58	0	682622976	47	4935
2026-01-01 01:07:27.82	255.47	17.51	-38.6	-40.6	17.2	0.00e+00	0	58	0	689963008	47	4905
2026-01-01 01:07:31.86	254.86	17.15	-38.7	-40.7	17.1	0.00e+00	0	58	0	697303040	47	4978
2026-01-01 01:07:35.90	254.27	16.79	-38.8	-40.9	16.9	0.00e+00	0	58	0	704643072	48	4801
2026-01-01 01:07:39.94	253.69	16.43	-39.1	-41.2	16.6	0.00e+00	0	58	0	713031680	48	4969
2026-01-01 01:07:43.98	253.12	16.08	-39.2	-41.4	16.4	0.00e+00	0	58	0	720371712	48	5073
2026-01-01 01:07:48.01	252.57	15.73	-39.2	-41.4	16.4	0.00e+00	0	58	0	727711744	49	4788
2026-01-01 01:07:52.05	252.04	15.38	-39.0	-41.1	16.7	0.00e+00	0	58	0	735051776	49	4637
2026-01-01 01:07:56.09	251.51	15.03	-39.2	-41.5	16.3	0.00e+00	0	58	0	743440384	49	4832
2026-01-01 01:08:00.13	251.00	14.69	-39.5	-41.8	16.0	0.00e+00	0	58	0	750780416	49	5024
2026-01-01 01:08:04.16	250.50	14.35	-39.3	-41.6	16.2	0.00e+00	0	58	0	758120448	49	4872
2026-01-01 01:08:08.20	250.01	14.01	-39.4	-41.8	16.0	0.00e+00	0	58	0	765460480	49	5006
2026-01-01 01:08:12.24	249.53	13.67	-39.9	-42.5	15.3	0.00e+00	0	58	0	772800512	50	5125
2026-01-01 01:08:16.28	249.06	13.34	-40.1	-42.8	14.9	0.00e+00	0	58	0	781189120	50	5332
2026-01-01 01:08:20.31	248.60	13.01	-39.8	-42.3	15.4	0.00e+00	0	58	0	788529152	50	5040
2026-01-01 01:08:24.35	248.15	12.68	-39.8	-42.3	15.4	0.00e+00	0	58	0	795869184	50	5031
2026-01-01 01:08:28.39	247.72	12.35	-40.2	-42.9	14.8	7.00e-07	0	58	0	803209216	50	5373
2026-01-01 01:08:32.43	247.29	12.03	-40.2	-43.0	14.7	0.00e+00	0	58	0	811597824	51	5125
2026-01-01 01:08:36.47	246.87	11.71	-40.1	-42.8	14.9	0.00e+00	0	58	0	818937856	51	5021
2026-01-01 01:08:40.51	246.46	11.39	-40.1	-42.9	14.8	0.00e+00	0	58	0	826277888	51	5042
2026-01-01 01:08:44.56	246.06	11.08	-40.3	-43.2	14.5	7.00e-07	0	58	0	833617920	51	5222
2026-01-01 01:08:48.60	245.67	10.77	-40.4	-43.3	14.3	1.50e-06	0	58	0	840957952	51	5320
2026-01-01 01:08:52.64	245.29	10.46	-40.4	-43.3	14.3	0.00e+00	0	58	0	849346560	51	5294
2026-01-01 01:08:56.67	244.91	10.15	-40.4	-43.3	14.2	7.00e-07	0	58	0	856686592	51	5340
2026-01-01 01:09:00.72	244.54	9.85	-40.6	-43.6	13.9	7.00e-07	0	58	0	864026624	51	5516
2026-01-01 01:09:04.75	244.19	9.54	-40.8	-44.1	13.4	2.44e-05	0	58	0	871366656	52	5470
2026-01-01 01:09:08.79	243.83	9.25	-41.0	-44.4	13.0	4.57e-05	0	58	0	879755264	52	5699
2026-01-01 01:09:12.83	243.49	8.95	-40.8	-44.2	13.1	2.51e-05	0	58	0	887095296	52	5564
2026-01-01 01:09:16.87	243.15	8.65	-40.6	-43.7	13.6	1.67e-05	0	58	0	894435328	52	5272
2026-01-01 01:09:20.91	242.82	8.36	-40.5	-43.6	13.7	6.80e-06	0	58	0	901775360	52	5182
2026-01-01 01:09:24.95	242.50	8.07	-40.7	-44.1	13.2	3.66e-05	0	58	0	909115392	52	5479
2026-01-01 01:09:28.98	242.18	7.79	-44.8	-59.4	3.8	1.49e+00	0	58	104	911212544	60	20189
2026-01-01 01:09:33.03	241.87	7.50	-45.1	-59.6	3.8	1.49e+00	0	58	104	911212544	60	20712
2026-01-01 01:09:37.07	241.57	7.22	-45.0	-59.6	3.8	1.49e+00	0	58	104	911212544	60	20630
2026-01-01 01:09:41.11	241.27	6.94	-45.0	-59.5	3.8	1.49e+00	0	58	104	911212544	60	20516
2026-01-01 01:09:45.16	240.97	6.66	-45.0	-59.5	3.8	1.49e+00	0	58	104	911212544	60	20447
2026-01-01 01:09:49.20	240.69	6.39	-45.0	-59.5	3.8	1.49e+00	0	58	104	911212544	60	20455
2026-01-01 01:09:53.24	240.40	6.11	-44.9	-59.5	3.8	1.49e+00	0	58	104	911212544	60	20403
2026-01-01 01:09:57.29	240.13	5.84	-44.9	-59.5	3.8	1.49e+00	0	58	104	911212544	60	20448
2026-01-01 01:10:01.33	239.86	5.58	-44.9	-59.5	3.8	1.49e+00	0	58	104	911212544	60	20463
2026-01-01 01:10:05.38	239.59	5.31	-44.9	-59.5	3.8	1.49e+00	0	58	104	911212544	60	20388
2026-01-01 01:10:09.42	239.33	5.04	-44.9	-59.5	3.8	1.49e+00	0	58	104	911212544	60	20406
2026-01-01 01:10:13.46	239.07	4.78	-44.9	-59.5	3.8	1.49e+00	0	58	104	911212544	60	20389
2026-01-01 01:10:17.51	238.82	4.52	-44.9	-59.5	3.8	1.49e+00	0	58	104	911212544	60	20362
2026-01-01 01:10:21.55	238.57	4.26	-44.9	-59.5	3.8	1.49e+00	0	58	104	911212544	60	20399
2026-01-01 01:10:25.60	238.33	4.01	-44.9	-59.5	3.8	1.49e+00	0	58	104	911212544	60	20410
2026-01-01 01:10:29.64	238.09	3.75	-44.9	-59.5	3.8	1.49e+00	0	58	104	911212544	60	20396
2026-01-01 01:10:33.68	237.86	3.50	-44.9	-59.5	3.8	1.49e+00	0	58	104	911212544	60	20385
2026-01-01 01:10:37.73	237.63	3.25	-44.9	-59.5	3.8	1.49e+00	0	58	104	911212544	60	20390
2026-01-01 01:10:41.77	237.40	3.00	-44.9	-59.5	3.8	1.49e+00	0	58	104	911212544	60	20399
2026-01-01 01:10:45.81	237.18	2.75	-44.9	-59.5	3.8	1.49e+00	0	58	104	911212544	60	20428
2026-01-01 01:10:49.86	236.96	2.51	-44.9	-59.5	3.8	1.49e+00	0	58	104	911212544	60	20371
2026-01-01 01:10:53.90	236.75	2.26	-44.9	-59.5	3.8	1.49e+00	0	58	104	911212544	60	20393
2026-01-01 01:10:57.94	236.54	2.02	-44.9	-59.5	3.8	1.49e+00	0	58	104	911212544	60	20401

#Closed at: 2026-01-01 01:10:59
#Recorded file [911 MB]: D:/lorett/data/31039_260101_035741.dat