passes_logs/2026/01/01/R2.0S_Moscow/R2.0S_Moscow__20260101_003647_SUOMI_NPP_rec.log

#Pass ID: 20260101_003647_SUOMI NPP
#Satellite: SUOMI NPP
#Configuration: NPP
#almurnet v.1.7.20251203
#Start time: 2026-01-01 00:36:46

#Version: 2.2.20231116
#Station: R2.0S_Moscow
#Location: 37.707566 lon 55.798166 lat
#TLE: 1 37849U 11061A   25364.87906317  .00000195  00000+0  11345-3 0  9992
#TLE: 2 37849  98.7794 302.0592 0002571  89.2401 270.9069 14.19520347734561

#Time	Az	El	Level	Level2	SNR	BER	BlckErr	Temp	State	Recorded	gain1	gain2
2026-01-01 00:36:46.92	12.80	1.96	-39.8	-54.5	3.8	1.49e+00	0	48	0	0	51	19224
2026-01-01 00:36:50.96	12.66	2.22	-39.8	-54.4	3.8	1.49e+00	0	49	104	0	51	19135
2026-01-01 00:36:55.00	12.52	2.47	-39.8	-54.4	3.8	1.49e+00	0	49	104	0	51	19135
2026-01-01 00:36:59.04	12.38	2.72	-39.8	-54.5	3.8	1.49e+00	0	49	104	0	51	19211
2026-01-01 00:37:03.09	12.24	2.98	-39.8	-54.5	3.8	1.49e+00	0	49	104	0	51	19169
2026-01-01 00:37:07.13	12.09	3.24	-39.8	-54.5	3.8	1.49e+00	0	50	104	0	51	19202
2026-01-01 00:37:11.18	11.94	3.50	-39.8	-54.4	3.8	1.49e+00	0	50	104	0	51	19157
2026-01-01 00:37:15.22	11.79	3.77	-39.8	-54.4	3.8	1.49e+00	0	50	104	0	51	19052
2026-01-01 00:37:19.26	11.64	4.03	-39.8	-54.4	3.8	1.49e+00	0	51	104	0	51	19020
2026-01-01 00:37:23.31	11.48	4.30	-39.8	-54.4	3.8	1.49e+00	0	51	104	0	51	19021
2026-01-01 00:37:27.35	11.31	4.57	-39.8	-54.4	3.8	1.49e+00	0	51	104	0	51	19072
2026-01-01 00:37:31.39	11.15	4.84	-39.8	-54.4	3.8	1.49e+00	0	51	104	0	51	19124
2026-01-01 00:37:35.43	10.98	5.12	-39.8	-54.4	3.8	1.49e+00	0	51	104	0	51	19116
2026-01-01 00:37:39.48	10.81	5.40	-39.8	-54.4	3.8	1.49e+00	0	52	104	0	51	19129
2026-01-01 00:37:43.52	10.63	5.68	-39.7	-54.4	3.8	1.49e+00	0	52	104	0	51	19133
2026-01-01 00:37:47.57	10.45	5.97	-39.8	-54.4	3.8	1.49e+00	0	52	104	0	51	19153
2026-01-01 00:37:51.61	10.27	6.25	-39.8	-54.4	3.8	1.49e+00	0	52	104	0	51	19111
2026-01-01 00:37:55.65	10.08	6.54	-39.8	-54.4	3.8	1.49e+00	0	52	104	0	51	19074
2026-01-01 00:37:59.70	9.89	6.84	-39.8	-54.4	3.8	1.49e+00	0	52	104	0	51	19091
2026-01-01 00:38:03.74	9.69	7.13	-39.7	-54.4	3.8	1.49e+00	0	53	104	0	51	19110
2026-01-01 00:38:07.79	9.49	7.43	-39.8	-54.4	3.8	1.49e+00	0	53	104	0	51	19059
2026-01-01 00:38:11.83	9.29	7.73	-39.8	-54.4	3.8	1.49e+00	0	53	104	0	51	19160
2026-01-01 00:38:15.88	9.08	8.04	-39.8	-54.4	3.8	1.49e+00	0	53	104	0	51	19086
2026-01-01 00:38:19.92	8.86	8.35	-39.8	-54.4	3.8	1.49e+00	0	53	104	0	51	19006
2026-01-01 00:38:23.96	8.65	8.66	-39.8	-54.4	3.8	1.49e+00	0	54	104	0	51	18962
2026-01-01 00:38:28.00	8.42	8.98	-39.7	-54.3	3.8	1.49e+00	0	53	104	0	51	18875
2026-01-01 00:38:32.04	8.19	9.30	-39.8	-54.4	3.8	1.49e+00	0	54	104	0	51	18974
2026-01-01 00:38:36.08	7.96	9.62	-39.8	-54.4	3.8	1.49e+00	0	54	104	0	51	18958
2026-01-01 00:38:40.12	7.72	9.95	-39.9	-54.5	3.8	1.49e+00	0	54	104	0	51	19169
2026-01-01 00:38:44.16	7.47	10.28	-39.9	-54.3	3.8	1.49e+00	0	54	104	0	51	18883
2026-01-01 00:38:48.20	7.22	10.61	-40.2	-54.6	3.8	1.49e+00	0	54	104	0	51	19430
2026-01-01 00:38:52.25	6.96	10.95	-40.4	-53.5	3.8	1.49e+00	0	54	104	0	52	16248
2026-01-01 00:38:56.29	6.69	11.29	-40.9	-51.2	4.5	1.22e+00	0	54	0	1048576	52	12492
2026-01-01 00:39:00.33	6.42	11.64	-41.1	-49.2	6.0	3.38e-01	0	55	0	8388608	53	9318
2026-01-01 00:39:04.36	6.14	11.99	-40.8	-46.0	9.8	1.37e-02	0	55	0	15728640	53	6479
2026-01-01 00:39:08.40	5.86	12.34	-40.3	-44.0	12.8	1.38e-04	0	55	0	23068672	52	5413
2026-01-01 00:39:12.45	5.56	12.70	-39.4	-42.3	14.7	1.50e-06	0	55	0	31457280	50	4992
2026-01-01 00:39:16.48	5.26	13.07	-39.6	-42.6	14.5	7.00e-07	0	55	0	38797312	50	5164
2026-01-01 00:39:20.52	4.95	13.44	-38.9	-41.5	15.6	0.00e+00	0	55	0	46137344	49	4845
2026-01-01 00:39:24.56	4.64	13.81	-38.9	-41.5	15.6	0.00e+00	0	55	0	53477376	49	4851
2026-01-01 00:39:28.60	4.31	14.19	-39.2	-41.9	15.4	0.00e+00	0	55	0	61865984	49	5071
2026-01-01 00:39:32.64	3.97	14.57	-38.9	-41.4	15.9	0.00e+00	0	55	0	69206016	49	4761
2026-01-01 00:39:36.68	3.63	14.96	-39.1	-41.7	15.7	0.00e+00	0	55	0	76546048	49	4939
2026-01-01 00:39:40.72	3.28	15.36	-39.2	-41.7	15.7	0.00e+00	0	55	0	83886080	49	4971
2026-01-01 00:39:44.76	2.91	15.76	-39.2	-41.8	15.7	0.00e+00	0	55	0	91226112	49	4984
2026-01-01 00:39:48.80	2.54	16.16	-39.2	-41.7	15.8	0.00e+00	0	55	0	99614720	49	4936
2026-01-01 00:39:52.83	2.16	16.57	-39.2	-41.7	15.7	0.00e+00	0	56	0	106954752	49	4958
2026-01-01 00:39:56.87	1.76	16.99	-39.2	-41.8	15.7	0.00e+00	0	56	0	114294784	49	4996
2026-01-01 00:40:00.91	1.35	17.41	-39.5	-42.1	15.4	0.00e+00	0	55	0	121634816	49	5206
2026-01-01 00:40:04.95	0.94	17.84	-39.8	-42.6	15.0	0.00e+00	0	56	0	130023424	50	5201
2026-01-01 00:40:08.99	0.50	18.27	-39.8	-42.6	15.0	7.00e-07	0	56	0	137363456	50	5214
2026-01-01 00:40:13.03	0.06	18.71	-39.7	-42.4	15.2	0.00e+00	0	56	0	144703488	50	5071
2026-01-01 00:40:17.07	359.60	19.15	-39.6	-42.1	15.5	0.00e+00	0	56	0	152043520	50	4885
2026-01-01 00:40:21.11	359.13	19.61	-40.0	-42.8	14.8	0.00e+00	0	56	0	159383552	50	5339
2026-01-01 00:40:25.15	358.64	20.06	-39.8	-42.4	15.2	0.00e+00	0	56	0	167772160	50	5091
2026-01-01 00:40:29.20	358.14	20.53	-39.8	-42.4	15.2	0.00e+00	0	56	0	175112192	50	5084
2026-01-01 00:40:33.23	357.62	21.00	-39.3	-41.7	16.0	0.00e+00	0	56	0	182452224	50	4693
2026-01-01 00:40:37.27	357.09	21.47	-39.4	-41.9	15.9	0.00e+00	0	56	0	189792256	50	4766
2026-01-01 00:40:41.30	356.54	21.96	-39.6	-42.2	15.5	0.00e+00	0	56	0	198180864	50	4953
2026-01-01 00:40:45.34	355.97	22.45	-40.0	-42.7	15.0	0.00e+00	0	56	0	205520896	50	5261
2026-01-01 00:40:49.38	355.38	22.94	-39.8	-42.5	15.2	0.00e+00	0	56	0	212860928	50	5155
2026-01-01 00:40:53.42	354.77	23.44	-39.7	-42.4	15.4	0.00e+00	0	56	0	220200960	50	5071
2026-01-01 00:40:57.46	354.14	23.95	-40.1	-43.0	14.8	1.50e-06	0	56	0	227540992	50	5456
2026-01-01 00:41:01.50	353.49	24.47	-39.9	-42.8	15.0	0.00e+00	0	56	0	235929600	50	5283
2026-01-01 00:41:05.54	352.82	24.99	-39.8	-42.6	15.2	0.00e+00	0	56	0	243269632	50	5195
2026-01-01 00:41:09.58	352.12	25.51	-39.9	-42.7	15.1	0.00e+00	0	56	0	250609664	50	5253
2026-01-01 00:41:13.62	351.41	26.04	-39.8	-42.5	15.3	0.00e+00	0	57	0	257949696	50	5137
2026-01-01 00:41:17.65	350.66	26.58	-39.7	-42.3	15.4	0.00e+00	0	56	0	266338304	50	5032
2026-01-01 00:41:21.69	349.89	27.12	-40.0	-42.9	14.9	0.00e+00	0	56	0	273678336	50	5384
2026-01-01 00:41:25.73	349.09	27.67	-40.5	-43.7	14.1	5.30e-06	0	56	0	281018368	51	5537
2026-01-01 00:41:29.77	348.27	28.22	-40.4	-43.6	14.1	7.00e-07	0	57	0	288358400	52	5171
2026-01-01 00:41:33.81	347.41	28.78	-40.4	-43.3	14.5	1.50e-06	0	56	0	295698432	52	5031
2026-01-01 00:41:37.85	346.53	29.34	-40.9	-44.3	13.5	7.60e-06	0	57	0	304087040	52	5619
2026-01-01 00:41:41.88	345.61	29.90	-41.1	-44.7	13.1	1.83e-05	0	57	0	311427072	53	5585
2026-01-01 00:41:45.92	344.66	30.47	-41.7	-46.0	11.9	4.12e-04	0	57	0	318767104	54	6078
2026-01-01 00:41:49.96	343.67	31.03	-41.2	-44.9	12.9	5.41e-05	0	57	0	326107136	54	5386
2026-01-01 00:41:54.00	342.65	31.60	-42.0	-46.5	11.4	6.20e-04	0	57	0	334495744	54	6490
2026-01-01 00:41:58.03	341.60	32.17	-41.6	-45.4	12.5	6.71e-05	0	57	0	341835776	54	5710
2026-01-01 00:42:02.07	340.50	32.74	-42.0	-46.3	11.6	2.59e-04	0	57	0	349175808	54	6339
2026-01-01 00:42:06.11	339.36	33.30	-40.9	-44.1	13.8	2.05e-05	0	57	0	356515840	53	5211
2026-01-01 00:42:10.15	338.19	33.87	-40.3	-43.1	14.8	0.00e+00	0	57	0	363855872	52	4885
2026-01-01 00:42:14.19	336.97	34.43	-40.7	-43.9	14.0	2.20e-06	0	57	0	372244480	52	5392
2026-01-01 00:42:18.23	335.70	34.98	-40.5	-43.6	14.2	0.00e+00	0	57	0	379584512	52	5169
2026-01-01 00:42:22.27	334.40	35.53	-40.8	-44.1	13.9	6.10e-06	0	57	0	386924544	52	5488
2026-01-01 00:42:26.31	333.05	36.07	-40.9	-44.4	13.6	6.80e-06	0	57	0	394264576	52	5685
2026-01-01 00:42:30.34	331.66	36.60	-41.7	-46.0	11.8	3.11e-04	0	57	0	402653184	53	6469
2026-01-01 00:42:34.38	330.22	37.12	-41.9	-46.9	10.9	9.85e-04	0	57	0	409993216	54	6724
2026-01-01 00:42:38.42	328.73	37.62	-41.0	-44.7	13.2	2.13e-05	0	57	0	417333248	53	5551
2026-01-01 00:42:42.46	327.19	38.11	-40.4	-43.5	14.3	2.20e-06	0	57	0	424673280	52	5153
2026-01-01 00:42:46.50	325.61	38.59	-40.3	-43.5	14.4	0.00e+00	0	57	0	432013312	52	5117
2026-01-01 00:42:50.54	323.98	39.04	-39.4	-42.0	15.9	0.00e+00	0	57	0	440401920	50	4854
2026-01-01 00:42:54.58	322.31	39.47	-40.4	-43.8	14.2	1.50e-06	0	57	0	447741952	51	5611
2026-01-01 00:42:58.62	320.59	39.88	-39.7	-42.5	15.3	0.00e+00	0	57	0	455081984	51	4868
2026-01-01 00:43:02.66	318.84	40.26	-40.3	-43.7	14.3	0.00e+00	0	57	0	462422016	51	5542
2026-01-01 00:43:06.69	317.04	40.62	-38.6	-40.9	16.9	0.00e+00	0	57	0	470810624	49	4527
2026-01-01 00:43:10.74	315.20	40.94	-37.6	-39.7	18.0	0.00e+00	0	57	0	478150656	47	4399
2026-01-01 00:43:14.78	313.32	41.24	-38.7	-41.1	16.7	0.00e+00	0	57	0	485490688	48	4925
2026-01-01 00:43:18.82	311.41	41.50	-39.5	-42.2	15.6	0.00e+00	0	57	0	492830720	49	5246
2026-01-01 00:43:22.86	309.48	41.73	-40.3	-43.5	14.4	2.20e-06	0	57	0	500170752	51	5441
2026-01-01 00:43:26.90	307.51	41.92	-38.8	-41.2	16.6	0.00e+00	0	57	0	508559360	49	4690
2026-01-01 00:43:30.94	305.53	42.07	-39.6	-42.4	15.6	0.00e+00	0	57	0	515899392	49	5374
2026-01-01 00:43:34.98	303.53	42.18	-38.8	-41.0	16.8	0.00e+00	0	57	0	523239424	49	4596
2026-01-01 00:43:39.02	301.51	42.26	-39.3	-41.8	16.2	0.00e+00	0	57	0	530579456	49	5033
2026-01-01 00:43:43.06	299.49	42.29	-39.9	-42.8	15.3	0.00e+00	0	57	0	538968064	50	5291
2026-01-01 00:43:47.10	297.47	42.29	-39.9	-42.9	15.1	0.00e+00	0	57	0	546308096	50	5349
2026-01-01 00:43:51.14	295.45	42.24	-40.0	-43.1	14.8	0.00e+00	0	57	0	553648128	51	5193
2026-01-01 00:43:55.19	293.44	42.15	-40.6	-44.2	13.8	0.00e+00	0	57	0	560988160	51	5890
2026-01-01 00:43:59.23	291.44	42.03	-41.1	-45.2	12.6	1.07e-04	0	57	0	569376768	53	5865
2026-01-01 00:44:03.27	289.46	41.87	-41.4	-45.8	12.0	2.43e-04	0	57	0	576716800	53	6289
2026-01-01 00:44:07.31	287.50	41.67	-41.3	-45.8	12.2	1.06e-04	0	57	0	584056832	53	6306
2026-01-01 00:44:11.34	285.57	41.43	-42.0	-47.6	10.2	3.54e-03	0	57	0	591396864	54	7343
2026-01-01 00:44:15.38	283.67	41.16	-40.9	-45.1	12.5	1.14e-04	0	57	0	598736896	53	5831
2026-01-01 00:44:19.42	281.80	40.85	-41.2	-46.0	11.7	5.17e-04	0	57	0	607125504	53	6443
2026-01-01 00:44:23.46	279.97	40.52	-39.8	-42.7	15.1	0.00e+00	0	57	0	614465536	51	4961
2026-01-01 00:44:27.50	278.18	40.16	-39.3	-42.0	16.0	0.00e+00	0	57	0	621805568	49	5101
2026-01-01 00:44:31.55	276.42	39.76	-38.6	-40.9	17.0	0.00e+00	0	57	0	629145600	48	4789
2026-01-01 00:44:35.58	274.72	39.35	-37.7	-39.8	17.9	0.00e+00	0	57	0	637534208	46	4757
2026-01-01 00:44:39.62	273.06	38.91	-37.4	-39.4	18.3	0.00e+00	0	57	0	644874240	46	4502
2026-01-01 00:44:43.66	271.44	38.45	-37.5	-39.5	18.1	0.00e+00	0	57	0	652214272	46	4585
2026-01-01 00:44:47.70	269.87	37.97	-39.0	-41.5	16.3	0.00e+00	0	57	0	659554304	48	5132
2026-01-01 00:44:51.74	268.34	37.47	-37.9	-40.0	17.7	0.00e+00	0	57	0	666894336	47	4569
2026-01-01 00:44:55.78	266.86	36.96	-39.0	-41.1	17.0	0.00e+00	0	57	0	675282944	49	4635
2026-01-01 00:44:59.82	265.43	36.44	-37.9	-39.7	18.3	0.00e+00	0	57	0	682622976	47	4394
2026-01-01 00:45:03.85	264.04	35.91	-39.8	-42.1	16.0	0.00e+00	0	57	0	689963008	50	4899
2026-01-01 00:45:07.89	262.70	35.36	-39.1	-41.2	16.9	0.00e+00	0	57	0	697303040	49	4660
2026-01-01 00:45:11.93	261.40	34.81	-39.4	-41.5	16.5	0.00e+00	0	57	0	705691648	49	4856
2026-01-01 00:45:15.98	260.15	34.25	-40.2	-42.7	15.4	0.00e+00	0	57	0	713031680	51	4936
2026-01-01 00:45:20.02	258.93	33.69	-40.3	-42.9	15.1	0.00e+00	0	57	0	720371712	52	4814
2026-01-01 00:45:24.06	257.77	33.12	-40.4	-43.0	15.0	0.00e+00	0	57	0	727711744	52	4842
2026-01-01 00:45:28.10	256.64	32.55	-40.8	-43.8	14.2	3.00e-06	0	57	0	735051776	52	5314
2026-01-01 00:45:32.13	255.55	31.98	-40.6	-43.3	14.7	7.00e-07	0	57	0	743440384	52	5003
2026-01-01 00:45:36.17	254.50	31.41	-41.6	-45.1	13.0	1.83e-05	0	57	0	750780416	53	5793
2026-01-01 00:45:40.21	253.48	30.84	-42.5	-46.8	11.2	2.18e-03	0	57	0	758120448	56	5950
2026-01-01 00:45:44.25	252.50	30.27	-41.6	-45.2	12.8	7.24e-05	0	57	0	765460480	54	5555
2026-01-01 00:45:48.29	251.55	29.70	-41.3	-44.5	13.5	1.44e-05	0	58	0	773849088	54	5145
2026-01-01 00:45:52.33	250.64	29.14	-41.2	-44.4	13.5	8.30e-06	0	57	0	781189120	53	5392
2026-01-01 00:45:56.37	249.76	28.58	-40.3	-42.9	15.0	0.00e+00	0	58	0	788529152	52	4800
2026-01-01 00:46:00.41	248.91	28.02	-40.3	-43.0	14.9	0.00e+00	0	57	0	795869184	52	4823
2026-01-01 00:46:04.45	248.09	27.46	-39.7	-42.1	15.9	0.00e+00	0	57	0	803209216	51	4604
2026-01-01 00:46:08.50	247.29	26.91	-39.3	-41.5	16.5	0.00e+00	0	57	0	811597824	50	4550
2026-01-01 00:46:12.53	246.53	26.37	-39.6	-41.9	16.1	0.00e+00	0	57	0	818937856	50	4768
2026-01-01 00:46:16.57	245.79	25.83	-40.4	-43.1	14.9	0.00e+00	0	57	0	826277888	51	5191
2026-01-01 00:46:20.61	245.07	25.30	-41.2	-44.6	13.2	1.44e-05	0	58	0	833617920	53	5495
2026-01-01 00:46:24.65	244.38	24.78	-40.9	-43.9	13.9	7.00e-07	0	58	0	842006528	53	5088
2026-01-01 00:46:28.69	243.71	24.26	-40.4	-43.2	14.8	0.00e+00	0	57	0	849346560	52	4929
2026-01-01 00:46:32.73	243.06	23.74	-39.9	-42.3	15.7	0.00e+00	0	57	0	856686592	51	4725
2026-01-01 00:46:36.77	242.44	23.23	-39.9	-42.3	15.6	0.00e+00	0	58	0	864026624	51	4755
2026-01-01 00:46:40.81	241.83	22.73	-39.4	-41.6	16.3	0.00e+00	0	57	0	871366656	50	4610
2026-01-01 00:46:44.85	241.24	22.23	-39.2	-41.3	16.4	0.00e+00	0	58	0	879755264	50	4486
2026-01-01 00:46:48.89	240.68	21.75	-40.7	-43.7	14.2	7.00e-07	0	58	0	887095296	52	5227
2026-01-01 00:46:52.92	240.13	21.26	-41.2	-44.5	13.1	3.43e-05	0	57	0	894435328	53	5462
2026-01-01 00:46:56.96	239.59	20.79	-40.5	-43.3	14.4	1.50e-06	0	58	0	901775360	52	5041
2026-01-01 00:47:01.00	239.08	20.32	-40.2	-42.8	15.0	0.00e+00	0	57	0	910163968	51	5029
2026-01-01 00:47:05.04	238.57	19.85	-40.5	-43.2	14.6	0.00e+00	0	57	0	917504000	51	5261
2026-01-01 00:47:09.08	238.09	19.39	-40.3	-43.0	14.8	0.00e+00	0	58	0	924844032	52	4865
2026-01-01 00:47:13.12	237.62	18.94	-39.2	-41.3	16.5	0.00e+00	0	57	0	932184064	50	4477
2026-01-01 00:47:17.16	237.16	18.50	-39.3	-41.5	16.3	0.00e+00	0	57	0	939524096	49	4846
2026-01-01 00:47:21.20	236.72	18.06	-40.3	-42.9	14.9	0.00e+00	0	58	0	947912704	51	5100
2026-01-01 00:47:25.24	236.28	17.63	-40.3	-43.0	14.7	0.00e+00	0	58	0	955252736	51	5107
2026-01-01 00:47:29.28	235.86	17.20	-39.9	-42.3	15.5	0.00e+00	0	58	0	962592768	51	4755
2026-01-01 00:47:33.32	235.46	16.78	-39.9	-42.4	15.4	0.00e+00	0	58	0	969932800	51	4809
2026-01-01 00:47:37.36	235.06	16.36	-39.9	-42.4	15.3	0.00e+00	0	58	0	978321408	51	4790
2026-01-01 00:47:41.40	234.68	15.95	-40.1	-42.8	15.0	0.00e+00	0	58	0	985661440	51	4999
2026-01-01 00:47:45.43	234.30	15.55	-40.5	-43.5	14.1	3.00e-06	0	58	0	993001472	52	5124
2026-01-01 00:47:49.47	233.94	15.15	-40.7	-43.7	13.9	3.80e-06	0	58	0	1000341504	52	5264
2026-01-01 00:47:53.51	233.59	14.75	-40.1	-42.8	14.9	7.00e-07	0	58	0	1007681536	52	4706
2026-01-01 00:47:57.54	233.24	14.37	-39.5	-41.9	15.8	0.00e+00	0	58	0	1016070144	51	4527
2026-01-01 00:48:01.58	232.91	13.98	-39.5	-41.9	15.8	0.00e+00	0	58	0	1023410176	50	4761
2026-01-01 00:48:05.62	232.58	13.60	-39.8	-42.4	15.3	0.00e+00	0	58	0	1030750208	50	5044
2026-01-01 00:48:09.66	232.26	13.23	-39.9	-42.5	15.2	7.00e-07	0	58	0	1038090240	50	5113
2026-01-01 00:48:13.70	231.95	12.86	-39.9	-42.4	15.3	0.00e+00	0	58	0	1046478848	50	5066
2026-01-01 00:48:17.74	231.65	12.50	-40.1	-42.7	14.9	0.00e+00	0	58	0	1053818880	50	5263
2026-01-01 00:48:21.78	231.35	12.14	-40.3	-43.0	14.6	1.50e-06	0	58	0	1061158912	51	5153
2026-01-01 00:48:25.82	231.06	11.78	-40.4	-43.3	14.2	0.00e+00	0	57	0	1068498944	51	5328
2026-01-01 00:48:29.86	230.78	11.43	-40.4	-43.3	14.2	7.00e-07	0	58	0	1075838976	51	5332
2026-01-01 00:48:33.89	230.51	11.08	-40.7	-43.7	13.8	3.00e-06	0	58	0	1084227584	51	5576
2026-01-01 00:48:37.93	230.24	10.74	-41.0	-44.4	13.0	2.67e-05	0	58	0	1091567616	52	5680
2026-01-01 00:48:41.97	229.98	10.40	-41.3	-45.1	12.3	1.62e-04	0	58	0	1098907648	53	5834
2026-01-01 00:48:46.02	229.73	10.07	-41.5	-45.5	11.8	3.90e-04	0	58	0	1106247680	53	6128
2026-01-01 00:48:50.06	229.48	9.74	-41.3	-45.1	12.2	2.55e-04	0	58	0	1114636288	53	5846
2026-01-01 00:48:54.10	229.24	9.41	-40.8	-44.1	13.2	2.51e-05	0	58	0	1121976320	53	5199
2026-01-01 00:48:58.14	229.00	9.09	-40.4	-43.4	13.9	5.30e-06	0	58	0	1129316352	52	5077
2026-01-01 00:49:02.17	228.77	8.77	-40.2	-43.1	14.2	7.00e-07	0	58	0	1136656384	52	4879
2026-01-01 00:49:06.21	228.54	8.46	-40.2	-43.1	14.1	2.20e-06	0	58	0	1143996416	52	4896
2026-01-01 00:49:10.25	228.32	8.14	-40.5	-43.8	13.4	1.75e-05	0	58	0	1152385024	52	5294
2026-01-01 00:49:14.29	228.10	7.84	-44.7	-59.2	3.8	1.49e+00	0	58	104	1156579328	60	19750
2026-01-01 00:49:18.34	227.89	7.53	-45.0	-59.6	3.8	1.49e+00	0	58	104	1156579328	60	20598
2026-01-01 00:49:22.38	227.68	7.23	-45.1	-59.6	3.8	1.49e+00	0	58	104	1156579328	60	20691
2026-01-01 00:49:26.42	227.48	6.93	-45.0	-59.5	3.8	1.49e+00	0	58	104	1156579328	60	20522
2026-01-01 00:49:30.46	227.28	6.63	-45.0	-59.5	3.8	1.49e+00	0	58	104	1156579328	60	20493
2026-01-01 00:49:34.51	227.08	6.34	-45.0	-59.5	3.8	1.49e+00	0	58	104	1156579328	60	20473
2026-01-01 00:49:38.55	226.89	6.05	-45.0	-59.5	3.8	1.49e+00	0	58	104	1156579328	60	20442
2026-01-01 00:49:42.59	226.70	5.76	-45.0	-59.5	3.8	1.49e+00	0	58	104	1156579328	60	20465
2026-01-01 00:49:46.64	226.52	5.48	-45.0	-59.5	3.8	1.49e+00	0	58	104	1156579328	60	20507
2026-01-01 00:49:50.68	226.34	5.20	-44.9	-59.5	3.8	1.49e+00	0	58	104	1156579328	60	20459
2026-01-01 00:49:54.73	226.17	4.92	-44.9	-59.5	3.8	1.49e+00	0	58	104	1156579328	60	20413
2026-01-01 00:49:58.77	225.99	4.64	-44.9	-59.5	3.8	1.49e+00	0	58	104	1156579328	60	20396
2026-01-01 00:50:02.81	225.82	4.37	-44.9	-59.5	3.8	1.49e+00	0	58	104	1156579328	60	20379
2026-01-01 00:50:06.86	225.66	4.10	-44.9	-59.5	3.8	1.49e+00	0	58	104	1156579328	60	20389
2026-01-01 00:50:10.90	225.50	3.83	-44.9	-59.5	3.8	1.49e+00	0	58	104	1156579328	60	20391
2026-01-01 00:50:14.95	225.34	3.56	-44.9	-59.5	3.8	1.49e+00	0	58	104	1156579328	60	20367
2026-01-01 00:50:18.99	225.18	3.30	-44.9	-59.5	3.8	1.49e+00	0	58	104	1156579328	60	20377
2026-01-01 00:50:23.03	225.03	3.04	-44.9	-59.5	3.8	1.49e+00	0	58	104	1156579328	60	20375
2026-01-01 00:50:27.08	224.88	2.78	-44.9	-59.5	3.8	1.49e+00	0	58	104	1156579328	60	20367
2026-01-01 00:50:31.12	224.73	2.52	-44.9	-59.5	3.8	1.49e+00	0	58	104	1156579328	60	20371
2026-01-01 00:50:35.17	224.58	2.27	-44.9	-59.5	3.8	1.49e+00	0	58	104	1156579328	60	20324
2026-01-01 00:50:39.21	224.44	2.01	-44.9	-59.5	3.8	1.49e+00	0	58	104	1156579328	60	20350

#Closed at: 2026-01-01 00:50:40
#Recorded file [1156 MB]: D:/lorett/data/31039_260101_033646.dat