passes_logs/2026/01/01/R2.0S_Moscow/R2.0S_Moscow__20260101_090810_NOAA_20_JPSS-1_rec.log

#Pass ID: 20260101_090810_NOAA 20 (JPSS-1)
#Satellite: NOAA 20 (JPSS-1)
#Configuration: NOAA 20
#almurnet v.1.7.20251203
#Start time: 2026-01-01 09:08:10

#Version: 2.2.20231116
#Station: R2.0S_Moscow
#Location: 37.707566 lon 55.798166 lat
#TLE: 1 43013U 17073A   25365.45761817  .00000173  00000+0  10307-3 0  9993
#TLE: 2 43013  98.7620 301.5517 0001951  60.3814 299.7557 14.19531661420675

#Time	Az	El	Level	Level2	SNR	BER	BlckErr	Temp	State	Recorded	gain1	gain2
2026-01-01 09:08:10.17	137.87	1.96	-16.3	-30.4	3.4	1.51e+00	0	49	0	0	6	16020
2026-01-01 09:08:14.20	137.74	2.22	-21.4	-36.9	3.5	1.51e+00	0	49	104	0	11	25515
2026-01-01 09:08:18.24	137.61	2.47	-27.5	-39.9	3.6	1.51e+00	0	50	104	0	1	63554
2026-01-01 09:08:22.28	137.48	2.73	-24.6	-42.0	3.9	1.50e+00	0	50	104	0	18	30385
2026-01-01 09:08:26.33	137.34	2.99	-19.0	-41.0	6.1	1.51e+00	0	50	104	0	10	43384
2026-01-01 09:08:30.37	137.20	3.25	-29.8	-43.2	3.9	1.51e+00	0	50	104	0	21	29637
2026-01-01 09:08:34.41	137.06	3.52	-27.8	-43.3	4.0	1.51e+00	0	50	104	0	21	29810
2026-01-01 09:08:38.46	136.91	3.79	-27.6	-45.5	4.1	1.51e+00	0	51	104	0	25	30499
2026-01-01 09:08:42.50	136.77	4.06	-18.6	-36.6	3.4	1.49e+00	0	51	104	0	18	16501
2026-01-01 09:08:46.55	136.62	4.33	-12.5	-36.2	3.6	1.51e+00	0	51	104	0	0	44025
2026-01-01 09:08:50.59	136.46	4.60	-23.8	-36.5	3.9	1.50e+00	0	52	104	0	18	16209
2026-01-01 09:08:54.63	136.31	4.88	-23.8	-43.0	3.4	1.51e+00	0	52	104	0	21	28902
2026-01-01 09:08:58.68	136.15	5.16	-26.5	-41.3	3.8	1.51e+00	0	52	104	0	19	26714
2026-01-01 09:09:02.71	135.99	5.45	-25.6	-42.1	4.0	1.51e+00	0	52	104	0	20	27505
2026-01-01 09:09:06.75	135.82	5.73	-21.8	-44.3	4.2	1.51e+00	0	52	104	0	25	26478
2026-01-01 09:09:10.79	135.65	6.02	-29.2	-44.6	3.5	1.50e+00	0	53	104	0	22	32606
2026-01-01 09:09:14.84	135.48	6.31	-29.3	-45.3	4.7	1.51e+00	0	53	104	0	23	33572
2026-01-01 09:09:18.88	135.30	6.61	-20.6	-43.5	4.0	1.50e+00	0	53	104	0	18	36517
2026-01-01 09:09:22.92	135.12	6.91	-29.6	-45.7	4.3	1.51e+00	0	53	104	0	28	26263
2026-01-01 09:09:26.96	134.93	7.21	-18.5	-43.2	3.8	1.51e+00	0	53	104	0	13	46939
2026-01-01 09:09:31.01	134.74	7.51	-22.3	-40.5	3.3	1.50e+00	0	53	104	0	6	51018
2026-01-01 09:09:35.05	134.55	7.82	-29.5	-46.9	4.1	1.50e+00	0	54	104	0	25	35973
2026-01-01 09:09:39.09	134.35	8.13	-21.4	-34.9	3.6	1.49e+00	0	54	104	0	12	19016
2026-01-01 09:09:43.13	134.15	8.45	-34.2	-51.1	4.4	1.51e+00	0	54	104	0	39	26134
2026-01-01 09:09:47.18	133.95	8.77	-17.3	-33.0	3.4	1.50e+00	0	54	104	0	10	17259
2026-01-01 09:09:51.22	133.73	9.09	-17.2	-32.3	3.5	1.50e+00	0	54	104	0	10	15884
2026-01-01 09:09:55.26	133.52	9.42	-20.8	-34.9	3.6	1.50e+00	0	54	104	0	12	18978
2026-01-01 09:09:59.31	133.30	9.75	-17.0	-31.0	3.5	1.50e+00	0	54	104	0	6	17165
2026-01-01 09:10:03.35	133.07	10.08	-21.1	-34.2	3.3	1.50e+00	0	54	104	0	9	20995
2026-01-01 09:10:07.39	132.84	10.42	-17.9	-34.8	3.8	1.50e+00	0	55	104	0	11	20009
2026-01-01 09:10:11.43	132.60	10.76	-21.2	-35.1	4.0	1.50e+00	0	54	104	0	12	19597
2026-01-01 09:10:15.47	132.36	11.11	-22.3	-33.9	3.6	1.49e+00	0	55	104	0	3	28381
2026-01-01 09:10:19.52	132.11	11.46	-23.3	-37.4	4.3	1.50e+00	0	55	104	0	14	22543
2026-01-01 09:10:23.56	131.85	11.82	-22.7	-33.7	3.4	1.49e+00	0	55	104	0	8	20986
2026-01-01 09:10:27.60	131.59	12.18	-24.2	-37.5	4.3	1.49e+00	0	55	104	0	16	20352
2026-01-01 09:10:31.64	131.32	12.54	-18.7	-31.7	3.5	1.50e+00	0	55	104	0	9	15598
2026-01-01 09:10:35.68	131.04	12.91	-22.3	-34.6	4.2	1.48e+00	0	55	104	0	10	20541
2026-01-01 09:10:39.73	130.76	13.29	-21.8	-37.6	3.8	1.50e+00	0	55	104	0	15	21836
2026-01-01 09:10:43.77	130.46	13.67	-32.5	-39.6	5.4	1.34e+00	0	55	104	0	26	14687
2026-01-01 09:10:47.81	130.16	14.06	-27.0	-38.7	5.1	1.37e+00	0	55	104	0	26	13173
2026-01-01 09:10:51.85	129.86	14.45	-23.9	-37.3	7.1	1.79e-01	18	55	0	2097152	26	11190
2026-01-01 09:10:55.90	129.54	14.85	-26.0	-40.3	5.9	1.45e+00	8	55	104	3145728	28	14093
2026-01-01 09:10:59.94	129.21	15.25	-26.3	-37.9	5.3	2.94e-01	0	56	0	6291456	27	11381
2026-01-01 09:11:03.98	128.88	15.66	-26.5	-38.9	5.9	4.36e-01	16	56	0	10485760	24	15064
2026-01-01 09:11:08.01	128.54	16.07	-39.2	-41.7	15.1	3.96e-03	0	56	0	17825792	48	5276
2026-01-01 09:11:12.05	128.18	16.49	-39.3	-41.7	15.8	1.26e-03	0	56	0	25165824	49	4966
2026-01-01 09:11:16.09	127.82	16.92	-39.2	-41.7	15.9	1.50e-06	0	56	0	32505856	49	4964
2026-01-01 09:11:20.13	127.44	17.35	-39.6	-42.1	15.6	2.13e-05	0	56	0	39845888	49	5183
2026-01-01 09:11:24.17	127.06	17.79	-39.4	-41.7	16.1	1.37e-04	0	56	0	48234496	49	4940
2026-01-01 09:11:28.21	126.66	18.23	-39.3	-41.7	16.1	7.00e-07	0	56	0	55574528	49	4928
2026-01-01 09:11:32.25	126.25	18.69	-39.3	-41.5	16.2	3.00e-06	0	56	0	62914560	49	4854
2026-01-01 09:11:36.29	125.83	19.14	-39.5	-41.9	16.0	0.00e+00	0	56	0	70254592	49	5051
2026-01-01 09:11:40.33	125.39	19.61	-39.3	-41.6	16.3	2.20e-06	0	56	0	77594624	49	4871
2026-01-01 09:11:44.37	124.94	20.08	-39.6	-41.9	15.9	0.00e+00	0	56	0	85983232	49	5088
2026-01-01 09:11:48.41	124.48	20.56	-39.6	-41.9	15.9	0.00e+00	0	56	0	93323264	49	5092
2026-01-01 09:11:52.45	124.00	21.05	-39.3	-41.6	16.3	0.00e+00	0	56	0	100663296	49	4890
2026-01-01 09:11:56.49	123.50	21.55	-39.4	-41.7	16.2	0.00e+00	0	56	0	108003328	49	4944
2026-01-01 09:12:00.53	122.99	22.05	-39.5	-41.8	16.1	0.00e+00	0	56	0	116391936	49	5034
2026-01-01 09:12:04.57	122.46	22.56	-39.6	-41.9	16.1	0.00e+00	0	57	0	123731968	49	5074
2026-01-01 09:12:08.62	121.91	23.08	-39.5	-41.7	16.3	0.00e+00	0	56	0	131072000	49	4964
2026-01-01 09:12:12.66	121.35	23.60	-39.6	-41.9	16.1	0.00e+00	0	57	0	138412032	49	5045
2026-01-01 09:12:16.70	120.76	24.13	-39.7	-42.0	16.0	0.00e+00	0	56	0	145752064	49	5133
2026-01-01 09:12:20.74	120.15	24.67	-39.8	-42.1	15.9	0.00e+00	0	57	0	154140672	50	4904
2026-01-01 09:12:24.78	119.53	25.22	-39.6	-41.9	16.2	0.00e+00	0	57	0	161480704	50	4790
2026-01-01 09:12:28.82	118.88	25.78	-39.7	-42.0	16.0	0.00e+00	0	56	0	168820736	50	4857
2026-01-01 09:12:32.86	118.20	26.34	-39.8	-42.2	15.8	0.00e+00	0	57	0	176160768	50	4965
2026-01-01 09:12:36.90	117.50	26.91	-39.8	-42.2	15.8	0.00e+00	0	57	0	184549376	50	4966
2026-01-01 09:12:40.94	116.78	27.48	-39.8	-42.1	15.9	0.00e+00	0	57	0	191889408	50	4908
2026-01-01 09:12:44.98	116.03	28.07	-40.3	-42.8	15.3	0.00e+00	0	57	0	199229440	51	5032
2026-01-01 09:12:49.03	115.24	28.66	-40.7	-43.5	14.5	0.00e+00	0	57	0	206569472	52	5136
2026-01-01 09:12:53.06	114.44	29.26	-40.8	-43.7	14.3	0.00e+00	0	57	0	213909504	52	5232
2026-01-01 09:12:57.11	113.59	29.86	-41.5	-45.0	13.0	3.35e-05	0	57	0	222298112	53	5751
2026-01-01 09:13:01.15	112.72	30.47	-42.1	-46.1	11.9	2.86e-04	0	57	0	229638144	54	6163
2026-01-01 09:13:05.19	111.81	31.08	-41.9	-45.7	12.2	2.67e-04	0	57	0	236978176	54	5898
2026-01-01 09:13:09.23	110.87	31.70	-41.7	-45.2	12.9	6.94e-05	0	57	0	244318208	54	5531
2026-01-01 09:13:13.26	109.89	32.32	-41.9	-45.6	12.4	1.36e-04	0	57	0	252706816	54	5797
2026-01-01 09:13:17.31	108.87	32.95	-41.8	-45.5	12.6	7.17e-05	0	57	0	260046848	54	5726
2026-01-01 09:13:21.34	107.81	33.58	-41.7	-45.2	12.8	1.20e-04	0	57	0	267386880	54	5580
2026-01-01 09:13:25.38	106.71	34.21	-41.2	-44.3	13.7	9.10e-06	0	57	0	274726912	54	5018
2026-01-01 09:13:29.42	105.57	34.84	-40.5	-43.1	14.9	0.00e+00	0	57	0	283115520	53	4650
2026-01-01 09:13:33.47	104.38	35.46	-40.4	-43.1	14.9	0.00e+00	0	57	0	290455552	52	4880
2026-01-01 09:13:37.51	103.14	36.09	-40.1	-42.6	15.5	0.00e+00	0	57	0	297795584	52	4633
2026-01-01 09:13:41.54	101.86	36.71	-40.4	-43.0	15.1	0.00e+00	0	57	0	305135616	52	4851
2026-01-01 09:13:45.58	100.52	37.33	-40.4	-43.1	15.0	0.00e+00	0	57	0	312475648	52	4873
2026-01-01 09:13:49.62	99.14	37.94	-40.6	-43.4	14.7	7.00e-07	0	57	0	320864256	52	5068
2026-01-01 09:13:53.67	97.69	38.54	-40.6	-43.3	14.8	7.00e-07	0	57	0	328204288	52	5021
2026-01-01 09:13:57.70	96.20	39.13	-40.8	-43.7	14.4	0.00e+00	0	57	0	335544320	52	5221
2026-01-01 09:14:01.74	94.66	39.70	-40.5	-43.2	14.9	0.00e+00	0	57	0	342884352	52	4952
2026-01-01 09:14:05.78	93.05	40.26	-40.0	-42.3	15.9	0.00e+00	0	57	0	351272960	51	4732
2026-01-01 09:14:09.82	91.40	40.81	-39.9	-42.2	16.1	0.00e+00	0	57	0	358612992	51	4656
2026-01-01 09:14:13.85	89.69	41.33	-39.3	-41.3	16.9	0.00e+00	0	57	0	365953024	50	4478
2026-01-01 09:14:17.90	87.91	41.83	-39.2	-41.3	17.0	0.00e+00	0	57	0	373293056	50	4457
2026-01-01 09:14:21.94	86.09	42.31	-39.9	-42.2	16.1	0.00e+00	0	57	0	380633088	50	4968
2026-01-01 09:14:25.98	84.21	42.75	-40.0	-42.4	15.9	0.00e+00	0	57	0	389021696	50	5077
2026-01-01 09:14:30.02	82.29	43.17	-39.5	-41.7	16.6	0.00e+00	0	57	0	396361728	50	4672
2026-01-01 09:14:34.06	80.31	43.55	-39.8	-42.0	16.3	0.00e+00	0	57	0	403701760	50	4852
2026-01-01 09:14:38.10	78.29	43.90	-39.6	-41.8	16.5	0.00e+00	0	57	0	411041792	50	4753
2026-01-01 09:14:42.14	76.22	44.21	-39.7	-41.9	16.4	0.00e+00	0	57	0	419430400	50	4801
2026-01-01 09:14:46.17	74.13	44.48	-40.2	-42.7	15.7	0.00e+00	0	58	0	426770432	51	4931
2026-01-01 09:14:50.21	71.99	44.70	-40.3	-42.8	15.6	0.00e+00	0	57	0	434110464	51	4985
2026-01-01 09:14:54.25	69.83	44.89	-40.6	-43.2	15.0	0.00e+00	0	57	0	441450496	51	5266
2026-01-01 09:14:58.29	67.65	45.02	-40.6	-43.2	15.1	0.00e+00	0	57	0	448790528	51	5235
2026-01-01 09:15:02.33	65.45	45.12	-40.7	-43.4	14.8	0.00e+00	0	57	0	457179136	52	5070
2026-01-01 09:15:06.37	63.24	45.16	-40.7	-43.5	14.7	0.00e+00	0	57	0	464519168	52	5118
2026-01-01 09:15:10.41	61.03	45.16	-41.1	-44.0	14.3	0.00e+00	0	57	0	471859200	52	5414
2026-01-01 09:15:14.45	58.82	45.11	-41.4	-44.5	13.7	7.60e-06	0	57	0	479199232	53	5421
2026-01-01 09:15:18.49	56.63	45.01	-41.4	-44.6	13.6	6.80e-06	0	58	0	487587840	53	5469
2026-01-01 09:15:22.53	54.45	44.87	-41.9	-45.4	12.7	9.38e-05	0	57	0	494927872	54	5716
2026-01-01 09:15:26.57	52.29	44.68	-42.3	-46.1	12.2	2.39e-04	0	57	0	502267904	55	5844
2026-01-01 09:15:30.61	50.16	44.45	-41.5	-44.7	13.5	1.75e-05	0	57	0	509607936	55	4982
2026-01-01 09:15:34.65	48.06	44.18	-40.8	-43.6	14.6	7.00e-07	0	57	0	516947968	53	4888
2026-01-01 09:15:38.69	46.01	43.86	-40.1	-42.6	15.7	0.00e+00	0	58	0	525336576	52	4608
2026-01-01 09:15:42.73	43.99	43.51	-39.7	-41.9	16.4	0.00e+00	0	58	0	532676608	51	4510
2026-01-01 09:15:46.77	42.03	43.13	-39.3	-41.3	17.0	0.00e+00	0	58	0	540016640	50	4473
2026-01-01 09:15:50.81	40.11	42.71	-38.6	-40.5	17.8	0.00e+00	0	57	0	547356672	49	4313
2026-01-01 09:15:54.85	38.24	42.26	-37.7	-39.4	18.7	0.00e+00	0	58	0	555745280	47	4275
2026-01-01 09:15:58.89	36.43	41.78	-37.8	-39.4	18.8	0.00e+00	0	57	0	563085312	46	4533
2026-01-01 09:16:02.93	34.67	41.28	-37.8	-39.5	18.8	0.00e+00	0	58	0	570425344	46	4546
2026-01-01 09:16:06.97	32.97	40.76	-38.2	-40.0	18.2	0.00e+00	0	58	0	577765376	46	4852
2026-01-01 09:16:11.01	31.32	40.22	-37.6	-39.3	18.9	0.00e+00	0	57	0	585105408	46	4465
2026-01-01 09:16:15.05	29.73	39.66	-38.4	-40.3	17.9	0.00e+00	0	58	0	593494016	47	4714
2026-01-01 09:16:19.08	28.19	39.08	-38.2	-40.0	18.2	0.00e+00	0	57	0	600834048	47	4577
2026-01-01 09:16:23.13	26.71	38.49	-38.7	-40.6	17.7	0.00e+00	0	58	0	608174080	47	4902
2026-01-01 09:16:27.16	25.28	37.90	-39.1	-41.1	17.2	0.00e+00	0	58	0	615514112	48	4896
2026-01-01 09:16:31.20	23.91	37.29	-38.9	-40.8	17.5	0.00e+00	0	57	0	623902720	48	4733
2026-01-01 09:16:35.24	22.58	36.67	-39.5	-41.6	16.7	0.00e+00	0	57	0	631242752	49	4906
2026-01-01 09:16:39.28	21.31	36.05	-40.0	-42.3	16.0	0.00e+00	0	57	0	638582784	50	5026
2026-01-01 09:16:43.32	20.08	35.43	-40.5	-43.1	15.3	7.00e-07	0	57	0	645922816	51	5162
2026-01-01 09:16:47.36	18.90	34.80	-41.1	-44.0	14.2	1.50e-06	0	58	0	653262848	52	5464
2026-01-01 09:16:51.40	17.76	34.18	-41.3	-44.5	13.7	6.10e-06	0	58	0	661651456	53	5451
2026-01-01 09:16:55.44	16.67	33.55	-42.0	-45.7	12.4	7.93e-05	0	57	0	668991488	54	5885
2026-01-01 09:16:59.48	15.62	32.93	-41.8	-45.4	12.7	1.04e-04	0	57	0	676331520	54	5713
2026-01-01 09:17:03.52	14.61	32.30	-41.7	-45.2	12.9	6.10e-05	0	58	0	683671552	54	5565
2026-01-01 09:17:07.56	13.64	31.69	-41.5	-44.9	13.3	2.36e-05	0	57	0	692060160	54	5365
2026-01-01 09:17:11.60	12.70	31.07	-41.1	-44.2	13.9	4.50e-06	0	58	0	699400192	54	4948
2026-01-01 09:17:15.64	11.80	30.46	-40.7	-43.5	14.6	0.00e+00	0	57	0	706740224	53	4830
2026-01-01 09:17:19.68	10.94	29.85	-41.0	-44.1	14.0	1.50e-06	0	58	0	714080256	53	5168
2026-01-01 09:17:23.72	10.10	29.25	-40.9	-43.9	14.2	1.50e-06	0	58	0	722468864	53	5064
2026-01-01 09:17:27.76	9.30	28.66	-40.9	-43.8	14.3	0.00e+00	0	58	0	729808896	53	5004
2026-01-01 09:17:31.79	8.53	28.08	-40.9	-43.9	14.2	2.20e-06	0	58	0	737148928	53	5044
2026-01-01 09:17:35.83	7.78	27.49	-40.7	-43.6	14.5	7.00e-07	0	57	0	744488960	53	4906
2026-01-01 09:17:39.87	7.06	26.92	-40.9	-43.9	14.1	0.00e+00	0	58	0	751828992	53	5070
2026-01-01 09:17:43.91	6.37	26.35	-40.5	-43.2	14.8	0.00e+00	0	58	0	760217600	52	4952
2026-01-01 09:17:47.94	5.70	25.80	-40.5	-43.3	14.7	0.00e+00	0	57	0	767557632	52	5016
2026-01-01 09:17:51.98	5.06	25.24	-40.4	-43.1	14.9	0.00e+00	0	57	0	774897664	52	4909
2026-01-01 09:17:56.02	4.44	24.70	-40.4	-43.2	14.8	0.00e+00	0	57	0	782237696	52	4936
2026-01-01 09:18:00.06	3.84	24.16	-40.3	-43.0	15.0	0.00e+00	0	57	0	789577728	52	4861
2026-01-01 09:18:04.10	3.26	23.63	-40.2	-42.7	15.2	0.00e+00	0	58	0	797966336	52	4702
2026-01-01 09:18:08.14	2.70	23.11	-40.0	-42.5	15.5	0.00e+00	0	57	0	805306368	51	4850
2026-01-01 09:18:12.17	2.16	22.60	-40.2	-42.8	15.2	0.00e+00	0	58	0	812646400	51	5040
2026-01-01 09:18:16.21	1.63	22.09	-40.2	-42.9	15.2	0.00e+00	0	58	0	819986432	51	5048
2026-01-01 09:18:20.25	1.12	21.59	-40.1	-42.6	15.4	0.00e+00	0	58	0	828375040	51	4912
2026-01-01 09:18:24.29	0.63	21.10	-40.1	-42.7	15.3	0.00e+00	0	58	0	835715072	51	4933
2026-01-01 09:18:28.34	0.16	20.62	-40.2	-42.9	15.0	0.00e+00	0	58	0	843055104	51	5065
2026-01-01 09:18:32.38	359.70	20.14	-40.3	-43.0	14.9	0.00e+00	0	58	0	850395136	51	5114
2026-01-01 09:18:36.42	359.25	19.67	-40.1	-42.7	15.1	0.00e+00	0	58	0	857735168	51	4947
2026-01-01 09:18:40.46	358.82	19.20	-40.1	-42.8	15.0	0.00e+00	0	57	0	866123776	51	4995
2026-01-01 09:18:44.50	358.40	18.75	-40.2	-42.9	14.9	7.00e-07	0	58	0	873463808	51	5054
2026-01-01 09:18:48.54	358.00	18.30	-40.0	-42.7	15.1	0.00e+00	0	58	0	880803840	51	4937
2026-01-01 09:18:52.58	357.61	17.85	-40.3	-43.3	14.3	7.00e-07	0	58	0	888143872	51	5283
2026-01-01 09:18:56.61	357.22	17.42	-40.2	-43.1	14.3	0.00e+00	0	57	0	896532480	51	5202
2026-01-01 09:19:00.65	356.85	16.99	-39.9	-43.0	14.0	3.00e-06	0	58	0	903872512	51	5136
2026-01-01 09:19:04.69	356.49	16.56	-40.1	-43.9	12.4	9.46e-05	0	58	0	911212544	51	5663
2026-01-01 09:19:08.73	356.14	16.15	-40.6	-46.5	8.8	2.57e-02	0	58	0	918552576	51	7643
2026-01-01 09:19:12.78	355.80	15.73	-40.7	-49.7	5.3	4.75e-01	0	58	0	926941184	52	10459
2026-01-01 09:19:16.82	355.47	15.33	-40.4	-52.6	3.8	1.45e+00	0	57	104	931135488	52	14708
2026-01-01 09:19:20.86	355.15	14.93	-40.1	-54.0	3.8	1.49e+00	0	58	104	931135488	52	17212
2026-01-01 09:19:24.90	354.84	14.53	-40.1	-54.6	3.8	1.49e+00	0	58	104	931135488	52	18317
2026-01-01 09:19:28.94	354.54	14.14	-40.0	-54.6	3.8	1.49e+00	0	58	104	931135488	52	18468
2026-01-01 09:19:32.98	354.24	13.76	-40.0	-54.7	3.8	1.49e+00	0	58	104	931135488	52	18661
2026-01-01 09:19:37.02	353.96	13.38	-40.1	-54.9	3.8	1.49e+00	0	58	104	931135488	51	20218
2026-01-01 09:19:41.06	353.68	13.01	-39.6	-54.9	3.8	1.49e+00	0	58	104	931135488	51	20237
2026-01-01 09:19:45.10	353.41	12.64	-40.4	-55.0	3.8	1.49e+00	0	58	104	931135488	51	20493
2026-01-01 09:19:49.14	353.14	12.27	-39.9	-55.1	3.8	1.49e+00	0	58	104	931135488	50	21859
2026-01-01 09:19:53.18	352.88	11.92	-40.2	-55.2	3.8	1.49e+00	0	58	104	931135488	51	20801
2026-01-01 09:19:57.22	352.63	11.56	-39.8	-54.6	3.8	1.49e+00	0	58	104	931135488	50	20541
2026-01-01 09:20:01.27	352.38	11.21	-40.3	-54.8	3.8	1.49e+00	0	58	104	931135488	51	20067
2026-01-01 09:20:05.31	352.14	10.86	-40.1	-54.7	3.8	1.49e+00	0	58	104	931135488	51	19697
2026-01-01 09:20:09.35	351.91	10.52	-40.2	-54.8	3.8	1.49e+00	0	58	104	931135488	51	19954
2026-01-01 09:20:13.39	351.68	10.19	-40.0	-54.7	3.8	1.49e+00	0	58	104	931135488	51	19649
2026-01-01 09:20:17.43	351.46	9.85	-40.4	-55.0	3.8	1.49e+00	0	58	104	931135488	51	20376
2026-01-01 09:20:21.48	351.24	9.52	-40.5	-55.0	3.8	1.49e+00	0	58	104	931135488	51	20464
2026-01-01 09:20:25.52	351.03	9.20	-40.4	-55.0	3.8	1.49e+00	0	58	104	931135488	51	20523
2026-01-01 09:20:29.56	350.83	8.88	-40.3	-54.9	3.8	1.49e+00	0	58	104	931135488	52	19061
2026-01-01 09:20:33.60	350.62	8.56	-40.3	-54.9	3.8	1.49e+00	0	58	104	931135488	52	19059
2026-01-01 09:20:37.65	350.43	8.24	-40.7	-55.2	3.8	1.49e+00	0	58	104	931135488	52	19790
2026-01-01 09:20:41.69	350.23	7.93	-40.8	-55.4	3.8	1.49e+00	0	58	104	931135488	52	20164
2026-01-01 09:20:45.73	350.04	7.63	-44.9	-59.5	3.8	1.49e+00	0	58	104	931135488	60	20422
2026-01-01 09:20:49.78	349.86	7.32	-45.1	-59.7	3.8	1.49e+00	0	58	104	931135488	60	20872
2026-01-01 09:20:53.82	349.68	7.02	-45.0	-59.6	3.8	1.49e+00	0	58	104	931135488	60	20711
2026-01-01 09:20:57.87	349.50	6.72	-44.9	-59.5	3.8	1.49e+00	0	58	104	931135488	60	20482
2026-01-01 09:21:01.91	349.33	6.43	-45.0	-59.5	3.8	1.49e+00	0	58	104	931135488	60	20462
2026-01-01 09:21:05.95	349.16	6.14	-44.9	-59.5	3.8	1.49e+00	0	58	104	931135488	60	20474
2026-01-01 09:21:10.00	349.00	5.85	-44.9	-59.5	3.8	1.49e+00	0	58	104	931135488	60	20487
2026-01-01 09:21:14.04	348.84	5.57	-44.9	-59.5	3.8	1.49e+00	0	58	104	931135488	60	20403
2026-01-01 09:21:18.09	348.68	5.28	-44.9	-59.5	3.8	1.49e+00	0	58	104	931135488	60	20427
2026-01-01 09:21:22.13	348.53	5.00	-44.9	-59.5	3.8	1.49e+00	0	58	104	931135488	60	20423
2026-01-01 09:21:26.17	348.37	4.73	-44.9	-59.5	3.8	1.49e+00	0	58	104	931135488	60	20396
2026-01-01 09:21:30.22	348.23	4.45	-44.9	-59.5	3.8	1.49e+00	0	58	104	931135488	60	20391
2026-01-01 09:21:34.26	348.08	4.18	-44.9	-59.5	3.8	1.49e+00	0	58	104	931135488	60	20339
2026-01-01 09:21:38.30	347.94	3.91	-44.9	-59.5	3.8	1.49e+00	0	58	104	931135488	60	20324
2026-01-01 09:21:42.35	347.80	3.64	-44.9	-59.5	3.8	1.49e+00	0	58	104	931135488	60	20332
2026-01-01 09:21:46.39	347.66	3.38	-44.9	-59.5	3.8	1.49e+00	0	58	104	931135488	60	20357
2026-01-01 09:21:50.44	347.53	3.12	-44.9	-59.5	3.8	1.49e+00	0	58	104	931135488	60	20365
2026-01-01 09:21:54.48	347.40	2.86	-44.9	-59.4	3.8	1.49e+00	0	58	104	931135488	60	20302
2026-01-01 09:21:58.53	347.27	2.60	-44.9	-59.4	3.8	1.49e+00	0	58	104	931135488	60	20260
2026-01-01 09:22:02.57	347.14	2.34	-44.9	-59.4	3.8	1.49e+00	0	58	104	931135488	60	20292
2026-01-01 09:22:06.61	347.02	2.09	-44.9	-59.5	3.8	1.49e+00	0	58	104	931135488	60	20307

#Closed at: 2026-01-01 09:22:09
#Recorded file [931 MB]: D:/lorett/data/31039_260101_120809.dat