passes_logs/2026/01/01/R2.0S_Moscow/R2.0S_Moscow__20260101_014750_NOAA_21_JPSS-2_rec.log

#Pass ID: 20260101_014750_NOAA 21 (JPSS-2)
#Satellite: NOAA 21 (JPSS-2)
#Configuration: NOAA-21
#almurnet v.1.7.20251203
#Start time: 2026-01-01 01:50:32

#Version: 2.2.20231116
#Station: R2.0S_Moscow
#Location: 37.707566 lon 55.798166 lat
#TLE: 1 54234U 22150A   25365.42224288  .00000199  00000+0  11529-3 0  9990
#TLE: 2 54234  98.7483 301.4995 0001320 356.2106   3.9060 14.19530300162743

#Time	Az	El	Level	Level2	SNR	BER	BlckErr	Temp	State	Recorded	gain1	gain2
2026-01-01 01:50:32.12	351.23	10.62	-45.8	-64.6	3.8	7.47e-01	0	57	0	0	62	32707
2026-01-01 01:50:35.14	350.78	10.78	-45.1	-57.4	3.8	1.49e+00	0	57	104	0	62	14315
2026-01-01 01:50:38.17	350.33	10.94	-45.0	-57.3	3.8	1.49e+00	0	57	104	0	62	14147
2026-01-01 01:50:41.21	349.87	11.10	-40.5	-53.1	3.8	1.49e+00	0	58	104	0	53	14541
2026-01-01 01:50:44.24	349.41	11.25	-40.6	-53.0	3.8	1.49e+00	0	58	104	0	52	15324
2026-01-01 01:50:47.27	348.94	11.41	-40.6	-53.0	3.8	1.49e+00	0	58	104	0	52	15326
2026-01-01 01:50:50.31	348.46	11.56	-40.6	-53.0	3.8	1.49e+00	0	58	104	0	52	15322
2026-01-01 01:50:53.34	347.98	11.72	-40.6	-53.0	3.8	1.49e+00	0	58	104	0	52	15330
2026-01-01 01:50:56.37	347.50	11.87	-40.6	-53.0	3.8	1.49e+00	0	58	104	0	52	15303
2026-01-01 01:50:59.41	347.01	12.02	-40.6	-53.0	3.8	1.49e+00	0	58	104	0	52	15284
2026-01-01 01:51:02.44	346.52	12.17	-40.6	-53.0	3.8	1.49e+00	0	58	104	0	52	15292
2026-01-01 01:51:05.47	346.02	12.32	-40.6	-53.0	3.8	1.49e+00	0	58	104	0	52	15299
2026-01-01 01:51:08.50	345.51	12.47	-40.6	-53.0	3.8	1.49e+00	0	58	104	0	52	15306
2026-01-01 01:51:11.54	345.00	12.62	-40.6	-53.0	3.8	1.49e+00	0	58	104	0	52	15299
2026-01-01 01:51:14.57	344.49	12.76	-40.6	-53.0	3.8	1.49e+00	0	58	104	0	52	15253
2026-01-01 01:51:17.60	343.97	12.91	-40.6	-53.0	3.8	1.49e+00	0	58	104	0	52	15259
2026-01-01 01:51:20.63	343.44	13.05	-40.6	-53.0	3.8	1.49e+00	0	58	104	0	52	15286
2026-01-01 01:51:23.67	342.91	13.19	-40.6	-53.0	3.8	1.49e+00	0	58	104	0	52	15306
2026-01-01 01:51:26.70	342.38	13.33	-40.6	-52.9	3.8	1.49e+00	0	58	104	0	52	15213
2026-01-01 01:51:29.73	341.84	13.46	-40.5	-52.9	3.8	1.49e+00	0	58	104	0	52	15082
2026-01-01 01:51:32.76	341.29	13.60	-40.0	-52.5	3.8	1.49e+00	0	58	104	0	51	15309
2026-01-01 01:51:35.80	340.74	13.73	-40.3	-52.5	3.8	1.49e+00	0	58	104	0	51	15359
2026-01-01 01:51:38.83	340.18	13.87	-40.1	-52.5	3.8	1.49e+00	0	58	104	0	51	15363
2026-01-01 01:51:41.86	339.62	13.99	-41.3	-47.7	5.9	1.48e+00	0	58	104	0	53	7832
2026-01-01 01:51:44.89	339.06	14.12	-39.1	-42.0	11.8	1.02e-03	0	58	0	5242880	50	4870
2026-01-01 01:51:47.92	338.49	14.25	-36.9	-38.7	15.8	0.00e+00	0	58	0	14680064	45	4416
2026-01-01 01:51:50.95	337.91	14.37	-37.7	-39.6	15.3	0.00e+00	0	58	0	24117248	46	4635
2026-01-01 01:51:53.98	337.33	14.49	-37.5	-39.2	15.9	0.00e+00	0	58	0	33554432	46	4415
2026-01-01 01:51:57.01	336.75	14.61	-37.0	-38.6	16.5	0.00e+00	0	58	0	42991616	46	4136
2026-01-01 01:52:00.04	336.16	14.73	-36.6	-38.2	17.0	0.00e+00	0	58	0	52428800	45	4161
2026-01-01 01:52:03.07	335.56	14.84	-36.5	-38.0	17.2	0.00e+00	0	58	0	61865984	45	4090
2026-01-01 01:52:06.10	334.96	14.95	-36.8	-38.3	16.9	0.00e+00	0	58	0	71303168	45	4211
2026-01-01 01:52:09.13	334.36	15.06	-36.8	-38.3	16.9	0.00e+00	0	58	0	80740352	45	4214
2026-01-01 01:52:12.16	333.75	15.16	-36.6	-38.1	17.1	0.00e+00	0	58	0	90177536	45	4112
2026-01-01 01:52:15.20	333.14	15.27	-36.9	-38.4	16.8	0.00e+00	0	58	0	99614720	45	4279
2026-01-01 01:52:18.23	332.52	15.37	-36.9	-38.4	16.9	0.00e+00	0	58	0	110100480	45	4276
2026-01-01 01:52:21.26	331.90	15.46	-36.8	-38.3	16.9	0.00e+00	0	58	0	119537664	45	4237
2026-01-01 01:52:24.29	331.28	15.56	-36.9	-38.4	16.9	0.00e+00	0	58	0	128974848	45	4273
2026-01-01 01:52:27.32	330.65	15.65	-36.9	-38.4	16.9	0.00e+00	0	58	0	138412032	45	4266
2026-01-01 01:52:30.35	330.02	15.74	-36.6	-38.1	17.2	0.00e+00	0	58	0	147849216	45	4138
2026-01-01 01:52:33.38	329.38	15.82	-36.6	-38.1	17.3	0.00e+00	0	58	0	157286400	45	4101
2026-01-01 01:52:36.41	328.74	15.90	-36.7	-38.2	17.2	0.00e+00	0	58	0	166723584	45	4152
2026-01-01 01:52:39.44	328.10	15.98	-36.9	-38.4	17.0	0.00e+00	0	58	0	176160768	45	4267
2026-01-01 01:52:42.48	327.45	16.05	-36.8	-38.3	17.0	0.00e+00	0	58	0	185597952	45	4239
2026-01-01 01:52:45.50	326.80	16.12	-36.8	-38.3	17.1	0.00e+00	0	58	0	195035136	45	4210
2026-01-01 01:52:48.54	326.15	16.19	-36.8	-38.4	17.0	0.00e+00	0	58	0	204472320	45	4255
2026-01-01 01:52:51.57	325.49	16.25	-36.7	-38.3	17.1	0.00e+00	0	58	0	213909504	45	4195
2026-01-01 01:52:54.60	324.83	16.31	-36.5	-38.0	17.4	0.00e+00	0	58	0	223346688	45	4081
2026-01-01 01:52:57.63	324.17	16.37	-36.5	-37.9	17.4	0.00e+00	0	58	0	232783872	45	4046
2026-01-01 01:53:00.66	323.51	16.42	-36.6	-38.1	17.3	0.00e+00	0	58	0	242221056	44	4379
2026-01-01 01:53:03.69	322.84	16.47	-36.6	-38.1	17.3	0.00e+00	0	58	0	251658240	44	4362
2026-01-01 01:53:06.72	322.18	16.51	-36.8	-38.3	17.1	0.00e+00	0	58	0	261095424	44	4457
2026-01-01 01:53:09.76	321.50	16.56	-36.8	-38.3	17.1	0.00e+00	0	58	0	270532608	44	4487
2026-01-01 01:53:12.79	320.83	16.59	-36.8	-38.3	17.1	0.00e+00	0	58	0	279969792	44	4464
2026-01-01 01:53:15.82	320.16	16.63	-36.7	-38.2	17.3	0.00e+00	0	58	0	289406976	44	4393
2026-01-01 01:53:18.85	319.49	16.65	-36.6	-38.1	17.3	0.00e+00	0	58	0	298844160	44	4354
2026-01-01 01:53:21.89	318.81	16.68	-36.5	-38.0	17.4	0.00e+00	0	58	0	308281344	44	4300
2026-01-01 01:53:24.92	318.13	16.70	-36.7	-38.2	17.1	0.00e+00	0	58	0	317718528	44	4439
2026-01-01 01:53:27.95	317.45	16.72	-37.0	-38.6	16.8	0.00e+00	0	58	0	327155712	44	4641
2026-01-01 01:53:30.97	316.78	16.73	-36.9	-38.4	17.0	0.00e+00	0	58	0	336592896	44	4532
2026-01-01 01:53:34.00	316.10	16.74	-36.8	-38.4	17.0	0.00e+00	0	58	0	346030080	44	4508
2026-01-01 01:53:37.03	315.42	16.74	-36.9	-38.5	16.9	0.00e+00	0	58	0	355467264	44	4569
2026-01-01 01:53:40.06	314.74	16.74	-37.0	-38.5	16.9	0.00e+00	0	58	0	364904448	44	4579
2026-01-01 01:53:43.09	314.06	16.74	-36.7	-38.2	17.2	0.00e+00	0	58	0	374341632	44	4427
2026-01-01 01:53:46.12	313.38	16.73	-36.6	-38.1	17.3	0.00e+00	0	58	0	384827392	44	4343
2026-01-01 01:53:49.16	312.70	16.72	-36.7	-38.2	17.2	0.00e+00	0	58	0	393216000	44	4431
2026-01-01 01:53:52.19	312.02	16.70	-37.0	-38.6	16.9	0.00e+00	0	58	0	403701760	44	4607
2026-01-01 01:53:55.22	311.34	16.68	-36.9	-38.4	17.0	0.00e+00	0	58	0	413138944	44	4531
2026-01-01 01:53:58.25	310.67	16.66	-36.6	-38.1	17.3	0.00e+00	0	58	0	422576128	44	4378
2026-01-01 01:54:01.28	309.99	16.63	-36.4	-37.9	17.5	0.00e+00	0	58	0	432013312	44	4247
2026-01-01 01:54:04.32	309.32	16.60	-36.5	-37.9	17.5	0.00e+00	0	58	0	441450496	44	4275
2026-01-01 01:54:07.35	308.64	16.56	-36.6	-38.1	17.3	0.00e+00	0	58	0	450887680	44	4354
2026-01-01 01:54:10.38	307.97	16.52	-36.7	-38.2	17.2	0.00e+00	0	58	0	460324864	44	4414
2026-01-01 01:54:13.41	307.30	16.48	-36.7	-38.2	17.2	0.00e+00	0	58	0	469762048	44	4392
2026-01-01 01:54:16.44	306.64	16.43	-36.5	-38.0	17.4	0.00e+00	0	58	0	479199232	44	4301
2026-01-01 01:54:19.48	305.97	16.38	-36.3	-37.7	17.7	0.00e+00	0	58	0	488636416	44	4156
2026-01-01 01:54:22.51	305.31	16.32	-36.5	-37.9	17.5	0.00e+00	0	58	0	498073600	44	4281
2026-01-01 01:54:25.54	304.65	16.26	-36.9	-38.4	16.9	0.00e+00	0	58	0	507510784	44	4530
2026-01-01 01:54:28.57	303.99	16.20	-36.7	-38.2	17.1	0.00e+00	0	58	0	516947968	44	4421
2026-01-01 01:54:31.60	303.34	16.13	-36.6	-38.1	17.3	0.00e+00	0	58	0	526385152	44	4355
2026-01-01 01:54:34.63	302.69	16.06	-36.8	-38.3	17.1	0.00e+00	0	58	0	535822336	44	4468
2026-01-01 01:54:37.66	302.04	15.99	-36.7	-38.3	17.0	0.00e+00	0	58	0	545259520	44	4460
2026-01-01 01:54:40.69	301.39	15.91	-36.6	-38.1	17.2	0.00e+00	0	58	0	554696704	44	4386
2026-01-01 01:54:43.72	300.75	15.83	-36.7	-38.2	17.0	0.00e+00	0	58	0	564133888	44	4437
2026-01-01 01:54:46.75	300.11	15.75	-36.4	-37.9	17.4	0.00e+00	0	58	0	573571072	44	4264
2026-01-01 01:54:49.78	299.48	15.66	-36.4	-37.9	17.4	0.00e+00	0	58	0	583008256	44	4246
2026-01-01 01:54:52.81	298.85	15.57	-36.6	-38.1	17.2	0.00e+00	0	58	0	592445440	44	4353
2026-01-01 01:54:55.84	298.22	15.48	-36.4	-37.9	17.4	0.00e+00	0	58	0	601882624	44	4246
2026-01-01 01:54:58.87	297.60	15.38	-36.3	-37.8	17.4	0.00e+00	0	58	0	611319808	44	4211
2026-01-01 01:55:01.91	296.98	15.28	-36.6	-38.1	17.1	0.00e+00	0	58	0	620756992	44	4368
2026-01-01 01:55:04.94	296.36	15.18	-36.7	-38.2	17.0	0.00e+00	0	58	0	630194176	44	4430
2026-01-01 01:55:07.97	295.75	15.07	-36.4	-37.9	17.2	0.00e+00	0	58	0	639631360	44	4281
2026-01-01 01:55:11.00	295.15	14.97	-36.2	-37.8	17.0	0.00e+00	0	58	0	649068544	44	4199
2026-01-01 01:55:14.03	294.55	14.86	-36.3	-37.9	16.9	0.00e+00	0	58	0	659554304	44	4251
2026-01-01 01:55:17.06	293.95	14.74	-36.3	-37.8	17.2	0.00e+00	0	58	0	667942912	44	4223
2026-01-01 01:55:20.10	293.36	14.63	-36.5	-38.0	17.1	0.00e+00	0	58	0	678428672	44	4322
2026-01-01 01:55:23.13	292.77	14.51	-36.7	-38.2	16.9	0.00e+00	0	58	0	687865856	44	4435
2026-01-01 01:55:26.16	292.19	14.39	-37.0	-38.6	16.6	0.00e+00	0	58	0	697303040	44	4610
2026-01-01 01:55:29.19	291.61	14.26	-36.8	-38.4	16.7	0.00e+00	0	58	0	706740224	44	4532
2026-01-01 01:55:32.22	291.03	14.14	-36.7	-38.2	16.9	0.00e+00	0	58	0	716177408	44	4425
2026-01-01 01:55:35.25	290.47	14.01	-36.6	-38.2	16.9	0.00e+00	0	58	0	725614592	44	4407
2026-01-01 01:55:38.28	289.90	13.88	-36.5	-38.0	17.0	0.00e+00	0	58	0	735051776	44	4324
2026-01-01 01:55:41.31	289.34	13.75	-36.4	-37.9	17.1	0.00e+00	0	58	0	744488960	44	4257
2026-01-01 01:55:44.35	288.79	13.62	-36.3	-37.8	17.2	0.00e+00	0	58	0	753926144	44	4220
2026-01-01 01:55:47.38	288.24	13.48	-36.1	-37.6	17.3	0.00e+00	0	58	0	763363328	44	4117
2026-01-01 01:55:50.41	287.70	13.34	-35.8	-37.3	17.3	0.00e+00	0	58	0	772800512	43	4209
2026-01-01 01:55:53.44	287.16	13.20	-36.1	-37.6	16.9	0.00e+00	0	58	0	782237696	43	4386
2026-01-01 01:55:56.48	286.62	13.06	-36.5	-38.1	16.4	0.00e+00	0	58	0	791674880	43	4625
2026-01-01 01:55:59.51	286.10	12.92	-37.0	-38.8	15.9	0.00e+00	0	58	0	801112064	44	4708
2026-01-01 01:56:02.54	285.57	12.78	-37.4	-39.2	15.4	0.00e+00	0	58	0	810549248	45	4692
2026-01-01 01:56:05.57	285.06	12.63	-37.6	-39.5	15.1	7.00e-07	0	58	0	819986432	45	4849
2026-01-01 01:56:08.60	284.54	12.49	-37.5	-39.4	15.2	0.00e+00	0	58	0	829423616	45	4764
2026-01-01 01:56:11.63	284.04	12.34	-37.5	-39.4	15.2	0.00e+00	0	58	0	838860800	45	4786
2026-01-01 01:56:14.67	283.53	12.19	-37.6	-39.6	15.2	0.00e+00	0	58	0	848297984	45	4882
2026-01-01 01:56:17.70	283.03	12.04	-37.8	-39.7	15.0	0.00e+00	0	58	0	857735168	46	4704
2026-01-01 01:56:20.73	282.54	11.89	-37.4	-39.2	15.6	0.00e+00	0	57	0	867172352	46	4405
2026-01-01 01:56:23.76	282.06	11.73	-37.1	-38.8	16.1	0.00e+00	0	58	0	876609536	46	4205
2026-01-01 01:56:26.80	281.57	11.58	-37.1	-38.7	16.2	0.00e+00	0	58	0	886046720	46	4181
2026-01-01 01:56:29.83	281.10	11.42	-37.0	-38.7	16.3	0.00e+00	0	58	0	895483904	45	4394
2026-01-01 01:56:32.86	280.62	11.27	-37.1	-38.7	16.1	0.00e+00	0	58	0	904921088	45	4432
2026-01-01 01:56:35.89	280.16	11.11	-37.1	-38.8	16.1	0.00e+00	0	58	0	914358272	45	4447
2026-01-01 01:56:38.92	279.70	10.95	-37.1	-38.8	16.0	0.00e+00	0	58	0	924844032	45	4466
2026-01-01 01:56:41.95	279.24	10.80	-37.1	-38.9	15.8	0.00e+00	0	58	0	933232640	45	4508
2026-01-01 01:56:44.99	278.79	10.64	-37.5	-39.4	15.1	0.00e+00	0	58	0	943718400	45	4812
2026-01-01 01:56:48.01	278.34	10.48	-38.1	-40.2	14.3	2.20e-06	0	58	0	953155584	46	4942
2026-01-01 01:56:51.04	277.90	10.32	-38.3	-40.6	13.6	5.30e-06	0	58	0	962592768	47	4924
2026-01-01 01:56:54.07	277.46	10.16	-38.1	-40.5	13.5	7.60e-06	0	58	0	972029952	47	4863
2026-01-01 01:56:57.10	277.03	10.00	-38.3	-40.9	13.0	3.12e-05	0	58	0	981467136	47	5059
2026-01-01 01:57:00.13	276.60	9.83	-38.6	-41.6	12.0	2.87e-04	0	58	0	990904320	47	5478
2026-01-01 01:57:03.16	276.18	9.67	-39.2	-42.7	10.6	2.57e-03	0	58	0	1000341504	48	5863
2026-01-01 01:57:06.19	275.76	9.51	-39.7	-44.1	8.9	2.64e-02	0	58	0	1009778688	49	6501
2026-01-01 01:57:09.23	275.35	9.35	-40.0	-45.4	7.3	1.03e-01	0	58	0	1019215872	50	7131
2026-01-01 01:57:12.26	274.94	9.18	-40.2	-46.4	6.2	2.87e-01	0	58	0	1028653056	50	8010
2026-01-01 01:57:15.29	274.54	9.02	-40.3	-47.4	5.3	5.47e-01	0	58	0	1038090240	51	8486
2026-01-01 01:57:18.32	274.14	8.85	-40.3	-48.6	4.0	1.01e+00	0	58	104	1043333120	51	9763
2026-01-01 01:57:21.35	273.74	8.69	-40.4	-48.9	4.4	1.46e+00	0	58	104	1043333120	51	10111
2026-01-01 01:57:24.37	273.35	8.53	-40.7	-51.4	3.8	1.49e+00	0	58	104	1043333120	52	12685
2026-01-01 01:57:27.40	272.97	8.36	-40.7	-50.5	3.9	1.47e+00	0	58	104	1043333120	52	11467
2026-01-01 01:57:30.43	272.59	8.20	-40.0	-50.9	3.9	1.48e+00	0	58	104	1043333120	52	12071
2026-01-01 01:57:33.46	272.21	8.03	-40.7	-51.4	3.8	1.49e+00	0	58	104	1043333120	52	12759
2026-01-01 01:57:36.49	271.84	7.87	-44.7	-56.9	3.8	1.49e+00	0	58	104	1043333120	59	15981
2026-01-01 01:57:39.53	271.47	7.70	-44.9	-57.3	3.8	1.49e+00	0	58	104	1043333120	60	15793
2026-01-01 01:57:42.56	271.10	7.54	-45.0	-57.4	3.8	1.49e+00	0	58	104	1043333120	60	16017
2026-01-01 01:57:45.59	270.74	7.37	-45.0	-57.3	3.8	1.49e+00	0	58	104	1043333120	60	15918
2026-01-01 01:57:48.62	270.39	7.21	-44.9	-57.3	3.8	1.49e+00	0	58	104	1043333120	60	15785
2026-01-01 01:57:51.66	270.03	7.04	-44.9	-57.2	3.8	1.49e+00	0	58	104	1043333120	60	15754
2026-01-01 01:57:54.69	269.69	6.88	-44.9	-57.3	3.8	1.49e+00	0	58	104	1043333120	60	15764
2026-01-01 01:57:57.72	269.34	6.71	-44.9	-57.3	3.8	1.49e+00	0	58	104	1043333120	60	15794
2026-01-01 01:58:00.76	269.00	6.55	-44.9	-57.2	3.8	1.49e+00	0	58	104	1043333120	60	15756
2026-01-01 01:58:03.79	268.67	6.38	-44.9	-57.3	3.8	1.49e+00	0	58	104	1043333120	60	15768
2026-01-01 01:58:06.82	268.33	6.22	-44.9	-57.2	3.8	1.49e+00	0	58	104	1043333120	60	15726
2026-01-01 01:58:09.86	268.00	6.05	-44.9	-57.2	3.8	1.49e+00	0	58	104	1043333120	60	15681
2026-01-01 01:58:12.89	267.68	5.89	-44.9	-57.2	3.8	1.49e+00	0	58	104	1043333120	60	15716
2026-01-01 01:58:15.92	267.36	5.73	-44.9	-57.2	3.8	1.49e+00	0	58	104	1043333120	60	15689
2026-01-01 01:58:18.96	267.04	5.56	-44.9	-57.2	3.8	1.49e+00	0	58	104	1043333120	60	15633
2026-01-01 01:58:21.99	266.73	5.40	-44.9	-57.2	3.8	1.49e+00	0	58	104	1043333120	60	15637
2026-01-01 01:58:25.02	266.42	5.23	-44.9	-57.2	3.8	1.49e+00	0	58	104	1043333120	60	15635
2026-01-01 01:58:28.05	266.11	5.07	-44.8	-57.2	3.8	1.49e+00	0	58	104	1043333120	60	15696
2026-01-01 01:58:31.09	265.81	4.91	-44.9	-57.2	3.8	1.49e+00	0	58	104	1043333120	60	15658
2026-01-01 01:58:34.12	265.51	4.75	-44.9	-57.2	3.8	1.49e+00	0	58	104	1043333120	60	15712
2026-01-01 01:58:37.15	265.21	4.58	-44.9	-57.2	3.8	1.49e+00	0	58	104	1043333120	60	15684
2026-01-01 01:58:40.18	264.92	4.42	-44.8	-57.2	3.8	1.49e+00	0	58	104	1043333120	60	15657
2026-01-01 01:58:43.22	264.63	4.26	-44.9	-57.2	3.8	1.49e+00	0	58	104	1043333120	60	15694
2026-01-01 01:58:46.25	264.34	4.10	-44.8	-57.2	3.8	1.49e+00	0	58	104	1043333120	60	15630
2026-01-01 01:58:49.29	264.06	3.94	-44.8	-57.2	3.8	1.49e+00	0	58	104	1043333120	60	15680
2026-01-01 01:58:52.32	263.78	3.77	-44.9	-57.2	3.8	1.49e+00	0	58	104	1043333120	60	15689
2026-01-01 01:58:55.35	263.50	3.61	-44.8	-57.2	3.8	1.49e+00	0	58	104	1043333120	60	15678
2026-01-01 01:58:58.38	263.23	3.45	-44.8	-57.2	3.8	1.49e+00	0	58	104	1043333120	60	15680
2026-01-01 01:59:01.42	262.96	3.29	-44.8	-57.2	3.8	1.49e+00	0	58	104	1043333120	60	15642
2026-01-01 01:59:04.45	262.69	3.13	-44.8	-57.2	3.8	1.49e+00	0	58	104	1043333120	60	15658
2026-01-01 01:59:07.48	262.42	2.98	-44.8	-57.2	3.8	1.49e+00	0	58	104	1043333120	60	15637
2026-01-01 01:59:10.52	262.16	2.82	-44.9	-57.2	3.8	1.49e+00	0	58	104	1043333120	60	15633
2026-01-01 01:59:13.55	261.90	2.66	-44.8	-57.2	3.8	1.49e+00	0	58	104	1043333120	60	15628
2026-01-01 01:59:16.58	261.65	2.50	-44.8	-57.2	3.8	1.49e+00	0	58	104	1043333120	60	15638
2026-01-01 01:59:19.61	261.39	2.34	-44.8	-57.2	3.8	1.49e+00	0	58	104	1043333120	60	15703
2026-01-01 01:59:22.64	261.14	2.18	-44.8	-57.2	3.8	1.49e+00	0	58	104	1043333120	60	15653
2026-01-01 01:59:25.67	260.89	2.03	-44.8	-57.2	3.8	1.49e+00	0	58	104	1043333120	60	15658

#Closed at: 2026-01-01 01:59:27
#Recorded file [1043 MB]: D:/lorett/data/31039_260101_045031.dat