passes_logs/2026/01/01/R2.0S_Moscow/R2.0S_Moscow__20260101_031843_FENGYUN_3D_rec.log

#Pass ID: 20260101_031843_FENGYUN 3D
#Satellite: FENGYUN 3D
#Configuration: FENGYUN 3D
#almurnet v.1.7.20251203
#Start time: 2026-01-01 03:25:55

#Version: 2.2.20231116
#Station: R2.0S_Moscow
#Location: 37.707566 lon 55.798166 lat
#TLE: 1 43010U 17072A   25365.48527867  .00000101  00000+0  69745-4 0  9999
#TLE: 2 43010  98.9911 332.0787 0001837 134.4748 225.6578 14.19689788421190

#Time	Az	El	Level	Level2	SNR	BER	BlckErr	Temp	State	Recorded	gain1	gain2
2026-01-01 03:25:55.69	294.56	23.67	-45.8	-64.6	3.8	7.45e-01	0	58	0	0	62	32851
2026-01-01 03:25:57.71	294.01	23.59	-45.0	-56.6	3.8	8.47e-01	0	58	104	0	61	13865
2026-01-01 03:25:59.73	293.46	23.52	-45.0	-56.6	3.8	8.45e-01	0	58	104	0	61	13869
2026-01-01 03:26:01.75	292.92	23.44	-45.0	-56.6	3.8	8.46e-01	0	58	104	0	61	13823
2026-01-01 03:26:03.77	292.37	23.35	-44.8	-55.8	3.8	8.46e-01	0	58	104	0	61	12559
2026-01-01 03:26:05.79	291.83	23.27	-44.7	-56.3	3.8	8.46e-01	0	58	104	0	61	13332
2026-01-01 03:26:07.82	291.29	23.18	-44.6	-56.3	3.8	8.46e-01	0	58	104	0	61	13284
2026-01-01 03:26:09.84	290.76	23.09	-44.7	-56.2	3.8	8.46e-01	0	58	104	0	61	13257
2026-01-01 03:26:11.86	290.23	23.00	-44.6	-56.2	3.8	8.46e-01	0	58	104	0	61	13255
2026-01-01 03:26:13.88	289.70	22.91	-44.6	-56.2	3.8	8.46e-01	0	58	104	0	61	13229
2026-01-01 03:26:15.90	289.17	22.81	-44.6	-56.3	3.8	8.46e-01	0	58	104	0	61	13318
2026-01-01 03:26:17.92	288.65	22.71	-44.7	-56.3	3.8	8.46e-01	0	58	104	0	61	13265
2026-01-01 03:26:19.95	288.13	22.61	-44.6	-56.3	3.8	8.45e-01	0	58	104	0	61	13291
2026-01-01 03:26:21.97	287.61	22.51	-44.6	-56.1	3.8	8.47e-01	0	58	104	0	61	13067
2026-01-01 03:26:23.99	287.10	22.40	-44.6	-56.1	3.8	8.46e-01	0	58	104	0	61	13099
2026-01-01 03:26:26.01	286.59	22.30	-44.6	-56.2	3.8	8.47e-01	0	58	104	0	61	13196
2026-01-01 03:26:28.03	286.09	22.19	-44.6	-56.0	3.8	8.46e-01	0	58	104	0	61	12816
2026-01-01 03:26:30.06	285.59	22.08	-44.6	-55.7	3.8	8.46e-01	0	58	104	0	61	12510
2026-01-01 03:26:32.08	285.09	21.97	-44.5	-54.8	3.8	8.46e-01	0	58	104	0	61	11274
2026-01-01 03:26:34.10	284.59	21.85	-44.5	-55.2	3.8	8.46e-01	0	58	104	0	61	11741
2026-01-01 03:26:36.13	284.10	21.74	-44.6	-56.0	3.8	8.45e-01	0	58	104	0	61	12855
2026-01-01 03:26:38.15	283.61	21.62	-44.6	-56.0	3.8	8.46e-01	0	58	104	0	61	12861
2026-01-01 03:26:40.17	283.13	21.50	-44.6	-55.6	3.8	8.46e-01	0	59	104	0	61	12283
2026-01-01 03:26:42.19	282.65	21.38	-44.4	-54.4	3.8	8.45e-01	0	58	104	0	60	11345
2026-01-01 03:26:44.21	282.18	21.26	-43.5	-49.2	5.9	7.70e-01	0	58	0	0	59	6624
2026-01-01 03:26:46.24	281.70	21.13	-38.3	-40.0	14.9	4.50e-06	0	59	0	11534336	48	4340
2026-01-01 03:26:48.26	281.24	21.01	-33.9	-35.1	19.6	0.00e+00	0	58	0	23068672	39	4135
2026-01-01 03:26:50.28	280.77	20.88	-33.4	-34.5	20.3	0.00e+00	0	58	0	33554432	37	4327
2026-01-01 03:26:52.30	280.31	20.75	-33.6	-34.7	19.9	0.00e+00	0	58	0	38797312	39	3936
2026-01-01 03:26:54.32	279.86	20.62	-34.4	-35.6	18.9	0.00e+00	0	58	0	49283072	41	3912
2026-01-01 03:26:56.34	279.40	20.49	-32.8	-33.9	20.8	0.00e+00	0	58	0	60817408	37	4035
2026-01-01 03:26:58.36	278.95	20.36	-32.9	-34.0	20.6	0.00e+00	0	58	0	72351744	37	4091
2026-01-01 03:27:00.39	278.51	20.23	-32.9	-34.0	20.7	0.00e+00	0	58	0	83886080	37	4068
2026-01-01 03:27:02.41	278.07	20.09	-32.8	-33.9	20.7	0.00e+00	0	59	0	95420416	37	4041
2026-01-01 03:27:04.43	277.63	19.96	-32.7	-33.8	20.9	0.00e+00	0	58	0	106954752	37	3985
2026-01-01 03:27:06.45	277.20	19.82	-32.6	-33.7	21.0	0.00e+00	0	58	0	118489088	37	3938
2026-01-01 03:27:08.47	276.77	19.69	-32.8	-33.8	20.8	0.00e+00	0	58	0	128974848	37	4004
2026-01-01 03:27:10.49	276.34	19.55	-32.9	-34.0	20.6	0.00e+00	0	58	0	140509184	37	4075
2026-01-01 03:27:12.51	275.92	19.41	-33.0	-34.1	20.6	0.00e+00	0	58	0	152043520	37	4125
2026-01-01 03:27:14.53	275.50	19.27	-33.1	-34.2	20.4	0.00e+00	0	58	0	163577856	37	4177
2026-01-01 03:27:16.55	275.09	19.13	-33.2	-34.4	20.3	0.00e+00	0	58	0	175112192	37	4258
2026-01-01 03:27:18.58	274.68	18.99	-33.3	-34.5	20.2	0.00e+00	0	58	0	185597952	37	4300
2026-01-01 03:27:20.60	274.27	18.85	-33.2	-34.3	20.3	0.00e+00	0	58	0	197132288	37	4221
2026-01-01 03:27:22.62	273.87	18.71	-33.3	-34.4	20.3	0.00e+00	0	58	0	208666624	37	4274
2026-01-01 03:27:24.64	273.47	18.56	-33.1	-34.3	20.3	0.00e+00	0	58	0	220200960	37	4206
2026-01-01 03:27:26.66	273.07	18.42	-33.1	-34.2	20.4	0.00e+00	0	58	0	231735296	37	4171
2026-01-01 03:27:28.68	272.68	18.28	-33.2	-34.4	20.2	0.00e+00	0	58	0	243269632	37	4252
2026-01-01 03:27:30.70	272.29	18.13	-33.5	-34.7	20.0	0.00e+00	0	58	0	254803968	37	4397
2026-01-01 03:27:32.72	271.91	17.99	-33.2	-34.3	20.3	0.00e+00	0	58	0	265289728	37	4225
2026-01-01 03:27:34.74	271.53	17.84	-33.0	-34.1	20.5	0.00e+00	0	58	0	276824064	37	4107
2026-01-01 03:27:36.77	271.15	17.69	-33.1	-34.3	20.3	0.00e+00	0	58	0	288358400	37	4202
2026-01-01 03:27:38.79	270.78	17.55	-33.2	-34.4	20.2	0.00e+00	0	59	0	299892736	37	4252
2026-01-01 03:27:40.81	270.41	17.40	-33.2	-34.4	20.2	0.00e+00	0	58	0	311427072	37	4253
2026-01-01 03:27:42.83	270.04	17.25	-33.1	-34.2	20.4	0.00e+00	0	58	0	322961408	37	4191
2026-01-01 03:27:44.86	269.68	17.10	-33.3	-34.4	20.2	0.00e+00	0	58	0	334495744	37	4281
2026-01-01 03:27:46.87	269.32	16.96	-33.5	-34.6	20.0	0.00e+00	0	58	0	344981504	37	4370
2026-01-01 03:27:48.90	268.97	16.81	-33.5	-34.7	19.9	0.00e+00	0	58	0	356515840	37	4394
2026-01-01 03:27:50.92	268.62	16.66	-33.3	-34.4	20.1	0.00e+00	0	58	0	368050176	37	4290
2026-01-01 03:27:52.94	268.27	16.51	-33.4	-34.6	20.0	0.00e+00	0	58	0	379584512	37	4358
2026-01-01 03:27:54.96	267.92	16.36	-33.3	-34.5	20.1	0.00e+00	0	58	0	391118848	37	4300
2026-01-01 03:27:56.98	267.58	16.22	-33.5	-34.6	20.0	0.00e+00	0	58	0	401604608	37	4373
2026-01-01 03:27:59.00	267.25	16.07	-33.6	-34.8	19.8	0.00e+00	0	58	0	413138944	37	4456
2026-01-01 03:28:01.02	266.91	15.92	-33.7	-34.9	19.7	0.00e+00	0	58	0	424673280	37	4501
2026-01-01 03:28:03.04	266.58	15.77	-33.8	-34.9	19.7	0.00e+00	0	58	0	436207616	38	4290
2026-01-01 03:28:05.06	266.25	15.62	-33.9	-35.1	19.5	0.00e+00	0	58	0	447741952	38	4354
2026-01-01 03:28:07.08	265.93	15.47	-33.8	-35.0	19.6	0.00e+00	0	58	0	459276288	38	4295
2026-01-01 03:28:09.11	265.61	15.32	-33.9	-35.0	19.5	0.00e+00	0	59	0	470810624	38	4340
2026-01-01 03:28:11.13	265.29	15.17	-33.9	-35.0	19.5	0.00e+00	0	58	0	481296384	38	4339
2026-01-01 03:28:13.15	264.97	15.02	-33.9	-35.0	19.5	0.00e+00	0	58	0	492830720	38	4332
2026-01-01 03:28:15.17	264.66	14.88	-33.8	-35.0	19.6	0.00e+00	0	59	0	504365056	38	4303
2026-01-01 03:28:17.19	264.35	14.73	-33.8	-34.9	19.6	0.00e+00	0	58	0	515899392	38	4291
2026-01-01 03:28:19.21	264.05	14.58	-34.0	-35.2	19.3	0.00e+00	0	58	0	527433728	38	4440
2026-01-01 03:28:21.23	263.75	14.43	-34.1	-35.3	19.2	0.00e+00	0	58	0	538968064	38	4483
2026-01-01 03:28:23.25	263.45	14.28	-34.0	-35.2	19.3	0.00e+00	0	58	0	550502400	38	4422
2026-01-01 03:28:25.27	263.15	14.13	-34.1	-35.3	19.2	0.00e+00	0	58	0	560988160	38	4456
2026-01-01 03:28:27.29	262.86	13.98	-34.1	-35.3	19.2	0.00e+00	0	58	0	572522496	38	4485
2026-01-01 03:28:29.32	262.57	13.84	-34.0	-35.3	19.2	0.00e+00	0	58	0	584056832	38	4446
2026-01-01 03:28:31.33	262.28	13.69	-34.1	-35.3	19.2	0.00e+00	0	58	0	595591168	38	4467
2026-01-01 03:28:33.35	262.00	13.54	-34.1	-35.3	19.2	0.00e+00	0	58	0	607125504	38	4481
2026-01-01 03:28:35.37	261.72	13.39	-34.2	-35.5	19.0	0.00e+00	0	58	0	617611264	39	4293
2026-01-01 03:28:37.39	261.44	13.25	-34.2	-35.5	19.0	0.00e+00	0	58	0	629145600	39	4301
2026-01-01 03:28:39.42	261.16	13.10	-34.3	-35.5	18.9	0.00e+00	0	58	0	640679936	39	4329
2026-01-01 03:28:41.44	260.89	12.95	-34.4	-35.6	18.9	0.00e+00	0	58	0	652214272	39	4365
2026-01-01 03:28:43.46	260.62	12.81	-34.5	-35.7	18.7	0.00e+00	0	58	0	663748608	39	4434
2026-01-01 03:28:45.48	260.35	12.66	-34.7	-36.0	18.5	0.00e+00	0	58	0	675282944	39	4558
2026-01-01 03:28:47.50	260.08	12.51	-34.8	-36.1	18.2	0.00e+00	0	59	0	686817280	40	4377
2026-01-01 03:28:49.52	259.82	12.37	-34.5	-35.8	18.5	0.00e+00	0	58	0	697303040	40	4227
2026-01-01 03:28:51.54	259.56	12.22	-34.4	-35.7	18.7	0.00e+00	0	59	0	708837376	40	4148
2026-01-01 03:28:53.56	259.30	12.08	-34.5	-35.7	18.6	0.00e+00	0	58	0	720371712	40	4180
2026-01-01 03:28:55.59	259.05	11.93	-34.7	-36.0	18.4	0.00e+00	0	58	0	731906048	40	4300
2026-01-01 03:28:57.61	258.80	11.79	-34.9	-36.3	18.1	0.00e+00	0	59	0	743440384	40	4460
2026-01-01 03:28:59.63	258.55	11.64	-34.9	-36.2	18.1	0.00e+00	0	58	0	754974720	40	4432
2026-01-01 03:29:01.65	258.30	11.50	-35.0	-36.3	18.0	0.00e+00	0	58	0	766509056	40	4453
2026-01-01 03:29:03.67	258.06	11.35	-35.0	-36.3	18.0	0.00e+00	0	58	0	776994816	40	4483
2026-01-01 03:29:05.69	257.81	11.21	-35.0	-36.3	18.0	0.00e+00	0	58	0	788529152	40	4469
2026-01-01 03:29:07.71	257.57	11.07	-35.1	-36.5	17.9	0.00e+00	0	58	0	800063488	40	4553
2026-01-01 03:29:09.73	257.34	10.93	-34.9	-36.2	18.0	0.00e+00	0	58	0	811597824	40	4434
2026-01-01 03:29:11.75	257.10	10.78	-34.9	-36.2	18.0	0.00e+00	0	58	0	823132160	40	4432
2026-01-01 03:29:13.77	256.87	10.64	-35.1	-36.4	17.9	0.00e+00	0	58	0	833617920	40	4518
2026-01-01 03:29:15.79	256.64	10.50	-35.3	-36.7	17.6	0.00e+00	0	58	0	845152256	41	4422
2026-01-01 03:29:17.81	256.41	10.36	-35.3	-36.7	17.6	0.00e+00	0	58	0	856686592	41	4408
2026-01-01 03:29:19.83	256.18	10.22	-35.3	-36.7	17.5	0.00e+00	0	58	0	868220928	41	4441
2026-01-01 03:29:21.85	255.96	10.08	-35.4	-36.8	17.5	0.00e+00	0	58	0	879755264	41	4451
2026-01-01 03:29:23.87	255.74	9.94	-35.4	-36.9	17.4	0.00e+00	0	59	0	891289600	41	4504
2026-01-01 03:29:25.90	255.52	9.80	-35.4	-36.8	17.4	0.00e+00	0	58	0	902823936	41	4456
2026-01-01 03:29:27.92	255.30	9.66	-35.4	-36.8	17.4	0.00e+00	0	58	0	913309696	41	4490
2026-01-01 03:29:29.94	255.09	9.52	-35.4	-36.8	17.4	0.00e+00	0	58	0	924844032	41	4482
2026-01-01 03:29:31.96	254.87	9.38	-35.4	-36.8	17.4	0.00e+00	0	58	0	936378368	41	4491
2026-01-01 03:29:33.98	254.66	9.24	-35.4	-36.8	17.4	0.00e+00	0	58	0	947912704	41	4491
2026-01-01 03:29:36.00	254.45	9.11	-35.4	-36.8	17.4	0.00e+00	0	58	0	959447040	41	4457
2026-01-01 03:29:38.02	254.25	8.97	-35.4	-36.8	17.4	0.00e+00	0	58	0	970981376	41	4489
2026-01-01 03:29:40.04	254.04	8.83	-35.5	-37.0	17.2	0.00e+00	0	58	0	981467136	41	4546
2026-01-01 03:29:42.06	253.84	8.69	-35.5	-37.0	17.2	0.00e+00	0	58	0	993001472	41	4563
2026-01-01 03:29:44.08	253.64	8.56	-35.7	-37.2	17.0	0.00e+00	0	58	0	1004535808	41	4663
2026-01-01 03:29:46.10	253.44	8.42	-35.8	-37.2	16.9	0.00e+00	0	58	0	1016070144	42	4438
2026-01-01 03:29:48.13	253.24	8.29	-35.8	-37.3	16.8	0.00e+00	0	58	0	1027604480	42	4487
2026-01-01 03:29:50.15	253.04	8.15	-35.7	-37.2	17.0	0.00e+00	0	58	0	1039138816	42	4405
2026-01-01 03:29:52.17	252.85	8.02	-35.8	-37.3	16.9	0.00e+00	0	58	0	1049624576	42	4460
2026-01-01 03:29:54.19	252.66	7.88	-44.6	-56.0	3.8	8.46e-01	0	58	104	1052770304	59	14474
2026-01-01 03:29:56.21	252.47	7.75	-44.8	-56.5	3.8	8.46e-01	0	58	104	1052770304	60	14392
2026-01-01 03:29:58.24	252.28	7.62	-45.0	-56.6	3.8	8.47e-01	0	58	104	1052770304	60	14635
2026-01-01 03:30:00.26	252.09	7.48	-45.0	-56.7	3.8	8.45e-01	0	58	104	1052770304	60	14758
2026-01-01 03:30:02.28	251.91	7.35	-45.0	-56.7	3.8	8.47e-01	0	59	104	1052770304	60	14750
2026-01-01 03:30:04.30	251.72	7.22	-45.0	-56.6	3.8	8.46e-01	0	58	104	1052770304	60	14593
2026-01-01 03:30:06.32	251.54	7.09	-44.9	-56.5	3.8	8.45e-01	0	58	104	1052770304	60	14483
2026-01-01 03:30:08.34	251.36	6.96	-44.9	-56.5	3.8	8.46e-01	0	59	104	1052770304	60	14486
2026-01-01 03:30:10.36	251.18	6.82	-44.9	-56.5	3.8	8.47e-01	0	58	104	1052770304	60	14506
2026-01-01 03:30:12.38	251.01	6.69	-44.9	-56.5	3.8	8.46e-01	0	58	104	1052770304	60	14477
2026-01-01 03:30:14.41	250.83	6.56	-44.9	-56.5	3.8	8.47e-01	0	58	104	1052770304	60	14481
2026-01-01 03:30:16.43	250.66	6.43	-44.9	-56.5	3.8	8.45e-01	0	58	104	1052770304	60	14493
2026-01-01 03:30:18.45	250.49	6.31	-44.9	-56.5	3.8	8.46e-01	0	58	104	1052770304	60	14479
2026-01-01 03:30:20.47	250.32	6.18	-44.9	-56.5	3.8	8.46e-01	0	59	104	1052770304	60	14434
2026-01-01 03:30:22.50	250.15	6.05	-44.9	-56.5	3.8	8.46e-01	0	58	104	1052770304	60	14466
2026-01-01 03:30:24.52	249.98	5.92	-44.9	-56.5	3.8	8.46e-01	0	58	104	1052770304	60	14518
2026-01-01 03:30:26.54	249.82	5.79	-44.9	-56.5	3.8	8.46e-01	0	59	104	1052770304	60	14429
2026-01-01 03:30:28.56	249.65	5.66	-44.9	-56.5	3.8	8.46e-01	0	59	104	1052770304	60	14466
2026-01-01 03:30:30.58	249.49	5.54	-44.9	-56.5	3.8	8.47e-01	0	59	104	1052770304	60	14466
2026-01-01 03:30:32.61	249.33	5.41	-44.9	-56.5	3.8	8.47e-01	0	58	104	1052770304	60	14485
2026-01-01 03:30:34.63	249.17	5.28	-44.9	-56.5	3.8	8.47e-01	0	59	104	1052770304	60	14449
2026-01-01 03:30:36.65	249.01	5.16	-44.9	-56.5	3.8	8.47e-01	0	59	104	1052770304	60	14471
2026-01-01 03:30:38.67	248.85	5.03	-44.9	-56.5	3.8	8.47e-01	0	58	104	1052770304	60	14425
2026-01-01 03:30:40.69	248.70	4.91	-44.9	-56.5	3.8	8.47e-01	0	59	104	1052770304	60	14444
2026-01-01 03:30:42.71	248.54	4.78	-44.9	-56.5	3.8	8.46e-01	0	59	104	1052770304	60	14444
2026-01-01 03:30:44.74	248.39	4.66	-44.9	-56.5	3.8	8.46e-01	0	58	104	1052770304	60	14428
2026-01-01 03:30:46.76	248.24	4.54	-44.9	-56.5	3.8	8.47e-01	0	59	104	1052770304	60	14407
2026-01-01 03:30:48.78	248.09	4.41	-44.9	-56.5	3.8	8.47e-01	0	58	104	1052770304	60	14437
2026-01-01 03:30:50.80	247.94	4.29	-44.9	-56.5	3.8	8.46e-01	0	59	104	1052770304	60	14446
2026-01-01 03:30:52.83	247.79	4.17	-44.9	-56.5	3.8	8.47e-01	0	58	104	1052770304	60	14426
2026-01-01 03:30:54.85	247.64	4.04	-44.9	-56.5	3.8	8.46e-01	0	58	104	1052770304	60	14447
2026-01-01 03:30:56.86	247.50	3.92	-44.9	-56.5	3.8	8.47e-01	0	59	104	1052770304	60	14452
2026-01-01 03:30:58.88	247.36	3.80	-44.9	-56.5	3.8	8.46e-01	0	59	104	1052770304	60	14421
2026-01-01 03:31:00.90	247.21	3.68	-44.9	-56.5	3.8	8.46e-01	0	58	104	1052770304	60	14440
2026-01-01 03:31:02.92	247.07	3.56	-44.9	-56.5	3.8	8.44e-01	0	59	104	1052770304	60	14419
2026-01-01 03:31:04.94	246.93	3.44	-44.8	-56.5	3.8	8.47e-01	0	59	104	1052770304	60	14418
2026-01-01 03:31:06.97	246.79	3.32	-44.9	-56.5	3.8	8.46e-01	0	59	104	1052770304	60	14407
2026-01-01 03:31:08.99	246.65	3.20	-44.9	-56.5	3.8	8.46e-01	0	58	104	1052770304	60	14395
2026-01-01 03:31:11.01	246.52	3.08	-44.9	-56.5	3.8	8.47e-01	0	59	104	1052770304	60	14434
2026-01-01 03:31:13.03	246.38	2.96	-44.9	-56.5	3.8	8.47e-01	0	59	104	1052770304	60	14408
2026-01-01 03:31:15.05	246.25	2.84	-44.9	-56.5	3.8	8.47e-01	0	59	104	1052770304	60	14383
2026-01-01 03:31:17.08	246.11	2.73	-44.9	-56.5	3.8	8.45e-01	0	59	104	1052770304	60	14406
2026-01-01 03:31:19.10	245.98	2.61	-44.9	-56.5	3.8	8.45e-01	0	59	104	1052770304	60	14404
2026-01-01 03:31:21.12	245.85	2.49	-44.9	-56.5	3.8	8.46e-01	0	59	104	1052770304	60	14432
2026-01-01 03:31:23.14	245.72	2.37	-44.8	-56.5	3.8	8.46e-01	0	59	104	1052770304	60	14407
2026-01-01 03:31:25.17	245.59	2.26	-44.9	-56.5	3.8	8.46e-01	0	58	104	1052770304	60	14387
2026-01-01 03:31:27.19	245.46	2.14	-44.9	-56.5	3.8	8.47e-01	0	59	104	1052770304	60	14395
2026-01-01 03:31:29.21	245.34	2.02	-44.8	-56.4	3.8	8.47e-01	0	59	104	1052770304	60	14350

#Closed at: 2026-01-01 03:31:29
#Recorded file [1052 MB]: D:/lorett/data/31039_260101_062555.dat