passes_logs/2026/01/01/R2.0S_Moscow/R2.0S_Moscow__20260101_031535_AQUA_rec.log

#Pass ID: 20260101_031535_AQUA
#Satellite: AQUA
#Configuration: AQUA
#almurnet v.1.7.20251203
#Start time: 2026-01-01 03:15:35

#Version: 2.2.20231116
#Station: R2.0S_Moscow
#Location: 37.707566 lon 55.798166 lat
#TLE: 1 27424U 02022A   25364.96158943  .00001951  00000+0  40088-3 0  9998
#TLE: 2 27424  98.4061 326.1389 0001917  95.3187 305.7939 14.61780362258696

#Time	Az	El	Level	Level2	SNR	BER	BlckErr	Temp	State	Recorded	gain1	gain2
2026-01-01 03:15:35.45	4.95	2.01	-41.2	-60.3	3.8	7.46e-01	0	48	0	0	52	35438
2026-01-01 03:15:38.48	4.67	2.17	-41.2	-60.3	3.8	7.43e-01	0	49	104	0	52	35416
2026-01-01 03:15:41.51	4.39	2.33	-41.2	-60.3	3.8	7.43e-01	0	49	104	0	52	35466
2026-01-01 03:15:44.54	4.11	2.49	-41.2	-60.3	3.8	7.43e-01	0	49	104	0	52	35390
2026-01-01 03:15:47.57	3.82	2.65	-41.2	-60.3	3.8	7.47e-01	0	49	104	0	52	35430
2026-01-01 03:15:50.61	3.53	2.82	-41.2	-60.3	3.8	7.43e-01	0	49	104	0	52	35394
2026-01-01 03:15:53.64	3.23	2.98	-41.2	-60.3	3.8	7.45e-01	0	50	104	0	52	35394
2026-01-01 03:15:56.67	2.93	3.14	-41.2	-60.3	3.8	7.49e-01	0	50	104	0	52	35447
2026-01-01 03:15:59.71	2.63	3.31	-41.2	-60.3	3.8	7.44e-01	0	50	104	0	52	35433
2026-01-01 03:16:02.74	2.32	3.47	-41.2	-60.3	3.8	7.43e-01	0	50	104	0	52	35451
2026-01-01 03:16:05.77	2.01	3.64	-41.2	-60.3	3.8	7.48e-01	0	51	104	0	52	35478
2026-01-01 03:16:08.80	1.70	3.80	-41.2	-60.3	3.8	7.45e-01	0	50	104	0	52	35400
2026-01-01 03:16:11.84	1.38	3.97	-41.2	-60.3	3.8	7.44e-01	0	51	104	0	52	35414
2026-01-01 03:16:14.87	1.05	4.13	-41.2	-60.3	3.8	7.46e-01	0	51	104	0	52	35374
2026-01-01 03:16:17.90	0.73	4.30	-41.2	-60.3	3.8	7.44e-01	0	51	104	0	52	35423
2026-01-01 03:16:20.94	0.39	4.46	-41.2	-60.3	3.8	7.45e-01	0	52	104	0	52	35389
2026-01-01 03:16:23.97	0.06	4.63	-41.2	-60.3	3.8	7.45e-01	0	52	104	0	52	35374
2026-01-01 03:16:27.00	359.72	4.80	-41.2	-60.3	3.8	7.48e-01	0	52	104	0	52	35409
2026-01-01 03:16:30.03	359.37	4.96	-41.2	-60.3	3.8	7.46e-01	0	52	104	0	52	35320
2026-01-01 03:16:33.07	359.02	5.13	-41.2	-60.3	3.8	7.46e-01	0	52	104	0	52	35448
2026-01-01 03:16:36.10	358.67	5.30	-41.2	-60.3	3.8	7.45e-01	0	52	104	0	52	35372
2026-01-01 03:16:39.13	358.31	5.47	-41.2	-60.3	3.8	7.49e-01	0	52	104	0	52	35459
2026-01-01 03:16:42.17	357.95	5.63	-41.2	-60.3	3.8	7.44e-01	0	52	104	0	52	35420
2026-01-01 03:16:45.20	357.58	5.80	-41.2	-60.3	3.8	7.47e-01	0	53	104	0	52	35361
2026-01-01 03:16:48.24	357.21	5.97	-41.2	-60.3	3.8	7.44e-01	0	53	104	0	52	35383
2026-01-01 03:16:51.27	356.83	6.14	-41.2	-60.3	3.8	7.48e-01	0	53	104	0	52	35403
2026-01-01 03:16:54.30	356.45	6.31	-41.2	-60.3	3.8	7.46e-01	0	53	104	0	52	35371
2026-01-01 03:16:57.33	356.06	6.47	-41.2	-60.3	3.8	7.44e-01	0	53	104	0	52	35445
2026-01-01 03:17:00.36	355.67	6.64	-41.2	-60.3	3.8	7.44e-01	0	53	104	0	52	35419
2026-01-01 03:17:03.40	355.27	6.81	-41.2	-60.3	3.8	7.45e-01	0	53	104	0	52	35448
2026-01-01 03:17:06.43	354.87	6.98	-41.2	-60.3	3.8	7.46e-01	0	53	104	0	52	35439
2026-01-01 03:17:09.46	354.46	7.15	-41.2	-60.3	3.8	7.44e-01	0	53	104	0	53	33457
2026-01-01 03:17:12.49	354.04	7.32	-41.2	-60.3	3.8	7.46e-01	0	54	104	0	53	33439
2026-01-01 03:17:15.52	353.63	7.48	-41.2	-60.3	3.8	7.43e-01	0	54	104	0	53	33416
2026-01-01 03:17:18.56	353.20	7.65	-41.2	-60.3	3.8	7.48e-01	0	54	104	0	53	33426
2026-01-01 03:17:21.59	352.77	7.82	-41.2	-60.3	3.8	7.42e-01	0	54	104	0	53	33381
2026-01-01 03:17:24.62	352.34	7.99	-41.2	-60.3	3.8	7.47e-01	0	54	104	0	53	33454
2026-01-01 03:17:27.65	351.90	8.16	-41.2	-60.2	3.8	7.43e-01	0	54	104	0	53	33148
2026-01-01 03:17:30.69	351.45	8.32	-41.2	-60.2	3.8	7.49e-01	0	54	104	0	53	32978
2026-01-01 03:17:33.72	351.00	8.49	-41.5	-60.4	3.8	7.46e-01	0	54	104	0	53	33983
2026-01-01 03:17:36.75	350.54	8.66	-41.1	-60.1	3.8	7.47e-01	0	55	104	0	53	32590
2026-01-01 03:17:39.78	350.08	8.82	-41.2	-60.2	3.8	7.44e-01	0	54	104	0	53	33077
2026-01-01 03:17:42.81	349.61	8.99	-41.3	-60.2	3.8	7.46e-01	0	55	104	0	53	33220
2026-01-01 03:17:45.84	349.13	9.15	-41.2	-60.2	3.8	7.44e-01	0	55	104	0	54	31126
2026-01-01 03:17:48.87	348.65	9.32	-41.4	-60.3	3.8	7.49e-01	0	55	104	0	54	31674
2026-01-01 03:17:51.90	348.16	9.48	-42.0	-61.0	3.8	7.48e-01	0	55	104	0	54	34338
2026-01-01 03:17:54.93	347.67	9.64	-41.8	-60.7	3.8	7.47e-01	0	55	104	0	54	33248
2026-01-01 03:17:57.97	347.17	9.80	-42.0	-61.0	3.8	7.48e-01	0	55	104	0	54	34346
2026-01-01 03:18:01.00	346.66	9.97	-41.6	-60.5	3.8	7.48e-01	0	55	104	0	54	32526
2026-01-01 03:18:04.03	346.15	10.13	-41.6	-60.6	3.8	7.45e-01	0	55	104	0	54	32715
2026-01-01 03:18:07.06	345.63	10.29	-40.7	-59.9	3.8	7.45e-01	0	55	104	0	53	32005
2026-01-01 03:18:10.09	345.11	10.44	-40.9	-59.8	3.8	7.47e-01	0	55	104	0	53	31782
2026-01-01 03:18:13.12	344.58	10.60	-41.4	-60.5	3.8	7.47e-01	0	55	104	0	53	34125
2026-01-01 03:18:16.15	344.04	10.76	-41.2	-60.1	3.8	7.43e-01	0	55	104	0	53	32871
2026-01-01 03:18:19.19	343.50	10.91	-40.8	-59.8	3.8	7.39e-01	0	55	104	0	53	31528
2026-01-01 03:18:22.22	342.95	11.07	-40.8	-59.8	3.8	7.47e-01	0	56	104	0	53	31642
2026-01-01 03:18:25.25	342.39	11.22	-40.6	-59.7	3.8	7.47e-01	0	55	104	0	53	31379
2026-01-01 03:18:28.28	341.83	11.37	-40.7	-59.7	3.8	7.42e-01	0	56	104	0	53	31283
2026-01-01 03:18:31.31	341.26	11.52	-40.8	-59.8	3.8	7.47e-01	0	56	104	0	52	33636
2026-01-01 03:18:34.34	340.69	11.67	-40.5	-59.5	3.8	7.45e-01	0	56	104	0	52	32194
2026-01-01 03:18:37.37	340.11	11.81	-41.3	-54.6	5.3	7.08e-01	0	56	0	0	54	16480
2026-01-01 03:18:40.40	339.52	11.96	-41.8	-48.1	12.9	6.05e-01	0	56	0	2621440	54	7801
2026-01-01 03:18:43.44	338.92	12.10	-40.0	-43.0	19.0	6.00e-01	0	56	0	8388608	51	5156
2026-01-01 03:18:46.47	338.32	12.24	-37.6	-39.6	22.5	6.04e-01	0	56	0	14155776	47	4369
2026-01-01 03:18:49.50	337.72	12.38	-38.3	-40.4	22.1	6.00e-01	0	56	0	19922944	47	4767
2026-01-01 03:18:52.53	337.10	12.51	-38.1	-40.2	22.5	6.00e-01	0	56	0	25165824	47	4652
2026-01-01 03:18:55.56	336.49	12.65	-38.2	-40.3	22.4	6.00e-01	0	56	0	30932992	47	4732
2026-01-01 03:18:58.59	335.86	12.78	-38.2	-40.2	22.5	6.05e-01	0	56	0	36700160	47	4695
2026-01-01 03:19:01.61	335.23	12.91	-38.2	-40.2	22.6	6.01e-01	0	56	0	42467328	47	4665
2026-01-01 03:19:04.64	334.60	13.03	-38.1	-40.1	22.7	6.03e-01	0	56	0	48234496	47	4612
2026-01-01 03:19:07.67	333.95	13.16	-38.2	-40.2	22.6	6.00e-01	0	56	0	54001664	47	4675
2026-01-01 03:19:10.71	333.30	13.28	-38.1	-40.1	22.7	6.00e-01	0	56	0	59768832	47	4601
2026-01-01 03:19:13.74	332.65	13.40	-38.1	-40.1	22.7	6.01e-01	0	56	0	65011712	47	4643
2026-01-01 03:19:16.76	331.99	13.51	-38.2	-40.2	22.6	6.01e-01	0	56	0	70778880	47	4675
2026-01-01 03:19:19.80	331.32	13.63	-38.2	-40.2	22.7	6.02e-01	0	56	0	76546048	47	4654
2026-01-01 03:19:22.83	330.65	13.74	-38.2	-40.2	22.7	6.00e-01	0	56	0	82313216	47	4667
2026-01-01 03:19:25.85	329.98	13.84	-38.1	-40.1	22.7	6.04e-01	0	56	0	88080384	47	4620
2026-01-01 03:19:28.88	329.29	13.95	-38.4	-40.4	22.5	5.99e-01	0	56	0	93323264	47	4776
2026-01-01 03:19:31.91	328.61	14.05	-38.3	-40.3	22.6	6.00e-01	0	56	0	99090432	47	4750
2026-01-01 03:19:34.95	327.91	14.14	-38.3	-40.3	22.5	6.00e-01	0	56	0	104857600	47	4755
2026-01-01 03:19:37.97	327.22	14.23	-38.4	-40.4	22.5	6.03e-01	0	57	0	110624768	47	4798
2026-01-01 03:19:41.00	326.52	14.32	-38.2	-40.1	22.8	6.01e-01	0	57	0	116391936	47	4645
2026-01-01 03:19:44.03	325.81	14.41	-38.3	-40.3	22.7	6.01e-01	0	56	0	122159104	47	4711
2026-01-01 03:19:47.06	325.10	14.49	-38.2	-40.1	22.8	6.00e-01	0	56	0	127926272	47	4649
2026-01-01 03:19:50.09	324.39	14.57	-38.3	-40.3	22.6	6.03e-01	0	57	0	133169152	47	4746
2026-01-01 03:19:53.12	323.67	14.64	-38.1	-40.1	22.9	6.02e-01	0	56	0	138936320	47	4609
2026-01-01 03:19:56.15	322.95	14.71	-38.4	-40.4	22.6	6.02e-01	0	56	0	144703488	47	4772
2026-01-01 03:19:59.18	322.22	14.78	-38.0	-40.0	23.0	6.00e-01	0	56	0	150470656	47	4548
2026-01-01 03:20:02.21	321.49	14.84	-38.3	-40.3	22.7	6.00e-01	0	56	0	156237824	47	4729
2026-01-01 03:20:05.23	320.76	14.89	-38.4	-40.4	22.5	6.01e-01	0	57	0	161480704	47	4805
2026-01-01 03:20:08.26	320.03	14.95	-38.3	-40.3	22.7	6.04e-01	0	57	0	167247872	47	4730
2026-01-01 03:20:11.29	319.29	15.00	-38.3	-40.2	22.8	6.03e-01	0	57	0	173015040	47	4699
2026-01-01 03:20:14.32	318.55	15.04	-38.5	-40.6	22.3	6.01e-01	0	57	0	178782208	47	4893
2026-01-01 03:20:17.35	317.81	15.08	-37.9	-39.8	23.1	5.99e-01	0	57	0	184549376	47	4446
2026-01-01 03:20:20.38	317.06	15.11	-38.5	-40.5	22.5	5.99e-01	0	57	0	190316544	47	4856
2026-01-01 03:20:23.41	316.31	15.14	-38.3	-40.3	22.6	6.00e-01	0	57	0	196083712	47	4755
2026-01-01 03:20:26.44	315.57	15.17	-38.7	-40.7	22.8	6.01e-01	0	57	0	201326592	48	4653
2026-01-01 03:20:29.47	314.82	15.19	-38.8	-40.8	22.6	6.01e-01	0	57	0	207093760	48	4730
2026-01-01 03:20:32.50	314.07	15.21	-38.5	-40.4	22.9	6.01e-01	0	57	0	212860928	48	4508
2026-01-01 03:20:35.53	313.32	15.22	-38.7	-40.7	22.7	5.99e-01	0	57	0	218628096	48	4663
2026-01-01 03:20:38.56	312.56	15.23	-38.7	-40.6	22.7	6.02e-01	0	57	0	224395264	48	4649
2026-01-01 03:20:41.59	311.81	15.23	-38.4	-40.3	23.1	5.99e-01	0	57	0	230162432	48	4472
2026-01-01 03:20:44.62	311.06	15.23	-38.8	-40.9	22.5	6.03e-01	0	57	0	235405312	48	4760
2026-01-01 03:20:47.65	310.31	15.22	-38.5	-40.4	22.9	6.01e-01	0	57	0	241172480	48	4520
2026-01-01 03:20:50.68	309.56	15.21	-38.6	-40.6	22.7	6.01e-01	0	57	0	246939648	48	4631
2026-01-01 03:20:53.71	308.80	15.19	-38.4	-40.3	23.0	6.01e-01	0	57	0	252706816	48	4487
2026-01-01 03:20:56.74	308.05	15.17	-38.5	-40.5	22.8	6.01e-01	0	57	0	258473984	48	4569
2026-01-01 03:20:59.77	307.31	15.14	-38.9	-40.9	22.4	6.02e-01	0	57	0	264241152	48	4799
2026-01-01 03:21:02.80	306.56	15.11	-38.8	-40.8	22.5	6.02e-01	0	57	0	269484032	48	4712
2026-01-01 03:21:05.83	305.81	15.08	-38.7	-40.7	22.6	6.01e-01	0	57	0	275251200	48	4701
2026-01-01 03:21:08.86	305.07	15.04	-38.5	-40.4	22.8	6.02e-01	0	57	0	281018368	48	4533
2026-01-01 03:21:11.89	304.33	15.00	-38.9	-41.0	22.4	6.02e-01	0	57	0	286785536	48	4846
2026-01-01 03:21:14.93	303.59	14.95	-38.4	-40.4	22.9	6.02e-01	0	57	0	292552704	48	4495
2026-01-01 03:21:17.95	302.85	14.89	-38.1	-40.0	23.3	6.01e-01	0	57	0	298319872	48	4306
2026-01-01 03:21:20.98	302.12	14.84	-38.5	-40.4	22.9	6.01e-01	0	57	0	303562752	48	4515
2026-01-01 03:21:24.02	301.39	14.78	-38.4	-40.2	23.0	6.02e-01	0	57	0	309329920	48	4435
2026-01-01 03:21:27.05	300.66	14.71	-38.1	-40.0	23.2	6.00e-01	0	57	0	315097088	48	4303
2026-01-01 03:21:30.08	299.94	14.64	-38.0	-39.8	23.3	6.02e-01	0	57	0	320864256	48	4222
2026-01-01 03:21:33.11	299.22	14.57	-38.6	-40.6	22.6	6.02e-01	0	57	0	326631424	48	4647
2026-01-01 03:21:36.14	298.50	14.49	-39.0	-41.1	22.1	6.03e-01	0	57	0	332398592	48	4890
2026-01-01 03:21:39.17	297.79	14.41	-39.4	-41.7	21.6	6.02e-01	0	57	0	337641472	49	4931
2026-01-01 03:21:42.20	297.08	14.32	-39.2	-41.4	21.8	6.00e-01	0	57	0	343408640	48	5055
2026-01-01 03:21:45.23	296.38	14.23	-39.0	-41.1	22.0	5.99e-01	0	57	0	349175808	49	4629
2026-01-01 03:21:48.26	295.68	14.14	-38.3	-40.3	22.9	5.98e-01	0	57	0	354942976	48	4449
2026-01-01 03:21:51.29	294.99	14.04	-38.4	-40.4	22.7	6.01e-01	0	57	0	360710144	48	4516
2026-01-01 03:21:54.32	294.30	13.94	-38.4	-40.4	22.6	6.02e-01	0	57	0	366477312	48	4527
2026-01-01 03:21:57.35	293.61	13.84	-38.1	-40.0	22.9	6.02e-01	0	57	0	372244480	48	4331
2026-01-01 03:22:00.38	292.93	13.73	-37.6	-39.5	23.1	6.04e-01	0	57	0	377487360	47	4315
2026-01-01 03:22:03.41	292.26	13.62	-38.0	-40.0	22.5	6.04e-01	0	57	0	383254528	47	4577
2026-01-01 03:22:06.44	291.59	13.51	-38.0	-40.0	22.5	6.01e-01	0	57	0	389021696	47	4555
2026-01-01 03:22:09.47	290.93	13.40	-38.0	-40.0	22.5	6.01e-01	0	57	0	394788864	47	4576
2026-01-01 03:22:12.50	290.27	13.28	-38.0	-40.1	22.4	6.02e-01	0	57	0	400556032	47	4606
2026-01-01 03:22:15.53	289.62	13.15	-37.6	-39.5	22.8	6.02e-01	0	57	0	405798912	47	4319
2026-01-01 03:22:18.56	288.98	13.03	-38.1	-40.3	22.1	6.02e-01	0	57	0	411566080	47	4712
2026-01-01 03:22:21.59	288.34	12.90	-38.5	-40.8	21.5	6.02e-01	0	57	0	417333248	47	5022
2026-01-01 03:22:24.62	287.70	12.77	-38.8	-41.1	21.4	6.02e-01	0	57	0	423100416	48	4896
2026-01-01 03:22:27.65	287.08	12.64	-39.3	-41.8	20.5	6.01e-01	0	57	0	428867584	49	5018
2026-01-01 03:22:30.68	286.45	12.51	-39.4	-42.2	20.0	6.00e-01	0	57	0	434634752	49	5242
2026-01-01 03:22:33.71	285.84	12.37	-39.4	-42.2	19.9	6.03e-01	0	57	0	440401920	49	5258
2026-01-01 03:22:36.74	285.23	12.23	-39.6	-42.5	19.5	6.00e-01	0	57	0	445644800	49	5428
2026-01-01 03:22:39.77	284.63	12.09	-39.6	-42.5	19.4	6.02e-01	0	57	0	451411968	49	5450
2026-01-01 03:22:42.79	284.03	11.95	-39.4	-42.0	20.3	6.02e-01	0	57	0	457179136	49	5112
2026-01-01 03:22:45.82	283.44	11.80	-39.1	-41.5	20.3	6.01e-01	0	57	0	462946304	49	4824
2026-01-01 03:22:48.85	282.86	11.66	-38.8	-41.0	21.8	6.01e-01	0	57	0	468713472	49	4560
2026-01-01 03:22:51.88	282.28	11.51	-38.8	-41.0	21.9	5.99e-01	0	57	0	473956352	49	4556
2026-01-01 03:22:54.91	281.71	11.36	-38.7	-40.8	22.1	6.02e-01	0	57	0	479723520	49	4462
2026-01-01 03:22:57.94	281.14	11.21	-38.7	-40.8	22.1	6.04e-01	0	57	0	485490688	49	4458
2026-01-01 03:23:00.97	280.59	11.06	-38.9	-41.1	21.9	6.04e-01	0	57	0	491257856	49	4606
2026-01-01 03:23:04.00	280.03	10.90	-38.5	-40.6	22.1	6.01e-01	0	57	0	497025024	49	4371
2026-01-01 03:23:07.02	279.49	10.75	-38.7	-40.9	21.7	6.03e-01	0	57	0	502792192	48	4784
2026-01-01 03:23:10.06	278.95	10.59	-38.9	-41.3	21.2	6.00e-01	0	57	0	508559360	48	4992
2026-01-01 03:23:13.09	278.41	10.43	-39.2	-41.7	20.6	5.98e-01	0	57	0	513802240	48	5278
2026-01-01 03:23:16.12	277.89	10.27	-39.3	-42.1	19.9	6.00e-01	0	57	0	519569408	49	5216
2026-01-01 03:23:19.15	277.37	10.11	-39.5	-42.7	19.1	6.01e-01	0	57	0	525336576	49	5580
2026-01-01 03:23:22.18	276.85	9.95	-39.9	-43.7	17.9	6.01e-01	0	57	0	531103744	50	5885
2026-01-01 03:23:25.21	276.34	9.79	-40.2	-44.5	16.7	6.02e-01	0	57	0	536870912	50	6451
2026-01-01 03:23:28.24	275.84	9.63	-40.5	-45.4	15.4	6.00e-01	0	57	0	542638080	51	6767
2026-01-01 03:23:31.27	275.34	9.46	-40.8	-46.8	13.6	6.04e-01	0	57	0	547880960	52	7525
2026-01-01 03:23:34.30	274.85	9.30	-41.1	-48.6	11.5	6.10e-01	0	58	0	553648128	52	9193
2026-01-01 03:23:37.33	274.37	9.13	-41.1	-49.8	9.8	6.20e-01	0	58	0	559415296	52	10589
2026-01-01 03:23:40.36	273.89	8.97	-41.1	-51.3	8.1	6.42e-01	75	58	0	565182464	52	12530
2026-01-01 03:23:43.39	273.42	8.80	-41.0	-52.8	6.5	6.75e-01	92	58	0	570949632	52	14891
2026-01-01 03:23:46.42	272.95	8.64	-41.0	-53.4	5.9	6.84e-01	90	58	0	575668224	52	16092
2026-01-01 03:23:49.45	272.49	8.47	-41.1	-53.1	6.2	6.76e-01	91	57	0	580386816	52	15523
2026-01-01 03:23:52.49	272.03	8.30	-41.1	-53.5	5.9	6.84e-01	90	58	0	585629696	52	16163
2026-01-01 03:23:55.51	271.59	8.14	-41.2	-53.2	6.2	6.79e-01	92	57	0	590872576	53	14761
2026-01-01 03:23:58.55	271.14	7.97	-45.4	-64.1	3.8	7.48e-01	0	58	104	594542592	61	32641
2026-01-01 03:24:01.58	270.70	7.80	-45.2	-64.4	3.8	7.46e-01	0	58	104	594542592	62	31845
2026-01-01 03:24:04.61	270.27	7.63	-46.0	-64.8	3.8	7.43e-01	0	58	104	594542592	62	33433
2026-01-01 03:24:07.64	269.84	7.46	-46.0	-64.8	3.8	7.46e-01	0	58	104	594542592	62	33511
2026-01-01 03:24:10.67	269.42	7.29	-45.9	-64.7	3.8	7.47e-01	0	58	104	594542592	62	33068
2026-01-01 03:24:13.71	269.00	7.12	-45.9	-64.7	3.8	7.45e-01	0	58	104	594542592	62	33052
2026-01-01 03:24:16.74	268.59	6.96	-45.9	-64.7	3.8	7.48e-01	0	58	104	594542592	62	32933
2026-01-01 03:24:19.77	268.19	6.79	-45.9	-64.7	3.8	7.47e-01	0	58	104	594542592	62	32969
2026-01-01 03:24:22.81	267.78	6.62	-45.9	-64.6	3.8	7.47e-01	0	58	104	594542592	62	32921
2026-01-01 03:24:25.84	267.39	6.45	-45.9	-64.6	3.8	7.48e-01	0	58	104	594542592	62	32801
2026-01-01 03:24:28.87	267.00	6.28	-45.8	-64.6	3.8	7.47e-01	0	58	104	594542592	62	32862
2026-01-01 03:24:31.90	266.61	6.11	-45.9	-64.6	3.8	7.41e-01	0	58	104	594542592	62	32896
2026-01-01 03:24:34.94	266.23	5.94	-45.8	-64.6	3.8	7.42e-01	0	58	104	594542592	62	32890
2026-01-01 03:24:37.97	265.86	5.77	-45.9	-64.6	3.8	7.44e-01	0	58	104	594542592	62	32877
2026-01-01 03:24:41.00	265.48	5.60	-45.8	-64.6	3.8	7.47e-01	0	58	104	594542592	62	32826
2026-01-01 03:24:44.03	265.12	5.44	-45.8	-64.6	3.8	7.45e-01	0	58	104	594542592	62	32795
2026-01-01 03:24:47.07	264.76	5.27	-45.8	-64.6	3.8	7.46e-01	0	58	104	594542592	62	32890
2026-01-01 03:24:50.10	264.40	5.10	-45.9	-64.6	3.8	7.41e-01	0	58	104	594542592	62	32831
2026-01-01 03:24:53.13	264.05	4.93	-45.8	-64.6	3.8	7.45e-01	0	58	104	594542592	62	32826
2026-01-01 03:24:56.17	263.70	4.76	-45.9	-64.6	3.8	7.46e-01	0	58	104	594542592	62	32848
2026-01-01 03:24:59.20	263.35	4.60	-45.8	-64.6	3.8	7.41e-01	0	58	104	594542592	62	32841
2026-01-01 03:25:02.23	263.01	4.43	-45.8	-64.6	3.8	7.47e-01	0	58	104	594542592	62	32853
2026-01-01 03:25:05.26	262.68	4.26	-45.8	-64.6	3.8	7.46e-01	0	58	104	594542592	62	32876
2026-01-01 03:25:08.30	262.35	4.10	-45.8	-64.6	3.8	7.43e-01	0	58	104	594542592	62	32799
2026-01-01 03:25:11.33	262.02	3.93	-45.8	-64.6	3.8	7.47e-01	0	58	104	594542592	62	32791
2026-01-01 03:25:14.36	261.70	3.77	-45.8	-64.6	3.8	7.44e-01	0	58	104	594542592	62	32841
2026-01-01 03:25:17.39	261.38	3.60	-45.8	-64.6	3.8	7.49e-01	0	58	104	594542592	62	32840
2026-01-01 03:25:20.43	261.07	3.44	-45.8	-64.6	3.8	7.43e-01	0	58	104	594542592	62	32796
2026-01-01 03:25:23.46	260.75	3.27	-45.9	-64.6	3.8	7.46e-01	0	58	104	594542592	62	32833
2026-01-01 03:25:26.49	260.45	3.11	-45.8	-64.6	3.8	7.45e-01	0	58	104	594542592	62	32767
2026-01-01 03:25:29.53	260.14	2.94	-45.8	-64.6	3.8	7.48e-01	0	58	104	594542592	62	32788
2026-01-01 03:25:32.56	259.85	2.78	-45.8	-64.6	3.8	7.47e-01	0	58	104	594542592	62	32826
2026-01-01 03:25:35.59	259.55	2.62	-45.8	-64.6	3.8	7.46e-01	0	58	104	594542592	62	32850
2026-01-01 03:25:38.63	259.26	2.45	-45.8	-64.6	3.8	7.43e-01	0	58	104	594542592	62	32909
2026-01-01 03:25:41.66	258.97	2.29	-45.8	-64.6	3.8	7.49e-01	0	58	104	594542592	62	32770
2026-01-01 03:25:44.69	258.69	2.13	-45.8	-64.6	3.8	7.44e-01	0	58	104	594542592	62	32763
2026-01-01 03:25:47.72	258.40	1.97	-45.8	-64.6	3.8	7.43e-01	0	58	104	594542592	62	32836

#Closed at: 2026-01-01 03:25:48
#Recorded file [594 MB]: D:/lorett/data/31039_260101_061535.dat