passes_logs/2026/01/01/R2.0S_Moscow/R2.0S_Moscow__20260101_095056_FENGYUN_3D_rec.log

#Pass ID: 20260101_095056_FENGYUN 3D
#Satellite: FENGYUN 3D
#Configuration: FENGYUN 3D
#almurnet v.1.7.20251203
#Start time: 2026-01-01 09:50:58

#Version: 2.2.20231116
#Station: R2.0S_Moscow
#Location: 37.707566 lon 55.798166 lat
#TLE: 1 43010U 17072A   25365.48527867  .00000101  00000+0  69745-4 0  9999
#TLE: 2 43010  98.9911 332.0787 0001837 134.4748 225.6578 14.19689788421190

#Time	Az	El	Level	Level2	SNR	BER	BlckErr	Temp	State	Recorded	gain1	gain2
2026-01-01 09:50:58.61	98.73	2.11	-40.0	-51.6	3.8	8.45e-01	0	48	0	0	51	13800
2026-01-01 09:51:01.64	98.48	2.27	-40.0	-51.6	3.8	8.46e-01	0	49	104	0	51	13884
2026-01-01 09:51:04.67	98.23	2.43	-40.0	-51.6	3.8	8.46e-01	0	49	104	0	51	13842
2026-01-01 09:51:07.70	97.97	2.59	-40.0	-51.6	3.8	8.46e-01	0	49	104	0	51	13845
2026-01-01 09:51:10.74	97.71	2.75	-40.0	-51.6	3.8	8.45e-01	0	49	104	0	51	13869
2026-01-01 09:51:13.77	97.45	2.90	-40.0	-51.6	3.8	8.47e-01	0	49	104	0	51	13878
2026-01-01 09:51:16.80	97.19	3.06	-40.0	-51.6	3.8	8.46e-01	0	50	104	0	51	13866
2026-01-01 09:51:19.83	96.93	3.22	-40.0	-51.6	3.8	8.46e-01	0	50	104	0	51	13849
2026-01-01 09:51:22.87	96.66	3.38	-40.0	-51.6	3.8	8.46e-01	0	50	104	0	51	13795
2026-01-01 09:51:25.90	96.39	3.55	-40.0	-51.6	3.8	8.45e-01	0	50	104	0	51	13831
2026-01-01 09:51:28.93	96.11	3.71	-40.0	-51.6	3.8	8.48e-01	0	51	104	0	51	13833
2026-01-01 09:51:31.97	95.83	3.87	-40.0	-51.6	3.8	8.46e-01	0	51	104	0	51	13833
2026-01-01 09:51:35.00	95.55	4.03	-40.0	-51.6	3.8	8.46e-01	0	51	104	0	51	13833
2026-01-01 09:51:38.03	95.27	4.19	-40.0	-51.6	3.8	8.45e-01	0	51	104	0	51	13882
2026-01-01 09:51:41.06	94.98	4.35	-40.0	-51.6	3.8	8.46e-01	0	51	104	0	51	13818
2026-01-01 09:51:44.10	94.69	4.52	-40.0	-51.6	3.8	8.45e-01	0	51	104	0	51	13822
2026-01-01 09:51:47.13	94.39	4.68	-40.0	-51.6	3.8	8.45e-01	0	51	104	0	51	13843
2026-01-01 09:51:50.16	94.10	4.84	-40.0	-51.6	3.8	8.46e-01	0	52	104	0	51	13791
2026-01-01 09:51:53.20	93.79	5.01	-40.0	-51.6	3.8	8.45e-01	0	52	104	0	51	13835
2026-01-01 09:51:56.23	93.49	5.17	-40.0	-51.6	3.8	8.47e-01	0	52	104	0	51	13866
2026-01-01 09:51:59.26	93.18	5.33	-40.0	-51.6	3.8	8.46e-01	0	52	104	0	51	13873
2026-01-01 09:52:02.29	92.87	5.50	-39.9	-51.6	3.8	8.45e-01	0	52	104	0	51	13774
2026-01-01 09:52:05.33	92.56	5.66	-40.0	-51.6	3.8	8.46e-01	0	52	104	0	51	13833
2026-01-01 09:52:08.36	92.24	5.83	-40.0	-51.6	3.8	8.45e-01	0	52	104	0	51	13861
2026-01-01 09:52:11.39	91.91	5.99	-40.0	-51.6	3.8	8.46e-01	0	52	104	0	51	13823
2026-01-01 09:52:14.43	91.59	6.16	-40.0	-51.6	3.8	8.46e-01	0	53	104	0	51	13838
2026-01-01 09:52:17.46	91.26	6.32	-40.0	-51.6	3.8	8.46e-01	0	53	104	0	51	13826
2026-01-01 09:52:20.49	90.92	6.49	-40.0	-51.6	3.8	8.45e-01	0	53	104	0	51	13863
2026-01-01 09:52:23.52	90.59	6.65	-40.0	-51.6	3.8	8.46e-01	0	53	104	0	51	13870
2026-01-01 09:52:26.56	90.24	6.82	-40.0	-51.6	3.8	8.45e-01	0	53	104	0	51	13819
2026-01-01 09:52:29.59	89.90	6.98	-40.0	-51.6	3.8	8.47e-01	0	53	104	0	51	13803
2026-01-01 09:52:32.62	89.55	7.15	-40.0	-51.6	3.8	8.46e-01	0	53	104	0	51	13801
2026-01-01 09:52:35.66	89.19	7.32	-40.0	-51.6	3.8	8.47e-01	0	54	104	0	51	13837
2026-01-01 09:52:38.69	88.84	7.48	-40.0	-51.7	3.8	8.47e-01	0	54	104	0	51	13923
2026-01-01 09:52:41.72	88.47	7.65	-40.0	-51.7	3.8	8.46e-01	0	54	104	0	51	13886
2026-01-01 09:52:44.76	88.11	7.81	-40.0	-51.7	3.8	8.46e-01	0	54	104	0	51	13887
2026-01-01 09:52:47.79	87.74	7.98	-40.0	-51.6	3.8	8.47e-01	0	54	104	0	51	13856
2026-01-01 09:52:50.82	87.36	8.15	-40.2	-51.9	3.8	8.46e-01	0	54	104	0	52	13503
2026-01-01 09:52:53.86	86.98	8.31	-39.9	-51.7	3.8	8.46e-01	0	54	104	0	51	13931
2026-01-01 09:52:56.89	86.60	8.48	-40.1	-51.8	3.8	8.46e-01	0	54	104	0	51	14142
2026-01-01 09:52:59.92	86.21	8.64	-40.1	-51.7	3.8	8.47e-01	0	54	104	0	51	14033
2026-01-01 09:53:02.95	85.82	8.81	-40.2	-52.0	3.8	8.46e-01	0	54	104	0	51	14403
2026-01-01 09:53:05.98	85.42	8.97	-40.1	-51.8	3.8	8.46e-01	0	54	104	0	51	14094
2026-01-01 09:53:09.02	85.02	9.14	-40.1	-51.8	3.8	8.45e-01	0	54	104	0	51	14130
2026-01-01 09:53:12.05	84.61	9.30	-39.9	-51.6	3.8	8.47e-01	0	55	104	0	51	13752
2026-01-01 09:53:15.08	84.20	9.47	-39.8	-51.5	3.8	8.46e-01	0	55	104	0	51	13618
2026-01-01 09:53:18.11	83.79	9.63	-39.8	-51.5	3.8	8.46e-01	0	55	104	0	51	13590
2026-01-01 09:53:21.14	83.37	9.79	-39.8	-51.5	3.8	8.45e-01	0	55	104	0	51	13611
2026-01-01 09:53:24.17	82.94	9.96	-39.8	-51.5	3.8	8.46e-01	0	55	104	0	51	13608
2026-01-01 09:53:27.20	82.51	10.12	-39.9	-51.6	3.8	8.46e-01	0	55	104	0	51	13774
2026-01-01 09:53:30.23	82.08	10.28	-39.8	-51.5	3.8	8.46e-01	0	55	104	0	51	13617
2026-01-01 09:53:33.26	81.64	10.44	-40.0	-51.6	3.8	8.46e-01	0	55	104	0	51	13766
2026-01-01 09:53:36.29	81.19	10.61	-39.9	-51.5	3.8	8.47e-01	0	55	104	0	51	13651
2026-01-01 09:53:39.33	80.74	10.77	-40.0	-51.6	3.8	8.46e-01	0	55	104	0	51	13737
2026-01-01 09:53:42.36	80.29	10.93	-39.9	-51.5	3.8	8.45e-01	0	56	104	0	51	13711
2026-01-01 09:53:45.39	79.83	11.08	-40.1	-51.7	3.8	8.46e-01	0	55	104	0	51	13945
2026-01-01 09:53:48.42	79.36	11.24	-40.1	-51.7	3.8	8.47e-01	0	55	104	0	51	13905
2026-01-01 09:53:51.45	78.89	11.40	-40.2	-51.9	3.8	8.46e-01	0	56	104	0	51	14220
2026-01-01 09:53:54.49	78.42	11.56	-40.4	-52.0	3.8	8.46e-01	0	55	104	0	51	14375
2026-01-01 09:53:57.52	77.94	11.71	-40.5	-52.1	3.8	8.45e-01	0	56	104	0	51	14630
2026-01-01 09:54:00.55	77.45	11.87	-40.7	-52.3	3.8	8.47e-01	0	56	104	0	51	14975
2026-01-01 09:54:03.58	76.96	12.02	-40.5	-52.1	3.8	8.46e-01	0	55	104	0	52	13884
2026-01-01 09:54:06.61	76.47	12.17	-40.7	-52.4	3.8	8.46e-01	0	56	104	0	52	14313
2026-01-01 09:54:09.65	75.96	12.32	-40.8	-52.6	3.8	8.47e-01	0	56	104	0	52	14559
2026-01-01 09:54:12.68	75.46	12.47	-40.9	-52.5	3.8	8.46e-01	0	56	104	0	52	14447
2026-01-01 09:54:15.71	74.95	12.62	-40.9	-52.4	3.8	8.46e-01	0	56	104	0	52	14373
2026-01-01 09:54:18.74	74.43	12.77	-40.7	-52.4	3.8	8.46e-01	0	56	104	0	52	14231
2026-01-01 09:54:21.78	73.91	12.92	-40.7	-52.3	3.8	8.46e-01	0	56	104	0	52	14154
2026-01-01 09:54:24.81	73.38	13.06	-40.6	-52.2	3.8	8.46e-01	0	56	104	0	52	14024
2026-01-01 09:54:27.84	72.85	13.20	-40.6	-52.3	3.8	8.47e-01	0	56	104	0	52	14122
2026-01-01 09:54:30.87	72.31	13.34	-40.6	-51.5	3.8	8.46e-01	0	56	104	0	52	12956
2026-01-01 09:54:33.90	71.77	13.48	-40.7	-51.8	3.8	8.46e-01	0	56	104	0	52	13370
2026-01-01 09:54:36.94	71.22	13.62	-40.7	-50.5	3.8	8.46e-01	0	56	104	0	52	11535
2026-01-01 09:54:39.97	70.67	13.76	-40.9	-52.3	3.8	8.46e-01	0	56	104	0	52	14189
2026-01-01 09:54:43.00	70.11	13.89	-40.4	-46.8	5.4	7.48e-01	0	57	0	0	52	7472
2026-01-01 09:54:46.03	69.55	14.02	-39.6	-44.2	7.6	1.29e-01	0	56	0	15728640	51	5917
2026-01-01 09:54:49.06	68.98	14.15	-38.4	-41.7	10.3	1.08e-02	0	56	0	32505856	48	5257
2026-01-01 09:54:52.09	68.41	14.28	-37.2	-39.8	12.4	2.79e-04	0	56	0	49283072	46	4743
2026-01-01 09:54:55.12	67.83	14.41	-36.5	-38.7	13.6	2.28e-05	0	57	0	66060288	45	4435
2026-01-01 09:54:58.15	67.25	14.53	-35.6	-37.6	14.7	1.10e-06	0	57	0	83886080	43	4357
2026-01-01 09:55:01.18	66.66	14.65	-34.2	-35.9	16.8	0.00e+00	0	57	0	100663296	40	4247
2026-01-01 09:55:04.21	66.07	14.77	-34.5	-36.1	17.0	0.00e+00	0	57	0	117440512	39	4632
2026-01-01 09:55:07.25	65.47	14.88	-34.4	-35.9	17.5	0.00e+00	0	57	0	134217728	40	4288
2026-01-01 09:55:10.28	64.87	15.00	-33.7	-35.1	18.5	0.00e+00	0	56	0	152043520	39	4133
2026-01-01 09:55:13.31	64.26	15.11	-33.4	-34.7	19.1	0.00e+00	0	57	0	168820736	38	4180
2026-01-01 09:55:16.34	63.65	15.22	-33.6	-34.9	19.0	0.00e+00	0	56	0	185597952	38	4281
2026-01-01 09:55:19.37	63.04	15.32	-33.7	-35.1	18.9	0.00e+00	0	57	0	203423744	38	4351
2026-01-01 09:55:22.40	62.42	15.42	-33.8	-35.1	18.8	0.00e+00	0	57	0	220200960	38	4388
2026-01-01 09:55:25.43	61.79	15.52	-33.8	-35.2	18.8	0.00e+00	0	57	0	236978176	38	4397
2026-01-01 09:55:28.46	61.17	15.62	-33.9	-35.2	18.7	0.00e+00	0	57	0	253755392	38	4430
2026-01-01 09:55:31.50	60.53	15.71	-33.6	-34.9	19.0	0.00e+00	0	57	0	270532608	38	4280
2026-01-01 09:55:34.53	59.90	15.80	-33.8	-35.2	18.8	0.00e+00	0	57	0	288358400	38	4402
2026-01-01 09:55:37.56	59.26	15.89	-33.9	-35.3	18.7	0.00e+00	0	57	0	305135616	38	4483
2026-01-01 09:55:40.59	58.62	15.97	-33.6	-35.0	19.0	0.00e+00	0	57	0	321912832	38	4296
2026-01-01 09:55:43.63	57.97	16.05	-33.6	-34.9	19.1	0.00e+00	0	57	0	339738624	38	4287
2026-01-01 09:55:46.66	57.32	16.13	-33.7	-35.0	19.0	0.00e+00	0	57	0	356515840	38	4318
2026-01-01 09:55:49.69	56.66	16.20	-33.6	-34.9	19.1	0.00e+00	0	56	0	373293056	38	4275
2026-01-01 09:55:52.72	56.01	16.27	-33.8	-35.0	19.5	0.00e+00	0	57	0	390070272	38	4305
2026-01-01 09:55:55.75	55.35	16.33	-33.8	-35.0	19.5	0.00e+00	0	57	0	407896064	38	4320
2026-01-01 09:55:58.78	54.69	16.40	-33.6	-34.8	19.7	0.00e+00	0	57	0	424673280	38	4220
2026-01-01 09:56:01.81	54.02	16.45	-33.4	-34.6	19.9	0.00e+00	0	57	0	441450496	38	4103
2026-01-01 09:56:04.84	53.36	16.51	-33.6	-34.7	19.8	0.00e+00	0	57	0	458227712	38	4183
2026-01-01 09:56:07.87	52.69	16.56	-33.6	-34.8	19.8	0.00e+00	0	57	0	476053504	38	4195
2026-01-01 09:56:10.90	52.02	16.61	-33.5	-34.7	19.9	0.00e+00	0	57	0	492830720	38	4147
2026-01-01 09:56:13.93	51.34	16.65	-33.9	-35.1	19.5	0.00e+00	0	57	0	509607936	38	4341
2026-01-01 09:56:16.96	50.67	16.69	-33.8	-35.0	19.5	0.00e+00	0	57	0	526385152	38	4328
2026-01-01 09:56:19.99	49.99	16.72	-33.5	-34.7	19.9	0.00e+00	0	57	0	544210944	38	4161
2026-01-01 09:56:23.03	49.31	16.75	-33.4	-34.5	20.0	0.00e+00	0	57	0	560988160	38	4087
2026-01-01 09:56:26.06	48.63	16.78	-33.3	-34.5	20.1	0.00e+00	0	57	0	577765376	38	4058
2026-01-01 09:56:29.09	47.95	16.80	-33.2	-34.3	20.2	0.00e+00	0	57	0	594542592	38	3997
2026-01-01 09:56:32.12	47.27	16.82	-33.4	-34.6	20.0	0.00e+00	0	57	0	612368384	38	4103
2026-01-01 09:56:35.15	46.59	16.83	-33.5	-34.7	19.9	0.00e+00	0	57	0	629145600	38	4161
2026-01-01 09:56:38.17	45.91	16.85	-33.7	-34.8	19.7	0.00e+00	0	57	0	645922816	38	4241
2026-01-01 09:56:41.21	45.22	16.85	-33.7	-34.8	19.8	0.00e+00	0	57	0	662700032	38	4238
2026-01-01 09:56:44.23	44.54	16.85	-33.7	-34.9	19.7	0.00e+00	0	57	0	680525824	38	4271
2026-01-01 09:56:47.27	43.86	16.85	-33.6	-34.8	19.8	0.00e+00	0	57	0	697303040	38	4223
2026-01-01 09:56:50.30	43.17	16.84	-33.6	-34.7	19.9	0.00e+00	0	57	0	714080256	38	4178
2026-01-01 09:56:53.33	42.49	16.83	-33.3	-34.4	20.2	0.00e+00	0	57	0	731906048	38	4027
2026-01-01 09:56:56.36	41.81	16.82	-33.5	-34.7	19.9	0.00e+00	0	57	0	748683264	38	4159
2026-01-01 09:56:59.39	41.13	16.80	-33.3	-34.5	20.1	0.00e+00	0	57	0	765460480	38	4054
2026-01-01 09:57:02.42	40.45	16.78	-33.5	-34.7	20.0	0.00e+00	0	57	0	782237696	38	4148
2026-01-01 09:57:05.46	39.77	16.75	-33.5	-34.6	20.0	0.00e+00	0	57	0	799014912	38	4131
2026-01-01 09:57:08.49	39.09	16.72	-33.7	-34.9	19.7	0.00e+00	0	57	0	816840704	38	4255
2026-01-01 09:57:11.52	38.41	16.68	-33.7	-34.9	19.7	0.00e+00	0	57	0	833617920	38	4248
2026-01-01 09:57:14.55	37.74	16.65	-33.5	-34.6	20.0	0.00e+00	0	57	0	850395136	38	4136
2026-01-01 09:57:17.58	37.07	16.60	-33.5	-34.6	20.0	0.00e+00	0	57	0	868220928	38	4145
2026-01-01 09:57:20.62	36.39	16.56	-33.7	-34.8	19.8	0.00e+00	0	57	0	884998144	38	4228
2026-01-01 09:57:23.65	35.72	16.50	-33.7	-34.8	19.8	0.00e+00	0	57	0	901775360	38	4229
2026-01-01 09:57:26.68	35.06	16.45	-33.5	-34.7	19.9	0.00e+00	0	57	0	918552576	38	4147
2026-01-01 09:57:29.71	34.40	16.39	-33.6	-34.7	19.9	0.00e+00	0	57	0	936378368	38	4190
2026-01-01 09:57:32.74	33.74	16.33	-33.8	-35.0	19.6	0.00e+00	0	57	0	953155584	38	4304
2026-01-01 09:57:35.77	33.08	16.26	-33.9	-35.1	19.5	0.00e+00	0	57	0	969932800	38	4355
2026-01-01 09:57:38.80	32.42	16.19	-33.7	-34.9	19.7	0.00e+00	0	57	0	986710016	38	4247
2026-01-01 09:57:41.83	31.77	16.12	-33.8	-34.9	19.6	0.00e+00	0	57	0	1004535808	38	4290
2026-01-01 09:57:44.86	31.12	16.04	-33.8	-35.0	19.6	0.00e+00	0	57	0	1021313024	38	4327
2026-01-01 09:57:47.90	30.48	15.96	-33.8	-35.0	19.6	0.00e+00	0	57	0	1038090240	38	4312
2026-01-01 09:57:50.92	29.84	15.88	-34.0	-35.2	19.4	0.00e+00	0	57	0	1055916032	38	4416
2026-01-01 09:57:53.95	29.20	15.79	-33.8	-35.0	19.6	0.00e+00	0	57	0	1072693248	38	4305
2026-01-01 09:57:56.98	28.57	15.70	-34.2	-35.4	19.2	0.00e+00	0	57	0	1089470464	38	4517
2026-01-01 09:58:00.02	27.94	15.61	-33.8	-35.0	19.6	0.00e+00	0	57	0	1106247680	38	4311
2026-01-01 09:58:03.04	27.31	15.52	-33.9	-35.1	19.5	0.00e+00	0	57	0	1123024896	38	4345
2026-01-01 09:58:06.08	26.69	15.42	-34.0	-35.2	19.3	0.00e+00	0	57	0	1140850688	38	4405
2026-01-01 09:58:09.11	26.07	15.31	-34.0	-35.3	19.3	0.00e+00	0	57	0	1157627904	38	4443
2026-01-01 09:58:12.14	25.46	15.21	-34.1	-35.4	19.1	0.00e+00	0	57	0	1174405120	38	4497
2026-01-01 09:58:15.17	24.85	15.10	-34.1	-35.4	19.2	0.00e+00	0	58	0	1192230912	38	4497
2026-01-01 09:58:18.20	24.25	14.99	-34.2	-35.4	19.1	0.00e+00	0	57	0	1209008128	39	4280
2026-01-01 09:58:21.23	23.65	14.88	-34.2	-35.4	19.1	0.00e+00	0	57	0	1225785344	39	4288
2026-01-01 09:58:24.26	23.05	14.76	-34.2	-35.4	19.1	0.00e+00	0	57	0	1242562560	39	4278
2026-01-01 09:58:27.30	22.46	14.64	-34.2	-35.4	19.1	0.00e+00	0	57	0	1260388352	39	4266
2026-01-01 09:58:30.33	21.88	14.52	-34.3	-35.6	18.9	0.00e+00	0	57	0	1277165568	39	4345
2026-01-01 09:58:33.36	21.30	14.40	-34.2	-35.4	19.1	0.00e+00	0	57	0	1293942784	39	4261
2026-01-01 09:58:36.39	20.72	14.27	-34.3	-35.6	18.9	0.00e+00	0	57	0	1310720000	39	4348
2026-01-01 09:58:39.42	20.15	14.15	-34.3	-35.6	18.9	0.00e+00	0	58	0	1328545792	39	4344
2026-01-01 09:58:42.46	19.58	14.02	-34.5	-35.8	18.7	0.00e+00	0	58	0	1345323008	39	4453
2026-01-01 09:58:45.49	19.02	13.88	-34.8	-36.1	18.3	0.00e+00	0	57	0	1362100224	40	4367
2026-01-01 09:58:48.52	18.47	13.75	-34.7	-36.0	18.4	0.00e+00	0	58	0	1379926016	40	4297
2026-01-01 09:58:51.55	17.92	13.61	-34.6	-35.9	18.4	0.00e+00	0	58	0	1396703232	40	4270
2026-01-01 09:58:54.58	17.37	13.48	-34.6	-35.9	18.4	0.00e+00	0	57	0	1413480448	40	4288
2026-01-01 09:58:57.61	16.83	13.34	-34.9	-36.2	18.1	0.00e+00	0	58	0	1430257664	40	4412
2026-01-01 09:59:00.65	16.30	13.20	-34.9	-36.3	18.0	0.00e+00	0	57	0	1447034880	40	4461
2026-01-01 09:59:03.68	15.77	13.05	-34.8	-36.1	18.1	0.00e+00	0	57	0	1464860672	40	4384
2026-01-01 09:59:06.71	15.24	12.91	-34.7	-36.0	18.2	0.00e+00	0	57	0	1481637888	40	4339
2026-01-01 09:59:09.74	14.72	12.76	-34.7	-36.0	18.2	0.00e+00	0	58	0	1498415104	40	4322
2026-01-01 09:59:12.77	14.21	12.62	-34.6	-36.0	18.3	0.00e+00	0	57	0	1516240896	40	4298
2026-01-01 09:59:15.80	13.70	12.47	-34.7	-36.1	18.1	0.00e+00	0	57	0	1533018112	40	4342
2026-01-01 09:59:18.83	13.20	12.32	-34.8	-36.2	18.0	0.00e+00	0	57	0	1549795328	40	4403
2026-01-01 09:59:21.86	12.70	12.17	-34.7	-36.0	18.1	0.00e+00	0	58	0	1566572544	40	4313
2026-01-01 09:59:24.89	12.21	12.02	-34.9	-36.2	17.9	0.00e+00	0	57	0	1584398336	40	4421
2026-01-01 09:59:27.92	11.72	11.86	-35.0	-36.4	17.6	0.00e+00	0	57	0	1601175552	40	4529
2026-01-01 09:59:30.95	11.24	11.71	-35.0	-36.4	17.5	0.00e+00	0	57	0	1617952768	40	4504
2026-01-01 09:59:33.98	10.76	11.55	-35.9	-37.6	15.8	0.00e+00	0	58	0	1634729984	42	4615
2026-01-01 09:59:37.01	10.29	11.40	-37.6	-40.1	12.5	8.69e-05	0	57	0	1651507200	45	5167
2026-01-01 09:59:40.04	9.82	11.24	-38.7	-42.3	9.4	1.29e-02	0	58	0	1669332992	47	5979
2026-01-01 09:59:43.07	9.36	11.08	-39.2	-44.1	7.2	1.39e-01	0	58	0	1686110208	48	6903
2026-01-01 09:59:46.10	8.90	10.93	-39.7	-46.6	4.9	7.53e-01	0	57	0	1697644544	49	8747
2026-01-01 09:59:49.13	8.45	10.77	-39.8	-48.6	4.1	8.39e-01	0	58	0	1698693120	50	10369
2026-01-01 09:59:52.17	8.00	10.61	-39.8	-49.6	3.8	8.45e-01	0	58	104	1698693120	50	11587
2026-01-01 09:59:55.20	7.56	10.44	-39.8	-50.9	3.8	8.46e-01	0	58	104	1698693120	50	13422
2026-01-01 09:59:58.23	7.13	10.28	-39.7	-51.3	3.8	8.46e-01	0	58	104	1698693120	50	14150
2026-01-01 10:00:01.26	6.69	10.12	-39.6	-51.3	3.8	8.45e-01	0	58	104	1698693120	50	14076
2026-01-01 10:00:04.29	6.27	9.96	-39.5	-51.1	3.8	8.46e-01	0	58	104	1698693120	50	13884
2026-01-01 10:00:07.32	5.84	9.80	-39.5	-51.1	3.8	8.46e-01	0	58	104	1698693120	50	13864
2026-01-01 10:00:10.35	5.43	9.63	-39.5	-51.2	3.8	8.46e-01	0	58	104	1698693120	50	13971
2026-01-01 10:00:13.38	5.01	9.47	-39.6	-51.2	3.8	8.47e-01	0	58	104	1698693120	50	14003
2026-01-01 10:00:16.41	4.61	9.31	-39.6	-51.3	3.8	8.45e-01	0	58	104	1698693120	50	14171
2026-01-01 10:00:19.45	4.20	9.14	-39.6	-51.3	3.8	8.46e-01	0	58	104	1698693120	50	14097
2026-01-01 10:00:22.48	3.80	8.98	-39.7	-51.4	3.8	8.46e-01	0	58	104	1698693120	50	14242
2026-01-01 10:00:25.51	3.41	8.81	-39.6	-51.3	3.8	8.46e-01	0	58	104	1698693120	50	14089
2026-01-01 10:00:28.54	3.02	8.65	-39.6	-51.3	3.8	8.46e-01	0	58	104	1698693120	50	14103
2026-01-01 10:00:31.58	2.63	8.48	-39.7	-51.4	3.8	8.46e-01	0	58	104	1698693120	50	14352
2026-01-01 10:00:34.61	2.25	8.32	-39.7	-51.4	3.8	8.46e-01	0	58	104	1698693120	50	14284
2026-01-01 10:00:37.64	1.88	8.15	-39.6	-51.4	3.8	8.46e-01	0	58	104	1698693120	50	14352
2026-01-01 10:00:40.68	1.51	7.99	-39.6	-51.4	3.8	8.45e-01	0	58	104	1698693120	50	14360
2026-01-01 10:00:43.71	1.14	7.82	-44.9	-56.6	3.8	8.46e-01	0	58	104	1698693120	60	14586
2026-01-01 10:00:46.74	0.77	7.66	-45.2	-56.9	3.8	8.46e-01	0	58	104	1698693120	60	15088
2026-01-01 10:00:49.77	0.42	7.49	-45.2	-56.9	3.8	8.47e-01	0	58	104	1698693120	61	14253
2026-01-01 10:00:52.81	0.06	7.32	-45.1	-56.8	3.8	8.46e-01	0	58	104	1698693120	61	14079
2026-01-01 10:00:55.83	359.71	7.16	-45.1	-56.7	3.8	8.47e-01	0	58	104	1698693120	61	13929
2026-01-01 10:00:58.86	359.36	6.99	-45.0	-56.7	3.8	8.45e-01	0	58	104	1698693120	61	13893
2026-01-01 10:01:01.89	359.02	6.83	-45.0	-56.6	3.8	8.46e-01	0	58	104	1698693120	61	13833
2026-01-01 10:01:04.93	358.68	6.66	-45.0	-56.6	3.8	8.46e-01	0	58	104	1698693120	61	13806
2026-01-01 10:01:07.96	358.35	6.50	-45.0	-56.6	3.8	8.47e-01	0	58	104	1698693120	61	13825
2026-01-01 10:01:10.99	358.02	6.33	-45.0	-56.6	3.8	8.46e-01	0	58	104	1698693120	61	13787
2026-01-01 10:01:14.03	357.69	6.17	-45.0	-56.6	3.8	8.45e-01	0	58	104	1698693120	61	13803
2026-01-01 10:01:17.06	357.37	6.00	-45.0	-56.6	3.8	8.47e-01	0	58	104	1698693120	60	14645
2026-01-01 10:01:20.09	357.05	5.84	-45.0	-56.6	3.8	8.46e-01	0	58	104	1698693120	60	14610
2026-01-01 10:01:23.13	356.73	5.67	-45.0	-56.6	3.8	8.44e-01	0	58	104	1698693120	60	14632
2026-01-01 10:01:26.16	356.42	5.51	-44.7	-56.6	3.8	8.45e-01	0	58	104	1698693120	60	14602
2026-01-01 10:01:29.19	356.11	5.35	-45.0	-56.6	3.8	8.45e-01	0	58	104	1698693120	60	14573
2026-01-01 10:01:32.23	355.81	5.18	-45.0	-56.6	3.8	8.46e-01	0	58	104	1698693120	60	14597
2026-01-01 10:01:35.26	355.50	5.02	-45.0	-56.6	3.8	8.47e-01	0	58	104	1698693120	60	14577
2026-01-01 10:01:38.29	355.21	4.86	-45.0	-56.6	3.8	8.47e-01	0	58	104	1698693120	60	14598
2026-01-01 10:01:41.32	354.91	4.69	-45.0	-56.6	3.8	8.45e-01	0	58	104	1698693120	60	14558
2026-01-01 10:01:44.36	354.62	4.53	-44.9	-56.6	3.8	8.46e-01	0	58	104	1698693120	60	14554
2026-01-01 10:01:47.39	354.33	4.37	-44.9	-56.6	3.8	8.46e-01	0	58	104	1698693120	60	14543
2026-01-01 10:01:50.42	354.05	4.21	-44.9	-56.6	3.8	8.45e-01	0	58	104	1698693120	60	14544
2026-01-01 10:01:53.45	353.77	4.04	-44.9	-56.6	3.8	8.46e-01	0	58	104	1698693120	60	14542
2026-01-01 10:01:56.48	353.49	3.88	-44.9	-56.5	3.8	8.44e-01	0	58	104	1698693120	60	14521
2026-01-01 10:01:59.51	353.22	3.72	-44.9	-56.6	3.8	8.45e-01	0	58	104	1698693120	60	14548
2026-01-01 10:02:02.54	352.94	3.56	-44.9	-56.6	3.8	8.46e-01	0	58	104	1698693120	60	14559
2026-01-01 10:02:05.58	352.67	3.40	-44.9	-56.5	3.8	8.46e-01	0	58	104	1698693120	60	14540
2026-01-01 10:02:08.61	352.41	3.24	-44.9	-56.6	3.8	8.48e-01	0	58	104	1698693120	60	14544
2026-01-01 10:02:11.64	352.15	3.08	-44.9	-56.5	3.8	8.45e-01	0	58	104	1698693120	60	14525
2026-01-01 10:02:14.68	351.89	2.92	-44.9	-56.6	3.8	8.46e-01	0	58	104	1698693120	60	14556
2026-01-01 10:02:17.71	351.63	2.76	-44.9	-56.5	3.8	8.47e-01	0	58	104	1698693120	60	14538
2026-01-01 10:02:20.74	351.38	2.60	-44.9	-56.5	3.8	8.46e-01	0	58	104	1698693120	60	14482
2026-01-01 10:02:23.78	351.13	2.45	-44.9	-56.5	3.8	8.46e-01	0	58	104	1698693120	60	14464
2026-01-01 10:02:26.81	350.88	2.29	-44.9	-56.5	3.8	8.45e-01	0	58	104	1698693120	60	14491
2026-01-01 10:02:29.84	350.63	2.13	-44.9	-56.5	3.8	8.47e-01	0	58	104	1698693120	60	14489

#Closed at: 2026-01-01 10:02:32
#Recorded file [1698 MB]: D:/lorett/data/31039_260101_125058.dat