passes_logs/2026/01/01/R2.0S_Moscow/R2.0S_Moscow__20260101_234823_NOAA_21_JPSS-2_rec.log

#Pass ID: 20260101_234823_NOAA 21 (JPSS-2)
#Satellite: NOAA 21 (JPSS-2)
#Configuration: NOAA-21
#almurnet v.1.7.20251203
#Start time: 2026-01-01 23:48:24

#Version: 2.2.20231116
#Station: R2.0S_Moscow
#Location: 37.707566 lon 55.798166 lat
#TLE: 1 54234U 22150A   26001.26806856  .00000185  00000+0  10843-3 0  9990
#TLE: 2 54234  98.7484 302.3349 0001277 353.3887   6.7272 14.19530660162860

#Time	Az	El	Level	Level2	SNR	BER	BlckErr	Temp	State	Recorded	gain1	gain2
2026-01-01 23:48:24.25	15.52	2.08	-42.7	-55.2	3.8	1.49e+00	0	48	0	0	57	14715
2026-01-01 23:48:28.28	15.51	2.34	-42.7	-55.1	3.8	1.49e+00	0	48	104	0	56	15550
2026-01-01 23:48:32.33	15.50	2.60	-42.7	-55.1	3.8	1.49e+00	0	49	104	0	56	15472
2026-01-01 23:48:36.38	15.49	2.87	-42.7	-55.1	3.8	1.49e+00	0	49	104	0	56	15579
2026-01-01 23:48:40.42	15.48	3.13	-42.7	-55.1	3.8	1.49e+00	0	49	104	0	56	15529
2026-01-01 23:48:44.46	15.47	3.40	-42.7	-55.1	3.8	1.49e+00	0	49	104	0	56	15482
2026-01-01 23:48:48.51	15.46	3.68	-42.7	-55.1	3.8	1.49e+00	0	50	104	0	56	15485
2026-01-01 23:48:52.55	15.45	3.95	-42.7	-55.1	3.8	1.49e+00	0	50	104	0	56	15493
2026-01-01 23:48:56.60	15.43	4.23	-42.7	-55.1	3.8	1.49e+00	0	51	104	0	56	15436
2026-01-01 23:49:00.64	15.42	4.51	-42.7	-55.1	3.8	1.49e+00	0	50	104	0	56	15429
2026-01-01 23:49:04.68	15.40	4.79	-42.7	-55.1	3.8	1.49e+00	0	51	104	0	56	15415
2026-01-01 23:49:08.73	15.39	5.08	-42.7	-55.1	3.8	1.49e+00	0	51	104	0	56	15451
2026-01-01 23:49:12.77	15.37	5.37	-42.7	-55.0	3.8	1.49e+00	0	51	104	0	56	15353
2026-01-01 23:49:16.82	15.36	5.66	-42.7	-55.0	3.8	1.49e+00	0	52	104	0	56	15360
2026-01-01 23:49:20.86	15.34	5.96	-42.7	-54.9	3.8	1.49e+00	0	52	104	0	56	15105
2026-01-01 23:49:24.91	15.32	6.26	-42.7	-54.5	3.8	1.49e+00	0	52	104	0	56	14508
2026-01-01 23:49:28.95	15.30	6.56	-42.5	-53.1	3.8	1.49e+00	0	52	104	0	56	12283
2026-01-01 23:49:32.99	15.28	6.87	-41.8	-48.9	5.3	6.72e-01	0	52	0	2097152	55	8050
2026-01-01 23:49:37.04	15.26	7.18	-39.8	-43.3	10.5	5.95e-03	0	52	0	14680064	51	5285
2026-01-01 23:49:41.08	15.24	7.49	-36.8	-38.8	15.0	7.00e-07	0	53	0	27262976	45	4486
2026-01-01 23:49:45.13	15.22	7.81	-38.3	-40.9	12.9	2.82e-05	0	53	0	39845888	47	5056
2026-01-01 23:49:49.17	15.20	8.13	-38.5	-40.9	13.6	1.06e-05	0	53	0	52428800	47	5055
2026-01-01 23:49:53.21	15.18	8.46	-39.7	-42.5	12.1	4.20e-04	0	53	0	62914560	50	5149
2026-01-01 23:49:57.25	15.15	8.79	-38.2	-40.2	14.5	0.00e+00	0	53	0	75497472	48	4435
2026-01-01 23:50:01.29	15.13	9.12	-37.6	-39.5	15.2	0.00e+00	0	53	0	88080384	47	4312
2026-01-01 23:50:05.33	15.10	9.46	-37.6	-39.4	15.3	0.00e+00	0	53	0	100663296	47	4286
2026-01-01 23:50:09.37	15.07	9.81	-37.4	-39.2	15.7	0.00e+00	0	53	0	113246208	46	4393
2026-01-01 23:50:13.41	15.04	10.16	-37.2	-38.9	15.9	0.00e+00	0	54	0	125829120	46	4269
2026-01-01 23:50:17.46	15.01	10.51	-37.1	-38.8	16.1	0.00e+00	0	54	0	138412032	46	4213
2026-01-01 23:50:21.50	14.98	10.87	-37.0	-38.6	16.2	0.00e+00	0	54	0	150994944	45	4388
2026-01-01 23:50:25.54	14.95	11.24	-37.0	-38.7	16.2	0.00e+00	0	54	0	163577856	45	4415
2026-01-01 23:50:29.58	14.92	11.60	-37.1	-38.8	16.2	0.00e+00	0	54	0	176160768	45	4467
2026-01-01 23:50:33.61	14.88	11.98	-36.8	-38.4	16.6	0.00e+00	0	54	0	188743680	45	4267
2026-01-01 23:50:37.66	14.85	12.36	-36.6	-38.2	16.8	0.00e+00	0	54	0	201326592	45	4177
2026-01-01 23:50:41.70	14.81	12.75	-36.5	-38.1	16.9	0.00e+00	0	54	0	213909504	45	4125
2026-01-01 23:50:45.74	14.77	13.14	-36.4	-37.9	17.1	0.00e+00	0	54	0	226492416	44	4279
2026-01-01 23:50:49.78	14.73	13.54	-36.3	-37.8	17.3	0.00e+00	0	55	0	239075328	44	4226
2026-01-01 23:50:53.82	14.69	13.95	-36.2	-37.7	17.4	0.00e+00	0	55	0	251658240	44	4172
2026-01-01 23:50:57.85	14.65	14.36	-36.3	-37.7	17.5	0.00e+00	0	55	0	265289728	44	4180
2026-01-01 23:51:01.89	14.60	14.78	-36.2	-37.7	17.5	0.00e+00	0	55	0	276824064	44	4160
2026-01-01 23:51:05.93	14.56	15.21	-36.3	-37.7	17.5	0.00e+00	0	55	0	290455552	44	4184
2026-01-01 23:51:09.97	14.51	15.65	-36.2	-37.7	17.5	0.00e+00	0	55	0	303038464	44	4165
2026-01-01 23:51:14.01	14.46	16.09	-36.2	-37.6	17.6	0.00e+00	0	55	0	315621376	44	4135
2026-01-01 23:51:18.05	14.40	16.54	-36.2	-37.7	17.6	0.00e+00	0	55	0	328204288	44	4151
2026-01-01 23:51:22.09	14.35	17.00	-36.2	-37.7	17.7	0.00e+00	0	55	0	340787200	44	4147
2026-01-01 23:51:26.12	14.29	17.47	-36.3	-37.7	17.6	0.00e+00	0	55	0	353370112	44	4159
2026-01-01 23:51:30.16	14.23	17.95	-36.3	-37.7	17.6	0.00e+00	0	55	0	365953024	44	4177
2026-01-01 23:51:34.20	14.17	18.44	-36.3	-37.7	17.6	0.00e+00	0	55	0	378535936	44	4173
2026-01-01 23:51:38.24	14.11	18.94	-36.2	-37.6	17.7	0.00e+00	0	56	0	391118848	44	4135
2026-01-01 23:51:42.28	14.04	19.44	-36.1	-37.5	17.8	0.00e+00	0	56	0	403701760	44	4082
2026-01-01 23:51:46.32	13.97	19.96	-35.8	-37.2	18.0	0.00e+00	0	55	0	416284672	43	4150
2026-01-01 23:51:50.36	13.90	20.49	-35.6	-36.9	18.2	0.00e+00	0	56	0	428867584	43	4044
2026-01-01 23:51:54.39	13.82	21.03	-35.3	-36.6	18.5	0.00e+00	0	56	0	441450496	42	4136
2026-01-01 23:51:58.43	13.74	21.58	-35.2	-36.4	18.8	0.00e+00	0	56	0	454033408	42	4042
2026-01-01 23:52:02.47	13.66	22.15	-34.9	-36.2	19.0	0.00e+00	0	56	0	466616320	41	4146
2026-01-01 23:52:06.51	13.57	22.73	-34.7	-35.9	19.3	0.00e+00	0	56	0	479199232	41	4032
2026-01-01 23:52:10.55	13.48	23.32	-34.5	-35.7	19.4	0.00e+00	0	56	0	491782144	41	3951
2026-01-01 23:52:14.59	13.39	23.92	-34.5	-35.7	19.5	0.00e+00	0	56	0	504365056	41	3927
2026-01-01 23:52:18.63	13.29	24.54	-34.7	-35.9	19.3	0.00e+00	0	56	0	516947968	41	4029
2026-01-01 23:52:22.66	13.19	25.18	-35.0	-36.3	19.0	0.00e+00	0	56	0	529530880	41	4197
2026-01-01 23:52:26.70	13.08	25.83	-35.3	-36.6	18.7	0.00e+00	0	56	0	542113792	41	4372
2026-01-01 23:52:30.75	12.97	26.49	-35.6	-37.0	18.4	0.00e+00	0	56	0	554696704	41	4551
2026-01-01 23:52:34.78	12.85	27.17	-35.8	-37.2	18.1	0.00e+00	0	56	0	567279616	42	4409
2026-01-01 23:52:38.82	12.72	27.87	-35.9	-37.3	18.1	0.00e+00	0	56	0	579862528	42	4457
2026-01-01 23:52:42.86	12.59	28.59	-36.0	-37.4	18.0	0.00e+00	0	56	0	592445440	42	4514
2026-01-01 23:52:46.90	12.45	29.33	-35.8	-37.2	18.2	0.00e+00	0	56	0	605028352	42	4400
2026-01-01 23:52:50.94	12.31	30.08	-35.9	-37.3	18.1	0.00e+00	0	56	0	617611264	42	4453
2026-01-01 23:52:54.98	12.16	30.86	-35.7	-37.1	18.3	0.00e+00	0	56	0	631242752	42	4349
2026-01-01 23:52:59.02	11.99	31.66	-35.9	-37.3	18.1	0.00e+00	0	56	0	643825664	42	4461
2026-01-01 23:53:03.06	11.82	32.48	-36.0	-37.4	18.0	0.00e+00	0	56	0	656408576	42	4543
2026-01-01 23:53:07.10	11.64	33.32	-36.6	-38.1	17.4	0.00e+00	0	56	0	668991488	43	4628
2026-01-01 23:53:11.14	11.45	34.19	-37.0	-38.5	17.2	0.00e+00	0	56	0	681574400	44	4571
2026-01-01 23:53:15.18	11.25	35.08	-37.5	-39.2	16.5	0.00e+00	0	56	0	694157312	45	4652
2026-01-01 23:53:19.22	11.04	35.99	-37.9	-39.6	16.1	0.00e+00	0	56	0	706740224	46	4629
2026-01-01 23:53:23.26	10.81	36.94	-38.2	-40.0	15.8	0.00e+00	0	56	0	719323136	46	4844
2026-01-01 23:53:27.30	10.57	37.91	-37.9	-39.6	16.2	0.00e+00	0	56	0	731906048	46	4624
2026-01-01 23:53:31.34	10.31	38.90	-37.9	-39.6	16.1	0.00e+00	0	56	0	744488960	46	4648
2026-01-01 23:53:35.38	10.03	39.93	-37.9	-39.6	16.1	0.00e+00	0	56	0	757071872	46	4604
2026-01-01 23:53:39.42	9.74	40.99	-38.2	-39.9	15.8	0.00e+00	0	56	0	769654784	47	4544
2026-01-01 23:53:43.45	9.42	42.07	-38.1	-39.9	15.9	0.00e+00	0	56	0	782237696	47	4510
2026-01-01 23:53:47.49	9.08	43.20	-38.2	-39.9	15.7	0.00e+00	0	57	0	794820608	47	4533
2026-01-01 23:53:51.53	8.71	44.35	-38.5	-40.4	15.2	0.00e+00	0	56	0	807403520	47	4777
2026-01-01 23:53:55.56	8.32	45.53	-39.1	-41.1	14.8	0.00e+00	0	56	0	819986432	48	4888
2026-01-01 23:53:59.60	7.89	46.75	-38.7	-40.6	15.3	0.00e+00	0	56	0	832569344	48	4602
2026-01-01 23:54:03.65	7.43	48.01	-38.2	-39.9	16.0	0.00e+00	0	57	0	845152256	48	4253
2026-01-01 23:54:07.69	6.92	49.31	-37.8	-39.5	16.3	0.00e+00	0	56	0	857735168	47	4304
2026-01-01 23:54:11.73	6.37	50.63	-38.5	-40.3	15.5	0.00e+00	0	57	0	870318080	47	4748
2026-01-01 23:54:15.77	5.77	52.00	-37.9	-39.5	16.2	0.00e+00	0	57	0	882900992	47	4326
2026-01-01 23:54:19.81	5.10	53.40	-37.3	-38.8	16.9	0.00e+00	0	57	0	895483904	46	4231
2026-01-01 23:54:23.84	4.37	54.83	-37.3	-38.8	17.0	0.00e+00	0	57	0	908066816	46	4222
2026-01-01 23:54:27.88	3.56	56.30	-36.5	-37.9	17.8	0.00e+00	0	56	0	920649728	44	4268
2026-01-01 23:54:31.92	2.65	57.80	-35.5	-36.8	18.7	0.00e+00	0	57	0	933232640	43	3977
2026-01-01 23:54:35.96	1.63	59.34	-35.4	-36.7	18.8	0.00e+00	0	57	0	946864128	42	4150
2026-01-01 23:54:40.01	0.48	60.91	-35.4	-36.6	18.8	0.00e+00	0	57	0	959447040	42	4144
2026-01-01 23:54:44.05	359.17	62.50	-34.5	-35.7	19.7	0.00e+00	0	57	0	972029952	41	3922
2026-01-01 23:54:48.09	357.68	64.12	-34.7	-35.9	19.5	0.00e+00	0	57	0	984612864	40	4270
2026-01-01 23:54:52.13	355.96	65.75	-34.7	-35.9	19.5	0.00e+00	0	57	0	997195776	40	4269
2026-01-01 23:54:56.17	353.96	67.39	-34.3	-35.5	19.9	0.00e+00	0	57	0	1009778688	40	4073
2026-01-01 23:55:00.21	351.61	69.04	-34.6	-35.8	19.5	0.00e+00	0	57	0	1022361600	40	4222
2026-01-01 23:55:04.25	348.82	70.68	-34.3	-35.5	19.7	0.00e+00	0	57	0	1034944512	40	4052
2026-01-01 23:55:08.29	345.49	72.29	-34.2	-35.3	19.8	0.00e+00	0	57	0	1047527424	39	4241
2026-01-01 23:55:12.33	341.45	73.85	-34.1	-35.1	20.1	0.00e+00	0	57	0	1060110336	39	4145
2026-01-01 23:55:16.37	336.53	75.34	-33.8	-34.9	20.4	0.00e+00	0	57	0	1072693248	39	4015
2026-01-01 23:55:20.41	330.50	76.72	-34.7	-35.9	19.4	0.00e+00	0	57	0	1085276160	40	4245
2026-01-01 23:55:24.44	323.13	77.93	-34.8	-36.0	19.3	0.00e+00	0	57	0	1097859072	40	4315
2026-01-01 23:55:28.48	314.23	78.91	-34.7	-36.0	19.2	0.00e+00	0	57	0	1110441984	40	4308
2026-01-01 23:55:32.52	303.87	79.59	-35.0	-36.3	18.9	0.00e+00	0	57	0	1123024896	40	4477
2026-01-01 23:55:36.56	292.46	79.89	-34.7	-35.9	19.3	0.00e+00	0	57	0	1135607808	41	4036
2026-01-01 23:55:40.60	280.82	79.78	-34.5	-35.6	19.6	0.00e+00	0	57	0	1148190720	40	4145
2026-01-01 23:55:44.63	269.89	79.28	-34.5	-35.6	19.5	0.00e+00	0	57	0	1160773632	40	4143
2026-01-01 23:55:48.68	260.22	78.44	-34.4	-35.6	19.7	0.00e+00	0	57	0	1173356544	39	4347
2026-01-01 23:55:52.71	252.13	77.33	-34.2	-35.3	19.8	0.00e+00	0	57	0	1185939456	40	4004
2026-01-01 23:55:56.76	245.45	76.02	-34.2	-35.4	19.5	0.00e+00	0	57	0	1198522368	40	4021
2026-01-01 23:56:00.80	240.01	74.58	-34.0	-35.1	20.2	0.00e+00	0	57	0	1211105280	39	4103
2026-01-01 23:56:04.84	235.57	73.04	-34.4	-35.6	19.5	0.00e+00	0	57	0	1223688192	40	4126
2026-01-01 23:56:08.88	231.92	71.45	-35.0	-36.3	19.0	0.00e+00	0	57	0	1236271104	40	4456
2026-01-01 23:56:12.92	228.88	69.82	-33.7	-34.8	20.2	0.00e+00	0	57	0	1248854016	39	3991
2026-01-01 23:56:16.96	226.33	68.17	-35.2	-36.5	18.6	0.00e+00	0	57	0	1262485504	42	4080
2026-01-01 23:56:21.00	224.17	66.52	-34.8	-36.0	19.1	0.00e+00	0	57	0	1275068416	40	4336
2026-01-01 23:56:25.04	222.32	64.88	-35.4	-36.8	18.6	0.00e+00	0	57	0	1287651328	42	4195
2026-01-01 23:56:29.07	220.73	63.25	-35.7	-37.0	18.4	0.00e+00	0	57	0	1300234240	41	4570
2026-01-01 23:56:33.11	219.33	61.64	-35.5	-37.0	18.2	0.00e+00	0	57	0	1312817152	43	4059
2026-01-01 23:56:37.15	218.11	60.06	-35.5	-36.7	18.6	0.00e+00	0	57	0	1325400064	41	4424
2026-01-01 23:56:41.19	217.03	58.51	-37.3	-38.9	16.4	0.00e+00	0	57	0	1337982976	46	4291
2026-01-01 23:56:45.22	216.07	56.98	-35.8	-37.2	18.2	0.00e+00	0	57	0	1350565888	42	4402
2026-01-01 23:56:49.27	215.21	55.49	-38.1	-39.9	15.8	0.00e+00	0	57	0	1363148800	47	4501
2026-01-01 23:56:53.30	214.44	54.04	-36.1	-37.4	18.1	0.00e+00	0	57	0	1375731712	44	4042
2026-01-01 23:56:57.34	213.74	52.62	-38.2	-40.0	15.6	0.00e+00	0	57	0	1388314624	46	4816
2026-01-01 23:57:01.38	213.10	51.23	-37.8	-39.4	16.0	0.00e+00	0	57	0	1400897536	47	4282
2026-01-01 23:57:05.42	212.53	49.88	-38.1	-39.9	15.9	0.00e+00	0	57	0	1413480448	46	4767
2026-01-01 23:57:09.46	212.00	48.57	-37.6	-39.2	16.5	0.00e+00	0	57	0	1426063360	46	4392
2026-01-01 23:57:13.50	211.51	47.29	-38.6	-40.5	15.0	0.00e+00	0	57	0	1438646272	47	4816
2026-01-01 23:57:17.54	211.07	46.05	-37.1	-38.6	17.0	0.00e+00	0	57	0	1451229184	46	4121
2026-01-01 23:57:21.58	210.66	44.84	-38.7	-40.6	14.9	0.00e+00	0	57	0	1463812096	47	4925
2026-01-01 23:57:25.62	210.28	43.66	-39.1	-41.1	14.4	1.50e-06	0	57	0	1476395008	49	4642
2026-01-01 23:57:29.66	209.92	42.52	-39.1	-41.1	14.7	0.00e+00	0	57	0	1488977920	49	4639
2026-01-01 23:57:33.70	209.59	41.42	-37.2	-38.7	16.8	0.00e+00	0	57	0	1501560832	46	4192
2026-01-01 23:57:37.73	209.29	40.34	-38.2	-40.0	15.6	0.00e+00	0	57	0	1514143744	47	4569
2026-01-01 23:57:41.77	209.00	39.30	-38.0	-39.8	15.9	0.00e+00	0	57	0	1526726656	47	4457
2026-01-01 23:57:45.81	208.73	38.28	-38.1	-39.8	15.9	0.00e+00	0	57	0	1539309568	47	4462
2026-01-01 23:57:49.85	208.48	37.29	-38.1	-39.9	15.8	0.00e+00	0	57	0	1551892480	47	4494
2026-01-01 23:57:53.89	208.24	36.33	-37.5	-39.1	16.5	0.00e+00	0	57	0	1564475392	47	4134
2026-01-01 23:57:57.93	208.02	35.40	-36.6	-38.0	17.6	0.00e+00	0	57	0	1577058304	45	4082
2026-01-01 23:58:01.97	207.81	34.50	-37.4	-39.0	16.6	0.00e+00	0	57	0	1589641216	45	4576
2026-01-01 23:58:06.01	207.61	33.62	-37.5	-39.1	16.5	0.00e+00	0	57	0	1603272704	45	4605
2026-01-01 23:58:10.04	207.43	32.76	-36.9	-38.4	17.1	0.00e+00	0	57	0	1614807040	45	4272
2026-01-01 23:58:14.08	207.25	31.93	-36.5	-37.9	17.5	0.00e+00	0	57	0	1627389952	45	4030
2026-01-01 23:58:18.13	207.08	31.12	-35.7	-37.0	18.3	0.00e+00	0	57	0	1641021440	43	4055
2026-01-01 23:58:22.16	206.92	30.33	-35.4	-36.7	18.6	0.00e+00	0	57	0	1653604352	42	4165
2026-01-01 23:58:26.20	206.77	29.56	-35.4	-36.6	18.7	0.00e+00	0	57	0	1666187264	42	4135
2026-01-01 23:58:30.24	206.63	28.81	-35.3	-36.6	18.8	0.00e+00	0	57	0	1678770176	42	4104
2026-01-01 23:58:34.28	206.49	28.08	-35.5	-36.7	18.6	0.00e+00	0	57	0	1691353088	42	4192
2026-01-01 23:58:38.33	206.36	27.37	-35.7	-37.1	18.2	0.00e+00	0	57	0	1703936000	42	4343
2026-01-01 23:58:42.37	206.24	26.68	-35.8	-37.1	18.2	0.00e+00	0	57	0	1716518912	42	4384
2026-01-01 23:58:46.41	206.12	26.00	-35.7	-37.0	18.3	0.00e+00	0	57	0	1729101824	42	4315
2026-01-01 23:58:50.44	206.00	25.34	-35.6	-36.9	18.4	0.00e+00	0	57	0	1741684736	42	4267
2026-01-01 23:58:54.48	205.90	24.70	-35.6	-36.9	18.3	0.00e+00	0	57	0	1754267648	42	4272
2026-01-01 23:58:58.52	205.79	24.07	-35.8	-37.1	18.0	0.00e+00	0	57	0	1766850560	42	4386
2026-01-01 23:59:02.56	205.69	23.46	-35.7	-37.1	18.0	0.00e+00	0	57	0	1779433472	42	4376
2026-01-01 23:59:06.59	205.60	22.86	-35.6	-36.9	18.3	0.00e+00	0	57	0	1792016384	42	4270
2026-01-01 23:59:10.63	205.51	22.27	-35.3	-36.6	18.5	0.00e+00	0	57	0	1804599296	42	4134
2026-01-01 23:59:14.66	205.42	21.70	-35.1	-36.4	18.8	0.00e+00	0	57	0	1817182208	42	4012
2026-01-01 23:59:18.70	205.34	21.14	-35.0	-36.2	18.9	0.00e+00	0	57	0	1829765120	42	3949
2026-01-01 23:59:22.74	205.26	20.59	-35.0	-36.2	18.9	0.00e+00	0	57	0	1842348032	41	4183
2026-01-01 23:59:26.78	205.18	20.06	-35.0	-36.3	18.9	0.00e+00	0	57	0	1854930944	41	4196
2026-01-01 23:59:30.82	205.11	19.53	-35.1	-36.4	18.7	0.00e+00	0	57	0	1867513856	41	4267
2026-01-01 23:59:34.85	205.04	19.02	-35.3	-36.6	18.6	0.00e+00	0	57	0	1880096768	41	4347
2026-01-01 23:59:38.89	204.97	18.51	-35.4	-36.7	18.4	0.00e+00	0	57	0	1892679680	41	4423
2026-01-01 23:59:42.93	204.90	18.02	-35.6	-36.9	18.2	0.00e+00	0	57	0	1905262592	41	4525
2026-01-01 23:59:46.98	204.84	17.54	-35.7	-37.1	18.1	0.00e+00	0	57	0	1917845504	41	4612
2026-01-01 23:59:51.01	204.78	17.06	-35.9	-37.2	17.9	0.00e+00	0	57	0	1930428416	42	4434
2026-01-01 23:59:55.06	204.72	16.59	-36.2	-37.6	17.5	0.00e+00	0	57	0	1943011328	42	4618
2026-01-01 23:59:59.10	204.66	16.14	-36.3	-37.8	17.4	0.00e+00	0	57	0	1955594240	43	4442
2026-01-02 00:00:03.14	204.61	15.69	-36.4	-37.9	17.2	0.00e+00	0	57	0	1968177152	43	4510
2026-01-02 00:00:07.18	204.55	15.25	-36.4	-37.9	17.2	0.00e+00	0	57	0	1981808640	43	4527
2026-01-02 00:00:11.21	204.50	14.82	-36.6	-38.1	17.0	0.00e+00	0	57	0	1994391552	43	4607
2026-01-02 00:00:15.25	204.45	14.39	-36.6	-38.1	17.0	0.00e+00	0	58	0	2006974464	43	4617
2026-01-02 00:00:19.29	204.41	13.97	-36.6	-38.1	16.9	0.00e+00	0	57	0	2019557376	43	4637
2026-01-02 00:00:23.33	204.36	13.56	-36.6	-38.1	16.9	0.00e+00	0	57	0	2032140288	43	4637
2026-01-02 00:00:27.38	204.32	13.16	-36.6	-38.1	16.9	0.00e+00	0	57	0	2044723200	43	4630
2026-01-02 00:00:31.41	204.27	12.76	-36.6	-38.2	16.8	0.00e+00	0	57	0	2057306112	43	4654
2026-01-02 00:00:35.45	204.23	12.37	-36.5	-38.1	16.8	0.00e+00	0	57	0	2069889024	43	4619
2026-01-02 00:00:39.49	204.19	11.98	-36.6	-38.1	16.8	0.00e+00	0	57	0	2082471936	43	4634
2026-01-02 00:00:43.53	204.15	11.60	-36.6	-38.1	16.7	0.00e+00	0	57	0	2095054848	43	4651
2026-01-02 00:00:47.57	204.11	11.23	-36.7	-38.3	16.6	0.00e+00	0	57	0	2107637760	43	4721
2026-01-02 00:00:51.61	204.08	10.86	-36.7	-38.3	16.6	0.00e+00	0	57	0	2120220672	43	4725
2026-01-02 00:00:55.64	204.04	10.50	-36.9	-38.5	16.5	0.00e+00	0	58	0	2132803584	44	4569
2026-01-02 00:00:59.69	204.01	10.14	-37.0	-38.6	16.3	0.00e+00	0	57	0	2145386496	44	4639
2026-01-02 00:01:03.73	203.98	9.79	-37.0	-38.7	16.3	0.00e+00	0	57	0	2157969408	44	4667
2026-01-02 00:01:07.77	203.94	9.44	-37.1	-38.7	16.1	0.00e+00	0	57	0	2170552320	44	4701
2026-01-02 00:01:11.80	203.91	9.10	-37.2	-38.9	15.9	0.00e+00	0	58	0	2183135232	45	4533
2026-01-02 00:01:15.84	203.88	8.76	-37.4	-39.1	15.7	0.00e+00	0	58	0	2195718144	45	4632
2026-01-02 00:01:19.89	203.85	8.43	-37.4	-39.1	15.6	0.00e+00	0	58	0	2208301056	45	4645
2026-01-02 00:01:23.93	203.82	8.10	-37.5	-39.4	15.4	0.00e+00	0	58	0	2220883968	45	4775
2026-01-02 00:01:27.97	203.80	7.78	-44.7	-57.0	3.8	1.49e+00	0	58	104	2226126848	60	15315
2026-01-02 00:01:32.01	203.77	7.46	-44.9	-57.2	3.8	1.49e+00	0	58	104	2226126848	60	15721
2026-01-02 00:01:36.05	203.75	7.14	-44.9	-57.2	3.8	1.49e+00	0	58	104	2226126848	60	15681
2026-01-02 00:01:40.10	203.72	6.83	-44.8	-57.1	3.8	1.49e+00	0	58	104	2226126848	60	15572
2026-01-02 00:01:44.14	203.70	6.52	-44.8	-57.1	3.8	1.49e+00	0	58	104	2226126848	60	15478
2026-01-02 00:01:48.18	203.67	6.21	-44.8	-57.1	3.8	1.49e+00	0	58	104	2226126848	60	15478
2026-01-02 00:01:52.22	203.65	5.91	-44.8	-57.1	3.8	1.49e+00	0	58	104	2226126848	60	15457
2026-01-02 00:01:56.27	203.63	5.61	-44.8	-57.1	3.8	1.49e+00	0	58	104	2226126848	60	15461
2026-01-02 00:02:00.32	203.61	5.32	-44.7	-57.1	3.8	1.49e+00	0	58	104	2226126848	60	15456
2026-01-02 00:02:04.36	203.58	5.02	-44.7	-57.0	3.8	1.49e+00	0	58	104	2226126848	60	15339
2026-01-02 00:02:08.40	203.56	4.74	-44.7	-57.0	3.8	1.49e+00	0	58	104	2226126848	60	15344
2026-01-02 00:02:12.45	203.54	4.45	-44.7	-57.0	3.8	1.49e+00	0	58	104	2226126848	60	15330
2026-01-02 00:02:16.49	203.53	4.17	-44.7	-57.0	3.8	1.49e+00	0	58	104	2226126848	60	15369
2026-01-02 00:02:20.53	203.51	3.89	-44.7	-57.0	3.8	1.49e+00	0	58	104	2226126848	60	15308
2026-01-02 00:02:24.58	203.49	3.61	-44.7	-57.0	3.8	1.49e+00	0	58	104	2226126848	60	15354
2026-01-02 00:02:28.62	203.47	3.34	-44.7	-57.0	3.8	1.49e+00	0	58	104	2226126848	60	15325
2026-01-02 00:02:32.67	203.45	3.06	-44.7	-57.0	3.8	1.49e+00	0	58	104	2226126848	60	15351
2026-01-02 00:02:36.71	203.44	2.80	-44.7	-57.0	3.8	1.49e+00	0	58	104	2226126848	60	15384
2026-01-02 00:02:40.75	203.42	2.53	-44.7	-57.0	3.8	1.49e+00	0	58	104	2226126848	60	15328
2026-01-02 00:02:44.80	203.41	2.27	-44.7	-57.0	3.8	1.49e+00	0	58	104	2226126848	60	15366
2026-01-02 00:02:48.84	203.39	2.00	-44.7	-57.0	3.8	1.49e+00	0	58	104	2226126848	60	15329

#Closed at: 2026-01-02 00:02:50
#Recorded file [2226 MB]: D:/lorett/data/31039_260102_024824.dat