passes_logs/2026/01/01/R2.0S_Moscow/R2.0S_Moscow__20260101_112852_FENGYUN_3D_rec.log

#Pass ID: 20260101_112852_FENGYUN 3D
#Satellite: FENGYUN 3D
#Configuration: FENGYUN 3D
#almurnet v.1.7.20251203
#Start time: 2026-01-01 11:28:54

#Version: 2.2.20231116
#Station: R2.0S_Moscow
#Location: 37.707566 lon 55.798166 lat
#TLE: 1 43010U 17072A   25365.48527867  .00000101  00000+0  69745-4 0  9999
#TLE: 2 43010  98.9911 332.0787 0001837 134.4748 225.6578 14.19689788421190

#Time	Az	El	Level	Level2	SNR	BER	BlckErr	Temp	State	Recorded	gain1	gain2
2026-01-01 11:28:54.66	147.14	2.13	-43.9	-55.4	3.8	8.46e-01	0	50	0	0	59	13422
2026-01-01 11:28:58.71	147.07	2.39	-43.9	-55.4	3.8	8.47e-01	0	50	104	0	59	13467
2026-01-01 11:29:02.75	146.99	2.65	-43.9	-55.3	3.8	8.46e-01	0	50	104	0	59	13355
2026-01-01 11:29:06.80	146.92	2.92	-43.9	-55.3	3.8	8.48e-01	0	50	104	0	59	13345
2026-01-01 11:29:10.84	146.84	3.19	-43.9	-55.3	3.8	8.46e-01	0	51	104	0	59	13409
2026-01-01 11:29:14.88	146.77	3.46	-43.9	-55.3	3.8	8.46e-01	0	51	104	0	59	13409
2026-01-01 11:29:18.93	146.69	3.73	-43.9	-55.3	3.8	8.47e-01	0	51	104	0	59	13376
2026-01-01 11:29:22.97	146.61	4.00	-43.9	-55.3	3.8	8.46e-01	0	52	104	0	59	13388
2026-01-01 11:29:27.02	146.52	4.28	-43.9	-55.3	3.8	8.45e-01	0	52	104	0	59	13411
2026-01-01 11:29:31.06	146.44	4.56	-43.9	-55.3	3.8	8.47e-01	0	52	104	0	59	13376
2026-01-01 11:29:35.10	146.35	4.85	-43.9	-55.3	3.8	8.45e-01	0	52	104	0	59	13302
2026-01-01 11:29:39.15	146.27	5.14	-43.9	-55.3	3.8	8.46e-01	0	53	104	0	59	13388
2026-01-01 11:29:43.19	146.18	5.43	-43.9	-55.3	3.8	8.45e-01	0	52	104	0	59	13284
2026-01-01 11:29:47.23	146.08	5.72	-43.8	-55.0	3.8	8.46e-01	0	53	104	0	59	12904
2026-01-01 11:29:51.28	145.99	6.02	-43.8	-54.5	3.8	8.46e-01	0	53	104	0	59	12166
2026-01-01 11:29:55.32	145.89	6.32	-43.7	-53.9	3.8	8.46e-01	0	53	104	0	59	11387
2026-01-01 11:29:59.37	145.80	6.62	-43.6	-53.4	3.8	8.45e-01	0	53	104	0	59	10703
2026-01-01 11:30:03.41	145.69	6.93	-43.0	-49.8	5.0	8.02e-01	0	54	0	0	58	7480
2026-01-01 11:30:07.46	145.59	7.24	-41.1	-45.1	8.7	5.93e-02	0	54	0	16777216	54	5483
2026-01-01 11:30:11.50	145.49	7.55	-39.1	-41.6	12.4	3.80e-04	0	54	0	39845888	50	4650
2026-01-01 11:30:15.54	145.38	7.87	-37.1	-39.1	14.8	1.10e-06	0	54	0	61865984	46	4343
2026-01-01 11:30:19.59	145.27	8.19	-43.9	-53.6	3.8	8.46e-01	0	54	104	78643200	59	10930
2026-01-01 11:30:23.63	145.15	8.52	-36.8	-38.7	15.2	1.10e-06	0	54	0	98566144	45	4410
2026-01-01 11:30:27.67	145.04	8.85	-36.0	-37.7	16.1	0.00e+00	0	54	0	121634816	44	4193
2026-01-01 11:30:31.71	144.92	9.18	-35.7	-37.3	16.4	0.00e+00	0	54	0	143654912	43	4237
2026-01-01 11:30:35.76	144.80	9.52	-35.5	-37.1	16.6	0.00e+00	0	54	0	166723584	43	4142
2026-01-01 11:30:39.80	144.67	9.87	-35.5	-37.1	16.7	0.00e+00	0	55	0	189792256	42	4373
2026-01-01 11:30:43.84	144.54	10.21	-35.3	-36.9	17.0	0.00e+00	0	55	0	211812352	42	4274
2026-01-01 11:30:47.88	144.41	10.57	-35.3	-36.9	17.0	0.00e+00	0	55	0	234881024	42	4277
2026-01-01 11:30:51.92	144.28	10.93	-35.2	-36.7	17.2	0.00e+00	0	55	0	257949696	42	4188
2026-01-01 11:30:55.95	144.14	11.29	-35.1	-36.7	17.3	0.00e+00	0	55	0	281018368	42	4159
2026-01-01 11:30:59.99	144.00	11.66	-35.0	-36.6	17.4	0.00e+00	0	55	0	303038464	42	4116
2026-01-01 11:31:04.04	143.85	12.03	-34.9	-36.4	17.6	0.00e+00	0	55	0	326107136	41	4275
2026-01-01 11:31:08.08	143.70	12.41	-34.8	-36.3	17.7	0.00e+00	0	55	0	348127232	41	4226
2026-01-01 11:31:12.12	143.54	12.79	-34.7	-36.2	17.8	0.00e+00	0	55	0	371195904	41	4156
2026-01-01 11:31:16.16	143.38	13.19	-34.6	-36.1	18.0	0.00e+00	0	55	0	394264576	41	4111
2026-01-01 11:31:20.20	143.22	13.58	-34.4	-35.9	18.2	0.00e+00	0	55	0	417333248	40	4244
2026-01-01 11:31:24.24	143.05	13.99	-34.4	-35.8	18.3	0.00e+00	0	56	0	439353344	40	4209
2026-01-01 11:31:28.29	142.88	14.40	-34.3	-35.7	18.4	0.00e+00	0	56	0	462422016	40	4149
2026-01-01 11:31:32.32	142.70	14.81	-34.2	-35.6	18.5	0.00e+00	0	56	0	485490688	40	4122
2026-01-01 11:31:36.36	142.52	15.24	-34.1	-35.5	18.6	0.00e+00	0	56	0	507510784	40	4060
2026-01-01 11:31:40.41	142.33	15.67	-34.0	-35.3	18.8	0.00e+00	0	56	0	530579456	39	4240
2026-01-01 11:31:44.44	142.13	16.11	-33.7	-35.0	19.2	0.00e+00	0	56	0	552599552	39	4083
2026-01-01 11:31:48.48	141.93	16.55	-33.5	-34.8	19.4	0.00e+00	0	56	0	575668224	39	3988
2026-01-01 11:31:52.53	141.72	17.01	-33.4	-34.7	19.4	0.00e+00	0	56	0	598736896	38	4177
2026-01-01 11:31:56.57	141.51	17.47	-33.4	-34.7	19.6	0.00e+00	0	56	0	621805568	38	4146
2026-01-01 11:32:00.61	141.28	17.94	-33.3	-34.6	19.6	0.00e+00	0	56	0	643825664	38	4119
2026-01-01 11:32:04.65	141.05	18.42	-33.2	-34.5	19.7	0.00e+00	0	56	0	666894336	38	4081
2026-01-01 11:32:08.69	140.82	18.91	-33.2	-34.5	19.7	0.00e+00	0	56	0	689963008	38	4053
2026-01-01 11:32:12.74	140.57	19.41	-33.1	-34.4	19.7	0.00e+00	0	56	0	711983104	38	4040
2026-01-01 11:32:16.78	140.32	19.92	-33.1	-34.4	19.8	0.00e+00	0	57	0	735051776	38	4014
2026-01-01 11:32:20.82	140.05	20.43	-33.0	-34.3	19.9	0.00e+00	0	56	0	758120448	38	3982
2026-01-01 11:32:24.86	139.78	20.96	-32.9	-34.2	19.9	0.00e+00	0	56	0	780140544	37	4191
2026-01-01 11:32:28.90	139.50	21.50	-32.8	-34.1	20.1	0.00e+00	0	57	0	803209216	37	4116
2026-01-01 11:32:32.95	139.21	22.05	-32.7	-34.0	20.1	0.00e+00	0	57	0	826277888	37	4085
2026-01-01 11:32:36.99	138.90	22.61	-32.6	-33.8	20.4	0.00e+00	0	57	0	848297984	37	3986
2026-01-01 11:32:41.03	138.59	23.18	-32.4	-33.7	20.6	0.00e+00	0	57	0	871366656	36	4150
2026-01-01 11:32:45.07	138.26	23.76	-32.3	-33.5	20.7	0.00e+00	0	57	0	894435328	36	4095
2026-01-01 11:32:49.10	137.92	24.36	-32.1	-33.3	21.0	0.00e+00	0	57	0	917504000	36	3959
2026-01-01 11:32:53.14	137.57	24.97	-32.0	-33.2	21.0	0.00e+00	0	57	0	939524096	36	3945
2026-01-01 11:32:57.19	137.20	25.59	-31.3	-32.5	20.9	0.00e+00	0	57	0	962592768	34	4066
2026-01-01 11:33:01.23	136.81	26.23	-31.2	-32.4	20.9	0.00e+00	0	57	0	984612864	34	4032
2026-01-01 11:33:05.28	136.41	26.88	-31.4	-32.6	20.8	0.00e+00	0	57	0	1007681536	34	4113
2026-01-01 11:33:09.31	136.00	27.54	-31.3	-32.5	20.9	0.00e+00	0	57	0	1030750208	34	4070
2026-01-01 11:33:13.36	135.56	28.22	-31.2	-32.4	21.0	0.00e+00	0	57	0	1053818880	34	4042
2026-01-01 11:33:17.40	135.11	28.91	-31.1	-32.3	21.1	0.00e+00	0	57	0	1075838976	34	3994
2026-01-01 11:33:21.44	134.63	29.62	-31.2	-32.4	21.0	0.00e+00	0	57	0	1098907648	34	4022
2026-01-01 11:33:25.48	134.13	30.34	-30.9	-32.1	21.3	0.00e+00	0	57	0	1121976320	33	4116
2026-01-01 11:33:29.52	133.61	31.08	-30.8	-32.0	21.4	0.00e+00	0	57	0	1143996416	33	4065
2026-01-01 11:33:33.56	133.06	31.84	-30.9	-32.1	21.3	0.00e+00	0	57	0	1167065088	33	4112
2026-01-01 11:33:37.60	132.49	32.61	-31.0	-32.2	21.2	0.00e+00	0	57	0	1190133760	33	4170
2026-01-01 11:33:41.65	131.89	33.40	-31.0	-32.2	21.2	0.00e+00	0	57	0	1212153856	33	4163
2026-01-01 11:33:45.69	131.26	34.21	-30.7	-31.9	21.4	0.00e+00	0	57	0	1235222528	33	4031
2026-01-01 11:33:49.73	130.59	35.03	-30.7	-31.9	21.4	0.00e+00	0	57	0	1258291200	33	4038
2026-01-01 11:33:53.77	129.89	35.87	-30.6	-31.8	21.6	0.00e+00	0	57	0	1280311296	33	3965
2026-01-01 11:33:57.81	129.15	36.73	-30.7	-31.8	21.6	0.00e+00	0	57	0	1303379968	33	4000
2026-01-01 11:34:01.86	128.37	37.60	-30.8	-31.9	21.5	0.00e+00	0	57	0	1326448640	33	4043
2026-01-01 11:34:05.89	127.55	38.49	-30.9	-32.0	21.4	0.00e+00	0	57	0	1348468736	33	4092
2026-01-01 11:34:09.94	126.67	39.40	-30.9	-32.1	21.5	0.00e+00	0	57	0	1371537408	33	4104
2026-01-01 11:34:13.98	125.75	40.33	-30.9	-32.0	21.5	0.00e+00	0	57	0	1394606080	33	4087
2026-01-01 11:34:18.02	124.78	41.27	-31.2	-32.3	21.2	0.00e+00	0	57	0	1416626176	33	4240
2026-01-01 11:34:22.06	123.74	42.22	-31.4	-32.7	20.8	0.00e+00	0	57	0	1439694848	33	4406
2026-01-01 11:34:26.10	122.64	43.19	-31.3	-32.5	21.1	0.00e+00	0	57	0	1462763520	33	4317
2026-01-01 11:34:30.14	121.47	44.17	-31.6	-32.9	20.8	0.00e+00	0	57	0	1484783616	33	4505
2026-01-01 11:34:34.19	120.22	45.17	-31.1	-32.3	21.2	0.00e+00	0	57	0	1507852288	33	4228
2026-01-01 11:34:38.23	118.89	46.17	-31.9	-33.2	20.5	0.00e+00	0	57	0	1530920960	34	4404
2026-01-01 11:34:42.27	117.48	47.17	-31.6	-32.8	20.8	0.00e+00	0	57	0	1553989632	34	4234
2026-01-01 11:34:46.30	115.97	48.18	-31.6	-32.8	20.9	0.00e+00	0	57	0	1576009728	34	4195
2026-01-01 11:34:50.34	114.36	49.19	-31.9	-33.1	20.7	0.00e+00	0	57	0	1599078400	34	4373
2026-01-01 11:34:54.38	112.64	50.19	-31.8	-33.0	20.8	0.00e+00	0	57	0	1621098496	34	4312
2026-01-01 11:34:58.43	110.79	51.19	-32.0	-33.3	20.5	0.00e+00	0	57	0	1644167168	34	4442
2026-01-01 11:35:02.47	108.83	52.18	-32.1	-33.3	20.5	0.00e+00	0	57	0	1667235840	34	4488
2026-01-01 11:35:06.51	106.72	53.15	-32.2	-33.5	20.4	0.00e+00	0	58	0	1690304512	35	4302
2026-01-01 11:35:10.55	104.48	54.09	-32.0	-33.2	20.7	0.00e+00	0	57	0	1712324608	35	4150
2026-01-01 11:35:14.59	102.08	55.01	-31.8	-33.0	20.8	0.00e+00	0	57	0	1735393280	35	4058
2026-01-01 11:35:18.63	99.53	55.88	-32.1	-33.3	20.6	0.00e+00	0	57	0	1758461952	35	4206
2026-01-01 11:35:22.67	96.82	56.71	-31.7	-32.9	20.9	0.00e+00	0	57	0	1780482048	35	4034
2026-01-01 11:35:26.72	93.94	57.49	-31.8	-33.0	20.8	0.00e+00	0	57	0	1803550720	34	4297
2026-01-01 11:35:30.76	90.90	58.20	-32.1	-33.4	20.5	0.00e+00	0	57	0	1826619392	34	4505
2026-01-01 11:35:34.80	87.71	58.84	-32.4	-33.7	20.1	0.00e+00	0	57	0	1848639488	35	4413
2026-01-01 11:35:38.84	84.36	59.40	-32.0	-33.3	20.5	0.00e+00	0	57	0	1871708160	35	4219
2026-01-01 11:35:42.88	80.88	59.87	-32.0	-33.3	20.6	0.00e+00	0	58	0	1894776832	35	4210
2026-01-01 11:35:46.93	77.28	60.24	-31.8	-33.0	20.8	0.00e+00	0	57	0	1916796928	35	4095
2026-01-01 11:35:50.97	73.59	60.51	-31.7	-32.9	20.9	0.00e+00	0	58	0	1939865600	35	4045
2026-01-01 11:35:55.01	69.84	60.68	-31.6	-32.8	21.0	0.00e+00	0	57	0	1962934272	34	4235
2026-01-01 11:35:59.05	66.06	60.73	-31.2	-32.4	21.3	0.00e+00	0	58	0	1986002944	34	4028
2026-01-01 11:36:03.10	62.27	60.68	-31.7	-33.0	20.8	0.00e+00	0	57	0	2008023040	34	4297
2026-01-01 11:36:07.14	58.52	60.51	-31.5	-32.7	21.0	0.00e+00	0	58	0	2031091712	34	4183
2026-01-01 11:36:11.18	54.84	60.24	-31.2	-32.4	21.3	0.00e+00	0	57	0	2053111808	34	4017
2026-01-01 11:36:15.22	51.25	59.86	-31.7	-32.9	20.9	0.00e+00	0	57	0	2076180480	34	4282
2026-01-01 11:36:19.26	47.77	59.39	-31.4	-32.6	21.0	0.00e+00	0	58	0	2099249152	34	4140
2026-01-01 11:36:23.30	44.43	58.84	-31.5	-32.7	21.0	0.00e+00	0	57	0	2122317824	34	4186
2026-01-01 11:36:27.35	41.23	58.19	-31.2	-32.4	21.4	0.00e+00	0	58	0	2144337920	34	4012
2026-01-01 11:36:31.39	38.20	57.48	-31.5	-32.7	21.0	0.00e+00	0	57	0	2167406592	34	4167
2026-01-01 11:36:35.43	35.33	56.71	-31.5	-32.7	21.1	0.00e+00	0	58	0	2190475264	34	4171
2026-01-01 11:36:39.48	32.62	55.88	-31.5	-32.7	21.1	0.00e+00	0	58	0	2212495360	34	4176
2026-01-01 11:36:43.52	30.07	55.01	-32.1	-33.3	20.4	0.00e+00	0	58	0	2235564032	34	4478
2026-01-01 11:36:47.56	27.68	54.10	-31.6	-32.8	21.0	0.00e+00	0	58	0	2258632704	34	4212
2026-01-01 11:36:51.60	25.45	53.16	-31.9	-33.1	20.7	0.00e+00	0	58	0	2280652800	34	4354
2026-01-01 11:36:55.64	23.35	52.19	-31.9	-33.1	20.8	0.00e+00	0	58	0	2303721472	34	4341
2026-01-01 11:36:59.68	21.39	51.21	-31.6	-32.8	21.0	0.00e+00	0	58	0	2326790144	34	4212
2026-01-01 11:37:03.72	19.55	50.21	-31.7	-32.9	20.8	0.00e+00	0	57	0	2348810240	34	4277
2026-01-01 11:37:07.77	17.83	49.21	-31.7	-32.9	20.8	0.00e+00	0	58	0	2371878912	34	4269
2026-01-01 11:37:11.81	16.22	48.20	-31.7	-32.9	20.8	0.00e+00	0	58	0	2394947584	34	4262
2026-01-01 11:37:15.85	14.72	47.19	-30.9	-32.0	21.7	0.00e+00	0	58	0	2418016256	33	4069
2026-01-01 11:37:19.89	13.30	46.19	-30.8	-32.0	21.6	0.00e+00	0	58	0	2440036352	33	4067
2026-01-01 11:37:23.93	11.98	45.20	-30.9	-31.9	22.2	0.00e+00	0	58	0	2463105024	33	4051
2026-01-01 11:37:27.97	10.74	44.21	-31.2	-32.2	22.0	0.00e+00	0	57	0	2485125120	33	4161
2026-01-01 11:37:32.02	9.57	43.23	-30.8	-31.8	22.4	0.00e+00	0	58	0	2508193792	33	3977
2026-01-01 11:37:36.06	8.47	42.27	-31.0	-32.0	22.2	0.00e+00	0	58	0	2531262464	33	4078
2026-01-01 11:37:40.10	7.44	41.31	-31.1	-32.1	22.1	0.00e+00	0	57	0	2554331136	33	4111
2026-01-01 11:37:44.14	6.47	40.38	-30.8	-31.8	22.4	0.00e+00	0	58	0	2576351232	33	3978
2026-01-01 11:37:48.19	5.54	39.45	-30.8	-31.9	22.3	0.00e+00	0	58	0	2599419904	33	4006
2026-01-01 11:37:52.23	4.68	38.55	-30.8	-31.8	22.4	0.00e+00	0	58	0	2622488576	33	3971
2026-01-01 11:37:56.27	3.86	37.66	-30.8	-31.8	22.3	0.00e+00	0	58	0	2644508672	33	4002
2026-01-01 11:38:00.31	3.08	36.79	-31.0	-32.0	22.2	0.00e+00	0	58	0	2667577344	33	4067
2026-01-01 11:38:04.35	2.34	35.94	-31.0	-32.0	22.2	0.00e+00	0	58	0	2690646016	33	4075
2026-01-01 11:38:08.39	1.65	35.10	-30.7	-31.7	22.5	0.00e+00	0	58	0	2712666112	33	3917
2026-01-01 11:38:12.43	0.98	34.28	-31.0	-32.0	22.1	0.00e+00	0	58	0	2735734784	33	4070
2026-01-01 11:38:16.46	0.35	33.48	-31.1	-32.1	22.0	0.00e+00	0	58	0	2758803456	33	4142
2026-01-01 11:38:20.50	359.76	32.69	-31.0	-32.0	22.1	0.00e+00	0	58	0	2780823552	33	4071
2026-01-01 11:38:24.54	359.18	31.92	-31.0	-32.1	22.0	0.00e+00	0	58	0	2803892224	33	4113
2026-01-01 11:38:28.58	358.64	31.17	-31.2	-32.3	21.9	0.00e+00	0	58	0	2826960896	33	4204
2026-01-01 11:38:32.63	358.12	30.43	-31.3	-32.3	21.8	0.00e+00	0	58	0	2848980992	33	4216
2026-01-01 11:38:36.67	357.63	29.71	-31.3	-32.3	21.8	0.00e+00	0	58	0	2872049664	33	4241
2026-01-01 11:38:40.71	357.15	29.00	-31.4	-32.5	21.7	0.00e+00	0	58	0	2895118336	33	4297
2026-01-01 11:38:44.75	356.70	28.31	-31.5	-32.5	21.6	0.00e+00	0	58	0	2917138432	33	4320
2026-01-01 11:38:48.80	356.27	27.64	-31.4	-32.5	21.6	0.00e+00	0	58	0	2940207104	33	4314
2026-01-01 11:38:52.84	355.85	26.98	-31.4	-32.4	21.6	0.00e+00	0	58	0	2963275776	33	4284
2026-01-01 11:38:56.88	355.45	26.33	-31.3	-32.3	21.7	0.00e+00	0	58	0	2985295872	33	4226
2026-01-01 11:39:00.92	355.07	25.70	-31.3	-32.4	21.6	0.00e+00	0	58	0	3008364544	33	4250
2026-01-01 11:39:04.96	354.71	25.08	-31.6	-32.6	21.4	0.00e+00	0	58	0	3031433216	33	4382
2026-01-01 11:39:09.00	354.36	24.47	-31.7	-32.8	21.2	0.00e+00	0	58	0	3054501888	34	4236
2026-01-01 11:39:13.04	354.02	23.88	-31.8	-32.8	21.1	0.00e+00	0	58	0	3076521984	34	4233
2026-01-01 11:39:17.08	353.69	23.29	-31.7	-32.8	21.2	0.00e+00	0	58	0	3099590656	34	4206
2026-01-01 11:39:21.12	353.38	22.72	-31.8	-32.9	21.0	0.00e+00	0	58	0	3121610752	34	4275
2026-01-01 11:39:25.17	353.08	22.16	-31.7	-32.8	21.0	0.00e+00	0	58	0	3144679424	34	4226
2026-01-01 11:39:29.21	352.79	21.62	-32.1	-33.3	20.1	0.00e+00	0	58	0	3167748096	34	4448
2026-01-01 11:39:33.25	352.51	21.08	-36.2	-38.3	14.3	1.10e-06	0	58	0	3190816768	42	4999
2026-01-01 11:39:37.29	352.24	20.56	-39.3	-44.7	6.6	1.77e-01	0	58	0	3212836864	49	6995
2026-01-01 11:39:41.33	351.98	20.04	-40.0	-50.0	3.8	8.44e-01	0	58	104	3218079744	50	12218
2026-01-01 11:39:45.37	351.73	19.53	-40.2	-51.7	3.8	8.46e-01	0	58	104	3218079744	50	14875
2026-01-01 11:39:49.41	351.49	19.04	-40.3	-52.0	3.8	8.46e-01	0	58	104	3218079744	51	14481
2026-01-01 11:39:53.45	351.26	18.55	-40.5	-52.2	3.8	8.46e-01	0	58	104	3218079744	51	14862
2026-01-01 11:39:57.49	351.03	18.07	-40.1	-51.8	3.8	8.46e-01	0	58	104	3218079744	52	13292
2026-01-01 11:40:01.53	350.81	17.60	-40.7	-52.6	3.8	8.46e-01	0	58	104	3218079744	52	14549
2026-01-01 11:40:05.56	350.60	17.14	-40.7	-52.4	3.8	8.46e-01	0	58	104	3218079744	52	14225
2026-01-01 11:40:09.61	350.39	16.69	-40.4	-52.1	3.8	8.47e-01	0	58	104	3218079744	52	13773
2026-01-01 11:40:13.65	350.20	16.24	-40.4	-52.4	3.8	8.47e-01	0	58	104	3218079744	52	14337
2026-01-01 11:40:17.69	350.00	15.81	-40.3	-52.1	3.8	8.47e-01	0	58	104	3218079744	52	13880
2026-01-01 11:40:21.73	349.82	15.38	-40.3	-52.1	3.8	8.46e-01	0	58	104	3218079744	52	13874
2026-01-01 11:40:25.77	349.64	14.95	-40.5	-52.6	3.8	8.45e-01	0	58	104	3218079744	52	14623
2026-01-01 11:40:29.81	349.46	14.54	-40.4	-52.2	3.8	8.46e-01	0	58	104	3218079744	52	13942
2026-01-01 11:40:33.86	349.29	14.13	-40.9	-52.8	3.8	8.47e-01	0	58	104	3218079744	52	14902
2026-01-01 11:40:37.90	349.13	13.73	-40.1	-52.1	3.8	8.46e-01	0	58	104	3218079744	52	13805
2026-01-01 11:40:41.94	348.97	13.33	-40.8	-52.9	3.8	8.46e-01	0	58	104	3218079744	52	15121
2026-01-01 11:40:45.98	348.81	12.94	-40.1	-52.0	3.8	8.46e-01	0	58	104	3218079744	52	13588
2026-01-01 11:40:50.02	348.66	12.55	-41.0	-52.8	3.8	8.45e-01	0	58	104	3218079744	52	14966
2026-01-01 11:40:54.07	348.51	12.18	-40.5	-52.1	3.8	8.44e-01	0	58	104	3218079744	52	13757
2026-01-01 11:40:58.11	348.37	11.80	-40.8	-52.5	3.8	8.45e-01	0	58	104	3218079744	52	14500
2026-01-01 11:41:02.15	348.23	11.43	-40.8	-52.5	3.8	8.46e-01	0	58	104	3218079744	52	14415
2026-01-01 11:41:06.19	348.09	11.07	-41.0	-52.7	3.8	8.47e-01	0	58	104	3218079744	52	14772
2026-01-01 11:41:10.23	347.96	10.72	-40.8	-52.5	3.8	8.46e-01	0	58	104	3218079744	52	14469
2026-01-01 11:41:14.27	347.84	10.36	-41.1	-52.8	3.8	8.45e-01	0	58	104	3218079744	52	14889
2026-01-01 11:41:18.31	347.71	10.02	-40.9	-52.6	3.8	8.45e-01	0	58	104	3218079744	52	14696
2026-01-01 11:41:22.35	347.59	9.67	-41.1	-52.7	3.8	8.45e-01	0	58	104	3218079744	52	14759
2026-01-01 11:41:26.38	347.47	9.34	-41.0	-52.8	3.8	8.46e-01	0	58	104	3218079744	52	14887
2026-01-01 11:41:30.42	347.36	9.00	-40.9	-52.5	3.8	8.46e-01	0	58	104	3218079744	52	14514
2026-01-01 11:41:34.47	347.25	8.67	-40.9	-52.5	3.8	8.45e-01	0	58	104	3218079744	52	14520
2026-01-01 11:41:38.51	347.14	8.35	-40.9	-52.5	3.8	8.46e-01	0	58	104	3218079744	52	14379
2026-01-01 11:41:42.55	347.03	8.03	-40.9	-52.7	3.8	8.47e-01	0	58	104	3218079744	52	14709
2026-01-01 11:41:46.60	346.93	7.71	-44.8	-56.5	3.8	8.46e-01	0	58	104	3218079744	60	14377
2026-01-01 11:41:50.64	346.83	7.39	-45.0	-56.7	3.8	8.46e-01	0	58	104	3218079744	60	14768
2026-01-01 11:41:54.69	346.73	7.08	-45.0	-56.7	3.8	8.46e-01	0	58	104	3218079744	60	14726
2026-01-01 11:41:58.73	346.63	6.78	-45.0	-56.6	3.8	8.45e-01	0	58	104	3218079744	60	14585
2026-01-01 11:42:02.77	346.54	6.47	-44.9	-56.5	3.8	8.46e-01	0	58	104	3218079744	60	14482
2026-01-01 11:42:06.81	346.45	6.18	-44.9	-56.5	3.8	8.47e-01	0	58	104	3218079744	60	14464
2026-01-01 11:42:10.86	346.36	5.88	-44.9	-56.5	3.8	8.46e-01	0	58	104	3218079744	60	14484
2026-01-01 11:42:14.90	346.27	5.59	-44.9	-56.5	3.8	8.46e-01	0	58	104	3218079744	60	14436
2026-01-01 11:42:18.95	346.18	5.30	-44.9	-56.5	3.8	8.45e-01	0	58	104	3218079744	60	14444
2026-01-01 11:42:22.99	346.10	5.01	-44.9	-56.5	3.8	8.47e-01	0	58	104	3218079744	60	14427
2026-01-01 11:42:27.04	346.02	4.73	-44.8	-56.5	3.8	8.47e-01	0	58	104	3218079744	60	14382
2026-01-01 11:42:31.08	345.94	4.44	-44.8	-56.4	3.8	8.45e-01	0	58	104	3218079744	60	14360
2026-01-01 11:42:35.13	345.86	4.17	-44.8	-56.4	3.8	8.47e-01	0	58	104	3218079744	60	14331
2026-01-01 11:42:39.17	345.79	3.89	-44.8	-56.4	3.8	8.46e-01	0	58	104	3218079744	60	14317
2026-01-01 11:42:43.21	345.71	3.62	-44.8	-56.4	3.8	8.46e-01	0	58	104	3218079744	60	14345
2026-01-01 11:42:47.26	345.64	3.35	-44.8	-56.4	3.8	8.46e-01	0	58	104	3218079744	60	14329
2026-01-01 11:42:51.30	345.57	3.08	-44.8	-56.4	3.8	8.46e-01	0	58	104	3218079744	60	14335
2026-01-01 11:42:55.34	345.50	2.82	-44.8	-56.4	3.8	8.45e-01	0	58	104	3218079744	60	14351
2026-01-01 11:42:59.39	345.43	2.55	-44.8	-56.4	3.8	8.44e-01	0	58	104	3218079744	60	14328
2026-01-01 11:43:03.43	345.37	2.29	-44.8	-56.4	3.8	8.46e-01	0	58	104	3218079744	60	14373
2026-01-01 11:43:07.48	345.30	2.04	-44.8	-56.4	3.8	8.45e-01	0	59	104	3218079744	60	14305

#Closed at: 2026-01-01 11:43:08
#Recorded file [3218 MB]: D:/lorett/data/31039_260101_142854.dat