passes_logs/2026/01/01/R2.0S_Moscow/R2.0S_Moscow__20260101_050608_FENGYUN_3E_rec.log

#Pass ID: 20260101_050608_FENGYUN 3E
#Satellite: FENGYUN 3E
#Configuration: FENGYUN 3E
#almurnet v.1.7.20251203
#Start time: 2026-01-01 05:06:10

#Version: 2.2.20231116
#Station: R2.0S_Moscow
#Location: 37.707566 lon 55.798166 lat
#TLE: 1 49008U 21062A   25365.55977344  .00000403  00000+0  21051-3 0  9995
#TLE: 2 49008  98.7483   5.8586 0001311 170.0615 190.0588 14.19883886232790

#Time	Az	El	Level	Level2	SNR	BER	BlckErr	Temp	State	Recorded	gain1	gain2
2026-01-01 05:06:10.76	11.67	2.14	-39.9	-50.8	3.8	8.46e-01	0	48	0	0	50	12563
2026-01-01 05:06:14.81	11.48	2.38	-39.9	-50.8	3.8	8.46e-01	0	49	104	0	50	12530
2026-01-01 05:06:18.85	11.29	2.63	-39.9	-50.8	3.8	8.46e-01	0	49	104	0	50	12576
2026-01-01 05:06:22.89	11.10	2.88	-39.9	-50.8	3.8	8.46e-01	0	49	104	0	50	12529
2026-01-01 05:06:26.94	10.91	3.13	-39.9	-50.7	3.8	8.46e-01	0	50	104	0	50	12509
2026-01-01 05:06:30.98	10.71	3.38	-39.9	-50.8	3.8	8.46e-01	0	50	104	0	50	12531
2026-01-01 05:06:35.02	10.51	3.64	-39.9	-50.7	3.8	8.44e-01	0	50	104	0	50	12511
2026-01-01 05:06:39.06	10.30	3.89	-39.9	-50.7	3.8	8.46e-01	0	51	104	0	50	12517
2026-01-01 05:06:43.11	10.09	4.15	-39.9	-50.8	3.8	8.47e-01	0	51	104	0	50	12526
2026-01-01 05:06:47.15	9.88	4.41	-39.9	-50.7	3.8	8.46e-01	0	51	104	0	50	12507
2026-01-01 05:06:51.20	9.66	4.68	-39.9	-50.7	3.8	8.46e-01	0	51	104	0	50	12497
2026-01-01 05:06:55.24	9.44	4.94	-39.9	-50.8	3.8	8.47e-01	0	52	104	0	50	12542
2026-01-01 05:06:59.29	9.21	5.21	-39.9	-50.7	3.8	8.47e-01	0	52	104	0	50	12502
2026-01-01 05:07:03.31	8.98	5.48	-39.9	-50.7	3.8	8.46e-01	0	52	104	0	50	12496
2026-01-01 05:07:07.35	8.74	5.75	-39.9	-50.7	3.8	8.46e-01	0	52	104	0	50	12491
2026-01-01 05:07:11.40	8.50	6.03	-39.9	-50.7	3.8	8.46e-01	0	52	104	0	50	12506
2026-01-01 05:07:15.44	8.26	6.30	-39.9	-50.7	3.8	8.46e-01	0	53	104	0	50	12489
2026-01-01 05:07:19.48	8.01	6.58	-39.9	-50.7	3.8	8.45e-01	0	53	104	0	50	12486
2026-01-01 05:07:23.53	7.75	6.87	-39.9	-50.7	3.8	8.45e-01	0	53	104	0	50	12484
2026-01-01 05:07:27.57	7.49	7.15	-39.9	-50.8	3.8	8.45e-01	0	53	104	0	50	12522
2026-01-01 05:07:31.62	7.22	7.44	-39.9	-50.7	3.8	8.46e-01	0	53	104	0	50	12498
2026-01-01 05:07:35.66	6.95	7.73	-39.9	-50.7	3.8	8.45e-01	0	54	104	0	50	12483
2026-01-01 05:07:39.71	6.67	8.02	-39.9	-50.8	3.8	8.47e-01	0	54	104	0	50	12575
2026-01-01 05:07:43.75	6.39	8.32	-40.0	-50.9	3.8	8.46e-01	0	54	104	0	50	12699
2026-01-01 05:07:47.79	6.10	8.61	-40.0	-50.8	3.8	8.46e-01	0	54	104	0	50	12644
2026-01-01 05:07:51.83	5.80	8.91	-40.0	-50.9	3.8	8.46e-01	0	54	104	0	50	12705
2026-01-01 05:07:55.88	5.50	9.22	-40.0	-50.9	3.8	8.46e-01	0	54	104	0	50	12726
2026-01-01 05:07:59.92	5.19	9.52	-40.1	-51.0	3.8	8.46e-01	0	54	104	0	50	12933
2026-01-01 05:08:03.97	4.87	9.83	-40.1	-51.0	3.8	8.46e-01	0	55	104	0	50	12862
2026-01-01 05:08:08.00	4.55	10.15	-40.2	-51.1	3.8	8.47e-01	0	55	104	0	50	13019
2026-01-01 05:08:12.05	4.22	10.46	-40.2	-51.0	3.8	8.46e-01	0	55	104	0	50	12935
2026-01-01 05:08:16.09	3.88	10.78	-40.3	-51.1	3.8	8.47e-01	0	55	104	0	50	13108
2026-01-01 05:08:20.12	3.53	11.10	-40.2	-51.1	3.8	8.47e-01	0	55	104	0	50	13095
2026-01-01 05:08:24.16	3.18	11.43	-40.3	-51.3	3.8	8.47e-01	0	55	104	0	50	13375
2026-01-01 05:08:28.20	2.81	11.75	-40.2	-51.2	3.8	8.46e-01	0	55	104	0	50	13160
2026-01-01 05:08:32.24	2.44	12.09	-40.4	-51.1	3.8	8.45e-01	0	55	104	0	50	13010
2026-01-01 05:08:36.28	2.06	12.42	-40.4	-50.6	3.8	8.46e-01	0	55	104	0	51	11627
2026-01-01 05:08:40.32	1.67	12.76	-40.2	-48.8	4.0	8.45e-01	0	55	104	0	51	9426
2026-01-01 05:08:44.35	1.27	13.10	-39.7	-43.2	9.0	4.92e-02	0	55	0	4194304	50	5236
2026-01-01 05:08:48.40	0.86	13.44	-37.8	-39.8	13.4	1.02e-05	0	55	0	24117248	45	4727
2026-01-01 05:08:52.44	0.45	13.79	-34.6	-35.9	17.4	0.00e+00	0	56	0	53477376	40	4022
2026-01-01 05:08:56.48	0.02	14.14	-34.6	-35.8	18.0	0.00e+00	0	56	0	82837504	39	4227
2026-01-01 05:09:00.52	359.58	14.50	-34.8	-36.0	18.0	0.00e+00	0	56	0	112197632	39	4327
2026-01-01 05:09:04.56	359.13	14.86	-34.4	-35.6	18.5	0.00e+00	0	56	0	141557760	39	4100
2026-01-01 05:09:08.60	358.66	15.22	-34.4	-35.5	18.6	0.00e+00	0	56	0	169869312	39	4079
2026-01-01 05:09:12.64	358.19	15.58	-34.1	-35.3	18.9	0.00e+00	0	56	0	199229440	39	3969
2026-01-01 05:09:16.68	357.70	15.95	-34.2	-35.3	18.8	0.00e+00	0	56	0	228589568	38	4232
2026-01-01 05:09:20.72	357.21	16.33	-33.7	-34.8	19.2	0.00e+00	0	56	0	257949696	38	3961
2026-01-01 05:09:24.77	356.69	16.70	-33.9	-35.0	18.6	0.00e+00	0	56	0	287309824	37	4315
2026-01-01 05:09:28.81	356.17	17.08	-36.1	-37.8	14.7	0.00e+00	0	56	0	316669952	41	4721
2026-01-01 05:09:32.85	355.63	17.46	-39.5	-43.5	7.8	6.58e-02	0	56	0	344981504	48	6105
2026-01-01 05:09:36.90	355.07	17.85	-40.6	-49.3	3.9	8.44e-01	0	56	104	356515840	50	10545
2026-01-01 05:09:40.94	354.51	18.24	-40.6	-51.2	3.8	8.46e-01	0	56	104	356515840	50	13219
2026-01-01 05:09:44.98	353.92	18.63	-40.7	-51.6	3.8	8.46e-01	0	57	104	356515840	50	13738
2026-01-01 05:09:49.02	353.32	19.03	-40.3	-51.7	3.8	8.45e-01	0	56	104	356515840	51	13166
2026-01-01 05:09:53.06	352.71	19.43	-40.6	-51.5	3.8	8.46e-01	0	57	104	356515840	51	12822
2026-01-01 05:09:57.09	352.08	19.83	-40.6	-50.0	3.8	8.44e-01	0	57	104	356515840	51	10878
2026-01-01 05:10:01.13	351.43	20.23	-40.4	-47.6	4.5	8.29e-01	0	57	0	356515840	51	8220
2026-01-01 05:10:05.17	350.76	20.64	-39.8	-42.9	9.6	2.09e-02	0	57	0	375390208	50	5093
2026-01-01 05:10:09.21	350.08	21.05	-38.0	-39.9	13.6	1.02e-05	0	57	0	404750336	47	4291
2026-01-01 05:10:13.26	349.37	21.46	-35.9	-37.3	16.7	0.00e+00	0	57	0	433061888	42	4203
2026-01-01 05:10:17.30	348.65	21.87	-32.9	-34.0	19.9	0.00e+00	0	57	0	462422016	36	4067
2026-01-01 05:10:21.34	347.91	22.29	-31.4	-32.4	20.8	0.00e+00	0	57	0	491782144	33	4028
2026-01-01 05:10:25.38	347.15	22.70	-31.9	-32.9	20.5	0.00e+00	0	57	0	521142272	33	4262
2026-01-01 05:10:29.43	346.36	23.12	-32.0	-33.0	20.6	0.00e+00	0	57	0	550502400	33	4302
2026-01-01 05:10:33.47	345.55	23.54	-31.6	-32.6	21.0	0.00e+00	0	57	0	579862528	33	4111
2026-01-01 05:10:37.51	344.72	23.96	-31.4	-32.3	21.3	0.00e+00	0	57	0	608174080	33	3978
2026-01-01 05:10:41.55	343.87	24.38	-31.4	-32.4	21.3	0.00e+00	0	57	0	637534208	33	4014
2026-01-01 05:10:45.59	343.00	24.80	-31.4	-32.3	21.4	0.00e+00	0	57	0	666894336	33	3978
2026-01-01 05:10:49.63	342.10	25.22	-31.3	-32.2	21.4	0.00e+00	0	57	0	696254464	33	3949
2026-01-01 05:10:53.68	341.18	25.63	-31.5	-32.4	21.3	0.00e+00	0	57	0	725614592	33	4031
2026-01-01 05:10:57.72	340.23	26.05	-31.4	-32.4	21.4	0.00e+00	0	57	0	753926144	33	4012
2026-01-01 05:11:01.76	339.25	26.46	-31.5	-32.4	21.4	0.00e+00	0	57	0	783286272	33	4042
2026-01-01 05:11:05.80	338.26	26.87	-31.3	-32.2	21.6	0.00e+00	0	57	0	812646400	33	3923
2026-01-01 05:11:09.84	337.23	27.27	-31.4	-32.4	21.4	0.00e+00	0	57	0	842006528	33	4007
2026-01-01 05:11:13.88	336.18	27.67	-31.6	-32.5	21.3	0.00e+00	0	57	0	871366656	33	4083
2026-01-01 05:11:17.92	335.10	28.07	-31.1	-32.0	21.8	0.00e+00	0	57	0	900726784	33	3863
2026-01-01 05:11:21.96	333.99	28.46	-31.1	-32.0	21.8	0.00e+00	0	57	0	929038336	33	3862
2026-01-01 05:11:26.00	332.86	28.84	-31.4	-32.4	21.5	0.00e+00	0	58	0	958398464	33	4006
2026-01-01 05:11:30.04	331.70	29.22	-31.3	-32.3	21.6	0.00e+00	0	57	0	987758592	33	3969
2026-01-01 05:11:34.08	330.51	29.58	-31.5	-32.5	21.4	0.00e+00	0	57	0	1017118720	33	4052
2026-01-01 05:11:38.12	329.30	29.94	-31.2	-32.1	21.7	0.00e+00	0	57	0	1046478848	33	3900
2026-01-01 05:11:42.16	328.05	30.28	-30.9	-31.8	22.0	0.00e+00	0	58	0	1074790400	32	3989
2026-01-01 05:11:46.20	326.79	30.62	-31.0	-31.9	21.9	0.00e+00	0	57	0	1104150528	32	4045
2026-01-01 05:11:50.25	325.49	30.94	-31.1	-32.0	21.9	0.00e+00	0	57	0	1133510656	32	4063
2026-01-01 05:11:54.29	324.17	31.25	-30.9	-31.8	22.1	0.00e+00	0	57	0	1162870784	32	3962
2026-01-01 05:11:58.33	322.82	31.55	-30.6	-31.4	22.4	0.00e+00	0	58	0	1192230912	32	3817
2026-01-01 05:12:02.36	321.45	31.82	-30.8	-31.6	22.2	0.00e+00	0	58	0	1221591040	32	3909
2026-01-01 05:12:06.41	320.05	32.09	-30.8	-31.6	22.1	0.00e+00	0	57	0	1249902592	32	3913
2026-01-01 05:12:10.45	318.64	32.33	-30.7	-31.6	22.1	0.00e+00	0	57	0	1279262720	32	3903
2026-01-01 05:12:14.48	317.20	32.56	-30.3	-31.2	22.4	0.00e+00	0	58	0	1308622848	31	3927
2026-01-01 05:12:18.53	315.74	32.77	-30.6	-31.4	22.2	0.00e+00	0	58	0	1337982976	31	4047
2026-01-01 05:12:22.57	314.27	32.96	-30.5	-31.3	22.3	0.00e+00	0	57	0	1367343104	31	4004
2026-01-01 05:12:26.61	312.77	33.12	-30.4	-31.3	22.3	0.00e+00	0	58	0	1395654656	31	3988
2026-01-01 05:12:30.66	311.26	33.27	-30.4	-31.3	22.4	0.00e+00	0	58	0	1425014784	31	3960
2026-01-01 05:12:34.70	309.74	33.40	-30.6	-31.5	22.1	0.00e+00	0	58	0	1454374912	31	4096
2026-01-01 05:12:38.74	308.21	33.50	-30.5	-31.4	22.2	0.00e+00	0	58	0	1483735040	31	4039
2026-01-01 05:12:42.78	306.67	33.58	-30.6	-31.5	22.1	0.00e+00	0	58	0	1513095168	31	4075
2026-01-01 05:12:46.83	305.13	33.63	-30.3	-31.2	22.4	0.00e+00	0	58	0	1542455296	31	3917
2026-01-01 05:12:50.86	303.58	33.66	-30.4	-31.2	22.4	0.00e+00	0	58	0	1570766848	31	3957
2026-01-01 05:12:54.91	302.02	33.67	-30.1	-31.0	22.6	0.00e+00	0	58	0	1600126976	31	3828
2026-01-01 05:12:58.95	300.47	33.65	-30.5	-31.4	22.2	0.00e+00	0	58	0	1629487104	31	4010
2026-01-01 05:13:02.99	298.92	33.61	-30.4	-31.3	22.3	0.00e+00	0	58	0	1658847232	31	3979
2026-01-01 05:13:07.03	297.38	33.55	-30.4	-31.3	22.3	0.00e+00	0	58	0	1688207360	31	3972
2026-01-01 05:13:11.07	295.84	33.46	-30.4	-31.3	22.3	0.00e+00	0	58	0	1716518912	31	3974
2026-01-01 05:13:15.11	294.31	33.35	-30.3	-31.2	22.4	0.00e+00	0	58	0	1745879040	31	3940
2026-01-01 05:13:19.15	292.80	33.22	-30.3	-31.2	22.4	0.00e+00	0	58	0	1775239168	31	3936
2026-01-01 05:13:23.19	291.29	33.06	-30.2	-31.1	22.5	0.00e+00	0	58	0	1804599296	31	3902
2026-01-01 05:13:27.24	289.80	32.89	-30.3	-31.2	22.4	0.00e+00	0	58	0	1833959424	31	3915
2026-01-01 05:13:31.28	288.33	32.69	-30.4	-31.3	22.3	0.00e+00	0	58	0	1863319552	31	3995
2026-01-01 05:13:35.32	286.87	32.48	-30.4	-31.3	22.3	0.00e+00	0	58	0	1891631104	31	3973
2026-01-01 05:13:39.36	285.44	32.24	-30.5	-31.4	22.2	0.00e+00	0	58	0	1920991232	31	4026
2026-01-01 05:13:43.40	284.03	31.99	-30.5	-31.4	22.2	0.00e+00	0	58	0	1950351360	31	4016
2026-01-01 05:13:47.44	282.64	31.72	-30.3	-31.1	22.5	0.00e+00	0	58	0	1979711488	31	3913
2026-01-01 05:13:51.48	281.27	31.43	-30.3	-31.2	22.4	0.00e+00	0	58	0	2009071616	31	3924
2026-01-01 05:13:55.53	279.93	31.13	-30.3	-31.2	22.4	0.00e+00	0	58	0	2037383168	31	3939
2026-01-01 05:13:59.57	278.61	30.82	-30.5	-31.4	22.2	0.00e+00	0	58	0	2066743296	31	4036
2026-01-01 05:14:03.61	277.32	30.49	-30.4	-31.3	22.3	0.00e+00	0	58	0	2096103424	31	3996
2026-01-01 05:14:07.65	276.06	30.15	-30.5	-31.4	22.2	0.00e+00	0	58	0	2125463552	31	4035
2026-01-01 05:14:11.70	274.82	29.79	-30.7	-31.6	22.0	0.00e+00	0	58	0	2154823680	31	4111
2026-01-01 05:14:15.74	273.61	29.43	-30.6	-31.5	22.1	0.00e+00	0	58	0	2184183808	31	4090
2026-01-01 05:14:19.79	272.43	29.06	-30.6	-31.4	22.1	0.00e+00	0	58	0	2212495360	31	4050
2026-01-01 05:14:23.83	271.27	28.68	-30.6	-31.5	22.1	0.00e+00	0	58	0	2241855488	31	4074
2026-01-01 05:14:27.87	270.14	28.29	-30.4	-31.3	22.2	0.00e+00	0	58	0	2271215616	31	3976
2026-01-01 05:14:31.91	269.04	27.90	-30.4	-31.3	22.3	0.00e+00	0	58	0	2300575744	31	3979
2026-01-01 05:14:35.95	267.97	27.50	-30.7	-31.6	22.0	0.00e+00	0	58	0	2329935872	31	4126
2026-01-01 05:14:39.99	266.93	27.10	-31.1	-32.0	21.6	0.00e+00	0	58	0	2358247424	31	4321
2026-01-01 05:14:44.03	265.91	26.69	-30.9	-31.8	21.7	0.00e+00	0	58	0	2387607552	31	4232
2026-01-01 05:14:48.08	264.91	26.28	-30.7	-31.6	21.9	0.00e+00	0	58	0	2416967680	31	4138
2026-01-01 05:14:52.12	263.94	25.86	-30.8	-31.7	21.8	0.00e+00	0	58	0	2446327808	31	4189
2026-01-01 05:14:56.16	263.00	25.44	-31.1	-32.0	21.6	0.00e+00	0	58	0	2475687936	31	4304
2026-01-01 05:15:00.20	262.08	25.03	-30.8	-31.7	21.9	0.00e+00	0	58	0	2505048064	31	4151
2026-01-01 05:15:04.24	261.19	24.60	-30.8	-31.7	21.8	0.00e+00	0	58	0	2533359616	31	4172
2026-01-01 05:15:08.29	260.31	24.18	-31.2	-32.1	21.5	0.00e+00	0	58	0	2562719744	31	4352
2026-01-01 05:15:12.33	259.47	23.76	-31.4	-32.3	21.4	0.00e+00	0	58	0	2592079872	32	4228
2026-01-01 05:15:16.37	258.64	23.34	-31.3	-32.2	21.5	0.00e+00	0	58	0	2621440000	32	4186
2026-01-01 05:15:20.41	257.84	22.92	-31.2	-32.1	21.6	0.00e+00	0	58	0	2650800128	32	4122
2026-01-01 05:15:24.45	257.06	22.50	-31.3	-32.3	21.4	0.00e+00	0	58	0	2679111680	32	4194
2026-01-01 05:15:28.50	256.30	22.08	-31.2	-32.1	21.5	0.00e+00	0	58	0	2708471808	32	4137
2026-01-01 05:15:32.54	255.56	21.67	-31.4	-32.3	21.4	0.00e+00	0	58	0	2737831936	32	4216
2026-01-01 05:15:36.58	254.84	21.25	-31.6	-32.6	21.1	0.00e+00	0	58	0	2767192064	32	4343
2026-01-01 05:15:40.62	254.14	20.84	-31.5	-32.5	21.2	0.00e+00	0	58	0	2796552192	32	4293
2026-01-01 05:15:44.67	253.45	20.43	-31.7	-32.6	21.1	0.00e+00	0	58	0	2825912320	32	4372
2026-01-01 05:15:48.71	252.79	20.02	-31.9	-32.9	20.8	0.00e+00	0	58	0	2855272448	33	4266
2026-01-01 05:15:52.75	252.14	19.61	-31.8	-32.7	20.9	0.00e+00	0	58	0	2883584000	33	4179
2026-01-01 05:15:56.79	251.51	19.21	-31.9	-32.9	20.8	0.00e+00	0	58	0	2912944128	33	4245
2026-01-01 05:16:00.84	250.90	18.81	-32.2	-33.2	20.4	0.00e+00	0	58	0	2942304256	33	4413
2026-01-01 05:16:04.88	250.30	18.42	-32.2	-33.1	20.5	0.00e+00	0	58	0	2971664384	34	4136
2026-01-01 05:16:08.92	249.72	18.02	-32.3	-33.3	20.3	0.00e+00	0	58	0	3001024512	34	4235
2026-01-01 05:16:12.96	249.16	17.63	-32.8	-33.8	19.8	0.00e+00	0	58	0	3030384640	35	4234
2026-01-01 05:16:17.00	248.60	17.25	-32.7	-33.7	19.9	0.00e+00	0	58	0	3058696192	35	4170
2026-01-01 05:16:21.04	248.07	16.86	-32.6	-33.6	20.0	0.00e+00	0	58	0	3088056320	35	4105
2026-01-01 05:16:25.09	247.54	16.48	-32.5	-33.4	20.1	0.00e+00	0	58	0	3117416448	35	4050
2026-01-01 05:16:29.13	247.03	16.11	-32.8	-33.8	19.8	0.00e+00	0	58	0	3146776576	35	4225
2026-01-01 05:16:33.17	246.53	15.73	-34.0	-35.1	19.3	0.00e+00	0	58	0	3176136704	37	4357
2026-01-01 05:16:37.21	246.05	15.36	-34.3	-35.4	19.1	0.00e+00	0	58	0	3205496832	38	4244
2026-01-01 05:16:41.25	245.57	15.00	-33.9	-34.9	19.5	0.00e+00	0	58	0	3233808384	38	4032
2026-01-01 05:16:45.29	245.11	14.64	-33.6	-34.6	19.8	0.00e+00	0	58	0	3263168512	38	3886
2026-01-01 05:16:49.33	244.66	14.28	-33.7	-34.8	19.6	0.00e+00	0	58	0	3292528640	38	3970
2026-01-01 05:16:53.37	244.22	13.92	-34.3	-35.4	18.8	0.00e+00	0	58	0	3321888768	38	4291
2026-01-01 05:16:57.41	243.79	13.57	-34.2	-35.3	19.1	0.00e+00	0	58	0	3351248896	38	4221
2026-01-01 05:17:01.45	243.37	13.22	-34.4	-35.5	18.9	0.00e+00	0	58	0	3379560448	38	4311
2026-01-01 05:17:05.49	242.96	12.88	-34.7	-35.8	18.5	0.00e+00	0	58	0	3408920576	38	4485
2026-01-01 05:17:09.53	242.56	12.54	-34.8	-36.0	18.4	0.00e+00	0	58	0	3438280704	39	4316
2026-01-01 05:17:13.58	242.17	12.20	-34.9	-36.1	18.2	0.00e+00	0	58	0	3467640832	39	4360
2026-01-01 05:17:17.62	241.79	11.86	-34.6	-35.8	18.5	0.00e+00	0	58	0	3497000960	39	4205
2026-01-01 05:17:21.66	241.42	11.53	-34.6	-35.7	18.5	0.00e+00	0	58	0	3526361088	39	4188
2026-01-01 05:17:25.70	241.06	11.20	-34.6	-35.7	18.6	0.00e+00	0	58	0	3554672640	39	4185
2026-01-01 05:17:29.75	240.70	10.88	-34.7	-35.8	18.4	0.00e+00	0	58	0	3584032768	39	4229
2026-01-01 05:17:33.79	240.35	10.56	-34.9	-36.0	18.2	0.00e+00	0	58	0	3613392896	39	4331
2026-01-01 05:17:37.83	240.01	10.24	-35.0	-36.2	18.0	0.00e+00	0	58	0	3642753024	39	4423
2026-01-01 05:17:41.87	239.68	9.92	-35.3	-36.5	17.6	0.00e+00	0	58	0	3672113152	40	4323
2026-01-01 05:17:45.91	239.35	9.61	-35.3	-36.5	17.6	0.00e+00	0	58	0	3701473280	40	4316
2026-01-01 05:17:49.95	239.04	9.30	-35.3	-36.5	17.6	0.00e+00	0	59	0	3729784832	40	4326
2026-01-01 05:17:53.99	238.72	8.99	-35.3	-36.5	17.5	0.00e+00	0	58	0	3759144960	40	4326
2026-01-01 05:17:58.03	238.42	8.69	-35.2	-36.4	17.6	0.00e+00	0	58	0	3788505088	40	4262
2026-01-01 05:18:02.07	238.12	8.39	-35.0	-36.2	17.8	0.00e+00	0	58	0	3817865216	40	4171
2026-01-01 05:18:06.12	237.83	8.09	-35.1	-36.3	17.7	0.00e+00	0	58	0	3847225344	40	4215
2026-01-01 05:18:10.16	237.54	7.80	-45.2	-56.1	3.8	8.45e-01	0	59	104	3857711104	59	13786
2026-01-01 05:18:14.20	237.26	7.50	-45.4	-56.6	3.8	8.46e-01	0	59	104	3857711104	60	13794
2026-01-01 05:18:18.24	236.99	7.21	-45.4	-56.6	3.8	8.46e-01	0	59	104	3857711104	60	13770
2026-01-01 05:18:22.28	236.72	6.93	-45.3	-56.5	3.8	8.46e-01	0	59	104	3857711104	60	13578
2026-01-01 05:18:26.33	236.46	6.64	-45.3	-56.5	3.8	8.47e-01	0	59	104	3857711104	60	13643
2026-01-01 05:18:30.37	236.20	6.36	-45.3	-56.4	3.8	8.47e-01	0	59	104	3857711104	60	13550
2026-01-01 05:18:34.41	235.95	6.08	-45.3	-56.5	3.8	8.46e-01	0	59	104	3857711104	60	13599
2026-01-01 05:18:38.45	235.70	5.81	-45.3	-56.4	3.8	8.46e-01	0	59	104	3857711104	60	13538
2026-01-01 05:18:42.50	235.45	5.53	-45.3	-56.4	3.8	8.45e-01	0	59	104	3857711104	60	13498
2026-01-01 05:18:46.54	235.21	5.26	-45.3	-56.4	3.8	8.46e-01	0	59	104	3857711104	60	13514
2026-01-01 05:18:50.59	234.98	4.99	-45.3	-56.4	3.8	8.45e-01	0	59	104	3857711104	60	13543
2026-01-01 05:18:54.63	234.75	4.72	-45.3	-56.4	3.8	8.47e-01	0	59	104	3857711104	60	13494
2026-01-01 05:18:58.67	234.53	4.46	-45.3	-56.4	3.8	8.46e-01	0	59	104	3857711104	60	13450
2026-01-01 05:19:02.72	234.30	4.19	-45.3	-56.4	3.8	8.47e-01	0	58	104	3857711104	60	13527
2026-01-01 05:19:06.76	234.09	3.93	-45.3	-56.4	3.8	8.46e-01	0	59	104	3857711104	60	13477
2026-01-01 05:19:10.81	233.87	3.67	-45.3	-56.4	3.8	8.46e-01	0	59	104	3857711104	60	13440
2026-01-01 05:19:14.85	233.66	3.41	-45.3	-56.4	3.8	8.47e-01	0	59	104	3857711104	60	13529
2026-01-01 05:19:18.90	233.46	3.16	-45.3	-56.4	3.8	8.47e-01	0	59	104	3857711104	60	13468
2026-01-01 05:19:22.94	233.26	2.91	-45.3	-56.4	3.8	8.46e-01	0	59	104	3857711104	60	13546
2026-01-01 05:19:26.98	233.06	2.66	-45.3	-56.4	3.8	8.47e-01	0	59	104	3857711104	60	13477
2026-01-01 05:19:31.03	232.86	2.41	-45.3	-56.4	3.8	8.47e-01	0	59	104	3857711104	60	13494
2026-01-01 05:19:35.07	232.67	2.16	-45.3	-56.4	3.8	8.45e-01	0	59	104	3857711104	60	13473
2026-01-01 05:19:39.12	232.48	1.91	-45.3	-56.4	3.8	8.47e-01	0	59	104	3857711104	60	13463

#Closed at: 2026-01-01 05:19:39
#Recorded file [3857 MB]: D:/lorett/data/31039_260101_080610.dat