passes_logs/2026/01/01/R2.0S_Moscow/R2.0S_Moscow__20260101_084750_SUOMI_NPP_rec.log

#Pass ID: 20260101_084750_SUOMI NPP
#Satellite: SUOMI NPP
#Configuration: NPP
#almurnet v.1.7.20251203
#Start time: 2026-01-01 08:47:51

#Version: 2.2.20231116
#Station: R2.0S_Moscow
#Location: 37.707566 lon 55.798166 lat
#TLE: 1 37849U 11061A   25364.87906317  .00000195  00000+0  11345-3 0  9992
#TLE: 2 37849  98.7794 302.0592 0002571  89.2401 270.9069 14.19520347734561

#Time	Az	El	Level	Level2	SNR	BER	BlckErr	Temp	State	Recorded	gain1	gain2
2026-01-01 08:47:51.39	125.77	2.06	-24.3	-44.8	3.8	1.50e+00	0	48	0	0	18	42174
2026-01-01 08:47:55.43	125.57	2.30	-16.0	-37.5	3.1	1.50e+00	0	49	104	0	11	27091
2026-01-01 08:47:59.47	125.37	2.55	-23.9	-42.6	3.8	1.49e+00	0	49	104	0	16	36678
2026-01-01 08:48:03.52	125.16	2.80	-19.1	-40.9	3.9	1.50e+00	0	49	104	0	18	26890
2026-01-01 08:48:07.56	124.95	3.05	-20.9	-39.9	3.4	1.49e+00	0	50	104	0	17	25474
2026-01-01 08:48:11.60	124.74	3.30	-22.7	-43.1	3.2	1.49e+00	0	50	104	0	16	38913
2026-01-01 08:48:15.65	124.52	3.55	-24.6	-45.2	3.6	1.49e+00	0	50	104	0	18	44136
2026-01-01 08:48:19.69	124.30	3.81	-17.0	-37.4	3.6	1.50e+00	0	51	104	0	15	21319
2026-01-01 08:48:23.74	124.08	4.07	-23.7	-43.3	3.7	1.49e+00	0	51	104	0	19	33659
2026-01-01 08:48:27.78	123.85	4.33	-24.9	-44.8	3.5	1.49e+00	0	51	104	0	19	39915
2026-01-01 08:48:31.82	123.61	4.59	-24.8	-41.9	3.8	1.49e+00	0	51	104	0	16	33977
2026-01-01 08:48:35.86	123.38	4.85	-23.3	-42.6	3.6	1.50e+00	0	51	104	0	16	36701
2026-01-01 08:48:39.91	123.13	5.12	-24.0	-41.1	4.5	1.50e+00	0	52	104	0	15	32772
2026-01-01 08:48:43.95	122.89	5.39	-25.9	-43.9	3.8	1.49e+00	0	52	104	0	19	35932
2026-01-01 08:48:48.00	122.63	5.66	-23.9	-41.7	3.6	1.49e+00	0	52	104	0	16	33105
2026-01-01 08:48:52.04	122.38	5.93	-23.7	-41.5	3.5	1.49e+00	0	52	104	0	14	36324
2026-01-01 08:48:56.09	122.12	6.21	-25.0	-45.6	3.9	1.49e+00	0	52	104	0	20	41087
2026-01-01 08:49:00.13	121.85	6.49	-19.3	-43.2	3.9	1.50e+00	0	52	104	0	19	33009
2026-01-01 08:49:04.18	121.58	6.77	-21.0	-41.5	3.9	1.50e+00	0	53	104	0	19	27115
2026-01-01 08:49:08.22	121.30	7.05	-9.7	-34.0	3.8	1.50e+00	0	53	104	0	0	34452
2026-01-01 08:49:12.26	121.02	7.34	-25.5	-44.7	4.3	1.49e+00	0	53	104	0	20	37294
2026-01-01 08:49:16.31	120.73	7.62	-19.4	-40.8	4.6	1.48e+00	0	53	104	0	21	22506
2026-01-01 08:49:20.35	120.43	7.91	-25.4	-42.5	4.5	1.43e+00	0	53	104	0	21	27124
2026-01-01 08:49:24.39	120.13	8.21	-25.0	-42.4	4.2	1.48e+00	0	54	104	0	18	31984
2026-01-01 08:49:28.43	119.82	8.50	-24.9	-40.2	4.9	1.44e+00	0	54	104	0	18	24817
2026-01-01 08:49:32.48	119.51	8.80	-23.7	-39.4	5.0	1.43e+00	0	54	104	0	17	23888
2026-01-01 08:49:36.52	119.19	9.10	-14.0	-30.4	4.0	1.41e+00	0	54	104	0	6	16049
2026-01-01 08:49:40.56	118.86	9.41	-23.4	-39.0	4.7	1.41e+00	0	54	104	0	17	22878
2026-01-01 08:49:44.60	118.52	9.71	-24.7	-39.2	4.7	1.44e+00	0	54	104	0	18	22243
2026-01-01 08:49:48.64	118.18	10.02	-15.9	-30.9	3.8	1.45e+00	0	54	104	0	8	15169
2026-01-01 08:49:52.69	117.83	10.34	-25.0	-40.2	4.3	1.45e+00	0	54	104	0	21	20886
2026-01-01 08:49:56.72	117.47	10.65	-24.8	-41.0	4.6	1.47e+00	0	55	104	0	24	19261
2026-01-01 08:50:00.76	117.11	10.97	-27.0	-41.7	4.5	1.47e+00	0	55	104	0	26	18680
2026-01-01 08:50:04.80	116.74	11.29	-25.9	-40.1	4.3	1.43e+00	0	55	104	0	26	15465
2026-01-01 08:50:08.84	116.35	11.61	-33.6	-42.7	7.4	5.22e-01	0	55	0	3145728	38	10451
2026-01-01 08:50:12.88	115.96	11.94	-34.4	-43.6	8.3	3.73e-01	0	55	0	10485760	41	9792
2026-01-01 08:50:16.92	115.56	12.27	-34.7	-41.9	8.4	3.90e-01	0	55	0	17825792	39	9022
2026-01-01 08:50:20.96	115.15	12.60	-33.8	-42.3	10.2	1.11e-01	0	55	0	25165824	42	7950
2026-01-01 08:50:25.00	114.73	12.94	-37.7	-43.2	11.5	7.57e-02	0	55	0	33554432	46	6968
2026-01-01 08:50:29.04	114.30	13.28	-31.1	-42.2	13.4	2.04e-02	0	55	0	40894464	44	6986
2026-01-01 08:50:33.08	113.87	13.62	-39.2	-43.4	12.8	1.65e-02	0	55	0	48234496	49	6050
2026-01-01 08:50:37.12	113.42	13.97	-39.7	-42.5	14.9	2.13e-05	0	55	0	55574528	50	5135
2026-01-01 08:50:41.16	112.96	14.32	-40.1	-42.9	14.5	7.00e-07	0	56	0	63963136	51	5064
2026-01-01 08:50:45.20	112.48	14.67	-39.9	-42.7	14.8	3.00e-06	0	56	0	71303168	51	4934
2026-01-01 08:50:49.24	112.00	15.03	-39.5	-42.0	15.5	9.10e-06	0	56	0	78643200	50	4816
2026-01-01 08:50:53.28	111.51	15.38	-39.6	-42.2	15.4	6.80e-06	0	56	0	85983232	49	5227
2026-01-01 08:50:57.32	111.00	15.75	-39.5	-42.0	15.6	0.00e+00	0	56	0	93323264	50	4828
2026-01-01 08:51:01.36	110.48	16.11	-40.6	-43.7	14.0	0.00e+00	0	56	0	101711872	51	5538
2026-01-01 08:51:05.40	109.94	16.48	-40.1	-42.9	14.8	0.00e+00	0	56	0	109051904	51	5043
2026-01-01 08:51:09.44	109.40	16.85	-40.6	-43.7	13.9	1.50e-06	0	56	0	116391936	51	5558
2026-01-01 08:51:13.48	108.84	17.22	-40.2	-42.9	14.7	3.00e-06	0	56	0	123731968	51	5074
2026-01-01 08:51:17.52	108.26	17.60	-40.0	-42.7	14.9	0.00e+00	0	56	0	132120576	51	4965
2026-01-01 08:51:21.56	107.67	17.98	-39.8	-42.4	15.3	0.00e+00	0	56	0	139460608	51	4772
2026-01-01 08:51:25.60	107.07	18.36	-39.3	-41.6	16.0	0.00e+00	0	56	0	146800640	50	4617
2026-01-01 08:51:29.64	106.45	18.74	-39.4	-41.7	16.0	0.00e+00	0	56	0	154140672	50	4678
2026-01-01 08:51:33.68	105.81	19.13	-39.5	-41.9	15.8	0.00e+00	0	56	0	161480704	50	4771
2026-01-01 08:51:37.72	105.16	19.52	-39.5	-41.8	15.8	0.00e+00	0	56	0	169869312	50	4741
2026-01-01 08:51:41.76	104.49	19.91	-39.7	-42.2	15.5	0.00e+00	0	57	0	177209344	50	4956
2026-01-01 08:51:45.79	103.80	20.30	-39.4	-41.7	15.9	0.00e+00	0	56	0	184549376	50	4697
2026-01-01 08:51:49.83	103.10	20.70	-39.3	-41.6	16.1	0.00e+00	0	56	0	191889408	49	4881
2026-01-01 08:51:53.87	102.37	21.09	-38.8	-40.8	16.8	0.00e+00	0	56	0	200278016	49	4475
2026-01-01 08:51:57.91	101.63	21.49	-39.8	-42.3	15.4	0.00e+00	0	56	0	207618048	50	5026
2026-01-01 08:52:01.95	100.86	21.89	-39.7	-42.2	15.5	0.00e+00	0	56	0	214958080	50	4953
2026-01-01 08:52:05.99	100.08	22.29	-39.2	-41.5	16.2	0.00e+00	0	57	0	222298112	50	4552
2026-01-01 08:52:10.02	99.28	22.69	-39.3	-41.5	16.2	0.00e+00	0	57	0	229638144	50	4564
2026-01-01 08:52:14.07	98.45	23.09	-39.8	-42.2	15.5	0.00e+00	0	57	0	238026752	50	4970
2026-01-01 08:52:18.10	97.61	23.49	-39.4	-41.7	16.0	0.00e+00	0	57	0	245366784	50	4687
2026-01-01 08:52:22.15	96.74	23.89	-39.9	-42.5	15.3	0.00e+00	0	57	0	252706816	50	5127
2026-01-01 08:52:26.19	95.85	24.28	-39.8	-42.3	15.4	0.00e+00	0	57	0	260046848	51	4744
2026-01-01 08:52:30.23	94.94	24.68	-39.3	-41.6	16.2	0.00e+00	0	57	0	268435456	50	4600
2026-01-01 08:52:34.26	94.00	25.07	-38.7	-40.8	16.8	0.00e+00	0	57	0	275775488	49	4447
2026-01-01 08:52:38.30	93.04	25.46	-38.5	-40.4	17.3	0.00e+00	0	57	0	283115520	48	4520
2026-01-01 08:52:42.34	92.06	25.85	-38.8	-40.9	16.9	0.00e+00	0	57	0	290455552	48	4777
2026-01-01 08:52:46.37	91.05	26.23	-39.3	-41.6	16.2	0.00e+00	0	57	0	297795584	49	4872
2026-01-01 08:52:50.41	90.02	26.61	-39.4	-41.7	16.2	0.00e+00	0	57	0	306184192	50	4669
2026-01-01 08:52:54.45	88.96	26.98	-39.6	-41.9	16.0	0.00e+00	0	57	0	313524224	50	4768
2026-01-01 08:52:58.49	87.88	27.35	-39.7	-42.3	15.4	0.00e+00	0	57	0	320864256	50	4998
2026-01-01 08:53:02.53	86.77	27.71	-39.2	-41.6	16.1	0.00e+00	0	57	0	328204288	50	4642
2026-01-01 08:53:06.57	85.63	28.06	-39.7	-42.4	15.3	0.00e+00	0	57	0	336592896	50	5078
2026-01-01 08:53:10.61	84.48	28.41	-40.5	-43.8	14.0	2.20e-06	0	57	0	343932928	51	5600
2026-01-01 08:53:14.65	83.29	28.74	-40.5	-43.7	14.0	4.50e-06	0	57	0	351272960	52	5246
2026-01-01 08:53:18.69	82.09	29.07	-40.0	-42.7	15.0	7.00e-07	0	57	0	358612992	51	4973
2026-01-01 08:53:22.73	80.85	29.38	-40.2	-43.2	14.5	7.00e-07	0	57	0	365953024	51	5279
2026-01-01 08:53:26.77	79.60	29.69	-40.0	-43.0	14.7	0.00e+00	0	57	0	374341632	51	5122
2026-01-01 08:53:30.81	78.32	29.98	-39.6	-42.3	15.5	0.00e+00	0	57	0	381681664	51	4747
2026-01-01 08:53:34.85	77.02	30.25	-39.6	-42.2	15.5	0.00e+00	0	57	0	389021696	51	4688
2026-01-01 08:53:38.89	75.69	30.51	-39.5	-42.1	15.7	0.00e+00	0	57	0	396361728	50	4892
2026-01-01 08:53:42.93	74.35	30.76	-40.0	-43.0	14.8	0.00e+00	0	57	0	404750336	51	5104
2026-01-01 08:53:46.97	72.98	30.99	-39.1	-41.4	16.3	0.00e+00	0	57	0	412090368	50	4543
2026-01-01 08:53:51.01	71.60	31.21	-38.9	-41.1	16.6	0.00e+00	0	57	0	419430400	49	4651
2026-01-01 08:53:55.05	70.20	31.40	-39.8	-42.6	15.3	7.00e-07	0	57	0	426770432	50	5164
2026-01-01 08:53:59.08	68.78	31.58	-40.0	-42.9	14.9	0.00e+00	0	57	0	434110464	51	5065
2026-01-01 08:54:03.12	67.35	31.74	-40.1	-43.1	14.8	7.00e-07	0	57	0	442499072	50	5484
2026-01-01 08:54:07.16	65.90	31.88	-39.7	-42.3	15.5	0.00e+00	0	57	0	449839104	51	4747
2026-01-01 08:54:11.20	64.45	32.00	-40.4	-43.4	14.4	0.00e+00	0	57	0	457179136	51	5366
2026-01-01 08:54:15.24	62.98	32.10	-39.5	-42.0	15.9	0.00e+00	0	57	0	464519168	51	4551
2026-01-01 08:54:19.28	61.50	32.17	-40.1	-43.0	14.8	0.00e+00	0	57	0	472907776	50	5445
2026-01-01 08:54:23.32	60.02	32.23	-40.5	-43.6	14.2	2.20e-06	0	57	0	480247808	51	5496
2026-01-01 08:54:27.36	58.54	32.26	-40.5	-43.7	14.1	1.50e-06	0	57	0	487587840	52	5260
2026-01-01 08:54:31.40	57.05	32.28	-39.7	-42.4	15.4	0.00e+00	0	57	0	494927872	51	4767
2026-01-01 08:54:35.43	55.57	32.27	-39.3	-41.7	16.2	0.00e+00	0	58	0	502267904	49	4969
2026-01-01 08:54:39.47	54.08	32.24	-40.4	-43.4	14.4	3.00e-06	0	58	0	510656512	51	5396
2026-01-01 08:54:43.51	52.60	32.18	-40.3	-43.3	14.6	0.00e+00	0	58	0	517996544	52	5029
2026-01-01 08:54:47.55	51.13	32.11	-40.4	-43.5	14.5	0.00e+00	0	58	0	525336576	52	5104
2026-01-01 08:54:51.59	49.66	32.02	-40.0	-42.8	15.0	0.00e+00	0	57	0	532676608	51	5011
2026-01-01 08:54:55.62	48.21	31.90	-40.0	-42.8	14.9	7.00e-07	0	58	0	541065216	51	5032
2026-01-01 08:54:59.66	46.76	31.76	-39.4	-42.0	15.8	0.00e+00	0	58	0	548405248	50	4855
2026-01-01 08:55:03.70	45.33	31.61	-39.7	-42.3	15.5	0.00e+00	0	58	0	555745280	51	4757
2026-01-01 08:55:07.74	43.91	31.43	-40.3	-43.4	14.5	0.00e+00	0	58	0	563085312	51	5364
2026-01-01 08:55:11.78	42.51	31.24	-39.2	-41.7	16.1	0.00e+00	0	58	0	570425344	50	4675
2026-01-01 08:55:15.82	41.12	31.03	-39.6	-42.2	15.7	0.00e+00	0	58	0	578813952	50	4938
2026-01-01 08:55:19.86	39.76	30.80	-40.1	-43.1	14.8	0.00e+00	0	58	0	586153984	50	5488
2026-01-01 08:55:23.90	38.41	30.56	-40.7	-44.2	13.5	8.30e-06	0	58	0	593494016	52	5541
2026-01-01 08:55:27.94	37.09	30.30	-41.1	-44.8	12.9	1.14e-05	0	58	0	600834048	52	5970
2026-01-01 08:55:31.98	35.79	30.03	-40.6	-43.8	13.9	6.80e-06	0	58	0	609222656	52	5322
2026-01-01 08:55:36.02	34.51	29.74	-40.5	-43.7	14.1	6.80e-06	0	58	0	616562688	52	5247
2026-01-01 08:55:40.05	33.25	29.44	-39.7	-42.4	15.4	0.00e+00	0	58	0	623902720	51	4810
2026-01-01 08:55:44.09	32.02	29.13	-38.6	-40.9	16.9	0.00e+00	0	58	0	631242752	48	4773
2026-01-01 08:55:48.13	30.81	28.80	-39.4	-41.9	15.8	0.00e+00	0	58	0	638582784	49	5099
2026-01-01 08:55:52.17	29.63	28.47	-40.0	-42.9	14.9	7.00e-07	0	58	0	646971392	52	4766
2026-01-01 08:55:56.21	28.47	28.13	-40.3	-43.4	14.5	0.00e+00	0	58	0	654311424	51	5354
2026-01-01 08:56:00.25	27.34	27.78	-41.3	-45.0	12.8	8.77e-05	0	58	0	661651456	53	5767
2026-01-01 08:56:04.29	26.23	27.42	-40.3	-43.3	14.6	7.00e-07	0	58	0	668991488	52	4993
2026-01-01 08:56:08.33	25.15	27.06	-40.3	-43.2	14.7	0.00e+00	0	58	0	677380096	52	4954
2026-01-01 08:56:12.38	24.09	26.69	-38.8	-41.0	16.9	0.00e+00	0	58	0	684720128	49	4564
2026-01-01 08:56:16.41	23.05	26.31	-38.9	-41.2	16.7	0.00e+00	0	58	0	692060160	49	4668
2026-01-01 08:56:20.46	22.04	25.93	-39.6	-42.1	15.8	0.00e+00	0	58	0	699400192	49	5207
2026-01-01 08:56:24.50	21.06	25.54	-39.2	-41.6	16.3	0.00e+00	0	58	0	706740224	49	4920
2026-01-01 08:56:28.53	20.10	25.16	-39.4	-41.9	16.0	0.00e+00	0	58	0	715128832	49	5051
2026-01-01 08:56:32.57	19.17	24.76	-38.1	-40.1	17.7	0.00e+00	0	58	0	722468864	48	4369
2026-01-01 08:56:36.61	18.25	24.37	-37.7	-39.5	18.2	0.00e+00	0	58	0	729808896	47	4332
2026-01-01 08:56:40.65	17.36	23.98	-38.6	-40.7	17.0	0.00e+00	0	58	0	737148928	47	4983
2026-01-01 08:56:44.69	16.50	23.58	-37.9	-39.8	17.9	0.00e+00	0	58	0	745537536	47	4491
2026-01-01 08:56:48.73	15.65	23.18	-38.3	-40.3	17.4	0.00e+00	0	58	0	752877568	47	4738
2026-01-01 08:56:52.77	14.83	22.78	-38.5	-40.6	17.1	0.00e+00	0	58	0	760217600	47	4903
2026-01-01 08:56:56.81	14.02	22.39	-38.3	-40.3	17.4	0.00e+00	0	58	0	767557632	47	4747
2026-01-01 08:57:00.85	13.24	21.99	-38.4	-40.5	17.3	0.00e+00	0	58	0	774897664	47	4859
2026-01-01 08:57:04.89	12.48	21.59	-38.8	-41.0	16.8	0.00e+00	0	58	0	783286272	48	4839
2026-01-01 08:57:08.93	11.74	21.20	-38.9	-41.1	16.6	0.00e+00	0	58	0	790626304	48	4883
2026-01-01 08:57:12.96	11.02	20.80	-38.8	-41.0	16.8	0.00e+00	0	58	0	797966336	48	4858
2026-01-01 08:57:17.00	10.31	20.41	-39.4	-41.9	16.0	0.00e+00	0	58	0	805306368	49	5047
2026-01-01 08:57:21.04	9.62	20.02	-39.9	-42.5	15.3	0.00e+00	0	58	0	813694976	50	5154
2026-01-01 08:57:25.08	8.95	19.63	-39.1	-41.4	16.4	0.00e+00	0	58	0	821035008	50	4501
2026-01-01 08:57:29.12	8.30	19.24	-39.3	-41.7	16.0	0.00e+00	0	58	0	828375040	49	4971
2026-01-01 08:57:33.16	7.67	18.85	-39.1	-41.4	16.3	0.00e+00	0	58	0	835715072	49	4782
2026-01-01 08:57:37.20	7.05	18.47	-38.7	-40.9	16.8	0.00e+00	0	58	0	843055104	49	4508
2026-01-01 08:57:41.24	6.45	18.09	-38.8	-41.0	16.7	0.00e+00	0	58	0	851443712	49	4590
2026-01-01 08:57:45.28	5.86	17.71	-38.8	-41.0	16.6	0.00e+00	0	58	0	858783744	49	4581
2026-01-01 08:57:49.32	5.28	17.34	-38.6	-40.8	16.8	0.00e+00	0	58	0	866123776	49	4451
2026-01-01 08:57:53.36	4.73	16.96	-38.6	-40.8	16.7	0.00e+00	0	58	0	873463808	49	4467
2026-01-01 08:57:57.40	4.18	16.59	-40.0	-42.8	14.7	0.00e+00	0	58	0	881852416	50	5299
2026-01-01 08:58:01.44	3.65	16.23	-40.6	-43.8	13.6	6.80e-06	0	58	0	889192448	51	5655
2026-01-01 08:58:05.48	3.13	15.86	-39.3	-41.8	15.7	0.00e+00	0	58	0	896532480	50	4724
2026-01-01 08:58:09.52	2.63	15.50	-38.8	-41.2	16.2	0.00e+00	0	58	0	903872512	49	4661
2026-01-01 08:58:13.55	2.13	15.15	-39.7	-42.6	14.8	0.00e+00	0	58	0	911212544	50	5169
2026-01-01 08:58:17.59	1.65	14.79	-40.0	-43.1	14.2	7.60e-06	0	58	0	919601152	51	5186
2026-01-01 08:58:21.63	1.18	14.44	-39.9	-43.1	14.1	1.50e-06	0	58	0	926941184	51	5171
2026-01-01 08:58:25.67	0.72	14.09	-39.6	-42.7	14.2	7.00e-07	0	58	0	934281216	51	4946
2026-01-01 08:58:29.71	0.28	13.75	-39.2	-42.5	13.8	2.20e-06	0	58	0	941621248	50	5105
2026-01-01 08:58:33.75	359.84	13.41	-40.3	-45.9	9.2	1.05e-02	0	58	0	950009856	51	7182
2026-01-01 08:58:37.80	359.41	13.07	-40.6	-50.7	4.7	8.25e-01	0	58	0	957349888	51	12439
2026-01-01 08:58:41.84	359.00	12.73	-40.3	-52.4	4.0	1.47e+00	0	58	104	960495616	51	15174
2026-01-01 08:58:45.88	358.59	12.40	-40.2	-53.4	3.8	1.49e+00	0	58	104	960495616	51	16972
2026-01-01 08:58:49.92	358.19	12.07	-40.0	-53.7	3.8	1.49e+00	0	58	104	960495616	51	17562
2026-01-01 08:58:53.96	357.80	11.74	-39.3	-54.3	3.8	1.49e+00	0	58	104	960495616	50	19924
2026-01-01 08:58:58.00	357.42	11.42	-40.2	-54.8	3.8	1.49e+00	0	58	104	960495616	50	21198
2026-01-01 08:59:02.04	357.05	11.10	-38.3	-54.2	3.8	1.49e+00	0	58	104	960495616	48	22051
2026-01-01 08:59:06.09	356.69	10.78	-39.7	-54.4	3.8	1.49e+00	0	58	104	960495616	50	20278
2026-01-01 08:59:10.12	356.33	10.46	-38.9	-54.2	3.8	1.49e+00	0	58	104	960495616	48	22219
2026-01-01 08:59:14.16	355.99	10.15	-39.3	-54.3	3.8	1.49e+00	0	58	104	960495616	49	21114
2026-01-01 08:59:18.20	355.65	9.84	-39.7	-54.3	3.8	1.49e+00	0	58	104	960495616	49	21188
2026-01-01 08:59:22.24	355.32	9.54	-39.6	-54.3	3.8	1.49e+00	0	58	104	960495616	49	21098
2026-01-01 08:59:26.29	354.99	9.23	-39.9	-54.5	3.8	1.49e+00	0	58	104	960495616	50	20434
2026-01-01 08:59:30.32	354.67	8.93	-39.8	-54.4	3.8	1.49e+00	0	58	104	960495616	50	20123
2026-01-01 08:59:34.36	354.36	8.64	-40.0	-54.6	3.8	1.49e+00	0	58	104	960495616	50	20717
2026-01-01 08:59:38.40	354.06	8.34	-40.0	-54.6	3.8	1.49e+00	0	58	104	960495616	50	20738
2026-01-01 08:59:42.44	353.76	8.05	-40.0	-54.6	3.8	1.49e+00	0	58	104	960495616	50	20541
2026-01-01 08:59:46.48	353.47	7.76	-44.8	-59.3	3.8	1.49e+00	0	58	104	960495616	60	19999
2026-01-01 08:59:50.53	353.18	7.47	-45.1	-59.7	3.8	1.49e+00	0	58	104	960495616	60	20960
2026-01-01 08:59:54.57	352.90	7.19	-45.1	-59.7	3.8	1.49e+00	0	58	104	960495616	60	20973
2026-01-01 08:59:58.62	352.63	6.90	-45.0	-59.6	3.8	1.49e+00	0	58	104	960495616	60	20720
2026-01-01 09:00:02.66	352.36	6.62	-45.0	-59.6	3.8	1.49e+00	0	58	104	960495616	60	20573
2026-01-01 09:00:06.70	352.10	6.35	-45.0	-59.5	3.8	1.49e+00	0	58	104	960495616	60	20513
2026-01-01 09:00:10.75	351.84	6.07	-44.9	-59.5	3.8	1.49e+00	0	58	104	960495616	60	20504
2026-01-01 09:00:14.79	351.58	5.80	-45.0	-59.5	3.8	1.49e+00	0	58	104	960495616	60	20516
2026-01-01 09:00:18.83	351.34	5.53	-45.0	-59.5	3.8	1.49e+00	0	58	104	960495616	60	20478
2026-01-01 09:00:22.87	351.09	5.26	-44.9	-59.5	3.8	1.49e+00	0	58	104	960495616	60	20466
2026-01-01 09:00:26.91	350.85	4.99	-44.9	-59.5	3.8	1.49e+00	0	58	104	960495616	60	20396
2026-01-01 09:00:30.96	350.62	4.73	-44.9	-59.5	3.8	1.49e+00	0	58	104	960495616	60	20371
2026-01-01 09:00:35.00	350.39	4.47	-44.9	-59.5	3.8	1.49e+00	0	58	104	960495616	60	20423
2026-01-01 09:00:39.04	350.17	4.21	-44.9	-59.5	3.8	1.49e+00	0	58	104	960495616	60	20378
2026-01-01 09:00:43.09	349.94	3.95	-44.9	-59.5	3.8	1.49e+00	0	58	104	960495616	60	20404
2026-01-01 09:00:47.13	349.73	3.69	-44.9	-59.5	3.8	1.49e+00	0	58	104	960495616	60	20362
2026-01-01 09:00:51.18	349.52	3.44	-44.9	-59.5	3.8	1.49e+00	0	58	104	960495616	60	20357
2026-01-01 09:00:55.22	349.31	3.19	-44.9	-59.5	3.8	1.49e+00	0	58	104	960495616	60	20354
2026-01-01 09:00:59.26	349.10	2.94	-44.9	-59.5	3.8	1.49e+00	0	58	104	960495616	60	20335
2026-01-01 09:01:03.30	348.90	2.69	-44.9	-59.5	3.8	1.49e+00	0	58	104	960495616	60	20361
2026-01-01 09:01:07.34	348.70	2.45	-44.9	-59.5	3.8	1.49e+00	0	58	104	960495616	60	20367
2026-01-01 09:01:11.38	348.51	2.20	-44.9	-59.5	3.8	1.49e+00	0	58	104	960495616	60	20328
2026-01-01 09:01:15.43	348.32	1.96	-44.9	-59.5	3.8	1.49e+00	0	58	104	960495616	60	20364

#Closed at: 2026-01-01 09:01:17
#Recorded file [960 MB]: D:/lorett/data/31039_260101_114751.dat