passes_logs/2026/01/01/R2.0S_Moscow/R2.0S_Moscow__20260101_102722_SUOMI_NPP_rec.log

#Pass ID: 20260101_102722_SUOMI NPP
#Satellite: SUOMI NPP
#Configuration: NPP
#almurnet v.1.7.20251203
#Start time: 2026-01-01 10:27:22

#Version: 2.2.20231116
#Station: R2.0S_Moscow
#Location: 37.707566 lon 55.798166 lat
#TLE: 1 37849U 11061A   25364.87906317  .00000195  00000+0  11345-3 0  9992
#TLE: 2 37849  98.7794 302.0592 0002571  89.2401 270.9069 14.19520347734561

#Time	Az	El	Level	Level2	SNR	BER	BlckErr	Temp	State	Recorded	gain1	gain2
2026-01-01 10:27:22.09	174.28	1.99	-43.7	-58.0	3.8	1.49e+00	0	48	0	0	59	18264
2026-01-01 10:27:26.14	174.38	2.25	-43.7	-58.0	3.8	1.49e+00	0	48	104	0	59	18224
2026-01-01 10:27:30.18	174.47	2.51	-43.7	-58.0	3.8	1.49e+00	0	48	104	0	59	18236
2026-01-01 10:27:34.23	174.57	2.77	-43.7	-58.0	3.8	1.49e+00	0	49	104	0	59	18244
2026-01-01 10:27:38.27	174.67	3.04	-43.7	-58.0	3.8	1.49e+00	0	49	104	0	59	18221
2026-01-01 10:27:42.31	174.77	3.31	-43.7	-58.0	3.8	1.49e+00	0	49	104	0	59	18198
2026-01-01 10:27:46.35	174.88	3.57	-43.7	-58.0	3.8	1.49e+00	0	49	104	0	59	18266
2026-01-01 10:27:50.40	174.98	3.85	-43.7	-58.0	3.8	1.49e+00	0	50	104	0	59	18239
2026-01-01 10:27:54.44	175.09	4.12	-43.7	-58.0	3.8	1.49e+00	0	50	104	0	59	18232
2026-01-01 10:27:58.49	175.20	4.40	-43.7	-58.0	3.8	1.49e+00	0	50	104	0	59	18244
2026-01-01 10:28:02.53	175.31	4.68	-43.7	-58.0	3.8	1.49e+00	0	51	104	0	59	18228
2026-01-01 10:28:06.57	175.42	4.96	-43.7	-58.0	3.8	1.49e+00	0	51	104	0	59	18211
2026-01-01 10:28:10.62	175.54	5.25	-43.6	-57.9	3.8	1.49e+00	0	51	104	0	59	18051
2026-01-01 10:28:14.66	175.66	5.54	-43.6	-57.9	3.8	1.49e+00	0	51	104	0	59	17957
2026-01-01 10:28:18.70	175.77	5.83	-43.7	-58.0	3.8	1.49e+00	0	51	104	0	59	18100
2026-01-01 10:28:22.75	175.90	6.13	-43.7	-58.0	3.8	1.49e+00	0	51	104	0	59	18250
2026-01-01 10:28:26.79	176.02	6.43	-43.6	-57.0	3.8	1.49e+00	0	52	104	0	59	16309
2026-01-01 10:28:30.84	176.15	6.73	-43.3	-53.6	4.5	1.33e+00	0	52	0	0	58	11559
2026-01-01 10:28:34.88	176.27	7.04	-42.6	-49.2	7.5	1.37e-01	0	52	0	8388608	57	7400
2026-01-01 10:28:38.92	176.41	7.35	-41.4	-45.9	10.7	4.89e-03	0	52	0	15728640	54	6050
2026-01-01 10:28:42.97	176.54	7.66	-40.3	-43.7	13.0	4.80e-05	0	52	0	23068672	52	5266
2026-01-01 10:28:47.01	176.68	7.98	-40.1	-43.3	13.5	1.60e-05	0	53	0	30408704	51	5303
2026-01-01 10:28:51.05	176.81	8.30	-41.0	-44.7	12.4	1.44e-05	0	52	0	38797312	52	5894
2026-01-01 10:28:55.09	176.96	8.63	-40.0	-42.8	14.3	0.00e+00	0	53	0	46137344	51	5040
2026-01-01 10:28:59.13	177.10	8.95	-39.8	-42.6	14.6	0.00e+00	0	53	0	53477376	51	4903
2026-01-01 10:29:03.17	177.25	9.29	-39.6	-42.1	15.1	7.00e-07	0	53	0	60817408	50	4923
2026-01-01 10:29:07.21	177.40	9.63	-39.5	-42.0	15.3	0.00e+00	0	53	0	68157440	50	4828
2026-01-01 10:29:11.25	177.55	9.97	-39.3	-41.7	15.6	0.00e+00	0	53	0	76546048	50	4700
2026-01-01 10:29:15.29	177.71	10.32	-39.1	-41.5	15.8	0.00e+00	0	54	0	83886080	50	4556
2026-01-01 10:29:19.33	177.87	10.67	-39.1	-41.4	15.9	0.00e+00	0	54	0	91226112	50	4544
2026-01-01 10:29:23.37	178.04	11.02	-38.9	-41.2	16.2	0.00e+00	0	54	0	98566144	49	4652
2026-01-01 10:29:27.41	178.21	11.39	-38.9	-41.0	16.4	0.00e+00	0	54	0	106954752	49	4592
2026-01-01 10:29:31.44	178.38	11.75	-38.7	-40.8	16.7	0.00e+00	0	54	0	114294784	49	4445
2026-01-01 10:29:35.48	178.55	12.12	-38.7	-40.8	16.6	0.00e+00	0	54	0	121634816	49	4479
2026-01-01 10:29:39.52	178.73	12.50	-38.7	-40.9	16.6	0.00e+00	0	54	0	128974848	49	4506
2026-01-01 10:29:43.56	178.92	12.89	-38.6	-40.6	16.9	0.00e+00	0	54	0	136314880	49	4369
2026-01-01 10:29:47.60	179.11	13.28	-38.5	-40.5	17.0	0.00e+00	0	55	0	144703488	48	4566
2026-01-01 10:29:51.64	179.30	13.67	-38.6	-40.6	16.8	0.00e+00	0	55	0	152043520	48	4644
2026-01-01 10:29:55.68	179.50	14.07	-38.6	-40.7	16.8	0.00e+00	0	54	0	159383552	48	4670
2026-01-01 10:29:59.72	179.71	14.48	-38.8	-40.9	16.6	0.00e+00	0	55	0	166723584	48	4803
2026-01-01 10:30:03.76	179.92	14.90	-38.9	-41.0	16.6	0.00e+00	0	55	0	175112192	48	4864
2026-01-01 10:30:07.79	180.13	15.32	-38.9	-41.0	16.6	0.00e+00	0	55	0	182452224	48	4847
2026-01-01 10:30:11.83	180.36	15.75	-38.8	-41.0	16.7	0.00e+00	0	55	0	189792256	48	4815
2026-01-01 10:30:15.87	180.58	16.18	-39.0	-41.2	16.4	0.00e+00	0	55	0	197132288	48	4973
2026-01-01 10:30:19.91	180.82	16.63	-39.4	-41.8	15.9	0.00e+00	0	55	0	204472320	49	5032
2026-01-01 10:30:23.95	181.06	17.08	-39.4	-41.8	15.9	0.00e+00	0	55	0	212860928	49	5009
2026-01-01 10:30:27.98	181.31	17.54	-39.4	-41.8	15.9	0.00e+00	0	55	0	220200960	49	4993
2026-01-01 10:30:32.03	181.56	18.01	-39.2	-41.4	16.2	0.00e+00	0	55	0	227540992	49	4793
2026-01-01 10:30:36.07	181.82	18.48	-39.3	-41.6	16.1	0.00e+00	0	55	0	234881024	49	4880
2026-01-01 10:30:40.11	182.09	18.97	-39.6	-41.9	15.7	0.00e+00	0	55	0	243269632	49	5083
2026-01-01 10:30:44.14	182.37	19.46	-39.6	-42.0	15.7	0.00e+00	0	55	0	250609664	50	4845
2026-01-01 10:30:48.18	182.66	19.97	-39.5	-41.8	15.9	0.00e+00	0	55	0	257949696	50	4742
2026-01-01 10:30:52.22	182.96	20.48	-39.5	-41.8	15.9	0.00e+00	0	56	0	265289728	50	4758
2026-01-01 10:30:56.26	183.27	21.01	-39.6	-42.0	15.8	0.00e+00	0	56	0	272629760	50	4835
2026-01-01 10:31:00.30	183.58	21.54	-39.9	-42.4	15.4	0.00e+00	0	56	0	281018368	50	5072
2026-01-01 10:31:04.34	183.91	22.08	-39.5	-41.8	16.0	0.00e+00	0	56	0	288358400	50	4721
2026-01-01 10:31:08.38	184.25	22.64	-38.9	-41.1	16.7	0.00e+00	0	56	0	295698432	49	4604
2026-01-01 10:31:12.41	184.60	23.21	-38.3	-40.2	17.6	0.00e+00	0	56	0	303038464	48	4407
2026-01-01 10:31:16.46	184.96	23.79	-38.0	-39.8	17.8	0.00e+00	0	56	0	311427072	47	4493
2026-01-01 10:31:20.50	185.34	24.38	-37.8	-39.6	18.0	0.00e+00	0	56	0	318767104	47	4379
2026-01-01 10:31:24.54	185.73	24.98	-37.9	-39.8	17.9	0.00e+00	0	56	0	326107136	47	4452
2026-01-01 10:31:28.58	186.14	25.60	-37.9	-39.8	17.9	0.00e+00	0	56	0	333447168	47	4456
2026-01-01 10:31:32.62	186.56	26.22	-38.0	-39.9	17.8	0.00e+00	0	56	0	340787200	47	4502
2026-01-01 10:31:36.66	187.00	26.87	-38.4	-40.4	17.3	0.00e+00	0	56	0	349175808	47	4812
2026-01-01 10:31:40.70	187.45	27.52	-38.3	-40.2	17.5	0.00e+00	0	56	0	356515840	47	4680
2026-01-01 10:31:44.74	187.93	28.19	-38.3	-40.1	17.6	0.00e+00	0	56	0	363855872	47	4651
2026-01-01 10:31:48.78	188.42	28.88	-38.5	-40.5	17.3	0.00e+00	0	56	0	371195904	47	4855
2026-01-01 10:31:52.82	188.94	29.58	-39.2	-41.4	16.6	0.00e+00	0	56	0	379584512	48	5059
2026-01-01 10:31:56.85	189.47	30.29	-39.5	-41.7	16.2	0.00e+00	0	56	0	386924544	50	4679
2026-01-01 10:32:00.89	190.04	31.02	-40.2	-42.8	15.2	0.00e+00	0	56	0	394264576	51	5008
2026-01-01 10:32:04.94	190.62	31.77	-41.6	-45.2	12.7	4.73e-05	0	57	0	401604608	53	5910
2026-01-01 10:32:08.98	191.24	32.53	-41.4	-44.8	13.2	9.00e-05	0	56	0	408944640	54	5295
2026-01-01 10:32:13.02	191.88	33.31	-41.0	-44.0	13.9	2.20e-06	0	56	0	417333248	53	5113
2026-01-01 10:32:17.05	192.56	34.10	-40.2	-42.8	15.1	7.00e-07	0	56	0	424673280	52	4707
2026-01-01 10:32:21.09	193.26	34.91	-40.2	-42.8	15.1	0.00e+00	0	57	0	432013312	52	4731
2026-01-01 10:32:25.14	194.01	35.74	-40.6	-43.4	14.4	0.00e+00	0	56	0	439353344	52	5090
2026-01-01 10:32:29.18	194.79	36.58	-40.5	-43.2	14.7	7.00e-07	0	57	0	447741952	52	4981
2026-01-01 10:32:33.21	195.61	37.43	-40.4	-43.0	14.9	0.00e+00	0	57	0	455081984	52	4836
2026-01-01 10:32:37.25	196.47	38.31	-40.7	-43.6	14.3	0.00e+00	0	57	0	462422016	52	5196
2026-01-01 10:32:41.29	197.39	39.20	-40.9	-43.9	14.1	7.00e-07	0	57	0	469762048	52	5356
2026-01-01 10:32:45.33	198.35	40.10	-40.8	-43.7	14.3	5.30e-06	0	57	0	478150656	53	4944
2026-01-01 10:32:49.37	199.37	41.02	-39.8	-42.1	15.9	0.00e+00	0	57	0	485490688	50	4922
2026-01-01 10:32:53.41	200.45	41.96	-40.2	-42.7	15.3	0.00e+00	0	57	0	492830720	51	4973
2026-01-01 10:32:57.44	201.59	42.90	-40.0	-42.4	15.6	0.00e+00	0	57	0	500170752	51	4804
2026-01-01 10:33:01.48	202.80	43.85	-40.2	-42.7	15.4	0.00e+00	0	57	0	507510784	51	4961
2026-01-01 10:33:05.52	204.08	44.82	-40.2	-42.7	15.4	0.00e+00	0	57	0	515899392	52	4674
2026-01-01 10:33:09.56	205.44	45.79	-40.6	-43.3	14.7	0.00e+00	0	57	0	523239424	52	5039
2026-01-01 10:33:13.60	206.89	46.77	-40.1	-42.5	15.6	0.00e+00	0	57	0	530579456	51	4863
2026-01-01 10:33:17.64	208.43	47.74	-40.0	-42.4	15.7	0.00e+00	0	57	0	537919488	51	4763
2026-01-01 10:33:21.68	210.07	48.72	-39.7	-42.0	16.2	0.00e+00	0	57	0	546308096	50	4839
2026-01-01 10:33:25.72	211.82	49.70	-41.0	-43.9	14.1	2.59e-05	0	57	0	553648128	54	4800
2026-01-01 10:33:29.75	213.67	50.66	-40.6	-43.4	14.4	7.00e-07	0	57	0	560988160	52	5068
2026-01-01 10:33:33.79	215.65	51.61	-40.8	-43.6	14.4	7.00e-07	0	57	0	568328192	52	5193
2026-01-01 10:33:37.83	217.76	52.54	-39.6	-41.9	16.3	0.00e+00	0	57	0	575668224	51	4499
2026-01-01 10:33:41.87	220.00	53.45	-40.3	-42.8	15.4	0.00e+00	0	57	0	584056832	51	5006
2026-01-01 10:33:45.91	222.38	54.32	-39.3	-41.5	16.6	0.00e+00	0	57	0	591396864	50	4557
2026-01-01 10:33:49.95	224.91	55.16	-39.3	-41.4	16.7	0.00e+00	0	57	0	598736896	49	4795
2026-01-01 10:33:53.99	227.59	55.96	-40.4	-43.1	15.1	0.00e+00	0	57	0	606076928	51	5178
2026-01-01 10:33:58.02	230.41	56.70	-38.7	-40.7	17.3	0.00e+00	0	57	0	613416960	49	4408
2026-01-01 10:34:02.06	233.38	57.38	-39.3	-41.4	16.7	0.00e+00	0	57	0	621805568	49	4784
2026-01-01 10:34:06.10	236.50	57.99	-39.1	-41.2	16.8	0.00e+00	0	57	0	629145600	49	4668
2026-01-01 10:34:10.14	239.76	58.53	-39.4	-41.6	16.5	0.00e+00	0	57	0	636485632	49	4876
2026-01-01 10:34:14.18	243.13	58.98	-39.4	-41.6	16.5	0.00e+00	0	57	0	643825664	50	4601
2026-01-01 10:34:18.22	246.62	59.34	-41.2	-44.4	13.7	4.50e-06	0	57	0	652214272	53	5354
2026-01-01 10:34:22.26	250.18	59.60	-41.5	-44.8	13.2	7.00e-07	0	57	0	659554304	53	5621
2026-01-01 10:34:26.30	253.80	59.77	-40.9	-43.9	14.2	0.00e+00	0	57	0	666894336	52	5350
2026-01-01 10:34:30.34	257.46	59.83	-39.7	-41.9	16.2	0.00e+00	0	57	0	674234368	51	4531
2026-01-01 10:34:34.38	261.12	59.79	-40.6	-43.4	14.7	0.00e+00	0	57	0	682622976	52	5090
2026-01-01 10:34:38.42	264.75	59.64	-39.9	-42.2	15.9	0.00e+00	0	57	0	689963008	50	4969
2026-01-01 10:34:42.46	268.32	59.39	-40.1	-42.6	15.7	0.00e+00	0	57	0	697303040	50	5171
2026-01-01 10:34:46.50	271.82	59.05	-40.3	-42.9	15.3	0.00e+00	0	57	0	704643072	51	5077
2026-01-01 10:34:50.54	275.21	58.62	-40.8	-43.6	14.5	0.00e+00	0	57	0	711983104	52	5203
2026-01-01 10:34:54.58	278.49	58.10	-40.3	-42.9	15.2	7.00e-07	0	57	0	720371712	52	4777
2026-01-01 10:34:58.62	281.63	57.50	-38.6	-40.5	17.6	0.00e+00	0	57	0	727711744	49	4309
2026-01-01 10:35:02.66	284.62	56.83	-38.0	-39.7	18.4	0.00e+00	0	57	0	735051776	47	4433
2026-01-01 10:35:06.70	287.47	56.10	-38.4	-40.3	17.6	0.00e+00	0	57	0	742391808	47	4752
2026-01-01 10:35:10.73	290.17	55.32	-37.7	-39.3	18.6	0.00e+00	0	57	0	750780416	46	4493
2026-01-01 10:35:14.77	292.72	54.49	-37.6	-39.3	18.6	0.00e+00	0	57	0	758120448	45	4713
2026-01-01 10:35:18.81	295.12	53.62	-37.7	-39.4	18.6	0.00e+00	0	57	0	765460480	45	4805
2026-01-01 10:35:22.85	297.38	52.72	-40.3	-43.0	15.2	0.00e+00	0	57	0	772800512	51	5103
2026-01-01 10:35:26.89	299.51	51.80	-39.8	-42.2	16.0	0.00e+00	0	57	0	780140544	50	4951
2026-01-01 10:35:30.93	301.51	50.85	-43.1	-48.1	10.1	2.45e-03	0	57	0	788529152	56	6947
2026-01-01 10:35:34.97	303.39	49.90	-40.2	-42.7	15.4	0.00e+00	0	57	0	795869184	52	4678
2026-01-01 10:35:39.00	305.15	48.93	-41.1	-44.1	14.1	0.00e+00	0	57	0	803209216	52	5479
2026-01-01 10:35:43.04	306.80	47.96	-40.8	-43.6	14.5	7.00e-07	0	57	0	810549248	53	4911
2026-01-01 10:35:47.08	308.36	46.98	-40.1	-42.5	15.7	0.00e+00	0	57	0	817889280	51	4843
2026-01-01 10:35:51.12	309.82	46.01	-39.2	-41.2	16.9	0.00e+00	0	57	0	826277888	50	4420
2026-01-01 10:35:55.16	311.20	45.04	-39.1	-41.1	16.9	0.00e+00	0	57	0	833617920	49	4648
2026-01-01 10:35:59.20	312.49	44.08	-39.7	-41.9	16.2	0.00e+00	0	57	0	840957952	50	4804
2026-01-01 10:36:03.24	313.71	43.13	-41.7	-45.3	12.8	5.72e-05	0	57	0	848297984	54	5598
2026-01-01 10:36:07.28	314.87	42.19	-40.9	-43.8	14.3	0.00e+00	0	57	0	856686592	52	5328
2026-01-01 10:36:11.32	315.95	41.26	-40.5	-43.1	14.9	2.20e-06	0	57	0	864026624	53	4629
2026-01-01 10:36:15.36	316.98	40.34	-40.6	-43.3	14.8	0.00e+00	0	57	0	871366656	52	5004
2026-01-01 10:36:19.40	317.96	39.44	-40.5	-43.2	14.8	7.00e-07	0	57	0	878706688	53	4694
2026-01-01 10:36:23.44	318.88	38.55	-39.6	-41.8	16.4	0.00e+00	0	57	0	887095296	50	4713
2026-01-01 10:36:27.48	319.75	37.67	-42.7	-47.1	11.0	2.36e-03	0	57	0	894435328	56	6183
2026-01-01 10:36:31.52	320.58	36.82	-40.5	-43.2	14.8	7.00e-07	0	57	0	901775360	53	4656
2026-01-01 10:36:35.55	321.37	35.98	-40.1	-42.5	15.7	0.00e+00	0	57	0	909115392	51	4852
2026-01-01 10:36:39.60	322.12	35.15	-40.3	-42.9	15.2	0.00e+00	0	57	0	916455424	51	5090
2026-01-01 10:36:43.64	322.83	34.34	-40.4	-42.9	15.3	0.00e+00	0	57	0	924844032	51	5051
2026-01-01 10:36:47.68	323.51	33.55	-40.3	-42.8	15.3	0.00e+00	0	57	0	932184064	51	5033
2026-01-01 10:36:51.72	324.16	32.77	-40.6	-43.4	14.6	0.00e+00	0	58	0	939524096	52	5093
2026-01-01 10:36:55.76	324.78	32.01	-40.6	-43.4	14.7	0.00e+00	0	57	0	946864128	52	5055
2026-01-01 10:36:59.79	325.37	31.27	-38.8	-40.7	17.4	0.00e+00	0	57	0	955252736	49	4414
2026-01-01 10:37:03.83	325.94	30.54	-40.3	-42.8	15.3	0.00e+00	0	57	0	962592768	51	5030
2026-01-01 10:37:07.87	326.49	29.83	-42.3	-46.6	11.4	4.90e-04	0	58	0	969932800	55	6143
2026-01-01 10:37:11.91	327.01	29.13	-40.2	-42.8	15.2	0.00e+00	0	57	0	977272832	52	4742
2026-01-01 10:37:15.94	327.50	28.44	-39.2	-41.4	16.8	0.00e+00	0	57	0	984612864	50	4499
2026-01-01 10:37:19.98	327.98	27.77	-39.9	-42.3	15.8	0.00e+00	0	57	0	993001472	50	4991
2026-01-01 10:37:24.02	328.44	27.12	-40.5	-43.3	14.8	0.00e+00	0	57	0	1000341504	52	4986
2026-01-01 10:37:28.06	328.89	26.48	-40.1	-42.5	15.5	0.00e+00	0	57	0	1007681536	51	4870
2026-01-01 10:37:32.11	329.31	25.85	-40.0	-42.4	15.7	0.00e+00	0	57	0	1015021568	50	5045
2026-01-01 10:37:36.14	329.72	25.23	-40.7	-43.6	14.4	7.00e-07	0	57	0	1023410176	52	5170
2026-01-01 10:37:40.18	330.12	24.63	-40.1	-42.5	15.4	0.00e+00	0	57	0	1030750208	52	4590
2026-01-01 10:37:44.22	330.50	24.04	-40.1	-42.6	15.5	0.00e+00	0	57	0	1038090240	51	4871
2026-01-01 10:37:48.26	330.87	23.46	-39.8	-42.2	15.7	0.00e+00	0	57	0	1045430272	51	4665
2026-01-01 10:37:52.30	331.22	22.89	-38.6	-40.6	17.3	0.00e+00	0	57	0	1052770304	49	4344
2026-01-01 10:37:56.33	331.57	22.34	-38.2	-40.0	17.8	0.00e+00	0	57	0	1061158912	47	4595
2026-01-01 10:38:00.37	331.90	21.80	-38.9	-40.9	17.1	0.00e+00	0	58	0	1068498944	48	4777
2026-01-01 10:38:04.41	332.22	21.26	-39.5	-41.8	16.1	0.00e+00	0	57	0	1075838976	49	5038
2026-01-01 10:38:08.45	332.53	20.74	-39.4	-41.6	16.3	0.00e+00	0	57	0	1083179008	50	4638
2026-01-01 10:38:12.49	332.83	20.22	-38.7	-40.8	17.1	0.00e+00	0	58	0	1091567616	49	4454
2026-01-01 10:38:16.53	333.13	19.72	-38.2	-40.1	17.8	0.00e+00	0	57	0	1098907648	48	4345
2026-01-01 10:38:20.57	333.41	19.23	-38.0	-39.9	17.8	0.00e+00	0	57	0	1106247680	47	4519
2026-01-01 10:38:24.61	333.68	18.74	-38.5	-40.5	17.2	0.00e+00	0	57	0	1113587712	47	4862
2026-01-01 10:38:28.65	333.95	18.26	-39.3	-41.6	16.2	0.00e+00	0	57	0	1120927744	49	4872
2026-01-01 10:38:32.69	334.21	17.80	-39.9	-42.4	15.4	0.00e+00	0	57	0	1129316352	50	5058
2026-01-01 10:38:36.73	334.46	17.34	-40.0	-42.7	15.1	0.00e+00	0	57	0	1136656384	50	5224
2026-01-01 10:38:40.77	334.71	16.89	-39.8	-42.2	15.5	0.00e+00	0	57	0	1143996416	50	4976
2026-01-01 10:38:44.81	334.95	16.44	-39.8	-42.3	15.5	0.00e+00	0	58	0	1151336448	50	4997
2026-01-01 10:38:48.85	335.18	16.01	-39.3	-41.6	16.1	0.00e+00	0	58	0	1159725056	50	4622
2026-01-01 10:38:52.89	335.40	15.58	-39.1	-41.3	16.4	0.00e+00	0	58	0	1167065088	50	4477
2026-01-01 10:38:56.93	335.62	15.15	-38.9	-41.1	16.5	0.00e+00	0	57	0	1174405120	49	4634
2026-01-01 10:39:00.97	335.84	14.74	-38.9	-41.0	16.6	0.00e+00	0	57	0	1181745152	49	4576
2026-01-01 10:39:05.01	336.05	14.33	-38.8	-40.9	16.7	0.00e+00	0	58	0	1189085184	49	4507
2026-01-01 10:39:09.05	336.25	13.93	-38.9	-41.0	16.6	0.00e+00	0	58	0	1197473792	49	4566
2026-01-01 10:39:13.09	336.45	13.53	-39.1	-41.4	16.1	0.00e+00	0	58	0	1204813824	49	4771
2026-01-01 10:39:17.13	336.64	13.15	-39.3	-41.7	15.8	0.00e+00	0	57	0	1212153856	49	4964
2026-01-01 10:39:21.17	336.83	12.76	-39.5	-42.0	15.4	0.00e+00	0	58	0	1219493888	49	5149
2026-01-01 10:39:25.21	337.02	12.38	-39.6	-42.1	15.3	0.00e+00	0	58	0	1227882496	49	5202
2026-01-01 10:39:29.25	337.20	12.01	-39.3	-41.8	15.6	0.00e+00	0	57	0	1235222528	49	5007
2026-01-01 10:39:33.29	337.38	11.65	-39.2	-41.7	15.6	0.00e+00	0	58	0	1242562560	49	4937
2026-01-01 10:39:37.33	337.55	11.28	-39.4	-41.9	15.3	0.00e+00	0	57	0	1249902592	49	5082
2026-01-01 10:39:41.37	337.72	10.93	-39.3	-41.8	15.4	0.00e+00	0	58	0	1257242624	49	5006
2026-01-01 10:39:45.41	337.89	10.58	-39.3	-41.9	15.2	0.00e+00	0	58	0	1265631232	49	5081
2026-01-01 10:39:49.45	338.05	10.23	-39.1	-41.6	15.4	0.00e+00	0	58	0	1272971264	49	4893
2026-01-01 10:39:53.49	338.21	9.89	-38.6	-41.0	15.9	0.00e+00	0	58	0	1280311296	49	4568
2026-01-01 10:39:57.53	338.36	9.55	-38.6	-41.0	15.8	0.00e+00	0	57	0	1287651328	49	4578
2026-01-01 10:40:01.57	338.51	9.22	-38.8	-41.4	15.2	0.00e+00	0	57	0	1296039936	49	4782
2026-01-01 10:40:05.61	338.66	8.89	-39.1	-42.1	14.2	1.50e-06	0	58	0	1303379968	49	5204
2026-01-01 10:40:09.65	338.81	8.56	-39.7	-43.2	12.9	3.20e-05	0	57	0	1310720000	49	5888
2026-01-01 10:40:13.69	338.95	8.24	-40.2	-44.6	11.1	9.56e-04	0	58	0	1318060032	50	6553
2026-01-01 10:40:17.73	339.10	7.93	-44.5	-58.8	3.8	1.49e+00	0	58	104	1324351488	59	19894
2026-01-01 10:40:21.77	339.23	7.61	-45.1	-59.6	3.8	1.49e+00	0	58	104	1324351488	60	20757
2026-01-01 10:40:25.82	339.37	7.30	-45.2	-59.8	3.8	1.49e+00	0	57	104	1324351488	60	21059
2026-01-01 10:40:29.86	339.50	7.00	-45.1	-59.7	3.8	1.49e+00	0	58	104	1324351488	60	20987
2026-01-01 10:40:33.90	339.63	6.69	-45.1	-59.6	3.8	1.49e+00	0	57	104	1324351488	60	20746
2026-01-01 10:40:37.94	339.76	6.40	-45.1	-59.6	3.8	1.49e+00	0	57	104	1324351488	60	20729
2026-01-01 10:40:41.99	339.89	6.10	-45.1	-59.6	3.8	1.49e+00	0	58	104	1324351488	60	20736
2026-01-01 10:40:46.03	340.01	5.81	-45.0	-59.6	3.8	1.49e+00	0	58	104	1324351488	60	20695
2026-01-01 10:40:50.08	340.14	5.52	-45.0	-59.6	3.8	1.49e+00	0	58	104	1324351488	60	20729
2026-01-01 10:40:54.12	340.26	5.23	-45.0	-59.6	3.8	1.49e+00	0	57	104	1324351488	60	20730
2026-01-01 10:40:58.16	340.37	4.95	-45.0	-59.6	3.8	1.49e+00	0	58	104	1324351488	60	20693
2026-01-01 10:41:02.20	340.49	4.67	-45.0	-59.6	3.8	1.49e+00	0	58	104	1324351488	60	20672
2026-01-01 10:41:06.24	340.61	4.39	-45.0	-59.6	3.8	1.49e+00	0	58	104	1324351488	60	20697
2026-01-01 10:41:10.29	340.72	4.12	-45.0	-59.6	3.8	1.49e+00	0	58	104	1324351488	60	20646
2026-01-01 10:41:14.33	340.83	3.85	-45.0	-59.6	3.8	1.49e+00	0	58	104	1324351488	60	20666
2026-01-01 10:41:18.38	340.94	3.58	-45.0	-59.6	3.8	1.49e+00	0	58	104	1324351488	60	20675
2026-01-01 10:41:22.42	341.05	3.31	-45.0	-59.6	3.8	1.49e+00	0	58	104	1324351488	60	20625
2026-01-01 10:41:26.47	341.15	3.04	-45.0	-59.6	3.8	1.49e+00	0	58	104	1324351488	60	20650
2026-01-01 10:41:30.51	341.26	2.78	-45.0	-59.6	3.8	1.49e+00	0	58	104	1324351488	60	20597
2026-01-01 10:41:34.55	341.36	2.52	-45.0	-59.6	3.8	1.49e+00	0	58	104	1324351488	60	20572
2026-01-01 10:41:38.60	341.46	2.27	-45.0	-59.6	3.8	1.49e+00	0	57	104	1324351488	60	20605
2026-01-01 10:41:42.64	341.56	2.01	-45.0	-59.6	3.8	1.49e+00	0	58	104	1324351488	60	20588

#Closed at: 2026-01-01 10:41:45
#Recorded file [1324 MB]: D:/lorett/data/31039_260101_132721.dat