passes_logs/2026/01/01/R2.0S_Moscow/R2.0S_Moscow__20260101_220819_NOAA_21_JPSS-2_rec.log

#Pass ID: 20260101_220819_NOAA 21 (JPSS-2)
#Satellite: NOAA 21 (JPSS-2)
#Configuration: NOAA-21
#almurnet v.1.7.20251203
#Start time: 2026-01-01 22:08:20

#Version: 2.2.20231116
#Station: R2.0S_Moscow
#Location: 37.707566 lon 55.798166 lat
#TLE: 1 54234U 22150A   26001.26806856  .00000185  00000+0  10843-3 0  9990
#TLE: 2 54234  98.7484 302.3349 0001277 353.3887   6.7272 14.19530660162860

#Time	Az	El	Level	Level2	SNR	BER	BlckErr	Temp	State	Recorded	gain1	gain2
2026-01-01 22:08:20.99	25.54	2.09	-41.3	-54.1	3.8	1.49e+00	0	47	0	0	54	15412
2026-01-01 22:08:25.04	25.83	2.31	-41.3	-54.0	3.8	1.49e+00	0	48	104	0	54	15384
2026-01-01 22:08:29.08	26.13	2.53	-41.3	-54.1	3.8	1.49e+00	0	48	104	0	54	15415
2026-01-01 22:08:33.13	26.44	2.75	-41.3	-54.1	3.8	1.49e+00	0	49	104	0	54	15423
2026-01-01 22:08:37.17	26.74	2.98	-41.3	-54.0	3.8	1.49e+00	0	49	104	0	54	15397
2026-01-01 22:08:41.21	27.05	3.20	-41.3	-54.1	3.8	1.49e+00	0	49	104	0	54	15418
2026-01-01 22:08:45.26	27.37	3.42	-41.3	-54.1	3.8	1.49e+00	0	49	104	0	54	15404
2026-01-01 22:08:49.30	27.69	3.65	-41.3	-54.1	3.8	1.49e+00	0	50	104	0	54	15434
2026-01-01 22:08:53.35	28.02	3.88	-41.3	-54.0	3.8	1.49e+00	0	50	104	0	54	15387
2026-01-01 22:08:57.39	28.35	4.11	-41.3	-54.0	3.8	1.49e+00	0	50	104	0	54	15398
2026-01-01 22:09:01.42	28.69	4.34	-41.3	-54.0	3.8	1.49e+00	0	50	104	0	54	15399
2026-01-01 22:09:05.46	29.03	4.57	-41.3	-54.1	3.8	1.49e+00	0	50	104	0	54	15424
2026-01-01 22:09:09.51	29.37	4.80	-41.3	-54.1	3.8	1.49e+00	0	51	104	0	54	15402
2026-01-01 22:09:13.55	29.72	5.03	-41.3	-54.0	3.8	1.49e+00	0	51	104	0	54	15391
2026-01-01 22:09:17.60	30.08	5.27	-41.3	-54.0	3.8	1.49e+00	0	51	104	0	54	15395
2026-01-01 22:09:21.64	30.44	5.51	-41.3	-54.1	3.8	1.49e+00	0	51	104	0	54	15402
2026-01-01 22:09:25.68	30.81	5.74	-41.3	-54.0	3.8	1.49e+00	0	52	104	0	54	15399
2026-01-01 22:09:29.73	31.18	5.98	-41.3	-54.0	3.8	1.49e+00	0	52	104	0	54	15364
2026-01-01 22:09:33.77	31.56	6.22	-41.3	-54.0	3.8	1.49e+00	0	52	104	0	54	15375
2026-01-01 22:09:37.81	31.95	6.46	-41.3	-54.0	3.8	1.49e+00	0	52	104	0	54	15357
2026-01-01 22:09:41.86	32.34	6.70	-41.3	-54.0	3.8	1.49e+00	0	52	104	0	54	15331
2026-01-01 22:09:45.90	32.74	6.95	-41.3	-54.0	3.8	1.49e+00	0	53	104	0	54	15328
2026-01-01 22:09:49.95	33.14	7.19	-41.3	-54.0	3.8	1.49e+00	0	53	104	0	54	15288
2026-01-01 22:09:53.99	33.55	7.44	-40.7	-48.7	4.9	1.21e+00	0	53	104	0	53	8778
2026-01-01 22:09:58.03	33.97	7.68	-38.7	-42.5	10.3	4.94e-03	0	53	0	12582912	49	5438
2026-01-01 22:10:02.08	34.39	7.93	-37.9	-41.0	11.8	9.13e-04	0	53	0	25165824	47	5144
2026-01-01 22:10:06.12	34.82	8.18	-38.3	-41.2	12.2	1.37e-04	0	53	0	37748736	47	5242
2026-01-01 22:10:10.16	35.26	8.43	-38.3	-40.5	14.1	7.00e-07	0	53	0	46137344	48	4589
2026-01-01 22:10:14.20	35.71	8.68	-38.3	-40.5	14.2	7.00e-07	0	53	0	58720256	48	4568
2026-01-01 22:10:18.24	36.16	8.93	-37.8	-39.8	14.8	7.00e-07	0	54	0	71303168	47	4478
2026-01-01 22:10:22.27	36.62	9.19	-37.9	-40.0	14.8	0.00e+00	0	53	0	83886080	47	4554
2026-01-01 22:10:26.32	37.09	9.44	-37.8	-39.8	14.9	0.00e+00	0	54	0	96468992	47	4466
2026-01-01 22:10:30.36	37.56	9.70	-37.6	-39.5	15.4	0.00e+00	0	54	0	109051904	47	4305
2026-01-01 22:10:34.40	38.05	9.95	-37.4	-39.2	15.7	0.00e+00	0	54	0	121634816	46	4397
2026-01-01 22:10:38.43	38.54	10.21	-37.2	-38.9	16.0	0.00e+00	0	54	0	134217728	46	4263
2026-01-01 22:10:42.47	39.04	10.47	-36.9	-38.5	16.4	0.00e+00	0	54	0	146800640	45	4307
2026-01-01 22:10:46.51	39.55	10.73	-36.7	-38.3	16.6	0.00e+00	0	54	0	159383552	45	4219
2026-01-01 22:10:50.56	40.06	10.99	-36.8	-38.4	16.5	0.00e+00	0	55	0	171966464	45	4264
2026-01-01 22:10:54.60	40.59	11.25	-36.7	-38.3	16.6	0.00e+00	0	54	0	185597952	45	4220
2026-01-01 22:10:58.64	41.13	11.51	-36.7	-38.3	16.6	0.00e+00	0	54	0	197132288	45	4207
2026-01-01 22:11:02.67	41.67	11.77	-36.8	-38.4	16.6	0.00e+00	0	54	0	210763776	45	4264
2026-01-01 22:11:06.71	42.22	12.03	-37.0	-38.6	16.4	0.00e+00	0	55	0	223346688	45	4371
2026-01-01 22:11:10.75	42.79	12.29	-36.9	-38.5	16.5	0.00e+00	0	55	0	235929600	45	4308
2026-01-01 22:11:14.79	43.36	12.56	-36.7	-38.2	16.9	0.00e+00	0	55	0	248512512	45	4171
2026-01-01 22:11:18.83	43.95	12.82	-36.5	-38.1	17.0	0.00e+00	0	55	0	261095424	45	4104
2026-01-01 22:11:22.87	44.54	13.08	-36.6	-38.1	16.9	0.00e+00	0	55	0	273678336	45	4124
2026-01-01 22:11:26.91	45.15	13.34	-36.5	-38.0	17.0	0.00e+00	0	55	0	286261248	45	4096
2026-01-01 22:11:30.94	45.76	13.61	-36.5	-38.0	17.2	0.00e+00	0	55	0	298844160	44	4294
2026-01-01 22:11:34.98	46.38	13.87	-36.4	-38.0	17.2	0.00e+00	0	55	0	311427072	44	4294
2026-01-01 22:11:39.02	47.02	14.13	-36.4	-37.9	17.2	0.00e+00	0	55	0	324009984	44	4279
2026-01-01 22:11:43.06	47.67	14.39	-36.3	-37.8	17.3	0.00e+00	0	55	0	336592896	44	4221
2026-01-01 22:11:47.10	48.33	14.66	-36.5	-38.0	17.1	0.00e+00	0	55	0	349175808	44	4318
2026-01-01 22:11:51.13	49.00	14.92	-36.5	-38.0	17.2	0.00e+00	0	55	0	361758720	44	4302
2026-01-01 22:11:55.17	49.68	15.18	-36.4	-37.9	17.2	0.00e+00	0	55	0	374341632	44	4284
2026-01-01 22:11:59.21	50.37	15.43	-36.5	-38.0	17.1	0.00e+00	0	55	0	386924544	44	4339
2026-01-01 22:12:03.25	51.07	15.69	-36.4	-37.9	17.3	0.00e+00	0	56	0	399507456	44	4265
2026-01-01 22:12:07.29	51.79	15.95	-36.5	-38.0	17.2	0.00e+00	0	56	0	412090368	44	4310
2026-01-01 22:12:11.33	52.52	16.20	-36.7	-38.2	17.0	0.00e+00	0	56	0	424673280	44	4413
2026-01-01 22:12:15.37	53.26	16.46	-36.5	-38.1	17.2	0.00e+00	0	56	0	437256192	44	4346
2026-01-01 22:12:19.41	54.01	16.71	-36.3	-37.7	17.5	0.00e+00	0	56	0	449839104	44	4191
2026-01-01 22:12:23.45	54.78	16.96	-36.2	-37.7	17.5	0.00e+00	0	56	0	462422016	44	4168
2026-01-01 22:12:27.50	55.56	17.20	-36.5	-38.0	17.2	0.00e+00	0	56	0	475004928	44	4331
2026-01-01 22:12:31.54	56.35	17.45	-36.4	-37.9	17.4	0.00e+00	0	56	0	487587840	44	4247
2026-01-01 22:12:35.57	57.15	17.69	-36.2	-37.7	17.6	0.00e+00	0	56	0	500170752	44	4157
2026-01-01 22:12:39.62	57.97	17.93	-36.2	-37.7	17.5	0.00e+00	0	56	0	512753664	44	4160
2026-01-01 22:12:43.66	58.80	18.16	-36.2	-37.7	17.6	0.00e+00	0	56	0	526385152	44	4150
2026-01-01 22:12:47.70	59.64	18.39	-36.2	-37.6	17.7	0.00e+00	0	56	0	538968064	44	4120
2026-01-01 22:12:51.74	60.49	18.62	-36.1	-37.5	17.8	0.00e+00	0	56	0	551550976	44	4057
2026-01-01 22:12:55.78	61.36	18.84	-36.2	-37.6	17.7	0.00e+00	0	56	0	564133888	44	4124
2026-01-01 22:12:59.82	62.24	19.06	-35.7	-37.1	18.0	0.00e+00	0	56	0	576716800	43	4134
2026-01-01 22:13:03.86	63.13	19.27	-35.8	-37.1	17.9	0.00e+00	0	56	0	589299712	43	4138
2026-01-01 22:13:07.90	64.03	19.48	-35.8	-37.2	17.9	0.00e+00	0	56	0	601882624	43	4191
2026-01-01 22:13:11.94	64.94	19.69	-35.6	-37.0	18.1	0.00e+00	0	56	0	614465536	43	4054
2026-01-01 22:13:15.98	65.87	19.88	-35.5	-36.9	18.1	0.00e+00	0	56	0	627048448	43	4022
2026-01-01 22:13:20.02	66.81	20.07	-35.4	-36.7	18.3	0.00e+00	0	56	0	639631360	42	4180
2026-01-01 22:13:24.06	67.76	20.26	-35.6	-37.0	18.0	0.00e+00	0	56	0	652214272	42	4304
2026-01-01 22:13:28.10	68.72	20.44	-35.5	-36.9	18.0	0.00e+00	0	56	0	664797184	42	4252
2026-01-01 22:13:32.14	69.69	20.61	-35.5	-36.9	17.8	0.00e+00	0	56	0	677380096	42	4285
2026-01-01 22:13:36.17	70.67	20.78	-35.8	-37.3	17.2	0.00e+00	0	56	0	689963008	42	4485
2026-01-01 22:13:40.21	71.66	20.93	-35.8	-37.3	17.1	0.00e+00	0	56	0	702545920	42	4472
2026-01-01 22:13:44.25	72.67	21.08	-35.9	-37.4	17.0	0.00e+00	0	56	0	715128832	42	4526
2026-01-01 22:13:48.30	73.68	21.23	-35.9	-37.4	17.1	0.00e+00	0	56	0	727711744	42	4525
2026-01-01 22:13:52.34	74.70	21.36	-36.0	-37.6	17.0	0.00e+00	0	56	0	740294656	42	4608
2026-01-01 22:13:56.37	75.73	21.48	-35.8	-37.2	17.4	0.00e+00	0	57	0	752877568	42	4434
2026-01-01 22:14:00.41	76.76	21.60	-35.9	-37.4	17.2	0.00e+00	0	56	0	765460480	42	4523
2026-01-01 22:14:04.45	77.81	21.71	-35.6	-37.1	17.7	0.00e+00	0	57	0	778043392	42	4342
2026-01-01 22:14:08.49	78.86	21.81	-35.4	-36.8	17.9	0.00e+00	0	57	0	790626304	42	4227
2026-01-01 22:14:12.53	79.92	21.90	-35.4	-36.8	18.0	0.00e+00	0	56	0	803209216	42	4224
2026-01-01 22:14:16.57	80.98	21.97	-35.7	-37.1	17.8	0.00e+00	0	56	0	815792128	42	4348
2026-01-01 22:14:20.61	82.05	22.04	-35.3	-36.6	18.2	0.00e+00	0	56	0	828375040	42	4140
2026-01-01 22:14:24.65	83.13	22.10	-35.3	-36.7	18.2	0.00e+00	0	57	0	842006528	42	4158
2026-01-01 22:14:28.69	84.20	22.15	-35.5	-36.9	17.9	0.00e+00	0	57	0	853540864	42	4249
2026-01-01 22:14:32.73	85.28	22.19	-35.5	-37.0	17.6	0.00e+00	0	57	0	867172352	42	4295
2026-01-01 22:14:36.77	86.37	22.22	-35.6	-37.0	17.5	0.00e+00	0	56	0	879755264	42	4333
2026-01-01 22:14:40.81	87.45	22.24	-35.8	-37.2	17.4	0.00e+00	0	57	0	892338176	42	4433
2026-01-01 22:14:44.84	88.53	22.25	-35.7	-37.1	17.6	0.00e+00	0	57	0	904921088	42	4371
2026-01-01 22:14:48.88	89.62	22.25	-35.5	-36.9	17.9	0.00e+00	0	56	0	917504000	42	4250
2026-01-01 22:14:52.92	90.70	22.23	-35.4	-36.8	18.2	0.00e+00	0	57	0	930086912	42	4199
2026-01-01 22:14:56.96	91.79	22.21	-35.1	-36.4	18.6	0.00e+00	0	57	0	942669824	42	4016
2026-01-01 22:15:01.00	92.87	22.18	-35.1	-36.4	18.7	0.00e+00	0	57	0	955252736	42	4014
2026-01-01 22:15:05.04	93.95	22.14	-35.3	-36.6	18.5	0.00e+00	0	57	0	967835648	42	4124
2026-01-01 22:15:09.08	95.03	22.08	-35.0	-36.2	18.8	0.00e+00	0	57	0	980418560	41	4180
2026-01-01 22:15:13.12	96.10	22.02	-35.3	-36.6	18.4	0.00e+00	0	57	0	993001472	41	4388
2026-01-01 22:15:17.16	97.17	21.94	-35.2	-36.5	18.6	0.00e+00	0	57	0	1005584384	41	4297
2026-01-01 22:15:21.20	98.23	21.86	-35.3	-36.6	18.5	0.00e+00	0	57	0	1018167296	41	4352
2026-01-01 22:15:25.24	99.29	21.77	-35.3	-36.6	18.6	0.00e+00	0	57	0	1030750208	41	4361
2026-01-01 22:15:29.28	100.34	21.67	-35.2	-36.5	18.6	0.00e+00	0	57	0	1043333120	41	4335
2026-01-01 22:15:33.32	101.39	21.55	-35.3	-36.6	18.5	0.00e+00	0	57	0	1055916032	41	4376
2026-01-01 22:15:37.36	102.42	21.43	-35.1	-36.3	18.7	0.00e+00	0	57	0	1068498944	41	4241
2026-01-01 22:15:41.40	103.45	21.30	-35.2	-36.5	18.6	0.00e+00	0	57	0	1081081856	41	4322
2026-01-01 22:15:45.44	104.47	21.17	-35.3	-36.6	18.5	0.00e+00	0	57	0	1093664768	41	4361
2026-01-01 22:15:49.48	105.48	21.02	-35.2	-36.5	18.6	0.00e+00	0	57	0	1106247680	41	4323
2026-01-01 22:15:53.52	106.48	20.87	-35.2	-36.5	18.6	0.00e+00	0	57	0	1118830592	41	4325
2026-01-01 22:15:57.55	107.47	20.71	-35.4	-36.8	18.4	0.00e+00	0	57	0	1131413504	41	4443
2026-01-01 22:16:01.59	108.46	20.54	-35.4	-36.7	18.4	0.00e+00	0	57	0	1145044992	41	4414
2026-01-01 22:16:05.63	109.43	20.36	-35.3	-36.6	18.4	0.00e+00	0	57	0	1156579328	41	4389
2026-01-01 22:16:09.66	110.38	20.18	-35.3	-36.6	18.4	0.00e+00	0	57	0	1169162240	41	4387
2026-01-01 22:16:13.71	111.33	19.99	-35.5	-36.8	18.3	0.00e+00	0	57	0	1182793728	41	4461
2026-01-01 22:16:17.75	112.27	19.79	-35.6	-37.0	18.1	0.00e+00	0	57	0	1195376640	41	4569
2026-01-01 22:16:21.79	113.20	19.59	-35.4	-36.8	18.3	0.00e+00	0	57	0	1207959552	41	4462
2026-01-01 22:16:25.82	114.11	19.39	-35.4	-36.7	18.4	0.00e+00	0	57	0	1220542464	41	4412
2026-01-01 22:16:29.86	115.01	19.17	-35.5	-36.8	18.3	0.00e+00	0	57	0	1233125376	41	4487
2026-01-01 22:16:33.90	115.90	18.96	-35.8	-37.2	17.9	0.00e+00	0	57	0	1245708288	42	4415
2026-01-01 22:16:37.94	116.78	18.74	-35.7	-37.1	18.0	0.00e+00	0	57	0	1258291200	42	4347
2026-01-01 22:16:41.98	117.64	18.51	-35.8	-37.1	18.0	0.00e+00	0	57	0	1270874112	42	4377
2026-01-01 22:16:46.02	118.49	18.28	-35.9	-37.3	17.8	0.00e+00	0	57	0	1283457024	42	4455
2026-01-01 22:16:50.06	119.33	18.04	-36.0	-37.4	17.7	0.00e+00	0	57	0	1296039936	42	4522
2026-01-01 22:16:54.10	120.16	17.81	-35.7	-37.1	17.9	0.00e+00	0	57	0	1308622848	42	4342
2026-01-01 22:16:58.15	120.97	17.56	-35.7	-37.2	17.9	8.30e-06	0	57	0	1321205760	42	4392
2026-01-01 22:17:02.19	121.77	17.32	-36.0	-37.4	17.6	0.00e+00	0	57	0	1333788672	42	4513
2026-01-01 22:17:06.23	122.56	17.07	-35.7	-37.1	17.9	0.00e+00	0	57	0	1346371584	42	4380
2026-01-01 22:17:10.27	123.34	16.82	-35.9	-37.3	17.7	0.00e+00	0	57	0	1358954496	42	4476
2026-01-01 22:17:14.31	124.10	16.57	-36.0	-37.4	17.6	0.00e+00	0	57	0	1371537408	42	4539
2026-01-01 22:17:18.35	124.85	16.32	-35.9	-37.3	17.7	0.00e+00	0	57	0	1384120320	42	4466
2026-01-01 22:17:22.39	125.59	16.06	-36.0	-37.4	17.6	0.00e+00	0	57	0	1396703232	42	4522
2026-01-01 22:17:26.42	126.32	15.80	-35.9	-37.4	17.6	4.50e-06	0	57	0	1409286144	42	4512
2026-01-01 22:17:30.46	127.03	15.54	-36.0	-37.5	17.5	5.64e-04	0	57	0	1421869056	42	4550
2026-01-01 22:17:34.50	127.74	15.28	-35.8	-37.3	16.5	9.94e-02	0	57	0	1434451968	42	4442
2026-01-01 22:17:38.54	128.43	15.02	-35.8	-37.3	16.7	3.88e-03	0	57	0	1447034880	42	4472
2026-01-01 22:17:42.58	129.11	14.76	-34.4	-37.4	15.3	1.99e-02	2	57	0	1459617792	41	4788
2026-01-01 22:17:46.62	129.77	14.50	-31.9	-38.0	4.6	4.53e-02	0	57	104	1471152128	33	8138
2026-01-01 22:17:50.66	130.43	14.23	-34.8	-37.8	13.3	1.78e-01	2	57	0	1479540736	41	5006
2026-01-01 22:17:54.70	131.08	13.97	-34.4	-38.0	11.9	1.62e-01	11	57	0	1484783616	39	5734
2026-01-01 22:17:58.74	131.71	13.70	-34.8	-38.2	11.7	2.53e-01	5	57	0	1492123648	39	5865
2026-01-01 22:18:02.78	132.33	13.44	-33.7	-38.0	11.7	3.61e-01	7	57	104	1496317952	38	6082
2026-01-01 22:18:06.82	132.95	13.17	-33.9	-37.9	12.2	1.18e-01	14	57	0	1505755136	38	6030
2026-01-01 22:18:10.86	133.55	12.90	-35.2	-38.1	13.3	1.55e-01	7	57	0	1513095168	39	5817
2026-01-01 22:18:14.90	134.14	12.64	-34.8	-38.4	12.9	6.13e-02	5	57	0	1523580928	42	5046
2026-01-01 22:18:18.94	134.72	12.37	-35.3	-38.6	14.4	1.80e-02	5	57	0	1535115264	41	5466
2026-01-01 22:18:22.98	135.29	12.11	-36.5	-38.7	15.5	1.09e-02	0	57	0	1544552448	44	4658
2026-01-01 22:18:27.02	135.85	11.84	-36.5	-38.4	15.2	2.42e-02	0	57	0	1556086784	43	4783
2026-01-01 22:18:31.05	136.40	11.58	-36.5	-39.0	14.7	3.54e-03	0	58	0	1568669696	45	4594
2026-01-01 22:18:35.10	136.95	11.32	-37.4	-39.2	12.8	1.28e-03	0	57	0	1581252608	44	4971
2026-01-01 22:18:39.13	137.48	11.05	-37.4	-39.4	14.9	3.94e-04	0	57	0	1593835520	45	4790
2026-01-01 22:18:43.17	138.00	10.79	-36.4	-38.8	15.0	1.98e-02	0	57	0	1606418432	44	4731
2026-01-01 22:18:47.21	138.52	10.53	-39.6	-43.1	10.3	4.48e-03	0	57	0	1619001344	49	5855
2026-01-01 22:18:51.24	139.02	10.27	-39.3	-42.3	11.5	1.82e-03	0	57	0	1631584256	50	5014
2026-01-01 22:18:55.28	139.52	10.01	-36.8	-38.6	15.4	0.00e+00	0	57	0	1644167168	45	4387
2026-01-01 22:18:59.32	140.01	9.75	-37.1	-38.9	15.6	0.00e+00	0	57	0	1657798656	46	4246
2026-01-01 22:19:03.35	140.48	9.49	-37.3	-39.1	15.7	0.00e+00	0	57	0	1670381568	46	4370
2026-01-01 22:19:07.39	140.96	9.23	-37.3	-39.1	15.7	0.00e+00	0	57	0	1682964480	46	4364
2026-01-01 22:19:11.43	141.42	8.98	-37.2	-38.9	15.9	0.00e+00	0	57	0	1695547392	46	4273
2026-01-01 22:19:15.47	141.88	8.72	-37.2	-39.0	15.8	0.00e+00	0	57	0	1708130304	46	4300
2026-01-01 22:19:19.51	142.33	8.47	-37.4	-39.1	15.6	7.00e-07	0	57	0	1720713216	46	4382
2026-01-01 22:19:23.55	142.77	8.21	-37.6	-39.5	15.2	0.00e+00	0	57	0	1733296128	46	4579
2026-01-01 22:19:27.59	143.20	7.96	-44.2	-56.1	3.8	1.49e+00	0	57	104	1742733312	58	15408
2026-01-01 22:19:31.63	143.63	7.71	-45.1	-57.5	3.8	1.49e+00	0	58	104	1742733312	60	16138
2026-01-01 22:19:35.67	144.05	7.46	-45.3	-57.6	3.8	1.49e+00	0	57	104	1742733312	61	15478
2026-01-01 22:19:39.71	144.46	7.21	-45.0	-57.4	3.8	1.49e+00	0	58	104	1742733312	61	15122
2026-01-01 22:19:43.75	144.87	6.97	-44.9	-57.3	3.8	1.49e+00	0	58	104	1742733312	61	14945
2026-01-01 22:19:47.80	145.27	6.72	-44.9	-57.3	3.8	1.49e+00	0	58	104	1742733312	61	14934
2026-01-01 22:19:51.84	145.66	6.47	-44.9	-57.3	3.8	1.49e+00	0	58	104	1742733312	61	14880
2026-01-01 22:19:55.89	146.05	6.23	-44.9	-57.2	3.8	1.49e+00	0	58	104	1742733312	60	15754
2026-01-01 22:19:59.93	146.43	5.99	-44.9	-57.3	3.8	1.49e+00	0	58	104	1742733312	60	15790
2026-01-01 22:20:03.98	146.81	5.74	-44.9	-57.3	3.8	1.49e+00	0	57	104	1742733312	60	15765
2026-01-01 22:20:08.02	147.18	5.50	-44.9	-57.2	3.8	1.49e+00	0	57	104	1742733312	60	15691
2026-01-01 22:20:12.06	147.54	5.26	-44.9	-57.2	3.8	1.49e+00	0	58	104	1742733312	60	15760
2026-01-01 22:20:16.11	147.90	5.03	-44.9	-57.3	3.8	1.49e+00	0	58	104	1742733312	60	15779
2026-01-01 22:20:20.15	148.25	4.79	-44.9	-57.2	3.8	1.49e+00	0	58	104	1742733312	60	15718
2026-01-01 22:20:24.20	148.60	4.55	-44.9	-57.2	3.8	1.49e+00	0	58	104	1742733312	60	15693
2026-01-01 22:20:28.24	148.94	4.32	-44.8	-57.2	3.8	1.49e+00	0	58	104	1742733312	60	15734
2026-01-01 22:20:32.28	149.27	4.09	-44.9	-57.2	3.8	1.49e+00	0	58	104	1742733312	60	15712
2026-01-01 22:20:36.33	149.60	3.85	-44.9	-57.2	3.8	1.49e+00	0	58	104	1742733312	60	15710
2026-01-01 22:20:40.37	149.93	3.62	-44.9	-57.2	3.8	1.49e+00	0	58	104	1742733312	60	15717
2026-01-01 22:20:44.42	150.25	3.39	-44.9	-57.3	3.8	1.49e+00	0	58	104	1742733312	60	15768
2026-01-01 22:20:48.46	150.57	3.17	-44.9	-57.2	3.8	1.49e+00	0	58	104	1742733312	60	15720
2026-01-01 22:20:52.50	150.88	2.94	-44.9	-57.2	3.8	1.49e+00	0	58	104	1742733312	60	15690
2026-01-01 22:20:56.55	151.19	2.71	-44.9	-57.2	3.8	1.49e+00	0	58	104	1742733312	60	15728
2026-01-01 22:21:00.59	151.49	2.49	-44.9	-57.2	3.8	1.49e+00	0	58	104	1742733312	60	15710
2026-01-01 22:21:04.64	151.79	2.26	-44.9	-57.2	3.8	1.49e+00	0	58	104	1742733312	60	15670
2026-01-01 22:21:08.68	152.08	2.04	-44.9	-57.2	3.8	1.49e+00	0	58	104	1742733312	60	15731

#Closed at: 2026-01-01 22:21:10
#Recorded file [1742 MB]: D:/lorett/data/31039_260102_010820.dat