passes_logs/2026/01/01/R2.0S_Moscow/R2.0S_Moscow__20260101_035503_FENGYUN_3G_rec.log

#Pass ID: 20260101_035503_FENGYUN 3G
#Satellite: FENGYUN 3G
#Configuration: FENGYUN 3G
#almurnet v.1.7.20251203
#Start time: 2026-01-01 03:55:03

#Version: 2.2.20231116
#Station: R2.0S_Moscow
#Location: 37.707566 lon 55.798166 lat
#TLE: 1 56232U 23055A   25365.50856095  .00043589  00000+0  69982-3 0  9997
#TLE: 2 56232  49.9923 130.6499 0004081 319.7782  40.2882 15.52545779153944

#Time	Az	El	Level	Level2	SNR	BER	BlckErr	Temp	State	Recorded	gain1	gain2
2026-01-01 03:55:03.66	232.26	2.04	-44.1	-62.4	3.8	8.46e-01	0	48	0	0	60	28416
2026-01-01 03:55:06.68	232.03	2.24	-44.1	-62.3	3.8	8.46e-01	0	49	104	0	60	28258
2026-01-01 03:55:09.72	231.80	2.43	-44.1	-62.3	3.8	8.45e-01	0	49	104	0	60	28247
2026-01-01 03:55:12.75	231.56	2.63	-44.1	-62.3	3.8	8.46e-01	0	49	104	0	60	28247
2026-01-01 03:55:15.78	231.32	2.83	-44.1	-62.3	3.8	8.46e-01	0	49	104	0	60	28316
2026-01-01 03:55:18.81	231.07	3.03	-44.1	-62.4	3.8	8.45e-01	0	49	104	0	60	28357
2026-01-01 03:55:21.85	230.81	3.23	-44.1	-62.3	3.8	8.46e-01	0	50	104	0	60	28259
2026-01-01 03:55:24.88	230.55	3.44	-44.1	-62.3	3.8	8.47e-01	0	50	104	0	60	28122
2026-01-01 03:55:27.91	230.29	3.65	-44.1	-62.3	3.8	8.46e-01	0	50	104	0	60	28205
2026-01-01 03:55:30.95	230.02	3.86	-44.1	-62.3	3.8	8.45e-01	0	50	104	0	60	28193
2026-01-01 03:55:33.98	229.75	4.07	-44.1	-62.1	3.8	8.46e-01	0	51	104	0	60	27690
2026-01-01 03:55:37.01	229.46	4.28	-44.1	-61.9	3.8	8.46e-01	0	51	104	0	60	26797
2026-01-01 03:55:40.05	229.18	4.49	-44.1	-61.9	3.8	8.46e-01	0	51	104	0	60	26835
2026-01-01 03:55:43.08	228.88	4.71	-44.1	-62.1	3.8	8.46e-01	0	51	104	0	60	27553
2026-01-01 03:55:46.11	228.58	4.93	-44.1	-62.2	3.8	8.47e-01	0	51	104	0	60	28020
2026-01-01 03:55:49.15	228.28	5.15	-44.1	-62.2	3.8	8.47e-01	0	51	104	0	60	27769
2026-01-01 03:55:52.18	227.97	5.37	-44.0	-61.9	3.8	8.47e-01	0	52	104	0	60	26827
2026-01-01 03:55:55.21	227.65	5.60	-44.0	-61.1	3.8	8.46e-01	0	51	104	0	60	24465
2026-01-01 03:55:58.24	227.32	5.83	-44.0	-61.2	3.8	8.46e-01	0	52	104	0	60	24975
2026-01-01 03:56:01.28	226.98	6.06	-44.1	-62.0	3.8	8.45e-01	0	52	104	0	60	27084
2026-01-01 03:56:04.31	226.64	6.29	-44.1	-62.2	3.8	8.46e-01	0	52	104	0	60	27807
2026-01-01 03:56:07.34	226.29	6.52	-44.0	-60.5	3.8	8.46e-01	0	52	104	0	60	22855
2026-01-01 03:56:10.38	225.94	6.76	-44.0	-57.4	4.7	8.41e-01	0	52	0	0	59	16897
2026-01-01 03:56:13.41	225.57	7.00	-44.0	-58.5	4.3	7.94e-01	0	53	0	0	59	19296
2026-01-01 03:56:16.44	225.20	7.24	-44.0	-57.5	4.6	8.43e-01	0	52	0	0	59	17180
2026-01-01 03:56:19.47	224.81	7.49	-42.1	-47.2	14.1	2.44e-03	0	53	0	2621440	56	6203
2026-01-01 03:56:22.51	224.42	7.74	-39.2	-41.9	19.3	0.00e+00	0	53	0	6291456	50	4798
2026-01-01 03:56:25.54	224.02	7.99	-38.6	-41.0	20.2	0.00e+00	0	53	0	9437184	48	4855
2026-01-01 03:56:28.57	223.61	8.24	-39.0	-41.6	19.8	0.00e+00	0	53	0	13107200	49	4918
2026-01-01 03:56:31.60	223.18	8.50	-39.7	-42.6	17.7	5.25e-03	0	53	0	16252928	51	4915
2026-01-01 03:56:34.63	222.75	8.75	-36.9	-38.8	22.4	0.00e+00	0	53	0	19922944	45	4489
2026-01-01 03:56:37.66	222.31	9.01	-36.8	-38.7	22.6	0.00e+00	0	53	0	23068672	45	4414
2026-01-01 03:56:40.69	221.86	9.28	-36.9	-38.8	22.4	0.00e+00	0	53	0	26738688	45	4491
2026-01-01 03:56:43.72	221.39	9.55	-36.9	-38.9	22.4	0.00e+00	0	54	0	29884416	45	4526
2026-01-01 03:56:46.75	220.92	9.82	-36.7	-38.5	22.8	0.00e+00	0	54	0	33554432	45	4328
2026-01-01 03:56:49.78	220.43	10.09	-36.9	-38.8	22.4	0.00e+00	0	54	0	36700160	45	4473
2026-01-01 03:56:52.81	219.93	10.36	-36.9	-38.8	22.5	0.00e+00	0	54	0	40370176	45	4488
2026-01-01 03:56:55.84	219.41	10.64	-36.6	-38.5	22.8	0.00e+00	0	54	0	43515904	45	4323
2026-01-01 03:56:58.87	218.89	10.92	-36.4	-38.2	23.2	0.00e+00	0	54	0	47185920	44	4423
2026-01-01 03:57:01.90	218.34	11.21	-36.5	-38.3	23.1	0.00e+00	0	54	0	50331648	44	4492
2026-01-01 03:57:04.93	217.79	11.50	-36.6	-38.5	22.9	0.00e+00	0	54	0	54001664	44	4563
2026-01-01 03:57:07.96	217.22	11.79	-36.3	-38.1	23.3	0.00e+00	0	54	0	57147392	44	4366
2026-01-01 03:57:10.99	216.63	12.08	-36.2	-38.0	23.4	0.00e+00	0	55	0	60817408	44	4313
2026-01-01 03:57:14.02	216.03	12.37	-36.8	-38.7	22.9	0.00e+00	0	54	0	63963136	44	4654
2026-01-01 03:57:17.04	215.42	12.67	-36.4	-38.2	23.3	0.00e+00	0	54	0	67633152	44	4422
2026-01-01 03:57:20.07	214.79	12.97	-35.6	-37.3	24.0	0.00e+00	0	55	0	70778880	43	4220
2026-01-01 03:57:23.10	214.13	13.28	-35.8	-37.5	23.8	0.00e+00	0	54	0	74448896	43	4316
2026-01-01 03:57:26.13	213.47	13.58	-35.3	-37.0	24.3	0.00e+00	0	55	0	77594624	42	4306
2026-01-01 03:57:29.16	212.78	13.89	-35.2	-36.9	24.4	0.00e+00	0	55	0	81264640	42	4257
2026-01-01 03:57:32.19	212.08	14.20	-35.5	-37.1	24.2	0.00e+00	0	55	0	84410368	42	4388
2026-01-01 03:57:35.22	211.35	14.52	-34.8	-36.4	24.8	0.00e+00	0	55	0	88080384	41	4273
2026-01-01 03:57:38.25	210.61	14.83	-34.9	-36.4	24.9	0.00e+00	0	55	0	91226112	41	4279
2026-01-01 03:57:41.28	209.84	15.15	-35.1	-36.7	24.7	0.00e+00	0	55	0	94896128	41	4412
2026-01-01 03:57:44.31	209.06	15.47	-35.0	-36.6	24.7	0.00e+00	0	55	0	98041856	41	4366
2026-01-01 03:57:47.34	208.25	15.79	-34.6	-36.1	25.2	0.00e+00	0	55	0	101711872	41	4130
2026-01-01 03:57:50.37	207.42	16.11	-34.8	-36.3	25.0	0.00e+00	0	55	0	104857600	41	4231
2026-01-01 03:57:53.40	206.57	16.43	-34.6	-36.2	25.2	0.00e+00	0	55	0	108527616	41	4169
2026-01-01 03:57:56.43	205.69	16.76	-34.4	-35.9	25.4	0.00e+00	0	55	0	111673344	40	4277
2026-01-01 03:57:59.46	204.79	17.08	-34.4	-35.9	25.4	0.00e+00	0	55	0	115343360	40	4257
2026-01-01 03:58:02.48	203.87	17.40	-33.8	-35.3	26.1	0.00e+00	0	55	0	118489088	39	4196
2026-01-01 03:58:05.51	202.93	17.72	-34.3	-35.8	25.6	0.00e+00	0	55	0	122159104	39	4478
2026-01-01 03:58:08.54	201.95	18.05	-34.2	-35.7	25.7	0.00e+00	0	56	0	125304832	39	4413
2026-01-01 03:58:11.57	200.96	18.37	-33.9	-35.4	26.0	0.00e+00	0	55	0	128974848	39	4264
2026-01-01 03:58:14.60	199.93	18.68	-33.5	-34.9	26.3	0.00e+00	0	55	0	132120576	38	4255
2026-01-01 03:58:17.63	198.88	19.00	-33.4	-34.8	26.6	0.00e+00	0	56	0	135790592	38	4221
2026-01-01 03:58:20.67	197.80	19.31	-33.6	-35.0	26.4	0.00e+00	0	56	0	138936320	38	4324
2026-01-01 03:58:23.69	196.70	19.62	-33.7	-35.2	26.3	0.00e+00	0	56	0	142606336	38	4398
2026-01-01 03:58:26.73	195.56	19.92	-33.9	-35.3	26.1	0.00e+00	0	56	0	145752064	38	4480
2026-01-01 03:58:29.75	194.41	20.22	-33.4	-34.9	26.5	0.00e+00	0	56	0	149422080	38	4245
2026-01-01 03:58:32.78	193.22	20.52	-33.6	-35.0	26.4	0.00e+00	0	56	0	152567808	38	4333
2026-01-01 03:58:35.81	192.01	20.80	-33.6	-35.0	26.4	0.00e+00	0	56	0	156237824	38	4306
2026-01-01 03:58:38.85	190.77	21.08	-33.3	-34.7	26.7	0.00e+00	0	56	0	159383552	38	4163
2026-01-01 03:58:41.88	189.50	21.35	-33.5	-34.9	26.5	0.00e+00	0	56	0	163053568	38	4273
2026-01-01 03:58:44.91	188.21	21.61	-33.2	-34.5	26.8	0.00e+00	0	56	0	166199296	38	4094
2026-01-01 03:58:47.94	186.89	21.86	-33.2	-34.6	26.7	0.00e+00	0	56	0	169869312	38	4128
2026-01-01 03:58:50.97	185.55	22.10	-33.5	-34.9	26.5	0.00e+00	0	56	0	173015040	38	4271
2026-01-01 03:58:54.00	184.18	22.33	-33.0	-34.3	27.0	0.00e+00	0	56	0	176685056	37	4241
2026-01-01 03:58:57.02	182.79	22.55	-32.7	-34.0	27.3	0.00e+00	0	56	0	179830784	37	4084
2026-01-01 03:59:00.05	181.38	22.75	-32.4	-33.8	27.4	0.00e+00	0	56	0	183500800	36	4200
2026-01-01 03:59:03.09	179.95	22.94	-32.7	-34.1	27.2	0.00e+00	0	56	0	186646528	36	4352
2026-01-01 03:59:06.11	178.50	23.11	-33.1	-34.5	26.9	0.00e+00	0	56	0	190316544	36	4547
2026-01-01 03:59:09.14	177.03	23.26	-33.3	-34.7	26.7	0.00e+00	0	56	0	193462272	37	4398
2026-01-01 03:59:12.17	175.54	23.40	-33.0	-34.3	27.0	0.00e+00	0	56	0	197132288	37	4242
2026-01-01 03:59:15.20	174.04	23.53	-33.2	-34.6	26.9	0.00e+00	0	56	0	200278016	37	4357
2026-01-01 03:59:18.23	172.53	23.63	-33.4	-34.8	26.7	0.00e+00	0	56	0	203948032	37	4463
2026-01-01 03:59:21.26	171.00	23.72	-33.2	-34.5	26.9	0.00e+00	0	56	0	207093760	37	4339
2026-01-01 03:59:24.29	169.47	23.78	-32.9	-34.2	27.2	0.00e+00	0	56	0	210763776	37	4171
2026-01-01 03:59:27.32	167.93	23.83	-32.8	-34.2	27.3	0.00e+00	0	56	0	213909504	37	4161
2026-01-01 03:59:30.35	166.39	23.86	-32.9	-34.3	27.1	0.00e+00	0	56	0	217579520	37	4210
2026-01-01 03:59:33.38	164.84	23.87	-33.0	-34.4	27.1	0.00e+00	0	56	0	220725248	37	4263
2026-01-01 03:59:36.40	163.30	23.86	-32.9	-34.2	27.2	0.00e+00	0	56	0	224395264	36	4437
2026-01-01 03:59:39.43	161.76	23.83	-32.5	-33.8	27.7	0.00e+00	0	56	0	227540992	36	4233
2026-01-01 03:59:42.46	160.22	23.78	-32.7	-34.1	27.4	0.00e+00	0	56	0	231211008	36	4356
2026-01-01 03:59:45.49	158.69	23.71	-32.8	-34.1	27.4	0.00e+00	0	56	0	234356736	36	4391
2026-01-01 03:59:48.52	157.17	23.62	-33.0	-34.4	27.2	0.00e+00	0	56	0	238026752	36	4508
2026-01-01 03:59:51.55	155.66	23.51	-33.0	-34.4	27.1	0.00e+00	0	56	0	241172480	37	4270
2026-01-01 03:59:54.58	154.16	23.39	-33.0	-34.4	27.0	0.00e+00	0	56	0	244842496	37	4278
2026-01-01 03:59:57.60	152.68	23.25	-32.7	-34.1	27.4	0.00e+00	0	57	0	247988224	37	4100
2026-01-01 04:00:00.63	151.22	23.09	-32.9	-34.3	27.2	0.00e+00	0	57	0	251658240	37	4199
2026-01-01 04:00:03.66	149.77	22.92	-32.8	-34.2	27.3	0.00e+00	0	57	0	254803968	37	4175
2026-01-01 04:00:06.69	148.34	22.73	-32.6	-34.0	27.4	0.00e+00	0	56	0	258473984	37	4066
2026-01-01 04:00:09.72	146.93	22.53	-32.8	-34.2	27.2	0.00e+00	0	57	0	261619712	37	4190
2026-01-01 04:00:12.75	145.55	22.31	-32.8	-34.2	27.2	0.00e+00	0	57	0	265289728	37	4163
2026-01-01 04:00:15.78	144.19	22.08	-32.8	-34.2	27.2	0.00e+00	0	57	0	268435456	37	4170
2026-01-01 04:00:18.81	142.85	21.84	-33.2	-34.6	26.8	0.00e+00	0	57	0	272105472	37	4356
2026-01-01 04:00:21.84	141.54	21.59	-33.4	-34.9	26.5	0.00e+00	0	57	0	275251200	37	4507
2026-01-01 04:00:24.87	140.25	21.33	-33.2	-34.7	26.8	0.00e+00	0	57	0	278921216	37	4392
2026-01-01 04:00:27.90	138.99	21.06	-32.9	-34.3	27.0	0.00e+00	0	57	0	282066944	37	4196
2026-01-01 04:00:30.93	137.76	20.78	-33.7	-35.2	26.2	0.00e+00	0	56	0	285736960	38	4413
2026-01-01 04:00:33.96	136.55	20.49	-33.5	-34.9	26.5	0.00e+00	0	57	0	288882688	38	4279
2026-01-01 04:00:36.99	135.37	20.20	-33.4	-34.9	26.4	0.00e+00	0	57	0	292552704	38	4247
2026-01-01 04:00:40.02	134.22	19.90	-33.6	-35.0	26.3	0.00e+00	0	57	0	295698432	38	4336
2026-01-01 04:00:43.05	133.10	19.60	-33.7	-35.2	26.2	0.00e+00	0	57	0	299368448	38	4392
2026-01-01 04:00:46.08	132.00	19.29	-33.9	-35.4	25.9	0.00e+00	0	57	0	302514176	38	4538
2026-01-01 04:00:49.11	130.93	18.98	-33.7	-35.2	26.1	0.00e+00	0	57	0	306184192	38	4416
2026-01-01 04:00:52.14	129.88	18.66	-33.7	-35.2	26.1	0.00e+00	0	57	0	309329920	38	4432
2026-01-01 04:00:55.17	128.86	18.35	-34.1	-35.6	25.6	0.00e+00	0	57	0	312999936	38	4637
2026-01-01 04:00:58.19	127.88	18.03	-34.0	-35.4	25.8	0.00e+00	0	56	0	316145664	38	4541
2026-01-01 04:01:01.22	126.91	17.71	-34.3	-35.8	25.5	0.00e+00	0	57	0	319815680	39	4467
2026-01-01 04:01:04.25	125.97	17.39	-34.0	-35.5	25.7	0.00e+00	0	57	0	322961408	39	4339
2026-01-01 04:01:07.28	125.05	17.06	-34.4	-36.0	25.2	0.00e+00	0	57	0	326631424	39	4577
2026-01-01 04:01:10.31	124.16	16.74	-34.7	-36.3	24.9	0.00e+00	0	57	0	329777152	40	4449
2026-01-01 04:01:13.34	123.29	16.42	-34.6	-36.2	25.0	0.00e+00	0	57	0	333447168	39	4685
2026-01-01 04:01:16.37	122.44	16.10	-34.3	-35.9	25.3	0.00e+00	0	57	0	336592896	39	4507
2026-01-01 04:01:19.40	121.62	15.78	-34.7	-36.5	24.6	0.00e+00	0	57	0	340262912	40	4546
2026-01-01 04:01:22.43	120.81	15.46	-34.6	-36.5	24.3	2.20e-06	0	57	0	343408640	39	4834
2026-01-01 04:01:25.46	120.03	15.14	-34.6	-36.4	24.5	0.00e+00	0	57	0	347078656	39	4803
2026-01-01 04:01:28.49	119.27	14.83	-35.4	-37.2	23.8	0.00e+00	0	57	0	350224384	41	4675
2026-01-01 04:01:31.52	118.54	14.51	-35.3	-37.0	23.8	0.00e+00	0	57	0	353894400	40	4853
2026-01-01 04:01:34.55	117.82	14.20	-34.9	-36.8	24.1	0.00e+00	0	57	0	357040128	40	4714
2026-01-01 04:01:37.58	117.11	13.89	-34.9	-37.1	23.6	0.00e+00	0	57	0	360710144	40	4885
2026-01-01 04:01:40.61	116.43	13.58	-34.5	-37.1	22.9	2.05e-05	0	57	0	363855872	39	5186
2026-01-01 04:01:43.64	115.77	13.28	-35.1	-37.9	20.8	1.71e-05	0	57	0	367525888	38	6030
2026-01-01 04:01:46.67	115.12	12.98	-30.4	-36.7	16.1	2.06e-04	0	57	0	370671616	28	9388
2026-01-01 04:01:49.70	114.49	12.68	-35.6	-38.0	22.2	0.00e+00	0	57	0	374341632	41	5155
2026-01-01 04:01:52.73	113.88	12.38	-35.2	-37.7	22.5	0.00e+00	0	57	0	377487360	39	5588
2026-01-01 04:01:55.76	113.28	12.08	-35.3	-38.4	21.5	1.10e-06	0	57	0	381157376	42	5058
2026-01-01 04:01:58.79	112.70	11.79	-36.6	-38.9	21.5	0.00e+00	0	57	0	384303104	43	5100
2026-01-01 04:02:01.82	112.14	11.50	-36.3	-38.6	21.7	0.00e+00	0	57	0	387973120	43	4875
2026-01-01 04:02:04.85	111.59	11.22	-36.0	-38.1	22.5	1.37e-05	0	57	0	391118848	42	4914
2026-01-01 04:02:07.88	111.05	10.94	-36.5	-39.2	21.0	1.83e-05	0	57	0	394788864	43	5253
2026-01-01 04:02:10.91	110.52	10.66	-37.1	-39.9	20.9	1.10e-06	0	57	0	397934592	45	5043
2026-01-01 04:02:13.94	110.01	10.38	-36.5	-38.9	21.8	5.70e-06	0	57	0	401604608	43	5064
2026-01-01 04:02:16.98	109.51	10.10	-36.3	-38.4	22.3	0.00e+00	0	57	0	404750336	43	4799
2026-01-01 04:02:20.01	109.03	9.83	-36.5	-38.6	21.9	0.00e+00	0	57	0	408420352	43	4920
2026-01-01 04:02:23.04	108.56	9.56	-37.2	-39.4	21.5	0.00e+00	0	57	0	411566080	45	4788
2026-01-01 04:02:26.07	108.09	9.30	-37.5	-39.7	21.2	0.00e+00	0	57	0	415236096	45	4975
2026-01-01 04:02:29.09	107.65	9.04	-37.8	-40.2	20.7	0.00e+00	0	57	0	418381824	46	4964
2026-01-01 04:02:32.12	107.21	8.78	-37.5	-39.9	20.9	0.00e+00	0	57	0	422051840	46	4769
2026-01-01 04:02:35.15	106.78	8.52	-37.4	-39.7	20.9	0.00e+00	0	57	0	425197568	46	4700
2026-01-01 04:02:38.18	106.36	8.26	-37.2	-39.7	20.4	0.00e+00	0	57	0	428867584	45	4932
2026-01-01 04:02:41.21	105.95	8.01	-37.2	-39.4	20.0	0.00e+00	0	57	0	432013312	45	4785
2026-01-01 04:02:44.24	105.55	7.76	-44.8	-62.9	3.8	8.46e-01	0	57	104	432537600	60	30295
2026-01-01 04:02:47.27	105.16	7.52	-45.2	-63.4	3.8	8.47e-01	0	57	104	432537600	60	31980
2026-01-01 04:02:50.30	104.78	7.27	-45.4	-63.6	3.8	8.46e-01	0	57	104	432537600	61	31074
2026-01-01 04:02:53.33	104.41	7.03	-45.3	-63.6	3.8	8.45e-01	0	57	104	432537600	61	30759
2026-01-01 04:02:56.36	104.05	6.79	-45.1	-63.5	3.8	8.47e-01	0	57	104	432537600	61	30513
2026-01-01 04:02:59.40	103.69	6.56	-45.1	-63.4	3.8	8.46e-01	0	57	104	432537600	61	30109
2026-01-01 04:03:02.43	103.34	6.32	-45.1	-63.4	3.8	8.46e-01	0	57	104	432537600	61	30192
2026-01-01 04:03:05.46	103.01	6.09	-45.0	-63.4	3.8	8.45e-01	0	57	104	432537600	61	30098
2026-01-01 04:03:08.50	102.67	5.86	-45.1	-63.4	3.8	8.47e-01	0	57	104	432537600	61	30065
2026-01-01 04:03:11.53	102.35	5.63	-45.0	-63.4	3.8	8.47e-01	0	58	104	432537600	61	30156
2026-01-01 04:03:14.56	102.03	5.41	-45.0	-63.4	3.8	8.46e-01	0	57	104	432537600	61	30152
2026-01-01 04:03:17.59	101.72	5.19	-45.0	-63.4	3.8	8.46e-01	0	57	104	432537600	61	30102
2026-01-01 04:03:20.63	101.42	4.97	-45.0	-63.3	3.8	8.46e-01	0	58	104	432537600	61	29996
2026-01-01 04:03:23.66	101.12	4.75	-45.0	-63.4	3.8	8.45e-01	0	58	104	432537600	61	30075
2026-01-01 04:03:26.69	100.83	4.53	-45.0	-63.4	3.8	8.45e-01	0	58	104	432537600	61	30074
2026-01-01 04:03:29.73	100.54	4.32	-45.0	-63.4	3.8	8.45e-01	0	58	104	432537600	61	30083
2026-01-01 04:03:32.76	100.26	4.11	-45.0	-63.4	3.8	8.45e-01	0	58	104	432537600	61	30036
2026-01-01 04:03:35.80	99.99	3.90	-45.0	-63.4	3.8	8.45e-01	0	58	104	432537600	61	30039
2026-01-01 04:03:38.82	99.72	3.69	-45.0	-63.4	3.8	8.44e-01	0	57	104	432537600	61	30103
2026-01-01 04:03:41.86	99.46	3.48	-45.0	-63.4	3.8	8.46e-01	0	57	104	432537600	61	30048
2026-01-01 04:03:44.89	99.20	3.28	-45.0	-63.4	3.8	8.47e-01	0	58	104	432537600	61	30040
2026-01-01 04:03:47.93	98.95	3.08	-45.0	-63.3	3.8	8.46e-01	0	58	104	432537600	61	30004
2026-01-01 04:03:50.96	98.71	2.88	-45.0	-63.3	3.8	8.45e-01	0	58	104	432537600	61	29914
2026-01-01 04:03:53.99	98.46	2.68	-45.0	-63.3	3.8	8.46e-01	0	58	104	432537600	61	30020
2026-01-01 04:03:57.02	98.23	2.48	-45.0	-63.3	3.8	8.46e-01	0	57	104	432537600	61	30001
2026-01-01 04:04:00.06	97.99	2.28	-45.0	-63.4	3.8	8.46e-01	0	58	104	432537600	60	31841
2026-01-01 04:04:03.09	97.77	2.09	-45.0	-63.3	3.8	8.47e-01	0	58	104	432537600	60	31763

#Closed at: 2026-01-01 04:04:05
#Recorded file [432 MB]: D:/lorett/data/31039_260101_065503.dat