passes_logs/2026/01/01/R2.0S_Moscow/R2.0S_Moscow__20260101_032542_FENGYUN_3E_rec.log

#Pass ID: 20260101_032542_FENGYUN 3E
#Satellite: FENGYUN 3E
#Configuration: FENGYUN 3E
#almurnet v.1.7.20251203
#Start time: 2026-01-01 03:31:36

#Version: 2.2.20231116
#Station: R2.0S_Moscow
#Location: 37.707566 lon 55.798166 lat
#TLE: 1 49008U 21062A   25365.55977344  .00000403  00000+0  21051-3 0  9995
#TLE: 2 49008  98.7483   5.8586 0001311 170.0615 190.0588 14.19883886232790

#Time	Az	El	Level	Level2	SNR	BER	BlckErr	Temp	State	Recorded	gain1	gain2
2026-01-01 03:31:36.61	53.84	45.20	-44.9	-56.5	3.8	8.47e-01	0	58	0	0	60	14400
2026-01-01 03:31:39.63	54.99	45.87	-45.7	-56.9	3.8	8.46e-01	0	58	104	0	62	12672
2026-01-01 03:31:42.66	56.20	46.53	-45.7	-56.8	3.8	8.47e-01	0	58	104	0	62	12560
2026-01-01 03:31:45.70	57.46	47.20	-45.7	-56.8	3.8	8.46e-01	0	58	104	0	62	12597
2026-01-01 03:31:48.73	58.77	47.85	-45.7	-56.8	3.8	8.47e-01	0	58	104	0	62	12584
2026-01-01 03:31:51.76	60.14	48.50	-45.6	-56.8	3.8	8.46e-01	0	59	104	0	62	12615
2026-01-01 03:31:54.79	61.57	49.15	-45.6	-56.8	3.8	8.46e-01	0	59	104	0	62	12557
2026-01-01 03:31:57.83	63.06	49.78	-45.6	-56.8	3.8	8.46e-01	0	59	104	0	62	12545
2026-01-01 03:32:00.86	64.61	50.40	-45.6	-56.7	3.8	8.47e-01	0	58	104	0	62	12509
2026-01-01 03:32:03.89	66.22	51.01	-45.6	-56.7	3.8	8.45e-01	0	59	104	0	62	12501
2026-01-01 03:32:06.93	67.90	51.60	-45.6	-56.7	3.8	8.46e-01	0	58	104	0	62	12466
2026-01-01 03:32:09.96	69.65	52.17	-45.6	-56.7	3.8	8.47e-01	0	59	104	0	62	12392
2026-01-01 03:32:12.99	71.46	52.71	-45.6	-56.7	3.8	8.46e-01	0	59	104	0	62	12477
2026-01-01 03:32:16.02	73.34	53.24	-45.5	-56.5	3.8	8.46e-01	0	59	104	0	62	12146
2026-01-01 03:32:19.06	75.29	53.74	-45.6	-56.7	3.8	8.46e-01	0	59	104	0	62	12380
2026-01-01 03:32:22.09	77.30	54.21	-45.4	-55.8	3.8	8.46e-01	0	58	104	0	61	11865
2026-01-01 03:32:25.12	79.37	54.64	-45.4	-55.8	3.8	8.46e-01	0	59	104	0	61	11857
2026-01-01 03:32:28.15	81.51	55.04	-42.8	-46.2	9.0	8.56e-02	0	59	0	2097152	56	5229
2026-01-01 03:32:31.19	83.71	55.41	-33.1	-34.0	21.0	0.00e+00	0	59	0	24117248	36	4078
2026-01-01 03:32:34.22	85.96	55.74	-39.5	-41.3	14.0	3.40e-06	0	58	0	46137344	50	4198
2026-01-01 03:32:37.25	88.26	56.02	-35.3	-36.4	18.7	0.00e+00	0	59	0	67108864	40	4268
2026-01-01 03:32:40.28	90.60	56.26	-33.6	-34.6	20.5	0.00e+00	0	59	0	89128960	38	3890
2026-01-01 03:32:43.31	92.98	56.45	-33.7	-34.7	20.4	0.00e+00	0	59	0	111149056	37	4169
2026-01-01 03:32:46.34	95.38	56.60	-33.7	-34.7	20.4	0.00e+00	0	59	0	133169152	37	4171
2026-01-01 03:32:49.37	97.81	56.70	-33.4	-34.3	20.7	0.00e+00	0	59	0	155189248	37	3996
2026-01-01 03:32:52.40	100.26	56.75	-33.3	-34.2	20.5	0.00e+00	0	59	0	177209344	37	3950
2026-01-01 03:32:55.43	102.70	56.75	-33.6	-34.6	20.4	0.00e+00	0	59	0	199229440	37	4132
2026-01-01 03:32:58.46	105.15	56.70	-33.4	-34.4	20.6	0.00e+00	0	59	0	221249536	37	4014
2026-01-01 03:33:01.49	107.58	56.60	-33.4	-34.4	20.6	0.00e+00	0	59	0	242221056	37	4018
2026-01-01 03:33:04.52	109.99	56.45	-33.5	-34.5	20.4	0.00e+00	0	59	0	264241152	37	4082
2026-01-01 03:33:07.55	112.37	56.26	-33.3	-34.3	20.7	0.00e+00	0	59	0	286261248	37	3981
2026-01-01 03:33:10.58	114.71	56.02	-33.3	-34.3	20.7	0.00e+00	0	58	0	308281344	37	3971
2026-01-01 03:33:13.61	117.01	55.73	-33.3	-34.3	20.6	0.00e+00	0	59	0	330301440	37	3965
2026-01-01 03:33:16.65	119.27	55.40	-33.6	-34.6	20.4	0.00e+00	0	59	0	352321536	37	4102
2026-01-01 03:33:19.68	121.47	55.04	-33.2	-34.2	20.8	0.00e+00	0	59	0	374341632	37	3920
2026-01-01 03:33:22.71	123.60	54.64	-33.2	-34.1	20.8	0.00e+00	0	59	0	396361728	36	4137
2026-01-01 03:33:25.74	125.68	54.20	-33.8	-34.9	20.0	0.00e+00	0	59	0	417333248	37	4260
2026-01-01 03:33:28.78	127.70	53.73	-33.4	-34.4	20.5	0.00e+00	0	59	0	439353344	37	4025
2026-01-01 03:33:31.80	129.64	53.23	-33.7	-34.7	20.3	0.00e+00	0	59	0	461373440	37	4152
2026-01-01 03:33:34.83	131.52	52.70	-33.1	-34.0	20.9	0.00e+00	0	59	0	483393536	37	3848
2026-01-01 03:33:37.86	133.34	52.15	-33.5	-34.5	20.5	0.00e+00	0	59	0	505413632	37	4088
2026-01-01 03:33:40.90	135.09	51.58	-33.3	-34.2	20.7	0.00e+00	0	59	0	527433728	37	3946
2026-01-01 03:33:43.93	136.77	50.99	-33.8	-34.9	20.1	0.00e+00	0	59	0	549453824	37	4246
2026-01-01 03:33:46.96	138.39	50.38	-33.5	-34.5	20.5	0.00e+00	0	59	0	571473920	37	4071
2026-01-01 03:33:49.99	139.94	49.75	-33.5	-34.5	20.6	0.00e+00	0	59	0	592445440	37	4067
2026-01-01 03:33:53.02	141.43	49.12	-33.0	-34.0	21.0	0.00e+00	0	58	0	614465536	37	3845
2026-01-01 03:33:56.05	142.86	48.47	-32.8	-33.7	21.0	0.00e+00	0	59	0	636485632	36	3950
2026-01-01 03:33:59.09	144.23	47.82	-33.3	-34.3	20.6	0.00e+00	0	59	0	658505728	36	4215
2026-01-01 03:34:02.12	145.55	47.16	-32.9	-33.8	21.0	0.00e+00	0	59	0	680525824	36	3997
2026-01-01 03:34:05.15	146.81	46.49	-31.9	-32.8	21.3	0.00e+00	0	59	0	702545920	34	3996
2026-01-01 03:34:08.18	148.01	45.83	-31.7	-32.6	21.5	0.00e+00	0	59	0	724566016	34	3888
2026-01-01 03:34:11.21	149.17	45.15	-31.8	-32.8	21.3	0.00e+00	0	59	0	746586112	34	3972
2026-01-01 03:34:14.25	150.29	44.48	-31.6	-32.5	21.6	0.00e+00	0	59	0	767557632	34	3829
2026-01-01 03:34:17.28	151.36	43.81	-31.2	-32.1	21.9	0.00e+00	0	59	0	789577728	33	3880
2026-01-01 03:34:20.31	152.38	43.14	-31.4	-32.3	21.6	0.00e+00	0	59	0	811597824	33	3971
2026-01-01 03:34:23.34	153.36	42.47	-31.7	-32.7	21.4	0.00e+00	0	59	0	833617920	33	4147
2026-01-01 03:34:26.37	154.30	41.81	-31.4	-32.3	21.7	0.00e+00	0	59	0	855638016	33	3993
2026-01-01 03:34:29.40	155.21	41.15	-31.4	-32.3	21.7	0.00e+00	0	59	0	877658112	33	3984
2026-01-01 03:34:32.43	156.08	40.49	-31.5	-32.4	21.6	0.00e+00	0	59	0	899678208	33	4015
2026-01-01 03:34:35.46	156.91	39.84	-31.7	-32.6	21.4	0.00e+00	0	59	0	921698304	33	4112
2026-01-01 03:34:38.49	157.72	39.19	-31.7	-32.6	21.5	0.00e+00	0	59	0	942669824	33	4119
2026-01-01 03:34:41.53	158.49	38.55	-31.3	-32.2	21.7	0.00e+00	0	59	0	964689920	33	3944
2026-01-01 03:34:44.56	159.24	37.92	-31.3	-32.2	21.8	0.00e+00	0	59	0	986710016	33	3932
2026-01-01 03:34:47.59	159.95	37.29	-31.4	-32.3	21.7	0.00e+00	0	59	0	1008730112	33	3990
2026-01-01 03:34:50.62	160.64	36.67	-31.3	-32.3	21.8	0.00e+00	0	59	0	1030750208	33	3961
2026-01-01 03:34:53.66	161.31	36.06	-31.4	-32.3	21.7	0.00e+00	0	59	0	1051721728	33	3986
2026-01-01 03:34:56.68	161.95	35.45	-31.5	-32.4	21.5	0.00e+00	0	59	0	1073741824	33	4046
2026-01-01 03:34:59.72	162.57	34.85	-31.1	-32.0	21.9	0.00e+00	0	59	0	1095761920	33	3859
2026-01-01 03:35:02.75	163.16	34.26	-30.9	-31.8	22.2	0.00e+00	0	59	0	1117782016	32	3971
2026-01-01 03:35:05.78	163.74	33.68	-31.0	-31.9	22.1	0.00e+00	0	59	0	1139802112	32	4027
2026-01-01 03:35:08.81	164.30	33.11	-31.4	-32.3	21.7	0.00e+00	0	59	0	1161822208	32	4211
2026-01-01 03:35:11.84	164.83	32.54	-31.3	-32.2	21.7	0.00e+00	0	59	0	1183842304	32	4191
2026-01-01 03:35:14.87	165.35	31.98	-31.0	-31.9	22.1	0.00e+00	0	59	0	1205862400	32	4032
2026-01-01 03:35:17.91	165.86	31.43	-30.8	-31.7	22.2	0.00e+00	0	59	0	1226833920	32	3930
2026-01-01 03:35:20.94	166.34	30.89	-30.9	-31.8	22.1	0.00e+00	0	59	0	1248854016	32	3996
2026-01-01 03:35:23.97	166.81	30.36	-31.1	-32.0	21.9	0.00e+00	0	59	0	1270874112	32	4081
2026-01-01 03:35:27.00	167.27	29.83	-31.2	-32.1	21.8	0.00e+00	0	59	0	1292894208	32	4138
2026-01-01 03:35:30.03	167.71	29.31	-31.4	-32.3	21.7	0.00e+00	0	59	0	1314914304	32	4218
2026-01-01 03:35:33.06	168.14	28.80	-31.4	-32.3	21.6	0.00e+00	0	59	0	1336934400	32	4238
2026-01-01 03:35:36.09	168.55	28.30	-31.4	-32.3	21.6	0.00e+00	0	59	0	1358954496	32	4236
2026-01-01 03:35:39.12	168.96	27.80	-31.5	-32.4	21.5	0.00e+00	0	59	0	1380974592	32	4266
2026-01-01 03:35:42.15	169.35	27.31	-31.6	-32.5	21.4	0.00e+00	0	59	0	1401946112	32	4324
2026-01-01 03:35:45.19	169.73	26.83	-31.5	-32.4	21.5	0.00e+00	0	59	0	1423966208	32	4275
2026-01-01 03:35:48.22	170.10	26.35	-31.4	-32.3	21.4	0.00e+00	0	59	0	1445986304	32	4203
2026-01-01 03:35:51.25	170.46	25.89	-31.4	-32.3	21.6	0.00e+00	0	59	0	1468006400	32	4205
2026-01-01 03:35:54.28	170.80	25.43	-31.4	-32.3	21.6	0.00e+00	0	59	0	1490026496	32	4215
2026-01-01 03:35:57.31	171.14	24.97	-31.3	-32.2	21.6	0.00e+00	0	59	0	1512046592	32	4186
2026-01-01 03:36:00.35	171.47	24.52	-31.3	-32.2	21.6	0.00e+00	0	59	0	1534066688	32	4187
2026-01-01 03:36:03.38	171.79	24.08	-31.4	-32.4	21.5	0.00e+00	0	59	0	1556086784	32	4253
2026-01-01 03:36:06.41	172.11	23.65	-31.6	-32.5	21.3	0.00e+00	0	59	0	1578106880	32	4339
2026-01-01 03:36:09.44	172.41	23.22	-31.8	-32.7	21.0	0.00e+00	0	59	0	1599078400	33	4180
2026-01-01 03:36:12.47	172.71	22.80	-31.8	-32.7	21.1	0.00e+00	0	59	0	1621098496	33	4191
2026-01-01 03:36:15.51	173.00	22.39	-31.8	-32.7	21.1	0.00e+00	0	59	0	1643118592	33	4187
2026-01-01 03:36:18.54	173.28	21.98	-31.8	-32.8	21.1	0.00e+00	0	59	0	1665138688	33	4196
2026-01-01 03:36:21.57	173.55	21.57	-31.9	-32.8	21.0	0.00e+00	0	59	0	1687158784	33	4214
2026-01-01 03:36:24.60	173.82	21.18	-31.9	-32.9	20.9	0.00e+00	0	59	0	1709178880	33	4245
2026-01-01 03:36:27.63	174.08	20.78	-32.0	-32.9	20.9	0.00e+00	0	59	0	1731198976	33	4276
2026-01-01 03:36:30.66	174.34	20.40	-32.1	-33.1	20.7	0.00e+00	0	59	0	1753219072	33	4349
2026-01-01 03:36:33.69	174.58	20.02	-32.2	-33.2	20.6	0.00e+00	0	59	0	1774190592	34	4173
2026-01-01 03:36:36.73	174.83	19.64	-32.3	-33.3	20.4	0.00e+00	0	59	0	1796210688	34	4228
2026-01-01 03:36:39.76	175.07	19.27	-32.5	-33.5	20.2	0.00e+00	0	59	0	1818230784	34	4317
2026-01-01 03:36:42.79	175.30	18.90	-32.8	-33.8	20.0	0.00e+00	0	59	0	1840250880	35	4204
2026-01-01 03:36:45.82	175.52	18.54	-32.5	-33.5	20.2	0.00e+00	0	59	0	1862270976	35	4082
2026-01-01 03:36:48.85	175.75	18.19	-32.6	-33.6	20.1	0.00e+00	0	59	0	1883242496	35	4138
2026-01-01 03:36:51.89	175.96	17.84	-32.8	-33.8	20.0	0.00e+00	0	59	0	1905262592	35	4207
2026-01-01 03:36:54.91	176.18	17.49	-32.6	-33.6	20.0	0.00e+00	0	59	0	1927282688	35	4140
2026-01-01 03:36:57.94	176.38	17.15	-32.7	-33.7	20.0	0.00e+00	0	59	0	1949302784	35	4189
2026-01-01 03:37:00.98	176.59	16.81	-32.9	-34.0	19.8	0.00e+00	0	59	0	1971322880	35	4293
2026-01-01 03:37:04.01	176.79	16.48	-33.0	-34.0	19.7	0.00e+00	0	59	0	1993342976	35	4337
2026-01-01 03:37:07.04	176.98	16.15	-33.9	-35.0	19.5	0.00e+00	0	59	0	2015363072	37	4313
2026-01-01 03:37:10.07	177.17	15.82	-34.1	-35.1	19.4	0.00e+00	0	59	0	2037383168	37	4377
2026-01-01 03:37:13.10	177.36	15.50	-33.7	-34.7	19.7	0.00e+00	0	59	0	2058354688	37	4187
2026-01-01 03:37:16.13	177.54	15.18	-33.9	-35.0	19.5	0.00e+00	0	59	0	2080374784	37	4301
2026-01-01 03:37:19.16	177.72	14.87	-33.9	-34.9	19.5	0.00e+00	0	59	0	2102394880	37	4280
2026-01-01 03:37:22.20	177.90	14.56	-34.1	-35.1	19.3	0.00e+00	0	59	0	2124414976	37	4383
2026-01-01 03:37:25.23	178.07	14.25	-33.9	-35.0	19.4	0.00e+00	0	59	0	2146435072	37	4310
2026-01-01 03:37:28.26	178.24	13.95	-34.0	-35.1	19.4	0.00e+00	0	59	0	2168455168	37	4348
2026-01-01 03:37:31.29	178.41	13.65	-34.0	-35.1	19.3	0.00e+00	0	59	0	2190475264	37	4371
2026-01-01 03:37:34.33	178.57	13.36	-34.1	-35.2	19.2	0.00e+00	0	59	0	2212495360	37	4424
2026-01-01 03:37:37.36	178.73	13.06	-34.2	-35.3	19.1	0.00e+00	0	59	0	2233466880	37	4454
2026-01-01 03:37:40.39	178.89	12.78	-34.4	-35.5	18.9	0.00e+00	0	59	0	2255486976	38	4340
2026-01-01 03:37:43.42	179.04	12.49	-34.5	-35.6	18.7	0.00e+00	0	59	0	2277507072	38	4385
2026-01-01 03:37:46.45	179.19	12.21	-34.7	-35.8	18.6	0.00e+00	0	59	0	2299527168	38	4462
2026-01-01 03:37:49.48	179.34	11.93	-34.8	-35.9	18.5	0.00e+00	0	59	0	2321547264	39	4271
2026-01-01 03:37:52.51	179.49	11.65	-34.9	-36.1	18.2	0.00e+00	0	59	0	2343567360	39	4373
2026-01-01 03:37:55.54	179.63	11.38	-35.1	-36.3	18.0	0.00e+00	0	59	0	2365587456	39	4463
2026-01-01 03:37:58.58	179.77	11.11	-35.1	-36.3	18.0	0.00e+00	0	59	0	2387607552	39	4471
2026-01-01 03:38:01.60	179.91	10.84	-35.1	-36.3	18.0	0.00e+00	0	59	0	2408579072	40	4209
2026-01-01 03:38:04.64	180.05	10.58	-35.1	-36.4	17.9	0.00e+00	0	59	0	2430599168	40	4244
2026-01-01 03:38:07.67	180.18	10.31	-35.0	-36.2	18.0	0.00e+00	0	59	0	2452619264	40	4188
2026-01-01 03:38:10.70	180.32	10.05	-35.2	-36.4	17.9	0.00e+00	0	59	0	2474639360	40	4255
2026-01-01 03:38:13.73	180.44	9.80	-35.2	-36.4	17.8	0.00e+00	0	59	0	2496659456	40	4252
2026-01-01 03:38:16.76	180.57	9.54	-35.1	-36.3	17.9	0.00e+00	0	59	0	2518679552	40	4234
2026-01-01 03:38:19.79	180.70	9.29	-35.4	-36.7	17.5	0.00e+00	0	59	0	2540699648	40	4399
2026-01-01 03:38:22.82	180.82	9.04	-35.4	-36.6	17.5	0.00e+00	0	59	0	2562719744	40	4390
2026-01-01 03:38:25.86	180.94	8.79	-35.3	-36.5	17.6	0.00e+00	0	59	0	2583691264	40	4335
2026-01-01 03:38:28.89	181.06	8.55	-35.6	-36.8	17.3	0.00e+00	0	59	0	2605711360	40	4483
2026-01-01 03:38:31.92	181.18	8.31	-35.6	-36.8	17.3	0.00e+00	0	59	0	2627731456	40	4485
2026-01-01 03:38:34.95	181.30	8.07	-35.5	-36.8	17.3	0.00e+00	0	59	0	2649751552	40	4463
2026-01-01 03:38:37.98	181.41	7.83	-45.2	-56.1	3.8	8.45e-01	0	59	104	2654994432	59	13762
2026-01-01 03:38:41.02	181.53	7.59	-45.3	-56.5	3.8	8.47e-01	0	59	104	2654994432	60	13639
2026-01-01 03:38:44.05	181.64	7.36	-45.4	-56.7	3.8	8.47e-01	0	59	104	2654994432	60	13894
2026-01-01 03:38:47.08	181.75	7.13	-45.4	-56.6	3.8	8.46e-01	0	59	104	2654994432	60	13765
2026-01-01 03:38:50.11	181.85	6.90	-45.4	-56.6	3.8	8.46e-01	0	59	104	2654994432	60	13761
2026-01-01 03:38:53.14	181.96	6.67	-45.4	-56.5	3.8	8.46e-01	0	59	104	2654994432	60	13611
2026-01-01 03:38:56.17	182.07	6.44	-45.3	-56.5	3.8	8.46e-01	0	59	104	2654994432	60	13702
2026-01-01 03:38:59.20	182.17	6.22	-45.3	-56.4	3.8	8.47e-01	0	59	104	2654994432	60	13479
2026-01-01 03:39:02.24	182.27	6.00	-45.3	-56.4	3.8	8.47e-01	0	59	104	2654994432	60	13525
2026-01-01 03:39:05.27	182.37	5.78	-45.3	-56.4	3.8	8.46e-01	0	59	104	2654994432	60	13511
2026-01-01 03:39:08.30	182.47	5.56	-45.3	-56.4	3.8	8.47e-01	0	59	104	2654994432	60	13523
2026-01-01 03:39:11.34	182.57	5.34	-45.3	-56.4	3.8	8.47e-01	0	59	104	2654994432	60	13505
2026-01-01 03:39:14.37	182.67	5.13	-45.3	-56.4	3.8	8.46e-01	0	59	104	2654994432	60	13457
2026-01-01 03:39:17.40	182.76	4.91	-45.3	-56.4	3.8	8.46e-01	0	59	104	2654994432	60	13476
2026-01-01 03:39:20.43	182.85	4.70	-45.3	-56.4	3.8	8.46e-01	0	59	104	2654994432	60	13450
2026-01-01 03:39:23.47	182.95	4.49	-45.3	-56.4	3.8	8.47e-01	0	59	104	2654994432	60	13467
2026-01-01 03:39:26.50	183.04	4.28	-45.3	-56.4	3.8	8.46e-01	0	59	104	2654994432	60	13511
2026-01-01 03:39:29.53	183.13	4.07	-45.2	-56.4	3.8	8.44e-01	0	59	104	2654994432	60	13455
2026-01-01 03:39:32.57	183.22	3.87	-45.3	-56.4	3.8	8.46e-01	0	59	104	2654994432	60	13494
2026-01-01 03:39:35.60	183.31	3.66	-45.2	-56.4	3.8	8.46e-01	0	59	104	2654994432	60	13480
2026-01-01 03:39:38.63	183.39	3.46	-45.3	-56.4	3.8	8.47e-01	0	59	104	2654994432	60	13558
2026-01-01 03:39:41.67	183.48	3.26	-45.2	-56.4	3.8	8.46e-01	0	59	104	2654994432	60	13460
2026-01-01 03:39:44.70	183.56	3.06	-45.3	-56.4	3.8	8.46e-01	0	59	104	2654994432	60	13466
2026-01-01 03:39:47.73	183.65	2.86	-45.3	-56.3	3.8	8.45e-01	0	59	104	2654994432	60	13407
2026-01-01 03:39:50.77	183.73	2.67	-45.2	-56.4	3.8	8.46e-01	0	59	104	2654994432	60	13492
2026-01-01 03:39:53.80	183.81	2.47	-45.2	-56.4	3.8	8.47e-01	0	59	104	2654994432	60	13457
2026-01-01 03:39:56.83	183.89	2.28	-45.2	-56.4	3.8	8.47e-01	0	59	104	2654994432	60	13452
2026-01-01 03:39:59.86	183.97	2.08	-45.2	-56.4	3.8	8.45e-01	0	59	104	2654994432	60	13472

#Closed at: 2026-01-01 03:40:01
#Recorded file [2654 MB]: D:/lorett/data/31039_260101_063136.dat