passes_logs/2026/01/01/R2.0S_Moscow/R2.0S_Moscow__20260101_131640_FENGYUN_3E_rec.log

#Pass ID: 20260101_131640_FENGYUN 3E
#Satellite: FENGYUN 3E
#Configuration: FENGYUN 3E
#almurnet v.1.7.20251203
#Start time: 2026-01-01 13:23:27

#Version: 2.2.20231116
#Station: R2.0S_Moscow
#Location: 37.707566 lon 55.798166 lat
#TLE: 1 49008U 21062A   25365.98258168  .00000149  00000+0  90987-4 0  9990
#TLE: 2 49008  98.7481   6.2763 0001360 169.3782 190.7423 14.19883270232859

#Time	Az	El	Level	Level2	SNR	BER	BlckErr	Temp	State	Recorded	gain1	gain2
2026-01-01 13:23:27.42	63.18	40.09	-44.9	-56.5	3.8	8.45e-01	0	58	0	0	60	14408
2026-01-01 13:23:29.43	62.24	40.11	-45.6	-56.8	3.8	8.47e-01	0	58	104	0	62	12591
2026-01-01 13:23:31.45	61.30	40.13	-45.5	-56.5	3.8	8.46e-01	0	58	104	0	62	12147
2026-01-01 13:23:33.48	60.35	40.13	-45.5	-56.7	3.8	8.47e-01	0	58	104	0	62	12445
2026-01-01 13:23:35.50	59.40	40.12	-45.5	-56.7	3.8	8.46e-01	0	58	104	0	62	12403
2026-01-01 13:23:37.52	58.46	40.11	-45.5	-56.6	3.8	8.45e-01	0	58	104	0	62	12329
2026-01-01 13:23:39.54	57.52	40.09	-45.5	-56.6	3.8	8.46e-01	0	58	104	0	62	12350
2026-01-01 13:23:41.56	56.57	40.05	-45.5	-56.6	3.8	8.47e-01	0	58	104	0	61	13019
2026-01-01 13:23:43.59	55.63	40.01	-45.5	-56.6	3.8	8.44e-01	0	58	104	0	61	13103
2026-01-01 13:23:45.61	54.69	39.96	-45.5	-56.6	3.8	8.46e-01	0	58	104	0	61	13085
2026-01-01 13:23:47.63	53.76	39.90	-45.5	-56.6	3.8	8.46e-01	0	58	104	0	61	13047
2026-01-01 13:23:49.65	52.83	39.84	-45.5	-56.6	3.8	8.46e-01	0	58	104	0	61	13098
2026-01-01 13:23:51.67	51.91	39.76	-45.5	-56.7	3.8	8.46e-01	0	58	104	0	61	13142
2026-01-01 13:23:53.70	50.98	39.68	-45.4	-56.5	3.8	8.44e-01	0	58	104	0	61	12834
2026-01-01 13:23:55.72	50.06	39.59	-45.4	-56.5	3.8	8.46e-01	0	58	104	0	61	12933
2026-01-01 13:23:57.74	49.15	39.49	-45.4	-56.6	3.8	8.46e-01	0	58	104	0	61	12984
2026-01-01 13:23:59.76	48.25	39.38	-45.4	-56.4	3.8	8.46e-01	0	58	104	0	61	12751
2026-01-01 13:24:01.78	47.35	39.27	-45.4	-56.6	3.8	8.46e-01	0	58	104	0	61	13052
2026-01-01 13:24:03.81	46.46	39.14	-45.4	-56.3	3.8	8.46e-01	0	58	104	0	61	12592
2026-01-01 13:24:05.83	45.57	39.01	-45.4	-56.6	3.8	8.46e-01	0	58	104	0	61	13017
2026-01-01 13:24:07.85	44.69	38.88	-45.4	-56.6	3.8	8.46e-01	0	58	104	0	61	13041
2026-01-01 13:24:09.87	43.82	38.73	-45.3	-55.4	3.8	8.46e-01	0	58	104	0	61	11416
2026-01-01 13:24:11.89	42.96	38.58	-45.4	-56.1	3.8	8.47e-01	0	58	104	0	61	12332
2026-01-01 13:24:13.91	42.11	38.42	-45.3	-55.8	3.8	8.47e-01	0	58	104	0	61	11944
2026-01-01 13:24:15.94	41.26	38.26	-45.2	-55.0	3.8	8.46e-01	0	58	104	0	61	10862
2026-01-01 13:24:17.96	40.42	38.09	-41.1	-43.5	11.6	1.29e-02	0	58	0	5242880	53	4579
2026-01-01 13:24:19.98	39.59	37.91	-33.7	-34.7	20.3	0.00e+00	0	58	0	19922944	38	3934
2026-01-01 13:24:22.00	38.78	37.73	-31.5	-32.5	21.6	0.00e+00	0	58	0	34603008	33	4052
2026-01-01 13:24:24.03	37.96	37.54	-42.4	-45.7	9.4	2.00e-04	0	58	0	49283072	54	5565
2026-01-01 13:24:26.04	37.17	37.35	-35.9	-37.1	17.9	0.00e+00	0	58	0	63963136	41	4389
2026-01-01 13:24:28.06	36.38	37.15	-31.4	-32.3	21.7	0.00e+00	0	58	0	78643200	33	3985
2026-01-01 13:24:30.08	35.60	36.95	-31.3	-32.2	21.8	0.00e+00	0	58	0	93323264	33	3933
2026-01-01 13:24:32.11	34.82	36.74	-31.3	-32.2	21.8	0.00e+00	0	58	0	108003328	33	3932
2026-01-01 13:24:34.13	34.06	36.53	-31.1	-32.0	22.0	0.00e+00	0	58	0	122683392	33	3857
2026-01-01 13:24:36.15	33.31	36.31	-30.9	-31.8	22.1	0.00e+00	0	58	0	137363456	32	3987
2026-01-01 13:24:38.17	32.57	36.09	-30.8	-31.7	22.2	0.00e+00	0	58	0	150994944	32	3941
2026-01-01 13:24:40.19	31.84	35.87	-30.9	-31.8	22.2	0.00e+00	0	58	0	165675008	32	3985
2026-01-01 13:24:42.21	31.12	35.64	-30.8	-31.7	22.3	0.00e+00	0	58	0	180355072	32	3922
2026-01-01 13:24:44.23	30.41	35.41	-30.7	-31.6	22.3	0.00e+00	0	58	0	195035136	32	3899
2026-01-01 13:24:46.25	29.71	35.17	-30.7	-31.6	22.3	0.00e+00	0	58	0	209715200	32	3899
2026-01-01 13:24:48.28	29.02	34.93	-30.6	-31.5	22.4	0.00e+00	0	58	0	224395264	32	3827
2026-01-01 13:24:50.30	28.34	34.69	-30.5	-31.4	22.3	0.00e+00	0	58	0	239075328	31	4026
2026-01-01 13:24:52.32	27.67	34.45	-30.7	-31.6	22.1	0.00e+00	0	58	0	253755392	31	4140
2026-01-01 13:24:54.34	27.01	34.21	-30.5	-31.4	22.3	0.00e+00	0	58	0	268435456	31	4039
2026-01-01 13:24:56.36	26.36	33.96	-30.3	-31.1	22.6	0.00e+00	0	58	0	283115520	31	3903
2026-01-01 13:24:58.38	25.72	33.71	-30.3	-31.1	22.6	0.00e+00	0	58	0	297795584	31	3902
2026-01-01 13:25:00.40	25.09	33.46	-30.5	-31.4	22.4	0.00e+00	0	58	0	311427072	31	4005
2026-01-01 13:25:02.42	24.48	33.20	-30.4	-31.3	22.4	0.00e+00	0	58	0	327155712	31	3965
2026-01-01 13:25:04.45	23.86	32.95	-30.3	-31.2	22.6	0.00e+00	0	58	0	340787200	31	3920
2026-01-01 13:25:06.47	23.26	32.69	-30.4	-31.3	22.4	0.00e+00	0	58	0	355467264	31	3998
2026-01-01 13:25:08.48	22.67	32.43	-30.7	-31.6	22.1	0.00e+00	0	58	0	370147328	31	4128
2026-01-01 13:25:10.50	22.09	32.17	-30.8	-31.7	22.0	0.00e+00	0	58	0	384827392	31	4192
2026-01-01 13:25:12.52	21.52	31.91	-30.6	-31.5	22.2	0.00e+00	0	58	0	399507456	31	4086
2026-01-01 13:25:14.55	20.96	31.65	-30.6	-31.4	22.3	0.00e+00	0	58	0	414187520	31	4049
2026-01-01 13:25:16.57	20.40	31.39	-30.7	-31.5	22.2	0.00e+00	0	58	0	428867584	31	4093
2026-01-01 13:25:18.59	19.86	31.13	-30.8	-31.7	22.1	0.00e+00	0	58	0	443547648	31	4154
2026-01-01 13:25:20.61	19.32	30.86	-30.9	-31.8	21.8	0.00e+00	0	58	0	458227712	31	4209
2026-01-01 13:25:22.63	18.80	30.60	-30.9	-31.8	21.9	0.00e+00	0	58	0	472907776	31	4197
2026-01-01 13:25:24.65	18.28	30.34	-30.5	-31.4	22.2	0.00e+00	0	58	0	486539264	31	4041
2026-01-01 13:25:26.67	17.77	30.07	-30.4	-31.2	22.4	0.00e+00	0	58	0	502267904	31	3947
2026-01-01 13:25:28.69	17.27	29.81	-30.6	-31.5	22.2	0.00e+00	0	58	0	515899392	31	4052
2026-01-01 13:25:30.71	16.77	29.54	-30.8	-31.7	21.9	0.00e+00	0	58	0	530579456	31	4182
2026-01-01 13:25:32.74	16.29	29.28	-30.8	-31.7	22.0	0.00e+00	0	58	0	545259520	31	4158
2026-01-01 13:25:34.76	15.81	29.02	-30.8	-31.7	22.0	0.00e+00	0	58	0	559939584	31	4157
2026-01-01 13:25:36.78	15.34	28.75	-31.1	-32.0	21.7	0.00e+00	0	58	0	574619648	31	4302
2026-01-01 13:25:38.80	14.88	28.49	-31.5	-32.4	21.4	0.00e+00	0	58	0	589299712	32	4280
2026-01-01 13:25:40.82	14.43	28.23	-31.4	-32.3	21.5	0.00e+00	0	58	0	603979776	32	4239
2026-01-01 13:25:42.84	13.98	27.96	-31.2	-32.1	21.7	0.00e+00	0	58	0	618659840	32	4125
2026-01-01 13:25:44.87	13.54	27.70	-31.0	-31.9	21.9	0.00e+00	0	58	0	632291328	32	4036
2026-01-01 13:25:46.89	13.11	27.44	-31.1	-32.0	21.8	0.00e+00	0	58	0	648019968	32	4070
2026-01-01 13:25:48.91	12.68	27.18	-31.2	-32.1	21.7	0.00e+00	0	58	0	661651456	32	4122
2026-01-01 13:25:50.93	12.26	26.92	-31.3	-32.2	21.6	0.00e+00	0	58	0	676331520	32	4162
2026-01-01 13:25:52.95	11.85	26.66	-31.1	-32.0	21.8	0.00e+00	0	58	0	691011584	32	4084
2026-01-01 13:25:54.97	11.45	26.41	-30.9	-31.8	22.0	0.00e+00	0	58	0	705691648	32	3976
2026-01-01 13:25:56.99	11.05	26.15	-30.9	-31.8	22.0	0.00e+00	0	58	0	720371712	32	3997
2026-01-01 13:25:59.01	10.66	25.89	-31.2	-32.1	21.7	0.00e+00	0	58	0	735051776	32	4112
2026-01-01 13:26:01.03	10.28	25.64	-31.4	-32.3	21.4	0.00e+00	0	58	0	749731840	32	4210
2026-01-01 13:26:03.05	9.90	25.38	-31.2	-32.2	21.7	0.00e+00	0	58	0	764411904	32	4148
2026-01-01 13:26:05.07	9.53	25.13	-31.1	-32.0	21.7	0.00e+00	0	58	0	779091968	32	4088
2026-01-01 13:26:07.10	9.16	24.88	-31.0	-31.9	21.8	0.00e+00	0	58	0	793772032	32	4051
2026-01-01 13:26:09.12	8.80	24.63	-31.1	-32.0	21.8	0.00e+00	0	58	0	807403520	32	4066
2026-01-01 13:26:11.14	8.44	24.38	-31.1	-32.0	21.8	0.00e+00	0	58	0	823132160	32	4059
2026-01-01 13:26:13.15	8.10	24.13	-31.1	-32.0	21.7	0.00e+00	0	58	0	836763648	32	4091
2026-01-01 13:26:15.17	7.75	23.88	-31.3	-32.2	21.6	0.00e+00	0	58	0	851443712	32	4180
2026-01-01 13:26:17.20	7.41	23.64	-31.4	-32.4	21.4	0.00e+00	0	58	0	866123776	32	4254
2026-01-01 13:26:19.22	7.08	23.39	-31.4	-32.4	21.4	0.00e+00	0	58	0	880803840	32	4246
2026-01-01 13:26:21.24	6.75	23.15	-31.3	-32.2	21.6	0.00e+00	0	58	0	895483904	32	4159
2026-01-01 13:26:23.26	6.43	22.91	-31.2	-32.1	21.6	0.00e+00	0	58	0	910163968	32	4101
2026-01-01 13:26:25.28	6.11	22.67	-31.3	-32.2	21.6	0.00e+00	0	58	0	924844032	32	4163
2026-01-01 13:26:27.30	5.80	22.43	-31.5	-32.5	21.3	0.00e+00	0	58	0	939524096	32	4310
2026-01-01 13:26:29.32	5.49	22.19	-31.7	-32.6	21.1	0.00e+00	0	58	0	954204160	32	4391
2026-01-01 13:26:31.34	5.19	21.95	-31.7	-32.7	21.1	0.00e+00	0	58	0	968884224	33	4148
2026-01-01 13:26:33.37	4.89	21.72	-31.8	-32.8	20.8	0.00e+00	0	58	0	982515712	33	4197
2026-01-01 13:26:35.38	4.60	21.48	-31.8	-32.7	21.0	0.00e+00	0	58	0	997195776	33	4185
2026-01-01 13:26:37.41	4.31	21.25	-32.0	-33.0	20.7	0.00e+00	0	58	0	1011875840	33	4320
2026-01-01 13:26:39.43	4.03	21.02	-32.3	-33.3	20.4	0.00e+00	0	58	0	1026555904	34	4228
2026-01-01 13:26:41.45	3.75	20.79	-32.0	-33.0	20.7	0.00e+00	0	58	0	1041235968	34	4071
2026-01-01 13:26:43.47	3.47	20.56	-31.9	-32.8	20.8	0.00e+00	0	58	0	1055916032	34	4002
2026-01-01 13:26:45.49	3.20	20.33	-31.9	-32.8	20.8	0.00e+00	0	58	0	1070596096	34	3995
2026-01-01 13:26:47.51	2.93	20.11	-31.9	-32.9	20.8	0.00e+00	0	58	0	1085276160	34	4012
2026-01-01 13:26:49.53	2.67	19.88	-32.2	-33.2	20.5	0.00e+00	0	58	0	1099956224	34	4167
2026-01-01 13:26:51.55	2.41	19.66	-32.5	-33.5	20.2	0.00e+00	0	58	0	1114636288	34	4311
2026-01-01 13:26:53.57	2.15	19.44	-32.6	-33.7	20.0	0.00e+00	0	58	0	1129316352	34	4397
2026-01-01 13:26:55.59	1.90	19.22	-32.8	-33.8	19.9	0.00e+00	0	58	0	1143996416	35	4207
2026-01-01 13:26:57.61	1.65	19.00	-32.7	-33.7	19.9	0.00e+00	0	58	0	1157627904	35	4182
2026-01-01 13:26:59.63	1.41	18.78	-32.8	-33.8	19.8	0.00e+00	0	58	0	1172307968	35	4231
2026-01-01 13:27:01.65	1.17	18.57	-32.5	-33.5	20.1	0.00e+00	0	58	0	1186988032	35	4082
2026-01-01 13:27:03.67	0.93	18.35	-32.7	-33.7	19.8	0.00e+00	0	58	0	1201668096	35	4151
2026-01-01 13:27:05.69	0.69	18.14	-32.6	-33.6	20.0	0.00e+00	0	58	0	1216348160	35	4109
2026-01-01 13:27:07.72	0.46	17.92	-32.6	-33.6	19.9	0.00e+00	0	58	0	1231028224	35	4119
2026-01-01 13:27:09.74	0.23	17.71	-32.7	-33.7	19.8	0.00e+00	0	58	0	1245708288	35	4172
2026-01-01 13:27:11.76	0.01	17.50	-32.6	-33.7	19.9	0.00e+00	0	58	0	1260388352	35	4146
2026-01-01 13:27:13.78	359.79	17.30	-32.6	-33.6	19.9	0.00e+00	0	58	0	1275068416	35	4133
2026-01-01 13:27:15.80	359.57	17.09	-32.6	-33.7	19.8	0.00e+00	0	58	0	1289748480	35	4152
2026-01-01 13:27:17.82	359.36	16.88	-32.8	-33.9	19.6	0.00e+00	0	58	0	1304428544	35	4243
2026-01-01 13:27:19.84	359.14	16.68	-32.9	-33.9	19.6	0.00e+00	0	58	0	1318060032	35	4281
2026-01-01 13:27:21.86	358.94	16.48	-32.9	-34.0	19.5	0.00e+00	0	58	0	1332740096	35	4304
2026-01-01 13:27:23.88	358.73	16.27	-33.0	-34.0	19.4	0.00e+00	0	58	0	1347420160	35	4331
2026-01-01 13:27:25.90	358.53	16.07	-33.1	-34.2	19.2	0.00e+00	0	58	0	1362100224	35	4397
2026-01-01 13:27:27.92	358.33	15.87	-33.0	-34.1	19.3	0.00e+00	0	58	0	1376780288	35	4359
2026-01-01 13:27:29.94	358.13	15.68	-32.9	-33.9	19.4	0.00e+00	0	58	0	1391460352	35	4284
2026-01-01 13:27:31.96	357.93	15.48	-32.9	-34.0	19.3	0.00e+00	0	58	0	1406140416	35	4320
2026-01-01 13:27:33.98	357.74	15.28	-33.9	-35.0	19.0	0.00e+00	0	58	0	1420820480	37	4329
2026-01-01 13:27:36.00	357.55	15.09	-33.9	-35.0	18.9	0.00e+00	0	58	0	1435500544	37	4319
2026-01-01 13:27:38.02	357.36	14.90	-33.6	-34.7	19.1	0.00e+00	0	58	0	1449132032	37	4172
2026-01-01 13:27:40.04	357.18	14.71	-33.3	-34.4	19.4	0.00e+00	0	58	0	1464860672	37	4013
2026-01-01 13:27:42.06	357.00	14.52	-33.2	-34.3	19.3	0.00e+00	0	58	0	1478492160	37	3977
2026-01-01 13:27:44.08	356.82	14.33	-33.3	-34.4	18.9	0.00e+00	0	58	0	1493172224	37	4037
2026-01-01 13:27:46.09	356.64	14.14	-33.9	-35.1	18.0	0.00e+00	0	58	0	1507852288	37	4359
2026-01-01 13:27:48.11	356.46	13.95	-34.7	-36.0	16.7	0.00e+00	0	58	0	1522532352	38	4591
2026-01-01 13:27:50.14	356.29	13.77	-35.9	-37.6	14.6	0.00e+00	0	58	0	1537212416	41	4642
2026-01-01 13:27:52.16	356.12	13.58	-37.0	-39.2	12.5	8.81e-05	0	58	0	1551892480	43	4949
2026-01-01 13:27:54.18	355.95	13.40	-38.1	-41.1	10.2	4.36e-03	0	58	0	1566572544	45	5491
2026-01-01 13:27:56.20	355.79	13.21	-39.2	-43.5	7.3	1.04e-01	0	58	0	1581252608	47	6455
2026-01-01 13:27:58.22	355.62	13.03	-39.6	-45.1	5.8	4.02e-01	0	58	0	1595932672	48	7331
2026-01-01 13:28:00.24	355.46	12.85	-39.9	-46.7	4.7	8.02e-01	0	58	0	1599078400	49	8276
2026-01-01 13:28:02.26	355.30	12.67	-40.1	-48.7	3.9	8.41e-01	0	58	104	1599078400	49	10466
2026-01-01 13:28:04.29	355.14	12.50	-40.3	-50.2	3.8	8.47e-01	0	58	104	1599078400	50	11759
2026-01-01 13:28:06.31	354.98	12.32	-40.4	-51.0	3.8	8.47e-01	0	58	104	1599078400	50	12935
2026-01-01 13:28:08.33	354.83	12.14	-40.4	-51.3	3.8	8.47e-01	0	58	104	1599078400	50	13404
2026-01-01 13:28:10.35	354.68	11.97	-40.0	-50.9	3.8	8.46e-01	0	58	104	1599078400	50	12810
2026-01-01 13:28:12.37	354.53	11.79	-40.4	-51.3	3.8	8.45e-01	0	58	104	1599078400	50	13359
2026-01-01 13:28:14.39	354.38	11.62	-40.4	-51.4	3.8	8.46e-01	0	58	104	1599078400	50	13462
2026-01-01 13:28:16.41	354.23	11.45	-40.0	-50.9	3.8	8.46e-01	0	58	104	1599078400	50	12795
2026-01-01 13:28:18.43	354.09	11.28	-39.9	-50.9	3.8	8.47e-01	0	58	104	1599078400	50	12805
2026-01-01 13:28:20.45	353.94	11.11	-39.8	-51.0	3.8	8.47e-01	0	58	104	1599078400	50	12856
2026-01-01 13:28:22.47	353.80	10.94	-39.7	-51.1	3.8	8.46e-01	0	58	104	1599078400	50	13063
2026-01-01 13:28:24.49	353.66	10.77	-39.9	-51.0	3.8	8.46e-01	0	58	104	1599078400	50	12825
2026-01-01 13:28:26.51	353.53	10.61	-40.1	-51.0	3.8	8.46e-01	0	58	104	1599078400	50	12907
2026-01-01 13:28:28.52	353.39	10.44	-40.0	-51.0	3.8	8.47e-01	0	58	104	1599078400	50	12887
2026-01-01 13:28:30.55	353.25	10.27	-39.9	-51.1	3.8	8.46e-01	0	58	104	1599078400	50	13023
2026-01-01 13:28:32.57	353.12	10.11	-40.3	-51.2	3.8	8.46e-01	0	58	104	1599078400	50	13141
2026-01-01 13:28:34.59	352.99	9.95	-40.5	-51.4	3.8	8.46e-01	0	58	104	1599078400	50	13523
2026-01-01 13:28:36.61	352.86	9.79	-40.0	-51.0	3.8	8.46e-01	0	58	104	1599078400	50	12875
2026-01-01 13:28:38.63	352.73	9.62	-40.0	-51.0	3.8	8.46e-01	0	58	104	1599078400	50	12825
2026-01-01 13:28:40.65	352.60	9.46	-40.1	-51.1	3.8	8.46e-01	0	58	104	1599078400	50	13033
2026-01-01 13:28:42.67	352.48	9.30	-40.7	-51.6	3.8	8.47e-01	0	58	104	1599078400	50	13799
2026-01-01 13:28:44.69	352.35	9.15	-40.6	-51.4	3.8	8.46e-01	0	58	104	1599078400	51	12808
2026-01-01 13:28:46.71	352.23	8.99	-40.7	-51.6	3.8	8.46e-01	0	58	104	1599078400	51	12984
2026-01-01 13:28:48.73	352.11	8.83	-40.7	-51.7	3.8	8.45e-01	0	58	104	1599078400	51	13131
2026-01-01 13:28:50.75	351.99	8.68	-40.7	-51.6	3.8	8.47e-01	0	58	104	1599078400	51	13031
2026-01-01 13:28:52.77	351.87	8.52	-40.7	-51.6	3.8	8.46e-01	0	58	104	1599078400	51	13035
2026-01-01 13:28:54.80	351.75	8.37	-40.6	-51.5	3.8	8.47e-01	0	58	104	1599078400	51	12908
2026-01-01 13:28:56.82	351.64	8.21	-40.6	-51.5	3.8	8.46e-01	0	58	104	1599078400	51	12934
2026-01-01 13:28:58.84	351.52	8.06	-40.8	-51.7	3.8	8.46e-01	0	58	104	1599078400	51	13166
2026-01-01 13:29:00.86	351.41	7.91	-40.9	-51.8	3.8	8.46e-01	0	58	104	1599078400	51	13404
2026-01-01 13:29:02.88	351.30	7.76	-45.1	-56.1	3.8	8.47e-01	0	58	104	1599078400	59	13728
2026-01-01 13:29:04.90	351.19	7.61	-45.3	-56.5	3.8	8.46e-01	0	58	104	1599078400	60	13606
2026-01-01 13:29:06.92	351.08	7.46	-45.4	-56.6	3.8	8.47e-01	0	58	104	1599078400	60	13839
2026-01-01 13:29:08.95	350.97	7.31	-45.4	-56.6	3.8	8.46e-01	0	58	104	1599078400	60	13865
2026-01-01 13:29:10.97	350.86	7.16	-45.4	-56.7	3.8	8.45e-01	0	58	104	1599078400	60	13895
2026-01-01 13:29:12.99	350.76	7.01	-45.4	-56.6	3.8	8.45e-01	0	58	104	1599078400	60	13734
2026-01-01 13:29:15.01	350.65	6.86	-45.4	-56.5	3.8	8.47e-01	0	59	104	1599078400	60	13710
2026-01-01 13:29:17.03	350.55	6.72	-45.3	-56.4	3.8	8.47e-01	0	59	104	1599078400	60	13567
2026-01-01 13:29:19.05	350.44	6.57	-45.3	-56.5	3.8	8.46e-01	0	58	104	1599078400	60	13591
2026-01-01 13:29:21.08	350.34	6.43	-45.3	-56.5	3.8	8.45e-01	0	58	104	1599078400	60	13606
2026-01-01 13:29:23.10	350.24	6.29	-45.3	-56.5	3.8	8.46e-01	0	58	104	1599078400	60	13603
2026-01-01 13:29:25.12	350.14	6.14	-45.3	-56.5	3.8	8.46e-01	0	58	104	1599078400	60	13573
2026-01-01 13:29:27.14	350.04	6.00	-45.3	-56.5	3.8	8.46e-01	0	58	104	1599078400	60	13591
2026-01-01 13:29:29.16	349.95	5.86	-45.3	-56.4	3.8	8.46e-01	0	58	104	1599078400	60	13543
2026-01-01 13:29:31.18	349.85	5.72	-45.3	-56.4	3.8	8.46e-01	0	58	104	1599078400	60	13562
2026-01-01 13:29:33.21	349.75	5.58	-45.3	-56.4	3.8	8.45e-01	0	58	104	1599078400	60	13537
2026-01-01 13:29:35.23	349.66	5.44	-45.3	-56.4	3.8	8.46e-01	0	59	104	1599078400	60	13522
2026-01-01 13:29:37.25	349.57	5.30	-45.3	-56.4	3.8	8.47e-01	0	58	104	1599078400	60	13498
2026-01-01 13:29:39.27	349.47	5.16	-45.3	-56.4	3.8	8.46e-01	0	58	104	1599078400	60	13484
2026-01-01 13:29:41.30	349.38	5.02	-45.3	-56.4	3.8	8.46e-01	0	58	104	1599078400	60	13552
2026-01-01 13:29:43.32	349.29	4.89	-45.3	-56.4	3.8	8.45e-01	0	58	104	1599078400	60	13497
2026-01-01 13:29:45.34	349.20	4.75	-45.3	-56.5	3.8	8.46e-01	0	59	104	1599078400	60	13599
2026-01-01 13:29:47.36	349.11	4.61	-45.3	-56.4	3.8	8.48e-01	0	59	104	1599078400	60	13501
2026-01-01 13:29:49.38	349.03	4.48	-45.3	-56.4	3.8	8.47e-01	0	58	104	1599078400	60	13541
2026-01-01 13:29:51.41	348.94	4.34	-45.3	-56.4	3.8	8.47e-01	0	58	104	1599078400	60	13552
2026-01-01 13:29:53.43	348.85	4.21	-45.3	-56.5	3.8	8.46e-01	0	59	104	1599078400	60	13587
2026-01-01 13:29:55.45	348.77	4.08	-45.3	-56.4	3.8	8.46e-01	0	58	104	1599078400	60	13464
2026-01-01 13:29:57.47	348.68	3.94	-45.3	-56.4	3.8	8.47e-01	0	59	104	1599078400	60	13503
2026-01-01 13:29:59.50	348.60	3.81	-45.3	-56.4	3.8	8.46e-01	0	59	104	1599078400	60	13549
2026-01-01 13:30:01.52	348.52	3.68	-45.3	-56.4	3.8	8.47e-01	0	58	104	1599078400	60	13493
2026-01-01 13:30:03.54	348.43	3.55	-45.3	-56.4	3.8	8.47e-01	0	59	104	1599078400	60	13525
2026-01-01 13:30:05.56	348.35	3.42	-45.3	-56.4	3.8	8.47e-01	0	59	104	1599078400	60	13489
2026-01-01 13:30:07.58	348.27	3.29	-45.3	-56.4	3.8	8.47e-01	0	59	104	1599078400	60	13503
2026-01-01 13:30:09.60	348.19	3.16	-45.3	-56.4	3.8	8.46e-01	0	59	104	1599078400	60	13557
2026-01-01 13:30:11.62	348.11	3.03	-45.3	-56.4	3.8	8.45e-01	0	58	104	1599078400	60	13491
2026-01-01 13:30:13.65	348.04	2.90	-45.3	-56.4	3.8	8.46e-01	0	58	104	1599078400	60	13508
2026-01-01 13:30:15.67	347.96	2.77	-45.3	-56.4	3.8	8.46e-01	0	58	104	1599078400	60	13515
2026-01-01 13:30:17.69	347.88	2.65	-45.3	-56.4	3.8	8.46e-01	0	58	104	1599078400	60	13472
2026-01-01 13:30:19.71	347.81	2.52	-45.3	-56.4	3.8	8.47e-01	0	58	104	1599078400	60	13489
2026-01-01 13:30:21.73	347.73	2.39	-45.3	-56.4	3.8	8.47e-01	0	58	104	1599078400	60	13513
2026-01-01 13:30:23.75	347.66	2.27	-45.3	-56.4	3.8	8.45e-01	0	58	104	1599078400	60	13458
2026-01-01 13:30:25.78	347.58	2.14	-45.3	-56.4	3.8	8.47e-01	0	58	104	1599078400	60	13444
2026-01-01 13:30:27.80	347.51	2.02	-45.3	-56.4	3.8	8.45e-01	0	58	104	1599078400	60	13525

#Closed at: 2026-01-01 13:30:28
#Recorded file [1599 MB]: D:/lorett/data/31039_260101_162327.dat