passes_logs/2026/01/01/R2.0S_Moscow/R2.0S_Moscow__20260101_000712_NOAA_21_JPSS-2_rec.log

#Pass ID: 20260101_000712_NOAA 21 (JPSS-2)
#Satellite: NOAA 21 (JPSS-2)
#Configuration: NOAA-21
#almurnet v.1.7.20251203
#Start time: 2026-01-01 00:10:37

#Version: 2.2.20231116
#Station: R2.0S_Moscow
#Location: 37.707566 lon 55.798166 lat
#TLE: 1 54234U 22150A   25365.42224288  .00000199  00000+0  11529-3 0  9990
#TLE: 2 54234  98.7483 301.4995 0001320 356.2106   3.9060 14.19530300162743

#Time	Az	El	Level	Level2	SNR	BER	BlckErr	Temp	State	Recorded	gain1	gain2
2026-01-01 00:10:37.64	7.64	19.85	-44.9	-56.5	3.8	8.46e-01	0	58	0	0	61	13719
2026-01-01 00:10:40.66	7.45	20.23	-45.3	-57.7	3.8	1.49e+00	0	58	104	0	62	14733
2026-01-01 00:10:43.69	7.25	20.61	-45.1	-57.5	3.8	1.49e+00	0	58	104	0	62	14507
2026-01-01 00:10:46.73	7.05	21.01	-44.9	-57.1	3.8	1.49e+00	0	58	104	0	61	14595
2026-01-01 00:10:49.76	6.84	21.41	-44.9	-56.7	3.8	1.49e+00	0	58	104	0	61	14013
2026-01-01 00:10:52.80	6.63	21.81	-44.9	-56.4	3.8	1.49e+00	0	58	104	0	61	13489
2026-01-01 00:10:55.83	6.41	22.23	-44.9	-56.8	3.8	1.49e+00	0	58	104	0	61	14124
2026-01-01 00:10:58.86	6.19	22.64	-44.9	-57.2	3.8	1.49e+00	0	58	104	0	61	14789
2026-01-01 00:11:01.89	5.95	23.07	-44.9	-57.1	3.8	1.49e+00	0	58	104	0	61	14687
2026-01-01 00:11:04.93	5.71	23.50	-44.8	-56.4	3.8	1.49e+00	0	59	104	0	61	13424
2026-01-01 00:11:07.96	5.47	23.94	-44.8	-55.8	3.8	1.49e+00	0	58	104	0	61	12542
2026-01-01 00:11:10.99	5.21	24.38	-44.9	-56.8	3.8	1.49e+00	0	58	104	0	61	14092
2026-01-01 00:11:14.03	4.95	24.84	-44.9	-57.2	3.8	1.49e+00	0	59	104	0	61	14869
2026-01-01 00:11:17.06	4.68	25.29	-44.8	-56.3	3.8	1.49e+00	0	58	104	0	61	13330
2026-01-01 00:11:20.09	4.41	25.76	-44.6	-54.6	4.0	1.48e+00	0	58	104	0	61	10980
2026-01-01 00:11:23.13	4.12	26.23	-43.9	-50.2	5.8	4.90e-01	0	58	0	1048576	59	7457
2026-01-01 00:11:26.16	3.83	26.72	-39.7	-41.9	14.0	1.52e-05	0	58	0	10485760	51	4525
2026-01-01 00:11:29.19	3.52	27.20	-36.9	-38.4	17.4	0.00e+00	0	58	0	19922944	45	4261
2026-01-01 00:11:32.22	3.21	27.70	-37.6	-39.2	16.6	0.00e+00	0	59	0	29360128	45	4656
2026-01-01 00:11:35.25	2.88	28.21	-43.5	-48.6	7.0	3.47e-01	0	59	0	38797312	58	6568
2026-01-01 00:11:38.29	2.55	28.72	-37.5	-39.1	16.7	0.00e+00	0	58	0	48234496	46	4344
2026-01-01 00:11:41.32	2.20	29.24	-36.8	-38.2	17.6	0.00e+00	0	58	0	57671680	45	4166
2026-01-01 00:11:44.35	1.84	29.77	-36.5	-37.8	18.0	0.00e+00	0	58	0	67108864	44	4230
2026-01-01 00:11:47.38	1.47	30.31	-36.4	-37.8	18.0	0.00e+00	0	58	0	76546048	44	4216
2026-01-01 00:11:50.41	1.09	30.86	-36.2	-37.5	18.3	0.00e+00	0	58	0	85983232	44	4075
2026-01-01 00:11:53.44	0.69	31.42	-36.2	-37.6	18.2	0.00e+00	0	58	0	96468992	44	4114
2026-01-01 00:11:56.48	0.27	31.98	-36.4	-37.8	18.0	0.00e+00	0	58	0	105906176	44	4227
2026-01-01 00:11:59.51	359.85	32.56	-36.7	-38.1	17.7	0.00e+00	0	58	0	115343360	44	4386
2026-01-01 00:12:02.54	359.40	33.14	-36.7	-38.1	17.7	0.00e+00	0	58	0	124780544	44	4379
2026-01-01 00:12:05.57	358.94	33.74	-36.7	-38.0	17.8	0.00e+00	0	58	0	134217728	44	4339
2026-01-01 00:12:08.60	358.47	34.34	-37.0	-38.5	17.4	0.00e+00	0	58	0	143654912	44	4549
2026-01-01 00:12:11.64	357.97	34.96	-37.4	-38.9	17.0	0.00e+00	0	58	0	153092096	45	4530
2026-01-01 00:12:14.67	357.45	35.58	-38.0	-39.6	16.3	0.00e+00	0	58	0	162529280	46	4640
2026-01-01 00:12:17.70	356.92	36.21	-38.3	-40.1	15.8	0.00e+00	0	58	0	171966464	47	4640
2026-01-01 00:12:20.73	356.36	36.85	-38.4	-40.2	15.7	0.00e+00	0	58	0	181403648	47	4654
2026-01-01 00:12:23.76	355.78	37.50	-38.5	-40.3	15.6	0.00e+00	0	58	0	190840832	47	4759
2026-01-01 00:12:26.79	355.17	38.16	-38.8	-40.7	15.3	0.00e+00	0	58	0	200278016	48	4658
2026-01-01 00:12:29.82	354.54	38.83	-38.8	-40.6	15.4	0.00e+00	0	58	0	209715200	48	4629
2026-01-01 00:12:32.85	353.88	39.51	-39.1	-41.1	14.9	0.00e+00	0	58	0	219152384	48	4888
2026-01-01 00:12:35.88	353.19	40.20	-38.7	-40.5	15.5	7.00e-07	0	58	0	228589568	48	4597
2026-01-01 00:12:38.91	352.48	40.90	-37.8	-39.4	16.5	0.00e+00	0	58	0	238026752	47	4277
2026-01-01 00:12:41.94	351.73	41.60	-38.2	-39.9	16.0	0.00e+00	0	58	0	247463936	47	4534
2026-01-01 00:12:44.98	350.94	42.32	-38.6	-40.4	15.6	0.00e+00	0	58	0	256901120	47	4770
2026-01-01 00:12:48.01	350.12	43.04	-38.6	-40.5	15.4	0.00e+00	0	58	0	266338304	47	4827
2026-01-01 00:12:51.04	349.26	43.77	-39.2	-41.1	15.0	0.00e+00	0	58	0	275775488	48	4887
2026-01-01 00:12:54.07	348.36	44.50	-39.2	-41.2	14.8	0.00e+00	0	58	0	285212672	49	4666
2026-01-01 00:12:57.10	347.42	45.24	-38.6	-40.3	15.8	0.00e+00	0	58	0	294649856	49	4232
2026-01-01 00:13:00.13	346.43	45.98	-38.4	-40.1	15.9	0.00e+00	0	58	0	304087040	48	4378
2026-01-01 00:13:03.16	345.40	46.73	-38.0	-39.6	16.3	0.00e+00	0	58	0	313524224	48	4139
2026-01-01 00:13:06.19	344.31	47.48	-38.2	-39.9	16.0	0.00e+00	0	58	0	322961408	47	4512
2026-01-01 00:13:09.23	343.17	48.23	-38.2	-40.0	16.0	0.00e+00	0	58	0	332398592	47	4556
2026-01-01 00:13:12.26	341.97	48.99	-38.6	-40.4	15.6	0.00e+00	0	58	0	341835776	47	4789
2026-01-01 00:13:15.29	340.71	49.74	-38.9	-40.7	15.3	0.00e+00	0	58	0	351272960	48	4694
2026-01-01 00:13:18.32	339.38	50.48	-38.6	-40.3	15.8	0.00e+00	0	58	0	360710144	48	4488
2026-01-01 00:13:21.36	337.99	51.23	-38.7	-40.5	15.6	0.00e+00	0	58	0	371195904	48	4550
2026-01-01 00:13:24.38	336.53	51.96	-38.3	-40.0	16.1	0.00e+00	0	58	0	379584512	48	4300
2026-01-01 00:13:27.41	335.00	52.68	-37.5	-39.0	17.0	0.00e+00	0	58	0	390070272	47	4083
2026-01-01 00:13:30.44	333.38	53.40	-37.0	-38.4	17.5	0.00e+00	0	58	0	398458880	45	4290
2026-01-01 00:13:33.47	331.69	54.10	-37.1	-38.6	17.4	0.00e+00	0	58	0	408944640	45	4347
2026-01-01 00:13:36.51	329.90	54.78	-37.2	-38.7	17.2	0.00e+00	0	58	0	418381824	45	4427
2026-01-01 00:13:39.54	328.04	55.44	-37.0	-38.5	17.5	0.00e+00	0	58	0	427819008	45	4301
2026-01-01 00:13:42.57	326.08	56.08	-37.1	-38.6	17.1	0.00e+00	0	58	0	437256192	45	4353
2026-01-01 00:13:45.60	324.04	56.69	-36.3	-37.7	18.2	0.00e+00	0	58	0	446693376	44	4151
2026-01-01 00:13:48.63	321.90	57.27	-36.6	-38.0	17.9	0.00e+00	0	58	0	456130560	44	4328
2026-01-01 00:13:51.66	319.68	57.82	-35.8	-37.1	18.6	0.00e+00	0	58	0	465567744	43	4101
2026-01-01 00:13:54.69	317.36	58.33	-36.0	-37.3	18.3	0.00e+00	0	58	0	475004928	43	4221
2026-01-01 00:13:57.73	314.95	58.79	-35.9	-37.2	18.4	0.00e+00	0	58	0	484442112	43	4172
2026-01-01 00:14:00.75	312.48	59.22	-35.1	-36.3	19.3	0.00e+00	0	58	0	493879296	42	3985
2026-01-01 00:14:03.78	309.92	59.59	-35.4	-36.6	18.9	0.00e+00	0	58	0	503316480	42	4137
2026-01-01 00:14:06.81	307.29	59.91	-35.3	-36.5	19.1	0.00e+00	0	58	0	512753664	42	4057
2026-01-01 00:14:09.85	304.58	60.18	-35.7	-37.0	18.7	0.00e+00	0	58	0	522190848	42	4305
2026-01-01 00:14:12.87	301.85	60.39	-35.3	-36.6	19.0	0.00e+00	0	58	0	531628032	42	4108
2026-01-01 00:14:15.91	299.06	60.54	-35.2	-36.4	19.2	0.00e+00	0	58	0	541065216	42	4013
2026-01-01 00:14:18.94	296.24	60.63	-35.3	-36.5	19.1	0.00e+00	0	58	0	550502400	42	4089
2026-01-01 00:14:21.97	293.42	60.66	-35.5	-36.8	18.7	0.00e+00	0	58	0	559939584	42	4201
2026-01-01 00:14:25.00	290.60	60.63	-35.5	-36.8	18.7	0.00e+00	0	58	0	569376768	42	4222
2026-01-01 00:14:28.03	287.79	60.53	-35.6	-36.9	18.7	0.00e+00	0	58	0	578813952	42	4260
2026-01-01 00:14:31.06	285.00	60.38	-35.5	-36.7	18.8	0.00e+00	0	58	0	588251136	42	4179
2026-01-01 00:14:34.09	282.26	60.17	-35.9	-37.2	18.4	0.00e+00	0	58	0	597688320	42	4422
2026-01-01 00:14:37.12	279.57	59.89	-37.0	-38.5	17.3	0.00e+00	0	58	0	607125504	44	4572
2026-01-01 00:14:40.15	276.94	59.57	-36.5	-37.9	18.0	0.00e+00	0	58	0	616562688	44	4275
2026-01-01 00:14:43.18	274.38	59.19	-36.1	-37.4	18.4	0.00e+00	0	58	0	625999872	44	4039
2026-01-01 00:14:46.22	271.89	58.77	-36.2	-37.6	18.1	0.00e+00	0	58	0	635437056	44	4115
2026-01-01 00:14:49.25	269.49	58.29	-36.6	-38.0	17.8	0.00e+00	0	58	0	644874240	44	4328
2026-01-01 00:14:52.28	267.18	57.78	-36.6	-38.0	17.8	0.00e+00	0	58	0	654311424	44	4339
2026-01-01 00:14:55.31	264.95	57.23	-36.6	-38.0	17.8	0.00e+00	0	58	0	664797184	44	4292
2026-01-01 00:14:58.34	262.82	56.65	-36.2	-37.6	18.2	0.00e+00	0	58	0	674234368	44	4101
2026-01-01 00:15:01.37	260.78	56.04	-36.5	-37.9	17.9	0.00e+00	0	58	0	683671552	44	4256
2026-01-01 00:15:04.40	258.83	55.39	-37.8	-39.5	16.3	0.00e+00	0	58	0	693108736	46	4550
2026-01-01 00:15:07.44	256.96	54.73	-36.8	-38.2	17.6	0.00e+00	0	58	0	702545920	45	4183
2026-01-01 00:15:10.47	255.18	54.04	-38.4	-40.2	15.8	0.00e+00	0	58	0	711983104	47	4652
2026-01-01 00:15:13.50	253.49	53.34	-38.2	-39.9	16.0	0.00e+00	0	58	0	721420288	48	4288
2026-01-01 00:15:16.53	251.87	52.62	-36.9	-38.3	17.4	0.00e+00	0	58	0	730857472	45	4240
2026-01-01 00:15:19.56	250.34	51.90	-39.6	-41.7	14.1	1.50e-06	0	58	0	740294656	49	4968
2026-01-01 00:15:22.59	248.88	51.16	-38.4	-40.1	15.7	0.00e+00	0	58	0	749731840	48	4375
2026-01-01 00:15:25.62	247.49	50.41	-38.1	-39.7	16.1	0.00e+00	0	58	0	759169024	47	4425
2026-01-01 00:15:28.65	246.17	49.66	-39.7	-41.8	14.0	1.50e-06	0	58	0	768606208	50	4744
2026-01-01 00:15:31.68	244.91	48.91	-38.5	-40.3	15.7	0.00e+00	0	58	0	778043392	49	4208
2026-01-01 00:15:34.72	243.71	48.15	-39.7	-41.8	14.2	1.50e-06	0	58	0	787480576	50	4706
2026-01-01 00:15:37.75	242.57	47.40	-39.4	-41.5	14.5	7.00e-07	0	58	0	796917760	50	4560
2026-01-01 00:15:40.78	241.48	46.65	-37.2	-38.7	17.0	0.00e+00	0	58	0	806354944	46	4161
2026-01-01 00:15:43.81	240.44	45.90	-38.6	-40.5	15.3	0.00e+00	0	58	0	815792128	47	4821
2026-01-01 00:15:46.84	239.46	45.15	-39.5	-41.6	14.4	1.50e-06	0	58	0	825229312	50	4629
2026-01-01 00:15:49.87	238.52	44.41	-38.4	-40.2	15.5	0.00e+00	0	58	0	834666496	48	4404
2026-01-01 00:15:52.90	237.62	43.67	-37.6	-39.1	16.7	0.00e+00	0	58	0	844103680	46	4364
2026-01-01 00:15:55.94	236.76	42.94	-40.1	-42.5	13.3	7.60e-06	0	58	0	853540864	50	5129
2026-01-01 00:15:58.97	235.94	42.22	-39.9	-42.1	13.7	9.90e-06	0	58	0	862978048	51	4610
2026-01-01 00:16:02.00	235.15	41.50	-39.1	-41.0	14.9	0.00e+00	0	58	0	872415232	49	4580
2026-01-01 00:16:05.03	234.40	40.80	-39.3	-41.3	14.7	0.00e+00	0	58	0	881852416	49	4741
2026-01-01 00:16:08.06	233.69	40.10	-38.8	-40.7	15.3	0.00e+00	0	58	0	891289600	49	4400
2026-01-01 00:16:11.09	233.00	39.41	-39.5	-41.7	14.2	2.20e-06	0	58	0	900726784	49	4941
2026-01-01 00:16:14.12	232.34	38.73	-38.5	-40.3	15.6	0.00e+00	0	58	0	910163968	49	4217
2026-01-01 00:16:17.16	231.71	38.05	-38.7	-40.5	15.4	0.00e+00	0	58	0	919601152	48	4560
2026-01-01 00:16:20.19	231.10	37.39	-38.6	-40.4	15.6	0.00e+00	0	58	0	929038336	48	4504
2026-01-01 00:16:23.22	230.52	36.74	-37.9	-39.6	16.2	0.00e+00	0	58	0	938475520	47	4368
2026-01-01 00:16:26.25	229.96	36.09	-38.5	-40.3	15.5	0.00e+00	0	58	0	948961280	47	4758
2026-01-01 00:16:29.28	229.42	35.46	-37.8	-39.5	16.3	0.00e+00	0	58	0	958398464	47	4308
2026-01-01 00:16:32.31	228.91	34.83	-37.2	-38.7	17.2	0.00e+00	0	58	0	967835648	46	4153
2026-01-01 00:16:35.34	228.41	34.22	-36.9	-38.3	17.5	0.00e+00	0	58	0	977272832	45	4225
2026-01-01 00:16:38.38	227.93	33.61	-36.8	-38.2	17.5	0.00e+00	0	58	0	986710016	45	4191
2026-01-01 00:16:41.41	227.47	33.02	-36.5	-37.9	17.9	0.00e+00	0	58	0	996147200	44	4243
2026-01-01 00:16:44.44	227.03	32.43	-36.4	-37.8	18.0	0.00e+00	0	58	0	1005584384	44	4202
2026-01-01 00:16:47.47	226.60	31.85	-36.8	-38.3	17.5	0.00e+00	0	58	0	1015021568	44	4450
2026-01-01 00:16:50.50	226.18	31.29	-37.2	-38.7	17.1	0.00e+00	0	58	0	1024458752	44	4676
2026-01-01 00:16:53.53	225.79	30.73	-36.7	-38.2	17.6	0.00e+00	0	58	0	1033895936	44	4403
2026-01-01 00:16:56.57	225.40	30.18	-36.4	-37.8	17.9	0.00e+00	0	58	0	1043333120	44	4203
2026-01-01 00:16:59.60	225.03	29.64	-36.2	-37.5	18.0	0.00e+00	0	58	0	1052770304	44	4083
2026-01-01 00:17:02.63	224.67	29.11	-36.5	-37.9	17.8	0.00e+00	0	58	0	1062207488	44	4248
2026-01-01 00:17:05.66	224.32	28.58	-36.5	-37.9	17.8	0.00e+00	0	58	0	1071644672	44	4245
2026-01-01 00:17:08.69	223.98	28.07	-36.6	-38.0	17.7	0.00e+00	0	58	0	1081081856	44	4313
2026-01-01 00:17:11.73	223.66	27.56	-36.4	-37.8	17.9	0.00e+00	0	58	0	1090519040	44	4216
2026-01-01 00:17:14.76	223.34	27.06	-35.9	-37.2	18.3	0.00e+00	0	58	0	1099956224	43	4170
2026-01-01 00:17:17.79	223.03	26.57	-35.8	-37.2	18.3	0.00e+00	0	58	0	1109393408	43	4149
2026-01-01 00:17:20.82	222.74	26.09	-36.0	-37.4	18.1	0.00e+00	0	58	0	1118830592	43	4273
2026-01-01 00:17:23.85	222.45	25.62	-36.1	-37.5	18.0	0.00e+00	0	58	0	1128267776	43	4316
2026-01-01 00:17:26.88	222.17	25.15	-35.9	-37.3	18.2	0.00e+00	0	58	0	1137704960	43	4207
2026-01-01 00:17:29.91	221.90	24.69	-35.6	-36.9	18.6	0.00e+00	0	58	0	1147142144	43	4022
2026-01-01 00:17:32.95	221.64	24.23	-35.4	-36.6	18.8	0.00e+00	0	58	0	1156579328	42	4141
2026-01-01 00:17:35.98	221.38	23.79	-35.3	-36.6	18.9	0.00e+00	0	58	0	1166016512	42	4106
2026-01-01 00:17:39.01	221.14	23.35	-35.4	-36.7	18.8	0.00e+00	0	58	0	1175453696	42	4153
2026-01-01 00:17:42.04	220.90	22.92	-35.5	-36.8	18.6	0.00e+00	0	58	0	1184890880	42	4215
2026-01-01 00:17:45.07	220.66	22.49	-35.9	-37.2	18.2	0.00e+00	0	58	0	1194328064	42	4429
2026-01-01 00:17:48.10	220.44	22.07	-36.0	-37.4	18.1	0.00e+00	0	58	0	1203765248	42	4494
2026-01-01 00:17:51.13	220.21	21.66	-35.9	-37.3	18.2	0.00e+00	0	58	0	1213202432	42	4470
2026-01-01 00:17:54.17	220.00	21.25	-35.9	-37.3	18.1	0.00e+00	0	58	0	1223688192	42	4473
2026-01-01 00:17:57.20	219.79	20.85	-36.0	-37.3	18.1	0.00e+00	0	58	0	1233125376	42	4485
2026-01-01 00:18:00.23	219.59	20.46	-36.0	-37.3	18.1	0.00e+00	0	58	0	1242562560	42	4493
2026-01-01 00:18:03.26	219.39	20.07	-35.9	-37.2	18.2	0.00e+00	0	58	0	1251999744	42	4420
2026-01-01 00:18:06.29	219.19	19.69	-35.9	-37.3	18.1	0.00e+00	0	58	0	1261436928	42	4442
2026-01-01 00:18:09.32	219.00	19.31	-36.1	-37.4	17.9	0.00e+00	0	58	0	1270874112	42	4542
2026-01-01 00:18:12.36	218.82	18.94	-35.9	-37.3	18.0	0.00e+00	0	58	0	1280311296	42	4453
2026-01-01 00:18:15.39	218.64	18.57	-36.0	-37.3	18.0	0.00e+00	0	58	0	1289748480	42	4483
2026-01-01 00:18:18.42	218.47	18.21	-35.9	-37.3	18.0	0.00e+00	0	58	0	1299185664	42	4460
2026-01-01 00:18:21.45	218.30	17.85	-36.0	-37.3	18.0	0.00e+00	0	58	0	1308622848	42	4493
2026-01-01 00:18:24.48	218.13	17.50	-36.0	-37.4	17.9	0.00e+00	0	58	0	1318060032	42	4521
2026-01-01 00:18:27.51	217.97	17.15	-36.2	-37.6	17.7	0.00e+00	0	58	0	1327497216	42	4622
2026-01-01 00:18:30.54	217.81	16.81	-36.2	-37.6	17.7	0.00e+00	0	58	0	1336934400	43	4361
2026-01-01 00:18:33.57	217.65	16.47	-36.2	-37.7	17.7	0.00e+00	0	58	0	1346371584	43	4404
2026-01-01 00:18:36.60	217.50	16.14	-36.4	-37.9	17.5	0.00e+00	0	58	0	1355808768	43	4503
2026-01-01 00:18:39.63	217.35	15.81	-36.5	-38.0	17.3	0.00e+00	0	58	0	1365245952	43	4563
2026-01-01 00:18:42.66	217.21	15.48	-36.5	-38.0	17.3	0.00e+00	0	58	0	1374683136	43	4563
2026-01-01 00:18:45.69	217.07	15.16	-36.7	-38.2	17.1	0.00e+00	0	58	0	1384120320	43	4672
2026-01-01 00:18:48.73	216.93	14.84	-36.8	-38.2	17.2	0.00e+00	0	58	0	1393557504	44	4436
2026-01-01 00:18:51.75	216.80	14.53	-36.8	-38.2	17.2	0.00e+00	0	58	0	1402994688	44	4440
2026-01-01 00:18:54.78	216.66	14.22	-36.7	-38.1	17.3	0.00e+00	0	58	0	1412431872	44	4383
2026-01-01 00:18:57.81	216.53	13.91	-36.7	-38.2	17.2	0.00e+00	0	58	0	1421869056	44	4428
2026-01-01 00:19:00.85	216.41	13.61	-36.7	-38.2	17.1	0.00e+00	0	58	0	1431306240	44	4439
2026-01-01 00:19:03.88	216.28	13.31	-36.6	-38.1	17.3	0.00e+00	0	58	0	1440743424	44	4342
2026-01-01 00:19:06.91	216.16	13.02	-36.8	-38.3	17.0	0.00e+00	0	58	0	1450180608	44	4493
2026-01-01 00:19:09.94	216.04	12.73	-36.7	-38.1	17.2	0.00e+00	0	58	0	1459617792	44	4390
2026-01-01 00:19:12.97	215.93	12.44	-36.7	-38.2	17.2	0.00e+00	0	58	0	1469054976	44	4394
2026-01-01 00:19:16.00	215.81	12.15	-36.6	-38.1	17.2	0.00e+00	0	58	0	1478492160	44	4378
2026-01-01 00:19:19.03	215.70	11.87	-36.8	-38.3	17.0	0.00e+00	0	58	0	1487929344	44	4455
2026-01-01 00:19:22.07	215.59	11.59	-36.8	-38.3	17.0	0.00e+00	0	58	0	1497366528	44	4468
2026-01-01 00:19:25.09	215.49	11.32	-37.1	-38.7	16.6	0.00e+00	0	58	0	1506803712	44	4652
2026-01-01 00:19:28.12	215.38	11.04	-37.0	-38.6	16.7	0.00e+00	0	58	0	1517289472	44	4609
2026-01-01 00:19:31.15	215.28	10.77	-37.0	-38.6	16.7	0.00e+00	0	58	0	1526726656	44	4601
2026-01-01 00:19:34.19	215.18	10.51	-37.1	-38.8	16.5	0.00e+00	0	58	0	1536163840	44	4707
2026-01-01 00:19:37.22	215.08	10.24	-37.3	-39.0	16.2	0.00e+00	0	58	0	1545601024	45	4571
2026-01-01 00:19:40.24	214.98	9.98	-37.2	-38.8	16.3	0.00e+00	0	58	0	1555038208	45	4475
2026-01-01 00:19:43.27	214.89	9.72	-37.4	-39.0	16.1	0.00e+00	0	58	0	1564475392	45	4591
2026-01-01 00:19:46.31	214.79	9.46	-37.3	-39.0	16.1	0.00e+00	0	58	0	1573912576	45	4563
2026-01-01 00:19:49.34	214.70	9.21	-37.4	-39.1	16.0	0.00e+00	0	58	0	1583349760	45	4620
2026-01-01 00:19:52.37	214.61	8.96	-37.5	-39.3	15.7	0.00e+00	0	58	0	1592786944	45	4740
2026-01-01 00:19:55.40	214.52	8.71	-37.7	-39.4	15.6	0.00e+00	0	58	0	1602224128	45	4813
2026-01-01 00:19:58.43	214.44	8.46	-37.6	-39.4	15.6	0.00e+00	0	58	0	1611661312	45	4794
2026-01-01 00:20:01.47	214.35	8.22	-37.7	-39.5	15.5	0.00e+00	0	58	0	1621098496	46	4562
2026-01-01 00:20:04.50	214.27	7.98	-40.0	-42.6	12.8	0.00e+00	0	58	0	1630535680	50	5161
2026-01-01 00:20:07.53	214.19	7.74	-44.8	-57.2	3.8	1.49e+00	0	58	104	1630535680	60	15681
2026-01-01 00:20:10.57	214.11	7.50	-45.1	-57.4	3.8	1.49e+00	0	58	104	1630535680	60	15994
2026-01-01 00:20:13.60	214.03	7.26	-45.1	-57.4	3.8	1.49e+00	0	58	104	1630535680	60	16053
2026-01-01 00:20:16.63	213.95	7.03	-45.0	-57.4	3.8	1.49e+00	0	58	104	1630535680	60	15956
2026-01-01 00:20:19.66	213.87	6.80	-45.0	-57.3	3.8	1.49e+00	0	58	104	1630535680	60	15928
2026-01-01 00:20:22.69	213.80	6.57	-45.0	-57.3	3.8	1.49e+00	0	58	104	1630535680	60	15902
2026-01-01 00:20:25.72	213.72	6.34	-45.0	-57.3	3.8	1.49e+00	0	58	104	1630535680	60	15869
2026-01-01 00:20:28.76	213.65	6.12	-45.0	-57.3	3.8	1.49e+00	0	58	104	1630535680	60	15880
2026-01-01 00:20:31.79	213.58	5.89	-44.9	-57.2	3.8	1.49e+00	0	59	104	1630535680	60	15741
2026-01-01 00:20:34.82	213.51	5.67	-44.9	-57.3	3.8	1.49e+00	0	58	104	1630535680	60	15836
2026-01-01 00:20:37.86	213.44	5.45	-44.9	-57.3	3.8	1.49e+00	0	58	104	1630535680	60	15783
2026-01-01 00:20:40.89	213.37	5.23	-44.9	-57.3	3.8	1.49e+00	0	58	104	1630535680	60	15814
2026-01-01 00:20:43.92	213.30	5.02	-44.9	-57.3	3.8	1.49e+00	0	58	104	1630535680	60	15815
2026-01-01 00:20:46.96	213.24	4.80	-44.9	-57.3	3.8	1.49e+00	0	58	104	1630535680	60	15787
2026-01-01 00:20:49.99	213.17	4.59	-44.9	-57.3	3.8	1.49e+00	0	58	104	1630535680	60	15827
2026-01-01 00:20:53.02	213.11	4.38	-44.9	-57.3	3.8	1.49e+00	0	59	104	1630535680	60	15809
2026-01-01 00:20:56.06	213.05	4.17	-44.9	-57.3	3.8	1.49e+00	0	58	104	1630535680	60	15788
2026-01-01 00:20:59.09	212.99	3.96	-44.9	-57.3	3.8	1.49e+00	0	58	104	1630535680	60	15787
2026-01-01 00:21:02.12	212.93	3.75	-44.9	-57.3	3.8	1.49e+00	0	59	104	1630535680	60	15818
2026-01-01 00:21:05.15	212.87	3.55	-44.9	-57.3	3.8	1.49e+00	0	59	104	1630535680	60	15799
2026-01-01 00:21:08.19	212.81	3.35	-44.9	-57.2	3.8	1.49e+00	0	59	104	1630535680	60	15738
2026-01-01 00:21:11.22	212.75	3.14	-44.9	-57.3	3.8	1.49e+00	0	58	104	1630535680	60	15799
2026-01-01 00:21:14.25	212.69	2.94	-44.9	-57.3	3.8	1.49e+00	0	59	104	1630535680	60	15775
2026-01-01 00:21:17.29	212.64	2.74	-44.9	-57.3	3.8	1.49e+00	0	58	104	1630535680	60	15784
2026-01-01 00:21:20.32	212.58	2.55	-44.9	-57.3	3.8	1.49e+00	0	58	104	1630535680	60	15770
2026-01-01 00:21:23.35	212.53	2.35	-44.9	-57.3	3.8	1.49e+00	0	59	104	1630535680	60	15809
2026-01-01 00:21:26.39	212.47	2.15	-44.9	-57.3	3.8	1.49e+00	0	58	104	1630535680	60	15772
2026-01-01 00:21:29.42	212.42	1.96	-44.9	-57.3	3.8	1.49e+00	0	58	104	1630535680	60	15785

#Closed at: 2026-01-01 00:21:30
#Recorded file [1630 MB]: D:/lorett/data/31039_260101_031037.dat