passes_logs/2026/01/01/R2.0S_Moscow/R2.0S_Moscow__20260101_113949_NOAA_21_JPSS-2_rec.log

#Pass ID: 20260101_113949_NOAA 21 (JPSS-2)
#Satellite: NOAA 21 (JPSS-2)
#Configuration: NOAA-21
#almurnet v.1.7.20251203
#Start time: 2026-01-01 11:43:15

#Version: 2.2.20231116
#Station: R2.0S_Moscow
#Location: 37.707566 lon 55.798166 lat
#TLE: 1 54234U 22150A   25365.42224288  .00000199  00000+0  11529-3 0  9990
#TLE: 2 54234  98.7483 301.4995 0001320 356.2106   3.9060 14.19530300162743

#Time	Az	El	Level	Level2	SNR	BER	BlckErr	Temp	State	Recorded	gain1	gain2
2026-01-01 11:43:15.62	238.85	13.48	-44.8	-56.4	3.8	8.46e-01	0	58	0	0	60	14329
2026-01-01 11:43:18.65	239.37	13.64	-45.0	-57.4	3.8	1.49e+00	0	58	104	0	61	15098
2026-01-01 11:43:21.68	239.90	13.80	-45.0	-57.3	3.8	1.49e+00	0	58	104	0	61	14925
2026-01-01 11:43:24.71	240.43	13.96	-44.8	-57.1	3.8	1.49e+00	0	58	104	0	61	14634
2026-01-01 11:43:27.74	240.97	14.12	-44.6	-56.9	3.8	1.49e+00	0	58	104	0	61	14270
2026-01-01 11:43:30.78	241.51	14.28	-44.6	-56.9	3.8	1.49e+00	0	58	104	0	61	14242
2026-01-01 11:43:33.81	242.06	14.44	-44.6	-56.9	3.8	1.49e+00	0	58	104	0	61	14222
2026-01-01 11:43:36.84	242.62	14.59	-44.6	-56.8	3.8	1.49e+00	0	58	104	0	61	14167
2026-01-01 11:43:39.88	243.18	14.75	-44.6	-56.9	3.8	1.49e+00	0	58	104	0	61	14293
2026-01-01 11:43:42.91	243.75	14.90	-44.6	-56.8	3.8	1.49e+00	0	58	104	0	61	14116
2026-01-01 11:43:45.94	244.32	15.05	-44.5	-56.8	3.8	1.49e+00	0	58	104	0	61	14049
2026-01-01 11:43:48.97	244.90	15.20	-44.5	-56.6	3.8	1.49e+00	0	58	104	0	61	13768
2026-01-01 11:43:52.01	245.48	15.34	-44.6	-56.8	3.8	1.49e+00	0	58	104	0	61	14207
2026-01-01 11:43:55.04	246.07	15.49	-44.5	-56.5	3.8	1.49e+00	0	58	104	0	61	13593
2026-01-01 11:43:58.07	246.66	15.63	-44.5	-56.1	3.8	1.49e+00	0	58	104	0	60	13784
2026-01-01 11:44:01.11	247.27	15.77	-44.5	-56.2	3.8	1.49e+00	0	58	104	0	60	13902
2026-01-01 11:44:04.14	247.87	15.91	-42.9	-47.8	7.7	2.12e-01	0	58	0	2097152	57	6281
2026-01-01 11:44:07.17	248.48	16.04	-38.7	-40.6	15.0	7.00e-07	0	58	0	12582912	49	4353
2026-01-01 11:44:10.20	249.10	16.18	-36.9	-38.4	17.0	0.00e+00	0	58	0	20971520	45	4287
2026-01-01 11:44:13.23	249.72	16.31	-40.5	-43.1	12.4	7.17e-05	0	58	0	25165824	51	5189
2026-01-01 11:44:16.26	250.34	16.44	-37.4	-39.0	16.4	0.00e+00	0	58	0	35651584	46	4322
2026-01-01 11:44:19.29	250.97	16.56	-36.9	-38.5	16.9	0.00e+00	0	58	0	45088768	45	4294
2026-01-01 11:44:22.32	251.61	16.69	-36.7	-38.2	17.2	0.00e+00	0	58	0	54525952	45	4173
2026-01-01 11:44:25.35	252.25	16.81	-36.6	-38.1	17.3	0.00e+00	0	58	0	63963136	45	4118
2026-01-01 11:44:28.38	252.90	16.93	-36.6	-38.1	17.3	0.00e+00	0	58	0	73400320	45	4112
2026-01-01 11:44:31.41	253.55	17.04	-36.4	-37.9	17.5	0.00e+00	0	58	0	82837504	44	4262
2026-01-01 11:44:34.45	254.21	17.15	-36.4	-37.8	17.5	0.00e+00	0	58	0	92274688	44	4233
2026-01-01 11:44:37.48	254.87	17.26	-36.2	-37.5	17.8	0.00e+00	0	58	0	101711872	44	4097
2026-01-01 11:44:40.51	255.53	17.37	-36.2	-37.6	17.8	0.00e+00	0	58	0	111149056	44	4108
2026-01-01 11:44:43.54	256.20	17.47	-36.3	-37.7	17.7	0.00e+00	0	58	0	120586240	44	4152
2026-01-01 11:44:46.58	256.88	17.57	-36.2	-37.6	17.8	0.00e+00	0	58	0	130023424	44	4110
2026-01-01 11:44:49.61	257.56	17.66	-36.1	-37.5	17.8	0.00e+00	0	58	0	139460608	44	4082
2026-01-01 11:44:52.64	258.24	17.75	-36.1	-37.5	17.9	0.00e+00	0	58	0	148897792	44	4058
2026-01-01 11:44:55.67	258.93	17.84	-35.7	-37.0	18.1	0.00e+00	0	58	0	158334976	43	4075
2026-01-01 11:44:58.70	259.62	17.92	-35.8	-37.2	18.0	0.00e+00	0	58	0	167772160	43	4158
2026-01-01 11:45:01.73	260.31	18.01	-35.7	-37.1	18.1	0.00e+00	0	58	0	177209344	43	4119
2026-01-01 11:45:04.76	261.01	18.08	-35.7	-37.0	18.2	0.00e+00	0	58	0	186646528	43	4076
2026-01-01 11:45:07.79	261.71	18.15	-35.8	-37.2	18.0	0.00e+00	0	58	0	196083712	43	4156
2026-01-01 11:45:10.82	262.41	18.22	-35.8	-37.1	18.1	0.00e+00	0	58	0	205520896	43	4130
2026-01-01 11:45:13.85	263.12	18.29	-35.5	-36.9	18.3	0.00e+00	0	58	0	214958080	43	4006
2026-01-01 11:45:16.88	263.83	18.35	-35.6	-37.0	18.2	0.00e+00	0	58	0	224395264	43	4055
2026-01-01 11:45:19.92	264.54	18.41	-35.7	-37.0	18.1	0.00e+00	0	58	0	233832448	43	4087
2026-01-01 11:45:22.95	265.25	18.46	-35.7	-37.1	18.1	0.00e+00	0	58	0	243269632	43	4118
2026-01-01 11:45:25.98	265.97	18.51	-35.9	-37.3	17.9	0.00e+00	0	58	0	252706816	43	4197
2026-01-01 11:45:29.01	266.69	18.55	-35.9	-37.3	17.9	0.00e+00	0	58	0	262144000	43	4234
2026-01-01 11:45:32.04	267.41	18.59	-35.9	-37.3	18.0	0.00e+00	0	58	0	271581184	43	4210
2026-01-01 11:45:35.07	268.13	18.62	-36.0	-37.4	17.9	0.00e+00	0	58	0	281018368	43	4256
2026-01-01 11:45:38.10	268.86	18.66	-36.1	-37.5	17.7	0.00e+00	0	58	0	290455552	43	4319
2026-01-01 11:45:41.13	269.58	18.68	-36.0	-37.4	17.9	0.00e+00	0	58	0	299892736	43	4246
2026-01-01 11:45:44.17	270.31	18.70	-36.0	-37.3	17.8	0.00e+00	0	58	0	310378496	43	4241
2026-01-01 11:45:47.20	271.04	18.72	-36.0	-37.3	17.9	0.00e+00	0	58	0	318767104	43	4236
2026-01-01 11:45:50.23	271.76	18.73	-35.9	-37.3	17.9	0.00e+00	0	58	0	329252864	43	4211
2026-01-01 11:45:53.26	272.49	18.74	-36.0	-37.5	17.8	0.00e+00	0	58	0	338690048	43	4293
2026-01-01 11:45:56.29	273.22	18.75	-35.9	-37.3	17.9	0.00e+00	0	58	0	348127232	43	4200
2026-01-01 11:45:59.32	273.95	18.75	-36.0	-37.4	17.8	0.00e+00	0	58	0	357564416	43	4266
2026-01-01 11:46:02.35	274.67	18.74	-35.9	-37.3	17.9	0.00e+00	0	58	0	367001600	43	4235
2026-01-01 11:46:05.39	275.40	18.73	-35.9	-37.3	17.9	0.00e+00	0	58	0	376438784	43	4205
2026-01-01 11:46:08.42	276.13	18.72	-35.9	-37.2	17.9	0.00e+00	0	58	0	385875968	43	4191
2026-01-01 11:46:11.45	276.86	18.70	-35.9	-37.3	17.9	0.00e+00	0	58	0	395313152	43	4216
2026-01-01 11:46:14.48	277.58	18.67	-36.0	-37.4	17.8	0.00e+00	0	58	0	404750336	43	4266
2026-01-01 11:46:17.52	278.31	18.65	-35.8	-37.2	17.9	0.00e+00	0	58	0	414187520	43	4176
2026-01-01 11:46:20.55	279.03	18.62	-36.0	-37.4	17.8	0.00e+00	0	58	0	423624704	43	4260
2026-01-01 11:46:23.58	279.75	18.58	-36.0	-37.5	17.7	0.00e+00	0	58	0	433061888	43	4294
2026-01-01 11:46:26.61	280.47	18.54	-35.9	-37.3	17.9	0.00e+00	0	58	0	442499072	43	4211
2026-01-01 11:46:29.64	281.19	18.49	-35.9	-37.3	17.8	0.00e+00	0	58	0	451936256	43	4232
2026-01-01 11:46:32.67	281.90	18.44	-35.9	-37.3	17.8	0.00e+00	0	58	0	461373440	43	4232
2026-01-01 11:46:35.70	282.61	18.39	-35.9	-37.3	17.9	0.00e+00	0	58	0	470810624	43	4195
2026-01-01 11:46:38.73	283.32	18.33	-36.2	-37.7	17.5	0.00e+00	0	58	0	480247808	43	4412
2026-01-01 11:46:41.77	284.03	18.27	-36.0	-37.5	17.7	0.00e+00	0	58	0	489684992	43	4298
2026-01-01 11:46:44.80	284.74	18.21	-35.9	-37.2	17.8	0.00e+00	0	58	0	499122176	43	4189
2026-01-01 11:46:47.83	285.44	18.14	-35.7	-37.1	18.1	0.00e+00	0	58	0	508559360	43	4115
2026-01-01 11:46:50.86	286.13	18.06	-35.7	-37.1	18.1	0.00e+00	0	58	0	517996544	43	4099
2026-01-01 11:46:53.89	286.83	17.99	-35.8	-37.2	17.9	0.00e+00	0	58	0	527433728	43	4166
2026-01-01 11:46:56.92	287.52	17.90	-35.7	-37.1	18.1	0.00e+00	0	58	0	536870912	43	4111
2026-01-01 11:46:59.95	288.21	17.82	-35.7	-37.0	18.1	0.00e+00	0	58	0	546308096	43	4071
2026-01-01 11:47:02.98	288.89	17.73	-35.7	-37.0	18.1	0.00e+00	0	58	0	555745280	43	4097
2026-01-01 11:47:06.01	289.57	17.64	-35.8	-37.1	18.0	0.00e+00	0	58	0	565182464	43	4140
2026-01-01 11:47:09.04	290.24	17.54	-35.9	-37.3	17.8	0.00e+00	0	58	0	574619648	43	4197
2026-01-01 11:47:12.07	290.91	17.44	-35.8	-37.2	17.9	0.00e+00	0	58	0	585105408	43	4169
2026-01-01 11:47:15.10	291.58	17.34	-35.7	-37.0	18.1	0.00e+00	0	58	0	593494016	43	4090
2026-01-01 11:47:18.13	292.24	17.24	-35.7	-37.1	18.0	0.00e+00	0	58	0	603979776	43	4102
2026-01-01 11:47:21.17	292.90	17.13	-35.6	-36.9	18.2	0.00e+00	0	58	0	613416960	43	4031
2026-01-01 11:47:24.20	293.55	17.02	-35.6	-37.0	18.1	0.00e+00	0	58	0	622854144	43	4064
2026-01-01 11:47:27.23	294.20	16.90	-35.7	-37.1	18.0	0.00e+00	0	58	0	632291328	43	4120
2026-01-01 11:47:30.26	294.84	16.78	-35.7	-37.1	18.0	0.00e+00	0	58	0	641728512	43	4115
2026-01-01 11:47:33.29	295.48	16.66	-35.7	-37.1	18.0	0.00e+00	0	58	0	651165696	43	4103
2026-01-01 11:47:36.32	296.11	16.54	-35.7	-37.0	18.0	0.00e+00	0	58	0	660602880	43	4082
2026-01-01 11:47:39.35	296.74	16.42	-35.8	-37.2	17.9	0.00e+00	0	58	0	670040064	43	4147
2026-01-01 11:47:42.38	297.36	16.29	-35.8	-37.2	17.9	0.00e+00	0	58	0	679477248	43	4149
2026-01-01 11:47:45.41	297.97	16.16	-35.8	-37.2	17.9	0.00e+00	0	58	0	688914432	43	4175
2026-01-01 11:47:48.45	298.59	16.02	-35.8	-37.1	17.9	0.00e+00	0	58	0	698351616	43	4137
2026-01-01 11:47:51.48	299.19	15.89	-36.0	-37.4	17.7	0.00e+00	0	58	0	707788800	43	4272
2026-01-01 11:47:54.51	299.80	15.75	-36.1	-37.6	17.5	0.00e+00	0	58	0	717225984	43	4359
2026-01-01 11:47:57.54	300.39	15.61	-36.2	-37.7	17.4	0.00e+00	0	58	0	726663168	43	4394
2026-01-01 11:48:00.57	300.98	15.47	-36.1	-37.5	17.5	0.00e+00	0	58	0	736100352	43	4332
2026-01-01 11:48:03.60	301.56	15.32	-36.1	-37.5	17.6	0.00e+00	0	58	0	745537536	43	4316
2026-01-01 11:48:06.63	302.14	15.18	-36.3	-37.8	17.3	0.00e+00	0	58	0	754974720	43	4454
2026-01-01 11:48:09.67	302.72	15.03	-36.5	-38.0	17.1	0.00e+00	0	57	0	764411904	43	4587
2026-01-01 11:48:12.70	303.29	14.88	-36.4	-37.9	17.1	0.00e+00	0	57	0	773849088	43	4535
2026-01-01 11:48:15.73	303.85	14.73	-36.3	-37.7	17.3	0.00e+00	0	58	0	783286272	43	4439
2026-01-01 11:48:18.76	304.40	14.58	-36.2	-37.7	17.3	0.00e+00	0	58	0	792723456	43	4416
2026-01-01 11:48:21.79	304.95	14.43	-36.4	-37.9	17.1	0.00e+00	0	58	0	802160640	43	4520
2026-01-01 11:48:24.82	305.50	14.27	-36.5	-38.0	17.0	0.00e+00	0	58	0	811597824	43	4580
2026-01-01 11:48:27.85	306.04	14.11	-36.5	-38.0	17.0	0.00e+00	0	58	0	821035008	43	4590
2026-01-01 11:48:30.88	306.57	13.96	-36.4	-37.9	17.1	0.00e+00	0	58	0	830472192	43	4532
2026-01-01 11:48:33.90	307.10	13.80	-36.3	-37.8	17.2	0.00e+00	0	58	0	839909376	43	4466
2026-01-01 11:48:36.93	307.62	13.64	-36.4	-37.9	17.1	0.00e+00	0	57	0	849346560	43	4537
2026-01-01 11:48:39.97	308.14	13.48	-36.6	-38.1	16.9	0.00e+00	0	58	0	858783744	43	4621
2026-01-01 11:48:43.00	308.65	13.31	-36.9	-38.5	16.7	0.00e+00	0	58	0	868220928	44	4573
2026-01-01 11:48:46.03	309.16	13.15	-36.9	-38.5	16.7	0.00e+00	0	57	0	878706688	44	4560
2026-01-01 11:48:49.06	309.66	12.99	-36.9	-38.4	16.7	0.00e+00	0	58	0	888143872	44	4534
2026-01-01 11:48:52.10	310.16	12.82	-36.8	-38.4	16.8	0.00e+00	0	58	0	897581056	44	4496
2026-01-01 11:48:55.13	310.65	12.65	-36.8	-38.3	16.9	0.00e+00	0	58	0	907018240	44	4467
2026-01-01 11:48:58.16	311.14	12.49	-36.9	-38.4	16.7	0.00e+00	0	58	0	916455424	44	4544
2026-01-01 11:49:01.19	311.61	12.32	-36.9	-38.4	16.7	0.00e+00	0	58	0	925892608	44	4529
2026-01-01 11:49:04.22	312.09	12.15	-36.9	-38.4	16.7	0.00e+00	0	58	0	935329792	44	4532
2026-01-01 11:49:07.25	312.56	11.99	-36.8	-38.3	16.8	0.00e+00	0	58	0	944766976	44	4489
2026-01-01 11:49:10.28	313.02	11.82	-36.7	-38.3	16.9	0.00e+00	0	58	0	954204160	44	4448
2026-01-01 11:49:13.31	313.48	11.65	-36.7	-38.3	16.8	0.00e+00	0	58	0	963641344	44	4460
2026-01-01 11:49:16.35	313.94	11.48	-36.8	-38.4	16.7	0.00e+00	0	58	0	973078528	44	4514
2026-01-01 11:49:19.38	314.38	11.31	-36.9	-38.5	16.6	0.00e+00	0	58	0	982515712	44	4578
2026-01-01 11:49:22.41	314.83	11.14	-37.0	-38.6	16.4	0.00e+00	0	58	0	991952896	44	4649
2026-01-01 11:49:25.44	315.27	10.97	-37.1	-38.7	16.4	0.00e+00	0	58	0	1001390080	44	4684
2026-01-01 11:49:28.47	315.70	10.79	-37.0	-38.6	16.5	0.00e+00	0	58	0	1010827264	44	4620
2026-01-01 11:49:31.51	316.13	10.62	-37.0	-38.6	16.5	0.00e+00	0	58	0	1020264448	44	4623
2026-01-01 11:49:34.54	316.55	10.45	-37.0	-38.7	16.4	0.00e+00	0	58	0	1029701632	44	4666
2026-01-01 11:49:37.57	316.97	10.28	-36.9	-38.6	16.5	0.00e+00	0	58	0	1039138816	44	4600
2026-01-01 11:49:40.60	317.39	10.11	-37.0	-38.7	16.4	0.00e+00	0	58	0	1048576000	44	4664
2026-01-01 11:49:43.64	317.80	9.94	-37.2	-38.8	16.2	0.00e+00	0	58	0	1058013184	44	4743
2026-01-01 11:49:46.67	318.20	9.76	-37.3	-39.0	16.0	0.00e+00	0	58	0	1067450368	45	4571
2026-01-01 11:49:49.70	318.60	9.59	-37.6	-39.3	15.7	0.00e+00	0	58	0	1076887552	45	4750
2026-01-01 11:49:52.73	319.00	9.42	-37.6	-39.4	15.7	7.00e-07	0	58	0	1086324736	45	4763
2026-01-01 11:49:55.76	319.39	9.25	-37.7	-39.5	15.5	0.00e+00	0	58	0	1095761920	45	4822
2026-01-01 11:49:58.80	319.78	9.08	-37.8	-39.6	15.4	7.00e-07	0	58	0	1105199104	46	4625
2026-01-01 11:50:01.83	320.16	8.91	-37.8	-39.6	15.4	0.00e+00	0	58	0	1114636288	46	4628
2026-01-01 11:50:04.86	320.54	8.73	-37.9	-39.8	15.2	0.00e+00	0	58	0	1124073472	46	4745
2026-01-01 11:50:07.89	320.92	8.56	-38.0	-39.9	15.1	0.00e+00	0	58	0	1133510656	46	4788
2026-01-01 11:50:10.92	321.29	8.39	-37.9	-39.8	15.1	0.00e+00	0	58	0	1143996416	46	4745
2026-01-01 11:50:13.95	321.65	8.22	-37.9	-39.8	15.1	0.00e+00	0	58	0	1152385024	46	4718
2026-01-01 11:50:16.98	322.01	8.05	-38.0	-39.9	15.0	0.00e+00	0	58	0	1162870784	46	4784
2026-01-01 11:50:20.01	322.37	7.88	-44.7	-56.8	3.8	1.49e+00	0	58	104	1164967936	59	15919
2026-01-01 11:50:23.04	322.72	7.71	-45.0	-57.3	3.8	1.49e+00	0	58	104	1164967936	60	15860
2026-01-01 11:50:26.08	323.07	7.54	-45.0	-57.4	3.8	1.49e+00	0	58	104	1164967936	60	15980
2026-01-01 11:50:29.11	323.42	7.37	-44.9	-57.3	3.8	1.49e+00	0	58	104	1164967936	60	15816
2026-01-01 11:50:32.14	323.76	7.20	-45.0	-57.3	3.8	1.49e+00	0	58	104	1164967936	60	15930
2026-01-01 11:50:35.17	324.10	7.03	-44.9	-57.3	3.8	1.49e+00	0	58	104	1164967936	60	15804
2026-01-01 11:50:38.20	324.44	6.86	-44.9	-57.3	3.8	1.49e+00	0	58	104	1164967936	60	15831
2026-01-01 11:50:41.24	324.77	6.69	-44.9	-57.3	3.8	1.49e+00	0	58	104	1164967936	60	15781
2026-01-01 11:50:44.27	325.09	6.52	-44.9	-57.3	3.8	1.49e+00	0	58	104	1164967936	60	15802
2026-01-01 11:50:47.30	325.42	6.36	-44.9	-57.2	3.8	1.49e+00	0	58	104	1164967936	60	15728
2026-01-01 11:50:50.33	325.74	6.19	-44.9	-57.3	3.8	1.49e+00	0	58	104	1164967936	60	15771
2026-01-01 11:50:53.37	326.05	6.02	-44.9	-57.3	3.8	1.49e+00	0	58	104	1164967936	60	15764
2026-01-01 11:50:56.40	326.37	5.85	-44.9	-57.3	3.8	1.49e+00	0	58	104	1164967936	60	15782
2026-01-01 11:50:59.43	326.68	5.69	-44.9	-57.2	3.8	1.49e+00	0	58	104	1164967936	60	15744
2026-01-01 11:51:02.47	326.98	5.52	-44.9	-57.2	3.8	1.49e+00	0	58	104	1164967936	60	15709
2026-01-01 11:51:05.50	327.29	5.36	-44.9	-57.2	3.8	1.49e+00	0	58	104	1164967936	60	15704
2026-01-01 11:51:08.53	327.59	5.19	-44.9	-57.2	3.8	1.49e+00	0	58	104	1164967936	60	15721
2026-01-01 11:51:11.56	327.88	5.03	-44.9	-57.2	3.8	1.49e+00	0	58	104	1164967936	60	15703
2026-01-01 11:51:14.60	328.18	4.86	-44.9	-57.2	3.8	1.49e+00	0	58	104	1164967936	60	15733
2026-01-01 11:51:17.63	328.47	4.70	-44.9	-57.2	3.8	1.49e+00	0	58	104	1164967936	60	15645
2026-01-01 11:51:20.66	328.75	4.53	-44.9	-57.2	3.8	1.49e+00	0	58	104	1164967936	60	15684
2026-01-01 11:51:23.70	329.04	4.37	-44.9	-57.2	3.8	1.49e+00	0	58	104	1164967936	60	15711
2026-01-01 11:51:26.73	329.32	4.21	-44.9	-57.2	3.8	1.49e+00	0	58	104	1164967936	60	15665
2026-01-01 11:51:29.76	329.60	4.04	-44.9	-57.2	3.8	1.49e+00	0	58	104	1164967936	60	15701
2026-01-01 11:51:32.80	329.88	3.88	-44.9	-57.2	3.8	1.49e+00	0	58	104	1164967936	60	15713
2026-01-01 11:51:35.83	330.15	3.72	-44.9	-57.2	3.8	1.49e+00	0	58	104	1164967936	60	15738
2026-01-01 11:51:38.86	330.42	3.56	-44.9	-57.2	3.8	1.49e+00	0	58	104	1164967936	60	15687
2026-01-01 11:51:41.89	330.68	3.40	-44.9	-57.2	3.8	1.49e+00	0	58	104	1164967936	60	15680
2026-01-01 11:51:44.93	330.95	3.24	-44.8	-57.2	3.8	1.49e+00	0	58	104	1164967936	60	15646
2026-01-01 11:51:47.96	331.21	3.08	-44.9	-57.2	3.8	1.49e+00	0	58	104	1164967936	60	15703
2026-01-01 11:51:50.99	331.47	2.92	-44.9	-57.2	3.8	1.49e+00	0	58	104	1164967936	60	15730
2026-01-01 11:51:54.02	331.72	2.76	-44.9	-57.2	3.8	1.49e+00	0	58	104	1164967936	60	15669
2026-01-01 11:51:57.06	331.98	2.60	-44.9	-57.2	3.8	1.49e+00	0	58	104	1164967936	60	15675
2026-01-01 11:52:00.09	332.23	2.45	-44.8	-57.2	3.8	1.49e+00	0	58	104	1164967936	60	15695
2026-01-01 11:52:03.13	332.48	2.29	-44.9	-57.2	3.8	1.49e+00	0	58	104	1164967936	60	15674
2026-01-01 11:52:06.16	332.73	2.13	-44.9	-57.2	3.8	1.49e+00	0	58	104	1164967936	60	15646
2026-01-01 11:52:09.19	332.97	1.98	-44.9	-57.2	3.8	1.49e+00	0	58	104	1164967936	60	15742

#Closed at: 2026-01-01 11:52:10
#Recorded file [1164 MB]: D:/lorett/data/31039_260101_144315.dat