passes_logs/2026/01/01/R2.0S_Moscow/R2.0S_Moscow__20260101_070735_FENGYUN_3G_rec.log

#Pass ID: 20260101_070735_FENGYUN 3G
#Satellite: FENGYUN 3G
#Configuration: FENGYUN 3G
#almurnet v.1.7.20251203
#Start time: 2026-01-01 07:07:36

#Version: 2.2.20231116
#Station: R2.0S_Moscow
#Location: 37.707566 lon 55.798166 lat
#TLE: 1 56232U 23055A   25365.50856095  .00043589  00000+0  69982-3 0  9997
#TLE: 2 56232  49.9923 130.6499 0004081 319.7782  40.2882 15.52545779153944

#Time	Az	El	Level	Level2	SNR	BER	BlckErr	Temp	State	Recorded	gain1	gain2
2026-01-01 07:07:36.27	264.16	2.05	-44.1	-62.4	3.8	8.46e-01	0	48	0	0	60	28443
2026-01-01 07:07:38.29	263.96	2.17	-44.1	-62.4	3.8	8.46e-01	0	48	104	0	60	28407
2026-01-01 07:07:40.31	263.76	2.29	-44.1	-62.4	3.8	8.46e-01	0	49	104	0	60	28381
2026-01-01 07:07:42.34	263.56	2.41	-44.1	-62.4	3.8	8.47e-01	0	49	104	0	60	28405
2026-01-01 07:07:44.36	263.35	2.54	-44.1	-62.4	3.8	8.46e-01	0	49	104	0	60	28425
2026-01-01 07:07:46.38	263.15	2.66	-44.1	-62.4	3.8	8.47e-01	0	49	104	0	60	28433
2026-01-01 07:07:48.40	262.94	2.78	-44.1	-62.4	3.8	8.46e-01	0	49	104	0	60	28371
2026-01-01 07:07:50.42	262.73	2.91	-44.1	-62.3	3.8	8.46e-01	0	49	104	0	60	28306
2026-01-01 07:07:52.45	262.51	3.03	-44.1	-62.4	3.8	8.47e-01	0	49	104	0	60	28359
2026-01-01 07:07:54.47	262.30	3.16	-44.1	-62.3	3.8	8.46e-01	0	50	104	0	60	28249
2026-01-01 07:07:56.49	262.08	3.29	-44.1	-62.3	3.8	8.46e-01	0	49	104	0	60	28303
2026-01-01 07:07:58.51	261.86	3.41	-44.1	-62.3	3.8	8.46e-01	0	50	104	0	60	28249
2026-01-01 07:08:00.54	261.63	3.54	-44.1	-62.3	3.8	8.46e-01	0	50	104	0	60	28125
2026-01-01 07:08:02.56	261.40	3.67	-44.1	-62.3	3.8	8.47e-01	0	50	104	0	60	28050
2026-01-01 07:08:04.58	261.17	3.80	-44.1	-62.2	3.8	8.47e-01	0	50	104	0	60	27904
2026-01-01 07:08:06.60	260.94	3.92	-44.1	-62.1	3.8	8.46e-01	0	50	104	0	60	27410
2026-01-01 07:08:08.62	260.70	4.05	-44.1	-61.8	3.8	8.46e-01	0	51	104	0	60	26761
2026-01-01 07:08:10.65	260.46	4.18	-44.1	-61.7	3.8	8.47e-01	0	51	104	0	60	26173
2026-01-01 07:08:12.67	260.22	4.32	-44.1	-61.9	3.8	8.47e-01	0	51	104	0	60	26827
2026-01-01 07:08:14.69	259.97	4.45	-44.1	-62.2	3.8	8.46e-01	0	51	104	0	60	27977
2026-01-01 07:08:16.71	259.72	4.58	-44.1	-62.3	3.8	8.45e-01	0	51	104	0	60	28083
2026-01-01 07:08:18.73	259.47	4.71	-44.1	-62.3	3.8	8.46e-01	0	51	104	0	60	28330
2026-01-01 07:08:20.76	259.22	4.84	-44.1	-62.3	3.8	8.47e-01	0	51	104	0	60	28214
2026-01-01 07:08:22.78	258.96	4.98	-44.1	-62.3	3.8	8.46e-01	0	51	104	0	60	28168
2026-01-01 07:08:24.80	258.69	5.11	-44.1	-62.2	3.8	8.47e-01	0	51	104	0	60	27808
2026-01-01 07:08:26.82	258.43	5.25	-44.1	-61.9	3.8	8.47e-01	0	52	104	0	60	26841
2026-01-01 07:08:28.84	258.16	5.38	-44.1	-61.9	3.8	8.46e-01	0	51	104	0	60	26806
2026-01-01 07:08:30.86	257.89	5.52	-44.1	-62.0	3.8	8.45e-01	0	52	104	0	60	27110
2026-01-01 07:08:32.88	257.61	5.66	-44.1	-62.1	3.8	8.45e-01	0	52	104	0	60	27664
2026-01-01 07:08:34.91	257.33	5.79	-44.1	-62.1	3.8	8.46e-01	0	52	104	0	60	27700
2026-01-01 07:08:36.93	257.04	5.93	-44.1	-61.9	3.8	8.45e-01	0	52	104	0	60	27057
2026-01-01 07:08:38.95	256.76	6.07	-44.1	-61.6	3.8	8.46e-01	0	52	104	0	60	25995
2026-01-01 07:08:40.97	256.47	6.21	-44.1	-60.8	3.8	8.46e-01	0	52	104	0	60	23699
2026-01-01 07:08:42.99	256.17	6.35	-44.1	-60.6	3.8	8.45e-01	0	52	104	0	60	23279
2026-01-01 07:08:45.02	255.87	6.49	-44.1	-61.1	3.8	8.45e-01	0	52	104	0	60	24559
2026-01-01 07:08:47.04	255.56	6.63	-44.1	-62.1	3.8	8.46e-01	0	52	104	0	60	27396
2026-01-01 07:08:49.06	255.26	6.77	-44.1	-62.2	3.8	8.46e-01	0	52	104	0	60	27901
2026-01-01 07:08:51.08	254.94	6.91	-44.1	-60.7	3.8	8.46e-01	0	52	104	0	60	23550
2026-01-01 07:08:53.10	254.63	7.05	-44.0	-58.5	4.3	8.46e-01	0	53	0	0	60	18104
2026-01-01 07:08:55.13	254.31	7.20	-44.0	-57.3	4.8	8.08e-01	0	53	0	0	59	16716
2026-01-01 07:08:57.15	253.98	7.34	-44.1	-59.4	4.1	8.10e-01	0	53	0	0	59	21314
2026-01-01 07:08:59.17	253.65	7.49	-44.1	-58.9	3.9	8.40e-01	0	53	104	0	59	20105
2026-01-01 07:09:01.19	253.32	7.63	-42.8	-49.4	11.7	3.00e-01	0	53	0	1572864	57	7579
2026-01-01 07:09:03.21	252.98	7.77	-40.4	-43.9	17.1	8.04e-04	0	53	0	3670016	52	5370
2026-01-01 07:09:05.23	252.63	7.92	-38.6	-41.1	20.1	0.00e+00	0	53	0	5767168	49	4627
2026-01-01 07:09:07.25	252.29	8.07	-38.2	-40.4	20.8	0.00e+00	0	53	0	8388608	48	4541
2026-01-01 07:09:09.27	251.93	8.21	-39.2	-42.0	18.9	0.00e+00	0	53	0	10485760	50	4818
2026-01-01 07:09:11.29	251.57	8.36	-38.6	-41.1	20.4	0.00e+00	0	53	0	12582912	48	4883
2026-01-01 07:09:13.31	251.21	8.51	-37.5	-39.6	21.6	1.13e-02	0	53	0	15204352	47	4368
2026-01-01 07:09:15.33	250.84	8.65	-37.7	-39.9	21.4	0.00e+00	0	53	0	17301504	47	4516
2026-01-01 07:09:17.35	250.47	8.80	-38.0	-40.3	21.0	0.00e+00	0	53	0	19398656	47	4729
2026-01-01 07:09:19.37	250.09	8.95	-38.1	-40.5	20.8	0.00e+00	0	54	0	22020096	47	4820
2026-01-01 07:09:21.39	249.71	9.10	-37.8	-40.0	21.3	0.00e+00	0	54	0	24117248	47	4565
2026-01-01 07:09:23.41	249.32	9.25	-37.7	-39.9	21.5	0.00e+00	0	54	0	26214400	47	4496
2026-01-01 07:09:25.43	248.92	9.40	-37.4	-39.4	21.9	0.00e+00	0	54	0	28835840	46	4539
2026-01-01 07:09:27.45	248.52	9.55	-37.3	-39.4	22.0	0.00e+00	0	53	0	30932992	46	4503
2026-01-01 07:09:29.47	248.12	9.70	-37.8	-40.0	21.4	0.00e+00	0	54	0	33030144	46	4820
2026-01-01 07:09:31.49	247.71	9.85	-37.4	-39.5	21.9	0.00e+00	0	54	0	35651584	46	4570
2026-01-01 07:09:33.51	247.29	10.00	-37.0	-39.0	22.4	0.00e+00	0	54	0	37748736	46	4310
2026-01-01 07:09:35.53	246.86	10.15	-36.8	-38.7	22.6	0.00e+00	0	54	0	39845888	45	4427
2026-01-01 07:09:37.54	246.44	10.30	-37.0	-39.0	22.4	0.00e+00	0	54	0	42467328	45	4557
2026-01-01 07:09:39.56	246.00	10.46	-37.0	-38.9	22.4	0.00e+00	0	54	0	44564480	45	4541
2026-01-01 07:09:41.58	245.56	10.61	-37.1	-39.1	22.3	0.00e+00	0	54	0	46661632	45	4635
2026-01-01 07:09:43.60	245.11	10.76	-36.9	-38.9	22.5	0.00e+00	0	54	0	49283072	45	4501
2026-01-01 07:09:45.62	244.66	10.91	-36.9	-38.8	22.6	0.00e+00	0	54	0	51380224	45	4480
2026-01-01 07:09:47.64	244.20	11.06	-36.5	-38.4	23.0	0.00e+00	0	54	0	53477376	45	4261
2026-01-01 07:09:49.66	243.73	11.21	-36.6	-38.4	23.0	0.00e+00	0	54	0	56098816	45	4289
2026-01-01 07:09:51.68	243.26	11.36	-36.5	-38.3	23.1	0.00e+00	0	54	0	58195968	45	4223
2026-01-01 07:09:53.70	242.78	11.52	-36.4	-38.2	23.2	0.00e+00	0	54	0	60293120	44	4423
2026-01-01 07:09:55.72	242.29	11.67	-36.1	-37.8	23.6	0.00e+00	0	54	0	62914560	44	4213
2026-01-01 07:09:57.74	241.80	11.82	-36.4	-38.2	23.3	0.00e+00	0	54	0	65011712	44	4401
2026-01-01 07:09:59.76	241.30	11.97	-36.8	-38.7	22.8	0.00e+00	0	54	0	67108864	44	4662
2026-01-01 07:10:01.78	240.80	12.12	-36.9	-38.9	22.6	0.00e+00	0	54	0	69730304	44	4762
2026-01-01 07:10:03.80	240.28	12.27	-36.7	-38.6	22.9	0.00e+00	0	54	0	71827456	44	4613
2026-01-01 07:10:05.82	239.76	12.42	-36.1	-37.9	23.6	0.00e+00	0	55	0	73924608	44	4274
2026-01-01 07:10:07.84	239.24	12.57	-36.2	-38.0	23.5	0.00e+00	0	55	0	76546048	44	4308
2026-01-01 07:10:09.85	238.71	12.72	-36.3	-38.1	23.4	0.00e+00	0	55	0	78643200	44	4356
2026-01-01 07:10:11.87	238.16	12.86	-36.3	-38.1	23.4	0.00e+00	0	55	0	80740352	44	4370
2026-01-01 07:10:13.89	237.62	13.01	-36.6	-38.4	23.1	0.00e+00	0	55	0	83361792	44	4522
2026-01-01 07:10:15.91	237.06	13.16	-36.6	-38.5	23.0	0.00e+00	0	55	0	85458944	44	4571
2026-01-01 07:10:17.93	236.50	13.30	-35.8	-37.5	23.8	0.00e+00	0	55	0	87556096	43	4326
2026-01-01 07:10:19.96	235.93	13.45	-35.7	-37.4	23.9	0.00e+00	0	55	0	90177536	43	4290
2026-01-01 07:10:21.97	235.35	13.59	-35.7	-37.4	23.9	0.00e+00	0	55	0	92274688	43	4263
2026-01-01 07:10:24.00	234.77	13.73	-36.0	-37.8	23.6	0.00e+00	0	55	0	94371840	43	4451
2026-01-01 07:10:26.01	234.18	13.87	-36.0	-37.7	23.6	0.00e+00	0	55	0	96993280	43	4431
2026-01-01 07:10:28.03	233.58	14.01	-35.8	-37.6	23.8	0.00e+00	0	55	0	99090432	43	4347
2026-01-01 07:10:30.05	232.97	14.15	-35.6	-37.3	24.0	0.00e+00	0	55	0	101187584	43	4236
2026-01-01 07:10:32.07	232.36	14.29	-35.4	-37.1	24.3	0.00e+00	0	55	0	103809024	42	4352
2026-01-01 07:10:34.09	231.74	14.42	-35.4	-37.1	24.3	0.00e+00	0	55	0	105906176	42	4348
2026-01-01 07:10:36.11	231.11	14.55	-35.3	-36.9	24.5	0.00e+00	0	55	0	108003328	42	4260
2026-01-01 07:10:38.13	230.48	14.69	-34.8	-36.4	24.9	0.00e+00	0	55	0	110624768	41	4257
2026-01-01 07:10:40.15	229.84	14.82	-35.0	-36.6	24.7	0.00e+00	0	55	0	112721920	41	4390
2026-01-01 07:10:42.17	229.19	14.94	-35.4	-37.1	24.2	0.00e+00	0	55	0	114819072	41	4630
2026-01-01 07:10:44.19	228.53	15.07	-35.3	-37.0	24.4	0.00e+00	0	55	0	117440512	41	4562
2026-01-01 07:10:46.21	227.87	15.19	-35.5	-37.2	24.2	0.00e+00	0	55	0	119537664	41	4669
2026-01-01 07:10:48.23	227.20	15.31	-35.4	-37.0	24.3	0.00e+00	0	55	0	121634816	41	4596
2026-01-01 07:10:50.25	226.52	15.43	-35.4	-37.1	24.3	0.00e+00	0	55	0	124256256	41	4607
2026-01-01 07:10:52.27	225.84	15.55	-35.6	-37.3	24.1	0.00e+00	0	55	0	126353408	41	4719
2026-01-01 07:10:54.29	225.15	15.66	-35.5	-37.2	24.2	0.00e+00	0	55	0	128450560	41	4661
2026-01-01 07:10:56.31	224.45	15.77	-35.5	-37.2	24.2	0.00e+00	0	55	0	131072000	41	4665
2026-01-01 07:10:58.33	223.75	15.88	-35.2	-36.9	24.5	0.00e+00	0	55	0	133169152	41	4512
2026-01-01 07:11:00.35	223.04	15.99	-35.2	-36.8	24.6	0.00e+00	0	55	0	135266304	41	4486
2026-01-01 07:11:02.37	222.32	16.09	-35.2	-36.9	24.5	0.00e+00	0	55	0	137887744	41	4502
2026-01-01 07:11:04.39	221.60	16.19	-34.9	-36.4	24.9	0.00e+00	0	56	0	139984896	41	4289
2026-01-01 07:11:06.40	220.88	16.28	-34.8	-36.4	25.0	0.00e+00	0	55	0	142082048	41	4270
2026-01-01 07:11:08.42	220.14	16.37	-34.6	-36.1	25.3	0.00e+00	0	56	0	144703488	41	4122
2026-01-01 07:11:10.44	219.40	16.46	-34.8	-36.3	25.1	0.00e+00	0	56	0	146800640	41	4236
2026-01-01 07:11:12.46	218.66	16.55	-34.8	-36.4	25.0	0.00e+00	0	56	0	148897792	41	4250
2026-01-01 07:11:14.48	217.91	16.63	-34.7	-36.2	25.2	0.00e+00	0	55	0	151519232	41	4176
2026-01-01 07:11:16.50	217.16	16.71	-34.6	-36.1	25.2	0.00e+00	0	56	0	153616384	41	4137
2026-01-01 07:11:18.52	216.40	16.78	-34.6	-36.1	25.2	0.00e+00	0	56	0	155713536	41	4133
2026-01-01 07:11:20.54	215.63	16.85	-34.6	-36.1	25.3	0.00e+00	0	56	0	158334976	41	4127
2026-01-01 07:11:22.56	214.86	16.92	-34.6	-36.1	25.3	0.00e+00	0	56	0	160432128	41	4118
2026-01-01 07:11:24.58	214.09	16.98	-34.3	-35.8	25.6	0.00e+00	0	56	0	162529280	40	4198
2026-01-01 07:11:26.60	213.32	17.04	-34.4	-35.9	25.5	0.00e+00	0	56	0	165150720	40	4269
2026-01-01 07:11:28.62	212.54	17.09	-34.3	-35.7	25.7	0.00e+00	0	56	0	167247872	40	4187
2026-01-01 07:11:30.65	211.75	17.14	-34.4	-36.0	25.4	0.00e+00	0	56	0	169345024	40	4302
2026-01-01 07:11:32.66	210.97	17.18	-34.3	-35.8	25.7	0.00e+00	0	56	0	171966464	40	4194
2026-01-01 07:11:34.68	210.18	17.22	-34.6	-36.1	25.3	0.00e+00	0	56	0	174063616	40	4370
2026-01-01 07:11:36.70	209.39	17.26	-34.6	-36.2	25.3	0.00e+00	0	56	0	176160768	40	4401
2026-01-01 07:11:38.72	208.59	17.29	-34.7	-36.3	25.2	0.00e+00	0	56	0	178782208	40	4454
2026-01-01 07:11:40.74	207.80	17.31	-34.6	-36.1	25.4	0.00e+00	0	56	0	180879360	40	4375
2026-01-01 07:11:42.76	207.00	17.34	-34.6	-36.1	25.3	0.00e+00	0	56	0	182976512	40	4390
2026-01-01 07:11:44.78	206.20	17.35	-34.6	-36.1	25.3	0.00e+00	0	56	0	185597952	40	4371
2026-01-01 07:11:46.80	205.40	17.36	-34.4	-35.9	25.4	0.00e+00	0	56	0	187695104	40	4280
2026-01-01 07:11:48.82	204.60	17.37	-34.1	-35.6	25.8	0.00e+00	0	56	0	189792256	40	4101
2026-01-01 07:11:50.84	203.80	17.37	-34.3	-35.8	25.6	0.00e+00	0	56	0	192413696	40	4209
2026-01-01 07:11:52.85	203.01	17.37	-34.2	-35.6	25.8	0.00e+00	0	56	0	194510848	40	4143
2026-01-01 07:11:54.88	202.20	17.36	-34.1	-35.5	25.8	0.00e+00	0	56	0	196608000	40	4084
2026-01-01 07:11:56.89	201.41	17.35	-34.1	-35.5	26.0	0.00e+00	0	56	0	199229440	39	4320
2026-01-01 07:11:58.92	200.61	17.34	-34.3	-35.8	25.6	0.00e+00	0	56	0	201326592	39	4485
2026-01-01 07:12:00.93	199.81	17.32	-34.5	-36.1	25.4	0.00e+00	0	56	0	203423744	39	4608
2026-01-01 07:12:02.95	199.02	17.29	-34.3	-35.8	25.7	0.00e+00	0	56	0	206045184	39	4455
2026-01-01 07:12:04.97	198.22	17.26	-34.4	-35.9	25.6	0.00e+00	0	56	0	208142336	39	4499
2026-01-01 07:12:06.99	197.43	17.22	-34.4	-35.9	25.5	0.00e+00	0	56	0	210239488	39	4535
2026-01-01 07:12:09.01	196.64	17.18	-34.6	-36.1	25.4	0.00e+00	0	56	0	212860928	39	4618
2026-01-01 07:12:11.03	195.86	17.14	-34.4	-35.9	25.6	0.00e+00	0	56	0	214958080	39	4502
2026-01-01 07:12:13.04	195.08	17.09	-34.2	-35.7	25.7	0.00e+00	0	56	0	217055232	39	4413
2026-01-01 07:12:15.07	194.29	17.04	-34.0	-35.5	25.9	0.00e+00	0	56	0	219676672	39	4304
2026-01-01 07:12:17.09	193.51	16.98	-34.4	-35.9	25.5	0.00e+00	0	56	0	221773824	39	4498
2026-01-01 07:12:19.11	192.74	16.92	-34.1	-35.6	25.8	0.00e+00	0	56	0	223870976	39	4365
2026-01-01 07:12:21.13	191.97	16.85	-34.3	-35.8	25.6	0.00e+00	0	56	0	226492416	39	4446
2026-01-01 07:12:23.15	191.21	16.78	-34.5	-36.0	25.4	0.00e+00	0	56	0	228589568	39	4585
2026-01-01 07:12:25.17	190.45	16.71	-34.5	-36.0	25.4	0.00e+00	0	56	0	230686720	39	4570
2026-01-01 07:12:27.19	189.69	16.63	-34.7	-36.3	25.1	0.00e+00	0	56	0	233308160	40	4463
2026-01-01 07:12:29.21	188.94	16.55	-34.5	-36.0	25.3	0.00e+00	0	56	0	235405312	40	4332
2026-01-01 07:12:31.23	188.19	16.47	-34.4	-36.0	25.4	0.00e+00	0	56	0	237502464	40	4297
2026-01-01 07:12:33.25	187.45	16.38	-35.0	-36.6	24.7	0.00e+00	0	56	0	240123904	40	4632
2026-01-01 07:12:35.27	186.72	16.29	-35.2	-36.8	24.6	0.00e+00	0	56	0	242221056	41	4455
2026-01-01 07:12:37.29	185.99	16.19	-34.8	-36.4	25.0	0.00e+00	0	56	0	244318208	41	4246
2026-01-01 07:12:39.31	185.27	16.09	-34.4	-35.9	25.4	0.00e+00	0	57	0	246939648	40	4253
2026-01-01 07:12:41.32	184.55	15.99	-34.6	-36.1	25.2	0.00e+00	0	56	0	249036800	40	4358
2026-01-01 07:12:43.34	183.84	15.89	-34.7	-36.2	25.1	0.00e+00	0	56	0	251133952	40	4426
2026-01-01 07:12:45.36	183.14	15.78	-34.4	-35.9	25.3	0.00e+00	0	56	0	253755392	40	4287
2026-01-01 07:12:47.38	182.44	15.67	-34.9	-36.5	24.8	0.00e+00	0	56	0	255852544	40	4559
2026-01-01 07:12:49.40	181.75	15.55	-35.4	-37.0	24.3	0.00e+00	0	57	0	257949696	41	4587
2026-01-01 07:12:51.42	181.06	15.44	-35.2	-36.8	24.5	0.00e+00	0	56	0	260571136	41	4464
2026-01-01 07:12:53.45	180.38	15.32	-34.8	-36.3	24.9	0.00e+00	0	56	0	262668288	41	4238
2026-01-01 07:12:55.46	179.71	15.20	-34.9	-36.5	24.8	0.00e+00	0	57	0	264765440	41	4293
2026-01-01 07:12:57.49	179.04	15.07	-35.7	-37.4	23.9	0.00e+00	0	57	0	267386880	41	4761
2026-01-01 07:12:59.50	178.39	14.95	-35.6	-37.3	24.0	0.00e+00	0	57	0	269484032	41	4725
2026-01-01 07:13:01.52	177.74	14.82	-35.2	-36.8	24.5	0.00e+00	0	56	0	271581184	41	4461
2026-01-01 07:13:03.54	177.10	14.69	-35.1	-36.7	24.5	0.00e+00	0	56	0	274202624	41	4427
2026-01-01 07:13:05.57	176.46	14.56	-35.3	-36.9	24.4	0.00e+00	0	57	0	276299776	41	4522
2026-01-01 07:13:07.58	175.83	14.42	-35.3	-37.0	24.3	0.00e+00	0	56	0	278396928	41	4548
2026-01-01 07:13:09.61	175.21	14.29	-35.1	-36.7	24.5	0.00e+00	0	56	0	281018368	41	4426
2026-01-01 07:13:11.62	174.59	14.15	-35.4	-37.0	24.3	0.00e+00	0	57	0	283115520	41	4597
2026-01-01 07:13:13.65	173.98	14.01	-35.7	-37.4	23.9	0.00e+00	0	57	0	285212672	41	4781
2026-01-01 07:13:15.67	173.38	13.87	-35.8	-37.5	23.8	0.00e+00	0	57	0	287834112	42	4586
2026-01-01 07:13:17.69	172.79	13.73	-35.8	-37.5	23.8	0.00e+00	0	57	0	289931264	42	4566
2026-01-01 07:13:19.71	172.21	13.59	-35.7	-37.4	23.9	0.00e+00	0	57	0	292028416	42	4531
2026-01-01 07:13:21.73	171.63	13.45	-35.9	-37.6	23.7	0.00e+00	0	57	0	294649856	42	4633
2026-01-01 07:13:23.75	171.06	13.30	-36.0	-37.8	23.5	0.00e+00	0	57	0	296747008	42	4725
2026-01-01 07:13:25.77	170.49	13.16	-36.1	-37.9	23.5	0.00e+00	0	57	0	298844160	42	4782
2026-01-01 07:13:27.78	169.94	13.01	-36.3	-38.1	23.2	0.00e+00	0	57	0	301465600	43	4640
2026-01-01 07:13:29.80	169.39	12.86	-36.3	-38.1	23.3	0.00e+00	0	57	0	303562752	43	4625
2026-01-01 07:13:31.82	168.85	12.72	-36.0	-37.8	23.6	0.00e+00	0	57	0	305659904	43	4448
2026-01-01 07:13:33.84	168.31	12.57	-35.9	-37.6	23.7	0.00e+00	0	57	0	308281344	43	4362
2026-01-01 07:13:35.86	167.78	12.42	-36.1	-37.9	23.6	0.00e+00	0	57	0	310378496	43	4506
2026-01-01 07:13:37.88	167.26	12.27	-36.3	-38.1	23.3	0.00e+00	0	57	0	312475648	43	4641
2026-01-01 07:13:39.90	166.75	12.12	-36.3	-38.1	23.3	0.00e+00	0	57	0	315097088	43	4621
2026-01-01 07:13:41.92	166.24	11.97	-36.3	-38.1	23.3	0.00e+00	0	57	0	317194240	43	4615
2026-01-01 07:13:43.94	165.74	11.82	-36.3	-38.1	23.3	0.00e+00	0	57	0	319291392	43	4608
2026-01-01 07:13:45.96	165.24	11.67	-36.6	-38.4	23.0	0.00e+00	0	57	0	321912832	43	4790
2026-01-01 07:13:47.98	164.75	11.51	-37.2	-39.1	22.5	0.00e+00	0	57	0	324009984	44	4910
2026-01-01 07:13:50.00	164.27	11.36	-37.3	-39.3	22.3	0.00e+00	0	57	0	326107136	45	4715
2026-01-01 07:13:52.02	163.80	11.21	-37.2	-39.1	22.4	0.00e+00	0	57	0	328728576	45	4648
2026-01-01 07:13:54.04	163.33	11.06	-37.0	-38.9	22.6	0.00e+00	0	57	0	330825728	45	4532
2026-01-01 07:13:56.06	162.87	10.91	-37.1	-39.1	22.4	0.00e+00	0	57	0	332922880	45	4604
2026-01-01 07:13:58.08	162.41	10.75	-37.3	-39.4	22.1	0.00e+00	0	57	0	335544320	45	4762
2026-01-01 07:14:00.09	161.97	10.60	-37.2	-39.1	22.2	0.00e+00	0	57	0	337641472	45	4650
2026-01-01 07:14:02.11	161.52	10.45	-37.0	-39.0	22.4	0.00e+00	0	57	0	339738624	45	4556
2026-01-01 07:14:04.13	161.09	10.30	-36.9	-38.8	22.5	0.00e+00	0	57	0	342360064	45	4481
2026-01-01 07:14:06.15	160.66	10.15	-36.9	-38.8	22.5	0.00e+00	0	57	0	344457216	45	4471
2026-01-01 07:14:08.17	160.23	10.00	-36.9	-38.8	22.4	0.00e+00	0	57	0	346554368	45	4483
2026-01-01 07:14:10.19	159.81	9.85	-37.1	-39.2	22.0	0.00e+00	0	57	0	349175808	45	4662
2026-01-01 07:14:12.21	159.40	9.69	-37.4	-39.5	21.7	0.00e+00	0	57	0	351272960	45	4834
2026-01-01 07:14:14.23	158.99	9.54	-37.2	-39.3	21.8	0.00e+00	0	57	0	353370112	45	4745
2026-01-01 07:14:16.25	158.59	9.39	-36.9	-38.9	22.2	0.00e+00	0	57	0	355991552	45	4527
2026-01-01 07:14:18.27	158.19	9.24	-36.9	-38.9	22.2	0.00e+00	0	57	0	358088704	45	4523
2026-01-01 07:14:20.29	157.80	9.09	-37.3	-39.4	21.8	0.00e+00	0	57	0	360185856	45	4761
2026-01-01 07:14:22.31	157.42	8.94	-37.5	-39.6	21.5	0.00e+00	0	57	0	362807296	45	4899
2026-01-01 07:14:24.33	157.04	8.79	-37.6	-39.8	21.3	0.00e+00	0	57	0	364904448	45	5006
2026-01-01 07:14:26.35	156.66	8.65	-37.8	-40.0	21.1	0.00e+00	0	57	0	367001600	46	4856
2026-01-01 07:14:28.37	156.29	8.50	-37.6	-39.8	21.2	0.00e+00	0	57	0	369623040	46	4746
2026-01-01 07:14:30.39	155.93	8.35	-37.6	-39.8	21.2	0.00e+00	0	57	0	371720192	46	4745
2026-01-01 07:14:32.41	155.57	8.20	-37.8	-40.0	21.0	0.00e+00	0	57	0	373817344	46	4855
2026-01-01 07:14:34.43	155.21	8.06	-37.9	-40.3	20.7	0.00e+00	0	57	0	376438784	46	4990
2026-01-01 07:14:36.45	154.86	7.91	-44.5	-62.5	3.7	2.46e-02	0	57	104	377487360	59	30637
2026-01-01 07:14:38.47	154.52	7.76	-44.9	-63.1	3.8	8.45e-01	0	57	104	377487360	60	30924
2026-01-01 07:14:40.49	154.18	7.62	-45.2	-63.4	3.8	8.46e-01	0	57	104	377487360	60	31902
2026-01-01 07:14:42.52	153.84	7.47	-45.3	-63.6	3.8	8.46e-01	0	57	104	377487360	61	30759
2026-01-01 07:14:44.54	153.51	7.33	-45.3	-63.5	3.8	8.47e-01	0	57	104	377487360	61	30692
2026-01-01 07:14:46.56	153.18	7.19	-45.2	-63.5	3.8	8.46e-01	0	57	104	377487360	61	30388
2026-01-01 07:14:48.58	152.86	7.04	-45.1	-63.4	3.8	8.46e-01	0	57	104	377487360	61	30253
2026-01-01 07:14:50.60	152.54	6.90	-45.1	-63.4	3.8	8.46e-01	0	57	104	377487360	61	30187
2026-01-01 07:14:52.62	152.23	6.76	-45.1	-63.4	3.8	8.46e-01	0	57	104	377487360	61	30114
2026-01-01 07:14:54.65	151.92	6.62	-45.1	-63.4	3.8	8.45e-01	0	57	104	377487360	61	30105
2026-01-01 07:14:56.67	151.61	6.47	-45.1	-63.4	3.8	8.46e-01	0	57	104	377487360	61	30064
2026-01-01 07:14:58.69	151.31	6.33	-45.1	-63.4	3.8	8.46e-01	0	57	104	377487360	60	31890
2026-01-01 07:15:00.71	151.02	6.19	-45.1	-63.4	3.8	8.46e-01	0	57	104	377487360	60	31901
2026-01-01 07:15:02.74	150.72	6.05	-45.0	-63.3	3.8	8.46e-01	0	57	104	377487360	60	31761
2026-01-01 07:15:04.76	150.43	5.92	-45.0	-63.4	3.8	8.46e-01	0	57	104	377487360	60	31860
2026-01-01 07:15:06.78	150.15	5.78	-45.0	-63.4	3.8	8.47e-01	0	57	104	377487360	60	31817
2026-01-01 07:15:08.80	149.87	5.64	-45.0	-63.4	3.8	8.46e-01	0	57	104	377487360	60	31824
2026-01-01 07:15:10.82	149.59	5.50	-45.0	-63.4	3.8	8.47e-01	0	57	104	377487360	60	31853
2026-01-01 07:15:12.85	149.31	5.37	-45.0	-63.4	3.8	8.46e-01	0	57	104	377487360	60	31915
2026-01-01 07:15:14.87	149.04	5.23	-45.0	-63.3	3.8	8.46e-01	0	57	104	377487360	60	31750
2026-01-01 07:15:16.89	148.78	5.10	-45.0	-63.3	3.8	8.46e-01	0	57	104	377487360	60	31799
2026-01-01 07:15:18.91	148.51	4.96	-45.0	-63.3	3.8	8.46e-01	0	57	104	377487360	60	31779
2026-01-01 07:15:20.93	148.25	4.83	-45.0	-63.3	3.8	8.46e-01	0	57	104	377487360	60	31741
2026-01-01 07:15:22.95	148.00	4.69	-45.0	-63.3	3.8	8.46e-01	0	57	104	377487360	60	31770
2026-01-01 07:15:24.98	147.74	4.56	-45.0	-63.3	3.8	8.46e-01	0	57	104	377487360	60	31754
2026-01-01 07:15:27.00	147.49	4.43	-45.0	-63.3	3.8	8.46e-01	0	57	104	377487360	60	31766
2026-01-01 07:15:29.02	147.24	4.30	-45.0	-63.3	3.8	8.47e-01	0	57	104	377487360	60	31767
2026-01-01 07:15:31.04	147.00	4.17	-45.0	-63.3	3.8	8.46e-01	0	57	104	377487360	60	31781
2026-01-01 07:15:33.06	146.76	4.04	-45.0	-63.3	3.8	8.45e-01	0	57	104	377487360	60	31784
2026-01-01 07:15:35.09	146.52	3.91	-45.0	-63.3	3.8	8.46e-01	0	57	104	377487360	60	31723
2026-01-01 07:15:37.11	146.29	3.78	-45.0	-63.3	3.8	8.45e-01	0	57	104	377487360	60	31800
2026-01-01 07:15:39.13	146.05	3.65	-45.0	-63.3	3.8	8.46e-01	0	57	104	377487360	60	31807
2026-01-01 07:15:41.15	145.82	3.52	-45.0	-63.3	3.8	8.45e-01	0	58	104	377487360	60	31740
2026-01-01 07:15:43.17	145.60	3.39	-45.0	-63.3	3.8	8.47e-01	0	57	104	377487360	60	31717
2026-01-01 07:15:45.20	145.37	3.27	-45.0	-63.3	3.8	8.47e-01	0	57	104	377487360	60	31736
2026-01-01 07:15:47.22	145.15	3.14	-45.0	-63.3	3.8	8.46e-01	0	58	104	377487360	60	31746
2026-01-01 07:15:49.24	144.94	3.01	-45.0	-63.4	3.8	8.46e-01	0	57	104	377487360	60	31819
2026-01-01 07:15:51.26	144.72	2.89	-45.0	-63.4	3.8	8.46e-01	0	57	104	377487360	60	31821
2026-01-01 07:15:53.28	144.51	2.76	-45.0	-63.3	3.8	8.46e-01	0	57	104	377487360	60	31789
2026-01-01 07:15:55.30	144.30	2.64	-45.0	-63.3	3.8	8.48e-01	0	57	104	377487360	60	31793
2026-01-01 07:15:57.33	144.09	2.52	-45.0	-63.3	3.8	8.46e-01	0	58	104	377487360	60	31673
2026-01-01 07:15:59.35	143.89	2.39	-45.0	-63.3	3.8	8.46e-01	0	57	104	377487360	60	31722
2026-01-01 07:16:01.37	143.68	2.27	-45.0	-63.3	3.8	8.46e-01	0	57	104	377487360	60	31691
2026-01-01 07:16:03.39	143.48	2.15	-45.0	-63.3	3.8	8.47e-01	0	57	104	377487360	60	31691
2026-01-01 07:16:05.42	143.29	2.03	-45.0	-63.3	3.8	8.46e-01	0	57	104	377487360	60	31714
2026-01-01 07:16:07.44	143.09	1.91	-45.0	-63.3	3.8	8.47e-01	0	57	104	377487360	60	31704

#Closed at: 2026-01-01 07:16:07
#Recorded file [377 MB]: D:/lorett/data/31039_260101_100736.dat