passes_logs/2026/01/01/R2.0S_Moscow/R2.0S_Moscow__20260101_095744_NOAA_21_JPSS-2_rec.log

#Pass ID: 20260101_095744_NOAA 21 (JPSS-2)
#Satellite: NOAA 21 (JPSS-2)
#Configuration: NOAA-21
#almurnet v.1.7.20251203
#Start time: 2026-01-01 10:02:39

#Version: 2.2.20231116
#Station: R2.0S_Moscow
#Location: 37.707566 lon 55.798166 lat
#TLE: 1 54234U 22150A   25365.42224288  .00000199  00000+0  11529-3 0  9990
#TLE: 2 54234  98.7483 301.4995 0001320 356.2106   3.9060 14.19530300162743

#Time	Az	El	Level	Level2	SNR	BER	BlckErr	Temp	State	Recorded	gain1	gain2
2026-01-01 10:02:39.76	164.26	36.57	-44.9	-56.5	3.8	8.46e-01	0	57	0	0	60	14493
2026-01-01 10:02:42.78	164.31	37.30	-45.2	-57.6	3.8	1.49e+00	0	58	104	0	62	14583
2026-01-01 10:02:45.81	164.37	38.04	-45.2	-57.5	3.8	1.49e+00	0	58	104	0	62	14509
2026-01-01 10:02:48.85	164.44	38.81	-45.2	-57.5	3.8	1.49e+00	0	58	104	0	62	14437
2026-01-01 10:02:51.88	164.50	39.59	-45.1	-57.4	3.8	1.49e+00	0	58	104	0	62	14351
2026-01-01 10:02:54.91	164.57	40.39	-45.1	-57.4	3.8	1.49e+00	0	58	104	0	62	14324
2026-01-01 10:02:57.95	164.64	41.20	-45.1	-57.4	3.8	1.49e+00	0	58	104	0	62	14276
2026-01-01 10:03:00.98	164.71	42.04	-45.1	-57.4	3.8	1.49e+00	0	58	104	0	62	14331
2026-01-01 10:03:04.01	164.79	42.89	-45.1	-57.4	3.8	1.49e+00	0	58	104	0	62	14343
2026-01-01 10:03:07.05	164.87	43.77	-45.1	-57.4	3.8	1.49e+00	0	58	104	0	62	14287
2026-01-01 10:03:10.08	164.95	44.66	-45.1	-57.4	3.8	1.49e+00	0	58	104	0	62	14346
2026-01-01 10:03:13.11	165.04	45.58	-45.1	-57.4	3.8	1.49e+00	0	58	104	0	62	14262
2026-01-01 10:03:16.15	165.14	46.52	-45.1	-57.4	3.8	1.49e+00	0	58	104	0	62	14211
2026-01-01 10:03:19.18	165.24	47.48	-45.1	-57.4	3.8	1.49e+00	0	58	104	0	62	14288
2026-01-01 10:03:22.21	165.34	48.46	-45.0	-57.0	3.8	1.49e+00	0	58	104	0	62	13603
2026-01-01 10:03:25.24	165.45	49.46	-45.1	-57.3	3.8	1.49e+00	0	58	104	0	62	14145
2026-01-01 10:03:28.28	165.57	50.49	-45.0	-56.8	3.8	1.49e+00	0	58	104	0	62	13300
2026-01-01 10:03:31.31	165.69	51.53	-42.7	-46.6	9.3	7.20e-02	0	58	0	1048576	57	5488
2026-01-01 10:03:34.34	165.83	52.60	-38.6	-40.4	15.7	0.00e+00	0	58	0	10485760	47	4803
2026-01-01 10:03:37.37	165.97	53.70	-39.8	-42.0	14.1	2.28e-05	0	58	0	15728640	51	4557
2026-01-01 10:03:40.41	166.13	54.82	-37.4	-38.9	17.0	0.00e+00	0	58	0	25165824	46	4267
2026-01-01 10:03:43.44	166.29	55.96	-36.7	-38.1	17.8	0.00e+00	0	58	0	34603008	45	4099
2026-01-01 10:03:46.47	166.47	57.13	-36.6	-38.0	17.9	0.00e+00	0	58	0	44040192	44	4327
2026-01-01 10:03:49.50	166.67	58.32	-36.7	-38.1	17.8	0.00e+00	0	58	0	53477376	44	4379
2026-01-01 10:03:52.53	166.88	59.53	-36.1	-37.4	18.4	0.00e+00	0	58	0	62914560	44	4033
2026-01-01 10:03:55.57	167.11	60.78	-35.6	-36.9	18.7	0.00e+00	0	58	0	72351744	43	4048
2026-01-01 10:03:58.60	167.37	62.04	-35.3	-36.6	19.0	0.00e+00	0	58	0	81788928	42	4109
2026-01-01 10:04:01.63	167.65	63.33	-35.2	-36.5	19.1	0.00e+00	0	58	0	91226112	42	4063
2026-01-01 10:04:04.66	167.96	64.63	-35.6	-36.9	18.7	0.00e+00	0	58	0	100663296	42	4259
2026-01-01 10:04:07.69	168.31	65.97	-34.6	-35.8	19.7	0.00e+00	0	58	0	110100480	41	3959
2026-01-01 10:04:10.72	168.71	67.32	-35.0	-36.2	19.3	0.00e+00	0	58	0	119537664	41	4164
2026-01-01 10:04:13.75	169.16	68.69	-34.9	-36.1	19.3	0.00e+00	0	58	0	128974848	41	4144
2026-01-01 10:04:16.78	169.67	70.08	-35.1	-36.3	19.2	0.00e+00	0	57	0	138412032	41	4213
2026-01-01 10:04:19.82	170.27	71.50	-34.4	-35.5	19.9	0.00e+00	0	58	0	147849216	40	4096
2026-01-01 10:04:22.84	170.97	72.92	-34.5	-35.6	19.8	0.00e+00	0	58	0	157286400	40	4142
2026-01-01 10:04:25.87	171.81	74.37	-34.5	-35.7	19.6	0.00e+00	0	58	0	166723584	40	4171
2026-01-01 10:04:28.90	172.82	75.83	-34.3	-35.4	19.9	0.00e+00	0	58	0	176160768	40	4043
2026-01-01 10:04:31.92	174.07	77.29	-34.7	-35.9	19.5	0.00e+00	0	58	0	185597952	40	4248
2026-01-01 10:04:34.95	175.65	78.76	-35.3	-36.5	19.0	0.00e+00	0	58	0	195035136	41	4321
2026-01-01 10:04:37.98	177.72	80.24	-35.2	-36.4	19.0	0.00e+00	0	58	0	204472320	41	4276
2026-01-01 10:04:41.01	180.54	81.70	-35.6	-36.9	18.6	0.00e+00	0	58	0	213909504	41	4519
2026-01-01 10:04:44.04	184.57	83.15	-35.5	-36.8	18.6	0.00e+00	0	58	0	223346688	42	4210
2026-01-01 10:04:47.07	190.74	84.56	-35.5	-36.8	18.7	0.00e+00	0	58	0	232783872	42	4213
2026-01-01 10:04:50.10	200.99	85.86	-35.3	-36.5	18.9	0.00e+00	0	58	0	242221056	42	4091
2026-01-01 10:04:53.12	219.32	86.92	-35.5	-36.8	18.6	0.00e+00	0	58	0	251658240	42	4242
2026-01-01 10:04:56.15	249.81	87.43	-35.5	-36.8	18.7	0.00e+00	0	58	0	261095424	42	4236
2026-01-01 10:04:59.18	281.82	87.06	-35.1	-36.3	19.1	0.00e+00	0	58	0	270532608	42	3983
2026-01-01 10:05:02.21	302.04	86.05	-35.0	-36.2	19.3	0.00e+00	0	58	0	279969792	41	4152
2026-01-01 10:05:05.23	313.22	84.78	-35.0	-36.2	19.0	0.00e+00	0	57	0	289406976	41	4173
2026-01-01 10:05:08.26	319.88	83.39	-35.0	-36.3	19.2	0.00e+00	0	58	0	299892736	41	4198
2026-01-01 10:05:11.29	324.18	81.95	-35.4	-36.6	18.7	0.00e+00	0	58	0	308281344	41	4388
2026-01-01 10:05:14.32	327.15	80.48	-35.0	-36.2	19.3	0.00e+00	0	58	0	318767104	41	4159
2026-01-01 10:05:17.35	329.33	79.01	-35.3	-36.6	18.9	0.00e+00	0	58	0	328204288	41	4347
2026-01-01 10:05:20.38	330.98	77.54	-34.7	-35.8	19.6	0.00e+00	0	58	0	337641472	41	3994
2026-01-01 10:05:23.41	332.27	76.07	-34.7	-35.9	19.6	0.00e+00	0	58	0	347078656	40	4264
2026-01-01 10:05:26.44	333.32	74.61	-34.9	-36.1	19.4	0.00e+00	0	58	0	356515840	40	4364
2026-01-01 10:05:29.47	334.18	73.17	-35.1	-36.3	19.2	0.00e+00	0	58	0	365953024	41	4216
2026-01-01 10:05:32.50	334.90	71.74	-34.5	-35.7	19.7	0.00e+00	0	58	0	375390208	40	4190
2026-01-01 10:05:35.53	335.52	70.33	-34.9	-36.1	19.4	0.00e+00	0	58	0	384827392	40	4381
2026-01-01 10:05:38.56	336.04	68.94	-35.6	-37.1	18.4	0.00e+00	0	58	0	394264576	42	4368
2026-01-01 10:05:41.59	336.50	67.57	-34.4	-35.6	19.9	0.00e+00	0	58	0	403701760	40	4100
2026-01-01 10:05:44.62	336.91	66.21	-35.7	-37.0	18.6	0.00e+00	0	58	0	413138944	42	4312
2026-01-01 10:05:47.65	337.26	64.88	-34.5	-35.6	19.9	0.00e+00	0	58	0	422576128	40	4132
2026-01-01 10:05:50.68	337.58	63.57	-34.8	-35.9	19.6	0.00e+00	0	58	0	432013312	40	4280
2026-01-01 10:05:53.71	337.87	62.29	-36.4	-37.8	17.8	0.00e+00	0	58	0	441450496	43	4457
2026-01-01 10:05:56.74	338.13	61.03	-34.9	-36.1	19.4	0.00e+00	0	58	0	450887680	41	4122
2026-01-01 10:05:59.77	338.37	59.79	-36.1	-37.4	18.2	0.00e+00	0	58	0	460324864	42	4528
2026-01-01 10:06:02.81	338.58	58.57	-35.8	-37.1	18.6	0.00e+00	0	58	0	469762048	42	4342
2026-01-01 10:06:05.84	338.78	57.38	-35.4	-36.7	19.0	0.00e+00	0	58	0	479199232	42	4149
2026-01-01 10:06:08.87	338.96	56.21	-37.0	-38.4	17.5	0.00e+00	0	58	0	488636416	44	4532
2026-01-01 10:06:11.89	339.13	55.07	-37.0	-38.4	17.5	0.00e+00	0	58	0	498073600	45	4261
2026-01-01 10:06:14.93	339.29	53.95	-36.7	-38.1	17.6	0.00e+00	0	58	0	507510784	45	4143
2026-01-01 10:06:17.96	339.43	52.86	-36.5	-37.9	18.0	0.00e+00	0	58	0	516947968	45	4022
2026-01-01 10:06:20.99	339.57	51.79	-37.7	-39.3	16.7	0.00e+00	0	58	0	526385152	45	4706
2026-01-01 10:06:24.02	339.70	50.74	-38.1	-39.8	16.0	0.00e+00	0	58	0	535822336	47	4474
2026-01-01 10:06:27.05	339.82	49.72	-38.3	-40.0	15.9	0.00e+00	0	58	0	545259520	47	4587
2026-01-01 10:06:30.08	339.93	48.71	-38.0	-39.6	16.3	0.00e+00	0	58	0	554696704	47	4367
2026-01-01 10:06:33.11	340.04	47.73	-38.4	-40.1	15.9	0.00e+00	0	58	0	564133888	47	4632
2026-01-01 10:06:36.14	340.14	46.78	-39.3	-41.3	14.7	0.00e+00	0	58	0	573571072	49	4728
2026-01-01 10:06:39.17	340.23	45.84	-38.7	-40.4	15.5	0.00e+00	0	58	0	583008256	49	4281
2026-01-01 10:06:42.21	340.32	44.92	-39.3	-41.3	14.7	0.00e+00	0	58	0	592445440	49	4721
2026-01-01 10:06:45.24	340.41	44.03	-40.0	-42.2	13.8	8.30e-06	0	58	0	601882624	50	4969
2026-01-01 10:06:48.27	340.49	43.16	-39.1	-41.1	15.0	0.00e+00	0	58	0	612368384	50	4353
2026-01-01 10:06:51.30	340.57	42.30	-38.6	-40.4	15.6	0.00e+00	0	58	0	621805568	49	4266
2026-01-01 10:06:54.34	340.64	41.46	-39.0	-40.8	15.0	7.00e-07	0	58	0	631242752	49	4490
2026-01-01 10:06:57.37	340.72	40.65	-39.2	-41.1	14.9	0.00e+00	0	58	0	640679936	49	4623
2026-01-01 10:07:00.39	340.79	39.85	-38.4	-40.1	15.8	0.00e+00	0	58	0	650117120	48	4381
2026-01-01 10:07:03.42	340.85	39.07	-38.5	-40.3	15.7	7.00e-07	0	58	0	659554304	48	4457
2026-01-01 10:07:06.45	340.92	38.31	-37.7	-39.3	16.6	0.00e+00	0	58	0	668991488	47	4220
2026-01-01 10:07:09.48	340.98	37.56	-37.4	-38.9	16.9	0.00e+00	0	58	0	678428672	46	4283
2026-01-01 10:07:12.51	341.04	36.83	-36.9	-38.3	17.4	0.00e+00	0	58	0	687865856	45	4232
2026-01-01 10:07:15.54	341.09	36.12	-37.2	-38.7	17.2	0.00e+00	0	58	0	697303040	45	4396
2026-01-01 10:07:18.57	341.15	35.42	-37.4	-38.9	16.9	0.00e+00	0	58	0	706740224	45	4527
2026-01-01 10:07:21.60	341.20	34.74	-37.6	-39.2	16.7	0.00e+00	0	58	0	716177408	45	4680
2026-01-01 10:07:24.63	341.25	34.07	-37.6	-39.2	16.6	0.00e+00	0	58	0	725614592	45	4698
2026-01-01 10:07:27.66	341.30	33.42	-37.4	-38.9	16.9	0.00e+00	0	58	0	735051776	45	4529
2026-01-01 10:07:30.69	341.35	32.78	-36.7	-38.2	17.6	0.00e+00	0	58	0	744488960	45	4159
2026-01-01 10:07:33.72	341.40	32.15	-36.7	-38.1	17.7	0.00e+00	0	58	0	753926144	45	4117
2026-01-01 10:07:36.75	341.44	31.53	-36.4	-37.8	18.0	0.00e+00	0	58	0	763363328	44	4218
2026-01-01 10:07:39.78	341.49	30.93	-36.4	-37.8	18.0	0.00e+00	0	58	0	772800512	44	4207
2026-01-01 10:07:42.81	341.53	30.34	-36.7	-38.1	17.6	0.00e+00	0	58	0	782237696	44	4380
2026-01-01 10:07:45.85	341.57	29.77	-36.9	-38.4	17.4	0.00e+00	0	58	0	791674880	44	4495
2026-01-01 10:07:48.88	341.62	29.20	-36.9	-38.4	17.3	0.00e+00	0	58	0	801112064	44	4525
2026-01-01 10:07:51.91	341.66	28.64	-36.8	-38.3	17.3	0.00e+00	0	58	0	810549248	44	4492
2026-01-01 10:07:54.95	341.69	28.10	-36.9	-38.4	17.2	0.00e+00	0	58	0	819986432	44	4526
2026-01-01 10:07:57.98	341.73	27.57	-36.9	-38.4	17.2	0.00e+00	0	58	0	829423616	44	4494
2026-01-01 10:08:01.01	341.77	27.04	-36.3	-37.7	17.9	0.00e+00	0	58	0	838860800	44	4180
2026-01-01 10:08:04.04	341.81	26.53	-36.1	-37.4	18.1	0.00e+00	0	58	0	848297984	44	4034
2026-01-01 10:08:07.07	341.84	26.03	-35.7	-37.0	18.3	0.00e+00	0	58	0	857735168	43	4076
2026-01-01 10:08:10.10	341.88	25.53	-35.5	-36.8	18.5	0.00e+00	0	58	0	867172352	43	4000
2026-01-01 10:08:13.14	341.91	25.05	-35.5	-36.8	18.5	0.00e+00	0	58	0	876609536	43	3984
2026-01-01 10:08:16.17	341.95	24.57	-35.6	-37.0	18.3	0.00e+00	0	58	0	887095296	43	4061
2026-01-01 10:08:19.20	341.98	24.10	-35.8	-37.1	18.2	0.00e+00	0	58	0	895483904	43	4141
2026-01-01 10:08:22.23	342.01	23.64	-35.7	-37.0	18.3	0.00e+00	0	58	0	905969664	43	4065
2026-01-01 10:08:25.27	342.04	23.19	-34.3	-36.7	16.1	2.85e-02	0	58	0	915406848	39	4973
2026-01-01 10:08:28.30	342.08	22.75	-33.9	-36.6	15.8	2.99e-02	0	58	0	924844032	38	5195
2026-01-01 10:08:31.33	342.11	22.31	-33.6	-36.5	16.0	2.92e-02	0	58	0	934281216	37	5408
2026-01-01 10:08:34.36	342.14	21.88	-33.5	-36.2	16.2	2.94e-02	0	58	0	943718400	37	5255
2026-01-01 10:08:37.39	342.17	21.46	-36.2	-37.8	16.7	0.00e+00	0	58	0	953155584	42	4707
2026-01-01 10:08:40.42	342.20	21.04	-38.4	-41.2	12.2	7.93e-05	0	58	0	962592768	47	5270
2026-01-01 10:08:43.45	342.22	20.64	-39.8	-44.9	7.5	6.37e-02	0	58	0	972029952	50	6793
2026-01-01 10:08:46.49	342.25	20.23	-40.2	-48.9	4.3	1.37e+00	0	58	104	979369984	51	10168
2026-01-01 10:08:49.52	342.28	19.84	-40.5	-51.0	3.8	1.49e+00	0	58	104	979369984	51	12905
2026-01-01 10:08:52.55	342.31	19.45	-40.5	-52.2	3.8	1.49e+00	0	58	104	979369984	52	13925
2026-01-01 10:08:55.58	342.34	19.07	-40.2	-52.6	3.8	1.49e+00	0	58	104	979369984	52	14597
2026-01-01 10:08:58.61	342.36	18.69	-40.3	-52.7	3.8	1.49e+00	0	58	104	979369984	51	15690
2026-01-01 10:09:01.63	342.39	18.32	-40.4	-53.0	3.8	1.49e+00	0	58	104	979369984	51	16283
2026-01-01 10:09:04.66	342.41	17.95	-40.4	-53.1	3.8	1.49e+00	0	58	104	979369984	51	16320
2026-01-01 10:09:07.69	342.44	17.59	-40.5	-53.0	3.8	1.49e+00	0	58	104	979369984	51	16311
2026-01-01 10:09:10.72	342.47	17.24	-40.4	-53.1	3.8	1.49e+00	0	58	104	979369984	51	16415
2026-01-01 10:09:13.75	342.49	16.89	-40.3	-52.8	3.8	1.49e+00	0	58	104	979369984	51	15909
2026-01-01 10:09:16.79	342.52	16.54	-40.4	-53.0	3.8	1.49e+00	0	58	104	979369984	52	15329
2026-01-01 10:09:19.82	342.54	16.20	-40.3	-52.7	3.8	1.49e+00	0	58	104	979369984	52	14820
2026-01-01 10:09:22.85	342.56	15.87	-40.6	-52.9	3.8	1.49e+00	0	58	104	979369984	52	15186
2026-01-01 10:09:25.88	342.59	15.54	-40.3	-52.9	3.8	1.49e+00	0	58	104	979369984	52	15207
2026-01-01 10:09:28.91	342.61	15.21	-40.4	-52.9	3.8	1.49e+00	0	58	104	979369984	52	15175
2026-01-01 10:09:31.94	342.64	14.89	-40.5	-53.0	3.8	1.49e+00	0	58	104	979369984	52	15393
2026-01-01 10:09:34.97	342.66	14.57	-40.6	-53.1	3.8	1.49e+00	0	58	104	979369984	52	15402
2026-01-01 10:09:38.00	342.68	14.26	-40.5	-52.9	3.8	1.49e+00	0	58	104	979369984	51	15957
2026-01-01 10:09:41.03	342.71	13.95	-40.5	-53.1	3.8	1.49e+00	0	58	104	979369984	51	16325
2026-01-01 10:09:44.06	342.73	13.64	-40.4	-52.8	3.8	1.49e+00	0	58	104	979369984	51	15875
2026-01-01 10:09:47.10	342.75	13.34	-40.4	-52.9	3.8	1.49e+00	0	58	104	979369984	52	15163
2026-01-01 10:09:50.13	342.77	13.04	-40.4	-52.9	3.8	1.49e+00	0	58	104	979369984	52	15093
2026-01-01 10:09:53.16	342.80	12.74	-40.4	-52.8	3.8	1.49e+00	0	58	104	979369984	52	14954
2026-01-01 10:09:56.19	342.82	12.45	-40.4	-52.9	3.8	1.49e+00	0	58	104	979369984	52	15128
2026-01-01 10:09:59.22	342.84	12.17	-40.5	-52.9	3.8	1.49e+00	0	58	104	979369984	52	15133
2026-01-01 10:10:02.26	342.86	11.88	-40.4	-52.8	3.8	1.49e+00	0	58	104	979369984	52	14944
2026-01-01 10:10:05.29	342.88	11.60	-40.4	-52.8	3.8	1.49e+00	0	58	104	979369984	52	15028
2026-01-01 10:10:08.32	342.90	11.32	-40.4	-52.8	3.8	1.49e+00	0	58	104	979369984	52	14918
2026-01-01 10:10:11.35	342.92	11.05	-40.0	-52.5	3.8	1.49e+00	0	58	104	979369984	52	14478
2026-01-01 10:10:14.38	342.95	10.77	-40.2	-52.5	3.8	1.49e+00	0	58	104	979369984	51	15400
2026-01-01 10:10:17.41	342.97	10.51	-40.1	-52.5	3.8	1.49e+00	0	58	104	979369984	51	15267
2026-01-01 10:10:20.44	342.99	10.24	-40.4	-52.7	3.8	1.49e+00	0	58	104	979369984	51	15727
2026-01-01 10:10:23.47	343.01	9.98	-40.1	-52.5	3.8	1.49e+00	0	58	104	979369984	51	15371
2026-01-01 10:10:26.50	343.03	9.72	-40.4	-52.8	3.8	1.49e+00	0	58	104	979369984	51	15814
2026-01-01 10:10:29.53	343.05	9.46	-40.5	-52.8	3.8	1.49e+00	0	58	104	979369984	51	15943
2026-01-01 10:10:32.57	343.07	9.20	-40.4	-52.8	3.8	1.49e+00	0	58	104	979369984	51	15771
2026-01-01 10:10:35.60	343.09	8.95	-40.3	-52.7	3.8	1.49e+00	0	58	104	979369984	51	15651
2026-01-01 10:10:38.63	343.11	8.70	-40.4	-52.8	3.8	1.49e+00	0	58	104	979369984	51	15770
2026-01-01 10:10:41.66	343.13	8.45	-40.4	-52.8	3.8	1.49e+00	0	58	104	979369984	51	15792
2026-01-01 10:10:44.70	343.15	8.21	-40.4	-52.7	3.8	1.49e+00	0	58	104	979369984	51	15682
2026-01-01 10:10:47.73	343.17	7.97	-40.1	-52.5	3.8	1.49e+00	0	58	104	979369984	51	15343
2026-01-01 10:10:50.76	343.19	7.73	-44.8	-57.2	3.8	1.49e+00	0	58	104	979369984	60	15620
2026-01-01 10:10:53.79	343.20	7.49	-45.1	-57.5	3.8	1.49e+00	0	58	104	979369984	60	16220
2026-01-01 10:10:56.83	343.22	7.25	-45.2	-57.5	3.8	1.49e+00	0	58	104	979369984	60	16276
2026-01-01 10:10:59.86	343.24	7.02	-45.1	-57.5	3.8	1.49e+00	0	58	104	979369984	60	16146
2026-01-01 10:11:02.89	343.26	6.79	-45.0	-57.4	3.8	1.49e+00	0	58	104	979369984	60	16091
2026-01-01 10:11:05.93	343.28	6.56	-45.0	-57.4	3.8	1.49e+00	0	58	104	979369984	60	15960
2026-01-01 10:11:08.96	343.30	6.33	-45.0	-57.3	3.8	1.49e+00	0	58	104	979369984	60	15917
2026-01-01 10:11:11.99	343.32	6.10	-45.0	-57.4	3.8	1.49e+00	0	58	104	979369984	60	15951
2026-01-01 10:11:15.03	343.34	5.88	-45.0	-57.3	3.8	1.49e+00	0	58	104	979369984	60	15915
2026-01-01 10:11:18.06	343.36	5.66	-45.0	-57.3	3.8	1.49e+00	0	58	104	979369984	60	15936
2026-01-01 10:11:21.09	343.37	5.44	-45.0	-57.3	3.8	1.49e+00	0	58	104	979369984	60	15886
2026-01-01 10:11:24.12	343.39	5.22	-45.0	-57.3	3.8	1.49e+00	0	58	104	979369984	60	15937
2026-01-01 10:11:27.16	343.41	5.00	-45.0	-57.3	3.8	1.49e+00	0	58	104	979369984	60	15896
2026-01-01 10:11:30.19	343.43	4.79	-45.0	-57.3	3.8	1.49e+00	0	58	104	979369984	60	15908
2026-01-01 10:11:33.22	343.45	4.58	-45.0	-57.3	3.8	1.49e+00	0	58	104	979369984	60	15901
2026-01-01 10:11:36.26	343.47	4.37	-45.0	-57.3	3.8	1.49e+00	0	58	104	979369984	60	15882
2026-01-01 10:11:39.29	343.48	4.16	-44.9	-57.3	3.8	1.49e+00	0	59	104	979369984	60	15872
2026-01-01 10:11:42.32	343.50	3.95	-45.0	-57.3	3.8	1.49e+00	0	58	104	979369984	60	15883
2026-01-01 10:11:45.35	343.52	3.74	-45.0	-57.3	3.8	1.49e+00	0	58	104	979369984	60	15909
2026-01-01 10:11:48.39	343.54	3.54	-44.8	-57.3	3.8	1.49e+00	0	58	104	979369984	60	15843
2026-01-01 10:11:51.42	343.56	3.33	-45.0	-57.3	3.8	1.49e+00	0	58	104	979369984	60	15933
2026-01-01 10:11:54.45	343.57	3.13	-45.0	-57.3	3.8	1.49e+00	0	59	104	979369984	60	15852
2026-01-01 10:11:57.49	343.59	2.93	-45.0	-57.3	3.8	1.49e+00	0	58	104	979369984	60	15839
2026-01-01 10:12:00.52	343.61	2.73	-45.0	-57.3	3.8	1.49e+00	0	58	104	979369984	60	15884
2026-01-01 10:12:03.55	343.63	2.54	-45.0	-57.3	3.8	1.49e+00	0	58	104	979369984	60	15889
2026-01-01 10:12:06.59	343.64	2.34	-45.0	-57.3	3.8	1.49e+00	0	58	104	979369984	60	15853
2026-01-01 10:12:09.62	343.66	2.15	-44.9	-57.3	3.8	1.49e+00	0	59	104	979369984	60	15845
2026-01-01 10:12:12.65	343.68	1.95	-44.9	-57.3	3.8	1.49e+00	0	58	104	979369984	60	15812

#Closed at: 2026-01-01 10:12:14
#Recorded file [979 MB]: D:/lorett/data/31039_260101_130239.dat