passes_logs/2026/01/01/R2.0S_Moscow/R2.0S_Moscow__20260101_130949_FENGYUN_3D_rec.log

#Pass ID: 20260101_130949_FENGYUN 3D
#Satellite: FENGYUN 3D
#Configuration: FENGYUN 3D
#almurnet v.1.7.20251203
#Start time: 2026-01-01 13:09:51

#Version: 2.2.20231116
#Station: R2.0S_Moscow
#Location: 37.707566 lon 55.798166 lat
#TLE: 1 43010U 17072A   25365.97861918  .00000231  00000+0  13096-3 0  9992
#TLE: 2 43010  98.9911 332.5795 0001872 134.7521 225.3807 14.19690547421260

#Time	Az	El	Level	Level2	SNR	BER	BlckErr	Temp	State	Recorded	gain1	gain2
2026-01-01 13:09:51.53	197.23	2.14	-44.1	-55.5	3.8	8.46e-01	0	48	0	0	59	13598
2026-01-01 13:09:55.58	197.47	2.37	-44.1	-55.5	3.8	8.46e-01	0	49	104	0	59	13626
2026-01-01 13:09:59.62	197.71	2.61	-44.1	-55.5	3.8	8.45e-01	0	49	104	0	59	13640
2026-01-01 13:10:03.66	197.96	2.85	-44.1	-55.5	3.8	8.47e-01	0	49	104	0	59	13596
2026-01-01 13:10:07.71	198.21	3.10	-44.1	-55.5	3.8	8.47e-01	0	50	104	0	59	13595
2026-01-01 13:10:11.75	198.46	3.34	-44.0	-55.5	3.8	8.46e-01	0	50	104	0	59	13602
2026-01-01 13:10:15.79	198.72	3.59	-44.1	-55.5	3.8	8.47e-01	0	50	104	0	59	13579
2026-01-01 13:10:19.84	198.98	3.84	-44.0	-55.4	3.8	8.45e-01	0	51	104	0	59	13568
2026-01-01 13:10:23.88	199.25	4.09	-44.0	-55.5	3.8	8.46e-01	0	51	104	0	59	13571
2026-01-01 13:10:27.93	199.52	4.34	-44.1	-55.5	3.8	8.46e-01	0	51	104	0	59	13604
2026-01-01 13:10:31.97	199.79	4.59	-44.0	-55.5	3.8	8.45e-01	0	51	104	0	59	13597
2026-01-01 13:10:36.01	200.07	4.85	-44.1	-55.5	3.8	8.46e-01	0	52	104	0	59	13577
2026-01-01 13:10:40.06	200.36	5.10	-44.0	-55.4	3.8	8.46e-01	0	52	104	0	59	13518
2026-01-01 13:10:44.10	200.65	5.36	-44.1	-55.5	3.8	8.47e-01	0	52	104	0	59	13572
2026-01-01 13:10:48.15	200.94	5.63	-44.1	-55.4	3.8	8.46e-01	0	52	104	0	59	13557
2026-01-01 13:10:52.19	201.24	5.89	-44.0	-55.4	3.8	8.46e-01	0	52	104	0	59	13436
2026-01-01 13:10:56.23	201.54	6.15	-44.0	-55.1	3.8	8.45e-01	0	52	104	0	59	13058
2026-01-01 13:11:00.28	201.85	6.42	-44.0	-54.8	3.8	8.46e-01	0	53	104	0	59	12560
2026-01-01 13:11:04.32	202.17	6.69	-44.0	-54.8	3.8	8.45e-01	0	53	104	0	59	12600
2026-01-01 13:11:08.37	202.49	6.96	-43.7	-53.0	3.8	8.45e-01	0	53	104	0	59	10219
2026-01-01 13:11:12.41	202.82	7.24	-41.3	-45.2	8.8	6.27e-02	0	53	0	9437184	54	5574
2026-01-01 13:11:16.45	203.15	7.51	-38.1	-40.2	14.0	9.10e-06	0	53	0	32505856	48	4410
2026-01-01 13:11:20.50	203.49	7.79	-36.1	-37.9	16.2	0.00e+00	0	53	0	55574528	44	4243
2026-01-01 13:11:24.54	203.83	8.07	-35.6	-37.2	16.7	0.00e+00	0	54	0	78643200	43	4185
2026-01-01 13:11:28.59	204.18	8.35	-36.2	-37.9	16.3	0.00e+00	0	54	0	100663296	44	4271
2026-01-01 13:11:32.63	204.54	8.64	-36.1	-37.8	16.3	0.00e+00	0	54	0	123731968	44	4219
2026-01-01 13:11:36.67	204.91	8.93	-36.2	-37.9	16.2	0.00e+00	0	54	0	146800640	44	4279
2026-01-01 13:11:40.71	205.28	9.22	-35.5	-37.1	16.9	0.00e+00	0	54	0	168820736	43	4108
2026-01-01 13:11:44.75	205.66	9.51	-35.0	-36.5	17.5	0.00e+00	0	54	0	191889408	42	4072
2026-01-01 13:11:48.79	206.04	9.80	-34.7	-36.2	17.8	0.00e+00	0	54	0	214958080	41	4156
2026-01-01 13:11:52.83	206.44	10.10	-34.6	-36.0	17.9	0.00e+00	0	54	0	236978176	41	4090
2026-01-01 13:11:56.88	206.84	10.40	-34.7	-36.1	17.9	0.00e+00	0	54	0	260046848	41	4131
2026-01-01 13:12:00.92	207.25	10.70	-34.7	-36.1	17.9	0.00e+00	0	54	0	283115520	41	4123
2026-01-01 13:12:04.96	207.67	11.00	-34.6	-36.1	18.0	0.00e+00	0	55	0	305135616	41	4100
2026-01-01 13:12:09.00	208.09	11.31	-34.5	-35.9	18.1	0.00e+00	0	55	0	328204288	41	4048
2026-01-01 13:12:13.04	208.53	11.62	-34.4	-35.8	18.3	0.00e+00	0	55	0	351272960	40	4212
2026-01-01 13:12:17.08	208.97	11.93	-34.3	-35.7	18.3	0.00e+00	0	55	0	374341632	40	4193
2026-01-01 13:12:21.12	209.43	12.24	-34.2	-35.6	18.5	0.00e+00	0	55	0	396361728	40	4105
2026-01-01 13:12:25.17	209.89	12.56	-34.2	-35.5	18.5	0.00e+00	0	55	0	419430400	40	4091
2026-01-01 13:12:29.21	210.36	12.88	-34.1	-35.5	18.6	0.00e+00	0	55	0	441450496	40	4081
2026-01-01 13:12:33.25	210.85	13.20	-34.1	-35.5	18.6	0.00e+00	0	55	0	464519168	40	4068
2026-01-01 13:12:37.29	211.34	13.52	-34.0	-35.4	18.8	0.00e+00	0	55	0	487587840	39	4251
2026-01-01 13:12:41.33	211.84	13.84	-33.8	-35.1	19.0	0.00e+00	0	55	0	510656512	39	4141
2026-01-01 13:12:45.37	212.36	14.17	-33.8	-35.2	19.0	0.00e+00	0	55	0	532676608	39	4155
2026-01-01 13:12:49.41	212.88	14.50	-33.7	-35.0	19.2	0.00e+00	0	55	0	555745280	39	4064
2026-01-01 13:12:53.45	213.42	14.84	-33.7	-35.0	19.2	0.00e+00	0	55	0	578813952	39	4075
2026-01-01 13:12:57.50	213.97	15.17	-33.7	-35.0	19.2	0.00e+00	0	56	0	600834048	39	4087
2026-01-01 13:13:01.54	214.53	15.51	-33.6	-34.9	19.3	0.00e+00	0	56	0	623902720	39	4023
2026-01-01 13:13:05.59	215.10	15.85	-33.5	-34.8	19.3	0.00e+00	0	56	0	646971392	39	3996
2026-01-01 13:13:09.63	215.69	16.19	-33.5	-34.8	19.3	0.00e+00	0	56	0	668991488	39	3997
2026-01-01 13:13:13.67	216.29	16.53	-33.2	-34.4	19.8	0.00e+00	0	56	0	692060160	38	4033
2026-01-01 13:13:17.71	216.90	16.88	-32.9	-34.2	20.0	0.00e+00	0	56	0	715128832	37	4158
2026-01-01 13:13:21.75	217.53	17.22	-33.0	-34.3	19.9	0.00e+00	0	56	0	737148928	37	4216
2026-01-01 13:13:25.79	218.17	17.57	-33.0	-34.3	19.9	0.00e+00	0	56	0	760217600	37	4197
2026-01-01 13:13:29.83	218.82	17.92	-33.1	-34.4	19.8	0.00e+00	0	56	0	783286272	37	4265
2026-01-01 13:13:33.87	219.49	18.27	-33.0	-34.3	19.9	0.00e+00	0	56	0	805306368	37	4198
2026-01-01 13:13:37.92	220.18	18.62	-32.9	-34.2	20.0	0.00e+00	0	56	0	828375040	37	4153
2026-01-01 13:13:41.96	220.88	18.98	-32.7	-34.0	19.7	0.00e+00	0	56	0	851443712	37	4057
2026-01-01 13:13:46.00	221.60	19.33	-32.6	-33.9	19.9	0.00e+00	0	56	0	873463808	37	4009
2026-01-01 13:13:50.04	222.33	19.68	-32.5	-33.7	20.1	0.00e+00	0	56	0	896532480	37	3948
2026-01-01 13:13:54.09	223.08	20.04	-32.4	-33.6	20.5	0.00e+00	0	56	0	919601152	36	4139
2026-01-01 13:13:58.13	223.85	20.39	-32.5	-33.7	20.2	0.00e+00	0	57	0	942669824	36	4193
2026-01-01 13:14:02.17	224.63	20.75	-32.3	-33.5	20.3	0.00e+00	0	56	0	964689920	36	4095
2026-01-01 13:14:06.21	225.43	21.10	-32.4	-33.7	20.1	0.00e+00	0	56	0	987758592	36	4149
2026-01-01 13:14:10.25	226.25	21.45	-32.3	-33.6	20.2	0.00e+00	0	57	0	1010827264	36	4101
2026-01-01 13:14:14.30	227.10	21.81	-32.3	-33.5	20.6	0.00e+00	0	57	0	1032847360	36	4087
2026-01-01 13:14:18.34	227.95	22.16	-32.2	-33.4	20.8	0.00e+00	0	57	0	1055916032	36	4015
2026-01-01 13:14:22.38	228.83	22.51	-32.1	-33.2	20.9	0.00e+00	0	57	0	1078984704	36	3952
2026-01-01 13:14:26.43	229.73	22.86	-31.3	-32.5	20.8	0.00e+00	0	56	0	1101004800	34	4053
2026-01-01 13:14:30.47	230.64	23.20	-31.5	-32.8	20.4	0.00e+00	0	57	0	1124073472	34	4220
2026-01-01 13:14:34.51	231.58	23.54	-31.2	-32.4	20.8	0.00e+00	0	56	0	1147142144	34	4038
2026-01-01 13:14:38.55	232.53	23.88	-31.3	-32.5	20.7	0.00e+00	0	57	0	1169162240	34	4081
2026-01-01 13:14:42.59	233.51	24.21	-31.3	-32.5	20.7	0.00e+00	0	57	0	1192230912	34	4083
2026-01-01 13:14:46.64	234.51	24.54	-30.8	-31.9	21.3	0.00e+00	0	57	0	1215299584	33	4038
2026-01-01 13:14:50.68	235.52	24.86	-31.2	-32.5	20.8	0.00e+00	0	57	0	1238368256	33	4294
2026-01-01 13:14:54.72	236.56	25.18	-30.8	-32.0	21.2	0.00e+00	0	57	0	1260388352	33	4080
2026-01-01 13:14:58.77	237.62	25.50	-31.1	-32.3	21.0	0.00e+00	0	57	0	1283457024	33	4205
2026-01-01 13:15:02.81	238.70	25.80	-30.7	-31.9	21.3	0.00e+00	0	57	0	1305477120	33	4015
2026-01-01 13:15:06.85	239.80	26.10	-30.6	-31.8	21.4	0.00e+00	0	57	0	1328545792	33	3985
2026-01-01 13:15:10.89	240.92	26.39	-30.5	-31.7	21.5	0.00e+00	0	57	0	1351614464	32	4162
2026-01-01 13:15:14.93	242.05	26.67	-30.6	-31.7	21.4	0.00e+00	0	57	0	1374683136	32	4185
2026-01-01 13:15:18.97	243.21	26.94	-30.7	-31.9	21.3	0.00e+00	0	57	0	1396703232	32	4267
2026-01-01 13:15:23.01	244.39	27.20	-30.7	-31.9	21.3	0.00e+00	0	57	0	1419771904	32	4259
2026-01-01 13:15:27.05	245.58	27.46	-30.6	-31.8	21.3	0.00e+00	0	57	0	1441792000	32	4217
2026-01-01 13:15:31.09	246.80	27.70	-30.6	-31.8	21.3	0.00e+00	0	57	0	1464860672	32	4227
2026-01-01 13:15:35.13	248.03	27.93	-30.5	-31.6	21.6	0.00e+00	0	57	0	1487929344	32	4135
2026-01-01 13:15:39.17	249.27	28.14	-30.8	-31.8	22.1	0.00e+00	0	57	0	1509949440	32	4229
2026-01-01 13:15:43.21	250.54	28.34	-30.2	-31.2	22.7	0.00e+00	0	57	0	1533018112	32	3923
2026-01-01 13:15:47.26	251.82	28.53	-30.8	-31.9	22.1	0.00e+00	0	57	0	1556086784	32	4244
2026-01-01 13:15:51.30	253.11	28.71	-30.8	-31.8	22.2	0.00e+00	0	57	0	1579155456	32	4200
2026-01-01 13:15:55.34	254.42	28.87	-30.7	-31.7	22.3	0.00e+00	0	57	0	1601175552	32	4162
2026-01-01 13:15:59.39	255.74	29.02	-30.6	-31.6	22.3	0.00e+00	0	57	0	1624244224	32	4143
2026-01-01 13:16:03.43	257.07	29.15	-30.7	-31.7	22.3	0.00e+00	0	57	0	1647312896	32	4174
2026-01-01 13:16:07.47	258.41	29.26	-30.7	-31.8	22.2	0.00e+00	0	57	0	1669332992	32	4202
2026-01-01 13:16:11.51	259.76	29.36	-30.8	-31.8	22.1	0.00e+00	0	57	0	1692401664	32	4230
2026-01-01 13:16:15.55	261.11	29.44	-30.8	-31.8	22.2	0.00e+00	0	57	0	1715470336	32	4224
2026-01-01 13:16:19.60	262.48	29.50	-30.8	-31.8	22.2	0.00e+00	0	57	0	1737490432	32	4198
2026-01-01 13:16:23.64	263.84	29.55	-30.6	-31.6	22.3	0.00e+00	0	57	0	1760559104	32	4139
2026-01-01 13:16:27.68	265.21	29.57	-30.6	-31.6	22.3	0.00e+00	0	57	0	1783627776	32	4136
2026-01-01 13:16:31.72	266.58	29.58	-30.6	-31.6	22.3	0.00e+00	0	57	0	1805647872	32	4123
2026-01-01 13:16:35.77	267.95	29.58	-30.6	-31.5	22.4	0.00e+00	0	57	0	1828716544	32	4097
2026-01-01 13:16:39.81	269.32	29.55	-30.7	-31.8	22.2	0.00e+00	0	57	0	1851785216	32	4196
2026-01-01 13:16:43.85	270.69	29.51	-30.6	-31.6	22.4	0.00e+00	0	57	0	1873805312	32	4112
2026-01-01 13:16:47.89	272.05	29.45	-30.8	-31.8	22.2	0.00e+00	0	57	0	1896873984	32	4218
2026-01-01 13:16:51.93	273.40	29.38	-30.8	-31.8	22.2	0.00e+00	0	57	0	1919942656	32	4206
2026-01-01 13:16:55.97	274.75	29.28	-30.7	-31.7	22.3	0.00e+00	0	57	0	1941962752	32	4151
2026-01-01 13:17:00.01	276.09	29.17	-30.9	-31.9	22.1	0.00e+00	0	58	0	1965031424	32	4267
2026-01-01 13:17:04.05	277.42	29.05	-30.8	-31.8	22.2	0.00e+00	0	57	0	1988100096	32	4208
2026-01-01 13:17:08.10	278.75	28.91	-30.8	-31.8	22.2	0.00e+00	0	57	0	2011168768	32	4215
2026-01-01 13:17:12.14	280.05	28.75	-30.7	-31.7	22.3	0.00e+00	0	57	0	2033188864	32	4170
2026-01-01 13:17:16.18	281.35	28.58	-30.6	-31.6	22.3	0.00e+00	0	57	0	2056257536	32	4127
2026-01-01 13:17:20.21	282.62	28.39	-30.7	-31.7	22.2	0.00e+00	0	57	0	2078277632	32	4182
2026-01-01 13:17:24.25	283.89	28.19	-30.8	-31.9	22.1	0.00e+00	0	57	0	2101346304	32	4243
2026-01-01 13:17:28.29	285.13	27.98	-31.1	-32.1	21.9	0.00e+00	0	57	0	2124414976	32	4366
2026-01-01 13:17:32.33	286.37	27.76	-31.0	-32.0	22.0	0.00e+00	0	57	0	2147483648	32	4317
2026-01-01 13:17:36.38	287.58	27.52	-30.9	-31.9	22.0	0.00e+00	0	57	0	2169503744	32	4274
2026-01-01 13:17:40.41	288.78	27.27	-31.0	-32.0	22.0	0.00e+00	0	57	0	2192572416	32	4306
2026-01-01 13:17:44.46	289.96	27.01	-31.1	-32.1	21.9	0.00e+00	0	57	0	2215641088	32	4381
2026-01-01 13:17:48.50	291.12	26.75	-30.8	-31.8	22.2	0.00e+00	0	57	0	2237661184	32	4204
2026-01-01 13:17:52.54	292.25	26.47	-31.1	-32.1	21.8	0.00e+00	0	57	0	2260729856	32	4383
2026-01-01 13:17:56.58	293.37	26.18	-30.9	-31.9	22.0	0.00e+00	0	57	0	2283798528	32	4286
2026-01-01 13:18:00.63	294.47	25.89	-31.1	-32.1	21.8	0.00e+00	0	57	0	2305818624	32	4371
2026-01-01 13:18:04.67	295.55	25.59	-31.3	-32.3	21.6	0.00e+00	0	57	0	2328887296	33	4229
2026-01-01 13:18:08.71	296.61	25.28	-31.2	-32.2	21.7	0.00e+00	0	57	0	2351955968	33	4165
2026-01-01 13:18:12.75	297.65	24.96	-31.3	-32.3	21.6	0.00e+00	0	57	0	2373976064	33	4238
2026-01-01 13:18:16.79	298.67	24.64	-31.5	-32.5	21.4	0.00e+00	0	57	0	2397044736	33	4340
2026-01-01 13:18:20.83	299.66	24.32	-31.4	-32.5	21.5	0.00e+00	0	57	0	2420113408	33	4296
2026-01-01 13:18:24.87	300.64	23.99	-31.4	-32.5	21.5	0.00e+00	0	58	0	2442133504	33	4298
2026-01-01 13:18:28.91	301.60	23.65	-31.4	-32.5	21.4	0.00e+00	0	58	0	2465202176	33	4299
2026-01-01 13:18:32.96	302.54	23.31	-31.4	-32.5	21.4	0.00e+00	0	58	0	2488270848	33	4313
2026-01-01 13:18:37.00	303.46	22.97	-31.5	-32.6	21.3	0.00e+00	0	57	0	2510290944	33	4349
2026-01-01 13:18:41.04	304.35	22.63	-31.6	-32.7	21.2	0.00e+00	0	58	0	2533359616	33	4422
2026-01-01 13:18:45.09	305.23	22.28	-31.7	-32.8	21.1	0.00e+00	0	57	0	2556428288	34	4213
2026-01-01 13:18:49.13	306.09	21.93	-32.2	-33.3	20.6	0.00e+00	0	58	0	2579496960	34	4482
2026-01-01 13:18:53.17	306.93	21.59	-31.9	-33.0	20.9	0.00e+00	0	57	0	2601517056	34	4318
2026-01-01 13:18:57.21	307.76	21.24	-31.9	-33.0	20.9	0.00e+00	0	58	0	2624585728	34	4298
2026-01-01 13:19:01.25	308.56	20.88	-32.2	-33.3	20.6	0.00e+00	0	57	0	2647654400	34	4474
2026-01-01 13:19:05.29	309.35	20.53	-32.1	-33.2	20.7	0.00e+00	0	57	0	2669674496	35	4176
2026-01-01 13:19:09.33	310.12	20.18	-32.3	-33.5	20.4	0.00e+00	0	57	0	2692743168	35	4295
2026-01-01 13:19:13.37	310.87	19.83	-32.4	-33.5	20.4	0.00e+00	0	57	0	2714763264	35	4322
2026-01-01 13:19:17.41	311.60	19.48	-32.6	-33.7	20.2	0.00e+00	0	58	0	2737831936	35	4410
2026-01-01 13:19:21.45	312.32	19.13	-33.4	-34.5	20.1	0.00e+00	0	57	0	2760900608	37	4331
2026-01-01 13:19:25.49	313.02	18.78	-33.5	-34.6	20.0	0.00e+00	0	57	0	2783969280	37	4382
2026-01-01 13:19:29.54	313.71	18.43	-33.4	-34.5	20.1	0.00e+00	0	58	0	2805989376	37	4323
2026-01-01 13:19:33.58	314.39	18.08	-33.4	-34.6	20.0	0.00e+00	0	58	0	2829058048	37	4361
2026-01-01 13:19:37.62	315.04	17.73	-33.7	-34.9	19.7	0.00e+00	0	58	0	2852126720	37	4506
2026-01-01 13:19:41.67	315.69	17.39	-33.4	-34.6	20.0	0.00e+00	0	58	0	2874146816	37	4360
2026-01-01 13:19:45.70	316.32	17.04	-33.5	-34.7	19.9	0.00e+00	0	57	0	2897215488	37	4400
2026-01-01 13:19:49.74	316.93	16.70	-33.7	-34.9	19.7	0.00e+00	0	57	0	2920284160	37	4505
2026-01-01 13:19:53.79	317.53	16.36	-33.6	-34.8	19.7	0.00e+00	0	57	0	2942304256	37	4472
2026-01-01 13:19:57.83	318.12	16.02	-33.8	-35.0	19.5	0.00e+00	0	57	0	2965372928	38	4338
2026-01-01 13:20:01.87	318.70	15.68	-34.0	-35.2	19.3	0.00e+00	0	57	0	2988441600	38	4432
2026-01-01 13:20:05.91	319.26	15.35	-34.0	-35.2	19.3	0.00e+00	0	57	0	3010461696	38	4413
2026-01-01 13:20:09.95	319.81	15.02	-34.2	-35.4	19.1	0.00e+00	0	57	0	3033530368	38	4517
2026-01-01 13:20:14.00	320.35	14.69	-34.4	-35.7	18.9	0.00e+00	0	57	0	3056599040	39	4398
2026-01-01 13:20:18.04	320.88	14.36	-34.4	-35.7	18.8	0.00e+00	0	58	0	3079667712	39	4405
2026-01-01 13:20:22.08	321.40	14.03	-34.3	-35.6	18.9	0.00e+00	0	58	0	3101687808	39	4359
2026-01-01 13:20:26.12	321.91	13.71	-34.3	-35.5	18.9	0.00e+00	0	57	0	3124756480	39	4320
2026-01-01 13:20:30.16	322.40	13.39	-34.3	-35.5	18.9	0.00e+00	0	57	0	3146776576	39	4334
2026-01-01 13:20:34.20	322.89	13.07	-34.4	-35.7	18.8	0.00e+00	0	58	0	3169845248	39	4409
2026-01-01 13:20:38.24	323.36	12.75	-34.6	-35.9	18.6	0.00e+00	0	58	0	3192913920	39	4494
2026-01-01 13:20:42.28	323.83	12.44	-34.5	-35.8	18.6	0.00e+00	0	57	0	3215982592	39	4482
2026-01-01 13:20:46.32	324.29	12.13	-34.6	-35.9	18.5	0.00e+00	0	58	0	3238002688	39	4512
2026-01-01 13:20:50.37	324.74	11.82	-34.7	-36.0	18.3	0.00e+00	0	58	0	3261071360	40	4322
2026-01-01 13:20:54.41	325.17	11.51	-34.9	-36.3	18.0	0.00e+00	0	58	0	3284140032	40	4458
2026-01-01 13:20:58.45	325.60	11.21	-35.0	-36.4	17.9	0.00e+00	0	57	0	3306160128	40	4502
2026-01-01 13:21:02.49	326.03	10.90	-35.0	-36.3	18.0	0.00e+00	0	57	0	3329228800	40	4474
2026-01-01 13:21:06.54	326.44	10.60	-35.1	-36.5	17.8	0.00e+00	0	58	0	3352297472	40	4547
2026-01-01 13:21:10.58	326.84	10.31	-35.2	-36.6	17.6	0.00e+00	0	58	0	3374317568	41	4391
2026-01-01 13:21:14.62	327.24	10.01	-35.5	-36.9	17.3	0.00e+00	0	58	0	3397386240	41	4531
2026-01-01 13:21:18.67	327.63	9.72	-35.6	-37.1	17.1	0.00e+00	0	57	0	3420454912	41	4633
2026-01-01 13:21:22.71	328.02	9.43	-35.6	-37.1	17.1	0.00e+00	0	57	0	3442475008	41	4631
2026-01-01 13:21:26.75	328.39	9.14	-35.6	-37.1	17.0	0.00e+00	0	57	0	3465543680	41	4624
2026-01-01 13:21:30.79	328.76	8.86	-35.7	-37.2	16.9	0.00e+00	0	58	0	3488612352	42	4407
2026-01-01 13:21:34.83	329.12	8.57	-35.9	-37.4	16.7	0.00e+00	0	58	0	3511681024	42	4506
2026-01-01 13:21:38.87	329.48	8.29	-36.0	-37.6	16.5	0.00e+00	0	58	0	3533701120	42	4607
2026-01-01 13:21:42.92	329.83	8.01	-36.0	-37.5	16.6	0.00e+00	0	57	0	3556769792	42	4566
2026-01-01 13:21:46.96	330.17	7.74	-44.7	-56.3	3.8	8.46e-01	0	58	104	3560964096	60	14177
2026-01-01 13:21:51.00	330.51	7.46	-45.0	-56.6	3.8	8.47e-01	0	58	104	3560964096	60	14684
2026-01-01 13:21:55.05	330.84	7.19	-45.0	-56.5	3.8	8.46e-01	0	58	104	3560964096	60	14521
2026-01-01 13:21:59.09	331.16	6.92	-44.9	-56.5	3.8	8.47e-01	0	58	104	3560964096	60	14457
2026-01-01 13:22:03.13	331.48	6.65	-44.9	-56.5	3.8	8.47e-01	0	58	104	3560964096	60	14474
2026-01-01 13:22:07.17	331.80	6.39	-44.9	-56.5	3.8	8.47e-01	0	58	104	3560964096	60	14512
2026-01-01 13:22:11.22	332.11	6.12	-44.9	-56.5	3.8	8.45e-01	0	58	104	3560964096	60	14454
2026-01-01 13:22:15.26	332.41	5.86	-44.9	-56.5	3.8	8.47e-01	0	58	104	3560964096	60	14416
2026-01-01 13:22:19.31	332.71	5.60	-44.9	-56.5	3.8	8.46e-01	0	58	104	3560964096	60	14471
2026-01-01 13:22:23.35	333.00	5.34	-44.9	-56.5	3.8	8.46e-01	0	58	104	3560964096	60	14377
2026-01-01 13:22:27.39	333.29	5.09	-44.9	-56.5	3.8	8.46e-01	0	58	104	3560964096	60	14410
2026-01-01 13:22:31.43	333.57	4.83	-44.9	-56.5	3.8	8.46e-01	0	58	104	3560964096	60	14458
2026-01-01 13:22:35.47	333.85	4.58	-44.9	-56.5	3.8	8.47e-01	0	58	104	3560964096	60	14434
2026-01-01 13:22:39.52	334.13	4.33	-44.9	-56.5	3.8	8.45e-01	0	58	104	3560964096	60	14431
2026-01-01 13:22:43.56	334.40	4.08	-44.9	-56.5	3.8	8.46e-01	0	58	104	3560964096	60	14401
2026-01-01 13:22:47.61	334.67	3.84	-44.9	-56.5	3.8	8.46e-01	0	58	104	3560964096	60	14408
2026-01-01 13:22:51.65	334.93	3.59	-44.9	-56.4	3.8	8.47e-01	0	58	104	3560964096	60	14363
2026-01-01 13:22:55.70	335.19	3.35	-44.9	-56.5	3.8	8.45e-01	0	58	104	3560964096	60	14397
2026-01-01 13:22:59.74	335.44	3.11	-44.9	-56.5	3.8	8.46e-01	0	58	104	3560964096	60	14400
2026-01-01 13:23:03.78	335.69	2.87	-44.8	-56.4	3.8	8.47e-01	0	58	104	3560964096	60	14330
2026-01-01 13:23:07.82	335.94	2.63	-44.8	-56.4	3.8	8.46e-01	0	58	104	3560964096	60	14355
2026-01-01 13:23:11.87	336.18	2.39	-44.9	-56.4	3.8	8.46e-01	0	58	104	3560964096	60	14370
2026-01-01 13:23:15.91	336.42	2.16	-44.8	-56.4	3.8	8.47e-01	0	58	104	3560964096	60	14366
2026-01-01 13:23:19.96	336.66	1.92	-44.9	-56.4	3.8	8.46e-01	0	58	104	3560964096	60	14355

#Closed at: 2026-01-01 13:23:20
#Recorded file [3560 MB]: D:/lorett/data/31039_260101_160951.dat