passes_logs/2025/01/06/LEX_Murmansk/LEX_Murmansk__20250106_194125_NOAA_18_rec.log

#Pass ID: 20250106_194125_NOAA 18
#Satellite: NOAA 18
#Configuration: NOAA 18
#Start time: 2025-01-06 19:41:20.584288

#LorettStation: 1.0.0 05.05.2024
#Station: LEX_Murmansk
#Location: 33.156738 lon 68.926811 lat
#TLE: 1 28654U 05018A   25005.81892802  .00000565  00000+0  32357-3 0  9997
#TLE: 2 28654  98.8581  86.9638 0013924 205.2694 154.7799 14.13478522 11802

#Time	Az	El	Level	SNR
2025-01-06 19:41:32.739314	177.9	16.3	-91.9	4.6
2025-01-06 19:41:35.046524	178.1	16.5	-91.8	3.7
2025-01-06 19:41:37.363029	178.2	16.8	-91.8	5.2
2025-01-06 19:41:39.684553	178.4	17.0	-91.5	3.2
2025-01-06 19:41:42.003831	178.5	17.3	-91.2	3.9
2025-01-06 19:41:44.317208	178.7	17.5	-91.7	1.8
2025-01-06 19:41:46.627196	178.8	17.8	-91.1	4.6
2025-01-06 19:41:48.937729	179.0	18.0	-92.2	7.3
2025-01-06 19:41:51.256765	179.1	18.3	-92.2	5.4
2025-01-06 19:41:53.559615	179.3	18.6	-92.0	6.2
2025-01-06 19:41:55.864472	179.4	18.8	-92.3	7.5
2025-01-06 19:41:58.171036	179.6	19.1	-92.1	8.8
2025-01-06 19:42:00.414407	179.7	19.4	-92.8	12.2
2025-01-06 19:42:02.656835	179.9	19.6	-92.7	10.8
2025-01-06 19:42:04.899132	180.1	19.9	-92.4	11.5
2025-01-06 19:42:07.141081	180.2	20.2	-91.7	3.8
2025-01-06 19:42:09.403834	180.4	20.5	-92.2	7.9
2025-01-06 19:42:11.686301	180.6	20.8	-92.2	12.3
2025-01-06 19:42:13.975208	180.8	21.0	-92.9	11.3
2025-01-06 19:42:16.279318	180.9	21.3	-92.4	10.0
2025-01-06 19:42:18.590312	181.1	21.6	-93.0	10.2
2025-01-06 19:42:20.910090	181.3	21.9	-92.7	8.2
2025-01-06 19:42:23.215578	181.5	22.2	-92.5	8.5
2025-01-06 19:42:25.530037	181.7	22.6	-93.0	5.4
2025-01-06 19:42:27.838597	181.9	22.9	-92.7	8.3
2025-01-06 19:42:30.139112	182.1	23.2	-92.3	10.1
2025-01-06 19:42:32.406414	182.3	23.5	-92.6	8.1
2025-01-06 19:42:34.699878	182.5	23.8	-92.7	10.1
2025-01-06 19:42:36.996617	182.7	24.1	-92.3	12.7
2025-01-06 19:42:39.266793	183.0	24.4	-92.2	11.3
2025-01-06 19:42:41.553177	183.2	24.8	-92.7	7.4
2025-01-06 19:42:43.847821	183.4	25.1	-92.8	12.4
2025-01-06 19:42:46.135095	183.6	25.4	-91.9	10.7
2025-01-06 19:42:48.421642	183.9	25.8	-92.1	10.0
2025-01-06 19:42:50.714885	184.1	26.1	-91.8	10.5
2025-01-06 19:42:53.013709	184.4	26.5	-92.2	11.6
2025-01-06 19:42:55.326888	184.6	26.8	-92.3	8.5
2025-01-06 19:42:57.632339	184.9	27.2	-91.3	4.1
2025-01-06 19:42:59.946348	185.2	27.6	-92.5	6.8
2025-01-06 19:43:02.251266	185.4	27.9	-92.7	11.1
2025-01-06 19:43:04.568134	185.7	28.3	-92.8	12.2
2025-01-06 19:43:06.880221	186.0	28.7	-92.2	12.6
2025-01-06 19:43:09.187172	186.3	29.0	-91.5	7.7
2025-01-06 19:43:11.493100	186.6	29.4	-92.6	7.3
2025-01-06 19:43:13.796391	186.9	29.8	-93.0	10.5
2025-01-06 19:43:16.104515	187.2	30.2	-92.3	4.4
2025-01-06 19:43:18.419596	187.5	30.6	-92.3	12.6
2025-01-06 19:43:20.730154	187.9	31.0	-92.5	11.4
2025-01-06 19:43:23.035757	188.2	31.4	-92.8	8.0
2025-01-06 19:43:25.338413	188.5	31.8	-92.0	6.7
2025-01-06 19:43:27.599673	188.9	32.2	-92.4	5.7
2025-01-06 19:43:29.842553	189.2	32.6	-92.5	7.9
2025-01-06 19:43:32.084633	189.6	33.1	-92.3	8.4
2025-01-06 19:43:34.327393	190.0	33.5	-92.5	10.3
2025-01-06 19:43:36.611760	190.3	33.9	-92.3	7.5
2025-01-06 19:43:38.911280	190.7	34.3	-91.0	7.1
2025-01-06 19:43:41.222342	191.1	34.8	-92.1	4.8
2025-01-06 19:43:43.537583	191.6	35.2	-92.5	9.4
2025-01-06 19:43:45.847413	192.0	35.7	-92.9	7.3
2025-01-06 19:43:48.161657	192.4	36.1	-92.4	13.4
2025-01-06 19:43:50.462659	192.9	36.6	-93.2	13.7
2025-01-06 19:43:52.789757	193.4	37.1	-92.4	13.6
2025-01-06 19:43:55.097267	193.8	37.5	-92.5	5.4
2025-01-06 19:43:57.412133	194.3	38.0	-92.7	10.5
2025-01-06 19:43:59.732669	194.9	38.5	-93.2	12.8
2025-01-06 19:44:01.995612	195.4	39.0	-93.0	14.3
2025-01-06 19:44:04.288190	195.9	39.4	-92.3	17.1
2025-01-06 19:44:06.600951	196.5	39.9	-92.8	13.8
2025-01-06 19:44:08.899219	197.0	40.4	-93.0	19.1
2025-01-06 19:44:11.186276	197.6	40.9	-92.0	16.9
2025-01-06 19:44:13.465493	198.2	41.4	-92.5	12.8
2025-01-06 19:44:15.734629	198.8	41.9	-92.6	17.4
2025-01-06 19:44:18.031987	199.5	42.4	-92.3	12.1
2025-01-06 19:44:20.338424	200.1	42.9	-92.5	18.0
2025-01-06 19:44:22.632583	200.8	43.4	-92.8	18.8
2025-01-06 19:44:24.902310	201.5	43.9	-92.4	18.7
2025-01-06 19:44:27.197738	202.2	44.4	-92.2	15.9
2025-01-06 19:44:29.502593	203.0	45.0	-92.5	19.3
2025-01-06 19:44:31.804694	203.8	45.5	-92.1	19.9
2025-01-06 19:44:34.113157	204.6	46.0	-92.2	14.0
2025-01-06 19:44:36.417098	205.4	46.5	-91.6	10.2
2025-01-06 19:44:38.723701	206.3	47.0	-92.9	15.6
2025-01-06 19:44:41.002368	207.1	47.6	-92.5	10.2
2025-01-06 19:44:43.302414	208.1	48.1	-92.2	16.2
2025-01-06 19:44:45.601667	209.0	48.6	-91.4	14.0
2025-01-06 19:44:47.915781	210.0	49.1	-92.4	15.7
2025-01-06 19:44:50.222232	211.0	49.6	-92.1	15.9
2025-01-06 19:44:52.530137	212.0	50.1	-92.9	11.2
2025-01-06 19:44:54.829868	213.1	50.6	-92.8	16.7
2025-01-06 19:44:57.135476	214.2	51.1	-92.4	16.3
2025-01-06 19:44:59.452525	215.4	51.6	-92.9	15.5
2025-01-06 19:45:01.759261	216.6	52.1	-92.7	19.5
2025-01-06 19:45:04.066464	217.8	52.6	-92.3	9.4
2025-01-06 19:45:06.374631	219.1	53.0	-92.3	19.8
2025-01-06 19:45:08.683334	220.4	53.5	-92.9	15.7
2025-01-06 19:45:10.981091	221.7	53.9	-92.8	18.4
2025-01-06 19:45:13.258530	223.1	54.4	-92.3	25.3
2025-01-06 19:45:15.548413	224.5	54.8	-92.9	21.7
2025-01-06 19:45:17.859362	226.0	55.2	-92.7	25.5
2025-01-06 19:45:20.174675	227.5	55.6	-92.0	23.6
2025-01-06 19:45:22.493541	229.1	55.9	-92.6	21.2
2025-01-06 19:45:24.799781	230.7	56.3	-93.1	23.2
2025-01-06 19:45:27.111753	232.3	56.6	-92.3	15.4
2025-01-06 19:45:29.427396	234.0	56.9	-92.8	20.5
2025-01-06 19:45:31.739830	235.7	57.2	-92.3	24.9
2025-01-06 19:45:34.044388	237.4	57.5	-92.7	14.4
2025-01-06 19:45:36.350757	239.2	57.7	-92.3	18.4
2025-01-06 19:45:38.660054	241.0	57.9	-93.1	10.4
2025-01-06 19:45:40.971169	242.9	58.1	-92.6	14.9
2025-01-06 19:45:43.268287	244.7	58.3	-92.3	12.2
2025-01-06 19:45:45.558226	246.6	58.4	-92.6	10.1
2025-01-06 19:45:47.848978	248.4	58.5	-92.7	11.4
2025-01-06 19:45:50.149177	250.4	58.6	-92.4	4.7
2025-01-06 19:45:52.437308	252.3	58.7	-92.5	10.3
2025-01-06 19:45:54.717327	254.2	58.7	-92.1	15.1
2025-01-06 19:45:57.010760	256.1	58.7	-93.1	9.6
2025-01-06 19:45:59.303608	258.0	58.6	-92.4	14.7
2025-01-06 19:46:01.611516	259.9	58.6	-92.2	12.7
2025-01-06 19:46:03.920994	261.8	58.5	-92.5	14.7
2025-01-06 19:46:06.228237	263.7	58.3	-92.4	16.9
2025-01-06 19:46:08.538581	265.5	58.2	-92.8	17.7
2025-01-06 19:46:10.858014	267.4	58.0	-92.4	19.0
2025-01-06 19:46:13.181104	269.2	57.8	-92.3	15.9
2025-01-06 19:46:15.487315	271.0	57.6	-92.3	11.9
2025-01-06 19:46:17.788461	272.8	57.3	-92.6	17.5
2025-01-06 19:46:20.102340	274.5	57.0	-91.9	18.2
2025-01-06 19:46:22.413416	276.2	56.7	-92.4	16.8
2025-01-06 19:46:24.724440	277.8	56.4	-92.4	20.0
2025-01-06 19:46:27.039063	279.4	56.1	-92.5	7.8
2025-01-06 19:46:29.356253	281.0	55.7	-92.0	13.6
2025-01-06 19:46:31.657808	282.5	55.3	-92.0	15.3
2025-01-06 19:46:33.970397	284.0	54.9	-92.2	7.0
2025-01-06 19:46:36.286942	285.5	54.5	-91.5	14.2
2025-01-06 19:46:38.599291	286.9	54.1	-92.4	11.2
2025-01-06 19:46:40.917686	288.3	53.6	-92.0	15.6
2025-01-06 19:46:43.225964	289.6	53.2	-91.8	15.1
2025-01-06 19:46:45.544373	290.9	52.7	-92.2	18.2
2025-01-06 19:46:47.857159	292.1	52.2	-92.5	13.4
2025-01-06 19:46:50.159106	293.3	51.8	-92.0	11.3
2025-01-06 19:46:52.468164	294.5	51.3	-92.1	21.3
2025-01-06 19:46:54.783663	295.6	50.8	-92.7	14.6
2025-01-06 19:46:57.097750	296.7	50.3	-91.9	13.5
2025-01-06 19:46:59.414004	297.8	49.8	-91.8	17.1
2025-01-06 19:47:01.711522	298.8	49.3	-92.6	11.8
2025-01-06 19:47:04.016069	299.8	48.8	-92.3	14.7
2025-01-06 19:47:06.322230	300.7	48.2	-91.8	14.7
2025-01-06 19:47:08.624229	301.6	47.7	-92.5	13.7
2025-01-06 19:47:10.923735	302.5	47.2	-92.5	11.6
2025-01-06 19:47:13.222350	303.4	46.7	-91.9	17.3
2025-01-06 19:47:15.533186	304.2	46.2	-92.1	9.0
2025-01-06 19:47:17.839783	305.1	45.7	-91.8	14.5
2025-01-06 19:47:20.157045	305.8	45.1	-91.8	8.9
2025-01-06 19:47:22.461064	306.6	44.6	-92.4	7.9
2025-01-06 19:47:24.768587	307.3	44.1	-92.0	19.0
2025-01-06 19:47:27.076966	308.1	43.6	-91.6	12.9
2025-01-06 19:47:29.388175	308.8	43.1	-91.6	17.4
2025-01-06 19:47:31.667172	309.4	42.6	-92.4	16.8
2025-01-06 19:47:33.909306	310.0	42.1	-92.1	13.5
2025-01-06 19:47:36.150803	310.7	41.6	-91.9	16.8
2025-01-06 19:47:38.391885	311.3	41.1	-92.1	18.0
2025-01-06 19:47:40.657545	311.8	40.6	-92.5	12.8
2025-01-06 19:47:42.958113	312.4	40.1	-92.3	8.5
2025-01-06 19:47:45.266425	313.0	39.6	-92.0	14.9
2025-01-06 19:47:47.573032	313.5	39.1	-92.8	9.1
2025-01-06 19:47:49.882128	314.1	38.7	-92.0	15.2
2025-01-06 19:47:52.192970	314.6	38.2	-91.8	8.9
2025-01-06 19:47:54.502613	315.1	37.7	-91.9	11.5
2025-01-06 19:47:56.807748	315.6	37.2	-92.5	9.0
2025-01-06 19:47:59.120213	316.0	36.8	-92.4	4.6
2025-01-06 19:48:01.409387	316.5	36.3	-92.4	9.9
2025-01-06 19:48:03.693709	316.9	35.9	-92.4	12.9
2025-01-06 19:48:05.995573	317.4	35.4	-92.3	7.7
2025-01-06 19:48:08.292763	317.8	35.0	-92.3	13.7
2025-01-06 19:48:10.586913	318.2	34.5	-92.4	11.3
2025-01-06 19:48:12.899626	318.6	34.1	-92.4	15.9
2025-01-06 19:48:15.193993	319.0	33.7	-92.6	18.4
2025-01-06 19:48:17.462726	319.4	33.2	-93.0	17.2
2025-01-06 19:48:19.753035	319.7	32.8	-92.9	15.7
2025-01-06 19:48:22.036684	320.1	32.4	-92.4	10.8
2025-01-06 19:48:24.321411	320.5	32.0	-92.5	13.1
2025-01-06 19:48:26.621936	320.8	31.6	-92.6	9.2
2025-01-06 19:48:28.921941	321.1	31.2	-92.7	15.8
2025-01-06 19:48:31.236888	321.5	30.8	-92.1	20.8
2025-01-06 19:48:33.545257	321.8	30.4	-92.6	15.1
2025-01-06 19:48:35.847054	322.1	30.0	-93.1	17.1
2025-01-06 19:48:38.138009	322.4	29.6	-92.1	12.2
2025-01-06 19:48:40.399832	322.7	29.2	-92.5	17.2
2025-01-06 19:48:42.684479	323.0	28.8	-93.4	11.1
2025-01-06 19:48:44.988627	323.3	28.5	-92.6	7.2
2025-01-06 19:48:47.273405	323.6	28.1	-92.2	10.6
2025-01-06 19:48:49.573148	323.8	27.7	-92.5	12.1
2025-01-06 19:48:51.863898	324.1	27.4	-92.9	12.7
2025-01-06 19:48:54.171041	324.4	27.0	-92.2	12.4
2025-01-06 19:48:56.480487	324.6	26.6	-93.0	9.5
2025-01-06 19:48:58.787160	324.9	26.3	-92.8	7.5
2025-01-06 19:49:01.087462	325.1	25.9	-92.3	3.6
2025-01-06 19:49:03.403705	325.4	25.6	-92.3	8.0
2025-01-06 19:49:05.709569	325.6	25.3	-92.7	12.4
2025-01-06 19:49:08.019938	325.8	24.9	-92.7	16.1
2025-01-06 19:49:10.329953	326.1	24.6	-92.0	10.1
2025-01-06 19:49:12.654111	326.3	24.3	-92.9	9.4
2025-01-06 19:49:14.958702	326.5	23.9	-92.7	6.2
2025-01-06 19:49:17.253855	326.7	23.6	-91.9	7.6
2025-01-06 19:49:19.530512	326.9	23.3	-92.2	13.3
2025-01-06 19:49:21.832639	327.1	23.0	-92.7	9.1
2025-01-06 19:49:24.139048	327.3	22.7	-92.5	6.5
2025-01-06 19:49:26.459963	327.5	22.4	-93.1	6.5
2025-01-06 19:49:28.775333	327.7	22.1	-92.8	13.8
2025-01-06 19:49:31.074567	327.9	21.8	-92.4	3.7
2025-01-06 19:49:33.383022	328.1	21.5	-92.1	12.5
2025-01-06 19:49:35.681251	328.3	21.2	-92.2	10.3
2025-01-06 19:49:37.996210	328.5	20.9	-92.7	9.2
2025-01-06 19:49:40.295483	328.7	20.6	-92.3	8.0
2025-01-06 19:49:42.602023	328.8	20.3	-93.0	3.3
2025-01-06 19:49:44.910786	329.0	20.0	-92.6	6.0
2025-01-06 19:49:47.232892	329.2	19.7	-92.2	6.2
2025-01-06 19:49:49.547208	329.4	19.5	-92.9	5.6
2025-01-06 19:49:51.862779	329.5	19.2	-92.7	5.6
2025-01-06 19:49:54.176258	329.7	18.9	-92.1	8.6
2025-01-06 19:49:56.486366	329.8	18.6	-92.8	7.9
2025-01-06 19:49:58.800045	330.0	18.4	-92.7	5.7
2025-01-06 19:50:01.096283	330.2	18.1	-92.5	3.8
2025-01-06 19:50:03.402858	330.3	17.9	-92.4	6.8
2025-01-06 19:50:05.704668	330.5	17.6	-92.7	5.7
2025-01-06 19:50:08.028178	330.6	17.3	-92.6	4.6
2025-01-06 19:50:10.338047	330.7	17.1	-92.0	5.5
2025-01-06 19:50:12.641230	330.9	16.8	-93.0	4.2
2025-01-06 19:50:14.947255	331.0	16.6	-92.9	4.7
2025-01-06 19:50:17.242145	331.2	16.3	-92.4	3.8
2025-01-06 19:50:19.554881	331.3	16.1	-92.8	8.0
2025-01-06 19:50:21.865585	331.4	15.9	-93.2	3.6
2025-01-06 19:50:24.168791	331.6	15.6	-92.3	3.5
2025-01-06 19:50:26.476864	331.7	15.4	-92.9	3.0
2025-01-06 19:50:28.778905	331.8	15.1	-92.2	7.6
2025-01-06 19:50:31.091053	332.0	14.9	-91.9	5.2
2025-01-06 19:50:33.396758	332.1	14.7	-92.1	4.3
#Closed at: 2025-01-06 19:41:25.537308