passes_logs/2025/01/06/LEX_Murmansk/LEX_Murmansk__20250106_162128_NOAA_18_rec.log

#Pass ID: 20250106_162128_NOAA 18
#Satellite: NOAA 18
#Configuration: NOAA 18
#Start time: 2025-01-06 16:21:23.912614

#LorettStation: 1.0.0 05.05.2024
#Station: LEX_Murmansk
#Location: 33.156738 lon 68.926811 lat
#TLE: 1 28654U 05018A   25005.81892802  .00000565  00000+0  32357-3 0  9997
#TLE: 2 28654  98.8581  86.9638 0013924 205.2694 154.7799 14.13478522 11802

#Time	Az	El	Level	SNR
2025-01-06 16:21:36.045134	79.9	16.0	-90.9	7.8
2025-01-06 16:21:37.197280	79.8	16.1	-90.6	12.3
2025-01-06 16:21:38.358299	79.6	16.2	-90.6	8.8
2025-01-06 16:21:39.518425	79.5	16.4	-89.7	7.5
2025-01-06 16:21:40.669020	79.3	16.5	-89.5	7.2
2025-01-06 16:21:41.826525	79.2	16.6	-89.6	9.8
2025-01-06 16:21:42.986065	79.0	16.7	-90.1	7.6
2025-01-06 16:21:44.142530	78.9	16.8	-89.4	2.4
2025-01-06 16:21:45.295627	78.7	16.9	-89.8	10.1
2025-01-06 16:21:46.449616	78.6	17.0	-90.3	9.4
2025-01-06 16:21:47.607856	78.4	17.1	-90.7	8.7
2025-01-06 16:21:48.757249	78.2	17.2	-90.8	13.6
2025-01-06 16:21:49.912749	78.1	17.3	-90.2	15.8
2025-01-06 16:21:51.060984	77.9	17.4	-90.2	13.0
2025-01-06 16:21:52.219148	77.7	17.5	-89.9	11.2
2025-01-06 16:21:53.367030	77.6	17.6	-90.2	12.2
2025-01-06 16:21:54.524623	77.4	17.7	-90.1	9.8
2025-01-06 16:21:55.674567	77.3	17.8	-90.1	9.4
2025-01-06 16:21:56.841629	77.1	17.9	-90.0	10.9
2025-01-06 16:21:57.999510	76.9	18.0	-90.1	9.7
2025-01-06 16:21:59.159907	76.7	18.1	-89.7	8.3
2025-01-06 16:22:00.299934	76.6	18.2	-89.9	12.6
2025-01-06 16:22:01.441844	76.4	18.3	-89.8	6.1
2025-01-06 16:22:02.590203	76.2	18.4	-90.0	5.1
2025-01-06 16:22:03.739873	76.1	18.5	-90.1	9.0
2025-01-06 16:22:04.897696	75.9	18.6	-90.2	12.3
2025-01-06 16:22:06.052614	75.7	18.7	-90.3	9.7
2025-01-06 16:22:07.198281	75.5	18.8	-89.6	12.1
2025-01-06 16:22:08.347080	75.4	18.9	-89.9	11.0
2025-01-06 16:22:09.499916	75.2	19.0	-90.3	13.1
2025-01-06 16:22:10.643877	75.0	19.1	-90.0	11.1
2025-01-06 16:22:11.793230	74.8	19.3	-90.3	8.4
2025-01-06 16:22:12.953462	74.6	19.4	-90.2	8.9
2025-01-06 16:22:14.106500	74.4	19.5	-89.9	12.3
2025-01-06 16:22:15.258463	74.3	19.6	-90.0	14.1
2025-01-06 16:22:16.403591	74.1	19.7	-89.6	7.2
2025-01-06 16:22:17.564737	73.9	19.8	-90.6	13.7
2025-01-06 16:22:18.723339	73.7	19.9	-90.4	10.9
2025-01-06 16:22:19.882739	73.5	20.0	-90.7	9.7
2025-01-06 16:22:21.032485	73.3	20.1	-90.5	5.7
2025-01-06 16:22:22.185179	73.1	20.2	-90.2	7.0
2025-01-06 16:22:23.339197	72.9	20.3	-90.4	7.9
2025-01-06 16:22:24.496197	72.7	20.4	-90.5	5.1
2025-01-06 16:22:25.646534	72.5	20.5	-90.4	9.6
2025-01-06 16:22:26.803742	72.3	20.6	-90.3	10.4
2025-01-06 16:22:27.964587	72.1	20.8	-90.5	14.1
2025-01-06 16:22:29.115529	71.9	20.9	-90.0	11.7
2025-01-06 16:22:30.277290	71.7	21.0	-90.0	12.1
2025-01-06 16:22:31.436088	71.5	21.1	-89.8	7.9
2025-01-06 16:22:32.592205	71.3	21.2	-90.3	7.0
2025-01-06 16:22:33.742613	71.1	21.3	-90.1	12.8
2025-01-06 16:22:34.904147	70.9	21.4	-90.0	12.3
2025-01-06 16:22:36.058867	70.7	21.5	-90.0	8.5
2025-01-06 16:22:37.214275	70.4	21.6	-90.0	17.2
2025-01-06 16:22:38.363628	70.2	21.7	-90.2	10.3
2025-01-06 16:22:39.514903	70.0	21.8	-90.4	9.0
2025-01-06 16:22:40.666470	69.8	21.9	-90.8	9.3
2025-01-06 16:22:41.821240	69.6	22.0	-90.4	8.4
2025-01-06 16:22:42.980128	69.4	22.2	-90.6	6.1
2025-01-06 16:22:44.136685	69.1	22.3	-90.6	6.9
2025-01-06 16:22:45.292087	68.9	22.4	-90.4	10.4
2025-01-06 16:22:46.444759	68.7	22.5	-90.5	8.5
2025-01-06 16:22:47.596893	68.5	22.6	-90.6	13.2
2025-01-06 16:22:48.752883	68.2	22.7	-91.2	15.1
2025-01-06 16:22:49.904846	68.0	22.8	-90.7	11.7
2025-01-06 16:22:51.056847	67.8	22.9	-90.7	11.4
2025-01-06 16:22:52.216502	67.5	23.0	-90.6	12.4
2025-01-06 16:22:53.365290	67.3	23.1	-90.5	15.6
2025-01-06 16:22:54.516676	67.1	23.2	-90.9	8.1
2025-01-06 16:22:55.676346	66.8	23.3	-90.7	8.5
2025-01-06 16:22:56.830561	66.6	23.4	-90.9	13.2
2025-01-06 16:22:57.983516	66.3	23.6	-90.0	11.5
2025-01-06 16:22:59.140477	66.1	23.7	-90.2	13.3
2025-01-06 16:23:00.285942	65.9	23.8	-90.1	10.6
2025-01-06 16:23:01.437816	65.6	23.9	-90.2	10.6
2025-01-06 16:23:02.595656	65.4	24.0	-90.4	8.9
2025-01-06 16:23:03.747607	65.1	24.1	-90.7	12.6
2025-01-06 16:23:04.904076	64.9	24.2	-90.7	10.7
2025-01-06 16:23:06.056723	64.6	24.3	-90.2	6.8
2025-01-06 16:23:07.214607	64.3	24.4	-89.8	9.1
2025-01-06 16:23:08.369958	64.1	24.5	-89.6	9.0
2025-01-06 16:23:09.525892	63.8	24.6	-89.8	8.2
2025-01-06 16:23:10.681557	63.6	24.7	-90.2	8.5
2025-01-06 16:23:11.840234	63.3	24.8	-90.2	10.3
2025-01-06 16:23:12.995193	63.0	24.9	-90.8	11.9
2025-01-06 16:23:14.148664	62.8	25.0	-90.2	9.9
2025-01-06 16:23:15.304902	62.5	25.1	-90.3	10.1
2025-01-06 16:23:16.462607	62.2	25.2	-90.6	6.7
2025-01-06 16:23:17.606891	62.0	25.4	-90.4	6.8
2025-01-06 16:23:18.758570	61.7	25.5	-90.3	13.0
2025-01-06 16:23:19.909536	61.4	25.6	-90.9	14.7
2025-01-06 16:23:21.066266	61.1	25.7	-90.8	8.6
2025-01-06 16:23:22.215075	60.9	25.8	-90.4	7.6
2025-01-06 16:23:23.370461	60.6	25.9	-90.2	7.7
2025-01-06 16:23:24.533038	60.3	26.0	-90.9	7.0
2025-01-06 16:23:25.683936	60.0	26.1	-90.4	5.0
2025-01-06 16:23:26.833938	59.7	26.2	-90.7	7.5
2025-01-06 16:23:27.989277	59.4	26.3	-90.9	5.5
2025-01-06 16:23:29.142237	59.2	26.4	-90.7	5.1
2025-01-06 16:23:30.299502	58.9	26.5	-90.7	5.8
2025-01-06 16:23:31.454151	58.6	26.6	-90.6	3.4
2025-01-06 16:23:32.606876	58.3	26.7	-90.7	6.5
2025-01-06 16:23:33.751982	58.0	26.8	-91.0	9.7
2025-01-06 16:23:34.903343	57.7	26.9	-90.4	7.0
2025-01-06 16:23:36.031606	57.4	27.0	-90.5	7.1
2025-01-06 16:23:37.153217	57.1	27.0	-90.6	5.2
2025-01-06 16:23:38.274024	56.8	27.1	-90.4	8.3
2025-01-06 16:23:39.394506	56.5	27.2	-90.3	4.4
2025-01-06 16:23:40.514830	56.2	27.3	-90.5	6.5
2025-01-06 16:23:41.635532	55.9	27.4	-90.6	7.4
2025-01-06 16:23:42.756703	55.6	27.5	-90.7	6.1
2025-01-06 16:23:43.881479	55.3	27.6	-90.2	4.5
2025-01-06 16:23:45.021558	55.0	27.7	-90.8	5.2
2025-01-06 16:23:46.182525	54.7	27.8	-90.4	5.9
2025-01-06 16:23:47.328628	54.4	27.9	-89.8	3.8
2025-01-06 16:23:48.475566	54.0	28.0	-90.1	7.6
2025-01-06 16:23:49.623756	53.7	28.0	-90.7	7.6
2025-01-06 16:23:50.781237	53.4	28.1	-90.6	4.1
2025-01-06 16:23:51.939136	53.1	28.2	-90.5	6.2
2025-01-06 16:23:53.090881	52.7	28.3	-90.3	8.6
2025-01-06 16:23:54.250508	52.4	28.4	-89.9	8.9
2025-01-06 16:23:55.402642	52.1	28.5	-89.5	11.3
2025-01-06 16:23:56.550766	51.8	28.6	-89.8	5.8
2025-01-06 16:23:57.708564	51.4	28.6	-89.8	8.1
2025-01-06 16:23:58.855571	51.1	28.7	-89.9	8.0
2025-01-06 16:24:00.008124	50.7	28.8	-89.9	6.1
2025-01-06 16:24:01.152586	50.4	28.9	-89.7	6.4
2025-01-06 16:24:02.306281	50.1	29.0	-89.9	9.3
2025-01-06 16:24:03.454572	49.7	29.1	-90.1	5.5
2025-01-06 16:24:04.615115	49.4	29.1	-90.5	7.2
2025-01-06 16:24:05.766241	49.0	29.2	-90.1	9.7
2025-01-06 16:24:06.928696	48.7	29.3	-90.3	10.6
2025-01-06 16:24:08.084173	48.3	29.4	-90.4	9.8
2025-01-06 16:24:09.236992	48.0	29.4	-90.3	8.2
2025-01-06 16:24:10.391048	47.6	29.5	-90.0	12.0
2025-01-06 16:24:11.544502	47.3	29.6	-90.4	11.0
2025-01-06 16:24:12.694740	46.9	29.7	-90.6	11.8
2025-01-06 16:24:13.851666	46.6	29.7	-90.8	10.3
2025-01-06 16:24:14.999855	46.2	29.8	-90.6	5.8
2025-01-06 16:24:16.153434	45.9	29.9	-90.0	6.0
2025-01-06 16:24:17.286632	45.5	29.9	-90.1	6.7
2025-01-06 16:24:18.406318	45.1	30.0	-90.5	11.0
2025-01-06 16:24:19.525909	44.8	30.1	-90.9	10.6
2025-01-06 16:24:20.646606	44.4	30.1	-90.8	11.0
2025-01-06 16:24:21.767238	44.1	30.2	-90.5	11.9
2025-01-06 16:24:22.887884	43.7	30.2	-90.6	9.4
2025-01-06 16:24:24.008606	43.4	30.3	-90.9	12.5
2025-01-06 16:24:25.132674	43.0	30.4	-90.6	11.7
2025-01-06 16:24:26.270622	42.6	30.4	-90.1	10.9
2025-01-06 16:24:27.430365	42.3	30.5	-90.0	12.0
2025-01-06 16:24:28.575342	41.9	30.5	-90.5	8.4
2025-01-06 16:24:29.727446	41.5	30.6	-90.9	12.9
2025-01-06 16:24:30.883768	41.1	30.6	-90.2	13.5
2025-01-06 16:24:32.029320	40.7	30.7	-90.6	6.5
2025-01-06 16:24:33.178384	40.4	30.7	-90.4	10.5
2025-01-06 16:24:34.337033	40.0	30.8	-90.4	13.7
2025-01-06 16:24:35.487324	39.6	30.8	-90.1	7.3
2025-01-06 16:24:36.646562	39.2	30.9	-90.6	7.9
2025-01-06 16:24:37.798091	38.8	30.9	-90.6	10.8
2025-01-06 16:24:38.953002	38.4	31.0	-90.4	8.0
2025-01-06 16:24:40.102436	38.1	31.0	-90.2	9.8
2025-01-06 16:24:41.251562	37.7	31.0	-90.3	15.0
2025-01-06 16:24:42.401697	37.3	31.1	-90.0	15.0
2025-01-06 16:24:43.552532	36.9	31.1	-90.6	14.8
2025-01-06 16:24:44.716446	36.5	31.1	-90.6	13.7
2025-01-06 16:24:45.867501	36.1	31.2	-90.2	15.6
2025-01-06 16:24:47.023136	35.7	31.2	-90.4	12.1
2025-01-06 16:24:48.178577	35.3	31.2	-90.1	10.8
2025-01-06 16:24:49.336515	34.9	31.3	-90.3	15.0
2025-01-06 16:24:50.489917	34.5	31.3	-89.9	12.2
2025-01-06 16:24:51.640201	34.1	31.3	-90.5	10.8
2025-01-06 16:24:52.799230	33.7	31.4	-90.5	11.5
2025-01-06 16:24:53.950296	33.4	31.4	-90.4	11.7
2025-01-06 16:24:55.097093	33.0	31.4	-90.4	10.2
2025-01-06 16:24:56.244105	32.6	31.4	-90.3	15.8
2025-01-06 16:24:57.396199	32.2	31.4	-90.4	13.8
2025-01-06 16:24:58.552354	31.8	31.5	-90.5	11.4
2025-01-06 16:24:59.711382	31.4	31.5	-90.5	13.6
2025-01-06 16:25:00.856859	31.0	31.5	-90.1	10.2
2025-01-06 16:25:02.005404	30.6	31.5	-90.3	8.2
2025-01-06 16:25:03.160976	30.2	31.5	-90.2	10.6
2025-01-06 16:25:04.320339	29.8	31.5	-90.4	14.5
2025-01-06 16:25:05.479479	29.4	31.5	-90.5	10.7
2025-01-06 16:25:06.635431	29.0	31.5	-90.7	9.4
2025-01-06 16:25:07.790521	28.6	31.5	-90.9	9.3
2025-01-06 16:25:08.943620	28.2	31.5	-90.1	6.1
2025-01-06 16:25:10.095599	27.8	31.5	-90.0	12.0
2025-01-06 16:25:11.251559	27.4	31.5	-90.4	14.6
2025-01-06 16:25:12.402540	27.0	31.5	-90.2	12.6
2025-01-06 16:25:13.562236	26.6	31.5	-90.5	14.4
2025-01-06 16:25:14.713841	26.2	31.5	-90.7	12.8
2025-01-06 16:25:15.866188	25.8	31.5	-90.6	13.4
2025-01-06 16:25:17.024459	25.4	31.5	-90.4	10.1
2025-01-06 16:25:18.184166	25.0	31.5	-90.3	8.0
2025-01-06 16:25:19.343854	24.5	31.5	-90.0	14.1
2025-01-06 16:25:20.497996	24.1	31.5	-90.7	15.4
2025-01-06 16:25:21.654681	23.7	31.5	-90.2	10.7
2025-01-06 16:25:22.804491	23.4	31.5	-90.3	9.0
2025-01-06 16:25:23.970279	22.9	31.4	-90.5	8.3
2025-01-06 16:25:25.124788	22.5	31.4	-90.0	9.4
2025-01-06 16:25:26.271752	22.2	31.4	-90.1	6.6
2025-01-06 16:25:27.398988	21.8	31.4	-90.2	8.7
2025-01-06 16:25:28.520148	21.4	31.4	-90.2	7.2
2025-01-06 16:25:29.639875	21.0	31.3	-90.3	7.1
2025-01-06 16:25:30.760893	20.6	31.3	-90.7	12.3
2025-01-06 16:25:31.880708	20.2	31.3	-90.5	11.5
2025-01-06 16:25:33.001081	19.8	31.2	-90.6	8.8
2025-01-06 16:25:34.129570	19.5	31.2	-89.8	7.9
2025-01-06 16:25:35.256055	19.1	31.2	-90.2	14.2
2025-01-06 16:25:36.393880	18.7	31.2	-90.3	9.1
2025-01-06 16:25:37.542398	18.3	31.1	-90.8	9.3
2025-01-06 16:25:38.685331	17.9	31.1	-90.3	14.2
2025-01-06 16:25:39.840794	17.5	31.0	-90.7	13.6
2025-01-06 16:25:40.993284	17.1	31.0	-90.4	9.0
2025-01-06 16:25:42.138886	16.8	31.0	-89.9	8.0
2025-01-06 16:25:43.292032	16.4	30.9	-90.0	9.8
2025-01-06 16:25:44.453838	16.0	30.9	-90.3	6.6
2025-01-06 16:25:45.600851	15.6	30.8	-90.7	7.3
2025-01-06 16:25:46.750913	15.2	30.8	-90.4	7.9
2025-01-06 16:25:47.910177	14.8	30.7	-90.5	8.8
2025-01-06 16:25:49.059095	14.5	30.7	-90.4	8.5
2025-01-06 16:25:50.206342	14.1	30.6	-90.0	12.0
2025-01-06 16:25:51.366129	13.7	30.6	-90.1	11.2
2025-01-06 16:25:52.523856	13.3	30.5	-90.3	7.6
2025-01-06 16:25:53.676320	12.9	30.5	-90.8	7.8
2025-01-06 16:25:54.829205	12.6	30.4	-91.1	6.0
2025-01-06 16:25:55.985837	12.2	30.4	-90.7	7.4
2025-01-06 16:25:57.134782	11.8	30.3	-90.2	5.9
2025-01-06 16:25:58.282898	11.5	30.2	-89.9	6.5
2025-01-06 16:25:59.439177	11.1	30.2	-90.5	6.6
2025-01-06 16:26:00.584718	10.7	30.1	-90.6	7.8
2025-01-06 16:26:01.744883	10.3	30.1	-90.4	17.5
2025-01-06 16:26:02.896150	10.0	30.0	-90.8	11.5
2025-01-06 16:26:04.048257	9.6	29.9	-90.5	6.5
2025-01-06 16:26:05.197348	9.3	29.9	-89.6	5.9
2025-01-06 16:26:06.352899	8.9	29.8	-90.0	7.5
2025-01-06 16:26:07.505701	8.5	29.7	-90.5	6.9
2025-01-06 16:26:08.650741	8.2	29.7	-89.7	5.1
2025-01-06 16:26:09.799263	7.8	29.6	-89.9	4.3
2025-01-06 16:26:10.948358	7.5	29.5	-89.8	5.2
2025-01-06 16:26:12.100369	7.1	29.4	-89.6	4.3
2025-01-06 16:26:13.259286	6.8	29.4	-89.3	8.0
2025-01-06 16:26:14.419439	6.4	29.3	-89.5	6.0
2025-01-06 16:26:15.580899	6.1	29.2	-90.0	6.9
2025-01-06 16:26:16.735215	5.7	29.1	-91.0	6.5
2025-01-06 16:26:17.885062	5.4	29.1	-90.4	6.4
2025-01-06 16:26:19.044046	5.0	29.0	-89.5	4.3
2025-01-06 16:26:20.208557	4.7	28.9	-89.6	4.2
2025-01-06 16:26:21.358835	4.4	28.8	-89.3	3.4
2025-01-06 16:26:22.505682	4.0	28.7	-89.5	4.6
2025-01-06 16:26:23.663107	3.7	28.6	-89.8	6.1
2025-01-06 16:26:24.814254	3.3	28.6	-89.6	7.7
2025-01-06 16:26:25.966232	3.0	28.5	-89.7	6.7
2025-01-06 16:26:27.125569	2.7	28.4	-89.4	7.9
2025-01-06 16:26:28.281848	2.4	28.3	-89.5	7.2
2025-01-06 16:26:29.436145	2.0	28.2	-89.2	12.2
2025-01-06 16:26:30.594690	1.7	28.1	-89.8	8.8
2025-01-06 16:26:31.753030	1.4	28.0	-89.3	10.2
2025-01-06 16:26:32.903026	1.1	27.9	-89.7	9.9
2025-01-06 16:26:34.051405	0.7	27.9	-89.9	11.4
2025-01-06 16:26:35.203525	0.4	27.8	-89.3	7.2
2025-01-06 16:26:36.330541	0.1	27.7	-89.3	6.1
2025-01-06 16:26:37.450623	359.8	27.6	-89.7	6.8
2025-01-06 16:26:38.571234	359.5	27.5	-89.8	10.1
2025-01-06 16:26:39.692834	359.2	27.4	-90.1	7.8
2025-01-06 16:26:40.812559	358.9	27.3	-89.4	12.6
2025-01-06 16:26:41.933883	358.6	27.2	-89.3	11.9
2025-01-06 16:26:43.059300	358.3	27.1	-88.9	14.6
2025-01-06 16:26:44.180062	358.0	27.0	-89.2	14.5
2025-01-06 16:26:45.338147	357.7	26.9	-89.4	9.9
2025-01-06 16:26:46.483579	357.4	26.8	-89.8	6.8
2025-01-06 16:26:47.636809	357.1	26.7	-89.8	9.2
2025-01-06 16:26:48.784394	356.8	26.7	-89.6	13.9
2025-01-06 16:26:49.936987	356.5	26.6	-89.9	13.4
2025-01-06 16:26:51.087285	356.2	26.5	-89.4	8.6
2025-01-06 16:26:52.236128	355.9	26.4	-89.5	10.0
2025-01-06 16:26:53.388218	355.6	26.3	-89.3	11.8
2025-01-06 16:26:54.540816	355.4	26.2	-89.5	11.8
2025-01-06 16:26:55.694761	355.1	26.1	-90.4	10.9
2025-01-06 16:26:56.841867	354.8	26.0	-90.4	15.8
2025-01-06 16:26:57.993300	354.5	25.9	-90.6	10.7
2025-01-06 16:26:59.143818	354.2	25.7	-89.2	7.6
2025-01-06 16:27:00.294000	353.9	25.6	-89.4	11.9
2025-01-06 16:27:01.446846	353.7	25.5	-89.9	6.4
2025-01-06 16:27:02.589018	353.4	25.4	-90.1	10.3
2025-01-06 16:27:03.737568	353.1	25.3	-90.1	11.8
2025-01-06 16:27:04.886427	352.9	25.2	-90.4	12.2
2025-01-06 16:27:06.032513	352.6	25.1	-90.0	7.8
2025-01-06 16:27:07.185716	352.3	25.0	-89.7	11.5
2025-01-06 16:27:08.356722	352.1	24.9	-88.7	8.5
2025-01-06 16:27:09.514111	351.8	24.8	-89.5	6.0
2025-01-06 16:27:10.671027	351.5	24.7	-89.6	5.7
2025-01-06 16:27:11.826268	351.3	24.6	-89.2	7.5
2025-01-06 16:27:12.980014	351.0	24.5	-89.1	6.8
2025-01-06 16:27:14.133411	350.7	24.4	-89.0	5.9
2025-01-06 16:27:15.296507	350.5	24.3	-88.7	11.7
2025-01-06 16:27:16.456911	350.2	24.2	-89.2	11.9
2025-01-06 16:27:17.605293	350.0	24.1	-89.1	12.8
2025-01-06 16:27:18.759993	349.7	24.0	-89.6	7.6
2025-01-06 16:27:19.917953	349.5	23.9	-89.5	12.9
2025-01-06 16:27:21.063405	349.2	23.8	-89.3	9.5
2025-01-06 16:27:22.211395	349.0	23.6	-89.1	6.4
2025-01-06 16:27:23.366882	348.7	23.5	-89.2	16.6
2025-01-06 16:27:24.519108	348.5	23.4	-89.9	5.1
2025-01-06 16:27:25.671934	348.3	23.3	-89.8	11.3
2025-01-06 16:27:26.830657	348.0	23.2	-90.0	8.2
2025-01-06 16:27:27.986128	347.8	23.1	-89.9	9.0
2025-01-06 16:27:29.141375	347.6	23.0	-89.3	6.5
2025-01-06 16:27:30.302729	347.3	22.9	-89.5	11.6
2025-01-06 16:27:31.454844	347.1	22.8	-89.5	8.2
2025-01-06 16:27:32.607156	346.9	22.7	-89.7	6.6
2025-01-06 16:27:33.751760	346.6	22.6	-89.7	5.4
2025-01-06 16:27:34.895884	346.4	22.5	-89.6	8.5
2025-01-06 16:27:36.034091	346.2	22.4	-89.2	6.1
2025-01-06 16:27:37.155506	346.0	22.3	-89.4	7.4
2025-01-06 16:27:38.275882	345.7	22.1	-89.2	5.3
2025-01-06 16:27:39.395565	345.5	22.0	-89.6	6.6
2025-01-06 16:27:40.516212	345.3	21.9	-89.3	10.0
2025-01-06 16:27:41.635920	345.1	21.8	-89.9	6.8
2025-01-06 16:27:42.756185	344.9	21.7	-89.6	10.2
2025-01-06 16:27:43.879928	344.7	21.6	-89.7	15.0
2025-01-06 16:27:45.016084	344.5	21.5	-90.4	5.9
2025-01-06 16:27:46.171255	344.3	21.4	-90.0	10.8
2025-01-06 16:27:47.318258	344.1	21.3	-90.1	8.6
2025-01-06 16:27:48.472615	343.8	21.2	-90.2	11.8
2025-01-06 16:27:49.621428	343.6	21.1	-90.4	9.6
2025-01-06 16:27:50.774433	343.4	21.0	-90.8	6.7
2025-01-06 16:27:51.924340	343.2	20.9	-90.3	9.1
2025-01-06 16:27:53.069838	343.0	20.8	-90.6	10.5
2025-01-06 16:27:54.222447	342.8	20.7	-90.4	8.0
2025-01-06 16:27:55.382680	342.6	20.5	-90.6	5.9
2025-01-06 16:27:56.533634	342.4	20.4	-90.7	4.7
2025-01-06 16:27:57.686957	342.2	20.3	-90.9	3.2
2025-01-06 16:27:58.842748	342.0	20.2	-89.8	7.0
2025-01-06 16:27:59.993270	341.8	20.1	-90.1	6.7
2025-01-06 16:28:01.142378	341.6	20.0	-89.8	4.4
2025-01-06 16:28:02.285477	341.5	19.9	-89.3	6.7
2025-01-06 16:28:03.441317	341.3	19.8	-89.6	5.3
2025-01-06 16:28:04.593440	341.1	19.7	-90.1	6.4
2025-01-06 16:28:05.746676	340.9	19.6	-90.3	7.6
2025-01-06 16:28:06.905650	340.7	19.5	-90.2	4.6
2025-01-06 16:28:08.067239	340.5	19.4	-89.9	7.0
2025-01-06 16:28:09.226546	340.3	19.3	-89.7	7.6
2025-01-06 16:28:10.372243	340.1	19.2	-90.2	5.6
2025-01-06 16:28:11.531724	340.0	19.0	-90.1	7.9
2025-01-06 16:28:12.680111	339.8	18.9	-90.2	8.6
2025-01-06 16:28:13.830307	339.6	18.8	-90.3	6.2
2025-01-06 16:28:14.983915	339.4	18.7	-90.5	9.5
2025-01-06 16:28:16.145837	339.2	18.6	-90.0	3.3
2025-01-06 16:28:17.308556	339.1	18.5	-90.1	8.8
2025-01-06 16:28:18.466832	338.9	18.4	-90.2	4.5
2025-01-06 16:28:19.619463	338.7	18.3	-90.5	6.2
2025-01-06 16:28:20.769869	338.5	18.2	-90.3	11.0
2025-01-06 16:28:21.922296	338.4	18.1	-90.3	7.8
2025-01-06 16:28:23.075291	338.2	18.0	-89.8	5.2
2025-01-06 16:28:24.233479	338.0	17.9	-89.9	7.6
2025-01-06 16:28:25.383707	337.9	17.8	-89.9	4.4
2025-01-06 16:28:26.536141	337.7	17.7	-90.5	6.7
2025-01-06 16:28:27.693727	337.5	17.6	-90.4	4.3
2025-01-06 16:28:28.845800	337.4	17.5	-89.6	4.4
2025-01-06 16:28:29.998082	337.2	17.4	-90.0	6.6
2025-01-06 16:28:31.160972	337.0	17.3	-89.5	4.7
2025-01-06 16:28:32.306447	336.9	17.2	-90.3	5.1
2025-01-06 16:28:33.457531	336.7	17.1	-89.6	5.1
2025-01-06 16:28:34.613239	336.6	17.0	-89.9	5.2
2025-01-06 16:28:35.764180	336.4	16.9	-89.8	4.2
2025-01-06 16:28:36.918593	336.3	16.8	-89.9	5.1
2025-01-06 16:28:38.076220	336.1	16.7	-89.4	3.8
2025-01-06 16:28:39.232251	335.9	16.5	-89.0	3.7
2025-01-06 16:28:40.379793	335.8	16.4	-89.5	6.5
2025-01-06 16:28:41.535589	335.6	16.3	-89.5	6.8
2025-01-06 16:28:42.689787	335.5	16.2	-89.8	4.3
2025-01-06 16:28:43.846653	335.3	16.1	-89.7	4.3
2025-01-06 16:28:44.996869	335.2	16.0	-90.0	4.3
2025-01-06 16:28:46.151809	335.0	15.9	-89.9	4.4
2025-01-06 16:28:47.303386	334.9	15.8	-89.2	5.3
2025-01-06 16:28:48.457609	334.8	15.7	-89.4	6.0
2025-01-06 16:28:49.607773	334.6	15.6	-90.1	6.8
2025-01-06 16:28:50.774887	334.5	15.5	-90.6	5.7
2025-01-06 16:28:51.927230	334.3	15.4	-90.5	4.4
2025-01-06 16:28:53.077332	334.2	15.3	-90.8	5.0
2025-01-06 16:28:54.236465	334.0	15.2	-90.7	5.8
2025-01-06 16:28:55.390272	333.9	15.1	-89.5	4.7
2025-01-06 16:28:56.534096	333.8	15.0	-90.1	3.8
2025-01-06 16:28:57.680652	333.6	14.9	-90.1	7.1
2025-01-06 16:28:58.836131	333.5	14.8	-90.2	4.8
2025-01-06 16:28:59.994885	333.4	14.7	-90.2	7.3
2025-01-06 16:29:01.143374	333.2	14.6	-90.0	4.3
2025-01-06 16:29:02.293143	333.1	14.6	-90.6	6.6
#Closed at: 2025-01-06 16:21:28.848184