passes_logs/2025/01/06/LEX_Murmansk/LEX_Murmansk__20250106_073331_NOAA_19_rec.log

#Pass ID: 20250106_073331_NOAA 19
#Satellite: NOAA 19
#Configuration: NOAA 19
#Start time: 2025-01-06 07:33:26.432973

#LorettStation: 1.0.0 05.05.2024
#Station: LEX_Murmansk
#Location: 33.156738 lon 68.926811 lat
#TLE: 1 33591U 09005A   25005.80039681  .00000456  00000+0  26725-3 0  9991
#TLE: 2 33591  99.0212  69.4911 0014675  82.0274 278.2563 14.13252095819982

#Time	Az	El	Level	SNR
2025-01-06 07:33:38.710044	33.0	16.2	-91.9	4.8
2025-01-06 07:33:39.862303	33.1	16.3	-92.0	4.1
2025-01-06 07:33:41.010856	33.2	16.4	-92.3	3.5
2025-01-06 07:33:42.161613	33.3	16.5	-92.2	3.7
2025-01-06 07:33:43.309591	33.4	16.6	-92.2	2.1
2025-01-06 07:33:44.455044	33.6	16.8	-92.4	3.4
2025-01-06 07:33:45.605174	33.7	16.9	-92.0	3.2
2025-01-06 07:33:46.752579	33.8	17.0	-92.4	0.8
2025-01-06 07:33:47.903288	33.9	17.1	-92.5	4.2
2025-01-06 07:33:49.044608	34.0	17.2	-92.1	2.9
2025-01-06 07:33:50.193906	34.2	17.3	-92.3	3.0
2025-01-06 07:33:51.345130	34.3	17.4	-92.4	3.1
2025-01-06 07:33:52.493295	34.4	17.6	-91.8	1.8
2025-01-06 07:33:53.639715	34.6	17.7	-92.2	4.7
2025-01-06 07:33:54.788840	34.7	17.8	-92.2	2.7
2025-01-06 07:33:55.941239	34.8	17.9	-91.4	5.8
2025-01-06 07:33:57.091832	34.9	18.0	-91.7	7.4
2025-01-06 07:33:58.240224	35.1	18.2	-91.9	5.0
2025-01-06 07:33:59.405510	35.2	18.3	-92.4	3.6
2025-01-06 07:34:00.543655	35.3	18.4	-92.6	2.9
2025-01-06 07:34:01.798205	35.5	18.5	-92.1	0.4
2025-01-06 07:34:02.949041	35.6	18.7	-92.5	0.9
2025-01-06 07:34:04.105634	35.8	18.8	-92.5	2.5
2025-01-06 07:34:05.260126	35.9	18.9	-92.0	6.0
2025-01-06 07:34:06.414242	36.0	19.0	-92.2	4.5
2025-01-06 07:34:07.567814	36.2	19.2	-92.0	12.6
2025-01-06 07:34:08.713355	36.3	19.3	-92.2	5.7
2025-01-06 07:34:09.860433	36.4	19.4	-92.3	3.5
2025-01-06 07:34:11.010540	36.6	19.5	-92.3	6.9
2025-01-06 07:34:12.156644	36.7	19.6	-92.2	8.0
2025-01-06 07:34:13.305190	36.9	19.8	-92.4	7.6
2025-01-06 07:34:14.458664	37.0	19.9	-92.5	7.6
2025-01-06 07:34:15.614080	37.2	20.0	-92.7	8.4
2025-01-06 07:34:16.753084	37.3	20.2	-92.6	5.2
2025-01-06 07:34:17.885904	37.5	20.3	-92.2	3.1
2025-01-06 07:34:19.007469	37.6	20.4	-92.3	1.4
2025-01-06 07:34:20.128317	37.8	20.5	-92.2	3.3
2025-01-06 07:34:21.249837	37.9	20.7	-92.0	0.5
2025-01-06 07:34:22.370455	38.1	20.8	-92.0	5.4
2025-01-06 07:34:23.491110	38.2	20.9	-92.5	6.3
2025-01-06 07:34:24.613253	38.4	21.0	-92.1	6.1
2025-01-06 07:34:25.738457	38.5	21.2	-92.6	9.7
2025-01-06 07:34:26.882817	38.7	21.3	-92.5	8.8
2025-01-06 07:34:28.031150	38.8	21.4	-92.2	7.2
2025-01-06 07:34:29.171427	39.0	21.6	-92.1	3.5
2025-01-06 07:34:30.310603	39.2	21.7	-92.6	6.1
2025-01-06 07:34:31.462527	39.3	21.8	-93.0	11.2
2025-01-06 07:34:32.616501	39.5	22.0	-92.8	9.1
2025-01-06 07:34:33.770881	39.7	22.1	-92.5	7.3
2025-01-06 07:34:34.921025	39.8	22.2	-92.3	5.4
2025-01-06 07:34:36.070954	40.0	22.4	-92.0	3.9
2025-01-06 07:34:37.221911	40.2	22.5	-92.0	1.3
2025-01-06 07:34:38.368987	40.3	22.6	-92.4	3.2
2025-01-06 07:34:39.520582	40.5	22.8	-92.2	5.7
2025-01-06 07:34:40.670929	40.7	22.9	-92.7	4.1
2025-01-06 07:34:41.822178	40.9	23.0	-92.8	9.0
2025-01-06 07:34:42.969548	41.0	23.2	-92.7	11.3
2025-01-06 07:34:44.120863	41.2	23.3	-91.9	8.9
2025-01-06 07:34:45.274759	41.4	23.5	-91.8	6.5
2025-01-06 07:34:46.425259	41.6	23.6	-92.6	7.2
2025-01-06 07:34:47.573650	41.8	23.7	-92.7	7.2
2025-01-06 07:34:48.721513	42.0	23.9	-92.7	5.9
2025-01-06 07:34:49.869317	42.2	24.0	-92.5	9.6
2025-01-06 07:34:51.015382	42.3	24.2	-92.6	10.7
2025-01-06 07:34:52.162469	42.5	24.3	-92.1	8.7
2025-01-06 07:34:53.310263	42.7	24.4	-92.4	7.1
2025-01-06 07:34:54.454820	42.9	24.6	-92.8	5.8
2025-01-06 07:34:55.604691	43.1	24.7	-92.7	2.5
2025-01-06 07:34:56.755378	43.3	24.9	-92.6	1.9
2025-01-06 07:34:57.905442	43.5	25.0	-92.7	3.9
2025-01-06 07:34:59.050838	43.7	25.2	-92.6	4.9
2025-01-06 07:35:00.197728	43.9	25.3	-92.1	7.0
2025-01-06 07:35:01.341512	44.1	25.4	-91.8	10.6
2025-01-06 07:35:02.493640	44.3	25.6	-92.8	13.0
2025-01-06 07:35:03.646498	44.5	25.7	-92.5	10.9
2025-01-06 07:35:04.796024	44.8	25.9	-92.7	8.2
2025-01-06 07:35:05.944525	45.0	26.0	-92.5	6.4
2025-01-06 07:35:07.089324	45.2	26.2	-92.6	3.8
2025-01-06 07:35:08.244809	45.4	26.3	-92.2	4.3
2025-01-06 07:35:09.398636	45.6	26.5	-91.3	6.4
2025-01-06 07:35:10.550042	45.8	26.6	-92.6	9.6
2025-01-06 07:35:11.702786	46.1	26.8	-92.6	10.7
2025-01-06 07:35:12.854666	46.3	26.9	-92.2	7.0
2025-01-06 07:35:14.004489	46.5	27.1	-92.9	6.0
2025-01-06 07:35:15.152648	46.7	27.2	-92.1	4.1
2025-01-06 07:35:16.305914	47.0	27.4	-92.5	2.0
2025-01-06 07:35:17.460501	47.2	27.5	-92.8	2.0
2025-01-06 07:35:18.608277	47.4	27.7	-92.9	4.5
2025-01-06 07:35:19.764157	47.7	27.8	-92.4	4.5
2025-01-06 07:35:20.919326	47.9	28.0	-92.4	6.8
2025-01-06 07:35:22.071065	48.2	28.1	-92.5	8.0
2025-01-06 07:35:23.213580	48.4	28.3	-92.3	5.7
2025-01-06 07:35:24.370527	48.7	28.4	-92.4	7.0
2025-01-06 07:35:25.512770	48.9	28.6	-92.6	4.8
2025-01-06 07:35:26.671183	49.2	28.7	-92.6	6.0
2025-01-06 07:35:27.833131	49.4	28.9	-93.0	5.8
2025-01-06 07:35:28.981992	49.7	29.0	-92.5	9.3
2025-01-06 07:35:30.128931	49.9	29.2	-92.6	6.8
2025-01-06 07:35:31.278683	50.2	29.3	-92.4	7.5
2025-01-06 07:35:32.430402	50.5	29.5	-92.1	7.2
2025-01-06 07:35:33.581198	50.7	29.7	-92.7	5.1
2025-01-06 07:35:34.735437	51.0	29.8	-92.7	3.5
2025-01-06 07:35:35.882327	51.3	30.0	-92.9	3.1
2025-01-06 07:35:37.028883	51.5	30.1	-93.0	3.9
2025-01-06 07:35:38.177386	51.8	30.3	-92.3	2.4
2025-01-06 07:35:39.325012	52.1	30.4	-92.5	1.7
2025-01-06 07:35:40.478453	52.4	30.6	-92.6	8.2
2025-01-06 07:35:41.629487	52.6	30.7	-92.7	10.2
2025-01-06 07:35:42.780512	52.9	30.9	-92.4	10.4
2025-01-06 07:35:43.919160	53.2	31.0	-92.8	16.9
2025-01-06 07:35:45.065509	53.5	31.2	-92.7	13.9
2025-01-06 07:35:46.215241	53.8	31.4	-92.4	11.5
2025-01-06 07:35:47.368221	54.1	31.5	-92.5	7.1
2025-01-06 07:35:48.530309	54.4	31.7	-92.7	7.3
2025-01-06 07:35:49.676620	54.7	31.8	-92.9	7.0
2025-01-06 07:35:50.826433	55.0	32.0	-93.1	6.3
2025-01-06 07:35:51.976589	55.3	32.1	-92.8	10.1
2025-01-06 07:35:53.138353	55.6	32.3	-92.6	13.1
2025-01-06 07:35:54.282298	55.9	32.4	-92.9	13.7
2025-01-06 07:35:55.433923	56.3	32.6	-92.8	12.9
2025-01-06 07:35:56.585421	56.6	32.7	-92.9	12.6
2025-01-06 07:35:57.732829	56.9	32.9	-92.7	6.0
2025-01-06 07:35:58.881625	57.2	33.1	-92.7	8.9
2025-01-06 07:36:00.030450	57.6	33.2	-93.0	7.1
2025-01-06 07:36:01.166028	57.9	33.4	-92.3	4.2
2025-01-06 07:36:02.310822	58.2	33.5	-91.7	4.3
2025-01-06 07:36:03.457412	58.6	33.7	-92.1	9.4
2025-01-06 07:36:04.612247	58.9	33.8	-92.6	12.7
2025-01-06 07:36:05.768941	59.2	34.0	-92.5	12.0
2025-01-06 07:36:06.916536	59.6	34.1	-92.4	15.7
2025-01-06 07:36:08.066647	59.9	34.3	-92.3	18.1
2025-01-06 07:36:09.212653	60.3	34.4	-92.2	15.1
2025-01-06 07:36:10.358667	60.7	34.6	-91.3	13.9
2025-01-06 07:36:11.505139	61.0	34.7	-92.2	9.9
2025-01-06 07:36:12.662486	61.4	34.9	-93.1	11.1
2025-01-06 07:36:13.817808	61.8	35.0	-92.7	8.4
2025-01-06 07:36:14.968017	62.1	35.2	-92.7	13.3
2025-01-06 07:36:16.127448	62.5	35.3	-92.4	12.5
2025-01-06 07:36:17.278638	62.9	35.5	-92.5	14.1
2025-01-06 07:36:18.425733	63.3	35.6	-92.0	15.5
2025-01-06 07:36:19.576186	63.6	35.8	-92.9	16.6
2025-01-06 07:36:20.726985	64.0	35.9	-92.8	15.2
2025-01-06 07:36:21.876448	64.4	36.0	-92.5	12.4
2025-01-06 07:36:23.021737	64.8	36.2	-92.7	12.2
2025-01-06 07:36:24.178829	65.2	36.3	-92.9	7.1
2025-01-06 07:36:25.325869	65.6	36.5	-92.4	5.4
2025-01-06 07:36:26.476023	66.0	36.6	-92.6	5.7
2025-01-06 07:36:27.624507	66.4	36.7	-92.6	9.5
2025-01-06 07:36:28.781557	66.8	36.9	-92.7	3.9
2025-01-06 07:36:29.927772	67.2	37.0	-92.7	7.6
2025-01-06 07:36:31.076485	67.7	37.2	-92.4	11.2
2025-01-06 07:36:32.222688	68.1	37.3	-92.3	13.8
2025-01-06 07:36:33.364112	68.5	37.4	-92.7	15.8
2025-01-06 07:36:34.489424	68.9	37.6	-92.4	18.6
2025-01-06 07:36:35.610843	69.3	37.7	-92.8	17.9
2025-01-06 07:36:36.735774	69.8	37.8	-92.6	15.3
2025-01-06 07:36:37.856322	70.2	37.9	-92.8	14.8
2025-01-06 07:36:38.977323	70.6	38.1	-92.7	12.4
2025-01-06 07:36:40.097330	71.1	38.2	-92.5	12.8
2025-01-06 07:36:41.220978	71.5	38.3	-92.4	7.1
2025-01-06 07:36:42.342342	71.9	38.4	-92.4	7.6
2025-01-06 07:36:43.486791	72.4	38.5	-92.4	11.5
2025-01-06 07:36:44.630857	72.8	38.7	-92.9	10.8
2025-01-06 07:36:45.779395	73.3	38.8	-92.7	8.6
2025-01-06 07:36:46.928831	73.8	38.9	-92.8	12.5
2025-01-06 07:36:48.080716	74.2	39.0	-92.2	16.8
2025-01-06 07:36:49.223833	74.7	39.1	-90.7	14.8
2025-01-06 07:36:50.376577	75.2	39.2	-92.0	15.2
2025-01-06 07:36:51.525816	75.7	39.4	-91.9	16.8
2025-01-06 07:36:52.673141	76.1	39.5	-92.0	13.5
2025-01-06 07:36:53.821536	76.6	39.6	-92.2	10.6
2025-01-06 07:36:54.976884	77.1	39.7	-92.1	9.2
2025-01-06 07:36:56.128607	77.6	39.8	-91.7	9.8
2025-01-06 07:36:57.275280	78.1	39.9	-91.8	3.9
2025-01-06 07:36:58.426580	78.6	40.0	-90.6	7.2
2025-01-06 07:36:59.568252	79.1	40.1	-92.1	5.4
2025-01-06 07:37:00.708206	79.6	40.2	-91.3	3.9
2025-01-06 07:37:01.864161	80.1	40.3	-92.3	5.5
2025-01-06 07:37:03.011647	80.6	40.3	-92.6	6.1
2025-01-06 07:37:04.161251	81.1	40.4	-91.9	5.8
2025-01-06 07:37:05.309857	81.6	40.5	-91.8	7.3
2025-01-06 07:37:06.460157	82.1	40.6	-91.9	9.7
2025-01-06 07:37:07.612612	82.7	40.7	-92.0	9.4
2025-01-06 07:37:08.755605	83.2	40.8	-91.9	8.8
2025-01-06 07:37:09.910938	83.7	40.8	-91.9	13.3
2025-01-06 07:37:11.056809	84.2	40.9	-92.1	14.2
2025-01-06 07:37:12.204351	84.7	41.0	-91.4	13.8
2025-01-06 07:37:13.358334	85.3	41.0	-92.2	13.3
2025-01-06 07:37:14.506766	85.8	41.1	-92.1	8.6
2025-01-06 07:37:15.658677	86.3	41.2	-92.4	9.8
2025-01-06 07:37:16.804529	86.9	41.2	-92.4	9.5
2025-01-06 07:37:17.956702	87.4	41.3	-92.5	10.4
2025-01-06 07:37:19.100879	88.0	41.3	-92.0	5.7
2025-01-06 07:37:20.250314	88.5	41.4	-91.9	3.3
2025-01-06 07:37:21.395043	89.0	41.4	-91.5	6.3
2025-01-06 07:37:22.543151	89.6	41.5	-91.9	8.1
2025-01-06 07:37:23.690517	90.1	41.5	-91.9	4.9
2025-01-06 07:37:24.834049	90.7	41.6	-91.8	4.1
2025-01-06 07:37:25.978851	91.2	41.6	-91.9	9.5
2025-01-06 07:37:27.114908	91.8	41.6	-92.0	7.5
2025-01-06 07:37:28.236576	92.3	41.7	-92.4	5.1
2025-01-06 07:37:29.358761	92.8	41.7	-92.3	8.7
2025-01-06 07:37:30.479402	93.4	41.7	-93.0	9.8
2025-01-06 07:37:31.601177	93.9	41.8	-92.6	9.6
2025-01-06 07:37:32.722398	94.5	41.8	-92.8	11.1
2025-01-06 07:37:33.844360	95.0	41.8	-92.8	13.8
2025-01-06 07:37:34.968254	95.5	41.8	-93.0	8.3
2025-01-06 07:37:36.095181	96.1	41.8	-92.3	4.0
2025-01-06 07:37:37.243334	96.6	41.8	-92.6	5.8
2025-01-06 07:37:38.384380	97.2	41.8	-92.5	6.2
2025-01-06 07:37:39.530262	97.8	41.8	-92.9	3.4
2025-01-06 07:37:40.682786	98.3	41.8	-92.2	5.6
2025-01-06 07:37:41.831529	98.9	41.8	-92.8	6.7
2025-01-06 07:37:42.977634	99.4	41.8	-92.4	5.3
2025-01-06 07:37:44.130580	100.0	41.8	-92.8	5.9
2025-01-06 07:37:45.278561	100.5	41.8	-92.4	4.9
2025-01-06 07:37:46.428729	101.1	41.8	-92.6	5.1
2025-01-06 07:37:47.573272	101.7	41.8	-92.8	5.3
2025-01-06 07:37:48.725277	102.2	41.8	-92.5	3.5
2025-01-06 07:37:49.874554	102.8	41.7	-92.8	3.0
2025-01-06 07:37:51.017631	103.3	41.7	-92.3	2.3
2025-01-06 07:37:52.163941	103.9	41.7	-92.6	3.0
2025-01-06 07:37:53.306328	104.4	41.6	-92.6	3.9
2025-01-06 07:37:54.459114	105.0	41.6	-92.0	7.1
2025-01-06 07:37:55.615002	105.5	41.6	-92.5	6.3
2025-01-06 07:37:56.761388	106.1	41.5	-92.7	1.7
2025-01-06 07:37:57.912183	106.6	41.5	-92.5	5.3
2025-01-06 07:37:59.061056	107.2	41.4	-92.4	4.0
2025-01-06 07:38:00.203404	107.7	41.4	-92.3	3.4
2025-01-06 07:38:01.340624	108.2	41.3	-92.3	2.0
2025-01-06 07:38:02.494315	108.8	41.3	-92.5	5.8
2025-01-06 07:38:03.656721	109.3	41.2	-92.3	7.0
2025-01-06 07:38:04.799214	109.9	41.2	-92.7	3.9
2025-01-06 07:38:05.947790	110.4	41.1	-92.8	7.8
2025-01-06 07:38:07.096302	110.9	41.0	-92.2	7.2
2025-01-06 07:38:08.244718	111.4	41.0	-92.3	3.5
2025-01-06 07:38:09.384079	112.0	40.9	-92.0	7.7
2025-01-06 07:38:10.533558	112.5	40.8	-92.3	6.7
2025-01-06 07:38:11.682460	113.0	40.8	-91.4	4.4
2025-01-06 07:38:12.830862	113.5	40.7	-92.4	4.0
2025-01-06 07:38:13.981811	114.1	40.6	-92.3	5.5
2025-01-06 07:38:15.124663	114.6	40.5	-92.4	9.4
2025-01-06 07:38:16.274056	115.1	40.4	-92.8	5.6
2025-01-06 07:38:17.428833	115.6	40.4	-92.6	6.4
2025-01-06 07:38:18.579401	116.1	40.3	-92.7	5.2
2025-01-06 07:38:19.729616	116.6	40.2	-92.0	5.5
2025-01-06 07:38:20.879276	117.1	40.1	-91.7	4.9
2025-01-06 07:38:22.026229	117.6	40.0	-92.3	8.5
2025-01-06 07:38:23.169039	118.1	39.9	-92.0	4.3
2025-01-06 07:38:24.328044	118.6	39.8	-92.6	3.0
2025-01-06 07:38:25.474586	119.1	39.7	-92.7	6.2
2025-01-06 07:38:26.619266	119.6	39.6	-92.6	8.3
2025-01-06 07:38:27.770929	120.1	39.5	-92.4	6.0
2025-01-06 07:38:28.913280	120.5	39.4	-92.9	4.3
2025-01-06 07:38:30.064720	121.0	39.3	-92.4	4.3
2025-01-06 07:38:31.208352	121.5	39.1	-92.6	1.9
2025-01-06 07:38:32.356710	122.0	39.0	-92.8	10.6
2025-01-06 07:38:33.505764	122.4	38.9	-92.7	5.9
2025-01-06 07:38:34.655397	122.9	38.8	-92.7	10.7
2025-01-06 07:38:35.810349	123.4	38.7	-92.6	11.0
2025-01-06 07:38:36.956422	123.8	38.6	-92.5	4.2
2025-01-06 07:38:38.106471	124.3	38.4	-92.3	4.8
2025-01-06 07:38:39.253196	124.7	38.3	-92.2	11.6
2025-01-06 07:38:40.399995	125.2	38.2	-92.8	9.7
2025-01-06 07:38:41.547047	125.6	38.1	-92.8	5.0
2025-01-06 07:38:42.698338	126.1	37.9	-93.0	10.5
2025-01-06 07:38:43.852612	126.5	37.8	-92.5	18.6
2025-01-06 07:38:45.000361	126.9	37.7	-92.7	10.5
2025-01-06 07:38:46.150754	127.4	37.5	-92.8	7.1
2025-01-06 07:38:47.298824	127.8	37.4	-92.2	15.0
2025-01-06 07:38:48.449865	128.2	37.3	-92.4	8.5
2025-01-06 07:38:49.602813	128.6	37.1	-92.8	6.0
2025-01-06 07:38:50.751166	129.1	37.0	-92.6	13.7
2025-01-06 07:38:51.900852	129.5	36.9	-92.9	8.1
2025-01-06 07:38:53.044448	129.9	36.7	-91.9	10.4
2025-01-06 07:38:54.192776	130.3	36.6	-92.4	14.2
2025-01-06 07:38:55.335247	130.7	36.5	-92.2	15.5
2025-01-06 07:38:56.486578	131.1	36.3	-92.2	8.1
2025-01-06 07:38:57.636661	131.5	36.2	-92.8	15.5
2025-01-06 07:38:58.788680	131.9	36.0	-92.9	16.0
2025-01-06 07:38:59.942515	132.3	35.9	-93.1	14.7
2025-01-06 07:39:01.083184	132.7	35.7	-92.1	17.3
2025-01-06 07:39:02.230966	133.0	35.6	-92.5	8.4
2025-01-06 07:39:03.381617	133.4	35.4	-92.7	11.3
2025-01-06 07:39:04.530064	133.8	35.3	-92.0	13.9
2025-01-06 07:39:05.685319	134.2	35.2	-92.6	13.0
2025-01-06 07:39:06.836545	134.6	35.0	-91.9	18.0
2025-01-06 07:39:07.985297	134.9	34.9	-92.4	14.4
2025-01-06 07:39:09.133349	135.3	34.7	-92.0	9.9
2025-01-06 07:39:10.279784	135.6	34.6	-91.9	9.0
2025-01-06 07:39:11.426994	136.0	34.4	-92.2	9.8
2025-01-06 07:39:12.575201	136.4	34.3	-93.0	9.9
2025-01-06 07:39:13.724531	136.7	34.1	-92.6	10.4
2025-01-06 07:39:14.868418	137.0	34.0	-92.9	9.4
2025-01-06 07:39:16.012556	137.4	33.8	-92.8	6.8
2025-01-06 07:39:17.167353	137.7	33.6	-92.4	10.1
2025-01-06 07:39:18.317790	138.1	33.5	-92.2	15.5
2025-01-06 07:39:19.461808	138.4	33.3	-92.8	8.9
2025-01-06 07:39:20.616004	138.7	33.2	-92.9	9.6
2025-01-06 07:39:21.765222	139.1	33.0	-92.8	10.5
2025-01-06 07:39:22.912900	139.4	32.9	-91.9	4.6
2025-01-06 07:39:24.064628	139.7	32.7	-92.3	4.5
2025-01-06 07:39:25.214845	140.0	32.6	-92.2	3.3
2025-01-06 07:39:26.370971	140.4	32.4	-92.5	7.5
2025-01-06 07:39:27.520724	140.7	32.3	-92.5	4.3
2025-01-06 07:39:28.668567	141.0	32.1	-92.7	6.8
2025-01-06 07:39:29.820386	141.3	32.0	-92.9	7.0
2025-01-06 07:39:30.968910	141.6	31.8	-93.0	5.3
2025-01-06 07:39:32.118220	141.9	31.6	-92.3	4.9
2025-01-06 07:39:33.273685	142.2	31.5	-92.1	5.5
2025-01-06 07:39:34.423266	142.5	31.3	-92.6	7.2
2025-01-06 07:39:35.573883	142.8	31.2	-93.0	9.5
2025-01-06 07:39:36.723596	143.1	31.0	-93.0	9.5
2025-01-06 07:39:37.879355	143.4	30.9	-93.1	7.9
2025-01-06 07:39:39.026542	143.7	30.7	-92.6	8.5
2025-01-06 07:39:40.177407	143.9	30.6	-92.4	8.9
2025-01-06 07:39:41.329324	144.2	30.4	-92.8	8.3
2025-01-06 07:39:42.474595	144.5	30.2	-92.8	10.0
2025-01-06 07:39:43.631563	144.8	30.1	-92.7	7.4
2025-01-06 07:39:44.783723	145.1	29.9	-92.6	6.7
2025-01-06 07:39:45.921903	145.3	29.8	-92.6	5.9
2025-01-06 07:39:47.068162	145.6	29.6	-92.6	4.0
2025-01-06 07:39:48.217985	145.9	29.5	-92.4	5.8
2025-01-06 07:39:49.369624	146.1	29.3	-92.5	4.9
2025-01-06 07:39:50.513984	146.4	29.2	-93.0	2.8
2025-01-06 07:39:51.656596	146.6	29.0	-92.8	8.2
2025-01-06 07:39:52.806347	146.9	28.9	-92.8	9.1
2025-01-06 07:39:53.958331	147.1	28.7	-93.0	3.9
2025-01-06 07:39:55.101752	147.4	28.6	-92.4	4.5
2025-01-06 07:39:56.253100	147.6	28.4	-92.1	5.6
2025-01-06 07:39:57.413980	147.9	28.2	-92.5	4.5
2025-01-06 07:39:58.564831	148.1	28.1	-92.7	4.0
2025-01-06 07:39:59.713532	148.4	27.9	-92.6	8.7
2025-01-06 07:40:00.856379	148.6	27.8	-92.7	9.6
2025-01-06 07:40:02.013150	148.9	27.6	-92.8	7.3
2025-01-06 07:40:03.157044	149.1	27.5	-92.4	6.5
2025-01-06 07:40:04.305540	149.3	27.3	-92.7	9.4
2025-01-06 07:40:05.449546	149.5	27.2	-92.5	9.8
2025-01-06 07:40:06.591753	149.8	27.0	-92.7	9.9
2025-01-06 07:40:07.736809	150.0	26.9	-92.8	11.8
2025-01-06 07:40:08.880384	150.2	26.7	-92.5	8.6
2025-01-06 07:40:10.026979	150.4	26.6	-92.6	5.9
2025-01-06 07:40:11.188505	150.7	26.4	-92.5	12.3
2025-01-06 07:40:12.338604	150.9	26.3	-92.3	10.5
2025-01-06 07:40:13.483796	151.1	26.2	-92.6	5.2
2025-01-06 07:40:14.631540	151.3	26.0	-92.8	9.9
2025-01-06 07:40:15.786095	151.5	25.9	-92.3	11.1
2025-01-06 07:40:16.940743	151.7	25.7	-92.3	5.5
2025-01-06 07:40:18.089418	152.0	25.6	-92.2	5.6
2025-01-06 07:40:19.254151	152.2	25.4	-91.9	8.5
2025-01-06 07:40:20.403818	152.4	25.3	-92.6	6.1
2025-01-06 07:40:21.557754	152.6	25.1	-92.4	8.7
2025-01-06 07:40:22.714147	152.8	25.0	-92.9	9.3
2025-01-06 07:40:23.860858	153.0	24.8	-92.5	10.5
2025-01-06 07:40:25.013684	153.2	24.7	-92.6	10.8
2025-01-06 07:40:26.169744	153.4	24.5	-92.1	9.4
2025-01-06 07:40:27.316946	153.6	24.4	-92.3	10.6
2025-01-06 07:40:28.466423	153.8	24.3	-92.8	9.7
2025-01-06 07:40:29.615265	154.0	24.1	-92.0	7.3
2025-01-06 07:40:30.760943	154.1	24.0	-92.6	8.8
2025-01-06 07:40:31.904634	154.3	23.8	-92.8	7.7
2025-01-06 07:40:33.057741	154.5	23.7	-92.3	2.2
2025-01-06 07:40:34.207840	154.7	23.6	-92.1	6.7
2025-01-06 07:40:35.363305	154.9	23.4	-92.4	4.2
2025-01-06 07:40:36.517312	155.1	23.3	-92.5	2.8
2025-01-06 07:40:37.670963	155.2	23.1	-92.6	4.6
2025-01-06 07:40:38.819159	155.4	23.0	-92.9	7.5
2025-01-06 07:40:39.973104	155.6	22.9	-92.4	4.4
2025-01-06 07:40:41.122539	155.8	22.7	-92.4	7.1
2025-01-06 07:40:42.267848	156.0	22.6	-92.6	5.4
2025-01-06 07:40:43.414830	156.1	22.5	-92.9	5.6
2025-01-06 07:40:44.565588	156.3	22.3	-92.2	5.8
2025-01-06 07:40:45.719142	156.5	22.2	-92.3	6.4
2025-01-06 07:40:46.871214	156.6	22.0	-92.4	4.8
2025-01-06 07:40:48.018429	156.8	21.9	-92.3	6.6
2025-01-06 07:40:49.165297	157.0	21.8	-91.7	6.0
2025-01-06 07:40:50.313017	157.1	21.6	-91.7	5.7
2025-01-06 07:40:51.468336	157.3	21.5	-92.0	2.0
2025-01-06 07:40:52.623729	157.5	21.4	-92.1	3.6
2025-01-06 07:40:53.775344	157.6	21.2	-92.2	7.0
2025-01-06 07:40:54.921105	157.8	21.1	-91.7	2.9
2025-01-06 07:40:56.064144	157.9	21.0	-91.5	4.9
2025-01-06 07:40:57.211465	158.1	20.9	-91.9	3.1
2025-01-06 07:40:58.359704	158.2	20.7	-91.3	3.8
2025-01-06 07:40:59.507667	158.4	20.6	-92.0	5.0
2025-01-06 07:41:00.646193	158.5	20.5	-91.8	4.2
2025-01-06 07:41:01.794463	158.7	20.3	-92.0	4.4
2025-01-06 07:41:02.935693	158.9	20.2	-92.4	2.1
2025-01-06 07:41:04.083727	159.0	20.1	-91.9	1.1
2025-01-06 07:41:05.204164	159.1	20.0	-92.3	4.7
2025-01-06 07:41:06.325342	159.3	19.8	-92.1	5.4
2025-01-06 07:41:07.445301	159.4	19.7	-92.4	3.9
2025-01-06 07:41:08.565684	159.6	19.6	-92.7	3.1
2025-01-06 07:41:09.685857	159.7	19.5	-92.5	6.2
2025-01-06 07:41:10.806953	159.8	19.3	-92.4	6.3
2025-01-06 07:41:11.936056	160.0	19.2	-91.7	6.3
2025-01-06 07:41:13.059013	160.1	19.1	-92.1	4.0
2025-01-06 07:41:14.206677	160.3	19.0	-91.8	6.0
2025-01-06 07:41:15.347070	160.4	18.9	-91.6	8.3
2025-01-06 07:41:16.498345	160.5	18.7	-92.3	7.9
2025-01-06 07:41:17.645997	160.7	18.6	-91.9	8.8
2025-01-06 07:41:18.798618	160.8	18.5	-91.9	5.1
2025-01-06 07:41:19.945599	160.9	18.4	-92.4	4.5
2025-01-06 07:41:21.094863	161.1	18.2	-91.6	2.8
2025-01-06 07:41:22.236522	161.2	18.1	-91.7	4.0
2025-01-06 07:41:23.388937	161.3	18.0	-92.0	3.0
2025-01-06 07:41:24.535794	161.5	17.9	-91.9	1.4
2025-01-06 07:41:25.681492	161.6	17.8	-92.3	3.8
2025-01-06 07:41:26.830744	161.7	17.6	-92.0	2.1
2025-01-06 07:41:27.978875	161.8	17.5	-92.6	1.3
2025-01-06 07:41:29.138054	162.0	17.4	-92.6	4.8
2025-01-06 07:41:30.281586	162.1	17.3	-92.2	4.5
2025-01-06 07:41:31.433144	162.2	17.2	-92.5	5.1
2025-01-06 07:41:32.583649	162.3	17.1	-92.6	6.4
2025-01-06 07:41:33.740457	162.5	16.9	-92.6	4.0
2025-01-06 07:41:34.888477	162.6	16.8	-92.8	5.1
2025-01-06 07:41:36.040903	162.7	16.7	-92.7	5.1
2025-01-06 07:41:37.196002	162.8	16.6	-92.4	5.5
2025-01-06 07:41:38.340098	162.9	16.5	-92.2	6.3
2025-01-06 07:41:39.493223	163.1	16.4	-92.7	4.3
2025-01-06 07:41:40.634901	163.2	16.2	-92.3	4.2
2025-01-06 07:41:41.782049	163.3	16.1	-93.0	7.1
2025-01-06 07:41:42.933659	163.4	16.0	-92.7	4.2
2025-01-06 07:41:44.081540	163.5	15.9	-91.9	3.9
2025-01-06 07:41:45.232663	163.6	15.8	-92.3	3.4
2025-01-06 07:41:46.383479	163.8	15.7	-92.7	4.4
2025-01-06 07:41:47.534660	163.9	15.6	-92.9	3.3
2025-01-06 07:41:48.675464	164.0	15.5	-92.7	3.8
2025-01-06 07:41:49.826353	164.1	15.4	-92.5	5.7
2025-01-06 07:41:50.982913	164.2	15.2	-92.3	3.6
2025-01-06 07:41:52.132554	164.3	15.1	-92.5	2.6
2025-01-06 07:41:53.291759	164.4	15.0	-92.4	3.2
2025-01-06 07:41:54.440315	164.5	14.9	-92.1	2.5
2025-01-06 07:41:55.592980	164.6	14.8	-92.4	2.6
2025-01-06 07:41:56.736387	164.7	14.7	-92.8	8.2
2025-01-06 07:41:57.886385	164.8	14.6	-92.9	4.6
2025-01-06 07:41:59.031705	164.9	14.5	-92.6	3.6
#Closed at: 2025-01-06 07:33:31.502499