passes_logs/2025/01/06/LEX_Murmansk/LEX_Murmansk__20250106_130247_NOAA_18_rec.log

#Pass ID: 20250106_130247_NOAA 18
#Satellite: NOAA 18
#Configuration: NOAA 18
#Start time: 2025-01-06 13:02:42.802014

#LorettStation: 1.0.0 05.05.2024
#Station: LEX_Murmansk
#Location: 33.156738 lon 68.926811 lat
#TLE: 1 28654U 05018A   25005.81892802  .00000565  00000+0  32357-3 0  9997
#TLE: 2 28654  98.8581  86.9638 0013924 205.2694 154.7799 14.13478522 11802

#Time	Az	El	Level	SNR
2025-01-06 13:02:54.923511	26.8	16.0	-91.1	5.4
2025-01-06 13:02:56.071034	26.6	16.1	-90.6	5.1
2025-01-06 13:02:57.216924	26.5	16.2	-90.6	5.8
2025-01-06 13:02:58.367159	26.3	16.3	-90.4	5.0
2025-01-06 13:02:59.526842	26.1	16.4	-90.6	5.2
2025-01-06 13:03:00.666962	26.0	16.4	-90.9	6.0
2025-01-06 13:03:01.810747	25.8	16.5	-91.0	6.6
2025-01-06 13:03:02.958841	25.6	16.6	-91.2	4.3
2025-01-06 13:03:04.105136	25.5	16.7	-90.5	4.4
2025-01-06 13:03:05.253734	25.3	16.8	-90.8	6.9
2025-01-06 13:03:06.403380	25.1	16.9	-90.5	5.0
2025-01-06 13:03:07.555345	24.9	17.0	-90.9	5.1
2025-01-06 13:03:08.706970	24.8	17.1	-90.8	6.8
2025-01-06 13:03:09.858007	24.6	17.2	-90.8	10.6
2025-01-06 13:03:11.005401	24.4	17.3	-91.0	6.4
2025-01-06 13:03:12.163164	24.2	17.4	-90.6	8.3
2025-01-06 13:03:13.307077	24.1	17.5	-90.6	10.1
2025-01-06 13:03:14.459069	23.9	17.6	-91.1	9.1
2025-01-06 13:03:15.615397	23.7	17.7	-91.0	4.8
2025-01-06 13:03:16.770853	23.5	17.8	-91.2	10.9
2025-01-06 13:03:17.923033	23.3	17.9	-91.1	7.6
2025-01-06 13:03:19.068379	23.1	18.0	-90.5	5.0
2025-01-06 13:03:20.221926	22.9	18.1	-90.5	9.5
2025-01-06 13:03:21.369459	22.8	18.2	-90.5	9.7
2025-01-06 13:03:22.518206	22.6	18.3	-91.2	10.8
2025-01-06 13:03:23.669400	22.4	18.3	-90.8	8.6
2025-01-06 13:03:24.814860	22.2	18.4	-90.9	10.2
2025-01-06 13:03:25.965971	22.0	18.5	-90.5	6.4
2025-01-06 13:03:27.105046	21.8	18.6	-90.9	6.0
2025-01-06 13:03:28.256017	21.6	18.7	-90.6	6.1
2025-01-06 13:03:29.403675	21.4	18.8	-90.9	10.1
2025-01-06 13:03:30.549398	21.2	18.9	-91.0	8.5
2025-01-06 13:03:31.698308	21.0	19.0	-90.6	13.1
2025-01-06 13:03:32.851970	20.8	19.1	-90.5	12.1
2025-01-06 13:03:34.001803	20.6	19.2	-90.8	9.0
2025-01-06 13:03:35.149225	20.4	19.3	-90.5	6.7
2025-01-06 13:03:36.294200	20.2	19.4	-90.4	9.6
2025-01-06 13:03:37.442257	20.0	19.5	-90.8	6.3
2025-01-06 13:03:38.586993	19.8	19.6	-90.9	5.5
2025-01-06 13:03:39.733903	19.6	19.7	-90.8	10.1
2025-01-06 13:03:40.878296	19.4	19.8	-90.7	9.0
2025-01-06 13:03:42.025532	19.2	19.9	-91.0	9.7
2025-01-06 13:03:43.181714	19.0	20.0	-90.1	9.4
2025-01-06 13:03:44.336782	18.8	20.1	-90.4	10.4
2025-01-06 13:03:45.485419	18.6	20.2	-90.5	6.6
2025-01-06 13:03:46.633763	18.3	20.3	-90.3	10.1
2025-01-06 13:03:47.784365	18.1	20.3	-90.8	10.2
2025-01-06 13:03:48.933530	17.9	20.4	-90.5	6.6
2025-01-06 13:03:50.081671	17.7	20.5	-90.3	8.5
2025-01-06 13:03:51.233821	17.5	20.6	-90.4	7.8
2025-01-06 13:03:52.382444	17.2	20.7	-90.6	10.7
2025-01-06 13:03:53.525943	17.0	20.8	-90.5	9.1
2025-01-06 13:03:54.672561	16.8	20.9	-90.6	9.9
2025-01-06 13:03:55.828410	16.6	21.0	-90.9	9.6
2025-01-06 13:03:56.975389	16.3	21.1	-90.8	5.5
2025-01-06 13:03:58.124707	16.1	21.2	-90.7	5.4
2025-01-06 13:03:59.276485	15.9	21.3	-89.5	6.2
2025-01-06 13:04:00.412792	15.7	21.4	-89.9	7.5
2025-01-06 13:04:01.561826	15.4	21.5	-89.9	4.5
2025-01-06 13:04:02.705443	15.2	21.6	-90.2	7.8
2025-01-06 13:04:03.853692	15.0	21.7	-90.2	6.9
2025-01-06 13:04:04.999512	14.7	21.8	-89.8	8.7
2025-01-06 13:04:06.146652	14.5	21.8	-90.3	7.5
2025-01-06 13:04:07.296015	14.2	21.9	-90.9	10.3
2025-01-06 13:04:08.445708	14.0	22.0	-90.5	8.3
2025-01-06 13:04:09.591137	13.8	22.1	-90.8	9.5
2025-01-06 13:04:10.737239	13.5	22.2	-91.2	9.1
2025-01-06 13:04:11.883005	13.3	22.3	-91.0	8.0
2025-01-06 13:04:13.029837	13.0	22.4	-91.2	8.7
2025-01-06 13:04:14.181039	12.8	22.5	-90.9	9.6
2025-01-06 13:04:15.331615	12.5	22.6	-90.5	13.0
2025-01-06 13:04:16.478738	12.3	22.7	-91.3	12.0
2025-01-06 13:04:17.623629	12.0	22.8	-91.4	11.7
2025-01-06 13:04:18.773605	11.8	22.9	-91.3	12.2
2025-01-06 13:04:19.928956	11.5	22.9	-90.7	11.7
2025-01-06 13:04:21.077802	11.2	23.0	-90.6	8.0
2025-01-06 13:04:22.228651	11.0	23.1	-90.6	10.4
2025-01-06 13:04:23.377884	10.7	23.2	-90.7	12.5
2025-01-06 13:04:24.527222	10.5	23.3	-90.9	6.2
2025-01-06 13:04:25.673069	10.2	23.4	-90.9	8.7
2025-01-06 13:04:26.820243	9.9	23.5	-91.1	13.0
2025-01-06 13:04:27.967240	9.7	23.6	-91.4	10.4
2025-01-06 13:04:29.115296	9.4	23.6	-90.3	10.0
2025-01-06 13:04:30.270213	9.1	23.7	-90.5	11.8
2025-01-06 13:04:31.416019	8.9	23.8	-91.0	12.1
2025-01-06 13:04:32.576876	8.6	23.9	-90.9	11.3
2025-01-06 13:04:33.727897	8.3	24.0	-91.2	11.6
2025-01-06 13:04:34.877035	8.0	24.1	-91.3	11.8
2025-01-06 13:04:36.023515	7.8	24.2	-91.0	9.4
2025-01-06 13:04:37.174961	7.5	24.2	-90.6	9.7
2025-01-06 13:04:38.321150	7.2	24.3	-90.8	10.2
2025-01-06 13:04:39.467297	6.9	24.4	-90.7	9.0
2025-01-06 13:04:40.616112	6.6	24.5	-91.1	9.6
2025-01-06 13:04:41.764666	6.4	24.6	-90.9	8.6
2025-01-06 13:04:42.912738	6.1	24.7	-90.6	11.1
2025-01-06 13:04:44.059479	5.8	24.7	-91.1	13.3
2025-01-06 13:04:45.210267	5.5	24.8	-90.9	12.0
2025-01-06 13:04:46.359833	5.2	24.9	-90.6	10.3
2025-01-06 13:04:47.507357	4.9	25.0	-91.3	9.1
2025-01-06 13:04:48.656789	4.6	25.1	-90.7	8.7
2025-01-06 13:04:49.801167	4.3	25.1	-90.8	12.2
2025-01-06 13:04:50.957118	4.0	25.2	-91.1	7.6
2025-01-06 13:04:52.099671	3.7	25.3	-90.2	6.0
2025-01-06 13:04:53.253738	3.4	25.4	-90.8	10.2
2025-01-06 13:04:54.405849	3.1	25.4	-90.7	9.5
2025-01-06 13:04:55.556255	2.8	25.5	-91.3	8.1
2025-01-06 13:04:56.708158	2.5	25.6	-90.5	8.3
2025-01-06 13:04:57.862227	2.2	25.7	-90.5	9.7
2025-01-06 13:04:59.018222	1.9	25.7	-90.4	10.8
2025-01-06 13:05:00.161660	1.6	25.8	-90.6	11.0
2025-01-06 13:05:01.305698	1.3	25.9	-90.5	11.7
2025-01-06 13:05:02.463134	1.0	25.9	-90.6	10.1
2025-01-06 13:05:03.616469	0.7	26.0	-91.0	10.2
2025-01-06 13:05:04.769404	0.3	26.1	-90.7	13.3
2025-01-06 13:05:05.914237	0.0	26.1	-91.1	13.0
2025-01-06 13:05:07.068941	359.7	26.2	-90.6	8.9
2025-01-06 13:05:08.215717	359.4	26.3	-90.6	11.8
2025-01-06 13:05:09.366154	359.1	26.3	-91.0	14.0
2025-01-06 13:05:10.513856	358.8	26.4	-91.4	7.9
2025-01-06 13:05:11.659961	358.4	26.5	-91.0	11.1
2025-01-06 13:05:12.813234	358.1	26.5	-91.4	12.0
2025-01-06 13:05:13.956159	357.8	26.6	-91.3	12.3
2025-01-06 13:05:15.104775	357.5	26.7	-91.0	11.5
2025-01-06 13:05:16.248214	357.1	26.7	-90.9	11.6
2025-01-06 13:05:17.398960	356.8	26.8	-91.4	10.8
2025-01-06 13:05:18.549672	356.5	26.8	-90.7	6.4
2025-01-06 13:05:19.694014	356.2	26.9	-91.2	11.2
2025-01-06 13:05:20.838271	355.8	27.0	-91.5	12.3
2025-01-06 13:05:21.987864	355.5	27.0	-91.3	6.2
2025-01-06 13:05:23.139462	355.2	27.1	-90.7	4.5
2025-01-06 13:05:24.287807	354.8	27.1	-91.1	12.5
2025-01-06 13:05:25.436997	354.5	27.2	-91.3	11.1
2025-01-06 13:05:26.583864	354.2	27.2	-91.3	8.1
2025-01-06 13:05:27.737329	353.8	27.3	-91.2	12.3
2025-01-06 13:05:28.888436	353.5	27.3	-91.2	11.3
2025-01-06 13:05:30.033776	353.1	27.4	-91.5	9.2
2025-01-06 13:05:31.189186	352.8	27.4	-90.6	9.5
2025-01-06 13:05:32.339976	352.4	27.5	-91.2	6.4
2025-01-06 13:05:33.486357	352.1	27.5	-91.1	8.6
2025-01-06 13:05:34.635110	351.8	27.6	-89.5	8.6
2025-01-06 13:05:35.779106	351.4	27.6	-91.5	8.2
2025-01-06 13:05:36.923906	351.1	27.6	-91.4	8.8
2025-01-06 13:05:38.070852	350.7	27.7	-91.2	11.0
2025-01-06 13:05:39.219694	350.4	27.7	-91.5	11.2
2025-01-06 13:05:40.371828	350.0	27.8	-91.1	7.1
2025-01-06 13:05:41.514949	349.7	27.8	-91.7	7.1
2025-01-06 13:05:42.663400	349.3	27.8	-91.8	7.8
2025-01-06 13:05:43.822299	349.0	27.9	-91.1	10.0
2025-01-06 13:05:44.970842	348.6	27.9	-91.7	7.4
2025-01-06 13:05:46.121008	348.3	27.9	-91.1	6.2
2025-01-06 13:05:47.270118	347.9	28.0	-91.3	8.9
2025-01-06 13:05:48.420433	347.6	28.0	-91.1	4.1
2025-01-06 13:05:49.572133	347.2	28.0	-91.7	5.6
2025-01-06 13:05:50.721858	346.8	28.1	-91.2	8.9
2025-01-06 13:05:51.868259	346.5	28.1	-91.3	4.4
2025-01-06 13:05:53.015629	346.1	28.1	-91.5	7.7
2025-01-06 13:05:54.157421	345.8	28.1	-90.4	6.4
2025-01-06 13:05:55.302381	345.4	28.2	-90.8	6.6
2025-01-06 13:05:56.453910	345.1	28.2	-91.2	6.9
2025-01-06 13:05:57.599495	344.7	28.2	-91.5	7.8
2025-01-06 13:05:58.745489	344.3	28.2	-91.4	6.3
2025-01-06 13:05:59.899991	344.0	28.2	-91.7	6.4
2025-01-06 13:06:01.042224	343.6	28.3	-90.8	6.1
2025-01-06 13:06:02.199973	343.3	28.3	-91.2	7.4
2025-01-06 13:06:03.347815	342.9	28.3	-91.3	6.6
2025-01-06 13:06:04.490613	342.5	28.3	-91.6	5.8
2025-01-06 13:06:05.639174	342.2	28.3	-91.5	6.0
2025-01-06 13:06:06.790234	341.8	28.3	-91.1	8.8
2025-01-06 13:06:07.940910	341.5	28.3	-91.2	7.6
2025-01-06 13:06:09.086493	341.1	28.3	-91.5	5.7
2025-01-06 13:06:10.237518	340.7	28.3	-90.7	10.3
2025-01-06 13:06:11.385011	340.4	28.4	-90.6	9.6
2025-01-06 13:06:12.531095	340.0	28.4	-90.4	7.4
2025-01-06 13:06:13.682983	339.6	28.4	-90.6	8.6
2025-01-06 13:06:14.828414	339.3	28.4	-91.0	11.7
2025-01-06 13:06:15.983302	338.9	28.4	-91.2	6.7
2025-01-06 13:06:17.131100	338.5	28.4	-89.3	6.8
2025-01-06 13:06:18.278657	338.2	28.4	-91.2	11.4
2025-01-06 13:06:19.427916	337.8	28.4	-91.2	7.0
2025-01-06 13:06:20.576708	337.5	28.4	-90.5	6.1
2025-01-06 13:06:21.719559	337.1	28.3	-91.3	9.0
2025-01-06 13:06:22.866606	336.7	28.3	-91.1	10.3
2025-01-06 13:06:24.013450	336.4	28.3	-90.6	4.2
2025-01-06 13:06:25.162875	336.0	28.3	-90.7	6.6
2025-01-06 13:06:26.309709	335.6	28.3	-89.6	8.8
2025-01-06 13:06:27.456577	335.3	28.3	-90.4	7.3
2025-01-06 13:06:28.604099	334.9	28.3	-89.9	10.6
2025-01-06 13:06:29.752463	334.6	28.3	-90.7	12.1
2025-01-06 13:06:30.899247	334.2	28.3	-90.6	10.1
2025-01-06 13:06:32.044117	333.8	28.2	-91.7	11.0
2025-01-06 13:06:33.196759	333.5	28.2	-91.0	10.2
2025-01-06 13:06:34.339779	333.1	28.2	-90.9	10.5
2025-01-06 13:06:35.499183	332.8	28.2	-91.2	9.6
2025-01-06 13:06:36.646171	332.4	28.2	-89.7	8.7
2025-01-06 13:06:37.792983	332.0	28.1	-91.6	11.2
2025-01-06 13:06:38.956379	331.7	28.1	-92.0	9.9
2025-01-06 13:06:40.109930	331.3	28.1	-91.2	10.8
2025-01-06 13:06:41.257499	331.0	28.1	-91.4	7.5
2025-01-06 13:06:42.400864	330.6	28.0	-91.7	7.9
2025-01-06 13:06:43.553490	330.3	28.0	-91.5	10.2
2025-01-06 13:06:44.702009	329.9	28.0	-91.5	9.2
2025-01-06 13:06:45.856351	329.5	27.9	-91.5	10.1
2025-01-06 13:06:47.001768	329.2	27.9	-91.8	11.2
2025-01-06 13:06:48.149287	328.8	27.9	-91.0	10.4
2025-01-06 13:06:49.301949	328.5	27.8	-91.3	12.7
2025-01-06 13:06:50.451964	328.1	27.8	-91.4	10.0
2025-01-06 13:06:51.602378	327.8	27.8	-91.7	10.8
2025-01-06 13:06:52.745880	327.4	27.7	-91.5	11.9
2025-01-06 13:06:53.889509	327.1	27.7	-91.9	12.8
2025-01-06 13:06:55.036566	326.7	27.6	-90.8	9.9
2025-01-06 13:06:56.183401	326.4	27.6	-90.0	9.8
2025-01-06 13:06:57.332222	326.1	27.5	-90.5	10.9
2025-01-06 13:06:58.480667	325.7	27.5	-90.6	10.0
2025-01-06 13:06:59.631740	325.4	27.5	-90.4	9.6
2025-01-06 13:07:00.773108	325.0	27.4	-90.8	13.5
2025-01-06 13:07:01.917850	324.7	27.4	-92.2	14.1
2025-01-06 13:07:03.064012	324.3	27.3	-91.9	9.6
2025-01-06 13:07:04.208732	324.0	27.3	-91.7	13.5
2025-01-06 13:07:05.356126	323.7	27.2	-90.6	13.8
2025-01-06 13:07:06.504948	323.3	27.2	-91.6	9.5
2025-01-06 13:07:07.656027	323.0	27.1	-91.5	10.1
2025-01-06 13:07:08.806419	322.7	27.1	-91.7	14.2
2025-01-06 13:07:09.956301	322.3	27.0	-91.7	9.2
2025-01-06 13:07:11.104993	322.0	26.9	-91.2	9.7
2025-01-06 13:07:12.252880	321.7	26.9	-91.4	10.5
2025-01-06 13:07:13.397692	321.3	26.8	-91.5	12.9
2025-01-06 13:07:14.551546	321.0	26.8	-91.8	11.3
2025-01-06 13:07:15.695356	320.7	26.7	-91.6	10.9
2025-01-06 13:07:16.846124	320.3	26.6	-91.8	12.8
2025-01-06 13:07:17.992030	320.0	26.6	-91.8	10.2
2025-01-06 13:07:19.142912	319.7	26.5	-91.5	9.3
2025-01-06 13:07:20.292149	319.4	26.5	-90.1	7.9
2025-01-06 13:07:21.438457	319.0	26.4	-90.6	9.0
2025-01-06 13:07:22.593277	318.7	26.3	-90.7	9.8
2025-01-06 13:07:23.738637	318.4	26.3	-90.3	9.0
2025-01-06 13:07:24.893619	318.1	26.2	-90.8	8.3
2025-01-06 13:07:26.033430	317.8	26.1	-90.5	6.2
2025-01-06 13:07:27.184760	317.4	26.1	-91.1	7.1
2025-01-06 13:07:28.338540	317.1	26.0	-91.5	9.9
2025-01-06 13:07:29.485702	316.8	25.9	-91.6	11.5
2025-01-06 13:07:30.636856	316.5	25.9	-91.8	12.6
2025-01-06 13:07:31.783870	316.2	25.8	-91.8	10.7
2025-01-06 13:07:32.927945	315.9	25.7	-91.7	11.4
2025-01-06 13:07:34.077282	315.6	25.6	-91.7	11.8
2025-01-06 13:07:35.222773	315.3	25.6	-91.6	13.2
2025-01-06 13:07:36.371059	315.0	25.5	-91.2	10.1
2025-01-06 13:07:37.521941	314.7	25.4	-90.6	7.4
2025-01-06 13:07:38.667456	314.4	25.3	-91.0	10.2
2025-01-06 13:07:39.813522	314.1	25.3	-90.6	9.2
2025-01-06 13:07:40.963208	313.8	25.2	-90.8	9.8
2025-01-06 13:07:42.117587	313.5	25.1	-90.6	11.5
2025-01-06 13:07:43.265488	313.2	25.0	-90.5	9.6
2025-01-06 13:07:44.413096	312.9	24.9	-90.7	13.4
2025-01-06 13:07:45.565271	312.6	24.9	-90.9	13.2
2025-01-06 13:07:46.725505	312.3	24.8	-90.9	7.4
2025-01-06 13:07:47.874342	312.0	24.7	-90.9	11.4
2025-01-06 13:07:49.028034	311.7	24.6	-90.7	8.3
2025-01-06 13:07:50.177251	311.4	24.5	-90.4	10.2
2025-01-06 13:07:51.323254	311.1	24.5	-91.3	13.5
2025-01-06 13:07:52.479223	310.9	24.4	-91.8	10.6
2025-01-06 13:07:53.623823	310.6	24.3	-92.4	11.2
2025-01-06 13:07:54.774047	310.3	24.2	-91.8	10.2
2025-01-06 13:07:55.920054	310.0	24.1	-91.9	8.9
2025-01-06 13:07:57.072739	309.7	24.0	-91.7	6.4
2025-01-06 13:07:58.225693	309.5	24.0	-91.6	10.6
2025-01-06 13:07:59.377503	309.2	23.9	-91.5	9.2
2025-01-06 13:08:00.521038	308.9	23.8	-91.7	4.5
2025-01-06 13:08:01.673427	308.6	23.7	-92.1	7.7
2025-01-06 13:08:02.826352	308.4	23.6	-92.0	8.6
2025-01-06 13:08:03.978491	308.1	23.5	-92.0	5.9
2025-01-06 13:08:05.136417	307.8	23.4	-92.0	5.6
2025-01-06 13:08:06.283556	307.6	23.3	-91.5	12.1
2025-01-06 13:08:07.440149	307.3	23.3	-90.6	5.4
2025-01-06 13:08:08.589360	307.0	23.2	-90.7	7.0
2025-01-06 13:08:09.736109	306.8	23.1	-90.9	10.9
2025-01-06 13:08:10.882307	306.5	23.0	-90.6	8.6
2025-01-06 13:08:12.032467	306.3	22.9	-90.5	6.1
2025-01-06 13:08:13.177120	306.0	22.8	-90.4	8.1
2025-01-06 13:08:14.321564	305.7	22.7	-90.4	8.1
2025-01-06 13:08:15.470554	305.5	22.6	-90.5	4.4
2025-01-06 13:08:16.620355	305.2	22.5	-90.6	7.9
2025-01-06 13:08:17.768528	305.0	22.4	-90.8	6.8
2025-01-06 13:08:18.924112	304.7	22.4	-89.8	9.4
2025-01-06 13:08:20.070952	304.5	22.3	-90.2	10.6
2025-01-06 13:08:21.219968	304.2	22.2	-90.3	12.0
2025-01-06 13:08:22.365765	304.0	22.1	-90.2	12.3
2025-01-06 13:08:23.514232	303.7	22.0	-90.3	12.6
2025-01-06 13:08:24.664603	303.5	21.9	-90.7	5.6
2025-01-06 13:08:25.818797	303.3	21.8	-90.5	15.1
2025-01-06 13:08:26.967400	303.0	21.7	-90.8	8.9
2025-01-06 13:08:28.115292	302.8	21.6	-90.2	9.0
2025-01-06 13:08:29.264235	302.6	21.5	-90.2	10.6
2025-01-06 13:08:30.415126	302.3	21.4	-90.3	5.6
2025-01-06 13:08:31.560938	302.1	21.3	-90.5	6.3
2025-01-06 13:08:32.704075	301.9	21.2	-90.5	6.7
2025-01-06 13:08:33.857449	301.6	21.1	-91.8	8.7
2025-01-06 13:08:35.007118	301.4	21.0	-91.9	3.3
2025-01-06 13:08:36.154224	301.2	21.0	-91.2	5.2
2025-01-06 13:08:37.305395	300.9	20.9	-91.1	6.9
2025-01-06 13:08:38.456361	300.7	20.8	-91.5	5.4
2025-01-06 13:08:39.601536	300.5	20.7	-91.8	4.3
2025-01-06 13:08:40.748631	300.3	20.6	-91.7	5.9
2025-01-06 13:08:41.896632	300.0	20.5	-92.0	8.8
2025-01-06 13:08:43.042357	299.8	20.4	-92.0	5.5
2025-01-06 13:08:44.189090	299.6	20.3	-91.4	7.7
2025-01-06 13:08:45.337112	299.4	20.2	-91.5	10.8
2025-01-06 13:08:46.486334	299.2	20.1	-91.4	6.9
2025-01-06 13:08:47.634366	299.0	20.0	-91.7	9.1
2025-01-06 13:08:48.782509	298.7	19.9	-91.4	5.1
2025-01-06 13:08:49.934621	298.5	19.8	-91.6	7.0
2025-01-06 13:08:51.083598	298.3	19.7	-91.6	4.1
2025-01-06 13:08:52.232107	298.1	19.6	-91.1	4.4
2025-01-06 13:08:53.372224	297.9	19.5	-91.2	7.3
2025-01-06 13:08:54.522713	297.7	19.4	-92.0	5.8
2025-01-06 13:08:55.669909	297.5	19.3	-91.5	6.7
2025-01-06 13:08:56.818339	297.3	19.2	-91.5	4.5
2025-01-06 13:08:57.967207	297.1	19.1	-91.7	7.0
2025-01-06 13:08:59.117727	296.9	19.0	-91.1	5.9
2025-01-06 13:09:00.264279	296.7	18.9	-91.4	6.4
2025-01-06 13:09:01.410410	296.5	18.9	-91.6	5.3
2025-01-06 13:09:02.555905	296.3	18.8	-91.7	6.9
2025-01-06 13:09:03.704404	296.1	18.7	-91.4	7.6
2025-01-06 13:09:04.853064	295.9	18.6	-91.8	8.1
2025-01-06 13:09:05.997390	295.7	18.5	-92.0	3.1
2025-01-06 13:09:07.150501	295.5	18.4	-91.4	6.0
2025-01-06 13:09:08.297500	295.3	18.3	-91.0	7.1
2025-01-06 13:09:09.445080	295.1	18.2	-91.4	8.5
2025-01-06 13:09:10.591947	294.9	18.1	-91.5	8.5
2025-01-06 13:09:11.744985	294.8	18.0	-91.3	9.9
2025-01-06 13:09:12.895464	294.6	17.9	-91.4	11.3
2025-01-06 13:09:14.041100	294.4	17.8	-90.9	10.4
2025-01-06 13:09:15.193961	294.2	17.7	-90.8	10.9
2025-01-06 13:09:16.343483	294.0	17.6	-90.6	11.0
2025-01-06 13:09:17.491195	293.8	17.5	-91.2	9.6
2025-01-06 13:09:18.640971	293.7	17.4	-91.2	7.3
2025-01-06 13:09:19.793839	293.5	17.3	-91.9	13.7
2025-01-06 13:09:20.940545	293.3	17.2	-91.5	8.8
2025-01-06 13:09:22.096098	293.1	17.1	-91.1	8.8
2025-01-06 13:09:23.247566	292.9	17.0	-91.3	9.8
2025-01-06 13:09:24.395312	292.8	16.9	-91.4	9.0
2025-01-06 13:09:25.549528	292.6	16.8	-91.6	4.9
2025-01-06 13:09:26.693599	292.4	16.7	-91.5	7.9
2025-01-06 13:09:27.844717	292.2	16.7	-91.4	10.6
2025-01-06 13:09:28.988041	292.1	16.6	-91.2	5.5
2025-01-06 13:09:30.138439	291.9	16.5	-91.3	4.3
2025-01-06 13:09:31.290821	291.7	16.4	-91.4	7.3
2025-01-06 13:09:32.437553	291.6	16.3	-91.8	6.9
2025-01-06 13:09:33.584295	291.4	16.2	-91.9	7.2
2025-01-06 13:09:34.731103	291.2	16.1	-90.6	7.6
2025-01-06 13:09:35.876980	291.1	16.0	-89.7	7.5
2025-01-06 13:09:37.025984	290.9	15.9	-90.7	6.9
2025-01-06 13:09:38.170792	290.7	15.8	-87.9	7.4
2025-01-06 13:09:39.318283	290.6	15.7	-90.3	7.6
2025-01-06 13:09:40.468739	290.4	15.6	-90.7	7.1
2025-01-06 13:09:41.619524	290.3	15.5	-90.7	6.6
2025-01-06 13:09:42.760753	290.1	15.4	-90.6	5.4
2025-01-06 13:09:43.912400	290.0	15.3	-90.3	4.7
2025-01-06 13:09:45.062307	289.8	15.2	-90.4	4.9
2025-01-06 13:09:46.208421	289.6	15.1	-91.5	6.9
2025-01-06 13:09:47.361854	289.5	15.1	-91.4	6.8
2025-01-06 13:09:48.509324	289.3	15.0	-91.8	5.2
2025-01-06 13:09:49.658876	289.2	14.9	-91.9	7.0
2025-01-06 13:09:50.806508	289.0	14.8	-91.8	8.0
2025-01-06 13:09:51.954470	288.9	14.7	-92.0	8.6
2025-01-06 13:09:53.102987	288.7	14.6	-92.1	9.0
#Closed at: 2025-01-06 13:02:47.726568