passes_logs/2025/01/06/LEX_Murmansk/LEX_Murmansk__20250106_212448_NOAA_18_rec.log

#Pass ID: 20250106_212448_NOAA 18
#Satellite: NOAA 18
#Configuration: NOAA 18
#Start time: 2025-01-06 21:24:43.365655

#LorettStation: 1.0.0 05.05.2024
#Station: LEX_Murmansk
#Location: 33.156738 lon 68.926811 lat
#TLE: 1 28654U 05018A   25005.81892802  .00000565  00000+0  32357-3 0  9997
#TLE: 2 28654  98.8581  86.9638 0013924 205.2694 154.7799 14.13478522 11802

#Time	Az	El	Level	SNR
2025-01-06 21:24:55.573613	240.8	15.8	-92.6	6.4
2025-01-06 21:24:56.725153	241.0	15.8	-92.8	7.7
2025-01-06 21:24:57.878202	241.2	15.9	-93.0	7.4
2025-01-06 21:24:59.036138	241.4	16.0	-92.6	4.1
2025-01-06 21:25:00.186982	241.6	16.1	-92.6	9.8
2025-01-06 21:25:01.328602	241.8	16.1	-91.8	10.2
2025-01-06 21:25:02.482179	242.0	16.2	-92.4	8.7
2025-01-06 21:25:03.629602	242.2	16.3	-93.0	14.3
2025-01-06 21:25:04.790186	242.4	16.3	-93.1	9.8
2025-01-06 21:25:05.943939	242.6	16.4	-92.9	8.3
2025-01-06 21:25:07.103808	242.8	16.5	-92.2	8.0
2025-01-06 21:25:08.254089	243.0	16.5	-92.4	6.2
2025-01-06 21:25:09.411122	243.2	16.6	-92.6	5.9
2025-01-06 21:25:10.557119	243.4	16.7	-92.7	5.9
2025-01-06 21:25:11.677063	243.6	16.8	-92.8	8.0
2025-01-06 21:25:12.798522	243.8	16.8	-93.0	11.2
2025-01-06 21:25:13.919693	244.1	16.9	-92.9	9.9
2025-01-06 21:25:15.041602	244.3	17.0	-92.3	7.1
2025-01-06 21:25:16.162675	244.5	17.0	-92.2	11.8
2025-01-06 21:25:17.284413	244.7	17.1	-91.9	11.3
2025-01-06 21:25:18.409244	244.9	17.2	-92.3	12.1
2025-01-06 21:25:19.529399	245.1	17.2	-92.6	5.1
2025-01-06 21:25:20.685328	245.3	17.3	-92.9	5.4
2025-01-06 21:25:21.828142	245.5	17.4	-93.1	5.0
2025-01-06 21:25:22.985662	245.8	17.4	-93.1	4.4
2025-01-06 21:25:24.137389	246.0	17.5	-92.4	6.0
2025-01-06 21:25:25.296247	246.2	17.6	-92.4	9.7
2025-01-06 21:25:26.442408	246.4	17.6	-92.4	8.0
2025-01-06 21:25:27.604409	246.7	17.7	-92.9	6.3
2025-01-06 21:25:28.756022	246.9	17.8	-92.9	12.9
2025-01-06 21:25:29.912385	247.1	17.8	-93.0	7.7
2025-01-06 21:25:31.063827	247.3	17.9	-92.6	5.9
2025-01-06 21:25:32.221329	247.6	18.0	-92.7	9.7
2025-01-06 21:25:33.382221	247.8	18.0	-92.5	10.0
2025-01-06 21:25:34.539658	248.0	18.1	-92.9	11.1
2025-01-06 21:25:35.696408	248.3	18.2	-92.9	14.7
2025-01-06 21:25:36.845341	248.5	18.2	-93.1	10.9
2025-01-06 21:25:37.997694	248.7	18.3	-92.6	8.4
2025-01-06 21:25:39.150746	249.0	18.4	-92.6	13.3
2025-01-06 21:25:40.313990	249.2	18.4	-92.4	9.5
2025-01-06 21:25:41.471559	249.4	18.5	-92.7	10.3
2025-01-06 21:25:42.629987	249.7	18.5	-92.8	10.0
2025-01-06 21:25:43.789247	249.9	18.6	-93.1	8.7
2025-01-06 21:25:44.943455	250.2	18.7	-93.0	6.8
2025-01-06 21:25:46.102532	250.4	18.7	-92.4	6.1
2025-01-06 21:25:47.257907	250.6	18.8	-92.6	5.9
2025-01-06 21:25:48.415417	250.9	18.9	-92.5	5.6
2025-01-06 21:25:49.572141	251.1	18.9	-93.1	1.1
2025-01-06 21:25:50.728585	251.4	19.0	-93.2	11.4
2025-01-06 21:25:51.874882	251.6	19.0	-92.5	7.6
2025-01-06 21:25:53.003316	251.9	19.1	-93.1	7.1
2025-01-06 21:25:54.124916	252.1	19.2	-92.5	8.2
2025-01-06 21:25:55.245356	252.3	19.2	-92.7	4.6
2025-01-06 21:25:56.367782	252.6	19.3	-92.9	5.9
2025-01-06 21:25:57.488927	252.8	19.3	-93.1	5.1
2025-01-06 21:25:58.609500	253.1	19.4	-93.1	3.9
2025-01-06 21:25:59.729811	253.3	19.4	-93.0	4.7
2025-01-06 21:26:00.857963	253.6	19.5	-93.1	6.2
2025-01-06 21:26:01.997512	253.8	19.5	-93.2	3.8
2025-01-06 21:26:03.151330	254.1	19.6	-92.5	2.8
2025-01-06 21:26:04.296952	254.3	19.7	-92.8	15.3
2025-01-06 21:26:05.457624	254.6	19.7	-93.1	8.7
2025-01-06 21:26:06.619947	254.8	19.8	-93.1	6.8
2025-01-06 21:26:07.781195	255.1	19.8	-93.0	7.5
2025-01-06 21:26:08.932432	255.4	19.9	-92.9	7.5
2025-01-06 21:26:10.091800	255.6	19.9	-92.5	6.5
2025-01-06 21:26:11.249602	255.9	20.0	-92.3	4.1
2025-01-06 21:26:12.405690	256.1	20.0	-92.8	4.4
2025-01-06 21:26:13.560264	256.4	20.1	-93.0	6.1
2025-01-06 21:26:14.719571	256.7	20.1	-93.1	8.0
2025-01-06 21:26:15.879115	256.9	20.2	-93.1	10.3
2025-01-06 21:26:17.032965	257.2	20.2	-93.2	9.7
2025-01-06 21:26:18.191517	257.5	20.3	-92.6	8.8
2025-01-06 21:26:19.344289	257.7	20.4	-92.3	11.9
2025-01-06 21:26:20.504300	258.0	20.4	-93.1	14.5
2025-01-06 21:26:21.657388	258.3	20.4	-93.1	15.0
2025-01-06 21:26:22.813786	258.5	20.5	-92.8	13.3
2025-01-06 21:26:23.972346	258.8	20.5	-92.8	8.8
2025-01-06 21:26:25.128422	259.1	20.6	-92.3	11.2
2025-01-06 21:26:26.287453	259.4	20.6	-92.3	5.7
2025-01-06 21:26:27.445936	259.6	20.7	-92.8	5.7
2025-01-06 21:26:28.598545	259.9	20.7	-93.1	5.3
2025-01-06 21:26:29.759318	260.2	20.8	-92.8	10.3
2025-01-06 21:26:30.912596	260.5	20.8	-92.8	6.5
2025-01-06 21:26:32.077950	260.7	20.9	-92.3	10.4
2025-01-06 21:26:33.225816	261.0	20.9	-92.6	11.6
2025-01-06 21:26:34.380624	261.3	20.9	-92.6	9.9
2025-01-06 21:26:35.535365	261.6	21.0	-93.0	14.0
2025-01-06 21:26:36.692414	261.8	21.0	-92.9	11.4
2025-01-06 21:26:37.851280	262.1	21.1	-93.0	12.2
2025-01-06 21:26:38.977057	262.4	21.1	-93.0	15.1
2025-01-06 21:26:40.098293	262.7	21.2	-92.3	10.6
2025-01-06 21:26:41.218777	262.9	21.2	-91.4	11.1
2025-01-06 21:26:42.339809	263.2	21.2	-92.5	18.4
2025-01-06 21:26:43.460407	263.5	21.3	-91.7	6.6
2025-01-06 21:26:44.580385	263.8	21.3	-92.7	5.1
2025-01-06 21:26:45.702006	264.0	21.3	-93.1	11.5
2025-01-06 21:26:46.826393	264.3	21.4	-92.7	6.5
2025-01-06 21:26:47.971525	264.6	21.4	-93.1	7.1
2025-01-06 21:26:49.125441	264.9	21.4	-92.4	4.3
2025-01-06 21:26:50.273312	265.2	21.5	-92.5	7.4
2025-01-06 21:26:51.423345	265.5	21.5	-93.2	7.3
2025-01-06 21:26:52.580674	265.7	21.5	-93.2	7.7
2025-01-06 21:26:53.737923	266.0	21.6	-92.7	19.8
2025-01-06 21:26:54.894508	266.3	21.6	-92.9	13.8
2025-01-06 21:26:56.055711	266.6	21.6	-92.9	17.7
2025-01-06 21:26:57.200077	266.9	21.7	-92.0	9.3
2025-01-06 21:26:58.360572	267.2	21.7	-92.3	7.3
2025-01-06 21:26:59.514396	267.5	21.7	-93.1	11.4
2025-01-06 21:27:00.658082	267.8	21.7	-93.3	13.9
2025-01-06 21:27:01.818524	268.1	21.8	-93.2	14.2
2025-01-06 21:27:02.968118	268.4	21.8	-93.2	10.4
2025-01-06 21:27:04.123903	268.6	21.8	-92.6	9.6
2025-01-06 21:27:05.277320	268.9	21.8	-92.1	10.8
2025-01-06 21:27:06.438076	269.2	21.9	-93.1	10.7
2025-01-06 21:27:07.593223	269.5	21.9	-93.2	9.2
2025-01-06 21:27:08.751124	269.8	21.9	-93.2	12.6
2025-01-06 21:27:09.898686	270.1	21.9	-93.1	13.2
2025-01-06 21:27:11.049062	270.4	22.0	-92.7	8.4
2025-01-06 21:27:12.210526	270.7	22.0	-92.6	14.2
2025-01-06 21:27:13.367710	271.0	22.0	-92.7	11.3
2025-01-06 21:27:14.522898	271.3	22.0	-93.4	6.9
2025-01-06 21:27:15.686712	271.6	22.0	-93.3	6.9
2025-01-06 21:27:16.841712	271.9	22.1	-93.5	13.9
2025-01-06 21:27:17.997194	272.2	22.1	-93.2	13.7
2025-01-06 21:27:19.149696	272.5	22.1	-92.9	12.0
2025-01-06 21:27:20.299240	272.8	22.1	-92.3	13.8
2025-01-06 21:27:21.446838	273.1	22.1	-93.3	11.5
2025-01-06 21:27:22.602746	273.4	22.1	-93.7	4.7
2025-01-06 21:27:23.770286	273.7	22.1	-93.0	6.6
2025-01-06 21:27:24.926560	274.0	22.2	-93.1	12.3
2025-01-06 21:27:26.083162	274.3	22.2	-92.4	15.9
2025-01-06 21:27:27.232196	274.6	22.2	-92.0	3.0
2025-01-06 21:27:28.388144	274.9	22.2	-93.0	9.1
2025-01-06 21:27:29.546612	275.2	22.2	-92.9	4.6
2025-01-06 21:27:30.700562	275.5	22.2	-92.1	7.2
2025-01-06 21:27:31.857416	275.8	22.2	-92.8	4.0
2025-01-06 21:27:33.018512	276.1	22.2	-92.9	8.5
2025-01-06 21:27:34.172680	276.4	22.2	-91.5	9.6
2025-01-06 21:27:35.328374	276.7	22.2	-91.9	8.4
2025-01-06 21:27:36.481374	277.0	22.2	-92.4	6.9
2025-01-06 21:27:37.642829	277.3	22.2	-92.4	5.7
2025-01-06 21:27:38.795835	277.6	22.2	-93.2	8.8
2025-01-06 21:27:39.954828	277.9	22.2	-93.2	9.1
2025-01-06 21:27:41.114574	278.2	22.2	-93.0	6.6
2025-01-06 21:27:42.269178	278.5	22.2	-92.1	11.1
2025-01-06 21:27:43.409129	278.8	22.2	-93.1	6.6
2025-01-06 21:27:44.529185	279.1	22.2	-92.8	4.9
2025-01-06 21:27:45.649259	279.4	22.2	-93.0	5.3
2025-01-06 21:27:46.769850	279.7	22.2	-93.2	8.6
2025-01-06 21:27:47.890743	280.0	22.2	-92.7	12.3
2025-01-06 21:27:49.012415	280.2	22.2	-92.8	6.4
2025-01-06 21:27:50.133496	280.5	22.2	-92.5	6.7
2025-01-06 21:27:51.253858	280.8	22.2	-92.8	8.1
2025-01-06 21:27:52.383796	281.1	22.2	-92.8	9.8
2025-01-06 21:27:53.524363	281.4	22.2	-92.9	7.7
2025-01-06 21:27:54.678730	281.7	22.2	-93.2	18.0
2025-01-06 21:27:55.821321	282.0	22.2	-93.3	6.7
2025-01-06 21:27:56.978708	282.3	22.2	-93.5	5.3
2025-01-06 21:27:58.132469	282.6	22.1	-92.3	10.4
2025-01-06 21:27:59.290034	282.9	22.1	-92.5	9.7
2025-01-06 21:28:00.430747	283.2	22.1	-93.4	5.8
2025-01-06 21:28:01.585707	283.5	22.1	-92.6	5.8
2025-01-06 21:28:02.748487	283.8	22.1	-92.5	12.3
2025-01-06 21:28:03.914194	284.1	22.1	-92.7	13.9
2025-01-06 21:28:05.069776	284.4	22.1	-92.8	6.7
2025-01-06 21:28:06.230977	284.7	22.0	-93.1	11.2
2025-01-06 21:28:07.385816	285.0	22.0	-92.9	13.5
2025-01-06 21:28:08.542065	285.3	22.0	-92.5	8.0
2025-01-06 21:28:09.691946	285.6	22.0	-93.2	4.9
2025-01-06 21:28:10.851178	285.9	22.0	-92.7	9.4
2025-01-06 21:28:12.006596	286.2	21.9	-92.8	10.5
2025-01-06 21:28:13.170868	286.5	21.9	-91.8	11.3
2025-01-06 21:28:14.327755	286.8	21.9	-91.6	11.8
2025-01-06 21:28:15.489311	287.1	21.9	-92.2	9.6
2025-01-06 21:28:16.639144	287.4	21.9	-92.1	5.7
2025-01-06 21:28:17.802912	287.7	21.8	-93.2	14.4
2025-01-06 21:28:18.953544	288.0	21.8	-93.2	10.2
2025-01-06 21:28:20.119457	288.2	21.8	-92.4	4.7
2025-01-06 21:28:21.277860	288.5	21.8	-92.5	10.4
2025-01-06 21:28:22.434537	288.8	21.7	-93.1	7.8
2025-01-06 21:28:23.586136	289.1	21.7	-92.9	8.4
2025-01-06 21:28:24.736430	289.4	21.7	-93.4	13.7
2025-01-06 21:28:25.885116	289.7	21.6	-92.8	9.1
2025-01-06 21:28:27.047407	290.0	21.6	-93.3	8.8
2025-01-06 21:28:28.208091	290.3	21.6	-92.8	13.0
2025-01-06 21:28:29.370301	290.6	21.6	-92.9	7.7
2025-01-06 21:28:30.525975	290.9	21.5	-93.0	10.0
2025-01-06 21:28:31.686904	291.2	21.5	-93.5	6.8
2025-01-06 21:28:32.837146	291.4	21.5	-93.0	14.6
2025-01-06 21:28:33.998893	291.7	21.4	-92.3	7.3
2025-01-06 21:28:35.142172	292.0	21.4	-92.8	7.3
2025-01-06 21:28:36.295344	292.3	21.4	-93.0	9.8
2025-01-06 21:28:37.448782	292.6	21.3	-93.2	4.2
2025-01-06 21:28:38.608002	292.9	21.3	-93.3	8.8
2025-01-06 21:28:39.769416	293.1	21.2	-93.3	8.8
2025-01-06 21:28:40.925994	293.4	21.2	-93.4	9.6
2025-01-06 21:28:42.084068	293.7	21.2	-93.0	8.5
2025-01-06 21:28:43.239425	294.0	21.1	-92.6	12.5
2025-01-06 21:28:44.394965	294.3	21.1	-93.4	8.3
2025-01-06 21:28:45.553045	294.5	21.0	-93.2	6.4
2025-01-06 21:28:46.705670	294.8	21.0	-92.9	9.6
2025-01-06 21:28:47.852608	295.1	21.0	-93.0	7.6
2025-01-06 21:28:49.012157	295.4	20.9	-93.4	5.7
2025-01-06 21:28:50.169864	295.7	20.9	-92.8	8.8
2025-01-06 21:28:51.319330	295.9	20.8	-92.9	5.4
2025-01-06 21:28:52.479126	296.2	20.8	-93.4	6.0
2025-01-06 21:28:53.638501	296.5	20.7	-93.3	8.6
2025-01-06 21:28:54.792262	296.8	20.7	-93.3	10.6
2025-01-06 21:28:55.958419	297.0	20.7	-92.8	5.1
2025-01-06 21:28:57.118211	297.3	20.6	-92.9	5.2
2025-01-06 21:28:58.264800	297.6	20.6	-92.6	5.1
2025-01-06 21:28:59.414429	297.8	20.5	-93.3	8.0
2025-01-06 21:29:00.562663	298.1	20.5	-93.4	5.2
2025-01-06 21:29:01.724667	298.4	20.4	-93.6	5.9
2025-01-06 21:29:02.886931	298.7	20.4	-92.5	7.1
2025-01-06 21:29:04.041429	298.9	20.3	-92.6	6.2
2025-01-06 21:29:05.199447	299.2	20.3	-93.0	9.4
2025-01-06 21:29:06.351213	299.4	20.2	-93.0	6.9
2025-01-06 21:29:07.514711	299.7	20.2	-93.4	5.7
2025-01-06 21:29:08.672401	300.0	20.1	-93.1	6.2
2025-01-06 21:29:09.826929	300.2	20.1	-93.3	6.5
2025-01-06 21:29:10.984334	300.5	20.0	-93.2	4.8
2025-01-06 21:29:12.139198	300.8	20.0	-92.5	6.3
2025-01-06 21:29:13.296455	301.0	19.9	-93.1	7.1
2025-01-06 21:29:14.458282	301.3	19.8	-93.2	5.5
2025-01-06 21:29:15.615295	301.5	19.8	-93.0	7.0
2025-01-06 21:29:16.772486	301.8	19.7	-92.7	8.2
2025-01-06 21:29:17.919773	302.1	19.7	-92.6	9.5
2025-01-06 21:29:19.074773	302.3	19.6	-93.2	8.7
2025-01-06 21:29:20.233519	302.6	19.6	-93.0	11.2
2025-01-06 21:29:21.380550	302.8	19.5	-93.1	13.5
2025-01-06 21:29:22.533812	303.1	19.5	-92.9	7.5
2025-01-06 21:29:23.687672	303.3	19.4	-92.8	13.3
2025-01-06 21:29:24.843033	303.6	19.3	-93.3	8.5
2025-01-06 21:29:25.990442	303.8	19.3	-93.2	5.5
2025-01-06 21:29:27.136451	304.1	19.2	-92.6	4.4
2025-01-06 21:29:28.266461	304.3	19.2	-92.9	2.6
2025-01-06 21:29:29.386936	304.6	19.1	-93.1	8.2
2025-01-06 21:29:30.507093	304.8	19.0	-93.4	6.6
2025-01-06 21:29:31.627741	305.0	19.0	-93.2	8.1
2025-01-06 21:29:32.749287	305.3	18.9	-93.4	9.1
2025-01-06 21:29:33.869884	305.5	18.9	-93.5	5.1
2025-01-06 21:29:34.990283	305.7	18.8	-93.2	8.9
2025-01-06 21:29:36.117612	306.0	18.8	-92.7	4.8
2025-01-06 21:29:37.257029	306.2	18.7	-92.6	4.7
2025-01-06 21:29:38.413296	306.5	18.6	-93.3	3.6
2025-01-06 21:29:39.566927	306.7	18.6	-93.1	3.7
2025-01-06 21:29:40.718040	306.9	18.5	-93.6	11.0
2025-01-06 21:29:41.866898	307.2	18.4	-93.2	7.9
2025-01-06 21:29:43.026322	307.4	18.4	-93.2	6.4
2025-01-06 21:29:44.184955	307.6	18.3	-93.1	10.6
2025-01-06 21:29:45.345282	307.9	18.2	-92.7	9.5
2025-01-06 21:29:46.507101	308.1	18.2	-93.2	7.4
2025-01-06 21:29:47.659144	308.3	18.1	-93.4	4.7
2025-01-06 21:29:48.820656	308.6	18.1	-93.5	8.6
2025-01-06 21:29:49.972334	308.8	18.0	-93.2	8.6
2025-01-06 21:29:51.130078	309.0	17.9	-92.9	8.5
2025-01-06 21:29:52.287753	309.3	17.9	-92.2	11.6
2025-01-06 21:29:53.452219	309.5	17.8	-93.0	5.2
2025-01-06 21:29:54.607432	309.7	17.7	-93.1	5.8
2025-01-06 21:29:55.767476	309.9	17.7	-92.5	3.8
2025-01-06 21:29:56.920102	310.2	17.6	-91.7	2.8
2025-01-06 21:29:58.069669	310.4	17.5	-93.1	5.2
2025-01-06 21:29:59.226966	310.6	17.5	-93.0	6.2
2025-01-06 21:30:00.367485	310.8	17.4	-93.3	8.8
2025-01-06 21:30:01.529069	311.1	17.3	-92.7	5.9
2025-01-06 21:30:02.685046	311.3	17.3	-93.1	8.8
2025-01-06 21:30:03.836645	311.5	17.2	-93.1	11.2
2025-01-06 21:30:04.994760	311.7	17.1	-93.1	6.9
2025-01-06 21:30:06.140806	311.9	17.0	-92.7	8.7
2025-01-06 21:30:07.291840	312.1	17.0	-93.2	9.9
2025-01-06 21:30:08.446290	312.4	16.9	-93.0	3.7
2025-01-06 21:30:09.599897	312.6	16.8	-93.1	8.6
2025-01-06 21:30:10.762264	312.8	16.8	-93.2	15.2
2025-01-06 21:30:11.915600	313.0	16.7	-92.6	4.7
2025-01-06 21:30:13.075247	313.2	16.6	-92.7	9.0
2025-01-06 21:30:14.233408	313.4	16.6	-92.7	5.8
2025-01-06 21:30:15.380203	313.6	16.5	-93.0	9.5
2025-01-06 21:30:16.534125	313.8	16.4	-93.5	4.6
2025-01-06 21:30:17.680737	314.1	16.3	-93.2	7.9
2025-01-06 21:30:18.839858	314.3	16.3	-93.4	9.2
2025-01-06 21:30:19.979928	314.5	16.2	-92.9	11.4
2025-01-06 21:30:21.130757	314.7	16.1	-92.6	6.5
2025-01-06 21:30:22.293015	314.9	16.1	-92.8	5.5
2025-01-06 21:30:23.444309	315.1	16.0	-93.4	5.7
2025-01-06 21:30:24.596995	315.3	15.9	-93.0	7.4
2025-01-06 21:30:25.753522	315.5	15.9	-93.3	8.0
2025-01-06 21:30:26.905998	315.7	15.8	-93.2	7.5
2025-01-06 21:30:28.063108	315.9	15.7	-92.9	3.6
2025-01-06 21:30:29.210653	316.1	15.6	-89.2	4.0
2025-01-06 21:30:30.361616	316.3	15.6	-87.1	6.4
2025-01-06 21:30:31.523006	316.5	15.5	-93.3	6.2
2025-01-06 21:30:32.676016	316.7	15.4	-92.9	8.8
2025-01-06 21:30:33.830051	316.9	15.3	-93.2	6.0
2025-01-06 21:30:34.992969	317.1	15.3	-93.7	6.9
2025-01-06 21:30:36.146918	317.2	15.2	-92.8	4.2
2025-01-06 21:30:37.299976	317.4	15.1	-92.6	7.2
2025-01-06 21:30:38.460184	317.6	15.1	-93.2	4.7
2025-01-06 21:30:39.613929	317.8	15.0	-93.3	5.1
2025-01-06 21:30:40.765353	318.0	14.9	-93.3	4.4
2025-01-06 21:30:41.921516	318.2	14.8	-93.1	5.0
2025-01-06 21:30:43.073487	318.4	14.8	-92.8	8.6
2025-01-06 21:30:44.220545	318.6	14.7	-93.5	6.4
2025-01-06 21:30:45.372645	318.8	14.6	-93.5	6.4
#Closed at: 2025-01-06 21:24:48.365689