passes_logs/2025/01/06/LEX_Murmansk/LEX_Murmansk__20250106_112209_NOAA_18_rec.log

#Pass ID: 20250106_112209_NOAA 18
#Satellite: NOAA 18
#Configuration: NOAA 18
#Start time: 2025-01-06 11:22:04.977773

#LorettStation: 1.0.0 05.05.2024
#Station: LEX_Murmansk
#Location: 33.156738 lon 68.926811 lat
#TLE: 1 28654U 05018A   25005.81892802  .00000565  00000+0  32357-3 0  9997
#TLE: 2 28654  98.8581  86.9638 0013924 205.2694 154.7799 14.13478522 11802

#Time	Az	El	Level	SNR
2025-01-06 11:22:17.119535	23.1	16.2	-90.8	4.3
2025-01-06 11:22:18.274280	23.0	16.3	-90.8	4.3
2025-01-06 11:22:19.431958	22.9	16.5	-91.0	4.1
2025-01-06 11:22:20.578304	22.8	16.6	-90.8	4.4
2025-01-06 11:22:21.738464	22.7	16.7	-90.9	5.1
2025-01-06 11:22:22.888879	22.6	16.8	-91.0	4.0
2025-01-06 11:22:24.045476	22.6	16.9	-90.7	1.3
2025-01-06 11:22:25.196925	22.5	17.1	-90.9	3.0
2025-01-06 11:22:26.355763	22.4	17.2	-91.3	5.2
2025-01-06 11:22:27.511125	22.3	17.3	-91.6	4.5
2025-01-06 11:22:28.666278	22.2	17.4	-91.1	5.9
2025-01-06 11:22:29.815026	22.1	17.6	-91.6	2.7
2025-01-06 11:22:30.966941	22.0	17.7	-91.2	5.3
2025-01-06 11:22:32.124064	21.9	17.8	-90.7	3.2
2025-01-06 11:22:33.273616	21.8	17.9	-90.9	4.6
2025-01-06 11:22:34.426272	21.7	18.1	-91.5	4.6
2025-01-06 11:22:35.584580	21.6	18.2	-91.1	7.6
2025-01-06 11:22:36.737171	21.5	18.3	-91.2	5.1
2025-01-06 11:22:37.893040	21.4	18.4	-91.8	6.1
2025-01-06 11:22:39.041972	21.3	18.6	-90.7	4.3
2025-01-06 11:22:40.193416	21.2	18.7	-90.9	11.1
2025-01-06 11:22:41.349642	21.1	18.8	-91.5	9.8
2025-01-06 11:22:42.495983	21.0	19.0	-91.3	14.0
2025-01-06 11:22:43.647856	20.9	19.1	-91.4	13.2
2025-01-06 11:22:44.801752	20.8	19.2	-91.4	14.5
2025-01-06 11:22:45.949639	20.7	19.3	-90.5	9.6
2025-01-06 11:22:47.103394	20.6	19.5	-91.2	10.1
2025-01-06 11:22:48.265382	20.5	19.6	-91.2	11.8
2025-01-06 11:22:49.417325	20.3	19.7	-91.8	10.6
2025-01-06 11:22:50.566946	20.2	19.9	-91.2	10.4
2025-01-06 11:22:51.729887	20.1	20.0	-91.3	9.9
2025-01-06 11:22:52.888043	20.0	20.2	-91.9	10.0
2025-01-06 11:22:54.049004	19.9	20.3	-91.5	6.0
2025-01-06 11:22:55.199191	19.8	20.4	-90.8	9.7
2025-01-06 11:22:56.352387	19.7	20.6	-91.6	9.8
2025-01-06 11:22:57.507212	19.5	20.7	-91.6	6.5
2025-01-06 11:22:58.669265	19.4	20.8	-91.4	10.5
2025-01-06 11:22:59.825154	19.3	21.0	-92.0	11.6
2025-01-06 11:23:00.968432	19.2	21.1	-91.8	10.9
2025-01-06 11:23:02.120806	19.1	21.3	-90.8	9.0
2025-01-06 11:23:03.281805	18.9	21.4	-90.8	12.4
2025-01-06 11:23:04.436060	18.8	21.5	-91.6	9.7
2025-01-06 11:23:05.593120	18.7	21.7	-91.8	11.8
2025-01-06 11:23:06.748124	18.6	21.8	-91.3	10.7
2025-01-06 11:23:07.895008	18.4	22.0	-91.7	11.0
2025-01-06 11:23:09.052087	18.3	22.1	-91.3	7.9
2025-01-06 11:23:10.208109	18.2	22.3	-91.3	8.9
2025-01-06 11:23:11.365151	18.0	22.4	-91.8	6.3
2025-01-06 11:23:12.508162	17.9	22.5	-91.3	5.9
2025-01-06 11:23:13.665346	17.8	22.7	-91.5	8.4
2025-01-06 11:23:14.814740	17.6	22.8	-91.6	11.5
2025-01-06 11:23:15.970347	17.5	23.0	-91.6	13.2
2025-01-06 11:23:17.126594	17.4	23.1	-91.4	12.8
2025-01-06 11:23:18.283847	17.2	23.3	-91.2	12.2
2025-01-06 11:23:19.435400	17.1	23.4	-91.7	9.8
2025-01-06 11:23:20.591267	16.9	23.6	-91.4	8.8
2025-01-06 11:23:21.749291	16.8	23.7	-91.6	11.0
2025-01-06 11:23:22.898551	16.7	23.9	-91.3	12.6
2025-01-06 11:23:24.051998	16.5	24.0	-91.3	10.7
2025-01-06 11:23:25.208459	16.4	24.2	-91.2	11.4
2025-01-06 11:23:26.369303	16.2	24.4	-91.5	10.8
2025-01-06 11:23:27.522585	16.1	24.5	-91.8	6.5
2025-01-06 11:23:28.670475	15.9	24.7	-91.6	6.4
2025-01-06 11:23:29.822373	15.8	24.8	-91.5	10.5
2025-01-06 11:23:30.982093	15.6	25.0	-91.5	5.8
2025-01-06 11:23:32.141070	15.4	25.1	-91.3	6.4
2025-01-06 11:23:33.294769	15.3	25.3	-91.0	11.8
2025-01-06 11:23:34.447424	15.1	25.4	-91.7	12.7
2025-01-06 11:23:35.601059	15.0	25.6	-91.7	12.2
2025-01-06 11:23:36.760929	14.8	25.8	-91.6	10.5
2025-01-06 11:23:37.911953	14.6	25.9	-91.9	8.7
2025-01-06 11:23:39.059604	14.5	26.1	-91.3	9.5
2025-01-06 11:23:40.212843	14.3	26.3	-90.9	10.4
2025-01-06 11:23:41.371279	14.1	26.4	-91.3	10.3
2025-01-06 11:23:42.531439	14.0	26.6	-91.2	10.2
2025-01-06 11:23:43.689797	13.8	26.7	-91.4	9.3
2025-01-06 11:23:44.851773	13.6	26.9	-91.4	9.7
2025-01-06 11:23:45.995790	13.4	27.1	-91.7	6.2
2025-01-06 11:23:47.154405	13.2	27.2	-91.2	6.6
2025-01-06 11:23:48.308031	13.1	27.4	-91.1	7.0
2025-01-06 11:23:49.463554	12.9	27.6	-91.7	7.9
2025-01-06 11:23:50.614984	12.7	27.7	-91.3	4.4
2025-01-06 11:23:51.763576	12.5	27.9	-91.0	4.9
2025-01-06 11:23:52.932226	12.3	28.1	-91.2	5.5
2025-01-06 11:23:54.085069	12.1	28.3	-90.6	5.8
2025-01-06 11:23:55.245818	11.9	28.4	-90.7	6.8
2025-01-06 11:23:56.401359	11.7	28.6	-91.4	9.1
2025-01-06 11:23:57.554380	11.5	28.8	-91.8	7.5
2025-01-06 11:23:58.708587	11.3	28.9	-92.0	8.9
2025-01-06 11:23:59.861487	11.1	29.1	-91.6	6.3
2025-01-06 11:24:01.006407	10.9	29.3	-91.5	5.7
2025-01-06 11:24:02.159476	10.7	29.5	-90.9	5.5
2025-01-06 11:24:03.311721	10.5	29.6	-90.8	11.2
2025-01-06 11:24:04.465653	10.3	29.8	-91.4	8.5
2025-01-06 11:24:05.627395	10.1	30.0	-91.6	5.9
2025-01-06 11:24:06.782670	9.9	30.2	-91.5	11.5
2025-01-06 11:24:07.935325	9.7	30.4	-91.3	8.0
2025-01-06 11:24:09.090120	9.4	30.5	-91.3	9.0
2025-01-06 11:24:10.250019	9.2	30.7	-91.5	12.9
2025-01-06 11:24:11.406156	9.0	30.9	-91.3	12.0
2025-01-06 11:24:12.561929	8.8	31.1	-91.4	12.6
2025-01-06 11:24:13.716504	8.5	31.3	-91.4	11.1
2025-01-06 11:24:14.874076	8.3	31.4	-91.4	11.9
2025-01-06 11:24:16.029938	8.1	31.6	-91.6	10.7
2025-01-06 11:24:17.187652	7.8	31.8	-91.1	12.1
2025-01-06 11:24:18.346129	7.6	32.0	-90.8	13.4
2025-01-06 11:24:19.508737	7.3	32.2	-91.3	12.7
2025-01-06 11:24:20.662820	7.1	32.4	-91.7	14.1
2025-01-06 11:24:21.814877	6.8	32.5	-91.7	13.2
2025-01-06 11:24:22.972656	6.6	32.7	-91.2	11.5
2025-01-06 11:24:24.126586	6.3	32.9	-90.9	8.9
2025-01-06 11:24:25.278860	6.1	33.1	-91.1	14.0
2025-01-06 11:24:26.433393	5.8	33.3	-91.2	8.0
2025-01-06 11:24:27.588148	5.5	33.5	-91.2	6.4
2025-01-06 11:24:28.745781	5.3	33.7	-91.5	15.6
2025-01-06 11:24:29.907007	5.0	33.9	-91.5	13.8
2025-01-06 11:24:31.058642	4.7	34.0	-90.9	11.6
2025-01-06 11:24:32.210967	4.4	34.2	-90.5	15.4
2025-01-06 11:24:33.367323	4.1	34.4	-90.9	14.0
2025-01-06 11:24:34.523830	3.9	34.6	-91.6	14.7
2025-01-06 11:24:35.676686	3.6	34.8	-91.1	14.8
2025-01-06 11:24:36.827064	3.3	35.0	-91.3	16.7
2025-01-06 11:24:37.984563	3.0	35.2	-91.5	12.1
2025-01-06 11:24:39.137950	2.7	35.4	-91.0	12.9
2025-01-06 11:24:40.292506	2.4	35.6	-91.2	15.0
2025-01-06 11:24:41.447151	2.1	35.8	-91.4	15.5
2025-01-06 11:24:42.601483	1.8	35.9	-91.1	14.0
2025-01-06 11:24:43.762723	1.5	36.1	-91.3	14.8
2025-01-06 11:24:44.921577	1.1	36.3	-89.8	11.3
2025-01-06 11:24:46.074721	0.8	36.5	-89.7	8.7
2025-01-06 11:24:47.223849	0.5	36.7	-89.3	10.0
2025-01-06 11:24:48.373047	0.2	36.9	-89.4	11.2
2025-01-06 11:24:49.521910	359.8	37.1	-90.0	7.4
2025-01-06 11:24:50.675383	359.5	37.3	-90.0	10.9
2025-01-06 11:24:51.829083	359.2	37.5	-89.7	10.3
2025-01-06 11:24:52.979925	358.8	37.7	-90.0	12.4
2025-01-06 11:24:54.130318	358.5	37.9	-89.9	14.1
2025-01-06 11:24:55.287139	358.1	38.1	-91.2	16.1
2025-01-06 11:24:56.434414	357.8	38.2	-91.5	16.4
2025-01-06 11:24:57.588083	357.4	38.4	-91.8	17.3
2025-01-06 11:24:58.742519	357.0	38.6	-90.8	18.4
2025-01-06 11:24:59.900104	356.7	38.8	-91.5	19.1
2025-01-06 11:25:01.045679	356.3	39.0	-91.1	14.3
2025-01-06 11:25:02.192836	355.9	39.2	-91.3	17.5
2025-01-06 11:25:03.352723	355.5	39.4	-91.0	17.6
2025-01-06 11:25:04.498994	355.1	39.6	-91.7	18.0
2025-01-06 11:25:05.647722	354.7	39.8	-91.0	17.7
2025-01-06 11:25:06.798230	354.3	40.0	-91.4	17.5
2025-01-06 11:25:07.957996	353.9	40.1	-91.6	18.0
2025-01-06 11:25:09.118946	353.5	40.3	-90.9	14.3
2025-01-06 11:25:10.270475	353.1	40.5	-91.2	19.2
2025-01-06 11:25:11.426034	352.7	40.7	-91.6	13.8
2025-01-06 11:25:12.575582	352.3	40.9	-91.3	8.4
2025-01-06 11:25:13.731431	351.9	41.1	-91.0	17.4
2025-01-06 11:25:14.885199	351.4	41.3	-91.1	17.3
2025-01-06 11:25:16.046203	351.0	41.4	-90.8	12.1
2025-01-06 11:25:17.199271	350.6	41.6	-90.8	17.2
2025-01-06 11:25:18.367667	350.1	41.8	-90.3	18.8
2025-01-06 11:25:19.529645	349.6	42.0	-90.6	17.3
2025-01-06 11:25:20.686087	349.2	42.2	-90.9	19.8
2025-01-06 11:25:21.835461	348.7	42.3	-90.7	19.6
2025-01-06 11:25:22.985228	348.3	42.5	-90.9	18.8
2025-01-06 11:25:24.136831	347.8	42.7	-90.4	16.4
2025-01-06 11:25:25.290844	347.3	42.9	-90.5	19.7
2025-01-06 11:25:26.443240	346.8	43.0	-90.6	13.7
2025-01-06 11:25:27.595431	346.4	43.2	-90.8	14.8
2025-01-06 11:25:28.753165	345.9	43.4	-90.6	20.0
2025-01-06 11:25:29.909935	345.4	43.5	-90.9	15.9
2025-01-06 11:25:31.069611	344.9	43.7	-90.8	17.4
2025-01-06 11:25:32.226931	344.4	43.9	-90.7	19.4
2025-01-06 11:25:33.381366	343.8	44.0	-91.1	18.7
2025-01-06 11:25:34.533507	343.3	44.2	-91.2	19.0
2025-01-06 11:25:35.695870	342.8	44.3	-91.2	18.3
2025-01-06 11:25:36.851603	342.3	44.5	-91.1	18.8
2025-01-06 11:25:38.015459	341.7	44.6	-91.1	17.1
2025-01-06 11:25:39.168005	341.2	44.8	-90.9	15.9
2025-01-06 11:25:40.328283	340.6	44.9	-90.4	18.0
2025-01-06 11:25:41.477052	340.1	45.1	-91.3	10.2
2025-01-06 11:25:42.630706	339.5	45.2	-91.2	8.7
2025-01-06 11:25:43.791740	339.0	45.4	-91.2	15.8
2025-01-06 11:25:44.946761	338.4	45.5	-91.4	9.6
2025-01-06 11:25:46.097018	337.9	45.6	-91.2	9.3
2025-01-06 11:25:47.250068	337.3	45.8	-91.1	17.2
2025-01-06 11:25:48.403225	336.7	45.9	-90.7	14.6
2025-01-06 11:25:49.553402	336.1	46.0	-91.4	12.9
2025-01-06 11:25:50.709350	335.5	46.2	-91.2	16.6
2025-01-06 11:25:51.871139	334.9	46.3	-91.2	18.5
2025-01-06 11:25:53.030109	334.3	46.4	-91.4	17.4
2025-01-06 11:25:54.184810	333.7	46.5	-91.0	18.3
2025-01-06 11:25:55.343887	333.1	46.6	-90.9	18.3
2025-01-06 11:25:56.492084	332.5	46.7	-91.3	15.9
2025-01-06 11:25:57.648294	331.9	46.8	-91.4	15.1
2025-01-06 11:25:58.802547	331.3	46.9	-91.5	20.5
2025-01-06 11:25:59.960875	330.7	47.0	-91.5	12.6
2025-01-06 11:26:01.104167	330.0	47.1	-91.0	11.6
2025-01-06 11:26:02.262540	329.4	47.2	-91.0	16.3
2025-01-06 11:26:03.418606	328.8	47.3	-91.1	11.6
2025-01-06 11:26:04.573350	328.1	47.4	-91.1	7.1
2025-01-06 11:26:05.725086	327.5	47.5	-91.4	12.5
2025-01-06 11:26:06.880348	326.9	47.5	-91.4	9.3
2025-01-06 11:26:08.034726	326.2	47.6	-91.4	9.0
2025-01-06 11:26:09.188399	325.6	47.7	-91.4	11.1
2025-01-06 11:26:10.344677	324.9	47.7	-91.5	13.3
2025-01-06 11:26:11.499258	324.3	47.8	-91.0	14.1
2025-01-06 11:26:12.649700	323.6	47.9	-91.7	14.6
2025-01-06 11:26:13.812090	322.9	47.9	-91.7	17.1
2025-01-06 11:26:14.972463	322.3	48.0	-91.4	18.1
2025-01-06 11:26:16.128397	321.6	48.0	-91.1	16.3
2025-01-06 11:26:17.281681	320.9	48.0	-91.1	18.1
2025-01-06 11:26:18.445322	320.3	48.1	-91.3	15.2
2025-01-06 11:26:19.605834	319.6	48.1	-91.4	14.3
2025-01-06 11:26:20.757288	318.9	48.1	-91.7	13.1
2025-01-06 11:26:21.911637	318.2	48.2	-91.2	11.8
2025-01-06 11:26:23.069887	317.6	48.2	-90.7	11.6
2025-01-06 11:26:24.223453	316.9	48.2	-91.1	11.3
2025-01-06 11:26:25.384720	316.2	48.2	-91.2	13.4
2025-01-06 11:26:26.545027	315.5	48.2	-91.5	7.1
2025-01-06 11:26:27.693086	314.9	48.2	-91.4	10.2
2025-01-06 11:26:28.839373	314.2	48.2	-91.4	15.7
2025-01-06 11:26:29.999147	313.5	48.2	-91.4	7.5
2025-01-06 11:26:31.155329	312.8	48.2	-90.7	10.6
2025-01-06 11:26:32.311436	312.2	48.2	-91.1	14.1
2025-01-06 11:26:33.479225	311.5	48.2	-91.1	6.9
2025-01-06 11:26:34.634334	310.8	48.1	-91.3	6.2
2025-01-06 11:26:35.787464	310.1	48.1	-91.1	8.9
2025-01-06 11:26:36.934495	309.5	48.1	-91.0	8.9
2025-01-06 11:26:38.094236	308.8	48.0	-90.9	8.4
2025-01-06 11:26:39.250086	308.1	48.0	-91.2	13.0
2025-01-06 11:26:40.410660	307.5	47.9	-91.4	9.7
2025-01-06 11:26:41.559925	306.8	47.9	-90.9	9.3
2025-01-06 11:26:42.710903	306.2	47.8	-91.1	15.1
2025-01-06 11:26:43.852647	305.5	47.8	-91.3	15.2
2025-01-06 11:26:45.006335	304.9	47.7	-90.7	11.7
2025-01-06 11:26:46.158543	304.2	47.7	-90.9	13.4
2025-01-06 11:26:47.313907	303.6	47.6	-90.9	16.9
2025-01-06 11:26:48.467152	302.9	47.5	-91.1	11.8
2025-01-06 11:26:49.617490	302.3	47.4	-91.0	11.7
2025-01-06 11:26:50.775071	301.6	47.4	-91.3	16.6
2025-01-06 11:26:51.921426	301.0	47.3	-90.9	13.0
2025-01-06 11:26:53.080095	300.4	47.2	-90.7	12.8
2025-01-06 11:26:54.230748	299.7	47.1	-90.8	16.3
2025-01-06 11:26:55.393555	299.1	47.0	-90.9	15.8
2025-01-06 11:26:56.548123	298.5	46.9	-91.1	13.0
2025-01-06 11:26:57.696891	297.9	46.8	-91.2	14.8
2025-01-06 11:26:58.851817	297.2	46.7	-91.3	17.5
2025-01-06 11:27:00.006239	296.6	46.6	-91.1	14.8
2025-01-06 11:27:01.153490	296.0	46.5	-90.6	12.6
2025-01-06 11:27:02.309723	295.4	46.3	-90.9	14.9
2025-01-06 11:27:03.456429	294.8	46.2	-91.5	13.7
2025-01-06 11:27:04.607651	294.2	46.1	-91.6	14.3
2025-01-06 11:27:05.755750	293.7	46.0	-91.5	16.2
2025-01-06 11:27:06.910740	293.1	45.8	-91.2	16.6
2025-01-06 11:27:08.063720	292.5	45.7	-91.2	16.4
2025-01-06 11:27:09.213406	291.9	45.6	-91.2	18.1
2025-01-06 11:27:10.377361	291.4	45.4	-90.9	16.7
2025-01-06 11:27:11.532605	290.8	45.3	-91.7	16.4
2025-01-06 11:27:12.687345	290.2	45.2	-91.6	19.4
2025-01-06 11:27:13.843379	289.7	45.0	-91.7	18.8
2025-01-06 11:27:14.992655	289.1	44.9	-91.3	16.7
2025-01-06 11:27:16.149383	288.6	44.7	-91.1	16.0
2025-01-06 11:27:17.303548	288.1	44.6	-90.8	19.1
2025-01-06 11:27:18.455988	287.5	44.4	-91.4	13.9
2025-01-06 11:27:19.613882	287.0	44.3	-91.4	12.3
2025-01-06 11:27:20.764596	286.5	44.1	-91.6	17.6
2025-01-06 11:27:21.924406	285.9	43.9	-91.8	16.3
2025-01-06 11:27:23.077652	285.4	43.8	-91.3	13.9
2025-01-06 11:27:24.232658	284.9	43.6	-91.2	18.0
2025-01-06 11:27:25.381996	284.4	43.5	-91.3	19.3
2025-01-06 11:27:26.541951	283.9	43.3	-91.4	14.2
2025-01-06 11:27:27.695538	283.4	43.1	-91.2	18.4
2025-01-06 11:27:28.850510	283.0	42.9	-91.2	18.4
2025-01-06 11:27:30.010550	282.5	42.8	-91.5	14.1
2025-01-06 11:27:31.157624	282.0	42.6	-90.5	13.9
2025-01-06 11:27:32.315003	281.5	42.4	-90.5	19.0
2025-01-06 11:27:33.472764	281.1	42.2	-90.5	12.0
2025-01-06 11:27:34.627112	280.6	42.1	-90.9	11.0
2025-01-06 11:27:35.777170	280.1	41.9	-90.7	17.4
2025-01-06 11:27:36.934615	279.7	41.7	-91.0	10.0
2025-01-06 11:27:38.081211	279.2	41.5	-90.6	10.5
2025-01-06 11:27:39.234603	278.8	41.3	-90.8	16.8
2025-01-06 11:27:40.386430	278.4	41.2	-91.3	19.2
2025-01-06 11:27:41.543770	277.9	41.0	-91.4	12.8
2025-01-06 11:27:42.698169	277.5	40.8	-91.0	16.9
2025-01-06 11:27:43.863471	277.1	40.6	-91.0	18.7
2025-01-06 11:27:45.014723	276.7	40.4	-89.8	13.5
2025-01-06 11:27:46.172588	276.3	40.2	-89.5	16.3
2025-01-06 11:27:47.320888	275.9	40.0	-89.8	17.9
2025-01-06 11:27:48.476214	275.5	39.9	-89.8	13.9
2025-01-06 11:27:49.629845	275.1	39.7	-89.9	15.8
2025-01-06 11:27:50.788766	274.7	39.5	-90.2	17.4
2025-01-06 11:27:51.951247	274.3	39.3	-90.0	18.1
2025-01-06 11:27:53.109218	273.9	39.1	-89.5	15.6
2025-01-06 11:27:54.252339	273.5	38.9	-89.5	17.0
2025-01-06 11:27:55.411683	273.1	38.7	-91.0	20.0
2025-01-06 11:27:56.557803	272.8	38.5	-91.1	20.4
2025-01-06 11:27:57.711933	272.4	38.3	-91.1	19.0
2025-01-06 11:27:58.868773	272.0	38.1	-91.4	17.5
2025-01-06 11:28:00.016562	271.7	37.9	-91.1	17.5
2025-01-06 11:28:01.161648	271.3	37.8	-90.9	15.5
2025-01-06 11:28:02.312970	271.0	37.6	-90.8	15.7
2025-01-06 11:28:03.472142	270.6	37.4	-91.0	13.3
2025-01-06 11:28:04.627893	270.3	37.2	-91.0	11.3
2025-01-06 11:28:05.781689	270.0	37.0	-91.0	16.6
2025-01-06 11:28:06.929952	269.6	36.8	-90.9	10.5
2025-01-06 11:28:08.082728	269.3	36.6	-90.9	8.9
2025-01-06 11:28:09.240845	269.0	36.4	-90.6	12.6
2025-01-06 11:28:10.385099	268.7	36.2	-90.8	13.8
2025-01-06 11:28:11.539871	268.3	36.0	-91.0	8.4
2025-01-06 11:28:12.690911	268.0	35.8	-91.4	13.3
2025-01-06 11:28:13.855477	267.7	35.6	-91.3	13.1
2025-01-06 11:28:15.006875	267.4	35.4	-91.4	9.1
2025-01-06 11:28:16.171043	267.1	35.2	-91.0	12.0
2025-01-06 11:28:17.323275	266.8	35.0	-91.1	14.0
2025-01-06 11:28:18.487676	266.5	34.9	-91.3	10.3
2025-01-06 11:28:19.643130	266.2	34.7	-90.9	13.9
2025-01-06 11:28:20.803854	265.9	34.5	-91.0	15.5
2025-01-06 11:28:21.959098	265.6	34.3	-91.0	13.1
2025-01-06 11:28:23.111302	265.4	34.1	-90.7	15.5
2025-01-06 11:28:24.261929	265.1	33.9	-90.9	15.7
2025-01-06 11:28:25.412086	264.8	33.7	-91.3	16.5
2025-01-06 11:28:26.565218	264.5	33.5	-91.4	16.3
2025-01-06 11:28:27.715184	264.3	33.3	-91.1	17.6
2025-01-06 11:28:28.868979	264.0	33.1	-91.3	14.9
2025-01-06 11:28:30.017267	263.7	33.0	-91.5	14.3
2025-01-06 11:28:31.173620	263.5	32.8	-90.8	14.2
2025-01-06 11:28:32.326428	263.2	32.6	-91.1	18.0
2025-01-06 11:28:33.481766	263.0	32.4	-91.7	11.0
2025-01-06 11:28:34.643197	262.7	32.2	-91.4	13.4
2025-01-06 11:28:35.804514	262.5	32.0	-91.6	17.6
2025-01-06 11:28:36.964198	262.2	31.8	-91.7	11.0
2025-01-06 11:28:38.116100	262.0	31.6	-91.3	10.0
2025-01-06 11:28:39.271026	261.7	31.5	-90.8	16.4
2025-01-06 11:28:40.426026	261.5	31.3	-91.2	12.2
2025-01-06 11:28:41.577025	261.3	31.1	-91.5	11.9
2025-01-06 11:28:42.737648	261.0	30.9	-91.4	15.6
2025-01-06 11:28:43.895224	260.8	30.7	-91.2	13.5
2025-01-06 11:28:45.063357	260.6	30.5	-91.2	15.5
2025-01-06 11:28:46.221003	260.3	30.4	-91.0	15.6
2025-01-06 11:28:47.368669	260.1	30.2	-91.4	15.9
2025-01-06 11:28:48.527120	259.9	30.0	-91.6	14.2
2025-01-06 11:28:49.681117	259.7	29.8	-91.3	16.0
2025-01-06 11:28:50.834149	259.5	29.7	-91.3	17.1
2025-01-06 11:28:51.983399	259.3	29.5	-90.8	9.3
2025-01-06 11:28:53.139956	259.1	29.3	-90.9	11.8
2025-01-06 11:28:54.287762	258.9	29.1	-90.6	16.2
2025-01-06 11:28:55.439451	258.6	28.9	-91.0	8.1
2025-01-06 11:28:56.595461	258.4	28.8	-90.9	6.8
2025-01-06 11:28:57.746416	258.2	28.6	-91.4	13.2
2025-01-06 11:28:58.898985	258.0	28.4	-90.9	13.0
2025-01-06 11:29:00.056053	257.9	28.3	-90.5	9.0
2025-01-06 11:29:01.199919	257.7	28.1	-90.8	11.9
2025-01-06 11:29:02.361270	257.5	27.9	-91.0	11.9
2025-01-06 11:29:03.508058	257.3	27.7	-91.1	9.4
2025-01-06 11:29:04.657842	257.1	27.6	-91.3	10.5
2025-01-06 11:29:05.807099	256.9	27.4	-91.0	11.7
2025-01-06 11:29:06.954515	256.7	27.2	-91.1	7.9
2025-01-06 11:29:08.102295	256.5	27.1	-91.1	12.8
2025-01-06 11:29:09.251714	256.4	26.9	-90.6	11.0
2025-01-06 11:29:10.408804	256.2	26.7	-90.8	8.0
2025-01-06 11:29:11.553924	256.0	26.6	-90.3	6.5
2025-01-06 11:29:12.709557	255.8	26.4	-90.6	10.4
2025-01-06 11:29:13.862173	255.7	26.2	-90.4	12.1
2025-01-06 11:29:15.015180	255.5	26.1	-91.0	6.8
2025-01-06 11:29:16.179772	255.3	25.9	-90.9	9.1
2025-01-06 11:29:17.334778	255.2	25.7	-90.4	13.0
2025-01-06 11:29:18.494572	255.0	25.6	-90.5	7.2
2025-01-06 11:29:19.647650	254.8	25.4	-90.8	11.7
2025-01-06 11:29:20.793632	254.7	25.3	-90.3	12.5
2025-01-06 11:29:21.946046	254.5	25.1	-90.8	14.3
2025-01-06 11:29:23.100329	254.3	24.9	-90.8	11.1
2025-01-06 11:29:24.251635	254.2	24.8	-90.3	9.4
2025-01-06 11:29:25.403989	254.0	24.6	-90.4	5.6
2025-01-06 11:29:26.546811	253.9	24.5	-90.5	8.7
2025-01-06 11:29:27.699119	253.7	24.3	-90.2	9.5
2025-01-06 11:29:28.862080	253.6	24.2	-90.9	8.5
2025-01-06 11:29:30.008604	253.4	24.0	-90.9	6.2
2025-01-06 11:29:31.161406	253.3	23.9	-90.2	5.7
2025-01-06 11:29:32.314460	253.1	23.7	-90.3	5.8
2025-01-06 11:29:33.467977	253.0	23.6	-90.9	4.9
2025-01-06 11:29:34.620910	252.8	23.4	-90.9	4.8
2025-01-06 11:29:35.778447	252.7	23.2	-90.5	4.6
2025-01-06 11:29:36.932324	252.6	23.1	-90.5	6.2
2025-01-06 11:29:38.088760	252.4	22.9	-90.7	4.9
2025-01-06 11:29:39.234266	252.3	22.8	-90.4	6.9
2025-01-06 11:29:40.389371	252.1	22.6	-90.9	5.8
2025-01-06 11:29:41.554858	252.0	22.5	-90.6	4.5
2025-01-06 11:29:42.711913	251.9	22.4	-90.9	5.0
2025-01-06 11:29:43.867141	251.7	22.2	-90.7	3.3
2025-01-06 11:29:45.024274	251.6	22.1	-90.9	4.6
2025-01-06 11:29:46.179922	251.5	21.9	-90.6	3.2
2025-01-06 11:29:47.337470	251.3	21.8	-91.0	4.6
2025-01-06 11:29:48.490056	251.2	21.6	-91.3	4.7
2025-01-06 11:29:49.643770	251.1	21.5	-91.0	5.1
2025-01-06 11:29:50.800718	251.0	21.3	-91.4	5.9
2025-01-06 11:29:51.952785	250.8	21.2	-91.3	2.8
2025-01-06 11:29:53.102177	250.7	21.1	-90.1	4.9
2025-01-06 11:29:54.254582	250.6	20.9	-90.8	3.7
2025-01-06 11:29:55.397277	250.5	20.8	-90.6	5.9
2025-01-06 11:29:56.545707	250.4	20.6	-90.8	3.3
2025-01-06 11:29:57.692278	250.2	20.5	-91.3	3.9
2025-01-06 11:29:58.851089	250.1	20.4	-91.5	5.1
2025-01-06 11:30:00.009058	250.0	20.2	-91.2	3.7
2025-01-06 11:30:01.154101	249.9	20.1	-90.9	2.6
2025-01-06 11:30:02.309513	249.8	19.9	-90.9	3.9
2025-01-06 11:30:03.461515	249.7	19.8	-91.3	3.7
2025-01-06 11:30:04.613527	249.5	19.7	-91.6	2.1
2025-01-06 11:30:05.768266	249.4	19.5	-91.7	6.6
2025-01-06 11:30:06.930191	249.3	19.4	-91.6	3.2
2025-01-06 11:30:08.076969	249.2	19.3	-90.9	4.5
2025-01-06 11:30:09.229725	249.1	19.1	-91.2	5.0
2025-01-06 11:30:10.389331	249.0	19.0	-91.2	4.8
2025-01-06 11:30:11.529854	248.9	18.9	-91.6	7.9
2025-01-06 11:30:12.678586	248.8	18.7	-91.7	5.6
2025-01-06 11:30:13.836911	248.7	18.6	-91.7	9.0
2025-01-06 11:30:14.988819	248.6	18.5	-91.3	10.4
2025-01-06 11:30:16.144811	248.5	18.4	-91.1	7.1
2025-01-06 11:30:17.297862	248.4	18.2	-91.0	10.8
2025-01-06 11:30:18.445911	248.3	18.1	-91.2	8.3
2025-01-06 11:30:19.602074	248.2	18.0	-91.5	6.0
2025-01-06 11:30:20.752053	248.1	17.8	-91.2	9.2
2025-01-06 11:30:21.899508	248.0	17.7	-90.7	9.9
2025-01-06 11:30:23.055642	247.9	17.6	-90.8	9.4
2025-01-06 11:30:24.200405	247.8	17.5	-91.3	11.6
2025-01-06 11:30:25.354256	247.7	17.3	-91.3	9.8
2025-01-06 11:30:26.515690	247.6	17.2	-91.2	9.0
2025-01-06 11:30:27.670572	247.5	17.1	-91.4	8.7
2025-01-06 11:30:28.818656	247.4	17.0	-91.3	11.2
2025-01-06 11:30:29.966434	247.3	16.8	-91.5	7.4
2025-01-06 11:30:31.118308	247.2	16.7	-91.1	5.6
2025-01-06 11:30:32.267918	247.1	16.6	-91.4	9.3
2025-01-06 11:30:33.420282	247.0	16.5	-91.1	7.1
2025-01-06 11:30:34.573901	246.9	16.4	-91.4	4.0
2025-01-06 11:30:35.726255	246.9	16.2	-91.1	7.4
2025-01-06 11:30:36.882200	246.8	16.1	-91.4	9.5
2025-01-06 11:30:38.023833	246.7	16.0	-91.7	9.5
2025-01-06 11:30:39.185058	246.6	15.9	-91.0	11.6
2025-01-06 11:30:40.344454	246.5	15.8	-91.4	13.4
2025-01-06 11:30:41.499824	246.4	15.6	-91.2	11.6
2025-01-06 11:30:42.655739	246.3	15.5	-91.4	12.9
2025-01-06 11:30:43.810456	246.3	15.4	-89.6	9.5
2025-01-06 11:30:44.962841	246.2	15.3	-90.3	7.9
2025-01-06 11:30:46.117194	246.1	15.2	-89.6	6.7
2025-01-06 11:30:47.266731	246.0	15.1	-89.9	9.6
2025-01-06 11:30:48.413477	245.9	15.0	-89.5	7.7
2025-01-06 11:30:49.559150	245.8	14.8	-90.1	7.2
2025-01-06 11:30:50.709923	245.8	14.7	-90.2	9.5
2025-01-06 11:30:51.872723	245.7	14.6	-90.0	9.1
#Closed at: 2025-01-06 11:22:09.945494