passes_logs/2025/01/06/LEX_Murmansk/LEX_Murmansk__20250106_141448_NOAA_19_rec.log

#Pass ID: 20250106_141448_NOAA 19
#Satellite: NOAA 19
#Configuration: NOAA 19
#Start time: 2025-01-06 14:14:42.998373

#LorettStation: 1.0.0 05.05.2024
#Station: LEX_Murmansk
#Location: 33.156738 lon 68.926811 lat
#TLE: 1 33591U 09005A   25005.80039681  .00000456  00000+0  26725-3 0  9991
#TLE: 2 33591  99.0212  69.4911 0014675  82.0274 278.2563 14.13252095819982

#Time	Az	El	Level	SNR
2025-01-06 14:14:55.247170	57.5	15.9	-90.5	2.6
2025-01-06 14:14:56.403504	57.3	16.0	-91.1	3.4
2025-01-06 14:14:57.560125	57.2	16.1	-91.0	4.5
2025-01-06 14:14:58.713854	57.0	16.2	-91.2	2.7
2025-01-06 14:14:59.871130	56.8	16.3	-91.1	4.2
2025-01-06 14:15:01.017552	56.6	16.4	-91.6	5.2
2025-01-06 14:15:02.169408	56.4	16.5	-91.1	5.0
2025-01-06 14:15:03.325831	56.2	16.6	-90.8	2.5
2025-01-06 14:15:04.485433	56.1	16.7	-91.2	3.5
2025-01-06 14:15:05.644076	55.9	16.7	-91.4	3.3
2025-01-06 14:15:06.801339	55.7	16.8	-91.1	2.1
2025-01-06 14:15:07.948677	55.5	16.9	-91.3	4.7
2025-01-06 14:15:09.101565	55.3	17.0	-91.1	7.3
2025-01-06 14:15:10.250734	55.1	17.1	-91.0	7.3
2025-01-06 14:15:11.408694	54.9	17.2	-90.9	6.0
2025-01-06 14:15:12.557952	54.7	17.3	-91.1	4.8
2025-01-06 14:15:13.711162	54.5	17.4	-91.1	2.4
2025-01-06 14:15:14.863450	54.3	17.5	-91.4	2.5
2025-01-06 14:15:16.020785	54.1	17.5	-91.2	2.1
2025-01-06 14:15:17.167321	53.9	17.6	-91.3	4.0
2025-01-06 14:15:18.320409	53.7	17.7	-91.2	4.4
2025-01-06 14:15:19.479934	53.5	17.8	-91.1	5.9
2025-01-06 14:15:20.632548	53.3	17.9	-91.3	10.5
2025-01-06 14:15:21.785927	53.1	18.0	-91.2	12.9
2025-01-06 14:15:22.942509	52.9	18.1	-91.2	10.5
2025-01-06 14:15:24.101100	52.7	18.2	-91.0	7.7
2025-01-06 14:15:25.252131	52.5	18.2	-91.6	5.8
2025-01-06 14:15:26.404370	52.3	18.3	-91.3	6.1
2025-01-06 14:15:27.553966	52.1	18.4	-91.2	5.6
2025-01-06 14:15:28.699259	51.9	18.5	-91.4	7.6
2025-01-06 14:15:29.851742	51.7	18.6	-91.6	8.2
2025-01-06 14:15:31.012398	51.4	18.7	-91.5	10.8
2025-01-06 14:15:32.167849	51.2	18.8	-91.0	9.9
2025-01-06 14:15:33.319119	51.0	18.9	-91.1	5.4
2025-01-06 14:15:34.475773	50.8	19.0	-91.3	3.9
2025-01-06 14:15:35.630528	50.6	19.0	-91.3	5.0
2025-01-06 14:15:36.780643	50.4	19.1	-91.2	2.5
2025-01-06 14:15:37.938326	50.1	19.2	-91.1	3.6
2025-01-06 14:15:39.090050	49.9	19.3	-91.3	3.8
2025-01-06 14:15:40.244731	49.7	19.4	-91.1	4.6
2025-01-06 14:15:41.402922	49.5	19.5	-91.5	6.2
2025-01-06 14:15:42.548635	49.2	19.6	-91.0	9.3
2025-01-06 14:15:43.698514	49.0	19.6	-91.2	11.5
2025-01-06 14:15:44.850782	48.8	19.7	-91.3	7.7
2025-01-06 14:15:45.997166	48.6	19.8	-90.9	7.3
2025-01-06 14:15:47.147699	48.3	19.9	-90.8	6.3
2025-01-06 14:15:48.296468	48.1	20.0	-90.5	3.9
2025-01-06 14:15:49.450664	47.9	20.1	-91.0	6.5
2025-01-06 14:15:50.597463	47.6	20.2	-91.0	4.6
2025-01-06 14:15:51.750662	47.4	20.2	-90.8	6.6
2025-01-06 14:15:52.903624	47.2	20.3	-90.9	8.4
2025-01-06 14:15:54.058063	46.9	20.4	-90.6	7.2
2025-01-06 14:15:55.212388	46.7	20.5	-90.8	7.6
2025-01-06 14:15:56.375325	46.4	20.6	-90.9	5.7
2025-01-06 14:15:57.532602	46.2	20.7	-90.9	2.3
2025-01-06 14:15:58.685939	45.9	20.7	-91.3	2.3
2025-01-06 14:15:59.838169	45.7	20.8	-91.5	2.8
2025-01-06 14:16:00.981243	45.5	20.9	-90.8	2.1
2025-01-06 14:16:02.135250	45.2	21.0	-90.9	3.9
2025-01-06 14:16:03.288734	45.0	21.1	-91.0	3.3
2025-01-06 14:16:04.452089	44.7	21.2	-91.0	4.7
2025-01-06 14:16:05.613040	44.4	21.2	-91.0	7.5
2025-01-06 14:16:06.766167	44.2	21.3	-90.9	9.4
2025-01-06 14:16:07.921500	43.9	21.4	-90.8	10.5
2025-01-06 14:16:09.067117	43.7	21.5	-91.1	11.5
2025-01-06 14:16:10.222233	43.4	21.6	-91.1	10.4
2025-01-06 14:16:11.365892	43.2	21.6	-91.1	9.9
2025-01-06 14:16:12.520763	42.9	21.7	-91.2	5.9
2025-01-06 14:16:13.675815	42.6	21.8	-90.9	4.7
2025-01-06 14:16:14.829168	42.4	21.9	-91.2	5.6
2025-01-06 14:16:15.984146	42.1	22.0	-91.4	6.1
2025-01-06 14:16:17.136140	41.8	22.0	-91.0	8.2
2025-01-06 14:16:18.296946	41.6	22.1	-90.9	6.4
2025-01-06 14:16:19.454124	41.3	22.2	-91.2	9.1
2025-01-06 14:16:20.618508	41.0	22.3	-91.2	9.2
2025-01-06 14:16:21.777111	40.8	22.3	-91.0	8.7
2025-01-06 14:16:22.927861	40.5	22.4	-90.6	8.5
2025-01-06 14:16:24.075454	40.2	22.5	-90.8	6.3
2025-01-06 14:16:25.234809	39.9	22.6	-91.0	4.7
2025-01-06 14:16:26.389358	39.7	22.6	-91.0	2.6
2025-01-06 14:16:27.540567	39.4	22.7	-91.3	2.2
2025-01-06 14:16:28.694939	39.1	22.8	-91.3	3.1
2025-01-06 14:16:29.851490	38.8	22.9	-91.2	2.5
2025-01-06 14:16:30.999446	38.5	22.9	-91.0	5.2
2025-01-06 14:16:32.148667	38.3	23.0	-90.9	5.8
2025-01-06 14:16:33.298465	38.0	23.1	-91.0	6.6
2025-01-06 14:16:34.453397	37.7	23.1	-91.2	8.3
2025-01-06 14:16:35.589260	37.4	23.2	-91.1	11.1
2025-01-06 14:16:36.710900	37.1	23.3	-91.3	10.1
2025-01-06 14:16:37.831575	36.8	23.3	-91.1	9.5
2025-01-06 14:16:38.951955	36.6	23.4	-91.0	9.1
2025-01-06 14:16:40.072943	36.3	23.5	-91.0	7.4
2025-01-06 14:16:41.194111	36.0	23.5	-91.0	2.7
2025-01-06 14:16:42.314241	35.7	23.6	-90.9	4.2
2025-01-06 14:16:43.438935	35.4	23.7	-90.9	6.2
2025-01-06 14:16:44.581368	35.1	23.7	-91.4	5.1
2025-01-06 14:16:45.734597	34.8	23.8	-91.4	6.6
2025-01-06 14:16:46.882420	34.5	23.9	-91.1	8.5
2025-01-06 14:16:48.035188	34.2	23.9	-91.1	9.2
2025-01-06 14:16:49.186699	33.9	24.0	-90.9	9.0
2025-01-06 14:16:50.347459	33.6	24.0	-91.0	12.3
2025-01-06 14:16:51.496159	33.3	24.1	-91.2	11.3
2025-01-06 14:16:52.653741	33.0	24.2	-91.2	10.2
2025-01-06 14:16:53.808204	32.7	24.2	-91.0	8.1
2025-01-06 14:16:54.961936	32.4	24.3	-91.3	6.0
2025-01-06 14:16:56.109854	32.1	24.3	-91.0	7.0
2025-01-06 14:16:57.266480	31.8	24.4	-91.2	3.0
2025-01-06 14:16:58.412623	31.5	24.4	-91.4	6.5
2025-01-06 14:16:59.560672	31.2	24.5	-91.0	4.4
2025-01-06 14:17:00.705482	30.9	24.6	-91.1	1.8
2025-01-06 14:17:01.857543	30.5	24.6	-91.2	5.1
2025-01-06 14:17:03.012314	30.2	24.7	-91.3	4.6
2025-01-06 14:17:04.165094	29.9	24.7	-90.7	3.2
2025-01-06 14:17:05.322103	29.6	24.8	-90.9	3.6
2025-01-06 14:17:06.472919	29.3	24.8	-91.1	6.9
2025-01-06 14:17:07.625944	29.0	24.9	-91.2	7.6
2025-01-06 14:17:08.776629	28.6	24.9	-91.2	9.0
2025-01-06 14:17:09.922314	28.3	25.0	-91.5	11.8
2025-01-06 14:17:11.072569	28.0	25.0	-90.8	13.2
2025-01-06 14:17:12.221724	27.7	25.1	-91.1	13.0
2025-01-06 14:17:13.370358	27.4	25.1	-91.2	11.7
2025-01-06 14:17:14.523455	27.0	25.1	-91.4	10.4
2025-01-06 14:17:15.678060	26.7	25.2	-91.1	8.1
2025-01-06 14:17:16.828101	26.4	25.2	-91.2	5.7
2025-01-06 14:17:17.978867	26.0	25.3	-91.2	4.7
2025-01-06 14:17:19.130140	25.7	25.3	-91.0	6.5
2025-01-06 14:17:20.274476	25.4	25.3	-91.4	2.6
2025-01-06 14:17:21.425060	25.1	25.4	-91.2	6.5
2025-01-06 14:17:22.571758	24.7	25.4	-91.1	8.5
2025-01-06 14:17:23.724975	24.4	25.4	-91.3	6.3
2025-01-06 14:17:24.875077	24.1	25.5	-91.4	8.1
2025-01-06 14:17:26.030906	23.7	25.5	-90.9	8.9
2025-01-06 14:17:27.188564	23.4	25.6	-90.9	8.5
2025-01-06 14:17:28.354057	23.1	25.6	-90.9	7.5
2025-01-06 14:17:29.493513	22.7	25.6	-91.3	9.1
2025-01-06 14:17:30.640416	22.4	25.6	-90.8	7.2
2025-01-06 14:17:31.787890	22.1	25.7	-90.8	10.1
2025-01-06 14:17:32.947304	21.7	25.7	-90.9	10.6
2025-01-06 14:17:34.111018	21.4	25.7	-90.5	12.3
2025-01-06 14:17:35.270209	21.0	25.7	-90.7	7.5
2025-01-06 14:17:36.425061	20.7	25.8	-90.9	7.8
2025-01-06 14:17:37.577934	20.4	25.8	-90.9	5.6
2025-01-06 14:17:38.737314	20.0	25.8	-90.9	3.9
2025-01-06 14:17:39.883931	19.7	25.8	-90.7	4.2
2025-01-06 14:17:41.043193	19.3	25.9	-90.9	4.2
2025-01-06 14:17:42.189551	19.0	25.9	-90.9	3.4
2025-01-06 14:17:43.344246	18.7	25.9	-90.3	2.5
2025-01-06 14:17:44.499606	18.3	25.9	-90.3	4.2
2025-01-06 14:17:45.649826	18.0	25.9	-90.6	3.5
2025-01-06 14:17:46.805661	17.6	25.9	-90.6	2.7
2025-01-06 14:17:47.949490	17.3	26.0	-91.0	5.0
2025-01-06 14:17:49.100646	17.0	26.0	-90.4	5.1
2025-01-06 14:17:50.252095	16.6	26.0	-90.6	4.6
2025-01-06 14:17:51.415008	16.3	26.0	-90.5	4.3
2025-01-06 14:17:52.568737	15.9	26.0	-90.7	6.7
2025-01-06 14:17:53.718422	15.6	26.0	-91.0	5.3
2025-01-06 14:17:54.873618	15.2	26.0	-91.0	6.8
2025-01-06 14:17:56.020359	14.9	26.0	-90.7	5.9
2025-01-06 14:17:57.174280	14.6	26.0	-90.4	8.4
2025-01-06 14:17:58.327468	14.2	26.0	-90.5	7.2
2025-01-06 14:17:59.480223	13.9	26.0	-90.5	8.1
2025-01-06 14:18:00.624295	13.5	26.0	-91.0	7.7
2025-01-06 14:18:01.781237	13.2	26.0	-91.2	8.8
2025-01-06 14:18:02.939684	12.8	26.0	-91.4	8.2
2025-01-06 14:18:04.092374	12.5	26.0	-90.8	6.7
2025-01-06 14:18:05.242093	12.1	26.0	-91.1	8.4
2025-01-06 14:18:06.399842	11.8	26.0	-90.9	6.8
2025-01-06 14:18:07.550682	11.5	26.0	-91.3	6.7
2025-01-06 14:18:08.704987	11.1	26.0	-91.1	7.3
2025-01-06 14:18:09.854375	10.8	26.0	-90.9	8.7
2025-01-06 14:18:11.014538	10.4	26.0	-90.9	8.3
2025-01-06 14:18:12.177666	10.1	26.0	-91.0	6.2
2025-01-06 14:18:13.331694	9.7	26.0	-90.8	5.6
2025-01-06 14:18:14.484305	9.4	25.9	-90.4	5.9
2025-01-06 14:18:15.613821	9.1	25.9	-90.9	5.7
2025-01-06 14:18:16.765613	8.7	25.9	-91.0	3.8
2025-01-06 14:18:17.921109	8.4	25.9	-91.2	6.7
2025-01-06 14:18:19.076748	8.0	25.9	-91.0	5.3
2025-01-06 14:18:20.226822	7.7	25.9	-91.3	3.9
2025-01-06 14:18:21.380675	7.4	25.8	-91.1	4.0
2025-01-06 14:18:22.536305	7.0	25.8	-91.4	4.8
2025-01-06 14:18:23.688582	6.7	25.8	-90.9	2.9
2025-01-06 14:18:24.841686	6.3	25.8	-91.2	0.5
2025-01-06 14:18:25.992605	6.0	25.8	-91.1	4.8
2025-01-06 14:18:27.140376	5.7	25.7	-90.8	2.9
2025-01-06 14:18:28.279985	5.3	25.7	-90.7	1.7
2025-01-06 14:18:29.425124	5.0	25.7	-90.7	3.3
2025-01-06 14:18:30.578488	4.7	25.6	-90.8	5.2
2025-01-06 14:18:31.733225	4.3	25.6	-91.2	3.0
2025-01-06 14:18:32.884019	4.0	25.6	-90.9	3.8
2025-01-06 14:18:34.035873	3.7	25.6	-90.8	6.0
2025-01-06 14:18:35.186294	3.3	25.5	-90.8	4.6
2025-01-06 14:18:36.339800	3.0	25.5	-90.9	3.8
2025-01-06 14:18:37.500884	2.7	25.5	-91.1	5.5
2025-01-06 14:18:38.657594	2.3	25.4	-91.1	4.5
2025-01-06 14:18:39.804101	2.0	25.4	-91.3	4.5
2025-01-06 14:18:40.951446	1.7	25.3	-90.7	6.5
2025-01-06 14:18:42.096255	1.3	25.3	-90.8	8.5
2025-01-06 14:18:43.253361	1.0	25.3	-90.8	4.4
2025-01-06 14:18:44.413273	0.7	25.2	-90.6	5.3
2025-01-06 14:18:45.575569	0.4	25.2	-90.8	7.6
2025-01-06 14:18:46.737388	0.0	25.1	-90.6	4.2
2025-01-06 14:18:47.893471	359.7	25.1	-90.4	6.8
2025-01-06 14:18:49.040017	359.4	25.1	-90.7	6.2
2025-01-06 14:18:50.193360	359.1	25.0	-90.3	4.3
2025-01-06 14:18:51.346384	358.7	25.0	-90.1	4.4
2025-01-06 14:18:52.503802	358.4	24.9	-90.5	7.4
2025-01-06 14:18:53.655395	358.1	24.9	-90.9	5.3
2025-01-06 14:18:54.806937	357.8	24.8	-90.5	4.1
2025-01-06 14:18:55.960630	357.5	24.8	-90.9	7.4
2025-01-06 14:18:57.116608	357.1	24.7	-90.2	7.9
2025-01-06 14:18:58.272987	356.8	24.7	-90.6	5.6
2025-01-06 14:18:59.424479	356.5	24.6	-90.7	6.1
2025-01-06 14:19:00.570476	356.2	24.6	-90.9	7.2
2025-01-06 14:19:01.730272	355.9	24.5	-90.7	5.3
2025-01-06 14:19:02.886381	355.6	24.5	-90.6	3.3
2025-01-06 14:19:04.038630	355.3	24.4	-91.0	7.7
2025-01-06 14:19:05.187394	354.9	24.3	-90.7	3.6
2025-01-06 14:19:06.332231	354.6	24.3	-90.7	6.3
2025-01-06 14:19:07.489214	354.3	24.2	-90.8	7.1
2025-01-06 14:19:08.641839	354.0	24.2	-90.9	7.3
2025-01-06 14:19:09.791859	353.7	24.1	-91.1	4.1
2025-01-06 14:19:10.951079	353.4	24.1	-90.8	7.1
2025-01-06 14:19:12.098838	353.1	24.0	-90.5	6.7
2025-01-06 14:19:13.252424	352.8	23.9	-90.8	5.0
2025-01-06 14:19:14.407455	352.5	23.9	-91.0	8.2
2025-01-06 14:19:15.560677	352.2	23.8	-91.0	7.2
2025-01-06 14:19:16.718625	351.9	23.7	-91.2	3.3
2025-01-06 14:19:17.874288	351.6	23.7	-91.1	5.2
2025-01-06 14:19:19.024976	351.3	23.6	-91.0	4.2
2025-01-06 14:19:20.179790	351.0	23.5	-90.5	2.6
2025-01-06 14:19:21.330764	350.7	23.5	-90.9	3.0
2025-01-06 14:19:22.485631	350.4	23.4	-91.0	5.9
2025-01-06 14:19:23.641002	350.2	23.3	-90.9	6.7
2025-01-06 14:19:24.796330	349.9	23.3	-91.0	3.9
2025-01-06 14:19:25.950244	349.6	23.2	-91.2	4.4
2025-01-06 14:19:27.103309	349.3	23.1	-91.0	5.4
2025-01-06 14:19:28.255295	349.0	23.1	-90.6	1.8
2025-01-06 14:19:29.411240	348.7	23.0	-91.0	4.7
2025-01-06 14:19:30.562512	348.4	22.9	-91.2	3.9
2025-01-06 14:19:31.725056	348.2	22.9	-90.9	3.1
2025-01-06 14:19:32.873549	347.9	22.8	-91.3	3.5
2025-01-06 14:19:34.029858	347.6	22.7	-91.1	4.8
2025-01-06 14:19:35.186587	347.3	22.6	-91.0	3.2
2025-01-06 14:19:36.336910	347.0	22.6	-90.7	2.5
2025-01-06 14:19:37.493237	346.8	22.5	-91.3	6.1
2025-01-06 14:19:38.645036	346.5	22.4	-90.9	5.7
2025-01-06 14:19:39.795705	346.2	22.3	-91.1	3.1
2025-01-06 14:19:40.955757	346.0	22.3	-91.2	6.4
2025-01-06 14:19:42.114292	345.7	22.2	-90.9	6.4
2025-01-06 14:19:43.270533	345.4	22.1	-91.0	4.9
2025-01-06 14:19:44.429544	345.1	22.0	-91.1	7.6
2025-01-06 14:19:45.585708	344.9	21.9	-91.0	6.9
2025-01-06 14:19:46.742435	344.6	21.9	-91.0	9.9
2025-01-06 14:19:47.897547	344.3	21.8	-91.3	10.1
2025-01-06 14:19:49.058356	344.1	21.7	-91.3	9.3
2025-01-06 14:19:50.211437	343.8	21.6	-89.8	7.1
2025-01-06 14:19:51.368387	343.6	21.6	-91.2	7.0
2025-01-06 14:19:52.522031	343.3	21.5	-90.8	8.0
2025-01-06 14:19:53.672214	343.1	21.4	-90.8	9.9
2025-01-06 14:19:54.819265	342.8	21.3	-91.2	8.9
2025-01-06 14:19:55.976917	342.5	21.2	-91.4	7.4
2025-01-06 14:19:57.127196	342.3	21.2	-91.1	7.6
2025-01-06 14:19:58.282297	342.0	21.1	-91.0	7.2
2025-01-06 14:19:59.435703	341.8	21.0	-91.0	5.2
2025-01-06 14:20:00.575926	341.5	20.9	-90.7	5.0
2025-01-06 14:20:01.716344	341.3	20.8	-90.7	2.7
2025-01-06 14:20:02.860740	341.1	20.7	-91.2	1.5
2025-01-06 14:20:04.012797	340.8	20.7	-91.1	2.7
2025-01-06 14:20:05.163966	340.6	20.6	-91.2	3.5
2025-01-06 14:20:06.308764	340.3	20.5	-90.8	1.3
2025-01-06 14:20:07.473059	340.1	20.4	-90.8	3.7
2025-01-06 14:20:08.629468	339.9	20.3	-91.0	3.1
2025-01-06 14:20:09.782995	339.6	20.2	-91.1	1.9
2025-01-06 14:20:10.933238	339.4	20.2	-91.5	2.5
2025-01-06 14:20:12.082330	339.1	20.1	-91.4	2.4
2025-01-06 14:20:13.240772	338.9	20.0	-91.5	2.3
2025-01-06 14:20:14.392037	338.7	19.9	-91.0	2.2
2025-01-06 14:20:15.551519	338.4	19.8	-91.0	2.2
2025-01-06 14:20:16.698778	338.2	19.7	-91.1	2.4
2025-01-06 14:20:17.854018	338.0	19.6	-91.5	2.0
2025-01-06 14:20:19.009672	337.8	19.6	-91.2	2.9
2025-01-06 14:20:20.159448	337.5	19.5	-91.2	4.1
2025-01-06 14:20:21.306846	337.3	19.4	-90.8	3.0
2025-01-06 14:20:22.461618	337.1	19.3	-91.1	3.0
2025-01-06 14:20:23.616906	336.9	19.2	-90.7	4.9
2025-01-06 14:20:24.766550	336.7	19.1	-90.6	4.5
2025-01-06 14:20:25.925674	336.4	19.0	-91.2	3.1
2025-01-06 14:20:27.087949	336.2	18.9	-91.0	3.8
2025-01-06 14:20:28.241528	336.0	18.9	-91.3	3.4
2025-01-06 14:20:29.392147	335.8	18.8	-91.0	4.0
2025-01-06 14:20:30.542869	335.6	18.7	-91.4	3.6
2025-01-06 14:20:31.697074	335.4	18.6	-90.5	3.7
2025-01-06 14:20:32.852137	335.1	18.5	-91.0	2.8
2025-01-06 14:20:34.003556	334.9	18.4	-91.4	1.4
2025-01-06 14:20:35.162512	334.7	18.3	-91.0	3.3
2025-01-06 14:20:36.318547	334.5	18.2	-91.0	2.3
2025-01-06 14:20:37.473271	334.3	18.2	-91.1	2.3
2025-01-06 14:20:38.621940	334.1	18.1	-91.3	2.3
2025-01-06 14:20:39.784093	333.9	18.0	-91.5	2.7
2025-01-06 14:20:40.929820	333.7	17.9	-91.3	0.7
2025-01-06 14:20:42.088933	333.5	17.8	-91.2	2.5
2025-01-06 14:20:43.241707	333.3	17.7	-90.9	1.9
2025-01-06 14:20:44.396321	333.1	17.6	-91.2	0.9
2025-01-06 14:20:45.544499	332.9	17.5	-91.2	2.5
2025-01-06 14:20:46.697512	332.7	17.4	-91.4	4.1
2025-01-06 14:20:47.852900	332.5	17.4	-90.9	3.5
2025-01-06 14:20:49.008168	332.3	17.3	-90.8	4.1
2025-01-06 14:20:50.158165	332.1	17.2	-90.9	2.7
2025-01-06 14:20:51.313418	331.9	17.1	-91.0	4.5
2025-01-06 14:20:52.458346	331.7	17.0	-90.6	2.2
2025-01-06 14:20:53.609274	331.5	16.9	-90.9	1.9
2025-01-06 14:20:54.766227	331.3	16.8	-90.9	1.4
2025-01-06 14:20:55.926264	331.2	16.7	-90.9	0.5
2025-01-06 14:20:57.073876	331.0	16.6	-91.1	2.8
2025-01-06 14:20:58.228909	330.8	16.6	-90.7	0.5
2025-01-06 14:20:59.388058	330.6	16.5	-91.4	2.0
2025-01-06 14:21:00.528592	330.4	16.4	-90.8	2.4
2025-01-06 14:21:01.686162	330.2	16.3	-90.8	1.1
2025-01-06 14:21:02.844124	330.1	16.2	-91.0	3.9
2025-01-06 14:21:03.997752	329.9	16.1	-91.0	1.5
2025-01-06 14:21:05.149274	329.7	16.0	-90.7	1.4
2025-01-06 14:21:06.308972	329.5	15.9	-90.6	3.5
2025-01-06 14:21:07.435613	329.3	15.9	-91.2	3.4
2025-01-06 14:21:08.555998	329.2	15.8	-90.9	3.4
2025-01-06 14:21:09.676604	329.0	15.7	-91.1	1.6
2025-01-06 14:21:10.797835	328.8	15.6	-90.9	4.1
2025-01-06 14:21:11.918568	328.7	15.5	-91.0	3.6
2025-01-06 14:21:13.039514	328.5	15.4	-90.8	2.6
2025-01-06 14:21:14.160063	328.3	15.3	-90.6	4.9
2025-01-06 14:21:15.289033	328.2	15.3	-90.7	4.2
2025-01-06 14:21:16.430280	328.0	15.2	-91.2	2.7
2025-01-06 14:21:17.572809	327.8	15.1	-90.8	1.9
2025-01-06 14:21:18.717796	327.7	15.0	-91.2	1.8
2025-01-06 14:21:19.867747	327.5	14.9	-91.3	2.0
2025-01-06 14:21:21.019593	327.3	14.8	-91.3	2.7
2025-01-06 14:21:22.173093	327.2	14.7	-90.9	2.4
2025-01-06 14:21:23.321297	327.0	14.6	-90.8	2.3
#Closed at: 2025-01-06 14:14:48.048780