passes_logs/2025/01/06/LEX_Murmansk/LEX_Murmansk__20250106_191510_NOAA_19_rec.log

#Pass ID: 20250106_191510_NOAA 19
#Satellite: NOAA 19
#Configuration: NOAA 19
#Start time: 2025-01-06 19:15:05.672376

#LorettStation: 1.0.0 05.05.2024
#Station: LEX_Murmansk
#Location: 33.156738 lon 68.926811 lat
#TLE: 1 33591U 09005A   25005.80039681  .00000456  00000+0  26725-3 0  9991
#TLE: 2 33591  99.0212  69.4911 0014675  82.0274 278.2563 14.13252095819982

#Time	Az	El	Level	SNR
2025-01-06 19:15:17.862417	203.4	16.1	-91.9	1.5
2025-01-06 19:15:19.030790	203.5	16.2	-91.8	4.2
2025-01-06 19:15:20.192732	203.6	16.4	-92.0	2.1
2025-01-06 19:15:21.358305	203.8	16.5	-92.1	2.0
2025-01-06 19:15:22.519370	203.9	16.6	-92.5	2.5
2025-01-06 19:15:23.679611	204.0	16.7	-92.4	2.7
2025-01-06 19:15:24.848356	204.2	16.8	-92.5	4.4
2025-01-06 19:15:26.010026	204.3	16.9	-92.2	1.9
2025-01-06 19:15:27.176139	204.5	17.0	-91.7	2.2
2025-01-06 19:15:28.335719	204.6	17.1	-91.7	4.4
2025-01-06 19:15:29.495403	204.8	17.3	-92.0	2.7
2025-01-06 19:15:30.659209	204.9	17.4	-92.1	0.9
2025-01-06 19:15:31.815847	205.0	17.5	-92.1	3.0
2025-01-06 19:15:32.971474	205.2	17.6	-91.8	2.2
2025-01-06 19:15:34.100894	205.3	17.7	-91.7	2.6
2025-01-06 19:15:35.222877	205.5	17.8	-92.0	2.9
2025-01-06 19:15:36.343000	205.6	17.9	-91.7	1.9
2025-01-06 19:15:37.463310	205.8	18.0	-91.6	1.9
2025-01-06 19:15:38.583891	205.9	18.2	-92.3	2.4
2025-01-06 19:15:39.705639	206.0	18.3	-92.2	1.1
2025-01-06 19:15:40.826891	206.2	18.4	-92.3	0.4
2025-01-06 19:15:41.952085	206.3	18.5	-92.1	2.3
2025-01-06 19:15:43.090402	206.5	18.6	-91.7	2.1
2025-01-06 19:15:44.246529	206.6	18.7	-92.0	4.0
2025-01-06 19:15:45.401569	206.8	18.8	-91.9	1.5
2025-01-06 19:15:46.561812	207.0	19.0	-92.4	6.4
2025-01-06 19:15:47.725395	207.1	19.1	-92.0	4.8
2025-01-06 19:15:48.884007	207.3	19.2	-92.1	3.9
2025-01-06 19:15:50.045088	207.4	19.3	-91.9	4.3
2025-01-06 19:15:51.208942	207.6	19.4	-91.2	5.5
2025-01-06 19:15:52.368690	207.8	19.6	-91.9	3.3
2025-01-06 19:15:53.532556	207.9	19.7	-91.9	6.5
2025-01-06 19:15:54.690295	208.1	19.8	-91.8	2.5
2025-01-06 19:15:55.854206	208.3	19.9	-92.2	4.3
2025-01-06 19:15:57.017821	208.4	20.0	-92.6	3.5
2025-01-06 19:15:58.180340	208.6	20.2	-91.9	1.5
2025-01-06 19:15:59.341079	208.8	20.3	-91.5	1.4
2025-01-06 19:16:00.487983	209.0	20.4	-92.0	2.0
2025-01-06 19:16:01.655253	209.1	20.5	-92.5	2.2
2025-01-06 19:16:02.803824	209.3	20.7	-92.3	6.1
2025-01-06 19:16:03.958758	209.5	20.8	-92.2	5.6
2025-01-06 19:16:05.120448	209.7	20.9	-91.9	7.3
2025-01-06 19:16:06.287313	209.8	21.0	-91.0	5.6
2025-01-06 19:16:07.454656	210.0	21.2	-92.1	7.4
2025-01-06 19:16:08.618571	210.2	21.3	-92.4	7.3
2025-01-06 19:16:09.775973	210.4	21.4	-92.3	5.0
2025-01-06 19:16:10.936495	210.6	21.5	-92.6	10.7
2025-01-06 19:16:12.094164	210.8	21.7	-91.2	9.6
2025-01-06 19:16:13.260507	211.0	21.8	-91.0	6.1
2025-01-06 19:16:14.419301	211.2	21.9	-91.1	4.6
2025-01-06 19:16:15.579999	211.3	22.0	-91.0	4.7
2025-01-06 19:16:16.741016	211.5	22.2	-91.3	1.3
2025-01-06 19:16:17.905119	211.7	22.3	-91.0	3.5
2025-01-06 19:16:19.066032	211.9	22.4	-90.1	1.8
2025-01-06 19:16:20.224449	212.1	22.6	-91.1	4.7
2025-01-06 19:16:21.391418	212.3	22.7	-91.3	7.9
2025-01-06 19:16:22.554952	212.5	22.8	-91.2	11.6
2025-01-06 19:16:23.716635	212.7	22.9	-91.7	9.2
2025-01-06 19:16:24.878951	212.9	23.1	-92.0	9.7
2025-01-06 19:16:26.041372	213.1	23.2	-92.4	8.1
2025-01-06 19:16:27.201870	213.4	23.3	-92.3	4.4
2025-01-06 19:16:28.358706	213.6	23.5	-92.0	6.2
2025-01-06 19:16:29.516726	213.8	23.6	-92.0	7.9
2025-01-06 19:16:30.658111	214.0	23.7	-92.3	9.4
2025-01-06 19:16:31.780646	214.2	23.8	-92.1	12.7
2025-01-06 19:16:32.901644	214.4	24.0	-92.2	11.6
2025-01-06 19:16:34.023653	214.6	24.1	-92.3	7.3
2025-01-06 19:16:35.144030	214.8	24.2	-91.4	3.4
2025-01-06 19:16:36.264810	215.0	24.4	-91.7	3.2
2025-01-06 19:16:37.385321	215.3	24.5	-92.1	2.7
2025-01-06 19:16:38.505830	215.5	24.6	-91.9	3.9
2025-01-06 19:16:39.649719	215.7	24.7	-92.4	6.1
2025-01-06 19:16:40.801931	215.9	24.9	-92.4	8.0
2025-01-06 19:16:41.951609	216.1	25.0	-91.9	10.2
2025-01-06 19:16:43.102806	216.4	25.1	-92.0	11.4
2025-01-06 19:16:44.229850	216.6	25.3	-91.7	10.0
2025-01-06 19:16:45.365152	216.8	25.4	-91.8	8.8
2025-01-06 19:16:46.523577	217.1	25.5	-92.5	5.5
2025-01-06 19:16:47.670384	217.3	25.7	-92.2	7.1
2025-01-06 19:16:48.826240	217.6	25.8	-92.3	5.7
2025-01-06 19:16:49.981102	217.8	25.9	-92.5	7.7
2025-01-06 19:16:51.139423	218.0	26.1	-91.8	5.7
2025-01-06 19:16:52.298178	218.3	26.2	-91.7	7.3
2025-01-06 19:16:53.451716	218.5	26.3	-92.4	3.8
2025-01-06 19:16:54.613247	218.8	26.5	-92.1	3.4
2025-01-06 19:16:55.779034	219.0	26.6	-92.4	3.6
2025-01-06 19:16:56.941180	219.3	26.7	-92.4	3.0
2025-01-06 19:16:58.100598	219.6	26.9	-91.7	1.8
2025-01-06 19:16:59.255660	219.8	27.0	-91.8	2.6
2025-01-06 19:17:00.411521	220.1	27.1	-92.3	2.0
2025-01-06 19:17:01.566482	220.3	27.3	-92.7	3.2
2025-01-06 19:17:02.733116	220.6	27.4	-92.0	1.7
2025-01-06 19:17:03.890954	220.9	27.5	-92.4	0.9
2025-01-06 19:17:05.070171	221.2	27.7	-92.0	0.0
2025-01-06 19:17:06.233731	221.4	27.8	-92.3	1.7
2025-01-06 19:17:07.396555	221.7	28.0	-92.4	3.2
2025-01-06 19:17:08.562413	222.0	28.1	-92.5	4.0
2025-01-06 19:17:09.720417	222.3	28.2	-92.2	2.0
2025-01-06 19:17:10.877033	222.6	28.4	-92.4	4.0
2025-01-06 19:17:12.044136	222.8	28.5	-92.2	4.8
2025-01-06 19:17:13.208982	223.1	28.6	-92.0	1.8
2025-01-06 19:17:14.359907	223.4	28.8	-91.8	7.0
2025-01-06 19:17:15.527866	223.7	28.9	-91.2	2.9
2025-01-06 19:17:16.678789	224.0	29.0	-91.6	1.8
2025-01-06 19:17:17.831853	224.3	29.2	-91.5	1.7
2025-01-06 19:17:18.973745	224.6	29.3	-91.4	3.3
2025-01-06 19:17:20.094389	224.9	29.4	-90.8	3.0
2025-01-06 19:17:21.216273	225.2	29.5	-91.4	1.3
2025-01-06 19:17:22.336466	225.5	29.7	-90.8	0.1
2025-01-06 19:17:23.457060	225.8	29.8	-91.8	0.1
2025-01-06 19:17:24.578917	226.1	29.9	-91.7	2.4
2025-01-06 19:17:25.698970	226.4	30.1	-91.3	6.6
2025-01-06 19:17:26.824686	226.7	30.2	-91.5	9.6
2025-01-06 19:17:27.966176	227.0	30.3	-91.3	8.5
2025-01-06 19:17:29.134638	227.3	30.4	-91.0	9.1
2025-01-06 19:17:30.281731	227.6	30.6	-91.1	6.0
2025-01-06 19:17:31.446029	228.0	30.7	-92.3	10.1
2025-01-06 19:17:32.606181	228.3	30.8	-92.3	8.0
2025-01-06 19:17:33.763821	228.6	31.0	-91.9	7.4
2025-01-06 19:17:34.919540	229.0	31.1	-92.2	9.6
2025-01-06 19:17:36.050613	229.3	31.2	-92.2	12.0
2025-01-06 19:17:37.199091	229.6	31.3	-92.2	12.1
2025-01-06 19:17:38.352471	230.0	31.5	-92.3	14.9
2025-01-06 19:17:39.507304	230.3	31.6	-92.3	14.3
2025-01-06 19:17:40.660970	230.7	31.7	-92.3	14.0
2025-01-06 19:17:41.807439	231.0	31.9	-92.4	10.1
2025-01-06 19:17:42.963293	231.4	32.0	-92.1	8.4
2025-01-06 19:17:44.089753	231.7	32.1	-92.2	5.6
2025-01-06 19:17:45.242348	232.1	32.2	-91.9	3.0
2025-01-06 19:17:46.393057	232.4	32.3	-92.1	4.3
2025-01-06 19:17:47.551004	232.8	32.5	-92.4	5.1
2025-01-06 19:17:48.713223	233.1	32.6	-92.5	5.1
2025-01-06 19:17:49.864327	233.5	32.7	-91.9	11.5
2025-01-06 19:17:51.022781	233.9	32.8	-92.5	10.3
2025-01-06 19:17:52.185665	234.2	32.9	-92.2	13.1
2025-01-06 19:17:53.336363	234.6	33.1	-92.2	15.2
2025-01-06 19:17:54.492964	235.0	33.2	-92.6	18.4
2025-01-06 19:17:55.638267	235.4	33.3	-92.0	15.1
2025-01-06 19:17:56.779663	235.8	33.4	-92.6	12.4
2025-01-06 19:17:57.928555	236.1	33.5	-92.3	11.3
2025-01-06 19:17:59.069991	236.5	33.6	-91.9	8.9
2025-01-06 19:18:00.220790	236.9	33.7	-92.3	6.3
2025-01-06 19:18:01.372131	237.3	33.9	-92.5	8.3
2025-01-06 19:18:02.518931	237.7	34.0	-92.4	6.9
2025-01-06 19:18:03.685916	238.1	34.1	-92.7	7.3
2025-01-06 19:18:04.842527	238.5	34.2	-91.9	9.5
2025-01-06 19:18:06.005019	238.9	34.3	-92.1	11.4
2025-01-06 19:18:07.167357	239.3	34.4	-92.1	12.9
2025-01-06 19:18:08.328322	239.7	34.5	-92.1	12.7
2025-01-06 19:18:09.488318	240.1	34.6	-92.6	10.8
2025-01-06 19:18:10.664890	240.6	34.7	-92.5	6.9
2025-01-06 19:18:11.828336	241.0	34.8	-92.6	5.4
2025-01-06 19:18:12.991574	241.4	34.9	-92.3	4.5
2025-01-06 19:18:14.156413	241.8	35.0	-92.5	6.5
2025-01-06 19:18:15.312177	242.2	35.1	-91.7	1.5
2025-01-06 19:18:16.474705	242.7	35.2	-92.2	2.0
2025-01-06 19:18:17.637308	243.1	35.3	-90.7	2.0
2025-01-06 19:18:18.793003	243.5	35.4	-92.1	3.7
2025-01-06 19:18:19.946146	244.0	35.5	-92.5	3.7
2025-01-06 19:18:21.112177	244.4	35.6	-92.0	3.2
2025-01-06 19:18:22.273266	244.8	35.6	-91.5	1.3
2025-01-06 19:18:23.436141	245.3	35.7	-92.1	2.9
2025-01-06 19:18:24.591640	245.7	35.8	-91.9	7.6
2025-01-06 19:18:25.756772	246.2	35.9	-92.5	6.0
2025-01-06 19:18:26.915037	246.6	36.0	-92.0	11.2
2025-01-06 19:18:28.083208	247.1	36.1	-91.6	9.5
2025-01-06 19:18:29.241404	247.5	36.1	-91.9	7.6
2025-01-06 19:18:30.411565	248.0	36.2	-92.2	9.5
2025-01-06 19:18:31.574235	248.5	36.3	-92.4	6.9
2025-01-06 19:18:32.732995	248.9	36.4	-92.4	3.6
2025-01-06 19:18:33.891222	249.4	36.4	-92.6	6.6
2025-01-06 19:18:35.051756	249.8	36.5	-92.7	5.7
2025-01-06 19:18:36.220580	250.3	36.6	-92.5	2.8
2025-01-06 19:18:37.366902	250.8	36.6	-92.2	6.2
2025-01-06 19:18:38.539508	251.2	36.7	-92.4	9.9
2025-01-06 19:18:39.698753	251.7	36.7	-92.9	6.2
2025-01-06 19:18:40.862738	252.2	36.8	-92.9	11.5
2025-01-06 19:18:42.027325	252.7	36.9	-92.9	14.7
2025-01-06 19:18:43.190410	253.1	36.9	-92.5	12.7
2025-01-06 19:18:44.349659	253.6	37.0	-92.4	9.7
2025-01-06 19:18:45.517051	254.1	37.0	-92.6	10.8
2025-01-06 19:18:46.678782	254.6	37.1	-92.3	11.8
2025-01-06 19:18:47.843500	255.1	37.1	-92.0	15.4
2025-01-06 19:18:49.011110	255.5	37.1	-92.2	8.7
2025-01-06 19:18:50.175446	256.0	37.2	-92.0	5.5
2025-01-06 19:18:51.339451	256.5	37.2	-92.6	3.2
2025-01-06 19:18:52.502454	257.0	37.3	-92.9	4.8
2025-01-06 19:18:53.669368	257.5	37.3	-92.8	4.5
2025-01-06 19:18:54.825165	258.0	37.3	-92.9	3.2
2025-01-06 19:18:55.988972	258.5	37.4	-92.7	3.1
2025-01-06 19:18:57.156153	259.0	37.4	-92.2	3.7
2025-01-06 19:18:58.320839	259.4	37.4	-92.5	1.2
2025-01-06 19:18:59.484799	259.9	37.4	-92.5	1.9
2025-01-06 19:19:00.632626	260.4	37.4	-92.9	4.0
2025-01-06 19:19:01.793815	260.9	37.5	-92.9	3.4
2025-01-06 19:19:02.957407	261.4	37.5	-92.9	1.8
2025-01-06 19:19:04.123096	261.9	37.5	-92.6	1.9
2025-01-06 19:19:05.282002	262.4	37.5	-92.2	2.8
2025-01-06 19:19:06.443000	262.9	37.5	-92.8	3.4
2025-01-06 19:19:07.605281	263.4	37.5	-93.1	8.2
2025-01-06 19:19:08.772955	263.9	37.5	-92.7	0.9
2025-01-06 19:19:09.934260	264.4	37.5	-92.8	5.6
2025-01-06 19:19:11.098610	264.9	37.5	-92.5	8.7
2025-01-06 19:19:12.266686	265.4	37.5	-92.2	6.2
2025-01-06 19:19:13.432062	265.9	37.5	-92.7	7.3
2025-01-06 19:19:14.595997	266.4	37.5	-92.7	6.3
2025-01-06 19:19:15.768079	266.9	37.5	-92.6	7.3
2025-01-06 19:19:16.932405	267.4	37.5	-92.7	7.8
2025-01-06 19:19:18.100306	267.8	37.5	-92.1	5.4
2025-01-06 19:19:19.259744	268.3	37.5	-92.3	12.0
2025-01-06 19:19:20.430528	268.8	37.4	-93.1	6.3
2025-01-06 19:19:21.591776	269.3	37.4	-92.6	12.7
2025-01-06 19:19:22.754580	269.8	37.4	-92.9	11.6
2025-01-06 19:19:23.914948	270.3	37.4	-93.0	11.8
2025-01-06 19:19:25.074362	270.8	37.3	-92.8	9.7
2025-01-06 19:19:26.241382	271.3	37.3	-92.3	4.9
2025-01-06 19:19:27.404161	271.8	37.3	-92.7	17.9
2025-01-06 19:19:28.571385	272.3	37.2	-92.5	12.7
2025-01-06 19:19:29.735116	272.7	37.2	-92.5	14.0
2025-01-06 19:19:30.896364	273.2	37.2	-92.1	10.5
2025-01-06 19:19:32.051842	273.7	37.1	-92.1	9.8
2025-01-06 19:19:33.215456	274.2	37.1	-92.2	14.1
2025-01-06 19:19:34.382598	274.7	37.0	-92.1	8.0
2025-01-06 19:19:35.540266	275.2	37.0	-93.0	8.5
2025-01-06 19:19:36.707802	275.6	36.9	-92.9	12.1
2025-01-06 19:19:37.874154	276.1	36.9	-92.4	4.9
2025-01-06 19:19:39.034228	276.6	36.8	-92.2	6.2
2025-01-06 19:19:40.194593	277.1	36.8	-92.4	7.8
2025-01-06 19:19:41.359235	277.5	36.7	-92.4	5.6
2025-01-06 19:19:42.519987	278.0	36.6	-92.8	8.8
2025-01-06 19:19:43.687353	278.5	36.6	-91.8	5.3
2025-01-06 19:19:44.847273	278.9	36.5	-92.6	1.9
2025-01-06 19:19:46.006904	279.4	36.4	-92.5	7.2
2025-01-06 19:19:47.160962	279.9	36.4	-92.3	6.8
2025-01-06 19:19:48.323379	280.3	36.3	-92.4	2.6
2025-01-06 19:19:49.484431	280.8	36.2	-92.6	7.7
2025-01-06 19:19:50.647075	281.2	36.2	-92.7	3.9
2025-01-06 19:19:51.807013	281.7	36.1	-93.0	7.2
2025-01-06 19:19:52.970281	282.1	36.0	-93.0	9.8
2025-01-06 19:19:54.123378	282.6	35.9	-92.1	6.4
2025-01-06 19:19:55.281424	283.0	35.8	-92.5	4.0
2025-01-06 19:19:56.444734	283.5	35.8	-92.6	2.2
2025-01-06 19:19:57.600885	283.9	35.7	-92.7	7.6
2025-01-06 19:19:58.764879	284.4	35.6	-92.8	6.1
2025-01-06 19:19:59.928949	284.8	35.5	-92.6	2.7
2025-01-06 19:20:01.075504	285.2	35.4	-91.9	5.5
2025-01-06 19:20:02.236874	285.7	35.3	-91.6	4.3
2025-01-06 19:20:03.394350	286.1	35.2	-92.0	4.9
2025-01-06 19:20:04.553012	286.5	35.1	-92.2	6.0
2025-01-06 19:20:05.714696	286.9	35.0	-92.9	7.2
2025-01-06 19:20:06.867950	287.4	34.9	-92.7	7.2
2025-01-06 19:20:07.987941	287.8	34.8	-92.7	2.3
2025-01-06 19:20:09.109447	288.2	34.8	-92.2	4.2
2025-01-06 19:20:10.232084	288.6	34.7	-92.0	2.1
2025-01-06 19:20:11.353647	289.0	34.6	-92.1	4.3
2025-01-06 19:20:12.474350	289.4	34.5	-92.4	4.1
2025-01-06 19:20:13.595301	289.8	34.4	-92.0	8.9
2025-01-06 19:20:14.719893	290.2	34.3	-92.2	4.4
2025-01-06 19:20:15.840514	290.5	34.1	-92.7	3.7
2025-01-06 19:20:16.999903	290.9	34.0	-90.9	3.5
2025-01-06 19:20:18.150568	291.3	33.9	-91.9	3.8
2025-01-06 19:20:19.307078	291.7	33.8	-92.0	9.7
2025-01-06 19:20:20.467313	292.1	33.7	-92.3	8.3
2025-01-06 19:20:21.632068	292.5	33.6	-92.2	4.7
2025-01-06 19:20:22.794275	292.9	33.5	-92.4	2.0
2025-01-06 19:20:23.963137	293.3	33.4	-92.7	3.2
2025-01-06 19:20:25.119694	293.7	33.3	-92.1	8.7
2025-01-06 19:20:26.287882	294.1	33.1	-92.4	6.5
2025-01-06 19:20:27.461019	294.4	33.0	-91.2	8.5
2025-01-06 19:20:28.624118	294.8	32.9	-92.3	7.5
2025-01-06 19:20:29.790788	295.2	32.8	-92.0	9.3
2025-01-06 19:20:30.946465	295.6	32.7	-92.1	9.2
2025-01-06 19:20:32.120667	295.9	32.5	-92.5	8.7
2025-01-06 19:20:33.282499	296.3	32.4	-92.4	7.2
2025-01-06 19:20:34.448313	296.7	32.3	-92.7	2.2
2025-01-06 19:20:35.609132	297.0	32.2	-92.5	2.3
2025-01-06 19:20:36.766764	297.4	32.0	-92.6	3.4
2025-01-06 19:20:37.932245	297.7	31.9	-92.7	2.1
2025-01-06 19:20:39.085865	298.1	31.8	-92.3	3.9
2025-01-06 19:20:40.248230	298.4	31.7	-92.6	4.3
2025-01-06 19:20:41.409209	298.8	31.5	-92.2	5.9
2025-01-06 19:20:42.566497	299.1	31.4	-92.7	5.7
2025-01-06 19:20:43.738262	299.4	31.3	-92.4	4.5
2025-01-06 19:20:44.889605	299.8	31.2	-92.4	4.3
2025-01-06 19:20:46.052162	300.1	31.0	-92.1	6.7
2025-01-06 19:20:47.224284	300.5	30.9	-92.4	5.4
2025-01-06 19:20:48.381877	300.8	30.8	-92.5	5.1
2025-01-06 19:20:49.547929	301.1	30.6	-92.6	7.6
2025-01-06 19:20:50.706739	301.4	30.5	-92.9	3.6
2025-01-06 19:20:51.868485	301.8	30.4	-92.6	3.3
2025-01-06 19:20:53.036421	302.1	30.3	-92.6	8.8
2025-01-06 19:20:54.197971	302.4	30.1	-91.7	4.2
2025-01-06 19:20:55.355157	302.7	30.0	-92.2	4.6
2025-01-06 19:20:56.525381	303.0	29.9	-91.9	11.8
2025-01-06 19:20:57.683036	303.3	29.7	-92.0	6.6
2025-01-06 19:20:58.854580	303.6	29.6	-92.6	7.1
2025-01-06 19:21:00.015476	303.9	29.5	-92.5	11.1
2025-01-06 19:21:01.163424	304.2	29.3	-92.1	5.9
2025-01-06 19:21:02.318101	304.5	29.2	-92.3	7.5
2025-01-06 19:21:03.484128	304.8	29.1	-92.9	11.0
2025-01-06 19:21:04.640723	305.1	28.9	-92.7	9.8
2025-01-06 19:21:05.804942	305.4	28.8	-92.7	14.0
2025-01-06 19:21:06.966486	305.7	28.7	-92.5	15.7
2025-01-06 19:21:08.134747	306.0	28.5	-92.1	13.0
2025-01-06 19:21:09.298428	306.3	28.4	-92.4	10.8
2025-01-06 19:21:10.459555	306.6	28.3	-92.3	20.8
2025-01-06 19:21:11.621672	306.9	28.1	-92.5	3.3
2025-01-06 19:21:12.771087	307.1	28.0	-92.5	18.4
2025-01-06 19:21:13.917624	307.4	27.9	-93.0	8.3
2025-01-06 19:21:15.038573	307.7	27.7	-92.5	6.9
2025-01-06 19:21:16.161772	307.9	27.6	-91.4	7.4
2025-01-06 19:21:17.282069	308.2	27.5	-92.7	6.3
2025-01-06 19:21:18.401511	308.4	27.3	-92.2	9.2
2025-01-06 19:21:19.523164	308.7	27.2	-92.8	12.7
2025-01-06 19:21:20.643723	309.0	27.1	-92.9	5.4
2025-01-06 19:21:21.765526	309.2	27.0	-92.7	2.7
2025-01-06 19:21:22.887734	309.5	26.8	-92.9	5.4
2025-01-06 19:21:24.018383	309.7	26.7	-93.0	3.9
2025-01-06 19:21:25.161170	310.0	26.6	-92.4	5.0
2025-01-06 19:21:26.308784	310.2	26.4	-92.5	2.7
2025-01-06 19:21:27.463525	310.5	26.3	-92.7	4.5
2025-01-06 19:21:28.624454	310.7	26.2	-93.0	5.1
2025-01-06 19:21:29.749760	310.9	26.0	-92.8	5.6
2025-01-06 19:21:30.902002	311.2	25.9	-92.3	7.9
2025-01-06 19:21:32.047688	311.4	25.8	-92.8	13.2
2025-01-06 19:21:33.202465	311.7	25.6	-92.7	8.8
2025-01-06 19:21:34.361448	311.9	25.5	-92.5	9.1
2025-01-06 19:21:35.513705	312.1	25.4	-91.5	7.7
2025-01-06 19:21:36.676099	312.4	25.2	-92.9	8.9
2025-01-06 19:21:37.840112	312.6	25.1	-92.8	1.6
2025-01-06 19:21:38.999102	312.8	25.0	-92.5	6.5
2025-01-06 19:21:40.162932	313.1	24.8	-92.6	12.1
2025-01-06 19:21:41.328592	313.3	24.7	-92.7	4.4
2025-01-06 19:21:42.490636	313.5	24.6	-92.9	7.7
2025-01-06 19:21:43.658095	313.8	24.4	-92.8	4.8
2025-01-06 19:21:44.830384	314.0	24.3	-92.7	4.1
2025-01-06 19:21:45.979456	314.2	24.2	-93.1	6.3
2025-01-06 19:21:47.131703	314.4	24.0	-92.7	4.5
2025-01-06 19:21:48.262962	314.6	23.9	-92.5	2.9
2025-01-06 19:21:49.411391	314.8	23.8	-93.0	8.1
2025-01-06 19:21:50.570682	315.0	23.7	-92.9	6.6
2025-01-06 19:21:51.723768	315.3	23.5	-93.1	6.0
2025-01-06 19:21:52.875493	315.5	23.4	-93.0	11.8
2025-01-06 19:21:54.032156	315.7	23.3	-93.1	10.4
2025-01-06 19:21:55.187741	315.9	23.1	-92.3	9.6
2025-01-06 19:21:56.342992	316.1	23.0	-92.5	2.0
2025-01-06 19:21:57.503443	316.3	22.9	-92.9	4.9
2025-01-06 19:21:58.661496	316.5	22.8	-92.8	4.2
2025-01-06 19:21:59.825160	316.7	22.6	-93.0	9.6
2025-01-06 19:22:00.963633	316.9	22.5	-93.2	8.2
2025-01-06 19:22:02.131375	317.1	22.4	-92.6	7.9
2025-01-06 19:22:03.292890	317.3	22.3	-92.4	1.9
2025-01-06 19:22:04.459844	317.5	22.1	-92.8	3.7
2025-01-06 19:22:05.617149	317.7	22.0	-92.8	4.1
2025-01-06 19:22:06.778793	317.9	21.9	-92.3	2.7
2025-01-06 19:22:07.935715	318.0	21.7	-91.6	7.0
2025-01-06 19:22:09.081646	318.2	21.6	-91.9	4.7
2025-01-06 19:22:10.246483	318.4	21.5	-92.7	1.9
2025-01-06 19:22:11.409556	318.6	21.4	-92.0	6.5
2025-01-06 19:22:12.570806	318.8	21.2	-92.8	11.6
2025-01-06 19:22:13.737465	319.0	21.1	-93.0	14.5
2025-01-06 19:22:14.927456	319.1	21.0	-92.2	8.2
2025-01-06 19:22:16.086337	319.3	20.9	-92.4	8.9
2025-01-06 19:22:17.246366	319.5	20.7	-92.4	6.7
2025-01-06 19:22:18.409990	319.7	20.6	-92.5	11.3
2025-01-06 19:22:19.577911	319.9	20.5	-92.8	5.4
2025-01-06 19:22:20.739940	320.0	20.4	-93.2	2.1
2025-01-06 19:22:21.905922	320.2	20.3	-92.8	0.5
2025-01-06 19:22:23.073402	320.4	20.1	-92.8	1.5
2025-01-06 19:22:24.232473	320.5	20.0	-92.5	4.2
2025-01-06 19:22:25.401972	320.7	19.9	-92.8	2.6
2025-01-06 19:22:26.562139	320.9	19.8	-92.7	2.3
2025-01-06 19:22:27.729703	321.1	19.6	-93.0	3.2
2025-01-06 19:22:28.900643	321.2	19.5	-93.0	3.5
2025-01-06 19:22:30.063379	321.4	19.4	-92.8	4.9
2025-01-06 19:22:31.224308	321.5	19.3	-92.0	2.4
2025-01-06 19:22:32.385500	321.7	19.2	-91.8	2.0
2025-01-06 19:22:33.548998	321.9	19.1	-91.4	5.2
2025-01-06 19:22:34.712399	322.0	18.9	-92.6	7.6
2025-01-06 19:22:35.869693	322.2	18.8	-92.5	8.4
2025-01-06 19:22:37.032611	322.3	18.7	-91.9	1.9
2025-01-06 19:22:38.189743	322.5	18.6	-91.7	1.1
2025-01-06 19:22:39.353685	322.6	18.5	-91.7	1.4
2025-01-06 19:22:40.516541	322.8	18.3	-91.8	3.7
2025-01-06 19:22:41.682685	323.0	18.2	-91.2	1.7
2025-01-06 19:22:42.841907	323.1	18.1	-93.1	2.5
2025-01-06 19:22:44.003799	323.3	18.0	-92.8	1.1
2025-01-06 19:22:45.169714	323.4	17.9	-91.8	2.9
2025-01-06 19:22:46.320630	323.5	17.8	-92.1	2.2
2025-01-06 19:22:47.488642	323.7	17.7	-91.9	1.6
2025-01-06 19:22:48.652466	323.8	17.5	-92.4	0.3
2025-01-06 19:22:49.817444	324.0	17.4	-92.8	2.5
2025-01-06 19:22:50.985838	324.1	17.3	-92.2	1.1
2025-01-06 19:22:52.145495	324.3	17.2	-92.4	0.8
2025-01-06 19:22:53.309025	324.4	17.1	-92.4	2.1
2025-01-06 19:22:54.473471	324.6	17.0	-92.8	3.2
2025-01-06 19:22:55.632735	324.7	16.9	-91.7	3.0
2025-01-06 19:22:56.795686	324.8	16.8	-92.4	2.1
2025-01-06 19:22:57.957398	325.0	16.6	-92.5	0.7
2025-01-06 19:22:59.118729	325.1	16.5	-92.5	2.1
2025-01-06 19:23:00.274799	325.2	16.4	-92.3	1.3
2025-01-06 19:23:01.430631	325.4	16.3	-91.4	3.5
2025-01-06 19:23:02.591770	325.5	16.2	-91.9	2.2
2025-01-06 19:23:03.748473	325.6	16.1	-93.0	3.8
2025-01-06 19:23:04.898115	325.8	16.0	-92.5	4.7
2025-01-06 19:23:06.027385	325.9	15.9	-93.1	5.3
2025-01-06 19:23:07.149457	326.0	15.8	-92.6	10.9
2025-01-06 19:23:08.279007	326.1	15.7	-91.4	3.1
2025-01-06 19:23:09.399905	326.3	15.6	-93.1	7.7
2025-01-06 19:23:10.520052	326.4	15.5	-93.1	3.8
2025-01-06 19:23:11.640873	326.5	15.4	-92.2	4.2
2025-01-06 19:23:12.760997	326.6	15.3	-91.9	2.4
2025-01-06 19:23:13.881996	326.8	15.2	-91.8	3.1
2025-01-06 19:23:15.030340	326.9	15.0	-92.5	1.7
2025-01-06 19:23:16.191503	327.0	14.9	-92.1	3.0
2025-01-06 19:23:17.344888	327.1	14.8	-90.7	3.4
2025-01-06 19:23:18.503047	327.2	14.7	-93.1	1.4
2025-01-06 19:23:19.668508	327.4	14.6	-92.5	3.2
#Closed at: 2025-01-06 19:15:10.653742