passes_logs/2025/01/06/LEX_Murmansk/LEX_Murmansk__20250106_091413_NOAA_19_rec.log

#Pass ID: 20250106_091413_NOAA 19
#Satellite: NOAA 19
#Configuration: NOAA 19
#Start time: 2025-01-06 09:14:09.035920

#LorettStation: 1.0.0 05.05.2024
#Station: LEX_Murmansk
#Location: 33.156738 lon 68.926811 lat
#TLE: 1 33591U 09005A   25005.80039681  .00000456  00000+0  26725-3 0  9991
#TLE: 2 33591  99.0212  69.4911 0014675  82.0274 278.2563 14.13252095819982

#Time	Az	El	Level	SNR
2025-01-06 09:14:21.203029	25.0	16.3	-92.0	0.1
2025-01-06 09:14:23.523272	25.0	16.6	-92.6	3.4
2025-01-06 09:14:25.963809	24.9	16.9	-92.4	0.9
2025-01-06 09:14:28.285172	24.9	17.1	-92.3	1.4
2025-01-06 09:14:30.629050	24.8	17.4	-92.6	5.1
2025-01-06 09:14:32.952942	24.8	17.7	-92.5	6.1
2025-01-06 09:14:35.285407	24.7	17.9	-92.6	3.2
2025-01-06 09:14:37.609806	24.7	18.2	-92.7	10.1
2025-01-06 09:14:39.938542	24.7	18.5	-90.8	5.2
2025-01-06 09:14:42.263263	24.6	18.8	-91.1	1.7
2025-01-06 09:14:44.577776	24.6	19.1	-92.5	3.4
2025-01-06 09:14:46.904768	24.5	19.4	-92.3	5.9
2025-01-06 09:14:49.231938	24.5	19.6	-92.1	3.1
2025-01-06 09:14:51.566783	24.4	19.9	-92.5	6.6
2025-01-06 09:14:53.895844	24.4	20.2	-91.9	8.7
2025-01-06 09:14:56.228508	24.3	20.5	-92.0	2.6
2025-01-06 09:14:58.552703	24.2	20.9	-92.1	2.9
2025-01-06 09:15:00.879282	24.2	21.2	-91.9	5.4
2025-01-06 09:15:03.201282	24.1	21.5	-91.6	9.5
2025-01-06 09:15:05.523336	24.1	21.8	-91.8	5.9
2025-01-06 09:15:07.845533	24.0	22.1	-92.0	4.8
2025-01-06 09:15:10.174243	23.9	22.5	-91.6	12.8
2025-01-06 09:15:12.465674	23.9	22.8	-91.6	3.7
2025-01-06 09:15:14.749746	23.8	23.1	-92.0	1.3
2025-01-06 09:15:17.078629	23.7	23.5	-91.7	6.8
2025-01-06 09:15:19.405479	23.7	23.8	-91.6	13.0
2025-01-06 09:15:21.743372	23.6	24.1	-92.6	7.9
2025-01-06 09:15:24.068204	23.5	24.5	-91.6	9.1
2025-01-06 09:15:26.394210	23.5	24.9	-91.8	10.0
2025-01-06 09:15:28.725469	23.4	25.2	-92.3	4.4
2025-01-06 09:15:31.044739	23.3	25.6	-92.0	2.5
2025-01-06 09:15:33.374782	23.2	26.0	-91.9	4.1
2025-01-06 09:15:35.705617	23.1	26.3	-92.6	9.4
2025-01-06 09:15:38.027411	23.0	26.7	-92.9	9.7
2025-01-06 09:15:40.361058	23.0	27.1	-92.8	5.0
2025-01-06 09:15:42.691730	22.9	27.5	-92.7	10.4
2025-01-06 09:15:45.018949	22.8	27.9	-92.6	3.6
2025-01-06 09:15:47.356460	22.7	28.3	-92.7	0.6
2025-01-06 09:15:49.685139	22.6	28.7	-92.9	3.7
2025-01-06 09:15:52.021240	22.5	29.2	-92.7	9.9
2025-01-06 09:15:54.347319	22.4	29.6	-92.5	7.3
2025-01-06 09:15:56.679729	22.3	30.0	-92.8	6.0
2025-01-06 09:15:59.001605	22.2	30.4	-92.5	7.7
2025-01-06 09:16:01.313053	22.0	30.9	-92.6	6.5
2025-01-06 09:16:03.635174	21.9	31.3	-93.0	2.4
2025-01-06 09:16:05.954814	21.8	31.8	-92.9	2.1
2025-01-06 09:16:08.283366	21.7	32.3	-92.5	6.8
2025-01-06 09:16:10.613538	21.6	32.7	-93.0	8.6
2025-01-06 09:16:12.947013	21.4	33.2	-92.4	10.2
2025-01-06 09:16:15.276712	21.3	33.7	-92.6	9.5
2025-01-06 09:16:17.610358	21.1	34.2	-93.1	12.4
2025-01-06 09:16:19.938851	21.0	34.7	-92.6	6.5
2025-01-06 09:16:22.259735	20.8	35.2	-92.6	1.3
2025-01-06 09:16:24.581860	20.7	35.7	-92.9	7.0
2025-01-06 09:16:26.911505	20.5	36.3	-91.8	12.4
2025-01-06 09:16:29.237292	20.4	36.8	-92.7	9.9
2025-01-06 09:16:31.559810	20.2	37.3	-93.1	13.3
2025-01-06 09:16:33.883946	20.0	37.9	-92.8	13.2
2025-01-06 09:16:36.214132	19.8	38.4	-92.6	16.4
2025-01-06 09:16:38.533680	19.6	39.0	-92.6	4.9
2025-01-06 09:16:40.855105	19.4	39.6	-92.3	2.5
2025-01-06 09:16:43.178877	19.2	40.2	-92.3	8.8
2025-01-06 09:16:45.496940	19.0	40.8	-92.5	14.2
2025-01-06 09:16:47.823170	18.8	41.4	-92.6	11.6
2025-01-06 09:16:50.144547	18.6	42.0	-92.7	14.4
2025-01-06 09:16:52.478271	18.3	42.6	-92.7	19.1
2025-01-06 09:16:54.804453	18.1	43.3	-92.6	19.0
2025-01-06 09:16:57.142474	17.8	43.9	-91.9	12.2
2025-01-06 09:16:59.464155	17.5	44.6	-92.8	4.6
2025-01-06 09:17:01.768287	17.2	45.2	-92.9	5.1
2025-01-06 09:17:04.103182	16.9	45.9	-92.4	15.6
2025-01-06 09:17:06.431078	16.6	46.6	-92.0	18.3
2025-01-06 09:17:08.754205	16.3	47.3	-91.3	10.0
2025-01-06 09:17:11.083179	16.0	48.0	-92.6	14.6
2025-01-06 09:17:13.408269	15.6	48.7	-92.7	16.5
2025-01-06 09:17:15.725325	15.2	49.4	-92.5	8.6
2025-01-06 09:17:18.053108	14.8	50.2	-92.7	3.5
2025-01-06 09:17:20.382571	14.4	50.9	-92.2	4.7
2025-01-06 09:17:22.705585	14.0	51.7	-93.0	6.7
2025-01-06 09:17:25.028119	13.5	52.5	-93.1	12.3
2025-01-06 09:17:27.353015	13.0	53.2	-92.1	12.2
2025-01-06 09:17:29.672449	12.5	54.0	-93.1	5.1
2025-01-06 09:17:32.005180	12.0	54.8	-93.1	4.1
2025-01-06 09:17:34.335888	11.4	55.6	-92.7	6.4
2025-01-06 09:17:36.663320	10.8	56.5	-91.6	14.9
2025-01-06 09:17:39.004780	10.2	57.3	-92.5	10.5
2025-01-06 09:17:41.324233	9.5	58.1	-92.3	1.6
2025-01-06 09:17:43.646359	8.7	59.0	-92.1	5.9
2025-01-06 09:17:45.966505	8.0	59.8	-90.4	8.8
2025-01-06 09:17:48.290529	7.1	60.7	-92.1	10.6
2025-01-06 09:17:50.620897	6.2	61.6	-92.8	15.8
2025-01-06 09:17:52.966347	5.2	62.4	-92.8	13.7
2025-01-06 09:17:55.292641	4.2	63.3	-92.6	8.8
2025-01-06 09:17:57.625061	3.1	64.2	-93.1	13.9
2025-01-06 09:17:59.940468	1.9	65.1	-93.0	16.6
2025-01-06 09:18:02.259487	0.6	65.9	-92.5	13.9
2025-01-06 09:18:04.590951	359.2	66.8	-92.7	15.0
2025-01-06 09:18:06.924550	357.6	67.7	-92.7	18.7
2025-01-06 09:18:09.265643	356.0	68.5	-92.5	13.7
2025-01-06 09:18:11.579785	354.1	69.4	-92.5	11.4
2025-01-06 09:18:13.908113	352.1	70.2	-92.4	5.4
2025-01-06 09:18:16.214812	350.0	71.0	-92.1	3.2
2025-01-06 09:18:18.535942	347.6	71.8	-92.3	4.2
2025-01-06 09:18:20.854697	345.0	72.6	-92.6	7.2
2025-01-06 09:18:23.165833	342.2	73.3	-92.8	13.8
2025-01-06 09:18:25.480679	339.1	74.0	-93.0	9.8
2025-01-06 09:18:27.800281	335.6	74.7	-92.1	8.8
2025-01-06 09:18:30.134291	331.9	75.3	-91.2	10.5
2025-01-06 09:18:32.456846	327.9	75.8	-92.8	11.8
2025-01-06 09:18:34.774665	323.6	76.3	-92.8	9.5
2025-01-06 09:18:37.104101	318.9	76.7	-92.7	11.0
2025-01-06 09:18:39.427097	314.1	76.9	-92.7	10.7
2025-01-06 09:18:41.753951	309.0	77.1	-92.6	10.9
2025-01-06 09:18:44.080640	303.8	77.2	-92.2	15.2
2025-01-06 09:18:46.404279	298.6	77.2	-91.9	13.4
2025-01-06 09:18:48.720958	293.5	77.1	-92.4	17.9
2025-01-06 09:18:51.017150	288.5	76.9	-92.2	23.7
2025-01-06 09:18:53.345280	283.6	76.6	-92.2	21.8
2025-01-06 09:18:55.660335	279.0	76.2	-92.3	24.4
2025-01-06 09:18:57.994481	274.7	75.8	-92.4	20.7
2025-01-06 09:19:00.315802	270.7	75.2	-91.7	22.4
2025-01-06 09:19:02.640847	267.0	74.6	-92.5	20.6
2025-01-06 09:19:04.961496	263.6	74.0	-92.8	24.2
2025-01-06 09:19:07.275786	260.5	73.3	-92.5	26.1
2025-01-06 09:19:09.597937	257.7	72.5	-92.6	21.8
2025-01-06 09:19:11.926387	255.1	71.8	-92.9	23.2
2025-01-06 09:19:14.269754	252.7	71.0	-92.3	23.3
2025-01-06 09:19:16.589644	250.6	70.1	-92.8	19.7
2025-01-06 09:19:18.919219	248.6	69.3	-93.0	16.4
2025-01-06 09:19:21.240881	246.8	68.5	-92.4	16.2
2025-01-06 09:19:23.561846	245.1	67.6	-92.8	17.4
2025-01-06 09:19:25.887537	243.6	66.7	-92.2	23.2
2025-01-06 09:19:28.215864	242.2	65.9	-92.5	21.0
2025-01-06 09:19:30.538316	240.9	65.0	-92.9	20.3
2025-01-06 09:19:32.861604	239.7	64.1	-93.0	19.2
2025-01-06 09:19:35.179347	238.6	63.2	-92.3	17.6
2025-01-06 09:19:37.500843	237.6	62.4	-92.9	17.4
2025-01-06 09:19:39.835417	236.6	61.5	-93.0	10.2
2025-01-06 09:19:42.162733	235.7	60.6	-92.5	11.3
2025-01-06 09:19:44.492477	234.9	59.8	-93.1	11.0
2025-01-06 09:19:46.809057	234.1	58.9	-92.9	7.4
2025-01-06 09:19:49.133236	233.4	58.1	-92.9	12.5
2025-01-06 09:19:51.445281	232.7	57.2	-92.1	9.3
2025-01-06 09:19:53.765527	232.0	56.4	-92.9	21.1
2025-01-06 09:19:56.086345	231.4	55.6	-92.6	12.1
2025-01-06 09:19:58.407993	230.9	54.8	-92.5	14.6
2025-01-06 09:20:00.711036	230.3	54.0	-92.8	17.7
2025-01-06 09:20:03.043963	229.8	53.2	-92.9	13.4
2025-01-06 09:20:05.366461	229.3	52.4	-92.7	15.6
2025-01-06 09:20:07.689265	228.9	51.6	-92.7	13.6
2025-01-06 09:20:10.021007	228.4	50.9	-92.3	14.6
2025-01-06 09:20:12.351707	228.0	50.1	-93.0	20.0
2025-01-06 09:20:14.674414	227.6	49.4	-92.5	16.4
2025-01-06 09:20:16.992086	227.2	48.7	-93.1	10.6
2025-01-06 09:20:19.330174	226.9	47.9	-92.4	8.6
2025-01-06 09:20:21.656642	226.5	47.2	-92.7	7.7
2025-01-06 09:20:23.987886	226.2	46.5	-92.9	5.1
2025-01-06 09:20:26.303189	225.9	45.8	-91.5	1.5
2025-01-06 09:20:28.628225	225.6	45.2	-93.3	4.9
2025-01-06 09:20:30.950474	225.3	44.5	-93.1	9.6
2025-01-06 09:20:33.271310	225.1	43.8	-92.6	7.1
2025-01-06 09:20:35.580592	224.8	43.2	-92.7	6.0
2025-01-06 09:20:37.898511	224.5	42.6	-92.8	3.2
2025-01-06 09:20:40.225475	224.3	41.9	-92.7	7.9
2025-01-06 09:20:42.548661	224.1	41.3	-93.1	5.5
2025-01-06 09:20:44.875677	223.8	40.7	-92.1	9.6
2025-01-06 09:20:47.195070	223.6	40.1	-92.3	12.6
2025-01-06 09:20:49.520555	223.4	39.5	-92.5	17.3
2025-01-06 09:20:51.846503	223.2	39.0	-92.5	17.5
2025-01-06 09:20:54.171269	223.0	38.4	-92.6	13.4
2025-01-06 09:20:56.490656	222.9	37.8	-92.5	11.4
2025-01-06 09:20:58.812911	222.7	37.3	-92.6	17.9
2025-01-06 09:21:01.137050	222.5	36.7	-92.0	13.5
2025-01-06 09:21:03.466439	222.3	36.2	-92.9	16.7
2025-01-06 09:21:05.795321	222.2	35.7	-92.9	15.3
2025-01-06 09:21:08.120399	222.0	35.2	-92.7	13.8
2025-01-06 09:21:10.458237	221.9	34.6	-92.6	10.1
2025-01-06 09:21:12.791095	221.7	34.1	-92.5	14.1
2025-01-06 09:21:15.109546	221.6	33.6	-92.2	5.9
2025-01-06 09:21:17.426143	221.4	33.2	-92.4	8.4
2025-01-06 09:21:19.749017	221.3	32.7	-92.5	15.9
2025-01-06 09:21:22.075756	221.2	32.2	-92.1	11.1
2025-01-06 09:21:24.396530	221.1	31.7	-91.8	15.0
2025-01-06 09:21:26.720353	220.9	31.3	-92.3	14.1
2025-01-06 09:21:29.049191	220.8	30.8	-92.6	5.8
2025-01-06 09:21:31.370728	220.7	30.4	-92.8	6.7
2025-01-06 09:21:33.698639	220.6	30.0	-92.9	10.8
2025-01-06 09:21:36.025472	220.5	29.5	-93.0	4.9
2025-01-06 09:21:38.353290	220.4	29.1	-92.4	5.0
2025-01-06 09:21:40.684225	220.3	28.7	-92.2	3.3
2025-01-06 09:21:43.014615	220.2	28.3	-91.9	2.0
2025-01-06 09:21:45.345939	220.1	27.9	-92.3	2.9
2025-01-06 09:21:47.684668	220.0	27.5	-92.2	1.1
2025-01-06 09:21:50.010413	219.9	27.1	-93.1	2.9
2025-01-06 09:21:52.347801	219.8	26.7	-92.6	5.2
2025-01-06 09:21:54.668630	219.7	26.3	-93.1	8.6
2025-01-06 09:21:56.993086	219.6	25.9	-92.7	3.6
2025-01-06 09:21:59.318707	219.6	25.5	-92.4	5.4
2025-01-06 09:22:01.630781	219.5	25.2	-92.9	3.5
2025-01-06 09:22:03.952614	219.4	24.8	-93.0	4.7
2025-01-06 09:22:06.280894	219.3	24.4	-92.7	7.0
2025-01-06 09:22:08.606492	219.2	24.1	-91.9	8.2
2025-01-06 09:22:10.929481	219.2	23.7	-92.6	7.7
2025-01-06 09:22:13.266184	219.1	23.4	-92.8	9.3
2025-01-06 09:22:15.599447	219.0	23.1	-92.4	1.2
2025-01-06 09:22:17.930999	219.0	22.7	-92.5	4.9
2025-01-06 09:22:20.257067	218.9	22.4	-92.1	9.1
2025-01-06 09:22:22.590969	218.8	22.1	-92.5	9.3
2025-01-06 09:22:24.922839	218.8	21.7	-92.3	8.7
2025-01-06 09:22:27.241968	218.7	21.4	-92.1	9.6
2025-01-06 09:22:29.564302	218.7	21.1	-92.9	6.0
2025-01-06 09:22:31.885625	218.6	20.8	-92.6	10.6
2025-01-06 09:22:34.208996	218.5	20.5	-92.4	7.6
2025-01-06 09:22:36.533574	218.5	20.2	-93.1	9.5
2025-01-06 09:22:38.862178	218.4	19.9	-92.5	8.8
2025-01-06 09:22:41.192482	218.4	19.6	-92.0	8.9
2025-01-06 09:22:43.514719	218.3	19.3	-92.6	3.5
2025-01-06 09:22:45.849650	218.3	19.0	-92.9	9.2
2025-01-06 09:22:48.171120	218.2	18.7	-93.0	8.5
2025-01-06 09:22:50.508204	218.2	18.4	-93.1	9.2
2025-01-06 09:22:52.839468	218.1	18.1	-92.8	9.7
2025-01-06 09:22:55.167055	218.1	17.9	-92.7	5.7
2025-01-06 09:22:57.477842	218.0	17.6	-92.5	3.7
2025-01-06 09:22:59.802500	218.0	17.3	-92.9	7.4
2025-01-06 09:23:02.109562	217.9	17.1	-92.6	7.1
2025-01-06 09:23:04.446975	217.9	16.8	-92.5	5.1
2025-01-06 09:23:06.780941	217.9	16.5	-92.6	6.4
2025-01-06 09:23:09.103700	217.8	16.3	-92.4	4.3
2025-01-06 09:23:11.426934	217.8	16.0	-92.7	1.2
2025-01-06 09:23:13.748937	217.7	15.8	-92.7	4.1
2025-01-06 09:23:16.071214	217.7	15.5	-92.7	4.2
2025-01-06 09:23:18.395600	217.7	15.3	-92.4	3.5
2025-01-06 09:23:20.722020	217.6	15.0	-92.7	3.4
2025-01-06 09:23:23.034025	217.6	14.8	-93.0	0.8
2025-01-06 09:23:25.357145	217.5	14.5	-92.8	2.3
#Closed at: 2025-01-06 09:14:13.989051