passes_logs/2025/01/06/LEX_Murmansk/LEX_Murmansk__20250106_180041_NOAA_18_rec.log

#Pass ID: 20250106_180041_NOAA 18
#Satellite: NOAA 18
#Configuration: NOAA 18
#Start time: 2025-01-06 18:00:36.617029

#LorettStation: 1.0.0 05.05.2024
#Station: LEX_Murmansk
#Location: 33.156738 lon 68.926811 lat
#TLE: 1 28654U 05018A   25005.81892802  .00000565  00000+0  32357-3 0  9997
#TLE: 2 28654  98.8581  86.9638 0013924 205.2694 154.7799 14.13478522 11802

#Time	Az	El	Level	SNR
2025-01-06 18:00:48.846671	126.0	16.3	-92.6	12.0
2025-01-06 18:00:51.157306	125.9	16.5	-91.9	10.6
2025-01-06 18:00:53.472166	125.8	16.8	-92.4	10.3
2025-01-06 18:00:55.789099	125.7	17.0	-92.5	7.3
2025-01-06 18:00:58.096716	125.5	17.3	-92.2	3.0
2025-01-06 18:01:00.397379	125.4	17.5	-92.8	6.9
2025-01-06 18:01:02.707645	125.3	17.8	-92.7	5.9
2025-01-06 18:01:05.013295	125.1	18.1	-92.5	8.1
2025-01-06 18:01:07.328541	125.0	18.3	-92.4	13.7
2025-01-06 18:01:09.638124	124.9	18.6	-93.0	12.6
2025-01-06 18:01:11.949488	124.7	18.9	-92.7	6.8
2025-01-06 18:01:14.263590	124.6	19.2	-92.1	14.4
2025-01-06 18:01:16.575277	124.4	19.4	-92.7	15.2
2025-01-06 18:01:18.891813	124.3	19.7	-92.3	15.8
2025-01-06 18:01:21.199334	124.1	20.0	-92.1	14.9
2025-01-06 18:01:23.509700	124.0	20.3	-92.7	15.5
2025-01-06 18:01:25.812471	123.8	20.6	-92.6	14.7
2025-01-06 18:01:28.115181	123.7	20.9	-92.4	7.4
2025-01-06 18:01:30.424156	123.5	21.2	-92.7	8.9
2025-01-06 18:01:32.745910	123.3	21.5	-92.4	13.8
2025-01-06 18:01:35.062328	123.2	21.8	-90.8	11.9
2025-01-06 18:01:37.376988	123.0	22.1	-90.8	12.4
2025-01-06 18:01:39.682405	122.8	22.4	-90.9	11.8
2025-01-06 18:01:41.996859	122.6	22.7	-92.6	13.1
2025-01-06 18:01:44.305663	122.4	23.0	-92.3	9.9
2025-01-06 18:01:46.633866	122.2	23.3	-92.7	8.0
2025-01-06 18:01:48.954644	122.1	23.6	-92.6	14.3
2025-01-06 18:01:51.272261	121.9	24.0	-91.9	16.0
2025-01-06 18:01:53.575120	121.7	24.3	-91.2	13.3
2025-01-06 18:01:55.886627	121.4	24.6	-93.0	16.1
2025-01-06 18:01:58.198014	121.2	25.0	-92.2	12.5
2025-01-06 18:02:00.500392	121.0	25.3	-93.1	6.8
2025-01-06 18:02:02.806267	120.8	25.7	-93.0	6.7
2025-01-06 18:02:05.121516	120.6	26.0	-92.3	4.9
2025-01-06 18:02:07.432966	120.3	26.4	-93.0	8.3
2025-01-06 18:02:09.743687	120.1	26.7	-92.7	5.5
2025-01-06 18:02:12.056453	119.9	27.1	-92.6	6.2
2025-01-06 18:02:14.371646	119.6	27.4	-92.9	6.7
2025-01-06 18:02:16.688714	119.4	27.8	-92.8	6.8
2025-01-06 18:02:18.993630	119.1	28.2	-91.9	4.3
2025-01-06 18:02:21.301266	118.8	28.6	-92.1	4.9
2025-01-06 18:02:23.614038	118.6	28.9	-92.9	5.7
2025-01-06 18:02:25.926665	118.3	29.3	-92.8	9.1
2025-01-06 18:02:28.238524	118.0	29.7	-92.6	12.5
2025-01-06 18:02:30.543843	117.7	30.1	-92.2	12.9
2025-01-06 18:02:32.862238	117.4	30.5	-92.5	11.0
2025-01-06 18:02:35.165278	117.1	30.9	-92.2	10.6
2025-01-06 18:02:37.475899	116.8	31.3	-92.9	4.8
2025-01-06 18:02:39.788824	116.5	31.7	-92.7	8.5
2025-01-06 18:02:42.103019	116.1	32.2	-92.0	8.3
2025-01-06 18:02:44.427604	115.8	32.6	-91.4	13.3
2025-01-06 18:02:46.747451	115.4	33.0	-93.0	17.2
2025-01-06 18:02:49.072683	115.1	33.5	-92.4	13.9
2025-01-06 18:02:51.380715	114.7	33.9	-92.7	16.3
2025-01-06 18:02:53.685488	114.3	34.3	-92.8	16.2
2025-01-06 18:02:55.987043	113.9	34.8	-92.8	8.6
2025-01-06 18:02:58.296989	113.5	35.2	-92.6	15.5
2025-01-06 18:03:00.609616	113.1	35.7	-92.8	12.9
2025-01-06 18:03:02.917280	112.7	36.2	-91.5	12.4
2025-01-06 18:03:05.232230	112.3	36.6	-92.6	13.0
2025-01-06 18:03:07.530675	111.8	37.1	-91.7	11.1
2025-01-06 18:03:09.852480	111.3	37.6	-91.3	18.0
2025-01-06 18:03:12.172727	110.9	38.0	-92.5	19.9
2025-01-06 18:03:14.481129	110.4	38.5	-93.1	11.1
2025-01-06 18:03:16.795075	109.9	39.0	-92.6	14.4
2025-01-06 18:03:19.116158	109.3	39.5	-92.6	7.1
2025-01-06 18:03:21.414885	108.8	40.0	-92.8	10.4
2025-01-06 18:03:23.731395	108.2	40.5	-93.2	13.5
2025-01-06 18:03:26.051100	107.7	41.0	-92.8	13.6
2025-01-06 18:03:28.361540	107.1	41.5	-92.9	19.9
2025-01-06 18:03:30.674243	106.5	42.0	-93.0	11.8
2025-01-06 18:03:32.982658	105.8	42.6	-92.8	14.2
2025-01-06 18:03:35.278278	105.2	43.1	-92.8	16.8
2025-01-06 18:03:37.587466	104.5	43.6	-92.7	5.1
2025-01-06 18:03:39.899697	103.8	44.1	-92.6	5.7
2025-01-06 18:03:42.217082	103.1	44.6	-91.3	14.0
2025-01-06 18:03:44.535411	102.3	45.2	-93.1	5.7
2025-01-06 18:03:46.834887	101.6	45.7	-92.9	8.7
2025-01-06 18:03:49.131579	100.8	46.2	-92.4	7.0
2025-01-06 18:03:51.454315	100.0	46.8	-92.8	6.3
2025-01-06 18:03:53.758405	99.1	47.3	-92.9	8.8
2025-01-06 18:03:56.062445	98.2	47.8	-92.1	16.7
2025-01-06 18:03:58.384703	97.3	48.3	-92.1	14.3
2025-01-06 18:04:00.711331	96.4	48.9	-92.9	16.9
2025-01-06 18:04:03.026910	95.4	49.4	-92.2	2.9
2025-01-06 18:04:05.345450	94.4	49.9	-92.6	3.8
2025-01-06 18:04:07.656892	93.3	50.4	-92.5	12.3
2025-01-06 18:04:09.962765	92.2	50.9	-92.6	7.8
2025-01-06 18:04:12.273974	91.1	51.5	-92.1	3.8
2025-01-06 18:04:14.585344	89.9	51.9	-92.8	6.4
2025-01-06 18:04:16.890389	88.7	52.4	-93.1	11.7
2025-01-06 18:04:19.201661	87.5	52.9	-92.1	13.0
2025-01-06 18:04:21.504062	86.2	53.4	-93.0	12.8
2025-01-06 18:04:23.813681	84.9	53.9	-92.5	15.5
2025-01-06 18:04:26.119065	83.5	54.3	-90.9	11.7
2025-01-06 18:04:28.433324	82.1	54.7	-92.2	12.4
2025-01-06 18:04:30.750225	80.7	55.2	-92.5	12.1
2025-01-06 18:04:33.055382	79.2	55.6	-92.5	11.4
2025-01-06 18:04:35.372714	77.6	56.0	-91.1	18.1
2025-01-06 18:04:37.684517	76.1	56.3	-91.8	14.4
2025-01-06 18:04:39.993773	74.4	56.7	-91.3	11.5
2025-01-06 18:04:42.305038	72.8	57.0	-92.2	18.9
2025-01-06 18:04:44.615712	71.1	57.3	-93.0	20.5
2025-01-06 18:04:46.922251	69.3	57.6	-92.5	14.1
2025-01-06 18:04:49.229760	67.6	57.9	-92.3	18.8
2025-01-06 18:04:51.546019	65.8	58.1	-92.7	13.4
2025-01-06 18:04:53.852711	63.9	58.3	-92.6	18.2
2025-01-06 18:04:56.172274	62.0	58.5	-92.4	16.0
2025-01-06 18:04:58.485425	60.2	58.6	-92.8	9.9
2025-01-06 18:05:00.791391	58.3	58.8	-92.5	22.5
2025-01-06 18:05:03.105296	56.3	58.9	-92.4	17.1
2025-01-06 18:05:05.415119	54.4	58.9	-92.3	21.7
2025-01-06 18:05:07.728759	52.4	59.0	-92.4	19.5
2025-01-06 18:05:10.050021	50.5	59.0	-92.2	17.8
2025-01-06 18:05:12.356909	48.5	58.9	-92.2	18.9
2025-01-06 18:05:14.667875	46.6	58.9	-93.3	18.7
2025-01-06 18:05:16.975529	44.7	58.8	-92.1	14.9
2025-01-06 18:05:19.294158	42.8	58.7	-92.9	14.9
2025-01-06 18:05:21.605888	40.9	58.5	-92.8	12.4
2025-01-06 18:05:23.919536	39.0	58.3	-93.2	12.3
2025-01-06 18:05:26.220700	37.2	58.1	-92.6	11.8
2025-01-06 18:05:28.527250	35.3	57.9	-92.8	6.4
2025-01-06 18:05:30.850615	33.5	57.7	-92.4	11.3
2025-01-06 18:05:33.159241	31.8	57.4	-92.4	15.3
2025-01-06 18:05:35.471937	30.1	57.1	-92.2	7.1
2025-01-06 18:05:37.779065	28.4	56.7	-93.0	12.6
2025-01-06 18:05:40.077719	26.8	56.4	-92.6	7.4
2025-01-06 18:05:42.390084	25.2	56.0	-93.0	15.2
2025-01-06 18:05:44.711272	23.7	55.6	-93.3	15.1
2025-01-06 18:05:47.022385	22.1	55.2	-93.2	9.3
2025-01-06 18:05:49.342772	20.7	54.8	-93.1	16.7
2025-01-06 18:05:51.656619	19.3	54.4	-93.3	10.5
2025-01-06 18:05:53.959537	17.9	53.9	-93.1	7.9
2025-01-06 18:05:56.269288	16.6	53.5	-92.9	9.7
2025-01-06 18:05:58.568934	15.3	53.0	-92.5	8.5
2025-01-06 18:06:00.860846	14.0	52.5	-93.1	13.0
2025-01-06 18:06:03.178488	12.8	52.1	-93.1	15.8
2025-01-06 18:06:05.491834	11.7	51.6	-92.7	12.9
2025-01-06 18:06:07.793064	10.5	51.1	-93.1	17.1
2025-01-06 18:06:10.101893	9.4	50.5	-92.5	18.3
2025-01-06 18:06:12.408283	8.4	50.0	-92.6	14.7
2025-01-06 18:06:14.710978	7.4	49.5	-93.1	14.1
2025-01-06 18:06:17.022559	6.4	49.0	-92.5	15.8
2025-01-06 18:06:19.322571	5.4	48.5	-92.5	16.9
2025-01-06 18:06:21.633050	4.5	47.9	-93.1	12.6
2025-01-06 18:06:23.943427	3.6	47.4	-93.0	12.9
2025-01-06 18:06:26.255663	2.8	46.9	-92.1	18.0
2025-01-06 18:06:28.564301	1.9	46.4	-93.1	12.4
2025-01-06 18:06:30.874236	1.1	45.8	-93.1	14.8
2025-01-06 18:06:33.170767	0.4	45.3	-92.3	17.3
2025-01-06 18:06:35.487422	359.6	44.8	-93.1	10.7
2025-01-06 18:06:37.796312	358.9	44.2	-92.7	19.6
2025-01-06 18:06:40.112644	358.2	43.7	-91.8	14.3
2025-01-06 18:06:42.427083	357.5	43.2	-92.8	13.4
2025-01-06 18:06:44.698354	356.9	42.7	-93.1	21.2
2025-01-06 18:06:46.943269	356.2	42.2	-93.0	22.0
2025-01-06 18:06:49.184440	355.6	41.7	-92.5	20.7
2025-01-06 18:06:51.431710	355.1	41.2	-92.8	20.1
2025-01-06 18:06:53.704138	354.5	40.7	-92.8	22.8
2025-01-06 18:06:56.016863	353.9	40.2	-92.2	14.6
2025-01-06 18:06:58.319192	353.4	39.7	-93.0	20.0
2025-01-06 18:07:00.622962	352.8	39.2	-92.8	13.5
2025-01-06 18:07:02.936655	352.3	38.7	-92.9	13.2
2025-01-06 18:07:05.243797	351.8	38.2	-92.1	15.3
2025-01-06 18:07:07.547450	351.4	37.7	-92.8	16.9
2025-01-06 18:07:09.871668	350.9	37.3	-93.1	18.6
2025-01-06 18:07:12.168465	350.4	36.8	-92.5	19.3
2025-01-06 18:07:14.476543	350.0	36.3	-93.0	16.5
2025-01-06 18:07:16.784373	349.6	35.9	-93.3	17.9
2025-01-06 18:07:19.107379	349.1	35.4	-92.9	10.4
2025-01-06 18:07:21.421793	348.7	34.9	-93.3	12.2
2025-01-06 18:07:23.725155	348.3	34.5	-93.5	17.9
2025-01-06 18:07:26.050164	348.0	34.0	-92.9	9.9
2025-01-06 18:07:28.360685	347.6	33.6	-92.8	16.2
2025-01-06 18:07:30.674766	347.2	33.2	-92.6	12.7
2025-01-06 18:07:32.988261	346.9	32.7	-93.3	16.5
2025-01-06 18:07:35.298063	346.5	32.3	-90.8	17.5
2025-01-06 18:07:37.600589	346.2	31.9	-92.0	10.6
2025-01-06 18:07:39.912764	345.9	31.5	-92.0	12.3
2025-01-06 18:07:42.213225	345.5	31.1	-91.7	12.7
2025-01-06 18:07:44.528485	345.2	30.7	-91.5	14.6
2025-01-06 18:07:46.840516	344.9	30.3	-90.6	15.1
2025-01-06 18:07:49.169240	344.6	29.9	-91.1	13.3
2025-01-06 18:07:51.471591	344.3	29.5	-92.7	12.9
2025-01-06 18:07:53.785430	344.1	29.1	-92.3	16.3
2025-01-06 18:07:56.098982	343.8	28.7	-92.9	10.7
2025-01-06 18:07:58.410848	343.5	28.3	-93.0	6.1
2025-01-06 18:08:00.710685	343.3	27.9	-92.8	9.1
2025-01-06 18:08:03.016624	343.0	27.6	-93.2	9.1
2025-01-06 18:08:05.337388	342.8	27.2	-92.6	13.0
2025-01-06 18:08:07.646088	342.5	26.8	-92.8	8.3
2025-01-06 18:08:09.970332	342.3	26.5	-93.0	11.1
2025-01-06 18:08:12.277919	342.0	26.1	-92.5	12.3
2025-01-06 18:08:14.588469	341.8	25.8	-93.0	10.5
2025-01-06 18:08:16.901140	341.6	25.4	-92.6	12.9
2025-01-06 18:08:19.222792	341.4	25.1	-92.2	12.3
2025-01-06 18:08:21.522281	341.2	24.8	-92.9	8.4
2025-01-06 18:08:23.831336	341.0	24.4	-92.8	10.8
2025-01-06 18:08:26.149388	340.8	24.1	-91.3	7.6
2025-01-06 18:08:28.460601	340.6	23.8	-91.9	5.9
2025-01-06 18:08:30.765864	340.4	23.4	-92.8	10.0
2025-01-06 18:08:33.086564	340.2	23.1	-92.0	8.6
2025-01-06 18:08:35.400221	340.0	22.8	-92.3	11.3
2025-01-06 18:08:37.709901	339.8	22.5	-92.2	11.2
2025-01-06 18:08:40.004523	339.6	22.2	-92.4	9.6
2025-01-06 18:08:42.308175	339.5	21.9	-92.5	10.3
2025-01-06 18:08:44.617368	339.3	21.6	-92.6	11.6
2025-01-06 18:08:46.932236	339.1	21.3	-91.9	7.9
2025-01-06 18:08:49.238110	339.0	21.0	-92.1	14.3
2025-01-06 18:08:51.543695	338.8	20.7	-92.6	17.3
2025-01-06 18:08:53.851757	338.6	20.4	-92.7	6.5
2025-01-06 18:08:56.156315	338.5	20.1	-92.2	8.3
2025-01-06 18:08:58.467651	338.3	19.8	-91.4	5.3
2025-01-06 18:09:00.763727	338.2	19.5	-92.3	10.7
2025-01-06 18:09:03.075242	338.0	19.3	-92.1	6.0
2025-01-06 18:09:05.383221	337.9	19.0	-90.5	7.2
2025-01-06 18:09:07.690803	337.7	18.7	-92.1	8.5
2025-01-06 18:09:10.001103	337.6	18.4	-92.7	6.2
2025-01-06 18:09:12.309406	337.5	18.2	-92.2	14.0
2025-01-06 18:09:14.624800	337.3	17.9	-92.7	12.0
2025-01-06 18:09:16.946569	337.2	17.6	-93.3	11.6
2025-01-06 18:09:19.256333	337.1	17.4	-92.3	3.7
2025-01-06 18:09:21.580148	337.0	17.1	-93.2	4.3
2025-01-06 18:09:23.901203	336.8	16.9	-92.6	6.0
2025-01-06 18:09:26.210441	336.7	16.6	-92.6	8.7
2025-01-06 18:09:28.508970	336.6	16.4	-93.0	4.4
2025-01-06 18:09:30.842295	336.5	16.1	-93.2	5.0
2025-01-06 18:09:33.144022	336.4	15.9	-92.7	3.9
2025-01-06 18:09:35.452620	336.2	15.6	-93.1	9.3
2025-01-06 18:09:37.762211	336.1	15.4	-93.3	5.0
2025-01-06 18:09:40.069336	336.0	15.2	-92.6	3.3
2025-01-06 18:09:42.374335	335.9	14.9	-92.3	3.4
2025-01-06 18:09:44.684192	335.8	14.7	-93.1	3.9
#Closed at: 2025-01-06 18:00:41.647634