passes_logs/2025/01/06/LEX_Murmansk/LEX_Murmansk__20250106_105503_NOAA_19_rec.log

#Pass ID: 20250106_105503_NOAA 19
#Satellite: NOAA 19
#Configuration: NOAA 19
#Start time: 2025-01-06 10:54:58.233513

#LorettStation: 1.0.0 05.05.2024
#Station: LEX_Murmansk
#Location: 33.156738 lon 68.926811 lat
#TLE: 1 33591U 09005A   25005.80039681  .00000456  00000+0  26725-3 0  9991
#TLE: 2 33591  99.0212  69.4911 0014675  82.0274 278.2563 14.13252095819982

#Time	Az	El	Level	SNR
2025-01-06 10:55:12.337574	23.6	16.3	-90.7	2.8
2025-01-06 10:55:13.502284	23.5	16.4	-90.6	2.6
2025-01-06 10:55:14.660172	23.3	16.6	-90.9	3.5
2025-01-06 10:55:15.823842	23.2	16.7	-90.3	3.5
2025-01-06 10:55:16.999413	23.1	16.8	-90.8	3.8
2025-01-06 10:55:18.162153	22.9	16.9	-90.6	1.6
2025-01-06 10:55:19.321764	22.8	17.0	-90.7	1.2
2025-01-06 10:55:20.486266	22.7	17.1	-90.8	2.4
2025-01-06 10:55:21.657405	22.5	17.2	-90.7	4.0
2025-01-06 10:55:22.815363	22.4	17.4	-90.5	3.5
2025-01-06 10:55:23.973451	22.2	17.5	-90.9	7.6
2025-01-06 10:55:25.132901	22.1	17.6	-90.7	4.7
2025-01-06 10:55:26.301544	22.0	17.7	-90.2	2.6
2025-01-06 10:55:27.464220	21.8	17.8	-90.9	2.9
2025-01-06 10:55:28.628170	21.7	17.9	-91.1	4.9
2025-01-06 10:55:29.792859	21.5	18.0	-90.7	3.6
2025-01-06 10:55:30.960803	21.4	18.2	-90.8	5.4
2025-01-06 10:55:32.121151	21.2	18.3	-90.6	6.9
2025-01-06 10:55:33.282561	21.1	18.4	-90.8	8.4
2025-01-06 10:55:34.446779	20.9	18.5	-91.3	8.0
2025-01-06 10:55:35.611386	20.8	18.6	-91.3	6.8
2025-01-06 10:55:36.779192	20.6	18.8	-91.1	2.3
2025-01-06 10:55:37.940432	20.5	18.9	-91.2	6.6
2025-01-06 10:55:39.099854	20.3	19.0	-91.2	7.0
2025-01-06 10:55:40.264879	20.2	19.1	-90.9	6.8
2025-01-06 10:55:41.428938	20.0	19.2	-91.1	7.0
2025-01-06 10:55:42.595730	19.9	19.4	-91.1	7.8
2025-01-06 10:55:43.761884	19.7	19.5	-90.7	2.4
2025-01-06 10:55:44.929571	19.5	19.6	-91.3	1.9
2025-01-06 10:55:46.093974	19.4	19.7	-91.1	2.7
2025-01-06 10:55:47.257850	19.2	19.8	-90.9	2.3
2025-01-06 10:55:48.426354	19.1	20.0	-90.6	3.1
2025-01-06 10:55:49.585922	18.9	20.1	-90.8	3.5
2025-01-06 10:55:50.749474	18.7	20.2	-90.6	8.0
2025-01-06 10:55:51.908959	18.6	20.3	-91.0	8.8
2025-01-06 10:55:53.063374	18.4	20.5	-90.7	6.6
2025-01-06 10:55:54.223216	18.2	20.6	-90.7	6.1
2025-01-06 10:55:55.391096	18.0	20.7	-90.9	4.3
2025-01-06 10:55:56.556699	17.9	20.8	-91.2	5.7
2025-01-06 10:55:57.722321	17.7	21.0	-91.3	5.9
2025-01-06 10:55:58.883767	17.5	21.1	-91.2	8.5
2025-01-06 10:56:00.051716	17.3	21.2	-90.9	8.1
2025-01-06 10:56:01.196056	17.2	21.3	-91.1	5.9
2025-01-06 10:56:02.356765	17.0	21.5	-90.9	3.4
2025-01-06 10:56:03.522775	16.8	21.6	-91.1	4.5
2025-01-06 10:56:04.686798	16.6	21.7	-91.2	3.1
2025-01-06 10:56:05.857153	16.4	21.9	-91.0	1.3
2025-01-06 10:56:07.012134	16.2	22.0	-91.2	3.2
2025-01-06 10:56:08.181255	16.0	22.1	-90.8	3.8
2025-01-06 10:56:09.338102	15.9	22.2	-90.6	3.7
2025-01-06 10:56:10.507353	15.7	22.4	-91.4	6.5
2025-01-06 10:56:11.670667	15.5	22.5	-91.2	5.4
2025-01-06 10:56:12.833807	15.3	22.6	-90.8	4.0
2025-01-06 10:56:13.986381	15.1	22.8	-91.1	5.5
2025-01-06 10:56:15.145368	14.9	22.9	-90.9	5.8
2025-01-06 10:56:16.309913	14.7	23.0	-90.7	6.0
2025-01-06 10:56:17.724617	14.4	23.2	-91.0	3.5
2025-01-06 10:56:18.877206	14.2	23.3	-91.0	10.6
2025-01-06 10:56:20.044881	14.0	23.4	-91.1	8.4
2025-01-06 10:56:21.210332	13.8	23.6	-90.7	6.0
2025-01-06 10:56:22.371791	13.6	23.7	-90.7	3.3
2025-01-06 10:56:23.538812	13.4	23.8	-91.2	4.2
2025-01-06 10:56:24.702988	13.2	24.0	-91.1	2.4
2025-01-06 10:56:25.866573	13.0	24.1	-91.0	5.2
2025-01-06 10:56:27.028461	12.8	24.2	-91.3	4.6
2025-01-06 10:56:28.195608	12.5	24.4	-90.7	2.8
2025-01-06 10:56:29.352916	12.3	24.5	-90.4	6.8
2025-01-06 10:56:30.516527	12.1	24.6	-90.8	5.4
2025-01-06 10:56:31.682191	11.9	24.8	-91.1	6.4
2025-01-06 10:56:32.849884	11.6	24.9	-91.3	5.2
2025-01-06 10:56:34.011439	11.4	25.0	-91.4	7.3
2025-01-06 10:56:35.179782	11.2	25.2	-91.1	3.2
2025-01-06 10:56:36.342066	10.9	25.3	-90.8	4.4
2025-01-06 10:56:37.506598	10.7	25.4	-90.7	7.3
2025-01-06 10:56:38.674488	10.5	25.6	-91.2	8.7
2025-01-06 10:56:39.835177	10.2	25.7	-90.9	10.5
2025-01-06 10:56:40.994426	10.0	25.8	-91.0	8.6
2025-01-06 10:56:42.154745	9.8	26.0	-90.8	4.8
2025-01-06 10:56:43.320923	9.5	26.1	-91.2	1.8
2025-01-06 10:56:44.484757	9.3	26.2	-91.5	2.8
2025-01-06 10:56:45.641317	9.0	26.4	-91.5	2.6
2025-01-06 10:56:46.808291	8.8	26.5	-91.1	1.2
2025-01-06 10:56:47.968222	8.5	26.6	-91.2	4.4
2025-01-06 10:56:49.131029	8.3	26.8	-91.1	6.0
2025-01-06 10:56:50.293073	8.0	26.9	-90.5	5.3
2025-01-06 10:56:51.457065	7.7	27.0	-90.3	5.2
2025-01-06 10:56:52.611701	7.5	27.2	-90.6	6.2
2025-01-06 10:56:53.775221	7.2	27.3	-90.5	3.9
2025-01-06 10:56:54.939411	6.9	27.4	-90.6	2.8
2025-01-06 10:56:56.108205	6.7	27.6	-90.6	4.2
2025-01-06 10:56:57.268576	6.4	27.7	-90.9	2.9
2025-01-06 10:56:58.434422	6.1	27.9	-90.9	4.2
2025-01-06 10:56:59.590560	5.9	28.0	-91.4	5.8
2025-01-06 10:57:00.741198	5.6	28.1	-91.0	4.1
2025-01-06 10:57:01.902986	5.3	28.3	-90.9	4.4
2025-01-06 10:57:03.062801	5.0	28.4	-91.0	4.7
2025-01-06 10:57:04.229737	4.7	28.5	-90.8	2.3
2025-01-06 10:57:05.392418	4.5	28.7	-91.0	2.1
2025-01-06 10:57:06.575062	4.2	28.8	-90.6	1.7
2025-01-06 10:57:07.738500	3.9	28.9	-91.1	3.6
2025-01-06 10:57:08.905539	3.6	29.1	-90.9	2.0
2025-01-06 10:57:10.070955	3.3	29.2	-90.6	3.3
2025-01-06 10:57:11.230700	3.0	29.3	-90.9	2.2
2025-01-06 10:57:12.396640	2.7	29.5	-90.8	5.0
2025-01-06 10:57:13.558315	2.4	29.6	-90.5	6.7
2025-01-06 10:57:14.729847	2.1	29.7	-90.8	4.9
2025-01-06 10:57:15.895309	1.7	29.9	-91.0	7.8
2025-01-06 10:57:17.064549	1.4	30.0	-91.0	6.3
2025-01-06 10:57:18.211317	1.1	30.1	-90.6	4.6
2025-01-06 10:57:19.369486	0.8	30.3	-90.6	2.1
2025-01-06 10:57:20.533507	0.5	30.4	-90.9	3.6
2025-01-06 10:57:21.701383	0.2	30.5	-90.8	3.3
2025-01-06 10:57:22.867126	359.8	30.6	-90.8	5.0
2025-01-06 10:57:24.027069	359.5	30.8	-90.5	8.2
2025-01-06 10:57:25.192118	359.2	30.9	-90.3	8.6
2025-01-06 10:57:26.343281	358.8	31.0	-90.7	9.6
2025-01-06 10:57:27.509708	358.5	31.2	-90.8	5.2
2025-01-06 10:57:28.673558	358.2	31.3	-90.6	6.3
2025-01-06 10:57:29.831847	357.8	31.4	-90.6	4.7
2025-01-06 10:57:30.996251	357.5	31.5	-90.9	1.7
2025-01-06 10:57:32.159084	357.1	31.7	-90.9	3.6
2025-01-06 10:57:33.318844	356.8	31.8	-91.0	0.8
2025-01-06 10:57:34.482977	356.4	31.9	-91.1	3.1
2025-01-06 10:57:35.637741	356.1	32.0	-91.1	5.2
2025-01-06 10:57:36.796347	355.7	32.1	-91.2	4.3
2025-01-06 10:57:37.959259	355.4	32.3	-91.4	7.9
2025-01-06 10:57:39.123492	355.0	32.4	-91.0	7.7
2025-01-06 10:57:40.283966	354.6	32.5	-91.0	10.4
2025-01-06 10:57:41.440800	354.3	32.6	-91.1	9.0
2025-01-06 10:57:42.606155	353.9	32.7	-90.8	7.2
2025-01-06 10:57:43.768994	353.5	32.9	-90.5	6.3
2025-01-06 10:57:44.928122	353.1	33.0	-91.1	5.1
2025-01-06 10:57:46.091690	352.8	33.1	-90.7	5.4
2025-01-06 10:57:47.258447	352.4	33.2	-91.0	2.9
2025-01-06 10:57:48.428504	352.0	33.3	-91.0	5.1
2025-01-06 10:57:49.602125	351.6	33.4	-90.9	5.7
2025-01-06 10:57:50.764989	351.2	33.5	-90.8	6.9
2025-01-06 10:57:51.940909	350.8	33.7	-91.0	9.6
2025-01-06 10:57:53.105610	350.4	33.8	-90.7	8.1
2025-01-06 10:57:54.269475	350.0	33.9	-90.8	9.9
2025-01-06 10:57:55.434662	349.6	34.0	-91.0	9.4
2025-01-06 10:57:56.602869	349.2	34.1	-90.9	9.2
2025-01-06 10:57:57.760266	348.8	34.2	-90.6	2.8
2025-01-06 10:57:58.922647	348.4	34.3	-90.6	5.3
2025-01-06 10:58:00.086376	348.0	34.4	-90.7	3.9
2025-01-06 10:58:01.240826	347.6	34.5	-91.1	3.1
2025-01-06 10:58:02.398541	347.2	34.6	-91.0	1.5
2025-01-06 10:58:03.565408	346.8	34.7	-91.0	3.5
2025-01-06 10:58:04.730284	346.3	34.8	-91.0	2.7
2025-01-06 10:58:05.898009	345.9	34.9	-91.0	3.5
2025-01-06 10:58:07.061551	345.5	35.0	-90.8	5.5
2025-01-06 10:58:08.224364	345.0	35.1	-91.1	7.6
2025-01-06 10:58:09.388782	344.6	35.1	-91.0	6.4
2025-01-06 10:58:10.548378	344.2	35.2	-91.1	7.4
2025-01-06 10:58:11.711233	343.8	35.3	-91.2	9.0
2025-01-06 10:58:12.874333	343.3	35.4	-91.0	9.2
2025-01-06 10:58:14.040176	342.9	35.5	-91.0	9.4
2025-01-06 10:58:15.195089	342.4	35.6	-90.9	8.2
2025-01-06 10:58:16.367626	342.0	35.6	-90.9	8.4
2025-01-06 10:58:17.525521	341.5	35.7	-91.2	10.4
2025-01-06 10:58:18.683124	341.1	35.8	-91.6	7.0
2025-01-06 10:58:19.840940	340.6	35.9	-90.5	3.3
2025-01-06 10:58:21.007602	340.2	35.9	-91.2	5.5
2025-01-06 10:58:22.172132	339.7	36.0	-91.1	4.8
2025-01-06 10:58:23.332377	339.3	36.1	-91.1	6.6
2025-01-06 10:58:24.499212	338.8	36.1	-91.0	6.3
2025-01-06 10:58:25.664936	338.4	36.2	-91.0	5.2
2025-01-06 10:58:26.832459	337.9	36.3	-91.2	7.7
2025-01-06 10:58:27.993801	337.4	36.3	-91.0	11.1
2025-01-06 10:58:29.161478	337.0	36.4	-90.9	9.1
2025-01-06 10:58:30.316578	336.5	36.4	-91.0	8.5
2025-01-06 10:58:31.479892	336.0	36.5	-90.9	10.0
2025-01-06 10:58:32.648114	335.6	36.5	-90.8	9.3
2025-01-06 10:58:33.805938	335.1	36.6	-90.9	8.3
2025-01-06 10:58:34.976273	334.6	36.6	-90.9	7.8
2025-01-06 10:58:36.136377	334.1	36.7	-90.5	4.7
2025-01-06 10:58:37.302231	333.7	36.7	-90.9	4.5
2025-01-06 10:58:38.447207	333.2	36.8	-90.9	5.5
2025-01-06 10:58:39.566828	332.7	36.8	-91.3	4.6
2025-01-06 10:58:40.687543	332.3	36.8	-91.0	3.2
2025-01-06 10:58:41.808816	331.8	36.9	-91.0	2.9
2025-01-06 10:58:42.928942	331.3	36.9	-90.9	4.1
2025-01-06 10:58:44.049851	330.9	36.9	-91.0	3.2
2025-01-06 10:58:45.169909	330.4	37.0	-91.3	4.1
2025-01-06 10:58:46.294191	330.0	37.0	-90.7	1.7
2025-01-06 10:58:47.432713	329.5	37.0	-90.9	3.1
2025-01-06 10:58:48.578451	329.0	37.0	-91.1	3.4
2025-01-06 10:58:49.707724	328.5	37.0	-90.7	1.6
2025-01-06 10:58:50.828902	328.1	37.1	-91.0	3.0
2025-01-06 10:58:51.977341	327.6	37.1	-90.7	3.2
2025-01-06 10:58:53.128412	327.1	37.1	-90.6	6.4
2025-01-06 10:58:54.284317	326.6	37.1	-90.5	7.7
2025-01-06 10:58:55.444853	326.1	37.1	-91.3	9.7
2025-01-06 10:58:56.602083	325.6	37.1	-91.1	10.4
2025-01-06 10:58:57.764395	325.2	37.1	-90.8	11.2
2025-01-06 10:58:58.913467	324.7	37.1	-91.3	10.8
2025-01-06 10:59:00.068546	324.2	37.1	-90.8	5.7
2025-01-06 10:59:01.218801	323.7	37.1	-90.8	6.8
2025-01-06 10:59:02.381002	323.2	37.1	-91.2	7.5
2025-01-06 10:59:03.540543	322.7	37.1	-91.2	10.7
2025-01-06 10:59:04.708404	322.2	37.1	-90.6	11.7
2025-01-06 10:59:05.868498	321.8	37.1	-91.2	9.8
2025-01-06 10:59:07.032655	321.3	37.0	-90.9	11.3
2025-01-06 10:59:08.195453	320.8	37.0	-90.5	8.9
2025-01-06 10:59:09.358694	320.3	37.0	-90.7	8.0
2025-01-06 10:59:10.511961	319.8	37.0	-90.9	11.6
2025-01-06 10:59:11.681457	319.3	36.9	-91.5	4.4
2025-01-06 10:59:12.842171	318.9	36.9	-91.1	7.6
2025-01-06 10:59:14.010082	318.4	36.9	-91.4	8.9
2025-01-06 10:59:15.172352	317.9	36.9	-90.8	6.4
2025-01-06 10:59:16.339971	317.4	36.8	-91.2	4.5
2025-01-06 10:59:17.506178	316.9	36.8	-91.1	4.3
2025-01-06 10:59:18.668948	316.5	36.7	-90.5	3.6
2025-01-06 10:59:19.826992	316.0	36.7	-91.2	5.0
2025-01-06 10:59:20.992190	315.5	36.7	-91.0	7.4
2025-01-06 10:59:22.150650	315.0	36.6	-90.8	5.0
2025-01-06 10:59:23.311369	314.6	36.6	-90.8	5.5
2025-01-06 10:59:24.477506	314.1	36.5	-91.2	5.7
2025-01-06 10:59:25.640551	313.6	36.5	-91.3	4.8
2025-01-06 10:59:26.802130	313.2	36.4	-90.8	4.7
2025-01-06 10:59:27.967465	312.7	36.3	-90.8	6.8
2025-01-06 10:59:29.131230	312.2	36.3	-90.6	7.0
2025-01-06 10:59:30.292642	311.8	36.2	-90.9	5.0
2025-01-06 10:59:31.458120	311.3	36.2	-91.3	6.8
2025-01-06 10:59:32.627521	310.8	36.1	-90.9	5.9
2025-01-06 10:59:33.787399	310.4	36.0	-90.7	3.2
2025-01-06 10:59:34.942702	309.9	36.0	-90.9	3.6
2025-01-06 10:59:36.107814	309.5	35.9	-91.1	3.5
2025-01-06 10:59:37.253171	309.0	35.8	-90.8	2.3
2025-01-06 10:59:38.419181	308.6	35.7	-91.0	3.1
2025-01-06 10:59:39.587413	308.1	35.7	-91.1	4.1
2025-01-06 10:59:40.738018	307.7	35.6	-91.2	2.5
2025-01-06 10:59:41.895443	307.2	35.5	-91.2	3.9
2025-01-06 10:59:43.059846	306.8	35.4	-90.7	4.5
2025-01-06 10:59:44.230766	306.4	35.3	-90.8	2.1
2025-01-06 10:59:45.399701	305.9	35.3	-91.2	4.5
2025-01-06 10:59:46.567601	305.5	35.2	-91.1	4.0
2025-01-06 10:59:47.726704	305.1	35.1	-91.2	3.7
2025-01-06 10:59:48.886831	304.6	35.0	-90.8	3.7
2025-01-06 10:59:50.047001	304.2	34.9	-90.8	2.3
2025-01-06 10:59:51.209010	303.8	34.8	-90.5	3.7
2025-01-06 10:59:52.375172	303.4	34.7	-90.5	3.4
2025-01-06 10:59:53.532277	302.9	34.6	-90.5	5.3
2025-01-06 10:59:54.687601	302.5	34.5	-90.9	2.5
2025-01-06 10:59:55.849073	302.1	34.4	-90.9	2.2
2025-01-06 10:59:57.013333	301.7	34.3	-91.0	3.1
2025-01-06 10:59:58.180871	301.3	34.2	-90.9	1.1
2025-01-06 10:59:59.337394	300.9	34.1	-90.4	2.3
2025-01-06 11:00:00.487707	300.5	34.0	-90.1	4.1
2025-01-06 11:00:01.650182	300.1	33.9	-90.8	4.2
2025-01-06 11:00:02.817579	299.7	33.8	-90.8	4.1
2025-01-06 11:00:03.982747	299.3	33.7	-90.9	4.1
2025-01-06 11:00:05.159971	298.9	33.6	-90.9	3.3
2025-01-06 11:00:06.326363	298.5	33.5	-90.4	1.0
2025-01-06 11:00:07.492709	298.1	33.4	-90.8	3.0
2025-01-06 11:00:08.661091	297.7	33.2	-91.0	1.7
2025-01-06 11:00:09.825368	297.3	33.1	-91.0	3.0
2025-01-06 11:00:10.981386	297.0	33.0	-91.0	4.9
2025-01-06 11:00:12.144011	296.6	32.9	-91.0	1.6
2025-01-06 11:00:13.302340	296.2	32.8	-90.7	3.0
2025-01-06 11:00:14.466637	295.8	32.7	-90.5	3.4
2025-01-06 11:00:15.635894	295.5	32.6	-90.9	3.5
2025-01-06 11:00:16.805894	295.1	32.4	-90.5	4.6
2025-01-06 11:00:17.967735	294.7	32.3	-90.9	4.8
2025-01-06 11:00:19.129638	294.4	32.2	-90.6	4.2
2025-01-06 11:00:20.290527	294.0	32.1	-90.5	3.7
2025-01-06 11:00:21.457017	293.6	31.9	-91.0	7.7
2025-01-06 11:00:22.614109	293.3	31.8	-90.6	3.6
2025-01-06 11:00:23.782848	292.9	31.7	-91.0	6.6
2025-01-06 11:00:24.944346	292.6	31.6	-90.7	5.0
2025-01-06 11:00:26.103857	292.3	31.4	-90.8	7.0
2025-01-06 11:00:27.274104	291.9	31.3	-90.4	5.0
2025-01-06 11:00:28.432547	291.6	31.2	-90.3	6.6
2025-01-06 11:00:29.597028	291.2	31.1	-90.0	4.9
2025-01-06 11:00:30.755809	290.9	30.9	-91.3	8.2
2025-01-06 11:00:31.918181	290.6	30.8	-91.6	7.2
2025-01-06 11:00:33.083045	290.2	30.7	-91.2	5.8
2025-01-06 11:00:34.246487	289.9	30.6	-90.9	3.1
2025-01-06 11:00:35.411705	289.6	30.4	-90.4	5.3
2025-01-06 11:00:36.576327	289.3	30.3	-90.8	4.5
2025-01-06 11:00:37.743288	288.9	30.2	-90.5	2.8
2025-01-06 11:00:38.908134	288.6	30.0	-90.4	4.1
2025-01-06 11:00:40.069596	288.3	29.9	-90.7	5.3
2025-01-06 11:00:41.234650	288.0	29.8	-90.9	5.5
2025-01-06 11:00:42.396018	287.7	29.6	-90.8	5.7
2025-01-06 11:00:43.561177	287.4	29.5	-91.0	6.5
2025-01-06 11:00:44.730551	287.1	29.4	-91.1	5.0
2025-01-06 11:00:45.894961	286.8	29.2	-91.0	5.1
2025-01-06 11:00:47.056629	286.5	29.1	-90.7	7.0
2025-01-06 11:00:48.218497	286.2	29.0	-90.5	4.9
2025-01-06 11:00:49.381035	285.9	28.8	-90.8	5.8
2025-01-06 11:00:50.541579	285.6	28.7	-90.6	2.2
2025-01-06 11:00:51.707497	285.3	28.6	-90.7	5.8
2025-01-06 11:00:52.876090	285.0	28.4	-90.7	5.4
2025-01-06 11:00:54.039456	284.7	28.3	-90.9	7.2
2025-01-06 11:00:55.204730	284.5	28.2	-90.4	6.6
2025-01-06 11:00:56.373145	284.2	28.0	-90.2	7.5
2025-01-06 11:00:57.537739	283.9	27.9	-90.7	6.0
2025-01-06 11:00:58.705538	283.6	27.8	-91.0	6.8
2025-01-06 11:00:59.870838	283.4	27.6	-91.0	6.2
2025-01-06 11:01:01.021963	283.1	27.5	-91.4	7.9
2025-01-06 11:01:02.184125	282.8	27.4	-90.7	6.6
2025-01-06 11:01:03.351411	282.6	27.2	-90.9	8.4
2025-01-06 11:01:04.517326	282.3	27.1	-91.2	4.5
2025-01-06 11:01:05.681328	282.0	26.9	-91.2	4.8
2025-01-06 11:01:06.847730	281.8	26.8	-91.0	1.9
2025-01-06 11:01:08.012500	281.5	26.7	-91.4	5.8
2025-01-06 11:01:09.181013	281.3	26.5	-90.7	2.8
2025-01-06 11:01:10.337610	281.0	26.4	-90.6	2.2
2025-01-06 11:01:11.497097	280.8	26.3	-91.0	5.3
2025-01-06 11:01:12.661714	280.5	26.1	-91.5	2.7
2025-01-06 11:01:13.825544	280.3	26.0	-91.2	2.4
2025-01-06 11:01:14.991165	280.0	25.9	-90.9	4.7
2025-01-06 11:01:16.155438	279.8	25.7	-91.0	5.1
2025-01-06 11:01:17.323362	279.5	25.6	-91.4	4.9
2025-01-06 11:01:18.488993	279.3	25.5	-91.0	9.7
2025-01-06 11:01:19.654762	279.1	25.3	-91.0	8.0
2025-01-06 11:01:20.814751	278.8	25.2	-90.7	6.7
2025-01-06 11:01:21.981794	278.6	25.1	-90.0	6.7
2025-01-06 11:01:23.152228	278.4	24.9	-89.9	7.9
2025-01-06 11:01:24.316642	278.1	24.8	-89.9	5.8
2025-01-06 11:01:25.472155	277.9	24.7	-90.2	8.4
2025-01-06 11:01:26.635051	277.7	24.5	-90.1	6.1
2025-01-06 11:01:27.802990	277.5	24.4	-90.7	2.9
2025-01-06 11:01:28.967740	277.3	24.3	-90.4	6.4
2025-01-06 11:01:30.145961	277.0	24.1	-90.9	3.4
2025-01-06 11:01:31.306470	276.8	24.0	-90.5	3.0
2025-01-06 11:01:32.472829	276.6	23.9	-90.7	3.7
2025-01-06 11:01:33.636514	276.4	23.7	-91.2	2.1
2025-01-06 11:01:34.801450	276.2	23.6	-91.1	1.9
2025-01-06 11:01:35.968814	276.0	23.5	-90.6	5.6
2025-01-06 11:01:37.133766	275.8	23.3	-90.6	5.0
2025-01-06 11:01:38.302618	275.6	23.2	-90.8	7.0
2025-01-06 11:01:39.466749	275.4	23.1	-90.7	6.6
2025-01-06 11:01:40.629762	275.2	22.9	-91.0	8.9
2025-01-06 11:01:41.794557	275.0	22.8	-90.9	10.2
2025-01-06 11:01:42.958956	274.8	22.7	-90.7	9.4
2025-01-06 11:01:44.126753	274.6	22.5	-90.8	8.8
2025-01-06 11:01:45.293311	274.4	22.4	-90.6	7.4
2025-01-06 11:01:46.463646	274.2	22.3	-91.1	3.4
2025-01-06 11:01:47.633287	274.0	22.2	-91.2	3.3
2025-01-06 11:01:48.800179	273.8	22.0	-90.6	5.2
2025-01-06 11:01:49.965037	273.6	21.9	-91.2	5.1
2025-01-06 11:01:51.132278	273.4	21.8	-90.8	2.2
2025-01-06 11:01:52.291369	273.2	21.6	-90.7	1.7
2025-01-06 11:01:53.455611	273.0	21.5	-91.0	3.6
2025-01-06 11:01:54.611973	272.9	21.4	-91.1	4.3
2025-01-06 11:01:55.780721	272.7	21.3	-91.0	2.0
2025-01-06 11:01:56.943912	272.5	21.1	-91.0	1.5
2025-01-06 11:01:58.110163	272.3	21.0	-90.8	4.2
2025-01-06 11:01:59.274892	272.1	20.9	-90.7	3.9
2025-01-06 11:02:00.429279	272.0	20.8	-90.8	3.1
2025-01-06 11:02:01.586169	271.8	20.6	-91.0	4.2
2025-01-06 11:02:02.751079	271.6	20.5	-90.9	3.3
2025-01-06 11:02:03.916371	271.5	20.4	-90.8	5.3
2025-01-06 11:02:05.084475	271.3	20.3	-91.1	3.6
2025-01-06 11:02:06.250916	271.1	20.1	-90.7	4.0
2025-01-06 11:02:07.413521	271.0	20.0	-90.7	1.0
2025-01-06 11:02:08.578919	270.8	19.9	-91.1	2.4
2025-01-06 11:02:09.738247	270.6	19.8	-91.1	1.7
2025-01-06 11:02:10.890706	270.5	19.7	-91.0	1.5
2025-01-06 11:02:12.053855	270.3	19.5	-91.2	3.4
2025-01-06 11:02:13.219584	270.1	19.4	-90.8	4.8
2025-01-06 11:02:14.386746	270.0	19.3	-91.0	3.5
2025-01-06 11:02:15.549168	269.8	19.2	-90.7	5.3
2025-01-06 11:02:16.713482	269.7	19.0	-91.0	3.1
2025-01-06 11:02:17.878406	269.5	18.9	-91.2	3.6
2025-01-06 11:02:19.045725	269.4	18.8	-90.6	4.1
2025-01-06 11:02:20.209073	269.2	18.7	-90.6	8.7
2025-01-06 11:02:21.370893	269.1	18.6	-90.3	5.3
2025-01-06 11:02:22.533077	268.9	18.4	-90.3	3.1
2025-01-06 11:02:23.701303	268.8	18.3	-90.7	7.4
2025-01-06 11:02:24.863633	268.6	18.2	-90.5	1.5
2025-01-06 11:02:26.027816	268.5	18.1	-90.9	2.2
2025-01-06 11:02:27.195543	268.3	18.0	-90.8	7.3
2025-01-06 11:02:28.360718	268.2	17.9	-90.7	3.5
2025-01-06 11:02:29.528886	268.0	17.7	-90.5	5.2
2025-01-06 11:02:30.687564	267.9	17.6	-90.6	5.2
2025-01-06 11:02:31.843448	267.7	17.5	-90.8	5.3
2025-01-06 11:02:33.006409	267.6	17.4	-90.4	4.8
2025-01-06 11:02:34.168591	267.5	17.3	-90.7	7.1
2025-01-06 11:02:35.331050	267.3	17.2	-90.5	6.3
2025-01-06 11:02:36.495679	267.2	17.1	-90.6	7.1
2025-01-06 11:02:37.661909	267.1	16.9	-91.0	8.4
2025-01-06 11:02:38.826553	266.9	16.8	-91.1	8.4
2025-01-06 11:02:40.003124	266.8	16.7	-90.9	3.9
2025-01-06 11:02:41.162649	266.7	16.6	-90.8	6.9
2025-01-06 11:02:42.330764	266.5	16.5	-90.5	6.3
2025-01-06 11:02:43.497746	266.4	16.4	-90.4	7.9
2025-01-06 11:02:44.662022	266.3	16.3	-91.0	5.6
2025-01-06 11:02:45.828364	266.1	16.1	-90.9	12.2
2025-01-06 11:02:46.991429	266.0	16.0	-90.8	6.1
2025-01-06 11:02:48.155147	265.9	15.9	-90.8	6.9
2025-01-06 11:02:49.318812	265.8	15.8	-90.7	9.7
2025-01-06 11:02:50.483561	265.6	15.7	-91.0	9.8
2025-01-06 11:02:51.640624	265.5	15.6	-90.4	9.6
2025-01-06 11:02:52.798279	265.4	15.5	-90.8	10.1
2025-01-06 11:02:53.965163	265.3	15.4	-90.7	7.7
2025-01-06 11:02:55.131139	265.1	15.3	-91.0	8.6
2025-01-06 11:02:56.295665	265.0	15.2	-90.6	9.4
2025-01-06 11:02:57.455507	264.9	15.1	-90.8	5.3
2025-01-06 11:02:58.621755	264.8	14.9	-90.7	4.7
2025-01-06 11:02:59.784679	264.7	14.8	-90.8	6.5
2025-01-06 11:03:00.934804	264.6	14.7	-91.1	5.1
2025-01-06 11:03:02.095802	264.4	14.6	-91.0	3.2
#Closed at: 2025-01-06 10:55:03.145610