passes_logs/2025/01/06/LEX_Murmansk/LEX_Murmansk__20250106_144235_NOAA_18_rec.log

#Pass ID: 20250106_144235_NOAA 18
#Satellite: NOAA 18
#Configuration: NOAA 18
#Start time: 2025-01-06 14:42:30.805418

#LorettStation: 1.0.0 05.05.2024
#Station: LEX_Murmansk
#Location: 33.156738 lon 68.926811 lat
#TLE: 1 28654U 05018A   25005.81892802  .00000565  00000+0  32357-3 0  9997
#TLE: 2 28654  98.8581  86.9638 0013924 205.2694 154.7799 14.13478522 11802

#Time	Az	El	Level	SNR
2025-01-06 14:42:43.090258	44.3	15.9	-89.3	4.3
2025-01-06 14:42:44.243278	44.1	16.0	-88.9	4.0
2025-01-06 14:42:45.398556	43.9	16.0	-89.2	4.7
2025-01-06 14:42:46.548469	43.8	16.1	-89.3	5.7
2025-01-06 14:42:47.696744	43.6	16.2	-89.4	5.3
2025-01-06 14:42:48.844186	43.4	16.3	-89.5	4.4
2025-01-06 14:42:49.992464	43.2	16.4	-89.3	4.7
2025-01-06 14:42:51.143810	43.0	16.5	-88.9	4.9
2025-01-06 14:42:52.291501	42.8	16.5	-89.1	5.0
2025-01-06 14:42:53.446107	42.6	16.6	-89.7	5.7
2025-01-06 14:42:54.589308	42.4	16.7	-89.3	7.3
2025-01-06 14:42:55.743844	42.2	16.8	-89.6	7.3
2025-01-06 14:42:56.893138	42.0	16.9	-89.9	6.2
2025-01-06 14:42:58.048512	41.8	16.9	-89.4	5.3
2025-01-06 14:42:59.189373	41.6	17.0	-89.2	5.8
2025-01-06 14:43:00.330394	41.5	17.1	-89.7	5.7
2025-01-06 14:43:01.472085	41.3	17.2	-89.5	7.3
2025-01-06 14:43:02.621253	41.1	17.3	-89.4	5.1
2025-01-06 14:43:03.774308	40.9	17.4	-89.5	7.5
2025-01-06 14:43:04.922334	40.6	17.4	-89.6	6.0
2025-01-06 14:43:06.066444	40.4	17.5	-89.5	4.7
2025-01-06 14:43:07.209971	40.2	17.6	-89.5	5.7
2025-01-06 14:43:08.360082	40.0	17.7	-89.6	5.5
2025-01-06 14:43:09.511574	39.8	17.8	-89.7	5.9
2025-01-06 14:43:10.664819	39.6	17.8	-89.4	6.0
2025-01-06 14:43:11.816822	39.4	17.9	-89.5	8.3
2025-01-06 14:43:12.971921	39.2	18.0	-88.9	5.5
2025-01-06 14:43:14.120431	39.0	18.1	-89.6	4.8
2025-01-06 14:43:15.265805	38.8	18.2	-89.3	6.8
2025-01-06 14:43:16.420541	38.6	18.2	-89.5	5.3
2025-01-06 14:43:17.566955	38.4	18.3	-89.6	5.3
2025-01-06 14:43:18.716898	38.1	18.4	-89.5	7.9
2025-01-06 14:43:19.865224	37.9	18.5	-89.8	6.7
2025-01-06 14:43:21.017965	37.7	18.6	-89.4	6.5
2025-01-06 14:43:22.164798	37.5	18.6	-89.4	7.6
2025-01-06 14:43:23.319462	37.3	18.7	-89.2	8.5
2025-01-06 14:43:24.467234	37.0	18.8	-89.2	7.7
2025-01-06 14:43:25.615634	36.8	18.9	-88.8	10.1
2025-01-06 14:43:26.764612	36.6	18.9	-89.0	10.1
2025-01-06 14:43:27.922608	36.4	19.0	-89.3	9.2
2025-01-06 14:43:29.068455	36.1	19.1	-89.0	7.3
2025-01-06 14:43:30.219639	35.9	19.2	-88.6	6.9
2025-01-06 14:43:31.365206	35.7	19.3	-89.1	5.5
2025-01-06 14:43:32.517550	35.5	19.3	-89.6	5.8
2025-01-06 14:43:33.662711	35.2	19.4	-89.5	7.3
2025-01-06 14:43:34.811918	35.0	19.5	-89.0	5.7
2025-01-06 14:43:35.961813	34.8	19.6	-89.4	6.1
2025-01-06 14:43:37.111755	34.5	19.6	-88.8	4.5
2025-01-06 14:43:38.263537	34.3	19.7	-88.8	5.7
2025-01-06 14:43:39.421045	34.1	19.8	-88.9	6.3
2025-01-06 14:43:40.572509	33.8	19.9	-89.7	8.5
2025-01-06 14:43:41.724542	33.6	19.9	-89.5	9.1
2025-01-06 14:43:42.874110	33.3	20.0	-89.8	9.1
2025-01-06 14:43:44.025840	33.1	20.1	-89.8	7.9
2025-01-06 14:43:45.180431	32.9	20.2	-89.6	8.7
2025-01-06 14:43:46.331331	32.6	20.2	-89.2	10.3
2025-01-06 14:43:47.478496	32.4	20.3	-89.6	8.0
2025-01-06 14:43:48.628576	32.1	20.4	-89.8	9.0
2025-01-06 14:43:49.772541	31.9	20.5	-89.4	9.8
2025-01-06 14:43:50.916500	31.6	20.5	-89.8	10.7
2025-01-06 14:43:52.070758	31.4	20.6	-89.5	10.4
2025-01-06 14:43:53.221621	31.1	20.7	-89.2	9.5
2025-01-06 14:43:54.388008	30.9	20.7	-89.8	8.6
2025-01-06 14:43:55.533609	30.6	20.8	-89.9	7.6
2025-01-06 14:43:56.684023	30.4	20.9	-89.4	8.8
2025-01-06 14:43:57.835698	30.1	21.0	-89.6	11.3
2025-01-06 14:43:58.986393	29.8	21.0	-89.8	5.7
2025-01-06 14:44:00.135729	29.6	21.1	-89.7	8.6
2025-01-06 14:44:01.278762	29.3	21.2	-89.6	12.0
2025-01-06 14:44:02.423891	29.1	21.2	-89.2	9.4
2025-01-06 14:44:03.570399	28.8	21.3	-88.9	9.6
2025-01-06 14:44:04.726841	28.6	21.4	-87.1	7.8
2025-01-06 14:44:05.868600	28.3	21.4	-89.2	11.6
2025-01-06 14:44:07.017636	28.0	21.5	-89.0	11.1
2025-01-06 14:44:08.166474	27.8	21.6	-89.0	10.6
2025-01-06 14:44:09.315213	27.5	21.6	-89.3	10.4
2025-01-06 14:44:10.470315	27.2	21.7	-89.5	9.9
2025-01-06 14:44:11.620853	27.0	21.7	-89.8	9.2
2025-01-06 14:44:12.767499	26.7	21.8	-89.6	13.5
2025-01-06 14:44:13.917721	26.4	21.9	-89.0	9.8
2025-01-06 14:44:15.068830	26.1	21.9	-88.9	9.7
2025-01-06 14:44:16.216568	25.9	22.0	-88.8	9.2
2025-01-06 14:44:17.361016	25.6	22.1	-89.0	10.6
2025-01-06 14:44:18.507896	25.3	22.1	-89.0	11.4
2025-01-06 14:44:19.658717	25.0	22.2	-89.4	12.5
2025-01-06 14:44:20.802853	24.8	22.2	-89.2	9.5
2025-01-06 14:44:21.957858	24.5	22.3	-89.0	12.4
2025-01-06 14:44:23.104139	24.2	22.4	-89.4	10.3
2025-01-06 14:44:24.260938	23.9	22.4	-89.4	11.4
2025-01-06 14:44:25.407992	23.6	22.5	-89.6	10.9
2025-01-06 14:44:26.551437	23.4	22.5	-89.6	7.3
2025-01-06 14:44:27.696541	23.1	22.6	-89.9	11.7
2025-01-06 14:44:28.847533	22.8	22.6	-90.0	11.3
2025-01-06 14:44:29.996652	22.5	22.7	-89.6	5.9
2025-01-06 14:44:31.145227	22.2	22.7	-89.3	8.0
2025-01-06 14:44:32.296358	21.9	22.8	-89.7	10.5
2025-01-06 14:44:33.443613	21.6	22.9	-89.6	8.4
2025-01-06 14:44:34.593636	21.4	22.9	-89.8	9.6
2025-01-06 14:44:35.739375	21.1	23.0	-89.9	10.7
2025-01-06 14:44:36.890583	20.8	23.0	-89.8	10.6
2025-01-06 14:44:38.048882	20.5	23.1	-89.5	11.4
2025-01-06 14:44:39.195846	20.2	23.1	-89.5	11.1
2025-01-06 14:44:40.344490	19.9	23.2	-89.4	8.7
2025-01-06 14:44:41.491622	19.6	23.2	-89.8	10.5
2025-01-06 14:44:42.638564	19.3	23.2	-89.6	10.4
2025-01-06 14:44:43.784419	19.0	23.3	-89.4	12.1
2025-01-06 14:44:44.932009	18.7	23.3	-89.8	9.1
2025-01-06 14:44:46.079912	18.4	23.4	-89.6	8.7
2025-01-06 14:44:47.225392	18.1	23.4	-89.2	11.9
2025-01-06 14:44:48.376627	17.8	23.5	-89.5	13.3
2025-01-06 14:44:49.522926	17.5	23.5	-89.8	8.9
2025-01-06 14:44:50.672167	17.2	23.6	-89.6	10.8
2025-01-06 14:44:51.819183	16.9	23.6	-89.6	9.7
2025-01-06 14:44:52.966968	16.6	23.6	-89.8	9.0
2025-01-06 14:44:54.111358	16.3	23.7	-89.5	10.6
2025-01-06 14:44:55.258521	16.0	23.7	-89.1	9.7
2025-01-06 14:44:56.403457	15.7	23.7	-89.6	12.2
2025-01-06 14:44:57.551256	15.4	23.8	-89.7	10.9
2025-01-06 14:44:58.699879	15.1	23.8	-89.6	11.7
2025-01-06 14:44:59.849271	14.8	23.9	-89.8	9.4
2025-01-06 14:45:00.987304	14.5	23.9	-89.7	8.2
2025-01-06 14:45:02.135130	14.2	23.9	-89.3	7.4
2025-01-06 14:45:03.281653	13.8	23.9	-89.5	10.1
2025-01-06 14:45:04.430929	13.5	24.0	-89.6	5.4
2025-01-06 14:45:05.579966	13.2	24.0	-89.7	5.6
2025-01-06 14:45:06.734669	12.9	24.0	-89.7	9.8
2025-01-06 14:45:07.880937	12.6	24.1	-89.8	9.9
2025-01-06 14:45:09.027966	12.3	24.1	-89.4	6.1
2025-01-06 14:45:10.172169	12.0	24.1	-89.5	8.2
2025-01-06 14:45:11.325900	11.7	24.1	-89.4	8.3
2025-01-06 14:45:12.472847	11.3	24.2	-89.8	5.9
2025-01-06 14:45:13.631667	11.0	24.2	-89.7	5.0
2025-01-06 14:45:14.784677	10.7	24.2	-90.0	5.2
2025-01-06 14:45:15.929921	10.4	24.2	-90.1	5.3
2025-01-06 14:45:17.076206	10.1	24.3	-89.6	5.2
2025-01-06 14:45:18.221451	9.8	24.3	-89.6	5.4
2025-01-06 14:45:19.372377	9.4	24.3	-89.6	5.8
2025-01-06 14:45:20.521348	9.1	24.3	-90.0	8.6
2025-01-06 14:45:21.672787	8.8	24.3	-90.0	7.9
2025-01-06 14:45:22.821315	8.5	24.4	-89.7	8.1
2025-01-06 14:45:23.975809	8.2	24.4	-89.6	8.1
2025-01-06 14:45:25.118130	7.8	24.4	-89.7	9.3
2025-01-06 14:45:26.264304	7.5	24.4	-89.5	11.1
2025-01-06 14:45:27.414764	7.2	24.4	-89.4	10.1
2025-01-06 14:45:28.558754	6.9	24.4	-90.0	7.0
2025-01-06 14:45:29.712148	6.6	24.4	-89.8	9.6
2025-01-06 14:45:30.871062	6.2	24.4	-89.7	9.8
2025-01-06 14:45:32.020801	5.9	24.4	-89.7	8.2
2025-01-06 14:45:33.178853	5.6	24.5	-89.5	8.3
2025-01-06 14:45:34.328392	5.3	24.5	-89.5	10.0
2025-01-06 14:45:35.480728	5.0	24.5	-89.7	6.4
2025-01-06 14:45:36.624972	4.6	24.5	-89.9	7.3
2025-01-06 14:45:37.773343	4.3	24.5	-89.5	10.0
2025-01-06 14:45:38.926908	4.0	24.5	-89.9	7.9
2025-01-06 14:45:40.076052	3.7	24.5	-89.9	8.5
2025-01-06 14:45:41.222894	3.4	24.5	-89.6	10.4
2025-01-06 14:45:42.368685	3.0	24.5	-89.4	12.6
2025-01-06 14:45:43.521307	2.7	24.5	-89.8	6.8
2025-01-06 14:45:44.665791	2.4	24.5	-89.7	9.5
2025-01-06 14:45:45.811517	2.1	24.5	-89.8	11.2
2025-01-06 14:45:46.960646	1.8	24.5	-90.0	9.1
2025-01-06 14:45:48.109113	1.4	24.5	-89.6	10.4
2025-01-06 14:45:49.254090	1.1	24.5	-88.9	10.4
2025-01-06 14:45:50.400552	0.8	24.5	-89.8	10.5
2025-01-06 14:45:51.550604	0.5	24.4	-89.7	12.2
2025-01-06 14:45:52.698384	0.1	24.4	-90.0	12.2
2025-01-06 14:45:53.849522	359.8	24.4	-89.6	11.3
2025-01-06 14:45:54.998164	359.5	24.4	-89.3	12.1
2025-01-06 14:45:56.142607	359.2	24.4	-89.3	11.0
2025-01-06 14:45:57.294084	358.9	24.4	-88.9	12.3
2025-01-06 14:45:58.446493	358.5	24.4	-89.2	12.2
2025-01-06 14:45:59.599529	358.2	24.4	-88.9	11.2
2025-01-06 14:46:00.748456	357.9	24.3	-89.4	12.2
2025-01-06 14:46:01.902118	357.6	24.3	-90.0	12.6
2025-01-06 14:46:03.056482	357.3	24.3	-89.9	12.4
2025-01-06 14:46:04.203505	357.0	24.3	-89.4	13.4
2025-01-06 14:46:05.357547	356.6	24.3	-89.5	12.9
2025-01-06 14:46:06.505453	356.3	24.2	-90.2	10.9
2025-01-06 14:46:07.652946	356.0	24.2	-89.8	9.4
2025-01-06 14:46:08.799694	355.7	24.2	-90.0	12.3
2025-01-06 14:46:09.946892	355.4	24.2	-90.1	9.7
2025-01-06 14:46:11.103700	355.1	24.2	-89.7	8.4
2025-01-06 14:46:12.250940	354.7	24.1	-89.6	12.6
2025-01-06 14:46:13.409188	354.4	24.1	-89.9	10.5
2025-01-06 14:46:14.555865	354.1	24.1	-89.8	10.5
2025-01-06 14:46:15.701453	353.8	24.0	-90.0	12.9
2025-01-06 14:46:16.845537	353.5	24.0	-89.6	15.1
2025-01-06 14:46:17.994075	353.2	24.0	-89.6	7.3
2025-01-06 14:46:19.149045	352.9	24.0	-89.4	9.4
2025-01-06 14:46:20.307550	352.5	23.9	-89.5	12.7
2025-01-06 14:46:21.462323	352.2	23.9	-90.0	8.2
2025-01-06 14:46:22.612430	351.9	23.9	-89.8	7.5
2025-01-06 14:46:23.767735	351.6	23.8	-89.8	11.3
2025-01-06 14:46:24.921310	351.3	23.8	-89.6	7.7
2025-01-06 14:46:26.063661	351.0	23.8	-89.5	5.8
2025-01-06 14:46:27.214587	350.7	23.7	-89.7	9.0
2025-01-06 14:46:28.367902	350.4	23.7	-89.5	9.4
2025-01-06 14:46:29.516828	350.1	23.6	-89.6	5.5
2025-01-06 14:46:30.670897	349.8	23.6	-89.5	7.5
2025-01-06 14:46:31.820069	349.5	23.6	-89.6	11.9
2025-01-06 14:46:32.966965	349.2	23.5	-89.1	6.5
2025-01-06 14:46:34.112653	348.9	23.5	-89.1	8.1
2025-01-06 14:46:35.262127	348.6	23.4	-88.9	11.8
2025-01-06 14:46:36.409255	348.3	23.4	-89.5	9.0
2025-01-06 14:46:37.555542	348.0	23.3	-89.2	6.4
2025-01-06 14:46:38.709996	347.7	23.3	-89.2	10.2
2025-01-06 14:46:39.861787	347.4	23.3	-89.2	9.0
2025-01-06 14:46:41.010988	347.1	23.2	-89.6	5.9
2025-01-06 14:46:42.160753	346.8	23.2	-89.5	6.1
2025-01-06 14:46:43.305410	346.5	23.1	-89.3	6.9
2025-01-06 14:46:44.457274	346.2	23.1	-89.8	6.3
2025-01-06 14:46:45.605180	345.9	23.0	-89.7	5.7
2025-01-06 14:46:46.751987	345.6	23.0	-89.6	8.9
2025-01-06 14:46:47.903494	345.3	22.9	-89.7	10.4
2025-01-06 14:46:49.054209	345.0	22.9	-89.5	6.9
2025-01-06 14:46:50.202108	344.7	22.8	-89.5	8.7
2025-01-06 14:46:51.346670	344.4	22.8	-89.5	5.7
2025-01-06 14:46:52.497529	344.2	22.7	-89.9	5.0
2025-01-06 14:46:53.652820	343.9	22.6	-89.8	3.5
2025-01-06 14:46:54.808497	343.6	22.6	-89.6	8.4
2025-01-06 14:46:55.959798	343.3	22.5	-90.0	7.3
2025-01-06 14:46:57.113827	343.0	22.5	-89.3	7.3
2025-01-06 14:46:58.264187	342.7	22.4	-89.4	10.9
2025-01-06 14:46:59.416759	342.4	22.4	-89.7	7.8
2025-01-06 14:47:00.561382	342.2	22.3	-89.7	6.6
2025-01-06 14:47:01.715146	341.9	22.2	-89.6	11.2
2025-01-06 14:47:02.872962	341.6	22.2	-90.0	11.1
2025-01-06 14:47:04.018878	341.3	22.1	-89.6	4.9
2025-01-06 14:47:05.165949	341.0	22.1	-89.6	7.5
2025-01-06 14:47:06.311762	340.8	22.0	-89.5	10.7
2025-01-06 14:47:07.460352	340.5	21.9	-89.5	7.5
2025-01-06 14:47:08.616150	340.2	21.9	-89.8	7.2
2025-01-06 14:47:09.767928	340.0	21.8	-89.7	9.6
2025-01-06 14:47:10.921900	339.7	21.8	-89.8	5.7
2025-01-06 14:47:12.069014	339.4	21.7	-89.8	9.4
2025-01-06 14:47:13.215732	339.1	21.6	-89.4	11.4
2025-01-06 14:47:14.363072	338.9	21.6	-89.8	11.0
2025-01-06 14:47:15.515093	338.6	21.5	-89.8	9.5
2025-01-06 14:47:16.667228	338.3	21.4	-90.0	8.1
2025-01-06 14:47:17.819428	338.1	21.4	-89.5	8.7
2025-01-06 14:47:18.979526	337.8	21.3	-89.7	5.6
2025-01-06 14:47:20.138554	337.5	21.2	-89.7	8.4
2025-01-06 14:47:21.289133	337.3	21.2	-89.4	8.5
2025-01-06 14:47:22.437494	337.0	21.1	-89.9	7.4
2025-01-06 14:47:23.593940	336.8	21.0	-89.8	6.6
2025-01-06 14:47:24.743986	336.5	21.0	-90.2	6.7
2025-01-06 14:47:25.892052	336.3	20.9	-89.6	3.0
2025-01-06 14:47:27.042297	336.0	20.8	-89.4	5.6
2025-01-06 14:47:28.197091	335.7	20.7	-89.5	5.8
2025-01-06 14:47:29.349434	335.5	20.7	-89.7	5.6
2025-01-06 14:47:30.503003	335.2	20.6	-89.7	5.0
2025-01-06 14:47:31.654128	335.0	20.5	-89.8	5.3
2025-01-06 14:47:32.803066	334.7	20.5	-89.9	5.3
2025-01-06 14:47:33.958689	334.5	20.4	-89.9	5.3
2025-01-06 14:47:35.103677	334.2	20.3	-89.6	6.2
2025-01-06 14:47:36.251159	334.0	20.2	-89.4	7.7
2025-01-06 14:47:37.400864	333.8	20.2	-89.5	5.7
2025-01-06 14:47:38.550536	333.5	20.1	-89.8	6.0
2025-01-06 14:47:39.698952	333.3	20.0	-89.6	5.8
2025-01-06 14:47:40.842542	333.0	19.9	-89.7	6.3
2025-01-06 14:47:41.999138	332.8	19.9	-89.8	5.0
2025-01-06 14:47:43.148703	332.5	19.8	-89.7	4.3
2025-01-06 14:47:44.301397	332.3	19.7	-89.5	5.9
2025-01-06 14:47:45.449277	332.1	19.6	-89.7	3.7
2025-01-06 14:47:46.596962	331.8	19.6	-89.9	4.2
2025-01-06 14:47:47.746186	331.6	19.5	-89.9	5.3
2025-01-06 14:47:48.893510	331.4	19.4	-90.0	6.5
2025-01-06 14:47:50.061956	331.1	19.3	-89.6	3.7
2025-01-06 14:47:51.207448	330.9	19.3	-89.4	4.3
2025-01-06 14:47:52.359315	330.7	19.2	-89.4	4.5
2025-01-06 14:47:53.513934	330.5	19.1	-89.7	4.3
2025-01-06 14:47:54.661683	330.2	19.0	-89.4	6.4
2025-01-06 14:47:55.816016	330.0	18.9	-89.5	6.4
2025-01-06 14:47:56.961626	329.8	18.9	-89.2	5.0
2025-01-06 14:47:58.118923	329.5	18.8	-89.0	4.8
2025-01-06 14:47:59.266776	329.3	18.7	-89.2	4.8
2025-01-06 14:48:00.409010	329.1	18.6	-89.3	7.0
2025-01-06 14:48:01.554444	328.9	18.6	-90.0	4.6
2025-01-06 14:48:02.701468	328.7	18.5	-90.2	6.7
2025-01-06 14:48:03.857094	328.4	18.4	-90.2	5.8
2025-01-06 14:48:05.005901	328.2	18.3	-89.8	6.3
2025-01-06 14:48:06.154929	328.0	18.2	-89.4	3.8
2025-01-06 14:48:07.304690	327.8	18.2	-89.7	3.1
2025-01-06 14:48:08.451821	327.6	18.1	-89.7	5.3
2025-01-06 14:48:09.602478	327.4	18.0	-90.0	6.3
2025-01-06 14:48:10.752106	327.2	17.9	-89.6	3.3
2025-01-06 14:48:11.905747	327.0	17.8	-89.9	5.9
2025-01-06 14:48:13.050644	326.7	17.8	-89.9	3.2
2025-01-06 14:48:14.206140	326.5	17.7	-89.5	6.3
2025-01-06 14:48:15.360388	326.3	17.6	-89.6	4.2
2025-01-06 14:48:16.512378	326.1	17.5	-90.1	4.7
2025-01-06 14:48:17.656742	325.9	17.4	-90.1	4.5
2025-01-06 14:48:18.805705	325.7	17.3	-89.5	5.7
2025-01-06 14:48:19.956850	325.5	17.3	-90.1	5.0
2025-01-06 14:48:21.101089	325.3	17.2	-89.8	4.7
2025-01-06 14:48:22.252289	325.1	17.1	-89.6	4.7
2025-01-06 14:48:23.399749	324.9	17.0	-89.9	5.5
2025-01-06 14:48:24.548590	324.7	16.9	-89.9	3.6
2025-01-06 14:48:25.700427	324.5	16.9	-89.9	4.2
2025-01-06 14:48:26.855426	324.3	16.8	-89.8	6.5
2025-01-06 14:48:28.000805	324.1	16.7	-89.5	4.5
2025-01-06 14:48:29.135518	323.9	16.6	-89.1	6.0
2025-01-06 14:48:30.288992	323.8	16.5	-89.2	6.4
2025-01-06 14:48:31.439943	323.6	16.4	-89.4	6.2
2025-01-06 14:48:32.588606	323.4	16.4	-89.4	6.4
2025-01-06 14:48:33.739856	323.2	16.3	-89.2	4.6
2025-01-06 14:48:34.898936	323.0	16.2	-90.1	7.7
2025-01-06 14:48:36.045949	322.8	16.1	-89.9	5.2
2025-01-06 14:48:37.187997	322.6	16.0	-89.4	5.9
2025-01-06 14:48:38.338736	322.4	15.9	-89.7	6.7
2025-01-06 14:48:39.487222	322.2	15.9	-89.7	4.7
2025-01-06 14:48:40.641879	322.1	15.8	-90.1	5.8
2025-01-06 14:48:41.789473	321.9	15.7	-89.6	6.8
2025-01-06 14:48:42.935693	321.7	15.6	-89.8	6.0
2025-01-06 14:48:44.080691	321.5	15.5	-89.8	5.5
2025-01-06 14:48:45.227466	321.3	15.5	-89.5	6.7
2025-01-06 14:48:46.392924	321.2	15.4	-89.9	4.2
2025-01-06 14:48:47.535991	321.0	15.3	-89.9	4.3
2025-01-06 14:48:48.702265	320.8	15.2	-89.7	3.6
2025-01-06 14:48:49.849709	320.6	15.1	-89.9	10.0
2025-01-06 14:48:50.997746	320.5	15.0	-90.1	6.0
2025-01-06 14:48:52.151798	320.3	15.0	-89.9	5.3
2025-01-06 14:48:53.290020	320.1	14.9	-89.7	6.7
2025-01-06 14:48:54.439828	319.9	14.8	-90.2	5.9
2025-01-06 14:48:55.590917	319.8	14.7	-89.7	7.1
2025-01-06 14:48:56.765856	319.6	14.6	-90.1	4.8
#Closed at: 2025-01-06 14:42:35.892237