passes_logs/2025/01/06/LEX_Murmansk/LEX_Murmansk__20250106_155341_NOAA_19_rec.log

#Pass ID: 20250106_155341_NOAA 19
#Satellite: NOAA 19
#Configuration: NOAA 19
#Start time: 2025-01-06 15:53:36.067684

#LorettStation: 1.0.0 05.05.2024
#Station: LEX_Murmansk
#Location: 33.156738 lon 68.926811 lat
#TLE: 1 33591U 09005A   25005.80039681  .00000456  00000+0  26725-3 0  9991
#TLE: 2 33591  99.0212  69.4911 0014675  82.0274 278.2563 14.13252095819982

#Time	Az	El	Level	SNR
2025-01-06 15:53:48.238019	98.8	16.2	-90.7	4.8
2025-01-06 15:53:49.388485	98.7	16.3	-90.3	3.7
2025-01-06 15:53:50.550054	98.6	16.4	-90.2	2.6
2025-01-06 15:53:51.704854	98.4	16.5	-90.7	9.7
2025-01-06 15:53:52.856332	98.3	16.6	-90.5	8.3
2025-01-06 15:53:54.008351	98.2	16.7	-90.5	10.3
2025-01-06 15:53:55.159955	98.1	16.9	-90.4	10.4
2025-01-06 15:53:56.316224	97.9	17.0	-90.4	7.2
2025-01-06 15:53:57.473183	97.8	17.1	-90.5	6.4
2025-01-06 15:53:58.629822	97.7	17.2	-89.9	6.1
2025-01-06 15:53:59.787065	97.6	17.3	-90.4	11.3
2025-01-06 15:54:00.928616	97.4	17.4	-90.1	12.3
2025-01-06 15:54:02.084056	97.3	17.6	-90.6	10.0
2025-01-06 15:54:03.248922	97.2	17.7	-90.6	6.5
2025-01-06 15:54:04.396887	97.0	17.8	-90.6	6.2
2025-01-06 15:54:05.558562	96.9	17.9	-90.7	2.7
2025-01-06 15:54:06.713994	96.8	18.0	-90.8	2.8
2025-01-06 15:54:07.868218	96.6	18.2	-90.7	5.6
2025-01-06 15:54:09.023444	96.5	18.3	-90.8	6.6
2025-01-06 15:54:10.175992	96.4	18.4	-90.5	9.0
2025-01-06 15:54:11.339382	96.2	18.5	-90.4	13.8
2025-01-06 15:54:12.496591	96.1	18.6	-90.6	6.7
2025-01-06 15:54:13.661315	96.0	18.8	-91.0	7.1
2025-01-06 15:54:14.817347	95.8	18.9	-90.8	6.6
2025-01-06 15:54:15.977007	95.7	19.0	-91.0	5.8
2025-01-06 15:54:17.134796	95.5	19.1	-91.1	6.5
2025-01-06 15:54:18.289918	95.4	19.3	-90.9	6.7
2025-01-06 15:54:19.445554	95.2	19.4	-90.8	7.8
2025-01-06 15:54:20.601311	95.1	19.5	-91.0	5.0
2025-01-06 15:54:21.756000	94.9	19.6	-91.2	4.4
2025-01-06 15:54:22.909277	94.8	19.8	-91.6	3.1
2025-01-06 15:54:24.060846	94.6	19.9	-91.2	2.6
2025-01-06 15:54:25.218010	94.5	20.0	-91.4	3.8
2025-01-06 15:54:26.374097	94.3	20.1	-91.3	3.5
2025-01-06 15:54:27.530337	94.2	20.3	-90.6	1.6
2025-01-06 15:54:28.684553	94.0	20.4	-90.9	4.0
2025-01-06 15:54:29.840809	93.9	20.5	-91.2	3.4
2025-01-06 15:54:30.997534	93.7	20.7	-91.0	2.3
2025-01-06 15:54:32.154858	93.5	20.8	-91.2	4.8
2025-01-06 15:54:33.311394	93.4	20.9	-91.1	3.3
2025-01-06 15:54:34.470945	93.2	21.0	-90.8	4.0
2025-01-06 15:54:35.624450	93.1	21.2	-91.2	7.4
2025-01-06 15:54:36.779312	92.9	21.3	-91.4	5.4
2025-01-06 15:54:37.939440	92.7	21.4	-91.4	7.3
2025-01-06 15:54:39.088680	92.6	21.6	-91.6	3.0
2025-01-06 15:54:40.245852	92.4	21.7	-91.1	2.0
2025-01-06 15:54:41.399495	92.2	21.8	-91.2	4.7
2025-01-06 15:54:42.565476	92.0	22.0	-91.1	0.3
2025-01-06 15:54:43.721498	91.9	22.1	-91.2	3.0
2025-01-06 15:54:44.876457	91.7	22.2	-91.0	4.6
2025-01-06 15:54:46.025191	91.5	22.4	-90.9	4.0
2025-01-06 15:54:47.174207	91.3	22.5	-91.2	6.2
2025-01-06 15:54:48.326562	91.2	22.6	-91.0	6.9
2025-01-06 15:54:49.477117	91.0	22.8	-90.7	3.3
2025-01-06 15:54:50.628878	90.8	22.9	-91.0	3.3
2025-01-06 15:54:51.782714	90.6	23.0	-91.1	3.9
2025-01-06 15:54:52.935785	90.4	23.2	-91.4	3.8
2025-01-06 15:54:54.088002	90.2	23.3	-91.5	4.8
2025-01-06 15:54:55.238401	90.0	23.5	-91.0	0.9
2025-01-06 15:54:56.389403	89.8	23.6	-91.0	2.1
2025-01-06 15:54:57.540323	89.7	23.7	-91.0	2.4
2025-01-06 15:54:58.697667	89.5	23.9	-90.8	2.8
2025-01-06 15:54:59.853184	89.3	24.0	-91.0	3.8
2025-01-06 15:55:00.991699	89.1	24.1	-90.5	2.7
2025-01-06 15:55:02.142039	88.9	24.3	-90.8	2.5
2025-01-06 15:55:03.294850	88.7	24.4	-90.8	2.3
2025-01-06 15:55:04.444704	88.5	24.6	-91.1	2.0
2025-01-06 15:55:05.599772	88.3	24.7	-91.2	3.2
2025-01-06 15:55:06.748347	88.0	24.8	-91.1	4.9
2025-01-06 15:55:07.899981	87.8	25.0	-90.9	2.1
2025-01-06 15:55:09.057223	87.6	25.1	-90.7	4.6
2025-01-06 15:55:10.221806	87.4	25.3	-90.7	3.8
2025-01-06 15:55:11.378930	87.2	25.4	-90.8	6.9
2025-01-06 15:55:12.543322	87.0	25.5	-91.0	3.2
2025-01-06 15:55:13.699056	86.7	25.7	-90.9	2.7
2025-01-06 15:55:14.850659	86.5	25.8	-91.2	4.6
2025-01-06 15:55:16.009475	86.3	26.0	-91.2	6.0
2025-01-06 15:55:17.167186	86.1	26.1	-91.3	5.2
2025-01-06 15:55:18.319048	85.8	26.3	-91.4	3.5
2025-01-06 15:55:19.471842	85.6	26.4	-91.1	2.8
2025-01-06 15:55:20.625772	85.4	26.6	-91.6	3.9
2025-01-06 15:55:21.776327	85.2	26.7	-91.4	2.3
2025-01-06 15:55:22.923608	84.9	26.8	-91.4	1.6
2025-01-06 15:55:24.079243	84.7	27.0	-91.3	1.8
2025-01-06 15:55:25.234684	84.4	27.1	-91.5	5.0
2025-01-06 15:55:26.393124	84.2	27.3	-91.3	6.5
2025-01-06 15:55:27.546443	83.9	27.4	-90.9	7.3
2025-01-06 15:55:28.695358	83.7	27.6	-91.1	6.8
2025-01-06 15:55:29.848461	83.5	27.7	-91.4	6.8
2025-01-06 15:55:30.997405	83.2	27.9	-91.6	5.4
2025-01-06 15:55:32.146825	82.9	28.0	-91.5	6.5
2025-01-06 15:55:33.300844	82.7	28.1	-91.2	9.4
2025-01-06 15:55:34.457855	82.4	28.3	-90.8	9.1
2025-01-06 15:55:35.620052	82.2	28.4	-91.3	11.3
2025-01-06 15:55:36.774830	81.9	28.6	-91.2	11.5
2025-01-06 15:55:37.919815	81.6	28.7	-91.3	7.7
2025-01-06 15:55:39.071854	81.4	28.9	-90.8	6.3
2025-01-06 15:55:40.232123	81.1	29.0	-90.5	5.2
2025-01-06 15:55:41.381741	80.8	29.2	-90.3	6.6
2025-01-06 15:55:42.540773	80.6	29.3	-90.1	4.1
2025-01-06 15:55:43.697118	80.3	29.5	-89.9	4.5
2025-01-06 15:55:44.849902	80.0	29.6	-90.2	1.8
2025-01-06 15:55:46.000472	79.7	29.8	-90.1	5.3
2025-01-06 15:55:47.156961	79.4	29.9	-90.2	8.4
2025-01-06 15:55:48.308951	79.1	30.0	-90.3	10.0
2025-01-06 15:55:49.464305	78.8	30.2	-90.1	10.9
2025-01-06 15:55:50.623829	78.5	30.3	-90.0	10.0
2025-01-06 15:55:51.778159	78.2	30.5	-90.2	7.6
2025-01-06 15:55:52.930564	77.9	30.6	-90.1	5.3
2025-01-06 15:55:54.091034	77.6	30.8	-90.1	3.5
2025-01-06 15:55:55.239912	77.3	30.9	-90.5	10.4
2025-01-06 15:55:56.390625	77.0	31.1	-90.9	10.1
2025-01-06 15:55:57.550973	76.7	31.2	-90.9	7.8
2025-01-06 15:55:58.705910	76.4	31.4	-90.9	14.6
2025-01-06 15:55:59.861201	76.1	31.5	-90.8	12.5
2025-01-06 15:56:01.002989	75.8	31.6	-91.0	9.8
2025-01-06 15:56:02.156810	75.4	31.8	-91.0	4.0
2025-01-06 15:56:03.309832	75.1	31.9	-91.1	5.4
2025-01-06 15:56:04.470180	74.8	32.1	-90.8	4.3
2025-01-06 15:56:05.616511	74.5	32.2	-91.1	2.9
2025-01-06 15:56:06.766123	74.1	32.4	-91.1	5.1
2025-01-06 15:56:07.914840	73.8	32.5	-90.9	6.5
2025-01-06 15:56:09.070847	73.5	32.6	-91.1	8.5
2025-01-06 15:56:10.223892	73.1	32.8	-91.1	13.3
2025-01-06 15:56:11.379295	72.8	32.9	-91.0	20.1
2025-01-06 15:56:12.538943	72.4	33.1	-90.8	18.2
2025-01-06 15:56:13.692082	72.1	33.2	-91.2	12.1
2025-01-06 15:56:14.847726	71.7	33.3	-90.7	14.1
2025-01-06 15:56:16.000351	71.4	33.5	-91.0	8.6
2025-01-06 15:56:17.156363	71.0	33.6	-90.7	9.5
2025-01-06 15:56:18.308256	70.6	33.7	-90.9	11.2
2025-01-06 15:56:19.464126	70.3	33.9	-90.3	7.5
2025-01-06 15:56:20.620938	69.9	34.0	-90.7	10.5
2025-01-06 15:56:21.775847	69.5	34.2	-90.8	14.3
2025-01-06 15:56:22.932046	69.1	34.3	-91.1	13.7
2025-01-06 15:56:24.086369	68.8	34.4	-91.1	14.3
2025-01-06 15:56:25.237700	68.4	34.5	-90.8	12.9
2025-01-06 15:56:26.391155	68.0	34.7	-90.6	14.0
2025-01-06 15:56:27.541275	67.6	34.8	-90.8	8.3
2025-01-06 15:56:28.696525	67.2	34.9	-91.1	6.2
2025-01-06 15:56:29.855147	66.8	35.1	-91.0	6.5
2025-01-06 15:56:31.010384	66.4	35.2	-91.1	5.6
2025-01-06 15:56:32.162515	66.0	35.3	-91.2	5.4
2025-01-06 15:56:33.313963	65.6	35.4	-90.8	8.4
2025-01-06 15:56:34.468718	65.2	35.6	-90.7	6.6
2025-01-06 15:56:35.623050	64.8	35.7	-90.6	7.8
2025-01-06 15:56:36.779910	64.4	35.8	-90.1	9.3
2025-01-06 15:56:37.932648	64.0	35.9	-90.3	9.6
2025-01-06 15:56:39.082049	63.6	36.0	-90.5	11.1
2025-01-06 15:56:40.236139	63.1	36.2	-90.5	13.9
2025-01-06 15:56:41.384058	62.7	36.3	-90.0	12.3
2025-01-06 15:56:42.531554	62.3	36.4	-90.1	14.2
2025-01-06 15:56:43.689892	61.8	36.5	-90.2	12.1
2025-01-06 15:56:44.842276	61.4	36.6	-90.3	13.9
2025-01-06 15:56:46.006262	61.0	36.7	-90.2	7.9
2025-01-06 15:56:47.154409	60.5	36.8	-90.5	9.2
2025-01-06 15:56:48.308805	60.1	36.9	-91.2	12.4
2025-01-06 15:56:49.462136	59.6	37.0	-90.5	7.2
2025-01-06 15:56:50.616453	59.2	37.1	-90.7	9.4
2025-01-06 15:56:51.775672	58.7	37.2	-91.1	12.7
2025-01-06 15:56:52.927237	58.3	37.3	-91.2	13.3
2025-01-06 15:56:54.088680	57.8	37.4	-91.0	14.0
2025-01-06 15:56:55.244546	57.4	37.5	-91.0	15.4
2025-01-06 15:56:56.396842	56.9	37.6	-90.5	15.7
2025-01-06 15:56:57.556186	56.4	37.7	-90.5	15.9
2025-01-06 15:56:58.709067	56.0	37.8	-90.8	12.6
2025-01-06 15:56:59.868968	55.5	37.9	-91.3	9.8
2025-01-06 15:57:01.017432	55.0	38.0	-90.9	8.3
2025-01-06 15:57:02.178903	54.5	38.1	-91.2	8.1
2025-01-06 15:57:03.333084	54.1	38.2	-91.2	8.4
2025-01-06 15:57:04.489104	53.6	38.2	-90.7	1.1
2025-01-06 15:57:05.644634	53.1	38.3	-90.4	4.3
2025-01-06 15:57:06.798709	52.6	38.4	-90.3	4.7
2025-01-06 15:57:07.958834	52.1	38.5	-91.1	3.2
2025-01-06 15:57:09.116134	51.6	38.5	-90.7	3.9
2025-01-06 15:57:10.276881	51.1	38.6	-90.9	7.5
2025-01-06 15:57:11.422058	50.7	38.7	-91.1	7.4
2025-01-06 15:57:12.578764	50.2	38.7	-90.9	8.0
2025-01-06 15:57:13.735484	49.7	38.8	-90.7	10.9
2025-01-06 15:57:14.892872	49.2	38.9	-90.9	13.1
2025-01-06 15:57:16.044722	48.7	38.9	-90.6	14.2
2025-01-06 15:57:17.194947	48.2	39.0	-89.9	14.5
2025-01-06 15:57:18.344373	47.7	39.0	-90.0	15.7
2025-01-06 15:57:19.496392	47.1	39.1	-90.2	16.1
2025-01-06 15:57:20.659462	46.6	39.1	-90.3	15.2
2025-01-06 15:57:21.809813	46.1	39.2	-90.2	14.1
2025-01-06 15:57:22.966916	45.6	39.2	-90.5	9.7
2025-01-06 15:57:24.125721	45.1	39.2	-90.5	10.8
2025-01-06 15:57:25.277761	44.6	39.3	-90.0	7.4
2025-01-06 15:57:26.430996	44.1	39.3	-90.0	8.7
2025-01-06 15:57:27.589312	43.6	39.4	-90.2	5.7
2025-01-06 15:57:28.747185	43.0	39.4	-89.8	8.2
2025-01-06 15:57:29.902463	42.5	39.4	-90.3	7.6
2025-01-06 15:57:31.060109	42.0	39.4	-90.2	2.6
2025-01-06 15:57:32.218394	41.5	39.5	-90.5	7.9
2025-01-06 15:57:33.374952	41.0	39.5	-90.3	8.6
2025-01-06 15:57:34.532418	40.4	39.5	-90.4	6.3
2025-01-06 15:57:35.687009	39.9	39.5	-90.6	6.8
2025-01-06 15:57:36.843394	39.4	39.5	-90.8	7.3
2025-01-06 15:57:37.999871	38.9	39.5	-90.3	7.6
2025-01-06 15:57:39.152875	38.4	39.5	-91.1	13.3
2025-01-06 15:57:40.307064	37.8	39.5	-91.0	10.7
2025-01-06 15:57:41.462392	37.3	39.5	-90.8	7.0
2025-01-06 15:57:42.613334	36.8	39.5	-90.6	8.7
2025-01-06 15:57:43.765640	36.3	39.5	-90.8	9.4
2025-01-06 15:57:44.919973	35.7	39.5	-90.7	14.7
2025-01-06 15:57:46.073284	35.2	39.5	-90.1	15.3
2025-01-06 15:57:47.223113	34.7	39.5	-90.8	15.0
2025-01-06 15:57:48.373977	34.2	39.5	-90.3	12.5
2025-01-06 15:57:49.532034	33.7	39.5	-90.7	14.3
2025-01-06 15:57:50.682070	33.2	39.4	-90.3	13.4
2025-01-06 15:57:51.831028	32.6	39.4	-90.9	14.1
2025-01-06 15:57:52.982295	32.1	39.4	-90.4	13.4
2025-01-06 15:57:54.131502	31.6	39.4	-90.7	10.9
2025-01-06 15:57:55.281709	31.1	39.3	-91.2	16.1
2025-01-06 15:57:56.430593	30.6	39.3	-90.5	11.6
2025-01-06 15:57:57.584642	30.1	39.2	-90.4	8.3
2025-01-06 15:57:58.727710	29.6	39.2	-90.8	10.0
2025-01-06 15:57:59.880777	29.1	39.2	-91.1	10.6
2025-01-06 15:58:01.032002	28.5	39.1	-90.8	9.5
2025-01-06 15:58:02.181439	28.0	39.1	-90.9	11.6
2025-01-06 15:58:03.337837	27.5	39.0	-90.3	10.6
2025-01-06 15:58:04.492674	27.0	39.0	-90.7	8.8
2025-01-06 15:58:05.638061	26.5	38.9	-90.3	8.6
2025-01-06 15:58:06.790276	26.0	38.9	-90.4	9.7
2025-01-06 15:58:07.941207	25.5	38.8	-89.7	3.1
2025-01-06 15:58:09.097208	25.0	38.7	-90.0	5.5
2025-01-06 15:58:10.247935	24.5	38.7	-90.2	8.6
2025-01-06 15:58:11.400487	24.0	38.6	-90.0	7.9
2025-01-06 15:58:12.561451	23.5	38.5	-89.8	5.9
2025-01-06 15:58:13.715476	23.1	38.5	-90.2	6.0
2025-01-06 15:58:14.868648	22.6	38.4	-90.3	8.4
2025-01-06 15:58:16.034836	22.1	38.3	-90.1	6.0
2025-01-06 15:58:17.186601	21.6	38.2	-90.3	6.0
2025-01-06 15:58:18.331506	21.1	38.2	-89.8	5.3
2025-01-06 15:58:19.484281	20.6	38.1	-90.2	6.2
2025-01-06 15:58:20.633965	20.2	38.0	-89.7	8.6
2025-01-06 15:58:21.780189	19.7	37.9	-90.5	9.0
2025-01-06 15:58:22.942312	19.2	37.8	-89.6	5.7
2025-01-06 15:58:24.096213	18.8	37.7	-90.3	5.2
2025-01-06 15:58:25.248844	18.3	37.6	-90.5	8.4
2025-01-06 15:58:26.408879	17.8	37.5	-90.3	7.6
2025-01-06 15:58:27.567712	17.4	37.4	-90.3	5.3
2025-01-06 15:58:28.731977	16.9	37.4	-90.0	7.1
2025-01-06 15:58:29.883064	16.5	37.3	-90.3	9.5
2025-01-06 15:58:31.041886	16.0	37.2	-90.3	4.1
2025-01-06 15:58:32.194583	15.6	37.0	-91.1	7.3
2025-01-06 15:58:33.341807	15.1	36.9	-90.7	7.8
2025-01-06 15:58:34.497976	14.7	36.8	-90.7	5.1
2025-01-06 15:58:35.646761	14.2	36.7	-90.6	6.2
2025-01-06 15:58:36.799025	13.8	36.6	-90.7	9.1
2025-01-06 15:58:37.952118	13.4	36.5	-90.7	6.6
2025-01-06 15:58:39.079250	12.9	36.4	-90.8	6.7
2025-01-06 15:58:40.199349	12.5	36.3	-90.9	7.1
2025-01-06 15:58:41.319736	12.1	36.2	-91.0	7.4
2025-01-06 15:58:42.440367	11.7	36.1	-90.6	8.2
2025-01-06 15:58:43.561664	11.3	36.0	-90.6	8.9
2025-01-06 15:58:44.681966	10.9	35.8	-90.7	11.9
2025-01-06 15:58:45.803315	10.5	35.7	-90.8	11.9
2025-01-06 15:58:46.937131	10.1	35.6	-91.1	10.8
2025-01-06 15:58:48.096988	9.7	35.5	-91.7	10.6
2025-01-06 15:58:49.258721	9.3	35.4	-91.4	12.2
2025-01-06 15:58:50.414040	8.9	35.2	-90.6	11.9
2025-01-06 15:58:51.567140	8.5	35.1	-90.9	10.4
2025-01-06 15:58:52.720594	8.1	35.0	-91.0	12.9
2025-01-06 15:58:53.878599	7.7	34.8	-91.0	13.0
2025-01-06 15:58:55.032180	7.3	34.7	-91.4	14.7
2025-01-06 15:58:56.182751	6.9	34.6	-91.1	13.6
2025-01-06 15:58:57.327254	6.5	34.5	-91.0	14.3
2025-01-06 15:58:58.481498	6.1	34.3	-91.0	11.1
2025-01-06 15:58:59.639467	5.8	34.2	-90.8	11.7
2025-01-06 15:59:00.782920	5.4	34.1	-91.1	13.4
2025-01-06 15:59:01.933182	5.0	33.9	-91.4	10.4
2025-01-06 15:59:03.087665	4.7	33.8	-91.5	12.4
2025-01-06 15:59:04.239600	4.3	33.7	-91.1	14.0
2025-01-06 15:59:05.392282	3.9	33.5	-91.1	14.5
2025-01-06 15:59:06.543913	3.6	33.4	-90.9	7.4
2025-01-06 15:59:07.693888	3.2	33.2	-91.5	5.4
2025-01-06 15:59:08.850303	2.9	33.1	-91.1	6.7
2025-01-06 15:59:10.009567	2.5	33.0	-91.4	3.2
2025-01-06 15:59:11.159761	2.2	32.8	-91.1	5.0
2025-01-06 15:59:12.314940	1.8	32.7	-90.9	5.5
2025-01-06 15:59:13.472217	1.5	32.5	-91.2	4.6
2025-01-06 15:59:14.619376	1.2	32.4	-90.9	2.8
2025-01-06 15:59:15.770334	0.8	32.3	-91.3	4.2
2025-01-06 15:59:16.920678	0.5	32.1	-91.3	3.9
2025-01-06 15:59:18.073237	0.2	32.0	-91.1	2.6
2025-01-06 15:59:19.223634	359.8	31.8	-91.2	4.8
2025-01-06 15:59:20.370949	359.5	31.7	-91.1	7.3
2025-01-06 15:59:21.528503	359.2	31.6	-90.8	2.5
2025-01-06 15:59:22.679923	358.9	31.4	-90.9	3.5
2025-01-06 15:59:23.836156	358.6	31.3	-90.9	7.4
2025-01-06 15:59:24.992737	358.3	31.1	-91.0	4.4
2025-01-06 15:59:26.147788	358.0	31.0	-91.2	8.1
2025-01-06 15:59:27.298853	357.7	30.8	-91.2	5.6
2025-01-06 15:59:28.452922	357.3	30.7	-91.1	6.5
2025-01-06 15:59:29.604211	357.0	30.5	-91.1	3.4
2025-01-06 15:59:30.758479	356.8	30.4	-91.4	9.5
2025-01-06 15:59:31.916733	356.5	30.2	-90.9	6.0
2025-01-06 15:59:33.062901	356.2	30.1	-91.1	10.3
2025-01-06 15:59:34.210569	355.9	30.0	-91.3	9.0
2025-01-06 15:59:35.362909	355.6	29.8	-91.1	7.8
2025-01-06 15:59:36.528025	355.3	29.7	-90.7	9.2
2025-01-06 15:59:37.684369	355.0	29.5	-91.0	8.1
2025-01-06 15:59:38.832928	354.7	29.4	-90.8	8.8
2025-01-06 15:59:39.988228	354.5	29.2	-91.0	6.2
2025-01-06 15:59:41.147471	354.2	29.1	-91.3	4.1
2025-01-06 15:59:42.294541	353.9	28.9	-90.2	5.4
2025-01-06 15:59:43.447309	353.7	28.8	-90.3	4.6
2025-01-06 15:59:44.606241	353.4	28.6	-90.3	5.1
2025-01-06 15:59:45.763911	353.1	28.5	-90.4	4.8
2025-01-06 15:59:46.909505	352.9	28.4	-90.2	4.4
2025-01-06 15:59:48.066483	352.6	28.2	-90.4	2.6
2025-01-06 15:59:49.223294	352.3	28.1	-90.4	5.3
2025-01-06 15:59:50.386572	352.1	27.9	-90.2	6.1
2025-01-06 15:59:51.542085	351.8	27.8	-89.8	5.3
2025-01-06 15:59:52.698231	351.6	27.6	-90.3	8.0
2025-01-06 15:59:53.851172	351.3	27.5	-90.3	7.2
2025-01-06 15:59:55.005144	351.1	27.3	-91.0	7.3
2025-01-06 15:59:56.154693	350.9	27.2	-91.1	7.8
2025-01-06 15:59:57.308855	350.6	27.0	-91.4	7.5
2025-01-06 15:59:58.465351	350.4	26.9	-91.2	11.3
2025-01-06 15:59:59.615804	350.1	26.8	-90.9	10.6
2025-01-06 16:00:00.761895	349.9	26.6	-91.2	11.2
2025-01-06 16:00:01.914072	349.7	26.5	-91.5	10.9
2025-01-06 16:00:03.073756	349.4	26.3	-91.6	6.5
2025-01-06 16:00:04.226280	349.2	26.2	-91.3	7.6
2025-01-06 16:00:05.379942	349.0	26.0	-91.3	7.8
2025-01-06 16:00:06.514934	348.8	25.9	-91.0	4.1
2025-01-06 16:00:07.665673	348.5	25.8	-91.2	5.5
2025-01-06 16:00:08.817802	348.3	25.6	-91.1	5.4
2025-01-06 16:00:09.968922	348.1	25.5	-91.0	4.0
2025-01-06 16:00:11.122247	347.9	25.3	-91.3	2.2
2025-01-06 16:00:12.277964	347.7	25.2	-91.3	4.0
2025-01-06 16:00:13.432004	347.5	25.1	-91.1	5.1
2025-01-06 16:00:14.579706	347.3	24.9	-90.8	4.8
2025-01-06 16:00:15.733820	347.0	24.8	-91.3	4.5
2025-01-06 16:00:16.890348	346.8	24.6	-90.9	10.0
2025-01-06 16:00:18.038878	346.6	24.5	-91.2	9.8
2025-01-06 16:00:19.199700	346.4	24.4	-90.7	10.5
2025-01-06 16:00:20.349154	346.2	24.2	-91.4	9.9
2025-01-06 16:00:21.503207	346.0	24.1	-91.2	9.7
2025-01-06 16:00:22.657665	345.8	23.9	-91.2	7.9
2025-01-06 16:00:23.811950	345.6	23.8	-91.5	11.2
2025-01-06 16:00:24.966077	345.4	23.7	-91.0	5.3
2025-01-06 16:00:26.117239	345.3	23.5	-91.1	6.0
2025-01-06 16:00:27.268902	345.1	23.4	-91.1	6.3
2025-01-06 16:00:28.422339	344.9	23.3	-91.4	3.2
2025-01-06 16:00:29.572471	344.7	23.1	-91.2	4.3
2025-01-06 16:00:30.738830	344.5	23.0	-91.3	4.4
2025-01-06 16:00:31.886489	344.3	22.8	-91.0	8.9
2025-01-06 16:00:33.042927	344.1	22.7	-91.0	7.5
2025-01-06 16:00:34.208559	344.0	22.6	-91.4	6.7
2025-01-06 16:00:35.365798	343.8	22.4	-91.4	9.7
2025-01-06 16:00:36.523028	343.6	22.3	-91.3	9.3
2025-01-06 16:00:37.681305	343.4	22.2	-91.0	10.0
2025-01-06 16:00:38.828655	343.2	22.0	-91.4	13.0
2025-01-06 16:00:39.975948	343.1	21.9	-91.5	5.8
2025-01-06 16:00:41.137933	342.9	21.8	-91.6	10.5
2025-01-06 16:00:42.288739	342.7	21.6	-91.1	7.4
2025-01-06 16:00:43.443062	342.6	21.5	-90.7	4.4
2025-01-06 16:00:44.595693	342.4	21.4	-90.5	3.1
2025-01-06 16:00:45.746457	342.2	21.3	-90.9	4.9
2025-01-06 16:00:46.896259	342.1	21.1	-91.0	5.0
2025-01-06 16:00:48.050217	341.9	21.0	-91.0	1.1
2025-01-06 16:00:49.208133	341.7	20.9	-90.9	3.2
2025-01-06 16:00:50.361330	341.6	20.7	-90.2	1.7
2025-01-06 16:00:51.518795	341.4	20.6	-90.6	1.8
2025-01-06 16:00:52.678956	341.3	20.5	-90.1	2.7
2025-01-06 16:00:53.830950	341.1	20.4	-90.1	1.8
2025-01-06 16:00:54.984682	341.0	20.2	-90.4	0.8
2025-01-06 16:00:56.144536	340.8	20.1	-90.3	5.2
2025-01-06 16:00:57.296143	340.7	20.0	-90.6	3.3
2025-01-06 16:00:58.452226	340.5	19.8	-90.2	2.1
2025-01-06 16:00:59.607294	340.4	19.7	-90.2	2.2
2025-01-06 16:01:00.747862	340.2	19.6	-90.0	2.3
2025-01-06 16:01:01.901563	340.1	19.5	-90.0	4.1
2025-01-06 16:01:03.058949	339.9	19.3	-90.1	3.5
2025-01-06 16:01:04.213720	339.8	19.2	-90.1	2.0
2025-01-06 16:01:05.371356	339.6	19.1	-90.1	0.5
2025-01-06 16:01:06.523898	339.5	19.0	-90.3	2.0
2025-01-06 16:01:07.678563	339.3	18.9	-90.8	2.1
2025-01-06 16:01:08.829716	339.2	18.7	-90.6	2.2
2025-01-06 16:01:09.991617	339.1	18.6	-91.0	3.2
2025-01-06 16:01:11.148915	338.9	18.5	-91.1	2.6
2025-01-06 16:01:12.308118	338.8	18.4	-91.0	4.3
2025-01-06 16:01:13.460683	338.7	18.2	-90.4	3.1
2025-01-06 16:01:14.612717	338.5	18.1	-90.7	1.2
2025-01-06 16:01:15.764664	338.4	18.0	-90.7	3.5
2025-01-06 16:01:16.917100	338.3	17.9	-90.3	2.3
2025-01-06 16:01:18.068823	338.1	17.8	-90.9	2.6
2025-01-06 16:01:19.226101	338.0	17.6	-91.1	2.9
2025-01-06 16:01:20.379294	337.9	17.5	-90.7	1.3
2025-01-06 16:01:21.530830	337.7	17.4	-91.0	2.6
2025-01-06 16:01:22.690355	337.6	17.3	-91.0	1.4
2025-01-06 16:01:23.841561	337.5	17.2	-90.9	2.5
2025-01-06 16:01:24.993741	337.4	17.1	-91.2	0.9
2025-01-06 16:01:26.143759	337.2	16.9	-90.8	1.7
2025-01-06 16:01:27.296497	337.1	16.8	-90.8	2.3
2025-01-06 16:01:28.450429	337.0	16.7	-90.6	1.2
2025-01-06 16:01:29.600939	336.9	16.6	-90.7	1.6
2025-01-06 16:01:30.757718	336.8	16.5	-91.1	3.2
2025-01-06 16:01:31.910778	336.6	16.4	-91.3	0.9
2025-01-06 16:01:33.063079	336.5	16.3	-91.2	1.7
2025-01-06 16:01:34.231514	336.4	16.1	-91.2	1.3
2025-01-06 16:01:35.388021	336.3	16.0	-91.1	2.4
2025-01-06 16:01:36.536178	336.2	15.9	-90.8	1.2
2025-01-06 16:01:37.700003	336.0	15.8	-90.8	2.2
2025-01-06 16:01:38.964489	335.9	15.7	-91.6	0.0
2025-01-06 16:01:40.113577	335.8	15.6	-91.1	2.3
2025-01-06 16:01:41.264971	335.7	15.5	-91.3	2.7
2025-01-06 16:01:42.422579	335.6	15.4	-91.1	1.3
2025-01-06 16:01:43.577096	335.5	15.2	-91.3	2.2
2025-01-06 16:01:44.730858	335.4	15.1	-91.4	3.0
2025-01-06 16:01:45.876623	335.3	15.0	-91.5	1.2
2025-01-06 16:01:47.024112	335.2	14.9	-91.5	2.4
2025-01-06 16:01:48.174996	335.0	14.8	-91.0	2.8
2025-01-06 16:01:49.323181	334.9	14.7	-91.1	4.9
2025-01-06 16:01:50.472875	334.8	14.6	-91.0	2.8
2025-01-06 16:01:51.643825	334.7	14.5	-90.6	2.8
#Closed at: 2025-01-06 15:53:41.034982