passes_logs/2025/01/06/LEX_Murmansk/LEX_Murmansk__20250106_173327_NOAA_19_rec.log

#Pass ID: 20250106_173327_NOAA 19
#Satellite: NOAA 19
#Configuration: NOAA 19
#Start time: 2025-01-06 17:33:22.624473

#LorettStation: 1.0.0 05.05.2024
#Station: LEX_Murmansk
#Location: 33.156738 lon 68.926811 lat
#TLE: 1 33591U 09005A   25005.80039681  .00000456  00000+0  26725-3 0  9991
#TLE: 2 33591  99.0212  69.4911 0014675  82.0274 278.2563 14.13252095819982

#Time	Az	El	Level	SNR
2025-01-06 17:33:42.837610	147.7	17.2	-91.9	4.4
2025-01-06 17:33:45.145860	147.7	17.5	-92.3	2.8
2025-01-06 17:33:47.447887	147.7	17.8	-92.4	1.4
2025-01-06 17:33:49.757406	147.7	18.1	-92.6	2.3
2025-01-06 17:33:52.064380	147.7	18.3	-92.3	5.5
2025-01-06 17:33:54.366440	147.7	18.6	-92.4	4.1
2025-01-06 17:33:56.678876	147.6	18.9	-92.7	7.1
2025-01-06 17:33:58.983259	147.6	19.2	-92.0	8.5
2025-01-06 17:34:01.280727	147.6	19.5	-92.2	2.1
2025-01-06 17:34:03.590314	147.6	19.8	-92.6	3.1
2025-01-06 17:34:05.893097	147.6	20.1	-92.3	6.2
2025-01-06 17:34:08.205510	147.5	20.4	-92.0	7.6
2025-01-06 17:34:10.514037	147.5	20.7	-92.6	8.8
2025-01-06 17:34:12.849104	147.5	21.0	-92.3	9.1
2025-01-06 17:34:15.156866	147.5	21.3	-92.1	10.0
2025-01-06 17:34:17.466650	147.5	21.6	-92.5	5.4
2025-01-06 17:34:19.775624	147.4	22.0	-92.5	4.3
2025-01-06 17:34:22.075253	147.4	22.3	-92.4	6.1
2025-01-06 17:34:24.379721	147.4	22.6	-92.1	9.3
2025-01-06 17:34:26.637510	147.4	22.9	-90.2	6.5
2025-01-06 17:34:28.943327	147.4	23.3	-92.4	8.4
2025-01-06 17:34:31.245511	147.3	23.6	-91.3	9.4
2025-01-06 17:34:33.552641	147.3	24.0	-91.5	4.6
2025-01-06 17:34:35.972629	147.3	24.3	-91.3	1.7
2025-01-06 17:34:38.277065	147.2	24.7	-91.9	7.1
2025-01-06 17:34:40.575564	147.2	25.1	-92.4	13.6
2025-01-06 17:34:42.880180	147.2	25.4	-92.3	6.5
2025-01-06 17:34:45.183945	147.2	25.8	-92.1	8.8
2025-01-06 17:34:47.492962	147.1	26.2	-92.7	11.5
2025-01-06 17:34:49.798955	147.1	26.6	-92.7	2.2
2025-01-06 17:34:52.113779	147.1	26.9	-92.1	1.2
2025-01-06 17:34:54.419815	147.0	27.3	-92.4	8.1
2025-01-06 17:34:56.722212	147.0	27.7	-92.7	10.0
2025-01-06 17:34:59.030076	147.0	28.1	-92.4	8.2
2025-01-06 17:35:01.323917	146.9	28.6	-91.1	4.2
2025-01-06 17:35:03.631865	146.9	29.0	-92.8	8.4
2025-01-06 17:35:05.940193	146.8	29.4	-91.9	3.8
2025-01-06 17:35:08.256954	146.8	29.8	-92.5	1.5
2025-01-06 17:35:10.558421	146.8	30.3	-92.8	4.2
2025-01-06 17:35:12.872565	146.7	30.7	-92.8	9.1
2025-01-06 17:35:15.182128	146.7	31.2	-92.5	5.0
2025-01-06 17:35:17.495078	146.6	31.6	-92.5	5.0
2025-01-06 17:35:19.791889	146.6	32.1	-92.9	10.5
2025-01-06 17:35:22.098202	146.5	32.6	-91.9	8.7
2025-01-06 17:35:24.413400	146.5	33.0	-92.6	3.9
2025-01-06 17:35:26.728740	146.4	33.5	-92.6	2.7
2025-01-06 17:35:29.070089	146.4	34.0	-92.5	7.8
2025-01-06 17:35:31.386282	146.3	34.5	-92.5	13.2
2025-01-06 17:35:33.701841	146.2	35.0	-92.7	8.0
2025-01-06 17:35:36.016797	146.2	35.6	-92.7	14.6
2025-01-06 17:35:38.332824	146.1	36.1	-92.5	13.3
2025-01-06 17:35:40.630577	146.1	36.6	-92.8	7.1
2025-01-06 17:35:42.946064	146.0	37.2	-92.7	5.6
2025-01-06 17:35:45.200065	145.9	37.7	-92.1	4.4
2025-01-06 17:35:47.499887	145.8	38.3	-92.6	10.6
2025-01-06 17:35:49.804987	145.8	38.9	-93.1	7.0
2025-01-06 17:35:52.107531	145.7	39.4	-92.2	10.0
2025-01-06 17:35:54.427750	145.6	40.0	-92.6	16.4
2025-01-06 17:35:56.727619	145.5	40.6	-92.8	17.9
2025-01-06 17:35:59.033087	145.4	41.2	-92.1	6.6
2025-01-06 17:36:01.325979	145.3	41.9	-92.6	4.4
2025-01-06 17:36:03.635146	145.2	42.5	-92.8	7.1
2025-01-06 17:36:05.943830	145.1	43.1	-92.5	11.7
2025-01-06 17:36:08.253274	145.0	43.8	-92.1	14.7
2025-01-06 17:36:10.558835	144.9	44.5	-92.5	14.6
2025-01-06 17:36:12.862766	144.8	45.1	-92.5	11.9
2025-01-06 17:36:15.179347	144.7	45.8	-92.5	15.2
2025-01-06 17:36:17.478108	144.5	46.5	-92.8	11.0
2025-01-06 17:36:19.780372	144.4	47.2	-92.6	3.0
2025-01-06 17:36:22.089567	144.3	48.0	-92.1	3.3
2025-01-06 17:36:24.395166	144.1	48.7	-92.7	7.2
2025-01-06 17:36:26.700515	144.0	49.4	-92.6	10.3
2025-01-06 17:36:29.010690	143.8	50.2	-92.1	7.0
2025-01-06 17:36:31.330681	143.6	51.0	-92.2	2.7
2025-01-06 17:36:33.638035	143.4	51.8	-92.3	3.2
2025-01-06 17:36:35.949114	143.2	52.6	-93.0	8.7
2025-01-06 17:36:38.263567	143.0	53.4	-92.1	10.8
2025-01-06 17:36:40.570718	142.8	54.2	-92.3	4.3
2025-01-06 17:36:42.890788	142.6	55.1	-92.0	4.2
2025-01-06 17:36:45.204228	142.3	55.9	-92.2	6.1
2025-01-06 17:36:47.500690	142.1	56.8	-92.6	12.6
2025-01-06 17:36:49.800339	141.8	57.6	-92.4	17.0
2025-01-06 17:36:52.106949	141.5	58.5	-92.4	16.0
2025-01-06 17:36:54.418868	141.2	59.4	-92.5	11.0
2025-01-06 17:36:56.724938	140.8	60.3	-92.4	7.9
2025-01-06 17:36:59.029597	140.5	61.3	-92.5	17.5
2025-01-06 17:37:01.331727	140.1	62.2	-91.6	18.9
2025-01-06 17:37:03.639455	139.6	63.2	-92.4	10.2
2025-01-06 17:37:05.946375	139.2	64.1	-92.6	4.9
2025-01-06 17:37:08.256033	138.7	65.1	-92.3	2.3
2025-01-06 17:37:10.564394	138.1	66.1	-92.6	6.9
2025-01-06 17:37:12.869334	137.5	67.1	-92.4	10.0
2025-01-06 17:37:15.182452	136.8	68.1	-92.2	16.5
2025-01-06 17:37:17.489958	136.1	69.1	-92.8	16.9
2025-01-06 17:37:19.788045	135.2	70.1	-92.3	11.4
2025-01-06 17:37:22.102671	134.3	71.1	-92.2	15.7
2025-01-06 17:37:24.413624	133.3	72.1	-92.5	8.4
2025-01-06 17:37:26.721832	132.1	73.2	-92.7	11.4
2025-01-06 17:37:29.023995	130.8	74.2	-91.8	16.1
2025-01-06 17:37:31.321910	129.2	75.2	-91.5	17.2
2025-01-06 17:37:33.620589	127.5	76.3	-91.4	17.1
2025-01-06 17:37:35.919596	125.4	77.3	-91.4	11.4
2025-01-06 17:37:38.230550	123.0	78.3	-91.0	9.0
2025-01-06 17:37:40.535653	120.1	79.3	-91.5	10.3
2025-01-06 17:37:42.856408	116.5	80.2	-92.7	7.0
2025-01-06 17:37:45.163713	112.3	81.2	-91.1	5.2
2025-01-06 17:37:47.465275	107.1	82.0	-92.4	10.4
2025-01-06 17:37:49.772439	100.6	82.8	-92.3	11.8
2025-01-06 17:37:52.073846	92.7	83.5	-92.5	16.5
2025-01-06 17:37:54.375036	83.2	84.0	-92.4	17.0
2025-01-06 17:37:56.695599	72.1	84.3	-90.5	19.2
2025-01-06 17:37:58.996316	60.2	84.4	-91.3	22.6
2025-01-06 17:38:01.290175	48.5	84.3	-91.3	20.2
2025-01-06 17:38:03.592442	37.7	83.9	-91.5	19.9
2025-01-06 17:38:05.897539	28.4	83.4	-91.7	18.7
2025-01-06 17:38:08.203646	20.6	82.7	-91.8	14.7
2025-01-06 17:38:10.503152	14.4	81.9	-91.6	16.3
2025-01-06 17:38:12.818242	9.3	81.0	-92.8	10.6
2025-01-06 17:38:15.122343	5.1	80.1	-92.5	12.7
2025-01-06 17:38:17.428541	1.7	79.1	-92.5	10.7
2025-01-06 17:38:19.735181	358.9	78.2	-92.6	7.0
2025-01-06 17:38:22.043152	356.5	77.1	-92.3	8.1
2025-01-06 17:38:24.347683	354.5	76.1	-92.3	3.1
2025-01-06 17:38:26.654230	352.7	75.1	-92.8	4.0
2025-01-06 17:38:28.951314	351.2	74.1	-92.5	6.3
2025-01-06 17:38:31.257406	349.9	73.0	-92.7	7.2
2025-01-06 17:38:33.567714	348.8	72.0	-92.9	3.4
2025-01-06 17:38:35.878117	347.7	71.0	-92.6	2.8
2025-01-06 17:38:38.184123	346.8	70.0	-92.2	5.7
2025-01-06 17:38:40.486392	346.0	69.0	-92.4	11.7
2025-01-06 17:38:42.786637	345.3	68.0	-92.5	5.4
2025-01-06 17:38:45.098712	344.6	66.9	-92.2	10.1
2025-01-06 17:38:47.407626	344.0	66.0	-93.0	7.7
2025-01-06 17:38:49.708356	343.5	65.0	-92.8	8.9
2025-01-06 17:38:52.016719	343.0	64.0	-92.8	5.5
2025-01-06 17:38:54.336848	342.5	63.1	-92.5	12.2
2025-01-06 17:38:56.638347	342.1	62.1	-90.6	6.2
2025-01-06 17:38:58.941330	341.7	61.2	-92.7	14.7
2025-01-06 17:39:01.229451	341.3	60.3	-92.3	13.6
2025-01-06 17:39:03.540774	341.0	59.3	-92.8	12.1
2025-01-06 17:39:05.854365	340.6	58.4	-92.7	10.4
2025-01-06 17:39:08.184148	340.3	57.6	-92.5	5.2
2025-01-06 17:39:10.487701	340.1	56.7	-93.0	8.2
2025-01-06 17:39:12.796150	339.8	55.8	-92.8	6.1
2025-01-06 17:39:15.110041	339.6	55.0	-92.5	8.1
2025-01-06 17:39:17.419256	339.3	54.1	-92.8	4.1
2025-01-06 17:39:19.722020	339.1	53.3	-92.8	5.9
2025-01-06 17:39:22.025116	338.9	52.5	-92.9	13.0
2025-01-06 17:39:24.335468	338.7	51.7	-93.0	11.6
2025-01-06 17:39:26.645155	338.5	50.9	-92.6	16.0
2025-01-06 17:39:28.948181	338.4	50.2	-92.9	17.1
2025-01-06 17:39:31.260986	338.2	49.4	-92.4	11.8
2025-01-06 17:39:33.576502	338.1	48.6	-92.8	12.6
2025-01-06 17:39:35.883703	337.9	47.9	-90.2	7.2
2025-01-06 17:39:38.194918	337.8	47.2	-92.9	6.2
2025-01-06 17:39:40.494426	337.6	46.5	-92.9	8.7
2025-01-06 17:39:42.796220	337.5	45.8	-92.8	3.5
2025-01-06 17:39:45.098846	337.4	45.1	-92.8	17.5
2025-01-06 17:39:47.410517	337.3	44.4	-92.4	16.2
2025-01-06 17:39:49.717457	337.2	43.8	-90.9	15.8
2025-01-06 17:39:52.031041	337.1	43.1	-92.8	16.1
2025-01-06 17:39:54.331858	337.0	42.5	-91.4	12.0
2025-01-06 17:39:56.657864	336.9	41.8	-93.1	9.2
2025-01-06 17:39:58.976827	336.8	41.2	-93.1	9.5
2025-01-06 17:40:01.272980	336.7	40.6	-92.6	4.3
2025-01-06 17:40:03.588170	336.6	40.0	-92.1	9.1
2025-01-06 17:40:05.900545	336.5	39.4	-93.2	13.5
2025-01-06 17:40:08.208414	336.4	38.8	-92.4	19.0
2025-01-06 17:40:10.503373	336.4	38.3	-92.9	16.1
2025-01-06 17:40:12.811424	336.3	37.7	-93.1	10.1
2025-01-06 17:40:15.122435	336.2	37.2	-91.8	6.6
2025-01-06 17:40:17.421889	336.1	36.6	-92.8	5.5
2025-01-06 17:40:19.733737	336.1	36.1	-92.9	4.8
2025-01-06 17:40:22.053803	336.0	35.5	-92.9	8.6
2025-01-06 17:40:24.355006	336.0	35.0	-93.1	12.4
2025-01-06 17:40:26.661270	335.9	34.5	-92.4	14.5
2025-01-06 17:40:28.965960	335.8	34.0	-93.0	16.7
2025-01-06 17:40:31.270326	335.8	33.5	-90.5	5.9
2025-01-06 17:40:33.576543	335.7	33.0	-92.3	5.5
2025-01-06 17:40:35.889425	335.7	32.6	-90.5	8.0
2025-01-06 17:40:38.193554	335.6	32.1	-91.4	6.7
2025-01-06 17:40:40.500660	335.6	31.6	-91.5	9.8
2025-01-06 17:40:42.809770	335.5	31.2	-92.9	11.4
2025-01-06 17:40:45.116389	335.5	30.7	-91.2	5.2
2025-01-06 17:40:47.435381	335.5	30.3	-93.1	6.5
2025-01-06 17:40:49.743508	335.4	29.9	-92.7	3.6
2025-01-06 17:40:52.053554	335.4	29.4	-92.5	4.4
2025-01-06 17:40:54.357026	335.3	29.0	-93.1	7.9
2025-01-06 17:40:56.660257	335.3	28.6	-93.3	11.0
2025-01-06 17:40:58.975358	335.3	28.2	-93.0	10.9
2025-01-06 17:41:01.265942	335.2	27.8	-92.2	6.9
2025-01-06 17:41:03.571649	335.2	27.4	-92.8	3.1
2025-01-06 17:41:05.887228	335.2	27.0	-92.8	5.6
2025-01-06 17:41:08.200424	335.1	26.6	-92.4	8.2
2025-01-06 17:41:10.510706	335.1	26.2	-93.0	13.5
2025-01-06 17:41:12.830363	335.1	25.8	-93.3	12.1
2025-01-06 17:41:15.141292	335.0	25.5	-92.8	3.8
2025-01-06 17:41:17.440386	335.0	25.1	-92.9	5.5
2025-01-06 17:41:19.743301	335.0	24.7	-93.1	2.8
2025-01-06 17:41:22.039437	335.0	24.4	-93.0	6.0
2025-01-06 17:41:24.342092	334.9	24.0	-93.2	5.1
2025-01-06 17:41:26.660696	334.9	23.7	-93.0	1.3
2025-01-06 17:41:28.957223	334.9	23.3	-91.9	5.7
2025-01-06 17:41:31.259571	334.9	23.0	-93.0	3.1
2025-01-06 17:41:33.573886	334.8	22.7	-92.7	2.7
2025-01-06 17:41:35.884946	334.8	22.3	-93.1	4.4
2025-01-06 17:41:38.190495	334.8	22.0	-92.7	3.5
2025-01-06 17:41:40.510845	334.8	21.7	-92.8	5.7
2025-01-06 17:41:42.815829	334.7	21.4	-92.8	8.8
2025-01-06 17:41:45.124061	334.7	21.1	-92.8	1.4
2025-01-06 17:41:47.418152	334.7	20.8	-92.8	3.5
2025-01-06 17:41:49.722159	334.7	20.5	-93.0	1.4
2025-01-06 17:41:52.025375	334.7	20.2	-93.0	7.0
2025-01-06 17:41:54.338564	334.7	19.9	-92.3	2.3
2025-01-06 17:41:56.648041	334.6	19.6	-92.6	2.7
2025-01-06 17:41:58.944658	334.6	19.3	-92.9	1.5
2025-01-06 17:42:01.237497	334.6	19.0	-92.9	4.3
2025-01-06 17:42:03.538921	334.6	18.7	-93.0	4.8
2025-01-06 17:42:05.843638	334.6	18.4	-93.0	4.5
2025-01-06 17:42:08.146305	334.6	18.1	-93.3	1.0
2025-01-06 17:42:10.448049	334.5	17.9	-93.3	3.4
2025-01-06 17:42:12.745853	334.5	17.6	-92.5	1.8
2025-01-06 17:42:15.048213	334.5	17.3	-93.0	3.2
2025-01-06 17:42:17.456696	334.5	17.0	-92.8	1.4
2025-01-06 17:42:19.767002	334.5	16.8	-93.0	1.6
2025-01-06 17:42:22.065738	334.5	16.5	-92.9	1.7
2025-01-06 17:42:24.365938	334.5	16.3	-92.6	1.6
2025-01-06 17:42:26.670470	334.5	16.0	-92.7	1.6
2025-01-06 17:42:28.976936	334.4	15.8	-93.2	1.0
2025-01-06 17:42:31.277326	334.4	15.5	-92.9	1.2
2025-01-06 17:42:33.578714	334.4	15.3	-93.3	3.2
2025-01-06 17:42:35.878360	334.4	15.0	-92.7	1.2
2025-01-06 17:42:38.186438	334.4	14.8	-92.6	1.5
2025-01-06 17:42:40.490107	334.4	14.5	-92.4	3.5
#Closed at: 2025-01-06 17:33:27.616032