passes_logs/2025/01/06/LEX_Murmansk/LEX_Murmansk__20250106_123526_NOAA_19_rec.log

#Pass ID: 20250106_123526_NOAA 19
#Satellite: NOAA 19
#Configuration: NOAA 19
#Start time: 2025-01-06 12:35:21.140048

#LorettStation: 1.0.0 05.05.2024
#Station: LEX_Murmansk
#Location: 33.156738 lon 68.926811 lat
#TLE: 1 33591U 09005A   25005.80039681  .00000456  00000+0  26725-3 0  9991
#TLE: 2 33591  99.0212  69.4911 0014675  82.0274 278.2563 14.13252095819982

#Time	Az	El	Level	SNR
2025-01-06 12:35:33.314935	32.1	15.9	-90.3	2.0
2025-01-06 12:35:34.458295	31.9	16.0	-90.2	4.6
2025-01-06 12:35:35.603712	31.7	16.1	-90.2	3.7
2025-01-06 12:35:36.751837	31.5	16.2	-90.5	0.6
2025-01-06 12:35:37.899183	31.4	16.3	-90.4	3.4
2025-01-06 12:35:39.042285	31.2	16.3	-90.5	2.7
2025-01-06 12:35:40.188269	31.0	16.4	-90.6	2.0
2025-01-06 12:35:41.340596	30.8	16.5	-90.3	1.1
2025-01-06 12:35:42.471215	30.6	16.6	-90.5	0.7
2025-01-06 12:35:43.621209	30.4	16.7	-90.5	3.1
2025-01-06 12:35:44.771304	30.2	16.8	-90.2	1.4
2025-01-06 12:35:45.921310	30.0	16.9	-90.4	2.5
2025-01-06 12:35:47.065794	29.8	17.0	-90.5	4.1
2025-01-06 12:35:48.213849	29.7	17.0	-90.6	4.2
2025-01-06 12:35:49.364280	29.5	17.1	-90.7	8.5
2025-01-06 12:35:50.513148	29.3	17.2	-90.4	6.4
2025-01-06 12:35:51.661383	29.1	17.3	-90.3	4.5
2025-01-06 12:35:52.814396	28.9	17.4	-90.5	3.7
2025-01-06 12:35:53.968041	28.7	17.5	-90.2	4.8
2025-01-06 12:35:55.117471	28.5	17.6	-90.4	6.2
2025-01-06 12:35:56.264274	28.3	17.6	-90.5	5.1
2025-01-06 12:35:57.415493	28.1	17.7	-90.7	8.4
2025-01-06 12:35:58.564081	27.9	17.8	-90.4	6.8
2025-01-06 12:35:59.716297	27.7	17.9	-90.7	7.5
2025-01-06 12:36:00.855725	27.4	18.0	-90.8	6.0
2025-01-06 12:36:02.003464	27.2	18.1	-90.7	5.6
2025-01-06 12:36:03.152916	27.0	18.2	-90.4	4.4
2025-01-06 12:36:04.299227	26.8	18.2	-90.6	3.8
2025-01-06 12:36:05.446784	26.6	18.3	-90.4	3.3
2025-01-06 12:36:06.595103	26.4	18.4	-90.7	3.3
2025-01-06 12:36:07.738055	26.2	18.5	-90.4	3.4
2025-01-06 12:36:08.888371	26.0	18.6	-90.5	6.0
2025-01-06 12:36:10.036993	25.8	18.7	-90.4	9.5
2025-01-06 12:36:11.187779	25.5	18.8	-90.2	10.0
2025-01-06 12:36:12.334924	25.3	18.8	-90.7	10.7
2025-01-06 12:36:13.484442	25.1	18.9	-91.0	8.2
2025-01-06 12:36:14.633910	24.9	19.0	-90.7	7.5
2025-01-06 12:36:15.777366	24.7	19.1	-90.7	4.0
2025-01-06 12:36:16.934327	24.4	19.2	-90.8	4.3
2025-01-06 12:36:18.084468	24.2	19.3	-90.7	3.8
2025-01-06 12:36:19.229616	24.0	19.3	-90.8	4.1
2025-01-06 12:36:20.378894	23.8	19.4	-90.5	6.2
2025-01-06 12:36:21.525881	23.5	19.5	-90.8	8.8
2025-01-06 12:36:22.674870	23.3	19.6	-90.3	9.3
2025-01-06 12:36:23.823013	23.1	19.7	-90.6	6.8
2025-01-06 12:36:24.979007	22.8	19.8	-90.5	5.2
2025-01-06 12:36:26.130386	22.6	19.8	-90.7	5.8
2025-01-06 12:36:27.284776	22.4	19.9	-90.4	2.5
2025-01-06 12:36:28.428017	22.1	20.0	-90.6	4.2
2025-01-06 12:36:29.574508	21.9	20.1	-90.6	1.6
2025-01-06 12:36:30.721459	21.7	20.2	-90.5	2.4
2025-01-06 12:36:31.862776	21.4	20.2	-90.4	2.8
2025-01-06 12:36:33.009121	21.2	20.3	-90.3	3.2
2025-01-06 12:36:34.163371	20.9	20.4	-90.4	5.8
2025-01-06 12:36:35.307079	20.7	20.5	-90.7	5.6
2025-01-06 12:36:36.456843	20.4	20.6	-90.7	7.7
2025-01-06 12:36:37.607497	20.2	20.6	-91.0	6.3
2025-01-06 12:36:38.759896	19.9	20.7	-91.1	3.4
2025-01-06 12:36:39.914332	19.7	20.8	-91.2	4.3
2025-01-06 12:36:41.067541	19.4	20.9	-90.6	4.1
2025-01-06 12:36:42.223321	19.2	21.0	-90.4	1.4
2025-01-06 12:36:43.379048	18.9	21.0	-90.5	5.2
2025-01-06 12:36:44.529922	18.7	21.1	-90.8	5.1
2025-01-06 12:36:45.679303	18.4	21.2	-91.0	5.2
2025-01-06 12:36:46.828139	18.2	21.3	-90.9	8.5
2025-01-06 12:36:47.977228	17.9	21.3	-90.5	6.9
2025-01-06 12:36:49.132389	17.7	21.4	-90.4	6.2
2025-01-06 12:36:50.283079	17.4	21.5	-90.4	6.4
2025-01-06 12:36:51.441999	17.1	21.6	-90.8	3.3
2025-01-06 12:36:52.591208	16.9	21.7	-90.9	5.4
2025-01-06 12:36:53.739305	16.6	21.7	-90.6	2.3
2025-01-06 12:36:54.887056	16.3	21.8	-90.4	1.5
2025-01-06 12:36:56.032868	16.1	21.9	-90.6	2.0
2025-01-06 12:36:57.182623	15.8	21.9	-90.5	3.9
2025-01-06 12:36:58.332279	15.5	22.0	-90.9	2.9
2025-01-06 12:36:59.481284	15.3	22.1	-91.1	3.1
2025-01-06 12:37:00.620874	15.0	22.2	-91.3	4.8
2025-01-06 12:37:01.768382	14.7	22.2	-91.2	4.5
2025-01-06 12:37:02.918394	14.4	22.3	-91.1	9.0
2025-01-06 12:37:04.060641	14.2	22.4	-90.9	6.3
2025-01-06 12:37:05.206421	13.9	22.4	-90.8	4.4
2025-01-06 12:37:06.352635	13.6	22.5	-90.9	5.9
2025-01-06 12:37:07.503094	13.3	22.6	-91.0	5.4
2025-01-06 12:37:08.650988	13.1	22.6	-90.8	5.7
2025-01-06 12:37:09.794983	12.8	22.7	-90.9	3.2
2025-01-06 12:37:10.940391	12.5	22.8	-91.4	6.3
2025-01-06 12:37:12.085679	12.2	22.8	-90.6	9.6
2025-01-06 12:37:13.242504	11.9	22.9	-91.2	8.5
2025-01-06 12:37:14.393747	11.6	23.0	-91.4	13.7
2025-01-06 12:37:15.541298	11.3	23.0	-91.5	13.4
2025-01-06 12:37:16.694090	11.1	23.1	-91.2	12.8
2025-01-06 12:37:17.841964	10.8	23.2	-91.0	10.9
2025-01-06 12:37:18.990671	10.5	23.2	-91.5	7.2
2025-01-06 12:37:20.138160	10.2	23.3	-91.1	11.1
2025-01-06 12:37:21.290846	9.9	23.4	-91.0	4.5
2025-01-06 12:37:22.435594	9.6	23.4	-91.0	3.9
2025-01-06 12:37:23.587914	9.3	23.5	-91.4	5.9
2025-01-06 12:37:24.734205	9.0	23.5	-91.6	1.9
2025-01-06 12:37:25.879105	8.7	23.6	-91.0	4.2
2025-01-06 12:37:27.025816	8.4	23.6	-91.2	4.2
2025-01-06 12:37:28.171907	8.1	23.7	-90.8	3.0
2025-01-06 12:37:29.317247	7.8	23.8	-91.0	4.1
2025-01-06 12:37:30.461278	7.5	23.8	-91.2	6.2
2025-01-06 12:37:31.607455	7.2	23.9	-90.7	9.2
2025-01-06 12:37:32.754970	6.9	23.9	-91.0	11.6
2025-01-06 12:37:33.904483	6.6	24.0	-91.2	12.8
2025-01-06 12:37:35.049444	6.3	24.0	-91.0	11.5
2025-01-06 12:37:36.215161	6.0	24.1	-91.2	7.2
2025-01-06 12:37:37.371147	5.7	24.1	-91.2	7.3
2025-01-06 12:37:38.521502	5.4	24.2	-91.1	7.3
2025-01-06 12:37:39.668543	5.0	24.2	-91.1	6.0
2025-01-06 12:37:40.813949	4.7	24.3	-91.4	5.5
2025-01-06 12:37:41.977938	4.4	24.3	-91.5	5.0
2025-01-06 12:37:43.134427	4.1	24.4	-91.2	7.1
2025-01-06 12:37:44.278255	3.8	24.4	-91.0	3.9
2025-01-06 12:37:45.427104	3.5	24.5	-90.9	7.1
2025-01-06 12:37:46.580120	3.2	24.5	-91.2	7.6
2025-01-06 12:37:47.729692	2.8	24.5	-90.7	6.9
2025-01-06 12:37:48.877900	2.5	24.6	-90.6	8.4
2025-01-06 12:37:50.020671	2.2	24.6	-90.8	10.6
2025-01-06 12:37:51.171098	1.9	24.7	-90.8	7.9
2025-01-06 12:37:52.317804	1.6	24.7	-90.3	7.8
2025-01-06 12:37:53.466355	1.2	24.7	-91.2	7.3
2025-01-06 12:37:54.617463	0.9	24.8	-90.6	8.3
2025-01-06 12:37:55.763702	0.6	24.8	-90.7	9.0
2025-01-06 12:37:56.915005	0.3	24.9	-90.2	6.3
2025-01-06 12:37:58.061960	359.9	24.9	-90.5	6.2
2025-01-06 12:37:59.214385	359.6	24.9	-90.6	3.8
2025-01-06 12:38:00.366589	359.3	25.0	-90.6	2.5
2025-01-06 12:38:01.517712	359.0	25.0	-91.3	6.2
2025-01-06 12:38:02.670897	358.6	25.0	-90.8	3.3
2025-01-06 12:38:03.818267	358.3	25.1	-91.0	2.8
2025-01-06 12:38:04.962788	358.0	25.1	-91.2	3.0
2025-01-06 12:38:06.112577	357.7	25.1	-90.5	6.1
2025-01-06 12:38:07.262732	357.3	25.1	-90.7	3.6
2025-01-06 12:38:08.405496	357.0	25.2	-91.0	2.5
2025-01-06 12:38:09.553685	356.7	25.2	-90.8	5.9
2025-01-06 12:38:10.705020	356.3	25.2	-91.0	5.4
2025-01-06 12:38:11.851673	356.0	25.2	-91.4	7.5
2025-01-06 12:38:12.998123	355.7	25.3	-90.9	8.7
2025-01-06 12:38:14.144506	355.3	25.3	-90.8	11.0
2025-01-06 12:38:15.289954	355.0	25.3	-91.0	11.5
2025-01-06 12:38:16.441518	354.7	25.3	-91.0	10.8
2025-01-06 12:38:17.586401	354.3	25.3	-91.0	11.0
2025-01-06 12:38:18.733093	354.0	25.3	-91.3	13.8
2025-01-06 12:38:19.887021	353.7	25.4	-90.9	9.7
2025-01-06 12:38:21.033730	353.3	25.4	-90.9	9.3
2025-01-06 12:38:22.181644	353.0	25.4	-90.8	10.4
2025-01-06 12:38:23.333349	352.7	25.4	-91.0	8.3
2025-01-06 12:38:24.488050	352.3	25.4	-91.0	6.5
2025-01-06 12:38:25.637729	352.0	25.4	-91.1	6.3
2025-01-06 12:38:26.790088	351.7	25.4	-90.7	5.3
2025-01-06 12:38:27.939205	351.3	25.4	-90.8	6.7
2025-01-06 12:38:29.091646	351.0	25.4	-91.0	6.8
2025-01-06 12:38:30.242453	350.7	25.4	-90.8	3.1
2025-01-06 12:38:31.392586	350.3	25.5	-91.1	5.4
2025-01-06 12:38:32.537931	350.0	25.5	-91.1	7.7
2025-01-06 12:38:33.685523	349.6	25.5	-91.4	3.7
2025-01-06 12:38:34.837162	349.3	25.5	-91.2	4.1
2025-01-06 12:38:35.984614	349.0	25.5	-91.1	7.0
2025-01-06 12:38:37.126558	348.6	25.5	-90.7	6.1
2025-01-06 12:38:38.274686	348.3	25.5	-90.8	3.8
2025-01-06 12:38:39.422417	348.0	25.5	-91.2	5.1
2025-01-06 12:38:40.572510	347.6	25.4	-91.2	5.5
2025-01-06 12:38:41.718820	347.3	25.4	-91.5	2.9
2025-01-06 12:38:42.870590	347.0	25.4	-91.0	2.7
2025-01-06 12:38:44.027043	346.6	25.4	-91.1	2.9
2025-01-06 12:38:45.181021	346.3	25.4	-90.8	3.0
2025-01-06 12:38:46.335380	345.9	25.4	-90.6	5.2
2025-01-06 12:38:47.482300	345.6	25.4	-90.8	4.0
2025-01-06 12:38:48.624974	345.3	25.4	-90.9	6.3
2025-01-06 12:38:49.777197	344.9	25.4	-90.9	5.5
2025-01-06 12:38:50.933511	344.6	25.4	-90.9	9.2
2025-01-06 12:38:52.084009	344.3	25.3	-90.8	10.8
2025-01-06 12:38:53.234767	343.9	25.3	-91.2	10.1
2025-01-06 12:38:54.385176	343.6	25.3	-91.4	10.3
2025-01-06 12:38:55.526992	343.3	25.3	-91.6	9.6
2025-01-06 12:38:56.675658	342.9	25.3	-91.1	8.9
2025-01-06 12:38:57.824696	342.6	25.3	-90.6	9.7
2025-01-06 12:38:58.977198	342.3	25.2	-91.1	10.6
2025-01-06 12:39:00.121867	341.9	25.2	-90.4	9.6
2025-01-06 12:39:01.259583	341.6	25.2	-90.8	8.2
2025-01-06 12:39:02.408997	341.3	25.2	-91.1	7.3
2025-01-06 12:39:03.556735	340.9	25.1	-91.4	9.3
2025-01-06 12:39:04.705543	340.6	25.1	-91.0	5.8
2025-01-06 12:39:05.847769	340.3	25.1	-91.0	4.9
2025-01-06 12:39:07.000700	340.0	25.1	-91.1	5.4
2025-01-06 12:39:08.156152	339.6	25.0	-91.0	5.6
2025-01-06 12:39:09.307780	339.3	25.0	-91.2	5.2
2025-01-06 12:39:10.455241	339.0	25.0	-91.0	6.2
2025-01-06 12:39:11.605898	338.6	24.9	-91.2	4.7
2025-01-06 12:39:12.755645	338.3	24.9	-91.1	4.6
2025-01-06 12:39:13.908306	338.0	24.9	-91.4	6.0
2025-01-06 12:39:15.057254	337.7	24.8	-91.0	6.8
2025-01-06 12:39:16.210628	337.4	24.8	-91.0	6.1
2025-01-06 12:39:17.357215	337.0	24.8	-90.8	3.7
2025-01-06 12:39:18.506664	336.7	24.7	-91.1	5.4
2025-01-06 12:39:19.656143	336.4	24.7	-91.4	6.9
2025-01-06 12:39:20.805070	336.1	24.6	-91.3	5.6
2025-01-06 12:39:21.957337	335.7	24.6	-91.2	4.7
2025-01-06 12:39:23.104157	335.4	24.6	-91.2	5.6
2025-01-06 12:39:24.257961	335.1	24.5	-91.1	3.7
2025-01-06 12:39:25.403236	334.8	24.5	-90.8	4.4
2025-01-06 12:39:26.551451	334.5	24.4	-91.1	5.1
2025-01-06 12:39:27.707710	334.2	24.4	-91.3	5.2
2025-01-06 12:39:28.851531	333.9	24.3	-91.3	2.8
2025-01-06 12:39:29.999020	333.5	24.3	-91.1	5.5
2025-01-06 12:39:31.145193	333.2	24.2	-91.2	4.5
2025-01-06 12:39:32.297913	332.9	24.2	-91.1	3.7
2025-01-06 12:39:33.446516	332.6	24.1	-91.4	4.4
2025-01-06 12:39:34.595415	332.3	24.1	-90.9	5.5
2025-01-06 12:39:35.744902	332.0	24.0	-90.9	4.1
2025-01-06 12:39:36.890088	331.7	24.0	-91.1	6.3
2025-01-06 12:39:38.034997	331.4	23.9	-91.3	4.7
2025-01-06 12:39:39.186911	331.1	23.9	-91.2	4.8
2025-01-06 12:39:40.337653	330.8	23.8	-91.1	5.6
2025-01-06 12:39:41.484777	330.5	23.8	-90.8	6.0
2025-01-06 12:39:42.633079	330.2	23.7	-90.8	6.3
2025-01-06 12:39:43.783226	329.9	23.7	-91.1	6.3
2025-01-06 12:39:44.932282	329.6	23.6	-91.0	8.1
2025-01-06 12:39:46.086046	329.3	23.5	-90.7	8.1
2025-01-06 12:39:47.236585	329.0	23.5	-90.5	8.1
2025-01-06 12:39:48.382392	328.7	23.4	-91.0	7.1
2025-01-06 12:39:49.527781	328.4	23.4	-91.2	6.6
2025-01-06 12:39:50.671476	328.1	23.3	-91.0	6.6
2025-01-06 12:39:51.822730	327.8	23.2	-91.2	4.3
2025-01-06 12:39:52.968285	327.5	23.2	-91.5	2.8
2025-01-06 12:39:54.116446	327.2	23.1	-91.0	3.0
2025-01-06 12:39:55.261524	326.9	23.1	-91.2	2.4
2025-01-06 12:39:56.409605	326.6	23.0	-91.3	3.8
2025-01-06 12:39:57.554129	326.3	22.9	-91.0	6.9
2025-01-06 12:39:58.697390	326.1	22.9	-91.5	4.5
2025-01-06 12:39:59.846194	325.8	22.8	-91.5	4.4
2025-01-06 12:40:00.992709	325.5	22.7	-91.2	3.7
2025-01-06 12:40:02.139366	325.2	22.7	-91.2	2.4
2025-01-06 12:40:03.286242	324.9	22.6	-91.0	8.0
2025-01-06 12:40:04.434294	324.7	22.5	-90.5	7.2
2025-01-06 12:40:05.579823	324.4	22.5	-90.7	3.3
2025-01-06 12:40:06.726342	324.1	22.4	-91.4	2.6
2025-01-06 12:40:07.873228	323.8	22.3	-91.2	2.9
2025-01-06 12:40:09.020417	323.6	22.2	-90.0	6.3
2025-01-06 12:40:10.164917	323.3	22.2	-91.1	6.3
2025-01-06 12:40:11.314569	323.0	22.1	-91.1	5.0
2025-01-06 12:40:12.464975	322.7	22.0	-90.9	4.7
2025-01-06 12:40:13.612497	322.5	22.0	-90.8	5.8
2025-01-06 12:40:14.760727	322.2	21.9	-91.3	4.4
2025-01-06 12:40:15.905827	321.9	21.8	-91.2	5.8
2025-01-06 12:40:17.057032	321.7	21.7	-91.0	3.3
2025-01-06 12:40:18.412915	321.4	21.7	-91.0	2.4
2025-01-06 12:40:19.561132	321.1	21.6	-91.4	4.8
2025-01-06 12:40:20.711339	320.8	21.5	-91.2	2.7
2025-01-06 12:40:21.860803	320.6	21.4	-91.0	2.4
2025-01-06 12:40:23.010109	320.3	21.4	-91.4	3.2
2025-01-06 12:40:24.157037	320.1	21.3	-91.2	4.2
2025-01-06 12:40:25.301708	319.8	21.2	-91.1	4.5
2025-01-06 12:40:26.452614	319.5	21.1	-91.0	2.1
2025-01-06 12:40:27.606368	319.3	21.0	-91.3	2.7
2025-01-06 12:40:28.753898	319.0	21.0	-89.6	2.3
2025-01-06 12:40:29.905858	318.8	20.9	-91.1	2.4
2025-01-06 12:40:31.064545	318.5	20.8	-91.0	1.7
2025-01-06 12:40:32.310823	318.3	20.7	-91.0	2.3
2025-01-06 12:40:33.433216	318.0	20.6	-91.3	2.8
2025-01-06 12:40:34.564991	317.8	20.6	-88.9	0.5
2025-01-06 12:40:35.712386	317.5	20.5	-91.3	1.1
2025-01-06 12:40:36.867594	317.3	20.4	-91.0	2.5
2025-01-06 12:40:38.016574	317.0	20.3	-91.3	3.7
2025-01-06 12:40:39.173358	316.8	20.2	-90.6	2.5
2025-01-06 12:40:40.317314	316.6	20.2	-90.9	2.9
2025-01-06 12:40:41.470435	316.3	20.1	-91.4	1.7
2025-01-06 12:40:42.621198	316.1	20.0	-91.3	2.9
2025-01-06 12:40:43.775416	315.8	19.9	-90.8	1.4
2025-01-06 12:40:44.923282	315.6	19.8	-91.1	1.1
2025-01-06 12:40:46.071889	315.4	19.8	-91.0	1.9
2025-01-06 12:40:47.218806	315.2	19.7	-90.6	3.4
2025-01-06 12:40:48.361800	314.9	19.6	-90.6	3.3
2025-01-06 12:40:49.508345	314.7	19.5	-90.8	3.4
2025-01-06 12:40:50.654776	314.5	19.4	-90.6	3.0
2025-01-06 12:40:51.806193	314.2	19.3	-91.0	3.1
2025-01-06 12:40:52.962102	314.0	19.3	-90.4	3.7
2025-01-06 12:40:54.114316	313.8	19.2	-90.5	3.1
2025-01-06 12:40:55.264873	313.6	19.1	-90.7	1.5
2025-01-06 12:40:56.410112	313.3	19.0	-90.0	2.4
2025-01-06 12:40:57.553505	313.1	18.9	-90.4	3.4
2025-01-06 12:40:58.705470	312.9	18.8	-90.8	2.1
2025-01-06 12:40:59.855132	312.7	18.8	-90.0	1.9
2025-01-06 12:41:01.000091	312.5	18.7	-90.9	3.6
2025-01-06 12:41:02.145538	312.2	18.6	-90.7	4.4
2025-01-06 12:41:03.295354	312.0	18.5	-90.5	1.8
2025-01-06 12:41:04.437139	311.8	18.4	-90.6	3.6
2025-01-06 12:41:05.580991	311.6	18.3	-90.4	2.2
2025-01-06 12:41:06.732072	311.4	18.2	-90.1	2.2
2025-01-06 12:41:07.877277	311.2	18.2	-90.4	3.0
2025-01-06 12:41:09.024875	311.0	18.1	-89.9	4.0
2025-01-06 12:41:10.175302	310.8	18.0	-90.6	5.1
2025-01-06 12:41:11.326348	310.6	17.9	-90.4	3.2
2025-01-06 12:41:12.477649	310.4	17.8	-90.5	2.9
2025-01-06 12:41:13.618666	310.2	17.7	-90.2	4.7
2025-01-06 12:41:14.766423	310.0	17.6	-91.0	3.2
2025-01-06 12:41:15.912836	309.8	17.6	-90.8	3.1
2025-01-06 12:41:17.059620	309.6	17.5	-90.9	4.8
2025-01-06 12:41:18.209323	309.4	17.4	-90.9	4.6
2025-01-06 12:41:19.356436	309.2	17.3	-90.4	3.4
2025-01-06 12:41:20.505748	309.0	17.2	-91.2	4.2
2025-01-06 12:41:21.655195	308.8	17.1	-91.1	2.5
2025-01-06 12:41:22.802260	308.6	17.0	-91.0	2.6
2025-01-06 12:41:23.951195	308.4	17.0	-90.9	2.9
2025-01-06 12:41:25.091717	308.2	16.9	-91.2	3.4
2025-01-06 12:41:26.238215	308.0	16.8	-90.1	1.5
2025-01-06 12:41:27.390643	307.8	16.7	-89.7	3.8
2025-01-06 12:41:28.548990	307.6	16.6	-91.0	4.9
2025-01-06 12:41:29.697722	307.4	16.5	-91.3	3.9
2025-01-06 12:41:30.854458	307.2	16.4	-90.9	2.6
2025-01-06 12:41:31.997657	307.0	16.4	-90.9	3.2
2025-01-06 12:41:33.144173	306.9	16.3	-91.1	4.7
2025-01-06 12:41:34.292443	306.7	16.2	-90.8	3.6
2025-01-06 12:41:35.439737	306.5	16.1	-90.6	4.4
2025-01-06 12:41:36.583742	306.3	16.0	-91.0	5.6
2025-01-06 12:41:37.733314	306.1	15.9	-90.9	7.6
2025-01-06 12:41:38.880405	306.0	15.8	-90.6	4.6
2025-01-06 12:41:40.032483	305.8	15.7	-90.8	5.2
2025-01-06 12:41:41.177915	305.6	15.7	-90.7	5.3
2025-01-06 12:41:42.327644	305.4	15.6	-90.7	5.2
2025-01-06 12:41:43.476481	305.2	15.5	-90.9	7.2
2025-01-06 12:41:44.619143	305.1	15.4	-90.7	4.5
2025-01-06 12:41:45.767387	304.9	15.3	-90.9	5.3
2025-01-06 12:41:46.913424	304.7	15.2	-90.9	4.6
2025-01-06 12:41:48.062895	304.6	15.1	-90.9	2.7
2025-01-06 12:41:49.215380	304.4	15.1	-91.0	2.6
2025-01-06 12:41:50.362325	304.2	15.0	-90.7	3.3
2025-01-06 12:41:51.522293	304.0	14.9	-91.2	4.7
2025-01-06 12:41:52.667976	303.9	14.8	-90.8	1.9
2025-01-06 12:41:53.825464	303.7	14.7	-90.7	3.0
2025-01-06 12:41:55.015789	303.5	14.6	-91.0	4.2
#Closed at: 2025-01-06 12:35:26.120564