passes_logs/2025/01/06/LEX_Murmansk/LEX_Murmansk__20250106_080052_NOAA_18_rec.log

#Pass ID: 20250106_080052_NOAA 18
#Satellite: NOAA 18
#Configuration: NOAA 18
#Start time: 2025-01-06 08:00:47.208255

#LorettStation: 1.0.0 05.05.2024
#Station: LEX_Murmansk
#Location: 33.156738 lon 68.926811 lat
#TLE: 1 28654U 05018A   25005.81892802  .00000565  00000+0  32357-3 0  9997
#TLE: 2 28654  98.8581  86.9638 0013924 205.2694 154.7799 14.13478522 11802

#Time	Az	El	Level	SNR
2025-01-06 08:00:59.515829	38.3	16.0	-92.8	5.6
2025-01-06 08:01:00.669783	38.5	16.1	-92.7	6.5
2025-01-06 08:01:01.828427	38.7	16.2	-92.7	4.3
2025-01-06 08:01:02.992320	38.9	16.2	-92.3	4.0
2025-01-06 08:01:04.158155	39.0	16.3	-92.0	4.6
2025-01-06 08:01:05.315670	39.2	16.4	-92.2	5.0
2025-01-06 08:01:06.487309	39.4	16.5	-92.6	5.0
2025-01-06 08:01:07.649201	39.6	16.6	-92.4	4.9
2025-01-06 08:01:08.818343	39.7	16.7	-92.6	6.8
2025-01-06 08:01:09.984324	39.9	16.8	-92.5	6.3
2025-01-06 08:01:11.153801	40.1	16.9	-92.0	4.3
2025-01-06 08:01:12.319782	40.3	17.0	-91.6	2.9
2025-01-06 08:01:13.486015	40.5	17.1	-92.5	5.8
2025-01-06 08:01:14.636263	40.6	17.2	-92.8	7.0
2025-01-06 08:01:15.796887	40.8	17.3	-92.6	5.9
2025-01-06 08:01:16.964538	41.0	17.4	-92.8	5.9
2025-01-06 08:01:18.128319	41.2	17.5	-92.0	2.8
2025-01-06 08:01:19.291461	41.4	17.6	-92.4	6.2
2025-01-06 08:01:20.447903	41.6	17.6	-92.9	7.2
2025-01-06 08:01:21.619205	41.8	17.7	-92.2	6.6
2025-01-06 08:01:22.782161	41.9	17.8	-92.7	6.4
2025-01-06 08:01:23.937340	42.1	17.9	-92.8	8.5
2025-01-06 08:01:25.098205	42.3	18.0	-91.4	4.9
2025-01-06 08:01:26.267864	42.5	18.1	-91.4	4.6
2025-01-06 08:01:27.434631	42.7	18.2	-91.5	7.1
2025-01-06 08:01:28.599349	42.9	18.3	-91.2	6.2
2025-01-06 08:01:29.748254	43.1	18.4	-91.3	8.8
2025-01-06 08:01:30.911365	43.3	18.5	-91.6	5.4
2025-01-06 08:01:32.033787	43.5	18.6	-92.0	10.7
2025-01-06 08:01:33.155159	43.7	18.7	-92.2	10.8
2025-01-06 08:01:34.276399	43.9	18.8	-92.3	11.3
2025-01-06 08:01:35.396303	44.1	18.9	-92.4	10.7
2025-01-06 08:01:36.518058	44.3	18.9	-92.4	8.5
2025-01-06 08:01:37.638906	44.5	19.0	-92.5	6.1
2025-01-06 08:01:38.760196	44.7	19.1	-92.8	10.4
2025-01-06 08:01:39.887593	44.9	19.2	-92.5	10.1
2025-01-06 08:01:41.036773	45.1	19.3	-92.7	6.1
2025-01-06 08:01:42.195187	45.3	19.4	-91.6	8.6
2025-01-06 08:01:43.349097	45.5	19.5	-91.9	11.3
2025-01-06 08:01:44.508358	45.7	19.6	-92.4	12.8
2025-01-06 08:01:45.669972	45.9	19.7	-92.6	12.0
2025-01-06 08:01:46.836446	46.1	19.8	-93.1	7.6
2025-01-06 08:01:47.996166	46.4	19.9	-92.8	7.0
2025-01-06 08:01:49.160206	46.6	20.0	-92.5	6.8
2025-01-06 08:01:50.325321	46.8	20.1	-92.6	12.2
2025-01-06 08:01:51.489049	47.0	20.2	-92.8	9.3
2025-01-06 08:01:52.645867	47.2	20.3	-92.7	11.3
2025-01-06 08:01:53.807261	47.5	20.3	-92.7	15.0
2025-01-06 08:01:54.971101	47.7	20.4	-92.6	14.2
2025-01-06 08:01:56.139954	47.9	20.5	-92.1	14.5
2025-01-06 08:01:57.309957	48.1	20.6	-92.2	11.6
2025-01-06 08:01:58.473759	48.4	20.7	-92.7	8.9
2025-01-06 08:01:59.635654	48.6	20.8	-92.4	7.1
2025-01-06 08:02:00.784726	48.8	20.9	-92.9	9.6
2025-01-06 08:02:01.953971	49.1	21.0	-93.1	6.6
2025-01-06 08:02:03.122866	49.3	21.1	-92.2	5.0
2025-01-06 08:02:04.291510	49.5	21.2	-92.0	11.0
2025-01-06 08:02:05.449744	49.8	21.3	-92.4	9.4
2025-01-06 08:02:06.618458	50.0	21.4	-91.9	10.1
2025-01-06 08:02:07.779002	50.2	21.5	-92.2	14.6
2025-01-06 08:02:08.941832	50.5	21.6	-92.5	17.0
2025-01-06 08:02:10.107379	50.7	21.7	-91.9	12.3
2025-01-06 08:02:11.272286	51.0	21.7	-92.3	13.1
2025-01-06 08:02:12.441094	51.2	21.8	-92.5	9.4
2025-01-06 08:02:13.600604	51.5	21.9	-92.7	11.8
2025-01-06 08:02:14.765777	51.7	22.0	-92.3	15.4
2025-01-06 08:02:15.930846	52.0	22.1	-92.4	15.0
2025-01-06 08:02:17.094657	52.2	22.2	-91.1	13.3
2025-01-06 08:02:18.259352	52.5	22.3	-91.9	13.9
2025-01-06 08:02:19.419761	52.7	22.4	-92.5	16.5
2025-01-06 08:02:20.584808	53.0	22.5	-92.7	13.5
2025-01-06 08:02:21.750228	53.2	22.6	-92.5	11.6
2025-01-06 08:02:22.914200	53.5	22.7	-92.1	11.6
2025-01-06 08:02:24.078896	53.7	22.7	-91.6	6.2
2025-01-06 08:02:25.245553	54.0	22.8	-92.0	12.6
2025-01-06 08:02:26.412176	54.3	22.9	-93.0	11.8
2025-01-06 08:02:27.576993	54.5	23.0	-92.0	7.8
2025-01-06 08:02:28.744629	54.8	23.1	-91.8	11.2
2025-01-06 08:02:29.905364	55.1	23.2	-91.8	13.8
2025-01-06 08:02:31.072269	55.3	23.3	-91.3	11.4
2025-01-06 08:02:32.245812	55.6	23.4	-91.6	12.6
2025-01-06 08:02:33.407150	55.9	23.4	-91.7	11.7
2025-01-06 08:02:34.575458	56.2	23.5	-91.6	7.6
2025-01-06 08:02:35.732994	56.4	23.6	-91.8	11.9
2025-01-06 08:02:36.898136	56.7	23.7	-91.6	9.7
2025-01-06 08:02:38.059450	57.0	23.8	-91.5	8.0
2025-01-06 08:02:39.224126	57.3	23.9	-92.5	9.4
2025-01-06 08:02:40.387461	57.5	24.0	-92.6	12.1
2025-01-06 08:02:41.553409	57.8	24.0	-92.5	10.5
2025-01-06 08:02:42.721209	58.1	24.1	-92.8	12.6
2025-01-06 08:02:43.881442	58.4	24.2	-92.4	11.1
2025-01-06 08:02:45.048932	58.7	24.3	-92.5	12.1
2025-01-06 08:02:46.213308	59.0	24.4	-91.8	12.0
2025-01-06 08:02:47.380803	59.3	24.5	-92.7	15.4
2025-01-06 08:02:48.552337	59.5	24.5	-92.5	9.6
2025-01-06 08:02:49.712909	59.8	24.6	-92.8	6.1
2025-01-06 08:02:50.874255	60.1	24.7	-93.3	11.4
2025-01-06 08:02:52.033756	60.4	24.8	-93.1	5.5
2025-01-06 08:02:53.195149	60.7	24.9	-92.7	11.0
2025-01-06 08:02:54.356257	61.0	24.9	-92.6	13.6
2025-01-06 08:02:55.518820	61.3	25.0	-92.8	9.1
2025-01-06 08:02:56.682634	61.6	25.1	-92.6	13.4
2025-01-06 08:02:57.850864	61.9	25.2	-92.8	11.6
2025-01-06 08:02:59.016579	62.2	25.2	-92.7	10.3
2025-01-06 08:03:00.173555	62.5	25.3	-92.1	14.5
2025-01-06 08:03:01.329494	62.8	25.4	-92.2	12.9
2025-01-06 08:03:02.493285	63.1	25.5	-92.5	9.8
2025-01-06 08:03:03.661039	63.4	25.5	-92.5	11.0
2025-01-06 08:03:04.826270	63.8	25.6	-92.8	11.3
2025-01-06 08:03:05.984834	64.1	25.7	-92.7	9.1
2025-01-06 08:03:07.141020	64.4	25.8	-92.9	8.6
2025-01-06 08:03:08.311703	64.7	25.8	-92.9	10.8
2025-01-06 08:03:09.478838	65.0	25.9	-92.6	6.7
2025-01-06 08:03:10.645172	65.3	26.0	-92.6	7.4
2025-01-06 08:03:11.810901	65.7	26.0	-93.1	13.1
2025-01-06 08:03:12.975891	66.0	26.1	-93.3	9.0
2025-01-06 08:03:14.146354	66.3	26.2	-92.6	9.5
2025-01-06 08:03:15.307779	66.6	26.2	-92.5	9.3
2025-01-06 08:03:16.466247	66.9	26.3	-92.8	9.6
2025-01-06 08:03:17.629119	67.3	26.4	-92.2	6.0
2025-01-06 08:03:18.791010	67.6	26.4	-92.7	4.8
2025-01-06 08:03:19.934789	67.9	26.5	-92.1	7.7
2025-01-06 08:03:21.097995	68.2	26.6	-91.4	3.0
2025-01-06 08:03:22.255360	68.6	26.6	-91.3	3.2
2025-01-06 08:03:23.416792	68.9	26.7	-91.6	5.7
2025-01-06 08:03:24.583870	69.2	26.7	-91.6	4.5
2025-01-06 08:03:25.741559	69.6	26.8	-91.4	6.0
2025-01-06 08:03:26.908192	69.9	26.9	-91.2	6.3
2025-01-06 08:03:28.072382	70.2	26.9	-90.9	2.5
2025-01-06 08:03:29.234843	70.6	27.0	-91.2	3.6
2025-01-06 08:03:30.395049	70.9	27.0	-91.7	4.6
2025-01-06 08:03:31.559784	71.3	27.1	-92.1	4.8
2025-01-06 08:03:32.724473	71.6	27.1	-91.8	3.7
2025-01-06 08:03:33.888855	71.9	27.2	-92.5	4.7
2025-01-06 08:03:35.054614	72.3	27.2	-91.8	4.3
2025-01-06 08:03:36.214601	72.6	27.3	-92.9	5.8
2025-01-06 08:03:37.368907	73.0	27.3	-92.9	8.6
2025-01-06 08:03:38.531028	73.3	27.4	-92.9	9.8
2025-01-06 08:03:39.698221	73.7	27.4	-92.9	11.7
2025-01-06 08:03:40.861809	74.0	27.5	-92.7	10.6
2025-01-06 08:03:42.027948	74.4	27.5	-92.2	5.3
2025-01-06 08:03:43.192056	74.7	27.6	-92.6	6.5
2025-01-06 08:03:44.345500	75.1	27.6	-93.1	7.7
2025-01-06 08:03:45.510766	75.4	27.7	-93.3	5.3
2025-01-06 08:03:46.678442	75.8	27.7	-92.7	8.2
2025-01-06 08:03:47.847552	76.1	27.7	-93.2	9.3
2025-01-06 08:03:49.015377	76.5	27.8	-92.6	11.2
2025-01-06 08:03:50.185215	76.8	27.8	-92.7	8.9
2025-01-06 08:03:51.350400	77.2	27.9	-93.1	12.7
2025-01-06 08:03:52.508978	77.6	27.9	-93.0	13.9
2025-01-06 08:03:53.675363	77.9	27.9	-93.2	14.9
2025-01-06 08:03:54.838133	78.3	28.0	-93.0	12.5
2025-01-06 08:03:55.992286	78.6	28.0	-92.8	14.1
2025-01-06 08:03:57.154753	79.0	28.0	-91.6	13.3
2025-01-06 08:03:58.275968	79.3	28.0	-91.8	18.3
2025-01-06 08:03:59.398937	79.7	28.1	-92.0	12.6
2025-01-06 08:04:00.520009	80.0	28.1	-92.0	12.8
2025-01-06 08:04:01.641117	80.4	28.1	-92.1	7.3
2025-01-06 08:04:02.761980	80.7	28.1	-92.0	9.8
2025-01-06 08:04:03.882716	81.1	28.2	-92.8	13.7
2025-01-06 08:04:05.007379	81.5	28.2	-92.6	11.1
2025-01-06 08:04:06.128645	81.8	28.2	-92.5	8.6
2025-01-06 08:04:07.279795	82.2	28.2	-92.4	13.1
2025-01-06 08:04:08.435077	82.5	28.3	-92.7	10.9
2025-01-06 08:04:09.593357	82.9	28.3	-93.1	6.7
2025-01-06 08:04:10.755275	83.3	28.3	-93.0	16.2
2025-01-06 08:04:11.922105	83.6	28.3	-93.0	10.2
2025-01-06 08:04:13.087555	84.0	28.3	-92.2	6.9
2025-01-06 08:04:14.244373	84.4	28.3	-92.9	15.1
2025-01-06 08:04:15.406355	84.7	28.3	-92.9	16.6
2025-01-06 08:04:16.570125	85.1	28.3	-92.9	9.1
2025-01-06 08:04:17.735642	85.5	28.4	-93.0	14.7
2025-01-06 08:04:18.895431	85.8	28.4	-92.8	13.2
2025-01-06 08:04:20.064278	86.2	28.4	-92.4	11.9
2025-01-06 08:04:21.228524	86.6	28.4	-92.8	13.2
2025-01-06 08:04:22.397793	87.0	28.4	-92.8	12.7
2025-01-06 08:04:23.563910	87.3	28.4	-92.8	14.9
2025-01-06 08:04:24.727003	87.7	28.4	-92.9	16.8
2025-01-06 08:04:25.892196	88.1	28.4	-93.0	16.2
2025-01-06 08:04:27.058083	88.4	28.4	-93.0	16.7
2025-01-06 08:04:28.227813	88.8	28.4	-92.8	12.0
2025-01-06 08:04:29.385026	89.2	28.4	-93.1	12.2
2025-01-06 08:04:30.549970	89.5	28.4	-93.1	16.7
2025-01-06 08:04:31.713494	89.9	28.4	-93.0	12.7
2025-01-06 08:04:32.874962	90.3	28.4	-93.0	14.2
2025-01-06 08:04:34.040550	90.7	28.4	-92.9	11.3
2025-01-06 08:04:35.203690	91.0	28.3	-93.1	12.9
2025-01-06 08:04:36.367015	91.4	28.3	-93.1	11.5
2025-01-06 08:04:37.530483	91.8	28.3	-92.7	10.3
2025-01-06 08:04:38.691131	92.1	28.3	-92.9	14.8
2025-01-06 08:04:39.857148	92.5	28.3	-93.2	9.5
2025-01-06 08:04:41.020741	92.9	28.3	-92.7	12.2
2025-01-06 08:04:42.187856	93.2	28.3	-92.6	12.4
2025-01-06 08:04:43.352698	93.6	28.2	-92.6	16.5
2025-01-06 08:04:44.517984	94.0	28.2	-92.8	10.0
2025-01-06 08:04:45.680243	94.3	28.2	-93.2	16.9
2025-01-06 08:04:46.838500	94.7	28.2	-93.3	11.3
2025-01-06 08:04:48.004203	95.1	28.1	-93.2	9.0
2025-01-06 08:04:49.165216	95.4	28.1	-92.8	8.1
2025-01-06 08:04:50.329599	95.8	28.1	-92.7	14.1
2025-01-06 08:04:51.492841	96.2	28.1	-92.9	9.7
2025-01-06 08:04:52.657764	96.5	28.0	-93.2	9.0
2025-01-06 08:04:53.817492	96.9	28.0	-93.1	18.7
2025-01-06 08:04:54.981627	97.2	28.0	-93.1	10.3
2025-01-06 08:04:56.141644	97.6	27.9	-93.1	7.0
2025-01-06 08:04:57.306185	98.0	27.9	-93.0	13.7
2025-01-06 08:04:58.469184	98.3	27.9	-93.4	10.0
2025-01-06 08:04:59.638397	98.7	27.8	-93.1	11.9
2025-01-06 08:05:00.787228	99.0	27.8	-92.7	19.4
2025-01-06 08:05:01.948183	99.4	27.8	-93.0	11.9
2025-01-06 08:05:03.113795	99.7	27.7	-93.0	8.9
2025-01-06 08:05:04.278374	100.1	27.7	-92.6	17.6
2025-01-06 08:05:05.444533	100.5	27.7	-92.6	9.1
2025-01-06 08:05:06.604459	100.8	27.6	-93.2	13.1
2025-01-06 08:05:07.769467	101.2	27.6	-92.7	7.1
2025-01-06 08:05:08.930326	101.5	27.5	-92.4	11.4
2025-01-06 08:05:10.094848	101.9	27.5	-92.0	6.7
2025-01-06 08:05:11.258074	102.2	27.4	-92.0	12.0
2025-01-06 08:05:12.422125	102.6	27.4	-93.2	8.0
2025-01-06 08:05:13.582484	102.9	27.3	-92.7	6.0
2025-01-06 08:05:14.748755	103.3	27.3	-93.0	13.1
2025-01-06 08:05:15.911348	103.6	27.2	-92.0	7.0
2025-01-06 08:05:17.070139	103.9	27.2	-91.9	5.0
2025-01-06 08:05:18.230045	104.3	27.1	-91.9	4.8
2025-01-06 08:05:19.393242	104.6	27.1	-92.3	8.9
2025-01-06 08:05:20.561909	105.0	27.0	-92.1	6.4
2025-01-06 08:05:21.723751	105.3	27.0	-92.2	7.1
2025-01-06 08:05:22.890883	105.7	26.9	-91.7	5.6
2025-01-06 08:05:24.051495	106.0	26.9	-92.9	4.9
2025-01-06 08:05:25.210336	106.3	26.8	-92.3	3.2
2025-01-06 08:05:26.373109	106.7	26.7	-92.5	6.0
2025-01-06 08:05:27.541166	107.0	26.7	-92.7	6.0
2025-01-06 08:05:28.706642	107.3	26.6	-92.5	3.2
2025-01-06 08:05:29.869350	107.7	26.5	-92.7	5.4
2025-01-06 08:05:31.035020	108.0	26.5	-92.4	6.9
2025-01-06 08:05:32.199732	108.3	26.4	-91.7	8.1
2025-01-06 08:05:33.363599	108.7	26.4	-91.9	10.0
2025-01-06 08:05:34.526013	109.0	26.3	-92.4	5.6
2025-01-06 08:05:35.680266	109.3	26.2	-92.6	4.0
2025-01-06 08:05:36.840081	109.6	26.2	-92.6	9.7
2025-01-06 08:05:38.001330	110.0	26.1	-92.7	7.4
2025-01-06 08:05:39.162559	110.3	26.0	-92.2	9.0
2025-01-06 08:05:40.325457	110.6	26.0	-92.3	5.7
2025-01-06 08:05:41.497075	110.9	25.9	-92.3	3.9
2025-01-06 08:05:42.658169	111.2	25.8	-92.2	6.4
2025-01-06 08:05:43.809643	111.5	25.7	-92.3	8.2
2025-01-06 08:05:44.971910	111.9	25.7	-92.2	4.7
2025-01-06 08:05:46.134202	112.2	25.6	-92.1	3.1
2025-01-06 08:05:47.292578	112.5	25.5	-91.7	5.7
2025-01-06 08:05:48.467444	112.8	25.4	-92.4	5.4
2025-01-06 08:05:49.632592	113.1	25.4	-92.5	4.0
2025-01-06 08:05:50.794182	113.4	25.3	-92.5	7.0
2025-01-06 08:05:51.944181	113.7	25.2	-92.3	5.4
2025-01-06 08:05:53.100337	114.0	25.1	-92.5	6.2
2025-01-06 08:05:54.264027	114.3	25.1	-92.5	12.2
2025-01-06 08:05:55.429005	114.6	25.0	-92.7	8.7
2025-01-06 08:05:56.594846	114.9	24.9	-92.2	9.2
2025-01-06 08:05:57.756541	115.2	24.8	-91.9	12.2
2025-01-06 08:05:58.921879	115.5	24.8	-92.1	7.9
2025-01-06 08:06:00.086387	115.8	24.7	-91.6	6.7
2025-01-06 08:06:01.236144	116.1	24.6	-91.9	11.6
2025-01-06 08:06:02.402261	116.4	24.5	-91.8	9.5
2025-01-06 08:06:03.561712	116.7	24.4	-91.9	11.1
2025-01-06 08:06:04.723783	117.0	24.3	-91.9	12.5
2025-01-06 08:06:05.892443	117.3	24.3	-92.1	13.4
2025-01-06 08:06:07.042852	117.6	24.2	-92.2	10.7
2025-01-06 08:06:08.208324	117.8	24.1	-92.0	13.6
2025-01-06 08:06:09.370884	118.1	24.0	-92.3	10.6
2025-01-06 08:06:10.533213	118.4	23.9	-92.6	9.0
2025-01-06 08:06:11.696962	118.7	23.8	-93.3	10.7
2025-01-06 08:06:12.861535	119.0	23.8	-93.3	10.9
2025-01-06 08:06:14.028689	119.3	23.7	-92.7	13.0
2025-01-06 08:06:15.193122	119.5	23.6	-92.5	13.9
2025-01-06 08:06:16.354802	119.8	23.5	-92.9	14.3
2025-01-06 08:06:17.520170	120.1	23.4	-93.0	11.3
2025-01-06 08:06:18.683063	120.4	23.3	-93.7	10.6
2025-01-06 08:06:19.848534	120.6	23.2	-92.6	12.3
2025-01-06 08:06:21.008315	120.9	23.1	-92.2	10.4
2025-01-06 08:06:22.171995	121.2	23.1	-91.7	10.8
2025-01-06 08:06:23.335269	121.4	23.0	-91.7	12.5
2025-01-06 08:06:24.499526	121.7	22.9	-91.9	11.4
2025-01-06 08:06:25.666202	122.0	22.8	-92.1	11.9
2025-01-06 08:06:26.826732	122.2	22.7	-92.1	12.4
2025-01-06 08:06:27.996493	122.5	22.6	-92.3	9.0
2025-01-06 08:06:29.159614	122.7	22.5	-92.3	11.7
2025-01-06 08:06:30.325653	123.0	22.4	-92.2	11.6
2025-01-06 08:06:31.487785	123.3	22.3	-92.4	7.9
2025-01-06 08:06:32.653742	123.5	22.2	-92.1	9.8
2025-01-06 08:06:33.819246	123.8	22.1	-92.8	13.4
2025-01-06 08:06:34.983148	124.0	22.1	-93.1	9.6
2025-01-06 08:06:36.148616	124.3	22.0	-92.3	9.2
2025-01-06 08:06:37.301182	124.5	21.9	-91.3	15.5
2025-01-06 08:06:38.466978	124.8	21.8	-92.2	8.9
2025-01-06 08:06:39.628879	125.0	21.7	-92.4	10.1
2025-01-06 08:06:40.792107	125.3	21.6	-92.5	13.7
2025-01-06 08:06:41.956816	125.5	21.5	-92.5	11.3
2025-01-06 08:06:43.123120	125.7	21.4	-91.7	11.7
2025-01-06 08:06:44.282445	126.0	21.3	-91.7	14.7
2025-01-06 08:06:45.449026	126.2	21.2	-92.2	12.9
2025-01-06 08:06:46.604854	126.5	21.1	-92.0	12.6
2025-01-06 08:06:47.770334	126.7	21.0	-92.2	14.5
2025-01-06 08:06:48.937045	126.9	20.9	-92.4	16.7
2025-01-06 08:06:50.098969	127.2	20.8	-92.1	13.7
2025-01-06 08:06:51.251405	127.4	20.7	-92.0	14.3
2025-01-06 08:06:52.405442	127.6	20.7	-92.0	15.9
2025-01-06 08:06:53.527471	127.9	20.6	-92.3	12.7
2025-01-06 08:06:54.648760	128.1	20.5	-92.1	16.2
2025-01-06 08:06:55.769051	128.3	20.4	-92.7	17.0
2025-01-06 08:06:56.889515	128.5	20.3	-91.7	14.0
2025-01-06 08:06:58.009116	128.7	20.2	-92.1	13.6
2025-01-06 08:06:59.131218	128.9	20.1	-92.2	12.5
2025-01-06 08:07:00.256273	129.2	20.0	-92.1	15.7
2025-01-06 08:07:01.380161	129.4	19.9	-92.6	16.1
2025-01-06 08:07:02.541557	129.6	19.8	-92.8	9.3
2025-01-06 08:07:03.691158	129.8	19.7	-92.2	14.8
2025-01-06 08:07:04.853209	130.0	19.6	-92.6	15.5
2025-01-06 08:07:06.022507	130.2	19.5	-92.8	9.0
2025-01-06 08:07:07.179290	130.5	19.4	-92.4	10.1
2025-01-06 08:07:08.344842	130.7	19.4	-92.4	12.7
2025-01-06 08:07:09.509514	130.9	19.3	-92.7	8.5
2025-01-06 08:07:10.672305	131.1	19.2	-91.7	10.5
2025-01-06 08:07:11.842367	131.3	19.1	-92.2	14.7
2025-01-06 08:07:13.003125	131.5	19.0	-93.6	14.3
2025-01-06 08:07:14.167593	131.7	18.9	-93.3	12.6
2025-01-06 08:07:15.332004	131.9	18.8	-93.2	11.1
2025-01-06 08:07:16.486690	132.1	18.7	-93.0	13.4
2025-01-06 08:07:17.655338	132.3	18.6	-93.3	14.3
2025-01-06 08:07:18.832726	132.5	18.5	-93.4	13.8
2025-01-06 08:07:19.993881	132.7	18.4	-93.0	16.0
2025-01-06 08:07:21.159880	132.9	18.3	-92.6	14.6
2025-01-06 08:07:22.324451	133.1	18.2	-93.0	15.1
2025-01-06 08:07:23.487047	133.3	18.1	-93.2	10.1
2025-01-06 08:07:24.655320	133.5	18.0	-93.3	12.3
2025-01-06 08:07:25.821144	133.7	17.9	-93.2	13.1
2025-01-06 08:07:26.986140	133.9	17.8	-93.1	10.3
2025-01-06 08:07:28.150576	134.1	17.7	-92.8	9.8
2025-01-06 08:07:29.315551	134.3	17.6	-92.9	16.0
2025-01-06 08:07:30.476828	134.5	17.5	-93.4	9.7
2025-01-06 08:07:31.646655	134.7	17.4	-93.3	11.5
2025-01-06 08:07:32.806912	134.9	17.3	-93.4	14.4
2025-01-06 08:07:33.964583	135.1	17.3	-92.9	10.4
2025-01-06 08:07:35.131175	135.2	17.2	-92.9	7.7
2025-01-06 08:07:36.293809	135.4	17.1	-92.8	9.1
2025-01-06 08:07:37.456012	135.6	17.0	-93.2	8.9
2025-01-06 08:07:38.620868	135.8	16.9	-93.1	12.1
2025-01-06 08:07:39.790099	136.0	16.8	-93.5	12.8
2025-01-06 08:07:40.947058	136.1	16.7	-93.6	7.5
2025-01-06 08:07:42.109744	136.3	16.6	-93.3	12.3
2025-01-06 08:07:43.275767	136.5	16.5	-93.2	9.9
2025-01-06 08:07:44.436496	136.7	16.4	-93.3	8.0
2025-01-06 08:07:45.603136	136.9	16.3	-93.2	6.4
2025-01-06 08:07:46.765554	137.0	16.2	-93.1	7.9
2025-01-06 08:07:47.922513	137.2	16.1	-93.3	6.4
2025-01-06 08:07:49.085315	137.4	16.0	-93.0	4.6
2025-01-06 08:07:50.262123	137.6	15.9	-93.0	6.0
2025-01-06 08:07:51.425438	137.7	15.8	-93.5	4.0
2025-01-06 08:07:52.591940	137.9	15.7	-93.0	5.1
2025-01-06 08:07:53.757547	138.1	15.7	-92.4	5.1
2025-01-06 08:07:54.920485	138.2	15.6	-92.3	3.5
2025-01-06 08:07:56.083004	138.4	15.5	-91.9	4.3
2025-01-06 08:07:57.245009	138.6	15.4	-92.2	6.3
2025-01-06 08:07:58.408380	138.7	15.3	-92.4	7.5
2025-01-06 08:07:59.566585	138.9	15.2	-93.0	8.5
2025-01-06 08:08:00.716064	139.1	15.1	-92.5	8.5
2025-01-06 08:08:01.877386	139.2	15.0	-92.8	9.1
2025-01-06 08:08:03.040820	139.4	14.9	-92.5	8.2
2025-01-06 08:08:04.208915	139.5	14.8	-92.5	6.3
2025-01-06 08:08:05.373562	139.7	14.7	-92.5	6.6
2025-01-06 08:08:06.522033	139.8	14.6	-92.1	4.1
#Closed at: 2025-01-06 08:00:52.300462