passes_logs/2026/01/19/XPeterburg/XPeterburg__20260119_091314_FENGYUN_3F_rec.log

#Pass ID: 20260119_091314_FENGYUN 3F
#Satellite: FENGYUN 3F
#Configuration: FENGYUN 3F
#Start time: 2026-01-19 09:13:09

#Version: 1.5.20200625
#Station: XPeterburg
#Location: 30.318091 lon 59.932769 lat
#TLE: 1 57490U 23111A   26015.97897389  .00000023  00000+0  31269-4 0  9996
#TLE: 2 57490  98.7032  88.7121 0001260 114.8854 245.2453 14.19903552127265

#Time	Az	El	Level	Level2	SNR	BER	Gain	Gain2
2026-01-19 09:13:09.35	16.76	68.07	-38.9	-41.2	3.3	8387065	96	6380
2026-01-19 09:13:09.76	16.74	68.26	-39.3	-44.3	3.5	8375953	92	8689
2026-01-19 09:13:10.16	16.71	68.44	-38.7	-41.8	3.3	8374992	94	6995
2026-01-19 09:13:10.56	16.69	68.62	-38.7	-42.8	3.6	8442192	94	7922
2026-01-19 09:13:10.96	16.67	68.81	-38.6	-41.5	3.3	8424613	94	6822
2026-01-19 09:13:11.36	16.64	68.99	-38.5	-42.4	3.6	8410995	94	7705
2026-01-19 09:13:11.77	16.61	69.18	-38.4	-40.6	3.3	8399608	94	6359
2026-01-19 09:13:12.17	16.59	69.36	-38.4	-41.9	3.6	8428504	94	7397
2026-01-19 09:13:12.57	16.56	69.55	-38.2	-39.8	3.3	8444057	94	5956
2026-01-19 09:13:12.97	16.53	69.74	-37.8	-40.5	3.6	8392639	93	6683
2026-01-19 09:13:13.37	16.50	69.92	-37.5	-38.1	3.7	8389904	93	5269
2026-01-19 09:13:13.77	16.48	70.11	-37.5	-38.2	3.7	8345729	93	5346
2026-01-19 09:13:14.18	16.45	70.30	-37.6	-38.6	3.6	8354530	93	5480
2026-01-19 09:13:14.58	16.42	70.48	-37.2	-38.6	4.0	8400547	92	5813
2026-01-19 09:13:14.98	16.39	70.67	-36.5	-36.5	4.5	8209705	91	4886
2026-01-19 09:13:15.38	16.35	70.86	-36.3	-35.8	4.8	7753154	91	4644
2026-01-19 09:13:15.78	16.32	71.05	-36.6	-36.6	4.5	7806953	91	4926
2026-01-19 09:13:16.18	16.29	71.23	-37.0	-37.7	4.1	7991775	91	5349
2026-01-19 09:13:16.59	16.26	71.43	-37.0	-37.7	4.1	8210449	91	5318
2026-01-19 09:13:16.99	16.22	71.62	-36.8	-37.3	4.3	8176322	91	5169
2026-01-19 09:13:17.39	16.19	71.81	-36.7	-36.8	4.4	8051879	91	5004
2026-01-19 09:13:17.79	16.15	72.00	-36.7	-36.7	4.4	7946022	91	4952
2026-01-19 09:13:18.19	16.11	72.19	-36.7	-36.7	4.4	7955532	91	4917
2026-01-19 09:13:18.60	16.08	72.38	-36.5	-36.2	4.5	8007568	91	4767
2026-01-19 09:13:19.00	16.04	72.57	-36.3	-35.7	4.7	7801105	91	4572
2026-01-19 09:13:19.40	16.00	72.76	-35.6	-35.0	5.2	7229667	89	4580
2026-01-19 09:13:19.80	15.96	72.95	-35.4	-34.6	5.4	6826572	89	4486
2026-01-19 09:13:20.20	15.92	73.14	-35.6	-35.0	5.2	6458587	89	4565
2026-01-19 09:13:20.61	15.87	73.34	-36.0	-35.9	4.8	7410301	89	4846
2026-01-19 09:13:21.01	15.83	73.53	-36.1	-36.0	4.8	7627372	89	4897
2026-01-19 09:13:21.41	15.79	73.72	-35.8	-35.5	5.1	7587032	89	4724
2026-01-19 09:13:21.81	15.74	73.92	-35.8	-35.4	5.1	7217147	89	4713
2026-01-19 09:13:22.21	15.69	74.11	-36.1	-36.3	4.8	7323944	89	5000
2026-01-19 09:13:22.61	15.65	74.30	-36.5	-37.2	4.5	7711647	89	5342
2026-01-19 09:13:23.02	15.60	74.50	-36.5	-36.7	4.5	7924026	90	5034
2026-01-19 09:13:23.42	15.55	74.70	-36.2	-36.1	4.8	7900119	90	4838
2026-01-19 09:13:23.82	15.49	74.89	-36.1	-35.8	4.9	7489597	90	4744
2026-01-19 09:13:24.22	15.44	75.08	-36.1	-35.9	4.9	7309169	90	4777
2026-01-19 09:13:24.62	15.38	75.28	-36.4	-36.4	4.7	7611499	90	4934
2026-01-19 09:13:25.02	15.33	75.47	-36.7	-37.3	4.4	7785049	90	5250
2026-01-19 09:13:25.43	15.27	75.67	-36.8	-37.4	4.4	7993331	90	5298
2026-01-19 09:13:25.83	15.21	75.87	-36.5	-36.9	4.6	7907203	90	5109
2026-01-19 09:13:26.23	15.15	76.06	-36.4	-36.5	4.8	7709987	90	4966
2026-01-19 09:13:26.63	15.08	76.26	-36.6	-37.0	4.6	7664932	90	5155
2026-01-19 09:13:27.03	15.02	76.46	-36.9	-37.9	4.3	7901607	90	5509
2026-01-19 09:13:27.43	14.95	76.65	-37.3	-38.2	4.2	8181266	91	5479
2026-01-19 09:13:27.84	14.88	76.86	-37.1	-37.6	4.4	8061206	91	5237
2026-01-19 09:13:28.24	14.81	77.05	-37.1	-37.6	4.4	7998985	91	5248
2026-01-19 09:13:28.64	14.73	77.25	-37.4	-38.7	4.0	8105472	91	5687
2026-01-19 09:13:29.04	14.66	77.45	-37.5	-39.7	3.8	8302986	92	6333
2026-01-19 09:13:29.44	14.58	77.64	-37.3	-37.9	4.1	8306076	92	5316
2026-01-19 09:13:29.85	14.49	77.85	-37.2	-37.2	4.1	8203651	92	4939
2026-01-19 09:13:30.25	14.41	78.05	-37.3	-37.6	4.1	8186759	92	5057
2026-01-19 09:13:30.65	14.32	78.24	-37.8	-38.8	3.8	8264316	92	5518
2026-01-19 09:13:31.05	14.23	78.44	-37.9	-39.7	3.7	8407024	92	6054
2026-01-19 09:13:31.45	14.13	78.64	-37.6	-38.3	3.9	8319877	92	5308
2026-01-19 09:13:31.86	14.03	78.85	-37.0	-36.7	4.4	8259395	92	4719
2026-01-19 09:13:32.26	13.93	79.04	-36.8	-36.6	4.6	7934062	91	4817
2026-01-19 09:13:32.66	13.83	79.24	-37.1	-37.5	4.3	7925765	91	5145
2026-01-19 09:13:33.06	13.72	79.44	-37.6	-38.4	3.8	8266891	92	5359
2026-01-19 09:13:33.46	13.60	79.64	-37.8	-39.7	3.9	8398715	92	6101
2026-01-19 09:13:33.87	13.48	79.85	-37.5	-38.1	4.0	8341884	92	5252
2026-01-19 09:13:34.27	13.36	80.05	-37.7	-38.5	3.9	8278827	92	5404
2026-01-19 09:13:34.67	13.23	80.25	-37.9	-40.5	3.7	8393165	92	6630
2026-01-19 09:13:35.07	13.09	80.45	-38.0	-39.0	3.6	8378929	93	5517
2026-01-19 09:13:35.47	12.95	80.65	-38.2	-40.9	3.6	8375793	93	6697
2026-01-19 09:13:35.88	12.80	80.85	-38.4	-40.0	3.5	8409667	93	5896
2026-01-19 09:13:36.28	12.65	81.06	-38.7	-41.8	3.6	8389698	94	7031
2026-01-19 09:13:36.68	12.49	81.26	-38.7	-40.6	3.3	8408672	94	6117
2026-01-19 09:13:37.08	12.32	81.46	-38.3	-40.8	3.6	8396255	94	6499
2026-01-19 09:13:37.48	12.14	81.66	-38.0	-38.6	3.7	8422027	94	5273
2026-01-19 09:13:37.88	11.95	81.86	-37.9	-39.7	3.7	8355182	94	6003
2026-01-19 09:13:38.29	11.75	82.07	-38.3	-39.7	3.5	8423274	94	5789
2026-01-19 09:13:38.69	11.55	82.27	-38.5	-39.8	3.4	8386791	94	5753
2026-01-19 09:13:39.09	11.33	82.47	-38.3	-40.1	3.5	8437637	94	6008
2026-01-19 09:13:39.49	11.10	82.67	-38.2	-38.9	3.5	8377143	94	5367
2026-01-19 09:13:39.89	10.86	82.87	-38.3	-40.2	3.6	8426868	94	6104
2026-01-19 09:13:40.30	10.59	83.08	-38.4	-39.6	3.4	8384181	94	5651
2026-01-19 09:13:40.70	10.32	83.28	-38.2	-39.7	3.7	8413169	94	5875
2026-01-19 09:13:41.10	10.03	83.48	-37.8	-37.8	3.7	8379776	94	4942
2026-01-19 09:13:41.50	9.72	83.68	-38.0	-40.2	3.7	8337959	93	6360
2026-01-19 09:13:41.90	9.39	83.88	-38.3	-40.1	3.6	8407894	93	6096
2026-01-19 09:13:42.31	9.03	84.09	-38.3	-39.8	3.5	8376274	93	5880
2026-01-19 09:13:42.71	8.65	84.29	-37.6	-38.4	4.1	8422885	93	5364
2026-01-19 09:13:43.11	8.25	84.49	-37.6	-37.7	4.0	8241542	93	4999
2026-01-19 09:13:43.51	7.81	84.69	-37.9	-38.7	3.7	8287216	93	5418
2026-01-19 09:13:43.91	7.34	84.89	-38.3	-40.3	3.6	8424419	93	6244
2026-01-19 09:13:44.31	6.83	85.09	-38.4	-40.1	3.5	8381973	93	6018
2026-01-19 09:13:44.72	6.26	85.30	-38.1	-40.2	3.8	8418537	93	6221
2026-01-19 09:13:45.12	5.65	85.50	-37.9	-38.7	3.8	8353351	93	5355
2026-01-19 09:13:45.52	4.99	85.70	-37.6	-37.9	3.9	8294082	93	5059
2026-01-19 09:13:45.92	4.27	85.90	-37.8	-38.4	3.8	8291141	93	5270
2026-01-19 09:13:46.32	3.47	86.09	-38.0	-38.8	3.7	8331035	93	5409
2026-01-19 09:13:46.72	2.58	86.29	-38.0	-40.2	3.7	8314098	93	6352
2026-01-19 09:13:47.13	1.57	86.49	-38.0	-39.1	3.8	8368148	93	5604
2026-01-19 09:13:47.53	0.47	86.69	-38.2	-39.5	3.6	8350456	93	5664
2026-01-19 09:13:47.93	359.22	86.88	-38.4	-40.6	3.6	8429397	93	6344
2026-01-19 09:13:48.33	357.82	87.07	-38.4	-39.7	3.4	8382476	94	5681
2026-01-19 09:13:48.74	356.17	87.27	-38.2	-39.7	3.7	8435588	94	5853
2026-01-19 09:13:49.14	354.32	87.46	-38.2	-38.8	3.6	8383781	94	5307
2026-01-19 09:13:49.54	352.17	87.64	-38.3	-40.4	3.7	8402538	94	6249
2026-01-19 09:13:49.94	349.67	87.82	-38.3	-39.2	3.5	8391014	94	5470
2026-01-19 09:13:50.34	346.71	88.00	-38.2	-40.4	3.6	8417118	94	6320
2026-01-19 09:13:50.74	343.20	88.17	-38.1	-38.5	3.7	8373172	94	5175
2026-01-19 09:13:51.15	338.87	88.33	-38.3	-40.6	3.6	8350570	94	6380
2026-01-19 09:13:51.55	333.77	88.48	-38.5	-39.9	3.5	8407424	94	5764
2026-01-19 09:13:51.95	327.60	88.62	-38.7	-41.7	3.6	8395637	94	6957
2026-01-19 09:13:52.35	320.20	88.74	-38.6	-40.1	3.4	8417404	94	5881
2026-01-19 09:13:52.75	311.47	88.83	-38.6	-41.6	3.6	8407070	94	6936
2026-01-19 09:13:53.15	301.54	88.89	-38.5	-39.8	3.6	8417129	94	5744
2026-01-19 09:13:53.56	290.57	88.91	-38.4	-40.9	3.6	8382041	94	6546
2026-01-19 09:13:53.96	279.79	88.90	-38.2	-39.3	3.7	8422531	94	5545
2026-01-19 09:13:54.36	269.67	88.84	-38.0	-38.3	3.7	8349586	94	5064
2026-01-19 09:13:54.76	260.69	88.76	-37.9	-38.4	3.9	8319042	93	5239
2026-01-19 09:13:55.16	253.03	88.64	-37.5	-37.4	4.1	8244575	93	4870
2026-01-19 09:13:55.57	246.49	88.51	-37.3	-37.0	4.3	8117397	93	4718
2026-01-19 09:13:55.97	241.22	88.36	-37.4	-37.6	4.3	8060314	92	5034
2026-01-19 09:13:56.37	236.85	88.20	-37.7	-38.4	3.9	8110965	92	5364
2026-01-19 09:13:56.77	233.22	88.03	-38.1	-39.1	3.7	8320026	93	5520
2026-01-19 09:13:57.18	230.09	87.85	-38.3	-40.5	3.7	8421249	93	6320
2026-01-19 09:13:57.58	227.52	87.67	-38.3	-39.6	3.6	8358146	93	5732
2026-01-19 09:13:57.98	225.32	87.49	-38.0	-40.0	4.0	8386138	93	6137
2026-01-19 09:13:58.38	223.42	87.30	-38.0	-38.7	3.8	8359268	93	5333
2026-01-19 09:13:58.78	221.77	87.11	-38.1	-40.5	3.7	8367679	93	6470
2026-01-19 09:13:59.18	220.33	86.92	-38.5	-39.8	3.5	8372108	94	5703
2026-01-19 09:13:59.59	219.03	86.72	-38.4	-40.9	3.6	8366306	94	6546
2026-01-19 09:13:59.99	217.90	86.53	-38.3	-39.3	3.6	8413558	94	5535
2026-01-19 09:14:00.39	216.89	86.33	-38.3	-40.6	3.6	8354335	94	6443
2026-01-19 09:14:00.79	215.99	86.13	-38.3	-39.5	3.6	8418285	94	5663
2026-01-19 09:14:01.19	215.18	85.93	-38.2	-40.5	3.6	8364463	94	6374
2026-01-19 09:14:01.60	214.42	85.73	-38.1	-38.8	3.7	8378139	94	5334
2026-01-19 09:14:02.00	213.75	85.53	-38.2	-38.9	3.6	8351028	94	5379
2026-01-19 09:14:02.40	213.13	85.33	-38.4	-39.8	3.5	8369556	94	5764
2026-01-19 09:14:02.80	212.57	85.13	-38.5	-41.1	3.7	8428813	94	6663
2026-01-19 09:14:03.20	212.05	84.93	-38.2	-39.3	3.5	8388931	94	5535
2026-01-19 09:14:03.61	211.56	84.73	-38.2	-40.3	3.7	8378608	94	6320
2026-01-19 09:14:04.01	211.12	84.52	-38.2	-39.2	3.5	8385326	94	5511
2026-01-19 09:14:04.41	210.71	84.32	-38.2	-40.7	3.6	8389629	94	6530
2026-01-19 09:14:04.81	210.33	84.12	-38.5	-39.9	3.4	8388725	94	5806
2026-01-19 09:14:05.21	209.97	83.92	-38.5	-41.6	3.6	8388725	94	6991
2026-01-19 09:14:05.61	209.63	83.72	-38.4	-39.8	3.5	8425712	94	5754
2026-01-19 09:14:06.02	209.31	83.51	-38.2	-40.3	3.6	8394149	94	6293
2026-01-19 09:14:06.42	209.02	83.31	-38.1	-39.1	3.6	8402904	94	5470
2026-01-19 09:14:06.82	208.75	83.11	-38.2	-40.5	3.6	8373573	94	6423
2026-01-19 09:14:07.22	208.48	82.91	-38.2	-39.4	3.6	8418777	94	5668
2026-01-19 09:14:07.62	208.24	82.71	-37.9	-38.2	3.7	8362953	94	5096
2026-01-19 09:14:08.03	208.00	82.50	-37.7	-38.1	3.8	8313526	93	5123
2026-01-19 09:14:08.43	207.78	82.30	-37.8	-38.3	3.8	8329605	93	5189
2026-01-19 09:14:08.83	207.57	82.10	-37.8	-39.7	3.7	8327728	93	6110
2026-01-19 09:14:09.23	207.38	81.90	-37.7	-38.4	3.9	8385589	93	5323
2026-01-19 09:14:09.63	207.19	81.69	-37.6	-37.7	3.9	8322864	93	4996
2026-01-19 09:14:10.03	207.01	81.49	-37.9	-40.0	3.7	8336540	93	6243
2026-01-19 09:14:10.44	206.84	81.29	-38.3	-40.1	3.6	8420276	93	6024
2026-01-19 09:14:10.84	206.67	81.09	-38.5	-39.9	3.4	8383026	94	5807
2026-01-19 09:14:11.24	206.52	80.88	-38.4	-40.2	3.5	8433174	94	6040
2026-01-19 09:14:11.64	206.37	80.68	-38.3	-39.3	3.5	8378322	94	5510
2026-01-19 09:14:12.05	206.23	80.48	-38.5	-40.5	3.6	8432167	94	6158
2026-01-19 09:14:12.45	206.09	80.28	-38.5	-39.9	3.4	8406761	94	5775
2026-01-19 09:14:12.85	205.96	80.08	-38.4	-40.4	3.6	8436664	94	6217
2026-01-19 09:14:13.25	205.83	79.88	-38.3	-39.3	3.5	8389343	94	5484
2026-01-19 09:14:13.65	205.72	79.68	-38.3	-40.4	3.7	8426685	94	6225
2026-01-19 09:14:14.06	205.60	79.47	-38.4	-39.7	3.4	8402332	94	5677
2026-01-19 09:14:14.46	205.49	79.27	-38.6	-41.5	3.6	8415172	94	6865
2026-01-19 09:14:14.86	205.38	79.07	-38.5	-39.8	3.4	8398189	94	5752
2026-01-19 09:14:15.26	205.28	78.87	-38.2	-40.4	3.6	8418926	94	6314
2026-01-19 09:14:15.67	205.18	78.67	-38.1	-38.7	3.6	8426010	94	5269
2026-01-19 09:14:16.07	205.08	78.47	-38.2	-40.2	3.6	8366924	94	6222
2026-01-19 09:14:16.47	204.99	78.27	-38.1	-38.9	3.6	8407276	94	5351
2026-01-19 09:14:16.87	204.90	78.07	-38.1	-40.2	3.6	8393028	94	6232
2026-01-19 09:14:17.27	204.82	77.87	-37.8	-38.2	3.7	8429145	94	5101
2026-01-19 09:14:17.68	204.73	77.67	-37.9	-38.6	3.7	8359611	93	5314
2026-01-19 09:14:18.08	204.65	77.47	-37.9	-38.6	3.7	8342433	93	5340
2026-01-19 09:14:18.48	204.57	77.27	-37.8	-39.9	3.7	8400089	93	6244
2026-01-19 09:14:18.88	204.50	77.08	-37.7	-38.1	3.8	8340248	93	5155
2026-01-19 09:14:19.28	204.43	76.88	-37.6	-38.0	3.8	8325862	93	5102
2026-01-19 09:14:19.69	204.36	76.68	-37.5	-37.7	3.9	8299324	93	5021
2026-01-19 09:14:20.09	204.29	76.48	-37.5	-37.8	3.9	8283931	93	5048
2026-01-19 09:14:20.49	204.22	76.28	-37.6	-37.9	3.8	8307723	93	5098
2026-01-19 09:14:20.89	204.16	76.09	-37.4	-37.4	3.9	8304393	93	4923
2026-01-19 09:14:21.29	204.10	75.89	-37.3	-37.1	4.1	8257461	93	4799
2026-01-19 09:14:21.69	204.04	75.70	-37.1	-37.1	4.2	8214477	92	4893
2026-01-19 09:14:22.10	203.98	75.49	-37.0	-36.8	4.2	8139862	92	4820
2026-01-19 09:14:22.50	203.92	75.30	-36.9	-36.6	4.3	8100288	92	4744
2026-01-19 09:14:22.90	203.86	75.10	-36.9	-36.7	4.3	8035583	92	4773
2026-01-19 09:14:23.30	203.81	74.91	-37.0	-36.8	4.3	8063999	92	4829
2026-01-19 09:14:23.70	203.76	74.72	-37.1	-37.1	4.1	8137104	92	4946
2026-01-19 09:14:24.10	203.71	74.52	-37.1	-37.3	4.1	8207508	92	5007
2026-01-19 09:14:24.51	203.66	74.32	-37.1	-37.1	4.1	8206272	92	4967
2026-01-19 09:14:24.91	203.61	74.13	-37.2	-37.5	4.1	8196178	92	5122
2026-01-19 09:14:25.31	203.56	73.94	-37.1	-37.2	4.1	8220989	92	4976
2026-01-19 09:14:25.71	203.51	73.74	-37.1	-37.2	4.1	8213939	92	4977
2026-01-19 09:14:26.11	203.47	73.55	-37.0	-36.9	4.1	8215610	92	4879
2026-01-19 09:14:26.52	203.43	73.35	-36.9	-36.6	4.2	8187526	92	4761
2026-01-19 09:14:26.92	203.38	73.16	-36.8	-36.3	4.3	8139152	92	4644
2026-01-19 09:14:27.32	203.34	72.97	-36.6	-36.1	4.5	7989875	91	4676
2026-01-19 09:14:27.72	203.30	72.78	-36.4	-35.8	4.6	7780872	91	4595
2026-01-19 09:14:28.12	203.26	72.59	-36.4	-35.8	4.6	7815101	91	4579
2026-01-19 09:14:28.52	203.22	72.40	-36.7	-36.4	4.4	7876190	91	4777
2026-01-19 09:14:28.93	203.18	72.20	-36.8	-36.8	4.2	8112522	91	4891
2026-01-19 09:14:29.33	203.15	72.01	-37.0	-37.2	4.1	8202964	91	5028
2026-01-19 09:14:29.73	203.11	71.82	-37.1	-37.5	4.0	8225200	91	5154
2026-01-19 09:14:30.13	203.08	71.63	-37.2	-37.7	3.9	8272281	91	5255
2026-01-19 09:14:30.53	203.04	71.44	-37.5	-38.6	3.7	8306510	91	5591
2026-01-19 09:14:30.94	203.01	71.25	-37.7	-39.9	3.8	8414588	92	6341
2026-01-19 09:14:31.34	202.98	71.06	-37.8	-39.0	3.6	8401760	92	5655
2026-01-19 09:14:31.74	202.94	70.87	-37.5	-39.8	3.7	8389434	92	6354
2026-01-19 09:14:32.14	202.91	70.68	-37.3	-37.8	3.8	8335578	92	5190
2026-01-19 09:14:32.54	202.88	70.50	-38.7	-42.3	3.6	8424819	94	7436
2026-01-19 09:14:32.95	202.85	70.30	-39.2	-41.6	3.3	8406040	95	6457

#Closed at: 2026-01-19 09:14:33