passes_logs/2026/01/29/R3.2S_Murmansk_2ch/R3.2S_Murmansk_2ch__20260129_212434_JL1KF02B01_rec.log

#Pass ID: 20260129_212434_JL1KF02B01
#Satellite: JL1KF02B01
#Configuration: 01B_900M
#almurnet v.1.7.20251203
#Start time: 2026-01-29 21:24:34

#Version: 2.2.20231116
#Station: R3.2S_Murmansk_2ch
#Location: 33.079688 lon 68.888172 lat
#TLE: 1 61191U 24169C   26028.95513050  .00007507  00000+0  46820-3 0  9997
#TLE: 2 61191  97.5609 120.3307 0014645  79.9682 280.3199 15.09725114 74821

#Time	Az	El	Level	Level2	SNR	BER	BlckErr	Temp	State	Recorded	gain1	gain2
2026-01-29 21:24:34.57	200.36	2.02	-47.8	-50.4	6.2	0.00e+00	0	43	0	0	67	19056
2026-01-29 21:24:37.59	200.59	2.21	-47.8	-50.3	6.2	0.00e+00	0	43	104	0	67	19006
2026-01-29 21:24:40.61	200.82	2.40	-47.8	-50.3	6.2	0.00e+00	0	43	104	0	67	18971
2026-01-29 21:24:43.64	201.06	2.60	-48.0	-50.6	6.2	0.00e+00	0	43	104	0	67	19492
2026-01-29 21:24:46.67	201.30	2.79	-48.1	-50.7	6.2	0.00e+00	0	43	104	0	67	19784
2026-01-29 21:24:49.70	201.54	2.99	-48.1	-50.6	6.2	0.00e+00	0	43	104	0	67	19611
2026-01-29 21:24:52.73	201.79	3.19	-48.0	-50.5	6.2	0.00e+00	0	43	104	0	67	19331
2026-01-29 21:24:55.76	202.05	3.39	-47.8	-50.4	6.2	0.00e+00	0	44	104	0	67	19050
2026-01-29 21:24:58.79	202.30	3.59	-47.6	-50.2	6.2	0.00e+00	0	43	104	0	67	18735
2026-01-29 21:25:01.82	202.57	3.80	-47.3	-49.8	6.2	0.00e+00	0	43	104	0	66	19003
2026-01-29 21:25:04.85	202.83	4.00	-46.4	-49.0	6.2	0.00e+00	0	44	104	0	64	19347
2026-01-29 21:25:07.88	203.10	4.21	-46.1	-48.6	6.2	0.00e+00	0	44	104	0	64	18572
2026-01-29 21:25:10.90	203.38	4.42	-46.0	-48.6	6.2	0.00e+00	0	44	104	0	64	18446
2026-01-29 21:25:13.94	203.66	4.63	-46.0	-48.6	6.2	0.00e+00	0	44	104	0	64	18409
2026-01-29 21:25:16.96	203.94	4.84	-40.3	-48.0	6.2	0.00e+00	0	44	104	0	50	38458
2026-01-29 21:25:19.99	204.23	5.05	-43.1	-48.6	6.2	0.00e+00	0	44	104	0	57	27632
2026-01-29 21:25:23.02	204.53	5.27	-45.8	-48.7	6.2	0.00e+00	0	44	104	0	62	21004
2026-01-29 21:25:26.05	204.83	5.48	-46.1	-48.7	6.2	0.00e+00	0	44	104	0	62	21102
2026-01-29 21:25:29.07	205.13	5.70	-45.5	-48.5	6.2	0.00e+00	0	44	104	0	62	20594
2026-01-29 21:25:32.10	205.44	5.92	-45.9	-48.6	6.2	0.00e+00	0	44	104	0	62	20757
2026-01-29 21:25:35.13	205.76	6.15	-46.2	-48.7	6.2	0.00e+00	0	44	104	0	62	21082
2026-01-29 21:25:38.16	206.08	6.37	-46.2	-48.8	6.2	0.00e+00	0	44	104	0	62	21218
2026-01-29 21:25:41.19	206.41	6.60	-46.0	-48.6	6.2	0.00e+00	0	45	104	0	62	20763
2026-01-29 21:25:44.22	206.74	6.82	-46.1	-48.7	6.2	0.00e+00	0	44	104	0	62	20957
2026-01-29 21:25:47.25	207.08	7.05	-46.3	-48.8	6.2	0.00e+00	0	45	104	0	63	20160
2026-01-29 21:25:50.27	207.43	7.28	-46.3	-48.9	6.2	0.00e+00	0	45	104	0	63	20232
2026-01-29 21:25:53.31	207.78	7.52	-46.1	-48.8	6.2	0.00e+00	0	45	104	0	63	19944
2026-01-29 21:25:56.33	208.14	7.75	-46.2	-48.8	6.2	0.00e+00	0	45	104	0	63	20032
2026-01-29 21:25:59.36	208.51	7.99	-46.3	-48.9	6.2	0.00e+00	0	45	104	0	63	20270
2026-01-29 21:26:02.39	208.88	8.23	-46.3	-48.9	6.2	0.00e+00	0	45	104	0	63	20346
2026-01-29 21:26:05.42	209.27	8.48	-46.2	-48.7	6.2	0.00e+00	0	45	104	0	63	19758
2026-01-29 21:26:08.45	209.66	8.72	-41.1	-42.1	6.5	0.00e+00	0	45	104	0	53	16504
2026-01-29 21:26:11.48	210.05	8.97	-39.1	-39.9	6.6	0.00e+00	0	45	104	0	50	15291
2026-01-29 21:26:14.51	210.46	9.21	-46.2	-48.6	6.2	0.00e+00	0	45	104	0	63	19666
2026-01-29 21:26:17.54	210.87	9.46	-39.7	-40.4	6.6	0.00e+00	0	45	104	0	51	15247
2026-01-29 21:26:20.56	211.29	9.72	-37.6	-38.2	7.2	0.00e+00	0	45	104	0	46	15715
2026-01-29 21:26:23.60	211.72	9.97	-39.7	-40.2	8.1	0.00e+00	0	45	104	0	51	14902
2026-01-29 21:26:26.62	212.16	10.23	-34.3	-34.4	11.8	4.07e-03	0	45	0	67108864	40	14423
2026-01-29 21:26:29.65	212.61	10.49	-24.3	-24.3	17.7	0.00e+00	0	45	0	402653184	20	14256
2026-01-29 21:26:32.68	213.07	10.75	-20.7	-20.8	18.8	0.00e+00	0	45	0	746586112	13	14178
2026-01-29 21:26:35.70	213.53	11.01	-20.1	-20.2	18.8	0.00e+00	0	45	0	1082130432	11	14800
2026-01-29 21:26:38.74	214.01	11.28	-20.3	-20.3	18.7	0.00e+00	0	45	0	1426063360	11	15092
2026-01-29 21:26:41.77	214.50	11.55	-20.0	-20.0	18.9	0.00e+00	0	46	0	1769996288	11	14597
2026-01-29 21:26:44.79	214.99	11.82	-19.9	-20.0	19.0	0.00e+00	0	46	0	2113929216	11	14532
2026-01-29 21:26:47.82	215.50	12.09	-19.8	-19.8	19.0	0.00e+00	0	46	0	2449473536	11	14225
2026-01-29 21:26:50.85	216.02	12.36	-19.6	-19.7	19.1	0.00e+00	0	45	0	2793406464	11	14027
2026-01-29 21:26:53.89	216.55	12.64	-19.6	-19.7	19.1	0.00e+00	0	45	0	3137339392	11	13986
2026-01-29 21:26:56.91	217.09	12.92	-19.4	-19.5	19.1	0.00e+00	0	45	0	3472883712	10	14502
2026-01-29 21:26:59.94	217.65	13.20	-19.4	-19.5	19.4	0.00e+00	0	46	0	3816816640	10	14551
2026-01-29 21:27:02.97	218.21	13.48	-19.4	-19.4	19.3	0.00e+00	0	46	0	4160749568	10	14437
2026-01-29 21:27:06.00	218.79	13.77	-19.4	-19.4	19.2	0.00e+00	0	46	0	4496293888	10	14386
2026-01-29 21:27:09.02	219.38	14.05	-18.9	-19.0	19.2	0.00e+00	0	46	0	4840226816	9	14554
2026-01-29 21:27:12.05	219.99	14.34	-18.9	-18.9	19.3	0.00e+00	0	46	0	5175771136	9	14394
2026-01-29 21:27:15.08	220.61	14.63	-18.8	-18.8	19.3	0.00e+00	0	46	0	5519704064	9	14228
2026-01-29 21:27:18.11	221.24	14.92	-18.7	-18.7	19.4	0.00e+00	0	46	0	5855248384	9	14109
2026-01-29 21:27:21.14	221.88	15.22	-18.7	-18.7	19.4	0.00e+00	0	46	0	6199181312	9	14092
2026-01-29 21:27:24.17	222.55	15.51	-18.5	-18.5	19.3	0.00e+00	0	46	0	6543114240	8	14559
2026-01-29 21:27:27.20	223.22	15.80	-18.2	-18.3	19.4	0.00e+00	0	46	0	6878658560	8	14163
2026-01-29 21:27:30.23	223.91	16.10	-18.2	-18.3	19.1	0.00e+00	0	46	0	7222591488	8	14211
2026-01-29 21:27:33.26	224.62	16.40	-18.0	-18.1	19.2	0.00e+00	0	46	0	7558135808	8	13806
2026-01-29 21:27:36.29	225.34	16.70	-17.9	-17.9	19.2	0.00e+00	0	46	0	7902068736	7	14433
2026-01-29 21:27:39.32	226.08	17.00	-17.8	-17.8	19.2	0.00e+00	0	46	0	8237613056	7	14274
2026-01-29 21:27:42.34	226.84	17.30	-17.7	-17.8	19.2	0.00e+00	0	46	0	8581545984	7	14199
2026-01-29 21:27:45.37	227.61	17.59	-17.5	-17.6	19.1	0.00e+00	0	46	0	8925478912	7	13802
2026-01-29 21:27:48.40	228.40	17.89	-17.5	-17.6	19.1	0.00e+00	0	46	0	9261023232	7	13795
2026-01-29 21:27:51.43	229.21	18.19	-17.3	-17.4	19.0	0.00e+00	0	46	0	9604956160	6	14333
2026-01-29 21:27:54.46	230.04	18.49	-17.2	-17.3	19.0	0.00e+00	0	46	0	9948889088	6	14181
2026-01-29 21:27:57.49	230.88	18.79	-17.1	-17.2	19.1	0.00e+00	0	46	0	10292822016	6	14014
2026-01-29 21:28:00.52	231.74	19.09	-17.1	-17.2	18.8	0.00e+00	0	46	0	10628366336	6	14036
2026-01-29 21:28:03.55	232.63	19.38	-17.0	-17.1	18.8	0.00e+00	0	46	0	10972299264	6	13877
2026-01-29 21:28:06.58	233.53	19.67	-16.9	-17.0	18.5	0.00e+00	0	46	0	11316232192	5	14502
2026-01-29 21:28:09.60	234.44	19.96	-16.8	-16.9	18.6	0.00e+00	0	46	0	11651776512	5	14375
2026-01-29 21:28:12.63	235.38	20.25	-16.8	-16.9	18.6	0.00e+00	0	46	0	11995709440	5	14280
2026-01-29 21:28:15.66	236.34	20.54	-16.7	-16.7	18.2	0.00e+00	0	46	0	12331253760	5	14064
2026-01-29 21:28:18.69	237.32	20.82	-16.6	-16.7	18.2	0.00e+00	0	46	0	12675186688	5	13951
2026-01-29 21:28:21.72	238.32	21.10	-16.5	-16.5	18.2	0.00e+00	0	46	0	13010731008	4	14547
2026-01-29 21:28:24.75	239.34	21.37	-16.3	-16.3	17.9	0.00e+00	0	46	0	13354663936	4	14220
2026-01-29 21:28:27.77	240.37	21.64	-16.2	-16.2	17.9	0.00e+00	0	46	0	13698596864	4	14095
2026-01-29 21:28:30.79	241.43	21.90	-16.0	-16.1	17.6	0.00e+00	0	47	0	14034141184	4	13794
2026-01-29 21:28:33.83	242.51	22.16	-16.2	-16.3	17.2	0.00e+00	0	46	0	14378074112	3	14980
2026-01-29 21:28:36.85	243.60	22.41	-16.1	-16.2	17.2	0.00e+00	0	46	0	14713618432	3	14811
2026-01-29 21:28:39.88	244.72	22.65	-16.1	-16.2	17.4	0.00e+00	0	46	0	15057551360	3	14872
2026-01-29 21:28:42.91	245.85	22.88	-15.9	-16.0	16.9	0.00e+00	0	46	0	15393095680	3	14511
2026-01-29 21:28:45.93	247.00	23.11	-15.8	-15.9	16.9	0.00e+00	0	46	0	15737028608	3	14346
2026-01-29 21:28:48.96	248.17	23.33	-15.9	-16.0	16.8	0.00e+00	0	46	0	16080961536	3	14513
2026-01-29 21:28:51.99	249.36	23.54	-15.7	-15.8	16.7	0.00e+00	0	46	0	16416505856	3	14155
2026-01-29 21:28:55.02	250.57	23.74	-15.7	-15.8	16.5	0.00e+00	0	46	0	16760438784	3	14149
2026-01-29 21:28:58.05	251.79	23.92	-15.9	-16.0	16.4	0.00e+00	0	46	0	17104371712	3	14443
2026-01-29 21:29:01.08	253.03	24.10	-15.8	-15.9	16.7	0.00e+00	0	47	0	17439916032	3	14332
2026-01-29 21:29:04.11	254.28	24.27	-15.7	-15.7	17.3	0.00e+00	0	46	0	17783848960	3	14111
2026-01-29 21:29:07.14	255.54	24.42	-15.6	-15.7	17.5	0.00e+00	0	46	0	18127781888	3	13970
2026-01-29 21:29:10.17	256.82	24.56	-15.7	-15.7	17.1	0.00e+00	0	46	0	18463326208	3	14056
2026-01-29 21:29:13.20	258.11	24.69	-15.6	-15.7	17.2	0.00e+00	0	47	0	18807259136	3	13989
2026-01-29 21:29:16.23	259.41	24.81	-15.6	-15.7	17.3	0.00e+00	0	47	0	19151192064	3	14039
2026-01-29 21:29:19.26	260.73	24.91	-15.6	-15.7	17.5	0.00e+00	0	46	0	19486736384	3	13983
2026-01-29 21:29:22.29	262.05	24.99	-15.7	-15.7	17.4	0.00e+00	0	46	0	19830669312	3	14082
2026-01-29 21:29:25.32	263.37	25.07	-15.5	-15.6	17.9	0.00e+00	0	46	0	20166213632	2	14644
2026-01-29 21:29:28.35	264.70	25.12	-15.5	-15.6	18.0	0.00e+00	0	46	0	20510146560	2	14612
2026-01-29 21:29:31.37	266.04	25.17	-15.8	-15.8	18.5	0.00e+00	0	46	0	20854079488	2	15088
2026-01-29 21:29:34.40	267.38	25.19	-15.8	-15.8	18.6	0.00e+00	0	47	0	21189623808	2	15068
2026-01-29 21:29:37.43	268.72	25.21	-15.8	-15.8	19.2	0.00e+00	0	46	0	21533556736	2	15083
2026-01-29 21:29:40.46	270.06	25.20	-15.8	-15.8	19.3	0.00e+00	0	47	0	21869101056	2	15055
2026-01-29 21:29:43.49	271.40	25.18	-15.8	-15.9	19.6	0.00e+00	0	47	0	22213033984	2	15180
2026-01-29 21:29:46.52	272.74	25.15	-15.9	-15.9	19.7	0.00e+00	0	46	0	22556966912	2	15232
2026-01-29 21:29:49.55	274.07	25.10	-15.9	-16.0	19.9	0.00e+00	0	47	0	22892511232	2	15408
2026-01-29 21:29:52.57	275.40	25.04	-16.0	-16.1	19.9	0.00e+00	0	46	0	23236444160	2	15528
2026-01-29 21:29:55.60	276.72	24.96	-15.9	-16.0	19.6	0.00e+00	0	46	0	23571988480	2	15361
2026-01-29 21:29:58.63	278.04	24.87	-16.0	-16.0	19.5	0.00e+00	0	46	0	23915921408	2	15463
2026-01-29 21:30:01.66	279.34	24.76	-16.0	-16.1	19.5	0.00e+00	0	46	0	24251465728	2	15560
2026-01-29 21:30:04.69	280.64	24.64	-16.2	-16.2	19.7	0.00e+00	0	47	0	24595398656	2	15813
2026-01-29 21:30:07.72	281.92	24.51	-16.3	-16.4	19.7	0.00e+00	0	46	0	24939331584	3	15175
2026-01-29 21:30:10.75	283.19	24.36	-16.4	-16.5	19.5	0.00e+00	0	46	0	25283264512	3	15314
2026-01-29 21:30:13.78	284.45	24.21	-16.4	-16.5	19.7	0.00e+00	0	47	0	25618808832	3	15302
2026-01-29 21:30:16.82	285.70	24.04	-16.5	-16.6	19.3	0.00e+00	0	46	0	25962741760	3	15543
2026-01-29 21:30:19.84	286.92	23.86	-16.5	-16.6	19.6	0.00e+00	0	46	0	26306674688	3	15516
2026-01-29 21:30:22.88	288.14	23.66	-16.6	-16.7	19.8	0.00e+00	0	46	0	26642219008	3	15739
2026-01-29 21:30:25.91	289.34	23.46	-16.4	-16.4	19.9	0.00e+00	0	46	0	26986151936	4	14399
2026-01-29 21:30:28.93	290.51	23.25	-16.5	-16.6	19.9	0.00e+00	0	47	0	27330084864	4	14610
2026-01-29 21:30:31.96	291.67	23.03	-16.6	-16.6	20.0	0.00e+00	0	46	0	27665629184	4	14745
2026-01-29 21:30:34.99	292.82	22.80	-16.6	-16.7	20.0	0.00e+00	0	46	0	28009562112	4	14810
2026-01-29 21:30:38.02	293.94	22.56	-16.9	-16.9	20.0	0.00e+00	0	46	0	28353495040	4	15253
2026-01-29 21:30:41.05	295.05	22.32	-16.7	-16.8	20.2	0.00e+00	0	46	0	28689039360	4	15029
2026-01-29 21:30:44.08	296.13	22.06	-16.7	-16.8	20.3	0.00e+00	0	47	0	29032972288	4	15019
2026-01-29 21:30:47.11	297.20	21.81	-16.9	-17.0	20.4	0.00e+00	0	46	0	29368516608	4	15395
2026-01-29 21:30:50.14	298.24	21.54	-16.9	-17.0	20.2	0.00e+00	0	46	0	29712449536	4	15301
2026-01-29 21:30:53.17	299.27	21.27	-17.0	-17.1	20.2	0.00e+00	0	46	0	30056382464	4	15510
2026-01-29 21:30:56.20	300.28	21.00	-17.0	-17.1	20.0	0.00e+00	0	46	0	30391926784	4	15531
2026-01-29 21:30:59.23	301.27	20.72	-17.0	-17.1	19.9	0.00e+00	0	46	0	30735859712	4	15529
2026-01-29 21:31:02.26	302.23	20.44	-17.1	-17.2	19.8	0.00e+00	0	46	0	31071404032	4	15696
2026-01-29 21:31:05.29	303.18	20.16	-17.0	-17.1	19.6	0.00e+00	0	47	0	31415336960	4	15572
2026-01-29 21:31:08.32	304.11	19.87	-17.2	-17.3	19.4	0.00e+00	0	47	0	31759269888	4	15867
2026-01-29 21:31:11.35	305.02	19.58	-17.3	-17.4	19.3	0.00e+00	0	47	0	32094814208	5	15225
2026-01-29 21:31:14.37	305.91	19.29	-17.3	-17.4	19.1	0.00e+00	0	46	0	32438747136	5	15205
2026-01-29 21:31:17.41	306.78	18.99	-17.5	-17.6	19.2	0.00e+00	0	46	0	32774291456	5	15578
2026-01-29 21:31:20.44	307.63	18.70	-17.6	-17.6	19.2	0.00e+00	0	46	0	33118224384	5	15583
2026-01-29 21:31:23.47	308.47	18.40	-17.9	-18.0	19.0	0.00e+00	0	47	0	33453768704	6	15374
2026-01-29 21:31:26.50	309.28	18.10	-17.9	-18.0	19.0	0.00e+00	0	46	0	33797701632	6	15357
2026-01-29 21:31:29.52	310.08	17.81	-18.0	-18.0	19.0	0.00e+00	0	47	0	34141634560	6	15473
2026-01-29 21:31:32.55	310.86	17.51	-18.1	-18.2	18.9	0.00e+00	0	46	0	34485567488	6	15693
2026-01-29 21:31:35.59	311.63	17.21	-18.3	-18.3	18.9	0.00e+00	0	47	0	34821111808	7	15095
2026-01-29 21:31:38.62	312.38	16.91	-18.4	-18.5	18.6	0.00e+00	0	46	0	35165044736	7	15327
2026-01-29 21:31:41.65	313.11	16.62	-18.5	-18.6	18.4	0.00e+00	0	47	0	35508977664	7	15478
2026-01-29 21:31:44.68	313.82	16.32	-18.7	-18.7	18.4	0.00e+00	0	47	0	35844521984	8	14906
2026-01-29 21:31:47.71	314.52	16.02	-18.7	-18.8	18.2	0.00e+00	0	47	0	36188454912	8	15070
2026-01-29 21:31:50.74	315.20	15.73	-18.8	-18.9	18.2	0.00e+00	0	47	0	36532387840	8	15196
2026-01-29 21:31:53.77	315.87	15.44	-18.9	-19.0	18.4	0.00e+00	0	46	0	36876320768	8	15408
2026-01-29 21:31:56.80	316.52	15.14	-19.0	-19.1	18.6	0.00e+00	0	47	0	37211865088	8	15533
2026-01-29 21:31:59.83	317.16	14.85	-19.2	-19.3	18.6	0.00e+00	0	46	0	37555798016	9	14949
2026-01-29 21:32:02.86	317.79	14.57	-19.2	-19.3	18.2	0.00e+00	0	47	0	37891342336	9	14999
2026-01-29 21:32:05.88	318.40	14.28	-19.5	-19.5	18.0	0.00e+00	0	47	0	38235275264	9	15395
2026-01-29 21:32:08.91	319.00	13.99	-19.4	-19.5	18.4	0.00e+00	0	47	0	38570819584	9	15348
2026-01-29 21:32:11.94	319.58	13.71	-19.5	-19.6	18.3	0.00e+00	0	47	0	38914752512	9	15554
2026-01-29 21:32:14.97	320.15	13.43	-19.6	-19.7	18.5	0.00e+00	0	46	0	39258685440	10	14810
2026-01-29 21:32:18.00	320.71	13.15	-19.8	-19.9	18.5	0.00e+00	0	47	0	39594229760	10	15180
2026-01-29 21:32:21.02	321.26	12.87	-19.8	-19.9	18.4	0.00e+00	0	47	0	39938162688	10	15226
2026-01-29 21:32:24.06	321.80	12.59	-20.0	-20.1	18.4	0.00e+00	0	46	0	40273707008	10	15477
2026-01-29 21:32:27.09	322.32	12.32	-20.1	-20.2	18.2	0.00e+00	0	47	0	40617639936	10	15750
2026-01-29 21:32:30.12	322.84	12.05	-20.3	-20.4	18.3	0.00e+00	0	47	0	40961572864	11	15232
2026-01-29 21:32:33.15	323.34	11.78	-20.5	-20.6	17.9	0.00e+00	0	47	0	41297117184	11	15537
2026-01-29 21:32:36.18	323.83	11.51	-20.5	-20.6	18.2	0.00e+00	0	46	0	41641050112	11	15569
2026-01-29 21:32:39.21	324.31	11.24	-20.6	-20.6	18.3	0.00e+00	0	47	0	41976594432	12	14748
2026-01-29 21:32:42.24	324.79	10.98	-46.6	-49.2	6.2	0.00e+00	0	46	104	42110812160	63	21025
2026-01-29 21:32:45.26	325.25	10.72	-46.6	-49.2	6.2	0.00e+00	0	46	104	42110812160	64	19705
2026-01-29 21:32:48.29	325.70	10.46	-46.6	-49.1	6.2	0.00e+00	0	46	104	42110812160	64	19612
2026-01-29 21:32:51.32	326.14	10.20	-46.4	-49.0	6.2	0.00e+00	0	46	104	42110812160	64	19408
2026-01-29 21:32:54.36	326.58	9.95	-46.5	-49.1	6.2	0.00e+00	0	46	104	42110812160	64	19560
2026-01-29 21:32:57.39	327.01	9.69	-46.4	-49.0	6.2	0.00e+00	0	46	104	42110812160	64	19330
2026-01-29 21:33:00.42	327.42	9.44	-46.4	-48.9	6.2	0.00e+00	0	46	104	42110812160	64	19231
2026-01-29 21:33:03.45	327.83	9.19	-46.3	-48.9	6.2	0.00e+00	0	46	104	42110812160	64	19147
2026-01-29 21:33:06.48	328.24	8.95	-46.3	-48.9	6.2	0.00e+00	0	46	104	42110812160	64	19162
2026-01-29 21:33:09.51	328.63	8.70	-46.3	-48.9	6.2	0.00e+00	0	46	104	42110812160	64	19072
2026-01-29 21:33:12.54	329.02	8.46	-46.3	-48.8	6.2	0.00e+00	0	46	104	42110812160	64	18966
2026-01-29 21:33:15.57	329.39	8.22	-46.2	-48.8	6.2	0.00e+00	0	46	104	42110812160	64	18905
2026-01-29 21:33:18.60	329.77	7.98	-46.2	-48.8	6.2	0.00e+00	0	46	104	42110812160	64	18899
2026-01-29 21:33:21.63	330.13	7.75	-46.2	-48.8	6.2	0.00e+00	0	46	104	42110812160	64	18867
2026-01-29 21:33:24.66	330.49	7.51	-46.1	-48.7	6.2	0.00e+00	0	46	104	42110812160	64	18655
2026-01-29 21:33:27.69	330.84	7.28	-46.1	-48.7	6.2	0.00e+00	0	46	104	42110812160	64	18674
2026-01-29 21:33:30.72	331.18	7.05	-46.0	-48.6	6.2	0.00e+00	0	46	104	42110812160	64	18555
2026-01-29 21:33:33.75	331.52	6.82	-46.1	-48.7	6.2	0.00e+00	0	46	104	42110812160	64	18615
2026-01-29 21:33:36.78	331.85	6.60	-46.0	-48.5	6.2	0.00e+00	0	46	104	42110812160	64	18359
2026-01-29 21:33:39.81	332.18	6.37	-46.1	-48.7	6.2	0.00e+00	0	46	104	42110812160	63	19729
2026-01-29 21:33:42.84	332.50	6.15	-45.9	-48.6	6.2	0.00e+00	0	46	104	42110812160	63	19495
2026-01-29 21:33:45.87	332.82	5.93	-46.1	-48.6	6.2	0.00e+00	0	46	104	42110812160	63	19703
2026-01-29 21:33:48.90	333.12	5.71	-45.9	-48.5	6.2	0.00e+00	0	46	104	42110812160	63	19279
2026-01-29 21:33:51.92	333.43	5.50	-46.0	-48.5	6.2	0.00e+00	0	46	104	42110812160	63	19366
2026-01-29 21:33:54.95	333.73	5.28	-45.8	-48.4	6.2	0.00e+00	0	46	104	42110812160	63	19053
2026-01-29 21:33:57.98	334.02	5.07	-45.9	-48.5	6.2	0.00e+00	0	46	104	42110812160	63	19357
2026-01-29 21:34:01.01	334.31	4.86	-46.9	-49.5	6.2	0.00e+00	0	46	104	42110812160	64	20445
2026-01-29 21:34:04.04	334.59	4.65	-47.3	-49.8	6.2	0.00e+00	0	46	104	42110812160	65	20136
2026-01-29 21:34:07.07	334.87	4.44	-47.4	-49.9	6.2	0.00e+00	0	46	104	42110812160	65	20310
2026-01-29 21:34:10.10	335.14	4.23	-47.1	-49.6	6.2	0.00e+00	0	46	104	42110812160	65	19556
2026-01-29 21:34:13.12	335.41	4.03	-47.2	-49.7	6.2	0.00e+00	0	46	104	42110812160	65	19922
2026-01-29 21:34:16.15	335.68	3.82	-47.3	-49.9	6.2	0.00e+00	0	46	104	42110812160	65	20238
2026-01-29 21:34:19.19	335.94	3.62	-47.4	-49.9	6.2	0.00e+00	0	46	104	42110812160	65	20323
2026-01-29 21:34:22.22	336.20	3.42	-47.2	-49.8	6.2	0.00e+00	0	46	104	42110812160	65	19990
2026-01-29 21:34:25.25	336.45	3.22	-47.2	-49.7	6.2	0.00e+00	0	46	104	42110812160	65	19875
2026-01-29 21:34:28.27	336.70	3.02	-47.2	-49.7	6.2	0.00e+00	0	46	104	42110812160	65	19814
2026-01-29 21:34:31.30	336.94	2.83	-47.1	-49.7	6.2	0.00e+00	0	46	104	42110812160	65	19752
2026-01-29 21:34:34.33	337.18	2.63	-47.1	-49.7	6.2	0.00e+00	0	46	104	42110812160	65	19721
2026-01-29 21:34:37.36	337.42	2.44	-47.1	-49.7	6.2	0.00e+00	0	46	104	42110812160	65	19726
2026-01-29 21:34:40.39	337.66	2.25	-47.1	-49.6	6.2	0.00e+00	0	46	104	42110812160	65	19655
2026-01-29 21:34:43.42	337.89	2.06	-47.1	-49.6	6.2	0.00e+00	0	46	104	42110812160	65	19643

#Closed at: 2026-01-29 21:34:46
#Recorded file [42110 MB]: D:/lorett/data/31045_260130_002434.dat