passes_logs/2026/01/29/R3.2S_Murmansk_2ch/R3.2S_Murmansk_2ch__20260129_214546_JL1KF02B02_rec.log

#Pass ID: 20260129_214546_JL1KF02B02
#Satellite: JL1KF02B02
#Configuration: 01B_900M
#almurnet v.1.7.20251203
#Start time: 2026-01-29 21:45:46

#Version: 2.2.20231116
#Station: R3.2S_Murmansk_2ch
#Location: 33.079688 lon 68.888172 lat
#TLE: 1 61193U 24169E   26028.96955180  .00008208  00000+0  51534-3 0  9991
#TLE: 2 61193  97.5623 120.6623 0012912  84.4227 275.8475 15.09469698 74833

#Time	Az	El	Level	Level2	SNR	BER	BlckErr	Temp	State	Recorded	gain1	gain2
2026-01-29 21:45:46.84	210.22	2.00	-47.7	-50.2	6.2	0.00e+00	0	44	0	0	67	18751
2026-01-29 21:45:49.74	210.48	2.17	-46.3	-48.9	6.2	0.00e+00	0	44	104	0	64	19050
2026-01-29 21:45:52.65	210.75	2.35	-46.3	-48.8	6.2	0.00e+00	0	44	104	0	64	18940
2026-01-29 21:45:55.56	211.02	2.52	-46.2	-48.8	6.2	0.00e+00	0	44	104	0	64	18855
2026-01-29 21:45:58.46	211.30	2.70	-46.2	-48.8	6.2	0.00e+00	0	44	104	0	64	18824
2026-01-29 21:46:01.36	211.58	2.88	-46.2	-48.8	6.2	0.00e+00	0	44	104	0	64	18894
2026-01-29 21:46:04.27	211.86	3.06	-46.2	-48.7	6.2	0.00e+00	0	44	104	0	64	18793
2026-01-29 21:46:07.17	212.15	3.24	-46.2	-48.8	6.2	0.00e+00	0	44	104	0	64	18828
2026-01-29 21:46:10.08	212.44	3.42	-46.2	-48.7	6.2	0.00e+00	0	44	104	0	64	18761
2026-01-29 21:46:12.98	212.74	3.60	-46.2	-48.7	6.2	0.00e+00	0	44	104	0	64	18769
2026-01-29 21:46:15.89	213.04	3.79	-46.2	-48.7	6.2	0.00e+00	0	44	104	0	64	18744
2026-01-29 21:46:18.81	213.34	3.97	-46.2	-48.7	6.2	0.00e+00	0	45	104	0	64	18749
2026-01-29 21:46:21.71	213.65	4.16	-46.1	-48.7	6.2	0.00e+00	0	45	104	0	64	18726
2026-01-29 21:46:24.62	213.97	4.35	-46.1	-48.7	6.2	0.00e+00	0	45	104	0	64	18670
2026-01-29 21:46:27.52	214.29	4.54	-46.1	-48.7	6.2	0.00e+00	0	45	104	0	64	18676
2026-01-29 21:46:30.44	214.61	4.73	-46.1	-48.7	6.2	0.00e+00	0	45	104	0	64	18630
2026-01-29 21:46:33.34	214.94	4.92	-46.1	-48.6	6.2	0.00e+00	0	45	104	0	64	18595
2026-01-29 21:46:36.32	215.29	5.11	-46.1	-48.6	6.2	0.00e+00	0	45	104	0	64	18552
2026-01-29 21:46:39.23	215.63	5.31	-46.1	-48.6	6.2	0.00e+00	0	45	104	0	64	18575
2026-01-29 21:46:42.13	215.97	5.50	-46.2	-48.8	6.2	0.00e+00	0	45	104	0	64	18824
2026-01-29 21:46:45.04	216.32	5.69	-46.2	-48.8	6.2	0.00e+00	0	45	104	0	64	18850
2026-01-29 21:46:47.96	216.68	5.89	-46.1	-48.6	6.2	0.00e+00	0	45	104	0	64	18548
2026-01-29 21:46:50.87	217.04	6.09	-46.1	-48.7	6.2	0.00e+00	0	45	104	0	64	18736
2026-01-29 21:46:53.78	217.41	6.29	-46.3	-48.8	6.2	0.00e+00	0	45	104	0	64	18971
2026-01-29 21:46:56.69	217.79	6.49	-46.2	-48.7	6.2	0.00e+00	0	45	104	0	64	18768
2026-01-29 21:46:59.61	218.17	6.69	-46.2	-48.7	6.2	0.00e+00	0	45	104	0	64	18746
2026-01-29 21:47:02.51	218.56	6.89	-46.3	-48.8	6.2	0.00e+00	0	46	104	0	64	18968
2026-01-29 21:47:05.42	218.95	7.09	-46.3	-48.9	6.2	0.00e+00	0	45	104	0	64	19143
2026-01-29 21:47:08.33	219.35	7.30	-46.2	-48.7	6.2	0.00e+00	0	45	104	0	64	18806
2026-01-29 21:47:11.25	219.76	7.50	-46.2	-48.8	6.2	0.00e+00	0	45	104	0	64	18911
2026-01-29 21:47:14.16	220.17	7.71	-46.4	-48.9	6.2	0.00e+00	0	45	104	0	64	19148
2026-01-29 21:47:17.07	220.59	7.92	-46.4	-48.9	6.2	0.00e+00	0	46	104	0	64	19234
2026-01-29 21:47:19.98	221.02	8.12	-46.3	-48.8	6.2	0.00e+00	0	45	104	0	64	18990
2026-01-29 21:47:22.88	221.45	8.33	-46.3	-48.9	6.2	0.00e+00	0	45	104	0	64	19092
2026-01-29 21:47:25.79	221.89	8.54	-46.4	-49.0	6.2	0.00e+00	0	46	104	0	64	19365
2026-01-29 21:47:28.69	222.34	8.75	-42.9	-44.0	6.7	0.00e+00	0	45	104	0	58	15455
2026-01-29 21:47:31.60	222.80	8.97	-39.3	-40.0	7.4	0.00e+00	0	46	104	0	50	15326
2026-01-29 21:47:34.52	223.27	9.18	-39.7	-40.4	7.4	0.00e+00	0	46	104	0	50	16054
2026-01-29 21:47:37.43	223.74	9.39	-45.9	-48.1	6.2	0.00e+00	0	45	104	0	63	18591
2026-01-29 21:47:40.33	224.22	9.61	-40.7	-41.5	7.2	0.00e+00	0	45	104	0	53	15380
2026-01-29 21:47:43.23	224.71	9.82	-41.5	-42.3	7.7	0.00e+00	0	45	104	0	53	16823
2026-01-29 21:47:46.14	225.21	10.04	-39.9	-40.5	8.2	1.14e-05	0	46	0	109051904	50	16237
2026-01-29 21:47:49.04	225.72	10.26	-20.2	-20.3	18.6	0.00e+00	0	46	0	369098752	12	14202
2026-01-29 21:47:51.94	226.23	10.47	-20.0	-20.1	18.7	0.00e+00	0	46	0	696254464	11	14619
2026-01-29 21:47:54.87	226.76	10.69	-19.8	-19.9	18.7	0.00e+00	0	46	0	1023410176	11	14379
2026-01-29 21:47:57.82	227.30	10.92	-19.7	-19.8	18.7	0.00e+00	0	46	0	1358954496	11	14220
2026-01-29 21:48:00.76	227.85	11.14	-19.7	-19.8	18.7	0.00e+00	0	46	0	1686110208	11	14211
2026-01-29 21:48:03.72	228.41	11.36	-19.5	-19.6	18.7	0.00e+00	0	46	0	2021654528	11	13883
2026-01-29 21:48:06.66	228.98	11.59	-19.6	-19.6	18.6	0.00e+00	0	46	0	2357198848	11	13922
2026-01-29 21:48:09.62	229.57	11.81	-19.4	-19.5	18.6	0.00e+00	0	46	0	2684354560	10	14510
2026-01-29 21:48:12.56	230.16	12.04	-19.4	-19.5	18.6	0.00e+00	0	46	0	3019898880	10	14480
2026-01-29 21:48:15.51	230.76	12.26	-19.2	-19.2	18.6	0.00e+00	0	46	0	3347054592	10	14082
2026-01-29 21:48:18.46	231.37	12.49	-19.2	-19.3	18.7	0.00e+00	0	46	0	3682598912	10	14212
2026-01-29 21:48:21.41	232.00	12.71	-19.0	-19.1	18.7	0.00e+00	0	46	0	4009754624	10	13891
2026-01-29 21:48:24.37	232.63	12.94	-18.9	-19.0	18.8	0.00e+00	0	46	0	4345298944	9	14520
2026-01-29 21:48:27.32	233.28	13.16	-18.8	-18.9	18.7	0.00e+00	0	46	0	4680843264	9	14399
2026-01-29 21:48:30.29	233.94	13.39	-18.7	-18.8	18.8	0.00e+00	0	46	0	5007998976	9	14185
2026-01-29 21:48:33.25	234.62	13.61	-18.7	-18.8	18.7	0.00e+00	0	46	0	5343543296	9	14123
2026-01-29 21:48:36.19	235.29	13.83	-18.6	-18.6	18.7	0.00e+00	0	46	0	5670699008	9	13931
2026-01-29 21:48:39.14	235.99	14.06	-18.5	-18.6	18.7	0.00e+00	0	46	0	6006243328	8	14626
2026-01-29 21:48:42.11	236.70	14.28	-18.4	-18.5	18.6	0.00e+00	0	46	0	6333399040	8	14579
2026-01-29 21:48:45.05	237.41	14.50	-18.3	-18.4	18.6	0.00e+00	0	46	0	6668943360	8	14379
2026-01-29 21:48:48.01	238.14	14.72	-18.3	-18.3	18.3	0.00e+00	0	46	0	6996099072	8	14273
2026-01-29 21:48:50.96	238.88	14.94	-18.2	-18.3	18.3	0.00e+00	0	47	0	7340032000	8	14149
2026-01-29 21:48:53.90	239.64	15.15	-18.2	-18.3	18.2	0.00e+00	0	46	0	7667187712	8	14181
2026-01-29 21:48:56.85	240.40	15.36	-18.1	-18.2	18.1	0.00e+00	0	46	0	7994343424	8	14020
2026-01-29 21:48:59.80	241.18	15.58	-18.2	-18.2	18.1	0.00e+00	0	47	0	8329887744	8	14079
2026-01-29 21:49:02.76	241.97	15.79	-18.0	-18.1	18.3	0.00e+00	0	47	0	8665432064	8	13916
2026-01-29 21:49:05.71	242.78	15.99	-18.1	-18.1	18.1	0.00e+00	0	46	0	9000976384	7	14749
2026-01-29 21:49:08.67	243.60	16.20	-18.0	-18.0	18.0	0.00e+00	0	46	0	9328132096	7	14585
2026-01-29 21:49:11.62	244.43	16.40	-17.8	-17.9	17.9	0.00e+00	0	47	0	9663676416	7	14339
2026-01-29 21:49:14.56	245.27	16.60	-17.8	-17.8	17.6	0.00e+00	0	47	0	9990832128	7	14253
2026-01-29 21:49:17.51	246.12	16.80	-17.6	-17.7	17.5	0.00e+00	0	47	0	10317987840	7	14042
2026-01-29 21:49:20.46	246.99	16.99	-17.6	-17.6	17.7	0.00e+00	0	47	0	10653532160	7	13923
2026-01-29 21:49:23.42	247.87	17.18	-17.6	-17.7	17.2	0.00e+00	0	47	0	10989076480	7	14022
2026-01-29 21:49:26.36	248.76	17.36	-17.4	-17.5	16.9	0.00e+00	0	47	0	11316232192	6	14494
2026-01-29 21:49:29.31	249.66	17.54	-17.4	-17.4	17.1	0.00e+00	0	47	0	11643387904	6	14428
2026-01-29 21:49:32.26	250.57	17.71	-17.3	-17.3	17.1	0.00e+00	0	47	0	11987320832	6	14244
2026-01-29 21:49:35.21	251.50	17.88	-17.2	-17.2	16.7	0.00e+00	0	47	0	12314476544	6	14104
2026-01-29 21:49:38.15	252.44	18.05	-17.1	-17.2	16.9	0.00e+00	0	47	0	12641632256	6	13959
2026-01-29 21:49:41.11	253.39	18.20	-17.1	-17.1	16.8	0.00e+00	0	47	0	12977176576	6	13948
2026-01-29 21:49:44.05	254.34	18.36	-17.1	-17.2	16.6	0.00e+00	0	47	0	13304332288	6	14057
2026-01-29 21:49:47.01	255.32	18.50	-17.0	-17.1	16.7	0.00e+00	0	47	0	13639876608	6	13833
2026-01-29 21:49:49.95	256.30	18.64	-16.9	-17.0	16.9	0.00e+00	0	47	0	13967032320	5	14453
2026-01-29 21:49:52.91	257.29	18.78	-16.9	-17.0	16.6	0.00e+00	0	47	0	14310965248	5	14523
2026-01-29 21:49:55.85	258.29	18.91	-17.0	-17.1	16.9	0.00e+00	0	47	0	14629732352	5	14648
2026-01-29 21:49:58.80	259.30	19.03	-16.8	-16.9	17.0	0.00e+00	0	47	0	14965276672	5	14408
2026-01-29 21:50:01.76	260.32	19.14	-16.8	-16.9	16.8	0.00e+00	0	47	0	15300820992	5	14377
2026-01-29 21:50:04.70	261.34	19.24	-16.8	-16.9	17.0	0.00e+00	0	47	0	15627976704	5	14305
2026-01-29 21:50:07.65	262.38	19.34	-16.8	-16.9	17.0	0.00e+00	0	46	0	15963521024	5	14346
2026-01-29 21:50:10.57	263.41	19.43	-16.8	-16.9	17.4	0.00e+00	0	47	0	16290676736	5	14284
2026-01-29 21:50:13.47	264.44	19.51	-16.8	-16.9	17.0	0.00e+00	0	47	0	16617832448	5	14330
2026-01-29 21:50:16.38	265.47	19.58	-16.7	-16.8	17.1	0.00e+00	0	47	0	16944988160	5	14116
2026-01-29 21:50:19.29	266.52	19.65	-16.7	-16.8	17.4	0.00e+00	0	47	0	17272143872	5	14209
2026-01-29 21:50:22.19	267.56	19.70	-16.7	-16.8	17.5	0.00e+00	0	47	0	17599299584	5	14131
2026-01-29 21:50:25.10	268.61	19.75	-16.7	-16.8	17.6	0.00e+00	0	47	0	17926455296	5	14188
2026-01-29 21:50:28.00	269.67	19.79	-16.8	-16.9	17.9	0.00e+00	0	47	0	18253611008	5	14307
2026-01-29 21:50:30.91	270.72	19.82	-16.9	-17.0	18.4	0.00e+00	0	47	0	18580766720	5	14572
2026-01-29 21:50:33.82	271.78	19.84	-16.9	-17.0	18.3	0.00e+00	0	47	0	18907922432	5	14518
2026-01-29 21:50:36.72	272.84	19.85	-16.9	-17.0	18.7	0.00e+00	0	47	0	19235078144	5	14529
2026-01-29 21:50:39.64	273.90	19.85	-17.0	-17.0	18.8	0.00e+00	0	47	0	19562233856	5	14591
2026-01-29 21:50:42.55	274.96	19.85	-17.0	-17.0	19.1	0.00e+00	0	47	0	19889389568	5	14585
2026-01-29 21:50:45.47	276.03	19.83	-17.1	-17.1	19.1	0.00e+00	0	47	0	20216545280	5	14754
2026-01-29 21:50:48.38	277.09	19.81	-17.1	-17.1	19.3	0.00e+00	0	47	0	20543700992	5	14763
2026-01-29 21:50:51.29	278.14	19.78	-17.2	-17.3	19.2	0.00e+00	0	47	0	20870856704	5	15066
2026-01-29 21:50:54.19	279.19	19.73	-17.2	-17.3	19.2	0.00e+00	0	47	0	21198012416	5	15083
2026-01-29 21:50:57.09	280.24	19.69	-17.2	-17.3	19.3	0.00e+00	0	47	0	21525168128	5	15045
2026-01-29 21:51:00.00	281.29	19.63	-17.3	-17.4	19.2	0.00e+00	0	47	0	21852323840	5	15225
2026-01-29 21:51:02.90	282.32	19.56	-17.4	-17.5	19.2	0.00e+00	0	47	0	22179479552	5	15368
2026-01-29 21:51:05.81	283.36	19.49	-17.4	-17.5	18.9	0.00e+00	0	47	0	22506635264	5	15322
2026-01-29 21:51:08.72	284.39	19.40	-17.4	-17.4	18.9	0.00e+00	0	47	0	22833790976	5	15276
2026-01-29 21:51:11.64	285.41	19.31	-17.5	-17.6	19.0	0.00e+00	0	47	0	23160946688	5	15515
2026-01-29 21:51:14.55	286.43	19.22	-17.6	-17.7	18.8	0.00e+00	0	47	0	23488102400	5	15658
2026-01-29 21:51:17.46	287.44	19.11	-17.7	-17.8	18.7	0.00e+00	0	47	0	23815258112	6	15058
2026-01-29 21:51:20.36	288.43	19.00	-17.8	-17.9	18.7	0.00e+00	0	47	0	24142413824	6	15127
2026-01-29 21:51:23.27	289.43	18.88	-17.9	-17.9	18.5	0.00e+00	0	47	0	24469569536	6	15265
2026-01-29 21:51:26.17	290.41	18.75	-17.9	-18.0	18.1	0.00e+00	0	47	0	24796725248	6	15406
2026-01-29 21:51:29.08	291.38	18.62	-17.9	-18.0	18.2	0.00e+00	0	47	0	25123880960	6	15362
2026-01-29 21:51:31.98	292.34	18.48	-18.0	-18.1	18.2	0.00e+00	0	47	0	25451036672	6	15485
2026-01-29 21:51:34.89	293.29	18.33	-18.1	-18.2	18.2	0.00e+00	0	47	0	25778192384	6	15783
2026-01-29 21:51:37.79	294.23	18.18	-18.2	-18.3	18.6	0.00e+00	0	47	0	26105348096	6	15879
2026-01-29 21:51:40.71	295.17	18.03	-18.2	-18.3	18.6	0.00e+00	0	47	0	26432503808	7	15009
2026-01-29 21:51:43.62	296.09	17.86	-18.2	-18.3	18.3	0.00e+00	0	47	0	26759659520	7	15000
2026-01-29 21:51:46.53	297.00	17.70	-18.2	-18.2	18.7	0.00e+00	0	47	0	27086815232	7	14927
2026-01-29 21:51:49.44	297.90	17.53	-18.3	-18.4	18.6	0.00e+00	0	47	0	27413970944	7	15169
2026-01-29 21:51:52.34	298.78	17.35	-18.6	-18.6	18.6	0.00e+00	0	47	0	27741126656	8	14768
2026-01-29 21:51:55.25	299.66	17.17	-18.3	-18.3	18.8	0.00e+00	0	47	0	28068282368	8	14273
2026-01-29 21:51:58.17	300.52	16.98	-18.2	-18.3	19.1	0.00e+00	0	47	0	28395438080	8	14212
2026-01-29 21:52:01.08	301.37	16.80	-18.3	-18.4	19.2	0.00e+00	0	47	0	28722593792	8	14282
2026-01-29 21:52:03.99	302.21	16.60	-18.1	-18.2	19.2	0.00e+00	0	47	0	29049749504	8	13971
2026-01-29 21:52:06.91	303.04	16.41	-18.1	-18.2	19.3	0.00e+00	0	47	0	29376905216	8	13994
2026-01-29 21:52:09.82	303.86	16.21	-18.3	-18.3	19.1	0.00e+00	0	47	0	29704060928	8	14248
2026-01-29 21:52:12.73	304.66	16.01	-18.3	-18.4	19.2	0.00e+00	0	47	0	30031216640	8	14370
2026-01-29 21:52:15.63	305.45	15.81	-18.4	-18.5	19.1	0.00e+00	0	47	0	30358372352	8	14516
2026-01-29 21:52:18.55	306.23	15.60	-18.4	-18.5	19.0	0.00e+00	0	47	0	30685528064	8	14451
2026-01-29 21:52:21.45	306.99	15.39	-18.6	-18.7	18.9	0.00e+00	0	47	0	31012683776	8	14863
2026-01-29 21:52:24.36	307.75	15.18	-18.6	-18.7	19.0	0.00e+00	0	47	0	31339839488	8	14794
2026-01-29 21:52:27.26	308.49	14.97	-18.6	-18.7	18.9	0.00e+00	0	47	0	31666995200	8	14863
2026-01-29 21:52:30.17	309.22	14.76	-18.8	-18.9	19.0	0.00e+00	0	47	0	31994150912	8	15163
2026-01-29 21:52:33.08	309.93	14.54	-18.8	-18.9	18.8	0.00e+00	0	47	0	32321306624	8	15191
2026-01-29 21:52:35.99	310.64	14.33	-18.9	-19.0	19.0	0.00e+00	0	47	0	32648462336	8	15389
2026-01-29 21:52:38.90	311.33	14.11	-18.9	-19.0	18.9	0.00e+00	0	47	0	32975618048	8	15443
2026-01-29 21:52:41.80	312.01	13.89	-19.0	-19.1	18.8	0.00e+00	0	47	0	33302773760	8	15568
2026-01-29 21:52:44.72	312.69	13.67	-19.0	-19.1	18.7	0.00e+00	0	47	0	33638318080	8	15561
2026-01-29 21:52:47.62	313.35	13.46	-19.3	-19.4	18.7	0.00e+00	0	47	0	33957085184	9	15129
2026-01-29 21:52:50.53	313.99	13.24	-19.2	-19.3	18.8	0.00e+00	0	47	0	34284240896	9	15057
2026-01-29 21:52:53.43	314.63	13.02	-19.4	-19.4	18.7	0.00e+00	0	47	0	34611396608	9	15264
2026-01-29 21:52:56.34	315.26	12.80	-19.4	-19.5	18.6	0.00e+00	0	47	0	34938552320	9	15357
2026-01-29 21:52:59.25	315.87	12.58	-19.4	-19.5	18.3	0.00e+00	0	47	0	35265708032	9	15421
2026-01-29 21:53:02.17	316.48	12.36	-19.5	-19.6	18.2	0.00e+00	0	47	0	35601252352	9	15601
2026-01-29 21:53:05.08	317.08	12.13	-19.8	-19.9	17.8	0.00e+00	0	47	0	35920019456	10	15141
2026-01-29 21:53:07.99	317.66	11.91	-19.9	-20.0	17.7	0.00e+00	0	47	0	36247175168	10	15329
2026-01-29 21:53:10.89	318.24	11.70	-19.8	-19.9	17.8	0.00e+00	0	47	0	36574330880	10	15264
2026-01-29 21:53:13.80	318.80	11.48	-20.0	-20.1	17.9	0.00e+00	0	47	0	36901486592	10	15568
2026-01-29 21:53:16.70	319.35	11.26	-20.1	-20.1	18.2	0.00e+00	0	47	0	37228642304	10	15627
2026-01-29 21:53:19.60	319.90	11.04	-20.1	-20.2	18.1	0.00e+00	0	47	0	37555798016	10	15724
2026-01-29 21:53:22.51	320.43	10.82	-20.5	-20.6	18.2	0.00e+00	0	47	0	37882953728	11	15501
2026-01-29 21:53:25.42	320.96	10.60	-20.4	-20.5	18.2	0.00e+00	0	47	0	38210109440	11	15397
2026-01-29 21:53:28.33	321.48	10.39	-20.5	-20.6	18.3	0.00e+00	0	47	0	38537265152	11	15524
2026-01-29 21:53:31.25	321.99	10.17	-20.7	-20.8	19.5	0.00e+00	0	47	0	38864420864	11	15842
2026-01-29 21:53:34.16	322.49	9.95	-46.6	-49.2	6.2	0.00e+00	0	47	104	38889586688	63	20994
2026-01-29 21:53:37.06	322.98	9.74	-46.6	-49.2	6.2	0.00e+00	0	47	104	38889586688	63	20996
2026-01-29 21:53:39.98	323.47	9.52	-46.6	-49.1	6.2	0.00e+00	0	47	104	38889586688	63	20815
2026-01-29 21:53:42.90	323.94	9.31	-46.5	-49.2	6.2	0.00e+00	0	47	104	38889586688	63	20890
2026-01-29 21:53:45.80	324.41	9.10	-46.5	-49.0	6.2	0.00e+00	0	47	104	38889586688	63	20584
2026-01-29 21:53:48.70	324.87	8.89	-46.4	-49.0	6.2	0.00e+00	0	47	104	38889586688	63	20484
2026-01-29 21:53:51.62	325.32	8.68	-46.3	-49.0	6.2	0.00e+00	0	47	104	38889586688	63	20474
2026-01-29 21:53:54.52	325.76	8.47	-46.4	-48.9	6.2	0.00e+00	0	47	104	38889586688	63	20307
2026-01-29 21:53:57.44	326.20	8.26	-46.3	-48.9	6.2	0.00e+00	0	46	104	38889586688	63	20169
2026-01-29 21:54:00.35	326.63	8.05	-46.3	-48.8	6.2	0.00e+00	0	47	104	38889586688	63	20153
2026-01-29 21:54:03.25	327.05	7.85	-46.3	-48.9	6.2	0.00e+00	0	47	104	38889586688	63	20269
2026-01-29 21:54:06.16	327.47	7.64	-46.2	-48.8	6.2	0.00e+00	0	46	104	38889586688	63	19994
2026-01-29 21:54:09.07	327.88	7.44	-46.2	-48.8	6.2	0.00e+00	0	47	104	38889586688	63	19979
2026-01-29 21:54:11.97	328.28	7.23	-46.2	-48.7	6.2	0.00e+00	0	46	104	38889586688	63	19904
2026-01-29 21:54:14.87	328.67	7.03	-46.2	-48.8	6.2	0.00e+00	0	47	104	38889586688	63	19964
2026-01-29 21:54:17.78	329.06	6.83	-46.1	-48.6	6.2	0.00e+00	0	46	104	38889586688	63	19666
2026-01-29 21:54:20.69	329.44	6.63	-46.1	-48.6	6.2	0.00e+00	0	47	104	38889586688	63	19659
2026-01-29 21:54:23.60	329.82	6.43	-46.1	-48.6	6.2	0.00e+00	0	47	104	38889586688	63	19677
2026-01-29 21:54:26.51	330.19	6.23	-46.0	-48.5	6.2	0.00e+00	0	47	104	38889586688	63	19442
2026-01-29 21:54:29.42	330.56	6.04	-46.0	-48.5	6.2	0.00e+00	0	47	104	38889586688	63	19445
2026-01-29 21:54:32.32	330.91	5.84	-45.9	-48.5	6.2	0.00e+00	0	46	104	38889586688	63	19323
2026-01-29 21:54:35.23	331.27	5.65	-46.0	-48.6	6.2	0.00e+00	0	46	104	38889586688	63	19489
2026-01-29 21:54:38.14	331.62	5.46	-45.8	-48.3	6.2	0.00e+00	0	47	104	38889586688	63	19021
2026-01-29 21:54:41.04	331.96	5.26	-45.8	-48.4	6.2	0.00e+00	0	47	104	38889586688	63	19181
2026-01-29 21:54:43.95	332.29	5.07	-45.8	-48.3	6.2	0.00e+00	0	47	104	38889586688	63	18937
2026-01-29 21:54:46.85	332.63	4.88	-46.7	-49.2	6.2	0.00e+00	0	47	104	38889586688	63	21034
2026-01-29 21:54:49.77	332.95	4.69	-47.2	-49.7	6.2	0.00e+00	0	46	104	38889586688	64	21029
2026-01-29 21:54:52.67	333.28	4.51	-47.4	-49.9	6.2	0.00e+00	0	46	104	38889586688	65	20299
2026-01-29 21:54:55.58	333.59	4.32	-47.2	-49.8	6.2	0.00e+00	0	46	104	38889586688	65	19937
2026-01-29 21:54:58.48	333.90	4.13	-47.2	-49.7	6.2	0.00e+00	0	46	104	38889586688	65	19901
2026-01-29 21:55:01.40	334.21	3.95	-47.3	-49.9	6.2	0.00e+00	0	46	104	38889586688	65	20167
2026-01-29 21:55:04.30	334.52	3.77	-47.3	-49.9	6.2	0.00e+00	0	47	104	38889586688	65	20216
2026-01-29 21:55:07.21	334.81	3.58	-47.3	-49.9	6.2	0.00e+00	0	46	104	38889586688	65	20191
2026-01-29 21:55:10.11	335.11	3.40	-47.2	-49.8	6.2	0.00e+00	0	46	104	38889586688	65	19992
2026-01-29 21:55:13.02	335.40	3.22	-47.2	-49.8	6.2	0.00e+00	0	46	104	38889586688	65	19956
2026-01-29 21:55:15.92	335.68	3.04	-47.2	-49.7	6.2	0.00e+00	0	46	104	38889586688	65	19800
2026-01-29 21:55:18.84	335.97	2.86	-47.1	-49.7	6.2	0.00e+00	0	46	104	38889586688	65	19773
2026-01-29 21:55:21.73	336.24	2.69	-47.1	-49.7	6.2	0.00e+00	0	46	104	38889586688	65	19727
2026-01-29 21:55:24.64	336.52	2.51	-47.1	-49.6	6.2	0.00e+00	0	46	104	38889586688	65	19696
2026-01-29 21:55:27.55	336.79	2.34	-47.1	-49.6	6.2	0.00e+00	0	46	104	38889586688	65	19701
2026-01-29 21:55:30.46	337.05	2.16	-47.1	-49.6	6.2	0.00e+00	0	46	104	38889586688	65	19665
2026-01-29 21:55:33.37	337.32	1.99	-47.1	-49.6	6.2	0.00e+00	0	46	104	38889586688	65	19613

#Closed at: 2026-01-29 21:55:33
#Recorded file [38889 MB]: D:/lorett/data/31045_260130_004546.dat