passes_logs/2026/01/28/R4.6S_Anadyr/R4.6S_Anadyr__20260128_232638_NOAA_21_JPSS-2_rec.log

#Pass ID: 20260128_232638_NOAA 21 (JPSS-2)
#Satellite: NOAA 21 (JPSS-2)
#Configuration: NOAA-21
#almurnet v.1.7.20251203
#Start time: 2026-01-28 23:26:40

#Version: 2.2.20231116
#Station: R4.6S_Anadyr
#Location: 177.4865 lon 64.73178 lat
#TLE: 1 54234U 22150A   26027.91149249  .00000141  00000+0  87546-4 0  9993
#TLE: 2 54234  98.7510 328.6558 0000880 202.8718 157.2419 14.19540177166642

#Time	Az	El	Level	Level2	SNR	BER	BlckErr	Temp	State	Recorded	gain1	gain2
2026-01-28 23:26:40.48	137.18	0.13	-45.6	-60.0	3.5	1.51e+00	0	30	0	0	60	40520
2026-01-28 23:26:44.39	137.11	0.37	-48.9	-61.8	3.5	1.52e+00	0	31	104	0	60	43168
2026-01-28 23:26:48.31	137.03	0.60	-48.9	-61.8	3.5	1.52e+00	0	31	104	0	60	43314
2026-01-28 23:26:52.23	136.96	0.84	-49.0	-61.8	3.5	1.52e+00	0	32	104	0	60	43366
2026-01-28 23:26:56.14	136.88	1.08	-48.8	-61.7	3.5	1.51e+00	0	32	104	0	60	42517
2026-01-28 23:27:00.06	136.81	1.32	-48.6	-61.4	3.5	1.52e+00	0	32	104	0	60	41406
2026-01-28 23:27:03.98	136.73	1.57	-47.8	-60.9	3.5	1.52e+00	0	32	104	0	60	39084
2026-01-28 23:27:07.90	136.65	1.81	-47.5	-60.3	3.5	1.52e+00	0	32	104	0	60	36452
2026-01-28 23:27:11.82	136.57	2.06	-47.5	-60.3	3.5	1.52e+00	0	32	104	0	60	36266
2026-01-28 23:27:15.74	136.49	2.31	-47.4	-60.4	3.5	1.52e+00	0	32	104	0	60	36574
2026-01-28 23:27:19.65	136.40	2.57	-47.4	-60.4	3.5	1.52e+00	0	32	104	0	60	36579
2026-01-28 23:27:23.57	136.32	2.82	-47.4	-59.7	3.5	1.52e+00	0	32	104	0	60	33730
2026-01-28 23:27:27.49	136.23	3.08	-47.3	-59.2	3.5	1.51e+00	0	32	104	0	60	31903
2026-01-28 23:27:31.40	136.14	3.34	-46.8	-55.2	5.2	7.31e-01	0	32	104	0	60	20292
2026-01-28 23:27:35.33	136.05	3.60	-42.4	-44.6	15.1	0.00e+00	0	32	0	10485760	58	6670
2026-01-28 23:27:39.24	135.95	3.86	-47.5	-60.6	3.5	1.51e+00	0	32	104	19922944	60	37475
2026-01-28 23:27:43.16	135.86	4.13	-44.1	-47.4	12.8	1.41e+00	0	32	104	20971520	60	8237
2026-01-28 23:27:47.07	135.76	4.40	-39.0	-40.3	19.2	0.00e+00	0	32	0	31457280	50	6497
2026-01-28 23:27:50.98	135.66	4.67	-38.5	-39.7	19.9	0.00e+00	0	32	0	42991616	50	6057
2026-01-28 23:27:54.89	135.56	4.94	-37.7	-38.8	20.7	0.00e+00	0	32	0	55574528	48	6128
2026-01-28 23:27:58.80	135.46	5.22	-37.8	-38.9	20.7	0.00e+00	0	32	0	68157440	48	6197
2026-01-28 23:28:02.71	135.35	5.50	-37.7	-38.8	20.8	0.00e+00	0	32	0	79691776	48	6128
2026-01-28 23:28:06.63	135.25	5.78	-38.0	-39.2	20.5	0.00e+00	0	32	0	92274688	48	6364
2026-01-28 23:28:10.55	135.14	6.07	-36.9	-38.0	21.5	0.00e+00	0	32	0	104857600	48	5574
2026-01-28 23:28:14.48	135.02	6.36	-37.4	-38.5	21.2	0.00e+00	0	32	0	116391936	48	5890
2026-01-28 23:28:18.40	134.91	6.65	-37.0	-38.1	21.5	0.00e+00	0	32	0	128974848	48	5647
2026-01-28 23:28:22.32	134.79	6.95	-36.7	-37.8	21.9	0.00e+00	0	32	0	141557760	46	6098
2026-01-28 23:28:26.25	134.67	7.25	-36.6	-37.6	22.1	0.00e+00	0	32	0	154140672	46	5970
2026-01-28 23:28:30.17	134.55	7.55	-36.4	-37.4	22.3	0.00e+00	0	32	0	165675008	46	5851
2026-01-28 23:28:34.10	134.42	7.85	-36.2	-37.2	22.5	0.00e+00	0	32	0	178257920	46	5688
2026-01-28 23:28:38.01	134.29	8.16	-36.0	-37.0	22.5	0.00e+00	0	32	0	190840832	46	5581
2026-01-28 23:28:41.92	134.16	8.48	-35.9	-36.9	22.7	0.00e+00	0	32	0	202375168	46	5499
2026-01-28 23:28:45.83	134.02	8.79	-35.7	-36.7	22.9	0.00e+00	0	32	0	214958080	44	6040
2026-01-28 23:28:49.75	133.89	9.11	-35.6	-36.6	23.0	0.00e+00	0	32	0	227540992	44	5939
2026-01-28 23:28:53.65	133.74	9.44	-35.5	-36.5	23.1	0.00e+00	0	32	0	239075328	44	5879
2026-01-28 23:28:57.56	133.60	9.76	-35.3	-36.3	23.3	0.00e+00	0	32	0	251658240	44	5748
2026-01-28 23:29:01.48	133.45	10.10	-35.3	-36.3	23.3	0.00e+00	0	32	0	263192576	44	5742
2026-01-28 23:29:05.39	133.30	10.43	-35.1	-36.0	23.4	0.00e+00	0	32	0	275775488	44	5593
2026-01-28 23:29:09.31	133.14	10.77	-35.0	-35.9	23.5	0.00e+00	0	32	0	288358400	44	5516
2026-01-28 23:29:13.22	132.98	11.12	-34.8	-35.7	23.7	0.00e+00	0	32	0	299892736	44	5398
2026-01-28 23:29:17.14	132.82	11.47	-34.9	-35.8	23.7	0.00e+00	0	33	0	312475648	44	5424
2026-01-28 23:29:21.06	132.65	11.83	-34.8	-35.7	23.7	0.00e+00	0	33	0	325058560	42	6013
2026-01-28 23:29:24.98	132.48	12.19	-34.7	-35.6	23.7	0.00e+00	0	32	0	336592896	42	5969
2026-01-28 23:29:28.90	132.30	12.55	-34.6	-35.6	23.8	0.00e+00	0	33	0	349175808	42	5942
2026-01-28 23:29:32.81	132.12	12.92	-34.7	-35.7	23.8	0.00e+00	0	32	0	361758720	42	6018
2026-01-28 23:29:36.73	131.93	13.30	-34.8	-35.7	23.8	0.00e+00	0	33	0	374341632	42	6057
2026-01-28 23:29:40.65	131.74	13.68	-34.8	-35.7	23.9	0.00e+00	0	33	0	385875968	42	6020
2026-01-28 23:29:44.56	131.54	14.07	-34.8	-35.7	23.9	0.00e+00	0	33	0	398458880	42	6054
2026-01-28 23:29:48.47	131.34	14.46	-34.7	-35.6	23.9	0.00e+00	0	32	0	411041792	42	5987
2026-01-28 23:29:52.39	131.13	14.86	-34.7	-35.6	24.1	0.00e+00	0	33	0	422576128	42	5981
2026-01-28 23:29:56.31	130.91	15.27	-34.6	-35.6	24.1	0.00e+00	0	33	0	435159040	42	5940
2026-01-28 23:30:00.23	130.69	15.68	-34.5	-35.4	24.3	0.00e+00	0	33	0	447741952	42	5798
2026-01-28 23:30:04.14	130.46	16.10	-34.7	-35.6	24.1	0.00e+00	0	33	0	459276288	42	5970
2026-01-28 23:30:08.06	130.23	16.52	-34.6	-35.6	24.2	0.00e+00	0	33	0	471859200	42	5944
2026-01-28 23:30:11.98	129.99	16.96	-34.7	-35.6	24.1	0.00e+00	0	33	0	484442112	42	5988
2026-01-28 23:30:15.90	129.74	17.40	-34.8	-35.7	23.9	0.00e+00	0	33	0	495976448	42	6030
2026-01-28 23:30:19.82	129.48	17.84	-34.9	-35.9	23.9	0.00e+00	0	33	0	508559360	42	6157
2026-01-28 23:30:23.73	129.21	18.30	-34.8	-35.7	24.0	0.00e+00	0	33	0	521142272	42	6059
2026-01-28 23:30:27.64	128.94	18.76	-34.8	-35.8	24.1	0.00e+00	0	33	0	532676608	42	6066
2026-01-28 23:30:31.56	128.66	19.23	-34.5	-35.4	24.3	0.00e+00	0	33	0	545259520	42	5809
2026-01-28 23:30:35.47	128.37	19.71	-34.4	-35.3	24.3	0.00e+00	0	33	0	557842432	42	5750
2026-01-28 23:30:39.38	128.06	20.20	-34.3	-35.2	24.4	0.00e+00	0	33	0	569376768	42	5683
2026-01-28 23:30:43.30	127.75	20.69	-34.0	-34.9	24.5	0.00e+00	0	33	0	581959680	42	5473
2026-01-28 23:30:47.21	127.43	21.20	-33.7	-34.7	24.7	0.00e+00	0	33	0	594542592	40	6000
2026-01-28 23:30:51.13	127.10	21.71	-33.6	-34.5	24.9	0.00e+00	0	33	0	606076928	40	5925
2026-01-28 23:30:55.05	126.75	22.24	-33.1	-34.0	25.2	0.00e+00	0	33	0	618659840	40	5572
2026-01-28 23:30:58.98	126.39	22.77	-33.1	-34.0	25.4	0.00e+00	0	33	0	631242752	40	5554
2026-01-28 23:31:02.89	126.02	23.32	-32.9	-33.8	25.5	0.00e+00	0	33	0	642777088	40	5428
2026-01-28 23:31:06.81	125.64	23.87	-33.0	-33.9	25.3	0.00e+00	0	33	0	655360000	40	5493
2026-01-28 23:31:10.74	125.24	24.44	-33.1	-34.0	25.4	0.00e+00	0	33	0	667942912	40	5532
2026-01-28 23:31:14.65	124.82	25.01	-33.3	-34.2	25.2	0.00e+00	0	33	0	679477248	40	5671
2026-01-28 23:31:18.56	124.40	25.60	-33.5	-34.3	25.1	0.00e+00	0	33	0	692060160	40	5788
2026-01-28 23:31:22.47	123.95	26.19	-33.8	-34.7	24.9	0.00e+00	0	33	0	704643072	40	6004
2026-01-28 23:31:26.38	123.49	26.80	-34.0	-34.9	24.5	0.00e+00	0	33	0	716177408	40	6168
2026-01-28 23:31:30.29	123.00	27.42	-34.2	-35.1	24.5	0.00e+00	0	33	0	728760320	40	6331
2026-01-28 23:31:34.20	122.50	28.05	-34.6	-35.5	24.2	0.00e+00	0	33	0	741343232	40	6613
2026-01-28 23:31:38.11	121.98	28.70	-34.6	-35.5	24.2	0.00e+00	0	33	0	752877568	42	5882
2026-01-28 23:31:42.01	121.44	29.35	-34.7	-35.7	24.1	0.00e+00	0	33	0	765460480	42	6000
2026-01-28 23:31:45.93	120.87	30.02	-34.4	-35.3	24.3	0.00e+00	0	33	0	778043392	42	5768
2026-01-28 23:31:49.84	120.28	30.70	-34.4	-35.3	24.5	0.00e+00	0	33	0	789577728	42	5768
2026-01-28 23:31:53.75	119.66	31.39	-33.8	-34.7	24.8	0.00e+00	0	33	0	802160640	42	5376
2026-01-28 23:31:57.67	119.01	32.10	-34.0	-35.0	24.1	0.00e+00	0	33	0	814743552	42	5550
2026-01-28 23:32:01.58	118.34	32.82	-34.3	-35.2	24.4	0.00e+00	0	33	0	826277888	42	5696
2026-01-28 23:32:05.51	117.62	33.55	-34.4	-35.3	24.6	0.00e+00	0	33	0	838860800	42	5729
2026-01-28 23:32:09.43	116.88	34.30	-34.5	-35.4	24.3	0.00e+00	0	33	0	851443712	42	5830
2026-01-28 23:32:13.33	116.11	35.05	-35.6	-36.5	23.5	0.00e+00	0	33	0	862978048	42	6616
2026-01-28 23:32:17.25	115.29	35.82	-35.8	-36.7	23.4	0.00e+00	0	33	0	875560960	44	6040
2026-01-28 23:32:21.17	114.44	36.60	-35.8	-36.7	23.3	0.00e+00	0	33	0	888143872	44	6032
2026-01-28 23:32:25.08	113.54	37.39	-36.2	-37.1	23.0	0.00e+00	0	33	0	899678208	44	6320
2026-01-28 23:32:28.99	112.60	38.20	-36.3	-37.3	22.9	0.00e+00	0	33	0	912261120	44	6438
2026-01-28 23:32:32.91	111.61	39.01	-36.6	-37.6	22.8	0.00e+00	0	33	0	924844032	44	6675
2026-01-28 23:32:36.81	110.57	39.83	-36.2	-37.2	23.1	0.00e+00	0	33	0	936378368	44	6371
2026-01-28 23:32:40.73	109.47	40.66	-36.2	-37.2	23.0	0.00e+00	0	33	0	948961280	44	6356
2026-01-28 23:32:44.65	108.32	41.49	-36.1	-37.1	23.1	0.00e+00	0	33	0	961544192	44	6297
2026-01-28 23:32:48.56	107.10	42.33	-36.6	-37.6	22.6	0.00e+00	0	33	0	973078528	44	6674
2026-01-28 23:32:52.48	105.82	43.18	-36.1	-37.1	23.2	0.00e+00	0	33	0	985661440	44	6294
2026-01-28 23:32:56.40	104.46	44.03	-36.5	-37.5	22.3	0.00e+00	0	33	0	998244352	44	6581
2026-01-28 23:33:00.32	103.03	44.87	-36.7	-37.7	22.7	0.00e+00	0	33	0	1009778688	46	6021
2026-01-28 23:33:04.23	101.53	45.71	-36.6	-37.6	22.5	0.00e+00	0	33	0	1022361600	46	5951
2026-01-28 23:33:08.15	99.94	46.55	-37.0	-38.0	22.5	0.00e+00	0	33	0	1034944512	46	6232
2026-01-28 23:33:12.08	98.26	47.38	-36.6	-37.5	22.8	0.00e+00	0	33	0	1046478848	46	5915
2026-01-28 23:33:16.01	96.48	48.20	-37.2	-38.3	22.3	0.00e+00	0	33	0	1059061760	46	6440
2026-01-28 23:33:19.93	94.62	49.00	-36.3	-37.2	23.0	0.00e+00	0	33	0	1071644672	46	5703
2026-01-28 23:33:23.84	92.66	49.78	-36.2	-37.2	23.2	0.00e+00	0	33	0	1083179008	46	5660
2026-01-28 23:33:27.76	90.60	50.53	-36.3	-37.2	23.0	0.00e+00	0	33	0	1095761920	46	5722
2026-01-28 23:33:31.67	88.44	51.25	-35.3	-36.2	23.8	0.00e+00	0	33	0	1108344832	44	5683
2026-01-28 23:33:35.58	86.17	51.94	-35.0	-36.0	24.1	0.00e+00	0	33	0	1119879168	44	5538
2026-01-28 23:33:39.49	83.80	52.59	-34.8	-35.7	24.3	0.00e+00	0	33	0	1132462080	42	6047
2026-01-28 23:33:43.41	81.31	53.19	-34.3	-35.2	24.6	0.00e+00	0	33	0	1145044992	42	5674
2026-01-28 23:33:47.34	78.72	53.75	-35.0	-35.9	24.1	0.00e+00	0	33	0	1156579328	42	6196
2026-01-28 23:33:51.26	76.05	54.25	-35.4	-36.3	23.7	0.00e+00	0	33	0	1169162240	44	5791
2026-01-28 23:33:55.17	73.28	54.68	-35.0	-35.9	24.1	0.00e+00	0	33	0	1181745152	44	5501
2026-01-28 23:33:59.08	70.45	55.05	-34.1	-35.0	24.8	0.00e+00	0	33	0	1193279488	42	5541
2026-01-28 23:34:03.01	67.52	55.35	-34.6	-35.5	24.4	0.00e+00	0	33	0	1205862400	42	5905
2026-01-28 23:34:06.92	64.56	55.58	-34.5	-35.4	24.6	0.00e+00	0	33	0	1218445312	42	5792
2026-01-28 23:34:10.83	61.56	55.73	-34.9	-35.8	24.2	0.00e+00	0	33	0	1229979648	42	6092
2026-01-28 23:34:14.74	58.53	55.80	-34.4	-35.3	24.6	0.00e+00	0	33	0	1242562560	42	5758
2026-01-28 23:34:18.66	55.49	55.80	-34.6	-35.5	24.5	0.00e+00	0	33	0	1255145472	42	5869
2026-01-28 23:34:22.58	52.46	55.71	-34.5	-35.4	24.1	0.00e+00	0	33	0	1266679808	42	5803
2026-01-28 23:34:26.50	49.46	55.55	-34.5	-35.4	24.2	0.00e+00	0	33	0	1279262720	42	5827
2026-01-28 23:34:30.42	46.49	55.31	-34.5	-35.4	24.2	0.00e+00	0	33	0	1291845632	42	5837
2026-01-28 23:34:34.34	43.59	55.00	-34.3	-35.2	24.7	0.00e+00	0	33	0	1304428544	42	5678
2026-01-28 23:34:38.26	40.76	54.62	-34.7	-35.6	24.5	0.00e+00	0	33	0	1315962880	42	5946
2026-01-28 23:34:42.18	38.01	54.17	-35.1	-36.1	23.8	0.00e+00	0	33	0	1328545792	42	6286
2026-01-28 23:34:46.10	35.35	53.67	-35.2	-36.1	24.0	0.00e+00	0	33	0	1341128704	42	6347
2026-01-28 23:34:50.01	32.79	53.11	-35.6	-36.6	23.5	0.00e+00	0	33	0	1352663040	42	6656
2026-01-28 23:34:53.93	30.33	52.50	-34.6	-35.5	24.5	0.00e+00	0	33	0	1365245952	42	5874
2026-01-28 23:34:57.86	27.96	51.84	-34.7	-35.6	24.3	0.00e+00	0	33	0	1377828864	42	5956
2026-01-28 23:35:01.77	25.71	51.15	-36.7	-37.8	21.9	0.00e+00	0	33	0	1389363200	46	6079
2026-01-28 23:35:05.68	23.57	50.42	-35.3	-36.3	23.4	0.00e+00	0	33	0	1401946112	44	5728
2026-01-28 23:35:09.59	21.53	49.67	-37.8	-38.9	21.3	0.00e+00	0	33	0	1413480448	48	6189
2026-01-28 23:35:13.51	19.59	48.89	-35.6	-36.5	23.6	0.00e+00	0	33	0	1426063360	44	5878
2026-01-28 23:35:17.41	17.75	48.09	-38.0	-39.0	21.4	0.00e+00	0	33	0	1438646272	48	6264
2026-01-28 23:35:21.33	16.00	47.27	-34.6	-35.4	24.4	0.00e+00	0	33	0	1451229184	42	5854
2026-01-28 23:35:25.25	14.34	46.45	-37.8	-38.9	21.7	0.00e+00	0	33	0	1462763520	48	6186
2026-01-28 23:35:29.16	12.77	45.61	-36.2	-37.1	23.3	0.00e+00	0	33	0	1475346432	46	5651
2026-01-28 23:35:33.06	11.28	44.78	-36.4	-37.4	22.7	0.00e+00	0	33	0	1487929344	44	6500
2026-01-28 23:35:36.98	9.87	43.93	-37.1	-38.2	22.1	0.00e+00	0	33	0	1499463680	48	5671
2026-01-28 23:35:40.88	8.53	43.09	-36.5	-37.4	23.0	0.00e+00	0	33	0	1512046592	46	5854
2026-01-28 23:35:44.80	7.26	42.25	-36.3	-37.3	23.0	0.00e+00	0	33	0	1524629504	44	6431
2026-01-28 23:35:48.71	6.05	41.41	-36.1	-37.1	22.3	0.00e+00	0	33	0	1536163840	44	6317
2026-01-28 23:35:52.62	4.91	40.58	-37.7	-38.8	21.8	0.00e+00	0	33	0	1548746752	46	6807
2026-01-28 23:35:56.54	3.82	39.76	-36.8	-37.8	22.6	0.00e+00	0	33	0	1561329664	48	5439
2026-01-28 23:36:00.44	2.79	38.94	-35.6	-36.5	23.7	0.00e+00	0	33	0	1572864000	44	5871
2026-01-28 23:36:04.35	1.81	38.13	-37.0	-38.0	22.5	0.00e+00	0	33	0	1585446912	46	6230
2026-01-28 23:36:08.25	0.88	37.34	-37.4	-38.5	21.9	0.00e+00	0	33	0	1596981248	46	6626
2026-01-28 23:36:12.17	359.99	36.55	-35.0	-35.9	24.1	0.00e+00	0	33	0	1609564160	44	5511
2026-01-28 23:36:16.08	359.15	35.78	-35.7	-36.7	23.4	0.00e+00	0	33	0	1622147072	44	6005
2026-01-28 23:36:20.00	358.34	35.01	-34.3	-35.1	24.7	0.00e+00	0	33	0	1633681408	42	5649
2026-01-28 23:36:23.92	357.57	34.26	-35.2	-36.2	23.8	0.00e+00	0	33	0	1646264320	42	6352
2026-01-28 23:36:27.85	356.83	33.51	-35.0	-36.0	23.9	0.00e+00	0	33	0	1658847232	42	6222
2026-01-28 23:36:31.76	356.13	32.79	-35.0	-35.9	24.0	0.00e+00	0	33	0	1670381568	42	6200
2026-01-28 23:36:35.68	355.46	32.07	-34.5	-35.4	24.4	0.00e+00	0	33	0	1682964480	42	5809
2026-01-28 23:36:39.60	354.82	31.37	-34.0	-34.9	24.8	0.00e+00	0	33	0	1695547392	42	5476
2026-01-28 23:36:43.52	354.20	30.67	-34.0	-34.8	24.9	0.00e+00	0	33	0	1707081728	40	6127
2026-01-28 23:36:47.42	353.62	30.00	-34.4	-35.3	24.4	0.00e+00	0	33	0	1719664640	40	6496
2026-01-28 23:36:51.34	353.05	29.33	-34.8	-35.7	24.0	0.00e+00	0	33	0	1732247552	42	6057
2026-01-28 23:36:55.26	352.51	28.68	-34.5	-35.4	24.3	0.00e+00	0	33	0	1744830464	42	5816
2026-01-28 23:36:59.17	352.00	28.04	-33.7	-34.6	24.9	0.00e+00	0	33	0	1756364800	40	5966
2026-01-28 23:37:03.05	351.50	27.42	-33.5	-34.4	25.1	0.00e+00	0	33	0	1768947712	40	5796
2026-01-28 23:37:06.97	351.02	26.80	-33.7	-34.5	25.1	0.00e+00	0	33	0	1781530624	40	5910
2026-01-28 23:37:10.88	350.57	26.19	-34.1	-34.9	24.8	0.00e+00	0	33	0	1793064960	40	6205
2026-01-28 23:37:14.80	350.12	25.60	-34.2	-35.1	24.6	0.00e+00	0	33	0	1805647872	40	6290
2026-01-28 23:37:18.71	349.70	25.02	-33.8	-34.7	24.9	0.00e+00	0	33	0	1818230784	40	6000
2026-01-28 23:37:22.63	349.29	24.45	-33.7	-34.6	25.0	0.00e+00	0	33	0	1829765120	40	5967
2026-01-28 23:37:26.54	348.89	23.88	-33.4	-34.3	25.2	0.00e+00	0	33	0	1842348032	40	5744
2026-01-28 23:37:30.46	348.51	23.33	-33.6	-34.4	25.2	0.00e+00	0	33	0	1853882368	40	5854
2026-01-28 23:37:34.38	348.15	22.79	-33.8	-34.7	24.9	0.00e+00	0	33	0	1866465280	40	6009
2026-01-28 23:37:38.29	347.79	22.26	-34.1	-35.0	24.7	0.00e+00	0	33	0	1879048192	40	6234
2026-01-28 23:37:42.21	347.45	21.74	-34.1	-35.0	24.6	0.00e+00	0	33	0	1890582528	40	6227
2026-01-28 23:37:46.13	347.12	21.23	-34.2	-35.1	24.6	0.00e+00	0	33	0	1903165440	40	6319
2026-01-28 23:37:50.04	346.80	20.73	-34.1	-35.0	24.6	0.00e+00	0	33	0	1915748352	40	6271
2026-01-28 23:37:53.96	346.49	20.23	-34.2	-35.1	24.5	0.00e+00	0	33	0	1928331264	40	6301
2026-01-28 23:37:57.89	346.19	19.74	-34.1	-35.0	24.5	0.00e+00	0	33	0	1939865600	40	6218
2026-01-28 23:38:01.80	345.91	19.27	-34.0	-34.9	24.5	0.00e+00	0	33	0	1952448512	40	6140
2026-01-28 23:38:05.71	345.63	18.80	-33.9	-34.8	24.5	0.00e+00	0	33	0	1965031424	40	6125
2026-01-28 23:38:09.62	345.36	18.34	-33.9	-34.8	24.7	0.00e+00	0	33	0	1976565760	40	6078
2026-01-28 23:38:13.53	345.10	17.89	-34.1	-34.9	24.5	0.00e+00	0	33	0	1989148672	40	6198
2026-01-28 23:38:17.45	344.84	17.44	-34.3	-35.2	24.4	0.00e+00	0	33	0	2000683008	40	6366
2026-01-28 23:38:21.37	344.59	17.01	-34.8	-35.7	24.0	0.00e+00	0	33	0	2013265920	42	6038
2026-01-28 23:38:25.30	344.36	16.57	-34.8	-35.8	24.0	0.00e+00	0	33	0	2025848832	42	6066
2026-01-28 23:38:29.21	344.12	16.15	-35.2	-36.1	23.8	0.00e+00	0	33	0	2038431744	42	6324
2026-01-28 23:38:33.12	343.90	15.74	-35.4	-36.3	23.5	0.00e+00	0	33	0	2049966080	42	6465
2026-01-28 23:38:37.04	343.68	15.32	-35.1	-36.1	23.8	0.00e+00	0	33	0	2062548992	42	6278
2026-01-28 23:38:40.98	343.47	14.92	-34.9	-35.9	23.8	0.00e+00	0	33	0	2075131904	42	6136
2026-01-28 23:38:44.89	343.26	14.52	-35.1	-36.0	23.7	0.00e+00	0	33	0	2086666240	42	6275
2026-01-28 23:38:48.81	343.06	14.13	-35.1	-36.1	23.7	0.00e+00	0	33	0	2099249152	42	6308
2026-01-28 23:38:52.72	342.87	13.74	-35.1	-36.1	23.7	0.00e+00	0	33	0	2111832064	42	6283
2026-01-28 23:38:56.63	342.68	13.36	-35.2	-36.2	23.6	0.00e+00	0	33	0	2123366400	42	6371
2026-01-28 23:39:00.54	342.49	12.99	-35.0	-36.0	23.8	0.00e+00	0	33	0	2135949312	42	6259
2026-01-28 23:39:04.45	342.32	12.62	-35.2	-36.2	23.5	0.00e+00	0	33	0	2148532224	42	6406
2026-01-28 23:39:08.37	342.14	12.26	-35.2	-36.2	23.5	0.00e+00	0	33	0	2160066560	42	6395
2026-01-28 23:39:12.29	341.97	11.90	-35.3	-36.3	23.5	0.00e+00	0	33	0	2172649472	42	6446
2026-01-28 23:39:16.20	341.81	11.54	-35.4	-36.4	23.3	0.00e+00	0	33	0	2185232384	42	6541
2026-01-28 23:39:20.11	341.65	11.19	-35.5	-36.5	23.3	0.00e+00	0	33	0	2196766720	42	6608
2026-01-28 23:39:24.02	341.49	10.85	-35.5	-36.5	23.2	0.00e+00	0	33	0	2209349632	42	6598
2026-01-28 23:39:27.93	341.34	10.51	-35.5	-36.5	23.2	0.00e+00	0	33	0	2221932544	44	5861
2026-01-28 23:39:31.85	341.19	10.18	-35.6	-36.6	23.2	0.00e+00	0	33	0	2233466880	44	5938
2026-01-28 23:39:35.77	341.04	9.84	-35.6	-36.7	22.9	0.00e+00	0	33	0	2246049792	44	5998
2026-01-28 23:39:39.69	340.90	9.52	-35.7	-36.7	22.8	0.00e+00	0	33	0	2258632704	44	6045
2026-01-28 23:39:43.61	340.76	9.19	-35.9	-37.0	22.7	0.00e+00	0	33	0	2270167040	44	6225
2026-01-28 23:39:47.53	340.63	8.87	-36.3	-37.4	22.2	0.00e+00	0	33	0	2282749952	44	6505
2026-01-28 23:39:51.43	340.49	8.56	-36.4	-37.4	22.2	0.00e+00	0	33	0	2295332864	44	6544
2026-01-28 23:39:55.34	340.37	8.25	-36.5	-37.5	22.1	0.00e+00	0	33	0	2306867200	44	6631
2026-01-28 23:39:59.25	340.24	7.94	-36.5	-37.5	22.2	0.00e+00	0	33	0	2319450112	46	5891
2026-01-28 23:40:03.16	340.12	7.64	-36.5	-37.6	22.1	0.00e+00	0	33	0	2332033024	46	5936
2026-01-28 23:40:07.07	340.00	7.34	-36.9	-38.0	21.7	0.00e+00	0	33	0	2343567360	46	6249
2026-01-28 23:40:10.99	339.88	7.04	-37.1	-38.2	21.5	0.00e+00	0	33	0	2356150272	46	6384
2026-01-28 23:40:14.90	339.77	6.74	-37.1	-38.2	21.2	0.00e+00	0	33	0	2367684608	46	6375
2026-01-28 23:40:18.81	339.66	6.45	-37.7	-38.9	20.9	0.00e+00	0	33	0	2380267520	48	6137
2026-01-28 23:40:22.71	339.55	6.17	-37.6	-38.7	20.9	0.00e+00	0	33	0	2392850432	48	6052
2026-01-28 23:40:26.62	339.44	5.88	-38.2	-39.4	20.3	0.00e+00	0	33	0	2405433344	48	6530
2026-01-28 23:40:30.55	339.34	5.60	-38.8	-40.1	19.4	0.00e+00	0	33	0	2416967680	50	6325
2026-01-28 23:40:34.46	339.23	5.32	-39.4	-40.9	18.1	0.00e+00	0	33	0	2429550592	50	6901
2026-01-28 23:40:38.38	339.13	5.04	-40.6	-42.4	16.4	0.00e+00	0	33	0	2442133504	54	6546
2026-01-28 23:40:42.29	339.04	4.77	-41.9	-44.4	13.7	1.06e-05	0	33	0	2453667840	56	7320
2026-01-28 23:40:46.21	338.94	4.50	-42.7	-46.5	10.2	5.61e-03	0	33	0	2466250752	58	8317
2026-01-28 23:40:50.12	338.85	4.23	-43.7	-49.5	6.2	2.12e-01	0	33	0	2478833664	58	11741
2026-01-28 23:40:54.03	338.76	3.97	-44.0	-53.5	3.7	1.34e+00	0	33	104	2481979392	60	16625
2026-01-28 23:40:57.95	338.67	3.70	-44.0	-56.6	3.5	1.52e+00	0	33	104	2481979392	60	23838
2026-01-28 23:41:01.87	338.58	3.44	-44.1	-56.3	3.5	1.52e+00	0	33	104	2481979392	60	22953
2026-01-28 23:41:05.79	338.49	3.18	-44.0	-56.7	3.5	1.52e+00	0	33	104	2481979392	60	24139
2026-01-28 23:41:09.70	338.41	2.93	-44.3	-57.1	3.5	1.52e+00	0	33	104	2481979392	60	25030
2026-01-28 23:41:13.60	338.33	2.67	-48.7	-61.6	3.5	1.52e+00	0	33	104	2481979392	60	42004
2026-01-28 23:41:17.52	338.25	2.42	-49.0	-61.9	3.5	1.51e+00	0	33	104	2481979392	60	43689
2026-01-28 23:41:21.45	338.17	2.17	-49.1	-62.0	3.5	1.52e+00	0	33	104	2481979392	60	43978
2026-01-28 23:41:25.36	338.09	1.92	-48.8	-61.7	3.5	1.52e+00	0	33	104	2481979392	60	42895
2026-01-28 23:41:29.29	338.01	1.68	-48.9	-61.7	3.5	1.51e+00	0	33	104	2481979392	60	42754
2026-01-28 23:41:33.21	337.94	1.43	-48.9	-61.8	3.5	1.52e+00	0	33	104	2481979392	60	43109
2026-01-28 23:41:37.14	337.87	1.19	-48.9	-61.8	3.5	1.52e+00	0	33	104	2481979392	60	42943
2026-01-28 23:41:41.05	337.80	0.95	-48.9	-61.7	3.5	1.52e+00	0	33	104	2481979392	60	42873
2026-01-28 23:41:44.96	337.73	0.71	-48.9	-61.8	3.5	1.52e+00	0	33	104	2481979392	60	42991
2026-01-28 23:41:48.88	337.66	0.48	-48.9	-61.7	3.5	1.51e+00	0	33	104	2481979392	60	42795
2026-01-28 23:41:52.80	337.59	0.24	-48.9	-61.7	3.5	1.52e+00	0	33	104	2481979392	60	42884
2026-01-28 23:41:56.71	337.52	0.01	-48.9	-61.7	3.5	1.52e+00	0	33	104	2481979392	60	42846

#Closed at: 2026-01-28 23:41:57
#Recorded file [2481 MB]: D:/lorett/data/35029_260129_112640.dat