passes_logs/2026/01/28/R4.6S_Anadyr/R4.6S_Anadyr__20260128_174143_NOAA_20_JPSS-1_rec.log

#Pass ID: 20260128_174143_NOAA 20 (JPSS-1)
#Satellite: NOAA 20 (JPSS-1)
#Configuration: NOAA 20
#almurnet v.1.7.20251203
#Start time: 2026-01-28 17:41:46

#Version: 2.2.20231116
#Station: R4.6S_Anadyr
#Location: 177.4865 lon 64.73178 lat
#TLE: 1 43013U 17073A   26027.80586608  .00000156  00000+0  94940-4 0  9998
#TLE: 2 43013  98.7647 328.6108 0000947  21.3465 338.7750 14.19541216424550

#Time	Az	El	Level	Level2	SNR	BER	BlckErr	Temp	State	Recorded	gain1	gain2
2026-01-28 17:41:46.56	33.72	0.14	-48.8	-66.5	3.5	3.02e+01	0	30	0	0	60	81472
2026-01-28 17:41:50.59	33.47	0.36	-48.7	-63.9	3.6	1.51e+00	0	31	104	0	60	56564
2026-01-28 17:41:54.64	33.21	0.57	-48.8	-63.9	3.6	1.51e+00	0	31	104	0	60	56951
2026-01-28 17:41:58.68	32.95	0.78	-48.7	-63.9	3.6	1.51e+00	0	31	104	0	60	56637
2026-01-28 17:42:02.72	32.68	1.00	-48.5	-63.7	3.6	1.51e+00	0	31	104	0	60	55428
2026-01-28 17:42:06.76	32.41	1.21	-48.2	-63.5	3.6	1.51e+00	0	31	104	0	60	53983
2026-01-28 17:42:10.80	32.14	1.43	-47.4	-62.6	3.6	1.51e+00	0	31	104	0	60	48745
2026-01-28 17:42:14.84	31.86	1.65	-47.1	-62.2	3.6	1.51e+00	0	32	104	0	60	46710
2026-01-28 17:42:18.88	31.58	1.87	-47.1	-62.3	3.6	1.51e+00	0	32	104	0	60	47245
2026-01-28 17:42:22.92	31.29	2.09	-47.1	-62.3	3.6	1.51e+00	0	32	104	0	60	46896
2026-01-28 17:42:26.95	31.00	2.31	-47.1	-62.3	3.6	1.51e+00	0	32	104	0	60	46945
2026-01-28 17:42:30.99	30.70	2.53	-47.1	-62.3	3.6	1.51e+00	0	32	104	0	60	46873
2026-01-28 17:42:35.03	30.40	2.75	-47.1	-61.8	3.6	1.51e+00	0	32	104	0	60	44427
2026-01-28 17:42:39.07	30.09	2.97	-47.0	-60.3	3.6	1.51e+00	0	32	104	0	60	37618
2026-01-28 17:42:43.11	29.78	3.20	-44.5	-48.0	13.2	2.04e-04	0	32	0	4194304	60	9075
2026-01-28 17:42:47.14	29.47	3.42	-47.0	-62.0	3.6	8.25e-01	0	32	104	11534336	60	45310
2026-01-28 17:42:51.18	29.14	3.65	-45.8	-51.4	8.8	7.23e-03	0	32	0	14680064	60	13497
2026-01-28 17:42:55.22	28.82	3.88	-42.1	-44.1	17.4	0.00e+00	0	32	0	22020096	58	6525
2026-01-28 17:42:59.26	28.48	4.11	-42.3	-44.3	17.3	0.00e+00	0	32	0	29360128	56	7472
2026-01-28 17:43:03.29	28.15	4.33	-41.8	-43.7	17.7	0.00e+00	90	32	0	36700160	56	6930
2026-01-28 17:43:07.33	27.81	4.57	-41.6	-43.4	18.4	0.00e+00	0	32	0	44040192	56	6731
2026-01-28 17:43:11.37	27.46	4.80	-41.9	-43.8	17.8	0.00e+00	5	32	0	52428800	56	7036
2026-01-28 17:43:15.41	27.10	5.03	-41.4	-43.1	18.4	0.00e+00	0	32	0	59768832	56	6473
2026-01-28 17:43:19.44	26.74	5.26	-41.3	-42.9	18.8	0.00e+00	92	32	0	67108864	56	6357
2026-01-28 17:43:23.48	26.38	5.50	-40.9	-42.4	19.3	0.00e+00	37	32	0	74448896	56	6023
2026-01-28 17:43:27.52	26.00	5.73	-40.8	-42.3	19.7	0.00e+00	0	32	0	81788928	56	5930
2026-01-28 17:43:31.56	25.62	5.97	-40.7	-42.1	19.6	0.00e+00	0	32	0	90177536	54	6518
2026-01-28 17:43:35.59	25.24	6.21	-40.8	-42.3	19.5	0.00e+00	92	32	0	97517568	54	6662
2026-01-28 17:43:39.63	24.85	6.44	-41.1	-42.6	19.3	0.00e+00	0	32	0	104857600	54	6855
2026-01-28 17:43:43.67	24.45	6.68	-41.2	-42.8	19.2	0.00e+00	6	32	0	112197632	56	6252
2026-01-28 17:43:47.71	24.04	6.92	-40.9	-42.3	19.7	0.00e+00	54	32	0	120586240	56	5927
2026-01-28 17:43:51.75	23.63	7.16	-41.1	-42.6	19.4	0.00e+00	92	32	0	127926272	54	6912
2026-01-28 17:43:55.78	23.21	7.41	-41.0	-42.5	19.5	0.00e+00	42	32	0	135266304	54	6830
2026-01-28 17:43:59.82	22.78	7.65	-40.9	-42.4	19.5	0.00e+00	0	32	0	142606336	54	6719
2026-01-28 17:44:03.86	22.35	7.89	-41.0	-42.4	19.6	0.00e+00	92	32	0	149946368	54	6762
2026-01-28 17:44:07.90	21.91	8.14	-40.7	-42.1	19.9	0.00e+00	34	32	0	158334976	54	6531
2026-01-28 17:44:11.93	21.46	8.38	-40.6	-42.0	20.1	0.00e+00	39	32	0	165675008	54	6396
2026-01-28 17:44:15.97	21.00	8.62	-40.3	-41.6	20.3	0.00e+00	38	32	0	173015040	54	6160
2026-01-28 17:44:20.01	20.54	8.87	-40.3	-41.5	20.5	0.00e+00	90	32	0	180355072	54	6101
2026-01-28 17:44:24.04	20.06	9.12	-40.3	-41.6	20.5	0.00e+00	0	32	0	188743680	54	6111
2026-01-28 17:44:28.08	19.58	9.36	-40.4	-41.7	20.3	0.00e+00	0	32	0	196083712	54	6212
2026-01-28 17:44:32.12	19.09	9.61	-40.2	-41.5	20.6	0.00e+00	35	32	0	203423744	54	6039
2026-01-28 17:44:36.16	18.59	9.86	-39.8	-41.0	21.0	0.00e+00	92	32	0	210763776	54	5738
2026-01-28 17:44:40.19	18.09	10.11	-39.7	-40.9	21.1	0.00e+00	0	32	0	218103808	52	6368
2026-01-28 17:44:44.23	17.57	10.35	-39.5	-40.7	21.4	0.00e+00	0	32	0	226492416	52	6191
2026-01-28 17:44:48.27	17.04	10.60	-39.4	-40.5	21.6	0.00e+00	0	32	0	233832448	52	6084
2026-01-28 17:44:52.31	16.51	10.85	-39.3	-40.4	21.7	0.00e+00	92	32	0	241172480	52	6021
2026-01-28 17:44:56.34	15.96	11.10	-39.2	-40.3	21.8	0.00e+00	41	32	0	248512512	52	5916
2026-01-28 17:45:00.38	15.41	11.35	-39.3	-40.3	21.8	0.00e+00	42	32	0	256901120	52	5963
2026-01-28 17:45:04.41	14.85	11.60	-39.5	-40.6	21.6	0.00e+00	46	32	0	264241152	52	6140
2026-01-28 17:45:08.45	14.28	11.84	-39.3	-40.4	21.7	0.00e+00	92	32	0	271581184	52	6016
2026-01-28 17:45:12.49	13.69	12.09	-39.4	-40.5	21.7	0.00e+00	0	32	0	278921216	52	6065
2026-01-28 17:45:16.53	13.10	12.34	-39.6	-40.7	21.4	0.00e+00	53	32	0	286261248	52	6230
2026-01-28 17:45:20.56	12.50	12.58	-39.7	-40.8	21.4	0.00e+00	8	32	0	294649856	52	6312
2026-01-28 17:45:24.60	11.88	12.83	-39.6	-40.7	21.5	0.00e+00	90	32	0	301989888	52	6228
2026-01-28 17:45:28.64	11.26	13.08	-39.4	-40.5	21.7	0.00e+00	0	32	0	309329920	52	6084
2026-01-28 17:45:32.68	10.62	13.32	-39.8	-41.0	21.2	0.00e+00	36	32	0	316669952	52	6408
2026-01-28 17:45:36.72	9.98	13.56	-39.9	-41.1	21.1	0.00e+00	2	32	0	324009984	52	6488
2026-01-28 17:45:40.76	9.32	13.80	-39.8	-40.9	21.2	0.00e+00	48	32	0	332398592	52	6384
2026-01-28 17:45:44.80	8.65	14.04	-39.7	-40.8	21.4	0.00e+00	0	32	0	339738624	52	6286
2026-01-28 17:45:48.83	7.97	14.28	-39.7	-40.8	21.5	0.00e+00	2	32	0	347078656	52	6294
2026-01-28 17:45:52.87	7.28	14.52	-39.3	-40.4	21.9	0.00e+00	92	32	0	354418688	52	6017
2026-01-28 17:45:56.91	6.58	14.75	-39.0	-40.0	22.3	0.00e+00	41	32	0	362807296	52	5744
2026-01-28 17:46:00.94	5.87	14.98	-38.7	-39.7	22.5	0.00e+00	40	32	0	370147328	50	6206
2026-01-28 17:46:04.98	5.15	15.21	-38.8	-39.8	22.5	0.00e+00	47	32	0	377487360	50	6260
2026-01-28 17:46:09.02	4.41	15.44	-38.3	-39.3	22.9	0.00e+00	90	32	0	384827392	50	5964
2026-01-28 17:46:13.06	3.67	15.67	-37.9	-38.8	23.3	0.00e+00	0	32	0	392167424	50	5609
2026-01-28 17:46:17.09	2.91	15.89	-37.6	-38.5	23.6	0.00e+00	43	32	0	400556032	48	6045
2026-01-28 17:46:21.13	2.14	16.11	-37.4	-38.3	23.8	0.00e+00	42	32	0	407896064	48	5907
2026-01-28 17:46:25.17	1.36	16.32	-37.0	-37.9	24.1	0.00e+00	92	32	0	415236096	48	5651
2026-01-28 17:46:29.21	0.57	16.53	-37.1	-38.0	24.1	0.00e+00	2	32	0	422576128	48	5708
2026-01-28 17:46:33.24	359.77	16.74	-37.0	-37.8	24.2	0.00e+00	0	32	0	430964736	48	5620
2026-01-28 17:46:37.28	358.95	16.95	-36.9	-37.7	24.2	0.00e+00	0	32	0	438304768	48	5564
2026-01-28 17:46:41.32	358.13	17.14	-37.2	-38.1	23.9	0.00e+00	92	32	0	445644800	48	5797
2026-01-28 17:46:45.35	357.29	17.34	-37.4	-38.3	23.9	0.00e+00	41	32	0	452984832	48	5921
2026-01-28 17:46:49.39	356.44	17.53	-37.7	-38.7	23.6	0.00e+00	7	32	0	460324864	48	6185
2026-01-28 17:46:53.43	355.59	17.71	-37.3	-38.2	23.6	0.00e+00	0	32	0	468713472	48	5837
2026-01-28 17:46:57.46	354.72	17.89	-37.1	-37.9	24.2	0.00e+00	92	32	0	476053504	48	5683
2026-01-28 17:47:01.50	353.84	18.07	-36.7	-37.5	24.4	0.00e+00	0	32	0	483393536	46	6103
2026-01-28 17:47:05.54	352.95	18.23	-36.5	-37.3	23.3	0.00e+00	6	32	0	490733568	46	5943
2026-01-28 17:47:09.58	352.05	18.39	-36.4	-37.3	24.8	0.00e+00	92	32	0	499122176	46	5897
2026-01-28 17:47:13.61	351.15	18.55	-36.7	-37.5	24.6	0.00e+00	49	32	0	506462208	46	6064
2026-01-28 17:47:17.65	350.23	18.70	-36.8	-37.7	24.5	0.00e+00	6	32	0	513802240	46	6188
2026-01-28 17:47:21.69	349.30	18.84	-36.4	-37.2	24.8	0.00e+00	43	32	0	521142272	46	5862
2026-01-28 17:47:25.73	348.37	18.97	-36.8	-37.6	24.4	0.00e+00	90	32	0	528482304	46	6148
2026-01-28 17:47:29.77	347.42	19.10	-36.8	-37.6	24.4	0.00e+00	0	32	0	536870912	46	6162
2026-01-28 17:47:33.81	346.47	19.22	-37.1	-37.9	24.3	0.00e+00	38	32	0	544210944	46	6386
2026-01-28 17:47:37.85	345.51	19.33	-37.0	-37.9	24.3	0.00e+00	2	32	0	551550976	46	6354
2026-01-28 17:47:41.88	344.55	19.44	-37.4	-38.2	24.0	0.00e+00	92	32	0	558891008	46	6605
2026-01-28 17:47:45.92	343.58	19.53	-37.7	-38.6	23.6	0.00e+00	0	32	0	566231040	46	6893
2026-01-28 17:47:49.96	342.60	19.62	-37.8	-38.7	23.5	0.00e+00	42	32	0	574619648	48	6218
2026-01-28 17:47:53.99	341.62	19.70	-37.8	-38.7	23.6	0.00e+00	40	32	0	581959680	48	6211
2026-01-28 17:47:58.03	340.63	19.77	-38.1	-39.0	23.2	0.00e+00	92	32	0	589299712	48	6463
2026-01-28 17:48:02.07	339.64	19.83	-38.4	-39.4	22.9	0.00e+00	0	32	0	596639744	48	6697
2026-01-28 17:48:06.11	338.64	19.88	-38.7	-39.8	22.5	0.00e+00	0	32	0	605028352	50	6256
2026-01-28 17:48:10.15	337.64	19.93	-38.1	-39.1	23.3	0.00e+00	2	32	0	612368384	50	5764
2026-01-28 17:48:14.19	336.64	19.96	-38.3	-39.3	23.0	0.00e+00	92	32	0	619708416	50	5912
2026-01-28 17:48:18.22	335.64	19.99	-38.3	-39.3	23.0	0.00e+00	0	32	0	627048448	50	5945
2026-01-28 17:48:22.26	334.63	20.00	-38.2	-39.2	23.1	0.00e+00	0	32	0	634388480	50	5872
2026-01-28 17:48:26.30	333.63	20.01	-38.3	-39.2	23.1	0.00e+00	0	32	0	642777088	50	5887
2026-01-28 17:48:30.33	332.62	20.01	-38.3	-39.3	23.0	0.00e+00	92	32	0	650117120	50	5916
2026-01-28 17:48:34.37	331.62	20.00	-38.2	-39.1	23.1	0.00e+00	2	32	0	657457152	50	5812
2026-01-28 17:48:38.41	330.61	19.97	-37.3	-38.2	24.0	0.00e+00	46	32	0	664797184	48	5847
2026-01-28 17:48:42.45	329.61	19.94	-37.7	-38.6	23.6	0.00e+00	0	32	0	673185792	48	6160
2026-01-28 17:48:46.48	328.61	19.90	-37.4	-38.3	23.9	0.00e+00	92	32	0	680525824	48	5929
2026-01-28 17:48:50.52	327.61	19.86	-36.9	-37.8	24.4	0.00e+00	41	32	0	687865856	48	5586
2026-01-28 17:48:54.55	326.62	19.80	-37.0	-37.8	24.4	0.00e+00	34	32	0	695205888	48	5611
2026-01-28 17:48:58.59	325.63	19.73	-36.7	-37.5	24.7	0.00e+00	20	32	0	702545920	46	6046
2026-01-28 17:49:02.63	324.64	19.66	-36.4	-37.2	24.9	0.00e+00	44	32	0	710934528	46	5836
2026-01-28 17:49:06.66	323.66	19.57	-36.3	-37.1	25.0	0.00e+00	6	32	0	718274560	46	5768
2026-01-28 17:49:10.70	322.69	19.48	-36.4	-37.2	24.9	0.00e+00	0	32	0	725614592	46	5845
2026-01-28 17:49:14.73	321.72	19.38	-36.6	-37.4	24.7	0.00e+00	92	32	0	732954624	46	6018
2026-01-28 17:49:18.77	320.76	19.27	-36.6	-37.4	24.9	0.00e+00	2	32	0	741343232	46	5973
2026-01-28 17:49:22.81	319.80	19.16	-36.8	-37.6	24.6	0.00e+00	0	32	0	748683264	46	6146
2026-01-28 17:49:26.85	318.85	19.03	-37.3	-38.2	24.0	0.00e+00	0	32	0	756023296	46	6578
2026-01-28 17:49:30.88	317.92	18.90	-37.5	-38.3	23.9	0.00e+00	92	32	0	763363328	46	6667
2026-01-28 17:49:34.91	316.99	18.76	-37.9	-38.8	23.5	0.00e+00	0	32	0	770703360	48	6248
2026-01-28 17:49:38.95	316.06	18.62	-38.0	-38.9	23.4	0.00e+00	5	32	0	779091968	48	6366
2026-01-28 17:49:42.99	315.15	18.46	-38.1	-39.0	23.3	0.00e+00	47	32	0	786432000	48	6455
2026-01-28 17:49:47.03	314.25	18.31	-38.0	-38.9	23.4	0.00e+00	92	32	0	793772032	48	6380
2026-01-28 17:49:51.06	313.35	18.14	-38.2	-39.1	22.9	0.00e+00	0	32	0	801112064	48	6505
2026-01-28 17:49:55.09	312.47	17.97	-38.1	-39.0	23.4	0.00e+00	0	32	0	809500672	48	6411
2026-01-28 17:49:59.13	311.60	17.79	-38.1	-39.0	23.3	0.00e+00	41	32	0	816840704	48	6444
2026-01-28 17:50:03.17	310.73	17.61	-37.8	-38.7	23.6	0.00e+00	90	32	0	824180736	48	6209
2026-01-28 17:50:07.21	309.88	17.42	-37.9	-38.8	23.5	0.00e+00	0	32	0	831520768	48	6312
2026-01-28 17:50:11.25	309.03	17.23	-38.2	-39.1	23.3	0.00e+00	0	32	0	838860800	48	6516
2026-01-28 17:50:15.28	308.20	17.03	-38.4	-39.3	23.1	0.00e+00	0	32	0	847249408	48	6673
2026-01-28 17:50:19.32	307.38	16.83	-38.5	-39.5	22.9	0.00e+00	0	32	0	854589440	48	6829
2026-01-28 17:50:23.36	306.57	16.63	-38.7	-39.7	22.8	0.00e+00	39	32	0	861929472	48	6956
2026-01-28 17:50:27.40	305.77	16.42	-38.3	-39.3	23.1	0.00e+00	0	32	0	869269504	48	6649
2026-01-28 17:50:31.43	304.99	16.20	-38.5	-39.4	23.0	0.00e+00	16	32	0	877658112	48	6749
2026-01-28 17:50:35.47	304.21	15.98	-38.7	-39.7	22.7	0.00e+00	7	32	0	884998144	48	6968
2026-01-28 17:50:39.51	303.45	15.76	-38.8	-39.8	22.7	0.00e+00	0	32	0	892338176	50	6255
2026-01-28 17:50:43.54	302.70	15.54	-38.9	-39.9	22.5	0.00e+00	50	32	0	899678208	50	6380
2026-01-28 17:50:47.58	301.95	15.31	-38.4	-39.3	23.1	0.00e+00	92	32	0	907018240	50	5930
2026-01-28 17:50:51.62	301.22	15.08	-39.0	-40.0	22.5	0.00e+00	0	32	0	915406848	50	6427
2026-01-28 17:50:55.66	300.50	14.85	-39.2	-40.2	22.3	0.00e+00	0	32	0	922746880	50	6595
2026-01-28 17:50:59.70	299.80	14.62	-39.4	-40.5	22.0	0.00e+00	0	32	0	930086912	50	6791
2026-01-28 17:51:03.73	299.10	14.38	-39.3	-40.3	22.1	0.00e+00	91	32	0	937426944	50	6670
2026-01-28 17:51:07.77	298.42	14.14	-39.1	-40.1	22.3	0.00e+00	0	32	0	945815552	50	6511
2026-01-28 17:51:11.81	297.74	13.90	-39.4	-40.4	22.1	0.00e+00	2	32	0	953155584	50	6753
2026-01-28 17:51:15.85	297.08	13.66	-39.5	-40.6	21.7	0.00e+00	0	32	0	960495616	50	6908
2026-01-28 17:51:19.88	296.43	13.42	-38.9	-40.0	22.5	0.00e+00	90	32	0	967835648	50	6400
2026-01-28 17:51:23.91	295.79	13.18	-38.8	-39.8	22.6	0.00e+00	0	32	0	975175680	50	6263
2026-01-28 17:51:27.94	295.16	12.93	-38.7	-39.7	22.7	0.00e+00	45	32	0	983564288	50	6183
2026-01-28 17:51:31.98	294.54	12.69	-38.6	-39.6	22.8	0.00e+00	43	32	0	990904320	50	6137
2026-01-28 17:51:36.02	293.93	12.44	-38.5	-39.5	22.8	0.00e+00	90	32	0	998244352	50	6048
2026-01-28 17:51:40.05	293.33	12.19	-38.2	-39.2	23.1	0.00e+00	2	32	0	1005584384	50	5848
2026-01-28 17:51:44.09	292.74	11.95	-38.0	-38.9	23.3	0.00e+00	39	32	0	1012924416	50	5686
2026-01-28 17:51:48.13	292.16	11.70	-37.7	-38.6	23.6	0.00e+00	45	32	0	1021313024	48	6146
2026-01-28 17:51:52.16	291.59	11.45	-37.8	-38.7	23.5	0.00e+00	90	32	0	1028653056	48	6220
2026-01-28 17:51:56.20	291.03	11.20	-37.5	-38.4	23.4	0.00e+00	43	32	0	1035993088	48	6017
2026-01-28 17:52:00.24	290.48	10.95	-37.6	-38.5	23.6	0.00e+00	0	32	0	1043333120	48	6035
2026-01-28 17:52:04.27	289.94	10.70	-37.6	-38.5	23.7	0.00e+00	0	32	0	1051721728	48	6063
2026-01-28 17:52:08.31	289.41	10.46	-37.7	-38.6	23.5	0.00e+00	92	32	0	1059061760	48	6133
2026-01-28 17:52:12.35	288.88	10.21	-37.7	-38.7	23.6	0.00e+00	30	32	0	1066401792	48	6177
2026-01-28 17:52:16.39	288.37	9.96	-38.1	-39.1	23.0	0.00e+00	44	32	0	1073741824	48	6502
2026-01-28 17:52:20.42	287.87	9.71	-38.4	-39.4	22.8	0.00e+00	74	32	0	1081081856	48	6721
2026-01-28 17:52:24.46	287.37	9.46	-38.2	-39.1	23.0	0.00e+00	77	32	0	1089470464	48	6539
2026-01-28 17:52:28.50	286.88	9.21	-37.9	-38.9	23.1	0.00e+00	34	32	0	1096810496	48	6321
2026-01-28 17:52:32.53	286.41	8.97	-38.2	-39.1	23.0	0.00e+00	56	32	0	1104150528	48	6511
2026-01-28 17:52:36.56	285.94	8.72	-38.5	-39.4	22.6	0.00e+00	29	32	0	1111490560	48	6767
2026-01-28 17:52:40.60	285.47	8.48	-39.0	-40.0	22.2	0.00e+00	65	32	0	1118830592	50	6454
2026-01-28 17:52:44.63	285.02	8.23	-39.1	-40.2	21.9	0.00e+00	0	32	0	1127219200	50	6596
2026-01-28 17:52:48.67	284.57	7.99	-39.1	-40.1	22.0	0.00e+00	0	32	0	1134559232	50	6519
2026-01-28 17:52:52.71	284.13	7.74	-39.5	-40.6	21.4	0.00e+00	92	32	0	1141899264	50	6910
2026-01-28 17:52:56.75	283.70	7.50	-39.5	-40.7	21.4	0.00e+00	47	32	0	1149239296	50	6951
2026-01-28 17:53:00.78	283.27	7.26	-39.6	-40.8	21.4	0.00e+00	0	32	0	1157627904	52	6252
2026-01-28 17:53:04.81	282.86	7.02	-39.9	-41.1	21.0	0.00e+00	52	32	0	1164967936	52	6520
2026-01-28 17:53:08.84	282.45	6.78	-40.0	-41.2	20.9	0.00e+00	92	32	0	1172307968	52	6551
2026-01-28 17:53:12.88	282.04	6.54	-40.1	-41.3	20.8	0.00e+00	0	32	0	1179648000	52	6656
2026-01-28 17:53:16.91	281.65	6.30	-40.1	-41.3	20.6	0.00e+00	0	32	0	1186988032	52	6687
2026-01-28 17:53:20.95	281.26	6.06	-40.8	-42.2	20.0	0.00e+00	49	32	0	1195376640	54	6551
2026-01-28 17:53:24.99	280.87	5.82	-40.6	-42.0	19.9	0.00e+00	90	32	0	1202716672	54	6409
2026-01-28 17:53:29.03	280.50	5.59	-41.2	-42.8	19.2	0.00e+00	0	32	0	1210056704	54	7019
2026-01-28 17:53:33.06	280.13	5.35	-41.3	-42.8	19.1	0.00e+00	0	32	0	1217396736	54	7078
2026-01-28 17:53:37.11	279.76	5.12	-41.2	-42.7	19.3	0.00e+00	18	32	0	1224736768	54	6966
2026-01-28 17:53:41.14	279.40	4.88	-41.2	-42.7	19.3	0.00e+00	92	32	0	1233125376	54	6949
2026-01-28 17:53:45.18	279.05	4.65	-41.3	-42.8	18.9	0.00e+00	0	32	0	1240465408	56	6294
2026-01-28 17:53:49.22	278.70	4.42	-41.4	-43.0	18.9	0.00e+00	0	32	0	1247805440	56	6433
2026-01-28 17:53:53.25	278.36	4.19	-41.5	-43.2	18.7	0.00e+00	2	32	0	1255145472	56	6544
2026-01-28 17:53:57.29	278.02	3.96	-41.7	-43.4	18.3	0.00e+00	90	32	0	1263534080	56	6724
2026-01-28 17:54:01.31	277.69	3.73	-42.1	-43.9	17.9	0.00e+00	29	32	0	1270874112	56	7129
2026-01-28 17:54:05.35	277.37	3.51	-41.7	-43.5	18.2	0.00e+00	25	32	0	1278214144	56	6780
2026-01-28 17:54:09.39	277.05	3.28	-41.4	-43.0	18.3	0.00e+00	84	32	0	1285554176	56	6457
2026-01-28 17:54:13.42	276.73	3.06	-42.6	-44.8	16.8	0.00e+00	90	32	0	1292894208	56	7878
2026-01-28 17:54:17.46	276.42	2.83	-48.6	-63.7	3.6	1.51e+00	0	33	104	1294991360	60	55336
2026-01-28 17:54:21.50	276.11	2.61	-48.9	-64.0	3.6	1.51e+00	0	32	104	1294991360	60	57549
2026-01-28 17:54:25.55	275.81	2.39	-48.9	-64.1	3.6	1.51e+00	0	33	104	1294991360	60	57776
2026-01-28 17:54:29.59	275.52	2.16	-48.8	-64.1	3.6	1.51e+00	0	33	104	1294991360	60	57714
2026-01-28 17:54:33.63	275.22	1.94	-48.7	-64.0	3.6	1.51e+00	0	33	104	1294991360	60	57344
2026-01-28 17:54:37.67	274.94	1.72	-48.6	-63.9	3.6	1.51e+00	0	33	104	1294991360	60	56694
2026-01-28 17:54:41.70	274.65	1.51	-48.8	-64.0	3.6	1.51e+00	0	33	104	1294991360	60	57266
2026-01-28 17:54:45.74	274.38	1.29	-48.8	-63.9	3.6	1.51e+00	0	33	104	1294991360	60	56899
2026-01-28 17:54:49.78	274.10	1.07	-48.8	-63.9	3.6	1.51e+00	0	33	104	1294991360	60	56819
2026-01-28 17:54:53.82	273.83	0.86	-48.8	-63.9	3.6	1.51e+00	0	33	104	1294991360	60	56920
2026-01-28 17:54:57.86	273.56	0.64	-48.7	-64.0	3.6	1.51e+00	0	33	104	1294991360	60	56992
2026-01-28 17:55:01.90	273.30	0.43	-48.7	-63.9	3.6	1.51e+00	0	33	104	1294991360	60	56714
2026-01-28 17:55:05.94	273.04	0.22	-48.8	-63.9	3.6	1.51e+00	0	33	104	1294991360	60	56677
2026-01-28 17:55:09.98	272.79	0.01	-48.7	-63.9	3.6	1.51e+00	0	33	104	1294991360	60	56686

#Closed at: 2026-01-28 17:55:12
#Recorded file [1294 MB]: D:/lorett/data/35029_260129_054146.dat