passes_logs/2026/01/28/R4.6S_Anadyr/R4.6S_Anadyr__20260128_151130_NOAA_21_JPSS-2_rec.log

#Pass ID: 20260128_151130_NOAA 21 (JPSS-2)
#Satellite: NOAA 21 (JPSS-2)
#Configuration: NOAA-21
#almurnet v.1.7.20251203
#Start time: 2026-01-28 15:11:32

#Version: 2.2.20231116
#Station: R4.6S_Anadyr
#Location: 177.4865 lon 64.73178 lat
#TLE: 1 54234U 22150A   26027.77052245  .00000166  00000+0  99439-4 0  9997
#TLE: 2 54234  98.7510 328.5165 0000872 203.6403 156.4733 14.19540252166628

#Time	Az	El	Level	Level2	SNR	BER	BlckErr	Temp	State	Recorded	gain1	gain2
2026-01-28 15:11:32.04	21.58	0.09	-48.7	-63.7	3.5	1.51e+00	0	30	0	0	60	55156
2026-01-28 15:11:36.08	21.54	0.33	-48.8	-61.7	3.5	1.52e+00	0	31	104	0	60	42628
2026-01-28 15:11:40.11	21.51	0.58	-48.9	-61.7	3.5	1.52e+00	0	31	104	0	60	42915
2026-01-28 15:11:44.15	21.47	0.82	-48.8	-61.7	3.5	1.52e+00	0	31	104	0	60	42696
2026-01-28 15:11:48.20	21.43	1.07	-48.7	-61.5	3.5	1.52e+00	0	32	104	0	60	41916
2026-01-28 15:11:52.23	21.40	1.32	-48.2	-61.1	3.5	1.52e+00	0	32	104	0	60	40051
2026-01-28 15:11:56.27	21.36	1.57	-47.6	-60.5	3.5	1.52e+00	0	32	104	0	60	37110
2026-01-28 15:12:00.31	21.31	1.82	-47.5	-59.9	3.5	1.52e+00	0	32	104	0	60	34790
2026-01-28 15:12:04.35	21.27	2.08	-47.5	-60.3	3.5	1.52e+00	0	32	104	0	60	36189
2026-01-28 15:12:08.39	21.23	2.34	-47.5	-60.2	3.5	1.52e+00	0	32	104	0	60	35822
2026-01-28 15:12:12.44	21.19	2.60	-47.3	-58.3	3.5	1.51e+00	0	32	104	0	60	28860
2026-01-28 15:12:16.48	21.14	2.86	-47.3	-58.5	3.5	1.51e+00	0	32	104	0	60	29579
2026-01-28 15:12:20.52	21.10	3.13	-46.6	-52.6	6.3	2.78e-01	4	32	0	1048576	60	15057
2026-01-28 15:12:24.56	21.05	3.40	-42.3	-44.4	15.3	2.20e-06	4	32	0	13631488	58	6550
2026-01-28 15:12:28.60	21.00	3.67	-40.8	-42.5	16.7	0.00e+00	2	32	0	26214400	54	6609
2026-01-28 15:12:32.64	20.95	3.94	-43.3	-46.3	11.5	3.56e-04	0	32	104	33554432	54	10259
2026-01-28 15:12:36.68	20.90	4.22	-38.6	-40.2	19.4	0.00e+00	2	32	104	33554432	50	6355
2026-01-28 15:12:40.72	20.85	4.50	-37.4	-38.6	20.9	0.00e+00	3	32	0	46137344	48	5928
2026-01-28 15:12:44.76	20.79	4.78	-37.5	-38.6	21.0	0.00e+00	2	32	0	58720256	48	5944
2026-01-28 15:12:48.79	20.74	5.07	-37.1	-38.2	21.3	0.00e+00	5	32	0	70254592	48	5671
2026-01-28 15:12:52.83	20.68	5.35	-37.3	-38.4	21.1	0.00e+00	0	32	0	83886080	48	5841
2026-01-28 15:12:56.87	20.62	5.65	-37.1	-38.1	21.3	0.00e+00	4	32	0	96468992	48	5658
2026-01-28 15:13:00.91	20.57	5.94	-37.1	-38.2	21.3	0.00e+00	1	32	0	109051904	48	5697
2026-01-28 15:13:04.95	20.50	6.24	-36.9	-37.9	21.6	0.00e+00	0	32	0	121634816	46	6187
2026-01-28 15:13:08.98	20.44	6.54	-36.9	-37.9	21.7	0.00e+00	0	32	0	134217728	46	6188
2026-01-28 15:13:13.02	20.38	6.84	-36.4	-37.4	22.1	0.00e+00	0	32	0	146800640	46	5812
2026-01-28 15:13:17.06	20.31	7.15	-36.4	-37.5	22.1	0.00e+00	4	32	0	159383552	46	5861
2026-01-28 15:13:21.10	20.24	7.46	-36.5	-37.5	22.1	0.00e+00	0	32	0	171966464	46	5894
2026-01-28 15:13:25.14	20.17	7.78	-36.1	-37.1	22.4	0.00e+00	3	32	0	184549376	46	5618
2026-01-28 15:13:29.18	20.10	8.10	-36.4	-37.4	22.2	0.00e+00	0	32	0	197132288	46	5856
2026-01-28 15:13:33.22	20.03	8.42	-36.2	-37.2	22.4	0.00e+00	1	32	0	209715200	46	5698
2026-01-28 15:13:37.25	19.95	8.75	-35.9	-37.0	22.7	0.00e+00	0	32	0	222298112	46	5531
2026-01-28 15:13:41.30	19.88	9.08	-36.0	-37.0	22.6	0.00e+00	0	32	0	234881024	46	5590
2026-01-28 15:13:45.33	19.80	9.42	-36.1	-37.1	22.6	0.00e+00	4	32	0	247463936	46	5613
2026-01-28 15:13:49.37	19.71	9.76	-35.7	-36.6	22.9	0.00e+00	3	32	0	260046848	44	5985
2026-01-28 15:13:53.41	19.63	10.11	-35.9	-36.9	22.7	0.00e+00	0	32	0	272629760	44	6171
2026-01-28 15:13:57.44	19.54	10.46	-35.4	-36.4	23.2	0.00e+00	2	32	0	285212672	44	5812
2026-01-28 15:14:01.49	19.45	10.81	-35.2	-36.2	23.3	0.00e+00	2	32	0	297795584	44	5689
2026-01-28 15:14:05.52	19.36	11.17	-35.1	-36.1	23.6	0.00e+00	2	32	0	310378496	44	5605
2026-01-28 15:14:09.56	19.27	11.54	-35.0	-35.9	23.6	0.00e+00	2	32	0	322961408	44	5527
2026-01-28 15:14:13.60	19.17	11.91	-34.9	-35.9	23.6	0.00e+00	0	32	0	335544320	44	5483
2026-01-28 15:14:17.64	19.07	12.29	-34.7	-35.6	23.9	0.00e+00	1	32	0	348127232	42	5972
2026-01-28 15:14:21.68	18.96	12.67	-34.7	-35.6	24.0	0.00e+00	1	33	0	360710144	42	5981
2026-01-28 15:14:25.72	18.86	13.06	-34.7	-35.6	24.0	0.00e+00	5	33	0	373293056	42	5941
2026-01-28 15:14:29.76	18.75	13.46	-34.7	-35.6	24.1	0.00e+00	3	32	0	386924544	42	5945
2026-01-28 15:14:33.81	18.63	13.86	-34.9	-35.9	23.7	0.00e+00	0	33	0	399507456	42	6144
2026-01-28 15:14:37.84	18.52	14.27	-34.7	-35.6	24.0	0.00e+00	1	32	0	412090368	42	5963
2026-01-28 15:14:41.88	18.39	14.68	-34.7	-35.7	24.0	0.00e+00	1	33	0	424673280	42	6000
2026-01-28 15:14:45.92	18.27	15.10	-34.6	-35.5	24.0	0.00e+00	2	33	0	437256192	42	5896
2026-01-28 15:14:49.96	18.14	15.53	-34.7	-35.6	24.0	0.00e+00	1	33	0	449839104	42	5967
2026-01-28 15:14:54.00	18.01	15.97	-34.7	-35.6	24.0	0.00e+00	4	33	0	462422016	42	5950
2026-01-28 15:14:58.04	17.87	16.42	-34.6	-35.5	24.1	0.00e+00	3	33	0	475004928	42	5903
2026-01-28 15:15:02.07	17.73	16.87	-34.7	-35.6	24.0	0.00e+00	2	33	0	487587840	42	5966
2026-01-28 15:15:06.12	17.58	17.33	-34.7	-35.6	24.1	0.00e+00	1	33	0	500170752	42	5968
2026-01-28 15:15:10.16	17.43	17.80	-34.5	-35.4	24.3	0.00e+00	0	33	0	512753664	42	5818
2026-01-28 15:15:14.19	17.27	18.28	-34.6	-35.5	24.2	0.00e+00	2	33	0	525336576	42	5872
2026-01-28 15:15:18.23	17.11	18.76	-34.6	-35.5	24.2	0.00e+00	1	33	0	537919488	42	5894
2026-01-28 15:15:22.27	16.94	19.26	-34.4	-35.3	24.3	0.00e+00	0	33	0	550502400	42	5773
2026-01-28 15:15:26.31	16.76	19.77	-34.4	-35.3	24.2	0.00e+00	0	33	0	563085312	42	5755
2026-01-28 15:15:30.35	16.58	20.29	-34.3	-35.2	24.4	0.00e+00	3	33	0	575668224	42	5666
2026-01-28 15:15:34.39	16.39	20.82	-34.2	-35.1	24.4	0.00e+00	4	33	0	588251136	42	5596
2026-01-28 15:15:38.43	16.19	21.36	-34.0	-34.9	24.6	0.00e+00	3	33	0	600834048	42	5508
2026-01-28 15:15:42.47	15.99	21.91	-33.7	-34.6	24.8	0.00e+00	0	33	0	613416960	40	5938
2026-01-28 15:15:46.51	15.78	22.47	-33.2	-34.1	25.1	0.00e+00	2	33	0	625999872	40	5635
2026-01-28 15:15:50.54	15.56	23.04	-33.1	-34.0	25.3	0.00e+00	2	33	0	638582784	40	5547
2026-01-28 15:15:54.59	15.33	23.63	-32.9	-33.8	25.5	0.00e+00	5	33	0	651165696	40	5431
2026-01-28 15:15:58.62	15.09	24.23	-33.2	-34.1	25.3	0.00e+00	0	33	0	663748608	40	5604
2026-01-28 15:16:02.66	14.84	24.84	-33.1	-33.9	25.3	0.00e+00	2	33	0	676331520	40	5530
2026-01-28 15:16:06.69	14.58	25.47	-33.5	-34.3	25.2	0.00e+00	3	33	0	688914432	40	5773
2026-01-28 15:16:10.73	14.31	26.11	-33.7	-34.5	25.0	0.00e+00	3	33	0	701497344	40	5912
2026-01-28 15:16:14.77	14.03	26.77	-33.9	-34.8	24.8	0.00e+00	0	33	0	714080256	40	6076
2026-01-28 15:16:18.81	13.74	27.44	-34.1	-35.0	24.7	0.00e+00	1	33	0	727711744	40	6251
2026-01-28 15:16:22.85	13.43	28.13	-34.1	-35.0	24.7	0.00e+00	2	33	0	739246080	40	6206
2026-01-28 15:16:26.89	13.10	28.83	-34.2	-35.0	24.5	0.00e+00	3	33	0	752877568	40	6273
2026-01-28 15:16:30.93	12.77	29.56	-34.3	-35.2	24.3	0.00e+00	0	33	0	765460480	40	6419
2026-01-28 15:16:34.96	12.41	30.29	-34.1	-35.0	24.5	0.00e+00	0	33	0	778043392	40	6217
2026-01-28 15:16:39.00	12.04	31.05	-33.9	-34.8	24.8	0.00e+00	0	33	0	790626304	40	6067
2026-01-28 15:16:43.04	11.65	31.83	-34.1	-35.0	24.4	0.00e+00	0	33	0	803209216	40	6215
2026-01-28 15:16:47.08	11.24	32.62	-34.3	-35.2	24.3	0.00e+00	2	33	0	815792128	40	6397
2026-01-28 15:16:51.12	10.81	33.44	-34.7	-35.6	24.2	0.00e+00	0	33	0	828375040	42	5962
2026-01-28 15:16:55.15	10.35	34.27	-35.0	-35.9	24.0	0.00e+00	0	33	0	840957952	42	6169
2026-01-28 15:16:59.18	9.87	35.13	-35.5	-36.4	23.6	0.00e+00	0	33	0	853540864	42	6536
2026-01-28 15:17:03.22	9.36	36.01	-36.0	-36.9	23.1	0.00e+00	2	33	0	866123776	44	6203
2026-01-28 15:17:07.26	8.82	36.91	-36.7	-37.7	22.5	0.00e+00	0	33	0	878706688	44	6766
2026-01-28 15:17:11.31	8.25	37.83	-36.3	-37.2	22.9	0.00e+00	1	33	0	891289600	44	6421
2026-01-28 15:17:15.34	7.65	38.77	-36.1	-37.1	22.9	0.00e+00	0	33	0	903872512	44	6308
2026-01-28 15:17:19.38	7.01	39.74	-36.4	-37.5	22.7	0.00e+00	0	33	0	916455424	44	6577
2026-01-28 15:17:23.41	6.33	40.73	-36.0	-37.0	23.3	0.00e+00	2	33	0	929038336	44	6256
2026-01-28 15:17:27.46	5.60	41.75	-35.6	-36.5	23.7	0.00e+00	0	33	0	941621248	44	5879
2026-01-28 15:17:31.50	4.83	42.78	-36.2	-37.2	22.6	0.00e+00	4	33	0	954204160	44	6385
2026-01-28 15:17:35.53	4.00	43.84	-36.6	-37.6	22.7	0.00e+00	2	33	0	966787072	44	6650
2026-01-28 15:17:39.57	3.11	44.92	-37.1	-38.1	22.3	0.00e+00	2	33	0	979369984	46	6334
2026-01-28 15:17:43.61	2.16	46.03	-36.9	-37.9	22.3	0.00e+00	2	33	0	991952896	46	6187
2026-01-28 15:17:47.65	1.14	47.15	-36.7	-37.7	22.7	0.00e+00	2	33	0	1004535808	46	6002
2026-01-28 15:17:51.69	0.04	48.30	-36.1	-37.1	23.1	0.00e+00	1	33	0	1017118720	46	5625
2026-01-28 15:17:55.73	358.85	49.46	-36.3	-37.2	23.0	0.00e+00	0	33	0	1029701632	46	5717
2026-01-28 15:17:59.77	357.57	50.64	-36.3	-37.2	22.8	0.00e+00	2	33	0	1042284544	46	5719
2026-01-28 15:18:03.74	356.21	51.81	-35.7	-36.7	23.2	0.00e+00	3	33	0	1054867456	44	6025
2026-01-28 15:18:07.79	354.70	53.02	-35.8	-36.8	23.4	0.00e+00	0	33	0	1067450368	44	6096
2026-01-28 15:18:11.83	353.06	54.23	-35.5	-36.5	23.5	0.00e+00	2	33	0	1080033280	44	5910
2026-01-28 15:18:15.87	351.28	55.44	-34.8	-35.8	24.2	0.00e+00	2	33	0	1092616192	44	5405
2026-01-28 15:18:19.91	349.34	56.65	-34.8	-35.7	24.3	0.00e+00	0	33	0	1105199104	42	6017
2026-01-28 15:18:23.95	347.22	57.85	-33.7	-34.6	24.2	0.00e+00	0	33	0	1117782016	40	5956
2026-01-28 15:18:27.99	344.90	59.04	-33.6	-34.5	24.4	0.00e+00	1	33	0	1130364928	40	5921
2026-01-28 15:18:32.03	342.36	60.20	-33.4	-34.2	25.1	0.00e+00	2	33	0	1142947840	40	5710
2026-01-28 15:18:36.06	339.59	61.32	-33.3	-34.1	25.3	0.00e+00	2	33	0	1156579328	40	5649
2026-01-28 15:18:40.10	336.56	62.40	-32.4	-33.2	25.8	0.00e+00	2	33	0	1169162240	38	5708
2026-01-28 15:18:44.14	333.25	63.42	-32.9	-33.8	25.4	0.00e+00	2	33	0	1181745152	38	6100
2026-01-28 15:18:48.18	329.65	64.37	-33.4	-34.2	25.2	0.00e+00	0	33	0	1194328064	38	6405
2026-01-28 15:18:52.22	325.75	65.24	-32.7	-33.6	25.6	0.00e+00	0	33	0	1206910976	38	5964
2026-01-28 15:18:56.26	321.55	65.99	-33.3	-34.1	25.1	0.00e+00	4	33	0	1219493888	38	6346
2026-01-28 15:19:00.31	317.07	66.63	-33.1	-34.0	25.3	0.00e+00	0	33	0	1232076800	38	6222
2026-01-28 15:19:04.35	312.35	67.14	-32.6	-33.4	25.6	0.00e+00	4	33	0	1244659712	38	5854
2026-01-28 15:19:08.38	307.44	67.50	-32.6	-33.4	25.8	0.00e+00	0	33	0	1257242624	38	5813
2026-01-28 15:19:12.43	302.36	67.70	-32.7	-33.5	25.8	0.00e+00	2	33	0	1269825536	38	5879
2026-01-28 15:19:16.47	297.25	67.74	-32.8	-33.7	25.6	0.00e+00	0	33	0	1282408448	38	6023
2026-01-28 15:19:20.51	292.15	67.61	-33.3	-34.1	25.3	0.00e+00	2	33	0	1294991360	40	5646
2026-01-28 15:19:24.54	287.16	67.33	-32.7	-33.5	25.4	0.00e+00	0	33	0	1307574272	38	5917
2026-01-28 15:19:28.58	282.34	66.89	-32.8	-33.6	25.7	0.00e+00	0	33	0	1320157184	38	5947
2026-01-28 15:19:32.62	277.74	66.31	-33.2	-34.1	25.3	0.00e+00	0	33	0	1332740096	38	6295
2026-01-28 15:19:36.66	273.40	65.61	-33.0	-33.8	25.5	0.00e+00	2	33	0	1345323008	38	6118
2026-01-28 15:19:40.71	269.35	64.79	-33.9	-34.8	24.8	0.00e+00	2	33	0	1357905920	40	6091
2026-01-28 15:19:44.75	265.60	63.88	-34.3	-35.2	24.6	0.00e+00	1	33	0	1370488832	40	6398
2026-01-28 15:19:48.79	262.15	62.89	-33.0	-33.8	25.5	0.00e+00	0	33	0	1383071744	40	5446
2026-01-28 15:19:52.83	258.99	61.83	-34.3	-35.2	24.6	0.00e+00	2	33	0	1395654656	40	6386
2026-01-28 15:19:56.87	256.09	60.72	-33.8	-34.7	24.9	0.00e+00	5	33	0	1408237568	40	6018
2026-01-28 15:20:00.91	253.44	59.57	-33.2	-34.0	24.6	0.00e+00	0	33	0	1420820480	40	5593
2026-01-28 15:20:04.94	251.02	58.40	-34.0	-34.8	24.7	0.00e+00	3	33	0	1433403392	40	6115
2026-01-28 15:20:08.98	248.81	57.20	-34.8	-35.7	24.2	0.00e+00	2	33	0	1445986304	42	6011
2026-01-28 15:20:13.02	246.78	55.99	-34.4	-35.2	24.5	0.00e+00	0	33	0	1458569216	40	6421
2026-01-28 15:20:17.06	244.92	54.77	-33.7	-34.6	24.2	0.00e+00	1	33	0	1472200704	42	5295
2026-01-28 15:20:21.09	243.22	53.56	-35.6	-36.6	23.4	0.00e+00	2	33	0	1483735040	42	6696
2026-01-28 15:20:25.13	241.66	52.35	-36.3	-37.3	22.8	0.00e+00	4	33	0	1497366528	44	6493
2026-01-28 15:20:29.17	240.21	51.14	-34.3	-35.2	24.3	0.00e+00	1	33	0	1509949440	42	5672
2026-01-28 15:20:33.21	238.88	49.95	-35.6	-36.5	23.3	0.00e+00	2	33	0	1522532352	44	5884
2026-01-28 15:20:37.24	237.65	48.78	-35.5	-36.5	22.6	0.00e+00	2	33	0	1535115264	44	5892
2026-01-28 15:20:41.28	236.51	47.63	-36.8	-37.9	22.3	0.00e+00	5	33	0	1547698176	44	6888
2026-01-28 15:20:45.32	235.45	46.49	-37.2	-38.2	22.4	0.00e+00	0	33	0	1560281088	48	5694
2026-01-28 15:20:49.35	234.47	45.37	-35.6	-36.5	23.6	0.00e+00	2	33	0	1572864000	44	5892
2026-01-28 15:20:53.39	233.55	44.28	-35.8	-36.7	23.5	0.00e+00	1	33	0	1585446912	44	6029
2026-01-28 15:20:57.42	232.70	43.21	-37.2	-38.3	21.9	0.00e+00	2	33	0	1598029824	46	6458
2026-01-28 15:21:01.46	231.90	42.16	-36.5	-37.4	22.9	0.00e+00	3	33	0	1610612736	46	5855
2026-01-28 15:21:05.50	231.15	41.13	-36.0	-37.0	22.9	0.00e+00	3	33	0	1623195648	44	6274
2026-01-28 15:21:09.54	230.44	40.12	-36.1	-37.2	22.8	0.00e+00	4	33	0	1635778560	44	6361
2026-01-28 15:21:13.58	229.78	39.14	-36.8	-37.9	22.5	0.00e+00	0	33	0	1648361472	44	6888
2026-01-28 15:21:17.62	229.16	38.18	-36.3	-37.3	22.9	0.00e+00	0	33	0	1660944384	46	5764
2026-01-28 15:21:21.65	228.58	37.25	-36.3	-37.3	22.9	0.00e+00	3	33	0	1673527296	46	5784
2026-01-28 15:21:25.69	228.02	36.34	-36.3	-37.3	22.7	0.00e+00	6	33	0	1686110208	46	5783
2026-01-28 15:21:29.73	227.50	35.45	-36.0	-37.0	22.9	0.00e+00	0	33	0	1698693120	46	5544
2026-01-28 15:21:33.77	227.00	34.58	-35.6	-36.6	23.7	0.00e+00	2	33	0	1711276032	44	5935
2026-01-28 15:21:37.80	226.54	33.73	-35.3	-36.3	23.6	0.00e+00	2	33	0	1723858944	44	5761
2026-01-28 15:21:41.84	226.09	32.90	-35.8	-36.8	23.2	0.00e+00	2	33	0	1736441856	44	6091
2026-01-28 15:21:45.88	225.67	32.09	-35.0	-36.0	23.7	0.00e+00	0	33	0	1749024768	44	5547
2026-01-28 15:21:49.91	225.27	31.31	-34.6	-35.5	23.8	0.00e+00	2	33	0	1761607680	42	5915
2026-01-28 15:21:53.95	224.89	30.54	-34.5	-35.4	24.3	0.00e+00	2	33	0	1774190592	42	5802
2026-01-28 15:21:57.99	224.52	29.79	-34.0	-34.8	24.8	0.00e+00	0	33	0	1786773504	42	5463
2026-01-28 15:22:02.03	224.17	29.06	-33.8	-34.7	25.0	0.00e+00	0	33	0	1799356416	42	5376
2026-01-28 15:22:06.06	223.84	28.34	-34.3	-35.2	24.7	0.00e+00	2	33	0	1811939328	42	5690
2026-01-28 15:22:10.10	223.53	27.64	-34.4	-35.3	24.6	0.00e+00	2	33	0	1824522240	42	5777
2026-01-28 15:22:14.13	223.22	26.96	-34.4	-35.3	24.4	0.00e+00	2	33	0	1837105152	42	5734
2026-01-28 15:22:18.17	222.93	26.30	-34.1	-35.0	24.4	0.00e+00	3	33	0	1849688064	42	5579
2026-01-28 15:22:22.20	222.66	25.65	-33.8	-34.7	24.8	0.00e+00	1	33	0	1863319552	42	5388
2026-01-28 15:22:26.24	222.39	25.01	-33.5	-34.4	25.2	0.00e+00	2	33	0	1874853888	40	5821
2026-01-28 15:22:30.28	222.13	24.39	-33.7	-34.5	24.9	0.00e+00	2	33	0	1888485376	40	5917
2026-01-28 15:22:34.32	221.89	23.78	-34.1	-34.9	24.7	0.00e+00	4	33	0	1901068288	40	6192
2026-01-28 15:22:38.36	221.65	23.19	-33.8	-34.7	24.9	0.00e+00	2	33	0	1913651200	40	5997
2026-01-28 15:22:42.40	221.43	22.61	-33.8	-34.7	24.9	0.00e+00	2	33	0	1926234112	40	6039
2026-01-28 15:22:46.43	221.21	22.04	-33.9	-34.7	24.8	0.00e+00	1	33	0	1938817024	40	6060
2026-01-28 15:22:50.47	221.00	21.48	-34.1	-35.0	24.7	0.00e+00	3	33	0	1951399936	40	6224
2026-01-28 15:22:54.51	220.80	20.93	-34.0	-34.9	24.8	0.00e+00	2	33	0	1963982848	40	6139
2026-01-28 15:22:58.55	220.61	20.40	-33.9	-34.8	24.8	0.00e+00	2	33	0	1976565760	40	6094
2026-01-28 15:23:02.58	220.42	19.88	-34.0	-34.9	24.8	0.00e+00	4	33	0	1989148672	40	6165
2026-01-28 15:23:06.62	220.24	19.36	-34.2	-35.1	24.5	0.00e+00	4	33	0	2001731584	40	6343
2026-01-28 15:23:10.66	220.06	18.86	-34.5	-35.4	24.4	0.00e+00	1	33	0	2014314496	40	6516
2026-01-28 15:23:14.69	219.90	18.37	-34.7	-35.7	24.2	0.00e+00	2	33	0	2026897408	40	6731
2026-01-28 15:23:18.73	219.73	17.88	-34.8	-35.7	24.1	0.00e+00	2	33	0	2039480320	42	6008
2026-01-28 15:23:22.76	219.58	17.41	-34.7	-35.6	24.1	0.00e+00	3	33	0	2052063232	42	5958
2026-01-28 15:23:26.80	219.42	16.94	-34.8	-35.7	24.0	0.00e+00	3	33	0	2064646144	42	6056
2026-01-28 15:23:30.84	219.28	16.48	-35.1	-36.0	23.7	0.00e+00	2	33	0	2077229056	42	6270
2026-01-28 15:23:34.88	219.13	16.03	-35.3	-36.3	23.5	0.00e+00	0	33	0	2089811968	42	6441
2026-01-28 15:23:38.92	219.00	15.59	-35.4	-36.4	23.4	0.00e+00	1	33	0	2102394880	42	6520
2026-01-28 15:23:42.96	218.86	15.16	-35.4	-36.3	23.5	0.00e+00	0	33	0	2114977792	42	6475
2026-01-28 15:23:47.00	218.73	14.73	-35.2	-36.2	23.6	0.00e+00	2	33	0	2127560704	42	6360
2026-01-28 15:23:51.04	218.61	14.31	-35.1	-36.1	23.6	0.00e+00	0	33	0	2140143616	42	6280
2026-01-28 15:23:55.08	218.49	13.90	-35.2	-36.1	23.5	0.00e+00	2	33	0	2152726528	42	6350
2026-01-28 15:23:59.12	218.37	13.49	-35.4	-36.3	23.4	0.00e+00	2	33	0	2165309440	42	6456
2026-01-28 15:24:03.15	218.25	13.10	-35.3	-36.2	23.6	0.00e+00	2	33	0	2177892352	42	6401
2026-01-28 15:24:07.19	218.14	12.70	-35.3	-36.3	23.6	0.00e+00	0	33	0	2190475264	42	6436
2026-01-28 15:24:11.23	218.04	12.32	-35.2	-36.1	23.5	0.00e+00	0	33	0	2203058176	42	6337
2026-01-28 15:24:15.27	217.93	11.94	-35.4	-36.3	23.5	0.00e+00	0	33	0	2215641088	42	6452
2026-01-28 15:24:19.31	217.83	11.56	-35.5	-36.4	23.4	0.00e+00	2	33	0	2229272576	42	6542
2026-01-28 15:24:23.35	217.73	11.19	-35.4	-36.3	23.4	0.00e+00	0	33	0	2240806912	42	6471
2026-01-28 15:24:27.39	217.63	10.83	-35.6	-36.5	23.3	0.00e+00	2	33	0	2253389824	42	6639
2026-01-28 15:24:31.43	217.54	10.47	-35.6	-36.6	23.2	0.00e+00	2	33	0	2267021312	44	5943
2026-01-28 15:24:35.47	217.45	10.11	-35.6	-36.6	23.2	0.00e+00	2	33	0	2279604224	44	5928
2026-01-28 15:24:39.51	217.36	9.77	-35.8	-36.7	22.9	0.00e+00	0	33	0	2292187136	44	6064
2026-01-28 15:24:43.55	217.27	9.42	-35.7	-36.6	22.9	0.00e+00	2	33	0	2304770048	44	5990
2026-01-28 15:24:47.58	217.19	9.08	-35.8	-36.8	22.7	0.00e+00	0	33	0	2317352960	44	6075
2026-01-28 15:24:51.63	217.11	8.75	-36.0	-37.0	22.6	0.00e+00	1	33	0	2329935872	44	6251
2026-01-28 15:24:55.67	217.03	8.42	-36.0	-37.0	22.6	0.00e+00	3	33	0	2342518784	44	6249
2026-01-28 15:24:59.70	216.95	8.09	-36.3	-37.3	22.3	0.00e+00	2	33	0	2355101696	44	6469
2026-01-28 15:25:03.75	216.88	7.77	-36.2	-37.2	22.3	0.00e+00	2	33	0	2367684608	44	6370
2026-01-28 15:25:07.79	216.80	7.45	-36.1	-37.1	22.3	0.00e+00	2	33	0	2380267520	44	6327
2026-01-28 15:25:11.83	216.73	7.13	-36.4	-37.4	22.1	0.00e+00	1	33	0	2392850432	44	6523
2026-01-28 15:25:15.86	216.66	6.82	-36.2	-37.2	22.2	0.00e+00	4	33	0	2405433344	44	6382
2026-01-28 15:25:19.90	216.59	6.52	-36.5	-37.6	22.0	0.00e+00	0	33	0	2418016256	46	5939
2026-01-28 15:25:23.94	216.53	6.21	-36.7	-37.7	21.8	0.00e+00	2	33	0	2430599168	46	6032
2026-01-28 15:25:27.98	216.46	5.91	-37.1	-38.2	21.3	0.00e+00	0	33	0	2443182080	46	6365
2026-01-28 15:25:32.01	216.40	5.62	-37.0	-38.1	21.3	0.00e+00	0	33	0	2455764992	46	6288
2026-01-28 15:25:36.05	216.34	5.32	-37.4	-38.5	21.0	0.00e+00	0	33	0	2468347904	46	6594
2026-01-28 15:25:40.09	216.28	5.03	-37.2	-38.3	21.1	0.00e+00	1	33	0	2480930816	46	6464
2026-01-28 15:25:44.13	216.22	4.75	-37.3	-38.4	21.0	0.00e+00	2	33	0	2493513728	46	6554
2026-01-28 15:25:48.17	216.16	4.46	-37.7	-38.8	20.6	0.00e+00	2	33	0	2506096640	48	6109
2026-01-28 15:25:52.21	216.10	4.18	-37.9	-39.0	20.6	0.00e+00	2	33	0	2518679552	48	6252
2026-01-28 15:25:56.25	216.05	3.90	-37.8	-39.0	20.3	0.00e+00	9	33	0	2531262464	48	6231
2026-01-28 15:26:00.29	215.99	3.63	-37.8	-39.0	20.3	0.00e+00	2	33	0	2543845376	48	6223
2026-01-28 15:26:04.33	215.94	3.36	-38.0	-39.2	20.0	0.00e+00	1	33	0	2556428288	48	6409
2026-01-28 15:26:08.37	215.89	3.09	-38.4	-39.6	19.7	0.00e+00	0	33	0	2569011200	48	6712
2026-01-28 15:26:12.41	215.84	2.82	-48.5	-61.4	3.5	1.52e+00	0	33	104	2573205504	60	41175
2026-01-28 15:26:16.45	215.79	2.55	-48.9	-61.8	3.5	1.52e+00	0	33	104	2573205504	60	42935
2026-01-28 15:26:20.48	215.74	2.29	-49.0	-61.8	3.5	1.52e+00	0	33	104	2573205504	60	43411
2026-01-28 15:26:24.53	215.69	2.03	-48.9	-61.8	3.5	1.52e+00	0	33	104	2573205504	60	43225
2026-01-28 15:26:28.56	215.65	1.77	-48.8	-61.7	3.5	1.52e+00	0	33	104	2573205504	60	42855
2026-01-28 15:26:32.60	215.60	1.52	-48.6	-61.7	3.5	1.51e+00	0	33	104	2573205504	60	42511
2026-01-28 15:26:36.64	215.56	1.26	-48.8	-61.7	3.5	1.52e+00	0	33	104	2573205504	60	42778
2026-01-28 15:26:40.68	215.52	1.01	-48.8	-61.7	3.5	1.52e+00	0	33	104	2573205504	60	42611
2026-01-28 15:26:44.72	215.47	0.76	-48.8	-61.7	3.5	1.52e+00	0	33	104	2573205504	60	42791
2026-01-28 15:26:48.76	215.43	0.52	-48.8	-61.7	3.5	1.52e+00	0	33	104	2573205504	60	42454
2026-01-28 15:26:52.80	215.39	0.27	-48.8	-61.6	3.5	1.52e+00	0	33	104	2573205504	60	42408
2026-01-28 15:26:56.84	215.35	0.03	-48.8	-61.6	3.5	1.52e+00	0	33	104	2573205504	60	42332

#Closed at: 2026-01-28 15:26:59
#Recorded file [2573 MB]: D:/lorett/data/35029_260129_031132.dat