passes_logs/2026/01/28/R4.6S_Anadyr/R4.6S_Anadyr__20260128_214753_NOAA_21_JPSS-2_rec.log

#Pass ID: 20260128_214753_NOAA 21 (JPSS-2)
#Satellite: NOAA 21 (JPSS-2)
#Configuration: NOAA-21
#almurnet v.1.7.20251203
#Start time: 2026-01-28 21:47:57

#Version: 2.2.20231116
#Station: R4.6S_Anadyr
#Location: 177.4865 lon 64.73178 lat
#TLE: 1 54234U 22150A   26027.77052245  .00000166  00000+0  99439-4 0  9997
#TLE: 2 54234  98.7510 328.5165 0000872 203.6403 156.4733 14.19540252166628

#Time	Az	El	Level	Level2	SNR	BER	BlckErr	Temp	State	Recorded	gain1	gain2
2026-01-28 21:47:57.14	98.33	0.18	-48.9	-60.2	3.3	1.54e+00	0	29	0	0	60	35907
2026-01-28 21:48:01.17	98.11	0.40	-48.8	-61.7	3.5	1.52e+00	0	29	104	0	60	42654
2026-01-28 21:48:05.21	97.88	0.62	-48.9	-61.7	3.5	1.52e+00	0	29	104	0	60	42870
2026-01-28 21:48:09.25	97.65	0.84	-48.6	-61.8	3.5	1.52e+00	0	30	104	0	60	43028
2026-01-28 21:48:13.29	97.41	1.07	-48.3	-61.6	3.5	1.51e+00	0	30	104	0	60	42166
2026-01-28 21:48:17.33	97.17	1.29	-48.2	-61.3	3.5	1.52e+00	0	30	104	0	60	40777
2026-01-28 21:48:21.37	96.93	1.52	-47.1	-60.0	3.5	1.52e+00	0	30	104	0	60	35000
2026-01-28 21:48:25.41	96.68	1.75	-47.1	-60.0	3.5	1.52e+00	0	30	104	0	60	35134
2026-01-28 21:48:29.44	96.43	1.98	-47.1	-60.0	3.5	1.51e+00	0	30	104	0	60	35124
2026-01-28 21:48:33.48	96.17	2.21	-47.1	-59.9	3.5	1.52e+00	0	30	104	0	60	34653
2026-01-28 21:48:37.52	95.92	2.44	-47.1	-60.0	3.5	1.52e+00	0	30	104	0	60	35154
2026-01-28 21:48:41.56	95.65	2.67	-47.1	-60.0	3.5	1.52e+00	0	30	104	0	60	35279
2026-01-28 21:48:45.60	95.38	2.91	-47.1	-59.5	3.5	1.51e+00	0	30	104	0	60	33301
2026-01-28 21:48:49.65	95.11	3.14	-45.0	-49.0	10.0	2.21e-02	120	30	0	3145728	60	9880
2026-01-28 21:48:53.69	94.83	3.38	-46.8	-58.9	3.6	1.51e+00	0	30	104	12582912	60	31018
2026-01-28 21:48:57.72	94.55	3.62	-41.2	-43.1	16.4	0.00e+00	123	30	0	13631488	56	6304
2026-01-28 21:49:01.76	94.27	3.86	-39.2	-40.6	18.8	0.00e+00	122	30	0	26214400	50	6674
2026-01-28 21:49:05.79	93.97	4.10	-39.0	-40.4	18.9	0.00e+00	123	30	0	38797312	50	6502
2026-01-28 21:49:09.83	93.68	4.35	-40.3	-41.9	17.5	0.00e+00	123	30	0	51380224	52	6893
2026-01-28 21:49:13.86	93.38	4.59	-38.7	-40.0	19.5	0.00e+00	123	30	0	63963136	50	6240
2026-01-28 21:49:17.90	93.07	4.84	-37.3	-38.5	20.9	0.00e+00	123	30	0	76546048	48	5865
2026-01-28 21:49:21.94	92.76	5.08	-37.6	-38.8	20.6	0.00e+00	123	30	0	89128960	48	6101
2026-01-28 21:49:25.98	92.44	5.33	-37.9	-39.1	20.6	0.00e+00	120	30	0	101711872	48	6288
2026-01-28 21:49:30.02	92.11	5.58	-37.6	-38.7	20.8	0.00e+00	120	30	0	114294784	48	6054
2026-01-28 21:49:34.07	91.78	5.84	-37.5	-38.6	20.8	0.00e+00	123	30	0	126877696	48	5981
2026-01-28 21:49:38.10	91.45	6.09	-37.6	-38.8	20.5	0.00e+00	122	30	0	139460608	48	6100
2026-01-28 21:49:42.14	91.11	6.34	-37.4	-38.5	20.9	0.00e+00	121	30	0	152043520	48	5914
2026-01-28 21:49:46.18	90.76	6.60	-37.3	-38.4	21.1	0.00e+00	123	30	0	164626432	48	5822
2026-01-28 21:49:50.21	90.41	6.86	-37.0	-38.1	21.4	0.00e+00	122	30	0	177209344	46	6317
2026-01-28 21:49:54.24	90.05	7.12	-36.8	-37.8	21.7	0.00e+00	123	30	0	189792256	46	6132
2026-01-28 21:49:58.28	89.68	7.38	-36.4	-37.5	22.1	0.00e+00	122	30	0	202375168	46	5862
2026-01-28 21:50:02.32	89.30	7.64	-36.3	-37.3	22.3	0.00e+00	123	30	0	214958080	46	5746
2026-01-28 21:50:06.37	88.92	7.91	-36.1	-37.2	22.4	0.00e+00	123	30	0	227540992	46	5664
2026-01-28 21:50:10.40	88.53	8.17	-35.8	-36.8	22.6	0.00e+00	122	30	0	240123904	46	5456
2026-01-28 21:50:14.44	88.14	8.44	-35.7	-36.7	22.7	0.00e+00	123	30	0	252706816	44	6045
2026-01-28 21:50:18.48	87.73	8.71	-35.7	-36.7	22.8	0.00e+00	123	30	0	265289728	44	6021
2026-01-28 21:50:22.52	87.32	8.98	-36.2	-37.2	22.4	0.00e+00	123	31	0	277872640	44	6380
2026-01-28 21:50:26.56	86.90	9.25	-35.5	-36.5	23.0	0.00e+00	123	31	0	291504128	44	5897
2026-01-28 21:50:30.59	86.48	9.52	-35.4	-36.4	23.1	0.00e+00	122	31	0	303038464	44	5835
2026-01-28 21:50:34.62	86.04	9.80	-35.5	-36.5	23.1	0.00e+00	123	31	0	316669952	44	5889
2026-01-28 21:50:38.67	85.60	10.07	-35.3	-36.3	23.2	0.00e+00	121	31	0	329252864	44	5741
2026-01-28 21:50:42.71	85.14	10.35	-35.3	-36.2	23.3	0.00e+00	120	30	0	341835776	44	5715
2026-01-28 21:50:46.75	84.68	10.63	-35.1	-36.0	23.5	0.00e+00	122	30	0	354418688	44	5594
2026-01-28 21:50:50.79	84.21	10.91	-34.8	-35.7	23.7	0.00e+00	123	30	0	367001600	44	5364
2026-01-28 21:50:54.83	83.73	11.19	-35.1	-36.0	23.4	0.00e+00	123	30	0	379584512	44	5590
2026-01-28 21:50:58.87	83.24	11.48	-35.1	-36.0	23.4	0.00e+00	123	30	0	392167424	44	5577
2026-01-28 21:51:02.91	82.74	11.76	-35.0	-35.9	23.6	0.00e+00	122	30	0	404750336	44	5499
2026-01-28 21:51:06.94	82.23	12.04	-34.8	-35.7	23.7	0.00e+00	123	30	0	417333248	42	6040
2026-01-28 21:51:10.98	81.71	12.33	-35.0	-36.0	23.5	0.00e+00	123	31	0	429916160	42	6214
2026-01-28 21:51:15.02	81.18	12.62	-34.6	-35.6	23.8	0.00e+00	123	31	0	442499072	42	5940
2026-01-28 21:51:19.06	80.64	12.90	-34.8	-35.7	23.7	0.00e+00	123	31	0	455081984	42	6021
2026-01-28 21:51:23.10	80.09	13.19	-34.9	-35.8	23.6	0.00e+00	123	30	0	467664896	42	6109
2026-01-28 21:51:27.14	79.53	13.48	-34.9	-35.9	23.8	0.00e+00	123	30	0	480247808	42	6172
2026-01-28 21:51:31.17	78.96	13.77	-34.8	-35.7	23.9	0.00e+00	122	31	0	492830720	42	6020
2026-01-28 21:51:35.21	78.37	14.06	-34.8	-35.7	23.8	0.00e+00	122	31	0	505413632	42	6059
2026-01-28 21:51:39.25	77.77	14.35	-35.0	-35.9	23.7	0.00e+00	122	31	0	517996544	42	6154
2026-01-28 21:51:43.29	77.16	14.64	-34.9	-35.8	23.9	0.00e+00	122	31	0	530579456	42	6092
2026-01-28 21:51:47.33	76.54	14.94	-35.0	-36.0	23.7	0.00e+00	123	31	0	543162368	42	6206
2026-01-28 21:51:51.37	75.91	15.23	-35.2	-36.1	23.6	0.00e+00	123	31	0	555745280	42	6339
2026-01-28 21:51:55.42	75.26	15.52	-35.0	-35.9	23.8	0.00e+00	123	30	0	568328192	42	6183
2026-01-28 21:51:59.45	74.60	15.81	-34.9	-35.9	23.7	0.00e+00	123	31	0	580911104	42	6164
2026-01-28 21:52:03.49	73.93	16.10	-35.1	-36.0	23.7	0.00e+00	122	30	0	593494016	42	6268
2026-01-28 21:52:07.53	73.24	16.39	-34.7	-35.6	24.0	0.00e+00	120	31	0	606076928	42	5955
2026-01-28 21:52:11.57	72.55	16.68	-34.9	-35.8	23.7	0.00e+00	123	31	0	618659840	42	6118
2026-01-28 21:52:15.60	71.83	16.96	-34.5	-35.4	24.3	0.00e+00	120	31	0	632291328	42	5846
2026-01-28 21:52:19.64	71.11	17.25	-34.3	-35.2	24.3	0.00e+00	123	30	0	643825664	42	5663
2026-01-28 21:52:23.68	70.37	17.54	-34.3	-35.2	24.3	0.00e+00	123	31	0	657457152	42	5684
2026-01-28 21:52:27.73	69.61	17.82	-34.4	-35.2	24.3	0.00e+00	123	31	0	670040064	42	5714
2026-01-28 21:52:31.77	68.84	18.10	-34.6	-35.5	24.0	0.00e+00	122	31	0	682622976	42	5866
2026-01-28 21:52:35.80	68.06	18.38	-34.8	-35.7	24.0	0.00e+00	122	31	0	695205888	42	6051
2026-01-28 21:52:39.84	67.26	18.65	-34.8	-35.7	24.0	0.00e+00	123	31	0	707788800	42	6047
2026-01-28 21:52:43.88	66.45	18.93	-34.6	-35.5	24.2	0.00e+00	123	31	0	720371712	42	5912
2026-01-28 21:52:47.92	65.62	19.20	-34.3	-35.2	24.4	0.00e+00	120	31	0	732954624	42	5666
2026-01-28 21:52:51.96	64.78	19.47	-34.2	-35.1	24.5	0.00e+00	123	31	0	745537536	42	5607
2026-01-28 21:52:56.00	63.92	19.73	-34.0	-34.9	24.6	0.00e+00	120	31	0	758120448	42	5526
2026-01-28 21:53:00.04	63.05	19.99	-34.1	-35.0	24.5	0.00e+00	121	31	0	770703360	42	5550
2026-01-28 21:53:04.07	62.16	20.24	-34.2	-35.1	24.4	0.00e+00	120	31	0	783286272	42	5635
2026-01-28 21:53:08.11	61.26	20.49	-33.7	-34.6	24.8	0.00e+00	123	31	0	795869184	42	5322
2026-01-28 21:53:12.15	60.34	20.73	-33.9	-34.8	24.6	0.00e+00	120	31	0	808452096	40	6124
2026-01-28 21:53:16.18	59.41	20.97	-33.7	-34.6	24.7	0.00e+00	123	31	0	821035008	40	5939
2026-01-28 21:53:20.22	58.47	21.21	-34.1	-35.0	24.4	0.00e+00	123	31	0	833617920	40	6254
2026-01-28 21:53:24.26	57.51	21.43	-34.2	-35.2	24.3	0.00e+00	123	31	0	846200832	40	6360
2026-01-28 21:53:28.30	56.53	21.65	-33.9	-34.8	24.7	0.00e+00	122	31	0	858783744	40	6094
2026-01-28 21:53:32.34	55.55	21.86	-34.1	-35.0	24.6	0.00e+00	123	31	0	871366656	40	6266
2026-01-28 21:53:36.38	54.54	22.07	-33.8	-34.7	24.8	0.00e+00	122	31	0	883949568	40	6030
2026-01-28 21:53:40.42	53.53	22.27	-33.7	-34.6	24.7	0.00e+00	123	31	0	896532480	40	5989
2026-01-28 21:53:44.46	52.50	22.45	-33.7	-34.6	24.7	0.00e+00	123	30	0	909115392	40	5974
2026-01-28 21:53:48.50	51.46	22.63	-33.7	-34.6	24.9	0.00e+00	123	31	0	921698304	40	5930
2026-01-28 21:53:52.54	50.41	22.81	-33.9	-34.8	24.7	0.00e+00	120	31	0	934281216	40	6106
2026-01-28 21:53:56.58	49.35	22.97	-33.9	-34.8	24.7	0.00e+00	123	31	0	946864128	40	6094
2026-01-28 21:54:00.62	48.28	23.12	-33.9	-34.7	24.8	0.00e+00	120	31	0	959447040	40	6046
2026-01-28 21:54:04.66	47.19	23.26	-33.8	-34.7	24.9	0.00e+00	122	31	0	973078528	40	6027
2026-01-28 21:54:08.70	46.10	23.39	-33.8	-34.7	24.8	0.00e+00	122	31	0	985661440	40	6026
2026-01-28 21:54:12.74	45.00	23.51	-33.8	-34.7	24.9	0.00e+00	123	31	0	998244352	40	6014
2026-01-28 21:54:16.77	43.89	23.62	-33.4	-34.3	25.1	0.00e+00	123	31	0	1010827264	40	5766
2026-01-28 21:54:20.81	42.77	23.72	-33.5	-34.4	25.1	0.00e+00	123	31	0	1023410176	40	5802
2026-01-28 21:54:24.85	41.65	23.81	-33.4	-34.3	25.0	0.00e+00	123	31	0	1035993088	40	5751
2026-01-28 21:54:28.89	40.52	23.88	-33.7	-34.6	24.8	0.00e+00	120	31	0	1048576000	40	5958
2026-01-28 21:54:32.93	39.39	23.95	-33.8	-34.7	24.7	0.00e+00	123	31	0	1061158912	40	6040
2026-01-28 21:54:36.97	38.25	24.00	-33.9	-34.7	24.7	0.00e+00	123	31	0	1073741824	40	6055
2026-01-28 21:54:41.01	37.11	24.04	-33.8	-34.7	24.8	0.00e+00	123	31	0	1086324736	40	6003
2026-01-28 21:54:45.04	35.96	24.06	-33.8	-34.6	24.8	0.00e+00	122	31	0	1098907648	40	5989
2026-01-28 21:54:49.08	34.82	24.08	-33.9	-34.8	24.6	0.00e+00	124	31	0	1111490560	40	6116
2026-01-28 21:54:53.12	33.67	24.08	-33.9	-34.8	24.8	0.00e+00	123	31	0	1124073472	40	6086
2026-01-28 21:54:57.16	32.53	24.07	-33.7	-34.5	24.9	0.00e+00	122	31	0	1136656384	40	5918
2026-01-28 21:55:01.20	31.38	24.04	-33.6	-34.5	25.0	0.00e+00	120	31	0	1149239296	40	5871
2026-01-28 21:55:05.23	30.24	24.01	-33.5	-34.4	25.0	0.00e+00	120	31	0	1161822208	40	5836
2026-01-28 21:55:09.27	29.10	23.96	-33.5	-34.4	24.9	0.00e+00	123	31	0	1174405120	40	5801
2026-01-28 21:55:13.31	27.97	23.90	-33.4	-34.3	24.9	0.00e+00	120	31	0	1186988032	40	5741
2026-01-28 21:55:17.34	26.84	23.83	-33.7	-34.5	24.9	0.00e+00	123	31	0	1199570944	40	5918
2026-01-28 21:55:21.37	25.72	23.74	-33.5	-34.4	24.9	0.00e+00	122	31	0	1212153856	40	5824
2026-01-28 21:55:25.41	24.60	23.65	-33.7	-34.6	24.8	0.00e+00	122	31	0	1224736768	40	5963
2026-01-28 21:55:29.45	23.49	23.54	-33.6	-34.5	24.8	0.00e+00	123	31	0	1237319680	40	5911
2026-01-28 21:55:33.49	22.39	23.43	-33.7	-34.5	25.0	0.00e+00	120	31	0	1249902592	40	5913
2026-01-28 21:55:37.53	21.29	23.30	-33.4	-34.3	25.1	0.00e+00	122	31	0	1262485504	40	5734
2026-01-28 21:55:41.57	20.21	23.16	-33.9	-34.8	24.7	0.00e+00	120	31	0	1275068416	40	6112
2026-01-28 21:55:45.61	19.13	23.01	-34.0	-34.9	24.6	0.00e+00	122	31	0	1287651328	40	6165
2026-01-28 21:55:49.65	18.07	22.85	-33.7	-34.6	24.6	0.00e+00	123	31	0	1300234240	40	5982
2026-01-28 21:55:53.69	17.02	22.68	-34.0	-34.9	24.5	0.00e+00	122	31	0	1312817152	40	6163
2026-01-28 21:55:57.73	15.98	22.50	-34.1	-35.0	24.3	0.00e+00	123	31	0	1325400064	40	6255
2026-01-28 21:56:01.77	14.95	22.32	-33.8	-34.7	24.5	0.00e+00	122	31	0	1339031552	40	6032
2026-01-28 21:56:05.81	13.93	22.12	-34.0	-34.9	24.3	0.00e+00	122	31	0	1351614464	40	6182
2026-01-28 21:56:09.85	12.93	21.92	-34.0	-34.9	24.4	0.00e+00	122	31	0	1364197376	40	6146
2026-01-28 21:56:13.89	11.94	21.71	-34.0	-34.9	24.5	0.00e+00	123	31	0	1376780288	40	6159
2026-01-28 21:56:17.93	10.96	21.49	-33.7	-34.6	24.7	0.00e+00	120	31	0	1389363200	40	5945
2026-01-28 21:56:21.97	10.00	21.27	-33.9	-34.8	24.6	0.00e+00	123	31	0	1401946112	40	6067
2026-01-28 21:56:26.00	9.06	21.04	-33.9	-34.8	24.7	0.00e+00	122	31	0	1414529024	40	6083
2026-01-28 21:56:30.04	8.12	20.80	-33.8	-34.7	24.8	0.00e+00	123	31	0	1427111936	40	5997
2026-01-28 21:56:34.08	7.21	20.56	-34.1	-35.0	24.5	0.00e+00	122	31	0	1439694848	40	6233
2026-01-28 21:56:38.12	6.30	20.31	-33.9	-34.8	24.5	0.00e+00	123	31	0	1452277760	40	6094
2026-01-28 21:56:42.15	5.42	20.06	-33.8	-34.7	24.8	0.00e+00	122	31	0	1464860672	40	6035
2026-01-28 21:56:46.20	4.54	19.80	-34.0	-34.9	24.6	0.00e+00	123	31	0	1477443584	40	6181
2026-01-28 21:56:50.23	3.68	19.54	-34.2	-35.1	24.4	0.00e+00	123	31	0	1490026496	40	6314
2026-01-28 21:56:54.28	2.84	19.27	-34.3	-35.2	24.2	0.00e+00	123	31	0	1502609408	40	6377
2026-01-28 21:56:58.32	2.01	19.01	-33.9	-34.8	24.7	0.00e+00	122	31	0	1515192320	40	6071
2026-01-28 21:57:02.36	1.19	18.73	-33.8	-34.6	24.8	0.00e+00	123	31	0	1527775232	40	5993
2026-01-28 21:57:06.40	0.39	18.46	-34.4	-35.4	24.2	0.00e+00	122	31	0	1540358144	40	6516
2026-01-28 21:57:10.44	359.61	18.18	-34.3	-35.2	24.2	0.00e+00	122	31	0	1552941056	40	6379
2026-01-28 21:57:14.48	358.84	17.90	-34.2	-35.1	24.4	0.00e+00	123	31	0	1565523968	40	6304
2026-01-28 21:57:18.52	358.08	17.62	-34.1	-35.0	24.4	0.00e+00	123	31	0	1578106880	40	6248
2026-01-28 21:57:22.55	357.34	17.34	-34.0	-34.9	24.6	0.00e+00	122	31	0	1590689792	40	6141
2026-01-28 21:57:26.60	356.61	17.05	-33.9	-34.8	24.6	0.00e+00	123	31	0	1603272704	40	6108
2026-01-28 21:57:30.63	355.90	16.76	-34.2	-35.1	24.4	0.00e+00	122	31	0	1615855616	40	6307
2026-01-28 21:57:34.67	355.20	16.48	-34.1	-35.0	24.3	0.00e+00	122	31	0	1628438528	40	6234
2026-01-28 21:57:38.71	354.51	16.19	-34.4	-35.3	24.2	0.00e+00	120	31	0	1641021440	40	6477
2026-01-28 21:57:42.75	353.84	15.90	-34.5	-35.4	24.1	0.00e+00	122	31	0	1653604352	40	6515
2026-01-28 21:57:46.78	353.18	15.61	-34.5	-35.5	24.1	0.00e+00	122	31	0	1666187264	40	6576
2026-01-28 21:57:50.82	352.53	15.32	-34.9	-35.9	23.8	0.00e+00	122	31	0	1679818752	42	6149
2026-01-28 21:57:54.86	351.89	15.03	-34.8	-35.8	23.9	0.00e+00	120	31	0	1692401664	42	6073
2026-01-28 21:57:58.90	351.27	14.74	-34.6	-35.5	24.1	0.00e+00	123	31	0	1703936000	42	5916
2026-01-28 21:58:02.94	350.66	14.45	-35.0	-35.9	23.7	0.00e+00	122	31	0	1717567488	42	6192
2026-01-28 21:58:06.98	350.06	14.16	-35.3	-36.3	23.3	0.00e+00	122	31	0	1730150400	42	6449
2026-01-28 21:58:11.02	349.48	13.87	-35.0	-36.0	23.4	0.00e+00	120	31	0	1742733312	42	6206
2026-01-28 21:58:15.05	348.91	13.58	-34.9	-35.8	23.7	0.00e+00	123	31	0	1755316224	42	6122
2026-01-28 21:58:19.10	348.34	13.29	-35.6	-36.6	23.2	0.00e+00	123	31	0	1767899136	42	6654
2026-01-28 21:58:23.14	347.79	13.00	-35.7	-36.6	22.9	0.00e+00	122	31	0	1780482048	44	5986
2026-01-28 21:58:27.17	347.25	12.71	-35.2	-36.2	23.3	0.00e+00	123	31	0	1793064960	44	5686
2026-01-28 21:58:31.21	346.72	12.43	-35.1	-36.1	23.5	0.00e+00	123	31	0	1805647872	44	5600
2026-01-28 21:58:35.25	346.20	12.14	-35.7	-36.6	23.2	0.00e+00	122	31	0	1818230784	44	5975
2026-01-28 21:58:39.29	345.69	11.86	-36.2	-37.2	22.7	0.00e+00	122	31	0	1830813696	44	6380
2026-01-28 21:58:43.33	345.19	11.57	-35.8	-36.8	22.7	0.00e+00	123	31	0	1843396608	44	6125
2026-01-28 21:58:47.37	344.70	11.29	-35.1	-36.1	23.4	0.00e+00	123	31	0	1855979520	44	5626
2026-01-28 21:58:51.41	344.22	11.01	-35.6	-36.6	23.2	0.00e+00	120	31	0	1868562432	44	5947
2026-01-28 21:58:55.45	343.75	10.73	-36.2	-37.2	22.5	0.00e+00	122	31	0	1881145344	44	6402
2026-01-28 21:58:59.48	343.29	10.45	-36.2	-37.3	22.3	0.00e+00	122	31	0	1893728256	44	6439
2026-01-28 21:59:03.53	342.83	10.17	-35.7	-36.7	22.8	0.00e+00	123	31	0	1906311168	44	6027
2026-01-28 21:59:07.57	342.39	9.90	-35.6	-36.6	22.9	0.00e+00	122	31	0	1918894080	44	5963
2026-01-28 21:59:11.61	341.95	9.62	-36.1	-37.1	22.7	0.00e+00	123	31	0	1931476992	44	6295
2026-01-28 21:59:15.65	341.53	9.35	-36.7	-37.8	22.1	0.00e+00	123	31	0	1944059904	46	6104
2026-01-28 21:59:19.69	341.11	9.08	-36.6	-37.7	21.9	0.00e+00	123	31	0	1956642816	46	6041
2026-01-28 21:59:23.73	340.70	8.81	-36.1	-37.2	22.4	0.00e+00	123	31	0	1969225728	46	5665
2026-01-28 21:59:27.77	340.29	8.54	-36.2	-37.3	22.4	0.00e+00	123	31	0	1981808640	46	5731
2026-01-28 21:59:31.80	339.90	8.27	-36.3	-37.3	22.3	0.00e+00	122	31	0	1994391552	46	5763
2026-01-28 21:59:35.84	339.51	8.01	-36.7	-37.8	22.1	0.00e+00	123	31	0	2006974464	46	6103
2026-01-28 21:59:39.88	339.13	7.74	-37.1	-38.2	21.6	0.00e+00	123	31	0	2019557376	46	6378
2026-01-28 21:59:43.92	338.75	7.48	-37.3	-38.4	21.3	0.00e+00	123	31	0	2033188864	46	6521
2026-01-28 21:59:47.96	338.39	7.22	-36.7	-37.8	21.9	0.00e+00	123	31	0	2045771776	46	6078
2026-01-28 21:59:51.99	338.03	6.96	-36.6	-37.7	21.8	0.00e+00	120	31	0	2058354688	46	6013
2026-01-28 21:59:56.03	337.67	6.70	-37.0	-38.0	21.6	0.00e+00	123	31	0	2070937600	46	6275
2026-01-28 22:00:00.07	337.33	6.44	-36.8	-37.9	21.7	0.00e+00	122	31	0	2083520512	46	6140
2026-01-28 22:00:04.11	336.99	6.19	-37.2	-38.3	21.3	0.00e+00	122	31	0	2096103424	46	6436
2026-01-28 22:00:08.15	336.65	5.94	-37.9	-39.1	20.2	0.00e+00	123	31	0	2108686336	48	6315
2026-01-28 22:00:12.19	336.32	5.68	-39.0	-40.5	18.4	0.00e+00	122	31	0	2121269248	50	6584
2026-01-28 22:00:16.23	336.00	5.43	-40.1	-41.9	16.3	0.00e+00	123	31	0	2133852160	52	6934
2026-01-28 22:00:20.27	335.68	5.18	-41.4	-44.1	12.8	1.98e-05	123	31	0	2146435072	54	7983
2026-01-28 22:00:24.31	335.37	4.94	-42.9	-47.5	8.3	2.43e-02	122	31	0	2159017984	58	9387
2026-01-28 22:00:28.35	335.06	4.69	-43.4	-51.7	4.6	6.83e-01	123	31	104	2165309440	58	15168
2026-01-28 22:00:32.39	334.76	4.45	-43.7	-55.3	3.5	1.51e+00	0	31	104	2165309440	60	20525
2026-01-28 22:00:36.42	334.47	4.20	-43.8	-55.3	3.5	1.51e+00	0	31	104	2165309440	60	20393
2026-01-28 22:00:40.46	334.18	3.96	-43.7	-56.3	3.5	1.52e+00	0	31	104	2165309440	60	22897
2026-01-28 22:00:44.49	333.89	3.72	-43.7	-56.1	3.5	1.52e+00	0	31	104	2165309440	60	22526
2026-01-28 22:00:48.53	333.61	3.48	-43.8	-56.5	3.5	1.52e+00	0	31	104	2165309440	60	23359
2026-01-28 22:00:52.57	333.34	3.24	-43.8	-56.5	3.5	1.52e+00	0	31	104	2165309440	60	23486
2026-01-28 22:00:56.61	333.07	3.01	-44.5	-55.8	3.5	1.51e+00	0	31	104	2165309440	60	21595
2026-01-28 22:01:00.64	332.80	2.77	-48.6	-61.5	3.5	1.52e+00	0	31	104	2165309440	60	41683
2026-01-28 22:01:04.68	332.54	2.54	-48.9	-61.8	3.5	1.52e+00	0	31	104	2165309440	60	42957
2026-01-28 22:01:08.72	332.28	2.31	-49.0	-61.8	3.5	1.52e+00	0	31	104	2165309440	60	43359
2026-01-28 22:01:12.76	332.03	2.08	-48.8	-61.7	3.5	1.52e+00	0	31	104	2165309440	60	42758
2026-01-28 22:01:16.79	331.78	1.85	-48.8	-61.7	3.5	1.52e+00	0	31	104	2165309440	60	42577
2026-01-28 22:01:20.83	331.53	1.62	-48.9	-61.7	3.5	1.52e+00	0	31	104	2165309440	60	42698
2026-01-28 22:01:24.87	331.29	1.39	-48.9	-61.7	3.5	1.52e+00	0	31	104	2165309440	60	42679
2026-01-28 22:01:28.91	331.05	1.17	-48.8	-61.7	3.5	1.52e+00	0	31	104	2165309440	60	42566
2026-01-28 22:01:32.94	330.82	0.95	-48.8	-61.7	3.5	1.52e+00	0	31	104	2165309440	60	42492
2026-01-28 22:01:36.98	330.59	0.72	-48.8	-61.7	3.5	1.52e+00	0	31	104	2165309440	60	42592
2026-01-28 22:01:41.01	330.36	0.50	-48.8	-61.7	3.5	1.51e+00	0	31	104	2165309440	60	42683
2026-01-28 22:01:45.05	330.14	0.28	-48.8	-61.7	3.5	1.52e+00	0	31	104	2165309440	60	42606
2026-01-28 22:01:49.09	329.92	0.06	-48.8	-61.7	3.5	1.52e+00	0	31	104	2165309440	60	42612

#Closed at: 2026-01-28 22:01:52
#Recorded file [2165 MB]: D:/lorett/data/35029_260129_094757.dat