passes_logs/2026/01/28/R4.6S_Anadyr/R4.6S_Anadyr__20260128_160148_NOAA_20_JPSS-1_rec.log

#Pass ID: 20260128_160148_NOAA 20 (JPSS-1)
#Satellite: NOAA 20 (JPSS-1)
#Configuration: NOAA 20
#almurnet v.1.7.20251203
#Start time: 2026-01-28 16:01:49

#Version: 2.2.20231116
#Station: R4.6S_Anadyr
#Location: 177.4865 lon 64.73178 lat
#TLE: 1 43013U 17073A   26027.80586608  .00000156  00000+0  94940-4 0  9998
#TLE: 2 43013  98.7647 328.6108 0000947  21.3465 338.7750 14.19541216424550

#Time	Az	El	Level	Level2	SNR	BER	BlckErr	Temp	State	Recorded	gain1	gain2
2026-01-28 16:01:49.59	24.31	0.09	-48.9	-63.8	3.5	1.51e+00	0	30	0	0	60	56148
2026-01-28 16:01:53.63	24.19	0.32	-48.9	-64.2	3.6	1.51e+00	0	31	104	0	60	58517
2026-01-28 16:01:57.67	24.07	0.56	-49.0	-64.2	3.5	1.51e+00	0	31	104	0	60	58617
2026-01-28 16:02:01.69	23.94	0.80	-49.0	-64.2	3.6	1.51e+00	0	31	104	0	60	58664
2026-01-28 16:02:05.73	23.81	1.04	-48.8	-64.0	3.6	1.51e+00	0	31	104	0	60	57207
2026-01-28 16:02:09.77	23.68	1.28	-48.4	-63.6	3.6	1.51e+00	0	32	104	0	60	54739
2026-01-28 16:02:13.81	23.55	1.53	-47.6	-62.8	3.6	1.51e+00	0	32	104	0	60	50095
2026-01-28 16:02:17.85	23.41	1.77	-47.6	-62.8	3.6	1.51e+00	0	32	104	0	60	49641
2026-01-28 16:02:21.89	23.27	2.02	-47.6	-62.6	3.6	1.51e+00	0	32	104	0	60	48592
2026-01-28 16:02:25.93	23.13	2.27	-47.6	-62.7	3.6	1.51e+00	0	32	104	0	60	49346
2026-01-28 16:02:29.97	22.99	2.53	-47.6	-62.6	3.6	1.51e+00	0	32	104	0	60	49026
2026-01-28 16:02:34.00	22.84	2.78	-47.5	-61.1	3.6	1.51e+00	0	32	104	0	60	40845
2026-01-28 16:02:38.04	22.69	3.04	-47.6	-62.6	3.6	1.51e+00	0	32	104	0	60	48548
2026-01-28 16:02:42.07	22.54	3.29	-45.9	-50.6	10.9	1.07e-02	0	32	0	3145728	60	12265
2026-01-28 16:02:46.11	22.38	3.55	-43.6	-46.2	15.6	0.00e+00	92	32	0	10485760	60	7376
2026-01-28 16:02:50.14	22.22	3.82	-47.1	-55.8	7.5	5.73e-02	0	32	0	18874368	60	22323
2026-01-28 16:02:54.19	22.06	4.08	-41.5	-43.2	18.8	0.00e+00	75	32	0	22020096	56	6575
2026-01-28 16:02:58.22	21.89	4.35	-40.8	-42.2	19.6	0.00e+00	0	32	0	29360128	54	6567
2026-01-28 16:03:02.26	21.72	4.62	-40.4	-41.7	20.2	0.00e+00	92	32	0	36700160	54	6243
2026-01-28 16:03:06.29	21.55	4.89	-40.5	-41.9	19.9	0.00e+00	0	32	0	44040192	54	6324
2026-01-28 16:03:10.33	21.38	5.17	-40.2	-41.6	20.2	0.00e+00	0	32	0	51380224	54	6111
2026-01-28 16:03:14.37	21.20	5.45	-40.4	-41.8	20.1	0.00e+00	11	32	0	59768832	54	6260
2026-01-28 16:03:18.41	21.01	5.73	-40.2	-41.4	20.7	0.00e+00	58	32	0	67108864	54	6021
2026-01-28 16:03:22.44	20.82	6.01	-40.0	-41.3	20.8	0.00e+00	7	32	0	74448896	54	5904
2026-01-28 16:03:26.48	20.63	6.30	-40.1	-41.3	20.8	0.00e+00	4	32	0	81788928	54	5925
2026-01-28 16:03:30.52	20.44	6.59	-40.1	-41.4	20.8	0.00e+00	92	32	0	90177536	52	6695
2026-01-28 16:03:34.55	20.24	6.88	-39.8	-41.0	21.2	0.00e+00	86	32	0	97517568	52	6415
2026-01-28 16:03:38.59	20.03	7.17	-40.3	-41.6	20.5	0.00e+00	0	32	0	104857600	52	6879
2026-01-28 16:03:42.63	19.83	7.47	-40.6	-42.0	20.0	0.00e+00	6	32	0	112197632	54	6394
2026-01-28 16:03:46.67	19.61	7.77	-40.4	-41.7	20.6	0.00e+00	91	32	0	119537664	54	6185
2026-01-28 16:03:50.70	19.39	8.07	-39.9	-41.1	21.2	0.00e+00	5	32	0	127926272	52	6488
2026-01-28 16:03:54.74	19.17	8.38	-39.6	-40.7	21.5	0.00e+00	5	32	0	135266304	52	6197
2026-01-28 16:03:58.78	18.94	8.69	-39.4	-40.5	21.8	0.00e+00	77	32	0	142606336	52	6080
2026-01-28 16:04:02.81	18.71	9.01	-39.8	-41.0	21.4	0.00e+00	92	32	0	149946368	52	6400
2026-01-28 16:04:06.84	18.47	9.32	-39.1	-40.2	22.1	0.00e+00	0	32	0	157286400	52	5857
2026-01-28 16:04:10.88	18.23	9.64	-39.0	-40.0	22.3	0.00e+00	0	32	0	165675008	52	5747
2026-01-28 16:04:14.92	17.98	9.97	-38.9	-39.9	22.4	0.00e+00	5	32	0	173015040	50	6358
2026-01-28 16:04:18.95	17.72	10.30	-38.7	-39.7	22.7	0.00e+00	92	32	0	180355072	50	6192
2026-01-28 16:04:22.99	17.46	10.63	-38.4	-39.4	22.9	0.00e+00	75	32	0	187695104	50	5988
2026-01-28 16:04:27.03	17.19	10.97	-38.6	-39.6	22.6	0.00e+00	0	32	0	196083712	50	6106
2026-01-28 16:04:31.07	16.91	11.31	-38.5	-39.4	22.9	0.00e+00	0	32	0	203423744	50	6013
2026-01-28 16:04:35.10	16.63	11.65	-38.6	-39.5	22.8	0.00e+00	90	32	0	210763776	50	6083
2026-01-28 16:04:39.14	16.34	12.00	-38.4	-39.3	23.0	0.00e+00	1	32	0	218103808	50	5964
2026-01-28 16:04:43.18	16.04	12.35	-38.6	-39.6	22.9	0.00e+00	0	32	0	225443840	50	6132
2026-01-28 16:04:47.22	15.74	12.71	-38.8	-39.8	22.7	0.00e+00	0	32	0	233832448	50	6280
2026-01-28 16:04:51.26	15.42	13.07	-38.8	-39.8	22.7	0.00e+00	92	32	0	241172480	50	6276
2026-01-28 16:04:55.29	15.10	13.44	-38.4	-39.3	23.1	0.00e+00	6	32	0	248512512	50	5960
2026-01-28 16:04:59.33	14.78	13.81	-38.4	-39.3	23.2	0.00e+00	0	33	0	255852544	50	5929
2026-01-28 16:05:03.37	14.44	14.18	-38.3	-39.2	23.2	0.00e+00	0	32	0	264241152	50	5873
2026-01-28 16:05:07.40	14.09	14.56	-38.2	-39.2	23.3	0.00e+00	0	32	0	271581184	50	5831
2026-01-28 16:05:11.44	13.73	14.95	-38.2	-39.2	23.2	0.00e+00	5	32	0	278921216	50	5851
2026-01-28 16:05:15.48	13.37	15.34	-38.3	-39.3	23.2	0.00e+00	4	32	0	286261248	50	5913
2026-01-28 16:05:19.52	12.99	15.73	-38.4	-39.3	23.2	0.00e+00	84	32	0	293601280	50	5922
2026-01-28 16:05:23.55	12.60	16.13	-38.4	-39.3	23.2	0.00e+00	82	33	0	301989888	50	5925
2026-01-28 16:05:27.59	12.21	16.54	-38.6	-39.6	23.0	0.00e+00	0	33	0	309329920	50	6110
2026-01-28 16:05:31.63	11.80	16.95	-38.4	-39.3	23.3	0.00e+00	0	33	0	316669952	50	5931
2026-01-28 16:05:35.67	11.38	17.36	-38.4	-39.4	23.1	0.00e+00	90	33	0	324009984	50	5980
2026-01-28 16:05:39.71	10.94	17.79	-38.2	-39.1	23.4	0.00e+00	73	32	0	332398592	50	5813
2026-01-28 16:05:43.75	10.50	18.21	-38.3	-39.2	23.4	0.00e+00	75	32	0	339738624	50	5852
2026-01-28 16:05:47.79	10.04	18.65	-38.4	-39.4	23.0	0.00e+00	74	32	0	347078656	50	5972
2026-01-28 16:05:51.83	9.56	19.08	-38.4	-39.3	23.3	0.00e+00	92	33	0	354418688	50	5931
2026-01-28 16:05:55.86	9.08	19.53	-38.3	-39.3	23.3	0.00e+00	8	32	0	361758720	50	5901
2026-01-28 16:05:59.90	8.58	19.98	-38.3	-39.2	23.4	0.00e+00	0	33	0	370147328	50	5837
2026-01-28 16:06:03.94	8.06	20.43	-38.3	-39.2	23.4	0.00e+00	3	33	0	377487360	50	5857
2026-01-28 16:06:07.98	7.52	20.89	-38.5	-39.5	23.2	0.00e+00	92	33	0	384827392	50	6043
2026-01-28 16:06:12.01	6.97	21.36	-38.5	-39.4	22.9	0.00e+00	2	33	0	392167424	50	5995
2026-01-28 16:06:16.05	6.41	21.83	-38.5	-39.4	23.3	0.00e+00	0	33	0	399507456	50	6002
2026-01-28 16:06:20.08	5.82	22.31	-38.5	-39.4	23.3	0.00e+00	2	33	0	407896064	50	6008
2026-01-28 16:06:24.11	5.22	22.80	-38.7	-39.6	23.2	0.00e+00	92	33	0	415236096	50	6142
2026-01-28 16:06:28.15	4.59	23.29	-38.5	-39.4	23.4	0.00e+00	3	32	0	422576128	50	5983
2026-01-28 16:06:32.18	3.95	23.78	-38.6	-39.6	23.2	0.00e+00	69	32	0	429916160	50	6109
2026-01-28 16:06:36.22	3.28	24.28	-38.5	-39.4	23.3	0.00e+00	0	33	0	438304768	50	6015
2026-01-28 16:06:40.26	2.60	24.79	-38.6	-39.5	23.2	0.00e+00	92	33	0	445644800	50	6093
2026-01-28 16:06:44.30	1.88	25.30	-39.1	-40.1	22.7	0.00e+00	0	32	0	452984832	50	6499
2026-01-28 16:06:48.34	1.15	25.82	-38.9	-39.8	22.9	0.00e+00	9	32	0	460324864	50	6315
2026-01-28 16:06:52.38	0.39	26.34	-38.8	-39.8	22.9	0.00e+00	92	33	0	467664896	50	6250
2026-01-28 16:06:56.41	359.60	26.86	-39.0	-40.0	22.8	0.00e+00	5	33	0	476053504	50	6437
2026-01-28 16:07:00.45	358.79	27.39	-39.3	-40.4	22.5	0.00e+00	7	32	0	483393536	50	6700
2026-01-28 16:07:04.49	357.95	27.92	-39.8	-40.9	22.0	0.00e+00	6	33	0	490733568	52	6348
2026-01-28 16:07:08.53	357.08	28.46	-40.7	-41.8	21.2	0.00e+00	92	33	0	498073600	52	7087
2026-01-28 16:07:12.57	356.18	29.00	-42.0	-43.5	19.7	0.00e+00	76	33	0	506462208	56	6796
2026-01-28 16:07:16.61	355.25	29.54	-41.9	-43.3	19.7	0.00e+00	83	33	0	513802240	56	6682
2026-01-28 16:07:20.64	354.29	30.08	-41.9	-43.3	19.9	0.00e+00	4	33	0	521142272	56	6630
2026-01-28 16:07:24.68	353.29	30.63	-41.3	-42.6	20.5	0.00e+00	87	33	0	528482304	56	6158
2026-01-28 16:07:28.72	352.26	31.17	-41.4	-42.7	20.4	0.00e+00	70	33	0	535822336	56	6232
2026-01-28 16:07:32.76	351.19	31.71	-41.8	-43.2	20.0	0.00e+00	0	32	0	544210944	56	6598
2026-01-28 16:07:36.80	350.09	32.25	-41.8	-43.2	20.0	0.00e+00	72	33	0	551550976	56	6566
2026-01-28 16:07:40.83	348.95	32.79	-41.8	-43.2	20.1	0.00e+00	90	33	0	558891008	56	6572
2026-01-28 16:07:44.87	347.77	33.32	-40.6	-41.8	21.2	0.00e+00	9	32	0	566231040	54	6296
2026-01-28 16:07:48.91	346.55	33.85	-39.7	-40.7	22.3	0.00e+00	80	32	0	574619648	52	6244
2026-01-28 16:07:52.94	345.29	34.38	-40.1	-41.2	21.9	0.00e+00	73	33	0	581959680	52	6556
2026-01-28 16:07:56.98	343.99	34.89	-40.5	-41.7	21.4	0.00e+00	92	33	0	589299712	52	6936
2026-01-28 16:08:01.02	342.65	35.40	-40.7	-41.9	21.2	0.00e+00	0	32	0	596639744	54	6349
2026-01-28 16:08:05.05	341.26	35.89	-40.7	-41.9	21.1	0.00e+00	0	33	0	603979776	54	6373
2026-01-28 16:08:09.09	339.84	36.37	-41.1	-42.4	20.5	0.00e+00	0	33	0	612368384	54	6714
2026-01-28 16:08:13.13	338.36	36.84	-41.2	-42.5	20.6	0.00e+00	92	32	0	619708416	54	6780
2026-01-28 16:08:17.17	336.85	37.30	-40.5	-41.7	21.1	0.00e+00	71	33	0	627048448	54	6207
2026-01-28 16:08:21.21	335.29	37.73	-40.2	-41.3	21.7	0.00e+00	0	33	0	634388480	54	5940
2026-01-28 16:08:25.24	333.70	38.15	-39.8	-40.9	21.8	0.00e+00	0	33	0	642777088	54	5693
2026-01-28 16:08:29.27	332.07	38.54	-39.2	-40.3	22.7	0.00e+00	12	33	0	650117120	52	5901
2026-01-28 16:08:33.30	330.39	38.92	-38.9	-39.9	22.9	0.00e+00	10	33	0	657457152	52	5668
2026-01-28 16:08:37.34	328.68	39.26	-39.1	-40.1	22.9	0.00e+00	10	33	0	664797184	52	5797
2026-01-28 16:08:41.37	326.93	39.58	-38.3	-39.2	23.6	0.00e+00	91	32	0	672137216	50	5864
2026-01-28 16:08:45.41	325.15	39.88	-37.6	-38.5	24.2	0.00e+00	52	33	0	680525824	48	6055
2026-01-28 16:08:49.45	323.33	40.14	-37.7	-38.6	24.1	0.00e+00	7	33	0	687865856	48	6117
2026-01-28 16:08:53.49	321.49	40.37	-37.8	-38.7	23.9	0.00e+00	6	32	0	695205888	48	6198
2026-01-28 16:08:57.52	319.62	40.57	-37.3	-38.1	24.5	0.00e+00	92	32	0	702545920	48	5807
2026-01-28 16:09:01.56	317.73	40.73	-37.6	-38.5	24.2	0.00e+00	0	33	0	710934528	48	6035
2026-01-28 16:09:05.60	315.82	40.86	-37.5	-38.3	24.4	0.00e+00	0	33	0	718274560	48	5949
2026-01-28 16:09:09.64	313.90	40.96	-37.7	-38.5	24.2	0.00e+00	6	33	0	725614592	48	6091
2026-01-28 16:09:13.68	311.97	41.01	-37.6	-38.4	24.2	0.00e+00	92	33	0	732954624	48	6023
2026-01-28 16:09:17.71	310.04	41.03	-38.9	-39.8	23.1	0.00e+00	10	33	0	740294656	50	6286
2026-01-28 16:09:21.75	308.10	41.02	-39.1	-40.1	22.8	0.00e+00	10	33	0	748683264	50	6473
2026-01-28 16:09:25.78	306.18	40.96	-39.9	-40.9	22.2	0.00e+00	70	33	0	756023296	52	6368
2026-01-28 16:09:29.82	304.26	40.87	-40.9	-42.1	20.9	0.00e+00	92	32	0	763363328	54	6517
2026-01-28 16:09:33.86	302.35	40.74	-40.5	-41.6	21.3	0.00e+00	5	33	0	770703360	54	6171
2026-01-28 16:09:37.89	300.46	40.58	-42.3	-43.8	19.5	0.00e+00	4	33	0	778043392	56	7033
2026-01-28 16:09:41.93	298.58	40.39	-42.3	-43.7	19.5	0.00e+00	2	33	0	786432000	56	6996
2026-01-28 16:09:45.96	296.74	40.16	-41.9	-43.3	19.9	0.00e+00	92	33	0	793772032	56	6641
2026-01-28 16:09:50.00	294.92	39.90	-41.5	-42.8	20.4	0.00e+00	71	32	0	801112064	56	6260
2026-01-28 16:09:54.04	293.13	39.61	-39.5	-40.5	22.5	0.00e+00	0	32	0	808452096	52	6051
2026-01-28 16:09:58.08	291.37	39.29	-38.1	-39.0	23.9	0.00e+00	0	33	0	816840704	50	5723
2026-01-28 16:10:02.12	289.65	38.94	-37.4	-38.3	24.4	0.00e+00	91	33	0	824180736	48	5903
2026-01-28 16:10:06.15	287.97	38.57	-36.9	-37.7	24.9	0.00e+00	77	33	0	831520768	48	5541
2026-01-28 16:10:10.19	286.33	38.18	-37.0	-37.8	24.8	0.00e+00	0	33	0	838860800	46	6264
2026-01-28 16:10:14.22	284.73	37.76	-36.9	-37.6	24.9	0.00e+00	89	32	0	846200832	46	6168
2026-01-28 16:10:18.26	283.17	37.32	-36.9	-37.7	24.8	0.00e+00	49	32	0	854589440	46	6244
2026-01-28 16:10:22.30	281.65	36.87	-37.5	-38.3	24.4	0.00e+00	9	33	0	861929472	46	6652
2026-01-28 16:10:26.34	280.17	36.40	-37.6	-38.5	24.3	0.00e+00	0	33	0	869269504	46	6780
2026-01-28 16:10:30.37	278.74	35.92	-38.0	-38.9	23.8	0.00e+00	92	33	0	876609536	48	6378
2026-01-28 16:10:34.41	277.35	35.42	-37.9	-38.7	24.0	0.00e+00	5	32	0	884998144	48	6244
2026-01-28 16:10:38.45	276.00	34.92	-37.9	-38.7	23.9	0.00e+00	0	33	0	892338176	48	6241
2026-01-28 16:10:42.49	274.69	34.40	-38.3	-39.2	23.6	0.00e+00	8	33	0	899678208	48	6576
2026-01-28 16:10:46.53	273.42	33.88	-38.8	-39.7	23.2	0.00e+00	92	33	0	907018240	50	6215
2026-01-28 16:10:50.57	272.20	33.35	-39.9	-41.0	22.0	0.00e+00	0	33	0	914358272	52	6411
2026-01-28 16:10:54.60	271.01	32.81	-40.0	-41.0	22.1	0.00e+00	76	33	0	922746880	52	6451
2026-01-28 16:10:58.64	269.87	32.27	-40.7	-41.9	21.2	0.00e+00	0	33	0	930086912	52	7116
2026-01-28 16:11:02.67	268.76	31.73	-40.5	-41.7	21.4	0.00e+00	92	33	0	937426944	52	6934
2026-01-28 16:11:06.71	267.69	31.19	-40.5	-41.7	21.3	0.00e+00	79	33	0	944766976	54	6212
2026-01-28 16:11:10.75	266.65	30.64	-40.1	-41.2	21.8	0.00e+00	72	33	0	952107008	54	5860
2026-01-28 16:11:14.78	265.65	30.10	-39.9	-40.9	22.0	0.00e+00	72	33	0	960495616	54	5691
2026-01-28 16:11:18.82	264.68	29.55	-39.9	-41.0	22.0	0.00e+00	92	32	0	967835648	52	6391
2026-01-28 16:11:22.85	263.75	29.01	-39.5	-40.5	22.4	0.00e+00	0	32	0	975175680	52	6097
2026-01-28 16:11:26.89	262.84	28.47	-38.8	-39.8	23.1	0.00e+00	8	33	0	982515712	52	5594
2026-01-28 16:11:30.93	261.97	27.93	-38.9	-39.8	22.6	0.00e+00	0	33	0	990904320	50	6301
2026-01-28 16:11:34.96	261.12	27.40	-38.7	-39.6	23.1	0.00e+00	92	33	0	998244352	50	6169
2026-01-28 16:11:39.00	260.30	26.87	-38.9	-39.9	23.0	0.00e+00	0	33	0	1005584384	50	6359
2026-01-28 16:11:43.03	259.52	26.34	-38.7	-39.7	23.1	0.00e+00	0	33	0	1012924416	50	6187
2026-01-28 16:11:47.07	258.75	25.82	-38.2	-39.1	23.7	0.00e+00	0	33	0	1020264448	50	5774
2026-01-28 16:11:51.11	258.01	25.30	-38.3	-39.2	23.5	0.00e+00	92	32	0	1028653056	50	5874
2026-01-28 16:11:55.14	257.30	24.79	-38.5	-39.4	23.2	0.00e+00	0	33	0	1035993088	50	6033
2026-01-28 16:11:59.18	256.60	24.28	-38.8	-39.7	23.0	0.00e+00	74	33	0	1043333120	50	6215
2026-01-28 16:12:03.22	255.93	23.77	-38.7	-39.7	23.1	0.00e+00	91	33	0	1050673152	50	6194
2026-01-28 16:12:07.26	255.28	23.28	-39.1	-40.0	22.7	0.00e+00	92	33	0	1059061760	50	6453
2026-01-28 16:12:11.29	254.66	22.78	-39.2	-40.2	22.5	0.00e+00	0	33	0	1066401792	50	6555
2026-01-28 16:12:15.33	254.05	22.30	-39.5	-40.5	22.4	0.00e+00	5	33	0	1073741824	50	6791
2026-01-28 16:12:19.37	253.46	21.82	-39.3	-40.3	22.4	0.00e+00	92	33	0	1081081856	50	6681
2026-01-28 16:12:23.41	252.89	21.34	-39.4	-40.4	22.4	0.00e+00	6	33	0	1088421888	50	6716
2026-01-28 16:12:27.44	252.33	20.87	-39.3	-40.3	22.5	0.00e+00	5	33	0	1096810496	50	6647
2026-01-28 16:12:31.47	251.80	20.41	-39.7	-40.8	22.0	0.00e+00	3	33	0	1104150528	52	6269
2026-01-28 16:12:35.51	251.28	19.95	-39.3	-40.3	22.4	0.00e+00	91	33	0	1111490560	52	5946
2026-01-28 16:12:39.55	250.77	19.50	-39.4	-40.4	22.3	0.00e+00	88	32	0	1118830592	52	5994
2026-01-28 16:12:43.58	250.28	19.06	-39.0	-40.0	22.6	0.00e+00	0	32	0	1126170624	52	5714
2026-01-28 16:12:47.62	249.80	18.62	-39.0	-40.0	22.7	0.00e+00	5	32	0	1134559232	52	5747
2026-01-28 16:12:51.66	249.34	18.18	-39.1	-40.2	22.5	0.00e+00	92	32	0	1141899264	52	5831
2026-01-28 16:12:55.69	248.89	17.75	-39.2	-40.3	22.4	0.00e+00	6	32	0	1149239296	52	5905
2026-01-28 16:12:59.73	248.45	17.33	-39.2	-40.2	22.6	0.00e+00	5	32	0	1156579328	52	5863
2026-01-28 16:13:03.77	248.03	16.91	-39.2	-40.2	22.4	0.00e+00	82	32	0	1164967936	52	5896
2026-01-28 16:13:07.80	247.62	16.50	-39.1	-40.1	22.5	0.00e+00	91	32	0	1172307968	52	5776
2026-01-28 16:13:11.84	247.22	16.09	-38.8	-39.8	22.9	0.00e+00	0	32	0	1179648000	52	5600
2026-01-28 16:13:15.87	246.83	15.69	-38.7	-39.6	22.9	0.00e+00	2	32	0	1186988032	50	6170
2026-01-28 16:13:19.90	246.45	15.30	-39.0	-40.0	22.6	0.00e+00	0	33	0	1194328064	50	6417
2026-01-28 16:13:23.94	246.08	14.91	-39.3	-40.4	22.2	0.00e+00	91	33	0	1202716672	50	6711
2026-01-28 16:13:27.97	245.72	14.52	-39.6	-40.7	22.0	0.00e+00	0	33	0	1210056704	50	6943
2026-01-28 16:13:32.01	245.37	14.14	-39.3	-40.4	22.2	0.00e+00	0	32	0	1217396736	50	6722
2026-01-28 16:13:36.04	245.03	13.76	-39.5	-40.6	22.0	0.00e+00	0	32	0	1224736768	50	6854
2026-01-28 16:13:40.08	244.70	13.39	-39.7	-40.8	21.8	0.00e+00	92	33	0	1233125376	52	6254
2026-01-28 16:13:44.13	244.37	13.02	-40.0	-41.2	21.5	0.00e+00	78	32	0	1240465408	52	6544
2026-01-28 16:13:48.16	244.06	12.66	-40.5	-41.7	20.9	0.00e+00	79	32	0	1247805440	52	6990
2026-01-28 16:13:52.20	243.75	12.30	-41.0	-42.3	20.3	0.00e+00	0	33	0	1255145472	54	6667
2026-01-28 16:13:56.24	243.45	11.95	-40.8	-42.2	20.3	0.00e+00	90	32	0	1262485504	54	6553
2026-01-28 16:14:00.28	243.15	11.60	-41.1	-42.5	19.9	0.00e+00	1	33	0	1270874112	54	6815
2026-01-28 16:14:04.32	242.87	11.25	-41.4	-42.8	19.6	0.00e+00	81	33	0	1278214144	54	7058
2026-01-28 16:14:08.36	242.59	10.91	-41.8	-43.3	19.0	0.00e+00	92	33	0	1285554176	54	7468
2026-01-28 16:14:12.40	242.32	10.57	-42.3	-44.1	18.2	0.00e+00	33	33	0	1292894208	56	7254
2026-01-28 16:14:16.43	242.05	10.24	-42.6	-44.4	17.9	0.00e+00	5	33	0	1301282816	56	7537
2026-01-28 16:14:20.47	241.79	9.91	-42.8	-44.7	17.6	0.00e+00	6	33	0	1308622848	58	6984
2026-01-28 16:14:24.51	241.54	9.59	-43.1	-45.2	17.0	0.00e+00	92	33	0	1315962880	58	7363
2026-01-28 16:14:28.54	241.29	9.26	-43.4	-45.7	16.5	0.00e+00	85	33	0	1323302912	58	7775
2026-01-28 16:14:32.58	241.05	8.95	-44.0	-46.5	15.6	0.00e+00	0	33	0	1330642944	60	7613
2026-01-28 16:14:36.62	240.81	8.63	-44.5	-47.3	14.8	0.00e+00	5	33	0	1339031552	60	8371
2026-01-28 16:14:40.66	240.58	8.32	-44.8	-47.9	14.2	1.50e-06	92	33	0	1346371584	60	9002
2026-01-28 16:14:44.70	240.35	8.01	-45.2	-48.7	13.2	9.90e-06	7	33	0	1353711616	60	9808
2026-01-28 16:14:48.74	240.13	7.71	-45.6	-49.5	12.4	1.04e-04	79	33	0	1361051648	60	10752
2026-01-28 16:14:52.78	239.91	7.40	-45.9	-50.3	11.3	7.96e-04	82	33	0	1369440256	60	11859
2026-01-28 16:14:56.81	239.70	7.11	-46.1	-50.9	10.7	2.27e-03	90	33	0	1376780288	60	12652
2026-01-28 16:15:00.85	239.49	6.81	-46.4	-51.8	9.6	1.08e-02	0	33	0	1384120320	60	14049
2026-01-28 16:15:04.89	239.29	6.52	-46.6	-52.7	8.3	4.05e-02	2	33	0	1391460352	60	15639
2026-01-28 16:15:08.92	239.09	6.23	-46.7	-53.4	7.5	8.01e-02	0	33	0	1398800384	60	16865
2026-01-28 16:15:12.96	238.90	5.94	-46.9	-54.3	6.4	1.98e-01	90	33	0	1407188992	60	18747
2026-01-28 16:15:16.99	238.71	5.66	-47.0	-54.8	5.8	3.35e-01	81	33	0	1414529024	60	19877
2026-01-28 16:15:21.03	238.52	5.38	-47.1	-55.6	5.0	5.23e-01	2	33	0	1421869056	60	21838
2026-01-28 16:15:25.06	238.34	5.10	-47.1	-56.6	4.3	7.92e-01	0	33	0	1429209088	60	24352
2026-01-28 16:15:29.10	238.16	4.82	-47.2	-57.5	3.9	1.34e+00	90	33	0	1436549120	60	27107
2026-01-28 16:15:33.14	237.98	4.55	-47.1	-60.0	3.6	1.48e+00	0	33	104	1436549120	60	36118
2026-01-28 16:15:37.17	237.81	4.28	-47.1	-60.5	3.6	1.51e+00	0	33	104	1436549120	60	38427
2026-01-28 16:15:41.21	237.64	4.01	-46.7	-61.8	3.6	1.51e+00	0	33	104	1436549120	60	44290
2026-01-28 16:15:45.24	237.48	3.74	-46.9	-61.7	3.6	1.51e+00	0	33	104	1436549120	60	44012
2026-01-28 16:15:49.28	237.31	3.48	-46.5	-61.7	3.6	1.51e+00	0	33	104	1436549120	60	43750
2026-01-28 16:15:53.32	237.15	3.22	-46.7	-61.7	3.6	1.51e+00	0	33	104	1436549120	60	43881
2026-01-28 16:15:57.35	237.00	2.96	-47.4	-62.6	3.6	1.51e+00	0	33	104	1436549120	60	48902
2026-01-28 16:16:01.39	236.84	2.70	-48.9	-64.1	3.6	1.51e+00	0	33	104	1436549120	60	57664
2026-01-28 16:16:05.43	236.69	2.45	-49.0	-64.2	3.6	1.51e+00	0	33	104	1436549120	60	58761
2026-01-28 16:16:09.47	236.55	2.19	-49.0	-64.2	3.6	1.51e+00	0	33	104	1436549120	60	58847
2026-01-28 16:16:13.51	236.40	1.94	-48.7	-64.1	3.6	1.51e+00	0	33	104	1436549120	60	57900
2026-01-28 16:16:17.55	236.26	1.69	-48.7	-64.1	3.6	1.51e+00	0	33	104	1436549120	60	57813
2026-01-28 16:16:21.59	236.12	1.45	-48.8	-64.1	3.6	1.51e+00	0	33	104	1436549120	60	57885
2026-01-28 16:16:25.63	235.98	1.20	-48.9	-64.1	3.6	1.51e+00	0	33	104	1436549120	60	58009
2026-01-28 16:16:29.67	235.84	0.96	-48.9	-64.1	3.6	1.51e+00	0	33	104	1436549120	60	58147
2026-01-28 16:16:33.70	235.71	0.72	-48.9	-64.1	3.6	1.51e+00	0	33	104	1436549120	60	57788
2026-01-28 16:16:37.75	235.58	0.48	-48.9	-64.1	3.6	1.51e+00	0	33	104	1436549120	60	57782
2026-01-28 16:16:41.79	235.45	0.24	-48.9	-64.1	3.6	1.51e+00	0	33	104	1436549120	60	57814
2026-01-28 16:16:45.83	235.33	0.00	-48.9	-64.1	3.6	1.51e+00	0	33	104	1436549120	60	57971

#Closed at: 2026-01-28 16:16:48
#Recorded file [1436 MB]: D:/lorett/data/35029_260129_040149.dat