passes_logs/2026/01/28/R4.6S_Anadyr/R4.6S_Anadyr__20260128_235615_SUOMI_NPP_rec.log

#Pass ID: 20260128_235615_SUOMI NPP
#Satellite: SUOMI NPP
#Configuration: NPP
#almurnet v.1.7.20251203
#Start time: 2026-01-28 23:56:17

#Version: 2.2.20231116
#Station: R4.6S_Anadyr
#Location: 177.4865 lon 64.73178 lat
#TLE: 1 37849U 11061A   26027.93236865  .00000148  00000+0  91411-4 0  9991
#TLE: 2 37849  98.7823 329.8704 0002085  41.3231 318.8102 14.19530777738546

#Time	Az	El	Level	Level2	SNR	BER	BlckErr	Temp	State	Recorded	gain1	gain2
2026-01-28 23:56:17.89	147.34	0.18	-48.9	-61.3	3.5	1.52e+00	0	30	0	0	60	40948
2026-01-28 23:56:21.93	147.32	0.42	-48.8	-64.0	3.6	1.51e+00	0	31	104	0	60	57015
2026-01-28 23:56:25.97	147.29	0.67	-48.8	-64.0	3.6	1.51e+00	0	31	104	0	60	57541
2026-01-28 23:56:30.01	147.26	0.92	-48.8	-64.0	3.6	1.51e+00	0	32	104	0	60	57209
2026-01-28 23:56:34.05	147.23	1.17	-48.2	-63.6	3.6	1.51e+00	0	32	104	0	60	54934
2026-01-28 23:56:38.08	147.20	1.42	-47.9	-63.1	3.6	1.51e+00	0	32	104	0	60	51738
2026-01-28 23:56:42.12	147.17	1.67	-46.5	-62.1	3.6	1.51e+00	0	32	104	0	60	45885
2026-01-28 23:56:46.16	147.14	1.93	-46.5	-62.0	3.6	1.51e+00	0	32	104	0	60	45699
2026-01-28 23:56:50.20	147.11	2.19	-46.4	-62.1	3.6	1.51e+00	0	32	104	0	60	45918
2026-01-28 23:56:54.25	147.07	2.45	-46.4	-62.2	3.6	1.51e+00	0	32	104	0	60	46535
2026-01-28 23:56:58.29	147.04	2.72	-46.4	-62.0	3.6	1.51e+00	0	32	104	0	60	45584
2026-01-28 23:57:02.33	147.01	2.99	-46.3	-62.2	3.6	1.51e+00	0	32	104	0	60	46368
2026-01-28 23:57:06.36	146.97	3.26	-46.3	-59.5	3.7	1.51e+00	0	32	104	0	60	34167
2026-01-28 23:57:10.40	146.93	3.53	-45.1	-50.7	10.0	5.32e-03	91	32	0	5242880	60	12419
2026-01-28 23:57:14.44	146.90	3.80	-42.1	-44.6	16.5	0.00e+00	92	32	0	12582912	58	6860
2026-01-28 23:57:18.48	146.86	4.08	-41.1	-43.0	17.1	4.90e-01	0	32	104	16777216	54	7172
2026-01-28 23:57:22.51	146.82	4.36	-41.8	-43.9	17.7	0.00e+00	0	32	0	24117248	56	7145
2026-01-28 23:57:26.55	146.78	4.65	-41.0	-42.6	18.8	0.00e+00	76	32	0	31457280	56	6130
2026-01-28 23:57:30.59	146.74	4.93	-40.5	-42.0	19.4	0.00e+00	91	32	0	38797312	54	6457
2026-01-28 23:57:34.63	146.70	5.22	-40.4	-41.9	19.5	0.00e+00	0	32	0	46137344	54	6364
2026-01-28 23:57:38.66	146.65	5.51	-39.8	-41.2	20.0	0.00e+00	92	32	0	54525952	54	5849
2026-01-28 23:57:42.70	146.61	5.81	-39.7	-41.0	20.2	0.00e+00	74	32	0	61865984	52	6446
2026-01-28 23:57:46.73	146.56	6.11	-39.5	-40.8	20.4	0.00e+00	13	32	0	69206016	52	6288
2026-01-28 23:57:50.77	146.52	6.41	-39.2	-40.4	20.9	0.00e+00	0	32	0	76546048	52	6013
2026-01-28 23:57:54.81	146.47	6.72	-39.2	-40.5	20.8	0.00e+00	91	32	0	83886080	52	6048
2026-01-28 23:57:58.84	146.42	7.03	-39.3	-40.6	20.7	0.00e+00	92	32	0	92274688	52	6150
2026-01-28 23:58:02.87	146.37	7.34	-39.7	-41.0	20.3	0.00e+00	0	32	0	99614720	52	6452
2026-01-28 23:58:06.91	146.32	7.66	-39.9	-41.2	20.2	0.00e+00	9	32	0	106954752	52	6601
2026-01-28 23:58:10.95	146.26	7.98	-39.6	-40.9	20.6	0.00e+00	90	32	0	114294784	52	6362
2026-01-28 23:58:14.98	146.21	8.31	-38.8	-39.9	21.4	0.00e+00	92	32	0	121634816	50	6372
2026-01-28 23:58:19.01	146.15	8.64	-38.6	-39.7	21.7	0.00e+00	0	32	0	130023424	50	6221
2026-01-28 23:58:23.05	146.09	8.97	-39.0	-40.1	21.3	0.00e+00	47	32	0	137363456	50	6528
2026-01-28 23:58:27.09	146.03	9.31	-39.2	-40.4	21.2	0.00e+00	92	32	0	144703488	50	6723
2026-01-28 23:58:31.13	145.97	9.66	-38.4	-39.5	21.8	0.00e+00	92	32	0	152043520	50	6075
2026-01-28 23:58:35.16	145.91	10.01	-37.9	-38.8	22.4	0.00e+00	0	32	0	160432128	50	5616
2026-01-28 23:58:39.19	145.84	10.36	-38.0	-39.0	22.3	0.00e+00	84	32	0	167772160	50	5707
2026-01-28 23:58:43.23	145.78	10.72	-38.3	-39.4	22.0	0.00e+00	92	32	0	175112192	50	5992
2026-01-28 23:58:47.27	145.71	11.08	-38.3	-39.4	21.9	0.00e+00	0	32	0	182452224	50	5988
2026-01-28 23:58:51.31	145.64	11.45	-37.8	-38.8	22.6	0.00e+00	0	32	0	189792256	48	6247
2026-01-28 23:58:55.34	145.56	11.83	-37.0	-37.9	23.2	0.00e+00	92	32	0	198180864	48	5689
2026-01-28 23:58:59.38	145.49	12.21	-37.5	-38.4	22.8	0.00e+00	92	32	0	205520896	48	6028
2026-01-28 23:59:03.41	145.41	12.59	-37.0	-38.0	23.2	0.00e+00	0	32	0	212860928	48	5705
2026-01-28 23:59:07.45	145.33	12.99	-36.8	-37.7	23.5	0.00e+00	9	32	0	220200960	48	5512
2026-01-28 23:59:11.49	145.25	13.39	-36.7	-37.6	23.6	0.00e+00	73	32	0	228589568	46	6140
2026-01-28 23:59:15.53	145.16	13.79	-36.8	-37.6	23.6	0.00e+00	90	32	0	235929600	46	6165
2026-01-28 23:59:19.56	145.07	14.20	-36.8	-37.7	23.5	0.00e+00	0	32	0	243269632	46	6232
2026-01-28 23:59:23.61	144.98	14.63	-36.5	-37.3	23.8	0.00e+00	90	32	0	250609664	46	5934
2026-01-28 23:59:27.65	144.89	15.05	-36.4	-37.2	23.9	0.00e+00	92	32	0	257949696	46	5878
2026-01-28 23:59:31.69	144.79	15.49	-36.1	-36.9	23.8	0.00e+00	92	32	0	266338304	46	5693
2026-01-28 23:59:35.72	144.69	15.93	-36.3	-37.1	23.8	0.00e+00	0	32	0	273678336	46	5796
2026-01-28 23:59:39.76	144.59	16.38	-36.0	-36.9	24.2	0.00e+00	92	32	0	281018368	46	5650
2026-01-28 23:59:43.80	144.48	16.84	-36.0	-36.8	24.3	0.00e+00	92	32	0	288358400	46	5572
2026-01-28 23:59:47.84	144.37	17.31	-36.1	-37.0	24.2	0.00e+00	0	32	0	296747008	46	5709
2026-01-28 23:59:51.87	144.26	17.78	-36.5	-37.4	23.9	0.00e+00	0	32	0	304087040	46	6008
2026-01-28 23:59:55.91	144.14	18.27	-36.3	-37.2	24.0	0.00e+00	92	32	0	311427072	46	5845
2026-01-28 23:59:59.95	144.01	18.77	-36.0	-36.8	24.3	0.00e+00	92	32	0	318767104	46	5605
2026-01-29 00:00:03.99	143.88	19.27	-36.1	-37.0	24.3	0.00e+00	0	32	0	326107136	46	5715
2026-01-29 00:00:08.02	143.75	19.79	-36.2	-37.0	24.2	0.00e+00	0	32	0	334495744	46	5744
2026-01-29 00:00:12.06	143.61	20.31	-36.1	-37.0	24.2	0.00e+00	89	32	0	341835776	46	5707
2026-01-29 00:00:16.10	143.47	20.85	-35.8	-36.6	24.5	0.00e+00	92	32	0	349175808	46	5486
2026-01-29 00:00:20.14	143.32	21.40	-35.8	-36.6	24.5	0.00e+00	32	32	0	356515840	44	6124
2026-01-29 00:00:24.18	143.17	21.96	-35.9	-36.7	24.4	0.00e+00	92	32	0	364904448	44	6195
2026-01-29 00:00:28.22	143.01	22.54	-36.4	-37.2	24.1	0.00e+00	91	32	0	372244480	44	6588
2026-01-29 00:00:32.26	142.84	23.12	-36.5	-37.4	24.1	0.00e+00	3	32	0	379584512	46	5966
2026-01-29 00:00:36.29	142.67	23.72	-36.1	-36.9	24.4	0.00e+00	0	32	0	386924544	46	5675
2026-01-29 00:00:40.33	142.48	24.34	-36.3	-37.2	24.1	0.00e+00	92	32	0	394264576	44	6541
2026-01-29 00:00:44.37	142.29	24.96	-38.0	-39.0	22.8	0.00e+00	90	32	0	402653184	48	6407
2026-01-29 00:00:48.41	142.10	25.61	-37.1	-38.0	23.7	0.00e+00	0	32	0	409993216	48	5703
2026-01-29 00:00:52.44	141.89	26.27	-37.3	-38.2	23.5	0.00e+00	9	32	0	417333248	46	6552
2026-01-29 00:00:56.48	141.67	26.94	-37.5	-38.4	23.3	0.00e+00	92	32	0	424673280	46	6742
2026-01-29 00:01:00.52	141.45	27.63	-38.5	-39.5	22.5	0.00e+00	92	32	0	433061888	48	6801
2026-01-29 00:01:04.55	141.21	28.34	-38.4	-39.4	22.5	0.00e+00	0	32	0	440401920	48	6738
2026-01-29 00:01:08.59	140.96	29.07	-38.2	-39.2	22.7	0.00e+00	92	32	0	447741952	48	6565
2026-01-29 00:01:12.64	140.70	29.81	-38.7	-39.7	22.3	0.00e+00	92	32	0	455081984	48	6974
2026-01-29 00:01:16.67	140.43	30.57	-38.6	-39.6	22.5	0.00e+00	71	32	0	462422016	50	6145
2026-01-29 00:01:20.71	140.14	31.36	-39.0	-40.0	21.9	0.00e+00	0	32	0	470810624	50	6462
2026-01-29 00:01:24.75	139.84	32.16	-40.1	-41.2	20.9	0.00e+00	92	32	0	478150656	52	6596
2026-01-29 00:01:28.79	139.52	32.99	-40.0	-41.2	21.1	0.00e+00	92	32	0	485490688	54	5830
2026-01-29 00:01:32.82	139.19	33.84	-40.4	-41.7	20.9	0.00e+00	0	32	0	492830720	52	6928
2026-01-29 00:01:36.86	138.83	34.71	-40.6	-41.8	20.6	0.00e+00	0	32	0	501219328	54	6317
2026-01-29 00:01:40.90	138.45	35.60	-39.8	-41.0	21.5	0.00e+00	85	32	0	508559360	52	6411
2026-01-29 00:01:44.94	138.06	36.52	-40.4	-41.7	20.6	0.00e+00	92	32	0	515899392	54	6209
2026-01-29 00:01:48.97	137.64	37.46	-31.8	-40.8	16.0	0.00e+00	4	33	0	523239424	42	11188
2026-01-29 00:01:53.02	137.19	38.43	-32.5	-39.9	18.1	2.88e-02	63	32	0	530579456	36	14145
2026-01-29 00:01:57.05	136.71	39.42	-40.1	-41.3	21.0	0.00e+00	92	32	0	538968064	52	6631
2026-01-29 00:02:01.09	136.20	40.45	-39.7	-40.9	21.3	0.00e+00	92	32	0	546308096	52	6348
2026-01-29 00:02:05.12	135.66	41.49	-39.3	-40.4	21.9	0.00e+00	0	32	0	553648128	52	5973
2026-01-29 00:02:09.16	135.08	42.57	-40.0	-41.1	21.2	0.00e+00	92	32	0	560988160	52	6524
2026-01-29 00:02:13.20	134.46	43.67	-39.7	-40.8	21.5	0.00e+00	92	32	0	568328192	52	6309
2026-01-29 00:02:17.24	133.79	44.81	-39.7	-40.9	21.6	0.00e+00	91	32	0	576716800	52	6326
2026-01-29 00:02:21.27	133.08	45.96	-38.7	-39.8	22.3	0.00e+00	0	33	0	584056832	50	6282
2026-01-29 00:02:25.31	132.30	47.15	-38.3	-39.3	22.7	0.00e+00	92	32	0	591396864	50	5951
2026-01-29 00:02:29.34	131.47	48.37	-37.6	-38.5	23.3	0.00e+00	92	32	0	598736896	48	6082
2026-01-29 00:02:33.38	130.56	49.61	-37.5	-38.5	23.4	0.00e+00	0	33	0	607125504	48	6034
2026-01-29 00:02:37.41	129.58	50.88	-37.9	-39.0	22.9	0.00e+00	69	32	0	614465536	48	6395
2026-01-29 00:02:41.45	128.50	52.18	-38.3	-39.4	22.7	0.00e+00	92	32	0	621805568	48	6729
2026-01-29 00:02:45.49	127.33	53.50	-36.6	-37.4	24.2	0.00e+00	92	32	0	629145600	46	5968
2026-01-29 00:02:49.52	126.04	54.84	-38.0	-38.9	22.9	0.00e+00	0	32	0	636485632	48	6368
2026-01-29 00:02:53.55	124.62	56.19	-38.5	-39.5	22.6	0.00e+00	77	32	0	644874240	48	6787
2026-01-29 00:02:57.59	123.05	57.57	-38.3	-39.3	22.8	0.00e+00	80	32	0	652214272	50	5907
2026-01-29 00:03:01.61	121.33	58.94	-38.3	-39.3	22.7	0.00e+00	90	32	0	659554304	48	6656
2026-01-29 00:03:05.64	119.40	60.33	-37.9	-38.9	23.1	0.00e+00	0	33	0	666894336	48	6351
2026-01-29 00:03:09.68	117.25	61.71	-38.5	-39.5	22.5	0.00e+00	92	32	0	674234368	50	6046
2026-01-29 00:03:13.72	114.84	63.09	-36.4	-37.2	24.5	0.00e+00	88	33	0	682622976	46	5875
2026-01-29 00:03:17.75	112.15	64.44	-36.4	-37.2	24.2	0.00e+00	0	32	0	689963008	44	6614
2026-01-29 00:03:21.79	109.11	65.76	-37.1	-38.0	23.7	0.00e+00	0	32	0	697303040	46	6415
2026-01-29 00:03:25.83	105.68	67.03	-40.5	-41.8	20.4	0.00e+00	92	33	0	704643072	54	6315
2026-01-29 00:03:29.86	101.84	68.23	-40.2	-41.4	20.9	0.00e+00	92	32	0	713031680	54	6012
2026-01-29 00:03:33.90	97.52	69.35	-39.8	-40.9	21.5	0.00e+00	0	32	0	720371712	52	6362
2026-01-29 00:03:37.94	92.69	70.36	-39.4	-40.5	21.7	0.00e+00	0	32	0	727711744	50	6818
2026-01-29 00:03:41.98	87.34	71.22	-38.4	-39.4	22.6	0.00e+00	86	33	0	735051776	50	5985
2026-01-29 00:03:46.02	81.49	71.93	-40.1	-41.4	20.7	0.00e+00	92	32	0	742391808	52	6723
2026-01-29 00:03:50.06	75.21	72.44	-40.8	-42.2	20.3	0.00e+00	0	32	0	750780416	56	5852
2026-01-29 00:03:54.10	68.61	72.75	-39.9	-41.2	20.6	0.00e+00	65	33	0	758120448	54	5839
2026-01-29 00:03:58.14	61.85	72.83	-38.8	-39.8	22.3	0.00e+00	90	32	0	765460480	52	5613
2026-01-29 00:04:02.18	55.13	72.68	-36.9	-37.8	23.9	0.00e+00	0	33	0	772800512	46	6249
2026-01-29 00:04:06.21	48.63	72.31	-38.9	-40.0	22.1	0.00e+00	0	32	0	781189120	50	6392
2026-01-29 00:04:10.24	42.48	71.74	-39.1	-40.1	21.9	0.00e+00	90	33	0	788529152	50	6490
2026-01-29 00:04:14.28	36.78	70.99	-41.1	-42.4	20.0	0.00e+00	92	32	0	795869184	54	6753
2026-01-29 00:04:18.31	31.60	70.08	-42.7	-44.5	17.4	0.00e+00	0	32	0	803209216	58	6825
2026-01-29 00:04:22.35	26.92	69.04	-40.6	-41.9	20.6	0.00e+00	0	33	0	810549248	54	6370
2026-01-29 00:04:26.39	22.74	67.90	-38.0	-38.8	22.9	0.00e+00	86	32	0	818937856	50	5624
2026-01-29 00:04:30.43	19.02	66.68	-37.8	-38.7	23.0	0.00e+00	91	32	0	826277888	48	6215
2026-01-29 00:04:34.47	15.72	65.39	-36.0	-36.8	24.7	0.00e+00	0	33	0	833617920	46	5571
2026-01-29 00:04:38.50	12.79	64.07	-35.6	-36.4	24.9	0.00e+00	90	33	0	840957952	44	6001
2026-01-29 00:04:42.54	10.18	62.71	-37.0	-37.9	23.8	0.00e+00	84	32	0	848297984	46	6347
2026-01-29 00:04:46.58	7.85	61.33	-38.1	-39.2	22.3	0.00e+00	0	33	0	856686592	48	6556
2026-01-29 00:04:50.62	5.77	59.95	-38.6	-39.7	22.7	0.00e+00	0	32	0	864026624	50	6207
2026-01-29 00:04:54.65	3.91	58.57	-39.4	-40.5	21.8	0.00e+00	92	32	0	871366656	50	6804
2026-01-29 00:04:58.69	2.23	57.19	-35.8	-36.6	24.6	0.00e+00	69	32	0	878706688	46	5485
2026-01-29 00:05:02.72	0.71	55.83	-37.7	-38.7	23.3	0.00e+00	0	32	0	887095296	46	6946
2026-01-29 00:05:06.76	359.33	54.48	-38.7	-39.7	22.4	0.00e+00	0	33	0	894435328	50	6213
2026-01-29 00:05:10.80	358.08	53.14	-36.2	-37.0	24.5	0.00e+00	90	32	0	901775360	46	5707
2026-01-29 00:05:14.83	356.94	51.84	-35.5	-36.2	24.9	0.00e+00	92	32	0	909115392	44	5866
2026-01-29 00:05:18.87	355.89	50.55	-37.6	-38.5	23.3	0.00e+00	0	32	0	916455424	46	6791
2026-01-29 00:05:22.91	354.93	49.29	-39.6	-40.7	21.5	0.00e+00	83	33	0	924844032	52	6198
2026-01-29 00:05:26.94	354.05	48.06	-40.5	-41.9	20.6	0.00e+00	62	32	0	932184064	54	6345
2026-01-29 00:05:30.98	353.23	46.86	-39.6	-40.7	21.8	0.00e+00	13	33	0	939524096	54	5539
2026-01-29 00:05:35.02	352.48	45.68	-38.9	-40.0	22.3	0.00e+00	0	33	0	946864128	50	6416
2026-01-29 00:05:39.06	351.78	44.53	-40.3	-41.5	20.9	0.00e+00	61	32	0	955252736	54	6089
2026-01-29 00:05:43.10	351.12	43.41	-39.6	-40.8	20.4	0.00e+00	92	32	0	962592768	50	7009
2026-01-29 00:05:47.14	350.52	42.32	-40.2	-41.4	21.0	0.00e+00	0	33	0	969932800	52	6694
2026-01-29 00:05:51.18	349.95	41.26	-38.7	-39.7	22.4	0.00e+00	0	33	0	977272832	50	6238
2026-01-29 00:05:55.21	349.42	40.22	-42.9	-44.9	17.9	0.00e+00	81	33	0	984612864	58	7146
2026-01-29 00:05:59.25	348.92	39.21	-38.7	-39.7	22.5	0.00e+00	92	33	0	993001472	50	6193
2026-01-29 00:06:03.29	348.46	38.23	-37.0	-37.9	23.9	0.00e+00	0	32	0	1000341504	48	5662
2026-01-29 00:06:07.32	348.02	37.27	-39.9	-41.1	21.1	0.00e+00	57	32	0	1007681536	52	6537
2026-01-29 00:06:11.36	347.61	36.34	-39.7	-40.9	21.5	0.00e+00	72	32	0	1015021568	54	5657
2026-01-29 00:06:15.40	347.22	35.43	-40.3	-41.6	20.8	0.00e+00	0	32	0	1023410176	52	6891
2026-01-29 00:06:19.44	346.85	34.55	-40.5	-41.7	20.7	0.00e+00	0	32	0	1030750208	54	6241
2026-01-29 00:06:23.47	346.50	33.69	-38.5	-39.5	22.5	0.00e+00	92	33	0	1038090240	50	6037
2026-01-29 00:06:27.51	346.17	32.85	-39.2	-40.3	22.0	0.00e+00	91	32	0	1045430272	50	6656
2026-01-29 00:06:31.54	345.86	32.03	-41.0	-42.3	20.9	0.00e+00	0	33	0	1052770304	52	7483
2026-01-29 00:06:35.58	345.57	31.24	-41.8	-43.3	19.4	0.00e+00	0	32	0	1061158912	56	6648
2026-01-29 00:06:39.62	345.28	30.46	-39.6	-40.7	21.7	0.00e+00	49	32	0	1068498944	52	6190
2026-01-29 00:06:43.66	345.02	29.70	-38.4	-39.4	22.5	0.00e+00	81	33	0	1075838976	50	5988
2026-01-29 00:06:47.69	344.76	28.97	-38.2	-39.1	22.7	0.00e+00	0	32	0	1083179008	50	5822
2026-01-29 00:06:51.73	344.52	28.25	-37.8	-38.8	23.1	0.00e+00	0	32	0	1091567616	50	5582
2026-01-29 00:06:55.76	344.29	27.55	-38.8	-39.8	22.3	0.00e+00	43	32	0	1098907648	50	6270
2026-01-29 00:06:59.79	344.07	26.87	-39.4	-40.6	21.7	0.00e+00	79	32	0	1106247680	50	6860
2026-01-29 00:07:03.83	343.86	26.20	-37.8	-38.7	23.2	0.00e+00	0	32	0	1113587712	50	5527
2026-01-29 00:07:07.86	343.65	25.55	-37.0	-37.9	23.7	0.00e+00	73	32	0	1120927744	48	5664
2026-01-29 00:07:11.90	343.46	24.91	-37.6	-38.5	23.2	0.00e+00	79	32	0	1129316352	48	6098
2026-01-29 00:07:15.93	343.27	24.29	-37.8	-38.7	23.1	0.00e+00	0	33	0	1136656384	48	6232
2026-01-29 00:07:19.96	343.10	23.68	-37.5	-38.4	23.3	0.00e+00	0	32	0	1143996416	48	5982
2026-01-29 00:07:24.00	342.93	23.09	-38.2	-39.2	22.8	0.00e+00	78	32	0	1151336448	48	6570
2026-01-29 00:07:28.03	342.76	22.51	-38.8	-39.9	22.1	0.00e+00	62	32	0	1158676480	50	6343
2026-01-29 00:07:32.07	342.61	21.94	-38.4	-39.4	22.6	0.00e+00	0	32	0	1167065088	50	6005
2026-01-29 00:07:36.11	342.46	21.38	-38.6	-39.6	22.3	0.00e+00	0	33	0	1174405120	50	6133
2026-01-29 00:07:40.14	342.31	20.84	-38.8	-39.8	22.2	0.00e+00	92	32	0	1181745152	50	6275
2026-01-29 00:07:44.18	342.17	20.31	-38.4	-39.3	22.6	0.00e+00	0	32	0	1189085184	50	5953
2026-01-29 00:07:48.21	342.04	19.78	-38.1	-39.1	22.7	0.00e+00	0	32	0	1197473792	50	5763
2026-01-29 00:07:52.25	341.91	19.27	-37.5	-38.4	23.2	0.00e+00	17	32	0	1204813824	48	6028
2026-01-29 00:07:56.28	341.78	18.77	-37.4	-38.3	23.3	0.00e+00	73	32	0	1212153856	48	5952
2026-01-29 00:08:00.32	341.66	18.28	-38.3	-39.3	22.5	0.00e+00	0	32	0	1219493888	48	6687
2026-01-29 00:08:04.36	341.55	17.80	-39.0	-40.1	21.7	0.00e+00	0	33	0	1226833920	50	6479
2026-01-29 00:08:08.39	341.44	17.33	-40.0	-41.3	20.9	0.00e+00	76	33	0	1235222528	52	6652
2026-01-29 00:08:12.43	341.33	16.86	-40.0	-41.3	20.9	0.00e+00	0	32	0	1242562560	52	6643
2026-01-29 00:08:16.47	341.23	16.41	-39.8	-41.1	20.9	0.00e+00	0	32	0	1249902592	52	6513
2026-01-29 00:08:20.51	341.12	15.96	-40.0	-41.4	20.6	0.00e+00	0	32	0	1257242624	52	6693
2026-01-29 00:08:24.54	341.03	15.52	-40.3	-41.7	20.3	0.00e+00	68	32	0	1264582656	52	6997
2026-01-29 00:08:28.58	340.93	15.09	-40.7	-42.3	19.8	0.00e+00	0	32	0	1272971264	52	7508
2026-01-29 00:08:32.61	340.84	14.66	-40.7	-42.3	19.8	0.00e+00	0	32	0	1280311296	54	6664
2026-01-29 00:08:36.65	340.76	14.25	-40.6	-42.2	20.0	0.00e+00	0	33	0	1287651328	54	6562
2026-01-29 00:08:40.68	340.67	13.84	-40.5	-42.0	20.1	0.00e+00	75	33	0	1294991360	54	6435
2026-01-29 00:08:44.72	340.59	13.43	-39.7	-41.1	20.8	0.00e+00	0	32	0	1303379968	52	6490
2026-01-29 00:08:48.75	340.51	13.04	-39.3	-40.6	21.4	0.00e+00	0	33	0	1310720000	52	6138
2026-01-29 00:08:52.79	340.43	12.65	-39.1	-40.4	21.5	0.00e+00	0	33	0	1318060032	52	5983
2026-01-29 00:08:56.82	340.36	12.26	-39.1	-40.4	21.4	0.00e+00	92	32	0	1325400064	52	6014
2026-01-29 00:09:00.86	340.29	11.89	-39.1	-40.3	21.5	0.00e+00	0	32	0	1332740096	52	5939
2026-01-29 00:09:04.90	340.22	11.51	-39.2	-40.5	21.3	0.00e+00	0	32	0	1341128704	52	6081
2026-01-29 00:09:08.94	340.15	11.14	-39.1	-40.4	21.4	0.00e+00	23	32	0	1348468736	52	6013
2026-01-29 00:09:12.98	340.08	10.78	-39.3	-40.6	21.1	0.00e+00	0	32	0	1355808768	52	6160
2026-01-29 00:09:17.01	340.02	10.43	-39.1	-40.4	21.4	0.00e+00	0	32	0	1363148800	52	5975
2026-01-29 00:09:21.05	339.96	10.07	-39.3	-40.6	21.1	0.00e+00	0	32	0	1370488832	52	6121
2026-01-29 00:09:25.09	339.90	9.73	-39.9	-41.3	20.6	0.00e+00	92	32	0	1378877440	52	6663
2026-01-29 00:09:29.13	339.84	9.39	-39.1	-40.4	21.3	0.00e+00	0	32	0	1386217472	52	5980
2026-01-29 00:09:33.17	339.78	9.05	-39.5	-40.8	20.9	0.00e+00	0	33	0	1393557504	52	6285
2026-01-29 00:09:37.21	339.73	8.72	-39.2	-40.5	21.1	0.00e+00	0	32	0	1400897536	52	6070
2026-01-29 00:09:41.24	339.68	8.39	-39.3	-40.6	21.2	0.00e+00	65	33	0	1409286144	52	6112
2026-01-29 00:09:45.28	339.63	8.06	-39.6	-40.9	20.7	0.00e+00	0	32	0	1416626176	52	6366
2026-01-29 00:09:49.32	339.58	7.74	-39.5	-40.8	20.8	0.00e+00	0	32	0	1423966208	52	6272
2026-01-29 00:09:53.36	339.53	7.43	-39.6	-40.9	20.5	0.00e+00	18	32	0	1431306240	52	6341
2026-01-29 00:09:57.40	339.48	7.11	-40.2	-41.6	20.1	0.00e+00	0	33	0	1438646272	52	6894
2026-01-29 00:10:01.44	339.43	6.80	-40.2	-41.6	20.1	0.00e+00	0	32	0	1447034880	54	6119
2026-01-29 00:10:05.47	339.39	6.50	-40.2	-41.6	19.7	0.00e+00	0	33	0	1454374912	54	6167
2026-01-29 00:10:09.51	339.35	6.20	-40.8	-42.3	19.3	0.00e+00	63	32	0	1461714944	54	6683
2026-01-29 00:10:13.55	339.31	5.90	-41.1	-42.7	18.8	0.00e+00	0	32	0	1469054976	54	6981
2026-01-29 00:10:17.59	339.26	5.60	-41.9	-43.8	17.8	0.00e+00	0	32	0	1477443584	54	7900
2026-01-29 00:10:21.62	339.22	5.31	-42.5	-44.8	16.5	0.00e+00	0	33	0	1484783616	58	7058
2026-01-29 00:10:25.66	339.19	5.03	-43.0	-46.1	14.2	0.00e+00	92	33	0	1492123648	58	8158
2026-01-29 00:10:29.70	339.15	4.74	-43.6	-48.1	11.3	2.14e-04	0	33	0	1499463680	58	10349
2026-01-29 00:10:33.74	339.11	4.46	-43.9	-50.6	7.2	6.88e-02	0	33	0	1506803712	60	12223
2026-01-29 00:10:37.77	339.08	4.18	-43.9	-53.1	4.4	8.73e-01	41	33	0	1515192320	60	16279
2026-01-29 00:10:41.81	339.04	3.90	-43.8	-57.5	3.6	1.49e+00	0	33	104	1516240896	60	26960
2026-01-29 00:10:45.85	339.01	3.63	-43.9	-59.0	3.6	1.51e+00	0	33	104	1516240896	60	32085
2026-01-29 00:10:49.89	338.98	3.36	-43.9	-58.7	3.6	1.51e+00	0	33	104	1516240896	60	31015
2026-01-29 00:10:53.92	338.95	3.09	-43.9	-59.0	3.6	1.51e+00	0	33	104	1516240896	60	32275
2026-01-29 00:10:57.96	338.92	2.82	-48.1	-63.3	3.6	1.51e+00	0	33	104	1516240896	60	52807
2026-01-29 00:11:02.00	338.89	2.56	-48.7	-63.9	3.6	1.51e+00	0	33	104	1516240896	60	56344
2026-01-29 00:11:06.04	338.86	2.30	-48.8	-64.0	3.5	1.51e+00	0	33	104	1516240896	60	57425
2026-01-29 00:11:10.08	338.83	2.04	-48.6	-64.0	3.6	1.51e+00	0	33	104	1516240896	60	57228
2026-01-29 00:11:14.12	338.80	1.78	-48.7	-63.9	3.6	1.51e+00	0	33	104	1516240896	60	56739
2026-01-29 00:11:18.16	338.78	1.53	-48.7	-63.9	3.6	1.51e+00	0	33	104	1516240896	60	56637
2026-01-29 00:11:22.20	338.75	1.28	-48.7	-63.9	3.6	1.51e+00	0	33	104	1516240896	60	56733
2026-01-29 00:11:26.24	338.73	1.03	-48.7	-63.9	3.6	1.51e+00	0	33	104	1516240896	60	56708
2026-01-29 00:11:30.28	338.70	0.78	-48.7	-63.9	3.6	1.51e+00	0	33	104	1516240896	60	56624
2026-01-29 00:11:34.32	338.68	0.53	-48.7	-63.9	3.6	1.51e+00	0	32	104	1516240896	60	56722
2026-01-29 00:11:38.36	338.65	0.29	-48.7	-63.9	3.6	1.51e+00	0	33	104	1516240896	60	56562
2026-01-29 00:11:42.41	338.63	0.05	-48.7	-63.9	3.6	1.51e+00	0	33	104	1516240896	60	56782

#Closed at: 2026-01-29 00:11:45
#Recorded file [1516 MB]: D:/lorett/data/35029_260129_115617.dat