passes_logs/2026/01/28/R4.6S_Anadyr/R4.6S_Anadyr__20260128_005910_KOSAR1-5_rec.log

#Pass ID: 20260128_005910_KOSAR1-5
#Satellite: KOSAR1-5
#Configuration: KOSAR1-5
#almurnet v.1.7.20251203
#Start time: 2026-01-28 00:59:12

#Version: 2.2.20231116
#Station: R4.6S_Anadyr
#Location: 177.4865 lon 64.73178 lat
#TLE: 1 67264U 25313S   26027.43234714  .00011684  00000+0  53854-3 0  9991
#TLE: 2 67264  97.4175 104.3970 0016458 139.6900 220.5558 15.20303503  4548

#Time	Az	El	Level	Level2	SNR	BER	BlckErr	Temp	State	Recorded	gain1	gain2
2026-01-28 00:59:12.51	16.62	0.15	-48.9	-63.8	3.5	1.51e+00	0	30	0	0	60	56036
2026-01-28 00:59:15.54	16.45	0.33	-45.6	-60.3	3.6	1.51e+00	0	31	104	0	60	42146
2026-01-28 00:59:18.57	16.27	0.52	-45.7	-60.3	3.6	1.51e+00	0	31	104	0	60	42172
2026-01-28 00:59:21.60	16.09	0.70	-45.8	-60.5	3.6	1.51e+00	0	31	104	0	60	43019
2026-01-28 00:59:24.63	15.91	0.89	-45.8	-60.5	3.6	1.51e+00	0	31	104	0	60	43082
2026-01-28 00:59:27.66	15.73	1.08	-45.7	-60.4	3.6	1.51e+00	0	31	104	0	60	42374
2026-01-28 00:59:30.68	15.54	1.27	-45.5	-60.1	3.6	1.51e+00	0	31	104	0	60	41263
2026-01-28 00:59:33.71	15.35	1.46	-44.9	-59.6	3.6	1.51e+00	0	31	104	0	60	38550
2026-01-28 00:59:36.74	15.16	1.65	-44.4	-59.1	3.6	1.51e+00	0	31	104	0	60	36532
2026-01-28 00:59:39.78	14.96	1.85	-44.4	-59.1	3.6	1.51e+00	0	31	104	0	60	36414
2026-01-28 00:59:42.81	14.76	2.04	-44.4	-59.1	3.6	1.51e+00	0	31	104	0	60	36467
2026-01-28 00:59:45.84	14.55	2.24	-44.3	-59.0	3.6	1.51e+00	0	31	104	0	60	36204
2026-01-28 00:59:48.87	14.34	2.44	-44.3	-59.1	3.6	1.51e+00	0	31	104	0	60	36367
2026-01-28 00:59:51.90	14.13	2.64	-44.3	-59.0	3.6	1.51e+00	0	32	104	0	60	36254
2026-01-28 00:59:54.92	13.91	2.84	-44.3	-59.0	3.6	1.51e+00	0	31	104	0	60	36245
2026-01-28 00:59:57.95	13.69	3.04	-44.3	-59.0	3.6	1.51e+00	0	31	104	0	60	36070
2026-01-28 01:00:00.98	13.47	3.25	-44.3	-59.0	3.6	1.51e+00	0	32	104	0	60	35960
2026-01-28 01:00:04.01	13.24	3.46	-44.3	-59.0	3.6	1.51e+00	0	32	104	0	60	36037
2026-01-28 01:00:07.05	13.00	3.67	-44.3	-59.0	3.6	1.51e+00	0	32	104	0	60	35995
2026-01-28 01:00:10.07	12.76	3.88	-44.3	-59.0	3.6	1.51e+00	0	32	104	0	60	36162
2026-01-28 01:00:13.10	12.52	4.09	-44.3	-59.0	3.6	1.51e+00	0	32	104	0	60	36347
2026-01-28 01:00:16.13	12.27	4.30	-44.5	-59.2	3.6	1.51e+00	0	32	104	0	60	36871
2026-01-28 01:00:19.17	12.02	4.52	-44.4	-59.1	3.6	1.51e+00	0	32	104	0	60	36518
2026-01-28 01:00:22.19	11.76	4.73	-44.6	-59.3	3.6	1.51e+00	0	32	104	0	60	37487
2026-01-28 01:00:25.22	11.50	4.95	-44.6	-59.2	3.6	1.51e+00	0	32	104	0	60	37194
2026-01-28 01:00:28.25	11.23	5.18	-44.7	-59.4	3.6	1.51e+00	0	32	104	0	60	37926
2026-01-28 01:00:31.28	10.96	5.40	-44.5	-59.2	3.6	1.51e+00	0	32	104	0	60	37186
2026-01-28 01:00:34.32	10.68	5.63	-44.8	-59.4	3.6	1.51e+00	0	32	104	0	60	38026
2026-01-28 01:00:37.35	10.39	5.85	-44.6	-59.4	3.6	1.51e+00	0	32	104	0	60	37669
2026-01-28 01:00:40.38	10.10	6.08	-44.7	-59.5	3.6	1.51e+00	0	32	104	0	60	38242
2026-01-28 01:00:43.41	9.80	6.31	-44.7	-59.4	3.6	1.51e+00	0	32	104	0	60	37944
2026-01-28 01:00:46.44	9.50	6.55	-44.8	-59.5	3.6	1.51e+00	0	32	104	0	60	38344
2026-01-28 01:00:49.47	9.19	6.79	-44.8	-59.5	3.6	1.51e+00	0	32	104	0	60	38281
2026-01-28 01:00:52.49	8.87	7.02	-44.9	-59.6	3.6	1.51e+00	0	32	104	0	60	38544
2026-01-28 01:00:55.52	8.55	7.26	-44.8	-59.5	3.6	1.51e+00	0	32	104	0	60	38363
2026-01-28 01:00:58.55	8.22	7.51	-44.9	-59.6	3.5	1.51e+00	0	32	104	0	60	38531
2026-01-28 01:01:01.57	7.88	7.75	-44.9	-59.6	3.6	1.51e+00	0	32	104	0	60	38737
2026-01-28 01:01:04.60	7.53	8.00	-44.9	-59.7	3.6	1.51e+00	0	32	104	0	60	39073
2026-01-28 01:01:07.63	7.18	8.25	-44.9	-59.6	3.6	1.51e+00	0	32	104	0	60	38622
2026-01-28 01:01:10.66	6.82	8.50	-45.0	-59.7	3.6	1.51e+00	0	32	104	0	60	39226
2026-01-28 01:01:13.69	6.45	8.76	-45.0	-59.6	3.6	1.51e+00	0	32	104	0	60	38860
2026-01-28 01:01:16.72	6.07	9.02	-45.0	-59.7	3.6	1.51e+00	0	32	104	0	60	39295
2026-01-28 01:01:19.75	5.68	9.28	-45.0	-59.7	3.6	1.51e+00	0	32	104	0	60	39350
2026-01-28 01:01:22.78	5.29	9.54	-45.0	-59.7	3.6	1.51e+00	0	32	104	0	60	39114
2026-01-28 01:01:25.81	4.88	9.80	-45.1	-59.8	3.6	1.51e+00	0	32	104	0	60	39434
2026-01-28 01:01:28.84	4.47	10.07	-45.0	-59.7	3.6	1.51e+00	0	32	104	0	60	39061
2026-01-28 01:01:31.87	4.04	10.34	-45.0	-59.7	3.6	1.51e+00	0	32	104	0	60	39215
2026-01-28 01:01:34.90	3.61	10.62	-45.0	-59.7	3.6	1.51e+00	0	32	104	0	60	39324
2026-01-28 01:01:37.93	3.16	10.89	-45.1	-59.9	3.6	1.51e+00	0	32	104	0	60	39999
2026-01-28 01:01:40.96	2.71	11.17	-45.1	-59.8	3.6	1.51e+00	0	32	104	0	60	39665
2026-01-28 01:01:43.98	2.24	11.45	-45.2	-59.8	3.6	1.51e+00	0	32	104	0	60	39859
2026-01-28 01:01:47.01	1.76	11.74	-45.0	-59.8	3.6	1.51e+00	0	32	104	0	60	39686
2026-01-28 01:01:50.04	1.27	12.03	-45.2	-59.9	3.6	1.51e+00	0	32	104	0	60	40080
2026-01-28 01:01:53.07	0.77	12.32	-45.2	-60.0	3.6	1.51e+00	0	32	104	0	60	40605
2026-01-28 01:01:56.10	0.26	12.61	-44.9	-59.9	3.6	1.51e+00	0	32	104	0	60	40009
2026-01-28 01:01:59.14	359.73	12.90	-45.0	-59.8	3.6	1.51e+00	0	32	104	0	60	39856
2026-01-28 01:02:02.17	359.19	13.20	-45.1	-59.8	3.6	1.51e+00	0	32	104	0	60	39838
2026-01-28 01:02:05.20	358.63	13.50	-45.0	-59.8	3.6	1.51e+00	0	32	104	0	60	39634
2026-01-28 01:02:08.23	358.06	13.81	-45.0	-59.6	3.6	1.51e+00	0	32	104	0	60	38810
2026-01-28 01:02:11.26	357.48	14.11	-45.1	-59.7	3.6	1.51e+00	0	32	104	0	60	39350
2026-01-28 01:02:14.29	356.88	14.42	-45.1	-59.6	3.6	1.51e+00	0	32	104	0	60	38611
2026-01-28 01:02:17.31	356.27	14.73	-45.2	-59.7	3.6	1.51e+00	0	32	104	0	60	39289
2026-01-28 01:02:20.34	355.64	15.04	-45.2	-59.9	3.6	1.51e+00	0	32	104	0	60	40225
2026-01-28 01:02:23.37	355.00	15.36	-45.2	-59.9	3.6	1.51e+00	0	32	104	0	60	40052
2026-01-28 01:02:26.40	354.34	15.67	-45.2	-59.8	3.6	1.51e+00	0	32	104	0	60	39718
2026-01-28 01:02:29.43	353.66	15.99	-45.2	-59.8	3.6	1.51e+00	0	32	104	0	60	39820
2026-01-28 01:02:32.46	352.96	16.31	-45.4	-60.1	3.6	1.51e+00	0	32	104	0	60	40966
2026-01-28 01:02:35.49	352.24	16.64	-45.4	-60.1	3.6	1.51e+00	0	32	104	0	60	41004
2026-01-28 01:02:38.52	351.51	16.96	-45.5	-60.1	3.6	1.51e+00	0	32	104	0	60	41164
2026-01-28 01:02:41.55	350.76	17.29	-45.5	-60.2	3.6	1.51e+00	0	32	104	0	60	41544
2026-01-28 01:02:44.58	349.99	17.61	-45.5	-60.3	3.6	1.51e+00	0	32	104	0	60	41946
2026-01-28 01:02:47.61	349.19	17.94	-45.5	-60.2	3.6	1.51e+00	0	32	104	0	60	41505
2026-01-28 01:02:50.64	348.38	18.27	-45.6	-60.2	3.6	1.51e+00	0	32	104	0	60	41694
2026-01-28 01:02:53.67	347.55	18.59	-45.3	-60.2	3.6	1.51e+00	0	32	104	0	60	41345
2026-01-28 01:02:56.70	346.69	18.92	-45.5	-60.2	3.6	1.51e+00	0	32	104	0	60	41450
2026-01-28 01:02:59.73	345.82	19.25	-45.5	-60.2	3.6	1.51e+00	0	32	104	0	60	41401
2026-01-28 01:03:02.75	344.92	19.57	-45.6	-60.2	3.6	1.51e+00	0	32	104	0	60	41680
2026-01-28 01:03:05.79	344.00	19.90	-45.5	-60.1	3.6	1.51e+00	0	32	104	0	60	41245
2026-01-28 01:03:08.81	343.06	20.22	-45.5	-60.2	3.6	1.51e+00	0	32	104	0	60	41465
2026-01-28 01:03:11.84	342.09	20.54	-45.5	-60.2	3.6	1.51e+00	0	32	104	0	60	41628
2026-01-28 01:03:14.87	341.10	20.86	-45.5	-60.3	3.6	1.51e+00	0	32	104	0	60	41925
2026-01-28 01:03:17.90	340.08	21.18	-45.3	-60.2	3.6	1.51e+00	0	32	104	0	60	41457
2026-01-28 01:03:20.94	339.04	21.49	-45.5	-60.2	3.6	1.51e+00	0	32	104	0	60	41664
2026-01-28 01:03:23.97	337.97	21.80	-45.4	-60.2	3.6	1.51e+00	0	33	104	0	60	41420
2026-01-28 01:03:27.00	336.89	22.10	-45.6	-60.3	3.6	1.51e+00	0	32	104	0	60	42104
2026-01-28 01:03:30.03	335.78	22.39	-45.5	-60.2	3.6	1.51e+00	0	32	104	0	60	41595
2026-01-28 01:03:33.06	334.64	22.68	-45.4	-60.2	3.6	1.51e+00	0	32	104	0	60	41714
2026-01-28 01:03:36.08	333.48	22.96	-45.5	-60.2	3.6	1.51e+00	0	33	104	0	60	41641
2026-01-28 01:03:39.11	332.30	23.24	-45.5	-60.3	3.6	1.51e+00	0	33	104	0	60	41776
2026-01-28 01:03:42.14	331.09	23.51	-45.5	-60.3	3.6	1.51e+00	0	33	104	0	60	41786
2026-01-28 01:03:45.17	329.86	23.76	-45.6	-60.3	3.6	1.51e+00	0	33	104	0	60	41817
2026-01-28 01:03:48.20	328.61	24.01	-45.6	-60.3	3.6	1.51e+00	0	32	104	0	60	42110
2026-01-28 01:03:51.23	327.33	24.24	-45.6	-60.4	3.6	1.51e+00	0	32	104	0	60	42274
2026-01-28 01:03:54.26	326.03	24.47	-45.7	-60.4	3.6	1.51e+00	0	33	104	0	60	42227
2026-01-28 01:03:57.29	324.72	24.68	-45.7	-60.4	3.6	1.51e+00	0	32	104	0	60	42308
2026-01-28 01:04:00.32	323.38	24.88	-45.7	-60.4	3.6	1.51e+00	0	32	104	0	60	42449
2026-01-28 01:04:03.35	322.02	25.06	-45.7	-60.4	3.6	1.51e+00	0	33	104	0	60	42520
2026-01-28 01:04:06.38	320.65	25.23	-45.7	-60.3	3.6	1.51e+00	0	32	104	0	60	42173
2026-01-28 01:04:09.41	319.26	25.38	-45.6	-60.4	3.6	1.51e+00	0	32	104	0	60	42413
2026-01-28 01:04:12.44	317.86	25.52	-45.7	-60.4	3.6	1.51e+00	0	33	104	0	60	42463
2026-01-28 01:04:15.47	316.44	25.64	-45.6	-60.4	3.6	1.51e+00	0	33	104	0	60	42575
2026-01-28 01:04:18.50	315.01	25.75	-45.7	-60.4	3.6	1.51e+00	0	33	104	0	60	42613
2026-01-28 01:04:21.53	313.58	25.84	-45.6	-60.4	3.6	1.51e+00	0	33	104	0	60	42673
2026-01-28 01:04:24.56	312.13	25.91	-45.6	-60.4	3.6	1.51e+00	0	32	104	0	60	42566
2026-01-28 01:04:27.58	310.68	25.96	-45.7	-60.4	3.6	1.51e+00	0	33	104	0	60	42569
2026-01-28 01:04:30.61	309.23	25.99	-45.7	-60.5	3.6	1.51e+00	0	32	104	0	60	42905
2026-01-28 01:04:33.64	307.77	26.00	-45.6	-60.3	3.5	1.51e+00	0	33	104	0	60	42179
2026-01-28 01:04:36.67	306.31	26.00	-45.6	-60.4	3.6	1.51e+00	0	33	104	0	60	42441
2026-01-28 01:04:39.70	304.85	25.98	-45.5	-60.4	3.6	1.51e+00	0	33	104	0	60	42564
2026-01-28 01:04:42.73	303.39	25.93	-45.5	-60.4	3.6	1.51e+00	0	32	104	0	60	42684
2026-01-28 01:04:45.75	301.94	25.87	-45.5	-60.4	3.6	1.51e+00	0	33	104	0	60	42235
2026-01-28 01:04:48.78	300.50	25.80	-45.5	-60.4	3.6	1.51e+00	0	32	104	0	60	42227
2026-01-28 01:04:51.81	299.06	25.70	-45.6	-60.4	3.6	1.51e+00	0	33	104	0	60	42460
2026-01-28 01:04:54.84	297.64	25.59	-45.6	-60.4	3.6	1.51e+00	0	32	104	0	60	42275
2026-01-28 01:04:57.87	296.22	25.46	-45.6	-60.4	3.6	1.51e+00	0	32	104	0	60	42438
2026-01-28 01:05:00.90	294.82	25.31	-45.6	-60.3	3.6	1.51e+00	0	33	104	0	60	42183
2026-01-28 01:05:03.93	293.44	25.15	-45.7	-60.4	3.6	1.51e+00	0	32	104	0	60	42268
2026-01-28 01:05:06.96	292.07	24.97	-45.6	-60.4	3.6	1.51e+00	0	32	104	0	60	42239
2026-01-28 01:05:09.99	290.72	24.78	-45.6	-60.4	3.6	1.51e+00	0	33	104	0	60	42375
2026-01-28 01:05:13.02	289.39	24.57	-45.7	-60.3	3.6	1.51e+00	0	32	104	0	60	42051
2026-01-28 01:05:16.05	288.07	24.36	-45.6	-60.3	3.6	1.51e+00	0	33	104	0	60	42212
2026-01-28 01:05:19.08	286.78	24.12	-45.6	-60.3	3.6	1.51e+00	0	32	104	0	60	41918
2026-01-28 01:05:22.11	285.51	23.88	-45.6	-60.3	3.6	1.51e+00	0	32	104	0	60	42108
2026-01-28 01:05:25.14	284.26	23.63	-45.6	-60.3	3.6	1.51e+00	0	33	104	0	60	41832
2026-01-28 01:05:28.17	283.04	23.37	-45.6	-60.3	3.6	1.51e+00	0	32	104	0	60	41792
2026-01-28 01:05:31.21	281.83	23.09	-45.3	-60.3	3.6	1.51e+00	0	33	104	0	60	41779
2026-01-28 01:05:34.24	280.65	22.81	-45.6	-60.2	3.6	1.51e+00	0	33	104	0	60	41712
2026-01-28 01:05:37.27	279.50	22.52	-45.6	-60.3	3.6	1.51e+00	0	33	104	0	60	41745
2026-01-28 01:05:40.30	278.36	22.23	-45.6	-60.3	3.6	1.51e+00	0	33	104	0	60	41905
2026-01-28 01:05:43.32	277.26	21.93	-45.6	-60.2	3.6	1.51e+00	0	32	104	0	60	41670
2026-01-28 01:05:46.35	276.18	21.62	-45.6	-60.2	3.6	1.51e+00	0	33	104	0	60	41726
2026-01-28 01:05:49.38	275.12	21.31	-45.6	-60.2	3.6	1.51e+00	0	33	104	0	60	41638
2026-01-28 01:05:52.41	274.09	21.00	-45.5	-60.2	3.6	1.51e+00	0	33	104	0	60	41601
2026-01-28 01:05:55.44	273.08	20.68	-45.5	-60.3	3.6	1.51e+00	0	33	104	0	60	41781
2026-01-28 01:05:58.47	272.09	20.36	-45.5	-60.2	3.6	1.51e+00	0	33	104	0	60	41391
2026-01-28 01:06:01.49	271.13	20.03	-45.5	-60.2	3.6	1.51e+00	0	33	104	0	60	41514
2026-01-28 01:06:04.52	270.19	19.70	-45.5	-60.1	3.6	1.51e+00	0	33	104	0	60	41150
2026-01-28 01:06:07.55	269.28	19.38	-45.5	-60.2	3.6	1.51e+00	0	33	104	0	60	41443
2026-01-28 01:06:10.58	268.38	19.05	-45.5	-60.2	3.6	1.51e+00	0	33	104	0	60	41393
2026-01-28 01:06:13.61	267.51	18.72	-45.5	-60.2	3.6	1.51e+00	0	33	104	0	60	41281
2026-01-28 01:06:16.64	266.66	18.39	-45.5	-60.1	3.6	1.51e+00	0	33	104	0	60	41244
2026-01-28 01:06:19.66	265.83	18.06	-45.5	-60.1	3.6	1.51e+00	0	33	104	0	60	41104
2026-01-28 01:06:22.69	265.02	17.73	-45.4	-60.1	3.6	1.51e+00	0	33	104	0	60	41094
2026-01-28 01:06:25.72	264.24	17.40	-45.4	-60.1	3.6	1.51e+00	0	33	104	0	60	41174
2026-01-28 01:06:28.75	263.47	17.07	-45.4	-60.1	3.6	1.51e+00	0	33	104	0	60	41088
2026-01-28 01:06:31.78	262.72	16.74	-45.4	-60.1	3.6	1.51e+00	0	33	104	0	60	41062
2026-01-28 01:06:34.81	261.99	16.42	-45.4	-60.0	3.6	1.51e+00	0	33	104	0	60	40759
2026-01-28 01:06:37.84	261.28	16.09	-45.4	-60.0	3.6	1.51e+00	0	33	104	0	60	40755
2026-01-28 01:06:40.87	260.58	15.77	-45.4	-60.1	3.6	1.51e+00	0	33	104	0	60	40943
2026-01-28 01:06:43.90	259.91	15.45	-45.3	-60.0	3.6	1.51e+00	0	33	104	0	60	40438
2026-01-28 01:06:46.93	259.25	15.13	-45.3	-60.0	3.6	1.51e+00	0	33	104	0	60	40743
2026-01-28 01:06:49.95	258.61	14.81	-45.3	-60.0	3.6	1.51e+00	0	33	104	0	60	40483
2026-01-28 01:06:52.98	257.98	14.50	-45.4	-60.0	3.6	1.51e+00	0	33	104	0	60	40722
2026-01-28 01:06:56.01	257.37	14.19	-45.3	-60.0	3.6	1.51e+00	0	33	104	0	60	40626
2026-01-28 01:06:59.04	256.78	13.88	-45.3	-60.0	3.6	1.51e+00	0	33	104	0	60	40438
2026-01-28 01:07:02.07	256.20	13.57	-45.3	-60.0	3.6	1.51e+00	0	32	104	0	60	40506
2026-01-28 01:07:05.09	255.63	13.27	-45.3	-60.0	3.5	1.51e+00	0	33	104	0	60	40336
2026-01-28 01:07:08.12	255.08	12.96	-45.3	-60.0	3.6	1.51e+00	0	32	104	0	60	40421
2026-01-28 01:07:11.15	254.54	12.67	-45.2	-59.9	3.6	1.51e+00	0	32	104	0	60	40046
2026-01-28 01:07:14.18	254.02	12.37	-45.3	-59.9	3.6	1.51e+00	0	32	104	0	60	40286
2026-01-28 01:07:17.21	253.50	12.08	-45.2	-59.9	3.6	1.51e+00	0	32	104	0	60	40090
2026-01-28 01:07:20.23	253.01	11.79	-45.2	-59.9	3.6	1.51e+00	0	32	104	0	60	40109
2026-01-28 01:07:23.26	252.52	11.50	-45.1	-59.8	3.6	1.51e+00	0	33	104	0	60	39589
2026-01-28 01:07:26.29	252.04	11.21	-45.2	-59.8	3.6	1.51e+00	0	33	104	0	60	39749
2026-01-28 01:07:29.32	251.57	10.93	-45.2	-59.8	3.6	1.51e+00	0	32	104	0	60	39631
2026-01-28 01:07:32.35	251.12	10.65	-45.1	-59.8	3.6	1.51e+00	0	33	104	0	60	39422
2026-01-28 01:07:35.38	250.68	10.37	-45.1	-59.7	3.6	1.51e+00	0	32	104	0	60	39293
2026-01-28 01:07:38.41	250.24	10.10	-45.1	-59.8	3.6	1.51e+00	0	32	104	0	60	39456
2026-01-28 01:07:41.44	249.82	9.83	-45.1	-59.7	3.6	1.51e+00	0	32	104	0	60	39397
2026-01-28 01:07:44.47	249.41	9.56	-45.1	-59.7	3.6	1.51e+00	0	32	104	0	60	39311
2026-01-28 01:07:47.50	249.00	9.29	-44.9	-59.6	3.6	1.51e+00	0	32	104	0	60	38830
2026-01-28 01:07:50.53	248.61	9.03	-45.0	-59.7	3.5	1.51e+00	0	32	104	0	60	39134
2026-01-28 01:07:53.56	248.22	8.77	-45.0	-59.7	3.6	1.51e+00	0	32	104	0	60	38966
2026-01-28 01:07:56.59	247.84	8.51	-44.8	-59.6	3.6	1.51e+00	0	33	104	0	60	38923
2026-01-28 01:07:59.62	247.47	8.25	-44.7	-59.4	3.6	1.51e+00	0	33	104	0	60	37983
2026-01-28 01:08:02.65	247.11	8.00	-44.7	-59.5	3.6	1.51e+00	0	32	104	0	60	38086
2026-01-28 01:08:05.68	246.76	7.75	-44.6	-59.4	3.6	1.51e+00	0	33	104	0	60	37721
2026-01-28 01:08:08.71	246.41	7.50	-44.6	-59.3	3.6	1.51e+00	0	33	104	0	60	37347
2026-01-28 01:08:11.74	246.07	7.25	-44.3	-59.2	3.6	1.51e+00	0	32	104	0	60	36854
2026-01-28 01:08:14.77	245.74	7.01	-44.3	-59.1	3.6	1.51e+00	0	32	104	0	60	36691
2026-01-28 01:08:17.80	245.42	6.77	-44.4	-59.1	3.6	1.51e+00	0	32	104	0	60	36517
2026-01-28 01:08:20.83	245.10	6.53	-44.3	-59.1	3.6	1.51e+00	0	32	104	0	60	36541
2026-01-28 01:08:23.86	244.79	6.29	-44.2	-58.9	3.6	1.51e+00	0	33	104	0	60	35757
2026-01-28 01:08:26.89	244.49	6.06	-44.1	-58.8	3.6	1.51e+00	0	32	104	0	60	35268
2026-01-28 01:08:29.92	244.19	5.83	-44.2	-58.9	3.6	1.51e+00	0	32	104	0	60	35830
2026-01-28 01:08:32.96	243.90	5.60	-44.1	-58.8	3.6	1.51e+00	0	32	104	0	60	35367
2026-01-28 01:08:35.99	243.61	5.37	-44.2	-59.0	3.6	1.51e+00	0	33	104	0	60	36348
2026-01-28 01:08:39.02	243.33	5.14	-44.6	-59.4	3.6	1.51e+00	0	33	104	0	60	38004
2026-01-28 01:08:42.04	243.06	4.92	-44.1	-59.0	3.6	1.51e+00	0	32	104	0	60	36040
2026-01-28 01:08:45.07	242.79	4.70	-43.8	-58.8	3.6	1.51e+00	0	32	104	0	60	35445
2026-01-28 01:08:48.10	242.53	4.48	-43.6	-58.6	3.6	1.51e+00	0	32	104	0	60	34592
2026-01-28 01:08:51.13	242.27	4.26	-43.4	-58.6	3.6	1.51e+00	0	33	104	0	60	34405
2026-01-28 01:08:54.16	242.02	4.04	-43.6	-58.6	3.6	1.51e+00	0	32	104	0	60	34628
2026-01-28 01:08:57.20	241.77	3.83	-43.3	-58.4	3.5	1.51e+00	0	32	104	0	60	33834
2026-01-28 01:09:00.23	241.52	3.62	-44.0	-58.9	3.6	1.51e+00	0	32	104	0	60	35755
2026-01-28 01:09:03.25	241.28	3.41	-43.8	-58.7	3.6	1.51e+00	0	32	104	0	60	34886
2026-01-28 01:09:06.28	241.05	3.20	-44.1	-59.1	3.6	1.51e+00	0	32	104	0	60	36664
2026-01-28 01:09:09.31	240.82	2.99	-42.7	-58.8	3.6	1.51e+00	0	32	104	0	60	35153
2026-01-28 01:09:12.34	240.59	2.79	-45.3	-60.0	3.6	1.51e+00	0	32	104	0	60	40534
2026-01-28 01:09:15.37	240.37	2.58	-45.7	-60.4	3.6	1.51e+00	0	32	104	0	60	42311
2026-01-28 01:09:18.40	240.15	2.38	-45.9	-60.5	3.6	1.51e+00	0	33	104	0	60	43035
2026-01-28 01:09:21.44	239.94	2.18	-45.9	-60.6	3.6	1.51e+00	0	32	104	0	60	43509
2026-01-28 01:09:24.46	239.73	1.98	-45.7	-60.6	3.6	1.51e+00	0	33	104	0	60	43609
2026-01-28 01:09:27.49	239.52	1.78	-45.8	-60.5	3.6	1.51e+00	0	32	104	0	60	43046
2026-01-28 01:09:30.52	239.32	1.59	-45.6	-60.5	3.6	1.51e+00	0	33	104	0	60	42914
2026-01-28 01:09:33.54	239.12	1.39	-45.4	-60.3	3.6	1.51e+00	0	32	104	0	60	41926
2026-01-28 01:09:36.57	238.93	1.20	-45.7	-60.4	3.6	1.51e+00	0	32	104	0	60	42684
2026-01-28 01:09:39.59	238.73	1.01	-45.7	-60.4	3.6	1.51e+00	0	32	104	0	60	42487
2026-01-28 01:09:42.63	238.55	0.82	-45.6	-60.4	3.6	1.51e+00	0	33	104	0	60	42400
2026-01-28 01:09:45.66	238.36	0.63	-45.6	-60.4	3.6	1.51e+00	0	32	104	0	60	42312
2026-01-28 01:09:48.69	238.18	0.44	-45.6	-60.3	3.6	1.51e+00	0	33	104	0	60	41970
2026-01-28 01:09:51.72	238.00	0.26	-45.6	-60.4	3.6	1.51e+00	0	33	104	0	60	42235
2026-01-28 01:09:54.75	237.82	0.07	-45.6	-60.3	3.6	1.51e+00	0	32	104	0	60	41963
2026-01-28 01:09:57.78	237.65	-0.11	-45.6	-60.3	3.6	1.51e+00	0	33	104	0	60	41908

#Closed at: 2026-01-28 01:09:58
#Recorded file [0 MB]: D:/lorett/data/35029_260128_125912.dat