passes_logs/2026/01/28/R4.6S_Anadyr/R4.6S_Anadyr__20260128_181814_FENGYUN_3D_rec.log

#Pass ID: 20260128_181814_FENGYUN 3D
#Satellite: FENGYUN 3D
#Configuration: FENGYUN 3D
#almurnet v.1.7.20251203
#Start time: 2026-01-28 18:18:16

#Version: 2.2.20231116
#Station: R4.6S_Anadyr
#Location: 177.4865 lon 64.73178 lat
#TLE: 1 43010U 17072A   26027.90082829  .00000305  00000+0  16579-3 0  9998
#TLE: 2 43010  98.9960 359.9183 0002511  88.1058 272.0405 14.19701796425082

#Time	Az	El	Level	Level2	SNR	BER	BlckErr	Temp	State	Recorded	gain1	gain2
2026-01-28 18:18:16.97	25.55	0.16	-48.7	-63.6	3.5	1.51e+00	0	30	0	0	60	54640
2026-01-28 18:18:21.01	25.41	0.39	-48.6	-60.7	3.6	8.45e-01	0	31	104	0	60	39208
2026-01-28 18:18:25.05	25.27	0.63	-48.7	-60.8	3.6	8.46e-01	0	31	104	0	60	39518
2026-01-28 18:18:29.08	25.13	0.86	-48.6	-60.7	3.6	8.45e-01	0	31	104	0	60	39146
2026-01-28 18:18:33.13	24.98	1.10	-48.3	-60.5	3.6	8.46e-01	0	31	104	0	60	38111
2026-01-28 18:18:37.17	24.83	1.34	-47.9	-60.0	3.6	8.45e-01	0	31	104	0	60	36329
2026-01-28 18:18:41.20	24.68	1.59	-47.2	-59.4	3.6	8.45e-01	0	31	104	0	60	33586
2026-01-28 18:18:45.24	24.53	1.83	-47.2	-59.3	3.6	8.45e-01	0	31	104	0	60	33257
2026-01-28 18:18:49.28	24.38	2.08	-47.2	-59.1	3.6	8.46e-01	0	32	104	0	60	32583
2026-01-28 18:18:53.31	24.22	2.33	-47.2	-59.2	3.6	8.46e-01	0	32	104	0	60	33094
2026-01-28 18:18:57.35	24.05	2.58	-47.2	-59.2	3.6	8.45e-01	0	32	104	0	60	33044
2026-01-28 18:19:01.39	23.89	2.83	-47.1	-58.0	3.6	8.45e-01	0	32	104	0	60	28747
2026-01-28 18:19:05.43	23.72	3.09	-47.1	-58.8	3.6	8.45e-01	0	32	104	0	60	31492
2026-01-28 18:19:09.47	23.55	3.34	-44.6	-47.9	10.0	2.96e-02	0	32	0	4194304	60	8995
2026-01-28 18:19:13.51	23.38	3.60	-39.5	-40.7	17.6	0.00e+00	0	32	0	27262976	52	6187
2026-01-28 18:19:17.55	23.20	3.86	-40.2	-41.6	14.0	0.00e+00	0	32	0	49283072	46	9698
2026-01-28 18:19:21.59	23.02	4.13	-39.6	-40.8	18.0	0.00e+00	0	32	0	60817408	52	6304
2026-01-28 18:19:25.63	22.83	4.39	-38.6	-39.7	18.9	0.00e+00	0	32	0	82837504	52	5553
2026-01-28 18:19:29.67	22.64	4.66	-37.4	-38.3	19.8	0.00e+00	0	32	0	105906176	50	5269
2026-01-28 18:19:33.71	22.45	4.93	-37.9	-38.9	19.5	0.00e+00	0	32	0	128974848	46	7154
2026-01-28 18:19:37.75	22.25	5.21	-36.1	-36.9	21.5	0.00e+00	0	32	0	150994944	46	5681
2026-01-28 18:19:41.79	22.05	5.48	-34.7	-35.5	22.9	0.00e+00	0	32	0	174063616	42	6062
2026-01-28 18:19:45.83	21.85	5.76	-34.8	-35.6	22.8	0.00e+00	0	32	0	197132288	42	6130
2026-01-28 18:19:49.86	21.64	6.04	-34.8	-35.6	22.9	0.00e+00	0	32	0	219152384	42	6141
2026-01-28 18:19:53.90	21.42	6.32	-34.7	-35.5	22.9	0.00e+00	0	32	0	242221056	42	6071
2026-01-28 18:19:57.94	21.20	6.61	-34.7	-35.5	23.2	0.00e+00	0	32	0	265289728	42	6063
2026-01-28 18:20:01.98	20.98	6.90	-34.7	-35.5	23.1	0.00e+00	0	32	0	287309824	42	6074
2026-01-28 18:20:06.01	20.75	7.19	-34.4	-35.2	23.3	0.00e+00	0	32	0	310378496	42	5842
2026-01-28 18:20:10.05	20.52	7.48	-34.3	-35.1	23.5	0.00e+00	0	32	0	333447168	42	5768
2026-01-28 18:20:14.09	20.28	7.78	-34.8	-35.6	23.1	0.00e+00	0	32	0	355467264	42	6129
2026-01-28 18:20:18.13	20.04	8.08	-34.2	-34.9	23.7	0.00e+00	0	32	0	378535936	42	5652
2026-01-28 18:20:22.16	19.79	8.38	-33.9	-34.7	24.0	0.00e+00	0	32	0	401604608	42	5516
2026-01-28 18:20:26.20	19.54	8.69	-33.7	-34.5	24.2	0.00e+00	0	32	0	423624704	40	6056
2026-01-28 18:20:30.24	19.28	9.00	-34.0	-34.7	23.9	0.00e+00	0	32	0	446693376	40	6230
2026-01-28 18:20:34.28	19.01	9.31	-33.5	-34.2	24.3	0.00e+00	0	32	0	469762048	40	5887
2026-01-28 18:20:38.31	18.74	9.63	-33.4	-34.1	24.4	0.00e+00	0	32	0	491782144	40	5808
2026-01-28 18:20:42.35	18.46	9.95	-33.4	-34.2	24.5	0.00e+00	0	32	0	514850816	40	5835
2026-01-28 18:20:46.39	18.18	10.27	-33.3	-34.0	24.6	0.00e+00	0	32	0	537919488	40	5707
2026-01-28 18:20:50.42	17.89	10.60	-33.3	-34.0	24.7	0.00e+00	0	32	0	559939584	40	5739
2026-01-28 18:20:54.47	17.59	10.93	-33.2	-33.8	24.7	0.00e+00	0	32	0	583008256	40	5630
2026-01-28 18:20:58.51	17.28	11.26	-33.0	-33.7	24.9	0.00e+00	0	32	0	606076928	40	5548
2026-01-28 18:21:02.55	16.97	11.60	-32.8	-33.5	25.1	0.00e+00	0	32	0	628097024	38	6068
2026-01-28 18:21:06.59	16.65	11.94	-32.8	-33.5	25.2	0.00e+00	0	32	0	651165696	38	6053
2026-01-28 18:21:10.62	16.32	12.29	-32.8	-33.5	25.2	0.00e+00	0	32	0	674234368	38	6039
2026-01-28 18:21:14.65	15.98	12.64	-32.8	-33.5	25.3	0.00e+00	0	32	0	696254464	38	6050
2026-01-28 18:21:18.69	15.64	12.99	-32.5	-33.2	25.5	0.00e+00	0	32	0	719323136	38	5847
2026-01-28 18:21:22.73	15.28	13.35	-32.7	-33.4	25.4	0.00e+00	0	32	0	742391808	38	5977
2026-01-28 18:21:26.77	14.92	13.71	-32.3	-33.0	25.7	0.00e+00	0	32	0	764411904	38	5704
2026-01-28 18:21:30.81	14.55	14.08	-32.5	-33.2	25.4	0.00e+00	0	32	0	787480576	38	5871
2026-01-28 18:21:34.85	14.17	14.45	-32.4	-33.1	25.7	0.00e+00	0	32	0	810549248	38	5791
2026-01-28 18:21:38.88	13.77	14.82	-32.4	-33.1	25.6	0.00e+00	0	32	0	832569344	38	5824
2026-01-28 18:21:42.92	13.37	15.20	-32.2	-32.9	25.8	0.00e+00	0	32	0	855638016	38	5655
2026-01-28 18:21:46.96	12.96	15.58	-32.1	-32.8	25.9	0.00e+00	0	32	0	878706688	38	5569
2026-01-28 18:21:51.00	12.53	15.97	-31.9	-32.6	26.2	0.00e+00	0	32	0	900726784	38	5464
2026-01-28 18:21:55.04	12.10	16.36	-31.7	-32.4	26.3	0.00e+00	0	32	0	923795456	36	5989
2026-01-28 18:21:59.07	11.65	16.76	-31.6	-32.2	26.5	0.00e+00	0	32	0	945815552	36	5871
2026-01-28 18:22:03.11	11.19	17.16	-31.6	-32.3	26.5	0.00e+00	0	32	0	968884224	36	5914
2026-01-28 18:22:07.15	10.71	17.57	-31.5	-32.2	26.5	0.00e+00	0	32	0	991952896	36	5846
2026-01-28 18:22:11.19	10.22	17.98	-31.4	-32.0	26.6	0.00e+00	0	32	0	1015021568	36	5761
2026-01-28 18:22:15.23	9.72	18.40	-31.2	-31.9	26.8	0.00e+00	0	32	0	1037041664	36	5649
2026-01-28 18:22:19.27	9.21	18.82	-31.2	-31.8	26.8	0.00e+00	0	32	0	1060110336	36	5622
2026-01-28 18:22:23.31	8.68	19.24	-31.1	-31.7	27.0	0.00e+00	0	32	0	1083179008	36	5557
2026-01-28 18:22:27.35	8.13	19.67	-30.5	-31.1	27.4	0.00e+00	0	32	0	1105199104	34	5826
2026-01-28 18:22:31.39	7.57	20.11	-30.5	-31.2	27.4	0.00e+00	0	32	0	1128267776	34	5852
2026-01-28 18:22:35.43	6.99	20.55	-30.8	-31.4	27.1	0.00e+00	0	32	0	1150287872	34	6025
2026-01-28 18:22:39.47	6.39	20.99	-30.8	-31.4	27.2	0.00e+00	0	32	0	1173356544	34	6022
2026-01-28 18:22:43.50	5.78	21.44	-30.6	-31.3	27.3	0.00e+00	0	32	0	1196425216	34	5910
2026-01-28 18:22:47.54	5.15	21.89	-30.1	-30.7	27.8	0.00e+00	0	32	0	1219493888	34	5551
2026-01-28 18:22:51.57	4.50	22.35	-30.1	-30.7	27.8	0.00e+00	0	32	0	1241513984	34	5532
2026-01-28 18:22:55.61	3.83	22.81	-30.3	-30.9	27.8	0.00e+00	0	32	0	1264582656	34	5689
2026-01-28 18:22:59.65	3.13	23.28	-30.6	-31.3	27.3	0.00e+00	0	32	0	1287651328	34	5902
2026-01-28 18:23:03.69	2.42	23.74	-30.2	-30.9	27.7	0.00e+00	0	32	0	1309671424	34	5637
2026-01-28 18:23:07.73	1.68	24.22	-30.3	-31.0	27.6	0.00e+00	0	32	0	1332740096	34	5701
2026-01-28 18:23:11.77	0.92	24.69	-30.0	-30.6	27.9	0.00e+00	0	32	0	1354760192	34	5472
2026-01-28 18:23:15.81	0.14	25.17	-29.8	-30.5	28.0	0.00e+00	0	32	0	1377828864	32	6059
2026-01-28 18:23:19.84	359.34	25.65	-29.9	-30.5	28.0	0.00e+00	0	32	0	1400897536	32	6103
2026-01-28 18:23:23.88	358.50	26.14	-29.8	-30.4	28.1	0.00e+00	0	32	0	1423966208	32	6012
2026-01-28 18:23:27.92	357.64	26.62	-29.8	-30.4	28.1	0.00e+00	0	32	0	1445986304	32	6014
2026-01-28 18:23:31.96	356.76	27.11	-29.6	-30.2	28.2	0.00e+00	0	32	0	1469054976	32	5876
2026-01-28 18:23:36.00	355.84	27.59	-29.5	-30.1	28.3	0.00e+00	0	32	0	1492123648	32	5768
2026-01-28 18:23:40.04	354.90	28.08	-29.5	-30.0	28.3	0.00e+00	0	32	0	1514143744	32	5760
2026-01-28 18:23:44.08	353.93	28.57	-29.8	-30.4	28.1	0.00e+00	0	32	0	1537212416	32	6008
2026-01-28 18:23:48.11	352.93	29.06	-29.2	-29.8	28.5	0.00e+00	0	32	0	1559232512	32	5591
2026-01-28 18:23:52.15	351.89	29.54	-29.2	-29.8	28.5	0.00e+00	0	32	0	1582301184	32	5619
2026-01-28 18:23:56.19	350.83	30.02	-29.3	-29.9	28.5	0.00e+00	0	32	0	1605369856	32	5695
2026-01-28 18:24:00.23	349.73	30.50	-29.4	-30.0	28.4	0.00e+00	0	32	0	1627389952	32	5723
2026-01-28 18:24:04.27	348.60	30.98	-29.2	-29.8	28.6	0.00e+00	0	32	0	1650458624	32	5577
2026-01-28 18:24:08.30	347.44	31.44	-29.1	-29.7	28.6	0.00e+00	0	32	0	1673527296	32	5535
2026-01-28 18:24:12.34	346.24	31.91	-29.0	-29.6	28.7	0.00e+00	0	32	0	1696595968	32	5474
2026-01-28 18:24:16.38	345.00	32.36	-28.9	-29.5	28.6	0.00e+00	0	32	0	1718616064	32	5426
2026-01-28 18:24:20.41	343.74	32.81	-28.8	-29.4	28.7	0.00e+00	0	32	0	1741684736	32	5365
2026-01-28 18:24:24.45	342.43	33.24	-28.9	-29.5	28.7	0.00e+00	0	32	0	1763704832	30	6045
2026-01-28 18:24:28.48	341.09	33.67	-29.0	-29.7	28.7	0.00e+00	0	32	0	1786773504	30	6184
2026-01-28 18:24:32.52	339.72	34.08	-29.2	-29.8	28.7	0.00e+00	0	32	0	1809842176	30	6295
2026-01-28 18:24:36.56	338.31	34.48	-29.2	-29.8	28.6	0.00e+00	0	32	0	1831862272	30	6294
2026-01-28 18:24:40.59	336.87	34.86	-28.8	-29.5	28.8	0.00e+00	0	32	0	1854930944	30	6041
2026-01-28 18:24:44.62	335.39	35.22	-28.7	-29.4	28.9	0.00e+00	0	32	0	1877999616	30	5970
2026-01-28 18:24:48.66	333.88	35.57	-28.7	-29.3	28.9	0.00e+00	0	32	0	1900019712	30	5955
2026-01-28 18:24:52.70	332.34	35.90	-29.1	-29.7	28.6	0.00e+00	0	32	0	1923088384	30	6227
2026-01-28 18:24:56.74	330.76	36.21	-29.3	-29.9	28.4	0.00e+00	0	32	0	1946157056	30	6372
2026-01-28 18:25:00.78	329.16	36.49	-28.9	-29.5	28.7	0.00e+00	0	32	0	1968177152	30	6057
2026-01-28 18:25:04.82	327.53	36.75	-29.0	-29.7	28.7	0.00e+00	0	32	0	1991245824	30	6207
2026-01-28 18:25:08.86	325.87	36.99	-28.9	-29.5	28.8	0.00e+00	0	33	0	2014314496	30	6102
2026-01-28 18:25:12.90	324.19	37.20	-29.0	-29.6	28.7	0.00e+00	0	32	0	2036334592	30	6119
2026-01-28 18:25:16.94	322.49	37.38	-29.0	-29.6	28.7	0.00e+00	0	32	0	2059403264	30	6145
2026-01-28 18:25:20.98	320.77	37.54	-28.8	-29.4	28.9	0.00e+00	0	32	0	2082471936	30	6031
2026-01-28 18:25:25.02	319.04	37.66	-29.1	-29.7	28.7	0.00e+00	0	33	0	2104492032	30	6231
2026-01-28 18:25:29.06	317.29	37.76	-29.2	-29.8	28.6	0.00e+00	0	33	0	2127560704	30	6278
2026-01-28 18:25:33.10	315.54	37.82	-29.0	-29.6	28.7	0.00e+00	0	32	0	2150629376	30	6147
2026-01-28 18:25:37.14	313.78	37.86	-28.9	-29.5	28.9	0.00e+00	0	32	0	2172649472	30	6066
2026-01-28 18:25:41.17	312.02	37.86	-29.2	-29.9	28.6	0.00e+00	0	33	0	2195718144	30	6334
2026-01-28 18:25:45.21	310.26	37.84	-29.2	-29.9	28.5	0.00e+00	0	32	0	2218786816	30	6341
2026-01-28 18:25:49.25	308.51	37.78	-29.0	-29.6	28.5	0.00e+00	0	32	0	2240806912	30	6139
2026-01-28 18:25:53.28	306.76	37.69	-29.0	-29.7	28.6	0.00e+00	0	32	0	2263875584	30	6177
2026-01-28 18:25:57.32	305.02	37.57	-28.8	-29.4	28.8	0.00e+00	0	32	0	2286944256	30	5967
2026-01-28 18:26:01.36	303.30	37.43	-29.0	-29.7	28.7	0.00e+00	0	33	0	2308964352	30	6219
2026-01-28 18:26:05.40	301.59	37.25	-29.1	-29.7	28.7	0.00e+00	0	32	0	2332033024	30	6229
2026-01-28 18:26:09.44	299.91	37.05	-29.1	-29.7	28.6	0.00e+00	0	32	0	2355101696	30	6237
2026-01-28 18:26:13.48	298.24	36.82	-28.6	-29.2	28.9	0.00e+00	0	32	0	2377121792	30	5878
2026-01-28 18:26:17.52	296.60	36.56	-28.9	-29.6	28.6	0.00e+00	0	32	0	2400190464	30	6152
2026-01-28 18:26:21.56	294.99	36.28	-29.0	-29.5	28.7	0.00e+00	0	32	0	2423259136	30	6091
2026-01-28 18:26:25.60	293.40	35.98	-28.8	-29.4	28.8	0.00e+00	0	32	0	2445279232	30	6001
2026-01-28 18:26:29.64	291.85	35.66	-29.0	-29.5	28.8	0.00e+00	0	32	0	2468347904	30	6093
2026-01-28 18:26:33.68	290.33	35.31	-28.8	-29.5	28.9	0.00e+00	0	33	0	2491416576	30	6040
2026-01-28 18:26:37.72	288.84	34.95	-28.8	-29.4	28.7	0.00e+00	0	32	0	2513436672	30	6032
2026-01-28 18:26:41.76	287.38	34.57	-28.5	-29.1	29.0	0.00e+00	0	32	0	2536505344	30	5795
2026-01-28 18:26:45.79	285.96	34.18	-28.4	-29.1	29.0	0.00e+00	0	32	0	2559574016	30	5784
2026-01-28 18:26:49.83	284.57	33.77	-28.5	-29.0	29.0	0.00e+00	0	33	0	2581594112	30	5761
2026-01-28 18:26:53.87	283.22	33.34	-28.6	-29.3	28.8	0.00e+00	0	32	0	2604662784	30	5908
2026-01-28 18:26:57.91	281.91	32.91	-29.0	-29.6	28.6	0.00e+00	0	32	0	2627731456	30	6130
2026-01-28 18:27:01.94	280.63	32.46	-28.7	-29.2	28.8	0.00e+00	0	33	0	2649751552	30	5894
2026-01-28 18:27:05.98	279.38	32.01	-29.0	-29.5	28.9	0.00e+00	0	33	0	2672820224	30	6064
2026-01-28 18:27:10.02	278.17	31.55	-28.9	-29.5	28.8	0.00e+00	0	32	0	2695888896	30	6092
2026-01-28 18:27:14.06	276.99	31.08	-29.1	-29.6	28.7	0.00e+00	0	33	0	2717908992	30	6156
2026-01-28 18:27:18.09	275.85	30.61	-29.1	-29.7	28.6	0.00e+00	0	33	0	2740977664	30	6179
2026-01-28 18:27:22.13	274.74	30.13	-29.0	-29.7	28.6	0.00e+00	0	32	0	2764046336	30	6186
2026-01-28 18:27:26.17	273.67	29.64	-28.8	-29.3	28.4	0.00e+00	0	32	0	2786066432	30	5944
2026-01-28 18:27:30.21	272.62	29.16	-29.0	-29.7	28.0	0.00e+00	0	32	0	2809135104	30	6175
2026-01-28 18:27:34.23	271.61	28.67	-29.4	-30.0	27.9	0.00e+00	0	32	0	2831155200	30	6405
2026-01-28 18:27:38.27	270.63	28.18	-29.4	-30.0	28.0	0.00e+00	0	32	0	2854223872	30	6421
2026-01-28 18:27:42.30	269.68	27.70	-29.5	-30.2	28.0	0.00e+00	0	32	0	2877292544	32	5842
2026-01-28 18:27:46.34	268.76	27.21	-29.7	-30.4	27.8	0.00e+00	0	33	0	2900361216	32	5979
2026-01-28 18:27:50.37	267.86	26.72	-29.8	-30.5	27.8	0.00e+00	0	32	0	2922381312	32	6071
2026-01-28 18:27:54.41	266.99	26.23	-29.7	-30.3	27.9	0.00e+00	0	32	0	2945449984	32	5961
2026-01-28 18:27:58.45	266.15	25.75	-29.9	-30.4	27.8	0.00e+00	0	33	0	2967470080	32	6003
2026-01-28 18:28:02.49	265.33	25.26	-29.8	-30.3	27.9	0.00e+00	0	33	0	2990538752	32	5941
2026-01-28 18:28:06.53	264.54	24.78	-29.8	-30.3	27.8	0.00e+00	0	33	0	3013607424	32	5940
2026-01-28 18:28:10.56	263.78	24.31	-30.0	-30.5	27.7	0.00e+00	0	32	0	3035627520	32	6090
2026-01-28 18:28:14.60	263.03	23.83	-30.2	-30.9	27.4	0.00e+00	0	33	0	3058696192	32	6381
2026-01-28 18:28:18.64	262.31	23.36	-30.4	-31.1	27.4	0.00e+00	0	32	0	3081764864	32	6478
2026-01-28 18:28:22.68	261.61	22.89	-29.8	-30.3	27.8	0.00e+00	0	32	0	3103784960	32	5961
2026-01-28 18:28:26.72	260.93	22.43	-29.9	-30.6	27.7	0.00e+00	0	32	0	3126853632	32	6117
2026-01-28 18:28:30.76	260.27	21.97	-29.8	-30.4	27.7	0.00e+00	0	33	0	3149922304	32	5985
2026-01-28 18:28:34.80	259.63	21.51	-30.0	-30.6	27.6	0.00e+00	0	32	0	3171942400	32	6117
2026-01-28 18:28:38.84	259.01	21.06	-30.3	-30.8	27.4	0.00e+00	0	33	0	3195011072	32	6301
2026-01-28 18:28:42.88	258.40	20.61	-30.4	-31.0	27.4	0.00e+00	0	33	0	3218079744	32	6417
2026-01-28 18:28:46.92	257.82	20.17	-30.4	-30.9	27.4	0.00e+00	0	33	0	3240099840	32	6364
2026-01-28 18:28:50.95	257.25	19.74	-30.3	-31.0	27.3	0.00e+00	0	33	0	3263168512	32	6461
2026-01-28 18:28:54.99	256.70	19.30	-30.7	-31.3	27.1	0.00e+00	0	32	0	3286237184	32	6643
2026-01-28 18:28:59.03	256.16	18.88	-30.7	-31.2	27.2	0.00e+00	0	33	0	3308257280	34	5883
2026-01-28 18:29:03.07	255.64	18.45	-30.8	-31.4	27.0	0.00e+00	0	32	0	3331325952	34	6001
2026-01-28 18:29:07.11	255.13	18.03	-31.1	-31.7	26.8	0.00e+00	0	32	0	3354394624	34	6192
2026-01-28 18:29:11.14	254.64	17.62	-31.2	-31.9	26.6	0.00e+00	0	32	0	3376414720	34	6358
2026-01-28 18:29:15.18	254.16	17.21	-31.1	-31.9	26.7	0.00e+00	0	33	0	3399483392	34	6324
2026-01-28 18:29:19.22	253.69	16.81	-31.3	-31.9	26.6	0.00e+00	0	32	0	3422552064	34	6357
2026-01-28 18:29:23.26	253.24	16.41	-31.7	-32.3	26.3	0.00e+00	0	32	0	3444572160	34	6624
2026-01-28 18:29:27.29	252.80	16.01	-31.7	-32.2	26.3	0.00e+00	0	32	0	3467640832	34	6604
2026-01-28 18:29:31.33	252.37	15.62	-31.6	-32.3	26.3	0.00e+00	0	32	0	3490709504	36	5940
2026-01-28 18:29:35.37	251.95	15.24	-31.8	-32.5	26.2	0.00e+00	0	33	0	3512729600	36	6098
2026-01-28 18:29:39.41	251.54	14.86	-32.1	-32.8	25.9	0.00e+00	0	33	0	3535798272	36	6317
2026-01-28 18:29:43.45	251.14	14.48	-32.2	-32.9	25.8	0.00e+00	0	33	0	3558866944	36	6375
2026-01-28 18:29:47.48	250.75	14.11	-32.3	-32.9	25.8	0.00e+00	0	33	0	3580887040	36	6319
2026-01-28 18:29:51.52	250.38	13.74	-32.3	-33.1	25.7	0.00e+00	0	32	0	3603955712	36	6486
2026-01-28 18:29:55.56	250.01	13.38	-32.4	-32.9	25.7	0.00e+00	0	32	0	3627024384	36	6388
2026-01-28 18:29:59.59	249.65	13.02	-32.5	-33.1	25.6	0.00e+00	0	33	0	3649044480	36	6499
2026-01-28 18:30:03.63	249.30	12.66	-32.5	-33.1	25.5	0.00e+00	0	33	0	3672113152	36	6481
2026-01-28 18:30:07.68	248.96	12.31	-32.5	-33.1	25.4	0.00e+00	0	32	0	3695181824	36	6539
2026-01-28 18:30:11.72	248.62	11.96	-32.7	-33.4	25.2	0.00e+00	0	33	0	3717201920	38	5966
2026-01-28 18:30:15.75	248.30	11.62	-32.9	-33.6	25.2	0.00e+00	0	33	0	3740270592	38	6161
2026-01-28 18:30:19.79	247.98	11.28	-33.0	-33.6	25.0	0.00e+00	0	33	0	3763339264	38	6122
2026-01-28 18:30:23.82	247.67	10.94	-33.0	-33.6	25.0	0.00e+00	0	33	0	3785359360	38	6152
2026-01-28 18:30:27.86	247.37	10.61	-33.1	-33.9	24.8	0.00e+00	0	33	0	3808428032	38	6349
2026-01-28 18:30:31.90	247.07	10.28	-33.4	-34.0	24.6	0.00e+00	0	33	0	3831496704	38	6439
2026-01-28 18:30:35.94	246.78	9.96	-33.5	-34.2	24.5	0.00e+00	0	32	0	3853516800	38	6557
2026-01-28 18:30:39.98	246.50	9.64	-33.8	-34.6	24.1	0.00e+00	0	32	0	3876585472	40	6122
2026-01-28 18:30:44.02	246.22	9.32	-34.2	-35.0	23.8	0.00e+00	0	32	0	3899654144	40	6411
2026-01-28 18:30:48.06	245.95	9.00	-34.6	-35.4	23.2	0.00e+00	0	32	0	3921674240	42	6033
2026-01-28 18:30:52.09	245.69	8.69	-34.8	-35.6	23.0	0.00e+00	0	33	0	3944742912	42	6172
2026-01-28 18:30:56.13	245.43	8.38	-35.2	-35.9	22.8	0.00e+00	0	33	0	3967811584	42	6344
2026-01-28 18:31:00.17	245.18	8.08	-35.5	-36.4	22.2	0.00e+00	0	33	0	3989831680	44	5999
2026-01-28 18:31:04.21	244.93	7.78	-35.4	-36.3	22.1	0.00e+00	0	33	0	4012900352	44	5911
2026-01-28 18:31:08.25	244.69	7.48	-35.8	-36.6	21.7	0.00e+00	0	33	0	4035969024	44	6127
2026-01-28 18:31:12.29	244.45	7.18	-36.6	-37.5	20.9	0.00e+00	0	32	0	4057989120	44	6841
2026-01-28 18:31:16.32	244.22	6.89	-36.9	-37.7	20.7	0.00e+00	0	33	0	4081057792	46	6220
2026-01-28 18:31:20.36	244.00	6.60	-37.6	-38.5	19.9	0.00e+00	0	33	0	4104126464	46	6800
2026-01-28 18:31:24.40	243.77	6.31	-37.9	-38.8	19.4	0.00e+00	0	33	0	4126146560	48	6279
2026-01-28 18:31:28.43	243.56	6.03	-38.6	-39.7	18.7	0.00e+00	0	33	0	4149215232	48	6941
2026-01-28 18:31:32.46	243.34	5.75	-39.6	-40.9	17.6	0.00e+00	0	33	0	4171235328	50	7108
2026-01-28 18:31:36.50	243.13	5.47	-40.6	-42.0	16.3	0.00e+00	0	33	0	4194304000	52	7204
2026-01-28 18:31:40.54	242.93	5.19	-40.5	-42.0	16.2	0.00e+00	0	33	0	4217372672	52	7194
2026-01-28 18:31:44.58	242.73	4.92	-40.9	-42.5	15.4	0.00e+00	0	33	0	4239392768	54	6801
2026-01-28 18:31:48.62	242.53	4.65	-41.4	-43.2	14.7	0.00e+00	0	33	0	4262461440	54	7402
2026-01-28 18:31:52.65	242.34	4.38	-41.8	-43.6	14.1	5.70e-06	0	33	0	4285530112	56	6926
2026-01-28 18:31:56.69	242.15	4.11	-42.3	-44.4	13.3	9.10e-06	0	33	0	4308598784	56	7520
2026-01-28 18:32:00.73	241.96	3.85	-42.8	-45.3	12.2	9.95e-05	0	33	0	4330618880	58	7441
2026-01-28 18:32:04.76	241.78	3.58	-43.3	-46.0	11.4	1.21e-03	0	33	0	4353687552	58	8073
2026-01-28 18:32:08.80	241.60	3.32	-43.9	-47.2	9.8	3.31e-03	0	33	0	4375707648	60	8261
2026-01-28 18:32:12.83	241.43	3.07	-44.1	-47.8	8.9	1.83e-02	0	33	0	4398776320	60	8832
2026-01-28 18:32:16.87	241.26	2.81	-48.4	-60.5	3.6	8.45e-01	0	33	104	4401922048	60	38222
2026-01-28 18:32:20.92	241.09	2.56	-48.7	-60.8	3.6	8.43e-01	0	33	104	4401922048	60	39420
2026-01-28 18:32:24.96	240.92	2.31	-48.7	-60.8	3.6	8.45e-01	0	33	104	4401922048	60	39698
2026-01-28 18:32:29.00	240.76	2.06	-48.4	-60.8	3.6	8.46e-01	0	33	104	4401922048	60	39724
2026-01-28 18:32:33.03	240.60	1.81	-48.6	-60.7	3.6	8.46e-01	0	33	104	4401922048	60	39287
2026-01-28 18:32:37.07	240.44	1.56	-48.5	-60.6	3.6	8.45e-01	0	33	104	4401922048	60	38773
2026-01-28 18:32:41.11	240.29	1.32	-48.6	-60.7	3.6	8.45e-01	0	33	104	4401922048	60	39267
2026-01-28 18:32:45.15	240.13	1.08	-48.6	-60.7	3.6	8.45e-01	0	33	104	4401922048	60	39198
2026-01-28 18:32:49.19	239.98	0.84	-48.6	-60.7	3.6	8.47e-01	0	33	104	4401922048	60	39094
2026-01-28 18:32:53.23	239.84	0.60	-48.5	-60.7	3.6	8.46e-01	0	33	104	4401922048	60	39095
2026-01-28 18:32:57.27	239.69	0.36	-48.5	-60.7	3.6	8.45e-01	0	33	104	4401922048	60	38980
2026-01-28 18:33:01.31	239.55	0.13	-48.5	-60.7	3.6	8.46e-01	0	33	104	4401922048	60	38976

#Closed at: 2026-01-28 18:33:03
#Recorded file [4401 MB]: D:/lorett/data/35029_260129_061816.dat