passes_logs/2026/01/28/R4.6S_Anadyr/R4.6S_Anadyr__20260128_230700_KOSAR1-5_rec.log

#Pass ID: 20260128_230700_KOSAR1-5
#Satellite: KOSAR1-5
#Configuration: KOSAR1-5
#almurnet v.1.7.20251203
#Start time: 2026-01-28 23:07:05

#Version: 2.2.20231116
#Station: R4.6S_Anadyr
#Location: 177.4865 lon 64.73178 lat
#TLE: 1 67264U 25313S   26027.76143924  .00010916  00000+0  50329-3 0  9990
#TLE: 2 67264  97.4176 104.7207 0016474 138.6036 221.6451 15.20309833  4594

#Time	Az	El	Level	Level2	SNR	BER	BlckErr	Temp	State	Recorded	gain1	gain2
2026-01-28 23:07:05.79	18.85	0.35	-49.0	-50.5	5.7	0.00e+00	0	29	0	0	60	40833
2026-01-28 23:07:08.73	18.94	0.53	-45.6	-60.3	3.6	1.51e+00	0	31	104	0	60	41972
2026-01-28 23:07:11.67	19.03	0.72	-45.7	-60.5	3.6	1.51e+00	0	31	104	0	60	42796
2026-01-28 23:07:14.60	19.12	0.91	-45.8	-60.5	3.6	1.51e+00	0	31	104	0	60	42961
2026-01-28 23:07:17.54	19.22	1.11	-45.7	-60.4	3.6	1.51e+00	0	31	104	0	60	42470
2026-01-28 23:07:20.48	19.31	1.30	-45.5	-60.2	3.6	1.51e+00	0	31	104	0	60	41702
2026-01-28 23:07:23.43	19.41	1.49	-45.2	-59.9	3.6	1.51e+00	0	31	104	0	60	39898
2026-01-28 23:07:26.37	19.51	1.69	-44.6	-59.3	3.6	1.51e+00	0	31	104	0	60	37552
2026-01-28 23:07:29.31	19.61	1.89	-44.5	-59.2	3.6	1.51e+00	0	31	104	0	60	36924
2026-01-28 23:07:32.25	19.71	2.09	-44.5	-59.2	3.6	1.51e+00	0	31	104	0	60	36894
2026-01-28 23:07:35.19	19.82	2.29	-44.5	-59.2	3.6	1.51e+00	0	31	104	0	60	37176
2026-01-28 23:07:38.13	19.92	2.50	-44.5	-59.2	3.6	1.51e+00	0	31	104	0	60	36886
2026-01-28 23:07:41.08	20.03	2.71	-44.5	-59.1	3.6	1.51e+00	0	31	104	0	60	36683
2026-01-28 23:07:44.01	20.14	2.91	-44.5	-59.2	3.6	1.51e+00	0	31	104	0	60	37124
2026-01-28 23:07:46.95	20.25	3.12	-44.5	-59.2	3.6	1.51e+00	0	31	104	0	60	36895
2026-01-28 23:07:49.92	20.36	3.34	-44.5	-59.2	3.6	1.51e+00	0	31	104	0	60	36881
2026-01-28 23:07:52.88	20.47	3.55	-44.5	-59.2	3.6	1.51e+00	0	31	104	0	60	36891
2026-01-28 23:07:55.83	20.59	3.77	-44.5	-59.2	3.6	1.51e+00	0	31	104	0	60	36981
2026-01-28 23:07:58.79	20.71	3.99	-44.5	-59.2	3.6	1.51e+00	0	31	104	0	60	36896
2026-01-28 23:08:01.75	20.83	4.21	-45.0	-59.7	3.6	1.51e+00	0	32	104	0	60	39105
2026-01-28 23:08:04.73	20.95	4.44	-44.6	-59.3	3.6	1.51e+00	0	32	104	0	60	37319
2026-01-28 23:08:07.72	21.08	4.67	-44.7	-59.4	3.6	1.51e+00	0	32	104	0	60	37648
2026-01-28 23:08:10.72	21.21	4.91	-44.7	-59.4	3.6	1.51e+00	0	32	104	0	60	37911
2026-01-28 23:08:13.70	21.34	5.14	-44.6	-59.3	3.6	1.51e+00	0	32	104	0	60	37298
2026-01-28 23:08:16.68	21.47	5.38	-44.7	-59.4	3.6	1.51e+00	0	32	104	0	60	37712
2026-01-28 23:08:19.64	21.60	5.62	-44.8	-59.5	3.6	1.51e+00	0	32	104	0	60	38217
2026-01-28 23:08:22.60	21.74	5.86	-44.8	-59.5	3.6	1.51e+00	0	32	104	0	60	38169
2026-01-28 23:08:25.56	21.88	6.10	-44.7	-59.4	3.6	1.51e+00	0	32	104	0	60	37823
2026-01-28 23:08:28.52	22.02	6.35	-44.8	-59.5	3.5	1.51e+00	0	32	104	0	60	38482
2026-01-28 23:08:31.48	22.17	6.60	-44.8	-59.6	3.6	1.51e+00	0	32	104	0	60	38604
2026-01-28 23:08:34.44	22.31	6.85	-44.8	-59.6	3.6	1.51e+00	0	32	104	0	60	38722
2026-01-28 23:08:37.38	22.46	7.11	-44.8	-59.6	3.6	1.51e+00	0	32	104	0	60	38647
2026-01-28 23:08:40.32	22.62	7.37	-44.7	-59.7	3.6	1.51e+00	0	32	104	0	60	39180
2026-01-28 23:08:43.27	22.77	7.63	-45.0	-59.7	3.6	1.51e+00	0	32	104	0	60	39046
2026-01-28 23:08:46.24	22.93	7.90	-44.9	-59.6	3.6	1.51e+00	0	32	104	0	60	38622
2026-01-28 23:08:49.19	23.10	8.17	-44.8	-59.7	3.6	1.51e+00	0	32	104	0	60	39171
2026-01-28 23:08:52.16	23.27	8.44	-45.0	-59.7	3.6	1.51e+00	0	32	104	0	60	39345
2026-01-28 23:08:55.14	23.44	8.73	-45.0	-59.7	3.6	1.51e+00	0	32	104	0	60	39399
2026-01-28 23:08:58.12	23.62	9.01	-45.0	-59.7	3.6	1.51e+00	0	32	104	0	60	39124
2026-01-28 23:09:01.10	23.80	9.30	-45.0	-59.7	3.6	1.51e+00	0	32	104	0	60	39349
2026-01-28 23:09:04.10	23.98	9.60	-44.6	-59.8	3.6	1.51e+00	0	32	104	0	60	39587
2026-01-28 23:09:07.12	24.17	9.90	-45.1	-59.8	3.6	1.51e+00	0	32	104	0	60	39811
2026-01-28 23:09:10.12	24.37	10.20	-45.1	-59.8	3.6	1.51e+00	0	32	104	0	60	39511
2026-01-28 23:09:13.10	24.57	10.51	-44.6	-59.8	3.6	1.51e+00	0	32	104	0	60	39621
2026-01-28 23:09:16.09	24.77	10.82	-45.1	-59.9	3.6	1.51e+00	0	32	104	0	60	39919
2026-01-28 23:09:19.08	24.98	11.14	-44.5	-59.9	3.6	1.51e+00	0	32	104	0	60	40014
2026-01-28 23:09:22.07	25.19	11.47	-44.3	-59.8	3.6	1.51e+00	0	32	104	0	60	39832
2026-01-28 23:09:25.07	25.42	11.80	-45.2	-59.9	3.6	1.51e+00	0	32	104	0	60	39981
2026-01-28 23:09:28.09	25.64	12.14	-45.2	-59.9	3.6	1.51e+00	0	32	104	0	60	40158
2026-01-28 23:09:31.12	25.88	12.48	-45.2	-59.9	3.6	1.51e+00	0	32	104	0	60	40217
2026-01-28 23:09:34.14	26.12	12.84	-45.2	-59.9	3.6	1.51e+00	0	32	104	0	60	40141
2026-01-28 23:09:37.17	26.37	13.19	-45.2	-59.9	3.6	1.51e+00	0	32	104	0	60	40119
2026-01-28 23:09:40.20	26.62	13.56	-45.2	-60.0	3.6	1.51e+00	0	32	104	0	60	40371
2026-01-28 23:09:43.22	26.89	13.93	-45.3	-60.0	3.6	1.51e+00	0	32	104	0	60	40349
2026-01-28 23:09:46.25	27.16	14.31	-45.1	-60.0	3.6	1.51e+00	0	32	104	0	60	40483
2026-01-28 23:09:49.29	27.44	14.70	-45.2	-59.9	3.6	1.51e+00	0	32	104	0	60	40209
2026-01-28 23:09:52.32	27.72	15.10	-45.2	-60.0	3.6	1.51e+00	0	32	104	0	60	40522
2026-01-28 23:09:55.34	28.02	15.50	-45.3	-60.0	3.6	1.51e+00	0	32	104	0	60	40739
2026-01-28 23:09:58.36	28.32	15.91	-45.2	-59.9	3.6	1.51e+00	0	32	104	0	60	40315
2026-01-28 23:10:01.38	28.64	16.33	-45.1	-60.0	3.6	1.51e+00	0	32	104	0	60	40543
2026-01-28 23:10:04.42	28.96	16.76	-45.3	-60.1	3.6	1.51e+00	0	32	104	0	60	40923
2026-01-28 23:10:07.44	29.30	17.20	-45.2	-60.0	3.6	1.51e+00	0	32	104	0	60	40757
2026-01-28 23:10:10.46	29.64	17.64	-45.4	-60.0	3.6	1.51e+00	0	33	104	0	60	40594
2026-01-28 23:10:13.49	30.00	18.10	-45.3	-60.0	3.6	1.51e+00	0	32	104	0	60	40642
2026-01-28 23:10:16.52	30.37	18.57	-45.3	-60.1	3.6	1.51e+00	0	32	104	0	60	41045
2026-01-28 23:10:19.54	30.76	19.04	-45.4	-60.1	3.6	1.51e+00	0	33	104	0	60	41109
2026-01-28 23:10:22.57	31.16	19.53	-45.4	-60.1	3.6	1.51e+00	0	33	104	0	60	40943
2026-01-28 23:10:25.61	31.57	20.04	-45.4	-60.1	3.6	1.51e+00	0	33	104	0	60	41019
2026-01-28 23:10:28.63	32.00	20.55	-45.4	-60.1	3.6	1.51e+00	0	33	104	0	60	40947
2026-01-28 23:10:31.65	32.44	21.07	-45.2	-60.1	3.6	1.51e+00	0	33	104	0	60	41152
2026-01-28 23:10:34.67	32.90	21.61	-45.4	-60.1	3.6	1.51e+00	0	33	104	0	60	41098
2026-01-28 23:10:37.70	33.38	22.16	-45.4	-60.1	3.6	1.51e+00	0	33	104	0	60	41012
2026-01-28 23:10:40.72	33.88	22.72	-45.3	-60.2	3.6	1.51e+00	0	33	104	0	60	41334
2026-01-28 23:10:43.70	34.39	23.29	-45.4	-60.2	3.6	1.51e+00	0	33	104	0	60	41389
2026-01-28 23:10:46.65	34.92	23.86	-45.4	-60.2	3.6	1.51e+00	0	33	104	0	60	41374
2026-01-28 23:10:49.59	35.47	24.45	-45.1	-60.2	3.6	1.51e+00	0	33	104	0	60	41441
2026-01-28 23:10:52.53	36.04	25.05	-45.3	-60.2	3.6	1.51e+00	0	33	104	0	60	41561
2026-01-28 23:10:55.47	36.63	25.67	-45.3	-60.2	3.6	1.51e+00	0	33	104	0	60	41524
2026-01-28 23:10:58.40	37.25	26.30	-45.3	-60.2	3.6	1.51e+00	0	33	104	0	60	41502
2026-01-28 23:11:01.35	37.90	26.94	-45.3	-60.2	3.6	1.51e+00	0	33	104	0	60	41556
2026-01-28 23:11:04.28	38.58	27.60	-45.2	-60.2	3.6	1.51e+00	0	33	104	0	60	41707
2026-01-28 23:11:07.21	39.28	28.28	-44.7	-60.2	3.6	1.51e+00	0	33	104	0	60	41494
2026-01-28 23:11:10.15	40.03	28.97	-45.4	-60.2	3.6	1.51e+00	0	33	104	0	60	41572
2026-01-28 23:11:13.09	40.81	29.68	-44.5	-60.2	3.6	1.51e+00	0	33	104	0	60	41662
2026-01-28 23:11:16.03	41.62	30.41	-45.5	-60.2	3.6	1.51e+00	0	33	104	0	60	41512
2026-01-28 23:11:18.97	42.48	31.15	-45.5	-60.2	3.6	1.51e+00	0	33	104	0	60	41559
2026-01-28 23:11:21.90	43.38	31.90	-45.5	-60.3	3.6	1.51e+00	0	33	104	0	60	41768
2026-01-28 23:11:24.84	44.32	32.68	-45.2	-60.3	3.6	1.51e+00	0	33	104	0	60	41843
2026-01-28 23:11:27.79	45.32	33.47	-45.3	-60.3	3.6	1.51e+00	0	33	104	0	60	41808
2026-01-28 23:11:30.73	46.37	34.27	-45.5	-60.3	3.6	1.51e+00	0	33	104	0	60	41902
2026-01-28 23:11:33.66	47.47	35.09	-45.1	-60.2	3.6	1.51e+00	0	33	104	0	60	41487
2026-01-28 23:11:36.60	48.64	35.92	-45.5	-60.2	3.6	1.51e+00	0	33	104	0	60	41722
2026-01-28 23:11:39.54	49.87	36.76	-44.2	-60.3	3.6	1.51e+00	0	33	104	0	60	41967
2026-01-28 23:11:42.47	51.17	37.62	-45.2	-60.2	3.6	1.51e+00	0	33	104	0	60	41523
2026-01-28 23:11:45.40	52.54	38.48	-45.5	-60.2	3.6	1.51e+00	0	33	104	0	60	41399
2026-01-28 23:11:48.33	53.98	39.35	-45.5	-60.3	3.5	1.51e+00	0	33	104	0	60	41748
2026-01-28 23:11:51.27	55.52	40.22	-45.6	-60.2	3.6	1.51e+00	0	33	104	0	60	41722
2026-01-28 23:11:54.20	57.14	41.10	-45.5	-60.2	3.6	1.51e+00	0	33	104	0	60	41729
2026-01-28 23:11:57.13	58.85	41.97	-45.5	-60.2	3.6	1.51e+00	0	33	104	0	60	41515
2026-01-28 23:12:00.07	60.67	42.85	-45.5	-60.2	3.6	1.51e+00	0	33	104	0	60	41739
2026-01-28 23:12:03.00	62.59	43.71	-45.5	-60.2	3.6	1.51e+00	0	33	104	0	60	41647
2026-01-28 23:12:05.95	64.63	44.56	-45.5	-60.2	3.6	1.51e+00	0	33	104	0	60	41550
2026-01-28 23:12:08.88	66.76	45.38	-45.5	-60.2	3.6	1.51e+00	0	33	104	0	60	41680
2026-01-28 23:12:11.81	69.02	46.18	-45.6	-60.2	3.6	1.51e+00	0	33	104	0	60	41628
2026-01-28 23:12:14.73	71.39	46.95	-45.5	-60.2	3.6	1.51e+00	0	33	104	0	60	41712
2026-01-28 23:12:17.67	73.89	47.68	-45.4	-60.2	3.6	1.51e+00	0	33	104	0	60	41535
2026-01-28 23:12:20.62	76.52	48.36	-45.4	-60.2	3.6	1.51e+00	0	33	104	0	60	41605
2026-01-28 23:12:23.55	79.25	48.99	-45.6	-60.3	3.6	1.51e+00	0	33	104	0	60	41777
2026-01-28 23:12:26.49	82.10	49.56	-45.4	-60.2	3.5	1.51e+00	0	33	104	0	60	41617
2026-01-28 23:12:29.42	85.05	50.06	-45.5	-60.2	3.6	1.51e+00	0	33	104	0	60	41721
2026-01-28 23:12:32.36	88.10	50.49	-45.5	-60.3	3.6	1.51e+00	0	33	104	0	60	41845
2026-01-28 23:12:35.30	91.23	50.83	-45.6	-60.2	3.6	1.51e+00	0	33	104	0	60	41724
2026-01-28 23:12:38.25	94.43	51.09	-45.5	-60.2	3.6	1.51e+00	0	33	104	0	60	41595
2026-01-28 23:12:41.19	97.68	51.26	-45.5	-60.3	3.6	1.51e+00	0	33	104	0	60	41842
2026-01-28 23:12:44.14	100.96	51.33	-45.5	-60.2	3.6	1.51e+00	0	33	104	0	60	41703
2026-01-28 23:12:47.07	104.23	51.31	-45.4	-60.2	3.6	1.51e+00	0	33	104	0	60	41535
2026-01-28 23:12:50.02	107.50	51.19	-45.5	-60.2	3.6	1.51e+00	0	33	104	0	60	41528
2026-01-28 23:12:52.97	110.74	50.99	-45.5	-60.2	3.6	1.51e+00	0	33	104	0	60	41556
2026-01-28 23:12:55.92	113.92	50.69	-45.5	-60.2	3.6	1.51e+00	0	33	104	0	60	41322
2026-01-28 23:12:58.87	117.03	50.30	-45.5	-60.2	3.6	1.51e+00	0	32	104	0	60	41471
2026-01-28 23:13:01.80	120.04	49.84	-45.5	-60.2	3.6	1.51e+00	0	33	104	0	60	41466
2026-01-28 23:13:04.75	122.97	49.31	-45.5	-60.2	3.6	1.51e+00	0	33	104	0	60	41469
2026-01-28 23:13:07.68	125.76	48.71	-45.6	-60.3	3.6	1.51e+00	0	33	104	0	60	41845
2026-01-28 23:13:10.63	128.47	48.05	-45.4	-60.3	3.6	1.51e+00	0	33	104	0	60	41773
2026-01-28 23:13:13.57	131.04	47.34	-45.5	-60.2	3.6	1.51e+00	0	33	104	0	60	41413
2026-01-28 23:13:16.50	133.49	46.59	-45.4	-60.2	3.6	1.51e+00	0	33	104	0	60	41533
2026-01-28 23:13:19.44	135.82	45.80	-45.6	-60.2	3.6	1.51e+00	0	33	104	0	60	41616
2026-01-28 23:13:22.38	138.04	44.98	-45.4	-60.2	3.6	1.51e+00	0	33	104	0	60	41671
2026-01-28 23:13:25.32	140.14	44.14	-45.5	-60.2	3.6	1.51e+00	0	33	104	0	60	41484
2026-01-28 23:13:28.24	142.11	43.28	-45.4	-60.1	3.6	1.51e+00	0	32	104	0	60	41248
2026-01-28 23:13:31.17	143.99	42.42	-45.6	-60.3	3.6	1.51e+00	0	33	104	0	60	41966
2026-01-28 23:13:34.10	145.76	41.54	-45.5	-60.2	3.6	1.51e+00	0	33	104	0	60	41567
2026-01-28 23:13:37.04	147.44	40.65	-45.6	-60.2	3.6	1.51e+00	0	32	104	0	60	41617
2026-01-28 23:13:39.97	149.02	39.77	-45.6	-60.3	3.6	1.51e+00	0	33	104	0	60	41837
2026-01-28 23:13:42.91	150.53	38.89	-45.7	-60.4	3.6	1.51e+00	0	32	104	0	60	42254
2026-01-28 23:13:45.85	151.95	38.02	-45.6	-60.4	3.6	1.51e+00	0	33	104	0	60	42602
2026-01-28 23:13:48.79	153.29	37.15	-45.6	-60.3	3.6	1.51e+00	0	33	104	0	60	41803
2026-01-28 23:13:51.73	154.56	36.30	-45.5	-60.2	3.6	1.51e+00	0	33	104	0	60	41720
2026-01-28 23:13:54.66	155.76	35.45	-45.5	-60.2	3.6	1.51e+00	0	33	104	0	60	41703
2026-01-28 23:13:57.60	156.90	34.62	-45.5	-60.2	3.6	1.51e+00	0	33	104	0	60	41451
2026-01-28 23:14:00.54	157.98	33.81	-45.5	-60.2	3.6	1.51e+00	0	33	104	0	60	41504
2026-01-28 23:14:03.48	159.01	33.00	-45.5	-60.2	3.6	1.51e+00	0	33	104	0	60	41487
2026-01-28 23:14:06.41	159.98	32.22	-45.5	-60.2	3.6	1.51e+00	0	33	104	0	60	41355
2026-01-28 23:14:09.34	160.91	31.45	-45.5	-60.1	3.6	1.51e+00	0	33	104	0	60	41174
2026-01-28 23:14:12.28	161.79	30.69	-45.5	-60.2	3.6	1.51e+00	0	33	104	0	60	41439
2026-01-28 23:14:15.22	162.63	29.96	-45.5	-60.2	3.6	1.51e+00	0	33	104	0	60	41446
2026-01-28 23:14:18.17	163.43	29.23	-45.5	-60.1	3.6	1.51e+00	0	33	104	0	60	41076
2026-01-28 23:14:21.10	164.19	28.53	-45.3	-60.1	3.6	1.51e+00	0	33	104	0	60	41010
2026-01-28 23:14:24.04	164.92	27.84	-45.4	-60.2	3.6	1.51e+00	0	33	104	0	60	41295
2026-01-28 23:14:26.98	165.62	27.16	-45.5	-60.1	3.6	1.51e+00	0	33	104	0	60	41229
2026-01-28 23:14:29.93	166.28	26.50	-45.5	-60.1	3.6	1.51e+00	0	33	104	0	60	41262
2026-01-28 23:14:32.86	166.92	25.86	-45.5	-60.2	3.6	1.51e+00	0	33	104	0	60	41466
2026-01-28 23:14:35.81	167.53	25.23	-45.4	-60.1	3.6	1.51e+00	0	33	104	0	60	41180
2026-01-28 23:14:38.74	168.11	24.62	-45.5	-60.2	3.6	1.51e+00	0	33	104	0	60	41390
2026-01-28 23:14:41.68	168.67	24.02	-45.4	-60.1	3.6	1.51e+00	0	33	104	0	60	40952
2026-01-28 23:14:44.62	169.21	23.44	-45.4	-60.1	3.6	1.51e+00	0	33	104	0	60	41147
2026-01-28 23:14:47.56	169.72	22.87	-45.2	-60.1	3.6	1.51e+00	0	33	104	0	60	41221
2026-01-28 23:14:50.51	170.22	22.31	-45.4	-60.1	3.6	1.51e+00	0	33	104	0	60	41019
2026-01-28 23:14:53.45	170.70	21.76	-45.2	-60.1	3.6	1.51e+00	0	33	104	0	60	41059
2026-01-28 23:14:56.39	171.16	21.23	-45.2	-60.1	3.6	1.51e+00	0	33	104	0	60	41159
2026-01-28 23:14:59.33	171.60	20.71	-45.3	-60.1	3.6	1.51e+00	0	33	104	0	60	41046
2026-01-28 23:15:02.26	172.03	20.20	-45.2	-60.1	3.6	1.51e+00	0	33	104	0	60	40921
2026-01-28 23:15:05.19	172.44	19.71	-45.3	-60.1	3.6	1.51e+00	0	33	104	0	60	40969
2026-01-28 23:15:08.12	172.83	19.23	-45.1	-60.1	3.6	1.51e+00	0	33	104	0	60	41183
2026-01-28 23:15:11.06	173.21	18.75	-45.3	-60.2	3.6	1.51e+00	0	33	104	0	60	41371
2026-01-28 23:15:13.99	173.58	18.29	-45.1	-60.0	3.6	1.51e+00	0	33	104	0	60	40680
2026-01-28 23:15:16.93	173.94	17.83	-45.1	-60.1	3.5	1.51e+00	0	33	104	0	60	41009
2026-01-28 23:15:19.87	174.29	17.39	-45.4	-60.1	3.6	1.51e+00	0	33	104	0	60	40902
2026-01-28 23:15:22.81	174.62	16.95	-45.4	-60.1	3.6	1.51e+00	0	33	104	0	60	41208
2026-01-28 23:15:25.75	174.95	16.53	-45.4	-60.1	3.6	1.51e+00	0	33	104	0	60	40910
2026-01-28 23:15:28.68	175.26	16.11	-45.4	-60.1	3.6	1.51e+00	0	33	104	0	60	41054
2026-01-28 23:15:31.61	175.56	15.70	-45.4	-60.1	3.6	1.51e+00	0	33	104	0	60	41169
2026-01-28 23:15:34.55	175.86	15.30	-45.4	-60.2	3.6	1.51e+00	0	33	104	0	60	41442
2026-01-28 23:15:37.49	176.14	14.91	-45.4	-60.2	3.6	1.51e+00	0	33	104	0	60	41415
2026-01-28 23:15:40.42	176.42	14.52	-45.1	-60.2	3.6	1.51e+00	0	33	104	0	60	41394
2026-01-28 23:15:43.36	176.69	14.14	-45.2	-60.1	3.6	1.51e+00	0	33	104	0	60	41118
2026-01-28 23:15:46.31	176.96	13.77	-45.2	-60.2	3.6	1.51e+00	0	33	104	0	60	41325
2026-01-28 23:15:49.24	177.21	13.41	-45.0	-60.2	3.6	1.51e+00	0	33	104	0	60	41300
2026-01-28 23:15:52.17	177.46	13.05	-45.0	-60.1	3.6	1.51e+00	0	33	104	0	60	41020
2026-01-28 23:15:55.10	177.70	12.70	-45.0	-60.1	3.6	1.51e+00	0	33	104	0	60	41179
2026-01-28 23:15:58.04	177.93	12.36	-45.0	-60.1	3.6	1.51e+00	0	33	104	0	60	40998
2026-01-28 23:16:00.98	178.16	12.02	-45.1	-60.1	3.6	1.51e+00	0	33	104	0	60	41075
2026-01-28 23:16:03.91	178.38	11.69	-45.3	-60.1	3.6	1.51e+00	0	33	104	0	60	41088
2026-01-28 23:16:06.85	178.60	11.36	-45.5	-60.2	3.6	1.51e+00	0	33	104	0	60	41495
2026-01-28 23:16:09.78	178.81	11.04	-45.3	-60.2	3.6	1.51e+00	0	33	104	0	60	41291
2026-01-28 23:16:12.71	179.02	10.72	-45.4	-60.2	3.6	1.51e+00	0	33	104	0	60	41358
2026-01-28 23:16:15.66	179.22	10.41	-45.0	-60.0	3.6	1.51e+00	0	33	104	0	60	40536
2026-01-28 23:16:18.60	179.41	10.10	-45.0	-60.1	3.6	1.51e+00	0	33	104	0	60	41067
2026-01-28 23:16:21.54	179.61	9.80	-45.2	-60.1	3.6	1.51e+00	0	33	104	0	60	41109
2026-01-28 23:16:24.49	179.79	9.50	-45.1	-60.1	3.6	1.51e+00	0	33	104	0	60	40943
2026-01-28 23:16:27.43	179.98	9.21	-44.9	-60.0	3.6	1.51e+00	0	33	104	0	60	40369
2026-01-28 23:16:30.37	180.16	8.92	-44.9	-60.0	3.6	1.51e+00	0	33	104	0	60	40507
2026-01-28 23:16:33.30	180.33	8.64	-45.1	-60.1	3.6	1.51e+00	0	33	104	0	60	41145
2026-01-28 23:16:36.24	180.50	8.36	-44.8	-59.8	3.6	1.51e+00	0	33	104	0	60	39715
2026-01-28 23:16:39.18	180.67	8.08	-44.8	-59.9	3.6	1.51e+00	0	33	104	0	60	40290
2026-01-28 23:16:42.12	180.83	7.81	-45.1	-60.0	3.6	1.51e+00	0	33	104	0	60	40449
2026-01-28 23:16:45.06	180.99	7.54	-45.0	-60.1	3.6	1.51e+00	0	33	104	0	60	40879
2026-01-28 23:16:48.00	181.15	7.28	-45.0	-59.9	3.6	1.51e+00	0	33	104	0	60	39965
2026-01-28 23:16:50.93	181.30	7.01	-44.8	-59.8	3.6	1.51e+00	0	33	104	0	60	39504
2026-01-28 23:16:53.86	181.45	6.76	-45.1	-60.1	3.6	1.51e+00	0	33	104	0	60	40883
2026-01-28 23:16:56.80	181.59	6.50	-45.3	-60.2	3.6	1.51e+00	0	33	104	0	60	41455
2026-01-28 23:16:59.75	181.74	6.25	-44.7	-59.7	3.6	1.51e+00	0	33	104	0	60	38986
2026-01-28 23:17:02.69	181.88	6.00	-45.4	-60.1	3.6	1.51e+00	0	33	104	0	60	41246
2026-01-28 23:17:05.63	182.02	5.76	-44.7	-59.9	3.6	1.51e+00	0	33	104	0	60	39960
2026-01-28 23:17:08.57	182.15	5.51	-44.6	-59.8	3.6	1.51e+00	0	33	104	0	60	39429
2026-01-28 23:17:11.50	182.29	5.28	-45.1	-60.0	3.6	1.51e+00	0	33	104	0	60	40623
2026-01-28 23:17:14.44	182.42	5.04	-44.5	-59.8	3.6	1.51e+00	0	33	104	0	60	39514
2026-01-28 23:17:17.38	182.54	4.81	-44.3	-59.7	3.5	1.51e+00	0	33	104	0	60	39293
2026-01-28 23:17:20.32	182.67	4.57	-44.5	-59.5	3.6	1.51e+00	0	33	104	0	60	38361
2026-01-28 23:17:23.26	182.79	4.35	-44.4	-59.7	3.6	1.51e+00	0	33	104	0	60	39389
2026-01-28 23:17:26.20	182.91	4.12	-44.5	-59.3	3.6	1.51e+00	0	33	104	0	60	37422
2026-01-28 23:17:29.14	183.03	3.90	-44.5	-59.6	3.6	1.51e+00	0	33	104	0	60	38534
2026-01-28 23:17:32.08	183.15	3.67	-44.4	-59.0	3.6	1.51e+00	0	33	104	0	60	36330
2026-01-28 23:17:35.01	183.26	3.46	-44.0	-58.8	3.6	1.51e+00	0	33	104	0	60	35252
2026-01-28 23:17:37.95	183.38	3.24	-43.7	-58.7	3.6	1.51e+00	0	33	104	0	60	34901
2026-01-28 23:17:40.88	183.49	3.03	-44.2	-59.0	3.6	1.51e+00	0	33	104	0	60	36170
2026-01-28 23:17:43.82	183.60	2.81	-44.8	-59.9	3.6	1.51e+00	0	33	104	0	60	40321
2026-01-28 23:17:46.76	183.70	2.60	-45.6	-60.4	3.6	1.51e+00	0	33	104	0	60	42422
2026-01-28 23:17:49.70	183.81	2.39	-45.9	-60.6	3.6	1.51e+00	0	33	104	0	60	43229
2026-01-28 23:17:52.65	183.91	2.19	-46.1	-60.9	3.6	1.51e+00	0	33	104	0	60	44946
2026-01-28 23:17:55.58	184.02	1.98	-45.7	-60.6	3.6	1.51e+00	0	33	104	0	60	43653
2026-01-28 23:17:58.53	184.12	1.78	-45.8	-60.6	3.6	1.51e+00	0	33	104	0	60	43361
2026-01-28 23:18:01.46	184.21	1.58	-45.5	-60.5	3.6	1.51e+00	0	33	104	0	60	43052
2026-01-28 23:18:04.40	184.31	1.38	-45.9	-60.6	3.6	1.51e+00	0	33	104	0	60	43423
2026-01-28 23:18:07.34	184.41	1.18	-45.7	-60.4	3.6	1.51e+00	0	33	104	0	60	42658
2026-01-28 23:18:10.28	184.50	0.99	-45.7	-60.5	3.6	1.51e+00	0	33	104	0	60	42752
2026-01-28 23:18:13.22	184.59	0.79	-45.7	-60.4	3.6	1.51e+00	0	33	104	0	60	42464
2026-01-28 23:18:16.17	184.69	0.60	-45.7	-60.4	3.6	1.51e+00	0	33	104	0	60	42258
2026-01-28 23:18:19.09	184.78	0.41	-45.7	-60.3	3.6	1.51e+00	0	33	104	0	60	42202
2026-01-28 23:18:22.03	184.87	0.22	-45.6	-60.3	3.6	1.51e+00	0	33	104	0	60	42120
2026-01-28 23:18:24.97	184.95	0.04	-45.6	-60.3	3.6	1.51e+00	0	33	104	0	60	42088

#Closed at: 2026-01-28 23:18:27
#Recorded file [0 MB]: D:/lorett/data/35029_260129_110705.dat