passes_logs/2026/01/28/R4.6S_Anadyr/R4.6S_Anadyr__20260128_015619_SUOMI_NPP_rec.log

#Pass ID: 20260128_015619_SUOMI NPP
#Satellite: SUOMI NPP
#Configuration: NPP
#almurnet v.1.7.20251203
#Start time: 2026-01-28 01:56:20

#Version: 2.2.20231116
#Station: R4.6S_Anadyr
#Location: 177.4865 lon 64.73178 lat
#TLE: 1 37849U 11061A   26027.57994159  .00000179  00000+0  10588-3 0  9997
#TLE: 2 37849  98.7823 329.5210 0002100  42.0127 318.1210 14.19530762738496

#Time	Az	El	Level	Level2	SNR	BER	BlckErr	Temp	State	Recorded	gain1	gain2
2026-01-28 01:56:20.29	198.49	0.06	-48.8	-60.5	3.5	8.45e-01	0	30	0	0	60	38347
2026-01-28 01:56:24.32	198.70	0.29	-48.9	-64.2	3.6	1.51e+00	0	31	104	0	60	58664
2026-01-28 01:56:28.36	198.92	0.51	-49.0	-64.2	3.6	1.51e+00	0	31	104	0	60	58800
2026-01-28 01:56:32.41	199.14	0.74	-49.0	-64.2	3.6	1.51e+00	0	32	104	0	60	58773
2026-01-28 01:56:36.45	199.36	0.96	-48.8	-64.1	3.6	1.51e+00	0	32	104	0	60	57853
2026-01-28 01:56:40.49	199.59	1.19	-48.5	-63.6	3.5	1.51e+00	0	32	104	0	60	54890
2026-01-28 01:56:44.53	199.82	1.42	-47.5	-62.8	3.6	1.51e+00	0	32	104	0	60	49807
2026-01-28 01:56:48.57	200.05	1.65	-47.5	-62.8	3.6	1.51e+00	0	32	104	0	60	49621
2026-01-28 01:56:52.61	200.29	1.89	-47.5	-62.7	3.6	1.51e+00	0	32	104	0	60	49096
2026-01-28 01:56:56.65	200.53	2.12	-47.5	-62.7	3.6	1.51e+00	0	32	104	0	60	49414
2026-01-28 01:57:00.69	200.77	2.36	-47.5	-62.8	3.6	1.51e+00	0	32	104	0	60	49725
2026-01-28 01:57:04.73	201.02	2.59	-47.5	-61.3	3.6	1.51e+00	0	32	104	0	60	42027
2026-01-28 01:57:08.77	201.27	2.83	-47.4	-59.8	3.9	1.51e+00	0	32	104	0	60	35294
2026-01-28 01:57:12.81	201.52	3.07	-44.7	-48.1	13.6	2.44e-04	0	32	0	6291456	60	9224
2026-01-28 01:57:16.85	201.78	3.32	-43.9	-46.7	15.0	0.00e+00	92	32	0	13631488	60	7788
2026-01-28 01:57:20.89	202.05	3.56	-43.1	-45.3	15.6	1.42e+00	5	32	104	18874368	58	7486
2026-01-28 01:57:24.93	202.31	3.81	-43.6	-46.1	15.7	0.00e+00	0	32	0	25165824	60	7289
2026-01-28 01:57:28.97	202.58	4.05	-42.3	-44.7	16.1	0.00e+00	9	32	0	32505856	58	6982
2026-01-28 01:57:33.02	202.86	4.30	-41.8	-44.6	14.5	7.00e-07	90	32	0	39845888	56	7752
2026-01-28 01:57:37.06	203.14	4.55	-39.3	-43.3	11.7	8.31e-05	92	32	0	47185920	52	8380
2026-01-28 01:57:41.10	203.42	4.81	-41.0	-43.4	15.8	0.00e+00	0	32	0	54525952	54	7557
2026-01-28 01:57:45.14	203.71	5.06	-41.3	-43.0	18.5	0.00e+00	68	32	0	62914560	54	7226
2026-01-28 01:57:49.18	204.01	5.32	-41.1	-42.6	19.3	0.00e+00	92	32	0	70254592	54	6862
2026-01-28 01:57:53.22	204.31	5.58	-41.0	-42.4	19.5	0.00e+00	92	32	0	77594624	54	6766
2026-01-28 01:57:57.26	204.61	5.84	-41.1	-42.6	19.4	0.00e+00	0	32	0	84934656	54	6873
2026-01-28 01:58:01.30	204.92	6.10	-40.9	-42.4	19.7	0.00e+00	92	32	0	93323264	54	6701
2026-01-28 01:58:05.34	205.24	6.37	-40.7	-42.0	20.0	0.00e+00	92	32	0	100663296	54	6449
2026-01-28 01:58:09.38	205.56	6.63	-40.3	-41.6	20.4	0.00e+00	0	32	0	108003328	54	6120
2026-01-28 01:58:13.42	205.88	6.90	-40.5	-41.8	20.4	0.00e+00	0	32	0	115343360	54	6288
2026-01-28 01:58:17.46	206.22	7.17	-39.8	-41.0	21.1	0.00e+00	92	32	0	123731968	52	6416
2026-01-28 01:58:21.50	206.55	7.45	-39.4	-40.6	21.4	0.00e+00	92	32	0	131072000	52	6116
2026-01-28 01:58:25.53	206.90	7.72	-39.4	-40.5	21.6	0.00e+00	0	32	0	138412032	52	6050
2026-01-28 01:58:29.57	207.25	8.00	-39.1	-40.2	21.8	0.00e+00	0	32	0	145752064	52	5829
2026-01-28 01:58:33.61	207.61	8.28	-39.2	-40.3	21.7	0.00e+00	83	32	0	153092096	52	5953
2026-01-28 01:58:37.65	207.97	8.56	-38.5	-39.5	22.4	0.00e+00	92	32	0	161480704	50	6050
2026-01-28 01:58:41.69	208.34	8.84	-38.5	-39.4	22.5	0.00e+00	0	32	0	168820736	50	6006
2026-01-28 01:58:45.72	208.72	9.13	-38.5	-39.5	22.4	0.00e+00	92	32	0	176160768	50	6078
2026-01-28 01:58:49.76	209.10	9.41	-38.7	-39.7	22.2	0.00e+00	83	32	0	183500800	50	6232
2026-01-28 01:58:53.80	209.49	9.70	-39.0	-40.0	22.1	0.00e+00	0	32	0	191889408	50	6436
2026-01-28 01:58:57.84	209.89	10.00	-38.6	-39.6	22.4	0.00e+00	0	32	0	199229440	50	6125
2026-01-28 01:59:01.85	210.29	10.29	-38.5	-39.5	22.5	0.00e+00	91	32	0	206569472	50	6058
2026-01-28 01:59:05.89	210.71	10.59	-38.1	-39.0	22.8	0.00e+00	92	32	0	213909504	50	5747
2026-01-28 01:59:09.93	211.13	10.89	-37.9	-38.9	23.0	0.00e+00	0	32	0	221249536	50	5631
2026-01-28 01:59:13.97	211.56	11.19	-38.1	-39.0	22.9	0.00e+00	65	32	0	229638144	50	5742
2026-01-28 01:59:18.01	212.00	11.49	-38.5	-39.4	22.6	0.00e+00	63	32	0	236978176	50	6033
2026-01-28 01:59:22.04	212.45	11.80	-38.4	-39.3	22.7	0.00e+00	92	32	0	244318208	50	5960
2026-01-28 01:59:26.09	212.91	12.11	-38.3	-39.3	22.7	0.00e+00	0	32	0	251658240	50	5945
2026-01-28 01:59:30.13	213.38	12.42	-38.0	-38.9	23.0	0.00e+00	61	32	0	258998272	50	5671
2026-01-28 01:59:34.16	213.86	12.73	-38.0	-38.9	23.0	0.00e+00	92	32	0	267386880	50	5655
2026-01-28 01:59:38.20	214.34	13.05	-38.1	-39.1	22.9	0.00e+00	0	32	0	274726912	50	5772
2026-01-28 01:59:42.24	214.84	13.36	-38.7	-39.7	22.5	0.00e+00	33	32	0	282066944	50	6182
2026-01-28 01:59:46.28	215.35	13.68	-38.5	-39.4	22.7	0.00e+00	92	33	0	289406976	50	6029
2026-01-28 01:59:50.32	215.87	14.01	-38.6	-39.6	22.7	0.00e+00	91	32	0	297795584	50	6133
2026-01-28 01:59:54.36	216.40	14.33	-38.9	-39.9	22.0	0.00e+00	0	33	0	305135616	50	6327
2026-01-28 01:59:58.40	216.94	14.66	-38.8	-39.8	22.5	0.00e+00	0	32	0	312475648	50	6293
2026-01-28 02:00:02.43	217.49	14.98	-38.9	-39.9	22.4	0.00e+00	65	32	0	319815680	50	6340
2026-01-28 02:00:06.47	218.05	15.31	-38.2	-39.1	22.9	0.00e+00	92	32	0	327155712	50	5807
2026-01-28 02:00:10.51	218.63	15.65	-37.8	-38.6	23.4	0.00e+00	0	33	0	335544320	50	5498
2026-01-28 02:00:14.54	219.22	15.98	-38.0	-38.9	23.1	0.00e+00	86	32	0	342884352	48	6353
2026-01-28 02:00:18.59	219.82	16.32	-38.5	-39.5	22.8	0.00e+00	88	32	0	350224384	48	6813
2026-01-28 02:00:22.62	220.43	16.65	-38.3	-39.3	22.9	0.00e+00	90	32	0	357564416	48	6654
2026-01-28 02:00:26.67	221.06	16.99	-38.2	-39.1	23.0	0.00e+00	0	32	0	365953024	48	6515
2026-01-28 02:00:30.70	221.70	17.33	-38.0	-39.0	23.2	0.00e+00	90	32	0	373293056	48	6400
2026-01-28 02:00:34.74	222.36	17.67	-38.0	-39.0	23.2	0.00e+00	82	33	0	380633088	48	6401
2026-01-28 02:00:38.78	223.03	18.01	-37.5	-38.4	23.0	0.00e+00	0	32	0	387973120	48	6019
2026-01-28 02:00:42.82	223.72	18.36	-37.2	-38.1	23.9	0.00e+00	0	32	0	395313152	48	5768
2026-01-28 02:00:46.85	224.42	18.70	-36.8	-37.7	24.1	0.00e+00	92	33	0	403701760	48	5519
2026-01-28 02:00:50.89	225.13	19.05	-37.0	-37.8	24.1	0.00e+00	92	32	0	411041792	46	6305
2026-01-28 02:00:54.93	225.87	19.39	-37.1	-38.0	24.0	0.00e+00	0	33	0	418381824	46	6407
2026-01-28 02:00:58.97	226.61	19.74	-37.0	-37.8	24.0	0.00e+00	1	33	0	425721856	46	6294
2026-01-28 02:01:03.00	227.38	20.08	-37.3	-38.2	23.9	0.00e+00	75	32	0	434110464	46	6545
2026-01-28 02:01:07.03	228.16	20.43	-36.5	-37.3	24.5	0.00e+00	94	33	0	441450496	46	5915
2026-01-28 02:01:11.07	228.96	20.77	-37.3	-38.2	23.9	0.00e+00	0	33	0	448790528	46	6553
2026-01-28 02:01:15.10	229.77	21.11	-36.4	-37.2	24.5	0.00e+00	71	32	0	456130560	46	5888
2026-01-28 02:01:19.14	230.61	21.45	-35.9	-36.7	24.9	0.00e+00	59	33	0	463470592	46	5516
2026-01-28 02:01:23.18	231.46	21.79	-35.7	-36.5	25.0	0.00e+00	0	32	0	471859200	44	6073
2026-01-28 02:01:27.22	232.33	22.13	-36.3	-37.0	24.4	0.00e+00	0	32	0	479199232	44	6464
2026-01-28 02:01:31.26	233.22	22.47	-36.7	-37.5	24.2	0.00e+00	92	32	0	486539264	44	6797
2026-01-28 02:01:35.30	234.13	22.80	-36.7	-37.5	24.3	0.00e+00	92	32	0	493879296	46	6082
2026-01-28 02:01:39.34	235.06	23.13	-37.1	-37.9	24.1	0.00e+00	0	32	0	501219328	46	6356
2026-01-28 02:01:43.38	236.01	23.46	-37.0	-37.8	24.1	0.00e+00	0	33	0	509607936	46	6309
2026-01-28 02:01:47.43	236.98	23.78	-37.3	-38.1	23.9	0.00e+00	92	32	0	516947968	46	6520
2026-01-28 02:01:51.46	237.96	24.10	-37.7	-38.6	23.6	0.00e+00	92	32	0	524288000	48	6116
2026-01-28 02:01:55.50	238.97	24.41	-37.4	-38.2	23.8	0.00e+00	0	33	0	531628032	48	5894
2026-01-28 02:01:59.54	239.99	24.72	-37.4	-38.3	23.7	0.00e+00	50	33	0	540016640	48	5904
2026-01-28 02:02:03.58	241.03	25.02	-37.5	-38.4	23.7	0.00e+00	86	32	0	547356672	48	6018
2026-01-28 02:02:07.62	242.10	25.32	-37.2	-38.0	24.0	0.00e+00	92	32	0	554696704	48	5748
2026-01-28 02:02:11.66	243.18	25.60	-37.3	-38.1	23.9	0.00e+00	0	32	0	562036736	48	5799
2026-01-28 02:02:15.70	244.28	25.88	-37.8	-38.7	23.5	0.00e+00	92	33	0	569376768	48	6189
2026-01-28 02:02:19.74	245.41	26.15	-37.5	-38.4	23.6	0.00e+00	90	33	0	577765376	48	5991
2026-01-28 02:02:23.77	246.54	26.42	-38.4	-39.3	23.1	0.00e+00	0	32	0	585105408	50	5918
2026-01-28 02:02:27.81	247.70	26.67	-37.2	-38.0	24.0	0.00e+00	0	32	0	592445440	48	5752
2026-01-28 02:02:31.86	248.88	26.91	-38.5	-39.5	22.9	0.00e+00	92	33	0	599785472	48	6801
2026-01-28 02:02:35.89	250.07	27.14	-38.0	-38.9	23.3	0.00e+00	92	32	0	608174080	50	5648
2026-01-28 02:02:39.93	251.28	27.36	-37.6	-38.4	23.7	0.00e+00	0	33	0	615514112	48	6001
2026-01-28 02:02:43.97	252.50	27.57	-38.5	-39.5	22.9	0.00e+00	1	33	0	622854144	48	6777
2026-01-28 02:02:48.01	253.74	27.77	-38.0	-38.9	23.2	0.00e+00	79	33	0	630194176	48	6344
2026-01-28 02:02:52.05	255.00	27.95	-40.1	-41.2	21.5	0.00e+00	92	33	0	637534208	52	6583
2026-01-28 02:02:56.09	256.27	28.12	-40.7	-41.8	20.9	0.00e+00	0	33	0	645922816	54	6305
2026-01-28 02:03:00.12	257.54	28.27	-42.0	-43.5	19.6	0.00e+00	57	33	0	653262848	56	6807
2026-01-28 02:03:04.16	258.84	28.41	-41.5	-42.9	20.1	0.00e+00	92	33	0	660602880	56	6345
2026-01-28 02:03:08.20	260.14	28.54	-39.9	-41.0	21.6	0.00e+00	0	33	0	667942912	54	5740
2026-01-28 02:03:12.24	261.45	28.65	-40.6	-41.8	21.0	0.00e+00	0	33	0	676331520	52	7061
2026-01-28 02:03:16.28	262.77	28.74	-39.9	-41.0	21.7	0.00e+00	92	33	0	683671552	52	6417
2026-01-28 02:03:20.32	264.10	28.82	-39.3	-40.3	22.3	0.00e+00	92	33	0	691011584	52	5956
2026-01-28 02:03:24.36	265.43	28.88	-39.4	-40.4	22.1	0.00e+00	0	33	0	698351616	52	6030
2026-01-28 02:03:28.40	266.77	28.93	-38.8	-39.8	22.7	0.00e+00	0	33	0	706740224	50	6275
2026-01-28 02:03:32.44	268.11	28.96	-39.0	-40.0	22.5	0.00e+00	90	33	0	714080256	50	6439
2026-01-28 02:03:36.48	269.45	28.97	-38.8	-39.7	22.7	0.00e+00	92	33	0	721420288	50	6231
2026-01-28 02:03:40.52	270.79	28.97	-38.9	-39.9	22.7	0.00e+00	0	33	0	728760320	50	6327
2026-01-28 02:03:44.56	272.13	28.94	-39.7	-40.8	21.8	0.00e+00	92	33	0	736100352	50	7047
2026-01-28 02:03:48.60	273.47	28.91	-40.3	-41.4	21.3	0.00e+00	90	33	0	744488960	52	6763
2026-01-28 02:03:52.64	274.80	28.85	-39.2	-40.2	22.4	0.00e+00	92	33	0	751828992	52	5874
2026-01-28 02:03:56.68	276.13	28.78	-38.4	-39.4	22.8	0.00e+00	0	33	0	759169024	50	5968
2026-01-28 02:04:00.71	277.45	28.69	-40.6	-41.7	21.1	0.00e+00	92	33	0	766509056	52	6999
2026-01-28 02:04:04.74	278.76	28.59	-40.5	-41.6	21.1	0.00e+00	92	33	0	773849088	54	6170
2026-01-28 02:04:08.79	280.07	28.47	-41.0	-42.2	20.6	0.00e+00	0	33	0	782237696	54	6595
2026-01-28 02:04:12.83	281.36	28.34	-42.9	-44.7	18.6	0.00e+00	0	33	0	789577728	58	6930
2026-01-28 02:04:16.87	282.65	28.19	-40.6	-41.8	21.0	0.00e+00	92	33	0	796917760	54	6261
2026-01-28 02:04:20.91	283.92	28.03	-39.4	-40.4	22.2	0.00e+00	92	33	0	804257792	52	5999
2026-01-28 02:04:24.94	285.17	27.86	-39.4	-40.4	22.3	0.00e+00	0	33	0	812646400	52	5977
2026-01-28 02:04:28.98	286.42	27.67	-39.5	-40.5	22.0	0.00e+00	92	33	0	819986432	50	6847
2026-01-28 02:04:33.02	287.65	27.46	-38.2	-39.1	23.1	0.00e+00	90	33	0	827326464	50	5784
2026-01-28 02:04:37.06	288.86	27.25	-39.5	-40.6	22.0	0.00e+00	0	33	0	834666496	50	6890
2026-01-28 02:04:41.09	290.06	27.03	-38.3	-39.2	23.2	0.00e+00	0	33	0	842006528	50	5884
2026-01-28 02:04:45.13	291.24	26.79	-38.8	-39.7	22.7	0.00e+00	92	33	0	850395136	50	6242
2026-01-28 02:04:49.17	292.40	26.54	-37.9	-38.8	23.4	0.00e+00	90	33	0	857735168	48	6286
2026-01-28 02:04:53.20	293.54	26.29	-37.3	-38.2	23.5	0.00e+00	33	33	0	865075200	48	5832
2026-01-28 02:04:57.24	294.67	26.02	-37.3	-38.1	24.0	0.00e+00	33	33	0	872415232	48	5819
2026-01-28 02:05:01.28	295.77	25.75	-37.5	-38.4	23.8	0.00e+00	90	33	0	880803840	48	5984
2026-01-28 02:05:05.32	296.86	25.47	-37.8	-38.7	23.5	0.00e+00	91	33	0	888143872	48	6185
2026-01-28 02:05:09.35	297.93	25.18	-36.3	-37.0	24.6	0.00e+00	33	33	0	895483904	46	5741
2026-01-28 02:05:13.39	298.98	24.88	-37.6	-38.4	23.7	0.00e+00	91	33	0	902823936	46	6739
2026-01-28 02:05:17.43	300.01	24.58	-37.4	-38.3	23.8	0.00e+00	92	33	0	910163968	48	5925
2026-01-28 02:05:21.47	301.02	24.27	-37.0	-37.8	24.1	0.00e+00	0	33	0	918552576	48	5623
2026-01-28 02:05:25.51	302.01	23.96	-36.4	-37.2	24.6	0.00e+00	0	33	0	925892608	46	5885
2026-01-28 02:05:29.55	302.98	23.64	-37.0	-37.8	24.2	0.00e+00	92	33	0	933232640	46	6314
2026-01-28 02:05:33.59	303.94	23.31	-37.4	-38.3	23.8	0.00e+00	52	33	0	940572672	46	6626
2026-01-28 02:05:37.63	304.87	22.99	-36.9	-37.7	24.3	0.00e+00	0	33	0	948961280	46	6231
2026-01-28 02:05:41.68	305.79	22.66	-37.7	-38.6	23.6	0.00e+00	0	33	0	956301312	46	6871
2026-01-28 02:05:45.72	306.68	22.33	-37.2	-38.0	24.1	0.00e+00	92	33	0	963641344	46	6443
2026-01-28 02:05:49.75	307.56	21.99	-38.5	-39.5	22.8	0.00e+00	85	33	0	970981376	48	6776
2026-01-28 02:05:53.80	308.42	21.65	-37.1	-37.9	23.9	0.00e+00	0	33	0	978321408	48	5693
2026-01-28 02:05:57.83	309.26	21.32	-37.7	-38.6	23.6	0.00e+00	0	32	0	986710016	48	6155
2026-01-28 02:06:01.87	310.08	20.97	-37.6	-38.4	23.6	0.00e+00	39	33	0	994050048	48	6019
2026-01-28 02:06:05.91	310.88	20.63	-38.9	-39.9	22.5	0.00e+00	0	33	0	1001390080	50	6320
2026-01-28 02:06:09.95	311.67	20.29	-37.4	-38.2	23.7	0.00e+00	0	33	0	1008730112	48	5873
2026-01-28 02:06:13.99	312.44	19.95	-37.2	-38.1	23.8	0.00e+00	31	33	0	1017118720	46	6498
2026-01-28 02:06:18.03	313.20	19.61	-38.6	-39.6	22.7	0.00e+00	87	33	0	1024458752	50	6116
2026-01-28 02:06:22.08	313.94	19.26	-37.8	-38.7	23.3	0.00e+00	0	33	0	1031798784	50	5549
2026-01-28 02:06:26.11	314.66	18.92	-38.0	-39.0	23.3	0.00e+00	0	33	0	1039138816	48	6409
2026-01-28 02:06:30.16	315.37	18.58	-37.1	-38.0	23.8	0.00e+00	37	33	0	1047527424	48	5708
2026-01-28 02:06:34.19	316.05	18.24	-37.3	-38.1	23.8	0.00e+00	92	33	0	1054867456	46	6516
2026-01-28 02:06:38.23	316.73	17.90	-37.4	-38.3	23.7	0.00e+00	0	33	0	1062207488	48	5928
2026-01-28 02:06:42.27	317.39	17.56	-37.6	-38.5	23.5	0.00e+00	17	33	0	1069547520	48	6036
2026-01-28 02:06:46.30	318.04	17.22	-38.7	-39.7	22.5	0.00e+00	89	32	0	1076887552	50	6218
2026-01-28 02:06:50.34	318.67	16.89	-38.3	-39.2	22.9	0.00e+00	0	33	0	1085276160	50	5884
2026-01-28 02:06:54.38	319.29	16.55	-37.5	-38.4	23.1	0.00e+00	0	33	0	1092616192	48	6011
2026-01-28 02:06:58.41	319.90	16.22	-37.4	-38.3	23.6	0.00e+00	80	33	0	1099956224	48	5919
2026-01-28 02:07:02.45	320.49	15.88	-36.9	-37.7	24.0	0.00e+00	58	33	0	1107296256	48	5528
2026-01-28 02:07:06.49	321.07	15.55	-37.3	-38.2	23.9	0.00e+00	0	32	0	1114636288	46	6565
2026-01-28 02:07:10.52	321.64	15.23	-38.0	-38.9	23.1	0.00e+00	0	33	0	1123024896	48	6375
2026-01-28 02:07:14.56	322.20	14.90	-38.5	-39.5	22.6	0.00e+00	87	33	0	1130364928	48	6832
2026-01-28 02:07:18.60	322.74	14.58	-38.4	-39.4	22.9	0.00e+00	92	33	0	1137704960	50	5992
2026-01-28 02:07:22.64	323.28	14.25	-37.6	-38.5	23.4	0.00e+00	0	33	0	1145044992	48	6077
2026-01-28 02:07:26.68	323.80	13.93	-37.6	-38.6	23.4	0.00e+00	0	33	0	1153433600	48	6104
2026-01-28 02:07:30.71	324.31	13.61	-37.5	-38.4	23.5	0.00e+00	28	33	0	1160773632	48	5977
2026-01-28 02:07:34.75	324.81	13.30	-37.2	-38.1	23.8	0.00e+00	0	33	0	1168113664	48	5786
2026-01-28 02:07:38.79	325.30	12.98	-37.4	-38.3	23.4	0.00e+00	0	33	0	1175453696	48	5916
2026-01-28 02:07:42.83	325.79	12.67	-38.5	-39.4	22.6	0.00e+00	0	33	0	1182793728	48	6753
2026-01-28 02:07:46.87	326.26	12.36	-38.7	-39.7	22.4	0.00e+00	87	33	0	1191182336	50	6226
2026-01-28 02:07:50.91	326.72	12.06	-38.7	-39.7	22.4	0.00e+00	0	33	0	1198522368	50	6221
2026-01-28 02:07:54.95	327.17	11.75	-38.6	-39.6	22.4	0.00e+00	0	33	0	1205862400	50	6144
2026-01-28 02:07:58.98	327.62	11.45	-38.9	-39.9	22.2	0.00e+00	84	33	0	1213202432	50	6333
2026-01-28 02:08:03.02	328.05	11.15	-38.6	-39.6	22.4	0.00e+00	0	33	0	1221591040	50	6152
2026-01-28 02:08:07.06	328.48	10.85	-38.3	-39.3	22.8	0.00e+00	0	33	0	1228931072	50	5903
2026-01-28 02:08:11.11	328.90	10.55	-38.2	-39.1	22.7	0.00e+00	0	33	0	1236271104	50	5798
2026-01-28 02:08:15.15	329.31	10.26	-39.0	-40.0	22.0	0.00e+00	84	33	0	1243611136	50	6433
2026-01-28 02:08:19.19	329.72	9.97	-39.6	-40.7	21.5	0.00e+00	0	32	0	1250951168	50	6973
2026-01-28 02:08:23.22	330.11	9.68	-39.7	-40.9	21.2	0.00e+00	0	33	0	1259339776	52	6360
2026-01-28 02:08:27.26	330.50	9.39	-39.2	-40.3	21.7	0.00e+00	0	33	0	1266679808	52	5933
2026-01-28 02:08:31.30	330.88	9.11	-39.3	-40.4	21.7	0.00e+00	92	33	0	1274019840	52	5970
2026-01-28 02:08:35.33	331.26	8.83	-39.3	-40.4	21.6	0.00e+00	0	33	0	1281359872	52	5976
2026-01-28 02:08:39.37	331.63	8.55	-40.4	-41.7	20.4	0.00e+00	0	33	0	1289748480	52	6986
2026-01-28 02:08:43.40	331.99	8.27	-40.6	-41.9	20.2	0.00e+00	19	33	0	1297088512	54	6389
2026-01-28 02:08:47.44	332.34	7.99	-40.7	-42.1	20.1	0.00e+00	0	33	0	1304428544	54	6494
2026-01-28 02:08:51.48	332.69	7.72	-40.1	-41.3	20.8	0.00e+00	0	33	0	1311768576	54	5940
2026-01-28 02:08:55.52	333.03	7.45	-39.7	-40.9	21.1	0.00e+00	0	33	0	1319108608	52	6320
2026-01-28 02:08:59.56	333.37	7.18	-39.3	-40.4	21.3	0.00e+00	78	33	0	1327497216	52	6031
2026-01-28 02:09:03.60	333.70	6.91	-39.3	-40.4	21.5	0.00e+00	0	33	0	1334837248	52	6005
2026-01-28 02:09:07.64	334.03	6.64	-39.2	-40.3	21.2	0.00e+00	0	33	0	1342177280	52	5961
2026-01-28 02:09:11.68	334.34	6.38	-39.4	-40.6	21.0	0.00e+00	0	33	0	1349517312	52	6117
2026-01-28 02:09:15.72	334.66	6.12	-39.9	-41.2	20.0	0.00e+00	92	33	0	1357905920	52	6587
2026-01-28 02:09:19.76	334.97	5.86	-40.8	-42.5	18.3	0.00e+00	0	33	0	1365245952	54	6813
2026-01-28 02:09:23.80	335.27	5.60	-41.6	-43.9	16.1	0.00e+00	0	33	0	1372585984	54	8027
2026-01-28 02:09:27.83	335.57	5.35	-42.5	-45.5	14.2	2.20e-06	81	33	0	1379926016	56	8621
2026-01-28 02:09:31.87	335.86	5.09	-43.4	-48.2	10.7	1.62e-03	0	33	0	1387266048	58	10444
2026-01-28 02:09:35.91	336.15	4.84	-43.9	-50.7	7.3	6.40e-02	0	33	0	1395654656	60	12381
2026-01-28 02:09:39.95	336.44	4.59	-44.1	-52.8	4.9	6.73e-01	0	33	0	1402994688	60	15795
2026-01-28 02:09:43.99	336.72	4.34	-44.1	-54.1	4.0	1.17e+00	84	33	0	1410334720	60	18264
2026-01-28 02:09:48.03	337.00	4.09	-44.1	-56.9	3.7	1.48e+00	0	33	104	1411383296	60	25397
2026-01-28 02:09:52.06	337.27	3.85	-44.1	-57.5	3.6	1.51e+00	0	33	104	1411383296	60	27243
2026-01-28 02:09:56.10	337.53	3.61	-44.1	-58.4	3.6	1.51e+00	0	33	104	1411383296	60	30021
2026-01-28 02:10:00.14	337.80	3.36	-44.0	-58.9	3.6	1.51e+00	0	33	104	1411383296	60	32024
2026-01-28 02:10:04.18	338.06	3.12	-44.1	-59.2	3.6	1.51e+00	0	33	104	1411383296	60	32918
2026-01-28 02:10:08.22	338.31	2.89	-47.7	-62.9	3.6	1.51e+00	0	33	104	1411383296	60	50759
2026-01-28 02:10:12.26	338.57	2.65	-48.9	-64.1	3.6	1.51e+00	0	33	104	1411383296	60	57871
2026-01-28 02:10:16.30	338.81	2.41	-49.2	-64.4	3.6	1.51e+00	0	33	104	1411383296	60	60061
2026-01-28 02:10:20.34	339.06	2.18	-49.1	-64.4	3.6	1.51e+00	0	33	104	1411383296	60	59894
2026-01-28 02:10:24.38	339.30	1.95	-49.1	-64.3	3.6	1.51e+00	0	33	104	1411383296	60	59319
2026-01-28 02:10:28.42	339.54	1.72	-49.0	-64.3	3.6	1.51e+00	0	33	104	1411383296	60	59011
2026-01-28 02:10:32.46	339.77	1.49	-49.0	-64.3	3.6	1.51e+00	0	33	104	1411383296	60	59553
2026-01-28 02:10:36.50	340.00	1.26	-49.0	-64.3	3.6	1.51e+00	0	33	104	1411383296	60	59170
2026-01-28 02:10:40.54	340.23	1.03	-49.0	-64.3	3.6	1.51e+00	0	33	104	1411383296	60	59041
2026-01-28 02:10:44.58	340.46	0.81	-49.0	-64.2	3.6	1.51e+00	0	33	104	1411383296	60	58703
2026-01-28 02:10:48.62	340.68	0.59	-49.0	-64.3	3.6	1.51e+00	0	33	104	1411383296	60	58969
2026-01-28 02:10:52.66	340.90	0.37	-49.0	-64.2	3.6	1.51e+00	0	33	104	1411383296	60	58556
2026-01-28 02:10:56.70	341.11	0.14	-49.0	-64.2	3.6	1.51e+00	0	33	104	1411383296	60	58744
2026-01-28 02:11:00.74	341.32	-0.07	-49.0	-64.2	3.6	1.51e+00	0	33	104	1411383296	60	58803

#Closed at: 2026-01-28 02:11:01
#Recorded file [1411 MB]: D:/lorett/data/35029_260128_135620.dat