passes_logs/2026/01/28/R4.6S_Anadyr/R4.6S_Anadyr__20260128_084141_KOSAR1-5_rec.log

#Pass ID: 20260128_084141_KOSAR1-5
#Satellite: KOSAR1-5
#Configuration: KOSAR1-5
#almurnet v.1.7.20251203
#Start time: 2026-01-28 08:41:45

#Version: 2.2.20231116
#Station: R4.6S_Anadyr
#Location: 177.4865 lon 64.73178 lat
#TLE: 1 67264U 25313S   26027.76143924  .00010916  00000+0  50329-3 0  9990
#TLE: 2 67264  97.4176 104.7207 0016474 138.6036 221.6451 15.20309833  4594

#Time	Az	El	Level	Level2	SNR	BER	BlckErr	Temp	State	Recorded	gain1	gain2
2026-01-28 08:41:45.52	136.27	0.27	-49.0	-50.5	5.7	0.00e+00	0	30	0	0	60	41032
2026-01-28 08:41:48.54	136.16	0.46	-45.6	-60.3	3.6	1.51e+00	0	31	104	0	60	41885
2026-01-28 08:41:51.57	136.05	0.65	-45.7	-60.4	3.6	1.51e+00	0	31	104	0	60	42485
2026-01-28 08:41:54.60	135.94	0.85	-45.6	-60.3	3.6	1.51e+00	0	31	104	0	60	42019
2026-01-28 08:41:57.62	135.82	1.04	-45.6	-60.3	3.6	1.51e+00	0	31	104	0	60	41931
2026-01-28 08:42:00.66	135.71	1.24	-45.4	-60.1	3.6	1.51e+00	0	31	104	0	60	41014
2026-01-28 08:42:03.69	135.59	1.44	-45.2	-60.0	3.6	1.51e+00	0	31	104	0	60	40436
2026-01-28 08:42:06.72	135.46	1.64	-44.7	-59.5	3.6	1.51e+00	0	31	104	0	60	38245
2026-01-28 08:42:09.75	135.34	1.85	-44.4	-59.1	3.6	1.51e+00	0	31	104	0	60	36774
2026-01-28 08:42:12.77	135.22	2.05	-44.4	-59.2	3.6	1.51e+00	0	31	104	0	60	37112
2026-01-28 08:42:15.80	135.09	2.26	-44.4	-59.2	3.6	1.51e+00	0	32	104	0	60	36967
2026-01-28 08:42:18.83	134.96	2.47	-44.4	-59.2	3.6	1.51e+00	0	31	104	0	60	36918
2026-01-28 08:42:21.86	134.82	2.68	-44.4	-59.1	3.6	1.51e+00	0	32	104	0	60	36762
2026-01-28 08:42:24.89	134.69	2.89	-44.4	-59.2	3.6	1.51e+00	0	32	104	0	60	36848
2026-01-28 08:42:27.92	134.55	3.11	-44.4	-59.1	3.6	1.51e+00	0	32	104	0	60	36750
2026-01-28 08:42:30.95	134.40	3.33	-44.4	-59.2	3.6	1.51e+00	0	32	104	0	60	36844
2026-01-28 08:42:33.98	134.26	3.55	-44.4	-59.2	3.6	1.51e+00	0	32	104	0	60	36813
2026-01-28 08:42:37.01	134.11	3.77	-44.4	-59.1	3.6	1.51e+00	0	32	104	0	60	36675
2026-01-28 08:42:40.04	133.96	3.99	-44.4	-59.1	3.6	1.51e+00	0	32	104	0	60	36604
2026-01-28 08:42:43.07	133.81	4.22	-44.3	-59.1	3.6	1.51e+00	0	32	104	0	60	36766
2026-01-28 08:42:46.09	133.65	4.45	-44.5	-59.3	3.6	1.51e+00	0	32	104	0	60	37341
2026-01-28 08:42:49.12	133.49	4.68	-44.4	-59.2	3.6	1.51e+00	0	32	104	0	60	36807
2026-01-28 08:42:52.15	133.32	4.91	-44.6	-59.3	3.6	1.51e+00	0	32	104	0	60	37397
2026-01-28 08:42:55.17	133.16	5.15	-44.5	-59.2	3.6	1.51e+00	0	32	104	0	60	37000
2026-01-28 08:42:58.20	132.99	5.39	-44.6	-59.3	3.6	1.51e+00	0	32	104	0	60	37572
2026-01-28 08:43:01.23	132.81	5.63	-44.6	-59.3	3.6	1.51e+00	0	32	104	0	60	37213
2026-01-28 08:43:04.25	132.63	5.87	-44.6	-59.3	3.6	1.51e+00	0	32	104	0	60	37612
2026-01-28 08:43:07.28	132.45	6.12	-44.6	-59.3	3.6	1.51e+00	0	32	104	0	60	37404
2026-01-28 08:43:10.31	132.26	6.37	-44.7	-59.4	3.6	1.51e+00	0	32	104	0	60	37839
2026-01-28 08:43:13.34	132.07	6.62	-44.6	-59.4	3.6	1.51e+00	0	32	104	0	60	37696
2026-01-28 08:43:16.37	131.87	6.88	-44.7	-59.5	3.6	1.51e+00	0	32	104	0	60	38071
2026-01-28 08:43:19.39	131.67	7.14	-44.7	-59.5	3.6	1.51e+00	0	32	104	0	60	38076
2026-01-28 08:43:22.42	131.47	7.40	-44.8	-59.5	3.6	1.51e+00	0	32	104	0	60	38375
2026-01-28 08:43:25.45	131.26	7.67	-44.8	-59.5	3.6	1.51e+00	0	32	104	0	60	38296
2026-01-28 08:43:28.48	131.04	7.94	-44.8	-59.5	3.6	1.51e+00	0	32	104	0	60	38328
2026-01-28 08:43:31.51	130.82	8.21	-44.7	-59.6	3.6	1.51e+00	0	32	104	0	60	38584
2026-01-28 08:43:34.53	130.60	8.48	-44.8	-59.6	3.6	1.51e+00	0	32	104	0	60	38571
2026-01-28 08:43:37.56	130.36	8.76	-44.8	-59.6	3.6	1.51e+00	0	32	104	0	60	38799
2026-01-28 08:43:40.59	130.13	9.05	-44.8	-59.6	3.6	1.51e+00	0	32	104	0	60	38650
2026-01-28 08:43:43.61	129.88	9.34	-44.6	-59.6	3.6	1.51e+00	0	32	104	0	60	38711
2026-01-28 08:43:46.64	129.63	9.63	-44.6	-59.6	3.6	1.51e+00	0	32	104	0	60	38839
2026-01-28 08:43:49.67	129.38	9.92	-44.7	-59.7	3.6	1.51e+00	0	32	104	0	60	39026
2026-01-28 08:43:52.70	129.11	10.23	-44.7	-59.7	3.6	1.51e+00	0	32	104	0	60	38966
2026-01-28 08:43:55.73	128.84	10.53	-45.0	-59.7	3.6	1.51e+00	0	32	104	0	60	39143
2026-01-28 08:43:58.76	128.57	10.84	-44.9	-59.7	3.6	1.51e+00	0	32	104	0	60	39033
2026-01-28 08:44:01.78	128.28	11.15	-45.0	-59.8	3.6	1.51e+00	0	32	104	0	60	39455
2026-01-28 08:44:04.82	127.99	11.47	-44.9	-59.7	3.6	1.51e+00	0	32	104	0	60	39319
2026-01-28 08:44:07.84	127.69	11.80	-45.0	-59.7	3.6	1.51e+00	0	32	104	0	60	39256
2026-01-28 08:44:10.87	127.38	12.13	-45.0	-59.7	3.6	1.51e+00	0	32	104	0	60	39320
2026-01-28 08:44:13.90	127.06	12.46	-45.0	-59.7	3.6	1.51e+00	0	32	104	0	60	39259
2026-01-28 08:44:16.93	126.73	12.80	-45.0	-59.7	3.6	1.51e+00	0	32	104	0	60	39171
2026-01-28 08:44:19.95	126.40	13.14	-45.0	-59.7	3.6	1.51e+00	0	32	104	0	60	39259
2026-01-28 08:44:22.98	126.05	13.49	-44.9	-59.8	3.6	1.51e+00	0	32	104	0	60	39458
2026-01-28 08:44:26.00	125.69	13.85	-45.1	-59.8	3.6	1.51e+00	0	32	104	0	60	39702
2026-01-28 08:44:29.03	125.33	14.21	-45.0	-59.7	3.6	1.51e+00	0	32	104	0	60	39233
2026-01-28 08:44:32.06	124.95	14.58	-45.1	-59.8	3.6	1.51e+00	0	32	104	0	60	39765
2026-01-28 08:44:35.08	124.56	14.95	-45.0	-59.8	3.6	1.51e+00	0	32	104	0	60	39650
2026-01-28 08:44:38.11	124.16	15.34	-45.1	-59.9	3.6	1.51e+00	0	32	104	0	60	40148
2026-01-28 08:44:41.14	123.74	15.72	-45.1	-59.8	3.6	1.51e+00	0	32	104	0	60	39833
2026-01-28 08:44:44.17	123.31	16.12	-45.1	-59.9	3.6	1.51e+00	0	32	104	0	60	40050
2026-01-28 08:44:47.20	122.87	16.52	-45.1	-59.8	3.6	1.51e+00	0	32	104	0	60	39837
2026-01-28 08:44:50.22	122.41	16.93	-44.9	-59.9	3.6	1.51e+00	0	32	104	0	60	40047
2026-01-28 08:44:53.26	121.94	17.34	-45.0	-59.9	3.6	1.51e+00	0	32	104	0	60	39923
2026-01-28 08:44:56.28	121.45	17.77	-45.2	-59.9	3.5	1.51e+00	0	32	104	0	60	40228
2026-01-28 08:44:59.31	120.95	18.20	-45.2	-59.9	3.6	1.51e+00	0	32	104	0	60	40162
2026-01-28 08:45:02.34	120.42	18.63	-45.1	-59.9	3.6	1.51e+00	0	32	104	0	60	40268
2026-01-28 08:45:05.36	119.89	19.08	-45.1	-59.9	3.6	1.51e+00	0	32	104	0	60	40113
2026-01-28 08:45:08.40	119.33	19.53	-45.1	-59.9	3.6	1.51e+00	0	32	104	0	60	40257
2026-01-28 08:45:11.43	118.75	20.00	-45.1	-60.0	3.6	1.51e+00	0	32	104	0	60	40401
2026-01-28 08:45:14.45	118.15	20.46	-45.3	-59.9	3.5	1.51e+00	0	32	104	0	60	40180
2026-01-28 08:45:17.48	117.53	20.94	-45.2	-60.0	3.6	1.51e+00	0	32	104	0	60	40348
2026-01-28 08:45:20.51	116.88	21.43	-45.3	-60.0	3.6	1.51e+00	0	32	104	0	60	40349
2026-01-28 08:45:23.54	116.22	21.92	-45.3	-60.0	3.6	1.51e+00	0	32	104	0	60	40649
2026-01-28 08:45:26.56	115.53	22.42	-45.3	-60.0	3.6	1.51e+00	0	32	104	0	60	40622
2026-01-28 08:45:29.59	114.81	22.93	-45.3	-60.0	3.6	1.51e+00	0	32	104	0	60	40518
2026-01-28 08:45:32.62	114.06	23.45	-45.2	-60.0	3.6	1.51e+00	0	32	104	0	60	40644
2026-01-28 08:45:35.65	113.28	23.98	-45.3	-60.0	3.6	1.51e+00	0	32	104	0	60	40509
2026-01-28 08:45:38.68	112.48	24.52	-45.3	-60.0	3.6	1.51e+00	0	32	104	0	60	40751
2026-01-28 08:45:41.71	111.64	25.06	-45.3	-60.0	3.6	1.51e+00	0	32	104	0	60	40737
2026-01-28 08:45:44.73	110.77	25.61	-45.2	-60.0	3.6	1.51e+00	0	32	104	0	60	40649
2026-01-28 08:45:47.76	109.87	26.16	-45.3	-60.0	3.6	1.51e+00	0	32	104	0	60	40722
2026-01-28 08:45:50.78	108.93	26.73	-45.4	-60.1	3.6	1.51e+00	0	32	104	0	60	40990
2026-01-28 08:45:53.81	107.95	27.30	-45.4	-60.1	3.5	1.51e+00	0	32	104	0	60	40989
2026-01-28 08:45:56.84	106.93	27.87	-45.3	-60.1	3.6	1.51e+00	0	32	104	0	60	40892
2026-01-28 08:45:59.86	105.88	28.45	-45.1	-60.1	3.6	1.51e+00	0	32	104	0	60	41005
2026-01-28 08:46:02.89	104.78	29.03	-45.3	-60.1	3.6	1.51e+00	0	32	104	0	60	41007
2026-01-28 08:46:05.91	103.63	29.62	-45.3	-60.1	3.5	1.51e+00	0	32	104	0	60	40962
2026-01-28 08:46:08.94	102.44	30.21	-45.4	-60.1	3.6	1.51e+00	0	32	104	0	60	41056
2026-01-28 08:46:11.96	101.20	30.80	-45.2	-60.1	3.6	1.51e+00	0	32	104	0	60	41164
2026-01-28 08:46:14.99	99.90	31.39	-45.3	-60.1	3.6	1.51e+00	0	32	104	0	60	41187
2026-01-28 08:46:18.02	98.56	31.98	-45.4	-60.1	3.6	1.51e+00	0	32	104	0	60	41204
2026-01-28 08:46:21.04	97.17	32.56	-45.3	-60.1	3.6	1.51e+00	0	32	104	0	60	41044
2026-01-28 08:46:24.06	95.72	33.13	-45.1	-60.2	3.6	1.51e+00	0	32	104	0	60	41490
2026-01-28 08:46:27.09	94.21	33.70	-45.3	-60.1	3.6	1.51e+00	0	33	104	0	60	41234
2026-01-28 08:46:30.12	92.64	34.26	-45.4	-60.2	3.6	1.51e+00	0	32	104	0	60	41355
2026-01-28 08:46:33.14	91.02	34.81	-45.4	-60.2	3.6	1.51e+00	0	33	104	0	60	41431
2026-01-28 08:46:36.17	89.34	35.34	-44.1	-60.2	3.6	1.51e+00	0	32	104	0	60	41476
2026-01-28 08:46:39.20	87.60	35.86	-45.3	-60.2	3.6	1.51e+00	0	33	104	0	60	41404
2026-01-28 08:46:42.23	85.80	36.35	-45.3	-60.2	3.6	1.51e+00	0	32	104	0	60	41636
2026-01-28 08:46:45.25	83.94	36.83	-45.4	-60.2	3.6	1.51e+00	0	33	104	0	60	41708
2026-01-28 08:46:48.28	82.03	37.27	-45.5	-60.2	3.6	1.51e+00	0	33	104	0	60	41542
2026-01-28 08:46:51.31	80.06	37.69	-45.5	-60.2	3.6	1.51e+00	0	32	104	0	60	41547
2026-01-28 08:46:54.33	78.05	38.07	-45.4	-60.2	3.6	1.51e+00	0	32	104	0	60	41497
2026-01-28 08:46:57.36	75.98	38.42	-45.5	-60.2	3.6	1.51e+00	0	33	104	0	60	41655
2026-01-28 08:47:00.39	73.86	38.73	-45.5	-60.2	3.6	1.51e+00	0	32	104	0	60	41716
2026-01-28 08:47:03.42	71.71	39.00	-45.5	-60.3	3.6	1.51e+00	0	33	104	0	60	41833
2026-01-28 08:47:06.45	69.52	39.23	-45.6	-60.2	3.6	1.51e+00	0	33	104	0	60	41544
2026-01-28 08:47:09.48	67.30	39.42	-45.4	-60.3	3.6	1.51e+00	0	33	104	0	60	41831
2026-01-28 08:47:12.51	65.06	39.55	-45.5	-60.2	3.6	1.51e+00	0	33	104	0	60	41625
2026-01-28 08:47:15.54	62.80	39.64	-45.6	-60.3	3.6	1.51e+00	0	33	104	0	60	41794
2026-01-28 08:47:18.57	60.53	39.69	-45.5	-60.3	3.6	1.51e+00	0	33	104	0	60	41869
2026-01-28 08:47:21.60	58.26	39.68	-45.6	-60.2	3.6	1.51e+00	0	33	104	0	60	41721
2026-01-28 08:47:24.62	56.00	39.62	-45.5	-60.2	3.6	1.51e+00	0	33	104	0	60	41513
2026-01-28 08:47:27.65	53.75	39.52	-45.5	-60.2	3.6	1.51e+00	0	33	104	0	60	41390
2026-01-28 08:47:30.68	51.51	39.37	-45.6	-60.2	3.6	1.51e+00	0	33	104	0	60	41535
2026-01-28 08:47:33.71	49.30	39.17	-45.4	-60.2	3.6	1.51e+00	0	33	104	0	60	41524
2026-01-28 08:47:36.74	47.12	38.93	-45.1	-60.2	3.6	1.51e+00	0	33	104	0	60	41720
2026-01-28 08:47:39.76	44.98	38.64	-44.1	-60.2	3.6	1.51e+00	0	33	104	0	60	41635
2026-01-28 08:47:42.79	42.88	38.32	-45.3	-60.2	3.6	1.51e+00	0	33	104	0	60	41643
2026-01-28 08:47:45.82	40.82	37.96	-45.4	-60.2	3.6	1.51e+00	0	33	104	0	60	41527
2026-01-28 08:47:48.85	38.82	37.57	-45.5	-60.2	3.6	1.51e+00	0	33	104	0	60	41347
2026-01-28 08:47:51.87	36.87	37.14	-45.5	-60.2	3.6	1.51e+00	0	33	104	0	60	41712
2026-01-28 08:47:54.90	34.97	36.69	-45.5	-60.2	3.6	1.51e+00	0	33	104	0	60	41549
2026-01-28 08:47:57.93	33.13	36.21	-45.6	-60.2	3.6	1.51e+00	0	33	104	0	60	41702
2026-01-28 08:48:00.96	31.35	35.71	-45.5	-60.2	3.6	1.51e+00	0	33	104	0	60	41595
2026-01-28 08:48:03.98	29.63	35.19	-45.4	-60.2	3.6	1.51e+00	0	33	104	0	60	41736
2026-01-28 08:48:07.01	27.96	34.65	-45.5	-60.2	3.6	1.51e+00	0	33	104	0	60	41567
2026-01-28 08:48:10.04	26.36	34.09	-45.5	-60.3	3.6	1.51e+00	0	33	104	0	60	41840
2026-01-28 08:48:13.07	24.81	33.53	-45.3	-60.2	3.6	1.51e+00	0	33	104	0	60	41438
2026-01-28 08:48:16.09	23.32	32.96	-45.5	-60.2	3.6	1.51e+00	0	33	104	0	60	41444
2026-01-28 08:48:19.12	21.88	32.38	-45.5	-60.2	3.6	1.51e+00	0	33	104	0	60	41463
2026-01-28 08:48:22.15	20.50	31.79	-45.4	-60.2	3.6	1.51e+00	0	33	104	0	60	41454
2026-01-28 08:48:25.17	19.17	31.21	-45.5	-60.2	3.6	1.51e+00	0	33	104	0	60	41356
2026-01-28 08:48:28.20	17.90	30.62	-45.5	-60.2	3.6	1.51e+00	0	33	104	0	60	41550
2026-01-28 08:48:31.23	16.67	30.03	-45.5	-60.2	3.6	1.51e+00	0	33	104	0	60	41464
2026-01-28 08:48:34.25	15.49	29.44	-45.5	-60.2	3.6	1.51e+00	0	33	104	0	60	41352
2026-01-28 08:48:37.28	14.36	28.85	-45.5	-60.2	3.6	1.51e+00	0	33	104	0	60	41346
2026-01-28 08:48:40.31	13.27	28.27	-45.5	-60.2	3.6	1.51e+00	0	33	104	0	60	41450
2026-01-28 08:48:43.34	12.22	27.69	-45.5	-60.2	3.6	1.51e+00	0	33	104	0	60	41471
2026-01-28 08:48:46.37	11.21	27.11	-45.5	-60.2	3.6	1.51e+00	0	33	104	0	60	41526
2026-01-28 08:48:49.40	10.25	26.55	-45.5	-60.2	3.6	1.51e+00	0	33	104	0	60	41430
2026-01-28 08:48:52.42	9.32	25.98	-45.5	-60.3	3.6	1.51e+00	0	33	104	0	60	41869
2026-01-28 08:48:55.45	8.43	25.43	-45.5	-60.3	3.6	1.51e+00	0	33	104	0	60	41842
2026-01-28 08:48:58.48	7.57	24.88	-45.4	-60.3	3.6	1.51e+00	0	33	104	0	60	41856
2026-01-28 08:49:01.51	6.74	24.34	-45.5	-60.2	3.6	1.51e+00	0	33	104	0	60	41534
2026-01-28 08:49:04.54	5.95	23.81	-45.5	-60.1	3.6	1.51e+00	0	33	104	0	60	41237
2026-01-28 08:49:07.56	5.18	23.28	-45.4	-60.1	3.6	1.51e+00	0	33	104	0	60	41077
2026-01-28 08:49:10.59	4.44	22.77	-45.4	-60.1	3.6	1.51e+00	0	33	104	0	60	40951
2026-01-28 08:49:13.62	3.73	22.26	-45.4	-60.1	3.6	1.51e+00	0	33	104	0	60	41028
2026-01-28 08:49:16.65	3.05	21.76	-45.3	-60.1	3.6	1.51e+00	0	33	104	0	60	40972
2026-01-28 08:49:19.67	2.39	21.27	-45.3	-60.1	3.6	1.51e+00	0	33	104	0	60	40806
2026-01-28 08:49:22.70	1.76	20.78	-45.4	-60.0	3.6	1.51e+00	0	33	104	0	60	40761
2026-01-28 08:49:25.73	1.14	20.31	-45.3	-60.1	3.6	1.51e+00	0	33	104	0	60	40873
2026-01-28 08:49:28.76	0.55	19.84	-45.3	-60.0	3.6	1.51e+00	0	33	104	0	60	40743
2026-01-28 08:49:31.79	359.98	19.38	-45.3	-60.1	3.6	1.51e+00	0	33	104	0	60	40807
2026-01-28 08:49:34.82	359.42	18.93	-45.3	-60.0	3.6	1.51e+00	0	33	104	0	60	40462
2026-01-28 08:49:37.84	358.89	18.49	-45.3	-60.0	3.6	1.51e+00	0	33	104	0	60	40578
2026-01-28 08:49:40.87	358.38	18.05	-45.3	-60.0	3.6	1.51e+00	0	33	104	0	60	40610
2026-01-28 08:49:43.90	357.88	17.62	-45.3	-60.0	3.6	1.51e+00	0	32	104	0	60	40364
2026-01-28 08:49:46.93	357.40	17.20	-45.3	-60.0	3.6	1.51e+00	0	32	104	0	60	40346
2026-01-28 08:49:49.96	356.93	16.79	-45.3	-60.0	3.6	1.51e+00	0	33	104	0	60	40465
2026-01-28 08:49:52.99	356.48	16.38	-45.2	-60.0	3.6	1.51e+00	0	33	104	0	60	40431
2026-01-28 08:49:56.02	356.04	15.98	-45.3	-60.0	3.6	1.51e+00	0	33	104	0	60	40447
2026-01-28 08:49:59.04	355.62	15.59	-45.1	-60.0	3.6	1.51e+00	0	33	104	0	60	40340
2026-01-28 08:50:02.07	355.21	15.20	-45.3	-60.0	3.6	1.51e+00	0	32	104	0	60	40548
2026-01-28 08:50:05.10	354.81	14.82	-45.2	-59.9	3.6	1.51e+00	0	32	104	0	60	40231
2026-01-28 08:50:08.12	354.42	14.45	-45.2	-59.9	3.6	1.51e+00	0	32	104	0	60	40222
2026-01-28 08:50:11.15	354.05	14.08	-45.2	-59.9	3.6	1.51e+00	0	33	104	0	60	40147
2026-01-28 08:50:14.18	353.69	13.72	-45.3	-60.0	3.6	1.51e+00	0	33	104	0	60	40559
2026-01-28 08:50:17.21	353.33	13.37	-45.4	-60.1	3.6	1.51e+00	0	33	104	0	60	40997
2026-01-28 08:50:20.24	352.99	13.02	-45.3	-60.0	3.6	1.51e+00	0	33	104	0	60	40748
2026-01-28 08:50:23.27	352.66	12.68	-45.3	-59.9	3.6	1.51e+00	0	33	104	0	60	40282
2026-01-28 08:50:26.30	352.33	12.34	-45.8	-60.4	3.6	1.51e+00	0	33	104	0	60	42706
2026-01-28 08:50:29.33	352.02	12.00	-45.3	-60.0	3.6	1.51e+00	0	33	104	0	60	40410
2026-01-28 08:50:32.36	351.71	11.68	-45.2	-59.9	3.6	1.51e+00	0	33	104	0	60	40264
2026-01-28 08:50:35.39	351.42	11.35	-45.3	-60.0	3.6	1.51e+00	0	33	104	0	60	40575
2026-01-28 08:50:38.42	351.13	11.04	-45.2	-59.9	3.6	1.51e+00	0	32	104	0	60	40060
2026-01-28 08:50:41.44	350.85	10.72	-45.4	-60.1	3.6	1.51e+00	0	33	104	0	60	41044
2026-01-28 08:50:44.47	350.57	10.42	-45.2	-60.1	3.6	1.51e+00	0	32	104	0	60	40838
2026-01-28 08:50:47.50	350.31	10.11	-45.2	-59.9	3.6	1.51e+00	0	33	104	0	60	40088
2026-01-28 08:50:50.53	350.05	9.81	-45.2	-59.8	3.6	1.51e+00	0	32	104	0	60	39858
2026-01-28 08:50:53.56	349.79	9.52	-45.5	-60.1	3.6	1.51e+00	0	33	104	0	60	41222
2026-01-28 08:50:56.59	349.55	9.23	-45.3	-60.0	3.6	1.51e+00	0	33	104	0	60	40745
2026-01-28 08:50:59.62	349.31	8.94	-45.2	-59.8	3.6	1.51e+00	0	33	104	0	60	39793
2026-01-28 08:51:02.64	349.07	8.66	-45.2	-59.8	3.5	1.51e+00	0	33	104	0	60	39761
2026-01-28 08:51:05.67	348.84	8.38	-45.4	-60.1	3.6	1.51e+00	0	33	104	0	60	41178
2026-01-28 08:51:08.70	348.62	8.10	-45.4	-60.1	3.6	1.51e+00	0	33	104	0	60	41092
2026-01-28 08:51:11.73	348.40	7.83	-45.1	-59.9	3.6	1.51e+00	0	33	104	0	60	40025
2026-01-28 08:51:14.76	348.19	7.56	-45.1	-59.8	3.6	1.51e+00	0	33	104	0	60	39730
2026-01-28 08:51:17.78	347.99	7.30	-45.3	-60.1	3.6	1.51e+00	0	33	104	0	60	40901
2026-01-28 08:51:20.81	347.78	7.04	-45.3	-60.1	3.6	1.51e+00	0	32	104	0	60	40961
2026-01-28 08:51:23.84	347.59	6.78	-45.0	-59.7	3.6	1.51e+00	0	33	104	0	60	39261
2026-01-28 08:51:26.87	347.39	6.52	-45.0	-59.7	3.6	1.51e+00	0	33	104	0	60	39250
2026-01-28 08:51:29.90	347.20	6.27	-45.3	-60.0	3.6	1.51e+00	0	33	104	0	60	40540
2026-01-28 08:51:32.93	347.02	6.02	-45.2	-60.0	3.6	1.51e+00	0	33	104	0	60	40461
2026-01-28 08:51:35.96	346.84	5.77	-44.3	-59.0	3.5	1.51e+00	0	33	104	0	60	36304
2026-01-28 08:51:38.98	346.66	5.53	-43.7	-58.6	3.6	1.51e+00	0	33	104	0	60	34457
2026-01-28 08:51:42.01	346.49	5.29	-43.5	-58.3	3.5	1.51e+00	0	33	104	0	60	33173
2026-01-28 08:51:45.04	346.32	5.05	-42.1	-57.0	3.6	1.51e+00	0	32	104	0	60	28634
2026-01-28 08:51:48.07	346.16	4.82	-41.3	-56.0	3.6	1.51e+00	0	33	104	0	58	28714
2026-01-28 08:51:51.10	346.00	4.58	-43.3	-58.0	3.6	1.51e+00	0	33	104	0	60	32215
2026-01-28 08:51:54.13	345.84	4.35	-41.3	-56.0	3.6	1.51e+00	0	33	104	0	58	28672
2026-01-28 08:51:57.15	345.69	4.13	-40.6	-55.3	3.6	1.51e+00	0	33	104	0	56	29882
2026-01-28 08:52:00.18	345.53	3.90	-41.4	-56.1	3.6	1.51e+00	0	33	104	0	58	29152
2026-01-28 08:52:03.22	345.39	3.68	-40.6	-55.3	3.6	1.51e+00	0	33	104	0	56	29745
2026-01-28 08:52:06.24	345.24	3.45	-40.7	-55.4	3.6	1.51e+00	0	33	104	0	56	30083
2026-01-28 08:52:09.27	345.10	3.24	-40.6	-55.3	3.6	1.51e+00	0	33	104	0	56	29827
2026-01-28 08:52:12.30	344.96	3.02	-40.6	-55.3	3.6	1.51e+00	0	33	104	0	56	29584
2026-01-28 08:52:15.33	344.82	2.80	-45.2	-59.9	3.6	1.51e+00	0	33	104	0	60	40204
2026-01-28 08:52:18.36	344.69	2.59	-45.7	-60.4	3.6	1.51e+00	0	33	104	0	60	42337
2026-01-28 08:52:21.39	344.56	2.38	-45.9	-60.6	3.6	1.51e+00	0	33	104	0	60	43504
2026-01-28 08:52:24.41	344.43	2.17	-46.1	-60.9	3.6	1.51e+00	0	33	104	0	60	44973
2026-01-28 08:52:27.44	344.31	1.97	-45.8	-60.5	3.6	1.51e+00	0	32	104	0	60	43032
2026-01-28 08:52:30.47	344.18	1.76	-45.7	-60.4	3.6	1.51e+00	0	33	104	0	60	42384
2026-01-28 08:52:33.50	344.06	1.56	-45.5	-60.3	3.6	1.51e+00	0	33	104	0	60	41806
2026-01-28 08:52:36.53	343.94	1.36	-45.6	-60.3	3.6	1.51e+00	0	33	104	0	60	41938
2026-01-28 08:52:39.56	343.83	1.16	-45.5	-60.3	3.6	1.51e+00	0	33	104	0	60	41881
2026-01-28 08:52:42.59	343.71	0.96	-45.5	-60.2	3.6	1.51e+00	0	33	104	0	60	41645
2026-01-28 08:52:45.62	343.60	0.76	-45.5	-60.2	3.6	1.51e+00	0	33	104	0	60	41580
2026-01-28 08:52:48.65	343.49	0.57	-45.5	-60.2	3.6	1.51e+00	0	33	104	0	60	41510
2026-01-28 08:52:51.68	343.38	0.37	-45.5	-60.2	3.6	1.51e+00	0	33	104	0	60	41403
2026-01-28 08:52:54.71	343.28	0.18	-45.5	-60.2	3.6	1.51e+00	0	33	104	0	60	41286
2026-01-28 08:52:57.74	343.17	-0.01	-45.5	-60.2	3.6	1.51e+00	0	33	104	0	60	41487

#Closed at: 2026-01-28 08:52:58
#Recorded file [0 MB]: D:/lorett/data/35029_260128_204145.dat