passes_logs/2026/01/28/R4.6S_Anadyr/R4.6S_Anadyr__20260128_142126_NOAA_20_JPSS-1_rec.log

#Pass ID: 20260128_142126_NOAA 20 (JPSS-1)
#Satellite: NOAA 20 (JPSS-1)
#Configuration: NOAA 20
#almurnet v.1.7.20251203
#Start time: 2026-01-28 14:21:28

#Version: 2.2.20231116
#Station: R4.6S_Anadyr
#Location: 177.4865 lon 64.73178 lat
#TLE: 1 43013U 17073A   26027.80586608  .00000156  00000+0  94940-4 0  9998
#TLE: 2 43013  98.7647 328.6108 0000947  21.3465 338.7750 14.19541216424550

#Time	Az	El	Level	Level2	SNR	BER	BlckErr	Temp	State	Recorded	gain1	gain2
2026-01-28 14:21:28.54	19.86	0.15	-48.7	-63.6	3.5	1.51e+00	0	30	0	0	60	54975
2026-01-28 14:21:32.58	19.92	0.39	-48.7	-63.9	3.6	1.51e+00	0	31	104	0	60	56838
2026-01-28 14:21:36.62	19.98	0.63	-48.8	-64.0	3.6	1.51e+00	0	31	104	0	60	57510
2026-01-28 14:21:40.65	20.05	0.87	-48.8	-64.0	3.6	1.51e+00	0	31	104	0	60	57264
2026-01-28 14:21:44.69	20.11	1.12	-48.6	-63.8	3.6	1.51e+00	0	32	104	0	60	55708
2026-01-28 14:21:48.73	20.18	1.37	-48.1	-63.4	3.6	1.51e+00	0	32	104	0	60	53252
2026-01-28 14:21:52.77	20.24	1.62	-47.4	-62.4	3.6	1.51e+00	0	32	104	0	60	47857
2026-01-28 14:21:56.81	20.31	1.87	-47.4	-62.5	3.6	1.51e+00	0	32	104	0	60	48377
2026-01-28 14:22:00.85	20.38	2.13	-47.4	-62.6	3.6	1.51e+00	0	32	104	0	60	48709
2026-01-28 14:22:04.89	20.45	2.39	-47.4	-61.9	3.6	1.51e+00	0	32	104	0	60	44760
2026-01-28 14:22:08.93	20.52	2.65	-47.3	-60.5	3.7	1.50e+00	0	32	104	0	60	38373
2026-01-28 14:22:12.97	20.59	2.91	-47.1	-57.3	4.8	1.50e+00	92	32	104	0	60	26641
2026-01-28 14:22:17.00	20.66	3.18	-44.3	-47.5	14.0	1.49e-04	42	32	0	5242880	60	8578
2026-01-28 14:22:21.04	20.73	3.44	-41.9	-43.8	17.9	0.00e+00	43	32	0	13631488	56	7033
2026-01-28 14:22:25.08	20.80	3.71	-42.6	-44.8	16.9	0.00e+00	14	32	0	20971520	56	7882
2026-01-28 14:22:29.12	20.88	3.99	-47.3	-61.6	3.6	4.23e-01	0	32	104	28311552	60	43411
2026-01-28 14:22:33.16	20.95	4.26	-42.9	-45.1	16.6	0.00e+00	0	32	0	32505856	58	7264
2026-01-28 14:22:37.20	21.03	4.54	-42.2	-44.2	17.5	0.00e+00	0	32	0	39845888	56	7338
2026-01-28 14:22:41.23	21.11	4.82	-41.6	-43.3	18.3	0.00e+00	75	32	0	47185920	56	6664
2026-01-28 14:22:45.27	21.19	5.11	-41.5	-43.1	18.8	0.00e+00	0	32	0	54525952	56	6510
2026-01-28 14:22:49.30	21.27	5.39	-40.5	-41.9	20.0	0.00e+00	2	32	0	61865984	54	6336
2026-01-28 14:22:53.34	21.35	5.68	-39.9	-41.2	20.7	0.00e+00	0	32	0	70254592	52	6564
2026-01-28 14:22:57.38	21.43	5.98	-39.1	-40.3	21.5	0.00e+00	92	32	0	77594624	52	5916
2026-01-28 14:23:01.42	21.51	6.27	-39.2	-40.4	21.5	0.00e+00	39	32	0	84934656	52	5967
2026-01-28 14:23:05.46	21.60	6.57	-39.3	-40.4	21.6	0.00e+00	44	32	0	92274688	52	5987
2026-01-28 14:23:09.50	21.69	6.88	-39.5	-40.6	21.3	0.00e+00	6	32	0	100663296	52	6170
2026-01-28 14:23:13.53	21.77	7.19	-38.9	-40.0	21.9	0.00e+00	92	32	0	108003328	52	5715
2026-01-28 14:23:17.58	21.86	7.50	-39.2	-40.3	21.7	0.00e+00	44	32	0	115343360	52	5944
2026-01-28 14:23:21.62	21.95	7.81	-38.7	-39.7	22.3	0.00e+00	4	32	0	122683392	50	6222
2026-01-28 14:23:25.66	22.05	8.13	-38.5	-39.5	22.4	0.00e+00	0	32	0	131072000	50	6050
2026-01-28 14:23:29.69	22.14	8.45	-38.5	-39.6	22.4	0.00e+00	92	32	0	138412032	50	6113
2026-01-28 14:23:33.73	22.24	8.78	-38.6	-39.6	22.5	0.00e+00	0	32	0	145752064	50	6171
2026-01-28 14:23:37.76	22.33	9.11	-38.4	-39.4	22.5	0.00e+00	0	32	0	153092096	50	6015
2026-01-28 14:23:41.80	22.43	9.45	-38.2	-39.2	22.8	0.00e+00	0	32	0	160432128	50	5833
2026-01-28 14:23:45.84	22.53	9.79	-38.1	-39.1	22.9	0.00e+00	91	32	0	168820736	50	5762
2026-01-28 14:23:49.88	22.64	10.14	-38.0	-38.9	23.0	0.00e+00	0	32	0	176160768	50	5667
2026-01-28 14:23:53.91	22.74	10.48	-37.9	-38.8	23.2	0.00e+00	0	32	0	183500800	50	5583
2026-01-28 14:23:57.95	22.85	10.84	-37.9	-38.9	23.2	0.00e+00	0	32	0	190840832	50	5652
2026-01-28 14:24:01.99	22.96	11.20	-37.8	-38.7	23.4	0.00e+00	40	32	0	198180864	48	6232
2026-01-28 14:24:06.03	23.07	11.57	-37.5	-38.4	23.6	0.00e+00	47	32	0	206569472	48	5991
2026-01-28 14:24:10.06	23.19	11.94	-37.5	-38.4	23.6	0.00e+00	41	32	0	213909504	48	6001
2026-01-28 14:24:14.10	23.30	12.31	-37.6	-38.4	23.6	0.00e+00	15	32	0	221249536	48	6032
2026-01-28 14:24:18.13	23.42	12.69	-37.5	-38.4	23.7	0.00e+00	63	32	0	228589568	48	5979
2026-01-28 14:24:22.17	23.55	13.08	-37.5	-38.4	23.6	0.00e+00	0	32	0	236978176	48	5991
2026-01-28 14:24:26.21	23.67	13.48	-37.6	-38.5	23.6	0.00e+00	0	32	0	244318208	48	6098
2026-01-28 14:24:30.24	23.80	13.88	-37.9	-38.8	23.4	0.00e+00	92	32	0	251658240	48	6267
2026-01-28 14:24:34.28	23.93	14.28	-37.9	-38.8	23.4	0.00e+00	0	32	0	258998272	48	6266
2026-01-28 14:24:38.31	24.06	14.70	-37.8	-38.7	23.4	0.00e+00	0	32	0	266338304	48	6193
2026-01-28 14:24:42.35	24.20	15.12	-37.9	-38.8	23.4	0.00e+00	0	32	0	274726912	48	6301
2026-01-28 14:24:46.39	24.34	15.55	-37.9	-38.8	23.3	0.00e+00	92	32	0	282066944	48	6280
2026-01-28 14:24:50.43	24.49	15.99	-37.9	-38.8	23.5	0.00e+00	0	32	0	289406976	48	6276
2026-01-28 14:24:54.46	24.63	16.43	-38.0	-38.9	23.3	0.00e+00	5	32	0	296747008	48	6377
2026-01-28 14:24:58.49	24.78	16.88	-38.3	-39.2	23.1	0.00e+00	5	32	0	305135616	48	6611
2026-01-28 14:25:02.53	24.94	17.34	-38.1	-39.1	23.2	0.00e+00	92	32	0	312475648	48	6490
2026-01-28 14:25:06.57	25.10	17.81	-38.3	-39.2	23.1	0.00e+00	41	32	0	319815680	48	6604
2026-01-28 14:25:10.61	25.27	18.29	-38.3	-39.2	23.1	0.00e+00	40	32	0	327155712	48	6593
2026-01-28 14:25:14.64	25.44	18.78	-38.3	-39.3	23.1	0.00e+00	41	32	0	334495744	48	6627
2026-01-28 14:25:18.67	25.61	19.27	-38.3	-39.2	23.2	0.00e+00	92	32	0	342884352	48	6580
2026-01-28 14:25:22.71	25.79	19.78	-38.3	-39.3	23.1	0.00e+00	6	32	0	350224384	48	6617
2026-01-28 14:25:26.75	25.98	20.30	-38.3	-39.3	23.1	0.00e+00	0	32	0	357564416	48	6639
2026-01-28 14:25:30.78	26.17	20.82	-38.3	-39.3	23.0	0.00e+00	0	32	0	364904448	48	6656
2026-01-28 14:25:34.82	26.37	21.36	-38.4	-39.4	23.0	0.00e+00	90	32	0	373293056	48	6698
2026-01-28 14:25:38.86	26.57	21.92	-38.4	-39.4	23.1	0.00e+00	37	32	0	380633088	48	6717
2026-01-28 14:25:42.90	26.78	22.48	-38.3	-39.2	23.2	0.00e+00	2	32	0	387973120	48	6589
2026-01-28 14:25:46.94	27.00	23.05	-38.0	-38.9	23.5	0.00e+00	12	32	0	395313152	48	6386
2026-01-28 14:25:50.97	27.22	23.64	-38.1	-39.0	23.4	0.00e+00	92	32	0	402653184	48	6447
2026-01-28 14:25:55.01	27.46	24.24	-38.0	-38.9	23.5	0.00e+00	3	32	0	411041792	48	6327
2026-01-28 14:25:59.05	27.70	24.86	-38.0	-38.9	23.5	0.00e+00	48	32	0	418381824	48	6367
2026-01-28 14:26:03.09	27.95	25.49	-38.0	-38.9	23.5	0.00e+00	79	32	0	425721856	48	6324
2026-01-28 14:26:07.12	28.21	26.13	-38.1	-39.0	23.4	0.00e+00	92	32	0	433061888	48	6463
2026-01-28 14:26:11.16	28.48	26.79	-38.0	-38.9	23.4	0.00e+00	0	33	0	441450496	48	6323
2026-01-28 14:26:15.20	28.77	27.46	-37.8	-38.7	23.6	0.00e+00	0	33	0	448790528	48	6231
2026-01-28 14:26:19.24	29.06	28.15	-37.7	-38.5	23.8	0.00e+00	92	32	0	456130560	48	6088
2026-01-28 14:26:23.27	29.36	28.86	-38.0	-38.9	23.5	0.00e+00	31	32	0	463470592	48	6380
2026-01-28 14:26:27.31	29.68	29.59	-38.6	-39.6	23.0	0.00e+00	0	33	0	470810624	48	6852
2026-01-28 14:26:31.35	30.02	30.33	-39.2	-40.3	22.3	0.00e+00	0	33	0	479199232	50	6618
2026-01-28 14:26:35.39	30.36	31.09	-39.7	-40.8	21.9	0.00e+00	91	32	0	486539264	50	7008
2026-01-28 14:26:39.43	30.73	31.88	-40.0	-41.1	21.6	0.00e+00	33	32	0	493879296	52	6539
2026-01-28 14:26:43.47	31.11	32.68	-39.9	-41.0	21.7	0.00e+00	0	32	0	501219328	52	6437
2026-01-28 14:26:47.50	31.51	33.50	-39.6	-40.6	22.0	0.00e+00	31	32	0	508559360	52	6160
2026-01-28 14:26:51.54	31.93	34.34	-39.3	-40.3	22.3	0.00e+00	92	32	0	516947968	52	5938
2026-01-28 14:26:55.58	32.37	35.21	-39.4	-40.5	22.1	0.00e+00	0	33	0	524288000	52	6035
2026-01-28 14:26:59.62	32.84	36.10	-40.0	-41.1	21.7	0.00e+00	50	33	0	531628032	52	6481
2026-01-28 14:27:03.65	33.33	37.01	-40.3	-41.5	21.2	0.00e+00	37	32	0	538968064	52	6817
2026-01-28 14:27:07.69	33.85	37.94	-40.8	-42.1	20.7	0.00e+00	91	33	0	547356672	54	6468
2026-01-28 14:27:11.72	34.39	38.90	-41.6	-43.0	19.8	0.00e+00	7	32	0	554696704	54	7183
2026-01-28 14:27:15.75	34.97	39.88	-41.9	-43.3	19.6	0.00e+00	8	33	0	562036736	56	6663
2026-01-28 14:27:19.79	35.59	40.89	-41.7	-43.1	19.9	0.00e+00	0	33	0	569376768	56	6472
2026-01-28 14:27:23.83	36.25	41.93	-41.5	-42.9	19.9	0.00e+00	92	33	0	576716800	56	6377
2026-01-28 14:27:27.87	36.95	42.99	-40.3	-41.4	21.4	0.00e+00	0	32	0	585105408	54	6009
2026-01-28 14:27:31.90	37.69	44.07	-40.4	-41.6	21.1	0.00e+00	0	32	0	592445440	54	6137
2026-01-28 14:27:35.94	38.49	45.18	-40.3	-41.4	21.3	0.00e+00	6	33	0	599785472	54	6000
2026-01-28 14:27:39.98	39.34	46.32	-40.3	-41.5	21.3	0.00e+00	92	32	0	607125504	54	6055
2026-01-28 14:27:44.02	40.26	47.48	-40.4	-41.6	21.2	0.00e+00	51	32	0	615514112	54	6157
2026-01-28 14:27:48.05	41.25	48.67	-40.2	-41.4	21.4	0.00e+00	52	33	0	622854144	54	6003
2026-01-28 14:27:52.09	42.32	49.88	-38.8	-39.7	22.8	0.00e+00	90	32	0	630194176	50	6227
2026-01-28 14:27:56.13	43.48	51.11	-37.7	-38.6	23.9	0.00e+00	11	33	0	637534208	50	5461
2026-01-28 14:28:00.17	44.73	52.36	-35.5	-36.2	25.8	0.00e+00	0	33	0	644874240	44	5860
2026-01-28 14:28:04.20	46.09	53.63	-34.5	-35.2	26.6	0.00e+00	0	32	0	653262848	42	5865
2026-01-28 14:28:08.24	47.58	54.91	-35.2	-35.9	26.1	0.00e+00	90	33	0	660602880	42	6378
2026-01-28 14:28:12.27	49.21	56.20	-36.5	-37.3	24.9	0.00e+00	0	32	0	667942912	44	6621
2026-01-28 14:28:16.31	51.00	57.51	-37.9	-38.8	23.0	0.00e+00	0	33	0	675282944	48	6288
2026-01-28 14:28:20.35	52.96	58.81	-37.6	-38.5	24.0	0.00e+00	0	32	0	682622976	48	6053
2026-01-28 14:28:24.39	55.13	60.11	-36.5	-37.3	25.0	0.00e+00	92	33	0	691011584	46	5917
2026-01-28 14:28:28.43	57.53	61.39	-35.9	-36.7	25.3	0.00e+00	51	33	0	698351616	46	5540
2026-01-28 14:28:32.46	60.17	62.65	-35.7	-36.5	25.5	0.00e+00	35	33	0	705691648	44	6064
2026-01-28 14:28:36.50	63.11	63.88	-37.4	-38.3	24.2	0.00e+00	36	32	0	713031680	46	6635
2026-01-28 14:28:40.53	66.36	65.06	-37.2	-38.0	24.4	0.00e+00	92	33	0	721420288	46	6451
2026-01-28 14:28:44.57	69.97	66.17	-37.4	-38.3	24.2	0.00e+00	50	32	0	728760320	46	6641
2026-01-28 14:28:48.61	73.96	67.21	-38.1	-39.1	23.5	0.00e+00	33	33	0	736100352	48	6484
2026-01-28 14:28:52.65	78.34	68.15	-38.9	-39.9	22.7	0.00e+00	38	33	0	743440384	50	6351
2026-01-28 14:28:56.69	83.12	68.98	-39.2	-40.2	22.5	0.00e+00	91	32	0	750780416	50	6576
2026-01-28 14:29:00.72	88.27	69.66	-38.5	-39.4	23.1	0.00e+00	0	33	0	759169024	50	6015
2026-01-28 14:29:04.76	93.77	70.18	-39.1	-40.1	22.5	0.00e+00	0	32	0	766509056	52	5782
2026-01-28 14:29:08.80	99.54	70.53	-36.8	-37.7	24.6	0.00e+00	0	32	0	773849088	48	5512
2026-01-28 14:29:12.83	105.45	70.68	-37.2	-38.1	24.3	0.00e+00	92	32	0	781189120	46	6490
2026-01-28 14:29:16.87	111.42	70.65	-37.6	-38.5	23.8	0.00e+00	27	32	0	789577728	48	6038
2026-01-28 14:29:20.91	117.30	70.42	-38.8	-39.8	22.8	0.00e+00	0	33	0	796917760	48	7012
2026-01-28 14:29:24.95	122.98	70.00	-40.0	-41.2	21.6	0.00e+00	22	33	0	804257792	52	6566
2026-01-28 14:29:28.99	128.36	69.42	-40.0	-41.1	21.7	0.00e+00	89	33	0	811597824	52	6476
2026-01-28 14:29:33.02	133.37	68.68	-39.7	-40.7	21.9	0.00e+00	35	33	0	818937856	52	6234
2026-01-28 14:29:37.05	138.00	67.81	-38.7	-39.6	22.9	0.00e+00	37	33	0	827326464	50	6154
2026-01-28 14:29:41.08	142.22	66.83	-39.3	-40.4	22.3	0.00e+00	91	32	0	834666496	50	6712
2026-01-28 14:29:45.12	146.07	65.76	-40.1	-41.3	21.3	0.00e+00	88	33	0	842006528	52	6646
2026-01-28 14:29:49.16	149.55	64.61	-37.4	-38.2	24.1	0.00e+00	0	33	0	849346560	48	5884
2026-01-28 14:29:53.20	152.69	63.41	-34.8	-35.5	26.4	0.00e+00	51	33	0	856686592	44	5392
2026-01-28 14:29:57.23	155.51	62.17	-34.3	-35.0	26.7	0.00e+00	92	33	0	865075200	42	5709
2026-01-28 14:30:01.27	158.06	60.89	-34.3	-35.0	26.7	0.00e+00	36	33	0	872415232	40	6460
2026-01-28 14:30:05.30	160.37	59.60	-34.7	-35.4	26.5	0.00e+00	35	32	0	879755264	42	5971
2026-01-28 14:30:09.33	162.45	58.30	-36.7	-37.5	24.8	0.00e+00	0	32	0	887095296	48	5432
2026-01-28 14:30:13.37	164.35	56.99	-39.2	-40.3	22.4	0.00e+00	90	32	0	895483904	50	6655
2026-01-28 14:30:17.40	166.08	55.69	-35.3	-36.1	25.9	0.00e+00	0	32	0	902823936	42	6472
2026-01-28 14:30:21.43	167.65	54.40	-33.6	-34.3	27.3	0.00e+00	50	33	0	910163968	42	5280
2026-01-28 14:30:25.47	169.09	53.12	-34.8	-35.5	26.3	0.00e+00	32	32	0	917504000	40	6830
2026-01-28 14:30:29.50	170.41	51.85	-33.4	-34.0	27.5	0.00e+00	92	32	0	924844032	40	5729
2026-01-28 14:30:33.54	171.63	50.60	-37.6	-38.5	23.8	0.00e+00	0	32	0	933232640	46	6824
2026-01-28 14:30:37.57	172.75	49.38	-37.7	-38.5	24.0	0.00e+00	45	32	0	940572672	48	6098
2026-01-28 14:30:41.61	173.79	48.17	-41.5	-42.9	20.0	0.00e+00	0	32	0	947912704	56	6378
2026-01-28 14:30:45.65	174.75	46.99	-38.5	-39.5	23.2	0.00e+00	92	33	0	955252736	50	6036
2026-01-28 14:30:49.69	175.64	45.84	-40.5	-41.7	21.0	0.00e+00	0	32	0	963641344	52	7003
2026-01-28 14:30:53.72	176.48	44.71	-38.4	-39.4	23.3	0.00e+00	0	33	0	970981376	50	5967
2026-01-28 14:30:57.76	177.25	43.60	-37.0	-37.8	24.5	0.00e+00	0	33	0	978321408	46	6309
2026-01-28 14:31:01.80	177.98	42.52	-37.3	-38.2	24.3	0.00e+00	92	32	0	985661440	48	5866
2026-01-28 14:31:05.84	178.66	41.46	-35.1	-35.8	26.1	0.00e+00	43	32	0	993001472	44	5603
2026-01-28 14:31:09.87	179.30	40.44	-39.4	-40.6	22.2	0.00e+00	0	32	0	1001390080	50	6858
2026-01-28 14:31:13.92	179.91	39.43	-37.0	-37.8	24.6	0.00e+00	74	32	0	1008730112	48	5592
2026-01-28 14:31:17.96	180.48	38.45	-37.0	-37.8	24.5	0.00e+00	92	32	0	1016070144	46	6280
2026-01-28 14:31:22.00	181.01	37.50	-38.7	-39.7	22.9	0.00e+00	0	33	0	1023410176	48	6928
2026-01-28 14:31:26.03	181.52	36.57	-37.5	-38.4	24.1	0.00e+00	50	33	0	1031798784	48	6013
2026-01-28 14:31:30.07	182.00	35.67	-37.2	-38.0	24.4	0.00e+00	92	33	0	1039138816	48	5733
2026-01-28 14:31:34.11	182.45	34.78	-38.1	-39.0	23.5	0.00e+00	6	33	0	1046478848	48	6408
2026-01-28 14:31:38.15	182.89	33.92	-39.2	-40.2	22.5	0.00e+00	0	33	0	1053818880	50	6566
2026-01-28 14:31:42.19	183.30	33.08	-39.1	-40.1	22.5	0.00e+00	0	33	0	1061158912	50	6526
2026-01-28 14:31:46.23	183.69	32.27	-39.0	-40.0	22.6	0.00e+00	92	32	0	1069547520	50	6431
2026-01-28 14:31:50.26	184.06	31.47	-39.3	-40.3	22.3	0.00e+00	33	32	0	1076887552	50	6629
2026-01-28 14:31:54.30	184.42	30.69	-39.6	-40.6	22.0	0.00e+00	0	33	0	1084227584	50	6900
2026-01-28 14:31:58.33	184.76	29.94	-39.9	-41.1	21.6	0.00e+00	0	33	0	1091567616	52	6483
2026-01-28 14:32:02.37	185.09	29.20	-38.9	-39.9	22.7	0.00e+00	92	33	0	1099956224	52	5672
2026-01-28 14:32:06.41	185.40	28.47	-37.6	-38.4	24.0	0.00e+00	41	33	0	1107296256	48	6033
2026-01-28 14:32:10.45	185.70	27.77	-37.0	-37.8	24.5	0.00e+00	0	33	0	1114636288	48	5583
2026-01-28 14:32:14.49	185.99	27.08	-37.1	-37.9	24.5	0.00e+00	5	33	0	1121976320	48	5647
2026-01-28 14:32:18.53	186.26	26.41	-37.2	-38.1	24.2	0.00e+00	92	32	0	1129316352	48	5805
2026-01-28 14:32:22.57	186.53	25.76	-37.1	-37.9	24.4	0.00e+00	44	33	0	1137704960	48	5679
2026-01-28 14:32:26.61	186.78	25.12	-36.8	-37.6	24.8	0.00e+00	39	33	0	1145044992	46	6145
2026-01-28 14:32:30.64	187.03	24.49	-36.3	-37.1	25.1	0.00e+00	22	33	0	1152385024	46	5824
2026-01-28 14:32:34.68	187.27	23.88	-36.1	-36.9	25.2	0.00e+00	92	32	0	1159725056	46	5684
2026-01-28 14:32:38.72	187.49	23.28	-36.0	-36.7	25.4	0.00e+00	7	33	0	1168113664	46	5555
2026-01-28 14:32:42.75	187.72	22.70	-36.0	-36.8	25.3	0.00e+00	0	33	0	1175453696	46	5571
2026-01-28 14:32:46.79	187.93	22.13	-36.0	-36.7	25.2	0.00e+00	45	32	0	1182793728	46	5549
2026-01-28 14:32:50.82	188.13	21.57	-36.2	-37.0	25.1	0.00e+00	92	33	0	1190133760	46	5724
2026-01-28 14:32:54.86	188.33	21.02	-36.5	-37.3	24.4	0.00e+00	0	33	0	1197473792	46	5907
2026-01-28 14:32:58.90	188.53	20.48	-36.2	-37.0	25.1	0.00e+00	2	33	0	1205862400	46	5703
2026-01-28 14:33:02.93	188.71	19.96	-36.3	-37.1	25.0	0.00e+00	92	33	0	1213202432	46	5776
2026-01-28 14:33:06.97	188.90	19.44	-36.4	-37.2	24.9	0.00e+00	38	33	0	1220542464	46	5856
2026-01-28 14:33:11.01	189.07	18.94	-36.6	-37.4	24.7	0.00e+00	38	32	0	1227882496	46	6006
2026-01-28 14:33:15.04	189.24	18.44	-36.7	-37.6	24.6	0.00e+00	4	33	0	1235222528	46	6108
2026-01-28 14:33:19.08	189.41	17.96	-37.1	-37.9	24.3	0.00e+00	90	33	0	1243611136	46	6375
2026-01-28 14:33:23.11	189.57	17.48	-37.2	-38.1	24.2	0.00e+00	0	33	0	1250951168	46	6472
2026-01-28 14:33:27.15	189.73	17.02	-37.6	-38.5	23.9	0.00e+00	0	32	0	1258291200	46	6780
2026-01-28 14:33:31.19	189.88	16.56	-37.5	-38.4	23.9	0.00e+00	0	32	0	1265631232	46	6722
2026-01-28 14:33:35.23	190.03	16.11	-37.5	-38.4	23.9	0.00e+00	92	33	0	1274019840	46	6711
2026-01-28 14:33:39.27	190.17	15.66	-37.6	-38.5	23.7	0.00e+00	0	32	0	1281359872	46	6814
2026-01-28 14:33:43.31	190.31	15.23	-37.6	-38.5	23.7	0.00e+00	0	32	0	1288699904	46	6801
2026-01-28 14:33:47.35	190.45	14.80	-37.7	-38.6	23.7	0.00e+00	0	33	0	1296039936	46	6852
2026-01-28 14:33:51.38	190.58	14.38	-37.8	-38.7	23.5	0.00e+00	92	32	0	1303379968	48	6220
2026-01-28 14:33:55.42	190.71	13.97	-37.8	-38.7	23.3	0.00e+00	0	33	0	1311768576	48	6227
2026-01-28 14:33:59.45	190.84	13.56	-37.8	-38.7	23.4	0.00e+00	41	33	0	1319108608	48	6210
2026-01-28 14:34:03.49	190.96	13.17	-37.7	-38.6	23.5	0.00e+00	0	32	0	1326448640	48	6161
2026-01-28 14:34:07.53	191.08	12.77	-37.6	-38.5	23.6	0.00e+00	91	32	0	1333788672	48	6099
2026-01-28 14:34:11.56	191.20	12.39	-37.8	-38.7	23.5	0.00e+00	39	32	0	1342177280	48	6179
2026-01-28 14:34:15.60	191.32	12.00	-37.7	-38.6	23.5	0.00e+00	39	32	0	1349517312	48	6171
2026-01-28 14:34:19.63	191.43	11.63	-37.6	-38.5	23.5	0.00e+00	0	33	0	1356857344	48	6078
2026-01-28 14:34:23.67	191.54	11.26	-37.7	-38.6	23.5	0.00e+00	92	33	0	1364197376	48	6173
2026-01-28 14:34:27.71	191.65	10.90	-37.9	-38.9	23.4	0.00e+00	0	33	0	1371537408	48	6322
2026-01-28 14:34:31.75	191.76	10.54	-37.8	-38.8	23.4	0.00e+00	0	33	0	1379926016	48	6252
2026-01-28 14:34:35.78	191.86	10.18	-37.9	-38.8	23.2	0.00e+00	7	32	0	1387266048	48	6313
2026-01-28 14:34:39.82	191.96	9.83	-38.1	-39.0	23.1	0.00e+00	92	33	0	1394606080	48	6429
2026-01-28 14:34:43.86	192.06	9.49	-38.2	-39.1	22.9	0.00e+00	0	33	0	1401946112	48	6527
2026-01-28 14:34:47.90	192.16	9.15	-38.2	-39.2	22.9	0.00e+00	41	33	0	1409286144	48	6586
2026-01-28 14:34:51.93	192.25	8.82	-38.2	-39.2	22.8	0.00e+00	90	33	0	1417674752	48	6551
2026-01-28 14:34:55.97	192.35	8.49	-38.3	-39.3	22.7	0.00e+00	90	33	0	1425014784	48	6666
2026-01-28 14:35:00.01	192.44	8.16	-38.3	-39.2	22.7	0.00e+00	43	33	0	1432354816	48	6590
2026-01-28 14:35:04.04	192.53	7.84	-38.7	-39.7	22.3	0.00e+00	34	33	0	1439694848	48	6953
2026-01-28 14:35:08.08	192.62	7.52	-38.7	-39.7	22.3	0.00e+00	92	33	0	1448083456	48	6965
2026-01-28 14:35:12.12	192.70	7.20	-38.8	-39.8	22.2	0.00e+00	84	33	0	1455423488	50	6290
2026-01-28 14:35:16.15	192.79	6.89	-38.7	-39.8	22.3	0.00e+00	0	33	0	1462763520	50	6248
2026-01-28 14:35:20.19	192.87	6.59	-38.9	-40.0	21.9	0.00e+00	0	33	0	1470103552	50	6412
2026-01-28 14:35:24.23	192.96	6.28	-39.1	-40.2	21.6	0.00e+00	92	33	0	1477443584	50	6615
2026-01-28 14:35:28.26	193.04	5.98	-39.1	-40.2	21.8	0.00e+00	0	33	0	1485832192	50	6544
2026-01-28 14:35:32.30	193.12	5.69	-39.2	-40.3	21.8	0.00e+00	2	33	0	1493172224	50	6635
2026-01-28 14:35:36.34	193.19	5.39	-39.3	-40.4	21.4	0.00e+00	0	33	0	1500512256	50	6735
2026-01-28 14:35:40.37	193.27	5.11	-39.3	-40.5	21.3	0.00e+00	92	33	0	1507852288	50	6786
2026-01-28 14:35:44.41	193.35	4.82	-39.5	-40.7	21.0	0.00e+00	36	33	0	1516240896	50	6965
2026-01-28 14:35:48.45	193.42	4.53	-39.8	-41.1	20.7	0.00e+00	36	33	0	1523580928	52	6469
2026-01-28 14:35:52.48	193.49	4.25	-40.0	-41.2	20.4	0.00e+00	2	33	0	1530920960	52	6610
2026-01-28 14:35:56.52	193.57	3.98	-39.9	-41.2	20.4	0.00e+00	90	33	0	1538260992	52	6565
2026-01-28 14:36:00.56	193.64	3.70	-39.6	-40.8	20.7	0.00e+00	0	33	0	1545601024	52	6272
2026-01-28 14:36:04.60	193.71	3.43	-40.2	-41.6	19.9	0.00e+00	28	33	0	1553989632	52	6875
2026-01-28 14:36:08.64	193.78	3.16	-39.4	-40.6	20.9	0.00e+00	25	33	0	1561329664	52	6166
2026-01-28 14:36:12.68	193.84	2.89	-48.0	-63.1	3.6	1.51e+00	0	33	104	1566572544	60	51743
2026-01-28 14:36:16.71	193.91	2.63	-48.6	-63.8	3.6	1.51e+00	0	33	104	1566572544	60	56156
2026-01-28 14:36:20.75	193.98	2.36	-48.7	-64.0	3.5	1.51e+00	0	33	104	1566572544	60	56994
2026-01-28 14:36:24.79	194.04	2.10	-48.9	-64.1	3.6	1.51e+00	0	33	104	1566572544	60	57748
2026-01-28 14:36:28.82	194.11	1.85	-48.8	-64.1	3.6	1.51e+00	0	33	104	1566572544	60	57771
2026-01-28 14:36:32.86	194.17	1.59	-48.6	-64.0	3.5	1.51e+00	0	33	104	1566572544	60	57058
2026-01-28 14:36:36.90	194.23	1.34	-48.8	-64.0	3.6	1.51e+00	0	33	104	1566572544	60	57306
2026-01-28 14:36:40.94	194.29	1.09	-48.8	-63.9	3.6	1.51e+00	0	33	104	1566572544	60	56919
2026-01-28 14:36:44.98	194.35	0.84	-48.8	-64.0	3.6	1.51e+00	0	33	104	1566572544	60	57034
2026-01-28 14:36:49.02	194.41	0.59	-48.8	-63.9	3.6	1.51e+00	0	33	104	1566572544	60	56908
2026-01-28 14:36:53.06	194.47	0.35	-48.8	-64.0	3.6	1.51e+00	0	33	104	1566572544	60	57010
2026-01-28 14:36:57.10	194.53	0.10	-48.8	-64.0	3.6	1.51e+00	0	33	104	1566572544	60	57062

#Closed at: 2026-01-28 14:37:00
#Recorded file [1566 MB]: D:/lorett/data/35029_260129_022128.dat