passes_logs/2026/01/28/R4.6S_Anadyr/R4.6S_Anadyr__20260128_140051_SUOMI_NPP_rec.log

#Pass ID: 20260128_140051_SUOMI NPP
#Satellite: SUOMI NPP
#Configuration: NPP
#almurnet v.1.7.20251203
#Start time: 2026-01-28 14:00:53

#Version: 2.2.20231116
#Station: R4.6S_Anadyr
#Location: 177.4865 lon 64.73178 lat
#TLE: 1 37849U 11061A   26027.86188320  .00000172  00000+0  10275-3 0  9990
#TLE: 2 37849  98.7823 329.8005 0002088  41.4184 318.7150 14.19530883738530

#Time	Az	El	Level	Level2	SNR	BER	BlckErr	Temp	State	Recorded	gain1	gain2
2026-01-28 14:00:53.00	19.31	0.07	-48.6	-61.2	3.5	1.52e+00	0	30	0	0	60	40128
2026-01-28 14:00:57.04	19.43	0.30	-48.7	-63.9	3.6	1.51e+00	0	31	104	0	60	56778
2026-01-28 14:01:01.08	19.54	0.54	-48.8	-64.0	3.6	1.51e+00	0	31	104	0	60	57041
2026-01-28 14:01:05.12	19.66	0.78	-48.8	-64.0	3.6	1.51e+00	0	31	104	0	60	56974
2026-01-28 14:01:09.16	19.78	1.02	-48.6	-63.8	3.6	1.51e+00	0	31	104	0	60	56224
2026-01-28 14:01:13.20	19.89	1.27	-48.1	-63.4	3.6	1.51e+00	0	31	104	0	60	53573
2026-01-28 14:01:17.24	20.02	1.51	-47.6	-62.8	3.6	1.51e+00	0	31	104	0	60	49691
2026-01-28 14:01:21.27	20.14	1.76	-47.4	-62.6	3.6	1.51e+00	0	32	104	0	60	48508
2026-01-28 14:01:25.31	20.26	2.01	-47.4	-62.5	3.6	1.51e+00	0	32	104	0	60	48390
2026-01-28 14:01:29.35	20.39	2.26	-47.4	-62.5	3.6	1.51e+00	0	32	104	0	60	48095
2026-01-28 14:01:33.39	20.52	2.52	-47.3	-61.3	3.6	1.51e+00	0	32	104	0	60	41891
2026-01-28 14:01:37.43	20.65	2.77	-47.2	-60.0	3.7	1.51e+00	0	32	104	0	60	36324
2026-01-28 14:01:41.46	20.78	3.03	-44.9	-48.7	12.8	1.69e-04	0	32	0	5242880	60	9858
2026-01-28 14:01:45.50	20.91	3.29	-42.2	-44.2	17.6	0.00e+00	0	32	0	12582912	58	6543
2026-01-28 14:01:49.54	21.05	3.56	-42.7	-45.0	16.1	0.00e+00	44	32	0	19922944	58	7190
2026-01-28 14:01:53.58	21.18	3.82	-43.8	-46.4	14.6	7.04e-03	0	32	0	28311552	60	7588
2026-01-28 14:01:57.61	21.32	4.09	-44.5	-47.9	13.2	0.00e+00	0	32	104	32505856	60	8928
2026-01-28 14:02:01.62	21.47	4.36	-44.3	-47.3	14.5	7.00e-07	0	32	0	39845888	60	8361
2026-01-28 14:02:05.65	21.61	4.63	-44.1	-47.0	15.1	0.00e+00	42	32	0	47185920	60	8077
2026-01-28 14:02:09.69	21.76	4.91	-44.0	-46.8	14.8	0.00e+00	0	32	0	54525952	60	7950
2026-01-28 14:02:13.73	21.91	5.19	-42.9	-45.1	16.8	0.00e+00	0	32	0	61865984	60	6471
2026-01-28 14:02:17.77	22.06	5.47	-42.0	-43.8	18.0	0.00e+00	0	32	0	69206016	58	6253
2026-01-28 14:02:21.80	22.21	5.75	-41.7	-43.3	18.5	0.00e+00	87	32	0	77594624	56	6680
2026-01-28 14:02:25.84	22.37	6.04	-40.7	-42.1	19.4	0.00e+00	0	32	0	84934656	54	6527
2026-01-28 14:02:29.88	22.53	6.33	-40.2	-41.5	20.0	0.00e+00	0	32	0	92274688	54	6079
2026-01-28 14:02:33.91	22.69	6.63	-40.1	-41.4	20.1	0.00e+00	0	32	0	99614720	54	6022
2026-01-28 14:02:37.95	22.86	6.92	-40.1	-41.4	20.1	0.00e+00	86	32	0	106954752	52	6764
2026-01-28 14:02:41.98	23.03	7.22	-39.9	-41.2	20.1	0.00e+00	0	32	0	115343360	52	6574
2026-01-28 14:02:46.02	23.20	7.53	-39.6	-40.8	20.5	0.00e+00	0	32	0	122683392	52	6304
2026-01-28 14:02:50.06	23.37	7.83	-39.5	-40.7	21.0	0.00e+00	36	32	0	130023424	52	6218
2026-01-28 14:02:54.10	23.55	8.15	-39.1	-40.3	21.3	0.00e+00	32	32	0	137363456	52	5901
2026-01-28 14:02:58.13	23.73	8.46	-39.2	-40.3	21.2	0.00e+00	0	32	0	145752064	52	5953
2026-01-28 14:03:02.17	23.92	8.78	-39.3	-40.4	21.4	0.00e+00	0	32	0	153092096	52	6026
2026-01-28 14:03:06.21	24.11	9.10	-39.2	-40.4	21.4	0.00e+00	92	32	0	160432128	52	5981
2026-01-28 14:03:10.24	24.30	9.43	-39.2	-40.4	21.4	0.00e+00	0	32	0	167772160	52	5978
2026-01-28 14:03:14.29	24.50	9.76	-39.2	-40.3	21.5	0.00e+00	0	32	0	175112192	52	5946
2026-01-28 14:03:18.32	24.70	10.09	-39.0	-40.2	21.5	0.00e+00	0	32	0	183500800	52	5830
2026-01-28 14:03:22.36	24.91	10.43	-38.9	-40.0	21.8	0.00e+00	60	32	0	190840832	50	6398
2026-01-28 14:03:26.40	25.11	10.77	-38.8	-39.9	21.7	0.00e+00	0	32	0	198180864	50	6351
2026-01-28 14:03:30.44	25.33	11.12	-38.4	-39.5	22.2	0.00e+00	0	32	0	205520896	50	6053
2026-01-28 14:03:34.48	25.55	11.47	-38.5	-39.5	22.1	0.00e+00	20	32	0	213909504	50	6097
2026-01-28 14:03:38.52	25.77	11.83	-38.2	-39.2	22.5	0.00e+00	0	32	0	221249536	50	5871
2026-01-28 14:03:42.56	26.00	12.19	-38.4	-39.5	22.3	0.00e+00	0	32	0	228589568	50	6046
2026-01-28 14:03:46.59	26.24	12.56	-38.2	-39.2	22.5	0.00e+00	0	32	0	235929600	50	5891
2026-01-28 14:03:50.63	26.48	12.93	-37.9	-38.8	22.8	0.00e+00	90	32	0	243269632	48	6315
2026-01-28 14:03:54.67	26.72	13.31	-37.7	-38.6	23.0	0.00e+00	0	32	0	251658240	48	6159
2026-01-28 14:03:58.71	26.97	13.69	-37.3	-38.2	23.4	0.00e+00	0	32	0	258998272	48	5839
2026-01-28 14:04:02.74	27.23	14.08	-37.2	-38.1	23.4	0.00e+00	0	32	0	266338304	48	5819
2026-01-28 14:04:06.77	27.49	14.48	-37.3	-38.2	23.4	0.00e+00	64	32	0	273678336	48	5841
2026-01-28 14:04:10.80	27.76	14.88	-37.0	-37.9	23.5	0.00e+00	0	32	0	281018368	48	5646
2026-01-28 14:04:14.84	28.04	15.28	-37.1	-38.0	23.5	0.00e+00	0	32	0	289406976	48	5708
2026-01-28 14:04:18.88	28.33	15.70	-36.8	-37.6	23.8	0.00e+00	55	32	0	296747008	46	6172
2026-01-28 14:04:22.92	28.62	16.12	-36.9	-37.8	23.7	0.00e+00	85	32	0	304087040	46	6255
2026-01-28 14:04:26.95	28.92	16.54	-36.9	-37.8	23.8	0.00e+00	0	32	0	311427072	46	6252
2026-01-28 14:04:30.98	29.23	16.98	-36.8	-37.7	23.8	0.00e+00	0	32	0	319815680	46	6200
2026-01-28 14:04:35.02	29.54	17.42	-36.5	-37.3	24.0	0.00e+00	59	32	0	327155712	46	5951
2026-01-28 14:04:39.06	29.87	17.87	-36.7	-37.6	23.8	0.00e+00	0	32	0	334495744	46	6126
2026-01-28 14:04:43.09	30.20	18.32	-36.9	-37.8	23.7	0.00e+00	0	32	0	341835776	46	6249
2026-01-28 14:04:47.12	30.55	18.78	-37.0	-37.9	23.7	0.00e+00	0	32	0	349175808	46	6327
2026-01-28 14:04:51.15	30.90	19.25	-36.7	-37.5	23.9	0.00e+00	90	32	0	357564416	46	6079
2026-01-28 14:04:55.19	31.27	19.73	-36.7	-37.5	23.9	0.00e+00	33	32	0	364904448	46	6090
2026-01-28 14:04:59.23	31.64	20.22	-36.8	-37.7	23.9	0.00e+00	0	32	0	372244480	46	6199
2026-01-28 14:05:03.26	32.03	20.71	-36.4	-37.2	24.3	0.00e+00	0	32	0	379584512	46	5876
2026-01-28 14:05:07.29	32.43	21.22	-36.4	-37.2	24.3	0.00e+00	78	32	0	386924544	46	5860
2026-01-28 14:05:11.33	32.84	21.73	-36.5	-37.4	24.1	0.00e+00	0	32	0	395313152	46	6000
2026-01-28 14:05:15.37	33.27	22.25	-36.5	-37.3	24.2	0.00e+00	0	32	0	402653184	46	5944
2026-01-28 14:05:19.40	33.71	22.78	-36.3	-37.1	24.3	0.00e+00	54	32	0	409993216	46	5826
2026-01-28 14:05:23.44	34.17	23.33	-36.6	-37.4	24.1	0.00e+00	0	32	0	417333248	46	6020
2026-01-28 14:05:27.47	34.64	23.88	-36.6	-37.4	23.8	0.00e+00	0	32	0	425721856	46	6032
2026-01-28 14:05:31.51	35.12	24.44	-36.9	-37.8	23.8	0.00e+00	0	32	0	433061888	46	6276
2026-01-28 14:05:35.54	35.63	25.01	-36.9	-37.8	23.8	0.00e+00	51	32	0	440401920	46	6247
2026-01-28 14:05:39.58	36.15	25.59	-36.8	-37.7	24.0	0.00e+00	0	32	0	447741952	46	6186
2026-01-28 14:05:43.61	36.69	26.18	-37.2	-38.1	23.7	0.00e+00	0	32	0	455081984	46	6500
2026-01-28 14:05:47.65	37.25	26.78	-37.0	-37.9	23.7	0.00e+00	0	32	0	463470592	46	6376
2026-01-28 14:05:51.69	37.83	27.40	-37.1	-38.0	23.6	0.00e+00	80	32	0	470810624	46	6391
2026-01-28 14:05:55.73	38.44	28.02	-37.7	-38.6	21.8	0.00e+00	0	32	0	478150656	46	6923
2026-01-28 14:05:59.76	39.07	28.66	-38.7	-39.7	22.5	0.00e+00	0	32	0	485490688	48	6974
2026-01-28 14:06:03.80	39.72	29.30	-39.6	-40.7	21.5	0.00e+00	9	32	0	493879296	50	6984
2026-01-28 14:06:07.84	40.40	29.96	-39.9	-41.1	21.2	0.00e+00	56	32	0	501219328	52	6479
2026-01-28 14:06:11.88	41.11	30.63	-39.5	-40.6	21.9	0.00e+00	0	32	0	508559360	52	6147
2026-01-28 14:06:15.92	41.84	31.31	-38.7	-39.7	22.4	0.00e+00	0	32	0	515899392	52	5563
2026-01-28 14:06:19.96	42.61	32.00	-38.7	-39.7	22.4	0.00e+00	54	32	0	523239424	50	6187
2026-01-28 14:06:24.00	43.41	32.70	-38.6	-39.6	22.4	0.00e+00	0	32	0	531628032	50	6142
2026-01-28 14:06:28.04	44.25	33.41	-37.9	-38.9	23.1	0.00e+00	0	32	0	538968064	50	5658
2026-01-28 14:06:32.08	45.12	34.14	-37.5	-38.3	23.5	0.00e+00	0	32	0	546308096	48	5957
2026-01-28 14:06:36.11	46.03	34.87	-38.1	-39.1	22.9	0.00e+00	22	32	0	553648128	48	6507
2026-01-28 14:06:40.15	46.98	35.61	-38.1	-39.1	22.8	0.00e+00	0	32	0	562036736	48	6487
2026-01-28 14:06:44.19	47.98	36.36	-37.1	-37.9	23.8	0.00e+00	0	32	0	569376768	48	5687
2026-01-28 14:06:48.23	49.02	37.11	-37.4	-38.3	23.5	0.00e+00	0	32	0	576716800	46	6639
2026-01-28 14:06:52.27	50.11	37.88	-36.7	-37.5	24.0	0.00e+00	92	32	0	584056832	46	6063
2026-01-28 14:06:56.30	51.25	38.65	-36.8	-37.7	24.0	0.00e+00	0	32	0	591396864	46	6178
2026-01-28 14:07:00.34	52.45	39.42	-37.4	-38.3	23.5	0.00e+00	0	32	0	599785472	46	6674
2026-01-28 14:07:04.37	53.71	40.19	-37.3	-38.2	23.9	0.00e+00	57	32	0	607125504	46	6574
2026-01-28 14:07:08.41	55.02	40.97	-36.8	-37.6	24.0	0.00e+00	54	32	0	614465536	46	6125
2026-01-28 14:07:12.44	56.40	41.75	-38.0	-39.0	22.9	0.00e+00	0	32	0	621805568	48	6453
2026-01-28 14:07:16.48	57.85	42.53	-37.2	-38.1	23.7	0.00e+00	0	32	0	630194176	48	5789
2026-01-28 14:07:20.52	59.36	43.30	-36.9	-37.8	24.0	0.00e+00	86	32	0	637534208	46	6303
2026-01-28 14:07:24.55	60.95	44.06	-37.3	-38.2	23.7	0.00e+00	0	32	0	644874240	46	6558
2026-01-28 14:07:28.59	62.62	44.81	-38.0	-39.0	23.2	0.00e+00	0	32	0	652214272	48	6464
2026-01-28 14:07:32.62	64.36	45.55	-38.8	-39.9	22.3	0.00e+00	0	32	0	659554304	50	6333
2026-01-28 14:07:36.66	66.19	46.28	-37.3	-38.2	23.4	0.00e+00	92	32	0	667942912	48	5888
2026-01-28 14:07:40.71	68.11	46.98	-36.6	-37.5	24.2	0.00e+00	0	32	0	675282944	46	6036
2026-01-28 14:07:44.74	70.10	47.66	-36.6	-37.5	24.2	0.00e+00	0	32	0	682622976	46	6048
2026-01-28 14:07:48.78	72.19	48.31	-37.2	-38.0	23.6	0.00e+00	41	32	0	689963008	46	6456
2026-01-28 14:07:52.81	74.36	48.93	-37.7	-38.6	23.2	0.00e+00	77	32	0	697303040	46	6917
2026-01-28 14:07:56.85	76.62	49.51	-36.8	-37.7	23.9	0.00e+00	0	32	0	705691648	46	6174
2026-01-28 14:08:00.89	78.96	50.05	-37.3	-38.1	23.6	0.00e+00	0	32	0	713031680	46	6528
2026-01-28 14:08:04.93	81.38	50.55	-38.3	-39.3	22.7	0.00e+00	60	33	0	720371712	48	6685
2026-01-28 14:08:08.96	83.88	50.99	-38.2	-39.2	22.8	0.00e+00	0	32	0	727711744	50	5864
2026-01-28 14:08:12.99	86.44	51.38	-36.7	-37.6	24.0	0.00e+00	0	32	0	736100352	48	5485
2026-01-28 14:08:17.03	89.07	51.72	-36.1	-36.9	24.4	0.00e+00	0	32	0	743440384	44	6377
2026-01-28 14:08:21.07	91.76	51.99	-37.1	-38.0	23.7	0.00e+00	86	32	0	750780416	46	6430
2026-01-28 14:08:25.11	94.49	52.20	-36.1	-36.9	24.4	0.00e+00	0	32	0	758120448	44	6367
2026-01-28 14:08:29.15	97.25	52.34	-37.3	-38.2	23.6	0.00e+00	0	32	0	765460480	46	6585
2026-01-28 14:08:33.18	100.03	52.42	-37.4	-38.3	23.4	0.00e+00	33	32	0	773849088	46	6640
2026-01-28 14:08:37.22	102.82	52.42	-37.1	-38.0	23.8	0.00e+00	92	32	0	781189120	46	6397
2026-01-28 14:08:41.26	105.61	52.36	-37.5	-38.5	23.3	0.00e+00	0	32	0	788529152	48	6044
2026-01-28 14:08:45.30	108.38	52.23	-36.2	-37.0	24.1	0.00e+00	0	32	0	795869184	46	5735
2026-01-28 14:08:49.33	111.11	52.03	-35.8	-36.6	24.9	0.00e+00	0	32	0	804257792	44	6171
2026-01-28 14:08:53.37	113.81	51.77	-35.9	-36.7	24.7	0.00e+00	83	32	0	811597824	44	6194
2026-01-28 14:08:57.41	116.46	51.45	-36.2	-37.0	24.3	0.00e+00	0	33	0	818937856	44	6421
2026-01-28 14:09:01.44	119.04	51.07	-37.1	-38.0	23.6	0.00e+00	0	32	0	826277888	48	5729
2026-01-28 14:09:05.48	121.55	50.63	-35.7	-36.5	24.8	0.00e+00	45	33	0	833617920	46	5391
2026-01-28 14:09:09.51	123.99	50.14	-37.6	-38.5	23.3	0.00e+00	0	32	0	842006528	48	6094
2026-01-28 14:09:13.55	126.35	49.61	-36.8	-37.6	24.0	0.00e+00	0	32	0	849346560	46	6170
2026-01-28 14:09:17.59	128.63	49.03	-37.6	-38.5	23.3	0.00e+00	0	32	0	856686592	48	6076
2026-01-28 14:09:21.62	130.81	48.42	-36.2	-37.1	24.4	0.00e+00	92	32	0	864026624	46	5775
2026-01-28 14:09:25.65	132.92	47.77	-40.2	-41.4	21.0	0.00e+00	0	32	0	871366656	52	6754
2026-01-28 14:09:29.69	134.93	47.10	-39.4	-40.4	21.8	0.00e+00	0	32	0	879755264	52	6027
2026-01-28 14:09:33.73	136.87	46.40	-42.0	-43.6	19.4	0.00e+00	0	32	0	887095296	58	6167
2026-01-28 14:09:37.76	138.71	45.67	-41.9	-43.6	19.0	0.00e+00	92	33	0	894435328	56	6893
2026-01-28 14:09:41.80	140.48	44.93	-42.8	-44.7	18.2	0.00e+00	0	32	0	901775360	58	6984
2026-01-28 14:09:45.84	142.16	44.18	-42.0	-43.7	19.0	0.00e+00	0	33	0	910163968	56	6956
2026-01-28 14:09:49.88	143.77	43.41	-41.1	-42.5	19.8	0.00e+00	56	33	0	917504000	56	6084
2026-01-28 14:09:53.91	145.30	42.64	-42.9	-44.9	18.1	0.00e+00	92	33	0	924844032	58	7125
2026-01-28 14:09:57.95	146.76	41.87	-39.9	-41.1	21.2	0.00e+00	0	32	0	932184064	52	6494
2026-01-28 14:10:01.99	148.16	41.08	-39.1	-40.2	22.2	0.00e+00	0	32	0	939524096	52	5836
2026-01-28 14:10:06.03	149.49	40.30	-40.3	-41.6	20.7	0.00e+00	53	32	0	947912704	52	6882
2026-01-28 14:10:10.06	150.75	39.52	-36.8	-37.6	24.2	0.00e+00	0	32	0	955252736	48	5472
2026-01-28 14:10:14.10	151.96	38.75	-40.2	-41.6	20.9	0.00e+00	0	32	0	962592768	54	6150
2026-01-28 14:10:18.13	153.11	37.97	-37.7	-38.6	23.1	0.00e+00	0	32	0	969932800	48	6150
2026-01-28 14:10:22.17	154.21	37.21	-39.0	-40.2	22.1	0.00e+00	92	32	0	978321408	52	5837
2026-01-28 14:10:26.21	155.27	36.44	-36.6	-37.4	24.3	0.00e+00	0	32	0	985661440	46	5989
2026-01-28 14:10:30.25	156.27	35.69	-38.5	-39.5	22.7	0.00e+00	0	33	0	993001472	48	6843
2026-01-28 14:10:34.29	157.23	34.94	-38.2	-39.1	22.9	0.00e+00	54	33	0	1000341504	48	6513
2026-01-28 14:10:38.33	158.15	34.21	-40.6	-41.9	20.5	0.00e+00	92	33	0	1007681536	52	7127
2026-01-28 14:10:42.36	159.03	33.48	-40.7	-42.0	20.4	0.00e+00	0	33	0	1016070144	56	5740
2026-01-28 14:10:46.39	159.87	32.77	-37.8	-38.7	22.7	0.00e+00	0	33	0	1023410176	48	6231
2026-01-28 14:10:50.43	160.68	32.06	-40.7	-42.0	20.1	0.00e+00	54	32	0	1030750208	54	6452
2026-01-28 14:10:54.46	161.45	31.37	-38.8	-39.8	22.3	0.00e+00	0	32	0	1038090240	52	5623
2026-01-28 14:10:58.50	162.20	30.68	-37.4	-38.3	23.7	0.00e+00	0	33	0	1045430272	48	5901
2026-01-28 14:11:02.53	162.91	30.01	-39.7	-40.8	21.5	0.00e+00	0	33	0	1053818880	50	7044
2026-01-28 14:11:06.57	163.59	29.35	-41.0	-42.3	20.1	0.00e+00	92	32	0	1061158912	54	6677
2026-01-28 14:11:10.61	164.25	28.69	-38.3	-39.3	22.7	0.00e+00	0	33	0	1068498944	50	5936
2026-01-28 14:11:14.64	164.88	28.06	-37.5	-38.4	23.5	0.00e+00	0	32	0	1075838976	48	5998
2026-01-28 14:11:18.68	165.49	27.43	-39.0	-40.2	22.1	0.00e+00	0	32	0	1084227584	50	6590
2026-01-28 14:11:22.72	166.08	26.81	-37.7	-38.6	23.2	0.00e+00	59	32	0	1091567616	48	6169
2026-01-28 14:11:26.76	166.64	26.20	-36.9	-37.7	24.0	0.00e+00	0	33	0	1098907648	46	6216
2026-01-28 14:11:30.80	167.19	25.60	-39.1	-40.1	22.1	0.00e+00	0	33	0	1106247680	50	6531
2026-01-28 14:11:34.84	167.71	25.02	-42.2	-43.9	18.9	0.00e+00	15	33	0	1113587712	56	7090
2026-01-28 14:11:38.88	168.22	24.44	-40.1	-41.3	21.1	0.00e+00	0	33	0	1121976320	54	5962
2026-01-28 14:11:42.90	168.71	23.88	-37.9	-38.9	22.9	0.00e+00	0	33	0	1129316352	50	5631
2026-01-28 14:11:46.94	169.18	23.32	-37.3	-38.2	23.4	0.00e+00	0	32	0	1136656384	48	5849
2026-01-28 14:11:50.98	169.64	22.78	-38.1	-39.1	22.8	0.00e+00	38	33	0	1143996416	48	6471
2026-01-28 14:11:55.01	170.08	22.24	-38.4	-39.5	22.4	0.00e+00	0	33	0	1152385024	48	6812
2026-01-28 14:11:59.05	170.51	21.72	-38.3	-39.4	22.7	0.00e+00	0	33	0	1159725056	48	6705
2026-01-28 14:12:03.08	170.92	21.20	-37.8	-38.8	23.1	0.00e+00	0	33	0	1167065088	48	6288
2026-01-28 14:12:07.12	171.32	20.69	-37.6	-38.5	23.1	0.00e+00	92	33	0	1174405120	48	6103
2026-01-28 14:12:11.16	171.71	20.19	-37.2	-38.1	23.6	0.00e+00	0	33	0	1181745152	48	5813
2026-01-28 14:12:15.20	172.09	19.70	-37.1	-38.0	23.6	0.00e+00	0	33	0	1190133760	48	5732
2026-01-28 14:12:19.24	172.45	19.22	-37.1	-38.0	23.7	0.00e+00	0	32	0	1197473792	48	5716
2026-01-28 14:12:23.27	172.81	18.74	-37.0	-37.9	23.7	0.00e+00	92	33	0	1204813824	48	5685
2026-01-28 14:12:27.32	173.15	18.28	-37.1	-38.0	23.6	0.00e+00	0	33	0	1212153856	48	5737
2026-01-28 14:12:31.35	173.49	17.82	-37.6	-38.5	23.2	0.00e+00	0	33	0	1220542464	48	6079
2026-01-28 14:12:35.39	173.81	17.37	-37.9	-38.9	22.8	0.00e+00	50	33	0	1227882496	48	6362
2026-01-28 14:12:39.42	174.13	16.93	-38.3	-39.4	22.5	0.00e+00	0	32	0	1235222528	48	6726
2026-01-28 14:12:43.46	174.44	16.49	-38.3	-39.3	22.4	0.00e+00	0	33	0	1242562560	48	6656
2026-01-28 14:12:47.49	174.73	16.06	-38.1	-39.2	22.6	0.00e+00	0	32	0	1249902592	48	6544
2026-01-28 14:12:51.53	175.03	15.64	-37.9	-39.0	22.8	0.00e+00	36	33	0	1258291200	48	6391
2026-01-28 14:12:55.57	175.31	15.22	-37.7	-38.7	23.0	0.00e+00	0	32	0	1265631232	48	6188
2026-01-28 14:12:59.60	175.59	14.81	-37.3	-38.1	23.4	0.00e+00	0	33	0	1272971264	48	5821
2026-01-28 14:13:03.64	175.86	14.41	-37.1	-38.0	23.6	0.00e+00	0	33	0	1280311296	48	5735
2026-01-28 14:13:07.68	176.12	14.01	-36.8	-37.7	23.8	0.00e+00	47	33	0	1288699904	48	5525
2026-01-28 14:13:11.72	176.38	13.62	-37.0	-37.9	23.6	0.00e+00	0	32	0	1296039936	48	5669
2026-01-28 14:13:15.75	176.63	13.23	-37.3	-38.2	23.4	0.00e+00	0	33	0	1303379968	48	5874
2026-01-28 14:13:19.79	176.87	12.85	-37.4	-38.3	23.2	0.00e+00	0	32	0	1310720000	48	5944
2026-01-28 14:13:23.83	177.11	12.48	-37.8	-38.7	23.1	0.00e+00	29	32	0	1318060032	48	6212
2026-01-28 14:13:27.87	177.34	12.11	-37.5	-38.4	23.1	0.00e+00	0	32	0	1326448640	48	5992
2026-01-28 14:13:31.91	177.57	11.75	-37.5	-38.4	23.2	0.00e+00	0	32	0	1333788672	48	6000
2026-01-28 14:13:35.94	177.79	11.39	-37.4	-38.3	23.3	0.00e+00	47	32	0	1341128704	48	5918
2026-01-28 14:13:39.97	178.01	11.03	-37.2	-38.1	23.3	0.00e+00	0	32	0	1348468736	48	5800
2026-01-28 14:13:44.01	178.22	10.68	-37.2	-38.1	23.3	0.00e+00	0	33	0	1355808768	48	5817
2026-01-28 14:13:48.05	178.43	10.34	-37.5	-38.4	22.9	0.00e+00	0	32	0	1364197376	48	5991
2026-01-28 14:13:52.08	178.63	10.00	-37.7	-38.6	22.7	0.00e+00	92	32	0	1371537408	48	6165
2026-01-28 14:13:56.12	178.83	9.66	-38.2	-39.2	22.4	0.00e+00	0	32	0	1378877440	48	6561
2026-01-28 14:14:00.16	179.02	9.33	-38.4	-39.4	22.1	0.00e+00	0	32	0	1386217472	50	6025
2026-01-28 14:14:04.20	179.21	9.00	-38.6	-39.7	21.9	0.00e+00	33	32	0	1394606080	50	6181
2026-01-28 14:14:08.24	179.40	8.68	-39.0	-40.1	21.5	0.00e+00	92	32	0	1401946112	50	6518
2026-01-28 14:14:12.28	179.58	8.36	-39.4	-40.6	21.0	0.00e+00	0	32	0	1409286144	50	6909
2026-01-28 14:14:16.32	179.76	8.04	-39.7	-40.9	20.8	0.00e+00	0	32	0	1416626176	52	6382
2026-01-28 14:14:20.35	179.94	7.73	-40.1	-41.4	20.4	0.00e+00	45	32	0	1423966208	52	6741
2026-01-28 14:14:24.39	180.11	7.42	-40.1	-41.4	20.4	0.00e+00	64	32	0	1432354816	52	6721
2026-01-28 14:14:28.43	180.28	7.11	-40.5	-41.9	19.9	0.00e+00	0	32	0	1439694848	52	7132
2026-01-28 14:14:32.47	180.45	6.81	-40.0	-41.4	20.4	0.00e+00	33	32	0	1447034880	54	5966
2026-01-28 14:14:36.50	180.61	6.51	-40.0	-41.3	20.5	0.00e+00	47	32	0	1454374912	52	6679
2026-01-28 14:14:40.54	180.77	6.22	-40.2	-41.6	20.3	0.00e+00	0	32	0	1462763520	52	6861
2026-01-28 14:14:44.58	180.93	5.93	-40.2	-41.5	20.2	0.00e+00	0	32	0	1470103552	52	6816
2026-01-28 14:14:48.61	181.08	5.64	-40.0	-41.3	20.5	0.00e+00	0	32	0	1477443584	52	6653
2026-01-28 14:14:52.65	181.23	5.35	-39.7	-40.9	20.7	0.00e+00	92	32	0	1484783616	52	6354
2026-01-28 14:14:56.68	181.38	5.07	-39.8	-41.0	20.6	0.00e+00	0	32	0	1492123648	52	6450
2026-01-28 14:15:00.72	181.53	4.79	-39.8	-41.1	20.5	0.00e+00	0	32	0	1500512256	52	6468
2026-01-28 14:15:04.76	181.67	4.51	-39.9	-41.2	20.3	0.00e+00	0	32	0	1507852288	52	6595
2026-01-28 14:15:08.79	181.81	4.24	-40.1	-41.4	19.6	0.00e+00	90	32	0	1515192320	52	6765
2026-01-28 14:15:12.83	181.95	3.96	-41.3	-42.9	18.5	0.00e+00	0	32	0	1522532352	54	7119
2026-01-28 14:15:16.87	182.09	3.69	-41.2	-42.8	19.0	0.00e+00	0	32	0	1530920960	54	7032
2026-01-28 14:15:20.90	182.22	3.43	-40.3	-41.8	19.6	0.00e+00	42	32	0	1538260992	54	6250
2026-01-28 14:15:24.94	182.35	3.16	-40.7	-42.2	19.3	0.00e+00	27	32	0	1545601024	54	6602
2026-01-28 14:15:28.98	182.48	2.90	-48.1	-63.2	3.6	1.51e+00	0	32	104	1549795328	60	52430
2026-01-28 14:15:33.02	182.61	2.64	-48.6	-63.8	3.6	1.51e+00	0	33	104	1549795328	60	55990
2026-01-28 14:15:37.06	182.74	2.38	-48.8	-64.0	3.6	1.51e+00	0	33	104	1549795328	60	57452
2026-01-28 14:15:41.10	182.86	2.13	-48.9	-64.1	3.6	1.51e+00	0	33	104	1549795328	60	57981
2026-01-28 14:15:45.14	182.98	1.87	-48.8	-64.0	3.6	1.51e+00	0	33	104	1549795328	60	57229
2026-01-28 14:15:49.18	183.10	1.62	-48.8	-64.0	3.6	1.51e+00	0	33	104	1549795328	60	57275
2026-01-28 14:15:53.22	183.22	1.37	-48.8	-64.0	3.6	1.51e+00	0	33	104	1549795328	60	57017
2026-01-28 14:15:57.26	183.34	1.13	-48.8	-63.9	3.6	1.51e+00	0	33	104	1549795328	60	56832
2026-01-28 14:16:01.30	183.45	0.88	-48.8	-63.9	3.6	1.51e+00	0	33	104	1549795328	60	56814
2026-01-28 14:16:05.34	183.57	0.64	-48.7	-63.9	3.6	1.51e+00	0	33	104	1549795328	60	56820
2026-01-28 14:16:09.37	183.68	0.40	-48.8	-64.0	3.6	1.51e+00	0	33	104	1549795328	60	56982
2026-01-28 14:16:13.42	183.79	0.16	-48.7	-63.9	3.6	1.51e+00	0	33	104	1549795328	60	56891

#Closed at: 2026-01-28 14:16:16
#Recorded file [1549 MB]: D:/lorett/data/35029_260129_020052.dat