passes_logs/2026/01/28/R4.6S_Anadyr/R4.6S_Anadyr__20260128_101530_KOSAR1-5_rec.log

#Pass ID: 20260128_101530_KOSAR1-5
#Satellite: KOSAR1-5
#Configuration: KOSAR1-5
#almurnet v.1.7.20251203
#Start time: 2026-01-28 10:15:32

#Version: 2.2.20231116
#Station: R4.6S_Anadyr
#Location: 177.4865 lon 64.73178 lat
#TLE: 1 67264U 25313S   26027.76143924  .00010916  00000+0  50329-3 0  9990
#TLE: 2 67264  97.4176 104.7207 0016474 138.6036 221.6451 15.20309833  4594

#Time	Az	El	Level	Level2	SNR	BER	BlckErr	Temp	State	Recorded	gain1	gain2
2026-01-28 10:15:32.25	181.03	0.09	-45.5	-59.9	3.5	1.51e+00	0	30	0	0	60	40138
2026-01-28 10:15:35.27	181.15	0.28	-46.9	-61.6	3.6	1.51e+00	0	31	104	0	60	48725
2026-01-28 10:15:38.30	181.27	0.47	-45.8	-60.7	3.6	1.51e+00	0	31	104	0	60	43828
2026-01-28 10:15:41.33	181.39	0.66	-45.8	-60.6	3.6	1.51e+00	0	31	104	0	60	43371
2026-01-28 10:15:44.36	181.52	0.86	-45.8	-60.5	3.6	1.51e+00	0	32	104	0	60	42781
2026-01-28 10:15:47.39	181.64	1.05	-45.6	-60.4	3.6	1.51e+00	0	32	104	0	60	42399
2026-01-28 10:15:50.41	181.77	1.25	-45.1	-59.8	3.6	1.51e+00	0	32	104	0	60	39729
2026-01-28 10:15:53.44	181.90	1.45	-44.4	-59.4	3.6	1.51e+00	0	32	104	0	60	37956
2026-01-28 10:15:56.47	182.04	1.65	-43.8	-59.1	3.6	1.51e+00	0	32	104	0	60	36505
2026-01-28 10:15:59.50	182.17	1.85	-43.9	-59.0	3.6	1.51e+00	0	32	104	0	60	36293
2026-01-28 10:16:02.53	182.31	2.06	-44.1	-59.0	3.6	1.51e+00	0	32	104	0	60	36308
2026-01-28 10:16:05.56	182.45	2.26	-44.2	-59.0	3.6	1.51e+00	0	32	104	0	60	36138
2026-01-28 10:16:08.59	182.59	2.47	-44.2	-59.1	3.6	1.51e+00	0	32	104	0	60	36484
2026-01-28 10:16:11.62	182.74	2.68	-44.2	-59.0	3.6	1.51e+00	0	32	104	0	60	36296
2026-01-28 10:16:14.65	182.89	2.89	-44.2	-59.0	3.6	1.51e+00	0	32	104	0	60	35976
2026-01-28 10:16:17.68	183.04	3.11	-44.2	-59.0	3.6	1.51e+00	0	32	104	0	60	36298
2026-01-28 10:16:20.71	183.19	3.33	-44.2	-59.1	3.6	1.51e+00	0	32	104	0	60	36385
2026-01-28 10:16:23.74	183.35	3.54	-44.2	-59.0	3.6	1.51e+00	0	32	104	0	60	36161
2026-01-28 10:16:26.77	183.50	3.77	-44.2	-59.0	3.6	1.51e+00	0	32	104	0	60	36071
2026-01-28 10:16:29.80	183.66	3.99	-44.1	-59.0	3.6	1.51e+00	0	32	104	0	60	36250
2026-01-28 10:16:32.83	183.83	4.21	-44.4	-59.3	3.6	1.51e+00	0	32	104	0	60	37463
2026-01-28 10:16:35.86	184.00	4.44	-44.1	-59.0	3.6	1.51e+00	0	32	104	0	60	36198
2026-01-28 10:16:38.89	184.17	4.67	-44.4	-59.2	3.6	1.51e+00	0	32	104	0	60	37118
2026-01-28 10:16:41.92	184.34	4.90	-44.3	-59.4	3.6	1.51e+00	0	32	104	0	60	38058
2026-01-28 10:16:44.95	184.52	5.14	-44.3	-59.5	3.6	1.51e+00	0	32	104	0	60	38387
2026-01-28 10:16:47.97	184.70	5.38	-44.5	-59.3	3.6	1.51e+00	0	32	104	0	60	37494
2026-01-28 10:16:50.99	184.88	5.62	-44.3	-59.4	3.6	1.51e+00	0	32	104	0	60	37745
2026-01-28 10:16:54.03	185.07	5.86	-44.5	-59.6	3.6	1.51e+00	0	32	104	0	60	38802
2026-01-28 10:16:57.05	185.26	6.11	-44.7	-59.7	3.6	1.51e+00	0	32	104	0	60	39153
2026-01-28 10:17:00.08	185.45	6.36	-44.3	-59.4	3.6	1.51e+00	0	32	104	0	60	38060
2026-01-28 10:17:03.11	185.65	6.61	-44.4	-59.5	3.6	1.51e+00	0	32	104	0	60	38293
2026-01-28 10:17:06.14	185.86	6.86	-44.7	-59.7	3.6	1.51e+00	0	33	104	0	60	39146
2026-01-28 10:17:09.17	186.07	7.12	-44.4	-59.8	3.6	1.51e+00	0	32	104	0	60	39452
2026-01-28 10:17:12.20	186.28	7.38	-44.7	-59.6	3.6	1.51e+00	0	33	104	0	60	38763
2026-01-28 10:17:15.22	186.49	7.65	-44.6	-59.6	3.6	1.51e+00	0	33	104	0	60	38660
2026-01-28 10:17:18.25	186.71	7.92	-44.7	-59.8	3.6	1.51e+00	0	33	104	0	60	39656
2026-01-28 10:17:21.28	186.94	8.19	-44.2	-59.8	3.6	1.51e+00	0	33	104	0	60	39636
2026-01-28 10:17:24.31	187.17	8.47	-44.9	-59.7	3.5	1.51e+00	0	33	104	0	60	39367
2026-01-28 10:17:27.34	187.41	8.74	-44.6	-59.7	3.6	1.51e+00	0	33	104	0	60	39141
2026-01-28 10:17:30.37	187.65	9.03	-44.5	-59.8	3.6	1.51e+00	0	33	104	0	60	39518
2026-01-28 10:17:33.40	187.90	9.32	-44.9	-59.9	3.6	1.51e+00	0	33	104	0	60	39914
2026-01-28 10:17:36.43	188.15	9.61	-44.7	-59.9	3.6	1.51e+00	0	33	104	0	60	39863
2026-01-28 10:17:39.46	188.41	9.90	-44.6	-59.8	3.6	1.51e+00	0	33	104	0	60	39415
2026-01-28 10:17:42.49	188.68	10.20	-44.8	-59.9	3.6	1.51e+00	0	33	104	0	60	39986
2026-01-28 10:17:45.51	188.95	10.51	-44.9	-59.9	3.6	1.51e+00	0	33	104	0	60	39964
2026-01-28 10:17:48.54	189.23	10.82	-45.0	-59.9	3.6	1.51e+00	0	33	104	0	60	39867
2026-01-28 10:17:51.57	189.52	11.13	-44.9	-59.9	3.6	1.51e+00	0	33	104	0	60	39918
2026-01-28 10:17:54.60	189.81	11.45	-45.1	-59.8	3.6	1.51e+00	0	33	104	0	60	39827
2026-01-28 10:17:57.63	190.11	11.77	-45.0	-59.9	3.6	1.51e+00	0	33	104	0	60	40312
2026-01-28 10:18:00.66	190.42	12.10	-44.9	-60.0	3.6	1.51e+00	0	33	104	0	60	40370
2026-01-28 10:18:03.68	190.74	12.43	-45.1	-59.8	3.6	1.51e+00	0	33	104	0	60	39839
2026-01-28 10:18:06.71	191.07	12.77	-45.0	-59.9	3.6	1.51e+00	0	33	104	0	60	40134
2026-01-28 10:18:09.74	191.40	13.12	-45.1	-59.9	3.6	1.51e+00	0	33	104	0	60	40307
2026-01-28 10:18:12.77	191.74	13.47	-45.1	-59.9	3.6	1.51e+00	0	33	104	0	60	40308
2026-01-28 10:18:15.79	192.10	13.83	-45.1	-59.9	3.6	1.51e+00	0	33	104	0	60	40179
2026-01-28 10:18:18.82	192.46	14.19	-45.1	-59.9	3.6	1.51e+00	0	33	104	0	60	40030
2026-01-28 10:18:21.85	192.84	14.56	-45.3	-60.0	3.6	1.51e+00	0	33	104	0	60	40682
2026-01-28 10:18:24.88	193.22	14.93	-45.3	-60.0	3.6	1.51e+00	0	33	104	0	60	40786
2026-01-28 10:18:27.90	193.62	15.32	-45.3	-59.9	3.6	1.51e+00	0	33	104	0	60	40289
2026-01-28 10:18:30.93	194.02	15.70	-45.2	-59.9	3.6	1.51e+00	0	33	104	0	60	40321
2026-01-28 10:18:33.96	194.45	16.10	-45.3	-60.0	3.6	1.51e+00	0	33	104	0	60	40595
2026-01-28 10:18:36.99	194.88	16.50	-45.3	-60.1	3.6	1.51e+00	0	33	104	0	60	40830
2026-01-28 10:18:40.02	195.33	16.91	-45.3	-60.0	3.6	1.51e+00	0	33	104	0	60	40519
2026-01-28 10:18:43.04	195.79	17.33	-45.3	-60.0	3.6	1.51e+00	0	33	104	0	60	40539
2026-01-28 10:18:46.07	196.26	17.76	-45.3	-60.0	3.6	1.51e+00	0	33	104	0	60	40780
2026-01-28 10:18:49.10	196.76	18.19	-45.3	-60.1	3.6	1.51e+00	0	33	104	0	60	40801
2026-01-28 10:18:52.13	197.27	18.63	-45.3	-60.0	3.6	1.51e+00	0	33	104	0	60	40750
2026-01-28 10:18:55.16	197.79	19.08	-45.3	-60.0	3.5	1.51e+00	0	33	104	0	60	40395
2026-01-28 10:18:58.19	198.33	19.54	-45.3	-60.1	3.6	1.51e+00	0	33	104	0	60	40994
2026-01-28 10:19:01.22	198.90	20.01	-45.3	-60.1	3.6	1.51e+00	0	33	104	0	60	40986
2026-01-28 10:19:04.24	199.48	20.48	-45.3	-60.0	3.6	1.51e+00	0	33	104	0	60	40577
2026-01-28 10:19:07.27	200.08	20.97	-45.3	-60.1	3.6	1.51e+00	0	33	104	0	60	40855
2026-01-28 10:19:10.30	200.70	21.46	-45.4	-60.1	3.5	1.51e+00	0	33	104	0	60	40945
2026-01-28 10:19:13.33	201.35	21.96	-45.4	-60.1	3.6	1.51e+00	0	33	104	0	60	40985
2026-01-28 10:19:16.36	202.02	22.47	-45.3	-60.1	3.6	1.51e+00	0	33	104	0	60	40870
2026-01-28 10:19:19.39	202.71	22.99	-45.4	-60.1	3.6	1.51e+00	0	33	104	0	60	40889
2026-01-28 10:19:22.42	203.44	23.52	-45.4	-60.1	3.6	1.51e+00	0	33	104	0	60	40983
2026-01-28 10:19:25.45	204.19	24.06	-45.4	-60.1	3.6	1.51e+00	0	33	104	0	60	41177
2026-01-28 10:19:28.47	204.96	24.61	-45.4	-60.1	3.6	1.51e+00	0	33	104	0	60	41227
2026-01-28 10:19:31.50	205.77	25.17	-45.4	-60.1	3.6	1.51e+00	0	33	104	0	60	40979
2026-01-28 10:19:34.52	206.61	25.73	-45.4	-60.1	3.6	1.51e+00	0	33	104	0	60	41253
2026-01-28 10:19:37.55	207.48	26.30	-45.4	-60.1	3.6	1.51e+00	0	33	104	0	60	40985
2026-01-28 10:19:40.58	208.39	26.89	-45.4	-60.1	3.6	1.51e+00	0	33	104	0	60	41240
2026-01-28 10:19:43.61	209.34	27.48	-45.4	-60.2	3.6	1.51e+00	0	33	104	0	60	41297
2026-01-28 10:19:46.64	210.32	28.08	-45.4	-60.1	3.6	1.51e+00	0	33	104	0	60	41168
2026-01-28 10:19:49.66	211.34	28.68	-45.4	-60.2	3.6	1.51e+00	0	33	104	0	60	41315
2026-01-28 10:19:52.69	212.41	29.29	-45.4	-60.2	3.6	1.51e+00	0	33	104	0	60	41294
2026-01-28 10:19:55.72	213.52	29.91	-45.4	-60.2	3.6	1.51e+00	0	33	104	0	60	41279
2026-01-28 10:19:58.75	214.68	30.53	-45.4	-60.1	3.6	1.51e+00	0	33	104	0	60	41098
2026-01-28 10:20:01.78	215.89	31.16	-45.5	-60.2	3.6	1.51e+00	0	33	104	0	60	41388
2026-01-28 10:20:04.80	217.15	31.78	-45.5	-60.2	3.6	1.51e+00	0	33	104	0	60	41508
2026-01-28 10:20:07.83	218.46	32.41	-45.4	-60.2	3.6	1.51e+00	0	33	104	0	60	41435
2026-01-28 10:20:10.86	219.83	33.04	-45.4	-60.1	3.6	1.51e+00	0	33	104	0	60	41189
2026-01-28 10:20:13.89	221.25	33.67	-45.4	-60.2	3.6	1.51e+00	0	33	104	0	60	41630
2026-01-28 10:20:16.92	222.73	34.29	-45.4	-60.2	3.6	1.51e+00	0	33	104	0	60	41603
2026-01-28 10:20:19.95	224.28	34.90	-45.4	-60.2	3.6	1.51e+00	0	33	104	0	60	41603
2026-01-28 10:20:22.97	225.88	35.51	-45.4	-60.2	3.6	1.51e+00	0	33	104	0	60	41482
2026-01-28 10:20:26.00	227.55	36.10	-45.5	-60.2	3.6	1.51e+00	0	33	104	0	60	41480
2026-01-28 10:20:29.03	229.28	36.68	-45.5	-60.2	3.6	1.51e+00	0	33	104	0	60	41551
2026-01-28 10:20:32.06	231.08	37.24	-45.5	-60.3	3.6	1.51e+00	0	33	104	0	60	41849
2026-01-28 10:20:35.09	232.94	37.79	-45.5	-60.2	3.6	1.51e+00	0	33	104	0	60	41336
2026-01-28 10:20:38.12	234.87	38.31	-45.5	-60.2	3.6	1.51e+00	0	33	104	0	60	41697
2026-01-28 10:20:41.14	236.85	38.80	-45.5	-60.2	3.6	1.51e+00	0	33	104	0	60	41569
2026-01-28 10:20:44.17	238.91	39.26	-45.5	-60.2	3.6	1.51e+00	0	33	104	0	60	41597
2026-01-28 10:20:47.20	241.02	39.69	-45.5	-60.2	3.6	1.51e+00	0	33	104	0	60	41592
2026-01-28 10:20:50.23	243.19	40.08	-45.6	-60.3	3.6	1.51e+00	0	33	104	0	60	41795
2026-01-28 10:20:53.26	245.41	40.43	-45.6	-60.3	3.6	1.51e+00	0	33	104	0	60	41995
2026-01-28 10:20:56.29	247.68	40.74	-45.6	-60.3	3.6	1.51e+00	0	33	104	0	60	41830
2026-01-28 10:20:59.32	249.99	41.00	-45.5	-60.2	3.6	1.51e+00	0	33	104	0	60	41556
2026-01-28 10:21:02.35	252.33	41.21	-45.6	-60.3	3.6	1.51e+00	0	33	104	0	60	41840
2026-01-28 10:21:05.37	254.70	41.37	-45.6	-60.3	3.6	1.51e+00	0	33	104	0	60	42213
2026-01-28 10:21:08.40	257.09	41.48	-45.6	-60.2	3.6	1.51e+00	0	33	104	0	60	41549
2026-01-28 10:21:11.43	259.50	41.54	-45.5	-60.2	3.6	1.51e+00	0	33	104	0	60	41688
2026-01-28 10:21:14.46	261.91	41.54	-45.5	-60.2	3.6	1.51e+00	0	33	104	0	60	41531
2026-01-28 10:21:17.48	264.31	41.49	-45.6	-60.3	3.6	1.51e+00	0	33	104	0	60	42008
2026-01-28 10:21:20.51	266.71	41.39	-45.6	-60.2	3.6	1.51e+00	0	33	104	0	60	41672
2026-01-28 10:21:23.54	269.08	41.23	-45.5	-60.2	3.6	1.51e+00	0	33	104	0	60	41393
2026-01-28 10:21:26.57	271.43	41.02	-45.6	-60.2	3.6	1.51e+00	0	33	104	0	60	41685
2026-01-28 10:21:29.60	273.74	40.76	-45.5	-60.3	3.6	1.51e+00	0	33	104	0	60	41791
2026-01-28 10:21:32.62	276.01	40.46	-45.5	-60.2	3.6	1.51e+00	0	33	104	0	60	41389
2026-01-28 10:21:35.65	278.23	40.12	-45.6	-60.2	3.6	1.51e+00	0	33	104	0	60	41733
2026-01-28 10:21:38.68	280.41	39.73	-45.5	-60.2	3.6	1.51e+00	0	33	104	0	60	41661
2026-01-28 10:21:41.71	282.53	39.30	-45.5	-60.2	3.6	1.51e+00	0	33	104	0	60	41734
2026-01-28 10:21:44.74	284.58	38.84	-45.6	-60.3	3.6	1.51e+00	0	33	104	0	60	41760
2026-01-28 10:21:47.77	286.58	38.35	-45.5	-60.3	3.6	1.51e+00	0	33	104	0	60	41824
2026-01-28 10:21:50.80	288.52	37.84	-45.5	-60.2	3.6	1.51e+00	0	33	104	0	60	41563
2026-01-28 10:21:53.83	290.38	37.30	-45.4	-60.2	3.6	1.51e+00	0	33	104	0	60	41384
2026-01-28 10:21:56.85	292.18	36.74	-45.4	-60.2	3.6	1.51e+00	0	33	104	0	60	41705
2026-01-28 10:21:59.87	293.92	36.16	-45.4	-60.2	3.6	1.51e+00	0	33	104	0	60	41494
2026-01-28 10:22:02.90	295.59	35.57	-45.3	-60.2	3.6	1.51e+00	0	33	104	0	60	41359
2026-01-28 10:22:05.93	297.20	34.96	-45.2	-60.2	3.6	1.51e+00	0	33	104	0	60	41650
2026-01-28 10:22:08.96	298.75	34.35	-45.2	-60.3	3.6	1.51e+00	0	33	104	0	60	41757
2026-01-28 10:22:11.98	300.24	33.73	-45.1	-60.2	3.6	1.51e+00	0	33	104	0	60	41413
2026-01-28 10:22:15.01	301.67	33.10	-45.2	-60.2	3.6	1.51e+00	0	33	104	0	60	41476
2026-01-28 10:22:18.04	303.04	32.48	-45.2	-60.2	3.6	1.51e+00	0	33	104	0	60	41620
2026-01-28 10:22:21.07	304.36	31.85	-45.4	-60.2	3.6	1.51e+00	0	33	104	0	60	41700
2026-01-28 10:22:24.10	305.62	31.22	-45.4	-60.2	3.6	1.51e+00	0	33	104	0	60	41551
2026-01-28 10:22:27.13	306.84	30.59	-45.4	-60.2	3.6	1.51e+00	0	33	104	0	60	41545
2026-01-28 10:22:30.16	308.00	29.97	-45.4	-60.2	3.6	1.51e+00	0	33	104	0	60	41710
2026-01-28 10:22:33.18	309.12	29.36	-45.4	-60.2	3.6	1.51e+00	0	33	104	0	60	41719
2026-01-28 10:22:36.21	310.19	28.74	-45.4	-60.1	3.5	1.51e+00	0	33	104	0	60	41051
2026-01-28 10:22:39.24	311.22	28.14	-45.3	-60.1	3.6	1.51e+00	0	33	104	0	60	41251
2026-01-28 10:22:42.27	312.21	27.54	-45.5	-60.2	3.6	1.51e+00	0	33	104	0	60	41499
2026-01-28 10:22:45.30	313.16	26.95	-45.5	-60.2	3.6	1.51e+00	0	33	104	0	60	41423
2026-01-28 10:22:48.32	314.07	26.37	-45.3	-60.2	3.6	1.51e+00	0	33	104	0	60	41463
2026-01-28 10:22:51.35	314.95	25.79	-45.3	-60.2	3.6	1.51e+00	0	33	104	0	60	41274
2026-01-28 10:22:54.38	315.79	25.22	-45.4	-60.2	3.6	1.51e+00	0	33	104	0	60	41346
2026-01-28 10:22:57.40	316.60	24.67	-45.2	-60.2	3.5	1.51e+00	0	33	104	0	60	41567
2026-01-28 10:23:00.43	317.38	24.12	-45.2	-60.2	3.6	1.51e+00	0	33	104	0	60	41465
2026-01-28 10:23:03.46	318.13	23.58	-45.3	-60.1	3.6	1.51e+00	0	33	104	0	60	41223
2026-01-28 10:23:06.48	318.86	23.05	-45.4	-60.2	3.5	1.51e+00	0	33	104	0	60	41293
2026-01-28 10:23:09.51	319.56	22.53	-45.4	-60.2	3.6	1.51e+00	0	33	104	0	60	41322
2026-01-28 10:23:12.54	320.23	22.02	-45.3	-60.1	3.6	1.51e+00	0	33	104	0	60	41040
2026-01-28 10:23:15.56	320.88	21.52	-45.3	-60.2	3.6	1.51e+00	0	33	104	0	60	41344
2026-01-28 10:23:18.60	321.51	21.02	-45.4	-60.1	3.6	1.51e+00	0	33	104	0	60	41109
2026-01-28 10:23:21.62	322.11	20.54	-45.4	-60.1	3.6	1.51e+00	0	33	104	0	60	40896
2026-01-28 10:23:24.65	322.69	20.06	-45.4	-60.1	3.6	1.51e+00	0	33	104	0	60	41162
2026-01-28 10:23:27.68	323.26	19.59	-45.4	-60.1	3.6	1.51e+00	0	33	104	0	60	41151
2026-01-28 10:23:30.71	323.81	19.13	-45.4	-60.1	3.6	1.51e+00	0	33	104	0	60	40926
2026-01-28 10:23:33.74	324.33	18.68	-45.3	-60.1	3.6	1.51e+00	0	33	104	0	60	40918
2026-01-28 10:23:36.77	324.85	18.24	-45.3	-60.1	3.6	1.51e+00	0	33	104	0	60	41047
2026-01-28 10:23:39.79	325.34	17.81	-45.2	-60.1	3.6	1.51e+00	0	33	104	0	60	40821
2026-01-28 10:23:42.82	325.82	17.38	-45.2	-60.0	3.6	1.51e+00	0	33	104	0	60	40685
2026-01-28 10:23:45.85	326.28	16.96	-45.3	-60.0	3.6	1.51e+00	0	33	104	0	60	40530
2026-01-28 10:23:48.88	326.73	16.55	-45.3	-60.0	3.6	1.51e+00	0	33	104	0	60	40588
2026-01-28 10:23:51.91	327.17	16.15	-45.3	-60.0	3.6	1.51e+00	0	33	104	0	60	40764
2026-01-28 10:23:54.93	327.59	15.75	-45.1	-60.0	3.6	1.51e+00	0	33	104	0	60	40361
2026-01-28 10:23:57.96	328.00	15.36	-45.2	-60.0	3.6	1.51e+00	0	33	104	0	60	40349
2026-01-28 10:24:00.99	328.40	14.98	-45.3	-59.9	3.6	1.51e+00	0	33	104	0	60	40324
2026-01-28 10:24:04.02	328.79	14.60	-45.1	-59.9	3.5	1.51e+00	0	33	104	0	60	40064
2026-01-28 10:24:07.05	329.17	14.23	-45.2	-59.9	3.6	1.51e+00	0	33	104	0	60	40030
2026-01-28 10:24:10.08	329.53	13.87	-45.2	-59.9	3.6	1.51e+00	0	33	104	0	60	40045
2026-01-28 10:24:13.11	329.89	13.51	-45.2	-59.9	3.6	1.51e+00	0	33	104	0	60	39872
2026-01-28 10:24:16.13	330.23	13.16	-45.1	-59.9	3.6	1.51e+00	0	33	104	0	60	39863
2026-01-28 10:24:19.16	330.57	12.82	-45.1	-59.8	3.6	1.51e+00	0	33	104	0	60	39793
2026-01-28 10:24:22.19	330.90	12.48	-45.1	-59.8	3.6	1.51e+00	0	33	104	0	60	39474
2026-01-28 10:24:25.22	331.22	12.14	-45.1	-59.8	3.6	1.51e+00	0	33	104	0	60	39746
2026-01-28 10:24:28.25	331.53	11.81	-45.0	-59.7	3.6	1.51e+00	0	33	104	0	60	39309
2026-01-28 10:24:31.27	331.83	11.49	-45.0	-59.7	3.6	1.51e+00	0	33	104	0	60	39313
2026-01-28 10:24:34.30	332.13	11.17	-45.0	-59.7	3.6	1.51e+00	0	33	104	0	60	39279
2026-01-28 10:24:37.33	332.42	10.86	-45.0	-59.7	3.6	1.51e+00	0	33	104	0	60	39331
2026-01-28 10:24:40.35	332.70	10.55	-44.9	-59.7	3.6	1.51e+00	0	33	104	0	60	39144
2026-01-28 10:24:43.38	332.98	10.24	-44.9	-59.7	3.6	1.51e+00	0	33	104	0	60	38998
2026-01-28 10:24:46.40	333.24	9.94	-44.9	-59.6	3.6	1.51e+00	0	33	104	0	60	38890
2026-01-28 10:24:49.43	333.51	9.65	-44.9	-59.7	3.6	1.51e+00	0	33	104	0	60	39069
2026-01-28 10:24:52.46	333.76	9.36	-44.9	-59.6	3.6	1.51e+00	0	33	104	0	60	38804
2026-01-28 10:24:55.49	334.01	9.07	-44.9	-59.6	3.6	1.51e+00	0	33	104	0	60	38705
2026-01-28 10:24:58.52	334.26	8.79	-44.9	-59.6	3.6	1.51e+00	0	33	104	0	60	38901
2026-01-28 10:25:01.55	334.50	8.51	-44.9	-59.6	3.6	1.51e+00	0	33	104	0	60	38602
2026-01-28 10:25:04.58	334.73	8.23	-44.8	-59.6	3.6	1.51e+00	0	33	104	0	60	38643
2026-01-28 10:25:07.61	334.96	7.96	-44.7	-59.5	3.6	1.51e+00	0	33	104	0	60	38301
2026-01-28 10:25:10.64	335.18	7.69	-44.8	-59.5	3.6	1.51e+00	0	33	104	0	60	38334
2026-01-28 10:25:13.67	335.40	7.42	-44.7	-59.4	3.6	1.51e+00	0	33	104	0	60	37895
2026-01-28 10:25:16.69	335.62	7.16	-44.7	-59.5	3.6	1.51e+00	0	33	104	0	60	38170
2026-01-28 10:25:19.72	335.83	6.90	-44.5	-59.2	3.6	1.51e+00	0	33	104	0	60	37079
2026-01-28 10:25:22.75	336.03	6.65	-44.6	-59.3	3.6	1.51e+00	0	33	104	0	60	37402
2026-01-28 10:25:25.78	336.23	6.40	-43.3	-58.0	3.6	1.51e+00	0	33	104	0	60	32296
2026-01-28 10:25:28.81	336.43	6.15	-42.1	-56.8	3.6	1.51e+00	0	33	104	0	60	28183
2026-01-28 10:25:31.83	336.62	5.90	-42.6	-57.3	3.6	1.51e+00	0	33	104	0	58	33426
2026-01-28 10:25:34.86	336.81	5.66	-43.6	-58.4	3.6	1.51e+00	0	33	104	0	60	33746
2026-01-28 10:25:37.88	337.00	5.42	-40.9	-55.6	3.6	1.51e+00	0	33	104	0	58	27549
2026-01-28 10:25:40.91	337.18	5.18	-43.5	-58.2	3.6	1.51e+00	0	33	104	0	60	33085
2026-01-28 10:25:43.94	337.36	4.94	-41.0	-55.7	3.6	1.51e+00	0	33	104	0	58	27860
2026-01-28 10:25:46.97	337.54	4.71	-40.8	-55.5	3.6	1.51e+00	0	33	104	0	58	26999
2026-01-28 10:25:49.99	337.71	4.48	-40.9	-55.7	3.6	1.51e+00	0	33	104	0	58	27731
2026-01-28 10:25:53.02	337.88	4.25	-40.9	-55.6	3.6	1.51e+00	0	33	104	0	58	27465
2026-01-28 10:25:56.05	338.05	4.03	-40.7	-55.5	3.6	1.51e+00	0	33	104	0	56	30285
2026-01-28 10:25:59.07	338.21	3.80	-40.9	-55.6	3.6	1.51e+00	0	33	104	0	56	30873
2026-01-28 10:26:02.10	338.37	3.58	-40.7	-55.5	3.6	1.51e+00	0	33	104	0	56	30295
2026-01-28 10:26:05.13	338.53	3.36	-41.0	-55.7	3.6	1.51e+00	0	33	104	0	56	31290
2026-01-28 10:26:08.15	338.68	3.15	-41.0	-55.7	3.6	1.51e+00	0	33	104	0	56	31047
2026-01-28 10:26:11.18	338.84	2.93	-40.9	-55.6	3.6	1.51e+00	0	33	104	0	56	30879
2026-01-28 10:26:14.21	338.99	2.72	-45.0	-59.9	3.6	1.51e+00	0	33	104	0	60	39915
2026-01-28 10:26:17.23	339.13	2.51	-45.4	-60.2	3.6	1.51e+00	0	33	104	0	60	41303
2026-01-28 10:26:20.26	339.28	2.30	-45.6	-60.4	3.6	1.51e+00	0	33	104	0	60	42565
2026-01-28 10:26:23.29	339.42	2.10	-45.7	-60.5	3.6	1.51e+00	0	33	104	0	60	43197
2026-01-28 10:26:26.32	339.56	1.89	-45.3	-60.5	3.6	1.51e+00	0	33	104	0	60	42820
2026-01-28 10:26:29.36	339.70	1.69	-45.6	-60.3	3.6	1.51e+00	0	33	104	0	60	41968
2026-01-28 10:26:32.39	339.84	1.49	-45.3	-60.2	3.6	1.51e+00	0	33	104	0	60	41545
2026-01-28 10:26:35.42	339.97	1.29	-45.6	-60.2	3.5	1.51e+00	0	33	104	0	60	41710
2026-01-28 10:26:38.44	340.10	1.09	-45.5	-60.2	3.6	1.51e+00	0	33	104	0	60	41639
2026-01-28 10:26:41.47	340.24	0.90	-45.5	-60.2	3.6	1.51e+00	0	33	104	0	60	41463
2026-01-28 10:26:44.50	340.36	0.70	-45.5	-60.2	3.5	1.51e+00	0	33	104	0	60	41368
2026-01-28 10:26:47.53	340.49	0.51	-45.4	-60.2	3.6	1.51e+00	0	33	104	0	60	41267
2026-01-28 10:26:50.56	340.61	0.32	-45.4	-60.2	3.6	1.51e+00	0	33	104	0	60	41471
2026-01-28 10:26:53.59	340.74	0.13	-45.4	-60.1	3.6	1.51e+00	0	33	104	0	60	41168
2026-01-28 10:26:56.62	340.86	-0.06	-45.4	-60.1	3.6	1.51e+00	0	33	104	0	60	41129

#Closed at: 2026-01-28 10:26:56
#Recorded file [0 MB]: D:/lorett/data/35029_260128_221532.dat