passes_logs/2026/01/28/R4.6S_Anadyr/R4.6S_Anadyr__20260128_171436_AQUA_rec.log

#Pass ID: 20260128_171436_AQUA
#Satellite: AQUA
#Configuration: AQUA
#almurnet v.1.7.20251203
#Start time: 2026-01-28 17:14:37

#Version: 2.2.20231116
#Station: R4.6S_Anadyr
#Location: 177.4865 lon 64.73178 lat
#TLE: 1 27424U 02022A   26027.88561574  .00001798  00000+0  36942-3 0  9997
#TLE: 2 27424  98.4102 354.5311 0001840  63.5604 322.5877 14.61868111262779

#Time	Az	El	Level	Level2	SNR	BER	BlckErr	Temp	State	Recorded	gain1	gain2
2026-01-28 17:14:37.62	20.97	0.08	-48.7	-60.5	3.5	8.45e-01	0	30	0	0	60	38121
2026-01-28 17:14:41.65	20.88	0.33	-48.9	-66.9	3.5	3.02e+01	0	31	104	0	60	84917
2026-01-28 17:14:45.69	20.78	0.58	-49.1	-67.0	3.5	3.02e+01	0	31	104	0	60	85670
2026-01-28 17:14:49.72	20.68	0.83	-49.0	-66.9	3.5	3.02e+01	0	31	104	0	60	85095
2026-01-28 17:14:53.76	20.58	1.08	-48.8	-66.6	3.5	3.02e+01	0	32	104	0	60	82736
2026-01-28 17:14:57.80	20.48	1.33	-48.4	-66.3	3.5	3.02e+01	0	31	104	0	60	79113
2026-01-28 17:15:01.84	20.38	1.59	-47.7	-65.5	3.5	3.02e+01	0	32	104	0	60	72782
2026-01-28 17:15:05.87	20.27	1.85	-47.7	-65.4	3.5	3.02e+01	0	32	104	0	60	71908
2026-01-28 17:15:09.90	20.16	2.11	-47.7	-65.4	3.5	3.02e+01	0	32	104	0	60	71714
2026-01-28 17:15:13.95	20.05	2.38	-47.7	-65.5	3.5	3.02e+01	0	32	104	0	60	72538
2026-01-28 17:15:17.99	19.93	2.65	-47.7	-65.5	3.5	3.02e+01	0	32	104	0	60	72385
2026-01-28 17:15:22.02	19.82	2.92	-47.5	-64.4	3.5	3.02e+01	0	32	104	0	60	64127
2026-01-28 17:15:26.06	19.70	3.19	-47.6	-63.0	3.8	3.02e+01	0	32	104	0	60	54624
2026-01-28 17:15:30.10	19.57	3.47	-43.2	-46.0	19.4	3.02e+01	59	32	0	5242880	60	7714
2026-01-28 17:15:34.14	19.45	3.75	-41.1	-43.2	22.0	3.02e+01	53	32	0	12582912	56	6974
2026-01-28 17:15:38.17	19.32	4.03	-47.5	-62.1	3.8	3.02e+01	0	32	104	17301504	60	49011
2026-01-28 17:15:42.21	19.19	4.31	-38.2	-39.7	25.3	3.02e+01	46	32	0	23592960	50	6636
2026-01-28 17:15:46.25	19.05	4.60	-37.0	-38.3	26.7	3.02e+01	60	32	0	30932992	48	6333
2026-01-28 17:15:50.29	18.91	4.89	-36.4	-37.7	27.3	3.02e+01	62	32	0	38797312	48	5916
2026-01-28 17:15:54.32	18.77	5.19	-36.4	-37.8	27.2	3.02e+01	58	32	0	46137344	48	5941
2026-01-28 17:15:58.36	18.63	5.49	-36.4	-37.8	27.3	3.02e+01	51	32	0	53477376	46	6668
2026-01-28 17:16:02.39	18.48	5.79	-36.3	-37.6	27.3	3.02e+01	62	32	0	61341696	46	6551
2026-01-28 17:16:06.43	18.33	6.10	-36.1	-37.4	27.6	3.02e+01	51	32	0	68681728	46	6378
2026-01-28 17:16:10.47	18.17	6.41	-36.1	-37.4	27.7	3.02e+01	57	32	0	76546048	46	6365
2026-01-28 17:16:14.50	18.01	6.72	-36.4	-37.7	27.6	3.02e+01	51	32	0	83886080	46	6614
2026-01-28 17:16:18.54	17.84	7.04	-35.9	-37.2	28.0	3.02e+01	60	32	0	91750400	46	6225
2026-01-28 17:16:22.58	17.67	7.36	-35.8	-37.0	28.1	3.02e+01	45	32	0	99090432	46	6130
2026-01-28 17:16:26.61	17.50	7.69	-35.9	-37.2	28.0	3.02e+01	58	32	0	106430464	46	6265
2026-01-28 17:16:30.64	17.32	8.02	-35.8	-37.0	28.2	3.02e+01	45	32	0	114294784	46	6121
2026-01-28 17:16:34.68	17.14	8.35	-35.7	-37.0	28.2	3.02e+01	57	32	0	121634816	46	6098
2026-01-28 17:16:38.72	16.95	8.69	-35.6	-36.9	28.3	3.02e+01	44	32	0	129499136	46	6022
2026-01-28 17:16:42.75	16.76	9.04	-35.4	-36.7	28.5	3.02e+01	61	32	0	136839168	46	5895
2026-01-28 17:16:46.79	16.56	9.39	-35.4	-36.7	28.5	3.02e+01	54	32	0	144703488	46	5872
2026-01-28 17:16:50.82	16.35	9.74	-35.3	-36.6	28.6	3.02e+01	63	32	0	152043520	46	5825
2026-01-28 17:16:54.85	16.14	10.11	-35.3	-36.5	28.7	3.02e+01	60	32	0	159383552	46	5780
2026-01-28 17:16:58.89	15.92	10.47	-35.2	-36.5	28.8	3.02e+01	56	32	0	167247872	46	5734
2026-01-28 17:17:02.93	15.70	10.84	-35.0	-36.3	29.0	3.02e+01	61	32	0	174587904	44	6291
2026-01-28 17:17:06.97	15.47	11.22	-34.9	-36.1	29.1	3.02e+01	61	32	0	182452224	44	6160
2026-01-28 17:17:11.00	15.23	11.61	-34.7	-35.9	29.3	3.02e+01	63	32	0	189792256	44	6031
2026-01-28 17:17:15.04	14.99	12.00	-34.9	-36.1	29.2	3.02e+01	59	32	0	197656576	44	6170
2026-01-28 17:17:19.08	14.73	12.40	-34.2	-35.3	29.7	3.02e+01	59	32	0	204996608	44	5659
2026-01-28 17:17:23.12	14.47	12.80	-34.1	-35.3	29.8	3.02e+01	59	32	0	212336640	44	5615
2026-01-28 17:17:27.15	14.20	13.21	-34.1	-35.3	29.9	3.02e+01	59	32	0	220200960	44	5626
2026-01-28 17:17:31.19	13.93	13.63	-34.2	-35.3	29.8	3.02e+01	59	32	0	227540992	44	5653
2026-01-28 17:17:35.22	13.64	14.05	-34.2	-35.4	29.8	3.02e+01	56	32	0	235405312	44	5666
2026-01-28 17:17:39.26	13.34	14.49	-34.2	-35.4	29.8	3.02e+01	57	32	0	242745344	44	5696
2026-01-28 17:17:43.30	13.04	14.93	-34.2	-35.3	29.8	3.02e+01	61	32	0	250609664	44	5649
2026-01-28 17:17:47.33	12.72	15.38	-34.0	-35.2	30.0	3.02e+01	61	32	0	257949696	44	5565
2026-01-28 17:17:51.36	12.40	15.83	-33.9	-35.1	30.1	3.02e+01	58	32	0	265289728	42	6146
2026-01-28 17:17:55.40	12.06	16.30	-34.2	-35.3	30.0	3.02e+01	60	32	0	273154048	42	6342
2026-01-28 17:17:59.43	11.71	16.77	-34.1	-35.2	30.0	3.02e+01	57	32	0	280494080	42	6266
2026-01-28 17:18:03.47	11.34	17.26	-34.1	-35.2	30.0	3.02e+01	47	32	0	288358400	42	6263
2026-01-28 17:18:07.50	10.97	17.75	-34.1	-35.3	30.0	3.02e+01	62	32	0	295698432	42	6283
2026-01-28 17:18:11.53	10.58	18.26	-34.1	-35.3	30.0	3.02e+01	43	32	0	303562752	42	6287
2026-01-28 17:18:15.57	10.17	18.77	-34.2	-35.4	29.9	3.02e+01	57	32	0	310902784	42	6360
2026-01-28 17:18:19.60	9.75	19.29	-34.2	-35.4	30.0	3.02e+01	59	32	0	318242816	42	6378
2026-01-28 17:18:23.63	9.32	19.83	-34.1	-35.2	30.1	3.02e+01	58	32	0	326107136	42	6265
2026-01-28 17:18:27.67	8.86	20.38	-34.2	-35.4	30.0	3.02e+01	46	32	0	333447168	42	6359
2026-01-28 17:18:31.71	8.39	20.93	-34.4	-35.6	29.7	3.02e+01	58	32	0	341311488	42	6551
2026-01-28 17:18:35.74	7.90	21.50	-34.4	-35.6	29.8	3.02e+01	53	32	0	348651520	42	6546
2026-01-28 17:18:39.78	7.39	22.08	-34.6	-35.8	29.7	3.02e+01	55	32	0	356515840	42	6711
2026-01-28 17:18:43.82	6.86	22.68	-34.5	-35.7	29.8	3.02e+01	55	32	0	363855872	42	6594
2026-01-28 17:18:47.86	6.30	23.28	-34.6	-35.8	29.6	3.02e+01	58	32	0	371720192	42	6700
2026-01-28 17:18:51.90	5.72	23.90	-34.8	-36.0	29.5	3.02e+01	46	32	0	379060224	44	6098
2026-01-28 17:18:55.93	5.12	24.54	-34.7	-35.9	29.5	3.02e+01	61	32	0	386400256	44	6027
2026-01-28 17:18:59.97	4.49	25.18	-34.4	-35.6	29.8	3.02e+01	48	32	0	394264576	44	5845
2026-01-28 17:19:04.00	3.83	25.84	-34.3	-35.5	29.9	3.02e+01	59	32	0	401604608	44	5746
2026-01-28 17:19:08.04	3.14	26.51	-34.7	-35.9	29.6	3.02e+01	44	32	0	409468928	44	5999
2026-01-28 17:19:12.08	2.42	27.20	-34.5	-35.7	29.8	3.02e+01	55	32	0	416808960	44	5913
2026-01-28 17:19:16.12	1.67	27.90	-34.3	-35.5	29.9	3.02e+01	44	32	0	424673280	42	6443
2026-01-28 17:19:20.15	0.88	28.61	-33.9	-35.1	30.3	3.02e+01	58	32	0	432013312	42	6136
2026-01-28 17:19:24.19	0.05	29.34	-33.9	-35.1	30.4	3.02e+01	60	32	0	439877632	42	6136
2026-01-28 17:19:28.23	359.18	30.08	-33.9	-35.1	30.3	3.02e+01	61	32	0	447217664	42	6168
2026-01-28 17:19:32.26	358.27	30.84	-33.9	-35.1	30.4	3.02e+01	57	32	0	454557696	42	6135
2026-01-28 17:19:36.30	357.31	31.61	-33.6	-34.8	30.5	3.02e+01	58	32	0	462422016	42	5944
2026-01-28 17:19:40.34	356.30	32.39	-34.0	-35.2	30.2	3.02e+01	60	32	0	469762048	42	6249
2026-01-28 17:19:44.37	355.24	33.18	-33.6	-34.7	30.6	3.02e+01	60	32	0	477626368	42	5901
2026-01-28 17:19:48.40	354.12	33.98	-34.4	-35.6	30.0	3.02e+01	58	32	0	484966400	42	6518
2026-01-28 17:19:52.44	352.95	34.79	-34.3	-35.4	30.1	3.02e+01	59	33	0	492830720	42	6420
2026-01-28 17:19:56.49	351.71	35.61	-35.2	-36.4	29.3	3.02e+01	63	32	0	500170752	44	6418
2026-01-28 17:20:00.53	350.40	36.44	-34.9	-36.1	29.5	3.02e+01	62	32	0	507510784	44	6174
2026-01-28 17:20:04.56	349.03	37.27	-35.9	-37.2	28.6	3.02e+01	61	32	0	515375104	46	6206
2026-01-28 17:20:08.60	347.58	38.11	-36.0	-37.2	28.7	3.02e+01	59	32	0	522715136	46	6257
2026-01-28 17:20:12.64	346.05	38.94	-35.6	-36.9	28.8	3.02e+01	61	32	0	530579456	46	6011
2026-01-28 17:20:16.67	344.44	39.78	-36.2	-37.5	28.4	3.02e+01	59	32	0	537919488	46	6470
2026-01-28 17:20:20.71	342.74	40.60	-36.0	-37.2	28.5	3.02e+01	59	32	0	545783808	46	6250
2026-01-28 17:20:24.74	340.96	41.42	-35.6	-36.8	29.0	3.02e+01	59	32	0	553123840	46	5948
2026-01-28 17:20:28.77	339.08	42.22	-35.8	-37.1	28.7	3.02e+01	59	32	0	560463872	46	6167
2026-01-28 17:20:32.81	337.10	43.01	-35.7	-36.9	28.8	3.02e+01	45	32	0	568328192	46	6024
2026-01-28 17:20:36.84	335.02	43.77	-36.0	-37.2	28.6	3.02e+01	57	32	0	575668224	46	6271
2026-01-28 17:20:40.88	332.84	44.50	-35.3	-36.5	29.2	3.02e+01	59	32	0	583532544	46	5749
2026-01-28 17:20:44.92	330.55	45.20	-35.5	-36.7	29.0	3.02e+01	63	32	0	590872576	46	5910
2026-01-28 17:20:48.96	328.16	45.86	-36.1	-37.4	28.4	3.02e+01	55	32	0	598736896	46	6392
2026-01-28 17:20:52.99	325.68	46.47	-35.6	-36.8	28.9	3.02e+01	59	32	0	606076928	46	5984
2026-01-28 17:20:57.03	323.10	47.03	-35.6	-36.8	28.9	3.02e+01	46	32	0	613416960	46	5972
2026-01-28 17:21:01.06	320.43	47.53	-35.8	-37.0	28.7	3.02e+01	57	32	0	621281280	46	6103
2026-01-28 17:21:05.10	317.67	47.97	-35.8	-37.1	28.7	3.02e+01	51	32	0	628621312	46	6142
2026-01-28 17:21:09.14	314.83	48.34	-35.7	-36.9	28.9	3.02e+01	58	32	0	636485632	46	6017
2026-01-28 17:21:13.18	311.93	48.63	-35.1	-36.3	29.3	3.02e+01	49	32	0	643825664	46	5659
2026-01-28 17:21:17.21	308.99	48.85	-35.4	-36.6	29.0	3.02e+01	57	32	0	651689984	46	5852
2026-01-28 17:21:21.25	306.01	48.99	-35.2	-36.4	29.2	3.02e+01	49	32	0	659030016	44	6379
2026-01-28 17:21:25.29	303.01	49.04	-35.1	-36.3	29.3	3.02e+01	59	33	0	666894336	44	6303
2026-01-28 17:21:29.33	300.01	49.01	-34.9	-36.1	29.5	3.02e+01	47	32	0	674234368	44	6151
2026-01-28 17:21:33.37	297.02	48.89	-34.9	-36.1	29.5	3.02e+01	60	32	0	681574400	44	6160
2026-01-28 17:21:37.41	294.06	48.70	-35.9	-37.2	28.6	3.02e+01	44	32	0	689438720	44	6967
2026-01-28 17:21:41.44	291.16	48.42	-34.5	-35.7	29.7	3.02e+01	59	32	0	696778752	44	5890
2026-01-28 17:21:45.48	288.30	48.07	-36.7	-38.0	27.7	3.02e+01	61	32	0	704643072	46	6881
2026-01-28 17:21:49.52	285.52	47.65	-35.1	-36.3	29.1	3.02e+01	63	33	0	711983104	44	6306
2026-01-28 17:21:53.56	282.82	47.16	-35.6	-36.8	26.7	3.02e+01	59	32	0	719847424	48	5284
2026-01-28 17:21:57.59	280.21	46.61	-34.5	-35.6	28.6	3.02e+01	60	32	0	727187456	44	5837
2026-01-28 17:22:01.63	277.69	46.01	-34.1	-35.2	28.4	3.02e+01	60	32	0	735051776	42	6268
2026-01-28 17:22:05.67	275.28	45.36	-34.4	-35.5	29.2	3.02e+01	57	32	0	742391808	44	5779
2026-01-28 17:22:09.71	272.96	44.67	-34.8	-36.1	27.2	3.02e+01	59	32	0	749731840	42	6914
2026-01-28 17:22:13.75	270.75	43.94	-34.7	-35.9	29.6	3.02e+01	58	32	0	757596160	42	6737
2026-01-28 17:22:17.78	268.64	43.19	-34.9	-36.1	29.2	3.02e+01	57	32	0	764936192	44	6159
2026-01-28 17:22:21.82	266.63	42.40	-35.1	-36.3	29.1	3.02e+01	57	32	0	772800512	44	6333
2026-01-28 17:22:25.86	264.72	41.60	-35.3	-36.5	29.2	3.02e+01	58	32	0	780140544	44	6455
2026-01-28 17:22:29.89	262.91	40.79	-35.5	-36.7	29.0	3.02e+01	60	32	0	788004864	46	5906
2026-01-28 17:22:33.93	261.19	39.96	-35.7	-36.9	28.8	3.02e+01	57	33	0	795344896	46	6025
2026-01-28 17:22:37.96	259.55	39.13	-36.2	-37.5	28.3	3.02e+01	58	32	0	802684928	46	6434
2026-01-28 17:22:41.99	258.00	38.29	-36.1	-37.3	28.5	3.02e+01	64	32	0	810549248	46	6324
2026-01-28 17:22:46.03	256.53	37.45	-37.2	-38.6	27.4	3.02e+01	58	32	0	817889280	48	6515
2026-01-28 17:22:50.07	255.13	36.61	-36.9	-38.1	27.7	3.02e+01	60	33	0	825753600	48	6196
2026-01-28 17:22:54.11	253.81	35.78	-37.4	-38.8	27.1	3.02e+01	53	32	0	833093632	48	6716
2026-01-28 17:22:58.15	252.55	34.96	-35.9	-37.1	28.6	3.02e+01	59	32	0	840957952	46	6185
2026-01-28 17:23:02.18	251.36	34.14	-35.4	-36.7	29.1	3.02e+01	49	32	0	848297984	46	5861
2026-01-28 17:23:06.22	250.23	33.33	-35.6	-36.8	28.9	3.02e+01	57	32	0	855638016	46	5959
2026-01-28 17:23:10.26	249.15	32.53	-35.3	-36.5	29.1	3.02e+01	61	32	0	863502336	44	6487
2026-01-28 17:23:14.30	248.12	31.75	-34.8	-36.0	29.6	3.02e+01	63	32	0	870842368	44	6079
2026-01-28 17:23:18.33	247.15	30.98	-34.4	-35.6	29.9	3.02e+01	49	32	0	878706688	44	5832
2026-01-28 17:23:22.36	246.23	30.22	-34.6	-35.7	29.7	3.02e+01	62	32	0	886046720	44	5925
2026-01-28 17:23:26.40	245.34	29.47	-34.5	-35.7	29.8	3.02e+01	48	32	0	893911040	44	5886
2026-01-28 17:23:30.44	244.50	28.73	-34.9	-36.2	29.4	3.02e+01	58	32	0	901251072	44	6209
2026-01-28 17:23:34.48	243.70	28.01	-34.7	-35.9	29.6	3.02e+01	60	32	0	908591104	44	6046
2026-01-28 17:23:38.51	242.93	27.31	-34.3	-35.5	30.0	3.02e+01	58	32	0	916455424	44	5736
2026-01-28 17:23:42.55	242.20	26.62	-35.0	-36.2	29.2	3.02e+01	44	32	0	923795456	44	6268
2026-01-28 17:23:46.59	241.50	25.94	-34.7	-35.8	29.7	3.02e+01	56	32	0	931659776	44	5991
2026-01-28 17:23:50.63	240.83	25.27	-35.0	-36.2	29.2	3.02e+01	50	32	0	938999808	44	6236
2026-01-28 17:23:54.66	240.20	24.62	-34.8	-36.0	29.5	3.02e+01	59	32	0	946864128	44	6098
2026-01-28 17:23:58.70	239.58	23.98	-35.1	-36.4	29.2	3.02e+01	46	32	0	954204160	44	6356
2026-01-28 17:24:02.74	239.00	23.36	-35.1	-36.3	29.2	3.02e+01	59	32	0	962068480	44	6308
2026-01-28 17:24:06.78	238.43	22.75	-34.9	-36.1	29.4	3.02e+01	53	32	0	969408512	44	6175
2026-01-28 17:24:10.81	237.89	22.15	-34.9	-36.1	29.5	3.02e+01	60	32	0	976748544	44	6170
2026-01-28 17:24:14.85	237.38	21.56	-35.0	-36.2	29.3	3.02e+01	58	32	0	984612864	44	6254
2026-01-28 17:24:18.89	236.88	20.99	-35.0	-36.2	29.2	3.02e+01	56	32	0	991952896	44	6263
2026-01-28 17:24:22.93	236.40	20.43	-34.7	-35.9	29.6	3.02e+01	60	32	0	999817216	44	6043
2026-01-28 17:24:26.96	235.94	19.88	-34.7	-35.9	29.6	3.02e+01	61	32	0	1007157248	44	6052
2026-01-28 17:24:31.00	235.50	19.34	-34.9	-36.1	29.4	3.02e+01	59	32	0	1015021568	44	6164
2026-01-28 17:24:35.04	235.07	18.81	-34.7	-35.9	29.5	3.02e+01	57	32	0	1022361600	44	6026
2026-01-28 17:24:39.08	234.66	18.29	-34.9	-36.1	29.3	3.02e+01	60	32	0	1030225920	44	6149
2026-01-28 17:24:43.11	234.26	17.78	-34.9	-36.1	29.4	3.02e+01	61	33	0	1037565952	44	6143
2026-01-28 17:24:47.15	233.88	17.28	-34.9	-36.1	29.3	3.02e+01	58	32	0	1044905984	44	6183
2026-01-28 17:24:51.19	233.51	16.80	-35.0	-36.2	29.2	3.02e+01	60	32	0	1052770304	44	6237
2026-01-28 17:24:55.22	233.16	16.32	-35.0	-36.3	29.1	3.02e+01	60	32	0	1060110336	44	6280
2026-01-28 17:24:59.26	232.81	15.85	-35.0	-36.2	29.2	3.02e+01	59	32	0	1067974656	44	6233
2026-01-28 17:25:03.30	232.48	15.39	-35.0	-36.2	29.2	3.02e+01	63	32	0	1075314688	44	6247
2026-01-28 17:25:07.34	232.16	14.93	-35.0	-36.3	29.0	3.02e+01	60	32	0	1083179008	44	6280
2026-01-28 17:25:11.38	231.85	14.49	-35.4	-36.6	28.7	3.02e+01	60	32	0	1090519040	44	6562
2026-01-28 17:25:15.41	231.55	14.05	-35.6	-36.9	28.5	3.02e+01	59	32	0	1098383360	44	6743
2026-01-28 17:25:19.45	231.26	13.63	-35.6	-36.9	28.4	3.02e+01	57	32	0	1105723392	44	6766
2026-01-28 17:25:23.49	230.97	13.20	-35.8	-37.1	28.2	3.02e+01	50	32	0	1113063424	44	6897
2026-01-28 17:25:27.53	230.70	12.79	-36.1	-37.4	28.0	3.02e+01	60	32	0	1120927744	46	6381
2026-01-28 17:25:31.56	230.44	12.39	-36.2	-37.5	27.9	3.02e+01	53	32	0	1128267776	46	6448
2026-01-28 17:25:35.60	230.18	11.99	-36.6	-38.0	27.5	3.02e+01	59	32	0	1136132096	46	6810
2026-01-28 17:25:39.64	229.93	11.59	-36.9	-38.3	27.2	3.02e+01	58	32	0	1143472128	46	7046
2026-01-28 17:25:43.68	229.69	11.20	-37.0	-38.4	27.0	3.02e+01	57	32	0	1151336448	48	6374
2026-01-28 17:25:47.71	229.46	10.83	-37.2	-38.6	26.9	3.02e+01	50	32	0	1158676480	48	6562
2026-01-28 17:25:51.75	229.23	10.45	-37.8	-39.2	26.2	3.02e+01	60	32	0	1166540800	48	7041
2026-01-28 17:25:55.79	229.01	10.08	-37.8	-39.2	26.2	3.02e+01	50	32	0	1173880832	48	7014
2026-01-28 17:25:59.82	228.79	9.72	-38.0	-39.4	26.0	3.02e+01	58	32	0	1181220864	50	6397
2026-01-28 17:26:03.86	228.58	9.36	-38.2	-39.8	25.6	3.02e+01	53	32	0	1189085184	50	6651
2026-01-28 17:26:07.89	228.38	9.01	-38.2	-39.9	25.4	3.02e+01	58	33	0	1196425216	50	6737
2026-01-28 17:26:11.93	228.18	8.66	-38.6	-40.2	25.0	3.02e+01	53	33	0	1204289536	50	7023
2026-01-28 17:26:15.97	227.99	8.32	-38.7	-40.5	24.8	3.02e+01	61	32	0	1211629568	50	7221
2026-01-28 17:26:20.00	227.80	7.98	-38.7	-40.6	24.7	3.02e+01	50	32	0	1219493888	50	7334
2026-01-28 17:26:24.04	227.62	7.65	-39.0	-40.8	24.4	3.02e+01	59	33	0	1226833920	52	6681
2026-01-28 17:26:28.08	227.44	7.32	-39.5	-41.2	23.9	3.02e+01	60	33	0	1234173952	52	7016
2026-01-28 17:26:32.12	227.27	7.00	-39.5	-41.3	23.8	3.02e+01	58	32	0	1242038272	52	7109
2026-01-28 17:26:36.16	227.10	6.68	-38.8	-41.5	23.5	3.02e+01	58	32	0	1249378304	52	7221
2026-01-28 17:26:40.20	226.93	6.36	-39.3	-42.2	22.8	3.02e+01	58	32	0	1257242624	52	7850
2026-01-28 17:26:44.24	226.77	6.05	-39.5	-42.0	23.0	3.02e+01	58	33	0	1264582656	52	7641
2026-01-28 17:26:48.27	226.62	5.74	-39.4	-42.3	22.6	3.02e+01	60	32	0	1272446976	52	7961
2026-01-28 17:26:52.30	226.46	5.44	-40.1	-42.6	22.1	3.02e+01	63	32	0	1279787008	54	7314
2026-01-28 17:26:56.34	226.31	5.14	-39.8	-42.8	21.9	3.02e+01	58	33	0	1287651328	54	7467
2026-01-28 17:27:00.38	226.17	4.84	-39.9	-43.1	21.5	3.02e+01	55	32	0	1294991360	54	7782
2026-01-28 17:27:04.42	226.03	4.55	-39.8	-43.1	21.4	3.02e+01	61	33	0	1302331392	54	7725
2026-01-28 17:27:08.45	225.89	4.26	-40.1	-44.0	20.3	3.02e+01	58	32	0	1310195712	54	8596
2026-01-28 17:27:12.49	225.75	3.97	-40.5	-44.8	19.6	3.02e+01	60	33	0	1317535744	54	9459
2026-01-28 17:27:16.53	225.62	3.69	-40.6	-44.2	20.0	3.02e+01	59	33	0	1325400064	54	8786
2026-01-28 17:27:20.56	225.49	3.41	-41.2	-44.6	19.6	3.02e+01	57	33	0	1332740096	56	8236
2026-01-28 17:27:24.60	225.36	3.13	-41.2	-43.9	19.9	3.02e+01	59	33	0	1340604416	58	6804
2026-01-28 17:27:28.64	225.24	2.86	-48.1	-66.1	3.5	3.02e+01	0	33	104	1343750144	60	77552
2026-01-28 17:27:32.68	225.12	2.59	-48.9	-66.7	3.5	3.02e+01	0	33	104	1343750144	60	83382
2026-01-28 17:27:36.72	225.00	2.32	-49.0	-66.8	3.5	3.02e+01	0	33	104	1343750144	60	84482
2026-01-28 17:27:40.76	224.88	2.05	-48.9	-66.8	3.5	3.02e+01	0	33	104	1343750144	60	84036
2026-01-28 17:27:44.80	224.77	1.79	-48.7	-66.7	3.5	3.02e+01	0	33	104	1343750144	60	83318
2026-01-28 17:27:48.84	224.66	1.53	-48.8	-66.6	3.5	3.02e+01	0	33	104	1343750144	60	82449
2026-01-28 17:27:52.87	224.55	1.27	-48.9	-66.7	3.5	3.02e+01	0	33	104	1343750144	60	82863
2026-01-28 17:27:56.92	224.44	1.01	-48.9	-66.7	3.5	3.02e+01	0	33	104	1343750144	60	83540
2026-01-28 17:28:00.96	224.34	0.76	-48.8	-66.7	3.5	3.02e+01	0	33	104	1343750144	60	82912
2026-01-28 17:28:05.00	224.24	0.51	-48.8	-66.7	3.5	3.02e+01	0	33	104	1343750144	60	83086
2026-01-28 17:28:09.04	224.14	0.26	-48.8	-66.7	3.5	3.02e+01	0	33	104	1343750144	60	82890
2026-01-28 17:28:13.08	224.04	0.01	-48.8	-66.6	3.5	3.02e+01	0	33	104	1343750144	60	82731

#Closed at: 2026-01-28 17:28:13
#Recorded file [1343 MB]: D:/lorett/data/35029_260129_051437.dat