passes_logs/2026/01/28/R4.6S_Anadyr/R4.6S_Anadyr__20260128_001459_SUOMI_NPP_rec.log

#Pass ID: 20260128_001459_SUOMI NPP
#Satellite: SUOMI NPP
#Configuration: NPP
#almurnet v.1.7.20251203
#Start time: 2026-01-28 00:15:00

#Version: 2.2.20231116
#Station: R4.6S_Anadyr
#Location: 177.4865 lon 64.73178 lat
#TLE: 1 37849U 11061A   26027.57994159  .00000179  00000+0  10588-3 0  9997
#TLE: 2 37849  98.7823 329.5210 0002100  42.0127 318.1210 14.19530762738496

#Time	Az	El	Level	Level2	SNR	BER	BlckErr	Temp	State	Recorded	gain1	gain2
2026-01-28 00:15:00.61	155.09	0.06	-48.8	-61.3	3.4	1.52e+00	0	30	0	0	60	40887
2026-01-28 00:15:04.64	155.10	0.31	-48.8	-64.0	3.6	1.51e+00	0	31	104	0	60	57571
2026-01-28 00:15:08.68	155.11	0.55	-48.9	-64.2	3.5	1.51e+00	0	31	104	0	60	58286
2026-01-28 00:15:12.72	155.12	0.80	-48.9	-64.1	3.6	1.51e+00	0	31	104	0	60	58173
2026-01-28 00:15:16.76	155.13	1.05	-48.6	-63.9	3.6	1.51e+00	0	31	104	0	60	56395
2026-01-28 00:15:20.80	155.14	1.30	-47.1	-62.3	3.6	1.51e+00	0	31	104	0	60	47216
2026-01-28 00:15:24.84	155.15	1.56	-46.3	-61.5	3.6	1.51e+00	0	31	104	0	60	43145
2026-01-28 00:15:28.88	155.16	1.82	-46.4	-61.6	3.6	1.51e+00	0	31	104	0	60	43464
2026-01-28 00:15:32.91	155.17	2.07	-46.3	-61.4	3.6	1.51e+00	0	31	104	0	60	42701
2026-01-28 00:15:36.95	155.18	2.34	-46.3	-61.6	3.6	1.51e+00	0	31	104	0	60	43370
2026-01-28 00:15:40.99	155.18	2.60	-46.3	-61.2	3.6	1.51e+00	0	31	104	0	60	41464
2026-01-28 00:15:45.03	155.19	2.87	-46.3	-60.8	3.6	1.51e+00	0	31	104	0	60	39597
2026-01-28 00:15:49.07	155.20	3.14	-46.2	-59.1	3.6	1.51e+00	0	31	104	0	60	32537
2026-01-28 00:15:53.12	155.21	3.41	-45.4	-52.0	7.5	1.41e-01	0	31	0	5242880	60	14353
2026-01-28 00:15:57.15	155.22	3.68	-45.2	-51.3	8.6	5.44e-02	0	31	0	12582912	60	13211
2026-01-28 00:16:01.19	155.23	3.96	-46.3	-60.9	3.6	5.11e-01	0	32	104	15728640	60	40225
2026-01-28 00:16:05.23	155.24	4.24	-44.8	-49.6	10.7	3.04e-03	0	31	0	16777216	60	10943
2026-01-28 00:16:09.27	155.24	4.52	-44.6	-49.3	11.0	2.38e-03	0	32	0	24117248	60	10538
2026-01-28 00:16:13.31	155.25	4.81	-45.0	-50.1	10.2	3.14e-03	0	31	0	31457280	60	11497
2026-01-28 00:16:17.35	155.26	5.10	-44.8	-49.3	11.3	1.16e-03	0	32	0	38797312	60	10551
2026-01-28 00:16:21.39	155.27	5.39	-44.6	-48.7	12.0	3.59e-04	0	31	0	46137344	60	9881
2026-01-28 00:16:25.43	155.28	5.69	-44.5	-48.5	12.3	1.15e-04	0	32	0	54525952	60	9568
2026-01-28 00:16:29.47	155.28	5.99	-44.6	-48.6	12.4	1.16e-04	0	32	0	61865984	60	9698
2026-01-28 00:16:33.51	155.29	6.29	-44.3	-47.8	13.3	4.19e-05	0	31	0	69206016	60	8896
2026-01-28 00:16:37.55	155.30	6.59	-44.2	-47.7	13.5	1.67e-05	0	32	0	76546048	60	8749
2026-01-28 00:16:41.58	155.31	6.90	-44.0	-47.2	13.8	3.80e-06	0	32	0	84934656	60	8319
2026-01-28 00:16:45.63	155.31	7.22	-43.9	-47.2	14.0	2.20e-06	0	32	0	92274688	60	8234
2026-01-28 00:16:49.67	155.32	7.54	-43.8	-46.9	14.3	7.00e-07	0	32	0	99614720	60	7964
2026-01-28 00:16:53.71	155.33	7.86	-44.0	-47.1	14.2	1.50e-06	0	32	0	106954752	60	8182
2026-01-28 00:16:57.75	155.34	8.18	-44.1	-47.3	14.0	1.50e-06	0	32	0	114294784	60	8392
2026-01-28 00:17:01.79	155.34	8.51	-43.8	-46.7	14.4	2.20e-06	0	32	0	122683392	60	7850
2026-01-28 00:17:05.82	155.35	8.85	-43.6	-46.5	14.7	0.00e+00	0	32	0	130023424	60	7644
2026-01-28 00:17:09.86	155.36	9.19	-43.7	-46.6	14.5	7.00e-07	0	32	0	137363456	60	7766
2026-01-28 00:17:13.90	155.36	9.53	-43.7	-46.6	14.5	0.00e+00	0	32	0	144703488	60	7763
2026-01-28 00:17:17.94	155.37	9.88	-43.6	-46.4	15.0	7.00e-07	0	32	0	153092096	60	7540
2026-01-28 00:17:21.97	155.37	10.23	-43.1	-45.6	15.9	0.00e+00	0	32	0	160432128	60	6878
2026-01-28 00:17:26.01	155.38	10.59	-42.8	-45.0	16.4	0.00e+00	0	32	0	167772160	58	7239
2026-01-28 00:17:30.05	155.39	10.95	-42.6	-44.8	16.7	0.00e+00	0	32	0	175112192	58	7027
2026-01-28 00:17:34.09	155.39	11.32	-42.5	-44.7	16.9	0.00e+00	0	32	0	182452224	58	6931
2026-01-28 00:17:38.12	155.40	11.70	-42.4	-44.5	17.0	0.00e+00	0	32	0	190840832	58	6832
2026-01-28 00:17:42.16	155.40	12.08	-42.4	-44.5	17.0	0.00e+00	0	32	0	198180864	58	6785
2026-01-28 00:17:46.20	155.41	12.47	-42.4	-44.5	17.1	0.00e+00	0	32	0	205520896	58	6774
2026-01-28 00:17:50.24	155.41	12.86	-42.3	-44.3	17.2	0.00e+00	0	32	0	212860928	58	6688
2026-01-28 00:17:54.28	155.42	13.26	-42.2	-44.3	17.1	0.00e+00	0	32	0	221249536	58	6630
2026-01-28 00:17:58.32	155.42	13.67	-42.1	-44.1	17.3	0.00e+00	0	32	0	228589568	58	6503
2026-01-28 00:18:02.35	155.43	14.08	-41.8	-43.6	18.0	0.00e+00	0	32	0	235929600	56	6912
2026-01-28 00:18:06.39	155.43	14.50	-41.6	-43.4	18.1	0.00e+00	0	32	0	243269632	56	6767
2026-01-28 00:18:10.43	155.43	14.93	-41.4	-43.1	18.6	0.00e+00	0	32	0	250609664	56	6500
2026-01-28 00:18:14.47	155.44	15.36	-41.3	-43.1	18.5	0.00e+00	0	32	0	258998272	56	6475
2026-01-28 00:18:18.51	155.44	15.81	-41.2	-42.9	18.8	0.00e+00	0	32	0	266338304	56	6331
2026-01-28 00:18:22.55	155.44	16.26	-41.3	-42.9	18.8	0.00e+00	0	32	0	273678336	56	6367
2026-01-28 00:18:26.59	155.44	16.72	-41.0	-42.6	19.0	0.00e+00	0	32	0	281018368	56	6146
2026-01-28 00:18:30.62	155.45	17.19	-41.1	-42.8	18.6	0.00e+00	0	32	0	289406976	56	6315
2026-01-28 00:18:34.66	155.45	17.66	-40.9	-42.5	18.8	0.00e+00	0	32	0	296747008	56	6087
2026-01-28 00:18:38.70	155.45	18.15	-40.0	-41.3	20.1	0.00e+00	0	32	0	304087040	54	5955
2026-01-28 00:18:42.73	155.45	18.65	-39.0	-40.1	21.7	0.00e+00	0	32	0	311427072	52	5811
2026-01-28 00:18:46.77	155.45	19.16	-38.4	-39.4	22.4	0.00e+00	0	32	0	318767104	50	6002
2026-01-28 00:18:50.81	155.45	19.67	-37.6	-38.5	23.1	0.00e+00	0	32	0	327155712	48	6101
2026-01-28 00:18:54.85	155.45	20.20	-37.5	-38.4	23.3	0.00e+00	0	32	0	334495744	48	6005
2026-01-28 00:18:58.89	155.45	20.75	-37.0	-37.9	23.6	0.00e+00	0	32	0	341835776	48	5651
2026-01-28 00:19:02.93	155.45	21.30	-37.0	-37.9	23.7	0.00e+00	0	32	0	349175808	48	5639
2026-01-28 00:19:06.96	155.45	21.86	-36.8	-37.7	23.9	0.00e+00	0	32	0	356515840	48	5514
2026-01-28 00:19:11.00	155.44	22.44	-36.9	-37.7	23.8	0.00e+00	0	32	0	364904448	48	5538
2026-01-28 00:19:15.05	155.44	23.03	-36.7	-37.6	24.0	0.00e+00	0	32	0	372244480	48	5460
2026-01-28 00:19:19.08	155.44	23.64	-36.6	-37.5	24.1	0.00e+00	0	32	0	379584512	46	6037
2026-01-28 00:19:23.12	155.43	24.26	-36.8	-37.6	23.9	0.00e+00	0	32	0	386924544	46	6148
2026-01-28 00:19:27.16	155.43	24.89	-37.1	-38.0	23.8	0.00e+00	0	32	0	395313152	46	6413
2026-01-28 00:19:31.19	155.42	25.54	-36.8	-37.6	23.9	0.00e+00	0	32	0	402653184	46	6131
2026-01-28 00:19:35.23	155.41	26.21	-37.0	-37.9	23.7	0.00e+00	0	32	0	409993216	46	6347
2026-01-28 00:19:39.27	155.41	26.89	-38.3	-39.3	22.7	0.00e+00	0	32	0	417333248	48	6659
2026-01-28 00:19:43.31	155.40	27.59	-38.7	-39.8	22.3	0.00e+00	0	32	0	424673280	50	6270
2026-01-28 00:19:47.35	155.39	28.32	-39.0	-40.1	22.3	0.00e+00	0	32	0	433061888	50	6476
2026-01-28 00:19:51.39	155.38	29.05	-39.1	-40.2	21.9	0.00e+00	0	32	0	440401920	50	6569
2026-01-28 00:19:55.43	155.36	29.81	-39.4	-40.5	21.8	0.00e+00	0	32	0	447741952	52	6088
2026-01-28 00:19:59.47	155.35	30.59	-39.2	-40.3	22.1	0.00e+00	0	32	0	455081984	52	5918
2026-01-28 00:20:03.50	155.34	31.39	-39.8	-40.9	21.4	0.00e+00	0	32	0	463470592	52	6375
2026-01-28 00:20:07.55	155.32	32.22	-40.5	-41.8	20.7	0.00e+00	0	32	0	470810624	54	6295
2026-01-28 00:20:11.59	155.30	33.07	-40.5	-41.7	20.7	0.00e+00	0	32	0	478150656	52	7003
2026-01-28 00:20:15.63	155.28	33.94	-41.0	-42.3	20.3	0.00e+00	0	32	0	485490688	54	6662
2026-01-28 00:20:19.67	155.26	34.84	-38.8	-39.9	22.4	0.00e+00	0	32	0	492830720	50	6323
2026-01-28 00:20:23.71	155.24	35.76	-37.1	-38.0	23.7	0.00e+00	0	32	0	501219328	48	5707
2026-01-28 00:20:27.74	155.21	36.71	-37.0	-37.9	23.9	0.00e+00	0	32	0	508559360	48	5681
2026-01-28 00:20:31.78	155.18	37.69	-36.6	-37.4	24.2	0.00e+00	0	32	0	515899392	46	6031
2026-01-28 00:20:35.81	155.15	38.69	-36.7	-37.6	24.1	0.00e+00	0	32	0	523239424	46	6158
2026-01-28 00:20:39.85	155.12	39.73	-36.3	-37.1	24.3	0.00e+00	0	32	0	531628032	46	5801
2026-01-28 00:20:43.89	155.08	40.80	-35.4	-36.2	24.8	0.00e+00	0	32	0	538968064	44	5846
2026-01-28 00:20:47.93	155.04	41.91	-35.9	-36.7	24.6	0.00e+00	0	32	0	546308096	44	6184
2026-01-28 00:20:51.96	155.00	43.04	-37.5	-38.4	23.4	0.00e+00	0	32	0	553648128	46	6731
2026-01-28 00:20:56.00	154.95	44.22	-37.0	-37.8	23.8	0.00e+00	0	32	0	560988160	46	6301
2026-01-28 00:21:00.04	154.90	45.43	-39.2	-40.3	21.9	0.00e+00	0	32	0	569376768	50	6632
2026-01-28 00:21:04.08	154.84	46.67	-40.8	-42.2	20.4	0.00e+00	0	32	0	576716800	54	6559
2026-01-28 00:21:08.12	154.77	47.96	-40.4	-41.7	20.8	0.00e+00	0	32	0	584056832	54	6229
2026-01-28 00:21:12.16	154.70	49.29	-37.8	-38.7	23.3	0.00e+00	0	32	0	591396864	50	5514
2026-01-28 00:21:16.20	154.62	50.65	-37.0	-37.9	23.9	0.00e+00	0	32	0	599785472	48	5679
2026-01-28 00:21:20.24	154.53	52.06	-35.7	-36.5	24.9	0.00e+00	0	32	0	607125504	44	6042
2026-01-28 00:21:24.27	154.43	53.50	-36.7	-37.5	24.2	0.00e+00	0	32	0	614465536	46	6092
2026-01-28 00:21:28.32	154.32	55.00	-35.8	-36.5	24.8	0.00e+00	0	32	0	621805568	44	6090
2026-01-28 00:21:32.36	154.19	56.53	-37.2	-38.1	23.5	0.00e+00	0	32	0	629145600	46	6521
2026-01-28 00:21:36.39	154.05	58.10	-37.4	-38.3	23.6	0.00e+00	0	32	0	637534208	48	5953
2026-01-28 00:21:40.43	153.89	59.72	-38.0	-39.0	23.0	0.00e+00	0	32	0	644874240	50	5719
2026-01-28 00:21:44.47	153.70	61.39	-37.8	-38.7	23.2	0.00e+00	0	32	0	652214272	48	6215
2026-01-28 00:21:48.52	153.48	63.10	-36.0	-36.8	24.5	0.00e+00	0	32	0	659554304	46	5628
2026-01-28 00:21:52.56	153.23	64.84	-36.6	-37.5	24.2	0.00e+00	0	32	0	667942912	44	6788
2026-01-28 00:21:56.60	152.94	66.63	-37.8	-38.7	23.3	0.00e+00	0	32	0	675282944	48	6227
2026-01-28 00:22:00.64	152.58	68.46	-39.8	-41.0	21.2	0.00e+00	0	32	0	682622976	52	6398
2026-01-28 00:22:04.68	152.15	70.32	-42.7	-44.5	18.2	0.00e+00	0	32	0	689963008	58	6826
2026-01-28 00:22:08.71	151.62	72.21	-40.1	-41.4	21.0	0.00e+00	0	32	0	697303040	54	5982
2026-01-28 00:22:12.75	150.95	74.14	-38.7	-39.7	22.4	0.00e+00	0	32	0	705691648	50	6201
2026-01-28 00:22:16.79	150.08	76.10	-39.3	-40.3	22.0	0.00e+00	0	32	0	713031680	52	5928
2026-01-28 00:22:20.83	148.90	78.08	-42.6	-44.3	18.4	0.00e+00	0	32	0	720371712	56	7483
2026-01-28 00:22:24.87	147.23	80.07	-40.3	-41.5	21.3	0.00e+00	0	32	0	727711744	54	6082
2026-01-28 00:22:28.90	144.71	82.07	-38.7	-39.7	22.4	0.00e+00	0	32	0	736100352	52	5563
2026-01-28 00:22:32.95	140.42	84.07	-35.6	-36.4	25.0	0.00e+00	0	32	0	743440384	44	6002
2026-01-28 00:22:36.98	131.89	86.00	-35.9	-36.6	24.9	0.00e+00	0	32	0	750780416	44	6140
2026-01-28 00:22:41.02	109.21	87.71	-40.7	-42.1	20.3	0.00e+00	0	32	0	758120448	52	7286
2026-01-28 00:22:45.06	49.42	88.21	-40.3	-41.7	20.7	0.00e+00	0	32	0	765460480	52	6966
2026-01-28 00:22:49.10	10.08	86.87	-38.7	-39.7	22.4	0.00e+00	0	32	0	773849088	52	5537
2026-01-28 00:22:53.13	357.03	85.01	-36.4	-37.2	24.0	0.00e+00	0	32	0	781189120	46	5853
2026-01-28 00:22:57.17	351.23	83.04	-36.5	-37.4	24.1	0.00e+00	0	32	0	788529152	44	6737
2026-01-28 00:23:01.21	348.03	81.04	-36.5	-37.3	24.1	0.00e+00	0	32	0	795869184	46	5941
2026-01-28 00:23:05.25	346.01	79.04	-40.3	-41.6	20.8	0.00e+00	0	32	0	804257792	52	6901
2026-01-28 00:23:09.29	344.63	77.05	-39.3	-40.4	22.0	0.00e+00	0	32	0	811597824	50	6705
2026-01-28 00:23:13.33	343.63	75.09	-38.0	-39.0	23.0	0.00e+00	0	32	0	818937856	50	5708
2026-01-28 00:23:17.36	342.87	73.15	-37.4	-38.3	23.2	0.00e+00	0	32	0	826277888	48	5913
2026-01-28 00:23:21.40	342.28	71.24	-41.9	-43.6	19.1	0.00e+00	0	32	0	833617920	56	6852
2026-01-28 00:23:25.44	341.81	69.36	-38.0	-38.9	23.2	0.00e+00	0	32	0	842006528	50	5640
2026-01-28 00:23:29.47	341.42	67.53	-38.0	-38.9	23.3	0.00e+00	0	32	0	849346560	48	6390
2026-01-28 00:23:33.52	341.10	65.72	-35.7	-36.5	24.7	0.00e+00	0	32	0	856686592	44	6056
2026-01-28 00:23:37.55	340.83	63.96	-38.3	-39.3	22.8	0.00e+00	0	32	0	864026624	48	6690
2026-01-28 00:23:41.58	340.59	62.25	-35.4	-36.1	25.2	0.00e+00	0	32	0	872415232	44	5819
2026-01-28 00:23:45.62	340.39	60.57	-40.1	-41.3	21.4	0.00e+00	0	32	0	879755264	54	5918
2026-01-28 00:23:49.66	340.22	58.93	-35.6	-36.4	24.9	0.00e+00	0	32	0	887095296	44	5979
2026-01-28 00:23:53.70	340.07	57.34	-37.0	-38.0	23.6	0.00e+00	0	32	0	894435328	46	6393
2026-01-28 00:23:57.74	339.94	55.79	-35.9	-36.7	24.6	0.00e+00	0	32	0	901775360	46	5513
2026-01-28 00:24:01.78	339.82	54.28	-39.9	-41.1	21.4	0.00e+00	0	32	0	910163968	52	6525
2026-01-28 00:24:05.81	339.71	52.82	-38.5	-39.5	22.3	0.00e+00	0	32	0	917504000	48	6824
2026-01-28 00:24:09.85	339.62	51.40	-38.9	-39.9	22.4	0.00e+00	0	32	0	924844032	52	5686
2026-01-28 00:24:13.89	339.54	50.02	-36.8	-37.7	24.0	0.00e+00	0	32	0	932184064	46	6189
2026-01-28 00:24:17.93	339.46	48.68	-41.7	-43.5	19.3	0.00e+00	0	32	0	940572672	54	7624
2026-01-28 00:24:21.97	339.39	47.38	-36.7	-37.5	24.0	0.00e+00	0	32	0	947912704	46	6065
2026-01-28 00:24:26.01	339.33	46.11	-39.1	-40.1	21.9	0.00e+00	0	32	0	955252736	50	6492
2026-01-28 00:24:30.05	339.28	44.89	-39.4	-40.5	21.8	0.00e+00	0	32	0	962592768	52	6096
2026-01-28 00:24:34.09	339.23	43.70	-37.8	-38.7	23.3	0.00e+00	0	32	0	969932800	50	5547
2026-01-28 00:24:38.13	339.18	42.55	-36.7	-37.6	24.2	0.00e+00	0	32	0	978321408	46	6116
2026-01-28 00:24:42.17	339.14	41.43	-39.1	-40.3	22.1	0.00e+00	0	32	0	985661440	50	6640
2026-01-28 00:24:46.20	339.10	40.35	-37.1	-37.9	23.8	0.00e+00	0	32	0	993001472	46	6373
2026-01-28 00:24:50.23	339.07	39.30	-40.0	-41.3	20.8	0.00e+00	0	32	0	1000341504	50	7506
2026-01-28 00:24:54.27	339.04	38.28	-42.8	-45.0	17.7	0.00e+00	0	32	0	1008730112	58	7194
2026-01-28 00:24:58.31	339.01	37.29	-42.4	-44.1	18.9	0.00e+00	0	32	0	1016070144	58	6506
2026-01-28 00:25:02.35	338.99	36.33	-39.0	-40.0	21.8	0.00e+00	0	32	0	1023410176	52	5742
2026-01-28 00:25:06.38	338.96	35.40	-41.8	-43.3	19.1	0.00e+00	0	32	0	1030750208	54	7487
2026-01-28 00:25:10.42	338.94	34.49	-46.2	-51.0	11.9	4.34e-05	0	32	0	1038090240	60	12789
2026-01-28 00:25:14.46	338.92	33.61	-42.9	-45.0	17.9	0.00e+00	0	32	0	1046478848	60	6445
2026-01-28 00:25:18.50	338.91	32.75	-40.6	-42.0	20.5	0.00e+00	0	32	0	1053818880	54	6451
2026-01-28 00:25:22.54	338.89	31.92	-39.5	-40.7	21.7	0.00e+00	0	32	0	1061158912	52	6189
2026-01-28 00:25:26.58	338.88	31.11	-39.2	-40.2	21.9	0.00e+00	0	32	0	1068498944	52	5892
2026-01-28 00:25:30.62	338.86	30.32	-39.5	-40.7	21.6	0.00e+00	0	32	0	1076887552	52	6188
2026-01-28 00:25:34.66	338.85	29.56	-40.5	-41.9	20.7	0.00e+00	0	32	0	1084227584	52	7098
2026-01-28 00:25:38.70	338.84	28.81	-41.1	-42.6	19.9	0.00e+00	0	32	0	1091567616	54	6918
2026-01-28 00:25:42.73	338.83	28.08	-38.9	-40.0	22.1	0.00e+00	0	32	0	1098907648	52	5752
2026-01-28 00:25:46.77	338.83	27.37	-37.0	-37.8	23.8	0.00e+00	0	32	0	1106247680	48	5628
2026-01-28 00:25:50.81	338.82	26.68	-37.6	-38.5	23.5	0.00e+00	0	32	0	1114636288	48	6047
2026-01-28 00:25:54.85	338.81	26.01	-37.4	-38.3	23.5	0.00e+00	0	32	0	1121976320	48	5921
2026-01-28 00:25:58.89	338.81	25.35	-37.0	-37.9	23.8	0.00e+00	0	32	0	1129316352	48	5651
2026-01-28 00:26:02.93	338.81	24.71	-36.6	-37.4	24.2	0.00e+00	0	32	0	1136656384	46	6019
2026-01-28 00:26:06.97	338.80	24.09	-36.3	-37.1	24.3	0.00e+00	0	32	0	1145044992	46	5823
2026-01-28 00:26:11.01	338.80	23.48	-36.1	-36.9	24.3	0.00e+00	0	32	0	1152385024	46	5664
2026-01-28 00:26:15.05	338.80	22.88	-36.3	-37.1	24.4	0.00e+00	0	32	0	1159725056	46	5799
2026-01-28 00:26:19.09	338.80	22.30	-35.7	-36.5	24.7	0.00e+00	0	32	0	1167065088	44	6065
2026-01-28 00:26:23.12	338.80	21.73	-35.6	-36.4	24.8	0.00e+00	0	32	0	1174405120	44	5979
2026-01-28 00:26:27.17	338.80	21.17	-36.1	-36.9	24.2	0.00e+00	0	32	0	1182793728	44	6359
2026-01-28 00:26:31.20	338.80	20.62	-37.1	-38.0	23.7	0.00e+00	0	32	0	1190133760	46	6408
2026-01-28 00:26:35.24	338.80	20.09	-38.2	-39.3	22.7	0.00e+00	0	32	0	1197473792	48	6625
2026-01-28 00:26:39.27	338.80	19.57	-38.3	-39.4	22.6	0.00e+00	0	32	0	1204813824	48	6705
2026-01-28 00:26:43.31	338.80	19.06	-38.1	-39.2	22.4	0.00e+00	0	32	0	1212153856	48	6571
2026-01-28 00:26:47.35	338.81	18.56	-38.0	-39.0	22.8	0.00e+00	0	32	0	1220542464	48	6452
2026-01-28 00:26:51.39	338.81	18.06	-38.0	-39.0	22.9	0.00e+00	0	32	0	1227882496	48	6405
2026-01-28 00:26:55.43	338.81	17.58	-38.0	-39.0	22.7	0.00e+00	0	32	0	1235222528	48	6440
2026-01-28 00:26:59.47	338.82	17.11	-38.1	-39.1	22.4	0.00e+00	0	32	0	1242562560	48	6465
2026-01-28 00:27:03.50	338.82	16.65	-38.4	-39.4	22.4	0.00e+00	0	32	0	1250951168	48	6731
2026-01-28 00:27:07.54	338.83	16.19	-38.6	-39.6	22.3	0.00e+00	0	32	0	1258291200	50	6162
2026-01-28 00:27:11.58	338.83	15.75	-39.1	-40.2	21.9	0.00e+00	0	32	0	1265631232	50	6564
2026-01-28 00:27:15.62	338.84	15.31	-38.8	-39.9	22.1	0.00e+00	0	32	0	1272971264	50	6343
2026-01-28 00:27:19.66	338.85	14.88	-39.1	-40.2	21.7	0.00e+00	0	32	0	1280311296	50	6569
2026-01-28 00:27:23.70	338.85	14.45	-39.0	-40.1	21.8	0.00e+00	0	32	0	1288699904	50	6510
2026-01-28 00:27:27.74	338.86	14.04	-39.3	-40.4	21.6	0.00e+00	0	32	0	1296039936	50	6751
2026-01-28 00:27:31.77	338.87	13.63	-39.1	-40.3	21.7	0.00e+00	0	32	0	1303379968	50	6654
2026-01-28 00:27:35.81	338.87	13.23	-39.2	-40.4	21.6	0.00e+00	0	32	0	1310720000	50	6762
2026-01-28 00:27:39.85	338.88	12.83	-38.9	-40.1	21.8	0.00e+00	0	32	0	1319108608	50	6505
2026-01-28 00:27:43.88	338.89	12.44	-38.8	-39.9	21.9	0.00e+00	0	32	0	1326448640	50	6381
2026-01-28 00:27:47.92	338.90	12.06	-38.9	-40.1	22.0	0.00e+00	0	32	0	1333788672	50	6466
2026-01-28 00:27:51.97	338.90	11.68	-38.7	-39.8	21.9	0.00e+00	0	32	0	1341128704	50	6315
2026-01-28 00:27:56.00	338.91	11.31	-38.6	-39.8	22.0	0.00e+00	0	32	0	1348468736	50	6255
2026-01-28 00:28:00.05	338.92	10.94	-38.7	-39.8	22.0	0.00e+00	0	32	0	1356857344	50	6301
2026-01-28 00:28:04.09	338.93	10.58	-38.5	-39.6	22.2	0.00e+00	0	32	0	1364197376	50	6147
2026-01-28 00:28:08.13	338.94	10.23	-38.6	-39.8	22.0	0.00e+00	0	32	0	1371537408	50	6259
2026-01-28 00:28:12.17	338.95	9.88	-38.4	-39.5	22.1	0.00e+00	0	32	0	1378877440	50	6065
2026-01-28 00:28:16.21	338.96	9.53	-38.4	-39.5	22.1	0.00e+00	0	32	0	1387266048	50	6045
2026-01-28 00:28:20.25	338.97	9.19	-38.7	-39.8	21.8	0.00e+00	0	32	0	1394606080	50	6311
2026-01-28 00:28:24.29	338.98	8.86	-38.6	-39.7	22.0	0.00e+00	0	32	0	1401946112	50	6208
2026-01-28 00:28:28.32	338.99	8.53	-38.8	-39.9	21.8	0.00e+00	0	32	0	1409286144	50	6361
2026-01-28 00:28:32.36	339.00	8.20	-38.5	-39.6	22.0	0.00e+00	0	32	0	1416626176	50	6108
2026-01-28 00:28:36.40	339.01	7.88	-38.8	-40.0	21.7	0.00e+00	0	32	0	1425014784	50	6403
2026-01-28 00:28:40.44	339.02	7.56	-38.8	-39.9	21.7	0.00e+00	0	32	0	1432354816	50	6374
2026-01-28 00:28:44.48	339.03	7.24	-39.0	-40.2	21.5	0.00e+00	0	32	0	1439694848	50	6553
2026-01-28 00:28:48.52	339.04	6.93	-38.9	-40.1	21.5	0.00e+00	0	32	0	1447034880	50	6489
2026-01-28 00:28:52.55	339.05	6.62	-39.1	-40.3	21.3	0.00e+00	0	32	0	1455423488	50	6628
2026-01-28 00:28:56.59	339.06	6.32	-38.9	-40.1	21.2	0.00e+00	0	32	0	1462763520	50	6482
2026-01-28 00:29:00.63	339.07	6.02	-39.3	-40.5	20.9	0.00e+00	0	32	0	1470103552	50	6845
2026-01-28 00:29:04.67	339.09	5.72	-39.4	-40.7	20.6	0.00e+00	0	32	0	1477443584	50	6968
2026-01-28 00:29:08.71	339.10	5.43	-40.3	-41.8	19.2	0.00e+00	0	32	0	1484783616	52	7048
2026-01-28 00:29:12.75	339.11	5.14	-41.1	-43.1	17.4	0.00e+00	0	32	0	1493172224	54	7310
2026-01-28 00:29:16.78	339.12	4.85	-42.5	-45.5	14.5	0.00e+00	0	32	0	1500512256	56	8563
2026-01-28 00:29:20.82	339.13	4.57	-43.3	-48.1	10.8	2.60e-03	0	32	0	1507852288	58	10339
2026-01-28 00:29:24.86	339.14	4.29	-43.9	-51.4	6.5	1.18e-01	0	32	0	1515192320	60	13469
2026-01-28 00:29:28.90	339.16	4.01	-43.9	-53.7	4.1	9.59e-01	2	32	0	1523580928	60	17581
2026-01-28 00:29:32.94	339.17	3.73	-43.8	-57.7	3.6	1.51e+00	0	32	104	1523580928	60	27782
2026-01-28 00:29:36.98	339.18	3.46	-43.9	-58.9	3.6	1.51e+00	0	32	104	1523580928	60	31668
2026-01-28 00:29:41.02	339.19	3.19	-43.8	-58.9	3.6	1.51e+00	0	32	104	1523580928	60	31776
2026-01-28 00:29:45.06	339.21	2.92	-47.8	-63.2	3.6	1.51e+00	0	32	104	1523580928	60	51984
2026-01-28 00:29:49.09	339.22	2.66	-48.8	-63.9	3.6	1.51e+00	0	32	104	1523580928	60	56918
2026-01-28 00:29:53.14	339.23	2.40	-48.9	-64.1	3.6	1.51e+00	0	32	104	1523580928	60	58124
2026-01-28 00:29:57.17	339.24	2.14	-48.9	-64.2	3.6	1.51e+00	0	32	104	1523580928	60	58313
2026-01-28 00:30:01.21	339.26	1.88	-48.8	-64.1	3.5	1.51e+00	0	32	104	1523580928	60	57619
2026-01-28 00:30:05.25	339.27	1.63	-48.9	-64.0	3.5	1.51e+00	0	32	104	1523580928	60	57371
2026-01-28 00:30:09.29	339.28	1.37	-48.8	-64.1	3.6	1.51e+00	0	32	104	1523580928	60	57797
2026-01-28 00:30:13.33	339.30	1.12	-48.8	-64.1	3.6	1.51e+00	0	32	104	1523580928	60	57697
2026-01-28 00:30:17.36	339.31	0.87	-48.8	-64.0	3.6	1.51e+00	0	32	104	1523580928	60	57585
2026-01-28 00:30:21.40	339.32	0.63	-48.8	-64.0	3.6	1.51e+00	0	32	104	1523580928	60	57569
2026-01-28 00:30:25.44	339.34	0.38	-48.8	-64.0	3.6	1.51e+00	0	32	104	1523580928	60	57512
2026-01-28 00:30:29.48	339.35	0.14	-48.8	-64.0	3.6	1.51e+00	0	32	104	1523580928	60	57284
2026-01-28 00:30:33.52	339.36	-0.10	-48.8	-64.0	3.6	1.51e+00	0	32	104	1523580928	60	57155

#Closed at: 2026-01-28 00:30:34
#Recorded file [1523 MB]: D:/lorett/data/35029_260128_121500.dat