passes_logs/2026/01/28/R4.6S_Anadyr/R4.6S_Anadyr__20260128_195803_FENGYUN_3D_rec.log

#Pass ID: 20260128_195803_FENGYUN 3D
#Satellite: FENGYUN 3D
#Configuration: FENGYUN 3D
#almurnet v.1.7.20251203
#Start time: 2026-01-28 19:58:05

#Version: 2.2.20231116
#Station: R4.6S_Anadyr
#Location: 177.4865 lon 64.73178 lat
#TLE: 1 43010U 17072A   26027.90082829  .00000305  00000+0  16579-3 0  9998
#TLE: 2 43010  98.9960 359.9183 0002511  88.1058 272.0405 14.19701796425082

#Time	Az	El	Level	Level2	SNR	BER	BlckErr	Temp	State	Recorded	gain1	gain2
2026-01-28 19:58:05.60	35.85	0.10	-48.9	-63.8	3.5	1.51e+00	0	29	0	0	60	55990
2026-01-28 19:58:09.63	35.59	0.31	-48.9	-61.0	3.6	8.45e-01	0	30	104	0	60	40591
2026-01-28 19:58:13.67	35.32	0.52	-48.9	-61.0	3.6	8.44e-01	0	30	104	0	60	40649
2026-01-28 19:58:17.71	35.06	0.73	-48.8	-60.9	3.6	8.46e-01	0	31	104	0	60	40011
2026-01-28 19:58:21.75	34.78	0.95	-48.5	-60.6	3.6	8.46e-01	0	31	104	0	60	38719
2026-01-28 19:58:25.79	34.51	1.16	-48.3	-60.5	3.6	8.45e-01	0	31	104	0	60	38111
2026-01-28 19:58:29.82	34.23	1.37	-47.4	-59.5	3.6	8.44e-01	0	31	104	0	60	33970
2026-01-28 19:58:33.86	33.94	1.59	-47.0	-58.9	3.6	8.44e-01	0	31	104	0	60	31857
2026-01-28 19:58:37.90	33.65	1.81	-47.0	-59.1	3.6	8.44e-01	0	31	104	0	60	32405
2026-01-28 19:58:41.94	33.36	2.02	-47.0	-58.9	3.6	8.46e-01	0	31	104	0	60	31910
2026-01-28 19:58:45.98	33.06	2.24	-47.0	-58.9	3.6	8.45e-01	0	31	104	0	60	31977
2026-01-28 19:58:50.02	32.76	2.46	-46.9	-58.8	3.6	8.46e-01	0	31	104	0	60	31406
2026-01-28 19:58:54.06	32.45	2.68	-46.9	-58.5	3.6	8.45e-01	0	31	104	0	60	30336
2026-01-28 19:58:58.10	32.14	2.90	-46.9	-58.2	3.6	8.46e-01	0	31	104	0	60	29235
2026-01-28 19:59:02.13	31.82	3.12	-41.8	-43.6	14.7	0.00e+00	0	31	0	13631488	58	6154
2026-01-28 19:59:06.17	31.49	3.35	-46.8	-58.3	3.6	8.45e-01	0	31	104	33554432	60	29887
2026-01-28 19:59:10.20	31.17	3.57	-38.5	-39.6	18.5	0.00e+00	0	31	0	47185920	50	6128
2026-01-28 19:59:14.25	30.83	3.80	-37.9	-38.9	19.2	0.00e+00	0	31	0	69206016	50	5691
2026-01-28 19:59:18.28	30.50	4.02	-36.1	-37.0	21.1	0.00e+00	0	31	0	92274688	44	6426
2026-01-28 19:59:22.33	30.15	4.25	-36.2	-37.1	21.2	0.00e+00	0	31	0	115343360	44	6510
2026-01-28 19:59:26.37	29.80	4.48	-36.3	-37.1	21.2	0.00e+00	0	31	0	137363456	44	6521
2026-01-28 19:59:30.41	29.44	4.71	-36.3	-37.2	21.3	0.00e+00	0	31	0	160432128	46	5840
2026-01-28 19:59:34.45	29.08	4.94	-37.0	-37.9	20.5	0.00e+00	0	31	0	183500800	46	6385
2026-01-28 19:59:38.49	28.71	5.17	-36.2	-37.0	21.5	0.00e+00	0	31	0	205520896	44	6450
2026-01-28 19:59:42.53	28.34	5.40	-35.8	-36.7	21.6	0.00e+00	0	31	0	228589568	44	6182
2026-01-28 19:59:46.57	27.96	5.63	-35.3	-36.1	22.2	0.00e+00	0	31	0	251658240	44	5818
2026-01-28 19:59:50.61	27.57	5.86	-35.6	-36.5	22.1	0.00e+00	0	31	0	273678336	44	6034
2026-01-28 19:59:54.65	27.18	6.10	-35.7	-36.5	22.0	0.00e+00	0	31	0	296747008	44	6063
2026-01-28 19:59:58.68	26.78	6.33	-35.5	-36.3	22.2	0.00e+00	0	31	0	319815680	44	5942
2026-01-28 20:00:02.72	26.38	6.57	-35.5	-36.2	22.4	0.00e+00	0	31	0	341835776	44	5890
2026-01-28 20:00:06.76	25.96	6.80	-35.2	-36.0	22.6	0.00e+00	0	31	0	364904448	44	5707
2026-01-28 20:00:10.80	25.55	7.04	-35.0	-35.7	22.8	0.00e+00	0	31	0	387973120	42	6232
2026-01-28 20:00:14.84	25.12	7.28	-35.2	-36.0	22.7	0.00e+00	0	31	0	409993216	42	6432
2026-01-28 20:00:18.88	24.68	7.51	-35.4	-36.2	22.6	0.00e+00	0	31	0	433061888	42	6558
2026-01-28 20:00:22.92	24.24	7.75	-35.4	-36.2	22.6	0.00e+00	0	31	0	456130560	42	6565
2026-01-28 20:00:26.95	23.79	7.99	-35.1	-35.8	22.9	0.00e+00	0	31	0	478150656	42	6316
2026-01-28 20:00:30.99	23.34	8.23	-34.5	-35.3	23.5	0.00e+00	0	31	0	501219328	42	5897
2026-01-28 20:00:35.03	22.87	8.47	-34.0	-34.7	24.0	0.00e+00	0	31	0	524288000	42	5532
2026-01-28 20:00:39.08	22.40	8.71	-34.2	-34.9	24.0	0.00e+00	0	31	0	546308096	42	5637
2026-01-28 20:00:43.11	21.92	8.95	-34.2	-34.9	24.0	0.00e+00	0	31	0	569376768	42	5655
2026-01-28 20:00:47.15	21.43	9.20	-34.4	-35.1	23.8	0.00e+00	0	31	0	592445440	42	5789
2026-01-28 20:00:51.19	20.93	9.44	-34.1	-34.8	24.1	0.00e+00	0	31	0	614465536	42	5608
2026-01-28 20:00:55.23	20.43	9.68	-34.2	-34.9	24.0	0.00e+00	0	31	0	637534208	42	5651
2026-01-28 20:00:59.27	19.91	9.92	-34.0	-34.7	24.2	0.00e+00	0	31	0	660602880	42	5536
2026-01-28 20:01:03.30	19.39	10.16	-33.9	-34.6	24.3	0.00e+00	0	31	0	682622976	40	6143
2026-01-28 20:01:07.34	18.86	10.41	-34.0	-34.7	24.2	0.00e+00	0	31	0	705691648	40	6211
2026-01-28 20:01:11.38	18.32	10.65	-33.7	-34.4	24.5	0.00e+00	0	31	0	728760320	40	6026
2026-01-28 20:01:15.42	17.76	10.89	-33.5	-34.2	24.8	0.00e+00	0	32	0	750780416	40	5839
2026-01-28 20:01:19.46	17.20	11.13	-33.5	-34.2	24.7	0.00e+00	0	31	0	773849088	40	5860
2026-01-28 20:01:23.50	16.63	11.37	-33.4	-34.1	24.8	0.00e+00	0	31	0	796917760	40	5824
2026-01-28 20:01:27.54	16.05	11.61	-33.4	-34.1	24.8	0.00e+00	0	31	0	818937856	40	5778
2026-01-28 20:01:31.57	15.47	11.85	-33.2	-33.9	25.0	0.00e+00	0	31	0	842006528	40	5670
2026-01-28 20:01:35.60	14.87	12.09	-33.4	-34.1	24.9	0.00e+00	0	31	0	865075200	40	5786
2026-01-28 20:01:39.65	14.26	12.33	-33.2	-33.8	25.2	0.00e+00	0	31	0	887095296	40	5619
2026-01-28 20:01:43.69	13.64	12.57	-33.0	-33.6	25.3	0.00e+00	0	31	0	910163968	40	5498
2026-01-28 20:01:47.72	13.01	12.81	-33.1	-33.7	25.3	0.00e+00	0	31	0	933232640	40	5549
2026-01-28 20:01:51.75	12.37	13.04	-32.9	-33.5	25.4	0.00e+00	0	31	0	955252736	40	5426
2026-01-28 20:01:55.79	11.72	13.28	-33.0	-33.7	25.2	0.00e+00	0	31	0	978321408	40	5505
2026-01-28 20:01:59.83	11.06	13.51	-32.6	-33.3	25.6	0.00e+00	0	31	0	1001390080	38	5935
2026-01-28 20:02:03.87	10.39	13.74	-32.9	-33.5	25.3	0.00e+00	0	31	0	1023410176	38	6084
2026-01-28 20:02:07.91	9.71	13.97	-33.1	-33.8	25.2	0.00e+00	0	32	0	1046478848	38	6270
2026-01-28 20:02:11.94	9.02	14.20	-32.8	-33.5	25.5	0.00e+00	0	31	0	1069547520	38	6058
2026-01-28 20:02:15.98	8.31	14.42	-32.6	-33.3	25.7	0.00e+00	0	31	0	1091567616	38	5927
2026-01-28 20:02:20.02	7.60	14.65	-32.2	-32.9	26.0	0.00e+00	0	31	0	1114636288	38	5655
2026-01-28 20:02:24.06	6.87	14.87	-32.4	-33.1	25.9	0.00e+00	0	31	0	1136656384	38	5772
2026-01-28 20:02:28.09	6.14	15.08	-32.3	-33.0	25.9	0.00e+00	0	31	0	1159725056	38	5712
2026-01-28 20:02:32.13	5.39	15.30	-32.1	-32.7	26.1	0.00e+00	0	31	0	1182793728	38	5525
2026-01-28 20:02:36.17	4.63	15.51	-32.3	-32.9	26.0	0.00e+00	0	31	0	1205862400	38	5667
2026-01-28 20:02:40.21	3.86	15.72	-32.4	-33.1	25.8	0.00e+00	0	31	0	1227882496	38	5788
2026-01-28 20:02:44.25	3.08	15.92	-32.0	-32.6	26.3	0.00e+00	0	31	0	1250951168	38	5464
2026-01-28 20:02:48.28	2.29	16.12	-32.2	-32.9	26.1	0.00e+00	0	31	0	1274019840	38	5652
2026-01-28 20:02:52.32	1.49	16.32	-31.9	-32.6	26.3	0.00e+00	0	31	0	1296039936	38	5459
2026-01-28 20:02:56.36	0.68	16.51	-31.9	-32.5	26.3	0.00e+00	0	32	0	1319108608	38	5423
2026-01-28 20:03:00.38	359.86	16.70	-31.9	-32.6	26.3	0.00e+00	0	32	0	1341128704	36	6122
2026-01-28 20:03:04.41	359.03	16.88	-32.0	-32.6	26.4	0.00e+00	0	32	0	1364197376	36	6127
2026-01-28 20:03:08.45	358.18	17.06	-31.6	-32.2	26.6	0.00e+00	0	32	0	1387266048	36	5876
2026-01-28 20:03:12.49	357.33	17.23	-31.9	-32.5	26.4	0.00e+00	0	31	0	1409286144	36	6072
2026-01-28 20:03:16.53	356.46	17.40	-31.6	-32.3	26.5	0.00e+00	0	32	0	1432354816	36	5904
2026-01-28 20:03:20.57	355.59	17.56	-31.5	-32.1	26.7	0.00e+00	0	31	0	1455423488	36	5812
2026-01-28 20:03:24.61	354.71	17.72	-31.7	-32.3	26.5	0.00e+00	0	31	0	1477443584	36	5948
2026-01-28 20:03:28.65	353.82	17.87	-31.3	-31.9	26.8	0.00e+00	0	31	0	1500512256	36	5695
2026-01-28 20:03:32.69	352.92	18.01	-31.5	-32.1	26.7	0.00e+00	0	31	0	1523580928	36	5813
2026-01-28 20:03:36.73	352.01	18.15	-31.5	-32.2	26.6	0.00e+00	0	31	0	1545601024	36	5848
2026-01-28 20:03:40.77	351.09	18.28	-31.5	-32.1	26.8	0.00e+00	0	32	0	1568669696	36	5778
2026-01-28 20:03:44.80	350.17	18.40	-31.2	-31.9	26.9	0.00e+00	0	31	0	1591738368	36	5637
2026-01-28 20:03:48.84	349.24	18.52	-31.3	-31.9	26.9	0.00e+00	0	32	0	1613758464	36	5684
2026-01-28 20:03:52.88	348.30	18.63	-31.5	-32.1	26.6	0.00e+00	0	31	0	1636827136	36	5805
2026-01-28 20:03:56.91	347.35	18.73	-31.3	-31.9	26.9	0.00e+00	0	31	0	1659895808	36	5674
2026-01-28 20:04:00.95	346.40	18.82	-31.0	-31.6	27.1	0.00e+00	0	31	0	1681915904	36	5467
2026-01-28 20:04:04.99	345.44	18.91	-30.9	-31.6	27.2	0.00e+00	0	31	0	1704984576	36	5460
2026-01-28 20:04:09.03	344.48	18.99	-31.1	-31.7	27.0	0.00e+00	0	32	0	1728053248	36	5531
2026-01-28 20:04:13.06	343.51	19.06	-31.1	-31.7	27.0	0.00e+00	0	31	0	1750073344	36	5545
2026-01-28 20:04:17.10	342.54	19.12	-31.1	-31.7	27.0	0.00e+00	0	32	0	1773142016	36	5549
2026-01-28 20:04:21.14	341.57	19.17	-30.9	-31.5	27.2	0.00e+00	0	32	0	1796210688	36	5425
2026-01-28 20:04:25.18	340.59	19.21	-31.1	-31.7	27.0	0.00e+00	0	31	0	1818230784	36	5563
2026-01-28 20:04:29.22	339.60	19.25	-31.0	-31.7	27.1	0.00e+00	0	31	0	1841299456	36	5539
2026-01-28 20:04:33.26	338.62	19.27	-31.0	-31.6	27.1	0.00e+00	0	32	0	1864368128	36	5456
2026-01-28 20:04:37.29	337.64	19.29	-31.0	-31.7	27.1	0.00e+00	0	31	0	1886388224	36	5507
2026-01-28 20:04:41.33	336.65	19.30	-30.9	-31.6	27.2	0.00e+00	0	32	0	1909456896	36	5457
2026-01-28 20:04:45.37	335.67	19.30	-30.9	-31.5	27.2	0.00e+00	0	31	0	1932525568	36	5439
2026-01-28 20:04:49.42	334.68	19.29	-31.1	-31.7	26.9	0.00e+00	0	31	0	1954545664	36	5551
2026-01-28 20:04:53.46	333.69	19.27	-31.1	-31.7	27.0	0.00e+00	0	32	0	1977614336	36	5535
2026-01-28 20:04:57.50	332.71	19.25	-30.9	-31.5	27.2	0.00e+00	0	32	0	2000683008	36	5432
2026-01-28 20:05:01.53	331.73	19.21	-30.9	-31.5	27.2	0.00e+00	0	32	0	2022703104	36	5393
2026-01-28 20:05:05.57	330.75	19.17	-31.0	-31.7	27.1	0.00e+00	0	31	0	2045771776	36	5503
2026-01-28 20:05:09.61	329.78	19.11	-31.0	-31.6	27.2	0.00e+00	0	31	0	2068840448	36	5452
2026-01-28 20:05:13.64	328.81	19.05	-31.2	-31.8	26.9	0.00e+00	0	31	0	2090860544	36	5617
2026-01-28 20:05:17.68	327.84	18.98	-31.0	-31.6	27.1	0.00e+00	0	31	0	2113929216	36	5480
2026-01-28 20:05:21.72	326.87	18.90	-31.2	-31.8	27.1	0.00e+00	0	31	0	2136997888	36	5597
2026-01-28 20:05:25.76	325.92	18.82	-31.4	-31.9	26.9	0.00e+00	0	31	0	2159017984	36	5691
2026-01-28 20:05:29.81	324.96	18.72	-31.4	-32.0	26.8	0.00e+00	0	31	0	2182086656	36	5750
2026-01-28 20:05:33.84	324.02	18.62	-31.3	-31.9	26.9	0.00e+00	0	31	0	2205155328	36	5648
2026-01-28 20:05:37.88	323.08	18.51	-31.5	-32.1	26.7	0.00e+00	0	32	0	2227175424	36	5801
2026-01-28 20:05:41.91	322.15	18.40	-31.5	-32.1	26.7	0.00e+00	0	31	0	2250244096	36	5771
2026-01-28 20:05:45.95	321.22	18.27	-31.2	-31.9	27.0	0.00e+00	0	31	0	2273312768	36	5650
2026-01-28 20:05:49.99	320.30	18.14	-31.0	-31.6	27.0	0.00e+00	0	31	0	2295332864	36	5467
2026-01-28 20:05:54.03	319.39	18.00	-31.5	-32.1	26.7	0.00e+00	0	31	0	2318401536	36	5767
2026-01-28 20:05:58.07	318.49	17.86	-31.4	-31.9	26.9	0.00e+00	0	32	0	2341470208	36	5683
2026-01-28 20:06:02.11	317.60	17.71	-31.5	-32.1	26.8	0.00e+00	0	32	0	2363490304	36	5792
2026-01-28 20:06:06.14	316.72	17.55	-31.3	-31.9	26.9	0.00e+00	0	32	0	2386558976	36	5664
2026-01-28 20:06:10.18	315.85	17.39	-31.7	-32.3	26.5	0.00e+00	0	31	0	2409627648	36	5942
2026-01-28 20:06:14.22	314.98	17.22	-31.5	-32.2	26.6	0.00e+00	0	31	0	2431647744	36	5840
2026-01-28 20:06:18.26	314.13	17.05	-31.8	-32.5	26.4	0.00e+00	0	31	0	2454716416	36	6037
2026-01-28 20:06:22.29	313.29	16.87	-31.8	-32.5	26.4	0.00e+00	0	31	0	2477785088	36	6053
2026-01-28 20:06:26.33	312.45	16.68	-32.0	-32.8	26.3	0.00e+00	0	32	0	2499805184	36	6249
2026-01-28 20:06:30.37	311.63	16.49	-31.8	-32.5	26.4	0.00e+00	0	32	0	2522873856	36	6066
2026-01-28 20:06:34.42	310.81	16.30	-32.0	-32.6	26.2	0.00e+00	0	32	0	2545942528	36	6128
2026-01-28 20:06:38.46	310.01	16.10	-32.3	-33.0	26.0	0.00e+00	0	31	0	2567962624	36	6434
2026-01-28 20:06:42.50	309.22	15.90	-32.2	-32.8	26.2	0.00e+00	0	31	0	2591031296	36	6290
2026-01-28 20:06:46.54	308.44	15.70	-32.2	-32.8	26.1	0.00e+00	0	31	0	2614099968	36	6250
2026-01-28 20:06:50.58	307.67	15.49	-32.2	-32.8	26.1	0.00e+00	0	32	0	2636120064	36	6317
2026-01-28 20:06:54.62	306.91	15.28	-32.4	-33.0	25.9	0.00e+00	0	31	0	2659188736	36	6439
2026-01-28 20:06:58.66	306.16	15.06	-32.5	-33.1	25.8	0.00e+00	0	31	0	2682257408	36	6536
2026-01-28 20:07:02.70	305.42	14.84	-32.7	-33.4	25.5	0.00e+00	0	32	0	2704277504	38	6000
2026-01-28 20:07:06.74	304.70	14.62	-32.6	-33.3	25.7	0.00e+00	0	32	0	2727346176	38	5927
2026-01-28 20:07:10.77	303.98	14.40	-32.6	-33.3	25.6	0.00e+00	0	31	0	2750414848	38	5945
2026-01-28 20:07:14.81	303.28	14.17	-32.5	-33.1	25.7	0.00e+00	0	32	0	2772434944	38	5772
2026-01-28 20:07:18.85	302.59	13.94	-32.8	-33.5	25.4	0.00e+00	0	32	0	2795503616	38	6076
2026-01-28 20:07:22.90	301.90	13.71	-32.5	-33.2	25.7	0.00e+00	0	31	0	2818572288	38	5834
2026-01-28 20:07:26.93	301.23	13.48	-32.8	-33.5	25.3	0.00e+00	0	31	0	2840592384	38	6068
2026-01-28 20:07:30.96	300.57	13.25	-32.9	-33.6	25.2	0.00e+00	0	32	0	2863661056	38	6150
2026-01-28 20:07:35.00	299.92	13.02	-33.2	-33.9	24.9	0.00e+00	0	31	0	2885681152	38	6380
2026-01-28 20:07:39.04	299.28	12.78	-33.4	-34.2	24.6	0.00e+00	0	32	0	2908749824	38	6556
2026-01-28 20:07:43.08	298.65	12.54	-33.3	-34.1	24.8	0.00e+00	0	32	0	2931818496	38	6495
2026-01-28 20:07:47.12	298.03	12.30	-33.4	-34.0	24.7	0.00e+00	0	31	0	2954887168	38	6444
2026-01-28 20:07:51.16	297.42	12.06	-33.5	-34.1	24.7	0.00e+00	0	32	0	2976907264	38	6472
2026-01-28 20:07:55.20	296.82	11.82	-33.4	-34.1	24.7	0.00e+00	0	32	0	2999975936	38	6527
2026-01-28 20:07:59.23	296.23	11.58	-33.6	-34.2	24.5	0.00e+00	0	32	0	3023044608	38	6586
2026-01-28 20:08:03.27	295.65	11.34	-33.8	-34.6	24.3	0.00e+00	0	32	0	3045064704	40	6144
2026-01-28 20:08:07.30	295.08	11.10	-33.7	-34.4	24.4	0.00e+00	0	32	0	3068133376	40	5993
2026-01-28 20:08:11.35	294.52	10.86	-33.5	-34.2	24.5	0.00e+00	0	32	0	3090153472	40	5842
2026-01-28 20:08:15.39	293.97	10.62	-33.6	-34.4	24.4	0.00e+00	0	31	0	3113222144	40	5992
2026-01-28 20:08:19.43	293.42	10.37	-33.7	-34.3	24.4	0.00e+00	0	31	0	3136290816	40	5961
2026-01-28 20:08:23.47	292.89	10.13	-34.1	-34.9	23.9	0.00e+00	0	32	0	3159359488	40	6360
2026-01-28 20:08:27.51	292.36	9.89	-34.1	-34.7	24.0	0.00e+00	0	31	0	3181379584	40	6209
2026-01-28 20:08:31.55	291.85	9.64	-34.1	-34.8	23.8	0.00e+00	0	32	0	3204448256	40	6274
2026-01-28 20:08:35.58	291.34	9.40	-34.6	-35.3	23.4	0.00e+00	0	31	0	3227516928	40	6662
2026-01-28 20:08:39.62	290.85	9.16	-34.4	-35.1	23.5	0.00e+00	0	31	0	3249537024	40	6504
2026-01-28 20:08:43.66	290.36	8.92	-34.7	-35.4	23.2	0.00e+00	0	31	0	3272605696	40	6723
2026-01-28 20:08:47.70	289.87	8.68	-34.5	-35.1	23.5	0.00e+00	0	31	0	3294625792	42	5809
2026-01-28 20:08:51.73	289.40	8.44	-34.7	-35.5	23.2	0.00e+00	0	31	0	3317694464	42	6074
2026-01-28 20:08:55.77	288.94	8.20	-35.0	-35.7	23.1	0.00e+00	0	31	0	3340763136	42	6196
2026-01-28 20:08:59.81	288.48	7.96	-34.6	-35.3	23.3	0.00e+00	0	32	0	3363831808	42	5910
2026-01-28 20:09:03.85	288.03	7.72	-34.6	-35.4	23.2	0.00e+00	0	31	0	3385851904	42	6003
2026-01-28 20:09:07.89	287.58	7.48	-35.0	-35.7	22.8	0.00e+00	0	31	0	3408920576	42	6234
2026-01-28 20:09:11.93	287.15	7.24	-35.4	-36.2	22.4	0.00e+00	0	31	0	3431989248	42	6600
2026-01-28 20:09:15.97	286.72	7.00	-35.7	-36.4	22.2	0.00e+00	0	31	0	3454009344	44	6028
2026-01-28 20:09:20.01	286.30	6.76	-35.8	-36.6	21.9	0.00e+00	0	32	0	3477078016	44	6158
2026-01-28 20:09:24.05	285.89	6.53	-35.2	-36.1	22.3	0.00e+00	0	31	0	3499098112	44	5801
2026-01-28 20:09:28.09	285.48	6.29	-35.2	-35.9	22.4	0.00e+00	0	32	0	3522166784	44	5694
2026-01-28 20:09:32.13	285.08	6.06	-35.3	-36.0	22.3	0.00e+00	0	31	0	3545235456	44	5711
2026-01-28 20:09:36.17	284.68	5.82	-35.8	-36.7	21.8	0.00e+00	0	32	0	3568304128	44	6192
2026-01-28 20:09:40.21	284.30	5.59	-36.0	-36.9	21.7	0.00e+00	0	32	0	3590324224	44	6345
2026-01-28 20:09:44.25	283.92	5.36	-36.1	-37.0	21.5	0.00e+00	0	32	0	3613392896	44	6393
2026-01-28 20:09:48.28	283.54	5.13	-35.8	-36.6	21.6	0.00e+00	0	32	0	3636461568	44	6127
2026-01-28 20:09:52.32	283.17	4.90	-35.4	-36.2	21.9	0.00e+00	0	32	0	3658481664	44	5835
2026-01-28 20:09:56.36	282.81	4.67	-35.6	-36.4	21.7	0.00e+00	0	32	0	3681550336	44	5978
2026-01-28 20:10:00.40	282.45	4.44	-35.6	-36.5	21.7	0.00e+00	0	32	0	3703570432	44	6055
2026-01-28 20:10:04.44	282.10	4.21	-35.6	-36.3	21.7	0.00e+00	0	32	0	3726639104	44	5964
2026-01-28 20:10:08.48	281.76	3.98	-35.7	-36.5	21.5	0.00e+00	0	31	0	3749707776	44	6075
2026-01-28 20:10:12.52	281.42	3.76	-36.2	-37.2	21.1	0.00e+00	0	32	0	3772776448	44	6547
2026-01-28 20:10:16.56	281.08	3.53	-35.6	-36.4	21.6	0.00e+00	0	32	0	3794796544	44	5980
2026-01-28 20:10:20.60	280.75	3.31	-36.4	-37.2	20.6	0.00e+00	0	32	0	3817865216	46	5857
2026-01-28 20:10:24.63	280.43	3.09	-36.7	-37.7	20.2	0.00e+00	0	32	0	3840933888	46	6179
2026-01-28 20:10:28.67	280.11	2.86	-48.2	-60.3	3.6	8.45e-01	0	32	104	3850371072	60	37400
2026-01-28 20:10:32.71	279.79	2.64	-48.9	-61.0	3.6	8.46e-01	0	32	104	3850371072	60	40487
2026-01-28 20:10:36.75	279.48	2.42	-49.0	-61.1	3.6	8.46e-01	0	32	104	3850371072	60	40911
2026-01-28 20:10:40.79	279.18	2.20	-48.9	-61.0	3.6	8.44e-01	0	32	104	3850371072	60	40675
2026-01-28 20:10:44.82	278.88	1.98	-48.7	-60.9	3.6	8.44e-01	0	32	104	3850371072	60	40310
2026-01-28 20:10:48.86	278.58	1.77	-48.8	-60.9	3.6	8.45e-01	0	32	104	3850371072	60	40148
2026-01-28 20:10:52.90	278.29	1.55	-48.8	-60.9	3.6	8.46e-01	0	32	104	3850371072	60	40277
2026-01-28 20:10:56.94	278.01	1.33	-48.8	-60.9	3.6	8.45e-01	0	32	104	3850371072	60	40091
2026-01-28 20:11:00.98	277.72	1.12	-48.8	-60.9	3.6	8.44e-01	0	32	104	3850371072	60	40148
2026-01-28 20:11:05.02	277.45	0.91	-48.8	-60.9	3.6	8.46e-01	0	32	104	3850371072	60	39963
2026-01-28 20:11:09.06	277.17	0.69	-48.8	-60.9	3.6	8.46e-01	0	32	104	3850371072	60	40172
2026-01-28 20:11:13.10	276.90	0.48	-48.8	-60.9	3.6	8.44e-01	0	32	104	3850371072	60	40270
2026-01-28 20:11:17.14	276.64	0.27	-48.8	-61.0	3.6	8.46e-01	0	32	104	3850371072	60	40348
2026-01-28 20:11:21.18	276.37	0.06	-48.8	-60.9	3.6	8.46e-01	0	32	104	3850371072	60	40269

#Closed at: 2026-01-28 20:11:24
#Recorded file [3850 MB]: D:/lorett/data/35029_260129_075805.dat