passes_logs/2026/01/28/R4.6S_Anadyr/R4.6S_Anadyr__20260128_185157_AQUA_rec.log

#Pass ID: 20260128_185157_AQUA
#Satellite: AQUA
#Configuration: AQUA
#almurnet v.1.7.20251203
#Start time: 2026-01-28 18:51:58

#Version: 2.2.20231116
#Station: R4.6S_Anadyr
#Location: 177.4865 lon 64.73178 lat
#TLE: 1 27424U 02022A   26027.88561574  .00001798  00000+0  36942-3 0  9997
#TLE: 2 27424  98.4102 354.5311 0001840  63.5604 322.5877 14.61868111262779

#Time	Az	El	Level	Level2	SNR	BER	BlckErr	Temp	State	Recorded	gain1	gain2
2026-01-28 18:51:58.10	26.56	0.03	-48.5	-60.2	3.5	8.45e-01	0	30	0	0	60	37014
2026-01-28 18:52:01.12	26.36	0.20	-49.0	-66.9	3.5	3.03e+01	0	31	104	0	60	85422
2026-01-28 18:52:04.15	26.15	0.36	-49.1	-67.0	3.5	3.03e+01	0	31	104	0	60	85937
2026-01-28 18:52:07.18	25.95	0.53	-49.2	-67.0	3.5	3.03e+01	0	31	104	0	60	86013
2026-01-28 18:52:10.21	25.74	0.69	-49.0	-66.9	3.5	3.03e+01	0	32	104	0	60	85377
2026-01-28 18:52:13.24	25.52	0.86	-48.9	-66.8	3.5	3.03e+01	0	31	104	0	60	84206
2026-01-28 18:52:16.27	25.31	1.03	-48.6	-66.5	3.5	3.03e+01	0	32	104	0	60	81266
2026-01-28 18:52:19.30	25.09	1.20	-48.2	-66.0	3.5	3.03e+01	0	32	104	0	60	76696
2026-01-28 18:52:22.33	24.87	1.37	-47.5	-65.4	3.5	3.03e+01	0	32	104	0	60	71613
2026-01-28 18:52:25.36	24.64	1.54	-47.5	-65.4	3.5	3.03e+01	0	32	104	0	60	71684
2026-01-28 18:52:28.39	24.41	1.71	-47.5	-65.4	3.5	3.03e+01	0	32	104	0	60	71705
2026-01-28 18:52:31.42	24.18	1.88	-47.5	-65.3	3.5	3.03e+01	0	32	104	0	60	71171
2026-01-28 18:52:34.45	23.95	2.05	-47.5	-65.4	3.5	3.03e+01	0	32	104	0	60	71837
2026-01-28 18:52:37.48	23.71	2.23	-47.5	-65.3	3.5	3.03e+01	0	32	104	0	60	71116
2026-01-28 18:52:40.51	23.47	2.40	-47.5	-65.3	3.5	3.03e+01	0	32	104	0	60	71179
2026-01-28 18:52:43.54	23.23	2.58	-47.5	-65.3	3.5	3.03e+01	0	32	104	0	60	71079
2026-01-28 18:52:46.57	22.98	2.75	-47.5	-65.4	3.5	3.03e+01	0	32	104	0	60	71509
2026-01-28 18:52:49.59	22.73	2.93	-47.4	-64.8	3.5	3.03e+01	0	32	104	0	60	66774
2026-01-28 18:52:52.62	22.48	3.10	-47.0	-63.0	3.5	3.03e+01	0	32	104	0	60	54133
2026-01-28 18:52:55.65	22.22	3.28	-43.3	-54.9	3.5	3.03e+01	0	32	104	0	60	21336
2026-01-28 18:52:58.68	21.96	3.46	-39.7	-50.3	3.5	3.03e+01	0	32	104	0	54	17820
2026-01-28 18:53:01.70	21.70	3.64	-39.6	-50.3	3.5	3.03e+01	0	32	104	0	54	17770
2026-01-28 18:53:04.73	21.43	3.82	-38.1	-48.6	3.5	3.03e+01	0	32	104	0	52	16504
2026-01-28 18:53:07.76	21.15	4.00	-45.7	-59.2	3.5	3.03e+01	0	32	104	0	60	35155
2026-01-28 18:53:10.79	20.88	4.18	-42.6	-54.0	3.6	3.03e+01	0	32	104	0	60	19292
2026-01-28 18:53:13.82	20.60	4.36	-45.0	-57.7	3.5	3.03e+01	0	32	104	0	60	29676
2026-01-28 18:53:16.85	20.32	4.55	-40.2	-50.9	3.6	3.03e+01	0	32	104	0	56	17068
2026-01-28 18:53:19.88	20.03	4.73	-39.9	-50.6	3.5	3.03e+01	0	32	104	0	56	16436
2026-01-28 18:53:22.91	19.74	4.91	-43.6	-55.2	3.5	3.03e+01	0	32	104	0	56	27972
2026-01-28 18:53:25.94	19.44	5.10	-41.3	-52.1	3.5	3.03e+01	0	32	104	0	60	15583
2026-01-28 18:53:28.97	19.14	5.28	-47.4	-63.3	3.5	3.03e+01	0	32	104	0	60	55993
2026-01-28 18:53:32.00	18.83	5.47	-47.5	-63.3	3.5	3.03e+01	0	32	104	0	60	56427
2026-01-28 18:53:35.03	18.52	5.66	-37.1	-47.5	3.6	3.03e+01	0	32	104	0	50	16273
2026-01-28 18:53:38.05	18.21	5.85	-42.6	-54.0	3.5	3.03e+01	0	32	104	0	58	21575
2026-01-28 18:53:41.08	17.89	6.04	-39.6	-50.1	3.5	3.03e+01	0	32	104	0	52	19542
2026-01-28 18:53:44.11	17.57	6.22	-37.5	-47.9	3.5	3.03e+01	0	32	104	0	50	16949
2026-01-28 18:53:47.14	17.24	6.42	-47.9	-65.1	3.5	3.03e+01	0	32	104	0	60	69323
2026-01-28 18:53:50.17	16.91	6.61	-40.2	-50.9	3.5	3.03e+01	0	32	104	0	56	16902
2026-01-28 18:53:53.20	16.57	6.80	-45.2	-57.8	3.5	3.03e+01	0	32	104	0	60	29809
2026-01-28 18:53:56.23	16.23	6.99	-48.0	-65.8	3.5	3.03e+01	0	32	104	0	60	74994
2026-01-28 18:53:59.26	15.88	7.18	-38.5	-49.0	3.5	3.03e+01	0	32	104	0	52	17137
2026-01-28 18:54:02.28	15.53	7.38	-40.8	-51.6	3.5	3.03e+01	0	32	104	0	54	20551
2026-01-28 18:54:05.32	15.17	7.57	-47.9	-65.0	3.5	3.03e+01	0	32	104	0	60	68819
2026-01-28 18:54:08.34	14.80	7.77	-40.2	-50.8	3.5	3.03e+01	0	32	104	0	54	18839
2026-01-28 18:54:11.37	14.44	7.96	-47.9	-65.1	3.5	3.03e+01	0	32	104	0	60	69394
2026-01-28 18:54:14.40	14.06	8.16	-39.2	-49.7	3.6	3.03e+01	0	32	104	0	54	16662
2026-01-28 18:54:17.43	13.68	8.36	-37.4	-47.7	3.5	3.03e+01	0	32	104	0	50	16542
2026-01-28 18:54:20.45	13.29	8.55	-39.2	-49.7	3.6	3.03e+01	0	32	104	0	56	14817
2026-01-28 18:54:23.47	12.90	8.75	-36.6	-47.0	3.5	3.03e+01	0	32	104	0	48	17113
2026-01-28 18:54:26.50	12.51	8.95	-39.6	-50.1	3.4	3.03e+01	0	32	104	0	56	15570
2026-01-28 18:54:29.53	12.10	9.15	-37.3	-47.6	3.5	3.03e+01	0	32	104	0	48	18484
2026-01-28 18:54:32.56	11.69	9.35	-36.7	-47.0	3.5	3.03e+01	0	32	104	0	48	17187
2026-01-28 18:54:35.59	11.27	9.55	-47.4	-63.5	3.5	3.03e+01	0	32	104	0	60	57905
2026-01-28 18:54:38.61	10.85	9.75	-39.6	-50.2	3.5	3.03e+01	0	32	104	0	54	17569
2026-01-28 18:54:41.64	10.42	9.95	-41.6	-52.5	3.5	3.03e+01	0	32	104	0	60	16305
2026-01-28 18:54:44.67	9.99	10.15	-37.7	-48.0	3.5	3.03e+01	0	32	104	0	50	17154
2026-01-28 18:54:47.70	9.54	10.35	-38.1	-48.5	3.5	3.03e+01	0	32	104	0	52	16202
2026-01-28 18:54:50.73	9.09	10.55	-38.5	-48.9	3.5	3.03e+01	0	32	104	0	52	17065
2026-01-28 18:54:53.76	8.64	10.75	-36.7	-47.0	3.5	3.03e+01	0	32	104	0	48	17150
2026-01-28 18:54:56.79	8.17	10.95	-35.9	-46.1	3.5	3.03e+01	0	32	104	0	46	17457
2026-01-28 18:54:59.81	7.70	11.15	-42.7	-53.9	3.6	3.03e+01	0	32	104	0	60	19071
2026-01-28 18:55:02.84	7.23	11.36	-38.8	-49.2	3.5	3.03e+01	0	32	104	0	52	17653
2026-01-28 18:55:05.87	6.74	11.56	-43.1	-54.4	3.5	3.03e+01	0	32	104	0	60	20123
2026-01-28 18:55:08.90	6.25	11.76	-38.7	-49.1	3.5	3.03e+01	0	32	104	0	54	15482
2026-01-28 18:55:11.92	5.75	11.96	-38.4	-48.8	3.6	3.03e+01	0	32	104	0	52	16736
2026-01-28 18:55:14.95	5.24	12.16	-44.4	-56.0	3.5	3.03e+01	0	32	104	0	54	34282
2026-01-28 18:55:17.98	4.73	12.36	-39.1	-49.6	3.5	3.03e+01	0	33	104	0	56	14645
2026-01-28 18:55:21.01	4.20	12.56	-47.8	-63.0	3.5	3.03e+01	0	33	104	0	60	54660
2026-01-28 18:55:24.03	3.67	12.76	-48.4	-65.6	3.5	3.03e+01	0	33	104	0	60	73585
2026-01-28 18:55:27.06	3.14	12.96	-38.2	-48.6	3.5	3.03e+01	0	33	104	0	52	16366
2026-01-28 18:55:30.09	2.59	13.16	-40.4	-51.0	3.5	3.03e+01	0	33	104	0	52	21657
2026-01-28 18:55:33.12	2.03	13.36	-48.2	-64.4	3.5	3.03e+01	0	33	104	0	60	64160
2026-01-28 18:55:36.15	1.47	13.56	-37.2	-47.5	3.5	3.03e+01	0	33	104	0	50	16139
2026-01-28 18:55:39.18	0.90	13.75	-48.3	-64.6	3.5	3.03e+01	0	33	104	0	60	65465
2026-01-28 18:55:42.21	0.32	13.95	-35.8	-46.1	3.5	3.03e+01	0	32	104	0	46	17337
2026-01-28 18:55:45.24	359.73	14.14	-37.3	-47.6	3.5	3.03e+01	0	33	104	0	48	18393
2026-01-28 18:55:48.26	359.14	14.34	-38.9	-49.4	3.5	3.03e+01	0	32	104	0	52	18004
2026-01-28 18:55:51.29	358.53	14.53	-36.3	-46.6	3.5	3.03e+01	0	32	104	0	48	16361
2026-01-28 18:55:54.32	357.92	14.72	-39.4	-49.8	3.6	3.03e+01	0	32	104	0	56	15045
2026-01-28 18:55:57.35	357.30	14.91	-42.2	-53.1	3.6	3.03e+01	0	32	104	0	56	21898
2026-01-28 18:56:00.38	356.67	15.10	-37.9	-48.2	3.5	3.03e+01	0	33	104	0	52	15749
2026-01-28 18:56:03.41	356.03	15.28	-47.1	-61.1	3.6	3.03e+01	0	32	104	0	60	43451
2026-01-28 18:56:06.44	355.38	15.47	-36.2	-46.4	3.5	3.03e+01	0	32	104	0	48	16026
2026-01-28 18:56:09.47	354.73	15.65	-44.6	-56.3	3.5	3.03e+01	0	33	104	0	60	25199
2026-01-28 18:56:12.50	354.06	15.83	-43.0	-54.2	3.5	3.03e+01	0	32	104	0	60	19769
2026-01-28 18:56:15.52	353.39	16.00	-36.0	-46.2	3.5	3.03e+01	0	32	104	0	48	15728
2026-01-28 18:56:18.55	352.71	16.18	-41.5	-52.3	3.5	3.03e+01	0	33	104	0	60	15846
2026-01-28 18:56:21.58	352.02	16.35	-48.6	-65.9	3.5	3.03e+01	0	32	104	0	60	75898
2026-01-28 18:56:24.61	351.32	16.52	-38.1	-48.6	3.5	3.03e+01	0	32	104	0	52	16420
2026-01-28 18:56:27.64	350.61	16.69	-39.5	-50.0	3.5	3.03e+01	0	32	104	0	58	13645
2026-01-28 18:56:30.67	349.90	16.85	-38.4	-48.7	3.5	3.03e+01	0	32	104	0	52	16535
2026-01-28 18:56:33.69	349.17	17.01	-36.7	-46.9	3.5	3.03e+01	0	32	104	0	50	15227
2026-01-28 18:56:36.72	348.44	17.17	-37.5	-47.8	3.5	3.03e+01	0	32	104	0	50	16871
2026-01-28 18:56:39.75	347.70	17.32	-36.3	-46.5	3.5	3.03e+01	0	33	104	0	48	16248
2026-01-28 18:56:42.78	346.95	17.47	-40.2	-50.8	3.9	3.03e+01	0	32	104	0	46	29855
2026-01-28 18:56:45.81	346.20	17.62	-36.8	-47.1	3.5	3.03e+01	0	32	104	0	52	13740
2026-01-28 18:56:48.84	345.43	17.76	-37.8	-48.2	3.5	3.03e+01	0	32	104	0	46	22074
2026-01-28 18:56:51.86	344.66	17.89	-46.9	-60.5	3.5	3.03e+01	0	32	104	0	60	40667
2026-01-28 18:56:54.89	343.88	18.03	-39.0	-49.4	3.5	3.03e+01	0	32	104	0	54	16018
2026-01-28 18:56:57.92	343.10	18.16	-39.0	-49.5	3.4	3.03e+01	0	33	104	0	48	22812
2026-01-28 18:57:00.95	342.30	18.28	-45.2	-57.3	3.4	3.03e+01	0	33	104	0	54	39649
2026-01-28 18:57:03.97	341.50	18.40	-36.9	-47.3	3.5	3.03e+01	0	33	104	0	48	17737
2026-01-28 18:57:07.00	340.70	18.51	-48.3	-64.3	3.5	3.03e+01	0	33	104	0	60	63235
2026-01-28 18:57:10.02	339.89	18.62	-36.1	-46.3	3.5	3.03e+01	0	33	104	0	48	15897
2026-01-28 18:57:13.05	339.07	18.73	-39.4	-49.8	3.5	3.03e+01	0	33	104	0	50	21261
2026-01-28 18:57:16.08	338.24	18.82	-46.6	-59.9	3.5	3.03e+01	0	33	104	0	60	38127
2026-01-28 18:57:19.10	337.41	18.92	-39.2	-49.6	3.5	3.03e+01	0	33	104	0	54	16500
2026-01-28 18:57:22.12	336.58	19.00	-42.8	-53.9	3.7	3.03e+01	0	32	104	0	56	23891
2026-01-28 18:57:25.15	335.74	19.08	-48.2	-64.2	3.5	3.03e+01	0	32	104	0	60	62233
2026-01-28 18:57:28.18	334.89	19.16	-38.2	-48.5	3.4	3.03e+01	0	32	104	0	50	18170
2026-01-28 18:57:31.20	334.04	19.23	-42.8	-45.4	5.2	3.03e+01	0	32	104	0	58	8030
2026-01-28 18:57:34.23	333.19	19.29	-43.0	-45.3	20.5	3.03e+01	0	33	0	524288	60	7118
2026-01-28 18:57:37.26	332.33	19.35	-41.3	-43.2	22.9	3.03e+01	0	32	0	6291456	56	6981
2026-01-28 18:57:40.28	331.47	19.40	-38.6	-40.0	26.0	3.03e+01	0	32	0	12058624	52	6115
2026-01-28 18:57:43.31	330.61	19.45	-35.6	-36.8	28.9	3.03e+01	0	33	0	17825792	46	5955
2026-01-28 18:57:46.34	329.74	19.48	-35.7	-36.9	28.9	3.03e+01	0	32	0	23592960	46	6021
2026-01-28 18:57:49.37	328.87	19.51	-35.6	-36.8	28.9	3.03e+01	0	32	0	28835840	46	5977
2026-01-28 18:57:52.39	328.01	19.54	-35.9	-37.1	28.6	3.03e+01	0	32	0	34603008	46	6164
2026-01-28 18:57:55.42	327.14	19.56	-35.8	-37.0	28.7	3.03e+01	0	32	0	40370176	46	6125
2026-01-28 18:57:58.45	326.26	19.57	-35.7	-36.9	28.8	3.03e+01	0	32	0	46137344	46	6031
2026-01-28 18:58:01.48	325.39	19.58	-36.0	-37.2	28.5	3.03e+01	0	32	0	51904512	46	6251
2026-01-28 18:58:04.51	324.52	19.57	-35.7	-36.9	28.8	3.03e+01	0	32	0	57147392	46	6034
2026-01-28 18:58:07.53	323.65	19.57	-35.7	-36.9	28.8	3.03e+01	0	32	0	62914560	46	6041
2026-01-28 18:58:10.56	322.77	19.55	-35.9	-37.2	28.5	3.03e+01	0	32	0	68681728	46	6210
2026-01-28 18:58:13.59	321.90	19.53	-35.6	-36.8	28.8	3.03e+01	0	32	0	74448896	46	5967
2026-01-28 18:58:16.62	321.03	19.50	-35.9	-37.1	28.6	3.03e+01	0	32	0	80216064	46	6189
2026-01-28 18:58:19.65	320.16	19.47	-35.8	-37.0	28.8	3.03e+01	0	33	0	85983232	46	6129
2026-01-28 18:58:22.68	319.30	19.43	-35.7	-36.9	28.8	3.03e+01	0	33	0	91750400	46	6025
2026-01-28 18:58:25.70	318.44	19.38	-35.7	-36.9	28.8	3.03e+01	0	32	0	96993280	46	6056
2026-01-28 18:58:28.73	317.58	19.32	-35.9	-37.1	28.6	3.03e+01	0	32	0	102760448	46	6186
2026-01-28 18:58:31.76	316.72	19.26	-35.7	-36.9	28.8	3.03e+01	0	32	0	108527616	46	6052
2026-01-28 18:58:34.79	315.87	19.20	-36.2	-37.5	28.4	3.03e+01	0	33	0	114294784	46	6428
2026-01-28 18:58:37.82	315.02	19.13	-35.8	-37.1	28.8	3.03e+01	0	32	0	120061952	46	6135
2026-01-28 18:58:40.84	314.18	19.05	-35.9	-37.2	28.6	3.03e+01	0	32	0	125304832	46	6211
2026-01-28 18:58:43.87	313.34	18.96	-35.7	-36.9	28.8	3.03e+01	0	32	0	131072000	46	6044
2026-01-28 18:58:46.90	312.50	18.87	-35.8	-37.1	28.7	3.03e+01	0	33	0	136839168	46	6135
2026-01-28 18:58:49.93	311.67	18.78	-35.9	-37.1	28.6	3.03e+01	0	32	0	142606336	46	6182
2026-01-28 18:58:52.96	310.85	18.68	-36.0	-37.3	28.4	3.03e+01	0	32	0	148373504	46	6316
2026-01-28 18:58:55.99	310.03	18.57	-35.8	-37.0	28.8	3.03e+01	0	32	0	154140672	46	6105
2026-01-28 18:58:59.01	309.22	18.46	-35.7	-36.9	28.8	3.03e+01	0	32	0	159907840	46	6030
2026-01-28 18:59:02.04	308.42	18.34	-36.0	-37.3	28.4	3.03e+01	0	32	0	165150720	46	6291
2026-01-28 18:59:05.07	307.62	18.22	-35.9	-37.2	28.5	3.03e+01	0	32	0	170917888	46	6237
2026-01-28 18:59:08.10	306.82	18.09	-35.2	-36.4	28.4	3.03e+01	0	32	0	176685056	44	6423
2026-01-28 18:59:11.12	306.04	17.96	-35.7	-36.9	28.8	3.03e+01	0	32	0	182452224	46	6034
2026-01-28 18:59:14.15	305.27	17.83	-36.8	-38.2	27.5	3.03e+01	0	32	0	188219392	46	7025
2026-01-28 18:59:17.18	304.50	17.69	-36.6	-37.9	28.0	3.03e+01	0	32	0	193462272	46	6765
2026-01-28 18:59:20.21	303.73	17.55	-35.8	-37.0	28.8	3.03e+01	0	32	0	199229440	46	6133
2026-01-28 18:59:23.24	302.98	17.40	-36.6	-37.9	28.0	3.03e+01	0	32	0	204996608	46	6788
2026-01-28 18:59:26.27	302.23	17.25	-35.9	-37.2	28.5	3.03e+01	0	32	0	210763776	46	6221
2026-01-28 18:59:29.30	301.49	17.09	-36.7	-38.1	27.9	3.03e+01	0	32	0	216530944	46	6899
2026-01-28 18:59:32.33	300.76	16.93	-35.6	-36.8	28.8	3.03e+01	0	32	0	222298112	46	5972
2026-01-28 18:59:35.35	300.04	16.77	-36.2	-37.4	28.3	3.03e+01	0	32	0	227540992	46	6409
2026-01-28 18:59:38.38	299.33	16.61	-35.8	-37.1	28.6	3.03e+01	0	32	0	233308160	46	6135
2026-01-28 18:59:41.41	298.62	16.44	-35.5	-36.8	28.7	3.03e+01	0	32	0	239075328	46	5935
2026-01-28 18:59:44.44	297.93	16.27	-36.0	-37.2	28.3	3.03e+01	0	32	0	244842496	46	6272
2026-01-28 18:59:47.47	297.24	16.09	-36.1	-37.4	28.4	3.03e+01	0	32	0	250609664	46	6358
2026-01-28 18:59:50.49	296.56	15.92	-35.6	-36.9	28.6	3.03e+01	0	32	0	256376832	46	5999
2026-01-28 18:59:53.52	295.89	15.74	-36.0	-37.3	28.0	3.03e+01	0	32	0	261619712	46	6279
2026-01-28 18:59:56.55	295.23	15.56	-36.2	-37.5	27.7	3.03e+01	0	32	0	267386880	46	6444
2026-01-28 18:59:59.58	294.57	15.37	-35.3	-36.5	28.9	3.03e+01	0	32	0	273154048	46	5742
2026-01-28 19:00:02.61	293.93	15.19	-36.8	-38.1	27.5	3.03e+01	0	32	0	278921216	46	6929
2026-01-28 19:00:05.64	293.29	15.00	-35.8	-37.0	28.5	3.03e+01	0	32	0	284688384	46	6124
2026-01-28 19:00:08.66	292.67	14.81	-36.1	-37.3	28.1	3.03e+01	0	33	0	290455552	46	6320
2026-01-28 19:00:11.68	292.05	14.62	-37.2	-38.6	27.1	3.03e+01	0	32	0	295698432	48	6505
2026-01-28 19:00:14.71	291.44	14.43	-36.1	-37.4	28.2	3.03e+01	0	33	0	301465600	46	6385
2026-01-28 19:00:17.73	290.84	14.24	-35.8	-37.0	28.6	3.03e+01	0	32	0	307232768	46	6103
2026-01-28 19:00:20.76	290.24	14.04	-36.0	-37.3	28.3	3.03e+01	0	32	0	312999936	46	6299
2026-01-28 19:00:23.79	289.66	13.85	-36.3	-37.6	28.1	3.03e+01	0	32	0	318767104	46	6504
2026-01-28 19:00:26.82	289.08	13.65	-36.6	-37.9	27.7	3.03e+01	0	32	0	324534272	46	6739
2026-01-28 19:00:29.85	288.51	13.45	-35.7	-37.0	28.5	3.03e+01	0	32	0	329777152	46	6085
2026-01-28 19:00:32.88	287.95	13.26	-36.0	-37.3	28.2	3.03e+01	0	33	0	335544320	46	6280
2026-01-28 19:00:35.90	287.40	13.06	-36.2	-37.5	28.0	3.03e+01	0	32	0	341311488	46	6452
2026-01-28 19:00:38.93	286.85	12.86	-36.1	-37.4	28.1	3.03e+01	0	32	0	347078656	46	6377
2026-01-28 19:00:41.95	286.32	12.66	-36.2	-37.4	28.0	3.03e+01	0	32	0	352845824	46	6414
2026-01-28 19:00:44.97	285.79	12.46	-36.1	-37.4	28.0	3.03e+01	0	32	0	358088704	46	6409
2026-01-28 19:00:48.00	285.27	12.26	-36.0	-37.3	28.1	3.03e+01	0	32	0	363855872	46	6291
2026-01-28 19:00:51.03	284.76	12.05	-36.2	-37.5	27.9	3.03e+01	0	32	0	369623040	46	6450
2026-01-28 19:00:54.05	284.25	11.85	-36.5	-37.8	27.6	3.03e+01	0	32	0	375390208	46	6682
2026-01-28 19:00:57.08	283.75	11.65	-36.1	-37.4	28.0	3.03e+01	0	32	0	381157376	46	6395
2026-01-28 19:01:00.11	283.26	11.45	-36.3	-37.6	27.8	3.03e+01	0	32	0	386400256	46	6509
2026-01-28 19:01:03.14	282.78	11.25	-36.7	-38.0	27.5	3.03e+01	0	32	0	392167424	46	6852
2026-01-28 19:01:06.16	282.30	11.05	-36.0	-37.3	28.0	3.03e+01	0	32	0	397934592	46	6310
2026-01-28 19:01:09.19	281.83	10.84	-36.3	-37.7	27.7	3.03e+01	0	32	0	403701760	46	6575
2026-01-28 19:01:12.22	281.37	10.64	-36.6	-37.9	27.4	3.03e+01	0	32	0	409468928	46	6791
2026-01-28 19:01:15.24	280.92	10.44	-36.5	-37.8	27.4	3.03e+01	0	32	0	415236096	46	6702
2026-01-28 19:01:18.27	280.47	10.24	-36.5	-37.8	27.5	3.03e+01	0	32	0	421003264	46	6680
2026-01-28 19:01:21.30	280.03	10.04	-36.8	-38.2	27.0	3.03e+01	0	32	0	426246144	48	6250
2026-01-28 19:01:24.33	279.59	9.84	-36.2	-37.5	27.8	3.03e+01	0	32	0	432013312	48	5752
2026-01-28 19:01:27.35	279.16	9.63	-37.1	-38.5	26.8	3.03e+01	0	32	0	437780480	48	6454
2026-01-28 19:01:30.38	278.74	9.43	-36.5	-37.8	27.3	3.03e+01	0	33	0	443547648	48	5965
2026-01-28 19:01:33.41	278.33	9.23	-36.8	-38.2	27.1	3.03e+01	0	32	0	449314816	48	6232
2026-01-28 19:01:36.44	277.92	9.03	-37.1	-38.5	26.6	3.03e+01	0	32	0	454557696	48	6450
2026-01-28 19:01:39.47	277.51	8.84	-36.7	-38.1	27.2	3.03e+01	0	32	0	460324864	48	6148
2026-01-28 19:01:42.50	277.12	8.64	-36.8	-38.1	27.1	3.03e+01	0	32	0	466092032	48	6195
2026-01-28 19:01:45.53	276.72	8.44	-37.1	-38.4	26.8	3.03e+01	0	32	0	471859200	48	6411
2026-01-28 19:01:48.56	276.34	8.24	-37.1	-38.4	26.8	3.03e+01	0	32	0	477626368	48	6407
2026-01-28 19:01:51.58	275.96	8.04	-37.0	-38.4	26.8	3.03e+01	0	32	0	483393536	48	6370
2026-01-28 19:01:54.61	275.59	7.85	-37.2	-38.6	26.7	3.03e+01	0	32	0	488636416	48	6513
2026-01-28 19:01:57.64	275.22	7.65	-37.3	-38.7	26.4	3.03e+01	0	32	0	494403584	48	6585
2026-01-28 19:02:00.66	274.85	7.46	-37.2	-38.6	26.5	3.03e+01	0	32	0	500170752	48	6547
2026-01-28 19:02:03.69	274.50	7.26	-37.2	-38.6	26.6	3.03e+01	0	32	0	505937920	48	6520
2026-01-28 19:02:06.71	274.14	7.07	-37.6	-39.1	26.1	3.03e+01	0	32	0	511705088	48	6898
2026-01-28 19:02:09.74	273.80	6.88	-37.8	-39.3	25.9	3.03e+01	0	32	0	517472256	48	7087
2026-01-28 19:02:12.76	273.46	6.68	-38.0	-39.5	25.7	3.03e+01	0	32	0	522715136	50	6439
2026-01-28 19:02:15.79	273.12	6.49	-38.3	-39.7	25.5	3.03e+01	0	32	0	528482304	50	6644
2026-01-28 19:02:18.82	272.79	6.30	-37.8	-39.3	25.9	3.03e+01	0	32	0	534249472	50	6308
2026-01-28 19:02:21.84	272.46	6.11	-37.8	-39.2	25.9	3.03e+01	0	32	0	540016640	50	6250
2026-01-28 19:02:24.87	272.14	5.92	-38.0	-39.5	25.8	3.03e+01	0	32	0	545783808	50	6424
2026-01-28 19:02:27.89	271.82	5.73	-37.2	-38.6	26.5	3.03e+01	0	32	0	551026688	50	5845
2026-01-28 19:02:30.92	271.50	5.55	-37.5	-38.9	26.2	3.03e+01	0	32	0	556793856	50	6035
2026-01-28 19:02:33.95	271.20	5.36	-38.0	-39.4	25.7	3.03e+01	0	32	0	562561024	50	6398
2026-01-28 19:02:36.97	270.89	5.17	-37.9	-39.4	25.7	3.03e+01	0	32	0	568328192	50	6381
2026-01-28 19:02:40.01	270.59	4.99	-38.0	-39.5	25.6	3.03e+01	0	32	0	574095360	50	6452
2026-01-28 19:02:43.03	270.29	4.80	-38.0	-39.5	25.7	3.03e+01	0	32	0	579862528	50	6459
2026-01-28 19:02:46.06	270.00	4.62	-38.2	-39.7	25.2	3.03e+01	0	32	0	585629696	50	6644
2026-01-28 19:02:49.09	269.71	4.43	-37.9	-39.3	25.8	3.03e+01	0	33	0	590872576	50	6339
2026-01-28 19:02:52.11	269.43	4.25	-38.1	-39.6	25.5	3.03e+01	0	32	0	596639744	50	6557
2026-01-28 19:02:55.14	269.15	4.07	-38.6	-40.2	24.9	3.03e+01	0	32	0	602406912	50	6983
2026-01-28 19:02:58.17	268.88	3.89	-38.3	-39.8	25.3	3.03e+01	0	32	0	608174080	52	5936
2026-01-28 19:03:01.18	268.61	3.71	-37.9	-39.4	25.6	3.03e+01	0	32	0	613941248	50	6365
2026-01-28 19:03:04.21	268.34	3.53	-38.1	-39.6	25.3	3.03e+01	0	32	0	619184128	50	6536
2026-01-28 19:03:07.24	268.07	3.35	-38.4	-39.9	25.1	3.03e+01	0	33	0	624951296	50	6784
2026-01-28 19:03:10.27	267.81	3.17	-38.9	-40.4	24.7	3.03e+01	0	32	0	630718464	52	6415
2026-01-28 19:03:13.30	267.55	2.99	-38.9	-40.5	24.4	3.03e+01	0	32	0	636485632	52	6436
2026-01-28 19:03:16.32	267.30	2.82	-48.5	-66.3	3.5	3.03e+01	0	33	104	637009920	60	79907
2026-01-28 19:03:19.35	267.05	2.64	-49.1	-66.9	3.5	3.03e+01	0	33	104	637009920	60	85064
2026-01-28 19:03:22.38	266.80	2.46	-49.2	-67.0	3.5	3.03e+01	0	33	104	637009920	60	86527
2026-01-28 19:03:25.41	266.56	2.29	-49.2	-67.1	3.5	3.03e+01	0	33	104	637009920	60	86971
2026-01-28 19:03:28.44	266.32	2.12	-49.2	-67.1	3.5	3.03e+01	0	33	104	637009920	60	87375
2026-01-28 19:03:31.47	266.08	1.94	-49.1	-67.1	3.5	3.03e+01	0	33	104	637009920	60	87302
2026-01-28 19:03:34.50	265.84	1.77	-49.0	-66.9	3.5	3.03e+01	0	33	104	637009920	60	85626
2026-01-28 19:03:37.53	265.61	1.60	-48.8	-66.9	3.5	3.03e+01	0	33	104	637009920	60	85445
2026-01-28 19:03:40.56	265.38	1.43	-49.2	-67.0	3.5	3.03e+01	0	33	104	637009920	60	86536
2026-01-28 19:03:43.60	265.16	1.26	-49.1	-67.0	3.5	3.03e+01	0	33	104	637009920	60	85799
2026-01-28 19:03:46.63	264.94	1.09	-49.1	-67.0	3.5	3.03e+01	0	33	104	637009920	60	86328
2026-01-28 19:03:49.66	264.72	0.92	-49.1	-67.0	3.5	3.03e+01	0	33	104	637009920	60	86026
2026-01-28 19:03:52.69	264.50	0.75	-49.1	-67.0	3.5	3.03e+01	0	33	104	637009920	60	85870
2026-01-28 19:03:55.72	264.29	0.58	-49.1	-67.0	3.5	3.03e+01	0	33	104	637009920	60	85713
2026-01-28 19:03:58.74	264.07	0.42	-49.1	-67.0	3.5	3.03e+01	0	33	104	637009920	60	86180
2026-01-28 19:04:01.77	263.87	0.25	-49.1	-67.0	3.5	3.03e+01	0	33	104	637009920	60	85760
2026-01-28 19:04:04.80	263.66	0.08	-49.1	-67.0	3.5	3.03e+01	0	33	104	637009920	60	86190
2026-01-28 19:04:07.83	263.46	-0.08	-49.1	-67.0	3.5	3.03e+01	0	33	104	637009920	60	85931

#Closed at: 2026-01-28 19:04:08
#Recorded file [637 MB]: D:/lorett/data/35029_260129_065158.dat