passes_logs/2026/01/28/R4.6S_Anadyr/R4.6S_Anadyr__20260128_124059_NOAA_20_JPSS-1_rec.log

#Pass ID: 20260128_124059_NOAA 20 (JPSS-1)
#Satellite: NOAA 20 (JPSS-1)
#Configuration: NOAA 20
#almurnet v.1.7.20251203
#Start time: 2026-01-28 12:41:00

#Version: 2.2.20231116
#Station: R4.6S_Anadyr
#Location: 177.4865 lon 64.73178 lat
#TLE: 1 43013U 17073A   26027.80586608  .00000156  00000+0  94940-4 0  9998
#TLE: 2 43013  98.7647 328.6108 0000947  21.3465 338.7750 14.19541216424550

#Time	Az	El	Level	Level2	SNR	BER	BlckErr	Temp	State	Recorded	gain1	gain2
2026-01-28 12:41:00.30	18.85	0.06	-48.6	-63.4	3.5	1.51e+00	0	30	0	0	60	53708
2026-01-28 12:41:04.34	19.11	0.27	-48.6	-63.8	3.6	1.51e+00	0	32	104	0	60	56293
2026-01-28 12:41:08.38	19.38	0.48	-48.6	-63.9	3.6	1.51e+00	0	32	104	0	60	56853
2026-01-28 12:41:12.42	19.65	0.69	-48.7	-63.9	3.6	1.51e+00	0	32	104	0	60	56543
2026-01-28 12:41:16.45	19.92	0.90	-48.5	-63.7	3.6	1.51e+00	0	32	104	0	60	55627
2026-01-28 12:41:20.49	20.20	1.11	-48.1	-63.4	3.6	1.51e+00	0	32	104	0	60	53251
2026-01-28 12:41:24.54	20.48	1.32	-47.4	-62.6	3.6	1.51e+00	0	32	104	0	60	48763
2026-01-28 12:41:28.58	20.77	1.54	-47.1	-62.3	3.6	1.51e+00	0	32	104	0	60	46953
2026-01-28 12:41:32.62	21.06	1.75	-47.1	-62.2	3.6	1.51e+00	0	32	104	0	60	46393
2026-01-28 12:41:36.65	21.35	1.97	-47.1	-62.2	3.6	1.51e+00	0	32	104	0	60	46633
2026-01-28 12:41:40.69	21.65	2.19	-47.1	-62.2	3.6	1.51e+00	0	32	104	0	60	46509
2026-01-28 12:41:44.73	21.95	2.41	-47.1	-61.1	3.6	1.51e+00	0	32	104	0	60	40877
2026-01-28 12:41:48.77	22.25	2.62	-45.9	-51.8	9.5	1.73e-01	45	32	0	0	60	14089
2026-01-28 12:41:52.81	22.56	2.85	-41.0	-42.7	18.7	0.00e+00	37	32	0	7340032	56	6200
2026-01-28 12:41:56.85	22.88	3.07	-42.3	-44.4	16.8	0.00e+00	0	32	0	15728640	56	7561
2026-01-28 12:42:00.88	23.19	3.29	-45.5	-50.3	10.2	6.32e-02	92	32	104	20971520	60	11829
2026-01-28 12:42:04.92	23.52	3.51	-44.7	-48.3	13.3	4.77e-04	0	32	0	24117248	60	9417
2026-01-28 12:42:08.95	23.84	3.74	-44.6	-48.1	13.3	3.20e-05	31	32	0	31457280	60	9152
2026-01-28 12:42:12.99	24.18	3.97	-43.6	-46.3	15.2	0.00e+00	42	32	0	38797312	60	7473
2026-01-28 12:42:17.03	24.51	4.19	-43.4	-45.9	15.7	0.00e+00	91	32	0	47185920	60	7138
2026-01-28 12:42:21.07	24.86	4.42	-42.2	-44.2	17.2	0.00e+00	0	32	0	54525952	58	6588
2026-01-28 12:42:25.10	25.20	4.65	-41.4	-43.0	18.7	0.00e+00	0	32	0	61865984	56	6457
2026-01-28 12:42:29.13	25.55	4.88	-40.9	-42.4	19.0	0.00e+00	0	32	0	69206016	54	6758
2026-01-28 12:42:33.17	25.91	5.11	-41.2	-42.8	18.8	0.00e+00	92	32	0	76546048	54	7046
2026-01-28 12:42:37.21	26.28	5.35	-40.8	-42.3	19.5	0.00e+00	38	32	0	84934656	54	6629
2026-01-28 12:42:41.25	26.64	5.58	-40.5	-41.9	19.8	0.00e+00	49	32	0	92274688	54	6365
2026-01-28 12:42:45.28	27.02	5.82	-40.5	-41.9	19.8	0.00e+00	11	33	0	99614720	54	6372
2026-01-28 12:42:49.32	27.40	6.05	-40.1	-41.4	20.3	0.00e+00	91	32	0	106954752	54	6029
2026-01-28 12:42:53.36	27.78	6.29	-40.1	-41.4	20.3	0.00e+00	38	32	0	114294784	54	6000
2026-01-28 12:42:57.39	28.18	6.53	-40.3	-41.6	20.2	0.00e+00	49	32	0	122683392	54	6159
2026-01-28 12:43:01.43	28.57	6.77	-39.8	-41.1	20.6	0.00e+00	92	32	0	130023424	52	6497
2026-01-28 12:43:05.47	28.98	7.01	-39.8	-41.0	20.9	0.00e+00	92	32	0	137363456	52	6437
2026-01-28 12:43:09.50	29.39	7.25	-39.9	-41.1	20.9	0.00e+00	5	33	0	144703488	52	6528
2026-01-28 12:43:13.54	29.81	7.50	-39.9	-41.1	20.8	0.00e+00	5	32	0	153092096	52	6511
2026-01-28 12:43:17.58	30.23	7.74	-39.8	-41.0	21.0	0.00e+00	92	33	0	160432128	52	6406
2026-01-28 12:43:21.62	30.66	7.99	-39.4	-40.5	21.3	0.00e+00	7	33	0	167772160	52	6075
2026-01-28 12:43:25.66	31.10	8.23	-39.3	-40.5	21.4	0.00e+00	8	32	0	175112192	52	6056
2026-01-28 12:43:29.69	31.55	8.48	-39.2	-40.3	21.6	0.00e+00	0	33	0	182452224	52	5939
2026-01-28 12:43:33.73	32.00	8.73	-39.2	-40.3	21.6	0.00e+00	92	32	0	190840832	52	5955
2026-01-28 12:43:37.76	32.46	8.98	-39.1	-40.2	21.9	0.00e+00	39	33	0	198180864	52	5838
2026-01-28 12:43:41.80	32.92	9.23	-39.1	-40.2	21.7	0.00e+00	40	33	0	205520896	52	5881
2026-01-28 12:43:45.84	33.40	9.48	-39.0	-40.1	21.8	0.00e+00	46	33	0	212860928	52	5790
2026-01-28 12:43:49.87	33.88	9.73	-38.9	-39.9	22.0	0.00e+00	92	33	0	221249536	52	5690
2026-01-28 12:43:53.91	34.37	9.98	-38.7	-39.7	22.2	0.00e+00	40	33	0	228589568	50	6231
2026-01-28 12:43:57.95	34.87	10.24	-38.6	-39.6	22.4	0.00e+00	40	33	0	235929600	50	6136
2026-01-28 12:44:01.99	35.38	10.49	-38.2	-39.2	22.6	0.00e+00	39	33	0	243269632	50	5881
2026-01-28 12:44:06.03	35.90	10.75	-38.3	-39.3	22.7	0.00e+00	90	33	0	250609664	50	5907
2026-01-28 12:44:10.07	36.42	11.00	-38.1	-39.1	22.8	0.00e+00	0	33	0	258998272	50	5800
2026-01-28 12:44:14.10	36.96	11.26	-38.3	-39.3	22.6	0.00e+00	0	33	0	266338304	50	5943
2026-01-28 12:44:18.14	37.50	11.52	-38.6	-39.6	22.4	0.00e+00	0	32	0	273678336	50	6156
2026-01-28 12:44:22.18	38.05	11.77	-38.3	-39.3	22.8	0.00e+00	92	33	0	281018368	50	5899
2026-01-28 12:44:26.22	38.61	12.03	-38.3	-39.3	22.7	0.00e+00	0	33	0	289406976	50	5932
2026-01-28 12:44:30.26	39.19	12.29	-38.5	-39.5	22.6	0.00e+00	0	33	0	296747008	50	6099
2026-01-28 12:44:34.29	39.77	12.55	-38.4	-39.4	22.6	0.00e+00	26	33	0	304087040	50	5982
2026-01-28 12:44:38.33	40.36	12.80	-38.0	-38.9	23.1	0.00e+00	93	33	0	311427072	50	5665
2026-01-28 12:44:42.37	40.96	13.06	-37.8	-38.7	23.1	0.00e+00	0	33	0	318767104	48	6240
2026-01-28 12:44:46.41	41.57	13.32	-38.0	-38.9	23.1	0.00e+00	41	33	0	327155712	48	6368
2026-01-28 12:44:50.44	42.19	13.58	-38.1	-39.1	22.8	0.00e+00	75	33	0	334495744	48	6468
2026-01-28 12:44:54.48	42.82	13.83	-38.4	-39.4	22.8	0.00e+00	15	33	0	341835776	48	6707
2026-01-28 12:44:58.52	43.47	14.09	-38.2	-39.1	23.0	0.00e+00	40	33	0	349175808	48	6512
2026-01-28 12:45:02.56	44.12	14.35	-38.0	-39.0	23.1	0.00e+00	0	33	0	356515840	48	6411
2026-01-28 12:45:06.59	44.79	14.60	-37.9	-38.9	23.2	0.00e+00	90	33	0	364904448	48	6343
2026-01-28 12:45:10.62	45.46	14.86	-37.6	-38.5	23.6	0.00e+00	8	33	0	372244480	48	6074
2026-01-28 12:45:14.66	46.15	15.11	-37.5	-38.4	23.6	0.00e+00	7	33	0	379584512	48	6004
2026-01-28 12:45:18.70	46.85	15.36	-36.9	-37.8	24.2	0.00e+00	0	33	0	386924544	48	5575
2026-01-28 12:45:22.74	47.56	15.61	-36.7	-37.5	24.3	0.00e+00	92	33	0	395313152	46	6079
2026-01-28 12:45:26.77	48.28	15.86	-36.6	-37.4	24.5	0.00e+00	41	33	0	402653184	46	6014
2026-01-28 12:45:30.81	49.01	16.11	-36.6	-37.4	24.3	0.00e+00	40	33	0	409993216	46	6003
2026-01-28 12:45:34.85	49.76	16.36	-37.0	-37.8	24.1	0.00e+00	41	33	0	417333248	46	6300
2026-01-28 12:45:38.88	50.51	16.60	-36.8	-37.6	24.4	0.00e+00	90	33	0	424673280	46	6136
2026-01-28 12:45:42.92	51.28	16.84	-37.0	-37.8	24.1	0.00e+00	41	33	0	433061888	46	6300
2026-01-28 12:45:46.96	52.07	17.08	-37.3	-38.2	23.8	0.00e+00	3	33	0	440401920	46	6578
2026-01-28 12:45:50.99	52.86	17.31	-37.4	-38.2	23.8	0.00e+00	39	33	0	447741952	46	6599
2026-01-28 12:45:55.03	53.66	17.55	-37.5	-38.4	23.7	0.00e+00	90	33	0	455081984	46	6701
2026-01-28 12:45:59.06	54.48	17.78	-37.7	-38.6	23.5	0.00e+00	0	33	0	463470592	46	6879
2026-01-28 12:46:03.10	55.31	18.00	-38.0	-38.9	23.1	0.00e+00	0	33	0	470810624	48	6375
2026-01-28 12:46:07.14	56.15	18.22	-38.3	-39.3	22.9	0.00e+00	0	33	0	478150656	48	6621
2026-01-28 12:46:11.17	57.01	18.44	-38.7	-39.8	22.5	0.00e+00	92	33	0	485490688	48	7016
2026-01-28 12:46:15.21	57.87	18.66	-38.8	-39.8	22.2	0.00e+00	39	33	0	492830720	50	6315
2026-01-28 12:46:19.25	58.75	18.87	-39.2	-40.3	22.0	0.00e+00	0	33	0	501219328	50	6638
2026-01-28 12:46:23.29	59.64	19.07	-38.9	-39.9	22.4	0.00e+00	29	33	0	508559360	50	6384
2026-01-28 12:46:27.32	60.54	19.27	-38.6	-39.6	22.6	0.00e+00	0	33	0	515899392	50	6127
2026-01-28 12:46:31.36	61.45	19.46	-38.5	-39.6	22.7	0.00e+00	0	33	0	523239424	50	6121
2026-01-28 12:46:35.40	62.38	19.65	-38.5	-39.5	22.7	0.00e+00	0	33	0	531628032	50	6087
2026-01-28 12:46:39.43	63.31	19.83	-38.4	-39.4	22.8	0.00e+00	92	33	0	538968064	50	6017
2026-01-28 12:46:43.47	64.26	20.01	-38.1	-39.1	23.1	0.00e+00	0	33	0	546308096	50	5818
2026-01-28 12:46:47.51	65.21	20.18	-38.3	-39.3	22.9	0.00e+00	6	33	0	553648128	50	5949
2026-01-28 12:46:51.54	66.18	20.34	-38.4	-39.4	22.9	0.00e+00	0	33	0	560988160	50	5972
2026-01-28 12:46:55.58	67.16	20.49	-37.9	-38.8	23.3	0.00e+00	92	33	0	569376768	50	5615
2026-01-28 12:46:59.62	68.14	20.64	-37.8	-38.7	23.4	0.00e+00	47	33	0	576716800	48	6230
2026-01-28 12:47:03.66	69.14	20.78	-37.7	-38.6	23.5	0.00e+00	0	33	0	584056832	48	6127
2026-01-28 12:47:07.70	70.14	20.91	-37.5	-38.4	23.7	0.00e+00	0	33	0	591396864	48	6003
2026-01-28 12:47:11.74	71.15	21.04	-37.3	-38.2	23.9	0.00e+00	92	33	0	599785472	48	5833
2026-01-28 12:47:15.77	72.17	21.15	-37.7	-38.6	23.3	0.00e+00	40	33	0	607125504	48	6164
2026-01-28 12:47:19.81	73.20	21.26	-37.7	-38.6	23.6	0.00e+00	41	33	0	614465536	48	6149
2026-01-28 12:47:23.85	74.23	21.36	-38.3	-39.3	22.9	0.00e+00	39	33	0	621805568	48	6617
2026-01-28 12:47:27.88	75.27	21.45	-38.5	-39.5	22.6	0.00e+00	90	33	0	629145600	48	6783
2026-01-28 12:47:31.92	76.32	21.53	-37.6	-38.5	23.5	0.00e+00	0	33	0	637534208	48	6097
2026-01-28 12:47:35.96	77.37	21.60	-37.9	-38.9	23.2	0.00e+00	37	33	0	644874240	48	6330
2026-01-28 12:47:40.00	78.43	21.66	-38.4	-39.4	22.9	0.00e+00	30	33	0	652214272	48	6736
2026-01-28 12:47:44.04	79.49	21.71	-37.8	-38.8	23.4	0.00e+00	92	33	0	659554304	48	6252
2026-01-28 12:47:48.07	80.55	21.75	-38.2	-39.1	23.0	0.00e+00	0	33	0	667942912	48	6518
2026-01-28 12:47:52.11	81.61	21.79	-38.5	-39.5	22.8	0.00e+00	0	33	0	675282944	48	6777
2026-01-28 12:47:56.15	82.68	21.81	-37.6	-38.5	23.6	0.00e+00	0	33	0	682622976	48	6093
2026-01-28 12:48:00.19	83.75	21.82	-37.3	-38.2	23.8	0.00e+00	92	33	0	689963008	48	5879
2026-01-28 12:48:04.23	84.82	21.82	-38.1	-39.0	23.2	0.00e+00	44	33	0	697303040	48	6462
2026-01-28 12:48:08.26	85.88	21.81	-38.4	-39.4	22.3	0.00e+00	0	33	0	705691648	48	6723
2026-01-28 12:48:12.30	86.95	21.80	-38.4	-39.3	22.8	0.00e+00	92	33	0	713031680	48	6667
2026-01-28 12:48:16.34	88.02	21.77	-38.0	-38.9	23.3	0.00e+00	87	33	0	720371712	48	6358
2026-01-28 12:48:20.38	89.09	21.73	-38.3	-39.2	22.9	0.00e+00	41	33	0	727711744	48	6612
2026-01-28 12:48:24.42	90.15	21.68	-38.2	-39.2	23.0	0.00e+00	6	33	0	736100352	48	6594
2026-01-28 12:48:28.46	91.21	21.63	-37.9	-38.9	23.2	0.00e+00	92	33	0	743440384	48	6334
2026-01-28 12:48:32.49	92.26	21.56	-37.6	-38.5	23.6	0.00e+00	0	33	0	750780416	48	6084
2026-01-28 12:48:36.53	93.31	21.48	-37.6	-38.5	23.6	0.00e+00	35	33	0	758120448	48	6064
2026-01-28 12:48:40.57	94.35	21.40	-37.1	-38.0	24.0	0.00e+00	39	33	0	765460480	48	5699
2026-01-28 12:48:44.61	95.39	21.30	-37.5	-38.4	23.6	0.00e+00	92	33	0	773849088	48	5983
2026-01-28 12:48:48.64	96.42	21.20	-37.4	-38.4	23.8	0.00e+00	6	33	0	781189120	48	5969
2026-01-28 12:48:52.68	97.45	21.08	-37.1	-38.0	24.0	0.00e+00	0	33	0	788529152	48	5737
2026-01-28 12:48:56.72	98.46	20.96	-36.1	-36.9	25.0	0.00e+00	42	33	0	795869184	46	5639
2026-01-28 12:49:00.76	99.47	20.83	-36.4	-37.3	24.6	0.00e+00	92	33	0	804257792	46	5915
2026-01-28 12:49:04.80	100.48	20.70	-36.5	-37.4	24.5	0.00e+00	44	33	0	811597824	46	5974
2026-01-28 12:49:08.84	101.47	20.55	-36.3	-37.2	24.8	0.00e+00	45	33	0	818937856	46	5831
2026-01-28 12:49:12.88	102.45	20.40	-35.6	-36.4	25.4	0.00e+00	0	33	0	826277888	44	5996
2026-01-28 12:49:16.91	103.42	20.24	-35.4	-36.1	25.5	0.00e+00	92	33	0	833617920	44	5804
2026-01-28 12:49:20.94	104.38	20.07	-35.7	-36.5	25.2	0.00e+00	41	33	0	842006528	44	6092
2026-01-28 12:49:24.98	105.34	19.90	-36.6	-37.5	24.3	0.00e+00	42	33	0	849346560	44	6792
2026-01-28 12:49:29.02	106.28	19.72	-36.5	-37.3	24.4	0.00e+00	0	33	0	856686592	44	6688
2026-01-28 12:49:33.06	107.21	19.53	-36.2	-36.9	24.8	0.00e+00	92	33	0	864026624	44	6389
2026-01-28 12:49:37.10	108.13	19.34	-36.3	-37.1	24.5	0.00e+00	2	33	0	871366656	44	6531
2026-01-28 12:49:41.14	109.04	19.14	-37.6	-38.5	23.5	0.00e+00	41	33	0	879755264	46	6785
2026-01-28 12:49:45.17	109.94	18.94	-37.7	-38.6	23.5	0.00e+00	0	33	0	887095296	48	6148
2026-01-28 12:49:49.21	110.82	18.73	-37.7	-38.6	23.5	0.00e+00	92	33	0	894435328	48	6139
2026-01-28 12:49:53.25	111.70	18.51	-37.2	-38.1	24.0	0.00e+00	42	33	0	901775360	48	5779
2026-01-28 12:49:57.28	112.56	18.30	-37.4	-38.3	23.7	0.00e+00	0	33	0	910163968	48	5948
2026-01-28 12:50:01.32	113.41	18.07	-37.8	-38.7	23.3	0.00e+00	92	33	0	917504000	48	6217
2026-01-28 12:50:05.36	114.25	17.85	-37.8	-38.7	23.4	0.00e+00	90	33	0	924844032	48	6217
2026-01-28 12:50:09.39	115.07	17.62	-37.0	-37.9	24.0	0.00e+00	34	33	0	932184064	48	5646
2026-01-28 12:50:13.43	115.88	17.39	-37.2	-38.1	23.9	0.00e+00	41	33	0	939524096	48	5779
2026-01-28 12:50:17.47	116.68	17.15	-37.1	-38.0	23.9	0.00e+00	92	33	0	947912704	48	5723
2026-01-28 12:50:21.50	117.47	16.91	-37.6	-38.5	23.4	0.00e+00	0	33	0	955252736	48	6095
2026-01-28 12:50:25.53	118.25	16.67	-37.6	-38.6	23.4	0.00e+00	7	33	0	962592768	48	6161
2026-01-28 12:50:29.56	119.01	16.42	-37.7	-38.6	23.3	0.00e+00	48	33	0	969932800	48	6142
2026-01-28 12:50:33.60	119.76	16.18	-37.5	-38.4	23.5	0.00e+00	90	33	0	977272832	48	5983
2026-01-28 12:50:37.64	120.51	15.93	-37.0	-37.9	23.9	0.00e+00	6	33	0	985661440	48	5671
2026-01-28 12:50:41.68	121.24	15.68	-38.0	-39.0	23.1	0.00e+00	7	33	0	993001472	48	6394
2026-01-28 12:50:45.72	121.95	15.43	-37.4	-38.4	23.5	0.00e+00	33	33	0	1000341504	48	6013
2026-01-28 12:50:49.75	122.66	15.17	-37.6	-38.6	23.4	0.00e+00	92	33	0	1007681536	48	6111
2026-01-28 12:50:53.79	123.35	14.92	-37.7	-38.6	23.3	0.00e+00	42	33	0	1016070144	48	6162
2026-01-28 12:50:57.83	124.03	14.66	-37.1	-38.0	23.8	0.00e+00	2	33	0	1023410176	48	5743
2026-01-28 12:51:01.86	124.70	14.40	-38.0	-38.9	23.1	0.00e+00	47	33	0	1030750208	48	6356
2026-01-28 12:51:05.90	125.36	14.15	-37.9	-38.9	23.1	0.00e+00	92	33	0	1038090240	48	6324
2026-01-28 12:51:09.94	126.01	13.89	-37.9	-38.9	23.1	0.00e+00	0	33	0	1045430272	48	6342
2026-01-28 12:51:13.98	126.65	13.63	-38.2	-39.3	22.9	0.00e+00	37	33	0	1053818880	48	6618
2026-01-28 12:51:18.02	127.28	13.37	-37.8	-38.8	23.2	0.00e+00	70	33	0	1061158912	48	6266
2026-01-28 12:51:22.05	127.90	13.11	-37.7	-38.6	23.2	0.00e+00	91	33	0	1068498944	48	6164
2026-01-28 12:51:26.09	128.50	12.85	-38.4	-39.4	22.7	0.00e+00	0	33	0	1075838976	48	6712
2026-01-28 12:51:30.12	129.10	12.59	-37.9	-38.8	23.1	0.00e+00	0	33	0	1084227584	48	6311
2026-01-28 12:51:34.16	129.69	12.33	-38.1	-39.1	22.9	0.00e+00	32	33	0	1091567616	48	6472
2026-01-28 12:51:38.20	130.26	12.07	-38.3	-39.3	22.7	0.00e+00	92	33	0	1098907648	48	6617
2026-01-28 12:51:42.23	130.83	11.81	-38.2	-39.1	22.7	0.00e+00	0	33	0	1106247680	48	6530
2026-01-28 12:51:46.27	131.38	11.55	-38.6	-39.7	22.2	0.00e+00	0	33	0	1113587712	48	6960
2026-01-28 12:51:50.30	131.93	11.29	-39.2	-40.3	21.7	0.00e+00	92	33	0	1121976320	50	6674
2026-01-28 12:51:54.34	132.47	11.03	-38.9	-40.0	22.1	0.00e+00	2	33	0	1129316352	50	6412
2026-01-28 12:51:58.38	133.00	10.77	-38.4	-39.4	22.5	0.00e+00	35	33	0	1136656384	50	5981
2026-01-28 12:52:02.42	133.52	10.52	-38.5	-39.5	22.4	0.00e+00	6	33	0	1143996416	50	6098
2026-01-28 12:52:06.45	134.03	10.26	-38.5	-39.5	22.4	0.00e+00	92	33	0	1151336448	50	6070
2026-01-28 12:52:10.49	134.53	10.00	-38.9	-39.9	22.0	0.00e+00	6	33	0	1159725056	50	6381
2026-01-28 12:52:14.53	135.03	9.75	-39.4	-40.5	21.4	0.00e+00	34	33	0	1167065088	50	6833
2026-01-28 12:52:18.57	135.52	9.49	-39.2	-40.4	21.5	0.00e+00	34	33	0	1174405120	50	6722
2026-01-28 12:52:22.60	135.99	9.24	-39.1	-40.2	21.6	0.00e+00	92	33	0	1181745152	50	6589
2026-01-28 12:52:26.64	136.46	8.99	-39.1	-40.2	21.6	0.00e+00	6	33	0	1190133760	50	6610
2026-01-28 12:52:30.67	136.93	8.74	-39.4	-40.6	21.3	0.00e+00	0	33	0	1197473792	50	6878
2026-01-28 12:52:34.71	137.38	8.48	-39.7	-40.9	20.9	0.00e+00	5	33	0	1204813824	52	6382
2026-01-28 12:52:38.75	137.83	8.23	-39.9	-41.2	20.7	0.00e+00	90	33	0	1212153856	52	6610
2026-01-28 12:52:42.78	138.27	7.99	-40.4	-41.8	20.2	0.00e+00	47	33	0	1219493888	52	7082
2026-01-28 12:52:46.81	138.70	7.74	-40.8	-42.3	19.4	0.00e+00	46	33	0	1227882496	54	6647
2026-01-28 12:52:50.85	139.13	7.49	-41.1	-42.7	18.8	0.00e+00	0	33	0	1235222528	54	6963
2026-01-28 12:52:54.89	139.55	7.25	-41.8	-44.0	16.0	0.00e+00	92	33	0	1242562560	56	7227
2026-01-28 12:52:58.93	139.96	7.00	-42.6	-45.2	15.1	6.34e-04	4	33	0	1249902592	56	8319
2026-01-28 12:53:02.97	140.37	6.76	-43.3	-46.6	11.5	1.89e-02	28	33	0	1258291200	58	8669
2026-01-28 12:53:07.00	140.77	6.52	-43.9	-48.2	11.7	2.40e-03	4	33	0	1265631232	60	9313
2026-01-28 12:53:11.04	141.16	6.27	-43.7	-48.8	7.9	9.12e-02	92	33	0	1272971264	60	9991
2026-01-28 12:53:15.08	141.55	6.03	-44.3	-49.4	9.9	1.25e-02	0	33	0	1280311296	60	10699
2026-01-28 12:53:19.11	141.93	5.79	-44.1	-48.4	11.5	3.79e-03	0	33	0	1287651328	60	9554
2026-01-28 12:53:23.15	142.30	5.56	-43.4	-46.7	13.9	2.74e-05	0	33	0	1296039936	60	7791
2026-01-28 12:53:27.18	142.67	5.32	-42.8	-45.6	14.6	7.00e-07	92	33	0	1303379968	58	7702
2026-01-28 12:53:31.22	143.04	5.09	-41.7	-43.9	16.9	0.00e+00	0	33	0	1310720000	58	6347
2026-01-28 12:53:35.25	143.40	4.85	-41.7	-43.8	17.2	0.00e+00	0	33	0	1318060032	56	7064
2026-01-28 12:53:39.28	143.75	4.62	-41.8	-43.8	17.2	0.00e+00	90	33	0	1326448640	56	7043
2026-01-28 12:53:43.31	144.09	4.39	-41.8	-43.8	17.0	0.00e+00	92	33	0	1333788672	56	7088
2026-01-28 12:53:47.35	144.44	4.16	-42.4	-44.8	16.2	0.00e+00	0	33	0	1341128704	56	7865
2026-01-28 12:53:51.39	144.77	3.93	-41.6	-43.6	17.3	0.00e+00	49	33	0	1348468736	56	6882
2026-01-28 12:53:55.43	145.11	3.70	-42.0	-44.2	16.8	0.00e+00	92	33	0	1355808768	56	7352
2026-01-28 12:53:59.47	145.44	3.47	-42.2	-44.5	16.4	0.00e+00	6	33	0	1364197376	56	7635
2026-01-28 12:54:03.51	145.76	3.24	-42.2	-44.6	16.4	0.00e+00	5	33	0	1371537408	56	7758
2026-01-28 12:54:07.55	146.08	3.02	-46.6	-60.9	3.5	0.00e+00	0	33	0	1378877440	60	40248
2026-01-28 12:54:11.59	146.39	2.79	-48.0	-63.4	3.6	1.51e+00	0	33	104	1378877440	60	53471
2026-01-28 12:54:15.63	146.70	2.57	-48.5	-63.8	3.6	1.51e+00	0	33	104	1378877440	60	55774
2026-01-28 12:54:19.67	147.00	2.35	-48.6	-63.9	3.6	1.51e+00	0	33	104	1378877440	60	56601
2026-01-28 12:54:23.71	147.30	2.13	-48.6	-63.9	3.6	1.51e+00	0	33	104	1378877440	60	56487
2026-01-28 12:54:27.76	147.60	1.91	-48.6	-63.9	3.6	1.51e+00	0	33	104	1378877440	60	56310
2026-01-28 12:54:31.80	147.89	1.69	-48.6	-63.8	3.6	1.51e+00	0	33	104	1378877440	60	55765
2026-01-28 12:54:35.84	148.18	1.47	-48.6	-63.8	3.6	1.51e+00	0	33	104	1378877440	60	56019
2026-01-28 12:54:39.88	148.47	1.26	-48.6	-63.8	3.6	1.51e+00	0	33	104	1378877440	60	55700
2026-01-28 12:54:43.92	148.75	1.04	-48.6	-63.8	3.6	1.51e+00	0	33	104	1378877440	60	55860
2026-01-28 12:54:47.96	149.02	0.83	-48.6	-63.8	3.6	1.51e+00	0	33	104	1378877440	60	55967
2026-01-28 12:54:52.00	149.29	0.61	-48.6	-63.8	3.6	1.51e+00	0	33	104	1378877440	60	55893
2026-01-28 12:54:56.04	149.56	0.40	-48.6	-63.8	3.5	1.51e+00	0	33	104	1378877440	60	55947
2026-01-28 12:55:00.08	149.83	0.19	-48.6	-63.7	3.6	1.51e+00	0	33	104	1378877440	60	55601
2026-01-28 12:55:04.12	150.09	-0.02	-48.6	-63.8	3.6	1.51e+00	0	33	104	1378877440	60	55979

#Closed at: 2026-01-28 12:55:06
#Recorded file [1378 MB]: D:/lorett/data/35029_260129_004100.dat