passes_logs/2026/01/28/R4.6S_Anadyr/R4.6S_Anadyr__20260128_003534_NOAA_20_JPSS-1_rec.log

#Pass ID: 20260128_003534_NOAA 20 (JPSS-1)
#Satellite: NOAA 20 (JPSS-1)
#Configuration: NOAA 20
#almurnet v.1.7.20251203
#Start time: 2026-01-28 00:35:35

#Version: 2.2.20231116
#Station: R4.6S_Anadyr
#Location: 177.4865 lon 64.73178 lat
#TLE: 1 43013U 17073A   26027.59441131  .00000157  00000+0  95517-4 0  9997
#TLE: 2 43013  98.7647 328.4016 0000956  21.7206 338.4011 14.19541123424524

#Time	Az	El	Level	Level2	SNR	BER	BlckErr	Temp	State	Recorded	gain1	gain2
2026-01-28 00:35:35.63	165.55	0.09	-48.8	-63.8	3.5	1.51e+00	0	30	0	0	60	55734
2026-01-28 00:35:39.67	165.61	0.33	-48.9	-64.0	3.6	1.51e+00	0	31	104	0	60	57545
2026-01-28 00:35:43.71	165.67	0.57	-48.9	-64.1	3.6	1.51e+00	0	31	104	0	60	58136
2026-01-28 00:35:47.75	165.73	0.82	-48.9	-64.1	3.6	1.51e+00	0	31	104	0	60	58011
2026-01-28 00:35:51.78	165.79	1.07	-48.6	-63.8	3.6	1.51e+00	0	31	104	0	60	56257
2026-01-28 00:35:55.82	165.85	1.32	-46.7	-61.9	3.6	1.51e+00	0	31	104	0	60	44883
2026-01-28 00:35:59.86	165.91	1.57	-47.5	-62.6	3.6	1.51e+00	0	31	104	0	60	48976
2026-01-28 00:36:03.90	165.98	1.83	-47.5	-62.6	3.6	1.51e+00	0	31	104	0	60	48787
2026-01-28 00:36:07.94	166.04	2.09	-47.5	-62.6	3.6	1.51e+00	0	31	104	0	60	48519
2026-01-28 00:36:11.98	166.11	2.35	-47.4	-62.1	3.6	1.51e+00	0	31	104	0	60	45771
2026-01-28 00:36:16.02	166.17	2.61	-47.4	-60.5	3.6	1.51e+00	0	31	104	0	60	38489
2026-01-28 00:36:20.06	166.24	2.87	-47.4	-61.3	3.6	1.51e+00	0	31	104	0	60	41775
2026-01-28 00:36:24.10	166.31	3.14	-45.7	-50.4	11.3	1.14e-02	0	32	0	5242880	60	11939
2026-01-28 00:36:28.14	166.38	3.41	-42.5	-44.6	17.0	0.00e+00	0	32	0	11534336	58	6862
2026-01-28 00:36:32.18	166.45	3.68	-42.7	-44.9	16.6	0.00e+00	0	32	0	18874368	56	7956
2026-01-28 00:36:36.21	166.52	3.96	-47.4	-60.7	3.6	7.29e-01	0	31	104	26214400	60	39379
2026-01-28 00:36:40.25	166.59	4.24	-44.6	-47.9	14.5	1.22e-05	0	32	0	31457280	60	9015
2026-01-28 00:36:44.29	166.67	4.52	-44.0	-46.7	14.8	7.00e-07	0	32	0	38797312	60	7850
2026-01-28 00:36:48.33	166.74	4.80	-43.9	-46.6	16.0	0.00e+00	0	32	0	46137344	60	7734
2026-01-28 00:36:52.37	166.82	5.09	-42.6	-44.6	17.4	0.00e+00	0	32	0	54525952	58	6851
2026-01-28 00:36:56.40	166.90	5.38	-41.7	-43.3	18.9	0.00e+00	0	32	0	61865984	56	6688
2026-01-28 00:37:00.43	166.97	5.67	-41.4	-43.0	18.9	0.00e+00	0	32	0	69206016	56	6416
2026-01-28 00:37:04.47	167.05	5.97	-40.6	-42.0	19.9	0.00e+00	0	32	0	76546048	54	6437
2026-01-28 00:37:08.51	167.14	6.27	-40.6	-42.0	20.0	0.00e+00	0	32	0	84934656	54	6434
2026-01-28 00:37:12.55	167.22	6.57	-39.9	-41.2	20.7	0.00e+00	0	32	0	92274688	54	5848
2026-01-28 00:37:16.59	167.30	6.88	-39.8	-41.0	21.0	0.00e+00	0	32	0	99614720	52	6417
2026-01-28 00:37:20.63	167.39	7.19	-39.5	-40.7	21.4	0.00e+00	0	32	0	106954752	52	6190
2026-01-28 00:37:24.67	167.48	7.50	-39.6	-40.8	21.3	0.00e+00	0	32	0	114294784	52	6256
2026-01-28 00:37:28.71	167.57	7.82	-39.3	-40.4	21.6	0.00e+00	0	32	0	122683392	52	5983
2026-01-28 00:37:32.74	167.66	8.14	-39.5	-40.7	21.4	0.00e+00	0	32	0	130023424	52	6192
2026-01-28 00:37:36.78	167.75	8.47	-39.7	-40.8	21.3	0.00e+00	0	32	0	137363456	52	6277
2026-01-28 00:37:40.81	167.84	8.80	-39.2	-40.3	21.9	0.00e+00	0	32	0	144703488	52	5943
2026-01-28 00:37:44.85	167.94	9.13	-38.9	-39.9	22.2	0.00e+00	0	32	0	153092096	52	5669
2026-01-28 00:37:48.89	168.04	9.47	-38.5	-39.5	22.6	0.00e+00	0	32	0	160432128	50	6092
2026-01-28 00:37:52.93	168.14	9.82	-38.3	-39.3	22.7	0.00e+00	0	32	0	167772160	50	5948
2026-01-28 00:37:56.97	168.24	10.17	-38.6	-39.6	22.6	0.00e+00	0	32	0	175112192	50	6140
2026-01-28 00:38:01.01	168.35	10.52	-38.1	-39.0	23.0	0.00e+00	0	32	0	182452224	50	5752
2026-01-28 00:38:05.05	168.45	10.88	-38.0	-38.9	23.3	0.00e+00	0	32	0	190840832	50	5691
2026-01-28 00:38:09.09	168.56	11.24	-38.0	-39.0	23.2	0.00e+00	0	32	0	198180864	50	5705
2026-01-28 00:38:13.13	168.67	11.61	-37.9	-38.8	23.4	0.00e+00	0	32	0	205520896	50	5574
2026-01-28 00:38:17.17	168.79	11.99	-37.7	-38.6	23.5	0.00e+00	0	32	0	212860928	48	6152
2026-01-28 00:38:21.21	168.90	12.37	-37.7	-38.6	23.5	0.00e+00	0	32	0	221249536	48	6149
2026-01-28 00:38:25.25	169.02	12.76	-37.8	-38.7	23.5	0.00e+00	0	32	0	228589568	48	6198
2026-01-28 00:38:29.29	169.14	13.15	-37.7	-38.6	23.6	0.00e+00	0	32	0	235929600	48	6123
2026-01-28 00:38:33.33	169.27	13.55	-37.8	-38.7	23.6	0.00e+00	0	32	0	243269632	48	6182
2026-01-28 00:38:37.37	169.40	13.96	-37.7	-38.6	23.5	0.00e+00	0	32	0	250609664	48	6158
2026-01-28 00:38:41.41	169.53	14.37	-37.3	-38.2	23.9	0.00e+00	0	32	0	258998272	48	5868
2026-01-28 00:38:45.44	169.66	14.79	-37.3	-38.1	24.0	0.00e+00	0	32	0	266338304	48	5815
2026-01-28 00:38:49.48	169.80	15.22	-37.3	-38.1	24.0	0.00e+00	0	32	0	273678336	48	5820
2026-01-28 00:38:53.52	169.94	15.65	-37.4	-38.2	23.9	0.00e+00	0	32	0	281018368	48	5887
2026-01-28 00:38:57.55	170.09	16.09	-37.4	-38.3	23.9	0.00e+00	0	32	0	289406976	48	5916
2026-01-28 00:39:01.59	170.24	16.54	-37.6	-38.5	23.8	0.00e+00	0	32	0	296747008	48	6085
2026-01-28 00:39:05.63	170.39	17.00	-37.6	-38.4	23.9	0.00e+00	0	32	0	304087040	48	6028
2026-01-28 00:39:09.67	170.55	17.47	-37.9	-38.8	23.5	0.00e+00	0	32	0	311427072	48	6271
2026-01-28 00:39:13.71	170.71	17.94	-38.1	-39.0	23.3	0.00e+00	0	32	0	318767104	48	6422
2026-01-28 00:39:17.75	170.88	18.43	-38.3	-39.3	23.1	0.00e+00	0	32	0	327155712	48	6635
2026-01-28 00:39:21.78	171.05	18.92	-38.7	-39.7	22.8	0.00e+00	0	32	0	334495744	50	6176
2026-01-28 00:39:25.82	171.23	19.43	-38.7	-39.7	22.7	0.00e+00	0	32	0	341835776	50	6226
2026-01-28 00:39:29.86	171.41	19.94	-38.8	-39.8	22.6	0.00e+00	0	32	0	349175808	50	6307
2026-01-28 00:39:33.90	171.60	20.47	-38.9	-39.9	22.6	0.00e+00	0	32	0	357564416	50	6371
2026-01-28 00:39:37.94	171.80	21.01	-38.9	-39.9	22.7	0.00e+00	0	32	0	364904448	50	6354
2026-01-28 00:39:41.98	172.00	21.56	-38.8	-39.8	22.8	0.00e+00	0	32	0	372244480	50	6284
2026-01-28 00:39:46.02	172.21	22.12	-38.9	-39.9	22.7	0.00e+00	0	32	0	379584512	50	6321
2026-01-28 00:39:50.06	172.42	22.69	-38.6	-39.6	23.0	0.00e+00	0	32	0	386924544	50	6108
2026-01-28 00:39:54.10	172.64	23.27	-38.3	-39.3	23.3	0.00e+00	0	32	0	395313152	50	5911
2026-01-28 00:39:58.13	172.87	23.87	-38.2	-39.2	23.3	0.00e+00	0	32	0	402653184	50	5833
2026-01-28 00:40:02.17	173.11	24.48	-38.1	-39.0	23.4	0.00e+00	0	32	0	409993216	50	5743
2026-01-28 00:40:06.22	173.36	25.11	-38.1	-39.0	23.5	0.00e+00	0	32	0	417333248	50	5709
2026-01-28 00:40:10.25	173.62	25.75	-38.2	-39.1	23.4	0.00e+00	0	32	0	425721856	50	5819
2026-01-28 00:40:14.29	173.89	26.40	-38.5	-39.5	23.1	0.00e+00	0	32	0	433061888	50	6040
2026-01-28 00:40:18.33	174.17	27.07	-38.8	-39.8	22.7	0.00e+00	0	32	0	440401920	50	6279
2026-01-28 00:40:22.37	174.46	27.76	-39.2	-40.2	22.3	0.00e+00	0	32	0	447741952	50	6587
2026-01-28 00:40:26.41	174.76	28.47	-39.2	-40.3	22.4	0.00e+00	0	32	0	455081984	50	6616
2026-01-28 00:40:30.45	175.07	29.19	-39.3	-40.3	22.3	0.00e+00	0	32	0	463470592	50	6659
2026-01-28 00:40:34.49	175.40	29.93	-39.7	-40.8	21.9	0.00e+00	0	32	0	470810624	50	7029
2026-01-28 00:40:38.53	175.75	30.69	-40.2	-41.4	21.5	0.00e+00	0	32	0	478150656	52	6708
2026-01-28 00:40:42.57	176.11	31.46	-40.2	-41.3	21.5	0.00e+00	0	32	0	485490688	52	6670
2026-01-28 00:40:46.61	176.48	32.26	-40.3	-41.4	21.4	0.00e+00	0	32	0	493879296	52	6747
2026-01-28 00:40:50.65	176.88	33.08	-39.7	-40.8	21.9	0.00e+00	0	32	0	501219328	52	6281
2026-01-28 00:40:54.69	177.30	33.92	-39.3	-40.3	22.4	0.00e+00	0	32	0	508559360	52	5928
2026-01-28 00:40:58.73	177.73	34.78	-39.4	-40.4	22.3	0.00e+00	0	32	0	515899392	52	6026
2026-01-28 00:41:02.77	178.19	35.66	-39.3	-40.3	22.4	0.00e+00	0	32	0	523239424	52	5909
2026-01-28 00:41:06.81	178.68	36.57	-38.9	-39.9	22.8	0.00e+00	0	32	0	531628032	52	5667
2026-01-28 00:41:10.85	179.19	37.50	-39.2	-40.2	22.6	0.00e+00	0	32	0	538968064	52	5853
2026-01-28 00:41:14.88	179.73	38.45	-39.6	-40.7	22.1	0.00e+00	0	32	0	546308096	52	6184
2026-01-28 00:41:18.92	180.30	39.43	-40.6	-41.9	21.0	0.00e+00	0	32	0	553648128	52	7092
2026-01-28 00:41:22.96	180.91	40.43	-40.9	-42.2	20.6	0.00e+00	0	32	0	562036736	54	6549
2026-01-28 00:41:26.99	181.56	41.46	-40.6	-41.8	21.0	0.00e+00	0	32	0	569376768	54	6285
2026-01-28 00:41:31.03	182.24	42.51	-41.1	-42.4	20.4	0.00e+00	0	32	0	576716800	54	6736
2026-01-28 00:41:35.07	182.98	43.59	-40.1	-41.2	21.6	0.00e+00	0	32	0	584056832	54	5872
2026-01-28 00:41:39.11	183.76	44.70	-41.0	-42.2	20.7	0.00e+00	0	32	0	591396864	54	6601
2026-01-28 00:41:43.15	184.61	45.83	-41.6	-43.0	19.9	0.00e+00	0	32	0	599785472	54	7213
2026-01-28 00:41:47.19	185.51	46.98	-40.8	-42.1	20.8	0.00e+00	0	32	0	607125504	54	6496
2026-01-28 00:41:51.22	186.48	48.16	-39.9	-41.0	21.8	0.00e+00	0	32	0	614465536	54	5739
2026-01-28 00:41:55.26	187.53	49.37	-39.6	-40.7	22.1	0.00e+00	0	32	0	621805568	52	6200
2026-01-28 00:41:59.30	188.66	50.59	-37.5	-38.4	24.2	0.00e+00	0	32	0	630194176	48	5990
2026-01-28 00:42:03.34	189.89	51.84	-37.1	-37.9	24.5	0.00e+00	0	32	0	637534208	48	5674
2026-01-28 00:42:07.37	191.22	53.10	-35.9	-36.7	25.6	0.00e+00	0	32	0	644874240	46	5526
2026-01-28 00:42:11.41	192.67	54.38	-35.8	-36.5	25.6	0.00e+00	0	32	0	652214272	44	6074
2026-01-28 00:42:15.45	194.26	55.67	-36.0	-36.8	25.4	0.00e+00	0	32	0	659554304	44	6263
2026-01-28 00:42:19.49	196.01	56.97	-37.2	-38.0	24.4	0.00e+00	0	32	0	667942912	46	6457
2026-01-28 00:42:23.53	197.92	58.28	-37.2	-38.1	24.3	0.00e+00	0	32	0	675282944	46	6500
2026-01-28 00:42:27.57	200.03	59.58	-36.9	-37.7	24.5	0.00e+00	0	32	0	682622976	46	6231
2026-01-28 00:42:31.61	202.35	60.86	-35.6	-36.3	25.7	0.00e+00	0	32	0	689963008	44	5946
2026-01-28 00:42:35.65	204.93	62.13	-35.9	-36.6	25.3	0.00e+00	0	32	0	698351616	44	6149
2026-01-28 00:42:39.68	207.77	63.37	-36.6	-37.4	24.8	0.00e+00	0	32	0	705691648	46	6023
2026-01-28 00:42:43.72	210.93	64.56	-37.7	-38.6	23.8	0.00e+00	0	32	0	713031680	46	6876
2026-01-28 00:42:47.76	214.42	65.69	-37.6	-38.5	23.9	0.00e+00	0	32	0	720371712	48	6044
2026-01-28 00:42:51.80	218.28	66.76	-37.3	-38.2	24.1	0.00e+00	0	32	0	727711744	48	5850
2026-01-28 00:42:55.84	222.52	67.73	-38.0	-38.9	23.6	0.00e+00	0	32	0	736100352	48	6353
2026-01-28 00:42:59.87	227.15	68.58	-39.1	-40.1	22.6	0.00e+00	0	32	0	743440384	50	6491
2026-01-28 00:43:03.91	232.17	69.30	-39.2	-40.2	22.4	0.00e+00	0	32	0	750780416	50	6600
2026-01-28 00:43:07.95	237.54	69.88	-38.3	-39.2	23.4	0.00e+00	0	32	0	758120448	50	5881
2026-01-28 00:43:11.99	243.19	70.28	-38.3	-39.2	23.3	0.00e+00	0	32	0	766509056	50	5894
2026-01-28 00:43:16.03	249.03	70.49	-36.9	-37.8	24.5	0.00e+00	0	32	0	773849088	48	5574
2026-01-28 00:43:20.07	254.95	70.52	-36.2	-37.0	25.2	0.00e+00	0	32	0	781189120	46	5721
2026-01-28 00:43:24.10	260.81	70.35	-37.7	-38.6	23.9	0.00e+00	0	32	0	788529152	46	6854
2026-01-28 00:43:28.14	266.52	69.99	-38.8	-39.8	22.9	0.00e+00	0	32	0	795869184	50	6246
2026-01-28 00:43:32.18	271.96	69.46	-40.8	-42.0	20.7	0.00e+00	0	32	0	804257792	52	7223
2026-01-28 00:43:36.22	277.07	68.78	-39.8	-40.9	21.7	0.00e+00	0	32	0	811597824	52	6358
2026-01-28 00:43:40.26	281.80	67.95	-39.8	-40.9	21.7	0.00e+00	0	32	0	818937856	52	6363
2026-01-28 00:43:44.29	286.13	67.02	-37.2	-38.0	24.4	0.00e+00	0	32	0	826277888	48	5721
2026-01-28 00:43:48.33	290.08	65.98	-37.5	-38.4	24.1	0.00e+00	0	32	0	833617920	48	5968
2026-01-28 00:43:52.37	293.66	64.86	-37.9	-38.8	23.7	0.00e+00	0	32	0	842006528	50	5604
2026-01-28 00:43:56.40	296.89	63.69	-37.0	-37.8	24.6	0.00e+00	0	32	0	849346560	48	5600
2026-01-28 00:44:00.44	299.81	62.46	-36.1	-36.9	25.3	0.00e+00	0	32	0	856686592	44	6376
2026-01-28 00:44:04.48	302.45	61.20	-35.3	-36.1	26.0	0.00e+00	0	32	0	864026624	44	5771
2026-01-28 00:44:08.52	304.83	59.92	-34.0	-34.7	26.9	0.00e+00	0	32	0	872415232	42	5534
2026-01-28 00:44:12.56	306.99	58.63	-35.7	-36.4	25.7	0.00e+00	0	32	0	879755264	44	6026
2026-01-28 00:44:16.60	308.95	57.33	-39.5	-40.6	22.2	0.00e+00	0	32	0	887095296	50	6918
2026-01-28 00:44:20.64	310.73	56.04	-37.2	-38.1	24.3	0.00e+00	0	32	0	894435328	46	6486
2026-01-28 00:44:24.68	312.36	54.75	-34.4	-35.1	26.6	0.00e+00	0	32	0	901775360	42	5811
2026-01-28 00:44:28.71	313.84	53.47	-35.0	-35.7	26.1	0.00e+00	0	32	0	910163968	42	6226
2026-01-28 00:44:32.75	315.21	52.20	-33.4	-34.0	27.5	0.00e+00	0	32	0	917504000	40	5743
2026-01-28 00:44:36.79	316.46	50.96	-37.3	-38.3	24.2	0.00e+00	0	32	0	924844032	46	6640
2026-01-28 00:44:40.83	317.61	49.73	-37.2	-38.0	24.3	0.00e+00	0	32	0	932184064	46	6424
2026-01-28 00:44:44.86	318.68	48.53	-41.9	-43.7	19.3	0.00e+00	0	32	0	940572672	58	6222
2026-01-28 00:44:48.90	319.67	47.35	-39.4	-40.5	22.2	0.00e+00	0	32	0	947912704	52	6065
2026-01-28 00:44:52.94	320.59	46.19	-40.0	-41.1	21.6	0.00e+00	0	32	0	955252736	54	5828
2026-01-28 00:44:56.97	321.45	45.06	-37.5	-38.4	24.0	0.00e+00	0	32	0	962592768	48	5985
2026-01-28 00:45:01.01	322.24	43.95	-39.7	-40.9	21.7	0.00e+00	0	32	0	969932800	50	7165
2026-01-28 00:45:05.05	322.99	42.87	-36.7	-37.5	24.8	0.00e+00	0	32	0	978321408	46	6057
2026-01-28 00:45:09.09	323.69	41.81	-36.8	-37.7	24.7	0.00e+00	0	32	0	985661440	46	6197
2026-01-28 00:45:13.12	324.35	40.78	-38.6	-39.6	23.0	0.00e+00	0	32	0	993001472	50	6166
2026-01-28 00:45:17.16	324.97	39.77	-36.1	-36.8	25.5	0.00e+00	0	32	0	1000341504	46	5613
2026-01-28 00:45:21.20	325.55	38.79	-38.1	-39.0	23.3	0.00e+00	0	32	0	1008730112	48	6424
2026-01-28 00:45:25.24	326.10	37.84	-38.3	-39.3	23.3	0.00e+00	0	32	0	1016070144	50	5930
2026-01-28 00:45:29.28	326.62	36.90	-36.3	-37.1	25.3	0.00e+00	0	32	0	1023410176	46	5804
2026-01-28 00:45:33.32	327.11	36.00	-37.1	-37.9	24.6	0.00e+00	0	32	0	1030750208	46	6355
2026-01-28 00:45:37.36	327.58	35.11	-37.7	-38.6	23.8	0.00e+00	0	32	0	1038090240	46	6854
2026-01-28 00:45:41.40	328.02	34.25	-37.6	-38.5	24.0	0.00e+00	0	32	0	1046478848	48	6070
2026-01-28 00:45:45.44	328.45	33.41	-37.7	-38.6	23.9	0.00e+00	0	32	0	1053818880	48	6140
2026-01-28 00:45:49.48	328.85	32.59	-38.1	-39.0	23.6	0.00e+00	0	32	0	1061158912	48	6408
2026-01-28 00:45:53.52	329.23	31.79	-38.5	-39.4	23.1	0.00e+00	0	32	0	1068498944	48	6762
2026-01-28 00:45:57.56	329.60	31.01	-39.3	-40.3	22.3	0.00e+00	0	32	0	1076887552	50	6684
2026-01-28 00:46:01.60	329.95	30.25	-38.8	-39.8	22.7	0.00e+00	0	32	0	1084227584	50	6250
2026-01-28 00:46:05.64	330.28	29.50	-38.0	-38.9	23.6	0.00e+00	0	32	0	1091567616	50	5664
2026-01-28 00:46:09.68	330.60	28.78	-37.6	-38.5	23.9	0.00e+00	0	32	0	1098907648	48	6038
2026-01-28 00:46:13.72	330.91	28.07	-37.9	-38.8	23.7	0.00e+00	0	32	0	1106247680	48	6288
2026-01-28 00:46:17.75	331.20	27.39	-38.2	-39.1	23.3	0.00e+00	0	32	0	1114636288	48	6517
2026-01-28 00:46:21.79	331.48	26.71	-37.7	-38.6	23.6	0.00e+00	0	32	0	1121976320	48	6147
2026-01-28 00:46:25.83	331.76	26.06	-36.8	-37.6	24.4	0.00e+00	0	32	0	1129316352	48	5476
2026-01-28 00:46:29.87	332.02	25.41	-36.5	-37.3	24.9	0.00e+00	0	32	0	1136656384	46	5904
2026-01-28 00:46:33.90	332.27	24.79	-36.4	-37.2	25.1	0.00e+00	0	32	0	1145044992	46	5838
2026-01-28 00:46:37.95	332.51	24.17	-36.7	-37.5	24.7	0.00e+00	0	32	0	1152385024	46	6076
2026-01-28 00:46:41.99	332.75	23.57	-36.5	-37.4	24.8	0.00e+00	0	32	0	1159725056	46	5968
2026-01-28 00:46:46.03	332.98	22.99	-36.3	-37.1	25.0	0.00e+00	0	32	0	1167065088	46	5821
2026-01-28 00:46:50.07	333.19	22.41	-36.3	-37.1	24.9	0.00e+00	0	32	0	1174405120	46	5768
2026-01-28 00:46:54.11	333.41	21.85	-36.2	-37.0	25.1	0.00e+00	0	32	0	1182793728	46	5730
2026-01-28 00:46:58.15	333.61	21.30	-36.3	-37.1	24.9	0.00e+00	0	32	0	1190133760	46	5820
2026-01-28 00:47:02.19	333.81	20.76	-36.3	-37.1	25.0	0.00e+00	0	32	0	1197473792	46	5777
2026-01-28 00:47:06.23	334.00	20.24	-36.4	-37.2	24.9	0.00e+00	0	32	0	1204813824	46	5890
2026-01-28 00:47:10.26	334.19	19.72	-36.6	-37.5	24.7	0.00e+00	0	32	0	1213202432	46	6036
2026-01-28 00:47:14.30	334.37	19.22	-36.6	-37.4	24.7	0.00e+00	0	32	0	1220542464	46	6032
2026-01-28 00:47:18.34	334.55	18.72	-36.7	-37.6	24.6	0.00e+00	0	32	0	1227882496	46	6116
2026-01-28 00:47:22.38	334.72	18.23	-36.7	-37.5	24.7	0.00e+00	0	32	0	1235222528	46	6064
2026-01-28 00:47:26.42	334.88	17.76	-37.0	-37.8	24.5	0.00e+00	0	32	0	1242562560	46	6300
2026-01-28 00:47:30.46	335.04	17.29	-37.0	-37.9	24.4	0.00e+00	0	32	0	1250951168	46	6332
2026-01-28 00:47:34.50	335.20	16.83	-35.7	-38.2	19.7	8.14e-03	0	32	0	1258291200	44	7344
2026-01-28 00:47:38.53	335.35	16.38	-36.0	-38.4	19.8	1.63e-02	0	32	0	1265631232	44	7588
2026-01-28 00:47:42.57	335.50	15.93	-35.9	-38.7	19.3	1.54e-02	0	32	0	1272971264	44	7778
2026-01-28 00:47:46.61	335.65	15.50	-37.9	-38.8	23.4	0.00e+00	0	32	0	1281359872	48	6272
2026-01-28 00:47:50.65	335.79	15.07	-37.9	-38.9	23.5	0.00e+00	0	32	0	1288699904	48	6335
2026-01-28 00:47:54.69	335.93	14.65	-38.0	-39.0	23.2	0.00e+00	0	32	0	1296039936	48	6401
2026-01-28 00:47:58.73	336.06	14.24	-38.1	-39.0	23.3	0.00e+00	0	32	0	1303379968	48	6451
2026-01-28 00:48:02.76	336.19	13.83	-38.1	-39.0	23.2	0.00e+00	0	32	0	1310720000	48	6463
2026-01-28 00:48:06.80	336.32	13.43	-38.0	-39.0	23.2	0.00e+00	0	32	0	1319108608	48	6444
2026-01-28 00:48:10.84	336.45	13.04	-38.1	-39.2	23.1	0.00e+00	0	32	0	1326448640	48	6545
2026-01-28 00:48:14.88	336.57	12.65	-38.2	-39.2	23.0	0.00e+00	0	32	0	1333788672	48	6593
2026-01-28 00:48:18.92	336.69	12.27	-38.3	-39.4	22.9	0.00e+00	0	32	0	1341128704	48	6695
2026-01-28 00:48:22.96	336.81	11.89	-38.4	-39.4	22.8	0.00e+00	0	32	0	1349517312	48	6757
2026-01-28 00:48:27.00	336.92	11.52	-38.3	-39.4	22.8	0.00e+00	0	32	0	1356857344	48	6702
2026-01-28 00:48:31.04	337.04	11.16	-38.4	-39.5	22.7	0.00e+00	0	32	0	1364197376	48	6818
2026-01-28 00:48:35.09	337.15	10.80	-38.2	-39.2	23.0	0.00e+00	0	32	0	1371537408	48	6580
2026-01-28 00:48:39.13	337.25	10.44	-38.2	-39.3	22.9	0.00e+00	0	32	0	1378877440	48	6633
2026-01-28 00:48:43.17	337.36	10.09	-38.2	-39.2	22.9	0.00e+00	0	32	0	1387266048	48	6602
2026-01-28 00:48:47.21	337.46	9.75	-38.4	-39.4	22.7	0.00e+00	0	32	0	1394606080	48	6743
2026-01-28 00:48:51.25	337.57	9.41	-38.2	-39.2	22.9	0.00e+00	0	32	0	1401946112	50	5861
2026-01-28 00:48:55.28	337.67	9.07	-38.3	-39.3	22.8	0.00e+00	0	32	0	1409286144	50	5943
2026-01-28 00:48:59.32	337.76	8.74	-38.3	-39.3	22.8	0.00e+00	0	32	0	1417674752	50	5964
2026-01-28 00:49:03.36	337.86	8.42	-38.3	-39.3	22.7	0.00e+00	0	32	0	1425014784	50	5951
2026-01-28 00:49:07.40	337.96	8.09	-38.6	-39.7	22.3	0.00e+00	0	32	0	1432354816	50	6203
2026-01-28 00:49:11.44	338.05	7.77	-39.0	-40.1	22.0	0.00e+00	0	32	0	1439694848	50	6486
2026-01-28 00:49:15.48	338.14	7.46	-38.6	-39.6	22.4	0.00e+00	0	32	0	1448083456	50	6147
2026-01-28 00:49:19.51	338.23	7.15	-38.6	-39.7	22.3	0.00e+00	0	32	0	1455423488	50	6178
2026-01-28 00:49:23.55	338.32	6.84	-39.1	-40.2	21.8	0.00e+00	0	32	0	1462763520	50	6571
2026-01-28 00:49:27.59	338.40	6.54	-38.8	-39.9	22.0	0.00e+00	0	32	0	1470103552	50	6356
2026-01-28 00:49:31.63	338.49	6.24	-38.9	-40.0	21.8	0.00e+00	0	32	0	1477443584	50	6393
2026-01-28 00:49:35.66	338.57	5.94	-39.4	-40.6	21.3	0.00e+00	0	32	0	1485832192	50	6857
2026-01-28 00:49:39.71	338.66	5.65	-39.3	-40.5	21.0	0.00e+00	0	32	0	1493172224	50	6786
2026-01-28 00:49:43.74	338.74	5.36	-40.3	-41.7	19.7	0.00e+00	0	32	0	1500512256	52	6981
2026-01-28 00:49:47.78	338.82	5.07	-41.2	-43.3	17.1	0.00e+00	0	32	0	1507852288	54	7435
2026-01-28 00:49:51.82	338.90	4.79	-42.3	-45.4	14.2	1.50e-06	0	32	0	1515192320	56	8459
2026-01-28 00:49:55.86	338.98	4.51	-43.4	-48.7	9.7	4.45e-03	0	32	0	1523580928	58	11067
2026-01-28 00:49:59.89	339.05	4.23	-43.9	-52.0	5.4	3.96e-01	0	32	0	1530920960	60	14315
2026-01-28 00:50:03.93	339.13	3.95	-44.0	-56.6	3.8	1.47e+00	0	32	104	1536163840	60	24361
2026-01-28 00:50:07.97	339.20	3.68	-44.0	-58.2	3.6	1.51e+00	0	32	104	1536163840	60	29501
2026-01-28 00:50:12.01	339.28	3.41	-44.1	-58.9	3.6	1.51e+00	0	32	104	1536163840	60	31942
2026-01-28 00:50:16.05	339.35	3.14	-44.1	-59.2	3.6	1.51e+00	0	32	104	1536163840	60	32829
2026-01-28 00:50:20.08	339.42	2.88	-44.4	-59.5	3.6	1.51e+00	0	32	104	1536163840	60	34192
2026-01-28 00:50:24.13	339.49	2.62	-48.8	-64.0	3.5	1.51e+00	0	32	104	1536163840	60	57133
2026-01-28 00:50:28.17	339.56	2.36	-49.0	-64.2	3.6	1.51e+00	0	32	104	1536163840	60	58634
2026-01-28 00:50:32.21	339.63	2.10	-49.0	-64.3	3.6	1.51e+00	0	32	104	1536163840	60	58969
2026-01-28 00:50:36.24	339.70	1.85	-48.9	-64.2	3.6	1.51e+00	0	32	104	1536163840	60	58382
2026-01-28 00:50:40.28	339.77	1.59	-48.9	-64.1	3.6	1.51e+00	0	32	104	1536163840	60	58006
2026-01-28 00:50:44.32	339.83	1.34	-48.9	-64.1	3.6	1.51e+00	0	32	104	1536163840	60	58119
2026-01-28 00:50:48.36	339.90	1.09	-48.9	-64.1	3.6	1.51e+00	0	32	104	1536163840	60	58233
2026-01-28 00:50:52.40	339.96	0.85	-48.9	-64.1	3.6	1.51e+00	0	32	104	1536163840	60	57766
2026-01-28 00:50:56.44	340.03	0.60	-48.9	-64.1	3.6	1.51e+00	0	32	104	1536163840	60	57994
2026-01-28 00:51:00.47	340.09	0.36	-48.9	-64.1	3.6	1.51e+00	0	32	104	1536163840	60	57945
2026-01-28 00:51:04.51	340.15	0.12	-48.9	-64.1	3.6	1.51e+00	0	32	104	1536163840	60	57793

#Closed at: 2026-01-28 00:51:07
#Recorded file [1536 MB]: D:/lorett/data/35029_260128_123535.dat