passes_logs/2026/01/28/R4.6S_Anadyr/R4.6S_Anadyr__20260128_081925_TY-42_rec.log

#Pass ID: 20260128_081925_TY-42
#Satellite: TY-42
#Configuration: TY-42_900M
#almurnet v.1.7.20251203
#Start time: 2026-01-28 08:19:56

#Version: 2.2.20231116
#Station: R4.6S_Anadyr
#Location: 177.4865 lon 64.73178 lat
#TLE: 1 64048U 25103A   26027.88263889  .00008008  00000-0  38191-3 0 09993
#TLE: 2 64048 097.4119 103.0583 0001740 093.1169 297.5293 15.19162476 38770

#Time	Az	El	Level	Level2	SNR	BER	BlckErr	Temp	State	Recorded	gain1	gain2
2026-01-28 08:19:56.54	127.88	1.99	-45.3	-59.7	3.6	1.51e+00	0	29	0	0	60	39195
2026-01-28 08:19:59.57	127.72	2.19	-47.8	-50.3	6.1	0.00e+00	0	31	104	0	60	39880
2026-01-28 08:20:02.59	127.55	2.40	-47.8	-50.3	6.1	0.00e+00	0	31	104	0	60	39894
2026-01-28 08:20:05.63	127.38	2.61	-47.8	-50.2	6.1	0.00e+00	0	31	104	0	60	39681
2026-01-28 08:20:08.66	127.20	2.81	-47.8	-50.2	6.1	0.00e+00	0	31	104	0	60	39828
2026-01-28 08:20:11.68	127.02	3.02	-47.8	-50.2	6.1	0.00e+00	0	31	104	0	60	39815
2026-01-28 08:20:14.71	126.84	3.24	-47.8	-50.3	6.1	0.00e+00	0	31	104	0	60	39989
2026-01-28 08:20:17.74	126.65	3.45	-47.8	-50.2	6.1	0.00e+00	0	31	104	0	60	39848
2026-01-28 08:20:20.77	126.46	3.67	-47.8	-50.3	6.1	0.00e+00	0	32	104	0	60	39906
2026-01-28 08:20:23.80	126.27	3.88	-47.8	-50.2	6.0	0.00e+00	0	32	104	0	60	39703
2026-01-28 08:20:26.83	126.07	4.11	-47.7	-50.2	6.1	0.00e+00	0	32	104	0	60	39779
2026-01-28 08:20:29.86	125.87	4.33	-47.9	-50.4	6.1	0.00e+00	0	32	104	0	60	40546
2026-01-28 08:20:32.88	125.66	4.55	-47.9	-50.3	6.0	0.00e+00	0	32	104	0	60	40243
2026-01-28 08:20:35.90	125.46	4.78	-48.0	-50.4	6.1	0.00e+00	0	32	104	0	60	40733
2026-01-28 08:20:38.92	125.24	5.01	-47.9	-50.4	6.1	0.00e+00	0	32	104	0	60	40575
2026-01-28 08:20:41.95	125.02	5.24	-47.9	-50.4	6.1	0.00e+00	0	32	104	0	60	40693
2026-01-28 08:20:44.97	124.80	5.47	-47.9	-50.4	6.1	0.00e+00	0	32	104	0	60	40598
2026-01-28 08:20:48.00	124.57	5.71	-33.6	-34.1	13.1	3.67e-02	0	32	0	8388608	40	19597
2026-01-28 08:20:51.03	124.34	5.95	-27.8	-28.4	16.0	4.60e-02	0	33	0	150994944	32	16103
2026-01-28 08:20:54.06	124.10	6.19	-27.5	-28.1	16.1	1.55e-02	0	33	0	494927872	30	17489
2026-01-28 08:20:57.08	123.86	6.43	-27.5	-28.1	16.2	3.87e-04	0	33	0	830472192	30	17458
2026-01-28 08:21:00.11	123.61	6.68	-27.7	-28.3	16.1	3.65e-04	0	33	0	1174405120	30	17940
2026-01-28 08:21:03.14	123.36	6.93	-27.3	-27.9	16.1	5.67e-04	0	33	0	1518338048	30	17147
2026-01-28 08:21:06.17	123.10	7.18	-27.1	-27.6	15.9	5.61e-04	0	33	0	1853882368	30	16617
2026-01-28 08:21:09.20	122.83	7.43	-26.5	-27.1	15.8	9.97e-04	0	33	0	2197815296	28	17499
2026-01-28 08:21:12.22	122.56	7.69	-26.8	-27.3	16.0	7.74e-04	0	33	0	2541748224	28	17971
2026-01-28 08:21:15.25	122.28	7.95	-26.8	-27.4	16.3	3.92e-04	0	33	0	2877292544	28	18027
2026-01-28 08:21:18.27	122.00	8.21	-26.8	-27.3	16.5	1.03e-04	0	33	0	3221225472	28	17853
2026-01-28 08:21:21.30	121.71	8.48	-27.1	-27.6	16.4	1.25e-04	0	33	0	3556769792	28	18437
2026-01-28 08:21:24.33	121.41	8.75	-26.7	-27.2	16.5	1.09e-04	0	33	0	3900702720	28	17764
2026-01-28 08:21:27.35	121.11	9.02	-26.7	-27.2	16.4	9.26e-05	0	34	0	4236247040	28	17756
2026-01-28 08:21:30.37	120.79	9.30	-26.5	-27.0	16.5	9.80e-05	0	33	0	4580179968	28	17383
2026-01-28 08:21:33.40	120.47	9.58	-26.4	-26.9	16.6	8.71e-05	0	34	0	4915724288	28	17143
2026-01-28 08:21:36.42	120.15	9.86	-26.0	-26.5	16.6	5.44e-05	0	34	0	5259657216	28	16394
2026-01-28 08:21:39.45	119.81	10.15	-26.0	-26.6	16.6	4.90e-05	0	34	0	5595201536	28	16461
2026-01-28 08:21:42.48	119.47	10.44	-26.0	-26.6	16.6	5.99e-05	0	34	0	5939134464	28	16517
2026-01-28 08:21:45.50	119.12	10.73	-25.8	-26.4	16.7	5.44e-05	0	34	0	6274678784	26	18065
2026-01-28 08:21:48.53	118.76	11.03	-25.6	-26.1	16.8	1.08e-05	0	34	0	6618611712	26	17542
2026-01-28 08:21:51.56	118.38	11.33	-25.5	-26.1	16.6	2.17e-05	0	34	0	6962544640	26	17514
2026-01-28 08:21:54.59	118.00	11.64	-25.2	-25.7	16.7	1.63e-05	0	34	0	7306477568	26	16739
2026-01-28 08:21:57.61	117.61	11.94	-24.8	-25.4	16.8	5.40e-06	0	34	0	7642021888	24	18109
2026-01-28 08:22:00.64	117.21	12.26	-24.6	-25.2	16.8	0.00e+00	0	34	0	7985954816	24	17642
2026-01-28 08:22:03.67	116.80	12.58	-24.6	-25.2	16.8	5.40e-06	0	34	0	8329887744	24	17611
2026-01-28 08:22:06.70	116.38	12.90	-24.3	-24.8	16.9	0.00e+00	0	34	0	8665432064	24	17003
2026-01-28 08:22:09.72	115.95	13.22	-24.2	-24.7	16.9	0.00e+00	0	34	0	9009364992	24	16713
2026-01-28 08:22:12.74	115.50	13.55	-23.8	-24.3	17.0	5.40e-06	0	34	0	9344909312	24	15976
2026-01-28 08:22:15.77	115.04	13.89	-24.0	-24.5	17.0	0.00e+00	0	34	0	9688842240	22	18228
2026-01-28 08:22:18.79	114.57	14.22	-23.7	-24.2	17.0	0.00e+00	0	34	0	10024386560	22	17685
2026-01-28 08:22:21.82	114.09	14.57	-48.4	-50.9	6.1	0.00e+00	0	34	104	10301210624	60	43181
2026-01-28 08:22:24.84	113.59	14.92	-48.5	-51.0	6.1	0.00e+00	0	34	104	10301210624	60	43521
2026-01-28 08:22:27.87	113.08	15.27	-48.6	-51.1	6.1	0.00e+00	0	34	104	10301210624	60	43909
2026-01-28 08:22:30.90	112.56	15.63	-48.7	-51.2	6.1	0.00e+00	0	34	104	10301210624	60	44499
2026-01-28 08:22:33.92	112.02	15.99	-48.6	-51.1	6.1	0.00e+00	0	34	104	10301210624	60	43991
2026-01-28 08:22:36.95	111.46	16.35	-48.6	-51.1	6.1	0.00e+00	0	34	104	10301210624	60	44055
2026-01-28 08:22:39.97	110.89	16.72	-48.4	-50.9	6.1	0.00e+00	0	34	104	10301210624	60	43119
2026-01-28 08:22:43.00	110.30	17.10	-48.6	-51.1	6.1	0.00e+00	0	34	104	10301210624	60	44024
2026-01-28 08:22:46.02	109.69	17.48	-48.7	-51.2	6.1	0.00e+00	0	34	104	10301210624	60	44585
2026-01-28 08:22:49.05	109.06	17.86	-48.5	-51.1	6.1	0.00e+00	0	34	104	10301210624	60	43824
2026-01-28 08:22:52.08	108.42	18.25	-48.7	-51.2	6.1	0.00e+00	0	34	104	10301210624	60	44534
2026-01-28 08:22:55.11	107.75	18.64	-48.7	-51.2	6.1	0.00e+00	0	34	104	10301210624	60	44655
2026-01-28 08:22:58.13	107.07	19.04	-48.7	-51.3	6.1	0.00e+00	0	34	104	10301210624	60	44756
2026-01-28 08:23:01.16	106.36	19.44	-48.8	-51.3	6.1	0.00e+00	0	34	104	10301210624	60	44880
2026-01-28 08:23:04.19	105.63	19.85	-48.7	-51.2	6.1	0.00e+00	0	34	104	10301210624	60	44703
2026-01-28 08:23:07.21	104.88	20.26	-48.8	-51.2	6.1	0.00e+00	0	34	104	10301210624	60	44670
2026-01-28 08:23:10.24	104.11	20.67	-48.6	-51.2	6.1	0.00e+00	0	34	104	10301210624	60	44324
2026-01-28 08:23:13.27	103.31	21.09	-48.8	-51.3	6.1	0.00e+00	0	34	104	10301210624	60	45025
2026-01-28 08:23:16.30	102.48	21.51	-48.7	-51.2	6.0	0.00e+00	0	34	104	10301210624	60	44566
2026-01-28 08:23:19.33	101.63	21.93	-48.9	-51.3	6.1	0.00e+00	0	34	104	10301210624	60	45096
2026-01-28 08:23:22.35	100.76	22.35	-48.6	-51.2	6.1	0.00e+00	0	34	104	10301210624	60	44225
2026-01-28 08:23:25.38	99.85	22.78	-48.4	-50.9	6.1	0.00e+00	0	34	104	10301210624	60	43180
2026-01-28 08:23:28.41	98.92	23.21	-48.6	-51.1	6.1	0.00e+00	0	34	104	10301210624	60	44108
2026-01-28 08:23:31.44	97.96	23.64	-48.4	-51.0	6.1	0.00e+00	0	34	104	10301210624	60	43279
2026-01-28 08:23:34.46	96.97	24.07	-48.3	-50.9	6.1	0.00e+00	0	34	104	10301210624	60	43112
2026-01-28 08:23:37.49	95.95	24.50	-48.9	-51.4	6.1	0.00e+00	0	34	104	10301210624	60	45475
2026-01-28 08:23:40.52	94.89	24.93	-48.1	-50.8	6.1	0.00e+00	0	34	104	10301210624	60	42253
2026-01-28 08:23:43.54	93.81	25.36	-48.8	-51.3	6.1	0.00e+00	0	34	104	10301210624	60	44962
2026-01-28 08:23:46.56	92.69	25.78	-48.0	-50.7	6.1	0.00e+00	0	34	104	10301210624	60	41828
2026-01-28 08:23:49.59	91.54	26.20	-48.7	-51.2	6.1	0.00e+00	0	34	104	10301210624	60	44332
2026-01-28 08:23:52.62	90.35	26.62	-48.7	-51.3	6.1	0.00e+00	0	34	104	10301210624	60	44773
2026-01-28 08:23:55.64	89.13	27.03	-48.9	-51.4	6.1	0.00e+00	0	34	104	10301210624	60	45476
2026-01-28 08:23:58.67	87.87	27.44	-48.2	-50.8	6.1	0.00e+00	0	34	104	10301210624	60	42382
2026-01-28 08:24:01.69	86.58	27.84	-48.5	-51.2	6.1	0.00e+00	0	34	104	10301210624	60	44223
2026-01-28 08:24:04.71	85.26	28.23	-48.5	-51.1	6.1	0.00e+00	0	34	104	10301210624	60	44148
2026-01-28 08:24:07.74	83.90	28.61	-47.2	-50.0	6.1	0.00e+00	0	34	104	10301210624	60	38666
2026-01-28 08:24:10.76	82.50	28.98	-48.9	-51.4	6.1	0.00e+00	0	34	104	10301210624	60	45476
2026-01-28 08:24:13.79	81.07	29.33	-48.9	-51.4	6.1	0.00e+00	0	34	104	10301210624	60	45366
2026-01-28 08:24:16.81	79.61	29.68	-48.2	-50.8	6.1	0.00e+00	0	34	104	10301210624	60	42709
2026-01-28 08:24:19.84	78.11	30.00	-47.3	-50.0	6.1	0.00e+00	0	34	104	10301210624	60	38913
2026-01-28 08:24:22.87	76.58	30.31	-48.8	-51.3	6.1	0.00e+00	0	34	104	10301210624	60	45132
2026-01-28 08:24:25.90	75.01	30.61	-48.7	-51.3	6.1	0.00e+00	0	34	104	10301210624	60	44820
2026-01-28 08:24:28.92	73.42	30.88	-48.9	-51.4	6.1	0.00e+00	0	34	104	10301210624	60	45524
2026-01-28 08:24:31.95	71.80	31.13	-48.9	-51.4	6.1	0.00e+00	0	34	104	10301210624	60	45500
2026-01-28 08:24:34.98	70.15	31.36	-48.8	-51.3	6.1	0.00e+00	0	34	104	10301210624	60	45056
2026-01-28 08:24:38.00	68.49	31.57	-49.0	-51.4	6.1	0.00e+00	0	34	104	10301210624	60	45509
2026-01-28 08:24:41.03	66.79	31.75	-49.0	-51.5	6.1	0.00e+00	0	34	104	10301210624	60	45869
2026-01-28 08:24:44.05	65.08	31.90	-49.0	-51.5	6.1	0.00e+00	0	34	104	10301210624	60	45860
2026-01-28 08:24:47.08	63.36	32.03	-48.9	-51.4	6.1	0.00e+00	0	34	104	10301210624	60	45689
2026-01-28 08:24:50.11	61.61	32.14	-48.6	-51.2	6.1	0.00e+00	0	34	104	10301210624	60	44304
2026-01-28 08:24:53.14	59.86	32.21	-48.6	-51.2	6.1	0.00e+00	0	34	104	10301210624	60	44232
2026-01-28 08:24:56.16	58.11	32.26	-48.0	-50.6	6.1	0.00e+00	0	34	104	10301210624	60	41687
2026-01-28 08:24:59.19	56.35	32.27	-49.0	-51.5	6.1	0.00e+00	0	34	104	10301210624	60	45775
2026-01-28 08:25:02.21	54.59	32.26	-49.0	-51.5	6.1	0.00e+00	0	34	104	10301210624	60	46025
2026-01-28 08:25:05.24	52.83	32.22	-49.0	-51.4	6.1	0.00e+00	0	34	104	10301210624	60	45759
2026-01-28 08:25:08.26	51.08	32.15	-48.2	-50.8	6.1	0.00e+00	0	34	104	10301210624	60	42436
2026-01-28 08:25:11.29	49.34	32.06	-48.5	-51.0	6.1	0.00e+00	0	34	104	10301210624	60	43708
2026-01-28 08:25:14.31	47.62	31.93	-49.0	-51.5	6.1	0.00e+00	0	34	104	10301210624	60	45910
2026-01-28 08:25:17.34	45.90	31.78	-48.9	-51.4	6.1	0.00e+00	0	34	104	10301210624	60	45617
2026-01-28 08:25:20.37	44.21	31.61	-48.8	-51.3	6.1	0.00e+00	0	34	104	10301210624	60	45010
2026-01-28 08:25:23.40	42.53	31.41	-49.0	-51.5	6.1	0.00e+00	0	34	104	10301210624	60	46075
2026-01-28 08:25:26.42	40.89	31.18	-49.0	-51.5	6.1	0.00e+00	0	34	104	10301210624	60	45849
2026-01-28 08:25:29.45	39.26	30.93	-49.0	-51.5	6.1	0.00e+00	0	34	104	10301210624	60	45949
2026-01-28 08:25:32.48	37.67	30.67	-49.0	-51.4	6.1	0.00e+00	0	34	104	10301210624	60	45766
2026-01-28 08:25:35.51	36.10	30.38	-48.9	-51.4	6.1	0.00e+00	0	34	104	10301210624	60	45308
2026-01-28 08:25:38.53	34.57	30.07	-48.9	-51.5	6.1	0.00e+00	0	34	104	10301210624	60	45844
2026-01-28 08:25:41.56	33.07	29.75	-48.8	-51.3	6.1	0.00e+00	0	34	104	10301210624	60	45079
2026-01-28 08:25:44.58	31.60	29.41	-48.9	-51.4	6.1	0.00e+00	0	34	104	10301210624	60	45391
2026-01-28 08:25:47.61	30.16	29.06	-48.6	-51.1	6.1	0.00e+00	0	34	104	10301210624	60	44197
2026-01-28 08:25:50.64	28.76	28.69	-48.8	-51.4	6.1	0.00e+00	0	34	104	10301210624	60	45320
2026-01-28 08:25:53.67	27.40	28.32	-49.0	-51.4	6.1	0.00e+00	0	34	104	10301210624	60	45588
2026-01-28 08:25:56.70	26.07	27.93	-48.8	-51.3	6.1	0.00e+00	0	34	104	10301210624	60	45081
2026-01-28 08:25:59.72	24.77	27.53	-48.9	-51.3	6.1	0.00e+00	0	34	104	10301210624	60	45188
2026-01-28 08:26:02.74	23.52	27.13	-48.9	-51.4	6.1	0.00e+00	0	34	104	10301210624	60	45383
2026-01-28 08:26:05.77	22.29	26.72	-48.9	-51.4	6.1	0.00e+00	0	34	104	10301210624	60	45444
2026-01-28 08:26:08.79	21.11	26.31	-48.8	-51.2	6.1	0.00e+00	0	34	104	10301210624	60	44662
2026-01-28 08:26:11.82	19.95	25.89	-48.9	-51.4	6.1	0.00e+00	0	34	104	10301210624	60	45471
2026-01-28 08:26:14.84	18.83	25.47	-48.9	-51.4	6.1	0.00e+00	0	34	104	10301210624	60	45377
2026-01-28 08:26:17.86	17.74	25.04	-48.9	-51.4	6.1	0.00e+00	0	34	104	10301210624	60	45508
2026-01-28 08:26:20.89	16.69	24.61	-49.0	-51.5	6.1	0.00e+00	0	34	104	10301210624	60	45870
2026-01-28 08:26:23.92	15.66	24.19	-48.9	-51.4	6.1	0.00e+00	0	34	104	10301210624	60	45626
2026-01-28 08:26:26.94	14.67	23.76	-48.9	-51.3	6.1	0.00e+00	0	34	104	10301210624	60	45114
2026-01-28 08:26:29.97	13.71	23.33	-48.8	-51.3	6.1	0.00e+00	0	34	104	10301210624	60	44865
2026-01-28 08:26:32.99	12.77	22.90	-48.9	-51.4	6.1	0.00e+00	0	34	104	10301210624	60	45530
2026-01-28 08:26:36.02	11.87	22.48	-48.8	-51.2	6.1	0.00e+00	0	34	104	10301210624	60	44616
2026-01-28 08:26:39.04	10.99	22.06	-48.8	-51.2	6.1	0.00e+00	0	34	104	10301210624	60	44678
2026-01-28 08:26:42.07	10.14	21.64	-48.8	-51.3	6.1	0.00e+00	0	34	104	10301210624	60	45006
2026-01-28 08:26:45.10	9.31	21.22	-48.9	-51.4	6.1	0.00e+00	0	34	104	10301210624	60	45353
2026-01-28 08:26:48.12	8.51	20.80	-48.8	-51.3	6.1	0.00e+00	0	34	104	10301210624	60	44901
2026-01-28 08:26:51.15	7.74	20.39	-48.8	-51.3	6.1	0.00e+00	0	34	104	10301210624	60	45057
2026-01-28 08:26:54.18	6.98	19.98	-48.9	-51.3	6.1	0.00e+00	0	34	104	10301210624	60	45059
2026-01-28 08:26:57.21	6.25	19.58	-48.9	-51.4	6.1	0.00e+00	0	34	104	10301210624	60	45344
2026-01-28 08:27:00.24	5.54	19.18	-48.8	-51.3	6.1	0.00e+00	0	34	104	10301210624	60	45070
2026-01-28 08:27:03.26	4.86	18.78	-48.9	-51.3	6.1	0.00e+00	0	34	104	10301210624	60	45043
2026-01-28 08:27:06.29	4.19	18.39	-48.9	-51.3	6.1	0.00e+00	0	34	104	10301210624	60	45214
2026-01-28 08:27:09.32	3.55	18.00	-48.8	-51.3	6.1	0.00e+00	0	34	104	10301210624	60	45121
2026-01-28 08:27:12.35	2.92	17.61	-48.8	-51.3	6.1	0.00e+00	0	34	104	10301210624	60	44989
2026-01-28 08:27:15.37	2.31	17.24	-48.5	-51.0	6.1	0.00e+00	0	34	104	10301210624	60	43483
2026-01-28 08:27:18.39	1.72	16.86	-48.6	-51.1	6.1	0.00e+00	0	34	104	10301210624	60	43853
2026-01-28 08:27:21.42	1.15	16.49	-48.3	-50.8	6.1	0.00e+00	0	34	104	10301210624	60	42557
2026-01-28 08:27:24.44	0.59	16.13	-48.7	-51.1	6.1	0.00e+00	0	34	104	10301210624	60	44101
2026-01-28 08:27:27.47	0.05	15.77	-48.7	-51.2	6.1	0.00e+00	0	34	104	10301210624	60	44361
2026-01-28 08:27:30.50	359.52	15.41	-48.7	-51.2	6.1	0.00e+00	0	34	104	10301210624	60	44525
2026-01-28 08:27:33.53	359.01	15.06	-48.7	-51.2	6.1	0.00e+00	0	34	104	10301210624	60	44534
2026-01-28 08:27:36.55	358.51	14.71	-48.7	-51.2	6.1	0.00e+00	0	34	104	10301210624	60	44549
2026-01-28 08:27:39.58	358.03	14.37	-48.7	-51.1	6.1	0.00e+00	0	34	104	10301210624	60	44155
2026-01-28 08:27:42.61	357.56	14.03	-48.7	-51.2	6.1	0.00e+00	0	34	104	10301210624	60	44258
2026-01-28 08:27:45.64	357.10	13.70	-48.6	-51.1	6.1	0.00e+00	0	34	104	10301210624	60	43927
2026-01-28 08:27:48.67	356.65	13.37	-48.7	-51.2	6.1	0.00e+00	0	34	104	10301210624	60	44234
2026-01-28 08:27:51.69	356.22	13.04	-48.6	-51.1	6.1	0.00e+00	0	34	104	10301210624	60	43881
2026-01-28 08:27:54.71	355.80	12.72	-48.5	-51.0	6.1	0.00e+00	0	34	104	10301210624	60	43479
2026-01-28 08:27:57.75	355.38	12.40	-48.3	-50.8	6.1	0.00e+00	0	34	104	10301210624	60	42515
2026-01-28 08:28:00.77	354.99	12.09	-48.6	-51.1	6.1	0.00e+00	0	34	104	10301210624	60	44078
2026-01-28 08:28:03.80	354.60	11.78	-48.6	-51.1	6.1	0.00e+00	0	34	104	10301210624	60	43811
2026-01-28 08:28:06.83	354.21	11.48	-48.5	-51.0	6.1	0.00e+00	0	34	104	10301210624	60	43525
2026-01-28 08:28:09.86	353.84	11.17	-48.5	-51.0	6.1	0.00e+00	0	34	104	10301210624	60	43254
2026-01-28 08:28:12.89	353.48	10.88	-48.6	-51.1	6.1	0.00e+00	0	34	104	10301210624	60	44084
2026-01-28 08:28:15.92	353.13	10.58	-48.5	-51.1	6.1	0.00e+00	0	34	104	10301210624	60	43710
2026-01-28 08:28:18.94	352.79	10.29	-48.7	-51.2	6.1	0.00e+00	0	34	104	10301210624	60	44507
2026-01-28 08:28:21.97	352.45	10.01	-48.5	-51.0	6.1	0.00e+00	0	34	104	10301210624	60	43227
2026-01-28 08:28:25.00	352.13	9.72	-48.5	-50.9	6.1	0.00e+00	0	34	104	10301210624	60	43116
2026-01-28 08:28:28.02	351.81	9.44	-48.5	-50.9	6.1	0.00e+00	0	34	104	10301210624	60	43181
2026-01-28 08:28:31.05	351.50	9.17	-48.4	-50.9	6.1	0.00e+00	0	34	104	10301210624	60	43000
2026-01-28 08:28:34.07	351.19	8.90	-48.4	-50.9	6.1	0.00e+00	0	34	104	10301210624	60	42865
2026-01-28 08:28:37.10	350.90	8.63	-48.5	-50.9	6.1	0.00e+00	0	34	104	10301210624	60	42972
2026-01-28 08:28:40.13	350.61	8.36	-48.4	-50.9	6.1	0.00e+00	0	34	104	10301210624	60	43106
2026-01-28 08:28:43.16	350.32	8.10	-48.4	-50.8	6.0	0.00e+00	0	34	104	10301210624	60	42552
2026-01-28 08:28:46.19	350.05	7.84	-48.3	-50.8	6.1	0.00e+00	0	34	104	10301210624	60	42298
2026-01-28 08:28:49.21	349.78	7.58	-48.4	-50.9	6.1	0.00e+00	0	34	104	10301210624	60	42814
2026-01-28 08:28:52.24	349.51	7.33	-48.4	-50.8	6.0	0.00e+00	0	34	104	10301210624	60	42661
2026-01-28 08:28:55.27	349.25	7.07	-48.3	-50.8	6.1	0.00e+00	0	34	104	10301210624	60	42420
2026-01-28 08:28:58.30	349.00	6.82	-48.2	-50.7	6.1	0.00e+00	0	34	104	10301210624	60	41976
2026-01-28 08:29:01.33	348.75	6.58	-48.3	-50.8	6.1	0.00e+00	0	34	104	10301210624	60	42383
2026-01-28 08:29:04.35	348.51	6.34	-48.3	-50.8	6.1	0.00e+00	0	34	104	10301210624	60	42410
2026-01-28 08:29:07.38	348.27	6.09	-48.0	-50.5	6.1	0.00e+00	0	34	104	10301210624	60	41224
2026-01-28 08:29:10.41	348.04	5.86	-47.8	-50.3	6.1	0.00e+00	0	34	104	10301210624	60	40320
2026-01-28 08:29:13.44	347.82	5.62	-47.9	-50.4	6.1	0.00e+00	0	34	104	10301210624	60	40706
2026-01-28 08:29:16.47	347.59	5.39	-47.9	-50.5	6.1	0.00e+00	0	34	104	10301210624	60	40986
2026-01-28 08:29:19.50	347.38	5.15	-46.5	-49.0	6.1	0.00e+00	0	34	104	10301210624	60	34406
2026-01-28 08:29:22.53	347.16	4.93	-47.7	-50.2	6.1	0.00e+00	0	34	104	10301210624	60	39715
2026-01-28 08:29:25.55	346.96	4.70	-44.9	-47.4	6.1	0.00e+00	0	34	104	10301210624	60	28569
2026-01-28 08:29:28.58	346.75	4.48	-44.5	-47.0	6.1	0.00e+00	0	34	104	10301210624	60	27522
2026-01-28 08:29:31.61	346.55	4.25	-44.9	-47.4	6.1	0.00e+00	0	34	104	10301210624	60	28653
2026-01-28 08:29:34.64	346.36	4.03	-44.1	-46.5	6.1	0.00e+00	0	34	104	10301210624	60	25988
2026-01-28 08:29:37.67	346.16	3.81	-44.6	-47.1	6.1	0.00e+00	0	34	104	10301210624	60	27689
2026-01-28 08:29:40.69	345.97	3.60	-44.3	-46.8	6.1	0.00e+00	0	34	104	10301210624	60	26690
2026-01-28 08:29:43.73	345.79	3.38	-43.9	-46.4	6.1	0.00e+00	0	34	104	10301210624	60	25476
2026-01-28 08:29:46.75	345.61	3.17	-44.0	-46.5	6.1	0.00e+00	0	34	104	10301210624	60	25902
2026-01-28 08:29:49.79	345.43	2.96	-44.6	-47.1	6.1	0.00e+00	0	34	104	10301210624	60	27770
2026-01-28 08:29:52.81	345.26	2.75	-48.6	-51.1	6.1	0.00e+00	0	34	104	10301210624	60	43981
2026-01-28 08:29:55.84	345.09	2.55	-49.0	-51.5	6.1	0.00e+00	0	34	104	10301210624	60	45917
2026-01-28 08:29:58.87	344.92	2.34	-49.0	-51.5	6.1	0.00e+00	0	34	104	10301210624	60	45926
2026-01-28 08:30:01.90	344.75	2.14	-49.2	-51.7	6.1	0.00e+00	0	34	104	10301210624	60	46972
2026-01-28 08:30:04.93	344.59	1.94	-48.9	-51.4	6.1	0.00e+00	0	34	104	10301210624	60	45605
2026-01-28 08:30:07.96	344.43	1.74	-48.7	-51.2	6.1	0.00e+00	0	34	104	10301210624	60	44699
2026-01-28 08:30:10.99	344.28	1.54	-49.1	-51.5	6.0	0.00e+00	0	34	104	10301210624	60	46246
2026-01-28 08:30:14.02	344.13	1.34	-49.0	-51.5	6.1	0.00e+00	0	34	104	10301210624	60	45976
2026-01-28 08:30:17.05	343.98	1.15	-49.0	-51.5	6.1	0.00e+00	0	35	104	10301210624	60	46033
2026-01-28 08:30:20.07	343.83	0.95	-49.0	-51.5	6.1	0.00e+00	0	34	104	10301210624	60	45825
2026-01-28 08:30:23.10	343.68	0.76	-49.0	-51.4	6.1	0.00e+00	0	34	104	10301210624	60	45713
2026-01-28 08:30:26.14	343.54	0.57	-49.0	-51.5	6.1	0.00e+00	0	34	104	10301210624	60	45957
2026-01-28 08:30:29.16	343.40	0.38	-49.0	-51.5	6.0	0.00e+00	0	34	104	10301210624	60	45947
2026-01-28 08:30:32.19	343.26	0.19	-49.0	-51.5	6.1	0.00e+00	0	34	104	10301210624	60	45818
2026-01-28 08:30:35.21	343.13	0.01	-49.0	-51.5	6.1	0.00e+00	0	34	104	10301210624	60	45769

#Closed at: 2026-01-28 08:30:36
#Recorded file [10301 MB]: D:/lorett/data/35029_260128_201956.dat