passes_logs/2026/01/28/R4.6S_Anadyr/R4.6S_Anadyr__20260128_035341_AQUA_rec.log

#Pass ID: 20260128_035341_AQUA
#Satellite: AQUA
#Configuration: AQUA
#almurnet v.1.7.20251203
#Start time: 2026-01-28 03:53:41

#Version: 2.2.20231116
#Station: R4.6S_Anadyr
#Location: 177.4865 lon 64.73178 lat
#TLE: 1 27424U 02022A   26027.63960626  .00001831  00000+0  37607-3 0  9998
#TLE: 2 27424  98.4102 354.2809 0001844  63.7090 108.5242 14.61867354262735

#Time	Az	El	Level	Level2	SNR	BER	BlckErr	Temp	State	Recorded	gain1	gain2
2026-01-28 03:53:41.99	208.68	0.05	-48.9	-61.5	3.4	1.52e+00	0	31	0	0	60	41629
2026-01-28 03:53:45.02	208.89	0.21	-49.2	-67.1	3.5	3.03e+01	0	32	104	0	60	87135
2026-01-28 03:53:48.05	209.11	0.38	-49.2	-67.2	3.5	3.03e+01	0	32	104	0	60	88007
2026-01-28 03:53:51.08	209.33	0.54	-49.2	-67.3	3.5	3.03e+01	0	32	104	0	60	88717
2026-01-28 03:53:54.11	209.56	0.71	-49.4	-67.2	3.5	3.03e+01	0	32	104	0	60	88477
2026-01-28 03:53:57.14	209.78	0.87	-49.4	-67.3	3.5	3.03e+01	0	33	104	0	60	88753
2026-01-28 03:54:00.17	210.01	1.04	-49.3	-67.2	3.5	3.03e+01	0	33	104	0	60	87904
2026-01-28 03:54:03.20	210.24	1.21	-49.2	-67.0	3.5	3.03e+01	0	33	104	0	60	85985
2026-01-28 03:54:06.22	210.48	1.38	-48.6	-66.4	3.5	3.03e+01	0	33	104	0	60	80858
2026-01-28 03:54:09.25	210.72	1.54	-48.1	-65.6	3.5	3.03e+01	0	33	104	0	60	73043
2026-01-28 03:54:12.28	210.96	1.71	-48.1	-65.8	3.5	3.03e+01	0	33	104	0	60	75439
2026-01-28 03:54:15.31	211.20	1.89	-48.1	-65.8	3.5	3.03e+01	0	33	104	0	60	74818
2026-01-28 03:54:18.34	211.44	2.06	-48.1	-65.9	3.5	3.03e+01	0	33	104	0	60	75724
2026-01-28 03:54:21.37	211.69	2.23	-48.1	-65.7	3.5	3.03e+01	0	33	104	0	60	73908
2026-01-28 03:54:24.40	211.95	2.40	-48.1	-65.1	3.5	3.03e+01	0	33	104	0	60	69461
2026-01-28 03:54:27.43	212.20	2.57	-48.1	-65.2	3.5	3.03e+01	0	33	104	0	60	69973
2026-01-28 03:54:30.46	212.46	2.75	-48.0	-62.3	4.1	3.03e+01	0	33	104	0	60	50340
2026-01-28 03:54:33.49	212.72	2.92	-47.5	-56.8	8.7	3.03e+01	22	33	0	0	60	26615
2026-01-28 03:54:36.53	212.99	3.10	-43.9	-46.9	18.5	3.03e+01	0	33	0	5767168	60	8475
2026-01-28 03:54:39.55	213.25	3.28	-43.4	-46.1	19.1	3.03e+01	0	33	0	11534336	60	7797
2026-01-28 03:54:42.58	213.53	3.45	-45.2	-49.2	14.5	3.03e+01	0	33	0	17301504	60	11121
2026-01-28 03:54:45.61	213.80	3.63	-39.2	-40.8	24.8	3.03e+01	0	33	0	18874368	52	6704
2026-01-28 03:54:48.64	214.08	3.81	-39.3	-40.9	24.7	3.03e+01	0	33	0	24641536	52	6738
2026-01-28 03:54:51.67	214.36	3.99	-39.4	-41.0	24.6	3.03e+01	0	33	0	29884416	52	6875
2026-01-28 03:54:54.70	214.65	4.17	-38.8	-40.3	25.4	3.03e+01	0	33	0	35651584	52	6336
2026-01-28 03:54:57.73	214.94	4.35	-38.5	-40.0	25.5	3.03e+01	0	33	0	41418752	52	6111
2026-01-28 03:55:00.76	215.23	4.54	-38.5	-40.0	25.5	3.03e+01	0	33	0	47185920	52	6126
2026-01-28 03:55:03.79	215.53	4.72	-38.1	-39.5	25.9	3.03e+01	0	33	0	52953088	52	5785
2026-01-28 03:55:06.82	215.83	4.90	-37.9	-39.3	26.4	3.03e+01	0	33	0	58720256	52	5639
2026-01-28 03:55:09.84	216.13	5.09	-37.9	-39.3	26.2	3.03e+01	0	33	0	63963136	50	6340
2026-01-28 03:55:12.87	216.44	5.27	-37.8	-39.2	26.4	3.03e+01	0	33	0	69730304	50	6236
2026-01-28 03:55:15.90	216.76	5.46	-37.7	-39.1	26.5	3.03e+01	0	33	0	75497472	50	6205
2026-01-28 03:55:18.93	217.07	5.65	-37.6	-39.0	26.6	3.03e+01	0	33	0	81264640	50	6112
2026-01-28 03:55:21.96	217.40	5.83	-37.7	-39.1	26.6	3.03e+01	0	33	0	87031808	50	6160
2026-01-28 03:55:24.98	217.72	6.02	-37.5	-38.9	26.8	3.03e+01	0	33	0	92798976	50	6017
2026-01-28 03:55:28.01	218.05	6.21	-37.6	-38.9	26.7	3.03e+01	0	33	0	98041856	50	6051
2026-01-28 03:55:31.04	218.39	6.40	-37.7	-39.1	26.6	3.03e+01	0	33	0	103809024	50	6174
2026-01-28 03:55:34.07	218.73	6.59	-37.7	-39.1	26.6	3.03e+01	0	33	0	109576192	50	6188
2026-01-28 03:55:37.10	219.07	6.78	-37.6	-38.9	26.8	3.03e+01	0	33	0	115343360	50	6050
2026-01-28 03:55:40.13	219.42	6.98	-37.4	-38.7	27.0	3.03e+01	0	33	0	121110528	50	5926
2026-01-28 03:55:43.16	219.78	7.17	-37.1	-38.5	27.3	3.03e+01	0	33	0	126877696	50	5733
2026-01-28 03:55:46.19	220.13	7.36	-37.3	-38.7	27.1	3.03e+01	0	33	0	132120576	50	5870
2026-01-28 03:55:49.22	220.50	7.56	-37.3	-38.6	27.2	3.03e+01	0	33	0	137887744	50	5827
2026-01-28 03:55:52.25	220.87	7.76	-37.4	-38.8	27.0	3.03e+01	0	33	0	143654912	50	5936
2026-01-28 03:55:55.28	221.24	7.95	-37.9	-39.3	26.5	3.03e+01	0	33	0	149422080	50	6338
2026-01-28 03:55:58.31	221.62	8.15	-37.6	-38.9	26.9	3.03e+01	0	34	0	155189248	50	6060
2026-01-28 03:56:01.34	222.01	8.35	-37.0	-38.3	24.9	3.03e+01	0	33	0	160956416	50	5616
2026-01-28 03:56:04.37	222.40	8.54	-37.3	-38.6	27.2	3.03e+01	0	33	0	166199296	48	6567
2026-01-28 03:56:07.40	222.80	8.74	-37.2	-38.5	27.3	3.03e+01	0	33	0	171966464	48	6484
2026-01-28 03:56:10.43	223.20	8.94	-37.1	-38.4	27.4	3.03e+01	0	33	0	177733632	48	6409
2026-01-28 03:56:13.46	223.61	9.14	-37.3	-38.6	27.2	3.03e+01	0	34	0	183500800	48	6569
2026-01-28 03:56:16.49	224.02	9.35	-37.2	-38.6	27.3	3.03e+01	0	33	0	189267968	48	6512
2026-01-28 03:56:19.52	224.44	9.55	-37.4	-38.7	27.2	3.03e+01	0	33	0	195035136	48	6648
2026-01-28 03:56:22.55	224.87	9.75	-37.5	-38.8	27.0	3.03e+01	0	33	0	200278016	48	6717
2026-01-28 03:56:25.58	225.30	9.95	-37.3	-38.7	27.2	3.03e+01	0	33	0	206045184	48	6588
2026-01-28 03:56:28.61	225.74	10.15	-37.4	-38.7	27.1	3.03e+01	0	33	0	211812352	48	6636
2026-01-28 03:56:31.64	226.19	10.36	-37.3	-38.6	27.3	3.03e+01	0	33	0	217579520	48	6525
2026-01-28 03:56:34.67	226.64	10.56	-37.4	-38.8	27.2	3.03e+01	0	33	0	223346688	48	6652
2026-01-28 03:56:37.69	227.09	10.77	-37.2	-38.5	27.4	3.03e+01	0	33	0	229113856	48	6497
2026-01-28 03:56:40.72	227.56	10.97	-37.4	-38.8	27.2	3.03e+01	0	33	0	234356736	48	6680
2026-01-28 03:56:43.76	228.03	11.18	-37.4	-38.8	27.2	3.03e+01	0	33	0	240123904	48	6689
2026-01-28 03:56:46.78	228.51	11.38	-37.2	-38.5	27.4	3.03e+01	0	33	0	245891072	48	6472
2026-01-28 03:56:49.81	229.00	11.59	-37.2	-38.6	27.4	3.03e+01	0	33	0	251658240	48	6518
2026-01-28 03:56:52.84	229.49	11.79	-37.2	-38.6	27.4	3.03e+01	0	33	0	257425408	48	6502
2026-01-28 03:56:55.87	229.99	12.00	-37.3	-38.7	27.3	3.03e+01	0	33	0	263192576	48	6581
2026-01-28 03:56:58.90	230.50	12.20	-37.0	-38.3	27.7	3.03e+01	0	33	0	268959744	48	6312
2026-01-28 03:57:01.93	231.01	12.41	-37.1	-38.4	27.5	3.03e+01	0	34	0	274202624	48	6423
2026-01-28 03:57:04.96	231.54	12.62	-36.9	-38.3	27.7	3.03e+01	0	33	0	279969792	48	6296
2026-01-28 03:57:07.99	232.07	12.82	-36.9	-38.2	27.7	3.03e+01	0	33	0	285736960	48	6277
2026-01-28 03:57:11.02	232.60	13.03	-36.8	-38.1	27.8	3.03e+01	0	34	0	291504128	48	6185
2026-01-28 03:57:14.05	233.15	13.23	-36.9	-38.2	27.8	3.03e+01	0	34	0	297271296	48	6214
2026-01-28 03:57:17.08	233.70	13.44	-36.9	-38.2	27.8	3.03e+01	0	34	0	302514176	48	6232
2026-01-28 03:57:20.11	234.27	13.64	-36.6	-37.9	28.1	3.03e+01	0	34	0	308281344	48	6007
2026-01-28 03:57:23.14	234.84	13.84	-36.4	-37.7	28.2	3.03e+01	0	33	0	314048512	48	5890
2026-01-28 03:57:26.17	235.41	14.05	-36.4	-37.7	28.2	3.03e+01	0	33	0	319815680	48	5890
2026-01-28 03:57:29.19	236.00	14.25	-36.2	-37.4	28.5	3.03e+01	0	34	0	325582848	48	5724
2026-01-28 03:57:32.22	236.59	14.45	-36.0	-37.2	28.7	3.03e+01	0	33	0	331350016	48	5579
2026-01-28 03:57:35.25	237.20	14.65	-36.0	-37.2	28.7	3.03e+01	0	33	0	336592896	48	5570
2026-01-28 03:57:38.28	237.81	14.85	-35.9	-37.2	28.8	3.03e+01	0	33	0	342360064	46	6209
2026-01-28 03:57:41.31	238.43	15.05	-35.7	-36.9	29.0	3.03e+01	0	34	0	348127232	46	6052
2026-01-28 03:57:44.34	239.06	15.25	-35.7	-36.9	29.0	3.03e+01	0	33	0	353894400	46	6036
2026-01-28 03:57:47.37	239.69	15.44	-35.4	-36.6	29.2	3.03e+01	0	33	0	359661568	46	5851
2026-01-28 03:57:50.40	240.34	15.64	-35.4	-36.6	29.2	3.03e+01	0	33	0	365428736	46	5846
2026-01-28 03:57:53.43	241.00	15.83	-35.5	-36.8	29.2	3.03e+01	0	33	0	370671616	46	5929
2026-01-28 03:57:56.46	241.66	16.02	-35.3	-36.5	29.4	3.03e+01	0	34	0	376438784	46	5742
2026-01-28 03:57:59.49	242.33	16.21	-35.2	-36.4	29.5	3.03e+01	0	34	0	382205952	46	5702
2026-01-28 03:58:02.51	243.01	16.39	-35.2	-36.4	29.5	3.03e+01	0	33	0	387973120	46	5676
2026-01-28 03:58:05.54	243.70	16.58	-35.3	-36.5	29.5	3.03e+01	0	33	0	393740288	46	5743
2026-01-28 03:58:08.57	244.40	16.76	-35.3	-36.5	29.5	3.03e+01	0	33	0	399507456	46	5738
2026-01-28 03:58:11.60	245.11	16.94	-35.4	-36.6	29.3	3.03e+01	0	34	0	404750336	46	5800
2026-01-28 03:58:14.63	245.82	17.12	-35.2	-36.4	29.5	3.03e+01	0	34	0	410517504	46	5701
2026-01-28 03:58:17.66	246.55	17.29	-35.4	-36.6	29.4	3.03e+01	0	34	0	416284672	46	5804
2026-01-28 03:58:20.68	247.28	17.47	-35.2	-36.4	29.4	3.03e+01	0	33	0	422051840	46	5723
2026-01-28 03:58:23.71	248.02	17.63	-35.4	-36.6	29.4	3.03e+01	0	34	0	427819008	46	5804
2026-01-28 03:58:26.74	248.77	17.80	-35.2	-36.4	29.5	3.03e+01	0	34	0	433586176	46	5705
2026-01-28 03:58:29.77	249.53	17.96	-35.3	-36.5	29.5	3.03e+01	0	34	0	438829056	46	5758
2026-01-28 03:58:32.80	250.30	18.12	-35.3	-36.5	29.4	3.03e+01	0	34	0	444596224	46	5780
2026-01-28 03:58:35.83	251.07	18.28	-35.2	-36.4	29.5	3.03e+01	0	34	0	450363392	46	5709
2026-01-28 03:58:38.86	251.86	18.43	-35.3	-36.5	29.4	3.03e+01	0	34	0	456130560	46	5737
2026-01-28 03:58:41.88	252.64	18.57	-35.5	-36.7	29.3	3.03e+01	0	34	0	461897728	46	5883
2026-01-28 03:58:44.91	253.44	18.72	-35.3	-36.5	29.4	3.03e+01	0	34	0	467664896	46	5785
2026-01-28 03:58:47.94	254.25	18.85	-35.3	-36.5	29.5	3.03e+01	0	34	0	472907776	46	5746
2026-01-28 03:58:50.97	255.06	18.99	-35.4	-36.6	29.5	3.03e+01	0	34	0	478674944	46	5796
2026-01-28 03:58:54.00	255.89	19.12	-35.4	-36.6	29.3	3.03e+01	0	34	0	484442112	46	5847
2026-01-28 03:58:57.03	256.71	19.24	-35.5	-36.7	29.3	3.03e+01	0	34	0	490209280	46	5885
2026-01-28 03:59:00.05	257.55	19.36	-35.4	-36.6	29.3	3.03e+01	0	34	0	495976448	46	5842
2026-01-28 03:59:03.07	258.39	19.47	-35.3	-36.5	29.5	3.03e+01	0	34	0	501743616	46	5737
2026-01-28 03:59:06.10	259.23	19.58	-35.5	-36.7	29.3	3.03e+01	0	34	0	506986496	46	5884
2026-01-28 03:59:09.13	260.09	19.68	-35.4	-36.6	29.4	3.03e+01	0	34	0	512753664	46	5808
2026-01-28 03:59:12.16	260.95	19.78	-35.3	-36.5	29.4	3.03e+01	0	34	0	518520832	46	5771
2026-01-28 03:59:15.19	261.81	19.87	-35.3	-36.5	29.4	3.03e+01	0	34	0	524288000	46	5772
2026-01-28 03:59:18.22	262.68	19.96	-35.5	-36.7	29.3	3.03e+01	0	34	0	530055168	46	5912
2026-01-28 03:59:21.25	263.56	20.04	-35.5	-36.7	29.4	3.03e+01	0	34	0	535298048	46	5859
2026-01-28 03:59:24.28	264.44	20.11	-35.5	-36.7	29.3	3.03e+01	0	34	0	541065216	46	5906
2026-01-28 03:59:27.31	265.32	20.18	-35.4	-36.6	29.3	3.03e+01	0	34	0	546832384	46	5847
2026-01-28 03:59:30.33	266.21	20.24	-35.5	-36.7	29.1	3.03e+01	0	34	0	552599552	46	5917
2026-01-28 03:59:33.37	267.10	20.30	-35.4	-36.6	29.3	3.03e+01	0	34	0	558366720	46	5841
2026-01-28 03:59:36.40	268.00	20.34	-35.3	-36.5	29.5	3.03e+01	0	34	0	564133888	46	5779
2026-01-28 03:59:39.43	268.89	20.38	-35.4	-36.6	29.3	3.03e+01	0	34	0	569901056	46	5794
2026-01-28 03:59:42.46	269.79	20.42	-35.3	-36.5	29.4	3.03e+01	0	34	0	575143936	46	5761
2026-01-28 03:59:45.49	270.69	20.45	-35.3	-36.5	29.4	3.03e+01	0	34	0	580911104	46	5782
2026-01-28 03:59:48.52	271.59	20.47	-35.5	-36.7	29.4	3.03e+01	0	34	0	586678272	46	5867
2026-01-28 03:59:51.55	272.50	20.48	-35.4	-36.6	29.5	3.03e+01	0	34	0	592445440	46	5824
2026-01-28 03:59:54.58	273.40	20.49	-35.5	-36.7	29.3	3.03e+01	0	34	0	598212608	46	5893
2026-01-28 03:59:57.61	274.30	20.49	-35.4	-36.6	29.4	3.03e+01	0	34	0	603979776	46	5851
2026-01-28 04:00:00.64	275.21	20.49	-35.3	-36.5	29.5	3.03e+01	0	34	0	609222656	46	5779
2026-01-28 04:00:03.67	276.11	20.47	-35.4	-36.6	29.4	3.03e+01	0	34	0	614989824	46	5836
2026-01-28 04:00:06.70	277.01	20.45	-35.3	-36.5	29.5	3.03e+01	0	34	0	620756992	46	5731
2026-01-28 04:00:09.73	277.91	20.43	-35.2	-36.4	29.6	3.03e+01	0	34	0	626524160	46	5697
2026-01-28 04:00:12.76	278.81	20.39	-35.3	-36.5	29.4	3.03e+01	0	34	0	632291328	46	5766
2026-01-28 04:00:15.80	279.71	20.35	-35.2	-36.4	29.6	3.03e+01	0	34	0	638058496	46	5702
2026-01-28 04:00:18.82	280.60	20.31	-35.3	-36.5	29.5	3.03e+01	0	34	0	643301376	46	5742
2026-01-28 04:00:21.85	281.49	20.26	-35.3	-36.4	29.6	3.03e+01	0	34	0	649068544	46	5721
2026-01-28 04:00:24.88	282.38	20.20	-35.1	-36.3	29.6	3.03e+01	0	34	0	654835712	46	5654
2026-01-28 04:00:27.91	283.26	20.13	-35.0	-36.2	29.8	3.03e+01	0	34	0	660602880	46	5537
2026-01-28 04:00:30.94	284.14	20.06	-35.2	-36.4	29.5	3.03e+01	0	34	0	666370048	46	5703
2026-01-28 04:00:33.97	285.02	19.98	-35.1	-36.3	29.6	3.03e+01	0	34	0	672137216	46	5630
2026-01-28 04:00:37.00	285.89	19.90	-34.9	-36.1	29.7	3.03e+01	0	34	0	677380096	44	6173
2026-01-28 04:00:40.02	286.75	19.81	-35.1	-36.3	29.6	3.03e+01	0	34	0	683147264	44	6308
2026-01-28 04:00:43.05	287.61	19.71	-34.9	-36.1	29.9	3.03e+01	0	34	0	688914432	44	6161
2026-01-28 04:00:46.08	288.46	19.61	-35.0	-36.1	29.7	3.03e+01	0	34	0	694681600	44	6201
2026-01-28 04:00:49.11	289.31	19.50	-35.0	-36.2	29.7	3.03e+01	0	34	0	700448768	44	6256
2026-01-28 04:00:52.14	290.15	19.39	-34.9	-36.1	29.8	3.03e+01	0	34	0	706215936	44	6159
2026-01-28 04:00:55.17	290.98	19.27	-35.0	-36.2	29.6	3.03e+01	0	34	0	711458816	44	6266
2026-01-28 04:00:58.20	291.81	19.15	-34.9	-36.1	29.7	3.03e+01	0	34	0	717225984	44	6141
2026-01-28 04:01:01.23	292.63	19.02	-35.0	-36.2	29.8	3.03e+01	0	34	0	722993152	44	6207
2026-01-28 04:01:04.25	293.44	18.89	-34.8	-36.0	29.9	3.03e+01	0	34	0	728760320	44	6103
2026-01-28 04:01:07.28	294.25	18.76	-34.9	-36.1	29.8	3.03e+01	0	34	0	734527488	44	6159
2026-01-28 04:01:10.31	295.05	18.62	-34.9	-36.1	29.7	3.03e+01	0	34	0	740294656	44	6168
2026-01-28 04:01:13.34	295.84	18.47	-34.9	-36.1	29.7	3.03e+01	0	34	0	745537536	44	6193
2026-01-28 04:01:16.37	296.62	18.32	-34.8	-36.0	29.8	3.03e+01	0	34	0	751304704	44	6103
2026-01-28 04:01:19.39	297.39	18.17	-34.8	-36.0	29.8	3.03e+01	0	34	0	757071872	44	6082
2026-01-28 04:01:22.42	298.16	18.01	-34.9	-36.1	29.8	3.03e+01	0	34	0	762839040	44	6135
2026-01-28 04:01:25.45	298.92	17.85	-34.6	-35.8	30.0	3.03e+01	0	33	0	768606208	44	5943
2026-01-28 04:01:28.48	299.67	17.69	-34.8	-36.0	29.9	3.03e+01	0	34	0	774373376	44	6088
2026-01-28 04:01:31.51	300.41	17.52	-34.7	-35.8	30.0	3.03e+01	0	34	0	779616256	44	5991
2026-01-28 04:01:34.55	301.14	17.35	-34.8	-36.0	29.8	3.03e+01	0	34	0	785383424	44	6113
2026-01-28 04:01:37.58	301.87	17.18	-34.5	-35.7	30.1	3.03e+01	0	33	0	791150592	44	5885
2026-01-28 04:01:40.60	302.58	17.00	-34.8	-36.0	29.8	3.03e+01	0	34	0	796917760	44	6100
2026-01-28 04:01:43.64	303.29	16.82	-34.6	-35.8	30.0	3.03e+01	0	34	0	802684928	44	5942
2026-01-28 04:01:46.67	303.99	16.64	-34.7	-36.0	29.9	3.03e+01	0	34	0	808452096	44	6073
2026-01-28 04:01:49.70	304.67	16.46	-34.4	-35.6	30.1	3.03e+01	0	34	0	813694976	44	5850
2026-01-28 04:01:52.73	305.35	16.28	-34.8	-36.1	29.7	3.03e+01	0	34	0	819462144	44	6138
2026-01-28 04:01:55.76	306.03	16.09	-34.6	-35.8	30.0	3.03e+01	0	33	0	825229312	44	5965
2026-01-28 04:01:58.79	306.69	15.90	-34.7	-35.9	29.9	3.03e+01	0	34	0	830996480	44	6047
2026-01-28 04:02:01.81	307.34	15.71	-34.6	-35.8	30.0	3.03e+01	0	34	0	836763648	44	5960
2026-01-28 04:02:04.84	307.99	15.52	-34.6	-35.7	30.0	3.03e+01	0	33	0	842530816	44	5921
2026-01-28 04:02:07.87	308.62	15.32	-34.7	-35.9	29.9	3.03e+01	0	34	0	847773696	44	6036
2026-01-28 04:02:10.90	309.25	15.13	-34.6	-35.8	29.9	3.03e+01	0	34	0	853540864	44	5968
2026-01-28 04:02:13.93	309.87	14.93	-34.7	-35.9	29.8	3.03e+01	0	34	0	859308032	44	6050
2026-01-28 04:02:16.96	310.48	14.73	-34.7	-35.9	29.8	3.03e+01	0	34	0	865075200	44	6032
2026-01-28 04:02:19.99	311.08	14.54	-34.6	-35.8	29.9	3.03e+01	0	34	0	870842368	44	5974
2026-01-28 04:02:23.02	311.68	14.34	-34.7	-35.9	29.8	3.03e+01	0	34	0	876609536	44	6061
2026-01-28 04:02:26.05	312.26	14.14	-34.8	-36.0	29.7	3.03e+01	0	34	0	882376704	44	6079
2026-01-28 04:02:29.08	312.84	13.93	-34.8	-36.0	29.8	3.03e+01	0	34	0	887619584	44	6095
2026-01-28 04:02:32.11	313.41	13.73	-34.7	-35.9	29.8	3.03e+01	0	34	0	893386752	44	6024
2026-01-28 04:02:35.14	313.97	13.53	-34.9	-36.1	29.6	3.03e+01	0	34	0	899153920	44	6147
2026-01-28 04:02:38.18	314.53	13.33	-34.8	-36.0	29.7	3.03e+01	0	34	0	904921088	44	6133
2026-01-28 04:02:41.21	315.07	13.12	-34.8	-36.0	29.7	3.03e+01	0	34	0	910688256	44	6086
2026-01-28 04:02:44.24	315.61	12.92	-35.1	-36.3	29.5	3.03e+01	0	33	0	915931136	44	6282
2026-01-28 04:02:47.27	316.14	12.72	-35.0	-36.2	29.5	3.03e+01	0	34	0	921698304	44	6221
2026-01-28 04:02:50.29	316.66	12.51	-35.1	-36.3	29.4	3.03e+01	0	33	0	927465472	44	6340
2026-01-28 04:02:53.32	317.18	12.31	-35.0	-36.2	29.5	3.03e+01	0	34	0	933232640	44	6275
2026-01-28 04:02:56.35	317.69	12.10	-35.1	-36.3	29.3	3.03e+01	0	33	0	938999808	44	6329
2026-01-28 04:02:59.39	318.19	11.90	-35.1	-36.3	29.3	3.03e+01	0	34	0	944766976	44	6347
2026-01-28 04:03:02.42	318.68	11.70	-35.1	-36.3	29.4	3.03e+01	0	34	0	950534144	44	6324
2026-01-28 04:03:05.45	319.17	11.49	-35.1	-36.4	29.2	3.03e+01	0	33	0	955777024	44	6352
2026-01-28 04:03:08.47	319.64	11.29	-35.3	-36.5	29.1	3.03e+01	0	34	0	961544192	44	6484
2026-01-28 04:03:11.50	320.12	11.09	-35.5	-36.7	28.9	3.03e+01	0	34	0	967311360	44	6625
2026-01-28 04:03:14.53	320.58	10.88	-35.4	-36.7	28.9	3.03e+01	0	33	0	973078528	44	6575
2026-01-28 04:03:17.56	321.04	10.68	-35.3	-36.5	29.0	3.03e+01	0	34	0	978845696	44	6491
2026-01-28 04:03:20.59	321.49	10.48	-35.2	-36.4	29.1	3.03e+01	0	33	0	984088576	44	6391
2026-01-28 04:03:23.62	321.94	10.28	-35.3	-36.5	29.0	3.03e+01	0	34	0	989855744	44	6486
2026-01-28 04:03:26.65	322.38	10.07	-35.5	-36.7	29.0	3.03e+01	0	34	0	995622912	44	6620
2026-01-28 04:03:29.67	322.81	9.87	-35.5	-36.7	28.9	3.03e+01	0	34	0	1001390080	44	6624
2026-01-28 04:03:32.70	323.24	9.67	-35.8	-37.0	28.6	3.03e+01	0	34	0	1007157248	44	6868
2026-01-28 04:03:35.73	323.66	9.47	-35.7	-36.9	28.7	3.03e+01	0	34	0	1012924416	44	6756
2026-01-28 04:03:38.76	324.07	9.27	-35.6	-36.9	28.7	3.03e+01	0	33	0	1018691584	44	6733
2026-01-28 04:03:41.79	324.48	9.08	-35.9	-37.2	28.4	3.03e+01	0	34	0	1023934464	44	6983
2026-01-28 04:03:44.82	324.88	8.88	-35.9	-37.2	28.6	3.03e+01	0	34	0	1029701632	46	6218
2026-01-28 04:03:47.85	325.28	8.68	-36.0	-37.3	28.3	3.03e+01	0	34	0	1035468800	46	6319
2026-01-28 04:03:50.88	325.67	8.48	-36.2	-37.5	28.2	3.03e+01	0	34	0	1041235968	46	6448
2026-01-28 04:03:53.91	326.06	8.29	-36.2	-37.5	28.1	3.03e+01	0	33	0	1047003136	46	6444
2026-01-28 04:03:56.94	326.44	8.09	-36.4	-37.7	28.0	3.03e+01	0	34	0	1052246016	46	6584
2026-01-28 04:03:59.97	326.82	7.90	-36.2	-37.4	28.1	3.03e+01	0	33	0	1058013184	46	6422
2026-01-28 04:04:03.00	327.19	7.70	-36.7	-46.9	3.6	3.03e+01	0	34	104	1062207488	46	19080
2026-01-28 04:04:06.03	327.55	7.51	-39.6	-50.1	3.6	3.03e+01	0	34	104	1062207488	52	19603
2026-01-28 04:04:09.06	327.91	7.32	-43.2	-54.2	3.6	3.03e+01	0	34	104	1062207488	60	19727
2026-01-28 04:04:12.09	328.27	7.12	-37.8	-47.9	3.6	3.03e+01	0	34	104	1062207488	50	17068
2026-01-28 04:04:15.12	328.62	6.93	-47.4	-62.2	3.5	3.03e+01	0	34	104	1062207488	60	49712
2026-01-28 04:04:18.15	328.96	6.74	-38.0	-48.3	4.1	3.03e+01	0	34	104	1062207488	52	15820
2026-01-28 04:04:21.17	329.30	6.55	-37.5	-47.8	3.5	3.03e+01	0	34	104	1062207488	50	16774
2026-01-28 04:04:24.20	329.64	6.36	-44.1	-55.7	3.5	3.03e+01	0	34	104	1062207488	60	23508
2026-01-28 04:04:27.23	329.97	6.18	-38.7	-49.2	3.5	3.03e+01	0	34	104	1062207488	52	17537
2026-01-28 04:04:30.26	330.30	5.99	-41.5	-52.4	3.5	3.03e+01	0	34	104	1062207488	60	16018
2026-01-28 04:04:33.29	330.62	5.80	-40.1	-50.7	3.5	3.03e+01	0	34	104	1062207488	54	18720
2026-01-28 04:04:36.32	330.94	5.62	-38.5	-49.0	3.5	3.03e+01	0	34	104	1062207488	52	17109
2026-01-28 04:04:39.35	331.26	5.43	-48.0	-64.7	3.5	3.03e+01	0	34	104	1062207488	60	65911
2026-01-28 04:04:42.38	331.57	5.25	-39.7	-50.2	3.5	3.03e+01	0	34	104	1062207488	54	17579
2026-01-28 04:04:45.41	331.87	5.06	-38.1	-48.4	3.5	3.03e+01	0	34	104	1062207488	50	17966
2026-01-28 04:04:48.44	332.18	4.88	-44.8	-58.0	3.5	3.03e+01	0	34	104	1062207488	60	30657
2026-01-28 04:04:51.47	332.48	4.70	-41.2	-52.3	3.5	3.03e+01	0	34	104	1062207488	56	19985
2026-01-28 04:04:54.50	332.77	4.52	-42.1	-54.4	3.5	3.03e+01	0	34	104	1062207488	58	22560
2026-01-28 04:04:57.53	333.06	4.34	-44.1	-58.8	3.5	3.03e+01	0	34	104	1062207488	60	33564
2026-01-28 04:05:00.56	333.35	4.16	-44.2	-61.0	3.5	3.03e+01	0	34	104	1062207488	60	43245
2026-01-28 04:05:03.59	333.63	3.98	-44.3	-62.1	3.5	3.03e+01	0	34	104	1062207488	60	49184
2026-01-28 04:05:06.62	333.91	3.80	-44.3	-62.1	3.5	3.03e+01	0	34	104	1062207488	60	49134
2026-01-28 04:05:09.65	334.19	3.63	-44.4	-62.3	3.5	3.03e+01	0	34	104	1062207488	60	49881
2026-01-28 04:05:12.68	334.46	3.45	-44.4	-62.2	3.5	3.03e+01	0	34	104	1062207488	60	49706
2026-01-28 04:05:15.71	334.73	3.27	-44.3	-62.2	3.5	3.03e+01	0	34	104	1062207488	60	49454
2026-01-28 04:05:18.74	335.00	3.10	-44.3	-62.2	3.5	3.03e+01	0	34	104	1062207488	60	49755
2026-01-28 04:05:21.77	335.26	2.93	-48.2	-66.1	3.5	3.03e+01	0	34	104	1062207488	60	77364
2026-01-28 04:05:24.79	335.52	2.75	-49.0	-66.8	3.5	3.03e+01	0	34	104	1062207488	60	83914
2026-01-28 04:05:27.82	335.78	2.58	-49.2	-67.2	3.5	3.03e+01	0	34	104	1062207488	60	88219
2026-01-28 04:05:30.85	336.04	2.41	-49.4	-67.3	3.5	3.03e+01	0	34	104	1062207488	60	89039
2026-01-28 04:05:33.88	336.29	2.24	-49.4	-67.3	3.5	3.03e+01	0	34	104	1062207488	60	89333
2026-01-28 04:05:36.91	336.53	2.07	-49.3	-67.3	3.5	3.03e+01	0	34	104	1062207488	60	89090
2026-01-28 04:05:39.93	336.78	1.90	-49.1	-67.2	3.5	3.03e+01	0	34	104	1062207488	60	88572
2026-01-28 04:05:42.97	337.02	1.73	-49.0	-67.2	3.5	3.03e+01	0	34	104	1062207488	60	88179
2026-01-28 04:05:45.99	337.26	1.56	-49.3	-67.2	3.5	3.03e+01	0	34	104	1062207488	60	87897
2026-01-28 04:05:49.02	337.50	1.40	-49.3	-67.1	3.5	3.03e+01	0	34	104	1062207488	60	87548
2026-01-28 04:05:52.05	337.73	1.23	-49.3	-67.1	3.5	3.03e+01	0	34	104	1062207488	60	87513
2026-01-28 04:05:55.08	337.96	1.06	-49.3	-67.1	3.5	3.03e+01	0	34	104	1062207488	60	87620
2026-01-28 04:05:58.11	338.19	0.90	-49.3	-67.1	3.5	3.03e+01	0	34	104	1062207488	60	87508
2026-01-28 04:06:01.14	338.42	0.73	-49.3	-67.1	3.5	3.03e+01	0	34	104	1062207488	60	87632
2026-01-28 04:06:04.17	338.64	0.57	-49.3	-67.2	3.5	3.03e+01	0	34	104	1062207488	60	87784
2026-01-28 04:06:07.19	338.86	0.41	-49.3	-67.2	3.5	3.03e+01	0	34	104	1062207488	60	87799
2026-01-28 04:06:10.22	339.08	0.25	-49.3	-67.1	3.5	3.03e+01	0	34	104	1062207488	60	87078
2026-01-28 04:06:13.25	339.30	0.08	-49.3	-67.1	3.5	3.03e+01	0	34	104	1062207488	60	87594
2026-01-28 04:06:16.28	339.51	-0.08	-49.3	-67.1	3.5	3.03e+01	0	34	104	1062207488	60	87374

#Closed at: 2026-01-28 04:06:17
#Recorded file [1062 MB]: D:/lorett/data/35029_260128_155341.dat