passes_logs/2026/01/28/R4.6S_Anadyr/R4.6S_Anadyr__20260128_070929_KOSAR1-5_rec.log

#Pass ID: 20260128_070929_KOSAR1-5
#Satellite: KOSAR1-5
#Configuration: KOSAR1-5
#almurnet v.1.7.20251203
#Start time: 2026-01-28 07:09:31

#Version: 2.2.20231116
#Station: R4.6S_Anadyr
#Location: 177.4865 lon 64.73178 lat
#TLE: 1 67264U 25313S   26027.76143924  .00010916  00000+0  50329-3 0  9990
#TLE: 2 67264  97.4176 104.7207 0016474 138.6036 221.6451 15.20309833  4594

#Time	Az	El	Level	Level2	SNR	BER	BlckErr	Temp	State	Recorded	gain1	gain2
2026-01-28 07:09:31.75	93.89	0.14	-48.9	-60.6	3.5	8.46e-01	0	29	0	0	60	38741
2026-01-28 07:09:34.78	93.60	0.30	-45.3	-60.0	3.6	1.51e+00	0	30	104	0	60	40618
2026-01-28 07:09:37.81	93.31	0.47	-45.2	-59.9	3.6	1.51e+00	0	30	104	0	60	40033
2026-01-28 07:09:40.83	93.01	0.63	-45.2	-60.0	3.6	1.51e+00	0	30	104	0	60	40346
2026-01-28 07:09:43.86	92.71	0.79	-45.3	-60.0	3.6	1.51e+00	0	30	104	0	60	40414
2026-01-28 07:09:46.89	92.40	0.95	-45.0	-60.0	3.6	1.51e+00	0	30	104	0	60	40667
2026-01-28 07:09:49.92	92.09	1.12	-45.1	-60.0	3.6	1.51e+00	0	30	104	0	60	40616
2026-01-28 07:09:52.95	91.77	1.28	-44.2	-59.9	3.6	1.51e+00	0	30	104	0	60	40008
2026-01-28 07:09:55.98	91.45	1.45	-44.7	-59.5	3.6	1.51e+00	0	30	104	0	60	38118
2026-01-28 07:09:59.01	91.13	1.62	-42.9	-58.8	3.6	1.51e+00	0	30	104	0	60	35375
2026-01-28 07:10:02.04	90.80	1.78	-42.9	-58.8	3.6	1.51e+00	0	30	104	0	60	35272
2026-01-28 07:10:05.07	90.46	1.95	-42.9	-58.8	3.6	1.51e+00	0	30	104	0	60	35390
2026-01-28 07:10:08.10	90.12	2.12	-42.9	-58.8	3.6	1.51e+00	0	31	104	0	60	35136
2026-01-28 07:10:11.13	89.78	2.28	-42.9	-58.8	3.6	1.51e+00	0	31	104	0	60	35243
2026-01-28 07:10:14.16	89.43	2.45	-42.9	-58.8	3.6	1.51e+00	0	31	104	0	60	35290
2026-01-28 07:10:17.19	89.07	2.62	-42.9	-58.8	3.6	1.51e+00	0	31	104	0	60	35249
2026-01-28 07:10:20.22	88.71	2.79	-42.9	-58.8	3.6	1.51e+00	0	31	104	0	60	35341
2026-01-28 07:10:23.25	88.34	2.96	-42.9	-58.8	3.6	1.51e+00	0	31	104	0	60	35279
2026-01-28 07:10:26.28	87.97	3.13	-42.9	-58.7	3.6	1.51e+00	0	31	104	0	60	35074
2026-01-28 07:10:29.31	87.59	3.30	-42.9	-58.8	3.6	1.51e+00	0	31	104	0	60	35247
2026-01-28 07:10:32.34	87.21	3.48	-43.7	-58.9	3.6	1.51e+00	0	31	104	0	60	35849
2026-01-28 07:10:35.37	86.82	3.65	-42.8	-58.9	3.6	1.51e+00	0	31	104	0	60	35538
2026-01-28 07:10:38.40	86.42	3.82	-43.1	-58.9	3.6	1.51e+00	0	31	104	0	60	35721
2026-01-28 07:10:41.43	86.02	3.99	-43.3	-58.9	3.6	1.51e+00	0	31	104	0	60	35747
2026-01-28 07:10:44.45	85.61	4.17	-44.1	-59.0	3.6	1.51e+00	0	31	104	0	60	36337
2026-01-28 07:10:47.48	85.20	4.34	-44.1	-59.0	3.6	1.51e+00	0	31	104	0	60	36157
2026-01-28 07:10:50.51	84.78	4.51	-44.2	-59.0	3.6	1.51e+00	0	31	104	0	60	36324
2026-01-28 07:10:53.53	84.35	4.69	-44.0	-59.0	3.6	1.51e+00	0	31	104	0	60	36147
2026-01-28 07:10:56.56	83.92	4.86	-43.5	-59.1	3.6	1.51e+00	0	31	104	0	60	36461
2026-01-28 07:10:59.59	83.47	5.03	-42.7	-59.1	3.6	1.51e+00	0	31	104	0	60	36552
2026-01-28 07:11:02.61	83.03	5.21	-43.2	-59.1	3.6	1.51e+00	0	31	104	0	60	36692
2026-01-28 07:11:05.64	82.57	5.38	-44.2	-59.2	3.6	1.51e+00	0	31	104	0	60	36820
2026-01-28 07:11:08.67	82.11	5.56	-43.6	-59.2	3.6	1.51e+00	0	31	104	0	60	36893
2026-01-28 07:11:11.69	81.64	5.73	-43.6	-59.3	3.6	1.51e+00	0	31	104	0	60	37277
2026-01-28 07:11:14.71	81.17	5.91	-43.9	-59.2	3.6	1.51e+00	0	31	104	0	60	37160
2026-01-28 07:11:17.74	80.68	6.08	-44.1	-59.2	3.6	1.51e+00	0	31	104	0	60	37159
2026-01-28 07:11:20.77	80.19	6.26	-43.1	-59.3	3.6	1.51e+00	0	31	104	0	60	37233
2026-01-28 07:11:23.79	79.70	6.43	-44.1	-59.3	3.6	1.51e+00	0	31	104	0	60	37499
2026-01-28 07:11:26.82	79.19	6.61	-44.1	-59.3	3.6	1.51e+00	0	31	104	0	60	37468
2026-01-28 07:11:29.85	78.67	6.78	-44.4	-59.4	3.6	1.51e+00	0	31	104	0	60	37679
2026-01-28 07:11:32.88	78.15	6.96	-44.4	-59.4	3.6	1.51e+00	0	31	104	0	60	37671
2026-01-28 07:11:35.91	77.62	7.13	-44.5	-59.4	3.6	1.51e+00	0	31	104	0	60	37949
2026-01-28 07:11:38.93	77.08	7.30	-44.1	-59.4	3.6	1.51e+00	0	31	104	0	60	37844
2026-01-28 07:11:41.96	76.54	7.48	-43.8	-59.4	3.6	1.51e+00	0	31	104	0	60	37861
2026-01-28 07:11:44.99	75.98	7.65	-44.4	-59.4	3.6	1.51e+00	0	31	104	0	60	37755
2026-01-28 07:11:48.01	75.42	7.82	-44.0	-59.5	3.6	1.51e+00	0	31	104	0	60	38127
2026-01-28 07:11:51.04	74.85	7.99	-43.9	-59.4	3.6	1.51e+00	0	31	104	0	60	37997
2026-01-28 07:11:54.07	74.27	8.16	-40.1	-59.4	3.6	1.51e+00	0	31	104	0	56	47919
2026-01-28 07:11:57.10	73.68	8.33	-40.3	-59.4	3.6	1.51e+00	0	31	104	0	56	47638
2026-01-28 07:12:00.13	73.08	8.50	-42.4	-59.5	3.6	1.51e+00	0	31	104	0	60	38194
2026-01-28 07:12:03.16	72.47	8.67	-41.8	-59.4	3.6	1.51e+00	0	31	104	0	58	42464
2026-01-28 07:12:06.19	71.86	8.84	-44.0	-59.5	3.6	1.51e+00	0	31	104	0	60	38320
2026-01-28 07:12:09.22	71.23	9.00	-44.6	-59.5	3.6	1.51e+00	0	31	104	0	60	38285
2026-01-28 07:12:12.25	70.60	9.17	-44.7	-59.5	3.6	1.51e+00	0	31	104	0	60	38301
2026-01-28 07:12:15.27	69.96	9.33	-43.6	-59.5	3.6	1.51e+00	0	31	104	0	60	38357
2026-01-28 07:12:18.30	69.31	9.49	-41.2	-59.5	3.6	1.51e+00	0	31	104	0	58	43123
2026-01-28 07:12:21.33	68.65	9.65	-41.9	-59.5	3.6	1.51e+00	0	31	104	0	58	42737
2026-01-28 07:12:24.36	67.98	9.81	-40.8	-59.5	3.6	1.51e+00	0	31	104	0	56	48321
2026-01-28 07:12:27.38	67.30	9.96	-42.2	-59.5	3.6	1.51e+00	0	31	104	0	58	43095
2026-01-28 07:12:30.41	66.62	10.12	-44.2	-59.6	3.6	1.51e+00	0	31	104	0	60	38525
2026-01-28 07:12:33.44	65.92	10.27	-44.5	-59.6	3.6	1.51e+00	0	31	104	0	60	38559
2026-01-28 07:12:36.47	65.22	10.42	-44.5	-59.6	3.6	1.51e+00	0	31	104	0	60	38713
2026-01-28 07:12:39.50	64.50	10.57	-44.9	-59.6	3.6	1.51e+00	0	31	104	0	60	38702
2026-01-28 07:12:42.53	63.78	10.71	-42.5	-59.5	3.6	1.51e+00	0	32	104	0	58	43203
2026-01-28 07:12:45.56	63.05	10.85	-42.1	-59.6	3.6	1.51e+00	0	31	104	0	60	38844
2026-01-28 07:12:48.59	62.31	10.99	-43.3	-59.7	3.6	1.51e+00	0	31	104	0	60	38996
2026-01-28 07:12:51.62	61.56	11.13	-43.7	-59.6	3.6	1.51e+00	0	31	104	0	60	38864
2026-01-28 07:12:54.64	60.80	11.26	-44.8	-59.6	3.6	1.51e+00	0	31	104	0	60	38755
2026-01-28 07:12:57.67	60.03	11.39	-43.8	-59.6	3.6	1.51e+00	0	31	104	0	60	38830
2026-01-28 07:13:00.70	59.26	11.52	-44.8	-59.7	3.6	1.51e+00	0	31	104	0	60	39047
2026-01-28 07:13:03.72	58.48	11.64	-44.3	-59.7	3.6	1.51e+00	0	31	104	0	60	39056
2026-01-28 07:13:06.75	57.69	11.76	-43.8	-59.6	3.6	1.51e+00	0	31	104	0	60	38880
2026-01-28 07:13:09.78	56.89	11.88	-44.7	-59.7	3.6	1.51e+00	0	31	104	0	60	38994
2026-01-28 07:13:12.81	56.08	11.99	-44.1	-59.7	3.6	1.51e+00	0	31	104	0	60	39135
2026-01-28 07:13:15.84	55.27	12.10	-44.6	-59.7	3.6	1.51e+00	0	31	104	0	60	39213
2026-01-28 07:13:18.86	54.45	12.20	-44.9	-59.7	3.6	1.51e+00	0	31	104	0	60	39117
2026-01-28 07:13:21.89	53.63	12.30	-44.3	-59.7	3.6	1.51e+00	0	31	104	0	60	39258
2026-01-28 07:13:24.92	52.79	12.39	-44.8	-59.7	3.6	1.51e+00	0	32	104	0	60	39126
2026-01-28 07:13:27.95	51.95	12.48	-45.0	-59.7	3.6	1.51e+00	0	32	104	0	60	39244
2026-01-28 07:13:30.98	51.10	12.57	-45.0	-59.7	3.6	1.51e+00	0	31	104	0	60	39175
2026-01-28 07:13:34.00	50.25	12.65	-44.7	-59.7	3.6	1.51e+00	0	31	104	0	60	39278
2026-01-28 07:13:37.03	49.40	12.72	-44.1	-59.7	3.6	1.51e+00	0	31	104	0	60	39107
2026-01-28 07:13:40.06	48.53	12.79	-45.0	-59.8	3.6	1.51e+00	0	31	104	0	60	39452
2026-01-28 07:13:43.09	47.67	12.85	-43.9	-59.7	3.6	1.51e+00	0	31	104	0	60	39316
2026-01-28 07:13:46.12	46.79	12.91	-44.7	-59.7	3.6	1.51e+00	0	31	104	0	60	39283
2026-01-28 07:13:49.14	45.92	12.97	-44.8	-59.7	3.6	1.51e+00	0	32	104	0	60	39317
2026-01-28 07:13:52.17	45.04	13.01	-44.8	-59.8	3.6	1.51e+00	0	32	104	0	60	39450
2026-01-28 07:13:55.20	44.16	13.06	-44.7	-59.7	3.6	1.51e+00	0	32	104	0	60	39292
2026-01-28 07:13:58.23	43.27	13.09	-45.0	-59.8	3.6	1.51e+00	0	32	104	0	60	39580
2026-01-28 07:14:01.26	42.38	13.12	-44.8	-59.7	3.6	1.51e+00	0	32	104	0	60	39213
2026-01-28 07:14:04.29	41.49	13.15	-45.1	-59.8	3.6	1.51e+00	0	31	104	0	60	39713
2026-01-28 07:14:07.31	40.60	13.17	-44.9	-59.7	3.6	1.51e+00	0	32	104	0	60	39295
2026-01-28 07:14:10.33	39.71	13.18	-44.8	-59.7	3.6	1.51e+00	0	31	104	0	60	39294
2026-01-28 07:14:13.37	38.81	13.19	-44.9	-59.7	3.6	1.51e+00	0	31	104	0	60	39380
2026-01-28 07:14:16.39	37.92	13.19	-44.9	-59.7	3.6	1.51e+00	0	32	104	0	60	39334
2026-01-28 07:14:19.42	37.03	13.19	-44.9	-59.8	3.6	1.51e+00	0	31	104	0	60	39609
2026-01-28 07:14:22.45	36.13	13.18	-44.9	-59.7	3.6	1.51e+00	0	32	104	0	60	39291
2026-01-28 07:14:25.47	35.24	13.16	-44.7	-59.8	3.5	1.51e+00	0	32	104	0	60	39606
2026-01-28 07:14:28.50	34.35	13.14	-44.8	-59.8	3.6	1.51e+00	0	32	104	0	60	39570
2026-01-28 07:14:31.53	33.46	13.11	-44.9	-59.7	3.6	1.51e+00	0	32	104	0	60	39359
2026-01-28 07:14:34.56	32.57	13.08	-45.0	-59.7	3.6	1.51e+00	0	32	104	0	60	39350
2026-01-28 07:14:37.58	31.69	13.04	-44.7	-59.7	3.6	1.51e+00	0	32	104	0	60	39314
2026-01-28 07:14:40.61	30.81	12.99	-44.7	-59.8	3.6	1.51e+00	0	32	104	0	60	39426
2026-01-28 07:14:43.64	29.93	12.94	-44.9	-59.8	3.6	1.51e+00	0	32	104	0	60	39463
2026-01-28 07:14:46.66	29.05	12.89	-44.9	-59.7	3.6	1.51e+00	0	31	104	0	60	39326
2026-01-28 07:14:49.69	28.18	12.83	-45.0	-59.7	3.6	1.51e+00	0	32	104	0	60	39257
2026-01-28 07:14:52.72	27.32	12.76	-44.9	-59.7	3.6	1.51e+00	0	32	104	0	60	39286
2026-01-28 07:14:55.74	26.46	12.69	-45.0	-59.7	3.6	1.51e+00	0	31	104	0	60	39285
2026-01-28 07:14:58.77	25.60	12.61	-45.0	-59.7	3.6	1.51e+00	0	32	104	0	60	39341
2026-01-28 07:15:01.80	24.75	12.53	-44.8	-59.7	3.6	1.51e+00	0	31	104	0	60	39150
2026-01-28 07:15:04.83	23.91	12.44	-44.6	-59.7	3.6	1.51e+00	0	32	104	0	60	39376
2026-01-28 07:15:07.85	23.07	12.35	-45.0	-59.7	3.6	1.51e+00	0	32	104	0	60	39329
2026-01-28 07:15:10.88	22.24	12.25	-45.0	-59.7	3.6	1.51e+00	0	32	104	0	60	39258
2026-01-28 07:15:13.90	21.42	12.15	-44.9	-59.7	3.6	1.51e+00	0	31	104	0	60	39169
2026-01-28 07:15:16.93	20.60	12.05	-44.9	-59.7	3.6	1.51e+00	0	31	104	0	60	39215
2026-01-28 07:15:19.96	19.79	11.94	-45.0	-59.7	3.6	1.51e+00	0	31	104	0	60	39219
2026-01-28 07:15:22.98	18.98	11.83	-44.9	-59.7	3.6	1.51e+00	0	32	104	0	60	39090
2026-01-28 07:15:26.01	18.19	11.71	-44.9	-59.7	3.6	1.51e+00	0	32	104	0	60	38972
2026-01-28 07:15:29.04	17.40	11.59	-44.7	-59.7	3.6	1.51e+00	0	32	104	0	60	39097
2026-01-28 07:15:32.07	16.62	11.46	-45.0	-59.7	3.5	1.51e+00	0	32	104	0	60	39000
2026-01-28 07:15:35.09	15.85	11.34	-45.0	-59.6	3.6	1.51e+00	0	31	104	0	60	38823
2026-01-28 07:15:38.12	15.09	11.20	-44.8	-59.7	3.6	1.51e+00	0	32	104	0	60	39114
2026-01-28 07:15:41.14	14.33	11.07	-44.3	-59.6	3.6	1.51e+00	0	32	104	0	60	38695
2026-01-28 07:15:44.17	13.59	10.93	-44.9	-59.6	3.6	1.51e+00	0	32	104	0	60	38862
2026-01-28 07:15:47.20	12.85	10.79	-44.9	-59.6	3.6	1.51e+00	0	32	104	0	60	38707
2026-01-28 07:15:50.22	12.12	10.65	-44.9	-59.6	3.6	1.51e+00	0	32	104	0	60	38875
2026-01-28 07:15:53.25	11.40	10.50	-44.6	-59.6	3.6	1.51e+00	0	31	104	0	60	38820
2026-01-28 07:15:56.27	10.69	10.35	-44.9	-59.6	3.6	1.51e+00	0	32	104	0	60	38935
2026-01-28 07:15:59.30	9.99	10.20	-44.6	-59.6	3.6	1.51e+00	0	32	104	0	60	38620
2026-01-28 07:16:02.33	9.30	10.05	-44.8	-59.6	3.6	1.51e+00	0	32	104	0	60	38547
2026-01-28 07:16:05.35	8.61	9.89	-44.8	-59.6	3.6	1.51e+00	0	32	104	0	60	38744
2026-01-28 07:16:08.37	7.94	9.74	-44.9	-59.6	3.6	1.51e+00	0	31	104	0	60	38643
2026-01-28 07:16:11.39	7.28	9.58	-44.9	-59.5	3.6	1.51e+00	0	32	104	0	60	38458
2026-01-28 07:16:14.42	6.62	9.42	-44.8	-59.6	3.6	1.51e+00	0	31	104	0	60	38514
2026-01-28 07:16:17.44	5.97	9.26	-44.9	-59.6	3.6	1.51e+00	0	32	104	0	60	38712
2026-01-28 07:16:20.47	5.33	9.09	-44.9	-59.6	3.6	1.51e+00	0	32	104	0	60	38745
2026-01-28 07:16:23.49	4.70	8.93	-44.9	-59.5	3.6	1.51e+00	0	32	104	0	60	38427
2026-01-28 07:16:26.52	4.08	8.76	-44.8	-59.5	3.6	1.51e+00	0	32	104	0	60	38470
2026-01-28 07:16:29.55	3.47	8.59	-44.8	-59.5	3.6	1.51e+00	0	32	104	0	60	38266
2026-01-28 07:16:32.58	2.86	8.42	-44.8	-59.5	3.6	1.51e+00	0	32	104	0	60	38318
2026-01-28 07:16:35.60	2.27	8.25	-44.7	-59.5	3.6	1.51e+00	0	32	104	0	60	38351
2026-01-28 07:16:38.63	1.68	8.08	-44.7	-59.5	3.6	1.51e+00	0	32	104	0	60	38171
2026-01-28 07:16:41.65	1.11	7.91	-44.7	-59.4	3.6	1.51e+00	0	32	104	0	60	37834
2026-01-28 07:16:44.68	0.54	7.74	-44.7	-59.4	3.6	1.51e+00	0	32	104	0	60	37688
2026-01-28 07:16:47.71	359.98	7.57	-44.7	-59.4	3.6	1.51e+00	0	32	104	0	60	37739
2026-01-28 07:16:50.74	359.43	7.39	-44.7	-59.4	3.5	1.51e+00	0	32	104	0	60	37839
2026-01-28 07:16:53.77	358.88	7.22	-44.7	-59.3	3.6	1.51e+00	0	32	104	0	60	37569
2026-01-28 07:16:56.79	358.35	7.05	-44.7	-59.4	3.6	1.51e+00	0	32	104	0	60	38055
2026-01-28 07:16:59.82	357.82	6.87	-44.7	-59.4	3.6	1.51e+00	0	32	104	0	60	37891
2026-01-28 07:17:02.85	357.30	6.70	-44.7	-59.4	3.6	1.51e+00	0	32	104	0	60	37801
2026-01-28 07:17:05.87	356.79	6.52	-44.6	-59.3	3.6	1.51e+00	0	32	104	0	60	37452
2026-01-28 07:17:08.90	356.29	6.35	-44.5	-59.2	3.6	1.51e+00	0	32	104	0	60	37035
2026-01-28 07:17:11.93	355.79	6.17	-44.6	-59.4	3.6	1.51e+00	0	32	104	0	60	37853
2026-01-28 07:17:14.96	355.30	6.00	-44.5	-59.2	3.6	1.51e+00	0	32	104	0	60	37105
2026-01-28 07:17:17.98	354.82	5.82	-44.5	-59.2	3.6	1.51e+00	0	32	104	0	60	37066
2026-01-28 07:17:21.00	354.35	5.64	-44.4	-59.1	3.6	1.51e+00	0	32	104	0	60	36753
2026-01-28 07:17:24.03	353.88	5.47	-44.9	-59.6	3.6	1.51e+00	0	32	104	0	60	38616
2026-01-28 07:17:27.05	353.42	5.29	-44.7	-59.3	3.6	1.51e+00	0	32	104	0	60	37559
2026-01-28 07:17:30.08	352.97	5.12	-44.6	-59.3	3.6	1.51e+00	0	32	104	0	60	37489
2026-01-28 07:17:33.11	352.53	4.94	-44.4	-59.2	3.6	1.51e+00	0	32	104	0	60	37159
2026-01-28 07:17:36.14	352.09	4.77	-44.7	-59.4	3.6	1.51e+00	0	32	104	0	60	38035
2026-01-28 07:17:39.17	351.65	4.59	-44.7	-59.4	3.6	1.51e+00	0	32	104	0	60	37922
2026-01-28 07:17:42.20	351.23	4.42	-44.4	-59.1	3.6	1.51e+00	0	32	104	0	60	36701
2026-01-28 07:17:45.22	350.81	4.25	-44.4	-59.2	3.6	1.51e+00	0	32	104	0	60	36969
2026-01-28 07:17:48.25	350.40	4.07	-44.7	-59.4	3.6	1.51e+00	0	32	104	0	60	37912
2026-01-28 07:17:51.27	350.00	3.90	-44.5	-59.2	3.6	1.51e+00	0	32	104	0	60	37174
2026-01-28 07:17:54.30	349.60	3.73	-44.2	-59.0	3.6	1.51e+00	0	32	104	0	60	35994
2026-01-28 07:17:57.33	349.20	3.55	-44.1	-58.9	3.6	1.51e+00	0	32	104	0	60	35616
2026-01-28 07:18:00.36	348.81	3.38	-44.2	-59.0	3.6	1.51e+00	0	32	104	0	60	35992
2026-01-28 07:18:03.38	348.43	3.21	-43.9	-58.7	3.6	1.51e+00	0	32	104	0	60	34968
2026-01-28 07:18:06.41	348.06	3.04	-40.9	-55.6	3.6	1.51e+00	0	32	104	0	58	27507
2026-01-28 07:18:09.44	347.69	2.87	-43.9	-58.7	3.6	1.51e+00	0	32	104	0	60	34903
2026-01-28 07:18:12.46	347.33	2.70	-45.2	-60.1	3.6	1.51e+00	0	32	104	0	60	41072
2026-01-28 07:18:15.49	346.97	2.53	-45.7	-60.4	3.6	1.51e+00	0	32	104	0	60	42576
2026-01-28 07:18:18.52	346.61	2.36	-45.7	-60.5	3.6	1.51e+00	0	32	104	0	60	42851
2026-01-28 07:18:21.55	346.26	2.19	-45.6	-60.5	3.6	1.51e+00	0	32	104	0	60	42764
2026-01-28 07:18:24.58	345.92	2.02	-45.6	-60.3	3.6	1.51e+00	0	32	104	0	60	42026
2026-01-28 07:18:27.61	345.58	1.85	-45.2	-60.1	3.6	1.51e+00	0	32	104	0	60	41020
2026-01-28 07:18:30.63	345.25	1.69	-45.4	-60.1	3.6	1.51e+00	0	32	104	0	60	41055
2026-01-28 07:18:33.66	344.92	1.52	-45.4	-60.2	3.6	1.51e+00	0	32	104	0	60	41270
2026-01-28 07:18:36.69	344.60	1.35	-45.4	-60.1	3.6	1.51e+00	0	32	104	0	60	40971
2026-01-28 07:18:39.72	344.28	1.19	-45.4	-60.1	3.6	1.51e+00	0	32	104	0	60	40804
2026-01-28 07:18:42.75	343.97	1.02	-45.4	-60.1	3.6	1.51e+00	0	32	104	0	60	40899
2026-01-28 07:18:45.78	343.66	0.86	-45.4	-60.0	3.6	1.51e+00	0	32	104	0	60	40692
2026-01-28 07:18:48.81	343.35	0.69	-45.3	-60.1	3.6	1.51e+00	0	32	104	0	60	40889
2026-01-28 07:18:51.84	343.05	0.53	-45.3	-60.0	3.6	1.51e+00	0	32	104	0	60	40737
2026-01-28 07:18:54.86	342.76	0.37	-45.3	-60.0	3.6	1.51e+00	0	32	104	0	60	40655
2026-01-28 07:18:57.89	342.47	0.20	-45.3	-60.0	3.6	1.51e+00	0	32	104	0	60	40596
2026-01-28 07:19:00.92	342.18	0.04	-45.3	-60.0	3.6	1.51e+00	0	32	104	0	60	40691

#Closed at: 2026-01-28 07:19:01
#Recorded file [0 MB]: D:/lorett/data/35029_260128_190931.dat