passes_logs/2026/01/28/R4.6S_Anadyr/R4.6S_Anadyr__20260128_011212_FENGYUN_3D_rec.log

#Pass ID: 20260128_011212_FENGYUN 3D
#Satellite: FENGYUN 3D
#Configuration: FENGYUN 3D
#almurnet v.1.7.20251203
#Start time: 2026-01-28 01:12:15

#Version: 2.2.20231116
#Station: R4.6S_Anadyr
#Location: 177.4865 lon 64.73178 lat
#TLE: 1 43010U 17072A   26027.61892183  .00000301  00000+0  16406-3 0  9993
#TLE: 2 43010  98.9961 359.6320 0002526  87.4560 272.6905 14.19701415425044

#Time	Az	El	Level	Level2	SNR	BER	BlckErr	Temp	State	Recorded	gain1	gain2
2026-01-28 01:12:15.06	129.63	0.15	-45.6	-59.9	3.5	1.51e+00	0	30	0	0	60	40234
2026-01-28 01:12:19.09	129.53	0.39	-48.8	-61.0	3.6	8.45e-01	0	31	104	0	60	40351
2026-01-28 01:12:23.13	129.42	0.63	-48.9	-61.1	3.6	8.46e-01	0	31	104	0	60	40792
2026-01-28 01:12:27.17	129.32	0.87	-48.9	-61.0	3.6	8.45e-01	0	31	104	0	60	40489
2026-01-28 01:12:31.21	129.21	1.12	-48.0	-60.9	3.6	8.46e-01	0	31	104	0	60	39952
2026-01-28 01:12:35.25	129.09	1.37	-48.5	-60.6	3.6	8.44e-01	0	32	104	0	60	38677
2026-01-28 01:12:39.29	128.98	1.62	-47.7	-59.8	3.6	8.47e-01	0	31	104	0	60	35407
2026-01-28 01:12:43.33	128.87	1.87	-47.1	-59.6	3.6	8.45e-01	0	32	104	0	60	34530
2026-01-28 01:12:47.37	128.75	2.12	-47.1	-59.6	3.6	8.45e-01	0	32	104	0	60	34530
2026-01-28 01:12:51.41	128.63	2.38	-47.1	-59.6	3.6	8.45e-01	0	32	104	0	60	34438
2026-01-28 01:12:55.45	128.50	2.64	-47.1	-59.6	3.6	8.45e-01	0	32	104	0	60	34493
2026-01-28 01:12:59.49	128.38	2.90	-47.1	-58.9	3.6	8.46e-01	0	32	104	0	60	31712
2026-01-28 01:13:03.53	128.25	3.16	-47.1	-58.5	3.6	8.46e-01	0	32	104	0	60	30300
2026-01-28 01:13:07.57	128.12	3.42	-45.7	-50.4	7.7	3.87e-01	0	32	0	1048576	60	11974
2026-01-28 01:13:11.61	127.99	3.69	-39.1	-40.3	18.3	0.00e+00	0	32	0	24117248	52	5945
2026-01-28 01:13:15.65	127.85	3.96	-37.3	-38.3	6.1	8.22e-01	0	32	104	35651584	50	5257
2026-01-28 01:13:19.69	127.72	4.23	-37.1	-38.0	20.8	0.00e+00	0	32	0	46137344	48	5758
2026-01-28 01:13:23.73	127.57	4.51	-36.8	-37.6	21.0	0.00e+00	0	32	0	69206016	46	6153
2026-01-28 01:13:27.77	127.43	4.79	-35.8	-36.6	22.0	0.00e+00	0	32	0	92274688	44	6164
2026-01-28 01:13:31.81	127.28	5.07	-36.0	-36.9	21.9	0.00e+00	0	32	0	114294784	44	6340
2026-01-28 01:13:35.85	127.13	5.35	-35.2	-36.0	22.7	0.00e+00	0	32	0	137363456	44	5739
2026-01-28 01:13:39.89	126.98	5.64	-35.1	-35.8	22.9	0.00e+00	0	32	0	160432128	42	6314
2026-01-28 01:13:43.93	126.83	5.92	-34.9	-35.7	23.1	0.00e+00	0	32	0	182452224	42	6194
2026-01-28 01:13:47.97	126.67	6.22	-34.5	-35.3	23.5	0.00e+00	0	32	0	205520896	42	5905
2026-01-28 01:13:52.01	126.50	6.51	-34.5	-35.2	23.5	0.00e+00	0	32	0	227540992	42	5883
2026-01-28 01:13:56.05	126.34	6.81	-34.5	-35.3	23.5	0.00e+00	0	32	0	250609664	42	5898
2026-01-28 01:14:00.09	126.16	7.11	-34.2	-35.0	23.8	0.00e+00	0	32	0	273678336	42	5698
2026-01-28 01:14:04.13	125.99	7.42	-34.3	-35.0	23.9	0.00e+00	0	32	0	296747008	42	5714
2026-01-28 01:14:08.17	125.81	7.73	-34.2	-34.9	23.9	0.00e+00	0	32	0	318767104	42	5643
2026-01-28 01:14:12.21	125.63	8.04	-34.4	-35.2	23.9	0.00e+00	0	32	0	341835776	42	5837
2026-01-28 01:14:16.25	125.44	8.35	-34.6	-35.3	23.7	0.00e+00	0	32	0	364904448	42	5939
2026-01-28 01:14:20.29	125.25	8.67	-34.9	-35.7	23.5	0.00e+00	0	32	0	386924544	42	6183
2026-01-28 01:14:24.33	125.06	8.99	-34.3	-35.0	23.9	0.00e+00	0	32	0	409993216	42	5751
2026-01-28 01:14:28.37	124.86	9.32	-34.2	-34.9	24.2	0.00e+00	0	32	0	433061888	42	5653
2026-01-28 01:14:32.41	124.65	9.65	-34.2	-34.9	24.1	0.00e+00	0	32	0	455081984	42	5689
2026-01-28 01:14:36.45	124.44	9.99	-34.1	-34.8	24.3	0.00e+00	0	32	0	478150656	42	5607
2026-01-28 01:14:40.49	124.23	10.33	-33.9	-34.6	24.5	0.00e+00	0	32	0	501219328	42	5478
2026-01-28 01:14:44.54	124.00	10.67	-33.7	-34.4	24.6	0.00e+00	0	32	0	523239424	40	6010
2026-01-28 01:14:48.58	123.78	11.02	-33.6	-34.3	24.8	0.00e+00	0	32	0	546308096	40	5902
2026-01-28 01:14:52.62	123.55	11.37	-33.5	-34.2	24.9	0.00e+00	0	32	0	569376768	40	5860
2026-01-28 01:14:56.66	123.31	11.73	-33.4	-34.1	25.0	0.00e+00	0	32	0	591396864	40	5775
2026-01-28 01:15:00.71	123.06	12.09	-33.3	-34.0	25.1	0.00e+00	0	32	0	614465536	40	5705
2026-01-28 01:15:04.75	122.81	12.46	-33.4	-34.1	24.9	0.00e+00	0	32	0	637534208	40	5772
2026-01-28 01:15:08.79	122.56	12.83	-33.1	-33.8	25.3	0.00e+00	0	32	0	659554304	40	5616
2026-01-28 01:15:12.83	122.29	13.20	-33.1	-33.8	25.3	0.00e+00	0	32	0	682622976	40	5628
2026-01-28 01:15:16.87	122.02	13.59	-32.9	-33.6	25.5	0.00e+00	0	32	0	705691648	40	5449
2026-01-28 01:15:20.91	121.74	13.97	-32.8	-33.4	25.7	0.00e+00	0	32	0	727711744	40	5351
2026-01-28 01:15:24.95	121.46	14.37	-32.7	-33.4	25.6	0.00e+00	0	32	0	750780416	38	5968
2026-01-28 01:15:28.99	121.16	14.76	-32.7	-33.3	25.7	0.00e+00	0	32	0	773849088	38	5950
2026-01-28 01:15:33.03	120.86	15.17	-32.6	-33.2	25.8	0.00e+00	0	32	0	795869184	38	5896
2026-01-28 01:15:37.08	120.55	15.58	-32.6	-33.3	25.9	0.00e+00	0	32	0	818937856	38	5904
2026-01-28 01:15:41.12	120.23	16.00	-32.3	-33.0	26.1	0.00e+00	0	32	0	842006528	38	5706
2026-01-28 01:15:45.16	119.90	16.42	-31.9	-32.6	26.4	0.00e+00	0	32	0	864026624	38	5451
2026-01-28 01:15:49.20	119.56	16.85	-31.8	-32.5	26.5	0.00e+00	0	32	0	887095296	36	6047
2026-01-28 01:15:53.24	119.21	17.28	-31.8	-32.5	26.6	0.00e+00	0	32	0	910163968	36	6046
2026-01-28 01:15:57.28	118.85	17.73	-31.9	-32.5	26.5	0.00e+00	0	32	0	933232640	36	6102
2026-01-28 01:16:01.32	118.47	18.18	-31.8	-32.5	26.6	0.00e+00	0	32	0	955252736	36	6044
2026-01-28 01:16:05.35	118.09	18.63	-31.6	-32.3	26.7	0.00e+00	0	32	0	978321408	36	5933
2026-01-28 01:16:09.40	117.69	19.10	-31.4	-32.1	26.9	0.00e+00	0	32	0	1000341504	36	5782
2026-01-28 01:16:13.44	117.29	19.57	-31.3	-32.0	27.0	0.00e+00	0	32	0	1023410176	36	5726
2026-01-28 01:16:17.48	116.86	20.04	-31.4	-32.0	27.0	0.00e+00	0	32	0	1046478848	36	5724
2026-01-28 01:16:21.52	116.43	20.53	-31.4	-32.0	26.9	0.00e+00	0	32	0	1068498944	36	5746
2026-01-28 01:16:25.56	115.98	21.02	-30.9	-31.6	27.3	0.00e+00	0	32	0	1091567616	36	5459
2026-01-28 01:16:29.60	115.52	21.52	-30.8	-31.4	27.5	0.00e+00	0	32	0	1114636288	34	5975
2026-01-28 01:16:33.64	115.03	22.03	-30.9	-31.6	27.4	0.00e+00	0	32	0	1137704960	34	6128
2026-01-28 01:16:37.68	114.54	22.55	-30.8	-31.5	27.4	0.00e+00	0	32	0	1159725056	34	6069
2026-01-28 01:16:41.72	114.02	23.08	-30.6	-31.2	27.6	0.00e+00	0	32	0	1182793728	34	5889
2026-01-28 01:16:45.76	113.49	23.61	-30.5	-31.1	27.7	0.00e+00	0	32	0	1204813824	34	5774
2026-01-28 01:16:49.80	112.94	24.15	-30.7	-31.3	27.5	0.00e+00	0	32	0	1227882496	34	5943
2026-01-28 01:16:53.84	112.37	24.70	-30.5	-31.2	27.7	0.00e+00	0	32	0	1250951168	34	5858
2026-01-28 01:16:57.88	111.78	25.26	-30.2	-30.8	28.0	0.00e+00	0	32	0	1274019840	34	5594
2026-01-28 01:17:01.92	111.16	25.83	-30.1	-30.7	28.0	0.00e+00	0	32	0	1296039936	34	5539
2026-01-28 01:17:05.96	110.53	26.40	-30.2	-30.8	28.0	0.00e+00	0	32	0	1319108608	34	5624
2026-01-28 01:17:09.99	109.87	26.99	-30.2	-30.8	28.0	0.00e+00	0	32	0	1342177280	34	5622
2026-01-28 01:17:14.03	109.18	27.58	-30.1	-30.7	28.1	0.00e+00	0	32	0	1364197376	34	5539
2026-01-28 01:17:18.07	108.47	28.18	-30.2	-30.8	28.1	0.00e+00	0	32	0	1387266048	34	5576
2026-01-28 01:17:22.11	107.73	28.79	-30.1	-30.8	28.1	0.00e+00	0	32	0	1409286144	34	5580
2026-01-28 01:17:26.15	106.96	29.40	-29.8	-30.5	28.3	0.00e+00	0	32	0	1432354816	34	5392
2026-01-28 01:17:30.20	106.16	30.03	-30.0	-30.6	28.2	0.00e+00	0	32	0	1455423488	34	5483
2026-01-28 01:17:34.24	105.33	30.66	-29.6	-30.2	28.5	0.00e+00	0	32	0	1478492160	32	5875
2026-01-28 01:17:38.28	104.46	31.30	-29.8	-30.4	28.4	0.00e+00	0	32	0	1500512256	32	5983
2026-01-28 01:17:42.32	103.56	31.94	-29.7	-30.3	28.4	0.00e+00	0	32	0	1523580928	32	5952
2026-01-28 01:17:46.36	102.62	32.59	-29.7	-30.3	28.4	0.00e+00	0	32	0	1546649600	32	5954
2026-01-28 01:17:50.40	101.64	33.25	-29.6	-30.2	28.5	0.00e+00	0	32	0	1568669696	32	5888
2026-01-28 01:17:54.44	100.63	33.90	-29.7	-30.3	28.4	0.00e+00	0	32	0	1591738368	32	5933
2026-01-28 01:17:58.48	99.57	34.57	-29.8	-30.4	28.3	0.00e+00	0	32	0	1614807040	32	6011
2026-01-28 01:18:02.52	98.46	35.23	-29.4	-30.0	28.6	0.00e+00	0	32	0	1636827136	32	5733
2026-01-28 01:18:06.56	97.31	35.90	-29.4	-30.0	28.6	0.00e+00	0	32	0	1659895808	32	5743
2026-01-28 01:18:10.60	96.11	36.56	-29.6	-30.2	28.5	0.00e+00	0	32	0	1682964480	32	5858
2026-01-28 01:18:14.64	94.86	37.23	-29.4	-30.0	28.6	0.00e+00	0	32	0	1704984576	32	5698
2026-01-28 01:18:18.69	93.56	37.89	-29.7	-30.3	28.4	0.00e+00	0	32	0	1728053248	32	5936
2026-01-28 01:18:22.73	92.20	38.54	-29.7	-30.3	28.4	0.00e+00	0	32	0	1751121920	32	5899
2026-01-28 01:18:26.77	90.79	39.19	-29.6	-30.2	28.4	0.00e+00	0	32	0	1773142016	32	5845
2026-01-28 01:18:30.81	89.32	39.83	-29.8	-30.5	28.3	0.00e+00	0	32	0	1796210688	32	6047
2026-01-28 01:18:34.84	87.80	40.46	-29.6	-30.2	28.4	0.00e+00	0	32	0	1819279360	32	5894
2026-01-28 01:18:38.88	86.21	41.08	-29.7	-30.3	28.4	0.00e+00	0	32	0	1841299456	32	5925
2026-01-28 01:18:42.93	84.56	41.68	-29.5	-30.1	28.5	0.00e+00	0	32	0	1864368128	32	5810
2026-01-28 01:18:46.96	82.85	42.27	-29.5	-30.1	28.6	0.00e+00	0	32	0	1887436800	32	5803
2026-01-28 01:18:51.01	81.07	42.83	-29.5	-30.1	28.6	0.00e+00	0	32	0	1909456896	32	5779
2026-01-28 01:18:55.04	79.24	43.36	-29.1	-29.7	28.9	0.00e+00	0	32	0	1932525568	32	5552
2026-01-28 01:18:59.08	77.35	43.88	-29.3	-29.9	28.7	0.00e+00	0	32	0	1955594240	32	5643
2026-01-28 01:19:03.13	75.39	44.36	-29.6	-30.3	28.6	0.00e+00	0	32	0	1978662912	32	5910
2026-01-28 01:19:07.17	73.37	44.81	-29.5	-30.1	28.6	0.00e+00	0	32	0	2000683008	32	5794
2026-01-28 01:19:11.21	71.30	45.22	-29.7	-30.3	28.4	0.00e+00	0	32	0	2023751680	32	5950
2026-01-28 01:19:15.25	69.18	45.59	-29.6	-30.2	28.5	0.00e+00	0	32	0	2045771776	32	5848
2026-01-28 01:19:19.29	67.01	45.92	-29.7	-30.4	28.4	0.00e+00	0	32	0	2068840448	32	5984
2026-01-28 01:19:23.33	64.80	46.21	-29.6	-30.2	28.6	0.00e+00	0	32	0	2091909120	32	5884
2026-01-28 01:19:27.37	62.55	46.45	-29.5	-30.1	28.7	0.00e+00	0	32	0	2113929216	32	5767
2026-01-28 01:19:31.41	60.27	46.64	-29.6	-30.2	28.6	0.00e+00	0	32	0	2136997888	32	5864
2026-01-28 01:19:35.44	57.97	46.79	-29.5	-30.1	28.7	0.00e+00	0	32	0	2160066560	32	5776
2026-01-28 01:19:39.49	55.64	46.88	-29.5	-30.2	28.5	0.00e+00	0	32	0	2183135232	32	5838
2026-01-28 01:19:43.53	53.31	46.92	-29.4	-30.1	28.7	0.00e+00	0	32	0	2205155328	32	5779
2026-01-28 01:19:47.57	50.97	46.91	-29.6	-30.2	28.4	0.00e+00	0	32	0	2228224000	32	5851
2026-01-28 01:19:51.61	48.64	46.84	-29.6	-30.2	28.3	0.00e+00	0	32	0	2250244096	32	5856
2026-01-28 01:19:55.65	46.33	46.73	-29.4	-30.0	28.4	0.00e+00	0	32	0	2273312768	32	5752
2026-01-28 01:19:59.69	44.03	46.56	-29.7	-30.4	28.4	0.00e+00	0	32	0	2296381440	32	5990
2026-01-28 01:20:03.73	41.77	46.35	-30.0	-30.6	28.2	0.00e+00	0	32	0	2319450112	32	6117
2026-01-28 01:20:07.77	39.53	46.08	-29.0	-29.6	28.9	0.00e+00	0	32	0	2341470208	32	5489
2026-01-28 01:20:11.82	37.34	45.78	-29.4	-30.0	28.5	0.00e+00	0	32	0	2364538880	32	5721
2026-01-28 01:20:15.86	35.19	45.43	-29.4	-30.0	28.7	0.00e+00	0	32	0	2387607552	32	5744
2026-01-28 01:20:19.89	33.10	45.04	-29.4	-30.0	28.6	0.00e+00	0	32	0	2409627648	32	5720
2026-01-28 01:20:23.94	31.05	44.61	-29.2	-29.8	28.7	0.00e+00	0	32	0	2432696320	32	5620
2026-01-28 01:20:27.97	29.07	44.15	-29.2	-29.8	28.8	0.00e+00	0	32	0	2455764992	32	5612
2026-01-28 01:20:32.02	27.14	43.65	-29.0	-29.5	29.0	0.00e+00	0	32	0	2477785088	32	5423
2026-01-28 01:20:36.06	25.28	43.13	-29.1	-29.7	28.8	0.00e+00	0	32	0	2500853760	32	5544
2026-01-28 01:20:40.10	23.47	42.58	-28.7	-29.3	29.1	0.00e+00	0	32	0	2523922432	30	5943
2026-01-28 01:20:44.13	21.74	42.01	-29.0	-29.7	28.9	0.00e+00	0	32	0	2545942528	30	6193
2026-01-28 01:20:48.17	20.06	41.42	-28.7	-29.4	29.1	0.00e+00	0	32	0	2569011200	30	5965
2026-01-28 01:20:52.22	18.44	40.81	-28.9	-29.6	28.8	0.00e+00	0	32	0	2592079872	30	6157
2026-01-28 01:20:56.26	16.88	40.19	-29.4	-30.0	28.6	0.00e+00	0	32	0	2614099968	30	6420
2026-01-28 01:21:00.30	15.38	39.56	-29.0	-29.5	28.9	0.00e+00	0	32	0	2637168640	30	6095
2026-01-28 01:21:04.34	13.94	38.91	-29.2	-29.8	28.8	0.00e+00	0	32	0	2660237312	30	6307
2026-01-28 01:21:08.38	12.56	38.26	-29.1	-29.7	28.9	0.00e+00	0	32	0	2682257408	30	6233
2026-01-28 01:21:12.42	11.23	37.61	-28.9	-29.6	29.0	0.00e+00	0	32	0	2705326080	30	6135
2026-01-28 01:21:16.46	9.96	36.94	-28.9	-29.6	29.0	0.00e+00	0	32	0	2728394752	30	6119
2026-01-28 01:21:20.50	8.74	36.28	-28.6	-29.3	29.0	0.00e+00	0	32	0	2750414848	30	5906
2026-01-28 01:21:24.54	7.56	35.62	-29.0	-29.5	28.4	0.00e+00	0	32	0	2773483520	30	6085
2026-01-28 01:21:28.59	6.43	34.95	-28.8	-29.4	28.9	0.00e+00	0	32	0	2796552192	30	5982
2026-01-28 01:21:32.63	5.35	34.29	-29.0	-29.6	28.7	0.00e+00	0	32	0	2819620864	30	6114
2026-01-28 01:21:36.67	4.32	33.63	-29.0	-29.5	28.8	0.00e+00	0	32	0	2841640960	30	6078
2026-01-28 01:21:40.71	3.32	32.98	-29.0	-29.6	28.8	0.00e+00	0	32	0	2864709632	30	6165
2026-01-28 01:21:44.75	2.36	32.33	-29.1	-29.8	28.8	0.00e+00	0	32	0	2886729728	30	6246
2026-01-28 01:21:48.79	1.45	31.69	-29.0	-29.7	28.8	0.00e+00	0	32	0	2909798400	30	6195
2026-01-28 01:21:52.83	0.56	31.05	-29.1	-29.7	28.7	0.00e+00	0	32	0	2932867072	30	6200
2026-01-28 01:21:56.87	359.72	30.41	-29.4	-30.1	28.5	0.00e+00	0	32	0	2955935744	30	6486
2026-01-28 01:22:00.91	358.90	29.79	-29.5	-30.0	28.4	0.00e+00	0	32	0	2977955840	30	6463
2026-01-28 01:22:04.95	358.12	29.17	-29.5	-30.0	28.5	0.00e+00	0	32	0	3001024512	30	6458
2026-01-28 01:22:08.99	357.37	28.56	-29.3	-30.0	28.5	0.00e+00	0	32	0	3024093184	30	6395
2026-01-28 01:22:13.03	356.64	27.96	-29.3	-29.9	28.5	0.00e+00	0	32	0	3046113280	30	6331
2026-01-28 01:22:17.06	355.94	27.36	-29.6	-30.3	28.4	0.00e+00	0	32	0	3069181952	30	6638
2026-01-28 01:22:21.10	355.27	26.78	-29.8	-30.5	28.2	0.00e+00	0	32	0	3091202048	32	6068
2026-01-28 01:22:25.14	354.63	26.20	-30.0	-30.5	28.0	0.00e+00	0	32	0	3114270720	32	6099
2026-01-28 01:22:29.18	354.00	25.63	-29.4	-30.0	28.5	0.00e+00	0	32	0	3137339392	32	5718
2026-01-28 01:22:33.22	353.40	25.07	-29.4	-29.9	28.4	0.00e+00	0	32	0	3159359488	32	5679
2026-01-28 01:22:37.25	352.82	24.52	-29.6	-30.3	28.2	0.00e+00	0	32	0	3182428160	32	5906
2026-01-28 01:22:41.29	352.26	23.97	-29.8	-30.4	28.1	0.00e+00	0	32	0	3205496832	32	5985
2026-01-28 01:22:45.33	351.72	23.43	-29.7	-30.2	28.2	0.00e+00	0	32	0	3228565504	32	5879
2026-01-28 01:22:49.37	351.20	22.91	-29.9	-30.6	28.1	0.00e+00	0	32	0	3250585600	32	6111
2026-01-28 01:22:53.40	350.70	22.39	-30.1	-30.8	27.9	0.00e+00	0	32	0	3273654272	32	6267
2026-01-28 01:22:57.44	350.21	21.87	-30.1	-30.6	27.9	0.00e+00	0	33	0	3295674368	32	6152
2026-01-28 01:23:01.49	349.74	21.37	-30.0	-30.5	28.0	0.00e+00	0	32	0	3318743040	32	6092
2026-01-28 01:23:05.52	349.28	20.87	-30.1	-30.8	28.0	0.00e+00	0	32	0	3341811712	32	6258
2026-01-28 01:23:09.57	348.84	20.38	-30.2	-30.7	27.8	0.00e+00	0	32	0	3363831808	32	6244
2026-01-28 01:23:13.61	348.42	19.90	-30.4	-31.0	27.6	0.00e+00	0	32	0	3386900480	32	6405
2026-01-28 01:23:17.65	348.00	19.43	-31.0	-31.6	27.2	0.00e+00	0	32	0	3409969152	34	6148
2026-01-28 01:23:21.69	347.60	18.96	-31.0	-31.6	27.1	0.00e+00	0	32	0	3433037824	34	6154
2026-01-28 01:23:25.73	347.21	18.51	-30.9	-31.6	27.2	0.00e+00	0	32	0	3455057920	34	6159
2026-01-28 01:23:29.77	346.84	18.05	-30.9	-31.4	27.2	0.00e+00	0	32	0	3478126592	34	6022
2026-01-28 01:23:33.81	346.47	17.61	-31.1	-31.8	27.1	0.00e+00	0	32	0	3500146688	34	6270
2026-01-28 01:23:37.86	346.12	17.17	-31.3	-32.0	26.9	0.00e+00	0	32	0	3523215360	34	6416
2026-01-28 01:23:41.90	345.78	16.74	-31.4	-32.1	26.8	0.00e+00	0	32	0	3546284032	34	6486
2026-01-28 01:23:45.94	345.44	16.31	-31.6	-32.3	26.6	0.00e+00	0	32	0	3569352704	34	6654
2026-01-28 01:23:49.98	345.12	15.89	-31.7	-32.3	26.5	0.00e+00	0	32	0	3591372800	36	5927
2026-01-28 01:23:54.02	344.81	15.48	-32.0	-32.6	26.2	0.00e+00	0	32	0	3614441472	36	6163
2026-01-28 01:23:58.06	344.50	15.08	-32.3	-32.9	26.0	0.00e+00	0	32	0	3637510144	36	6365
2026-01-28 01:24:02.10	344.21	14.67	-32.2	-32.9	26.1	0.00e+00	0	32	0	3659530240	36	6390
2026-01-28 01:24:06.14	343.92	14.28	-32.2	-32.8	25.9	0.00e+00	0	32	0	3682598912	36	6317
2026-01-28 01:24:10.18	343.64	13.89	-32.3	-32.9	25.8	0.00e+00	0	32	0	3705667584	36	6363
2026-01-28 01:24:14.23	343.36	13.50	-32.3	-33.1	25.9	0.00e+00	0	32	0	3727687680	36	6490
2026-01-28 01:24:18.26	343.10	13.13	-32.6	-33.3	25.7	0.00e+00	0	32	0	3750756352	36	6691
2026-01-28 01:24:22.30	342.84	12.75	-32.7	-33.3	25.5	0.00e+00	0	32	0	3773825024	38	5955
2026-01-28 01:24:26.34	342.59	12.39	-32.9	-33.5	25.4	0.00e+00	0	33	0	3795845120	38	6062
2026-01-28 01:24:30.38	342.34	12.02	-33.1	-33.7	25.3	0.00e+00	0	33	0	3818913792	38	6181
2026-01-28 01:24:34.43	342.10	11.66	-33.1	-33.9	25.2	0.00e+00	0	33	0	3841982464	38	6341
2026-01-28 01:24:38.47	341.87	11.31	-33.1	-33.7	25.2	0.00e+00	0	33	0	3864002560	38	6240
2026-01-28 01:24:42.51	341.65	10.96	-33.1	-33.9	25.1	0.00e+00	0	32	0	3887071232	38	6349
2026-01-28 01:24:46.55	341.42	10.61	-33.3	-33.9	24.9	0.00e+00	0	32	0	3910139904	38	6341
2026-01-28 01:24:50.59	341.21	10.27	-33.5	-34.2	24.9	0.00e+00	0	33	0	3932160000	40	5892
2026-01-28 01:24:54.64	341.00	9.94	-33.4	-34.1	24.8	0.00e+00	0	32	0	3955228672	40	5817
2026-01-28 01:24:58.68	340.79	9.60	-33.3	-34.1	24.8	0.00e+00	0	32	0	3978297344	40	5807
2026-01-28 01:25:02.72	340.59	9.28	-33.5	-34.2	24.6	0.00e+00	0	32	0	4000317440	40	5883
2026-01-28 01:25:06.76	340.40	8.95	-33.8	-34.5	24.4	0.00e+00	0	33	0	4023386112	40	6052
2026-01-28 01:25:10.80	340.21	8.63	-33.9	-34.6	24.2	0.00e+00	0	33	0	4046454784	40	6130
2026-01-28 01:25:14.84	340.02	8.31	-33.8	-34.5	24.3	0.00e+00	0	33	0	4069523456	40	6054
2026-01-28 01:25:18.88	339.84	8.00	-33.9	-34.7	24.2	0.00e+00	0	32	0	4091543552	40	6174
2026-01-28 01:25:22.92	339.66	7.69	-34.0	-34.8	24.1	0.00e+00	0	33	0	4114612224	40	6286
2026-01-28 01:25:26.96	339.49	7.38	-34.5	-35.2	23.7	0.00e+00	0	33	0	4136632320	40	6571
2026-01-28 01:25:31.00	339.32	7.08	-34.5	-35.2	23.7	0.00e+00	0	32	0	4159700992	42	5841
2026-01-28 01:25:35.04	339.15	6.78	-34.8	-35.5	23.4	0.00e+00	0	32	0	4182769664	42	6037
2026-01-28 01:25:39.08	338.99	6.49	-34.5	-35.2	23.5	0.00e+00	0	32	0	4205838336	42	5848
2026-01-28 01:25:43.12	338.83	6.19	-34.6	-35.5	23.4	0.00e+00	0	32	0	4227858432	42	6045
2026-01-28 01:25:47.16	338.68	5.90	-34.6	-35.3	23.3	0.00e+00	0	33	0	4250927104	42	5949
2026-01-28 01:25:51.20	338.52	5.62	-35.1	-36.0	22.4	0.00e+00	0	32	0	4273995776	42	6444
2026-01-28 01:25:55.24	338.38	5.33	-35.8	-36.7	21.3	0.00e+00	0	33	0	4296015872	44	6215
2026-01-28 01:25:59.28	338.23	5.05	-37.3	-38.3	19.2	0.00e+00	0	33	0	4319084544	46	6645
2026-01-28 01:26:03.32	338.09	4.77	-39.3	-40.7	16.1	0.00e+00	0	32	0	4342153216	50	6970
2026-01-28 01:26:07.36	337.95	4.50	-41.2	-43.7	12.0	2.06e-04	0	33	0	4364173312	54	7843
2026-01-28 01:26:11.41	337.81	4.22	-42.9	-47.6	6.8	9.93e-02	0	33	0	4387241984	58	9756
2026-01-28 01:26:15.45	337.68	3.95	-43.5	-50.1	4.3	7.97e-01	0	33	0	4401922048	58	12954
2026-01-28 01:26:19.49	337.55	3.68	-43.6	-54.1	3.6	8.45e-01	0	33	104	4401922048	58	20654
2026-01-28 01:26:23.53	337.42	3.42	-43.7	-55.7	3.6	8.46e-01	0	33	104	4401922048	58	24701
2026-01-28 01:26:27.57	337.29	3.15	-43.6	-55.6	3.6	8.45e-01	0	33	104	4401922048	58	24494
2026-01-28 01:26:31.61	337.17	2.89	-48.1	-60.2	3.6	8.45e-01	0	33	104	4401922048	60	37195
2026-01-28 01:26:35.65	337.05	2.63	-48.8	-60.8	3.6	8.46e-01	0	33	104	4401922048	60	39856
2026-01-28 01:26:39.69	336.93	2.38	-49.0	-61.1	3.6	8.45e-01	0	33	104	4401922048	60	41021
2026-01-28 01:26:43.73	336.82	2.12	-48.9	-61.0	3.6	8.46e-01	0	33	104	4401922048	60	40759
2026-01-28 01:26:47.77	336.70	1.87	-48.6	-60.9	3.6	8.46e-01	0	33	104	4401922048	60	40177
2026-01-28 01:26:51.81	336.59	1.62	-48.8	-60.9	3.6	8.45e-01	0	33	104	4401922048	60	40083
2026-01-28 01:26:55.85	336.48	1.37	-48.9	-61.0	3.6	8.45e-01	0	33	104	4401922048	60	40409
2026-01-28 01:26:59.89	336.38	1.12	-48.9	-61.0	3.6	8.45e-01	0	33	104	4401922048	60	40354
2026-01-28 01:27:03.93	336.27	0.88	-48.8	-61.0	3.6	8.45e-01	0	33	104	4401922048	60	40515
2026-01-28 01:27:07.97	336.17	0.64	-48.8	-61.0	3.6	8.44e-01	0	33	104	4401922048	60	40330
2026-01-28 01:27:12.01	336.07	0.40	-48.8	-60.9	3.6	8.45e-01	0	33	104	4401922048	60	40220
2026-01-28 01:27:16.05	335.97	0.16	-48.9	-61.0	3.6	8.44e-01	0	33	104	4401922048	60	40420
2026-01-28 01:27:20.09	335.87	-0.08	-48.8	-60.9	3.6	8.45e-01	0	33	104	4401922048	60	40303

#Closed at: 2026-01-28 01:27:20
#Recorded file [4401 MB]: D:/lorett/data/35029_260128_131215.dat