passes_logs/2026/01/28/R4.6S_Anadyr/R4.6S_Anadyr__20260128_224510_TY-42_rec.log

#Pass ID: 20260128_224510_TY-42
#Satellite: TY-42
#Configuration: TY-42_900M
#almurnet v.1.7.20251203
#Start time: 2026-01-28 22:45:41

#Version: 2.2.20231116
#Station: R4.6S_Anadyr
#Location: 177.4865 lon 64.73178 lat
#TLE: 1 64048U 25103A   26028.60844907  .00008011  00000-0  38191-3 0 09994
#TLE: 2 64048 097.4119 103.7705 0001778 092.6266 304.9547 15.19172955 38886

#Time	Az	El	Level	Level2	SNR	BER	BlckErr	Temp	State	Recorded	gain1	gain2
2026-01-28 22:45:41.78	20.51	1.99	-49.0	-50.5	3.4	1.66e-03	0	29	0	0	60	40925
2026-01-28 22:45:44.71	20.65	2.19	-47.6	-50.1	6.1	0.00e+00	0	31	104	0	60	39331
2026-01-28 22:45:47.65	20.79	2.39	-47.6	-50.1	6.1	0.00e+00	0	31	104	0	60	39377
2026-01-28 22:45:50.58	20.94	2.59	-47.6	-50.1	6.1	0.00e+00	0	31	104	0	60	39259
2026-01-28 22:45:53.52	21.08	2.79	-47.7	-50.1	6.1	0.00e+00	0	31	104	0	60	39274
2026-01-28 22:45:56.45	21.23	2.99	-47.7	-50.1	6.1	0.00e+00	0	31	104	0	60	39139
2026-01-28 22:45:59.39	21.39	3.20	-47.7	-50.1	6.1	0.00e+00	0	31	104	0	60	39282
2026-01-28 22:46:02.33	21.54	3.41	-47.7	-50.1	6.1	0.00e+00	0	31	104	0	60	39354
2026-01-28 22:46:05.26	21.70	3.62	-47.7	-50.2	6.1	0.00e+00	0	31	104	0	60	39505
2026-01-28 22:46:08.21	21.86	3.83	-47.7	-50.1	6.1	0.00e+00	0	32	104	0	60	39235
2026-01-28 22:46:11.15	22.03	4.05	-47.8	-50.3	6.1	0.00e+00	0	32	104	0	60	40071
2026-01-28 22:46:14.09	22.19	4.26	-47.8	-50.3	6.1	0.00e+00	0	32	104	0	60	40211
2026-01-28 22:46:17.03	22.36	4.48	-47.7	-50.2	6.1	0.00e+00	0	32	104	0	60	39547
2026-01-28 22:46:19.97	22.53	4.70	-47.8	-50.3	6.1	0.00e+00	0	32	104	0	60	40097
2026-01-28 22:46:22.90	22.71	4.92	-47.9	-50.4	6.1	0.00e+00	0	32	104	0	60	40409
2026-01-28 22:46:25.84	22.89	5.15	-48.0	-50.5	6.1	0.00e+00	0	32	104	0	60	40995
2026-01-28 22:46:28.78	23.07	5.38	-47.8	-50.3	6.1	0.00e+00	0	32	104	0	60	40147
2026-01-28 22:46:31.71	23.25	5.61	-47.9	-50.4	6.1	0.00e+00	0	32	104	0	60	40346
2026-01-28 22:46:34.65	23.44	5.84	-39.0	-39.4	9.7	0.00e+00	0	32	104	0	54	16137
2026-01-28 22:46:37.59	23.63	6.08	-32.5	-32.8	14.0	1.91e-01	0	33	0	218103808	40	16942
2026-01-28 22:46:40.52	23.83	6.31	-31.4	-31.8	14.5	2.64e-02	0	33	0	545259520	38	16865
2026-01-28 22:46:43.45	24.03	6.55	-31.2	-31.5	14.8	1.65e-02	0	33	0	872415232	36	18403
2026-01-28 22:46:46.40	24.23	6.80	-29.6	-29.9	15.4	6.38e-03	0	33	0	1207959552	34	17190
2026-01-28 22:46:49.34	24.44	7.05	-28.1	-28.5	15.8	3.06e-03	0	33	0	1543503872	30	18232
2026-01-28 22:46:52.28	24.65	7.29	-27.2	-27.6	16.0	5.39e-04	0	33	0	1870659584	30	16437
2026-01-28 22:46:55.21	24.86	7.55	-27.0	-27.4	16.1	2.89e-04	0	33	0	2197815296	30	16107
2026-01-28 22:46:58.15	25.08	7.80	-26.5	-26.8	16.3	3.98e-04	0	33	0	2533359616	28	16971
2026-01-28 22:47:01.09	25.31	8.06	-26.0	-26.4	16.4	5.44e-05	0	33	0	2860515328	28	16199
2026-01-28 22:47:04.03	25.54	8.32	-26.0	-26.4	16.4	4.35e-05	0	33	0	3187671040	26	18051
2026-01-28 22:47:06.97	25.77	8.59	-26.2	-26.5	16.3	1.03e-04	0	33	0	3523215360	26	18431
2026-01-28 22:47:09.90	26.01	8.86	-25.5	-25.9	16.6	4.35e-05	0	33	0	3850371072	26	17092
2026-01-28 22:47:12.84	26.26	9.13	-25.6	-26.0	16.5	3.81e-05	0	33	0	4185915392	26	17267
2026-01-28 22:47:15.79	26.51	9.41	-25.6	-26.0	16.5	2.17e-05	0	33	0	4513071104	26	17212
2026-01-28 22:47:18.72	26.76	9.68	-25.2	-25.6	16.6	1.63e-05	0	33	0	4840226816	26	16475
2026-01-28 22:47:21.66	27.02	9.97	-24.8	-25.2	16.7	2.72e-05	0	34	0	5175771136	26	15840
2026-01-28 22:47:24.59	27.29	10.25	-25.0	-25.4	16.6	2.72e-05	0	34	0	5502926848	24	18197
2026-01-28 22:47:27.53	27.56	10.55	-24.8	-25.2	16.6	3.26e-05	0	33	0	5830082560	24	17761
2026-01-28 22:47:30.47	27.85	10.84	-24.8	-25.2	16.7	1.63e-05	0	34	0	6165626880	24	17634
2026-01-28 22:47:33.40	28.13	11.14	-24.6	-25.0	16.8	0.00e+00	0	34	0	6492782592	24	17248
2026-01-28 22:47:36.35	28.43	11.44	-24.2	-24.6	16.8	5.40e-06	0	34	0	6828326912	24	16570
2026-01-28 22:47:39.29	28.73	11.75	-24.3	-24.7	16.7	5.40e-06	0	34	0	7163871232	24	16656
2026-01-28 22:47:42.23	29.04	12.07	-24.1	-24.5	16.6	1.08e-05	0	34	0	7482638336	24	16393
2026-01-28 22:47:45.17	29.35	12.38	-23.9	-24.3	16.8	1.08e-05	0	34	0	7818182656	24	15967
2026-01-28 22:47:48.11	29.68	12.71	-23.9	-24.2	16.8	5.40e-06	0	34	0	8153726976	24	15831
2026-01-28 22:47:51.04	30.01	13.03	-23.7	-24.1	16.9	0.00e+00	0	34	0	8480882688	22	17563
2026-01-28 22:47:53.98	30.35	13.37	-23.7	-24.1	16.9	0.00e+00	0	34	0	8808038400	22	17453
2026-01-28 22:47:56.92	30.70	13.70	-23.6	-24.0	17.0	0.00e+00	0	34	0	9143582720	22	17235
2026-01-28 22:47:59.86	31.06	14.05	-23.4	-23.9	17.0	1.08e-05	0	34	0	9470738432	22	17014
2026-01-28 22:48:02.79	31.43	14.40	-23.2	-23.7	17.0	0.00e+00	0	34	0	9806282752	22	16620
2026-01-28 22:48:05.73	31.80	14.75	-23.0	-23.4	17.1	5.40e-06	0	34	0	10133438464	22	16097
2026-01-28 22:48:08.66	32.19	15.11	-23.2	-23.6	17.0	0.00e+00	0	34	0	10460594176	22	16555
2026-01-28 22:48:11.59	32.59	15.47	-23.0	-23.4	17.0	0.00e+00	0	34	0	10796138496	22	16109
2026-01-28 22:48:14.54	33.01	15.85	-22.9	-23.3	17.1	0.00e+00	0	34	0	11123294208	22	16038
2026-01-28 22:48:17.48	33.43	16.23	-22.7	-23.1	17.1	0.00e+00	0	34	0	11450449920	20	17488
2026-01-28 22:48:20.42	33.87	16.61	-22.5	-22.9	17.1	0.00e+00	0	34	0	11785994240	20	17152
2026-01-28 22:48:23.36	34.32	17.00	-22.3	-22.7	17.1	0.00e+00	0	34	0	12113149952	20	16779
2026-01-28 22:48:26.30	34.78	17.40	-22.2	-22.6	17.0	0.00e+00	0	34	0	12448694272	20	16510
2026-01-28 22:48:29.24	35.26	17.81	-22.0	-22.4	17.0	0.00e+00	0	34	0	12775849984	20	16231
2026-01-28 22:48:32.17	35.75	18.22	-21.8	-22.2	17.2	0.00e+00	0	34	0	13103005696	20	15743
2026-01-28 22:48:35.11	36.25	18.63	-21.7	-22.1	17.1	0.00e+00	0	34	0	13438550016	18	17516
2026-01-28 22:48:38.04	36.77	19.06	-21.7	-22.1	17.2	0.00e+00	0	34	0	13765705728	18	17468
2026-01-28 22:48:40.97	37.31	19.49	-21.4	-21.9	17.3	0.00e+00	0	34	0	14092861440	18	17011
2026-01-28 22:48:43.92	37.87	19.93	-21.2	-21.6	17.3	0.00e+00	0	34	0	14428405760	18	16584
2026-01-28 22:48:46.85	38.44	20.38	-21.2	-21.6	17.3	0.00e+00	0	34	0	14755561472	18	16555
2026-01-28 22:48:49.79	39.04	20.83	-21.1	-21.5	17.3	0.00e+00	0	34	0	15091105792	18	16359
2026-01-28 22:48:52.73	39.65	21.30	-20.8	-21.3	17.3	0.00e+00	0	34	0	15418261504	16	17811
2026-01-28 22:48:55.67	40.29	21.77	-20.5	-21.0	17.2	0.00e+00	0	34	0	15745417216	16	17205
2026-01-28 22:48:58.61	40.95	22.25	-20.4	-20.8	17.3	0.00e+00	0	34	0	16080961536	16	16940
2026-01-28 22:49:01.55	41.63	22.73	-20.4	-20.9	17.4	0.00e+00	0	34	0	16416505856	16	17027
2026-01-28 22:49:04.49	42.33	23.23	-20.1	-20.5	17.3	0.00e+00	0	34	0	16743661568	16	16337
2026-01-28 22:49:07.44	43.06	23.73	-19.9	-20.4	17.4	0.00e+00	0	34	0	17070817280	16	16093
2026-01-28 22:49:10.37	43.82	24.24	-19.7	-20.2	17.4	0.00e+00	0	34	0	17406361600	14	17620
2026-01-28 22:49:13.30	44.60	24.75	-19.5	-20.0	17.4	0.00e+00	0	34	0	17733517312	14	17223
2026-01-28 22:49:16.24	45.41	25.28	-19.2	-19.6	17.4	0.00e+00	0	35	0	18069061632	14	16571
2026-01-28 22:49:19.17	46.25	25.81	-19.2	-19.6	17.3	0.00e+00	0	34	0	18396217344	14	16608
2026-01-28 22:49:22.12	47.12	26.35	-19.1	-19.6	17.3	0.00e+00	0	34	0	18723373056	14	16499
2026-01-28 22:49:25.05	48.03	26.89	-19.0	-19.4	17.5	0.00e+00	0	34	0	19058917376	14	16187
2026-01-28 22:49:27.99	48.97	27.44	-18.3	-18.8	17.5	0.00e+00	0	35	0	19386073088	12	16873
2026-01-28 22:49:30.92	49.94	28.00	-18.3	-18.7	17.5	0.00e+00	0	35	0	19713228800	12	16748
2026-01-28 22:49:33.86	50.96	28.56	-18.0	-18.5	17.5	0.00e+00	0	35	0	20048773120	12	16241
2026-01-28 22:49:36.79	52.00	29.12	-17.8	-18.2	17.5	0.00e+00	0	34	0	20375928832	12	15843
2026-01-28 22:49:39.73	53.10	29.69	-17.5	-17.9	17.5	0.00e+00	0	34	0	20703084544	10	17162
2026-01-28 22:49:42.68	54.24	30.26	-17.5	-17.9	17.5	0.00e+00	0	34	0	21038628864	10	17163
2026-01-28 22:49:45.62	55.42	30.84	-17.1	-17.6	17.5	0.00e+00	0	34	0	21365784576	10	16481
2026-01-28 22:49:48.57	56.65	31.41	-16.9	-17.4	17.5	0.00e+00	0	35	0	21701328896	10	16128
2026-01-28 22:49:51.51	57.92	31.99	-16.8	-17.2	17.5	0.00e+00	0	34	0	22028484608	10	15772
2026-01-28 22:49:54.45	59.24	32.56	-16.7	-17.1	17.5	0.00e+00	0	34	0	22364028928	8	17592
2026-01-28 22:49:57.39	60.61	33.13	-16.4	-16.9	17.6	0.00e+00	0	35	0	22699573248	8	17057
2026-01-28 22:50:00.33	62.03	33.69	-16.4	-16.9	17.6	0.00e+00	0	35	0	23018340352	8	17056
2026-01-28 22:50:03.26	63.50	34.24	-16.4	-16.8	17.6	0.00e+00	0	35	0	23353884672	8	16955
2026-01-28 22:50:06.20	65.03	34.79	-16.1	-16.6	17.7	0.00e+00	0	35	0	23689428992	8	16430
2026-01-28 22:50:09.14	66.62	35.32	-16.2	-16.7	17.7	0.00e+00	0	34	0	24016584704	8	16675
2026-01-28 22:50:12.08	68.25	35.84	-16.0	-16.4	17.7	0.00e+00	0	35	0	24343740416	8	16182
2026-01-28 22:50:15.01	69.94	36.35	-15.7	-16.2	17.6	0.00e+00	0	35	0	24679284736	8	15749
2026-01-28 22:50:17.95	71.69	36.83	-15.8	-16.2	17.6	0.00e+00	0	35	0	25006440448	6	17785
2026-01-28 22:50:20.89	73.49	37.30	-15.6	-16.0	17.6	0.00e+00	0	35	0	25341984768	6	17352
2026-01-28 22:50:23.84	75.36	37.74	-15.4	-15.8	17.6	0.00e+00	0	35	0	25669140480	6	16995
2026-01-28 22:50:26.77	77.26	38.16	-15.3	-15.7	17.6	0.00e+00	0	35	0	25996296192	6	16718
2026-01-28 22:50:29.71	79.22	38.54	-15.1	-15.5	17.6	0.00e+00	0	35	0	26331840512	6	16372
2026-01-28 22:50:32.66	81.23	38.90	-15.0	-15.5	17.6	0.00e+00	0	35	0	26658996224	6	16290
2026-01-28 22:50:35.60	83.28	39.22	-14.8	-15.2	17.6	0.00e+00	0	35	0	26994540544	4	17775
2026-01-28 22:50:38.54	85.37	39.50	-14.7	-15.1	17.6	0.00e+00	0	35	0	27321696256	4	17575
2026-01-28 22:50:41.48	87.49	39.75	-14.9	-15.3	17.6	0.00e+00	0	35	0	27648851968	4	17935
2026-01-28 22:50:44.41	89.64	39.95	-14.8	-15.2	17.6	0.00e+00	0	35	0	27984396288	4	17739
2026-01-28 22:50:47.34	91.82	40.11	-14.8	-15.2	17.5	0.00e+00	0	35	0	28311552000	4	17776
2026-01-28 22:50:50.27	94.01	40.23	-14.8	-15.2	17.5	0.00e+00	0	35	0	28638707712	4	17717
2026-01-28 22:50:53.21	96.23	40.30	-14.7	-15.2	17.5	0.00e+00	0	35	0	28974252032	4	17636
2026-01-28 22:50:56.14	98.44	40.32	-14.8	-15.2	17.5	0.00e+00	0	35	0	29301407744	4	17777
2026-01-28 22:50:59.08	100.66	40.30	-14.8	-15.2	17.4	0.00e+00	0	35	0	29628563456	4	17784
2026-01-28 22:51:02.01	102.87	40.24	-14.8	-15.2	17.5	0.00e+00	0	35	0	29964107776	4	17659
2026-01-28 22:51:04.95	105.08	40.13	-15.0	-15.4	17.5	0.00e+00	0	35	0	30299652096	4	18089
2026-01-28 22:51:07.89	107.27	39.97	-14.9	-15.3	17.5	0.00e+00	0	35	0	30626807808	4	17855
2026-01-28 22:51:10.83	109.43	39.77	-14.8	-15.2	17.5	0.00e+00	0	35	0	30953963520	4	17760
2026-01-28 22:51:13.78	111.57	39.53	-14.8	-15.2	17.5	0.00e+00	0	35	0	31289507840	4	17694
2026-01-28 22:51:16.72	113.67	39.25	-14.8	-15.2	17.5	0.00e+00	0	35	0	31616663552	4	17704
2026-01-28 22:51:19.66	115.72	38.94	-15.0	-15.4	17.5	0.00e+00	0	35	0	31952207872	4	18118
2026-01-28 22:51:22.59	117.73	38.59	-15.2	-15.6	17.5	0.00e+00	0	35	0	32279363584	4	18492
2026-01-28 22:51:25.53	119.70	38.20	-15.5	-15.9	17.6	0.00e+00	0	35	0	32606519296	4	19154
2026-01-28 22:51:28.46	121.61	37.79	-15.3	-15.7	17.6	0.00e+00	0	35	0	32942063616	4	18779
2026-01-28 22:51:31.39	123.47	37.35	-15.5	-15.9	17.6	0.00e+00	0	35	0	33269219328	4	19109
2026-01-28 22:51:34.32	125.28	36.89	-15.5	-16.0	17.6	0.00e+00	0	35	0	33596375040	4	19347
2026-01-28 22:51:37.25	127.04	36.41	-15.5	-15.9	17.7	0.00e+00	0	35	0	33931919360	4	19162
2026-01-28 22:51:40.19	128.74	35.90	-15.6	-16.0	17.8	0.00e+00	0	35	0	34259075072	4	19464
2026-01-28 22:51:43.14	130.40	35.38	-15.7	-16.1	17.8	0.00e+00	0	35	0	34586230784	6	17439
2026-01-28 22:51:46.06	131.98	34.85	-15.9	-16.3	17.9	0.00e+00	0	35	0	34921775104	6	17929
2026-01-28 22:51:49.01	133.53	34.30	-16.1	-16.6	17.9	0.00e+00	0	35	0	35248930816	6	18435
2026-01-28 22:51:51.94	135.01	33.74	-16.2	-16.6	17.9	0.00e+00	0	35	0	35584475136	6	18546
2026-01-28 22:51:54.88	136.45	33.18	-16.2	-16.6	17.9	0.00e+00	0	35	0	35911630848	6	18584
2026-01-28 22:51:57.82	137.83	32.61	-16.3	-16.7	17.9	0.00e+00	0	35	0	36238786560	6	18810
2026-01-28 22:52:00.74	139.15	32.04	-16.6	-17.0	17.8	0.00e+00	0	35	0	36574330880	6	19522
2026-01-28 22:52:03.67	140.43	31.46	-16.7	-17.1	17.8	0.00e+00	0	35	0	36901486592	8	17522
2026-01-28 22:52:06.61	141.67	30.89	-16.9	-17.3	17.7	0.00e+00	0	35	0	37228642304	8	17927
2026-01-28 22:52:09.55	142.86	30.31	-17.1	-17.6	17.7	0.00e+00	0	35	0	37564186624	8	18472
2026-01-28 22:52:12.49	144.00	29.73	-17.0	-17.5	17.7	0.00e+00	0	35	0	37891342336	8	18353
2026-01-28 22:52:15.42	145.10	29.16	-17.4	-17.8	17.7	0.00e+00	0	35	0	38218498048	8	19041
2026-01-28 22:52:18.37	146.17	28.59	-17.5	-18.0	17.6	0.00e+00	0	35	0	38554042368	8	19378
2026-01-28 22:52:21.31	147.19	28.03	-17.9	-18.3	17.6	0.00e+00	0	35	0	38881198080	10	17967
2026-01-28 22:52:24.25	148.17	27.47	-18.0	-18.4	17.6	0.00e+00	0	35	0	39216742400	10	18168
2026-01-28 22:52:27.19	149.12	26.91	-18.1	-18.5	17.5	0.00e+00	0	35	0	39552286720	10	18397
2026-01-28 22:52:30.14	150.04	26.36	-18.3	-18.7	17.6	0.00e+00	0	35	0	39871053824	10	18811
2026-01-28 22:52:33.07	150.92	25.82	-18.5	-18.9	17.5	0.00e+00	0	35	0	40206598144	10	19295
2026-01-28 22:52:36.01	151.76	25.28	-18.6	-19.1	17.5	0.00e+00	0	35	0	40542142464	10	19620
2026-01-28 22:52:38.95	152.58	24.76	-18.8	-19.3	17.5	0.00e+00	0	35	0	40869298176	12	17857
2026-01-28 22:52:41.90	153.37	24.23	-19.0	-19.5	17.4	0.00e+00	0	35	0	41204842496	12	18259
2026-01-28 22:52:44.85	154.14	23.72	-19.2	-19.7	17.4	0.00e+00	0	35	0	41531998208	12	18673
2026-01-28 22:52:47.79	154.87	23.21	-19.4	-19.8	17.4	0.00e+00	0	35	0	41867542528	12	19054
2026-01-28 22:52:50.73	155.58	22.71	-19.7	-20.1	17.4	0.00e+00	0	35	0	42194698240	12	19742
2026-01-28 22:52:53.68	156.27	22.22	-19.7	-20.1	17.4	0.00e+00	0	35	0	42521853952	14	17545
2026-01-28 22:52:56.61	156.93	21.74	-19.8	-20.2	17.3	0.00e+00	0	35	0	42857398272	14	17695
2026-01-28 22:52:59.55	157.57	21.27	-19.8	-20.3	17.3	0.00e+00	0	35	0	43184553984	14	17819
2026-01-28 22:53:02.49	158.19	20.80	-19.9	-20.4	17.3	0.00e+00	0	35	0	43520098304	14	18128
2026-01-28 22:53:05.43	158.78	20.34	-20.2	-20.6	17.3	0.00e+00	0	35	0	43847254016	14	18599
2026-01-28 22:53:08.37	159.36	19.89	-20.3	-20.7	17.3	0.00e+00	0	35	0	44174409728	14	18845
2026-01-28 22:53:11.31	159.92	19.45	-20.5	-20.9	17.4	0.00e+00	0	35	0	44509954048	14	19193
2026-01-28 22:53:14.25	160.46	19.01	-20.5	-20.9	17.4	0.00e+00	0	35	0	44845498368	14	19294
2026-01-28 22:53:17.18	160.99	18.58	-20.8	-21.2	17.4	0.00e+00	0	35	0	45164265472	16	17700
2026-01-28 22:53:20.12	161.50	18.16	-48.4	-51.0	6.1	0.00e+00	0	35	104	45390757888	60	43362
2026-01-28 22:53:23.06	161.99	17.75	-48.3	-50.9	6.1	0.00e+00	0	35	104	45390757888	60	42827
2026-01-28 22:53:26.01	162.47	17.34	-48.6	-51.1	6.1	0.00e+00	0	35	104	45390757888	60	44102
2026-01-28 22:53:28.94	162.94	16.94	-48.6	-51.1	6.1	0.00e+00	0	35	104	45390757888	60	43811
2026-01-28 22:53:31.88	163.39	16.54	-48.7	-51.1	6.1	0.00e+00	0	35	104	45390757888	60	44090
2026-01-28 22:53:34.81	163.82	16.16	-48.6	-51.1	6.0	0.00e+00	0	35	104	45390757888	60	44006
2026-01-28 22:53:37.75	164.25	15.78	-48.6	-51.2	6.1	0.00e+00	0	35	104	45390757888	60	44255
2026-01-28 22:53:40.69	164.66	15.40	-48.6	-51.1	6.1	0.00e+00	0	35	104	45390757888	60	43905
2026-01-28 22:53:43.63	165.06	15.03	-48.6	-51.1	6.1	0.00e+00	0	35	104	45390757888	60	44167
2026-01-28 22:53:46.56	165.45	14.67	-48.6	-51.1	6.1	0.00e+00	0	34	104	45390757888	60	44188
2026-01-28 22:53:49.49	165.83	14.32	-48.6	-51.1	6.1	0.00e+00	0	35	104	45390757888	60	43900
2026-01-28 22:53:52.42	166.20	13.96	-48.6	-51.1	6.1	0.00e+00	0	34	104	45390757888	60	43770
2026-01-28 22:53:55.36	166.56	13.62	-48.4	-51.0	6.1	0.00e+00	0	34	104	45390757888	60	43270
2026-01-28 22:53:58.30	166.91	13.28	-48.5	-51.0	6.1	0.00e+00	0	35	104	45390757888	60	43629
2026-01-28 22:54:01.24	167.25	12.94	-48.4	-50.9	6.1	0.00e+00	0	35	104	45390757888	60	42816
2026-01-28 22:54:04.17	167.59	12.62	-48.5	-51.0	6.1	0.00e+00	0	35	104	45390757888	60	43282
2026-01-28 22:54:07.11	167.91	12.29	-48.6	-51.1	6.1	0.00e+00	0	35	104	45390757888	60	43755
2026-01-28 22:54:10.05	168.23	11.97	-48.6	-51.1	6.1	0.00e+00	0	34	104	45390757888	60	43734
2026-01-28 22:54:12.99	168.54	11.66	-48.5	-51.0	6.1	0.00e+00	0	35	104	45390757888	60	43397
2026-01-28 22:54:15.93	168.84	11.34	-48.4	-50.9	6.1	0.00e+00	0	34	104	45390757888	60	43064
2026-01-28 22:54:18.87	169.13	11.04	-48.4	-50.9	6.1	0.00e+00	0	35	104	45390757888	60	42836
2026-01-28 22:54:21.82	169.42	10.74	-48.5	-51.0	6.1	0.00e+00	0	34	104	45390757888	60	43316
2026-01-28 22:54:24.76	169.70	10.44	-48.1	-50.6	6.1	0.00e+00	0	35	104	45390757888	60	41641
2026-01-28 22:54:27.70	169.97	10.15	-48.4	-50.9	6.1	0.00e+00	0	35	104	45390757888	60	43168
2026-01-28 22:54:30.64	170.24	9.86	-48.3	-50.8	6.1	0.00e+00	0	35	104	45390757888	60	42337
2026-01-28 22:54:33.57	170.50	9.57	-48.2	-50.7	6.1	0.00e+00	0	35	104	45390757888	60	42079
2026-01-28 22:54:36.52	170.76	9.29	-48.2	-50.7	6.1	0.00e+00	0	34	104	45390757888	60	42080
2026-01-28 22:54:39.46	171.01	9.01	-48.0	-50.6	6.1	0.00e+00	0	34	104	45390757888	60	41379
2026-01-28 22:54:42.39	171.25	8.74	-48.1	-50.6	6.1	0.00e+00	0	34	104	45390757888	60	41646
2026-01-28 22:54:45.33	171.49	8.47	-48.0	-50.5	6.1	0.00e+00	0	35	104	45390757888	60	41248
2026-01-28 22:54:48.27	171.72	8.20	-48.1	-50.6	6.1	0.00e+00	0	34	104	45390757888	60	41553
2026-01-28 22:54:51.21	171.95	7.94	-47.9	-50.5	6.1	0.00e+00	0	34	104	45390757888	60	40978
2026-01-28 22:54:54.14	172.17	7.68	-48.1	-50.6	6.1	0.00e+00	0	34	104	45390757888	60	41562
2026-01-28 22:54:57.08	172.39	7.42	-48.1	-50.6	6.1	0.00e+00	0	34	104	45390757888	60	41298
2026-01-28 22:55:00.02	172.61	7.17	-48.0	-50.5	6.1	0.00e+00	0	34	104	45390757888	60	41199
2026-01-28 22:55:02.94	172.82	6.92	-48.2	-50.7	6.1	0.00e+00	0	34	104	45390757888	60	41881
2026-01-28 22:55:05.87	173.02	6.67	-47.9	-50.4	6.1	0.00e+00	0	34	104	45390757888	60	40586
2026-01-28 22:55:08.81	173.23	6.43	-47.8	-50.4	6.1	0.00e+00	0	35	104	45390757888	60	40505
2026-01-28 22:55:11.75	173.42	6.19	-48.2	-50.6	6.1	0.00e+00	0	35	104	45390757888	60	41596
2026-01-28 22:55:14.69	173.62	5.95	-48.1	-50.6	6.0	0.00e+00	0	35	104	45390757888	60	41295
2026-01-28 22:55:17.63	173.81	5.71	-48.1	-50.5	6.1	0.00e+00	0	34	104	45390757888	60	41036
2026-01-28 22:55:20.57	174.00	5.48	-48.0	-50.5	6.1	0.00e+00	0	34	104	45390757888	60	41034
2026-01-28 22:55:23.51	174.18	5.24	-48.0	-50.4	6.0	0.00e+00	0	34	104	45390757888	60	40715
2026-01-28 22:55:26.44	174.36	5.02	-47.9	-50.4	6.1	0.00e+00	0	34	104	45390757888	60	40472
2026-01-28 22:55:29.39	174.54	4.79	-47.7	-50.2	6.1	0.00e+00	0	35	104	45390757888	60	39808
2026-01-28 22:55:32.33	174.71	4.56	-47.8	-50.3	6.1	0.00e+00	0	35	104	45390757888	60	40228
2026-01-28 22:55:35.26	174.88	4.34	-47.8	-50.3	6.1	0.00e+00	0	35	104	45390757888	60	40175
2026-01-28 22:55:38.20	175.05	4.12	-48.1	-50.6	6.1	0.00e+00	0	34	104	45390757888	60	41423
2026-01-28 22:55:41.13	175.21	3.91	-47.7	-50.2	6.1	0.00e+00	0	34	104	45390757888	60	39441
2026-01-28 22:55:44.07	175.38	3.69	-48.0	-50.4	6.1	0.00e+00	0	34	104	45390757888	60	40720
2026-01-28 22:55:47.01	175.53	3.48	-47.4	-49.9	6.1	0.00e+00	0	34	104	45390757888	60	38307
2026-01-28 22:55:49.94	175.69	3.27	-47.6	-50.1	6.1	0.00e+00	0	34	104	45390757888	60	39359
2026-01-28 22:55:52.88	175.84	3.06	-47.4	-49.9	6.1	0.00e+00	0	34	104	45390757888	60	38442
2026-01-28 22:55:55.83	176.00	2.85	-48.5	-51.0	6.1	0.00e+00	0	34	104	45390757888	60	43506
2026-01-28 22:55:58.76	176.14	2.64	-48.4	-51.0	6.1	0.00e+00	0	35	104	45390757888	60	43250
2026-01-28 22:56:01.69	176.29	2.44	-48.9	-51.4	6.1	0.00e+00	0	35	104	45390757888	60	45456
2026-01-28 22:56:04.64	176.43	2.24	-49.0	-51.5	6.1	0.00e+00	0	34	104	45390757888	60	46012
2026-01-28 22:56:07.58	176.58	2.04	-49.1	-51.6	6.1	0.00e+00	0	34	104	45390757888	60	46452
2026-01-28 22:56:10.52	176.71	1.84	-49.0	-51.5	6.1	0.00e+00	0	34	104	45390757888	60	46181
2026-01-28 22:56:13.46	176.85	1.64	-49.0	-51.4	6.1	0.00e+00	0	34	104	45390757888	60	45632
2026-01-28 22:56:16.39	176.99	1.45	-48.9	-51.4	6.1	0.00e+00	0	34	104	45390757888	60	45676
2026-01-28 22:56:19.34	177.12	1.25	-49.0	-51.5	6.1	0.00e+00	0	34	104	45390757888	60	45944
2026-01-28 22:56:22.30	177.25	1.06	-49.0	-51.4	6.1	0.00e+00	0	34	104	45390757888	60	45767
2026-01-28 22:56:25.24	177.38	0.87	-49.0	-51.5	6.1	0.00e+00	0	34	104	45390757888	60	45810
2026-01-28 22:56:28.19	177.51	0.68	-49.0	-51.5	6.1	0.00e+00	0	34	104	45390757888	60	45854
2026-01-28 22:56:31.13	177.63	0.49	-49.0	-51.4	6.1	0.00e+00	0	34	104	45390757888	60	45694
2026-01-28 22:56:34.06	177.76	0.31	-49.0	-51.4	6.1	0.00e+00	0	34	104	45390757888	60	45638
2026-01-28 22:56:37.00	177.88	0.12	-49.0	-51.5	6.1	0.00e+00	0	35	104	45390757888	60	45794
2026-01-28 22:56:39.94	178.00	-0.06	-49.0	-51.4	6.1	0.00e+00	0	34	104	45390757888	60	45702

#Closed at: 2026-01-28 22:56:40
#Recorded file [45390 MB]: D:/lorett/data/35029_260129_104541.dat