passes_logs/2026/01/28/R4.6S_Anadyr/R4.6S_Anadyr__20260128_163756_FENGYUN_3D_rec.log

#Pass ID: 20260128_163756_FENGYUN 3D
#Satellite: FENGYUN 3D
#Configuration: FENGYUN 3D
#almurnet v.1.7.20251203
#Start time: 2026-01-28 16:37:59

#Version: 2.2.20231116
#Station: R4.6S_Anadyr
#Location: 177.4865 lon 64.73178 lat
#TLE: 1 43010U 17072A   26027.90082829  .00000305  00000+0  16579-3 0  9998
#TLE: 2 43010  98.9960 359.9183 0002511  88.1058 272.0405 14.19701796425082

#Time	Az	El	Level	Level2	SNR	BER	BlckErr	Temp	State	Recorded	gain1	gain2
2026-01-28 16:37:59.66	20.69	0.21	-48.7	-59.4	3.3	8.40e-01	0	31	0	0	60	33913
2026-01-28 16:38:03.69	20.74	0.45	-48.8	-60.9	3.6	8.45e-01	0	31	104	0	60	40272
2026-01-28 16:38:07.73	20.78	0.69	-48.8	-61.0	3.6	8.46e-01	0	31	104	0	60	40730
2026-01-28 16:38:11.77	20.83	0.94	-48.7	-60.8	3.6	8.45e-01	0	31	104	0	60	39804
2026-01-28 16:38:15.81	20.87	1.19	-48.2	-60.3	3.6	8.46e-01	0	32	104	0	60	37559
2026-01-28 16:38:19.84	20.92	1.44	-47.7	-59.8	3.6	8.46e-01	0	32	104	0	60	35365
2026-01-28 16:38:23.88	20.96	1.69	-47.4	-59.2	3.6	8.45e-01	0	31	104	0	60	33047
2026-01-28 16:38:27.92	21.01	1.95	-47.4	-59.5	3.6	8.45e-01	0	32	104	0	60	34025
2026-01-28 16:38:31.95	21.06	2.20	-47.3	-58.7	3.6	8.45e-01	0	32	104	0	60	31182
2026-01-28 16:38:35.99	21.10	2.46	-47.0	-55.9	4.1	8.40e-01	0	32	104	0	60	22437
2026-01-28 16:38:40.03	21.15	2.73	-47.0	-54.8	4.0	8.41e-01	0	32	0	0	60	19872
2026-01-28 16:38:44.07	21.20	2.99	-43.1	-45.3	12.5	1.13e-04	0	32	0	15728640	60	6677
2026-01-28 16:38:48.10	21.25	3.26	-38.4	-39.5	19.1	0.00e+00	0	32	0	38797312	50	6042
2026-01-28 16:38:52.15	21.30	3.53	-38.3	-39.3	18.7	0.00e+00	0	32	0	61865984	48	6672
2026-01-28 16:38:56.19	21.35	3.80	-39.4	-40.5	18.4	0.00e+00	0	32	0	83886080	56	4837
2026-01-28 16:39:00.22	21.40	4.07	-42.6	-44.7	13.4	8.03e-01	0	32	104	91226112	58	6934
2026-01-28 16:39:04.27	21.45	4.35	-39.7	-41.0	17.8	0.00e+00	0	32	0	110100480	52	6399
2026-01-28 16:39:08.31	21.50	4.63	-39.7	-40.9	17.6	0.00e+00	0	32	0	133169152	52	6375
2026-01-28 16:39:12.35	21.55	4.92	-38.2	-39.3	19.5	0.00e+00	0	32	0	156237824	50	5905
2026-01-28 16:39:16.38	21.61	5.20	-37.1	-38.0	20.8	0.00e+00	0	32	0	179306496	46	6461
2026-01-28 16:39:20.41	21.66	5.49	-35.7	-36.5	22.2	0.00e+00	0	32	0	201326592	44	6055
2026-01-28 16:39:24.45	21.72	5.79	-35.2	-36.0	22.6	0.00e+00	0	32	0	224395264	44	5717
2026-01-28 16:39:28.49	21.77	6.08	-35.0	-35.8	23.0	0.00e+00	0	32	0	247463936	44	5569
2026-01-28 16:39:32.52	21.83	6.38	-35.1	-35.9	23.0	0.00e+00	0	32	0	269484032	44	5671
2026-01-28 16:39:36.56	21.88	6.69	-35.0	-35.7	23.0	0.00e+00	0	32	0	292552704	42	6226
2026-01-28 16:39:40.60	21.94	7.00	-34.3	-35.0	23.8	0.00e+00	0	32	0	314572800	42	5742
2026-01-28 16:39:44.65	22.00	7.31	-34.2	-34.9	24.0	0.00e+00	0	32	0	337641472	42	5639
2026-01-28 16:39:48.69	22.06	7.62	-34.0	-34.7	24.0	0.00e+00	0	32	0	360710144	40	6239
2026-01-28 16:39:52.73	22.12	7.94	-33.9	-34.6	24.1	0.00e+00	0	32	0	383778816	40	6121
2026-01-28 16:39:56.76	22.18	8.26	-33.7	-34.5	24.3	0.00e+00	0	32	0	405798912	40	6046
2026-01-28 16:40:00.80	22.24	8.59	-33.6	-34.3	24.5	0.00e+00	0	32	0	428867584	40	5950
2026-01-28 16:40:04.83	22.31	8.92	-33.6	-34.3	24.5	0.00e+00	0	32	0	451936256	40	5956
2026-01-28 16:40:08.87	22.37	9.26	-33.5	-34.3	24.5	0.00e+00	0	32	0	473956352	40	5898
2026-01-28 16:40:12.91	22.44	9.60	-33.5	-34.2	24.7	0.00e+00	0	32	0	497025024	40	5850
2026-01-28 16:40:16.95	22.50	9.94	-33.3	-34.0	24.8	0.00e+00	0	32	0	519045120	40	5734
2026-01-28 16:40:20.98	22.57	10.29	-33.2	-33.9	24.9	0.00e+00	0	32	0	542113792	40	5653
2026-01-28 16:40:25.02	22.64	10.65	-33.2	-33.8	25.0	0.00e+00	0	32	0	565182464	40	5618
2026-01-28 16:40:29.06	22.71	11.01	-33.2	-33.9	24.9	0.00e+00	0	32	0	587202560	40	5682
2026-01-28 16:40:33.10	22.78	11.37	-33.1	-33.8	25.0	0.00e+00	0	32	0	610271232	40	5569
2026-01-28 16:40:37.14	22.86	11.74	-33.1	-33.8	25.1	0.00e+00	0	32	0	633339904	40	5567
2026-01-28 16:40:41.18	22.93	12.12	-33.2	-33.9	25.0	0.00e+00	0	32	0	656408576	40	5644
2026-01-28 16:40:45.22	23.01	12.50	-33.1	-33.7	25.1	0.00e+00	0	32	0	678428672	40	5562
2026-01-28 16:40:49.25	23.08	12.89	-33.0	-33.7	25.2	0.00e+00	0	32	0	701497344	40	5516
2026-01-28 16:40:53.29	23.16	13.29	-33.1	-33.8	25.1	0.00e+00	0	32	0	723517440	40	5610
2026-01-28 16:40:57.32	23.24	13.69	-32.8	-33.5	25.4	0.00e+00	0	32	0	746586112	38	6068
2026-01-28 16:41:01.36	23.32	14.10	-32.6	-33.3	25.7	0.00e+00	0	32	0	769654784	38	5912
2026-01-28 16:41:05.40	23.41	14.51	-32.4	-33.0	25.8	0.00e+00	0	32	0	791674880	38	5748
2026-01-28 16:41:09.45	23.50	14.93	-32.2	-32.8	26.0	0.00e+00	0	32	0	814743552	38	5626
2026-01-28 16:41:13.49	23.58	15.36	-32.0	-32.6	26.2	0.00e+00	0	32	0	837812224	38	5496
2026-01-28 16:41:17.52	23.67	15.80	-31.8	-32.4	26.4	0.00e+00	0	32	0	859832320	36	6015
2026-01-28 16:41:21.57	23.77	16.25	-31.4	-32.0	26.7	0.00e+00	0	32	0	882900992	36	5751
2026-01-28 16:41:25.61	23.86	16.70	-31.2	-31.9	26.9	0.00e+00	0	32	0	905969664	36	5631
2026-01-28 16:41:29.65	23.96	17.16	-31.1	-31.7	26.9	0.00e+00	0	32	0	927989760	36	5565
2026-01-28 16:41:33.69	24.06	17.64	-31.3	-31.9	26.9	0.00e+00	0	32	0	951058432	36	5664
2026-01-28 16:41:37.72	24.16	18.12	-31.1	-31.7	27.0	0.00e+00	0	32	0	974127104	36	5545
2026-01-28 16:41:41.76	24.26	18.61	-30.9	-31.5	27.3	0.00e+00	0	32	0	996147200	36	5424
2026-01-28 16:41:45.80	24.37	19.11	-30.9	-31.5	27.3	0.00e+00	0	32	0	1019215872	36	5433
2026-01-28 16:41:49.84	24.48	19.62	-30.9	-31.5	27.3	0.00e+00	0	32	0	1042284544	36	5435
2026-01-28 16:41:53.88	24.60	20.14	-30.6	-31.2	27.4	0.00e+00	0	32	0	1065353216	34	5855
2026-01-28 16:41:57.92	24.72	20.67	-30.5	-31.1	27.6	0.00e+00	0	32	0	1087373312	34	5798
2026-01-28 16:42:01.96	24.84	21.21	-30.6	-31.3	27.4	0.00e+00	0	32	0	1110441984	34	5903
2026-01-28 16:42:05.99	24.96	21.77	-30.4	-31.0	27.7	0.00e+00	0	32	0	1132462080	34	5720
2026-01-28 16:42:10.03	25.09	22.33	-30.3	-30.9	27.7	0.00e+00	0	32	0	1155530752	34	5682
2026-01-28 16:42:14.07	25.22	22.91	-30.2	-30.8	27.8	0.00e+00	0	32	0	1178599424	34	5608
2026-01-28 16:42:18.11	25.36	23.51	-30.2	-30.9	27.9	0.00e+00	0	33	0	1200619520	34	5646
2026-01-28 16:42:22.15	25.50	24.12	-29.8	-30.4	28.1	0.00e+00	0	32	0	1223688192	34	5324
2026-01-28 16:42:26.18	25.65	24.74	-29.8	-30.4	28.1	0.00e+00	0	33	0	1246756864	32	5989
2026-01-28 16:42:30.22	25.80	25.37	-29.6	-30.2	28.4	0.00e+00	0	32	0	1268776960	32	5890
2026-01-28 16:42:34.26	25.96	26.03	-29.7	-30.3	28.3	0.00e+00	0	32	0	1291845632	32	5916
2026-01-28 16:42:38.30	26.12	26.70	-29.9	-30.6	28.1	0.00e+00	0	32	0	1314914304	32	6109
2026-01-28 16:42:42.34	26.29	27.38	-29.9	-30.6	28.1	0.00e+00	0	33	0	1336934400	32	6120
2026-01-28 16:42:46.38	26.47	28.09	-29.7	-30.4	28.3	0.00e+00	0	32	0	1360003072	32	5969
2026-01-28 16:42:50.43	26.66	28.81	-29.4	-30.0	28.5	0.00e+00	0	33	0	1383071744	32	5750
2026-01-28 16:42:54.47	26.85	29.55	-29.7	-30.4	28.3	0.00e+00	0	33	0	1405091840	32	5971
2026-01-28 16:42:58.51	27.05	30.31	-29.9	-30.5	28.1	0.00e+00	0	33	0	1428160512	32	6087
2026-01-28 16:43:02.54	27.26	31.09	-29.9	-30.5	28.2	0.00e+00	0	32	0	1451229184	32	6096
2026-01-28 16:43:06.58	27.48	31.89	-29.4	-30.1	28.4	0.00e+00	0	32	0	1474297856	32	5763
2026-01-28 16:43:10.62	27.71	32.71	-29.6	-30.3	28.3	0.00e+00	0	32	0	1496317952	32	5908
2026-01-28 16:43:14.66	27.95	33.56	-30.0	-30.6	28.2	0.00e+00	0	32	0	1519386624	32	6133
2026-01-28 16:43:18.70	28.20	34.43	-29.3	-29.9	28.6	0.00e+00	0	32	0	1541406720	32	5682
2026-01-28 16:43:22.73	28.47	35.32	-29.1	-29.7	28.8	0.00e+00	0	33	0	1564475392	32	5512
2026-01-28 16:43:26.77	28.75	36.24	-29.3	-29.9	28.6	0.00e+00	0	33	0	1587544064	32	5693
2026-01-28 16:43:30.81	29.04	37.18	-28.9	-29.5	28.9	0.00e+00	0	32	0	1609564160	32	5416
2026-01-28 16:43:34.85	29.36	38.16	-28.9	-29.5	28.9	0.00e+00	0	33	0	1632632832	32	5403
2026-01-28 16:43:38.89	29.69	39.16	-29.0	-29.6	28.9	0.00e+00	0	33	0	1655701504	32	5489
2026-01-28 16:43:42.93	30.04	40.19	-29.1	-29.6	28.8	0.00e+00	0	32	0	1678770176	32	5495
2026-01-28 16:43:46.97	30.41	41.25	-29.2	-29.8	28.7	0.00e+00	0	33	0	1700790272	32	5602
2026-01-28 16:43:51.00	30.81	42.34	-29.4	-30.0	28.6	0.00e+00	0	33	0	1723858944	32	5708
2026-01-28 16:43:55.04	31.24	43.46	-29.3	-29.9	28.6	0.00e+00	0	33	0	1745879040	32	5678
2026-01-28 16:43:59.08	31.69	44.61	-30.0	-30.7	28.0	0.00e+00	0	33	0	1768947712	32	6193
2026-01-28 16:44:03.11	32.18	45.80	-29.7	-30.4	28.4	0.00e+00	0	33	0	1792016384	32	5970
2026-01-28 16:44:07.15	32.71	47.02	-29.5	-30.1	28.5	0.00e+00	0	33	0	1814036480	32	5804
2026-01-28 16:44:11.19	33.28	48.27	-29.9	-30.6	28.1	0.00e+00	0	33	0	1837105152	32	6128
2026-01-28 16:44:15.22	33.89	49.56	-29.6	-30.2	28.4	0.00e+00	0	32	0	1860173824	32	5847
2026-01-28 16:44:19.26	34.56	50.88	-30.3	-30.9	28.0	0.00e+00	0	33	0	1882193920	32	6347
2026-01-28 16:44:23.30	35.29	52.24	-30.0	-30.6	28.1	0.00e+00	0	33	0	1905262592	32	6155
2026-01-28 16:44:27.33	36.09	53.62	-31.3	-31.9	27.1	0.00e+00	0	33	0	1928331264	34	6388
2026-01-28 16:44:31.37	36.97	55.05	-31.5	-32.2	27.0	0.00e+00	0	32	0	1950351360	34	6543
2026-01-28 16:44:35.41	37.94	56.51	-31.0	-31.6	27.4	0.00e+00	0	32	0	1973420032	34	6142
2026-01-28 16:44:39.45	39.02	57.99	-30.4	-31.0	27.8	0.00e+00	0	33	0	1996488704	34	5742
2026-01-28 16:44:43.49	40.23	59.51	-30.1	-30.7	28.0	0.00e+00	0	32	0	2018508800	32	6219
2026-01-28 16:44:47.52	41.58	61.05	-29.5	-30.2	28.4	0.00e+00	0	33	0	2041577472	32	5832
2026-01-28 16:44:51.56	43.11	62.61	-29.0	-29.6	28.8	0.00e+00	0	32	0	2064646144	32	5464
2026-01-28 16:44:55.60	44.85	64.19	-28.9	-29.5	28.9	0.00e+00	0	32	0	2086666240	32	5420
2026-01-28 16:44:59.64	46.85	65.78	-28.7	-29.3	29.0	0.00e+00	0	32	0	2109734912	30	5937
2026-01-28 16:45:03.68	49.16	67.37	-28.8	-29.4	29.0	0.00e+00	0	33	0	2132803584	30	6024
2026-01-28 16:45:07.72	51.84	68.95	-28.8	-29.4	28.9	0.00e+00	0	32	0	2154823680	30	6009
2026-01-28 16:45:11.77	55.01	70.51	-28.7	-29.3	29.1	0.00e+00	0	32	0	2177892352	30	5929
2026-01-28 16:45:15.81	58.74	72.03	-28.0	-28.6	29.6	0.00e+00	0	32	0	2200961024	30	5455
2026-01-28 16:45:19.84	63.17	73.48	-28.0	-28.6	29.5	0.00e+00	0	32	0	2222981120	30	5456
2026-01-28 16:45:23.89	68.50	74.85	-27.8	-28.4	29.5	0.00e+00	0	32	0	2246049792	28	5967
2026-01-28 16:45:27.93	74.84	76.07	-27.4	-28.0	29.9	0.00e+00	0	32	0	2269118464	28	5719
2026-01-28 16:45:31.96	82.32	77.10	-27.4	-28.1	29.8	0.00e+00	0	32	0	2291138560	28	5766
2026-01-28 16:45:36.00	90.98	77.89	-27.3	-28.0	29.9	0.00e+00	0	33	0	2314207232	28	5699
2026-01-28 16:45:40.04	100.65	78.39	-27.6	-28.2	29.8	0.00e+00	0	32	0	2337275904	28	5858
2026-01-28 16:45:44.08	110.87	78.54	-27.3	-27.9	30.0	0.00e+00	0	33	0	2359296000	28	5669
2026-01-28 16:45:48.12	121.04	78.33	-27.4	-28.0	29.7	0.00e+00	0	33	0	2382364672	28	5746
2026-01-28 16:45:52.16	130.55	77.78	-27.2	-27.9	29.9	0.00e+00	0	33	0	2405433344	28	5641
2026-01-28 16:45:56.20	139.03	76.94	-27.1	-27.7	30.0	0.00e+00	0	33	0	2427453440	28	5544
2026-01-28 16:46:00.24	146.33	75.87	-27.4	-28.0	29.8	0.00e+00	0	32	0	2450522112	28	5721
2026-01-28 16:46:04.28	152.48	74.62	-27.7	-28.3	29.6	0.00e+00	0	32	0	2473590784	28	5950
2026-01-28 16:46:08.32	157.64	73.24	-28.3	-28.8	29.3	0.00e+00	0	33	0	2495610880	28	6307
2026-01-28 16:46:12.36	161.95	71.77	-28.9	-29.4	28.7	0.00e+00	0	33	0	2518679552	30	6025
2026-01-28 16:46:16.40	165.58	70.24	-28.3	-29.0	29.3	0.00e+00	0	32	0	2541748224	30	5727
2026-01-28 16:46:20.44	168.65	68.67	-28.8	-29.5	28.9	0.00e+00	0	32	0	2563768320	30	6071
2026-01-28 16:46:24.47	171.26	67.09	-28.5	-29.0	29.2	0.00e+00	0	32	0	2586836992	30	5743
2026-01-28 16:46:28.52	173.52	65.49	-28.6	-29.1	29.1	0.00e+00	0	33	0	2609905664	30	5827
2026-01-28 16:46:32.56	175.47	63.90	-28.5	-29.0	29.1	0.00e+00	0	32	0	2631925760	30	5757
2026-01-28 16:46:36.60	177.17	62.32	-29.2	-29.9	28.7	0.00e+00	0	33	0	2654994432	30	6341
2026-01-28 16:46:40.63	178.67	60.76	-29.6	-30.3	28.5	0.00e+00	0	32	0	2678063104	30	6664
2026-01-28 16:46:44.68	180.00	59.21	-29.9	-30.5	28.1	0.00e+00	0	33	0	2701131776	32	6057
2026-01-28 16:46:48.71	181.18	57.70	-29.9	-30.5	28.1	0.00e+00	0	33	0	2723151872	32	6058
2026-01-28 16:46:52.75	182.24	56.21	-30.0	-30.7	28.0	0.00e+00	0	32	0	2746220544	32	6214
2026-01-28 16:46:56.79	183.19	54.76	-30.1	-30.8	27.9	0.00e+00	0	33	0	2768240640	32	6246
2026-01-28 16:47:00.83	184.06	53.34	-30.0	-30.6	28.1	0.00e+00	0	33	0	2791309312	32	6132
2026-01-28 16:47:04.86	184.85	51.95	-29.9	-30.5	28.2	0.00e+00	0	32	0	2814377984	32	6044
2026-01-28 16:47:08.90	185.56	50.59	-29.8	-30.5	28.2	0.00e+00	0	32	0	2836398080	32	6055
2026-01-28 16:47:12.94	186.22	49.27	-29.6	-30.1	28.5	0.00e+00	0	32	0	2859466752	32	5820
2026-01-28 16:47:16.98	186.83	47.99	-29.3	-29.8	28.7	0.00e+00	0	32	0	2882535424	32	5619
2026-01-28 16:47:21.01	187.39	46.74	-29.4	-30.0	28.5	0.00e+00	0	33	0	2904555520	32	5761
2026-01-28 16:47:25.05	187.91	45.52	-29.2	-29.7	28.7	0.00e+00	0	32	0	2927624192	32	5563
2026-01-28 16:47:29.09	188.39	44.33	-29.2	-29.7	28.7	0.00e+00	0	33	0	2950692864	32	5549
2026-01-28 16:47:33.13	188.84	43.18	-29.0	-29.5	28.8	0.00e+00	0	33	0	2972712960	32	5389
2026-01-28 16:47:37.16	189.26	42.07	-29.3	-30.0	28.6	0.00e+00	0	33	0	2995781632	32	5707
2026-01-28 16:47:41.20	189.65	40.98	-29.1	-29.6	28.8	0.00e+00	0	33	0	3018850304	32	5482
2026-01-28 16:47:45.24	190.02	39.92	-29.1	-29.7	28.8	0.00e+00	0	33	0	3040870400	32	5512
2026-01-28 16:47:49.28	190.37	38.89	-29.0	-29.7	28.8	0.00e+00	0	32	0	3063939072	32	5544
2026-01-28 16:47:53.32	190.70	37.89	-28.7	-29.4	28.9	0.00e+00	0	33	0	3087007744	30	6019
2026-01-28 16:47:57.36	191.00	36.92	-28.7	-29.3	29.0	0.00e+00	0	33	0	3109027840	30	5964
2026-01-28 16:48:01.40	191.30	35.98	-29.0	-29.6	28.8	0.00e+00	0	32	0	3132096512	30	6165
2026-01-28 16:48:05.44	191.57	35.06	-29.2	-29.9	28.7	0.00e+00	0	32	0	3155165184	30	6326
2026-01-28 16:48:09.48	191.84	34.17	-29.1	-29.7	28.7	0.00e+00	0	33	0	3177185280	30	6230
2026-01-28 16:48:13.52	192.09	33.30	-28.9	-29.5	28.8	0.00e+00	0	33	0	3200253952	30	6102
2026-01-28 16:48:17.55	192.32	32.46	-29.1	-29.6	28.7	0.00e+00	0	33	0	3223322624	30	6157
2026-01-28 16:48:21.59	192.55	31.64	-29.3	-30.0	28.6	0.00e+00	0	33	0	3245342720	30	6417
2026-01-28 16:48:25.63	192.77	30.84	-29.5	-30.2	28.3	0.00e+00	0	32	0	3268411392	30	6584
2026-01-28 16:48:29.67	192.97	30.06	-29.6	-30.2	28.3	0.00e+00	0	32	0	3291480064	30	6563
2026-01-28 16:48:33.71	193.17	29.30	-29.5	-30.0	28.5	0.00e+00	0	32	0	3313500160	30	6432
2026-01-28 16:48:37.75	193.36	28.56	-29.5	-30.2	28.4	0.00e+00	0	33	0	3336568832	30	6562
2026-01-28 16:48:41.79	193.54	27.84	-29.4	-30.1	28.5	0.00e+00	0	33	0	3359637504	30	6527
2026-01-28 16:48:45.82	193.71	27.14	-29.4	-29.9	28.5	0.00e+00	0	33	0	3381657600	30	6376
2026-01-28 16:48:49.86	193.88	26.46	-29.3	-29.8	28.6	0.00e+00	0	33	0	3404726272	30	6268
2026-01-28 16:48:53.90	194.04	25.79	-29.3	-29.8	28.5	0.00e+00	0	33	0	3427794944	30	6309
2026-01-28 16:48:57.94	194.20	25.14	-29.6	-30.1	28.3	0.00e+00	0	33	0	3449815040	30	6537
2026-01-28 16:49:01.97	194.35	24.50	-29.8	-30.4	28.1	0.00e+00	0	32	0	3472883712	32	5996
2026-01-28 16:49:06.01	194.49	23.88	-29.9	-30.5	28.1	0.00e+00	0	33	0	3494903808	32	6054
2026-01-28 16:49:10.05	194.63	23.27	-29.9	-30.5	28.0	0.00e+00	0	32	0	3517972480	32	6061
2026-01-28 16:49:14.09	194.77	22.68	-29.9	-30.5	28.0	0.00e+00	0	33	0	3541041152	32	6053
2026-01-28 16:49:18.13	194.90	22.10	-29.9	-30.5	28.0	0.00e+00	0	33	0	3564109824	32	6046
2026-01-28 16:49:22.17	195.02	21.53	-30.2	-30.8	27.8	0.00e+00	0	33	0	3586129920	32	6252
2026-01-28 16:49:26.20	195.14	20.98	-30.3	-30.8	27.8	0.00e+00	0	33	0	3609198592	32	6294
2026-01-28 16:49:30.24	195.26	20.44	-30.5	-31.1	27.6	0.00e+00	0	33	0	3632267264	32	6469
2026-01-28 16:49:34.28	195.38	19.91	-30.6	-31.2	27.4	0.00e+00	0	33	0	3654287360	32	6581
2026-01-28 16:49:38.31	195.49	19.39	-30.7	-31.2	27.4	0.00e+00	0	33	0	3677356032	32	6606
2026-01-28 16:49:42.34	195.60	18.88	-31.0	-31.6	27.2	0.00e+00	0	33	0	3699376128	34	6116
2026-01-28 16:49:46.38	195.70	18.38	-31.2	-31.7	27.0	0.00e+00	0	33	0	3722444800	34	6244
2026-01-28 16:49:50.42	195.80	17.89	-31.2	-31.8	26.9	0.00e+00	0	33	0	3745513472	34	6288
2026-01-28 16:49:54.46	195.90	17.41	-31.5	-32.1	26.7	0.00e+00	0	32	0	3767533568	34	6509
2026-01-28 16:49:58.49	196.00	16.94	-31.8	-32.3	26.5	0.00e+00	0	33	0	3790602240	36	5962
2026-01-28 16:50:02.53	196.09	16.48	-31.9	-32.5	26.4	0.00e+00	0	33	0	3813670912	36	6072
2026-01-28 16:50:06.56	196.19	16.02	-32.0	-32.6	26.3	0.00e+00	0	33	0	3835691008	36	6164
2026-01-28 16:50:10.60	196.28	15.58	-32.1	-32.7	26.2	0.00e+00	0	33	0	3858759680	36	6200
2026-01-28 16:50:14.64	196.36	15.14	-32.1	-32.8	26.2	0.00e+00	0	33	0	3881828352	36	6314
2026-01-28 16:50:18.68	196.45	14.71	-32.2	-32.8	26.1	0.00e+00	0	32	0	3903848448	36	6250
2026-01-28 16:50:22.71	196.53	14.29	-32.5	-33.0	25.9	0.00e+00	0	33	0	3926917120	36	6455
2026-01-28 16:50:26.75	196.61	13.87	-32.4	-33.0	26.0	0.00e+00	0	33	0	3949985792	36	6415
2026-01-28 16:50:30.79	196.69	13.47	-32.5	-33.2	25.9	0.00e+00	0	33	0	3972005888	36	6559
2026-01-28 16:50:34.82	196.77	13.07	-32.4	-33.0	25.8	0.00e+00	0	33	0	3995074560	36	6414
2026-01-28 16:50:38.86	196.85	12.67	-32.4	-33.0	25.9	0.00e+00	0	33	0	4018143232	36	6445
2026-01-28 16:50:42.89	196.92	12.28	-32.5	-33.1	25.8	0.00e+00	0	32	0	4040163328	36	6509
2026-01-28 16:50:46.94	196.99	11.90	-32.5	-33.3	25.7	0.00e+00	0	33	0	4063232000	36	6619
2026-01-28 16:50:50.98	197.06	11.52	-32.8	-33.6	25.4	0.00e+00	0	33	0	4086300672	38	6126
2026-01-28 16:50:55.01	197.13	11.15	-32.9	-33.5	25.4	0.00e+00	0	33	0	4108320768	38	6053
2026-01-28 16:50:59.05	197.20	10.79	-32.9	-33.5	25.4	0.00e+00	0	33	0	4131389440	38	6073
2026-01-28 16:51:03.09	197.27	10.43	-33.1	-33.8	25.2	0.00e+00	0	33	0	4154458112	38	6279
2026-01-28 16:51:07.13	197.34	10.07	-33.4	-34.0	24.8	0.00e+00	0	32	0	4176478208	38	6434
2026-01-28 16:51:11.16	197.40	9.72	-33.3	-34.0	25.0	0.00e+00	0	33	0	4199546880	38	6443
2026-01-28 16:51:15.20	197.46	9.38	-33.5	-34.1	24.7	0.00e+00	0	33	0	4222615552	38	6531
2026-01-28 16:51:19.24	197.52	9.04	-33.6	-34.3	24.6	0.00e+00	0	33	0	4244635648	40	5910
2026-01-28 16:51:23.28	197.59	8.70	-33.7	-34.3	24.4	0.00e+00	0	32	0	4267704320	40	5956
2026-01-28 16:51:27.32	197.65	8.37	-33.7	-34.5	24.4	0.00e+00	0	33	0	4289724416	40	6050
2026-01-28 16:51:31.36	197.70	8.04	-34.1	-34.8	24.0	0.00e+00	0	32	0	4312793088	40	6259
2026-01-28 16:51:35.40	197.76	7.72	-34.4	-35.0	23.8	0.00e+00	0	32	0	4335861760	42	5751
2026-01-28 16:51:39.43	197.82	7.40	-34.1	-34.9	23.9	0.00e+00	0	32	0	4358930432	42	5681
2026-01-28 16:51:43.46	197.88	7.09	-34.2	-35.0	23.9	0.00e+00	0	33	0	4380950528	42	5716
2026-01-28 16:51:47.50	197.93	6.78	-34.7	-35.5	23.3	0.00e+00	0	33	0	4404019200	42	6078
2026-01-28 16:51:51.54	197.98	6.47	-34.8	-35.5	23.2	0.00e+00	0	33	0	4427087872	42	6047
2026-01-28 16:51:55.58	198.04	6.17	-34.6	-35.3	23.4	0.00e+00	0	33	0	4449107968	42	5912
2026-01-28 16:51:59.61	198.09	5.87	-34.3	-35.0	23.5	0.00e+00	0	32	0	4472176640	42	5731
2026-01-28 16:52:03.64	198.14	5.57	-34.7	-35.4	23.2	0.00e+00	0	33	0	4494196736	42	5974
2026-01-28 16:52:07.68	198.19	5.28	-35.1	-35.8	22.7	0.00e+00	0	33	0	4517265408	42	6278
2026-01-28 16:52:11.72	198.24	4.99	-36.1	-36.9	21.5	0.00e+00	0	33	0	4540334080	44	6324
2026-01-28 16:52:15.76	198.29	4.70	-35.3	-36.1	22.2	0.00e+00	0	33	0	4562354176	42	6512
2026-01-28 16:52:19.80	198.34	4.42	-35.3	-36.0	22.2	0.00e+00	0	33	0	4585422848	42	6422
2026-01-28 16:52:23.84	198.39	4.13	-35.3	-36.2	22.2	0.00e+00	0	33	0	4608491520	42	6560
2026-01-28 16:52:27.87	198.44	3.86	-35.7	-36.6	21.6	0.00e+00	0	33	0	4630511616	44	6163
2026-01-28 16:52:31.91	198.48	3.58	-35.6	-36.3	21.7	0.00e+00	0	33	0	4653580288	44	5944
2026-01-28 16:52:35.95	198.53	3.31	-35.3	-36.2	22.4	0.00e+00	0	33	0	4676648960	44	5852
2026-01-28 16:52:39.99	198.57	3.04	-36.0	-36.9	21.1	0.00e+00	0	33	0	4698669056	44	6321
2026-01-28 16:52:44.03	198.62	2.77	-48.4	-60.6	3.6	8.46e-01	0	33	104	4701814784	60	38558
2026-01-28 16:52:48.07	198.66	2.51	-48.1	-60.9	3.6	8.46e-01	0	33	104	4701814784	60	39893
2026-01-28 16:52:52.11	198.71	2.24	-48.6	-61.0	3.6	8.46e-01	0	33	104	4701814784	60	40391
2026-01-28 16:52:56.15	198.75	1.98	-48.8	-60.9	3.6	8.45e-01	0	33	104	4701814784	60	40153
2026-01-28 16:53:00.18	198.79	1.73	-48.7	-60.8	3.6	8.46e-01	0	33	104	4701814784	60	39750
2026-01-28 16:53:04.22	198.83	1.47	-48.7	-60.8	3.6	8.46e-01	0	33	104	4701814784	60	39752
2026-01-28 16:53:08.26	198.88	1.22	-48.7	-60.8	3.6	8.44e-01	0	33	104	4701814784	60	39735
2026-01-28 16:53:12.30	198.92	0.97	-48.7	-60.9	3.6	8.46e-01	0	33	104	4701814784	60	40108
2026-01-28 16:53:16.34	198.96	0.72	-48.7	-60.9	3.6	8.45e-01	0	33	104	4701814784	60	39891
2026-01-28 16:53:20.38	199.00	0.47	-48.7	-60.9	3.6	8.45e-01	0	33	104	4701814784	60	39871
2026-01-28 16:53:24.42	199.04	0.23	-48.7	-60.8	3.6	8.46e-01	0	33	104	4701814784	60	39842

#Closed at: 2026-01-28 16:53:28
#Recorded file [4701 MB]: D:/lorett/data/35029_260129_043759.dat