passes_logs/2026/01/28/R4.6S_Anadyr/R4.6S_Anadyr__20260128_043426_FENGYUN_3D_rec.log

#Pass ID: 20260128_043426_FENGYUN 3D
#Satellite: FENGYUN 3D
#Configuration: FENGYUN 3D
#almurnet v.1.7.20251203
#Start time: 2026-01-28 04:34:29

#Version: 2.2.20231116
#Station: R4.6S_Anadyr
#Location: 177.4865 lon 64.73178 lat
#TLE: 1 43010U 17072A   26027.61892183  .00000301  00000+0  16406-3 0  9993
#TLE: 2 43010  98.9961 359.6320 0002526  87.4560 272.6905 14.19701415425044

#Time	Az	El	Level	Level2	SNR	BER	BlckErr	Temp	State	Recorded	gain1	gain2
2026-01-28 04:34:29.75	216.26	0.15	-48.8	-59.6	3.3	8.40e-01	0	32	0	0	60	34346
2026-01-28 04:34:33.79	216.55	0.36	-48.8	-61.1	3.6	8.45e-01	0	33	104	0	60	40828
2026-01-28 04:34:37.82	216.85	0.56	-49.0	-61.2	3.6	8.45e-01	0	33	104	0	60	41402
2026-01-28 04:34:41.86	217.15	0.76	-48.9	-61.2	3.6	8.45e-01	0	33	104	0	60	41288
2026-01-28 04:34:45.90	217.46	0.97	-48.8	-61.0	3.6	8.45e-01	0	33	104	0	60	40400
2026-01-28 04:34:49.95	217.77	1.18	-48.4	-60.5	3.6	8.45e-01	0	33	104	0	60	38219
2026-01-28 04:34:53.99	218.08	1.38	-47.1	-59.1	3.6	8.45e-01	0	33	104	0	60	32612
2026-01-28 04:34:58.02	218.39	1.59	-47.1	-59.1	3.6	8.45e-01	0	33	104	0	60	32519
2026-01-28 04:35:02.06	218.72	1.80	-47.1	-59.0	3.6	8.45e-01	0	33	104	0	60	32162
2026-01-28 04:35:06.10	219.04	2.01	-47.1	-58.7	3.5	8.45e-01	0	33	104	0	60	31294
2026-01-28 04:35:10.14	219.37	2.22	-47.1	-59.0	3.6	8.44e-01	0	33	104	0	60	32161
2026-01-28 04:35:14.19	219.71	2.43	-46.9	-56.8	3.7	8.45e-01	0	33	104	0	60	24914
2026-01-28 04:35:18.22	220.05	2.64	-46.1	-51.3	5.9	7.26e-01	0	33	0	0	60	13256
2026-01-28 04:35:22.26	220.39	2.85	-41.4	-43.1	15.0	0.00e+00	0	33	0	23068672	56	6502
2026-01-28 04:35:26.30	220.74	3.07	-39.2	-40.3	18.3	2.53e-04	0	33	0	45088768	56	4717
2026-01-28 04:35:30.33	221.09	3.28	-38.3	-39.3	19.5	0.00e+00	0	33	0	57671680	52	5310
2026-01-28 04:35:34.38	221.45	3.50	-38.0	-39.0	19.1	0.00e+00	0	33	0	79691776	50	5754
2026-01-28 04:35:38.41	221.81	3.71	-37.5	-38.5	19.9	0.00e+00	0	34	0	102760448	48	6046
2026-01-28 04:35:42.45	222.18	3.93	-37.9	-38.9	19.6	0.00e+00	0	33	0	124780544	48	6349
2026-01-28 04:35:46.49	222.56	4.14	-37.9	-38.9	19.6	0.00e+00	0	34	0	147849216	48	6365
2026-01-28 04:35:50.53	222.94	4.36	-37.8	-38.8	19.4	0.00e+00	0	33	0	170917888	48	6280
2026-01-28 04:35:54.57	223.32	4.58	-37.7	-38.7	19.1	0.00e+00	0	33	0	193986560	48	6203
2026-01-28 04:35:58.60	223.71	4.80	-37.5	-38.5	19.5	0.00e+00	0	34	0	216006656	48	6055
2026-01-28 04:36:02.64	224.11	5.02	-37.3	-38.2	20.2	0.00e+00	0	34	0	239075328	48	5884
2026-01-28 04:36:06.68	224.51	5.24	-37.7	-38.7	19.5	0.00e+00	0	34	0	262144000	48	6176
2026-01-28 04:36:10.72	224.92	5.46	-37.9	-38.9	18.8	0.00e+00	0	33	0	284164096	48	6372
2026-01-28 04:36:14.76	225.33	5.69	-38.2	-39.2	18.8	0.00e+00	0	34	0	307232768	48	6597
2026-01-28 04:36:18.81	225.75	5.91	-37.9	-38.9	19.4	0.00e+00	0	34	0	329252864	48	6362
2026-01-28 04:36:22.84	226.18	6.13	-38.1	-39.1	19.2	0.00e+00	0	34	0	352321536	48	6520
2026-01-28 04:36:26.88	226.61	6.36	-38.5	-39.6	18.8	0.00e+00	0	34	0	375390208	48	6862
2026-01-28 04:36:30.93	227.05	6.58	-38.7	-39.8	18.4	0.00e+00	0	34	0	398458880	48	7028
2026-01-28 04:36:34.96	227.50	6.81	-38.8	-39.9	18.9	0.00e+00	0	34	0	420478976	50	6356
2026-01-28 04:36:39.00	227.95	7.03	-38.7	-39.7	19.3	0.00e+00	0	33	0	443547648	50	6190
2026-01-28 04:36:43.05	228.41	7.26	-38.8	-39.8	19.2	0.00e+00	0	34	0	466616320	50	6306
2026-01-28 04:36:47.08	228.87	7.49	-38.9	-39.9	18.7	0.00e+00	0	34	0	488636416	50	6388
2026-01-28 04:36:51.12	229.35	7.71	-39.0	-40.0	19.2	0.00e+00	0	34	0	511705088	50	6418
2026-01-28 04:36:55.16	229.83	7.94	-39.2	-40.3	18.9	0.00e+00	0	34	0	533725184	50	6669
2026-01-28 04:36:59.47	230.35	8.18	-38.9	-40.0	19.1	0.00e+00	0	34	0	556793856	50	6399
2026-01-28 04:37:03.50	230.84	8.41	-38.6	-39.6	19.5	0.00e+00	0	34	0	579862528	50	6128
2026-01-28 04:37:07.54	231.34	8.64	-38.9	-39.9	19.3	0.00e+00	0	34	0	602931200	50	6364
2026-01-28 04:37:11.58	231.85	8.87	-38.8	-39.9	19.3	0.00e+00	0	34	0	624951296	50	6323
2026-01-28 04:37:15.62	232.37	9.10	-39.1	-40.2	19.1	0.00e+00	0	34	0	648019968	50	6563
2026-01-28 04:37:19.66	232.90	9.33	-38.8	-39.9	19.4	0.00e+00	0	34	0	671088640	50	6324
2026-01-28 04:37:23.70	233.43	9.55	-38.9	-39.8	19.5	0.00e+00	0	34	0	693108736	50	6301
2026-01-28 04:37:27.74	233.97	9.78	-38.5	-39.5	19.8	0.00e+00	0	34	0	716177408	50	6056
2026-01-28 04:37:31.78	234.52	10.01	-38.0	-39.0	20.3	0.00e+00	0	34	0	739246080	50	5714
2026-01-28 04:37:35.82	235.08	10.24	-37.9	-38.8	20.5	0.00e+00	0	34	0	761266176	50	5596
2026-01-28 04:37:39.87	235.65	10.47	-37.3	-38.2	21.1	0.00e+00	0	34	0	784334848	48	5832
2026-01-28 04:37:43.92	236.23	10.70	-36.9	-37.7	21.5	0.00e+00	0	34	0	807403520	48	5553
2026-01-28 04:37:47.89	236.80	10.92	-36.5	-37.3	22.0	0.00e+00	0	34	0	829423616	46	5915
2026-01-28 04:37:51.93	237.40	11.15	-36.4	-37.2	22.1	0.00e+00	0	34	0	852492288	46	5853
2026-01-28 04:37:55.98	238.00	11.37	-36.1	-36.8	22.4	0.00e+00	0	34	0	875560960	46	5625
2026-01-28 04:38:00.02	238.61	11.60	-35.6	-36.4	22.8	0.00e+00	0	34	0	897581056	44	5989
2026-01-28 04:38:04.05	239.23	11.82	-35.3	-36.0	23.1	0.00e+00	0	34	0	920649728	44	5757
2026-01-28 04:38:08.10	239.86	12.05	-34.9	-35.7	23.4	0.00e+00	0	34	0	942669824	44	5532
2026-01-28 04:38:12.14	240.50	12.27	-34.7	-35.4	23.8	0.00e+00	0	34	0	965738496	42	5994
2026-01-28 04:38:16.18	241.15	12.49	-34.1	-34.7	24.5	0.00e+00	0	34	0	988807168	42	5552
2026-01-28 04:38:20.22	241.81	12.71	-33.7	-34.4	24.8	0.00e+00	0	34	0	1011875840	40	5987
2026-01-28 04:38:24.26	242.47	12.93	-33.4	-34.1	25.1	0.00e+00	0	34	0	1033895936	40	5768
2026-01-28 04:38:28.30	243.15	13.14	-33.3	-34.0	25.2	0.00e+00	0	34	0	1056964608	40	5722
2026-01-28 04:38:32.34	243.84	13.36	-33.0	-33.7	25.5	0.00e+00	0	34	0	1080033280	40	5509
2026-01-28 04:38:36.38	244.53	13.57	-32.6	-33.2	25.9	0.00e+00	0	34	0	1102053376	38	5859
2026-01-28 04:38:40.42	245.24	13.78	-32.5	-33.2	25.9	0.00e+00	0	34	0	1125122048	38	5836
2026-01-28 04:38:44.45	245.95	13.99	-32.8	-33.4	25.8	0.00e+00	0	34	0	1148190720	38	6013
2026-01-28 04:38:48.50	246.68	14.20	-32.3	-33.0	26.1	0.00e+00	0	34	0	1170210816	38	5700
2026-01-28 04:38:52.54	247.41	14.40	-32.3	-33.0	26.1	0.00e+00	0	34	0	1193279488	38	5716
2026-01-28 04:38:56.58	248.16	14.60	-32.1	-32.8	26.2	0.00e+00	0	34	0	1216348160	38	5574
2026-01-28 04:39:00.62	248.91	14.80	-32.3	-33.0	26.1	0.00e+00	0	34	0	1238368256	38	5722
2026-01-28 04:39:04.66	249.68	15.00	-32.3	-33.0	26.1	0.00e+00	0	34	0	1261436928	38	5735
2026-01-28 04:39:08.70	250.45	15.19	-32.2	-32.8	26.2	0.00e+00	0	34	0	1284505600	38	5613
2026-01-28 04:39:12.74	251.24	15.38	-32.0	-32.6	26.5	0.00e+00	0	34	0	1306525696	38	5474
2026-01-28 04:39:16.78	252.03	15.56	-32.1	-32.8	26.3	0.00e+00	0	34	0	1329594368	38	5611
2026-01-28 04:39:20.81	252.83	15.74	-32.0	-32.6	26.5	0.00e+00	0	34	0	1352663040	38	5476
2026-01-28 04:39:24.86	253.64	15.92	-31.9	-32.5	26.5	0.00e+00	0	34	0	1374683136	38	5433
2026-01-28 04:39:28.90	254.46	16.09	-32.1	-32.7	26.4	0.00e+00	0	34	0	1397751808	38	5546
2026-01-28 04:39:32.93	255.29	16.26	-32.1	-32.7	26.4	0.00e+00	0	34	0	1420820480	38	5561
2026-01-28 04:39:36.97	256.13	16.42	-31.9	-32.5	26.6	0.00e+00	0	34	0	1442840576	38	5434
2026-01-28 04:39:41.01	256.98	16.58	-32.1	-32.7	26.4	0.00e+00	0	34	0	1465909248	36	6221
2026-01-28 04:39:45.04	257.83	16.73	-31.9	-32.6	26.5	0.00e+00	0	34	0	1487929344	36	6108
2026-01-28 04:39:49.08	258.70	16.88	-31.9	-32.6	26.5	0.00e+00	0	34	0	1510998016	36	6111
2026-01-28 04:39:53.13	259.57	17.03	-31.7	-32.4	26.7	0.00e+00	0	34	0	1534066688	36	5986
2026-01-28 04:39:57.17	260.45	17.16	-31.6	-32.2	26.7	0.00e+00	0	34	0	1557135360	36	5876
2026-01-28 04:40:01.21	261.34	17.30	-31.6	-32.2	26.7	0.00e+00	0	34	0	1579155456	36	5882
2026-01-28 04:40:05.25	262.24	17.42	-31.7	-32.3	26.8	0.00e+00	0	34	0	1602224128	36	5949
2026-01-28 04:40:09.29	263.14	17.54	-31.8	-32.4	26.6	0.00e+00	0	34	0	1625292800	36	5999
2026-01-28 04:40:13.33	264.05	17.66	-31.6	-32.3	26.8	0.00e+00	0	34	0	1647312896	36	5922
2026-01-28 04:40:17.37	264.97	17.76	-31.6	-32.2	26.8	0.00e+00	0	34	0	1670381568	36	5885
2026-01-28 04:40:21.41	265.89	17.86	-31.7	-32.3	26.7	0.00e+00	0	34	0	1693450240	36	5944
2026-01-28 04:40:25.46	266.82	17.96	-31.7	-32.4	26.6	0.00e+00	0	34	0	1715470336	36	5986
2026-01-28 04:40:29.50	267.75	18.04	-31.5	-32.1	26.9	0.00e+00	0	34	0	1738539008	36	5808
2026-01-28 04:40:33.54	268.69	18.12	-31.6	-32.2	26.7	0.00e+00	0	34	0	1761607680	36	5884
2026-01-28 04:40:37.58	269.63	18.19	-31.5	-32.1	26.8	0.00e+00	0	34	0	1783627776	36	5795
2026-01-28 04:40:41.61	270.58	18.26	-31.4	-32.0	26.9	0.00e+00	0	34	0	1806696448	36	5760
2026-01-28 04:40:45.65	271.53	18.32	-31.2	-31.8	27.1	0.00e+00	0	34	0	1829765120	36	5619
2026-01-28 04:40:49.69	272.48	18.37	-31.4	-32.1	26.9	0.00e+00	0	34	0	1851785216	36	5771
2026-01-28 04:40:53.73	273.44	18.41	-31.4	-32.1	26.9	0.00e+00	0	34	0	1874853888	36	5770
2026-01-28 04:40:57.77	274.40	18.44	-31.2	-31.8	27.1	0.00e+00	0	34	0	1897922560	36	5615
2026-01-28 04:41:01.82	275.36	18.47	-31.3	-31.9	27.1	0.00e+00	0	34	0	1919942656	36	5676
2026-01-28 04:41:05.86	276.32	18.49	-31.3	-31.9	27.0	0.00e+00	0	34	0	1943011328	36	5664
2026-01-28 04:41:09.90	277.28	18.50	-31.3	-31.9	27.1	0.00e+00	0	34	0	1966080000	36	5660
2026-01-28 04:41:13.94	278.25	18.50	-31.4	-32.0	27.0	0.00e+00	0	34	0	1988100096	36	5735
2026-01-28 04:41:17.97	279.21	18.50	-31.4	-32.0	26.9	0.00e+00	0	34	0	2011168768	36	5710
2026-01-28 04:41:22.01	280.17	18.49	-31.7	-32.3	26.7	0.00e+00	0	34	0	2034237440	36	5955
2026-01-28 04:41:26.05	281.13	18.47	-31.5	-32.1	26.8	0.00e+00	0	34	0	2057306112	36	5824
2026-01-28 04:41:30.10	282.09	18.44	-31.4	-32.0	26.8	0.00e+00	0	34	0	2079326208	36	5755
2026-01-28 04:41:34.14	283.05	18.40	-31.7	-32.3	26.6	0.00e+00	0	34	0	2102394880	36	5931
2026-01-28 04:41:38.17	284.00	18.36	-31.2	-31.8	27.0	0.00e+00	0	34	0	2124414976	36	5612
2026-01-28 04:41:42.21	284.96	18.31	-31.3	-31.9	27.0	0.00e+00	0	34	0	2147483648	36	5694
2026-01-28 04:41:46.25	285.91	18.25	-31.3	-32.0	26.9	0.00e+00	0	34	0	2170552320	36	5736
2026-01-28 04:41:50.29	286.85	18.18	-31.6	-32.3	26.7	0.00e+00	0	34	0	2192572416	36	5931
2026-01-28 04:41:54.33	287.79	18.11	-31.6	-32.3	26.8	0.00e+00	0	34	0	2215641088	36	5921
2026-01-28 04:41:58.37	288.73	18.03	-31.9	-32.5	26.5	0.00e+00	0	34	0	2238709760	36	6065
2026-01-28 04:42:02.41	289.66	17.94	-32.1	-32.8	26.3	0.00e+00	0	34	0	2261778432	36	6264
2026-01-28 04:42:06.46	290.59	17.85	-31.7	-32.4	26.6	0.00e+00	0	34	0	2283798528	36	5989
2026-01-28 04:42:10.50	291.51	17.75	-31.7	-32.4	26.6	0.00e+00	0	34	0	2306867200	36	5991
2026-01-28 04:42:14.53	292.42	17.64	-31.7	-32.4	26.7	0.00e+00	0	34	0	2328887296	36	5976
2026-01-28 04:42:18.58	293.32	17.53	-32.0	-32.6	26.4	0.00e+00	0	34	0	2351955968	36	6157
2026-01-28 04:42:22.62	294.22	17.41	-32.0	-32.6	26.4	0.00e+00	0	34	0	2375024640	36	6164
2026-01-28 04:42:26.66	295.12	17.28	-32.2	-32.8	26.2	0.00e+00	0	34	0	2398093312	36	6288
2026-01-28 04:42:30.70	296.00	17.15	-32.0	-32.7	26.4	0.00e+00	0	34	0	2420113408	36	6206
2026-01-28 04:42:34.74	296.88	17.01	-32.1	-32.7	26.3	0.00e+00	0	34	0	2443182080	36	6228
2026-01-28 04:42:38.78	297.75	16.87	-31.9	-32.6	26.5	0.00e+00	0	34	0	2466250752	36	6157
2026-01-28 04:42:42.81	298.61	16.72	-32.0	-32.7	26.4	0.00e+00	0	34	0	2488270848	36	6205
2026-01-28 04:42:46.85	299.46	16.57	-32.1	-32.7	26.3	0.00e+00	0	34	0	2511339520	36	6212
2026-01-28 04:42:50.90	300.31	16.41	-32.1	-32.8	26.4	0.00e+00	0	34	0	2533359616	36	6289
2026-01-28 04:42:54.94	301.14	16.24	-32.5	-33.2	26.2	0.00e+00	0	34	0	2556428288	36	6571
2026-01-28 04:42:58.99	301.97	16.08	-32.4	-33.1	26.3	0.00e+00	0	34	0	2579496960	36	6477
2026-01-28 04:43:03.02	302.78	15.90	-32.3	-32.9	26.3	0.00e+00	0	34	0	2602565632	36	6318
2026-01-28 04:43:07.06	303.59	15.73	-32.5	-33.2	26.2	0.00e+00	0	34	0	2624585728	36	6564
2026-01-28 04:43:11.10	304.39	15.55	-32.5	-33.2	26.1	0.00e+00	0	34	0	2647654400	36	6568
2026-01-28 04:43:15.15	305.18	15.36	-32.5	-33.2	26.0	0.00e+00	0	34	0	2670723072	36	6596
2026-01-28 04:43:19.18	305.96	15.18	-32.3	-32.9	26.3	0.00e+00	0	34	0	2692743168	36	6344
2026-01-28 04:43:23.23	306.73	14.99	-32.5	-33.1	26.1	0.00e+00	0	34	0	2715811840	36	6522
2026-01-28 04:43:27.27	307.49	14.79	-32.5	-33.2	26.1	0.00e+00	0	34	0	2738880512	36	6575
2026-01-28 04:43:31.31	308.24	14.59	-32.7	-33.4	25.9	0.00e+00	0	34	0	2760900608	36	6701
2026-01-28 04:43:35.35	308.98	14.39	-32.9	-33.6	25.8	0.00e+00	0	34	0	2783969280	38	6111
2026-01-28 04:43:39.39	309.71	14.19	-32.9	-33.5	25.7	0.00e+00	0	34	0	2807037952	38	6053
2026-01-28 04:43:43.43	310.43	13.99	-32.8	-33.5	25.8	0.00e+00	0	34	0	2829058048	38	6085
2026-01-28 04:43:47.47	311.15	13.78	-33.0	-33.7	25.6	0.00e+00	0	34	0	2852126720	38	6224
2026-01-28 04:43:51.51	311.85	13.57	-33.0	-33.7	25.6	0.00e+00	0	34	0	2875195392	38	6235
2026-01-28 04:43:55.55	312.54	13.36	-33.2	-33.8	25.5	0.00e+00	0	34	0	2897215488	38	6272
2026-01-28 04:43:59.59	313.22	13.15	-33.3	-34.0	25.4	0.00e+00	0	34	0	2920284160	38	6417
2026-01-28 04:44:03.63	313.90	12.93	-33.3	-33.9	25.4	0.00e+00	0	34	0	2943352832	38	6390
2026-01-28 04:44:07.67	314.56	12.71	-33.3	-34.0	25.3	0.00e+00	0	34	0	2965372928	38	6407
2026-01-28 04:44:11.71	315.21	12.50	-33.1	-33.7	25.4	0.00e+00	0	34	0	2988441600	38	6198
2026-01-28 04:44:15.75	315.86	12.28	-33.1	-33.7	25.3	0.00e+00	0	34	0	3011510272	38	6243
2026-01-28 04:44:19.79	316.49	12.06	-33.3	-34.0	25.2	0.00e+00	0	34	0	3033530368	38	6448
2026-01-28 04:44:23.82	317.12	11.83	-33.5	-34.2	25.1	0.00e+00	0	34	0	3056599040	38	6550
2026-01-28 04:44:27.86	317.74	11.61	-33.4	-34.1	25.2	0.00e+00	0	34	0	3079667712	38	6521
2026-01-28 04:44:31.90	318.34	11.39	-33.6	-34.3	24.9	0.00e+00	0	34	0	3101687808	38	6635
2026-01-28 04:44:35.94	318.94	11.16	-33.8	-34.5	24.8	0.00e+00	0	34	0	3124756480	40	6046
2026-01-28 04:44:39.98	319.53	10.94	-33.8	-34.5	24.8	0.00e+00	0	34	0	3147825152	40	6100
2026-01-28 04:44:44.02	320.11	10.71	-34.1	-34.7	24.4	0.00e+00	0	34	0	3169845248	40	6234
2026-01-28 04:44:48.06	320.69	10.49	-33.8	-34.5	24.8	0.00e+00	0	34	0	3192913920	40	6088
2026-01-28 04:44:52.10	321.25	10.26	-33.8	-34.5	24.7	0.00e+00	0	34	0	3215982592	40	6048
2026-01-28 04:44:56.14	321.81	10.04	-33.8	-34.5	24.6	0.00e+00	0	34	0	3238002688	40	6050
2026-01-28 04:45:00.18	322.36	9.81	-34.1	-34.8	24.4	0.00e+00	0	34	0	3261071360	40	6307
2026-01-28 04:45:04.22	322.90	9.58	-33.8	-34.6	24.7	0.00e+00	0	34	0	3284140032	40	6109
2026-01-28 04:45:08.27	323.43	9.36	-34.1	-34.8	24.4	0.00e+00	0	34	0	3307208704	40	6290
2026-01-28 04:45:12.31	323.95	9.13	-34.4	-35.2	24.2	0.00e+00	0	34	0	3329228800	40	6542
2026-01-28 04:45:16.35	324.47	8.90	-34.7	-35.4	23.8	0.00e+00	0	34	0	3352297472	42	5988
2026-01-28 04:45:20.39	324.98	8.68	-34.8	-35.6	23.8	0.00e+00	0	34	0	3374317568	42	6129
2026-01-28 04:45:24.43	325.48	8.45	-34.8	-35.5	23.6	0.00e+00	0	34	0	3397386240	42	6074
2026-01-28 04:45:28.47	325.97	8.22	-34.7	-35.3	23.8	0.00e+00	0	34	0	3420454912	42	5937
2026-01-28 04:45:32.51	326.46	8.00	-34.8	-35.4	23.7	0.00e+00	0	34	0	3443523584	42	6030
2026-01-28 04:45:36.55	326.94	7.77	-35.1	-35.9	23.4	0.00e+00	0	34	0	3465543680	42	6320
2026-01-28 04:45:40.59	327.41	7.55	-34.9	-35.6	23.5	0.00e+00	0	34	0	3488612352	42	6127
2026-01-28 04:45:44.63	327.88	7.32	-35.2	-36.0	23.2	0.00e+00	0	34	0	3511681024	42	6454
2026-01-28 04:45:48.67	328.33	7.10	-35.0	-35.8	23.3	0.00e+00	0	34	0	3533701120	42	6277
2026-01-28 04:45:52.71	328.79	6.87	-35.3	-36.1	23.0	0.00e+00	0	34	0	3556769792	42	6525
2026-01-28 04:45:56.76	329.23	6.65	-35.6	-36.4	22.8	0.00e+00	0	34	0	3579838464	42	6706
2026-01-28 04:46:00.80	329.67	6.43	-35.2	-35.9	23.1	0.00e+00	0	34	0	3601858560	42	6388
2026-01-28 04:46:04.84	330.10	6.20	-35.3	-36.1	22.9	0.00e+00	0	34	0	3624927232	42	6496
2026-01-28 04:46:08.88	330.53	5.98	-35.2	-36.0	23.0	0.00e+00	0	34	0	3647995904	42	6458
2026-01-28 04:46:12.92	330.95	5.76	-35.5	-36.2	22.7	0.00e+00	0	34	0	3670016000	42	6593
2026-01-28 04:46:16.96	331.36	5.54	-35.4	-36.2	22.7	0.00e+00	0	34	0	3693084672	42	6585
2026-01-28 04:46:21.00	331.77	5.32	-35.8	-36.7	22.2	0.00e+00	0	34	0	3716153344	42	6976
2026-01-28 04:46:25.04	332.17	5.10	-36.3	-37.2	21.3	0.00e+00	0	34	0	3738173440	44	6578
2026-01-28 04:46:29.09	332.57	4.88	-38.0	-39.1	18.1	0.00e+00	0	34	0	3761242112	48	6539
2026-01-28 04:46:33.13	332.96	4.67	-40.6	-42.8	12.9	6.40e-05	0	34	0	3784310784	52	7894
2026-01-28 04:46:37.17	333.35	4.45	-42.8	-47.7	6.3	2.47e-01	0	34	0	3806330880	58	9822
2026-01-28 04:46:41.21	333.73	4.23	-43.5	-52.6	3.9	8.41e-01	0	34	104	3812622336	58	17389
2026-01-28 04:46:45.25	334.10	4.02	-43.6	-54.6	3.6	8.44e-01	0	34	104	3812622336	58	21865
2026-01-28 04:46:49.29	334.47	3.80	-43.9	-55.9	3.6	8.46e-01	0	34	104	3812622336	60	22555
2026-01-28 04:46:53.33	334.83	3.59	-43.8	-55.9	3.6	8.46e-01	0	34	104	3812622336	60	22429
2026-01-28 04:46:57.36	335.19	3.38	-43.8	-55.9	3.6	8.46e-01	0	34	104	3812622336	60	22586
2026-01-28 04:47:01.40	335.55	3.17	-44.0	-56.0	3.6	8.45e-01	0	34	104	3812622336	60	22913
2026-01-28 04:47:05.44	335.90	2.95	-44.0	-56.1	3.6	8.45e-01	0	34	104	3812622336	60	23143
2026-01-28 04:47:09.48	336.24	2.74	-48.7	-60.9	3.6	8.45e-01	0	34	104	3812622336	60	39897
2026-01-28 04:47:13.52	336.58	2.53	-49.1	-61.2	3.6	8.46e-01	0	34	104	3812622336	60	41271
2026-01-28 04:47:17.56	336.92	2.33	-49.1	-61.2	3.6	8.46e-01	0	34	104	3812622336	60	41704
2026-01-28 04:47:21.59	337.25	2.12	-48.8	-61.1	3.6	8.45e-01	0	34	104	3812622336	60	41019
2026-01-28 04:47:25.63	337.58	1.91	-49.0	-61.1	3.6	8.45e-01	0	34	104	3812622336	60	40939
2026-01-28 04:47:29.66	337.90	1.70	-49.0	-61.1	3.6	8.46e-01	0	34	104	3812622336	60	41054
2026-01-28 04:47:33.71	338.22	1.50	-49.0	-61.1	3.6	8.46e-01	0	34	104	3812622336	60	41164
2026-01-28 04:47:37.74	338.53	1.29	-49.0	-61.1	3.6	8.46e-01	0	34	104	3812622336	60	40956
2026-01-28 04:47:41.78	338.85	1.09	-48.9	-61.0	3.6	8.46e-01	0	34	104	3812622336	60	40734
2026-01-28 04:47:45.82	339.15	0.89	-48.9	-61.1	3.6	8.46e-01	0	34	104	3812622336	60	40839
2026-01-28 04:47:49.87	339.46	0.68	-48.9	-61.1	3.6	8.47e-01	0	34	104	3812622336	60	40834
2026-01-28 04:47:53.91	339.76	0.48	-48.9	-61.0	3.6	8.46e-01	0	34	104	3812622336	60	40735
2026-01-28 04:47:57.95	340.05	0.28	-48.9	-61.0	3.6	8.45e-01	0	34	104	3812622336	60	40756
2026-01-28 04:48:01.98	340.34	0.08	-48.9	-61.1	3.6	8.45e-01	0	34	104	3812622336	60	40852
2026-01-28 04:48:06.02	340.63	-0.12	-48.9	-61.0	3.6	8.45e-01	0	35	104	3812622336	60	40770

#Closed at: 2026-01-28 04:48:06
#Recorded file [3812 MB]: D:/lorett/data/35029_260128_163429.dat