passes_logs/2026/01/28/R4.6S_Anadyr/R4.6S_Anadyr__20260128_133103_NOAA_21_JPSS-2_rec.log

#Pass ID: 20260128_133103_NOAA 21 (JPSS-2)
#Satellite: NOAA 21 (JPSS-2)
#Configuration: NOAA-21
#almurnet v.1.7.20251203
#Start time: 2026-01-28 13:31:04

#Version: 2.2.20231116
#Station: R4.6S_Anadyr
#Location: 177.4865 lon 64.73178 lat
#TLE: 1 54234U 22150A   26027.77052245  .00000166  00000+0  99439-4 0  9997
#TLE: 2 54234  98.7510 328.5165 0000872 203.6403 156.4733 14.19540252166628

#Time	Az	El	Level	Level2	SNR	BER	BlckErr	Temp	State	Recorded	gain1	gain2
2026-01-28 13:31:04.96	18.89	0.09	-48.6	-63.5	3.5	1.51e+00	0	30	0	0	60	54055
2026-01-28 13:31:08.99	19.05	0.31	-48.7	-61.6	3.5	1.52e+00	0	31	104	0	60	41969
2026-01-28 13:31:13.03	19.21	0.55	-48.8	-61.6	3.5	1.52e+00	0	32	104	0	60	42210
2026-01-28 13:31:17.07	19.38	0.78	-48.7	-61.6	3.5	1.52e+00	0	32	104	0	60	42174
2026-01-28 13:31:21.11	19.55	1.01	-48.5	-61.4	3.5	1.51e+00	0	32	104	0	60	41050
2026-01-28 13:31:25.15	19.72	1.25	-48.1	-60.9	3.5	1.51e+00	0	32	104	0	60	39091
2026-01-28 13:31:29.19	19.90	1.49	-47.3	-60.1	3.5	1.52e+00	0	32	104	0	60	35590
2026-01-28 13:31:33.23	20.08	1.73	-47.2	-59.9	3.5	1.52e+00	0	32	104	0	60	34830
2026-01-28 13:31:37.27	20.26	1.97	-47.3	-60.1	3.5	1.52e+00	0	32	104	0	60	35510
2026-01-28 13:31:41.31	20.44	2.21	-47.3	-60.1	3.5	1.51e+00	0	32	104	0	60	35699
2026-01-28 13:31:45.35	20.62	2.46	-47.2	-59.2	3.5	1.51e+00	0	32	104	0	60	32041
2026-01-28 13:31:49.39	20.81	2.71	-47.2	-59.4	3.5	1.52e+00	0	32	104	0	60	32581
2026-01-28 13:31:53.43	21.00	2.96	-43.4	-46.1	14.0	3.12e-05	123	32	0	6291456	60	7053
2026-01-28 13:31:57.46	21.19	3.21	-38.7	-40.0	19.6	0.00e+00	124	32	0	18874368	50	6217
2026-01-28 13:32:01.50	21.39	3.46	-39.7	-41.1	18.3	0.00e+00	122	32	0	31457280	50	7119
2026-01-28 13:32:05.54	21.59	3.72	-41.4	-43.7	15.8	4.71e-01	123	32	104	42991616	58	5995
2026-01-28 13:32:09.58	21.79	3.98	-40.9	-43.0	16.3	0.00e+00	123	32	104	48234496	56	6212
2026-01-28 13:32:13.62	22.00	4.24	-41.1	-42.8	16.7	0.00e+00	122	32	0	59768832	56	6069
2026-01-28 13:32:17.66	22.21	4.50	-41.4	-43.2	16.6	0.00e+00	122	32	0	72351744	54	7184
2026-01-28 13:32:21.70	22.42	4.76	-39.4	-40.7	18.8	0.00e+00	123	33	0	84934656	52	6049
2026-01-28 13:32:25.74	22.64	5.03	-39.1	-40.4	19.2	0.00e+00	122	32	0	97517568	50	6551
2026-01-28 13:32:29.78	22.86	5.30	-38.3	-39.5	19.8	0.00e+00	123	33	0	110100480	50	5897
2026-01-28 13:32:33.82	23.08	5.57	-38.2	-39.4	20.1	0.00e+00	120	33	0	122683392	50	5833
2026-01-28 13:32:37.86	23.31	5.84	-37.6	-38.8	20.6	0.00e+00	123	32	0	135266304	48	6088
2026-01-28 13:32:41.90	23.54	6.12	-37.2	-38.3	21.1	0.00e+00	123	33	0	148897792	48	5784
2026-01-28 13:32:45.93	23.78	6.40	-36.9	-37.9	21.6	0.00e+00	122	33	0	161480704	48	5514
2026-01-28 13:32:49.97	24.02	6.68	-36.8	-37.9	21.7	0.00e+00	122	33	0	174063616	46	6147
2026-01-28 13:32:54.01	24.26	6.97	-36.8	-37.9	21.6	0.00e+00	123	33	0	186646528	46	6169
2026-01-28 13:32:58.05	24.51	7.26	-36.3	-37.3	22.1	0.00e+00	123	33	0	199229440	46	5777
2026-01-28 13:33:02.09	24.77	7.55	-36.3	-37.3	22.1	0.00e+00	123	33	0	211812352	46	5789
2026-01-28 13:33:06.12	25.02	7.84	-36.0	-37.0	22.5	0.00e+00	122	33	0	224395264	46	5543
2026-01-28 13:33:10.16	25.29	8.14	-35.8	-36.8	22.6	0.00e+00	122	33	0	236978176	46	5416
2026-01-28 13:33:14.20	25.55	8.44	-35.9	-36.8	22.6	0.00e+00	123	33	0	249561088	44	6131
2026-01-28 13:33:18.24	25.83	8.74	-35.7	-36.7	22.7	0.00e+00	120	33	0	262144000	44	6028
2026-01-28 13:33:22.28	26.11	9.04	-35.6	-36.6	22.8	0.00e+00	120	33	0	274726912	44	5965
2026-01-28 13:33:26.32	26.39	9.35	-35.6	-36.6	22.9	0.00e+00	120	33	0	287309824	44	5955
2026-01-28 13:33:30.36	26.68	9.67	-35.6	-36.5	22.8	0.00e+00	122	33	0	299892736	44	5912
2026-01-28 13:33:34.40	26.98	9.98	-35.3	-36.3	23.1	0.00e+00	120	33	0	312475648	44	5741
2026-01-28 13:33:38.44	27.28	10.30	-35.1	-36.1	23.2	0.00e+00	123	33	0	325058560	44	5622
2026-01-28 13:33:42.47	27.59	10.62	-35.1	-36.0	23.3	0.00e+00	121	33	0	337641472	44	5570
2026-01-28 13:33:46.51	27.90	10.95	-35.2	-36.2	23.1	0.00e+00	123	33	0	350224384	44	5690
2026-01-28 13:33:50.55	28.22	11.28	-35.2	-36.1	23.2	0.00e+00	123	33	0	362807296	44	5640
2026-01-28 13:33:54.58	28.55	11.61	-34.9	-35.9	23.5	0.00e+00	123	33	0	375390208	44	5489
2026-01-28 13:33:58.62	28.88	11.95	-34.9	-35.9	23.5	0.00e+00	120	33	0	387973120	42	6140
2026-01-28 13:34:02.66	29.23	12.29	-35.0	-35.9	23.6	0.00e+00	122	33	0	400556032	42	6160
2026-01-28 13:34:06.70	29.58	12.64	-34.7	-35.6	23.8	0.00e+00	123	33	0	413138944	42	5961
2026-01-28 13:34:10.73	29.94	12.98	-34.8	-35.8	23.7	0.00e+00	122	33	0	425721856	42	6065
2026-01-28 13:34:14.77	30.30	13.34	-34.7	-35.6	23.8	0.00e+00	120	33	0	438304768	42	5981
2026-01-28 13:34:18.81	30.68	13.70	-34.5	-35.4	23.9	0.00e+00	120	33	0	450887680	42	5815
2026-01-28 13:34:22.85	31.06	14.06	-34.6	-35.6	23.9	0.00e+00	123	33	0	463470592	42	5938
2026-01-28 13:34:26.88	31.45	14.42	-34.5	-35.4	24.0	0.00e+00	122	33	0	476053504	42	5836
2026-01-28 13:34:30.92	31.85	14.79	-34.4	-35.3	24.1	0.00e+00	122	33	0	489684992	42	5768
2026-01-28 13:34:34.96	32.27	15.17	-34.5	-35.4	24.0	0.00e+00	120	33	0	501219328	42	5831
2026-01-28 13:34:38.99	32.69	15.55	-34.4	-35.4	24.0	0.00e+00	123	33	0	514850816	42	5795
2026-01-28 13:34:43.03	33.12	15.93	-34.7	-35.6	23.8	0.00e+00	120	33	0	527433728	42	5963
2026-01-28 13:34:47.07	33.56	16.32	-34.6	-35.5	24.0	0.00e+00	122	33	0	540016640	42	5869
2026-01-28 13:34:51.11	34.02	16.71	-34.7	-35.6	23.9	0.00e+00	122	33	0	552599552	42	5981
2026-01-28 13:34:55.14	34.48	17.11	-34.7	-35.6	23.9	0.00e+00	123	33	0	565182464	42	5980
2026-01-28 13:34:59.18	34.96	17.51	-34.8	-35.7	23.8	0.00e+00	122	33	0	577765376	42	6027
2026-01-28 13:35:03.22	35.45	17.92	-34.9	-35.8	23.8	0.00e+00	123	33	0	590348288	42	6093
2026-01-28 13:35:07.26	35.95	18.33	-34.8	-35.7	23.8	0.00e+00	123	33	0	602931200	42	6026
2026-01-28 13:35:11.30	36.47	18.75	-34.7	-35.6	24.0	0.00e+00	120	33	0	615514112	42	5951
2026-01-28 13:35:15.34	37.00	19.17	-34.6	-35.5	24.0	0.00e+00	122	33	0	628097024	42	5904
2026-01-28 13:35:19.37	37.54	19.60	-34.4	-35.3	24.1	0.00e+00	120	33	0	640679936	42	5785
2026-01-28 13:35:23.41	38.10	20.03	-34.4	-35.3	24.3	0.00e+00	123	33	0	653262848	42	5785
2026-01-28 13:35:27.45	38.68	20.47	-34.2	-35.0	24.4	0.00e+00	122	33	0	665845760	42	5594
2026-01-28 13:35:31.49	39.27	20.91	-34.2	-35.1	24.5	0.00e+00	120	33	0	678428672	42	5609
2026-01-28 13:35:35.53	39.88	21.36	-33.8	-34.7	24.7	0.00e+00	123	33	0	691011584	42	5401
2026-01-28 13:35:39.57	40.50	21.81	-34.0	-34.9	24.5	0.00e+00	123	33	0	703594496	42	5496
2026-01-28 13:35:43.61	41.15	22.27	-33.9	-34.8	24.5	0.00e+00	123	33	0	716177408	40	6094
2026-01-28 13:35:47.65	41.81	22.73	-33.3	-34.2	25.0	0.00e+00	122	33	0	728760320	40	5683
2026-01-28 13:35:51.69	42.49	23.20	-33.3	-34.2	25.1	0.00e+00	123	33	0	741343232	40	5679
2026-01-28 13:35:55.72	43.19	23.66	-33.5	-34.4	24.9	0.00e+00	123	33	0	753926144	40	5804
2026-01-28 13:35:59.76	43.91	24.14	-33.2	-34.1	25.1	0.00e+00	122	33	0	766509056	40	5609
2026-01-28 13:36:03.79	44.66	24.62	-33.6	-34.5	24.7	0.00e+00	123	33	0	779091968	40	5874
2026-01-28 13:36:07.84	45.43	25.10	-33.7	-34.5	24.8	0.00e+00	123	33	0	791674880	40	5924
2026-01-28 13:36:11.87	46.21	25.58	-33.4	-34.3	25.0	0.00e+00	123	33	0	804257792	40	5729
2026-01-28 13:36:15.91	47.03	26.07	-33.6	-34.4	24.8	0.00e+00	122	33	0	816840704	40	5837
2026-01-28 13:36:19.95	47.87	26.56	-33.8	-34.7	24.7	0.00e+00	122	33	0	829423616	40	6032
2026-01-28 13:36:23.99	48.73	27.06	-34.1	-35.0	24.5	0.00e+00	123	33	0	842006528	40	6261
2026-01-28 13:36:28.03	49.63	27.55	-34.4	-35.3	24.3	0.00e+00	123	33	0	855638016	40	6456
2026-01-28 13:36:32.07	50.54	28.05	-34.4	-35.3	24.2	0.00e+00	123	33	0	867172352	40	6446
2026-01-28 13:36:36.10	51.49	28.55	-34.0	-34.8	24.6	0.00e+00	123	33	0	880803840	40	6125
2026-01-28 13:36:40.14	52.47	29.05	-33.9	-34.8	24.7	0.00e+00	123	33	0	893386752	40	6080
2026-01-28 13:36:44.18	53.47	29.54	-33.6	-34.5	24.8	0.00e+00	122	33	0	905969664	40	5903
2026-01-28 13:36:48.21	54.51	30.04	-33.7	-34.6	24.8	0.00e+00	123	33	0	918552576	40	5978
2026-01-28 13:36:52.26	55.58	30.54	-33.7	-34.6	24.8	0.00e+00	120	33	0	931135488	40	5956
2026-01-28 13:36:56.29	56.68	31.03	-34.0	-34.8	24.6	0.00e+00	123	33	0	943718400	40	6125
2026-01-28 13:37:00.34	57.82	31.52	-34.0	-34.9	24.4	0.00e+00	122	33	0	956301312	40	6193
2026-01-28 13:37:04.38	58.99	32.01	-34.1	-35.0	24.5	0.00e+00	122	33	0	968884224	40	6245
2026-01-28 13:37:08.41	60.20	32.49	-34.7	-35.6	24.0	0.00e+00	123	33	0	981467136	40	6712
2026-01-28 13:37:12.45	61.44	32.96	-34.9	-35.8	23.9	0.00e+00	120	33	0	994050048	42	6098
2026-01-28 13:37:16.49	62.71	33.43	-35.7	-36.6	23.3	0.00e+00	123	33	0	1006632960	42	6695
2026-01-28 13:37:20.53	64.03	33.89	-35.4	-36.3	23.5	0.00e+00	123	33	0	1019215872	42	6464
2026-01-28 13:37:24.56	65.37	34.33	-35.2	-36.1	23.7	0.00e+00	123	33	0	1031798784	42	6342
2026-01-28 13:37:28.60	66.76	34.77	-35.4	-36.3	23.4	0.00e+00	122	33	0	1044381696	42	6479
2026-01-28 13:37:32.64	68.18	35.19	-35.3	-36.2	23.6	0.00e+00	122	33	0	1056964608	42	6396
2026-01-28 13:37:36.68	69.64	35.60	-35.2	-36.2	23.3	0.00e+00	123	33	0	1069547520	42	6351
2026-01-28 13:37:40.72	71.14	36.00	-35.0	-35.9	23.7	0.00e+00	123	33	0	1082130432	42	6169
2026-01-28 13:37:44.76	72.67	36.37	-35.5	-36.5	23.3	0.00e+00	123	33	0	1094713344	42	6643
2026-01-28 13:37:48.80	74.23	36.73	-35.4	-36.4	23.4	0.00e+00	123	33	0	1107296256	42	6523
2026-01-28 13:37:52.83	75.83	37.06	-35.4	-36.4	23.5	0.00e+00	122	33	0	1119879168	42	6529
2026-01-28 13:37:56.87	77.46	37.38	-35.8	-36.7	23.2	0.00e+00	123	33	0	1132462080	42	6786
2026-01-28 13:38:00.90	79.12	37.67	-36.2	-37.2	22.8	0.00e+00	122	33	0	1145044992	44	6415
2026-01-28 13:38:04.94	80.81	37.94	-36.3	-37.3	22.7	0.00e+00	123	33	0	1157627904	44	6476
2026-01-28 13:38:08.98	82.52	38.18	-36.2	-37.2	22.7	0.00e+00	121	33	0	1170210816	44	6394
2026-01-28 13:38:13.01	84.26	38.39	-36.1	-37.0	22.8	0.00e+00	122	33	0	1182793728	44	6272
2026-01-28 13:38:17.05	86.02	38.58	-35.9	-36.9	23.0	0.00e+00	123	33	0	1195376640	44	6160
2026-01-28 13:38:21.09	87.80	38.74	-35.9	-36.8	23.2	0.00e+00	123	33	0	1207959552	44	6116
2026-01-28 13:38:25.13	89.59	38.87	-35.8	-36.8	23.1	0.00e+00	123	33	0	1221591040	44	6082
2026-01-28 13:38:29.17	91.40	38.96	-35.8	-36.8	23.1	0.00e+00	123	33	0	1233125376	44	6104
2026-01-28 13:38:33.20	93.22	39.03	-35.9	-36.8	23.0	0.00e+00	122	33	0	1246756864	44	6129
2026-01-28 13:38:37.24	95.04	39.06	-36.0	-36.9	23.1	0.00e+00	123	33	0	1259339776	44	6183
2026-01-28 13:38:41.28	96.86	39.06	-36.3	-37.3	22.8	0.00e+00	122	33	0	1271922688	44	6482
2026-01-28 13:38:45.32	98.69	39.03	-36.2	-37.2	22.6	0.00e+00	123	33	0	1284505600	44	6380
2026-01-28 13:38:49.37	100.51	38.97	-36.1	-37.1	22.9	0.00e+00	120	33	0	1297088512	46	5634
2026-01-28 13:38:53.40	102.32	38.87	-36.1	-37.0	23.1	0.00e+00	122	33	0	1309671424	46	5594
2026-01-28 13:38:57.44	104.11	38.75	-36.0	-37.0	23.0	0.00e+00	122	33	0	1322254336	46	5562
2026-01-28 13:39:01.48	105.90	38.59	-35.6	-36.6	23.3	0.00e+00	120	33	0	1334837248	44	5944
2026-01-28 13:39:05.52	107.66	38.41	-35.7	-36.7	23.3	0.00e+00	122	33	0	1347420160	44	6027
2026-01-28 13:39:09.55	109.40	38.20	-35.7	-36.7	23.2	0.00e+00	123	33	0	1360003072	44	6006
2026-01-28 13:39:13.59	111.12	37.96	-36.1	-37.1	23.0	0.00e+00	122	33	0	1372585984	44	6313
2026-01-28 13:39:17.63	112.82	37.69	-35.4	-36.4	23.3	0.00e+00	123	33	0	1385168896	44	5815
2026-01-28 13:39:21.67	114.48	37.40	-36.0	-37.0	23.0	0.00e+00	123	33	0	1397751808	44	6223
2026-01-28 13:39:25.70	116.12	37.08	-35.6	-36.5	23.2	0.00e+00	123	33	0	1410334720	44	5919
2026-01-28 13:39:29.74	117.72	36.75	-35.1	-36.0	23.8	0.00e+00	122	33	0	1422917632	44	5591
2026-01-28 13:39:33.77	119.29	36.39	-34.8	-35.7	23.9	0.00e+00	123	33	0	1435500544	42	6041
2026-01-28 13:39:37.81	120.83	36.01	-35.3	-36.2	23.6	0.00e+00	123	33	0	1448083456	42	6418
2026-01-28 13:39:41.85	122.33	35.62	-35.0	-35.9	23.7	0.00e+00	123	33	0	1460666368	42	6172
2026-01-28 13:39:45.89	123.79	35.21	-34.9	-35.9	23.7	0.00e+00	123	33	0	1473249280	42	6157
2026-01-28 13:39:49.93	125.22	34.79	-34.7	-35.6	24.0	0.00e+00	120	33	0	1485832192	42	5976
2026-01-28 13:39:53.96	126.61	34.35	-34.8	-35.8	24.1	0.00e+00	123	33	0	1498415104	42	6067
2026-01-28 13:39:58.00	127.97	33.90	-35.3	-36.2	23.6	0.00e+00	123	33	0	1510998016	42	6385
2026-01-28 13:40:02.04	129.29	33.44	-34.8	-35.7	24.1	0.00e+00	123	33	0	1523580928	42	6004
2026-01-28 13:40:06.08	130.57	32.97	-34.7	-35.6	24.3	0.00e+00	123	33	0	1536163840	42	5957
2026-01-28 13:40:10.12	131.82	32.50	-34.6	-35.4	24.2	0.00e+00	123	33	0	1548746752	42	5853
2026-01-28 13:40:14.16	133.03	32.01	-34.4	-35.2	24.3	0.00e+00	122	33	0	1561329664	42	5714
2026-01-28 13:40:18.20	134.21	31.52	-34.6	-35.5	24.2	0.00e+00	120	33	0	1573912576	42	5885
2026-01-28 13:40:22.24	135.35	31.03	-34.8	-35.7	23.8	0.00e+00	123	33	0	1587544064	42	6023
2026-01-28 13:40:26.28	136.46	30.53	-34.9	-35.8	23.9	0.00e+00	123	33	0	1599078400	42	6124
2026-01-28 13:40:30.32	137.53	30.04	-34.8	-35.8	23.8	0.00e+00	123	33	0	1612709888	42	6094
2026-01-28 13:40:34.36	138.58	29.53	-34.7	-35.7	24.1	0.00e+00	122	33	0	1625292800	42	6017
2026-01-28 13:40:38.40	139.59	29.03	-34.3	-35.2	24.4	0.00e+00	120	33	0	1637875712	42	5721
2026-01-28 13:40:42.44	140.57	28.53	-34.1	-35.0	24.5	0.00e+00	123	33	0	1650458624	42	5558
2026-01-28 13:40:46.48	141.52	28.03	-33.6	-34.5	24.9	0.00e+00	122	33	0	1663041536	40	5881
2026-01-28 13:40:50.52	142.45	27.53	-33.6	-34.4	24.9	0.00e+00	121	33	0	1675624448	40	5848
2026-01-28 13:40:54.54	143.34	27.03	-33.4	-34.2	24.9	0.00e+00	123	33	0	1688207360	40	5705
2026-01-28 13:40:58.58	144.21	26.53	-33.3	-34.1	25.0	0.00e+00	120	33	0	1700790272	40	5649
2026-01-28 13:41:02.61	145.05	26.04	-33.4	-34.2	24.9	0.00e+00	122	33	0	1713373184	40	5705
2026-01-28 13:41:06.65	145.87	25.55	-33.5	-34.4	24.7	0.00e+00	123	33	0	1725956096	40	5806
2026-01-28 13:41:10.69	146.66	25.06	-33.4	-34.3	24.8	0.00e+00	122	33	0	1738539008	40	5762
2026-01-28 13:41:14.72	147.43	24.58	-33.1	-33.9	25.2	0.00e+00	123	33	0	1751121920	40	5523
2026-01-28 13:41:18.76	148.17	24.09	-33.4	-34.3	25.0	0.00e+00	122	33	0	1763704832	40	5732
2026-01-28 13:41:22.80	148.90	23.62	-33.6	-34.5	24.8	0.00e+00	123	33	0	1776287744	40	5883
2026-01-28 13:41:26.83	149.60	23.14	-34.2	-35.1	24.2	0.00e+00	120	33	0	1788870656	40	6315
2026-01-28 13:41:30.87	150.29	22.67	-34.1	-35.0	24.5	0.00e+00	123	33	0	1801453568	40	6267
2026-01-28 13:41:34.91	150.95	22.21	-34.2	-35.1	24.4	0.00e+00	123	33	0	1814036480	40	6291
2026-01-28 13:41:38.95	151.60	21.75	-34.0	-34.9	24.5	0.00e+00	123	33	0	1826619392	40	6152
2026-01-28 13:41:42.99	152.23	21.30	-33.8	-34.7	24.6	0.00e+00	123	33	0	1839202304	40	6059
2026-01-28 13:41:47.03	152.84	20.85	-33.8	-34.6	24.6	0.00e+00	120	33	0	1851785216	40	5992
2026-01-28 13:41:51.07	153.43	20.40	-33.9	-34.8	24.5	0.00e+00	123	33	0	1864368128	40	6097
2026-01-28 13:41:55.11	154.00	19.96	-34.1	-35.0	24.4	0.00e+00	122	33	0	1876951040	40	6215
2026-01-28 13:41:59.15	154.57	19.52	-34.5	-35.4	23.9	0.00e+00	123	33	0	1889533952	40	6550
2026-01-28 13:42:03.18	155.11	19.09	-35.0	-35.9	23.4	0.00e+00	122	33	0	1902116864	42	6205
2026-01-28 13:42:07.22	155.64	18.67	-35.2	-36.2	23.1	0.00e+00	122	33	0	1914699776	42	6400
2026-01-28 13:42:11.26	156.16	18.25	-34.8	-35.8	23.7	0.00e+00	123	33	0	1927282688	42	6080
2026-01-28 13:42:15.30	156.66	17.83	-34.2	-35.1	24.2	0.00e+00	123	33	0	1939865600	42	5629
2026-01-28 13:42:19.34	157.15	17.42	-34.0	-34.9	24.3	0.00e+00	123	33	0	1952448512	42	5482
2026-01-28 13:42:23.38	157.63	17.02	-34.3	-35.2	24.1	0.00e+00	120	33	0	1965031424	42	5690
2026-01-28 13:42:27.41	158.10	16.62	-34.4	-35.3	24.1	0.00e+00	123	33	0	1977614336	42	5743
2026-01-28 13:42:31.45	158.55	16.22	-34.5	-35.4	24.0	0.00e+00	123	33	0	1991245824	42	5858
2026-01-28 13:42:35.49	158.99	15.83	-35.2	-36.1	23.5	0.00e+00	123	33	0	2003828736	42	6339
2026-01-28 13:42:39.53	159.42	15.44	-34.9	-35.8	23.7	0.00e+00	123	33	0	2016411648	42	6116
2026-01-28 13:42:43.57	159.85	15.06	-34.9	-35.9	23.6	0.00e+00	122	33	0	2028994560	42	6139
2026-01-28 13:42:47.61	160.26	14.68	-34.7	-35.6	23.6	0.00e+00	123	33	0	2041577472	42	5954
2026-01-28 13:42:51.65	160.66	14.31	-34.8	-35.7	23.6	0.00e+00	122	33	0	2054160384	42	6063
2026-01-28 13:42:55.68	161.05	13.94	-34.8	-35.7	23.7	0.00e+00	123	33	0	2066743296	42	6052
2026-01-28 13:42:59.72	161.43	13.58	-34.8	-35.8	23.7	0.00e+00	123	33	0	2079326208	42	6067
2026-01-28 13:43:03.75	161.81	13.22	-35.2	-36.1	23.5	0.00e+00	123	33	0	2091909120	42	6316
2026-01-28 13:43:07.79	162.17	12.86	-35.2	-36.1	23.4	0.00e+00	123	33	0	2104492032	42	6344
2026-01-28 13:43:11.83	162.53	12.51	-35.6	-36.6	23.0	0.00e+00	122	33	0	2117074944	42	6682
2026-01-28 13:43:15.87	162.88	12.16	-35.5	-36.4	23.0	0.00e+00	122	33	0	2129657856	42	6568
2026-01-28 13:43:19.90	163.22	11.82	-35.7	-36.7	22.8	0.00e+00	123	33	0	2142240768	44	6023
2026-01-28 13:43:23.94	163.55	11.48	-35.4	-36.4	22.8	0.00e+00	123	33	0	2154823680	44	5848
2026-01-28 13:43:27.98	163.88	11.14	-35.4	-36.4	22.8	0.00e+00	122	33	0	2167406592	44	5838
2026-01-28 13:43:32.02	164.20	10.81	-35.5	-36.5	22.8	0.00e+00	123	33	0	2179989504	44	5887
2026-01-28 13:43:36.05	164.51	10.48	-35.6	-36.6	22.9	0.00e+00	120	33	0	2192572416	44	5953
2026-01-28 13:43:40.09	164.82	10.16	-35.5	-36.5	22.9	0.00e+00	123	33	0	2205155328	44	5895
2026-01-28 13:43:44.14	165.12	9.84	-35.5	-36.5	22.9	0.00e+00	120	33	0	2217738240	44	5877
2026-01-28 13:43:48.17	165.41	9.52	-35.6	-36.6	22.9	0.00e+00	120	33	0	2230321152	44	5940
2026-01-28 13:43:52.21	165.70	9.21	-36.1	-37.1	22.5	0.00e+00	120	33	0	2242904064	44	6326
2026-01-28 13:43:56.24	165.98	8.90	-35.9	-36.9	22.6	0.00e+00	123	33	0	2255486976	44	6141
2026-01-28 13:44:00.28	166.26	8.59	-36.1	-37.1	22.4	0.00e+00	120	33	0	2268069888	44	6293
2026-01-28 13:44:04.32	166.53	8.28	-36.3	-37.3	22.2	0.00e+00	122	33	0	2280652800	44	6477
2026-01-28 13:44:08.36	166.80	7.98	-36.9	-38.0	21.6	0.00e+00	123	33	0	2293235712	46	6222
2026-01-28 13:44:12.40	167.06	7.68	-37.1	-38.2	21.3	0.00e+00	123	33	0	2305818624	46	6407
2026-01-28 13:44:16.44	167.31	7.39	-36.9	-38.0	21.5	0.00e+00	122	33	0	2318401536	46	6241
2026-01-28 13:44:20.48	167.56	7.10	-36.9	-37.9	21.6	0.00e+00	123	33	0	2330984448	46	6201
2026-01-28 13:44:24.52	167.81	6.81	-36.6	-37.7	21.8	0.00e+00	123	33	0	2343567360	46	6024
2026-01-28 13:44:28.55	168.05	6.52	-36.7	-37.7	21.7	0.00e+00	120	33	0	2357198848	46	6049
2026-01-28 13:44:32.59	168.29	6.24	-37.0	-38.1	21.4	0.00e+00	122	33	0	2369781760	46	6287
2026-01-28 13:44:36.63	168.52	5.96	-36.9	-37.9	21.4	0.00e+00	123	33	0	2382364672	46	6205
2026-01-28 13:44:40.67	168.75	5.68	-36.9	-38.0	21.4	0.00e+00	121	33	0	2394947584	46	6225
2026-01-28 13:44:44.71	168.97	5.40	-37.5	-38.7	20.7	0.00e+00	120	33	0	2407530496	46	6735
2026-01-28 13:44:48.74	169.20	5.13	-37.1	-38.2	21.0	0.00e+00	123	33	0	2420113408	46	6421
2026-01-28 13:44:52.78	169.41	4.86	-37.3	-38.4	20.7	0.00e+00	122	33	0	2432696320	46	6550
2026-01-28 13:44:56.82	169.63	4.59	-37.5	-38.7	20.4	0.00e+00	123	33	0	2445279232	48	6010
2026-01-28 13:45:00.85	169.84	4.32	-37.9	-39.2	20.1	0.00e+00	123	33	0	2457862144	48	6380
2026-01-28 13:45:04.89	170.04	4.06	-38.1	-39.4	19.7	0.00e+00	122	33	0	2470445056	48	6506
2026-01-28 13:45:08.93	170.24	3.80	-38.4	-39.7	19.6	0.00e+00	122	33	0	2483027968	50	6021
2026-01-28 13:45:12.98	170.45	3.54	-38.2	-39.4	19.8	0.00e+00	123	33	0	2495610880	50	5841
2026-01-28 13:45:17.02	170.64	3.28	-39.1	-40.4	18.5	0.00e+00	123	33	0	2508193792	50	6552
2026-01-28 13:45:21.06	170.83	3.02	-37.9	-39.1	19.8	0.00e+00	122	33	0	2520776704	48	6316
2026-01-28 13:45:25.10	171.02	2.77	-48.3	-61.2	3.5	1.52e+00	0	33	104	2521825280	60	40242
2026-01-28 13:45:29.13	171.21	2.52	-48.7	-61.5	3.5	1.52e+00	0	33	104	2521825280	60	41741
2026-01-28 13:45:33.17	171.40	2.27	-48.8	-61.7	3.5	1.52e+00	0	33	104	2521825280	60	42449
2026-01-28 13:45:37.21	171.58	2.03	-48.7	-61.6	3.5	1.52e+00	0	33	104	2521825280	60	42330
2026-01-28 13:45:41.25	171.76	1.78	-48.7	-61.6	3.5	1.52e+00	0	33	104	2521825280	60	42087
2026-01-28 13:45:45.29	171.93	1.54	-48.7	-61.5	3.5	1.52e+00	0	33	104	2521825280	60	41800
2026-01-28 13:45:49.33	172.11	1.30	-48.7	-61.5	3.5	1.52e+00	0	33	104	2521825280	60	41710
2026-01-28 13:45:53.38	172.28	1.06	-48.7	-61.6	3.5	1.52e+00	0	33	104	2521825280	60	42040
2026-01-28 13:45:57.42	172.44	0.82	-48.7	-61.5	3.5	1.52e+00	0	33	104	2521825280	60	41588
2026-01-28 13:46:01.46	172.61	0.58	-48.7	-61.5	3.5	1.52e+00	0	33	104	2521825280	60	41543
2026-01-28 13:46:05.49	172.77	0.35	-48.6	-61.5	3.5	1.51e+00	0	33	104	2521825280	60	41605
2026-01-28 13:46:09.54	172.94	0.11	-48.6	-61.5	3.5	1.52e+00	0	33	104	2521825280	60	41520

#Closed at: 2026-01-28 13:46:13
#Recorded file [2521 MB]: D:/lorett/data/35029_260129_013104.dat