passes_logs/2026/01/28/R4.6S_Anadyr/R4.6S_Anadyr__20260128_205900_NOAA_20_JPSS-1_rec.log

#Pass ID: 20260128_205900_NOAA 20 (JPSS-1)
#Satellite: NOAA 20 (JPSS-1)
#Configuration: NOAA 20
#almurnet v.1.7.20251203
#Start time: 2026-01-28 20:59:03

#Version: 2.2.20231116
#Station: R4.6S_Anadyr
#Location: 177.4865 lon 64.73178 lat
#TLE: 1 43013U 17073A   26027.80586608  .00000156  00000+0  94940-4 0  9998
#TLE: 2 43013  98.7647 328.6108 0000947  21.3465 338.7750 14.19541216424550

#Time	Az	El	Level	Level2	SNR	BER	BlckErr	Temp	State	Recorded	gain1	gain2
2026-01-28 20:59:03.50	80.62	0.17	-49.2	-62.9	3.3	1.54e+00	0	30	0	0	60	50621
2026-01-28 20:59:07.54	80.34	0.38	-48.9	-64.1	3.6	1.51e+00	0	30	104	0	60	57930
2026-01-28 20:59:11.58	80.07	0.59	-48.9	-64.2	3.6	1.51e+00	0	30	104	0	60	58346
2026-01-28 20:59:15.62	79.78	0.80	-48.8	-64.1	3.6	1.51e+00	0	30	104	0	60	58036
2026-01-28 20:59:19.65	79.50	1.01	-48.6	-63.9	3.6	1.51e+00	0	30	104	0	60	56876
2026-01-28 20:59:23.69	79.21	1.22	-48.1	-63.5	3.6	1.51e+00	0	30	104	0	60	53783
2026-01-28 20:59:27.73	78.91	1.43	-47.4	-62.6	3.6	1.51e+00	0	30	104	0	60	48627
2026-01-28 20:59:31.77	78.61	1.64	-47.4	-62.6	3.6	1.51e+00	0	30	104	0	60	48551
2026-01-28 20:59:35.81	78.31	1.86	-47.4	-62.5	3.6	1.51e+00	0	30	104	0	60	48455
2026-01-28 20:59:39.85	78.00	2.07	-47.4	-62.4	3.6	1.51e+00	0	30	104	0	60	47882
2026-01-28 20:59:43.89	77.69	2.29	-47.4	-62.5	3.6	1.51e+00	0	30	104	0	60	48435
2026-01-28 20:59:47.93	77.37	2.50	-47.4	-62.5	3.6	1.51e+00	0	30	104	0	60	48317
2026-01-28 20:59:51.96	77.05	2.72	-47.3	-62.1	3.6	1.51e+00	0	30	104	0	60	46057
2026-01-28 20:59:56.00	76.72	2.94	-46.1	-51.6	9.6	1.21e-01	0	31	0	0	60	13743
2026-01-28 21:00:00.04	76.39	3.16	-47.2	-56.5	4.6	1.08e-01	92	31	0	7340032	60	24145
2026-01-28 21:00:04.08	76.05	3.38	-44.2	-47.4	14.1	1.04e-04	92	31	0	9437184	60	8460
2026-01-28 21:00:08.11	75.71	3.60	-42.7	-44.9	16.7	0.00e+00	91	31	0	16777216	58	7147
2026-01-28 21:00:12.14	75.36	3.82	-42.2	-44.1	17.8	0.00e+00	0	31	0	25165824	56	7289
2026-01-28 21:00:16.18	75.01	4.04	-41.7	-43.4	18.2	0.00e+00	92	31	0	32505856	56	6716
2026-01-28 21:00:20.22	74.65	4.26	-41.6	-43.3	18.6	0.00e+00	92	31	0	39845888	56	6628
2026-01-28 21:00:24.26	74.29	4.48	-42.2	-44.1	17.7	0.00e+00	69	31	0	47185920	56	7264
2026-01-28 21:00:28.30	73.91	4.71	-41.4	-43.0	18.8	0.00e+00	91	31	0	55574528	56	6444
2026-01-28 21:00:32.33	73.54	4.93	-41.8	-43.4	18.5	0.00e+00	92	31	0	62914560	56	6769
2026-01-28 21:00:36.37	73.16	5.16	-41.7	-43.3	18.5	0.00e+00	90	31	0	70254592	56	6690
2026-01-28 21:00:40.41	72.77	5.38	-42.0	-43.7	18.3	0.00e+00	0	31	0	77594624	56	6939
2026-01-28 21:00:44.44	72.37	5.61	-41.9	-43.6	18.5	0.00e+00	92	31	0	84934656	56	6857
2026-01-28 21:00:48.48	71.97	5.84	-41.8	-43.5	18.5	0.00e+00	91	31	0	93323264	56	6771
2026-01-28 21:00:52.52	71.56	6.06	-41.9	-43.6	18.5	0.00e+00	90	31	0	100663296	56	6890
2026-01-28 21:00:56.56	71.15	6.29	-41.5	-43.1	19.0	0.00e+00	0	31	0	108003328	56	6475
2026-01-28 21:01:00.59	70.73	6.52	-42.2	-43.9	18.2	0.00e+00	92	31	0	115343360	56	7133
2026-01-28 21:01:04.63	70.30	6.75	-41.8	-43.4	18.8	0.00e+00	92	31	0	123731968	56	6739
2026-01-28 21:01:08.67	69.86	6.98	-41.4	-42.9	19.2	0.00e+00	92	31	0	131072000	56	6385
2026-01-28 21:01:12.71	69.42	7.21	-41.2	-42.7	19.4	0.00e+00	31	31	0	138412032	56	6190
2026-01-28 21:01:16.75	68.97	7.44	-41.2	-42.6	19.6	0.00e+00	92	31	0	145752064	56	6143
2026-01-28 21:01:20.79	68.52	7.68	-40.6	-41.9	20.2	0.00e+00	92	31	0	153092096	54	6366
2026-01-28 21:01:24.82	68.05	7.91	-40.4	-41.7	20.5	0.00e+00	92	31	0	161480704	54	6177
2026-01-28 21:01:28.86	67.58	8.14	-40.7	-42.1	20.0	0.00e+00	20	31	0	168820736	54	6487
2026-01-28 21:01:32.89	67.10	8.37	-40.6	-42.0	20.2	0.00e+00	90	31	0	176160768	54	6397
2026-01-28 21:01:36.93	66.61	8.60	-40.4	-41.7	20.4	0.00e+00	91	31	0	183500800	54	6182
2026-01-28 21:01:40.97	66.12	8.84	-40.2	-41.4	20.8	0.00e+00	12	31	0	191889408	54	6000
2026-01-28 21:01:45.01	65.61	9.07	-40.2	-41.4	20.7	0.00e+00	0	31	0	199229440	54	6029
2026-01-28 21:01:49.05	65.10	9.30	-40.3	-41.6	20.5	0.00e+00	92	31	0	206569472	54	6136
2026-01-28 21:01:53.09	64.58	9.54	-40.6	-41.9	20.2	0.00e+00	91	31	0	213909504	54	6387
2026-01-28 21:01:57.13	64.05	9.77	-40.9	-42.3	20.0	0.00e+00	0	31	0	221249536	54	6684
2026-01-28 21:02:01.16	63.51	10.00	-40.3	-41.5	20.7	0.00e+00	91	31	0	229638144	54	6096
2026-01-28 21:02:05.20	62.97	10.23	-40.0	-41.3	20.9	0.00e+00	92	31	0	236978176	54	5908
2026-01-28 21:02:09.24	62.41	10.46	-40.0	-41.2	21.0	0.00e+00	92	31	0	244318208	54	5853
2026-01-28 21:02:13.27	61.85	10.69	-40.1	-41.4	20.8	0.00e+00	2	31	0	251658240	54	5983
2026-01-28 21:02:17.30	61.28	10.93	-39.8	-41.0	21.3	0.00e+00	92	31	0	258998272	54	5698
2026-01-28 21:02:21.34	60.69	11.15	-39.9	-41.1	21.2	0.00e+00	92	31	0	267386880	54	5808
2026-01-28 21:02:25.37	60.10	11.38	-40.0	-41.2	21.0	0.00e+00	92	31	0	274726912	54	5885
2026-01-28 21:02:29.40	59.50	11.61	-39.9	-41.1	21.2	0.00e+00	65	31	0	282066944	52	6475
2026-01-28 21:02:33.44	58.89	11.84	-40.1	-41.3	20.9	0.00e+00	92	31	0	289406976	52	6659
2026-01-28 21:02:37.48	58.27	12.06	-40.2	-41.5	20.8	0.00e+00	92	31	0	297795584	52	6773
2026-01-28 21:02:41.52	57.64	12.29	-40.0	-41.2	21.1	0.00e+00	0	31	0	305135616	52	6586
2026-01-28 21:02:45.55	57.00	12.51	-39.8	-41.0	21.4	0.00e+00	12	31	0	312475648	52	6413
2026-01-28 21:02:49.59	56.35	12.73	-39.5	-40.6	21.7	0.00e+00	90	31	0	319815680	52	6116
2026-01-28 21:02:53.62	55.69	12.95	-39.4	-40.5	21.8	0.00e+00	92	31	0	327155712	52	6043
2026-01-28 21:02:57.67	55.02	13.17	-38.9	-40.0	22.3	0.00e+00	14	31	0	335544320	52	5702
2026-01-28 21:03:01.67	54.35	13.39	-38.8	-39.8	22.4	0.00e+00	5	31	0	342884352	50	6308
2026-01-28 21:03:05.71	53.66	13.60	-38.4	-39.4	22.6	0.00e+00	92	31	0	350224384	50	6024
2026-01-28 21:03:09.75	52.96	13.81	-38.5	-39.5	22.5	0.00e+00	92	31	0	357564416	50	6077
2026-01-28 21:03:13.78	52.25	14.02	-38.2	-39.2	22.8	0.00e+00	0	31	0	364904448	50	5868
2026-01-28 21:03:17.82	51.53	14.23	-37.8	-38.7	23.4	0.00e+00	35	31	0	373293056	50	5566
2026-01-28 21:03:21.86	50.80	14.43	-37.7	-38.6	23.5	0.00e+00	92	31	0	380633088	48	6112
2026-01-28 21:03:25.89	50.06	14.63	-37.4	-38.3	23.7	0.00e+00	90	31	0	387973120	48	5916
2026-01-28 21:03:29.93	49.31	14.83	-37.4	-38.3	23.8	0.00e+00	0	31	0	395313152	48	5899
2026-01-28 21:03:33.97	48.55	15.02	-37.6	-38.5	23.5	0.00e+00	0	31	0	403701760	48	6092
2026-01-28 21:03:38.00	47.78	15.21	-37.8	-38.8	23.3	0.00e+00	92	31	0	411041792	48	6255
2026-01-28 21:03:42.04	47.00	15.40	-38.0	-38.9	23.2	0.00e+00	91	31	0	418381824	48	6357
2026-01-28 21:03:46.08	46.21	15.58	-37.8	-38.7	23.3	0.00e+00	10	31	0	425721856	48	6240
2026-01-28 21:03:50.11	45.41	15.76	-37.8	-38.7	23.4	0.00e+00	91	31	0	433061888	48	6225
2026-01-28 21:03:54.15	44.60	15.93	-37.7	-38.6	23.6	0.00e+00	92	31	0	441450496	48	6140
2026-01-28 21:03:58.18	43.78	16.10	-37.2	-38.1	24.2	0.00e+00	72	31	0	448790528	48	5768
2026-01-28 21:04:02.22	42.95	16.26	-37.4	-38.2	24.0	0.00e+00	0	31	0	456130560	48	5884
2026-01-28 21:04:06.25	42.12	16.42	-37.3	-38.2	24.0	0.00e+00	92	31	0	463470592	48	5850
2026-01-28 21:04:10.29	41.27	16.57	-37.1	-37.9	24.2	0.00e+00	92	31	0	471859200	48	5673
2026-01-28 21:04:14.33	40.42	16.72	-37.2	-38.1	24.1	0.00e+00	2	31	0	479199232	48	5763
2026-01-28 21:04:18.37	39.55	16.87	-37.4	-38.2	24.0	0.00e+00	0	31	0	486539264	48	5882
2026-01-28 21:04:22.42	38.68	17.00	-37.2	-38.0	24.0	0.00e+00	90	31	0	493879296	48	5735
2026-01-28 21:04:26.45	37.80	17.13	-37.6	-38.5	23.8	0.00e+00	92	31	0	501219328	48	6069
2026-01-28 21:04:30.49	36.92	17.26	-37.3	-38.2	23.9	0.00e+00	5	31	0	509607936	48	5850
2026-01-28 21:04:34.53	36.02	17.37	-37.4	-38.3	23.9	0.00e+00	6	31	0	516947968	48	5940
2026-01-28 21:04:38.57	35.12	17.48	-37.6	-38.5	23.7	0.00e+00	92	31	0	524288000	48	6036
2026-01-28 21:04:42.61	34.22	17.59	-38.0	-38.9	23.3	0.00e+00	92	31	0	531628032	48	6339
2026-01-28 21:04:46.65	33.30	17.68	-38.3	-39.2	23.1	0.00e+00	71	31	0	540016640	48	6611
2026-01-28 21:04:50.69	32.39	17.77	-38.0	-39.0	23.4	0.00e+00	15	31	0	547356672	48	6395
2026-01-28 21:04:54.73	31.46	17.86	-37.8	-38.7	23.5	0.00e+00	91	31	0	554696704	48	6233
2026-01-28 21:04:58.76	30.54	17.93	-38.4	-39.3	23.0	0.00e+00	72	31	0	562036736	48	6661
2026-01-28 21:05:02.80	29.60	18.00	-38.7	-39.7	22.7	0.00e+00	0	31	0	569376768	50	6200
2026-01-28 21:05:06.83	28.67	18.06	-38.8	-39.8	22.6	0.00e+00	0	31	0	577765376	50	6261
2026-01-28 21:05:10.88	27.73	18.11	-38.9	-39.9	22.6	0.00e+00	92	31	0	585105408	50	6369
2026-01-28 21:05:14.91	26.79	18.15	-38.8	-39.8	22.7	0.00e+00	11	31	0	592445440	50	6273
2026-01-28 21:05:18.95	25.84	18.19	-38.4	-39.4	22.9	0.00e+00	0	31	0	599785472	50	6010
2026-01-28 21:05:22.99	24.89	18.22	-38.5	-39.5	22.8	0.00e+00	72	31	0	608174080	50	6075
2026-01-28 21:05:27.03	23.94	18.24	-38.5	-39.4	22.8	0.00e+00	90	31	0	615514112	50	6006
2026-01-28 21:05:31.06	22.99	18.25	-38.6	-39.6	22.7	0.00e+00	0	31	0	622854144	50	6124
2026-01-28 21:05:35.10	22.04	18.25	-38.6	-39.6	22.9	0.00e+00	0	31	0	630194176	50	6133
2026-01-28 21:05:39.14	21.09	18.25	-38.3	-39.2	23.1	0.00e+00	77	31	0	637534208	50	5862
2026-01-28 21:05:43.17	20.15	18.23	-38.1	-39.1	23.3	0.00e+00	71	31	0	645922816	50	5773
2026-01-28 21:05:47.21	19.20	18.21	-37.9	-38.8	23.5	0.00e+00	0	31	0	653262848	50	5603
2026-01-28 21:05:51.23	18.26	18.18	-37.6	-38.5	23.7	0.00e+00	11	31	0	660602880	48	6075
2026-01-28 21:05:55.27	17.31	18.15	-37.6	-38.5	23.7	0.00e+00	92	31	0	667942912	48	6041
2026-01-28 21:05:59.31	16.37	18.10	-37.6	-38.5	23.8	0.00e+00	0	31	0	675282944	48	6049
2026-01-28 21:06:03.34	15.43	18.05	-37.2	-38.1	24.0	0.00e+00	2	31	0	683671552	48	5803
2026-01-28 21:06:07.38	14.49	17.99	-37.1	-37.9	24.2	0.00e+00	70	31	0	691011584	48	5683
2026-01-28 21:06:11.42	13.56	17.92	-37.2	-38.0	24.1	0.00e+00	90	31	0	698351616	48	5742
2026-01-28 21:06:15.46	12.64	17.84	-37.5	-38.4	23.8	0.00e+00	12	31	0	705691648	48	5992
2026-01-28 21:06:19.50	11.71	17.76	-37.6	-38.5	23.7	0.00e+00	5	31	0	714080256	48	6084
2026-01-28 21:06:23.53	10.80	17.67	-37.4	-38.3	23.6	0.00e+00	5	31	0	721420288	48	5935
2026-01-28 21:06:27.57	9.89	17.57	-37.5	-38.4	23.8	0.00e+00	92	31	0	728760320	48	6015
2026-01-28 21:06:31.60	8.99	17.47	-37.6	-38.5	23.7	0.00e+00	0	31	0	736100352	48	6056
2026-01-28 21:06:35.65	8.08	17.36	-38.2	-39.1	23.2	0.00e+00	69	31	0	743440384	48	6519
2026-01-28 21:06:39.69	7.19	17.24	-38.1	-39.1	23.2	0.00e+00	0	31	0	751828992	48	6465
2026-01-28 21:06:43.72	6.31	17.11	-38.0	-39.0	23.3	0.00e+00	91	31	0	759169024	48	6417
2026-01-28 21:06:47.75	5.44	16.98	-38.1	-39.1	23.3	0.00e+00	6	31	0	766509056	48	6474
2026-01-28 21:06:51.79	4.57	16.85	-37.9	-38.8	23.5	0.00e+00	0	31	0	773849088	48	6292
2026-01-28 21:06:55.82	3.71	16.70	-37.8	-38.7	23.6	0.00e+00	50	31	0	782237696	48	6180
2026-01-28 21:06:59.85	2.86	16.55	-37.9	-38.8	23.4	0.00e+00	91	31	0	789577728	48	6293
2026-01-28 21:07:03.88	2.02	16.40	-38.0	-38.9	23.4	0.00e+00	0	31	0	796917760	48	6383
2026-01-28 21:07:07.92	1.18	16.24	-38.0	-38.9	23.4	0.00e+00	0	31	0	804257792	48	6381
2026-01-28 21:07:11.96	0.36	16.08	-38.0	-38.9	23.4	0.00e+00	0	31	0	811597824	48	6347
2026-01-28 21:07:16.00	359.54	15.91	-38.4	-39.4	22.9	0.00e+00	91	31	0	819986432	48	6699
2026-01-28 21:07:20.04	358.74	15.73	-38.3	-39.3	23.0	0.00e+00	13	31	0	827326464	48	6657
2026-01-28 21:07:24.08	357.94	15.56	-38.3	-39.3	23.1	0.00e+00	0	31	0	834666496	48	6644
2026-01-28 21:07:28.11	357.15	15.37	-38.8	-39.8	22.5	0.00e+00	95	31	0	842006528	50	6308
2026-01-28 21:07:32.15	356.38	15.19	-38.6	-39.6	22.7	0.00e+00	0	31	0	849346560	50	6158
2026-01-28 21:07:36.19	355.61	15.00	-38.7	-39.7	22.6	0.00e+00	0	31	0	857735168	50	6240
2026-01-28 21:07:40.22	354.85	14.80	-38.8	-39.8	22.6	0.00e+00	17	31	0	865075200	50	6271
2026-01-28 21:07:44.26	354.10	14.61	-39.2	-40.2	22.1	0.00e+00	90	31	0	872415232	50	6611
2026-01-28 21:07:48.30	353.37	14.41	-39.5	-40.6	21.8	0.00e+00	0	31	0	879755264	50	6901
2026-01-28 21:07:52.33	352.64	14.20	-39.3	-40.4	22.0	0.00e+00	0	31	0	888143872	50	6742
2026-01-28 21:07:56.37	351.92	14.00	-39.3	-40.4	22.0	0.00e+00	66	31	0	895483904	50	6737
2026-01-28 21:08:00.41	351.22	13.79	-39.9	-41.1	21.3	0.00e+00	92	31	0	902823936	52	6477
2026-01-28 21:08:04.44	350.52	13.58	-39.9	-41.1	21.3	0.00e+00	20	31	0	910163968	52	6485
2026-01-28 21:08:08.47	349.83	13.36	-40.0	-41.2	21.3	0.00e+00	18	31	0	917504000	52	6557
2026-01-28 21:08:12.51	349.16	13.15	-40.1	-41.3	21.2	0.00e+00	0	31	0	925892608	52	6658
2026-01-28 21:08:16.55	348.49	12.93	-39.9	-41.0	21.2	0.00e+00	92	31	0	933232640	52	6463
2026-01-28 21:08:20.58	347.84	12.71	-40.0	-41.2	21.1	0.00e+00	67	31	0	940572672	52	6603
2026-01-28 21:08:24.62	347.19	12.49	-40.0	-41.2	21.2	0.00e+00	18	31	0	947912704	52	6583
2026-01-28 21:08:28.66	346.55	12.26	-40.0	-41.2	21.2	0.00e+00	20	31	0	955252736	52	6556
2026-01-28 21:08:32.70	345.92	12.04	-39.7	-40.9	21.5	0.00e+00	92	31	0	963641344	52	6319
2026-01-28 21:08:36.73	345.31	11.81	-39.1	-40.2	22.1	0.00e+00	6	31	0	970981376	52	5896
2026-01-28 21:08:40.77	344.70	11.59	-38.9	-40.0	22.2	0.00e+00	0	31	0	978321408	52	5744
2026-01-28 21:08:44.80	344.10	11.36	-39.0	-40.2	22.1	0.00e+00	0	31	0	985661440	52	5831
2026-01-28 21:08:48.84	343.51	11.13	-38.6	-39.6	22.5	0.00e+00	91	31	0	994050048	50	6171
2026-01-28 21:08:52.87	342.94	10.90	-38.4	-39.4	22.7	0.00e+00	15	31	0	1001390080	50	6002
2026-01-28 21:08:56.91	342.37	10.67	-38.3	-39.3	22.9	0.00e+00	0	31	0	1008730112	50	5935
2026-01-28 21:09:00.95	341.80	10.44	-38.2	-39.3	22.8	0.00e+00	41	31	0	1016070144	50	5919
2026-01-28 21:09:04.99	341.25	10.21	-38.4	-39.5	22.6	0.00e+00	10	31	0	1023410176	50	6070
2026-01-28 21:09:09.03	340.71	9.98	-38.1	-39.2	22.5	0.00e+00	22	31	0	1031798784	50	5848
2026-01-28 21:09:13.07	340.17	9.75	-38.4	-39.5	22.4	0.00e+00	0	31	0	1039138816	50	6060
2026-01-28 21:09:17.10	339.65	9.51	-38.3	-39.4	22.5	0.00e+00	60	31	0	1046478848	50	6025
2026-01-28 21:09:21.14	339.13	9.28	-38.2	-39.3	22.6	0.00e+00	2	31	0	1053818880	50	5937
2026-01-28 21:09:25.18	338.62	9.05	-38.6	-39.7	22.4	0.00e+00	0	31	0	1062207488	50	6197
2026-01-28 21:09:29.21	338.12	8.82	-38.5	-39.6	22.3	0.00e+00	65	31	0	1069547520	50	6143
2026-01-28 21:09:33.25	337.63	8.59	-38.5	-39.5	22.5	0.00e+00	91	31	0	1076887552	50	6086
2026-01-28 21:09:37.29	337.15	8.35	-38.6	-39.7	22.3	0.00e+00	2	31	0	1084227584	50	6179
2026-01-28 21:09:41.32	336.67	8.12	-38.8	-39.9	22.0	0.00e+00	0	31	0	1091567616	50	6319
2026-01-28 21:09:45.36	336.20	7.89	-39.0	-40.1	21.9	0.00e+00	2	31	0	1099956224	50	6519
2026-01-28 21:09:49.40	335.74	7.66	-39.7	-40.9	21.1	0.00e+00	92	31	0	1107296256	50	7103
2026-01-28 21:09:53.43	335.29	7.43	-39.7	-40.9	21.1	0.00e+00	62	31	0	1114636288	52	6385
2026-01-28 21:09:57.47	334.84	7.20	-39.4	-40.6	21.3	0.00e+00	6	31	0	1121976320	52	6150
2026-01-28 21:10:01.50	334.40	6.97	-39.8	-41.0	20.9	0.00e+00	5	31	0	1130364928	52	6412
2026-01-28 21:10:05.53	333.97	6.74	-40.1	-41.4	20.5	0.00e+00	92	31	0	1137704960	52	6756
2026-01-28 21:10:09.57	333.54	6.51	-40.3	-41.6	20.3	0.00e+00	0	31	0	1145044992	52	6923
2026-01-28 21:10:13.61	333.13	6.28	-39.9	-41.2	20.5	0.00e+00	64	31	0	1152385024	52	6559
2026-01-28 21:10:17.65	332.71	6.05	-40.4	-41.8	20.0	0.00e+00	5	31	0	1159725056	52	7011
2026-01-28 21:10:21.69	332.31	5.82	-40.9	-42.4	19.1	0.00e+00	92	31	0	1168113664	54	6715
2026-01-28 21:10:25.72	331.91	5.60	-41.0	-42.5	19.1	0.00e+00	0	31	0	1175453696	54	6823
2026-01-28 21:10:29.76	331.52	5.37	-40.8	-42.3	19.2	0.00e+00	0	31	0	1182793728	54	6686
2026-01-28 21:10:33.79	331.13	5.15	-41.2	-42.7	19.0	0.00e+00	0	31	0	1190133760	54	6970
2026-01-28 21:10:37.83	330.75	4.92	-41.5	-43.2	18.4	0.00e+00	92	31	0	1198522368	54	7381
2026-01-28 21:10:41.87	330.38	4.70	-41.9	-43.6	18.1	0.00e+00	19	31	0	1205862400	56	6899
2026-01-28 21:10:45.91	330.01	4.47	-42.3	-44.3	17.0	0.00e+00	19	31	0	1213202432	56	7449
2026-01-28 21:10:49.94	329.65	4.25	-41.9	-43.7	18.0	0.00e+00	0	31	0	1220542464	56	6983
2026-01-28 21:10:53.98	329.29	4.03	-42.2	-44.2	17.5	0.00e+00	62	31	0	1227882496	56	7387
2026-01-28 21:10:58.01	328.94	3.81	-42.5	-44.6	17.4	0.00e+00	25	31	0	1236271104	56	7698
2026-01-28 21:11:02.05	328.60	3.59	-42.5	-44.6	17.1	0.00e+00	63	31	0	1243611136	56	7721
2026-01-28 21:11:06.09	328.26	3.37	-42.4	-44.5	17.1	0.00e+00	91	31	0	1250951168	56	7605
2026-01-28 21:11:10.13	327.92	3.15	-41.8	-43.6	17.9	0.00e+00	23	31	0	1258291200	56	6898
2026-01-28 21:11:14.17	327.59	2.93	-48.1	-63.3	3.6	1.51e+00	0	31	104	1263534080	60	52621
2026-01-28 21:11:18.20	327.27	2.71	-48.7	-63.9	3.6	1.51e+00	0	31	104	1263534080	60	56910
2026-01-28 21:11:22.25	326.95	2.50	-49.0	-64.2	3.6	1.51e+00	0	31	104	1263534080	60	58407
2026-01-28 21:11:26.28	326.63	2.28	-49.0	-64.2	3.6	1.51e+00	0	31	104	1263534080	60	58316
2026-01-28 21:11:30.32	326.32	2.07	-48.8	-64.0	3.6	1.51e+00	0	31	104	1263534080	60	57551
2026-01-28 21:11:34.36	326.02	1.85	-48.8	-64.1	3.6	1.51e+00	0	31	104	1263534080	60	57708
2026-01-28 21:11:38.40	325.72	1.64	-48.9	-64.1	3.6	1.51e+00	0	31	104	1263534080	60	57923
2026-01-28 21:11:42.44	325.42	1.43	-49.0	-64.1	3.6	1.51e+00	0	31	104	1263534080	60	58243
2026-01-28 21:11:46.48	325.13	1.22	-48.9	-64.0	3.6	1.51e+00	0	31	104	1263534080	60	57501
2026-01-28 21:11:50.51	324.84	1.01	-48.9	-64.1	3.6	1.51e+00	0	31	104	1263534080	60	57753
2026-01-28 21:11:54.55	324.56	0.80	-49.0	-64.2	3.6	1.51e+00	0	31	104	1263534080	60	58437
2026-01-28 21:11:58.59	324.28	0.59	-49.2	-64.3	3.6	1.51e+00	0	31	104	1263534080	60	59359
2026-01-28 21:12:02.63	324.00	0.38	-48.9	-64.1	3.6	1.51e+00	0	31	104	1263534080	60	57784
2026-01-28 21:12:06.67	323.73	0.17	-49.0	-64.2	3.6	1.51e+00	0	31	104	1263534080	60	58377

#Closed at: 2026-01-28 21:12:10
#Recorded file [1263 MB]: D:/lorett/data/35029_260129_085903.dat