passes_logs/2026/01/28/R4.6S_Anadyr/R4.6S_Anadyr__20260128_021448_AQUA_rec.log

#Pass ID: 20260128_021448_AQUA
#Satellite: AQUA
#Configuration: AQUA
#almurnet v.1.7.20251203
#Start time: 2026-01-28 02:14:50

#Version: 2.2.20231116
#Station: R4.6S_Anadyr
#Location: 177.4865 lon 64.73178 lat
#TLE: 1 27424U 02022A   26027.63960626  .00001831  00000+0  37607-3 0  9998
#TLE: 2 27424  98.4102 354.2809 0001844  63.7090 108.5242 14.61867354262735

#Time	Az	El	Level	Level2	SNR	BER	BlckErr	Temp	State	Recorded	gain1	gain2
2026-01-28 02:14:50.54	163.50	0.11	-49.0	-64.0	3.5	1.51e+00	0	30	0	0	60	57258
2026-01-28 02:14:54.58	163.55	0.36	-49.3	-67.3	3.5	3.02e+01	0	32	104	0	60	88844
2026-01-28 02:14:58.62	163.60	0.62	-49.4	-67.3	3.5	3.02e+01	0	32	104	0	60	89169
2026-01-28 02:15:02.65	163.65	0.87	-49.4	-67.3	3.5	3.02e+01	0	32	104	0	60	89062
2026-01-28 02:15:06.70	163.70	1.13	-49.0	-67.1	3.5	3.02e+01	0	32	104	0	60	86899
2026-01-28 02:15:10.74	163.75	1.39	-47.8	-65.7	3.5	3.02e+01	0	32	104	0	60	73935
2026-01-28 02:15:14.78	163.80	1.66	-48.1	-65.7	3.5	3.02e+01	0	32	104	0	60	74351
2026-01-28 02:15:18.82	163.86	1.92	-48.1	-65.5	3.5	3.02e+01	0	32	104	0	60	72118
2026-01-28 02:15:22.86	163.91	2.19	-48.1	-65.9	3.5	3.02e+01	0	32	104	0	60	76275
2026-01-28 02:15:26.90	163.96	2.46	-48.1	-65.6	3.5	3.02e+01	0	32	104	0	60	73311
2026-01-28 02:15:30.94	164.02	2.74	-47.9	-61.8	3.7	3.02e+01	0	32	104	0	60	47557
2026-01-28 02:15:34.98	164.08	3.01	-47.9	-61.7	4.4	3.02e+01	0	32	104	0	60	46553
2026-01-28 02:15:39.01	164.13	3.29	-45.7	-50.1	15.5	3.02e+01	91	32	0	3670016	60	12334
2026-01-28 02:15:43.05	164.19	3.58	-40.1	-41.8	23.5	3.02e+01	92	32	0	11010048	56	5972
2026-01-28 02:15:47.09	164.25	3.87	-38.8	-40.4	24.9	3.02e+01	91	32	0	18350080	52	6371
2026-01-28 02:15:51.13	164.31	4.16	-47.9	-61.2	3.7	3.02e+01	0	32	104	25690112	60	44107
2026-01-28 02:15:55.17	164.37	4.45	-38.6	-40.1	25.2	3.02e+01	92	32	0	31457280	52	6187
2026-01-28 02:15:59.20	164.44	4.75	-37.8	-39.2	26.3	3.02e+01	92	32	0	38797312	50	6260
2026-01-28 02:16:03.24	164.50	5.05	-37.4	-38.8	26.5	3.02e+01	92	32	0	46661632	50	5988
2026-01-28 02:16:07.28	164.56	5.35	-36.8	-38.1	27.2	3.02e+01	92	32	0	54001664	48	6205
2026-01-28 02:16:11.32	164.63	5.66	-36.7	-38.0	27.3	3.02e+01	91	32	0	61865984	48	6110
2026-01-28 02:16:15.36	164.70	5.98	-36.5	-37.8	27.7	3.02e+01	90	32	0	69206016	48	5934
2026-01-28 02:16:19.40	164.77	6.30	-36.7	-38.0	27.4	3.02e+01	92	32	0	76546048	48	6098
2026-01-28 02:16:23.44	164.84	6.62	-36.9	-38.3	27.4	3.02e+01	91	32	0	84410368	48	6288
2026-01-28 02:16:27.48	164.91	6.94	-36.5	-37.8	27.8	3.02e+01	92	32	0	91750400	48	5968
2026-01-28 02:16:31.52	164.98	7.28	-36.5	-37.8	27.7	3.02e+01	92	32	0	99614720	48	5931
2026-01-28 02:16:35.56	165.05	7.61	-36.3	-37.5	28.1	3.02e+01	92	32	0	106954752	48	5779
2026-01-28 02:16:39.60	165.13	7.95	-36.3	-37.6	28.0	3.02e+01	92	32	0	114819072	48	5796
2026-01-28 02:16:43.63	165.21	8.30	-36.1	-37.4	28.2	3.02e+01	92	32	0	122159104	48	5691
2026-01-28 02:16:47.67	165.29	8.65	-36.0	-37.2	28.3	3.02e+01	92	32	0	130023424	46	6263
2026-01-28 02:16:51.71	165.37	9.01	-35.8	-37.0	28.6	3.02e+01	91	32	0	137363456	46	6121
2026-01-28 02:16:55.75	165.45	9.37	-35.8	-37.0	28.7	3.02e+01	91	32	0	144703488	46	6100
2026-01-28 02:16:59.79	165.54	9.74	-35.7	-36.9	28.7	3.02e+01	92	33	0	152567808	46	6027
2026-01-28 02:17:03.83	165.62	10.11	-35.6	-36.8	28.8	3.02e+01	92	32	0	159907840	46	5965
2026-01-28 02:17:07.87	165.71	10.50	-35.6	-36.9	28.8	3.02e+01	92	32	0	167772160	46	6014
2026-01-28 02:17:11.91	165.80	10.88	-35.4	-36.6	29.0	3.02e+01	90	32	0	175112192	46	5828
2026-01-28 02:17:15.95	165.89	11.28	-35.4	-36.7	29.0	3.02e+01	92	32	0	182976512	46	5863
2026-01-28 02:17:19.99	165.99	11.68	-35.4	-36.6	29.1	3.02e+01	90	32	0	190316544	46	5817
2026-01-28 02:17:24.03	166.09	12.09	-35.4	-36.6	29.1	3.02e+01	91	32	0	198180864	46	5836
2026-01-28 02:17:28.06	166.19	12.51	-35.3	-36.5	29.2	3.02e+01	91	32	0	205520896	46	5766
2026-01-28 02:17:32.10	166.29	12.93	-35.0	-36.2	29.5	3.02e+01	92	32	0	212860928	46	5556
2026-01-28 02:17:36.14	166.40	13.37	-35.0	-36.2	29.5	3.02e+01	92	32	0	220725248	44	6228
2026-01-28 02:17:40.18	166.51	13.81	-34.9	-36.1	29.6	3.02e+01	91	32	0	228065280	44	6144
2026-01-28 02:17:44.22	166.62	14.26	-38.5	-48.8	3.6	3.02e+01	0	33	104	228589568	54	14949
2026-01-28 02:17:48.26	166.73	14.72	-37.6	-47.9	3.4	3.02e+01	0	33	104	228589568	50	17018
2026-01-28 02:17:52.30	166.85	15.20	-43.5	-54.7	4.0	3.02e+01	0	33	104	228589568	60	20795
2026-01-28 02:17:56.34	166.97	15.68	-41.7	-52.3	3.6	3.02e+01	0	32	104	228589568	58	17855
2026-01-28 02:18:00.38	167.10	16.17	-38.4	-48.7	3.5	3.02e+01	0	33	104	228589568	60	10467
2026-01-28 02:18:04.42	167.23	16.67	-39.2	-49.6	3.5	3.02e+01	0	33	104	228589568	54	16334
2026-01-28 02:18:08.46	167.37	17.19	-37.2	-47.5	3.6	3.02e+01	0	33	104	228589568	56	11475
2026-01-28 02:18:12.49	167.50	17.71	-36.3	-46.5	3.6	3.02e+01	0	33	104	228589568	48	16136
2026-01-28 02:18:16.54	167.65	18.25	-35.3	-45.4	3.5	3.02e+01	0	33	104	228589568	44	18092
2026-01-28 02:18:20.58	167.80	18.80	-37.2	-47.5	3.5	3.02e+01	0	33	104	228589568	48	18263
2026-01-28 02:18:24.62	167.95	19.37	-35.6	-45.7	3.5	3.02e+01	0	33	104	228589568	46	16684
2026-01-28 02:18:28.66	168.11	19.95	-41.0	-51.6	3.6	3.02e+01	0	33	104	228589568	58	16456
2026-01-28 02:18:32.70	168.28	20.55	-35.6	-45.8	3.4	3.02e+01	0	33	104	228589568	46	16835
2026-01-28 02:18:36.74	168.45	21.16	-38.8	-49.2	3.5	3.02e+01	0	33	104	228589568	52	17534
2026-01-28 02:18:40.78	168.63	21.79	-37.3	-47.5	3.5	3.02e+01	0	33	104	228589568	46	20517
2026-01-28 02:18:44.82	168.81	22.43	-35.8	-46.0	3.5	3.02e+01	0	33	104	228589568	46	17171
2026-01-28 02:18:48.85	169.01	23.09	-40.2	-50.8	3.5	3.02e+01	0	33	104	228589568	50	23783
2026-01-28 02:18:52.89	169.21	23.77	-40.4	-50.9	3.5	3.02e+01	0	33	104	228589568	56	17049
2026-01-28 02:18:56.93	169.42	24.47	-47.2	-60.7	3.4	3.02e+01	0	33	104	228589568	60	41618
2026-01-28 02:19:00.97	169.64	25.19	-37.8	-48.1	3.6	3.02e+01	0	33	104	228589568	50	17348
2026-01-28 02:19:05.01	169.87	25.94	-45.4	-57.4	3.5	3.02e+01	0	33	104	228589568	60	28525
2026-01-28 02:19:09.04	170.11	26.70	-35.6	-45.8	3.5	3.02e+01	0	33	104	228589568	46	16740
2026-01-28 02:19:13.08	170.36	27.49	-48.8	-65.0	3.5	3.02e+01	0	33	104	228589568	60	68498
2026-01-28 02:19:17.12	170.63	28.30	-41.1	-51.7	3.5	3.02e+01	0	33	104	228589568	58	16682
2026-01-28 02:19:21.16	170.91	29.14	-44.2	-55.4	3.5	3.02e+01	0	33	104	228589568	60	22594
2026-01-28 02:19:25.19	171.20	30.01	-41.6	-52.2	3.5	3.02e+01	0	33	104	228589568	58	17520
2026-01-28 02:19:29.23	171.51	30.90	-43.2	-54.2	3.5	3.02e+01	0	33	104	228589568	60	19705
2026-01-28 02:19:33.27	171.84	31.83	-36.2	-46.4	3.5	3.02e+01	0	33	104	228589568	48	16134
2026-01-28 02:19:37.31	172.18	32.78	-44.0	-55.2	3.5	3.02e+01	0	33	104	228589568	60	22055
2026-01-28 02:19:41.35	172.55	33.77	-37.0	-47.2	3.5	3.02e+01	0	33	104	228589568	48	17547
2026-01-28 02:19:45.39	172.94	34.79	-44.7	-56.2	3.5	3.02e+01	0	33	104	228589568	60	24977
2026-01-28 02:19:49.43	173.36	35.84	-38.5	-48.9	3.5	3.02e+01	0	33	104	228589568	52	16933
2026-01-28 02:19:53.47	173.80	36.94	-45.8	-57.9	3.5	3.02e+01	0	33	104	228589568	60	30225
2026-01-28 02:19:57.50	174.27	38.06	-41.1	-51.9	3.5	3.02e+01	0	33	104	228589568	56	19021
2026-01-28 02:20:01.54	174.78	39.23	-47.2	-60.6	3.5	3.02e+01	0	33	104	228589568	60	41199
2026-01-28 02:20:05.59	175.33	40.45	-37.8	-48.1	3.5	3.02e+01	0	33	104	228589568	52	15536
2026-01-28 02:20:09.62	175.92	41.70	-47.2	-60.3	3.5	3.02e+01	0	33	104	228589568	60	39869
2026-01-28 02:20:13.66	176.56	42.99	-38.8	-49.2	3.6	3.02e+01	0	33	104	228589568	54	15697
2026-01-28 02:20:17.70	177.25	44.33	-48.3	-63.1	3.5	3.02e+01	0	33	104	228589568	60	54854
2026-01-28 02:20:21.74	178.00	45.71	-37.6	-47.9	3.5	3.02e+01	0	33	104	228589568	50	17015
2026-01-28 02:20:25.78	178.82	47.14	-49.1	-66.0	3.5	3.02e+01	0	33	104	228589568	60	76615
2026-01-28 02:20:29.82	179.72	48.62	-39.8	-50.2	3.6	3.02e+01	0	33	104	228589568	54	17652
2026-01-28 02:20:33.86	180.72	50.14	-48.8	-64.7	3.5	3.02e+01	0	33	104	228589568	60	66033
2026-01-28 02:20:37.90	181.81	51.70	-38.0	-48.2	3.5	3.02e+01	0	33	104	228589568	50	17667
2026-01-28 02:20:41.93	183.03	53.31	-49.2	-66.3	3.5	3.02e+01	0	33	104	228589568	60	79067
2026-01-28 02:20:45.97	184.40	54.95	-40.6	-51.1	3.5	3.02e+01	0	33	104	228589568	56	17486
2026-01-28 02:20:50.01	185.93	56.64	-48.7	-64.2	3.5	3.02e+01	0	33	104	228589568	60	62554
2026-01-28 02:20:54.05	187.66	58.35	-37.7	-48.0	3.5	3.02e+01	0	33	104	228589568	52	15292
2026-01-28 02:20:58.09	189.64	60.10	-49.1	-67.2	3.5	3.02e+01	0	33	104	228589568	60	87865
2026-01-28 02:21:02.13	191.90	61.85	-39.1	-49.3	3.6	3.02e+01	0	33	104	228589568	54	15941
2026-01-28 02:21:06.17	194.51	63.61	-49.1	-65.9	3.5	3.02e+01	0	33	104	228589568	60	76106
2026-01-28 02:21:10.21	197.54	65.36	-43.7	-55.0	3.5	3.02e+01	0	33	104	228589568	60	21598
2026-01-28 02:21:14.25	201.08	67.08	-49.1	-65.9	3.5	3.02e+01	0	33	104	228589568	60	75764
2026-01-28 02:21:18.29	205.24	68.74	-42.0	-52.8	3.5	3.02e+01	0	33	104	228589568	60	16851
2026-01-28 02:21:22.33	210.15	70.31	-48.9	-66.2	3.5	3.02e+01	0	33	104	228589568	60	78713
2026-01-28 02:21:26.37	215.92	71.75	-41.4	-52.3	3.5	3.02e+01	0	33	104	228589568	54	22481
2026-01-28 02:21:30.41	222.66	72.99	-46.1	-58.6	3.6	3.02e+01	0	33	104	228589568	60	32788
2026-01-28 02:21:34.44	230.38	73.99	-39.7	-50.2	3.5	3.02e+01	0	33	104	228589568	54	17590
2026-01-28 02:21:38.49	239.05	74.69	-46.0	-58.5	3.6	3.02e+01	0	33	104	228589568	60	32283
2026-01-28 02:21:42.52	248.29	75.02	-47.6	-61.9	3.5	3.02e+01	0	33	104	228589568	60	47835
2026-01-28 02:21:46.56	257.75	74.97	-42.0	-52.9	3.5	3.02e+01	0	33	104	228589568	60	16924
2026-01-28 02:21:50.60	266.89	74.54	-40.4	-51.4	3.5	3.02e+01	0	33	104	228589568	54	20258
2026-01-28 02:21:54.63	275.30	73.77	-41.5	-52.3	3.8	3.02e+01	0	33	104	228589568	60	15893
2026-01-28 02:21:58.67	282.78	72.70	-48.2	-63.5	3.5	3.02e+01	0	33	104	228589568	60	57629
2026-01-28 02:22:02.71	289.26	71.40	-41.1	-51.5	3.5	3.02e+01	0	33	104	228589568	56	18162
2026-01-28 02:22:06.74	294.78	69.93	-41.8	-52.4	3.6	3.02e+01	0	33	104	228589568	58	17993
2026-01-28 02:22:10.78	299.48	68.34	-43.6	-54.5	3.5	3.02e+01	0	33	104	228589568	60	20487
2026-01-28 02:22:14.82	303.47	66.66	-47.2	-60.2	3.5	3.02e+01	0	33	104	228589568	60	39555
2026-01-28 02:22:18.86	306.87	64.94	-39.4	-49.5	3.5	3.02e+01	0	33	104	228589568	50	20439
2026-01-28 02:22:22.90	309.78	63.19	-42.8	-53.7	3.5	3.02e+01	0	33	104	228589568	56	23542
2026-01-28 02:22:26.94	312.30	61.43	-43.1	-54.0	3.5	3.02e+01	0	33	104	228589568	60	19241
2026-01-28 02:22:30.98	314.48	59.68	-44.8	-56.2	3.5	3.02e+01	0	33	104	228589568	60	24865
2026-01-28 02:22:35.02	316.39	57.95	-43.2	-53.9	3.5	3.02e+01	0	33	104	228589568	56	23974
2026-01-28 02:22:39.06	318.07	56.25	-38.4	-48.7	3.5	3.02e+01	0	33	104	228589568	50	18739
2026-01-28 02:22:43.10	319.55	54.58	-37.8	-48.1	3.5	3.02e+01	0	33	104	228589568	48	19411
2026-01-28 02:22:47.13	320.88	52.95	-42.8	-53.6	3.5	3.02e+01	0	33	104	228589568	60	18365
2026-01-28 02:22:51.17	322.06	51.36	-42.1	-52.9	3.5	3.02e+01	0	33	104	228589568	56	21352
2026-01-28 02:22:55.21	323.13	49.81	-36.9	-47.1	3.5	3.02e+01	0	33	104	228589568	48	17304
2026-01-28 02:22:59.26	324.10	48.30	-41.2	-51.7	3.5	3.02e+01	0	33	104	228589568	58	16537
2026-01-28 02:23:03.29	324.98	46.85	-43.2	-54.1	3.6	3.02e+01	0	33	104	228589568	60	19598
2026-01-28 02:23:07.33	325.79	45.43	-43.9	-55.4	3.5	3.02e+01	0	33	104	228589568	60	22578
2026-01-28 02:23:11.37	326.52	44.07	-37.6	-47.6	3.5	3.02e+01	0	33	104	228589568	52	14673
2026-01-28 02:23:15.41	327.20	42.74	-38.4	-48.7	3.5	3.02e+01	0	33	104	228589568	52	16617
2026-01-28 02:23:19.45	327.83	41.46	-40.8	-51.4	3.6	3.02e+01	0	33	104	228589568	58	16091
2026-01-28 02:23:23.49	328.41	40.23	-42.7	-53.3	3.6	3.02e+01	0	33	104	228589568	60	17895
2026-01-28 02:23:27.53	328.94	39.03	-40.3	-50.7	3.5	3.02e+01	0	33	104	228589568	54	18595
2026-01-28 02:23:31.57	329.44	37.88	-38.7	-49.0	3.5	3.02e+01	0	33	104	228589568	52	17215
2026-01-28 02:23:35.61	329.91	36.76	-38.2	-48.7	3.5	3.02e+01	0	33	104	228589568	48	20858
2026-01-28 02:23:39.65	330.35	35.68	-39.5	-49.9	3.5	3.02e+01	0	33	104	228589568	54	17031
2026-01-28 02:23:43.69	330.76	34.64	-37.2	-47.5	3.5	3.02e+01	0	33	104	228589568	48	18159
2026-01-28 02:23:47.73	331.14	33.63	-41.4	-51.9	3.5	3.02e+01	0	33	104	228589568	56	19090
2026-01-28 02:23:51.77	331.51	32.65	-39.4	-50.1	3.5	3.02e+01	0	33	104	228589568	56	15412
2026-01-28 02:23:55.81	331.85	31.71	-37.3	-47.4	3.5	3.02e+01	0	33	104	228589568	50	16090
2026-01-28 02:23:59.84	332.17	30.80	-38.2	-48.5	3.5	3.02e+01	0	33	104	228589568	48	20326
2026-01-28 02:24:03.88	332.48	29.91	-36.7	-46.8	3.5	3.02e+01	0	33	104	228589568	48	16848
2026-01-28 02:24:07.92	332.77	29.06	-38.8	-49.2	3.5	3.02e+01	0	33	104	228589568	50	19682
2026-01-28 02:24:11.96	333.05	28.23	-36.7	-47.0	3.6	3.02e+01	0	33	104	228589568	48	17126
2026-01-28 02:24:16.00	333.31	27.42	-34.6	-35.8	30.1	3.02e+01	60	33	0	231735296	44	5961
2026-01-28 02:24:20.04	333.56	26.64	-34.7	-35.9	30.1	3.02e+01	46	33	0	239599616	44	6023
2026-01-28 02:24:24.08	333.80	25.88	-35.0	-36.2	29.8	3.02e+01	58	33	0	246939648	44	6211
2026-01-28 02:24:28.11	334.03	25.15	-34.9	-36.1	29.8	3.02e+01	45	33	0	254803968	44	6191
2026-01-28 02:24:32.15	334.25	24.44	-34.9	-36.1	29.8	3.02e+01	60	33	0	262144000	44	6156
2026-01-28 02:24:36.19	334.46	23.74	-35.0	-36.2	29.7	3.02e+01	58	33	0	270008320	44	6242
2026-01-28 02:24:40.23	334.66	23.07	-35.0	-36.2	29.8	3.02e+01	57	33	0	277348352	44	6246
2026-01-28 02:24:44.27	334.85	22.41	-35.1	-36.3	29.7	3.02e+01	59	33	0	285212672	44	6298
2026-01-28 02:24:48.31	335.04	21.77	-34.9	-36.1	29.8	3.02e+01	62	33	0	292552704	44	6139
2026-01-28 02:24:52.34	335.22	21.15	-35.0	-36.2	29.7	3.02e+01	55	33	0	299892736	44	6257
2026-01-28 02:24:56.38	335.39	20.55	-34.8	-36.0	29.9	3.02e+01	62	33	0	307757056	44	6112
2026-01-28 02:25:00.42	335.55	19.96	-34.8	-35.9	29.9	3.02e+01	57	33	0	315097088	44	6056
2026-01-28 02:25:04.46	335.72	19.38	-34.6	-35.8	30.0	3.02e+01	60	33	0	322961408	44	5943
2026-01-28 02:25:08.50	335.87	18.82	-34.6	-35.7	30.1	3.02e+01	60	33	0	330301440	44	5906
2026-01-28 02:25:12.54	336.02	18.27	-34.6	-35.8	30.1	3.02e+01	59	33	0	338165760	44	5937
2026-01-28 02:25:16.58	336.16	17.74	-34.5	-35.7	30.0	3.02e+01	59	33	0	345505792	44	5871
2026-01-28 02:25:20.61	336.30	17.22	-34.5	-35.6	29.9	3.02e+01	56	33	0	353370112	44	5843
2026-01-28 02:25:24.65	336.44	16.71	-34.7	-35.8	29.7	3.02e+01	59	33	0	360710144	44	5985
2026-01-28 02:25:28.68	336.57	16.21	-34.7	-35.9	29.8	3.02e+01	58	33	0	368050176	44	6006
2026-01-28 02:25:32.72	336.70	15.72	-34.8	-36.0	29.8	3.02e+01	58	33	0	375914496	44	6083
2026-01-28 02:25:36.76	336.82	15.24	-34.7	-35.9	29.8	3.02e+01	59	33	0	383254528	44	6045
2026-01-28 02:25:40.80	336.94	14.78	-34.8	-36.0	29.8	3.02e+01	58	33	0	391118848	44	6106
2026-01-28 02:25:44.84	337.06	14.32	-34.8	-36.0	29.7	3.02e+01	59	33	0	398458880	44	6080
2026-01-28 02:25:48.87	337.17	13.87	-34.8	-36.0	29.5	3.02e+01	61	33	0	406323200	44	6129
2026-01-28 02:25:52.91	337.28	13.43	-35.1	-36.4	29.3	3.02e+01	45	33	0	413663232	44	6371
2026-01-28 02:25:56.94	337.39	13.00	-35.1	-36.3	29.4	3.02e+01	62	33	0	421003264	44	6333
2026-01-28 02:26:00.98	337.49	12.58	-35.2	-36.4	29.2	3.02e+01	53	33	0	428867584	44	6411
2026-01-28 02:26:05.02	337.60	12.16	-35.0	-36.2	29.4	3.02e+01	61	33	0	436207616	44	6232
2026-01-28 02:26:09.06	337.70	11.76	-35.2	-36.5	29.2	3.02e+01	48	33	0	444071936	44	6428
2026-01-28 02:26:13.10	337.79	11.36	-35.3	-36.5	29.2	3.02e+01	59	33	0	451411968	44	6485
2026-01-28 02:26:17.14	337.89	10.96	-35.3	-36.5	29.1	3.02e+01	51	33	0	459276288	44	6496
2026-01-28 02:26:21.17	337.98	10.58	-35.4	-36.7	29.0	3.02e+01	59	33	0	466616320	44	6575
2026-01-28 02:26:25.21	338.07	10.20	-35.6	-36.9	28.8	3.02e+01	45	33	0	474480640	44	6744
2026-01-28 02:26:29.25	338.16	9.83	-35.9	-37.2	28.7	3.02e+01	59	33	0	481820672	44	6966
2026-01-28 02:26:33.29	338.25	9.46	-35.6	-36.9	28.7	3.02e+01	44	33	0	489160704	46	5999
2026-01-28 02:26:37.32	338.33	9.10	-35.6	-36.8	28.8	3.02e+01	57	33	0	497025024	46	5976
2026-01-28 02:26:41.36	338.42	8.74	-36.0	-37.3	28.4	3.02e+01	46	33	0	504365056	46	6317
2026-01-28 02:26:45.40	338.50	8.40	-36.1	-37.4	28.3	3.02e+01	59	33	0	512229376	46	6376
2026-01-28 02:26:49.44	338.58	8.05	-36.1	-37.4	28.3	3.02e+01	45	33	0	519569408	46	6363
2026-01-28 02:26:53.47	338.66	7.71	-36.2	-37.4	28.1	3.02e+01	60	33	0	527433728	46	6399
2026-01-28 02:26:57.51	338.73	7.38	-36.0	-37.3	28.2	3.02e+01	58	33	0	534773760	46	6307
2026-01-28 02:27:01.55	338.81	7.05	-36.2	-37.4	27.9	3.02e+01	54	33	0	542113792	46	6418
2026-01-28 02:27:05.59	338.88	6.72	-36.4	-37.7	27.8	3.02e+01	58	33	0	549978112	46	6639
2026-01-28 02:27:09.63	338.96	6.40	-36.4	-37.7	27.7	3.02e+01	57	33	0	557318144	46	6575
2026-01-28 02:27:13.67	339.03	6.09	-36.5	-37.8	27.5	3.02e+01	58	33	0	565182464	46	6693
2026-01-28 02:27:17.71	339.10	5.78	-36.8	-38.2	27.0	3.02e+01	59	33	0	572522496	48	6222
2026-01-28 02:27:21.75	339.17	5.47	-37.5	-38.9	26.2	3.02e+01	57	33	0	580386816	48	6757
2026-01-28 02:27:25.78	339.23	5.16	-39.0	-40.7	24.0	3.02e+01	62	33	0	587726848	52	6608
2026-01-28 02:27:29.82	339.30	4.86	-40.9	-43.3	20.2	3.02e+01	58	33	0	595591168	54	7986
2026-01-28 02:27:33.86	339.37	4.57	-42.9	-47.4	15.4	3.02e+01	58	33	0	602931200	58	10071
2026-01-28 02:27:37.90	339.43	4.28	-44.2	-52.3	9.4	3.02e+01	59	33	0	610271232	60	15862
2026-01-28 02:27:41.94	339.49	3.99	-44.6	-58.2	4.6	3.02e+01	0	33	104	615514112	60	31330
2026-01-28 02:27:45.98	339.56	3.70	-44.7	-62.1	3.5	3.02e+01	0	33	104	615514112	60	49088
2026-01-28 02:27:50.02	339.62	3.42	-44.8	-61.1	3.6	3.02e+01	0	33	104	615514112	60	43593
2026-01-28 02:27:54.06	339.68	3.14	-44.8	-62.7	3.5	3.02e+01	0	33	104	615514112	60	52462
2026-01-28 02:27:58.10	339.74	2.86	-48.1	-65.6	3.5	3.02e+01	0	33	104	615514112	60	73722
2026-01-28 02:28:02.13	339.80	2.59	-49.2	-67.2	3.5	3.02e+01	0	33	104	615514112	60	88192
2026-01-28 02:28:06.17	339.86	2.32	-49.6	-67.4	3.5	3.02e+01	0	33	104	615514112	60	89735
2026-01-28 02:28:10.21	339.92	2.05	-49.5	-67.4	3.5	3.02e+01	0	33	104	615514112	60	89816
2026-01-28 02:28:14.25	339.97	1.79	-49.4	-67.3	3.5	3.02e+01	0	33	104	615514112	60	89425
2026-01-28 02:28:18.29	340.03	1.52	-49.3	-67.2	3.5	3.02e+01	0	33	104	615514112	60	88560
2026-01-28 02:28:22.34	340.08	1.26	-49.5	-67.3	3.5	3.02e+01	0	33	104	615514112	60	89138
2026-01-28 02:28:26.38	340.14	1.01	-49.4	-67.3	3.5	3.02e+01	0	33	104	615514112	60	88793
2026-01-28 02:28:30.42	340.19	0.75	-49.4	-67.3	3.5	3.02e+01	0	33	104	615514112	60	89475
2026-01-28 02:28:34.45	340.25	0.50	-49.4	-67.2	3.5	3.02e+01	0	33	104	615514112	60	88207
2026-01-28 02:28:38.49	340.30	0.25	-49.4	-67.3	3.5	3.02e+01	0	33	104	615514112	60	89110
2026-01-28 02:28:42.53	340.35	0.00	-49.4	-67.2	3.5	3.02e+01	0	33	104	615514112	60	88551

#Closed at: 2026-01-28 02:28:44
#Recorded file [615 MB]: D:/lorett/data/35029_260128_141450.dat