passes_logs/2026/01/28/R4.6S_Anadyr/R4.6S_Anadyr__20260128_154116_SUOMI_NPP_rec.log

#Pass ID: 20260128_154116_SUOMI NPP
#Satellite: SUOMI NPP
#Configuration: NPP
#almurnet v.1.7.20251203
#Start time: 2026-01-28 15:41:18

#Version: 2.2.20231116
#Station: R4.6S_Anadyr
#Location: 177.4865 lon 64.73178 lat
#TLE: 1 37849U 11061A   26027.86188320  .00000172  00000+0  10275-3 0  9990
#TLE: 2 37849  98.7823 329.8005 0002088  41.4184 318.7150 14.19530883738530

#Time	Az	El	Level	Level2	SNR	BER	BlckErr	Temp	State	Recorded	gain1	gain2
2026-01-28 15:41:18.25	22.86	0.08	-48.8	-61.3	3.4	1.52e+00	0	30	0	0	60	40762
2026-01-28 15:41:22.29	22.78	0.32	-48.9	-64.1	3.6	1.51e+00	0	31	104	0	60	57902
2026-01-28 15:41:26.33	22.70	0.56	-49.0	-64.2	3.6	1.51e+00	0	31	104	0	60	58774
2026-01-28 15:41:30.37	22.62	0.81	-48.9	-64.1	3.6	1.51e+00	0	31	104	0	60	58082
2026-01-28 15:41:34.41	22.54	1.05	-48.7	-64.0	3.6	1.51e+00	0	31	104	0	60	57025
2026-01-28 15:41:38.45	22.45	1.30	-48.3	-63.5	3.6	1.51e+00	0	31	104	0	60	54159
2026-01-28 15:41:42.48	22.36	1.55	-47.6	-62.5	3.6	1.51e+00	0	31	104	0	60	48344
2026-01-28 15:41:46.52	22.27	1.80	-47.6	-62.5	3.6	1.51e+00	0	32	104	0	60	48264
2026-01-28 15:41:50.56	22.18	2.05	-47.6	-62.6	3.6	1.51e+00	0	32	104	0	60	48911
2026-01-28 15:41:54.60	22.09	2.31	-47.6	-62.7	3.6	1.51e+00	0	32	104	0	60	49376
2026-01-28 15:41:58.64	21.99	2.56	-47.5	-61.7	3.6	1.51e+00	0	32	104	0	60	44096
2026-01-28 15:42:02.68	21.89	2.83	-47.5	-60.5	3.7	1.50e+00	0	32	104	0	60	38389
2026-01-28 15:42:06.72	21.79	3.09	-47.4	-59.2	3.7	1.50e+00	0	32	104	0	60	33094
2026-01-28 15:42:10.76	21.69	3.35	-44.9	-48.6	13.1	3.13e-04	90	32	0	5242880	60	9681
2026-01-28 15:42:14.79	21.59	3.62	-42.7	-44.8	16.4	0.00e+00	0	32	0	12582912	58	7053
2026-01-28 15:42:18.83	21.48	3.89	-47.5	-62.4	3.6	1.01e-01	0	32	104	16777216	60	47876
2026-01-28 15:42:22.86	21.38	4.16	-41.5	-43.1	18.5	0.00e+00	13	32	0	19922944	56	6525
2026-01-28 15:42:26.90	21.26	4.44	-40.4	-41.8	19.7	0.00e+00	88	32	0	28311552	54	6273
2026-01-28 15:42:30.94	21.15	4.71	-39.9	-41.3	20.3	0.00e+00	0	32	0	35651584	54	5898
2026-01-28 15:42:34.98	21.04	4.99	-39.6	-40.8	20.7	0.00e+00	0	32	0	42991616	52	6307
2026-01-28 15:42:39.02	20.92	5.28	-38.8	-39.9	21.4	0.00e+00	0	32	0	50331648	52	5660
2026-01-28 15:42:43.06	20.80	5.56	-38.7	-39.8	21.8	0.00e+00	0	32	0	58720256	50	6257
2026-01-28 15:42:47.10	20.67	5.85	-38.7	-39.8	21.7	0.00e+00	0	32	0	66060288	50	6297
2026-01-28 15:42:51.14	20.55	6.15	-38.6	-39.6	22.0	0.00e+00	0	32	0	73400320	50	6160
2026-01-28 15:42:55.17	20.42	6.44	-38.6	-39.7	21.9	0.00e+00	90	32	0	80740352	50	6199
2026-01-28 15:42:59.21	20.29	6.74	-39.0	-40.1	21.6	0.00e+00	0	32	0	88080384	50	6523
2026-01-28 15:43:03.25	20.15	7.04	-38.3	-39.3	22.2	0.00e+00	0	32	0	96468992	50	5933
2026-01-28 15:43:07.29	20.01	7.35	-37.9	-38.9	22.5	0.00e+00	7	32	0	103809024	50	5685
2026-01-28 15:43:11.33	19.87	7.66	-37.8	-38.7	22.7	0.00e+00	92	32	0	111149056	48	6240
2026-01-28 15:43:15.37	19.72	7.97	-37.7	-38.7	22.7	0.00e+00	0	32	0	118489088	48	6214
2026-01-28 15:43:19.41	19.58	8.29	-37.9	-38.9	22.6	0.00e+00	0	32	0	126877696	48	6367
2026-01-28 15:43:23.45	19.42	8.61	-38.0	-38.9	22.7	0.00e+00	82	32	0	134217728	48	6374
2026-01-28 15:43:27.48	19.27	8.93	-37.7	-38.7	22.8	0.00e+00	0	32	0	141557760	48	6217
2026-01-28 15:43:31.51	19.11	9.26	-37.7	-38.6	22.8	0.00e+00	0	32	0	148897792	48	6163
2026-01-28 15:43:35.55	18.94	9.59	-37.6	-38.6	22.5	0.00e+00	0	32	0	156237824	48	6110
2026-01-28 15:43:39.59	18.77	9.93	-38.1	-39.1	22.7	0.00e+00	78	32	0	164626432	48	6483
2026-01-28 15:43:43.62	18.60	10.27	-37.8	-38.8	22.8	0.00e+00	0	32	0	171966464	48	6305
2026-01-28 15:43:47.66	18.42	10.61	-37.5	-38.5	23.1	0.00e+00	0	32	0	179306496	48	6050
2026-01-28 15:43:51.70	18.24	10.96	-37.7	-38.7	23.0	0.00e+00	0	32	0	186646528	48	6201
2026-01-28 15:43:55.74	18.06	11.32	-37.3	-38.2	23.3	0.00e+00	43	32	0	195035136	48	5893
2026-01-28 15:43:59.77	17.86	11.68	-37.2	-38.1	23.4	0.00e+00	0	32	0	202375168	48	5825
2026-01-28 15:44:03.81	17.67	12.04	-37.4	-38.3	23.4	0.00e+00	0	32	0	209715200	48	5920
2026-01-28 15:44:07.85	17.47	12.41	-37.3	-38.2	23.4	0.00e+00	15	32	0	217055232	48	5844
2026-01-28 15:44:11.88	17.26	12.78	-37.3	-38.2	23.4	0.00e+00	58	32	0	224395264	48	5886
2026-01-28 15:44:15.92	17.04	13.17	-37.1	-38.0	23.6	0.00e+00	0	32	0	232783872	48	5719
2026-01-28 15:44:19.95	16.83	13.55	-36.9	-37.8	23.7	0.00e+00	0	32	0	240123904	46	6292
2026-01-28 15:44:23.99	16.60	13.94	-36.7	-37.6	23.9	0.00e+00	0	32	0	247463936	46	6140
2026-01-28 15:44:28.03	16.37	14.34	-36.7	-37.6	23.9	0.00e+00	0	32	0	254803968	46	6111
2026-01-28 15:44:32.07	16.13	14.74	-36.7	-37.6	24.0	0.00e+00	0	32	0	263192576	46	6119
2026-01-28 15:44:36.11	15.88	15.15	-36.5	-37.4	24.1	0.00e+00	19	32	0	270532608	46	5975
2026-01-28 15:44:40.15	15.63	15.57	-36.6	-37.4	24.0	0.00e+00	92	32	0	277872640	46	6022
2026-01-28 15:44:44.18	15.37	15.99	-36.7	-37.6	23.9	0.00e+00	0	32	0	285212672	46	6104
2026-01-28 15:44:48.22	15.10	16.42	-36.5	-37.4	24.1	0.00e+00	0	32	0	292552704	46	5984
2026-01-28 15:44:52.26	14.82	16.86	-36.7	-37.6	24.0	0.00e+00	0	32	0	300941312	46	6108
2026-01-28 15:44:56.29	14.53	17.30	-36.7	-37.6	24.0	0.00e+00	92	32	0	308281344	46	6125
2026-01-28 15:45:00.33	14.24	17.75	-36.9	-37.7	23.9	0.00e+00	0	32	0	315621376	46	6241
2026-01-28 15:45:04.37	13.93	18.21	-37.0	-37.9	23.8	0.00e+00	0	32	0	322961408	46	6331
2026-01-28 15:45:08.41	13.62	18.68	-36.8	-37.6	23.9	0.00e+00	63	32	0	330301440	46	6143
2026-01-28 15:45:12.44	13.30	19.15	-36.6	-37.5	24.1	0.00e+00	0	32	0	338690048	46	6065
2026-01-28 15:45:16.48	12.96	19.64	-36.6	-37.4	24.1	0.00e+00	0	32	0	346030080	46	5987
2026-01-28 15:45:20.51	12.61	20.13	-36.9	-37.8	23.9	0.00e+00	0	32	0	353370112	46	6266
2026-01-28 15:45:24.55	12.25	20.63	-37.3	-38.2	23.6	0.00e+00	8	32	0	360710144	46	6548
2026-01-28 15:45:28.59	11.88	21.14	-37.7	-38.6	23.4	0.00e+00	0	32	0	369098752	46	6864
2026-01-28 15:45:32.62	11.50	21.65	-37.5	-38.4	23.4	0.00e+00	0	32	0	376438784	48	6016
2026-01-28 15:45:36.66	11.10	22.18	-38.2	-39.1	23.0	0.00e+00	0	32	0	383778816	48	6533
2026-01-28 15:45:40.70	10.69	22.72	-38.1	-39.0	23.0	0.00e+00	31	32	0	391118848	48	6443
2026-01-28 15:45:44.73	10.26	23.26	-37.8	-38.7	23.2	0.00e+00	0	32	0	398458880	48	6244
2026-01-28 15:45:48.77	9.82	23.82	-38.4	-39.4	22.7	0.00e+00	0	32	0	406847488	48	6698
2026-01-28 15:45:52.80	9.36	24.38	-38.6	-39.6	22.5	0.00e+00	17	32	0	414187520	50	6149
2026-01-28 15:45:56.84	8.88	24.96	-38.7	-39.6	22.6	0.00e+00	30	32	0	421527552	50	6169
2026-01-28 15:46:00.88	8.38	25.55	-38.4	-39.3	23.0	0.00e+00	0	32	0	428867584	50	5943
2026-01-28 15:46:04.91	7.87	26.14	-39.0	-40.0	22.0	0.00e+00	0	32	0	436207616	50	6436
2026-01-28 15:46:08.95	7.33	26.75	-39.1	-40.1	22.3	0.00e+00	85	32	0	444596224	50	6510
2026-01-28 15:46:12.98	6.78	27.37	-38.8	-39.8	22.5	0.00e+00	0	32	0	451936256	50	6275
2026-01-28 15:46:17.03	6.19	28.00	-38.2	-39.2	23.2	0.00e+00	0	32	0	459276288	50	5844
2026-01-28 15:46:21.06	5.59	28.64	-39.1	-40.2	22.2	0.00e+00	0	32	0	466616320	50	6569
2026-01-28 15:46:25.10	4.96	29.30	-38.7	-39.7	22.7	0.00e+00	88	32	0	475004928	50	6218
2026-01-28 15:46:29.13	4.30	29.96	-39.1	-40.1	22.4	0.00e+00	11	32	0	482344960	50	6514
2026-01-28 15:46:33.17	3.62	30.64	-39.3	-40.3	21.6	0.00e+00	14	32	0	489684992	50	6683
2026-01-28 15:46:37.20	2.90	31.32	-39.8	-40.9	21.9	0.00e+00	0	32	0	497025024	52	6342
2026-01-28 15:46:41.24	2.16	32.02	-40.2	-41.3	21.2	0.00e+00	36	32	0	504365056	52	6692
2026-01-28 15:46:45.28	1.37	32.73	-40.5	-41.8	21.0	0.00e+00	0	32	0	512753664	54	6265
2026-01-28 15:46:49.31	0.56	33.45	-40.9	-42.2	20.4	0.00e+00	0	32	0	520093696	54	6605
2026-01-28 15:46:53.34	359.71	34.18	-42.0	-43.6	19.4	0.00e+00	15	32	0	527433728	56	6893
2026-01-28 15:46:57.38	358.81	34.91	-39.9	-41.0	21.5	0.00e+00	42	32	0	534773760	54	5755
2026-01-28 15:47:01.42	357.87	35.66	-39.7	-40.9	21.5	0.00e+00	0	32	0	543162368	52	6327
2026-01-28 15:47:05.46	356.89	36.42	-39.3	-40.3	22.4	0.00e+00	0	32	0	550502400	52	5955
2026-01-28 15:47:09.49	355.86	37.18	-39.2	-40.3	22.1	0.00e+00	92	32	0	557842432	52	5944
2026-01-28 15:47:13.53	354.78	37.95	-40.0	-41.2	21.4	0.00e+00	0	32	0	565182464	52	6589
2026-01-28 15:47:17.57	353.65	38.73	-39.6	-40.7	21.7	0.00e+00	0	32	0	572522496	52	6230
2026-01-28 15:47:21.60	352.46	39.51	-39.3	-40.4	22.0	0.00e+00	0	32	0	580911104	50	6712
2026-01-28 15:47:25.64	351.22	40.29	-39.9	-41.2	21.4	0.00e+00	77	32	0	588251136	54	5848
2026-01-28 15:47:29.67	349.91	41.08	-38.3	-39.2	22.9	0.00e+00	0	32	0	595591168	50	5887
2026-01-28 15:47:33.71	348.53	41.86	-40.0	-41.2	21.4	0.00e+00	0	32	0	602931200	52	6596
2026-01-28 15:47:37.74	347.09	42.64	-40.1	-41.3	21.3	0.00e+00	17	33	0	610271232	54	5919
2026-01-28 15:47:41.78	345.57	43.42	-41.5	-42.9	19.9	0.00e+00	90	32	0	618659840	54	7157
2026-01-28 15:47:45.82	343.97	44.18	-41.0	-42.4	20.4	0.00e+00	0	32	0	625999872	56	5987
2026-01-28 15:47:49.85	342.31	44.94	-42.0	-43.7	19.2	0.00e+00	0	32	0	633339904	56	6961
2026-01-28 15:47:53.90	340.55	45.68	-40.9	-42.2	20.5	0.00e+00	21	33	0	640679936	56	5883
2026-01-28 15:47:57.93	338.71	46.40	-39.4	-40.5	22.2	0.00e+00	23	32	0	649068544	52	6065
2026-01-28 15:48:01.97	336.79	47.11	-37.7	-38.6	23.4	0.00e+00	0	32	0	656408576	48	6108
2026-01-28 15:48:06.00	334.78	47.78	-39.0	-40.1	22.4	0.00e+00	0	32	0	663748608	52	5783
2026-01-28 15:48:10.04	332.68	48.43	-39.5	-40.8	21.7	0.00e+00	83	33	0	671088640	50	7016
2026-01-28 15:48:14.08	330.50	49.04	-38.1	-39.0	23.1	0.00e+00	0	33	0	678428672	50	5715
2026-01-28 15:48:18.12	328.22	49.61	-39.0	-40.1	22.4	0.00e+00	0	32	0	686817280	50	6474
2026-01-28 15:48:22.15	325.87	50.14	-38.6	-39.6	22.5	0.00e+00	0	32	0	694157312	50	6159
2026-01-28 15:48:26.19	323.43	50.62	-42.4	-44.3	18.8	0.00e+00	91	33	0	701497344	56	7435
2026-01-28 15:48:30.23	320.92	51.05	-39.1	-40.2	22.3	0.00e+00	0	32	0	708837376	52	5879
2026-01-28 15:48:34.27	318.33	51.43	-39.4	-40.6	21.9	0.00e+00	0	32	0	717225984	52	6106
2026-01-28 15:48:38.30	315.70	51.74	-39.0	-40.1	22.1	0.00e+00	9	32	0	724566016	52	5802
2026-01-28 15:48:42.34	313.00	51.99	-35.6	-36.4	24.9	0.00e+00	92	33	0	731906048	44	6002
2026-01-28 15:48:46.38	310.27	52.17	-36.6	-37.5	24.3	0.00e+00	0	32	0	739246080	44	6801
2026-01-28 15:48:50.42	307.50	52.29	-35.2	-36.0	25.3	0.00e+00	0	32	0	746586112	42	6415
2026-01-28 15:48:54.45	304.73	52.33	-35.3	-36.1	25.2	0.00e+00	14	32	0	754974720	44	5812
2026-01-28 15:48:58.48	301.96	52.31	-37.7	-38.6	23.4	0.00e+00	0	32	0	762314752	46	6923
2026-01-28 15:49:02.52	299.19	52.22	-35.9	-36.7	24.4	0.00e+00	0	32	0	769654784	46	5550
2026-01-28 15:49:06.56	296.44	52.06	-37.8	-38.9	23.3	0.00e+00	0	32	0	776994816	48	6328
2026-01-28 15:49:10.60	293.73	51.83	-37.1	-38.0	23.8	0.00e+00	86	32	0	785383424	48	5734
2026-01-28 15:49:14.63	291.07	51.54	-36.0	-36.8	24.6	0.00e+00	0	32	0	792723456	46	5575
2026-01-28 15:49:18.67	288.47	51.19	-37.7	-38.7	23.3	0.00e+00	0	32	0	800063488	48	6226
2026-01-28 15:49:22.70	285.93	50.78	-37.4	-38.3	23.7	0.00e+00	0	32	0	807403520	48	5943
2026-01-28 15:49:26.74	283.46	50.31	-37.7	-38.6	23.6	0.00e+00	92	32	0	814743552	48	6133
2026-01-28 15:49:30.78	281.07	49.80	-39.3	-40.4	22.2	0.00e+00	0	32	0	823132160	50	6747
2026-01-28 15:49:34.82	278.77	49.24	-39.0	-40.0	22.4	0.00e+00	0	32	0	830472192	52	5752
2026-01-28 15:49:38.85	276.55	48.64	-38.0	-38.9	23.2	0.00e+00	54	32	0	837812224	48	6379
2026-01-28 15:49:42.89	274.42	48.00	-39.9	-41.0	21.6	0.00e+00	0	32	0	845152256	52	6451
2026-01-28 15:49:46.92	272.38	47.34	-38.8	-39.8	22.4	0.00e+00	0	32	0	853540864	50	6252
2026-01-28 15:49:50.96	270.42	46.64	-39.8	-41.0	21.7	0.00e+00	0	32	0	860880896	52	6415
2026-01-28 15:49:55.00	268.55	45.92	-40.7	-42.0	20.8	0.00e+00	92	32	0	868220928	52	7171
2026-01-28 15:49:59.04	266.77	45.18	-38.1	-39.0	23.3	0.00e+00	0	32	0	875560960	50	5739
2026-01-28 15:50:03.08	265.06	44.43	-38.4	-39.4	23.0	0.00e+00	0	32	0	882900992	48	6713
2026-01-28 15:50:07.12	263.44	43.66	-38.7	-39.7	22.8	0.00e+00	12	32	0	891289600	50	6193
2026-01-28 15:50:11.16	261.89	42.89	-40.2	-41.4	21.1	0.00e+00	92	32	0	898629632	52	6702
2026-01-28 15:50:15.20	260.42	42.11	-40.5	-41.8	20.9	0.00e+00	0	32	0	905969664	54	6261
2026-01-28 15:50:19.24	259.02	41.32	-39.5	-40.5	22.0	0.00e+00	0	32	0	913309696	52	6091
2026-01-28 15:50:23.27	257.68	40.54	-40.4	-41.6	21.1	0.00e+00	13	32	0	921698304	52	6898
2026-01-28 15:50:27.31	256.41	39.75	-39.7	-40.8	21.8	0.00e+00	70	32	0	929038336	52	6268
2026-01-28 15:50:31.35	255.20	38.97	-42.8	-44.6	18.3	0.00e+00	0	32	0	936378368	56	7695
2026-01-28 15:50:35.39	254.04	38.18	-43.1	-45.0	18.0	0.00e+00	0	32	0	943718400	60	6449
2026-01-28 15:50:39.43	252.94	37.41	-42.5	-44.1	19.0	0.00e+00	12	32	0	951058432	58	6535
2026-01-28 15:50:43.47	251.89	36.64	-38.0	-38.9	23.4	0.00e+00	0	32	0	959447040	50	5645
2026-01-28 15:50:47.51	250.89	35.88	-38.1	-39.0	23.2	0.00e+00	0	32	0	966787072	48	6426
2026-01-28 15:50:51.54	249.94	35.13	-40.9	-42.2	20.5	0.00e+00	0	32	0	974127104	54	6607
2026-01-28 15:50:55.58	249.03	34.38	-42.2	-43.9	18.9	0.00e+00	90	33	0	981467136	58	6386
2026-01-28 15:50:59.62	248.16	33.65	-41.2	-42.6	20.3	0.00e+00	0	32	0	989855744	56	6131
2026-01-28 15:51:03.66	247.33	32.92	-39.4	-40.4	22.1	0.00e+00	0	32	0	997195776	52	6017
2026-01-28 15:51:07.70	246.53	32.21	-41.7	-43.1	19.8	0.00e+00	15	32	0	1004535808	54	7335
2026-01-28 15:51:11.74	245.77	31.50	-38.8	-39.8	22.8	0.00e+00	85	32	0	1011875840	52	5592
2026-01-28 15:51:15.77	245.05	30.81	-39.2	-40.2	22.2	0.00e+00	0	33	0	1019215872	50	6607
2026-01-28 15:51:19.81	244.35	30.13	-40.8	-42.1	20.8	0.00e+00	0	33	0	1027604480	54	6521
2026-01-28 15:51:23.85	243.68	29.46	-39.8	-40.9	21.6	0.00e+00	18	33	0	1034944512	52	6366
2026-01-28 15:51:27.89	243.04	28.80	-39.5	-40.6	22.1	0.00e+00	0	32	0	1042284544	52	6140
2026-01-28 15:51:31.93	242.42	28.15	-38.6	-39.5	22.8	0.00e+00	0	32	0	1049624576	50	6094
2026-01-28 15:51:35.96	241.83	27.52	-38.7	-39.7	22.6	0.00e+00	0	33	0	1056964608	50	6209
2026-01-28 15:51:40.00	241.27	26.89	-39.6	-40.7	21.8	0.00e+00	54	32	0	1065353216	50	6999
2026-01-28 15:51:44.03	240.72	26.28	-41.7	-43.2	19.9	0.00e+00	0	32	0	1072693248	56	6550
2026-01-28 15:51:48.07	240.20	25.68	-40.3	-41.6	21.2	0.00e+00	0	33	0	1080033280	54	6114
2026-01-28 15:51:52.10	239.69	25.09	-39.9	-41.1	21.6	0.00e+00	0	32	0	1087373312	54	5772
2026-01-28 15:51:56.14	239.21	24.50	-38.9	-39.9	22.5	0.00e+00	91	32	0	1095761920	50	6348
2026-01-28 15:52:00.18	238.74	23.93	-39.9	-41.1	21.5	0.00e+00	15	32	0	1103101952	52	6476
2026-01-28 15:52:04.22	238.29	23.37	-39.9	-41.1	21.5	0.00e+00	0	33	0	1110441984	52	6508
2026-01-28 15:52:08.26	237.85	22.82	-39.2	-40.3	22.1	0.00e+00	10	32	0	1117782016	52	5897
2026-01-28 15:52:12.29	237.43	22.28	-39.1	-40.1	22.3	0.00e+00	92	32	0	1125122048	52	5804
2026-01-28 15:52:16.33	237.03	21.75	-39.0	-40.0	22.4	0.00e+00	0	33	0	1133510656	52	5719
2026-01-28 15:52:20.37	236.64	21.23	-39.2	-40.3	21.9	0.00e+00	0	32	0	1140850688	52	5902
2026-01-28 15:52:24.40	236.26	20.71	-39.4	-40.4	21.9	0.00e+00	75	32	0	1148190720	52	6008
2026-01-28 15:52:28.44	235.90	20.21	-38.8	-39.7	22.6	0.00e+00	0	32	0	1155530752	50	6224
2026-01-28 15:52:32.48	235.54	19.71	-38.8	-39.8	22.6	0.00e+00	0	32	0	1163919360	50	6278
2026-01-28 15:52:36.51	235.20	19.23	-38.7	-39.6	22.6	0.00e+00	0	33	0	1171259392	50	6157
2026-01-28 15:52:40.55	234.87	18.75	-38.9	-39.9	22.3	0.00e+00	89	33	0	1178599424	50	6342
2026-01-28 15:52:44.59	234.55	18.28	-39.3	-40.3	22.1	0.00e+00	0	33	0	1185939456	50	6658
2026-01-28 15:52:48.62	234.24	17.82	-38.5	-39.4	22.8	0.00e+00	0	33	0	1193279488	50	5990
2026-01-28 15:52:52.67	233.94	17.36	-37.4	-38.3	23.6	0.00e+00	0	33	0	1201668096	48	5925
2026-01-28 15:52:56.70	233.65	16.92	-37.3	-38.1	23.8	0.00e+00	92	33	0	1209008128	48	5823
2026-01-28 15:53:00.74	233.37	16.48	-38.0	-38.9	23.1	0.00e+00	0	33	0	1216348160	48	6355
2026-01-28 15:53:04.78	233.09	16.04	-39.6	-40.7	21.7	0.00e+00	0	32	0	1223688192	50	6932
2026-01-28 15:53:08.82	232.83	15.62	-40.5	-41.8	20.8	0.00e+00	86	33	0	1232076800	54	6255
2026-01-28 15:53:12.85	232.57	15.20	-40.9	-42.2	20.3	0.00e+00	0	32	0	1239416832	54	6599
2026-01-28 15:53:16.89	232.32	14.78	-40.9	-42.2	20.1	0.00e+00	0	32	0	1246756864	54	6593
2026-01-28 15:53:20.92	232.07	14.38	-40.4	-41.6	20.8	0.00e+00	0	32	0	1254096896	54	6135
2026-01-28 15:53:24.96	231.84	13.98	-40.6	-41.8	20.6	0.00e+00	92	32	0	1261436928	54	6297
2026-01-28 15:53:29.00	231.61	13.58	-40.6	-41.9	20.5	0.00e+00	0	32	0	1269825536	54	6341
2026-01-28 15:53:33.04	231.38	13.19	-41.1	-42.4	19.9	0.00e+00	0	33	0	1277165568	54	6758
2026-01-28 15:53:37.07	231.16	12.81	-41.4	-42.8	19.6	0.00e+00	0	32	0	1284505600	54	7047
2026-01-28 15:53:41.11	230.95	12.44	-41.2	-42.6	19.6	0.00e+00	64	32	0	1291845632	54	6865
2026-01-28 15:53:45.15	230.75	12.06	-41.3	-42.7	19.6	0.00e+00	0	32	0	1299185664	54	6993
2026-01-28 15:53:49.18	230.54	11.70	-41.2	-42.5	19.8	0.00e+00	0	32	0	1307574272	54	6840
2026-01-28 15:53:53.22	230.35	11.34	-41.2	-42.7	19.6	0.00e+00	9	32	0	1314914304	54	6941
2026-01-28 15:53:57.26	230.16	10.98	-41.8	-43.4	18.9	0.00e+00	90	32	0	1322254336	54	7515
2026-01-28 15:54:01.30	229.97	10.63	-42.5	-44.2	18.3	0.00e+00	0	32	0	1329594368	56	7373
2026-01-28 15:54:05.34	229.79	10.28	-43.1	-45.0	17.3	0.00e+00	0	32	0	1337982976	58	7236
2026-01-28 15:54:09.37	229.61	9.94	-43.3	-45.4	17.0	0.00e+00	53	32	0	1345323008	58	7579
2026-01-28 15:54:13.41	229.44	9.60	-43.5	-45.7	16.6	0.00e+00	0	32	0	1352663040	60	6966
2026-01-28 15:54:17.45	229.27	9.26	-43.6	-45.8	16.5	0.00e+00	0	32	0	1360003072	60	7051
2026-01-28 15:54:21.48	229.11	8.93	-43.6	-45.9	16.5	0.00e+00	0	32	0	1367343104	60	7128
2026-01-28 15:54:25.52	228.95	8.61	-43.7	-46.0	16.3	0.00e+00	88	33	0	1375731712	60	7192
2026-01-28 15:54:29.56	228.79	8.29	-43.7	-46.0	16.2	0.00e+00	0	33	0	1383071744	60	7208
2026-01-28 15:54:33.60	228.64	7.97	-43.9	-46.4	15.9	0.00e+00	0	33	0	1390411776	60	7515
2026-01-28 15:54:37.63	228.49	7.65	-44.2	-46.8	15.4	0.00e+00	10	33	0	1397751808	60	7875
2026-01-28 15:54:41.67	228.34	7.34	-44.4	-47.2	15.0	0.00e+00	92	33	0	1406140416	60	8271
2026-01-28 15:54:45.71	228.20	7.04	-44.6	-47.5	14.6	0.00e+00	0	33	0	1413480448	60	8586
2026-01-28 15:54:49.75	228.06	6.73	-44.6	-47.7	14.4	0.00e+00	0	33	0	1420820480	60	8765
2026-01-28 15:54:53.79	227.92	6.43	-44.7	-47.8	14.1	6.10e-06	8	33	0	1428160512	60	8880
2026-01-28 15:54:57.83	227.79	6.13	-44.8	-48.1	13.7	0.00e+00	0	33	0	1435500544	60	9170
2026-01-28 15:55:01.87	227.66	5.84	-44.6	-47.9	13.7	5.30e-06	0	33	0	1443889152	60	8981
2026-01-28 15:55:05.90	227.53	5.55	-44.7	-48.2	13.4	1.52e-05	0	33	0	1451229184	60	9256
2026-01-28 15:55:09.94	227.41	5.26	-44.8	-48.5	12.9	4.11e-05	92	33	0	1458569216	60	9601
2026-01-28 15:55:13.98	227.29	4.98	-45.0	-48.9	12.3	1.24e-04	0	33	0	1465909248	60	10120
2026-01-28 15:55:18.01	227.17	4.70	-45.1	-49.3	11.9	4.45e-04	0	33	0	1473249280	60	10495
2026-01-28 15:55:22.05	227.05	4.42	-45.2	-49.7	11.3	2.22e-03	0	33	0	1481637888	60	11017
2026-01-28 15:55:26.09	226.93	4.14	-45.3	-50.0	10.8	2.28e-03	71	33	0	1488977920	60	11466
2026-01-28 15:55:30.13	226.82	3.87	-45.2	-50.1	10.2	5.21e-03	0	33	0	1496317952	60	11603
2026-01-28 15:55:34.16	226.71	3.60	-45.4	-50.6	9.7	8.61e-03	0	33	0	1503657984	60	12291
2026-01-28 15:55:38.20	226.60	3.33	-45.4	-51.1	9.1	1.85e-02	6	33	0	1512046592	60	13019
2026-01-28 15:55:42.24	226.50	3.06	-45.1	-50.3	10.0	8.05e-03	90	33	0	1519386624	60	11817
2026-01-28 15:55:46.27	226.40	2.80	-48.5	-63.6	3.6	1.51e+00	0	33	104	1521483776	60	54891
2026-01-28 15:55:50.31	226.29	2.54	-49.0	-64.2	3.6	1.51e+00	0	33	104	1521483776	60	58589
2026-01-28 15:55:54.35	226.19	2.28	-49.1	-64.3	3.6	1.51e+00	0	33	104	1521483776	60	59046
2026-01-28 15:55:58.38	226.10	2.02	-49.0	-64.2	3.6	1.51e+00	0	33	104	1521483776	60	58513
2026-01-28 15:56:02.42	226.00	1.77	-48.7	-64.1	3.6	1.51e+00	0	33	104	1521483776	60	58162
2026-01-28 15:56:06.46	225.91	1.52	-48.7	-64.1	3.6	1.51e+00	0	33	104	1521483776	60	57963
2026-01-28 15:56:10.50	225.81	1.27	-48.9	-64.1	3.6	1.51e+00	0	33	104	1521483776	60	58063
2026-01-28 15:56:14.53	225.72	1.02	-48.9	-64.1	3.6	1.51e+00	0	33	104	1521483776	60	58006
2026-01-28 15:56:18.58	225.64	0.77	-48.9	-64.1	3.6	1.51e+00	0	33	104	1521483776	60	58272
2026-01-28 15:56:22.62	225.55	0.53	-48.9	-64.1	3.6	1.51e+00	0	33	104	1521483776	60	57996
2026-01-28 15:56:26.65	225.46	0.28	-48.9	-64.2	3.6	1.51e+00	0	33	104	1521483776	60	58385
2026-01-28 15:56:30.69	225.38	0.04	-48.9	-64.1	3.6	1.51e+00	0	33	104	1521483776	60	58072

#Closed at: 2026-01-28 15:56:33
#Recorded file [1521 MB]: D:/lorett/data/35029_260129_034118.dat