passes_logs/2026/01/28/R4.6S_Anadyr/R4.6S_Anadyr__20260128_115043_NOAA_21_JPSS-2_rec.log

#Pass ID: 20260128_115043_NOAA 21 (JPSS-2)
#Satellite: NOAA 21 (JPSS-2)
#Configuration: NOAA-21
#almurnet v.1.7.20251203
#Start time: 2026-01-28 11:50:46

#Version: 2.2.20231116
#Station: R4.6S_Anadyr
#Location: 177.4865 lon 64.73178 lat
#TLE: 1 54234U 22150A   26027.77052245  .00000166  00000+0  99439-4 0  9997
#TLE: 2 54234  98.7510 328.5165 0000872 203.6403 156.4733 14.19540252166628

#Time	Az	El	Level	Level2	SNR	BER	BlckErr	Temp	State	Recorded	gain1	gain2
2026-01-28 11:50:46.56	20.10	0.15	-48.6	-60.0	3.3	1.54e+00	0	32	0	0	60	34898
2026-01-28 11:50:49.58	20.37	0.28	-48.6	-61.4	3.5	1.51e+00	0	32	104	0	60	41466
2026-01-28 11:50:52.61	20.64	0.41	-48.7	-61.5	3.5	1.52e+00	0	32	104	0	60	41779
2026-01-28 11:50:55.64	20.92	0.54	-48.6	-61.5	3.5	1.52e+00	0	32	104	0	60	41795
2026-01-28 11:50:58.67	21.19	0.67	-48.5	-61.4	3.5	1.52e+00	0	32	104	0	60	41076
2026-01-28 11:51:01.70	21.47	0.80	-48.3	-61.2	3.5	1.52e+00	0	32	104	0	60	40084
2026-01-28 11:51:04.73	21.75	0.93	-48.1	-60.9	3.5	1.52e+00	0	32	104	0	60	38764
2026-01-28 11:51:07.76	22.04	1.06	-47.5	-60.3	3.5	1.52e+00	0	32	104	0	60	36308
2026-01-28 11:51:10.79	22.32	1.19	-47.1	-59.9	3.5	1.52e+00	0	32	104	0	60	34674
2026-01-28 11:51:13.82	22.61	1.32	-47.0	-59.9	3.5	1.52e+00	0	33	104	0	60	34605
2026-01-28 11:51:16.85	22.90	1.46	-47.0	-59.8	3.5	1.52e+00	0	33	104	0	60	34429
2026-01-28 11:51:19.88	23.19	1.59	-47.0	-59.9	3.5	1.52e+00	0	33	104	0	60	34575
2026-01-28 11:51:22.91	23.49	1.72	-47.0	-59.9	3.5	1.52e+00	0	33	104	0	60	34536
2026-01-28 11:51:25.94	23.79	1.85	-47.0	-59.8	3.5	1.52e+00	0	33	104	0	60	34161
2026-01-28 11:51:28.96	24.09	1.98	-47.0	-59.8	3.5	1.52e+00	0	33	104	0	60	34268
2026-01-28 11:51:31.99	24.39	2.11	-47.0	-59.8	3.5	1.51e+00	0	33	104	0	60	34202
2026-01-28 11:51:35.02	24.69	2.24	-47.0	-59.7	3.5	1.52e+00	0	33	104	0	60	33921
2026-01-28 11:51:38.05	25.00	2.37	-47.0	-59.8	3.5	1.52e+00	0	33	104	0	60	34438
2026-01-28 11:51:41.07	25.31	2.51	-47.0	-59.0	3.5	1.52e+00	0	33	104	0	60	31321
2026-01-28 11:51:44.10	25.63	2.64	-47.0	-59.0	3.5	1.52e+00	0	33	104	0	60	31206
2026-01-28 11:51:47.13	25.94	2.77	-42.7	-45.1	14.2	5.30e-06	1	33	0	4194304	60	6291
2026-01-28 11:51:50.16	26.26	2.90	-38.1	-39.4	19.4	0.00e+00	1	33	0	13631488	50	5830
2026-01-28 11:51:53.19	26.58	3.03	-40.9	-42.8	16.0	0.00e+00	4	33	0	23068672	52	7638
2026-01-28 11:51:56.22	26.91	3.16	-46.9	-58.3	3.5	1.15e-02	0	33	104	28311552	60	28746
2026-01-28 11:51:59.25	27.23	3.29	-40.0	-41.5	17.9	0.00e+00	0	33	0	31457280	54	5899
2026-01-28 11:52:02.27	27.56	3.42	-38.9	-40.2	18.9	0.00e+00	3	33	0	40894464	52	5701
2026-01-28 11:52:05.30	27.89	3.55	-38.2	-39.5	19.7	0.00e+00	2	33	0	50331648	50	5871
2026-01-28 11:52:08.34	28.23	3.68	-38.2	-39.5	19.7	0.00e+00	0	33	0	59768832	48	6610
2026-01-28 11:52:11.37	28.57	3.81	-38.4	-39.7	19.4	0.00e+00	1	33	0	69206016	48	6778
2026-01-28 11:52:14.40	28.91	3.94	-38.0	-39.2	19.9	0.00e+00	2	33	0	78643200	48	6390
2026-01-28 11:52:17.43	29.25	4.07	-38.1	-39.3	20.0	0.00e+00	3	33	0	89128960	48	6462
2026-01-28 11:52:20.46	29.60	4.20	-37.6	-38.8	20.4	0.00e+00	0	33	0	97517568	48	6102
2026-01-28 11:52:23.48	29.95	4.33	-38.7	-40.0	19.0	0.00e+00	1	33	0	108003328	48	6986
2026-01-28 11:52:26.51	30.30	4.46	-38.1	-39.4	19.8	0.00e+00	2	33	0	117440512	50	5800
2026-01-28 11:52:29.55	30.66	4.59	-38.2	-39.5	20.1	0.00e+00	3	33	0	126877696	50	5883
2026-01-28 11:52:32.58	31.02	4.72	-37.7	-38.9	20.3	0.00e+00	4	33	0	136314880	50	5506
2026-01-28 11:52:35.61	31.38	4.85	-37.6	-38.8	20.5	0.00e+00	2	33	0	145752064	48	6097
2026-01-28 11:52:38.64	31.74	4.97	-36.7	-37.8	21.3	0.00e+00	1	33	0	155189248	48	5413
2026-01-28 11:52:41.67	32.11	5.10	-37.2	-38.3	20.8	0.00e+00	0	33	0	164626432	46	6455
2026-01-28 11:52:44.70	32.48	5.23	-37.5	-38.6	20.7	0.00e+00	5	33	0	174063616	46	6696
2026-01-28 11:52:47.72	32.85	5.36	-37.3	-38.4	20.8	0.00e+00	3	33	0	183500800	46	6544
2026-01-28 11:52:50.76	33.23	5.48	-37.1	-38.3	21.0	0.00e+00	0	33	0	192937984	46	6439
2026-01-28 11:52:53.78	33.61	5.61	-36.8	-37.9	21.4	0.00e+00	4	33	0	202375168	46	6180
2026-01-28 11:52:56.81	34.00	5.74	-36.8	-37.9	21.4	0.00e+00	2	33	0	211812352	46	6167
2026-01-28 11:52:59.84	34.38	5.86	-37.0	-38.2	21.3	0.00e+00	1	33	0	221249536	46	6361
2026-01-28 11:53:02.87	34.77	5.99	-37.2	-38.3	21.0	0.00e+00	2	33	0	230686720	46	6461
2026-01-28 11:53:05.90	35.16	6.11	-36.7	-37.8	21.4	0.00e+00	3	33	0	240123904	46	6091
2026-01-28 11:53:08.92	35.56	6.23	-37.3	-38.5	20.9	0.00e+00	2	33	0	249561088	46	6595
2026-01-28 11:53:11.95	35.96	6.36	-37.3	-38.4	21.0	0.00e+00	4	33	0	258998272	46	6560
2026-01-28 11:53:14.98	36.36	6.48	-36.9	-38.0	21.3	0.00e+00	2	33	0	268435456	46	6261
2026-01-28 11:53:18.02	36.77	6.60	-36.6	-37.7	21.6	0.00e+00	2	33	0	277872640	46	6028
2026-01-28 11:53:21.04	37.18	6.72	-36.5	-37.5	21.8	0.00e+00	3	33	0	287309824	46	5906
2026-01-28 11:53:24.07	37.59	6.84	-36.4	-37.4	21.8	0.00e+00	2	33	0	296747008	46	5857
2026-01-28 11:53:27.10	38.01	6.96	-36.7	-37.8	21.6	0.00e+00	1	33	0	306184192	46	6112
2026-01-28 11:53:30.13	38.43	7.08	-36.3	-37.4	22.0	0.00e+00	0	33	0	315621376	46	5804
2026-01-28 11:53:33.16	38.85	7.20	-36.3	-37.4	22.0	0.00e+00	2	33	0	325058560	46	5804
2026-01-28 11:53:36.19	39.27	7.32	-36.3	-37.3	22.0	0.00e+00	0	33	0	334495744	46	5785
2026-01-28 11:53:39.22	39.70	7.44	-36.3	-37.3	22.1	0.00e+00	0	33	0	343932928	46	5742
2026-01-28 11:53:42.24	40.13	7.55	-36.0	-37.0	22.3	0.00e+00	2	33	0	353370112	46	5556
2026-01-28 11:53:45.27	40.57	7.67	-36.1	-37.2	22.3	0.00e+00	0	33	0	362807296	46	5671
2026-01-28 11:53:48.30	41.01	7.78	-35.8	-36.8	22.5	0.00e+00	2	33	0	372244480	46	5454
2026-01-28 11:53:51.33	41.45	7.90	-35.8	-36.9	22.5	0.00e+00	6	33	0	381681664	44	6148
2026-01-28 11:53:54.36	41.90	8.01	-36.0	-37.0	22.3	0.00e+00	4	33	0	391118848	44	6244
2026-01-28 11:53:57.38	42.35	8.12	-35.8	-36.8	22.6	0.00e+00	4	33	0	400556032	44	6067
2026-01-28 11:54:00.42	42.80	8.23	-35.9	-36.9	22.4	0.00e+00	0	33	0	409993216	44	6174
2026-01-28 11:54:03.44	43.25	8.34	-35.8	-36.8	22.5	0.00e+00	0	33	0	419430400	44	6121
2026-01-28 11:54:06.47	43.71	8.45	-35.9	-36.9	22.5	0.00e+00	2	33	0	429916160	44	6138
2026-01-28 11:54:09.50	44.18	8.56	-35.9	-36.9	22.4	0.00e+00	0	33	0	438304768	44	6200
2026-01-28 11:54:12.53	44.64	8.66	-36.0	-37.0	22.4	0.00e+00	0	34	0	448790528	44	6268
2026-01-28 11:54:15.56	45.11	8.77	-35.9	-36.9	22.5	0.00e+00	1	33	0	458227712	44	6149
2026-01-28 11:54:18.59	45.58	8.87	-35.7	-36.7	22.7	0.00e+00	0	33	0	467664896	44	5995
2026-01-28 11:54:21.62	46.06	8.98	-35.6	-36.5	22.7	0.00e+00	1	34	0	477102080	44	5910
2026-01-28 11:54:24.65	46.54	9.08	-35.7	-36.7	22.6	0.00e+00	0	33	0	486539264	44	6044
2026-01-28 11:54:27.68	47.02	9.18	-35.9	-36.9	22.4	0.00e+00	1	34	0	495976448	44	6203
2026-01-28 11:54:30.71	47.51	9.28	-35.6	-36.6	22.7	0.00e+00	2	34	0	505413632	44	5929
2026-01-28 11:54:33.74	48.00	9.37	-35.7	-36.7	22.6	0.00e+00	3	33	0	514850816	44	6035
2026-01-28 11:54:36.77	48.49	9.47	-35.6	-36.6	22.7	0.00e+00	4	34	0	524288000	44	5980
2026-01-28 11:54:39.80	48.98	9.56	-35.9	-36.9	22.5	0.00e+00	5	34	0	533725184	44	6144
2026-01-28 11:54:42.82	49.48	9.66	-35.7	-36.7	22.6	0.00e+00	0	34	0	543162368	44	6048
2026-01-28 11:54:45.86	49.98	9.75	-35.8	-36.8	22.6	0.00e+00	0	34	0	552599552	44	6096
2026-01-28 11:54:48.89	50.49	9.84	-35.6	-36.6	22.7	0.00e+00	0	34	0	562036736	44	5984
2026-01-28 11:54:51.91	50.99	9.93	-35.4	-36.4	22.9	0.00e+00	2	34	0	571473920	44	5826
2026-01-28 11:54:54.95	51.50	10.01	-35.7	-36.7	22.7	0.00e+00	2	33	0	580911104	44	6022
2026-01-28 11:54:57.98	52.02	10.10	-35.6	-36.6	22.8	0.00e+00	3	34	0	590348288	44	5968
2026-01-28 11:55:01.01	52.53	10.18	-35.8	-36.8	22.5	0.00e+00	2	34	0	599785472	44	6125
2026-01-28 11:55:04.03	53.05	10.26	-35.5	-36.5	22.8	0.00e+00	2	34	0	609222656	44	5890
2026-01-28 11:55:07.06	53.57	10.34	-35.6	-36.5	22.7	0.00e+00	6	34	0	618659840	44	5913
2026-01-28 11:55:10.09	54.09	10.42	-35.5	-36.4	22.9	0.00e+00	2	34	0	628097024	44	5857
2026-01-28 11:55:13.12	54.62	10.50	-35.5	-36.5	22.9	0.00e+00	0	34	0	637534208	44	5867
2026-01-28 11:55:16.15	55.15	10.57	-35.5	-36.5	22.9	0.00e+00	2	34	0	646971392	44	5874
2026-01-28 11:55:19.18	55.68	10.64	-35.7	-36.7	22.7	0.00e+00	4	34	0	656408576	44	6015
2026-01-28 11:55:22.21	56.22	10.71	-35.7	-36.6	22.7	0.00e+00	4	34	0	665845760	44	5992
2026-01-28 11:55:25.24	56.76	10.78	-35.4	-36.4	22.9	0.00e+00	0	34	0	675282944	44	5806
2026-01-28 11:55:28.27	57.29	10.85	-35.6	-36.6	22.7	0.00e+00	0	34	0	684720128	44	5984
2026-01-28 11:55:31.30	57.84	10.91	-35.8	-36.8	22.6	0.00e+00	0	34	0	694157312	44	6069
2026-01-28 11:55:34.33	58.38	10.97	-35.7	-36.7	22.8	0.00e+00	2	34	0	703594496	44	6029
2026-01-28 11:55:37.36	58.93	11.03	-35.6	-36.6	22.9	0.00e+00	1	34	0	713031680	44	5970
2026-01-28 11:55:40.39	59.48	11.09	-35.6	-36.6	22.7	0.00e+00	2	34	0	722468864	44	5961
2026-01-28 11:55:43.42	60.03	11.15	-35.6	-36.6	22.7	0.00e+00	1	34	0	731906048	44	5938
2026-01-28 11:55:46.45	60.58	11.20	-35.3	-36.2	23.0	0.00e+00	1	34	0	741343232	44	5714
2026-01-28 11:55:49.48	61.13	11.25	-35.3	-36.2	23.0	0.00e+00	1	34	0	751828992	44	5723
2026-01-28 11:55:52.50	61.69	11.30	-35.6	-36.6	22.8	0.00e+00	1	34	0	760217600	44	5938
2026-01-28 11:55:55.53	62.25	11.34	-35.4	-36.3	22.9	0.00e+00	2	34	0	770703360	44	5787
2026-01-28 11:55:58.56	62.81	11.39	-35.3	-36.3	23.1	0.00e+00	1	34	0	779091968	44	5751
2026-01-28 11:56:01.59	63.37	11.43	-35.2	-36.2	23.0	0.00e+00	1	34	0	789577728	44	5717
2026-01-28 11:56:04.62	63.93	11.47	-35.2	-36.1	23.0	0.00e+00	4	34	0	799014912	44	5659
2026-01-28 11:56:07.65	64.50	11.51	-35.4	-36.4	23.0	0.00e+00	0	34	0	808452096	44	5800
2026-01-28 11:56:10.68	65.06	11.54	-35.3	-36.2	23.1	0.00e+00	1	34	0	817889280	44	5700
2026-01-28 11:56:13.71	65.63	11.57	-34.9	-35.9	23.4	0.00e+00	2	34	0	827326464	44	5504
2026-01-28 11:56:16.74	66.20	11.60	-34.9	-35.8	23.5	0.00e+00	3	34	0	836763648	44	5452
2026-01-28 11:56:19.77	66.77	11.63	-35.0	-36.0	23.1	0.00e+00	3	34	0	846200832	44	5565
2026-01-28 11:56:22.79	67.34	11.65	-34.9	-35.8	23.3	0.00e+00	2	34	0	855638016	44	5447
2026-01-28 11:56:25.83	67.91	11.68	-34.8	-35.7	23.3	0.00e+00	0	34	0	865075200	44	5380
2026-01-28 11:56:28.86	68.48	11.69	-35.0	-35.9	23.2	0.00e+00	2	34	0	874512384	44	5512
2026-01-28 11:56:31.89	69.06	11.71	-35.0	-35.9	23.2	0.00e+00	0	34	0	883949568	44	5505
2026-01-28 11:56:34.92	69.63	11.73	-34.9	-35.9	23.3	0.00e+00	2	34	0	893386752	44	5494
2026-01-28 11:56:37.96	70.21	11.74	-34.9	-35.8	23.3	0.00e+00	2	34	0	902823936	44	5442
2026-01-28 11:56:40.99	70.78	11.75	-34.9	-35.9	23.3	0.00e+00	2	34	0	912261120	44	5498
2026-01-28 11:56:44.02	71.36	11.75	-34.9	-35.8	23.3	0.00e+00	1	34	0	921698304	44	5457
2026-01-28 11:56:47.05	71.93	11.76	-34.9	-35.9	23.3	0.00e+00	0	34	0	931135488	44	5496
2026-01-28 11:56:50.08	72.51	11.76	-34.9	-35.9	23.4	0.00e+00	0	34	0	940572672	44	5469
2026-01-28 11:56:53.11	73.08	11.76	-34.8	-35.8	23.3	0.00e+00	0	34	0	950009856	44	5444
2026-01-28 11:56:56.14	73.66	11.75	-35.3	-36.3	22.9	0.00e+00	3	34	0	959447040	44	5779
2026-01-28 11:56:59.17	74.23	11.75	-35.1	-36.0	23.3	0.00e+00	2	34	0	968884224	44	5586
2026-01-28 11:57:02.20	74.81	11.74	-35.0	-36.0	23.2	0.00e+00	2	34	0	978321408	44	5554
2026-01-28 11:57:05.23	75.38	11.73	-35.3	-36.3	23.0	0.00e+00	4	34	0	987758592	44	5775
2026-01-28 11:57:08.26	75.96	11.71	-35.3	-36.3	23.1	0.00e+00	0	34	0	997195776	44	5737
2026-01-28 11:57:11.28	76.53	11.70	-35.3	-36.3	23.1	0.00e+00	4	34	0	1006632960	44	5758
2026-01-28 11:57:14.31	77.10	11.68	-35.2	-36.1	23.2	0.00e+00	4	34	0	1016070144	44	5644
2026-01-28 11:57:17.34	77.67	11.66	-34.9	-35.9	23.4	0.00e+00	0	34	0	1025507328	44	5486
2026-01-28 11:57:20.37	78.24	11.63	-35.2	-36.1	23.1	0.00e+00	2	34	0	1034944512	44	5658
2026-01-28 11:57:23.40	78.81	11.61	-35.4	-36.4	22.9	0.00e+00	2	34	0	1044381696	44	5806
2026-01-28 11:57:26.43	79.38	11.58	-34.7	-35.7	23.4	0.00e+00	0	34	0	1053818880	44	5354
2026-01-28 11:57:29.46	79.95	11.54	-35.0	-35.9	23.3	0.00e+00	1	34	0	1063256064	42	6193
2026-01-28 11:57:32.49	80.52	11.51	-35.0	-36.0	23.3	0.00e+00	1	34	0	1072693248	42	6235
2026-01-28 11:57:35.53	81.09	11.47	-35.3	-36.2	23.2	0.00e+00	1	34	0	1083179008	42	6420
2026-01-28 11:57:38.56	81.65	11.43	-35.3	-36.2	23.2	0.00e+00	2	34	0	1092616192	42	6416
2026-01-28 11:57:41.59	82.21	11.39	-35.3	-36.3	23.1	0.00e+00	2	34	0	1102053376	42	6433
2026-01-28 11:57:44.62	82.78	11.35	-35.2	-36.2	23.1	0.00e+00	2	34	0	1111490560	42	6395
2026-01-28 11:57:47.64	83.33	11.30	-35.6	-36.6	22.7	0.00e+00	0	34	0	1120927744	42	6718
2026-01-28 11:57:50.67	83.89	11.26	-35.2	-36.2	23.1	0.00e+00	4	34	0	1130364928	42	6363
2026-01-28 11:57:53.70	84.45	11.20	-35.1	-36.1	23.2	0.00e+00	3	34	0	1139802112	42	6316
2026-01-28 11:57:56.73	85.00	11.15	-35.4	-36.4	23.0	0.00e+00	4	34	0	1149239296	42	6526
2026-01-28 11:57:59.77	85.56	11.10	-35.3	-36.3	23.0	0.00e+00	3	34	0	1158676480	42	6444
2026-01-28 11:58:02.80	86.11	11.04	-35.2	-36.1	23.3	0.00e+00	2	34	0	1168113664	42	6334
2026-01-28 11:58:05.83	86.66	10.98	-35.1	-36.1	23.3	0.00e+00	0	34	0	1177550848	42	6281
2026-01-28 11:58:08.86	87.20	10.92	-35.1	-36.0	23.3	0.00e+00	2	34	0	1186988032	42	6253
2026-01-28 11:58:11.89	87.75	10.85	-35.2	-36.2	23.2	0.00e+00	0	34	0	1196425216	42	6357
2026-01-28 11:58:14.92	88.29	10.79	-35.3	-36.3	23.2	0.00e+00	4	34	0	1205862400	42	6447
2026-01-28 11:58:17.95	88.83	10.72	-35.3	-36.4	23.2	0.00e+00	2	34	0	1215299584	42	6499
2026-01-28 11:58:20.97	89.36	10.65	-35.1	-36.1	23.3	0.00e+00	2	34	0	1224736768	42	6320
2026-01-28 11:58:24.00	89.90	10.58	-35.3	-36.2	23.2	0.00e+00	2	34	0	1234173952	42	6407
2026-01-28 11:58:27.03	90.43	10.50	-35.1	-36.1	23.2	0.00e+00	0	34	0	1243611136	42	6318
2026-01-28 11:58:30.06	90.96	10.43	-35.3	-36.3	23.1	0.00e+00	0	34	0	1253048320	42	6427
2026-01-28 11:58:33.09	91.48	10.35	-35.5	-36.5	22.9	0.00e+00	1	34	0	1262485504	42	6603
2026-01-28 11:58:36.12	92.01	10.27	-35.3	-36.3	23.1	0.00e+00	0	34	0	1271922688	42	6451
2026-01-28 11:58:39.16	92.53	10.19	-35.5	-36.5	22.7	0.00e+00	2	34	0	1281359872	44	5904
2026-01-28 11:58:42.19	93.05	10.10	-35.5	-36.5	22.8	0.00e+00	2	34	0	1290797056	44	5893
2026-01-28 11:58:45.21	93.56	10.02	-35.5	-36.4	22.8	0.00e+00	0	34	0	1300234240	44	5845
2026-01-28 11:58:48.24	94.07	9.93	-35.4	-36.4	22.8	0.00e+00	3	34	0	1309671424	44	5835
2026-01-28 11:58:51.27	94.58	9.84	-35.4	-36.4	22.9	0.00e+00	2	34	0	1319108608	44	5822
2026-01-28 11:58:54.29	95.09	9.75	-35.2	-36.2	22.9	0.00e+00	1	34	0	1328545792	44	5720
2026-01-28 11:58:57.32	95.59	9.66	-35.1	-36.1	23.1	0.00e+00	1	34	0	1337982976	44	5640
2026-01-28 11:59:00.35	96.09	9.57	-35.2	-36.1	23.0	0.00e+00	4	34	0	1347420160	44	5647
2026-01-28 11:59:03.38	96.59	9.47	-35.4	-36.3	22.9	0.00e+00	2	34	0	1356857344	44	5788
2026-01-28 11:59:06.41	97.08	9.37	-35.5	-36.5	22.8	0.00e+00	2	34	0	1366294528	44	5866
2026-01-28 11:59:09.44	97.57	9.28	-35.8	-36.8	22.5	0.00e+00	0	34	0	1375731712	44	6111
2026-01-28 11:59:12.47	98.06	9.18	-35.6	-36.7	22.6	0.00e+00	2	34	0	1385168896	44	6055
2026-01-28 11:59:15.49	98.54	9.08	-35.5	-36.5	22.7	0.00e+00	0	34	0	1394606080	44	5903
2026-01-28 11:59:18.52	99.03	8.97	-35.4	-36.4	22.8	0.00e+00	2	34	0	1405091840	44	5825
2026-01-28 11:59:21.55	99.50	8.87	-35.9	-36.9	22.5	0.00e+00	1	34	0	1413480448	44	6145
2026-01-28 11:59:24.58	99.98	8.77	-36.2	-37.2	22.0	0.00e+00	0	34	0	1423966208	44	6423
2026-01-28 11:59:27.61	100.45	8.66	-36.1	-37.2	22.2	0.00e+00	0	34	0	1433403392	44	6363
2026-01-28 11:59:30.64	100.92	8.55	-36.0	-37.0	22.3	0.00e+00	2	34	0	1442840576	44	6236
2026-01-28 11:59:33.67	101.38	8.44	-36.1	-37.1	22.2	0.00e+00	1	34	0	1452277760	44	6304
2026-01-28 11:59:36.71	101.85	8.33	-36.4	-37.5	22.0	0.00e+00	2	34	0	1461714944	44	6580
2026-01-28 11:59:39.74	102.31	8.22	-35.9	-37.0	22.2	0.00e+00	4	34	0	1471152128	44	6229
2026-01-28 11:59:42.77	102.76	8.11	-36.0	-37.2	22.0	0.00e+00	2	34	0	1480589312	44	6394
2026-01-28 11:59:45.80	103.21	8.00	-36.1	-37.3	22.0	0.00e+00	2	34	0	1490026496	44	6474
2026-01-28 11:59:48.83	103.66	7.89	-36.0	-37.0	22.1	0.00e+00	3	34	0	1499463680	44	6275
2026-01-28 11:59:51.86	104.11	7.77	-36.2	-37.2	22.0	0.00e+00	0	34	0	1508900864	44	6403
2026-01-28 11:59:54.89	104.55	7.66	-36.0	-37.1	22.0	0.00e+00	0	34	0	1518338048	44	6324
2026-01-28 11:59:57.92	104.98	7.54	-36.3	-37.3	21.9	0.00e+00	4	34	0	1527775232	44	6479
2026-01-28 12:00:00.95	105.42	7.42	-36.5	-37.5	21.8	0.00e+00	0	34	0	1537212416	44	6639
2026-01-28 12:00:03.98	105.85	7.30	-36.8	-37.9	21.5	0.00e+00	0	34	0	1546649600	44	6902
2026-01-28 12:00:07.01	106.28	7.18	-36.2	-37.3	22.0	0.00e+00	2	34	0	1556086784	46	5736
2026-01-28 12:00:10.03	106.70	7.06	-36.3	-37.5	21.9	0.00e+00	0	34	0	1565523968	46	5872
2026-01-28 12:00:13.06	107.12	6.94	-36.4	-37.5	21.8	0.00e+00	2	34	0	1574961152	46	5895
2026-01-28 12:00:16.09	107.54	6.82	-36.4	-37.5	21.8	0.00e+00	0	34	0	1584398336	46	5861
2026-01-28 12:00:19.12	107.96	6.70	-36.4	-37.6	21.8	0.00e+00	2	33	0	1593835520	46	5944
2026-01-28 12:00:22.16	108.37	6.58	-36.5	-37.7	21.6	0.00e+00	2	34	0	1603272704	46	6014
2026-01-28 12:00:25.19	108.78	6.45	-36.7	-37.9	21.5	0.00e+00	0	34	0	1612709888	46	6150
2026-01-28 12:00:28.22	109.18	6.33	-36.6	-37.7	21.6	0.00e+00	2	34	0	1622147072	46	6022
2026-01-28 12:00:31.24	109.58	6.21	-36.5	-37.6	21.7	0.00e+00	0	34	0	1631584256	46	5971
2026-01-28 12:00:34.27	109.98	6.08	-36.8	-38.0	21.2	0.00e+00	0	34	0	1641021440	46	6231
2026-01-28 12:00:37.30	110.38	5.96	-36.8	-37.9	21.4	0.00e+00	0	34	0	1650458624	46	6190
2026-01-28 12:00:40.33	110.77	5.83	-36.6	-37.7	21.5	0.00e+00	2	33	0	1659895808	46	6025
2026-01-28 12:00:43.36	111.16	5.70	-36.6	-37.7	21.5	0.00e+00	0	34	0	1669332992	46	6048
2026-01-28 12:00:46.38	111.54	5.58	-36.5	-37.6	21.4	0.00e+00	4	34	0	1678770176	46	5985
2026-01-28 12:00:49.42	111.92	5.45	-37.0	-38.1	21.0	0.00e+00	0	34	0	1688207360	46	6310
2026-01-28 12:00:52.43	112.30	5.32	-37.2	-38.3	21.0	0.00e+00	0	34	0	1697644544	46	6453
2026-01-28 12:00:55.46	112.67	5.19	-37.0	-38.1	21.0	0.00e+00	2	34	0	1707081728	46	6345
2026-01-28 12:00:58.49	113.05	5.06	-37.0	-38.1	21.1	0.00e+00	0	34	0	1716518912	46	6315
2026-01-28 12:01:01.50	113.41	4.94	-36.8	-37.9	21.3	0.00e+00	0	34	0	1725956096	46	6154
2026-01-28 12:01:04.53	113.78	4.81	-37.0	-38.1	21.1	0.00e+00	2	34	0	1735393280	46	6304
2026-01-28 12:01:07.56	114.14	4.68	-37.3	-38.4	20.7	0.00e+00	4	34	0	1744830464	46	6564
2026-01-28 12:01:10.59	114.50	4.55	-37.5	-38.7	20.2	0.00e+00	2	34	0	1754267648	46	6778
2026-01-28 12:01:13.62	114.86	4.42	-37.2	-38.4	20.6	0.00e+00	0	34	0	1764753408	46	6513
2026-01-28 12:01:16.65	115.21	4.29	-37.5	-38.7	20.3	0.00e+00	2	34	0	1773142016	48	6027
2026-01-28 12:01:19.68	115.57	4.16	-36.8	-38.0	20.9	0.00e+00	0	34	0	1783627776	48	5556
2026-01-28 12:01:22.71	115.91	4.02	-37.5	-38.7	20.5	0.00e+00	0	34	0	1793064960	46	6753
2026-01-28 12:01:25.74	116.26	3.89	-37.4	-38.6	20.6	0.00e+00	2	34	0	1802502144	46	6677
2026-01-28 12:01:28.77	116.60	3.76	-36.8	-37.9	20.8	0.00e+00	2	34	0	1811939328	48	5523
2026-01-28 12:01:31.80	116.94	3.63	-37.6	-38.8	20.1	0.00e+00	0	34	0	1821376512	48	6099
2026-01-28 12:01:34.83	117.28	3.50	-37.9	-39.2	19.6	0.00e+00	0	34	0	1830813696	48	6411
2026-01-28 12:01:37.86	117.61	3.37	-37.8	-39.2	19.6	0.00e+00	2	34	0	1840250880	48	6398
2026-01-28 12:01:40.89	117.94	3.23	-38.2	-39.6	19.3	0.00e+00	2	34	0	1849688064	48	6723
2026-01-28 12:01:43.92	118.27	3.10	-37.7	-39.0	19.8	0.00e+00	2	34	0	1859125248	48	6215
2026-01-28 12:01:46.95	118.59	2.97	-46.9	-60.0	3.5	1.08e+00	0	34	104	1867513856	60	35099
2026-01-28 12:01:49.98	118.91	2.84	-48.1	-61.0	3.5	1.52e+00	0	34	104	1867513856	60	39277
2026-01-28 12:01:53.01	119.23	2.70	-48.5	-61.3	3.5	1.52e+00	0	34	104	1867513856	60	40783
2026-01-28 12:01:56.04	119.55	2.57	-48.6	-61.5	3.5	1.52e+00	0	34	104	1867513856	60	41508
2026-01-28 12:01:59.07	119.86	2.44	-48.6	-61.5	3.5	1.51e+00	0	34	104	1867513856	60	41595
2026-01-28 12:02:02.10	120.18	2.31	-48.6	-61.5	3.5	1.51e+00	0	34	104	1867513856	60	41660
2026-01-28 12:02:05.13	120.48	2.17	-48.4	-61.5	3.5	1.52e+00	0	34	104	1867513856	60	41749
2026-01-28 12:02:08.16	120.79	2.04	-48.6	-61.5	3.5	1.52e+00	0	34	104	1867513856	60	41889
2026-01-28 12:02:11.19	121.09	1.91	-48.6	-61.5	3.5	1.52e+00	0	34	104	1867513856	60	41585
2026-01-28 12:02:14.22	121.39	1.78	-48.6	-61.4	3.5	1.52e+00	0	34	104	1867513856	60	41459
2026-01-28 12:02:17.25	121.69	1.64	-48.5	-61.4	3.5	1.52e+00	0	34	104	1867513856	60	41160
2026-01-28 12:02:20.28	121.99	1.51	-48.6	-61.5	3.5	1.52e+00	0	34	104	1867513856	60	41546
2026-01-28 12:02:23.31	122.28	1.38	-48.5	-61.4	3.5	1.52e+00	0	34	104	1867513856	60	41436
2026-01-28 12:02:26.34	122.57	1.24	-48.5	-61.4	3.5	1.51e+00	0	34	104	1867513856	60	41395
2026-01-28 12:02:29.36	122.86	1.11	-48.5	-61.4	3.5	1.52e+00	0	34	104	1867513856	60	41223
2026-01-28 12:02:32.39	123.14	0.98	-48.5	-61.4	3.5	1.52e+00	0	34	104	1867513856	60	41028
2026-01-28 12:02:35.43	123.43	0.85	-48.5	-61.4	3.5	1.51e+00	0	34	104	1867513856	60	41170
2026-01-28 12:02:38.46	123.71	0.71	-48.5	-61.4	3.5	1.52e+00	0	34	104	1867513856	60	41356
2026-01-28 12:02:41.49	123.99	0.58	-48.5	-61.4	3.5	1.52e+00	0	34	104	1867513856	60	41027
2026-01-28 12:02:44.52	124.26	0.45	-48.5	-61.4	3.5	1.52e+00	0	34	104	1867513856	60	41239
2026-01-28 12:02:47.54	124.54	0.32	-48.5	-61.4	3.5	1.52e+00	0	34	104	1867513856	60	41322
2026-01-28 12:02:50.57	124.81	0.19	-48.5	-61.4	3.5	1.51e+00	0	34	104	1867513856	60	41234
2026-01-28 12:02:53.60	125.08	0.05	-48.5	-61.4	3.5	1.52e+00	0	34	104	1867513856	60	41075
2026-01-28 12:02:56.63	125.35	-0.08	-48.5	-61.4	3.5	1.52e+00	0	34	104	1867513856	60	41280

#Closed at: 2026-01-28 12:02:56
#Recorded file [1867 MB]: D:/lorett/data/35029_260128_235046.dat