passes_logs/2026/01/28/R4.6S_Anadyr/R4.6S_Anadyr__20260128_222557_TY-39_rec.log

#Pass ID: 20260128_222557_TY-39
#Satellite: TY-39
#Configuration: TY-39
#almurnet v.1.7.20251203
#Start time: 2026-01-28 22:26:01

#Version: 2.2.20231116
#Station: R4.6S_Anadyr
#Location: 177.4865 lon 64.73178 lat
#TLE: 1 51832U 22019J   26027.86422561  .00002582  00000-0  12388-3 0  9996
#TLE: 2 51832  97.3621  94.2395 0008889  11.0507 349.0921 15.19733422216484

#Time	Az	El	Level	Level2	SNR	BER	BlckErr	Temp	State	Recorded	gain1	gain2
2026-01-28 22:26:01.62	18.51	0.26	-49.1	-66.8	3.5	3.03e+01	0	28	0	0	60	84545
2026-01-28 22:26:04.65	18.59	0.45	-49.1	-51.5	3.6	0.00e+00	0	30	104	0	60	46202
2026-01-28 22:26:07.68	18.68	0.65	-49.1	-51.6	3.6	0.00e+00	0	30	104	0	60	46408
2026-01-28 22:26:10.71	18.77	0.84	-49.0	-51.5	3.6	0.00e+00	0	30	104	0	60	46125
2026-01-28 22:26:13.73	18.86	1.04	-48.8	-51.3	3.5	0.00e+00	0	30	104	0	60	44975
2026-01-28 22:26:16.77	18.95	1.24	-48.2	-50.8	3.6	0.00e+00	0	31	104	0	60	42233
2026-01-28 22:26:19.79	19.05	1.44	-48.1	-50.6	3.6	0.00e+00	0	30	104	0	60	41529
2026-01-28 22:26:22.82	19.14	1.65	-47.7	-50.2	3.6	0.00e+00	0	31	104	0	60	39682
2026-01-28 22:26:25.85	19.23	1.85	-47.7	-50.2	3.6	0.00e+00	0	31	104	0	60	39613
2026-01-28 22:26:28.88	19.33	2.06	-47.7	-50.2	3.6	0.00e+00	0	31	104	0	60	39695
2026-01-28 22:26:31.91	19.43	2.27	-47.7	-50.2	3.6	0.00e+00	0	31	104	0	60	39548
2026-01-28 22:26:34.94	19.53	2.48	-47.7	-50.2	3.6	0.00e+00	0	31	104	0	60	39660
2026-01-28 22:26:37.97	19.63	2.69	-47.7	-50.2	3.6	0.00e+00	0	31	104	0	60	39475
2026-01-28 22:26:41.00	19.74	2.91	-47.7	-50.2	3.6	0.00e+00	0	31	104	0	60	39631
2026-01-28 22:26:44.03	19.84	3.12	-47.7	-50.2	3.6	0.00e+00	0	31	104	0	60	39658
2026-01-28 22:26:47.06	19.95	3.34	-47.7	-50.2	3.6	0.00e+00	0	31	104	0	60	39413
2026-01-28 22:26:50.09	20.06	3.57	-47.7	-50.1	3.6	0.00e+00	0	31	104	0	60	39348
2026-01-28 22:26:53.12	20.17	3.79	-47.7	-50.1	3.6	0.00e+00	0	31	104	0	60	39356
2026-01-28 22:26:56.15	20.28	4.02	-47.7	-50.2	3.6	0.00e+00	0	31	104	0	60	39481
2026-01-28 22:26:59.18	20.39	4.24	-47.6	-50.1	3.6	0.00e+00	0	31	104	0	60	39153
2026-01-28 22:27:02.21	20.51	4.48	-47.9	-50.3	3.6	0.00e+00	0	31	104	0	60	40321
2026-01-28 22:27:05.24	20.63	4.71	-47.7	-50.0	3.6	5.33e-02	0	31	104	8388608	60	38933
2026-01-28 22:27:08.27	20.75	4.95	-44.1	-43.9	4.4	0.00e+00	1402	32	0	25165824	60	19236
2026-01-28 22:27:11.29	20.87	5.19	-43.3	-43.2	4.8	3.96e-01	2228	32	0	251658240	60	17653
2026-01-28 22:27:14.32	21.00	5.43	-43.0	-42.8	5.3	2.31e-01	2217	32	0	436207616	60	16969
2026-01-28 22:27:17.35	21.12	5.67	-42.0	-42.0	5.9	5.42e-02	2080	32	0	662700032	60	15335
2026-01-28 22:27:20.38	21.25	5.92	-41.5	-41.5	6.4	3.66e-01	0	32	0	889192448	56	18416
2026-01-28 22:27:23.40	21.38	6.17	-37.2	-37.5	10.6	9.66e-03	0	32	0	1115684864	50	16377
2026-01-28 22:27:26.42	21.52	6.42	-36.7	-37.0	10.6	2.77e-03	0	32	0	1342177280	48	17243
2026-01-28 22:27:29.45	21.66	6.68	-37.8	-38.1	9.8	8.91e-03	0	32	0	1568669696	50	17498
2026-01-28 22:27:32.48	21.80	6.94	-37.8	-38.1	10.0	6.47e-03	0	32	0	1795162112	50	17465
2026-01-28 22:27:35.51	21.94	7.21	-37.4	-37.7	10.6	2.77e-03	0	32	0	2021654528	50	16630
2026-01-28 22:27:38.54	22.09	7.48	-37.9	-38.2	10.2	3.59e-03	0	32	0	2248146944	50	17622
2026-01-28 22:27:41.57	22.24	7.75	-35.2	-35.6	12.5	3.40e-04	0	32	0	2474639360	46	16431
2026-01-28 22:27:44.59	22.39	8.02	-35.7	-36.0	11.8	3.05e-04	0	32	0	2709520384	46	17342
2026-01-28 22:27:47.62	22.54	8.30	-34.0	-34.4	12.9	6.93e-05	0	33	0	2936012800	44	16233
2026-01-28 22:27:50.65	22.70	8.58	-30.4	-30.8	15.1	0.00e+00	0	33	0	3162505216	36	16930
2026-01-28 22:27:53.68	22.87	8.87	-28.1	-28.5	16.0	0.00e+00	0	33	0	3388997632	32	16331
2026-01-28 22:27:56.71	23.03	9.16	-28.1	-28.5	16.0	0.00e+00	0	33	0	3615490048	32	16333
2026-01-28 22:27:59.73	23.20	9.46	-27.8	-28.3	16.0	0.00e+00	0	33	0	3841982464	32	15889
2026-01-28 22:28:02.75	23.38	9.76	-27.8	-28.2	16.1	0.00e+00	0	33	0	4068474880	30	17729
2026-01-28 22:28:05.78	23.55	10.06	-27.7	-28.2	16.1	0.00e+00	0	33	0	4294967296	30	17637
2026-01-28 22:28:08.81	23.74	10.37	-27.6	-28.0	16.1	0.00e+00	0	33	0	4521459712	30	17371
2026-01-28 22:28:11.83	23.92	10.69	-27.6	-28.1	16.1	0.00e+00	0	33	0	4747952128	30	17480
2026-01-28 22:28:14.86	24.12	11.01	-27.3	-27.8	15.8	0.00e+00	0	33	0	4974444544	30	16832
2026-01-28 22:28:17.89	24.31	11.33	-27.1	-27.6	16.0	0.00e+00	0	33	0	5200936960	30	16511
2026-01-28 22:28:20.92	24.51	11.67	-27.0	-27.4	16.0	0.00e+00	0	33	0	5427429376	30	16137
2026-01-28 22:28:23.94	24.72	12.00	-26.9	-27.3	16.3	0.00e+00	0	33	0	5653921792	30	16000
2026-01-28 22:28:26.96	24.93	12.34	-26.9	-27.4	16.3	0.00e+00	0	33	0	5880414208	28	18019
2026-01-28 22:28:30.00	25.15	12.69	-26.7	-27.1	16.3	0.00e+00	0	33	0	6115295232	28	17547
2026-01-28 22:28:33.02	25.37	13.05	-26.6	-27.1	16.3	0.00e+00	0	33	0	6333399040	28	17442
2026-01-28 22:28:36.05	25.60	13.41	-26.6	-27.1	16.3	0.00e+00	0	33	0	6568280064	28	17421
2026-01-28 22:28:39.08	25.84	13.78	-26.4	-26.8	16.4	0.00e+00	0	33	0	6794772480	28	16885
2026-01-28 22:28:42.11	26.08	14.16	-26.1	-26.6	16.5	0.00e+00	0	33	0	7021264896	28	16485
2026-01-28 22:28:45.14	26.33	14.54	-26.1	-26.5	16.5	0.00e+00	0	33	0	7247757312	28	16398
2026-01-28 22:28:48.17	26.59	14.93	-25.9	-26.3	16.6	0.00e+00	0	33	0	7474249728	28	15980
2026-01-28 22:28:51.19	26.86	15.33	-25.8	-26.2	16.5	0.00e+00	0	33	0	7700742144	28	15808
2026-01-28 22:28:54.22	27.13	15.73	-25.7	-26.1	16.4	0.00e+00	0	33	0	7927234560	26	17518
2026-01-28 22:28:57.24	27.41	16.15	-25.7	-26.1	16.6	0.00e+00	0	33	0	8153726976	26	17531
2026-01-28 22:29:00.27	27.70	16.57	-25.6	-26.0	16.6	0.00e+00	0	33	0	8380219392	26	17324
2026-01-28 22:29:03.29	28.00	17.00	-25.5	-25.9	16.5	0.00e+00	0	33	0	8606711808	26	17141
2026-01-28 22:29:06.32	28.31	17.44	-25.2	-25.7	16.7	0.00e+00	0	33	0	8833204224	26	16672
2026-01-28 22:29:09.35	28.63	17.90	-25.2	-25.6	16.7	0.00e+00	0	33	0	9059696640	26	16543
2026-01-28 22:29:12.38	28.96	18.36	-25.1	-25.5	16.6	0.00e+00	0	33	0	9286189056	26	16355
2026-01-28 22:29:15.41	29.31	18.83	-24.9	-25.3	16.8	0.00e+00	0	33	0	9521070080	26	15974
2026-01-28 22:29:18.43	29.66	19.31	-24.7	-25.2	16.7	0.00e+00	0	33	0	9739173888	24	17610
2026-01-28 22:29:21.46	30.03	19.80	-24.5	-25.0	16.8	0.00e+00	0	33	0	9974054912	24	17218
2026-01-28 22:29:24.49	30.41	20.31	-24.5	-25.0	16.8	0.00e+00	0	33	0	10200547328	24	17267
2026-01-28 22:29:27.51	30.80	20.83	-24.5	-24.9	16.8	0.00e+00	0	33	0	10427039744	24	17165
2026-01-28 22:29:30.53	31.21	21.35	-24.3	-24.7	16.8	0.00e+00	0	33	0	10653532160	24	16764
2026-01-28 22:29:33.56	31.64	21.90	-24.0	-24.5	16.9	0.00e+00	0	33	0	10880024576	24	16247
2026-01-28 22:29:36.59	32.08	22.45	-23.9	-24.3	16.9	0.00e+00	0	33	0	11106516992	24	16052
2026-01-28 22:29:39.62	32.54	23.02	-23.7	-24.2	16.8	0.00e+00	0	33	0	11333009408	22	17667
2026-01-28 22:29:42.65	33.02	23.60	-23.8	-24.2	16.8	0.00e+00	0	33	0	11559501824	22	17730
2026-01-28 22:29:45.68	33.52	24.20	-23.7	-24.1	16.9	0.00e+00	0	33	0	11785994240	22	17536
2026-01-28 22:29:48.71	34.04	24.82	-23.4	-23.9	16.9	0.00e+00	0	33	0	12012486656	22	17062
2026-01-28 22:29:51.74	34.59	25.44	-23.3	-23.8	16.9	0.00e+00	0	33	0	12247367680	22	16847
2026-01-28 22:29:54.77	35.15	26.09	-23.2	-23.6	16.9	0.00e+00	0	33	0	12465471488	22	16617
2026-01-28 22:29:57.80	35.75	26.75	-23.1	-23.5	16.9	0.00e+00	0	33	0	12700352512	22	16363
2026-01-28 22:30:00.82	36.36	27.43	-22.9	-23.3	16.9	0.00e+00	0	33	0	12918456320	22	16017
2026-01-28 22:30:03.85	37.01	28.12	-22.7	-23.1	17.0	0.00e+00	0	33	0	13153337344	20	17580
2026-01-28 22:30:06.87	37.69	28.83	-22.4	-22.8	17.0	0.00e+00	0	33	0	13379829760	20	16942
2026-01-28 22:30:09.90	38.41	29.56	-22.2	-22.7	17.0	0.00e+00	0	33	0	13606322176	20	16693
2026-01-28 22:30:12.93	39.16	30.31	-22.1	-22.5	17.0	0.00e+00	0	33	0	13832814592	20	16399
2026-01-28 22:30:15.96	39.94	31.08	-22.1	-22.5	17.0	0.00e+00	0	33	0	14059307008	20	16335
2026-01-28 22:30:18.99	40.77	31.86	-21.8	-22.3	17.1	0.00e+00	0	33	0	14285799424	20	15894
2026-01-28 22:30:22.02	41.65	32.67	-21.7	-22.1	17.0	0.00e+00	0	33	0	14512291840	18	17585
2026-01-28 22:30:25.04	42.56	33.49	-21.5	-22.0	17.0	0.00e+00	0	33	0	14738784256	18	17307
2026-01-28 22:30:28.07	43.54	34.33	-21.5	-21.9	17.1	0.00e+00	0	33	0	14965276672	18	17182
2026-01-28 22:30:31.10	44.56	35.19	-21.2	-21.6	17.1	0.00e+00	0	34	0	15191769088	18	16589
2026-01-28 22:30:34.13	45.65	36.06	-20.9	-21.4	17.1	0.00e+00	0	34	0	15418261504	18	16166
2026-01-28 22:30:37.15	46.79	36.95	-20.9	-21.3	17.0	0.00e+00	0	33	0	15644753920	18	16017
2026-01-28 22:30:40.18	48.01	37.86	-20.8	-21.3	17.1	0.00e+00	0	33	0	15871246336	18	15916
2026-01-28 22:30:43.21	49.29	38.78	-20.6	-21.1	17.1	0.00e+00	0	33	0	16106127360	16	17511
2026-01-28 22:30:46.24	50.66	39.72	-20.5	-21.0	17.1	0.00e+00	0	33	0	16332619776	16	17335
2026-01-28 22:30:49.26	52.11	40.66	-20.4	-20.8	17.2	0.00e+00	0	33	0	16559112192	16	16982
2026-01-28 22:30:52.30	53.66	41.62	-20.4	-20.9	17.2	0.00e+00	0	33	0	16785604608	16	17053
2026-01-28 22:30:55.33	55.30	42.58	-20.2	-20.7	17.2	0.00e+00	0	33	0	17012097024	16	16646
2026-01-28 22:30:58.36	57.04	43.54	-19.8	-20.3	17.2	0.00e+00	0	33	0	17238589440	16	15908
2026-01-28 22:31:01.39	58.90	44.49	-19.7	-20.2	17.2	0.00e+00	0	34	0	17465081856	14	17687
2026-01-28 22:31:04.42	60.87	45.44	-19.8	-20.2	17.2	0.00e+00	0	33	0	17691574272	14	17793
2026-01-28 22:31:07.44	62.96	46.37	-19.6	-20.0	17.2	0.00e+00	0	34	0	17918066688	14	17366
2026-01-28 22:31:10.46	65.18	47.29	-19.5	-20.0	17.1	0.00e+00	0	34	0	18144559104	14	17313
2026-01-28 22:31:13.49	67.55	48.18	-19.2	-19.7	17.1	0.00e+00	0	34	0	18371051520	14	16696
2026-01-28 22:31:16.52	70.05	49.03	-19.2	-19.7	17.2	0.00e+00	0	34	0	18597543936	14	16724
2026-01-28 22:31:19.54	72.69	49.84	-19.1	-19.6	17.2	0.00e+00	0	34	0	18832424960	14	16498
2026-01-28 22:31:22.57	75.48	50.60	-19.0	-19.5	17.2	0.00e+00	0	34	0	19050528768	14	16323
2026-01-28 22:31:25.60	78.41	51.31	-18.9	-19.4	17.2	0.00e+00	0	34	0	19285409792	14	16140
2026-01-28 22:31:28.63	81.48	51.94	-18.8	-19.3	17.3	0.00e+00	0	34	0	19503513600	14	15937
2026-01-28 22:31:31.66	84.68	52.50	-18.9	-19.4	17.2	0.00e+00	0	34	0	19738394624	14	16143
2026-01-28 22:31:34.69	87.99	52.96	-18.7	-19.2	17.2	0.00e+00	0	34	0	19964887040	14	15769
2026-01-28 22:31:37.71	91.39	53.34	-18.7	-19.2	17.3	0.00e+00	0	34	0	20191379456	12	17668
2026-01-28 22:31:40.74	94.88	53.61	-18.7	-19.2	17.2	0.00e+00	0	34	0	20417871872	12	17632
2026-01-28 22:31:43.77	98.43	53.78	-18.9	-19.4	17.3	0.00e+00	0	33	0	20644364288	12	18018
2026-01-28 22:31:46.80	102.00	53.85	-18.7	-19.2	17.2	0.00e+00	0	34	0	20870856704	12	17712
2026-01-28 22:31:49.83	105.58	53.80	-18.7	-19.2	17.2	0.00e+00	0	34	0	21097349120	12	17665
2026-01-28 22:31:52.86	109.13	53.64	-18.8	-19.2	17.4	0.00e+00	0	34	0	21323841536	12	17775
2026-01-28 22:31:55.88	112.62	53.38	-18.7	-19.2	17.2	0.00e+00	0	34	0	21550333952	12	17611
2026-01-28 22:31:58.91	116.04	53.02	-18.7	-19.2	17.2	0.00e+00	0	34	0	21776826368	12	17627
2026-01-28 22:32:01.95	119.38	52.56	-18.8	-19.2	17.3	0.00e+00	0	34	0	22011707392	12	17741
2026-01-28 22:32:04.97	122.58	52.01	-19.1	-19.6	17.2	0.00e+00	0	34	0	22229811200	12	18455
2026-01-28 22:32:08.00	125.67	51.39	-18.9	-19.4	17.2	0.00e+00	0	34	0	22464692224	12	18126
2026-01-28 22:32:11.03	128.62	50.69	-19.1	-19.5	17.2	0.00e+00	0	34	0	22691184640	12	18393
2026-01-28 22:32:14.06	131.43	49.94	-19.1	-19.6	17.2	0.00e+00	0	34	0	22917677056	12	18450
2026-01-28 22:32:17.08	134.09	49.13	-19.2	-19.6	17.2	0.00e+00	0	34	0	23144169472	12	18639
2026-01-28 22:32:20.11	136.62	48.28	-19.3	-19.8	17.3	0.00e+00	0	34	0	23370661888	12	18904
2026-01-28 22:32:23.14	139.00	47.39	-19.4	-19.9	17.2	0.00e+00	0	34	0	23597154304	12	19141
2026-01-28 22:32:26.17	141.25	46.48	-19.5	-20.0	17.2	0.00e+00	0	34	0	23823646720	12	19336
2026-01-28 22:32:29.19	143.35	45.54	-19.6	-20.0	17.2	0.00e+00	0	34	0	24050139136	12	19515
2026-01-28 22:32:32.21	145.34	44.60	-19.8	-20.3	17.2	0.00e+00	0	34	0	24276631552	14	17852
2026-01-28 22:32:35.24	147.21	43.64	-19.9	-20.4	17.2	0.00e+00	0	34	0	24503123968	14	18049
2026-01-28 22:32:38.25	148.96	42.68	-20.1	-20.6	17.2	0.00e+00	0	34	0	24729616384	14	18566
2026-01-28 22:32:41.28	150.61	41.72	-20.1	-20.6	17.2	0.00e+00	0	34	0	24956108800	14	18528
2026-01-28 22:32:44.31	152.17	40.77	-20.2	-20.7	17.2	0.00e+00	0	34	0	25182601216	14	18712
2026-01-28 22:32:47.34	153.64	39.82	-20.4	-20.8	17.1	0.00e+00	0	34	0	25409093632	14	19042
2026-01-28 22:32:50.37	155.01	38.88	-20.6	-21.0	17.2	0.00e+00	0	34	0	25635586048	14	19476
2026-01-28 22:32:53.39	156.31	37.96	-20.8	-21.3	17.2	0.00e+00	0	34	0	25870467072	16	17839
2026-01-28 22:32:56.41	157.53	37.05	-20.9	-21.3	17.2	0.00e+00	0	34	0	26088570880	16	17980
2026-01-28 22:32:59.43	158.69	36.15	-21.0	-21.5	17.1	0.00e+00	0	34	0	26315063296	16	18278
2026-01-28 22:33:02.46	159.78	35.27	-21.1	-21.6	17.1	0.00e+00	0	34	0	26549944320	16	18462
2026-01-28 22:33:05.49	160.81	34.41	-21.3	-21.7	17.1	0.00e+00	0	34	0	26768048128	16	18787
2026-01-28 22:33:08.51	161.79	33.57	-21.5	-22.0	17.1	0.00e+00	0	34	0	27002929152	16	19311
2026-01-28 22:33:11.54	162.72	32.74	-21.6	-22.1	17.1	0.00e+00	0	34	0	27229421568	18	17492
2026-01-28 22:33:14.56	163.59	31.93	-21.8	-22.3	17.1	0.00e+00	0	34	0	27455913984	18	17949
2026-01-28 22:33:17.59	164.43	31.14	-21.9	-22.3	17.1	0.00e+00	0	34	0	27682406400	18	17910
2026-01-28 22:33:20.62	165.22	30.37	-22.0	-22.5	17.0	0.00e+00	0	34	0	27908898816	18	18244
2026-01-28 22:33:23.65	165.98	29.62	-22.2	-22.6	17.1	0.00e+00	0	34	0	28135391232	18	18591
2026-01-28 22:33:26.67	166.69	28.89	-22.3	-22.7	17.1	0.00e+00	0	34	0	28361883648	18	18858
2026-01-28 22:33:29.70	167.38	28.17	-22.5	-23.0	17.1	0.00e+00	0	34	0	28588376064	18	19390
2026-01-28 22:33:32.73	168.03	27.47	-22.6	-23.1	17.0	0.00e+00	0	34	0	28814868480	20	17483
2026-01-28 22:33:35.76	168.66	26.79	-22.7	-23.2	17.0	0.00e+00	0	34	0	29041360896	20	17668
2026-01-28 22:33:38.78	169.25	26.13	-22.9	-23.4	17.0	0.00e+00	0	34	0	29267853312	20	18147
2026-01-28 22:33:41.81	169.82	25.48	-23.1	-23.6	17.0	0.00e+00	0	34	0	29494345728	20	18545
2026-01-28 22:33:44.83	170.37	24.85	-23.2	-23.7	17.0	0.00e+00	0	34	0	29720838144	20	18750
2026-01-28 22:33:47.86	170.89	24.23	-23.3	-23.8	16.9	0.00e+00	0	34	0	29947330560	20	18983
2026-01-28 22:33:50.89	171.39	23.63	-23.7	-24.1	16.9	0.00e+00	0	34	0	30182211584	20	19673
2026-01-28 22:33:53.92	171.87	23.04	-23.7	-24.2	16.9	0.00e+00	0	34	0	30408704000	20	19781
2026-01-28 22:33:56.95	172.34	22.47	-23.8	-24.3	16.9	0.00e+00	0	34	0	30635196416	22	17831
2026-01-28 22:33:59.97	172.78	21.92	-24.1	-24.5	16.9	0.00e+00	0	34	0	30861688832	22	18428
2026-01-28 22:34:03.00	173.21	21.37	-24.3	-24.8	16.8	0.00e+00	0	34	0	31088181248	22	18891
2026-01-28 22:34:06.03	173.62	20.84	-24.3	-24.7	16.8	0.00e+00	0	34	0	31314673664	22	18777
2026-01-28 22:34:09.06	174.01	20.32	-24.4	-24.9	16.9	0.00e+00	0	34	0	31541166080	22	19097
2026-01-28 22:34:12.08	174.40	19.81	-24.6	-25.0	16.8	0.00e+00	0	34	0	31767658496	22	19471
2026-01-28 22:34:15.11	174.76	19.31	-24.7	-25.2	16.8	0.00e+00	0	34	0	31994150912	24	17707
2026-01-28 22:34:18.14	175.12	18.83	-25.1	-25.6	16.7	0.00e+00	0	34	0	32220643328	24	18473
2026-01-28 22:34:21.16	175.46	18.36	-25.0	-25.5	16.8	0.00e+00	0	34	0	32447135744	24	18246
2026-01-28 22:34:24.18	175.79	17.89	-25.3	-25.8	16.7	0.00e+00	0	34	0	32673628160	24	18890
2026-01-28 22:34:27.21	176.12	17.44	-25.3	-25.7	16.8	0.00e+00	0	34	0	32900120576	24	18800
2026-01-28 22:34:30.24	176.43	17.00	-25.3	-25.7	16.7	0.00e+00	0	34	0	33126612992	24	18840
2026-01-28 22:34:33.26	176.73	16.56	-25.5	-25.9	15.9	0.00e+00	0	34	0	33353105408	24	19295
2026-01-28 22:34:36.29	177.02	16.14	-25.6	-26.1	16.5	0.00e+00	0	34	0	33579597824	24	19626
2026-01-28 22:34:39.31	177.30	15.72	-25.7	-26.2	16.4	0.00e+00	0	34	0	33806090240	26	17652
2026-01-28 22:34:42.34	177.57	15.31	-25.9	-26.4	16.5	0.00e+00	0	34	0	34040971264	26	18168
2026-01-28 22:34:45.37	177.84	14.91	-26.0	-26.4	16.5	0.00e+00	0	34	0	34259075072	26	18157
2026-01-28 22:34:48.40	178.10	14.52	-26.1	-26.6	16.5	0.00e+00	0	34	0	34493956096	26	18562
2026-01-28 22:34:51.43	178.35	14.13	-26.1	-26.6	16.5	0.00e+00	0	34	0	34720448512	26	18508
2026-01-28 22:34:54.45	178.59	13.76	-26.4	-26.9	16.5	0.00e+00	0	34	0	34946940928	26	19091
2026-01-28 22:34:57.48	178.82	13.39	-26.5	-26.9	16.4	0.00e+00	0	34	0	35173433344	26	19283
2026-01-28 22:35:00.51	179.05	13.02	-26.6	-27.1	16.4	0.00e+00	0	34	0	35399925760	26	19532
2026-01-28 22:35:03.54	179.28	12.67	-26.8	-27.2	16.4	0.00e+00	0	34	0	35626418176	26	19939
2026-01-28 22:35:06.56	179.49	12.32	-26.9	-27.4	16.3	0.00e+00	0	34	0	35852910592	28	18126
2026-01-28 22:35:09.59	179.71	11.97	-26.9	-27.4	16.3	0.00e+00	0	34	0	36079403008	28	18024
2026-01-28 22:35:12.62	179.91	11.63	-27.0	-27.4	16.3	0.00e+00	0	34	0	36305895424	28	18202
2026-01-28 22:35:15.65	180.11	11.30	-27.0	-27.5	16.2	0.00e+00	0	34	0	36532387840	28	18340
2026-01-28 22:35:18.68	180.31	10.97	-27.3	-27.7	16.1	0.00e+00	0	34	0	36758880256	28	18812
2026-01-28 22:35:21.71	180.50	10.65	-27.3	-27.8	16.1	0.00e+00	0	34	0	36985372672	28	18953
2026-01-28 22:35:24.74	180.68	10.34	-27.5	-27.9	16.1	0.00e+00	0	34	0	37220253696	28	19222
2026-01-28 22:35:27.76	180.87	10.03	-27.6	-28.1	16.0	0.00e+00	0	34	0	37446746112	28	19591
2026-01-28 22:35:30.79	181.04	9.72	-27.7	-28.1	16.0	0.00e+00	0	34	0	37673238528	30	17589
2026-01-28 22:35:33.82	181.22	9.42	-27.9	-28.3	16.1	0.00e+00	0	34	0	37899730944	30	17969
2026-01-28 22:35:36.85	181.39	9.12	-28.1	-28.6	15.9	0.00e+00	0	34	0	38126223360	30	18530
2026-01-28 22:35:39.88	181.55	8.83	-28.3	-28.8	15.9	0.00e+00	0	34	0	38352715776	30	18866
2026-01-28 22:35:42.90	181.71	8.54	-28.2	-28.6	15.9	0.00e+00	0	34	0	38579208192	30	18640
2026-01-28 22:35:45.93	181.87	8.26	-28.3	-28.8	15.9	0.00e+00	0	34	0	38805700608	30	18926
2026-01-28 22:35:48.96	182.02	7.98	-28.5	-28.9	15.8	0.00e+00	0	34	0	39032193024	30	19240
2026-01-28 22:35:51.98	182.17	7.70	-28.9	-29.3	15.7	0.00e+00	0	34	0	39258685440	32	17977
2026-01-28 22:35:55.01	182.32	7.43	-29.0	-29.4	15.7	0.00e+00	0	34	0	39485177856	32	18178
2026-01-28 22:35:58.04	182.47	7.16	-29.0	-29.4	15.6	0.00e+00	0	34	0	39711670272	32	18215
2026-01-28 22:36:01.07	182.61	6.89	-29.2	-29.7	15.5	0.00e+00	0	34	0	39938162688	32	18675
2026-01-28 22:36:04.10	182.75	6.63	-29.3	-29.7	15.3	0.00e+00	0	34	0	40173043712	32	18820
2026-01-28 22:36:07.13	182.88	6.37	-29.5	-29.9	15.4	0.00e+00	0	34	0	40391147520	32	19202
2026-01-28 22:36:10.15	183.02	6.12	-29.3	-29.7	15.5	0.00e+00	0	34	0	40626028544	34	16743
2026-01-28 22:36:13.18	183.15	5.87	-29.5	-30.0	15.2	0.00e+00	0	34	0	40844132352	34	17315
2026-01-28 22:36:16.21	183.28	5.62	-29.4	-29.9	15.1	0.00e+00	0	34	0	41079013376	34	17044
2026-01-28 22:36:19.24	183.40	5.37	-29.5	-29.9	15.0	0.00e+00	0	34	0	41305505792	34	17189
2026-01-28 22:36:22.27	183.52	5.13	-29.7	-30.2	15.0	0.00e+00	0	34	0	41531998208	34	17607
2026-01-28 22:36:25.30	183.65	4.89	-29.6	-30.1	15.1	0.00e+00	0	34	0	41758490624	34	17408
2026-01-28 22:36:28.32	183.76	4.65	-30.0	-30.4	15.1	0.00e+00	0	34	0	41984983040	34	18167
2026-01-28 22:36:31.35	183.88	4.42	-30.0	-30.5	15.0	0.00e+00	0	34	0	42211475456	34	18305
2026-01-28 22:36:34.38	183.99	4.19	-30.2	-30.6	15.1	0.00e+00	0	34	0	42437967872	36	16578
2026-01-28 22:36:37.41	184.11	3.96	-30.5	-30.9	15.0	0.00e+00	0	34	0	42664460288	36	17097
2026-01-28 22:36:40.43	184.22	3.73	-31.0	-31.4	14.6	0.00e+00	0	34	0	42890952704	36	18202
2026-01-28 22:36:43.46	184.32	3.50	-31.1	-31.5	14.6	0.00e+00	0	34	0	43117445120	36	18338
2026-01-28 22:36:46.49	184.43	3.28	-32.1	-32.6	14.0	0.00e+00	0	34	0	43352326144	38	18476
2026-01-28 22:36:49.52	184.54	3.06	-31.2	-31.6	14.3	0.00e+00	0	34	0	43570429952	38	16604
2026-01-28 22:36:52.54	184.64	2.85	-48.0	-50.5	3.6	0.00e+00	0	34	104	43645927424	60	41221
2026-01-28 22:36:55.57	184.74	2.63	-48.8	-51.3	3.6	0.00e+00	0	34	104	43645927424	60	44952
2026-01-28 22:36:58.60	184.84	2.42	-49.0	-51.4	3.6	1.66e-03	0	34	104	43645927424	60	45696
2026-01-28 22:37:01.55	184.93	2.21	-49.1	-51.6	3.6	1.66e-03	0	34	104	43645927424	60	46741
2026-01-28 22:37:04.58	185.03	2.00	-48.8	-51.3	3.6	1.66e-03	0	34	104	43645927424	60	45079
2026-01-28 22:37:07.61	185.13	1.79	-48.8	-51.3	3.6	1.66e-03	0	34	104	43645927424	60	45222
2026-01-28 22:37:10.64	185.22	1.59	-49.0	-51.5	3.6	1.66e-03	0	34	104	43645927424	60	46004
2026-01-28 22:37:13.67	185.31	1.38	-49.1	-51.6	3.6	1.66e-03	0	34	104	43645927424	60	46308
2026-01-28 22:37:16.70	185.40	1.18	-49.1	-51.5	3.5	1.66e-03	0	34	104	43645927424	60	46139
2026-01-28 22:37:19.72	185.49	0.98	-49.1	-51.5	3.6	1.66e-03	0	34	104	43645927424	60	46152
2026-01-28 22:37:22.76	185.58	0.78	-49.1	-51.5	3.6	1.66e-03	0	34	104	43645927424	60	46090
2026-01-28 22:37:25.78	185.66	0.59	-49.0	-51.5	3.6	1.66e-03	0	34	104	43645927424	60	46042
2026-01-28 22:37:28.80	185.75	0.39	-49.0	-51.5	3.6	1.66e-03	0	34	104	43645927424	60	45956
2026-01-28 22:37:31.83	185.83	0.20	-49.0	-51.4	3.5	1.66e-03	0	34	104	43645927424	60	45648
2026-01-28 22:37:34.86	185.92	0.00	-49.0	-51.5	3.6	1.66e-03	0	34	104	43645927424	60	46052

#Closed at: 2026-01-28 22:37:37
#Recorded file [43645 MB]: D:/lorett/data/35029_260129_102601.dat