passes_logs/2026/01/28/R4.6S_Anadyr/R4.6S_Anadyr__20260128_203902_SUOMI_NPP_rec.log

#Pass ID: 20260128_203902_SUOMI NPP
#Satellite: SUOMI NPP
#Configuration: NPP
#almurnet v.1.7.20251203
#Start time: 2026-01-28 20:39:03

#Version: 2.2.20231116
#Station: R4.6S_Anadyr
#Location: 177.4865 lon 64.73178 lat
#TLE: 1 37849U 11061A   26027.86188320  .00000172  00000+0  10275-3 0  9990
#TLE: 2 37849  98.7823 329.8005 0002088  41.4184 318.7150 14.19530883738530

#Time	Az	El	Level	Level2	SNR	BER	BlckErr	Temp	State	Recorded	gain1	gain2
2026-01-28 20:39:03.71	72.65	0.05	-48.8	-60.5	3.5	8.44e-01	0	29	0	0	60	38093
2026-01-28 20:39:07.75	72.37	0.25	-48.9	-64.1	3.6	1.51e+00	0	30	104	0	60	57922
2026-01-28 20:39:11.79	72.07	0.46	-48.9	-64.1	3.6	1.51e+00	0	30	104	0	60	57682
2026-01-28 20:39:15.83	71.78	0.66	-49.0	-64.1	3.6	1.51e+00	0	30	104	0	60	57839
2026-01-28 20:39:19.86	71.48	0.86	-48.7	-64.1	3.6	1.51e+00	0	30	104	0	60	57803
2026-01-28 20:39:23.90	71.17	1.07	-48.6	-63.9	3.6	1.51e+00	0	30	104	0	60	56326
2026-01-28 20:39:27.94	70.86	1.27	-47.9	-63.1	3.6	1.51e+00	0	30	104	0	60	51899
2026-01-28 20:39:31.98	70.55	1.48	-47.3	-62.5	3.6	1.51e+00	0	30	104	0	60	48287
2026-01-28 20:39:36.02	70.23	1.69	-47.3	-62.4	3.6	1.51e+00	0	30	104	0	60	47664
2026-01-28 20:39:40.06	69.91	1.89	-47.3	-62.4	3.6	1.51e+00	0	31	104	0	60	47703
2026-01-28 20:39:44.10	69.58	2.10	-47.3	-62.4	3.6	1.51e+00	0	31	104	0	60	47603
2026-01-28 20:39:48.14	69.25	2.31	-47.3	-62.5	3.6	1.51e+00	0	31	104	0	60	48188
2026-01-28 20:39:52.18	68.91	2.52	-47.3	-62.5	3.6	1.51e+00	0	31	104	0	60	47964
2026-01-28 20:39:56.22	68.57	2.73	-47.3	-62.1	3.6	1.51e+00	0	31	104	0	60	45830
2026-01-28 20:40:00.26	68.22	2.94	-45.8	-50.8	10.1	1.07e-01	74	31	0	1048576	60	12601
2026-01-28 20:40:04.30	67.87	3.15	-46.1	-51.1	10.9	3.77e-01	92	31	0	7340032	60	12988
2026-01-28 20:40:08.34	67.51	3.36	-44.2	-47.4	13.8	4.50e-06	0	31	0	10485760	60	8448
2026-01-28 20:40:12.37	67.15	3.58	-42.1	-44.1	17.3	0.00e+00	92	31	0	17825792	58	6470
2026-01-28 20:40:16.41	66.78	3.79	-41.7	-43.5	18.1	0.00e+00	79	31	0	25165824	58	6067
2026-01-28 20:40:20.45	66.40	4.00	-41.6	-43.3	18.3	0.00e+00	0	31	0	32505856	56	6647
2026-01-28 20:40:24.49	66.02	4.22	-41.6	-43.3	18.1	0.00e+00	0	31	0	40894464	56	6664
2026-01-28 20:40:28.53	65.64	4.43	-42.1	-44.0	17.6	0.00e+00	92	31	0	48234496	56	7224
2026-01-28 20:40:32.57	65.24	4.65	-42.2	-44.2	17.1	0.00e+00	92	31	0	55574528	58	6563
2026-01-28 20:40:36.60	64.85	4.86	-42.8	-45.0	16.5	0.00e+00	0	31	0	62914560	58	7227
2026-01-28 20:40:40.64	64.44	5.08	-43.1	-45.4	16.6	0.00e+00	0	31	0	70254592	58	7581
2026-01-28 20:40:44.69	64.03	5.29	-42.6	-44.7	16.8	0.00e+00	78	31	0	78643200	58	6993
2026-01-28 20:40:48.73	63.61	5.51	-42.6	-44.7	17.1	0.00e+00	66	31	0	85983232	58	6974
2026-01-28 20:40:52.77	63.19	5.73	-42.3	-44.3	17.5	0.00e+00	0	31	0	93323264	58	6652
2026-01-28 20:40:56.80	62.76	5.94	-42.6	-44.6	17.2	0.00e+00	76	31	0	100663296	58	6927
2026-01-28 20:41:00.84	62.33	6.16	-41.8	-43.5	18.2	0.00e+00	79	31	0	109051904	58	6091
2026-01-28 20:41:04.88	61.88	6.38	-42.2	-44.1	17.6	0.00e+00	0	31	0	116391936	56	7299
2026-01-28 20:41:08.91	61.43	6.60	-41.7	-43.4	18.3	0.00e+00	0	31	0	123731968	56	6766
2026-01-28 20:41:12.95	60.98	6.82	-41.5	-43.2	18.6	0.00e+00	92	31	0	131072000	56	6542
2026-01-28 20:41:16.99	60.51	7.03	-41.8	-43.6	18.1	0.00e+00	92	31	0	138412032	56	6903
2026-01-28 20:41:21.02	60.04	7.25	-40.5	-41.9	19.7	0.00e+00	0	31	0	146800640	54	6337
2026-01-28 20:41:25.06	59.57	7.47	-40.4	-41.8	19.9	0.00e+00	0	31	0	154140672	54	6255
2026-01-28 20:41:29.10	59.08	7.69	-40.2	-41.6	20.1	0.00e+00	18	31	0	161480704	54	6105
2026-01-28 20:41:33.13	58.59	7.91	-40.5	-41.9	20.0	0.00e+00	62	31	0	168820736	54	6372
2026-01-28 20:41:37.16	58.09	8.12	-40.5	-41.9	19.4	0.00e+00	0	31	0	176160768	54	6388
2026-01-28 20:41:41.20	57.58	8.34	-40.3	-41.7	20.1	0.00e+00	76	31	0	184549376	54	6208
2026-01-28 20:41:45.24	57.06	8.56	-40.7	-42.1	19.7	0.00e+00	92	31	0	191889408	54	6497
2026-01-28 20:41:49.27	56.54	8.77	-40.3	-41.6	20.1	0.00e+00	0	31	0	199229440	54	6163
2026-01-28 20:41:53.31	56.01	8.99	-40.4	-41.7	20.1	0.00e+00	33	31	0	206569472	54	6234
2026-01-28 20:41:57.35	55.47	9.21	-40.0	-41.2	20.4	0.00e+00	92	31	0	214958080	54	5880
2026-01-28 20:42:01.39	54.92	9.42	-40.3	-41.6	20.2	0.00e+00	92	31	0	222298112	54	6160
2026-01-28 20:42:05.43	54.36	9.64	-40.0	-41.3	20.5	0.00e+00	0	31	0	229638144	54	5928
2026-01-28 20:42:09.46	53.80	9.85	-40.4	-41.8	20.2	0.00e+00	0	31	0	236978176	54	6250
2026-01-28 20:42:13.50	53.23	10.06	-40.8	-42.3	19.7	0.00e+00	68	31	0	244318208	54	6659
2026-01-28 20:42:17.54	52.64	10.28	-40.8	-42.3	19.7	0.00e+00	92	31	0	252706816	54	6624
2026-01-28 20:42:21.57	52.05	10.49	-40.5	-41.9	20.0	0.00e+00	0	31	0	260046848	54	6389
2026-01-28 20:42:25.61	51.46	10.70	-39.8	-41.0	20.9	0.00e+00	49	31	0	267386880	52	6434
2026-01-28 20:42:29.65	50.85	10.90	-39.6	-40.7	21.0	0.00e+00	76	31	0	274726912	52	6245
2026-01-28 20:42:33.69	50.23	11.11	-39.1	-40.2	21.6	0.00e+00	0	31	0	283115520	52	5871
2026-01-28 20:42:37.72	49.61	11.32	-39.2	-40.4	21.6	0.00e+00	0	31	0	290455552	52	5998
2026-01-28 20:42:41.75	48.97	11.52	-38.6	-39.6	22.1	0.00e+00	92	31	0	297795584	50	6134
2026-01-28 20:42:45.79	48.33	11.72	-38.4	-39.4	22.2	0.00e+00	80	31	0	305135616	50	5985
2026-01-28 20:42:49.83	47.68	11.92	-38.9	-40.0	21.8	0.00e+00	0	31	0	312475648	50	6457
2026-01-28 20:42:53.86	47.02	12.12	-38.1	-39.1	22.5	0.00e+00	0	31	0	320864256	50	5822
2026-01-28 20:42:57.90	46.35	12.31	-38.5	-39.5	22.1	0.00e+00	86	31	0	328204288	50	6056
2026-01-28 20:43:01.94	45.67	12.51	-38.2	-39.2	22.5	0.00e+00	91	31	0	335544320	50	5834
2026-01-28 20:43:05.98	44.98	12.70	-38.4	-39.4	22.3	0.00e+00	0	31	0	342884352	50	5995
2026-01-28 20:43:10.02	44.28	12.88	-38.4	-39.5	22.3	0.00e+00	0	31	0	350224384	50	6051
2026-01-28 20:43:14.05	43.57	13.07	-37.6	-38.5	22.9	0.00e+00	82	31	0	358612992	48	6087
2026-01-28 20:43:18.09	42.86	13.25	-37.1	-38.0	23.4	0.00e+00	6	31	0	365953024	48	5728
2026-01-28 20:43:22.13	42.13	13.43	-37.3	-38.2	23.3	0.00e+00	0	31	0	373293056	48	5863
2026-01-28 20:43:26.16	41.40	13.61	-38.0	-39.0	22.6	0.00e+00	37	31	0	380633088	48	6431
2026-01-28 20:43:30.20	40.66	13.78	-38.1	-39.1	22.5	0.00e+00	92	31	0	389021696	48	6521
2026-01-28 20:43:34.24	39.91	13.95	-38.1	-39.2	22.5	0.00e+00	0	31	0	396361728	48	6546
2026-01-28 20:43:38.28	39.15	14.11	-38.6	-39.7	22.1	0.00e+00	0	31	0	403701760	50	6207
2026-01-28 20:43:42.31	38.38	14.27	-38.0	-39.0	22.7	0.00e+00	86	31	0	411041792	50	5735
2026-01-28 20:43:46.35	37.61	14.43	-37.6	-38.6	22.8	0.00e+00	82	31	0	418381824	48	6114
2026-01-28 20:43:50.39	36.82	14.58	-37.8	-38.7	22.9	0.00e+00	0	31	0	426770432	48	6235
2026-01-28 20:43:54.43	36.03	14.73	-37.4	-38.4	23.2	0.00e+00	0	31	0	434110464	48	5975
2026-01-28 20:43:58.46	35.23	14.87	-38.0	-39.0	22.7	0.00e+00	0	31	0	441450496	48	6399
2026-01-28 20:44:02.50	34.42	15.01	-37.7	-38.7	22.9	0.00e+00	78	31	0	448790528	48	6201
2026-01-28 20:44:06.53	33.61	15.14	-36.9	-37.7	23.7	0.00e+00	0	31	0	457179136	48	5542
2026-01-28 20:44:10.57	32.79	15.27	-37.1	-38.0	23.4	0.00e+00	0	31	0	464519168	48	5723
2026-01-28 20:44:14.60	31.96	15.39	-37.6	-38.5	23.1	0.00e+00	69	31	0	471859200	48	6100
2026-01-28 20:44:18.64	31.12	15.51	-37.7	-38.6	23.1	0.00e+00	0	31	0	479199232	48	6162
2026-01-28 20:44:22.68	30.28	15.62	-38.0	-39.0	22.8	0.00e+00	0	31	0	486539264	48	6426
2026-01-28 20:44:26.71	29.44	15.72	-37.9	-38.9	22.8	0.00e+00	85	31	0	494927872	48	6379
2026-01-28 20:44:30.75	28.58	15.82	-38.3	-39.3	22.4	0.00e+00	79	31	0	502267904	48	6642
2026-01-28 20:44:34.79	27.72	15.92	-38.1	-39.1	22.7	0.00e+00	0	31	0	509607936	48	6513
2026-01-28 20:44:38.83	26.85	16.01	-38.1	-39.0	22.8	0.00e+00	0	31	0	516947968	48	6461
2026-01-28 20:44:42.86	25.99	16.09	-37.5	-38.4	23.2	0.00e+00	80	31	0	524288000	48	5977
2026-01-28 20:44:46.90	25.11	16.16	-37.8	-38.7	23.0	0.00e+00	0	31	0	532676608	48	6213
2026-01-28 20:44:50.93	24.23	16.23	-37.8	-38.7	23.0	0.00e+00	0	31	0	540016640	48	6210
2026-01-28 20:44:54.97	23.35	16.29	-38.2	-39.2	22.6	0.00e+00	0	31	0	547356672	48	6551
2026-01-28 20:44:59.01	22.47	16.34	-38.7	-39.8	22.1	0.00e+00	82	31	0	554696704	48	7049
2026-01-28 20:45:03.04	21.58	16.39	-38.6	-39.7	22.2	0.00e+00	0	31	0	563085312	50	6186
2026-01-28 20:45:07.07	20.69	16.43	-38.1	-39.1	22.6	0.00e+00	0	31	0	570425344	50	5780
2026-01-28 20:45:11.11	19.79	16.46	-38.3	-39.3	22.5	0.00e+00	0	31	0	577765376	50	5932
2026-01-28 20:45:15.15	18.90	16.49	-37.8	-38.8	23.0	0.00e+00	0	31	0	585105408	48	6254
2026-01-28 20:45:19.19	18.00	16.51	-37.8	-38.8	22.9	0.00e+00	0	31	0	592445440	48	6276
2026-01-28 20:45:23.23	17.10	16.52	-38.4	-39.5	22.4	0.00e+00	0	31	0	600834048	48	6784
2026-01-28 20:45:27.26	16.21	16.53	-38.3	-39.3	22.6	0.00e+00	81	31	0	608174080	48	6632
2026-01-28 20:45:31.30	15.31	16.52	-37.4	-38.3	23.3	0.00e+00	0	31	0	615514112	48	5933
2026-01-28 20:45:35.34	14.41	16.51	-38.0	-38.9	22.8	0.00e+00	0	31	0	622854144	48	6377
2026-01-28 20:45:39.38	13.51	16.50	-38.8	-39.8	22.2	0.00e+00	0	31	0	631242752	48	7067
2026-01-28 20:45:43.41	12.62	16.47	-39.0	-40.2	21.9	0.00e+00	84	31	0	638582784	50	6552
2026-01-28 20:45:47.44	11.73	16.44	-38.3	-39.3	22.5	0.00e+00	0	31	0	645922816	50	5944
2026-01-28 20:45:51.48	10.83	16.40	-38.2	-39.2	22.7	0.00e+00	0	31	0	653262848	50	5880
2026-01-28 20:45:55.52	9.94	16.36	-38.2	-39.2	22.7	0.00e+00	0	31	0	660602880	50	5852
2026-01-28 20:45:59.56	9.06	16.31	-38.4	-39.4	22.5	0.00e+00	78	31	0	668991488	50	6029
2026-01-28 20:46:03.60	8.17	16.25	-37.1	-38.0	23.5	0.00e+00	0	31	0	676331520	48	5723
2026-01-28 20:46:07.64	7.29	16.18	-37.1	-38.1	23.6	0.00e+00	0	31	0	683671552	48	5782
2026-01-28 20:46:11.68	6.42	16.11	-37.5	-38.5	23.3	0.00e+00	82	31	0	691011584	48	6059
2026-01-28 20:46:15.72	5.55	16.03	-37.7	-38.7	23.0	0.00e+00	0	31	0	698351616	48	6208
2026-01-28 20:46:19.76	4.68	15.95	-37.9	-38.9	22.9	0.00e+00	0	31	0	706740224	48	6341
2026-01-28 20:46:23.80	3.82	15.86	-37.6	-38.6	23.1	0.00e+00	0	31	0	714080256	48	6108
2026-01-28 20:46:27.84	2.96	15.76	-37.5	-38.4	23.3	0.00e+00	78	31	0	721420288	48	5967
2026-01-28 20:46:31.87	2.11	15.65	-37.4	-38.2	23.5	0.00e+00	0	31	0	728760320	48	5894
2026-01-28 20:46:35.91	1.27	15.55	-37.7	-38.6	23.1	0.00e+00	0	31	0	737148928	48	6127
2026-01-28 20:46:39.95	0.43	15.43	-38.2	-39.2	22.6	0.00e+00	0	31	0	744488960	48	6614
2026-01-28 20:46:43.99	359.60	15.31	-38.6	-39.6	22.3	0.00e+00	82	31	0	751828992	48	6915
2026-01-28 20:46:48.02	358.78	15.18	-38.5	-39.6	22.4	0.00e+00	0	31	0	759169024	50	6111
2026-01-28 20:46:52.06	357.96	15.05	-38.6	-39.6	22.4	0.00e+00	0	31	0	766509056	50	6141
2026-01-28 20:46:56.09	357.16	14.92	-38.0	-38.9	22.9	0.00e+00	0	31	0	774897664	50	5695
2026-01-28 20:47:00.13	356.36	14.78	-37.9	-38.8	22.9	0.00e+00	0	31	0	782237696	50	5612
2026-01-28 20:47:04.17	355.56	14.63	-37.0	-37.8	23.6	0.00e+00	0	31	0	789577728	48	5627
2026-01-28 20:47:08.21	354.78	14.48	-37.1	-38.0	23.1	0.00e+00	0	31	0	796917760	48	5708
2026-01-28 20:47:12.25	354.00	14.32	-37.7	-38.7	23.0	0.00e+00	90	31	0	805306368	48	6201
2026-01-28 20:47:16.29	353.23	14.16	-38.9	-40.1	21.9	0.00e+00	0	31	0	812646400	50	6495
2026-01-28 20:47:20.32	352.47	14.00	-39.0	-40.2	21.9	0.00e+00	0	31	0	819986432	50	6543
2026-01-28 20:47:24.36	351.72	13.83	-39.0	-40.0	21.9	0.00e+00	0	31	0	827326464	50	6457
2026-01-28 20:47:28.40	350.97	13.66	-39.2	-40.3	21.7	0.00e+00	76	31	0	834666496	50	6663
2026-01-28 20:47:32.44	350.24	13.49	-38.8	-39.8	22.1	0.00e+00	0	31	0	843055104	50	6296
2026-01-28 20:47:36.47	349.51	13.31	-38.7	-39.8	22.1	0.00e+00	0	31	0	850395136	50	6253
2026-01-28 20:47:40.51	348.80	13.13	-38.2	-39.1	22.7	0.00e+00	65	31	0	857735168	50	5825
2026-01-28 20:47:44.55	348.09	12.95	-38.0	-39.0	22.8	0.00e+00	6	31	0	865075200	50	5716
2026-01-28 20:47:48.59	347.39	12.76	-39.0	-40.2	21.8	0.00e+00	0	31	0	873463808	50	6540
2026-01-28 20:47:52.63	346.70	12.57	-38.6	-39.7	22.2	0.00e+00	0	31	0	880803840	50	6203
2026-01-28 20:47:56.66	346.02	12.38	-38.6	-39.7	22.1	0.00e+00	7	31	0	888143872	50	6229
2026-01-28 20:48:00.70	345.35	12.19	-40.5	-42.0	20.2	0.00e+00	0	31	0	895483904	52	7174
2026-01-28 20:48:04.74	344.68	11.99	-41.8	-43.7	18.7	0.00e+00	0	31	0	902823936	56	6951
2026-01-28 20:48:08.78	344.03	11.79	-41.0	-42.7	19.6	0.00e+00	0	31	0	911212544	56	6187
2026-01-28 20:48:12.82	343.39	11.59	-40.3	-41.8	20.2	0.00e+00	86	31	0	918552576	54	6248
2026-01-28 20:48:16.85	342.75	11.39	-39.6	-40.8	21.2	0.00e+00	0	31	0	925892608	52	6296
2026-01-28 20:48:20.89	342.12	11.18	-39.5	-40.8	21.0	0.00e+00	0	31	0	933232640	52	6280
2026-01-28 20:48:24.93	341.51	10.98	-40.0	-41.3	20.8	0.00e+00	0	31	0	941621248	52	6680
2026-01-28 20:48:28.96	340.90	10.77	-39.6	-40.9	21.0	0.00e+00	88	31	0	948961280	52	6339
2026-01-28 20:48:33.00	340.30	10.56	-39.5	-40.8	21.0	0.00e+00	0	31	0	956301312	52	6280
2026-01-28 20:48:37.03	339.71	10.35	-39.7	-41.1	20.9	0.00e+00	0	31	0	963641344	52	6475
2026-01-28 20:48:41.07	339.12	10.14	-40.1	-41.5	20.4	0.00e+00	65	31	0	970981376	52	6838
2026-01-28 20:48:45.11	338.55	9.93	-40.1	-41.5	20.5	0.00e+00	12	31	0	979369984	52	6823
2026-01-28 20:48:49.15	337.98	9.71	-39.5	-40.8	21.0	0.00e+00	0	31	0	986710016	52	6288
2026-01-28 20:48:53.19	337.42	9.50	-39.1	-40.3	21.4	0.00e+00	0	31	0	994050048	52	5932
2026-01-28 20:48:57.22	336.88	9.29	-38.6	-39.7	21.9	0.00e+00	73	31	0	1001390080	50	6232
2026-01-28 20:49:01.26	336.33	9.07	-38.5	-39.6	22.0	0.00e+00	0	31	0	1009778688	50	6111
2026-01-28 20:49:05.30	335.80	8.85	-38.6	-39.7	21.9	0.00e+00	0	31	0	1017118720	50	6201
2026-01-28 20:49:09.34	335.28	8.64	-38.8	-39.9	21.8	0.00e+00	0	31	0	1024458752	50	6333
2026-01-28 20:49:13.38	334.76	8.42	-38.8	-39.8	21.9	0.00e+00	78	31	0	1031798784	50	6305
2026-01-28 20:49:17.42	334.25	8.20	-39.2	-40.3	21.3	0.00e+00	0	31	0	1039138816	50	6679
2026-01-28 20:49:21.45	333.75	7.99	-39.1	-40.2	21.5	0.00e+00	0	31	0	1047527424	50	6569
2026-01-28 20:49:25.49	333.25	7.77	-39.1	-40.2	21.6	0.00e+00	64	31	0	1054867456	50	6592
2026-01-28 20:49:29.53	332.77	7.55	-39.3	-40.5	21.3	0.00e+00	73	31	0	1062207488	50	6792
2026-01-28 20:49:33.57	332.29	7.33	-39.1	-40.2	21.5	0.00e+00	0	31	0	1069547520	50	6615
2026-01-28 20:49:37.61	331.82	7.12	-38.7	-39.7	21.8	0.00e+00	0	31	0	1077936128	50	6239
2026-01-28 20:49:41.64	331.35	6.90	-38.5	-39.6	21.9	0.00e+00	71	31	0	1085276160	50	6119
2026-01-28 20:49:45.68	330.90	6.68	-38.3	-39.3	22.0	0.00e+00	0	31	0	1092616192	50	5957
2026-01-28 20:49:49.72	330.45	6.46	-39.0	-40.1	21.5	0.00e+00	0	31	0	1099956224	50	6511
2026-01-28 20:49:53.76	330.00	6.25	-40.2	-41.5	20.3	0.00e+00	0	31	0	1107296256	52	6807
2026-01-28 20:49:57.79	329.57	6.03	-39.5	-40.7	21.0	0.00e+00	92	31	0	1115684864	52	6230
2026-01-28 20:50:01.83	329.14	5.81	-39.4	-40.6	21.2	0.00e+00	0	31	0	1123024896	52	6120
2026-01-28 20:50:05.87	328.71	5.59	-39.4	-40.6	20.8	0.00e+00	0	31	0	1130364928	50	6898
2026-01-28 20:50:09.91	328.30	5.38	-39.5	-40.7	20.9	0.00e+00	0	31	0	1137704960	52	6232
2026-01-28 20:50:13.95	327.88	5.16	-40.0	-41.3	20.1	0.00e+00	76	31	0	1146093568	52	6668
2026-01-28 20:50:17.99	327.48	4.95	-40.5	-41.9	19.6	0.00e+00	0	31	0	1153433600	52	7126
2026-01-28 20:50:22.03	327.08	4.73	-41.3	-42.9	18.6	0.00e+00	0	31	0	1160773632	54	7137
2026-01-28 20:50:26.07	326.69	4.52	-41.3	-43.0	18.6	0.00e+00	73	31	0	1168113664	54	7172
2026-01-28 20:50:30.11	326.30	4.30	-40.9	-42.4	18.9	0.00e+00	0	31	0	1175453696	54	6756
2026-01-28 20:50:34.15	325.92	4.09	-41.6	-43.3	18.2	0.00e+00	0	31	0	1183842304	54	7449
2026-01-28 20:50:38.19	325.55	3.87	-42.5	-44.6	17.0	0.00e+00	0	31	0	1191182336	56	7727
2026-01-28 20:50:42.22	325.18	3.66	-42.2	-44.1	18.0	0.00e+00	48	31	0	1198522368	58	6487
2026-01-28 20:50:46.26	324.81	3.45	-41.3	-43.0	18.4	0.00e+00	0	31	0	1205862400	56	6432
2026-01-28 20:50:50.30	324.46	3.24	-41.8	-43.7	18.0	0.00e+00	0	31	0	1214251008	56	6931
2026-01-28 20:50:54.33	324.10	3.03	-41.4	-43.2	15.6	0.00e+00	0	31	0	1221591040	56	6551
2026-01-28 20:50:58.37	323.76	2.82	-48.7	-63.8	3.6	1.51e+00	0	31	104	1221591040	60	56108
2026-01-28 20:51:02.41	323.41	2.61	-48.9	-64.1	3.6	1.51e+00	0	31	104	1221591040	60	58036
2026-01-28 20:51:06.45	323.08	2.40	-49.1	-64.3	3.6	1.51e+00	0	31	104	1221591040	60	59046
2026-01-28 20:51:10.49	322.74	2.19	-48.8	-64.2	3.6	1.51e+00	0	31	104	1221591040	60	58465
2026-01-28 20:51:14.52	322.42	1.98	-48.9	-64.1	3.6	1.51e+00	0	31	104	1221591040	60	58087
2026-01-28 20:51:18.56	322.09	1.77	-48.9	-64.1	3.6	1.51e+00	0	31	104	1221591040	60	57945
2026-01-28 20:51:22.60	321.77	1.57	-48.9	-64.1	3.6	1.51e+00	0	31	104	1221591040	60	58274
2026-01-28 20:51:26.64	321.46	1.36	-49.0	-64.2	3.6	1.51e+00	0	31	104	1221591040	60	58337
2026-01-28 20:51:30.67	321.15	1.16	-49.0	-64.2	3.6	1.51e+00	0	31	104	1221591040	60	58418
2026-01-28 20:51:34.71	320.85	0.95	-48.9	-64.1	3.6	1.51e+00	0	31	104	1221591040	60	57704
2026-01-28 20:51:38.75	320.55	0.75	-49.0	-64.1	3.6	1.51e+00	0	31	104	1221591040	60	58212
2026-01-28 20:51:42.80	320.25	0.54	-49.0	-64.1	3.6	1.51e+00	0	31	104	1221591040	60	58275
2026-01-28 20:51:46.83	319.96	0.34	-48.9	-64.2	3.6	1.51e+00	0	31	104	1221591040	60	58544
2026-01-28 20:51:50.87	319.67	0.14	-48.9	-64.1	3.6	1.51e+00	0	31	104	1221591040	60	58004
2026-01-28 20:51:54.91	319.39	-0.06	-49.0	-64.2	3.6	1.51e+00	0	31	104	1221591040	60	58673

#Closed at: 2026-01-28 20:51:55
#Recorded file [1221 MB]: D:/lorett/data/35029_260129_083903.dat