passes_logs/2026/01/28/R4.6S_Anadyr/R4.6S_Anadyr__20260128_030921_NOAA_21_JPSS-2_rec.log

#Pass ID: 20260128_030921_NOAA 21 (JPSS-2)
#Satellite: NOAA 21 (JPSS-2)
#Configuration: NOAA-21
#almurnet v.1.7.20251203
#Start time: 2026-01-28 03:09:23

#Version: 2.2.20231116
#Station: R4.6S_Anadyr
#Location: 177.4865 lon 64.73178 lat
#TLE: 1 54234U 22150A   26027.55906748  .00000170  00000+0  10132-3 0  9996
#TLE: 2 54234  98.7510 328.3076 0000860 204.4692 155.6443 14.19540154166599

#Time	Az	El	Level	Level2	SNR	BER	BlckErr	Temp	State	Recorded	gain1	gain2
2026-01-28 03:09:23.74	235.16	0.08	-48.8	-60.5	3.5	8.45e-01	0	32	0	0	60	38330
2026-01-28 03:09:26.76	235.43	0.21	-49.1	-62.0	3.5	1.52e+00	0	33	104	0	60	43948
2026-01-28 03:09:29.79	235.70	0.35	-49.0	-61.9	3.5	1.51e+00	0	33	104	0	60	43681
2026-01-28 03:09:32.82	235.98	0.48	-49.0	-61.9	3.5	1.52e+00	0	34	104	0	60	43733
2026-01-28 03:09:35.85	236.26	0.61	-49.1	-62.0	3.5	1.52e+00	0	34	104	0	60	44068
2026-01-28 03:09:38.88	236.54	0.74	-49.1	-62.1	3.5	1.52e+00	0	34	104	0	60	44602
2026-01-28 03:09:41.91	236.82	0.88	-49.1	-62.0	3.5	1.52e+00	0	34	104	0	60	44053
2026-01-28 03:09:44.94	237.10	1.01	-48.9	-61.8	3.5	1.52e+00	0	34	104	0	60	43069
2026-01-28 03:09:47.97	237.39	1.14	-47.9	-60.7	3.5	1.52e+00	0	34	104	0	60	37905
2026-01-28 03:09:51.00	237.68	1.27	-46.8	-59.6	3.5	1.52e+00	0	34	104	0	60	33381
2026-01-28 03:09:54.03	237.97	1.40	-46.8	-59.6	3.5	1.52e+00	0	34	104	0	60	33368
2026-01-28 03:09:57.06	238.26	1.54	-46.8	-59.5	3.5	1.52e+00	0	34	104	0	60	33224
2026-01-28 03:10:00.09	238.56	1.67	-46.8	-59.6	3.5	1.51e+00	0	34	104	0	60	33340
2026-01-28 03:10:03.12	238.86	1.80	-46.8	-59.5	3.5	1.52e+00	0	34	104	0	60	33271
2026-01-28 03:10:06.15	239.16	1.93	-46.8	-59.5	3.5	1.52e+00	0	34	104	0	60	33033
2026-01-28 03:10:09.18	239.46	2.07	-46.8	-59.3	3.5	1.52e+00	0	34	104	0	60	32510
2026-01-28 03:10:12.20	239.77	2.20	-46.8	-59.2	3.5	1.51e+00	0	34	104	0	60	31998
2026-01-28 03:10:15.24	240.08	2.33	-46.7	-58.9	3.5	1.52e+00	0	34	104	0	60	31100
2026-01-28 03:10:18.26	240.39	2.46	-46.7	-58.5	3.5	1.51e+00	0	34	104	0	60	29693
2026-01-28 03:10:21.29	240.71	2.60	-46.7	-58.2	3.5	1.52e+00	0	34	104	0	60	28682
2026-01-28 03:10:24.33	241.02	2.73	-46.7	-58.6	3.5	1.52e+00	0	34	104	0	60	29705
2026-01-28 03:10:27.35	241.34	2.86	-46.7	-58.4	3.5	1.51e+00	0	34	104	0	60	29060
2026-01-28 03:10:30.39	241.67	2.99	-46.6	-57.9	3.5	1.51e+00	0	34	104	0	60	27472
2026-01-28 03:10:33.42	241.99	3.12	-46.7	-58.8	3.5	1.51e+00	0	34	104	0	60	30617
2026-01-28 03:10:36.45	242.32	3.26	-45.6	-50.6	8.4	1.69e-01	122	34	0	5242880	60	11852
2026-01-28 03:10:39.47	242.65	3.39	-44.6	-48.1	10.9	2.56e-03	123	34	0	14680064	60	8945
2026-01-28 03:10:42.50	242.99	3.52	-44.1	-47.2	12.1	5.35e-04	123	34	0	24117248	60	8014
2026-01-28 03:10:45.53	243.32	3.65	-43.4	-46.1	13.3	3.73e-05	122	34	0	33554432	60	7092
2026-01-28 03:10:48.56	243.66	3.78	-43.2	-45.6	13.9	8.30e-06	122	34	0	42991616	60	6725
2026-01-28 03:10:51.59	244.00	3.91	-42.7	-44.9	14.4	1.50e-06	122	34	0	52428800	58	6958
2026-01-28 03:10:54.62	244.35	4.04	-42.9	-45.2	14.3	1.50e-06	123	34	0	61865984	58	7138
2026-01-28 03:10:57.64	244.70	4.17	-41.8	-43.7	15.9	0.00e+00	123	34	0	71303168	58	6012
2026-01-28 03:11:00.67	245.05	4.30	-41.3	-43.1	16.7	0.00e+00	122	34	0	80740352	56	6284
2026-01-28 03:11:03.71	245.41	4.43	-41.0	-42.7	17.3	0.00e+00	123	34	0	90177536	56	6002
2026-01-28 03:11:06.74	245.76	4.56	-40.3	-41.8	18.0	0.00e+00	120	34	0	99614720	54	6095
2026-01-28 03:11:09.77	246.12	4.69	-39.9	-41.3	18.5	0.00e+00	122	34	0	109051904	52	6438
2026-01-28 03:11:12.80	246.49	4.82	-39.3	-40.7	19.1	0.00e+00	122	34	0	118489088	52	6000
2026-01-28 03:11:15.83	246.86	4.95	-39.2	-40.5	19.3	0.00e+00	123	34	0	127926272	52	5920
2026-01-28 03:11:18.86	247.23	5.08	-39.2	-40.5	19.4	0.00e+00	123	34	0	137363456	52	5885
2026-01-28 03:11:21.89	247.60	5.21	-38.8	-40.0	19.7	0.00e+00	123	34	0	146800640	50	6269
2026-01-28 03:11:24.92	247.98	5.34	-38.5	-39.8	20.1	0.00e+00	123	34	0	156237824	50	6070
2026-01-28 03:11:27.95	248.35	5.46	-38.2	-39.4	20.5	0.00e+00	122	34	0	165675008	50	5821
2026-01-28 03:11:30.98	248.74	5.59	-38.1	-39.2	20.7	0.00e+00	122	34	0	176160768	50	5708
2026-01-28 03:11:34.01	249.12	5.72	-38.0	-39.1	20.9	0.00e+00	122	34	0	185597952	50	5652
2026-01-28 03:11:37.03	249.51	5.84	-37.7	-38.9	21.1	0.00e+00	122	34	0	195035136	48	6148
2026-01-28 03:11:40.07	249.90	5.97	-37.6	-38.7	21.2	0.00e+00	122	34	0	204472320	48	6048
2026-01-28 03:11:43.10	250.30	6.09	-37.5	-38.5	21.4	0.00e+00	122	34	0	213909504	48	5911
2026-01-28 03:11:46.13	250.70	6.22	-37.8	-38.9	21.1	0.00e+00	120	34	0	223346688	48	6175
2026-01-28 03:11:49.16	251.10	6.34	-37.7	-38.8	21.1	0.00e+00	122	34	0	232783872	48	6127
2026-01-28 03:11:52.19	251.51	6.47	-37.1	-38.1	21.7	0.00e+00	123	34	0	242221056	48	5637
2026-01-28 03:11:55.22	251.92	6.59	-37.4	-38.5	21.5	0.00e+00	122	34	0	251658240	48	5876
2026-01-28 03:11:58.25	252.33	6.71	-37.2	-38.3	21.6	0.00e+00	123	34	0	261095424	48	5753
2026-01-28 03:12:01.28	252.74	6.83	-36.9	-38.0	21.9	0.00e+00	122	34	0	270532608	48	5544
2026-01-28 03:12:04.31	253.16	6.95	-37.0	-38.0	21.9	0.00e+00	123	34	0	279969792	48	5578
2026-01-28 03:12:07.34	253.58	7.07	-36.9	-37.9	22.0	0.00e+00	122	34	0	289406976	48	5525
2026-01-28 03:12:10.38	254.01	7.19	-37.0	-38.0	21.9	0.00e+00	123	34	0	298844160	48	5572
2026-01-28 03:12:13.41	254.44	7.31	-37.0	-38.1	21.9	0.00e+00	120	34	0	308281344	46	6307
2026-01-28 03:12:16.44	254.87	7.43	-37.0	-38.1	21.9	0.00e+00	120	34	0	317718528	46	6296
2026-01-28 03:12:19.47	255.31	7.54	-37.1	-38.2	21.8	0.00e+00	123	34	0	327155712	46	6371
2026-01-28 03:12:22.49	255.74	7.66	-37.0	-38.0	21.9	0.00e+00	120	34	0	336592896	46	6251
2026-01-28 03:12:25.52	256.19	7.77	-37.0	-38.1	22.0	0.00e+00	123	34	0	346030080	46	6283
2026-01-28 03:12:28.55	256.63	7.89	-36.7	-37.7	22.2	0.00e+00	123	34	0	355467264	46	6058
2026-01-28 03:12:31.58	257.08	8.00	-37.0	-38.0	22.1	0.00e+00	123	34	0	364904448	46	6264
2026-01-28 03:12:34.61	257.53	8.11	-36.9	-37.9	22.1	0.00e+00	123	34	0	374341632	46	6203
2026-01-28 03:12:37.64	257.99	8.22	-36.7	-37.7	22.3	0.00e+00	122	34	0	383778816	46	6029
2026-01-28 03:12:40.67	258.45	8.33	-36.6	-37.6	22.4	0.00e+00	122	34	0	393216000	46	5949
2026-01-28 03:12:43.70	258.91	8.44	-36.4	-37.3	22.7	0.00e+00	123	34	0	402653184	46	5789
2026-01-28 03:12:46.73	259.37	8.55	-36.4	-37.4	22.6	0.00e+00	123	34	0	412090368	46	5826
2026-01-28 03:12:49.76	259.84	8.66	-36.5	-37.5	22.5	0.00e+00	120	34	0	421527552	46	5914
2026-01-28 03:12:52.79	260.31	8.76	-36.5	-37.5	22.6	0.00e+00	123	34	0	430964736	46	5863
2026-01-28 03:12:55.82	260.79	8.87	-36.3	-37.3	22.8	0.00e+00	122	34	0	440401920	46	5754
2026-01-28 03:12:58.85	261.27	8.97	-36.2	-37.2	22.8	0.00e+00	123	34	0	449839104	46	5701
2026-01-28 03:13:01.88	261.75	9.07	-36.2	-37.2	22.8	0.00e+00	123	34	0	459276288	46	5688
2026-01-28 03:13:04.91	262.23	9.17	-36.6	-37.6	22.5	0.00e+00	122	34	0	469762048	46	5964
2026-01-28 03:13:07.94	262.72	9.27	-36.7	-37.7	22.3	0.00e+00	123	34	0	478150656	46	6038
2026-01-28 03:13:10.97	263.21	9.36	-36.5	-37.5	22.6	0.00e+00	122	34	0	488636416	46	5860
2026-01-28 03:13:14.00	263.71	9.46	-36.3	-37.3	22.7	0.00e+00	120	34	0	497025024	46	5756
2026-01-28 03:13:17.03	264.21	9.55	-36.3	-37.3	22.7	0.00e+00	120	34	0	507510784	46	5739
2026-01-28 03:13:20.06	264.71	9.65	-37.6	-38.7	22.6	0.00e+00	123	34	0	516947968	46	6784
2026-01-28 03:13:23.09	265.21	9.74	-36.4	-37.4	22.6	0.00e+00	123	34	0	526385152	46	5852
2026-01-28 03:13:26.12	265.72	9.83	-36.2	-37.2	22.8	0.00e+00	123	34	0	535822336	46	5689
2026-01-28 03:13:29.15	266.23	9.92	-36.4	-37.4	22.7	0.00e+00	122	34	0	545259520	46	5798
2026-01-28 03:13:32.18	266.74	10.00	-36.5	-37.5	22.5	0.00e+00	123	34	0	554696704	46	5898
2026-01-28 03:13:35.21	267.25	10.09	-36.5	-37.6	22.5	0.00e+00	120	34	0	564133888	46	5927
2026-01-28 03:13:38.24	267.77	10.17	-36.6	-37.6	22.6	0.00e+00	122	34	0	573571072	46	5950
2026-01-28 03:13:41.27	268.29	10.25	-36.4	-37.4	22.6	0.00e+00	123	34	0	583008256	46	5847
2026-01-28 03:13:44.31	268.82	10.33	-36.2	-37.2	22.9	0.00e+00	123	34	0	592445440	46	5699
2026-01-28 03:13:47.34	269.34	10.41	-36.2	-37.1	23.0	0.00e+00	123	34	0	601882624	46	5656
2026-01-28 03:13:50.37	269.87	10.48	-36.2	-37.2	22.9	0.00e+00	120	34	0	611319808	46	5675
2026-01-28 03:13:53.40	270.40	10.55	-36.3	-37.2	22.9	0.00e+00	123	34	0	620756992	46	5724
2026-01-28 03:13:56.43	270.94	10.62	-36.3	-37.3	22.8	0.00e+00	122	34	0	630194176	46	5726
2026-01-28 03:13:59.45	271.47	10.69	-36.2	-37.2	22.8	0.00e+00	122	34	0	639631360	46	5665
2026-01-28 03:14:02.48	272.01	10.76	-36.2	-37.2	22.8	0.00e+00	123	34	0	649068544	46	5667
2026-01-28 03:14:05.51	272.55	10.83	-36.1	-37.1	23.0	0.00e+00	123	34	0	658505728	46	5603
2026-01-28 03:14:08.54	273.10	10.89	-36.2	-37.2	22.9	0.00e+00	123	34	0	667942912	46	5666
2026-01-28 03:14:11.58	273.64	10.95	-36.4	-37.4	22.7	0.00e+00	123	34	0	677380096	46	5797
2026-01-28 03:14:14.61	274.19	11.01	-36.1	-37.1	22.9	0.00e+00	123	34	0	686817280	46	5646
2026-01-28 03:14:17.64	274.74	11.07	-36.1	-37.0	23.1	0.00e+00	122	34	0	696254464	46	5587
2026-01-28 03:14:20.67	275.29	11.12	-36.1	-37.0	22.9	0.00e+00	123	34	0	705691648	46	5579
2026-01-28 03:14:23.70	275.85	11.17	-36.4	-37.4	22.7	0.00e+00	123	34	0	715128832	46	5802
2026-01-28 03:14:26.74	276.41	11.22	-36.3	-37.3	22.8	0.00e+00	123	34	0	724566016	46	5788
2026-01-28 03:14:29.77	276.96	11.27	-36.3	-37.3	22.9	0.00e+00	120	34	0	734003200	46	5733
2026-01-28 03:14:32.80	277.52	11.31	-36.2	-37.1	22.9	0.00e+00	123	34	0	743440384	46	5649
2026-01-28 03:14:35.83	278.08	11.36	-36.3	-37.3	22.8	0.00e+00	122	34	0	752877568	46	5769
2026-01-28 03:14:38.86	278.64	11.40	-36.1	-37.1	23.0	0.00e+00	122	34	0	763363328	46	5627
2026-01-28 03:14:41.89	279.21	11.44	-35.9	-36.8	23.1	0.00e+00	122	34	0	771751936	46	5452
2026-01-28 03:14:44.92	279.77	11.47	-35.8	-36.8	23.0	0.00e+00	123	34	0	782237696	44	6113
2026-01-28 03:14:47.95	280.34	11.50	-35.9	-36.9	23.0	0.00e+00	123	34	0	790626304	44	6171
2026-01-28 03:14:50.98	280.91	11.53	-36.0	-36.9	23.1	0.00e+00	122	34	0	801112064	44	6197
2026-01-28 03:14:54.01	281.48	11.56	-35.8	-36.8	23.1	0.00e+00	120	34	0	810549248	44	6099
2026-01-28 03:14:57.04	282.05	11.59	-36.1	-37.0	23.0	0.00e+00	123	34	0	819986432	44	6268
2026-01-28 03:15:00.07	282.62	11.61	-36.1	-37.1	22.9	0.00e+00	123	34	0	829423616	44	6317
2026-01-28 03:15:03.11	283.19	11.63	-36.1	-37.1	23.0	0.00e+00	123	34	0	838860800	44	6285
2026-01-28 03:15:06.13	283.76	11.65	-35.8	-36.8	23.1	0.00e+00	121	34	0	848297984	44	6103
2026-01-28 03:15:09.17	284.33	11.67	-35.7	-36.6	23.3	0.00e+00	120	34	0	857735168	44	5969
2026-01-28 03:15:12.20	284.91	11.68	-35.5	-36.4	23.4	0.00e+00	122	34	0	867172352	44	5838
2026-01-28 03:15:15.23	285.48	11.69	-35.5	-36.4	23.4	0.00e+00	123	34	0	876609536	44	5831
2026-01-28 03:15:18.26	286.05	11.70	-35.6	-36.5	23.4	0.00e+00	123	34	0	886046720	44	5890
2026-01-28 03:15:21.29	286.63	11.70	-35.7	-36.6	23.2	0.00e+00	123	34	0	895483904	44	5973
2026-01-28 03:15:24.32	287.20	11.71	-35.8	-36.7	23.2	0.00e+00	123	34	0	904921088	44	6061
2026-01-28 03:15:27.35	287.78	11.71	-35.8	-36.8	23.2	0.00e+00	123	34	0	914358272	44	6068
2026-01-28 03:15:30.38	288.35	11.70	-35.8	-36.8	23.2	0.00e+00	123	34	0	923795456	44	6101
2026-01-28 03:15:33.41	288.92	11.70	-35.6	-36.6	23.3	0.00e+00	120	34	0	933232640	44	5932
2026-01-28 03:15:36.45	289.50	11.69	-35.7	-36.6	23.2	0.00e+00	122	34	0	942669824	44	5980
2026-01-28 03:15:39.48	290.07	11.68	-35.7	-36.7	23.2	0.00e+00	122	34	0	952107008	44	6010
2026-01-28 03:15:42.51	290.64	11.67	-35.6	-36.5	23.4	0.00e+00	122	34	0	961544192	44	5926
2026-01-28 03:15:45.54	291.22	11.65	-35.7	-36.6	23.3	0.00e+00	122	34	0	970981376	44	5986
2026-01-28 03:15:48.57	291.79	11.64	-35.8	-36.8	23.2	0.00e+00	122	34	0	980418560	44	6089
2026-01-28 03:15:51.60	292.36	11.62	-35.9	-36.9	23.1	0.00e+00	123	34	0	989855744	44	6175
2026-01-28 03:15:54.63	292.93	11.59	-35.7	-36.7	23.2	0.00e+00	124	34	0	999292928	44	6015
2026-01-28 03:15:57.66	293.50	11.57	-35.9	-36.8	23.1	0.00e+00	120	34	0	1008730112	44	6125
2026-01-28 03:16:00.69	294.07	11.54	-36.0	-36.9	23.1	0.00e+00	123	34	0	1018167296	44	6175
2026-01-28 03:16:03.73	294.63	11.51	-36.0	-37.0	23.1	0.00e+00	121	34	0	1027604480	44	6206
2026-01-28 03:16:06.76	295.20	11.48	-35.8	-36.8	23.2	0.00e+00	122	34	0	1037041664	44	6090
2026-01-28 03:16:09.79	295.76	11.44	-36.0	-37.0	23.1	0.00e+00	123	34	0	1046478848	44	6221
2026-01-28 03:16:12.82	296.33	11.40	-36.0	-36.9	23.1	0.00e+00	123	34	0	1055916032	44	6196
2026-01-28 03:16:15.85	296.89	11.36	-36.1	-37.1	23.0	0.00e+00	123	34	0	1065353216	44	6326
2026-01-28 03:16:18.88	297.45	11.32	-35.7	-36.7	23.3	0.00e+00	123	34	0	1075838976	44	6018
2026-01-28 03:16:21.91	298.01	11.28	-35.8	-36.7	23.3	0.00e+00	123	34	0	1085276160	44	6024
2026-01-28 03:16:24.94	298.56	11.23	-35.9	-36.9	23.2	0.00e+00	120	34	0	1094713344	44	6147
2026-01-28 03:16:27.97	299.12	11.18	-36.1	-37.1	23.0	0.00e+00	123	34	0	1104150528	44	6279
2026-01-28 03:16:31.00	299.67	11.13	-35.9	-36.8	23.1	0.00e+00	123	34	0	1113587712	44	6118
2026-01-28 03:16:34.03	300.22	11.08	-35.8	-36.8	23.1	0.00e+00	123	34	0	1123024896	44	6106
2026-01-28 03:16:37.05	300.77	11.02	-36.0	-36.9	23.0	0.00e+00	122	34	0	1132462080	44	6196
2026-01-28 03:16:40.09	301.32	10.96	-35.8	-36.7	23.2	0.00e+00	122	34	0	1141899264	44	6050
2026-01-28 03:16:43.12	301.86	10.90	-36.0	-37.0	23.0	0.00e+00	120	34	0	1151336448	44	6229
2026-01-28 03:16:46.15	302.41	10.84	-35.9	-36.8	23.1	0.00e+00	123	34	0	1160773632	44	6104
2026-01-28 03:16:49.17	302.94	10.78	-36.1	-37.1	23.0	0.00e+00	122	34	0	1170210816	44	6312
2026-01-28 03:16:52.21	303.48	10.71	-36.2	-37.1	22.8	0.00e+00	123	34	0	1179648000	44	6343
2026-01-28 03:16:55.24	304.02	10.64	-36.0	-37.0	23.0	0.00e+00	120	34	0	1189085184	44	6244
2026-01-28 03:16:58.27	304.55	10.57	-36.1	-37.0	23.1	0.00e+00	120	34	0	1198522368	44	6272
2026-01-28 03:17:01.30	305.08	10.50	-36.0	-37.0	23.1	0.00e+00	123	34	0	1207959552	44	6225
2026-01-28 03:17:04.33	305.61	10.42	-36.4	-37.4	22.7	0.00e+00	120	34	0	1217396736	44	6525
2026-01-28 03:17:07.36	306.14	10.35	-36.7	-37.6	22.5	0.00e+00	123	34	0	1226833920	46	5993
2026-01-28 03:17:10.39	306.66	10.27	-36.7	-37.7	22.5	0.00e+00	120	34	0	1236271104	46	6056
2026-01-28 03:17:13.42	307.18	10.19	-36.4	-37.4	22.8	0.00e+00	123	34	0	1245708288	46	5799
2026-01-28 03:17:16.45	307.69	10.11	-36.2	-37.1	22.9	0.00e+00	120	34	0	1255145472	46	5655
2026-01-28 03:17:19.48	308.21	10.02	-36.1	-37.0	23.0	0.00e+00	122	34	0	1264582656	46	5577
2026-01-28 03:17:22.51	308.72	9.94	-36.4	-37.4	22.8	0.00e+00	120	34	0	1274019840	46	5818
2026-01-28 03:17:25.55	309.23	9.85	-36.3	-37.2	22.8	0.00e+00	122	34	0	1283457024	46	5715
2026-01-28 03:17:28.58	309.74	9.76	-36.3	-37.3	22.8	0.00e+00	122	34	0	1292894208	46	5756
2026-01-28 03:17:31.61	310.24	9.67	-36.7	-37.8	22.1	0.00e+00	122	34	0	1302331392	46	6065
2026-01-28 03:17:34.64	310.74	9.58	-37.0	-38.0	22.3	0.00e+00	122	34	0	1311768576	46	6232
2026-01-28 03:17:37.66	311.23	9.49	-36.7	-37.7	22.5	0.00e+00	120	34	0	1321205760	46	6005
2026-01-28 03:17:40.69	311.72	9.39	-36.5	-37.4	22.5	0.00e+00	121	34	0	1330642944	46	5848
2026-01-28 03:17:43.72	312.21	9.30	-36.5	-37.5	22.5	0.00e+00	122	34	0	1340080128	46	5865
2026-01-28 03:17:46.75	312.70	9.20	-36.3	-37.3	22.7	0.00e+00	123	34	0	1349517312	46	5746
2026-01-28 03:17:49.79	313.19	9.10	-36.2	-37.3	22.7	0.00e+00	122	34	0	1358954496	46	5729
2026-01-28 03:17:52.82	313.67	9.00	-36.1	-37.1	22.8	0.00e+00	123	34	0	1369440256	46	5636
2026-01-28 03:17:55.84	314.14	8.90	-36.2	-37.2	22.8	0.00e+00	122	34	0	1377828864	46	5689
2026-01-28 03:17:58.87	314.62	8.80	-36.5	-37.5	22.6	0.00e+00	123	34	0	1388314624	46	5915
2026-01-28 03:18:01.90	315.09	8.69	-36.7	-37.7	22.2	0.00e+00	123	34	0	1397751808	46	6037
2026-01-28 03:18:04.93	315.56	8.59	-36.6	-37.6	22.4	0.00e+00	123	34	0	1407188992	46	5974
2026-01-28 03:18:07.96	316.02	8.48	-36.6	-37.6	22.4	0.00e+00	123	34	0	1416626176	46	5937
2026-01-28 03:18:10.99	316.48	8.37	-36.7	-37.7	22.3	0.00e+00	122	34	0	1426063360	46	6018
2026-01-28 03:18:14.02	316.94	8.26	-36.6	-37.7	22.3	0.00e+00	123	34	0	1435500544	46	6006
2026-01-28 03:18:17.05	317.39	8.15	-36.7	-37.8	22.3	0.00e+00	123	34	0	1444937728	46	6068
2026-01-28 03:18:20.08	317.84	8.04	-36.9	-38.0	22.1	0.00e+00	123	34	0	1454374912	46	6237
2026-01-28 03:18:23.11	318.29	7.93	-37.0	-38.1	21.9	0.00e+00	122	34	0	1463812096	46	6300
2026-01-28 03:18:26.14	318.74	7.82	-37.1	-38.1	21.9	0.00e+00	120	34	0	1473249280	46	6319
2026-01-28 03:18:29.17	319.18	7.71	-36.9	-38.0	22.0	0.00e+00	123	34	0	1482686464	46	6207
2026-01-28 03:18:32.20	319.61	7.59	-36.6	-37.6	22.3	0.00e+00	120	34	0	1492123648	46	5988
2026-01-28 03:18:35.23	320.05	7.48	-36.9	-37.9	22.1	0.00e+00	123	34	0	1501560832	46	6159
2026-01-28 03:18:38.26	320.48	7.36	-37.0	-38.0	21.9	0.00e+00	122	34	0	1510998016	46	6263
2026-01-28 03:18:41.28	320.91	7.24	-37.2	-38.3	21.7	0.00e+00	122	34	0	1520435200	46	6457
2026-01-28 03:18:44.31	321.33	7.12	-37.4	-38.5	21.6	0.00e+00	123	34	0	1529872384	46	6590
2026-01-28 03:18:47.34	321.75	7.01	-37.4	-38.5	21.4	0.00e+00	123	34	0	1539309568	46	6629
2026-01-28 03:18:50.37	322.17	6.89	-36.9	-37.9	21.8	0.00e+00	123	34	0	1548746752	46	6197
2026-01-28 03:18:53.40	322.58	6.77	-37.1	-38.1	21.8	0.00e+00	122	34	0	1558183936	46	6341
2026-01-28 03:18:56.43	322.99	6.65	-37.0	-38.1	21.9	0.00e+00	123	34	0	1567621120	46	6282
2026-01-28 03:18:59.46	323.40	6.52	-37.1	-38.2	21.7	0.00e+00	123	34	0	1577058304	46	6380
2026-01-28 03:19:02.49	323.81	6.40	-37.2	-38.3	21.7	0.00e+00	123	34	0	1586495488	46	6445
2026-01-28 03:19:05.52	324.21	6.28	-37.2	-38.3	21.6	0.00e+00	123	34	0	1595932672	46	6437
2026-01-28 03:19:08.55	324.61	6.16	-37.1	-38.1	21.8	0.00e+00	121	34	0	1605369856	46	6314
2026-01-28 03:19:11.57	325.00	6.03	-37.2	-38.3	21.5	0.00e+00	122	34	0	1614807040	46	6442
2026-01-28 03:19:14.61	325.39	5.91	-37.0	-38.1	21.8	0.00e+00	122	34	0	1624244224	46	6312
2026-01-28 03:19:17.64	325.78	5.78	-37.1	-38.1	21.6	0.00e+00	123	34	0	1633681408	46	6349
2026-01-28 03:19:20.67	326.17	5.66	-37.2	-38.3	21.5	0.00e+00	123	34	0	1643118592	46	6438
2026-01-28 03:19:23.70	326.55	5.53	-37.6	-38.7	21.1	0.00e+00	123	34	0	1652555776	46	6804
2026-01-28 03:19:26.73	326.93	5.41	-37.7	-38.8	21.2	0.00e+00	120	34	0	1661992960	48	6065
2026-01-28 03:19:29.75	327.30	5.28	-37.8	-39.0	21.0	0.00e+00	123	34	0	1671430144	48	6217
2026-01-28 03:19:32.79	327.68	5.15	-37.6	-38.8	21.0	0.00e+00	122	34	0	1680867328	48	6067
2026-01-28 03:19:35.82	328.05	5.03	-37.8	-38.9	20.8	0.00e+00	122	34	0	1690304512	48	6204
2026-01-28 03:19:38.85	328.41	4.90	-37.8	-38.9	20.9	0.00e+00	123	34	0	1699741696	48	6183
2026-01-28 03:19:41.88	328.78	4.77	-37.9	-39.1	20.6	0.00e+00	122	34	0	1710227456	48	6297
2026-01-28 03:19:44.91	329.14	4.64	-37.9	-39.0	20.6	0.00e+00	123	34	0	1719664640	48	6245
2026-01-28 03:19:47.93	329.49	4.52	-37.9	-39.1	20.7	0.00e+00	123	34	0	1729101824	48	6286
2026-01-28 03:19:50.97	329.85	4.39	-37.7	-38.9	20.7	0.00e+00	123	34	0	1738539008	48	6137
2026-01-28 03:19:54.00	330.20	4.26	-37.7	-38.9	20.7	0.00e+00	122	34	0	1747976192	48	6140
2026-01-28 03:19:57.03	330.55	4.13	-37.6	-38.8	20.7	0.00e+00	122	34	0	1757413376	48	6082
2026-01-28 03:20:00.06	330.90	4.00	-38.0	-39.2	20.1	0.00e+00	122	34	0	1766850560	48	6369
2026-01-28 03:20:03.09	331.24	3.87	-39.0	-40.4	18.5	0.00e+00	123	34	0	1776287744	50	6556
2026-01-28 03:20:06.12	331.58	3.74	-40.4	-42.3	15.8	0.00e+00	123	34	0	1785724928	52	7224
2026-01-28 03:20:09.15	331.92	3.61	-42.1	-45.3	11.3	8.28e-04	122	34	0	1795162112	56	8174
2026-01-28 03:20:12.18	332.25	3.48	-43.3	-49.4	5.9	2.30e-01	122	34	0	1804599296	58	11563
2026-01-28 03:20:15.21	332.58	3.35	-43.8	-54.6	3.6	1.49e+00	0	34	104	1804599296	58	21059
2026-01-28 03:20:18.24	332.91	3.22	-43.9	-56.7	3.5	1.52e+00	0	34	104	1804599296	60	23882
2026-01-28 03:20:21.26	333.24	3.09	-43.8	-56.5	3.5	1.51e+00	0	34	104	1804599296	60	23523
2026-01-28 03:20:24.29	333.56	2.96	-47.8	-60.7	3.5	1.52e+00	0	34	104	1804599296	60	38189
2026-01-28 03:20:27.32	333.88	2.83	-48.7	-61.5	3.5	1.52e+00	0	34	104	1804599296	60	41887
2026-01-28 03:20:30.34	334.20	2.70	-49.0	-61.9	3.5	1.52e+00	0	34	104	1804599296	60	43469
2026-01-28 03:20:33.37	334.51	2.57	-49.1	-62.0	3.5	1.52e+00	0	34	104	1804599296	60	44169
2026-01-28 03:20:36.40	334.82	2.43	-49.1	-62.0	3.5	1.51e+00	0	34	104	1804599296	60	44024
2026-01-28 03:20:39.43	335.13	2.30	-49.0	-61.9	3.5	1.52e+00	0	34	104	1804599296	60	43739
2026-01-28 03:20:42.46	335.44	2.17	-49.0	-61.9	3.5	1.51e+00	0	34	104	1804599296	60	43690
2026-01-28 03:20:45.49	335.74	2.04	-49.0	-61.8	3.5	1.52e+00	0	34	104	1804599296	60	43392
2026-01-28 03:20:48.53	336.05	1.91	-48.9	-61.8	3.5	1.52e+00	0	34	104	1804599296	60	43367
2026-01-28 03:20:51.55	336.35	1.78	-48.9	-61.8	3.5	1.52e+00	0	34	104	1804599296	60	43423
2026-01-28 03:20:54.59	336.64	1.65	-48.9	-61.8	3.5	1.52e+00	0	34	104	1804599296	60	43263
2026-01-28 03:20:57.62	336.94	1.52	-48.9	-61.8	3.5	1.52e+00	0	34	104	1804599296	60	43196
2026-01-28 03:21:00.65	337.23	1.39	-48.9	-61.8	3.5	1.51e+00	0	34	104	1804599296	60	43342
2026-01-28 03:21:03.68	337.52	1.25	-48.9	-61.8	3.5	1.52e+00	0	34	104	1804599296	60	43191
2026-01-28 03:21:06.71	337.81	1.12	-48.9	-61.8	3.5	1.52e+00	0	34	104	1804599296	60	43101
2026-01-28 03:21:09.74	338.09	0.99	-48.9	-61.8	3.5	1.52e+00	0	34	104	1804599296	60	43060
2026-01-28 03:21:12.77	338.38	0.86	-48.9	-61.8	3.5	1.52e+00	0	34	104	1804599296	60	43152
2026-01-28 03:21:15.80	338.66	0.73	-48.9	-61.8	3.5	1.52e+00	0	34	104	1804599296	60	43020
2026-01-28 03:21:18.83	338.93	0.60	-48.9	-61.8	3.5	1.52e+00	0	34	104	1804599296	60	43257
2026-01-28 03:21:21.86	339.21	0.47	-48.9	-61.8	3.5	1.52e+00	0	34	104	1804599296	60	43108
2026-01-28 03:21:24.89	339.48	0.34	-48.9	-61.8	3.5	1.52e+00	0	34	104	1804599296	60	43164
2026-01-28 03:21:27.92	339.75	0.21	-48.9	-61.8	3.5	1.51e+00	0	34	104	1804599296	60	43162
2026-01-28 03:21:30.95	340.02	0.08	-48.9	-61.8	3.5	1.51e+00	0	34	104	1804599296	60	43186
2026-01-28 03:21:33.98	340.29	-0.05	-48.9	-61.8	3.5	1.52e+00	0	34	104	1804599296	60	43106

#Closed at: 2026-01-28 03:21:35
#Recorded file [1804 MB]: D:/lorett/data/35029_260128_150923.dat