passes_logs/2026/01/28/R4.6S_Anadyr/R4.6S_Anadyr__20260128_025212_FENGYUN_3D_rec.log

#Pass ID: 20260128_025212_FENGYUN 3D
#Satellite: FENGYUN 3D
#Configuration: FENGYUN 3D
#almurnet v.1.7.20251203
#Start time: 2026-01-28 02:52:14

#Version: 2.2.20231116
#Station: R4.6S_Anadyr
#Location: 177.4865 lon 64.73178 lat
#TLE: 1 43010U 17072A   26027.61892183  .00000301  00000+0  16406-3 0  9993
#TLE: 2 43010  98.9961 359.6320 0002526  87.4560 272.6905 14.19701415425044

#Time	Az	El	Level	Level2	SNR	BER	BlckErr	Temp	State	Recorded	gain1	gain2
2026-01-28 02:52:14.88	170.83	0.12	-45.7	-60.1	3.5	1.51e+00	0	30	0	0	60	41187
2026-01-28 02:52:18.92	170.92	0.36	-49.1	-61.1	3.6	8.44e-01	0	32	104	0	60	41258
2026-01-28 02:52:22.96	171.01	0.60	-49.1	-61.3	3.6	8.44e-01	0	32	104	0	60	41757
2026-01-28 02:52:27.00	171.10	0.85	-49.1	-61.2	3.6	8.45e-01	0	32	104	0	60	41546
2026-01-28 02:52:31.04	171.19	1.10	-49.0	-61.2	3.6	8.44e-01	0	32	104	0	60	41275
2026-01-28 02:52:35.08	171.28	1.35	-48.8	-60.9	3.6	8.46e-01	0	32	104	0	60	40189
2026-01-28 02:52:39.11	171.37	1.60	-48.1	-60.2	3.6	8.45e-01	0	32	104	0	60	36791
2026-01-28 02:52:43.15	171.47	1.85	-47.7	-59.6	3.6	8.45e-01	0	32	104	0	60	34548
2026-01-28 02:52:47.19	171.56	2.11	-47.7	-59.7	3.6	8.45e-01	0	32	104	0	60	34996
2026-01-28 02:52:51.23	171.66	2.36	-47.7	-59.6	3.6	8.46e-01	0	32	104	0	60	34504
2026-01-28 02:52:55.27	171.76	2.62	-47.5	-57.3	3.6	8.44e-01	0	32	104	0	60	26531
2026-01-28 02:52:59.31	171.86	2.89	-47.7	-59.7	3.6	8.45e-01	0	32	104	0	60	34816
2026-01-28 02:53:03.35	171.96	3.15	-43.2	-45.4	13.5	5.83e-05	0	32	0	10485760	60	6697
2026-01-28 02:53:07.39	172.06	3.42	-37.4	-38.3	20.3	0.00e+00	0	32	0	33554432	48	5914
2026-01-28 02:53:11.43	172.17	3.69	-36.9	-37.8	21.0	0.00e+00	0	32	0	55574528	46	6271
2026-01-28 02:53:15.47	172.28	3.96	-37.7	-38.6	20.4	2.86e-05	0	32	0	78643200	50	5485
2026-01-28 02:53:19.50	172.39	4.24	-38.0	-38.9	20.1	0.00e+00	0	32	0	98566144	48	6377
2026-01-28 02:53:23.55	172.50	4.52	-37.0	-37.9	21.0	0.00e+00	0	32	0	121634816	48	5643
2026-01-28 02:53:27.58	172.61	4.80	-35.5	-36.2	22.5	0.00e+00	0	32	0	144703488	44	5886
2026-01-28 02:53:31.63	172.72	5.08	-35.1	-35.8	23.1	0.00e+00	0	32	0	166723584	44	5626
2026-01-28 02:53:35.67	172.84	5.37	-34.9	-35.6	23.4	0.00e+00	0	32	0	189792256	42	6158
2026-01-28 02:53:39.71	172.96	5.66	-34.7	-35.4	23.5	0.00e+00	0	33	0	212860928	42	5984
2026-01-28 02:53:43.75	173.08	5.95	-34.7	-35.5	23.6	0.00e+00	0	33	0	235929600	42	6040
2026-01-28 02:53:47.79	173.20	6.25	-34.5	-35.2	23.7	0.00e+00	0	32	0	257949696	42	5876
2026-01-28 02:53:51.83	173.33	6.55	-34.3	-35.0	24.0	0.00e+00	0	33	0	281018368	42	5757
2026-01-28 02:53:55.87	173.46	6.85	-34.2	-34.9	24.1	0.00e+00	0	32	0	303038464	42	5634
2026-01-28 02:53:59.91	173.59	7.16	-34.3	-35.0	24.2	0.00e+00	0	33	0	326107136	42	5705
2026-01-28 02:54:03.96	173.72	7.47	-34.2	-34.9	24.1	0.00e+00	0	33	0	349175808	42	5655
2026-01-28 02:54:08.00	173.86	7.79	-34.2	-34.9	24.2	0.00e+00	0	33	0	372244480	42	5655
2026-01-28 02:54:12.04	173.99	8.10	-33.7	-34.4	24.6	0.00e+00	0	33	0	394264576	40	6027
2026-01-28 02:54:16.08	174.13	8.43	-33.7	-34.4	24.5	0.00e+00	0	33	0	417333248	40	6004
2026-01-28 02:54:20.12	174.28	8.75	-33.7	-34.4	24.6	0.00e+00	0	33	0	440401920	40	6021
2026-01-28 02:54:24.16	174.42	9.08	-33.6	-34.3	24.7	0.00e+00	0	33	0	462422016	40	5951
2026-01-28 02:54:28.20	174.57	9.42	-33.6	-34.3	24.8	0.00e+00	0	33	0	485490688	40	5957
2026-01-28 02:54:32.24	174.73	9.76	-33.6	-34.4	24.7	0.00e+00	0	33	0	507510784	40	5967
2026-01-28 02:54:36.28	174.88	10.10	-33.7	-34.4	24.8	0.00e+00	0	33	0	530579456	40	5973
2026-01-28 02:54:40.32	175.04	10.45	-33.6	-34.3	24.9	0.00e+00	0	33	0	553648128	40	5958
2026-01-28 02:54:44.36	175.20	10.80	-33.5	-34.2	24.9	0.00e+00	0	33	0	576716800	40	5890
2026-01-28 02:54:48.40	175.37	11.16	-33.4	-34.1	25.1	0.00e+00	0	33	0	598736896	40	5767
2026-01-28 02:54:52.44	175.54	11.52	-33.4	-34.1	25.1	0.00e+00	0	33	0	621805568	40	5809
2026-01-28 02:54:56.48	175.72	11.89	-33.2	-33.9	25.3	0.00e+00	0	33	0	644874240	40	5652
2026-01-28 02:55:00.52	175.89	12.27	-33.1	-33.7	25.4	0.00e+00	0	33	0	666894336	40	5547
2026-01-28 02:55:04.56	176.08	12.65	-33.1	-33.7	25.5	0.00e+00	0	33	0	689963008	40	5564
2026-01-28 02:55:08.60	176.26	13.03	-33.1	-33.8	25.4	0.00e+00	0	33	0	713031680	40	5616
2026-01-28 02:55:12.64	176.45	13.42	-32.9	-33.6	25.6	0.00e+00	0	33	0	735051776	40	5470
2026-01-28 02:55:16.68	176.65	13.82	-32.9	-33.6	25.7	0.00e+00	0	33	0	758120448	40	5468
2026-01-28 02:55:20.72	176.85	14.22	-32.6	-33.3	25.9	0.00e+00	0	33	0	781189120	38	5930
2026-01-28 02:55:24.77	177.06	14.64	-32.4	-33.1	26.1	0.00e+00	0	33	0	803209216	38	5772
2026-01-28 02:55:28.80	177.27	15.05	-32.2	-32.9	26.2	0.00e+00	0	33	0	826277888	38	5658
2026-01-28 02:55:32.84	177.49	15.48	-32.4	-33.1	26.2	0.00e+00	0	33	0	849346560	38	5766
2026-01-28 02:55:36.88	177.71	15.91	-31.9	-32.5	26.6	0.00e+00	0	33	0	871366656	38	5402
2026-01-28 02:55:40.92	177.94	16.35	-31.8	-32.4	26.7	0.00e+00	0	33	0	894435328	36	6020
2026-01-28 02:55:44.97	178.18	16.79	-31.7	-32.3	26.8	0.00e+00	0	33	0	917504000	36	5963
2026-01-28 02:55:49.01	178.42	17.25	-31.5	-32.1	27.0	0.00e+00	0	33	0	939524096	36	5793
2026-01-28 02:55:53.05	178.67	17.71	-31.4	-32.0	27.0	0.00e+00	0	33	0	962592768	36	5732
2026-01-28 02:55:57.09	178.93	18.18	-31.1	-31.7	27.3	0.00e+00	0	33	0	985661440	36	5559
2026-01-28 02:56:01.13	179.19	18.66	-31.2	-31.8	27.3	0.00e+00	0	33	0	1007681536	36	5595
2026-01-28 02:56:05.17	179.47	19.15	-31.1	-31.7	27.2	0.00e+00	0	33	0	1030750208	36	5563
2026-01-28 02:56:09.20	179.75	19.64	-30.9	-31.6	27.4	0.00e+00	0	33	0	1053818880	36	5446
2026-01-28 02:56:13.23	180.04	20.15	-30.7	-31.3	27.7	0.00e+00	0	33	0	1075838976	34	5932
2026-01-28 02:56:17.27	180.34	20.67	-30.7	-31.3	27.6	0.00e+00	0	33	0	1098907648	34	5953
2026-01-28 02:56:21.32	180.65	21.19	-30.6	-31.3	27.7	0.00e+00	0	33	0	1121976320	34	5906
2026-01-28 02:56:25.36	180.97	21.73	-30.6	-31.2	27.7	0.00e+00	0	33	0	1143996416	34	5884
2026-01-28 02:56:29.40	181.30	22.28	-30.4	-31.1	27.7	0.00e+00	0	33	0	1167065088	34	5766
2026-01-28 02:56:33.44	181.64	22.84	-30.5	-31.1	27.8	0.00e+00	0	33	0	1190133760	34	5823
2026-01-28 02:56:37.48	181.99	23.41	-30.3	-30.9	27.9	0.00e+00	0	33	0	1212153856	34	5665
2026-01-28 02:56:41.52	182.36	23.99	-30.3	-30.9	27.9	0.00e+00	0	33	0	1235222528	34	5673
2026-01-28 02:56:45.56	182.74	24.59	-30.1	-30.8	28.1	0.00e+00	0	33	0	1258291200	34	5583
2026-01-28 02:56:49.59	183.13	25.19	-30.1	-30.8	28.0	0.00e+00	0	33	0	1281359872	34	5581
2026-01-28 02:56:53.63	183.54	25.81	-29.8	-30.4	28.3	0.00e+00	0	33	0	1303379968	34	5368
2026-01-28 02:56:57.67	183.97	26.44	-29.6	-30.2	28.5	0.00e+00	0	33	0	1326448640	32	5881
2026-01-28 02:57:01.71	184.41	27.09	-29.8	-30.4	28.4	0.00e+00	0	33	0	1348468736	32	5965
2026-01-28 02:57:05.75	184.87	27.75	-29.9	-30.5	28.3	0.00e+00	0	33	0	1371537408	32	6044
2026-01-28 02:57:09.78	185.34	28.42	-29.9	-30.5	28.3	0.00e+00	0	33	0	1394606080	32	6062
2026-01-28 02:57:13.82	185.84	29.11	-29.9	-30.6	28.3	0.00e+00	0	33	0	1416626176	32	6116
2026-01-28 02:57:17.87	186.36	29.82	-29.5	-30.2	28.6	0.00e+00	0	33	0	1439694848	32	5834
2026-01-28 02:57:21.90	186.90	30.53	-29.8	-30.4	28.4	0.00e+00	0	33	0	1462763520	32	6002
2026-01-28 02:57:25.94	187.47	31.27	-29.8	-30.4	28.4	0.00e+00	0	33	0	1484783616	32	6011
2026-01-28 02:57:29.98	188.06	32.02	-30.0	-30.7	28.2	0.00e+00	0	33	0	1507852288	32	6199
2026-01-28 02:57:34.02	188.68	32.79	-29.6	-30.2	28.5	0.00e+00	0	33	0	1530920960	32	5875
2026-01-28 02:57:38.06	189.33	33.57	-29.5	-30.1	28.6	0.00e+00	0	33	0	1552941056	32	5805
2026-01-28 02:57:42.10	190.01	34.37	-29.3	-29.9	28.7	0.00e+00	0	33	0	1576009728	32	5672
2026-01-28 02:57:46.14	190.72	35.18	-29.5	-30.1	28.6	0.00e+00	0	33	0	1599078400	32	5828
2026-01-28 02:57:50.18	191.47	36.01	-29.6	-30.2	28.6	0.00e+00	0	33	0	1621098496	32	5864
2026-01-28 02:57:54.22	192.26	36.86	-29.2	-29.8	28.8	0.00e+00	0	33	0	1644167168	32	5584
2026-01-28 02:57:58.26	193.09	37.73	-29.1	-29.7	28.8	0.00e+00	0	33	0	1667235840	32	5516
2026-01-28 02:58:02.31	193.97	38.61	-29.5	-30.1	28.7	0.00e+00	0	33	0	1690304512	32	5771
2026-01-28 02:58:06.34	194.89	39.50	-29.4	-30.0	28.7	0.00e+00	0	33	0	1712324608	32	5753
2026-01-28 02:58:10.38	195.86	40.41	-29.3	-29.9	28.8	0.00e+00	0	33	0	1735393280	32	5687
2026-01-28 02:58:14.42	196.89	41.34	-29.3	-29.9	28.8	0.00e+00	0	33	0	1757413376	32	5647
2026-01-28 02:58:18.45	197.98	42.27	-29.6	-30.2	28.5	0.00e+00	0	33	0	1780482048	32	5855
2026-01-28 02:58:22.49	199.14	43.22	-29.6	-30.2	28.5	0.00e+00	0	33	0	1803550720	32	5880
2026-01-28 02:58:26.53	200.36	44.18	-29.9	-30.5	28.3	0.00e+00	0	33	0	1825570816	32	6062
2026-01-28 02:58:30.57	201.66	45.15	-29.7	-30.3	28.5	0.00e+00	0	33	0	1848639488	32	5964
2026-01-28 02:58:34.61	203.04	46.13	-29.8	-30.4	28.4	0.00e+00	0	33	0	1871708160	32	5997
2026-01-28 02:58:38.65	204.51	47.11	-29.5	-30.2	28.6	0.00e+00	0	33	0	1894776832	32	5834
2026-01-28 02:58:42.70	206.07	48.09	-30.6	-31.3	27.9	0.00e+00	0	33	0	1916796928	32	6664
2026-01-28 02:58:46.74	207.73	49.07	-30.1	-30.8	28.1	0.00e+00	0	33	0	1939865600	32	6257
2026-01-28 02:58:50.78	209.50	50.05	-30.3	-30.9	27.9	0.00e+00	0	33	0	1961885696	32	6381
2026-01-28 02:58:54.82	211.39	51.01	-29.9	-30.5	28.3	0.00e+00	0	33	0	1984954368	32	6083
2026-01-28 02:58:58.86	213.40	51.96	-30.5	-31.1	27.8	0.00e+00	0	33	0	2008023040	32	6531
2026-01-28 02:59:02.87	215.52	52.89	-30.6	-31.2	27.9	0.00e+00	0	33	0	2030043136	32	6605
2026-01-28 02:59:06.91	217.80	53.79	-30.8	-31.4	27.6	0.00e+00	0	33	0	2053111808	34	6007
2026-01-28 02:59:10.94	220.21	54.67	-31.3	-32.0	27.2	0.00e+00	0	33	0	2076180480	34	6416
2026-01-28 02:59:14.98	222.78	55.50	-31.5	-32.1	27.2	0.00e+00	0	33	0	2098200576	34	6512
2026-01-28 02:59:19.03	225.50	56.29	-30.8	-31.5	27.7	0.00e+00	0	33	0	2121269248	34	6049
2026-01-28 02:59:23.07	228.37	57.02	-30.6	-31.2	27.8	0.00e+00	0	33	0	2144337920	34	5871
2026-01-28 02:59:27.11	231.39	57.69	-30.6	-31.2	27.8	0.00e+00	0	33	0	2166358016	34	5847
2026-01-28 02:59:31.15	234.55	58.29	-30.0	-30.6	28.3	0.00e+00	0	33	0	2189426688	34	5479
2026-01-28 02:59:35.18	237.84	58.81	-30.3	-30.9	28.0	0.00e+00	0	33	0	2212495360	34	5664
2026-01-28 02:59:39.22	241.26	59.25	-29.9	-30.5	28.5	0.00e+00	0	33	0	2234515456	34	5391
2026-01-28 02:59:43.26	244.78	59.59	-30.1	-30.8	28.1	0.00e+00	0	33	0	2257584128	32	6261
2026-01-28 02:59:47.31	248.39	59.84	-30.1	-30.8	28.1	0.00e+00	0	33	0	2280652800	32	6270
2026-01-28 02:59:51.35	252.04	59.98	-30.1	-30.6	28.1	0.00e+00	0	33	0	2303721472	32	6158
2026-01-28 02:59:55.39	255.72	60.02	-30.0	-30.6	28.3	0.00e+00	0	33	0	2325741568	32	6109
2026-01-28 02:59:59.43	259.40	59.96	-29.7	-30.3	28.5	0.00e+00	0	33	0	2348810240	32	5954
2026-01-28 03:00:03.47	263.04	59.79	-30.0	-30.6	28.1	0.00e+00	0	33	0	2370830336	32	6120
2026-01-28 03:00:07.51	266.62	59.52	-29.9	-30.5	28.3	0.00e+00	0	33	0	2393899008	32	6078
2026-01-28 03:00:11.55	270.12	59.15	-30.1	-30.7	28.0	0.00e+00	0	33	0	2416967680	32	6230
2026-01-28 03:00:15.59	273.50	58.69	-30.3	-31.0	28.0	0.00e+00	0	33	0	2438987776	32	6402
2026-01-28 03:00:19.63	276.77	58.15	-30.3	-30.9	28.1	0.00e+00	0	33	0	2462056448	32	6361
2026-01-28 03:00:23.67	279.89	57.53	-30.4	-31.0	28.0	0.00e+00	0	33	0	2485125120	34	5745
2026-01-28 03:00:27.71	282.87	56.85	-30.9	-31.6	27.6	0.00e+00	0	33	0	2508193792	34	6147
2026-01-28 03:00:31.74	285.69	56.10	-31.3	-31.8	27.3	0.00e+00	0	33	0	2530213888	34	6316
2026-01-28 03:00:35.78	288.36	55.31	-30.7	-31.3	27.6	0.00e+00	0	33	0	2553282560	34	5956
2026-01-28 03:00:39.82	290.89	54.46	-30.7	-31.3	27.6	0.00e+00	0	33	0	2575302656	34	5963
2026-01-28 03:00:43.86	293.27	53.58	-30.5	-31.1	27.9	0.00e+00	0	33	0	2598371328	34	5766
2026-01-28 03:00:47.89	295.50	52.68	-30.6	-31.2	27.8	0.00e+00	0	33	0	2621440000	34	5884
2026-01-28 03:00:51.94	297.61	51.74	-30.7	-31.2	27.8	0.00e+00	0	33	0	2643460096	34	5883
2026-01-28 03:00:55.98	299.58	50.79	-30.2	-30.9	28.2	0.00e+00	0	33	0	2666528768	34	5651
2026-01-28 03:01:00.02	301.43	49.82	-30.0	-30.7	28.1	0.00e+00	0	33	0	2689597440	34	5544
2026-01-28 03:01:04.05	303.17	48.85	-29.9	-30.6	28.2	0.00e+00	0	33	0	2712666112	34	5494
2026-01-28 03:01:08.09	304.80	47.87	-29.9	-30.5	28.3	0.00e+00	0	33	0	2734686208	34	5379
2026-01-28 03:01:12.13	306.34	46.90	-29.6	-30.3	28.5	0.00e+00	0	33	0	2757754880	32	5943
2026-01-28 03:01:16.18	307.79	45.92	-29.9	-30.5	28.2	0.00e+00	0	33	0	2779774976	32	6049
2026-01-28 03:01:20.22	309.14	44.95	-29.9	-30.5	28.0	0.00e+00	0	33	0	2802843648	32	6059
2026-01-28 03:01:24.26	310.42	43.98	-30.1	-30.8	28.2	0.00e+00	0	33	0	2825912320	32	6254
2026-01-28 03:01:28.30	311.63	43.03	-29.6	-30.2	28.5	0.00e+00	0	33	0	2848980992	32	5860
2026-01-28 03:01:32.33	312.76	42.09	-29.7	-30.4	28.4	0.00e+00	0	33	0	2871001088	32	5996
2026-01-28 03:01:36.37	313.83	41.16	-29.6	-30.1	28.6	0.00e+00	0	33	0	2894069760	32	5827
2026-01-28 03:01:40.42	314.85	40.24	-29.5	-30.2	28.6	0.00e+00	0	33	0	2917138432	32	5880
2026-01-28 03:01:44.46	315.81	39.34	-29.2	-29.8	28.8	0.00e+00	0	33	0	2939158528	32	5567
2026-01-28 03:01:48.49	316.72	38.45	-29.6	-30.1	28.6	0.00e+00	0	34	0	2962227200	32	5828
2026-01-28 03:01:52.53	317.58	37.58	-29.3	-29.8	28.7	0.00e+00	0	33	0	2984247296	32	5608
2026-01-28 03:01:56.57	318.40	36.72	-29.4	-29.9	28.8	0.00e+00	0	33	0	3007315968	32	5674
2026-01-28 03:02:00.62	319.18	35.88	-29.4	-30.1	28.7	0.00e+00	0	33	0	3030384640	32	5782
2026-01-28 03:02:04.66	319.92	35.05	-29.3	-30.0	28.7	0.00e+00	0	33	0	3053453312	32	5710
2026-01-28 03:02:08.70	320.63	34.25	-29.5	-30.1	28.6	0.00e+00	0	33	0	3075473408	32	5788
2026-01-28 03:02:12.74	321.30	33.46	-29.4	-30.1	28.6	0.00e+00	0	33	0	3098542080	32	5786
2026-01-28 03:02:16.78	321.94	32.68	-29.6	-30.1	28.5	0.00e+00	0	33	0	3121610752	32	5805
2026-01-28 03:02:20.82	322.55	31.92	-29.5	-30.2	28.5	0.00e+00	0	33	0	3143630848	32	5863
2026-01-28 03:02:24.86	323.14	31.18	-29.6	-30.1	28.5	0.00e+00	0	33	0	3166699520	32	5799
2026-01-28 03:02:28.91	323.70	30.45	-29.9	-30.4	28.2	0.00e+00	0	33	0	3189768192	32	6018
2026-01-28 03:02:32.94	324.24	29.74	-29.8	-30.3	28.3	0.00e+00	0	33	0	3211788288	32	5960
2026-01-28 03:02:36.99	324.75	29.04	-29.8	-30.5	28.2	0.00e+00	0	33	0	3234856960	32	6087
2026-01-28 03:02:41.02	325.25	28.36	-29.8	-30.5	28.3	0.00e+00	0	34	0	3257925632	32	6043
2026-01-28 03:02:45.06	325.72	27.69	-29.7	-30.4	28.4	0.00e+00	0	34	0	3279945728	32	6003
2026-01-28 03:02:49.10	326.18	27.04	-29.8	-30.3	28.3	0.00e+00	0	33	0	3303014400	32	5964
2026-01-28 03:02:53.14	326.62	26.40	-30.0	-30.7	28.2	0.00e+00	0	33	0	3326083072	32	6194
2026-01-28 03:02:57.19	327.04	25.77	-30.1	-30.8	28.0	0.00e+00	0	33	0	3348103168	32	6254
2026-01-28 03:03:01.23	327.45	25.15	-29.9	-30.6	28.2	0.00e+00	0	33	0	3371171840	32	6120
2026-01-28 03:03:05.27	327.84	24.55	-30.0	-30.7	28.0	0.00e+00	0	33	0	3394240512	32	6212
2026-01-28 03:03:09.31	328.21	23.96	-30.3	-31.0	27.9	0.00e+00	0	33	0	3416260608	32	6440
2026-01-28 03:03:13.35	328.58	23.39	-30.5	-31.1	27.7	0.00e+00	0	33	0	3439329280	32	6486
2026-01-28 03:03:17.39	328.93	22.82	-30.6	-31.2	27.7	0.00e+00	0	33	0	3462397952	32	6558
2026-01-28 03:03:21.43	329.27	22.27	-30.5	-31.1	27.7	0.00e+00	0	33	0	3484418048	32	6475
2026-01-28 03:03:25.47	329.60	21.72	-30.6	-31.2	27.6	0.00e+00	0	33	0	3507486720	32	6567
2026-01-28 03:03:29.51	329.92	21.19	-30.9	-31.5	27.4	0.00e+00	0	33	0	3530555392	34	6039
2026-01-28 03:03:33.55	330.23	20.67	-30.9	-31.5	27.4	0.00e+00	0	33	0	3553624064	34	6035
2026-01-28 03:03:37.59	330.53	20.16	-31.1	-31.7	27.2	0.00e+00	0	33	0	3575644160	34	6180
2026-01-28 03:03:41.63	330.82	19.65	-31.2	-31.7	27.2	0.00e+00	0	33	0	3598712832	34	6244
2026-01-28 03:03:45.67	331.10	19.16	-31.4	-32.0	26.9	0.00e+00	0	33	0	3620732928	34	6403
2026-01-28 03:03:49.71	331.37	18.68	-31.5	-32.1	26.9	0.00e+00	0	33	0	3643801600	34	6510
2026-01-28 03:03:53.75	331.64	18.20	-31.7	-32.2	26.7	0.00e+00	0	33	0	3666870272	34	6591
2026-01-28 03:03:57.79	331.89	17.73	-31.9	-32.4	26.6	0.00e+00	0	33	0	3689938944	36	6027
2026-01-28 03:04:01.83	332.14	17.27	-32.1	-32.7	26.4	0.00e+00	0	33	0	3711959040	36	6218
2026-01-28 03:04:05.87	332.39	16.82	-32.3	-32.9	26.2	0.00e+00	0	33	0	3735027712	36	6320
2026-01-28 03:04:09.91	332.62	16.38	-32.3	-32.9	26.2	0.00e+00	0	33	0	3757047808	36	6354
2026-01-28 03:04:13.94	332.85	15.95	-32.5	-33.1	26.0	0.00e+00	0	33	0	3780116480	36	6499
2026-01-28 03:04:17.99	333.08	15.52	-32.4	-33.0	26.1	0.00e+00	0	33	0	3803185152	36	6414
2026-01-28 03:04:22.03	333.30	15.10	-32.3	-32.9	26.2	0.00e+00	0	33	0	3825205248	36	6318
2026-01-28 03:04:26.07	333.51	14.68	-32.4	-33.2	26.0	0.00e+00	0	33	0	3848273920	36	6566
2026-01-28 03:04:30.11	333.72	14.28	-33.1	-33.8	25.6	0.00e+00	0	34	0	3871342592	38	6309
2026-01-28 03:04:34.15	333.92	13.87	-32.8	-33.4	25.7	0.00e+00	0	33	0	3894411264	38	5990
2026-01-28 03:04:38.19	334.12	13.48	-32.9	-33.6	25.5	0.00e+00	0	33	0	3916431360	38	6105
2026-01-28 03:04:42.23	334.31	13.09	-33.3	-33.9	25.2	0.00e+00	0	33	0	3939500032	38	6363
2026-01-28 03:04:46.27	334.50	12.71	-33.3	-33.9	25.1	0.00e+00	0	33	0	3961520128	38	6346
2026-01-28 03:04:50.31	334.68	12.33	-33.3	-33.9	25.1	0.00e+00	0	33	0	3984588800	38	6377
2026-01-28 03:04:54.35	334.86	11.96	-33.4	-34.1	25.0	0.00e+00	0	34	0	4007657472	38	6481
2026-01-28 03:04:58.38	335.04	11.59	-33.4	-34.1	25.0	0.00e+00	0	33	0	4029677568	38	6482
2026-01-28 03:05:02.42	335.21	11.23	-33.6	-34.2	24.8	0.00e+00	0	33	0	4052746240	38	6580
2026-01-28 03:05:06.46	335.38	10.88	-33.9	-34.6	24.5	0.00e+00	0	33	0	4075814912	40	6109
2026-01-28 03:05:10.50	335.55	10.53	-33.9	-34.6	24.6	0.00e+00	0	33	0	4098883584	40	6113
2026-01-28 03:05:14.54	335.71	10.18	-33.8	-34.6	24.5	0.00e+00	0	33	0	4120903680	40	6159
2026-01-28 03:05:18.58	335.87	9.84	-34.0	-34.8	24.3	0.00e+00	0	33	0	4143972352	40	6277
2026-01-28 03:05:22.62	336.02	9.50	-34.2	-35.0	24.1	0.00e+00	0	33	0	4165992448	40	6430
2026-01-28 03:05:26.67	336.17	9.17	-34.0	-34.8	24.3	0.00e+00	0	34	0	4189061120	40	6302
2026-01-28 03:05:30.71	336.32	8.84	-34.2	-34.8	24.1	0.00e+00	0	33	0	4212129792	40	6316
2026-01-28 03:05:34.74	336.47	8.52	-34.4	-35.0	23.9	0.00e+00	0	33	0	4235198464	40	6453
2026-01-28 03:05:38.79	336.61	8.20	-34.4	-35.1	23.9	0.00e+00	0	33	0	4257218560	40	6514
2026-01-28 03:05:42.83	336.75	7.88	-34.5	-35.2	23.8	0.00e+00	0	34	0	4280287232	42	5831
2026-01-28 03:05:46.87	336.89	7.57	-34.6	-35.3	23.7	0.00e+00	0	33	0	4303355904	42	5945
2026-01-28 03:05:50.92	337.03	7.26	-34.4	-35.3	23.7	0.00e+00	0	33	0	4325376000	42	5907
2026-01-28 03:05:54.96	337.16	6.95	-34.7	-35.5	23.5	0.00e+00	0	33	0	4348444672	42	6064
2026-01-28 03:05:59.00	337.29	6.65	-34.6	-35.4	23.6	0.00e+00	0	33	0	4371513344	42	5982
2026-01-28 03:06:03.04	337.42	6.35	-34.7	-35.5	23.4	0.00e+00	0	34	0	4393533440	42	6063
2026-01-28 03:06:07.08	337.54	6.06	-34.8	-35.5	23.2	0.00e+00	0	33	0	4416602112	42	6091
2026-01-28 03:06:11.12	337.67	5.76	-35.4	-36.3	22.3	0.00e+00	0	33	0	4439670784	42	6631
2026-01-28 03:06:15.17	337.79	5.48	-35.9	-36.9	21.3	0.00e+00	0	33	0	4461690880	44	6338
2026-01-28 03:06:19.21	337.91	5.19	-37.3	-38.3	19.2	0.00e+00	0	33	0	4484759552	46	6645
2026-01-28 03:06:23.25	338.03	4.91	-39.1	-40.4	16.7	0.00e+00	0	33	0	4507828224	50	6731
2026-01-28 03:06:27.28	338.14	4.63	-40.6	-42.6	13.8	3.40e-06	0	33	0	4529848320	52	7741
2026-01-28 03:06:31.33	338.26	4.35	-42.5	-46.1	9.2	1.21e-02	0	33	0	4552916992	56	9139
2026-01-28 03:06:35.37	338.37	4.08	-43.2	-48.4	5.8	3.73e-01	0	33	0	4575985664	58	10716
2026-01-28 03:06:39.41	338.48	3.81	-43.7	-53.0	3.7	8.32e-01	0	34	104	4579131392	58	18123
2026-01-28 03:06:43.45	338.59	3.54	-43.8	-55.0	3.6	8.44e-01	0	34	104	4579131392	60	20372
2026-01-28 03:06:47.49	338.70	3.27	-43.9	-55.7	3.6	8.44e-01	0	34	104	4579131392	60	22043
2026-01-28 03:06:51.53	338.80	3.01	-43.9	-56.0	3.6	8.45e-01	0	34	104	4579131392	60	22705
2026-01-28 03:06:55.57	338.91	2.74	-48.6	-60.8	3.5	8.46e-01	0	34	104	4579131392	60	39526
2026-01-28 03:06:59.61	339.01	2.49	-49.0	-61.1	3.6	8.46e-01	0	34	104	4579131392	60	40950
2026-01-28 03:07:03.65	339.11	2.23	-49.0	-61.1	3.6	8.45e-01	0	34	104	4579131392	60	41014
2026-01-28 03:07:07.69	339.21	1.97	-48.9	-61.0	3.6	8.46e-01	0	34	104	4579131392	60	40710
2026-01-28 03:07:11.72	339.31	1.72	-48.8	-61.0	3.6	8.46e-01	0	34	104	4579131392	60	40493
2026-01-28 03:07:15.76	339.41	1.47	-48.9	-61.1	3.6	8.44e-01	0	34	104	4579131392	60	40905
2026-01-28 03:07:19.80	339.50	1.23	-48.9	-61.0	3.6	8.45e-01	0	33	104	4579131392	60	40680
2026-01-28 03:07:23.84	339.60	0.98	-48.9	-61.1	3.6	8.45e-01	0	33	104	4579131392	60	40850
2026-01-28 03:07:27.88	339.69	0.74	-48.9	-61.0	3.6	8.45e-01	0	33	104	4579131392	60	40688
2026-01-28 03:07:31.92	339.78	0.49	-48.9	-61.0	3.6	8.45e-01	0	34	104	4579131392	60	40587
2026-01-28 03:07:35.96	339.87	0.25	-48.9	-61.0	3.6	8.46e-01	0	34	104	4579131392	60	40554
2026-01-28 03:07:40.00	339.96	0.01	-48.9	-61.1	3.6	8.45e-01	0	34	104	4579131392	60	40837

#Closed at: 2026-01-28 03:07:41
#Recorded file [4579 MB]: D:/lorett/data/35029_260128_145214.dat