passes_logs/2026/01/28/R4.6S_Anadyr/R4.6S_Anadyr__20260128_213318_KOSAR1-5_rec.log

#Pass ID: 20260128_213318_KOSAR1-5
#Satellite: KOSAR1-5
#Configuration: KOSAR1-5
#almurnet v.1.7.20251203
#Start time: 2026-01-28 21:33:20

#Version: 2.2.20231116
#Station: R4.6S_Anadyr
#Location: 177.4865 lon 64.73178 lat
#TLE: 1 67264U 25313S   26027.76143924  .00010916  00000+0  50329-3 0  9990
#TLE: 2 67264  97.4176 104.7207 0016474 138.6036 221.6451 15.20309833  4594

#Time	Az	El	Level	Level2	SNR	BER	BlckErr	Temp	State	Recorded	gain1	gain2
2026-01-28 21:33:20.32	25.23	0.10	-49.0	-63.9	3.6	1.51e+00	0	28	0	0	60	56393
2026-01-28 21:33:23.34	25.56	0.25	-46.3	-61.0	3.6	1.51e+00	0	29	104	0	60	45419
2026-01-28 21:33:26.37	25.89	0.40	-45.5	-60.2	3.6	1.51e+00	0	29	104	0	60	41365
2026-01-28 21:33:29.40	26.22	0.55	-45.6	-60.3	3.6	1.51e+00	0	29	104	0	60	41770
2026-01-28 21:33:32.43	26.56	0.70	-45.5	-60.2	3.6	1.51e+00	0	29	104	0	60	41436
2026-01-28 21:33:35.47	26.90	0.85	-45.4	-60.1	3.6	1.51e+00	0	29	104	0	60	41217
2026-01-28 21:33:38.50	27.25	1.00	-45.0	-60.0	3.6	1.51e+00	0	29	104	0	60	40458
2026-01-28 21:33:41.53	27.60	1.16	-43.6	-59.7	3.6	1.51e+00	0	29	104	0	60	39214
2026-01-28 21:33:44.56	27.96	1.31	-44.2	-59.0	3.5	1.51e+00	0	29	104	0	60	36172
2026-01-28 21:33:47.59	28.32	1.46	-44.0	-58.8	3.6	1.51e+00	0	29	104	0	60	35438
2026-01-28 21:33:50.62	28.69	1.62	-44.0	-58.8	3.5	1.51e+00	0	29	104	0	60	35282
2026-01-28 21:33:53.65	29.06	1.77	-44.0	-58.8	3.6	1.51e+00	0	29	104	0	60	35231
2026-01-28 21:33:56.67	29.43	1.92	-44.0	-58.8	3.6	1.51e+00	0	29	104	0	60	35361
2026-01-28 21:33:59.70	29.81	2.08	-44.0	-58.8	3.6	1.51e+00	0	30	104	0	60	35142
2026-01-28 21:34:02.73	30.20	2.23	-44.0	-58.8	3.6	1.51e+00	0	30	104	0	60	35297
2026-01-28 21:34:05.76	30.59	2.39	-44.0	-58.8	3.6	1.51e+00	0	30	104	0	60	35156
2026-01-28 21:34:08.79	30.99	2.54	-44.0	-58.8	3.6	1.51e+00	0	30	104	0	60	35222
2026-01-28 21:34:11.83	31.39	2.70	-44.0	-58.8	3.6	1.51e+00	0	30	104	0	60	35322
2026-01-28 21:34:14.85	31.79	2.85	-44.0	-58.8	3.5	1.51e+00	0	30	104	0	60	35182
2026-01-28 21:34:17.88	32.20	3.01	-44.0	-58.7	3.6	1.51e+00	0	30	104	0	60	35051
2026-01-28 21:34:20.91	32.62	3.16	-44.0	-58.8	3.6	1.51e+00	0	30	104	0	60	35297
2026-01-28 21:34:23.94	33.04	3.32	-44.1	-58.9	3.6	1.51e+00	0	30	104	0	60	35560
2026-01-28 21:34:26.97	33.47	3.47	-44.2	-59.0	3.6	1.51e+00	0	30	104	0	60	36295
2026-01-28 21:34:30.00	33.90	3.63	-43.9	-58.8	3.6	1.51e+00	0	30	104	0	60	35454
2026-01-28 21:34:33.02	34.34	3.79	-44.1	-58.9	3.6	1.51e+00	0	30	104	0	60	35873
2026-01-28 21:34:36.05	34.79	3.94	-44.2	-59.0	3.6	1.51e+00	0	30	104	0	60	36270
2026-01-28 21:34:39.08	35.24	4.10	-44.4	-59.2	3.6	1.51e+00	0	30	104	0	60	36967
2026-01-28 21:34:42.11	35.70	4.25	-44.0	-58.9	3.6	1.51e+00	0	30	104	0	60	35822
2026-01-28 21:34:45.14	36.16	4.41	-44.2	-59.1	3.6	1.51e+00	0	30	104	0	60	36458
2026-01-28 21:34:48.16	36.63	4.56	-44.4	-59.2	3.6	1.51e+00	0	30	104	0	60	36918
2026-01-28 21:34:51.19	37.10	4.72	-44.3	-59.2	3.6	1.51e+00	0	30	104	0	60	37159
2026-01-28 21:34:54.22	37.59	4.88	-44.4	-59.1	3.6	1.51e+00	0	30	104	0	60	36770
2026-01-28 21:34:57.25	38.08	5.03	-44.4	-59.2	3.6	1.51e+00	0	30	104	0	60	37074
2026-01-28 21:35:00.28	38.57	5.19	-44.4	-59.2	3.6	1.51e+00	0	30	104	0	60	37193
2026-01-28 21:35:03.30	39.07	5.34	-44.6	-59.3	3.6	1.51e+00	0	30	104	0	60	37517
2026-01-28 21:35:06.33	39.58	5.50	-44.0	-59.2	3.6	1.51e+00	0	30	104	0	60	37011
2026-01-28 21:35:09.36	40.09	5.65	-44.0	-59.3	3.6	1.51e+00	0	30	104	0	60	37208
2026-01-28 21:35:12.39	40.62	5.80	-44.3	-59.3	3.6	1.51e+00	0	30	104	0	60	37395
2026-01-28 21:35:15.42	41.14	5.96	-44.6	-59.4	3.6	1.51e+00	0	30	104	0	60	37944
2026-01-28 21:35:18.45	41.68	6.11	-44.5	-59.3	3.6	1.51e+00	0	30	104	0	60	37268
2026-01-28 21:35:21.48	42.22	6.26	-44.6	-59.3	3.6	1.51e+00	0	30	104	0	60	37497
2026-01-28 21:35:24.51	42.77	6.41	-44.4	-59.4	3.6	1.51e+00	0	30	104	0	60	37966
2026-01-28 21:35:27.54	43.33	6.56	-43.5	-59.4	3.6	1.51e+00	0	30	104	0	60	38060
2026-01-28 21:35:30.56	43.89	6.71	-44.3	-59.4	3.6	1.51e+00	0	30	104	0	60	37924
2026-01-28 21:35:33.59	44.46	6.86	-44.4	-59.4	3.6	1.51e+00	0	30	104	0	60	37983
2026-01-28 21:35:36.62	45.04	7.01	-44.0	-59.4	3.5	1.51e+00	0	30	104	0	60	37992
2026-01-28 21:35:39.64	45.63	7.16	-44.7	-59.5	3.6	1.51e+00	0	30	104	0	60	38315
2026-01-28 21:35:42.67	46.22	7.30	-44.8	-59.4	3.6	1.51e+00	0	30	104	0	60	38022
2026-01-28 21:35:45.70	46.82	7.45	-44.6	-59.4	3.6	1.51e+00	0	30	104	0	60	37980
2026-01-28 21:35:48.73	47.43	7.59	-44.3	-59.5	3.6	1.51e+00	0	30	104	0	60	38255
2026-01-28 21:35:51.76	48.04	7.74	-44.6	-59.5	3.6	1.51e+00	0	30	104	0	60	38272
2026-01-28 21:35:54.79	48.67	7.88	-44.8	-59.5	3.6	1.51e+00	0	30	104	0	60	38493
2026-01-28 21:35:57.82	49.30	8.02	-44.4	-59.5	3.6	1.51e+00	0	30	104	0	60	38075
2026-01-28 21:36:00.85	49.93	8.16	-44.4	-59.5	3.6	1.51e+00	0	30	104	0	60	38437
2026-01-28 21:36:03.88	50.58	8.29	-44.4	-59.5	3.6	1.51e+00	0	30	104	0	60	38360
2026-01-28 21:36:06.90	51.23	8.43	-43.0	-59.6	3.6	1.51e+00	0	30	104	0	60	38628
2026-01-28 21:36:09.93	51.89	8.56	-44.5	-59.5	3.6	1.51e+00	0	30	104	0	60	38339
2026-01-28 21:36:12.96	52.56	8.69	-42.4	-59.5	3.6	1.51e+00	0	30	104	0	60	38389
2026-01-28 21:36:15.99	53.23	8.82	-44.7	-59.6	3.6	1.51e+00	0	30	104	0	60	38545
2026-01-28 21:36:19.02	53.91	8.95	-42.8	-59.6	3.6	1.51e+00	0	30	104	0	60	38622
2026-01-28 21:36:22.04	54.60	9.07	-42.8	-59.5	3.6	1.51e+00	0	31	104	0	60	38467
2026-01-28 21:36:25.07	55.30	9.20	-42.8	-59.6	3.6	1.51e+00	0	30	104	0	60	38711
2026-01-28 21:36:28.10	56.00	9.32	-44.5	-59.6	3.6	1.51e+00	0	30	104	0	60	38666
2026-01-28 21:36:31.13	56.71	9.44	-43.8	-59.6	3.6	1.51e+00	0	30	104	0	60	38860
2026-01-28 21:36:34.16	57.43	9.55	-44.3	-59.6	3.6	1.51e+00	0	30	104	0	60	38670
2026-01-28 21:36:37.19	58.15	9.66	-44.5	-59.6	3.6	1.51e+00	0	30	104	0	60	38796
2026-01-28 21:36:40.22	58.89	9.77	-43.7	-59.6	3.6	1.51e+00	0	30	104	0	60	38922
2026-01-28 21:36:43.25	59.62	9.88	-44.2	-59.6	3.6	1.51e+00	0	30	104	0	60	38939
2026-01-28 21:36:46.27	60.37	9.98	-43.9	-59.6	3.6	1.51e+00	0	30	104	0	60	38620
2026-01-28 21:36:49.30	61.12	10.09	-44.0	-59.6	3.6	1.51e+00	0	30	104	0	60	38947
2026-01-28 21:36:52.33	61.88	10.18	-44.5	-59.6	3.6	1.51e+00	0	30	104	0	60	38788
2026-01-28 21:36:55.36	62.64	10.28	-40.9	-59.6	3.6	1.51e+00	0	30	104	0	58	43279
2026-01-28 21:36:58.38	63.41	10.37	-38.2	-59.6	3.6	1.51e+00	0	30	104	0	52	61344
2026-01-28 21:37:01.40	64.18	10.46	-39.8	-59.6	3.6	1.51e+00	0	30	104	0	56	49033
2026-01-28 21:37:04.42	64.96	10.54	-44.5	-59.7	3.6	1.51e+00	0	30	104	0	60	39102
2026-01-28 21:37:07.45	65.75	10.62	-44.7	-59.7	3.6	1.51e+00	0	30	104	0	60	38963
2026-01-28 21:37:10.48	66.54	10.70	-44.9	-59.6	3.6	1.51e+00	0	30	104	0	60	38938
2026-01-28 21:37:13.51	67.33	10.77	-43.4	-59.7	3.5	1.51e+00	0	30	104	0	60	39054
2026-01-28 21:37:16.54	68.13	10.84	-43.0	-59.7	3.6	1.51e+00	0	30	104	0	60	39035
2026-01-28 21:37:19.56	68.94	10.90	-42.1	-59.6	3.6	1.51e+00	0	30	104	0	60	38908
2026-01-28 21:37:22.59	69.75	10.96	-42.2	-59.6	3.6	1.51e+00	0	30	104	0	60	38935
2026-01-28 21:37:25.62	70.56	11.02	-44.4	-59.6	3.6	1.51e+00	0	30	104	0	60	38930
2026-01-28 21:37:28.65	71.38	11.07	-44.8	-59.6	3.6	1.51e+00	0	30	104	0	60	38921
2026-01-28 21:37:31.67	72.20	11.11	-44.9	-59.7	3.6	1.51e+00	0	30	104	0	60	39060
2026-01-28 21:37:34.70	73.02	11.16	-44.6	-59.7	3.6	1.51e+00	0	30	104	0	60	39173
2026-01-28 21:37:37.73	73.85	11.20	-43.5	-59.7	3.6	1.51e+00	0	30	104	0	60	39002
2026-01-28 21:37:40.76	74.68	11.23	-42.3	-59.7	3.6	1.51e+00	0	30	104	0	60	39171
2026-01-28 21:37:43.79	75.51	11.26	-44.6	-59.7	3.6	1.51e+00	0	30	104	0	60	39352
2026-01-28 21:37:46.81	76.34	11.28	-43.9	-59.7	3.6	1.51e+00	0	30	104	0	60	39378
2026-01-28 21:37:49.84	77.18	11.30	-44.5	-59.6	3.6	1.51e+00	0	30	104	0	60	38911
2026-01-28 21:37:52.87	78.02	11.32	-44.9	-59.7	3.6	1.51e+00	0	30	104	0	60	39382
2026-01-28 21:37:55.90	78.85	11.33	-44.1	-59.7	3.6	1.51e+00	0	30	104	0	60	39376
2026-01-28 21:37:58.93	79.69	11.33	-44.6	-59.7	3.6	1.51e+00	0	30	104	0	60	39278
2026-01-28 21:38:01.96	80.53	11.33	-44.6	-59.6	3.6	1.51e+00	0	30	104	0	60	38839
2026-01-28 21:38:04.98	81.37	11.33	-44.4	-59.7	3.6	1.51e+00	0	30	104	0	60	39191
2026-01-28 21:38:08.01	82.21	11.32	-44.2	-59.7	3.6	1.51e+00	0	30	104	0	60	39242
2026-01-28 21:38:11.04	83.04	11.31	-44.5	-59.8	3.6	1.51e+00	0	30	104	0	60	39556
2026-01-28 21:38:14.07	83.88	11.29	-44.8	-59.7	3.6	1.51e+00	0	31	104	0	60	39113
2026-01-28 21:38:17.09	84.71	11.27	-44.8	-59.8	3.6	1.51e+00	0	30	104	0	60	39536
2026-01-28 21:38:20.12	85.55	11.24	-45.0	-59.8	3.6	1.51e+00	0	30	104	0	60	39460
2026-01-28 21:38:23.15	86.38	11.21	-44.9	-59.8	3.6	1.51e+00	0	30	104	0	60	39441
2026-01-28 21:38:26.18	87.21	11.17	-44.7	-59.7	3.6	1.51e+00	0	30	104	0	60	39021
2026-01-28 21:38:29.21	88.04	11.13	-44.7	-59.7	3.6	1.51e+00	0	31	104	0	60	39021
2026-01-28 21:38:32.24	88.86	11.08	-44.8	-59.7	3.6	1.51e+00	0	30	104	0	60	39319
2026-01-28 21:38:35.27	89.68	11.03	-44.6	-59.7	3.6	1.51e+00	0	30	104	0	60	39175
2026-01-28 21:38:38.29	90.50	10.98	-44.7	-59.7	3.6	1.51e+00	0	30	104	0	60	39028
2026-01-28 21:38:41.32	91.31	10.92	-44.9	-59.7	3.6	1.51e+00	0	30	104	0	60	39085
2026-01-28 21:38:44.35	92.12	10.86	-44.3	-59.7	3.6	1.51e+00	0	31	104	0	60	39267
2026-01-28 21:38:47.38	92.93	10.79	-44.7	-59.8	3.6	1.51e+00	0	31	104	0	60	39411
2026-01-28 21:38:50.41	93.73	10.72	-44.5	-59.7	3.6	1.51e+00	0	31	104	0	60	39107
2026-01-28 21:38:53.44	94.53	10.64	-44.3	-59.7	3.6	1.51e+00	0	30	104	0	60	39072
2026-01-28 21:38:56.46	95.32	10.56	-44.7	-59.7	3.6	1.51e+00	0	31	104	0	60	39169
2026-01-28 21:38:59.49	96.10	10.48	-44.9	-59.8	3.6	1.51e+00	0	31	104	0	60	39417
2026-01-28 21:39:02.52	96.89	10.39	-44.4	-59.7	3.6	1.51e+00	0	30	104	0	60	38993
2026-01-28 21:39:05.54	97.66	10.30	-44.6	-59.7	3.6	1.51e+00	0	30	104	0	60	38973
2026-01-28 21:39:08.57	98.43	10.21	-44.3	-59.7	3.6	1.51e+00	0	31	104	0	60	38966
2026-01-28 21:39:11.60	99.19	10.11	-43.7	-59.7	3.6	1.51e+00	0	31	104	0	60	39095
2026-01-28 21:39:14.62	99.95	10.01	-44.1	-59.7	3.6	1.51e+00	0	31	104	0	60	39022
2026-01-28 21:39:17.65	100.70	9.91	-44.8	-59.6	3.6	1.51e+00	0	31	104	0	60	38762
2026-01-28 21:39:20.67	101.44	9.80	-44.3	-59.6	3.6	1.51e+00	0	31	104	0	60	38654
2026-01-28 21:39:23.70	102.18	9.69	-44.6	-59.6	3.6	1.51e+00	0	31	104	0	60	38712
2026-01-28 21:39:26.73	102.91	9.58	-44.6	-59.6	3.6	1.51e+00	0	31	104	0	60	38764
2026-01-28 21:39:29.76	103.64	9.46	-44.7	-59.5	3.6	1.51e+00	0	31	104	0	60	38493
2026-01-28 21:39:32.79	104.36	9.35	-44.5	-59.6	3.6	1.51e+00	0	30	104	0	60	38588
2026-01-28 21:39:35.82	105.07	9.22	-44.9	-59.6	3.6	1.51e+00	0	30	104	0	60	38860
2026-01-28 21:39:38.85	105.77	9.10	-44.8	-59.6	3.6	1.51e+00	0	30	104	0	60	38764
2026-01-28 21:39:41.87	106.47	8.98	-44.5	-59.5	3.6	1.51e+00	0	30	104	0	60	38325
2026-01-28 21:39:44.90	107.16	8.85	-44.7	-59.6	3.6	1.51e+00	0	30	104	0	60	38602
2026-01-28 21:39:47.93	107.84	8.72	-44.7	-59.5	3.6	1.51e+00	0	31	104	0	60	38441
2026-01-28 21:39:50.96	108.52	8.59	-44.1	-59.6	3.6	1.51e+00	0	31	104	0	60	38549
2026-01-28 21:39:53.99	109.18	8.45	-44.6	-59.4	3.6	1.51e+00	0	31	104	0	60	38022
2026-01-28 21:39:57.01	109.84	8.32	-44.2	-59.5	3.6	1.51e+00	0	31	104	0	60	38277
2026-01-28 21:40:00.03	110.49	8.18	-44.5	-59.5	3.6	1.51e+00	0	31	104	0	60	38296
2026-01-28 21:40:03.07	111.14	8.04	-44.5	-59.6	3.6	1.51e+00	0	31	104	0	60	38620
2026-01-28 21:40:06.09	111.78	7.90	-44.4	-59.4	3.6	1.51e+00	0	31	104	0	60	38047
2026-01-28 21:40:09.12	112.41	7.76	-44.4	-59.5	3.6	1.51e+00	0	31	104	0	60	38238
2026-01-28 21:40:12.15	113.03	7.61	-44.4	-59.5	3.6	1.51e+00	0	31	104	0	60	38154
2026-01-28 21:40:15.17	113.64	7.47	-44.7	-59.5	3.6	1.51e+00	0	31	104	0	60	38320
2026-01-28 21:40:18.20	114.25	7.32	-44.5	-59.3	3.6	1.51e+00	0	31	104	0	60	37218
2026-01-28 21:40:21.23	114.85	7.17	-44.6	-59.4	3.6	1.51e+00	0	31	104	0	60	37699
2026-01-28 21:40:24.25	115.44	7.02	-44.5	-59.3	3.6	1.51e+00	0	31	104	0	60	37346
2026-01-28 21:40:27.28	116.03	6.88	-44.6	-59.3	3.6	1.51e+00	0	31	104	0	60	37601
2026-01-28 21:40:30.31	116.61	6.72	-44.4	-59.2	3.6	1.51e+00	0	31	104	0	60	37098
2026-01-28 21:40:33.33	117.18	6.57	-44.5	-59.3	3.6	1.51e+00	0	31	104	0	60	37296
2026-01-28 21:40:36.36	117.74	6.42	-44.4	-59.2	3.6	1.51e+00	0	31	104	0	60	37016
2026-01-28 21:40:39.39	118.30	6.27	-44.6	-59.3	3.6	1.51e+00	0	31	104	0	60	37374
2026-01-28 21:40:42.42	118.85	6.11	-43.7	-59.2	3.6	1.51e+00	0	31	104	0	60	36836
2026-01-28 21:40:45.44	119.39	5.96	-43.8	-59.2	3.6	1.51e+00	0	30	104	0	60	36951
2026-01-28 21:40:48.47	119.92	5.81	-44.2	-59.2	3.6	1.51e+00	0	31	104	0	60	36872
2026-01-28 21:40:51.50	120.45	5.65	-44.0	-59.2	3.6	1.51e+00	0	31	104	0	60	37066
2026-01-28 21:40:54.52	120.97	5.49	-44.4	-59.2	3.6	1.51e+00	0	31	104	0	60	36878
2026-01-28 21:40:57.55	121.49	5.34	-44.3	-59.1	3.6	1.51e+00	0	31	104	0	60	36722
2026-01-28 21:41:00.58	121.99	5.18	-44.3	-59.1	3.6	1.51e+00	0	31	104	0	60	36707
2026-01-28 21:41:03.61	122.50	5.02	-44.4	-59.1	3.6	1.51e+00	0	31	104	0	60	36567
2026-01-28 21:41:06.64	122.99	4.87	-44.2	-59.1	3.6	1.51e+00	0	31	104	0	60	36485
2026-01-28 21:41:09.67	123.48	4.71	-44.2	-59.0	3.6	1.51e+00	0	31	104	0	60	36082
2026-01-28 21:41:12.70	123.96	4.55	-44.2	-59.0	3.6	1.51e+00	0	31	104	0	60	36007
2026-01-28 21:41:15.73	124.44	4.39	-44.2	-59.0	3.6	1.51e+00	0	31	104	0	60	36037
2026-01-28 21:41:18.76	124.91	4.24	-44.3	-59.0	3.6	1.51e+00	0	31	104	0	60	36045
2026-01-28 21:41:21.79	125.37	4.08	-44.1	-58.8	3.6	1.51e+00	0	30	104	0	60	35366
2026-01-28 21:41:24.81	125.82	3.92	-44.2	-58.9	3.6	1.51e+00	0	31	104	0	60	35878
2026-01-28 21:41:27.84	126.27	3.76	-44.2	-58.9	3.6	1.51e+00	0	31	104	0	60	35710
2026-01-28 21:41:30.86	126.72	3.60	-44.2	-59.0	3.6	1.51e+00	0	31	104	0	60	36042
2026-01-28 21:41:33.89	127.16	3.45	-43.8	-58.6	3.6	1.51e+00	0	31	104	0	60	34526
2026-01-28 21:41:36.91	127.59	3.29	-44.0	-58.8	3.6	1.51e+00	0	31	104	0	60	35201
2026-01-28 21:41:39.94	128.02	3.13	-43.8	-58.6	3.6	1.51e+00	0	31	104	0	60	34672
2026-01-28 21:41:42.97	128.44	2.97	-44.3	-59.0	3.6	1.51e+00	0	31	104	0	60	36161
2026-01-28 21:41:46.00	128.85	2.82	-45.0	-59.7	3.6	1.51e+00	0	31	104	0	60	39296
2026-01-28 21:41:49.03	129.26	2.66	-45.4	-60.1	3.6	1.51e+00	0	31	104	0	60	41005
2026-01-28 21:41:52.06	129.67	2.50	-45.3	-60.2	3.6	1.51e+00	0	31	104	0	60	41441
2026-01-28 21:41:55.09	130.07	2.35	-45.6	-60.3	3.6	1.51e+00	0	31	104	0	60	41955
2026-01-28 21:41:58.12	130.46	2.19	-45.4	-60.1	3.6	1.51e+00	0	31	104	0	60	41206
2026-01-28 21:42:01.15	130.85	2.03	-45.4	-60.1	3.6	1.51e+00	0	31	104	0	60	40985
2026-01-28 21:42:04.18	131.24	1.88	-45.4	-60.1	3.6	1.51e+00	0	31	104	0	60	40981
2026-01-28 21:42:07.21	131.62	1.72	-45.5	-60.3	3.6	1.51e+00	0	31	104	0	60	41893
2026-01-28 21:42:10.24	131.99	1.56	-45.4	-60.1	3.6	1.51e+00	0	31	104	0	60	41042
2026-01-28 21:42:13.27	132.36	1.41	-45.6	-60.3	3.6	1.51e+00	0	31	104	0	60	42076
2026-01-28 21:42:16.30	132.72	1.25	-45.5	-60.1	3.6	1.51e+00	0	31	104	0	60	41117
2026-01-28 21:42:19.33	133.08	1.10	-45.8	-60.5	3.6	1.51e+00	0	31	104	0	60	43159
2026-01-28 21:42:22.36	133.44	0.95	-45.7	-60.4	3.6	1.51e+00	0	31	104	0	60	42231
2026-01-28 21:42:25.39	133.79	0.79	-45.6	-60.3	3.6	1.51e+00	0	31	104	0	60	42008
2026-01-28 21:42:28.42	134.14	0.64	-45.6	-60.3	3.6	1.51e+00	0	31	104	0	60	41998
2026-01-28 21:42:31.46	134.48	0.48	-45.7	-60.4	3.6	1.51e+00	0	31	104	0	60	42366
2026-01-28 21:42:34.48	134.82	0.33	-45.7	-60.4	3.6	1.51e+00	0	31	104	0	60	42357
2026-01-28 21:42:37.51	135.15	0.18	-45.8	-60.5	3.6	1.51e+00	0	31	104	0	60	43191
2026-01-28 21:42:40.55	135.48	0.03	-45.8	-60.4	3.6	1.51e+00	0	31	104	0	60	42671

#Closed at: 2026-01-28 21:42:41
#Recorded file [0 MB]: D:/lorett/data/35029_260129_093320.dat