passes_logs/2026/01/28/R4.6S_Anadyr/R4.6S_Anadyr__20260128_122027_SUOMI_NPP_rec.log

#Pass ID: 20260128_122027_SUOMI NPP
#Satellite: SUOMI NPP
#Configuration: NPP
#almurnet v.1.7.20251203
#Start time: 2026-01-28 12:20:30

#Version: 2.2.20231116
#Station: R4.6S_Anadyr
#Location: 177.4865 lon 64.73178 lat
#TLE: 1 37849U 11061A   26027.86188320  .00000172  00000+0  10275-3 0  9990
#TLE: 2 37849  98.7823 329.8005 0002088  41.4184 318.7150 14.19530883738530

#Time	Az	El	Level	Level2	SNR	BER	BlckErr	Temp	State	Recorded	gain1	gain2
2026-01-28 12:20:30.20	19.41	0.14	-48.5	-61.1	3.4	1.52e+00	0	30	0	0	60	39747
2026-01-28 12:20:34.23	19.73	0.33	-48.5	-63.8	3.6	1.51e+00	0	32	104	0	60	55788
2026-01-28 12:20:38.27	20.05	0.52	-48.6	-63.8	3.6	1.51e+00	0	32	104	0	60	56172
2026-01-28 12:20:42.31	20.37	0.72	-48.4	-63.7	3.6	1.51e+00	0	32	104	0	60	55660
2026-01-28 12:20:46.35	20.69	0.91	-48.3	-63.5	3.6	1.51e+00	0	32	104	0	60	54215
2026-01-28 12:20:50.40	21.02	1.11	-48.0	-63.2	3.6	1.51e+00	0	32	104	0	60	52325
2026-01-28 12:20:54.44	21.36	1.30	-47.1	-62.3	3.6	1.51e+00	0	32	104	0	60	47004
2026-01-28 12:20:58.47	21.70	1.50	-47.0	-62.1	3.6	1.51e+00	0	32	104	0	60	46151
2026-01-28 12:21:02.51	22.04	1.70	-46.9	-62.2	3.6	1.51e+00	0	32	104	0	60	46555
2026-01-28 12:21:06.55	22.38	1.89	-46.9	-62.0	3.6	1.51e+00	0	32	104	0	60	45418
2026-01-28 12:21:10.59	22.74	2.09	-46.9	-62.2	3.6	1.51e+00	0	32	104	0	60	46304
2026-01-28 12:21:14.63	23.09	2.29	-46.9	-62.0	3.6	1.51e+00	0	32	104	0	60	45453
2026-01-28 12:21:18.68	23.45	2.49	-46.9	-61.5	3.6	1.51e+00	0	32	104	0	60	42979
2026-01-28 12:21:22.72	23.82	2.69	-43.7	-46.8	14.4	5.24e-04	0	32	0	3145728	60	7883
2026-01-28 12:21:26.76	24.19	2.89	-41.0	-42.7	18.3	0.00e+00	0	32	0	10485760	56	6209
2026-01-28 12:21:30.80	24.56	3.09	-41.4	-43.2	17.8	0.00e+00	92	32	0	18874368	56	6588
2026-01-28 12:21:34.83	24.94	3.29	-44.9	-48.7	13.7	1.99e-02	0	32	0	22020096	60	9874
2026-01-28 12:21:38.87	25.32	3.49	-41.6	-43.4	17.7	0.00e+00	0	32	0	29360128	56	6743
2026-01-28 12:21:42.91	25.71	3.70	-40.6	-42.1	19.1	0.00e+00	8	32	0	36700160	54	6537
2026-01-28 12:21:46.95	26.10	3.90	-40.2	-41.7	19.4	0.00e+00	35	32	0	45088768	52	6955
2026-01-28 12:21:51.00	26.51	4.10	-39.0	-40.2	20.9	0.00e+00	0	32	0	52428800	52	5862
2026-01-28 12:21:55.03	26.91	4.31	-39.1	-40.3	20.8	0.00e+00	0	32	0	59768832	52	5951
2026-01-28 12:21:59.07	27.32	4.51	-39.4	-40.7	20.4	0.00e+00	92	32	0	67108864	52	6226
2026-01-28 12:22:03.11	27.73	4.71	-39.7	-41.0	20.2	0.00e+00	0	32	0	74448896	52	6409
2026-01-28 12:22:07.15	28.16	4.92	-39.7	-41.0	20.1	0.00e+00	0	32	0	82837504	52	6458
2026-01-28 12:22:11.18	28.58	5.12	-39.6	-40.9	20.5	0.00e+00	0	32	0	90177536	52	6354
2026-01-28 12:22:15.22	29.01	5.33	-39.9	-41.2	20.1	0.00e+00	64	32	0	97517568	52	6586
2026-01-28 12:22:19.27	29.45	5.54	-40.0	-41.4	19.9	0.00e+00	0	33	0	104857600	52	6739
2026-01-28 12:22:23.30	29.90	5.74	-39.5	-40.7	20.6	0.00e+00	0	33	0	113246208	52	6206
2026-01-28 12:22:27.33	30.34	5.95	-39.7	-41.0	20.6	0.00e+00	0	33	0	120586240	52	6400
2026-01-28 12:22:31.37	30.80	6.15	-38.9	-40.0	21.3	0.00e+00	68	33	0	127926272	52	5754
2026-01-28 12:22:35.41	31.26	6.36	-38.3	-39.4	21.8	0.00e+00	33	32	0	135266304	50	5972
2026-01-28 12:22:39.45	31.73	6.57	-38.1	-39.1	21.9	0.00e+00	0	32	0	142606336	50	5818
2026-01-28 12:22:43.49	32.21	6.77	-38.5	-39.6	21.7	0.00e+00	44	32	0	150994944	50	6153
2026-01-28 12:22:47.52	32.69	6.98	-38.7	-39.8	21.4	0.00e+00	0	33	0	158334976	50	6306
2026-01-28 12:22:51.56	33.18	7.19	-38.5	-39.6	21.6	0.00e+00	0	33	0	165675008	50	6107
2026-01-28 12:22:55.60	33.67	7.39	-38.8	-39.9	21.4	0.00e+00	0	33	0	173015040	50	6354
2026-01-28 12:22:59.63	34.17	7.60	-39.0	-40.1	21.2	0.00e+00	92	32	0	181403648	50	6536
2026-01-28 12:23:03.67	34.68	7.80	-38.6	-39.7	21.6	0.00e+00	0	32	0	188743680	50	6223
2026-01-28 12:23:07.71	35.20	8.01	-38.6	-39.7	21.7	0.00e+00	0	32	0	196083712	50	6192
2026-01-28 12:23:11.74	35.72	8.22	-38.5	-39.6	21.7	0.00e+00	17	33	0	203423744	50	6152
2026-01-28 12:23:15.78	36.25	8.42	-38.3	-39.4	21.9	0.00e+00	92	33	0	210763776	50	5978
2026-01-28 12:23:19.82	36.78	8.63	-38.3	-39.3	22.2	0.00e+00	0	33	0	219152384	50	5960
2026-01-28 12:23:23.86	37.33	8.83	-38.0	-39.0	22.3	0.00e+00	0	33	0	226492416	50	5734
2026-01-28 12:23:27.90	37.88	9.04	-37.6	-38.6	22.6	0.00e+00	20	33	0	233832448	48	6155
2026-01-28 12:23:31.93	38.44	9.24	-36.9	-37.8	23.2	0.00e+00	0	33	0	241172480	48	5606
2026-01-28 12:23:35.97	39.01	9.44	-37.2	-38.1	23.0	0.00e+00	0	33	0	249561088	48	5811
2026-01-28 12:23:40.01	39.58	9.64	-37.3	-38.2	23.0	0.00e+00	0	33	0	256901120	48	5895
2026-01-28 12:23:44.05	40.16	9.84	-37.3	-38.3	22.9	0.00e+00	64	33	0	264241152	48	5926
2026-01-28 12:23:48.08	40.75	10.04	-37.2	-38.1	23.1	0.00e+00	0	33	0	271581184	48	5823
2026-01-28 12:23:52.12	41.35	10.24	-37.4	-38.4	22.9	0.00e+00	0	33	0	278921216	48	6000
2026-01-28 12:23:56.16	41.95	10.44	-37.2	-38.1	23.1	0.00e+00	0	33	0	287309824	48	5812
2026-01-28 12:24:00.20	42.57	10.64	-37.4	-38.4	23.0	0.00e+00	92	33	0	294649856	48	5966
2026-01-28 12:24:04.24	43.19	10.83	-37.4	-38.4	22.9	0.00e+00	0	33	0	301989888	48	5969
2026-01-28 12:24:08.27	43.82	11.03	-37.4	-38.3	23.0	0.00e+00	0	33	0	309329920	48	5927
2026-01-28 12:24:12.31	44.45	11.22	-37.4	-38.4	22.9	0.00e+00	0	33	0	317718528	48	5999
2026-01-28 12:24:16.35	45.10	11.41	-38.0	-39.0	22.4	0.00e+00	92	33	0	325058560	48	6456
2026-01-28 12:24:20.39	45.75	11.60	-37.7	-38.7	22.7	0.00e+00	0	33	0	332398592	48	6234
2026-01-28 12:24:24.42	46.41	11.79	-38.0	-39.0	22.5	0.00e+00	0	33	0	339738624	48	6406
2026-01-28 12:24:28.46	47.08	11.97	-38.2	-39.3	22.2	0.00e+00	64	33	0	347078656	48	6619
2026-01-28 12:24:32.50	47.76	12.15	-38.1	-39.2	22.4	0.00e+00	33	33	0	355467264	48	6542
2026-01-28 12:24:36.53	48.45	12.33	-38.1	-39.1	22.3	0.00e+00	0	33	0	362807296	48	6531
2026-01-28 12:24:40.57	49.14	12.51	-38.3	-39.4	22.0	0.00e+00	0	33	0	370147328	48	6726
2026-01-28 12:24:44.61	49.85	12.69	-38.7	-39.9	21.8	0.00e+00	92	33	0	377487360	50	6318
2026-01-28 12:24:48.65	50.56	12.86	-38.9	-40.0	21.8	0.00e+00	0	33	0	385875968	50	6450
2026-01-28 12:24:52.69	51.28	13.03	-39.1	-40.3	21.4	0.00e+00	0	33	0	393216000	50	6632
2026-01-28 12:24:56.72	52.00	13.20	-39.6	-40.8	20.8	0.00e+00	0	33	0	400556032	50	7036
2026-01-28 12:25:00.76	52.74	13.36	-39.4	-40.6	21.1	0.00e+00	84	33	0	407896064	50	6900
2026-01-28 12:25:04.80	53.48	13.52	-39.8	-41.0	20.9	0.00e+00	0	33	0	415236096	52	6451
2026-01-28 12:25:08.84	54.23	13.68	-39.6	-40.8	20.9	0.00e+00	0	33	0	423624704	52	6282
2026-01-28 12:25:12.88	54.99	13.84	-39.5	-40.7	21.0	0.00e+00	19	33	0	430964736	52	6214
2026-01-28 12:25:16.91	55.76	13.99	-39.7	-41.0	20.9	0.00e+00	0	33	0	438304768	52	6396
2026-01-28 12:25:20.95	56.53	14.13	-39.1	-40.2	21.6	0.00e+00	0	33	0	445644800	52	5890
2026-01-28 12:25:24.99	57.31	14.28	-38.8	-39.9	21.9	0.00e+00	0	33	0	454033408	52	5674
2026-01-28 12:25:29.03	58.10	14.41	-37.4	-38.3	23.0	0.00e+00	82	33	0	461373440	48	5951
2026-01-28 12:25:33.07	58.90	14.55	-37.2	-38.1	23.2	0.00e+00	0	33	0	468713472	48	5823
2026-01-28 12:25:37.10	59.70	14.68	-37.5	-38.5	23.0	0.00e+00	0	33	0	476053504	48	6034
2026-01-28 12:25:41.14	60.51	14.80	-37.6	-38.5	22.7	0.00e+00	0	33	0	483393536	48	6098
2026-01-28 12:25:45.18	61.32	14.92	-37.5	-38.4	22.9	0.00e+00	90	33	0	491782144	48	6012
2026-01-28 12:25:49.22	62.14	15.04	-37.8	-38.8	22.6	0.00e+00	0	33	0	499122176	48	6303
2026-01-28 12:25:53.25	62.97	15.15	-37.6	-38.6	22.9	0.00e+00	0	33	0	506462208	48	6115
2026-01-28 12:25:57.29	63.81	15.26	-37.4	-38.4	23.0	0.00e+00	41	33	0	513802240	48	5976
2026-01-28 12:26:01.32	64.64	15.36	-38.3	-39.3	22.3	0.00e+00	68	33	0	522190848	48	6652
2026-01-28 12:26:05.36	65.49	15.45	-38.6	-39.6	22.1	0.00e+00	0	33	0	529530880	48	6913
2026-01-28 12:26:09.40	66.34	15.54	-39.1	-40.2	21.4	0.00e+00	0	33	0	536870912	50	6614
2026-01-28 12:26:13.44	67.20	15.63	-37.4	-38.4	23.1	0.00e+00	40	33	0	544210944	48	6023
2026-01-28 12:26:17.47	68.06	15.70	-38.1	-39.2	22.4	0.00e+00	0	33	0	551550976	48	6590
2026-01-28 12:26:21.51	68.92	15.78	-37.1	-38.0	23.2	0.00e+00	0	33	0	559939584	48	5747
2026-01-28 12:26:25.54	69.79	15.84	-37.4	-38.4	23.1	0.00e+00	0	33	0	567279616	48	5992
2026-01-28 12:26:29.58	70.66	15.90	-37.5	-38.4	23.0	0.00e+00	92	33	0	574619648	48	6011
2026-01-28 12:26:33.62	71.53	15.96	-38.3	-39.3	22.1	0.00e+00	0	33	0	581959680	48	6647
2026-01-28 12:26:37.65	72.41	16.00	-38.1	-39.1	22.4	0.00e+00	0	33	0	589299712	48	6518
2026-01-28 12:26:41.69	73.29	16.05	-38.8	-39.9	21.8	0.00e+00	0	33	0	597688320	48	7100
2026-01-28 12:26:45.73	74.18	16.08	-38.5	-39.6	22.1	0.00e+00	91	33	0	605028352	50	6112
2026-01-28 12:26:49.77	75.06	16.11	-38.3	-39.4	22.2	0.00e+00	0	33	0	612368384	50	5971
2026-01-28 12:26:53.81	75.95	16.13	-37.8	-38.8	22.7	0.00e+00	0	33	0	619708416	50	5628
2026-01-28 12:26:57.84	76.83	16.15	-38.1	-39.2	22.5	0.00e+00	0	33	0	628097024	50	5848
2026-01-28 12:27:01.88	77.72	16.16	-37.3	-38.2	23.3	0.00e+00	26	33	0	635437056	48	5875
2026-01-28 12:27:05.92	78.61	16.16	-37.5	-38.5	22.9	0.00e+00	0	33	0	642777088	48	6086
2026-01-28 12:27:09.95	79.50	16.16	-37.4	-38.4	23.1	0.00e+00	0	33	0	650117120	48	5978
2026-01-28 12:27:14.00	80.39	16.15	-37.9	-38.9	22.7	0.00e+00	65	33	0	657457152	48	6342
2026-01-28 12:27:18.04	81.28	16.13	-37.7	-38.6	22.8	0.00e+00	0	33	0	665845760	48	6149
2026-01-28 12:27:22.07	82.17	16.11	-37.4	-38.4	23.0	0.00e+00	0	33	0	673185792	48	5972
2026-01-28 12:27:26.11	83.05	16.08	-38.3	-39.3	22.3	0.00e+00	0	33	0	680525824	48	6684
2026-01-28 12:27:30.15	83.94	16.05	-37.5	-38.5	22.9	0.00e+00	91	33	0	687865856	48	6080
2026-01-28 12:27:34.19	84.82	16.00	-37.2	-38.1	23.2	0.00e+00	0	33	0	696254464	48	5816
2026-01-28 12:27:38.23	85.70	15.96	-37.7	-38.7	22.8	0.00e+00	0	33	0	703594496	48	6228
2026-01-28 12:27:42.27	86.57	15.90	-37.7	-38.7	22.9	0.00e+00	0	33	0	710934528	48	6216
2026-01-28 12:27:46.30	87.45	15.84	-37.5	-38.5	23.0	0.00e+00	86	33	0	718274560	48	6071
2026-01-28 12:27:50.33	88.31	15.77	-36.7	-37.6	23.6	0.00e+00	0	33	0	725614592	46	6146
2026-01-28 12:27:54.37	89.18	15.70	-36.7	-37.6	23.7	0.00e+00	0	33	0	734003200	46	6143
2026-01-28 12:27:58.41	90.04	15.62	-36.4	-37.3	23.9	0.00e+00	60	33	0	741343232	46	5915
2026-01-28 12:28:02.45	90.90	15.54	-37.3	-38.3	23.0	0.00e+00	0	33	0	748683264	46	6645
2026-01-28 12:28:06.48	91.75	15.45	-36.9	-37.9	23.3	0.00e+00	0	33	0	756023296	46	6327
2026-01-28 12:28:10.52	92.60	15.35	-37.2	-38.2	23.2	0.00e+00	0	33	0	764411904	46	6563
2026-01-28 12:28:14.56	93.44	15.25	-36.8	-37.7	23.5	0.00e+00	92	33	0	771751936	46	6225
2026-01-28 12:28:18.60	94.27	15.15	-36.2	-37.0	24.0	0.00e+00	0	33	0	779091968	46	5755
2026-01-28 12:28:22.64	95.11	15.04	-36.1	-37.0	24.2	0.00e+00	0	33	0	786432000	46	5696
2026-01-28 12:28:26.68	95.93	14.92	-36.6	-37.4	23.9	0.00e+00	0	33	0	793772032	46	6031
2026-01-28 12:28:30.72	96.75	14.80	-36.4	-37.3	23.8	0.00e+00	92	33	0	802160640	46	5932
2026-01-28 12:28:34.75	97.56	14.67	-36.8	-37.8	23.6	0.00e+00	0	33	0	809500672	46	6278
2026-01-28 12:28:38.79	98.36	14.54	-36.5	-37.4	23.8	0.00e+00	0	33	0	816840704	46	5974
2026-01-28 12:28:42.83	99.16	14.41	-36.3	-37.2	23.9	0.00e+00	61	33	0	824180736	46	5843
2026-01-28 12:28:46.87	99.95	14.27	-36.6	-37.5	23.7	0.00e+00	0	33	0	832569344	46	6092
2026-01-28 12:28:50.91	100.74	14.12	-36.8	-37.7	23.7	0.00e+00	0	33	0	839909376	46	6197
2026-01-28 12:28:54.95	101.51	13.97	-37.7	-38.7	22.6	0.00e+00	0	33	0	847249408	46	6931
2026-01-28 12:28:58.98	102.28	13.82	-38.1	-39.2	22.2	0.00e+00	53	33	0	854589440	48	6580
2026-01-28 12:29:03.02	103.04	13.67	-37.7	-38.7	22.8	0.00e+00	0	33	0	861929472	48	6220
2026-01-28 12:29:07.05	103.79	13.51	-38.0	-39.1	22.4	0.00e+00	0	33	0	870318080	48	6497
2026-01-28 12:29:11.09	104.54	13.35	-38.3	-39.4	22.1	0.00e+00	0	33	0	877658112	48	6728
2026-01-28 12:29:15.13	105.27	13.18	-37.8	-38.8	22.6	0.00e+00	65	33	0	884998144	48	6315
2026-01-28 12:29:19.17	106.00	13.01	-38.5	-39.6	22.0	0.00e+00	0	33	0	892338176	48	6885
2026-01-28 12:29:23.20	106.72	12.84	-39.7	-41.0	20.8	0.00e+00	0	33	0	899678208	50	7171
2026-01-28 12:29:27.23	107.44	12.67	-39.6	-40.8	20.9	0.00e+00	65	33	0	908066816	50	7058
2026-01-28 12:29:31.26	108.14	12.49	-39.1	-40.2	21.4	0.00e+00	10	33	0	915406848	52	5892
2026-01-28 12:29:35.30	108.84	12.31	-38.1	-39.1	22.3	0.00e+00	0	33	0	922746880	50	5807
2026-01-28 12:29:39.34	109.53	12.13	-38.6	-39.7	21.7	0.00e+00	0	33	0	930086912	50	6232
2026-01-28 12:29:43.38	110.21	11.95	-39.0	-40.1	21.4	0.00e+00	61	33	0	938475520	50	6516
2026-01-28 12:29:47.42	110.88	11.76	-38.8	-40.0	21.6	0.00e+00	33	33	0	945815552	50	6461
2026-01-28 12:29:51.45	111.54	11.57	-38.8	-40.0	21.4	0.00e+00	0	33	0	953155584	50	6456
2026-01-28 12:29:55.49	112.20	11.38	-38.5	-39.8	21.7	0.00e+00	0	33	0	960495616	50	6299
2026-01-28 12:29:59.53	112.84	11.19	-38.3	-39.3	22.1	0.00e+00	66	33	0	967835648	50	5945
2026-01-28 12:30:03.56	113.48	10.99	-37.8	-38.9	22.4	0.00e+00	0	33	0	976224256	48	6344
2026-01-28 12:30:07.60	114.11	10.80	-38.0	-39.1	22.4	0.00e+00	0	33	0	983564288	48	6525
2026-01-28 12:30:11.64	114.74	10.60	-38.2	-39.3	22.1	0.00e+00	0	33	0	990904320	48	6641
2026-01-28 12:30:15.68	115.35	10.40	-37.7	-38.7	22.6	0.00e+00	92	33	0	998244352	48	6217
2026-01-28 12:30:19.72	115.96	10.20	-38.0	-39.0	22.4	0.00e+00	0	33	0	1006632960	48	6439
2026-01-28 12:30:23.76	116.56	10.00	-37.9	-39.0	22.4	0.00e+00	0	33	0	1013972992	48	6412
2026-01-28 12:30:27.80	117.15	9.80	-37.2	-38.1	23.1	0.00e+00	56	33	0	1021313024	48	5796
2026-01-28 12:30:31.83	117.73	9.60	-36.9	-37.8	23.2	0.00e+00	43	33	0	1028653056	48	5619
2026-01-28 12:30:35.87	118.31	9.40	-37.5	-38.5	22.8	0.00e+00	0	33	0	1035993088	48	6056
2026-01-28 12:30:39.91	118.88	9.19	-38.0	-39.0	22.3	0.00e+00	0	33	0	1044381696	48	6427
2026-01-28 12:30:43.95	119.44	8.99	-38.3	-39.3	22.0	0.00e+00	55	33	0	1051721728	48	6681
2026-01-28 12:30:47.99	119.99	8.78	-38.1	-39.2	22.1	0.00e+00	0	33	0	1059061760	48	6554
2026-01-28 12:30:52.03	120.53	8.57	-37.5	-38.4	22.8	0.00e+00	0	33	0	1066401792	48	6019
2026-01-28 12:30:56.07	121.07	8.37	-37.9	-38.9	22.3	0.00e+00	0	33	0	1074790400	48	6390
2026-01-28 12:31:00.11	121.60	8.16	-38.6	-39.7	21.7	0.00e+00	91	33	0	1082130432	48	7004
2026-01-28 12:31:04.14	122.13	7.95	-38.6	-39.7	21.5	0.00e+00	0	33	0	1089470464	50	6179
2026-01-28 12:31:08.18	122.64	7.74	-38.7	-39.8	21.6	0.00e+00	0	33	0	1096810496	50	6274
2026-01-28 12:31:12.22	123.15	7.54	-39.0	-40.2	21.1	0.00e+00	0	33	0	1104150528	50	6583
2026-01-28 12:31:16.26	123.65	7.33	-39.6	-40.9	20.6	0.00e+00	90	33	0	1112539136	50	7127
2026-01-28 12:31:20.30	124.15	7.12	-39.4	-40.6	20.7	0.00e+00	0	33	0	1119879168	50	6875
2026-01-28 12:31:24.33	124.64	6.91	-39.4	-40.8	20.6	0.00e+00	0	33	0	1127219200	50	7024
2026-01-28 12:31:28.37	125.12	6.70	-39.6	-41.0	20.4	0.00e+00	90	33	0	1134559232	52	6401
2026-01-28 12:31:32.41	125.59	6.49	-39.3	-40.6	21.0	0.00e+00	0	33	0	1142947840	52	6115
2026-01-28 12:31:36.45	126.06	6.29	-38.9	-40.1	21.1	0.00e+00	0	33	0	1150287872	50	6478
2026-01-28 12:31:40.49	126.53	6.08	-40.0	-41.3	20.1	0.00e+00	0	33	0	1157627904	52	6657
2026-01-28 12:31:44.53	126.98	5.87	-40.4	-41.9	19.4	0.00e+00	91	33	0	1164967936	54	6385
2026-01-28 12:31:48.57	127.43	5.66	-39.9	-41.3	20.1	0.00e+00	0	33	0	1172307968	54	5929
2026-01-28 12:31:52.60	127.87	5.45	-39.8	-41.1	20.0	0.00e+00	0	33	0	1180696576	52	6505
2026-01-28 12:31:56.64	128.31	5.25	-40.2	-41.5	19.7	0.00e+00	17	33	0	1188036608	52	6845
2026-01-28 12:32:00.68	128.74	5.04	-40.8	-42.3	19.0	0.00e+00	78	33	0	1195376640	54	6672
2026-01-28 12:32:04.72	129.17	4.83	-40.4	-41.9	19.2	0.00e+00	0	33	0	1202716672	54	6345
2026-01-28 12:32:08.75	129.59	4.62	-40.2	-41.6	19.6	0.00e+00	0	33	0	1210056704	54	6146
2026-01-28 12:32:12.79	130.01	4.42	-41.0	-42.6	18.6	0.00e+00	29	33	0	1218445312	54	6924
2026-01-28 12:32:16.83	130.41	4.21	-41.3	-43.2	17.9	0.00e+00	7	33	0	1225785344	54	7350
2026-01-28 12:32:20.87	130.82	4.01	-41.2	-43.2	18.1	0.00e+00	0	33	0	1233125376	54	7349
2026-01-28 12:32:24.91	131.22	3.80	-40.5	-42.2	19.0	0.00e+00	0	33	0	1240465408	54	6596
2026-01-28 12:32:28.94	131.61	3.60	-40.6	-42.3	18.9	0.00e+00	75	33	0	1248854016	54	6619
2026-01-28 12:32:32.98	132.00	3.39	-41.1	-42.8	18.2	0.00e+00	0	33	0	1256194048	54	7054
2026-01-28 12:32:37.02	132.38	3.19	-41.7	-43.7	17.2	0.00e+00	0	33	0	1263534080	54	7832
2026-01-28 12:32:41.05	132.76	2.99	-46.9	-62.3	3.6	3.80e-02	0	33	104	1270874112	60	47171
2026-01-28 12:32:45.09	133.13	2.78	-48.1	-63.4	3.6	1.51e+00	0	33	104	1270874112	60	53709
2026-01-28 12:32:49.13	133.50	2.58	-47.9	-63.8	3.6	1.51e+00	0	33	104	1270874112	60	55986
2026-01-28 12:32:53.18	133.86	2.38	-48.6	-63.8	3.6	1.51e+00	0	33	104	1270874112	60	56204
2026-01-28 12:32:57.21	134.22	2.18	-48.6	-63.8	3.6	1.51e+00	0	33	104	1270874112	60	56102
2026-01-28 12:33:01.25	134.57	1.98	-48.4	-63.8	3.6	1.51e+00	0	33	104	1270874112	60	55954
2026-01-28 12:33:05.29	134.92	1.78	-48.6	-63.8	3.6	1.51e+00	0	33	104	1270874112	60	56134
2026-01-28 12:33:09.33	135.27	1.58	-48.6	-63.8	3.6	1.51e+00	0	33	104	1270874112	60	55722
2026-01-28 12:33:13.37	135.61	1.38	-48.6	-63.8	3.6	1.51e+00	0	33	104	1270874112	60	55780
2026-01-28 12:33:17.41	135.95	1.18	-48.6	-63.7	3.6	1.51e+00	0	33	104	1270874112	60	55635
2026-01-28 12:33:21.45	136.28	0.98	-48.6	-63.8	3.6	1.51e+00	0	33	104	1270874112	60	55796
2026-01-28 12:33:25.49	136.61	0.79	-48.6	-63.7	3.6	1.51e+00	0	33	104	1270874112	60	55489
2026-01-28 12:33:29.53	136.93	0.59	-48.6	-63.7	3.6	1.51e+00	0	33	104	1270874112	60	55586
2026-01-28 12:33:33.57	137.25	0.39	-48.6	-63.7	3.6	1.51e+00	0	33	104	1270874112	60	55596
2026-01-28 12:33:37.61	137.56	0.20	-48.6	-63.8	3.6	1.51e+00	0	33	104	1270874112	60	55703
2026-01-28 12:33:41.65	137.88	0.00	-48.6	-63.8	3.6	1.51e+00	0	33	104	1270874112	60	55733

#Closed at: 2026-01-28 12:33:43
#Recorded file [1270 MB]: D:/lorett/data/35029_260129_002030.dat