passes_logs/2026/01/28/R4.6S_Anadyr/R4.6S_Anadyr__20260128_192048_NOAA_20_JPSS-1_rec.log

#Pass ID: 20260128_192048_NOAA 20 (JPSS-1)
#Satellite: NOAA 20 (JPSS-1)
#Configuration: NOAA 20
#almurnet v.1.7.20251203
#Start time: 2026-01-28 19:20:50

#Version: 2.2.20231116
#Station: R4.6S_Anadyr
#Location: 177.4865 lon 64.73178 lat
#TLE: 1 43013U 17073A   26027.80586608  .00000156  00000+0  94940-4 0  9998
#TLE: 2 43013  98.7647 328.6108 0000947  21.3465 338.7750 14.19541216424550

#Time	Az	El	Level	Level2	SNR	BER	BlckErr	Temp	State	Recorded	gain1	gain2
2026-01-28 19:20:50.24	51.81	0.10	-49.1	-66.9	3.5	3.03e+01	0	30	0	0	60	84768
2026-01-28 19:20:53.27	51.58	0.24	-49.1	-64.2	3.6	1.51e+00	0	31	104	0	60	58703
2026-01-28 19:20:56.30	51.35	0.39	-49.1	-64.3	3.6	1.51e+00	0	31	104	0	60	59187
2026-01-28 19:20:59.33	51.12	0.54	-48.9	-64.1	3.6	1.51e+00	0	31	104	0	60	57845
2026-01-28 19:21:02.36	50.88	0.69	-48.8	-64.0	3.5	1.51e+00	0	31	104	0	60	57095
2026-01-28 19:21:05.39	50.64	0.83	-48.7	-63.8	3.6	1.51e+00	0	31	104	0	60	56241
2026-01-28 19:21:08.42	50.40	0.98	-48.6	-63.8	3.6	1.51e+00	0	31	104	0	60	55854
2026-01-28 19:21:11.45	50.16	1.13	-48.4	-63.5	3.6	1.51e+00	0	31	104	0	60	54303
2026-01-28 19:21:14.47	49.91	1.28	-47.9	-63.0	3.6	1.51e+00	0	31	104	0	60	51299
2026-01-28 19:21:17.51	49.66	1.43	-46.9	-62.0	3.6	1.51e+00	0	31	104	0	60	45522
2026-01-28 19:21:20.54	49.41	1.58	-46.9	-62.0	3.6	1.51e+00	0	31	104	0	60	45526
2026-01-28 19:21:23.57	49.15	1.73	-46.8	-62.0	3.6	1.51e+00	0	31	104	0	60	45388
2026-01-28 19:21:26.60	48.89	1.88	-46.8	-61.8	3.6	1.51e+00	0	31	104	0	60	44693
2026-01-28 19:21:29.63	48.63	2.03	-46.8	-61.9	3.6	1.51e+00	0	31	104	0	60	45142
2026-01-28 19:21:32.66	48.37	2.18	-46.8	-61.8	3.6	1.51e+00	0	31	104	0	60	44483
2026-01-28 19:21:35.69	48.11	2.33	-46.8	-61.9	3.6	1.51e+00	0	31	104	0	60	45100
2026-01-28 19:21:38.71	47.84	2.48	-46.8	-61.7	3.6	1.51e+00	0	32	104	0	60	44166
2026-01-28 19:21:41.74	47.57	2.63	-46.8	-61.7	3.6	1.51e+00	0	31	104	0	60	44129
2026-01-28 19:21:44.77	47.29	2.78	-46.8	-61.8	3.6	1.51e+00	0	32	104	0	60	44679
2026-01-28 19:21:47.80	47.01	2.93	-46.3	-54.9	6.1	6.24e-01	0	32	0	0	60	20138
2026-01-28 19:21:50.83	46.73	3.08	-46.6	-56.1	3.9	1.70e-02	0	32	0	5242880	60	23200
2026-01-28 19:21:53.87	46.45	3.24	-43.2	-45.9	14.9	1.50e-06	0	32	0	5242880	60	7101
2026-01-28 19:21:56.89	46.17	3.39	-43.6	-46.6	14.0	2.20e-06	0	32	104	7340032	60	7733
2026-01-28 19:21:59.92	45.88	3.54	-42.9	-45.3	15.7	0.00e+00	0	32	0	12582912	58	7459
2026-01-28 19:22:02.95	45.58	3.69	-43.3	-46.0	15.1	0.00e+00	0	32	0	17825792	58	8112
2026-01-28 19:22:05.98	45.29	3.84	-42.7	-45.1	16.1	0.00e+00	0	32	0	24117248	58	7254
2026-01-28 19:22:09.01	44.99	4.00	-42.9	-45.4	15.9	0.00e+00	0	32	0	29360128	58	7519
2026-01-28 19:22:12.04	44.69	4.15	-42.2	-44.3	16.9	0.00e+00	0	32	0	34603008	58	6688
2026-01-28 19:22:15.06	44.38	4.30	-42.3	-44.4	16.8	0.00e+00	0	32	0	40894464	58	6732
2026-01-28 19:22:18.09	44.07	4.45	-42.1	-44.1	17.2	0.00e+00	0	32	0	46137344	58	6493
2026-01-28 19:22:21.11	43.76	4.61	-42.1	-44.1	17.2	0.00e+00	0	32	0	52428800	58	6531
2026-01-28 19:22:24.14	43.45	4.76	-42.1	-44.1	17.3	0.00e+00	0	32	0	57671680	56	7288
2026-01-28 19:22:27.16	43.13	4.91	-41.9	-43.9	17.4	0.00e+00	0	32	0	63963136	56	7110
2026-01-28 19:22:30.19	42.81	5.06	-41.6	-43.4	17.9	0.00e+00	0	32	0	69206016	56	6702
2026-01-28 19:22:33.22	42.48	5.22	-41.5	-43.3	17.8	0.00e+00	0	32	0	74448896	56	6623
2026-01-28 19:22:36.25	42.15	5.37	-41.4	-43.1	18.2	0.00e+00	0	32	0	80740352	56	6528
2026-01-28 19:22:39.27	41.82	5.52	-41.7	-43.5	18.0	0.00e+00	0	32	0	85983232	56	6804
2026-01-28 19:22:42.29	41.49	5.68	-41.3	-42.9	18.6	0.00e+00	0	32	0	92274688	56	6373
2026-01-28 19:22:45.32	41.15	5.83	-41.4	-43.1	18.4	0.00e+00	0	32	0	97517568	56	6523
2026-01-28 19:22:48.35	40.80	5.98	-41.0	-42.6	18.9	0.00e+00	0	32	0	102760448	56	6163
2026-01-28 19:22:51.38	40.45	6.13	-41.1	-42.6	19.1	0.00e+00	0	32	0	109051904	56	6169
2026-01-28 19:22:54.41	40.10	6.29	-41.4	-43.0	18.3	0.00e+00	0	32	0	114294784	56	6461
2026-01-28 19:22:57.43	39.75	6.44	-41.2	-42.7	19.0	0.00e+00	0	32	0	120586240	56	6236
2026-01-28 19:23:00.46	39.39	6.59	-41.2	-42.8	18.8	0.00e+00	0	32	0	125829120	56	6295
2026-01-28 19:23:03.49	39.03	6.74	-41.0	-42.6	19.1	0.00e+00	0	32	0	131072000	56	6113
2026-01-28 19:23:06.52	38.66	6.90	-41.2	-42.7	19.0	0.00e+00	0	32	0	137363456	56	6224
2026-01-28 19:23:09.55	38.29	7.05	-40.8	-42.3	19.5	0.00e+00	0	32	0	142606336	56	5935
2026-01-28 19:23:12.58	37.92	7.20	-40.7	-42.1	19.6	0.00e+00	0	32	0	148897792	54	6539
2026-01-28 19:23:15.60	37.54	7.35	-41.1	-42.6	19.2	0.00e+00	0	32	0	154140672	54	6893
2026-01-28 19:23:18.63	37.16	7.50	-41.1	-42.7	19.1	0.00e+00	0	32	0	160432128	54	6959
2026-01-28 19:23:21.66	36.77	7.65	-41.0	-42.5	19.2	0.00e+00	0	32	0	165675008	54	6847
2026-01-28 19:23:24.69	36.38	7.80	-40.8	-42.2	19.6	0.00e+00	0	32	0	170917888	54	6603
2026-01-28 19:23:27.71	35.99	7.95	-40.6	-42.0	19.9	0.00e+00	0	32	0	177209344	54	6401
2026-01-28 19:23:30.74	35.59	8.10	-40.4	-41.7	20.1	0.00e+00	0	32	0	182452224	54	6218
2026-01-28 19:23:33.77	35.18	8.25	-40.5	-41.8	20.0	0.00e+00	0	32	0	188743680	54	6300
2026-01-28 19:23:36.79	34.78	8.40	-40.4	-41.7	20.2	0.00e+00	0	32	0	193986560	54	6239
2026-01-28 19:23:39.82	34.37	8.55	-40.4	-41.7	20.2	0.00e+00	0	32	0	199229440	54	6193
2026-01-28 19:23:42.85	33.95	8.69	-40.3	-41.6	20.3	0.00e+00	0	32	0	205520896	54	6165
2026-01-28 19:23:45.88	33.53	8.84	-40.3	-41.6	20.2	0.00e+00	0	32	0	210763776	54	6167
2026-01-28 19:23:48.91	33.11	8.99	-40.6	-42.0	20.0	0.00e+00	0	32	0	217055232	54	6415
2026-01-28 19:23:51.94	32.68	9.13	-40.4	-41.7	20.3	0.00e+00	0	32	0	222298112	54	6220
2026-01-28 19:23:54.97	32.24	9.28	-40.3	-41.6	20.4	0.00e+00	0	32	0	228589568	54	6145
2026-01-28 19:23:57.99	31.81	9.42	-40.6	-41.9	20.2	0.00e+00	0	32	0	233832448	54	6353
2026-01-28 19:24:01.02	31.37	9.56	-40.2	-41.4	20.6	0.00e+00	0	32	0	239075328	54	6021
2026-01-28 19:24:04.05	30.92	9.71	-39.8	-41.0	21.1	0.00e+00	0	32	0	245366784	52	6401
2026-01-28 19:24:07.08	30.47	9.85	-39.7	-40.9	21.1	0.00e+00	0	32	0	250609664	52	6359
2026-01-28 19:24:10.11	30.01	9.99	-39.5	-40.6	21.4	0.00e+00	0	32	0	256901120	52	6144
2026-01-28 19:24:13.13	29.55	10.13	-39.4	-40.5	21.5	0.00e+00	0	32	0	262144000	52	6052
2026-01-28 19:24:16.16	29.09	10.27	-38.9	-40.0	22.0	0.00e+00	0	32	0	267386880	52	5727
2026-01-28 19:24:19.19	28.62	10.40	-39.0	-40.0	22.1	0.00e+00	0	32	0	273678336	52	5747
2026-01-28 19:24:22.22	28.15	10.54	-38.9	-39.9	22.2	0.00e+00	0	32	0	278921216	52	5679
2026-01-28 19:24:25.25	27.67	10.67	-38.6	-39.7	22.4	0.00e+00	0	32	0	285212672	50	6187
2026-01-28 19:24:28.28	27.19	10.81	-38.7	-39.7	22.3	0.00e+00	0	32	0	290455552	50	6241
2026-01-28 19:24:31.30	26.70	10.94	-38.7	-39.7	22.4	0.00e+00	0	32	0	295698432	50	6224
2026-01-28 19:24:34.33	26.21	11.07	-38.4	-39.4	22.7	0.00e+00	0	32	0	301989888	50	5980
2026-01-28 19:24:37.36	25.72	11.20	-38.4	-39.4	22.6	0.00e+00	0	32	0	307232768	50	5992
2026-01-28 19:24:40.39	25.22	11.33	-38.1	-39.1	22.8	0.00e+00	0	32	0	313524224	50	5771
2026-01-28 19:24:43.42	24.71	11.46	-37.9	-38.9	23.0	0.00e+00	0	32	0	318767104	50	5649
2026-01-28 19:24:46.45	24.20	11.58	-37.9	-38.9	23.0	0.00e+00	0	32	0	325058560	50	5648
2026-01-28 19:24:49.48	23.69	11.71	-38.1	-39.1	22.9	0.00e+00	0	32	0	330301440	50	5768
2026-01-28 19:24:52.51	23.17	11.83	-38.4	-39.4	22.7	0.00e+00	0	32	0	335544320	50	5993
2026-01-28 19:24:55.54	22.65	11.95	-38.1	-39.1	22.9	0.00e+00	0	32	0	341835776	50	5786
2026-01-28 19:24:58.56	22.12	12.07	-38.3	-39.2	22.6	0.00e+00	0	32	0	347078656	50	5889
2026-01-28 19:25:01.59	21.59	12.18	-38.4	-39.4	22.7	0.00e+00	0	32	0	353370112	50	5967
2026-01-28 19:25:04.62	21.06	12.30	-38.7	-39.7	22.4	0.00e+00	0	32	0	358612992	50	6208
2026-01-28 19:25:07.65	20.52	12.41	-38.5	-39.5	22.6	0.00e+00	0	32	0	363855872	50	6098
2026-01-28 19:25:10.68	19.98	12.52	-38.3	-39.3	22.8	0.00e+00	0	32	0	370147328	50	5950
2026-01-28 19:25:13.71	19.43	12.63	-38.1	-39.1	22.8	0.00e+00	0	32	0	375390208	50	5799
2026-01-28 19:25:16.73	18.88	12.74	-38.4	-39.4	22.7	0.00e+00	0	32	0	381681664	50	5973
2026-01-28 19:25:19.76	18.32	12.84	-38.3	-39.3	22.8	0.00e+00	0	32	0	386924544	50	5919
2026-01-28 19:25:22.79	17.76	12.95	-38.2	-39.1	23.0	0.00e+00	0	32	0	393216000	50	5819
2026-01-28 19:25:25.82	17.20	13.05	-38.1	-39.0	23.0	0.00e+00	0	32	0	398458880	50	5729
2026-01-28 19:25:28.85	16.63	13.15	-38.3	-39.2	22.8	0.00e+00	0	32	0	403701760	50	5879
2026-01-28 19:25:31.88	16.06	13.24	-38.1	-39.1	23.1	0.00e+00	0	32	0	409993216	50	5798
2026-01-28 19:25:34.90	15.49	13.33	-38.3	-39.3	22.9	0.00e+00	0	32	0	415236096	50	5913
2026-01-28 19:25:37.93	14.91	13.42	-38.0	-38.9	23.2	0.00e+00	0	32	0	421527552	50	5679
2026-01-28 19:25:40.96	14.33	13.51	-37.8	-38.7	23.4	0.00e+00	0	32	0	426770432	48	6245
2026-01-28 19:25:43.99	13.74	13.60	-38.0	-39.0	23.1	0.00e+00	0	32	0	432013312	48	6404
2026-01-28 19:25:47.01	13.16	13.68	-37.8	-38.7	23.3	0.00e+00	0	32	0	438304768	48	6238
2026-01-28 19:25:50.04	12.56	13.76	-38.0	-39.0	23.2	0.00e+00	0	32	0	443547648	48	6403
2026-01-28 19:25:53.07	11.97	13.84	-37.8	-38.7	23.4	0.00e+00	0	32	0	449839104	48	6222
2026-01-28 19:25:56.10	11.37	13.91	-38.0	-39.0	23.0	0.00e+00	0	32	0	455081984	48	6424
2026-01-28 19:25:59.13	10.77	13.98	-38.3	-39.2	22.9	0.00e+00	0	32	0	461373440	48	6595
2026-01-28 19:26:02.16	10.16	14.05	-38.3	-39.3	22.7	0.00e+00	0	32	0	466616320	48	6649
2026-01-28 19:26:05.19	9.56	14.11	-38.5	-39.5	22.7	0.00e+00	0	32	0	471859200	48	6779
2026-01-28 19:26:08.22	8.95	14.18	-38.5	-39.4	22.7	0.00e+00	0	32	0	478150656	48	6766
2026-01-28 19:26:11.25	8.34	14.24	-38.9	-39.9	22.3	0.00e+00	0	32	0	483393536	50	6388
2026-01-28 19:26:14.27	7.72	14.29	-38.7	-39.7	22.5	0.00e+00	0	32	0	489684992	50	6192
2026-01-28 19:26:17.30	7.11	14.34	-38.4	-39.3	22.9	0.00e+00	0	32	0	494927872	50	5947
2026-01-28 19:26:20.33	6.49	14.39	-38.5	-39.5	22.7	0.00e+00	0	32	0	500170752	50	6088
2026-01-28 19:26:23.35	5.87	14.44	-38.1	-39.0	23.2	0.00e+00	0	32	0	506462208	50	5726
2026-01-28 19:26:26.38	5.25	14.48	-38.1	-39.0	23.1	0.00e+00	0	32	0	511705088	50	5754
2026-01-28 19:26:29.40	4.62	14.52	-38.2	-39.1	23.0	0.00e+00	0	32	0	517996544	50	5812
2026-01-28 19:26:32.43	4.00	14.56	-38.0	-39.0	23.1	0.00e+00	0	32	0	523239424	50	5713
2026-01-28 19:26:35.45	3.37	14.59	-38.4	-39.4	22.7	0.00e+00	0	32	0	528482304	50	6018
2026-01-28 19:26:38.48	2.74	14.62	-38.3	-39.3	23.0	0.00e+00	0	32	0	534773760	50	5918
2026-01-28 19:26:41.51	2.11	14.65	-38.3	-39.2	23.0	0.00e+00	0	32	0	540016640	50	5881
2026-01-28 19:26:44.54	1.48	14.67	-38.5	-39.5	22.8	0.00e+00	0	32	0	546308096	50	6040
2026-01-28 19:26:47.57	0.85	14.69	-38.3	-39.3	23.0	0.00e+00	0	32	0	551550976	50	5900
2026-01-28 19:26:50.59	0.22	14.70	-38.2	-39.2	23.1	0.00e+00	0	32	0	557842432	50	5847
2026-01-28 19:26:53.62	359.59	14.72	-38.4	-39.4	23.0	0.00e+00	0	32	0	563085312	50	5967
2026-01-28 19:26:56.65	358.95	14.72	-38.1	-39.0	23.2	0.00e+00	0	32	0	568328192	50	5734
2026-01-28 19:26:59.68	358.32	14.73	-38.1	-39.0	23.2	0.00e+00	0	32	0	574619648	50	5759
2026-01-28 19:27:02.70	357.69	14.73	-38.4	-39.3	22.9	0.00e+00	0	32	0	579862528	50	5961
2026-01-28 19:27:05.73	357.05	14.73	-38.3	-39.2	22.9	0.00e+00	0	32	0	586153984	50	5895
2026-01-28 19:27:08.76	356.42	14.72	-38.1	-39.1	23.1	0.00e+00	0	32	0	591396864	50	5788
2026-01-28 19:27:11.79	355.78	14.72	-38.2	-39.2	23.0	0.00e+00	0	32	0	596639744	50	5848
2026-01-28 19:27:14.82	355.15	14.70	-38.4	-39.3	22.9	0.00e+00	0	32	0	602931200	50	5950
2026-01-28 19:27:17.85	354.52	14.69	-38.3	-39.2	23.0	0.00e+00	0	32	0	608174080	50	5896
2026-01-28 19:27:20.88	353.88	14.67	-38.6	-39.6	22.6	0.00e+00	0	32	0	614465536	50	6134
2026-01-28 19:27:23.91	353.25	14.64	-38.6	-39.7	22.7	0.00e+00	0	32	0	619708416	50	6175
2026-01-28 19:27:26.94	352.62	14.62	-38.5	-39.4	22.8	0.00e+00	0	32	0	625999872	50	6028
2026-01-28 19:27:29.97	351.99	14.59	-38.5	-39.4	22.9	0.00e+00	0	32	0	631242752	50	6019
2026-01-28 19:27:33.00	351.37	14.55	-38.9	-40.0	22.5	0.00e+00	0	32	0	636485632	50	6391
2026-01-28 19:27:36.03	350.74	14.52	-38.9	-40.0	22.4	0.00e+00	0	32	0	642777088	50	6400
2026-01-28 19:27:39.05	350.12	14.48	-38.8	-39.8	22.5	0.00e+00	0	32	0	648019968	50	6281
2026-01-28 19:27:42.08	349.50	14.44	-38.4	-39.4	22.8	0.00e+00	0	32	0	654311424	50	5975
2026-01-28 19:27:45.11	348.88	14.39	-38.4	-39.4	22.9	0.00e+00	0	32	0	659554304	50	5967
2026-01-28 19:27:48.14	348.26	14.34	-38.6	-39.6	22.7	0.00e+00	0	32	0	664797184	50	6132
2026-01-28 19:27:51.17	347.64	14.29	-38.2	-39.1	23.1	0.00e+00	0	32	0	671088640	50	5804
2026-01-28 19:27:54.20	347.03	14.23	-38.2	-39.1	23.1	0.00e+00	0	32	0	676331520	50	5792
2026-01-28 19:27:57.22	346.42	14.17	-38.3	-39.2	22.9	0.00e+00	0	32	0	682622976	50	5884
2026-01-28 19:28:00.25	345.81	14.11	-38.2	-39.2	23.0	0.00e+00	0	32	0	687865856	50	5868
2026-01-28 19:28:03.28	345.20	14.04	-38.2	-39.2	23.0	0.00e+00	0	32	0	694157312	50	5865
2026-01-28 19:28:06.31	344.60	13.97	-38.4	-39.3	22.9	0.00e+00	0	32	0	699400192	50	5945
2026-01-28 19:28:09.34	344.00	13.90	-38.5	-39.5	22.6	0.00e+00	0	32	0	704643072	50	6074
2026-01-28 19:28:12.37	343.40	13.83	-38.5	-39.5	22.7	0.00e+00	0	32	0	710934528	50	6069
2026-01-28 19:28:15.39	342.80	13.75	-38.7	-39.7	22.5	0.00e+00	0	32	0	716177408	50	6194
2026-01-28 19:28:18.42	342.21	13.67	-38.7	-39.7	22.5	0.00e+00	0	32	0	722468864	50	6199
2026-01-28 19:28:21.45	341.62	13.59	-39.0	-40.1	22.4	0.00e+00	0	32	0	727711744	50	6488
2026-01-28 19:28:24.47	341.04	13.50	-38.7	-39.7	22.5	0.00e+00	0	32	0	732954624	50	6204
2026-01-28 19:28:27.50	340.46	13.41	-38.7	-39.8	22.4	0.00e+00	0	32	0	739246080	50	6271
2026-01-28 19:28:30.53	339.88	13.32	-38.6	-39.7	22.6	0.00e+00	0	32	0	744488960	50	6203
2026-01-28 19:28:33.56	339.31	13.23	-38.5	-39.5	22.8	0.00e+00	0	32	0	750780416	50	6047
2026-01-28 19:28:36.59	338.74	13.14	-38.3	-39.3	22.9	0.00e+00	0	32	0	756023296	50	5913
2026-01-28 19:28:39.62	338.17	13.04	-38.4	-39.4	22.4	0.00e+00	0	32	0	762314752	50	6001
2026-01-28 19:28:42.65	337.61	12.94	-38.3	-39.3	22.8	0.00e+00	0	32	0	767557632	50	5945
2026-01-28 19:28:45.67	337.05	12.83	-38.2	-39.2	23.0	0.00e+00	0	32	0	772800512	50	5831
2026-01-28 19:28:48.70	336.49	12.73	-38.3	-39.3	22.8	0.00e+00	0	32	0	779091968	50	5953
2026-01-28 19:28:51.72	335.94	12.62	-38.5	-39.5	22.7	0.00e+00	0	32	0	784334848	50	6079
2026-01-28 19:28:54.75	335.40	12.51	-38.4	-39.4	22.6	0.00e+00	0	32	0	790626304	50	5973
2026-01-28 19:28:57.77	334.86	12.40	-38.3	-39.3	22.8	0.00e+00	0	32	0	795869184	50	5944
2026-01-28 19:29:00.80	334.32	12.29	-38.3	-39.2	22.8	0.00e+00	0	32	0	801112064	50	5892
2026-01-28 19:29:03.82	333.78	12.17	-38.4	-39.4	22.8	0.00e+00	0	32	0	807403520	50	5967
2026-01-28 19:29:06.85	333.25	12.06	-38.5	-39.4	22.7	0.00e+00	0	32	0	812646400	50	6032
2026-01-28 19:29:09.88	332.73	11.94	-38.5	-39.5	22.5	0.00e+00	0	32	0	818937856	50	6086
2026-01-28 19:29:12.90	332.21	11.82	-38.9	-40.0	22.1	0.00e+00	0	32	0	824180736	50	6401
2026-01-28 19:29:15.93	331.69	11.70	-39.1	-40.2	21.9	0.00e+00	0	32	0	829423616	50	6559
2026-01-28 19:29:18.96	331.18	11.57	-39.5	-40.7	21.5	0.00e+00	0	32	0	835715072	50	6937
2026-01-28 19:29:21.99	330.67	11.45	-39.4	-40.5	21.6	0.00e+00	0	32	0	840957952	50	6840
2026-01-28 19:29:25.02	330.17	11.32	-39.6	-40.7	21.6	0.00e+00	0	32	0	847249408	50	6943
2026-01-28 19:29:28.05	329.67	11.19	-39.8	-41.0	21.3	0.00e+00	0	32	0	852492288	52	6430
2026-01-28 19:29:31.08	329.17	11.06	-40.1	-41.3	21.1	0.00e+00	0	32	0	858783744	52	6638
2026-01-28 19:29:34.11	328.68	10.93	-40.3	-41.6	20.7	0.00e+00	0	32	0	864026624	52	6851
2026-01-28 19:29:37.14	328.19	10.80	-40.5	-41.8	20.4	0.00e+00	0	32	0	869269504	52	7028
2026-01-28 19:29:40.17	327.71	10.66	-40.4	-41.7	20.6	0.00e+00	0	32	0	875560960	52	6936
2026-01-28 19:29:43.20	327.23	10.53	-40.7	-42.0	20.1	0.00e+00	0	32	0	880803840	54	6454
2026-01-28 19:29:46.22	326.76	10.39	-41.3	-42.8	19.5	0.00e+00	0	32	0	887095296	54	7011
2026-01-28 19:29:49.25	326.29	10.25	-41.2	-42.7	19.6	0.00e+00	0	32	0	892338176	54	6971
2026-01-28 19:29:52.28	325.83	10.11	-41.0	-42.3	19.8	0.00e+00	0	32	0	897581056	54	6686
2026-01-28 19:29:55.31	325.37	9.97	-41.1	-42.6	19.6	0.00e+00	0	32	0	903872512	54	6853
2026-01-28 19:29:58.33	324.92	9.83	-41.2	-42.6	19.5	0.00e+00	0	32	0	909115392	54	6896
2026-01-28 19:30:01.36	324.47	9.69	-41.4	-42.9	19.3	0.00e+00	0	32	0	915406848	54	7166
2026-01-28 19:30:04.39	324.02	9.55	-41.5	-43.0	19.3	0.00e+00	0	32	0	920649728	54	7247
2026-01-28 19:30:07.42	323.58	9.41	-41.5	-43.0	19.2	0.00e+00	0	32	0	926941184	54	7233
2026-01-28 19:30:10.45	323.14	9.26	-41.4	-42.9	19.4	0.00e+00	0	32	0	932184064	54	7113
2026-01-28 19:30:13.48	322.71	9.12	-41.3	-42.8	19.4	0.00e+00	0	32	0	937426944	54	7079
2026-01-28 19:30:16.51	322.28	8.97	-41.4	-42.9	19.4	0.00e+00	0	32	0	943718400	54	7110
2026-01-28 19:30:19.54	321.86	8.83	-41.1	-42.6	19.5	0.00e+00	0	32	0	948961280	54	6859
2026-01-28 19:30:22.57	321.44	8.68	-41.1	-42.6	19.6	0.00e+00	0	32	0	955252736	54	6863
2026-01-28 19:30:25.59	321.02	8.53	-41.1	-42.6	19.5	0.00e+00	0	32	0	960495616	54	6883
2026-01-28 19:30:28.62	320.61	8.39	-40.9	-42.3	19.9	0.00e+00	0	32	0	965738496	54	6638
2026-01-28 19:30:31.65	320.21	8.24	-40.7	-42.1	20.1	0.00e+00	0	32	0	972029952	54	6470
2026-01-28 19:30:34.68	319.80	8.09	-40.6	-41.9	20.3	0.00e+00	0	32	0	977272832	54	6333
2026-01-28 19:30:37.71	319.40	7.94	-40.6	-41.9	20.1	0.00e+00	0	32	0	983564288	54	6357
2026-01-28 19:30:40.73	319.01	7.79	-40.1	-41.4	20.6	0.00e+00	0	32	0	988807168	54	6006
2026-01-28 19:30:43.76	318.62	7.64	-39.9	-41.2	20.8	0.00e+00	0	32	0	995098624	54	5842
2026-01-28 19:30:46.79	318.23	7.49	-39.9	-41.2	20.8	0.00e+00	0	32	0	1000341504	54	5836
2026-01-28 19:30:49.82	317.85	7.34	-39.8	-41.1	20.9	0.00e+00	0	32	0	1005584384	52	6469
2026-01-28 19:30:52.85	317.47	7.19	-39.8	-41.0	21.0	0.00e+00	0	32	0	1011875840	52	6409
2026-01-28 19:30:55.87	317.10	7.03	-39.5	-40.7	21.3	0.00e+00	0	32	0	1017118720	52	6189
2026-01-28 19:30:58.90	316.73	6.88	-39.4	-40.5	21.4	0.00e+00	0	32	0	1023410176	52	6089
2026-01-28 19:31:01.93	316.36	6.73	-39.2	-40.3	21.4	0.00e+00	0	32	0	1028653056	52	5913
2026-01-28 19:31:04.96	316.00	6.58	-39.0	-40.1	21.7	0.00e+00	0	32	0	1033895936	52	5786
2026-01-28 19:31:07.98	315.65	6.43	-39.5	-40.6	21.3	0.00e+00	0	32	0	1040187392	52	6168
2026-01-28 19:31:11.01	315.29	6.27	-39.3	-40.4	21.4	0.00e+00	0	32	0	1045430272	52	6006
2026-01-28 19:31:14.04	314.94	6.12	-39.5	-40.6	21.1	0.00e+00	0	32	0	1051721728	52	6173
2026-01-28 19:31:17.07	314.59	5.97	-39.5	-40.8	21.0	0.00e+00	0	32	0	1056964608	52	6248
2026-01-28 19:31:20.09	314.25	5.82	-39.2	-40.4	21.3	0.00e+00	0	32	0	1062207488	52	5968
2026-01-28 19:31:23.12	313.91	5.66	-39.7	-40.9	20.7	0.00e+00	0	32	0	1068498944	52	6370
2026-01-28 19:31:26.15	313.57	5.51	-39.6	-40.9	20.8	0.00e+00	0	32	0	1073741824	52	6344
2026-01-28 19:31:29.18	313.24	5.36	-39.6	-40.8	20.8	0.00e+00	0	32	0	1080033280	52	6279
2026-01-28 19:31:32.20	312.91	5.20	-40.0	-41.3	20.4	0.00e+00	0	32	0	1085276160	52	6626
2026-01-28 19:31:35.23	312.59	5.05	-40.0	-41.3	20.3	0.00e+00	0	32	0	1091567616	52	6680
2026-01-28 19:31:38.26	312.27	4.90	-40.3	-41.7	20.1	0.00e+00	0	32	0	1096810496	52	6933
2026-01-28 19:31:41.28	311.95	4.75	-40.2	-41.5	20.0	0.00e+00	0	32	0	1102053376	52	6827
2026-01-28 19:31:44.31	311.64	4.59	-40.5	-41.9	19.7	0.00e+00	0	32	0	1108344832	52	7136
2026-01-28 19:31:47.34	311.32	4.44	-40.8	-42.3	19.4	0.00e+00	0	32	0	1113587712	52	7442
2026-01-28 19:31:50.37	311.02	4.29	-40.5	-42.0	19.5	0.00e+00	0	32	0	1119879168	54	6438
2026-01-28 19:31:53.39	310.71	4.14	-41.1	-42.7	18.7	0.00e+00	0	32	0	1125122048	54	6955
2026-01-28 19:31:56.42	310.41	3.98	-40.8	-42.4	19.0	0.00e+00	0	32	0	1130364928	54	6699
2026-01-28 19:31:59.45	310.11	3.83	-40.9	-42.5	18.8	0.00e+00	0	32	0	1136656384	54	6796
2026-01-28 19:32:02.48	309.82	3.68	-40.5	-42.0	19.4	0.00e+00	0	32	0	1141899264	54	6431
2026-01-28 19:32:05.50	309.52	3.53	-40.4	-41.9	19.3	0.00e+00	0	32	0	1148190720	54	6319
2026-01-28 19:32:08.53	309.24	3.37	-40.8	-42.4	18.8	0.00e+00	0	32	0	1153433600	54	6732
2026-01-28 19:32:11.55	308.95	3.22	-41.3	-43.0	18.2	0.00e+00	0	32	0	1158676480	54	7217
2026-01-28 19:32:14.59	308.67	3.07	-41.8	-43.8	17.1	0.00e+00	0	32	0	1164967936	56	7029
2026-01-28 19:32:17.62	308.39	2.92	-47.7	-62.8	3.6	1.51e+00	0	32	104	1169162240	60	50018
2026-01-28 19:32:20.65	308.11	2.77	-48.6	-63.7	3.6	1.51e+00	0	32	104	1169162240	60	55347
2026-01-28 19:32:23.68	307.83	2.62	-48.8	-64.0	3.6	1.51e+00	0	32	104	1169162240	60	57614
2026-01-28 19:32:26.71	307.56	2.47	-49.0	-64.2	3.6	1.51e+00	0	32	104	1169162240	60	58562
2026-01-28 19:32:29.74	307.30	2.32	-49.0	-64.2	3.6	1.51e+00	0	32	104	1169162240	60	58748
2026-01-28 19:32:32.77	307.03	2.17	-48.8	-64.1	3.6	1.51e+00	0	32	104	1169162240	60	58224
2026-01-28 19:32:35.80	306.77	2.01	-48.9	-64.1	3.6	1.51e+00	0	32	104	1169162240	60	58022
2026-01-28 19:32:38.83	306.51	1.86	-48.8	-64.1	3.6	1.51e+00	0	32	104	1169162240	60	57795
2026-01-28 19:32:41.86	306.25	1.72	-48.9	-64.1	3.6	1.51e+00	0	32	104	1169162240	60	57995
2026-01-28 19:32:44.89	306.00	1.57	-48.9	-64.1	3.6	1.51e+00	0	32	104	1169162240	60	57735
2026-01-28 19:32:47.92	305.74	1.42	-48.9	-64.1	3.6	1.51e+00	0	32	104	1169162240	60	57805
2026-01-28 19:32:50.95	305.49	1.27	-48.9	-64.0	3.6	1.51e+00	0	32	104	1169162240	60	57550
2026-01-28 19:32:53.98	305.25	1.12	-48.9	-64.2	3.6	1.51e+00	0	32	104	1169162240	60	58377
2026-01-28 19:32:57.01	305.00	0.97	-48.9	-64.1	3.6	1.51e+00	0	32	104	1169162240	60	58118
2026-01-28 19:33:00.03	304.76	0.82	-48.9	-64.1	3.6	1.51e+00	0	32	104	1169162240	60	57807
2026-01-28 19:33:03.06	304.52	0.67	-48.8	-64.0	3.6	1.51e+00	0	32	104	1169162240	60	57475
2026-01-28 19:33:06.09	304.29	0.53	-48.8	-64.1	3.6	1.51e+00	0	32	104	1169162240	60	57649
2026-01-28 19:33:09.13	304.05	0.38	-48.9	-64.1	3.6	1.51e+00	0	32	104	1169162240	60	57868
2026-01-28 19:33:12.16	303.82	0.23	-48.9	-64.1	3.6	1.51e+00	0	32	104	1169162240	60	57660
2026-01-28 19:33:15.19	303.59	0.08	-48.9	-64.1	3.6	1.51e+00	0	32	104	1169162240	60	57762
2026-01-28 19:33:18.22	303.36	-0.06	-48.9	-64.1	3.6	1.51e+00	0	32	104	1169162240	60	58030

#Closed at: 2026-01-28 19:33:18
#Recorded file [1169 MB]: D:/lorett/data/35029_260129_072050.dat