passes_logs/2026/01/28/R4.6S_Anadyr/R4.6S_Anadyr__20260128_220422_AQUA_rec.log

#Pass ID: 20260128_220422_AQUA
#Satellite: AQUA
#Configuration: AQUA
#almurnet v.1.7.20251203
#Start time: 2026-01-28 22:04:24

#Version: 2.2.20231116
#Station: R4.6S_Anadyr
#Location: 177.4865 lon 64.73178 lat
#TLE: 1 27424U 02022A   26027.88561574  .00001798  00000+0  36942-3 0  9997
#TLE: 2 27424  98.4102 354.5311 0001840  63.5604 322.5877 14.61868111262779

#Time	Az	El	Level	Level2	SNR	BER	BlckErr	Temp	State	Recorded	gain1	gain2
2026-01-28 22:04:24.50	63.36	0.12	-48.8	-61.3	3.4	1.52e+00	0	28	0	0	60	40983
2026-01-28 22:04:27.53	63.08	0.26	-49.1	-67.0	3.5	3.03e+01	0	30	104	0	60	85710
2026-01-28 22:04:30.56	62.80	0.41	-49.1	-67.0	3.5	3.03e+01	0	30	104	0	60	86485
2026-01-28 22:04:33.58	62.52	0.55	-49.2	-67.0	3.5	3.03e+01	0	30	104	0	60	86570
2026-01-28 22:04:36.61	62.24	0.70	-49.1	-67.0	3.5	3.03e+01	0	30	104	0	60	86332
2026-01-28 22:04:39.64	61.95	0.85	-49.1	-67.0	3.5	3.03e+01	0	30	104	0	60	86192
2026-01-28 22:04:42.67	61.66	0.99	-48.7	-66.9	3.5	3.03e+01	0	30	104	0	60	85558
2026-01-28 22:04:45.70	61.36	1.14	-48.4	-66.8	3.5	3.03e+01	0	30	104	0	60	83809
2026-01-28 22:04:48.73	61.06	1.28	-46.2	-66.2	3.5	3.03e+01	0	30	104	0	60	78894
2026-01-28 22:04:51.76	60.76	1.43	-47.2	-65.5	3.5	3.03e+01	0	30	104	0	60	72735
2026-01-28 22:04:54.79	60.46	1.58	-47.2	-65.5	3.5	3.03e+01	0	30	104	0	60	72630
2026-01-28 22:04:57.82	60.15	1.72	-47.2	-65.5	3.5	3.03e+01	0	30	104	0	60	72737
2026-01-28 22:05:00.85	59.84	1.87	-47.2	-65.5	3.5	3.03e+01	0	30	104	0	60	72427
2026-01-28 22:05:03.87	59.52	2.01	-47.2	-65.4	3.5	3.03e+01	0	30	104	0	60	71786
2026-01-28 22:05:06.90	59.21	2.16	-47.1	-65.5	3.5	3.03e+01	0	30	104	0	60	72359
2026-01-28 22:05:09.93	58.88	2.31	-47.1	-65.3	3.5	3.03e+01	0	30	104	0	60	71133
2026-01-28 22:05:12.96	58.56	2.45	-47.1	-65.4	3.5	3.03e+01	0	30	104	0	60	71584
2026-01-28 22:05:16.00	58.23	2.60	-47.1	-65.3	3.5	3.03e+01	0	30	104	0	60	70540
2026-01-28 22:05:19.03	57.89	2.75	-47.1	-65.1	3.5	3.03e+01	0	30	104	0	60	69155
2026-01-28 22:05:22.05	57.56	2.90	-47.1	-64.9	3.5	3.03e+01	0	30	104	0	60	67373
2026-01-28 22:05:25.09	57.22	3.04	-41.1	-52.2	3.5	3.03e+01	0	30	104	0	58	17511
2026-01-28 22:05:28.11	56.87	3.19	-44.9	-65.2	3.5	3.03e+01	0	30	104	0	60	70251
2026-01-28 22:05:31.14	56.52	3.34	-39.2	-49.9	3.5	3.03e+01	0	30	104	0	52	19169
2026-01-28 22:05:34.17	56.17	3.48	-39.3	-50.0	3.5	3.03e+01	0	30	104	0	52	19321
2026-01-28 22:05:37.20	55.82	3.63	-46.3	-60.5	3.5	3.03e+01	0	30	104	0	60	40552
2026-01-28 22:05:40.23	55.45	3.78	-41.6	-52.6	3.5	3.03e+01	0	30	104	0	58	18372
2026-01-28 22:05:43.26	55.09	3.92	-46.0	-64.3	3.5	3.03e+01	0	30	104	0	60	63393
2026-01-28 22:05:46.28	54.72	4.07	-39.2	-49.8	3.5	3.03e+01	0	30	104	0	54	16823
2026-01-28 22:05:49.31	54.35	4.21	-38.6	-49.0	3.5	3.03e+01	0	30	104	0	50	19383
2026-01-28 22:05:52.33	53.97	4.36	-47.5	-64.4	3.5	3.03e+01	0	30	104	0	60	63777
2026-01-28 22:05:55.36	53.59	4.51	-37.9	-48.3	3.5	3.03e+01	0	30	104	0	50	17849
2026-01-28 22:05:58.39	53.21	4.65	-40.4	-51.1	3.4	3.03e+01	0	30	104	0	58	15492
2026-01-28 22:06:01.42	52.82	4.80	-39.9	-50.6	3.5	3.03e+01	0	30	104	0	60	12987
2026-01-28 22:06:04.45	52.42	4.94	-38.4	-48.8	3.5	3.03e+01	0	30	104	0	52	16880
2026-01-28 22:06:07.48	52.02	5.09	-37.8	-48.2	3.5	3.03e+01	0	30	104	0	50	17557
2026-01-28 22:06:10.51	51.62	5.23	-46.5	-60.4	3.5	3.03e+01	0	30	104	0	60	40355
2026-01-28 22:06:13.54	51.21	5.37	-38.0	-48.4	3.6	3.03e+01	0	30	104	0	52	16098
2026-01-28 22:06:16.57	50.80	5.52	-45.5	-58.3	3.6	3.03e+01	0	30	104	0	60	31616
2026-01-28 22:06:19.59	50.39	5.66	-39.1	-49.7	3.5	3.03e+01	0	30	104	0	54	16603
2026-01-28 22:06:22.62	49.97	5.80	-37.1	-47.5	3.5	3.03e+01	0	30	104	0	48	18239
2026-01-28 22:06:25.65	49.54	5.95	-37.8	-48.2	3.5	3.03e+01	0	30	104	0	48	19744
2026-01-28 22:06:28.68	49.11	6.09	-37.3	-47.7	3.5	3.03e+01	0	30	104	0	50	16560
2026-01-28 22:06:31.71	48.68	6.23	-41.2	-52.0	3.5	3.03e+01	0	30	104	0	50	27272
2026-01-28 22:06:34.74	48.24	6.37	-42.1	-53.2	3.5	3.03e+01	0	30	104	0	60	17581
2026-01-28 22:06:37.76	47.79	6.51	-37.5	-47.9	3.5	3.03e+01	0	30	104	0	50	17023
2026-01-28 22:06:40.79	47.34	6.65	-45.3	-57.7	3.5	3.03e+01	0	30	104	0	60	29473
2026-01-28 22:06:43.82	46.89	6.78	-38.5	-49.0	3.5	3.03e+01	0	30	104	0	52	17110
2026-01-28 22:06:46.85	46.43	6.92	-36.7	-47.1	3.5	3.03e+01	0	30	104	0	48	17409
2026-01-28 22:06:49.88	45.97	7.06	-46.7	-60.5	3.5	3.03e+01	0	30	104	0	60	40690
2026-01-28 22:06:52.91	45.50	7.19	-37.9	-48.4	3.5	3.03e+01	0	30	104	0	50	17969
2026-01-28 22:06:55.93	45.03	7.33	-47.9	-65.6	3.5	3.03e+01	0	30	104	0	60	73446
2026-01-28 22:06:58.96	44.55	7.46	-39.6	-50.2	3.6	3.03e+01	0	30	104	0	54	17621
2026-01-28 22:07:01.99	44.07	7.60	-47.1	-62.4	3.5	3.03e+01	0	30	104	0	60	50904
2026-01-28 22:07:05.02	43.58	7.73	-46.4	-59.6	3.5	3.03e+01	0	30	104	0	60	36553
2026-01-28 22:07:08.04	43.09	7.86	-38.3	-48.7	3.5	3.03e+01	0	31	104	0	52	16560
2026-01-28 22:07:11.07	42.59	7.99	-37.1	-47.5	3.5	3.03e+01	0	31	104	0	50	16267
2026-01-28 22:07:14.10	42.09	8.12	-46.6	-64.9	3.5	3.03e+01	0	31	104	0	60	67774
2026-01-28 22:07:17.13	41.58	8.24	-37.6	-47.9	3.6	3.03e+01	0	30	104	0	50	17086
2026-01-28 22:07:20.16	41.07	8.37	-48.0	-66.2	3.5	3.03e+01	0	31	104	0	60	78332
2026-01-28 22:07:23.19	40.56	8.49	-36.4	-46.6	3.5	3.03e+01	0	31	104	0	48	16491
2026-01-28 22:07:26.22	40.03	8.62	-44.3	-56.4	3.5	3.03e+01	0	31	104	0	60	25441
2026-01-28 22:07:29.24	39.51	8.74	-44.2	-55.9	3.6	3.03e+01	0	31	104	0	60	23934
2026-01-28 22:07:32.28	38.98	8.86	-38.0	-48.4	3.5	3.03e+01	0	31	104	0	52	16113
2026-01-28 22:07:35.30	38.44	8.98	-36.5	-46.8	3.5	3.03e+01	0	31	104	0	48	16796
2026-01-28 22:07:38.33	37.90	9.09	-46.6	-63.4	3.5	3.03e+01	0	31	104	0	60	57202
2026-01-28 22:07:41.36	37.36	9.21	-37.0	-47.4	3.5	3.03e+01	0	31	104	0	50	16035
2026-01-28 22:07:44.39	36.80	9.32	-46.9	-61.6	3.5	3.03e+01	0	31	104	0	60	46135
2026-01-28 22:07:47.42	36.25	9.43	-38.3	-48.7	3.5	3.03e+01	0	30	104	0	50	18663
2026-01-28 22:07:50.45	35.69	9.54	-37.0	-47.4	3.5	3.03e+01	0	31	104	0	50	15956
2026-01-28 22:07:53.47	35.13	9.65	-38.5	-49.0	3.5	3.03e+01	0	30	104	0	58	12128
2026-01-28 22:07:56.50	34.56	9.76	-39.1	-49.7	3.5	3.03e+01	0	31	104	0	52	18719
2026-01-28 22:07:59.53	33.99	9.86	-40.0	-50.6	3.5	3.03e+01	0	31	104	0	60	13002
2026-01-28 22:08:02.56	33.41	9.96	-38.5	-48.9	3.5	3.03e+01	0	31	104	0	52	17088
2026-01-28 22:08:05.59	32.83	10.06	-36.3	-46.6	3.5	3.03e+01	0	31	104	0	48	16343
2026-01-28 22:08:08.62	32.24	10.16	-45.2	-57.7	3.5	3.03e+01	0	31	104	0	60	29626
2026-01-28 22:08:11.64	31.65	10.25	-38.7	-49.3	3.5	3.03e+01	0	31	104	0	52	17707
2026-01-28 22:08:14.67	31.06	10.34	-36.0	-46.3	3.5	3.03e+01	0	31	104	0	48	15770
2026-01-28 22:08:17.70	30.46	10.43	-40.1	-50.8	3.8	3.03e+01	0	31	104	0	46	29815
2026-01-28 22:08:20.73	29.86	10.52	-36.0	-46.3	3.5	3.03e+01	0	31	104	0	48	15909
2026-01-28 22:08:23.75	29.25	10.61	-45.7	-58.9	3.5	3.03e+01	0	31	104	0	58	38017
2026-01-28 22:08:26.78	28.64	10.69	-41.6	-52.6	3.5	3.03e+01	0	31	104	0	60	16409
2026-01-28 22:08:29.81	28.03	10.77	-40.1	-50.7	3.5	3.03e+01	0	31	104	0	50	23362
2026-01-28 22:08:32.84	27.41	10.84	-44.3	-56.1	3.5	3.03e+01	0	31	104	0	60	24550
2026-01-28 22:08:35.87	26.79	10.92	-38.8	-49.4	3.5	3.03e+01	0	31	104	0	52	18073
2026-01-28 22:08:38.90	26.17	10.99	-36.2	-46.5	3.5	3.03e+01	0	31	104	0	46	18147
2026-01-28 22:08:41.93	25.54	11.06	-47.4	-61.9	3.5	3.03e+01	0	31	104	0	60	47730
2026-01-28 22:08:44.95	24.91	11.12	-35.9	-46.2	3.5	3.03e+01	0	31	104	0	46	17611
2026-01-28 22:08:47.98	24.28	11.18	-47.9	-66.4	3.5	3.03e+01	0	31	104	0	60	80809
2026-01-28 22:08:51.01	23.64	11.24	-40.0	-50.6	3.5	3.03e+01	0	31	104	0	56	16465
2026-01-28 22:08:54.04	23.00	11.30	-40.4	-51.0	3.5	3.03e+01	0	31	104	0	54	19254
2026-01-28 22:08:57.06	22.36	11.35	-45.0	-56.9	3.5	3.03e+01	0	31	104	0	60	26902
2026-01-28 22:09:00.09	21.72	11.40	-37.8	-48.2	3.5	3.03e+01	0	31	104	0	50	17573
2026-01-28 22:09:03.12	21.07	11.45	-36.7	-47.0	3.5	3.03e+01	0	31	104	0	46	19324
2026-01-28 22:09:06.15	20.42	11.49	-47.9	-66.5	3.5	3.03e+01	0	31	104	0	60	81122
2026-01-28 22:09:09.18	19.77	11.53	-36.3	-46.6	3.5	3.03e+01	0	31	104	0	48	16334
2026-01-28 22:09:12.21	19.12	11.57	-48.4	-66.4	3.5	3.03e+01	0	31	104	0	60	80552
2026-01-28 22:09:15.23	18.47	11.60	-38.9	-49.4	3.5	3.03e+01	0	31	104	0	52	17960
2026-01-28 22:09:18.26	17.81	11.63	-39.0	-49.5	3.5	3.03e+01	0	31	104	0	54	16168
2026-01-28 22:09:21.29	17.16	11.66	-41.5	-52.1	3.5	3.03e+01	0	31	104	0	60	15578
2026-01-28 22:09:24.32	16.50	11.68	-40.1	-50.7	3.5	3.03e+01	0	31	104	0	54	18628
2026-01-28 22:09:27.35	15.84	11.70	-36.7	-46.9	3.5	3.03e+01	0	31	104	0	48	17041
2026-01-28 22:09:30.38	15.18	11.72	-48.1	-64.3	3.5	3.03e+01	0	31	104	0	60	63042
2026-01-28 22:09:33.41	14.52	11.73	-37.0	-47.3	3.5	3.03e+01	0	31	104	0	48	17863
2026-01-28 22:09:36.44	13.86	11.74	-46.7	-60.3	3.5	3.03e+01	0	31	104	0	60	39660
2026-01-28 22:09:39.47	13.20	11.74	-36.3	-46.6	3.6	3.03e+01	0	31	104	0	48	16362
2026-01-28 22:09:42.50	12.53	11.75	-38.0	-48.3	3.6	3.03e+01	0	31	104	0	52	15788
2026-01-28 22:09:45.53	11.87	11.74	-36.9	-47.1	3.5	3.03e+01	0	31	104	0	48	17477
2026-01-28 22:09:48.55	11.21	11.74	-40.3	-50.9	3.5	3.03e+01	0	31	104	0	56	17066
2026-01-28 22:09:51.58	10.55	11.73	-39.8	-50.2	3.5	3.03e+01	0	31	104	0	48	24919
2026-01-28 22:09:54.61	9.89	11.72	-44.6	-48.0	20.6	3.03e+01	58	31	104	0	60	9718
2026-01-28 22:09:57.65	9.23	11.70	-36.3	-37.6	27.9	3.03e+01	60	31	0	4718592	48	5792
2026-01-28 22:10:00.67	8.57	11.68	-36.1	-37.4	28.2	3.03e+01	58	31	0	10485760	46	6353
2026-01-28 22:10:03.70	7.91	11.66	-35.9	-37.2	28.3	3.03e+01	56	31	0	16252928	46	6220
2026-01-28 22:10:06.73	7.26	11.64	-35.4	-36.7	28.8	3.03e+01	45	31	0	22020096	46	5865
2026-01-28 22:10:09.76	6.60	11.61	-35.5	-36.7	28.7	3.03e+01	59	31	0	27787264	46	5884
2026-01-28 22:10:12.79	5.95	11.57	-35.5	-36.7	28.7	3.03e+01	58	31	0	33030144	46	5896
2026-01-28 22:10:15.82	5.30	11.54	-35.6	-36.9	28.6	3.03e+01	60	31	0	38797312	46	6012
2026-01-28 22:10:18.85	4.65	11.50	-35.5	-36.7	28.7	3.03e+01	60	31	0	44564480	46	5901
2026-01-28 22:10:21.87	4.00	11.46	-35.6	-36.8	28.6	3.03e+01	57	31	0	50331648	46	5971
2026-01-28 22:10:24.91	3.35	11.41	-35.6	-36.8	28.7	3.03e+01	44	31	0	56098816	46	5976
2026-01-28 22:10:27.93	2.71	11.36	-35.6	-36.8	28.6	3.03e+01	47	30	0	61865984	46	5987
2026-01-28 22:10:30.96	2.07	11.31	-35.7	-37.0	28.5	3.03e+01	60	31	0	67108864	46	6097
2026-01-28 22:10:33.99	1.43	11.25	-35.5	-36.8	28.7	3.03e+01	56	31	0	72876032	46	5943
2026-01-28 22:10:37.02	0.79	11.19	-35.8	-37.0	28.5	3.03e+01	56	30	0	78643200	46	6096
2026-01-28 22:10:40.05	0.16	11.13	-35.9	-37.1	28.4	3.03e+01	61	31	0	84410368	46	6176
2026-01-28 22:10:43.08	359.53	11.07	-35.6	-36.8	28.7	3.03e+01	57	31	0	90177536	46	5955
2026-01-28 22:10:46.11	358.90	11.00	-35.8	-37.0	28.5	3.03e+01	57	31	0	95944704	46	6117
2026-01-28 22:10:49.14	358.28	10.93	-35.6	-36.9	28.6	3.03e+01	58	31	0	101187584	46	6026
2026-01-28 22:10:52.17	357.65	10.86	-35.7	-37.0	28.5	3.03e+01	45	31	0	106954752	46	6093
2026-01-28 22:10:55.20	357.04	10.78	-35.7	-37.0	28.6	3.03e+01	56	31	0	112721920	46	6094
2026-01-28 22:10:58.23	356.42	10.70	-35.8	-37.1	28.4	3.03e+01	57	31	0	118489088	46	6135
2026-01-28 22:11:01.25	355.82	10.62	-35.9	-37.2	28.3	3.03e+01	58	31	0	124256256	46	6237
2026-01-28 22:11:04.28	355.21	10.54	-35.8	-37.1	28.3	3.03e+01	59	30	0	130023424	46	6153
2026-01-28 22:11:07.31	354.61	10.45	-36.0	-37.2	28.3	3.03e+01	60	30	0	135266304	46	6263
2026-01-28 22:11:10.33	354.01	10.36	-35.8	-37.1	28.3	3.03e+01	51	31	0	141033472	46	6165
2026-01-28 22:11:13.36	353.42	10.27	-36.3	-37.6	27.9	3.03e+01	45	31	0	146800640	46	6549
2026-01-28 22:11:16.39	352.82	10.17	-35.9	-37.2	28.2	3.03e+01	57	30	0	152567808	46	6245
2026-01-28 22:11:19.42	352.24	10.08	-36.1	-37.3	28.1	3.03e+01	61	30	0	158334976	46	6341
2026-01-28 22:11:22.45	351.66	9.98	-35.9	-37.2	28.2	3.03e+01	60	30	0	164102144	46	6229
2026-01-28 22:11:25.47	351.08	9.88	-36.0	-37.2	28.1	3.03e+01	51	31	0	169345024	46	6266
2026-01-28 22:11:28.50	350.51	9.78	-36.4	-37.7	27.6	3.03e+01	53	30	0	175112192	46	6585
2026-01-28 22:11:31.53	349.94	9.67	-36.5	-37.8	27.7	3.03e+01	46	31	0	180879360	46	6690
2026-01-28 22:11:34.56	349.38	9.56	-37.1	-38.5	27.1	3.03e+01	50	30	0	186646528	48	6443
2026-01-28 22:11:37.59	348.82	9.45	-37.3	-38.7	27.0	3.03e+01	62	31	0	192413696	48	6597
2026-01-28 22:11:40.61	348.26	9.34	-37.6	-38.9	26.6	3.03e+01	60	31	0	198180864	50	6047
2026-01-28 22:11:43.64	347.71	9.23	-37.0	-38.4	27.0	3.03e+01	61	31	0	203423744	48	6372
2026-01-28 22:11:46.66	347.17	9.12	-36.4	-37.7	27.8	3.03e+01	57	31	0	209190912	48	5874
2026-01-28 22:11:49.69	346.63	9.00	-36.8	-38.1	27.4	3.03e+01	59	31	0	214958080	48	6204
2026-01-28 22:11:52.71	346.09	8.88	-36.3	-37.6	27.9	3.03e+01	59	31	0	220725248	48	5800
2026-01-28 22:11:55.73	345.56	8.76	-36.8	-38.1	27.4	3.03e+01	57	31	0	226492416	48	6166
2026-01-28 22:11:58.76	345.04	8.64	-36.8	-38.1	27.3	3.03e+01	45	31	0	232259584	48	6159
2026-01-28 22:12:01.79	344.52	8.52	-36.7	-38.0	27.2	3.03e+01	58	31	0	237502464	48	6133
2026-01-28 22:12:04.82	344.00	8.40	-36.4	-37.7	27.7	3.03e+01	60	31	0	243269632	48	5875
2026-01-28 22:12:07.85	343.49	8.27	-36.6	-37.9	27.5	3.03e+01	61	31	0	249036800	48	6050
2026-01-28 22:12:10.87	342.98	8.14	-37.3	-38.7	26.9	3.03e+01	60	31	0	254803968	48	6583
2026-01-28 22:12:13.90	342.48	8.02	-36.9	-38.3	27.1	3.03e+01	58	31	0	260571136	48	6282
2026-01-28 22:12:16.93	341.98	7.89	-37.8	-39.3	26.1	3.03e+01	47	31	0	265814016	48	7073
2026-01-28 22:12:19.96	341.49	7.76	-37.1	-38.4	27.0	3.03e+01	45	31	0	271581184	48	6421
2026-01-28 22:12:22.98	341.00	7.63	-37.3	-38.6	26.7	3.03e+01	57	31	0	277348352	48	6571
2026-01-28 22:12:26.01	340.52	7.49	-38.2	-39.7	25.9	3.03e+01	55	31	0	283115520	50	6594
2026-01-28 22:12:29.04	340.04	7.36	-37.6	-39.0	26.5	3.03e+01	56	31	0	288882688	50	6075
2026-01-28 22:12:32.07	339.57	7.22	-36.9	-38.2	27.2	3.03e+01	62	31	0	294649856	50	5562
2026-01-28 22:12:35.10	339.10	7.09	-38.3	-39.8	25.6	3.03e+01	61	31	0	299892736	50	6700
2026-01-28 22:12:38.13	338.64	6.95	-37.1	-38.5	26.9	3.03e+01	60	31	0	305659904	50	5736
2026-01-28 22:12:41.16	338.18	6.82	-37.9	-39.4	25.9	3.03e+01	47	31	0	311427072	50	6384
2026-01-28 22:12:44.19	337.73	6.68	-38.9	-40.5	25.0	3.03e+01	45	31	0	317194240	52	6446
2026-01-28 22:12:47.22	337.28	6.54	-38.6	-40.0	25.1	3.03e+01	55	31	0	322961408	52	6130
2026-01-28 22:12:50.24	336.83	6.40	-39.3	-40.9	24.6	3.03e+01	57	31	0	328728576	52	6798
2026-01-28 22:12:53.27	336.39	6.26	-38.8	-40.3	25.0	3.03e+01	59	31	0	333971456	52	6304
2026-01-28 22:12:56.30	335.96	6.12	-40.0	-41.7	22.8	3.03e+01	58	31	0	339738624	54	6620
2026-01-28 22:12:59.33	335.53	5.98	-40.0	-41.8	23.1	3.03e+01	60	31	0	345505792	54	6671
2026-01-28 22:13:02.35	335.11	5.84	-39.5	-41.3	23.1	3.03e+01	51	31	0	351272960	52	7102
2026-01-28 22:13:05.38	334.68	5.69	-40.1	-42.2	21.7	3.03e+01	50	31	0	357040128	54	6973
2026-01-28 22:13:08.41	334.27	5.55	-40.7	-43.0	20.6	3.03e+01	59	31	0	362283008	56	6842
2026-01-28 22:13:11.43	333.86	5.41	-40.8	-43.1	20.4	3.03e+01	62	31	0	368050176	56	6959
2026-01-28 22:13:14.46	333.45	5.26	-40.9	-43.4	20.0	3.03e+01	59	31	0	373817344	56	7166
2026-01-28 22:13:17.49	333.05	5.12	-39.6	-41.5	22.3	3.03e+01	60	31	0	379584512	54	6472
2026-01-28 22:13:20.51	332.65	4.98	-39.6	-41.4	23.1	3.03e+01	61	31	0	385351680	54	6382
2026-01-28 22:13:23.54	332.26	4.83	-39.3	-41.0	23.7	3.03e+01	44	31	0	391118848	54	6085
2026-01-28 22:13:26.57	331.87	4.69	-39.0	-40.6	24.3	3.03e+01	51	31	0	396886016	52	6543
2026-01-28 22:13:29.60	331.48	4.54	-39.5	-41.2	23.8	3.03e+01	55	31	0	402128896	54	6216
2026-01-28 22:13:32.63	331.10	4.40	-39.8	-41.6	23.6	3.03e+01	57	31	0	407896064	54	6500
2026-01-28 22:13:35.66	330.72	4.25	-39.6	-41.3	23.8	3.03e+01	56	31	0	413663232	52	7086
2026-01-28 22:13:38.69	330.35	4.10	-39.4	-41.1	24.0	3.03e+01	54	31	0	419430400	52	6908
2026-01-28 22:13:41.72	329.98	3.96	-38.7	-40.2	24.7	3.03e+01	61	31	0	425197568	52	6235
2026-01-28 22:13:44.74	329.62	3.81	-39.1	-40.7	24.4	3.03e+01	56	31	0	430440448	52	6613
2026-01-28 22:13:47.77	329.26	3.67	-38.1	-39.6	25.1	3.03e+01	45	31	0	436207616	50	6520
2026-01-28 22:13:50.80	328.90	3.52	-38.9	-40.5	24.4	3.03e+01	46	31	0	441974784	52	6450
2026-01-28 22:13:53.83	328.55	3.37	-40.7	-42.7	22.3	3.03e+01	59	31	0	447741952	54	7419
2026-01-28 22:13:56.86	328.20	3.23	-39.8	-41.6	23.3	3.03e+01	58	31	0	453509120	52	7364
2026-01-28 22:13:59.89	327.86	3.08	-39.8	-41.6	23.1	3.03e+01	58	31	0	459276288	52	7368
2026-01-28 22:14:02.92	327.52	2.93	-48.4	-66.2	3.5	3.03e+01	0	31	104	461897728	60	78248
2026-01-28 22:14:05.95	327.18	2.79	-48.9	-66.8	3.5	3.03e+01	0	31	104	461897728	60	84387
2026-01-28 22:14:08.97	326.85	2.64	-49.0	-67.1	3.5	3.03e+01	0	31	104	461897728	60	86916
2026-01-28 22:14:12.00	326.52	2.49	-48.4	-67.2	3.5	3.03e+01	0	31	104	461897728	60	87851
2026-01-28 22:14:15.03	326.19	2.35	-49.0	-67.2	3.5	3.03e+01	0	31	104	461897728	60	87826
2026-01-28 22:14:18.06	325.87	2.20	-49.0	-67.1	3.5	3.03e+01	0	31	104	461897728	60	86973
2026-01-28 22:14:21.09	325.55	2.05	-49.1	-67.0	3.5	3.03e+01	0	31	104	461897728	60	86450
2026-01-28 22:14:24.12	325.24	1.91	-48.8	-67.0	3.5	3.03e+01	0	31	104	461897728	60	86373
2026-01-28 22:14:27.14	324.93	1.76	-49.2	-67.1	3.5	3.03e+01	0	31	104	461897728	60	86681
2026-01-28 22:14:30.17	324.62	1.61	-49.2	-67.0	3.5	3.03e+01	0	31	104	461897728	60	86486
2026-01-28 22:14:33.21	324.31	1.47	-49.2	-67.0	3.5	3.03e+01	0	31	104	461897728	60	86435
2026-01-28 22:14:36.24	324.01	1.32	-49.2	-67.0	3.5	3.03e+01	0	31	104	461897728	60	86222
2026-01-28 22:14:39.27	323.71	1.18	-49.2	-67.0	3.5	3.03e+01	0	31	104	461897728	60	86088
2026-01-28 22:14:42.30	323.42	1.03	-49.2	-67.0	3.5	3.03e+01	0	31	104	461897728	60	85950
2026-01-28 22:14:45.33	323.13	0.88	-49.2	-67.0	3.5	3.03e+01	0	31	104	461897728	60	86015
2026-01-28 22:14:48.36	322.84	0.74	-49.1	-67.1	3.5	3.03e+01	0	31	104	461897728	60	86893
2026-01-28 22:14:51.39	322.56	0.59	-49.2	-67.0	3.5	3.03e+01	0	31	104	461897728	60	86578
2026-01-28 22:14:54.42	322.27	0.45	-49.2	-67.0	3.5	3.03e+01	0	31	104	461897728	60	86531
2026-01-28 22:14:57.45	322.00	0.30	-49.2	-67.0	3.5	3.03e+01	0	31	104	461897728	60	85833
2026-01-28 22:15:00.47	321.72	0.16	-49.1	-67.0	3.5	3.03e+01	0	31	104	461897728	60	85852
2026-01-28 22:15:03.50	321.45	0.01	-49.1	-67.0	3.5	3.03e+01	0	31	104	461897728	60	86218

#Closed at: 2026-01-28 22:15:04
#Recorded file [461 MB]: D:/lorett/data/35029_260129_100424.dat