passes_logs/2026/01/20/planumMaritime01/planumMaritime01__20260120_063545_METOP-C_rec.log

#Pass ID: 20260120_063545_METOP-C
#Satellite: METOP-C
#Configuration: METOP-C
#Start time: 2026-01-20 06:35:50.392573

#LorettStation: 1.0.0 05.05.2024
#Station: planumMaritime01
#Location: 37.49445 lon 55.92918 lat
#TLE: 1 43689U 18087A   26019.90179106  .00000159  00000+0  92796-4 0  9996
#TLE: 2 43689  98.6868  82.0755 0000796 174.2820 185.8367 14.21500134373765

#Time	Az	El	Level	SNR
2026-01-20 06:35:54.584813	32.6	10.3	-63.4	0.0
2026-01-20 06:35:56.838264	32.8	10.5	-58.6	0.0
2026-01-20 06:35:59.091653	33.0	10.6	-56.6	0.0
2026-01-20 06:36:01.345930	33.2	10.8	-56.7	0.0
2026-01-20 06:36:03.598425	33.5	11.0	-55.6	0.0
2026-01-20 06:36:05.849962	33.7	11.1	-57.0	0.0
2026-01-20 06:36:08.100679	33.9	11.3	-58.6	0.0
2026-01-20 06:36:10.352870	34.2	11.5	-57.4	0.0
2026-01-20 06:36:12.607559	34.4	11.7	-59.2	0.0
2026-01-20 06:36:14.860787	34.7	11.8	-55.0	0.0
2026-01-20 06:36:17.113114	34.9	12.0	-56.4	0.0
2026-01-20 06:36:19.366505	35.2	12.2	-58.4	0.0
2026-01-20 06:36:21.618154	35.4	12.3	-58.7	0.0
2026-01-20 06:36:23.869881	35.7	12.5	-59.3	0.0
2026-01-20 06:36:26.124575	35.9	12.7	-60.3	0.0
2026-01-20 06:36:28.375355	36.2	12.9	-59.5	0.0
2026-01-20 06:36:30.630505	36.5	13.1	-59.4	0.0
2026-01-20 06:36:32.882760	36.7	13.2	-59.9	0.0
2026-01-20 06:36:35.133937	37.0	13.4	-59.6	0.0
2026-01-20 06:36:37.387486	37.3	13.6	-58.6	0.0
2026-01-20 06:36:39.640637	37.6	13.8	-59.0	0.0
2026-01-20 06:36:41.891434	37.8	14.0	-60.5	0.0
2026-01-20 06:36:44.143791	38.1	14.1	-58.9	0.0
2026-01-20 06:36:46.395255	38.4	14.3	-62.5	0.0
2026-01-20 06:36:48.651505	38.7	14.5	-60.9	0.0
2026-01-20 06:36:50.906109	39.0	14.7	-51.8	0.0
2026-01-20 06:36:53.160509	39.3	14.9	-60.3	0.0
2026-01-20 06:36:55.415693	39.6	15.1	-61.5	0.0
2026-01-20 06:36:57.667615	39.9	15.2	-62.6	0.0
2026-01-20 06:36:59.918336	40.2	15.4	-61.2	0.0
2026-01-20 06:37:02.169491	40.5	15.6	-59.6	0.0
2026-01-20 06:37:04.426129	40.9	15.8	-62.0	0.0
2026-01-20 06:37:06.677416	41.2	16.0	-61.5	0.0
2026-01-20 06:37:08.930144	41.5	16.2	-61.7	0.0
2026-01-20 06:37:11.183359	41.8	16.4	-59.4	0.0
2026-01-20 06:37:13.434804	42.2	16.6	-58.9	0.0
2026-01-20 06:37:15.689615	42.5	16.8	-62.0	0.0
2026-01-20 06:37:17.940535	42.9	16.9	-62.9	0.0
2026-01-20 06:37:20.195148	43.2	17.1	-57.1	0.0
2026-01-20 06:37:22.447506	43.6	17.3	-59.1	0.0
2026-01-20 06:37:24.699854	43.9	17.5	-59.8	0.0
2026-01-20 06:37:26.951745	44.3	17.7	-61.3	0.0
2026-01-20 06:37:29.208719	44.6	17.9	-63.9	0.0
2026-01-20 06:37:31.461264	45.0	18.1	-62.5	0.0
2026-01-20 06:37:33.718016	45.4	18.3	-63.1	0.0
2026-01-20 06:37:35.971998	45.8	18.5	-64.8	0.0
2026-01-20 06:37:38.226607	46.2	18.7	-65.8	0.0
2026-01-20 06:37:40.472594	46.5	18.9	-64.9	0.0
2026-01-20 06:37:42.721484	46.9	19.1	-64.7	0.0
2026-01-20 06:37:44.967492	47.3	19.3	-66.4	0.0
2026-01-20 06:37:47.214450	47.7	19.5	-63.3	0.0
2026-01-20 06:37:49.461508	48.1	19.7	-66.7	0.0
2026-01-20 06:37:51.711233	48.6	19.9	-66.0	0.0
2026-01-20 06:37:53.959067	49.0	20.1	-65.5	0.0
2026-01-20 06:37:56.206802	49.4	20.3	-68.0	0.0
2026-01-20 06:37:58.453619	49.8	20.5	-66.2	0.0
2026-01-20 06:38:00.703088	50.3	20.7	-66.0	0.0
2026-01-20 06:38:02.952276	50.7	20.9	-67.8	0.0
2026-01-20 06:38:05.202616	51.2	21.1	-66.1	0.0
2026-01-20 06:38:07.451610	51.6	21.3	-66.1	0.0
2026-01-20 06:38:09.699679	52.1	21.5	-67.0	0.0
2026-01-20 06:38:11.950041	52.5	21.7	-66.3	0.0
2026-01-20 06:38:14.200805	53.0	21.9	-67.4	0.0
2026-01-20 06:38:16.450665	53.5	22.1	-68.5	0.0
2026-01-20 06:38:18.703939	53.9	22.2	-67.3	0.0
2026-01-20 06:38:20.954667	54.4	22.4	-68.4	0.0
2026-01-20 06:38:23.203621	54.9	22.6	-67.3	0.0
2026-01-20 06:38:25.454941	55.4	22.8	-68.8	0.0
2026-01-20 06:38:27.707241	55.9	23.0	-67.0	0.0
2026-01-20 06:38:29.954205	56.4	23.2	-68.3	0.0
2026-01-20 06:38:32.201243	57.0	23.4	-68.3	0.0
2026-01-20 06:38:34.451360	57.5	23.6	-68.9	2.8
2026-01-20 06:38:36.698827	58.0	23.8	-66.1	0.0
2026-01-20 06:38:38.951266	58.5	24.0	-67.8	0.0
2026-01-20 06:38:41.207968	59.1	24.2	-67.3	0.0
2026-01-20 06:38:43.457237	59.6	24.3	-65.7	0.0
2026-01-20 06:38:45.708539	60.2	24.5	-66.8	0.0
2026-01-20 06:38:47.964459	60.8	24.7	-67.6	0.0
2026-01-20 06:38:50.217042	61.3	24.9	-67.2	0.0
2026-01-20 06:38:52.471208	61.9	25.1	-66.8	0.0
2026-01-20 06:38:54.725356	62.5	25.3	-67.7	0.0
2026-01-20 06:38:56.979183	63.1	25.4	-67.5	0.0
2026-01-20 06:38:59.232074	63.7	25.6	-68.5	0.5
2026-01-20 06:39:01.484173	64.3	25.8	-68.7	1.5
2026-01-20 06:39:03.738014	64.9	25.9	-69.8	4.5
2026-01-20 06:39:05.991578	65.5	26.1	-69.6	1.2
2026-01-20 06:39:08.242585	66.1	26.3	-69.5	2.5
2026-01-20 06:39:10.496967	66.7	26.4	-69.5	3.6
2026-01-20 06:39:12.748397	67.4	26.6	-67.8	0.0
2026-01-20 06:39:15.002575	68.0	26.8	-67.4	0.0
2026-01-20 06:39:17.257093	68.7	26.9	-69.5	1.4
2026-01-20 06:39:19.507529	69.3	27.1	-69.2	2.1
2026-01-20 06:39:21.760004	70.0	27.2	-69.4	4.7
2026-01-20 06:39:24.013706	70.6	27.4	-69.1	0.0
2026-01-20 06:39:26.267716	71.3	27.5	-69.0	2.9
2026-01-20 06:39:28.521027	72.0	27.6	-69.5	0.7
2026-01-20 06:39:30.776315	72.7	27.8	-70.1	4.0
2026-01-20 06:39:33.029526	73.4	27.9	-68.6	1.8
2026-01-20 06:39:35.281002	74.0	28.0	-69.9	5.5
2026-01-20 06:39:37.535782	74.7	28.2	-67.4	0.0
2026-01-20 06:39:39.786669	75.4	28.3	-70.0	4.9
2026-01-20 06:39:42.039925	76.2	28.4	-69.3	3.1
2026-01-20 06:39:44.294148	76.9	28.5	-69.7	0.0
2026-01-20 06:39:46.546987	77.6	28.6	-69.3	3.7
2026-01-20 06:39:48.798455	78.3	28.7	-69.8	1.4
2026-01-20 06:39:51.052514	79.0	28.8	-67.1	0.0
2026-01-20 06:39:53.304438	79.8	28.9	-69.9	6.6
2026-01-20 06:39:55.560254	80.5	29.0	-68.7	4.5
2026-01-20 06:39:57.812820	81.2	29.1	-69.2	2.3
2026-01-20 06:40:00.067731	82.0	29.1	-70.1	3.7
2026-01-20 06:40:02.322057	82.7	29.2	-67.9	3.4
2026-01-20 06:40:04.573522	83.5	29.3	-69.5	2.4
2026-01-20 06:40:06.828824	84.2	29.4	-69.5	2.7
2026-01-20 06:40:09.083014	85.0	29.4	-69.9	5.7
2026-01-20 06:40:11.335437	85.8	29.5	-70.0	4.6
2026-01-20 06:40:13.587775	86.5	29.5	-70.4	6.7
2026-01-20 06:40:15.840829	87.3	29.6	-69.9	4.4
2026-01-20 06:40:18.094960	88.1	29.6	-69.9	3.7
2026-01-20 06:40:20.346748	88.8	29.6	-71.1	8.1
2026-01-20 06:40:22.599735	89.6	29.6	-70.3	3.6
2026-01-20 06:40:24.848424	90.4	29.7	-70.7	8.0
2026-01-20 06:40:27.101356	91.1	29.7	-70.8	7.5
2026-01-20 06:40:29.357092	91.9	29.7	-70.7	0.7
2026-01-20 06:40:31.612984	92.7	29.7	-70.7	3.2
2026-01-20 06:40:33.868202	93.4	29.7	-71.1	6.5
2026-01-20 06:40:36.121455	94.2	29.7	-71.5	7.1
2026-01-20 06:40:38.375547	95.0	29.7	-71.6	6.1
2026-01-20 06:40:40.630522	95.8	29.7	-71.6	7.1
2026-01-20 06:40:42.883022	96.5	29.6	-71.7	8.8
2026-01-20 06:40:45.138151	97.3	29.6	-71.4	7.2
2026-01-20 06:40:47.390819	98.1	29.6	-72.0	9.1
2026-01-20 06:40:49.645653	98.8	29.5	-70.9	5.8
2026-01-20 06:40:51.900874	99.6	29.5	-71.8	7.5
2026-01-20 06:40:54.154448	100.4	29.4	-71.1	6.4
2026-01-20 06:40:56.405684	101.1	29.4	-71.4	7.7
2026-01-20 06:40:58.658072	101.9	29.3	-72.1	9.3
2026-01-20 06:41:00.910276	102.6	29.2	-71.0	7.0
2026-01-20 06:41:03.165993	103.4	29.2	-71.2	6.2
2026-01-20 06:41:05.419499	104.1	29.1	-71.8	7.4
2026-01-20 06:41:07.672857	104.9	29.0	-71.4	6.0
2026-01-20 06:41:09.924585	105.6	28.9	-72.0	7.6
2026-01-20 06:41:12.178834	106.3	28.8	-71.2	6.9
2026-01-20 06:41:14.432768	107.1	28.7	-71.9	5.4
2026-01-20 06:41:16.683594	107.8	28.6	-71.5	6.6
2026-01-20 06:41:18.936437	108.5	28.5	-72.6	7.4
2026-01-20 06:41:21.185964	109.2	28.4	-72.2	7.5
2026-01-20 06:41:23.444925	110.0	28.3	-72.7	6.6
2026-01-20 06:41:25.700523	110.7	28.2	-71.9	5.9
2026-01-20 06:41:27.956015	111.4	28.1	-73.3	8.0
2026-01-20 06:41:30.206454	112.1	27.9	-73.0	10.0
2026-01-20 06:41:32.462319	112.8	27.8	-72.4	8.6
2026-01-20 06:41:34.715863	113.4	27.7	-72.7	9.8
2026-01-20 06:41:36.966023	114.1	27.5	-72.8	10.1
2026-01-20 06:41:39.219719	114.8	27.4	-71.8	8.2
2026-01-20 06:41:41.472218	115.5	27.3	-72.1	7.2
2026-01-20 06:41:43.725344	116.1	27.1	-71.9	8.7
2026-01-20 06:41:45.977285	116.8	27.0	-72.5	9.0
2026-01-20 06:41:48.230983	117.4	26.8	-72.3	8.4
2026-01-20 06:41:50.484592	118.1	26.6	-72.8	10.6
2026-01-20 06:41:52.735507	118.7	26.5	-72.4	7.5
2026-01-20 06:41:54.989124	119.3	26.3	-73.1	10.2
2026-01-20 06:41:57.244298	120.0	26.2	-72.9	10.0
2026-01-20 06:41:59.497934	120.6	26.0	-72.9	9.1
2026-01-20 06:42:01.748846	121.2	25.8	-73.2	9.2
2026-01-20 06:42:04.002857	121.8	25.6	-72.5	7.0
2026-01-20 06:42:06.254964	122.4	25.5	-73.1	7.9
2026-01-20 06:42:08.509771	123.0	25.3	-73.8	8.6
2026-01-20 06:42:10.759198	123.6	25.1	-73.7	7.7
2026-01-20 06:42:13.012736	124.2	24.9	-73.7	8.4
2026-01-20 06:42:15.264734	124.7	24.8	-72.5	6.9
2026-01-20 06:42:17.517482	125.3	24.6	-73.7	7.4
2026-01-20 06:42:19.771222	125.9	24.4	-73.3	7.5
2026-01-20 06:42:22.022054	126.4	24.2	-72.9	5.3
2026-01-20 06:42:24.274745	127.0	24.0	-73.0	6.5
2026-01-20 06:42:26.526533	127.5	23.8	-72.6	6.1
2026-01-20 06:42:28.777994	128.0	23.6	-72.9	7.5
2026-01-20 06:42:31.031788	128.6	23.4	-73.3	7.8
2026-01-20 06:42:33.284028	129.1	23.2	-73.6	9.3
2026-01-20 06:42:35.537137	129.6	23.0	-73.5	7.6
2026-01-20 06:42:37.789512	130.1	22.9	-74.0	8.4
2026-01-20 06:42:40.044638	130.6	22.7	-73.1	5.5
2026-01-20 06:42:42.298751	131.1	22.5	-73.3	7.4
2026-01-20 06:42:44.548949	131.6	22.3	-73.5	8.4
2026-01-20 06:42:46.800806	132.1	22.1	-73.4	8.6
2026-01-20 06:42:49.052553	132.6	21.9	-73.9	7.6
2026-01-20 06:42:51.304808	133.1	21.7	-73.4	7.7
2026-01-20 06:42:53.555733	133.5	21.5	-73.9	7.7
2026-01-20 06:42:55.811797	134.0	21.3	-74.3	8.8
2026-01-20 06:42:58.065279	134.4	21.1	-73.7	6.8
2026-01-20 06:43:00.313803	134.9	20.9	-73.9	7.2
2026-01-20 06:43:02.565159	135.3	20.7	-73.6	7.4
2026-01-20 06:43:04.819986	135.8	20.5	-73.2	5.3
2026-01-20 06:43:07.071772	136.2	20.3	-73.6	5.0
2026-01-20 06:43:09.327573	136.6	20.1	-73.4	5.8
2026-01-20 06:43:11.583099	137.1	19.9	-73.8	6.2
2026-01-20 06:43:13.837472	137.5	19.7	-73.4	6.9
2026-01-20 06:43:16.087811	137.9	19.5	-73.6	7.4
2026-01-20 06:43:18.343246	138.3	19.3	-73.4	6.3
2026-01-20 06:43:20.598338	138.7	19.1	-73.6	7.6
2026-01-20 06:43:22.850640	139.1	18.9	-73.3	6.3
2026-01-20 06:43:25.103273	139.5	18.7	-74.1	6.3
2026-01-20 06:43:27.356587	139.9	18.5	-74.1	7.3
2026-01-20 06:43:29.607089	140.2	18.3	-74.2	7.0
2026-01-20 06:43:31.859442	140.6	18.1	-74.0	6.7
2026-01-20 06:43:34.111199	141.0	17.9	-74.3	7.8
2026-01-20 06:43:36.361325	141.4	17.7	-74.3	5.7
2026-01-20 06:43:38.611694	141.7	17.5	-74.2	7.2
2026-01-20 06:43:40.863831	142.1	17.3	-74.3	6.9
2026-01-20 06:43:43.114584	142.4	17.1	-74.3	6.4
2026-01-20 06:43:45.369007	142.8	16.9	-74.3	6.0
2026-01-20 06:43:47.624987	143.1	16.7	-74.3	6.7
2026-01-20 06:43:49.876266	143.5	16.5	-74.5	6.6
2026-01-20 06:43:52.127118	143.8	16.3	-74.1	6.2
2026-01-20 06:43:54.379291	144.1	16.1	-74.5	6.5
2026-01-20 06:43:56.630007	144.5	16.0	-74.1	5.1
2026-01-20 06:43:58.881126	144.8	15.8	-74.0	4.1
2026-01-20 06:44:01.132050	145.1	15.6	-74.7	6.3
2026-01-20 06:44:03.386729	145.4	15.4	-74.4	4.8
2026-01-20 06:44:05.639710	145.7	15.2	-74.2	5.4
2026-01-20 06:44:07.890897	146.0	15.0	-73.9	5.0
2026-01-20 06:44:10.141848	146.4	14.8	-74.1	4.3
2026-01-20 06:44:12.396764	146.7	14.6	-73.9	5.0
2026-01-20 06:44:14.649683	147.0	14.4	-73.7	4.2
2026-01-20 06:44:16.903521	147.2	14.3	-74.6	4.4
2026-01-20 06:44:19.159015	147.5	14.1	-73.4	2.5
2026-01-20 06:44:21.411851	147.8	13.9	-73.4	1.2
2026-01-20 06:44:23.663644	148.1	13.7	-73.3	1.5
2026-01-20 06:44:25.916452	148.4	13.5	-73.7	0.0
2026-01-20 06:44:28.170281	148.7	13.3	-73.7	1.6
2026-01-20 06:44:30.427080	148.9	13.2	-73.9	1.2
2026-01-20 06:44:32.680288	149.2	13.0	-73.7	2.8
2026-01-20 06:44:34.933175	149.5	12.8	-73.6	2.0
2026-01-20 06:44:37.188863	149.7	12.6	-74.2	1.5
2026-01-20 06:44:39.440528	150.0	12.4	-72.7	0.0
2026-01-20 06:44:41.691200	150.3	12.3	-73.5	0.1
2026-01-20 06:44:43.944060	150.5	12.1	-73.5	2.8
2026-01-20 06:44:46.196872	150.8	11.9	-73.7	0.0
2026-01-20 06:44:48.449072	151.0	11.7	-74.9	3.5
2026-01-20 06:44:50.702325	151.3	11.6	-75.3	3.5
2026-01-20 06:44:52.955129	151.5	11.4	-75.0	3.9
2026-01-20 06:44:55.206173	151.7	11.2	-75.2	2.8
2026-01-20 06:44:57.455645	152.0	11.1	-74.8	4.6
2026-01-20 06:44:59.708615	152.2	10.9	-75.1	0.0
2026-01-20 06:45:01.958056	152.4	10.7	-77.0	0.0
2026-01-20 06:45:04.208036	152.7	10.5	-77.8	0.0
2026-01-20 06:45:06.457804	152.9	10.4	-78.4	0.0
2026-01-20 06:45:08.711632	153.1	10.2	-79.7	0.0
2026-01-20 06:45:10.964325	153.4	10.0	-79.4	0.0
#Closed at: 2026-01-20 06:35:45.394717