passes_logs/2026/01/20/planumMaritime01/planumMaritime01__20260120_111904_METEOR-M2_4_rec.log

#Pass ID: 20260120_111904_METEOR-M2 4
#Satellite: METEOR-M2 4
#Configuration: METEOR-M2 4
#Start time: 2026-01-20 11:19:09.774116

#LorettStation: 1.0.0 05.05.2024
#Station: planumMaritime01
#Location: 37.49445 lon 55.92918 lat
#TLE: 1 59051U 24039A   26019.97187307  .00000054  00000+0  43773-4 0  9994
#TLE: 2 59051  98.6823 341.2920 0006107 234.4548 125.6060 14.22408047 98192

#Time	Az	El	Level	SNR
2026-01-20 11:19:11.942270	160.5	10.2	-81.8	0.0
2026-01-20 11:19:14.206636	160.5	10.4	-79.6	0.0
2026-01-20 11:19:16.473858	160.5	10.6	-77.8	3.7
2026-01-20 11:19:18.741617	160.5	10.8	-77.7	4.5
2026-01-20 11:19:21.013171	160.5	11.0	-78.2	6.8
2026-01-20 11:19:23.282955	160.5	11.2	-77.7	6.1
2026-01-20 11:19:25.554533	160.5	11.4	-77.8	5.7
2026-01-20 11:19:27.823516	160.5	11.6	-78.1	5.4
2026-01-20 11:19:30.096666	160.5	11.8	-77.3	5.1
2026-01-20 11:19:32.366756	160.5	12.1	-77.5	6.8
2026-01-20 11:19:34.642893	160.5	12.3	-77.8	6.4
2026-01-20 11:19:36.913780	160.5	12.5	-76.7	4.0
2026-01-20 11:19:39.189092	160.5	12.7	-77.6	5.7
2026-01-20 11:19:41.461653	160.5	12.9	-77.3	6.3
2026-01-20 11:19:43.736155	160.5	13.2	-77.4	7.4
2026-01-20 11:19:46.001810	160.5	13.4	-77.4	6.4
2026-01-20 11:19:48.260091	160.5	13.6	-76.9	4.9
2026-01-20 11:19:50.516430	160.5	13.9	-77.6	5.0
2026-01-20 11:19:52.772192	160.5	14.1	-77.2	7.3
2026-01-20 11:19:55.030314	160.5	14.3	-77.5	6.5
2026-01-20 11:19:57.287759	160.5	14.6	-76.7	5.6
2026-01-20 11:19:59.541890	160.5	14.8	-76.6	4.7
2026-01-20 11:20:01.798941	160.5	15.0	-77.5	4.9
2026-01-20 11:20:04.057539	160.5	15.3	-77.4	7.5
2026-01-20 11:20:06.310727	160.5	15.5	-76.9	4.2
2026-01-20 11:20:08.568387	160.5	15.8	-76.9	3.6
2026-01-20 11:20:10.840175	160.5	16.0	-76.7	5.9
2026-01-20 11:20:13.116700	160.5	16.3	-76.0	4.3
2026-01-20 11:20:15.391943	160.5	16.6	-76.1	5.0
2026-01-20 11:20:17.665447	160.5	16.8	-76.9	7.4
2026-01-20 11:20:19.938243	160.5	17.1	-76.9	6.2
2026-01-20 11:20:22.207789	160.5	17.4	-75.9	4.9
2026-01-20 11:20:24.480791	160.5	17.6	-77.5	8.1
2026-01-20 11:20:26.756689	160.5	17.9	-77.3	8.8
2026-01-20 11:20:29.030322	160.5	18.2	-76.7	4.9
2026-01-20 11:20:31.303040	160.5	18.5	-77.4	8.4
2026-01-20 11:20:33.576359	160.5	18.7	-77.0	8.6
2026-01-20 11:20:35.852945	160.5	19.0	-77.4	7.9
2026-01-20 11:20:38.128183	160.5	19.3	-77.1	8.0
2026-01-20 11:20:40.404374	160.5	19.6	-76.7	8.4
2026-01-20 11:20:42.679090	160.5	19.9	-77.6	8.9
2026-01-20 11:20:44.946803	160.5	20.2	-76.8	8.2
2026-01-20 11:20:47.212044	160.5	20.5	-77.6	9.8
2026-01-20 11:20:49.479025	160.5	20.8	-77.4	8.7
2026-01-20 11:20:51.745192	160.5	21.1	-77.5	8.9
2026-01-20 11:20:54.010411	160.5	21.4	-77.7	9.1
2026-01-20 11:20:56.279362	160.5	21.8	-76.1	5.3
2026-01-20 11:20:58.545858	160.5	22.1	-75.5	5.7
2026-01-20 11:21:00.809391	160.5	22.4	-75.8	8.5
2026-01-20 11:21:03.078780	160.5	22.8	-77.1	8.2
2026-01-20 11:21:05.350075	160.5	23.1	-76.2	9.2
2026-01-20 11:21:07.622579	160.5	23.4	-76.7	8.4
2026-01-20 11:21:09.898776	160.5	23.8	-74.9	4.9
2026-01-20 11:21:12.175129	160.5	24.1	-76.5	7.6
2026-01-20 11:21:14.450857	160.5	24.5	-74.7	8.5
2026-01-20 11:21:16.726295	160.5	24.8	-75.7	8.1
2026-01-20 11:21:18.999437	160.5	25.2	-76.7	7.3
2026-01-20 11:21:21.280002	160.5	25.6	-76.7	7.4
2026-01-20 11:21:23.552501	160.5	26.0	-76.5	8.1
2026-01-20 11:21:25.829586	160.5	26.3	-76.8	9.4
2026-01-20 11:21:28.102751	160.5	26.7	-77.1	9.4
2026-01-20 11:21:30.377824	160.5	27.1	-77.1	9.8
2026-01-20 11:21:32.652283	160.5	27.5	-76.5	9.4
2026-01-20 11:21:34.924984	160.5	27.9	-76.5	7.6
2026-01-20 11:21:37.200358	160.5	28.3	-76.2	7.7
2026-01-20 11:21:39.469885	160.5	28.7	-76.1	9.3
2026-01-20 11:21:41.745192	160.5	29.2	-76.6	8.1
2026-01-20 11:21:44.019445	160.5	29.6	-76.6	8.7
2026-01-20 11:21:46.292522	160.5	30.0	-77.0	8.5
2026-01-20 11:21:48.569655	160.4	30.5	-77.3	9.6
2026-01-20 11:21:50.845974	160.4	30.9	-76.9	7.5
2026-01-20 11:21:53.121688	160.4	31.4	-77.6	10.8
2026-01-20 11:21:55.398113	160.4	31.8	-77.3	9.6
2026-01-20 11:21:57.671835	160.4	32.3	-76.9	8.5
2026-01-20 11:21:59.943012	160.4	32.8	-77.6	9.2
2026-01-20 11:22:02.212949	160.4	33.3	-77.3	10.2
2026-01-20 11:22:04.485628	160.4	33.8	-77.7	10.5
2026-01-20 11:22:06.741430	160.4	34.3	-77.3	10.1
2026-01-20 11:22:08.997247	160.4	34.8	-77.3	11.4
2026-01-20 11:22:11.254058	160.4	35.3	-77.9	11.6
2026-01-20 11:22:13.512487	160.3	35.8	-77.5	10.9
2026-01-20 11:22:15.769720	160.3	36.4	-78.2	11.1
2026-01-20 11:22:18.032375	160.3	36.9	-77.9	11.6
2026-01-20 11:22:20.306355	160.3	37.5	-77.7	10.4
2026-01-20 11:22:22.583710	160.3	38.0	-77.8	11.4
2026-01-20 11:22:24.859892	160.3	38.6	-77.9	9.7
2026-01-20 11:22:27.136231	160.3	39.2	-77.8	10.7
2026-01-20 11:22:29.410308	160.2	39.8	-77.9	9.7
2026-01-20 11:22:31.684839	160.2	40.4	-78.3	10.8
2026-01-20 11:22:33.958490	160.2	41.0	-78.5	11.8
2026-01-20 11:22:36.231589	160.2	41.6	-78.5	11.9
2026-01-20 11:22:38.507429	160.2	42.2	-78.4	11.1
2026-01-20 11:22:40.781046	160.1	42.9	-78.7	11.5
2026-01-20 11:22:43.054893	160.1	43.6	-78.8	11.2
2026-01-20 11:22:45.328784	160.1	44.2	-79.1	12.2
2026-01-20 11:22:47.601557	160.1	44.9	-78.4	10.3
2026-01-20 11:22:49.876707	160.0	45.6	-78.9	11.1
2026-01-20 11:22:52.150725	160.0	46.3	-79.2	10.9
2026-01-20 11:22:54.422048	160.0	47.0	-79.1	11.2
2026-01-20 11:22:56.680871	159.9	47.7	-79.4	11.0
2026-01-20 11:22:58.938432	159.9	48.5	-79.6	11.0
2026-01-20 11:23:01.196196	159.9	49.2	-79.4	11.1
2026-01-20 11:23:03.454775	159.8	50.0	-79.9	8.6
2026-01-20 11:23:05.716118	159.8	50.8	-80.3	9.9
2026-01-20 11:23:07.974146	159.8	51.6	-80.7	9.1
2026-01-20 11:23:10.229681	159.7	52.4	-80.9	9.8
2026-01-20 11:23:12.491970	159.7	53.2	-80.5	7.5
2026-01-20 11:23:14.752547	159.6	54.0	-81.2	9.0
2026-01-20 11:23:17.007558	159.5	54.8	-81.1	8.2
2026-01-20 11:23:19.276409	159.5	55.7	-80.9	8.7
2026-01-20 11:23:21.550232	159.4	56.6	-80.3	8.8
2026-01-20 11:23:23.818539	159.3	57.5	-80.2	8.4
2026-01-20 11:23:26.089058	159.3	58.4	-79.8	8.4
2026-01-20 11:23:28.361225	159.2	59.3	-79.8	7.5
2026-01-20 11:23:30.635474	159.1	60.2	-79.9	9.1
2026-01-20 11:23:32.910116	159.0	61.2	-79.3	8.3
2026-01-20 11:23:35.180161	158.9	62.1	-80.5	10.3
2026-01-20 11:23:37.455843	158.8	63.1	-80.2	8.2
2026-01-20 11:23:39.725064	158.7	64.1	-79.9	7.7
2026-01-20 11:23:41.996027	158.5	65.1	-79.5	7.6
2026-01-20 11:23:44.268047	158.4	66.1	-79.2	8.9
2026-01-20 11:23:46.544887	158.2	67.1	-79.1	7.1
2026-01-20 11:23:48.818693	158.1	68.1	-77.8	5.6
2026-01-20 11:23:51.092798	157.9	69.2	-78.1	9.5
2026-01-20 11:23:53.364005	157.6	70.3	-78.2	8.4
2026-01-20 11:23:55.632489	157.4	71.3	-78.9	10.0
2026-01-20 11:23:57.907326	157.1	72.4	-78.6	8.1
2026-01-20 11:24:00.182501	156.8	73.5	-78.0	8.1
2026-01-20 11:24:02.456155	156.4	74.6	-78.9	8.4
2026-01-20 11:24:04.732855	155.9	75.7	-78.7	6.0
2026-01-20 11:24:07.004913	155.4	76.8	-78.4	6.7
2026-01-20 11:24:09.280449	154.8	78.0	-78.9	6.3
2026-01-20 11:24:11.555694	154.0	79.1	-78.2	6.9
2026-01-20 11:24:13.824115	153.1	80.2	-77.7	7.8
2026-01-20 11:24:16.082408	151.9	81.4	-76.6	5.2
2026-01-20 11:24:18.343826	150.4	82.5	-76.7	6.1
2026-01-20 11:24:20.603405	148.3	83.6	-77.1	6.1
2026-01-20 11:24:22.857231	145.3	84.7	-77.8	7.5
2026-01-20 11:24:25.116597	140.7	85.9	-78.0	6.0
2026-01-20 11:24:27.374487	132.7	86.9	-76.5	3.4
2026-01-20 11:24:29.631928	117.3	87.9	-77.1	7.3
2026-01-20 11:24:31.889536	85.2	88.4	-77.1	7.3
2026-01-20 11:24:34.147677	43.5	88.3	-76.9	8.3
2026-01-20 11:24:36.406655	19.2	87.5	-77.2	10.0
2026-01-20 11:24:38.678762	7.5	86.5	-77.2	6.2
2026-01-20 11:24:40.951952	1.2	85.4	-76.6	6.4
2026-01-20 11:24:43.226434	357.3	84.3	-77.1	5.4
2026-01-20 11:24:45.498456	354.7	83.1	-76.9	3.1
2026-01-20 11:24:47.771362	352.9	82.0	-77.5	4.7
2026-01-20 11:24:50.045042	351.5	80.9	-75.9	5.1
2026-01-20 11:24:52.319528	350.4	79.7	-76.7	5.7
2026-01-20 11:24:54.593353	349.6	78.6	-76.3	5.5
2026-01-20 11:24:56.868044	348.9	77.5	-75.7	5.7
2026-01-20 11:24:59.141007	348.3	76.3	-76.9	4.7
2026-01-20 11:25:01.413304	347.9	75.2	-76.8	4.3
2026-01-20 11:25:03.693423	347.4	74.1	-77.8	5.6
2026-01-20 11:25:05.966746	347.1	73.0	-75.8	1.5
2026-01-20 11:25:08.241191	346.8	71.9	-77.9	3.1
2026-01-20 11:25:10.516223	346.5	70.9	-78.3	4.2
2026-01-20 11:25:12.787044	346.3	69.8	-77.0	3.0
2026-01-20 11:25:15.051683	346.1	68.8	-77.6	5.0
2026-01-20 11:25:17.313238	345.9	67.7	-78.5	6.0
2026-01-20 11:25:19.577152	345.7	66.7	-76.4	1.8
2026-01-20 11:25:21.840241	345.5	65.7	-77.6	4.3
2026-01-20 11:25:24.108937	345.4	64.7	-76.5	1.6
2026-01-20 11:25:26.373214	345.3	63.7	-75.5	0.0
2026-01-20 11:25:28.643379	345.2	62.7	-76.8	1.9
2026-01-20 11:25:30.908896	345.1	61.8	-78.1	3.6
2026-01-20 11:25:33.174585	345.0	60.8	-77.6	4.9
2026-01-20 11:25:35.451941	344.9	59.9	-76.2	0.0
2026-01-20 11:25:37.727131	344.8	59.0	-77.6	3.5
2026-01-20 11:25:40.006175	344.7	58.0	-76.6	0.4
2026-01-20 11:25:42.282731	344.6	57.1	-78.1	3.8
2026-01-20 11:25:44.554371	344.6	56.3	-77.4	2.5
2026-01-20 11:25:46.832858	344.5	55.4	-78.0	4.3
2026-01-20 11:25:49.107082	344.4	54.5	-78.4	3.8
2026-01-20 11:25:51.385825	344.4	53.7	-79.0	5.8
2026-01-20 11:25:53.660914	344.3	52.9	-77.8	2.5
2026-01-20 11:25:55.938365	344.3	52.1	-77.6	1.6
2026-01-20 11:25:58.212586	344.2	51.3	-78.2	1.4
2026-01-20 11:26:00.487613	344.2	50.5	-77.2	2.1
2026-01-20 11:26:02.762194	344.2	49.7	-78.0	4.4
2026-01-20 11:26:05.038516	344.1	48.9	-77.2	2.7
2026-01-20 11:26:07.314007	344.1	48.2	-76.7	2.8
2026-01-20 11:26:09.590121	344.1	47.5	-75.5	0.0
2026-01-20 11:26:11.862426	344.0	46.7	-76.7	1.9
2026-01-20 11:26:14.133125	344.0	46.0	-77.4	5.2
2026-01-20 11:26:16.405179	344.0	45.3	-75.3	2.4
2026-01-20 11:26:18.679782	343.9	44.7	-75.2	2.5
2026-01-20 11:26:20.950459	343.9	44.0	-74.3	1.2
2026-01-20 11:26:23.223018	343.9	43.3	-74.4	0.0
2026-01-20 11:26:25.485100	343.9	42.7	-72.8	0.0
2026-01-20 11:26:27.742081	343.8	42.0	-75.6	0.0
2026-01-20 11:26:30.003243	343.8	41.4	-72.6	0.0
2026-01-20 11:26:32.260864	343.8	40.8	-72.2	0.0
2026-01-20 11:26:34.516841	343.8	40.2	-73.2	0.0
2026-01-20 11:26:36.775344	343.8	39.6	-72.6	0.0
2026-01-20 11:26:39.035323	343.8	39.0	-75.2	0.0
2026-01-20 11:26:41.292682	343.7	38.5	-73.9	0.0
2026-01-20 11:26:43.554387	343.7	37.9	-74.3	0.0
2026-01-20 11:26:45.823393	343.7	37.3	-73.7	0.0
2026-01-20 11:26:48.094788	343.7	36.8	-71.8	0.0
2026-01-20 11:26:50.365099	343.7	36.2	-73.0	0.0
2026-01-20 11:26:52.637675	343.7	35.7	-74.0	0.0
2026-01-20 11:26:54.909524	343.7	35.2	-73.7	0.0
2026-01-20 11:26:57.188009	343.7	34.7	-72.0	0.0
2026-01-20 11:26:59.464861	343.7	34.2	-70.4	0.0
2026-01-20 11:27:01.739427	343.6	33.7	-70.3	0.0
2026-01-20 11:27:04.014305	343.6	33.2	-71.9	0.0
2026-01-20 11:27:06.292512	343.6	32.7	-70.9	0.0
2026-01-20 11:27:08.569132	343.6	32.2	-71.1	0.0
2026-01-20 11:27:10.839984	343.6	31.8	-71.7	0.0
2026-01-20 11:27:13.113333	343.6	31.3	-72.0	0.0
2026-01-20 11:27:15.385373	343.6	30.9	-72.6	0.0
2026-01-20 11:27:17.659506	343.6	30.4	-71.6	0.0
2026-01-20 11:27:19.931819	343.6	30.0	-70.7	0.0
2026-01-20 11:27:22.200991	343.6	29.5	-70.2	0.0
2026-01-20 11:27:24.455908	343.6	29.1	-69.1	0.0
2026-01-20 11:27:26.711330	343.6	28.7	-71.3	0.0
2026-01-20 11:27:28.968944	343.6	28.3	-70.9	0.0
2026-01-20 11:27:31.225259	343.6	27.9	-72.1	0.0
2026-01-20 11:27:33.484068	343.6	27.5	-72.3	0.0
2026-01-20 11:27:35.740851	343.6	27.1	-71.0	0.0
2026-01-20 11:27:37.994780	343.6	26.7	-71.7	0.0
2026-01-20 11:27:40.255128	343.6	26.3	-70.7	0.0
2026-01-20 11:27:42.514777	343.6	26.0	-71.2	0.0
2026-01-20 11:27:44.773335	343.5	25.6	-72.3	0.0
2026-01-20 11:27:47.032586	343.5	25.2	-71.8	0.0
2026-01-20 11:27:49.299014	343.5	24.9	-72.3	0.0
2026-01-20 11:27:51.568981	343.5	24.5	-71.5	0.0
2026-01-20 11:27:53.839097	343.5	24.2	-71.2	0.0
2026-01-20 11:27:56.109164	343.5	23.8	-68.9	0.0
2026-01-20 11:27:58.384084	343.5	23.5	-71.0	0.0
2026-01-20 11:28:00.655174	343.5	23.1	-71.4	0.0
2026-01-20 11:28:02.921845	343.5	22.8	-70.6	0.0
2026-01-20 11:28:05.195447	343.5	22.5	-70.8	0.0
2026-01-20 11:28:07.465113	343.5	22.1	-70.6	0.0
2026-01-20 11:28:09.739191	343.5	21.8	-70.2	0.0
2026-01-20 11:28:12.011993	343.5	21.5	-72.1	0.0
2026-01-20 11:28:14.288022	343.5	21.2	-69.3	0.0
2026-01-20 11:28:16.560227	343.5	20.9	-70.8	0.0
2026-01-20 11:28:18.834034	343.5	20.6	-71.1	0.0
2026-01-20 11:28:21.108364	343.5	20.3	-70.2	0.0
2026-01-20 11:28:23.382596	343.5	20.0	-72.5	0.0
2026-01-20 11:28:25.656656	343.5	19.7	-72.1	0.0
2026-01-20 11:28:27.927357	343.6	19.4	-71.8	0.0
2026-01-20 11:28:30.201555	343.6	19.1	-70.8	0.0
2026-01-20 11:28:32.480091	343.6	18.8	-71.0	0.0
2026-01-20 11:28:34.752812	343.6	18.5	-71.0	0.0
2026-01-20 11:28:37.022278	343.6	18.2	-70.9	0.0
2026-01-20 11:28:39.296337	343.6	18.0	-68.3	0.0
2026-01-20 11:28:41.555595	343.6	17.7	-72.6	0.0
2026-01-20 11:28:43.810418	343.6	17.4	-71.8	0.0
2026-01-20 11:28:46.066763	343.6	17.2	-73.2	0.0
2026-01-20 11:28:48.324488	343.6	16.9	-71.3	0.0
2026-01-20 11:28:50.579755	343.6	16.6	-73.2	0.0
2026-01-20 11:28:52.837291	343.6	16.4	-72.3	0.0
2026-01-20 11:28:55.094574	343.6	16.1	-73.7	0.0
2026-01-20 11:28:57.349963	343.6	15.9	-74.1	0.0
2026-01-20 11:28:59.607280	343.6	15.6	-74.5	0.0
2026-01-20 11:29:01.862328	343.6	15.4	-71.7	0.0
2026-01-20 11:29:04.130499	343.6	15.2	-72.5	0.0
2026-01-20 11:29:06.404071	343.6	14.9	-72.9	0.0
2026-01-20 11:29:08.675932	343.6	14.7	-72.8	0.0
2026-01-20 11:29:10.947527	343.6	14.4	-69.0	0.0
2026-01-20 11:29:13.219357	343.6	14.2	-71.1	0.0
2026-01-20 11:29:15.496382	343.6	14.0	-71.5	0.0
2026-01-20 11:29:17.771335	343.6	13.7	-70.8	0.0
2026-01-20 11:29:20.044918	343.6	13.5	-69.8	0.0
2026-01-20 11:29:22.321799	343.6	13.3	-70.5	0.0
2026-01-20 11:29:24.597919	343.6	13.1	-70.5	0.0
2026-01-20 11:29:26.869655	343.6	12.8	-71.3	0.0
2026-01-20 11:29:29.146211	343.6	12.6	-68.9	0.0
2026-01-20 11:29:31.420527	343.6	12.4	-71.9	0.0
2026-01-20 11:29:33.697873	343.6	12.2	-72.7	0.0
2026-01-20 11:29:35.973814	343.7	12.0	-70.5	0.0
2026-01-20 11:29:38.233466	343.7	11.7	-71.5	0.0
2026-01-20 11:29:40.498233	343.7	11.5	-71.9	0.0
2026-01-20 11:29:42.761973	343.7	11.3	-73.4	0.0
2026-01-20 11:29:45.024741	343.7	11.1	-72.2	0.0
2026-01-20 11:29:47.290798	343.7	10.9	-69.5	0.0
2026-01-20 11:29:49.555780	343.7	10.7	-70.2	0.0
2026-01-20 11:29:51.820145	343.7	10.5	-71.1	0.0
2026-01-20 11:29:54.082212	343.7	10.3	-70.9	0.0
2026-01-20 11:29:56.344004	343.7	10.1	-79.1	0.0
#Closed at: 2026-01-20 11:19:04.780931