passes_logs/2026/01/20/planumMaritime01/planumMaritime01__20260120_164211_METEOR-M2_3_rec.log

#Pass ID: 20260120_164211_METEOR-M2 3
#Satellite: METEOR-M2 3
#Configuration: METEOR-M2 3
#Start time: 2026-01-20 16:42:16.124350

#LorettStation: 1.0.0 05.05.2024
#Station: planumMaritime01
#Location: 37.49445 lon 55.92918 lat
#TLE: 1 57166U 23091A   26019.98490498  .00000035  00000+0  34315-4 0  9996
#TLE: 2 57166  98.6319  77.8458 0003107 230.7688 129.3216 14.24031181133429

#Time	Az	El	Level	SNR
2026-01-20 16:42:18.296189	122.4	10.2	-79.9	0.0
2026-01-20 16:42:20.562452	122.2	10.4	-80.7	0.0
2026-01-20 16:42:22.839527	122.0	10.5	-79.3	3.1
2026-01-20 16:42:25.116734	121.9	10.7	-79.1	3.6
2026-01-20 16:42:27.394075	121.7	10.9	-79.1	4.3
2026-01-20 16:42:29.670903	121.5	11.1	-78.6	4.9
2026-01-20 16:42:31.945966	121.3	11.3	-77.1	2.8
2026-01-20 16:42:34.220511	121.1	11.5	-78.0	5.1
2026-01-20 16:42:36.482375	120.9	11.7	-77.8	4.7
2026-01-20 16:42:38.746080	120.7	11.8	-78.0	6.6
2026-01-20 16:42:41.011693	120.5	12.0	-78.4	6.3
2026-01-20 16:42:43.274898	120.3	12.2	-78.1	6.1
2026-01-20 16:42:45.539943	120.1	12.4	-78.2	5.1
2026-01-20 16:42:47.802556	119.9	12.6	-78.4	5.2
2026-01-20 16:42:50.065417	119.6	12.8	-78.0	4.7
2026-01-20 16:42:52.329721	119.4	13.0	-77.7	4.3
2026-01-20 16:42:54.590837	119.2	13.2	-78.3	6.4
2026-01-20 16:42:56.867093	119.0	13.4	-77.8	5.1
2026-01-20 16:42:59.145097	118.7	13.6	-77.4	4.9
2026-01-20 16:43:01.424004	118.5	13.8	-77.1	5.2
2026-01-20 16:43:03.697473	118.3	14.0	-77.0	4.9
2026-01-20 16:43:05.971713	118.0	14.2	-77.4	5.6
2026-01-20 16:43:08.240476	117.8	14.4	-77.9	6.9
2026-01-20 16:43:10.508887	117.6	14.6	-77.0	6.1
2026-01-20 16:43:12.775298	117.3	14.8	-77.7	6.0
2026-01-20 16:43:15.046527	117.1	15.0	-76.8	4.8
2026-01-20 16:43:17.314240	116.8	15.3	-77.3	7.1
2026-01-20 16:43:19.581590	116.5	15.5	-76.8	6.2
2026-01-20 16:43:21.848801	116.3	15.7	-76.7	6.1
2026-01-20 16:43:24.119231	116.0	15.9	-76.4	4.4
2026-01-20 16:43:26.391428	115.7	16.1	-76.8	4.5
2026-01-20 16:43:28.658867	115.5	16.3	-76.3	1.5
2026-01-20 16:43:30.929744	115.2	16.6	-76.3	4.8
2026-01-20 16:43:33.199633	114.9	16.8	-76.4	4.4
2026-01-20 16:43:35.470691	114.6	17.0	-76.6	3.5
2026-01-20 16:43:37.735878	114.3	17.2	-76.1	2.9
2026-01-20 16:43:40.007198	114.0	17.4	-76.6	5.3
2026-01-20 16:43:42.270834	113.7	17.7	-75.2	1.9
2026-01-20 16:43:44.537941	113.4	17.9	-76.8	5.8
2026-01-20 16:43:46.812330	113.1	18.1	-76.6	6.0
2026-01-20 16:43:49.079058	112.8	18.3	-74.9	1.8
2026-01-20 16:43:51.348472	112.5	18.6	-76.2	5.0
2026-01-20 16:43:53.617958	112.1	18.8	-76.4	6.7
2026-01-20 16:43:55.885836	111.8	19.0	-76.6	4.9
2026-01-20 16:43:58.150133	111.5	19.3	-76.5	2.9
2026-01-20 16:44:00.424055	111.1	19.5	-76.5	6.7
2026-01-20 16:44:02.698682	110.8	19.7	-76.2	5.5
2026-01-20 16:44:04.972238	110.4	20.0	-77.1	6.9
2026-01-20 16:44:07.245498	110.1	20.2	-77.0	6.1
2026-01-20 16:44:09.512638	109.7	20.5	-76.2	5.1
2026-01-20 16:44:11.790442	109.4	20.7	-75.7	4.8
2026-01-20 16:44:14.058936	109.0	20.9	-75.6	3.9
2026-01-20 16:44:16.330912	108.6	21.2	-75.6	3.9
2026-01-20 16:44:18.604308	108.2	21.4	-75.9	5.1
2026-01-20 16:44:20.876848	107.8	21.7	-76.3	5.5
2026-01-20 16:44:23.143670	107.4	21.9	-76.1	6.2
2026-01-20 16:44:25.409126	107.0	22.2	-76.1	5.6
2026-01-20 16:44:27.673294	106.6	22.4	-76.2	7.3
2026-01-20 16:44:29.942935	106.2	22.6	-77.2	8.1
2026-01-20 16:44:32.207851	105.8	22.9	-76.5	5.7
2026-01-20 16:44:34.463554	105.3	23.1	-76.2	6.5
2026-01-20 16:44:36.717531	104.9	23.4	-76.0	5.6
2026-01-20 16:44:38.971741	104.5	23.6	-76.5	6.2
2026-01-20 16:44:41.227320	104.0	23.9	-76.5	6.1
2026-01-20 16:44:43.481778	103.6	24.1	-75.5	5.6
2026-01-20 16:44:45.735725	103.1	24.4	-75.8	5.7
2026-01-20 16:44:47.988835	102.6	24.6	-75.8	7.2
2026-01-20 16:44:50.247218	102.1	24.9	-76.8	8.8
2026-01-20 16:44:52.503391	101.6	25.1	-76.2	7.0
2026-01-20 16:44:54.759346	101.2	25.4	-75.3	5.0
2026-01-20 16:44:57.010441	100.6	25.6	-75.7	5.3
2026-01-20 16:44:59.264332	100.1	25.9	-74.6	4.5
2026-01-20 16:45:01.519821	99.6	26.1	-75.8	6.4
2026-01-20 16:45:03.786728	99.1	26.4	-74.8	1.7
2026-01-20 16:45:06.053163	98.5	26.6	-75.3	4.9
2026-01-20 16:45:08.320545	98.0	26.9	-75.4	5.3
2026-01-20 16:45:10.592811	97.4	27.1	-75.3	5.1
2026-01-20 16:45:12.863970	96.9	27.4	-75.7	5.8
2026-01-20 16:45:15.135636	96.3	27.6	-75.8	3.9
2026-01-20 16:45:17.410199	95.7	27.9	-75.3	3.1
2026-01-20 16:45:19.683530	95.1	28.1	-76.3	7.5
2026-01-20 16:45:21.959990	94.5	28.4	-75.2	4.6
2026-01-20 16:45:24.236120	93.9	28.6	-75.9	6.0
2026-01-20 16:45:26.514912	93.3	28.9	-75.9	5.8
2026-01-20 16:45:28.791088	92.6	29.1	-76.3	5.1
2026-01-20 16:45:31.069556	92.0	29.4	-75.6	6.4
2026-01-20 16:45:33.342242	91.3	29.6	-75.8	6.4
2026-01-20 16:45:35.620105	90.7	29.8	-76.2	6.5
2026-01-20 16:45:37.895454	90.0	30.1	-76.4	7.4
2026-01-20 16:45:40.170280	89.3	30.3	-75.7	6.9
2026-01-20 16:45:42.446595	88.6	30.5	-76.3	6.5
2026-01-20 16:45:44.722402	87.9	30.7	-75.3	3.9
2026-01-20 16:45:46.997693	87.2	31.0	-75.2	5.5
2026-01-20 16:45:49.275033	86.5	31.2	-75.5	4.2
2026-01-20 16:45:51.552371	85.8	31.4	-75.3	7.3
2026-01-20 16:45:53.828446	85.0	31.6	-75.9	6.9
2026-01-20 16:45:56.103379	84.3	31.8	-75.4	5.4
2026-01-20 16:45:58.383559	83.5	32.0	-75.5	6.4
2026-01-20 16:46:00.658736	82.7	32.2	-75.8	6.7
2026-01-20 16:46:02.933055	82.0	32.4	-75.2	4.6
2026-01-20 16:46:05.208902	81.2	32.6	-75.2	5.4
2026-01-20 16:46:07.488645	80.4	32.8	-76.0	6.8
2026-01-20 16:46:09.764054	79.6	32.9	-75.8	7.0
2026-01-20 16:46:12.040372	78.8	33.1	-75.3	4.6
2026-01-20 16:46:14.316882	77.9	33.3	-75.2	6.2
2026-01-20 16:46:16.591430	77.1	33.4	-74.6	0.4
2026-01-20 16:46:18.864499	76.3	33.6	-74.5	3.1
2026-01-20 16:46:21.139798	75.4	33.7	-73.2	0.0
2026-01-20 16:46:23.408309	74.6	33.9	-74.0	4.2
2026-01-20 16:46:25.677087	73.7	34.0	-74.7	4.2
2026-01-20 16:46:27.955968	72.8	34.2	-73.4	4.3
2026-01-20 16:46:30.225130	72.0	34.3	-75.4	4.2
2026-01-20 16:46:32.503141	71.1	34.4	-75.6	4.4
2026-01-20 16:46:34.780085	70.2	34.5	-74.9	1.5
2026-01-20 16:46:37.055865	69.3	34.6	-75.0	0.0
2026-01-20 16:46:39.330158	68.4	34.7	-73.2	0.3
2026-01-20 16:46:41.606481	67.5	34.8	-76.6	6.3
2026-01-20 16:46:43.879951	66.6	34.8	-74.3	2.6
2026-01-20 16:46:46.157557	65.7	34.9	-74.4	0.0
2026-01-20 16:46:48.430548	64.8	35.0	-74.1	2.8
2026-01-20 16:46:50.689200	63.9	35.0	-72.9	0.0
2026-01-20 16:46:52.946684	62.9	35.1	-73.8	0.0
2026-01-20 16:46:55.208267	62.0	35.1	-75.3	3.2
2026-01-20 16:46:57.467077	61.1	35.1	-74.0	2.2
2026-01-20 16:46:59.727824	60.2	35.1	-73.0	0.0
2026-01-20 16:47:01.989263	59.3	35.2	-74.9	3.9
2026-01-20 16:47:04.249549	58.4	35.2	-73.4	0.0
2026-01-20 16:47:06.511248	57.4	35.1	-73.4	0.0
2026-01-20 16:47:08.772367	56.5	35.1	-73.8	0.0
2026-01-20 16:47:11.038437	55.6	35.1	-72.1	0.0
2026-01-20 16:47:13.313411	54.7	35.1	-74.2	0.0
2026-01-20 16:47:15.588449	53.7	35.0	-72.6	0.0
2026-01-20 16:47:17.864889	52.8	35.0	-71.2	0.0
2026-01-20 16:47:20.141431	51.9	34.9	-72.8	0.0
2026-01-20 16:47:22.420376	51.0	34.9	-72.7	0.0
2026-01-20 16:47:24.697375	50.1	34.8	-73.4	0.0
2026-01-20 16:47:26.976280	49.2	34.7	-71.9	0.0
2026-01-20 16:47:29.247417	48.3	34.6	-74.0	0.0
2026-01-20 16:47:31.511958	47.4	34.5	-72.1	0.0
2026-01-20 16:47:33.776466	46.5	34.4	-73.0	0.0
2026-01-20 16:47:36.044138	45.6	34.3	-73.1	0.0
2026-01-20 16:47:38.312496	44.8	34.2	-72.5	0.0
2026-01-20 16:47:40.579862	43.9	34.1	-72.4	0.0
2026-01-20 16:47:42.850259	43.0	33.9	-73.1	0.0
2026-01-20 16:47:45.117375	42.2	33.8	-72.6	0.0
2026-01-20 16:47:47.387304	41.3	33.6	-72.7	0.0
2026-01-20 16:47:49.664880	40.5	33.5	-71.8	0.0
2026-01-20 16:47:51.940686	39.7	33.3	-71.3	0.0
2026-01-20 16:47:54.217420	38.8	33.2	-71.2	0.0
2026-01-20 16:47:56.492306	38.0	33.0	-71.0	0.0
2026-01-20 16:47:58.768979	37.2	32.8	-70.5	0.0
2026-01-20 16:48:01.041983	36.4	32.6	-72.0	0.0
2026-01-20 16:48:03.317243	35.6	32.5	-70.2	0.0
2026-01-20 16:48:05.591493	34.9	32.3	-70.9	0.0
2026-01-20 16:48:07.865227	34.1	32.1	-70.6	0.0
2026-01-20 16:48:10.141623	33.3	31.9	-68.8	0.0
2026-01-20 16:48:12.417359	32.6	31.7	-69.6	0.0
2026-01-20 16:48:14.692920	31.8	31.5	-68.1	0.0
2026-01-20 16:48:16.968101	31.1	31.2	-67.6	0.0
2026-01-20 16:48:19.242308	30.4	31.0	-67.8	0.0
2026-01-20 16:48:21.510462	29.7	30.8	-67.9	0.0
2026-01-20 16:48:23.780476	29.0	30.6	-69.1	0.0
2026-01-20 16:48:26.052380	28.3	30.4	-68.6	0.0
2026-01-20 16:48:28.324037	27.6	30.1	-69.7	0.0
2026-01-20 16:48:30.595201	26.9	29.9	-68.1	0.0
2026-01-20 16:48:32.867315	26.3	29.7	-70.2	0.0
2026-01-20 16:48:35.139945	25.6	29.4	-69.0	0.0
2026-01-20 16:48:37.412509	25.0	29.2	-67.4	0.0
2026-01-20 16:48:39.670505	24.4	29.0	-66.9	0.0
2026-01-20 16:48:41.931507	23.7	28.7	-67.9	0.0
2026-01-20 16:48:44.192519	23.1	28.5	-66.4	0.0
2026-01-20 16:48:46.451002	22.5	28.2	-69.0	0.0
2026-01-20 16:48:48.710837	21.9	28.0	-70.0	0.0
2026-01-20 16:48:50.973355	21.3	27.8	-68.3	0.0
2026-01-20 16:48:53.237069	20.8	27.5	-67.9	0.0
2026-01-20 16:48:55.494330	20.2	27.3	-68.2	0.0
2026-01-20 16:48:57.752596	19.7	27.0	-67.5	0.0
2026-01-20 16:49:00.017705	19.1	26.8	-65.9	0.0
2026-01-20 16:49:02.291014	18.6	26.5	-66.3	0.0
2026-01-20 16:49:04.570286	18.0	26.3	-66.6	0.0
2026-01-20 16:49:06.845437	17.5	26.0	-70.0	0.0
2026-01-20 16:49:09.117934	17.0	25.8	-68.1	0.0
2026-01-20 16:49:11.392003	16.5	25.5	-67.3	0.0
2026-01-20 16:49:13.658011	16.0	25.3	-65.7	0.0
2026-01-20 16:49:15.928120	15.5	25.0	-68.0	0.0
2026-01-20 16:49:18.193019	15.0	24.8	-67.0	0.0
2026-01-20 16:49:20.449682	14.5	24.5	-65.8	0.0
2026-01-20 16:49:22.707862	14.1	24.3	-65.8	0.0
2026-01-20 16:49:24.965496	13.6	24.0	-67.5	0.0
2026-01-20 16:49:27.225540	13.2	23.8	-65.6	0.0
2026-01-20 16:49:29.483564	12.7	23.5	-68.8	0.0
2026-01-20 16:49:31.740498	12.3	23.3	-67.4	0.0
2026-01-20 16:49:33.998536	11.8	23.0	-64.8	0.0
2026-01-20 16:49:36.256329	11.4	22.8	-67.4	0.0
2026-01-20 16:49:38.516488	11.0	22.5	-63.9	0.0
2026-01-20 16:49:40.775784	10.6	22.3	-69.0	0.0
2026-01-20 16:49:43.035834	10.2	22.0	-66.4	0.0
2026-01-20 16:49:45.300863	9.8	21.8	-67.1	0.0
2026-01-20 16:49:47.562448	9.4	21.6	-67.2	0.0
2026-01-20 16:49:49.823806	9.0	21.3	-69.1	0.0
2026-01-20 16:49:52.086241	8.6	21.1	-67.6	0.0
2026-01-20 16:49:54.348126	8.3	20.8	-68.6	0.0
2026-01-20 16:49:56.606182	7.9	20.6	-69.4	0.0
2026-01-20 16:49:58.868770	7.5	20.4	-68.8	0.0
2026-01-20 16:50:01.128474	7.2	20.1	-70.1	0.0
2026-01-20 16:50:03.391042	6.8	19.9	-66.4	0.0
2026-01-20 16:50:05.650998	6.5	19.6	-69.0	0.0
2026-01-20 16:50:07.911322	6.2	19.4	-68.4	0.0
2026-01-20 16:50:10.176322	5.8	19.2	-67.9	0.0
2026-01-20 16:50:12.446723	5.5	19.0	-67.2	0.0
2026-01-20 16:50:14.717656	5.2	18.7	-68.5	0.0
2026-01-20 16:50:16.996125	4.8	18.5	-68.1	0.0
2026-01-20 16:50:19.270537	4.5	18.3	-67.5	0.0
2026-01-20 16:50:21.551436	4.2	18.0	-68.5	0.0
2026-01-20 16:50:23.827359	3.9	17.8	-69.2	0.0
2026-01-20 16:50:26.105648	3.6	17.6	-68.8	0.0
2026-01-20 16:50:28.381366	3.3	17.4	-67.6	0.0
2026-01-20 16:50:30.657541	3.0	17.1	-68.7	0.0
2026-01-20 16:50:32.936227	2.7	16.9	-66.5	0.0
2026-01-20 16:50:35.210905	2.5	16.7	-69.0	0.0
2026-01-20 16:50:37.483438	2.2	16.5	-66.3	0.0
2026-01-20 16:50:39.761435	1.9	16.3	-67.9	0.0
2026-01-20 16:50:42.032927	1.6	16.0	-69.1	0.0
2026-01-20 16:50:44.304313	1.4	15.8	-66.6	0.0
2026-01-20 16:50:46.580082	1.1	15.6	-69.5	0.0
2026-01-20 16:50:48.846912	0.8	15.4	-68.3	0.0
2026-01-20 16:50:51.118186	0.6	15.2	-67.5	0.0
2026-01-20 16:50:53.388943	0.3	15.0	-69.3	0.0
2026-01-20 16:50:55.658708	0.1	14.8	-70.3	0.0
2026-01-20 16:50:57.926885	359.8	14.6	-68.0	0.0
2026-01-20 16:51:00.204217	359.6	14.4	-70.2	0.0
2026-01-20 16:51:02.477103	359.4	14.2	-68.0	0.0
2026-01-20 16:51:04.751618	359.1	14.0	-68.7	0.0
2026-01-20 16:51:07.024545	358.9	13.8	-70.4	0.0
2026-01-20 16:51:09.296404	358.7	13.6	-69.5	0.0
2026-01-20 16:51:11.566500	358.5	13.4	-71.3	0.0
2026-01-20 16:51:13.843254	358.2	13.2	-69.9	0.0
2026-01-20 16:51:16.114107	358.0	13.0	-70.4	0.0
2026-01-20 16:51:18.385793	357.8	12.8	-70.8	0.0
2026-01-20 16:51:20.642823	357.6	12.6	-71.7	0.0
2026-01-20 16:51:22.900522	357.4	12.4	-71.0	0.0
2026-01-20 16:51:25.157842	357.2	12.2	-73.1	0.0
2026-01-20 16:51:27.412899	357.0	12.0	-68.6	0.0
2026-01-20 16:51:29.670193	356.8	11.8	-70.0	0.0
2026-01-20 16:51:31.926510	356.6	11.6	-71.6	0.0
2026-01-20 16:51:34.181561	356.4	11.4	-71.4	0.0
2026-01-20 16:51:36.441288	356.2	11.2	-71.9	0.0
2026-01-20 16:51:38.703009	356.0	11.1	-72.0	0.0
2026-01-20 16:51:40.966852	355.8	10.9	-70.7	0.0
2026-01-20 16:51:43.241177	355.6	10.7	-69.2	0.0
2026-01-20 16:51:45.518490	355.4	10.5	-70.6	0.0
2026-01-20 16:51:47.792648	355.3	10.3	-72.4	0.0
2026-01-20 16:51:50.064408	355.1	10.2	-77.9	0.0
#Closed at: 2026-01-20 16:42:11.132498