passes_logs/2026/01/20/planumMaritime01/planumMaritime01__20260120_180522_METOP-C_rec.log

#Pass ID: 20260120_180522_METOP-C
#Satellite: METOP-C
#Configuration: METOP-C
#Start time: 2026-01-20 18:05:27.281183

#LorettStation: 1.0.0 05.05.2024
#Station: planumMaritime01
#Location: 37.49445 lon 55.92918 lat
#TLE: 1 43689U 18087A   26019.90179106  .00000159  00000+0  92796-4 0  9996
#TLE: 2 43689  98.6868  82.0755 0000796 174.2820 185.8367 14.21500134373765

#Time	Az	El	Level	SNR
2026-01-20 18:05:29.454511	162.2	10.2	-73.0	0.0
2026-01-20 18:05:31.709194	162.2	10.4	-72.3	0.0
2026-01-20 18:05:33.962696	162.2	10.6	-72.6	0.4
2026-01-20 18:05:36.213559	162.2	10.8	-72.7	1.4
2026-01-20 18:05:38.466177	162.2	11.0	-72.9	1.6
2026-01-20 18:05:40.718930	162.3	11.2	-74.2	2.8
2026-01-20 18:05:42.970723	162.3	11.4	-73.2	3.2
2026-01-20 18:05:45.223428	162.3	11.6	-73.5	3.0
2026-01-20 18:05:47.475269	162.3	11.8	-72.8	3.4
2026-01-20 18:05:49.727049	162.3	12.1	-72.8	3.6
2026-01-20 18:05:51.982945	162.3	12.3	-72.6	4.2
2026-01-20 18:05:54.235684	162.3	12.5	-72.8	5.0
2026-01-20 18:05:56.488900	162.3	12.7	-72.2	4.3
2026-01-20 18:05:58.741715	162.4	12.9	-72.6	4.2
2026-01-20 18:06:00.994284	162.4	13.1	-72.4	1.9
2026-01-20 18:06:03.247233	162.4	13.4	-71.5	0.8
2026-01-20 18:06:05.500516	162.4	13.6	-71.8	3.8
2026-01-20 18:06:07.755053	162.4	13.8	-71.9	3.1
2026-01-20 18:06:10.009424	162.4	14.1	-72.2	3.7
2026-01-20 18:06:12.263872	162.4	14.3	-71.4	0.4
2026-01-20 18:06:14.518587	162.4	14.5	-71.4	2.8
2026-01-20 18:06:16.767306	162.5	14.8	-72.4	4.2
2026-01-20 18:06:19.018450	162.5	15.0	-72.1	3.7
2026-01-20 18:06:21.273938	162.5	15.3	-71.9	3.4
2026-01-20 18:06:23.527940	162.5	15.5	-71.8	2.9
2026-01-20 18:06:25.784505	162.5	15.8	-71.8	2.3
2026-01-20 18:06:28.036840	162.5	16.0	-72.3	4.0
2026-01-20 18:06:30.292614	162.5	16.3	-70.7	0.0
2026-01-20 18:06:32.547479	162.6	16.5	-72.1	3.0
2026-01-20 18:06:34.801524	162.6	16.8	-72.1	3.8
2026-01-20 18:06:37.055072	162.6	17.0	-72.2	2.7
2026-01-20 18:06:39.309055	162.6	17.3	-70.7	1.0
2026-01-20 18:06:41.561296	162.6	17.6	-71.7	3.9
2026-01-20 18:06:43.814220	162.6	17.8	-72.1	5.0
2026-01-20 18:06:46.067078	162.6	18.1	-72.1	4.8
2026-01-20 18:06:48.319174	162.7	18.4	-72.1	3.1
2026-01-20 18:06:50.571099	162.7	18.7	-71.0	3.6
2026-01-20 18:06:52.824810	162.7	19.0	-72.8	3.9
2026-01-20 18:06:55.076102	162.7	19.2	-73.2	4.9
2026-01-20 18:06:57.332475	162.7	19.5	-71.3	0.8
2026-01-20 18:06:59.588749	162.7	19.8	-70.8	5.3
2026-01-20 18:07:01.840717	162.7	20.1	-71.6	5.3
2026-01-20 18:07:04.093577	162.8	20.4	-72.5	6.1
2026-01-20 18:07:06.348905	162.8	20.7	-72.3	6.9
2026-01-20 18:07:08.602059	162.8	21.0	-71.9	6.1
2026-01-20 18:07:10.854845	162.8	21.4	-72.4	7.4
2026-01-20 18:07:13.109833	162.8	21.7	-72.1	7.2
2026-01-20 18:07:15.364316	162.8	22.0	-71.0	3.4
2026-01-20 18:07:17.619526	162.9	22.3	-71.5	5.9
2026-01-20 18:07:19.873881	162.9	22.6	-71.1	7.4
2026-01-20 18:07:22.124965	162.9	23.0	-71.9	5.9
2026-01-20 18:07:24.377359	162.9	23.3	-72.0	6.8
2026-01-20 18:07:26.627892	162.9	23.7	-71.4	7.5
2026-01-20 18:07:28.880235	163.0	24.0	-71.0	5.6
2026-01-20 18:07:31.130963	163.0	24.4	-71.8	7.1
2026-01-20 18:07:33.383608	163.0	24.7	-71.4	7.6
2026-01-20 18:07:35.633848	163.0	25.1	-71.5	7.4
2026-01-20 18:07:37.889346	163.0	25.4	-70.8	4.7
2026-01-20 18:07:40.140434	163.1	25.8	-71.3	8.4
2026-01-20 18:07:42.392107	163.1	26.2	-71.8	7.5
2026-01-20 18:07:44.643154	163.1	26.6	-71.7	6.7
2026-01-20 18:07:46.896004	163.1	27.0	-71.4	6.4
2026-01-20 18:07:49.147204	163.1	27.3	-72.0	7.8
2026-01-20 18:07:51.401246	163.2	27.7	-72.0	7.0
2026-01-20 18:07:53.656088	163.2	28.1	-72.0	7.6
2026-01-20 18:07:55.907307	163.2	28.6	-71.7	7.4
2026-01-20 18:07:58.161049	163.2	29.0	-72.1	7.5
2026-01-20 18:08:00.414963	163.3	29.4	-72.2	7.8
2026-01-20 18:08:02.666265	163.3	29.8	-72.3	7.2
2026-01-20 18:08:04.918338	163.3	30.3	-72.2	8.0
2026-01-20 18:08:07.170787	163.3	30.7	-72.2	8.6
2026-01-20 18:08:09.422666	163.4	31.2	-72.0	8.2
2026-01-20 18:08:11.671700	163.4	31.6	-72.5	9.1
2026-01-20 18:08:13.922780	163.4	32.1	-72.4	9.1
2026-01-20 18:08:16.173860	163.4	32.5	-71.1	6.5
2026-01-20 18:08:18.428578	163.5	33.0	-71.8	10.9
2026-01-20 18:08:20.678491	163.5	33.5	-72.0	10.7
2026-01-20 18:08:22.930991	163.5	34.0	-72.2	10.5
2026-01-20 18:08:25.186004	163.5	34.5	-72.1	10.9
2026-01-20 18:08:27.440362	163.6	35.0	-72.8	12.0
2026-01-20 18:08:29.693227	163.6	35.5	-72.5	10.5
2026-01-20 18:08:31.943645	163.6	36.1	-73.0	11.9
2026-01-20 18:08:34.195761	163.7	36.6	-72.8	10.8
2026-01-20 18:08:36.447362	163.7	37.1	-72.8	9.4
2026-01-20 18:08:38.701738	163.7	37.7	-73.5	12.5
2026-01-20 18:08:40.954949	163.8	38.3	-73.7	10.7
2026-01-20 18:08:43.208374	163.8	38.8	-73.7	10.4
2026-01-20 18:08:45.459771	163.9	39.4	-73.8	11.2
2026-01-20 18:08:47.715079	163.9	40.0	-73.0	6.4
2026-01-20 18:08:49.969451	163.9	40.6	-73.7	11.9
2026-01-20 18:08:52.224272	164.0	41.2	-73.2	11.6
2026-01-20 18:08:54.480010	164.0	41.8	-73.1	13.6
2026-01-20 18:08:56.730402	164.1	42.5	-72.3	13.1
2026-01-20 18:08:58.983721	164.1	43.1	-72.6	13.8
2026-01-20 18:09:01.236324	164.2	43.8	-72.6	14.2
2026-01-20 18:09:03.490967	164.2	44.4	-72.6	13.6
2026-01-20 18:09:05.745321	164.3	45.1	-72.6	12.0
2026-01-20 18:09:07.997105	164.3	45.8	-73.0	12.0
2026-01-20 18:09:10.251355	164.4	46.5	-73.1	13.1
2026-01-20 18:09:12.504118	164.4	47.2	-73.1	11.6
2026-01-20 18:09:14.759996	164.5	48.0	-72.7	11.8
2026-01-20 18:09:17.012282	164.5	48.7	-72.8	11.2
2026-01-20 18:09:19.263957	164.6	49.5	-72.8	12.0
2026-01-20 18:09:21.516220	164.7	50.2	-72.9	13.0
2026-01-20 18:09:23.768063	164.7	51.0	-72.5	12.9
2026-01-20 18:09:26.025334	164.8	51.8	-72.3	12.3
2026-01-20 18:09:28.278898	164.9	52.6	-72.4	13.1
2026-01-20 18:09:30.532968	165.0	53.4	-72.1	13.2
2026-01-20 18:09:32.786207	165.0	54.2	-72.1	13.0
2026-01-20 18:09:35.039005	165.1	55.1	-72.3	10.7
2026-01-20 18:09:37.291250	165.2	55.9	-72.7	12.2
2026-01-20 18:09:39.540316	165.3	56.8	-72.8	10.9
2026-01-20 18:09:41.798346	165.4	57.7	-72.9	10.8
2026-01-20 18:09:44.052986	165.6	58.6	-72.4	10.3
2026-01-20 18:09:46.306092	165.7	59.5	-72.3	9.2
2026-01-20 18:09:48.559045	165.8	60.4	-72.6	10.2
2026-01-20 18:09:50.811169	165.9	61.4	-72.4	11.0
2026-01-20 18:09:53.065031	166.1	62.3	-72.4	12.3
2026-01-20 18:09:55.320559	166.3	63.3	-72.3	11.2
2026-01-20 18:09:57.570760	166.4	64.3	-71.8	13.2
2026-01-20 18:09:59.823561	166.6	65.3	-71.9	12.2
2026-01-20 18:10:02.077277	166.8	66.3	-72.4	11.8
2026-01-20 18:10:04.329793	167.0	67.3	-72.6	10.7
2026-01-20 18:10:06.588481	167.3	68.3	-72.8	8.5
2026-01-20 18:10:08.842799	167.6	69.4	-72.7	8.2
2026-01-20 18:10:11.098453	167.9	70.4	-73.3	7.3
2026-01-20 18:10:13.350226	168.2	71.5	-74.0	7.5
2026-01-20 18:10:15.603582	168.6	72.6	-73.1	7.1
2026-01-20 18:10:17.853009	169.0	73.6	-72.6	7.4
2026-01-20 18:10:20.106363	169.5	74.7	-73.0	6.8
2026-01-20 18:10:22.358599	170.1	75.8	-72.1	7.3
2026-01-20 18:10:24.612052	170.8	76.9	-71.6	10.3
2026-01-20 18:10:26.865881	171.6	78.1	-71.8	9.6
2026-01-20 18:10:29.119248	172.6	79.2	-71.2	9.0
2026-01-20 18:10:31.376072	173.8	80.3	-72.0	10.0
2026-01-20 18:10:33.631248	175.3	81.4	-71.6	10.3
2026-01-20 18:10:35.886346	177.3	82.5	-71.4	8.4
2026-01-20 18:10:38.137939	180.0	83.6	-71.0	7.7
2026-01-20 18:10:40.392300	183.8	84.7	-71.2	7.9
2026-01-20 18:10:42.648322	189.6	85.8	-71.4	7.7
2026-01-20 18:10:44.899711	199.2	86.8	-70.3	5.6
2026-01-20 18:10:47.151015	216.4	87.6	-70.0	6.3
2026-01-20 18:10:49.405194	245.9	88.1	-71.3	7.7
2026-01-20 18:10:51.658276	279.0	87.9	-72.1	7.3
2026-01-20 18:10:53.913616	300.6	87.1	-71.9	8.8
2026-01-20 18:10:56.163770	312.5	86.2	-70.0	6.7
2026-01-20 18:10:58.417668	319.5	85.2	-70.4	6.0
2026-01-20 18:11:00.669723	323.9	84.1	-71.8	6.8
2026-01-20 18:11:02.927490	327.0	83.0	-70.4	6.4
2026-01-20 18:11:05.181580	329.2	81.8	-69.7	7.4
2026-01-20 18:11:07.437400	330.9	80.7	-69.5	5.3
2026-01-20 18:11:09.690728	332.2	79.6	-70.8	6.8
2026-01-20 18:11:11.942515	333.2	78.5	-69.5	3.9
2026-01-20 18:11:14.196319	334.1	77.4	-69.9	4.4
2026-01-20 18:11:16.450466	334.8	76.3	-69.2	3.4
2026-01-20 18:11:18.705548	335.4	75.2	-70.7	7.2
2026-01-20 18:11:20.961820	336.0	74.1	-70.6	4.7
2026-01-20 18:11:23.212959	336.4	73.0	-69.8	2.1
2026-01-20 18:11:25.465777	336.8	71.9	-70.5	0.6
2026-01-20 18:11:27.718703	337.2	70.8	-70.7	5.3
2026-01-20 18:11:29.971959	337.5	69.8	-71.3	6.3
2026-01-20 18:11:32.222544	337.8	68.7	-69.2	2.2
2026-01-20 18:11:34.477368	338.0	67.7	-69.9	2.6
2026-01-20 18:11:36.729407	338.3	66.7	-70.4	4.8
2026-01-20 18:11:38.980221	338.5	65.7	-70.1	5.8
2026-01-20 18:11:41.233968	338.7	64.7	-69.6	7.4
2026-01-20 18:11:43.489467	338.9	63.7	-70.2	7.0
2026-01-20 18:11:45.741739	339.0	62.7	-70.2	7.6
2026-01-20 18:11:47.993837	339.2	61.8	-71.0	9.1
2026-01-20 18:11:50.246475	339.3	60.8	-70.2	6.1
2026-01-20 18:11:52.501498	339.5	59.9	-70.0	7.1
2026-01-20 18:11:54.754248	339.6	59.0	-71.4	7.9
2026-01-20 18:11:57.009055	339.7	58.1	-71.0	8.1
2026-01-20 18:11:59.260776	339.8	57.2	-70.9	5.0
2026-01-20 18:12:01.514860	339.9	56.3	-70.5	5.4
2026-01-20 18:12:03.767559	340.0	55.5	-70.2	5.2
2026-01-20 18:12:06.022225	340.1	54.6	-70.3	7.4
2026-01-20 18:12:08.276254	340.2	53.8	-69.8	7.2
2026-01-20 18:12:10.528090	340.3	53.0	-70.5	8.7
2026-01-20 18:12:12.781063	340.4	52.2	-69.6	8.5
2026-01-20 18:12:15.034516	340.4	51.4	-69.6	6.5
2026-01-20 18:12:17.287394	340.5	50.6	-69.1	6.8
2026-01-20 18:12:19.543244	340.6	49.8	-69.4	6.8
2026-01-20 18:12:21.798022	340.6	49.1	-70.4	8.7
2026-01-20 18:12:24.049392	340.7	48.3	-71.1	8.1
2026-01-20 18:12:26.302141	340.8	47.6	-71.4	8.3
2026-01-20 18:12:28.553926	340.8	46.9	-70.2	6.7
2026-01-20 18:12:30.812825	340.9	46.2	-69.6	4.1
2026-01-20 18:12:33.064513	340.9	45.5	-69.9	7.2
2026-01-20 18:12:35.324485	341.0	44.8	-69.8	4.2
2026-01-20 18:12:37.577826	341.0	44.1	-68.9	4.1
2026-01-20 18:12:39.829609	341.1	43.5	-68.7	3.1
2026-01-20 18:12:42.084748	341.1	42.8	-68.4	2.6
2026-01-20 18:12:44.339317	341.2	42.2	-69.2	4.8
2026-01-20 18:12:46.591176	341.2	41.6	-69.1	3.5
2026-01-20 18:12:48.842228	341.3	40.9	-68.8	4.8
2026-01-20 18:12:51.095051	341.3	40.3	-67.9	3.9
2026-01-20 18:12:53.349490	341.3	39.7	-68.6	4.9
2026-01-20 18:12:55.600449	341.4	39.2	-66.6	0.0
2026-01-20 18:12:57.852514	341.4	38.6	-67.0	0.0
2026-01-20 18:13:00.106896	341.4	38.0	-66.9	0.0
2026-01-20 18:13:02.360035	341.5	37.5	-68.0	0.5
2026-01-20 18:13:04.610566	341.5	36.9	-66.3	0.0
2026-01-20 18:13:06.865509	341.6	36.4	-67.7	0.0
2026-01-20 18:13:09.116005	341.6	35.9	-67.2	0.0
2026-01-20 18:13:11.367458	341.6	35.3	-67.1	0.0
2026-01-20 18:13:13.618593	341.6	34.8	-66.4	0.0
2026-01-20 18:13:15.871984	341.7	34.3	-65.4	0.0
2026-01-20 18:13:18.124626	341.7	33.8	-65.8	0.0
2026-01-20 18:13:20.382041	341.7	33.3	-66.2	0.0
2026-01-20 18:13:22.633739	341.8	32.9	-66.5	0.0
2026-01-20 18:13:24.887858	341.8	32.4	-65.6	0.0
2026-01-20 18:13:27.142263	341.8	31.9	-66.6	0.0
2026-01-20 18:13:29.398634	341.9	31.5	-66.5	0.0
2026-01-20 18:13:31.653056	341.9	31.0	-66.6	0.0
2026-01-20 18:13:33.905248	341.9	30.6	-66.4	0.0
2026-01-20 18:13:36.158445	341.9	30.1	-65.8	0.0
2026-01-20 18:13:38.415726	342.0	29.7	-65.6	0.0
2026-01-20 18:13:40.671802	342.0	29.3	-64.9	0.0
2026-01-20 18:13:42.925450	342.0	28.9	-64.3	0.0
2026-01-20 18:13:45.176802	342.0	28.5	-64.1	0.0
2026-01-20 18:13:47.428106	342.1	28.0	-65.4	0.0
2026-01-20 18:13:49.680364	342.1	27.6	-63.2	0.0
2026-01-20 18:13:51.932156	342.1	27.3	-64.1	0.0
2026-01-20 18:13:54.187680	342.1	26.9	-64.8	0.0
2026-01-20 18:13:56.440312	342.1	26.5	-65.4	0.0
2026-01-20 18:13:58.693101	342.2	26.1	-65.2	0.0
2026-01-20 18:14:00.945821	342.2	25.7	-65.4	0.0
2026-01-20 18:14:03.200221	342.2	25.4	-64.2	0.0
2026-01-20 18:14:05.451323	342.2	25.0	-64.0	0.0
2026-01-20 18:14:07.705160	342.3	24.7	-65.0	0.0
2026-01-20 18:14:09.961242	342.3	24.3	-66.5	0.0
2026-01-20 18:14:12.215086	342.3	24.0	-62.4	0.0
2026-01-20 18:14:14.468325	342.3	23.6	-65.0	0.0
2026-01-20 18:14:16.722068	342.3	23.3	-64.1	0.0
2026-01-20 18:14:18.975494	342.4	22.9	-62.5	0.0
2026-01-20 18:14:21.235182	342.4	22.6	-61.9	0.0
2026-01-20 18:14:23.487935	342.4	22.3	-62.0	0.0
2026-01-20 18:14:25.739608	342.4	22.0	-64.7	0.0
2026-01-20 18:14:27.991853	342.4	21.6	-64.9	0.0
2026-01-20 18:14:30.243743	342.4	21.3	-64.5	0.0
2026-01-20 18:14:32.495046	342.5	21.0	-64.4	0.0
2026-01-20 18:14:34.747383	342.5	20.7	-62.7	0.0
2026-01-20 18:14:37.003220	342.5	20.4	-64.0	0.0
2026-01-20 18:14:39.256884	342.5	20.1	-63.6	0.0
2026-01-20 18:14:41.509221	342.5	19.8	-63.4	0.0
2026-01-20 18:14:43.761562	342.6	19.5	-65.3	0.0
2026-01-20 18:14:46.015702	342.6	19.2	-62.1	0.0
2026-01-20 18:14:48.268562	342.6	19.0	-64.9	0.0
2026-01-20 18:14:50.521362	342.6	18.7	-64.3	0.0
2026-01-20 18:14:52.776980	342.6	18.4	-66.0	0.0
2026-01-20 18:14:55.030284	342.6	18.1	-63.1	0.0
2026-01-20 18:14:57.285475	342.7	17.9	-64.9	0.0
2026-01-20 18:14:59.543258	342.7	17.6	-64.6	0.0
2026-01-20 18:15:01.797535	342.7	17.3	-65.5	0.0
2026-01-20 18:15:04.050497	342.7	17.1	-64.1	0.0
2026-01-20 18:15:06.302607	342.7	16.8	-67.4	0.0
2026-01-20 18:15:08.555752	342.7	16.5	-66.7	0.0
2026-01-20 18:15:10.808161	342.8	16.3	-66.5	0.0
2026-01-20 18:15:13.065262	342.8	16.0	-66.2	0.0
2026-01-20 18:15:15.318290	342.8	15.8	-65.8	0.0
2026-01-20 18:15:17.575182	342.8	15.5	-65.5	0.0
2026-01-20 18:15:19.827343	342.8	15.3	-65.8	0.0
2026-01-20 18:15:22.080391	342.8	15.1	-65.4	0.0
2026-01-20 18:15:24.333101	342.8	14.8	-65.8	0.0
2026-01-20 18:15:26.585809	342.9	14.6	-65.8	0.0
2026-01-20 18:15:28.840015	342.9	14.3	-66.7	0.0
2026-01-20 18:15:31.094053	342.9	14.1	-66.8	0.0
2026-01-20 18:15:33.347419	342.9	13.9	-66.2	0.0
2026-01-20 18:15:35.600129	342.9	13.6	-66.4	0.0
2026-01-20 18:15:37.852802	342.9	13.4	-66.4	0.0
2026-01-20 18:15:40.107008	343.0	13.2	-66.5	0.0
2026-01-20 18:15:42.361009	343.0	13.0	-66.4	0.0
2026-01-20 18:15:44.612986	343.0	12.8	-65.8	0.0
2026-01-20 18:15:46.865162	343.0	12.5	-66.8	0.0
2026-01-20 18:15:49.117646	343.0	12.3	-67.1	0.0
2026-01-20 18:15:51.370314	343.0	12.1	-66.8	0.0
2026-01-20 18:15:53.621232	343.0	11.9	-66.5	0.0
2026-01-20 18:15:55.876430	343.1	11.7	-66.7	0.0
2026-01-20 18:15:58.130669	343.1	11.5	-66.1	0.0
2026-01-20 18:16:00.382185	343.1	11.3	-66.2	0.0
2026-01-20 18:16:02.633807	343.1	11.1	-66.4	0.0
2026-01-20 18:16:04.887523	343.1	10.9	-65.5	0.0
2026-01-20 18:16:07.140215	343.1	10.7	-64.1	0.0
2026-01-20 18:16:09.395735	343.1	10.5	-66.2	0.0
2026-01-20 18:16:11.649027	343.2	10.3	-67.9	0.0
2026-01-20 18:16:13.900416	343.2	10.1	-71.7	0.0
#Closed at: 2026-01-20 18:05:22.287908