passes_logs/2026/01/20/planumMaritime01/planumMaritime01__20260120_073717_METOP-B_rec.log

#Pass ID: 20260120_073717_METOP-B
#Satellite: METOP-B
#Configuration: METOP-B
#Start time: 2026-01-20 07:37:22.824594

#LorettStation: 1.0.0 05.05.2024
#Station: planumMaritime01
#Location: 37.49445 lon 55.92918 lat
#TLE: 1 38771U 12049A   26019.94551733  .00000167  00000+0  96318-4 0  9991
#TLE: 2 38771  98.6740  74.2464 0003159  66.7138 293.4371 14.21424229692207

#Time	Az	El	Level	SNR
2026-01-20 07:37:25.002644	12.8	10.2	-64.5	0.0
2026-01-20 07:37:27.256505	12.7	10.4	-64.4	0.0
2026-01-20 07:37:29.510361	12.6	10.6	-62.2	0.0
2026-01-20 07:37:31.762117	12.6	10.8	-63.5	0.0
2026-01-20 07:37:34.015761	12.5	11.0	-61.5	0.0
2026-01-20 07:37:36.269800	12.5	11.2	-60.1	0.0
2026-01-20 07:37:38.520466	12.4	11.4	-59.9	0.0
2026-01-20 07:37:40.773357	12.4	11.6	-61.9	0.0
2026-01-20 07:37:43.028103	12.3	11.8	-61.6	0.0
2026-01-20 07:37:45.280825	12.2	12.0	-59.6	0.0
2026-01-20 07:37:47.534485	12.2	12.2	-61.5	0.0
2026-01-20 07:37:49.788563	12.1	12.4	-62.6	0.0
2026-01-20 07:37:52.042258	12.1	12.7	-61.4	0.0
2026-01-20 07:37:54.294861	12.0	12.9	-61.4	0.0
2026-01-20 07:37:56.549072	11.9	13.1	-62.6	0.0
2026-01-20 07:37:58.802896	11.9	13.3	-59.9	0.0
2026-01-20 07:38:01.055717	11.8	13.5	-62.1	0.0
2026-01-20 07:38:03.311336	11.7	13.8	-61.7	0.0
2026-01-20 07:38:05.564280	11.7	14.0	-62.6	0.0
2026-01-20 07:38:07.820140	11.6	14.2	-62.7	0.0
2026-01-20 07:38:10.074114	11.5	14.4	-63.9	0.0
2026-01-20 07:38:12.325515	11.4	14.7	-62.7	0.0
2026-01-20 07:38:14.579584	11.4	14.9	-62.4	0.0
2026-01-20 07:38:16.832441	11.3	15.2	-62.3	0.0
2026-01-20 07:38:19.088192	11.2	15.4	-61.9	0.0
2026-01-20 07:38:21.343181	11.1	15.6	-63.1	0.0
2026-01-20 07:38:23.599455	11.1	15.9	-63.0	0.0
2026-01-20 07:38:25.854950	11.0	16.1	-62.2	0.0
2026-01-20 07:38:28.108263	10.9	16.4	-61.9	0.0
2026-01-20 07:38:30.360511	10.8	16.6	-62.9	0.0
2026-01-20 07:38:32.611724	10.7	16.9	-62.0	0.0
2026-01-20 07:38:34.861960	10.6	17.1	-60.0	0.0
2026-01-20 07:38:37.116677	10.5	17.4	-60.8	0.0
2026-01-20 07:38:39.367507	10.4	17.7	-62.3	0.0
2026-01-20 07:38:41.622507	10.3	17.9	-63.4	0.0
2026-01-20 07:38:43.877118	10.3	18.2	-63.0	0.0
2026-01-20 07:38:46.131794	10.2	18.5	-62.8	0.0
2026-01-20 07:38:48.385975	10.1	18.7	-63.7	0.0
2026-01-20 07:38:50.641465	10.0	19.0	-61.7	0.0
2026-01-20 07:38:52.895877	9.9	19.3	-62.7	0.0
2026-01-20 07:38:55.146130	9.7	19.6	-60.0	0.0
2026-01-20 07:38:57.399054	9.6	19.9	-62.4	0.0
2026-01-20 07:38:59.652984	9.5	20.2	-63.3	0.0
2026-01-20 07:39:01.905851	9.4	20.5	-63.8	0.0
2026-01-20 07:39:04.159690	9.3	20.8	-62.2	0.0
2026-01-20 07:39:06.412387	9.2	21.1	-61.1	0.0
2026-01-20 07:39:08.663548	9.1	21.4	-63.0	0.0
2026-01-20 07:39:10.916136	8.9	21.7	-63.1	0.0
2026-01-20 07:39:13.170853	8.8	22.0	-62.2	0.0
2026-01-20 07:39:15.421584	8.7	22.3	-61.0	0.0
2026-01-20 07:39:17.673472	8.6	22.6	-61.7	0.0
2026-01-20 07:39:19.927173	8.4	22.9	-62.2	0.0
2026-01-20 07:39:22.183895	8.3	23.3	-61.6	0.0
2026-01-20 07:39:24.436856	8.2	23.6	-61.5	0.0
2026-01-20 07:39:26.692611	8.0	23.9	-62.4	0.0
2026-01-20 07:39:28.948657	7.9	24.3	-63.5	0.0
2026-01-20 07:39:31.203340	7.7	24.6	-65.0	0.0
2026-01-20 07:39:33.459316	7.6	25.0	-63.0	0.0
2026-01-20 07:39:35.715342	7.4	25.3	-62.7	0.0
2026-01-20 07:39:37.973189	7.3	25.7	-64.5	0.0
2026-01-20 07:39:40.227711	7.1	26.0	-63.3	0.0
2026-01-20 07:39:42.480796	6.9	26.4	-63.8	0.0
2026-01-20 07:39:44.735479	6.8	26.8	-63.6	0.0
2026-01-20 07:39:46.991327	6.6	27.1	-63.1	0.0
2026-01-20 07:39:49.244289	6.4	27.5	-62.8	0.0
2026-01-20 07:39:51.501268	6.2	27.9	-62.3	0.0
2026-01-20 07:39:53.756018	6.0	28.3	-58.8	0.0
2026-01-20 07:39:56.009741	5.8	28.7	-62.7	0.0
2026-01-20 07:39:58.263525	5.6	29.1	-63.3	0.0
2026-01-20 07:40:00.519559	5.4	29.5	-62.4	0.0
2026-01-20 07:40:02.770816	5.2	29.9	-63.0	0.0
2026-01-20 07:40:05.026043	5.0	30.3	-65.8	0.0
2026-01-20 07:40:07.282479	4.8	30.7	-62.1	0.0
2026-01-20 07:40:09.532750	4.6	31.2	-62.3	0.0
2026-01-20 07:40:11.786635	4.3	31.6	-64.2	0.0
2026-01-20 07:40:14.039394	4.1	32.0	-63.7	0.0
2026-01-20 07:40:16.293252	3.8	32.5	-62.8	0.0
2026-01-20 07:40:18.547110	3.6	32.9	-64.2	0.0
2026-01-20 07:40:20.800865	3.3	33.4	-64.0	0.0
2026-01-20 07:40:23.055939	3.0	33.9	-65.8	0.0
2026-01-20 07:40:25.308544	2.8	34.3	-65.4	0.0
2026-01-20 07:40:27.561536	2.5	34.8	-66.5	0.0
2026-01-20 07:40:29.815467	2.2	35.3	-66.8	0.0
2026-01-20 07:40:32.069139	1.9	35.8	-65.2	0.0
2026-01-20 07:40:34.322530	1.6	36.3	-65.8	0.0
2026-01-20 07:40:36.575873	1.2	36.8	-61.8	0.0
2026-01-20 07:40:38.830214	0.9	37.3	-64.8	0.0
2026-01-20 07:40:41.083373	0.6	37.8	-66.4	0.0
2026-01-20 07:40:43.337457	0.2	38.3	-66.0	0.0
2026-01-20 07:40:45.591026	359.8	38.9	-66.7	0.0
2026-01-20 07:40:47.842736	359.5	39.4	-66.7	0.0
2026-01-20 07:40:50.096017	359.1	40.0	-67.0	0.0
2026-01-20 07:40:52.347315	358.6	40.5	-68.0	1.5
2026-01-20 07:40:54.601309	358.2	41.1	-68.4	1.6
2026-01-20 07:40:56.855055	357.8	41.6	-69.0	3.8
2026-01-20 07:40:59.107459	357.3	42.2	-69.9	4.9
2026-01-20 07:41:01.361099	356.9	42.8	-70.0	4.6
2026-01-20 07:41:03.615857	356.4	43.4	-68.6	0.0
2026-01-20 07:41:05.866938	355.9	44.0	-69.5	4.0
2026-01-20 07:41:08.122041	355.3	44.6	-68.8	5.3
2026-01-20 07:41:10.373334	354.8	45.2	-69.2	2.2
2026-01-20 07:41:12.625682	354.2	45.8	-68.7	1.3
2026-01-20 07:41:14.877596	353.6	46.4	-69.8	5.5
2026-01-20 07:41:17.129438	353.0	47.0	-70.1	4.4
2026-01-20 07:41:19.381785	352.4	47.7	-65.9	0.0
2026-01-20 07:41:21.638044	351.7	48.3	-70.4	6.7
2026-01-20 07:41:23.889600	351.0	49.0	-70.7	6.2
2026-01-20 07:41:26.141058	350.3	49.6	-70.7	8.1
2026-01-20 07:41:28.392004	349.5	50.3	-71.2	7.8
2026-01-20 07:41:30.643892	348.7	50.9	-68.7	4.2
2026-01-20 07:41:32.895698	347.9	51.6	-69.9	6.2
2026-01-20 07:41:35.148740	347.0	52.2	-69.1	4.7
2026-01-20 07:41:37.401558	346.1	52.9	-68.5	3.6
2026-01-20 07:41:39.659464	345.1	53.5	-68.6	2.5
2026-01-20 07:41:41.913642	344.1	54.2	-71.6	7.7
2026-01-20 07:41:44.164701	343.1	54.9	-70.9	5.1
2026-01-20 07:41:46.416394	342.0	55.5	-69.5	5.5
2026-01-20 07:41:48.670167	340.9	56.2	-71.6	6.9
2026-01-20 07:41:50.923371	339.6	56.8	-71.8	7.9
2026-01-20 07:41:53.179181	338.4	57.5	-71.7	6.5
2026-01-20 07:41:55.429597	337.1	58.1	-71.8	4.8
2026-01-20 07:41:57.685474	335.7	58.8	-72.7	7.0
2026-01-20 07:41:59.937575	334.2	59.4	-71.5	5.4
2026-01-20 07:42:02.189223	332.7	60.0	-71.5	6.6
2026-01-20 07:42:04.446135	331.1	60.6	-71.8	8.4
2026-01-20 07:42:06.700007	329.4	61.2	-70.6	4.6
2026-01-20 07:42:08.952191	327.6	61.8	-71.0	6.6
2026-01-20 07:42:11.209168	325.8	62.3	-70.3	4.6
2026-01-20 07:42:13.461368	323.9	62.8	-71.4	6.8
2026-01-20 07:42:15.714211	321.9	63.3	-71.0	6.7
2026-01-20 07:42:17.966910	319.8	63.8	-69.2	4.0
2026-01-20 07:42:20.221189	317.6	64.2	-68.3	0.0
2026-01-20 07:42:22.472607	315.3	64.6	-70.1	5.7
2026-01-20 07:42:24.725907	313.0	65.0	-70.7	5.1
2026-01-20 07:42:26.981372	310.6	65.4	-70.4	3.7
2026-01-20 07:42:29.236223	308.1	65.7	-70.9	4.3
2026-01-20 07:42:31.491033	305.5	65.9	-70.6	5.0
2026-01-20 07:42:33.745120	302.9	66.1	-71.6	4.4
2026-01-20 07:42:35.998600	300.3	66.3	-71.6	5.5
2026-01-20 07:42:38.252965	297.6	66.4	-71.4	5.2
2026-01-20 07:42:40.505531	294.9	66.5	-71.9	5.8
2026-01-20 07:42:42.761719	292.1	66.5	-72.1	5.4
2026-01-20 07:42:45.014246	289.4	66.5	-71.1	4.1
2026-01-20 07:42:47.265319	286.7	66.4	-72.0	6.7
2026-01-20 07:42:49.519464	284.0	66.3	-71.6	7.7
2026-01-20 07:42:51.771172	281.4	66.1	-71.6	8.2
2026-01-20 07:42:54.023227	278.7	65.9	-70.6	3.3
2026-01-20 07:42:56.275809	276.2	65.7	-69.8	6.8
2026-01-20 07:42:58.527677	273.7	65.4	-71.0	6.6
2026-01-20 07:43:00.780327	271.3	65.0	-72.3	9.4
2026-01-20 07:43:03.033612	268.9	64.7	-72.1	8.0
2026-01-20 07:43:05.286968	266.7	64.2	-73.0	9.8
2026-01-20 07:43:07.544115	264.5	63.8	-72.7	9.2
2026-01-20 07:43:09.796983	262.4	63.3	-73.4	10.1
2026-01-20 07:43:12.051484	260.4	62.8	-73.4	9.4
2026-01-20 07:43:14.306047	258.4	62.3	-73.2	8.6
2026-01-20 07:43:16.556255	256.6	61.8	-73.2	7.0
2026-01-20 07:43:18.809101	254.8	61.2	-73.4	9.5
2026-01-20 07:43:21.061771	253.1	60.6	-73.4	9.5
2026-01-20 07:43:23.315765	251.5	60.0	-73.6	9.4
2026-01-20 07:43:25.566327	250.0	59.4	-73.7	10.9
2026-01-20 07:43:27.819715	248.5	58.8	-73.8	10.3
2026-01-20 07:43:30.071153	247.2	58.1	-73.9	9.6
2026-01-20 07:43:32.326302	245.8	57.5	-73.6	9.6
2026-01-20 07:43:34.579144	244.6	56.8	-73.8	9.9
2026-01-20 07:43:36.830530	243.4	56.2	-73.9	9.9
2026-01-20 07:43:39.083148	242.2	55.5	-74.2	9.8
2026-01-20 07:43:41.338298	241.1	54.9	-73.6	9.6
2026-01-20 07:43:43.592804	240.1	54.2	-74.2	10.1
2026-01-20 07:43:45.843084	239.1	53.5	-73.8	11.2
2026-01-20 07:43:48.095361	238.1	52.9	-73.9	10.1
2026-01-20 07:43:50.347542	237.2	52.2	-73.5	9.6
2026-01-20 07:43:52.600976	236.3	51.6	-73.9	10.1
2026-01-20 07:43:54.853758	235.5	50.9	-73.6	10.1
2026-01-20 07:43:57.108222	234.7	50.2	-73.5	10.2
2026-01-20 07:43:59.360039	233.9	49.6	-73.6	10.6
2026-01-20 07:44:01.612711	233.2	48.9	-73.5	11.4
2026-01-20 07:44:03.866029	232.5	48.3	-73.5	11.0
2026-01-20 07:44:06.120765	231.8	47.7	-73.6	11.0
2026-01-20 07:44:08.372627	231.2	47.0	-73.4	9.2
2026-01-20 07:44:10.625378	230.5	46.4	-73.7	10.1
2026-01-20 07:44:12.877681	229.9	45.8	-73.4	10.1
2026-01-20 07:44:15.132171	229.4	45.2	-73.6	9.4
2026-01-20 07:44:17.382981	228.8	44.5	-74.0	9.8
2026-01-20 07:44:19.636868	228.3	43.9	-73.8	9.4
2026-01-20 07:44:21.888331	227.8	43.3	-73.5	10.7
2026-01-20 07:44:24.140430	227.3	42.8	-73.6	11.3
2026-01-20 07:44:26.394751	226.8	42.2	-73.2	11.2
2026-01-20 07:44:28.646555	226.4	41.6	-74.1	10.9
2026-01-20 07:44:30.900655	225.9	41.0	-74.1	11.3
2026-01-20 07:44:33.153497	225.5	40.5	-73.9	10.6
2026-01-20 07:44:35.406824	225.1	39.9	-74.1	11.5
2026-01-20 07:44:37.660087	224.7	39.4	-74.2	11.7
2026-01-20 07:44:39.915158	224.3	38.8	-74.3	10.9
2026-01-20 07:44:42.168608	223.9	38.3	-74.4	10.6
2026-01-20 07:44:44.421549	223.6	37.8	-74.2	10.2
2026-01-20 07:44:46.673595	223.2	37.2	-74.5	9.7
2026-01-20 07:44:48.926218	222.9	36.7	-74.5	10.7
2026-01-20 07:44:51.177810	222.6	36.2	-74.4	10.9
2026-01-20 07:44:53.428144	222.3	35.7	-74.6	10.4
2026-01-20 07:44:55.681085	221.9	35.2	-74.4	10.4
2026-01-20 07:44:57.932771	221.7	34.7	-74.6	11.1
2026-01-20 07:45:00.185278	221.4	34.3	-74.3	10.1
2026-01-20 07:45:02.436258	221.1	33.8	-74.1	10.8
2026-01-20 07:45:04.687582	220.8	33.3	-73.6	10.8
2026-01-20 07:45:06.937787	220.5	32.9	-73.6	9.7
2026-01-20 07:45:09.185988	220.3	32.4	-74.3	9.8
2026-01-20 07:45:11.437043	220.0	32.0	-73.8	8.6
2026-01-20 07:45:13.687923	219.8	31.5	-73.9	8.6
2026-01-20 07:45:15.942229	219.6	31.1	-73.8	9.5
2026-01-20 07:45:18.192680	219.3	30.7	-73.7	9.3
2026-01-20 07:45:20.444996	219.1	30.2	-72.1	6.2
2026-01-20 07:45:22.696673	218.9	29.8	-73.3	8.9
2026-01-20 07:45:24.947874	218.7	29.4	-73.2	8.7
2026-01-20 07:45:27.202338	218.5	29.0	-73.0	6.3
2026-01-20 07:45:29.456287	218.3	28.6	-73.6	6.8
2026-01-20 07:45:31.710780	218.1	28.2	-73.2	5.8
2026-01-20 07:45:33.962722	217.9	27.8	-73.2	6.1
2026-01-20 07:45:36.216403	217.7	27.4	-73.5	7.5
2026-01-20 07:45:38.468218	217.5	27.0	-72.1	3.4
2026-01-20 07:45:40.722418	217.4	26.7	-71.7	5.1
2026-01-20 07:45:42.975746	217.2	26.3	-72.4	4.4
2026-01-20 07:45:45.226125	217.0	25.9	-72.7	2.7
2026-01-20 07:45:47.478517	216.8	25.6	-72.7	5.0
2026-01-20 07:45:49.728555	216.7	25.2	-72.6	3.7
2026-01-20 07:45:51.981940	216.5	24.9	-72.1	2.6
2026-01-20 07:45:54.235807	216.4	24.5	-71.8	3.5
2026-01-20 07:45:56.491207	216.2	24.2	-72.2	2.0
2026-01-20 07:45:58.745395	216.1	23.8	-71.9	1.9
2026-01-20 07:46:00.997231	215.9	23.5	-72.0	4.2
2026-01-20 07:46:03.251024	215.8	23.2	-72.4	4.0
2026-01-20 07:46:05.504139	215.7	22.8	-72.7	3.8
2026-01-20 07:46:07.759670	215.5	22.5	-72.8	1.6
2026-01-20 07:46:10.014255	215.4	22.2	-71.9	0.3
2026-01-20 07:46:12.267431	215.3	21.9	-71.9	0.0
2026-01-20 07:46:14.522226	215.1	21.6	-71.9	0.0
2026-01-20 07:46:16.775088	215.0	21.2	-71.5	0.0
2026-01-20 07:46:19.027763	214.9	20.9	-70.7	0.0
2026-01-20 07:46:21.280825	214.8	20.6	-71.1	0.0
2026-01-20 07:46:23.531616	214.7	20.3	-71.6	0.0
2026-01-20 07:46:25.783316	214.5	20.1	-70.8	0.0
2026-01-20 07:46:28.035767	214.4	19.8	-71.8	0.0
2026-01-20 07:46:30.289653	214.3	19.5	-69.9	0.0
2026-01-20 07:46:32.544792	214.2	19.2	-71.4	0.0
2026-01-20 07:46:34.798402	214.1	18.9	-71.6	0.0
2026-01-20 07:46:37.049816	214.0	18.6	-71.6	0.0
2026-01-20 07:46:39.302156	213.9	18.4	-72.0	0.0
2026-01-20 07:46:41.556335	213.8	18.1	-71.1	0.0
2026-01-20 07:46:43.806721	213.7	17.8	-70.8	0.0
2026-01-20 07:46:46.062492	213.6	17.5	-71.1	0.0
2026-01-20 07:46:48.315329	213.5	17.3	-71.0	0.0
2026-01-20 07:46:50.565628	213.4	17.0	-71.1	0.0
2026-01-20 07:46:52.816517	213.3	16.8	-70.8	0.0
2026-01-20 07:46:55.065546	213.3	16.5	-70.4	0.0
2026-01-20 07:46:57.315344	213.2	16.3	-70.2	0.0
2026-01-20 07:46:59.566171	213.1	16.0	-71.7	0.0
2026-01-20 07:47:01.818815	213.0	15.8	-71.3	0.0
2026-01-20 07:47:04.074722	212.9	15.5	-71.0	0.0
2026-01-20 07:47:06.328930	212.8	15.3	-71.2	0.0
2026-01-20 07:47:08.582368	212.8	15.0	-71.3	0.0
2026-01-20 07:47:10.838444	212.7	14.8	-70.6	0.0
2026-01-20 07:47:13.089153	212.6	14.6	-71.4	0.0
2026-01-20 07:47:15.337211	212.5	14.3	-71.4	0.0
2026-01-20 07:47:17.588515	212.4	14.1	-71.8	0.0
2026-01-20 07:47:19.846188	212.4	13.9	-71.1	0.0
2026-01-20 07:47:22.094588	212.3	13.6	-70.7	0.0
2026-01-20 07:47:24.352069	212.2	13.4	-71.3	0.0
2026-01-20 07:47:26.605570	212.2	13.2	-70.4	0.0
2026-01-20 07:47:28.857633	212.1	13.0	-70.3	0.0
2026-01-20 07:47:31.111342	212.0	12.7	-70.5	0.0
2026-01-20 07:47:33.362508	212.0	12.5	-71.0	0.0
2026-01-20 07:47:35.614224	211.9	12.3	-71.6	0.0
2026-01-20 07:47:37.866168	211.8	12.1	-71.1	0.0
2026-01-20 07:47:40.119420	211.8	11.9	-71.8	0.0
2026-01-20 07:47:42.369221	211.7	11.7	-71.7	0.0
2026-01-20 07:47:44.621038	211.6	11.5	-70.7	0.0
2026-01-20 07:47:46.872270	211.6	11.3	-71.7	0.0
2026-01-20 07:47:49.121575	211.5	11.1	-71.3	0.0
2026-01-20 07:47:51.372697	211.5	10.8	-73.6	0.0
2026-01-20 07:47:53.627174	211.4	10.6	-78.6	0.0
2026-01-20 07:47:55.879707	211.4	10.4	-78.6	0.0
2026-01-20 07:47:58.131901	211.3	10.2	-79.6	0.0
2026-01-20 07:48:00.383467	211.2	10.1	-79.1	0.0
#Closed at: 2026-01-20 07:37:17.833224