passes_logs/2026/01/20/planumMaritime01/planumMaritime01__20260120_172707_METOP-B_rec.log

#Pass ID: 20260120_172707_METOP-B
#Satellite: METOP-B
#Configuration: METOP-B
#Start time: 2026-01-20 17:27:12.879002

#LorettStation: 1.0.0 05.05.2024
#Station: planumMaritime01
#Location: 37.49445 lon 55.92918 lat
#TLE: 1 38771U 12049A   26019.94551733  .00000167  00000+0  96318-4 0  9991
#TLE: 2 38771  98.6740  74.2464 0003159  66.7138 293.4371 14.21424229692207

#Time	Az	El	Level	SNR
2026-01-20 17:27:15.047230	158.2	10.2	-74.7	0.0
2026-01-20 17:27:17.298117	158.1	10.4	-73.4	0.0
2026-01-20 17:27:19.549378	158.1	10.6	-73.0	0.0
2026-01-20 17:27:21.800843	158.1	10.8	-72.5	0.0
2026-01-20 17:27:24.054974	158.1	11.0	-72.3	0.0
2026-01-20 17:27:26.305336	158.1	11.2	-72.3	0.0
2026-01-20 17:27:28.555032	158.1	11.4	-72.5	0.0
2026-01-20 17:27:30.809322	158.1	11.6	-72.3	0.0
2026-01-20 17:27:33.061633	158.1	11.8	-71.9	0.0
2026-01-20 17:27:35.315405	158.1	12.1	-72.7	0.3
2026-01-20 17:27:37.566214	158.1	12.3	-72.1	1.8
2026-01-20 17:27:39.819929	158.0	12.5	-72.7	2.2
2026-01-20 17:27:42.072106	158.0	12.7	-72.2	2.1
2026-01-20 17:27:44.325472	158.0	12.9	-73.0	4.6
2026-01-20 17:27:46.579372	158.0	13.2	-71.9	1.0
2026-01-20 17:27:48.832126	158.0	13.4	-72.5	1.6
2026-01-20 17:27:51.083720	158.0	13.6	-72.2	0.2
2026-01-20 17:27:53.337552	158.0	13.8	-72.1	1.6
2026-01-20 17:27:55.589449	158.0	14.1	-72.9	3.4
2026-01-20 17:27:57.839406	157.9	14.3	-72.9	3.1
2026-01-20 17:28:00.091293	157.9	14.5	-73.2	2.5
2026-01-20 17:28:02.340408	157.9	14.8	-72.4	2.0
2026-01-20 17:28:04.597332	157.9	15.0	-72.1	0.4
2026-01-20 17:28:06.851063	157.9	15.3	-73.1	2.4
2026-01-20 17:28:09.102340	157.9	15.5	-72.4	3.7
2026-01-20 17:28:11.357309	157.9	15.8	-71.9	1.1
2026-01-20 17:28:13.612821	157.8	16.0	-72.5	4.3
2026-01-20 17:28:15.865512	157.8	16.3	-73.0	3.6
2026-01-20 17:28:18.117288	157.8	16.5	-72.5	2.7
2026-01-20 17:28:20.374374	157.8	16.8	-73.0	3.9
2026-01-20 17:28:22.628131	157.8	17.0	-73.2	3.5
2026-01-20 17:28:24.875974	157.8	17.3	-73.3	3.8
2026-01-20 17:28:27.129534	157.7	17.6	-73.1	2.2
2026-01-20 17:28:29.381387	157.7	17.9	-72.6	2.2
2026-01-20 17:28:31.636704	157.7	18.1	-72.0	1.8
2026-01-20 17:28:33.892711	157.7	18.4	-72.6	5.0
2026-01-20 17:28:36.146500	157.7	18.7	-72.8	4.1
2026-01-20 17:28:38.399401	157.6	19.0	-72.0	2.1
2026-01-20 17:28:40.648928	157.6	19.3	-71.0	0.9
2026-01-20 17:28:42.902996	157.6	19.6	-72.3	4.0
2026-01-20 17:28:45.155898	157.6	19.8	-72.1	3.4
2026-01-20 17:28:47.407868	157.6	20.1	-72.9	5.0
2026-01-20 17:28:49.661301	157.5	20.4	-72.1	4.6
2026-01-20 17:28:51.916576	157.5	20.8	-72.3	5.2
2026-01-20 17:28:54.168180	157.5	21.1	-70.9	1.0
2026-01-20 17:28:56.419821	157.5	21.4	-71.7	5.2
2026-01-20 17:28:58.672005	157.4	21.7	-71.2	4.0
2026-01-20 17:29:00.923354	157.4	22.0	-70.6	1.2
2026-01-20 17:29:03.174409	157.4	22.3	-71.8	5.1
2026-01-20 17:29:05.428189	157.4	22.7	-71.3	4.4
2026-01-20 17:29:07.680365	157.3	23.0	-72.1	0.0
2026-01-20 17:29:09.932896	157.3	23.3	-68.8	5.3
2026-01-20 17:29:12.182204	157.3	23.7	-71.5	4.8
2026-01-20 17:29:14.434921	157.2	24.0	-72.0	4.0
2026-01-20 17:29:16.686897	157.2	24.4	-70.8	3.6
2026-01-20 17:29:18.939161	157.2	24.7	-72.8	6.3
2026-01-20 17:29:21.188765	157.1	25.1	-72.2	6.1
2026-01-20 17:29:23.442515	157.1	25.5	-70.7	3.1
2026-01-20 17:29:25.693328	157.1	25.8	-72.7	7.3
2026-01-20 17:29:27.943694	157.0	26.2	-71.8	6.4
2026-01-20 17:29:30.197243	157.0	26.6	-71.5	4.0
2026-01-20 17:29:32.451041	157.0	27.0	-70.6	7.9
2026-01-20 17:29:34.702859	156.9	27.4	-72.0	7.1
2026-01-20 17:29:36.954935	156.9	27.8	-72.4	8.5
2026-01-20 17:29:39.208366	156.8	28.2	-73.1	6.4
2026-01-20 17:29:41.461467	156.8	28.6	-73.0	8.1
2026-01-20 17:29:43.716302	156.7	29.0	-73.3	7.4
2026-01-20 17:29:45.968846	156.7	29.4	-73.5	6.8
2026-01-20 17:29:48.222233	156.6	29.9	-73.6	7.4
2026-01-20 17:29:50.473617	156.6	30.3	-73.3	7.7
2026-01-20 17:29:52.725517	156.6	30.7	-73.4	8.0
2026-01-20 17:29:54.979379	156.5	31.2	-72.4	5.0
2026-01-20 17:29:57.229998	156.4	31.6	-71.9	4.9
2026-01-20 17:29:59.481934	156.4	32.1	-73.3	10.0
2026-01-20 17:30:01.733473	156.3	32.6	-73.6	9.4
2026-01-20 17:30:03.984995	156.3	33.1	-72.9	8.8
2026-01-20 17:30:06.237518	156.2	33.5	-73.1	9.8
2026-01-20 17:30:08.487774	156.1	34.0	-72.8	8.1
2026-01-20 17:30:10.738958	156.1	34.5	-73.3	9.4
2026-01-20 17:30:12.990838	156.0	35.0	-73.3	8.9
2026-01-20 17:30:15.241848	155.9	35.6	-73.2	9.4
2026-01-20 17:30:17.496147	155.9	36.1	-73.2	9.1
2026-01-20 17:30:19.749261	155.8	36.6	-73.0	10.0
2026-01-20 17:30:22.002676	155.7	37.2	-73.0	8.8
2026-01-20 17:30:24.253337	155.6	37.7	-73.2	9.1
2026-01-20 17:30:26.503733	155.6	38.3	-72.9	7.7
2026-01-20 17:30:28.755040	155.5	38.9	-73.2	8.9
2026-01-20 17:30:31.005791	155.4	39.4	-73.4	8.3
2026-01-20 17:30:33.257916	155.3	40.0	-73.4	9.1
2026-01-20 17:30:35.509548	155.2	40.6	-73.1	9.6
2026-01-20 17:30:37.762475	155.1	41.2	-72.9	10.0
2026-01-20 17:30:40.013224	155.0	41.9	-72.4	9.6
2026-01-20 17:30:42.267499	154.9	42.5	-72.6	8.9
2026-01-20 17:30:44.518723	154.8	43.1	-72.8	9.6
2026-01-20 17:30:46.770045	154.6	43.8	-72.7	10.3
2026-01-20 17:30:49.022986	154.5	44.5	-72.3	8.8
2026-01-20 17:30:51.274948	154.4	45.1	-72.1	9.1
2026-01-20 17:30:53.526370	154.2	45.8	-72.8	9.1
2026-01-20 17:30:55.776760	154.1	46.5	-72.8	10.0
2026-01-20 17:30:58.029314	153.9	47.3	-73.3	9.7
2026-01-20 17:31:00.279593	153.8	48.0	-73.3	8.4
2026-01-20 17:31:02.532621	153.6	48.7	-73.2	10.0
2026-01-20 17:31:04.783238	153.4	49.5	-73.1	10.7
2026-01-20 17:31:07.035094	153.3	50.2	-72.9	10.1
2026-01-20 17:31:09.291989	153.1	51.0	-72.1	9.8
2026-01-20 17:31:11.542141	152.9	51.8	-72.7	10.0
2026-01-20 17:31:13.792899	152.6	52.6	-72.9	9.1
2026-01-20 17:31:16.043092	152.4	53.4	-72.9	9.5
2026-01-20 17:31:18.294643	152.2	54.2	-73.0	9.3
2026-01-20 17:31:20.546757	151.9	55.1	-72.7	9.5
2026-01-20 17:31:22.798385	151.6	55.9	-72.9	10.1
2026-01-20 17:31:25.048935	151.4	56.8	-72.8	9.3
2026-01-20 17:31:27.299441	151.0	57.6	-72.9	9.2
2026-01-20 17:31:29.551653	150.7	58.5	-73.3	9.6
2026-01-20 17:31:31.801423	150.4	59.4	-73.0	8.9
2026-01-20 17:31:34.053528	150.0	60.3	-72.8	8.8
2026-01-20 17:31:36.306682	149.6	61.3	-73.3	10.3
2026-01-20 17:31:38.559731	149.1	62.2	-72.5	10.4
2026-01-20 17:31:40.810623	148.6	63.2	-72.8	9.2
2026-01-20 17:31:43.064396	148.1	64.1	-72.6	9.7
2026-01-20 17:31:45.315120	147.6	65.1	-72.8	9.4
2026-01-20 17:31:47.567042	146.9	66.1	-71.8	4.8
2026-01-20 17:31:49.819365	146.3	67.1	-72.2	6.0
2026-01-20 17:31:52.071281	145.5	68.1	-72.8	6.0
2026-01-20 17:31:54.321712	144.7	69.1	-72.8	5.0
2026-01-20 17:31:56.573853	143.8	70.1	-73.0	5.7
2026-01-20 17:31:58.826691	142.8	71.1	-72.6	4.1
2026-01-20 17:32:01.077693	141.6	72.1	-73.1	7.9
2026-01-20 17:32:03.328905	140.3	73.1	-72.7	6.6
2026-01-20 17:32:05.577448	138.8	74.1	-73.6	5.9
2026-01-20 17:32:07.829316	137.2	75.2	-73.1	7.2
2026-01-20 17:32:10.082979	135.2	76.2	-72.9	6.6
2026-01-20 17:32:12.334019	133.0	77.2	-73.4	7.5
2026-01-20 17:32:14.591474	130.3	78.2	-73.0	6.9
2026-01-20 17:32:16.843986	127.2	79.1	-72.0	4.0
2026-01-20 17:32:19.095276	123.4	80.1	-70.8	4.3
2026-01-20 17:32:21.346003	118.9	80.9	-71.6	5.5
2026-01-20 17:32:23.599336	113.4	81.8	-72.2	4.9
2026-01-20 17:32:25.852118	106.8	82.5	-71.4	5.5
2026-01-20 17:32:28.106872	98.9	83.1	-69.8	3.8
2026-01-20 17:32:30.360433	89.7	83.6	-71.1	4.8
2026-01-20 17:32:32.614885	79.3	83.8	-71.8	6.7
2026-01-20 17:32:34.866852	68.4	83.9	-71.5	4.0
2026-01-20 17:32:37.119390	57.7	83.7	-71.3	6.2
2026-01-20 17:32:39.373271	47.9	83.3	-70.9	5.9
2026-01-20 17:32:41.624527	39.3	82.8	-71.1	4.2
2026-01-20 17:32:43.876549	32.1	82.1	-70.1	2.5
2026-01-20 17:32:46.127726	26.1	81.3	-71.0	5.7
2026-01-20 17:32:48.380748	21.1	80.5	-70.8	2.4
2026-01-20 17:32:50.632492	17.0	79.6	-70.7	2.3
2026-01-20 17:32:52.882777	13.6	78.6	-72.2	3.6
2026-01-20 17:32:55.133885	10.7	77.7	-71.5	4.2
2026-01-20 17:32:57.387425	8.3	76.7	-70.7	3.3
2026-01-20 17:32:59.637496	6.2	75.7	-70.7	4.6
2026-01-20 17:33:01.886497	4.4	74.7	-71.0	4.0
2026-01-20 17:33:04.138930	2.8	73.6	-70.3	1.5
2026-01-20 17:33:06.389920	1.4	72.6	-70.7	3.8
2026-01-20 17:33:08.643390	0.2	71.6	-70.7	5.9
2026-01-20 17:33:10.894466	359.1	70.6	-70.2	3.1
2026-01-20 17:33:13.149376	358.2	69.6	-70.6	0.2
2026-01-20 17:33:15.402569	357.3	68.6	-70.8	0.0
2026-01-20 17:33:17.653106	356.5	67.6	-71.3	4.2
2026-01-20 17:33:19.906429	355.8	66.6	-70.6	1.3
2026-01-20 17:33:22.160002	355.2	65.6	-71.3	1.8
2026-01-20 17:33:24.414711	354.6	64.6	-70.3	2.4
2026-01-20 17:33:26.669016	354.0	63.7	-70.3	3.7
2026-01-20 17:33:28.922975	353.5	62.7	-69.4	2.4
2026-01-20 17:33:31.180247	353.1	61.8	-70.0	3.7
2026-01-20 17:33:33.435169	352.7	60.8	-70.3	4.6
2026-01-20 17:33:35.689447	352.3	59.9	-70.2	3.1
2026-01-20 17:33:37.944566	351.9	59.0	-71.3	4.8
2026-01-20 17:33:40.200443	351.5	58.1	-71.7	5.2
2026-01-20 17:33:42.451747	351.2	57.2	-72.2	4.6
2026-01-20 17:33:44.703189	350.9	56.4	-71.5	3.8
2026-01-20 17:33:46.953828	350.6	55.5	-71.9	5.1
2026-01-20 17:33:49.206757	350.4	54.7	-71.3	4.7
2026-01-20 17:33:51.458365	350.1	53.9	-71.7	6.4
2026-01-20 17:33:53.710481	349.9	53.0	-70.7	5.2
2026-01-20 17:33:55.959438	349.7	52.2	-70.8	7.3
2026-01-20 17:33:58.210723	349.5	51.4	-70.2	5.0
2026-01-20 17:34:00.463353	349.3	50.7	-69.4	4.8
2026-01-20 17:34:02.716298	349.1	49.9	-69.5	3.6
2026-01-20 17:34:04.969805	348.9	49.2	-69.9	0.0
2026-01-20 17:34:07.222965	348.7	48.4	-68.9	2.0
2026-01-20 17:34:09.473185	348.6	47.7	-66.6	0.0
2026-01-20 17:34:11.727268	348.4	47.0	-68.6	0.0
2026-01-20 17:34:13.979507	348.3	46.3	-69.8	1.4
2026-01-20 17:34:16.234280	348.1	45.6	-68.4	0.0
2026-01-20 17:34:18.486778	348.0	44.9	-67.8	0.7
2026-01-20 17:34:20.735857	347.9	44.2	-68.1	0.0
2026-01-20 17:34:22.990441	347.7	43.6	-66.4	0.0
2026-01-20 17:34:25.243133	347.6	42.9	-67.2	0.0
2026-01-20 17:34:27.495539	347.5	42.3	-67.6	0.0
2026-01-20 17:34:29.748491	347.4	41.6	-67.5	0.0
2026-01-20 17:34:32.002745	347.3	41.0	-66.5	0.0
2026-01-20 17:34:34.254407	347.2	40.4	-67.3	0.0
2026-01-20 17:34:36.505930	347.1	39.8	-67.4	0.0
2026-01-20 17:34:38.760126	347.0	39.2	-65.5	0.0
2026-01-20 17:34:41.019633	346.9	38.7	-65.7	0.0
2026-01-20 17:34:43.274395	346.9	38.1	-65.5	0.0
2026-01-20 17:34:45.527479	346.8	37.5	-63.8	0.0
2026-01-20 17:34:47.782194	346.7	37.0	-63.7	0.0
2026-01-20 17:34:50.038506	346.6	36.5	-64.7	0.0
2026-01-20 17:34:52.290053	346.5	35.9	-63.6	0.0
2026-01-20 17:34:54.548269	346.5	35.4	-62.8	0.0
2026-01-20 17:34:56.800684	346.4	34.9	-65.1	0.0
2026-01-20 17:34:59.051003	346.3	34.4	-65.6	0.0
2026-01-20 17:35:01.304148	346.3	33.9	-65.7	0.0
2026-01-20 17:35:03.557052	346.2	33.4	-65.1	0.0
2026-01-20 17:35:05.810622	346.2	32.9	-65.7	0.0
2026-01-20 17:35:08.062302	346.1	32.5	-64.9	0.0
2026-01-20 17:35:10.316332	346.0	32.0	-65.0	0.0
2026-01-20 17:35:12.567161	346.0	31.5	-64.3	0.0
2026-01-20 17:35:14.816595	345.9	31.1	-64.3	0.0
2026-01-20 17:35:17.070363	345.9	30.6	-65.4	0.0
2026-01-20 17:35:19.321441	345.8	30.2	-65.2	0.0
2026-01-20 17:35:21.574079	345.8	29.8	-65.3	0.0
2026-01-20 17:35:23.824910	345.7	29.3	-64.3	0.0
2026-01-20 17:35:26.079769	345.7	28.9	-64.5	0.0
2026-01-20 17:35:28.329158	345.7	28.5	-64.7	0.0
2026-01-20 17:35:30.581288	345.6	28.1	-63.2	0.0
2026-01-20 17:35:32.830986	345.6	27.7	-64.3	0.0
2026-01-20 17:35:35.083439	345.5	27.3	-63.6	0.0
2026-01-20 17:35:37.333403	345.5	26.9	-64.3	0.0
2026-01-20 17:35:39.589485	345.5	26.5	-63.6	0.0
2026-01-20 17:35:41.842674	345.4	26.2	-64.2	0.0
2026-01-20 17:35:44.095818	345.4	25.8	-64.5	0.0
2026-01-20 17:35:46.346709	345.4	25.4	-65.3	0.0
2026-01-20 17:35:48.599663	345.3	25.1	-63.3	0.0
2026-01-20 17:35:50.852383	345.3	24.7	-65.4	0.0
2026-01-20 17:35:53.106539	345.3	24.3	-64.0	0.0
2026-01-20 17:35:55.360191	345.2	24.0	-64.4	0.0
2026-01-20 17:35:57.619398	345.2	23.7	-65.6	0.0
2026-01-20 17:35:59.871861	345.2	23.3	-63.5	0.0
2026-01-20 17:36:02.125166	345.2	23.0	-64.4	0.0
2026-01-20 17:36:04.377413	345.1	22.7	-64.7	0.0
2026-01-20 17:36:06.631056	345.1	22.3	-64.0	0.0
2026-01-20 17:36:08.884499	345.1	22.0	-62.4	0.0
2026-01-20 17:36:11.137489	345.1	21.7	-63.4	0.0
2026-01-20 17:36:13.391620	345.0	21.4	-63.5	0.0
2026-01-20 17:36:15.648440	345.0	21.1	-62.9	0.0
2026-01-20 17:36:17.902407	345.0	20.8	-62.7	0.0
2026-01-20 17:36:20.158741	345.0	20.5	-63.1	0.0
2026-01-20 17:36:22.412085	344.9	20.2	-63.1	0.0
2026-01-20 17:36:24.665910	344.9	19.9	-61.8	0.0
2026-01-20 17:36:26.918209	344.9	19.6	-65.1	0.0
2026-01-20 17:36:29.176613	344.9	19.3	-63.8	0.0
2026-01-20 17:36:31.428351	344.9	19.0	-65.1	0.0
2026-01-20 17:36:33.684255	344.8	18.7	-63.7	0.0
2026-01-20 17:36:35.937135	344.8	18.4	-62.4	0.0
2026-01-20 17:36:38.189425	344.8	18.2	-66.3	0.0
2026-01-20 17:36:40.443537	344.8	17.9	-68.1	0.0
2026-01-20 17:36:42.696371	344.8	17.6	-65.5	0.0
2026-01-20 17:36:44.949231	344.8	17.3	-65.5	0.0
2026-01-20 17:36:47.201070	344.7	17.1	-67.1	0.0
2026-01-20 17:36:49.454309	344.7	16.8	-66.7	0.0
2026-01-20 17:36:51.706126	344.7	16.6	-64.2	0.0
2026-01-20 17:36:53.961063	344.7	16.3	-65.3	0.0
2026-01-20 17:36:56.214148	344.7	16.1	-65.4	0.0
2026-01-20 17:36:58.467561	344.7	15.8	-63.5	0.0
2026-01-20 17:37:00.722392	344.7	15.6	-62.4	0.0
2026-01-20 17:37:02.972257	344.6	15.3	-64.8	0.0
2026-01-20 17:37:05.223515	344.6	15.1	-64.5	0.0
2026-01-20 17:37:07.476311	344.6	14.8	-63.3	0.0
2026-01-20 17:37:09.726574	344.6	14.6	-65.2	0.0
2026-01-20 17:37:11.983991	344.6	14.4	-65.4	0.0
2026-01-20 17:37:14.239337	344.6	14.1	-64.2	0.0
2026-01-20 17:37:16.495016	344.6	13.9	-65.1	0.0
2026-01-20 17:37:18.752550	344.6	13.7	-65.7	0.0
2026-01-20 17:37:21.005915	344.5	13.4	-65.5	0.0
2026-01-20 17:37:23.259834	344.5	13.2	-67.3	0.0
2026-01-20 17:37:25.512502	344.5	13.0	-67.8	0.0
2026-01-20 17:37:27.765486	344.5	12.8	-65.8	0.0
2026-01-20 17:37:30.019448	344.5	12.6	-66.3	0.0
2026-01-20 17:37:32.271808	344.5	12.3	-68.3	0.0
2026-01-20 17:37:34.524586	344.5	12.1	-66.3	0.0
2026-01-20 17:37:36.778992	344.5	11.9	-66.1	0.0
2026-01-20 17:37:39.032954	344.5	11.7	-65.0	0.0
2026-01-20 17:37:41.288309	344.5	11.5	-66.1	0.0
2026-01-20 17:37:43.543829	344.5	11.3	-68.3	0.0
2026-01-20 17:37:45.798407	344.5	11.1	-67.6	0.0
2026-01-20 17:37:48.051153	344.4	10.9	-64.7	0.0
2026-01-20 17:37:50.305741	344.4	10.7	-63.8	0.0
2026-01-20 17:37:52.559915	344.4	10.5	-63.3	0.0
2026-01-20 17:37:54.814598	344.4	10.3	-67.1	0.0
2026-01-20 17:37:57.071112	344.4	10.1	-73.9	0.0
#Closed at: 2026-01-20 17:27:07.886141