passes_logs/2026/01/20/planumMaritime01/planumMaritime01__20260120_081536_METOP-C_rec.log

#Pass ID: 20260120_081536_METOP-C
#Satellite: METOP-C
#Configuration: METOP-C
#Start time: 2026-01-20 08:15:41.907637

#LorettStation: 1.0.0 05.05.2024
#Station: planumMaritime01
#Location: 37.49445 lon 55.92918 lat
#TLE: 1 43689U 18087A   26019.90179106  .00000159  00000+0  92796-4 0  9996
#TLE: 2 43689  98.6868  82.0755 0000796 174.2820 185.8367 14.21500134373765

#Time	Az	El	Level	SNR
2026-01-20 08:15:44.076702	11.6	10.2	-64.7	0.0
2026-01-20 08:15:46.329253	11.5	10.4	-64.5	0.0
2026-01-20 08:15:48.577521	11.5	10.6	-63.2	0.0
2026-01-20 08:15:50.832454	11.4	10.8	-61.7	0.0
2026-01-20 08:15:53.085145	11.3	11.0	-61.4	0.0
2026-01-20 08:15:55.342166	11.2	11.2	-60.4	0.0
2026-01-20 08:15:57.595758	11.2	11.4	-59.8	0.0
2026-01-20 08:15:59.849836	11.1	11.6	-59.6	0.0
2026-01-20 08:16:02.101791	11.0	11.8	-61.6	0.0
2026-01-20 08:16:04.355767	10.9	12.0	-57.6	0.0
2026-01-20 08:16:06.611154	10.8	12.2	-57.6	0.0
2026-01-20 08:16:08.863920	10.8	12.4	-59.2	0.0
2026-01-20 08:16:11.116188	10.7	12.6	-59.6	0.0
2026-01-20 08:16:13.370766	10.6	12.8	-60.0	0.0
2026-01-20 08:16:15.627744	10.5	13.1	-59.0	0.0
2026-01-20 08:16:17.879624	10.4	13.3	-62.2	0.0
2026-01-20 08:16:20.131758	10.3	13.5	-60.0	0.0
2026-01-20 08:16:22.388197	10.2	13.7	-62.9	0.0
2026-01-20 08:16:24.642661	10.1	13.9	-61.9	0.0
2026-01-20 08:16:26.894583	10.0	14.2	-63.0	0.0
2026-01-20 08:16:29.148854	9.9	14.4	-62.3	0.0
2026-01-20 08:16:31.399816	9.8	14.6	-61.8	0.0
2026-01-20 08:16:33.655060	9.7	14.9	-61.0	0.0
2026-01-20 08:16:35.909937	9.6	15.1	-59.8	0.0
2026-01-20 08:16:38.164515	9.5	15.3	-57.8	0.0
2026-01-20 08:16:40.418454	9.4	15.6	-60.1	0.0
2026-01-20 08:16:42.672406	9.3	15.8	-60.1	0.0
2026-01-20 08:16:44.924260	9.2	16.1	-59.2	0.0
2026-01-20 08:16:47.177850	9.1	16.3	-60.1	0.0
2026-01-20 08:16:49.429788	9.0	16.5	-61.9	0.0
2026-01-20 08:16:51.683835	8.9	16.8	-61.9	0.0
2026-01-20 08:16:53.935152	8.8	17.1	-61.8	0.0
2026-01-20 08:16:56.189275	8.6	17.3	-61.4	0.0
2026-01-20 08:16:58.441804	8.5	17.6	-58.5	0.0
2026-01-20 08:17:00.694643	8.4	17.8	-60.1	0.0
2026-01-20 08:17:02.946372	8.3	18.1	-65.7	0.0
2026-01-20 08:17:05.199256	8.1	18.4	-63.6	0.0
2026-01-20 08:17:07.452866	8.0	18.6	-64.9	0.0
2026-01-20 08:17:09.706834	7.9	18.9	-61.5	0.0
2026-01-20 08:17:11.958672	7.7	19.2	-63.1	0.0
2026-01-20 08:17:14.212572	7.6	19.5	-62.8	0.0
2026-01-20 08:17:16.463284	7.5	19.7	-61.7	0.0
2026-01-20 08:17:18.718124	7.3	20.0	-62.0	0.0
2026-01-20 08:17:20.970877	7.2	20.3	-63.9	0.0
2026-01-20 08:17:23.223530	7.0	20.6	-63.7	0.0
2026-01-20 08:17:25.476545	6.9	20.9	-62.9	0.0
2026-01-20 08:17:27.730405	6.7	21.2	-64.5	0.0
2026-01-20 08:17:29.984345	6.5	21.5	-63.2	0.0
2026-01-20 08:17:32.239397	6.4	21.8	-63.0	0.0
2026-01-20 08:17:34.494919	6.2	22.1	-64.1	0.0
2026-01-20 08:17:36.749658	6.0	22.4	-63.5	0.0
2026-01-20 08:17:39.002191	5.9	22.7	-65.5	0.0
2026-01-20 08:17:41.257479	5.7	23.0	-64.8	0.0
2026-01-20 08:17:43.510247	5.5	23.4	-63.2	0.0
2026-01-20 08:17:45.764635	5.3	23.7	-64.0	0.0
2026-01-20 08:17:48.019666	5.1	24.0	-62.3	0.0
2026-01-20 08:17:50.271406	4.9	24.3	-63.6	0.0
2026-01-20 08:17:52.525454	4.7	24.7	-63.1	0.0
2026-01-20 08:17:54.777266	4.5	25.0	-62.5	0.0
2026-01-20 08:17:57.027105	4.3	25.4	-63.6	0.0
2026-01-20 08:17:59.281425	4.1	25.7	-63.1	0.0
2026-01-20 08:18:01.536718	3.9	26.1	-62.5	0.0
2026-01-20 08:18:03.794622	3.7	26.4	-63.5	0.0
2026-01-20 08:18:06.049260	3.5	26.8	-62.4	0.0
2026-01-20 08:18:08.302976	3.2	27.1	-63.9	0.0
2026-01-20 08:18:10.553936	3.0	27.5	-63.6	0.0
2026-01-20 08:18:12.809049	2.7	27.9	-65.6	0.0
2026-01-20 08:18:15.064910	2.5	28.3	-64.9	0.0
2026-01-20 08:18:17.318352	2.2	28.6	-65.9	0.0
2026-01-20 08:18:19.571330	2.0	29.0	-65.5	0.0
2026-01-20 08:18:21.824288	1.7	29.4	-65.9	0.0
2026-01-20 08:18:24.078140	1.4	29.8	-64.0	0.0
2026-01-20 08:18:26.329637	1.1	30.2	-64.6	0.0
2026-01-20 08:18:28.583556	0.9	30.6	-64.9	0.0
2026-01-20 08:18:30.837355	0.6	31.0	-63.2	0.0
2026-01-20 08:18:33.090157	0.2	31.5	-64.7	0.0
2026-01-20 08:18:35.341863	359.9	31.9	-63.1	0.0
2026-01-20 08:18:37.597007	359.6	32.3	-63.4	0.0
2026-01-20 08:18:39.851546	359.3	32.7	-66.8	0.0
2026-01-20 08:18:42.104135	358.9	33.2	-65.8	0.0
2026-01-20 08:18:44.358487	358.6	33.6	-67.1	0.0
2026-01-20 08:18:46.612428	358.2	34.1	-65.9	0.0
2026-01-20 08:18:48.868087	357.9	34.5	-65.2	0.0
2026-01-20 08:18:51.124173	357.5	35.0	-66.8	0.0
2026-01-20 08:18:53.377448	357.1	35.4	-66.2	0.0
2026-01-20 08:18:55.628084	356.7	35.9	-68.4	0.0
2026-01-20 08:18:57.879425	356.3	36.4	-68.7	0.0
2026-01-20 08:19:00.133472	355.8	36.9	-68.9	0.0
2026-01-20 08:19:02.384853	355.4	37.4	-68.2	0.0
2026-01-20 08:19:04.640971	354.9	37.8	-69.1	0.0
2026-01-20 08:19:06.894849	354.5	38.3	-63.5	0.0
2026-01-20 08:19:09.145717	354.0	38.8	-69.7	2.9
2026-01-20 08:19:11.397108	353.5	39.3	-68.4	2.8
2026-01-20 08:19:13.645983	353.0	39.9	-69.1	5.1
2026-01-20 08:19:15.900011	352.4	40.4	-67.1	0.0
2026-01-20 08:19:18.158311	351.9	40.9	-68.0	5.4
2026-01-20 08:19:20.410530	351.3	41.4	-67.7	1.8
2026-01-20 08:19:22.663214	350.7	41.9	-67.1	0.0
2026-01-20 08:19:24.919135	350.1	42.5	-67.7	2.2
2026-01-20 08:19:27.169980	349.5	43.0	-70.7	7.9
2026-01-20 08:19:29.419816	348.8	43.5	-70.7	7.6
2026-01-20 08:19:31.671148	348.2	44.1	-70.4	7.4
2026-01-20 08:19:33.922087	347.5	44.6	-69.3	4.1
2026-01-20 08:19:36.174649	346.7	45.2	-70.8	7.8
2026-01-20 08:19:38.427653	346.0	45.7	-70.7	3.9
2026-01-20 08:19:40.678315	345.2	46.3	-71.7	8.0
2026-01-20 08:19:42.930476	344.4	46.8	-71.8	8.9
2026-01-20 08:19:45.183047	343.6	47.4	-71.1	7.0
2026-01-20 08:19:47.440405	342.7	48.0	-71.2	6.9
2026-01-20 08:19:49.690604	341.8	48.5	-71.3	6.6
2026-01-20 08:19:51.941708	340.9	49.1	-71.0	4.4
2026-01-20 08:19:54.194396	339.9	49.6	-71.5	8.4
2026-01-20 08:19:56.448233	338.9	50.2	-70.5	6.7
2026-01-20 08:19:58.699502	337.9	50.7	-70.4	6.9
2026-01-20 08:20:00.950593	336.8	51.3	-71.0	7.9
2026-01-20 08:20:03.204318	335.7	51.8	-70.7	9.0
2026-01-20 08:20:05.456193	334.6	52.3	-71.0	6.7
2026-01-20 08:20:07.709762	333.4	52.9	-70.9	7.7
2026-01-20 08:20:09.964972	332.1	53.4	-71.7	10.8
2026-01-20 08:20:12.217397	330.8	53.9	-72.1	8.6
2026-01-20 08:20:14.469688	329.5	54.4	-71.3	7.7
2026-01-20 08:20:16.722140	328.1	54.9	-69.9	5.2
2026-01-20 08:20:18.974912	326.7	55.4	-71.0	5.4
2026-01-20 08:20:21.226614	325.2	55.8	-69.6	2.8
2026-01-20 08:20:23.477464	323.7	56.3	-70.9	4.0
2026-01-20 08:20:25.728773	322.1	56.7	-71.0	4.9
2026-01-20 08:20:27.980283	320.5	57.1	-70.8	2.1
2026-01-20 08:20:30.234169	318.8	57.5	-72.6	7.9
2026-01-20 08:20:32.483395	317.1	57.9	-71.1	2.7
2026-01-20 08:20:34.735177	315.3	58.2	-70.3	2.2
2026-01-20 08:20:36.988531	313.5	58.5	-71.4	4.0
2026-01-20 08:20:39.240779	311.6	58.8	-71.7	2.4
2026-01-20 08:20:41.496117	309.7	59.1	-72.9	7.8
2026-01-20 08:20:43.747548	307.8	59.4	-72.2	2.2
2026-01-20 08:20:45.998697	305.8	59.6	-72.9	8.1
2026-01-20 08:20:48.250608	303.8	59.8	-73.0	6.4
2026-01-20 08:20:50.502449	301.8	59.9	-70.0	3.6
2026-01-20 08:20:52.755058	299.8	60.0	-70.6	2.9
2026-01-20 08:20:55.007550	297.7	60.1	-70.1	4.4
2026-01-20 08:20:57.259265	295.6	60.2	-72.0	6.6
2026-01-20 08:20:59.509473	293.6	60.2	-71.7	7.9
2026-01-20 08:21:01.760764	291.5	60.2	-71.1	7.0
2026-01-20 08:21:04.009323	289.4	60.1	-72.0	7.2
2026-01-20 08:21:06.261312	287.3	60.0	-69.0	0.0
2026-01-20 08:21:08.515622	285.3	59.9	-71.9	1.6
2026-01-20 08:21:10.767612	283.3	59.8	-72.2	7.4
2026-01-20 08:21:13.021169	281.3	59.6	-73.4	7.9
2026-01-20 08:21:15.272442	279.3	59.4	-73.5	8.1
2026-01-20 08:21:17.523515	277.4	59.1	-73.2	7.8
2026-01-20 08:21:19.775629	275.5	58.9	-72.9	6.8
2026-01-20 08:21:22.028720	273.6	58.6	-73.7	10.5
2026-01-20 08:21:24.281389	271.8	58.2	-74.0	8.8
2026-01-20 08:21:26.529932	270.0	57.9	-73.2	7.9
2026-01-20 08:21:28.780063	268.3	57.5	-74.0	9.4
2026-01-20 08:21:31.032829	266.6	57.1	-73.8	9.1
2026-01-20 08:21:33.287007	265.0	56.7	-74.3	9.9
2026-01-20 08:21:35.537364	263.4	56.3	-73.8	9.7
2026-01-20 08:21:37.788999	261.9	55.8	-74.4	8.8
2026-01-20 08:21:40.041876	260.4	55.4	-74.2	10.5
2026-01-20 08:21:42.291207	259.0	54.9	-74.0	10.7
2026-01-20 08:21:44.542538	257.6	54.4	-73.4	9.0
2026-01-20 08:21:46.798240	256.2	53.9	-73.9	9.7
2026-01-20 08:21:49.051908	254.9	53.4	-72.7	9.4
2026-01-20 08:21:51.302500	253.7	52.9	-73.7	11.6
2026-01-20 08:21:53.551788	252.5	52.3	-73.6	11.7
2026-01-20 08:21:55.802344	251.3	51.8	-73.3	11.5
2026-01-20 08:21:58.055038	250.2	51.3	-73.3	10.3
2026-01-20 08:22:00.305485	249.1	50.7	-73.3	12.3
2026-01-20 08:22:02.559618	248.1	50.2	-73.3	11.8
2026-01-20 08:22:04.810887	247.1	49.6	-73.5	13.1
2026-01-20 08:22:07.064840	246.1	49.1	-73.1	12.9
2026-01-20 08:22:09.317748	245.2	48.5	-73.3	12.8
2026-01-20 08:22:11.569451	244.3	47.9	-73.5	11.5
2026-01-20 08:22:13.820609	243.4	47.4	-73.9	11.3
2026-01-20 08:22:16.074280	242.6	46.8	-73.5	12.5
2026-01-20 08:22:18.324732	241.8	46.3	-73.6	11.7
2026-01-20 08:22:20.575784	241.0	45.7	-73.9	11.1
2026-01-20 08:22:22.827285	240.3	45.2	-73.9	10.6
2026-01-20 08:22:25.078543	239.6	44.6	-74.0	10.9
2026-01-20 08:22:27.331657	238.9	44.1	-74.0	11.6
2026-01-20 08:22:29.584562	238.2	43.5	-74.0	11.3
2026-01-20 08:22:31.836546	237.5	43.0	-73.9	12.2
2026-01-20 08:22:34.088486	236.9	42.4	-74.1	12.3
2026-01-20 08:22:36.338661	236.3	41.9	-74.2	11.3
2026-01-20 08:22:38.591155	235.7	41.4	-74.1	12.4
2026-01-20 08:22:40.841863	235.1	40.8	-74.3	12.4
2026-01-20 08:22:43.092109	234.6	40.3	-73.7	11.5
2026-01-20 08:22:45.345029	234.0	39.8	-73.7	11.5
2026-01-20 08:22:47.597518	233.5	39.3	-73.8	11.6
2026-01-20 08:22:49.849958	233.0	38.8	-74.2	12.2
2026-01-20 08:22:52.105402	232.5	38.3	-74.2	10.9
2026-01-20 08:22:54.358090	232.0	37.8	-74.1	12.2
2026-01-20 08:22:56.609184	231.6	37.3	-74.3	11.9
2026-01-20 08:22:58.860162	231.1	36.8	-74.3	11.2
2026-01-20 08:23:01.111210	230.7	36.3	-74.4	12.0
2026-01-20 08:23:03.362593	230.3	35.8	-74.6	12.2
2026-01-20 08:23:05.614059	229.9	35.4	-74.5	12.1
2026-01-20 08:23:07.867223	229.5	34.9	-74.6	11.6
2026-01-20 08:23:10.120126	229.1	34.4	-74.2	12.4
2026-01-20 08:23:12.371635	228.7	34.0	-74.2	11.6
2026-01-20 08:23:14.622561	228.4	33.5	-74.3	10.4
2026-01-20 08:23:16.873664	228.0	33.1	-74.4	11.6
2026-01-20 08:23:19.128578	227.7	32.7	-74.4	10.9
2026-01-20 08:23:21.382750	227.3	32.2	-74.3	10.9
2026-01-20 08:23:23.634112	227.0	31.8	-74.7	11.5
2026-01-20 08:23:25.886300	226.7	31.4	-74.3	11.1
2026-01-20 08:23:28.138353	226.4	31.0	-74.7	11.5
2026-01-20 08:23:30.392684	226.1	30.5	-74.4	10.7
2026-01-20 08:23:32.645569	225.8	30.1	-74.7	11.0
2026-01-20 08:23:34.896118	225.5	29.7	-74.2	8.5
2026-01-20 08:23:37.146400	225.2	29.3	-74.3	8.0
2026-01-20 08:23:39.397449	225.0	28.9	-74.4	9.3
2026-01-20 08:23:41.647345	224.7	28.5	-74.0	8.5
2026-01-20 08:23:43.899776	224.5	28.2	-74.1	9.1
2026-01-20 08:23:46.152029	224.2	27.8	-73.9	7.3
2026-01-20 08:23:48.405601	224.0	27.4	-74.0	8.8
2026-01-20 08:23:50.656869	223.7	27.0	-74.2	7.7
2026-01-20 08:23:52.910576	223.5	26.7	-74.0	6.9
2026-01-20 08:23:55.163970	223.3	26.3	-73.8	8.2
2026-01-20 08:23:57.415198	223.0	25.9	-73.7	8.0
2026-01-20 08:23:59.667885	222.8	25.6	-73.7	7.2
2026-01-20 08:24:01.919808	222.6	25.2	-73.5	7.0
2026-01-20 08:24:04.168411	222.4	24.9	-73.4	5.2
2026-01-20 08:24:06.420747	222.2	24.6	-73.9	7.3
2026-01-20 08:24:08.673465	222.0	24.2	-74.2	6.1
2026-01-20 08:24:10.931358	221.8	23.9	-73.7	6.7
2026-01-20 08:24:13.183987	221.6	23.6	-74.0	4.7
2026-01-20 08:24:15.440696	221.4	23.2	-73.4	4.8
2026-01-20 08:24:17.692614	221.2	22.9	-73.5	4.7
2026-01-20 08:24:19.945317	221.1	22.6	-73.4	4.9
2026-01-20 08:24:22.197446	220.9	22.3	-73.6	5.5
2026-01-20 08:24:24.449141	220.7	22.0	-73.6	5.1
2026-01-20 08:24:26.698000	220.5	21.7	-73.4	4.3
2026-01-20 08:24:28.949539	220.4	21.4	-73.7	5.6
2026-01-20 08:24:31.200221	220.2	21.1	-73.5	5.1
2026-01-20 08:24:33.452431	220.1	20.8	-73.2	2.7
2026-01-20 08:24:35.708615	219.9	20.5	-73.5	4.9
2026-01-20 08:24:37.959596	219.7	20.2	-73.6	3.6
2026-01-20 08:24:40.211099	219.6	19.9	-73.4	4.7
2026-01-20 08:24:42.463908	219.4	19.6	-72.7	1.2
2026-01-20 08:24:44.716096	219.3	19.3	-72.7	1.8
2026-01-20 08:24:46.968343	219.2	19.0	-72.7	3.6
2026-01-20 08:24:49.219121	219.0	18.8	-72.7	2.2
2026-01-20 08:24:51.471742	218.9	18.5	-72.9	1.8
2026-01-20 08:24:53.725133	218.8	18.2	-72.7	1.2
2026-01-20 08:24:55.975650	218.6	18.0	-72.3	1.9
2026-01-20 08:24:58.226473	218.5	17.7	-72.4	1.4
2026-01-20 08:25:00.480134	218.4	17.4	-72.5	2.9
2026-01-20 08:25:02.731562	218.2	17.2	-72.6	2.5
2026-01-20 08:25:04.982062	218.1	16.9	-72.6	2.3
2026-01-20 08:25:07.233391	218.0	16.7	-72.5	0.8
2026-01-20 08:25:09.484803	217.9	16.4	-72.2	0.0
2026-01-20 08:25:11.738118	217.8	16.2	-72.6	0.0
2026-01-20 08:25:13.989634	217.7	15.9	-72.6	0.0
2026-01-20 08:25:16.241624	217.5	15.7	-72.8	0.0
2026-01-20 08:25:18.495069	217.4	15.4	-72.4	0.0
2026-01-20 08:25:20.749842	217.3	15.2	-72.2	0.0
2026-01-20 08:25:23.002985	217.2	14.9	-72.4	0.0
2026-01-20 08:25:25.255386	217.1	14.7	-72.0	0.0
2026-01-20 08:25:27.512562	217.0	14.5	-72.1	0.0
2026-01-20 08:25:29.767320	216.9	14.2	-71.1	0.0
2026-01-20 08:25:32.019302	216.8	14.0	-72.4	0.0
2026-01-20 08:25:34.272325	216.7	13.8	-71.4	0.0
2026-01-20 08:25:36.527415	216.6	13.6	-72.1	0.0
2026-01-20 08:25:38.779553	216.5	13.3	-72.1	0.0
2026-01-20 08:25:41.033443	216.4	13.1	-72.0	0.0
2026-01-20 08:25:43.286942	216.3	12.9	-71.9	0.0
2026-01-20 08:25:45.539746	216.3	12.7	-71.8	0.0
2026-01-20 08:25:47.791455	216.2	12.5	-71.6	0.0
2026-01-20 08:25:50.042902	216.1	12.3	-71.6	0.0
2026-01-20 08:25:52.294203	216.0	12.0	-72.0	0.0
2026-01-20 08:25:54.543716	215.9	11.8	-71.9	0.0
2026-01-20 08:25:56.793022	215.8	11.6	-71.8	0.0
2026-01-20 08:25:59.044426	215.7	11.4	-71.6	0.0
2026-01-20 08:26:01.296099	215.7	11.2	-71.7	0.0
2026-01-20 08:26:03.550520	215.6	11.0	-73.4	0.0
2026-01-20 08:26:05.802260	215.5	10.8	-75.7	0.0
2026-01-20 08:26:08.055110	215.4	10.6	-77.5	0.0
2026-01-20 08:26:10.308665	215.4	10.4	-78.0	0.0
2026-01-20 08:26:12.560606	215.3	10.2	-79.2	0.0
2026-01-20 08:26:14.813532	215.2	10.0	-79.2	0.0
#Closed at: 2026-01-20 08:15:36.913928