passes_logs/2026/01/16/planumMaritime01/planumMaritime01__20260116_075819_METOP-C_rec.log

#Pass ID: 20260116_075819_METOP-C
#Satellite: METOP-C
#Configuration: METOP-C
#Start time: 2026-01-16 07:58:24.463114

#LorettStation: 1.0.0 05.05.2024
#Station: planumMaritime01
#Location: 37.49445 lon 55.92918 lat
#TLE: 1 43689U 18087A   26015.18579420  .00000072  00000+0  52830-4 0  9994
#TLE: 2 43689  98.6879  77.4344 0000553 183.5432 176.5742 14.21498340373097

#Time	Az	El	Level	SNR
2026-01-16 07:58:26.634705	14.6	10.2	-67.7	0.0
2026-01-16 07:58:28.881467	14.6	10.4	-66.8	0.0
2026-01-16 07:58:31.126218	14.6	10.6	-61.6	0.0
2026-01-16 07:58:33.370488	14.6	10.8	-62.8	0.0
2026-01-16 07:58:35.616450	14.5	11.0	-59.8	0.0
2026-01-16 07:58:37.863195	14.5	11.2	-61.3	0.0
2026-01-16 07:58:40.105304	14.5	11.4	-58.9	0.0
2026-01-16 07:58:42.351669	14.5	11.6	-63.3	0.0
2026-01-16 07:58:44.597621	14.4	11.8	-58.5	0.0
2026-01-16 07:58:46.842761	14.4	12.0	-61.7	0.0
2026-01-16 07:58:49.087254	14.4	12.2	-56.9	0.0
2026-01-16 07:58:51.333871	14.4	12.4	-62.5	0.0
2026-01-16 07:58:53.581115	14.3	12.7	-61.3	0.0
2026-01-16 07:58:55.827628	14.3	12.9	-58.6	0.0
2026-01-16 07:58:58.075676	14.3	13.1	-59.0	0.0
2026-01-16 07:59:00.319625	14.3	13.3	-60.0	0.0
2026-01-16 07:59:02.563166	14.2	13.5	-60.8	0.0
2026-01-16 07:59:04.808457	14.2	13.8	-59.1	0.0
2026-01-16 07:59:07.052940	14.2	14.0	-62.5	0.0
2026-01-16 07:59:09.294726	14.1	14.2	-61.6	0.0
2026-01-16 07:59:11.540528	14.1	14.5	-58.5	0.0
2026-01-16 07:59:13.784269	14.1	14.7	-60.3	0.0
2026-01-16 07:59:16.030717	14.0	14.9	-59.6	0.0
2026-01-16 07:59:18.277491	14.0	15.2	-61.6	0.0
2026-01-16 07:59:20.523662	14.0	15.4	-58.6	0.0
2026-01-16 07:59:22.769242	13.9	15.7	-62.0	0.0
2026-01-16 07:59:25.015353	13.9	15.9	-60.0	0.0
2026-01-16 07:59:27.261061	13.9	16.2	-61.3	0.0
2026-01-16 07:59:29.506701	13.8	16.4	-62.0	0.0
2026-01-16 07:59:31.751228	13.8	16.7	-59.4	0.0
2026-01-16 07:59:33.998550	13.7	16.9	-63.4	0.0
2026-01-16 07:59:36.243620	13.7	17.2	-59.5	0.0
2026-01-16 07:59:38.488691	13.7	17.4	-63.1	0.0
2026-01-16 07:59:40.738268	13.6	17.7	-59.7	0.0
2026-01-16 07:59:42.981335	13.6	18.0	-61.0	0.0
2026-01-16 07:59:45.230943	13.5	18.2	-63.7	0.0
2026-01-16 07:59:47.476660	13.5	18.5	-61.0	0.0
2026-01-16 07:59:49.724553	13.4	18.8	-64.0	0.0
2026-01-16 07:59:51.972439	13.4	19.1	-60.9	0.0
2026-01-16 07:59:54.217381	13.3	19.4	-60.3	0.0
2026-01-16 07:59:56.462879	13.3	19.6	-61.6	0.0
2026-01-16 07:59:58.708164	13.2	19.9	-62.0	0.0
2026-01-16 08:00:00.955676	13.2	20.2	-61.6	0.0
2026-01-16 08:00:03.200391	13.1	20.5	-58.6	0.0
2026-01-16 08:00:05.446607	13.1	20.8	-64.2	0.0
2026-01-16 08:00:07.693491	13.0	21.1	-60.9	0.0
2026-01-16 08:00:09.937454	13.0	21.4	-65.8	0.0
2026-01-16 08:00:12.182281	12.9	21.8	-59.6	0.0
2026-01-16 08:00:14.429515	12.9	22.1	-63.0	0.0
2026-01-16 08:00:16.674684	12.8	22.4	-62.6	0.0
2026-01-16 08:00:18.922475	12.7	22.7	-63.7	0.0
2026-01-16 08:00:21.165482	12.7	23.0	-62.7	0.0
2026-01-16 08:00:23.411775	12.6	23.4	-64.6	0.0
2026-01-16 08:00:25.658529	12.5	23.7	-63.9	0.0
2026-01-16 08:00:27.905013	12.5	24.1	-61.5	0.0
2026-01-16 08:00:30.150831	12.4	24.4	-65.1	0.0
2026-01-16 08:00:32.398373	12.3	24.7	-60.3	0.0
2026-01-16 08:00:34.641946	12.3	25.1	-66.6	0.0
2026-01-16 08:00:36.890365	12.2	25.5	-61.6	0.0
2026-01-16 08:00:39.133852	12.1	25.8	-62.5	0.0
2026-01-16 08:00:41.381674	12.0	26.2	-64.3	0.0
2026-01-16 08:00:43.624482	12.0	26.6	-62.2	0.0
2026-01-16 08:00:45.869326	11.9	26.9	-62.6	0.0
2026-01-16 08:00:48.112906	11.8	27.3	-64.3	0.0
2026-01-16 08:00:50.356950	11.7	27.7	-62.6	0.0
2026-01-16 08:00:52.600938	11.6	28.1	-60.5	0.0
2026-01-16 08:00:54.847376	11.5	28.5	-61.3	0.0
2026-01-16 08:00:57.092410	11.4	28.9	-64.5	0.0
2026-01-16 08:00:59.338623	11.3	29.3	-61.7	0.0
2026-01-16 08:01:01.584738	11.2	29.8	-61.8	0.0
2026-01-16 08:01:03.830207	11.1	30.2	-63.3	0.0
2026-01-16 08:01:06.077199	11.0	30.6	-66.0	0.0
2026-01-16 08:01:08.323097	10.9	31.1	-62.8	0.0
2026-01-16 08:01:10.567274	10.8	31.5	-63.8	0.0
2026-01-16 08:01:12.814458	10.7	32.0	-64.2	0.0
2026-01-16 08:01:15.060011	10.6	32.4	-64.4	0.0
2026-01-16 08:01:17.303215	10.4	32.9	-62.1	0.0
2026-01-16 08:01:19.550495	10.3	33.4	-63.0	0.0
2026-01-16 08:01:21.797119	10.2	33.8	-63.1	0.0
2026-01-16 08:01:24.044088	10.0	34.3	-63.6	0.0
2026-01-16 08:01:26.289663	9.9	34.8	-63.9	0.0
2026-01-16 08:01:28.535075	9.7	35.3	-65.3	0.0
2026-01-16 08:01:30.778190	9.6	35.8	-66.1	0.0
2026-01-16 08:01:33.024212	9.4	36.4	-66.0	0.0
2026-01-16 08:01:35.270803	9.3	36.9	-65.8	0.0
2026-01-16 08:01:37.517957	9.1	37.4	-67.7	0.0
2026-01-16 08:01:39.764339	8.9	38.0	-66.5	0.0
2026-01-16 08:01:42.009005	8.8	38.5	-67.1	0.0
2026-01-16 08:01:44.254466	8.6	39.1	-69.8	0.0
2026-01-16 08:01:46.500484	8.4	39.6	-68.9	0.0
2026-01-16 08:01:48.744398	8.2	40.2	-68.8	0.0
2026-01-16 08:01:50.990280	8.0	40.8	-66.7	0.0
2026-01-16 08:01:53.236051	7.8	41.4	-68.5	2.8
2026-01-16 08:01:55.478200	7.6	42.0	-66.9	0.0
2026-01-16 08:01:57.728485	7.3	42.6	-68.2	3.5
2026-01-16 08:01:59.974465	7.1	43.3	-67.5	3.8
2026-01-16 08:02:02.220870	6.8	43.9	-69.3	6.0
2026-01-16 08:02:04.465488	6.6	44.6	-69.3	1.6
2026-01-16 08:02:06.712739	6.3	45.2	-70.0	7.0
2026-01-16 08:02:08.957540	6.0	45.9	-69.8	6.1
2026-01-16 08:02:11.208598	5.7	46.6	-70.5	6.8
2026-01-16 08:02:13.455916	5.4	47.3	-68.8	2.9
2026-01-16 08:02:15.702568	5.1	48.0	-70.2	7.3
2026-01-16 08:02:17.948443	4.7	48.7	-68.2	2.0
2026-01-16 08:02:20.195931	4.4	49.4	-69.9	5.4
2026-01-16 08:02:22.441021	4.0	50.1	-71.7	8.1
2026-01-16 08:02:24.685275	3.6	50.9	-70.1	6.6
2026-01-16 08:02:26.933709	3.2	51.6	-71.5	8.7
2026-01-16 08:02:29.181740	2.8	52.4	-70.3	6.3
2026-01-16 08:02:31.430435	2.3	53.2	-71.6	9.0
2026-01-16 08:02:33.677619	1.8	53.9	-72.3	6.8
2026-01-16 08:02:35.921053	1.3	54.7	-71.0	7.8
2026-01-16 08:02:38.166012	0.8	55.5	-71.9	9.8
2026-01-16 08:02:40.411779	0.2	56.4	-71.2	6.3
2026-01-16 08:02:42.659459	359.6	57.2	-71.7	7.4
2026-01-16 08:02:44.908879	358.9	58.0	-71.4	8.7
2026-01-16 08:02:47.153736	358.2	58.9	-70.8	8.1
2026-01-16 08:02:49.400887	357.5	59.7	-69.7	6.9
2026-01-16 08:02:51.648055	356.7	60.6	-68.8	4.8
2026-01-16 08:02:53.894033	355.8	61.4	-70.3	7.4
2026-01-16 08:02:56.141593	354.9	62.3	-70.3	5.2
2026-01-16 08:02:58.389736	354.0	63.2	-71.3	7.3
2026-01-16 08:03:00.635253	352.9	64.0	-71.0	3.7
2026-01-16 08:03:02.883407	351.8	64.9	-70.3	3.5
2026-01-16 08:03:05.129283	350.5	65.8	-71.5	6.4
2026-01-16 08:03:07.375252	349.2	66.7	-71.5	6.5
2026-01-16 08:03:09.622468	347.8	67.5	-71.7	7.1
2026-01-16 08:03:11.871074	346.2	68.4	-70.1	3.5
2026-01-16 08:03:14.116589	344.5	69.3	-70.5	2.7
2026-01-16 08:03:16.361314	342.6	70.1	-70.8	2.2
2026-01-16 08:03:18.606539	340.5	70.9	-71.4	3.4
2026-01-16 08:03:20.853472	338.3	71.7	-72.5	4.9
2026-01-16 08:03:23.104248	335.8	72.5	-69.8	1.7
2026-01-16 08:03:25.351120	333.1	73.3	-71.4	2.0
2026-01-16 08:03:27.597629	330.1	74.0	-70.4	1.7
2026-01-16 08:03:29.843860	326.8	74.7	-71.5	8.0
2026-01-16 08:03:32.087509	323.3	75.3	-70.1	3.6
2026-01-16 08:03:34.332739	319.4	75.9	-71.7	7.9
2026-01-16 08:03:36.574939	315.1	76.4	-70.3	4.5
2026-01-16 08:03:38.819200	310.6	76.9	-71.6	9.4
2026-01-16 08:03:41.064275	305.8	77.2	-70.8	5.8
2026-01-16 08:03:43.309776	300.7	77.5	-71.3	6.6
2026-01-16 08:03:45.553110	295.4	77.6	-70.8	6.6
2026-01-16 08:03:47.797235	290.1	77.7	-71.2	4.5
2026-01-16 08:03:50.042221	284.7	77.6	-72.1	9.8
2026-01-16 08:03:52.289720	279.5	77.5	-72.7	8.4
2026-01-16 08:03:54.538255	274.4	77.2	-73.4	8.3
2026-01-16 08:03:56.783155	269.5	76.9	-72.9	7.8
2026-01-16 08:03:59.029327	265.0	76.5	-73.4	9.4
2026-01-16 08:04:01.276975	260.7	75.9	-73.3	8.8
2026-01-16 08:04:03.525157	256.8	75.4	-73.8	11.1
2026-01-16 08:04:05.770284	253.2	74.7	-73.4	10.2
2026-01-16 08:04:08.015083	249.9	74.0	-73.4	10.4
2026-01-16 08:04:10.263699	246.9	73.3	-73.6	10.3
2026-01-16 08:04:12.510537	244.2	72.6	-73.3	10.7
2026-01-16 08:04:14.754434	241.7	71.8	-74.1	10.4
2026-01-16 08:04:17.003394	239.4	71.0	-73.7	8.7
2026-01-16 08:04:19.247617	237.4	70.1	-73.9	11.4
2026-01-16 08:04:21.490364	235.5	69.3	-73.9	10.7
2026-01-16 08:04:23.735486	233.8	68.4	-73.8	9.8
2026-01-16 08:04:25.981917	232.2	67.5	-74.3	10.7
2026-01-16 08:04:28.227502	230.7	66.7	-74.2	11.5
2026-01-16 08:04:30.473244	229.4	65.8	-73.7	11.7
2026-01-16 08:04:32.720030	228.1	64.9	-73.8	9.8
2026-01-16 08:04:34.962464	227.0	64.0	-73.9	9.7
2026-01-16 08:04:37.211049	226.0	63.2	-73.7	10.3
2026-01-16 08:04:39.457602	225.0	62.3	-73.4	9.7
2026-01-16 08:04:41.704407	224.1	61.4	-73.4	11.1
2026-01-16 08:04:43.949580	223.2	60.6	-73.1	10.6
2026-01-16 08:04:46.193717	222.4	59.7	-73.2	9.5
2026-01-16 08:04:48.444257	221.7	58.8	-73.0	12.3
2026-01-16 08:04:50.692167	221.0	58.0	-73.3	11.8
2026-01-16 08:04:52.937596	220.3	57.2	-73.0	11.1
2026-01-16 08:04:55.182852	219.7	56.3	-73.1	11.5
2026-01-16 08:04:57.426216	219.1	55.5	-72.9	11.5
2026-01-16 08:04:59.671974	218.6	54.7	-73.1	10.9
2026-01-16 08:05:01.915142	218.1	53.9	-72.9	11.9
2026-01-16 08:05:04.160475	217.6	53.1	-73.0	12.7
2026-01-16 08:05:06.406905	217.1	52.4	-72.6	11.1
2026-01-16 08:05:08.654233	216.7	51.6	-72.6	11.7
2026-01-16 08:05:10.897575	216.3	50.8	-72.6	11.9
2026-01-16 08:05:13.140345	215.9	50.1	-72.3	12.0
2026-01-16 08:05:15.387728	215.5	49.4	-73.1	11.9
2026-01-16 08:05:17.634530	215.1	48.6	-73.0	10.7
2026-01-16 08:05:19.880383	214.8	47.9	-73.1	9.8
2026-01-16 08:05:22.124644	214.5	47.2	-73.5	12.8
2026-01-16 08:05:24.372600	214.1	46.5	-73.6	12.2
2026-01-16 08:05:26.618352	213.8	45.8	-73.8	12.1
2026-01-16 08:05:28.862526	213.6	45.2	-73.7	11.6
2026-01-16 08:05:31.109115	213.3	44.5	-73.9	12.8
2026-01-16 08:05:33.353231	213.0	43.9	-74.1	13.6
2026-01-16 08:05:35.597624	212.8	43.2	-74.0	13.1
2026-01-16 08:05:37.844471	212.5	42.6	-74.0	12.5
2026-01-16 08:05:40.087538	212.3	42.0	-74.2	13.1
2026-01-16 08:05:42.334292	212.1	41.3	-74.1	13.7
2026-01-16 08:05:44.580407	211.9	40.7	-73.8	12.4
2026-01-16 08:05:46.823634	211.7	40.2	-74.0	12.7
2026-01-16 08:05:49.071158	211.5	39.6	-74.0	11.2
2026-01-16 08:05:51.316243	211.3	39.0	-73.7	9.6
2026-01-16 08:05:53.560962	211.1	38.4	-73.4	9.5
2026-01-16 08:05:55.808560	210.9	37.9	-73.5	10.2
2026-01-16 08:05:58.052135	210.7	37.3	-73.1	8.7
2026-01-16 08:06:00.297779	210.6	36.8	-72.7	8.1
2026-01-16 08:06:02.543063	210.4	36.3	-72.9	9.2
2026-01-16 08:06:04.789771	210.2	35.7	-72.7	8.2
2026-01-16 08:06:07.035587	210.1	35.2	-72.7	7.7
2026-01-16 08:06:09.277453	209.9	34.7	-73.1	9.8
2026-01-16 08:06:11.523845	209.8	34.2	-73.1	9.7
2026-01-16 08:06:13.773603	209.7	33.7	-72.4	8.3
2026-01-16 08:06:16.021234	209.5	33.2	-72.5	7.8
2026-01-16 08:06:18.268723	209.4	32.8	-72.5	8.8
2026-01-16 08:06:20.517525	209.3	32.3	-72.6	9.0
2026-01-16 08:06:22.763589	209.2	31.8	-71.8	6.6
2026-01-16 08:06:25.009758	209.0	31.4	-72.1	6.1
2026-01-16 08:06:27.256482	208.9	30.9	-72.1	6.1
2026-01-16 08:06:29.500848	208.8	30.5	-71.4	3.7
2026-01-16 08:06:31.741935	208.7	30.1	-71.4	5.0
2026-01-16 08:06:33.986502	208.6	29.6	-71.3	4.1
2026-01-16 08:06:36.232583	208.5	29.2	-70.5	2.5
2026-01-16 08:06:38.477370	208.4	28.8	-70.9	3.4
2026-01-16 08:06:40.723798	208.3	28.4	-71.0	2.4
2026-01-16 08:06:42.970122	208.2	28.0	-71.0	3.3
2026-01-16 08:06:45.215177	208.1	27.6	-70.8	2.4
2026-01-16 08:06:47.463826	208.0	27.2	-71.0	0.9
2026-01-16 08:06:49.710689	207.9	26.8	-71.0	0.4
2026-01-16 08:06:51.956243	207.9	26.4	-70.7	0.0
2026-01-16 08:06:54.201544	207.8	26.1	-70.0	0.0
2026-01-16 08:06:56.446359	207.7	25.7	-70.7	0.0
2026-01-16 08:06:58.691498	207.6	25.3	-71.6	2.0
2026-01-16 08:07:00.936947	207.5	25.0	-70.3	0.0
2026-01-16 08:07:03.184304	207.5	24.6	-70.8	2.4
2026-01-16 08:07:05.429107	207.4	24.3	-70.5	0.0
2026-01-16 08:07:07.674735	207.3	23.9	-70.8	1.1
2026-01-16 08:07:09.919472	207.3	23.6	-71.2	0.0
2026-01-16 08:07:12.165500	207.2	23.2	-71.2	0.0
2026-01-16 08:07:14.408660	207.1	22.9	-70.4	0.0
2026-01-16 08:07:16.654560	207.1	22.6	-70.8	0.0
2026-01-16 08:07:18.895634	207.0	22.2	-70.4	0.0
2026-01-16 08:07:21.139392	206.9	21.9	-70.9	0.0
2026-01-16 08:07:23.385912	206.9	21.6	-70.9	0.0
2026-01-16 08:07:25.629617	206.8	21.3	-71.3	0.0
2026-01-16 08:07:27.870277	206.8	21.0	-71.1	0.0
2026-01-16 08:07:30.111510	206.7	20.7	-70.4	0.0
2026-01-16 08:07:32.359294	206.6	20.4	-70.7	0.0
2026-01-16 08:07:34.606515	206.6	20.1	-70.7	0.0
2026-01-16 08:07:36.851202	206.5	19.8	-71.2	0.0
2026-01-16 08:07:39.097488	206.5	19.5	-71.5	0.0
2026-01-16 08:07:41.343018	206.4	19.2	-71.5	0.0
2026-01-16 08:07:43.591202	206.4	18.9	-71.6	0.0
2026-01-16 08:07:45.836791	206.3	18.6	-71.6	0.0
2026-01-16 08:07:48.081594	206.3	18.4	-70.4	0.0
2026-01-16 08:07:50.328294	206.2	18.1	-71.3	0.0
2026-01-16 08:07:52.571187	206.2	17.8	-70.8	0.0
2026-01-16 08:07:54.817322	206.2	17.5	-71.2	0.0
2026-01-16 08:07:57.062834	206.1	17.3	-71.8	0.0
2026-01-16 08:07:59.306875	206.1	17.0	-70.7	0.0
2026-01-16 08:08:01.552386	206.0	16.7	-71.2	0.0
2026-01-16 08:08:03.803234	206.0	16.5	-71.4	0.0
2026-01-16 08:08:06.046582	205.9	16.2	-70.5	0.0
2026-01-16 08:08:08.293317	205.9	16.0	-71.9	0.0
2026-01-16 08:08:10.538317	205.9	15.7	-71.1	0.0
2026-01-16 08:08:12.786535	205.8	15.5	-70.4	0.0
2026-01-16 08:08:15.031931	205.8	15.2	-71.6	0.0
2026-01-16 08:08:17.274971	205.8	15.0	-71.3	0.0
2026-01-16 08:08:19.520584	205.7	14.8	-71.8	0.0
2026-01-16 08:08:21.762974	205.7	14.5	-70.8	0.0
2026-01-16 08:08:24.011126	205.6	14.3	-70.6	0.0
2026-01-16 08:08:26.257502	205.6	14.1	-70.9	0.0
2026-01-16 08:08:28.503253	205.6	13.8	-71.3	0.0
2026-01-16 08:08:30.748942	205.5	13.6	-71.3	0.0
2026-01-16 08:08:32.994157	205.5	13.4	-71.1	0.0
2026-01-16 08:08:35.237429	205.5	13.1	-70.9	0.0
2026-01-16 08:08:37.485756	205.4	12.9	-70.9	0.0
2026-01-16 08:08:39.733940	205.4	12.7	-70.9	0.0
2026-01-16 08:08:41.981749	205.4	12.5	-70.8	0.0
2026-01-16 08:08:44.222862	205.4	12.3	-71.0	0.0
2026-01-16 08:08:46.471181	205.3	12.0	-71.6	0.0
2026-01-16 08:08:48.720323	205.3	11.8	-70.7	0.0
2026-01-16 08:08:50.966539	205.3	11.6	-71.0	0.0
2026-01-16 08:08:53.211948	205.2	11.4	-71.1	0.0
2026-01-16 08:08:55.454521	205.2	11.2	-71.8	0.0
2026-01-16 08:08:57.698969	205.2	11.0	-71.6	0.0
2026-01-16 08:08:59.944459	205.2	10.8	-70.6	0.0
2026-01-16 08:09:02.186275	205.1	10.6	-75.2	0.0
2026-01-16 08:09:04.425151	205.1	10.4	-78.6	0.0
2026-01-16 08:09:06.672402	205.1	10.2	-78.1	0.0
2026-01-16 08:09:08.917461	205.1	10.0	-78.1	0.0
#Closed at: 2026-01-16 07:58:19.469488