passes_logs/2026/01/16/planumMaritime01/planumMaritime01__20260116_174811_METOP-C_rec.log

#Pass ID: 20260116_174811_METOP-C
#Satellite: METOP-C
#Configuration: METOP-C
#Start time: 2026-01-16 17:48:16.357991

#LorettStation: 1.0.0 05.05.2024
#Station: planumMaritime01
#Location: 37.49445 lon 55.92918 lat
#TLE: 1 43689U 18087A   26015.18579420  .00000072  00000+0  52830-4 0  9994
#TLE: 2 43689  98.6879  77.4344 0000553 183.5432 176.5742 14.21498340373097

#Time	Az	El	Level	SNR
2026-01-16 17:48:18.525386	152.0	10.2	-77.7	0.0
2026-01-16 17:48:20.777800	151.9	10.4	-76.6	0.0
2026-01-16 17:48:23.026517	151.9	10.6	-70.2	0.0
2026-01-16 17:48:25.274238	151.9	10.8	-70.1	0.0
2026-01-16 17:48:27.525707	151.8	11.0	-72.6	0.0
2026-01-16 17:48:29.774036	151.8	11.2	-73.8	0.9
2026-01-16 17:48:32.025562	151.7	11.4	-73.5	3.2
2026-01-16 17:48:34.275419	151.7	11.6	-73.1	1.7
2026-01-16 17:48:36.525332	151.7	11.8	-72.8	0.9
2026-01-16 17:48:38.773520	151.6	12.0	-73.6	3.0
2026-01-16 17:48:41.019477	151.6	12.3	-70.8	0.0
2026-01-16 17:48:43.268945	151.5	12.5	-73.3	0.0
2026-01-16 17:48:45.518072	151.5	12.7	-73.2	2.8
2026-01-16 17:48:47.765565	151.4	12.9	-73.4	3.9
2026-01-16 17:48:50.015246	151.4	13.1	-72.6	1.7
2026-01-16 17:48:52.263770	151.3	13.4	-71.9	0.3
2026-01-16 17:48:54.508165	151.3	13.6	-72.9	3.9
2026-01-16 17:48:56.753519	151.2	13.8	-72.9	2.5
2026-01-16 17:48:58.999510	151.2	14.0	-73.0	3.7
2026-01-16 17:49:01.245387	151.1	14.3	-72.9	1.7
2026-01-16 17:49:03.487398	151.1	14.5	-73.3	5.1
2026-01-16 17:49:05.732367	151.0	14.7	-73.3	4.4
2026-01-16 17:49:07.976618	151.0	15.0	-73.1	2.8
2026-01-16 17:49:10.224046	150.9	15.2	-73.0	3.8
2026-01-16 17:49:12.469612	150.8	15.5	-72.3	1.7
2026-01-16 17:49:14.713977	150.8	15.7	-72.9	4.2
2026-01-16 17:49:16.957954	150.7	16.0	-73.5	3.8
2026-01-16 17:49:19.205346	150.7	16.2	-73.0	4.8
2026-01-16 17:49:21.450147	150.6	16.5	-73.3	5.5
2026-01-16 17:49:23.692416	150.5	16.7	-73.3	4.9
2026-01-16 17:49:25.935429	150.5	17.0	-71.6	0.4
2026-01-16 17:49:28.180705	150.4	17.2	-73.6	5.1
2026-01-16 17:49:30.423182	150.3	17.5	-72.0	0.0
2026-01-16 17:49:32.667262	150.3	17.8	-73.5	5.5
2026-01-16 17:49:34.910273	150.2	18.0	-72.6	0.8
2026-01-16 17:49:37.156337	150.1	18.3	-72.8	2.9
2026-01-16 17:49:39.402840	150.1	18.6	-73.1	5.8
2026-01-16 17:49:41.645335	150.0	18.9	-74.0	6.8
2026-01-16 17:49:43.890260	149.9	19.1	-71.9	2.8
2026-01-16 17:49:46.134236	149.8	19.4	-73.3	5.9
2026-01-16 17:49:48.381211	149.8	19.7	-73.1	4.3
2026-01-16 17:49:50.627875	149.7	20.0	-72.9	5.3
2026-01-16 17:49:52.872789	149.6	20.3	-72.6	5.1
2026-01-16 17:49:55.116707	149.5	20.6	-72.8	5.8
2026-01-16 17:49:57.361559	149.4	20.9	-72.5	5.0
2026-01-16 17:49:59.606696	149.3	21.2	-73.2	4.9
2026-01-16 17:50:01.848651	149.3	21.5	-73.0	4.9
2026-01-16 17:50:04.095228	149.2	21.8	-73.3	5.3
2026-01-16 17:50:06.343011	149.1	22.2	-73.2	6.3
2026-01-16 17:50:08.585752	149.0	22.5	-73.0	6.3
2026-01-16 17:50:10.834759	148.9	22.8	-72.2	3.2
2026-01-16 17:50:13.078880	148.8	23.1	-72.0	5.9
2026-01-16 17:50:15.322405	148.7	23.5	-73.1	8.5
2026-01-16 17:50:17.570473	148.6	23.8	-72.6	7.5
2026-01-16 17:50:19.817818	148.5	24.1	-72.1	5.9
2026-01-16 17:50:22.063362	148.4	24.5	-72.9	6.9
2026-01-16 17:50:24.312603	148.2	24.8	-72.5	8.0
2026-01-16 17:50:26.562015	148.1	25.2	-72.9	6.6
2026-01-16 17:50:28.805203	148.0	25.6	-72.6	7.6
2026-01-16 17:50:31.049634	147.9	25.9	-73.0	6.7
2026-01-16 17:50:33.295391	147.8	26.3	-72.5	7.9
2026-01-16 17:50:35.542386	147.6	26.7	-72.0	6.8
2026-01-16 17:50:37.789492	147.5	27.1	-72.9	8.4
2026-01-16 17:50:40.039889	147.4	27.4	-72.5	7.8
2026-01-16 17:50:42.285440	147.3	27.8	-72.4	7.6
2026-01-16 17:50:44.531116	147.1	28.2	-72.4	6.8
2026-01-16 17:50:46.779002	147.0	28.6	-72.3	6.8
2026-01-16 17:50:49.024168	146.8	29.0	-72.5	7.3
2026-01-16 17:50:51.269060	146.7	29.5	-72.9	6.4
2026-01-16 17:50:53.515583	146.5	29.9	-72.5	8.1
2026-01-16 17:50:55.765951	146.4	30.3	-72.5	7.6
2026-01-16 17:50:58.010830	146.2	30.7	-72.2	8.0
2026-01-16 17:51:00.254211	146.0	31.2	-72.3	7.7
2026-01-16 17:51:02.500518	145.9	31.6	-72.2	9.2
2026-01-16 17:51:04.746790	145.7	32.1	-71.9	8.7
2026-01-16 17:51:06.992368	145.5	32.5	-71.8	8.0
2026-01-16 17:51:09.235760	145.3	33.0	-72.1	10.3
2026-01-16 17:51:11.482809	145.1	33.5	-71.9	9.8
2026-01-16 17:51:13.727424	144.9	33.9	-72.7	10.9
2026-01-16 17:51:15.971581	144.7	34.4	-72.6	9.9
2026-01-16 17:51:18.216426	144.5	34.9	-71.9	7.1
2026-01-16 17:51:20.464295	144.3	35.4	-72.2	8.9
2026-01-16 17:51:22.711062	144.1	35.9	-72.1	8.7
2026-01-16 17:51:24.958251	143.8	36.4	-72.4	9.1
2026-01-16 17:51:27.204058	143.6	37.0	-72.7	9.7
2026-01-16 17:51:29.452081	143.3	37.5	-72.8	9.4
2026-01-16 17:51:31.697450	143.1	38.0	-72.6	9.2
2026-01-16 17:51:33.945286	142.8	38.6	-71.9	7.3
2026-01-16 17:51:36.193429	142.5	39.1	-72.3	8.0
2026-01-16 17:51:38.441885	142.2	39.7	-72.2	9.9
2026-01-16 17:51:40.689182	142.0	40.3	-72.0	8.3
2026-01-16 17:51:42.931939	141.6	40.9	-71.5	7.0
2026-01-16 17:51:45.175434	141.3	41.4	-72.0	11.7
2026-01-16 17:51:47.419727	141.0	42.0	-70.9	8.0
2026-01-16 17:51:49.663614	140.7	42.6	-71.8	10.5
2026-01-16 17:51:51.904162	140.3	43.3	-71.6	9.6
2026-01-16 17:51:54.147881	139.9	43.9	-72.2	9.5
2026-01-16 17:51:56.393257	139.5	44.5	-72.1	8.8
2026-01-16 17:51:58.637110	139.1	45.1	-73.0	9.9
2026-01-16 17:52:00.884295	138.7	45.8	-72.7	10.5
2026-01-16 17:52:03.129029	138.3	46.5	-72.0	8.3
2026-01-16 17:52:05.375593	137.8	47.1	-72.1	8.2
2026-01-16 17:52:07.618955	137.3	47.8	-72.0	8.8
2026-01-16 17:52:09.872429	136.8	48.5	-71.5	10.0
2026-01-16 17:52:12.116720	136.3	49.2	-72.0	10.7
2026-01-16 17:52:14.357370	135.8	49.9	-71.8	11.7
2026-01-16 17:52:16.603967	135.2	50.6	-71.4	10.4
2026-01-16 17:52:18.845515	134.6	51.3	-71.6	9.1
2026-01-16 17:52:21.092042	134.0	52.0	-71.2	7.6
2026-01-16 17:52:23.338920	133.3	52.8	-71.5	8.9
2026-01-16 17:52:25.584468	132.6	53.5	-71.7	4.9
2026-01-16 17:52:27.827005	131.9	54.2	-72.8	11.0
2026-01-16 17:52:30.075523	131.1	55.0	-72.9	9.9
2026-01-16 17:52:32.319176	130.3	55.7	-73.5	9.6
2026-01-16 17:52:34.562284	129.4	56.5	-72.2	8.0
2026-01-16 17:52:36.806757	128.5	57.3	-71.6	5.2
2026-01-16 17:52:39.050701	127.6	58.0	-72.1	6.0
2026-01-16 17:52:41.300643	126.6	58.8	-72.5	9.9
2026-01-16 17:52:43.547501	125.5	59.6	-71.3	6.1
2026-01-16 17:52:45.796639	124.3	60.3	-71.5	9.0
2026-01-16 17:52:48.041891	123.1	61.1	-72.3	8.2
2026-01-16 17:52:50.287464	121.8	61.9	-71.0	5.8
2026-01-16 17:52:52.530871	120.4	62.6	-71.9	7.8
2026-01-16 17:52:54.772716	119.0	63.4	-70.0	4.8
2026-01-16 17:52:57.015078	117.4	64.1	-71.5	6.4
2026-01-16 17:52:59.260649	115.8	64.8	-71.3	8.0
2026-01-16 17:53:01.505584	114.0	65.6	-70.0	6.7
2026-01-16 17:53:03.751018	112.1	66.3	-70.4	7.3
2026-01-16 17:53:05.996438	110.1	66.9	-71.1	7.3
2026-01-16 17:53:08.241225	107.9	67.6	-70.2	4.6
2026-01-16 17:53:10.485603	105.6	68.2	-70.7	3.9
2026-01-16 17:53:12.728656	103.2	68.8	-70.3	1.7
2026-01-16 17:53:14.973009	100.6	69.4	-70.5	2.2
2026-01-16 17:53:17.218711	97.9	69.9	-69.8	4.2
2026-01-16 17:53:19.466432	95.0	70.4	-71.4	3.5
2026-01-16 17:53:21.710338	91.9	70.9	-70.1	4.7
2026-01-16 17:53:23.954920	88.7	71.2	-71.0	4.8
2026-01-16 17:53:26.203228	85.4	71.6	-71.0	2.6
2026-01-16 17:53:28.444610	82.0	71.8	-70.4	1.1
2026-01-16 17:53:30.693108	78.4	72.1	-70.3	0.0
2026-01-16 17:53:32.943203	74.8	72.2	-70.7	2.2
2026-01-16 17:53:35.185548	71.2	72.3	-70.8	4.2
2026-01-16 17:53:37.431489	67.5	72.3	-71.9	5.0
2026-01-16 17:53:39.677374	63.8	72.2	-69.9	3.0
2026-01-16 17:53:41.923258	60.2	72.1	-70.6	2.7
2026-01-16 17:53:44.168428	56.6	71.9	-69.1	3.4
2026-01-16 17:53:46.413951	53.2	71.6	-70.9	4.3
2026-01-16 17:53:48.660890	49.9	71.3	-68.3	0.0
2026-01-16 17:53:50.911240	46.6	70.9	-69.7	2.0
2026-01-16 17:53:53.156287	43.6	70.5	-70.1	4.3
2026-01-16 17:53:55.398329	40.7	70.0	-70.3	3.5
2026-01-16 17:53:57.644667	37.9	69.5	-69.0	1.6
2026-01-16 17:53:59.889978	35.3	68.9	-68.8	1.7
2026-01-16 17:54:02.134529	32.8	68.3	-68.6	1.4
2026-01-16 17:54:04.380691	30.5	67.7	-69.7	3.1
2026-01-16 17:54:06.624762	28.3	67.0	-69.2	1.4
2026-01-16 17:54:08.872294	26.3	66.4	-68.4	1.2
2026-01-16 17:54:11.117326	24.4	65.7	-69.2	5.0
2026-01-16 17:54:13.364189	22.6	65.0	-69.0	5.9
2026-01-16 17:54:15.615308	20.9	64.2	-69.6	2.3
2026-01-16 17:54:17.860990	19.3	63.5	-69.4	1.8
2026-01-16 17:54:20.107276	17.9	62.7	-69.5	1.7
2026-01-16 17:54:22.351248	16.5	62.0	-70.8	3.5
2026-01-16 17:54:24.598710	15.2	61.2	-70.8	3.5
2026-01-16 17:54:26.845421	13.9	60.5	-71.3	7.4
2026-01-16 17:54:29.091194	12.8	59.7	-71.7	8.3
2026-01-16 17:54:31.337214	11.7	58.9	-70.5	4.7
2026-01-16 17:54:33.581972	10.7	58.2	-70.6	6.1
2026-01-16 17:54:35.828353	9.7	57.4	-70.3	6.6
2026-01-16 17:54:38.076510	8.8	56.6	-70.6	5.9
2026-01-16 17:54:40.322909	7.9	55.9	-70.5	6.5
2026-01-16 17:54:42.567183	7.1	55.1	-70.6	6.7
2026-01-16 17:54:44.814180	6.3	54.4	-71.3	7.8
2026-01-16 17:54:47.059522	5.6	53.6	-70.5	6.3
2026-01-16 17:54:49.302448	4.9	52.9	-69.7	6.2
2026-01-16 17:54:51.548509	4.2	52.2	-69.1	4.8
2026-01-16 17:54:53.793159	3.6	51.5	-70.2	7.1
2026-01-16 17:54:56.041805	3.0	50.7	-69.0	4.2
2026-01-16 17:54:58.286582	2.4	50.0	-69.9	4.9
2026-01-16 17:55:00.531761	1.9	49.3	-69.5	3.3
2026-01-16 17:55:02.774969	1.3	48.6	-68.6	4.0
2026-01-16 17:55:05.021074	0.8	48.0	-68.5	3.3
2026-01-16 17:55:07.265774	0.4	47.3	-70.3	4.3
2026-01-16 17:55:09.507285	359.9	46.6	-69.5	0.5
2026-01-16 17:55:11.750108	359.5	46.0	-68.5	0.4
2026-01-16 17:55:13.994697	359.0	45.3	-66.8	0.0
2026-01-16 17:55:16.236861	358.6	44.7	-67.2	0.0
2026-01-16 17:55:18.484303	358.2	44.1	-66.4	0.0
2026-01-16 17:55:20.730755	357.9	43.4	-65.7	0.0
2026-01-16 17:55:22.976426	357.5	42.8	-65.7	0.0
2026-01-16 17:55:25.221246	357.2	42.2	-65.5	0.0
2026-01-16 17:55:27.467373	356.8	41.6	-64.7	0.0
2026-01-16 17:55:29.713169	356.5	41.0	-65.5	0.0
2026-01-16 17:55:31.958533	356.2	40.4	-64.4	0.0
2026-01-16 17:55:34.204321	355.9	39.9	-63.7	0.0
2026-01-16 17:55:36.449933	355.6	39.3	-62.5	0.0
2026-01-16 17:55:38.695511	355.4	38.8	-63.7	0.0
2026-01-16 17:55:40.940066	355.1	38.2	-63.9	0.0
2026-01-16 17:55:43.186584	354.8	37.7	-64.0	0.0
2026-01-16 17:55:45.431705	354.6	37.1	-63.5	0.0
2026-01-16 17:55:47.675134	354.3	36.6	-63.5	0.0
2026-01-16 17:55:49.920886	354.1	36.1	-63.1	0.0
2026-01-16 17:55:52.165020	353.9	35.6	-63.6	0.0
2026-01-16 17:55:54.413761	353.7	35.1	-61.3	0.0
2026-01-16 17:55:56.657137	353.4	34.6	-62.9	0.0
2026-01-16 17:55:58.904227	353.2	34.1	-63.5	0.0
2026-01-16 17:56:01.147571	353.0	33.7	-62.1	0.0
2026-01-16 17:56:03.392914	352.9	33.2	-63.1	0.0
2026-01-16 17:56:05.637391	352.7	32.7	-63.6	0.0
2026-01-16 17:56:07.883897	352.5	32.3	-63.1	0.0
2026-01-16 17:56:10.128313	352.3	31.8	-62.8	0.0
2026-01-16 17:56:12.376263	352.1	31.4	-62.8	0.0
2026-01-16 17:56:14.620403	352.0	30.9	-62.3	0.0
2026-01-16 17:56:16.867003	351.8	30.5	-62.7	0.0
2026-01-16 17:56:19.113155	351.6	30.1	-62.5	0.0
2026-01-16 17:56:21.361312	351.5	29.7	-63.6	0.0
2026-01-16 17:56:23.605368	351.3	29.2	-62.9	0.0
2026-01-16 17:56:25.849565	351.2	28.8	-62.9	0.0
2026-01-16 17:56:28.096439	351.1	28.4	-62.3	0.0
2026-01-16 17:56:30.340840	350.9	28.0	-63.2	0.0
2026-01-16 17:56:32.587247	350.8	27.6	-63.8	0.0
2026-01-16 17:56:34.831061	350.7	27.3	-62.3	0.0
2026-01-16 17:56:37.076107	350.5	26.9	-64.4	0.0
2026-01-16 17:56:39.320340	350.4	26.5	-64.4	0.0
2026-01-16 17:56:41.567326	350.3	26.1	-62.9	0.0
2026-01-16 17:56:43.811284	350.2	25.8	-63.4	0.0
2026-01-16 17:56:46.055450	350.0	25.4	-63.0	0.0
2026-01-16 17:56:48.300997	349.9	25.0	-62.8	0.0
2026-01-16 17:56:50.547473	349.8	24.7	-61.9	0.0
2026-01-16 17:56:52.794079	349.7	24.4	-61.0	0.0
2026-01-16 17:56:55.038212	349.6	24.0	-62.6	0.0
2026-01-16 17:56:57.286542	349.5	23.7	-62.4	0.0
2026-01-16 17:56:59.528682	349.4	23.3	-62.5	0.0
2026-01-16 17:57:01.775179	349.3	23.0	-63.5	0.0
2026-01-16 17:57:04.018307	349.2	22.7	-63.8	0.0
2026-01-16 17:57:06.262782	349.1	22.4	-63.5	0.0
2026-01-16 17:57:08.508528	349.0	22.0	-64.3	0.0
2026-01-16 17:57:10.753574	348.9	21.7	-64.6	0.0
2026-01-16 17:57:12.996485	348.9	21.4	-65.1	0.0
2026-01-16 17:57:15.242147	348.8	21.1	-65.1	0.0
2026-01-16 17:57:17.492288	348.7	20.8	-64.8	0.0
2026-01-16 17:57:19.736896	348.6	20.5	-63.5	0.0
2026-01-16 17:57:21.980252	348.5	20.2	-63.8	0.0
2026-01-16 17:57:24.225515	348.4	19.9	-65.3	0.0
2026-01-16 17:57:26.470743	348.4	19.6	-64.7	0.0
2026-01-16 17:57:28.712162	348.3	19.4	-64.8	0.0
2026-01-16 17:57:30.958224	348.2	19.1	-65.0	0.0
2026-01-16 17:57:33.206417	348.1	18.8	-63.8	0.0
2026-01-16 17:57:35.453945	348.1	18.5	-65.3	0.0
2026-01-16 17:57:37.700526	348.0	18.2	-64.4	0.0
2026-01-16 17:57:39.944469	347.9	18.0	-63.0	0.0
2026-01-16 17:57:42.191485	347.9	17.7	-64.9	0.0
2026-01-16 17:57:44.436609	347.8	17.4	-65.0	0.0
2026-01-16 17:57:46.680546	347.7	17.2	-64.6	0.0
2026-01-16 17:57:48.924328	347.7	16.9	-62.3	0.0
2026-01-16 17:57:51.168510	347.6	16.7	-64.1	0.0
2026-01-16 17:57:53.413317	347.6	16.4	-63.8	0.0
2026-01-16 17:57:55.657954	347.5	16.2	-63.0	0.0
2026-01-16 17:57:57.904443	347.4	15.9	-62.8	0.0
2026-01-16 17:58:00.151174	347.4	15.7	-63.1	0.0
2026-01-16 17:58:02.398454	347.3	15.4	-65.4	0.0
2026-01-16 17:58:04.641207	347.3	15.2	-65.6	0.0
2026-01-16 17:58:06.888128	347.2	14.9	-65.9	0.0
2026-01-16 17:58:09.131074	347.2	14.7	-65.1	0.0
2026-01-16 17:58:11.374453	347.1	14.5	-64.0	0.0
2026-01-16 17:58:13.618026	347.1	14.2	-64.9	0.0
2026-01-16 17:58:15.861999	347.0	14.0	-65.7	0.0
2026-01-16 17:58:18.107763	347.0	13.8	-64.5	0.0
2026-01-16 17:58:20.355090	346.9	13.6	-65.3	0.0
2026-01-16 17:58:22.598134	346.9	13.3	-65.0	0.0
2026-01-16 17:58:24.844289	346.8	13.1	-62.4	0.0
2026-01-16 17:58:27.086815	346.8	12.9	-62.6	0.0
2026-01-16 17:58:29.328655	346.7	12.7	-61.1	0.0
2026-01-16 17:58:31.574678	346.7	12.5	-61.2	0.0
2026-01-16 17:58:33.822208	346.6	12.3	-65.2	0.0
2026-01-16 17:58:36.068068	346.6	12.0	-62.9	0.0
2026-01-16 17:58:38.312900	346.6	11.8	-62.0	0.0
2026-01-16 17:58:40.556398	346.5	11.6	-59.2	0.0
2026-01-16 17:58:42.800051	346.5	11.4	-64.5	0.0
2026-01-16 17:58:45.045279	346.4	11.2	-65.3	0.0
2026-01-16 17:58:47.287975	346.4	11.0	-64.1	0.0
2026-01-16 17:58:49.532643	346.4	10.8	-64.2	0.0
2026-01-16 17:58:51.775247	346.3	10.6	-59.9	0.0
2026-01-16 17:58:54.020864	346.3	10.4	-62.5	0.0
2026-01-16 17:58:56.268706	346.2	10.2	-65.7	0.0
2026-01-16 17:58:58.512035	346.2	10.0	-71.8	0.0
#Closed at: 2026-01-16 17:48:11.363065