passes_logs/2026/01/16/planumMaritime01/planumMaritime01__20260116_071942_METOP-B_rec.log

#Pass ID: 20260116_071942_METOP-B
#Satellite: METOP-B
#Configuration: METOP-B
#Start time: 2026-01-16 07:19:47.938894

#LorettStation: 1.0.0 05.05.2024
#Station: planumMaritime01
#Location: 37.49445 lon 55.92918 lat
#TLE: 1 38771U 12049A   26015.15887683  .00000076  00000+0  54901-4 0  9997
#TLE: 2 38771  98.6750  69.5434 0003277  76.6011 283.5531 14.21422367691526

#Time	Az	El	Level	SNR
2026-01-16 07:19:52.125643	15.9	10.4	-63.2	0.0
2026-01-16 07:19:54.371231	15.9	10.6	-60.8	0.0
2026-01-16 07:19:56.615631	15.9	10.8	-60.7	0.0
2026-01-16 07:19:58.859355	15.9	11.0	-62.1	0.0
2026-01-16 07:20:01.108695	15.9	11.2	-61.1	0.0
2026-01-16 07:20:03.352262	15.9	11.4	-59.2	0.0
2026-01-16 07:20:05.601125	15.9	11.6	-60.7	0.0
2026-01-16 07:20:07.846735	15.9	11.8	-58.8	0.0
2026-01-16 07:20:10.091750	15.9	12.0	-61.4	0.0
2026-01-16 07:20:12.337940	15.8	12.2	-59.5	0.0
2026-01-16 07:20:14.580761	15.8	12.4	-59.3	0.0
2026-01-16 07:20:16.827827	15.8	12.6	-60.0	0.0
2026-01-16 07:20:19.072893	15.8	12.9	-58.9	0.0
2026-01-16 07:20:21.318493	15.8	13.1	-58.1	0.0
2026-01-16 07:20:23.563803	15.8	13.3	-59.4	0.0
2026-01-16 07:20:25.810816	15.8	13.5	-61.0	0.0
2026-01-16 07:20:28.059263	15.8	13.8	-58.4	0.0
2026-01-16 07:20:30.305329	15.8	14.0	-61.9	0.0
2026-01-16 07:20:32.548823	15.8	14.2	-59.6	0.0
2026-01-16 07:20:34.795300	15.8	14.5	-59.8	0.0
2026-01-16 07:20:37.039070	15.8	14.7	-59.7	0.0
2026-01-16 07:20:39.282693	15.8	14.9	-56.5	0.0
2026-01-16 07:20:41.530242	15.8	15.2	-64.6	0.0
2026-01-16 07:20:43.774959	15.8	15.4	-61.6	0.0
2026-01-16 07:20:46.018932	15.8	15.7	-62.8	0.0
2026-01-16 07:20:48.262204	15.8	15.9	-64.9	0.0
2026-01-16 07:20:50.510322	15.8	16.2	-63.2	0.0
2026-01-16 07:20:52.751955	15.8	16.4	-59.0	0.0
2026-01-16 07:20:54.995243	15.7	16.7	-60.8	0.0
2026-01-16 07:20:57.241305	15.7	16.9	-59.8	0.0
2026-01-16 07:20:59.484600	15.7	17.2	-59.4	0.0
2026-01-16 07:21:01.735341	15.7	17.4	-59.2	0.0
2026-01-16 07:21:03.977829	15.7	17.7	-60.0	0.0
2026-01-16 07:21:06.221989	15.7	18.0	-62.4	0.0
2026-01-16 07:21:08.465826	15.7	18.3	-60.6	0.0
2026-01-16 07:21:10.707598	15.7	18.5	-59.6	0.0
2026-01-16 07:21:12.952333	15.7	18.8	-62.1	0.0
2026-01-16 07:21:15.197529	15.7	19.1	-58.0	0.0
2026-01-16 07:21:17.441547	15.7	19.4	-62.6	0.0
2026-01-16 07:21:19.687170	15.6	19.7	-58.6	0.0
2026-01-16 07:21:21.933285	15.6	20.0	-62.7	0.0
2026-01-16 07:21:24.179547	15.6	20.2	-59.3	0.0
2026-01-16 07:21:26.425461	15.6	20.5	-57.6	0.0
2026-01-16 07:21:28.672176	15.6	20.9	-62.2	0.0
2026-01-16 07:21:30.917439	15.6	21.2	-61.5	0.0
2026-01-16 07:21:33.161066	15.6	21.5	-63.5	0.0
2026-01-16 07:21:35.402103	15.6	21.8	-60.6	0.0
2026-01-16 07:21:37.646728	15.5	22.1	-60.2	0.0
2026-01-16 07:21:39.891565	15.5	22.4	-60.4	0.0
2026-01-16 07:21:42.140433	15.5	22.7	-60.5	0.0
2026-01-16 07:21:44.386043	15.5	23.1	-59.1	0.0
2026-01-16 07:21:46.633102	15.5	23.4	-62.0	0.0
2026-01-16 07:21:48.878648	15.5	23.8	-60.5	0.0
2026-01-16 07:21:51.122603	15.4	24.1	-60.1	0.0
2026-01-16 07:21:53.371790	15.4	24.4	-64.7	0.0
2026-01-16 07:21:55.611647	15.4	24.8	-60.1	0.0
2026-01-16 07:21:57.856967	15.4	25.2	-64.0	0.0
2026-01-16 07:22:00.101463	15.4	25.5	-60.8	0.0
2026-01-16 07:22:02.346387	15.3	25.9	-65.0	0.0
2026-01-16 07:22:04.587695	15.3	26.3	-65.0	0.0
2026-01-16 07:22:06.832242	15.3	26.6	-64.2	0.0
2026-01-16 07:22:09.078029	15.3	27.0	-61.8	0.0
2026-01-16 07:22:11.320642	15.3	27.4	-62.8	0.0
2026-01-16 07:22:13.564998	15.2	27.8	-63.0	0.0
2026-01-16 07:22:15.809038	15.2	28.2	-60.8	0.0
2026-01-16 07:22:18.053581	15.2	28.6	-66.3	0.0
2026-01-16 07:22:20.297827	15.2	29.0	-65.0	0.0
2026-01-16 07:22:22.542769	15.1	29.4	-63.1	0.0
2026-01-16 07:22:24.784777	15.1	29.9	-63.6	0.0
2026-01-16 07:22:27.027673	15.1	30.3	-64.7	0.0
2026-01-16 07:22:29.274831	15.0	30.7	-66.5	0.0
2026-01-16 07:22:31.519978	15.0	31.2	-62.9	0.0
2026-01-16 07:22:33.766089	15.0	31.6	-65.1	0.0
2026-01-16 07:22:36.011712	14.9	32.1	-62.6	0.0
2026-01-16 07:22:38.255200	14.9	32.6	-65.3	0.0
2026-01-16 07:22:40.501118	14.9	33.0	-68.5	0.0
2026-01-16 07:22:42.746263	14.8	33.5	-68.2	0.0
2026-01-16 07:22:44.991724	14.8	34.0	-67.8	0.0
2026-01-16 07:22:47.239475	14.7	34.5	-66.4	0.0
2026-01-16 07:22:49.482662	14.7	35.0	-66.1	0.0
2026-01-16 07:22:51.729581	14.7	35.5	-64.1	0.0
2026-01-16 07:22:53.975165	14.6	36.0	-67.2	0.0
2026-01-16 07:22:56.218990	14.6	36.6	-67.7	0.0
2026-01-16 07:22:58.461434	14.5	37.1	-65.2	0.0
2026-01-16 07:23:00.706771	14.5	37.7	-67.6	0.4
2026-01-16 07:23:02.953907	14.4	38.2	-67.9	2.3
2026-01-16 07:23:05.196149	14.4	38.8	-66.8	0.0
2026-01-16 07:23:07.436509	14.3	39.4	-66.0	0.0
2026-01-16 07:23:09.681975	14.2	39.9	-69.7	1.2
2026-01-16 07:23:11.927418	14.2	40.5	-68.5	0.0
2026-01-16 07:23:14.171711	14.1	41.1	-70.2	1.5
2026-01-16 07:23:16.417693	14.0	41.8	-69.2	2.0
2026-01-16 07:23:18.666061	14.0	42.4	-68.4	1.2
2026-01-16 07:23:20.910790	13.9	43.0	-70.4	5.2
2026-01-16 07:23:23.160137	13.8	43.7	-68.9	4.2
2026-01-16 07:23:25.404755	13.7	44.3	-69.2	3.1
2026-01-16 07:23:27.649196	13.6	45.0	-69.4	5.8
2026-01-16 07:23:29.894238	13.6	45.7	-69.0	3.1
2026-01-16 07:23:32.140701	13.5	46.4	-68.5	0.9
2026-01-16 07:23:34.383750	13.4	47.1	-69.7	3.6
2026-01-16 07:23:36.631917	13.3	47.8	-70.9	4.7
2026-01-16 07:23:38.875846	13.1	48.5	-70.2	2.0
2026-01-16 07:23:41.118916	13.0	49.3	-70.9	6.8
2026-01-16 07:23:43.361678	12.9	50.0	-70.8	6.8
2026-01-16 07:23:45.613770	12.8	50.8	-71.7	8.4
2026-01-16 07:23:47.854964	12.6	51.6	-69.4	5.0
2026-01-16 07:23:50.100816	12.5	52.4	-69.7	5.2
2026-01-16 07:23:52.348179	12.3	53.2	-70.6	4.5
2026-01-16 07:23:54.593725	12.2	54.0	-71.7	7.7
2026-01-16 07:23:56.841265	12.0	54.8	-69.2	4.1
2026-01-16 07:23:59.086202	11.8	55.7	-70.7	7.5
2026-01-16 07:24:01.330351	11.6	56.5	-69.6	5.2
2026-01-16 07:24:03.575385	11.4	57.4	-69.5	5.0
2026-01-16 07:24:05.820884	11.2	58.3	-70.9	5.7
2026-01-16 07:24:08.069700	11.0	59.2	-69.5	2.5
2026-01-16 07:24:10.311531	10.7	60.1	-70.8	3.4
2026-01-16 07:24:12.554081	10.4	61.0	-69.2	2.5
2026-01-16 07:24:14.798535	10.2	62.0	-70.4	5.1
2026-01-16 07:24:17.043603	9.8	62.9	-71.2	5.2
2026-01-16 07:24:19.286845	9.5	63.9	-69.5	3.7
2026-01-16 07:24:21.533203	9.1	64.9	-69.1	6.0
2026-01-16 07:24:23.779853	8.7	65.8	-70.0	5.7
2026-01-16 07:24:26.029669	8.2	66.8	-72.4	8.4
2026-01-16 07:24:28.274201	7.7	67.9	-70.3	4.7
2026-01-16 07:24:30.518956	7.2	68.9	-72.6	5.9
2026-01-16 07:24:32.765474	6.6	69.9	-72.8	3.5
2026-01-16 07:24:35.010236	5.9	70.9	-72.5	1.5
2026-01-16 07:24:37.256981	5.1	72.0	-72.9	6.3
2026-01-16 07:24:39.501167	4.2	73.0	-70.8	1.7
2026-01-16 07:24:41.746228	3.2	74.1	-70.6	3.7
2026-01-16 07:24:43.992516	2.1	75.1	-72.1	5.8
2026-01-16 07:24:46.236872	0.8	76.2	-70.5	2.6
2026-01-16 07:24:48.481679	359.2	77.3	-70.2	2.3
2026-01-16 07:24:50.724165	357.3	78.3	-72.1	5.9
2026-01-16 07:24:52.969519	355.1	79.4	-71.3	6.4
2026-01-16 07:24:55.213637	352.4	80.4	-70.8	3.4
2026-01-16 07:24:57.463281	349.0	81.4	-71.2	5.3
2026-01-16 07:24:59.707485	344.7	82.4	-72.3	6.7
2026-01-16 07:25:01.951845	339.1	83.3	-72.8	7.2
2026-01-16 07:25:04.195712	331.8	84.2	-72.5	6.3
2026-01-16 07:25:06.440098	322.2	84.9	-72.3	9.3
2026-01-16 07:25:08.681935	309.9	85.4	-72.4	7.2
2026-01-16 07:25:10.924896	295.2	85.7	-72.3	7.0
2026-01-16 07:25:13.170525	279.5	85.7	-72.3	8.9
2026-01-16 07:25:15.420075	265.0	85.4	-71.9	9.0
2026-01-16 07:25:17.667627	253.1	84.8	-72.2	8.8
2026-01-16 07:25:19.912940	243.9	84.1	-72.2	9.3
2026-01-16 07:25:22.157222	236.9	83.2	-73.0	9.6
2026-01-16 07:25:24.404603	231.5	82.3	-72.5	9.7
2026-01-16 07:25:26.652386	227.4	81.3	-72.8	7.9
2026-01-16 07:25:28.898621	224.1	80.2	-72.9	7.1
2026-01-16 07:25:31.142943	221.4	79.2	-73.0	6.9
2026-01-16 07:25:33.388987	219.3	78.2	-73.4	5.8
2026-01-16 07:25:35.632936	217.5	77.1	-73.0	6.1
2026-01-16 07:25:37.884031	215.9	76.0	-73.7	8.7
2026-01-16 07:25:40.129451	214.6	75.0	-74.5	8.1
2026-01-16 07:25:42.375320	213.5	73.9	-74.6	7.3
2026-01-16 07:25:44.621343	212.5	72.9	-73.9	7.5
2026-01-16 07:25:46.864045	211.7	71.8	-74.2	8.3
2026-01-16 07:25:49.109803	210.9	70.8	-74.3	7.8
2026-01-16 07:25:51.357479	210.2	69.7	-74.0	6.7
2026-01-16 07:25:53.605060	209.6	68.7	-74.1	7.6
2026-01-16 07:25:55.853962	209.1	67.7	-73.3	7.3
2026-01-16 07:25:58.102036	208.6	66.7	-73.8	8.1
2026-01-16 07:26:00.347900	208.2	65.7	-73.2	7.0
2026-01-16 07:26:02.593723	207.7	64.7	-73.6	8.2
2026-01-16 07:26:04.837534	207.4	63.7	-72.6	9.1
2026-01-16 07:26:07.083429	207.0	62.7	-73.0	9.2
2026-01-16 07:26:09.328073	206.7	61.8	-72.8	7.9
2026-01-16 07:26:11.576291	206.4	60.9	-73.1	7.1
2026-01-16 07:26:13.822904	206.1	59.9	-73.2	8.8
2026-01-16 07:26:16.068293	205.9	59.0	-73.3	9.8
2026-01-16 07:26:18.316391	205.7	58.1	-72.6	7.0
2026-01-16 07:26:20.560832	205.4	57.2	-73.4	4.8
2026-01-16 07:26:22.804141	205.2	56.4	-74.3	6.4
2026-01-16 07:26:25.050995	205.0	55.5	-73.9	9.3
2026-01-16 07:26:27.301974	204.9	54.6	-73.4	8.1
2026-01-16 07:26:29.545468	204.7	53.8	-73.5	9.8
2026-01-16 07:26:31.789171	204.5	53.0	-72.9	10.2
2026-01-16 07:26:34.033275	204.4	52.2	-72.7	8.1
2026-01-16 07:26:36.281807	204.2	51.4	-72.8	10.1
2026-01-16 07:26:38.527498	204.1	50.6	-73.0	9.2
2026-01-16 07:26:40.772945	204.0	49.8	-72.8	9.0
2026-01-16 07:26:43.017324	203.9	49.1	-72.9	8.7
2026-01-16 07:26:45.262427	203.7	48.3	-73.5	8.7
2026-01-16 07:26:47.510337	203.6	47.6	-73.7	8.7
2026-01-16 07:26:49.755844	203.5	46.9	-74.1	9.6
2026-01-16 07:26:51.999820	203.4	46.2	-74.1	8.8
2026-01-16 07:26:54.241363	203.3	45.5	-74.1	9.4
2026-01-16 07:26:56.488168	203.2	44.8	-74.1	9.4
2026-01-16 07:26:58.735654	203.2	44.1	-73.6	9.8
2026-01-16 07:27:00.985409	203.1	43.5	-73.5	9.5
2026-01-16 07:27:03.230288	203.0	42.8	-73.4	9.9
2026-01-16 07:27:05.474685	202.9	42.2	-73.3	9.7
2026-01-16 07:27:07.718659	202.9	41.6	-73.2	10.0
2026-01-16 07:27:09.963218	202.8	41.0	-73.1	9.4
2026-01-16 07:27:12.207620	202.7	40.3	-73.2	8.1
2026-01-16 07:27:14.457372	202.7	39.7	-73.2	9.1
2026-01-16 07:27:16.704359	202.6	39.2	-73.3	7.5
2026-01-16 07:27:18.949205	202.5	38.6	-73.2	7.6
2026-01-16 07:27:21.192876	202.5	38.0	-72.8	6.5
2026-01-16 07:27:23.438506	202.4	37.5	-72.6	5.5
2026-01-16 07:27:25.684849	202.4	36.9	-72.5	5.1
2026-01-16 07:27:27.928861	202.3	36.4	-72.7	6.3
2026-01-16 07:27:30.172492	202.3	35.8	-72.7	6.8
2026-01-16 07:27:32.418539	202.2	35.3	-72.8	6.6
2026-01-16 07:27:34.666549	202.2	34.8	-72.0	5.7
2026-01-16 07:27:36.910682	202.1	34.3	-71.4	5.0
2026-01-16 07:27:39.156010	202.1	33.8	-72.1	4.2
2026-01-16 07:27:41.401541	202.1	33.3	-72.1	6.2
2026-01-16 07:27:43.644331	202.0	32.8	-71.3	3.5
2026-01-16 07:27:45.891576	202.0	32.4	-71.7	3.6
2026-01-16 07:27:48.135155	201.9	31.9	-72.3	3.5
2026-01-16 07:27:50.382978	201.9	31.4	-71.0	2.6
2026-01-16 07:27:52.628086	201.9	31.0	-72.0	5.7
2026-01-16 07:27:54.877141	201.8	30.5	-71.5	1.8
2026-01-16 07:27:57.120761	201.8	30.1	-71.6	2.7
2026-01-16 07:27:59.367716	201.8	29.7	-70.8	2.9
2026-01-16 07:28:01.615369	201.7	29.2	-70.4	0.0
2026-01-16 07:28:03.859466	201.7	28.8	-71.1	0.0
2026-01-16 07:28:06.105091	201.7	28.4	-70.3	0.0
2026-01-16 07:28:08.350121	201.7	28.0	-70.9	0.5
2026-01-16 07:28:10.596652	201.6	27.6	-70.3	0.0
2026-01-16 07:28:12.846585	201.6	27.2	-70.9	0.0
2026-01-16 07:28:15.092321	201.6	26.8	-70.4	0.0
2026-01-16 07:28:17.337689	201.6	26.4	-71.2	0.0
2026-01-16 07:28:19.582604	201.5	26.1	-70.5	0.0
2026-01-16 07:28:21.829618	201.5	25.7	-71.4	0.0
2026-01-16 07:28:24.075122	201.5	25.3	-70.6	2.2
2026-01-16 07:28:26.316691	201.5	24.9	-69.6	0.0
2026-01-16 07:28:28.562690	201.4	24.6	-70.2	0.0
2026-01-16 07:28:30.810277	201.4	24.2	-70.8	0.0
2026-01-16 07:28:33.054876	201.4	23.9	-70.0	0.0
2026-01-16 07:28:35.300596	201.4	23.5	-70.1	0.0
2026-01-16 07:28:37.544449	201.4	23.2	-71.2	0.1
2026-01-16 07:28:39.787403	201.4	22.9	-71.0	0.0
2026-01-16 07:28:42.034020	201.3	22.5	-70.3	0.0
2026-01-16 07:28:44.277893	201.3	22.2	-71.3	0.0
2026-01-16 07:28:46.526455	201.3	21.9	-71.8	0.0
2026-01-16 07:28:48.773326	201.3	21.6	-70.3	0.0
2026-01-16 07:28:51.018107	201.3	21.3	-71.1	0.0
2026-01-16 07:28:53.261012	201.3	21.0	-71.4	0.0
2026-01-16 07:28:55.505674	201.2	20.6	-70.2	0.0
2026-01-16 07:28:57.751822	201.2	20.3	-71.2	0.0
2026-01-16 07:28:59.995502	201.2	20.0	-70.7	0.0
2026-01-16 07:29:02.237877	201.2	19.7	-70.9	0.0
2026-01-16 07:29:04.482671	201.2	19.5	-70.4	0.0
2026-01-16 07:29:06.728483	201.2	19.2	-70.7	0.0
2026-01-16 07:29:08.973134	201.2	18.9	-70.8	0.0
2026-01-16 07:29:11.217375	201.2	18.6	-71.0	0.0
2026-01-16 07:29:13.461761	201.1	18.3	-71.5	0.0
2026-01-16 07:29:15.706972	201.1	18.0	-71.6	0.0
2026-01-16 07:29:17.952471	201.1	17.8	-71.1	0.0
2026-01-16 07:29:20.196927	201.1	17.5	-71.4	0.0
2026-01-16 07:29:22.443084	201.1	17.2	-70.9	0.0
2026-01-16 07:29:24.688574	201.1	17.0	-71.1	0.0
2026-01-16 07:29:26.933740	201.1	16.7	-70.9	0.0
2026-01-16 07:29:29.181558	201.1	16.5	-71.1	0.0
2026-01-16 07:29:31.427602	201.1	16.2	-70.9	0.0
2026-01-16 07:29:33.675212	201.0	15.9	-71.1	0.0
2026-01-16 07:29:35.921150	201.0	15.7	-70.8	0.0
2026-01-16 07:29:38.167657	201.0	15.4	-71.4	0.0
2026-01-16 07:29:40.414188	201.0	15.2	-71.5	0.0
2026-01-16 07:29:42.657605	201.0	15.0	-71.2	0.0
2026-01-16 07:29:44.903931	201.0	14.7	-71.6	0.0
2026-01-16 07:29:47.150251	201.0	14.5	-70.7	0.0
2026-01-16 07:29:49.399216	201.0	14.2	-71.2	0.0
2026-01-16 07:29:51.644764	201.0	14.0	-71.1	0.0
2026-01-16 07:29:53.890540	201.0	13.8	-71.5	0.0
2026-01-16 07:29:56.134391	201.0	13.6	-71.0	0.0
2026-01-16 07:29:58.378398	201.0	13.3	-71.4	0.0
2026-01-16 07:30:00.621225	201.0	13.1	-71.6	0.0
2026-01-16 07:30:02.867265	201.0	12.9	-71.7	0.0
2026-01-16 07:30:05.113700	200.9	12.7	-71.6	0.0
2026-01-16 07:30:07.360954	200.9	12.4	-71.7	0.0
2026-01-16 07:30:09.606453	200.9	12.2	-72.1	0.0
2026-01-16 07:30:11.850979	200.9	12.0	-71.3	0.0
2026-01-16 07:30:14.095124	200.9	11.8	-72.1	0.0
2026-01-16 07:30:16.340207	200.9	11.6	-73.0	0.0
2026-01-16 07:30:18.584527	200.9	11.4	-72.6	0.0
2026-01-16 07:30:20.829721	200.9	11.2	-72.1	0.0
2026-01-16 07:30:23.075399	200.9	11.0	-70.8	0.0
2026-01-16 07:30:25.322143	200.9	10.8	-72.2	0.0
2026-01-16 07:30:27.566643	200.9	10.6	-77.6	0.0
2026-01-16 07:30:29.811941	200.9	10.4	-79.7	0.0
2026-01-16 07:30:32.057563	200.9	10.2	-79.1	0.0
#Closed at: 2026-01-16 07:19:42.946147