passes_logs/2026/01/16/planumMaritime01/planumMaritime01__20260116_192948_METOP-C_rec.log

#Pass ID: 20260116_192948_METOP-C
#Satellite: METOP-C
#Configuration: METOP-C
#Start time: 2026-01-16 19:29:53.682118

#LorettStation: 1.0.0 05.05.2024
#Station: planumMaritime01
#Location: 37.49445 lon 55.92918 lat
#TLE: 1 43689U 18087A   26016.59355496  .00000086  00000+0  59208-4 0  9996
#TLE: 2 43689  98.6876  78.8199 0000623 181.1520 178.9656 14.21498808373298

#Time	Az	El	Level	SNR
2026-01-16 19:29:55.850033	215.6	10.1	-78.3	0.0
2026-01-16 19:29:58.099152	215.9	10.3	-78.7	0.0
2026-01-16 19:30:00.346348	216.2	10.5	-79.2	0.0
2026-01-16 19:30:02.593349	216.4	10.6	-77.9	0.0
2026-01-16 19:30:04.844849	216.7	10.8	-75.1	0.0
2026-01-16 19:30:07.090000	217.0	10.9	-73.4	1.9
2026-01-16 19:30:09.334351	217.2	11.1	-72.6	3.4
2026-01-16 19:30:11.579478	217.5	11.2	-72.1	0.0
2026-01-16 19:30:13.824465	217.8	11.4	-72.6	0.0
2026-01-16 19:30:16.073679	218.1	11.5	-72.5	3.7
2026-01-16 19:30:18.319190	218.4	11.7	-72.3	2.8
2026-01-16 19:30:20.566438	218.6	11.9	-72.3	2.8
2026-01-16 19:30:22.811168	218.9	12.0	-72.0	0.5
2026-01-16 19:30:25.057356	219.2	12.2	-72.5	2.8
2026-01-16 19:30:27.301479	219.5	12.3	-72.7	2.2
2026-01-16 19:30:29.548838	219.8	12.5	-72.3	1.6
2026-01-16 19:30:31.797868	220.1	12.7	-72.6	5.5
2026-01-16 19:30:34.045642	220.4	12.8	-72.4	4.4
2026-01-16 19:30:36.295229	220.7	13.0	-72.7	4.1
2026-01-16 19:30:38.540401	221.1	13.1	-72.1	3.5
2026-01-16 19:30:40.784493	221.4	13.3	-72.1	3.1
2026-01-16 19:30:43.034976	221.7	13.5	-72.3	4.2
2026-01-16 19:30:45.281784	222.0	13.6	-73.0	5.5
2026-01-16 19:30:47.528540	222.3	13.8	-72.8	2.4
2026-01-16 19:30:49.774951	222.7	14.0	-73.1	5.6
2026-01-16 19:30:52.023675	223.0	14.1	-72.9	6.4
2026-01-16 19:30:54.272424	223.3	14.3	-72.6	3.5
2026-01-16 19:30:56.519008	223.7	14.4	-73.6	5.5
2026-01-16 19:30:58.764903	224.0	14.6	-73.4	4.3
2026-01-16 19:31:01.011453	224.4	14.8	-73.2	7.0
2026-01-16 19:31:03.261144	224.7	14.9	-73.4	5.1
2026-01-16 19:31:05.503282	225.1	15.1	-73.8	2.8
2026-01-16 19:31:07.751433	225.4	15.3	-73.1	5.6
2026-01-16 19:31:09.996468	225.8	15.4	-73.4	6.0
2026-01-16 19:31:12.241554	226.2	15.6	-72.8	4.1
2026-01-16 19:31:14.488375	226.5	15.7	-73.5	6.7
2026-01-16 19:31:16.731024	226.9	15.9	-73.3	5.5
2026-01-16 19:31:18.976373	227.3	16.1	-73.3	7.0
2026-01-16 19:31:21.219631	227.7	16.2	-73.1	6.7
2026-01-16 19:31:23.464927	228.1	16.4	-73.1	7.3
2026-01-16 19:31:25.709437	228.5	16.6	-73.5	6.5
2026-01-16 19:31:27.955599	228.9	16.7	-73.2	7.8
2026-01-16 19:31:30.201652	229.3	16.9	-73.8	7.2
2026-01-16 19:31:32.448372	229.7	17.0	-74.3	7.6
2026-01-16 19:31:34.696451	230.1	17.2	-74.0	7.3
2026-01-16 19:31:36.941152	230.5	17.4	-74.1	7.5
2026-01-16 19:31:39.186336	230.9	17.5	-73.5	5.2
2026-01-16 19:31:41.433943	231.3	17.7	-73.8	7.3
2026-01-16 19:31:43.682585	231.7	17.9	-74.0	8.7
2026-01-16 19:31:45.927396	232.2	18.0	-73.8	7.7
2026-01-16 19:31:48.173459	232.6	18.2	-73.3	6.3
2026-01-16 19:31:50.419527	233.1	18.3	-73.4	7.8
2026-01-16 19:31:52.664229	233.5	18.5	-73.5	8.5
2026-01-16 19:31:54.908705	233.9	18.6	-73.4	7.7
2026-01-16 19:31:57.158615	234.4	18.8	-73.3	7.0
2026-01-16 19:31:59.409423	234.9	19.0	-73.0	7.9
2026-01-16 19:32:01.654797	235.3	19.1	-73.6	7.3
2026-01-16 19:32:03.898235	235.8	19.3	-72.3	5.4
2026-01-16 19:32:06.144741	236.3	19.4	-73.2	8.4
2026-01-16 19:32:08.389305	236.7	19.6	-73.0	8.2
2026-01-16 19:32:10.637555	237.2	19.7	-73.2	8.4
2026-01-16 19:32:12.883926	237.7	19.9	-72.9	7.3
2026-01-16 19:32:15.127606	238.2	20.0	-73.5	8.7
2026-01-16 19:32:17.374444	238.7	20.2	-73.0	7.7
2026-01-16 19:32:19.622413	239.2	20.3	-72.6	7.3
2026-01-16 19:32:21.865538	239.7	20.5	-72.5	6.7
2026-01-16 19:32:24.110234	240.2	20.6	-73.0	8.1
2026-01-16 19:32:26.354629	240.7	20.8	-73.1	8.8
2026-01-16 19:32:28.601413	241.2	20.9	-73.4	9.0
2026-01-16 19:32:30.845543	241.7	21.0	-73.3	9.3
2026-01-16 19:32:33.092209	242.3	21.2	-72.9	7.9
2026-01-16 19:32:35.336574	242.8	21.3	-73.0	7.6
2026-01-16 19:32:37.582536	243.3	21.4	-73.1	8.7
2026-01-16 19:32:39.829314	243.9	21.6	-73.0	7.6
2026-01-16 19:32:42.075005	244.4	21.7	-72.7	6.9
2026-01-16 19:32:44.321674	245.0	21.8	-72.7	9.2
2026-01-16 19:32:46.568332	245.5	22.0	-72.9	9.4
2026-01-16 19:32:48.815914	246.1	22.1	-72.7	8.0
2026-01-16 19:32:51.060710	246.6	22.2	-72.3	8.7
2026-01-16 19:32:53.307578	247.2	22.3	-72.1	9.4
2026-01-16 19:32:55.554031	247.8	22.4	-72.2	8.2
2026-01-16 19:32:57.799911	248.3	22.6	-72.5	8.1
2026-01-16 19:33:00.046177	248.9	22.7	-72.5	8.0
2026-01-16 19:33:02.290528	249.5	22.8	-72.7	7.9
2026-01-16 19:33:04.534654	250.1	22.9	-72.6	8.6
2026-01-16 19:33:06.782437	250.7	23.0	-71.5	3.6
2026-01-16 19:33:09.030539	251.3	23.1	-72.7	7.5
2026-01-16 19:33:11.275891	251.9	23.2	-72.9	7.6
2026-01-16 19:33:13.521471	252.5	23.3	-72.9	7.6
2026-01-16 19:33:15.767983	253.1	23.4	-73.0	6.9
2026-01-16 19:33:18.012027	253.7	23.5	-72.0	4.5
2026-01-16 19:33:20.257880	254.3	23.6	-72.9	6.1
2026-01-16 19:33:22.503016	254.9	23.7	-72.6	6.6
2026-01-16 19:33:24.750488	255.5	23.7	-71.8	6.2
2026-01-16 19:33:26.996958	256.2	23.8	-71.4	4.4
2026-01-16 19:33:29.248802	256.8	23.9	-72.3	7.6
2026-01-16 19:33:31.495796	257.4	24.0	-72.1	7.3
2026-01-16 19:33:33.740815	258.1	24.0	-71.8	8.2
2026-01-16 19:33:35.985987	258.7	24.1	-71.6	6.8
2026-01-16 19:33:38.235428	259.3	24.2	-71.9	6.9
2026-01-16 19:33:40.481359	260.0	24.2	-71.5	8.0
2026-01-16 19:33:42.729950	260.6	24.3	-72.1	7.9
2026-01-16 19:33:44.973340	261.3	24.3	-71.1	5.4
2026-01-16 19:33:47.218449	261.9	24.4	-72.0	7.9
2026-01-16 19:33:49.462680	262.5	24.4	-71.3	6.9
2026-01-16 19:33:51.706947	263.2	24.5	-72.1	6.4
2026-01-16 19:33:53.954147	263.8	24.5	-72.1	7.6
2026-01-16 19:33:56.195284	264.5	24.5	-71.7	6.8
2026-01-16 19:33:58.442149	265.1	24.6	-71.7	6.2
2026-01-16 19:34:00.688762	265.8	24.6	-71.5	6.0
2026-01-16 19:34:02.935076	266.5	24.6	-71.7	5.8
2026-01-16 19:34:05.183065	267.1	24.6	-71.3	6.8
2026-01-16 19:34:07.429289	267.8	24.6	-71.2	5.0
2026-01-16 19:34:09.676300	268.4	24.6	-71.4	5.3
2026-01-16 19:34:11.920488	269.1	24.7	-71.7	6.8
2026-01-16 19:34:14.161449	269.7	24.7	-69.9	1.7
2026-01-16 19:34:16.405341	270.4	24.7	-71.0	6.1
2026-01-16 19:34:18.651405	271.0	24.6	-70.6	3.0
2026-01-16 19:34:20.896486	271.7	24.6	-70.4	4.7
2026-01-16 19:34:23.141498	272.4	24.6	-70.1	4.2
2026-01-16 19:34:25.388438	273.0	24.6	-70.3	5.4
2026-01-16 19:34:27.635170	273.7	24.6	-70.3	3.4
2026-01-16 19:34:29.877749	274.3	24.6	-69.3	0.0
2026-01-16 19:34:32.123190	275.0	24.5	-70.1	5.2
2026-01-16 19:34:34.365290	275.6	24.5	-70.1	2.9
2026-01-16 19:34:36.612590	276.3	24.5	-69.7	3.1
2026-01-16 19:34:38.854511	276.9	24.4	-70.5	1.4
2026-01-16 19:34:41.099492	277.6	24.4	-70.4	2.9
2026-01-16 19:34:43.346379	278.2	24.3	-70.7	3.6
2026-01-16 19:34:45.589350	278.8	24.3	-70.5	4.9
2026-01-16 19:34:47.835161	279.5	24.2	-69.5	0.0
2026-01-16 19:34:50.081686	280.1	24.2	-69.9	1.9
2026-01-16 19:34:52.327863	280.8	24.1	-70.1	1.6
2026-01-16 19:34:54.575768	281.4	24.0	-70.8	2.4
2026-01-16 19:34:56.824420	282.0	24.0	-70.2	2.1
2026-01-16 19:34:59.073255	282.7	23.9	-69.9	0.8
2026-01-16 19:35:01.320251	283.3	23.8	-68.6	0.0
2026-01-16 19:35:03.562782	283.9	23.8	-68.2	0.0
2026-01-16 19:35:05.805124	284.5	23.7	-70.6	2.4
2026-01-16 19:35:08.051693	285.1	23.6	-70.2	0.0
2026-01-16 19:35:10.298000	285.7	23.5	-69.3	0.0
2026-01-16 19:35:12.544830	286.4	23.4	-67.2	0.0
2026-01-16 19:35:14.788765	287.0	23.3	-68.9	0.0
2026-01-16 19:35:17.035276	287.6	23.2	-68.8	0.0
2026-01-16 19:35:19.283115	288.2	23.1	-70.2	0.0
2026-01-16 19:35:21.527434	288.7	23.0	-68.9	0.0
2026-01-16 19:35:23.774889	289.3	22.9	-68.0	0.0
2026-01-16 19:35:26.019769	289.9	22.8	-69.1	0.0
2026-01-16 19:35:28.265861	290.5	22.7	-68.7	0.0
2026-01-16 19:35:30.511734	291.1	22.6	-67.5	0.0
2026-01-16 19:35:32.755272	291.7	22.5	-67.1	0.0
2026-01-16 19:35:35.000199	292.2	22.3	-68.9	0.0
2026-01-16 19:35:37.247799	292.8	22.2	-67.6	0.0
2026-01-16 19:35:39.493346	293.3	22.1	-66.9	0.0
2026-01-16 19:35:41.739438	293.9	22.0	-68.4	0.0
2026-01-16 19:35:43.984846	294.5	21.9	-68.0	0.0
2026-01-16 19:35:46.230151	295.0	21.7	-67.5	0.0
2026-01-16 19:35:48.476039	295.5	21.6	-65.9	0.0
2026-01-16 19:35:50.725610	296.1	21.5	-67.3	0.0
2026-01-16 19:35:52.970186	296.6	21.3	-66.7	0.0
2026-01-16 19:35:55.217569	297.1	21.2	-67.5	0.0
2026-01-16 19:35:57.465879	297.7	21.1	-67.2	0.0
2026-01-16 19:35:59.709246	298.2	20.9	-62.8	0.0
2026-01-16 19:36:01.953803	298.7	20.8	-62.7	0.0
2026-01-16 19:36:04.199630	299.2	20.6	-65.3	0.0
2026-01-16 19:36:06.445933	299.7	20.5	-67.2	0.0
2026-01-16 19:36:08.689485	300.2	20.4	-68.1	0.0
2026-01-16 19:36:10.937187	300.7	20.2	-68.0	0.0
2026-01-16 19:36:13.182901	301.2	20.1	-67.1	0.0
2026-01-16 19:36:15.429570	301.7	19.9	-66.6	0.0
2026-01-16 19:36:17.672655	302.2	19.8	-66.5	0.0
2026-01-16 19:36:19.920724	302.7	19.6	-61.8	0.0
2026-01-16 19:36:22.172495	303.1	19.5	-65.2	0.0
2026-01-16 19:36:24.415783	303.6	19.3	-65.9	0.0
2026-01-16 19:36:26.662061	304.1	19.2	-66.5	0.0
2026-01-16 19:36:28.907368	304.5	19.0	-67.3	0.0
2026-01-16 19:36:31.152800	305.0	18.9	-66.4	0.0
2026-01-16 19:36:33.394994	305.4	18.7	-66.8	0.0
2026-01-16 19:36:35.640341	305.9	18.5	-66.3	0.0
2026-01-16 19:36:37.887882	306.3	18.4	-67.9	0.0
2026-01-16 19:36:40.131493	306.8	18.2	-66.9	0.0
2026-01-16 19:36:42.376193	307.2	18.1	-67.5	0.0
2026-01-16 19:36:44.623320	307.6	17.9	-67.3	0.0
2026-01-16 19:36:46.871841	308.1	17.8	-67.2	0.0
2026-01-16 19:36:49.117498	308.5	17.6	-67.3	0.0
2026-01-16 19:36:51.364699	308.9	17.4	-66.4	0.0
2026-01-16 19:36:53.613608	309.3	17.3	-65.5	0.0
2026-01-16 19:36:55.862311	309.7	17.1	-65.2	0.0
2026-01-16 19:36:58.103127	310.1	17.0	-66.8	0.0
2026-01-16 19:37:00.351194	310.5	16.8	-68.1	0.0
2026-01-16 19:37:02.595574	310.9	16.6	-66.0	0.0
2026-01-16 19:37:04.838604	311.3	16.5	-68.9	0.0
2026-01-16 19:37:07.083510	311.7	16.3	-67.2	0.0
2026-01-16 19:37:09.330233	312.1	16.1	-69.1	0.0
2026-01-16 19:37:11.575606	312.4	16.0	-64.1	0.0
2026-01-16 19:37:13.819224	312.8	15.8	-67.0	0.0
2026-01-16 19:37:16.067748	313.2	15.7	-65.1	0.0
2026-01-16 19:37:18.312453	313.6	15.5	-69.5	0.0
2026-01-16 19:37:20.558967	313.9	15.3	-66.8	0.0
2026-01-16 19:37:22.801345	314.3	15.2	-68.3	0.0
2026-01-16 19:37:25.046211	314.6	15.0	-63.9	0.0
2026-01-16 19:37:27.293376	315.0	14.9	-65.0	0.0
2026-01-16 19:37:29.537293	315.3	14.7	-63.6	0.0
2026-01-16 19:37:31.781073	315.7	14.5	-65.2	0.0
2026-01-16 19:37:34.026176	316.0	14.4	-67.0	0.0
2026-01-16 19:37:36.271481	316.4	14.2	-66.6	0.0
2026-01-16 19:37:38.515382	316.7	14.1	-67.2	0.0
2026-01-16 19:37:40.761645	317.0	13.9	-68.2	0.0
2026-01-16 19:37:43.007393	317.3	13.7	-66.3	0.0
2026-01-16 19:37:45.252039	317.7	13.6	-67.1	0.0
2026-01-16 19:37:47.499678	318.0	13.4	-67.0	0.0
2026-01-16 19:37:49.741789	318.3	13.3	-67.3	0.0
2026-01-16 19:37:51.987121	318.6	13.1	-67.3	0.0
2026-01-16 19:37:54.230166	318.9	12.9	-67.7	0.0
2026-01-16 19:37:56.479100	319.2	12.8	-65.1	0.0
2026-01-16 19:37:58.726466	319.5	12.6	-66.8	0.0
2026-01-16 19:38:00.972929	319.8	12.5	-66.0	0.0
2026-01-16 19:38:03.217282	320.1	12.3	-66.4	0.0
2026-01-16 19:38:05.465947	320.4	12.1	-66.5	0.0
2026-01-16 19:38:07.715340	320.7	12.0	-66.9	0.0
2026-01-16 19:38:09.963925	321.0	11.8	-64.7	0.0
2026-01-16 19:38:12.208745	321.3	11.7	-64.1	0.0
2026-01-16 19:38:14.449633	321.6	11.5	-63.9	0.0
2026-01-16 19:38:16.693413	321.8	11.4	-63.6	0.0
2026-01-16 19:38:18.937256	322.1	11.2	-64.3	0.0
2026-01-16 19:38:21.182798	322.4	11.1	-66.9	0.0
2026-01-16 19:38:23.428662	322.7	10.9	-68.5	0.0
2026-01-16 19:38:25.676143	322.9	10.7	-69.9	0.0
2026-01-16 19:38:27.923358	323.2	10.6	-71.6	0.0
2026-01-16 19:38:30.168064	323.5	10.4	-71.4	0.0
2026-01-16 19:38:32.414864	323.7	10.3	-72.0	0.0
2026-01-16 19:38:34.658099	324.0	10.1	-74.5	0.0
#Closed at: 2026-01-16 19:29:48.688337