passes_logs/2026/01/16/planumMaritime01/planumMaritime01__20260116_170941_METOP-B_rec.log

#Pass ID: 20260116_170941_METOP-B
#Satellite: METOP-B
#Configuration: METOP-B
#Start time: 2026-01-16 17:09:46.512379

#LorettStation: 1.0.0 05.05.2024
#Station: planumMaritime01
#Location: 37.49445 lon 55.92918 lat
#TLE: 1 38771U 12049A   26015.15887683  .00000076  00000+0  54901-4 0  9997
#TLE: 2 38771  98.6750  69.5434 0003277  76.6011 283.5531 14.21422367691526

#Time	Az	El	Level	SNR
2026-01-16 17:09:48.676498	147.8	10.2	-74.3	0.0
2026-01-16 17:09:50.925939	147.7	10.4	-74.8	0.0
2026-01-16 17:09:53.174878	147.6	10.6	-75.4	0.0
2026-01-16 17:09:55.423183	147.6	10.8	-73.8	0.0
2026-01-16 17:09:57.671908	147.5	11.0	-73.3	1.7
2026-01-16 17:09:59.923781	147.5	11.2	-72.8	1.4
2026-01-16 17:10:02.170806	147.4	11.4	-73.3	2.3
2026-01-16 17:10:04.422082	147.3	11.6	-74.1	2.1
2026-01-16 17:10:06.671098	147.3	11.8	-74.0	1.8
2026-01-16 17:10:08.919413	147.2	12.0	-72.7	0.0
2026-01-16 17:10:11.173004	147.1	12.2	-73.1	0.0
2026-01-16 17:10:13.425885	147.1	12.5	-74.3	3.1
2026-01-16 17:10:15.675937	147.0	12.7	-73.8	3.0
2026-01-16 17:10:17.927141	146.9	12.9	-73.2	0.0
2026-01-16 17:10:20.175811	146.8	13.1	-73.4	1.4
2026-01-16 17:10:22.424263	146.8	13.3	-74.1	1.5
2026-01-16 17:10:24.673536	146.7	13.6	-73.7	2.4
2026-01-16 17:10:26.921717	146.6	13.8	-72.9	4.2
2026-01-16 17:10:29.170159	146.5	14.0	-74.1	1.8
2026-01-16 17:10:31.422268	146.5	14.2	-74.2	2.4
2026-01-16 17:10:33.671695	146.4	14.5	-74.5	3.6
2026-01-16 17:10:35.919637	146.3	14.7	-74.2	2.9
2026-01-16 17:10:38.171162	146.2	14.9	-74.4	1.8
2026-01-16 17:10:40.419048	146.1	15.2	-74.5	2.8
2026-01-16 17:10:42.664825	146.0	15.4	-74.2	2.3
2026-01-16 17:10:44.915370	145.9	15.7	-73.2	3.6
2026-01-16 17:10:47.166194	145.9	15.9	-74.2	4.0
2026-01-16 17:10:49.415203	145.8	16.2	-74.3	4.7
2026-01-16 17:10:51.664076	145.7	16.4	-74.6	2.8
2026-01-16 17:10:53.911928	145.6	16.7	-73.8	1.7
2026-01-16 17:10:56.162797	145.5	16.9	-74.9	4.0
2026-01-16 17:10:58.408849	145.4	17.2	-74.0	5.2
2026-01-16 17:11:00.660893	145.3	17.4	-73.2	0.0
2026-01-16 17:11:02.909527	145.2	17.7	-73.7	3.5
2026-01-16 17:11:05.157891	145.1	18.0	-73.5	4.8
2026-01-16 17:11:07.409626	145.0	18.2	-73.7	5.2
2026-01-16 17:11:09.659211	144.9	18.5	-73.6	3.2
2026-01-16 17:11:11.911771	144.7	18.8	-73.3	3.2
2026-01-16 17:11:14.161050	144.6	19.1	-73.5	4.4
2026-01-16 17:11:16.411368	144.5	19.4	-73.5	5.4
2026-01-16 17:11:18.662423	144.4	19.6	-73.6	2.1
2026-01-16 17:11:20.910916	144.3	19.9	-72.7	4.7
2026-01-16 17:11:23.162892	144.2	20.2	-73.8	6.1
2026-01-16 17:11:25.412362	144.0	20.5	-74.1	5.4
2026-01-16 17:11:27.661465	143.9	20.8	-73.3	6.0
2026-01-16 17:11:29.910301	143.8	21.1	-73.6	5.4
2026-01-16 17:11:32.157225	143.6	21.4	-73.8	6.4
2026-01-16 17:11:34.407486	143.5	21.7	-73.4	5.6
2026-01-16 17:11:36.656791	143.4	22.0	-73.7	4.2
2026-01-16 17:11:38.908418	143.2	22.4	-73.5	5.5
2026-01-16 17:11:41.160431	143.1	22.7	-73.2	4.1
2026-01-16 17:11:43.409429	142.9	23.0	-73.2	6.1
2026-01-16 17:11:45.659515	142.8	23.3	-73.0	6.6
2026-01-16 17:11:47.908677	142.6	23.7	-72.6	4.0
2026-01-16 17:11:50.158375	142.5	24.0	-73.4	5.5
2026-01-16 17:11:52.410023	142.3	24.3	-73.0	7.1
2026-01-16 17:11:54.662278	142.2	24.7	-72.5	4.2
2026-01-16 17:11:56.908465	142.0	25.0	-73.3	7.7
2026-01-16 17:11:59.160034	141.8	25.4	-73.3	7.4
2026-01-16 17:12:01.412114	141.6	25.7	-73.1	7.9
2026-01-16 17:12:03.660861	141.5	26.1	-73.5	7.0
2026-01-16 17:12:05.911327	141.3	26.5	-72.3	7.6
2026-01-16 17:12:08.158296	141.1	26.8	-73.4	7.5
2026-01-16 17:12:10.408963	140.9	27.2	-73.1	7.0
2026-01-16 17:12:12.655797	140.7	27.6	-72.8	4.8
2026-01-16 17:12:14.903761	140.5	28.0	-73.2	5.0
2026-01-16 17:12:17.152268	140.3	28.4	-73.4	6.7
2026-01-16 17:12:19.402952	140.1	28.8	-73.5	7.6
2026-01-16 17:12:21.650729	139.9	29.2	-73.2	5.3
2026-01-16 17:12:23.902404	139.6	29.6	-72.9	5.3
2026-01-16 17:12:26.152648	139.4	30.0	-72.9	7.3
2026-01-16 17:12:28.404424	139.2	30.4	-73.1	6.6
2026-01-16 17:12:30.654849	138.9	30.8	-72.3	3.6
2026-01-16 17:12:32.902898	138.7	31.3	-72.3	7.0
2026-01-16 17:12:35.153946	138.4	31.7	-72.6	5.2
2026-01-16 17:12:37.399519	138.2	32.1	-72.5	6.9
2026-01-16 17:12:39.648225	137.9	32.6	-72.6	8.3
2026-01-16 17:12:41.893645	137.6	33.0	-71.0	5.5
2026-01-16 17:12:44.143249	137.3	33.5	-71.6	6.0
2026-01-16 17:12:46.393397	137.0	34.0	-72.6	8.1
2026-01-16 17:12:48.643169	136.7	34.4	-72.3	8.5
2026-01-16 17:12:50.891900	136.4	34.9	-72.9	7.5
2026-01-16 17:12:53.139359	136.1	35.4	-72.4	8.6
2026-01-16 17:12:55.385234	135.7	35.9	-72.1	7.7
2026-01-16 17:12:57.632892	135.4	36.4	-72.9	8.6
2026-01-16 17:12:59.882483	135.0	36.9	-72.5	8.4
2026-01-16 17:13:02.131611	134.7	37.4	-72.4	7.8
2026-01-16 17:13:04.382599	134.3	37.9	-71.9	8.1
2026-01-16 17:13:06.631795	133.9	38.4	-72.7	8.9
2026-01-16 17:13:08.882748	133.5	39.0	-72.0	5.8
2026-01-16 17:13:11.134085	133.1	39.5	-71.4	6.8
2026-01-16 17:13:13.380992	132.7	40.0	-70.6	5.2
2026-01-16 17:13:15.625025	132.2	40.6	-71.1	8.0
2026-01-16 17:13:17.871356	131.8	41.1	-71.2	8.1
2026-01-16 17:13:20.117492	131.3	41.7	-71.3	7.1
2026-01-16 17:13:22.366443	130.8	42.3	-71.5	7.5
2026-01-16 17:13:24.614061	130.3	42.9	-71.1	7.4
2026-01-16 17:13:26.860524	129.7	43.4	-71.5	7.5
2026-01-16 17:13:29.107179	129.2	44.0	-71.2	6.9
2026-01-16 17:13:31.351936	128.6	44.6	-71.1	7.3
2026-01-16 17:13:33.602880	128.0	45.2	-71.6	5.6
2026-01-16 17:13:35.848333	127.4	45.8	-71.5	6.8
2026-01-16 17:13:38.094423	126.8	46.4	-71.6	7.6
2026-01-16 17:13:40.339538	126.1	47.0	-71.4	7.4
2026-01-16 17:13:42.583168	125.4	47.6	-71.2	5.4
2026-01-16 17:13:44.830174	124.7	48.3	-71.1	6.7
2026-01-16 17:13:47.076538	123.9	48.9	-71.1	7.9
2026-01-16 17:13:49.322098	123.1	49.5	-71.0	3.5
2026-01-16 17:13:51.565073	122.3	50.1	-71.1	7.2
2026-01-16 17:13:53.811241	121.5	50.8	-70.1	5.3
2026-01-16 17:13:56.055018	120.6	51.4	-70.1	6.1
2026-01-16 17:13:58.301537	119.7	52.1	-70.8	7.3
2026-01-16 17:14:00.545173	118.7	52.7	-70.5	6.2
2026-01-16 17:14:02.791400	117.7	53.3	-69.8	2.7
2026-01-16 17:14:05.037307	116.6	54.0	-71.0	6.2
2026-01-16 17:14:07.283660	115.5	54.6	-70.4	4.3
2026-01-16 17:14:09.527672	114.4	55.2	-70.5	4.4
2026-01-16 17:14:11.770022	113.2	55.8	-70.0	6.6
2026-01-16 17:14:14.017469	111.9	56.5	-70.2	6.2
2026-01-16 17:14:16.264947	110.6	57.1	-70.5	5.8
2026-01-16 17:14:18.510853	109.2	57.7	-69.4	2.3
2026-01-16 17:14:20.754795	107.8	58.3	-69.2	3.1
2026-01-16 17:14:23.001636	106.2	58.8	-70.5	6.3
2026-01-16 17:14:25.246711	104.7	59.4	-70.5	4.9
2026-01-16 17:14:27.492883	103.0	59.9	-70.6	5.0
2026-01-16 17:14:29.736465	101.3	60.5	-70.1	3.0
2026-01-16 17:14:31.981732	99.5	61.0	-70.0	1.5
2026-01-16 17:14:34.227709	97.7	61.5	-69.5	2.5
2026-01-16 17:14:36.473616	95.8	61.9	-69.7	3.5
2026-01-16 17:14:38.719870	93.8	62.4	-66.9	0.0
2026-01-16 17:14:40.965450	91.7	62.8	-70.4	4.9
2026-01-16 17:14:43.207426	89.5	63.2	-70.1	6.1
2026-01-16 17:14:45.453693	87.3	63.5	-68.2	2.2
2026-01-16 17:14:47.700020	85.1	63.8	-68.4	2.8
2026-01-16 17:14:49.945036	82.7	64.1	-69.3	4.7
2026-01-16 17:14:52.194060	80.3	64.4	-69.9	5.4
2026-01-16 17:14:54.439511	77.9	64.6	-69.1	3.7
2026-01-16 17:14:56.684283	75.4	64.7	-69.3	4.6
2026-01-16 17:14:58.928587	72.9	64.8	-69.6	3.0
2026-01-16 17:15:01.169983	70.4	64.9	-69.0	2.0
2026-01-16 17:15:03.413794	67.9	64.9	-69.5	3.6
2026-01-16 17:15:05.660534	65.4	64.9	-69.1	3.4
2026-01-16 17:15:07.910016	62.8	64.8	-68.4	2.2
2026-01-16 17:15:10.154514	60.3	64.7	-69.5	2.9
2026-01-16 17:15:12.399857	57.9	64.6	-69.8	4.3
2026-01-16 17:15:14.643635	55.4	64.4	-69.6	1.7
2026-01-16 17:15:16.889575	53.0	64.2	-69.5	1.7
2026-01-16 17:15:19.134577	50.7	63.9	-68.3	1.2
2026-01-16 17:15:21.380331	48.4	63.6	-68.3	0.0
2026-01-16 17:15:23.627445	46.2	63.3	-68.8	1.7
2026-01-16 17:15:25.872030	44.0	62.9	-70.1	2.5
2026-01-16 17:15:28.118323	41.9	62.5	-69.3	3.1
2026-01-16 17:15:30.361746	39.9	62.1	-69.2	4.1
2026-01-16 17:15:32.608798	37.9	61.6	-68.7	1.0
2026-01-16 17:15:34.853870	36.1	61.1	-69.3	3.1
2026-01-16 17:15:37.099254	34.3	60.6	-69.3	2.3
2026-01-16 17:15:39.347614	32.5	60.1	-68.9	0.1
2026-01-16 17:15:41.591657	30.9	59.5	-70.4	3.4
2026-01-16 17:15:43.841741	29.3	59.0	-69.4	3.0
2026-01-16 17:15:46.087993	27.8	58.4	-69.3	3.4
2026-01-16 17:15:48.333815	26.3	57.8	-70.1	4.0
2026-01-16 17:15:50.579600	24.9	57.2	-69.2	2.3
2026-01-16 17:15:52.823256	23.6	56.6	-69.0	1.7
2026-01-16 17:15:55.069510	22.3	56.0	-70.4	4.8
2026-01-16 17:15:57.316404	21.1	55.4	-71.4	4.7
2026-01-16 17:15:59.560143	19.9	54.8	-70.7	4.1
2026-01-16 17:16:01.805082	18.8	54.1	-70.1	2.7
2026-01-16 17:16:04.050338	17.8	53.5	-70.8	5.6
2026-01-16 17:16:06.301903	16.7	52.9	-71.4	5.8
2026-01-16 17:16:08.546449	15.8	52.2	-70.7	3.9
2026-01-16 17:16:10.791741	14.8	51.6	-70.2	4.2
2026-01-16 17:16:13.032684	13.9	51.0	-70.3	5.4
2026-01-16 17:16:15.278293	13.1	50.3	-70.7	7.3
2026-01-16 17:16:17.523771	12.2	49.7	-69.3	2.7
2026-01-16 17:16:19.771661	11.5	49.1	-68.4	4.4
2026-01-16 17:16:22.017521	10.7	48.5	-69.0	3.9
2026-01-16 17:16:24.263904	10.0	47.8	-68.8	2.9
2026-01-16 17:16:26.512046	9.3	47.2	-68.1	2.3
2026-01-16 17:16:28.756755	8.6	46.6	-67.9	1.2
2026-01-16 17:16:31.004525	7.9	46.0	-67.3	0.0
2026-01-16 17:16:33.250334	7.3	45.4	-67.4	0.0
2026-01-16 17:16:35.494544	6.7	44.8	-67.9	1.0
2026-01-16 17:16:37.738197	6.2	44.2	-65.9	0.0
2026-01-16 17:16:39.985009	5.6	43.6	-67.2	0.0
2026-01-16 17:16:42.232651	5.1	43.1	-68.1	0.5
2026-01-16 17:16:44.475924	4.5	42.5	-67.3	0.0
2026-01-16 17:16:46.718842	4.0	41.9	-66.4	0.0
2026-01-16 17:16:48.965483	3.6	41.4	-65.3	0.0
2026-01-16 17:16:51.212642	3.1	40.8	-65.6	0.0
2026-01-16 17:16:53.458376	2.7	40.3	-64.3	0.0
2026-01-16 17:16:55.704800	2.2	39.7	-64.5	0.0
2026-01-16 17:16:57.954291	1.8	39.2	-63.2	0.0
2026-01-16 17:17:00.202835	1.4	38.7	-64.9	0.0
2026-01-16 17:17:02.447323	1.0	38.1	-59.8	0.0
2026-01-16 17:17:04.693054	0.6	37.6	-63.3	0.0
2026-01-16 17:17:06.936532	0.3	37.1	-61.9	0.0
2026-01-16 17:17:09.182577	359.9	36.6	-63.3	0.0
2026-01-16 17:17:11.425205	359.6	36.1	-63.2	0.0
2026-01-16 17:17:13.670973	359.2	35.6	-62.1	0.0
2026-01-16 17:17:15.916074	358.9	35.1	-63.0	0.0
2026-01-16 17:17:18.159900	358.6	34.7	-63.7	0.0
2026-01-16 17:17:20.405353	358.3	34.2	-63.6	0.0
2026-01-16 17:17:22.649876	358.0	33.7	-63.2	0.0
2026-01-16 17:17:24.896455	357.7	33.3	-63.8	0.0
2026-01-16 17:17:27.142238	357.4	32.8	-62.7	0.0
2026-01-16 17:17:29.386945	357.1	32.4	-64.1	0.0
2026-01-16 17:17:31.636330	356.9	31.9	-63.8	0.0
2026-01-16 17:17:33.881246	356.6	31.5	-65.4	0.0
2026-01-16 17:17:36.124125	356.4	31.1	-64.1	0.0
2026-01-16 17:17:38.371835	356.1	30.7	-63.7	0.0
2026-01-16 17:17:40.618201	355.9	30.2	-61.9	0.0
2026-01-16 17:17:42.865770	355.7	29.8	-64.2	0.0
2026-01-16 17:17:45.110383	355.4	29.4	-63.6	0.0
2026-01-16 17:17:47.355711	355.2	29.0	-63.4	0.0
2026-01-16 17:17:49.603290	355.0	28.6	-63.7	0.0
2026-01-16 17:17:51.848390	354.8	28.2	-63.3	0.0
2026-01-16 17:17:54.093162	354.6	27.8	-62.4	0.0
2026-01-16 17:17:56.337091	354.4	27.5	-62.2	0.0
2026-01-16 17:17:58.582058	354.2	27.1	-62.1	0.0
2026-01-16 17:18:00.826260	354.0	26.7	-62.8	0.0
2026-01-16 17:18:03.074651	353.8	26.3	-63.0	0.0
2026-01-16 17:18:05.318787	353.7	26.0	-64.4	0.0
2026-01-16 17:18:07.564508	353.5	25.6	-64.4	0.0
2026-01-16 17:18:09.807675	353.3	25.3	-63.4	0.0
2026-01-16 17:18:12.058397	353.1	24.9	-65.0	0.0
2026-01-16 17:18:14.304375	353.0	24.6	-64.9	0.0
2026-01-16 17:18:16.549556	352.8	24.2	-64.2	0.0
2026-01-16 17:18:18.795118	352.7	23.9	-63.5	0.0
2026-01-16 17:18:21.037508	352.5	23.6	-63.6	0.0
2026-01-16 17:18:23.280473	352.4	23.2	-65.3	0.0
2026-01-16 17:18:25.523477	352.2	22.9	-64.3	0.0
2026-01-16 17:18:27.771323	352.1	22.6	-65.0	0.0
2026-01-16 17:18:30.019991	351.9	22.3	-63.1	0.0
2026-01-16 17:18:32.265004	351.8	22.0	-63.4	0.0
2026-01-16 17:18:34.513041	351.7	21.7	-63.7	0.0
2026-01-16 17:18:36.761640	351.5	21.4	-63.2	0.0
2026-01-16 17:18:39.010676	351.4	21.1	-63.5	0.0
2026-01-16 17:18:41.254924	351.3	20.8	-63.4	0.0
2026-01-16 17:18:43.503105	351.2	20.5	-62.2	0.0
2026-01-16 17:18:45.746408	351.0	20.2	-62.3	0.0
2026-01-16 17:18:47.990214	350.9	19.9	-63.0	0.0
2026-01-16 17:18:50.235584	350.8	19.6	-62.8	0.0
2026-01-16 17:18:52.482346	350.7	19.3	-64.5	0.0
2026-01-16 17:18:54.724660	350.6	19.0	-64.1	0.0
2026-01-16 17:18:56.972500	350.5	18.8	-65.1	0.0
2026-01-16 17:18:59.220916	350.4	18.5	-64.7	0.0
2026-01-16 17:19:01.466039	350.3	18.2	-65.0	0.0
2026-01-16 17:19:03.711102	350.1	18.0	-65.5	0.0
2026-01-16 17:19:05.954170	350.0	17.7	-64.8	0.0
2026-01-16 17:19:08.201818	349.9	17.4	-64.1	0.0
2026-01-16 17:19:10.446723	349.9	17.2	-64.3	0.0
2026-01-16 17:19:12.691984	349.8	16.9	-65.9	0.0
2026-01-16 17:19:14.938928	349.7	16.7	-63.6	0.0
2026-01-16 17:19:17.184121	349.6	16.4	-65.7	0.0
2026-01-16 17:19:19.430034	349.5	16.2	-64.6	0.0
2026-01-16 17:19:21.674822	349.4	15.9	-66.0	0.0
2026-01-16 17:19:23.919024	349.3	15.7	-65.1	0.0
2026-01-16 17:19:26.166550	349.2	15.4	-63.7	0.0
2026-01-16 17:19:28.411473	349.1	15.2	-64.3	0.0
2026-01-16 17:19:30.657536	349.1	15.0	-65.7	0.0
2026-01-16 17:19:32.901751	349.0	14.7	-64.2	0.0
2026-01-16 17:19:35.146961	348.9	14.5	-65.5	0.0
2026-01-16 17:19:37.389807	348.8	14.3	-66.9	0.0
2026-01-16 17:19:39.638824	348.7	14.0	-65.8	0.0
2026-01-16 17:19:41.884248	348.7	13.8	-66.3	0.0
2026-01-16 17:19:44.131996	348.6	13.6	-64.3	0.0
2026-01-16 17:19:46.375196	348.5	13.4	-64.8	0.0
2026-01-16 17:19:48.621553	348.4	13.1	-65.1	0.0
2026-01-16 17:19:50.867187	348.4	12.9	-66.7	0.0
2026-01-16 17:19:53.114276	348.3	12.7	-64.6	0.0
2026-01-16 17:19:55.359091	348.2	12.5	-65.1	0.0
2026-01-16 17:19:57.604505	348.2	12.3	-65.7	0.0
2026-01-16 17:19:59.850877	348.1	12.1	-66.0	0.0
2026-01-16 17:20:02.095752	348.0	11.9	-65.5	0.0
2026-01-16 17:20:04.338058	348.0	11.6	-64.1	0.0
2026-01-16 17:20:06.584838	347.9	11.4	-66.2	0.0
2026-01-16 17:20:08.828886	347.8	11.2	-66.2	0.0
2026-01-16 17:20:11.072599	347.8	11.0	-64.7	0.0
2026-01-16 17:20:13.315759	347.7	10.8	-65.7	0.0
2026-01-16 17:20:15.559282	347.7	10.6	-64.8	0.0
2026-01-16 17:20:17.803020	347.6	10.4	-65.6	0.0
2026-01-16 17:20:20.046316	347.5	10.2	-68.4	0.0
2026-01-16 17:20:22.291912	347.5	10.1	-73.3	0.0
#Closed at: 2026-01-16 17:09:41.518221