passes_logs/2026/01/16/planumMaritime01/planumMaritime01__20260116_163516_METEOR-M2_3_rec.log

#Pass ID: 20260116_163516_METEOR-M2 3
#Satellite: METEOR-M2 3
#Configuration: METEOR-M2 3
#Start time: 2026-01-16 16:35:21.035791

#LorettStation: 1.0.0 05.05.2024
#Station: planumMaritime01
#Location: 37.49445 lon 55.92918 lat
#TLE: 1 57166U 23091A   26015.20701802 -.00000004  00000+0  17111-4 0  9993
#TLE: 2 57166  98.6327  73.1539 0002947 248.4122 111.6744 14.24030545132744

#Time	Az	El	Level	SNR
2026-01-16 16:35:23.210398	118.1	10.2	-81.7	0.0
2026-01-16 16:35:25.455472	117.9	10.3	-80.6	1.6
2026-01-16 16:35:27.705461	117.7	10.5	-79.0	3.6
2026-01-16 16:35:29.950659	117.5	10.7	-79.4	3.7
2026-01-16 16:35:32.199047	117.2	10.9	-77.8	1.3
2026-01-16 16:35:34.448010	117.0	11.1	-76.7	3.6
2026-01-16 16:35:36.696836	116.8	11.2	-77.5	4.4
2026-01-16 16:35:38.944815	116.6	11.4	-77.1	3.7
2026-01-16 16:35:41.191901	116.4	11.6	-77.2	3.0
2026-01-16 16:35:43.437155	116.2	11.8	-77.8	4.2
2026-01-16 16:35:45.684106	116.0	12.0	-77.3	3.8
2026-01-16 16:35:47.929273	115.7	12.1	-77.2	3.5
2026-01-16 16:35:50.174527	115.5	12.3	-77.5	4.7
2026-01-16 16:35:52.426011	115.3	12.5	-78.1	3.4
2026-01-16 16:35:54.677614	115.0	12.7	-77.7	1.9
2026-01-16 16:35:56.926070	114.8	12.9	-77.8	4.5
2026-01-16 16:35:59.171598	114.6	13.1	-77.5	5.9
2026-01-16 16:36:01.419252	114.3	13.3	-77.5	4.1
2026-01-16 16:36:03.664816	114.1	13.5	-76.9	3.0
2026-01-16 16:36:05.914920	113.8	13.7	-77.1	2.3
2026-01-16 16:36:08.163286	113.6	13.8	-77.1	3.8
2026-01-16 16:36:10.415031	113.3	14.0	-76.4	3.5
2026-01-16 16:36:12.659781	113.0	14.2	-76.4	4.0
2026-01-16 16:36:14.907335	112.8	14.4	-77.3	5.5
2026-01-16 16:36:17.157010	112.5	14.6	-77.3	5.5
2026-01-16 16:36:19.404753	112.2	14.8	-77.1	5.8
2026-01-16 16:36:21.654581	112.0	15.0	-77.1	5.5
2026-01-16 16:36:23.902511	111.7	15.2	-77.5	6.4
2026-01-16 16:36:26.150503	111.4	15.4	-76.6	5.3
2026-01-16 16:36:28.400504	111.1	15.6	-76.4	3.8
2026-01-16 16:36:30.648408	110.8	15.8	-76.6	4.6
2026-01-16 16:36:32.897684	110.5	16.0	-77.3	5.2
2026-01-16 16:36:35.146933	110.2	16.2	-77.3	6.0
2026-01-16 16:36:37.392371	109.9	16.4	-77.8	6.6
2026-01-16 16:36:39.639021	109.6	16.6	-77.8	5.8
2026-01-16 16:36:41.885514	109.3	16.9	-77.4	6.1
2026-01-16 16:36:44.134476	109.0	17.1	-77.8	5.6
2026-01-16 16:36:46.384268	108.7	17.3	-77.8	7.0
2026-01-16 16:36:48.630732	108.3	17.5	-77.5	6.4
2026-01-16 16:36:50.883486	108.0	17.7	-78.0	8.0
2026-01-16 16:36:53.129746	107.7	17.9	-77.3	6.3
2026-01-16 16:36:55.377454	107.3	18.1	-75.9	3.8
2026-01-16 16:36:57.626891	107.0	18.3	-78.1	8.4
2026-01-16 16:36:59.874076	106.6	18.5	-77.8	7.7
2026-01-16 16:37:02.123531	106.3	18.8	-76.7	6.6
2026-01-16 16:37:04.371780	105.9	19.0	-77.3	6.3
2026-01-16 16:37:06.618933	105.6	19.2	-76.1	5.0
2026-01-16 16:37:08.865263	105.2	19.4	-77.1	6.7
2026-01-16 16:37:11.112753	104.8	19.6	-76.8	6.4
2026-01-16 16:37:13.358417	104.4	19.8	-76.7	6.3
2026-01-16 16:37:15.606233	104.1	20.1	-76.1	4.9
2026-01-16 16:37:17.853768	103.7	20.3	-76.9	7.1
2026-01-16 16:37:20.101322	103.3	20.5	-76.7	5.4
2026-01-16 16:37:22.349838	102.9	20.7	-76.0	5.4
2026-01-16 16:37:24.598093	102.5	20.9	-75.6	4.0
2026-01-16 16:37:26.845377	102.0	21.2	-74.6	3.0
2026-01-16 16:37:29.096258	101.6	21.4	-75.6	6.0
2026-01-16 16:37:31.343051	101.2	21.6	-76.4	5.8
2026-01-16 16:37:33.592751	100.8	21.8	-76.5	6.5
2026-01-16 16:37:35.842770	100.3	22.1	-76.4	5.0
2026-01-16 16:37:38.089886	99.9	22.3	-76.4	6.7
2026-01-16 16:37:40.337161	99.4	22.5	-76.0	5.3
2026-01-16 16:37:42.584459	99.0	22.7	-76.3	5.7
2026-01-16 16:37:44.831728	98.5	22.9	-76.1	6.1
2026-01-16 16:37:47.078695	98.0	23.2	-75.6	4.7
2026-01-16 16:37:49.325768	97.5	23.4	-73.5	0.7
2026-01-16 16:37:51.574664	97.1	23.6	-75.3	4.8
2026-01-16 16:37:53.821570	96.6	23.8	-74.5	3.7
2026-01-16 16:37:56.073699	96.1	24.1	-76.2	7.4
2026-01-16 16:37:58.320616	95.5	24.3	-74.8	4.9
2026-01-16 16:38:00.568002	95.0	24.5	-75.6	5.8
2026-01-16 16:38:02.816642	94.5	24.7	-75.0	4.1
2026-01-16 16:38:05.064309	94.0	24.9	-75.7	6.7
2026-01-16 16:38:07.316229	93.4	25.2	-75.3	4.2
2026-01-16 16:38:09.562534	92.9	25.4	-75.1	3.8
2026-01-16 16:38:11.812509	92.3	25.6	-76.4	4.1
2026-01-16 16:38:14.063374	91.8	25.8	-76.0	5.5
2026-01-16 16:38:16.307752	91.2	26.0	-75.6	6.8
2026-01-16 16:38:18.557877	90.6	26.2	-75.6	5.4
2026-01-16 16:38:20.809029	90.1	26.4	-74.0	2.1
2026-01-16 16:38:23.055979	89.5	26.6	-73.1	2.2
2026-01-16 16:38:25.307101	88.9	26.8	-73.4	3.5
2026-01-16 16:38:27.552716	88.3	27.1	-74.1	2.0
2026-01-16 16:38:29.803200	87.6	27.3	-74.7	5.5
2026-01-16 16:38:32.051209	87.0	27.5	-74.2	3.5
2026-01-16 16:38:34.302280	86.4	27.7	-75.4	6.9
2026-01-16 16:38:36.550561	85.8	27.8	-74.5	6.2
2026-01-16 16:38:38.799365	85.1	28.0	-74.5	4.5
2026-01-16 16:38:41.047409	84.5	28.2	-75.9	5.7
2026-01-16 16:38:43.295260	83.8	28.4	-76.1	8.6
2026-01-16 16:38:45.543977	83.1	28.6	-77.0	8.6
2026-01-16 16:38:47.792462	82.4	28.8	-76.3	8.5
2026-01-16 16:38:50.043442	81.8	29.0	-76.1	8.8
2026-01-16 16:38:52.291326	81.1	29.1	-76.2	8.0
2026-01-16 16:38:54.539250	80.4	29.3	-75.6	7.2
2026-01-16 16:38:56.786867	79.7	29.5	-76.3	8.2
2026-01-16 16:38:59.036796	78.9	29.6	-75.8	8.4
2026-01-16 16:39:01.285225	78.2	29.8	-74.9	6.5
2026-01-16 16:39:03.532700	77.5	29.9	-75.7	6.9
2026-01-16 16:39:05.780663	76.8	30.1	-75.5	6.3
2026-01-16 16:39:08.027577	76.0	30.2	-75.3	6.0
2026-01-16 16:39:10.274763	75.3	30.4	-73.2	2.9
2026-01-16 16:39:12.526155	74.5	30.5	-75.6	4.9
2026-01-16 16:39:14.775168	73.8	30.6	-76.1	6.6
2026-01-16 16:39:17.024711	73.0	30.8	-74.1	3.5
2026-01-16 16:39:19.271589	72.2	30.9	-74.0	2.0
2026-01-16 16:39:21.518025	71.4	31.0	-75.0	7.0
2026-01-16 16:39:23.767395	70.6	31.1	-74.6	5.1
2026-01-16 16:39:26.016365	69.9	31.2	-75.4	4.1
2026-01-16 16:39:28.261365	69.1	31.3	-74.6	4.3
2026-01-16 16:39:30.511396	68.3	31.4	-75.8	4.4
2026-01-16 16:39:32.760271	67.5	31.5	-76.6	6.9
2026-01-16 16:39:35.010408	66.7	31.6	-75.5	4.1
2026-01-16 16:39:37.258584	65.8	31.6	-75.7	4.8
2026-01-16 16:39:39.504923	65.0	31.7	-74.4	4.7
2026-01-16 16:39:41.751650	64.2	31.8	-74.5	3.6
2026-01-16 16:39:44.000269	63.4	31.8	-74.8	2.7
2026-01-16 16:39:46.247577	62.6	31.9	-75.1	3.8
2026-01-16 16:39:48.493850	61.7	31.9	-75.2	4.4
2026-01-16 16:39:50.740705	60.9	31.9	-75.2	3.4
2026-01-16 16:39:52.985687	60.1	32.0	-74.8	3.2
2026-01-16 16:39:55.234519	59.3	32.0	-74.5	0.8
2026-01-16 16:39:57.483744	58.4	32.0	-73.6	1.0
2026-01-16 16:39:59.733542	57.6	32.0	-74.1	2.6
2026-01-16 16:40:01.979960	56.8	32.0	-73.8	0.0
2026-01-16 16:40:04.230295	55.9	32.0	-74.8	1.9
2026-01-16 16:40:06.479816	55.1	32.0	-72.7	0.0
2026-01-16 16:40:08.728958	54.3	32.0	-73.7	2.3
2026-01-16 16:40:10.976557	53.4	31.9	-73.9	0.0
2026-01-16 16:40:13.225061	52.6	31.9	-73.1	0.0
2026-01-16 16:40:15.471134	51.8	31.9	-73.3	0.9
2026-01-16 16:40:17.719411	51.0	31.8	-73.5	1.8
2026-01-16 16:40:19.969200	50.1	31.8	-72.5	0.0
2026-01-16 16:40:22.217231	49.3	31.7	-72.9	1.2
2026-01-16 16:40:24.463563	48.5	31.6	-72.9	0.0
2026-01-16 16:40:26.710225	47.7	31.6	-73.4	1.9
2026-01-16 16:40:28.956220	46.9	31.5	-72.4	0.0
2026-01-16 16:40:31.203662	46.1	31.4	-72.8	1.1
2026-01-16 16:40:33.450954	45.3	31.3	-72.3	1.7
2026-01-16 16:40:35.700912	44.5	31.2	-71.4	0.0
2026-01-16 16:40:37.947690	43.7	31.1	-72.4	0.0
2026-01-16 16:40:40.196114	42.9	31.0	-70.3	0.0
2026-01-16 16:40:42.443723	42.2	30.9	-67.8	0.0
2026-01-16 16:40:44.691085	41.4	30.8	-70.1	0.0
2026-01-16 16:40:46.937372	40.6	30.7	-70.3	0.0
2026-01-16 16:40:49.187155	39.9	30.5	-70.4	0.0
2026-01-16 16:40:51.435729	39.1	30.4	-69.5	0.0
2026-01-16 16:40:53.682884	38.4	30.3	-71.0	0.0
2026-01-16 16:40:55.928434	37.6	30.1	-70.2	0.0
2026-01-16 16:40:58.175876	36.9	30.0	-68.7	0.0
2026-01-16 16:41:00.422858	36.2	29.8	-69.9	0.0
2026-01-16 16:41:02.668268	35.4	29.6	-70.6	0.0
2026-01-16 16:41:04.920082	34.7	29.5	-70.7	0.0
2026-01-16 16:41:07.167441	34.0	29.3	-69.2	0.0
2026-01-16 16:41:09.415480	33.3	29.2	-70.6	0.0
2026-01-16 16:41:11.662725	32.6	29.0	-69.5	0.0
2026-01-16 16:41:13.914432	31.9	28.8	-69.8	0.0
2026-01-16 16:41:16.163301	31.3	28.6	-69.3	0.0
2026-01-16 16:41:18.410509	30.6	28.4	-70.2	0.0
2026-01-16 16:41:20.656757	29.9	28.3	-69.0	0.0
2026-01-16 16:41:22.902091	29.3	28.1	-68.5	0.0
2026-01-16 16:41:25.152038	28.6	27.9	-67.4	0.0
2026-01-16 16:41:27.400587	28.0	27.7	-68.6	0.0
2026-01-16 16:41:29.648809	27.4	27.5	-69.3	0.0
2026-01-16 16:41:31.894399	26.8	27.3	-67.7	0.0
2026-01-16 16:41:34.143663	26.1	27.1	-67.1	0.0
2026-01-16 16:41:36.393474	25.5	26.9	-68.3	0.0
2026-01-16 16:41:38.642402	24.9	26.7	-68.5	0.0
2026-01-16 16:41:40.892909	24.4	26.5	-68.7	0.0
2026-01-16 16:41:43.140674	23.8	26.3	-68.4	0.0
2026-01-16 16:41:45.389278	23.2	26.0	-66.8	0.0
2026-01-16 16:41:47.638021	22.6	25.8	-66.3	0.0
2026-01-16 16:41:49.883267	22.1	25.6	-66.5	0.0
2026-01-16 16:41:52.133182	21.5	25.4	-67.8	0.0
2026-01-16 16:41:54.381821	21.0	25.2	-68.0	0.0
2026-01-16 16:41:56.630194	20.4	25.0	-66.7	0.0
2026-01-16 16:41:58.875890	19.9	24.8	-67.0	0.0
2026-01-16 16:42:01.121765	19.4	24.5	-67.4	0.0
2026-01-16 16:42:03.373736	18.9	24.3	-67.6	0.0
2026-01-16 16:42:05.620728	18.4	24.1	-67.1	0.0
2026-01-16 16:42:07.869121	17.9	23.9	-68.0	0.0
2026-01-16 16:42:10.122720	17.4	23.7	-67.9	0.0
2026-01-16 16:42:12.368656	16.9	23.4	-67.7	0.0
2026-01-16 16:42:14.620729	16.4	23.2	-67.4	0.0
2026-01-16 16:42:16.867623	15.9	23.0	-65.9	0.0
2026-01-16 16:42:19.117250	15.5	22.8	-68.1	0.0
2026-01-16 16:42:21.364548	15.0	22.6	-67.4	0.0
2026-01-16 16:42:23.612571	14.6	22.3	-69.4	0.0
2026-01-16 16:42:25.859738	14.1	22.1	-68.0	0.0
2026-01-16 16:42:28.107444	13.7	21.9	-67.1	0.0
2026-01-16 16:42:30.358451	13.3	21.7	-67.5	0.0
2026-01-16 16:42:32.607613	12.8	21.4	-67.4	0.0
2026-01-16 16:42:34.853041	12.4	21.2	-68.3	0.0
2026-01-16 16:42:37.100725	12.0	21.0	-68.4	0.0
2026-01-16 16:42:39.349105	11.6	20.8	-68.5	0.0
2026-01-16 16:42:41.597017	11.2	20.6	-68.6	0.0
2026-01-16 16:42:43.846509	10.8	20.3	-67.2	0.0
2026-01-16 16:42:46.091972	10.4	20.1	-68.8	0.0
2026-01-16 16:42:48.340814	10.0	19.9	-68.1	0.0
2026-01-16 16:42:50.592629	9.6	19.7	-67.7	0.0
2026-01-16 16:42:52.839261	9.3	19.5	-68.9	0.0
2026-01-16 16:42:55.086999	8.9	19.3	-67.9	0.0
2026-01-16 16:42:57.335841	8.5	19.0	-68.5	0.0
2026-01-16 16:42:59.582808	8.2	18.8	-68.9	0.0
2026-01-16 16:43:01.832997	7.8	18.6	-69.0	0.0
2026-01-16 16:43:04.080672	7.5	18.4	-68.6	0.0
2026-01-16 16:43:06.328689	7.1	18.2	-68.2	0.0
2026-01-16 16:43:08.578704	6.8	18.0	-67.9	0.0
2026-01-16 16:43:10.824447	6.5	17.8	-68.8	0.0
2026-01-16 16:43:13.070399	6.1	17.6	-68.4	0.0
2026-01-16 16:43:15.317086	5.8	17.4	-66.5	0.0
2026-01-16 16:43:17.563545	5.5	17.1	-69.5	0.0
2026-01-16 16:43:19.808463	5.2	16.9	-70.1	0.0
2026-01-16 16:43:22.057556	4.9	16.7	-69.8	0.0
2026-01-16 16:43:24.308215	4.6	16.5	-70.0	0.0
2026-01-16 16:43:26.555839	4.3	16.3	-70.3	0.0
2026-01-16 16:43:28.805796	4.0	16.1	-69.0	0.0
2026-01-16 16:43:31.054703	3.7	15.9	-69.8	0.0
2026-01-16 16:43:33.302804	3.4	15.7	-69.9	0.0
2026-01-16 16:43:35.553550	3.1	15.5	-66.1	0.0
2026-01-16 16:43:37.799554	2.8	15.3	-71.1	0.0
2026-01-16 16:43:40.050392	2.5	15.1	-70.1	0.0
2026-01-16 16:43:42.298387	2.3	14.9	-70.5	0.0
2026-01-16 16:43:44.547156	2.0	14.7	-69.7	0.0
2026-01-16 16:43:46.796780	1.7	14.5	-70.6	0.0
2026-01-16 16:43:49.043436	1.5	14.3	-70.1	0.0
2026-01-16 16:43:51.294103	1.2	14.1	-71.0	0.0
2026-01-16 16:43:53.541749	1.0	13.9	-71.6	0.0
2026-01-16 16:43:55.789185	0.7	13.7	-70.1	0.0
2026-01-16 16:43:58.034998	0.5	13.5	-71.1	0.0
2026-01-16 16:44:00.280088	0.2	13.4	-70.3	0.0
2026-01-16 16:44:02.527408	360.0	13.2	-70.8	0.0
2026-01-16 16:44:04.776979	359.7	13.0	-70.8	0.0
2026-01-16 16:44:07.025809	359.5	12.8	-63.1	0.0
2026-01-16 16:44:09.269494	359.3	12.6	-69.8	0.0
2026-01-16 16:44:11.517475	359.0	12.4	-72.3	0.0
2026-01-16 16:44:13.767635	358.8	12.2	-73.1	0.0
2026-01-16 16:44:16.016690	358.6	12.1	-71.8	0.0
2026-01-16 16:44:18.264408	358.4	11.9	-73.8	0.0
2026-01-16 16:44:20.516647	358.2	11.7	-71.0	0.0
2026-01-16 16:44:22.762621	357.9	11.5	-71.4	0.0
2026-01-16 16:44:25.009372	357.7	11.3	-66.6	0.0
2026-01-16 16:44:27.256566	357.5	11.2	-71.1	0.0
2026-01-16 16:44:29.507339	357.3	11.0	-71.4	0.0
2026-01-16 16:44:31.758956	357.1	10.8	-69.2	0.0
2026-01-16 16:44:34.006104	356.9	10.6	-70.2	0.0
2026-01-16 16:44:36.257259	356.7	10.4	-69.2	0.0
2026-01-16 16:44:38.505270	356.5	10.3	-72.8	0.0
2026-01-16 16:44:40.752307	356.3	10.1	-77.7	0.0
#Closed at: 2026-01-16 16:35:16.042016