passes_logs/2026/01/16/planumMaritime01/planumMaritime01__20260116_011603_METEOR-M2_4_rec.log

#Pass ID: 20260116_011603_METEOR-M2 4
#Satellite: METEOR-M2 4
#Configuration: METEOR-M2 4
#Start time: 2026-01-16 01:16:08.825255

#LorettStation: 1.0.0 05.05.2024
#Station: planumMaritime01
#Location: 37.49445 lon 55.92918 lat
#TLE: 1 59051U 24039A   26015.18854106 -.00000002  00000+0  18802-4 0  9990
#TLE: 2 59051  98.6812 336.5811 0005992 250.4853 109.5678 14.22407234 97512

#Time	Az	El	Level	SNR
2026-01-16 01:16:10.995905	14.4	10.2	-75.3	0.0
2026-01-16 01:16:13.243435	14.4	10.4	-77.5	0.0
2026-01-16 01:16:15.490405	14.4	10.6	-74.3	0.0
2026-01-16 01:16:17.738627	14.3	10.8	-71.5	0.0
2026-01-16 01:16:19.985327	14.3	11.0	-73.7	0.0
2026-01-16 01:16:22.235743	14.3	11.2	-70.6	0.0
2026-01-16 01:16:24.481656	14.3	11.4	-70.8	0.0
2026-01-16 01:16:26.730096	14.2	11.6	-70.9	0.0
2026-01-16 01:16:28.981950	14.2	11.8	-72.9	0.0
2026-01-16 01:16:31.230046	14.2	12.0	-71.9	0.0
2026-01-16 01:16:33.475149	14.1	12.2	-71.9	0.0
2026-01-16 01:16:35.721292	14.1	12.4	-71.2	0.0
2026-01-16 01:16:37.972175	14.1	12.7	-73.9	0.0
2026-01-16 01:16:40.222764	14.0	12.9	-73.9	0.0
2026-01-16 01:16:42.469200	14.0	13.1	-71.3	0.0
2026-01-16 01:16:44.717346	14.0	13.3	-73.2	0.0
2026-01-16 01:16:46.963691	13.9	13.5	-70.2	0.0
2026-01-16 01:16:49.213706	13.9	13.8	-73.0	0.0
2026-01-16 01:16:51.462746	13.9	14.0	-73.0	0.0
2026-01-16 01:16:53.713825	13.8	14.2	-73.0	0.0
2026-01-16 01:16:55.963254	13.8	14.5	-72.7	0.0
2026-01-16 01:16:58.208550	13.8	14.7	-71.5	0.0
2026-01-16 01:17:00.457930	13.7	14.9	-72.4	0.0
2026-01-16 01:17:02.705713	13.7	15.2	-71.9	0.0
2026-01-16 01:17:04.953015	13.6	15.4	-69.5	0.0
2026-01-16 01:17:07.203544	13.6	15.7	-73.1	0.0
2026-01-16 01:17:09.449373	13.6	15.9	-69.8	0.0
2026-01-16 01:17:11.701551	13.5	16.2	-70.3	0.0
2026-01-16 01:17:13.952879	13.5	16.4	-75.7	0.0
2026-01-16 01:17:16.199942	13.4	16.7	-73.3	0.0
2026-01-16 01:17:18.448384	13.4	16.9	-74.4	0.0
2026-01-16 01:17:20.698490	13.3	17.2	-73.8	0.0
2026-01-16 01:17:22.946060	13.3	17.4	-69.4	0.0
2026-01-16 01:17:25.196464	13.2	17.7	-74.1	0.0
2026-01-16 01:17:27.445250	13.2	18.0	-73.6	0.0
2026-01-16 01:17:29.693570	13.1	18.2	-74.3	0.0
2026-01-16 01:17:31.939862	13.1	18.5	-72.8	0.0
2026-01-16 01:17:34.189231	13.0	18.8	-73.8	0.0
2026-01-16 01:17:36.436500	13.0	19.1	-74.2	0.0
2026-01-16 01:17:38.686698	12.9	19.4	-73.7	0.0
2026-01-16 01:17:40.930455	12.9	19.6	-71.7	0.0
2026-01-16 01:17:43.176718	12.8	19.9	-73.1	0.0
2026-01-16 01:17:45.424525	12.8	20.2	-73.7	0.4
2026-01-16 01:17:47.672792	12.7	20.5	-72.6	0.0
2026-01-16 01:17:49.917688	12.6	20.8	-75.0	1.6
2026-01-16 01:17:52.167559	12.6	21.1	-73.4	0.0
2026-01-16 01:17:54.414769	12.5	21.4	-72.1	0.0
2026-01-16 01:17:56.660671	12.5	21.7	-72.9	0.0
2026-01-16 01:17:58.909689	12.4	22.1	-74.3	1.0
2026-01-16 01:18:01.155654	12.3	22.4	-73.1	0.0
2026-01-16 01:18:03.406609	12.3	22.7	-74.1	0.0
2026-01-16 01:18:05.654299	12.2	23.0	-74.2	0.0
2026-01-16 01:18:07.901453	12.1	23.4	-73.8	0.0
2026-01-16 01:18:10.148518	12.0	23.7	-74.6	2.0
2026-01-16 01:18:12.400983	12.0	24.0	-73.7	0.0
2026-01-16 01:18:14.648371	11.9	24.4	-72.0	0.0
2026-01-16 01:18:16.897589	11.8	24.7	-73.8	0.0
2026-01-16 01:18:19.144719	11.7	25.1	-74.2	0.3
2026-01-16 01:18:21.392415	11.6	25.4	-73.9	0.6
2026-01-16 01:18:23.643629	11.6	25.8	-73.2	2.2
2026-01-16 01:18:25.890462	11.5	26.2	-74.4	0.0
2026-01-16 01:18:28.138652	11.4	26.5	-73.6	2.0
2026-01-16 01:18:30.387414	11.3	26.9	-73.4	1.4
2026-01-16 01:18:32.634360	11.2	27.3	-74.8	5.0
2026-01-16 01:18:34.884356	11.1	27.7	-74.4	3.0
2026-01-16 01:18:37.132011	11.0	28.1	-74.9	3.5
2026-01-16 01:18:39.380579	10.9	28.5	-73.7	4.1
2026-01-16 01:18:41.629041	10.8	28.9	-75.0	3.2
2026-01-16 01:18:43.877213	10.7	29.3	-74.5	3.5
2026-01-16 01:18:46.124374	10.6	29.7	-75.6	4.9
2026-01-16 01:18:48.371743	10.4	30.2	-74.8	2.5
2026-01-16 01:18:50.623774	10.3	30.6	-75.5	3.8
2026-01-16 01:18:52.869549	10.2	31.0	-75.2	3.6
2026-01-16 01:18:55.118166	10.1	31.5	-74.0	0.9
2026-01-16 01:18:57.367184	9.9	31.9	-75.0	5.7
2026-01-16 01:18:59.613840	9.8	32.4	-74.2	2.2
2026-01-16 01:19:01.863737	9.7	32.8	-75.8	2.3
2026-01-16 01:19:04.112378	9.5	33.3	-75.6	8.4
2026-01-16 01:19:06.359957	9.4	33.8	-75.4	5.7
2026-01-16 01:19:08.610285	9.2	34.3	-75.5	6.6
2026-01-16 01:19:10.858200	9.1	34.8	-74.8	4.4
2026-01-16 01:19:13.111455	8.9	35.3	-74.1	4.0
2026-01-16 01:19:15.361928	8.7	35.8	-75.4	6.9
2026-01-16 01:19:17.608328	8.6	36.3	-75.7	3.8
2026-01-16 01:19:19.855957	8.4	36.8	-76.5	7.7
2026-01-16 01:19:22.106838	8.2	37.4	-76.5	8.0
2026-01-16 01:19:24.353787	8.0	37.9	-75.9	9.1
2026-01-16 01:19:26.606164	7.8	38.5	-75.6	6.2
2026-01-16 01:19:28.853568	7.6	39.0	-76.4	7.5
2026-01-16 01:19:31.103257	7.4	39.6	-76.0	7.8
2026-01-16 01:19:33.353533	7.2	40.2	-76.8	9.8
2026-01-16 01:19:35.601625	7.0	40.7	-76.9	6.3
2026-01-16 01:19:37.850565	6.7	41.3	-76.5	9.5
2026-01-16 01:19:40.097340	6.5	41.9	-76.4	6.5
2026-01-16 01:19:42.347308	6.2	42.6	-77.5	10.2
2026-01-16 01:19:44.596575	5.9	43.2	-76.8	7.2
2026-01-16 01:19:46.843724	5.7	43.8	-76.8	6.8
2026-01-16 01:19:49.090505	5.4	44.5	-77.1	7.0
2026-01-16 01:19:51.343028	5.1	45.1	-77.7	8.3
2026-01-16 01:19:53.591128	4.8	45.8	-78.1	8.7
2026-01-16 01:19:55.841022	4.4	46.5	-78.9	10.5
2026-01-16 01:19:58.088594	4.1	47.1	-78.7	10.8
2026-01-16 01:20:00.337937	3.7	47.8	-78.6	7.2
2026-01-16 01:20:02.587610	3.3	48.5	-79.2	10.9
2026-01-16 01:20:04.833376	3.0	49.2	-79.3	11.2
2026-01-16 01:20:07.080216	2.5	50.0	-78.6	7.8
2026-01-16 01:20:09.331075	2.1	50.7	-78.9	8.9
2026-01-16 01:20:11.577274	1.6	51.4	-79.2	7.4
2026-01-16 01:20:13.827809	1.2	52.2	-79.8	9.9
2026-01-16 01:20:16.075709	0.7	53.0	-79.8	10.0
2026-01-16 01:20:18.322970	0.1	53.7	-80.3	8.8
2026-01-16 01:20:20.575688	359.6	54.5	-79.8	9.1
2026-01-16 01:20:22.826004	359.0	55.3	-80.0	8.4
2026-01-16 01:20:25.072369	358.3	56.1	-79.9	7.9
2026-01-16 01:20:27.323401	357.7	56.9	-80.7	9.2
2026-01-16 01:20:29.571723	356.9	57.7	-80.3	7.4
2026-01-16 01:20:31.820395	356.2	58.6	-79.9	8.8
2026-01-16 01:20:34.069167	355.4	59.4	-80.2	9.0
2026-01-16 01:20:36.317209	354.5	60.2	-80.1	7.5
2026-01-16 01:20:38.569029	353.6	61.1	-80.5	7.3
2026-01-16 01:20:40.818250	352.6	61.9	-79.4	6.7
2026-01-16 01:20:43.070624	351.6	62.8	-79.9	7.1
2026-01-16 01:20:45.318424	350.4	63.6	-80.2	8.5
2026-01-16 01:20:47.565363	349.2	64.5	-80.7	8.5
2026-01-16 01:20:49.813636	347.9	65.3	-80.8	8.9
2026-01-16 01:20:52.064341	346.5	66.1	-80.4	7.6
2026-01-16 01:20:54.314106	344.9	67.0	-81.1	7.3
2026-01-16 01:20:56.562001	343.3	67.8	-81.0	7.9
2026-01-16 01:20:58.812329	341.5	68.6	-80.0	8.4
2026-01-16 01:21:01.060100	339.5	69.4	-80.4	7.7
2026-01-16 01:21:03.310447	337.4	70.2	-79.7	7.8
2026-01-16 01:21:05.558764	335.1	71.0	-79.4	6.4
2026-01-16 01:21:07.811546	332.6	71.7	-79.6	8.4
2026-01-16 01:21:10.058950	329.8	72.4	-79.7	9.7
2026-01-16 01:21:12.305312	326.8	73.1	-79.9	9.8
2026-01-16 01:21:14.552306	323.6	73.7	-79.5	11.0
2026-01-16 01:21:16.802268	320.1	74.3	-79.7	11.4
2026-01-16 01:21:19.053082	316.4	74.8	-79.9	10.2
2026-01-16 01:21:21.303675	312.3	75.3	-79.6	11.1
2026-01-16 01:21:23.554480	308.1	75.7	-79.8	11.2
2026-01-16 01:21:25.806471	303.6	76.0	-80.0	9.8
2026-01-16 01:21:28.055665	298.9	76.2	-80.1	10.9
2026-01-16 01:21:30.303036	294.2	76.3	-79.7	10.8
2026-01-16 01:21:32.551158	289.4	76.3	-80.6	10.7
2026-01-16 01:21:34.801767	284.5	76.3	-80.2	10.5
2026-01-16 01:21:37.052641	279.8	76.1	-79.8	9.8
2026-01-16 01:21:39.301982	275.2	75.9	-79.6	10.6
2026-01-16 01:21:41.552363	270.8	75.6	-79.6	11.3
2026-01-16 01:21:43.800713	266.6	75.1	-79.7	11.6
2026-01-16 01:21:46.047140	262.7	74.7	-80.0	10.8
2026-01-16 01:21:48.298476	259.0	74.1	-80.2	9.8
2026-01-16 01:21:50.547018	255.6	73.5	-80.5	9.9
2026-01-16 01:21:52.799743	252.5	72.9	-80.5	8.9
2026-01-16 01:21:55.047300	249.6	72.2	-80.8	9.3
2026-01-16 01:21:57.295987	246.9	71.5	-80.2	10.1
2026-01-16 01:21:59.545835	244.4	70.7	-79.7	10.3
2026-01-16 01:22:01.797039	242.2	69.9	-79.9	10.7
2026-01-16 01:22:04.043780	240.1	69.2	-80.2	10.0
2026-01-16 01:22:06.292828	238.2	68.3	-80.1	8.9
2026-01-16 01:22:08.543557	236.5	67.5	-80.3	9.1
2026-01-16 01:22:10.791492	234.9	66.7	-80.4	8.9
2026-01-16 01:22:13.038555	233.4	65.8	-80.7	8.4
2026-01-16 01:22:15.290246	232.0	65.0	-80.3	7.7
2026-01-16 01:22:17.537567	230.7	64.1	-80.6	7.9
2026-01-16 01:22:19.788606	229.5	63.3	-80.3	8.3
2026-01-16 01:22:22.035357	228.4	62.4	-80.2	8.5
2026-01-16 01:22:24.285432	227.4	61.6	-79.9	9.0
2026-01-16 01:22:26.532468	226.4	60.7	-80.2	8.9
2026-01-16 01:22:28.781418	225.5	59.9	-80.4	8.8
2026-01-16 01:22:31.031796	224.7	59.1	-80.1	8.6
2026-01-16 01:22:33.278565	223.9	58.2	-80.6	8.9
2026-01-16 01:22:35.528532	223.1	57.4	-80.6	9.3
2026-01-16 01:22:37.777993	222.4	56.6	-80.6	7.7
2026-01-16 01:22:40.022885	221.8	55.8	-80.5	8.9
2026-01-16 01:22:42.270898	221.2	55.0	-80.7	9.7
2026-01-16 01:22:44.517282	220.6	54.2	-80.7	9.5
2026-01-16 01:22:46.765713	220.0	53.4	-80.6	9.5
2026-01-16 01:22:49.012647	219.5	52.6	-80.9	9.4
2026-01-16 01:22:51.263325	219.0	51.9	-81.1	9.4
2026-01-16 01:22:53.514854	218.5	51.1	-81.0	9.8
2026-01-16 01:22:55.758926	218.1	50.4	-80.8	10.5
2026-01-16 01:22:58.006909	217.6	49.6	-80.7	10.3
2026-01-16 01:23:00.255848	217.2	48.9	-80.8	10.5
2026-01-16 01:23:02.507467	216.8	48.2	-80.8	10.7
2026-01-16 01:23:04.753807	216.5	47.5	-80.5	11.2
2026-01-16 01:23:07.002885	216.1	46.8	-80.3	11.2
2026-01-16 01:23:09.251582	215.8	46.1	-80.1	11.0
2026-01-16 01:23:11.501533	215.4	45.4	-80.2	11.0
2026-01-16 01:23:13.751212	215.1	44.8	-80.4	11.1
2026-01-16 01:23:16.000272	214.8	44.1	-80.0	10.8
2026-01-16 01:23:18.246069	214.6	43.5	-79.9	11.3
2026-01-16 01:23:20.492719	214.3	42.8	-79.6	11.4
2026-01-16 01:23:22.740010	214.0	42.2	-79.5	10.7
2026-01-16 01:23:24.987015	213.8	41.6	-79.3	11.0
2026-01-16 01:23:27.235782	213.5	41.0	-79.4	10.9
2026-01-16 01:23:29.484046	213.3	40.4	-79.2	10.8
2026-01-16 01:23:31.731746	213.1	39.8	-79.1	10.7
2026-01-16 01:23:33.978323	212.8	39.2	-79.1	10.3
2026-01-16 01:23:36.226901	212.6	38.7	-78.9	11.3
2026-01-16 01:23:38.477746	212.4	38.1	-78.6	10.4
2026-01-16 01:23:40.723415	212.2	37.6	-78.5	11.2
2026-01-16 01:23:42.968869	212.0	37.0	-78.5	10.2
2026-01-16 01:23:45.217224	211.9	36.5	-78.4	10.3
2026-01-16 01:23:47.467206	211.7	36.0	-78.4	9.7
2026-01-16 01:23:49.717265	211.5	35.5	-78.5	10.1
2026-01-16 01:23:51.963612	211.3	34.9	-78.3	10.4
2026-01-16 01:23:54.211758	211.2	34.4	-78.1	9.7
2026-01-16 01:23:56.458804	211.0	34.0	-78.3	10.5
2026-01-16 01:23:58.705790	210.9	33.5	-78.4	9.0
2026-01-16 01:24:00.956197	210.7	33.0	-78.0	9.6
2026-01-16 01:24:03.200452	210.6	32.5	-78.0	10.1
2026-01-16 01:24:05.448049	210.4	32.1	-78.1	9.6
2026-01-16 01:24:07.696771	210.3	31.6	-77.9	10.5
2026-01-16 01:24:09.946206	210.2	31.1	-77.9	8.6
2026-01-16 01:24:12.193825	210.1	30.7	-78.2	9.8
2026-01-16 01:24:14.443157	209.9	30.3	-78.1	10.4
2026-01-16 01:24:16.692322	209.8	29.8	-78.1	9.9
2026-01-16 01:24:18.938501	209.7	29.4	-77.5	8.2
2026-01-16 01:24:21.188416	209.6	29.0	-78.0	6.9
2026-01-16 01:24:23.437261	209.5	28.6	-77.7	8.0
2026-01-16 01:24:25.683418	209.4	28.2	-78.3	10.9
2026-01-16 01:24:27.932779	209.3	27.8	-77.7	10.1
2026-01-16 01:24:30.182125	209.2	27.4	-77.9	5.5
2026-01-16 01:24:32.430123	209.1	27.0	-78.0	8.4
2026-01-16 01:24:34.681518	209.0	26.6	-78.0	9.7
2026-01-16 01:24:36.933679	208.9	26.2	-77.9	8.2
2026-01-16 01:24:39.182372	208.8	25.9	-77.6	7.8
2026-01-16 01:24:41.433312	208.7	25.5	-78.2	7.7
2026-01-16 01:24:43.680222	208.6	25.1	-77.5	5.2
2026-01-16 01:24:45.929654	208.5	24.8	-77.7	7.1
2026-01-16 01:24:48.177164	208.4	24.4	-77.7	6.2
2026-01-16 01:24:50.424468	208.4	24.1	-77.6	8.1
2026-01-16 01:24:52.673329	208.3	23.7	-78.1	8.7
2026-01-16 01:24:54.922774	208.2	23.4	-77.8	8.8
2026-01-16 01:24:57.171076	208.1	23.0	-77.8	8.5
2026-01-16 01:24:59.422464	208.1	22.7	-77.9	6.4
2026-01-16 01:25:01.670964	208.0	22.4	-77.9	7.8
2026-01-16 01:25:03.919189	207.9	22.1	-78.1	6.8
2026-01-16 01:25:06.165226	207.8	21.7	-77.6	4.7
2026-01-16 01:25:08.414725	207.8	21.4	-77.7	4.6
2026-01-16 01:25:10.665348	207.7	21.1	-77.5	7.0
2026-01-16 01:25:12.913205	207.6	20.8	-77.6	7.6
2026-01-16 01:25:15.160346	207.6	20.5	-77.6	6.3
2026-01-16 01:25:17.408962	207.5	20.2	-77.7	4.1
2026-01-16 01:25:19.658137	207.5	19.9	-77.4	7.2
2026-01-16 01:25:21.905175	207.4	19.6	-77.2	4.9
2026-01-16 01:25:24.149015	207.3	19.3	-77.8	4.2
2026-01-16 01:25:26.397202	207.3	19.0	-77.4	3.5
2026-01-16 01:25:28.648169	207.2	18.8	-77.8	5.4
2026-01-16 01:25:30.896353	207.2	18.5	-77.8	8.2
2026-01-16 01:25:33.144300	207.1	18.2	-79.1	9.6
2026-01-16 01:25:35.395404	207.1	17.9	-78.5	9.8
2026-01-16 01:25:37.642156	207.0	17.7	-78.3	4.4
2026-01-16 01:25:39.887460	207.0	17.4	-78.2	5.2
2026-01-16 01:25:42.132322	206.9	17.1	-78.2	4.6
2026-01-16 01:25:44.384534	206.9	16.9	-78.4	3.4
2026-01-16 01:25:46.632374	206.8	16.6	-79.5	5.9
2026-01-16 01:25:48.878974	206.8	16.3	-79.0	5.7
2026-01-16 01:25:51.127625	206.7	16.1	-79.1	8.2
2026-01-16 01:25:53.375542	206.7	15.8	-78.9	6.8
2026-01-16 01:25:55.621724	206.6	15.6	-79.3	7.7
2026-01-16 01:25:57.869133	206.6	15.3	-79.2	6.0
2026-01-16 01:26:00.116201	206.6	15.1	-79.1	5.2
2026-01-16 01:26:02.363762	206.5	14.9	-78.5	8.1
2026-01-16 01:26:04.612102	206.5	14.6	-78.0	5.5
2026-01-16 01:26:06.859815	206.4	14.4	-79.2	8.5
2026-01-16 01:26:09.111899	206.4	14.1	-79.3	4.7
2026-01-16 01:26:11.359633	206.4	13.9	-78.8	6.2
2026-01-16 01:26:13.608145	206.3	13.7	-79.4	4.2
2026-01-16 01:26:15.856843	206.3	13.5	-79.3	5.6
2026-01-16 01:26:18.107256	206.3	13.2	-79.2	4.7
2026-01-16 01:26:20.354551	206.2	13.0	-79.0	5.6
2026-01-16 01:26:22.602005	206.2	12.8	-78.9	6.8
2026-01-16 01:26:24.853597	206.1	12.6	-78.9	6.2
2026-01-16 01:26:27.103016	206.1	12.3	-78.6	6.2
2026-01-16 01:26:29.351748	206.1	12.1	-79.3	7.1
2026-01-16 01:26:31.602731	206.0	11.9	-79.6	4.0
2026-01-16 01:26:33.852435	206.0	11.7	-79.9	8.1
2026-01-16 01:26:36.100011	206.0	11.5	-79.3	2.3
2026-01-16 01:26:38.347479	206.0	11.3	-79.3	6.4
2026-01-16 01:26:40.593992	205.9	11.1	-79.4	3.1
2026-01-16 01:26:42.840188	205.9	10.9	-79.5	6.6
2026-01-16 01:26:45.089550	205.9	10.7	-83.8	0.5
2026-01-16 01:26:47.336919	205.8	10.5	-85.9	0.0
2026-01-16 01:26:49.586444	205.8	10.3	-85.7	0.0
2026-01-16 01:26:51.831077	205.8	10.1	-85.4	0.0
#Closed at: 2026-01-16 01:16:03.832260