passes_logs/2026/01/16/planumMaritime01/planumMaritime01__20260116_181421_METEOR-M2_3_rec.log

#Pass ID: 20260116_181421_METEOR-M2 3
#Satellite: METEOR-M2 3
#Configuration: METEOR-M2 3
#Start time: 2026-01-16 18:14:26.584356

#LorettStation: 1.0.0 05.05.2024
#Station: planumMaritime01
#Location: 37.49445 lon 55.92918 lat
#TLE: 1 57166U 23091A   26015.20701802 -.00000004  00000+0  17111-4 0  9993
#TLE: 2 57166  98.6327  73.1539 0002947 248.4122 111.6744 14.24030545132744

#Time	Az	El	Level	SNR
2026-01-16 18:14:28.754148	177.9	10.2	-80.6	0.0
2026-01-16 18:14:31.000914	177.9	10.4	-79.4	0.0
2026-01-16 18:14:33.248652	178.0	10.6	-78.5	4.1
2026-01-16 18:14:35.499041	178.1	10.8	-75.8	0.5
2026-01-16 18:14:37.748614	178.2	11.0	-78.0	8.3
2026-01-16 18:14:39.996689	178.3	11.2	-76.3	2.7
2026-01-16 18:14:42.246192	178.4	11.4	-76.7	4.8
2026-01-16 18:14:44.494653	178.5	11.6	-75.8	4.1
2026-01-16 18:14:46.744958	178.6	11.8	-75.0	3.1
2026-01-16 18:14:48.994192	178.7	12.0	-77.1	8.0
2026-01-16 18:14:51.240650	178.8	12.2	-76.5	8.7
2026-01-16 18:14:53.491604	178.9	12.4	-75.4	8.2
2026-01-16 18:14:55.739667	179.0	12.6	-75.3	8.1
2026-01-16 18:14:57.987579	179.1	12.9	-77.3	9.1
2026-01-16 18:15:00.234467	179.2	13.1	-76.6	7.9
2026-01-16 18:15:02.483393	179.3	13.3	-74.1	1.5
2026-01-16 18:15:04.733326	179.4	13.5	-76.4	7.8
2026-01-16 18:15:06.982004	179.5	13.7	-77.1	8.0
2026-01-16 18:15:09.232094	179.7	14.0	-76.5	8.3
2026-01-16 18:15:11.481582	179.8	14.2	-75.5	8.4
2026-01-16 18:15:13.732510	179.9	14.4	-77.5	8.8
2026-01-16 18:15:15.979792	180.0	14.6	-76.9	7.7
2026-01-16 18:15:18.228549	180.1	14.9	-74.5	0.7
2026-01-16 18:15:20.476586	180.2	15.1	-76.7	3.2
2026-01-16 18:15:22.724044	180.4	15.4	-74.5	1.0
2026-01-16 18:15:24.975487	180.5	15.6	-75.7	8.3
2026-01-16 18:15:27.227777	180.6	15.8	-76.5	6.9
2026-01-16 18:15:29.476636	180.7	16.1	-76.7	7.9
2026-01-16 18:15:31.725407	180.9	16.3	-75.8	8.2
2026-01-16 18:15:33.974896	181.0	16.6	-74.8	2.9
2026-01-16 18:15:36.223027	181.1	16.8	-74.9	2.9
2026-01-16 18:15:38.472191	181.3	17.1	-75.1	2.7
2026-01-16 18:15:40.721842	181.4	17.3	-75.0	5.7
2026-01-16 18:15:42.972744	181.6	17.6	-76.0	8.2
2026-01-16 18:15:45.221223	181.7	17.9	-75.8	8.1
2026-01-16 18:15:47.471322	181.8	18.1	-76.0	8.5
2026-01-16 18:15:49.717989	182.0	18.4	-75.8	5.8
2026-01-16 18:15:51.965583	182.1	18.7	-76.1	6.7
2026-01-16 18:15:54.216417	182.3	18.9	-76.4	6.3
2026-01-16 18:15:56.466606	182.5	19.2	-75.7	8.4
2026-01-16 18:15:58.714121	182.6	19.5	-76.3	6.9
2026-01-16 18:16:00.959312	182.8	19.8	-76.9	8.4
2026-01-16 18:16:03.205497	182.9	20.1	-76.9	7.8
2026-01-16 18:16:05.455530	183.1	20.4	-77.0	9.3
2026-01-16 18:16:07.703278	183.3	20.6	-77.1	9.4
2026-01-16 18:16:09.952985	183.4	20.9	-77.0	9.7
2026-01-16 18:16:12.201632	183.6	21.2	-76.9	8.2
2026-01-16 18:16:14.455010	183.8	21.5	-76.8	8.6
2026-01-16 18:16:16.705577	184.0	21.8	-76.8	8.2
2026-01-16 18:16:18.957576	184.2	22.2	-77.2	8.2
2026-01-16 18:16:21.205377	184.4	22.5	-77.1	8.4
2026-01-16 18:16:23.453047	184.6	22.8	-76.9	7.5
2026-01-16 18:16:25.701128	184.8	23.1	-76.8	7.8
2026-01-16 18:16:27.948761	185.0	23.4	-77.2	8.5
2026-01-16 18:16:30.198013	185.2	23.8	-76.8	8.1
2026-01-16 18:16:32.444934	185.4	24.1	-76.8	8.3
2026-01-16 18:16:34.694708	185.6	24.4	-76.9	8.5
2026-01-16 18:16:36.941938	185.8	24.8	-76.9	9.1
2026-01-16 18:16:39.191539	186.0	25.1	-76.4	9.1
2026-01-16 18:16:41.439256	186.3	25.4	-76.5	9.5
2026-01-16 18:16:43.691364	186.5	25.8	-76.5	9.4
2026-01-16 18:16:45.939958	186.7	26.1	-76.6	8.4
2026-01-16 18:16:48.189144	187.0	26.5	-77.0	7.5
2026-01-16 18:16:50.436086	187.2	26.9	-76.9	8.1
2026-01-16 18:16:52.683249	187.5	27.2	-76.8	8.3
2026-01-16 18:16:54.931495	187.7	27.6	-77.3	9.2
2026-01-16 18:16:57.181161	188.0	28.0	-77.5	9.8
2026-01-16 18:16:59.431281	188.3	28.4	-77.3	9.1
2026-01-16 18:17:01.677676	188.6	28.7	-76.8	9.9
2026-01-16 18:17:03.923357	188.9	29.1	-76.8	9.7
2026-01-16 18:17:06.171318	189.1	29.5	-77.3	10.0
2026-01-16 18:17:08.421655	189.4	29.9	-77.0	9.2
2026-01-16 18:17:10.669448	189.8	30.3	-77.3	10.3
2026-01-16 18:17:12.916183	190.1	30.7	-76.7	10.1
2026-01-16 18:17:15.163573	190.4	31.2	-76.8	9.2
2026-01-16 18:17:17.410943	190.7	31.6	-77.6	10.3
2026-01-16 18:17:19.656074	191.1	32.0	-77.6	10.0
2026-01-16 18:17:21.905630	191.4	32.4	-77.8	10.6
2026-01-16 18:17:24.154833	191.8	32.9	-78.0	11.4
2026-01-16 18:17:26.404531	192.1	33.3	-78.0	10.8
2026-01-16 18:17:28.653924	192.5	33.8	-77.9	10.9
2026-01-16 18:17:30.901393	192.9	34.2	-77.9	10.4
2026-01-16 18:17:33.148854	193.3	34.7	-77.6	9.6
2026-01-16 18:17:35.398180	193.7	35.1	-77.8	9.6
2026-01-16 18:17:37.645929	194.1	35.6	-77.9	10.2
2026-01-16 18:17:39.895176	194.6	36.1	-78.5	12.4
2026-01-16 18:17:42.143877	195.0	36.5	-78.0	12.2
2026-01-16 18:17:44.393288	195.5	37.0	-78.1	12.4
2026-01-16 18:17:46.641180	195.9	37.5	-77.8	12.5
2026-01-16 18:17:48.889147	196.4	38.0	-77.8	13.0
2026-01-16 18:17:51.137451	196.9	38.5	-77.7	12.9
2026-01-16 18:17:53.383324	197.4	39.0	-77.7	12.1
2026-01-16 18:17:55.632881	198.0	39.5	-77.7	13.1
2026-01-16 18:17:57.878747	198.5	40.0	-77.8	13.0
2026-01-16 18:18:00.125049	199.1	40.5	-78.2	13.3
2026-01-16 18:18:02.371218	199.7	41.0	-78.3	13.1
2026-01-16 18:18:04.621000	200.3	41.6	-78.3	12.4
2026-01-16 18:18:06.868092	200.9	42.1	-78.1	12.5
2026-01-16 18:18:09.115435	201.5	42.6	-78.2	12.9
2026-01-16 18:18:11.366695	202.2	43.2	-78.3	13.2
2026-01-16 18:18:13.613629	202.9	43.7	-79.0	13.0
2026-01-16 18:18:15.864571	203.6	44.2	-78.5	12.0
2026-01-16 18:18:18.111781	204.3	44.8	-78.5	11.1
2026-01-16 18:18:20.362040	205.1	45.3	-78.6	12.4
2026-01-16 18:18:22.609682	205.9	45.9	-78.5	11.2
2026-01-16 18:18:24.856938	206.7	46.4	-79.1	12.1
2026-01-16 18:18:27.103826	207.5	47.0	-79.0	12.2
2026-01-16 18:18:29.351718	208.4	47.5	-79.2	11.9
2026-01-16 18:18:31.599087	209.3	48.1	-79.0	11.1
2026-01-16 18:18:33.846909	210.2	48.6	-79.1	12.1
2026-01-16 18:18:36.098643	211.2	49.2	-79.0	10.0
2026-01-16 18:18:38.349050	212.2	49.7	-79.0	10.3
2026-01-16 18:18:40.599149	213.2	50.3	-79.0	11.1
2026-01-16 18:18:42.846637	214.3	50.8	-79.5	11.7
2026-01-16 18:18:45.092372	215.4	51.3	-79.6	11.1
2026-01-16 18:18:47.340280	216.6	51.9	-79.9	11.1
2026-01-16 18:18:49.588884	217.8	52.4	-79.0	9.5
2026-01-16 18:18:51.837366	219.0	52.9	-79.1	8.9
2026-01-16 18:18:54.084140	220.3	53.4	-79.1	9.4
2026-01-16 18:18:56.330779	221.6	53.9	-79.3	10.7
2026-01-16 18:18:58.576884	223.0	54.4	-79.3	10.8
2026-01-16 18:19:00.825765	224.4	54.9	-79.2	10.1
2026-01-16 18:19:03.077169	225.9	55.3	-79.7	11.4
2026-01-16 18:19:05.324455	227.4	55.8	-79.4	10.1
2026-01-16 18:19:07.573236	229.0	56.2	-79.1	10.2
2026-01-16 18:19:09.820495	230.6	56.6	-79.1	10.7
2026-01-16 18:19:12.067577	232.2	57.0	-79.0	10.0
2026-01-16 18:19:14.320747	233.9	57.4	-79.6	11.1
2026-01-16 18:19:16.571454	235.7	57.7	-78.8	8.4
2026-01-16 18:19:18.820838	237.5	58.1	-79.2	9.2
2026-01-16 18:19:21.065486	239.3	58.4	-78.5	9.1
2026-01-16 18:19:23.318189	241.2	58.6	-78.6	9.5
2026-01-16 18:19:25.569102	243.1	58.9	-78.6	9.4
2026-01-16 18:19:27.819713	245.0	59.1	-78.6	9.4
2026-01-16 18:19:30.067850	247.0	59.3	-78.7	11.1
2026-01-16 18:19:32.315828	249.0	59.4	-78.6	8.0
2026-01-16 18:19:34.564206	251.0	59.6	-78.9	9.6
2026-01-16 18:19:36.813561	253.1	59.7	-79.0	9.2
2026-01-16 18:19:39.059647	255.1	59.7	-78.7	9.9
2026-01-16 18:19:41.309008	257.2	59.8	-79.0	8.7
2026-01-16 18:19:43.558577	259.2	59.8	-78.6	6.6
2026-01-16 18:19:45.808642	261.3	59.7	-78.3	7.7
2026-01-16 18:19:48.058476	263.4	59.7	-77.9	5.4
2026-01-16 18:19:50.307351	265.4	59.5	-77.4	4.5
2026-01-16 18:19:52.554494	267.4	59.4	-77.8	6.3
2026-01-16 18:19:54.803246	269.4	59.3	-77.9	6.9
2026-01-16 18:19:57.053310	271.4	59.1	-77.3	6.4
2026-01-16 18:19:59.304330	273.3	58.8	-77.2	5.8
2026-01-16 18:20:01.552518	275.2	58.6	-77.7	6.7
2026-01-16 18:20:03.801670	277.1	58.3	-75.9	0.0
2026-01-16 18:20:06.047830	278.9	58.0	-76.7	3.2
2026-01-16 18:20:08.296200	280.7	57.7	-77.1	2.5
2026-01-16 18:20:10.544275	282.4	57.3	-76.9	3.8
2026-01-16 18:20:12.794527	284.1	56.9	-77.2	5.1
2026-01-16 18:20:15.041316	285.7	56.5	-77.4	4.2
2026-01-16 18:20:17.291116	287.3	56.1	-76.4	3.9
2026-01-16 18:20:19.537112	288.9	55.7	-75.1	0.0
2026-01-16 18:20:21.788915	290.4	55.2	-76.9	2.0
2026-01-16 18:20:24.038928	291.8	54.8	-75.8	1.6
2026-01-16 18:20:26.287416	293.2	54.3	-76.0	3.6
2026-01-16 18:20:28.533915	294.6	53.8	-74.3	0.0
2026-01-16 18:20:30.780635	295.9	53.3	-75.4	3.1
2026-01-16 18:20:33.027985	297.2	52.8	-76.1	3.8
2026-01-16 18:20:35.277976	298.4	52.3	-73.6	0.0
2026-01-16 18:20:37.527805	299.6	51.8	-74.0	0.0
2026-01-16 18:20:39.776181	300.7	51.2	-74.9	3.7
2026-01-16 18:20:42.023686	301.9	50.7	-75.5	4.7
2026-01-16 18:20:44.273707	302.9	50.2	-75.3	3.8
2026-01-16 18:20:46.522200	303.9	49.6	-74.6	3.5
2026-01-16 18:20:48.768192	304.9	49.1	-76.2	5.3
2026-01-16 18:20:51.014242	305.9	48.5	-75.3	1.6
2026-01-16 18:20:53.265788	306.8	48.0	-75.3	3.0
2026-01-16 18:20:55.511720	307.7	47.4	-74.4	3.5
2026-01-16 18:20:57.762244	308.6	46.9	-75.1	4.5
2026-01-16 18:21:00.012155	309.4	46.3	-74.8	6.0
2026-01-16 18:21:02.261203	310.2	45.8	-74.7	3.1
2026-01-16 18:21:04.511698	311.0	45.3	-76.3	6.6
2026-01-16 18:21:06.761713	311.7	44.7	-75.3	5.7
2026-01-16 18:21:09.007837	312.5	44.2	-76.0	6.2
2026-01-16 18:21:11.254630	313.2	43.6	-75.3	3.3
2026-01-16 18:21:13.502236	313.9	43.1	-75.7	5.4
2026-01-16 18:21:15.753184	314.5	42.6	-75.6	6.3
2026-01-16 18:21:17.999161	315.2	42.0	-74.3	3.3
2026-01-16 18:21:20.251928	315.8	41.5	-76.1	5.5
2026-01-16 18:21:22.500835	316.4	41.0	-73.8	0.0
2026-01-16 18:21:24.749718	316.9	40.5	-75.8	5.6
2026-01-16 18:21:26.997514	317.5	40.0	-75.1	5.3
2026-01-16 18:21:29.243925	318.1	39.5	-75.5	5.8
2026-01-16 18:21:31.491171	318.6	39.0	-74.6	2.4
2026-01-16 18:21:33.737431	319.1	38.5	-74.9	2.8
2026-01-16 18:21:35.987955	319.6	38.0	-73.0	0.3
2026-01-16 18:21:38.235341	320.1	37.5	-72.4	0.0
2026-01-16 18:21:40.482093	320.5	37.0	-74.1	3.1
2026-01-16 18:21:42.729292	321.0	36.5	-74.1	4.3
2026-01-16 18:21:44.976666	321.4	36.0	-73.3	2.3
2026-01-16 18:21:47.225254	321.9	35.6	-74.1	4.8
2026-01-16 18:21:49.475552	322.3	35.1	-72.8	1.3
2026-01-16 18:21:51.721125	322.7	34.7	-72.9	2.1
2026-01-16 18:21:53.967965	323.1	34.2	-71.4	0.0
2026-01-16 18:21:56.217540	323.5	33.8	-73.1	1.4
2026-01-16 18:21:58.465702	323.8	33.3	-72.7	0.3
2026-01-16 18:22:00.711362	324.2	32.9	-72.7	0.9
2026-01-16 18:22:02.958010	324.6	32.5	-71.9	0.0
2026-01-16 18:22:05.204352	324.9	32.0	-73.1	2.4
2026-01-16 18:22:07.451630	325.3	31.6	-73.7	0.0
2026-01-16 18:22:09.695150	325.6	31.2	-73.7	1.2
2026-01-16 18:22:11.942885	325.9	30.8	-75.0	0.5
2026-01-16 18:22:14.189188	326.2	30.4	-72.2	0.0
2026-01-16 18:22:16.435140	326.5	30.0	-72.8	0.0
2026-01-16 18:22:18.681195	326.8	29.6	-72.2	0.5
2026-01-16 18:22:20.928255	327.1	29.2	-73.0	0.2
2026-01-16 18:22:23.178048	327.4	28.8	-70.9	0.0
2026-01-16 18:22:25.427224	327.7	28.4	-71.8	0.0
2026-01-16 18:22:27.673545	328.0	28.0	-70.9	0.0
2026-01-16 18:22:29.923901	328.2	27.7	-73.1	0.0
2026-01-16 18:22:32.172905	328.5	27.3	-72.6	0.0
2026-01-16 18:22:34.418812	328.7	26.9	-72.0	0.0
2026-01-16 18:22:36.664410	329.0	26.6	-71.7	0.0
2026-01-16 18:22:38.913125	329.2	26.2	-71.3	0.0
2026-01-16 18:22:41.165755	329.5	25.9	-70.1	0.0
2026-01-16 18:22:43.413114	329.7	25.5	-70.7	0.0
2026-01-16 18:22:45.657135	329.9	25.2	-71.0	0.0
2026-01-16 18:22:47.904825	330.1	24.8	-70.4	0.0
2026-01-16 18:22:50.154860	330.4	24.5	-72.2	0.0
2026-01-16 18:22:52.404033	330.6	24.2	-71.4	0.0
2026-01-16 18:22:54.651385	330.8	23.8	-71.8	0.0
2026-01-16 18:22:56.897836	331.0	23.5	-72.0	0.0
2026-01-16 18:22:59.144440	331.2	23.2	-71.0	0.0
2026-01-16 18:23:01.393185	331.4	22.9	-71.4	0.0
2026-01-16 18:23:03.642185	331.6	22.6	-69.8	0.0
2026-01-16 18:23:05.889919	331.8	22.3	-68.8	0.0
2026-01-16 18:23:08.139131	332.0	22.0	-70.5	0.0
2026-01-16 18:23:10.385774	332.2	21.7	-70.9	0.0
2026-01-16 18:23:12.633916	332.3	21.4	-69.9	0.0
2026-01-16 18:23:14.884801	332.5	21.1	-68.2	0.0
2026-01-16 18:23:17.132645	332.7	20.8	-70.4	0.0
2026-01-16 18:23:19.379397	332.9	20.5	-69.8	0.0
2026-01-16 18:23:21.632131	333.0	20.2	-70.5	0.0
2026-01-16 18:23:23.880131	333.2	19.9	-69.3	0.0
2026-01-16 18:23:26.128082	333.4	19.6	-68.3	0.0
2026-01-16 18:23:28.379002	333.5	19.3	-69.0	0.0
2026-01-16 18:23:30.625731	333.7	19.1	-69.7	0.0
2026-01-16 18:23:32.873475	333.8	18.8	-70.0	0.0
2026-01-16 18:23:35.120454	334.0	18.5	-68.5	0.0
2026-01-16 18:23:37.369834	334.1	18.3	-68.5	0.0
2026-01-16 18:23:39.618843	334.3	18.0	-68.3	0.0
2026-01-16 18:23:41.866134	334.4	17.7	-67.9	0.0
2026-01-16 18:23:44.116284	334.6	17.5	-68.0	0.0
2026-01-16 18:23:46.362860	334.7	17.2	-69.2	0.0
2026-01-16 18:23:48.611210	334.8	17.0	-70.0	0.0
2026-01-16 18:23:50.857737	335.0	16.7	-69.5	0.0
2026-01-16 18:23:53.106427	335.1	16.5	-68.9	0.0
2026-01-16 18:23:55.355256	335.2	16.2	-70.4	0.0
2026-01-16 18:23:57.602192	335.4	16.0	-68.1	0.0
2026-01-16 18:23:59.851306	335.5	15.7	-69.7	0.0
2026-01-16 18:24:02.100492	335.6	15.5	-70.6	0.0
2026-01-16 18:24:04.346051	335.7	15.3	-69.7	0.0
2026-01-16 18:24:06.594253	335.9	15.0	-69.2	0.0
2026-01-16 18:24:08.841430	336.0	14.8	-68.5	0.0
2026-01-16 18:24:11.091592	336.1	14.6	-70.4	0.0
2026-01-16 18:24:13.341957	336.2	14.3	-70.1	0.0
2026-01-16 18:24:15.589253	336.3	14.1	-71.9	0.0
2026-01-16 18:24:17.835193	336.5	13.9	-71.9	0.0
2026-01-16 18:24:20.086023	336.6	13.7	-71.2	0.0
2026-01-16 18:24:22.337846	336.7	13.5	-69.7	0.0
2026-01-16 18:24:24.584922	336.8	13.2	-71.7	0.0
2026-01-16 18:24:26.833923	336.9	13.0	-72.6	0.0
2026-01-16 18:24:29.081730	337.0	12.8	-72.9	0.0
2026-01-16 18:24:31.329889	337.1	12.6	-72.9	0.0
2026-01-16 18:24:33.579357	337.2	12.4	-73.9	0.0
2026-01-16 18:24:35.826517	337.3	12.2	-73.5	0.0
2026-01-16 18:24:38.073213	337.4	12.0	-72.1	0.0
2026-01-16 18:24:40.324329	337.5	11.8	-72.5	0.0
2026-01-16 18:24:42.571979	337.6	11.6	-70.6	0.0
2026-01-16 18:24:44.819716	337.7	11.4	-72.6	0.0
2026-01-16 18:24:47.067906	337.8	11.2	-70.8	0.0
2026-01-16 18:24:49.315866	337.9	11.0	-72.6	0.0
2026-01-16 18:24:51.561561	338.0	10.8	-68.6	0.0
2026-01-16 18:24:53.808258	338.1	10.6	-69.2	0.0
2026-01-16 18:24:56.052383	338.2	10.4	-72.8	0.0
2026-01-16 18:24:58.301460	338.3	10.2	-75.2	0.0
#Closed at: 2026-01-16 18:14:21.590740