passes_logs/2025/01/16/LEX_Murmansk/LEX_Murmansk__20250116_070842_NOAA_19_rec.log

#Pass ID: 20250116_070842_NOAA 19
#Satellite: NOAA 19
#Configuration: NOAA 19
#Start time: 2025-01-16 07:08:37.312266

#LorettStation: 1.0.0 05.05.2024
#Station: LEX_Murmansk
#Location: 33.156738 lon 68.926811 lat
#TLE: 1 33591U 09005A   25015.14570653  .00000261  00000+0  16322-3 0  9994
#TLE: 2 33591  99.0196  78.9093 0014467  57.1425 303.1137 14.13259366821569

#Time	Az	El	Level	SNR
2025-01-16 07:08:49.526823	36.5	16.1	-90.0	1.2
2025-01-16 07:08:50.687001	36.7	16.2	-90.0	0.6
2025-01-16 07:08:51.841246	36.8	16.3	-90.0	0.6
2025-01-16 07:08:52.999788	37.0	16.4	-89.9	1.9
2025-01-16 07:08:54.149747	37.1	16.5	-90.2	2.8
2025-01-16 07:08:55.297393	37.3	16.6	-89.8	3.9
2025-01-16 07:08:56.453333	37.4	16.7	-90.4	2.2
2025-01-16 07:08:57.600579	37.6	16.8	-90.2	1.2
2025-01-16 07:08:58.747519	37.8	16.9	-90.4	2.5
2025-01-16 07:08:59.896368	37.9	17.0	-90.6	4.1
2025-01-16 07:09:01.053461	38.1	17.1	-90.3	2.6
2025-01-16 07:09:02.200480	38.2	17.2	-90.2	2.2
2025-01-16 07:09:03.350810	38.4	17.3	-90.4	3.2
2025-01-16 07:09:04.493653	38.6	17.4	-90.4	4.2
2025-01-16 07:09:05.643781	38.7	17.5	-90.2	3.5
2025-01-16 07:09:06.792536	38.9	17.6	-90.5	4.9
2025-01-16 07:09:07.941291	39.1	17.7	-90.7	3.6
2025-01-16 07:09:09.098140	39.2	17.8	-90.3	3.2
2025-01-16 07:09:10.248816	39.4	17.9	-90.1	3.7
2025-01-16 07:09:11.395332	39.6	18.0	-90.3	2.7
2025-01-16 07:09:12.547410	39.7	18.1	-90.3	3.4
2025-01-16 07:09:13.695491	39.9	18.2	-90.5	2.6
2025-01-16 07:09:14.847163	40.1	18.3	-90.0	2.4
2025-01-16 07:09:15.993048	40.2	18.4	-90.1	4.6
2025-01-16 07:09:17.138942	40.4	18.5	-90.5	5.4
2025-01-16 07:09:18.286007	40.6	18.7	-90.1	6.2
2025-01-16 07:09:19.431667	40.8	18.8	-90.2	8.5
2025-01-16 07:09:20.586864	41.0	18.9	-90.4	8.5
2025-01-16 07:09:21.733122	41.1	19.0	-90.3	5.4
2025-01-16 07:09:22.887673	41.3	19.1	-90.1	5.7
2025-01-16 07:09:24.041139	41.5	19.2	-90.3	5.9
2025-01-16 07:09:25.197271	41.7	19.3	-90.0	5.6
2025-01-16 07:09:26.354498	41.9	19.4	-90.0	5.9
2025-01-16 07:09:27.495659	42.1	19.5	-90.4	7.7
2025-01-16 07:09:28.645062	42.2	19.6	-90.4	7.5
2025-01-16 07:09:29.791982	42.4	19.7	-90.3	5.7
2025-01-16 07:09:30.946291	42.6	19.8	-90.5	5.4
2025-01-16 07:09:32.099322	42.8	19.9	-84.4	1.0
2025-01-16 07:09:33.249748	43.0	20.1	-89.9	2.1
2025-01-16 07:09:34.397058	43.2	20.2	-90.5	2.4
2025-01-16 07:09:35.544745	43.4	20.3	-90.3	3.7
2025-01-16 07:09:36.701235	43.6	20.4	-90.8	5.0
2025-01-16 07:09:37.861373	43.8	20.5	-84.2	1.1
2025-01-16 07:09:39.004362	44.0	20.6	-90.7	8.5
2025-01-16 07:09:40.152310	44.2	20.7	-90.2	6.6
2025-01-16 07:09:41.303403	44.4	20.8	-90.5	3.4
2025-01-16 07:09:42.451800	44.6	20.9	-90.6	5.1
2025-01-16 07:09:43.608433	44.8	21.0	-90.7	6.2
2025-01-16 07:09:44.760459	45.0	21.1	-90.5	5.4
2025-01-16 07:09:45.916251	45.2	21.3	-90.9	10.1
2025-01-16 07:09:47.069681	45.4	21.4	-90.2	10.8
2025-01-16 07:09:48.216938	45.6	21.5	-83.5	9.0
2025-01-16 07:09:49.369342	45.9	21.6	-83.6	6.0
2025-01-16 07:09:50.521355	46.1	21.7	-83.6	2.3
2025-01-16 07:09:51.783406	46.3	21.8	-82.9	3.0
2025-01-16 07:09:53.251460	46.6	22.0	-83.6	0.8
2025-01-16 07:09:54.413337	46.8	22.1	-89.4	4.4
2025-01-16 07:09:55.563510	47.0	22.2	-90.3	3.6
2025-01-16 07:09:56.708955	47.2	22.3	-90.4	2.8
2025-01-16 07:09:57.861523	47.5	22.4	-90.7	7.8
2025-01-16 07:09:59.015158	47.7	22.5	-90.2	11.4
2025-01-16 07:10:00.161959	47.9	22.6	-90.3	13.1
2025-01-16 07:10:01.312495	48.1	22.7	-90.4	10.0
2025-01-16 07:10:02.462946	48.4	22.8	-84.2	3.0
2025-01-16 07:10:03.611729	48.6	23.0	-84.4	4.9
2025-01-16 07:10:04.769296	48.8	23.1	-84.5	3.1
2025-01-16 07:10:05.917797	49.1	23.2	-84.5	5.5
2025-01-16 07:10:07.073699	49.3	23.3	-84.2	5.1
2025-01-16 07:10:08.220397	49.5	23.4	-90.4	11.1
2025-01-16 07:10:09.369024	49.8	23.5	-90.3	12.5
2025-01-16 07:10:10.519360	50.0	23.6	-90.3	9.6
2025-01-16 07:10:11.666332	50.3	23.7	-90.4	3.0
2025-01-16 07:10:12.811772	50.5	23.8	-90.4	3.3
2025-01-16 07:10:13.958170	50.8	24.0	-90.6	4.7
2025-01-16 07:10:15.116532	51.0	24.1	-90.4	3.0
2025-01-16 07:10:16.262003	51.3	24.2	-90.6	2.9
2025-01-16 07:10:17.415332	51.5	24.3	-90.4	3.7
2025-01-16 07:10:18.559744	51.8	24.4	-90.6	4.6
2025-01-16 07:10:19.708557	52.0	24.5	-90.5	5.2
2025-01-16 07:10:20.860174	52.3	24.6	-90.8	7.6
2025-01-16 07:10:22.019887	52.5	24.7	-90.6	10.0
2025-01-16 07:10:23.175947	52.8	24.8	-90.5	9.9
2025-01-16 07:10:24.328815	53.1	24.9	-90.4	7.4
2025-01-16 07:10:25.482516	53.3	25.1	-90.7	9.6
2025-01-16 07:10:26.638348	53.6	25.2	-90.5	7.4
2025-01-16 07:10:27.785856	53.8	25.3	-90.7	4.4
2025-01-16 07:10:28.941703	54.1	25.4	-90.7	7.0
2025-01-16 07:10:30.101808	54.4	25.5	-90.4	6.1
2025-01-16 07:10:31.250658	54.7	25.6	-90.7	4.7
2025-01-16 07:10:32.402098	54.9	25.7	-90.3	8.9
2025-01-16 07:10:33.553253	55.2	25.8	-84.2	2.4
2025-01-16 07:10:34.707548	55.5	25.9	-90.3	5.4
2025-01-16 07:10:35.858999	55.8	26.0	-90.6	1.3
2025-01-16 07:10:37.006998	56.1	26.1	-90.4	2.7
2025-01-16 07:10:38.159364	56.3	26.2	-83.4	1.7
2025-01-16 07:10:39.305760	56.6	26.4	-83.2	2.6
2025-01-16 07:10:40.458762	56.9	26.5	-90.3	3.5
2025-01-16 07:10:41.609620	57.2	26.6	-83.9	1.5
2025-01-16 07:10:42.756252	57.5	26.7	-83.6	4.8
2025-01-16 07:10:43.903289	57.8	26.8	-84.0	3.0
2025-01-16 07:10:45.058046	58.1	26.9	-84.1	1.2
2025-01-16 07:10:46.209448	58.4	27.0	-84.1	2.0
2025-01-16 07:10:47.463399	58.7	27.1	-83.5	1.0
2025-01-16 07:10:48.610303	59.0	27.2	-90.4	4.3
2025-01-16 07:10:49.757611	59.3	27.3	-90.3	2.9
2025-01-16 07:10:50.913338	59.6	27.4	-90.4	3.3
2025-01-16 07:10:52.065498	59.9	27.5	-90.5	4.6
2025-01-16 07:10:53.216712	60.2	27.6	-90.7	3.1
2025-01-16 07:10:54.366263	60.5	27.7	-90.4	3.8
2025-01-16 07:10:55.513095	60.8	27.8	-86.4	3.4
2025-01-16 07:10:56.662366	61.2	27.9	-90.2	2.9
2025-01-16 07:10:58.027435	61.5	28.0	-88.8	1.8
2025-01-16 07:10:59.178663	61.8	28.1	-90.3	2.1
2025-01-16 07:11:00.330569	62.2	28.2	-90.3	2.4
2025-01-16 07:11:01.483875	62.5	28.3	-90.5	5.6
2025-01-16 07:11:02.631165	62.8	28.4	-90.5	4.2
2025-01-16 07:11:03.778301	63.1	28.5	-90.4	2.9
2025-01-16 07:11:04.931914	63.5	28.6	-90.5	3.4
2025-01-16 07:11:06.082453	63.8	28.7	-90.1	2.4
2025-01-16 07:11:07.238600	64.1	28.8	-90.6	0.9
2025-01-16 07:11:08.388113	64.5	28.9	-90.5	2.9
2025-01-16 07:11:09.542943	64.8	29.0	-84.8	1.9
2025-01-16 07:11:10.687888	65.1	29.1	-90.2	4.3
2025-01-16 07:11:11.839078	65.5	29.2	-90.4	5.1
2025-01-16 07:11:12.986668	65.8	29.3	-90.7	9.3
2025-01-16 07:11:14.141882	66.2	29.4	-90.6	8.2
2025-01-16 07:11:15.290134	66.5	29.4	-90.3	8.6
2025-01-16 07:11:16.437709	66.8	29.5	-90.4	10.1
2025-01-16 07:11:17.561721	67.2	29.6	-90.4	4.8
2025-01-16 07:11:18.683755	67.5	29.7	-90.2	5.4
2025-01-16 07:11:19.805675	67.9	29.8	-90.5	4.6
2025-01-16 07:11:20.926442	68.2	29.9	-90.4	5.6
2025-01-16 07:11:22.047529	68.6	29.9	-90.1	7.2
2025-01-16 07:11:23.167998	68.9	30.0	-90.1	3.3
2025-01-16 07:11:24.288660	69.3	30.1	-90.4	6.8
2025-01-16 07:11:25.414223	69.6	30.2	-90.4	8.6
2025-01-16 07:11:26.539308	70.0	30.3	-90.4	9.7
2025-01-16 07:11:27.689314	70.3	30.3	-90.5	10.2
2025-01-16 07:11:28.834853	70.7	30.4	-90.8	12.8
2025-01-16 07:11:29.981514	71.1	30.5	-90.4	10.1
2025-01-16 07:11:31.122556	71.4	30.6	-90.3	13.5
2025-01-16 07:11:32.269482	71.8	30.6	-90.3	9.9
2025-01-16 07:11:33.425444	72.2	30.7	-90.1	9.5
2025-01-16 07:11:34.577203	72.5	30.8	-90.2	6.0
2025-01-16 07:11:35.724352	72.9	30.9	-90.3	5.4
2025-01-16 07:11:36.872791	73.3	30.9	-90.3	5.4
2025-01-16 07:11:38.033465	73.7	31.0	-90.4	3.3
2025-01-16 07:11:39.181270	74.1	31.1	-90.4	3.2
2025-01-16 07:11:40.326879	74.4	31.1	-79.5	3.5
2025-01-16 07:11:41.485040	74.8	31.2	-85.5	3.6
2025-01-16 07:11:42.631004	75.2	31.3	-90.5	6.9
2025-01-16 07:11:43.779875	75.6	31.3	-90.6	5.4
2025-01-16 07:11:44.932707	76.0	31.4	-90.6	6.6
2025-01-16 07:11:46.087651	76.4	31.5	-90.3	12.8
2025-01-16 07:11:47.239130	76.8	31.5	-90.3	15.3
2025-01-16 07:11:48.384087	77.2	31.6	-90.6	12.5
2025-01-16 07:11:49.537690	77.5	31.6	-90.8	11.4
2025-01-16 07:11:50.692162	77.9	31.7	-90.8	13.7
2025-01-16 07:11:51.832992	78.3	31.7	-90.8	9.1
2025-01-16 07:11:52.974624	78.7	31.8	-90.7	16.7
2025-01-16 07:11:54.122846	79.1	31.8	-90.3	9.9
2025-01-16 07:11:55.267222	79.5	31.9	-90.4	9.9
2025-01-16 07:11:56.423984	79.9	31.9	-90.8	10.2
2025-01-16 07:11:57.583818	80.3	32.0	-90.8	8.5
2025-01-16 07:11:58.735810	80.7	32.0	-90.7	5.1
2025-01-16 07:11:59.884944	81.1	32.1	-90.7	9.2
2025-01-16 07:12:01.033880	81.5	32.1	-90.5	7.5
2025-01-16 07:12:02.181189	82.0	32.2	-86.1	6.4
2025-01-16 07:12:03.329207	82.4	32.2	-89.7	7.3
2025-01-16 07:12:04.477106	82.8	32.2	-89.8	11.1
2025-01-16 07:12:05.634897	83.2	32.3	-90.4	8.7
2025-01-16 07:12:06.787497	83.6	32.3	-90.6	9.1
2025-01-16 07:12:07.938755	84.0	32.3	-90.7	14.0
2025-01-16 07:12:09.095098	84.4	32.4	-90.6	12.0
2025-01-16 07:12:10.252521	84.8	32.4	-90.6	7.8
2025-01-16 07:12:11.406384	85.2	32.4	-90.6	14.5
2025-01-16 07:12:12.561557	85.7	32.4	-90.6	11.6
2025-01-16 07:12:13.719756	86.1	32.5	-90.7	8.5
2025-01-16 07:12:14.873683	86.5	32.5	-90.7	10.8
2025-01-16 07:12:16.032005	86.9	32.5	-90.5	13.1
2025-01-16 07:12:17.184442	87.3	32.5	-90.6	10.7
2025-01-16 07:12:18.342873	87.8	32.6	-90.4	9.1
2025-01-16 07:12:19.493645	88.2	32.6	-90.7	7.6
2025-01-16 07:12:20.652905	88.6	32.6	-90.6	8.1
2025-01-16 07:12:21.803234	89.0	32.6	-90.7	2.8
2025-01-16 07:12:22.951904	89.4	32.6	-90.6	5.2
2025-01-16 07:12:24.101523	89.8	32.6	-90.2	6.6
2025-01-16 07:12:25.253677	90.3	32.6	-90.4	3.4
2025-01-16 07:12:26.408362	90.7	32.6	-90.5	4.3
2025-01-16 07:12:27.553059	91.1	32.6	-90.3	3.4
2025-01-16 07:12:28.702403	91.5	32.6	-90.7	3.1
2025-01-16 07:12:29.857206	91.9	32.6	-90.6	5.0
2025-01-16 07:12:31.008860	92.4	32.6	-90.9	3.9
2025-01-16 07:12:32.155831	92.8	32.6	-90.6	4.0
2025-01-16 07:12:33.312538	93.2	32.6	-90.5	3.0
2025-01-16 07:12:34.457301	93.6	32.6	-85.7	1.6
2025-01-16 07:12:35.604185	94.0	32.6	-86.9	1.8
2025-01-16 07:12:36.754007	94.5	32.6	-90.1	3.0
2025-01-16 07:12:37.909007	94.9	32.6	-90.4	3.9
2025-01-16 07:12:39.058170	95.3	32.6	-90.2	4.4
2025-01-16 07:12:40.210441	95.7	32.6	-90.3	5.1
2025-01-16 07:12:41.357240	96.1	32.6	-90.3	3.5
2025-01-16 07:12:42.510671	96.5	32.6	-90.3	7.6
2025-01-16 07:12:43.661577	97.0	32.5	-90.5	5.0
2025-01-16 07:12:44.811276	97.4	32.5	-90.1	7.3
2025-01-16 07:12:45.967915	97.8	32.5	-90.8	9.7
2025-01-16 07:12:47.128324	98.2	32.5	-90.4	8.9
2025-01-16 07:12:48.290414	98.6	32.4	-90.4	9.6
2025-01-16 07:12:49.442186	99.1	32.4	-90.6	10.1
2025-01-16 07:12:50.594404	99.5	32.4	-90.5	11.4
2025-01-16 07:12:51.739716	99.9	32.4	-91.0	11.9
2025-01-16 07:12:52.883187	100.3	32.3	-90.8	15.6
2025-01-16 07:12:54.041544	100.7	32.3	-90.7	15.9
2025-01-16 07:12:55.198377	101.1	32.3	-90.5	13.7
2025-01-16 07:12:56.355737	101.5	32.2	-90.6	11.2
2025-01-16 07:12:57.509065	101.9	32.2	-90.5	12.3
2025-01-16 07:12:58.658426	102.3	32.1	-90.5	14.0
2025-01-16 07:12:59.806259	102.7	32.1	-90.6	11.8
2025-01-16 07:13:00.951533	103.1	32.1	-90.7	15.0
2025-01-16 07:13:02.100070	103.6	32.0	-90.5	17.0
2025-01-16 07:13:03.249608	104.0	32.0	-90.4	13.1
2025-01-16 07:13:04.408158	104.4	31.9	-90.2	16.5
2025-01-16 07:13:05.565012	104.8	31.9	-88.3	13.0
2025-01-16 07:13:06.720998	105.2	31.8	-87.0	10.3
2025-01-16 07:13:07.872778	105.6	31.8	-90.7	15.2
2025-01-16 07:13:09.022815	106.0	31.7	-90.3	16.8
2025-01-16 07:13:10.171893	106.4	31.7	-90.3	15.8
2025-01-16 07:13:11.321367	106.8	31.6	-90.2	16.6
2025-01-16 07:13:12.478743	107.1	31.6	-90.5	11.6
2025-01-16 07:13:13.631052	107.5	31.5	-90.4	13.2
2025-01-16 07:13:14.780665	107.9	31.4	-90.5	15.1
2025-01-16 07:13:15.928126	108.3	31.4	-90.0	13.8
2025-01-16 07:13:17.077251	108.7	31.3	-90.0	12.8
2025-01-16 07:13:18.228136	109.1	31.3	-90.5	8.5
2025-01-16 07:13:19.376104	109.5	31.2	-89.9	8.9
2025-01-16 07:13:20.530383	109.9	31.1	-90.1	8.4
2025-01-16 07:13:21.683626	110.2	31.1	-90.1	3.2
2025-01-16 07:13:22.832715	110.6	31.0	-90.3	7.0
2025-01-16 07:13:23.984716	111.0	30.9	-90.4	7.2
2025-01-16 07:13:25.139376	111.4	30.9	-90.5	5.2
2025-01-16 07:13:26.294315	111.8	30.8	-90.5	8.0
2025-01-16 07:13:27.446839	112.1	30.7	-88.0	7.5
2025-01-16 07:13:28.594164	112.5	30.6	-88.8	7.4
2025-01-16 07:13:29.740369	112.9	30.6	-88.9	6.4
2025-01-16 07:13:30.893035	113.2	30.5	-90.1	5.8
2025-01-16 07:13:32.043587	113.6	30.4	-90.1	4.9
2025-01-16 07:13:33.192657	114.0	30.3	-89.9	7.6
2025-01-16 07:13:34.341531	114.3	30.3	-89.9	14.9
2025-01-16 07:13:35.474823	114.7	30.2	-89.7	11.3
2025-01-16 07:13:36.625583	115.1	30.1	-90.1	9.9
2025-01-16 07:13:37.773744	115.4	30.0	-90.3	7.9
2025-01-16 07:13:38.924894	115.8	29.9	-90.6	11.3
2025-01-16 07:13:40.346625	116.2	29.8	-90.1	13.6
2025-01-16 07:13:41.498081	116.6	29.7	-90.1	4.4
2025-01-16 07:13:42.647424	116.9	29.7	-90.6	7.1
2025-01-16 07:13:43.790578	117.3	29.6	-90.5	11.3
2025-01-16 07:13:44.937233	117.6	29.5	-90.3	4.8
2025-01-16 07:13:46.085814	118.0	29.4	-90.5	9.8
2025-01-16 07:13:47.234142	118.3	29.3	-90.4	6.5
2025-01-16 07:13:48.390118	118.6	29.2	-89.8	3.8
2025-01-16 07:13:49.539588	119.0	29.1	-90.3	5.3
2025-01-16 07:13:50.688435	119.3	29.0	-90.3	7.3
2025-01-16 07:13:51.841678	119.7	28.9	-90.5	3.5
2025-01-16 07:13:52.983473	120.0	28.8	-90.1	5.6
2025-01-16 07:13:54.129852	120.3	28.7	-87.5	4.8
2025-01-16 07:13:55.287343	120.6	28.7	-87.1	5.0
2025-01-16 07:13:56.438066	121.0	28.6	-90.1	3.9
2025-01-16 07:13:57.589191	121.3	28.5	-90.1	2.4
2025-01-16 07:13:58.737220	121.6	28.4	-89.9	7.4
2025-01-16 07:13:59.884697	121.9	28.3	-90.1	4.7
2025-01-16 07:14:01.030748	122.3	28.2	-90.2	3.4
2025-01-16 07:14:02.178508	122.6	28.1	-89.9	2.5
2025-01-16 07:14:03.324237	122.9	28.0	-90.2	1.9
2025-01-16 07:14:04.471363	123.2	27.9	-90.2	1.8
2025-01-16 07:14:05.604824	123.5	27.8	-90.1	2.6
2025-01-16 07:14:06.752446	123.8	27.7	-90.5	3.3
2025-01-16 07:14:07.900734	124.1	27.6	-90.2	1.2
2025-01-16 07:14:09.046301	124.4	27.5	-90.4	3.7
2025-01-16 07:14:10.196629	124.8	27.4	-90.4	8.6
2025-01-16 07:14:11.342637	125.1	27.3	-90.0	5.4
2025-01-16 07:14:12.492068	125.4	27.2	-90.5	3.0
2025-01-16 07:14:13.639056	125.7	27.1	-90.5	5.8
2025-01-16 07:14:14.791549	126.0	27.0	-90.7	6.1
2025-01-16 07:14:15.942750	126.3	26.8	-90.2	4.3
2025-01-16 07:14:17.091448	126.5	26.7	-90.1	5.9
2025-01-16 07:14:18.239675	126.8	26.6	-90.2	10.9
2025-01-16 07:14:19.386800	127.1	26.5	-90.3	9.6
2025-01-16 07:14:20.534642	127.4	26.4	-90.3	8.3
2025-01-16 07:14:21.687189	127.7	26.3	-90.0	10.6
2025-01-16 07:14:22.836575	128.0	26.2	-90.2	14.2
2025-01-16 07:14:23.982426	128.3	26.1	-90.2	7.9
2025-01-16 07:14:25.141468	128.6	26.0	-89.7	11.5
2025-01-16 07:14:26.296714	128.8	25.9	-89.9	6.6
2025-01-16 07:14:27.447630	129.1	25.8	-90.0	9.2
2025-01-16 07:14:28.597651	129.4	25.7	-90.3	11.5
2025-01-16 07:14:29.753923	129.7	25.6	-90.0	10.4
2025-01-16 07:14:30.903905	129.9	25.5	-89.6	10.7
2025-01-16 07:14:32.054601	130.2	25.3	-89.8	8.6
2025-01-16 07:14:33.198031	130.5	25.2	-90.1	10.5
2025-01-16 07:14:34.352935	130.7	25.1	-90.0	7.9
2025-01-16 07:14:35.499568	131.0	25.0	-90.2	7.6
2025-01-16 07:14:36.648097	131.3	24.9	-90.2	10.7
2025-01-16 07:14:37.792320	131.5	24.8	-90.6	14.9
2025-01-16 07:14:38.942080	131.8	24.7	-90.5	7.5
2025-01-16 07:14:40.097231	132.0	24.6	-89.9	4.2
2025-01-16 07:14:41.242416	132.3	24.5	-90.2	12.0
2025-01-16 07:14:42.395815	132.5	24.4	-90.5	5.5
2025-01-16 07:14:43.540860	132.8	24.3	-90.3	7.1
2025-01-16 07:14:44.688824	133.0	24.1	-90.3	8.4
2025-01-16 07:14:45.839307	133.3	24.0	-89.8	10.2
2025-01-16 07:14:46.986327	133.5	23.9	-90.6	4.2
2025-01-16 07:14:48.134656	133.8	23.8	-90.4	7.2
2025-01-16 07:14:49.285721	134.0	23.7	-90.3	8.8
2025-01-16 07:14:50.436154	134.3	23.6	-89.8	4.7
2025-01-16 07:14:51.586856	134.5	23.5	-90.8	6.1
2025-01-16 07:14:52.750564	134.8	23.4	-90.6	9.8
2025-01-16 07:14:53.897232	135.0	23.3	-90.7	6.5
2025-01-16 07:14:55.041835	135.2	23.1	-90.5	7.8
2025-01-16 07:14:56.190604	135.5	23.0	-90.2	7.3
2025-01-16 07:14:57.319529	135.7	22.9	-90.3	7.4
2025-01-16 07:14:58.440733	135.9	22.8	-89.9	6.7
2025-01-16 07:14:59.560621	136.1	22.7	-90.4	7.0
2025-01-16 07:15:00.681068	136.4	22.6	-90.4	7.0
2025-01-16 07:15:01.803077	136.6	22.5	-90.3	7.2
2025-01-16 07:15:02.924459	136.8	22.4	-90.6	5.5
2025-01-16 07:15:04.045614	137.0	22.3	-90.3	4.3
2025-01-16 07:15:05.165997	137.2	22.2	-90.3	8.7
2025-01-16 07:15:06.296162	137.4	22.1	-90.2	12.9
2025-01-16 07:15:07.448971	137.7	21.9	-90.7	6.6
2025-01-16 07:15:08.595536	137.9	21.8	-90.3	5.7
2025-01-16 07:15:09.744658	138.1	21.7	-90.0	11.3
2025-01-16 07:15:10.890894	138.3	21.6	-90.2	6.1
2025-01-16 07:15:12.049618	138.5	21.5	-89.7	4.5
2025-01-16 07:15:13.199060	138.7	21.4	-90.4	10.1
2025-01-16 07:15:14.350973	138.9	21.3	-90.5	12.3
2025-01-16 07:15:15.500292	139.2	21.2	-90.8	9.2
2025-01-16 07:15:16.645069	139.4	21.1	-90.2	11.6
2025-01-16 07:15:17.796493	139.6	21.0	-90.3	11.6
2025-01-16 07:15:18.945358	139.8	20.8	-90.6	9.9
2025-01-16 07:15:20.104736	140.0	20.7	-90.3	11.3
2025-01-16 07:15:21.254654	140.2	20.6	-90.4	13.0
2025-01-16 07:15:22.402471	140.4	20.5	-90.6	11.7
2025-01-16 07:15:23.552998	140.6	20.4	-90.6	9.2
2025-01-16 07:15:24.700499	140.8	20.3	-90.8	8.1
2025-01-16 07:15:25.851265	141.0	20.2	-90.6	9.7
2025-01-16 07:15:27.003708	141.2	20.1	-90.4	6.0
2025-01-16 07:15:28.155365	141.4	20.0	-90.4	6.5
2025-01-16 07:15:29.305161	141.5	19.9	-90.2	4.2
2025-01-16 07:15:30.457766	141.7	19.8	-90.4	5.9
2025-01-16 07:15:31.610733	141.9	19.6	-90.5	3.8
2025-01-16 07:15:32.761549	142.1	19.5	-90.4	10.1
2025-01-16 07:15:33.912848	142.3	19.4	-90.3	5.0
2025-01-16 07:15:35.061893	142.5	19.3	-90.0	3.3
2025-01-16 07:15:36.212352	142.7	19.2	-90.5	4.2
2025-01-16 07:15:37.359166	142.9	19.1	-90.1	3.7
2025-01-16 07:15:38.505012	143.0	19.0	-90.3	6.1
2025-01-16 07:15:39.659012	143.2	18.9	-90.4	5.2
2025-01-16 07:15:40.802910	143.4	18.8	-90.1	5.1
2025-01-16 07:15:41.953481	143.6	18.7	-90.6	7.4
2025-01-16 07:15:43.114190	143.7	18.6	-90.5	5.4
2025-01-16 07:15:44.262591	143.9	18.5	-90.4	6.1
2025-01-16 07:15:45.412282	144.1	18.4	-90.5	4.7
2025-01-16 07:15:46.563203	144.3	18.3	-90.8	2.3
2025-01-16 07:15:47.714449	144.4	18.1	-90.6	3.0
2025-01-16 07:15:48.865036	144.6	18.0	-90.8	4.0
2025-01-16 07:15:50.021303	144.8	17.9	-90.3	2.8
2025-01-16 07:15:51.171483	145.0	17.8	-90.7	3.1
2025-01-16 07:15:52.320787	145.1	17.7	-90.5	2.1
2025-01-16 07:15:53.467239	145.3	17.6	-90.7	3.0
2025-01-16 07:15:54.616422	145.5	17.5	-90.6	0.9
2025-01-16 07:15:55.763326	145.6	17.4	-90.7	4.5
2025-01-16 07:15:56.922728	145.8	17.3	-90.7	4.1
2025-01-16 07:15:58.072374	145.9	17.2	-90.2	2.8
2025-01-16 07:15:59.225539	146.1	17.1	-90.4	2.8
2025-01-16 07:16:00.377111	146.3	17.0	-90.5	2.1
2025-01-16 07:16:01.532198	146.4	16.9	-90.8	1.8
2025-01-16 07:16:02.680878	146.6	16.8	-90.6	2.1
2025-01-16 07:16:03.833688	146.7	16.7	-90.6	2.7
2025-01-16 07:16:04.988315	146.9	16.6	-90.5	3.3
2025-01-16 07:16:06.134357	147.0	16.5	-89.6	1.2
2025-01-16 07:16:07.289463	147.2	16.4	-90.2	1.2
2025-01-16 07:16:08.437988	147.4	16.3	-89.3	1.1
2025-01-16 07:16:09.592223	147.5	16.2	-89.9	2.9
2025-01-16 07:16:10.739452	147.7	16.1	-89.7	3.0
2025-01-16 07:16:11.889448	147.8	16.0	-90.2	3.2
2025-01-16 07:16:13.041570	148.0	15.9	-90.6	3.2
2025-01-16 07:16:14.186865	148.1	15.8	-90.5	3.1
2025-01-16 07:16:15.341633	148.3	15.7	-90.4	3.5
2025-01-16 07:16:16.494818	148.4	15.6	-90.4	2.5
2025-01-16 07:16:17.647581	148.5	15.5	-90.7	3.5
2025-01-16 07:16:18.795649	148.7	15.4	-90.6	3.1
2025-01-16 07:16:19.948741	148.8	15.3	-90.9	4.2
2025-01-16 07:16:21.101450	149.0	15.2	-90.5	3.8
2025-01-16 07:16:22.255789	149.1	15.1	-90.5	2.6
2025-01-16 07:16:23.408177	149.3	15.0	-90.0	1.9
2025-01-16 07:16:24.553475	149.4	14.9	-90.5	2.5
2025-01-16 07:16:25.702600	149.5	14.8	-90.5	4.4
2025-01-16 07:16:26.848161	149.7	14.7	-90.3	5.0
2025-01-16 07:16:28.027265	149.8	14.6	-90.4	2.2
#Closed at: 2025-01-16 07:08:42.228125