passes_logs/2025/01/16/LEX_Murmansk/LEX_Murmansk__20250116_073405_NOAA_18_rec.log

#Pass ID: 20250116_073405_NOAA 18
#Satellite: NOAA 18
#Configuration: NOAA 18
#Start time: 2025-01-16 07:34:00.286021

#LorettStation: 1.0.0 05.05.2024
#Station: LEX_Murmansk
#Location: 33.156738 lon 68.926811 lat
#TLE: 1 28654U 05018A   25015.16278545  .00000300  00000+0  18295-3 0  9990
#TLE: 2 28654  98.8567  96.2156 0014367 178.7074 181.4138 14.13486503 13201

#Time	Az	El	Level	SNR
2025-01-16 07:34:12.443697	45.0	15.7	-90.2	5.4
2025-01-16 07:34:13.601620	45.2	15.8	-90.5	5.9
2025-01-16 07:34:14.762324	45.5	15.9	-90.8	5.8
2025-01-16 07:34:15.927808	45.7	16.0	-91.1	5.7
2025-01-16 07:34:17.088605	45.9	16.0	-91.0	7.5
2025-01-16 07:34:18.250641	46.1	16.1	-90.9	4.1
2025-01-16 07:34:19.415364	46.3	16.2	-90.7	4.8
2025-01-16 07:34:20.574717	46.5	16.2	-90.9	3.7
2025-01-16 07:34:21.739476	46.7	16.3	-90.6	5.9
2025-01-16 07:34:22.898634	46.9	16.4	-90.7	4.8
2025-01-16 07:34:24.065412	47.1	16.4	-90.4	4.7
2025-01-16 07:34:25.223581	47.4	16.5	-90.5	5.2
2025-01-16 07:34:26.389547	47.6	16.6	-90.8	4.7
2025-01-16 07:34:27.550417	47.8	16.6	-90.7	3.1
2025-01-16 07:34:28.710571	48.0	16.7	-90.8	4.9
2025-01-16 07:34:29.874656	48.2	16.8	-87.2	6.5
2025-01-16 07:34:31.053237	48.4	16.8	-88.0	5.5
2025-01-16 07:34:32.220565	48.7	16.9	-87.6	6.7
2025-01-16 07:34:33.380101	48.9	17.0	-86.9	5.7
2025-01-16 07:34:34.542280	49.1	17.0	-87.6	7.1
2025-01-16 07:34:35.707585	49.3	17.1	-87.3	8.1
2025-01-16 07:34:36.881375	49.6	17.2	-87.3	7.7
2025-01-16 07:34:38.042836	49.8	17.2	-90.8	6.0
2025-01-16 07:34:39.202901	50.0	17.3	-90.6	8.4
2025-01-16 07:34:40.368160	50.2	17.4	-90.9	9.6
2025-01-16 07:34:41.532427	50.5	17.4	-90.6	6.4
2025-01-16 07:34:42.695796	50.7	17.5	-90.3	6.7
2025-01-16 07:34:43.860125	50.9	17.6	-90.5	7.3
2025-01-16 07:34:45.037302	51.2	17.6	-90.5	6.1
2025-01-16 07:34:46.206006	51.4	17.7	-90.4	8.8
2025-01-16 07:34:47.366511	51.6	17.8	-87.3	7.7
2025-01-16 07:34:48.541773	51.9	17.8	-87.2	6.0
2025-01-16 07:34:49.698996	52.1	17.9	-87.7	7.2
2025-01-16 07:34:50.864011	52.3	18.0	-87.7	10.6
2025-01-16 07:34:52.032014	52.6	18.0	-87.3	6.8
2025-01-16 07:34:53.197221	52.8	18.1	-87.7	6.5
2025-01-16 07:34:54.360625	53.1	18.2	-88.3	10.7
2025-01-16 07:34:55.524890	53.3	18.2	-88.4	5.3
2025-01-16 07:34:56.685874	53.5	18.3	-88.1	7.8
2025-01-16 07:34:57.852491	53.8	18.3	-88.3	7.9
2025-01-16 07:34:59.013957	54.0	18.4	-88.3	10.6
2025-01-16 07:35:00.174047	54.3	18.5	-88.3	9.7
2025-01-16 07:35:01.334298	54.5	18.5	-87.8	8.3
2025-01-16 07:35:02.490803	54.7	18.6	-88.1	9.5
2025-01-16 07:35:03.658173	55.0	18.6	-88.2	11.4
2025-01-16 07:35:04.824503	55.2	18.7	-88.4	13.3
2025-01-16 07:35:05.986386	55.5	18.8	-88.7	8.3
2025-01-16 07:35:07.152188	55.7	18.8	-88.4	12.4
2025-01-16 07:35:08.309259	56.0	18.9	-88.1	10.2
2025-01-16 07:35:09.471902	56.2	18.9	-88.5	10.6
2025-01-16 07:35:10.633238	56.5	19.0	-88.3	9.0
2025-01-16 07:35:11.790256	56.7	19.0	-88.3	12.2
2025-01-16 07:35:12.954515	57.0	19.1	-88.2	9.9
2025-01-16 07:35:14.125559	57.3	19.2	-87.5	8.0
2025-01-16 07:35:15.284561	57.5	19.2	-86.4	6.8
2025-01-16 07:35:16.452405	57.8	19.3	-86.8	6.7
2025-01-16 07:35:17.618259	58.0	19.3	-86.6	6.5
2025-01-16 07:35:18.780407	58.3	19.4	-86.7	11.5
2025-01-16 07:35:19.945202	58.5	19.4	-87.0	7.2
2025-01-16 07:35:21.102372	58.8	19.5	-86.6	7.4
2025-01-16 07:35:22.266536	59.1	19.5	-86.5	9.3
2025-01-16 07:35:23.430914	59.3	19.6	-86.8	7.2
2025-01-16 07:35:24.598761	59.6	19.6	-86.9	8.2
2025-01-16 07:35:25.762716	59.9	19.7	-87.8	9.7
2025-01-16 07:35:26.927304	60.1	19.7	-88.0	9.8
2025-01-16 07:35:28.091623	60.4	19.8	-88.1	12.3
2025-01-16 07:35:29.247657	60.7	19.8	-88.3	9.7
2025-01-16 07:35:30.416732	60.9	19.9	-88.8	11.3
2025-01-16 07:35:31.584230	61.2	19.9	-88.4	10.3
2025-01-16 07:35:32.748188	61.5	20.0	-88.2	12.5
2025-01-16 07:35:33.915229	61.7	20.0	-88.2	12.8
2025-01-16 07:35:35.074942	62.0	20.1	-88.4	9.2
2025-01-16 07:35:36.242905	62.3	20.1	-88.5	10.5
2025-01-16 07:35:37.407649	62.5	20.2	-88.4	12.1
2025-01-16 07:35:38.571504	62.8	20.2	-88.5	9.5
2025-01-16 07:35:39.734930	63.1	20.3	-88.5	11.3
2025-01-16 07:35:40.902621	63.4	20.3	-88.5	10.5
2025-01-16 07:35:42.063671	63.6	20.4	-88.5	12.4
2025-01-16 07:35:43.227333	63.9	20.4	-88.6	11.0
2025-01-16 07:35:44.393131	64.2	20.4	-88.4	12.3
2025-01-16 07:35:45.556734	64.5	20.5	-88.3	12.0
2025-01-16 07:35:46.720200	64.8	20.5	-88.1	9.1
2025-01-16 07:35:47.885585	65.0	20.6	-88.1	7.7
2025-01-16 07:35:49.044031	65.3	20.6	-87.2	6.8
2025-01-16 07:35:50.209730	65.6	20.6	-86.7	10.8
2025-01-16 07:35:51.378935	65.9	20.7	-86.9	6.9
2025-01-16 07:35:52.543883	66.2	20.7	-87.2	7.9
2025-01-16 07:35:53.709154	66.4	20.8	-87.4	12.4
2025-01-16 07:35:54.875496	66.7	20.8	-87.3	8.9
2025-01-16 07:35:56.038417	67.0	20.8	-87.9	6.4
2025-01-16 07:35:57.197639	67.3	20.9	-88.2	8.7
2025-01-16 07:35:58.356525	67.6	20.9	-88.0	7.6
2025-01-16 07:35:59.506697	67.9	20.9	-87.1	8.6
2025-01-16 07:36:00.637759	68.1	21.0	-87.1	9.9
2025-01-16 07:36:01.759041	68.4	21.0	-87.4	12.6
2025-01-16 07:36:02.884254	68.7	21.0	-88.0	11.8
2025-01-16 07:36:04.008334	69.0	21.1	-87.9	11.1
2025-01-16 07:36:05.141311	69.3	21.1	-87.7	9.4
2025-01-16 07:36:06.261825	69.5	21.1	-88.4	15.0
2025-01-16 07:36:07.383302	69.8	21.2	-88.2	13.5
2025-01-16 07:36:08.503391	70.1	21.2	-88.0	9.2
2025-01-16 07:36:09.624862	70.4	21.2	-88.0	11.0
2025-01-16 07:36:10.746975	70.7	21.2	-88.6	13.7
2025-01-16 07:36:11.867672	70.9	21.3	-88.6	13.5
2025-01-16 07:36:12.987667	71.2	21.3	-87.9	7.1
2025-01-16 07:36:14.132873	71.5	21.3	-88.3	9.0
2025-01-16 07:36:15.290882	71.8	21.3	-87.7	9.5
2025-01-16 07:36:16.455591	72.1	21.4	-87.9	11.2
2025-01-16 07:36:17.619483	72.4	21.4	-88.3	9.7
2025-01-16 07:36:18.778677	72.7	21.4	-88.4	8.8
2025-01-16 07:36:19.944844	73.0	21.4	-87.9	6.7
2025-01-16 07:36:21.109245	73.3	21.5	-87.5	7.9
2025-01-16 07:36:22.272118	73.6	21.5	-86.5	9.0
2025-01-16 07:36:23.439120	73.9	21.5	-87.3	12.1
2025-01-16 07:36:24.603829	74.2	21.5	-87.2	7.0
2025-01-16 07:36:25.770660	74.5	21.5	-86.7	7.9
2025-01-16 07:36:26.934465	74.8	21.6	-86.1	12.0
2025-01-16 07:36:28.102750	75.1	21.6	-87.8	12.3
2025-01-16 07:36:29.267034	75.4	21.6	-87.9	13.5
2025-01-16 07:36:30.429220	75.7	21.6	-87.3	7.3
2025-01-16 07:36:31.594129	76.0	21.6	-87.1	7.1
2025-01-16 07:36:32.753915	76.3	21.6	-87.8	13.9
2025-01-16 07:36:33.921182	76.6	21.6	-86.6	9.1
2025-01-16 07:36:35.084854	76.9	21.7	-87.5	7.6
2025-01-16 07:36:36.253395	77.2	21.7	-87.3	6.6
2025-01-16 07:36:37.418258	77.5	21.7	-86.6	4.9
2025-01-16 07:36:38.579315	77.8	21.7	-87.0	4.7
2025-01-16 07:36:39.747562	78.1	21.7	-87.5	8.9
2025-01-16 07:36:40.906147	78.4	21.7	-87.6	4.9
2025-01-16 07:36:42.072164	78.7	21.7	-87.1	4.5
2025-01-16 07:36:43.234840	79.0	21.7	-88.3	9.6
2025-01-16 07:36:44.390183	79.3	21.7	-87.8	6.2
2025-01-16 07:36:45.555508	79.6	21.7	-87.8	6.2
2025-01-16 07:36:46.720680	79.9	21.7	-87.7	10.5
2025-01-16 07:36:47.892889	80.2	21.7	-88.1	5.4
2025-01-16 07:36:49.048438	80.5	21.7	-88.1	6.1
2025-01-16 07:36:50.215853	80.8	21.7	-88.1	5.8
2025-01-16 07:36:51.372149	81.1	21.7	-87.7	8.0
2025-01-16 07:36:52.529455	81.4	21.7	-87.9	6.0
2025-01-16 07:36:53.692977	81.7	21.7	-87.9	5.5
2025-01-16 07:36:54.861097	82.0	21.7	-88.2	7.6
2025-01-16 07:36:56.025489	82.3	21.7	-88.6	5.3
2025-01-16 07:36:57.193566	82.6	21.7	-88.0	7.7
2025-01-16 07:36:58.363612	82.9	21.7	-88.2	5.9
2025-01-16 07:36:59.518309	83.2	21.7	-88.5	6.4
2025-01-16 07:37:00.679789	83.5	21.7	-88.2	5.7
2025-01-16 07:37:01.836437	83.8	21.7	-88.6	10.4
2025-01-16 07:37:02.997347	84.1	21.7	-88.2	7.8
2025-01-16 07:37:04.160771	84.4	21.7	-88.0	7.2
2025-01-16 07:37:05.320794	84.7	21.7	-90.5	10.2
2025-01-16 07:37:06.485722	85.0	21.7	-90.9	11.2
2025-01-16 07:37:07.646030	85.3	21.7	-91.4	14.2
2025-01-16 07:37:08.806821	85.6	21.7	-91.5	10.1
2025-01-16 07:37:09.984471	85.9	21.7	-90.9	8.9
2025-01-16 07:37:11.145544	86.2	21.6	-90.9	14.1
2025-01-16 07:37:12.312925	86.5	21.6	-90.7	10.5
2025-01-16 07:37:13.475989	86.8	21.6	-91.3	6.9
2025-01-16 07:37:14.645160	87.1	21.6	-91.3	7.7
2025-01-16 07:37:15.811243	87.4	21.6	-91.0	6.9
2025-01-16 07:37:16.966020	87.7	21.6	-90.8	9.6
2025-01-16 07:37:18.130723	88.0	21.6	-90.7	10.2
2025-01-16 07:37:19.287085	88.3	21.5	-90.8	12.2
2025-01-16 07:37:20.455287	88.6	21.5	-90.8	6.6
2025-01-16 07:37:21.623266	88.9	21.5	-90.7	9.8
2025-01-16 07:37:22.778641	89.2	21.5	-90.8	13.0
2025-01-16 07:37:23.946587	89.5	21.5	-91.0	4.5
2025-01-16 07:37:25.109975	89.8	21.4	-91.0	7.5
2025-01-16 07:37:26.275230	90.1	21.4	-91.1	12.9
2025-01-16 07:37:27.440059	90.4	21.4	-91.1	8.5
2025-01-16 07:37:28.600433	90.7	21.4	-91.0	6.5
2025-01-16 07:37:29.757541	91.0	21.3	-90.7	7.9
2025-01-16 07:37:30.913401	91.3	21.3	-90.7	10.1
2025-01-16 07:37:32.077793	91.6	21.3	-90.9	8.9
2025-01-16 07:37:33.238253	91.8	21.3	-91.0	7.9
2025-01-16 07:37:34.402512	92.1	21.2	-91.1	4.5
2025-01-16 07:37:35.571287	92.4	21.2	-90.8	7.7
2025-01-16 07:37:36.734045	92.7	21.2	-90.6	11.4
2025-01-16 07:37:37.893576	93.0	21.1	-90.8	5.2
2025-01-16 07:37:39.053964	93.3	21.1	-90.6	4.9
2025-01-16 07:37:40.219951	93.6	21.1	-90.6	9.7
2025-01-16 07:37:41.386994	93.9	21.1	-90.6	5.0
2025-01-16 07:37:42.550661	94.2	21.0	-90.9	5.4
2025-01-16 07:37:43.712504	94.5	21.0	-91.0	15.0
2025-01-16 07:37:44.878704	94.8	21.0	-90.7	6.1
2025-01-16 07:37:46.038621	95.0	20.9	-90.5	5.9
2025-01-16 07:37:47.207253	95.3	20.9	-90.4	9.6
2025-01-16 07:37:48.372229	95.6	20.8	-90.3	7.8
2025-01-16 07:37:49.535783	95.9	20.8	-90.7	6.0
2025-01-16 07:37:50.699316	96.2	20.8	-90.7	7.4
2025-01-16 07:37:51.859375	96.5	20.7	-90.7	8.2
2025-01-16 07:37:53.020112	96.8	20.7	-91.1	4.4
2025-01-16 07:37:54.186863	97.0	20.7	-91.0	7.8
2025-01-16 07:37:55.346076	97.3	20.6	-90.9	4.5
2025-01-16 07:37:56.509382	97.6	20.6	-90.9	6.1
2025-01-16 07:37:57.673484	97.9	20.5	-91.1	4.9
2025-01-16 07:37:58.847142	98.2	20.5	-91.1	7.1
2025-01-16 07:38:00.006290	98.4	20.5	-90.8	6.2
2025-01-16 07:38:01.169085	98.7	20.4	-90.7	7.5
2025-01-16 07:38:02.329954	99.0	20.4	-90.7	8.2
2025-01-16 07:38:03.494648	99.3	20.3	-91.1	6.7
2025-01-16 07:38:04.662864	99.6	20.3	-90.9	14.1
2025-01-16 07:38:05.827035	99.8	20.2	-90.8	9.0
2025-01-16 07:38:06.993169	100.1	20.2	-90.0	6.4
2025-01-16 07:38:08.157727	100.4	20.1	-90.4	4.7
2025-01-16 07:38:09.320547	100.7	20.1	-90.7	7.6
2025-01-16 07:38:10.499456	100.9	20.0	-90.8	8.9
2025-01-16 07:38:11.666193	101.2	20.0	-90.8	7.7
2025-01-16 07:38:12.828449	101.5	19.9	-90.8	8.3
2025-01-16 07:38:13.993553	101.7	19.9	-90.7	6.5
2025-01-16 07:38:15.159258	102.0	19.9	-90.7	12.3
2025-01-16 07:38:16.325058	102.3	19.8	-90.9	12.2
2025-01-16 07:38:17.490222	102.6	19.7	-91.1	4.3
2025-01-16 07:38:18.660189	102.8	19.7	-90.6	14.0
2025-01-16 07:38:19.822554	103.1	19.6	-90.8	11.1
2025-01-16 07:38:20.982996	103.4	19.6	-90.9	4.2
2025-01-16 07:38:22.144644	103.6	19.5	-90.8	6.4
2025-01-16 07:38:23.310338	103.9	19.5	-91.0	8.6
2025-01-16 07:38:24.476140	104.1	19.4	-91.2	5.8
2025-01-16 07:38:25.641404	104.4	19.4	-91.0	11.1
2025-01-16 07:38:26.802415	104.7	19.3	-91.1	14.2
2025-01-16 07:38:27.966923	104.9	19.3	-91.2	5.2
2025-01-16 07:38:29.126793	105.2	19.2	-91.0	5.4
2025-01-16 07:38:30.294774	105.4	19.2	-91.0	8.8
2025-01-16 07:38:31.458345	105.7	19.1	-90.6	8.9
2025-01-16 07:38:32.625292	106.0	19.0	-90.7	6.7
2025-01-16 07:38:33.789800	106.2	19.0	-90.8	17.4
2025-01-16 07:38:34.953215	106.5	18.9	-91.0	8.7
2025-01-16 07:38:36.122283	106.7	18.9	-90.7	8.1
2025-01-16 07:38:37.274060	107.0	18.8	-91.1	12.3
2025-01-16 07:38:38.440685	107.2	18.8	-91.1	9.0
2025-01-16 07:38:39.595191	107.5	18.7	-90.8	11.4
2025-01-16 07:38:40.753914	107.7	18.6	-90.7	8.4
2025-01-16 07:38:41.885927	108.0	18.6	-90.7	11.3
2025-01-16 07:38:43.007119	108.2	18.5	-91.0	6.2
2025-01-16 07:38:44.128776	108.4	18.5	-91.0	11.1
2025-01-16 07:38:45.249804	108.7	18.4	-90.7	9.7
2025-01-16 07:38:46.373216	108.9	18.3	-91.5	9.4
2025-01-16 07:38:47.492961	109.1	18.3	-90.6	9.1
2025-01-16 07:38:48.613989	109.4	18.2	-90.6	7.7
2025-01-16 07:38:49.739109	109.6	18.2	-90.9	8.8
2025-01-16 07:38:50.867691	109.8	18.1	-91.1	8.2
2025-01-16 07:38:52.025635	110.1	18.0	-91.0	11.5
2025-01-16 07:38:53.177190	110.3	18.0	-90.7	10.1
2025-01-16 07:38:54.340303	110.6	17.9	-91.3	11.9
2025-01-16 07:38:55.493918	110.8	17.9	-90.9	8.2
2025-01-16 07:38:56.666507	111.0	17.8	-91.0	13.6
2025-01-16 07:38:57.834899	111.3	17.7	-90.6	6.0
2025-01-16 07:38:58.993772	111.5	17.7	-90.6	14.7
2025-01-16 07:39:00.151997	111.7	17.6	-90.9	11.8
2025-01-16 07:39:01.313771	112.0	17.5	-90.9	12.1
2025-01-16 07:39:02.481479	112.2	17.5	-90.7	10.5
2025-01-16 07:39:03.641013	112.4	17.4	-90.9	9.4
2025-01-16 07:39:04.806118	112.7	17.3	-91.1	11.9
2025-01-16 07:39:05.970005	112.9	17.3	-91.0	7.5
2025-01-16 07:39:07.132482	113.1	17.2	-91.0	7.9
2025-01-16 07:39:08.296928	113.3	17.1	-90.6	5.7
2025-01-16 07:39:09.451584	113.6	17.1	-91.2	6.5
2025-01-16 07:39:10.613524	113.8	17.0	-91.1	5.0
2025-01-16 07:39:11.777228	114.0	16.9	-91.2	8.9
2025-01-16 07:39:12.946299	114.2	16.9	-91.1	8.1
2025-01-16 07:39:14.105147	114.5	16.8	-90.9	5.9
2025-01-16 07:39:15.260232	114.7	16.7	-91.0	8.7
2025-01-16 07:39:16.419803	114.9	16.7	-91.1	5.8
2025-01-16 07:39:17.578744	115.1	16.6	-91.1	5.5
2025-01-16 07:39:18.744383	115.3	16.5	-90.9	9.4
2025-01-16 07:39:19.906852	115.6	16.4	-90.8	6.2
2025-01-16 07:39:21.070096	115.8	16.4	-90.6	7.3
2025-01-16 07:39:22.236748	116.0	16.3	-90.7	8.5
2025-01-16 07:39:23.400563	116.2	16.2	-91.1	5.4
2025-01-16 07:39:24.563864	116.4	16.2	-90.6	9.7
2025-01-16 07:39:25.730582	116.6	16.1	-90.8	9.1
2025-01-16 07:39:26.890091	116.8	16.0	-90.3	6.7
2025-01-16 07:39:28.311441	117.1	15.9	-90.7	11.5
2025-01-16 07:39:29.473559	117.3	15.9	-90.5	9.5
2025-01-16 07:39:30.630811	117.5	15.8	-90.5	10.8
2025-01-16 07:39:31.790816	117.7	15.7	-91.1	10.9
2025-01-16 07:39:32.957251	117.9	15.7	-90.9	10.5
2025-01-16 07:39:34.113314	118.1	15.6	-90.9	7.7
2025-01-16 07:39:35.279285	118.3	15.5	-90.6	5.9
2025-01-16 07:39:36.443703	118.5	15.4	-90.7	8.1
2025-01-16 07:39:37.609015	118.7	15.4	-90.8	7.7
2025-01-16 07:39:38.773339	118.9	15.3	-90.8	8.7
2025-01-16 07:39:39.934725	119.1	15.2	-91.1	7.2
2025-01-16 07:39:41.100790	119.3	15.2	-91.1	8.7
2025-01-16 07:39:42.258722	119.5	15.1	-90.9	6.4
2025-01-16 07:39:43.426629	119.7	15.0	-90.9	9.8
2025-01-16 07:39:44.591386	119.9	14.9	-90.9	8.4
2025-01-16 07:39:45.747790	120.1	14.9	-90.8	4.3
2025-01-16 07:39:46.913364	120.3	14.8	-90.9	8.3
2025-01-16 07:39:48.072549	120.5	14.7	-91.0	6.3
2025-01-16 07:39:49.232062	120.7	14.6	-91.0	7.8
#Closed at: 2025-01-16 07:34:05.231916