passes_logs/2025/01/16/LEX_Murmansk/LEX_Murmansk__20250116_173352_NOAA_18_rec.log

#Pass ID: 20250116_173352_NOAA 18
#Satellite: NOAA 18
#Configuration: NOAA 18
#Start time: 2025-01-16 17:33:47.285548

#LorettStation: 1.0.0 05.05.2024
#Station: LEX_Murmansk
#Location: 33.156738 lon 68.926811 lat
#TLE: 1 28654U 05018A   25016.15379782  .00000321  00000+0  19399-3 0  9994
#TLE: 2 28654  98.8565  97.1968 0014416 175.9109 184.2183 14.13487365 13346

#Time	Az	El	Level	SNR
2025-01-16 17:33:59.408047	112.8	16.2	-90.5	8.7
2025-01-16 17:34:01.703183	112.7	16.5	-91.0	9.0
2025-01-16 17:34:03.990123	112.5	16.7	-90.1	6.9
2025-01-16 17:34:06.293516	112.3	16.9	-90.5	7.2
2025-01-16 17:34:08.574654	112.1	17.2	-90.4	7.3
2025-01-16 17:34:10.841773	111.9	17.4	-89.8	7.4
2025-01-16 17:34:13.122793	111.7	17.7	-90.0	6.8
2025-01-16 17:34:15.392915	111.5	17.9	-89.5	7.9
2025-01-16 17:34:17.680444	111.3	18.2	-90.5	9.6
2025-01-16 17:34:19.974135	111.1	18.4	-90.4	8.0
2025-01-16 17:34:22.270803	110.9	18.7	-90.9	9.3
2025-01-16 17:34:24.558986	110.7	18.9	-90.4	6.9
2025-01-16 17:34:26.833427	110.5	19.2	-91.1	8.2
2025-01-16 17:34:29.109467	110.3	19.5	-90.9	4.2
2025-01-16 17:34:31.389592	110.1	19.7	-90.5	8.2
2025-01-16 17:34:33.673555	109.8	20.0	-90.6	8.3
2025-01-16 17:34:35.933220	109.6	20.3	-90.0	7.4
2025-01-16 17:34:38.211024	109.4	20.5	-90.6	8.7
2025-01-16 17:34:40.480575	109.1	20.8	-90.0	6.1
2025-01-16 17:34:42.767889	108.9	21.1	-90.6	8.5
2025-01-16 17:34:45.051146	108.7	21.3	-90.7	5.0
2025-01-16 17:34:47.341971	108.4	21.6	-90.7	5.9
2025-01-16 17:34:49.636616	108.1	21.9	-90.6	8.9
2025-01-16 17:34:51.925382	107.9	22.2	-90.9	6.9
2025-01-16 17:34:54.225781	107.6	22.5	-90.4	6.2
2025-01-16 17:34:56.500333	107.4	22.8	-90.1	5.9
2025-01-16 17:34:58.782721	107.1	23.1	-90.1	7.4
2025-01-16 17:35:01.066822	106.8	23.4	-90.4	5.0
2025-01-16 17:35:03.329469	106.5	23.7	-90.3	9.3
2025-01-16 17:35:05.609492	106.2	24.0	-90.6	12.6
2025-01-16 17:35:07.896403	105.9	24.3	-90.1	10.1
2025-01-16 17:35:10.184546	105.6	24.6	-90.0	12.0
2025-01-16 17:35:12.451855	105.3	24.9	-89.9	8.0
2025-01-16 17:35:14.735363	105.0	25.2	-90.4	6.6
2025-01-16 17:35:17.024379	104.7	25.5	-90.4	5.3
2025-01-16 17:35:19.310359	104.3	25.8	-90.4	4.2
2025-01-16 17:35:21.599217	104.0	26.2	-90.5	3.8
2025-01-16 17:35:23.893675	103.7	26.5	-90.4	7.4
2025-01-16 17:35:26.187580	103.3	26.8	-90.6	8.9
2025-01-16 17:35:28.481444	103.0	27.1	-90.9	8.0
2025-01-16 17:35:30.793207	102.6	27.5	-90.4	10.6
2025-01-16 17:35:33.091139	102.2	27.8	-91.4	10.3
2025-01-16 17:35:35.390895	101.8	28.1	-90.7	6.5
2025-01-16 17:35:37.682747	101.4	28.5	-90.2	7.4
2025-01-16 17:35:39.969563	101.0	28.8	-90.0	4.8
2025-01-16 17:35:42.263584	100.6	29.2	-90.9	8.9
2025-01-16 17:35:44.531839	100.2	29.5	-90.8	10.3
2025-01-16 17:35:46.808511	99.8	29.9	-90.5	16.9
2025-01-16 17:35:49.096937	99.4	30.2	-90.7	10.6
2025-01-16 17:35:51.379361	98.9	30.6	-90.7	19.6
2025-01-16 17:35:53.647209	98.5	30.9	-90.9	21.0
2025-01-16 17:35:55.927539	98.0	31.3	-90.6	11.8
2025-01-16 17:35:58.216833	97.5	31.6	-90.2	12.8
2025-01-16 17:36:00.504210	97.1	32.0	-90.8	9.0
2025-01-16 17:36:02.797806	96.6	32.4	-90.4	11.7
2025-01-16 17:36:05.095036	96.1	32.7	-90.6	7.7
2025-01-16 17:36:07.399564	95.5	33.1	-90.5	11.0
2025-01-16 17:36:09.689996	95.0	33.5	-90.8	15.2
2025-01-16 17:36:11.955020	94.5	33.8	-90.4	15.3
2025-01-16 17:36:14.236898	93.9	34.2	-90.5	15.6
2025-01-16 17:36:16.530223	93.3	34.6	-90.5	8.5
2025-01-16 17:36:18.831942	92.8	35.0	-90.7	9.8
2025-01-16 17:36:21.132931	92.2	35.3	-90.6	11.6
2025-01-16 17:36:23.432285	91.5	35.7	-90.8	16.4
2025-01-16 17:36:25.720754	90.9	36.1	-90.8	16.4
2025-01-16 17:36:28.008659	90.3	36.5	-90.3	13.3
2025-01-16 17:36:30.300190	89.6	36.8	-90.8	11.5
2025-01-16 17:36:32.605226	89.0	37.2	-91.1	7.2
2025-01-16 17:36:34.890634	88.3	37.6	-90.8	10.8
2025-01-16 17:36:37.180185	87.6	38.0	-90.2	12.3
2025-01-16 17:36:39.476478	86.8	38.4	-90.7	5.7
2025-01-16 17:36:41.774199	86.1	38.7	-90.4	8.5
2025-01-16 17:36:44.067946	85.4	39.1	-90.1	5.6
2025-01-16 17:36:46.359927	84.6	39.5	-90.5	9.9
2025-01-16 17:36:48.656257	83.8	39.9	-90.2	11.5
2025-01-16 17:36:50.951904	83.0	40.2	-90.5	11.8
2025-01-16 17:36:53.244990	82.2	40.6	-90.9	8.9
2025-01-16 17:36:55.492481	81.3	40.9	-90.7	7.7
2025-01-16 17:36:57.735642	80.5	41.3	-90.9	13.9
2025-01-16 17:36:59.979710	79.6	41.6	-90.9	14.1
2025-01-16 17:37:02.235993	78.7	42.0	-90.0	18.2
2025-01-16 17:37:04.504051	77.8	42.3	-90.3	13.1
2025-01-16 17:37:06.802456	76.9	42.7	-90.5	14.9
2025-01-16 17:37:09.096422	75.9	43.0	-90.7	9.1
2025-01-16 17:37:11.378050	74.9	43.3	-90.4	11.4
2025-01-16 17:37:13.647599	74.0	43.6	-90.8	14.0
2025-01-16 17:37:15.937922	72.9	44.0	-90.5	14.2
2025-01-16 17:37:18.225892	71.9	44.3	-90.3	14.6
2025-01-16 17:37:20.514514	70.8	44.6	-90.3	10.9
2025-01-16 17:37:22.813052	69.8	44.8	-90.4	15.7
2025-01-16 17:37:25.099228	68.7	45.1	-90.7	10.6
2025-01-16 17:37:27.371348	67.5	45.4	-90.9	12.7
2025-01-16 17:37:29.649432	66.4	45.6	-90.6	6.9
2025-01-16 17:37:31.940224	65.3	45.9	-90.4	9.4
2025-01-16 17:37:34.225682	64.1	46.1	-90.0	9.9
2025-01-16 17:37:36.495038	62.9	46.3	-90.1	10.0
2025-01-16 17:37:38.785293	61.7	46.5	-90.6	9.9
2025-01-16 17:37:41.086805	60.5	46.7	-91.0	7.1
2025-01-16 17:37:43.372447	59.2	46.9	-90.3	11.6
2025-01-16 17:37:45.667561	58.0	47.1	-90.9	8.9
2025-01-16 17:37:47.957570	56.7	47.2	-90.8	6.3
2025-01-16 17:37:50.264477	55.4	47.4	-90.8	12.4
2025-01-16 17:37:52.557886	54.2	47.5	-91.3	6.7
2025-01-16 17:37:54.820727	52.9	47.6	-90.3	11.4
2025-01-16 17:37:57.097531	51.6	47.7	-90.5	5.8
2025-01-16 17:37:59.385764	50.3	47.8	-90.5	10.8
2025-01-16 17:38:01.676702	49.0	47.8	-90.5	8.7
2025-01-16 17:38:03.970112	47.6	47.9	-90.2	7.1
2025-01-16 17:38:06.260539	46.3	47.9	-90.1	6.9
2025-01-16 17:38:08.552647	45.0	47.9	-90.1	8.2
2025-01-16 17:38:10.846963	43.7	47.9	-90.0	10.6
2025-01-16 17:38:13.146048	42.3	47.9	-90.6	11.7
2025-01-16 17:38:15.420152	41.0	47.8	-90.2	9.0
2025-01-16 17:38:17.690810	39.7	47.8	-90.3	13.4
2025-01-16 17:38:19.965937	38.4	47.7	-90.6	10.7
2025-01-16 17:38:22.252790	37.1	47.6	-90.6	15.5
2025-01-16 17:38:24.539208	35.8	47.5	-90.5	9.6
2025-01-16 17:38:26.834041	34.5	47.4	-89.9	10.2
2025-01-16 17:38:29.126764	33.2	47.3	-90.0	9.3
2025-01-16 17:38:31.391196	32.0	47.1	-90.6	8.8
2025-01-16 17:38:33.672001	30.7	46.9	-90.2	8.4
2025-01-16 17:38:35.943678	29.5	46.8	-90.0	16.7
2025-01-16 17:38:38.223883	28.3	46.6	-90.5	18.4
2025-01-16 17:38:40.504794	27.1	46.4	-90.4	17.2
2025-01-16 17:38:42.794562	25.9	46.2	-90.2	10.9
2025-01-16 17:38:45.062076	24.7	45.9	-89.9	21.9
2025-01-16 17:38:47.341298	23.6	45.7	-90.3	18.0
2025-01-16 17:38:49.629310	22.4	45.4	-89.9	12.9
2025-01-16 17:38:51.919763	21.3	45.2	-90.1	19.6
2025-01-16 17:38:54.208126	20.2	44.9	-90.1	11.6
2025-01-16 17:38:56.499660	19.1	44.6	-90.6	16.0
2025-01-16 17:38:58.795111	18.1	44.3	-90.0	16.9
2025-01-16 17:39:01.087728	17.0	44.0	-90.9	20.9
2025-01-16 17:39:03.385817	16.0	43.7	-90.5	13.0
2025-01-16 17:39:05.671347	15.0	43.4	-90.8	16.3
2025-01-16 17:39:07.937270	14.0	43.0	-90.4	13.7
2025-01-16 17:39:10.218216	13.1	42.7	-90.2	13.1
2025-01-16 17:39:12.502840	12.1	42.4	-90.8	9.1
2025-01-16 17:39:14.788717	11.2	42.0	-91.1	14.4
2025-01-16 17:39:17.076629	10.3	41.7	-90.7	13.6
2025-01-16 17:39:19.373674	9.4	41.3	-90.7	14.1
2025-01-16 17:39:21.634830	8.6	41.0	-90.7	9.6
2025-01-16 17:39:23.917896	7.7	40.6	-91.0	9.6
2025-01-16 17:39:26.203347	6.9	40.3	-90.3	13.9
2025-01-16 17:39:28.494175	6.1	39.9	-90.2	10.6
2025-01-16 17:39:30.787311	5.3	39.5	-89.9	13.0
2025-01-16 17:39:33.081515	4.5	39.1	-90.1	11.5
2025-01-16 17:39:35.377141	3.8	38.8	-90.5	11.1
2025-01-16 17:39:37.660670	3.0	38.4	-90.5	13.1
2025-01-16 17:39:39.922265	2.3	38.0	-90.7	15.4
2025-01-16 17:39:42.198481	1.6	37.6	-90.7	16.4
2025-01-16 17:39:44.482223	0.9	37.3	-90.7	18.1
2025-01-16 17:39:46.769604	0.3	36.9	-90.5	14.0
2025-01-16 17:39:49.062214	359.6	36.5	-90.9	10.4
2025-01-16 17:39:51.354503	359.0	36.1	-90.7	12.6
2025-01-16 17:39:53.647805	358.3	35.7	-90.8	11.3
2025-01-16 17:39:55.943680	357.7	35.4	-90.9	6.9
2025-01-16 17:39:58.242992	357.1	35.0	-90.0	16.6
2025-01-16 17:40:00.538494	356.5	34.6	-90.9	10.0
2025-01-16 17:40:02.826608	356.0	34.2	-89.8	11.7
2025-01-16 17:40:05.117400	355.4	33.9	-90.0	14.4
2025-01-16 17:40:07.408377	354.9	33.5	-90.4	9.4
2025-01-16 17:40:09.704864	354.3	33.1	-91.0	5.3
2025-01-16 17:40:11.970409	353.8	32.8	-90.8	7.5
2025-01-16 17:40:14.231850	353.3	32.4	-90.3	4.6
2025-01-16 17:40:16.514638	352.8	32.0	-90.8	4.7
2025-01-16 17:40:18.791786	352.3	31.7	-91.1	7.0
2025-01-16 17:40:21.067599	351.9	31.3	-90.9	5.1
2025-01-16 17:40:23.354262	351.4	30.9	-90.2	12.4
2025-01-16 17:40:25.630003	350.9	30.6	-90.4	9.0
2025-01-16 17:40:27.913514	350.5	30.2	-90.6	10.5
2025-01-16 17:40:30.196006	350.1	29.9	-90.5	9.5
2025-01-16 17:40:32.488652	349.6	29.5	-90.7	11.2
2025-01-16 17:40:34.758397	349.2	29.2	-90.9	9.0
2025-01-16 17:40:37.036446	348.8	28.8	-90.7	5.5
2025-01-16 17:40:39.323670	348.4	28.5	-91.3	10.6
2025-01-16 17:40:41.614996	348.0	28.2	-90.8	7.9
2025-01-16 17:40:43.914173	347.6	27.8	-90.9	6.9
2025-01-16 17:40:46.180764	347.3	27.5	-90.8	4.5
2025-01-16 17:40:48.454387	346.9	27.2	-90.4	8.8
2025-01-16 17:40:50.749151	346.5	26.8	-90.4	8.7
2025-01-16 17:40:53.040673	346.2	26.5	-89.9	9.3
2025-01-16 17:40:55.334157	345.8	26.2	-90.1	14.9
2025-01-16 17:40:57.631738	345.5	25.9	-89.8	6.5
2025-01-16 17:40:59.921466	345.2	25.5	-89.6	4.8
2025-01-16 17:41:02.216120	344.9	25.2	-89.5	18.2
2025-01-16 17:41:04.514345	344.5	24.9	-89.6	10.1
2025-01-16 17:41:06.796360	344.2	24.6	-89.5	9.0
2025-01-16 17:41:09.067031	343.9	24.3	-89.5	9.6
2025-01-16 17:41:11.351756	343.6	24.0	-89.7	16.1
2025-01-16 17:41:13.640611	343.3	23.7	-89.8	14.8
2025-01-16 17:41:15.939755	343.0	23.4	-90.1	7.5
2025-01-16 17:41:18.229716	342.8	23.1	-89.8	16.8
2025-01-16 17:41:20.497183	342.5	22.8	-89.8	9.6
2025-01-16 17:41:22.775624	342.2	22.5	-89.9	13.1
2025-01-16 17:41:25.068092	342.0	22.2	-89.7	11.5
2025-01-16 17:41:27.332542	341.7	21.9	-89.7	5.8
2025-01-16 17:41:29.616143	341.4	21.6	-90.3	9.2
2025-01-16 17:41:31.900343	341.2	21.4	-89.7	8.9
2025-01-16 17:41:34.187483	340.9	21.1	-89.5	6.9
2025-01-16 17:41:36.444466	340.7	20.8	-89.7	5.8
2025-01-16 17:41:38.728662	340.5	20.5	-90.4	6.6
2025-01-16 17:41:41.017012	340.2	20.3	-89.9	8.1
2025-01-16 17:41:43.327766	340.0	20.0	-90.1	6.6
2025-01-16 17:41:45.620951	339.8	19.7	-90.9	5.3
2025-01-16 17:41:47.919117	339.6	19.5	-90.4	3.9
2025-01-16 17:41:50.213455	339.3	19.2	-91.0	6.9
2025-01-16 17:41:52.504962	339.1	18.9	-91.1	5.8
2025-01-16 17:41:54.797628	338.9	18.7	-90.6	10.8
2025-01-16 17:41:57.068511	338.7	18.4	-90.2	12.0
2025-01-16 17:41:59.345192	338.5	18.2	-90.8	6.5
2025-01-16 17:42:01.624486	338.3	17.9	-89.8	4.5
2025-01-16 17:42:03.907019	338.1	17.7	-90.6	6.9
2025-01-16 17:42:06.196338	337.9	17.4	-90.5	11.7
2025-01-16 17:42:08.501714	337.7	17.2	-90.4	5.1
2025-01-16 17:42:10.768724	337.5	16.9	-90.0	5.2
2025-01-16 17:42:13.056447	337.4	16.7	-90.1	5.3
2025-01-16 17:42:15.312591	337.2	16.5	-90.2	4.4
2025-01-16 17:42:17.589629	337.0	16.2	-90.2	6.1
2025-01-16 17:42:19.873086	336.8	16.0	-90.8	5.2
2025-01-16 17:42:22.167507	336.7	15.7	-90.7	9.7
2025-01-16 17:42:24.469355	336.5	15.5	-90.7	7.8
2025-01-16 17:42:26.762563	336.3	15.3	-90.1	5.2
2025-01-16 17:42:29.046592	336.2	15.1	-90.0	5.7
2025-01-16 17:42:31.336965	336.0	14.8	-90.5	4.3
2025-01-16 17:42:33.631921	335.8	14.6	-90.4	4.9
#Closed at: 2025-01-16 17:33:52.220394