passes_logs/2025/01/16/LEX_Murmansk/LEX_Murmansk__20250116_121040_NOAA_19_rec.log

#Pass ID: 20250116_121040_NOAA 19
#Satellite: NOAA 19
#Configuration: NOAA 19
#Start time: 2025-01-16 12:10:35.513059

#LorettStation: 1.0.0 05.05.2024
#Station: LEX_Murmansk
#Location: 33.156738 lon 68.926811 lat
#TLE: 1 33591U 09005A   25015.14570653  .00000261  00000+0  16322-3 0  9994
#TLE: 2 33591  99.0196  78.9093 0014467  57.1425 303.1137 14.13259366821569

#Time	Az	El	Level	SNR
2025-01-16 12:10:48.270152	28.6	16.0	-84.6	2.1
2025-01-16 12:10:49.435564	28.4	16.1	-84.9	1.4
2025-01-16 12:10:50.595150	28.3	16.2	-85.2	1.4
2025-01-16 12:10:51.754056	28.1	16.3	-86.0	2.1
2025-01-16 12:10:52.917086	27.9	16.4	-85.7	3.2
2025-01-16 12:10:54.075395	27.7	16.5	-86.0	3.5
2025-01-16 12:10:55.239847	27.5	16.6	-85.9	1.8
2025-01-16 12:10:56.402741	27.4	16.7	-85.6	3.1
2025-01-16 12:10:57.563408	27.2	16.8	-85.2	2.7
2025-01-16 12:10:58.723282	27.0	16.8	-85.5	1.5
2025-01-16 12:10:59.888243	26.8	16.9	-85.2	2.9
2025-01-16 12:11:01.049943	26.6	17.0	-85.6	4.1
2025-01-16 12:11:02.211373	26.4	17.1	-85.5	1.3
2025-01-16 12:11:03.370251	26.3	17.2	-84.8	2.1
2025-01-16 12:11:04.538062	26.1	17.3	-84.7	3.4
2025-01-16 12:11:05.692327	25.9	17.4	-84.8	1.9
2025-01-16 12:11:06.857106	25.7	17.5	-84.8	2.9
2025-01-16 12:11:08.024147	25.5	17.6	-85.1	0.8
2025-01-16 12:11:09.187799	25.3	17.7	-84.3	1.2
2025-01-16 12:11:10.352623	25.1	17.8	-85.1	0.2
2025-01-16 12:11:11.520334	24.9	17.9	-85.4	1.4
2025-01-16 12:11:12.682414	24.7	18.0	-85.4	2.6
2025-01-16 12:11:13.848943	24.5	18.1	-85.4	2.2
2025-01-16 12:11:15.013964	24.3	18.1	-84.6	4.5
2025-01-16 12:11:16.169447	24.1	18.2	-84.9	2.8
2025-01-16 12:11:17.450518	23.9	18.3	-85.3	1.8
2025-01-16 12:11:18.616436	23.7	18.4	-85.6	2.3
2025-01-16 12:11:19.773802	23.5	18.5	-85.2	1.8
2025-01-16 12:11:20.938296	23.3	18.6	-85.1	1.7
2025-01-16 12:11:22.102383	23.1	18.7	-84.9	6.5
2025-01-16 12:11:23.272270	22.8	18.8	-85.0	7.0
2025-01-16 12:11:24.438777	22.6	18.9	-85.0	6.0
2025-01-16 12:11:25.602219	22.4	19.0	-84.9	6.2
2025-01-16 12:11:26.759504	22.2	19.1	-84.9	4.2
2025-01-16 12:11:27.923421	22.0	19.2	-85.0	3.9
2025-01-16 12:11:29.091152	21.8	19.3	-84.9	4.5
2025-01-16 12:11:30.256171	21.6	19.4	-84.3	0.9
2025-01-16 12:11:31.421698	21.3	19.5	-84.9	2.7
2025-01-16 12:11:32.582260	21.1	19.6	-84.8	0.8
2025-01-16 12:11:33.749330	20.9	19.6	-85.6	3.4
2025-01-16 12:11:34.907897	20.7	19.7	-85.3	4.1
2025-01-16 12:11:36.066236	20.5	19.8	-85.2	4.9
2025-01-16 12:11:37.234432	20.2	19.9	-85.3	5.7
2025-01-16 12:11:38.397501	20.0	20.0	-85.6	5.7
2025-01-16 12:11:39.559756	19.8	20.1	-85.4	5.0
2025-01-16 12:11:40.723709	19.6	20.2	-85.3	3.8
2025-01-16 12:11:41.884720	19.3	20.3	-86.3	3.1
2025-01-16 12:11:43.050302	19.1	20.4	-85.9	3.7
2025-01-16 12:11:44.217611	18.9	20.5	-86.1	3.2
2025-01-16 12:11:45.383366	18.6	20.6	-85.8	4.6
2025-01-16 12:11:46.542837	18.4	20.6	-85.7	5.6
2025-01-16 12:11:47.707827	18.1	20.7	-86.5	5.7
2025-01-16 12:11:48.872123	17.9	20.8	-86.0	3.6
2025-01-16 12:11:50.034512	17.7	20.9	-86.5	3.9
2025-01-16 12:11:51.198738	17.4	21.0	-86.1	3.7
2025-01-16 12:11:52.365219	17.2	21.1	-85.9	3.3
2025-01-16 12:11:53.525572	16.9	21.2	-85.9	2.6
2025-01-16 12:11:54.693314	16.7	21.3	-85.4	2.7
2025-01-16 12:11:55.856881	16.4	21.4	-84.8	3.4
2025-01-16 12:11:57.016004	16.2	21.5	-85.0	2.6
2025-01-16 12:11:58.184536	15.9	21.5	-84.4	4.6
2025-01-16 12:11:59.348651	15.7	21.6	-84.7	2.2
2025-01-16 12:12:00.512134	15.4	21.7	-84.3	4.4
2025-01-16 12:12:01.675901	15.2	21.8	-84.5	5.0
2025-01-16 12:12:02.843293	14.9	21.9	-84.6	4.8
2025-01-16 12:12:04.006703	14.7	22.0	-84.7	3.4
2025-01-16 12:12:05.170021	14.4	22.1	-85.2	4.5
2025-01-16 12:12:06.337406	14.2	22.2	-86.1	1.2
2025-01-16 12:12:07.494686	13.9	22.2	-84.9	6.1
2025-01-16 12:12:08.657511	13.6	22.3	-85.3	5.4
2025-01-16 12:12:09.820630	13.4	22.4	-90.2	7.6
2025-01-16 12:12:10.988012	13.1	22.5	-91.0	10.5
2025-01-16 12:12:12.150851	12.8	22.6	-90.7	9.3
2025-01-16 12:12:13.315781	12.6	22.7	-90.9	10.0
2025-01-16 12:12:14.479525	12.3	22.7	-91.0	9.9
2025-01-16 12:12:15.650536	12.0	22.8	-90.9	5.4
2025-01-16 12:12:16.809228	11.7	22.9	-90.8	2.8
2025-01-16 12:12:17.973344	11.5	23.0	-90.9	5.4
2025-01-16 12:12:19.129130	11.2	23.1	-91.1	5.9
2025-01-16 12:12:20.289095	10.9	23.2	-90.9	2.4
2025-01-16 12:12:21.451208	10.6	23.2	-91.2	3.0
2025-01-16 12:12:22.614016	10.4	23.3	-90.9	6.1
2025-01-16 12:12:23.780908	10.1	23.4	-91.0	7.9
2025-01-16 12:12:24.941033	9.8	23.5	-91.3	8.6
2025-01-16 12:12:26.107668	9.5	23.6	-91.4	12.3
2025-01-16 12:12:27.270238	9.2	23.6	-91.2	11.4
2025-01-16 12:12:28.427021	8.9	23.7	-91.1	10.1
2025-01-16 12:12:29.594457	8.6	23.8	-91.2	9.7
2025-01-16 12:12:30.758320	8.4	23.9	-91.2	6.1
2025-01-16 12:12:31.922533	8.1	23.9	-91.0	6.5
2025-01-16 12:12:33.084614	7.8	24.0	-91.1	7.1
2025-01-16 12:12:34.246682	7.5	24.1	-91.1	3.4
2025-01-16 12:12:35.413449	7.2	24.2	-91.0	7.8
2025-01-16 12:12:36.577421	6.9	24.2	-91.2	7.1
2025-01-16 12:12:37.745753	6.6	24.3	-91.1	8.5
2025-01-16 12:12:38.911327	6.3	24.4	-91.0	10.9
2025-01-16 12:12:40.076313	6.0	24.4	-90.9	7.9
2025-01-16 12:12:41.234776	5.7	24.5	-91.1	5.6
2025-01-16 12:12:42.397721	5.4	24.6	-90.9	7.1
2025-01-16 12:12:43.562806	5.1	24.7	-91.2	6.2
2025-01-16 12:12:44.722270	4.8	24.7	-90.9	4.7
2025-01-16 12:12:45.881373	4.4	24.8	-91.0	4.2
2025-01-16 12:12:47.045533	4.1	24.9	-91.0	4.6
2025-01-16 12:12:48.209366	3.8	24.9	-91.4	3.7
2025-01-16 12:12:49.375532	3.5	25.0	-91.3	2.6
2025-01-16 12:12:50.539873	3.2	25.1	-91.2	4.0
2025-01-16 12:12:51.706083	2.9	25.1	-90.9	4.1
2025-01-16 12:12:52.869797	2.6	25.2	-91.3	4.6
2025-01-16 12:12:54.031170	2.2	25.2	-91.0	6.9
2025-01-16 12:12:55.196628	1.9	25.3	-91.0	7.8
2025-01-16 12:12:56.356674	1.6	25.4	-90.8	8.0
2025-01-16 12:12:57.518983	1.3	25.4	-90.9	9.2
2025-01-16 12:12:58.687755	1.0	25.5	-91.1	12.6
2025-01-16 12:12:59.847069	0.6	25.5	-91.3	10.6
2025-01-16 12:13:01.009791	0.3	25.6	-91.2	10.3
2025-01-16 12:13:02.173361	360.0	25.7	-91.3	6.7
2025-01-16 12:13:03.339253	359.7	25.7	-90.9	4.5
2025-01-16 12:13:04.495592	359.3	25.8	-91.2	4.1
2025-01-16 12:13:05.659557	359.0	25.8	-90.9	5.5
2025-01-16 12:13:06.822868	358.7	25.9	-90.8	3.6
2025-01-16 12:13:07.984424	358.3	25.9	-90.7	4.5
2025-01-16 12:13:09.151031	358.0	26.0	-91.0	5.8
2025-01-16 12:13:10.323909	357.7	26.0	-90.9	3.7
2025-01-16 12:13:11.490007	357.3	26.1	-90.9	5.4
2025-01-16 12:13:12.653110	357.0	26.1	-91.0	10.0
2025-01-16 12:13:13.821424	356.7	26.2	-90.8	10.2
2025-01-16 12:13:14.985113	356.3	26.2	-90.8	8.9
2025-01-16 12:13:16.154438	356.0	26.3	-91.1	13.3
2025-01-16 12:13:17.315513	355.6	26.3	-91.0	11.0
2025-01-16 12:13:18.476097	355.3	26.3	-91.1	10.4
2025-01-16 12:13:19.637977	355.0	26.4	-91.2	9.1
2025-01-16 12:13:20.802893	354.6	26.4	-91.3	4.8
2025-01-16 12:13:21.963362	354.3	26.5	-91.1	5.3
2025-01-16 12:13:23.127718	353.9	26.5	-91.1	6.4
2025-01-16 12:13:24.295468	353.6	26.5	-91.2	2.5
2025-01-16 12:13:25.457820	353.2	26.6	-91.5	3.4
2025-01-16 12:13:26.618470	352.9	26.6	-91.4	4.5
2025-01-16 12:13:27.789181	352.6	26.6	-91.3	3.5
2025-01-16 12:13:28.947835	352.2	26.7	-90.9	3.8
2025-01-16 12:13:30.110303	351.9	26.7	-91.0	2.7
2025-01-16 12:13:31.269935	351.5	26.7	-91.0	2.0
2025-01-16 12:13:32.436131	351.2	26.8	-91.1	2.8
2025-01-16 12:13:33.600340	350.8	26.8	-91.1	7.5
2025-01-16 12:13:34.760101	350.5	26.8	-91.0	5.8
2025-01-16 12:13:35.923217	350.1	26.8	-90.9	6.0
2025-01-16 12:13:37.090722	349.7	26.9	-91.0	8.7
2025-01-16 12:13:38.256901	349.4	26.9	-91.1	9.6
2025-01-16 12:13:39.425316	349.0	26.9	-91.2	9.9
2025-01-16 12:13:40.587324	348.7	26.9	-90.9	8.5
2025-01-16 12:13:41.732598	348.3	26.9	-91.1	7.5
2025-01-16 12:13:42.889178	348.0	27.0	-91.1	7.9
2025-01-16 12:13:44.048649	347.6	27.0	-91.2	7.6
2025-01-16 12:13:45.212770	347.3	27.0	-91.4	6.5
2025-01-16 12:13:46.373555	346.9	27.0	-90.9	7.3
2025-01-16 12:13:47.536141	346.6	27.0	-90.9	6.3
2025-01-16 12:13:48.699618	346.2	27.0	-90.9	4.5
2025-01-16 12:13:49.864691	345.9	27.1	-90.7	5.7
2025-01-16 12:13:51.030161	345.5	27.1	-90.7	10.0
2025-01-16 12:13:52.195894	345.1	27.1	-91.1	4.1
2025-01-16 12:13:53.360692	344.8	27.1	-91.1	2.6
2025-01-16 12:13:54.525872	344.4	27.1	-91.2	7.1
2025-01-16 12:13:55.692029	344.1	27.1	-91.0	4.7
2025-01-16 12:13:56.846795	343.7	27.1	-91.2	3.9
2025-01-16 12:13:58.007739	343.4	27.1	-91.1	5.8
2025-01-16 12:13:59.172782	343.0	27.1	-91.0	6.7
2025-01-16 12:14:00.334092	342.6	27.1	-90.8	2.5
2025-01-16 12:14:01.502208	342.3	27.1	-90.8	5.3
2025-01-16 12:14:02.666855	341.9	27.1	-91.1	3.3
2025-01-16 12:14:03.831545	341.6	27.1	-91.1	4.5
2025-01-16 12:14:04.988581	341.2	27.1	-90.8	6.4
2025-01-16 12:14:06.150055	340.8	27.1	-91.0	5.8
2025-01-16 12:14:07.309017	340.5	27.1	-91.1	1.2
2025-01-16 12:14:08.471904	340.1	27.1	-91.0	2.7
2025-01-16 12:14:09.633790	339.8	27.1	-91.2	5.1
2025-01-16 12:14:10.797214	339.4	27.0	-90.9	5.4
2025-01-16 12:14:11.955871	339.1	27.0	-90.8	6.7
2025-01-16 12:14:13.119756	338.7	27.0	-90.6	4.8
2025-01-16 12:14:14.284075	338.4	27.0	-90.5	10.6
2025-01-16 12:14:15.440719	338.0	27.0	-90.7	10.4
2025-01-16 12:14:16.605028	337.6	27.0	-90.8	9.0
2025-01-16 12:14:17.770744	337.3	26.9	-90.9	10.1
2025-01-16 12:14:18.942678	336.9	26.9	-90.9	7.4
2025-01-16 12:14:20.109135	336.6	26.9	-91.0	5.9
2025-01-16 12:14:21.272198	336.2	26.9	-90.9	9.8
2025-01-16 12:14:22.436072	335.9	26.9	-90.9	6.9
2025-01-16 12:14:23.599095	335.5	26.8	-90.9	7.5
2025-01-16 12:14:24.764088	335.2	26.8	-90.8	7.9
2025-01-16 12:14:25.930141	334.8	26.8	-91.1	6.3
2025-01-16 12:14:27.088439	334.5	26.8	-90.8	4.1
2025-01-16 12:14:28.248135	334.1	26.7	-91.0	6.0
2025-01-16 12:14:29.416041	333.8	26.7	-91.1	8.2
2025-01-16 12:14:30.580461	333.4	26.7	-91.1	5.9
2025-01-16 12:14:31.742658	333.1	26.6	-91.1	4.9
2025-01-16 12:14:32.906339	332.7	26.6	-90.9	3.7
2025-01-16 12:14:34.065729	332.4	26.6	-90.9	1.8
2025-01-16 12:14:35.231590	332.0	26.5	-90.9	3.8
2025-01-16 12:14:36.396073	331.7	26.5	-90.8	5.1
2025-01-16 12:14:37.557331	331.4	26.5	-90.8	5.6
2025-01-16 12:14:38.724405	331.0	26.4	-90.9	6.8
2025-01-16 12:14:39.884904	330.7	26.4	-91.1	4.4
2025-01-16 12:14:41.047837	330.3	26.3	-91.1	7.0
2025-01-16 12:14:42.213099	330.0	26.3	-91.1	5.9
2025-01-16 12:14:43.374593	329.6	26.2	-91.2	5.0
2025-01-16 12:14:44.535585	329.3	26.2	-91.1	6.5
2025-01-16 12:14:45.698527	329.0	26.2	-90.9	5.9
2025-01-16 12:14:46.857581	328.6	26.1	-90.6	6.7
2025-01-16 12:14:48.024173	328.3	26.1	-90.7	8.1
2025-01-16 12:14:49.185758	328.0	26.0	-90.7	8.3
2025-01-16 12:14:50.347639	327.6	26.0	-91.0	5.6
2025-01-16 12:14:51.510692	327.3	25.9	-91.2	7.2
2025-01-16 12:14:52.675142	327.0	25.9	-91.1	5.5
2025-01-16 12:14:53.839209	326.6	25.8	-91.1	5.1
2025-01-16 12:14:55.006299	326.3	25.8	-90.9	7.6
2025-01-16 12:14:56.169646	326.0	25.7	-91.1	7.6
2025-01-16 12:14:57.329556	325.7	25.6	-91.0	5.4
2025-01-16 12:14:58.500637	325.3	25.6	-90.9	7.2
2025-01-16 12:14:59.662209	325.0	25.5	-90.8	8.0
2025-01-16 12:15:00.825417	324.7	25.5	-90.5	4.3
2025-01-16 12:15:01.988696	324.4	25.4	-91.0	7.8
2025-01-16 12:15:03.152093	324.0	25.4	-91.1	7.8
2025-01-16 12:15:04.312008	323.7	25.3	-90.6	6.8
2025-01-16 12:15:05.476342	323.4	25.2	-90.9	6.3
2025-01-16 12:15:06.637189	323.1	25.2	-91.0	8.3
2025-01-16 12:15:07.804168	322.8	25.1	-91.1	7.2
2025-01-16 12:15:08.969065	322.4	25.0	-90.8	3.7
2025-01-16 12:15:10.133406	322.1	25.0	-90.8	7.5
2025-01-16 12:15:11.297826	321.8	24.9	-91.2	7.2
2025-01-16 12:15:12.457443	321.5	24.9	-91.1	8.8
2025-01-16 12:15:13.622052	321.2	24.8	-91.4	9.4
2025-01-16 12:15:14.787737	320.9	24.7	-91.1	10.3
2025-01-16 12:15:15.952471	320.6	24.6	-90.9	8.1
2025-01-16 12:15:17.115019	320.3	24.6	-90.9	11.0
2025-01-16 12:15:18.282899	320.0	24.5	-91.1	11.1
2025-01-16 12:15:19.456226	319.7	24.4	-91.6	9.5
2025-01-16 12:15:20.620999	319.4	24.4	-90.9	8.2
2025-01-16 12:15:21.784801	319.1	24.3	-91.0	4.7
2025-01-16 12:15:22.952749	318.8	24.2	-90.9	7.7
2025-01-16 12:15:24.112678	318.5	24.2	-91.0	9.8
2025-01-16 12:15:25.279631	318.2	24.1	-91.1	12.1
2025-01-16 12:15:26.440790	317.9	24.0	-91.3	10.8
2025-01-16 12:15:27.600393	317.6	23.9	-91.4	12.3
2025-01-16 12:15:28.761125	317.3	23.9	-91.0	11.7
2025-01-16 12:15:29.930134	317.0	23.8	-91.2	8.0
2025-01-16 12:15:31.094721	316.7	23.7	-91.2	8.6
2025-01-16 12:15:32.261719	316.4	23.6	-91.1	9.4
2025-01-16 12:15:33.429009	316.1	23.5	-91.0	6.3
2025-01-16 12:15:34.584613	315.9	23.5	-90.9	6.9
2025-01-16 12:15:35.752375	315.6	23.4	-91.0	7.0
2025-01-16 12:15:36.916371	315.3	23.3	-91.1	6.6
2025-01-16 12:15:38.076337	315.0	23.2	-91.2	5.4
2025-01-16 12:15:39.240813	314.7	23.1	-91.2	1.2
2025-01-16 12:15:40.408726	314.5	23.1	-91.2	5.8
2025-01-16 12:15:41.567508	314.2	23.0	-91.1	4.1
2025-01-16 12:15:42.730990	313.9	22.9	-91.0	0.7
2025-01-16 12:15:43.900665	313.6	22.8	-91.0	2.5
2025-01-16 12:15:45.056726	313.4	22.7	-90.9	4.5
2025-01-16 12:15:46.221986	313.1	22.7	-90.8	3.8
2025-01-16 12:15:47.375875	312.8	22.6	-91.0	3.2
2025-01-16 12:15:48.537291	312.6	22.5	-91.1	2.7
2025-01-16 12:15:49.701424	312.3	22.4	-91.0	3.5
2025-01-16 12:15:50.875097	312.0	22.3	-91.0	2.8
2025-01-16 12:15:52.036567	311.8	22.2	-90.9	4.4
2025-01-16 12:15:53.206283	311.5	22.1	-91.2	1.2
2025-01-16 12:15:54.375977	311.2	22.1	-90.9	0.4
2025-01-16 12:15:55.534735	311.0	22.0	-91.2	1.6
2025-01-16 12:15:56.695779	310.7	21.9	-90.6	2.2
2025-01-16 12:15:57.847662	310.5	21.8	-90.9	3.7
2025-01-16 12:15:59.013327	310.2	21.7	-91.3	2.7
2025-01-16 12:16:00.170687	310.0	21.6	-91.1	5.8
2025-01-16 12:16:01.337149	309.7	21.5	-91.1	4.4
2025-01-16 12:16:02.500914	309.5	21.5	-91.2	5.4
2025-01-16 12:16:03.665213	309.2	21.4	-91.2	5.3
2025-01-16 12:16:04.829255	309.0	21.3	-91.0	7.0
2025-01-16 12:16:05.994933	308.7	21.2	-91.1	4.4
2025-01-16 12:16:07.156368	308.5	21.1	-91.0	6.0
2025-01-16 12:16:08.314465	308.2	21.0	-91.3	8.2
2025-01-16 12:16:09.481362	308.0	20.9	-91.0	5.1
2025-01-16 12:16:10.646711	307.8	20.8	-91.1	6.4
2025-01-16 12:16:11.822703	307.5	20.7	-90.6	2.3
2025-01-16 12:16:12.983843	307.3	20.6	-90.8	4.4
2025-01-16 12:16:14.143978	307.1	20.6	-91.1	6.4
2025-01-16 12:16:15.308163	306.8	20.5	-91.0	4.1
2025-01-16 12:16:16.480411	306.6	20.4	-90.8	3.7
2025-01-16 12:16:17.639089	306.4	20.3	-91.2	4.4
2025-01-16 12:16:18.802873	306.1	20.2	-91.1	3.4
2025-01-16 12:16:19.970696	305.9	20.1	-91.1	1.8
2025-01-16 12:16:21.133396	305.7	20.0	-91.0	0.6
2025-01-16 12:16:22.293617	305.4	19.9	-91.0	3.0
2025-01-16 12:16:23.454821	305.2	19.8	-91.0	2.5
2025-01-16 12:16:24.617363	305.0	19.7	-91.0	2.2
2025-01-16 12:16:25.780953	304.8	19.6	-91.0	1.0
2025-01-16 12:16:26.939988	304.6	19.6	-91.1	1.5
2025-01-16 12:16:28.099614	304.3	19.5	-91.0	4.1
2025-01-16 12:16:29.254797	304.1	19.4	-90.9	4.5
2025-01-16 12:16:30.420151	303.9	19.3	-90.7	4.1
2025-01-16 12:16:31.593183	303.7	19.2	-91.2	4.8
2025-01-16 12:16:32.753574	303.5	19.1	-91.2	3.8
2025-01-16 12:16:33.909636	303.3	19.0	-91.3	6.5
2025-01-16 12:16:35.077176	303.0	18.9	-91.3	6.3
2025-01-16 12:16:36.240685	302.8	18.8	-91.4	5.9
2025-01-16 12:16:37.398286	302.6	18.7	-91.3	3.4
2025-01-16 12:16:38.559734	302.4	18.6	-91.2	5.5
2025-01-16 12:16:39.722390	302.2	18.5	-91.2	1.9
2025-01-16 12:16:40.886937	302.0	18.4	-91.0	2.8
2025-01-16 12:16:42.052052	301.8	18.3	-90.9	2.8
2025-01-16 12:16:43.219629	301.6	18.3	-91.2	4.0
2025-01-16 12:16:44.386064	301.4	18.2	-91.1	2.2
2025-01-16 12:16:45.551765	301.2	18.1	-91.2	2.1
2025-01-16 12:16:46.716384	301.0	18.0	-91.4	0.8
2025-01-16 12:16:47.881175	300.8	17.9	-91.0	3.6
2025-01-16 12:16:49.038266	300.6	17.8	-91.2	2.1
2025-01-16 12:16:50.194110	300.4	17.7	-91.0	2.7
2025-01-16 12:16:51.358265	300.2	17.6	-91.0	2.2
2025-01-16 12:16:52.519513	300.0	17.5	-90.8	2.5
2025-01-16 12:16:53.681311	299.8	17.4	-91.1	2.8
2025-01-16 12:16:54.857666	299.6	17.3	-91.4	3.0
2025-01-16 12:16:56.015005	299.5	17.2	-91.2	4.1
2025-01-16 12:16:57.177405	299.3	17.1	-91.1	3.8
2025-01-16 12:16:58.340979	299.1	17.0	-90.8	6.1
2025-01-16 12:16:59.505484	298.9	17.0	-91.0	4.3
2025-01-16 12:17:00.669538	298.7	16.9	-90.9	4.1
2025-01-16 12:17:01.837971	298.5	16.8	-90.7	5.7
2025-01-16 12:17:03.000773	298.3	16.7	-90.8	7.1
2025-01-16 12:17:04.162471	298.2	16.6	-90.8	3.0
2025-01-16 12:17:05.325265	298.0	16.5	-91.0	7.2
2025-01-16 12:17:06.492594	297.8	16.4	-90.9	5.3
2025-01-16 12:17:07.652229	297.6	16.3	-91.2	5.2
2025-01-16 12:17:08.816578	297.5	16.2	-91.1	4.2
2025-01-16 12:17:09.974986	297.3	16.1	-91.2	3.4
2025-01-16 12:17:11.139481	297.1	16.0	-91.0	2.9
2025-01-16 12:17:12.309490	296.9	15.9	-91.3	2.5
2025-01-16 12:17:13.467641	296.8	15.8	-91.2	2.8
2025-01-16 12:17:14.636231	296.6	15.8	-90.9	5.4
2025-01-16 12:17:15.791245	296.4	15.7	-91.1	1.4
2025-01-16 12:17:16.955896	296.3	15.6	-91.1	5.2
2025-01-16 12:17:18.115593	296.1	15.5	-91.2	7.1
2025-01-16 12:17:19.275516	295.9	15.4	-91.3	6.8
2025-01-16 12:17:20.440328	295.8	15.3	-91.3	7.2
2025-01-16 12:17:21.604478	295.6	15.2	-91.1	5.6
2025-01-16 12:17:22.768963	295.4	15.1	-91.2	5.6
2025-01-16 12:17:23.933773	295.3	15.0	-91.1	9.4
2025-01-16 12:17:25.095667	295.1	14.9	-91.1	4.0
2025-01-16 12:17:26.257617	294.9	14.8	-91.1	3.5
2025-01-16 12:17:27.421861	294.8	14.7	-91.1	3.4
2025-01-16 12:17:28.576563	294.6	14.7	-91.2	5.2
#Closed at: 2025-01-16 12:10:40.569702