passes_logs/2025/01/16/LEX_Murmansk/LEX_Murmansk__20250116_084916_NOAA_19_rec.log

#Pass ID: 20250116_084916_NOAA 19
#Satellite: NOAA 19
#Configuration: NOAA 19
#Start time: 2025-01-16 08:49:11.742707

#LorettStation: 1.0.0 05.05.2024
#Station: LEX_Murmansk
#Location: 33.156738 lon 68.926811 lat
#TLE: 1 33591U 09005A   25015.14570653  .00000261  00000+0  16322-3 0  9994
#TLE: 2 33591  99.0196  78.9093 0014467  57.1425 303.1137 14.13259366821569

#Time	Az	El	Level	SNR
2025-01-16 08:49:23.969437	26.3	16.3	-90.8	2.1
2025-01-16 08:49:26.289943	26.4	16.6	-90.9	3.1
2025-01-16 08:49:28.595424	26.4	16.8	-90.9	3.5
2025-01-16 08:49:30.910978	26.4	17.1	-91.0	1.6
2025-01-16 08:49:33.211530	26.5	17.4	-91.1	4.2
2025-01-16 08:49:35.508729	26.5	17.6	-90.9	5.1
2025-01-16 08:49:37.821566	26.5	17.9	-90.6	5.3
2025-01-16 08:49:40.148219	26.5	18.2	-90.6	6.7
2025-01-16 08:49:42.456906	26.6	18.5	-90.8	6.6
2025-01-16 08:49:44.763326	26.6	18.8	-91.0	1.6
2025-01-16 08:49:47.060004	26.6	19.0	-90.9	4.0
2025-01-16 08:49:49.382786	26.7	19.3	-90.9	3.8
2025-01-16 08:49:51.703214	26.7	19.6	-90.8	6.2
2025-01-16 08:49:54.012121	26.7	19.9	-91.0	9.1
2025-01-16 08:49:56.331420	26.8	20.2	-90.7	6.4
2025-01-16 08:49:58.646560	26.8	20.5	-90.9	3.9
2025-01-16 08:50:00.958234	26.8	20.8	-91.1	3.4
2025-01-16 08:50:03.271287	26.9	21.1	-91.3	1.5
2025-01-16 08:50:05.585947	26.9	21.4	-91.1	11.1
2025-01-16 08:50:07.888417	26.9	21.8	-90.3	7.6
2025-01-16 08:50:10.183804	27.0	22.1	-90.9	5.6
2025-01-16 08:50:12.478923	27.0	22.4	-90.7	2.6
2025-01-16 08:50:14.778075	27.0	22.7	-91.1	5.0
2025-01-16 08:50:17.088806	27.1	23.1	-90.7	0.9
2025-01-16 08:50:19.392073	27.1	23.4	-90.9	5.3
2025-01-16 08:50:21.698735	27.1	23.7	-91.0	11.2
2025-01-16 08:50:24.008806	27.2	24.1	-91.0	6.2
2025-01-16 08:50:26.311731	27.2	24.4	-90.8	6.9
2025-01-16 08:50:28.619468	27.2	24.8	-91.2	11.8
2025-01-16 08:50:30.919601	27.3	25.2	-90.9	4.5
2025-01-16 08:50:33.227579	27.3	25.5	-90.9	3.3
2025-01-16 08:50:35.534384	27.4	25.9	-91.0	6.3
2025-01-16 08:50:37.838173	27.4	26.3	-90.8	13.1
2025-01-16 08:50:40.153854	27.5	26.7	-90.9	10.5
2025-01-16 08:50:42.463419	27.5	27.0	-91.2	7.6
2025-01-16 08:50:44.775034	27.5	27.4	-91.3	9.4
2025-01-16 08:50:47.074144	27.6	27.8	-91.1	6.1
2025-01-16 08:50:49.387223	27.6	28.2	-91.1	2.3
2025-01-16 08:50:51.696529	27.7	28.7	-91.1	3.5
2025-01-16 08:50:53.999147	27.7	29.1	-90.7	6.4
2025-01-16 08:50:56.314101	27.8	29.5	-91.2	6.1
2025-01-16 08:50:58.621573	27.8	29.9	-91.0	6.4
2025-01-16 08:51:00.935046	27.9	30.4	-90.1	5.3
2025-01-16 08:51:03.244961	27.9	30.8	-90.7	5.3
2025-01-16 08:51:05.556891	28.0	31.2	-91.0	4.3
2025-01-16 08:51:07.864062	28.0	31.7	-91.1	2.8
2025-01-16 08:51:10.165223	28.1	32.2	-90.9	8.5
2025-01-16 08:51:12.463502	28.2	32.6	-90.5	10.0
2025-01-16 08:51:14.775659	28.2	33.1	-90.8	5.9
2025-01-16 08:51:17.083392	28.3	33.6	-91.1	7.5
2025-01-16 08:51:19.382648	28.3	34.1	-90.8	10.6
2025-01-16 08:51:21.685403	28.4	34.6	-90.7	8.4
2025-01-16 08:51:23.992735	28.5	35.1	-91.0	3.5
2025-01-16 08:51:26.304641	28.5	35.6	-90.9	3.5
2025-01-16 08:51:28.617870	28.6	36.1	-90.4	10.4
2025-01-16 08:51:30.920682	28.7	36.7	-90.8	10.2
2025-01-16 08:51:33.225301	28.7	37.2	-90.9	8.4
2025-01-16 08:51:35.537327	28.8	37.8	-91.2	11.3
2025-01-16 08:51:37.848611	28.9	38.3	-90.9	14.6
2025-01-16 08:51:40.161668	29.0	38.9	-90.7	8.3
2025-01-16 08:51:42.482977	29.1	39.5	-91.0	5.2
2025-01-16 08:51:44.795387	29.1	40.1	-90.9	5.1
2025-01-16 08:51:47.099559	29.2	40.7	-91.4	12.6
2025-01-16 08:51:49.413862	29.3	41.3	-91.2	15.1
2025-01-16 08:51:51.728707	29.4	41.9	-90.9	8.0
2025-01-16 08:51:54.034708	29.5	42.5	-90.7	13.1
2025-01-16 08:51:56.334745	29.6	43.2	-91.2	17.8
2025-01-16 08:51:58.641060	29.7	43.8	-90.8	14.0
2025-01-16 08:52:00.940107	29.8	44.5	-90.9	4.3
2025-01-16 08:52:03.244487	29.9	45.1	-91.0	4.2
2025-01-16 08:52:05.547434	30.1	45.8	-91.2	10.9
2025-01-16 08:52:07.854392	30.2	46.5	-91.5	11.8
2025-01-16 08:52:10.174343	30.3	47.2	-91.1	5.0
2025-01-16 08:52:12.480211	30.4	48.0	-91.0	8.3
2025-01-16 08:52:14.793588	30.6	48.7	-91.1	10.2
2025-01-16 08:52:17.093751	30.7	49.4	-91.4	15.7
2025-01-16 08:52:19.396471	30.9	50.2	-91.4	9.9
2025-01-16 08:52:21.716125	31.0	51.0	-91.1	3.7
2025-01-16 08:52:24.028019	31.2	51.7	-91.2	3.6
2025-01-16 08:52:26.347336	31.4	52.5	-91.2	8.3
2025-01-16 08:52:28.654830	31.6	53.3	-91.5	15.7
2025-01-16 08:52:30.959690	31.8	54.2	-91.5	16.5
2025-01-16 08:52:33.267523	32.0	55.0	-91.2	8.4
2025-01-16 08:52:35.575324	32.2	55.8	-91.1	8.1
2025-01-16 08:52:37.886016	32.4	56.7	-91.3	7.0
2025-01-16 08:52:40.195382	32.7	57.6	-91.4	6.8
2025-01-16 08:52:42.503383	32.9	58.5	-91.2	8.9
2025-01-16 08:52:44.813734	33.2	59.4	-91.1	2.7
2025-01-16 08:52:47.118029	33.5	60.3	-91.3	7.4
2025-01-16 08:52:49.441900	33.8	61.2	-91.3	6.8
2025-01-16 08:52:51.754094	34.2	62.1	-91.2	7.7
2025-01-16 08:52:54.066893	34.5	63.1	-91.4	8.3
2025-01-16 08:52:56.380799	34.9	64.0	-91.5	11.0
2025-01-16 08:52:58.678049	35.4	65.0	-91.2	9.2
2025-01-16 08:53:00.985628	35.8	66.0	-91.2	8.3
2025-01-16 08:53:03.299701	36.3	67.0	-91.0	10.1
2025-01-16 08:53:05.592387	36.9	68.0	-90.7	7.2
2025-01-16 08:53:07.911531	37.5	69.0	-90.9	4.6
2025-01-16 08:53:10.230092	38.2	70.0	-91.0	7.9
2025-01-16 08:53:12.543036	39.0	71.0	-91.3	5.2
2025-01-16 08:53:14.856144	39.9	72.1	-91.0	3.7
2025-01-16 08:53:17.149019	40.8	73.1	-90.9	5.3
2025-01-16 08:53:19.455624	41.9	74.2	-91.3	7.4
2025-01-16 08:53:21.765839	43.2	75.2	-90.6	4.4
2025-01-16 08:53:24.072253	44.7	76.3	-90.6	13.4
2025-01-16 08:53:26.373329	46.4	77.3	-90.9	16.2
2025-01-16 08:53:28.678636	48.4	78.3	-90.9	17.1
2025-01-16 08:53:30.987556	50.9	79.4	-91.0	15.1
2025-01-16 08:53:33.301433	53.8	80.4	-90.9	9.5
2025-01-16 08:53:35.624614	57.5	81.4	-91.0	11.5
2025-01-16 08:53:37.925458	62.1	82.3	-91.2	11.2
2025-01-16 08:53:40.232103	68.0	83.2	-90.6	11.2
2025-01-16 08:53:42.540721	75.5	84.0	-90.9	15.5
2025-01-16 08:53:44.839224	85.0	84.7	-91.5	17.9
2025-01-16 08:53:47.151149	96.9	85.1	-91.3	17.3
2025-01-16 08:53:49.464281	110.7	85.4	-90.6	20.5
2025-01-16 08:53:51.778006	125.1	85.3	-90.8	22.7
2025-01-16 08:53:54.086536	138.4	85.0	-90.9	21.7
2025-01-16 08:53:56.395292	149.5	84.4	-90.9	19.1
2025-01-16 08:53:58.705770	158.3	83.7	-91.0	18.6
2025-01-16 08:54:01.011385	165.2	82.9	-91.0	15.4
2025-01-16 08:54:03.317630	170.6	82.0	-91.3	13.0
2025-01-16 08:54:05.635489	174.8	81.0	-91.2	17.2
2025-01-16 08:54:07.944722	178.2	80.0	-91.2	8.6
2025-01-16 08:54:10.239134	181.0	79.0	-90.9	8.5
2025-01-16 08:54:12.556154	183.3	78.0	-91.1	10.6
2025-01-16 08:54:14.857247	185.2	76.9	-91.4	4.4
2025-01-16 08:54:17.163341	186.8	75.9	-91.1	14.0
2025-01-16 08:54:19.463503	188.2	74.9	-91.3	9.1
2025-01-16 08:54:21.779460	189.4	73.8	-91.2	9.1
2025-01-16 08:54:24.101711	190.5	72.8	-91.1	11.6
2025-01-16 08:54:26.402185	191.4	71.7	-90.7	9.2
2025-01-16 08:54:28.702844	192.3	70.7	-91.0	14.8
2025-01-16 08:54:31.015953	193.0	69.7	-91.4	6.2
2025-01-16 08:54:33.317183	193.7	68.6	-91.0	12.9
2025-01-16 08:54:35.623015	194.3	67.6	-91.3	7.6
2025-01-16 08:54:37.924998	194.8	66.6	-91.4	8.5
2025-01-16 08:54:40.240332	195.3	65.7	-91.0	4.1
2025-01-16 08:54:42.541270	195.8	64.7	-91.3	8.5
2025-01-16 08:54:44.852123	196.2	63.7	-91.3	10.9
2025-01-16 08:54:47.162691	196.6	62.8	-90.9	17.0
2025-01-16 08:54:49.474383	196.9	61.8	-91.3	12.9
2025-01-16 08:54:51.785908	197.3	60.9	-91.1	15.3
2025-01-16 08:54:54.089494	197.6	60.0	-91.4	8.2
2025-01-16 08:54:56.401509	197.9	59.1	-91.0	6.1
2025-01-16 08:54:58.701868	198.1	58.2	-90.6	15.5
2025-01-16 08:55:01.010027	198.4	57.3	-90.8	8.5
2025-01-16 08:55:03.321937	198.6	56.4	-91.1	17.1
2025-01-16 08:55:05.619143	198.9	55.6	-91.3	4.8
2025-01-16 08:55:07.928536	199.1	54.7	-91.2	10.2
2025-01-16 08:55:10.242131	199.3	53.9	-91.4	14.1
2025-01-16 08:55:12.548716	199.5	53.1	-91.2	11.5
2025-01-16 08:55:14.850286	199.7	52.3	-91.1	16.5
2025-01-16 08:55:17.168936	199.8	51.5	-90.8	12.2
2025-01-16 08:55:19.466009	200.0	50.7	-90.6	15.2
2025-01-16 08:55:21.775504	200.1	49.9	-91.1	13.5
2025-01-16 08:55:24.084143	200.3	49.2	-91.1	10.6
2025-01-16 08:55:26.393190	200.4	48.4	-91.1	10.5
2025-01-16 08:55:28.711085	200.6	47.7	-91.3	13.2
2025-01-16 08:55:31.016671	200.7	47.0	-91.0	10.1
2025-01-16 08:55:33.329675	200.8	46.3	-91.0	18.3
2025-01-16 08:55:35.631475	200.9	45.6	-91.3	13.5
2025-01-16 08:55:37.926298	201.1	44.9	-91.1	18.0
2025-01-16 08:55:40.239216	201.2	44.3	-90.6	17.9
2025-01-16 08:55:42.541872	201.3	43.6	-91.0	15.5
2025-01-16 08:55:44.850113	201.4	42.9	-90.6	17.5
2025-01-16 08:55:47.149887	201.5	42.3	-91.2	13.8
2025-01-16 08:55:49.468415	201.6	41.7	-90.8	8.0
2025-01-16 08:55:51.776881	201.7	41.1	-90.8	14.2
2025-01-16 08:55:54.074492	201.8	40.5	-90.9	9.0
2025-01-16 08:55:56.385985	201.8	39.9	-91.3	12.0
2025-01-16 08:55:58.701800	201.9	39.3	-91.2	11.9
2025-01-16 08:56:01.005894	202.0	38.7	-91.1	11.4
2025-01-16 08:56:03.315348	202.1	38.1	-91.2	6.8
2025-01-16 08:56:05.636784	202.2	37.6	-91.0	4.1
2025-01-16 08:56:07.940390	202.2	37.0	-91.0	2.7
2025-01-16 08:56:10.240693	202.3	36.5	-91.0	9.6
2025-01-16 08:56:12.542773	202.4	36.0	-91.1	9.4
2025-01-16 08:56:14.852580	202.4	35.4	-91.2	12.7
2025-01-16 08:56:17.159176	202.5	34.9	-90.8	9.8
2025-01-16 08:56:19.470245	202.6	34.4	-91.1	5.1
2025-01-16 08:56:21.777590	202.6	33.9	-91.1	3.9
2025-01-16 08:56:24.104226	202.7	33.4	-90.5	3.8
2025-01-16 08:56:26.411462	202.8	32.9	-90.9	3.9
2025-01-16 08:56:28.715780	202.8	32.5	-90.7	4.2
2025-01-16 08:56:31.022761	202.9	32.0	-90.9	7.0
2025-01-16 08:56:33.333355	202.9	31.5	-90.5	5.1
2025-01-16 08:56:35.635755	203.0	31.1	-90.6	5.5
2025-01-16 08:56:37.928881	203.0	30.7	-90.6	3.9
2025-01-16 08:56:40.218637	203.1	30.2	-90.4	0.9
2025-01-16 08:56:42.523461	203.1	29.8	-90.7	4.5
2025-01-16 08:56:44.832721	203.2	29.4	-90.4	4.1
2025-01-16 08:56:47.132974	203.2	28.9	-90.4	7.4
2025-01-16 08:56:49.441153	203.3	28.5	-90.4	8.6
2025-01-16 08:56:51.742319	203.3	28.1	-90.6	8.1
2025-01-16 08:56:54.045974	203.4	27.7	-90.8	5.4
2025-01-16 08:56:56.355822	203.4	27.3	-90.8	8.1
2025-01-16 08:56:58.660414	203.5	26.9	-90.5	8.5
2025-01-16 08:57:00.959556	203.5	26.5	-91.2	11.3
2025-01-16 08:57:03.269912	203.5	26.2	-91.1	11.0
2025-01-16 08:57:05.576955	203.6	25.8	-91.3	6.4
2025-01-16 08:57:07.881506	203.6	25.4	-91.1	6.8
2025-01-16 08:57:10.182662	203.7	25.1	-91.2	9.1
2025-01-16 08:57:12.486598	203.7	24.7	-91.1	6.9
2025-01-16 08:57:14.798462	203.7	24.3	-91.4	7.4
2025-01-16 08:57:17.100632	203.8	24.0	-91.2	6.9
2025-01-16 08:57:19.409470	203.8	23.6	-91.2	7.1
2025-01-16 08:57:21.727112	203.8	23.3	-90.7	7.5
2025-01-16 08:57:24.039553	203.9	23.0	-91.2	3.1
2025-01-16 08:57:26.344853	203.9	22.6	-91.3	7.0
2025-01-16 08:57:28.646732	204.0	22.3	-91.2	8.1
2025-01-16 08:57:30.959415	204.0	22.0	-91.2	9.0
2025-01-16 08:57:33.261872	204.0	21.7	-91.4	8.0
2025-01-16 08:57:35.572877	204.1	21.3	-91.3	5.6
2025-01-16 08:57:37.880315	204.1	21.0	-91.0	7.0
2025-01-16 08:57:40.188290	204.1	20.7	-91.0	8.1
2025-01-16 08:57:42.495951	204.2	20.4	-91.4	8.8
2025-01-16 08:57:44.807555	204.2	20.1	-91.4	5.0
2025-01-16 08:57:47.130531	204.2	19.8	-91.1	5.4
2025-01-16 08:57:49.437746	204.2	19.5	-91.3	4.0
2025-01-16 08:57:51.742098	204.3	19.2	-91.2	3.0
2025-01-16 08:57:54.057059	204.3	18.9	-91.4	4.8
2025-01-16 08:57:56.368863	204.3	18.7	-91.4	3.1
2025-01-16 08:57:58.670858	204.4	18.4	-91.1	3.5
2025-01-16 08:58:00.974874	204.4	18.1	-91.4	3.7
2025-01-16 08:58:03.287052	204.4	17.8	-91.0	1.7
2025-01-16 08:58:05.590509	204.4	17.6	-91.1	2.7
2025-01-16 08:58:07.910791	204.5	17.3	-91.3	3.0
2025-01-16 08:58:10.200296	204.5	17.0	-91.1	1.5
2025-01-16 08:58:12.506010	204.5	16.8	-91.5	3.5
2025-01-16 08:58:14.812802	204.6	16.5	-90.8	1.8
2025-01-16 08:58:17.115376	204.6	16.2	-91.2	2.5
2025-01-16 08:58:19.422160	204.6	16.0	-91.1	2.5
2025-01-16 08:58:21.721502	204.6	15.7	-91.2	4.0
2025-01-16 08:58:24.037111	204.7	15.5	-90.9	3.9
2025-01-16 08:58:26.345281	204.7	15.2	-91.0	2.9
2025-01-16 08:58:28.638891	204.7	15.0	-90.8	4.1
2025-01-16 08:58:30.936563	204.7	14.8	-91.0	4.4
2025-01-16 08:58:33.236157	204.7	14.5	-91.1	5.2
#Closed at: 2025-01-16 08:49:16.757589