passes_logs/2025/01/16/LEX_Murmansk/LEX_Murmansk__20250116_170838_NOAA_19_rec.log

#Pass ID: 20250116_170838_NOAA 19
#Satellite: NOAA 19
#Configuration: NOAA 19
#Start time: 2025-01-16 17:08:33.122701

#LorettStation: 1.0.0 05.05.2024
#Station: LEX_Murmansk
#Location: 33.156738 lon 68.926811 lat
#TLE: 1 33591U 09005A   25016.13687281  .00000278  00000+0  17226-3 0  9992
#TLE: 2 33591  99.0193  79.9081 0014432  54.5182 305.7334 14.13260212821702

#Time	Az	El	Level	SNR
2025-01-16 17:08:45.206313	134.7	16.3	-89.2	7.6
2025-01-16 17:08:47.511082	134.6	16.6	-88.7	6.1
2025-01-16 17:08:49.813976	134.5	16.8	-88.6	3.1
2025-01-16 17:08:52.115773	134.5	17.1	-88.7	2.0
2025-01-16 17:08:54.409187	134.4	17.3	-88.5	6.8
2025-01-16 17:08:56.715886	134.3	17.6	-89.1	8.4
2025-01-16 17:08:59.015746	134.2	17.9	-89.1	6.6
2025-01-16 17:09:01.318058	134.1	18.2	-88.6	8.1
2025-01-16 17:09:03.617040	134.0	18.4	-89.5	7.8
2025-01-16 17:09:05.918777	133.9	18.7	-88.7	4.3
2025-01-16 17:09:08.216808	133.8	19.0	-88.9	4.9
2025-01-16 17:09:10.512653	133.7	19.3	-89.3	9.0
2025-01-16 17:09:12.822501	133.6	19.6	-89.0	7.9
2025-01-16 17:09:15.116815	133.5	19.9	-88.4	7.6
2025-01-16 17:09:17.416210	133.4	20.2	-88.9	11.2
2025-01-16 17:09:19.719047	133.3	20.4	-88.6	8.6
2025-01-16 17:09:22.020072	133.2	20.8	-88.7	6.8
2025-01-16 17:09:24.329015	133.1	21.1	-89.2	4.2
2025-01-16 17:09:26.635511	133.0	21.4	-88.7	13.2
2025-01-16 17:09:28.920034	132.9	21.7	-88.9	13.2
2025-01-16 17:09:31.161123	132.8	22.0	-88.5	7.7
2025-01-16 17:09:33.401256	132.7	22.3	-90.1	12.1
2025-01-16 17:09:35.641127	132.6	22.6	-89.6	10.5
2025-01-16 17:09:37.883733	132.4	22.9	-90.0	3.6
2025-01-16 17:09:40.182400	132.3	23.3	-90.1	3.5
2025-01-16 17:09:42.483786	132.2	23.6	-89.8	10.3
2025-01-16 17:09:44.777846	132.1	23.9	-88.6	10.6
2025-01-16 17:09:47.086819	131.9	24.3	-89.3	10.5
2025-01-16 17:09:49.383721	131.8	24.6	-89.2	10.1
2025-01-16 17:09:51.688133	131.7	25.0	-89.2	8.0
2025-01-16 17:09:53.985156	131.5	25.3	-89.2	4.3
2025-01-16 17:09:56.285619	131.4	25.7	-89.3	2.3
2025-01-16 17:09:58.595238	131.2	26.1	-89.4	4.0
2025-01-16 17:10:00.893559	131.1	26.4	-89.7	4.5
2025-01-16 17:10:03.166986	130.9	26.8	-89.3	4.3
2025-01-16 17:10:05.460372	130.7	27.2	-89.8	3.8
2025-01-16 17:10:07.761258	130.6	27.6	-90.0	3.6
2025-01-16 17:10:10.061315	130.4	28.0	-90.3	3.2
2025-01-16 17:10:12.365136	130.2	28.4	-89.7	4.1
2025-01-16 17:10:14.667923	130.0	28.8	-90.3	3.7
2025-01-16 17:10:16.962721	129.9	29.2	-89.6	4.7
2025-01-16 17:10:19.256208	129.7	29.6	-89.7	3.6
2025-01-16 17:10:21.552134	129.5	30.0	-90.2	2.3
2025-01-16 17:10:23.853940	129.3	30.4	-89.9	4.5
2025-01-16 17:10:26.150592	129.1	30.9	-89.8	5.2
2025-01-16 17:10:28.454438	128.9	31.3	-89.8	2.2
2025-01-16 17:10:30.750821	128.7	31.7	-89.6	3.1
2025-01-16 17:10:33.058111	128.4	32.2	-89.7	9.3
2025-01-16 17:10:35.361235	128.2	32.6	-90.0	11.0
2025-01-16 17:10:37.661573	128.0	33.1	-90.0	8.2
2025-01-16 17:10:39.955942	127.7	33.6	-89.9	9.1
2025-01-16 17:10:42.259330	127.5	34.0	-90.2	13.3
2025-01-16 17:10:44.566818	127.2	34.5	-89.8	9.2
2025-01-16 17:10:46.867001	126.9	35.0	-89.7	2.9
2025-01-16 17:10:49.172995	126.7	35.5	-89.4	5.1
2025-01-16 17:10:51.475979	126.4	36.0	-89.6	10.0
2025-01-16 17:10:53.774574	126.1	36.5	-89.4	11.3
2025-01-16 17:10:56.078623	125.8	37.0	-89.6	12.1
2025-01-16 17:10:58.383968	125.5	37.6	-89.9	8.8
2025-01-16 17:11:00.683987	125.2	38.1	-90.1	13.5
2025-01-16 17:11:02.983381	124.8	38.6	-89.4	8.7
2025-01-16 17:11:05.379702	124.5	39.2	-89.5	4.5
2025-01-16 17:11:07.686899	124.1	39.8	-89.7	4.5
2025-01-16 17:11:09.984623	123.7	40.3	-89.7	11.3
2025-01-16 17:11:12.286322	123.4	40.9	-89.4	15.4
2025-01-16 17:11:14.588859	123.0	41.5	-89.4	9.8
2025-01-16 17:11:16.888731	122.5	42.0	-89.0	8.4
2025-01-16 17:11:19.155780	122.1	42.6	-88.6	11.8
2025-01-16 17:11:21.397440	121.7	43.2	-89.4	11.3
2025-01-16 17:11:23.639539	121.2	43.8	-90.7	6.3
2025-01-16 17:11:25.882444	120.8	44.4	-90.3	3.6
2025-01-16 17:11:28.143201	120.3	45.0	-89.8	3.8
2025-01-16 17:11:30.437065	119.8	45.6	-89.1	6.7
2025-01-16 17:11:32.733078	119.2	46.2	-90.3	7.5
2025-01-16 17:11:35.038864	118.7	46.9	-89.6	8.3
2025-01-16 17:11:37.319489	118.1	47.5	-90.1	4.7
2025-01-16 17:11:39.606409	117.5	48.2	-90.0	13.0
2025-01-16 17:11:41.898390	116.9	48.8	-89.7	14.7
2025-01-16 17:11:44.194191	116.2	49.5	-89.6	10.1
2025-01-16 17:11:46.489760	115.5	50.2	-90.1	5.2
2025-01-16 17:11:48.802357	114.8	50.8	-89.0	2.7
2025-01-16 17:11:51.099748	114.0	51.5	-89.3	4.4
2025-01-16 17:11:53.402042	113.2	52.2	-89.4	11.7
2025-01-16 17:11:55.710744	112.4	52.9	-88.9	12.8
2025-01-16 17:11:58.009049	111.5	53.6	-89.6	5.5
2025-01-16 17:12:00.315118	110.6	54.3	-89.8	7.3
2025-01-16 17:12:02.623617	109.7	55.0	-89.2	11.1
2025-01-16 17:12:04.920223	108.6	55.7	-90.1	9.9
2025-01-16 17:12:07.215336	107.6	56.4	-89.2	15.6
2025-01-16 17:12:09.525174	106.5	57.1	-90.3	12.0
2025-01-16 17:12:11.823660	105.3	57.7	-89.3	5.5
2025-01-16 17:12:14.120372	104.1	58.4	-89.5	7.1
2025-01-16 17:12:16.412503	102.8	59.1	-88.4	7.0
2025-01-16 17:12:18.692505	101.4	59.8	-89.7	8.9
2025-01-16 17:12:20.934163	100.0	60.4	-89.6	12.6
2025-01-16 17:12:23.177231	98.5	61.1	-90.4	10.8
2025-01-16 17:12:25.418110	97.0	61.7	-89.8	16.1
2025-01-16 17:12:27.670384	95.3	62.3	-89.7	7.9
2025-01-16 17:12:29.963680	93.6	62.9	-89.8	8.8
2025-01-16 17:12:32.259798	91.7	63.5	-89.8	6.4
2025-01-16 17:12:34.547716	89.8	64.1	-90.0	11.9
2025-01-16 17:12:36.823750	87.8	64.6	-89.6	14.2
2025-01-16 17:12:39.100718	85.7	65.1	-90.0	19.4
2025-01-16 17:12:41.388857	83.4	65.6	-90.8	13.6
2025-01-16 17:12:43.688196	81.1	66.1	-90.5	10.7
2025-01-16 17:12:45.988100	78.6	66.5	-90.5	8.3
2025-01-16 17:12:48.277877	76.1	66.9	-90.3	4.2
2025-01-16 17:12:50.577644	73.5	67.3	-90.2	6.3
2025-01-16 17:12:52.891021	70.8	67.6	-89.4	4.6
2025-01-16 17:12:55.196428	68.0	67.8	-89.4	5.2
2025-01-16 17:12:57.501548	65.1	68.0	-89.5	7.1
2025-01-16 17:12:59.802482	62.3	68.2	-89.6	6.7
2025-01-16 17:13:02.105438	59.3	68.3	-89.3	12.6
2025-01-16 17:13:04.413426	56.4	68.3	-89.3	14.3
2025-01-16 17:13:06.716044	53.4	68.3	-90.0	14.6
2025-01-16 17:13:09.012010	50.4	68.3	-89.9	14.5
2025-01-16 17:13:11.308304	47.5	68.2	-89.4	13.8
2025-01-16 17:13:13.604649	44.6	68.0	-89.9	15.2
2025-01-16 17:13:15.907068	41.8	67.8	-89.5	13.6
2025-01-16 17:13:18.208873	39.0	67.5	-89.0	7.3
2025-01-16 17:13:20.517992	36.3	67.2	-89.9	10.6
2025-01-16 17:13:22.826666	33.7	66.9	-90.0	7.8
2025-01-16 17:13:25.134610	31.2	66.5	-89.6	11.7
2025-01-16 17:13:27.434229	28.8	66.0	-89.1	7.1
2025-01-16 17:13:29.738816	26.4	65.6	-89.6	5.9
2025-01-16 17:13:32.036557	24.2	65.1	-89.3	7.7
2025-01-16 17:13:34.349158	22.1	64.5	-89.4	3.4
2025-01-16 17:13:36.651239	20.1	64.0	-90.0	3.2
2025-01-16 17:13:38.961415	18.1	63.4	-90.5	10.0
2025-01-16 17:13:41.265101	16.3	62.8	-90.1	5.5
2025-01-16 17:13:43.560113	14.5	62.2	-90.1	8.9
2025-01-16 17:13:45.821810	12.9	61.6	-90.1	9.3
2025-01-16 17:13:48.066591	11.4	60.9	-89.8	7.9
2025-01-16 17:13:50.308294	9.9	60.3	-89.9	7.9
2025-01-16 17:13:52.549417	8.5	59.7	-90.2	11.5
2025-01-16 17:13:54.807371	7.2	59.0	-90.7	6.9
2025-01-16 17:13:57.103705	5.9	58.3	-90.0	11.6
2025-01-16 17:13:59.403351	4.7	57.6	-90.5	8.3
2025-01-16 17:14:01.697292	3.5	56.9	-89.3	13.5
2025-01-16 17:14:03.996791	2.4	56.3	-89.0	10.9
2025-01-16 17:14:06.306301	1.4	55.6	-89.5	13.0
2025-01-16 17:14:08.607201	0.4	54.9	-89.4	14.9
2025-01-16 17:14:10.907886	359.4	54.2	-89.5	13.0
2025-01-16 17:14:13.208250	358.5	53.5	-89.7	14.7
2025-01-16 17:14:15.507789	357.7	52.8	-89.2	15.8
2025-01-16 17:14:17.772121	356.9	52.1	-89.5	9.7
2025-01-16 17:14:20.043138	356.1	51.5	-90.4	9.7
2025-01-16 17:14:22.322144	355.3	50.8	-89.6	5.9
2025-01-16 17:14:24.605372	354.6	50.1	-89.1	5.4
2025-01-16 17:14:26.891812	354.0	49.5	-88.8	2.6
2025-01-16 17:14:29.182349	353.3	48.8	-89.1	5.3
2025-01-16 17:14:31.449502	352.7	48.2	-89.6	6.0
2025-01-16 17:14:33.733913	352.1	47.5	-89.1	8.5
2025-01-16 17:14:36.023216	351.5	46.9	-89.0	8.4
2025-01-16 17:14:38.319276	350.9	46.2	-89.4	15.1
2025-01-16 17:14:40.619657	350.4	45.6	-89.6	14.5
2025-01-16 17:14:42.927975	349.9	45.0	-90.0	14.7
2025-01-16 17:14:45.195800	349.4	44.4	-89.8	9.1
2025-01-16 17:14:47.476379	348.9	43.8	-90.6	10.3
2025-01-16 17:14:49.747166	348.5	43.2	-90.1	4.0
2025-01-16 17:14:52.028588	348.1	42.6	-90.5	9.4
2025-01-16 17:14:54.323208	347.6	42.0	-89.7	7.9
2025-01-16 17:14:56.619114	347.2	41.4	-89.5	12.9
2025-01-16 17:14:58.916569	346.8	40.9	-89.5	13.3
2025-01-16 17:15:01.198049	346.5	40.3	-89.5	7.7
2025-01-16 17:15:03.472251	346.1	39.7	-89.5	15.5
2025-01-16 17:15:05.737427	345.7	39.2	-90.5	9.0
2025-01-16 17:15:08.025203	345.4	38.7	-89.6	9.9
2025-01-16 17:15:10.308531	345.1	38.1	-90.0	4.7
2025-01-16 17:15:12.592322	344.8	37.6	-90.2	7.9
2025-01-16 17:15:14.854802	344.5	37.1	-90.3	7.0
2025-01-16 17:15:17.142364	344.2	36.6	-89.9	4.0
2025-01-16 17:15:19.436123	343.9	36.1	-90.0	5.7
2025-01-16 17:15:21.738063	343.6	35.6	-90.4	6.6
2025-01-16 17:15:24.031187	343.3	35.1	-90.7	10.0
2025-01-16 17:15:26.331557	343.0	34.6	-90.1	4.2
2025-01-16 17:15:28.634067	342.8	34.1	-89.8	5.3
2025-01-16 17:15:30.934080	342.5	33.7	-89.8	3.8
2025-01-16 17:15:33.238489	342.3	33.2	-89.8	4.5
2025-01-16 17:15:35.543267	342.1	32.7	-90.6	6.2
2025-01-16 17:15:37.841214	341.8	32.3	-90.5	13.0
2025-01-16 17:15:40.147061	341.6	31.8	-90.7	6.5
2025-01-16 17:15:42.441482	341.4	31.4	-90.7	4.8
2025-01-16 17:15:44.751660	341.2	31.0	-90.3	4.5
2025-01-16 17:15:47.059527	341.0	30.5	-90.4	4.2
2025-01-16 17:15:49.367089	340.8	30.1	-90.4	5.6
2025-01-16 17:15:51.676837	340.6	29.7	-90.9	8.7
2025-01-16 17:15:53.987382	340.4	29.3	-91.1	4.6
2025-01-16 17:15:56.300662	340.2	28.9	-90.0	4.4
2025-01-16 17:15:58.607203	340.0	28.5	-90.1	2.2
2025-01-16 17:16:00.914195	339.9	28.1	-90.3	3.7
2025-01-16 17:16:03.220218	339.7	27.7	-90.9	3.4
2025-01-16 17:16:05.536574	339.5	27.3	-91.0	3.3
2025-01-16 17:16:07.838971	339.4	26.9	-90.0	4.5
2025-01-16 17:16:10.127146	339.2	26.5	-90.4	10.9
2025-01-16 17:16:12.386736	339.1	26.2	-90.7	3.8
2025-01-16 17:16:14.630057	338.9	25.8	-91.1	7.4
2025-01-16 17:16:16.872793	338.8	25.5	-91.2	2.1
2025-01-16 17:16:19.114198	338.6	25.1	-90.4	4.1
2025-01-16 17:16:21.376962	338.5	24.8	-91.1	3.0
2025-01-16 17:16:23.670770	338.4	24.4	-91.1	4.3
2025-01-16 17:16:25.974635	338.2	24.1	-90.5	4.9
2025-01-16 17:16:28.267406	338.1	23.7	-90.9	4.2
2025-01-16 17:16:30.534093	338.0	23.4	-90.6	2.6
2025-01-16 17:16:32.923976	337.8	23.1	-90.9	2.2
2025-01-16 17:16:35.209091	337.7	22.7	-90.2	3.5
2025-01-16 17:16:37.497637	337.6	22.4	-90.9	13.0
2025-01-16 17:16:39.790741	337.5	22.1	-89.7	13.8
2025-01-16 17:16:42.089446	337.4	21.8	-91.3	3.9
2025-01-16 17:16:44.391525	337.3	21.5	-90.8	3.6
2025-01-16 17:16:46.695011	337.2	21.2	-90.8	1.9
2025-01-16 17:16:48.994341	337.1	20.9	-90.5	4.0
2025-01-16 17:16:51.281517	337.0	20.6	-90.3	3.4
2025-01-16 17:16:53.595167	336.8	20.3	-90.3	6.1
2025-01-16 17:16:55.897956	336.7	20.0	-90.1	2.6
2025-01-16 17:16:58.213599	336.6	19.7	-90.4	3.8
2025-01-16 17:17:00.513917	336.6	19.4	-90.6	2.6
2025-01-16 17:17:02.813993	336.5	19.1	-90.3	5.0
2025-01-16 17:17:05.114162	336.4	18.8	-90.1	3.8
2025-01-16 17:17:07.366063	336.3	18.6	-90.2	4.4
2025-01-16 17:17:09.607364	336.2	18.3	-90.7	3.6
2025-01-16 17:17:11.852358	336.1	18.0	-90.2	2.7
2025-01-16 17:17:14.095213	336.0	17.8	-90.1	3.6
2025-01-16 17:17:16.368493	335.9	17.5	-90.9	1.2
2025-01-16 17:17:18.637854	335.9	17.2	-90.0	1.2
2025-01-16 17:17:20.927745	335.8	17.0	-91.1	5.4
2025-01-16 17:17:23.216938	335.7	16.7	-90.4	2.8
2025-01-16 17:17:25.513595	335.6	16.5	-90.8	3.7
2025-01-16 17:17:27.821586	335.6	16.2	-90.8	4.3
2025-01-16 17:17:30.119006	335.5	16.0	-90.9	1.5
2025-01-16 17:17:32.420278	335.4	15.7	-90.3	4.7
2025-01-16 17:17:34.721658	335.3	15.5	-90.4	1.2
2025-01-16 17:17:37.029254	335.3	15.2	-90.9	3.3
2025-01-16 17:17:39.334906	335.2	15.0	-90.8	3.2
2025-01-16 17:17:41.654477	335.1	14.7	-90.3	1.3
2025-01-16 17:17:43.921132	335.1	14.5	-90.3	2.7
#Closed at: 2025-01-16 17:08:38.038733