passes_logs/2025/01/16/LEX_Murmansk/LEX_Murmansk__20250116_123545_NOAA_18_rec.log

#Pass ID: 20250116_123545_NOAA 18
#Satellite: NOAA 18
#Configuration: NOAA 18
#Start time: 2025-01-16 12:35:40.126916

#LorettStation: 1.0.0 05.05.2024
#Station: LEX_Murmansk
#Location: 33.156738 lon 68.926811 lat
#TLE: 1 28654U 05018A   25015.16278545  .00000300  00000+0  18295-3 0  9990
#TLE: 2 28654  98.8567  96.2156 0014367 178.7074 181.4138 14.13486503 13201

#Time	Az	El	Level	SNR
2025-01-16 12:35:52.406109	24.6	16.1	-90.4	3.9
2025-01-16 12:35:53.562319	24.4	16.2	-90.4	3.5
2025-01-16 12:35:54.717197	24.3	16.3	-90.7	4.4
2025-01-16 12:35:55.867988	24.1	16.4	-90.9	3.3
2025-01-16 12:35:57.018922	24.0	16.5	-90.7	4.4
2025-01-16 12:35:58.174152	23.8	16.6	-91.0	7.6
2025-01-16 12:35:59.336684	23.7	16.7	-90.9	6.8
2025-01-16 12:36:00.486952	23.5	16.8	-90.6	5.6
2025-01-16 12:36:01.644139	23.4	16.9	-90.3	4.1
2025-01-16 12:36:02.797585	23.2	17.0	-90.8	8.3
2025-01-16 12:36:03.952775	23.0	17.1	-90.6	6.7
2025-01-16 12:36:05.112187	22.9	17.2	-90.4	4.7
2025-01-16 12:36:06.265609	22.7	17.3	-90.8	5.5
2025-01-16 12:36:07.422729	22.6	17.4	-90.6	7.2
2025-01-16 12:36:08.576924	22.4	17.5	-90.7	6.1
2025-01-16 12:36:09.732357	22.2	17.6	-90.7	5.4
2025-01-16 12:36:10.886663	22.1	17.7	-90.5	7.0
2025-01-16 12:36:12.040081	21.9	17.8	-90.7	5.1
2025-01-16 12:36:13.205245	21.7	17.9	-90.7	3.5
2025-01-16 12:36:14.360682	21.6	18.0	-90.4	13.2
2025-01-16 12:36:15.514254	21.4	18.1	-90.8	5.8
2025-01-16 12:36:16.663996	21.2	18.2	-90.4	12.9
2025-01-16 12:36:17.818541	21.0	18.3	-88.6	9.3
2025-01-16 12:36:18.971548	20.9	18.4	-90.6	11.5
2025-01-16 12:36:20.129334	20.7	18.5	-90.4	8.0
2025-01-16 12:36:21.285819	20.5	18.6	-91.0	12.2
2025-01-16 12:36:22.449075	20.3	18.7	-90.9	10.0
2025-01-16 12:36:23.599948	20.2	18.9	-91.0	10.8
2025-01-16 12:36:24.750576	20.0	19.0	-90.7	10.7
2025-01-16 12:36:25.904835	19.8	19.1	-90.6	7.3
2025-01-16 12:36:27.054461	19.6	19.2	-90.8	13.8
2025-01-16 12:36:28.194956	19.4	19.3	-90.7	8.7
2025-01-16 12:36:29.315665	19.3	19.4	-90.8	12.3
2025-01-16 12:36:30.437636	19.1	19.5	-90.8	5.3
2025-01-16 12:36:31.558303	18.9	19.6	-90.9	6.7
2025-01-16 12:36:32.678669	18.7	19.7	-90.7	12.0
2025-01-16 12:36:33.799408	18.5	19.8	-90.5	8.5
2025-01-16 12:36:34.919953	18.3	19.9	-91.0	6.8
2025-01-16 12:36:36.041621	18.1	20.0	-90.7	9.8
2025-01-16 12:36:37.164937	18.0	20.1	-91.1	13.8
2025-01-16 12:36:38.300736	17.8	20.2	-91.0	11.5
2025-01-16 12:36:39.453300	17.6	20.3	-91.1	12.6
2025-01-16 12:36:40.599663	17.4	20.4	-90.9	11.0
2025-01-16 12:36:41.751853	17.2	20.5	-90.7	12.4
2025-01-16 12:36:42.897390	17.0	20.6	-90.7	9.9
2025-01-16 12:36:44.045365	16.8	20.7	-91.0	8.3
2025-01-16 12:36:45.198556	16.6	20.9	-90.7	12.5
2025-01-16 12:36:46.350712	16.4	21.0	-90.8	12.6
2025-01-16 12:36:47.498983	16.1	21.1	-90.8	9.4
2025-01-16 12:36:48.650589	15.9	21.2	-91.0	9.6
2025-01-16 12:36:49.802342	15.7	21.3	-90.8	6.8
2025-01-16 12:36:50.947030	15.5	21.4	-90.8	6.5
2025-01-16 12:36:52.100682	15.3	21.5	-90.6	6.0
2025-01-16 12:36:53.253105	15.1	21.6	-90.9	7.0
2025-01-16 12:36:54.414062	14.9	21.7	-91.1	5.6
2025-01-16 12:36:55.570382	14.7	21.8	-90.9	5.2
2025-01-16 12:36:56.731087	14.4	21.9	-90.7	8.0
2025-01-16 12:36:57.885474	14.2	22.0	-90.9	8.3
2025-01-16 12:36:59.040015	14.0	22.1	-91.1	6.5
2025-01-16 12:37:00.192319	13.8	22.3	-90.7	11.7
2025-01-16 12:37:01.344246	13.5	22.4	-90.8	9.1
2025-01-16 12:37:02.487134	13.3	22.5	-91.2	9.8
2025-01-16 12:37:03.632367	13.1	22.6	-90.5	7.6
2025-01-16 12:37:04.791041	12.9	22.7	-90.6	14.0
2025-01-16 12:37:05.949242	12.6	22.8	-91.2	8.6
2025-01-16 12:37:07.104641	12.4	22.9	-91.0	12.1
2025-01-16 12:37:08.259265	12.2	23.0	-90.8	11.7
2025-01-16 12:37:09.418509	11.9	23.1	-91.0	13.9
2025-01-16 12:37:10.567791	11.7	23.2	-90.8	9.4
2025-01-16 12:37:11.728724	11.4	23.3	-91.1	11.9
2025-01-16 12:37:12.880677	11.2	23.4	-90.9	9.4
2025-01-16 12:37:14.037586	11.0	23.5	-90.9	4.8
2025-01-16 12:37:15.190998	10.7	23.7	-91.0	8.8
2025-01-16 12:37:16.343030	10.5	23.8	-90.4	9.7
2025-01-16 12:37:17.498908	10.2	23.9	-90.9	4.8
2025-01-16 12:37:18.667489	10.0	24.0	-91.0	8.5
2025-01-16 12:37:19.815621	9.7	24.1	-90.6	9.4
2025-01-16 12:37:20.967078	9.4	24.2	-90.8	8.7
2025-01-16 12:37:22.124397	9.2	24.3	-90.9	10.4
2025-01-16 12:37:23.268699	8.9	24.4	-90.9	11.7
2025-01-16 12:37:24.424247	8.7	24.5	-91.1	10.5
2025-01-16 12:37:25.580689	8.4	24.6	-91.3	9.8
2025-01-16 12:37:26.727145	8.2	24.7	-91.1	12.8
2025-01-16 12:37:27.880553	7.9	24.8	-91.1	13.6
2025-01-16 12:37:29.034638	7.6	24.9	-91.3	8.2
2025-01-16 12:37:30.192842	7.4	25.0	-91.3	9.9
2025-01-16 12:37:31.350627	7.1	25.1	-91.3	10.3
2025-01-16 12:37:32.506114	6.8	25.2	-91.1	5.6
2025-01-16 12:37:33.668482	6.5	25.3	-91.4	5.4
2025-01-16 12:37:34.817718	6.3	25.4	-91.6	8.6
2025-01-16 12:37:35.963668	6.0	25.5	-91.2	3.8
2025-01-16 12:37:37.108860	5.7	25.6	-91.3	6.4
2025-01-16 12:37:38.268235	5.4	25.7	-91.5	8.9
2025-01-16 12:37:39.426491	5.1	25.8	-91.6	6.0
2025-01-16 12:37:40.587582	4.9	25.9	-91.5	5.1
2025-01-16 12:37:41.737822	4.6	26.0	-91.7	9.7
2025-01-16 12:37:42.893915	4.3	26.1	-91.5	6.1
2025-01-16 12:37:44.057108	4.0	26.3	-91.3	10.1
2025-01-16 12:37:45.220920	3.7	26.4	-91.4	12.8
2025-01-16 12:37:46.368069	3.4	26.4	-91.3	11.2
2025-01-16 12:37:47.524566	3.1	26.5	-91.1	10.2
2025-01-16 12:37:48.679213	2.8	26.6	-91.0	10.8
2025-01-16 12:37:49.842493	2.5	26.7	-91.4	12.1
2025-01-16 12:37:51.000843	2.2	26.8	-91.2	6.9
2025-01-16 12:37:52.158101	1.9	26.9	-91.1	8.2
2025-01-16 12:37:53.310669	1.6	27.0	-91.7	11.5
2025-01-16 12:37:54.465996	1.3	27.1	-91.5	8.4
2025-01-16 12:37:55.619269	1.0	27.2	-91.7	10.9
2025-01-16 12:37:56.771777	0.7	27.3	-91.4	14.2
2025-01-16 12:37:57.918837	0.4	27.4	-91.4	12.2
2025-01-16 12:37:59.078771	0.0	27.5	-91.2	11.8
2025-01-16 12:38:00.231520	359.7	27.6	-90.8	12.3
2025-01-16 12:38:01.393093	359.4	27.7	-91.1	9.1
2025-01-16 12:38:02.537322	359.1	27.8	-91.0	6.0
2025-01-16 12:38:03.695358	358.8	27.9	-91.6	8.0
2025-01-16 12:38:04.851915	358.4	28.0	-90.8	5.5
2025-01-16 12:38:06.007771	358.1	28.0	-91.2	4.9
2025-01-16 12:38:07.166830	357.8	28.1	-91.4	6.2
2025-01-16 12:38:08.322088	357.5	28.2	-91.3	9.3
2025-01-16 12:38:09.482350	357.1	28.3	-91.1	5.7
2025-01-16 12:38:10.638884	356.8	28.4	-91.5	7.5
2025-01-16 12:38:11.792235	356.5	28.5	-91.1	11.2
2025-01-16 12:38:12.940760	356.1	28.6	-91.4	9.3
2025-01-16 12:38:14.096702	355.8	28.6	-91.4	8.1
2025-01-16 12:38:15.245530	355.5	28.7	-91.6	11.3
2025-01-16 12:38:16.397997	355.1	28.8	-91.4	9.9
2025-01-16 12:38:17.546068	354.8	28.9	-91.5	11.3
2025-01-16 12:38:18.706386	354.4	29.0	-91.4	13.2
2025-01-16 12:38:19.858061	354.1	29.0	-91.5	11.8
2025-01-16 12:38:21.011849	353.7	29.1	-91.5	7.9
2025-01-16 12:38:22.160385	353.4	29.2	-91.6	12.5
2025-01-16 12:38:23.313972	353.0	29.3	-91.7	13.4
2025-01-16 12:38:24.467437	352.7	29.3	-91.5	9.8
2025-01-16 12:38:25.618281	352.3	29.4	-91.5	10.0
2025-01-16 12:38:26.771050	352.0	29.5	-91.4	13.6
2025-01-16 12:38:27.931689	351.6	29.6	-91.7	11.7
2025-01-16 12:38:29.099249	351.2	29.6	-91.2	12.7
2025-01-16 12:38:30.252696	350.9	29.7	-91.4	10.5
2025-01-16 12:38:31.409229	350.5	29.8	-91.3	14.2
2025-01-16 12:38:32.564202	350.2	29.8	-91.6	13.9
2025-01-16 12:38:33.711172	349.8	29.9	-91.9	13.6
2025-01-16 12:38:34.863823	349.4	30.0	-91.7	9.1
2025-01-16 12:38:36.013464	349.1	30.0	-91.3	7.5
2025-01-16 12:38:37.164151	348.7	30.1	-91.4	11.0
2025-01-16 12:38:38.317641	348.3	30.2	-91.6	11.4
2025-01-16 12:38:39.472724	347.9	30.2	-91.4	6.1
2025-01-16 12:38:40.629277	347.6	30.3	-91.2	8.2
2025-01-16 12:38:41.773358	347.2	30.3	-91.3	13.1
2025-01-16 12:38:42.925219	346.8	30.4	-91.1	7.9
2025-01-16 12:38:44.088715	346.4	30.4	-91.2	8.9
2025-01-16 12:38:45.246058	346.1	30.5	-91.2	14.1
2025-01-16 12:38:46.412177	345.7	30.5	-91.2	10.2
2025-01-16 12:38:47.574910	345.3	30.6	-91.0	10.8
2025-01-16 12:38:48.726577	344.9	30.6	-91.0	12.2
2025-01-16 12:38:49.873268	344.5	30.7	-91.4	14.1
2025-01-16 12:38:51.029530	344.1	30.7	-91.6	12.7
2025-01-16 12:38:52.182739	343.7	30.8	-91.6	13.5
2025-01-16 12:38:53.332757	343.4	30.8	-91.4	12.3
2025-01-16 12:38:54.486630	343.0	30.9	-91.6	11.8
2025-01-16 12:38:55.648667	342.6	30.9	-91.5	10.8
2025-01-16 12:38:56.800730	342.2	30.9	-91.5	12.0
2025-01-16 12:38:57.951215	341.8	31.0	-91.5	7.7
2025-01-16 12:38:59.110396	341.4	31.0	-91.6	8.1
2025-01-16 12:39:00.267808	341.0	31.1	-91.4	11.1
2025-01-16 12:39:01.424022	340.6	31.1	-91.3	8.4
2025-01-16 12:39:02.582367	340.2	31.1	-91.2	9.0
2025-01-16 12:39:03.739235	339.8	31.1	-91.1	14.2
2025-01-16 12:39:04.900720	339.4	31.2	-91.4	10.1
2025-01-16 12:39:06.056033	339.0	31.2	-91.6	8.7
2025-01-16 12:39:07.212234	338.6	31.2	-91.8	14.3
2025-01-16 12:39:08.365637	338.2	31.3	-91.6	16.9
2025-01-16 12:39:09.524740	337.8	31.3	-91.4	12.2
2025-01-16 12:39:10.686743	337.4	31.3	-91.5	14.4
2025-01-16 12:39:11.844617	337.0	31.3	-91.7	14.4
2025-01-16 12:39:12.994404	336.6	31.3	-91.4	15.3
2025-01-16 12:39:14.158124	336.2	31.3	-90.9	15.1
2025-01-16 12:39:15.311065	335.8	31.4	-91.0	14.1
2025-01-16 12:39:16.471303	335.4	31.4	-91.1	15.8
2025-01-16 12:39:17.624543	335.0	31.4	-91.5	15.5
2025-01-16 12:39:18.774066	334.6	31.4	-91.5	15.0
2025-01-16 12:39:19.930256	334.2	31.4	-91.8	13.8
2025-01-16 12:39:21.084496	333.8	31.4	-91.4	12.5
2025-01-16 12:39:22.242203	333.4	31.4	-91.4	14.5
2025-01-16 12:39:23.384717	333.0	31.4	-91.7	11.0
2025-01-16 12:39:24.534069	332.6	31.4	-91.7	9.2
2025-01-16 12:39:25.689425	332.2	31.4	-91.5	14.0
2025-01-16 12:39:26.847903	331.8	31.4	-91.8	11.4
2025-01-16 12:39:27.971714	331.4	31.4	-91.5	8.1
2025-01-16 12:39:29.118713	331.0	31.4	-91.6	8.5
2025-01-16 12:39:30.273159	330.6	31.4	-91.6	13.8
2025-01-16 12:39:31.424642	330.2	31.4	-91.7	8.7
2025-01-16 12:39:32.578823	329.8	31.4	-91.6	8.6
2025-01-16 12:39:33.729442	329.4	31.4	-91.5	15.4
2025-01-16 12:39:34.887469	329.0	31.4	-91.6	11.1
2025-01-16 12:39:36.041392	328.6	31.3	-91.5	7.6
2025-01-16 12:39:37.194292	328.2	31.3	-91.7	17.0
2025-01-16 12:39:38.350036	327.8	31.3	-91.6	15.7
2025-01-16 12:39:39.516655	327.4	31.3	-91.7	10.8
2025-01-16 12:39:40.671756	327.0	31.3	-91.6	15.7
2025-01-16 12:39:41.830795	326.6	31.3	-91.8	16.6
2025-01-16 12:39:42.984373	326.2	31.2	-91.8	8.3
2025-01-16 12:39:44.137635	325.8	31.2	-91.9	12.9
2025-01-16 12:39:45.291233	325.4	31.2	-91.8	14.8
2025-01-16 12:39:46.447765	325.0	31.1	-91.4	9.1
2025-01-16 12:39:47.611106	324.6	31.1	-91.7	10.6
2025-01-16 12:39:48.765616	324.2	31.1	-91.5	14.4
2025-01-16 12:39:49.923695	323.8	31.1	-91.4	11.2
2025-01-16 12:39:51.074269	323.4	31.0	-91.8	11.1
2025-01-16 12:39:52.220931	323.0	31.0	-91.6	14.1
2025-01-16 12:39:53.374420	322.6	30.9	-91.6	13.8
2025-01-16 12:39:54.531972	322.2	30.9	-91.6	13.1
2025-01-16 12:39:55.685163	321.8	30.9	-92.0	14.3
2025-01-16 12:39:56.843101	321.4	30.8	-91.9	17.1
2025-01-16 12:39:57.998037	321.0	30.8	-91.5	14.6
2025-01-16 12:39:59.161249	320.7	30.7	-91.6	18.2
2025-01-16 12:40:00.319950	320.3	30.7	-91.6	17.6
2025-01-16 12:40:01.470283	319.9	30.6	-91.2	13.3
2025-01-16 12:40:02.621406	319.5	30.6	-91.4	13.4
2025-01-16 12:40:03.780779	319.1	30.5	-91.5	13.5
2025-01-16 12:40:04.936198	318.7	30.5	-91.6	12.3
2025-01-16 12:40:06.091906	318.4	30.4	-91.4	12.9
2025-01-16 12:40:07.250860	318.0	30.4	-91.2	12.7
2025-01-16 12:40:08.409177	317.6	30.3	-91.1	14.0
2025-01-16 12:40:09.571530	317.2	30.3	-91.7	15.0
2025-01-16 12:40:10.723394	316.8	30.2	-91.4	12.8
2025-01-16 12:40:11.878290	316.5	30.1	-91.6	15.4
2025-01-16 12:40:13.024572	316.1	30.1	-91.2	15.5
2025-01-16 12:40:14.175239	315.7	30.0	-91.5	14.7
2025-01-16 12:40:15.337531	315.3	30.0	-91.6	13.7
2025-01-16 12:40:16.505587	315.0	29.9	-91.7	13.5
2025-01-16 12:40:17.653695	314.6	29.8	-91.3	12.1
2025-01-16 12:40:18.805905	314.2	29.8	-91.3	11.7
2025-01-16 12:40:19.972462	313.9	29.7	-91.6	11.7
2025-01-16 12:40:21.130350	313.5	29.6	-91.5	11.2
2025-01-16 12:40:22.278574	313.2	29.6	-91.5	15.5
2025-01-16 12:40:23.427721	312.8	29.5	-91.7	13.1
2025-01-16 12:40:24.597913	312.4	29.4	-91.5	14.6
2025-01-16 12:40:25.760707	312.1	29.3	-91.2	15.0
2025-01-16 12:40:26.919067	311.7	29.3	-91.5	13.7
2025-01-16 12:40:28.080541	311.4	29.2	-91.3	13.1
2025-01-16 12:40:29.240848	311.0	29.1	-91.2	17.4
2025-01-16 12:40:30.399583	310.7	29.0	-91.4	15.6
2025-01-16 12:40:31.558748	310.3	29.0	-91.6	14.1
2025-01-16 12:40:32.716570	310.0	28.9	-91.6	16.9
2025-01-16 12:40:33.867705	309.6	28.8	-91.8	15.7
2025-01-16 12:40:35.032923	309.3	28.7	-91.4	14.8
2025-01-16 12:40:36.191365	308.9	28.6	-91.4	17.3
2025-01-16 12:40:37.351458	308.6	28.5	-91.4	15.3
2025-01-16 12:40:38.500228	308.3	28.5	-91.4	11.7
2025-01-16 12:40:39.649460	307.9	28.4	-91.3	15.3
2025-01-16 12:40:40.805170	307.6	28.3	-91.0	15.6
2025-01-16 12:40:41.968014	307.3	28.2	-91.4	10.5
2025-01-16 12:40:43.124778	306.9	28.1	-91.4	9.8
2025-01-16 12:40:44.281801	306.6	28.0	-91.4	16.1
2025-01-16 12:40:45.440970	306.3	27.9	-91.4	10.6
2025-01-16 12:40:46.589960	305.9	27.8	-91.5	8.9
2025-01-16 12:40:47.738013	305.6	27.8	-91.9	15.7
2025-01-16 12:40:48.892352	305.3	27.7	-91.2	10.1
2025-01-16 12:40:50.040314	305.0	27.6	-91.4	11.3
2025-01-16 12:40:51.193672	304.7	27.5	-91.5	15.7
2025-01-16 12:40:52.351275	304.3	27.4	-91.4	13.8
2025-01-16 12:40:53.499963	304.0	27.3	-91.5	9.0
2025-01-16 12:40:54.660881	303.7	27.2	-91.7	13.5
2025-01-16 12:40:55.817675	303.4	27.1	-91.6	13.5
2025-01-16 12:40:56.978108	303.1	27.0	-91.7	7.9
2025-01-16 12:40:58.128387	302.8	26.9	-91.3	11.1
2025-01-16 12:40:59.292631	302.5	26.8	-91.2	13.0
2025-01-16 12:41:00.447042	302.2	26.7	-91.0	6.5
2025-01-16 12:41:01.591130	301.9	26.6	-91.2	5.6
2025-01-16 12:41:02.739620	301.6	26.5	-91.4	9.8
2025-01-16 12:41:03.888700	301.3	26.4	-91.7	8.8
2025-01-16 12:41:05.045291	301.0	26.3	-91.5	8.1
2025-01-16 12:41:06.200802	300.7	26.2	-91.9	11.2
2025-01-16 12:41:07.354107	300.4	26.1	-91.3	10.7
2025-01-16 12:41:08.504942	300.1	26.0	-91.0	9.2
2025-01-16 12:41:09.656590	299.8	25.9	-90.8	10.6
2025-01-16 12:41:10.816851	299.6	25.8	-91.4	13.8
2025-01-16 12:41:11.973492	299.3	25.7	-91.7	12.2
2025-01-16 12:41:13.120637	299.0	25.6	-90.9	10.0
2025-01-16 12:41:14.276291	298.7	25.5	-91.7	8.8
2025-01-16 12:41:15.431764	298.4	25.4	-91.4	10.4
2025-01-16 12:41:16.589217	298.1	25.3	-91.4	9.3
2025-01-16 12:41:17.742023	297.9	25.2	-91.5	9.9
2025-01-16 12:41:18.895740	297.6	25.1	-91.8	5.1
2025-01-16 12:41:20.052277	297.3	25.0	-91.8	8.7
2025-01-16 12:41:21.208055	297.1	24.9	-91.6	9.9
2025-01-16 12:41:22.360874	296.8	24.8	-91.9	6.7
2025-01-16 12:41:23.514595	296.5	24.7	-91.5	4.3
2025-01-16 12:41:24.675615	296.3	24.6	-91.5	8.0
2025-01-16 12:41:25.830627	296.0	24.5	-92.0	6.2
2025-01-16 12:41:26.981848	295.7	24.4	-91.6	5.3
2025-01-16 12:41:28.146030	295.5	24.3	-91.4	8.2
2025-01-16 12:41:29.300955	295.2	24.1	-91.5	6.3
2025-01-16 12:41:30.462623	295.0	24.0	-92.1	6.6
2025-01-16 12:41:31.621317	294.7	23.9	-91.8	5.3
2025-01-16 12:41:32.776162	294.5	23.8	-91.7	6.1
2025-01-16 12:41:33.933979	294.2	23.7	-91.5	5.9
2025-01-16 12:41:35.085176	294.0	23.6	-91.7	6.9
2025-01-16 12:41:36.241727	293.7	23.5	-91.9	10.5
2025-01-16 12:41:37.401450	293.5	23.4	-91.9	7.4
2025-01-16 12:41:38.556645	293.2	23.3	-91.8	6.8
2025-01-16 12:41:39.714952	293.0	23.2	-92.1	8.5
2025-01-16 12:41:40.859343	292.7	23.1	-91.7	11.7
2025-01-16 12:41:42.016791	292.5	23.0	-91.4	9.1
2025-01-16 12:41:43.168958	292.3	22.8	-91.5	11.1
2025-01-16 12:41:44.323087	292.0	22.7	-91.3	12.8
2025-01-16 12:41:45.472415	291.8	22.6	-91.6	11.1
2025-01-16 12:41:46.629944	291.6	22.5	-91.9	8.7
2025-01-16 12:41:47.783033	291.3	22.4	-92.1	10.7
2025-01-16 12:41:48.937111	291.1	22.3	-91.6	9.2
2025-01-16 12:41:50.086314	290.9	22.2	-91.8	8.0
2025-01-16 12:41:51.243958	290.6	22.1	-91.5	9.5
2025-01-16 12:41:52.401357	290.4	22.0	-91.5	8.6
2025-01-16 12:41:53.551701	290.2	21.9	-91.7	8.0
2025-01-16 12:41:54.696390	290.0	21.8	-91.9	11.4
2025-01-16 12:41:55.845884	289.8	21.7	-91.8	9.0
2025-01-16 12:41:56.996026	289.5	21.5	-91.7	7.0
2025-01-16 12:41:58.152372	289.3	21.4	-91.6	7.7
2025-01-16 12:41:59.317496	289.1	21.3	-91.6	9.9
2025-01-16 12:42:00.468871	288.9	21.2	-91.7	8.9
2025-01-16 12:42:01.627090	288.7	21.1	-91.7	8.5
2025-01-16 12:42:02.781549	288.5	21.0	-91.7	11.9
2025-01-16 12:42:03.929801	288.3	20.9	-91.5	8.5
2025-01-16 12:42:05.087148	288.1	20.8	-91.7	6.9
2025-01-16 12:42:06.248746	287.9	20.7	-91.9	10.9
2025-01-16 12:42:07.401904	287.7	20.6	-91.6	7.9
2025-01-16 12:42:08.558760	287.4	20.5	-91.3	10.2
2025-01-16 12:42:09.723809	287.2	20.4	-91.8	11.2
2025-01-16 12:42:10.876017	287.0	20.2	-91.7	10.9
2025-01-16 12:42:12.036329	286.8	20.1	-91.4	10.3
2025-01-16 12:42:13.199082	286.6	20.0	-91.3	12.7
2025-01-16 12:42:14.350348	286.5	19.9	-91.5	13.8
2025-01-16 12:42:15.496700	286.3	19.8	-91.8	9.0
2025-01-16 12:42:16.653916	286.1	19.7	-91.6	13.2
2025-01-16 12:42:17.803915	285.9	19.6	-91.8	9.9
2025-01-16 12:42:18.963047	285.7	19.5	-91.6	8.9
2025-01-16 12:42:20.118077	285.5	19.4	-91.5	6.2
2025-01-16 12:42:21.277144	285.3	19.3	-91.5	11.7
2025-01-16 12:42:22.425529	285.1	19.2	-91.4	6.6
2025-01-16 12:42:23.582579	284.9	19.1	-91.6	6.1
2025-01-16 12:42:24.736876	284.8	19.0	-91.7	10.4
2025-01-16 12:42:25.898417	284.6	18.8	-91.5	7.4
2025-01-16 12:42:27.058388	284.4	18.7	-91.5	7.9
2025-01-16 12:42:28.209601	284.2	18.6	-91.9	12.4
2025-01-16 12:42:29.366885	284.0	18.5	-91.8	9.0
2025-01-16 12:42:30.531631	283.8	18.4	-91.7	12.6
2025-01-16 12:42:31.685810	283.7	18.3	-91.7	10.2
2025-01-16 12:42:32.845516	283.5	18.2	-91.6	13.1
2025-01-16 12:42:34.002669	283.3	18.1	-92.0	9.5
2025-01-16 12:42:35.157931	283.2	18.0	-91.8	9.1
2025-01-16 12:42:36.310893	283.0	17.9	-91.9	9.3
2025-01-16 12:42:37.462556	282.8	17.8	-91.5	6.8
2025-01-16 12:42:38.618797	282.6	17.7	-92.0	6.5
2025-01-16 12:42:39.776732	282.5	17.6	-91.9	9.0
2025-01-16 12:42:40.930193	282.3	17.5	-91.8	5.3
2025-01-16 12:42:42.083124	282.1	17.4	-91.8	7.4
2025-01-16 12:42:43.236612	282.0	17.3	-91.7	7.4
2025-01-16 12:42:44.382573	281.8	17.2	-91.6	3.8
2025-01-16 12:42:45.541481	281.7	17.1	-91.7	5.6
2025-01-16 12:42:46.693792	281.5	17.0	-91.7	7.5
2025-01-16 12:42:47.850246	281.3	16.8	-91.6	5.1
2025-01-16 12:42:49.008735	281.2	16.7	-91.7	5.6
2025-01-16 12:42:50.165213	281.0	16.6	-91.7	4.4
2025-01-16 12:42:51.320429	280.9	16.5	-91.9	6.3
2025-01-16 12:42:52.465059	280.7	16.4	-92.0	5.8
2025-01-16 12:42:53.615274	280.5	16.3	-91.6	6.9
2025-01-16 12:42:54.767508	280.4	16.2	-91.7	6.3
2025-01-16 12:42:55.926411	280.2	16.1	-91.7	6.7
2025-01-16 12:42:57.087077	280.1	16.0	-91.9	4.6
2025-01-16 12:42:58.242416	279.9	15.9	-91.9	5.4
2025-01-16 12:42:59.393290	279.8	15.8	-92.0	5.3
2025-01-16 12:43:00.547454	279.6	15.7	-91.9	4.3
2025-01-16 12:43:01.713104	279.5	15.6	-92.0	8.3
2025-01-16 12:43:02.867609	279.4	15.5	-91.9	5.0
2025-01-16 12:43:04.023488	279.2	15.4	-92.0	7.1
2025-01-16 12:43:05.182989	279.1	15.3	-91.8	8.5
2025-01-16 12:43:06.337010	278.9	15.2	-91.5	8.0
2025-01-16 12:43:07.493492	278.8	15.1	-91.6	8.2
2025-01-16 12:43:08.655800	278.6	15.0	-91.8	10.4
2025-01-16 12:43:09.814313	278.5	14.9	-92.0	9.5
2025-01-16 12:43:10.971597	278.4	14.8	-91.5	10.1
2025-01-16 12:43:12.116421	278.2	14.7	-91.6	9.1
2025-01-16 12:43:13.262125	278.1	14.6	-91.8	8.4
#Closed at: 2025-01-16 12:35:45.213370