passes_logs/2025/01/16/LEX_Murmansk/LEX_Murmansk__20250116_103007_NOAA_19_rec.log

#Pass ID: 20250116_103007_NOAA 19
#Satellite: NOAA 19
#Configuration: NOAA 19
#Start time: 2025-01-16 10:30:02.200219

#LorettStation: 1.0.0 05.05.2024
#Station: LEX_Murmansk
#Location: 33.156738 lon 68.926811 lat
#TLE: 1 33591U 09005A   25015.14570653  .00000261  00000+0  16322-3 0  9994
#TLE: 2 33591  99.0196  78.9093 0014467  57.1425 303.1137 14.13259366821569

#Time	Az	El	Level	SNR
2025-01-16 10:30:14.361322	23.5	16.2	-90.5	1.7
2025-01-16 10:30:15.519832	23.4	16.3	-90.6	1.4
2025-01-16 10:30:16.672598	23.3	16.4	-90.6	2.4
2025-01-16 10:30:17.832709	23.2	16.6	-91.1	0.6
2025-01-16 10:30:18.992269	23.1	16.7	-91.2	2.9
2025-01-16 10:30:20.149474	22.9	16.8	-91.1	4.9
2025-01-16 10:30:21.306557	22.8	16.9	-91.0	5.5
2025-01-16 10:30:22.461621	22.7	17.0	-91.1	6.2
2025-01-16 10:30:23.616871	22.6	17.2	-90.9	4.4
2025-01-16 10:30:24.777355	22.5	17.3	-91.0	2.0
2025-01-16 10:30:25.938068	22.4	17.4	-90.9	1.9
2025-01-16 10:30:27.101085	22.3	17.5	-91.0	2.8
2025-01-16 10:30:28.256266	22.2	17.6	-90.9	1.5
2025-01-16 10:30:29.412974	22.1	17.8	-90.9	4.6
2025-01-16 10:30:30.568307	21.9	17.9	-91.1	6.7
2025-01-16 10:30:31.724254	21.8	18.0	-90.6	8.4
2025-01-16 10:30:32.881899	21.7	18.1	-90.9	9.1
2025-01-16 10:30:34.043597	21.6	18.3	-90.8	8.9
2025-01-16 10:30:35.202742	21.5	18.4	-91.0	5.4
2025-01-16 10:30:36.361069	21.3	18.5	-90.7	3.3
2025-01-16 10:30:37.513557	21.2	18.6	-90.8	9.7
2025-01-16 10:30:38.665314	21.1	18.8	-90.6	7.9
2025-01-16 10:30:39.821212	21.0	18.9	-90.6	8.8
2025-01-16 10:30:40.972545	20.9	19.0	-90.9	9.6
2025-01-16 10:30:42.127310	20.7	19.2	-90.9	4.5
2025-01-16 10:30:43.283150	20.6	19.3	-90.9	3.5
2025-01-16 10:30:44.440749	20.5	19.4	-90.9	1.4
2025-01-16 10:30:45.605308	20.3	19.5	-91.0	4.3
2025-01-16 10:30:46.756292	20.2	19.7	-91.2	4.2
2025-01-16 10:30:47.916160	20.1	19.8	-91.0	9.4
2025-01-16 10:30:49.072728	19.9	19.9	-90.9	9.5
2025-01-16 10:30:50.233592	19.8	20.1	-91.1	5.9
2025-01-16 10:30:51.382055	19.7	20.2	-91.3	7.0
2025-01-16 10:30:52.533668	19.5	20.3	-91.1	7.2
2025-01-16 10:30:53.691181	19.4	20.5	-91.0	5.8
2025-01-16 10:30:54.854259	19.3	20.6	-90.8	5.1
2025-01-16 10:30:56.015907	19.1	20.7	-91.0	7.0
2025-01-16 10:30:57.176735	19.0	20.9	-90.9	5.3
2025-01-16 10:30:58.334929	18.8	21.0	-91.1	6.0
2025-01-16 10:30:59.481799	18.7	21.1	-91.0	3.3
2025-01-16 10:31:00.641543	18.6	21.3	-91.1	3.8
2025-01-16 10:31:01.798379	18.4	21.4	-91.3	1.7
2025-01-16 10:31:02.950950	18.3	21.6	-91.3	3.1
2025-01-16 10:31:04.104608	18.1	21.7	-91.1	3.9
2025-01-16 10:31:05.262043	18.0	21.8	-90.9	5.2
2025-01-16 10:31:06.423842	17.8	22.0	-90.8	7.5
2025-01-16 10:31:07.579115	17.7	22.1	-91.1	11.6
2025-01-16 10:31:08.733523	17.5	22.2	-90.8	6.1
2025-01-16 10:31:09.888834	17.4	22.4	-91.0	4.8
2025-01-16 10:31:11.036751	17.2	22.5	-91.0	8.0
2025-01-16 10:31:12.196964	17.0	22.7	-91.2	6.1
2025-01-16 10:31:13.356449	16.9	22.8	-91.3	11.2
2025-01-16 10:31:14.514275	16.7	23.0	-91.2	11.7
2025-01-16 10:31:15.664971	16.6	23.1	-91.0	8.5
2025-01-16 10:31:16.810902	16.4	23.2	-90.8	7.4
2025-01-16 10:31:17.962522	16.2	23.4	-90.9	3.4
2025-01-16 10:31:19.129307	16.1	23.5	-91.0	5.1
2025-01-16 10:31:20.286643	15.9	23.7	-91.0	1.0
2025-01-16 10:31:21.443579	15.7	23.8	-90.9	3.4
2025-01-16 10:31:22.597661	15.5	24.0	-90.8	6.7
2025-01-16 10:31:23.753589	15.4	24.1	-90.9	6.7
2025-01-16 10:31:24.909405	15.2	24.3	-91.2	9.9
2025-01-16 10:31:26.063928	15.0	24.4	-91.0	11.4
2025-01-16 10:31:27.217985	14.8	24.6	-90.9	8.6
2025-01-16 10:31:28.374781	14.7	24.7	-90.9	8.5
2025-01-16 10:31:29.525190	14.5	24.9	-90.6	6.8
2025-01-16 10:31:30.678998	14.3	25.0	-90.6	7.5
2025-01-16 10:31:31.828157	14.1	25.2	-91.3	7.3
2025-01-16 10:31:32.987230	13.9	25.3	-91.0	9.3
2025-01-16 10:31:34.144356	13.7	25.5	-91.0	10.1
2025-01-16 10:31:35.300248	13.5	25.6	-90.9	5.5
2025-01-16 10:31:36.453926	13.3	25.8	-91.0	4.5
2025-01-16 10:31:37.614403	13.1	25.9	-91.2	4.5
2025-01-16 10:31:38.770622	12.9	26.1	-90.9	2.3
2025-01-16 10:31:39.924571	12.7	26.2	-90.8	3.1
2025-01-16 10:31:41.075086	12.5	26.4	-90.7	2.3
2025-01-16 10:31:42.239869	12.3	26.5	-90.8	6.1
2025-01-16 10:31:43.395271	12.1	26.7	-90.8	7.0
2025-01-16 10:31:44.556096	11.9	26.9	-90.7	5.6
2025-01-16 10:31:45.713092	11.7	27.0	-90.6	4.4
2025-01-16 10:31:46.870334	11.5	27.2	-90.3	5.0
2025-01-16 10:31:48.018276	11.3	27.3	-91.0	7.4
2025-01-16 10:31:49.177746	11.1	27.5	-91.3	1.3
2025-01-16 10:31:50.334194	10.9	27.6	-91.0	5.6
2025-01-16 10:31:51.484181	10.6	27.8	-90.7	4.5
2025-01-16 10:31:52.636016	10.4	28.0	-90.9	11.7
2025-01-16 10:31:53.796537	10.2	28.1	-90.9	7.7
2025-01-16 10:31:54.953141	10.0	28.3	-90.6	2.8
2025-01-16 10:31:56.114258	9.7	28.4	-91.0	3.7
2025-01-16 10:31:57.268206	9.5	28.6	-91.1	0.4
2025-01-16 10:31:58.424074	9.3	28.8	-90.8	1.3
2025-01-16 10:31:59.578998	9.0	28.9	-91.3	2.4
2025-01-16 10:32:00.731429	8.8	29.1	-91.3	3.2
2025-01-16 10:32:01.882411	8.5	29.3	-91.2	4.6
2025-01-16 10:32:03.036049	8.3	29.4	-90.9	7.3
2025-01-16 10:32:04.198161	8.1	29.6	-91.0	11.8
2025-01-16 10:32:05.352584	7.8	29.7	-91.2	9.6
2025-01-16 10:32:06.511460	7.6	29.9	-91.1	11.8
2025-01-16 10:32:07.664927	7.3	30.1	-90.9	4.2
2025-01-16 10:32:08.821586	7.0	30.2	-91.2	6.6
2025-01-16 10:32:09.982845	6.8	30.4	-91.0	8.3
2025-01-16 10:32:11.127177	6.5	30.6	-91.2	6.8
2025-01-16 10:32:12.276170	6.3	30.7	-90.9	7.7
2025-01-16 10:32:13.424730	6.0	30.9	-91.2	11.3
2025-01-16 10:32:14.581284	5.7	31.1	-90.7	11.6
2025-01-16 10:32:15.738093	5.4	31.2	-90.9	5.3
2025-01-16 10:32:16.896518	5.2	31.4	-90.6	5.0
2025-01-16 10:32:18.053896	4.9	31.6	-90.4	4.9
2025-01-16 10:32:19.203576	4.6	31.7	-90.7	2.3
2025-01-16 10:32:20.354995	4.3	31.9	-90.8	3.7
2025-01-16 10:32:21.520475	4.0	32.1	-90.7	4.2
2025-01-16 10:32:22.680208	3.7	32.2	-91.1	5.2
2025-01-16 10:32:23.839720	3.5	32.4	-91.2	8.1
2025-01-16 10:32:24.991836	3.2	32.6	-91.2	12.0
2025-01-16 10:32:26.138859	2.9	32.7	-91.4	11.1
2025-01-16 10:32:27.295447	2.6	32.9	-90.8	6.7
2025-01-16 10:32:28.450346	2.2	33.1	-91.0	5.5
2025-01-16 10:32:29.604251	1.9	33.2	-91.0	6.7
2025-01-16 10:32:30.764394	1.6	33.4	-91.0	2.9
2025-01-16 10:32:31.912910	1.3	33.6	-91.3	3.3
2025-01-16 10:32:33.067226	1.0	33.7	-91.0	7.8
2025-01-16 10:32:34.218939	0.7	33.9	-91.1	11.3
2025-01-16 10:32:35.380886	0.3	34.1	-91.1	12.3
2025-01-16 10:32:36.534699	0.0	34.2	-91.2	8.7
2025-01-16 10:32:37.693955	359.7	34.4	-91.2	8.7
2025-01-16 10:32:38.843762	359.3	34.6	-90.9	5.6
2025-01-16 10:32:39.990601	359.0	34.7	-91.0	2.9
2025-01-16 10:32:41.147048	358.7	34.9	-91.0	3.9
2025-01-16 10:32:42.301231	358.3	35.1	-91.0	3.5
2025-01-16 10:32:43.452637	358.0	35.2	-91.0	3.9
2025-01-16 10:32:44.606992	357.6	35.4	-91.0	6.1
2025-01-16 10:32:45.765991	357.3	35.6	-91.0	7.5
2025-01-16 10:32:46.916628	356.9	35.7	-90.9	6.7
2025-01-16 10:32:48.076687	356.5	35.9	-91.2	13.5
2025-01-16 10:32:49.236504	356.2	36.0	-90.9	17.1
2025-01-16 10:32:50.378389	355.8	36.2	-91.1	13.7
2025-01-16 10:32:51.533901	355.4	36.4	-90.8	15.1
2025-01-16 10:32:52.686505	355.0	36.5	-91.1	9.2
2025-01-16 10:32:53.843476	354.7	36.7	-91.3	6.1
2025-01-16 10:32:54.997529	354.3	36.8	-90.8	7.9
2025-01-16 10:32:56.153248	353.9	37.0	-91.1	8.3
2025-01-16 10:32:57.310546	353.5	37.2	-90.6	4.6
2025-01-16 10:32:58.460843	353.1	37.3	-90.9	11.6
2025-01-16 10:32:59.599955	352.7	37.5	-90.8	10.8
2025-01-16 10:33:00.763764	352.3	37.6	-90.8	11.8
2025-01-16 10:33:01.923423	351.9	37.8	-90.9	14.8
2025-01-16 10:33:03.097774	351.5	37.9	-91.0	10.3
2025-01-16 10:33:04.252442	351.0	38.1	-90.7	6.8
2025-01-16 10:33:05.409900	350.6	38.2	-91.1	9.2
2025-01-16 10:33:06.572612	350.2	38.4	-91.0	8.0
2025-01-16 10:33:07.728954	349.8	38.5	-91.0	2.2
2025-01-16 10:33:08.889239	349.3	38.7	-91.0	6.5
2025-01-16 10:33:10.040285	348.9	38.8	-91.3	4.7
2025-01-16 10:33:11.203241	348.4	39.0	-91.2	6.6
2025-01-16 10:33:12.352945	348.0	39.1	-90.8	6.5
2025-01-16 10:33:13.509744	347.6	39.3	-91.0	9.9
2025-01-16 10:33:14.663550	347.1	39.4	-90.7	10.9
2025-01-16 10:33:15.824934	346.6	39.5	-90.5	11.5
2025-01-16 10:33:16.981128	346.2	39.7	-90.6	17.8
2025-01-16 10:33:18.138324	345.7	39.8	-90.9	16.0
2025-01-16 10:33:19.299064	345.2	39.9	-90.8	14.0
2025-01-16 10:33:20.447165	344.8	40.1	-91.0	13.8
2025-01-16 10:33:21.595963	344.3	40.2	-90.9	13.1
2025-01-16 10:33:22.755009	343.8	40.3	-91.0	8.6
2025-01-16 10:33:23.906853	343.3	40.5	-90.7	10.5
2025-01-16 10:33:25.064979	342.8	40.6	-90.5	11.3
2025-01-16 10:33:26.225796	342.4	40.7	-90.8	7.2
2025-01-16 10:33:27.378113	341.9	40.8	-90.6	11.1
2025-01-16 10:33:28.537358	341.4	41.0	-90.7	14.8
2025-01-16 10:33:29.691738	340.9	41.1	-90.9	13.6
2025-01-16 10:33:30.844394	340.4	41.2	-90.8	17.5
2025-01-16 10:33:31.992452	339.8	41.3	-91.0	15.1
2025-01-16 10:33:33.149672	339.3	41.4	-90.8	15.3
2025-01-16 10:33:34.308311	338.8	41.5	-90.7	13.2
2025-01-16 10:33:35.463644	338.3	41.6	-90.8	13.6
2025-01-16 10:33:36.615359	337.8	41.7	-90.6	10.7
2025-01-16 10:33:37.776340	337.2	41.8	-90.5	6.6
2025-01-16 10:33:38.935318	336.7	41.9	-90.6	7.2
2025-01-16 10:33:40.097217	336.2	42.0	-91.2	7.8
2025-01-16 10:33:41.248299	335.6	42.1	-90.6	3.8
2025-01-16 10:33:42.401205	335.1	42.2	-90.9	6.0
2025-01-16 10:33:43.553058	334.6	42.3	-90.9	7.8
2025-01-16 10:33:44.705706	334.0	42.4	-91.0	2.4
2025-01-16 10:33:45.862215	333.5	42.5	-90.8	5.5
2025-01-16 10:33:47.022156	332.9	42.5	-91.0	7.7
2025-01-16 10:33:48.172838	332.4	42.6	-90.6	8.9
2025-01-16 10:33:49.328261	331.8	42.7	-90.6	9.6
2025-01-16 10:33:50.479330	331.2	42.8	-91.1	14.5
2025-01-16 10:33:51.631447	330.7	42.8	-91.1	14.0
2025-01-16 10:33:52.782579	330.1	42.9	-91.0	14.1
2025-01-16 10:33:53.943120	329.6	43.0	-90.8	14.0
2025-01-16 10:33:55.101763	329.0	43.0	-90.7	20.1
2025-01-16 10:33:56.261058	328.4	43.1	-91.0	16.2
2025-01-16 10:33:57.423073	327.8	43.1	-90.8	14.9
2025-01-16 10:33:58.575481	327.3	43.2	-90.8	16.5
2025-01-16 10:33:59.729156	326.7	43.2	-90.8	13.4
2025-01-16 10:34:00.869905	326.1	43.3	-90.8	13.2
2025-01-16 10:34:02.011829	325.5	43.3	-90.7	14.1
2025-01-16 10:34:03.167105	325.0	43.3	-91.0	8.9
2025-01-16 10:34:04.321983	324.4	43.4	-90.7	6.9
2025-01-16 10:34:05.480695	323.8	43.4	-90.6	6.9
2025-01-16 10:34:06.644704	323.2	43.4	-90.7	9.9
2025-01-16 10:34:07.797336	322.6	43.4	-90.9	5.7
2025-01-16 10:34:08.964422	322.0	43.5	-90.5	9.3
2025-01-16 10:34:10.114452	321.5	43.5	-91.0	11.1
2025-01-16 10:34:11.277954	320.9	43.5	-90.9	5.1
2025-01-16 10:34:12.419870	320.3	43.5	-91.1	9.7
2025-01-16 10:34:13.577835	319.7	43.5	-91.0	8.0
2025-01-16 10:34:14.732593	319.1	43.5	-91.1	6.7
2025-01-16 10:34:15.888545	318.5	43.5	-91.1	8.1
2025-01-16 10:34:17.039756	317.9	43.5	-91.1	10.5
2025-01-16 10:34:18.200740	317.3	43.5	-90.8	6.8
2025-01-16 10:34:19.347973	316.8	43.5	-91.0	12.0
2025-01-16 10:34:20.501024	316.2	43.5	-91.0	11.8
2025-01-16 10:34:21.658907	315.6	43.5	-91.2	12.1
2025-01-16 10:34:22.805436	315.0	43.4	-91.0	15.2
2025-01-16 10:34:23.962880	314.4	43.4	-91.3	15.4
2025-01-16 10:34:25.110211	313.8	43.4	-90.8	15.9
2025-01-16 10:34:26.262010	313.3	43.4	-91.1	15.7
2025-01-16 10:34:27.421366	312.7	43.3	-91.0	13.3
2025-01-16 10:34:28.573369	312.1	43.3	-91.2	16.6
2025-01-16 10:34:29.728702	311.5	43.2	-91.2	14.8
2025-01-16 10:34:30.883138	310.9	43.2	-91.2	12.9
2025-01-16 10:34:32.035635	310.4	43.2	-91.1	10.1
2025-01-16 10:34:33.192670	309.8	43.1	-90.8	15.1
2025-01-16 10:34:34.351135	309.2	43.1	-90.6	12.9
2025-01-16 10:34:35.509417	308.7	43.0	-91.1	12.3
2025-01-16 10:34:36.673899	308.1	42.9	-91.2	7.5
2025-01-16 10:34:37.828964	307.5	42.9	-90.7	8.8
2025-01-16 10:34:38.980187	307.0	42.8	-90.8	11.2
2025-01-16 10:34:40.138279	306.4	42.7	-90.9	10.8
2025-01-16 10:34:41.285384	305.8	42.7	-91.0	10.0
2025-01-16 10:34:42.439114	305.3	42.6	-91.0	10.4
2025-01-16 10:34:43.597334	304.7	42.5	-91.0	11.0
2025-01-16 10:34:44.752108	304.2	42.4	-91.1	11.2
2025-01-16 10:34:45.907709	303.6	42.4	-90.8	10.0
2025-01-16 10:34:47.063559	303.1	42.3	-91.0	12.2
2025-01-16 10:34:48.218836	302.5	42.2	-90.9	10.4
2025-01-16 10:34:49.377067	302.0	42.1	-90.9	7.6
2025-01-16 10:34:50.529233	301.5	42.0	-91.0	8.6
2025-01-16 10:34:51.681780	300.9	41.9	-91.1	9.8
2025-01-16 10:34:52.829924	300.4	41.8	-91.0	7.6
2025-01-16 10:34:53.981595	299.9	41.7	-90.6	9.9
2025-01-16 10:34:55.137294	299.4	41.6	-90.8	11.0
2025-01-16 10:34:56.294673	298.8	41.5	-90.6	8.7
2025-01-16 10:34:57.455386	298.3	41.4	-90.5	13.0
2025-01-16 10:34:58.605191	297.8	41.3	-91.1	8.7
2025-01-16 10:34:59.764230	297.3	41.2	-90.9	10.3
2025-01-16 10:35:00.919534	296.8	41.0	-91.0	12.9
2025-01-16 10:35:02.075155	296.3	40.9	-91.1	13.1
2025-01-16 10:35:03.227635	295.8	40.8	-91.0	13.0
2025-01-16 10:35:04.390334	295.3	40.7	-91.1	15.7
2025-01-16 10:35:05.544250	294.8	40.6	-91.1	16.3
2025-01-16 10:35:06.702536	294.3	40.4	-90.9	13.9
2025-01-16 10:35:07.853436	293.8	40.3	-91.1	15.3
2025-01-16 10:35:08.998151	293.4	40.2	-90.8	12.2
2025-01-16 10:35:10.149914	292.9	40.1	-91.0	14.3
2025-01-16 10:35:11.308055	292.4	39.9	-91.1	10.9
2025-01-16 10:35:12.459053	292.0	39.8	-91.1	14.5
2025-01-16 10:35:13.614449	291.5	39.7	-90.5	14.5
2025-01-16 10:35:14.770654	291.0	39.5	-90.6	15.7
2025-01-16 10:35:15.923361	290.6	39.4	-90.9	17.4
2025-01-16 10:35:17.077590	290.1	39.2	-90.9	19.0
2025-01-16 10:35:18.231320	289.7	39.1	-90.9	19.7
2025-01-16 10:35:19.387779	289.2	38.9	-91.1	17.4
2025-01-16 10:35:20.538727	288.8	38.8	-91.1	14.5
2025-01-16 10:35:21.694655	288.4	38.7	-91.1	16.9
2025-01-16 10:35:22.847729	287.9	38.5	-90.9	16.5
2025-01-16 10:35:24.003979	287.5	38.4	-90.9	15.6
2025-01-16 10:35:25.158358	287.1	38.2	-91.0	12.5
2025-01-16 10:35:26.315643	286.6	38.1	-91.4	13.8
2025-01-16 10:35:27.473202	286.2	37.9	-91.3	15.8
2025-01-16 10:35:28.633271	285.8	37.8	-91.3	14.6
2025-01-16 10:35:29.797437	285.4	37.6	-91.0	11.3
2025-01-16 10:35:30.950925	285.0	37.4	-91.3	10.0
2025-01-16 10:35:32.104289	284.6	37.3	-91.1	11.1
2025-01-16 10:35:33.267320	284.2	37.1	-91.1	7.4
2025-01-16 10:35:34.419555	283.8	37.0	-91.2	7.5
2025-01-16 10:35:35.582284	283.4	36.8	-91.2	10.5
2025-01-16 10:35:36.740391	283.0	36.7	-91.3	5.6
2025-01-16 10:35:37.899827	282.6	36.5	-91.3	5.1
2025-01-16 10:35:39.055428	282.3	36.3	-91.4	5.3
2025-01-16 10:35:40.213524	281.9	36.2	-91.3	3.9
2025-01-16 10:35:41.377460	281.5	36.0	-91.2	4.8
2025-01-16 10:35:42.526761	281.2	35.9	-91.3	7.5
2025-01-16 10:35:43.677826	280.8	35.7	-91.0	5.2
2025-01-16 10:35:44.835677	280.4	35.5	-91.5	3.6
2025-01-16 10:35:45.993097	280.1	35.4	-91.7	5.9
2025-01-16 10:35:47.145994	279.7	35.2	-91.3	4.5
2025-01-16 10:35:48.300339	279.4	35.0	-91.4	6.3
2025-01-16 10:35:49.458395	279.0	34.9	-91.4	6.4
2025-01-16 10:35:50.609913	278.7	34.7	-91.5	8.3
2025-01-16 10:35:51.770760	278.3	34.5	-91.6	9.0
2025-01-16 10:35:52.923644	278.0	34.4	-91.4	9.0
2025-01-16 10:35:54.081608	277.7	34.2	-91.7	11.2
2025-01-16 10:35:55.241973	277.3	34.0	-91.7	12.4
2025-01-16 10:35:56.394198	277.0	33.9	-91.2	9.9
2025-01-16 10:35:57.553675	276.7	33.7	-91.4	9.5
2025-01-16 10:35:58.709919	276.4	33.5	-91.0	7.2
2025-01-16 10:35:59.866409	276.1	33.4	-90.7	6.1
2025-01-16 10:36:01.021217	275.8	33.2	-91.0	4.7
2025-01-16 10:36:02.182385	275.4	33.0	-91.5	5.4
2025-01-16 10:36:03.341485	275.1	32.9	-91.1	3.6
2025-01-16 10:36:04.503354	274.8	32.7	-91.1	4.3
2025-01-16 10:36:05.652522	274.5	32.5	-91.1	4.6
2025-01-16 10:36:06.810766	274.2	32.4	-90.8	4.9
2025-01-16 10:36:07.963002	273.9	32.2	-90.9	6.1
2025-01-16 10:36:09.122552	273.7	32.0	-90.9	6.2
2025-01-16 10:36:10.275877	273.4	31.9	-91.0	4.1
2025-01-16 10:36:11.427206	273.1	31.7	-91.0	2.4
2025-01-16 10:36:12.565300	272.8	31.5	-91.1	2.7
2025-01-16 10:36:13.725071	272.5	31.4	-91.2	2.6
2025-01-16 10:36:14.874864	272.3	31.2	-91.2	3.4
2025-01-16 10:36:16.036668	272.0	31.0	-91.0	2.6
2025-01-16 10:36:17.189333	271.7	30.9	-91.3	2.5
2025-01-16 10:36:18.346402	271.4	30.7	-91.3	2.2
2025-01-16 10:36:19.502865	271.2	30.5	-91.6	0.5
2025-01-16 10:36:20.655147	270.9	30.4	-90.9	3.1
2025-01-16 10:36:21.804205	270.7	30.2	-91.1	5.5
2025-01-16 10:36:22.958257	270.4	30.1	-91.0	7.7
2025-01-16 10:36:24.119612	270.2	29.9	-91.2	3.9
2025-01-16 10:36:25.278105	269.9	29.7	-91.4	4.4
2025-01-16 10:36:26.436980	269.6	29.6	-91.3	3.1
2025-01-16 10:36:27.594433	269.4	29.4	-91.4	6.2
2025-01-16 10:36:28.744805	269.2	29.2	-91.4	3.2
2025-01-16 10:36:29.898509	268.9	29.1	-91.5	7.8
2025-01-16 10:36:31.056764	268.7	28.9	-91.3	4.1
2025-01-16 10:36:32.210442	268.4	28.7	-91.5	2.2
2025-01-16 10:36:33.364191	268.2	28.6	-91.1	3.4
2025-01-16 10:36:34.513142	268.0	28.4	-91.4	3.4
2025-01-16 10:36:35.668161	267.8	28.3	-91.1	4.1
2025-01-16 10:36:36.819471	267.5	28.1	-91.1	5.2
2025-01-16 10:36:37.971542	267.3	27.9	-91.2	6.0
2025-01-16 10:36:39.124070	267.1	27.8	-90.9	5.3
2025-01-16 10:36:40.284255	266.9	27.6	-90.9	8.5
2025-01-16 10:36:41.442360	266.6	27.5	-91.0	4.3
2025-01-16 10:36:42.591399	266.4	27.3	-91.1	10.9
2025-01-16 10:36:43.744090	266.2	27.2	-91.2	7.4
2025-01-16 10:36:44.904394	266.0	27.0	-91.2	9.6
2025-01-16 10:36:46.060819	265.8	26.8	-90.9	9.8
2025-01-16 10:36:47.215146	265.6	26.7	-91.2	10.7
2025-01-16 10:36:48.377469	265.4	26.5	-91.1	8.6
2025-01-16 10:36:49.528842	265.2	26.4	-91.0	8.2
2025-01-16 10:36:50.692430	265.0	26.2	-91.2	11.9
2025-01-16 10:36:51.844277	264.8	26.1	-91.4	9.8
2025-01-16 10:36:53.005806	264.6	25.9	-91.6	6.5
2025-01-16 10:36:54.164256	264.4	25.8	-91.1	5.0
2025-01-16 10:36:55.326924	264.2	25.6	-91.2	8.3
2025-01-16 10:36:56.492998	264.0	25.4	-91.2	5.2
2025-01-16 10:36:57.650338	263.8	25.3	-91.1	5.5
2025-01-16 10:36:58.805974	263.6	25.1	-91.1	9.6
2025-01-16 10:36:59.955610	263.4	25.0	-91.4	5.6
2025-01-16 10:37:01.105619	263.2	24.8	-91.0	7.3
2025-01-16 10:37:02.255249	263.1	24.7	-91.2	9.0
2025-01-16 10:37:03.407222	262.9	24.5	-91.1	11.6
2025-01-16 10:37:04.563423	262.7	24.4	-91.1	10.5
2025-01-16 10:37:05.719499	262.5	24.3	-90.9	8.5
2025-01-16 10:37:06.876931	262.4	24.1	-90.8	10.9
2025-01-16 10:37:08.024120	262.2	24.0	-90.8	5.9
2025-01-16 10:37:09.189014	262.0	23.8	-90.6	10.4
2025-01-16 10:37:10.341146	261.8	23.7	-91.0	9.4
2025-01-16 10:37:11.501802	261.7	23.5	-91.0	6.2
2025-01-16 10:37:12.657290	261.5	23.4	-91.1	9.0
2025-01-16 10:37:13.814911	261.3	23.2	-90.8	10.7
2025-01-16 10:37:14.972865	261.2	23.1	-91.0	6.4
2025-01-16 10:37:16.129160	261.0	22.9	-90.9	5.8
2025-01-16 10:37:17.288034	260.8	22.8	-90.8	10.7
2025-01-16 10:37:18.444401	260.7	22.7	-91.3	11.8
2025-01-16 10:37:19.591273	260.5	22.5	-91.0	12.3
2025-01-16 10:37:20.747991	260.4	22.4	-91.0	11.3
2025-01-16 10:37:21.907151	260.2	22.2	-91.4	13.2
2025-01-16 10:37:23.056565	260.1	22.1	-90.9	12.6
2025-01-16 10:37:24.207216	259.9	22.0	-91.1	10.0
2025-01-16 10:37:25.357731	259.8	21.8	-91.1	8.8
2025-01-16 10:37:26.515061	259.6	21.7	-91.2	7.5
2025-01-16 10:37:27.670682	259.5	21.5	-91.1	9.0
2025-01-16 10:37:28.820037	259.3	21.4	-90.8	9.1
2025-01-16 10:37:29.974106	259.2	21.3	-90.4	5.1
2025-01-16 10:37:31.125950	259.0	21.1	-91.0	5.6
2025-01-16 10:37:32.279781	258.9	21.0	-90.8	8.3
2025-01-16 10:37:33.426789	258.7	20.9	-90.5	5.8
2025-01-16 10:37:34.579773	258.6	20.7	-90.8	8.2
2025-01-16 10:37:35.740512	258.5	20.6	-91.0	4.9
2025-01-16 10:37:36.891253	258.3	20.5	-90.8	5.7
2025-01-16 10:37:38.039107	258.2	20.3	-90.9	8.5
2025-01-16 10:37:39.191853	258.0	20.2	-90.9	4.1
2025-01-16 10:37:40.348998	257.9	20.1	-91.2	4.1
2025-01-16 10:37:41.506634	257.8	19.9	-91.0	3.3
2025-01-16 10:37:42.658749	257.6	19.8	-91.1	3.1
2025-01-16 10:37:43.811987	257.5	19.7	-91.4	3.6
2025-01-16 10:37:44.957758	257.4	19.5	-91.2	3.5
2025-01-16 10:37:46.114914	257.3	19.4	-91.4	1.7
2025-01-16 10:37:47.262584	257.1	19.3	-91.3	2.4
2025-01-16 10:37:48.422056	257.0	19.2	-91.0	2.5
2025-01-16 10:37:49.570583	256.9	19.0	-90.9	1.6
2025-01-16 10:37:50.734975	256.7	18.9	-91.1	4.1
2025-01-16 10:37:51.882626	256.6	18.8	-91.0	3.7
2025-01-16 10:37:53.030706	256.5	18.6	-91.3	1.4
2025-01-16 10:37:54.178499	256.4	18.5	-91.0	2.8
2025-01-16 10:37:55.334281	256.3	18.4	-91.4	3.7
2025-01-16 10:37:56.485241	256.1	18.3	-91.0	1.8
2025-01-16 10:37:57.640545	256.0	18.1	-90.7	3.7
2025-01-16 10:37:58.804277	255.9	18.0	-91.2	4.3
2025-01-16 10:37:59.964997	255.8	17.9	-91.1	3.3
2025-01-16 10:38:01.120349	255.7	17.8	-90.9	3.4
2025-01-16 10:38:02.273200	255.6	17.7	-90.8	7.2
2025-01-16 10:38:03.427417	255.4	17.5	-91.1	4.0
2025-01-16 10:38:04.586259	255.3	17.4	-91.2	5.6
2025-01-16 10:38:05.748456	255.2	17.3	-91.0	5.9
2025-01-16 10:38:06.900728	255.1	17.2	-91.2	3.9
2025-01-16 10:38:08.065332	255.0	17.0	-91.1	4.6
2025-01-16 10:38:09.217161	254.9	16.9	-90.7	6.6
2025-01-16 10:38:10.380176	254.8	16.8	-90.8	5.4
2025-01-16 10:38:11.538170	254.7	16.7	-90.9	4.6
2025-01-16 10:38:12.692396	254.6	16.6	-91.0	5.0
2025-01-16 10:38:13.852371	254.5	16.4	-90.8	5.9
2025-01-16 10:38:15.011257	254.4	16.3	-90.9	3.9
2025-01-16 10:38:16.166476	254.3	16.2	-91.0	5.4
2025-01-16 10:38:17.317999	254.2	16.1	-91.5	6.3
2025-01-16 10:38:18.465648	254.1	16.0	-90.7	3.7
2025-01-16 10:38:19.622021	253.9	15.9	-91.0	6.5
2025-01-16 10:38:20.771060	253.8	15.8	-91.1	7.2
2025-01-16 10:38:21.922577	253.7	15.6	-91.3	7.3
2025-01-16 10:38:23.079349	253.7	15.5	-91.1	7.3
2025-01-16 10:38:24.233504	253.6	15.4	-91.1	5.2
2025-01-16 10:38:25.397703	253.5	15.3	-91.3	9.3
2025-01-16 10:38:26.553589	253.4	15.2	-91.0	8.5
2025-01-16 10:38:27.709073	253.3	15.1	-91.0	9.2
2025-01-16 10:38:28.857839	253.2	15.0	-91.0	8.6
2025-01-16 10:38:30.013268	253.1	14.8	-91.0	5.2
2025-01-16 10:38:31.164811	253.0	14.7	-91.1	7.4
2025-01-16 10:38:32.323910	252.9	14.6	-91.0	6.9
2025-01-16 10:38:33.467244	252.8	14.5	-90.8	7.5
#Closed at: 2025-01-16 10:30:07.136042