passes_logs/2025/01/16/LEX_Murmansk/LEX_Murmansk__20250116_091412_NOAA_18_rec.log

#Pass ID: 20250116_091412_NOAA 18
#Satellite: NOAA 18
#Configuration: NOAA 18
#Start time: 2025-01-16 09:14:07.183331

#LorettStation: 1.0.0 05.05.2024
#Station: LEX_Murmansk
#Location: 33.156738 lon 68.926811 lat
#TLE: 1 28654U 05018A   25015.16278545  .00000300  00000+0  18295-3 0  9990
#TLE: 2 28654  98.8567  96.2156 0014367 178.7074 181.4138 14.13486503 13201

#Time	Az	El	Level	SNR
2025-01-16 09:14:19.383802	28.9	16.3	-90.4	4.7
2025-01-16 09:14:21.680926	29.1	16.5	-90.3	4.3
2025-01-16 09:14:23.976333	29.2	16.8	-90.9	7.3
2025-01-16 09:14:26.278935	29.4	17.0	-90.3	8.7
2025-01-16 09:14:28.576971	29.5	17.3	-91.2	8.7
2025-01-16 09:14:30.878467	29.7	17.5	-90.8	6.0
2025-01-16 09:14:33.176886	29.8	17.8	-91.0	5.9
2025-01-16 09:14:35.486182	30.0	18.0	-91.0	4.9
2025-01-16 09:14:37.792450	30.1	18.3	-91.1	7.4
2025-01-16 09:14:40.090490	30.3	18.5	-91.3	7.3
2025-01-16 09:14:42.388657	30.5	18.8	-90.7	5.6
2025-01-16 09:14:44.689009	30.6	19.1	-91.0	6.7
2025-01-16 09:14:46.989640	30.8	19.4	-91.0	4.6
2025-01-16 09:14:49.275197	31.0	19.6	-90.9	8.2
2025-01-16 09:14:51.573492	31.1	19.9	-91.2	8.2
2025-01-16 09:14:53.864276	31.3	20.2	-91.1	8.5
2025-01-16 09:14:56.165496	31.5	20.5	-90.6	7.0
2025-01-16 09:14:58.462921	31.7	20.8	-89.7	8.4
2025-01-16 09:15:00.750240	31.9	21.0	-90.7	12.8
2025-01-16 09:15:03.043030	32.0	21.3	-90.6	10.2
2025-01-16 09:15:05.344450	32.2	21.6	-90.7	12.4
2025-01-16 09:15:07.646199	32.4	21.9	-91.2	9.2
2025-01-16 09:15:09.938441	32.6	22.2	-91.1	10.8
2025-01-16 09:15:12.233781	32.8	22.5	-91.0	13.0
2025-01-16 09:15:14.526614	33.0	22.8	-91.2	6.6
2025-01-16 09:15:16.823696	33.3	23.2	-91.0	12.5
2025-01-16 09:15:19.128268	33.5	23.5	-91.5	11.7
2025-01-16 09:15:21.417019	33.7	23.8	-90.5	6.2
2025-01-16 09:15:23.716875	33.9	24.1	-90.5	11.1
2025-01-16 09:15:26.020078	34.1	24.4	-90.4	8.8
2025-01-16 09:15:28.319080	34.4	24.8	-90.7	10.0
2025-01-16 09:15:30.608975	34.6	25.1	-90.7	8.4
2025-01-16 09:15:32.914084	34.9	25.4	-91.4	9.8
2025-01-16 09:15:35.209140	35.1	25.8	-91.4	10.0
2025-01-16 09:15:37.512860	35.4	26.1	-90.5	6.6
2025-01-16 09:15:39.812416	35.6	26.5	-90.4	9.2
2025-01-16 09:15:42.109967	35.9	26.8	-90.7	5.8
2025-01-16 09:15:44.412791	36.1	27.2	-91.4	10.9
2025-01-16 09:15:46.718447	36.4	27.5	-91.4	11.3
2025-01-16 09:15:49.021506	36.7	27.9	-91.5	9.1
2025-01-16 09:15:51.318619	37.0	28.3	-91.1	6.0
2025-01-16 09:15:53.619617	37.3	28.6	-91.0	10.0
2025-01-16 09:15:55.924482	37.6	29.0	-91.3	7.7
2025-01-16 09:15:58.227092	37.9	29.4	-91.1	10.8
2025-01-16 09:16:00.531719	38.2	29.8	-91.3	8.5
2025-01-16 09:16:02.830239	38.5	30.2	-91.5	13.3
2025-01-16 09:16:05.138830	38.9	30.6	-90.8	10.3
2025-01-16 09:16:07.444612	39.2	31.0	-90.9	11.3
2025-01-16 09:16:09.744100	39.5	31.4	-91.2	13.3
2025-01-16 09:16:12.044292	39.9	31.8	-90.9	14.4
2025-01-16 09:16:14.347692	40.3	32.2	-90.5	11.5
2025-01-16 09:16:16.659535	40.6	32.6	-90.5	12.6
2025-01-16 09:16:18.958573	41.0	33.0	-90.6	10.8
2025-01-16 09:16:21.251549	41.4	33.5	-91.3	17.2
2025-01-16 09:16:23.568370	41.8	33.9	-90.9	14.0
2025-01-16 09:16:25.866932	42.2	34.3	-90.8	15.0
2025-01-16 09:16:28.174708	42.6	34.8	-90.7	14.4
2025-01-16 09:16:30.476209	43.1	35.2	-90.7	13.3
2025-01-16 09:16:32.781312	43.5	35.7	-91.1	15.1
2025-01-16 09:16:35.082626	44.0	36.1	-91.4	5.6
2025-01-16 09:16:37.384919	44.4	36.6	-91.2	13.6
2025-01-16 09:16:39.686148	44.9	37.0	-89.3	15.2
2025-01-16 09:16:41.984967	45.4	37.5	-91.0	16.5
2025-01-16 09:16:44.287530	45.9	38.0	-91.2	17.2
2025-01-16 09:16:46.599940	46.5	38.4	-91.2	13.5
2025-01-16 09:16:48.898142	47.0	38.9	-90.9	18.4
2025-01-16 09:16:51.201652	47.6	39.4	-90.2	14.9
2025-01-16 09:16:53.510896	48.1	39.9	-90.0	11.2
2025-01-16 09:16:55.802513	48.7	40.4	-90.5	15.3
2025-01-16 09:16:58.101419	49.3	40.9	-90.9	7.4
2025-01-16 09:17:00.399246	50.0	41.4	-90.8	15.0
2025-01-16 09:17:02.695980	50.6	41.9	-91.3	17.4
2025-01-16 09:17:04.994990	51.3	42.4	-91.4	14.4
2025-01-16 09:17:07.300638	52.0	42.9	-91.1	19.5
2025-01-16 09:17:09.596018	52.7	43.4	-91.6	12.8
2025-01-16 09:17:11.892937	53.4	43.9	-91.2	15.1
2025-01-16 09:17:14.186694	54.2	44.4	-91.4	16.4
2025-01-16 09:17:16.484110	54.9	44.9	-91.3	8.7
2025-01-16 09:17:18.786534	55.7	45.4	-91.2	15.9
2025-01-16 09:17:21.084069	56.6	45.9	-91.4	6.6
2025-01-16 09:17:23.379987	57.4	46.4	-91.1	12.1
2025-01-16 09:17:25.671108	58.3	46.9	-91.4	15.1
2025-01-16 09:17:27.968794	59.2	47.5	-91.5	12.7
2025-01-16 09:17:30.269924	60.2	48.0	-91.3	13.3
2025-01-16 09:17:32.570905	61.1	48.5	-91.2	7.7
2025-01-16 09:17:34.867246	62.1	49.0	-91.5	15.2
2025-01-16 09:17:37.173541	63.2	49.5	-91.4	11.4
2025-01-16 09:17:39.466927	64.3	50.0	-91.5	7.1
2025-01-16 09:17:41.761116	65.4	50.4	-91.3	9.8
2025-01-16 09:17:44.063611	66.5	50.9	-91.3	5.3
2025-01-16 09:17:46.360140	67.7	51.4	-91.4	9.9
2025-01-16 09:17:48.656467	68.9	51.9	-91.6	8.8
2025-01-16 09:17:50.956147	70.2	52.3	-91.5	13.8
2025-01-16 09:17:53.251785	71.5	52.8	-91.2	14.6
2025-01-16 09:17:55.556149	72.8	53.2	-91.2	16.6
2025-01-16 09:17:57.854853	74.2	53.6	-91.4	18.9
2025-01-16 09:18:00.145112	75.6	54.0	-91.5	12.8
2025-01-16 09:18:02.440020	77.0	54.4	-91.2	9.8
2025-01-16 09:18:04.739531	78.5	54.8	-91.3	14.1
2025-01-16 09:18:07.034833	80.1	55.2	-91.3	14.2
2025-01-16 09:18:09.328608	81.6	55.5	-91.2	14.4
2025-01-16 09:18:11.624868	83.2	55.8	-91.3	15.6
2025-01-16 09:18:13.924589	84.9	56.1	-91.4	11.5
2025-01-16 09:18:16.215597	86.5	56.4	-91.4	17.9
2025-01-16 09:18:18.520020	88.3	56.7	-91.2	11.6
2025-01-16 09:18:20.819697	90.0	56.9	-91.3	15.2
2025-01-16 09:18:23.114583	91.8	57.1	-91.3	10.5
2025-01-16 09:18:25.407502	93.6	57.3	-91.0	9.9
2025-01-16 09:18:27.710595	95.4	57.5	-91.0	19.8
2025-01-16 09:18:30.022165	97.3	57.6	-91.2	10.3
2025-01-16 09:18:32.323221	99.1	57.7	-91.1	14.6
2025-01-16 09:18:34.619934	101.0	57.8	-91.2	12.2
2025-01-16 09:18:36.919407	102.9	57.9	-90.7	12.1
2025-01-16 09:18:39.214400	104.7	57.9	-91.2	15.2
2025-01-16 09:18:41.506776	106.6	57.9	-91.1	11.8
2025-01-16 09:18:43.797162	108.5	57.8	-90.5	11.1
2025-01-16 09:18:46.094865	110.4	57.8	-90.8	9.0
2025-01-16 09:18:48.394497	112.3	57.7	-90.6	4.7
2025-01-16 09:18:50.699733	114.1	57.6	-90.7	17.2
2025-01-16 09:18:53.008505	116.0	57.4	-90.6	11.8
2025-01-16 09:18:55.305745	117.8	57.2	-90.4	15.3
2025-01-16 09:18:57.609237	119.6	57.0	-90.6	13.3
2025-01-16 09:18:59.905992	121.3	56.8	-90.6	10.1
2025-01-16 09:19:02.212802	123.1	56.5	-91.2	10.4
2025-01-16 09:19:04.510308	124.7	56.3	-90.4	8.2
2025-01-16 09:19:06.811174	126.4	56.0	-90.5	18.3
2025-01-16 09:19:09.108922	128.0	55.7	-90.6	9.8
2025-01-16 09:19:11.414798	129.6	55.3	-90.4	10.3
2025-01-16 09:19:13.706058	131.2	55.0	-91.5	13.7
2025-01-16 09:19:15.996311	132.7	54.6	-91.1	9.2
2025-01-16 09:19:18.290432	134.2	54.2	-90.5	16.4
2025-01-16 09:19:20.588490	135.6	53.8	-91.3	9.1
2025-01-16 09:19:22.888491	137.0	53.4	-91.3	14.2
2025-01-16 09:19:25.183380	138.4	52.9	-91.0	10.8
2025-01-16 09:19:27.481625	139.7	52.5	-91.0	7.8
2025-01-16 09:19:29.780757	140.9	52.0	-91.0	6.0
2025-01-16 09:19:32.077592	142.2	51.6	-90.9	5.7
2025-01-16 09:19:34.374722	143.4	51.1	-90.7	11.2
2025-01-16 09:19:36.678881	144.5	50.6	-90.8	9.9
2025-01-16 09:19:38.974862	145.7	50.1	-91.1	7.5
2025-01-16 09:19:41.276348	146.8	49.6	-91.0	7.5
2025-01-16 09:19:43.571996	147.8	49.1	-91.2	9.4
2025-01-16 09:19:45.869214	148.8	48.6	-91.1	9.2
2025-01-16 09:19:48.165734	149.8	48.1	-90.7	5.0
2025-01-16 09:19:50.466080	150.8	47.6	-91.3	9.1
2025-01-16 09:19:52.771258	151.7	47.1	-90.9	15.3
2025-01-16 09:19:55.073368	152.6	46.6	-91.0	12.9
2025-01-16 09:19:57.371569	153.5	46.1	-91.0	13.2
2025-01-16 09:19:59.666781	154.3	45.6	-91.1	13.0
2025-01-16 09:20:01.961276	155.2	45.1	-91.1	12.0
2025-01-16 09:20:04.253147	155.9	44.5	-91.3	15.6
2025-01-16 09:20:06.552276	156.7	44.0	-91.0	8.1
2025-01-16 09:20:08.855134	157.5	43.5	-91.2	16.9
2025-01-16 09:20:11.145197	158.2	43.0	-91.1	11.1
2025-01-16 09:20:13.438567	158.9	42.5	-91.0	14.5
2025-01-16 09:20:15.741126	159.6	42.0	-91.3	14.5
2025-01-16 09:20:18.037164	160.2	41.5	-91.1	10.7
2025-01-16 09:20:20.334059	160.8	41.0	-91.0	13.9
2025-01-16 09:20:22.632122	161.5	40.5	-91.5	16.5
2025-01-16 09:20:24.936513	162.1	40.0	-91.4	11.7
2025-01-16 09:20:27.230305	162.6	39.5	-91.1	5.9
2025-01-16 09:20:29.529661	163.2	39.0	-91.3	8.3
2025-01-16 09:20:31.832745	163.8	38.5	-90.7	13.1
2025-01-16 09:20:34.132367	164.3	38.1	-91.2	6.7
2025-01-16 09:20:36.435719	164.8	37.6	-90.9	8.0
2025-01-16 09:20:38.735908	165.3	37.1	-91.5	11.0
2025-01-16 09:20:41.049589	165.8	36.6	-91.1	12.4
2025-01-16 09:20:43.350723	166.3	36.2	-90.8	11.3
2025-01-16 09:20:45.649605	166.8	35.7	-91.2	11.2
2025-01-16 09:20:47.951825	167.2	35.3	-91.0	7.4
2025-01-16 09:20:50.260744	167.6	34.8	-90.7	7.2
2025-01-16 09:20:52.565695	168.1	34.4	-90.6	10.2
2025-01-16 09:20:54.856227	168.5	33.9	-91.1	12.5
2025-01-16 09:20:57.157686	168.9	33.5	-91.1	13.7
2025-01-16 09:20:59.463538	169.3	33.1	-91.2	12.4
2025-01-16 09:21:01.766995	169.7	32.6	-91.3	14.8
2025-01-16 09:21:04.062037	170.1	32.2	-90.8	11.0
2025-01-16 09:21:06.357953	170.4	31.8	-91.1	11.7
2025-01-16 09:21:08.664434	170.8	31.4	-90.7	13.3
2025-01-16 09:21:10.974576	171.1	31.0	-90.9	7.5
2025-01-16 09:21:13.277692	171.5	30.6	-91.0	6.9
2025-01-16 09:21:15.582706	171.8	30.2	-90.7	6.3
2025-01-16 09:21:17.889310	172.1	29.8	-91.0	8.5
2025-01-16 09:21:20.186345	172.5	29.4	-91.1	9.7
2025-01-16 09:21:22.498226	172.8	29.0	-91.0	10.0
2025-01-16 09:21:24.800917	173.1	28.6	-91.2	11.1
2025-01-16 09:21:27.101231	173.4	28.2	-90.8	7.0
2025-01-16 09:21:29.403976	173.7	27.9	-90.9	7.2
2025-01-16 09:21:31.711560	173.9	27.5	-91.3	11.1
2025-01-16 09:21:34.010741	174.2	27.1	-90.9	10.1
2025-01-16 09:21:36.311224	174.5	26.8	-91.2	11.3
2025-01-16 09:21:38.622024	174.8	26.4	-91.2	8.6
2025-01-16 09:21:40.918723	175.0	26.1	-91.0	6.8
2025-01-16 09:21:43.226148	175.3	25.7	-91.1	6.6
2025-01-16 09:21:45.527658	175.5	25.4	-91.0	5.4
2025-01-16 09:21:47.825575	175.8	25.0	-91.4	9.7
2025-01-16 09:21:50.126244	176.0	24.7	-91.5	7.9
2025-01-16 09:21:52.418047	176.2	24.4	-91.5	9.3
2025-01-16 09:21:54.710884	176.5	24.0	-91.1	9.4
2025-01-16 09:21:57.014593	176.7	23.7	-91.7	6.9
2025-01-16 09:21:59.314015	176.9	23.4	-91.4	8.7
2025-01-16 09:22:01.620527	177.1	23.1	-91.5	9.2
2025-01-16 09:22:03.912816	177.3	22.8	-91.4	10.1
2025-01-16 09:22:06.212136	177.5	22.4	-91.4	13.2
2025-01-16 09:22:08.503882	177.8	22.1	-91.4	13.9
2025-01-16 09:22:10.808279	178.0	21.8	-91.5	10.8
2025-01-16 09:22:13.109058	178.1	21.5	-91.3	4.5
2025-01-16 09:22:15.399684	178.3	21.2	-91.2	4.4
2025-01-16 09:22:17.708154	178.5	20.9	-91.2	3.2
2025-01-16 09:22:20.006642	178.7	20.6	-91.5	5.7
2025-01-16 09:22:22.300641	178.9	20.4	-91.5	11.7
2025-01-16 09:22:24.596867	179.1	20.1	-91.6	11.8
2025-01-16 09:22:26.892226	179.3	19.8	-91.5	11.7
2025-01-16 09:22:29.194091	179.4	19.5	-90.8	10.2
2025-01-16 09:22:31.486441	179.6	19.2	-91.0	6.7
2025-01-16 09:22:33.784664	179.8	19.0	-91.2	4.3
2025-01-16 09:22:36.090633	179.9	18.7	-91.3	3.5
2025-01-16 09:22:38.379626	180.1	18.4	-90.6	4.4
2025-01-16 09:22:40.694810	180.3	18.1	-90.8	5.9
2025-01-16 09:22:42.992615	180.4	17.9	-90.6	5.4
2025-01-16 09:22:45.291271	180.6	17.6	-91.2	5.0
2025-01-16 09:22:47.599348	180.7	17.4	-91.7	3.7
2025-01-16 09:22:49.906974	180.9	17.1	-91.3	6.0
2025-01-16 09:22:52.212292	181.0	16.8	-91.3	6.3
2025-01-16 09:22:54.514065	181.2	16.6	-91.5	7.4
2025-01-16 09:22:56.814024	181.3	16.3	-90.9	3.4
2025-01-16 09:22:59.119697	181.5	16.1	-90.8	6.2
2025-01-16 09:23:01.417120	181.6	15.9	-90.5	4.7
2025-01-16 09:23:03.716496	181.7	15.6	-90.9	6.1
2025-01-16 09:23:06.002981	181.9	15.4	-90.5	6.4
2025-01-16 09:23:08.301673	182.0	15.1	-90.9	5.1
2025-01-16 09:23:10.597762	182.1	14.9	-90.8	3.5
2025-01-16 09:23:12.891452	182.3	14.7	-91.2	5.7
#Closed at: 2025-01-16 09:14:12.192326