passes_logs/2025/01/16/LEX_Murmansk/LEX_Murmansk__20250116_152911_NOAA_19_rec.log

#Pass ID: 20250116_152911_NOAA 19
#Satellite: NOAA 19
#Configuration: NOAA 19
#Start time: 2025-01-16 15:29:06.895848

#LorettStation: 1.0.0 05.05.2024
#Station: LEX_Murmansk
#Location: 33.156738 lon 68.926811 lat
#TLE: 1 33591U 09005A   25016.13687281  .00000278  00000+0  17226-3 0  9992
#TLE: 2 33591  99.0193  79.9081 0014432  54.5182 305.7334 14.13260212821702

#Time	Az	El	Level	SNR
2025-01-16 15:29:19.057904	87.2	16.1	-87.4	4.7
2025-01-16 15:29:20.199723	87.1	16.2	-87.5	5.1
2025-01-16 15:29:21.349986	87.0	16.3	-87.6	2.8
2025-01-16 15:29:22.489159	86.8	16.4	-87.8	3.4
2025-01-16 15:29:23.635622	86.7	16.5	-87.7	7.0
2025-01-16 15:29:24.782771	86.5	16.6	-87.5	5.3
2025-01-16 15:29:25.930726	86.4	16.8	-88.3	9.6
2025-01-16 15:29:27.079006	86.3	16.9	-89.2	9.4
2025-01-16 15:29:28.230527	86.1	17.0	-88.2	5.7
2025-01-16 15:29:29.379199	86.0	17.1	-87.1	4.5
2025-01-16 15:29:30.521633	85.8	17.2	-87.5	3.2
2025-01-16 15:29:31.667926	85.7	17.3	-88.3	3.0
2025-01-16 15:29:32.805717	85.5	17.4	-87.7	2.4
2025-01-16 15:29:33.931649	85.4	17.5	-87.3	4.2
2025-01-16 15:29:35.081365	85.2	17.6	-87.4	4.6
2025-01-16 15:29:36.221076	85.1	17.7	-87.4	2.2
2025-01-16 15:29:37.364388	84.9	17.8	-87.6	4.7
2025-01-16 15:29:38.502848	84.8	17.9	-87.5	4.8
2025-01-16 15:29:39.648790	84.6	18.1	-88.1	4.8
2025-01-16 15:29:40.794764	84.4	18.2	-87.7	2.8
2025-01-16 15:29:41.941270	84.3	18.3	-87.4	4.1
2025-01-16 15:29:43.089006	84.1	18.4	-88.1	5.9
2025-01-16 15:29:44.235025	84.0	18.5	-87.6	5.8
2025-01-16 15:29:45.379888	83.8	18.6	-87.7	5.0
2025-01-16 15:29:46.528185	83.6	18.7	-87.8	5.6
2025-01-16 15:29:47.673223	83.5	18.8	-87.3	3.0
2025-01-16 15:29:48.926307	83.3	19.0	-87.5	3.0
2025-01-16 15:29:50.079939	83.1	19.1	-87.6	4.9
2025-01-16 15:29:51.224952	82.9	19.2	-87.6	3.2
2025-01-16 15:29:52.373009	82.8	19.3	-87.6	4.1
2025-01-16 15:29:53.514356	82.6	19.4	-88.2	5.0
2025-01-16 15:29:54.664759	82.4	19.5	-87.6	7.5
2025-01-16 15:29:55.813535	82.3	19.7	-88.0	9.7
2025-01-16 15:29:56.963908	82.1	19.8	-88.0	6.9
2025-01-16 15:29:58.113500	81.9	19.9	-87.7	6.8
2025-01-16 15:29:59.261114	81.7	20.0	-88.1	2.9
2025-01-16 15:30:00.407457	81.5	20.1	-87.2	4.5
2025-01-16 15:30:01.557182	81.4	20.2	-88.5	5.0
2025-01-16 15:30:02.700000	81.2	20.3	-88.2	5.9
2025-01-16 15:30:03.856738	81.0	20.5	-87.7	3.0
2025-01-16 15:30:05.007202	80.8	20.6	-87.7	5.1
2025-01-16 15:30:06.154441	80.6	20.7	-88.1	4.2
2025-01-16 15:30:07.306323	80.4	20.8	-87.8	2.2
2025-01-16 15:30:08.470239	80.2	20.9	-87.7	2.9
2025-01-16 15:30:09.616932	80.1	21.1	-88.0	3.2
2025-01-16 15:30:10.764301	79.9	21.2	-87.8	4.8
2025-01-16 15:30:11.917425	79.7	21.3	-88.0	2.5
2025-01-16 15:30:13.065188	79.5	21.4	-87.9	4.7
2025-01-16 15:30:14.215128	79.3	21.5	-87.4	6.8
2025-01-16 15:30:15.362170	79.1	21.6	-87.4	6.8
2025-01-16 15:30:16.512621	78.9	21.8	-88.2	8.1
2025-01-16 15:30:17.664731	78.7	21.9	-88.0	7.4
2025-01-16 15:30:18.829436	78.5	22.0	-87.9	5.1
2025-01-16 15:30:19.962629	78.3	22.1	-87.9	4.9
2025-01-16 15:30:21.082903	78.1	22.2	-87.4	6.9
2025-01-16 15:30:22.204080	77.9	22.4	-87.6	5.0
2025-01-16 15:30:23.324792	77.7	22.5	-87.8	7.7
2025-01-16 15:30:24.446276	77.4	22.6	-87.4	6.9
2025-01-16 15:30:25.567064	77.2	22.7	-87.8	6.8
2025-01-16 15:30:26.688057	77.0	22.8	-88.5	3.6
2025-01-16 15:30:27.809796	76.8	22.9	-88.3	2.0
2025-01-16 15:30:28.930216	76.6	23.1	-88.8	2.2
2025-01-16 15:30:30.072447	76.4	23.2	-88.5	3.1
2025-01-16 15:30:31.221393	76.2	23.3	-88.0	2.7
2025-01-16 15:30:32.370578	75.9	23.4	-87.9	4.1
2025-01-16 15:30:33.518005	75.7	23.5	-87.8	6.6
2025-01-16 15:30:34.647591	75.5	23.7	-88.0	6.8
2025-01-16 15:30:35.782748	75.3	23.8	-88.4	5.9
2025-01-16 15:30:36.927445	75.0	23.9	-88.2	3.8
2025-01-16 15:30:38.063746	74.8	24.0	-88.2	4.3
2025-01-16 15:30:39.209332	74.6	24.1	-87.9	1.8
2025-01-16 15:30:40.359272	74.3	24.3	-87.9	2.2
2025-01-16 15:30:41.504445	74.1	24.4	-88.0	4.5
2025-01-16 15:30:42.643521	73.9	24.5	-88.0	2.5
2025-01-16 15:30:43.773006	73.6	24.6	-87.7	1.9
2025-01-16 15:30:44.909438	73.4	24.7	-88.7	4.3
2025-01-16 15:30:46.048187	73.2	24.9	-87.6	5.8
2025-01-16 15:30:47.196924	72.9	25.0	-88.3	3.4
2025-01-16 15:30:48.337954	72.7	25.1	-87.9	2.6
2025-01-16 15:30:49.485122	72.4	25.2	-88.9	2.4
2025-01-16 15:30:50.627406	72.2	25.3	-89.6	2.8
2025-01-16 15:30:51.779623	71.9	25.5	-89.3	2.1
2025-01-16 15:30:52.901360	71.7	25.6	-88.5	1.9
2025-01-16 15:30:54.037385	71.4	25.7	-87.9	2.8
2025-01-16 15:30:55.193969	71.1	25.8	-87.9	2.7
2025-01-16 15:30:56.334652	70.9	25.9	-88.3	2.6
2025-01-16 15:30:57.477342	70.6	26.0	-88.0	3.4
2025-01-16 15:30:58.620029	70.4	26.2	-88.8	3.7
2025-01-16 15:30:59.770692	70.1	26.3	-88.8	4.2
2025-01-16 15:31:00.915485	69.8	26.4	-88.1	4.0
2025-01-16 15:31:02.061980	69.5	26.5	-89.0	2.7
2025-01-16 15:31:03.211375	69.3	26.6	-88.0	2.5
2025-01-16 15:31:04.355280	69.0	26.8	-88.1	3.4
2025-01-16 15:31:05.508694	68.7	26.9	-88.8	3.7
2025-01-16 15:31:06.655200	68.4	27.0	-88.8	3.6
2025-01-16 15:31:07.808158	68.2	27.1	-88.4	2.9
2025-01-16 15:31:08.958559	67.9	27.2	-88.3	3.5
2025-01-16 15:31:10.104084	67.6	27.4	-89.3	0.6
2025-01-16 15:31:11.250717	67.3	27.5	-87.9	2.1
2025-01-16 15:31:12.403144	67.0	27.6	-87.8	1.2
2025-01-16 15:31:13.555354	66.7	27.7	-88.3	3.7
2025-01-16 15:31:14.703154	66.4	27.8	-88.2	3.0
2025-01-16 15:31:15.857517	66.1	27.9	-88.3	2.7
2025-01-16 15:31:17.011450	65.8	28.1	-88.7	4.0
2025-01-16 15:31:18.156503	65.5	28.2	-88.7	2.7
2025-01-16 15:31:19.303402	65.2	28.3	-88.8	3.9
2025-01-16 15:31:20.453964	64.9	28.4	-89.2	2.2
2025-01-16 15:31:21.613229	64.6	28.5	-88.9	3.2
2025-01-16 15:31:22.760839	64.3	28.6	-88.3	4.0
2025-01-16 15:31:23.909010	64.0	28.7	-88.7	2.3
2025-01-16 15:31:25.061085	63.7	28.9	-88.5	5.0
2025-01-16 15:31:26.199128	63.3	29.0	-88.1	3.6
2025-01-16 15:31:27.342136	63.0	29.1	-88.6	1.4
2025-01-16 15:31:28.490085	62.7	29.2	-88.4	4.3
2025-01-16 15:31:29.638822	62.4	29.3	-88.3	4.0
2025-01-16 15:31:30.786388	62.1	29.4	-89.7	6.0
2025-01-16 15:31:31.940379	61.7	29.5	-89.0	2.2
2025-01-16 15:31:33.087362	61.4	29.6	-88.5	3.7
2025-01-16 15:31:34.234078	61.1	29.7	-88.5	7.3
2025-01-16 15:31:35.389273	60.7	29.8	-88.3	5.7
2025-01-16 15:31:36.539186	60.4	29.9	-88.3	6.4
2025-01-16 15:31:37.694117	60.0	30.0	-88.5	4.7
2025-01-16 15:31:38.842999	59.7	30.2	-89.1	4.4
2025-01-16 15:31:39.990861	59.4	30.3	-88.3	5.4
2025-01-16 15:31:41.137569	59.0	30.4	-88.1	5.7
2025-01-16 15:31:42.290425	58.7	30.5	-88.1	2.8
2025-01-16 15:31:43.433451	58.3	30.6	-88.1	5.0
2025-01-16 15:31:44.579764	58.0	30.7	-88.3	6.3
2025-01-16 15:31:45.725791	57.6	30.8	-88.9	5.8
2025-01-16 15:31:46.883790	57.3	30.9	-88.4	9.2
2025-01-16 15:31:48.037134	56.9	31.0	-89.3	11.5
2025-01-16 15:31:49.186416	56.5	31.1	-88.4	11.3
2025-01-16 15:31:50.330947	56.2	31.1	-88.6	9.2
2025-01-16 15:31:51.473176	55.8	31.2	-88.5	7.5
2025-01-16 15:31:52.620961	55.4	31.3	-88.0	5.3
2025-01-16 15:31:53.768460	55.1	31.4	-88.9	5.0
2025-01-16 15:31:54.913018	54.7	31.5	-88.6	2.7
2025-01-16 15:31:56.040259	54.3	31.6	-88.5	5.6
2025-01-16 15:31:57.160819	54.0	31.7	-88.3	4.8
2025-01-16 15:31:58.281609	53.6	31.8	-88.2	5.2
2025-01-16 15:31:59.402286	53.2	31.9	-88.3	7.9
2025-01-16 15:32:00.524157	52.9	32.0	-88.4	11.1
2025-01-16 15:32:01.644313	52.5	32.0	-88.8	11.7
2025-01-16 15:32:02.765532	52.1	32.1	-88.4	9.6
2025-01-16 15:32:03.889460	51.7	32.2	-88.6	11.6
2025-01-16 15:32:05.010011	51.3	32.3	-88.9	10.4
2025-01-16 15:32:06.153834	51.0	32.4	-88.8	9.5
2025-01-16 15:32:07.297380	50.6	32.4	-88.8	6.4
2025-01-16 15:32:08.443800	50.2	32.5	-88.7	7.0
2025-01-16 15:32:09.572985	49.8	32.6	-88.7	6.4
2025-01-16 15:32:10.704694	49.4	32.7	-88.6	4.5
2025-01-16 15:32:11.850190	49.0	32.7	-88.7	2.1
2025-01-16 15:32:12.988931	48.6	32.8	-88.6	5.1
2025-01-16 15:32:14.142587	48.2	32.9	-88.4	6.2
2025-01-16 15:32:15.288579	47.8	32.9	-88.5	2.9
2025-01-16 15:32:16.433248	47.4	33.0	-88.2	4.5
2025-01-16 15:32:17.589511	47.0	33.1	-88.4	5.9
2025-01-16 15:32:18.740070	46.6	33.1	-88.5	5.9
2025-01-16 15:32:19.890441	46.1	33.2	-88.7	9.0
2025-01-16 15:32:21.041322	45.7	33.3	-88.4	9.5
2025-01-16 15:32:22.193043	45.3	33.3	-88.4	13.0
2025-01-16 15:32:23.341455	44.9	33.4	-88.4	13.0
2025-01-16 15:32:24.462160	44.5	33.4	-88.6	15.3
2025-01-16 15:32:25.599170	44.1	33.5	-88.4	14.9
2025-01-16 15:32:26.742983	43.6	33.5	-88.4	12.5
2025-01-16 15:32:27.888462	43.2	33.6	-88.6	11.3
2025-01-16 15:32:29.035228	42.8	33.6	-88.2	10.3
2025-01-16 15:32:30.181117	42.4	33.7	-88.3	8.4
2025-01-16 15:32:31.326435	42.0	33.7	-88.5	5.4
2025-01-16 15:32:32.473618	41.5	33.8	-88.7	8.5
2025-01-16 15:32:33.623436	41.1	33.8	-88.7	9.1
2025-01-16 15:32:34.774308	40.7	33.9	-88.6	6.1
2025-01-16 15:32:35.919730	40.2	33.9	-89.1	6.6
2025-01-16 15:32:37.064679	39.8	33.9	-88.8	6.6
2025-01-16 15:32:38.211830	39.4	34.0	-88.7	5.1
2025-01-16 15:32:39.357387	38.9	34.0	-88.7	6.2
2025-01-16 15:32:40.510166	38.5	34.0	-88.3	8.1
2025-01-16 15:32:41.667862	38.1	34.1	-88.4	9.4
2025-01-16 15:32:42.815701	37.6	34.1	-88.7	12.1
2025-01-16 15:32:43.961984	37.2	34.1	-88.4	13.0
2025-01-16 15:32:45.109542	36.8	34.1	-88.6	12.8
2025-01-16 15:32:46.259767	36.3	34.2	-88.5	11.7
2025-01-16 15:32:47.410371	35.9	34.2	-88.1	12.4
2025-01-16 15:32:48.540698	35.4	34.2	-88.6	12.1
2025-01-16 15:32:49.678151	35.0	34.2	-88.8	9.8
2025-01-16 15:32:50.823797	34.6	34.2	-88.9	10.1
2025-01-16 15:32:51.966517	34.1	34.3	-89.1	10.5
2025-01-16 15:32:53.114277	33.7	34.3	-88.9	10.0
2025-01-16 15:32:54.252793	33.3	34.3	-89.2	10.4
2025-01-16 15:32:55.401071	32.8	34.3	-89.1	10.6
2025-01-16 15:32:56.545932	32.4	34.3	-88.7	9.5
2025-01-16 15:32:57.690617	31.9	34.3	-88.4	6.9
2025-01-16 15:32:58.833949	31.5	34.3	-88.4	6.6
2025-01-16 15:32:59.980225	31.1	34.3	-88.7	7.3
2025-01-16 15:33:01.111318	30.6	34.3	-88.8	8.2
2025-01-16 15:33:02.237762	30.2	34.3	-88.8	5.4
2025-01-16 15:33:03.384019	29.7	34.3	-88.6	6.7
2025-01-16 15:33:04.511741	29.3	34.3	-88.3	4.8
2025-01-16 15:33:05.644327	28.9	34.3	-89.0	6.5
2025-01-16 15:33:06.788709	28.4	34.2	-88.8	2.7
2025-01-16 15:33:07.922207	28.0	34.2	-89.2	3.8
2025-01-16 15:33:09.063549	27.6	34.2	-88.7	3.9
2025-01-16 15:33:10.210984	27.1	34.2	-88.6	3.5
2025-01-16 15:33:11.348573	26.7	34.2	-88.9	3.8
2025-01-16 15:33:12.502035	26.3	34.2	-89.0	4.4
2025-01-16 15:33:13.653590	25.8	34.1	-88.9	5.3
2025-01-16 15:33:14.796714	25.4	34.1	-88.5	2.8
2025-01-16 15:33:15.938939	24.9	34.1	-88.3	5.9
2025-01-16 15:33:17.083996	24.5	34.0	-88.8	2.9
2025-01-16 15:33:18.232605	24.1	34.0	-88.8	3.7
2025-01-16 15:33:19.382092	23.6	34.0	-88.6	4.9
2025-01-16 15:33:20.531144	23.2	34.0	-88.4	6.6
2025-01-16 15:33:21.678485	22.8	33.9	-87.9	6.1
2025-01-16 15:33:22.822536	22.4	33.9	-88.6	5.1
2025-01-16 15:33:23.966734	21.9	33.8	-88.6	7.5
2025-01-16 15:33:25.116076	21.5	33.8	-88.5	8.4
2025-01-16 15:33:26.268947	21.1	33.8	-88.4	6.2
2025-01-16 15:33:27.413463	20.6	33.7	-88.5	7.4
2025-01-16 15:33:28.563690	20.2	33.7	-89.0	8.1
2025-01-16 15:33:29.714983	19.8	33.6	-89.1	7.0
2025-01-16 15:33:30.861956	19.4	33.6	-88.7	8.0
2025-01-16 15:33:32.010200	18.9	33.5	-88.0	7.7
2025-01-16 15:33:33.159377	18.5	33.5	-88.8	5.9
2025-01-16 15:33:34.293780	18.1	33.4	-88.6	7.9
2025-01-16 15:33:35.428115	17.7	33.3	-88.3	9.8
2025-01-16 15:33:36.573951	17.3	33.3	-88.2	8.9
2025-01-16 15:33:37.711685	16.9	33.2	-88.5	8.0
2025-01-16 15:33:38.857398	16.5	33.2	-88.3	8.9
2025-01-16 15:33:40.002211	16.1	33.1	-88.8	7.8
2025-01-16 15:33:41.148064	15.6	33.0	-88.8	7.8
2025-01-16 15:33:42.292749	15.2	33.0	-89.0	5.0
2025-01-16 15:33:43.443485	14.8	32.9	-88.9	6.1
2025-01-16 15:33:44.596940	14.4	32.8	-88.7	9.3
2025-01-16 15:33:45.747619	14.0	32.8	-89.6	7.3
2025-01-16 15:33:46.898565	13.6	32.7	-88.2	7.8
2025-01-16 15:33:48.045599	13.2	32.6	-88.5	5.0
2025-01-16 15:33:49.197686	12.8	32.5	-88.6	7.9
2025-01-16 15:33:50.345177	12.4	32.5	-89.0	8.6
2025-01-16 15:33:51.490782	12.0	32.4	-88.4	8.5
2025-01-16 15:33:52.640072	11.7	32.3	-88.5	6.1
2025-01-16 15:33:53.785036	11.3	32.2	-89.0	9.6
2025-01-16 15:33:54.935247	10.9	32.1	-88.0	7.8
2025-01-16 15:33:56.083987	10.5	32.1	-88.8	7.9
2025-01-16 15:33:57.234394	10.1	32.0	-89.0	8.8
2025-01-16 15:33:58.379062	9.7	31.9	-88.9	9.8
2025-01-16 15:33:59.532233	9.3	31.8	-88.4	9.3
2025-01-16 15:34:00.682122	9.0	31.7	-87.9	9.5
2025-01-16 15:34:01.828970	8.6	31.6	-88.4	7.6
2025-01-16 15:34:02.986514	8.2	31.5	-88.8	9.4
2025-01-16 15:34:04.134269	7.8	31.4	-88.4	9.0
2025-01-16 15:34:05.283899	7.5	31.3	-88.3	7.4
2025-01-16 15:34:06.432002	7.1	31.3	-88.8	6.2
2025-01-16 15:34:07.589730	6.7	31.2	-88.4	6.0
2025-01-16 15:34:08.738704	6.4	31.1	-87.8	5.8
2025-01-16 15:34:09.888694	6.0	31.0	-87.4	4.9
2025-01-16 15:34:11.033992	5.7	30.9	-88.5	5.0
2025-01-16 15:34:12.181123	5.3	30.8	-90.3	5.0
2025-01-16 15:34:13.332756	5.0	30.7	-89.9	3.9
2025-01-16 15:34:14.478316	4.6	30.6	-86.5	3.2
2025-01-16 15:34:15.629800	4.3	30.5	-88.5	5.1
2025-01-16 15:34:16.769366	3.9	30.4	-89.1	4.2
2025-01-16 15:34:17.892157	3.6	30.3	-89.2	3.6
2025-01-16 15:34:19.013671	3.2	30.2	-89.8	5.4
2025-01-16 15:34:20.135360	2.9	30.1	-89.5	4.3
2025-01-16 15:34:21.255896	2.6	30.0	-88.7	3.6
2025-01-16 15:34:22.378727	2.2	29.9	-89.6	3.7
2025-01-16 15:34:23.503215	1.9	29.8	-88.5	3.5
2025-01-16 15:34:24.623575	1.6	29.7	-88.7	5.2
2025-01-16 15:34:25.746429	1.3	29.6	-88.6	4.3
2025-01-16 15:34:26.869739	1.0	29.4	-89.3	4.2
2025-01-16 15:34:28.010533	0.6	29.3	-88.6	4.4
2025-01-16 15:34:29.158187	0.3	29.2	-87.7	4.0
2025-01-16 15:34:30.309059	360.0	29.1	-88.6	3.0
2025-01-16 15:34:31.455899	359.7	29.0	-89.1	5.6
2025-01-16 15:34:32.604942	359.4	28.9	-89.0	4.8
2025-01-16 15:34:33.743671	359.0	28.8	-89.0	4.9
2025-01-16 15:34:34.875735	358.7	28.7	-88.7	3.8
2025-01-16 15:34:36.024387	358.4	28.6	-89.0	2.2
2025-01-16 15:34:37.158623	358.1	28.5	-88.7	2.7
2025-01-16 15:34:38.305084	357.8	28.3	-88.7	4.6
2025-01-16 15:34:39.453372	357.5	28.2	-89.6	3.6
2025-01-16 15:34:40.593727	357.2	28.1	-88.7	5.7
2025-01-16 15:34:41.739377	356.9	28.0	-89.2	4.3
2025-01-16 15:34:42.888615	356.6	27.9	-88.6	5.7
2025-01-16 15:34:44.038832	356.3	27.8	-88.7	6.7
2025-01-16 15:34:45.188144	356.0	27.6	-89.3	6.7
2025-01-16 15:34:46.333169	355.7	27.5	-89.3	5.9
2025-01-16 15:34:47.473004	355.5	27.4	-88.7	5.0
2025-01-16 15:34:48.616736	355.2	27.3	-88.6	5.8
2025-01-16 15:34:49.775414	354.9	27.2	-88.8	5.2
2025-01-16 15:34:50.921206	354.6	27.1	-89.3	6.1
2025-01-16 15:34:52.068729	354.3	26.9	-89.0	7.0
2025-01-16 15:34:53.219009	354.0	26.8	-89.2	5.5
2025-01-16 15:34:54.371822	353.8	26.7	-88.8	5.6
2025-01-16 15:34:55.514930	353.5	26.6	-88.6	3.6
2025-01-16 15:34:56.651472	353.2	26.5	-88.9	5.8
2025-01-16 15:34:57.776244	353.0	26.4	-88.9	3.6
2025-01-16 15:34:58.928343	352.7	26.2	-88.6	3.2
2025-01-16 15:35:00.070408	352.4	26.1	-88.7	5.7
2025-01-16 15:35:01.208406	352.2	26.0	-88.4	2.5
2025-01-16 15:35:02.351382	351.9	25.9	-88.2	2.6
2025-01-16 15:35:03.500125	351.6	25.8	-88.7	4.2
2025-01-16 15:35:04.646341	351.4	25.6	-88.8	5.7
2025-01-16 15:35:05.792168	351.1	25.5	-88.6	2.4
2025-01-16 15:35:06.935281	350.9	25.4	-89.0	5.4
2025-01-16 15:35:08.082968	350.6	25.3	-88.7	5.1
2025-01-16 15:35:09.227680	350.4	25.2	-89.1	4.4
2025-01-16 15:35:10.383090	350.1	25.0	-89.1	7.6
2025-01-16 15:35:11.538210	349.9	24.9	-88.7	7.4
2025-01-16 15:35:12.680837	349.6	24.8	-89.4	9.1
2025-01-16 15:35:13.833714	349.4	24.7	-89.3	10.0
2025-01-16 15:35:14.982917	349.2	24.6	-88.6	5.9
2025-01-16 15:35:16.138032	348.9	24.4	-88.5	8.2
2025-01-16 15:35:17.285302	348.7	24.3	-89.1	6.9
2025-01-16 15:35:18.429284	348.4	24.2	-88.9	5.9
2025-01-16 15:35:19.577287	348.2	24.1	-89.4	8.1
2025-01-16 15:35:20.722573	348.0	24.0	-89.0	4.9
2025-01-16 15:35:21.881115	347.8	23.8	-89.0	2.9
2025-01-16 15:35:23.031519	347.5	23.7	-89.0	5.7
2025-01-16 15:35:24.168711	347.3	23.6	-89.2	4.6
2025-01-16 15:35:25.298472	347.1	23.5	-88.8	2.8
2025-01-16 15:35:26.440328	346.9	23.4	-89.3	3.1
2025-01-16 15:35:27.561680	346.6	23.2	-89.4	4.8
2025-01-16 15:35:28.700311	346.4	23.1	-89.3	2.9
2025-01-16 15:35:29.850210	346.2	23.0	-89.2	4.1
2025-01-16 15:35:30.992443	346.0	22.9	-88.9	4.0
2025-01-16 15:35:32.129302	345.8	22.8	-89.3	7.1
2025-01-16 15:35:33.275927	345.6	22.7	-88.7	4.7
2025-01-16 15:35:34.423114	345.4	22.5	-88.8	6.0
2025-01-16 15:35:35.574994	345.1	22.4	-88.9	7.9
2025-01-16 15:35:36.718955	344.9	22.3	-88.6	6.4
2025-01-16 15:35:37.843743	344.7	22.2	-89.1	6.3
2025-01-16 15:35:38.984685	344.5	22.1	-88.8	7.8
2025-01-16 15:35:40.122702	344.3	21.9	-88.8	6.5
2025-01-16 15:35:41.263007	344.1	21.8	-88.7	4.3
2025-01-16 15:35:42.407955	343.9	21.7	-89.0	6.6
2025-01-16 15:35:43.553023	343.7	21.6	-88.9	4.6
2025-01-16 15:35:44.698362	343.5	21.5	-89.7	5.4
2025-01-16 15:35:45.844603	343.3	21.4	-89.4	3.1
2025-01-16 15:35:46.992905	343.2	21.2	-88.7	3.9
2025-01-16 15:35:48.141056	343.0	21.1	-89.0	4.3
2025-01-16 15:35:49.289433	342.8	21.0	-88.6	1.9
2025-01-16 15:35:50.438676	342.6	20.9	-89.0	5.1
2025-01-16 15:35:51.585686	342.4	20.8	-88.9	3.6
2025-01-16 15:35:52.734526	342.2	20.7	-88.8	4.1
2025-01-16 15:35:53.883704	342.0	20.5	-89.3	5.2
2025-01-16 15:35:55.030091	341.8	20.4	-89.1	4.3
2025-01-16 15:35:56.182099	341.7	20.3	-89.4	6.9
2025-01-16 15:35:57.320188	341.5	20.2	-88.9	7.2
2025-01-16 15:35:58.453336	341.3	20.1	-88.9	4.5
2025-01-16 15:35:59.596658	341.1	20.0	-89.4	5.0
2025-01-16 15:36:00.735479	340.9	19.9	-89.0	5.0
2025-01-16 15:36:01.869505	340.8	19.7	-89.2	3.7
2025-01-16 15:36:03.013814	340.6	19.6	-89.3	3.6
2025-01-16 15:36:04.150100	340.4	19.5	-89.0	4.1
2025-01-16 15:36:05.297223	340.3	19.4	-89.1	1.8
2025-01-16 15:36:06.443750	340.1	19.3	-89.3	2.5
2025-01-16 15:36:07.594692	339.9	19.2	-89.6	3.6
2025-01-16 15:36:08.742173	339.8	19.1	-89.1	4.1
2025-01-16 15:36:09.893574	339.6	18.9	-89.3	3.5
2025-01-16 15:36:11.041478	339.4	18.8	-89.0	3.6
2025-01-16 15:36:12.192390	339.3	18.7	-88.8	1.9
2025-01-16 15:36:13.341293	339.1	18.6	-88.9	2.4
2025-01-16 15:36:14.492238	338.9	18.5	-88.9	1.9
2025-01-16 15:36:15.643273	338.8	18.4	-89.7	2.8
2025-01-16 15:36:16.789750	338.6	18.3	-89.1	5.5
2025-01-16 15:36:17.926789	338.5	18.2	-89.4	7.4
2025-01-16 15:36:19.053233	338.3	18.1	-89.0	6.0
2025-01-16 15:36:20.198622	338.1	17.9	-89.2	4.6
2025-01-16 15:36:21.337798	338.0	17.8	-88.8	2.1
2025-01-16 15:36:22.484227	337.8	17.7	-89.3	3.9
2025-01-16 15:36:23.634085	337.7	17.6	-89.5	4.3
2025-01-16 15:36:24.774584	337.5	17.5	-89.1	2.2
2025-01-16 15:36:25.919898	337.4	17.4	-89.1	4.1
2025-01-16 15:36:27.070213	337.2	17.3	-89.0	2.2
2025-01-16 15:36:28.215189	337.1	17.2	-89.3	4.9
2025-01-16 15:36:29.365735	336.9	17.1	-89.2	4.1
2025-01-16 15:36:30.514070	336.8	17.0	-89.0	2.4
2025-01-16 15:36:31.660868	336.7	16.9	-89.1	2.1
2025-01-16 15:36:32.807079	336.5	16.7	-89.1	3.7
2025-01-16 15:36:33.953848	336.4	16.6	-89.1	1.4
2025-01-16 15:36:35.104942	336.2	16.5	-89.1	2.9
2025-01-16 15:36:36.255044	336.1	16.4	-89.1	4.8
2025-01-16 15:36:37.387408	336.0	16.3	-89.1	4.5
2025-01-16 15:36:38.518669	335.8	16.2	-89.6	4.8
2025-01-16 15:36:39.661238	335.7	16.1	-88.9	1.6
2025-01-16 15:36:40.800853	335.5	16.0	-89.3	1.8
2025-01-16 15:36:41.952469	335.4	15.9	-89.4	4.6
2025-01-16 15:36:43.082648	335.3	15.8	-89.0	2.4
2025-01-16 15:36:44.221978	335.1	15.7	-89.0	1.4
2025-01-16 15:36:45.370578	335.0	15.6	-89.2	2.5
2025-01-16 15:36:46.502582	334.9	15.5	-89.5	1.7
2025-01-16 15:36:47.647113	334.8	15.4	-89.2	2.2
2025-01-16 15:36:48.796031	334.6	15.3	-88.9	1.8
2025-01-16 15:36:49.939750	334.5	15.2	-88.8	1.5
2025-01-16 15:36:51.086610	334.4	15.1	-89.4	3.3
2025-01-16 15:36:52.235221	334.2	15.0	-89.8	2.4
2025-01-16 15:36:53.387696	334.1	14.9	-90.1	3.5
2025-01-16 15:36:54.535436	334.0	14.8	-89.5	2.1
2025-01-16 15:36:55.683768	333.9	14.7	-89.4	2.9
2025-01-16 15:36:56.832003	333.7	14.6	-89.5	1.9
#Closed at: 2025-01-16 15:29:11.859447