passes_logs/2025/01/16/LEX_Murmansk/LEX_Murmansk__20250116_205635_NOAA_18_rec.log

#Pass ID: 20250116_205635_NOAA 18
#Satellite: NOAA 18
#Configuration: NOAA 18
#Start time: 2025-01-16 20:56:29.977317

#LorettStation: 1.0.0 05.05.2024
#Station: LEX_Murmansk
#Location: 33.156738 lon 68.926811 lat
#TLE: 1 28654U 05018A   25016.15379782  .00000321  00000+0  19399-3 0  9994
#TLE: 2 28654  98.8565  97.1968 0014416 175.9109 184.2183 14.13487365 13346

#Time	Az	El	Level	SNR
2025-01-16 20:56:42.192446	221.7	16.0	-92.8	12.2
2025-01-16 20:56:43.355924	221.8	16.1	-93.0	7.1
2025-01-16 20:56:44.513427	222.0	16.2	-92.8	12.8
2025-01-16 20:56:45.672760	222.2	16.3	-93.0	9.0
2025-01-16 20:56:46.838419	222.3	16.3	-92.9	4.8
2025-01-16 20:56:48.007459	222.5	16.4	-92.7	7.6
2025-01-16 20:56:49.171051	222.7	16.5	-92.7	10.6
2025-01-16 20:56:50.331451	222.9	16.6	-92.9	13.4
2025-01-16 20:56:51.495971	223.0	16.7	-92.8	8.1
2025-01-16 20:56:52.662847	223.2	16.8	-93.1	8.0
2025-01-16 20:56:53.822254	223.4	16.9	-92.9	11.1
2025-01-16 20:56:54.988400	223.6	17.0	-93.1	10.9
2025-01-16 20:56:56.157739	223.8	17.1	-93.2	9.0
2025-01-16 20:56:57.326903	223.9	17.2	-92.8	15.5
2025-01-16 20:56:58.492630	224.1	17.3	-92.8	11.3
2025-01-16 20:56:59.658418	224.3	17.4	-92.8	13.0
2025-01-16 20:57:00.820534	224.5	17.5	-93.3	11.3
2025-01-16 20:57:01.985544	224.7	17.6	-93.0	14.1
2025-01-16 20:57:03.146645	224.9	17.7	-93.3	16.2
2025-01-16 20:57:04.307420	225.0	17.8	-92.5	17.0
2025-01-16 20:57:05.473443	225.2	17.9	-92.7	13.1
2025-01-16 20:57:06.640597	225.4	18.0	-93.1	11.6
2025-01-16 20:57:07.799518	225.6	18.1	-92.9	14.1
2025-01-16 20:57:08.963258	225.8	18.2	-92.8	6.2
2025-01-16 20:57:10.118733	226.0	18.3	-92.7	7.4
2025-01-16 20:57:11.273060	226.2	18.3	-93.2	13.6
2025-01-16 20:57:12.396464	226.4	18.4	-92.9	7.5
2025-01-16 20:57:13.517426	226.6	18.5	-93.4	5.2
2025-01-16 20:57:14.639234	226.8	18.6	-93.1	12.4
2025-01-16 20:57:15.759773	227.0	18.7	-92.4	11.4
2025-01-16 20:57:16.880436	227.2	18.8	-92.8	12.6
2025-01-16 20:57:18.002206	227.4	18.9	-92.7	10.5
2025-01-16 20:57:19.122901	227.5	19.0	-92.6	14.4
2025-01-16 20:57:20.248743	227.7	19.1	-92.8	16.1
2025-01-16 20:57:21.380944	227.9	19.2	-93.2	8.9
2025-01-16 20:57:22.551020	228.2	19.3	-93.2	10.1
2025-01-16 20:57:23.712567	228.4	19.4	-93.5	12.4
2025-01-16 20:57:24.866995	228.6	19.5	-93.5	10.1
2025-01-16 20:57:26.023069	228.8	19.6	-93.2	15.8
2025-01-16 20:57:27.178073	229.0	19.7	-93.4	11.7
2025-01-16 20:57:28.338278	229.2	19.8	-93.3	12.1
2025-01-16 20:57:29.504015	229.4	19.8	-93.1	11.2
2025-01-16 20:57:30.667531	229.6	19.9	-92.7	10.1
2025-01-16 20:57:31.828389	229.9	20.0	-92.5	10.0
2025-01-16 20:57:32.989506	230.1	20.1	-92.5	7.7
2025-01-16 20:57:34.150512	230.3	20.2	-93.5	12.3
2025-01-16 20:57:35.325455	230.5	20.3	-93.0	14.6
2025-01-16 20:57:36.487305	230.7	20.4	-93.4	12.5
2025-01-16 20:57:37.653204	231.0	20.5	-93.4	14.4
2025-01-16 20:57:38.811635	231.2	20.6	-93.5	14.4
2025-01-16 20:57:39.970585	231.4	20.7	-93.2	18.3
2025-01-16 20:57:41.137492	231.6	20.8	-93.2	14.3
2025-01-16 20:57:42.299167	231.9	20.9	-93.0	12.8
2025-01-16 20:57:43.468578	232.1	21.0	-93.0	14.3
2025-01-16 20:57:44.626658	232.3	21.1	-92.9	9.6
2025-01-16 20:57:45.789557	232.6	21.2	-93.2	14.1
2025-01-16 20:57:46.950822	232.8	21.3	-93.2	15.1
2025-01-16 20:57:48.112774	233.0	21.4	-93.3	11.4
2025-01-16 20:57:49.278769	233.3	21.5	-93.3	16.6
2025-01-16 20:57:50.437292	233.5	21.6	-93.6	14.1
2025-01-16 20:57:51.597335	233.8	21.7	-93.2	13.3
2025-01-16 20:57:52.757845	234.0	21.7	-93.6	18.1
2025-01-16 20:57:53.917429	234.2	21.8	-93.6	7.8
2025-01-16 20:57:55.081529	234.5	21.9	-93.1	7.8
2025-01-16 20:57:56.238564	234.7	22.0	-93.3	17.3
2025-01-16 20:57:57.400333	235.0	22.1	-93.5	12.6
2025-01-16 20:57:58.564455	235.2	22.2	-93.0	7.6
2025-01-16 20:57:59.730034	235.5	22.3	-93.1	16.0
2025-01-16 20:58:00.889872	235.7	22.4	-93.1	12.2
2025-01-16 20:58:02.051883	236.0	22.5	-93.2	15.8
2025-01-16 20:58:03.213320	236.2	22.6	-93.1	10.3
2025-01-16 20:58:04.378985	236.5	22.7	-93.4	17.9
2025-01-16 20:58:05.541719	236.7	22.8	-93.1	7.7
2025-01-16 20:58:06.704096	237.0	22.9	-92.9	10.8
2025-01-16 20:58:07.865327	237.3	23.0	-92.9	12.4
2025-01-16 20:58:09.034282	237.5	23.0	-93.2	7.0
2025-01-16 20:58:10.189588	237.8	23.1	-93.2	7.4
2025-01-16 20:58:11.350960	238.1	23.2	-93.4	6.0
2025-01-16 20:58:12.516240	238.3	23.3	-93.5	9.5
2025-01-16 20:58:13.690417	238.6	23.4	-92.7	3.3
2025-01-16 20:58:14.851486	238.9	23.5	-93.2	6.3
2025-01-16 20:58:16.020521	239.1	23.6	-93.5	3.1
2025-01-16 20:58:17.180720	239.4	23.7	-93.5	8.4
2025-01-16 20:58:18.342920	239.7	23.8	-93.3	5.4
2025-01-16 20:58:19.517874	240.0	23.8	-93.6	5.4
2025-01-16 20:58:20.689433	240.2	23.9	-93.0	7.9
2025-01-16 20:58:21.847518	240.5	24.0	-93.4	6.5
2025-01-16 20:58:23.008865	240.8	24.1	-93.3	6.0
2025-01-16 20:58:24.178402	241.1	24.2	-93.4	9.8
2025-01-16 20:58:25.340521	241.4	24.3	-93.5	13.0
2025-01-16 20:58:26.501651	241.6	24.4	-93.4	12.4
2025-01-16 20:58:27.666636	241.9	24.4	-93.5	11.0
2025-01-16 20:58:28.831305	242.2	24.5	-93.3	15.3
2025-01-16 20:58:29.995591	242.5	24.6	-93.5	15.0
2025-01-16 20:58:31.159212	242.8	24.7	-93.3	17.7
2025-01-16 20:58:32.317078	243.1	24.8	-93.4	22.0
2025-01-16 20:58:33.481780	243.4	24.9	-93.4	13.0
2025-01-16 20:58:34.639816	243.7	24.9	-93.5	12.5
2025-01-16 20:58:35.806686	244.0	25.0	-93.6	14.0
2025-01-16 20:58:36.968055	244.3	25.1	-93.2	11.2
2025-01-16 20:58:38.131234	244.6	25.2	-93.2	12.7
2025-01-16 20:58:39.297257	244.9	25.3	-93.0	18.2
2025-01-16 20:58:40.453760	245.2	25.3	-93.3	16.3
2025-01-16 20:58:41.586011	245.5	25.4	-93.3	11.1
2025-01-16 20:58:42.707086	245.8	25.5	-92.9	12.4
2025-01-16 20:58:43.828898	246.1	25.6	-93.2	12.5
2025-01-16 20:58:44.949552	246.4	25.6	-93.2	7.1
2025-01-16 20:58:46.071519	246.7	25.7	-93.2	11.0
2025-01-16 20:58:47.190943	247.0	25.8	-92.8	20.0
2025-01-16 20:58:48.312414	247.3	25.9	-93.2	15.1
2025-01-16 20:58:49.436612	247.6	25.9	-93.5	6.2
2025-01-16 20:58:50.564913	247.9	26.0	-93.1	6.5
2025-01-16 20:58:51.718285	248.2	26.1	-93.1	11.6
2025-01-16 20:58:52.867099	248.5	26.1	-93.2	14.8
2025-01-16 20:58:53.994167	248.8	26.2	-93.1	13.5
2025-01-16 20:58:55.119295	249.1	26.3	-92.9	13.0
2025-01-16 20:58:56.272548	249.4	26.4	-92.6	13.4
2025-01-16 20:58:57.422727	249.8	26.4	-93.0	16.5
2025-01-16 20:58:58.574793	250.1	26.5	-93.3	17.7
2025-01-16 20:58:59.727711	250.4	26.6	-93.4	19.7
2025-01-16 20:59:00.882058	250.7	26.6	-93.4	17.7
2025-01-16 20:59:02.047556	251.1	26.7	-93.4	22.1
2025-01-16 20:59:03.213501	251.4	26.8	-93.6	20.8
2025-01-16 20:59:04.370907	251.7	26.8	-93.4	18.1
2025-01-16 20:59:05.533527	252.0	26.9	-93.3	16.1
2025-01-16 20:59:06.703019	252.4	26.9	-93.4	19.1
2025-01-16 20:59:07.867873	252.7	27.0	-93.5	20.6
2025-01-16 20:59:09.036573	253.1	27.1	-93.5	12.6
2025-01-16 20:59:10.202623	253.4	27.1	-93.3	17.0
2025-01-16 20:59:11.364716	253.7	27.2	-93.0	15.4
2025-01-16 20:59:12.524195	254.1	27.2	-93.2	14.3
2025-01-16 20:59:13.687111	254.4	27.3	-93.0	17.6
2025-01-16 20:59:14.845274	254.8	27.3	-93.4	19.8
2025-01-16 20:59:16.008572	255.1	27.4	-93.2	17.7
2025-01-16 20:59:17.173233	255.4	27.5	-93.0	10.3
2025-01-16 20:59:18.334234	255.8	27.5	-92.9	20.7
2025-01-16 20:59:19.496821	256.1	27.6	-93.0	14.4
2025-01-16 20:59:20.654188	256.5	27.6	-93.2	13.3
2025-01-16 20:59:21.815619	256.8	27.7	-92.8	18.4
2025-01-16 20:59:22.984668	257.2	27.7	-92.6	9.6
2025-01-16 20:59:24.142504	257.5	27.8	-93.6	6.8
2025-01-16 20:59:25.304161	257.9	27.8	-93.3	10.9
2025-01-16 20:59:26.468956	258.2	27.8	-93.3	6.9
2025-01-16 20:59:27.627715	258.6	27.9	-92.7	10.0
2025-01-16 20:59:28.790316	258.9	27.9	-93.3	9.5
2025-01-16 20:59:29.955468	259.3	28.0	-93.1	12.3
2025-01-16 20:59:31.115891	259.7	28.0	-93.3	7.9
2025-01-16 20:59:32.278088	260.0	28.1	-93.3	8.8
2025-01-16 20:59:33.441678	260.4	28.1	-93.3	6.7
2025-01-16 20:59:34.605358	260.7	28.1	-93.5	11.8
2025-01-16 20:59:35.771865	261.1	28.2	-93.2	12.3
2025-01-16 20:59:36.931221	261.5	28.2	-93.4	11.9
2025-01-16 20:59:38.097628	261.8	28.2	-92.9	13.3
2025-01-16 20:59:39.257165	262.2	28.3	-93.0	15.6
2025-01-16 20:59:40.425298	262.5	28.3	-93.3	7.7
2025-01-16 20:59:41.590616	262.9	28.3	-93.1	5.5
2025-01-16 20:59:42.751368	263.3	28.4	-93.4	4.6
2025-01-16 20:59:43.918195	263.6	28.4	-93.3	6.2
2025-01-16 20:59:45.076485	264.0	28.4	-93.2	6.3
2025-01-16 20:59:46.244481	264.4	28.4	-93.4	6.2
2025-01-16 20:59:47.406100	264.7	28.5	-93.7	7.3
2025-01-16 20:59:48.568276	265.1	28.5	-93.3	7.1
2025-01-16 20:59:49.732847	265.5	28.5	-92.9	13.6
2025-01-16 20:59:50.900886	265.8	28.5	-93.2	11.4
2025-01-16 20:59:52.066190	266.2	28.6	-93.3	8.9
2025-01-16 20:59:53.233797	266.6	28.6	-92.9	16.4
2025-01-16 20:59:54.390475	266.9	28.6	-92.8	12.4
2025-01-16 20:59:55.557984	267.3	28.6	-92.8	10.8
2025-01-16 20:59:56.723833	267.7	28.6	-93.1	12.6
2025-01-16 20:59:57.891281	268.1	28.6	-93.0	13.0
2025-01-16 20:59:59.056384	268.4	28.6	-93.2	15.3
2025-01-16 21:00:00.215768	268.8	28.7	-93.5	13.9
2025-01-16 21:00:01.375822	269.2	28.7	-93.4	18.4
2025-01-16 21:00:02.540261	269.5	28.7	-93.5	11.7
2025-01-16 21:00:03.705020	269.9	28.7	-93.0	8.9
2025-01-16 21:00:04.865909	270.3	28.7	-93.0	16.3
2025-01-16 21:00:06.033287	270.7	28.7	-93.3	18.1
2025-01-16 21:00:07.199529	271.0	28.7	-93.3	16.5
2025-01-16 21:00:08.360861	271.4	28.7	-93.2	13.9
2025-01-16 21:00:09.527859	271.8	28.7	-93.5	7.7
2025-01-16 21:00:10.691577	272.2	28.7	-93.0	16.1
2025-01-16 21:00:11.851022	272.5	28.7	-93.2	12.6
2025-01-16 21:00:13.012393	272.9	28.7	-93.2	8.1
2025-01-16 21:00:14.172749	273.3	28.7	-93.1	12.7
2025-01-16 21:00:15.326927	273.6	28.7	-93.1	15.1
2025-01-16 21:00:16.499293	274.0	28.7	-93.3	6.6
2025-01-16 21:00:17.661554	274.4	28.7	-92.8	10.8
2025-01-16 21:00:18.828704	274.8	28.7	-93.4	15.4
2025-01-16 21:00:19.986650	275.1	28.6	-93.5	5.3
2025-01-16 21:00:21.151843	275.5	28.6	-93.3	7.6
2025-01-16 21:00:22.318516	275.9	28.6	-92.7	12.2
2025-01-16 21:00:23.484049	276.2	28.6	-93.2	5.5
2025-01-16 21:00:24.652399	276.6	28.6	-93.1	5.7
2025-01-16 21:00:25.818808	277.0	28.6	-93.3	6.2
2025-01-16 21:00:26.993474	277.4	28.5	-93.3	7.5
2025-01-16 21:00:28.160413	277.7	28.5	-93.2	10.3
2025-01-16 21:00:29.327070	278.1	28.5	-93.0	11.2
2025-01-16 21:00:30.487489	278.5	28.5	-93.0	9.5
2025-01-16 21:00:31.652347	278.8	28.5	-93.1	10.5
2025-01-16 21:00:32.810292	279.2	28.4	-93.2	10.5
2025-01-16 21:00:33.974495	279.6	28.4	-93.5	8.8
2025-01-16 21:00:35.132519	279.9	28.4	-93.4	13.5
2025-01-16 21:00:36.298789	280.3	28.3	-93.3	16.7
2025-01-16 21:00:37.460522	280.7	28.3	-93.3	9.6
2025-01-16 21:00:38.625253	281.0	28.3	-92.6	8.1
2025-01-16 21:00:39.784307	281.4	28.3	-93.2	8.5
2025-01-16 21:00:40.950885	281.7	28.2	-92.8	8.1
2025-01-16 21:00:42.115162	282.1	28.2	-92.7	12.5
2025-01-16 21:00:43.275837	282.5	28.2	-93.1	13.1
2025-01-16 21:00:44.434967	282.8	28.1	-92.9	8.7
2025-01-16 21:00:45.593481	283.2	28.1	-92.9	13.4
2025-01-16 21:00:46.757357	283.5	28.0	-92.6	15.3
2025-01-16 21:00:47.913080	283.9	28.0	-92.9	12.2
2025-01-16 21:00:49.077196	284.2	28.0	-93.2	9.7
2025-01-16 21:00:50.239816	284.6	27.9	-93.5	8.7
2025-01-16 21:00:51.404718	285.0	27.9	-93.3	10.7
2025-01-16 21:00:52.565804	285.3	27.8	-93.2	9.5
2025-01-16 21:00:53.728628	285.7	27.8	-93.4	8.9
2025-01-16 21:00:54.885401	286.0	27.7	-93.5	14.2
2025-01-16 21:00:56.054223	286.4	27.7	-93.4	10.1
2025-01-16 21:00:57.212076	286.7	27.6	-93.6	9.8
2025-01-16 21:00:58.377874	287.1	27.6	-92.8	5.9
2025-01-16 21:00:59.543572	287.4	27.5	-93.2	10.1
2025-01-16 21:01:00.699245	287.8	27.5	-93.3	7.4
2025-01-16 21:01:01.863315	288.1	27.4	-93.3	12.2
2025-01-16 21:01:03.024613	288.4	27.4	-93.0	11.6
2025-01-16 21:01:04.189318	288.8	27.3	-93.4	14.4
2025-01-16 21:01:05.343162	289.1	27.3	-93.8	15.3
2025-01-16 21:01:06.517120	289.5	27.2	-93.6	15.0
2025-01-16 21:01:07.680343	289.8	27.1	-93.8	15.9
2025-01-16 21:01:08.835232	290.1	27.1	-93.4	16.5
2025-01-16 21:01:09.999135	290.5	27.0	-93.3	14.2
2025-01-16 21:01:11.170359	290.8	27.0	-93.4	17.3
2025-01-16 21:01:12.331731	291.2	26.9	-93.1	16.0
2025-01-16 21:01:13.492149	291.5	26.8	-93.1	12.6
2025-01-16 21:01:14.661038	291.8	26.8	-93.4	15.2
2025-01-16 21:01:15.818631	292.1	26.7	-93.7	14.8
2025-01-16 21:01:16.981715	292.5	26.6	-93.7	11.6
2025-01-16 21:01:18.142136	292.8	26.6	-93.4	16.2
2025-01-16 21:01:19.309912	293.1	26.5	-93.4	14.9
2025-01-16 21:01:20.465607	293.5	26.4	-93.4	5.8
2025-01-16 21:01:21.624604	293.8	26.4	-93.2	11.2
2025-01-16 21:01:22.788877	294.1	26.3	-93.0	12.7
2025-01-16 21:01:23.950685	294.4	26.2	-92.6	8.0
2025-01-16 21:01:25.109351	294.7	26.2	-92.6	12.4
2025-01-16 21:01:26.274482	295.1	26.1	-92.9	8.1
2025-01-16 21:01:27.440060	295.4	26.0	-93.4	9.2
2025-01-16 21:01:28.605915	295.7	26.0	-93.2	6.0
2025-01-16 21:01:29.765481	296.0	25.9	-93.0	5.8
2025-01-16 21:01:30.924879	296.3	25.8	-93.2	5.1
2025-01-16 21:01:32.090675	296.6	25.7	-93.2	4.8
2025-01-16 21:01:33.257536	296.9	25.7	-92.6	6.7
2025-01-16 21:01:34.420798	297.3	25.6	-93.5	12.2
2025-01-16 21:01:35.577980	297.6	25.5	-93.6	7.5
2025-01-16 21:01:36.739245	297.9	25.4	-93.4	7.3
2025-01-16 21:01:37.908480	298.2	25.3	-93.4	8.3
2025-01-16 21:01:39.074400	298.5	25.3	-93.3	8.0
2025-01-16 21:01:40.244166	298.8	25.2	-93.2	10.0
2025-01-16 21:01:41.410164	299.1	25.1	-93.3	7.6
2025-01-16 21:01:42.568021	299.4	25.0	-93.7	8.9
2025-01-16 21:01:43.735698	299.7	24.9	-93.4	16.7
2025-01-16 21:01:44.896377	300.0	24.9	-93.4	4.8
2025-01-16 21:01:46.055512	300.3	24.8	-93.6	11.4
2025-01-16 21:01:47.219613	300.5	24.7	-93.7	10.6
2025-01-16 21:01:48.383603	300.8	24.6	-93.5	12.0
2025-01-16 21:01:49.545705	301.1	24.5	-93.6	6.7
2025-01-16 21:01:50.706308	301.4	24.5	-93.2	13.6
2025-01-16 21:01:51.872033	301.7	24.4	-93.4	8.5
2025-01-16 21:01:53.033168	302.0	24.3	-93.3	9.3
2025-01-16 21:01:54.191009	302.3	24.2	-93.2	14.9
2025-01-16 21:01:55.349042	302.5	24.1	-93.1	11.4
2025-01-16 21:01:56.512046	302.8	24.0	-93.0	8.1
2025-01-16 21:01:57.665436	303.1	23.9	-93.4	13.5
2025-01-16 21:01:58.828891	303.4	23.9	-93.6	19.5
2025-01-16 21:01:59.987929	303.7	23.8	-93.7	11.5
2025-01-16 21:02:01.152467	303.9	23.7	-92.9	14.0
2025-01-16 21:02:02.311072	304.2	23.6	-93.6	15.5
2025-01-16 21:02:03.474510	304.5	23.5	-93.7	19.0
2025-01-16 21:02:04.634060	304.7	23.4	-93.9	10.6
2025-01-16 21:02:05.789913	305.0	23.3	-93.7	10.7
2025-01-16 21:02:06.952367	305.3	23.2	-93.7	6.1
2025-01-16 21:02:08.118575	305.5	23.1	-93.4	5.7
2025-01-16 21:02:09.278162	305.8	23.1	-93.3	11.4
2025-01-16 21:02:10.439367	306.1	23.0	-93.3	6.5
2025-01-16 21:02:11.601547	306.3	22.9	-92.7	12.0
2025-01-16 21:02:12.766928	306.6	22.8	-93.2	15.3
2025-01-16 21:02:13.931020	306.8	22.7	-93.4	9.6
2025-01-16 21:02:15.084697	307.1	22.6	-93.2	9.9
2025-01-16 21:02:16.248354	307.4	22.5	-93.1	10.2
2025-01-16 21:02:17.408571	307.6	22.4	-93.5	7.2
2025-01-16 21:02:18.570769	307.9	22.3	-93.6	7.8
2025-01-16 21:02:19.731330	308.1	22.2	-93.7	9.7
2025-01-16 21:02:20.903224	308.4	22.1	-93.8	11.5
2025-01-16 21:02:22.074436	308.6	22.0	-93.4	4.8
2025-01-16 21:02:23.231299	308.9	21.9	-93.6	11.4
2025-01-16 21:02:24.397355	309.1	21.9	-93.3	7.6
2025-01-16 21:02:25.556029	309.3	21.8	-93.4	3.7
2025-01-16 21:02:26.714274	309.6	21.7	-93.1	9.3
2025-01-16 21:02:27.874332	309.8	21.6	-93.3	6.8
2025-01-16 21:02:29.039361	310.1	21.5	-93.3	6.2
2025-01-16 21:02:30.198139	310.3	21.4	-93.3	10.7
2025-01-16 21:02:31.363906	310.5	21.3	-92.5	10.9
2025-01-16 21:02:32.520131	310.8	21.2	-93.0	6.1
2025-01-16 21:02:33.683850	311.0	21.1	-93.3	5.7
2025-01-16 21:02:34.844605	311.2	21.0	-93.7	7.5
2025-01-16 21:02:35.999625	311.5	20.9	-94.2	4.5
2025-01-16 21:02:37.161136	311.7	20.8	-93.5	7.2
2025-01-16 21:02:38.319881	311.9	20.7	-93.4	8.3
2025-01-16 21:02:39.473298	312.2	20.6	-93.5	8.5
2025-01-16 21:02:40.640555	312.4	20.5	-93.7	9.9
2025-01-16 21:02:41.804843	312.6	20.4	-93.6	6.8
2025-01-16 21:02:42.963018	312.8	20.3	-93.7	7.5
2025-01-16 21:02:44.129606	313.1	20.2	-93.6	7.0
2025-01-16 21:02:45.287456	313.3	20.2	-93.5	11.4
2025-01-16 21:02:46.454659	313.5	20.1	-93.4	4.9
2025-01-16 21:02:47.613835	313.7	20.0	-93.3	5.2
2025-01-16 21:02:48.774157	313.9	19.9	-93.4	4.3
2025-01-16 21:02:49.937694	314.1	19.8	-93.5	5.5
2025-01-16 21:02:51.095674	314.4	19.7	-93.1	5.4
2025-01-16 21:02:52.258786	314.6	19.6	-93.3	5.1
2025-01-16 21:02:53.433366	314.8	19.5	-93.4	5.7
2025-01-16 21:02:54.596361	315.0	19.4	-93.4	5.6
2025-01-16 21:02:55.756777	315.2	19.3	-93.0	4.3
2025-01-16 21:02:56.919852	315.4	19.2	-93.0	4.1
2025-01-16 21:02:58.082154	315.6	19.1	-93.3	5.6
2025-01-16 21:02:59.248797	315.8	19.0	-93.0	4.0
2025-01-16 21:03:00.408968	316.0	18.9	-93.4	4.2
2025-01-16 21:03:01.574083	316.2	18.8	-93.4	4.6
2025-01-16 21:03:02.738886	316.4	18.7	-93.6	6.1
2025-01-16 21:03:03.903966	316.6	18.6	-93.5	11.3
2025-01-16 21:03:05.065001	316.8	18.5	-93.6	16.6
2025-01-16 21:03:06.226789	317.0	18.4	-93.5	12.6
2025-01-16 21:03:07.394209	317.2	18.3	-93.6	5.2
2025-01-16 21:03:08.558051	317.4	18.2	-93.2	6.1
2025-01-16 21:03:09.723478	317.6	18.1	-93.2	7.0
2025-01-16 21:03:10.886754	317.8	18.0	-93.1	13.1
2025-01-16 21:03:12.048056	318.0	17.9	-93.4	6.2
2025-01-16 21:03:13.207440	318.2	17.9	-93.3	8.7
2025-01-16 21:03:14.352126	318.4	17.8	-93.4	7.0
2025-01-16 21:03:15.506943	318.6	17.7	-93.6	6.3
2025-01-16 21:03:16.669609	318.7	17.6	-93.7	5.5
2025-01-16 21:03:17.826394	318.9	17.5	-93.6	4.3
2025-01-16 21:03:18.971466	319.1	17.4	-93.7	6.3
2025-01-16 21:03:20.093660	319.3	17.3	-93.6	3.7
2025-01-16 21:03:21.215553	319.5	17.2	-93.7	4.6
2025-01-16 21:03:22.335697	319.6	17.1	-93.6	6.7
2025-01-16 21:03:23.456482	319.8	17.0	-93.3	6.4
2025-01-16 21:03:24.577549	320.0	16.9	-93.5	7.1
2025-01-16 21:03:25.698169	320.2	16.8	-93.5	11.1
2025-01-16 21:03:26.824542	320.3	16.7	-93.4	7.6
2025-01-16 21:03:27.945119	320.5	16.7	-93.7	6.9
2025-01-16 21:03:29.106056	320.7	16.6	-93.4	8.0
2025-01-16 21:03:30.266040	320.8	16.5	-93.5	5.8
2025-01-16 21:03:31.429787	321.0	16.4	-93.0	6.6
2025-01-16 21:03:32.575725	321.2	16.3	-93.4	6.5
2025-01-16 21:03:33.742352	321.4	16.2	-93.3	5.9
2025-01-16 21:03:34.902652	321.5	16.1	-93.3	5.8
2025-01-16 21:03:36.059793	321.7	16.0	-93.6	4.5
2025-01-16 21:03:37.232788	321.9	15.9	-93.3	5.5
2025-01-16 21:03:38.392914	322.0	15.8	-93.0	5.3
2025-01-16 21:03:39.554507	322.2	15.7	-93.0	5.1
2025-01-16 21:03:40.718253	322.4	15.6	-93.2	2.9
2025-01-16 21:03:41.880409	322.5	15.5	-93.7	5.7
2025-01-16 21:03:43.042772	322.7	15.4	-93.5	3.8
2025-01-16 21:03:44.205911	322.9	15.3	-93.5	5.9
2025-01-16 21:03:45.365398	323.0	15.3	-93.4	2.8
2025-01-16 21:03:46.528555	323.2	15.2	-93.6	5.5
2025-01-16 21:03:47.686505	323.3	15.1	-93.4	5.3
2025-01-16 21:03:48.851453	323.5	15.0	-93.6	6.2
2025-01-16 21:03:50.014013	323.7	14.9	-93.6	3.5
2025-01-16 21:03:51.180332	323.8	14.8	-93.5	8.5
2025-01-16 21:03:52.342924	324.0	14.7	-93.4	10.1
2025-01-16 21:03:53.497797	324.1	14.6	-93.3	4.0
#Closed at: 2025-01-16 20:56:35.005087