passes_logs/2025/01/16/LEX_Murmansk/LEX_Murmansk__20250116_184945_NOAA_19_rec.log

#Pass ID: 20250116_184945_NOAA 19
#Satellite: NOAA 19
#Configuration: NOAA 19
#Start time: 2025-01-16 18:49:40.577440

#LorettStation: 1.0.0 05.05.2024
#Station: LEX_Murmansk
#Location: 33.156738 lon 68.926811 lat
#TLE: 1 33591U 09005A   25016.13687281  .00000278  00000+0  17226-3 0  9992
#TLE: 2 33591  99.0193  79.9081 0014432  54.5182 305.7334 14.13260212821702

#Time	Az	El	Level	SNR
2025-01-16 18:49:52.766643	188.2	16.2	-92.5	4.3
2025-01-16 18:49:55.063197	188.4	16.5	-92.1	5.3
2025-01-16 18:49:57.370485	188.6	16.7	-92.8	0.7
2025-01-16 18:49:59.676537	188.8	17.0	-93.1	3.2
2025-01-16 18:50:01.971733	189.0	17.2	-92.9	4.1
2025-01-16 18:50:04.274861	189.2	17.5	-92.9	3.3
2025-01-16 18:50:06.579159	189.4	17.7	-92.7	0.3
2025-01-16 18:50:08.876022	189.6	18.0	-92.9	3.9
2025-01-16 18:50:11.180357	189.8	18.2	-92.9	2.3
2025-01-16 18:50:13.485947	190.1	18.5	-92.5	5.5
2025-01-16 18:50:15.785163	190.3	18.7	-92.7	5.0
2025-01-16 18:50:18.103369	190.5	19.0	-92.8	11.5
2025-01-16 18:50:20.401918	190.7	19.2	-92.5	5.0
2025-01-16 18:50:22.693448	191.0	19.5	-93.0	2.2
2025-01-16 18:50:24.986097	191.2	19.8	-92.8	7.3
2025-01-16 18:50:27.292184	191.5	20.1	-92.4	9.5
2025-01-16 18:50:29.588087	191.7	20.3	-93.0	11.2
2025-01-16 18:50:31.893102	191.9	20.6	-92.8	6.9
2025-01-16 18:50:34.189504	192.2	20.9	-92.8	10.6
2025-01-16 18:50:36.486023	192.5	21.2	-92.7	10.1
2025-01-16 18:50:38.783531	192.7	21.4	-92.8	1.2
2025-01-16 18:50:41.075200	193.0	21.7	-92.8	4.5
2025-01-16 18:50:43.375436	193.3	22.0	-92.6	10.1
2025-01-16 18:50:45.679917	193.5	22.3	-92.7	12.1
2025-01-16 18:50:47.979756	193.8	22.6	-92.7	9.7
2025-01-16 18:50:50.284859	194.1	22.9	-92.5	7.3
2025-01-16 18:50:52.576940	194.4	23.2	-93.1	12.9
2025-01-16 18:50:54.881379	194.7	23.5	-92.6	6.3
2025-01-16 18:50:57.184289	195.0	23.8	-92.6	1.4
2025-01-16 18:50:59.484901	195.3	24.1	-92.6	7.1
2025-01-16 18:51:01.731273	195.6	24.4	-92.7	9.6
2025-01-16 18:51:03.973551	195.9	24.7	-92.9	12.8
2025-01-16 18:51:06.214901	196.3	25.0	-92.6	6.5
2025-01-16 18:51:08.460555	196.6	25.3	-93.1	8.7
2025-01-16 18:51:10.737604	196.9	25.6	-92.8	9.6
2025-01-16 18:51:13.033909	197.3	26.0	-92.3	4.2
2025-01-16 18:51:15.324620	197.6	26.3	-93.0	3.1
2025-01-16 18:51:17.630493	198.0	26.6	-92.9	6.2
2025-01-16 18:51:19.923987	198.3	27.0	-93.1	10.6
2025-01-16 18:51:22.224577	198.7	27.3	-92.9	8.5
2025-01-16 18:51:24.525474	199.1	27.6	-92.7	6.4
2025-01-16 18:51:26.818095	199.5	28.0	-93.2	5.4
2025-01-16 18:51:29.111989	199.9	28.3	-92.6	7.9
2025-01-16 18:51:31.414153	200.3	28.6	-92.9	6.0
2025-01-16 18:51:33.711259	200.7	29.0	-92.7	2.9
2025-01-16 18:51:36.124353	201.2	29.4	-93.0	4.2
2025-01-16 18:51:38.424755	201.6	29.7	-92.5	6.1
2025-01-16 18:51:40.725691	202.0	30.1	-93.1	2.4
2025-01-16 18:51:43.022543	202.5	30.4	-93.0	6.4
2025-01-16 18:51:45.312823	203.0	30.8	-92.8	4.8
2025-01-16 18:51:47.609759	203.4	31.2	-92.8	9.7
2025-01-16 18:51:49.912550	203.9	31.5	-93.3	2.7
2025-01-16 18:51:52.211469	204.4	31.9	-93.0	3.6
2025-01-16 18:51:54.605499	204.9	32.3	-93.0	3.4
2025-01-16 18:51:56.910934	205.5	32.7	-92.8	4.7
2025-01-16 18:51:59.214834	206.0	33.0	-92.9	8.9
2025-01-16 18:52:01.520480	206.5	33.4	-93.1	5.7
2025-01-16 18:52:03.816658	207.1	33.8	-92.9	5.7
2025-01-16 18:52:06.109223	207.7	34.2	-93.1	9.5
2025-01-16 18:52:08.408133	208.2	34.5	-92.8	12.9
2025-01-16 18:52:10.702399	208.8	34.9	-93.2	12.7
2025-01-16 18:52:12.997818	209.4	35.3	-92.8	4.0
2025-01-16 18:52:15.301042	210.1	35.7	-92.7	1.7
2025-01-16 18:52:17.594371	210.7	36.1	-93.2	4.3
2025-01-16 18:52:19.895385	211.4	36.5	-93.2	10.0
2025-01-16 18:52:22.189557	212.0	36.9	-92.7	10.4
2025-01-16 18:52:24.486117	212.7	37.2	-92.6	8.3
2025-01-16 18:52:26.788362	213.4	37.6	-92.7	3.0
2025-01-16 18:52:29.090681	214.1	38.0	-92.4	6.2
2025-01-16 18:52:31.386824	214.8	38.4	-93.1	10.7
2025-01-16 18:52:33.688720	215.6	38.8	-93.0	8.7
2025-01-16 18:52:35.985500	216.4	39.2	-93.2	6.6
2025-01-16 18:52:38.283099	217.1	39.6	-92.8	3.5
2025-01-16 18:52:40.579313	217.9	39.9	-93.2	2.6
2025-01-16 18:52:42.874701	218.8	40.3	-92.6	7.0
2025-01-16 18:52:45.172012	219.6	40.7	-92.8	7.7
2025-01-16 18:52:47.472233	220.5	41.1	-92.7	7.7
2025-01-16 18:52:49.766881	221.3	41.4	-93.2	0.8
2025-01-16 18:52:52.060369	222.2	41.8	-92.9	5.7
2025-01-16 18:52:54.355153	223.2	42.2	-92.6	5.5
2025-01-16 18:52:56.653509	224.1	42.5	-92.9	5.9
2025-01-16 18:52:58.948846	225.1	42.9	-93.0	6.0
2025-01-16 18:53:01.254892	226.0	43.2	-93.1	6.1
2025-01-16 18:53:03.555888	227.1	43.6	-93.0	2.5
2025-01-16 18:53:05.854736	228.1	43.9	-93.3	2.3
2025-01-16 18:53:08.152812	229.1	44.2	-92.1	1.5
2025-01-16 18:53:10.452409	230.2	44.5	-92.8	4.6
2025-01-16 18:53:12.723918	231.3	44.8	-93.0	3.8
2025-01-16 18:53:14.964787	232.3	45.1	-93.1	5.0
2025-01-16 18:53:17.206446	233.4	45.4	-93.2	4.4
2025-01-16 18:53:19.449366	234.6	45.7	-93.2	13.7
2025-01-16 18:53:21.691713	235.7	46.0	-93.0	4.3
2025-01-16 18:53:23.982425	236.9	46.2	-93.0	10.6
2025-01-16 18:53:26.268650	238.1	46.5	-92.6	3.3
2025-01-16 18:53:28.555163	239.3	46.7	-92.8	8.5
2025-01-16 18:53:30.846687	240.5	46.9	-92.9	14.9
2025-01-16 18:53:33.138816	241.8	47.1	-93.0	12.0
2025-01-16 18:53:35.437604	243.0	47.3	-93.1	9.6
2025-01-16 18:53:37.736104	244.3	47.5	-92.8	6.1
2025-01-16 18:53:40.039441	245.6	47.7	-92.3	10.9
2025-01-16 18:53:42.332547	246.9	47.8	-92.8	7.2
2025-01-16 18:53:44.636811	248.3	48.0	-92.8	8.6
2025-01-16 18:53:46.931202	249.6	48.1	-92.6	10.6
2025-01-16 18:53:49.229638	251.0	48.2	-92.8	4.3
2025-01-16 18:53:51.520304	252.3	48.3	-92.8	8.1
2025-01-16 18:53:53.813027	253.7	48.3	-92.9	12.5
2025-01-16 18:53:56.115710	255.0	48.4	-93.0	22.6
2025-01-16 18:53:58.409748	256.4	48.4	-92.6	18.1
2025-01-16 18:54:00.704198	257.8	48.4	-92.8	17.9
2025-01-16 18:54:02.993629	259.1	48.4	-92.6	20.8
2025-01-16 18:54:05.281974	260.5	48.4	-93.1	17.2
2025-01-16 18:54:07.571610	261.9	48.4	-92.9	8.3
2025-01-16 18:54:09.864302	263.2	48.3	-92.5	19.8
2025-01-16 18:54:12.160403	264.6	48.3	-92.8	15.7
2025-01-16 18:54:14.454991	265.9	48.2	-92.8	13.8
2025-01-16 18:54:16.753153	267.3	48.1	-92.7	11.0
2025-01-16 18:54:19.049551	268.6	48.0	-92.8	9.3
2025-01-16 18:54:21.343344	269.9	47.8	-92.4	6.7
2025-01-16 18:54:23.639679	271.3	47.7	-92.8	4.8
2025-01-16 18:54:25.938974	272.6	47.5	-92.1	9.3
2025-01-16 18:54:28.246310	273.9	47.3	-92.3	7.8
2025-01-16 18:54:30.525403	275.1	47.1	-92.6	9.3
2025-01-16 18:54:32.820716	276.4	46.9	-92.9	3.5
2025-01-16 18:54:35.066030	277.6	46.7	-92.9	6.4
2025-01-16 18:54:37.307930	278.8	46.5	-93.1	5.4
2025-01-16 18:54:39.548864	279.9	46.2	-92.7	13.6
2025-01-16 18:54:41.792890	281.1	46.0	-93.0	4.9
2025-01-16 18:54:44.069735	282.2	45.7	-93.2	7.0
2025-01-16 18:54:46.371414	283.4	45.4	-92.9	7.0
2025-01-16 18:54:48.669509	284.5	45.2	-92.8	7.0
2025-01-16 18:54:50.977481	285.6	44.9	-93.1	6.8
2025-01-16 18:54:53.272928	286.7	44.5	-93.3	7.1
2025-01-16 18:54:55.567071	287.8	44.2	-93.1	6.6
2025-01-16 18:54:57.866861	288.8	43.9	-93.1	3.7
2025-01-16 18:55:00.158104	289.8	43.6	-92.8	11.6
2025-01-16 18:55:02.462092	290.8	43.2	-92.7	15.3
2025-01-16 18:55:04.752298	291.8	42.9	-92.9	12.7
2025-01-16 18:55:07.057491	292.8	42.5	-93.1	17.3
2025-01-16 18:55:09.354434	293.7	42.2	-92.7	16.5
2025-01-16 18:55:11.651838	294.6	41.8	-92.6	18.7
2025-01-16 18:55:13.949822	295.5	41.5	-93.2	20.7
2025-01-16 18:55:16.250493	296.4	41.1	-92.8	18.6
2025-01-16 18:55:18.523269	297.2	40.7	-92.8	18.8
2025-01-16 18:55:20.799122	298.1	40.4	-92.9	15.8
2025-01-16 18:55:23.089779	298.9	40.0	-92.2	13.0
2025-01-16 18:55:25.386401	299.7	39.6	-92.7	16.4
2025-01-16 18:55:27.682451	300.5	39.2	-92.3	11.1
2025-01-16 18:55:29.978625	301.2	38.8	-92.4	9.4
2025-01-16 18:55:32.273057	302.0	38.5	-92.2	6.1
2025-01-16 18:55:34.573246	302.7	38.1	-92.3	9.0
2025-01-16 18:55:36.865502	303.4	37.7	-92.3	6.1
2025-01-16 18:55:39.165129	304.1	37.3	-92.3	3.7
2025-01-16 18:55:41.460418	304.8	36.9	-92.3	8.5
2025-01-16 18:55:43.752771	305.5	36.5	-92.7	5.9
2025-01-16 18:55:46.049751	306.1	36.1	-92.7	8.2
2025-01-16 18:55:48.344213	306.8	35.8	-92.7	10.7
2025-01-16 18:55:50.637406	307.4	35.4	-93.0	7.8
2025-01-16 18:55:52.930406	308.0	35.0	-92.7	0.6
2025-01-16 18:55:55.224431	308.6	34.6	-93.1	5.8
2025-01-16 18:55:57.512387	309.2	34.2	-93.1	8.7
2025-01-16 18:55:59.812341	309.7	33.9	-92.7	3.7
2025-01-16 18:56:02.105212	310.3	33.5	-92.3	7.2
2025-01-16 18:56:04.401752	310.8	33.1	-92.7	4.4
2025-01-16 18:56:06.707250	311.3	32.7	-92.3	5.1
2025-01-16 18:56:09.007429	311.9	32.4	-93.2	6.3
2025-01-16 18:56:11.267789	312.4	32.0	-92.8	11.3
2025-01-16 18:56:13.510094	312.8	31.6	-92.6	17.6
2025-01-16 18:56:15.751892	313.3	31.3	-93.0	7.9
2025-01-16 18:56:17.993647	313.8	30.9	-92.8	10.3
2025-01-16 18:56:20.255609	314.2	30.6	-92.8	7.8
2025-01-16 18:56:22.547625	314.7	30.2	-93.1	6.6
2025-01-16 18:56:24.846611	315.1	29.9	-92.6	4.2
2025-01-16 18:56:27.136109	315.6	29.5	-93.0	7.8
2025-01-16 18:56:29.429357	316.0	29.2	-92.9	10.4
2025-01-16 18:56:31.723514	316.4	28.8	-92.9	7.5
2025-01-16 18:56:34.015219	316.8	28.5	-93.0	14.5
2025-01-16 18:56:36.304891	317.2	28.1	-92.9	7.8
2025-01-16 18:56:38.566356	317.6	27.8	-93.2	8.6
2025-01-16 18:56:40.849314	318.0	27.5	-93.2	6.3
2025-01-16 18:56:43.132168	318.4	27.2	-92.6	3.0
2025-01-16 18:56:45.424205	318.7	26.8	-92.6	5.6
2025-01-16 18:56:47.713016	319.1	26.5	-92.6	3.4
2025-01-16 18:56:50.006806	319.5	26.2	-92.8	9.7
2025-01-16 18:56:52.299125	319.8	25.9	-92.7	13.4
2025-01-16 18:56:54.600319	320.1	25.5	-92.1	6.7
2025-01-16 18:56:56.894601	320.5	25.2	-93.0	12.9
2025-01-16 18:56:59.182884	320.8	24.9	-92.9	5.4
2025-01-16 18:57:01.480113	321.1	24.6	-92.8	5.8
2025-01-16 18:57:03.766899	321.4	24.3	-92.9	7.6
2025-01-16 18:57:06.060195	321.8	24.0	-92.8	10.6
2025-01-16 18:57:08.354970	322.1	23.7	-93.0	8.2
2025-01-16 18:57:10.662925	322.4	23.4	-92.8	7.4
2025-01-16 18:57:12.960192	322.7	23.1	-93.1	2.2
2025-01-16 18:57:15.257466	322.9	22.8	-92.8	1.2
2025-01-16 18:57:17.558129	323.2	22.5	-93.2	0.8
2025-01-16 18:57:19.856153	323.5	22.2	-93.1	2.8
2025-01-16 18:57:22.161099	323.8	21.9	-93.2	4.1
2025-01-16 18:57:24.453287	324.0	21.6	-93.0	5.2
2025-01-16 18:57:26.747886	324.3	21.4	-92.9	3.3
2025-01-16 18:57:29.044458	324.6	21.1	-92.9	3.0
2025-01-16 18:57:31.343941	324.8	20.8	-92.5	1.4
2025-01-16 18:57:33.743573	325.1	20.5	-93.5	2.8
2025-01-16 18:57:36.043399	325.3	20.2	-93.2	3.5
2025-01-16 18:57:38.349721	325.6	20.0	-93.2	1.0
2025-01-16 18:57:40.653138	325.8	19.7	-93.1	2.4
2025-01-16 18:57:42.955642	326.1	19.4	-93.1	4.2
2025-01-16 18:57:45.259292	326.3	19.2	-93.0	2.6
2025-01-16 18:57:47.562046	326.5	18.9	-92.8	1.7
2025-01-16 18:57:49.867715	326.7	18.7	-93.1	3.3
2025-01-16 18:57:52.173105	327.0	18.4	-92.9	3.3
2025-01-16 18:57:54.470187	327.2	18.1	-93.3	2.6
2025-01-16 18:57:56.772057	327.4	17.9	-93.0	2.7
2025-01-16 18:57:59.079691	327.6	17.6	-92.9	1.5
2025-01-16 18:58:01.381610	327.8	17.4	-93.0	1.8
2025-01-16 18:58:03.676081	328.0	17.2	-93.4	1.2
2025-01-16 18:58:05.990280	328.2	16.9	-92.9	4.5
2025-01-16 18:58:08.289655	328.4	16.7	-93.0	0.7
2025-01-16 18:58:10.590955	328.6	16.4	-93.0	4.7
2025-01-16 18:58:12.885182	328.8	16.2	-93.1	7.9
2025-01-16 18:58:15.178452	329.0	16.0	-93.3	4.9
2025-01-16 18:58:17.479933	329.2	15.7	-92.6	3.4
2025-01-16 18:58:19.774276	329.3	15.5	-93.2	2.2
2025-01-16 18:58:22.071416	329.5	15.3	-93.0	2.0
2025-01-16 18:58:24.363101	329.7	15.0	-92.9	1.4
2025-01-16 18:58:26.657771	329.9	14.8	-93.0	6.6
2025-01-16 18:58:28.959816	330.1	14.6	-92.9	9.1
#Closed at: 2025-01-16 18:49:45.604771