passes_logs/2025/01/16/LEX_Murmansk/LEX_Murmansk__20250116_135019_NOAA_19_rec.log

#Pass ID: 20250116_135019_NOAA 19
#Satellite: NOAA 19
#Configuration: NOAA 19
#Start time: 2025-01-16 13:50:14.171704

#LorettStation: 1.0.0 05.05.2024
#Station: LEX_Murmansk
#Location: 33.156738 lon 68.926811 lat
#TLE: 1 33591U 09005A   25016.13687281  .00000278  00000+0  17226-3 0  9992
#TLE: 2 33591  99.0193  79.9081 0014432  54.5182 305.7334 14.13260212821702

#Time	Az	El	Level	SNR
2025-01-16 13:50:28.475795	48.9	16.1	-91.3	2.3
2025-01-16 13:50:29.640069	48.7	16.1	-91.3	3.4
2025-01-16 13:50:30.797881	48.5	16.2	-91.1	4.2
2025-01-16 13:50:31.966241	48.3	16.3	-91.3	3.2
2025-01-16 13:50:33.124394	48.1	16.4	-91.3	3.4
2025-01-16 13:50:34.290486	47.9	16.5	-91.4	2.1
2025-01-16 13:50:35.464364	47.7	16.6	-91.1	1.8
2025-01-16 13:50:36.624210	47.5	16.7	-91.3	5.5
2025-01-16 13:50:37.789132	47.3	16.7	-91.5	6.3
2025-01-16 13:50:38.953835	47.1	16.8	-91.7	6.7
2025-01-16 13:50:40.116213	46.9	16.9	-91.6	4.3
2025-01-16 13:50:41.275150	46.7	17.0	-91.5	5.5
2025-01-16 13:50:42.433960	46.5	17.1	-91.5	3.8
2025-01-16 13:50:43.594065	46.3	17.2	-91.7	3.1
2025-01-16 13:50:44.756844	46.1	17.3	-91.6	0.9
2025-01-16 13:50:45.919095	45.9	17.3	-91.6	0.7
2025-01-16 13:50:47.084122	45.7	17.4	-91.4	4.3
2025-01-16 13:50:48.245330	45.5	17.5	-91.4	2.0
2025-01-16 13:50:49.409964	45.3	17.6	-91.4	6.5
2025-01-16 13:50:50.571003	45.1	17.7	-91.2	7.3
2025-01-16 13:50:51.727633	44.9	17.8	-91.4	10.9
2025-01-16 13:50:52.889945	44.7	17.9	-91.3	5.9
2025-01-16 13:50:54.049714	44.5	17.9	-91.6	6.7
2025-01-16 13:50:55.214087	44.2	18.0	-91.2	4.5
2025-01-16 13:50:56.375965	44.0	18.1	-91.1	2.6
2025-01-16 13:50:57.534394	43.8	18.2	-91.4	4.2
2025-01-16 13:50:58.699854	43.6	18.3	-91.6	3.9
2025-01-16 13:50:59.864471	43.4	18.4	-91.6	3.6
2025-01-16 13:51:01.021764	43.2	18.4	-91.3	7.2
2025-01-16 13:51:02.192622	42.9	18.5	-91.6	6.4
2025-01-16 13:51:03.358405	42.7	18.6	-91.1	7.1
2025-01-16 13:51:04.517992	42.5	18.7	-91.2	4.4
2025-01-16 13:51:05.684596	42.3	18.8	-91.5	4.5
2025-01-16 13:51:06.826018	42.1	18.9	-91.3	3.7
2025-01-16 13:51:07.993381	41.8	18.9	-91.3	2.6
2025-01-16 13:51:09.149625	41.6	19.0	-91.1	3.7
2025-01-16 13:51:10.318263	41.4	19.1	-91.0	3.0
2025-01-16 13:51:11.476172	41.1	19.2	-91.2	4.2
2025-01-16 13:51:12.637821	40.9	19.3	-91.2	5.1
2025-01-16 13:51:13.808229	40.7	19.3	-91.4	11.5
2025-01-16 13:51:14.969232	40.4	19.4	-91.4	10.8
2025-01-16 13:51:16.133096	40.2	19.5	-91.4	11.2
2025-01-16 13:51:17.292915	40.0	19.6	-91.4	10.3
2025-01-16 13:51:18.449269	39.7	19.7	-91.4	9.7
2025-01-16 13:51:19.623743	39.5	19.8	-91.4	10.9
2025-01-16 13:51:20.784084	39.3	19.8	-91.3	5.2
2025-01-16 13:51:21.948357	39.0	19.9	-91.0	7.0
2025-01-16 13:51:23.113663	38.8	20.0	-91.0	8.2
2025-01-16 13:51:24.281537	38.5	20.1	-91.4	6.3
2025-01-16 13:51:25.439964	38.3	20.1	-91.2	9.2
2025-01-16 13:51:26.603789	38.0	20.2	-91.7	11.1
2025-01-16 13:51:27.765787	37.8	20.3	-91.4	13.5
2025-01-16 13:51:28.926432	37.5	20.4	-91.4	8.9
2025-01-16 13:51:30.090802	37.3	20.5	-91.4	6.7
2025-01-16 13:51:31.253469	37.0	20.5	-91.3	3.4
2025-01-16 13:51:32.416765	36.8	20.6	-91.1	4.4
2025-01-16 13:51:33.576007	36.5	20.7	-91.1	4.2
2025-01-16 13:51:34.732637	36.3	20.8	-91.2	0.9
2025-01-16 13:51:35.890648	36.0	20.8	-91.1	3.7
2025-01-16 13:51:37.055776	35.8	20.9	-91.1	4.2
2025-01-16 13:51:38.234960	35.5	21.0	-91.1	5.1
2025-01-16 13:51:39.397192	35.2	21.1	-90.9	8.2
2025-01-16 13:51:40.559410	35.0	21.1	-91.1	8.6
2025-01-16 13:51:41.719277	34.7	21.2	-91.3	12.6
2025-01-16 13:51:42.885171	34.4	21.3	-91.2	8.4
2025-01-16 13:51:44.052318	34.2	21.4	-90.8	6.4
2025-01-16 13:51:45.215910	33.9	21.4	-90.9	4.7
2025-01-16 13:51:46.369863	33.6	21.5	-90.8	4.4
2025-01-16 13:51:47.520352	33.4	21.6	-90.7	5.9
2025-01-16 13:51:48.684914	33.1	21.6	-90.7	5.4
2025-01-16 13:51:49.843447	32.8	21.7	-90.9	6.5
2025-01-16 13:51:51.004237	32.6	21.8	-90.8	10.7
2025-01-16 13:51:52.171994	32.3	21.9	-91.1	13.0
2025-01-16 13:51:53.333332	32.0	21.9	-91.1	12.8
2025-01-16 13:51:54.499515	31.7	22.0	-91.3	11.0
2025-01-16 13:51:55.661498	31.5	22.1	-91.5	13.0
2025-01-16 13:51:56.817868	31.2	22.1	-91.2	9.6
2025-01-16 13:51:57.983084	30.9	22.2	-91.1	5.7
2025-01-16 13:51:59.146481	30.6	22.3	-91.0	5.5
2025-01-16 13:52:00.311463	30.3	22.3	-90.5	1.8
2025-01-16 13:52:01.469319	30.1	22.4	-91.1	3.3
2025-01-16 13:52:02.626503	29.8	22.5	-90.9	5.7
2025-01-16 13:52:03.782390	29.5	22.5	-91.0	3.2
2025-01-16 13:52:04.939766	29.2	22.6	-91.2	5.6
2025-01-16 13:52:06.102839	28.9	22.6	-91.2	6.1
2025-01-16 13:52:07.268918	28.6	22.7	-91.1	6.1
2025-01-16 13:52:08.433243	28.3	22.8	-91.1	10.5
2025-01-16 13:52:09.601383	28.0	22.8	-91.4	11.4
2025-01-16 13:52:10.764071	27.7	22.9	-91.2	13.2
2025-01-16 13:52:11.917985	27.4	22.9	-91.4	12.0
2025-01-16 13:52:13.084499	27.2	23.0	-91.4	12.6
2025-01-16 13:52:14.247682	26.9	23.1	-91.5	8.5
2025-01-16 13:52:15.408494	26.6	23.1	-91.4	7.4
2025-01-16 13:52:16.562387	26.3	23.2	-91.5	8.5
2025-01-16 13:52:17.722241	26.0	23.2	-91.7	3.1
2025-01-16 13:52:18.896602	25.7	23.3	-91.5	7.6
2025-01-16 13:52:20.055396	25.4	23.3	-91.4	7.9
2025-01-16 13:52:21.214904	25.1	23.4	-91.3	6.9
2025-01-16 13:52:22.379736	24.8	23.4	-91.2	10.2
2025-01-16 13:52:23.539684	24.4	23.5	-91.6	12.1
2025-01-16 13:52:24.705707	24.1	23.5	-91.5	14.1
2025-01-16 13:52:25.862464	23.8	23.6	-91.3	11.3
2025-01-16 13:52:27.026455	23.5	23.6	-91.2	13.9
2025-01-16 13:52:28.191108	23.2	23.7	-91.3	14.2
2025-01-16 13:52:29.353040	22.9	23.7	-91.7	10.8
2025-01-16 13:52:30.520163	22.6	23.8	-91.6	11.0
2025-01-16 13:52:31.679826	22.3	23.8	-91.8	7.7
2025-01-16 13:52:32.841844	22.0	23.9	-91.6	5.1
2025-01-16 13:52:33.997700	21.7	23.9	-91.6	7.1
2025-01-16 13:52:35.159301	21.3	24.0	-91.5	4.6
2025-01-16 13:52:36.322914	21.0	24.0	-91.4	3.8
2025-01-16 13:52:37.485662	20.7	24.1	-91.4	4.8
2025-01-16 13:52:38.645819	20.4	24.1	-91.5	5.4
2025-01-16 13:52:39.813114	20.1	24.1	-91.5	4.1
2025-01-16 13:52:40.979070	19.8	24.2	-91.8	6.2
2025-01-16 13:52:42.136050	19.4	24.2	-91.4	5.7
2025-01-16 13:52:43.306205	19.1	24.3	-91.7	4.5
2025-01-16 13:52:44.464434	18.8	24.3	-91.5	6.9
2025-01-16 13:52:45.631545	18.5	24.3	-91.4	7.7
2025-01-16 13:52:46.790530	18.2	24.4	-91.4	7.0
2025-01-16 13:52:47.956936	17.8	24.4	-91.4	12.2
2025-01-16 13:52:49.117901	17.5	24.4	-91.4	13.6
2025-01-16 13:52:50.281332	17.2	24.5	-91.3	14.9
2025-01-16 13:52:51.443613	16.9	24.5	-91.5	10.5
2025-01-16 13:52:52.599285	16.5	24.5	-91.3	10.3
2025-01-16 13:52:53.760502	16.2	24.5	-91.4	11.6
2025-01-16 13:52:54.922959	15.9	24.6	-91.5	9.0
2025-01-16 13:52:56.084193	15.6	24.6	-91.7	8.1
2025-01-16 13:52:57.243248	15.2	24.6	-91.9	6.6
2025-01-16 13:52:58.406471	14.9	24.6	-91.8	8.1
2025-01-16 13:52:59.567082	14.6	24.7	-91.7	5.1
2025-01-16 13:53:00.729781	14.2	24.7	-91.8	3.5
2025-01-16 13:53:01.886281	13.9	24.7	-91.9	6.2
2025-01-16 13:53:03.053009	13.6	24.7	-91.9	10.3
2025-01-16 13:53:04.212541	13.3	24.8	-91.7	3.9
2025-01-16 13:53:05.370096	12.9	24.8	-91.7	6.1
2025-01-16 13:53:06.532305	12.6	24.8	-92.0	7.1
2025-01-16 13:53:07.697276	12.3	24.8	-91.5	5.1
2025-01-16 13:53:08.862515	11.9	24.8	-91.5	8.4
2025-01-16 13:53:10.020004	11.6	24.8	-91.7	7.9
2025-01-16 13:53:11.178363	11.3	24.9	-91.6	9.7
2025-01-16 13:53:12.345328	10.9	24.9	-91.7	10.3
2025-01-16 13:53:13.506480	10.6	24.9	-91.4	7.4
2025-01-16 13:53:14.671824	10.3	24.9	-91.6	9.3
2025-01-16 13:53:15.838995	9.9	24.9	-91.8	8.3
2025-01-16 13:53:17.002386	9.6	24.9	-91.6	11.2
2025-01-16 13:53:18.160632	9.3	24.9	-91.6	8.7
2025-01-16 13:53:19.325898	8.9	24.9	-91.6	8.7
2025-01-16 13:53:20.479508	8.6	24.9	-91.7	9.2
2025-01-16 13:53:21.635079	8.3	24.9	-91.6	9.0
2025-01-16 13:53:22.796324	7.9	24.9	-91.6	6.7
2025-01-16 13:53:23.964217	7.6	24.9	-91.8	6.3
2025-01-16 13:53:25.124511	7.3	24.9	-91.5	4.5
2025-01-16 13:53:26.288279	6.9	24.9	-91.7	2.6
2025-01-16 13:53:27.445795	6.6	24.9	-91.8	3.1
2025-01-16 13:53:28.616049	6.3	24.9	-91.8	2.5
2025-01-16 13:53:29.781420	5.9	24.9	-91.6	0.9
2025-01-16 13:53:30.944664	5.6	24.9	-91.7	3.7
2025-01-16 13:53:32.105365	5.3	24.9	-91.7	3.9
2025-01-16 13:53:33.267931	4.9	24.9	-91.9	2.4
2025-01-16 13:53:34.430990	4.6	24.9	-91.8	2.6
2025-01-16 13:53:35.595506	4.3	24.9	-91.7	4.1
2025-01-16 13:53:36.762231	3.9	24.9	-91.4	2.6
2025-01-16 13:53:37.923981	3.6	24.9	-91.5	4.7
2025-01-16 13:53:39.088249	3.3	24.9	-91.4	7.8
2025-01-16 13:53:40.249272	2.9	24.8	-91.5	4.7
2025-01-16 13:53:41.412859	2.6	24.8	-91.3	5.9
2025-01-16 13:53:42.572631	2.3	24.8	-91.3	5.8
2025-01-16 13:53:43.733564	1.9	24.8	-91.6	3.9
2025-01-16 13:53:44.900460	1.6	24.8	-91.7	6.9
2025-01-16 13:53:46.062057	1.3	24.8	-91.6	5.5
2025-01-16 13:53:47.229666	0.9	24.7	-91.5	6.4
2025-01-16 13:53:48.390246	0.6	24.7	-91.6	8.3
2025-01-16 13:53:49.550178	0.3	24.7	-91.6	6.4
2025-01-16 13:53:50.711684	359.9	24.7	-91.7	8.5
2025-01-16 13:53:51.879805	359.6	24.7	-91.4	8.9
2025-01-16 13:53:53.047952	359.3	24.6	-91.3	10.9
2025-01-16 13:53:54.208294	359.0	24.6	-91.5	9.2
2025-01-16 13:53:55.371607	358.6	24.6	-91.7	12.9
2025-01-16 13:53:56.541612	358.3	24.6	-91.4	10.5
2025-01-16 13:53:57.701370	358.0	24.5	-91.2	9.7
2025-01-16 13:53:58.866357	357.7	24.5	-91.3	12.3
2025-01-16 13:54:00.029776	357.3	24.5	-91.2	13.1
2025-01-16 13:54:01.188952	357.0	24.4	-91.6	10.6
2025-01-16 13:54:02.353596	356.7	24.4	-91.7	15.8
2025-01-16 13:54:03.520153	356.4	24.4	-91.7	10.6
2025-01-16 13:54:04.683217	356.0	24.3	-91.7	16.1
2025-01-16 13:54:05.845877	355.7	24.3	-91.6	13.4
2025-01-16 13:54:07.009434	355.4	24.3	-91.8	10.4
2025-01-16 13:54:08.174471	355.1	24.2	-91.6	11.6
2025-01-16 13:54:09.338107	354.8	24.2	-91.4	14.6
2025-01-16 13:54:10.506394	354.4	24.1	-91.4	15.1
2025-01-16 13:54:11.667662	354.1	24.1	-91.6	13.0
2025-01-16 13:54:12.829852	353.8	24.1	-91.7	14.2
2025-01-16 13:54:13.991814	353.5	24.0	-91.7	16.0
2025-01-16 13:54:15.145409	353.2	24.0	-91.5	13.3
2025-01-16 13:54:16.307287	352.9	23.9	-91.4	16.1
2025-01-16 13:54:17.469501	352.5	23.9	-91.9	14.5
2025-01-16 13:54:18.621289	352.2	23.8	-91.5	12.6
2025-01-16 13:54:19.783514	351.9	23.8	-91.4	12.6
2025-01-16 13:54:20.947091	351.6	23.8	-91.3	14.6
2025-01-16 13:54:22.106687	351.3	23.7	-91.8	10.0
2025-01-16 13:54:23.275995	351.0	23.7	-91.6	11.7
2025-01-16 13:54:24.439082	350.7	23.6	-91.4	10.7
2025-01-16 13:54:25.603612	350.4	23.6	-91.2	11.9
2025-01-16 13:54:26.762989	350.1	23.5	-91.6	10.1
2025-01-16 13:54:27.924464	349.8	23.5	-91.5	13.1
2025-01-16 13:54:29.089849	349.5	23.4	-91.6	12.5
2025-01-16 13:54:30.252070	349.2	23.4	-91.3	12.0
2025-01-16 13:54:31.412408	348.9	23.3	-91.4	8.6
2025-01-16 13:54:32.570646	348.6	23.2	-90.9	12.5
2025-01-16 13:54:33.733354	348.3	23.2	-91.3	11.0
2025-01-16 13:54:34.893622	348.0	23.1	-91.7	10.3
2025-01-16 13:54:36.065361	347.7	23.1	-91.6	10.4
2025-01-16 13:54:37.230962	347.4	23.0	-91.6	4.3
2025-01-16 13:54:38.394624	347.1	23.0	-91.1	11.3
2025-01-16 13:54:39.558649	346.8	22.9	-91.1	8.6
2025-01-16 13:54:40.722605	346.5	22.8	-90.8	6.0
2025-01-16 13:54:41.876810	346.2	22.8	-90.9	6.9
2025-01-16 13:54:43.021955	345.9	22.7	-91.0	6.6
2025-01-16 13:54:44.142137	345.6	22.7	-91.4	4.6
2025-01-16 13:54:45.263582	345.4	22.6	-91.7	5.7
2025-01-16 13:54:46.384092	345.1	22.5	-91.5	7.5
2025-01-16 13:54:47.503313	344.8	22.5	-91.7	9.8
2025-01-16 13:54:48.623383	344.5	22.4	-91.5	6.2
2025-01-16 13:54:49.743469	344.3	22.4	-91.6	9.2
2025-01-16 13:54:50.864174	344.0	22.3	-91.7	6.4
2025-01-16 13:54:51.988890	343.7	22.2	-91.6	5.3
2025-01-16 13:54:53.134460	343.4	22.2	-91.6	5.0
2025-01-16 13:54:54.295467	343.2	22.1	-91.8	4.3
2025-01-16 13:54:55.457569	342.9	22.0	-91.8	3.6
2025-01-16 13:54:56.622072	342.6	22.0	-91.9	6.9
2025-01-16 13:54:57.773381	342.3	21.9	-91.7	3.1
2025-01-16 13:54:58.933472	342.1	21.8	-91.7	5.3
2025-01-16 13:55:00.089943	341.8	21.8	-91.2	7.1
2025-01-16 13:55:01.244538	341.5	21.7	-91.5	3.7
2025-01-16 13:55:02.409064	341.2	21.6	-91.8	4.3
2025-01-16 13:55:03.571980	341.0	21.5	-91.7	4.0
2025-01-16 13:55:04.737322	340.7	21.5	-91.6	3.3
2025-01-16 13:55:05.899052	340.4	21.4	-91.5	5.2
2025-01-16 13:55:07.060908	340.2	21.3	-91.5	7.0
2025-01-16 13:55:08.225024	339.9	21.3	-91.7	0.1
2025-01-16 13:55:09.390116	339.6	21.2	-91.4	4.3
2025-01-16 13:55:10.556021	339.4	21.1	-91.5	4.3
2025-01-16 13:55:11.711974	339.1	21.0	-91.5	1.3
2025-01-16 13:55:12.872498	338.9	21.0	-91.8	3.5
2025-01-16 13:55:14.030174	338.6	20.9	-91.5	4.4
2025-01-16 13:55:15.189762	338.3	20.8	-91.5	3.9
2025-01-16 13:55:16.353754	338.1	20.7	-91.4	3.9
2025-01-16 13:55:17.516106	337.8	20.7	-91.6	3.4
2025-01-16 13:55:18.680544	337.6	20.6	-91.6	6.0
2025-01-16 13:55:19.843765	337.3	20.5	-91.8	4.7
2025-01-16 13:55:20.999779	337.1	20.4	-91.6	6.5
2025-01-16 13:55:22.152093	336.8	20.4	-91.5	2.9
2025-01-16 13:55:23.311269	336.6	20.3	-91.6	3.4
2025-01-16 13:55:24.468213	336.3	20.2	-91.6	1.2
2025-01-16 13:55:25.628718	336.1	20.1	-91.4	2.3
2025-01-16 13:55:26.796628	335.9	20.0	-91.8	1.6
2025-01-16 13:55:27.956528	335.6	20.0	-91.5	3.5
2025-01-16 13:55:29.119505	335.4	19.9	-91.7	3.7
2025-01-16 13:55:30.281799	335.1	19.8	-91.7	5.3
2025-01-16 13:55:31.444136	334.9	19.7	-91.7	3.2
2025-01-16 13:55:32.603990	334.7	19.6	-91.6	2.0
2025-01-16 13:55:33.761423	334.4	19.6	-91.5	3.5
2025-01-16 13:55:34.914912	334.2	19.5	-91.7	3.8
2025-01-16 13:55:36.074243	334.0	19.4	-91.6	2.8
2025-01-16 13:55:37.232483	333.7	19.3	-91.5	3.0
2025-01-16 13:55:38.397380	333.5	19.2	-91.7	3.2
2025-01-16 13:55:39.566467	333.3	19.2	-91.7	4.5
2025-01-16 13:55:40.730097	333.0	19.1	-91.5	0.6
2025-01-16 13:55:41.886368	332.8	19.0	-91.8	2.9
2025-01-16 13:55:43.054127	332.6	18.9	-91.5	2.3
2025-01-16 13:55:44.216003	332.3	18.8	-91.8	2.2
2025-01-16 13:55:45.380218	332.1	18.8	-91.7	3.9
2025-01-16 13:55:46.542465	331.9	18.7	-91.7	2.3
2025-01-16 13:55:47.703538	331.7	18.6	-91.7	2.7
2025-01-16 13:55:48.863143	331.5	18.5	-92.0	2.6
2025-01-16 13:55:50.031226	331.2	18.4	-91.7	2.8
2025-01-16 13:55:51.195465	331.0	18.3	-91.6	1.8
2025-01-16 13:55:52.356545	330.8	18.3	-91.6	1.3
2025-01-16 13:55:53.524335	330.6	18.2	-92.0	3.0
2025-01-16 13:55:54.683021	330.4	18.1	-92.0	2.3
2025-01-16 13:55:55.849784	330.2	18.0	-92.0	4.6
2025-01-16 13:55:56.989222	330.0	17.9	-91.9	2.6
2025-01-16 13:55:58.133451	329.7	17.8	-92.1	2.3
2025-01-16 13:55:59.253791	329.5	17.8	-92.0	1.9
2025-01-16 13:56:00.376009	329.3	17.7	-91.7	2.9
2025-01-16 13:56:01.497152	329.1	17.6	-91.9	4.1
2025-01-16 13:56:02.619383	328.9	17.5	-91.8	0.9
2025-01-16 13:56:03.739666	328.7	17.4	-92.0	0.8
2025-01-16 13:56:04.860432	328.5	17.3	-92.0	3.8
2025-01-16 13:56:05.985540	328.4	17.3	-91.9	3.4
2025-01-16 13:56:07.145411	328.2	17.2	-91.8	6.4
2025-01-16 13:56:08.303880	328.0	17.1	-91.9	2.6
2025-01-16 13:56:09.465253	327.8	17.0	-92.1	1.8
2025-01-16 13:56:10.629158	327.6	16.9	-91.8	3.4
2025-01-16 13:56:11.791828	327.4	16.8	-91.6	3.8
2025-01-16 13:56:12.953176	327.2	16.8	-91.7	3.1
2025-01-16 13:56:14.117172	327.0	16.7	-91.5	2.5
2025-01-16 13:56:15.279369	326.8	16.6	-91.7	2.8
2025-01-16 13:56:16.442248	326.6	16.5	-91.9	3.4
2025-01-16 13:56:17.603592	326.4	16.4	-91.5	3.2
2025-01-16 13:56:18.771637	326.2	16.3	-91.7	3.6
2025-01-16 13:56:19.934923	326.0	16.2	-91.8	5.5
2025-01-16 13:56:21.101615	325.8	16.2	-91.6	3.9
2025-01-16 13:56:22.255148	325.6	16.1	-92.0	4.0
2025-01-16 13:56:23.421171	325.4	16.0	-91.8	4.9
2025-01-16 13:56:24.579201	325.3	15.9	-92.0	10.6
2025-01-16 13:56:25.747377	325.1	15.8	-91.8	4.3
2025-01-16 13:56:26.907225	324.9	15.7	-92.0	2.2
2025-01-16 13:56:28.082427	324.7	15.6	-92.1	6.0
2025-01-16 13:56:29.241297	324.5	15.6	-91.6	4.2
2025-01-16 13:56:30.410470	324.3	15.5	-91.8	4.0
2025-01-16 13:56:31.572037	324.2	15.4	-91.6	3.8
2025-01-16 13:56:32.731492	324.0	15.3	-91.6	2.4
2025-01-16 13:56:33.896640	323.8	15.2	-91.7	3.6
2025-01-16 13:56:35.060400	323.6	15.1	-91.5	2.2
2025-01-16 13:56:36.219890	323.5	15.0	-91.6	1.1
2025-01-16 13:56:37.373073	323.3	15.0	-91.7	1.4
2025-01-16 13:56:38.540831	323.1	14.9	-91.6	4.5
2025-01-16 13:56:39.700684	323.0	14.8	-91.2	3.3
2025-01-16 13:56:40.864829	322.8	14.7	-91.4	3.6
2025-01-16 13:56:42.028530	322.6	14.6	-91.6	3.1
#Closed at: 2025-01-16 13:50:19.269635