passes_logs/2025/01/16/LEX_Murmansk/LEX_Murmansk__20250116_141550_NOAA_18_rec.log

#Pass ID: 20250116_141550_NOAA 18
#Satellite: NOAA 18
#Configuration: NOAA 18
#Start time: 2025-01-16 14:15:45.701113

#LorettStation: 1.0.0 05.05.2024
#Station: LEX_Murmansk
#Location: 33.156738 lon 68.926811 lat
#TLE: 1 28654U 05018A   25016.15379782  .00000321  00000+0  19399-3 0  9994
#TLE: 2 28654  98.8565  97.1968 0014416 175.9109 184.2183 14.13487365 13346

#Time	Az	El	Level	SNR
2025-01-16 14:15:57.987694	37.4	15.9	-91.8	3.2
2025-01-16 14:15:59.157655	37.2	16.0	-92.0	3.1
2025-01-16 14:16:00.330787	37.1	16.0	-92.1	6.1
2025-01-16 14:16:01.495773	36.9	16.1	-91.8	6.2
2025-01-16 14:16:02.657744	36.7	16.2	-92.0	7.1
2025-01-16 14:16:03.821564	36.5	16.3	-91.5	3.3
2025-01-16 14:16:04.982847	36.3	16.4	-91.9	3.6
2025-01-16 14:16:06.144737	36.1	16.5	-91.8	6.1
2025-01-16 14:16:07.305927	35.9	16.5	-91.8	5.5
2025-01-16 14:16:08.469042	35.7	16.6	-91.4	2.6
2025-01-16 14:16:09.632898	35.5	16.7	-91.9	4.6
2025-01-16 14:16:10.800663	35.3	16.8	-92.0	4.8
2025-01-16 14:16:11.965778	35.1	16.9	-91.8	5.1
2025-01-16 14:16:13.133814	34.9	17.0	-91.5	4.3
2025-01-16 14:16:14.294646	34.7	17.0	-91.8	4.4
2025-01-16 14:16:15.459035	34.5	17.1	-91.6	4.2
2025-01-16 14:16:16.621683	34.3	17.2	-91.6	5.7
2025-01-16 14:16:17.776358	34.1	17.3	-91.4	9.3
2025-01-16 14:16:18.940259	33.9	17.4	-91.4	5.5
2025-01-16 14:16:20.116042	33.7	17.4	-91.6	6.7
2025-01-16 14:16:21.284662	33.5	17.5	-92.0	11.0
2025-01-16 14:16:22.446009	33.3	17.6	-91.5	6.4
2025-01-16 14:16:23.601698	33.1	17.7	-91.4	5.4
2025-01-16 14:16:24.751786	32.9	17.8	-92.0	7.2
2025-01-16 14:16:25.872426	32.7	17.9	-92.1	10.8
2025-01-16 14:16:26.992900	32.4	17.9	-92.1	7.5
2025-01-16 14:16:28.113763	32.2	18.0	-92.2	7.8
2025-01-16 14:16:29.234955	32.0	18.1	-92.1	6.6
2025-01-16 14:16:30.355867	31.8	18.2	-91.8	5.6
2025-01-16 14:16:31.476398	31.6	18.2	-91.9	6.6
2025-01-16 14:16:32.597312	31.4	18.3	-91.9	9.3
2025-01-16 14:16:33.720704	31.2	18.4	-92.1	7.9
2025-01-16 14:16:34.869928	31.0	18.5	-92.3	5.7
2025-01-16 14:16:36.028225	30.8	18.6	-91.9	4.7
2025-01-16 14:16:37.192099	30.5	18.6	-92.1	9.2
2025-01-16 14:16:38.345085	30.3	18.7	-91.4	10.6
2025-01-16 14:16:39.496015	30.1	18.8	-91.3	6.8
2025-01-16 14:16:40.656835	29.9	18.9	-91.8	11.3
2025-01-16 14:16:41.820046	29.6	18.9	-92.1	13.6
2025-01-16 14:16:42.979177	29.4	19.0	-91.4	7.3
2025-01-16 14:16:44.148693	29.2	19.1	-91.5	11.8
2025-01-16 14:16:45.312442	28.9	19.2	-92.1	13.9
2025-01-16 14:16:46.481276	28.7	19.3	-91.8	14.4
2025-01-16 14:16:47.641551	28.5	19.3	-91.8	14.5
2025-01-16 14:16:48.810159	28.2	19.4	-91.7	10.3
2025-01-16 14:16:49.983019	28.0	19.5	-92.0	11.4
2025-01-16 14:16:51.146896	27.8	19.6	-91.9	8.0
2025-01-16 14:16:52.306425	27.5	19.6	-92.0	9.4
2025-01-16 14:16:53.470639	27.3	19.7	-92.0	7.9
2025-01-16 14:16:54.633505	27.0	19.8	-91.9	11.5
2025-01-16 14:16:55.797980	26.8	19.9	-91.8	11.9
2025-01-16 14:16:56.966994	26.5	19.9	-92.0	11.6
2025-01-16 14:16:58.127181	26.3	20.0	-91.9	13.2
2025-01-16 14:16:59.283886	26.1	20.1	-92.1	15.5
2025-01-16 14:17:00.446287	25.8	20.2	-92.3	14.7
2025-01-16 14:17:01.609490	25.6	20.2	-92.0	10.2
2025-01-16 14:17:02.772793	25.3	20.3	-91.8	12.3
2025-01-16 14:17:03.934419	25.1	20.4	-92.3	7.3
2025-01-16 14:17:05.093815	24.8	20.5	-92.2	7.6
2025-01-16 14:17:06.261352	24.5	20.5	-91.8	12.4
2025-01-16 14:17:07.419729	24.3	20.6	-92.0	7.9
2025-01-16 14:17:08.584389	24.0	20.7	-91.6	6.9
2025-01-16 14:17:09.743223	23.8	20.7	-92.0	13.5
2025-01-16 14:17:10.906892	23.5	20.8	-92.0	10.9
2025-01-16 14:17:12.078612	23.3	20.9	-91.8	15.9
2025-01-16 14:17:13.240739	23.0	21.0	-92.0	13.5
2025-01-16 14:17:14.401568	22.7	21.0	-91.9	13.8
2025-01-16 14:17:15.572857	22.5	21.1	-91.8	14.0
2025-01-16 14:17:16.734757	22.2	21.2	-92.0	11.2
2025-01-16 14:17:17.894452	21.9	21.2	-91.9	11.1
2025-01-16 14:17:19.056337	21.7	21.3	-92.1	11.7
2025-01-16 14:17:20.213376	21.4	21.4	-91.8	10.5
2025-01-16 14:17:21.378096	21.1	21.4	-91.9	9.7
2025-01-16 14:17:22.538574	20.9	21.5	-91.8	10.6
2025-01-16 14:17:23.705086	20.6	21.6	-91.7	15.3
2025-01-16 14:17:24.866023	20.3	21.6	-91.7	14.0
2025-01-16 14:17:26.033937	20.1	21.7	-92.3	15.2
2025-01-16 14:17:27.191161	19.8	21.7	-92.0	18.0
2025-01-16 14:17:28.351731	19.5	21.8	-92.1	11.5
2025-01-16 14:17:29.504220	19.2	21.9	-91.9	13.3
2025-01-16 14:17:30.667305	19.0	21.9	-92.1	14.6
2025-01-16 14:17:31.832648	18.7	22.0	-92.2	15.4
2025-01-16 14:17:32.995501	18.4	22.1	-92.0	9.1
2025-01-16 14:17:34.163783	18.1	22.1	-91.6	11.1
2025-01-16 14:17:35.327772	17.8	22.2	-91.6	12.8
2025-01-16 14:17:36.486859	17.5	22.2	-92.0	7.5
2025-01-16 14:17:37.652051	17.3	22.3	-92.0	11.0
2025-01-16 14:17:38.826031	17.0	22.3	-92.1	12.4
2025-01-16 14:17:39.991805	16.7	22.4	-92.3	8.6
2025-01-16 14:17:41.158247	16.4	22.5	-92.0	11.2
2025-01-16 14:17:42.317725	16.1	22.5	-91.9	11.9
2025-01-16 14:17:43.481773	15.8	22.6	-91.7	12.2
2025-01-16 14:17:44.644897	15.5	22.6	-91.8	13.7
2025-01-16 14:17:45.810727	15.2	22.7	-91.8	13.3
2025-01-16 14:17:46.986073	14.9	22.7	-92.1	12.0
2025-01-16 14:17:48.146166	14.6	22.8	-91.9	12.4
2025-01-16 14:17:49.310264	14.4	22.8	-91.7	15.9
2025-01-16 14:17:50.471545	14.1	22.9	-91.8	10.8
2025-01-16 14:17:51.627820	13.8	22.9	-92.0	12.5
2025-01-16 14:17:52.793968	13.5	23.0	-91.7	14.2
2025-01-16 14:17:53.958212	13.2	23.0	-92.1	10.2
2025-01-16 14:17:55.124773	12.9	23.1	-92.1	14.2
2025-01-16 14:17:56.285867	12.6	23.1	-92.0	15.5
2025-01-16 14:17:57.443838	12.3	23.2	-91.7	13.1
2025-01-16 14:17:58.608116	12.0	23.2	-91.7	14.7
2025-01-16 14:17:59.763908	11.7	23.3	-92.0	15.7
2025-01-16 14:18:00.928084	11.4	23.3	-92.1	14.8
2025-01-16 14:18:02.095467	11.0	23.4	-91.7	14.1
2025-01-16 14:18:03.262600	10.7	23.4	-91.7	14.3
2025-01-16 14:18:04.421724	10.4	23.4	-91.7	12.2
2025-01-16 14:18:05.570882	10.1	23.5	-91.9	13.4
2025-01-16 14:18:06.733171	9.8	23.5	-91.9	15.1
2025-01-16 14:18:07.893032	9.5	23.6	-92.1	10.6
2025-01-16 14:18:09.058792	9.2	23.6	-91.9	8.1
2025-01-16 14:18:10.230118	8.9	23.6	-92.1	13.2
2025-01-16 14:18:11.389430	8.6	23.7	-92.2	8.3
2025-01-16 14:18:12.548988	8.3	23.7	-91.9	7.8
2025-01-16 14:18:13.717996	8.0	23.7	-92.2	15.7
2025-01-16 14:18:14.869181	7.6	23.8	-92.2	12.1
2025-01-16 14:18:15.991637	7.3	23.8	-91.6	8.4
2025-01-16 14:18:17.154826	7.0	23.8	-92.0	12.0
2025-01-16 14:18:18.315095	6.7	23.9	-92.1	12.7
2025-01-16 14:18:19.473788	6.4	23.9	-92.2	9.9
2025-01-16 14:18:20.631964	6.1	23.9	-92.0	13.1
2025-01-16 14:18:21.795713	5.8	23.9	-92.0	13.6
2025-01-16 14:18:22.961011	5.4	24.0	-91.9	12.6
2025-01-16 14:18:24.125355	5.1	24.0	-91.9	12.8
2025-01-16 14:18:25.291196	4.8	24.0	-91.8	14.7
2025-01-16 14:18:26.454083	4.5	24.1	-91.7	11.9
2025-01-16 14:18:27.615397	4.2	24.1	-91.4	13.1
2025-01-16 14:18:28.776631	3.9	24.1	-91.8	16.5
2025-01-16 14:18:29.945662	3.5	24.1	-91.8	12.4
2025-01-16 14:18:31.109965	3.2	24.1	-91.7	13.0
2025-01-16 14:18:32.277877	2.9	24.2	-91.7	13.6
2025-01-16 14:18:33.436368	2.6	24.2	-91.7	10.3
2025-01-16 14:18:34.595100	2.2	24.2	-91.7	9.0
2025-01-16 14:18:35.762245	1.9	24.2	-91.8	15.2
2025-01-16 14:18:36.925729	1.6	24.2	-91.7	8.8
2025-01-16 14:18:38.087621	1.3	24.2	-91.4	9.6
2025-01-16 14:18:39.247327	0.9	24.3	-91.8	15.3
2025-01-16 14:18:40.414212	0.6	24.3	-91.9	9.5
2025-01-16 14:18:41.578206	0.3	24.3	-92.0	10.4
2025-01-16 14:18:42.736517	360.0	24.3	-92.0	13.8
2025-01-16 14:18:43.901916	359.7	24.3	-91.9	10.4
2025-01-16 14:18:45.065390	359.3	24.3	-92.0	10.5
2025-01-16 14:18:46.231306	359.0	24.3	-91.7	13.9
2025-01-16 14:18:47.391682	358.7	24.3	-92.0	14.9
2025-01-16 14:18:48.566278	358.3	24.3	-91.7	13.3
2025-01-16 14:18:49.727871	358.0	24.3	-92.2	15.8
2025-01-16 14:18:50.891507	357.7	24.3	-92.1	16.0
2025-01-16 14:18:52.057268	357.4	24.3	-92.1	15.1
2025-01-16 14:18:53.225893	357.0	24.3	-92.0	15.6
2025-01-16 14:18:54.390429	356.7	24.3	-91.9	14.8
2025-01-16 14:18:55.545111	356.4	24.3	-91.6	16.7
2025-01-16 14:18:56.710924	356.1	24.3	-91.8	16.1
2025-01-16 14:18:57.868570	355.7	24.3	-92.2	15.8
2025-01-16 14:18:59.036849	355.4	24.3	-92.2	12.5
2025-01-16 14:19:00.197990	355.1	24.3	-92.1	15.9
2025-01-16 14:19:01.363732	354.8	24.3	-92.0	13.5
2025-01-16 14:19:02.526228	354.4	24.3	-92.0	12.4
2025-01-16 14:19:03.691442	354.1	24.3	-92.1	14.8
2025-01-16 14:19:04.847659	353.8	24.3	-91.9	15.8
2025-01-16 14:19:06.009102	353.5	24.3	-92.0	9.0
2025-01-16 14:19:07.179968	353.1	24.3	-91.8	17.0
2025-01-16 14:19:08.334654	352.8	24.3	-91.9	16.1
2025-01-16 14:19:09.501689	352.5	24.3	-91.9	8.6
2025-01-16 14:19:10.661852	352.2	24.2	-91.6	14.3
2025-01-16 14:19:11.827939	351.8	24.2	-91.6	13.7
2025-01-16 14:19:12.992338	351.5	24.2	-91.8	7.3
2025-01-16 14:19:14.156986	351.2	24.2	-91.9	12.3
2025-01-16 14:19:15.319391	350.9	24.2	-92.1	12.9
2025-01-16 14:19:16.491569	350.5	24.2	-91.8	5.5
2025-01-16 14:19:17.654211	350.2	24.1	-91.8	11.8
2025-01-16 14:19:18.808880	349.9	24.1	-91.9	11.8
2025-01-16 14:19:19.974462	349.6	24.1	-92.0	6.3
2025-01-16 14:19:21.139589	349.3	24.1	-92.1	10.8
2025-01-16 14:19:22.308181	348.9	24.1	-92.2	12.5
2025-01-16 14:19:23.472966	348.6	24.0	-92.3	7.8
2025-01-16 14:19:24.637902	348.3	24.0	-92.1	12.0
2025-01-16 14:19:25.797726	348.0	24.0	-92.2	15.9
2025-01-16 14:19:26.951401	347.7	24.0	-92.3	8.1
2025-01-16 14:19:28.110787	347.3	23.9	-92.1	11.0
2025-01-16 14:19:29.272141	347.0	23.9	-92.2	16.0
2025-01-16 14:19:30.436815	346.7	23.9	-92.1	9.4
2025-01-16 14:19:31.598391	346.4	23.8	-92.0	10.5
2025-01-16 14:19:32.760547	346.1	23.8	-91.9	12.5
2025-01-16 14:19:33.918131	345.8	23.8	-92.1	9.0
2025-01-16 14:19:35.077714	345.5	23.7	-92.0	10.3
2025-01-16 14:19:36.235905	345.1	23.7	-92.2	14.9
2025-01-16 14:19:37.404083	344.8	23.7	-92.0	10.2
2025-01-16 14:19:38.568691	344.5	23.6	-92.0	10.3
2025-01-16 14:19:39.735139	344.2	23.6	-92.1	14.8
2025-01-16 14:19:40.896257	343.9	23.6	-91.9	9.0
2025-01-16 14:19:42.055671	343.6	23.5	-92.0	9.5
2025-01-16 14:19:43.222258	343.3	23.5	-92.1	12.2
2025-01-16 14:19:44.381146	343.0	23.4	-92.1	9.5
2025-01-16 14:19:45.546233	342.7	23.4	-92.3	6.6
2025-01-16 14:19:46.707233	342.4	23.4	-92.1	11.6
2025-01-16 14:19:47.863912	342.1	23.3	-92.0	11.0
2025-01-16 14:19:49.027871	341.7	23.3	-92.1	11.8
2025-01-16 14:19:50.190313	341.4	23.2	-91.9	13.4
2025-01-16 14:19:51.350961	341.1	23.2	-92.0	12.1
2025-01-16 14:19:52.524638	340.8	23.1	-92.2	9.3
2025-01-16 14:19:53.694700	340.5	23.1	-92.4	13.5
2025-01-16 14:19:54.860273	340.2	23.0	-92.0	10.4
2025-01-16 14:19:56.021892	339.9	23.0	-91.8	9.6
2025-01-16 14:19:57.193773	339.6	22.9	-91.7	13.6
2025-01-16 14:19:58.354382	339.3	22.9	-92.0	12.8
2025-01-16 14:19:59.518829	339.0	22.8	-92.4	10.9
2025-01-16 14:20:00.682850	338.7	22.8	-92.0	11.3
2025-01-16 14:20:01.849233	338.4	22.7	-92.0	12.3
2025-01-16 14:20:03.011554	338.1	22.7	-91.6	8.7
2025-01-16 14:20:04.181011	337.9	22.6	-90.4	10.2
2025-01-16 14:20:05.338533	337.6	22.6	-90.1	10.9
2025-01-16 14:20:06.506722	337.3	22.5	-91.6	8.2
2025-01-16 14:20:07.669546	337.0	22.5	-92.0	12.0
2025-01-16 14:20:08.834512	336.7	22.4	-91.9	12.1
2025-01-16 14:20:09.998476	336.4	22.4	-91.9	8.8
2025-01-16 14:20:11.164914	336.1	22.3	-91.7	11.1
2025-01-16 14:20:12.323694	335.8	22.2	-91.6	12.3
2025-01-16 14:20:13.482342	335.5	22.2	-91.2	7.1
2025-01-16 14:20:14.643223	335.3	22.1	-91.4	11.4
2025-01-16 14:20:15.804238	335.0	22.1	-91.3	9.3
2025-01-16 14:20:16.967629	334.7	22.0	-91.4	7.1
2025-01-16 14:20:18.130665	334.4	21.9	-91.1	8.5
2025-01-16 14:20:19.287669	334.1	21.9	-91.3	9.2
2025-01-16 14:20:20.453342	333.9	21.8	-91.4	7.2
2025-01-16 14:20:21.616492	333.6	21.7	-91.5	7.4
2025-01-16 14:20:22.777982	333.3	21.7	-91.5	9.9
2025-01-16 14:20:23.944815	333.0	21.6	-90.7	7.5
2025-01-16 14:20:25.109639	332.8	21.6	-91.0	8.4
2025-01-16 14:20:26.275687	332.5	21.5	-90.7	9.8
2025-01-16 14:20:27.434204	332.2	21.4	-90.9	7.2
2025-01-16 14:20:28.594716	332.0	21.4	-90.7	9.6
2025-01-16 14:20:29.762155	331.7	21.3	-90.8	10.1
2025-01-16 14:20:30.927347	331.4	21.2	-90.8	6.8
2025-01-16 14:20:32.093991	331.1	21.2	-90.9	6.2
2025-01-16 14:20:33.257458	330.9	21.1	-91.0	9.3
2025-01-16 14:20:34.420802	330.6	21.0	-91.2	7.5
2025-01-16 14:20:35.588783	330.4	20.9	-90.8	7.3
2025-01-16 14:20:36.755733	330.1	20.9	-90.8	10.9
2025-01-16 14:20:37.922667	329.8	20.8	-90.6	8.5
2025-01-16 14:20:39.078021	329.6	20.7	-90.8	9.7
2025-01-16 14:20:40.245233	329.3	20.7	-90.9	14.8
2025-01-16 14:20:41.410147	329.1	20.6	-90.7	8.3
2025-01-16 14:20:42.566477	328.8	20.5	-90.9	9.7
2025-01-16 14:20:43.732967	328.5	20.5	-90.7	12.1
2025-01-16 14:20:44.896632	328.3	20.4	-90.9	8.3
2025-01-16 14:20:46.055276	328.0	20.3	-90.8	7.7
2025-01-16 14:20:47.216687	327.8	20.2	-91.0	3.6
2025-01-16 14:20:48.379395	327.5	20.2	-90.8	3.2
2025-01-16 14:20:49.535845	327.3	20.1	-91.0	4.7
2025-01-16 14:20:50.700003	327.0	20.0	-90.5	4.7
2025-01-16 14:20:51.860834	326.8	19.9	-90.8	5.8
2025-01-16 14:20:53.028069	326.6	19.9	-90.5	4.5
2025-01-16 14:20:54.192271	326.3	19.8	-90.6	3.8
2025-01-16 14:20:55.370120	326.1	19.7	-90.7	7.9
2025-01-16 14:20:56.531554	325.8	19.6	-90.9	5.9
2025-01-16 14:20:57.695833	325.6	19.6	-91.0	5.6
2025-01-16 14:20:58.868620	325.3	19.5	-90.9	2.3
2025-01-16 14:21:00.032817	325.1	19.4	-90.8	3.1
2025-01-16 14:21:01.201596	324.9	19.3	-90.7	5.7
2025-01-16 14:21:02.367336	324.6	19.2	-90.4	5.0
2025-01-16 14:21:03.531307	324.4	19.2	-90.7	5.0
2025-01-16 14:21:04.689335	324.2	19.1	-90.1	4.5
2025-01-16 14:21:05.854105	323.9	19.0	-90.5	5.2
2025-01-16 14:21:07.017609	323.7	18.9	-90.6	4.8
2025-01-16 14:21:08.179290	323.5	18.9	-89.7	2.8
2025-01-16 14:21:09.340819	323.2	18.8	-89.3	2.9
2025-01-16 14:21:10.507582	323.0	18.7	-89.5	3.9
2025-01-16 14:21:11.664773	322.8	18.6	-89.8	8.9
2025-01-16 14:21:12.833042	322.6	18.5	-90.0	6.5
2025-01-16 14:21:13.997146	322.3	18.5	-90.5	5.3
2025-01-16 14:21:15.164534	322.1	18.4	-90.6	5.0
2025-01-16 14:21:16.330199	321.9	18.3	-90.4	5.1
2025-01-16 14:21:17.496934	321.7	18.2	-90.8	5.9
2025-01-16 14:21:18.654559	321.5	18.1	-91.3	5.1
2025-01-16 14:21:19.817117	321.2	18.1	-91.5	2.7
2025-01-16 14:21:20.984438	321.0	18.0	-91.9	5.3
2025-01-16 14:21:22.148658	320.8	17.9	-91.9	3.9
2025-01-16 14:21:23.316122	320.6	17.8	-91.3	4.5
2025-01-16 14:21:24.476159	320.4	17.7	-91.3	4.9
2025-01-16 14:21:25.642535	320.2	17.6	-91.6	4.7
2025-01-16 14:21:26.804363	320.0	17.6	-91.9	4.9
2025-01-16 14:21:27.966137	319.7	17.5	-91.8	0.7
2025-01-16 14:21:29.126577	319.5	17.4	-91.6	5.7
2025-01-16 14:21:30.289522	319.3	17.3	-91.4	7.0
2025-01-16 14:21:31.455161	319.1	17.2	-91.5	6.2
2025-01-16 14:21:32.617745	318.9	17.2	-92.0	4.9
2025-01-16 14:21:33.774979	318.7	17.1	-91.8	4.4
2025-01-16 14:21:34.939347	318.5	17.0	-91.7	6.4
2025-01-16 14:21:36.113513	318.3	16.9	-92.1	5.2
2025-01-16 14:21:37.277252	318.1	16.8	-92.3	5.7
2025-01-16 14:21:38.441108	317.9	16.7	-91.9	5.0
2025-01-16 14:21:39.601969	317.7	16.7	-92.0	4.4
2025-01-16 14:21:40.771102	317.5	16.6	-91.9	11.0
2025-01-16 14:21:41.929795	317.3	16.5	-91.7	5.1
2025-01-16 14:21:43.087968	317.1	16.4	-91.9	6.2
2025-01-16 14:21:44.257634	316.9	16.3	-91.7	11.7
2025-01-16 14:21:45.420409	316.7	16.2	-91.8	7.1
2025-01-16 14:21:46.584922	316.5	16.2	-91.8	5.2
2025-01-16 14:21:47.748737	316.4	16.1	-92.2	9.5
2025-01-16 14:21:48.909090	316.2	16.0	-92.2	6.0
2025-01-16 14:21:50.077168	316.0	15.9	-92.2	8.2
2025-01-16 14:21:51.234903	315.8	15.8	-92.0	7.2
2025-01-16 14:21:52.406216	315.6	15.7	-91.8	8.4
2025-01-16 14:21:53.565165	315.4	15.7	-91.7	5.4
2025-01-16 14:21:54.731336	315.2	15.6	-91.8	4.0
2025-01-16 14:21:55.895174	315.0	15.5	-91.7	4.5
2025-01-16 14:21:57.056027	314.9	15.4	-91.7	7.6
2025-01-16 14:21:58.220913	314.7	15.3	-91.7	5.3
2025-01-16 14:21:59.388933	314.5	15.2	-91.7	7.1
2025-01-16 14:22:00.553104	314.3	15.2	-91.9	6.4
2025-01-16 14:22:01.722938	314.1	15.1	-92.1	5.2
2025-01-16 14:22:02.887909	314.0	15.0	-92.0	5.9
2025-01-16 14:22:04.042147	313.8	14.9	-92.0	5.2
2025-01-16 14:22:05.204233	313.6	14.8	-91.9	6.7
2025-01-16 14:22:06.368223	313.4	14.7	-91.6	10.1
2025-01-16 14:22:07.535032	313.3	14.6	-92.0	5.8
#Closed at: 2025-01-16 14:15:50.781192