passes_logs/2026/01/02/planumMaritime01/planumMaritime01__20260102_165827_METOP-B_rec.log

#Pass ID: 20260102_165827_METOP-B
#Satellite: METOP-B
#Configuration: METOP-B
#Start time: 2026-01-02 16:58:32.403840

#LorettStation: 1.0.0 05.05.2024
#Station: planumMaritime01
#Location: 37.49445 lon 55.92918 lat
#TLE: 1 38771U 12049A   26001.29166681  .00000269  00000+0  14283-3 0  9997
#TLE: 2 38771  98.6772  55.9164 0003359 104.1262 256.0289 14.21416881689554

#Time	Az	El	Level	SNR
2026-01-02 16:58:34.569550	141.0	10.2	-77.0	0.0
2026-01-02 16:58:36.821339	140.9	10.4	-78.5	0.0
2026-01-02 16:58:39.074271	140.8	10.6	-76.4	0.0
2026-01-02 16:58:41.327339	140.7	10.8	-73.6	0.0
2026-01-02 16:58:43.578567	140.6	11.0	-73.8	0.0
2026-01-02 16:58:45.832415	140.5	11.2	-73.9	0.9
2026-01-02 16:58:48.088690	140.4	11.4	-73.5	0.0
2026-01-02 16:58:50.343195	140.3	11.6	-73.2	0.0
2026-01-02 16:58:52.595561	140.2	11.8	-73.2	0.0
2026-01-02 16:58:54.845748	140.1	12.0	-73.4	0.0
2026-01-02 16:58:57.097507	140.0	12.2	-73.2	0.0
2026-01-02 16:58:59.349854	139.9	12.4	-73.0	0.0
2026-01-02 16:59:01.603424	139.8	12.6	-73.5	0.0
2026-01-02 16:59:03.854893	139.7	12.8	-73.5	0.0
2026-01-02 16:59:06.111742	139.6	13.1	-72.9	0.5
2026-01-02 16:59:08.361504	139.4	13.3	-73.1	0.0
2026-01-02 16:59:10.614774	139.3	13.5	-73.5	0.0
2026-01-02 16:59:12.867962	139.2	13.7	-73.4	0.5
2026-01-02 16:59:15.121165	139.1	13.9	-73.4	0.0
2026-01-02 16:59:17.374201	139.0	14.2	-73.0	0.0
2026-01-02 16:59:19.625959	138.8	14.4	-73.5	0.0
2026-01-02 16:59:21.876440	138.7	14.6	-73.1	1.2
2026-01-02 16:59:24.129803	138.6	14.8	-73.1	0.0
2026-01-02 16:59:26.383514	138.5	15.1	-73.1	0.7
2026-01-02 16:59:28.632651	138.3	15.3	-73.7	0.6
2026-01-02 16:59:30.884901	138.2	15.6	-73.8	1.3
2026-01-02 16:59:33.136153	138.0	15.8	-73.9	0.9
2026-01-02 16:59:35.388937	137.9	16.0	-73.2	0.0
2026-01-02 16:59:37.642791	137.8	16.3	-73.5	0.9
2026-01-02 16:59:39.897027	137.6	16.5	-73.8	1.7
2026-01-02 16:59:42.149807	137.5	16.8	-73.8	1.2
2026-01-02 16:59:44.402158	137.3	17.0	-73.7	1.1
2026-01-02 16:59:46.654369	137.2	17.3	-73.3	1.1
2026-01-02 16:59:48.909043	137.0	17.5	-73.7	3.4
2026-01-02 16:59:51.161658	136.9	17.8	-74.2	2.7
2026-01-02 16:59:53.414043	136.7	18.1	-73.8	3.0
2026-01-02 16:59:55.667475	136.5	18.3	-74.2	3.5
2026-01-02 16:59:57.921144	136.4	18.6	-73.9	1.4
2026-01-02 17:00:00.171581	136.2	18.9	-73.7	1.7
2026-01-02 17:00:02.424830	136.0	19.1	-73.5	1.6
2026-01-02 17:00:04.678141	135.9	19.4	-73.9	2.3
2026-01-02 17:00:06.932266	135.7	19.7	-73.5	1.8
2026-01-02 17:00:09.183806	135.5	20.0	-73.2	3.7
2026-01-02 17:00:11.434166	135.3	20.2	-73.5	4.5
2026-01-02 17:00:13.689469	135.1	20.5	-73.3	4.3
2026-01-02 17:00:15.939740	134.9	20.8	-73.6	4.5
2026-01-02 17:00:18.195634	134.7	21.1	-73.5	5.1
2026-01-02 17:00:20.447337	134.5	21.4	-73.1	4.3
2026-01-02 17:00:22.698589	134.3	21.7	-73.7	5.0
2026-01-02 17:00:24.952142	134.1	22.0	-73.3	4.5
2026-01-02 17:00:27.205304	133.9	22.3	-73.4	5.1
2026-01-02 17:00:29.456081	133.7	22.6	-73.3	5.3
2026-01-02 17:00:31.707497	133.5	22.9	-73.9	5.6
2026-01-02 17:00:33.959798	133.2	23.2	-73.3	4.2
2026-01-02 17:00:36.214751	133.0	23.6	-73.5	4.9
2026-01-02 17:00:38.468561	132.8	23.9	-73.5	5.1
2026-01-02 17:00:40.720351	132.5	24.2	-73.8	5.0
2026-01-02 17:00:42.977166	132.3	24.5	-74.1	5.6
2026-01-02 17:00:45.231408	132.0	24.9	-73.6	5.7
2026-01-02 17:00:47.484092	131.8	25.2	-73.3	5.2
2026-01-02 17:00:49.739356	131.5	25.5	-73.6	5.5
2026-01-02 17:00:51.989926	131.3	25.9	-73.7	6.8
2026-01-02 17:00:54.241920	131.0	26.2	-73.6	6.2
2026-01-02 17:00:56.496282	130.7	26.6	-73.3	6.0
2026-01-02 17:00:58.746885	130.4	26.9	-73.5	6.6
2026-01-02 17:01:00.998154	130.1	27.3	-73.3	6.9
2026-01-02 17:01:03.253485	129.8	27.6	-73.2	6.2
2026-01-02 17:01:05.504334	129.5	28.0	-73.5	6.7
2026-01-02 17:01:07.757918	129.2	28.4	-73.2	6.4
2026-01-02 17:01:10.010512	128.9	28.8	-73.0	5.8
2026-01-02 17:01:12.263475	128.6	29.1	-73.2	6.2
2026-01-02 17:01:14.515257	128.2	29.5	-72.8	7.2
2026-01-02 17:01:16.769928	127.9	29.9	-73.0	6.4
2026-01-02 17:01:19.021862	127.5	30.3	-73.5	8.3
2026-01-02 17:01:21.275479	127.2	30.7	-72.8	7.5
2026-01-02 17:01:23.527490	126.8	31.1	-72.9	7.8
2026-01-02 17:01:25.781499	126.4	31.5	-73.0	8.7
2026-01-02 17:01:28.029701	126.0	31.9	-72.9	8.3
2026-01-02 17:01:30.282642	125.6	32.3	-72.8	7.8
2026-01-02 17:01:32.537309	125.2	32.7	-73.4	8.2
2026-01-02 17:01:34.792296	124.8	33.1	-73.2	7.7
2026-01-02 17:01:37.042237	124.3	33.5	-73.0	7.3
2026-01-02 17:01:39.292328	123.9	34.0	-73.0	6.5
2026-01-02 17:01:41.547373	123.4	34.4	-72.7	7.3
2026-01-02 17:01:43.796261	123.0	34.8	-72.7	6.8
2026-01-02 17:01:46.048874	122.5	35.3	-73.0	7.4
2026-01-02 17:01:48.299872	122.0	35.7	-72.2	4.9
2026-01-02 17:01:50.552731	121.5	36.2	-72.6	7.4
2026-01-02 17:01:52.806477	121.0	36.6	-72.6	7.2
2026-01-02 17:01:55.057062	120.4	37.1	-71.8	6.9
2026-01-02 17:01:57.310936	119.9	37.5	-71.8	5.9
2026-01-02 17:01:59.563055	119.3	38.0	-72.4	7.5
2026-01-02 17:02:01.814494	118.7	38.4	-71.1	6.2
2026-01-02 17:02:04.067283	118.1	38.9	-71.6	6.6
2026-01-02 17:02:06.321230	117.5	39.4	-70.8	5.6
2026-01-02 17:02:08.572898	116.8	39.8	-71.5	7.7
2026-01-02 17:02:10.825942	116.2	40.3	-71.4	8.2
2026-01-02 17:02:13.078905	115.5	40.8	-70.8	6.2
2026-01-02 17:02:15.330953	114.8	41.2	-71.3	6.2
2026-01-02 17:02:17.583857	114.1	41.7	-70.9	8.6
2026-01-02 17:02:19.836530	113.3	42.2	-71.5	7.0
2026-01-02 17:02:22.089388	112.6	42.7	-70.9	7.8
2026-01-02 17:02:24.339923	111.8	43.2	-71.1	4.7
2026-01-02 17:02:26.590957	111.0	43.6	-71.0	4.8
2026-01-02 17:02:28.845465	110.1	44.1	-72.3	7.8
2026-01-02 17:02:31.098696	109.3	44.6	-71.3	7.4
2026-01-02 17:02:33.349227	108.4	45.1	-71.1	6.3
2026-01-02 17:02:35.603793	107.5	45.5	-69.7	4.9
2026-01-02 17:02:37.854404	106.5	46.0	-70.1	1.3
2026-01-02 17:02:40.107829	105.6	46.5	-71.0	5.5
2026-01-02 17:02:42.361088	104.6	46.9	-68.6	1.7
2026-01-02 17:02:44.616154	103.5	47.4	-69.1	0.6
2026-01-02 17:02:46.869410	102.5	47.8	-70.4	4.4
2026-01-02 17:02:49.123165	101.4	48.3	-69.7	1.8
2026-01-02 17:02:51.374753	100.3	48.7	-69.0	2.6
2026-01-02 17:02:53.628852	99.1	49.1	-70.6	3.3
2026-01-02 17:02:55.883862	97.9	49.5	-69.4	1.3
2026-01-02 17:02:58.137694	96.7	50.0	-71.0	3.1
2026-01-02 17:03:00.393679	95.5	50.4	-71.2	5.3
2026-01-02 17:03:02.646897	94.2	50.7	-68.6	0.7
2026-01-02 17:03:04.900169	92.9	51.1	-67.0	0.0
2026-01-02 17:03:07.151358	91.5	51.5	-69.6	4.3
2026-01-02 17:03:09.405084	90.1	51.8	-69.2	0.2
2026-01-02 17:03:11.658377	88.7	52.2	-68.8	5.6
2026-01-02 17:03:13.916575	87.3	52.5	-70.0	4.7
2026-01-02 17:03:16.168460	85.8	52.8	-68.9	4.8
2026-01-02 17:03:18.423212	84.3	53.0	-70.6	5.7
2026-01-02 17:03:20.677316	82.7	53.3	-68.4	0.4
2026-01-02 17:03:22.928487	81.2	53.5	-67.6	1.0
2026-01-02 17:03:25.181352	79.6	53.8	-68.1	0.0
2026-01-02 17:03:27.442904	78.0	54.0	-67.5	0.2
2026-01-02 17:03:29.697107	76.4	54.1	-67.2	0.0
2026-01-02 17:03:31.951398	74.7	54.3	-68.5	1.1
2026-01-02 17:03:34.202875	73.0	54.4	-69.3	2.1
2026-01-02 17:03:36.458649	71.4	54.5	-69.0	3.6
2026-01-02 17:03:38.715047	69.7	54.6	-70.6	5.9
2026-01-02 17:03:40.968748	68.0	54.7	-69.2	1.3
2026-01-02 17:03:43.222038	66.3	54.7	-67.6	0.0
2026-01-02 17:03:45.475661	64.6	54.7	-70.6	0.0
2026-01-02 17:03:47.732889	62.9	54.7	-68.0	0.0
2026-01-02 17:03:49.986624	61.2	54.6	-68.8	0.0
2026-01-02 17:03:52.240671	59.5	54.6	-70.0	3.1
2026-01-02 17:03:54.496891	57.8	54.5	-69.7	3.3
2026-01-02 17:03:56.750629	56.1	54.3	-68.1	0.0
2026-01-02 17:03:59.003978	54.5	54.2	-70.5	5.3
2026-01-02 17:04:01.254949	52.8	54.0	-70.6	1.8
2026-01-02 17:04:03.510081	51.2	53.8	-69.5	4.6
2026-01-02 17:04:05.763906	49.6	53.6	-70.0	4.7
2026-01-02 17:04:08.016198	48.1	53.4	-69.2	2.7
2026-01-02 17:04:10.269388	46.5	53.1	-70.0	5.7
2026-01-02 17:04:12.522665	45.0	52.9	-69.5	5.1
2026-01-02 17:04:14.775854	43.5	52.6	-70.2	5.4
2026-01-02 17:04:17.029837	42.1	52.3	-71.8	6.9
2026-01-02 17:04:19.282154	40.6	51.9	-68.8	1.6
2026-01-02 17:04:21.537626	39.3	51.6	-70.6	5.5
2026-01-02 17:04:23.790387	37.9	51.2	-70.3	4.9
2026-01-02 17:04:26.042831	36.6	50.9	-70.9	6.2
2026-01-02 17:04:28.301710	35.3	50.5	-72.0	7.8
2026-01-02 17:04:30.556238	34.0	50.1	-70.4	2.7
2026-01-02 17:04:32.809715	32.8	49.7	-71.0	4.8
2026-01-02 17:04:35.065279	31.6	49.3	-71.8	3.2
2026-01-02 17:04:37.317338	30.4	48.8	-70.8	5.9
2026-01-02 17:04:39.567227	29.3	48.4	-70.9	3.8
2026-01-02 17:04:41.821977	28.2	48.0	-71.4	5.4
2026-01-02 17:04:44.074209	27.1	47.5	-71.3	5.0
2026-01-02 17:04:46.327688	26.1	47.1	-69.8	3.3
2026-01-02 17:04:48.581908	25.1	46.6	-69.2	2.6
2026-01-02 17:04:50.834630	24.1	46.1	-70.8	4.8
2026-01-02 17:04:53.091690	23.2	45.7	-70.4	3.1
2026-01-02 17:04:55.343380	22.3	45.2	-68.7	0.1
2026-01-02 17:04:57.597280	21.4	44.7	-69.7	3.6
2026-01-02 17:04:59.852719	20.5	44.3	-69.9	3.1
2026-01-02 17:05:02.104442	19.7	43.8	-70.0	2.8
2026-01-02 17:05:04.354816	18.8	43.3	-69.5	4.0
2026-01-02 17:05:06.607165	18.1	42.8	-69.2	1.0
2026-01-02 17:05:08.861655	17.3	42.4	-69.1	2.3
2026-01-02 17:05:11.115398	16.5	41.9	-69.2	0.0
2026-01-02 17:05:13.368322	15.8	41.4	-68.4	0.0
2026-01-02 17:05:15.620198	15.1	41.0	-68.0	0.0
2026-01-02 17:05:17.873197	14.4	40.5	-66.9	0.0
2026-01-02 17:05:20.129401	13.8	40.0	-66.2	0.0
2026-01-02 17:05:22.382501	13.1	39.5	-67.3	0.0
2026-01-02 17:05:24.635941	12.5	39.1	-66.9	0.0
2026-01-02 17:05:26.888024	11.9	38.6	-67.6	0.0
2026-01-02 17:05:29.141987	11.3	38.2	-65.1	0.0
2026-01-02 17:05:31.398211	10.7	37.7	-64.4	0.0
2026-01-02 17:05:33.652940	10.2	37.2	-64.5	0.0
2026-01-02 17:05:35.908967	9.6	36.8	-64.5	0.0
2026-01-02 17:05:38.161932	9.1	36.3	-64.0	0.0
2026-01-02 17:05:40.416698	8.6	35.9	-63.5	0.0
2026-01-02 17:05:42.673725	8.1	35.5	-58.9	0.0
2026-01-02 17:05:44.927293	7.6	35.0	-62.8	0.0
2026-01-02 17:05:47.182978	7.1	34.6	-62.1	0.0
2026-01-02 17:05:49.438594	6.7	34.2	-62.5	0.0
2026-01-02 17:05:51.692920	6.2	33.7	-64.4	0.0
2026-01-02 17:05:53.946790	5.8	33.3	-63.5	0.0
2026-01-02 17:05:56.201550	5.4	32.9	-64.3	0.0
2026-01-02 17:05:58.453718	4.9	32.5	-65.2	0.0
2026-01-02 17:06:00.708412	4.5	32.1	-67.5	0.0
2026-01-02 17:06:02.961133	4.1	31.7	-65.3	0.0
2026-01-02 17:06:05.213855	3.8	31.3	-60.4	0.0
2026-01-02 17:06:07.465729	3.4	30.9	-64.0	0.0
2026-01-02 17:06:09.719752	3.0	30.5	-63.5	0.0
2026-01-02 17:06:11.976325	2.7	30.1	-64.9	0.0
2026-01-02 17:06:14.230421	2.3	29.7	-64.5	0.0
2026-01-02 17:06:16.483012	2.0	29.3	-65.2	0.0
2026-01-02 17:06:18.734881	1.7	28.9	-65.1	0.0
2026-01-02 17:06:20.989714	1.3	28.6	-64.4	0.0
2026-01-02 17:06:23.245130	1.0	28.2	-64.2	0.0
2026-01-02 17:06:25.499237	0.7	27.8	-62.3	0.0
2026-01-02 17:06:27.752146	0.4	27.5	-65.7	0.0
2026-01-02 17:06:30.011218	0.1	27.1	-66.5	0.0
2026-01-02 17:06:32.262925	359.8	26.8	-65.2	0.0
2026-01-02 17:06:34.518658	359.5	26.4	-65.2	0.0
2026-01-02 17:06:36.770119	359.3	26.1	-64.2	0.0
2026-01-02 17:06:39.026385	359.0	25.7	-66.0	0.0
2026-01-02 17:06:41.283237	358.7	25.4	-64.0	0.0
2026-01-02 17:06:43.539157	358.5	25.0	-64.6	0.0
2026-01-02 17:06:45.793011	358.2	24.7	-64.4	0.0
2026-01-02 17:06:48.044276	358.0	24.4	-65.8	0.0
2026-01-02 17:06:50.297030	357.8	24.1	-65.3	0.0
2026-01-02 17:06:52.549925	357.5	23.7	-57.7	0.0
2026-01-02 17:06:54.802060	357.3	23.4	-66.6	0.0
2026-01-02 17:06:57.055776	357.1	23.1	-66.3	0.0
2026-01-02 17:06:59.309734	356.8	22.8	-64.3	0.0
2026-01-02 17:07:01.563874	356.6	22.5	-64.9	0.0
2026-01-02 17:07:03.818161	356.4	22.2	-64.3	0.0
2026-01-02 17:07:06.073166	356.2	21.9	-65.9	0.0
2026-01-02 17:07:08.327705	356.0	21.6	-65.3	0.0
2026-01-02 17:07:10.581494	355.8	21.3	-65.5	0.0
2026-01-02 17:07:12.836719	355.6	21.0	-63.1	0.0
2026-01-02 17:07:15.094133	355.4	20.7	-63.7	0.0
2026-01-02 17:07:17.350549	355.2	20.4	-63.1	0.0
2026-01-02 17:07:19.605181	355.0	20.1	-65.1	0.0
2026-01-02 17:07:21.859337	354.9	19.9	-64.2	0.0
2026-01-02 17:07:24.116819	354.7	19.6	-61.2	0.0
2026-01-02 17:07:26.371051	354.5	19.3	-65.7	0.0
2026-01-02 17:07:28.623828	354.3	19.0	-67.7	0.0
2026-01-02 17:07:30.879960	354.2	18.8	-69.0	0.0
2026-01-02 17:07:33.131024	354.0	18.5	-65.3	0.0
2026-01-02 17:07:35.385533	353.8	18.2	-67.0	0.0
2026-01-02 17:07:37.636667	353.7	18.0	-67.0	0.0
2026-01-02 17:07:39.890336	353.5	17.7	-68.1	0.0
2026-01-02 17:07:42.143545	353.4	17.5	-68.6	0.0
2026-01-02 17:07:44.399418	353.2	17.2	-67.2	0.0
2026-01-02 17:07:46.652688	353.1	17.0	-66.1	0.0
2026-01-02 17:07:48.908170	352.9	16.7	-67.8	0.0
2026-01-02 17:07:51.165008	352.8	16.5	-66.2	0.0
2026-01-02 17:07:53.419704	352.6	16.2	-67.2	0.0
2026-01-02 17:07:55.673464	352.5	16.0	-66.4	0.0
2026-01-02 17:07:57.928860	352.4	15.7	-65.5	0.0
2026-01-02 17:08:00.181270	352.2	15.5	-67.1	0.0
2026-01-02 17:08:02.437509	352.1	15.3	-67.3	0.0
2026-01-02 17:08:04.693155	352.0	15.0	-67.2	0.0
2026-01-02 17:08:06.947036	351.8	14.8	-66.4	0.0
2026-01-02 17:08:09.203550	351.7	14.6	-66.4	0.0
2026-01-02 17:08:11.458468	351.6	14.3	-69.4	0.0
2026-01-02 17:08:13.711305	351.5	14.1	-67.3	0.0
2026-01-02 17:08:15.964263	351.4	13.9	-63.4	0.0
2026-01-02 17:08:18.216718	351.2	13.7	-68.8	0.0
2026-01-02 17:08:20.471510	351.1	13.5	-67.4	0.0
2026-01-02 17:08:22.726187	351.0	13.2	-67.7	0.0
2026-01-02 17:08:24.981034	350.9	13.0	-67.5	0.0
2026-01-02 17:08:27.236632	350.8	12.8	-68.0	0.0
2026-01-02 17:08:29.489437	350.7	12.6	-62.9	0.0
2026-01-02 17:08:31.744694	350.6	12.4	-65.8	0.0
2026-01-02 17:08:34.002717	350.5	12.2	-66.4	0.0
2026-01-02 17:08:36.255283	350.4	12.0	-62.2	0.0
2026-01-02 17:08:38.510581	350.3	11.8	-64.1	0.0
2026-01-02 17:08:40.762175	350.2	11.6	-66.4	0.0
2026-01-02 17:08:43.016494	350.1	11.4	-64.2	0.0
2026-01-02 17:08:45.274289	350.0	11.2	-67.7	0.0
2026-01-02 17:08:47.526724	349.9	11.0	-66.8	0.0
2026-01-02 17:08:49.778080	349.8	10.8	-67.2	0.0
2026-01-02 17:08:52.031448	349.7	10.6	-66.4	0.0
2026-01-02 17:08:54.286431	349.6	10.4	-66.6	0.0
2026-01-02 17:08:56.541089	349.5	10.2	-71.8	0.0
2026-01-02 17:08:58.793731	349.4	10.0	-76.7	0.0
#Closed at: 2026-01-02 16:58:27.410545