passes_logs/2026/01/02/planumMaritime01/planumMaritime01__20260102_110757_METEOR-M2_4_rec.log

#Pass ID: 20260102_110757_METEOR-M2 4
#Satellite: METEOR-M2 4
#Configuration: METEOR-M2 4
#Start time: 2026-01-02 11:08:02.332387

#LorettStation: 1.0.0 05.05.2024
#Station: planumMaritime01
#Location: 37.49445 lon 55.92918 lat
#TLE: 1 59051U 24039A   26001.33093902  .00000101  00000+0  65101-4 0  9994
#TLE: 2 59051  98.6794 322.9353 0006125 297.7572  62.2984 14.22405016 95544

#Time	Az	El	Level	SNR
2026-01-02 11:08:04.513013	153.8	10.2	-83.8	0.0
2026-01-02 11:08:06.776817	153.8	10.4	-83.6	0.0
2026-01-02 11:08:09.047514	153.8	10.6	-80.4	0.0
2026-01-02 11:08:11.311187	153.7	10.8	-79.3	6.2
2026-01-02 11:08:13.577731	153.7	11.0	-78.4	6.7
2026-01-02 11:08:15.844150	153.7	11.2	-77.9	6.0
2026-01-02 11:08:18.114626	153.6	11.4	-78.1	5.9
2026-01-02 11:08:20.382106	153.6	11.6	-78.8	8.1
2026-01-02 11:08:22.645001	153.6	11.8	-78.6	6.8
2026-01-02 11:08:24.910262	153.5	12.1	-78.7	7.0
2026-01-02 11:08:27.176429	153.5	12.3	-78.6	6.7
2026-01-02 11:08:29.441622	153.4	12.5	-78.3	7.2
2026-01-02 11:08:31.705542	153.4	12.7	-78.6	8.6
2026-01-02 11:08:33.970333	153.4	12.9	-78.2	6.1
2026-01-02 11:08:36.237714	153.3	13.2	-78.8	8.6
2026-01-02 11:08:38.504437	153.3	13.4	-78.5	6.9
2026-01-02 11:08:40.770149	153.3	13.6	-79.0	8.4
2026-01-02 11:08:43.037947	153.2	13.9	-78.8	7.0
2026-01-02 11:08:45.305437	153.2	14.1	-77.8	7.8
2026-01-02 11:08:47.573672	153.1	14.3	-78.4	8.6
2026-01-02 11:08:49.841182	153.1	14.6	-77.1	7.1
2026-01-02 11:08:52.106243	153.0	14.8	-76.9	5.9
2026-01-02 11:08:54.371344	153.0	15.0	-78.5	9.2
2026-01-02 11:08:56.638199	153.0	15.3	-78.4	8.4
2026-01-02 11:08:58.908625	152.9	15.5	-77.3	5.4
2026-01-02 11:09:01.182994	152.9	15.8	-77.2	6.4
2026-01-02 11:09:03.453616	152.8	16.0	-77.8	7.9
2026-01-02 11:09:05.726116	152.8	16.3	-78.0	9.2
2026-01-02 11:09:07.995085	152.7	16.6	-77.5	8.9
2026-01-02 11:09:10.267777	152.7	16.8	-78.2	10.1
2026-01-02 11:09:12.539678	152.6	17.1	-78.0	9.6
2026-01-02 11:09:14.812380	152.6	17.4	-77.9	8.7
2026-01-02 11:09:17.088067	152.5	17.6	-77.9	8.6
2026-01-02 11:09:19.360470	152.5	17.9	-77.7	8.3
2026-01-02 11:09:21.633491	152.4	18.2	-77.6	7.8
2026-01-02 11:09:23.892064	152.3	18.4	-78.2	9.2
2026-01-02 11:09:26.148789	152.3	18.7	-77.9	8.6
2026-01-02 11:09:28.405821	152.2	19.0	-78.1	8.7
2026-01-02 11:09:30.666571	152.2	19.3	-77.2	7.8
2026-01-02 11:09:32.924742	152.1	19.6	-77.8	8.6
2026-01-02 11:09:35.184187	152.0	19.9	-78.1	9.6
2026-01-02 11:09:37.444788	152.0	20.2	-78.3	10.4
2026-01-02 11:09:39.701641	151.9	20.5	-77.8	9.2
2026-01-02 11:09:41.959278	151.8	20.8	-77.6	10.6
2026-01-02 11:09:44.215970	151.8	21.1	-78.0	10.1
2026-01-02 11:09:46.473332	151.7	21.4	-77.7	9.6
2026-01-02 11:09:48.739240	151.6	21.7	-77.7	10.3
2026-01-02 11:09:51.004313	151.6	22.0	-77.8	10.7
2026-01-02 11:09:53.275435	151.5	22.4	-78.0	10.4
2026-01-02 11:09:55.550405	151.4	22.7	-78.0	10.9
2026-01-02 11:09:57.824097	151.3	23.0	-77.8	11.0
2026-01-02 11:10:00.096245	151.2	23.4	-78.2	10.6
2026-01-02 11:10:02.369738	151.2	23.7	-78.1	11.3
2026-01-02 11:10:04.647407	151.1	24.1	-77.6	10.4
2026-01-02 11:10:06.922826	151.0	24.4	-78.4	10.8
2026-01-02 11:10:09.195306	150.9	24.8	-78.0	10.0
2026-01-02 11:10:11.466530	150.8	25.1	-78.1	9.8
2026-01-02 11:10:13.743004	150.7	25.5	-78.2	9.6
2026-01-02 11:10:16.017264	150.6	25.9	-77.8	9.9
2026-01-02 11:10:18.289866	150.5	26.3	-78.0	9.6
2026-01-02 11:10:20.560755	150.4	26.6	-77.8	9.1
2026-01-02 11:10:22.834172	150.3	27.0	-78.2	10.5
2026-01-02 11:10:25.108747	150.2	27.4	-78.0	10.7
2026-01-02 11:10:27.382872	150.1	27.8	-78.1	9.9
2026-01-02 11:10:29.652841	150.0	28.2	-77.9	10.5
2026-01-02 11:10:31.923787	149.9	28.6	-78.1	11.2
2026-01-02 11:10:34.194803	149.8	29.1	-78.1	11.2
2026-01-02 11:10:36.467252	149.6	29.5	-78.4	11.1
2026-01-02 11:10:38.743979	149.5	29.9	-78.2	10.3
2026-01-02 11:10:41.015391	149.4	30.3	-78.6	10.9
2026-01-02 11:10:43.284785	149.3	30.8	-78.6	11.3
2026-01-02 11:10:45.557019	149.1	31.2	-78.2	10.3
2026-01-02 11:10:47.827382	149.0	31.7	-78.0	10.1
2026-01-02 11:10:50.096356	148.8	32.2	-78.5	11.6
2026-01-02 11:10:52.370639	148.7	32.6	-78.3	10.3
2026-01-02 11:10:54.643034	148.5	33.1	-78.4	12.8
2026-01-02 11:10:56.921361	148.4	33.6	-77.8	11.0
2026-01-02 11:10:59.187829	148.2	34.1	-78.2	11.9
2026-01-02 11:11:01.457511	148.0	34.6	-78.1	11.0
2026-01-02 11:11:03.722981	147.9	35.1	-78.0	10.6
2026-01-02 11:11:05.986620	147.7	35.6	-77.2	8.8
2026-01-02 11:11:08.250877	147.5	36.1	-77.9	10.1
2026-01-02 11:11:10.515171	147.3	36.6	-77.9	11.5
2026-01-02 11:11:12.781261	147.1	37.2	-77.5	9.9
2026-01-02 11:11:15.043459	146.9	37.7	-77.6	10.6
2026-01-02 11:11:17.306053	146.7	38.3	-78.0	11.3
2026-01-02 11:11:19.569617	146.5	38.9	-77.9	10.5
2026-01-02 11:11:21.833720	146.3	39.4	-78.5	9.9
2026-01-02 11:11:24.098445	146.0	40.0	-77.7	8.8
2026-01-02 11:11:26.363391	145.8	40.6	-77.9	9.3
2026-01-02 11:11:28.626443	145.5	41.2	-78.4	10.4
2026-01-02 11:11:30.892215	145.3	41.8	-78.1	9.9
2026-01-02 11:11:33.154326	145.0	42.4	-78.4	10.5
2026-01-02 11:11:35.417096	144.7	43.1	-78.4	9.4
2026-01-02 11:11:37.682963	144.4	43.7	-78.4	9.7
2026-01-02 11:11:39.948226	144.1	44.3	-79.0	10.6
2026-01-02 11:11:42.214495	143.8	45.0	-78.7	9.9
2026-01-02 11:11:44.472496	143.4	45.7	-78.9	10.4
2026-01-02 11:11:46.730251	143.1	46.3	-79.2	10.9
2026-01-02 11:11:48.985723	142.7	47.0	-78.9	8.5
2026-01-02 11:11:51.238829	142.3	47.7	-78.8	7.7
2026-01-02 11:11:53.504122	141.9	48.4	-79.3	9.7
2026-01-02 11:11:55.762070	141.5	49.2	-79.4	8.5
2026-01-02 11:11:58.018073	141.1	49.9	-79.7	7.6
2026-01-02 11:12:00.276261	140.6	50.6	-79.8	7.4
2026-01-02 11:12:02.533417	140.1	51.4	-79.6	6.3
2026-01-02 11:12:04.790087	139.6	52.1	-79.6	4.6
2026-01-02 11:12:07.048462	139.1	52.9	-79.4	4.8
2026-01-02 11:12:09.310689	138.5	53.7	-79.9	5.3
2026-01-02 11:12:11.581332	137.9	54.4	-80.1	5.4
2026-01-02 11:12:13.851258	137.3	55.2	-80.1	5.6
2026-01-02 11:12:16.121239	136.6	56.0	-80.0	5.3
2026-01-02 11:12:18.388157	135.9	56.9	-80.6	7.5
2026-01-02 11:12:20.660552	135.1	57.7	-80.2	7.6
2026-01-02 11:12:22.927617	134.3	58.5	-79.7	6.6
2026-01-02 11:12:25.201153	133.4	59.3	-80.0	3.9
2026-01-02 11:12:27.467364	132.5	60.2	-79.9	6.8
2026-01-02 11:12:29.735797	131.5	61.0	-78.8	2.9
2026-01-02 11:12:32.003646	130.5	61.9	-78.3	2.1
2026-01-02 11:12:34.268367	129.4	62.7	-78.7	2.1
2026-01-02 11:12:36.537696	128.2	63.5	-79.5	5.0
2026-01-02 11:12:38.801792	126.9	64.4	-78.4	4.6
2026-01-02 11:12:41.069741	125.5	65.2	-77.8	0.0
2026-01-02 11:12:43.346541	124.0	66.1	-77.7	0.2
2026-01-02 11:12:45.624816	122.3	66.9	-77.8	1.1
2026-01-02 11:12:47.901041	120.6	67.7	-78.7	5.7
2026-01-02 11:12:50.173308	118.7	68.5	-79.7	6.4
2026-01-02 11:12:52.445948	116.6	69.3	-78.0	1.9
2026-01-02 11:12:54.723150	114.4	70.1	-77.9	4.3
2026-01-02 11:12:56.997476	111.9	70.8	-78.1	4.4
2026-01-02 11:12:59.268961	109.3	71.5	-78.5	7.2
2026-01-02 11:13:01.544078	106.5	72.2	-78.2	3.2
2026-01-02 11:13:03.816982	103.4	72.8	-77.3	4.9
2026-01-02 11:13:06.090748	100.1	73.4	-76.5	3.6
2026-01-02 11:13:08.362122	96.5	73.9	-77.0	2.9
2026-01-02 11:13:10.635772	92.7	74.4	-75.9	1.1
2026-01-02 11:13:12.906393	88.7	74.8	-75.9	2.1
2026-01-02 11:13:15.180485	84.4	75.1	-77.8	6.8
2026-01-02 11:13:17.452666	80.0	75.4	-76.9	3.1
2026-01-02 11:13:19.725913	75.5	75.5	-77.5	4.5
2026-01-02 11:13:22.001408	70.9	75.6	-77.8	4.7
2026-01-02 11:13:24.279317	66.3	75.6	-78.6	5.8
2026-01-02 11:13:26.548740	61.7	75.5	-78.5	7.3
2026-01-02 11:13:28.820262	57.2	75.3	-77.8	7.4
2026-01-02 11:13:31.094840	52.9	75.0	-77.2	5.4
2026-01-02 11:13:33.365814	48.7	74.6	-76.6	3.8
2026-01-02 11:13:35.638191	44.8	74.2	-78.0	3.5
2026-01-02 11:13:37.912880	41.1	73.7	-77.0	3.4
2026-01-02 11:13:40.187894	37.7	73.1	-77.0	0.4
2026-01-02 11:13:42.450344	34.5	72.5	-77.8	2.7
2026-01-02 11:13:44.711209	31.6	71.9	-77.9	4.2
2026-01-02 11:13:46.970205	28.8	71.2	-76.5	2.4
2026-01-02 11:13:49.230838	26.3	70.5	-78.3	5.8
2026-01-02 11:13:51.488285	24.0	69.7	-78.1	5.1
2026-01-02 11:13:53.748890	21.8	69.0	-78.5	7.0
2026-01-02 11:13:56.007157	19.9	68.2	-79.3	6.5
2026-01-02 11:13:58.265570	18.0	67.4	-76.9	2.1
2026-01-02 11:14:00.524509	16.3	66.6	-78.0	1.8
2026-01-02 11:14:02.785959	14.8	65.7	-79.2	5.1
2026-01-02 11:14:05.059450	13.3	64.9	-77.8	1.9
2026-01-02 11:14:07.334241	12.0	64.1	-78.1	4.3
2026-01-02 11:14:09.607908	10.7	63.2	-78.4	5.0
2026-01-02 11:14:11.880920	9.5	62.4	-78.6	5.5
2026-01-02 11:14:14.153228	8.4	61.5	-77.1	2.5
2026-01-02 11:14:16.422993	7.4	60.7	-77.7	4.9
2026-01-02 11:14:18.697017	6.5	59.9	-77.9	4.0
2026-01-02 11:14:20.967615	5.6	59.0	-79.1	6.7
2026-01-02 11:14:23.233475	4.7	58.2	-79.4	5.3
2026-01-02 11:14:25.500233	4.0	57.4	-80.2	7.1
2026-01-02 11:14:27.764496	3.2	56.6	-79.2	4.7
2026-01-02 11:14:30.027967	2.5	55.8	-78.7	3.9
2026-01-02 11:14:32.292429	1.9	55.0	-78.0	1.8
2026-01-02 11:14:34.556360	1.2	54.2	-79.0	3.9
2026-01-02 11:14:36.820969	0.7	53.4	-77.8	1.9
2026-01-02 11:14:39.090329	0.1	52.6	-78.0	3.2
2026-01-02 11:14:41.354511	359.6	51.9	-78.3	0.3
2026-01-02 11:14:43.622141	359.1	51.1	-78.4	2.7
2026-01-02 11:14:45.886747	358.6	50.4	-77.7	2.7
2026-01-02 11:14:48.154299	358.1	49.7	-76.1	0.0
2026-01-02 11:14:50.425348	357.7	48.9	-76.6	1.3
2026-01-02 11:14:52.690920	357.3	48.2	-75.6	0.0
2026-01-02 11:14:54.956526	356.9	47.5	-75.4	0.3
2026-01-02 11:14:57.225590	356.5	46.8	-73.6	0.0
2026-01-02 11:14:59.490560	356.2	46.1	-74.3	0.0
2026-01-02 11:15:01.759679	355.8	45.5	-74.4	0.0
2026-01-02 11:15:04.025199	355.5	44.8	-73.8	0.0
2026-01-02 11:15:06.294085	355.2	44.2	-75.1	0.0
2026-01-02 11:15:08.561069	354.9	43.5	-72.1	0.0
2026-01-02 11:15:10.828902	354.6	42.9	-72.3	0.0
2026-01-02 11:15:13.096454	354.3	42.3	-72.2	0.0
2026-01-02 11:15:15.361768	354.0	41.7	-72.8	0.0
2026-01-02 11:15:17.629044	353.8	41.0	-71.2	0.0
2026-01-02 11:15:19.898457	353.5	40.5	-72.0	0.0
2026-01-02 11:15:22.172791	353.3	39.9	-73.0	0.0
2026-01-02 11:15:24.441305	353.1	39.3	-71.8	0.0
2026-01-02 11:15:26.710211	352.8	38.7	-71.6	0.0
2026-01-02 11:15:28.983234	352.6	38.2	-72.5	0.0
2026-01-02 11:15:31.254369	352.4	37.6	-71.5	0.0
2026-01-02 11:15:33.528894	352.2	37.1	-71.2	0.0
2026-01-02 11:15:35.802566	352.0	36.5	-72.1	0.0
2026-01-02 11:15:38.076993	351.8	36.0	-71.3	0.0
2026-01-02 11:15:40.348906	351.6	35.5	-72.7	0.0
2026-01-02 11:15:42.620882	351.5	35.0	-72.7	0.0
2026-01-02 11:15:44.892995	351.3	34.5	-72.2	0.0
2026-01-02 11:15:47.167973	351.1	34.0	-72.3	0.0
2026-01-02 11:15:49.445100	351.0	33.5	-70.9	0.0
2026-01-02 11:15:51.717454	350.8	33.0	-72.0	0.0
2026-01-02 11:15:53.990175	350.7	32.6	-72.3	0.0
2026-01-02 11:15:56.259859	350.5	32.1	-72.0	0.0
2026-01-02 11:15:58.529758	350.4	31.6	-73.0	0.0
2026-01-02 11:16:00.797931	350.3	31.2	-72.2	0.0
2026-01-02 11:16:03.065125	350.1	30.7	-73.2	0.0
2026-01-02 11:16:05.331431	350.0	30.3	-72.4	0.0
2026-01-02 11:16:07.595045	349.9	29.9	-72.3	0.0
2026-01-02 11:16:09.857963	349.7	29.5	-71.1	0.0
2026-01-02 11:16:12.121164	349.6	29.0	-70.1	0.0
2026-01-02 11:16:14.386954	349.5	28.6	-70.8	0.0
2026-01-02 11:16:16.653029	349.4	28.2	-70.5	0.0
2026-01-02 11:16:18.906447	349.3	27.8	-69.7	0.0
2026-01-02 11:16:21.163293	349.2	27.4	-69.7	0.0
2026-01-02 11:16:23.418410	349.1	27.0	-68.6	0.0
2026-01-02 11:16:25.671084	349.0	26.7	-70.6	0.0
2026-01-02 11:16:27.924015	348.9	26.3	-71.9	0.0
2026-01-02 11:16:30.181759	348.8	25.9	-69.6	0.0
2026-01-02 11:16:32.433970	348.7	25.6	-68.8	0.0
2026-01-02 11:16:34.691694	348.6	25.2	-67.7	0.0
2026-01-02 11:16:36.950643	348.5	24.8	-70.3	0.0
2026-01-02 11:16:39.206545	348.4	24.5	-71.3	0.0
2026-01-02 11:16:41.458178	348.4	24.1	-71.1	0.0
2026-01-02 11:16:43.714949	348.3	23.8	-72.0	0.0
2026-01-02 11:16:45.972266	348.2	23.5	-70.8	0.0
2026-01-02 11:16:48.236284	348.1	23.1	-69.6	0.0
2026-01-02 11:16:50.503303	348.0	22.8	-69.4	0.0
2026-01-02 11:16:52.767431	348.0	22.5	-71.2	0.0
2026-01-02 11:16:55.030088	347.9	22.1	-71.4	0.0
2026-01-02 11:16:57.296928	347.8	21.8	-72.3	0.0
2026-01-02 11:16:59.561282	347.7	21.5	-72.4	0.0
2026-01-02 11:17:01.830422	347.7	21.2	-72.6	0.0
2026-01-02 11:17:04.102629	347.6	20.9	-70.5	0.0
2026-01-02 11:17:06.365105	347.5	20.6	-71.6	0.0
2026-01-02 11:17:08.630120	347.5	20.3	-69.3	0.0
2026-01-02 11:17:10.906035	347.4	20.0	-73.6	0.0
2026-01-02 11:17:13.180479	347.4	19.7	-73.8	0.0
2026-01-02 11:17:15.456010	347.3	19.4	-71.1	0.0
2026-01-02 11:17:17.728663	347.2	19.1	-74.4	0.0
2026-01-02 11:17:20.004186	347.2	18.8	-72.4	0.0
2026-01-02 11:17:22.275349	347.1	18.6	-76.0	3.0
2026-01-02 11:17:24.540205	347.1	18.3	-72.4	0.0
2026-01-02 11:17:26.817559	347.0	18.0	-72.3	0.0
2026-01-02 11:17:29.092565	347.0	17.7	-74.9	0.3
2026-01-02 11:17:31.366590	346.9	17.5	-72.7	0.0
2026-01-02 11:17:33.643853	346.9	17.2	-73.2	0.0
2026-01-02 11:17:35.916945	346.8	16.9	-73.5	0.0
2026-01-02 11:17:38.188028	346.8	16.7	-74.2	0.0
2026-01-02 11:17:40.458664	346.7	16.4	-73.6	0.0
2026-01-02 11:17:42.731391	346.7	16.2	-73.3	0.0
2026-01-02 11:17:45.008235	346.6	15.9	-72.0	0.0
2026-01-02 11:17:47.284716	346.6	15.7	-72.7	0.0
2026-01-02 11:17:49.562024	346.5	15.4	-71.0	0.0
2026-01-02 11:17:51.833368	346.5	15.2	-73.9	0.0
2026-01-02 11:17:54.108445	346.5	14.9	-71.9	0.0
2026-01-02 11:17:56.382260	346.4	14.7	-74.0	0.0
2026-01-02 11:17:58.652444	346.4	14.5	-75.6	0.0
2026-01-02 11:18:00.927083	346.3	14.2	-72.6	0.0
2026-01-02 11:18:03.202612	346.3	14.0	-73.5	0.0
2026-01-02 11:18:05.478345	346.3	13.8	-72.2	0.0
2026-01-02 11:18:07.754414	346.2	13.5	-72.0	0.0
2026-01-02 11:18:10.030781	346.2	13.3	-72.4	0.0
2026-01-02 11:18:12.302320	346.1	13.1	-73.1	0.0
2026-01-02 11:18:14.576936	346.1	12.9	-75.2	0.0
2026-01-02 11:18:16.847845	346.1	12.6	-73.2	0.0
2026-01-02 11:18:19.119168	346.0	12.4	-72.0	0.0
2026-01-02 11:18:21.391568	346.0	12.2	-72.7	0.0
2026-01-02 11:18:23.659827	346.0	12.0	-73.3	0.0
2026-01-02 11:18:25.929283	345.9	11.8	-71.5	0.0
2026-01-02 11:18:28.201369	345.9	11.6	-72.5	0.0
2026-01-02 11:18:30.471429	345.9	11.4	-73.3	0.0
2026-01-02 11:18:32.737597	345.8	11.2	-73.6	0.0
2026-01-02 11:18:34.995183	345.8	10.9	-72.5	0.0
2026-01-02 11:18:37.251779	345.8	10.7	-72.9	0.0
2026-01-02 11:18:39.512182	345.8	10.5	-72.8	0.0
2026-01-02 11:18:41.771826	345.7	10.3	-70.4	0.0
2026-01-02 11:18:44.031103	345.7	10.2	-72.0	0.0
#Closed at: 2026-01-02 11:07:57.338904