passes_logs/2026/01/02/planumMaritime01/planumMaritime01__20260102_070820_METOP-B_rec.log

#Pass ID: 20260102_070820_METOP-B
#Satellite: METOP-B
#Configuration: METOP-B
#Start time: 2026-01-02 07:08:25.957767

#LorettStation: 1.0.0 05.05.2024
#Station: planumMaritime01
#Location: 37.49445 lon 55.92918 lat
#TLE: 1 38771U 12049A   26001.29166681  .00000269  00000+0  14283-3 0  9997
#TLE: 2 38771  98.6772  55.9164 0003359 104.1262 256.0289 14.21416881689554

#Time	Az	El	Level	SNR
2026-01-02 07:08:28.137396	18.0	10.2	-71.1	0.0
2026-01-02 07:08:30.391303	18.0	10.4	-70.6	0.0
2026-01-02 07:08:32.641730	18.1	10.6	-68.6	0.0
2026-01-02 07:08:34.899176	18.1	10.8	-65.1	0.0
2026-01-02 07:08:37.155178	18.1	11.0	-63.0	0.0
2026-01-02 07:08:39.410173	18.2	11.2	-62.3	0.0
2026-01-02 07:08:41.663555	18.2	11.4	-59.9	0.0
2026-01-02 07:08:43.917286	18.2	11.6	-62.4	0.0
2026-01-02 07:08:46.172027	18.3	11.8	-60.3	0.0
2026-01-02 07:08:48.426401	18.3	12.0	-63.2	0.0
2026-01-02 07:08:50.679419	18.3	12.2	-62.7	0.0
2026-01-02 07:08:52.935566	18.4	12.5	-59.1	0.0
2026-01-02 07:08:55.189547	18.4	12.7	-61.8	0.0
2026-01-02 07:08:57.442619	18.4	12.9	-62.3	0.0
2026-01-02 07:08:59.697790	18.5	13.1	-62.8	0.0
2026-01-02 07:09:01.949119	18.5	13.3	-62.7	0.0
2026-01-02 07:09:04.203691	18.6	13.6	-62.9	0.0
2026-01-02 07:09:06.456657	18.6	13.8	-62.3	0.0
2026-01-02 07:09:08.711277	18.6	14.0	-60.7	0.0
2026-01-02 07:09:10.966277	18.7	14.2	-59.9	0.0
2026-01-02 07:09:13.220299	18.7	14.5	-57.2	0.0
2026-01-02 07:09:15.477719	18.8	14.7	-61.8	0.0
2026-01-02 07:09:17.728772	18.8	15.0	-61.4	0.0
2026-01-02 07:09:19.980182	18.8	15.2	-61.4	0.0
2026-01-02 07:09:22.232267	18.9	15.4	-61.3	0.0
2026-01-02 07:09:24.490115	18.9	15.7	-64.0	0.0
2026-01-02 07:09:26.744127	19.0	15.9	-64.8	0.0
2026-01-02 07:09:28.997630	19.0	16.2	-64.9	0.0
2026-01-02 07:09:31.249452	19.1	16.4	-62.5	0.0
2026-01-02 07:09:33.502964	19.1	16.7	-66.6	0.0
2026-01-02 07:09:35.755320	19.1	16.9	-61.5	0.0
2026-01-02 07:09:38.007992	19.2	17.2	-62.2	0.0
2026-01-02 07:09:40.263285	19.2	17.5	-62.6	0.0
2026-01-02 07:09:42.517500	19.3	17.7	-61.2	0.0
2026-01-02 07:09:44.772414	19.3	18.0	-66.0	0.0
2026-01-02 07:09:47.029276	19.4	18.3	-64.1	0.0
2026-01-02 07:09:49.284344	19.4	18.6	-63.5	0.0
2026-01-02 07:09:51.538954	19.5	18.8	-65.4	0.0
2026-01-02 07:09:53.793312	19.5	19.1	-65.0	0.0
2026-01-02 07:09:56.046739	19.6	19.4	-67.8	0.0
2026-01-02 07:09:58.303761	19.6	19.7	-66.3	0.0
2026-01-02 07:10:00.560332	19.7	20.0	-65.8	0.0
2026-01-02 07:10:02.817278	19.7	20.3	-66.2	0.0
2026-01-02 07:10:05.070303	19.8	20.6	-66.5	0.0
2026-01-02 07:10:07.326975	19.8	20.9	-66.7	0.0
2026-01-02 07:10:09.579947	19.9	21.2	-66.3	0.0
2026-01-02 07:10:11.834632	20.0	21.5	-63.1	0.0
2026-01-02 07:10:14.089628	20.0	21.8	-64.1	0.0
2026-01-02 07:10:16.344980	20.1	22.1	-67.8	0.0
2026-01-02 07:10:18.598355	20.1	22.5	-65.7	0.0
2026-01-02 07:10:20.851977	20.2	22.8	-65.9	0.0
2026-01-02 07:10:23.105361	20.3	23.1	-65.4	0.0
2026-01-02 07:10:25.356627	20.3	23.5	-65.5	0.0
2026-01-02 07:10:27.609054	20.4	23.8	-66.3	0.0
2026-01-02 07:10:29.862265	20.5	24.1	-67.0	0.0
2026-01-02 07:10:32.116421	20.5	24.5	-66.7	0.0
2026-01-02 07:10:34.368559	20.6	24.8	-65.5	0.0
2026-01-02 07:10:36.623437	20.7	25.2	-65.5	0.0
2026-01-02 07:10:38.876663	20.7	25.6	-68.4	0.0
2026-01-02 07:10:41.129468	20.8	25.9	-69.1	0.0
2026-01-02 07:10:43.384094	20.9	26.3	-69.1	0.0
2026-01-02 07:10:45.636589	21.0	26.7	-69.1	0.0
2026-01-02 07:10:47.891475	21.0	27.1	-68.7	0.0
2026-01-02 07:10:50.143587	21.1	27.5	-67.6	0.0
2026-01-02 07:10:52.399521	21.2	27.8	-65.5	0.0
2026-01-02 07:10:54.652782	21.3	28.2	-69.9	0.0
2026-01-02 07:10:56.907251	21.4	28.7	-68.2	0.0
2026-01-02 07:10:59.165612	21.5	29.1	-68.7	0.0
2026-01-02 07:11:01.419678	21.5	29.5	-69.2	0.0
2026-01-02 07:11:03.674530	21.6	29.9	-69.9	0.0
2026-01-02 07:11:05.928468	21.7	30.3	-70.0	0.0
2026-01-02 07:11:08.181104	21.8	30.8	-69.9	0.0
2026-01-02 07:11:10.436254	21.9	31.2	-70.5	2.6
2026-01-02 07:11:12.688734	22.0	31.7	-71.3	3.1
2026-01-02 07:11:14.943828	22.1	32.1	-71.4	3.4
2026-01-02 07:11:17.196442	22.2	32.6	-71.1	3.4
2026-01-02 07:11:19.452511	22.3	33.1	-71.0	0.0
2026-01-02 07:11:21.707364	22.5	33.6	-71.4	4.4
2026-01-02 07:11:23.960209	22.6	34.0	-70.9	5.4
2026-01-02 07:11:26.213801	22.7	34.5	-71.5	2.5
2026-01-02 07:11:28.468796	22.8	35.0	-70.5	5.1
2026-01-02 07:11:30.721421	22.9	35.6	-72.2	6.0
2026-01-02 07:11:32.975907	23.1	36.1	-72.2	5.7
2026-01-02 07:11:35.229851	23.2	36.6	-71.5	6.0
2026-01-02 07:11:37.481991	23.3	37.1	-70.5	0.0
2026-01-02 07:11:39.735258	23.5	37.7	-71.0	3.2
2026-01-02 07:11:41.989766	23.6	38.2	-71.0	2.2
2026-01-02 07:11:44.241324	23.8	38.8	-71.1	3.6
2026-01-02 07:11:46.492874	23.9	39.4	-72.3	5.2
2026-01-02 07:11:48.745375	24.1	40.0	-72.1	6.6
2026-01-02 07:11:50.996718	24.3	40.6	-70.6	3.2
2026-01-02 07:11:53.250830	24.4	41.2	-71.1	5.0
2026-01-02 07:11:55.504288	24.6	41.8	-71.7	7.8
2026-01-02 07:11:57.758863	24.8	42.4	-71.3	5.2
2026-01-02 07:12:00.010900	25.0	43.0	-71.5	7.3
2026-01-02 07:12:02.262492	25.2	43.7	-71.8	8.0
2026-01-02 07:12:04.516660	25.4	44.3	-71.2	6.7
2026-01-02 07:12:06.772317	25.6	45.0	-69.9	4.0
2026-01-02 07:12:09.025227	25.8	45.7	-70.9	2.7
2026-01-02 07:12:11.280833	26.1	46.3	-71.0	4.0
2026-01-02 07:12:13.534861	26.3	47.0	-70.2	3.2
2026-01-02 07:12:15.787391	26.6	47.8	-70.4	1.6
2026-01-02 07:12:18.038374	26.8	48.5	-70.9	2.6
2026-01-02 07:12:20.290161	27.1	49.2	-70.7	3.5
2026-01-02 07:12:22.543355	27.4	50.0	-70.7	4.0
2026-01-02 07:12:24.793412	27.7	50.7	-70.7	5.0
2026-01-02 07:12:27.045286	28.1	51.5	-71.2	5.5
2026-01-02 07:12:29.299078	28.4	52.3	-72.4	6.0
2026-01-02 07:12:31.550386	28.8	53.0	-72.1	8.4
2026-01-02 07:12:33.803397	29.1	53.8	-71.4	3.0
2026-01-02 07:12:36.057253	29.5	54.7	-70.4	4.2
2026-01-02 07:12:38.310114	30.0	55.5	-71.0	4.2
2026-01-02 07:12:40.562402	30.4	56.3	-71.3	3.1
2026-01-02 07:12:42.813335	30.9	57.2	-71.2	4.9
2026-01-02 07:12:45.063931	31.4	58.0	-71.4	4.9
2026-01-02 07:12:47.316238	31.9	58.9	-71.7	4.9
2026-01-02 07:12:49.572678	32.5	59.8	-71.4	6.3
2026-01-02 07:12:51.825041	33.1	60.7	-71.6	5.7
2026-01-02 07:12:54.078454	33.8	61.6	-72.0	8.2
2026-01-02 07:12:56.333477	34.5	62.5	-70.8	3.7
2026-01-02 07:12:58.586120	35.3	63.4	-72.1	6.4
2026-01-02 07:13:00.839117	36.1	64.3	-71.4	4.0
2026-01-02 07:13:03.098058	37.0	65.2	-72.1	6.0
2026-01-02 07:13:05.350839	37.9	66.2	-73.4	8.5
2026-01-02 07:13:07.603426	39.0	67.1	-72.8	6.7
2026-01-02 07:13:09.854946	40.2	68.1	-73.6	7.1
2026-01-02 07:13:12.107045	41.4	69.0	-73.4	4.7
2026-01-02 07:13:14.362815	42.8	70.0	-73.8	7.0
2026-01-02 07:13:16.616447	44.4	70.9	-74.4	6.8
2026-01-02 07:13:18.870506	46.1	71.8	-74.4	5.3
2026-01-02 07:13:21.120647	48.0	72.8	-73.7	4.6
2026-01-02 07:13:23.374821	50.2	73.7	-74.5	6.4
2026-01-02 07:13:25.627904	52.6	74.6	-73.2	3.7
2026-01-02 07:13:27.883294	55.3	75.4	-72.4	6.4
2026-01-02 07:13:30.137167	58.4	76.3	-73.6	7.1
2026-01-02 07:13:32.390161	61.8	77.1	-73.4	5.4
2026-01-02 07:13:34.646716	65.8	77.9	-73.9	6.9
2026-01-02 07:13:36.898118	70.2	78.6	-74.2	5.7
2026-01-02 07:13:39.152184	75.2	79.2	-73.5	6.6
2026-01-02 07:13:41.405550	80.8	79.7	-73.7	5.7
2026-01-02 07:13:43.658995	86.9	80.1	-75.0	7.3
2026-01-02 07:13:45.913499	93.6	80.5	-75.4	7.9
2026-01-02 07:13:48.169633	100.6	80.6	-75.0	9.3
2026-01-02 07:13:50.423098	107.7	80.7	-74.8	10.1
2026-01-02 07:13:52.677865	114.8	80.6	-75.3	7.5
2026-01-02 07:13:54.931722	121.7	80.3	-75.7	5.9
2026-01-02 07:13:57.183407	128.1	80.0	-75.5	7.1
2026-01-02 07:13:59.436246	134.0	79.5	-75.8	7.5
2026-01-02 07:14:01.687172	139.3	78.9	-76.1	7.7
2026-01-02 07:14:03.941400	144.0	78.2	-75.8	7.9
2026-01-02 07:14:06.193705	148.3	77.5	-75.7	8.5
2026-01-02 07:14:08.444931	152.0	76.7	-75.6	9.5
2026-01-02 07:14:10.698925	155.3	75.9	-75.8	8.3
2026-01-02 07:14:12.953247	158.2	75.0	-75.9	9.3
2026-01-02 07:14:15.205449	160.7	74.2	-75.9	8.8
2026-01-02 07:14:17.462708	163.0	73.3	-75.6	8.1
2026-01-02 07:14:19.720370	165.1	72.3	-75.8	6.8
2026-01-02 07:14:21.974484	166.9	71.4	-76.0	8.2
2026-01-02 07:14:24.229678	168.5	70.5	-75.8	7.1
2026-01-02 07:14:26.482031	170.0	69.5	-76.0	7.7
2026-01-02 07:14:28.734626	171.3	68.6	-76.2	7.1
2026-01-02 07:14:30.987446	172.6	67.6	-75.8	8.1
2026-01-02 07:14:33.238852	173.7	66.7	-75.8	9.4
2026-01-02 07:14:35.492084	174.7	65.7	-75.6	8.6
2026-01-02 07:14:37.746369	175.6	64.8	-75.6	9.9
2026-01-02 07:14:40.000479	176.5	63.9	-75.4	10.2
2026-01-02 07:14:42.253359	177.3	62.9	-75.2	9.9
2026-01-02 07:14:44.508020	178.0	62.0	-75.2	10.7
2026-01-02 07:14:46.764157	178.7	61.1	-75.3	10.5
2026-01-02 07:14:49.016677	179.4	60.2	-75.1	10.3
2026-01-02 07:14:51.269527	180.0	59.3	-75.6	9.9
2026-01-02 07:14:53.524064	180.5	58.5	-75.9	9.7
2026-01-02 07:14:55.776800	181.1	57.6	-76.4	9.3
2026-01-02 07:14:58.027838	181.5	56.7	-76.3	9.2
2026-01-02 07:15:00.277644	182.0	55.9	-76.0	10.4
2026-01-02 07:15:02.531040	182.4	55.1	-76.4	10.6
2026-01-02 07:15:04.783022	182.9	54.2	-76.3	9.6
2026-01-02 07:15:07.036712	183.2	53.4	-76.0	10.4
2026-01-02 07:15:09.289399	183.6	52.6	-75.5	10.9
2026-01-02 07:15:11.540181	184.0	51.8	-75.5	10.6
2026-01-02 07:15:13.796350	184.3	51.1	-75.3	9.7
2026-01-02 07:15:16.048013	184.6	50.3	-75.7	9.9
2026-01-02 07:15:18.300102	184.9	49.5	-75.6	9.6
2026-01-02 07:15:20.552896	185.2	48.8	-75.2	9.6
2026-01-02 07:15:22.805614	185.5	48.1	-75.6	9.6
2026-01-02 07:15:25.059027	185.7	47.4	-75.4	8.6
2026-01-02 07:15:27.314848	186.0	46.6	-74.9	8.3
2026-01-02 07:15:29.570770	186.2	45.9	-75.2	9.5
2026-01-02 07:15:31.821338	186.5	45.3	-74.4	6.7
2026-01-02 07:15:34.076406	186.7	44.6	-74.0	8.0
2026-01-02 07:15:36.333583	186.9	43.9	-73.9	8.7
2026-01-02 07:15:38.589581	187.1	43.3	-74.1	6.6
2026-01-02 07:15:40.845458	187.3	42.6	-73.6	6.2
2026-01-02 07:15:43.098456	187.5	42.0	-73.6	6.3
2026-01-02 07:15:45.352085	187.7	41.4	-73.4	6.9
2026-01-02 07:15:47.604977	187.8	40.8	-73.8	5.5
2026-01-02 07:15:49.858813	188.0	40.2	-73.4	6.2
2026-01-02 07:15:52.112665	188.2	39.6	-73.1	4.6
2026-01-02 07:15:54.362681	188.3	39.0	-73.8	5.7
2026-01-02 07:15:56.616704	188.5	38.4	-73.6	4.5
2026-01-02 07:15:58.868323	188.6	37.9	-73.3	2.8
2026-01-02 07:16:01.124695	188.8	37.3	-73.1	2.1
2026-01-02 07:16:03.378049	188.9	36.8	-74.1	3.9
2026-01-02 07:16:05.630410	189.0	36.2	-73.4	2.0
2026-01-02 07:16:07.885817	189.2	35.7	-72.9	0.2
2026-01-02 07:16:10.137030	189.3	35.2	-73.4	1.8
2026-01-02 07:16:12.390872	189.4	34.7	-72.9	2.5
2026-01-02 07:16:14.645590	189.5	34.2	-73.4	4.4
2026-01-02 07:16:16.899536	189.7	33.7	-72.7	1.9
2026-01-02 07:16:19.153717	189.8	33.2	-72.9	2.7
2026-01-02 07:16:21.405010	189.9	32.7	-72.4	2.6
2026-01-02 07:16:23.660530	190.0	32.3	-72.3	1.9
2026-01-02 07:16:25.914124	190.1	31.8	-72.7	3.8
2026-01-02 07:16:28.168246	190.2	31.3	-72.7	0.1
2026-01-02 07:16:30.422935	190.3	30.9	-72.4	0.0
2026-01-02 07:16:32.677268	190.4	30.4	-73.1	1.6
2026-01-02 07:16:34.931008	190.5	30.0	-73.1	0.0
2026-01-02 07:16:37.183924	190.6	29.6	-73.4	0.0
2026-01-02 07:16:39.435221	190.7	29.1	-73.1	0.4
2026-01-02 07:16:41.689308	190.7	28.7	-73.3	0.0
2026-01-02 07:16:43.940587	190.8	28.3	-73.0	2.8
2026-01-02 07:16:46.192613	190.9	27.9	-72.5	0.7
2026-01-02 07:16:48.442792	191.0	27.5	-73.1	0.0
2026-01-02 07:16:50.695297	191.1	27.1	-73.0	0.0
2026-01-02 07:16:52.948896	191.2	26.7	-73.2	0.0
2026-01-02 07:16:55.201715	191.2	26.4	-73.7	0.0
2026-01-02 07:16:57.455570	191.3	26.0	-73.0	1.7
2026-01-02 07:16:59.706585	191.4	25.6	-73.7	4.9
2026-01-02 07:17:01.957673	191.4	25.2	-72.6	0.9
2026-01-02 07:17:04.209504	191.5	24.9	-73.6	0.6
2026-01-02 07:17:06.463875	191.6	24.5	-74.1	4.6
2026-01-02 07:17:08.720300	191.7	24.2	-74.1	2.0
2026-01-02 07:17:10.971546	191.7	23.8	-74.0	0.0
2026-01-02 07:17:13.225211	191.8	23.5	-73.8	0.0
2026-01-02 07:17:15.476992	191.8	23.1	-73.5	1.2
2026-01-02 07:17:17.731058	191.9	22.8	-74.2	2.0
2026-01-02 07:17:19.985014	192.0	22.5	-74.0	1.9
2026-01-02 07:17:22.239743	192.0	22.1	-74.4	2.8
2026-01-02 07:17:24.495662	192.1	21.8	-74.2	2.8
2026-01-02 07:17:26.751644	192.1	21.5	-75.1	3.2
2026-01-02 07:17:29.006092	192.2	21.2	-75.1	2.1
2026-01-02 07:17:31.260759	192.3	20.9	-74.8	2.1
2026-01-02 07:17:33.511953	192.3	20.6	-74.3	2.5
2026-01-02 07:17:35.767887	192.4	20.3	-74.6	2.4
2026-01-02 07:17:38.025652	192.4	20.0	-75.3	2.5
2026-01-02 07:17:40.279592	192.5	19.7	-75.3	1.6
2026-01-02 07:17:42.533677	192.5	19.4	-75.0	0.0
2026-01-02 07:17:44.791156	192.6	19.1	-75.3	0.3
2026-01-02 07:17:47.044395	192.6	18.8	-75.2	0.0
2026-01-02 07:17:49.300066	192.7	18.5	-75.2	0.1
2026-01-02 07:17:51.552761	192.7	18.3	-75.2	0.0
2026-01-02 07:17:53.807477	192.8	18.0	-75.3	0.0
2026-01-02 07:17:56.058902	192.8	17.7	-75.6	0.0
2026-01-02 07:17:58.316331	192.9	17.4	-74.9	0.0
2026-01-02 07:18:00.568319	192.9	17.2	-75.1	0.0
2026-01-02 07:18:02.822908	192.9	16.9	-74.4	0.0
2026-01-02 07:18:05.072043	193.0	16.7	-74.7	0.0
2026-01-02 07:18:07.325348	193.0	16.4	-74.3	0.0
2026-01-02 07:18:09.581133	193.1	16.1	-72.7	0.0
2026-01-02 07:18:11.832967	193.1	15.9	-74.5	0.0
2026-01-02 07:18:14.085721	193.2	15.6	-74.1	0.0
2026-01-02 07:18:16.337622	193.2	15.4	-73.8	0.0
2026-01-02 07:18:18.592297	193.2	15.1	-73.8	0.0
2026-01-02 07:18:20.845644	193.3	14.9	-74.2	0.0
2026-01-02 07:18:23.102541	193.3	14.7	-73.5	0.0
2026-01-02 07:18:25.356760	193.4	14.4	-74.3	0.0
2026-01-02 07:18:27.606689	193.4	14.2	-73.5	0.0
2026-01-02 07:18:29.858690	193.4	14.0	-73.9	0.0
2026-01-02 07:18:32.112240	193.5	13.7	-73.7	0.0
2026-01-02 07:18:34.364811	193.5	13.5	-73.5	0.0
2026-01-02 07:18:36.619509	193.5	13.3	-73.2	0.0
2026-01-02 07:18:38.874647	193.6	13.0	-73.3	0.0
2026-01-02 07:18:41.128645	193.6	12.8	-72.7	0.0
2026-01-02 07:18:43.382627	193.6	12.6	-72.4	0.0
2026-01-02 07:18:45.633982	193.7	12.4	-72.7	0.0
2026-01-02 07:18:47.886988	193.7	12.2	-71.6	0.0
2026-01-02 07:18:50.139658	193.7	12.0	-72.7	0.0
2026-01-02 07:18:52.393013	193.8	11.7	-72.7	0.0
2026-01-02 07:18:54.645723	193.8	11.5	-72.5	0.0
2026-01-02 07:18:56.898332	193.8	11.3	-72.2	0.0
2026-01-02 07:18:59.152384	193.9	11.1	-72.2	0.0
2026-01-02 07:19:01.405839	193.9	10.9	-73.4	0.0
2026-01-02 07:19:03.656168	193.9	10.7	-72.2	0.0
2026-01-02 07:19:05.910318	194.0	10.5	-74.6	0.0
2026-01-02 07:19:08.162170	194.0	10.3	-79.4	0.0
2026-01-02 07:19:10.412852	194.0	10.1	-80.6	0.0
#Closed at: 2026-01-02 07:08:20.964565