passes_logs/2026/01/02/planumMaritime01/planumMaritime01__20260102_011829_METEOR-M2_4_rec.log

#Pass ID: 20260102_011829_METEOR-M2 4
#Satellite: METEOR-M2 4
#Configuration: METEOR-M2 4
#Start time: 2026-01-02 01:18:34.270582

#LorettStation: 1.0.0 05.05.2024
#Station: planumMaritime01
#Location: 37.49445 lon 55.92918 lat
#TLE: 1 59051U 24039A   26001.33093902  .00000101  00000+0  65101-4 0  9994
#TLE: 2 59051  98.6794 322.9353 0006125 297.7572  62.2984 14.22405016 95544

#Time	Az	El	Level	SNR
2026-01-02 01:18:36.448015	14.0	10.2	-85.4	0.0
2026-01-02 01:18:38.712821	14.0	10.4	-85.1	0.0
2026-01-02 01:18:40.974829	13.9	10.6	-85.5	0.0
2026-01-02 01:18:43.237840	13.9	10.8	-83.8	0.0
2026-01-02 01:18:45.501796	13.9	11.0	-84.5	0.0
2026-01-02 01:18:47.764479	13.8	11.2	-84.2	0.0
2026-01-02 01:18:50.027525	13.8	11.4	-84.7	0.0
2026-01-02 01:18:52.292341	13.7	11.6	-84.7	0.0
2026-01-02 01:18:54.557271	13.7	11.8	-84.9	0.0
2026-01-02 01:18:56.829232	13.7	12.0	-84.0	0.0
2026-01-02 01:18:59.101743	13.6	12.2	-83.3	0.0
2026-01-02 01:19:01.373004	13.6	12.5	-83.4	0.0
2026-01-02 01:19:03.643995	13.6	12.7	-83.9	0.0
2026-01-02 01:19:05.915316	13.5	12.9	-83.3	0.0
2026-01-02 01:19:08.186842	13.5	13.1	-83.3	0.0
2026-01-02 01:19:10.456491	13.4	13.3	-83.5	0.0
2026-01-02 01:19:12.727622	13.4	13.6	-83.3	0.0
2026-01-02 01:19:14.999626	13.3	13.8	-83.6	0.0
2026-01-02 01:19:17.268469	13.3	14.0	-83.5	0.0
2026-01-02 01:19:19.539799	13.3	14.3	-82.1	0.0
2026-01-02 01:19:21.811056	13.2	14.5	-83.0	0.0
2026-01-02 01:19:24.082646	13.2	14.7	-83.1	0.0
2026-01-02 01:19:26.354718	13.1	15.0	-83.5	0.0
2026-01-02 01:19:28.620479	13.1	15.2	-82.6	0.0
2026-01-02 01:19:30.893782	13.0	15.5	-83.6	0.0
2026-01-02 01:19:33.165971	13.0	15.7	-82.9	0.0
2026-01-02 01:19:35.439536	12.9	16.0	-82.2	0.0
2026-01-02 01:19:37.713798	12.9	16.2	-83.6	0.0
2026-01-02 01:19:39.986949	12.8	16.5	-82.8	0.0
2026-01-02 01:19:42.263568	12.8	16.7	-83.3	0.0
2026-01-02 01:19:44.530603	12.7	17.0	-82.9	0.0
2026-01-02 01:19:46.808222	12.6	17.2	-83.9	0.0
2026-01-02 01:19:49.082431	12.6	17.5	-82.5	0.0
2026-01-02 01:19:51.353333	12.5	17.8	-83.5	0.0
2026-01-02 01:19:53.628464	12.5	18.0	-83.6	0.0
2026-01-02 01:19:55.907770	12.4	18.3	-83.8	0.0
2026-01-02 01:19:58.180745	12.3	18.6	-83.2	0.0
2026-01-02 01:20:00.456783	12.3	18.9	-84.4	0.0
2026-01-02 01:20:02.729941	12.2	19.2	-84.1	0.0
2026-01-02 01:20:05.006418	12.1	19.4	-82.8	0.0
2026-01-02 01:20:07.282370	12.1	19.7	-84.0	0.0
2026-01-02 01:20:09.554179	12.0	20.0	-83.9	0.0
2026-01-02 01:20:11.830133	11.9	20.3	-84.1	0.0
2026-01-02 01:20:14.103799	11.8	20.6	-83.8	0.0
2026-01-02 01:20:16.375730	11.8	20.9	-83.9	0.0
2026-01-02 01:20:18.646746	11.7	21.2	-84.0	0.0
2026-01-02 01:20:20.919729	11.6	21.6	-83.7	0.0
2026-01-02 01:20:23.184299	11.5	21.9	-83.1	0.0
2026-01-02 01:20:25.450842	11.5	22.2	-84.2	0.0
2026-01-02 01:20:27.721733	11.4	22.5	-83.1	0.0
2026-01-02 01:20:29.990623	11.3	22.8	-83.7	0.0
2026-01-02 01:20:32.259827	11.2	23.2	-84.6	0.0
2026-01-02 01:20:34.528402	11.1	23.5	-84.0	0.0
2026-01-02 01:20:36.792052	11.0	23.8	-84.2	0.0
2026-01-02 01:20:39.057859	10.9	24.2	-84.5	0.0
2026-01-02 01:20:41.322965	10.8	24.5	-84.1	0.0
2026-01-02 01:20:43.589176	10.7	24.9	-84.4	0.0
2026-01-02 01:20:45.854743	10.6	25.2	-84.7	0.0
2026-01-02 01:20:48.123482	10.5	25.6	-84.3	0.0
2026-01-02 01:20:50.388380	10.4	26.0	-84.2	0.0
2026-01-02 01:20:52.652681	10.3	26.3	-83.7	0.0
2026-01-02 01:20:54.918988	10.2	26.7	-83.5	0.0
2026-01-02 01:20:57.187171	10.1	27.1	-83.2	0.0
2026-01-02 01:20:59.456764	10.0	27.5	-82.8	0.0
2026-01-02 01:21:01.722895	9.8	27.9	-83.5	0.0
2026-01-02 01:21:03.993196	9.7	28.3	-83.2	0.0
2026-01-02 01:21:06.259293	9.6	28.7	-84.0	0.0
2026-01-02 01:21:08.529201	9.4	29.1	-83.9	0.0
2026-01-02 01:21:10.795850	9.3	29.5	-83.6	0.0
2026-01-02 01:21:13.065660	9.2	29.9	-82.3	0.0
2026-01-02 01:21:15.340778	9.0	30.4	-83.6	0.0
2026-01-02 01:21:17.616163	8.9	30.8	-83.7	0.0
2026-01-02 01:21:19.885116	8.7	31.2	-82.6	0.0
2026-01-02 01:21:22.153331	8.6	31.7	-83.4	0.0
2026-01-02 01:21:24.425279	8.4	32.1	-83.6	0.0
2026-01-02 01:21:26.692804	8.2	32.6	-83.4	0.0
2026-01-02 01:21:28.962565	8.1	33.1	-82.1	0.0
2026-01-02 01:21:31.232373	7.9	33.6	-81.9	0.0
2026-01-02 01:21:33.501815	7.7	34.0	-83.4	0.0
2026-01-02 01:21:35.775250	7.5	34.5	-83.2	0.0
2026-01-02 01:21:38.055425	7.3	35.0	-83.2	0.0
2026-01-02 01:21:40.332751	7.1	35.5	-82.9	0.0
2026-01-02 01:21:42.609776	6.9	36.0	-83.1	0.0
2026-01-02 01:21:44.882038	6.7	36.6	-83.5	0.0
2026-01-02 01:21:47.149148	6.5	37.1	-83.1	0.0
2026-01-02 01:21:49.418556	6.3	37.6	-82.7	0.0
2026-01-02 01:21:51.683973	6.0	38.2	-82.3	0.0
2026-01-02 01:21:53.950749	5.8	38.7	-83.6	0.0
2026-01-02 01:21:56.220939	5.5	39.3	-83.3	0.0
2026-01-02 01:21:58.484888	5.3	39.9	-83.3	0.0
2026-01-02 01:22:00.751866	5.0	40.4	-83.9	0.0
2026-01-02 01:22:03.017180	4.7	41.0	-84.2	0.0
2026-01-02 01:22:05.286644	4.4	41.6	-84.0	0.0
2026-01-02 01:22:07.555993	4.1	42.2	-82.3	0.0
2026-01-02 01:22:09.823663	3.8	42.9	-84.1	0.0
2026-01-02 01:22:12.093844	3.5	43.5	-83.1	0.0
2026-01-02 01:22:14.364199	3.1	44.1	-83.2	0.0
2026-01-02 01:22:16.634205	2.8	44.8	-83.0	0.0
2026-01-02 01:22:18.903326	2.4	45.4	-83.8	0.0
2026-01-02 01:22:21.176555	2.0	46.1	-83.3	0.0
2026-01-02 01:22:23.459828	1.6	46.7	-81.5	0.0
2026-01-02 01:22:25.735550	1.2	47.4	-84.2	0.0
2026-01-02 01:22:28.005928	0.7	48.1	-83.9	0.0
2026-01-02 01:22:30.270029	0.3	48.8	-83.7	0.0
2026-01-02 01:22:32.533492	359.8	49.5	-83.5	0.0
2026-01-02 01:22:34.801349	359.3	50.2	-83.3	0.0
2026-01-02 01:22:37.071654	358.7	51.0	-84.1	0.0
2026-01-02 01:22:39.339806	358.2	51.7	-83.2	0.0
2026-01-02 01:22:41.607829	357.6	52.5	-83.5	0.0
2026-01-02 01:22:43.882803	357.0	53.2	-81.9	0.0
2026-01-02 01:22:46.144718	356.3	54.0	-83.8	0.0
2026-01-02 01:22:48.402288	355.6	54.7	-83.8	0.0
2026-01-02 01:22:50.658505	354.9	55.5	-83.6	0.0
2026-01-02 01:22:52.915829	354.1	56.3	-83.1	0.0
2026-01-02 01:22:55.176974	353.3	57.1	-83.6	0.0
2026-01-02 01:22:57.435978	352.4	57.8	-84.1	0.0
2026-01-02 01:22:59.693638	351.5	58.6	-83.1	0.0
2026-01-02 01:23:01.953668	350.5	59.4	-83.6	0.0
2026-01-02 01:23:04.214592	349.5	60.2	-83.2	0.0
2026-01-02 01:23:06.477583	348.4	61.0	-83.3	0.0
2026-01-02 01:23:08.750496	347.2	61.8	-83.2	0.0
2026-01-02 01:23:11.022519	346.0	62.6	-83.0	0.0
2026-01-02 01:23:13.294010	344.6	63.4	-83.7	0.0
2026-01-02 01:23:15.567275	343.2	64.2	-81.5	0.0
2026-01-02 01:23:17.836475	341.6	65.0	-83.8	0.0
2026-01-02 01:23:20.105965	340.0	65.8	-83.1	0.0
2026-01-02 01:23:22.376551	338.2	66.5	-83.7	0.0
2026-01-02 01:23:24.647951	336.3	67.3	-83.4	0.0
2026-01-02 01:23:26.918907	334.2	68.0	-83.5	0.0
2026-01-02 01:23:29.192605	332.0	68.7	-83.0	0.0
2026-01-02 01:23:31.462222	329.6	69.4	-81.0	0.0
2026-01-02 01:23:33.735106	327.1	70.1	-83.3	0.0
2026-01-02 01:23:36.003146	324.4	70.7	-84.2	0.0
2026-01-02 01:23:38.260182	321.5	71.2	-84.1	0.0
2026-01-02 01:23:40.525165	318.4	71.8	-83.2	0.0
2026-01-02 01:23:42.801372	315.1	72.3	-83.6	0.0
2026-01-02 01:23:45.072043	311.7	72.7	-83.1	0.0
2026-01-02 01:23:47.345327	308.0	73.0	-82.7	0.0
2026-01-02 01:23:49.618501	304.3	73.3	-83.2	2.7
2026-01-02 01:23:51.892110	300.4	73.6	-83.0	0.4
2026-01-02 01:23:54.154303	296.4	73.7	-82.7	2.0
2026-01-02 01:23:56.411826	292.4	73.8	-82.7	2.7
2026-01-02 01:23:58.677835	288.3	73.8	-81.3	0.0
2026-01-02 01:24:00.954109	284.2	73.7	-82.6	3.1
2026-01-02 01:24:03.232429	280.2	73.5	-79.9	0.0
2026-01-02 01:24:05.508811	276.4	73.3	-82.3	2.0
2026-01-02 01:24:07.785044	272.6	73.0	-82.2	0.0
2026-01-02 01:24:10.057764	269.0	72.6	-83.1	3.8
2026-01-02 01:24:12.321802	265.6	72.2	-83.0	0.3
2026-01-02 01:24:14.584772	262.3	71.7	-83.6	0.0
2026-01-02 01:24:16.841878	259.3	71.1	-83.9	0.0
2026-01-02 01:24:19.114245	256.4	70.6	-84.0	0.0
2026-01-02 01:24:21.388026	253.7	69.9	-83.9	0.0
2026-01-02 01:24:23.662357	251.2	69.3	-83.6	0.0
2026-01-02 01:24:25.934903	248.9	68.6	-84.8	0.0
2026-01-02 01:24:28.207689	246.7	67.9	-84.4	0.0
2026-01-02 01:24:30.479223	244.7	67.1	-84.8	0.0
2026-01-02 01:24:32.746786	242.8	66.4	-84.1	0.0
2026-01-02 01:24:35.015968	241.0	65.6	-84.8	0.0
2026-01-02 01:24:37.284744	239.4	64.8	-84.5	0.0
2026-01-02 01:24:39.556884	237.9	64.1	-83.0	0.0
2026-01-02 01:24:41.827385	236.4	63.3	-84.1	0.0
2026-01-02 01:24:44.099588	235.1	62.5	-83.5	0.0
2026-01-02 01:24:46.362990	233.9	61.7	-83.1	0.0
2026-01-02 01:24:48.632325	232.7	60.9	-83.6	0.0
2026-01-02 01:24:50.908841	231.6	60.0	-83.4	0.0
2026-01-02 01:24:53.184199	230.6	59.2	-83.0	0.0
2026-01-02 01:24:55.442663	229.6	58.4	-81.8	0.0
2026-01-02 01:24:57.699889	228.7	57.6	-83.1	0.0
2026-01-02 01:24:59.959446	227.8	56.9	-82.8	0.0
2026-01-02 01:25:02.220923	227.0	56.1	-82.9	0.0
2026-01-02 01:25:04.485615	226.3	55.3	-82.3	0.0
2026-01-02 01:25:06.750718	225.5	54.5	-83.1	0.0
2026-01-02 01:25:09.009987	224.9	53.8	-82.8	0.0
2026-01-02 01:25:11.266971	224.2	53.0	-82.6	0.0
2026-01-02 01:25:13.525873	223.6	52.2	-82.6	0.0
2026-01-02 01:25:15.782576	223.0	51.5	-83.0	0.0
2026-01-02 01:25:18.047499	222.5	50.8	-83.0	0.0
2026-01-02 01:25:20.322125	221.9	50.0	-83.3	0.0
2026-01-02 01:25:22.594417	221.4	49.3	-82.9	0.0
2026-01-02 01:25:24.862904	220.9	48.6	-83.1	0.0
2026-01-02 01:25:27.130978	220.5	47.9	-83.9	0.0
2026-01-02 01:25:29.395760	220.0	47.2	-82.9	0.0
2026-01-02 01:25:31.664786	219.6	46.5	-83.7	0.0
2026-01-02 01:25:33.929788	219.2	45.9	-84.2	0.0
2026-01-02 01:25:36.199458	218.8	45.2	-83.6	0.0
2026-01-02 01:25:38.475666	218.4	44.5	-83.5	0.0
2026-01-02 01:25:40.751567	218.1	43.9	-82.6	0.0
2026-01-02 01:25:43.019888	217.7	43.3	-83.5	0.0
2026-01-02 01:25:45.284661	217.4	42.6	-83.2	0.0
2026-01-02 01:25:47.553483	217.1	42.0	-82.4	0.0
2026-01-02 01:25:49.819807	216.8	41.4	-84.3	0.0
2026-01-02 01:25:52.089112	216.5	40.8	-84.5	0.0
2026-01-02 01:25:54.356752	216.2	40.2	-84.0	0.0
2026-01-02 01:25:56.621786	216.0	39.7	-83.7	0.0
2026-01-02 01:25:58.899330	215.7	39.1	-84.4	0.0
2026-01-02 01:26:01.176016	215.4	38.5	-84.5	0.0
2026-01-02 01:26:03.451142	215.2	38.0	-83.5	0.0
2026-01-02 01:26:05.722632	215.0	37.4	-83.7	0.0
2026-01-02 01:26:07.996424	214.7	36.9	-84.5	0.0
2026-01-02 01:26:10.270024	214.5	36.3	-84.4	0.0
2026-01-02 01:26:12.541538	214.3	35.8	-84.0	0.0
2026-01-02 01:26:14.815155	214.1	35.3	-84.6	0.0
2026-01-02 01:26:17.091572	213.9	34.8	-84.5	0.0
2026-01-02 01:26:19.366947	213.7	34.3	-83.8	0.0
2026-01-02 01:26:21.638338	213.5	33.8	-84.4	0.0
2026-01-02 01:26:23.911241	213.3	33.3	-84.5	0.0
2026-01-02 01:26:26.183660	213.2	32.8	-84.0	0.0
2026-01-02 01:26:28.454618	213.0	32.4	-83.2	0.0
2026-01-02 01:26:30.733142	212.8	31.9	-84.3	0.0
2026-01-02 01:26:33.008928	212.7	31.5	-83.9	0.0
2026-01-02 01:26:35.285484	212.5	31.0	-84.0	0.0
2026-01-02 01:26:37.560932	212.3	30.6	-83.5	0.0
2026-01-02 01:26:39.838042	212.2	30.1	-83.4	0.0
2026-01-02 01:26:42.115563	212.1	29.7	-84.1	0.0
2026-01-02 01:26:44.387475	211.9	29.3	-83.8	0.0
2026-01-02 01:26:46.659606	211.8	28.9	-82.8	0.0
2026-01-02 01:26:48.934831	211.6	28.4	-82.7	0.0
2026-01-02 01:26:51.208713	211.5	28.0	-84.0	0.0
2026-01-02 01:26:53.485649	211.4	27.6	-84.0	0.0
2026-01-02 01:26:55.759557	211.3	27.2	-84.4	0.0
2026-01-02 01:26:58.036390	211.2	26.9	-84.1	0.0
2026-01-02 01:27:00.302826	211.0	26.5	-83.7	0.0
2026-01-02 01:27:02.570677	210.9	26.1	-84.5	0.0
2026-01-02 01:27:04.836402	210.8	25.7	-83.8	0.0
2026-01-02 01:27:07.103921	210.7	25.4	-84.6	0.0
2026-01-02 01:27:09.375121	210.6	25.0	-81.4	0.0
2026-01-02 01:27:11.641614	210.5	24.6	-83.2	0.0
2026-01-02 01:27:13.907240	210.4	24.3	-84.3	0.0
2026-01-02 01:27:16.173189	210.3	23.9	-84.2	0.0
2026-01-02 01:27:18.433174	210.2	23.6	-84.0	0.0
2026-01-02 01:27:20.698180	210.1	23.3	-84.7	0.0
2026-01-02 01:27:22.972384	210.0	22.9	-84.1	0.0
2026-01-02 01:27:25.246809	209.9	22.6	-84.3	0.0
2026-01-02 01:27:27.515299	209.8	22.3	-82.5	0.0
2026-01-02 01:27:29.787008	209.8	21.9	-83.4	0.0
2026-01-02 01:27:32.061702	209.7	21.6	-84.0	0.0
2026-01-02 01:27:34.333903	209.6	21.3	-82.2	0.0
2026-01-02 01:27:36.597660	209.5	21.0	-83.8	0.0
2026-01-02 01:27:38.862251	209.4	20.7	-83.4	0.0
2026-01-02 01:27:41.129900	209.4	20.4	-84.2	0.0
2026-01-02 01:27:43.404138	209.3	20.1	-84.5	0.0
2026-01-02 01:27:45.677581	209.2	19.8	-83.5	0.0
2026-01-02 01:27:47.951468	209.1	19.5	-83.6	0.0
2026-01-02 01:27:50.212397	209.1	19.2	-84.9	0.0
2026-01-02 01:27:52.472682	209.0	18.9	-84.3	0.0
2026-01-02 01:27:54.743194	208.9	18.6	-83.8	0.0
2026-01-02 01:27:56.998400	208.9	18.4	-84.0	0.0
2026-01-02 01:27:59.262078	208.8	18.1	-83.8	0.0
2026-01-02 01:28:01.520335	208.7	17.8	-84.6	0.0
2026-01-02 01:28:03.776568	208.7	17.5	-83.8	0.0
2026-01-02 01:28:06.038132	208.6	17.3	-84.5	0.0
2026-01-02 01:28:08.297548	208.6	17.0	-84.2	0.0
2026-01-02 01:28:10.559637	208.5	16.7	-84.4	0.0
2026-01-02 01:28:12.819866	208.4	16.5	-84.0	0.0
2026-01-02 01:28:15.081713	208.4	16.2	-84.5	0.0
2026-01-02 01:28:17.336767	208.3	16.0	-84.8	0.0
2026-01-02 01:28:19.591341	208.3	15.7	-84.7	0.0
2026-01-02 01:28:21.844080	208.2	15.5	-83.4	0.0
2026-01-02 01:28:24.101038	208.2	15.2	-84.1	0.0
2026-01-02 01:28:26.353466	208.1	15.0	-83.8	0.0
2026-01-02 01:28:28.605831	208.1	14.8	-83.4	0.0
2026-01-02 01:28:30.859290	208.0	14.5	-83.4	0.0
2026-01-02 01:28:33.116859	208.0	14.3	-84.3	0.0
2026-01-02 01:28:35.372694	207.9	14.0	-84.6	0.0
2026-01-02 01:28:37.628754	207.9	13.8	-84.2	0.0
2026-01-02 01:28:39.888678	207.8	13.6	-84.0	0.0
2026-01-02 01:28:42.146577	207.8	13.4	-83.9	0.0
2026-01-02 01:28:44.406629	207.7	13.1	-83.6	0.0
2026-01-02 01:28:46.666827	207.7	12.9	-82.9	0.0
2026-01-02 01:28:48.926417	207.7	12.7	-83.4	0.0
2026-01-02 01:28:51.185416	207.6	12.5	-82.7	0.0
2026-01-02 01:28:53.449318	207.6	12.3	-83.1	0.0
2026-01-02 01:28:55.711294	207.5	12.0	-84.2	0.0
2026-01-02 01:28:57.971505	207.5	11.8	-83.3	0.0
2026-01-02 01:29:00.233001	207.4	11.6	-84.0	0.0
2026-01-02 01:29:02.492316	207.4	11.4	-83.4	0.0
2026-01-02 01:29:04.748237	207.4	11.2	-83.3	0.0
2026-01-02 01:29:07.018537	207.3	11.0	-84.5	0.0
2026-01-02 01:29:09.292872	207.3	10.8	-84.1	0.0
2026-01-02 01:29:11.569038	207.3	10.6	-83.3	0.0
2026-01-02 01:29:13.843605	207.2	10.4	-84.7	0.0
2026-01-02 01:29:16.118928	207.2	10.2	-83.7	0.0
#Closed at: 2026-01-02 01:18:29.276738