passes_logs/2026/01/02/planumMaritime01/planumMaritime01__20260102_191907_METOP-C_rec.log

#Pass ID: 20260102_191907_METOP-C
#Satellite: METOP-C
#Configuration: METOP-C
#Start time: 2026-01-02 19:19:12.515554

#LorettStation: 1.0.0 05.05.2024
#Station: planumMaritime01
#Location: 37.49445 lon 55.92918 lat
#TLE: 1 43689U 18087A   26001.31932789  .00000269  00000+0  14274-3 0  9992
#TLE: 2 43689  98.6901  63.7860 0000249 350.8424   9.2749 14.21492938371124

#Time	Az	El	Level	SNR
2026-01-02 19:19:14.685707	208.2	10.2	-78.2	0.0
2026-01-02 19:19:16.937950	208.4	10.3	-77.3	0.0
2026-01-02 19:19:19.190047	208.6	10.5	-76.6	0.0
2026-01-02 19:19:21.440962	208.9	10.7	-74.9	0.0
2026-01-02 19:19:23.692680	209.1	10.8	-73.3	0.0
2026-01-02 19:19:25.944110	209.3	11.0	-71.8	0.0
2026-01-02 19:19:28.197904	209.6	11.2	-71.6	0.0
2026-01-02 19:19:30.451067	209.8	11.3	-71.5	0.0
2026-01-02 19:19:32.704137	210.1	11.5	-71.3	0.0
2026-01-02 19:19:34.955238	210.3	11.7	-71.5	0.0
2026-01-02 19:19:37.208138	210.6	11.8	-70.9	0.0
2026-01-02 19:19:39.461578	210.8	12.0	-71.9	0.0
2026-01-02 19:19:41.714179	211.1	12.2	-71.4	0.0
2026-01-02 19:19:43.967408	211.4	12.4	-71.1	0.0
2026-01-02 19:19:46.217756	211.6	12.5	-71.7	0.0
2026-01-02 19:19:48.473636	211.9	12.7	-71.7	0.0
2026-01-02 19:19:50.725812	212.2	12.9	-71.7	2.4
2026-01-02 19:19:52.979690	212.4	13.1	-71.6	0.0
2026-01-02 19:19:55.234846	212.7	13.2	-71.6	2.3
2026-01-02 19:19:57.489197	213.0	13.4	-72.0	1.5
2026-01-02 19:19:59.743716	213.3	13.6	-71.8	0.5
2026-01-02 19:20:01.997511	213.6	13.8	-71.8	2.7
2026-01-02 19:20:04.249210	213.9	14.0	-71.8	0.7
2026-01-02 19:20:06.506196	214.2	14.1	-72.6	3.9
2026-01-02 19:20:08.757941	214.5	14.3	-72.2	3.0
2026-01-02 19:20:11.009954	214.8	14.5	-72.3	2.4
2026-01-02 19:20:13.263737	215.1	14.7	-72.4	2.7
2026-01-02 19:20:15.518657	215.4	14.9	-72.6	3.2
2026-01-02 19:20:17.770827	215.7	15.1	-72.8	1.8
2026-01-02 19:20:20.023676	216.0	15.2	-73.3	5.0
2026-01-02 19:20:22.278363	216.3	15.4	-73.6	4.3
2026-01-02 19:20:24.530599	216.7	15.6	-73.8	5.3
2026-01-02 19:20:26.784039	217.0	15.8	-73.1	4.6
2026-01-02 19:20:29.037732	217.3	16.0	-74.1	3.5
2026-01-02 19:20:31.290295	217.7	16.2	-73.6	4.8
2026-01-02 19:20:33.545632	218.0	16.4	-73.8	3.7
2026-01-02 19:20:35.801054	218.3	16.6	-73.8	4.4
2026-01-02 19:20:38.050455	218.7	16.8	-73.7	6.6
2026-01-02 19:20:40.303409	219.1	16.9	-73.8	5.6
2026-01-02 19:20:42.555709	219.4	17.1	-74.0	6.4
2026-01-02 19:20:44.812753	219.8	17.3	-74.2	6.7
2026-01-02 19:20:47.066655	220.1	17.5	-74.2	7.1
2026-01-02 19:20:49.321117	220.5	17.7	-74.3	7.7
2026-01-02 19:20:51.576473	220.9	17.9	-74.1	8.2
2026-01-02 19:20:53.826069	221.3	18.1	-74.1	8.7
2026-01-02 19:20:56.077404	221.7	18.3	-74.1	7.3
2026-01-02 19:20:58.330608	222.0	18.5	-74.1	7.9
2026-01-02 19:21:00.584421	222.4	18.7	-73.9	8.2
2026-01-02 19:21:02.837985	222.8	18.9	-74.2	9.2
2026-01-02 19:21:05.092564	223.3	19.1	-74.2	9.2
2026-01-02 19:21:07.346112	223.7	19.2	-74.3	9.9
2026-01-02 19:21:09.598320	224.1	19.4	-74.2	9.8
2026-01-02 19:21:11.850998	224.5	19.6	-74.2	10.0
2026-01-02 19:21:14.104746	224.9	19.8	-74.3	10.4
2026-01-02 19:21:16.358229	225.4	20.0	-74.4	9.3
2026-01-02 19:21:18.611019	225.8	20.2	-74.4	10.1
2026-01-02 19:21:20.863110	226.2	20.4	-74.4	10.5
2026-01-02 19:21:23.114030	226.7	20.6	-74.6	10.4
2026-01-02 19:21:25.366825	227.1	20.8	-74.7	10.4
2026-01-02 19:21:27.618165	227.6	21.0	-74.6	10.8
2026-01-02 19:21:29.875275	228.1	21.2	-74.3	9.6
2026-01-02 19:21:32.127231	228.5	21.4	-74.6	10.5
2026-01-02 19:21:34.384307	229.0	21.6	-74.8	11.2
2026-01-02 19:21:36.638354	229.5	21.7	-74.6	10.3
2026-01-02 19:21:38.891855	230.0	21.9	-74.7	10.5
2026-01-02 19:21:41.141333	230.5	22.1	-74.5	11.4
2026-01-02 19:21:43.395171	231.0	22.3	-74.3	10.6
2026-01-02 19:21:45.646952	231.5	22.5	-74.4	11.4
2026-01-02 19:21:47.898773	232.0	22.7	-74.4	10.7
2026-01-02 19:21:50.150216	232.5	22.9	-73.9	11.1
2026-01-02 19:21:52.404353	233.0	23.1	-74.0	11.5
2026-01-02 19:21:54.655396	233.6	23.2	-74.1	10.7
2026-01-02 19:21:56.907129	234.1	23.4	-73.9	11.1
2026-01-02 19:21:59.157406	234.6	23.6	-73.7	10.7
2026-01-02 19:22:01.408369	235.2	23.8	-73.8	11.1
2026-01-02 19:22:03.661023	235.7	24.0	-73.8	11.0
2026-01-02 19:22:05.913006	236.3	24.1	-73.7	11.0
2026-01-02 19:22:08.164758	236.9	24.3	-73.8	11.9
2026-01-02 19:22:10.415442	237.4	24.5	-73.7	12.5
2026-01-02 19:22:12.665961	238.0	24.6	-73.4	11.8
2026-01-02 19:22:14.920242	238.6	24.8	-73.5	10.3
2026-01-02 19:22:17.173911	239.2	25.0	-73.7	10.7
2026-01-02 19:22:19.427196	239.8	25.1	-73.6	11.1
2026-01-02 19:22:21.678632	240.4	25.3	-73.8	10.9
2026-01-02 19:22:23.933895	241.0	25.5	-73.9	10.2
2026-01-02 19:22:26.193065	241.6	25.6	-73.8	10.3
2026-01-02 19:22:28.445648	242.2	25.8	-73.8	10.0
2026-01-02 19:22:30.699162	242.9	25.9	-73.9	11.1
2026-01-02 19:22:32.949381	243.5	26.1	-73.9	11.7
2026-01-02 19:22:35.200645	244.1	26.2	-73.8	10.3
2026-01-02 19:22:37.453628	244.8	26.4	-74.0	10.5
2026-01-02 19:22:39.706015	245.4	26.5	-73.8	11.0
2026-01-02 19:22:41.956915	246.1	26.7	-73.9	10.1
2026-01-02 19:22:44.210964	246.7	26.8	-74.0	10.3
2026-01-02 19:22:46.460827	247.4	26.9	-73.6	10.4
2026-01-02 19:22:48.712841	248.1	27.0	-73.7	10.2
2026-01-02 19:22:50.966503	248.7	27.2	-73.2	9.7
2026-01-02 19:22:53.219231	249.4	27.3	-73.1	10.2
2026-01-02 19:22:55.473173	250.1	27.4	-73.1	10.1
2026-01-02 19:22:57.724940	250.8	27.5	-72.9	10.7
2026-01-02 19:22:59.976829	251.5	27.6	-73.1	9.7
2026-01-02 19:23:02.230725	252.2	27.7	-72.9	11.0
2026-01-02 19:23:04.485239	252.9	27.8	-73.2	11.4
2026-01-02 19:23:06.738050	253.6	27.9	-72.4	9.6
2026-01-02 19:23:08.991373	254.3	28.0	-72.6	10.5
2026-01-02 19:23:11.244247	255.0	28.1	-72.7	10.5
2026-01-02 19:23:13.498508	255.8	28.2	-72.9	9.3
2026-01-02 19:23:15.750760	256.5	28.3	-73.3	10.5
2026-01-02 19:23:18.002905	257.2	28.3	-72.9	10.4
2026-01-02 19:23:20.254994	257.9	28.4	-72.6	8.8
2026-01-02 19:23:22.509020	258.7	28.5	-72.9	8.5
2026-01-02 19:23:24.760535	259.4	28.5	-73.0	9.5
2026-01-02 19:23:27.011905	260.2	28.6	-72.4	7.6
2026-01-02 19:23:29.264416	260.9	28.6	-72.6	8.4
2026-01-02 19:23:31.518887	261.6	28.7	-73.1	8.7
2026-01-02 19:23:33.773167	262.4	28.7	-73.0	7.3
2026-01-02 19:23:36.022928	263.1	28.7	-72.3	7.9
2026-01-02 19:23:38.275666	263.9	28.8	-72.4	7.8
2026-01-02 19:23:40.527208	264.6	28.8	-73.2	7.1
2026-01-02 19:23:42.780755	265.4	28.8	-72.1	8.3
2026-01-02 19:23:45.031644	266.1	28.8	-71.8	5.8
2026-01-02 19:23:47.285448	266.9	28.8	-71.6	6.7
2026-01-02 19:23:49.539690	267.6	28.8	-71.4	4.6
2026-01-02 19:23:51.792285	268.4	28.8	-71.5	7.7
2026-01-02 19:23:54.044744	269.1	28.8	-72.4	9.1
2026-01-02 19:23:56.295115	269.9	28.8	-71.8	7.0
2026-01-02 19:23:58.547921	270.6	28.8	-71.6	8.2
2026-01-02 19:24:00.799330	271.4	28.8	-71.7	7.3
2026-01-02 19:24:03.052592	272.1	28.7	-71.1	5.4
2026-01-02 19:24:05.305229	272.9	28.7	-72.7	8.0
2026-01-02 19:24:07.558877	273.6	28.7	-71.5	5.3
2026-01-02 19:24:09.810891	274.4	28.6	-71.2	4.4
2026-01-02 19:24:12.062399	275.1	28.6	-71.5	5.9
2026-01-02 19:24:14.316112	275.8	28.5	-71.0	6.1
2026-01-02 19:24:16.566642	276.6	28.5	-71.8	4.7
2026-01-02 19:24:18.821718	277.3	28.4	-71.0	6.2
2026-01-02 19:24:21.073991	278.0	28.3	-71.5	4.9
2026-01-02 19:24:23.325363	278.8	28.3	-71.3	4.6
2026-01-02 19:24:25.578645	279.5	28.2	-70.8	1.7
2026-01-02 19:24:27.833878	280.2	28.1	-70.6	3.3
2026-01-02 19:24:30.088521	280.9	28.0	-70.4	6.2
2026-01-02 19:24:32.340900	281.6	27.9	-71.2	4.4
2026-01-02 19:24:34.592906	282.3	27.8	-71.9	5.9
2026-01-02 19:24:36.847382	283.0	27.7	-71.4	5.1
2026-01-02 19:24:39.100273	283.7	27.6	-71.6	7.2
2026-01-02 19:24:41.352568	284.4	27.5	-70.8	5.6
2026-01-02 19:24:43.606913	285.1	27.4	-70.6	3.2
2026-01-02 19:24:45.855459	285.8	27.3	-69.2	2.6
2026-01-02 19:24:48.109191	286.5	27.2	-70.7	1.2
2026-01-02 19:24:50.364046	287.2	27.0	-69.4	0.9
2026-01-02 19:24:52.617522	287.8	26.9	-70.3	1.3
2026-01-02 19:24:54.869766	288.5	26.8	-70.2	4.1
2026-01-02 19:24:57.123982	289.1	26.6	-71.8	5.0
2026-01-02 19:24:59.376969	289.8	26.5	-71.0	5.7
2026-01-02 19:25:01.631170	290.4	26.4	-71.7	5.6
2026-01-02 19:25:03.879196	291.1	26.2	-70.5	3.1
2026-01-02 19:25:06.131692	291.7	26.1	-70.8	3.0
2026-01-02 19:25:08.381183	292.3	25.9	-69.6	0.0
2026-01-02 19:25:10.634038	293.0	25.8	-71.8	1.7
2026-01-02 19:25:12.885389	293.6	25.6	-69.1	0.0
2026-01-02 19:25:15.138733	294.2	25.5	-71.6	2.2
2026-01-02 19:25:17.392028	294.8	25.3	-70.5	2.5
2026-01-02 19:25:19.646885	295.4	25.1	-71.3	4.8
2026-01-02 19:25:21.899945	296.0	25.0	-70.0	0.0
2026-01-02 19:25:24.152869	296.6	24.8	-70.2	1.3
2026-01-02 19:25:26.406780	297.2	24.6	-70.1	2.3
2026-01-02 19:25:28.659266	297.7	24.5	-69.9	0.0
2026-01-02 19:25:30.911978	298.3	24.3	-71.4	2.6
2026-01-02 19:25:33.164047	298.9	24.1	-70.7	1.1
2026-01-02 19:25:35.421760	299.4	24.0	-70.5	2.1
2026-01-02 19:25:37.678028	300.0	23.8	-70.1	0.9
2026-01-02 19:25:39.934977	300.5	23.6	-70.6	0.0
2026-01-02 19:25:42.186679	301.1	23.4	-71.6	4.3
2026-01-02 19:25:44.438523	301.6	23.2	-71.5	4.4
2026-01-02 19:25:46.690035	302.1	23.1	-70.9	1.9
2026-01-02 19:25:48.945875	302.6	22.9	-70.6	0.0
2026-01-02 19:25:51.199286	303.2	22.7	-71.7	4.5
2026-01-02 19:25:53.450840	303.7	22.5	-70.7	3.2
2026-01-02 19:25:55.705383	304.2	22.3	-71.3	5.5
2026-01-02 19:25:57.959442	304.7	22.1	-70.9	4.3
2026-01-02 19:26:00.211863	305.2	22.0	-70.0	0.0
2026-01-02 19:26:02.469057	305.6	21.8	-70.5	3.2
2026-01-02 19:26:04.719458	306.1	21.6	-69.0	0.0
2026-01-02 19:26:06.972748	306.6	21.4	-69.0	0.0
2026-01-02 19:26:09.225882	307.1	21.2	-70.6	0.0
2026-01-02 19:26:11.479906	307.5	21.0	-68.6	0.0
2026-01-02 19:26:13.733987	308.0	20.8	-68.8	0.0
2026-01-02 19:26:15.986578	308.4	20.6	-69.9	2.2
2026-01-02 19:26:18.241648	308.9	20.4	-70.2	2.4
2026-01-02 19:26:20.495497	309.3	20.2	-69.1	0.0
2026-01-02 19:26:22.749083	309.8	20.1	-69.3	0.0
2026-01-02 19:26:25.002942	310.2	19.9	-69.1	0.0
2026-01-02 19:26:27.256835	310.6	19.7	-68.6	0.0
2026-01-02 19:26:29.509696	311.0	19.5	-68.4	0.0
2026-01-02 19:26:31.764145	311.4	19.3	-72.0	0.0
2026-01-02 19:26:34.016008	311.9	19.1	-69.0	0.0
2026-01-02 19:26:36.270194	312.3	18.9	-69.7	0.0
2026-01-02 19:26:38.523842	312.7	18.7	-68.1	0.0
2026-01-02 19:26:40.777639	313.1	18.5	-68.6	0.0
2026-01-02 19:26:43.030457	313.4	18.3	-68.3	0.0
2026-01-02 19:26:45.286374	313.8	18.1	-65.7	0.0
2026-01-02 19:26:47.537982	314.2	17.9	-69.5	0.0
2026-01-02 19:26:49.790804	314.6	17.8	-67.3	0.0
2026-01-02 19:26:52.041472	315.0	17.6	-68.3	0.0
2026-01-02 19:26:54.293494	315.3	17.4	-66.3	0.0
2026-01-02 19:26:56.544307	315.7	17.2	-66.1	0.0
2026-01-02 19:26:58.800686	316.0	17.0	-68.6	0.0
2026-01-02 19:27:01.053860	316.4	16.8	-67.5	0.0
2026-01-02 19:27:03.309689	316.7	16.6	-68.6	0.0
2026-01-02 19:27:05.562676	317.1	16.4	-68.6	0.0
2026-01-02 19:27:07.814458	317.4	16.3	-69.4	0.0
2026-01-02 19:27:10.067508	317.8	16.1	-67.6	0.0
2026-01-02 19:27:12.323067	318.1	15.9	-68.2	0.0
2026-01-02 19:27:14.575887	318.4	15.7	-68.2	0.0
2026-01-02 19:27:16.833502	318.7	15.5	-69.2	0.0
2026-01-02 19:27:19.084915	319.1	15.3	-66.7	0.0
2026-01-02 19:27:21.338252	319.4	15.1	-68.0	0.0
2026-01-02 19:27:23.591291	319.7	15.0	-69.0	0.0
2026-01-02 19:27:25.842876	320.0	14.8	-68.3	0.0
2026-01-02 19:27:28.097423	320.3	14.6	-67.6	0.0
2026-01-02 19:27:30.354472	320.6	14.4	-67.0	0.0
2026-01-02 19:27:32.605334	320.9	14.2	-65.8	0.0
2026-01-02 19:27:34.857599	321.2	14.1	-66.9	0.0
2026-01-02 19:27:37.110042	321.5	13.9	-66.6	0.0
2026-01-02 19:27:39.363091	321.8	13.7	-65.9	0.0
2026-01-02 19:27:41.615639	322.1	13.5	-67.5	0.0
2026-01-02 19:27:43.870406	322.4	13.3	-68.9	0.0
2026-01-02 19:27:46.122752	322.6	13.2	-67.9	0.0
2026-01-02 19:27:48.375035	322.9	13.0	-69.1	0.0
2026-01-02 19:27:50.629927	323.2	12.8	-67.9	0.0
2026-01-02 19:27:52.882616	323.5	12.6	-67.3	0.0
2026-01-02 19:27:55.133371	323.7	12.5	-66.4	0.0
2026-01-02 19:27:57.388520	324.0	12.3	-68.6	0.0
2026-01-02 19:27:59.639994	324.2	12.1	-70.2	0.0
2026-01-02 19:28:01.894286	324.5	12.0	-69.7	0.0
2026-01-02 19:28:04.149463	324.8	11.8	-68.6	0.0
2026-01-02 19:28:06.404205	325.0	11.6	-68.6	0.0
2026-01-02 19:28:08.659413	325.3	11.4	-69.6	0.0
2026-01-02 19:28:10.916562	325.5	11.3	-69.4	0.0
2026-01-02 19:28:13.169949	325.7	11.1	-69.1	0.0
2026-01-02 19:28:15.424127	326.0	10.9	-69.3	0.0
2026-01-02 19:28:17.676762	326.2	10.8	-69.6	0.0
2026-01-02 19:28:19.927355	326.5	10.6	-70.6	0.0
2026-01-02 19:28:22.179608	326.7	10.4	-71.5	0.0
2026-01-02 19:28:24.434135	326.9	10.3	-75.5	0.0
2026-01-02 19:28:26.686794	327.1	10.1	-76.1	0.0
#Closed at: 2026-01-02 19:19:07.522404