passes_logs/2026/01/02/planumMaritime01/planumMaritime01__20260102_085058_METEOR-M2_3_rec.log

#Pass ID: 20260102_085058_METEOR-M2 3
#Satellite: METEOR-M2 3
#Configuration: METEOR-M2 3
#Start time: 2026-01-02 08:51:03.768309

#LorettStation: 1.0.0 05.05.2024
#Station: planumMaritime01
#Location: 37.49445 lon 55.92918 lat
#TLE: 1 57166U 23091A   26001.29492983  .00000064  00000+0  46916-4 0  9994
#TLE: 2 57166  98.6349  59.4901 0002979 303.9888  56.1007 14.24028798130761

#Time	Az	El	Level	SNR
2026-01-02 08:51:05.944888	2.2	10.2	-68.1	0.0
2026-01-02 08:51:08.207238	2.0	10.3	-64.7	0.0
2026-01-02 08:51:10.468138	1.8	10.5	-70.7	0.0
2026-01-02 08:51:12.730233	1.6	10.7	-72.7	0.0
2026-01-02 08:51:14.990081	1.3	10.8	-70.6	0.0
2026-01-02 08:51:17.252413	1.1	11.0	-69.4	0.0
2026-01-02 08:51:19.518172	0.9	11.2	-68.9	0.0
2026-01-02 08:51:21.781913	0.7	11.4	-69.9	0.0
2026-01-02 08:51:24.044683	0.4	11.5	-71.9	0.0
2026-01-02 08:51:26.310269	0.2	11.7	-70.4	0.0
2026-01-02 08:51:28.578905	359.9	11.9	-70.6	0.0
2026-01-02 08:51:30.843196	359.7	12.1	-70.3	0.0
2026-01-02 08:51:33.110030	359.4	12.2	-70.6	0.0
2026-01-02 08:51:35.377391	359.2	12.4	-70.8	0.0
2026-01-02 08:51:37.642045	358.9	12.6	-70.8	0.0
2026-01-02 08:51:39.912271	358.7	12.8	-71.0	0.0
2026-01-02 08:51:42.185110	358.4	13.0	-72.2	0.0
2026-01-02 08:51:44.460807	358.2	13.2	-71.9	0.0
2026-01-02 08:51:46.736514	357.9	13.3	-71.6	0.0
2026-01-02 08:51:49.014099	357.6	13.5	-72.8	0.0
2026-01-02 08:51:51.281851	357.3	13.7	-71.9	0.0
2026-01-02 08:51:53.549734	357.1	13.9	-71.8	0.0
2026-01-02 08:51:55.827363	356.8	14.1	-71.7	0.0
2026-01-02 08:51:58.098020	356.5	14.3	-72.9	0.0
2026-01-02 08:52:00.372761	356.2	14.4	-72.9	0.0
2026-01-02 08:52:02.640671	355.9	14.6	-72.7	0.0
2026-01-02 08:52:04.910351	355.6	14.8	-73.5	0.0
2026-01-02 08:52:07.180291	355.3	15.0	-72.7	0.0
2026-01-02 08:52:09.452076	355.0	15.2	-73.7	0.0
2026-01-02 08:52:11.717246	354.7	15.4	-73.4	0.0
2026-01-02 08:52:13.989741	354.4	15.6	-73.4	0.0
2026-01-02 08:52:16.258414	354.1	15.8	-73.5	0.0
2026-01-02 08:52:18.524558	353.7	16.0	-72.3	0.0
2026-01-02 08:52:20.780723	353.4	16.2	-73.0	0.0
2026-01-02 08:52:23.035300	353.1	16.4	-72.1	0.0
2026-01-02 08:52:25.289017	352.8	16.6	-73.0	0.0
2026-01-02 08:52:27.546543	352.4	16.7	-72.6	0.0
2026-01-02 08:52:29.807374	352.1	16.9	-70.0	0.0
2026-01-02 08:52:32.067350	351.7	17.1	-70.6	0.0
2026-01-02 08:52:34.324299	351.4	17.3	-73.3	0.0
2026-01-02 08:52:36.583629	351.0	17.5	-72.9	0.0
2026-01-02 08:52:38.840247	350.7	17.7	-73.8	0.0
2026-01-02 08:52:41.094397	350.3	17.9	-73.0	0.0
2026-01-02 08:52:43.350228	349.9	18.1	-72.2	0.0
2026-01-02 08:52:45.624628	349.5	18.3	-71.9	0.0
2026-01-02 08:52:47.900252	349.2	18.5	-71.9	0.0
2026-01-02 08:52:50.177233	348.8	18.7	-71.3	0.0
2026-01-02 08:52:52.450801	348.4	18.9	-69.8	0.0
2026-01-02 08:52:54.726966	348.0	19.1	-72.1	0.0
2026-01-02 08:52:57.002863	347.6	19.3	-73.0	0.0
2026-01-02 08:52:59.279129	347.2	19.5	-70.5	0.0
2026-01-02 08:53:01.546994	346.7	19.7	-69.8	0.0
2026-01-02 08:53:03.820089	346.3	19.9	-70.6	0.0
2026-01-02 08:53:06.088414	345.9	20.1	-68.5	0.0
2026-01-02 08:53:08.358106	345.5	20.3	-70.4	0.0
2026-01-02 08:53:10.630482	345.0	20.5	-69.4	0.0
2026-01-02 08:53:12.904827	344.6	20.7	-70.8	0.0
2026-01-02 08:53:15.178213	344.1	20.9	-71.3	0.0
2026-01-02 08:53:17.448376	343.7	21.1	-70.9	0.0
2026-01-02 08:53:19.716344	343.2	21.3	-71.2	0.0
2026-01-02 08:53:21.983621	342.8	21.5	-72.6	0.0
2026-01-02 08:53:24.257452	342.3	21.7	-70.7	0.0
2026-01-02 08:53:26.526101	341.8	21.9	-70.4	0.0
2026-01-02 08:53:28.795906	341.3	22.1	-72.3	0.0
2026-01-02 08:53:31.063205	340.8	22.3	-72.9	0.0
2026-01-02 08:53:33.333990	340.3	22.5	-69.8	0.0
2026-01-02 08:53:35.602855	339.8	22.7	-72.0	0.5
2026-01-02 08:53:37.871693	339.3	22.9	-71.0	0.0
2026-01-02 08:53:40.132676	338.8	23.1	-71.6	0.0
2026-01-02 08:53:42.401636	338.3	23.3	-66.0	0.0
2026-01-02 08:53:44.669080	337.7	23.5	-64.9	0.0
2026-01-02 08:53:46.935468	337.2	23.6	-64.9	0.0
2026-01-02 08:53:49.207517	336.7	23.8	-64.8	0.0
2026-01-02 08:53:51.474464	336.1	24.0	-64.7	0.0
2026-01-02 08:53:53.751908	335.5	24.2	-65.4	0.0
2026-01-02 08:53:56.034556	335.0	24.4	-64.7	0.0
2026-01-02 08:53:58.309180	334.4	24.6	-64.9	0.0
2026-01-02 08:54:00.581115	333.8	24.7	-64.6	0.0
2026-01-02 08:54:02.855402	333.2	24.9	-64.9	0.0
2026-01-02 08:54:05.133838	332.6	25.1	-64.7	0.0
2026-01-02 08:54:07.408402	332.0	25.3	-64.0	0.0
2026-01-02 08:54:09.680300	331.4	25.4	-64.1	0.0
2026-01-02 08:54:11.954181	330.8	25.6	-65.0	0.0
2026-01-02 08:54:14.224571	330.2	25.8	-63.9	0.0
2026-01-02 08:54:16.493779	329.6	25.9	-64.5	0.0
2026-01-02 08:54:18.771532	329.0	26.1	-65.2	0.0
2026-01-02 08:54:21.045798	328.3	26.3	-65.5	0.0
2026-01-02 08:54:23.305114	327.7	26.4	-64.8	0.0
2026-01-02 08:54:25.559619	327.0	26.6	-65.5	0.0
2026-01-02 08:54:27.818603	326.4	26.7	-66.2	0.0
2026-01-02 08:54:30.079265	325.7	26.8	-65.8	0.0
2026-01-02 08:54:32.338889	325.1	27.0	-65.6	0.0
2026-01-02 08:54:34.595234	324.4	27.1	-66.4	0.0
2026-01-02 08:54:36.852650	323.7	27.3	-66.5	0.0
2026-01-02 08:54:39.112712	323.0	27.4	-66.6	0.0
2026-01-02 08:54:41.374121	322.3	27.5	-67.0	0.0
2026-01-02 08:54:43.631064	321.6	27.6	-66.7	0.0
2026-01-02 08:54:45.893119	320.9	27.8	-66.8	0.0
2026-01-02 08:54:48.171135	320.2	27.9	-67.0	0.0
2026-01-02 08:54:50.446451	319.5	28.0	-66.8	0.0
2026-01-02 08:54:52.722918	318.8	28.1	-67.3	0.0
2026-01-02 08:54:54.995631	318.1	28.2	-67.5	0.0
2026-01-02 08:54:57.270623	317.4	28.3	-67.3	0.0
2026-01-02 08:54:59.545228	316.6	28.4	-68.6	0.0
2026-01-02 08:55:01.820372	315.9	28.4	-68.5	0.0
2026-01-02 08:55:04.094227	315.1	28.5	-68.4	0.0
2026-01-02 08:55:06.363351	314.4	28.6	-68.9	0.0
2026-01-02 08:55:08.628398	313.7	28.7	-69.3	0.0
2026-01-02 08:55:10.898657	312.9	28.7	-69.8	0.0
2026-01-02 08:55:13.168463	312.2	28.8	-69.6	0.0
2026-01-02 08:55:15.437130	311.4	28.8	-69.6	0.0
2026-01-02 08:55:17.700751	310.7	28.9	-69.6	0.0
2026-01-02 08:55:19.968064	309.9	28.9	-70.6	0.0
2026-01-02 08:55:22.240548	309.1	29.0	-71.0	0.0
2026-01-02 08:55:24.509639	308.4	29.0	-71.4	0.0
2026-01-02 08:55:26.775060	307.6	29.0	-71.4	0.0
2026-01-02 08:55:29.047522	306.8	29.1	-72.4	0.0
2026-01-02 08:55:31.311872	306.1	29.1	-72.6	0.0
2026-01-02 08:55:33.574865	305.3	29.1	-73.4	0.0
2026-01-02 08:55:35.842744	304.6	29.1	-73.5	0.0
2026-01-02 08:55:38.109157	303.8	29.1	-73.7	0.0
2026-01-02 08:55:40.375691	303.0	29.1	-74.0	0.0
2026-01-02 08:55:42.641938	302.3	29.1	-76.1	3.9
2026-01-02 08:55:44.912049	301.5	29.0	-76.1	6.7
2026-01-02 08:55:47.181604	300.7	29.0	-75.7	5.6
2026-01-02 08:55:49.455270	300.0	29.0	-76.4	9.5
2026-01-02 08:55:51.727273	299.2	28.9	-76.1	7.7
2026-01-02 08:55:53.994216	298.4	28.9	-76.7	9.5
2026-01-02 08:55:56.266602	297.7	28.9	-76.3	5.0
2026-01-02 08:55:58.538274	296.9	28.8	-76.3	5.8
2026-01-02 08:56:00.814879	296.2	28.7	-75.7	8.6
2026-01-02 08:56:03.086935	295.4	28.7	-75.7	7.0
2026-01-02 08:56:05.359366	294.7	28.6	-76.4	8.8
2026-01-02 08:56:07.631415	293.9	28.5	-74.1	4.8
2026-01-02 08:56:09.901001	293.2	28.5	-72.8	2.8
2026-01-02 08:56:12.175499	292.5	28.4	-74.8	6.5
2026-01-02 08:56:14.447282	291.7	28.3	-75.8	6.8
2026-01-02 08:56:16.721813	291.0	28.2	-75.2	6.8
2026-01-02 08:56:18.997229	290.3	28.1	-75.6	6.6
2026-01-02 08:56:21.269685	289.5	28.0	-75.3	9.0
2026-01-02 08:56:23.544285	288.8	27.9	-75.8	5.3
2026-01-02 08:56:25.817433	288.1	27.8	-75.3	4.7
2026-01-02 08:56:28.092320	287.4	27.7	-76.4	5.9
2026-01-02 08:56:30.367732	286.7	27.5	-76.6	4.9
2026-01-02 08:56:32.640148	286.0	27.4	-76.5	7.1
2026-01-02 08:56:34.915850	285.3	27.3	-76.7	3.7
2026-01-02 08:56:37.179075	284.6	27.1	-77.9	7.8
2026-01-02 08:56:39.442163	284.0	27.0	-76.3	6.5
2026-01-02 08:56:41.694835	283.3	26.9	-76.6	4.8
2026-01-02 08:56:43.948591	282.6	26.7	-76.1	6.8
2026-01-02 08:56:46.204077	282.0	26.6	-76.9	7.0
2026-01-02 08:56:48.461584	281.3	26.4	-76.7	7.4
2026-01-02 08:56:50.717919	280.7	26.3	-77.1	7.7
2026-01-02 08:56:52.972462	280.1	26.1	-77.0	8.9
2026-01-02 08:56:55.227360	279.4	26.0	-77.0	8.7
2026-01-02 08:56:57.482717	278.8	25.8	-77.1	9.2
2026-01-02 08:56:59.748400	278.2	25.6	-77.3	10.0
2026-01-02 08:57:02.020101	277.6	25.5	-76.4	7.8
2026-01-02 08:57:04.293037	277.0	25.3	-77.4	8.4
2026-01-02 08:57:06.566405	276.4	25.1	-76.6	7.0
2026-01-02 08:57:08.842023	275.8	24.9	-77.5	7.0
2026-01-02 08:57:11.116685	275.2	24.8	-77.2	6.9
2026-01-02 08:57:13.391997	274.6	24.6	-77.7	9.3
2026-01-02 08:57:15.664518	274.0	24.4	-77.2	6.1
2026-01-02 08:57:17.940440	273.4	24.2	-77.3	8.3
2026-01-02 08:57:20.212577	272.9	24.0	-77.4	8.4
2026-01-02 08:57:22.483061	272.3	23.9	-77.5	9.4
2026-01-02 08:57:24.758281	271.8	23.7	-77.0	8.0
2026-01-02 08:57:27.034797	271.2	23.5	-77.2	7.0
2026-01-02 08:57:29.310123	270.7	23.3	-76.5	7.3
2026-01-02 08:57:31.584489	270.2	23.1	-77.3	8.4
2026-01-02 08:57:33.858188	269.7	22.9	-77.8	8.8
2026-01-02 08:57:36.125976	269.1	22.7	-77.9	9.5
2026-01-02 08:57:38.395961	268.6	22.5	-77.6	8.6
2026-01-02 08:57:40.660335	268.1	22.3	-77.9	8.7
2026-01-02 08:57:42.930259	267.6	22.1	-77.7	6.3
2026-01-02 08:57:45.196568	267.1	21.9	-78.1	8.8
2026-01-02 08:57:47.466531	266.7	21.7	-77.7	8.4
2026-01-02 08:57:49.738333	266.2	21.5	-77.9	9.0
2026-01-02 08:57:52.012186	265.7	21.3	-77.8	9.0
2026-01-02 08:57:54.293145	265.2	21.1	-78.1	9.8
2026-01-02 08:57:56.565381	264.8	20.9	-78.2	9.1
2026-01-02 08:57:58.838003	264.3	20.7	-77.7	8.9
2026-01-02 08:58:01.116238	263.9	20.5	-77.9	9.0
2026-01-02 08:58:03.392874	263.4	20.3	-78.0	8.8
2026-01-02 08:58:05.667052	263.0	20.1	-78.0	9.8
2026-01-02 08:58:07.944839	262.6	19.9	-77.6	8.2
2026-01-02 08:58:10.223013	262.1	19.7	-77.8	8.9
2026-01-02 08:58:12.498174	261.7	19.5	-78.0	9.0
2026-01-02 08:58:14.771904	261.3	19.3	-77.8	7.7
2026-01-02 08:58:17.049349	260.9	19.1	-77.5	7.7
2026-01-02 08:58:19.326951	260.5	18.9	-77.6	7.4
2026-01-02 08:58:21.598967	260.1	18.7	-78.0	8.5
2026-01-02 08:58:23.869271	259.7	18.5	-77.9	8.3
2026-01-02 08:58:26.140001	259.3	18.3	-78.1	8.5
2026-01-02 08:58:28.415225	258.9	18.1	-78.0	7.9
2026-01-02 08:58:30.691371	258.6	17.9	-78.2	8.1
2026-01-02 08:58:32.965974	258.2	17.7	-78.7	7.2
2026-01-02 08:58:35.235526	257.8	17.5	-78.3	7.6
2026-01-02 08:58:37.500278	257.5	17.3	-78.8	7.9
2026-01-02 08:58:39.758498	257.1	17.1	-78.8	6.6
2026-01-02 08:58:42.014143	256.8	16.9	-78.8	6.4
2026-01-02 08:58:44.277214	256.4	16.7	-78.5	7.2
2026-01-02 08:58:46.536810	256.1	16.5	-78.9	7.2
2026-01-02 08:58:48.796386	255.7	16.3	-78.9	7.5
2026-01-02 08:58:51.055135	255.4	16.1	-79.1	7.3
2026-01-02 08:58:53.315567	255.1	15.9	-78.9	7.7
2026-01-02 08:58:55.574512	254.8	15.8	-78.9	7.5
2026-01-02 08:58:57.832962	254.4	15.6	-78.9	7.5
2026-01-02 08:59:00.100526	254.1	15.4	-78.6	7.5
2026-01-02 08:59:02.366978	253.8	15.2	-78.2	7.1
2026-01-02 08:59:04.634676	253.5	15.0	-78.3	7.8
2026-01-02 08:59:06.902482	253.2	14.8	-78.7	7.7
2026-01-02 08:59:09.170265	252.9	14.6	-78.7	7.5
2026-01-02 08:59:11.436821	252.6	14.4	-78.9	7.6
2026-01-02 08:59:13.703773	252.3	14.2	-78.2	6.5
2026-01-02 08:59:15.972269	252.0	14.0	-78.5	6.9
2026-01-02 08:59:18.238187	251.7	13.9	-78.6	8.1
2026-01-02 08:59:20.503029	251.5	13.7	-78.7	7.3
2026-01-02 08:59:22.772907	251.2	13.5	-78.8	7.3
2026-01-02 08:59:25.035541	250.9	13.3	-78.7	6.8
2026-01-02 08:59:27.304315	250.6	13.1	-79.1	6.7
2026-01-02 08:59:29.573176	250.4	12.9	-78.7	6.3
2026-01-02 08:59:31.841678	250.1	12.8	-78.6	6.8
2026-01-02 08:59:34.117395	249.8	12.6	-78.9	7.4
2026-01-02 08:59:36.394541	249.6	12.4	-78.9	7.2
2026-01-02 08:59:38.671021	249.3	12.2	-78.5	5.7
2026-01-02 08:59:40.944787	249.1	12.0	-78.7	7.0
2026-01-02 08:59:43.219185	248.8	11.9	-78.9	7.5
2026-01-02 08:59:45.496772	248.6	11.7	-79.0	5.7
2026-01-02 08:59:47.773151	248.3	11.5	-79.2	6.1
2026-01-02 08:59:50.048944	248.1	11.3	-78.8	6.6
2026-01-02 08:59:52.318824	247.9	11.1	-78.3	5.0
2026-01-02 08:59:54.589161	247.6	11.0	-79.0	7.3
2026-01-02 08:59:56.854846	247.4	10.8	-81.1	6.0
2026-01-02 08:59:59.123100	247.2	10.6	-82.7	4.1
2026-01-02 09:00:01.392409	246.9	10.4	-84.3	0.0
2026-01-02 09:00:03.661502	246.7	10.3	-85.4	0.0
2026-01-02 09:00:05.933238	246.5	10.1	-85.0	0.0
#Closed at: 2026-01-02 08:50:58.773850