passes_logs/2026/01/02/planumMaritime01/planumMaritime01__20260102_074800_METOP-C_rec.log

#Pass ID: 20260102_074800_METOP-C
#Satellite: METOP-C
#Configuration: METOP-C
#Start time: 2026-01-02 07:48:05.476001

#LorettStation: 1.0.0 05.05.2024
#Station: planumMaritime01
#Location: 37.49445 lon 55.92918 lat
#TLE: 1 43689U 18087A   26001.31932789  .00000269  00000+0  14274-3 0  9992
#TLE: 2 43689  98.6901  63.7860 0000249 350.8424   9.2749 14.21492938371124

#Time	Az	El	Level	SNR
2026-01-02 07:48:07.638162	16.5	10.2	-64.9	0.0
2026-01-02 07:48:09.890640	16.5	10.4	-65.4	0.0
2026-01-02 07:48:12.144144	16.5	10.6	-64.4	0.0
2026-01-02 07:48:14.393003	16.5	10.8	-66.3	0.0
2026-01-02 07:48:16.645361	16.5	11.0	-64.5	0.0
2026-01-02 07:48:18.897483	16.5	11.2	-64.4	0.0
2026-01-02 07:48:21.149318	16.6	11.4	-64.0	0.0
2026-01-02 07:48:23.405961	16.6	11.6	-61.3	0.0
2026-01-02 07:48:25.658894	16.6	11.8	-63.7	0.0
2026-01-02 07:48:27.908645	16.6	12.0	-63.5	0.0
2026-01-02 07:48:30.162531	16.6	12.2	-63.9	0.0
2026-01-02 07:48:32.417213	16.6	12.5	-64.0	0.0
2026-01-02 07:48:34.672058	16.6	12.7	-63.1	0.0
2026-01-02 07:48:36.923939	16.6	12.9	-64.4	0.0
2026-01-02 07:48:39.177211	16.6	13.1	-63.6	0.0
2026-01-02 07:48:41.429649	16.6	13.3	-65.5	0.0
2026-01-02 07:48:43.681820	16.6	13.6	-63.4	0.0
2026-01-02 07:48:45.935134	16.6	13.8	-60.8	0.0
2026-01-02 07:48:48.188776	16.6	14.0	-63.7	0.0
2026-01-02 07:48:50.443963	16.7	14.3	-64.3	0.0
2026-01-02 07:48:52.698723	16.7	14.5	-61.4	0.0
2026-01-02 07:48:54.951435	16.7	14.7	-59.2	0.0
2026-01-02 07:48:57.202983	16.7	15.0	-57.5	0.0
2026-01-02 07:48:59.456067	16.7	15.2	-56.0	0.0
2026-01-02 07:49:01.712052	16.7	15.4	-57.9	0.0
2026-01-02 07:49:03.965630	16.7	15.7	-60.6	0.0
2026-01-02 07:49:06.220387	16.7	15.9	-63.6	0.0
2026-01-02 07:49:08.473241	16.7	16.2	-61.0	0.0
2026-01-02 07:49:10.727203	16.7	16.4	-64.1	0.0
2026-01-02 07:49:12.979528	16.7	16.7	-64.8	0.0
2026-01-02 07:49:15.231815	16.7	17.0	-63.3	0.0
2026-01-02 07:49:17.488197	16.7	17.2	-65.7	0.0
2026-01-02 07:49:19.742811	16.8	17.5	-64.3	0.0
2026-01-02 07:49:21.996269	16.8	17.8	-65.3	0.0
2026-01-02 07:49:24.249359	16.8	18.0	-64.8	0.0
2026-01-02 07:49:26.500629	16.8	18.3	-64.3	0.0
2026-01-02 07:49:28.753547	16.8	18.6	-65.1	0.0
2026-01-02 07:49:31.006152	16.8	18.9	-63.3	0.0
2026-01-02 07:49:33.258104	16.8	19.1	-64.5	0.0
2026-01-02 07:49:35.513635	16.8	19.4	-62.2	0.0
2026-01-02 07:49:37.766831	16.8	19.7	-65.1	0.0
2026-01-02 07:49:40.020735	16.8	20.0	-66.1	0.0
2026-01-02 07:49:42.275447	16.8	20.3	-66.4	0.0
2026-01-02 07:49:44.527443	16.8	20.6	-63.5	0.0
2026-01-02 07:49:46.783123	16.8	20.9	-63.4	0.0
2026-01-02 07:49:49.033806	16.8	21.2	-65.4	0.0
2026-01-02 07:49:51.285899	16.9	21.5	-63.4	0.0
2026-01-02 07:49:53.541002	16.9	21.8	-65.0	0.0
2026-01-02 07:49:55.794002	16.9	22.2	-65.0	0.0
2026-01-02 07:49:58.047112	16.9	22.5	-64.3	0.0
2026-01-02 07:50:00.298551	16.9	22.8	-65.3	0.0
2026-01-02 07:50:02.553220	16.9	23.1	-66.6	0.0
2026-01-02 07:50:04.809257	16.9	23.5	-66.4	0.0
2026-01-02 07:50:07.062499	16.9	23.8	-66.0	0.0
2026-01-02 07:50:09.315452	16.9	24.2	-64.3	0.0
2026-01-02 07:50:11.570115	16.9	24.5	-66.1	0.0
2026-01-02 07:50:13.822710	16.9	24.9	-64.6	0.0
2026-01-02 07:50:16.076556	16.9	25.2	-62.6	0.0
2026-01-02 07:50:18.330473	16.9	25.6	-64.9	0.0
2026-01-02 07:50:20.584158	16.9	26.0	-64.4	0.0
2026-01-02 07:50:22.838091	16.9	26.3	-65.0	0.0
2026-01-02 07:50:25.093208	16.9	26.7	-64.5	0.0
2026-01-02 07:50:27.346974	17.0	27.1	-66.2	0.0
2026-01-02 07:50:29.600806	17.0	27.5	-66.1	0.0
2026-01-02 07:50:31.854025	17.0	27.9	-65.4	0.0
2026-01-02 07:50:34.106633	17.0	28.3	-64.7	0.0
2026-01-02 07:50:36.364051	17.0	28.7	-66.1	0.0
2026-01-02 07:50:38.616898	17.0	29.1	-61.6	0.0
2026-01-02 07:50:40.869841	17.0	29.5	-66.1	0.0
2026-01-02 07:50:43.120128	17.0	30.0	-64.7	0.0
2026-01-02 07:50:45.373164	17.0	30.4	-64.3	0.0
2026-01-02 07:50:47.625953	17.0	30.9	-62.9	0.0
2026-01-02 07:50:49.879864	17.0	31.3	-63.2	0.0
2026-01-02 07:50:52.133165	17.0	31.8	-61.6	0.0
2026-01-02 07:50:54.387498	17.0	32.2	-65.9	0.0
2026-01-02 07:50:56.638264	17.0	32.7	-65.0	0.0
2026-01-02 07:50:58.892331	17.0	33.2	-65.7	0.0
2026-01-02 07:51:01.143259	17.0	33.6	-66.6	0.0
2026-01-02 07:51:03.397573	17.0	34.1	-62.0	0.0
2026-01-02 07:51:05.649490	17.0	34.6	-67.5	0.0
2026-01-02 07:51:07.902161	17.0	35.1	-67.5	0.0
2026-01-02 07:51:10.155907	17.0	35.7	-66.8	0.0
2026-01-02 07:51:12.410326	17.1	36.2	-67.8	0.0
2026-01-02 07:51:14.662599	17.1	36.7	-67.6	0.0
2026-01-02 07:51:16.917556	17.1	37.3	-67.6	0.0
2026-01-02 07:51:19.173142	17.1	37.8	-68.8	2.5
2026-01-02 07:51:21.424007	17.1	38.4	-68.4	3.5
2026-01-02 07:51:23.675569	17.1	39.0	-68.6	0.0
2026-01-02 07:51:25.928809	17.1	39.5	-71.1	3.3
2026-01-02 07:51:28.181046	17.1	40.1	-71.0	1.9
2026-01-02 07:51:30.433759	17.1	40.7	-71.5	5.8
2026-01-02 07:51:32.685950	17.1	41.3	-71.1	4.9
2026-01-02 07:51:34.937784	17.1	42.0	-71.0	5.8
2026-01-02 07:51:37.188715	17.1	42.6	-70.0	7.1
2026-01-02 07:51:39.442724	17.1	43.2	-69.6	5.6
2026-01-02 07:51:41.698348	17.1	43.9	-69.6	3.1
2026-01-02 07:51:43.949040	17.1	44.6	-69.3	4.6
2026-01-02 07:51:46.207545	17.1	45.2	-69.7	6.1
2026-01-02 07:51:48.458273	17.1	45.9	-71.3	7.8
2026-01-02 07:51:50.713619	17.1	46.6	-71.8	9.0
2026-01-02 07:51:52.964952	17.1	47.3	-69.8	5.2
2026-01-02 07:51:55.217803	17.1	48.1	-69.6	6.8
2026-01-02 07:51:57.472567	17.1	48.8	-70.9	6.0
2026-01-02 07:51:59.721731	17.1	49.6	-71.5	8.1
2026-01-02 07:52:01.976146	17.1	50.3	-69.9	8.1
2026-01-02 07:52:04.233421	17.1	51.1	-70.1	7.5
2026-01-02 07:52:06.487313	17.1	51.9	-71.0	13.2
2026-01-02 07:52:08.741797	17.1	52.7	-71.1	12.1
2026-01-02 07:52:11.000238	17.1	53.5	-70.0	8.0
2026-01-02 07:52:13.250456	17.1	54.3	-71.3	11.4
2026-01-02 07:52:15.504937	17.1	55.2	-71.5	8.8
2026-01-02 07:52:17.756178	17.1	56.0	-70.3	3.5
2026-01-02 07:52:20.011113	17.0	56.9	-71.5	11.2
2026-01-02 07:52:22.262854	17.0	57.8	-72.0	9.5
2026-01-02 07:52:24.514811	17.0	58.7	-71.6	7.5
2026-01-02 07:52:26.766927	17.0	59.6	-70.5	4.9
2026-01-02 07:52:29.021322	17.0	60.5	-71.3	6.5
2026-01-02 07:52:31.273456	17.0	61.5	-70.9	6.6
2026-01-02 07:52:33.528010	17.0	62.4	-71.4	6.7
2026-01-02 07:52:35.778113	16.9	63.4	-71.9	7.7
2026-01-02 07:52:38.030609	16.9	64.4	-71.6	7.3
2026-01-02 07:52:40.284115	16.9	65.4	-71.4	10.1
2026-01-02 07:52:42.537440	16.9	66.4	-71.5	8.9
2026-01-02 07:52:44.791271	16.8	67.4	-72.3	10.4
2026-01-02 07:52:47.043916	16.8	68.4	-71.4	6.3
2026-01-02 07:52:49.297068	16.8	69.5	-71.1	3.3
2026-01-02 07:52:51.549626	16.7	70.5	-73.5	8.6
2026-01-02 07:52:53.803337	16.7	71.6	-73.3	7.9
2026-01-02 07:52:56.056260	16.6	72.7	-72.6	2.6
2026-01-02 07:52:58.307662	16.6	73.8	-73.2	7.0
2026-01-02 07:53:00.563984	16.5	74.9	-73.9	6.9
2026-01-02 07:53:02.814756	16.4	76.0	-73.5	8.9
2026-01-02 07:53:05.066300	16.3	77.1	-73.2	8.2
2026-01-02 07:53:07.322224	16.1	78.2	-72.6	7.7
2026-01-02 07:53:09.574772	16.0	79.3	-73.3	9.3
2026-01-02 07:53:11.826664	15.8	80.5	-72.5	6.9
2026-01-02 07:53:14.083145	15.5	81.6	-72.6	9.0
2026-01-02 07:53:16.334170	15.1	82.8	-72.6	8.2
2026-01-02 07:53:18.588427	14.7	83.9	-73.0	8.5
2026-01-02 07:53:20.839873	13.9	85.1	-72.9	9.4
2026-01-02 07:53:23.091624	12.7	86.3	-73.4	9.6
2026-01-02 07:53:25.347107	10.4	87.4	-73.5	10.8
2026-01-02 07:53:27.600173	4.4	88.6	-73.6	8.5
2026-01-02 07:53:29.855570	320.6	89.6	-73.4	10.2
2026-01-02 07:53:32.111060	216.8	89.0	-73.0	11.7
2026-01-02 07:53:34.365852	206.6	87.8	-73.3	12.6
2026-01-02 07:53:36.621083	203.5	86.7	-73.3	12.1
2026-01-02 07:53:38.873170	202.1	85.5	-73.7	11.0
2026-01-02 07:53:41.126896	201.2	84.4	-73.7	12.4
2026-01-02 07:53:43.379861	200.6	83.2	-73.6	13.6
2026-01-02 07:53:45.631894	200.2	82.0	-73.5	13.4
2026-01-02 07:53:47.885932	199.9	80.9	-74.4	13.7
2026-01-02 07:53:50.139525	199.7	79.7	-73.7	12.3
2026-01-02 07:53:52.393427	199.5	78.6	-73.7	13.2
2026-01-02 07:53:54.652623	199.4	77.5	-73.9	13.6
2026-01-02 07:53:56.905601	199.3	76.4	-74.5	13.5
2026-01-02 07:53:59.158728	199.2	75.2	-74.6	13.2
2026-01-02 07:54:01.414024	199.1	74.1	-74.2	13.4
2026-01-02 07:54:03.665351	199.0	73.0	-74.3	12.6
2026-01-02 07:54:05.920668	198.9	72.0	-74.7	12.5
2026-01-02 07:54:08.175589	198.9	70.9	-74.5	13.0
2026-01-02 07:54:10.427598	198.8	69.8	-74.0	12.3
2026-01-02 07:54:12.683829	198.8	68.8	-74.7	11.8
2026-01-02 07:54:14.938584	198.8	67.7	-74.5	13.7
2026-01-02 07:54:17.192657	198.7	66.7	-74.2	12.8
2026-01-02 07:54:19.445120	198.7	65.7	-73.8	13.2
2026-01-02 07:54:21.698951	198.7	64.7	-73.8	13.9
2026-01-02 07:54:23.952802	198.7	63.7	-73.7	13.9
2026-01-02 07:54:26.204710	198.6	62.7	-73.6	14.4
2026-01-02 07:54:28.458778	198.6	61.8	-73.3	14.6
2026-01-02 07:54:30.711329	198.6	60.8	-73.4	14.6
2026-01-02 07:54:32.963127	198.6	59.9	-73.8	14.7
2026-01-02 07:54:35.217835	198.6	59.0	-74.1	14.0
2026-01-02 07:54:37.472838	198.6	58.1	-74.5	13.5
2026-01-02 07:54:39.727290	198.6	57.2	-74.6	13.8
2026-01-02 07:54:41.979396	198.6	56.3	-74.6	13.0
2026-01-02 07:54:44.232562	198.5	55.4	-74.4	12.7
2026-01-02 07:54:46.485982	198.5	54.6	-74.5	14.0
2026-01-02 07:54:48.738549	198.5	53.7	-74.1	15.0
2026-01-02 07:54:50.992505	198.5	52.9	-73.8	15.2
2026-01-02 07:54:53.247168	198.5	52.1	-73.9	15.1
2026-01-02 07:54:55.503046	198.5	51.3	-74.1	15.5
2026-01-02 07:54:57.754761	198.5	50.5	-74.1	15.0
2026-01-02 07:55:00.009995	198.5	49.7	-74.4	14.8
2026-01-02 07:55:02.267638	198.5	49.0	-74.4	14.4
2026-01-02 07:55:04.519515	198.5	48.2	-74.2	14.2
2026-01-02 07:55:06.770600	198.5	47.5	-74.5	14.1
2026-01-02 07:55:09.027014	198.5	46.8	-74.1	13.6
2026-01-02 07:55:11.279022	198.5	46.1	-73.9	11.9
2026-01-02 07:55:13.532827	198.5	45.4	-73.9	13.1
2026-01-02 07:55:15.787612	198.5	44.7	-73.5	12.2
2026-01-02 07:55:18.041134	198.5	44.0	-72.9	12.8
2026-01-02 07:55:20.295080	198.5	43.4	-73.0	13.0
2026-01-02 07:55:22.547113	198.5	42.7	-72.9	12.7
2026-01-02 07:55:24.802490	198.5	42.1	-73.0	12.1
2026-01-02 07:55:27.053116	198.5	41.4	-73.0	11.0
2026-01-02 07:55:29.306025	198.5	40.8	-72.9	10.3
2026-01-02 07:55:31.559995	198.5	40.2	-72.8	8.7
2026-01-02 07:55:33.810727	198.5	39.6	-73.0	9.8
2026-01-02 07:55:36.060322	198.5	39.0	-72.7	7.9
2026-01-02 07:55:38.308939	198.5	38.5	-73.2	9.1
2026-01-02 07:55:40.558721	198.5	37.9	-72.7	8.7
2026-01-02 07:55:42.811866	198.5	37.3	-72.7	6.0
2026-01-02 07:55:45.064283	198.5	36.8	-72.9	7.9
2026-01-02 07:55:47.319367	198.5	36.3	-73.2	10.5
2026-01-02 07:55:49.570965	198.5	35.7	-73.1	4.9
2026-01-02 07:55:51.824331	198.5	35.2	-72.3	7.1
2026-01-02 07:55:54.076521	198.5	34.7	-72.1	6.9
2026-01-02 07:55:56.327388	198.5	34.2	-71.8	7.6
2026-01-02 07:55:58.578888	198.5	33.7	-71.5	5.2
2026-01-02 07:56:00.831232	198.5	33.2	-71.6	5.3
2026-01-02 07:56:03.083612	198.6	32.7	-71.7	5.7
2026-01-02 07:56:05.339512	198.6	32.2	-71.7	3.5
2026-01-02 07:56:07.592275	198.6	31.8	-71.3	2.2
2026-01-02 07:56:09.842018	198.6	31.3	-71.3	4.0
2026-01-02 07:56:12.095297	198.6	30.9	-71.3	2.1
2026-01-02 07:56:14.347985	198.6	30.4	-71.2	2.4
2026-01-02 07:56:16.599389	198.6	30.0	-71.4	3.4
2026-01-02 07:56:18.852108	198.6	29.5	-71.4	3.0
2026-01-02 07:56:21.103948	198.6	29.1	-71.2	0.6
2026-01-02 07:56:23.355952	198.6	28.7	-71.7	0.0
2026-01-02 07:56:25.608099	198.6	28.3	-71.2	0.0
2026-01-02 07:56:27.858797	198.6	27.9	-71.9	0.0
2026-01-02 07:56:30.111374	198.6	27.5	-71.6	1.3
2026-01-02 07:56:32.362678	198.6	27.1	-72.0	1.0
2026-01-02 07:56:34.613019	198.6	26.7	-71.9	3.9
2026-01-02 07:56:36.866226	198.6	26.3	-71.8	1.2
2026-01-02 07:56:39.119104	198.6	25.9	-71.4	0.0
2026-01-02 07:56:41.374050	198.6	25.6	-71.4	1.1
2026-01-02 07:56:43.630264	198.6	25.2	-71.7	0.0
2026-01-02 07:56:45.883054	198.6	24.8	-71.2	0.0
2026-01-02 07:56:48.137167	198.6	24.5	-72.0	0.0
2026-01-02 07:56:50.394935	198.6	24.1	-71.4	0.0
2026-01-02 07:56:52.647768	198.7	23.8	-71.5	0.0
2026-01-02 07:56:54.903297	198.7	23.4	-71.9	0.0
2026-01-02 07:56:57.157221	198.7	23.1	-71.8	1.1
2026-01-02 07:56:59.407171	198.7	22.8	-72.4	6.6
2026-01-02 07:57:01.663941	198.7	22.4	-71.7	0.9
2026-01-02 07:57:03.920951	198.7	22.1	-71.1	0.0
2026-01-02 07:57:06.176493	198.7	21.8	-71.8	2.8
2026-01-02 07:57:08.432005	198.7	21.5	-71.6	0.0
2026-01-02 07:57:10.684793	198.7	21.2	-72.2	0.2
2026-01-02 07:57:12.936968	198.7	20.8	-71.4	0.4
2026-01-02 07:57:15.187929	198.7	20.5	-71.7	0.0
2026-01-02 07:57:17.440203	198.7	20.2	-71.6	0.0
2026-01-02 07:57:19.694616	198.7	19.9	-71.9	2.6
2026-01-02 07:57:21.947314	198.7	19.6	-71.4	0.1
2026-01-02 07:57:24.199049	198.7	19.3	-72.3	0.0
2026-01-02 07:57:26.452517	198.7	19.1	-71.4	0.0
2026-01-02 07:57:28.705068	198.7	18.8	-71.9	0.0
2026-01-02 07:57:30.959051	198.7	18.5	-71.8	0.0
2026-01-02 07:57:33.214400	198.7	18.2	-72.0	0.0
2026-01-02 07:57:35.468899	198.8	17.9	-72.0	0.0
2026-01-02 07:57:37.718997	198.8	17.7	-72.8	1.2
2026-01-02 07:57:39.972342	198.8	17.4	-73.3	0.0
2026-01-02 07:57:42.223599	198.8	17.1	-71.7	0.0
2026-01-02 07:57:44.476183	198.8	16.9	-72.2	0.0
2026-01-02 07:57:46.729152	198.8	16.6	-72.4	1.6
2026-01-02 07:57:48.981547	198.8	16.3	-72.4	0.0
2026-01-02 07:57:51.233762	198.8	16.1	-72.1	0.0
2026-01-02 07:57:53.487401	198.8	15.8	-72.5	0.0
2026-01-02 07:57:55.736998	198.8	15.6	-72.9	0.0
2026-01-02 07:57:57.993711	198.8	15.3	-73.2	0.0
2026-01-02 07:58:00.245944	198.8	15.1	-72.7	0.0
2026-01-02 07:58:02.498262	198.8	14.9	-72.8	0.0
2026-01-02 07:58:04.749935	198.8	14.6	-72.4	0.0
2026-01-02 07:58:06.999358	198.8	14.4	-72.5	0.0
2026-01-02 07:58:09.250356	198.8	14.1	-72.5	0.0
2026-01-02 07:58:11.507344	198.8	13.9	-72.8	0.0
2026-01-02 07:58:13.762145	198.8	13.7	-72.3	0.0
2026-01-02 07:58:16.017462	198.9	13.4	-72.7	0.0
2026-01-02 07:58:18.272224	198.9	13.2	-72.4	0.0
2026-01-02 07:58:20.527270	198.9	13.0	-73.5	0.0
2026-01-02 07:58:22.785327	198.9	12.8	-72.8	0.0
2026-01-02 07:58:25.036885	198.9	12.6	-73.1	0.0
2026-01-02 07:58:27.290864	198.9	12.3	-73.0	0.0
2026-01-02 07:58:29.541999	198.9	12.1	-73.2	0.0
2026-01-02 07:58:31.794815	198.9	11.9	-73.4	0.0
2026-01-02 07:58:34.049008	198.9	11.7	-73.3	0.0
2026-01-02 07:58:36.301022	198.9	11.5	-73.1	0.0
2026-01-02 07:58:38.552097	198.9	11.3	-75.2	0.0
2026-01-02 07:58:40.805959	198.9	11.1	-73.6	0.0
2026-01-02 07:58:43.061238	198.9	10.9	-72.7	0.0
2026-01-02 07:58:45.311529	198.9	10.7	-73.2	0.0
2026-01-02 07:58:47.565602	198.9	10.5	-77.7	0.0
2026-01-02 07:58:49.822346	198.9	10.3	-80.9	0.0
2026-01-02 07:58:52.072282	198.9	10.1	-81.1	0.0
#Closed at: 2026-01-02 07:48:00.482476