passes_logs/2025/01/11/LEX_Murmansk/LEX_Murmansk__20250111_063111_NOAA_19_rec.log

#Pass ID: 20250111_063111_NOAA 19
#Satellite: NOAA 19
#Configuration: NOAA 19
#Start time: 2025-01-11 06:31:06.260597

#LorettStation: 1.0.0 05.05.2024
#Station: LEX_Murmansk
#Location: 33.156738 lon 68.926811 lat
#TLE: 1 33591U 09005A   25010.89784442  .00000302  00000+0  18516-3 0  9997
#TLE: 2 33591  99.0205  74.6284 0014588  68.5939 291.6787 14.13256630820961

#Time	Az	El	Level	SNR
2025-01-11 06:31:18.502166	44.4	15.8	-92.1	2.1
2025-01-11 06:31:19.668486	44.6	15.9	-92.2	2.8
2025-01-11 06:31:20.829477	44.8	15.9	-91.8	3.5
2025-01-11 06:31:21.994695	45.0	16.0	-91.7	0.6
2025-01-11 06:31:23.157858	45.2	16.1	-91.5	2.8
2025-01-11 06:31:24.324404	45.4	16.2	-91.0	5.2
2025-01-11 06:31:25.484680	45.7	16.2	-92.2	4.1
2025-01-11 06:31:26.660063	45.9	16.3	-92.1	3.9
2025-01-11 06:31:27.824791	46.1	16.4	-92.2	4.8
2025-01-11 06:31:28.988052	46.3	16.5	-91.4	4.7
2025-01-11 06:31:30.152781	46.5	16.5	-92.1	2.7
2025-01-11 06:31:31.313734	46.7	16.6	-92.1	4.4
2025-01-11 06:31:32.486184	46.9	16.7	-92.3	6.3
2025-01-11 06:31:33.641666	47.1	16.8	-92.1	6.5
2025-01-11 06:31:34.806105	47.3	16.8	-92.0	6.9
2025-01-11 06:31:35.980483	47.6	16.9	-91.9	5.5
2025-01-11 06:31:37.142375	47.8	17.0	-91.8	4.8
2025-01-11 06:31:38.316780	48.0	17.1	-92.1	6.1
2025-01-11 06:31:39.476913	48.2	17.1	-92.4	3.8
2025-01-11 06:31:40.644398	48.4	17.2	-92.3	4.0
2025-01-11 06:31:41.800269	48.7	17.3	-92.3	4.0
2025-01-11 06:31:42.963529	48.9	17.3	-92.3	1.4
2025-01-11 06:31:44.128791	49.1	17.4	-92.1	1.5
2025-01-11 06:31:45.291671	49.3	17.5	-92.0	2.6
2025-01-11 06:31:46.464753	49.5	17.6	-92.2	6.9
2025-01-11 06:31:47.627047	49.8	17.6	-92.2	6.1
2025-01-11 06:31:48.789003	50.0	17.7	-92.6	6.2
2025-01-11 06:31:49.952987	50.2	17.8	-92.6	8.8
2025-01-11 06:31:51.119777	50.5	17.8	-92.1	5.0
2025-01-11 06:31:52.285323	50.7	17.9	-91.7	7.0
2025-01-11 06:31:53.451922	50.9	18.0	-92.0	6.5
2025-01-11 06:31:54.614734	51.2	18.1	-92.2	5.2
2025-01-11 06:31:55.780038	51.4	18.1	-92.3	5.9
2025-01-11 06:31:56.943586	51.6	18.2	-92.3	6.7
2025-01-11 06:31:58.106520	51.9	18.3	-91.8	8.6
2025-01-11 06:31:59.267310	52.1	18.3	-91.9	7.0
2025-01-11 06:32:00.420157	52.3	18.4	-92.3	10.2
2025-01-11 06:32:01.579433	52.6	18.5	-92.5	13.2
2025-01-11 06:32:02.745886	52.8	18.5	-92.5	10.5
2025-01-11 06:32:03.902235	53.0	18.6	-92.2	10.4
2025-01-11 06:32:05.065999	53.3	18.7	-92.2	9.2
2025-01-11 06:32:06.231470	53.5	18.7	-92.1	2.4
2025-01-11 06:32:07.402120	53.8	18.8	-91.7	3.8
2025-01-11 06:32:08.568170	54.0	18.9	-92.4	3.7
2025-01-11 06:32:09.746440	54.3	18.9	-92.5	2.5
2025-01-11 06:32:10.909003	54.5	19.0	-92.0	3.4
2025-01-11 06:32:12.078974	54.8	19.1	-92.2	4.9
2025-01-11 06:32:13.244195	55.0	19.1	-92.4	8.0
2025-01-11 06:32:14.400254	55.3	19.2	-92.4	10.5
2025-01-11 06:32:15.576741	55.5	19.3	-92.3	10.6
2025-01-11 06:32:16.741302	55.8	19.3	-92.5	9.8
2025-01-11 06:32:17.909275	56.0	19.4	-92.4	9.7
2025-01-11 06:32:19.071392	56.3	19.5	-92.0	12.0
2025-01-11 06:32:20.233180	56.5	19.5	-91.8	7.3
2025-01-11 06:32:21.400310	56.8	19.6	-92.4	8.5
2025-01-11 06:32:22.564948	57.0	19.7	-92.6	7.9
2025-01-11 06:32:23.724919	57.3	19.7	-92.6	7.7
2025-01-11 06:32:24.888809	57.5	19.8	-92.5	8.3
2025-01-11 06:32:26.054329	57.8	19.8	-92.4	8.0
2025-01-11 06:32:27.210243	58.1	19.9	-92.3	9.2
2025-01-11 06:32:28.380861	58.3	20.0	-92.2	11.0
2025-01-11 06:32:29.546309	58.6	20.0	-92.4	14.6
2025-01-11 06:32:30.710806	58.9	20.1	-92.9	13.3
2025-01-11 06:32:31.877033	59.1	20.1	-92.8	10.8
2025-01-11 06:32:33.043499	59.4	20.2	-92.4	9.2
2025-01-11 06:32:34.204280	59.7	20.2	-92.1	7.4
2025-01-11 06:32:35.365573	59.9	20.3	-92.2	5.5
2025-01-11 06:32:36.533031	60.2	20.4	-92.2	5.8
2025-01-11 06:32:37.695823	60.5	20.4	-92.0	2.9
2025-01-11 06:32:38.858126	60.7	20.5	-92.0	1.9
2025-01-11 06:32:40.023889	61.0	20.5	-92.3	4.9
2025-01-11 06:32:41.193311	61.3	20.6	-92.1	5.9
2025-01-11 06:32:42.350651	61.6	20.6	-92.3	6.8
2025-01-11 06:32:43.517663	61.8	20.7	-92.2	10.3
2025-01-11 06:32:44.679763	62.1	20.7	-91.5	11.4
2025-01-11 06:32:45.844082	62.4	20.8	-92.2	13.3
2025-01-11 06:32:47.010568	62.7	20.9	-91.9	13.7
2025-01-11 06:32:48.177144	62.9	20.9	-92.2	11.9
2025-01-11 06:32:49.334217	63.2	21.0	-91.6	11.9
2025-01-11 06:32:50.498843	63.5	21.0	-91.8	12.6
2025-01-11 06:32:51.664597	63.8	21.1	-92.4	9.5
2025-01-11 06:32:52.828041	64.1	21.1	-92.5	7.9
2025-01-11 06:32:53.990877	64.3	21.2	-92.8	9.0
2025-01-11 06:32:55.154373	64.6	21.2	-92.2	6.7
2025-01-11 06:32:56.319692	64.9	21.2	-92.1	5.4
2025-01-11 06:32:57.492026	65.2	21.3	-91.6	8.7
2025-01-11 06:32:58.651805	65.5	21.3	-92.1	9.1
2025-01-11 06:32:59.817732	65.8	21.4	-92.7	11.5
2025-01-11 06:33:00.968882	66.0	21.4	-92.7	14.4
2025-01-11 06:33:02.128253	66.3	21.5	-92.2	15.2
2025-01-11 06:33:03.303526	66.6	21.5	-92.1	14.2
2025-01-11 06:33:04.460083	66.9	21.6	-92.4	12.8
2025-01-11 06:33:05.624512	67.2	21.6	-91.9	13.7
2025-01-11 06:33:06.794093	67.5	21.6	-92.0	11.6
2025-01-11 06:33:07.963909	67.8	21.7	-92.2	9.5
2025-01-11 06:33:09.124468	68.1	21.7	-92.3	8.4
2025-01-11 06:33:10.290691	68.4	21.8	-92.4	3.0
2025-01-11 06:33:11.451984	68.7	21.8	-92.3	6.8
2025-01-11 06:33:12.619919	69.0	21.8	-92.4	8.1
2025-01-11 06:33:13.777289	69.3	21.9	-92.9	3.1
2025-01-11 06:33:14.938911	69.6	21.9	-92.5	5.3
2025-01-11 06:33:16.102264	69.9	22.0	-92.2	4.9
2025-01-11 06:33:17.270822	70.2	22.0	-92.4	4.2
2025-01-11 06:33:18.437063	70.5	22.0	-92.4	6.1
2025-01-11 06:33:19.595840	70.7	22.1	-92.4	8.2
2025-01-11 06:33:20.763549	71.1	22.1	-92.6	6.9
2025-01-11 06:33:21.927097	71.4	22.1	-92.6	10.0
2025-01-11 06:33:23.096925	71.7	22.2	-92.3	10.0
2025-01-11 06:33:24.253616	72.0	22.2	-92.0	12.8
2025-01-11 06:33:25.419887	72.3	22.2	-92.1	13.2
2025-01-11 06:33:26.589884	72.6	22.2	-92.0	12.7
2025-01-11 06:33:27.747787	72.9	22.3	-92.5	14.5
2025-01-11 06:33:28.914232	73.2	22.3	-92.7	12.3
2025-01-11 06:33:30.077991	73.5	22.3	-92.4	10.6
2025-01-11 06:33:31.247191	73.8	22.3	-92.1	10.4
2025-01-11 06:33:32.412661	74.1	22.4	-92.2	8.8
2025-01-11 06:33:33.578340	74.4	22.4	-91.7	7.3
2025-01-11 06:33:34.739716	74.7	22.4	-92.7	5.0
2025-01-11 06:33:35.903372	75.0	22.4	-92.6	5.0
2025-01-11 06:33:37.069315	75.3	22.5	-92.7	4.8
2025-01-11 06:33:38.232864	75.6	22.5	-92.3	3.8
2025-01-11 06:33:39.397136	75.9	22.5	-92.2	6.3
2025-01-11 06:33:40.556638	76.2	22.5	-92.4	5.7
2025-01-11 06:33:41.721464	76.5	22.5	-92.3	5.1
2025-01-11 06:33:42.888395	76.8	22.6	-92.3	7.7
2025-01-11 06:33:44.052023	77.2	22.6	-92.1	8.9
2025-01-11 06:33:45.213277	77.5	22.6	-92.3	8.2
2025-01-11 06:33:46.376683	77.8	22.6	-92.4	8.4
2025-01-11 06:33:47.539502	78.1	22.6	-92.6	9.3
2025-01-11 06:33:48.697967	78.4	22.6	-92.3	10.1
2025-01-11 06:33:49.862389	78.7	22.7	-92.1	9.7
2025-01-11 06:33:51.023425	79.0	22.7	-92.0	10.9
2025-01-11 06:33:52.187215	79.3	22.7	-91.9	9.2
2025-01-11 06:33:53.350787	79.6	22.7	-92.1	8.1
2025-01-11 06:33:54.514725	80.0	22.7	-92.1	7.0
2025-01-11 06:33:55.678642	80.3	22.7	-92.1	6.3
2025-01-11 06:33:56.844415	80.6	22.7	-91.7	2.8
2025-01-11 06:33:58.012655	80.9	22.7	-92.0	4.3
2025-01-11 06:33:59.175410	81.2	22.7	-91.8	4.2
2025-01-11 06:34:00.332549	81.5	22.7	-91.6	3.0
2025-01-11 06:34:01.493098	81.8	22.7	-91.7	3.7
2025-01-11 06:34:02.661350	82.1	22.7	-91.5	1.7
2025-01-11 06:34:03.823964	82.5	22.7	-91.1	2.0
2025-01-11 06:34:04.977601	82.8	22.7	-91.4	0.4
2025-01-11 06:34:06.139442	83.1	22.7	-91.4	1.6
2025-01-11 06:34:07.304633	83.4	22.7	-90.5	0.3
2025-01-11 06:34:08.474025	83.7	22.7	-91.9	2.6
2025-01-11 06:34:09.638488	84.0	22.7	-92.7	3.7
2025-01-11 06:34:10.799508	84.3	22.7	-92.4	2.4
2025-01-11 06:34:11.972632	84.6	22.7	-92.8	3.3
2025-01-11 06:34:13.134885	85.0	22.7	-92.3	3.8
2025-01-11 06:34:14.293299	85.3	22.7	-92.5	3.4
2025-01-11 06:34:15.454986	85.6	22.7	-92.6	4.0
2025-01-11 06:34:16.620527	85.9	22.7	-92.4	4.6
2025-01-11 06:34:17.781102	86.2	22.7	-92.3	3.2
2025-01-11 06:34:18.944508	86.5	22.7	-92.7	4.8
2025-01-11 06:34:20.107684	86.8	22.7	-92.0	5.7
2025-01-11 06:34:21.271155	87.1	22.7	-92.4	5.1
2025-01-11 06:34:22.434156	87.4	22.7	-92.6	8.3
2025-01-11 06:34:23.598231	87.8	22.7	-92.5	8.1
2025-01-11 06:34:24.756225	88.1	22.6	-92.4	6.6
2025-01-11 06:34:25.914904	88.4	22.6	-92.7	7.0
2025-01-11 06:34:27.080126	88.7	22.6	-92.2	3.8
2025-01-11 06:34:28.242130	89.0	22.6	-90.5	4.0
2025-01-11 06:34:29.405030	89.3	22.6	-91.6	4.4
2025-01-11 06:34:30.571242	89.6	22.6	-91.5	6.2
2025-01-11 06:34:31.737051	89.9	22.5	-91.4	6.4
2025-01-11 06:34:32.897586	90.2	22.5	-92.0	6.3
2025-01-11 06:34:34.055747	90.5	22.5	-91.4	3.0
2025-01-11 06:34:35.214816	90.8	22.5	-91.4	6.2
2025-01-11 06:34:36.376120	91.2	22.5	-91.6	3.7
2025-01-11 06:34:37.543443	91.5	22.4	-91.9	4.5
2025-01-11 06:34:38.709415	91.8	22.4	-90.6	3.4
2025-01-11 06:34:39.874432	92.1	22.4	-91.7	6.1
2025-01-11 06:34:41.025250	92.4	22.4	-91.6	4.3
2025-01-11 06:34:42.178669	92.7	22.3	-90.9	3.5
2025-01-11 06:34:43.341922	93.0	22.3	-91.5	4.6
2025-01-11 06:34:44.498659	93.3	22.3	-90.8	3.9
2025-01-11 06:34:45.663346	93.6	22.3	-91.7	4.5
2025-01-11 06:34:46.831201	93.9	22.2	-92.1	6.8
2025-01-11 06:34:47.995924	94.2	22.2	-92.5	7.5
2025-01-11 06:34:49.160372	94.5	22.2	-92.3	6.9
2025-01-11 06:34:50.330786	94.8	22.1	-92.5	6.3
2025-01-11 06:34:51.490420	95.1	22.1	-92.5	4.6
2025-01-11 06:34:52.656722	95.4	22.1	-92.4	7.9
2025-01-11 06:34:53.822071	95.7	22.1	-92.1	10.5
2025-01-11 06:34:54.987628	96.0	22.0	-92.2	8.1
2025-01-11 06:34:56.156947	96.3	22.0	-91.7	9.5
2025-01-11 06:34:57.322203	96.6	21.9	-92.2	11.1
2025-01-11 06:34:58.488159	96.9	21.9	-92.6	6.6
2025-01-11 06:34:59.653103	97.2	21.9	-92.4	7.6
2025-01-11 06:35:00.803885	97.5	21.8	-92.4	9.8
2025-01-11 06:35:01.967906	97.8	21.8	-90.6	7.4
2025-01-11 06:35:03.137219	98.1	21.8	-91.6	9.9
2025-01-11 06:35:04.299344	98.4	21.7	-91.7	11.7
2025-01-11 06:35:05.458974	98.7	21.7	-92.3	7.9
2025-01-11 06:35:06.626961	99.0	21.6	-92.0	8.4
2025-01-11 06:35:07.791566	99.3	21.6	-92.5	12.5
2025-01-11 06:35:08.960245	99.5	21.6	-92.5	11.0
2025-01-11 06:35:10.124717	99.8	21.5	-92.2	9.3
2025-01-11 06:35:11.282743	100.1	21.5	-92.5	13.8
2025-01-11 06:35:12.448664	100.4	21.4	-91.4	10.8
2025-01-11 06:35:13.613868	100.7	21.4	-92.1	11.3
2025-01-11 06:35:14.775332	101.0	21.3	-91.0	13.4
2025-01-11 06:35:15.935881	101.3	21.3	-91.2	12.1
2025-01-11 06:35:17.102896	101.6	21.2	-91.6	11.7
2025-01-11 06:35:18.266114	101.8	21.2	-90.8	12.5
2025-01-11 06:35:19.430855	102.1	21.1	-90.6	12.2
2025-01-11 06:35:20.594203	102.4	21.1	-90.2	12.5
2025-01-11 06:35:21.759297	102.7	21.0	-92.1	16.1
2025-01-11 06:35:22.923909	103.0	21.0	-91.4	13.1
2025-01-11 06:35:24.098619	103.2	20.9	-91.6	13.5
2025-01-11 06:35:25.262721	103.5	20.9	-91.4	13.1
2025-01-11 06:35:26.426834	103.8	20.8	-91.3	10.9
2025-01-11 06:35:27.586153	104.1	20.8	-91.4	13.6
2025-01-11 06:35:28.751015	104.4	20.7	-90.4	13.0
2025-01-11 06:35:29.916059	104.6	20.7	-90.8	12.7
2025-01-11 06:35:31.080598	104.9	20.6	-91.2	14.3
2025-01-11 06:35:32.258061	105.2	20.6	-91.5	13.7
2025-01-11 06:35:33.418820	105.5	20.5	-91.9	11.4
2025-01-11 06:35:34.587100	105.7	20.5	-91.7	11.8
2025-01-11 06:35:35.746321	106.0	20.4	-91.0	10.6
2025-01-11 06:35:36.908274	106.3	20.4	-90.8	10.7
2025-01-11 06:35:38.074658	106.5	20.3	-91.2	12.0
2025-01-11 06:35:39.253049	106.8	20.2	-91.4	11.4
2025-01-11 06:35:40.412610	107.1	20.2	-90.4	9.9
2025-01-11 06:35:41.578717	107.3	20.1	-91.8	11.2
2025-01-11 06:35:42.743814	107.6	20.1	-91.1	9.3
2025-01-11 06:35:43.918101	107.9	20.0	-91.8	11.7
2025-01-11 06:35:45.082437	108.1	19.9	-92.1	13.2
2025-01-11 06:35:46.255140	108.4	19.9	-91.4	9.9
2025-01-11 06:35:47.416282	108.7	19.8	-91.2	8.6
2025-01-11 06:35:48.580673	108.9	19.8	-91.2	8.8
2025-01-11 06:35:49.750189	109.2	19.7	-91.4	6.2
2025-01-11 06:35:50.919446	109.4	19.6	-91.3	4.5
2025-01-11 06:35:52.083066	109.7	19.6	-91.3	7.7
2025-01-11 06:35:53.245043	110.0	19.5	-91.8	9.9
2025-01-11 06:35:54.415513	110.2	19.4	-91.6	8.9
2025-01-11 06:35:55.569171	110.5	19.4	-91.3	6.2
2025-01-11 06:35:56.732626	110.7	19.3	-91.5	9.4
2025-01-11 06:35:57.897344	111.0	19.3	-91.3	8.9
2025-01-11 06:35:59.061601	111.2	19.2	-91.4	5.4
2025-01-11 06:36:00.222982	111.5	19.1	-91.4	8.5
2025-01-11 06:36:01.378502	111.7	19.1	-91.0	6.2
2025-01-11 06:36:02.540682	112.0	19.0	-92.5	6.4
2025-01-11 06:36:03.710045	112.2	18.9	-91.2	6.7
2025-01-11 06:36:04.864951	112.4	18.9	-91.0	6.9
2025-01-11 06:36:06.026418	112.7	18.8	-91.4	4.5
2025-01-11 06:36:07.189728	112.9	18.7	-90.9	8.6
2025-01-11 06:36:08.355945	113.2	18.7	-90.0	5.7
2025-01-11 06:36:09.518112	113.4	18.6	-91.2	2.5
2025-01-11 06:36:10.683480	113.7	18.5	-91.1	7.3
2025-01-11 06:36:11.844228	113.9	18.5	-91.0	8.8
2025-01-11 06:36:13.005158	114.1	18.4	-90.5	4.6
2025-01-11 06:36:14.169240	114.4	18.3	-90.8	9.3
2025-01-11 06:36:15.338386	114.6	18.3	-91.0	9.9
2025-01-11 06:36:16.497251	114.8	18.2	-90.7	7.7
2025-01-11 06:36:17.663327	115.1	18.1	-91.1	9.3
2025-01-11 06:36:18.829044	115.3	18.0	-91.7	11.4
2025-01-11 06:36:19.993154	115.5	18.0	-91.2	7.5
2025-01-11 06:36:21.161706	115.8	17.9	-90.8	10.7
2025-01-11 06:36:22.323204	116.0	17.8	-90.9	12.6
2025-01-11 06:36:23.492380	116.2	17.8	-90.5	11.0
2025-01-11 06:36:24.654971	116.5	17.7	-90.8	11.7
2025-01-11 06:36:25.810490	116.7	17.6	-89.0	11.4
2025-01-11 06:36:26.978186	116.9	17.5	-91.2	11.0
2025-01-11 06:36:28.139324	117.1	17.5	-90.1	11.4
2025-01-11 06:36:29.308907	117.4	17.4	-91.1	12.5
2025-01-11 06:36:30.472661	117.6	17.3	-88.7	7.4
2025-01-11 06:36:31.636450	117.8	17.3	-91.2	9.9
2025-01-11 06:36:32.798127	118.0	17.2	-89.8	8.3
2025-01-11 06:36:33.957666	118.2	17.1	-89.2	7.0
2025-01-11 06:36:35.116945	118.5	17.0	-90.0	8.5
2025-01-11 06:36:36.279771	118.7	17.0	-89.9	6.9
2025-01-11 06:36:37.443221	118.9	16.9	-90.3	4.8
2025-01-11 06:36:38.606780	119.1	16.8	-89.4	5.9
2025-01-11 06:36:39.766239	119.3	16.7	-90.2	7.4
2025-01-11 06:36:40.926437	119.5	16.7	-89.0	5.6
2025-01-11 06:36:42.091102	119.8	16.6	-89.4	4.6
2025-01-11 06:36:43.252737	120.0	16.5	-89.1	7.7
2025-01-11 06:36:44.420334	120.2	16.5	-91.0	4.6
2025-01-11 06:36:45.579524	120.4	16.4	-90.1	5.9
2025-01-11 06:36:46.742031	120.6	16.3	-92.5	9.2
2025-01-11 06:36:47.879087	120.8	16.2	-90.8	7.1
2025-01-11 06:36:48.999492	121.0	16.2	-90.8	5.3
2025-01-11 06:36:50.146898	121.2	16.1	-89.5	6.7
2025-01-11 06:36:51.303526	121.4	16.0	-86.3	4.0
2025-01-11 06:36:52.471517	121.6	15.9	-89.4	3.8
2025-01-11 06:36:53.623754	121.8	15.9	-89.9	4.1
2025-01-11 06:36:54.767423	122.0	15.8	-90.0	5.9
2025-01-11 06:36:55.919431	122.2	15.7	-91.4	3.6
2025-01-11 06:36:57.086848	122.4	15.6	-90.9	5.3
2025-01-11 06:36:58.251863	122.6	15.6	-89.1	6.3
2025-01-11 06:36:59.425716	122.8	15.5	-89.8	5.6
2025-01-11 06:37:00.571036	123.0	15.4	-89.3	7.3
2025-01-11 06:37:01.733934	123.2	15.3	-91.8	7.1
2025-01-11 06:37:02.901798	123.4	15.3	-88.0	6.1
2025-01-11 06:37:04.063768	123.6	15.2	-92.4	7.6
2025-01-11 06:37:05.221359	123.8	15.1	-91.7	8.1
2025-01-11 06:37:06.386706	124.0	15.0	-89.3	6.0
2025-01-11 06:37:07.554808	124.2	14.9	-87.7	6.4
2025-01-11 06:37:08.717621	124.3	14.9	-91.1	6.0
2025-01-11 06:37:09.885956	124.5	14.8	-90.4	5.9
2025-01-11 06:37:11.048858	124.7	14.7	-90.8	3.9
2025-01-11 06:37:12.216367	124.9	14.6	-91.8	4.2
#Closed at: 2025-01-11 06:31:11.290346