passes_logs/2026/01/13/R4.6S_Anadyr/R4.6S_Anadyr__20260113_190610_AQUA_rec.log

#Pass ID: 20260113_190610_AQUA
#Satellite: AQUA
#Configuration: AQUA
#almurnet v.1.7.20251203
#Start time: 2026-01-13 19:06:12

#Version: 2.2.20231116
#Station: R4.6S_Anadyr
#Location: 177.4865 lon 64.73178 lat
#TLE: 1 27424U 02022A   26012.29577270  .00001027  00000+0  21555-3 0  9995
#TLE: 2 27424  98.4078 338.6778 0002034  81.5885  29.6294 14.61817302260499

#Time	Az	El	Level	Level2	SNR	BER	BlckErr	Temp	State	Recorded	gain1	gain2
2026-01-13 19:06:12.31	27.99	0.07	-48.3	-63.2	3.5	1.51e+00	0	24	0	0	60	52307
2026-01-13 19:06:15.33	27.77	0.23	-48.7	-66.7	3.5	3.02e+01	0	26	104	0	60	83058
2026-01-13 19:06:18.36	27.55	0.39	-48.8	-66.7	3.5	3.02e+01	0	26	104	0	60	82909
2026-01-13 19:06:21.39	27.33	0.56	-48.4	-66.6	3.5	3.02e+01	0	26	104	0	60	81823
2026-01-13 19:06:24.42	27.10	0.72	-48.1	-66.2	3.5	3.02e+01	0	26	104	0	60	79009
2026-01-13 19:06:27.45	26.87	0.88	-47.6	-65.6	3.5	3.02e+01	0	26	104	0	60	73551
2026-01-13 19:06:30.48	26.63	1.05	-47.0	-64.9	3.5	3.02e+01	0	26	104	0	60	67433
2026-01-13 19:06:33.50	26.40	1.21	-47.0	-64.9	3.5	3.02e+01	0	26	104	0	60	67852
2026-01-13 19:06:36.53	26.16	1.37	-47.0	-64.9	3.5	3.02e+01	0	26	104	0	60	67484
2026-01-13 19:06:39.56	25.91	1.54	-46.9	-64.9	3.5	3.02e+01	0	26	104	0	60	67435
2026-01-13 19:06:42.59	25.67	1.71	-46.9	-64.8	3.5	3.02e+01	0	26	104	0	60	67165
2026-01-13 19:06:45.62	25.42	1.87	-46.9	-64.8	3.5	3.02e+01	0	26	104	0	60	67068
2026-01-13 19:06:48.65	25.16	2.04	-46.9	-64.8	3.5	3.02e+01	0	26	104	0	60	67128
2026-01-13 19:06:51.68	24.91	2.21	-46.9	-64.7	3.5	3.02e+01	0	26	104	0	60	66187
2026-01-13 19:06:54.72	24.65	2.38	-46.9	-64.5	3.5	3.02e+01	0	26	104	0	60	64559
2026-01-13 19:06:57.75	24.38	2.55	-46.9	-64.9	3.5	3.02e+01	0	26	104	0	60	67445
2026-01-13 19:07:00.77	24.12	2.72	-46.9	-64.8	3.5	3.02e+01	0	26	104	0	60	66498
2026-01-13 19:07:03.80	23.85	2.89	-46.7	-63.9	3.5	3.02e+01	0	26	104	0	60	60531
2026-01-13 19:07:06.83	23.57	3.06	-46.8	-64.2	3.5	3.02e+01	0	26	104	0	60	62101
2026-01-13 19:07:09.86	23.30	3.23	-44.3	-56.9	3.6	3.02e+01	0	26	104	0	60	26994
2026-01-13 19:07:12.88	23.02	3.40	-46.8	-64.5	3.5	3.02e+01	0	26	104	0	60	64518
2026-01-13 19:07:15.91	22.73	3.57	-39.6	-50.4	3.5	3.02e+01	0	26	104	0	54	17967
2026-01-13 19:07:18.94	22.44	3.75	-38.4	-48.9	3.5	3.02e+01	0	26	104	0	52	17081
2026-01-13 19:07:21.96	22.15	3.92	-47.0	-64.8	3.5	3.02e+01	0	26	104	0	60	66525
2026-01-13 19:07:24.99	21.86	4.09	-40.0	-50.9	3.6	3.02e+01	0	26	104	0	56	16942
2026-01-13 19:07:28.02	21.56	4.27	-38.8	-49.4	3.5	3.02e+01	0	26	104	0	52	17925
2026-01-13 19:07:31.04	21.25	4.44	-47.0	-64.8	3.5	3.02e+01	0	26	104	0	60	66859
2026-01-13 19:07:34.07	20.94	4.62	-38.6	-49.3	3.5	3.02e+01	0	26	104	0	52	17799
2026-01-13 19:07:37.09	20.63	4.79	-39.0	-49.6	3.5	3.02e+01	0	26	104	0	52	18320
2026-01-13 19:07:40.12	20.31	4.97	-47.2	-65.0	3.5	3.02e+01	0	26	104	0	60	68665
2026-01-13 19:07:43.15	19.99	5.15	-39.1	-49.8	3.6	3.02e+01	0	26	104	0	54	16860
2026-01-13 19:07:46.18	19.67	5.33	-38.1	-48.6	3.5	3.02e+01	0	26	104	0	52	16356
2026-01-13 19:07:49.20	19.34	5.50	-47.2	-64.5	3.5	3.02e+01	0	26	104	0	60	64545
2026-01-13 19:07:52.23	19.00	5.68	-38.5	-49.1	3.5	3.02e+01	0	26	104	0	52	17338
2026-01-13 19:07:55.25	18.66	5.86	-37.4	-47.8	3.5	3.02e+01	0	27	104	0	50	16852
2026-01-13 19:07:58.28	18.32	6.04	-47.4	-64.8	3.5	3.02e+01	0	27	104	0	60	67196
2026-01-13 19:08:01.31	17.97	6.22	-44.4	-56.7	3.5	3.02e+01	0	26	104	0	60	26448
2026-01-13 19:08:04.33	17.62	6.40	-43.1	-54.7	3.5	3.02e+01	0	27	104	0	60	20965
2026-01-13 19:08:07.36	17.26	6.58	-40.7	-51.7	3.5	3.02e+01	0	26	104	0	58	16541
2026-01-13 19:08:10.39	16.89	6.77	-37.3	-47.7	3.5	3.02e+01	0	26	104	0	50	16656
2026-01-13 19:08:13.42	16.52	6.95	-36.7	-47.2	3.5	3.02e+01	0	26	104	0	48	17539
2026-01-13 19:08:16.44	16.15	7.13	-45.6	-59.0	3.6	3.02e+01	0	27	104	0	60	34179
2026-01-13 19:08:19.47	15.77	7.31	-40.8	-51.7	3.5	3.02e+01	0	27	104	0	58	16669
2026-01-13 19:08:22.50	15.38	7.50	-41.0	-52.0	3.5	3.02e+01	0	27	104	0	52	24285
2026-01-13 19:08:25.53	14.99	7.68	-47.4	-64.4	3.5	3.02e+01	0	27	104	0	60	63994
2026-01-13 19:08:28.56	14.60	7.86	-40.9	-51.7	3.5	3.02e+01	0	26	104	0	56	18675
2026-01-13 19:08:31.58	14.20	8.05	-40.5	-51.4	3.5	3.02e+01	0	27	104	0	56	17920
2026-01-13 19:08:34.61	13.79	8.23	-42.2	-53.6	3.5	3.02e+01	0	27	104	0	60	18407
2026-01-13 19:08:37.64	13.38	8.42	-38.1	-48.6	3.5	3.02e+01	0	27	104	0	52	16511
2026-01-13 19:08:40.67	12.96	8.60	-45.9	-59.3	3.5	3.02e+01	0	27	104	0	60	35592
2026-01-13 19:08:43.70	12.53	8.78	-47.6	-64.7	3.5	3.02e+01	0	27	104	0	60	66280
2026-01-13 19:08:46.72	12.10	8.97	-37.3	-47.7	3.5	3.02e+01	0	27	104	0	50	16620
2026-01-13 19:08:49.75	11.66	9.15	-36.0	-46.3	3.5	3.02e+01	0	27	104	0	46	17822
2026-01-13 19:08:52.77	11.22	9.34	-40.4	-51.3	3.5	3.02e+01	0	27	104	0	56	17881
2026-01-13 19:08:55.80	10.77	9.52	-41.0	-51.9	3.5	3.02e+01	0	27	104	0	58	17090
2026-01-13 19:08:58.82	10.32	9.70	-47.1	-62.4	3.5	3.02e+01	0	27	104	0	60	50489
2026-01-13 19:09:01.85	9.86	9.89	-47.7	-64.8	3.5	3.02e+01	0	27	104	0	60	67157
2026-01-13 19:09:04.88	9.39	10.07	-35.9	-46.1	3.5	3.02e+01	0	27	104	0	48	15573
2026-01-13 19:09:07.91	8.91	10.26	-35.8	-46.1	3.6	3.02e+01	0	27	104	0	46	17342
2026-01-13 19:09:10.94	8.43	10.44	-39.4	-50.1	3.5	3.02e+01	0	27	104	0	52	19414
2026-01-13 19:09:13.96	7.94	10.62	-40.8	-51.6	3.5	3.02e+01	0	27	104	0	56	18363
2026-01-13 19:09:16.99	7.45	10.81	-47.5	-63.8	3.5	3.02e+01	0	27	104	0	60	59742
2026-01-13 19:09:20.01	6.95	10.99	-48.0	-65.8	3.5	3.02e+01	0	27	104	0	60	74723
2026-01-13 19:09:23.04	6.44	11.17	-40.8	-51.6	3.5	3.02e+01	0	27	104	0	56	18326
2026-01-13 19:09:26.07	5.92	11.35	-35.5	-45.8	3.5	3.02e+01	0	27	104	0	46	16746
2026-01-13 19:09:29.10	5.40	11.53	-38.2	-48.7	3.5	3.02e+01	0	27	104	0	52	16597
2026-01-13 19:09:32.13	4.87	11.71	-37.2	-47.6	3.5	3.02e+01	0	27	104	0	50	16405
2026-01-13 19:09:35.16	4.33	11.89	-47.8	-64.4	3.5	3.02e+01	0	27	104	0	60	63657
2026-01-13 19:09:38.18	3.79	12.07	-46.7	-61.1	3.5	3.02e+01	0	27	104	0	60	43494
2026-01-13 19:09:41.20	3.24	12.24	-37.7	-48.1	3.5	3.02e+01	0	27	104	0	50	17467
2026-01-13 19:09:44.23	2.68	12.42	-37.1	-47.5	3.5	3.02e+01	0	27	104	0	48	18187
2026-01-13 19:09:47.26	2.11	12.59	-38.4	-49.0	3.3	3.02e+01	0	27	104	0	54	15241
2026-01-13 19:09:50.29	1.54	12.77	-38.7	-49.2	3.5	3.02e+01	0	27	104	0	52	17622
2026-01-13 19:09:53.31	0.96	12.94	-47.3	-62.5	3.6	3.02e+01	0	27	104	0	60	51169
2026-01-13 19:09:56.34	0.37	13.11	-42.6	-53.9	3.5	3.02e+01	0	27	104	0	60	18987
2026-01-13 19:09:59.36	359.78	13.28	-37.2	-47.6	3.5	3.02e+01	0	27	104	0	50	16365
2026-01-13 19:10:02.39	359.17	13.44	-36.6	-46.9	3.5	3.02e+01	0	27	104	0	46	19135
2026-01-13 19:10:05.42	358.56	13.61	-35.6	-45.8	3.4	3.02e+01	0	27	104	0	46	16890
2026-01-13 19:10:08.44	357.95	13.77	-37.2	-47.6	3.5	3.02e+01	0	27	104	0	50	16474
2026-01-13 19:10:11.47	357.32	13.93	-41.9	-52.9	3.5	3.02e+01	0	27	104	0	60	16914
2026-01-13 19:10:14.50	356.69	14.09	-40.5	-51.1	3.5	3.02e+01	0	27	104	0	60	13882
2026-01-13 19:10:17.52	356.05	14.25	-39.7	-50.3	3.5	3.02e+01	0	27	104	0	54	17735
2026-01-13 19:10:20.55	355.40	14.40	-38.1	-48.5	3.5	3.02e+01	0	27	104	0	50	18180
2026-01-13 19:10:23.58	354.75	14.56	-45.6	-58.2	3.4	3.02e+01	0	27	104	0	54	44386
2026-01-13 19:10:26.60	354.09	14.71	-37.2	-47.6	3.5	3.02e+01	0	27	104	0	48	18319
2026-01-13 19:10:29.63	353.42	14.85	-40.8	-51.6	3.5	3.02e+01	0	27	104	0	60	14583
2026-01-13 19:10:32.65	352.74	15.00	-36.2	-46.5	3.5	3.02e+01	0	27	104	0	48	16306
2026-01-13 19:10:35.68	352.06	15.14	-36.7	-47.1	3.5	3.02e+01	0	27	104	0	48	17302
2026-01-13 19:10:38.71	351.37	15.28	-36.5	-46.8	3.5	3.02e+01	0	27	104	0	48	16752
2026-01-13 19:10:41.73	350.67	15.41	-41.4	-52.2	3.6	3.02e+01	0	27	104	0	52	24990
2026-01-13 19:10:44.75	349.97	15.54	-39.9	-50.5	3.5	3.02e+01	0	27	104	0	56	16200
2026-01-13 19:10:47.78	349.26	15.67	-43.5	-55.0	3.5	3.02e+01	0	27	104	0	58	24335
2026-01-13 19:10:50.81	348.54	15.80	-48.1	-65.8	3.5	3.02e+01	0	27	104	0	60	74725
2026-01-13 19:10:53.84	347.82	15.92	-35.7	-46.0	3.5	3.02e+01	0	27	104	0	46	17129
2026-01-13 19:10:56.86	347.09	16.04	-39.0	-49.6	3.5	3.02e+01	0	27	104	0	54	16363
2026-01-13 19:10:59.89	346.36	16.15	-39.9	-50.5	3.5	3.02e+01	0	27	104	0	50	23006
2026-01-13 19:11:02.92	345.61	16.26	-37.3	-47.6	3.5	3.02e+01	0	27	104	0	50	16496
2026-01-13 19:11:05.95	344.87	16.37	-45.4	-58.0	3.5	3.02e+01	0	27	104	0	60	30445
2026-01-13 19:11:08.98	344.11	16.47	-47.9	-64.4	3.5	3.02e+01	0	27	104	0	60	63949
2026-01-13 19:11:12.00	343.36	16.56	-39.8	-50.5	3.5	3.02e+01	0	27	104	0	54	18228
2026-01-13 19:11:15.03	342.59	16.66	-44.3	-56.2	3.5	3.02e+01	0	27	104	0	60	24966
2026-01-13 19:11:18.06	341.82	16.74	-48.1	-65.5	3.5	3.02e+01	0	27	104	0	60	72616
2026-01-13 19:11:21.09	341.05	16.83	-35.7	-37.3	24.3	3.02e+01	0	27	104	0	46	6284
2026-01-13 19:11:24.11	340.27	16.90	-35.1	-36.3	28.8	3.02e+01	0	27	0	5242880	46	5633
2026-01-13 19:11:27.14	339.49	16.98	-35.0	-36.3	28.9	3.02e+01	0	27	0	11010048	46	5612
2026-01-13 19:11:30.16	338.71	17.05	-35.2	-36.4	28.7	3.02e+01	0	27	0	16777216	46	5691
2026-01-13 19:11:33.19	337.92	17.11	-35.2	-36.5	28.7	3.02e+01	0	27	0	22544384	46	5741
2026-01-13 19:11:36.22	337.12	17.17	-35.2	-36.4	28.8	3.02e+01	0	27	0	27787264	46	5697
2026-01-13 19:11:39.25	336.33	17.22	-35.2	-36.4	28.8	3.02e+01	0	27	0	33554432	46	5700
2026-01-13 19:11:42.28	335.53	17.27	-35.1	-36.3	28.8	3.02e+01	0	27	0	39321600	46	5653
2026-01-13 19:11:45.31	334.73	17.31	-35.3	-36.5	28.7	3.02e+01	0	27	0	45088768	46	5785
2026-01-13 19:11:48.34	333.92	17.35	-35.2	-36.4	28.8	3.02e+01	0	26	0	50855936	46	5703
2026-01-13 19:11:51.36	333.12	17.38	-35.0	-36.3	28.9	3.02e+01	0	27	0	56098816	46	5602
2026-01-13 19:11:54.39	332.31	17.40	-35.3	-36.5	28.7	3.02e+01	0	27	0	61865984	46	5771
2026-01-13 19:11:57.42	331.50	17.42	-35.4	-36.6	28.6	3.02e+01	0	27	0	67633152	46	5835
2026-01-13 19:12:00.45	330.69	17.44	-35.5	-36.8	28.4	3.02e+01	0	27	0	73400320	46	5953
2026-01-13 19:12:03.47	329.88	17.45	-35.2	-36.4	28.8	3.02e+01	0	27	0	79167488	46	5685
2026-01-13 19:12:06.50	329.07	17.45	-35.3	-36.6	28.7	3.02e+01	0	27	0	84934656	46	5796
2026-01-13 19:12:09.53	328.26	17.45	-35.1	-36.3	28.9	3.02e+01	0	26	0	90701824	46	5635
2026-01-13 19:12:12.55	327.45	17.44	-35.3	-36.5	28.7	3.02e+01	0	26	0	95944704	46	5783
2026-01-13 19:12:15.58	326.64	17.43	-35.3	-36.5	28.7	3.02e+01	0	27	0	101711872	46	5770
2026-01-13 19:12:18.61	325.83	17.41	-35.3	-36.6	28.7	3.02e+01	0	27	0	107479040	44	6508
2026-01-13 19:12:21.64	325.02	17.38	-35.2	-36.4	28.7	3.02e+01	0	27	0	113246208	44	6420
2026-01-13 19:12:24.67	324.21	17.35	-34.9	-36.1	29.0	3.02e+01	0	27	0	119013376	44	6190
2026-01-13 19:12:27.70	323.41	17.32	-35.3	-36.5	28.8	3.02e+01	0	27	0	124256256	44	6446
2026-01-13 19:12:30.73	322.61	17.28	-35.2	-36.5	28.6	3.02e+01	0	27	0	130023424	44	6442
2026-01-13 19:12:33.75	321.81	17.23	-35.8	-37.0	28.3	3.02e+01	0	27	0	135790592	44	6877
2026-01-13 19:12:36.78	321.01	17.18	-35.8	-37.1	28.2	3.02e+01	0	27	0	141557760	46	6202
2026-01-13 19:12:39.81	320.21	17.12	-35.4	-36.7	28.5	3.02e+01	0	27	0	147324928	44	6607
2026-01-13 19:12:42.84	319.42	17.06	-35.7	-37.0	28.3	3.02e+01	0	26	0	153092096	44	6858
2026-01-13 19:12:45.86	318.64	16.99	-35.3	-36.5	28.7	3.02e+01	0	27	0	158334976	44	6492
2026-01-13 19:12:48.89	317.85	16.92	-35.0	-36.2	29.0	3.02e+01	0	27	0	164102144	44	6260
2026-01-13 19:12:51.92	317.07	16.84	-35.3	-36.5	28.8	3.02e+01	0	27	0	169869312	44	6450
2026-01-13 19:12:54.95	316.30	16.76	-35.5	-36.7	28.6	3.02e+01	0	27	0	175636480	44	6613
2026-01-13 19:12:57.98	315.53	16.67	-35.3	-36.6	28.6	3.02e+01	0	27	0	181403648	44	6515
2026-01-13 19:13:01.01	314.76	16.58	-35.5	-36.7	28.6	3.02e+01	0	27	0	187170816	46	5924
2026-01-13 19:13:04.04	314.00	16.49	-35.4	-36.7	28.6	3.02e+01	0	27	0	192413696	46	5889
2026-01-13 19:13:07.06	313.25	16.39	-34.9	-36.1	28.9	3.02e+01	0	27	0	198180864	46	5512
2026-01-13 19:13:10.09	312.50	16.28	-35.9	-37.2	28.2	3.02e+01	0	27	0	203948032	46	6230
2026-01-13 19:13:13.11	311.76	16.17	-34.7	-35.9	29.2	3.02e+01	0	27	0	209715200	44	5995
2026-01-13 19:13:16.13	311.02	16.06	-36.4	-37.9	27.3	3.02e+01	0	27	0	215482368	46	6727
2026-01-13 19:13:19.17	310.28	15.94	-35.8	-37.1	28.2	3.02e+01	0	27	0	220725248	46	6165
2026-01-13 19:13:22.20	309.56	15.82	-36.1	-37.5	27.8	3.02e+01	0	27	0	226492416	44	7235
2026-01-13 19:13:25.22	308.84	15.70	-35.5	-36.8	28.5	3.02e+01	0	27	0	232259584	46	5928
2026-01-13 19:13:28.25	308.13	15.57	-34.7	-35.9	29.1	3.02e+01	0	26	0	238026752	44	6001
2026-01-13 19:13:31.28	307.42	15.44	-35.4	-36.7	28.4	3.02e+01	0	27	0	243793920	44	6638
2026-01-13 19:13:34.30	306.72	15.30	-35.8	-37.1	28.2	3.02e+01	0	27	0	249561088	44	6945
2026-01-13 19:13:37.33	306.03	15.17	-35.4	-36.6	28.6	3.02e+01	0	27	0	255328256	44	6537
2026-01-13 19:13:40.36	305.34	15.02	-35.0	-36.3	28.9	3.02e+01	0	27	0	260571136	44	6316
2026-01-13 19:13:43.39	304.66	14.88	-35.4	-36.7	28.5	3.02e+01	0	27	0	266338304	44	6624
2026-01-13 19:13:46.42	303.99	14.73	-35.8	-37.1	28.4	3.02e+01	0	27	0	272105472	46	6182
2026-01-13 19:13:49.44	303.33	14.58	-35.5	-36.7	28.5	3.02e+01	0	27	0	277872640	46	5925
2026-01-13 19:13:52.47	302.67	14.43	-34.7	-35.9	29.1	3.02e+01	0	27	0	283639808	44	6039
2026-01-13 19:13:55.50	302.02	14.28	-35.9	-37.3	28.1	3.02e+01	0	27	0	288882688	44	7047
2026-01-13 19:13:58.53	301.37	14.12	-35.2	-36.5	28.7	3.02e+01	0	27	0	294649856	44	6454
2026-01-13 19:14:01.56	300.74	13.96	-35.0	-36.2	28.9	3.02e+01	0	27	0	300417024	44	6219
2026-01-13 19:14:04.59	300.11	13.80	-35.3	-36.5	28.5	3.02e+01	0	27	0	306184192	46	5747
2026-01-13 19:14:07.62	299.49	13.64	-35.6	-36.9	28.3	3.02e+01	0	27	0	311951360	44	6763
2026-01-13 19:14:10.65	298.87	13.47	-36.7	-38.1	27.2	3.02e+01	0	27	0	317718528	46	6896
2026-01-13 19:14:13.68	298.27	13.30	-35.8	-37.0	28.2	3.02e+01	0	27	0	323485696	46	6134
2026-01-13 19:14:16.71	297.67	13.13	-35.5	-36.8	28.5	3.02e+01	0	27	0	328728576	46	5934
2026-01-13 19:14:19.73	297.08	12.96	-35.6	-36.9	28.2	3.02e+01	0	27	0	334495744	46	6026
2026-01-13 19:14:22.76	296.49	12.79	-36.4	-37.7	27.5	3.02e+01	0	26	0	340262912	46	6603
2026-01-13 19:14:25.79	295.92	12.62	-35.5	-36.8	28.5	3.02e+01	0	27	0	346030080	46	5940
2026-01-13 19:14:28.81	295.35	12.45	-35.5	-36.7	28.4	3.02e+01	0	27	0	351797248	46	5922
2026-01-13 19:14:31.84	294.79	12.27	-35.9	-37.2	28.1	3.02e+01	0	27	0	357040128	46	6206
2026-01-13 19:14:34.87	294.23	12.09	-35.6	-36.9	28.3	3.02e+01	0	27	0	362807296	46	6022
2026-01-13 19:14:37.90	293.68	11.91	-35.7	-37.0	28.2	3.02e+01	0	27	0	368574464	46	6098
2026-01-13 19:14:40.92	293.15	11.74	-35.8	-37.0	28.2	3.02e+01	0	27	0	374341632	46	6124
2026-01-13 19:14:43.95	292.61	11.56	-35.9	-37.2	28.1	3.02e+01	0	27	0	380108800	46	6247
2026-01-13 19:14:46.98	292.09	11.38	-35.7	-36.9	28.2	3.02e+01	0	27	0	385875968	46	6061
2026-01-13 19:14:50.00	291.57	11.20	-35.8	-37.1	28.1	3.02e+01	0	27	0	391118848	46	6144
2026-01-13 19:14:53.03	291.06	11.01	-35.9	-37.2	28.1	3.02e+01	0	27	0	396886016	46	6212
2026-01-13 19:14:56.06	290.55	10.83	-36.0	-37.3	27.9	3.02e+01	0	27	0	402653184	46	6323
2026-01-13 19:14:59.08	290.05	10.65	-35.8	-37.0	28.2	3.02e+01	0	27	0	408420352	46	6129
2026-01-13 19:15:02.11	289.56	10.46	-35.8	-37.1	28.1	3.02e+01	0	27	0	414187520	46	6175
2026-01-13 19:15:05.14	289.08	10.28	-36.4	-37.7	27.5	3.02e+01	0	27	0	419954688	46	6630
2026-01-13 19:15:08.17	288.60	10.10	-35.9	-37.1	28.0	3.02e+01	0	27	0	425197568	46	6194
2026-01-13 19:15:11.19	288.13	9.91	-36.3	-37.6	27.6	3.02e+01	0	27	0	430964736	46	6528
2026-01-13 19:15:14.22	287.66	9.73	-35.9	-37.2	28.0	3.02e+01	0	27	0	436731904	46	6234
2026-01-13 19:15:17.25	287.20	9.54	-36.6	-38.0	27.3	3.02e+01	0	27	0	442499072	46	6806
2026-01-13 19:15:20.27	286.75	9.36	-36.3	-37.6	27.6	3.02e+01	0	27	0	448266240	46	6518
2026-01-13 19:15:23.30	286.31	9.17	-36.2	-37.5	27.6	3.02e+01	0	27	0	453509120	46	6456
2026-01-13 19:15:26.33	285.87	8.99	-36.4	-37.7	27.4	3.02e+01	0	27	0	459276288	46	6637
2026-01-13 19:15:29.35	285.43	8.80	-36.3	-37.6	27.5	3.02e+01	0	27	0	465043456	46	6572
2026-01-13 19:15:32.37	285.01	8.62	-36.5	-37.9	27.3	3.02e+01	0	27	0	470810624	46	6743
2026-01-13 19:15:35.40	284.58	8.44	-36.3	-37.6	27.4	3.02e+01	0	27	0	476577792	46	6562
2026-01-13 19:15:38.42	284.17	8.25	-36.4	-37.8	27.3	3.02e+01	0	27	0	481820672	46	6669
2026-01-13 19:15:41.45	283.76	8.07	-36.8	-38.1	27.1	3.02e+01	0	27	0	487587840	46	6942
2026-01-13 19:15:44.47	283.35	7.88	-36.6	-37.9	27.1	3.02e+01	0	27	0	493355008	46	6803
2026-01-13 19:15:47.50	282.96	7.70	-36.7	-38.0	27.0	3.02e+01	0	27	0	499122176	46	6872
2026-01-13 19:15:50.53	282.56	7.52	-37.0	-38.3	26.7	3.02e+01	0	27	0	504889344	48	6345
2026-01-13 19:15:53.55	282.17	7.33	-36.9	-38.3	26.7	3.02e+01	0	27	0	510656512	48	6293
2026-01-13 19:15:56.58	281.79	7.15	-37.0	-38.3	26.8	3.02e+01	0	27	0	516423680	48	6340
2026-01-13 19:15:59.61	281.41	6.97	-36.8	-38.2	26.8	3.02e+01	0	27	0	521666560	48	6239
2026-01-13 19:16:02.63	281.04	6.78	-36.9	-38.3	26.7	3.02e+01	0	27	0	527433728	48	6287
2026-01-13 19:16:05.65	280.68	6.60	-37.1	-38.5	26.5	3.02e+01	0	27	0	533200896	48	6480
2026-01-13 19:16:08.68	280.32	6.42	-37.1	-38.5	26.3	3.02e+01	0	27	0	538968064	48	6494
2026-01-13 19:16:11.71	279.96	6.24	-37.0	-38.3	26.6	3.02e+01	0	27	0	544735232	48	6342
2026-01-13 19:16:14.73	279.61	6.06	-37.1	-38.5	26.4	3.02e+01	0	27	0	549978112	48	6467
2026-01-13 19:16:17.77	279.26	5.88	-37.3	-38.7	26.2	3.02e+01	0	27	0	555745280	48	6649
2026-01-13 19:16:20.79	278.92	5.70	-37.3	-38.7	26.2	3.02e+01	0	27	0	561512448	48	6597
2026-01-13 19:16:23.82	278.58	5.52	-37.4	-38.9	26.1	3.02e+01	0	27	0	567279616	48	6730
2026-01-13 19:16:26.85	278.25	5.34	-37.6	-39.1	25.8	3.02e+01	0	27	0	573046784	50	6162
2026-01-13 19:16:29.87	277.92	5.16	-37.5	-39.0	25.9	3.02e+01	0	27	0	578813952	50	6104
2026-01-13 19:16:32.90	277.59	4.98	-37.5	-39.0	25.8	3.02e+01	0	27	0	584056832	50	6093
2026-01-13 19:16:35.92	277.27	4.81	-37.6	-39.0	25.8	3.02e+01	0	27	0	589824000	50	6117
2026-01-13 19:16:38.95	276.96	4.63	-37.5	-39.0	25.7	3.02e+01	0	26	0	595591168	50	6069
2026-01-13 19:16:41.98	276.65	4.45	-37.7	-39.2	25.6	3.02e+01	0	27	0	601358336	50	6242
2026-01-13 19:16:45.00	276.34	4.28	-38.0	-39.6	25.2	3.02e+01	0	26	0	607125504	50	6516
2026-01-13 19:16:48.03	276.04	4.10	-37.8	-39.3	25.3	3.02e+01	0	27	0	612368384	50	6350
2026-01-13 19:16:51.05	275.74	3.93	-38.1	-39.6	25.0	3.02e+01	0	27	0	618135552	50	6571
2026-01-13 19:16:54.08	275.45	3.76	-37.9	-39.5	25.1	3.02e+01	0	27	0	623902720	50	6430
2026-01-13 19:16:57.11	275.15	3.58	-37.9	-39.4	25.1	3.02e+01	0	27	0	629669888	50	6417
2026-01-13 19:17:00.13	274.87	3.41	-38.1	-39.7	24.8	3.02e+01	0	27	0	635437056	50	6610
2026-01-13 19:17:03.16	274.58	3.24	-38.0	-39.6	24.9	3.02e+01	0	27	0	640679936	50	6549
2026-01-13 19:17:06.19	274.30	3.07	-38.5	-40.1	24.4	3.02e+01	0	27	0	646447104	50	6934
2026-01-13 19:17:09.22	274.03	2.89	-48.3	-66.3	3.5	3.02e+01	0	27	104	649068544	60	79089
2026-01-13 19:17:12.24	273.76	2.72	-48.7	-66.6	3.5	3.02e+01	0	27	104	649068544	60	81990
2026-01-13 19:17:15.27	273.49	2.55	-48.8	-66.6	3.5	3.02e+01	0	27	104	649068544	60	82394
2026-01-13 19:17:18.30	273.22	2.38	-48.5	-66.7	3.5	3.02e+01	0	27	104	649068544	60	82821
2026-01-13 19:17:21.33	272.96	2.22	-48.3	-66.6	3.5	3.02e+01	0	27	104	649068544	60	82128
2026-01-13 19:17:24.36	272.70	2.05	-48.8	-66.9	3.5	3.02e+01	0	27	104	649068544	60	84890
2026-01-13 19:17:27.39	272.45	1.88	-48.7	-66.6	3.5	3.02e+01	0	27	104	649068544	60	82100
2026-01-13 19:17:30.42	272.19	1.71	-48.6	-66.6	3.5	3.02e+01	0	27	104	649068544	60	81892
2026-01-13 19:17:33.45	271.95	1.55	-48.7	-66.6	3.5	3.02e+01	0	27	104	649068544	60	81814
2026-01-13 19:17:36.47	271.70	1.38	-48.7	-66.5	3.5	3.02e+01	0	27	104	649068544	60	81541
2026-01-13 19:17:39.50	271.46	1.22	-48.6	-66.5	3.5	3.02e+01	0	27	104	649068544	60	81660
2026-01-13 19:17:42.53	271.22	1.05	-48.7	-66.6	3.5	3.02e+01	0	27	104	649068544	60	82215
2026-01-13 19:17:45.56	270.98	0.89	-48.6	-66.5	3.5	3.02e+01	0	27	104	649068544	60	81574
2026-01-13 19:17:48.59	270.75	0.72	-48.6	-66.5	3.5	3.02e+01	0	27	104	649068544	60	81617
2026-01-13 19:17:51.62	270.52	0.56	-48.6	-66.6	3.5	3.02e+01	0	27	104	649068544	60	81997
2026-01-13 19:17:54.65	270.29	0.40	-48.7	-66.6	3.5	3.02e+01	0	27	104	649068544	60	82020
2026-01-13 19:17:57.67	270.06	0.24	-48.7	-66.6	3.5	3.02e+01	0	27	104	649068544	60	82675
2026-01-13 19:18:00.70	269.84	0.08	-48.6	-66.5	3.5	3.02e+01	0	27	104	649068544	60	81459
2026-01-13 19:18:03.73	269.62	-0.09	-48.6	-66.6	3.5	3.02e+01	0	27	104	649068544	60	82006

#Closed at: 2026-01-13 19:18:05
#Recorded file [649 MB]: D:/lorett/data/35029_260114_070612.dat