passes_logs/2026/01/13/R4.6S_Anadyr/R4.6S_Anadyr__20260113_013650_SUOMI_NPP_rec.log

#Pass ID: 20260113_013650_SUOMI NPP
#Satellite: SUOMI NPP
#Configuration: NPP
#almurnet v.1.7.20251203
#Start time: 2026-01-13 01:36:53

#Version: 2.2.20231116
#Station: R4.6S_Anadyr
#Location: 177.4865 lon 64.73178 lat
#TLE: 1 37849U 11061A   26012.28456845  .00000093  00000+0  65163-4 0  9999
#TLE: 2 37849  98.7807 314.3566 0002508  68.3553 291.7890 14.19524725736322

#Time	Az	El	Level	Level2	SNR	BER	BlckErr	Temp	State	Recorded	gain1	gain2
2026-01-13 01:36:53.52	190.12	0.19	-48.8	-62.5	3.3	1.54e+00	0	25	0	0	60	48064
2026-01-13 01:36:57.56	190.29	0.43	-48.7	-64.0	3.6	1.51e+00	0	26	104	0	60	57060
2026-01-13 01:37:01.60	190.47	0.66	-48.6	-63.9	3.6	1.51e+00	0	26	104	0	60	56805
2026-01-13 01:37:05.63	190.66	0.89	-47.7	-62.9	3.6	1.51e+00	0	26	104	0	60	50367
2026-01-13 01:37:09.67	190.84	1.13	-47.5	-62.5	3.6	1.51e+00	0	26	104	0	60	48344
2026-01-13 01:37:13.71	191.03	1.37	-47.4	-62.6	3.6	1.51e+00	0	26	104	0	60	48971
2026-01-13 01:37:17.75	191.22	1.60	-47.4	-62.6	3.6	1.51e+00	0	26	104	0	60	48804
2026-01-13 01:37:21.78	191.41	1.84	-47.4	-62.6	3.6	1.51e+00	0	26	104	0	60	48804
2026-01-13 01:37:25.82	191.60	2.09	-47.4	-62.6	3.6	1.51e+00	0	26	104	0	60	48791
2026-01-13 01:37:29.86	191.80	2.33	-47.4	-62.6	3.6	1.51e+00	0	26	104	0	60	48602
2026-01-13 01:37:33.90	192.00	2.58	-47.4	-61.6	3.6	1.51e+00	0	26	104	0	60	43518
2026-01-13 01:37:37.94	192.21	2.83	-47.2	-59.8	3.6	1.51e+00	0	26	104	0	60	35326
2026-01-13 01:37:41.97	192.42	3.08	-45.0	-48.8	12.6	2.70e-04	89	26	0	5242880	60	9906
2026-01-13 01:37:46.02	192.63	3.33	-42.7	-44.9	16.6	0.00e+00	92	26	0	12582912	60	6326
2026-01-13 01:37:50.05	192.84	3.58	-47.2	-61.1	3.6	4.02e-01	0	26	104	19922944	60	40891
2026-01-13 01:37:54.09	193.06	3.84	-44.7	-48.0	13.5	2.76e-02	72	26	0	24117248	60	9089
2026-01-13 01:37:58.13	193.28	4.10	-44.0	-46.9	15.2	7.00e-07	71	26	0	31457280	60	7954
2026-01-13 01:38:02.17	193.51	4.36	-43.6	-46.2	15.5	0.00e+00	92	26	0	38797312	60	7376
2026-01-13 01:38:06.21	193.74	4.62	-42.9	-45.1	16.6	0.00e+00	0	26	0	46137344	60	6490
2026-01-13 01:38:10.24	193.97	4.89	-42.3	-44.3	17.4	0.00e+00	92	26	0	54525952	58	6643
2026-01-13 01:38:14.28	194.21	5.16	-42.1	-44.0	17.8	0.00e+00	92	26	0	61865984	58	6443
2026-01-13 01:38:18.32	194.45	5.43	-42.0	-43.8	18.1	0.00e+00	0	26	0	69206016	58	6251
2026-01-13 01:38:22.35	194.70	5.70	-41.8	-43.5	18.3	0.00e+00	0	27	0	76546048	56	6843
2026-01-13 01:38:26.39	194.95	5.97	-41.2	-42.8	19.0	0.00e+00	76	26	0	84934656	56	6264
2026-01-13 01:38:30.43	195.20	6.25	-41.4	-42.9	18.9	0.00e+00	90	26	0	92274688	56	6377
2026-01-13 01:38:34.47	195.46	6.53	-41.1	-42.6	19.2	0.00e+00	0	26	0	99614720	56	6153
2026-01-13 01:38:38.50	195.73	6.81	-41.0	-42.5	19.4	0.00e+00	92	27	0	106954752	56	6067
2026-01-13 01:38:42.55	196.00	7.10	-40.7	-42.2	19.7	0.00e+00	91	26	0	114294784	54	6547
2026-01-13 01:38:46.59	196.27	7.38	-40.5	-41.8	19.8	0.00e+00	92	27	0	122683392	54	6313
2026-01-13 01:38:50.62	196.55	7.67	-40.6	-41.9	20.1	0.00e+00	0	26	0	130023424	54	6371
2026-01-13 01:38:54.66	196.83	7.97	-40.0	-41.3	20.6	0.00e+00	92	26	0	137363456	54	5925
2026-01-13 01:38:58.70	197.13	8.26	-39.8	-40.9	21.0	0.00e+00	92	27	0	144703488	52	6381
2026-01-13 01:39:02.74	197.42	8.56	-39.5	-40.7	21.1	0.00e+00	0	27	0	153092096	52	6193
2026-01-13 01:39:06.78	197.72	8.86	-39.3	-40.4	21.4	0.00e+00	0	27	0	160432128	52	6003
2026-01-13 01:39:10.82	198.03	9.17	-39.1	-40.2	21.5	0.00e+00	92	26	0	167772160	52	5862
2026-01-13 01:39:14.85	198.34	9.48	-39.3	-40.4	21.4	0.00e+00	90	27	0	175112192	52	5977
2026-01-13 01:39:18.89	198.67	9.79	-39.1	-40.2	21.7	0.00e+00	0	27	0	182452224	52	5846
2026-01-13 01:39:22.93	198.99	10.10	-39.2	-40.3	21.5	0.00e+00	13	27	0	190840832	52	5944
2026-01-13 01:39:26.97	199.33	10.42	-39.1	-40.2	21.7	0.00e+00	61	27	0	198180864	52	5870
2026-01-13 01:39:31.01	199.67	10.74	-38.8	-39.9	21.8	0.00e+00	92	27	0	205520896	52	5652
2026-01-13 01:39:35.05	200.02	11.07	-39.0	-40.1	21.8	0.00e+00	0	27	0	212860928	52	5809
2026-01-13 01:39:39.08	200.37	11.39	-38.7	-39.8	22.1	0.00e+00	90	27	0	220200960	50	6271
2026-01-13 01:39:43.12	200.73	11.72	-38.4	-39.4	22.3	0.00e+00	92	27	0	228589568	50	6017
2026-01-13 01:39:47.15	201.10	12.06	-38.5	-39.5	22.4	0.00e+00	0	27	0	235929600	50	6060
2026-01-13 01:39:51.19	201.48	12.40	-38.3	-39.2	22.5	0.00e+00	0	27	0	243269632	50	5896
2026-01-13 01:39:55.22	201.87	12.74	-38.3	-39.3	22.4	0.00e+00	92	27	0	250609664	50	5928
2026-01-13 01:39:59.26	202.27	13.08	-38.3	-39.3	22.5	0.00e+00	91	27	0	258998272	50	5927
2026-01-13 01:40:03.29	202.67	13.43	-38.1	-39.1	22.7	0.00e+00	0	27	0	266338304	50	5820
2026-01-13 01:40:07.33	203.09	13.78	-38.2	-39.2	22.6	0.00e+00	0	27	0	273678336	50	5849
2026-01-13 01:40:11.37	203.51	14.14	-38.0	-39.0	22.7	0.00e+00	92	27	0	281018368	50	5717
2026-01-13 01:40:15.41	203.95	14.50	-38.1	-39.1	22.6	0.00e+00	92	27	0	288358400	50	5787
2026-01-13 01:40:19.45	204.39	14.87	-38.2	-39.1	22.6	0.00e+00	0	27	0	296747008	50	5808
2026-01-13 01:40:23.49	204.85	15.23	-38.0	-39.0	22.6	0.00e+00	7	27	0	304087040	50	5708
2026-01-13 01:40:27.53	205.31	15.61	-38.1	-39.1	22.6	0.00e+00	85	27	0	311427072	50	5766
2026-01-13 01:40:31.56	205.79	15.98	-38.4	-39.4	22.5	0.00e+00	92	27	0	318767104	50	5983
2026-01-13 01:40:35.60	206.28	16.36	-38.5	-39.5	22.5	0.00e+00	0	27	0	327155712	50	6049
2026-01-13 01:40:39.64	206.78	16.75	-37.9	-38.8	22.9	0.00e+00	92	27	0	334495744	50	5605
2026-01-13 01:40:43.67	207.30	17.13	-38.4	-39.4	22.6	0.00e+00	92	27	0	341835776	50	5984
2026-01-13 01:40:47.71	207.82	17.53	-38.3	-39.2	22.7	0.00e+00	0	27	0	349175808	50	5895
2026-01-13 01:40:51.74	208.36	17.92	-38.4	-39.4	22.6	0.00e+00	0	27	0	356515840	50	5984
2026-01-13 01:40:55.78	208.92	18.32	-38.8	-39.9	22.1	0.00e+00	91	27	0	364904448	50	6335
2026-01-13 01:40:59.82	209.49	18.73	-38.9	-40.0	22.0	0.00e+00	92	27	0	372244480	50	6392
2026-01-13 01:41:03.86	210.07	19.14	-38.7	-39.7	22.3	0.00e+00	0	27	0	379584512	50	6175
2026-01-13 01:41:07.89	210.67	19.55	-38.8	-39.8	22.2	0.00e+00	90	27	0	386924544	50	6293
2026-01-13 01:41:11.93	211.29	19.96	-38.8	-39.8	22.3	0.00e+00	91	27	0	394264576	50	6300
2026-01-13 01:41:15.97	211.92	20.38	-39.1	-40.2	22.0	0.00e+00	92	27	0	402653184	50	6611
2026-01-13 01:41:20.01	212.57	20.81	-38.7	-39.7	22.4	0.00e+00	0	27	0	409993216	50	6212
2026-01-13 01:41:24.04	213.23	21.23	-38.1	-39.0	22.9	0.00e+00	92	27	0	417333248	50	5740
2026-01-13 01:41:28.08	213.92	21.66	-38.0	-39.0	22.8	0.00e+00	92	27	0	424673280	50	5723
2026-01-13 01:41:32.11	214.62	22.09	-38.3	-39.3	22.7	0.00e+00	90	27	0	433061888	50	5930
2026-01-13 01:41:36.15	215.34	22.53	-38.5	-39.5	22.6	0.00e+00	0	27	0	440401920	50	6097
2026-01-13 01:41:40.19	216.09	22.97	-37.8	-38.7	23.2	0.00e+00	92	27	0	447741952	50	5523
2026-01-13 01:41:44.23	216.85	23.41	-38.3	-39.3	22.6	0.00e+00	92	27	0	455081984	48	6642
2026-01-13 01:41:48.26	217.63	23.85	-38.4	-39.4	22.5	0.00e+00	0	27	0	462422016	48	6743
2026-01-13 01:41:52.30	218.44	24.30	-37.3	-38.1	23.6	0.00e+00	0	27	0	470810624	48	5816
2026-01-13 01:41:56.34	219.27	24.75	-37.1	-37.9	23.6	0.00e+00	90	27	0	478150656	48	5673
2026-01-13 01:42:00.38	220.12	25.20	-37.0	-37.8	23.9	0.00e+00	92	27	0	485490688	48	5629
2026-01-13 01:42:04.42	221.00	25.65	-36.9	-37.8	23.9	0.00e+00	0	27	0	492830720	46	6263
2026-01-13 01:42:08.46	221.90	26.10	-36.9	-37.8	23.9	0.00e+00	60	27	0	501219328	46	6282
2026-01-13 01:42:12.50	222.83	26.55	-36.3	-37.1	24.2	0.00e+00	92	27	0	508559360	46	5765
2026-01-13 01:42:16.53	223.78	26.99	-37.0	-37.9	23.7	0.00e+00	92	27	0	515899392	46	6351
2026-01-13 01:42:20.56	224.76	27.44	-37.6	-38.5	23.4	0.00e+00	0	27	0	523239424	48	6061
2026-01-13 01:42:24.60	225.76	27.89	-37.1	-38.0	23.7	0.00e+00	92	27	0	530579456	48	5713
2026-01-13 01:42:28.64	226.80	28.33	-37.9	-38.9	23.0	0.00e+00	92	27	0	538968064	48	6342
2026-01-13 01:42:32.67	227.86	28.77	-38.6	-39.6	22.5	0.00e+00	58	27	0	546308096	50	6152
2026-01-13 01:42:36.70	228.94	29.21	-38.5	-39.5	22.6	0.00e+00	0	27	0	553648128	50	6046
2026-01-13 01:42:40.74	230.07	29.64	-39.2	-40.2	22.0	0.00e+00	76	27	0	560988160	50	6603
2026-01-13 01:42:44.78	231.22	30.07	-39.9	-41.1	21.4	0.00e+00	92	27	0	568328192	52	6487
2026-01-13 01:42:48.81	232.39	30.49	-40.6	-41.9	20.5	0.00e+00	0	27	0	576716800	54	6376
2026-01-13 01:42:52.85	233.60	30.90	-41.7	-43.2	19.4	0.00e+00	10	27	0	584056832	56	6610
2026-01-13 01:42:56.88	234.84	31.31	-40.9	-42.2	20.4	0.00e+00	71	27	0	591396864	54	6615
2026-01-13 01:43:00.92	236.11	31.70	-41.0	-42.4	20.2	0.00e+00	91	27	0	598736896	54	6719
2026-01-13 01:43:04.95	237.41	32.09	-41.4	-42.9	20.0	0.00e+00	0	27	0	607125504	56	6319
2026-01-13 01:43:08.98	238.74	32.46	-40.4	-41.6	20.8	0.00e+00	92	27	0	614465536	54	6121
2026-01-13 01:43:13.02	240.10	32.82	-41.2	-42.5	20.1	0.00e+00	91	27	0	621805568	54	6848
2026-01-13 01:43:17.06	241.49	33.17	-41.0	-42.3	20.2	0.00e+00	0	27	0	629145600	54	6655
2026-01-13 01:43:21.09	242.91	33.50	-41.2	-42.6	19.9	0.00e+00	0	27	0	636485632	54	6868
2026-01-13 01:43:25.12	244.35	33.82	-40.6	-41.9	20.5	0.00e+00	87	27	0	644874240	54	6343
2026-01-13 01:43:29.16	245.83	34.12	-39.9	-41.0	21.4	0.00e+00	74	27	0	652214272	52	6448
2026-01-13 01:43:33.19	247.33	34.40	-40.5	-41.7	20.7	0.00e+00	14	27	0	659554304	54	6205
2026-01-13 01:43:37.23	248.85	34.66	-40.4	-41.6	20.7	0.00e+00	0	27	0	666894336	54	6168
2026-01-13 01:43:41.26	250.40	34.90	-39.4	-40.5	21.8	0.00e+00	91	27	0	675282944	52	6058
2026-01-13 01:43:45.29	251.96	35.11	-40.0	-41.1	21.4	0.00e+00	92	27	0	682622976	52	6507
2026-01-13 01:43:49.33	253.55	35.31	-40.6	-41.9	20.7	0.00e+00	0	27	0	689963008	52	7106
2026-01-13 01:43:53.36	255.16	35.48	-39.8	-40.9	21.3	0.00e+00	16	27	0	697303040	52	6380
2026-01-13 01:43:57.40	256.78	35.63	-39.1	-40.2	22.1	0.00e+00	46	27	0	704643072	52	5856
2026-01-13 01:44:01.44	258.41	35.76	-40.8	-42.2	20.4	0.00e+00	92	27	0	713031680	54	6556
2026-01-13 01:44:05.48	260.06	35.86	-39.5	-40.5	21.7	0.00e+00	0	27	0	720371712	52	6096
2026-01-13 01:44:09.52	261.72	35.93	-41.0	-42.3	20.1	0.00e+00	92	27	0	727711744	54	6686
2026-01-13 01:44:13.55	263.37	35.97	-42.7	-44.5	18.1	0.00e+00	92	27	0	735051776	58	6829
2026-01-13 01:44:17.59	265.04	35.99	-41.1	-42.4	20.2	0.00e+00	0	27	0	743440384	56	6024
2026-01-13 01:44:21.62	266.70	35.99	-41.9	-43.4	19.2	0.00e+00	0	27	0	750780416	54	7520
2026-01-13 01:44:25.66	268.36	35.96	-41.8	-43.3	19.5	0.00e+00	92	27	0	758120448	56	6659
2026-01-13 01:44:29.70	270.02	35.90	-39.9	-41.0	21.2	0.00e+00	92	27	0	765460480	52	6412
2026-01-13 01:44:33.73	271.67	35.81	-41.6	-43.1	19.4	0.00e+00	0	27	0	772800512	54	7280
2026-01-13 01:44:37.77	273.31	35.70	-42.0	-43.5	19.1	0.00e+00	14	27	0	781189120	58	6078
2026-01-13 01:44:41.80	274.93	35.56	-41.6	-43.0	19.6	0.00e+00	91	27	0	788529152	56	6412
2026-01-13 01:44:45.83	276.54	35.40	-43.0	-44.9	18.1	0.00e+00	92	27	0	795869184	58	7155
2026-01-13 01:44:49.87	278.14	35.22	-41.6	-43.0	19.6	0.00e+00	0	27	0	803209216	56	6426
2026-01-13 01:44:53.91	279.72	35.01	-41.9	-43.4	19.2	0.00e+00	92	27	0	810549248	58	6006
2026-01-13 01:44:57.94	281.27	34.78	-43.2	-45.1	17.5	0.00e+00	90	27	0	818937856	58	7267
2026-01-13 01:45:01.98	282.80	34.53	-42.9	-44.7	18.0	0.00e+00	41	27	0	826277888	58	6973
2026-01-13 01:45:06.01	284.31	34.27	-41.9	-43.4	19.3	0.00e+00	0	27	0	833617920	58	6008
2026-01-13 01:45:10.05	285.80	33.98	-41.4	-42.8	19.9	0.00e+00	92	27	0	840957952	56	6262
2026-01-13 01:45:14.09	287.25	33.67	-40.3	-41.6	20.8	0.00e+00	86	27	0	849346560	54	6104
2026-01-13 01:45:18.13	288.69	33.35	-39.3	-40.4	21.9	0.00e+00	0	27	0	856686592	52	5988
2026-01-13 01:45:22.17	290.09	33.01	-39.5	-40.5	21.7	0.00e+00	0	27	0	864026624	52	6086
2026-01-13 01:45:26.21	291.46	32.66	-40.0	-41.2	21.2	0.00e+00	90	27	0	871366656	52	6595
2026-01-13 01:45:30.24	292.80	32.29	-38.3	-39.2	22.8	0.00e+00	91	27	0	878706688	50	5866
2026-01-13 01:45:34.28	294.11	31.91	-39.0	-40.0	22.2	0.00e+00	0	27	0	887095296	50	6428
2026-01-13 01:45:38.32	295.40	31.53	-38.1	-39.1	22.8	0.00e+00	92	27	0	894435328	50	5788
2026-01-13 01:45:42.35	296.65	31.13	-37.1	-38.0	23.6	0.00e+00	92	27	0	901775360	48	5748
2026-01-13 01:45:46.38	297.87	30.72	-37.6	-38.5	23.4	0.00e+00	0	27	0	909115392	46	6785
2026-01-13 01:45:50.42	299.06	30.31	-38.0	-38.9	23.0	0.00e+00	0	27	0	916455424	50	5683
2026-01-13 01:45:54.46	300.22	29.89	-39.3	-40.4	21.8	0.00e+00	86	27	0	924844032	50	6758
2026-01-13 01:45:58.50	301.35	29.46	-36.3	-37.1	24.4	0.00e+00	91	27	0	932184064	46	5772
2026-01-13 01:46:02.54	302.46	29.02	-38.3	-39.2	22.8	0.00e+00	0	27	0	939524096	48	6583
2026-01-13 01:46:06.58	303.53	28.59	-37.3	-38.2	23.4	0.00e+00	0	27	0	946864128	48	5835
2026-01-13 01:46:10.61	304.57	28.15	-38.5	-39.5	22.5	0.00e+00	92	27	0	955252736	50	6059
2026-01-13 01:46:14.65	305.59	27.71	-38.9	-40.0	22.2	0.00e+00	69	27	0	962592768	50	6400
2026-01-13 01:46:18.69	306.58	27.26	-37.6	-38.5	23.5	0.00e+00	0	27	0	969932800	48	6043
2026-01-13 01:46:22.72	307.54	26.82	-38.7	-39.7	22.3	0.00e+00	0	27	0	977272832	48	6950
2026-01-13 01:46:26.76	308.48	26.37	-39.3	-40.4	21.8	0.00e+00	92	27	0	984612864	52	6002
2026-01-13 01:46:30.79	309.39	25.92	-39.3	-40.3	21.8	0.00e+00	0	27	0	993001472	50	6687
2026-01-13 01:46:34.83	310.28	25.48	-38.7	-39.7	22.3	0.00e+00	0	27	0	1000341504	50	6242
2026-01-13 01:46:38.87	311.14	25.03	-39.9	-41.1	21.0	0.00e+00	90	27	0	1007681536	52	6535
2026-01-13 01:46:42.91	311.98	24.58	-39.2	-40.3	22.0	0.00e+00	92	27	0	1015021568	52	5932
2026-01-13 01:46:46.94	312.79	24.14	-37.7	-38.6	23.2	0.00e+00	0	27	0	1023410176	48	6149
2026-01-13 01:46:50.98	313.59	23.70	-38.7	-39.7	22.4	0.00e+00	0	27	0	1030750208	50	6206
2026-01-13 01:46:55.01	314.36	23.26	-36.3	-37.1	24.3	0.00e+00	92	27	0	1038090240	46	5805
2026-01-13 01:46:59.04	315.11	22.82	-37.4	-38.3	23.3	0.00e+00	92	27	0	1045430272	46	6686
2026-01-13 01:47:03.08	315.84	22.39	-37.3	-38.2	23.4	0.00e+00	0	27	0	1052770304	48	5829
2026-01-13 01:47:07.12	316.55	21.96	-37.0	-37.8	23.3	0.00e+00	0	27	0	1061158912	46	6311
2026-01-13 01:47:11.15	317.25	21.53	-37.3	-38.2	23.4	0.00e+00	36	27	0	1068498944	46	6613
2026-01-13 01:47:15.19	317.92	21.10	-37.1	-38.0	23.6	0.00e+00	68	27	0	1075838976	46	6429
2026-01-13 01:47:19.23	318.58	20.68	-36.9	-37.8	23.9	0.00e+00	0	27	0	1083179008	46	6280
2026-01-13 01:47:23.26	319.22	20.26	-37.4	-38.3	23.4	0.00e+00	10	27	0	1090519040	46	6622
2026-01-13 01:47:27.30	319.84	19.85	-37.0	-37.9	23.6	0.00e+00	92	27	0	1098907648	46	6368
2026-01-13 01:47:31.34	320.45	19.44	-36.3	-37.1	24.2	0.00e+00	0	27	0	1106247680	46	5805
2026-01-13 01:47:35.38	321.04	19.03	-36.8	-37.7	23.9	0.00e+00	0	27	0	1113587712	46	6175
2026-01-13 01:47:39.42	321.61	18.63	-36.7	-37.6	23.8	0.00e+00	90	27	0	1120927744	46	6147
2026-01-13 01:47:43.45	322.18	18.23	-36.6	-37.4	23.9	0.00e+00	92	27	0	1129316352	46	6013
2026-01-13 01:47:47.48	322.72	17.83	-36.7	-37.6	23.8	0.00e+00	0	27	0	1136656384	46	6142
2026-01-13 01:47:51.51	323.26	17.44	-38.4	-39.4	22.3	0.00e+00	0	27	0	1143996416	48	6753
2026-01-13 01:47:55.55	323.78	17.05	-39.3	-40.4	21.3	0.00e+00	90	27	0	1151336448	50	6732
2026-01-13 01:47:59.58	324.28	16.67	-39.6	-40.8	21.3	0.00e+00	0	27	0	1158676480	52	6250
2026-01-13 01:48:03.62	324.78	16.29	-38.5	-39.6	22.2	0.00e+00	0	27	0	1167065088	50	6117
2026-01-13 01:48:07.66	325.27	15.91	-38.6	-39.6	22.4	0.00e+00	11	27	0	1174405120	50	6163
2026-01-13 01:48:11.70	325.74	15.54	-38.6	-39.6	22.0	0.00e+00	92	27	0	1181745152	50	6156
2026-01-13 01:48:15.73	326.20	15.17	-38.5	-39.5	22.2	0.00e+00	0	27	0	1189085184	50	6092
2026-01-13 01:48:19.77	326.65	14.81	-37.6	-38.6	23.0	0.00e+00	0	27	0	1196425216	48	6126
2026-01-13 01:48:23.81	327.09	14.45	-37.6	-38.6	22.8	0.00e+00	83	27	0	1204813824	48	6111
2026-01-13 01:48:27.84	327.52	14.09	-38.3	-39.3	22.5	0.00e+00	0	27	0	1212153856	48	6677
2026-01-13 01:48:31.88	327.94	13.74	-38.5	-39.5	22.1	0.00e+00	0	27	0	1219493888	48	6824
2026-01-13 01:48:35.92	328.35	13.39	-38.0	-39.0	22.5	0.00e+00	0	27	0	1226833920	48	6442
2026-01-13 01:48:39.95	328.76	13.05	-37.6	-38.5	22.9	0.00e+00	92	27	0	1235222528	48	6073
2026-01-13 01:48:43.99	329.15	12.70	-37.8	-38.7	22.7	0.00e+00	0	27	0	1242562560	48	6241
2026-01-13 01:48:48.03	329.54	12.37	-38.5	-39.5	22.1	0.00e+00	0	27	0	1249902592	48	6843
2026-01-13 01:48:52.06	329.91	12.03	-39.0	-40.1	21.5	0.00e+00	0	27	0	1257242624	50	6484
2026-01-13 01:48:56.10	330.28	11.70	-38.8	-39.9	21.8	0.00e+00	65	27	0	1264582656	50	6339
2026-01-13 01:49:00.14	330.64	11.37	-38.5	-39.5	22.0	0.00e+00	0	27	0	1272971264	50	6091
2026-01-13 01:49:04.17	330.99	11.05	-38.4	-39.4	22.1	0.00e+00	6	27	0	1280311296	50	6013
2026-01-13 01:49:08.21	331.34	10.73	-38.3	-39.4	22.2	0.00e+00	1	27	0	1287651328	50	5978
2026-01-13 01:49:12.25	331.68	10.41	-38.3	-39.4	22.2	0.00e+00	21	27	0	1294991360	50	5994
2026-01-13 01:49:16.29	332.01	10.10	-38.4	-39.4	22.1	0.00e+00	0	27	0	1303379968	50	6020
2026-01-13 01:49:20.33	332.34	9.79	-38.1	-39.1	22.3	0.00e+00	0	27	0	1310720000	50	5811
2026-01-13 01:49:24.37	332.66	9.48	-38.3	-39.4	22.2	0.00e+00	81	27	0	1318060032	50	5980
2026-01-13 01:49:28.41	332.97	9.17	-38.0	-39.0	22.3	0.00e+00	0	27	0	1325400064	50	5728
2026-01-13 01:49:32.44	333.28	8.87	-38.3	-39.4	22.0	0.00e+00	0	27	0	1332740096	50	5993
2026-01-13 01:49:36.48	333.58	8.57	-38.7	-39.8	21.7	0.00e+00	0	27	0	1341128704	50	6264
2026-01-13 01:49:40.52	333.88	8.28	-38.7	-39.8	21.6	0.00e+00	76	27	0	1348468736	50	6265
2026-01-13 01:49:44.55	334.17	7.99	-38.7	-39.8	21.6	0.00e+00	0	27	0	1355808768	50	6297
2026-01-13 01:49:48.59	334.45	7.70	-38.8	-39.9	21.5	0.00e+00	0	27	0	1363148800	50	6366
2026-01-13 01:49:52.62	334.73	7.41	-38.6	-39.7	21.6	0.00e+00	0	27	0	1371537408	50	6217
2026-01-13 01:49:56.66	335.00	7.12	-38.9	-40.0	21.3	0.00e+00	91	27	0	1378877440	50	6420
2026-01-13 01:50:00.70	335.27	6.84	-39.1	-40.2	21.2	0.00e+00	0	27	0	1386217472	50	6609
2026-01-13 01:50:04.73	335.54	6.56	-39.4	-40.6	20.7	0.00e+00	0	27	0	1393557504	50	6895
2026-01-13 01:50:08.77	335.80	6.29	-40.2	-41.7	19.6	0.00e+00	64	27	0	1400897536	52	6969
2026-01-13 01:50:12.80	336.05	6.01	-41.0	-42.8	18.3	0.00e+00	22	27	0	1409286144	54	7013
2026-01-13 01:50:16.84	336.30	5.74	-41.7	-43.9	16.8	0.00e+00	0	27	0	1416626176	54	7983
2026-01-13 01:50:20.88	336.55	5.47	-42.6	-45.5	14.6	0.00e+00	0	27	0	1423966208	56	8607
2026-01-13 01:50:24.92	336.79	5.20	-43.0	-46.9	12.4	8.16e-05	90	27	0	1431306240	58	8992
2026-01-13 01:50:28.95	337.03	4.94	-43.4	-48.3	10.7	1.94e-03	0	27	0	1439694848	58	10496
2026-01-13 01:50:32.99	337.27	4.68	-43.6	-49.8	8.4	2.54e-02	0	27	0	1447034880	58	12518
2026-01-13 01:50:37.03	337.50	4.42	-43.8	-51.3	6.3	2.27e-01	0	27	0	1454374912	60	13297
2026-01-13 01:50:41.06	337.73	4.16	-43.9	-53.6	4.3	8.32e-01	58	27	0	1461714944	60	17232
2026-01-13 01:50:45.10	337.95	3.90	-43.8	-56.9	3.8	1.49e+00	0	27	104	1464860672	60	25364
2026-01-13 01:50:49.14	338.17	3.65	-43.7	-58.4	3.6	1.51e+00	0	27	104	1464860672	60	29961
2026-01-13 01:50:53.18	338.39	3.39	-43.7	-59.0	3.6	1.51e+00	0	27	104	1464860672	60	32158
2026-01-13 01:50:57.22	338.60	3.14	-43.8	-59.1	3.6	1.51e+00	0	27	104	1464860672	60	32407
2026-01-13 01:51:01.25	338.81	2.90	-47.9	-63.1	3.6	1.51e+00	0	27	104	1464860672	60	51635
2026-01-13 01:51:05.30	339.02	2.65	-48.7	-63.9	3.6	1.51e+00	0	27	104	1464860672	60	56753
2026-01-13 01:51:09.34	339.22	2.41	-48.6	-64.0	3.6	1.51e+00	0	27	104	1464860672	60	57157
2026-01-13 01:51:13.38	339.42	2.16	-48.6	-63.8	3.6	1.51e+00	0	27	104	1464860672	60	56275
2026-01-13 01:51:17.42	339.62	1.92	-48.7	-63.9	3.6	1.51e+00	0	27	104	1464860672	60	56645
2026-01-13 01:51:21.46	339.81	1.68	-48.7	-63.9	3.6	1.51e+00	0	27	104	1464860672	60	56731
2026-01-13 01:51:25.49	340.01	1.45	-48.7	-63.9	3.6	1.51e+00	0	27	104	1464860672	60	56393
2026-01-13 01:51:29.53	340.20	1.21	-48.7	-63.9	3.6	1.51e+00	0	27	104	1464860672	60	56467
2026-01-13 01:51:33.57	340.38	0.98	-48.7	-63.8	3.6	1.51e+00	0	27	104	1464860672	60	56239
2026-01-13 01:51:37.61	340.57	0.75	-48.7	-63.9	3.6	1.51e+00	0	27	104	1464860672	60	56355
2026-01-13 01:51:41.64	340.75	0.52	-48.6	-63.8	3.6	1.51e+00	0	27	104	1464860672	60	56115
2026-01-13 01:51:45.68	340.93	0.29	-48.6	-63.9	3.6	1.51e+00	0	27	104	1464860672	60	56384
2026-01-13 01:51:49.72	341.11	0.06	-48.7	-63.8	3.6	1.51e+00	0	27	104	1464860672	60	56188

#Closed at: 2026-01-13 01:51:52
#Recorded file [1464 MB]: D:/lorett/data/35029_260113_133653.dat