passes_logs/2026/01/13/R4.6S_Anadyr/R4.6S_Anadyr__20260113_041729_FENGYUN_3D_rec.log

#Pass ID: 20260113_041729_FENGYUN 3D
#Satellite: FENGYUN 3D
#Configuration: FENGYUN 3D
#almurnet v.1.7.20251203
#Start time: 2026-01-13 04:17:31

#Version: 2.2.20231116
#Station: R4.6S_Anadyr
#Location: 177.4865 lon 64.73178 lat
#TLE: 1 43010U 17072A   26012.32543542  .00000598  00000+0  30457-3 0  9997
#TLE: 2 43010  98.9935 344.1005 0002233 112.6136 247.5276 14.19696644422876

#Time	Az	El	Level	Level2	SNR	BER	BlckErr	Temp	State	Recorded	gain1	gain2
2026-01-13 04:17:31.12	209.07	0.08	-48.8	-63.7	3.5	1.51e+00	0	24	0	0	60	55141
2026-01-13 04:17:35.15	209.33	0.29	-48.8	-60.9	3.5	8.46e-01	0	26	104	0	60	40101
2026-01-13 04:17:39.19	209.60	0.50	-48.8	-60.9	3.6	8.45e-01	0	26	104	0	60	40134
2026-01-13 04:17:43.22	209.87	0.71	-48.7	-60.8	3.6	8.47e-01	0	26	104	0	60	39487
2026-01-13 04:17:47.26	210.14	0.93	-47.5	-59.6	3.6	8.45e-01	0	26	104	0	60	34331
2026-01-13 04:17:51.30	210.42	1.14	-47.4	-59.4	3.6	8.45e-01	0	26	104	0	60	33700
2026-01-13 04:17:55.34	210.70	1.36	-47.4	-59.3	3.6	8.46e-01	0	26	104	0	60	33451
2026-01-13 04:17:59.37	210.98	1.58	-47.3	-59.3	3.6	8.45e-01	0	26	104	0	60	33482
2026-01-13 04:18:03.41	211.27	1.79	-47.3	-59.4	3.6	8.45e-01	0	26	104	0	60	33790
2026-01-13 04:18:07.45	211.56	2.01	-47.3	-59.3	3.6	8.44e-01	0	26	104	0	60	33332
2026-01-13 04:18:11.49	211.86	2.24	-47.3	-59.3	3.6	8.45e-01	0	26	104	0	60	33206
2026-01-13 04:18:15.53	212.16	2.46	-47.2	-58.5	3.6	8.45e-01	0	26	104	0	60	30420
2026-01-13 04:18:19.56	212.47	2.68	-47.2	-57.8	3.6	8.47e-01	0	26	104	0	60	28100
2026-01-13 04:18:23.60	212.78	2.90	-42.2	-44.1	14.4	7.78e-05	0	26	0	12582912	58	6484
2026-01-13 04:18:27.65	213.09	3.13	-38.5	-39.6	18.9	0.00e+00	0	26	0	34603008	50	6113
2026-01-13 04:18:31.69	213.41	3.36	-42.0	-43.8	13.1	0.00e+00	0	26	0	57671680	50	10010
2026-01-13 04:18:35.73	213.73	3.58	-36.5	-37.3	21.3	0.00e+00	0	26	0	66060288	46	5933
2026-01-13 04:18:39.77	214.06	3.81	-35.9	-36.7	21.8	0.00e+00	0	26	0	89128960	44	6202
2026-01-13 04:18:43.80	214.40	4.04	-36.1	-36.9	21.7	0.00e+00	0	27	0	112197632	44	6349
2026-01-13 04:18:47.84	214.73	4.27	-35.6	-36.4	22.0	0.00e+00	0	26	0	134217728	44	6027
2026-01-13 04:18:51.88	215.08	4.51	-35.5	-36.3	22.3	0.00e+00	0	26	0	157286400	44	5917
2026-01-13 04:18:55.91	215.43	4.74	-35.3	-36.1	22.5	0.00e+00	0	26	0	180355072	44	5766
2026-01-13 04:18:59.95	215.78	4.97	-35.3	-36.1	22.4	0.00e+00	0	26	0	202375168	44	5766
2026-01-13 04:19:03.97	216.14	5.21	-35.0	-35.7	22.9	0.00e+00	0	26	0	225443840	44	5535
2026-01-13 04:19:08.01	216.50	5.45	-35.2	-36.0	22.8	0.00e+00	0	26	0	247463936	44	5696
2026-01-13 04:19:12.05	216.87	5.69	-35.2	-35.9	22.8	0.00e+00	0	27	0	270532608	44	5670
2026-01-13 04:19:16.09	217.25	5.92	-35.0	-35.8	23.0	0.00e+00	0	26	0	293601280	44	5586
2026-01-13 04:19:20.13	217.63	6.17	-34.8	-35.5	23.2	0.00e+00	0	27	0	316669952	42	6095
2026-01-13 04:19:24.17	218.02	6.41	-34.7	-35.5	23.3	0.00e+00	0	27	0	338690048	42	6042
2026-01-13 04:19:28.20	218.42	6.65	-34.7	-35.4	23.4	0.00e+00	0	27	0	361758720	42	6019
2026-01-13 04:19:32.24	218.82	6.89	-34.5	-35.3	23.6	0.00e+00	0	26	0	384827392	42	5914
2026-01-13 04:19:36.27	219.23	7.14	-34.5	-35.3	23.6	0.00e+00	0	27	0	406847488	42	5909
2026-01-13 04:19:40.31	219.64	7.39	-34.7	-35.5	23.4	0.00e+00	0	27	0	429916160	42	6036
2026-01-13 04:19:44.35	220.06	7.63	-34.7	-35.5	23.4	0.00e+00	0	27	0	451936256	42	6038
2026-01-13 04:19:48.39	220.49	7.88	-34.5	-35.2	23.7	0.00e+00	0	27	0	475004928	42	5890
2026-01-13 04:19:52.43	220.93	8.13	-34.5	-35.2	23.7	0.00e+00	0	27	0	498073600	42	5862
2026-01-13 04:19:56.47	221.37	8.38	-34.4	-35.2	23.7	0.00e+00	0	27	0	520093696	42	5844
2026-01-13 04:20:00.51	221.82	8.64	-34.4	-35.2	23.8	0.00e+00	0	27	0	543162368	42	5831
2026-01-13 04:20:04.54	222.28	8.89	-34.5	-35.2	23.7	0.00e+00	0	27	0	566231040	42	5879
2026-01-13 04:20:08.58	222.74	9.14	-34.1	-34.9	24.1	0.00e+00	0	27	0	589299712	42	5642
2026-01-13 04:20:12.62	223.22	9.40	-34.1	-34.8	24.1	0.00e+00	0	27	0	611319808	42	5629
2026-01-13 04:20:16.66	223.70	9.65	-34.2	-34.9	24.0	0.00e+00	0	27	0	634388480	42	5669
2026-01-13 04:20:20.70	224.19	9.91	-33.9	-34.6	24.2	0.00e+00	0	27	0	656408576	42	5499
2026-01-13 04:20:24.74	224.69	10.17	-34.3	-34.9	24.0	0.00e+00	0	27	0	679477248	42	5690
2026-01-13 04:20:28.77	225.19	10.43	-34.1	-34.8	24.2	0.00e+00	0	27	0	702545920	42	5588
2026-01-13 04:20:32.81	225.71	10.68	-34.1	-34.8	24.2	0.00e+00	0	27	0	724566016	42	5583
2026-01-13 04:20:36.85	226.23	10.94	-34.3	-35.0	24.0	0.00e+00	0	27	0	747634688	42	5725
2026-01-13 04:20:40.89	226.76	11.21	-34.4	-35.1	23.9	0.00e+00	0	27	0	770703360	42	5793
2026-01-13 04:20:44.92	227.31	11.47	-33.9	-34.7	24.4	0.00e+00	0	27	0	792723456	42	5505
2026-01-13 04:20:48.96	227.86	11.73	-34.0	-34.7	24.3	0.00e+00	0	27	0	815792128	42	5564
2026-01-13 04:20:53.00	228.42	11.99	-34.0	-34.7	24.4	0.00e+00	0	27	0	838860800	42	5540
2026-01-13 04:20:57.04	228.99	12.25	-34.1	-34.8	24.1	0.00e+00	0	27	0	860880896	42	5609
2026-01-13 04:21:01.08	229.57	12.51	-33.7	-34.4	24.6	0.00e+00	0	27	0	883949568	40	5984
2026-01-13 04:21:05.12	230.16	12.78	-33.6	-34.3	24.6	0.00e+00	0	27	0	907018240	40	5897
2026-01-13 04:21:09.16	230.76	13.04	-33.4	-34.1	24.8	0.00e+00	0	27	0	929038336	40	5797
2026-01-13 04:21:13.20	231.38	13.30	-33.8	-34.4	24.5	0.00e+00	0	27	0	952107008	40	6028
2026-01-13 04:21:17.24	232.00	13.56	-33.5	-34.2	24.7	0.00e+00	0	27	0	975175680	40	5839
2026-01-13 04:21:21.28	232.63	13.83	-33.3	-34.0	24.9	0.00e+00	0	27	0	997195776	40	5740
2026-01-13 04:21:25.32	233.28	14.09	-33.3	-34.0	24.9	0.00e+00	0	27	0	1020264448	40	5725
2026-01-13 04:21:29.35	233.93	14.35	-33.2	-33.9	25.0	0.00e+00	0	27	0	1043333120	40	5668
2026-01-13 04:21:33.39	234.60	14.61	-32.8	-33.4	25.4	0.00e+00	0	27	0	1065353216	40	5356
2026-01-13 04:21:37.43	235.27	14.87	-33.0	-33.6	25.3	0.00e+00	0	27	0	1088421888	38	6147
2026-01-13 04:21:41.47	235.96	15.13	-32.8	-33.5	25.4	0.00e+00	0	27	0	1111490560	38	6039
2026-01-13 04:21:45.51	236.67	15.38	-32.7	-33.3	25.6	0.00e+00	0	27	0	1133510656	38	5951
2026-01-13 04:21:49.55	237.38	15.64	-32.4	-33.0	25.8	0.00e+00	0	27	0	1156579328	38	5759
2026-01-13 04:21:53.58	238.10	15.89	-32.3	-32.9	26.0	0.00e+00	0	27	0	1179648000	38	5652
2026-01-13 04:21:57.62	238.84	16.15	-32.4	-33.0	25.8	0.00e+00	0	27	0	1201668096	38	5742
2026-01-13 04:22:01.66	239.59	16.40	-31.9	-32.5	26.3	0.00e+00	0	27	0	1224736768	38	5409
2026-01-13 04:22:05.70	240.35	16.65	-31.7	-32.3	26.4	0.00e+00	0	27	0	1247805440	36	5928
2026-01-13 04:22:09.73	241.12	16.89	-31.7	-32.3	26.5	0.00e+00	0	27	0	1269825536	36	5956
2026-01-13 04:22:13.77	241.90	17.14	-31.8	-32.5	26.4	0.00e+00	0	27	0	1292894208	36	6048
2026-01-13 04:22:17.81	242.70	17.38	-31.8	-32.5	26.3	0.00e+00	0	27	0	1315962880	36	6059
2026-01-13 04:22:21.85	243.51	17.62	-31.7	-32.3	26.4	0.00e+00	0	27	0	1337982976	36	5957
2026-01-13 04:22:25.89	244.34	17.85	-31.5	-32.1	26.6	0.00e+00	0	27	0	1361051648	36	5774
2026-01-13 04:22:29.93	245.17	18.08	-31.5	-32.1	26.6	0.00e+00	0	27	0	1384120320	36	5814
2026-01-13 04:22:33.97	246.02	18.31	-31.5	-32.1	26.6	0.00e+00	0	27	0	1406140416	36	5786
2026-01-13 04:22:38.00	246.88	18.53	-31.4	-32.0	26.8	0.00e+00	0	27	0	1429209088	36	5726
2026-01-13 04:22:42.04	247.75	18.75	-31.9	-32.6	26.1	0.00e+00	0	27	0	1452277760	36	6127
2026-01-13 04:22:46.09	248.63	18.97	-31.5	-32.2	26.5	0.00e+00	0	27	0	1474297856	36	5868
2026-01-13 04:22:50.13	249.53	19.17	-31.4	-32.0	26.8	0.00e+00	0	27	0	1497366528	36	5732
2026-01-13 04:22:54.17	250.44	19.38	-31.2	-31.8	26.8	0.00e+00	0	27	0	1520435200	36	5609
2026-01-13 04:22:58.21	251.36	19.58	-31.0	-31.6	27.1	0.00e+00	0	27	0	1542455296	36	5462
2026-01-13 04:23:02.25	252.29	19.77	-30.9	-31.5	27.1	0.00e+00	0	27	0	1565523968	34	6068
2026-01-13 04:23:06.28	253.23	19.96	-31.0	-31.7	27.0	0.00e+00	0	27	0	1588592640	34	6178
2026-01-13 04:23:10.33	254.19	20.14	-30.9	-31.5	27.1	0.00e+00	0	27	0	1610612736	34	6051
2026-01-13 04:23:14.37	255.15	20.31	-31.4	-32.0	26.8	0.00e+00	0	27	0	1633681408	34	6412
2026-01-13 04:23:18.41	256.12	20.48	-31.0	-31.6	27.0	0.00e+00	0	27	0	1656750080	34	6126
2026-01-13 04:23:22.45	257.11	20.64	-30.8	-31.5	27.1	0.00e+00	0	27	0	1678770176	34	6039
2026-01-13 04:23:26.49	258.10	20.79	-30.9	-31.5	27.1	0.00e+00	0	27	0	1701838848	34	6095
2026-01-13 04:23:30.52	259.11	20.93	-30.7	-31.3	27.3	0.00e+00	0	27	0	1724907520	34	5952
2026-01-13 04:23:34.56	260.12	21.07	-30.5	-31.1	27.4	0.00e+00	0	27	0	1746927616	34	5785
2026-01-13 04:23:38.60	261.14	21.20	-30.6	-31.2	27.3	0.00e+00	0	27	0	1769996288	34	5847
2026-01-13 04:23:42.64	262.17	21.32	-30.7	-31.3	27.3	0.00e+00	0	27	0	1793064960	34	5911
2026-01-13 04:23:46.67	263.20	21.43	-30.8	-31.4	27.2	0.00e+00	0	27	0	1815085056	34	6024
2026-01-13 04:23:50.71	264.25	21.53	-30.9	-31.5	27.1	0.00e+00	0	27	0	1838153728	34	6075
2026-01-13 04:23:54.75	265.30	21.62	-30.9	-31.5	27.2	0.00e+00	0	27	0	1861222400	34	6045
2026-01-13 04:23:58.79	266.35	21.70	-30.6	-31.2	27.4	0.00e+00	0	27	0	1883242496	34	5850
2026-01-13 04:24:02.83	267.41	21.78	-30.5	-31.1	27.5	0.00e+00	0	27	0	1906311168	34	5815
2026-01-13 04:24:06.86	268.47	21.84	-30.4	-31.1	27.4	0.00e+00	0	27	0	1929379840	34	5766
2026-01-13 04:24:10.90	269.54	21.89	-30.4	-31.0	27.4	0.00e+00	0	27	0	1951399936	34	5727
2026-01-13 04:24:14.94	270.62	21.94	-30.4	-31.0	27.4	0.00e+00	0	27	0	1974468608	34	5761
2026-01-13 04:24:18.98	271.69	21.97	-30.3	-30.9	27.5	0.00e+00	0	27	0	1997537280	34	5692
2026-01-13 04:24:23.02	272.77	22.00	-30.6	-31.2	27.4	0.00e+00	0	27	0	2019557376	34	5843
2026-01-13 04:24:27.06	273.85	22.01	-30.4	-31.0	27.5	0.00e+00	0	27	0	2042626048	34	5751
2026-01-13 04:24:31.10	274.92	22.01	-30.5	-31.0	27.4	0.00e+00	0	27	0	2065694720	34	5759
2026-01-13 04:24:35.14	276.00	22.01	-30.3	-31.0	27.5	0.00e+00	0	27	0	2087714816	34	5716
2026-01-13 04:24:39.17	277.08	21.99	-30.4	-31.0	27.3	0.00e+00	0	27	0	2110783488	34	5724
2026-01-13 04:24:43.21	278.15	21.96	-30.4	-31.0	27.3	0.00e+00	0	27	0	2133852160	34	5723
2026-01-13 04:24:47.25	279.23	21.92	-30.5	-31.1	27.4	0.00e+00	0	27	0	2155872256	34	5766
2026-01-13 04:24:51.29	280.30	21.88	-30.5	-31.1	27.3	0.00e+00	0	27	0	2178940928	34	5828
2026-01-13 04:24:55.33	281.36	21.82	-30.3	-30.9	27.6	0.00e+00	0	27	0	2202009600	34	5661
2026-01-13 04:24:59.36	282.42	21.75	-30.3	-30.9	27.5	0.00e+00	0	27	0	2224029696	34	5637
2026-01-13 04:25:03.40	283.48	21.68	-30.6	-31.2	27.2	0.00e+00	0	27	0	2247098368	34	5870
2026-01-13 04:25:07.44	284.53	21.59	-30.6	-31.2	27.2	0.00e+00	0	27	0	2270167040	34	5845
2026-01-13 04:25:11.48	285.58	21.50	-30.5	-31.1	27.3	0.00e+00	0	27	0	2292187136	34	5789
2026-01-13 04:25:15.52	286.62	21.39	-30.7	-31.2	27.2	0.00e+00	0	27	0	2315255808	34	5883
2026-01-13 04:25:19.56	287.65	21.28	-30.9	-31.5	27.0	0.00e+00	0	27	0	2338324480	34	6099
2026-01-13 04:25:23.59	288.67	21.16	-30.6	-31.3	27.2	0.00e+00	0	27	0	2360344576	34	5911
2026-01-13 04:25:27.63	289.69	21.03	-30.6	-31.1	27.3	0.00e+00	0	27	0	2383413248	34	5786
2026-01-13 04:25:31.67	290.69	20.89	-30.7	-31.3	27.2	0.00e+00	0	27	0	2406481920	34	5900
2026-01-13 04:25:35.71	291.69	20.74	-30.7	-31.3	27.2	0.00e+00	0	27	0	2428502016	34	5910
2026-01-13 04:25:39.75	292.68	20.59	-30.8	-31.5	27.1	0.00e+00	0	27	0	2451570688	34	6063
2026-01-13 04:25:43.78	293.66	20.43	-31.1	-31.7	26.8	0.00e+00	0	27	0	2474639360	34	6216
2026-01-13 04:25:47.82	294.63	20.26	-31.5	-32.2	26.5	0.00e+00	0	27	0	2496659456	34	6585
2026-01-13 04:25:51.86	295.58	20.08	-31.7	-32.3	26.4	0.00e+00	0	27	0	2519728128	36	5914
2026-01-13 04:25:55.90	296.53	19.90	-31.2	-31.8	27.0	0.00e+00	0	27	0	2542796800	36	5610
2026-01-13 04:25:59.94	297.47	19.71	-31.5	-32.1	26.8	0.00e+00	0	27	0	2564816896	36	5817
2026-01-13 04:26:03.98	298.39	19.52	-31.4	-32.0	26.8	0.00e+00	0	27	0	2587885568	36	5741
2026-01-13 04:26:08.02	299.31	19.32	-31.3	-31.8	26.9	0.00e+00	0	27	0	2610954240	36	5624
2026-01-13 04:26:12.06	300.21	19.11	-31.3	-31.9	26.9	0.00e+00	0	27	0	2632974336	36	5640
2026-01-13 04:26:16.10	301.10	18.91	-31.4	-32.0	26.8	0.00e+00	0	27	0	2656043008	36	5735
2026-01-13 04:26:20.14	301.97	18.69	-31.4	-32.0	26.7	0.00e+00	0	27	0	2679111680	36	5736
2026-01-13 04:26:24.18	302.84	18.47	-31.5	-32.2	26.7	0.00e+00	0	27	0	2701131776	36	5862
2026-01-13 04:26:28.22	303.69	18.25	-31.4	-32.0	26.8	0.00e+00	0	27	0	2724200448	36	5710
2026-01-13 04:26:32.26	304.53	18.02	-31.8	-32.5	26.4	0.00e+00	0	27	0	2747269120	36	6064
2026-01-13 04:26:36.30	305.36	17.79	-31.9	-32.6	26.2	0.00e+00	0	27	0	2769289216	36	6140
2026-01-13 04:26:40.33	306.17	17.56	-31.8	-32.4	26.4	0.00e+00	0	27	0	2792357888	36	6018
2026-01-13 04:26:44.36	306.97	17.32	-31.8	-32.5	26.4	0.00e+00	0	27	0	2815426560	36	6094
2026-01-13 04:26:48.40	307.77	17.08	-31.7	-32.3	26.5	0.00e+00	0	27	0	2837446656	36	5944
2026-01-13 04:26:52.44	308.54	16.84	-32.1	-32.8	26.2	0.00e+00	0	27	0	2860515328	36	6268
2026-01-13 04:26:56.47	309.31	16.59	-32.4	-33.0	25.9	0.00e+00	0	27	0	2882535424	36	6404
2026-01-13 04:27:00.51	310.06	16.34	-32.5	-33.1	25.8	0.00e+00	0	27	0	2905604096	36	6494
2026-01-13 04:27:04.55	310.81	16.09	-32.8	-33.4	25.5	0.00e+00	0	27	0	2928672768	38	5982
2026-01-13 04:27:08.59	311.54	15.84	-32.3	-33.0	25.9	0.00e+00	0	27	0	2951741440	38	5705
2026-01-13 04:27:12.63	312.25	15.59	-32.3	-32.9	25.8	0.00e+00	0	27	0	2973761536	38	5669
2026-01-13 04:27:16.67	312.96	15.33	-32.4	-33.1	25.8	0.00e+00	0	27	0	2996830208	38	5796
2026-01-13 04:27:20.71	313.66	15.08	-32.2	-32.8	26.0	0.00e+00	0	27	0	3018850304	38	5607
2026-01-13 04:27:24.75	314.34	14.82	-32.6	-33.2	25.6	0.00e+00	0	27	0	3041918976	38	5838
2026-01-13 04:27:28.78	315.01	14.56	-32.8	-33.3	25.5	0.00e+00	0	27	0	3064987648	38	5960
2026-01-13 04:27:32.82	315.67	14.31	-32.8	-33.5	25.5	0.00e+00	0	27	0	3087007744	38	6080
2026-01-13 04:27:36.86	316.32	14.05	-33.0	-33.8	25.2	0.00e+00	0	27	0	3110076416	38	6246
2026-01-13 04:27:40.90	316.96	13.79	-33.1	-33.7	25.2	0.00e+00	0	27	0	3133145088	38	6220
2026-01-13 04:27:44.94	317.59	13.53	-32.8	-33.3	25.5	0.00e+00	0	27	0	3156213760	38	5964
2026-01-13 04:27:48.98	318.21	13.27	-32.9	-33.6	25.3	0.00e+00	0	27	0	3178233856	38	6115
2026-01-13 04:27:53.02	318.81	13.01	-33.1	-33.7	25.2	0.00e+00	0	27	0	3201302528	38	6228
2026-01-13 04:27:57.06	319.41	12.74	-33.0	-33.7	25.3	0.00e+00	0	27	0	3223322624	38	6202
2026-01-13 04:28:01.10	320.00	12.48	-33.0	-33.8	25.2	0.00e+00	0	27	0	3246391296	38	6257
2026-01-13 04:28:05.13	320.57	12.22	-33.2	-33.9	25.1	0.00e+00	0	27	0	3269459968	38	6332
2026-01-13 04:28:09.18	321.14	11.96	-33.5	-34.1	24.8	0.00e+00	0	27	0	3291480064	38	6499
2026-01-13 04:28:13.22	321.70	11.70	-33.5	-34.3	24.7	0.00e+00	0	27	0	3314548736	38	6627
2026-01-13 04:28:17.26	322.25	11.44	-33.4	-34.2	24.8	0.00e+00	0	27	0	3337617408	38	6568
2026-01-13 04:28:21.30	322.78	11.19	-33.5	-34.1	24.8	0.00e+00	0	27	0	3360686080	38	6468
2026-01-13 04:28:25.34	323.31	10.93	-33.7	-34.5	24.5	0.00e+00	0	27	0	3382706176	40	6076
2026-01-13 04:28:29.37	323.83	10.67	-33.8	-34.4	24.3	0.00e+00	0	27	0	3405774848	40	6020
2026-01-13 04:28:33.41	324.35	10.41	-34.0	-34.8	24.2	0.00e+00	0	27	0	3427794944	40	6249
2026-01-13 04:28:37.45	324.85	10.16	-34.1	-34.7	24.1	0.00e+00	0	27	0	3450863616	40	6215
2026-01-13 04:28:41.49	325.34	9.90	-34.0	-34.8	24.1	0.00e+00	0	27	0	3473932288	40	6277
2026-01-13 04:28:45.52	325.83	9.65	-34.1	-34.7	24.0	0.00e+00	0	27	0	3495952384	40	6238
2026-01-13 04:28:49.56	326.31	9.40	-34.3	-35.1	23.8	0.00e+00	0	27	0	3519021056	40	6509
2026-01-13 04:28:53.59	326.78	9.14	-34.3	-35.0	23.8	0.00e+00	0	27	0	3542089728	40	6417
2026-01-13 04:28:57.63	327.24	8.89	-34.2	-34.9	23.9	0.00e+00	0	27	0	3565158400	40	6359
2026-01-13 04:29:01.67	327.70	8.64	-34.4	-35.1	23.7	0.00e+00	0	27	0	3587178496	40	6465
2026-01-13 04:29:05.71	328.15	8.39	-34.5	-35.1	23.7	0.00e+00	0	27	0	3610247168	40	6508
2026-01-13 04:29:09.74	328.59	8.14	-34.5	-35.4	23.5	0.00e+00	0	27	0	3632267264	40	6694
2026-01-13 04:29:13.78	329.02	7.90	-34.5	-35.2	23.5	0.00e+00	0	27	0	3655335936	40	6551
2026-01-13 04:29:17.82	329.45	7.65	-34.4	-35.1	23.6	0.00e+00	0	27	0	3678404608	40	6475
2026-01-13 04:29:21.86	329.87	7.40	-34.5	-35.1	23.5	0.00e+00	0	27	0	3700424704	40	6536
2026-01-13 04:29:25.89	330.28	7.16	-34.8	-35.5	23.1	0.00e+00	0	27	0	3723493376	40	6774
2026-01-13 04:29:29.93	330.69	6.92	-35.0	-35.7	23.0	0.00e+00	0	27	0	3746562048	42	6179
2026-01-13 04:29:33.97	331.09	6.67	-35.0	-35.7	22.9	0.00e+00	0	27	0	3768582144	42	6207
2026-01-13 04:29:38.01	331.48	6.43	-35.1	-35.8	22.8	0.00e+00	0	27	0	3791650816	42	6269
2026-01-13 04:29:42.05	331.87	6.19	-35.4	-36.2	22.4	0.00e+00	0	27	0	3814719488	42	6549
2026-01-13 04:29:46.09	332.25	5.96	-35.4	-36.3	22.3	0.00e+00	0	27	0	3836739584	42	6627
2026-01-13 04:29:50.13	332.63	5.72	-35.8	-36.5	21.6	0.00e+00	0	27	0	3859808256	44	6091
2026-01-13 04:29:54.17	333.00	5.48	-36.5	-37.4	20.3	0.00e+00	0	27	0	3882876928	44	6747
2026-01-13 04:29:58.20	333.36	5.25	-38.6	-40.0	16.9	0.00e+00	0	27	0	3904897024	48	7171
2026-01-13 04:30:02.24	333.72	5.01	-40.9	-43.3	12.3	1.35e-04	0	27	0	3927965696	54	7483
2026-01-13 04:30:06.29	334.08	4.78	-42.6	-47.1	6.8	1.29e-01	0	27	0	3951034368	56	10294
2026-01-13 04:30:10.32	334.42	4.55	-43.2	-49.8	4.2	7.98e-01	0	27	0	3962568704	58	12556
2026-01-13 04:30:14.36	334.77	4.32	-43.4	-53.2	3.7	8.44e-01	0	27	104	3962568704	58	18540
2026-01-13 04:30:18.40	335.11	4.09	-43.5	-54.4	3.6	8.45e-01	0	27	104	3962568704	58	21235
2026-01-13 04:30:22.44	335.44	3.86	-43.7	-55.5	3.6	8.45e-01	0	27	104	3962568704	58	24021
2026-01-13 04:30:26.48	335.77	3.64	-43.7	-55.5	3.6	8.45e-01	0	27	104	3962568704	58	24156
2026-01-13 04:30:30.51	336.09	3.41	-43.6	-55.7	3.6	8.45e-01	0	27	104	3962568704	58	24655
2026-01-13 04:30:34.55	336.41	3.19	-43.7	-55.7	3.6	8.45e-01	0	27	104	3962568704	58	24708
2026-01-13 04:30:38.59	336.73	2.96	-47.6	-59.7	3.6	8.46e-01	0	27	104	3962568704	60	34907
2026-01-13 04:30:42.62	337.04	2.74	-48.7	-60.8	3.6	8.46e-01	0	27	104	3962568704	60	39621
2026-01-13 04:30:46.66	337.34	2.52	-48.8	-61.0	3.6	8.47e-01	0	27	104	3962568704	60	40396
2026-01-13 04:30:50.70	337.64	2.30	-48.7	-60.8	3.6	8.45e-01	0	27	104	3962568704	60	39415
2026-01-13 04:30:54.74	337.94	2.08	-48.8	-60.9	3.6	8.46e-01	0	27	104	3962568704	60	39881
2026-01-13 04:30:58.78	338.24	1.86	-48.7	-60.9	3.6	8.45e-01	0	27	104	3962568704	60	39894
2026-01-13 04:31:02.82	338.53	1.65	-48.7	-60.8	3.6	8.46e-01	0	27	104	3962568704	60	39667
2026-01-13 04:31:06.85	338.81	1.43	-48.7	-60.7	3.6	8.45e-01	0	27	104	3962568704	60	39373
2026-01-13 04:31:10.89	339.09	1.22	-48.7	-60.8	3.6	8.44e-01	0	27	104	3962568704	60	39743
2026-01-13 04:31:14.93	339.37	1.01	-48.7	-60.9	3.6	8.45e-01	0	27	104	3962568704	60	39863
2026-01-13 04:31:18.97	339.65	0.79	-48.7	-60.8	3.6	8.45e-01	0	27	104	3962568704	60	39593
2026-01-13 04:31:23.01	339.92	0.58	-48.7	-60.8	3.6	8.45e-01	0	27	104	3962568704	60	39836
2026-01-13 04:31:27.04	340.19	0.37	-48.7	-60.8	3.6	8.45e-01	0	27	104	3962568704	60	39658
2026-01-13 04:31:31.08	340.45	0.16	-48.6	-60.8	3.6	8.45e-01	0	27	104	3962568704	60	39568
2026-01-13 04:31:35.12	340.71	-0.05	-48.7	-60.9	3.6	8.46e-01	0	27	104	3962568704	60	39866

#Closed at: 2026-01-13 04:31:35
#Recorded file [3962 MB]: D:/lorett/data/35029_260113_161731.dat