passes_logs/2026/01/13/R4.6S_Anadyr/R4.6S_Anadyr__20260113_233715_SUOMI_NPP_rec.log

#Pass ID: 20260113_233715_SUOMI NPP
#Satellite: SUOMI NPP
#Configuration: NPP
#almurnet v.1.7.20251203
#Start time: 2026-01-13 23:37:16

#Version: 2.2.20231116
#Station: R4.6S_Anadyr
#Location: 177.4865 lon 64.73178 lat
#TLE: 1 37849U 11061A   26013.55331121  .00000059  00000+0  48721-4 0  9992
#TLE: 2 37849  98.7808 315.6144 0002478  66.1553 293.9883 14.19524925736509

#Time	Az	El	Level	Level2	SNR	BER	BlckErr	Temp	State	Recorded	gain1	gain2
2026-01-13 23:37:16.47	139.73	0.07	-48.4	-60.9	3.4	1.52e+00	0	25	0	0	60	38907
2026-01-13 23:37:20.51	139.67	0.31	-48.7	-63.8	3.6	1.51e+00	0	26	104	0	60	56047
2026-01-13 23:37:24.55	139.61	0.56	-48.6	-63.7	3.6	1.51e+00	0	26	104	0	60	55327
2026-01-13 23:37:28.59	139.54	0.80	-48.1	-63.3	3.6	1.51e+00	0	26	104	0	60	53137
2026-01-13 23:37:32.62	139.48	1.05	-47.0	-62.2	3.6	1.51e+00	0	26	104	0	60	46411
2026-01-13 23:37:36.67	139.41	1.30	-46.9	-62.0	3.6	1.51e+00	0	26	104	0	60	45678
2026-01-13 23:37:40.70	139.34	1.55	-46.8	-62.0	3.6	1.51e+00	0	26	104	0	60	45353
2026-01-13 23:37:44.73	139.28	1.81	-46.8	-61.6	3.6	1.51e+00	0	26	104	0	60	43430
2026-01-13 23:37:48.77	139.20	2.07	-46.8	-61.7	3.6	1.51e+00	0	26	104	0	60	44177
2026-01-13 23:37:52.81	139.13	2.32	-46.8	-61.9	3.6	1.51e+00	0	26	104	0	60	44782
2026-01-13 23:37:56.85	139.06	2.59	-46.8	-61.7	3.6	1.51e+00	0	26	104	0	60	43937
2026-01-13 23:38:00.89	138.98	2.85	-46.7	-61.8	3.6	1.51e+00	0	26	104	0	60	44228
2026-01-13 23:38:04.93	138.91	3.12	-46.5	-58.6	4.0	1.49e+00	0	26	104	0	60	30923
2026-01-13 23:38:08.97	138.83	3.39	-44.7	-48.9	11.8	2.08e-03	91	26	0	6291456	60	10093
2026-01-13 23:38:13.01	138.75	3.66	-42.8	-45.3	15.6	0.00e+00	92	26	0	13631488	60	6670
2026-01-13 23:38:17.05	138.67	3.93	-46.9	-61.5	3.6	6.80e-01	0	26	104	16777216	60	42890
2026-01-13 23:38:21.09	138.58	4.21	-41.0	-42.7	18.2	0.00e+00	0	26	0	22020096	54	6990
2026-01-13 23:38:25.13	138.50	4.49	-40.2	-41.8	19.1	0.00e+00	90	27	0	29360128	54	6247
2026-01-13 23:38:29.16	138.41	4.77	-39.3	-40.6	20.1	0.00e+00	92	27	0	36700160	52	6161
2026-01-13 23:38:33.20	138.32	5.06	-38.9	-40.1	20.6	0.00e+00	0	26	0	45088768	52	5799
2026-01-13 23:38:37.24	138.23	5.34	-38.7	-39.8	20.9	0.00e+00	0	26	0	52428800	50	6308
2026-01-13 23:38:41.28	138.13	5.64	-39.0	-40.2	20.6	0.00e+00	92	26	0	59768832	50	6592
2026-01-13 23:38:45.32	138.04	5.93	-38.6	-39.7	21.1	0.00e+00	91	26	0	67108864	50	6237
2026-01-13 23:38:49.36	137.94	6.23	-38.1	-39.2	21.6	0.00e+00	0	27	0	75497472	50	5892
2026-01-13 23:38:53.40	137.84	6.53	-37.6	-38.6	22.2	0.00e+00	92	27	0	82837504	48	6146
2026-01-13 23:38:57.44	137.74	6.84	-37.6	-38.7	22.0	0.00e+00	92	27	0	90177536	48	6174
2026-01-13 23:39:01.48	137.63	7.15	-37.7	-38.8	22.1	0.00e+00	90	27	0	97517568	48	6251
2026-01-13 23:39:05.52	137.53	7.46	-37.5	-38.5	22.3	0.00e+00	0	27	0	104857600	48	6091
2026-01-13 23:39:09.56	137.42	7.77	-37.2	-38.2	22.7	0.00e+00	92	27	0	113246208	48	5832
2026-01-13 23:39:13.60	137.30	8.09	-37.0	-37.9	22.8	0.00e+00	90	27	0	120586240	48	5655
2026-01-13 23:39:17.64	137.19	8.42	-37.2	-38.1	22.7	0.00e+00	0	27	0	127926272	48	5812
2026-01-13 23:39:21.68	137.07	8.75	-37.3	-38.3	22.7	0.00e+00	0	27	0	135266304	48	5902
2026-01-13 23:39:25.72	136.95	9.08	-37.1	-38.0	22.9	0.00e+00	92	27	0	143654912	48	5752
2026-01-13 23:39:29.76	136.82	9.41	-37.1	-38.1	22.9	0.00e+00	92	27	0	150994944	48	5766
2026-01-13 23:39:33.79	136.69	9.76	-36.9	-37.9	23.0	0.00e+00	0	27	0	158334976	48	5643
2026-01-13 23:39:37.83	136.56	10.10	-37.0	-37.9	23.1	0.00e+00	49	27	0	165675008	48	5677
2026-01-13 23:39:41.87	136.43	10.45	-36.9	-37.8	23.1	0.00e+00	92	27	0	173015040	48	5604
2026-01-13 23:39:45.90	136.29	10.81	-36.9	-37.8	23.1	0.00e+00	92	27	0	181403648	46	6317
2026-01-13 23:39:49.94	136.15	11.17	-36.7	-37.7	23.2	0.00e+00	0	27	0	188743680	46	6181
2026-01-13 23:39:53.98	136.00	11.53	-36.6	-37.5	23.4	0.00e+00	92	27	0	196083712	46	6071
2026-01-13 23:39:58.02	135.85	11.90	-36.6	-37.5	23.3	0.00e+00	92	27	0	203423744	46	6072
2026-01-13 23:40:02.06	135.70	12.28	-36.5	-37.4	22.9	0.00e+00	0	27	0	211812352	46	6003
2026-01-13 23:40:06.10	135.54	12.66	-36.5	-37.4	23.4	0.00e+00	0	27	0	219152384	46	5996
2026-01-13 23:40:10.14	135.38	13.05	-36.5	-37.4	23.6	0.00e+00	92	27	0	226492416	46	5977
2026-01-13 23:40:14.18	135.21	13.44	-36.4	-37.3	23.6	0.00e+00	92	27	0	233832448	46	5925
2026-01-13 23:40:18.21	135.04	13.84	-36.4	-37.3	23.7	0.00e+00	33	27	0	241172480	46	5952
2026-01-13 23:40:22.25	134.86	14.25	-36.2	-37.1	23.8	0.00e+00	51	27	0	249561088	46	5762
2026-01-13 23:40:26.29	134.68	14.66	-36.0	-36.9	23.9	0.00e+00	92	27	0	256901120	46	5636
2026-01-13 23:40:30.33	134.49	15.08	-36.1	-37.0	23.9	0.00e+00	92	27	0	264241152	46	5741
2026-01-13 23:40:34.36	134.30	15.51	-36.1	-37.0	24.0	0.00e+00	0	27	0	271581184	46	5727
2026-01-13 23:40:38.40	134.10	15.94	-36.1	-36.9	23.9	0.00e+00	52	27	0	279969792	46	5664
2026-01-13 23:40:42.44	133.89	16.38	-36.0	-36.8	24.1	0.00e+00	92	27	0	287309824	46	5599
2026-01-13 23:40:46.48	133.68	16.83	-36.1	-37.0	23.9	0.00e+00	91	27	0	294649856	46	5726
2026-01-13 23:40:50.52	133.46	17.29	-35.9	-36.8	24.1	0.00e+00	0	27	0	301989888	46	5581
2026-01-13 23:40:54.56	133.23	17.76	-35.9	-36.8	24.1	0.00e+00	90	27	0	309329920	46	5579
2026-01-13 23:40:58.60	133.00	18.23	-36.0	-36.9	24.0	0.00e+00	92	27	0	317718528	46	5661
2026-01-13 23:41:02.64	132.75	18.71	-36.4	-37.3	23.8	0.00e+00	0	27	0	325058560	46	5903
2026-01-13 23:41:06.67	132.50	19.20	-36.1	-36.9	24.1	0.00e+00	0	27	0	332398592	46	5667
2026-01-13 23:41:10.71	132.25	19.71	-36.3	-37.2	23.9	0.00e+00	92	27	0	339738624	46	5831
2026-01-13 23:41:14.75	131.98	20.22	-36.2	-37.0	23.9	0.00e+00	90	27	0	348127232	46	5739
2026-01-13 23:41:18.79	131.70	20.74	-36.2	-37.1	24.0	0.00e+00	0	27	0	355467264	46	5771
2026-01-13 23:41:22.83	131.41	21.27	-36.7	-37.6	23.4	0.00e+00	92	27	0	362807296	46	6163
2026-01-13 23:41:26.87	131.11	21.81	-36.7	-37.6	23.6	0.00e+00	92	27	0	370147328	46	6138
2026-01-13 23:41:30.91	130.80	22.36	-36.5	-37.4	23.7	0.00e+00	92	27	0	377487360	46	5984
2026-01-13 23:41:34.94	130.48	22.92	-37.0	-37.9	23.3	0.00e+00	0	27	0	385875968	46	6378
2026-01-13 23:41:38.98	130.15	23.50	-37.3	-38.2	23.2	0.00e+00	90	27	0	393216000	46	6581
2026-01-13 23:41:43.02	129.80	24.09	-38.3	-39.3	22.4	0.00e+00	91	27	0	400556032	48	6663
2026-01-13 23:41:47.06	129.44	24.69	-38.1	-39.1	22.5	0.00e+00	43	27	0	407896064	48	6517
2026-01-13 23:41:51.09	129.07	25.30	-37.8	-38.8	22.8	0.00e+00	0	27	0	416284672	48	6254
2026-01-13 23:41:55.13	128.67	25.92	-37.7	-38.7	22.7	0.00e+00	92	27	0	423624704	48	6192
2026-01-13 23:41:59.16	128.27	26.56	-37.8	-38.8	22.8	0.00e+00	92	27	0	430964736	48	6256
2026-01-13 23:42:03.19	127.85	27.21	-38.4	-39.4	22.3	0.00e+00	0	27	0	438304768	48	6764
2026-01-13 23:42:07.23	127.40	27.87	-38.4	-39.4	22.3	0.00e+00	55	27	0	445644800	50	6004
2026-01-13 23:42:11.27	126.94	28.55	-38.6	-39.6	22.1	0.00e+00	80	27	0	454033408	50	6143
2026-01-13 23:42:15.31	126.46	29.25	-39.5	-40.6	21.3	0.00e+00	92	27	0	461373440	50	6900
2026-01-13 23:42:19.35	125.95	29.96	-39.5	-40.6	21.3	0.00e+00	0	27	0	468713472	50	6920
2026-01-13 23:42:23.39	125.42	30.68	-39.0	-40.1	21.8	0.00e+00	92	27	0	476053504	50	6484
2026-01-13 23:42:27.42	124.87	31.42	-38.6	-39.7	22.1	0.00e+00	78	27	0	484442112	50	6205
2026-01-13 23:42:31.47	124.29	32.18	-38.5	-39.5	22.2	0.00e+00	0	27	0	491782144	50	6069
2026-01-13 23:42:35.50	123.68	32.95	-38.5	-39.5	22.4	0.00e+00	0	27	0	499122176	48	6832
2026-01-13 23:42:39.54	123.05	33.74	-39.9	-41.1	21.2	0.00e+00	92	27	0	506462208	52	6531
2026-01-13 23:42:43.58	122.37	34.54	-39.2	-40.3	21.9	0.00e+00	92	27	0	513802240	50	6638
2026-01-13 23:42:47.61	121.67	35.36	-40.7	-42.1	20.2	0.00e+00	0	27	0	522190848	54	6492
2026-01-13 23:42:51.65	120.93	36.20	-40.5	-41.9	20.3	0.00e+00	52	27	0	529530880	52	7137
2026-01-13 23:42:55.70	120.14	37.06	-41.9	-43.7	18.5	0.00e+00	52	27	0	536870912	56	6965
2026-01-13 23:42:59.74	119.31	37.93	-40.3	-41.7	20.6	0.00e+00	92	27	0	544210944	54	6196
2026-01-13 23:43:03.78	118.44	38.81	-39.2	-40.3	21.0	0.00e+00	0	27	0	552599552	50	6687
2026-01-13 23:43:07.81	117.52	39.71	-40.5	-41.9	20.2	0.00e+00	92	27	0	559939584	52	7157
2026-01-13 23:43:11.86	116.54	40.63	-40.7	-42.1	20.0	0.00e+00	92	27	0	567279616	54	6472
2026-01-13 23:43:15.90	115.50	41.56	-41.5	-43.1	18.9	0.00e+00	0	27	0	574619648	54	7315
2026-01-13 23:43:19.94	114.41	42.50	-41.1	-42.5	19.7	0.00e+00	0	27	0	581959680	56	6093
2026-01-13 23:43:23.98	113.24	43.45	-40.2	-41.5	20.6	0.00e+00	90	27	0	590348288	54	6052
2026-01-13 23:43:28.02	112.01	44.41	-39.8	-41.0	21.0	0.00e+00	92	27	0	597688320	54	5747
2026-01-13 23:43:32.06	110.69	45.38	-39.2	-40.3	21.6	0.00e+00	0	27	0	605028352	50	6635
2026-01-13 23:43:36.10	109.29	46.36	-39.1	-40.2	21.5	0.00e+00	0	27	0	612368384	50	6554
2026-01-13 23:43:40.14	107.81	47.33	-39.3	-40.5	21.4	0.00e+00	53	27	0	620756992	52	6045
2026-01-13 23:43:44.18	106.22	48.31	-39.7	-40.9	21.1	0.00e+00	92	27	0	628097024	50	7102
2026-01-13 23:43:48.22	104.53	49.29	-39.9	-41.1	20.8	0.00e+00	0	27	0	635437056	52	6513
2026-01-13 23:43:52.26	102.73	50.25	-39.0	-40.2	22.0	0.00e+00	54	27	0	642777088	52	5853
2026-01-13 23:43:56.30	100.81	51.21	-37.8	-38.8	22.8	0.00e+00	92	27	0	650117120	48	6275
2026-01-13 23:44:00.34	98.76	52.15	-37.6	-38.6	22.7	0.00e+00	58	27	0	658505728	48	6170
2026-01-13 23:44:04.38	96.59	53.06	-36.6	-37.5	23.8	0.00e+00	0	27	0	665845760	48	5403
2026-01-13 23:44:08.42	94.27	53.95	-37.7	-38.7	22.3	0.00e+00	92	27	0	673185792	46	6992
2026-01-13 23:44:12.46	91.81	54.80	-37.8	-38.8	22.8	0.00e+00	92	27	0	680525824	48	6286
2026-01-13 23:44:16.50	89.20	55.60	-36.2	-37.1	24.0	0.00e+00	0	27	0	688914432	46	5774
2026-01-13 23:44:20.54	86.44	56.36	-37.0	-38.0	23.6	0.00e+00	0	27	0	696254464	46	6392
2026-01-13 23:44:24.58	83.53	57.06	-38.5	-39.7	22.0	0.00e+00	75	27	0	703594496	48	6968
2026-01-13 23:44:28.62	80.48	57.69	-37.6	-38.6	23.0	0.00e+00	91	27	0	710934528	48	6110
2026-01-13 23:44:32.65	77.30	58.24	-37.0	-37.9	23.4	0.00e+00	0	27	0	718274560	48	5687
2026-01-13 23:44:36.69	73.98	58.71	-35.6	-36.4	24.5	0.00e+00	54	27	0	726663168	44	5996
2026-01-13 23:44:40.73	70.56	59.10	-38.0	-39.1	22.5	0.00e+00	92	27	0	734003200	48	6503
2026-01-13 23:44:44.77	67.04	59.39	-35.9	-36.7	24.3	0.00e+00	45	27	0	741343232	46	5544
2026-01-13 23:44:48.81	63.47	59.58	-35.0	-35.8	25.1	0.00e+00	0	27	0	748683264	44	5607
2026-01-13 23:44:52.85	59.85	59.67	-34.1	-34.8	25.7	0.00e+00	92	27	0	757071872	42	5576
2026-01-13 23:44:56.89	56.22	59.65	-35.7	-36.5	24.5	0.00e+00	82	27	0	764411904	44	6091
2026-01-13 23:45:00.93	52.62	59.53	-34.9	-35.7	24.6	0.00e+00	0	27	0	771751936	42	6200
2026-01-13 23:45:04.97	49.06	59.30	-34.6	-35.4	25.3	0.00e+00	0	27	0	779091968	42	5979
2026-01-13 23:45:09.00	45.58	58.98	-36.1	-37.0	24.4	0.00e+00	25	27	0	786432000	44	6436
2026-01-13 23:45:13.04	42.20	58.57	-37.0	-38.0	23.5	0.00e+00	53	27	0	794820608	46	6395
2026-01-13 23:45:17.08	38.92	58.07	-36.1	-36.9	24.2	0.00e+00	0	27	0	802160640	46	5673
2026-01-13 23:45:21.13	35.77	57.49	-35.6	-36.4	24.6	0.00e+00	9	27	0	809500672	44	5995
2026-01-13 23:45:25.17	32.77	56.84	-35.6	-36.4	24.7	0.00e+00	64	27	0	816840704	44	5971
2026-01-13 23:45:29.21	29.91	56.12	-35.1	-35.9	24.9	0.00e+00	15	27	0	825229312	42	6354
2026-01-13 23:45:33.25	27.21	55.35	-35.9	-36.8	24.4	0.00e+00	0	27	0	832569344	44	6256
2026-01-13 23:45:37.29	24.65	54.53	-36.9	-37.8	23.6	0.00e+00	77	27	0	839909376	46	6259
2026-01-13 23:45:41.33	22.24	53.67	-37.5	-38.4	23.1	0.00e+00	92	27	0	847249408	46	6763
2026-01-13 23:45:45.37	19.98	52.78	-36.8	-37.8	23.7	0.00e+00	0	27	0	854589440	48	5569
2026-01-13 23:45:49.41	17.85	51.86	-36.6	-37.6	23.5	0.00e+00	0	27	0	862978048	46	6108
2026-01-13 23:45:53.45	15.85	50.91	-35.6	-36.4	24.5	0.00e+00	51	27	0	870318080	44	5971
2026-01-13 23:45:57.49	13.97	49.96	-38.5	-39.5	22.3	0.00e+00	92	27	0	877658112	50	6096
2026-01-13 23:46:01.53	12.21	48.99	-38.9	-39.9	21.8	0.00e+00	0	27	0	884998144	50	6358
2026-01-13 23:46:05.56	10.56	48.02	-40.3	-41.6	20.5	0.00e+00	33	27	0	893386752	54	6145
2026-01-13 23:46:09.60	9.01	47.04	-38.8	-39.9	21.7	0.00e+00	51	27	0	900726784	50	6372
2026-01-13 23:46:13.64	7.55	46.07	-38.5	-39.5	22.6	0.00e+00	0	27	0	908066816	50	6092
2026-01-13 23:46:17.68	6.19	45.10	-38.9	-40.1	21.8	0.00e+00	0	27	0	915406848	50	6469
2026-01-13 23:46:21.73	4.90	44.13	-38.7	-39.7	22.2	0.00e+00	54	27	0	922746880	50	6237
2026-01-13 23:46:25.76	3.69	43.18	-39.1	-40.3	21.7	0.00e+00	60	27	0	931135488	50	6617
2026-01-13 23:46:29.80	2.55	42.23	-37.8	-38.8	22.9	0.00e+00	0	27	0	938475520	48	6283
2026-01-13 23:46:33.84	1.48	41.30	-39.3	-40.5	21.4	0.00e+00	0	27	0	945815552	50	6847
2026-01-13 23:46:37.88	0.46	40.38	-40.7	-42.1	20.1	0.00e+00	92	27	0	953155584	54	6502
2026-01-13 23:46:41.92	359.51	39.47	-40.7	-42.1	20.2	0.00e+00	92	27	0	961544192	54	6515
2026-01-13 23:46:45.96	358.60	38.58	-40.9	-42.4	19.9	0.00e+00	0	27	0	968884224	54	6696
2026-01-13 23:46:50.00	357.75	37.70	-39.3	-40.4	21.5	0.00e+00	0	27	0	976224256	52	6022
2026-01-13 23:46:54.04	356.94	36.84	-42.0	-43.7	18.7	0.00e+00	18	27	0	983564288	56	6985
2026-01-13 23:46:58.08	356.17	35.99	-42.4	-44.5	17.8	0.00e+00	0	27	0	991952896	56	7609
2026-01-13 23:47:02.12	355.44	35.16	-40.3	-41.7	20.4	0.00e+00	0	27	0	999292928	54	6226
2026-01-13 23:47:06.16	354.75	34.35	-42.1	-44.0	19.0	0.00e+00	54	27	0	1006632960	56	7234
2026-01-13 23:47:10.20	354.09	33.55	-41.7	-43.5	18.7	0.00e+00	90	27	0	1013972992	56	6793
2026-01-13 23:47:14.24	353.46	32.77	-40.2	-41.6	20.6	0.00e+00	0	27	0	1021313024	54	6124
2026-01-13 23:47:18.28	352.86	32.01	-40.5	-41.9	20.3	0.00e+00	0	27	0	1029701632	52	7127
2026-01-13 23:47:22.32	352.29	31.26	-39.5	-40.7	21.3	0.00e+00	91	27	0	1037041664	52	6210
2026-01-13 23:47:26.35	351.75	30.53	-40.2	-41.5	20.4	0.00e+00	0	27	0	1044381696	54	6103
2026-01-13 23:47:30.39	351.23	29.81	-37.1	-38.0	23.5	0.00e+00	0	27	0	1051721728	48	5719
2026-01-13 23:47:34.43	350.74	29.11	-38.1	-39.1	22.5	0.00e+00	17	27	0	1060110336	48	6502
2026-01-13 23:47:38.47	350.26	28.42	-37.8	-38.8	22.7	0.00e+00	91	27	0	1067450368	48	6299
2026-01-13 23:47:42.51	349.81	27.75	-40.5	-41.9	20.1	0.00e+00	0	27	0	1074790400	52	7150
2026-01-13 23:47:46.55	349.38	27.09	-40.4	-41.7	20.6	0.00e+00	0	27	0	1082130432	54	6227
2026-01-13 23:47:50.59	348.96	26.44	-39.6	-40.8	21.2	0.00e+00	28	27	0	1089470464	52	6268
2026-01-13 23:47:54.63	348.56	25.81	-38.3	-39.4	22.3	0.00e+00	0	27	0	1097859072	50	5974
2026-01-13 23:47:58.68	348.18	25.19	-38.0	-39.0	22.6	0.00e+00	0	27	0	1105199104	50	5708
2026-01-13 23:48:02.71	347.81	24.59	-39.0	-40.2	21.7	0.00e+00	0	27	0	1112539136	50	6571
2026-01-13 23:48:06.75	347.45	23.99	-38.5	-39.6	22.1	0.00e+00	47	27	0	1119879168	50	6145
2026-01-13 23:48:10.79	347.11	23.41	-38.3	-39.3	22.3	0.00e+00	0	27	0	1128267776	48	6677
2026-01-13 23:48:14.83	346.79	22.84	-40.5	-42.0	20.1	0.00e+00	0	27	0	1135607808	52	7198
2026-01-13 23:48:18.87	346.47	22.28	-40.8	-42.3	19.7	0.00e+00	0	27	0	1142947840	54	6651
2026-01-13 23:48:22.91	346.17	21.74	-38.4	-39.4	22.3	0.00e+00	66	27	0	1150287872	50	6032
2026-01-13 23:48:26.94	345.87	21.20	-37.4	-38.3	23.1	0.00e+00	0	27	0	1157627904	48	5951
2026-01-13 23:48:30.98	345.59	20.68	-37.3	-38.2	23.2	0.00e+00	0	27	0	1166016512	48	5856
2026-01-13 23:48:35.01	345.32	20.16	-37.2	-38.1	23.2	0.00e+00	0	27	0	1173356544	48	5795
2026-01-13 23:48:39.05	345.06	19.65	-37.5	-38.5	22.9	0.00e+00	36	27	0	1180696576	48	6069
2026-01-13 23:48:43.09	344.80	19.16	-38.5	-39.5	22.0	0.00e+00	0	27	0	1188036608	48	6842
2026-01-13 23:48:47.13	344.56	18.67	-38.3	-39.4	22.2	0.00e+00	0	27	0	1196425216	48	6724
2026-01-13 23:48:51.17	344.32	18.19	-38.5	-39.6	22.0	0.00e+00	47	27	0	1203765248	48	6880
2026-01-13 23:48:55.21	344.09	17.72	-39.2	-40.3	21.3	0.00e+00	0	27	0	1211105280	50	6672
2026-01-13 23:48:59.25	343.87	17.26	-40.3	-41.6	20.2	0.00e+00	0	27	0	1218445312	52	6892
2026-01-13 23:49:03.29	343.65	16.81	-39.8	-41.1	20.7	0.00e+00	0	27	0	1225785344	52	6475
2026-01-13 23:49:07.33	343.44	16.36	-38.5	-39.6	21.9	0.00e+00	88	27	0	1234173952	50	6124
2026-01-13 23:49:11.37	343.24	15.92	-37.8	-38.7	22.6	0.00e+00	0	27	0	1241513984	48	6224
2026-01-13 23:49:15.42	343.05	15.49	-37.6	-38.6	22.6	0.00e+00	0	27	0	1248854016	48	6155
2026-01-13 23:49:19.46	342.86	15.07	-38.1	-39.1	22.2	0.00e+00	0	27	0	1256194048	48	6533
2026-01-13 23:49:23.50	342.67	14.65	-38.7	-39.8	21.7	0.00e+00	66	27	0	1264582656	48	7046
2026-01-13 23:49:27.54	342.49	14.24	-39.5	-40.7	20.8	0.00e+00	0	27	0	1271922688	50	6972
2026-01-13 23:49:31.58	342.32	13.84	-39.2	-40.4	21.2	0.00e+00	0	27	0	1279262720	50	6723
2026-01-13 23:49:35.62	342.15	13.44	-39.1	-40.3	21.2	0.00e+00	45	27	0	1286602752	50	6645
2026-01-13 23:49:39.66	341.99	13.05	-38.7	-39.9	21.5	0.00e+00	0	27	0	1293942784	50	6326
2026-01-13 23:49:43.70	341.83	12.66	-39.0	-40.2	21.2	0.00e+00	0	27	0	1302331392	50	6545
2026-01-13 23:49:47.74	341.68	12.28	-38.8	-40.0	21.4	0.00e+00	0	27	0	1309671424	50	6407
2026-01-13 23:49:51.78	341.53	11.91	-39.2	-40.4	21.1	0.00e+00	44	27	0	1317011456	50	6700
2026-01-13 23:49:55.82	341.38	11.54	-39.6	-40.8	20.7	0.00e+00	0	27	0	1324351488	50	7079
2026-01-13 23:49:59.85	341.24	11.18	-39.5	-40.8	20.7	0.00e+00	0	27	0	1332740096	52	6247
2026-01-13 23:50:03.89	341.10	10.82	-39.8	-41.1	20.5	0.00e+00	0	27	0	1340080128	52	6488
2026-01-13 23:50:07.93	340.97	10.47	-39.5	-40.8	20.6	0.00e+00	74	27	0	1347420160	52	6267
2026-01-13 23:50:11.96	340.84	10.12	-39.6	-40.9	20.6	0.00e+00	0	27	0	1354760192	52	6342
2026-01-13 23:50:16.00	340.71	9.78	-39.7	-41.0	20.5	0.00e+00	0	27	0	1362100224	52	6423
2026-01-13 23:50:20.04	340.59	9.44	-39.7	-41.0	20.4	0.00e+00	8	27	0	1370488832	52	6395
2026-01-13 23:50:24.08	340.47	9.10	-39.5	-40.8	20.7	0.00e+00	68	27	0	1377828864	52	6283
2026-01-13 23:50:28.12	340.35	8.77	-39.7	-41.0	20.4	0.00e+00	0	27	0	1385168896	52	6410
2026-01-13 23:50:32.16	340.23	8.45	-39.9	-41.2	20.1	0.00e+00	0	27	0	1392508928	52	6614
2026-01-13 23:50:36.20	340.12	8.13	-40.1	-41.5	19.9	0.00e+00	92	27	0	1400897536	52	6802
2026-01-13 23:50:40.24	340.01	7.81	-40.4	-41.9	19.5	0.00e+00	0	27	0	1408237568	52	7151
2026-01-13 23:50:44.27	339.91	7.49	-40.4	-41.9	19.5	0.00e+00	0	27	0	1415577600	52	7134
2026-01-13 23:50:48.32	339.80	7.18	-40.7	-42.2	19.2	0.00e+00	0	27	0	1422917632	54	6614
2026-01-13 23:50:52.35	339.70	6.88	-40.8	-42.4	18.8	0.00e+00	55	27	0	1430257664	54	6695
2026-01-13 23:50:56.39	339.60	6.57	-40.9	-42.5	18.8	0.00e+00	0	27	0	1438646272	54	6843
2026-01-13 23:51:00.43	339.51	6.27	-41.0	-42.7	18.5	0.00e+00	0	27	0	1445986304	54	6976
2026-01-13 23:51:04.47	339.41	5.98	-41.3	-43.1	18.0	0.00e+00	0	27	0	1453326336	54	7336
2026-01-13 23:51:08.51	339.32	5.68	-41.7	-43.8	17.4	0.00e+00	63	27	0	1460666368	56	7030
2026-01-13 23:51:12.55	339.23	5.39	-42.1	-44.5	16.1	0.00e+00	0	27	0	1469054976	56	7668
2026-01-13 23:51:16.59	339.14	5.11	-42.7	-45.9	13.9	2.20e-06	0	27	0	1476395008	56	8995
2026-01-13 23:51:20.63	339.06	4.82	-43.2	-47.9	10.8	1.19e-03	35	27	0	1483735040	58	10106
2026-01-13 23:51:24.67	338.98	4.54	-43.6	-50.2	7.6	6.08e-02	0	27	0	1491075072	58	13139
2026-01-13 23:51:28.71	338.89	4.26	-43.7	-52.5	4.7	5.92e-01	0	27	0	1498415104	58	17118
2026-01-13 23:51:32.74	338.81	3.99	-43.6	-56.6	3.6	1.47e+00	0	27	104	1502609408	58	27434
2026-01-13 23:51:36.78	338.74	3.71	-43.5	-57.8	3.6	1.51e+00	0	27	104	1502609408	58	31609
2026-01-13 23:51:40.82	338.66	3.44	-43.6	-58.5	3.6	1.51e+00	0	27	104	1502609408	58	34261
2026-01-13 23:51:44.85	338.59	3.18	-43.6	-58.7	3.6	1.51e+00	0	27	104	1502609408	58	34757
2026-01-13 23:51:48.89	338.51	2.91	-47.6	-62.7	3.6	1.51e+00	0	27	104	1502609408	60	49444
2026-01-13 23:51:52.93	338.44	2.65	-48.5	-63.7	3.6	1.51e+00	0	27	104	1502609408	60	55243
2026-01-13 23:51:56.97	338.37	2.39	-48.5	-63.7	3.6	1.51e+00	0	27	104	1502609408	60	55456
2026-01-13 23:52:01.01	338.30	2.13	-48.4	-63.6	3.6	1.51e+00	0	27	104	1502609408	60	54554
2026-01-13 23:52:05.05	338.24	1.87	-48.6	-63.7	3.6	1.51e+00	0	27	104	1502609408	60	55319
2026-01-13 23:52:09.09	338.17	1.62	-48.5	-63.7	3.6	1.51e+00	0	27	104	1502609408	60	55095
2026-01-13 23:52:13.12	338.11	1.37	-48.5	-63.6	3.6	1.51e+00	0	27	104	1502609408	60	54873
2026-01-13 23:52:17.16	338.05	1.12	-48.5	-63.6	3.6	1.51e+00	0	27	104	1502609408	60	54830
2026-01-13 23:52:21.19	337.99	0.87	-48.5	-63.6	3.6	1.51e+00	0	27	104	1502609408	60	54971
2026-01-13 23:52:25.23	337.93	0.63	-48.4	-63.6	3.6	1.51e+00	0	27	104	1502609408	60	54422
2026-01-13 23:52:29.28	337.87	0.39	-48.4	-63.6	3.6	1.51e+00	0	27	104	1502609408	60	54837
2026-01-13 23:52:33.32	337.81	0.14	-48.4	-63.6	3.6	1.51e+00	0	27	104	1502609408	60	54802

#Closed at: 2026-01-13 23:52:37
#Recorded file [1502 MB]: D:/lorett/data/35029_260114_113716.dat