passes_logs/2026/01/13/R4.6S_Anadyr/R4.6S_Anadyr__20260113_140226_NOAA_20_JPSS-1_rec.log

#Pass ID: 20260113_140226_NOAA 20 (JPSS-1)
#Satellite: NOAA 20 (JPSS-1)
#Configuration: NOAA 20
#almurnet v.1.7.20251203
#Start time: 2026-01-13 14:02:29

#Version: 2.2.20231116
#Station: R4.6S_Anadyr
#Location: 177.4865 lon 64.73178 lat
#TLE: 1 43013U 17073A   26012.29914746  .00000087  00000+0  62270-4 0  9997
#TLE: 2 43013  98.7632 313.2670 0001616  43.2193 316.9110 14.19535514422351

#Time	Az	El	Level	Level2	SNR	BER	BlckErr	Temp	State	Recorded	gain1	gain2
2026-01-13 14:02:29.67	19.44	0.17	-48.6	-62.4	3.3	1.54e+00	0	26	0	0	60	47507
2026-01-13 14:02:33.70	19.54	0.41	-48.5	-63.8	3.6	1.51e+00	0	26	104	0	60	55688
2026-01-13 14:02:37.74	19.64	0.65	-48.2	-63.4	3.6	1.51e+00	0	26	104	0	60	53208
2026-01-13 14:02:41.78	19.74	0.89	-47.4	-62.6	3.6	1.51e+00	0	27	104	0	60	48771
2026-01-13 14:02:45.82	19.85	1.13	-47.0	-62.1	3.6	1.51e+00	0	27	104	0	60	46204
2026-01-13 14:02:49.86	19.95	1.38	-47.0	-62.1	3.6	1.51e+00	0	27	104	0	60	46223
2026-01-13 14:02:53.90	20.06	1.63	-47.0	-62.1	3.6	1.51e+00	0	27	104	0	60	46288
2026-01-13 14:02:57.94	20.17	1.88	-47.0	-62.2	3.6	1.51e+00	0	27	104	0	60	46300
2026-01-13 14:03:01.98	20.28	2.13	-47.0	-61.4	3.6	1.51e+00	0	27	104	0	60	42262
2026-01-13 14:03:06.02	20.39	2.39	-46.9	-59.9	3.6	1.49e+00	0	27	104	0	60	35680
2026-01-13 14:03:10.05	20.50	2.64	-46.4	-54.2	5.7	5.47e-01	0	27	0	1048576	60	18524
2026-01-13 14:03:14.09	20.62	2.90	-43.4	-46.2	15.1	6.10e-06	0	27	0	9437184	60	7364
2026-01-13 14:03:18.13	20.74	3.16	-41.6	-43.5	17.7	0.00e+00	0	27	0	16777216	56	6797
2026-01-13 14:03:22.16	20.85	3.43	-43.4	-46.2	14.7	0.00e+00	92	27	0	24117248	58	8307
2026-01-13 14:03:26.20	20.97	3.69	-42.1	-44.1	17.6	0.00e+00	0	27	0	31457280	56	7286
2026-01-13 14:03:30.24	21.10	3.96	-43.3	-45.8	15.6	6.80e-06	0	27	0	34603008	60	7071
2026-01-13 14:03:34.27	21.22	4.23	-43.1	-45.6	15.9	0.00e+00	40	27	0	41943040	60	6902
2026-01-13 14:03:38.31	21.35	4.51	-41.8	-43.6	17.8	0.00e+00	0	27	0	50331648	56	6910
2026-01-13 14:03:42.34	21.47	4.78	-40.6	-42.2	19.3	0.00e+00	34	27	0	57671680	54	6548
2026-01-13 14:03:46.38	21.60	5.06	-40.3	-41.7	19.6	0.00e+00	0	27	0	65011712	54	6242
2026-01-13 14:03:50.42	21.74	5.35	-40.2	-41.6	19.8	0.00e+00	92	27	0	72351744	54	6133
2026-01-13 14:03:54.45	21.87	5.63	-40.5	-42.0	19.5	0.00e+00	0	27	0	80740352	54	6400
2026-01-13 14:03:58.49	22.01	5.92	-40.2	-41.6	19.9	0.00e+00	45	27	0	88080384	54	6160
2026-01-13 14:04:02.53	22.15	6.21	-40.0	-41.3	20.2	0.00e+00	0	27	0	95420416	54	5948
2026-01-13 14:04:06.56	22.29	6.51	-39.8	-41.1	20.4	0.00e+00	92	27	0	102760448	54	5815
2026-01-13 14:04:10.60	22.43	6.80	-39.7	-41.0	20.7	0.00e+00	6	27	0	110100480	52	6417
2026-01-13 14:04:14.63	22.58	7.11	-39.8	-41.1	20.5	0.00e+00	0	27	0	118489088	52	6504
2026-01-13 14:04:18.67	22.73	7.41	-39.9	-41.1	20.6	0.00e+00	6	27	0	125829120	52	6539
2026-01-13 14:04:22.71	22.88	7.72	-39.6	-40.8	20.9	0.00e+00	92	27	0	133169152	52	6261
2026-01-13 14:04:26.75	23.04	8.03	-39.3	-40.5	21.2	0.00e+00	52	27	0	140509184	52	6073
2026-01-13 14:04:30.78	23.19	8.35	-39.3	-40.5	21.3	0.00e+00	0	27	0	148897792	52	6052
2026-01-13 14:04:34.82	23.36	8.67	-39.5	-40.7	21.2	0.00e+00	2	27	0	156237824	52	6212
2026-01-13 14:04:38.86	23.52	8.99	-39.3	-40.4	21.3	0.00e+00	90	27	0	163577856	52	6008
2026-01-13 14:04:42.90	23.69	9.32	-39.1	-40.2	21.7	0.00e+00	4	27	0	170917888	52	5850
2026-01-13 14:04:46.93	23.86	9.65	-38.9	-40.0	21.8	0.00e+00	34	27	0	178257920	52	5723
2026-01-13 14:04:50.97	24.03	9.99	-38.9	-40.0	21.9	0.00e+00	0	27	0	186646528	50	6415
2026-01-13 14:04:55.00	24.21	10.33	-38.8	-39.8	21.9	0.00e+00	92	27	0	193986560	50	6310
2026-01-13 14:04:59.04	24.39	10.67	-38.7	-39.8	22.1	0.00e+00	0	27	0	201326592	50	6277
2026-01-13 14:05:03.08	24.58	11.02	-38.5	-39.5	22.4	0.00e+00	0	27	0	208666624	50	6085
2026-01-13 14:05:07.11	24.77	11.38	-38.4	-39.5	22.4	0.00e+00	0	27	0	216006656	50	6045
2026-01-13 14:05:11.15	24.96	11.74	-38.4	-39.4	22.5	0.00e+00	83	27	0	224395264	50	6002
2026-01-13 14:05:15.19	25.16	12.10	-38.5	-39.5	22.4	0.00e+00	0	27	0	231735296	50	6069
2026-01-13 14:05:19.22	25.36	12.47	-38.2	-39.2	22.7	0.00e+00	34	28	0	239075328	50	5829
2026-01-13 14:05:23.26	25.57	12.85	-38.3	-39.3	22.6	0.00e+00	56	27	0	246415360	50	5906
2026-01-13 14:05:27.30	25.78	13.23	-38.0	-38.9	23.0	0.00e+00	47	28	0	254803968	50	5694
2026-01-13 14:05:31.33	26.00	13.61	-38.0	-39.0	23.0	0.00e+00	0	28	0	262144000	50	5732
2026-01-13 14:05:35.37	26.23	14.01	-37.9	-38.8	23.1	0.00e+00	48	27	0	269484032	48	6291
2026-01-13 14:05:39.40	26.45	14.41	-37.6	-38.6	23.3	0.00e+00	92	27	0	276824064	48	6112
2026-01-13 14:05:43.44	26.69	14.81	-37.8	-38.8	23.1	0.00e+00	5	27	0	284164096	48	6276
2026-01-13 14:05:47.48	26.93	15.22	-37.5	-38.4	23.6	0.00e+00	0	28	0	292552704	48	5982
2026-01-13 14:05:51.51	27.18	15.64	-37.5	-38.4	23.5	0.00e+00	0	27	0	299892736	48	6025
2026-01-13 14:05:55.55	27.43	16.07	-37.2	-38.1	23.7	0.00e+00	92	27	0	307232768	48	5804
2026-01-13 14:05:59.59	27.69	16.50	-37.2	-38.1	23.8	0.00e+00	40	28	0	314572800	48	5788
2026-01-13 14:06:03.62	27.96	16.94	-37.0	-37.9	23.9	0.00e+00	32	27	0	322961408	48	5673
2026-01-13 14:06:07.66	28.23	17.39	-37.0	-37.9	23.9	0.00e+00	6	28	0	330301440	48	5683
2026-01-13 14:06:11.70	28.51	17.84	-36.9	-37.8	24.1	0.00e+00	92	28	0	337641472	46	6266
2026-01-13 14:06:15.74	28.80	18.30	-36.5	-37.3	24.6	0.00e+00	32	28	0	344981504	46	5947
2026-01-13 14:06:19.77	29.10	18.77	-36.7	-37.5	24.4	0.00e+00	25	28	0	352321536	46	6074
2026-01-13 14:06:23.81	29.41	19.25	-36.3	-37.1	24.7	0.00e+00	31	28	0	360710144	46	5795
2026-01-13 14:06:27.85	29.73	19.74	-36.3	-37.1	24.7	0.00e+00	92	28	0	368050176	46	5828
2026-01-13 14:06:31.88	30.05	20.24	-36.2	-37.1	24.7	0.00e+00	50	28	0	375390208	46	5766
2026-01-13 14:06:35.92	30.39	20.74	-36.3	-37.1	24.7	0.00e+00	0	27	0	382730240	46	5782
2026-01-13 14:06:39.96	30.74	21.26	-36.3	-37.1	24.8	0.00e+00	40	28	0	391118848	46	5780
2026-01-13 14:06:43.99	31.10	21.79	-36.1	-36.9	24.9	0.00e+00	91	27	0	398458880	46	5654
2026-01-13 14:06:48.03	31.47	22.32	-36.1	-36.9	24.8	0.00e+00	0	28	0	405798912	46	5684
2026-01-13 14:06:52.07	31.85	22.87	-36.1	-36.9	25.0	0.00e+00	0	27	0	413138944	46	5684
2026-01-13 14:06:56.11	32.25	23.42	-36.1	-36.9	24.9	0.00e+00	0	27	0	420478976	46	5651
2026-01-13 14:07:00.14	32.66	23.99	-36.1	-36.9	25.0	0.00e+00	92	27	0	428867584	46	5692
2026-01-13 14:07:04.18	33.09	24.57	-36.2	-37.0	24.9	0.00e+00	0	28	0	436207616	46	5735
2026-01-13 14:07:08.22	33.53	25.16	-36.4	-37.2	24.7	0.00e+00	24	28	0	443547648	46	5862
2026-01-13 14:07:12.25	33.98	25.76	-36.5	-37.4	24.6	0.00e+00	92	28	0	450887680	46	5980
2026-01-13 14:07:16.28	34.46	26.37	-37.0	-37.8	24.1	0.00e+00	20	28	0	459276288	46	6299
2026-01-13 14:07:20.32	34.95	27.00	-37.3	-38.2	23.9	0.00e+00	56	28	0	466616320	46	6545
2026-01-13 14:07:24.36	35.46	27.64	-37.6	-38.5	23.6	0.00e+00	29	28	0	473956352	48	6085
2026-01-13 14:07:28.40	35.99	28.29	-38.0	-39.0	23.2	0.00e+00	92	28	0	481296384	48	6418
2026-01-13 14:07:32.43	36.54	28.95	-38.3	-39.2	23.0	0.00e+00	0	28	0	488636416	48	6596
2026-01-13 14:07:36.47	37.12	29.63	-39.1	-40.2	21.9	0.00e+00	0	28	0	497025024	50	6556
2026-01-13 14:07:40.51	37.72	30.32	-40.0	-41.1	21.2	0.00e+00	0	28	0	504365056	52	6514
2026-01-13 14:07:44.55	38.35	31.03	-40.1	-41.3	21.2	0.00e+00	91	28	0	511705088	52	6666
2026-01-13 14:07:48.58	39.00	31.74	-39.5	-40.6	21.8	0.00e+00	29	28	0	519045120	52	6140
2026-01-13 14:07:52.62	39.68	32.47	-39.4	-40.5	21.8	0.00e+00	6	28	0	526385152	52	6084
2026-01-13 14:07:56.66	40.39	33.22	-39.1	-40.1	22.3	0.00e+00	0	28	0	534773760	52	5803
2026-01-13 14:08:00.70	41.14	33.98	-38.7	-39.6	22.6	0.00e+00	92	28	0	542113792	50	6166
2026-01-13 14:08:04.73	41.92	34.75	-38.6	-39.6	22.7	0.00e+00	25	28	0	549453824	50	6117
2026-01-13 14:08:08.77	42.74	35.54	-38.4	-39.4	22.4	0.00e+00	21	27	0	556793856	50	5984
2026-01-13 14:08:12.81	43.60	36.34	-37.8	-38.7	23.6	0.00e+00	0	28	0	565182464	50	5542
2026-01-13 14:08:16.85	44.50	37.15	-37.3	-38.2	24.0	0.00e+00	90	28	0	572522496	48	5862
2026-01-13 14:08:20.88	45.44	37.98	-37.3	-38.2	24.0	0.00e+00	52	28	0	579862528	48	5861
2026-01-13 14:08:24.92	46.44	38.81	-36.9	-37.7	24.4	0.00e+00	0	28	0	587202560	48	5554
2026-01-13 14:08:28.96	47.49	39.66	-36.9	-37.7	24.4	0.00e+00	0	28	0	594542592	48	5541
2026-01-13 14:08:32.99	48.59	40.52	-36.9	-37.7	24.4	0.00e+00	90	27	0	602931200	46	6203
2026-01-13 14:08:37.03	49.75	41.38	-37.3	-38.2	24.0	0.00e+00	0	28	0	610271232	46	6546
2026-01-13 14:08:41.07	50.97	42.26	-37.7	-38.6	23.0	0.00e+00	2	28	0	617611264	46	6900
2026-01-13 14:08:45.11	52.27	43.14	-38.0	-38.9	23.4	0.00e+00	0	28	0	624951296	48	6354
2026-01-13 14:08:49.14	53.63	44.02	-38.0	-38.9	23.4	0.00e+00	92	28	0	633339904	48	6355
2026-01-13 14:08:53.18	55.07	44.91	-39.2	-40.2	22.3	0.00e+00	54	28	0	640679936	50	6571
2026-01-13 14:08:57.21	56.59	45.79	-39.1	-40.2	22.3	0.00e+00	28	28	0	648019968	50	6572
2026-01-13 14:09:01.24	58.20	46.67	-40.8	-42.0	20.4	0.00e+00	92	28	0	655360000	54	6464
2026-01-13 14:09:05.28	59.90	47.54	-40.8	-42.1	20.4	0.00e+00	92	28	0	662700032	54	6509
2026-01-13 14:09:09.32	61.70	48.41	-41.1	-42.4	20.2	0.00e+00	59	27	0	671088640	54	6744
2026-01-13 14:09:13.35	63.59	49.26	-40.5	-41.7	20.9	0.00e+00	56	28	0	678428672	54	6227
2026-01-13 14:09:17.39	65.60	50.09	-39.7	-40.8	21.5	0.00e+00	92	28	0	685768704	52	6304
2026-01-13 14:09:21.43	67.71	50.89	-38.5	-39.5	22.6	0.00e+00	40	28	0	693108736	50	6048
2026-01-13 14:09:25.46	69.94	51.67	-37.5	-38.4	23.9	0.00e+00	0	28	0	700448768	48	6004
2026-01-13 14:09:29.50	72.28	52.41	-37.3	-38.2	24.1	0.00e+00	0	28	0	708837376	48	5844
2026-01-13 14:09:33.53	74.74	53.12	-37.3	-38.2	24.0	0.00e+00	90	28	0	716177408	48	5831
2026-01-13 14:09:37.57	77.32	53.77	-36.5	-37.3	24.8	0.00e+00	0	28	0	723517440	46	5947
2026-01-13 14:09:41.61	80.02	54.38	-36.6	-37.4	24.7	0.00e+00	26	28	0	730857472	46	6009
2026-01-13 14:09:45.65	82.82	54.93	-36.8	-37.6	24.5	0.00e+00	4	28	0	739246080	46	6122
2026-01-13 14:09:49.69	85.73	55.41	-37.4	-38.3	23.8	0.00e+00	92	28	0	746586112	46	6637
2026-01-13 14:09:53.72	88.73	55.82	-38.3	-39.2	23.0	0.00e+00	54	28	0	753926144	48	6598
2026-01-13 14:09:57.76	91.81	56.16	-39.9	-41.0	21.3	0.00e+00	54	28	0	761266176	52	6448
2026-01-13 14:10:01.80	94.96	56.42	-41.3	-42.8	19.9	0.00e+00	23	28	0	768606208	54	7038
2026-01-13 14:10:05.84	98.16	56.59	-39.1	-40.3	21.6	0.00e+00	92	28	0	776994816	52	5925
2026-01-13 14:10:09.87	101.38	56.68	-38.1	-39.1	23.3	0.00e+00	0	28	0	784334848	50	5763
2026-01-13 14:10:13.91	104.62	56.68	-37.9	-38.8	23.5	0.00e+00	0	28	0	791674880	50	5591
2026-01-13 14:10:17.94	107.84	56.60	-38.7	-39.7	22.6	0.00e+00	48	28	0	799014912	50	6217
2026-01-13 14:10:21.99	111.06	56.43	-39.1	-40.1	22.3	0.00e+00	92	28	0	807403520	50	6528
2026-01-13 14:10:26.02	114.20	56.18	-41.2	-42.6	19.9	0.00e+00	0	28	0	814743552	54	6925
2026-01-13 14:10:30.06	117.29	55.85	-40.5	-41.7	20.7	0.00e+00	0	28	0	822083584	52	6951
2026-01-13 14:10:34.10	120.30	55.44	-38.9	-39.9	22.4	0.00e+00	0	27	0	829423616	52	5648
2026-01-13 14:10:38.14	123.22	54.96	-37.8	-38.7	23.7	0.00e+00	92	28	0	836763648	50	5522
2026-01-13 14:10:42.17	126.03	54.42	-34.3	-35.0	26.6	0.00e+00	0	28	0	845152256	42	5756
2026-01-13 14:10:46.21	128.73	53.81	-34.4	-35.1	26.4	0.00e+00	22	28	0	852492288	42	5820
2026-01-13 14:10:50.25	131.33	53.16	-34.8	-35.5	26.2	0.00e+00	92	28	0	859832320	42	6054
2026-01-13 14:10:54.29	133.80	52.45	-34.6	-35.4	26.2	0.00e+00	50	28	0	867172352	42	5972
2026-01-13 14:10:58.33	136.16	51.71	-36.4	-37.2	24.9	0.00e+00	0	28	0	875560960	46	5864
2026-01-13 14:11:02.37	138.40	50.93	-40.3	-41.6	21.1	0.00e+00	55	28	0	882900992	52	6878
2026-01-13 14:11:06.41	140.53	50.12	-42.9	-44.8	17.7	0.00e+00	92	28	0	890241024	56	7928
2026-01-13 14:11:10.45	142.54	49.29	-40.9	-42.2	20.3	0.00e+00	0	28	0	897581056	54	6608
2026-01-13 14:11:14.49	144.45	48.44	-40.2	-41.4	21.2	0.00e+00	57	28	0	904921088	54	6008
2026-01-13 14:11:18.52	146.25	47.57	-42.0	-43.6	18.9	0.00e+00	0	28	0	913309696	56	6914
2026-01-13 14:11:22.56	147.96	46.70	-39.6	-40.7	21.7	0.00e+00	92	28	0	920649728	52	6215
2026-01-13 14:11:26.60	149.58	45.81	-40.5	-41.7	20.9	0.00e+00	6	28	0	927989760	54	6232
2026-01-13 14:11:30.63	151.11	44.93	-40.8	-42.0	20.7	0.00e+00	7	28	0	935329792	52	7212
2026-01-13 14:11:34.67	152.56	44.04	-39.5	-40.5	21.8	0.00e+00	0	28	0	943718400	52	6079
2026-01-13 14:11:38.71	153.93	43.15	-39.2	-40.2	22.2	0.00e+00	92	28	0	951058432	52	5895
2026-01-13 14:11:42.75	155.23	42.26	-40.2	-41.4	21.3	0.00e+00	57	28	0	958398464	54	5984
2026-01-13 14:11:46.79	156.46	41.39	-39.5	-40.6	21.8	0.00e+00	0	28	0	965738496	50	6897
2026-01-13 14:11:50.82	157.62	40.52	-39.8	-40.9	21.7	0.00e+00	32	28	0	973078528	54	5669
2026-01-13 14:11:54.85	158.72	39.66	-39.9	-41.1	21.3	0.00e+00	92	28	0	981467136	52	6477
2026-01-13 14:11:58.89	159.77	38.81	-39.0	-40.0	22.4	0.00e+00	54	28	0	988807168	52	5734
2026-01-13 14:12:02.93	160.77	37.96	-41.3	-42.8	19.7	0.00e+00	0	28	0	996147200	54	7037
2026-01-13 14:12:06.97	161.72	37.13	-37.6	-38.5	23.7	0.00e+00	0	28	0	1003487232	48	6050
2026-01-13 14:12:11.00	162.63	36.32	-37.4	-38.2	23.9	0.00e+00	92	28	0	1011875840	48	5883
2026-01-13 14:12:15.04	163.49	35.51	-38.6	-39.5	22.7	0.00e+00	0	28	0	1019215872	48	6848
2026-01-13 14:12:19.08	164.31	34.72	-37.3	-38.2	24.0	0.00e+00	0	28	0	1026555904	48	5844
2026-01-13 14:12:23.12	165.09	33.95	-38.7	-39.7	22.6	0.00e+00	62	28	0	1033895936	48	6972
2026-01-13 14:12:27.15	165.84	33.18	-39.9	-41.1	21.4	0.00e+00	90	28	0	1041235968	52	6467
2026-01-13 14:12:31.19	166.55	32.43	-38.7	-39.7	22.7	0.00e+00	26	28	0	1049624576	52	5505
2026-01-13 14:12:35.22	167.23	31.70	-39.3	-40.4	22.0	0.00e+00	0	28	0	1056964608	50	6715
2026-01-13 14:12:39.26	167.89	30.98	-40.1	-41.3	21.1	0.00e+00	89	28	0	1064304640	52	6683
2026-01-13 14:12:43.30	168.52	30.27	-39.6	-40.7	21.7	0.00e+00	0	28	0	1071644672	52	6238
2026-01-13 14:12:47.33	169.12	29.58	-39.8	-41.0	21.4	0.00e+00	29	28	0	1080033280	52	6394
2026-01-13 14:12:51.37	169.69	28.90	-39.1	-40.2	22.2	0.00e+00	0	28	0	1087373312	52	5857
2026-01-13 14:12:55.40	170.25	28.23	-38.9	-39.9	22.4	0.00e+00	92	27	0	1094713344	52	5638
2026-01-13 14:12:59.44	170.78	27.57	-39.9	-41.1	21.4	0.00e+00	6	28	0	1102053376	52	6508
2026-01-13 14:13:03.48	171.29	26.93	-39.2	-40.3	22.0	0.00e+00	54	28	0	1109393408	52	5945
2026-01-13 14:13:07.52	171.78	26.30	-38.6	-39.6	22.6	0.00e+00	0	28	0	1117782016	50	6168
2026-01-13 14:13:11.55	172.25	25.69	-39.0	-40.0	22.3	0.00e+00	92	28	0	1125122048	50	6435
2026-01-13 14:13:15.59	172.71	25.08	-38.9	-39.9	22.4	0.00e+00	6	28	0	1132462080	50	6375
2026-01-13 14:13:19.63	173.15	24.49	-38.3	-39.3	23.0	0.00e+00	7	28	0	1139802112	50	5933
2026-01-13 14:13:23.67	173.58	23.91	-37.5	-38.4	23.7	0.00e+00	0	28	0	1147142144	48	6007
2026-01-13 14:13:27.70	173.99	23.34	-37.3	-38.1	23.9	0.00e+00	92	28	0	1155530752	48	5816
2026-01-13 14:13:31.74	174.38	22.78	-37.2	-38.1	23.9	0.00e+00	29	28	0	1162870784	48	5785
2026-01-13 14:13:35.78	174.77	22.23	-37.8	-38.7	23.4	0.00e+00	0	28	0	1170210816	48	6215
2026-01-13 14:13:39.81	175.14	21.69	-37.7	-38.7	23.3	0.00e+00	0	28	0	1177550848	48	6176
2026-01-13 14:13:43.85	175.49	21.16	-37.2	-38.1	24.0	0.00e+00	90	28	0	1185939456	48	5781
2026-01-13 14:13:47.88	175.84	20.65	-36.4	-37.2	24.6	0.00e+00	50	28	0	1193279488	46	5856
2026-01-13 14:13:51.92	176.18	20.14	-36.0	-36.8	25.0	0.00e+00	46	28	0	1200619520	46	5609
2026-01-13 14:13:55.96	176.50	19.64	-36.2	-37.0	24.8	0.00e+00	26	28	0	1207959552	46	5720
2026-01-13 14:14:00.00	176.82	19.15	-36.4	-37.2	24.5	0.00e+00	92	28	0	1215299584	46	5888
2026-01-13 14:14:04.04	177.13	18.67	-36.7	-37.5	24.4	0.00e+00	0	28	0	1223688192	46	6093
2026-01-13 14:14:08.07	177.42	18.19	-36.6	-37.4	24.4	0.00e+00	0	28	0	1231028224	46	6020
2026-01-13 14:14:12.10	177.71	17.73	-36.5	-37.3	24.5	0.00e+00	4	28	0	1238368256	46	5958
2026-01-13 14:14:16.14	177.99	17.27	-36.5	-37.3	24.4	0.00e+00	31	28	0	1245708288	46	5920
2026-01-13 14:14:20.19	178.27	16.82	-36.7	-37.6	24.1	0.00e+00	2	28	0	1254096896	46	6131
2026-01-13 14:14:24.22	178.53	16.38	-37.0	-37.9	23.8	0.00e+00	0	28	0	1261436928	46	6375
2026-01-13 14:14:28.26	178.79	15.95	-37.3	-38.2	23.7	0.00e+00	92	28	0	1268776960	46	6548
2026-01-13 14:14:32.29	179.04	15.52	-37.4	-38.3	23.6	0.00e+00	48	28	0	1276116992	46	6639
2026-01-13 14:14:36.33	179.28	15.10	-37.4	-38.3	23.6	0.00e+00	35	28	0	1283457024	46	6642
2026-01-13 14:14:40.36	179.52	14.69	-37.2	-38.1	23.7	0.00e+00	33	28	0	1291845632	46	6493
2026-01-13 14:14:44.39	179.75	14.28	-37.1	-38.0	23.8	0.00e+00	92	28	0	1299185664	46	6446
2026-01-13 14:14:48.42	179.98	13.88	-37.1	-38.0	23.9	0.00e+00	6	28	0	1306525696	46	6408
2026-01-13 14:14:52.46	180.20	13.49	-37.3	-38.2	23.6	0.00e+00	8	28	0	1313865728	46	6599
2026-01-13 14:14:56.50	180.42	13.10	-37.6	-38.6	23.4	0.00e+00	43	28	0	1321205760	46	6858
2026-01-13 14:15:00.54	180.63	12.72	-37.8	-38.8	23.1	0.00e+00	92	28	0	1329594368	48	6252
2026-01-13 14:15:04.58	180.83	12.34	-38.1	-39.0	22.8	0.00e+00	6	28	0	1336934400	48	6461
2026-01-13 14:15:08.62	181.03	11.97	-38.3	-39.3	22.6	0.00e+00	7	28	0	1344274432	48	6652
2026-01-13 14:15:12.65	181.23	11.60	-38.5	-39.6	22.2	0.00e+00	6	28	0	1351614464	48	6854
2026-01-13 14:15:16.69	181.42	11.24	-38.7	-39.7	22.1	0.00e+00	92	28	0	1360003072	48	7002
2026-01-13 14:15:20.72	181.61	10.88	-38.7	-39.8	22.1	0.00e+00	0	28	0	1367343104	50	6252
2026-01-13 14:15:24.76	181.79	10.53	-39.0	-40.1	21.8	0.00e+00	40	28	0	1374683136	50	6516
2026-01-13 14:15:28.80	181.97	10.19	-38.7	-39.7	22.0	0.00e+00	0	28	0	1382023168	50	6238
2026-01-13 14:15:32.84	182.15	9.84	-38.7	-39.8	22.0	0.00e+00	92	28	0	1389363200	50	6278
2026-01-13 14:15:36.88	182.32	9.51	-38.8	-39.9	21.9	0.00e+00	0	28	0	1397751808	50	6332
2026-01-13 14:15:40.92	182.49	9.17	-38.4	-39.5	22.3	0.00e+00	0	28	0	1405091840	50	6038
2026-01-13 14:15:44.95	182.65	8.84	-38.4	-39.5	22.3	0.00e+00	10	28	0	1412431872	50	6045
2026-01-13 14:15:48.99	182.81	8.52	-38.5	-39.5	22.3	0.00e+00	81	28	0	1419771904	50	6064
2026-01-13 14:15:53.02	182.97	8.20	-38.3	-39.3	22.4	0.00e+00	0	28	0	1427111936	50	5945
2026-01-13 14:15:57.05	183.13	7.88	-38.3	-39.4	22.3	0.00e+00	0	28	0	1435500544	50	5965
2026-01-13 14:16:01.09	183.28	7.57	-38.5	-39.5	22.1	0.00e+00	92	28	0	1442840576	50	6100
2026-01-13 14:16:05.13	183.43	7.26	-38.5	-39.5	22.1	0.00e+00	60	28	0	1450180608	50	6081
2026-01-13 14:16:09.16	183.57	6.95	-38.7	-39.7	21.9	0.00e+00	37	28	0	1457520640	50	6216
2026-01-13 14:16:13.20	183.72	6.65	-38.7	-39.7	21.9	0.00e+00	37	28	0	1465909248	50	6233
2026-01-13 14:16:17.24	183.86	6.35	-38.9	-40.0	21.7	0.00e+00	91	28	0	1473249280	50	6428
2026-01-13 14:16:21.27	183.99	6.06	-38.8	-39.9	21.7	0.00e+00	91	28	0	1480589312	50	6360
2026-01-13 14:16:25.30	184.13	5.76	-39.2	-40.4	21.2	0.00e+00	0	28	0	1487929344	50	6726
2026-01-13 14:16:29.34	184.26	5.47	-39.1	-40.2	21.4	7.00e-07	38	28	0	1495269376	50	6583
2026-01-13 14:16:33.37	184.39	5.19	-39.3	-40.5	21.0	0.00e+00	92	28	0	1503657984	50	6828
2026-01-13 14:16:37.41	184.52	4.90	-39.3	-40.5	21.1	0.00e+00	39	28	0	1510998016	52	6044
2026-01-13 14:16:41.45	184.65	4.62	-40.0	-41.3	20.3	0.00e+00	6	28	0	1518338048	52	6654
2026-01-13 14:16:45.48	184.77	4.35	-40.0	-41.4	20.1	0.00e+00	0	28	0	1525678080	52	6703
2026-01-13 14:16:49.52	184.90	4.07	-39.7	-41.0	20.3	0.00e+00	92	28	0	1533018112	52	6456
2026-01-13 14:16:53.55	185.02	3.80	-40.1	-41.5	19.8	0.00e+00	36	28	0	1541406720	52	6795
2026-01-13 14:16:57.59	185.13	3.53	-40.5	-42.0	19.3	0.00e+00	7	28	0	1548746752	52	7233
2026-01-13 14:17:01.62	185.25	3.26	-40.5	-42.0	19.3	0.00e+00	44	28	0	1556086784	54	6395
2026-01-13 14:17:05.66	185.37	3.00	-47.3	-62.4	3.6	0.00e+00	0	28	104	1563426816	60	47476
2026-01-13 14:17:09.70	185.48	2.73	-48.3	-63.6	3.6	1.51e+00	0	28	104	1563426816	60	54689
2026-01-13 14:17:13.74	185.59	2.47	-48.4	-63.8	3.6	1.51e+00	0	28	104	1563426816	60	56211
2026-01-13 14:17:17.78	185.70	2.22	-48.3	-63.7	3.6	1.51e+00	0	28	104	1563426816	60	55332
2026-01-13 14:17:21.81	185.81	1.96	-48.5	-63.7	3.6	1.51e+00	0	28	104	1563426816	60	55175
2026-01-13 14:17:25.85	185.91	1.71	-48.5	-63.7	3.6	1.51e+00	0	28	104	1563426816	60	55270
2026-01-13 14:17:29.89	186.02	1.46	-48.5	-63.7	3.6	1.51e+00	0	28	104	1563426816	60	55048
2026-01-13 14:17:33.93	186.12	1.21	-48.5	-63.7	3.6	1.51e+00	0	28	104	1563426816	60	55402
2026-01-13 14:17:37.97	186.22	0.96	-48.5	-63.7	3.6	1.51e+00	0	28	104	1563426816	60	55171
2026-01-13 14:17:42.01	186.32	0.72	-48.5	-63.7	3.6	1.51e+00	0	28	104	1563426816	60	55134
2026-01-13 14:17:46.05	186.42	0.47	-48.5	-63.6	3.6	1.51e+00	0	28	104	1563426816	60	54770
2026-01-13 14:17:50.09	186.52	0.23	-48.5	-63.6	3.6	1.51e+00	0	28	104	1563426816	60	55015
2026-01-13 14:17:54.13	186.61	-0.01	-48.5	-63.7	3.6	1.51e+00	0	28	104	1563426816	60	55128

#Closed at: 2026-01-13 14:17:56
#Recorded file [1563 MB]: D:/lorett/data/35029_260114_020229.dat