passes_logs/2026/01/13/R4.6S_Anadyr/R4.6S_Anadyr__20260113_122201_NOAA_20_JPSS-1_rec.log

#Pass ID: 20260113_122201_NOAA 20 (JPSS-1)
#Satellite: NOAA 20 (JPSS-1)
#Configuration: NOAA 20
#almurnet v.1.7.20251203
#Start time: 2026-01-13 12:22:02

#Version: 2.2.20231116
#Station: R4.6S_Anadyr
#Location: 177.4865 lon 64.73178 lat
#TLE: 1 43013U 17073A   26012.29914746  .00000087  00000+0  62270-4 0  9997
#TLE: 2 43013  98.7632 313.2670 0001616  43.2193 316.9110 14.19535514422351

#Time	Az	El	Level	Level2	SNR	BER	BlckErr	Temp	State	Recorded	gain1	gain2
2026-01-13 12:22:02.18	19.08	0.04	-48.7	-63.6	3.5	1.51e+00	0	25	0	0	60	54709
2026-01-13 12:22:06.22	19.38	0.24	-48.7	-63.9	3.6	1.51e+00	0	27	104	0	60	56765
2026-01-13 12:22:10.26	19.68	0.43	-48.7	-63.9	3.6	1.51e+00	0	27	104	0	60	56772
2026-01-13 12:22:14.29	19.99	0.63	-48.4	-63.6	3.6	1.51e+00	0	27	104	0	60	54511
2026-01-13 12:22:18.33	20.30	0.83	-47.4	-62.6	3.6	1.51e+00	0	27	104	0	60	48975
2026-01-13 12:22:22.37	20.61	1.03	-47.0	-62.2	3.6	1.51e+00	0	27	104	0	60	46673
2026-01-13 12:22:26.41	20.93	1.23	-47.0	-62.2	3.6	1.51e+00	0	27	104	0	60	46368
2026-01-13 12:22:30.44	21.26	1.43	-47.0	-62.1	3.6	1.51e+00	0	27	104	0	60	46096
2026-01-13 12:22:34.48	21.58	1.63	-47.0	-62.2	3.6	1.51e+00	0	27	104	0	60	46579
2026-01-13 12:22:38.52	21.91	1.84	-46.9	-62.1	3.6	1.51e+00	0	27	104	0	60	45908
2026-01-13 12:22:42.56	22.25	2.04	-46.9	-62.0	3.5	1.51e+00	0	27	104	0	60	45721
2026-01-13 12:22:46.60	22.59	2.24	-46.9	-61.9	3.6	1.51e+00	0	27	104	0	60	44987
2026-01-13 12:22:50.64	22.93	2.45	-46.9	-60.7	3.6	1.51e+00	0	27	104	0	60	39392
2026-01-13 12:22:54.67	23.28	2.65	-44.3	-47.9	13.3	2.17e-04	0	27	0	4194304	60	8951
2026-01-13 12:22:58.71	23.64	2.86	-42.1	-44.2	16.9	0.00e+00	68	27	0	12582912	56	7372
2026-01-13 12:23:02.75	23.99	3.07	-43.4	-46.1	15.1	5.49e-05	91	27	0	19922944	60	7336
2026-01-13 12:23:06.78	24.36	3.27	-44.2	-47.6	13.0	2.48e-03	67	28	0	23068672	58	9748
2026-01-13 12:23:10.82	24.72	3.48	-42.7	-45.0	16.7	0.00e+00	2	27	0	30408704	58	7178
2026-01-13 12:23:14.86	25.10	3.69	-43.1	-45.6	16.2	0.00e+00	0	28	0	37748736	58	7709
2026-01-13 12:23:18.89	25.47	3.90	-43.1	-45.5	15.9	0.00e+00	92	27	0	45088768	58	7603
2026-01-13 12:23:22.93	25.86	4.11	-43.7	-46.4	15.4	0.00e+00	0	28	0	53477376	60	7576
2026-01-13 12:23:26.97	26.25	4.32	-44.1	-47.2	15.0	7.00e-07	67	28	0	60817408	60	8271
2026-01-13 12:23:31.00	26.64	4.53	-43.8	-46.6	14.7	7.00e-07	0	28	0	68157440	60	7715
2026-01-13 12:23:35.04	27.04	4.74	-43.3	-45.7	16.0	0.00e+00	90	28	0	75497472	60	6972
2026-01-13 12:23:39.07	27.44	4.95	-43.5	-46.1	15.9	0.00e+00	0	28	0	83886080	60	7258
2026-01-13 12:23:43.11	27.85	5.17	-42.1	-43.9	17.9	0.00e+00	70	28	0	91226112	58	6378
2026-01-13 12:23:47.15	28.27	5.38	-41.8	-43.6	18.1	0.00e+00	0	28	0	98566144	58	6152
2026-01-13 12:23:51.18	28.69	5.59	-42.0	-43.8	17.7	0.00e+00	92	28	0	105906176	58	6285
2026-01-13 12:23:55.22	29.12	5.81	-41.7	-43.5	18.3	0.00e+00	0	27	0	113246208	58	6043
2026-01-13 12:23:59.26	29.55	6.02	-40.1	-41.4	20.3	0.00e+00	0	27	0	121634816	54	5994
2026-01-13 12:24:03.30	29.99	6.24	-40.0	-41.3	20.4	0.00e+00	0	28	0	128974848	54	5919
2026-01-13 12:24:07.33	30.44	6.45	-39.6	-40.8	20.9	0.00e+00	92	28	0	136314880	52	6303
2026-01-13 12:24:11.37	30.89	6.67	-39.5	-40.7	20.3	0.00e+00	0	28	0	143654912	52	6231
2026-01-13 12:24:15.40	31.35	6.89	-39.5	-40.7	21.0	0.00e+00	12	28	0	152043520	52	6219
2026-01-13 12:24:19.44	31.81	7.10	-39.5	-40.7	21.1	0.00e+00	0	28	0	159383552	52	6210
2026-01-13 12:24:23.47	32.28	7.32	-39.7	-41.0	20.8	0.00e+00	92	28	0	166723584	52	6410
2026-01-13 12:24:27.50	32.76	7.54	-39.5	-40.7	21.1	0.00e+00	0	28	0	174063616	52	6177
2026-01-13 12:24:31.54	33.25	7.75	-39.3	-40.4	21.4	0.00e+00	69	28	0	181403648	52	6025
2026-01-13 12:24:35.57	33.74	7.97	-39.1	-40.2	21.5	0.00e+00	0	28	0	189792256	52	5836
2026-01-13 12:24:39.61	34.24	8.19	-39.1	-40.2	21.7	0.00e+00	91	28	0	197132288	52	5839
2026-01-13 12:24:43.65	34.75	8.41	-39.2	-40.3	21.6	0.00e+00	0	28	0	204472320	52	5914
2026-01-13 12:24:47.69	35.26	8.62	-39.1	-40.2	21.6	0.00e+00	0	28	0	211812352	52	5880
2026-01-13 12:24:51.72	35.78	8.84	-39.3	-40.4	21.3	0.00e+00	69	28	0	219152384	52	5992
2026-01-13 12:24:55.76	36.31	9.06	-39.2	-40.3	21.6	0.00e+00	59	28	0	227540992	52	5913
2026-01-13 12:24:59.80	36.85	9.27	-38.9	-40.0	22.0	0.00e+00	68	28	0	234881024	52	5700
2026-01-13 12:25:03.83	37.39	9.49	-38.9	-40.0	22.0	0.00e+00	11	28	0	242221056	52	5719
2026-01-13 12:25:07.87	37.94	9.71	-38.7	-39.7	22.1	0.00e+00	91	28	0	249561088	50	6231
2026-01-13 12:25:11.90	38.50	9.92	-38.5	-39.5	22.4	0.00e+00	0	28	0	257949696	50	6098
2026-01-13 12:25:15.94	39.07	10.14	-38.1	-39.1	22.8	0.00e+00	66	28	0	265289728	50	5800
2026-01-13 12:25:19.98	39.65	10.35	-37.9	-38.9	22.9	0.00e+00	10	28	0	272629760	50	5651
2026-01-13 12:25:24.01	40.23	10.57	-37.9	-38.9	23.0	0.00e+00	91	28	0	279969792	50	5637
2026-01-13 12:25:28.05	40.83	10.78	-37.7	-38.6	23.2	0.00e+00	0	28	0	287309824	48	6159
2026-01-13 12:25:32.09	41.43	10.99	-37.8	-38.7	22.9	0.00e+00	0	28	0	295698432	48	6237
2026-01-13 12:25:36.13	42.04	11.21	-38.0	-38.9	23.0	0.00e+00	0	28	0	303038464	48	6357
2026-01-13 12:25:40.16	42.66	11.42	-37.7	-38.7	23.2	0.00e+00	92	28	0	310378496	48	6203
2026-01-13 12:25:44.20	43.28	11.63	-37.8	-38.7	23.1	0.00e+00	10	28	0	317718528	48	6235
2026-01-13 12:25:48.24	43.92	11.83	-37.9	-38.9	23.1	0.00e+00	10	28	0	326107136	48	6343
2026-01-13 12:25:52.27	44.56	12.04	-37.7	-38.7	23.1	0.00e+00	0	28	0	333447168	48	6177
2026-01-13 12:25:56.31	45.22	12.25	-37.6	-38.6	23.3	0.00e+00	92	28	0	340787200	48	6112
2026-01-13 12:26:00.35	45.88	12.45	-37.9	-38.8	23.1	0.00e+00	11	28	0	348127232	48	6284
2026-01-13 12:26:04.39	46.55	12.65	-38.1	-39.0	23.0	0.00e+00	69	28	0	355467264	48	6438
2026-01-13 12:26:08.42	47.23	12.85	-38.1	-39.0	22.9	0.00e+00	0	28	0	363855872	48	6451
2026-01-13 12:26:12.46	47.92	13.05	-38.4	-39.4	22.6	0.00e+00	90	28	0	371195904	48	6700
2026-01-13 12:26:16.50	48.62	13.25	-38.6	-39.6	22.4	0.00e+00	0	28	0	378535936	48	6921
2026-01-13 12:26:20.53	49.32	13.44	-38.9	-40.0	22.1	0.00e+00	0	28	0	385875968	50	6426
2026-01-13 12:26:24.57	50.04	13.63	-39.2	-40.3	21.8	0.00e+00	58	28	0	394264576	50	6680
2026-01-13 12:26:28.60	50.76	13.82	-39.5	-40.6	21.4	0.00e+00	92	28	0	401604608	50	6920
2026-01-13 12:26:32.64	51.50	14.00	-39.6	-40.8	21.5	0.00e+00	6	28	0	408944640	50	7010
2026-01-13 12:26:36.68	52.24	14.19	-39.7	-40.8	21.4	0.00e+00	0	28	0	416284672	50	7062
2026-01-13 12:26:40.72	52.99	14.37	-40.2	-41.4	20.8	0.00e+00	72	28	0	423624704	52	6727
2026-01-13 12:26:44.75	53.75	14.54	-40.3	-41.5	20.8	0.00e+00	91	28	0	432013312	52	6807
2026-01-13 12:26:48.79	54.52	14.71	-40.1	-41.3	21.0	0.00e+00	10	28	0	439353344	52	6651
2026-01-13 12:26:52.83	55.30	14.88	-40.3	-41.6	20.8	0.00e+00	0	28	0	446693376	52	6852
2026-01-13 12:26:56.86	56.09	15.05	-40.3	-41.5	20.8	0.00e+00	90	28	0	454033408	52	6812
2026-01-13 12:27:00.90	56.88	15.21	-39.8	-41.0	21.2	0.00e+00	72	28	0	462422016	52	6394
2026-01-13 12:27:04.94	57.69	15.37	-39.1	-40.2	22.0	0.00e+00	0	28	0	469762048	52	5864
2026-01-13 12:27:08.98	58.50	15.52	-39.0	-40.0	22.2	0.00e+00	71	28	0	477102080	52	5731
2026-01-13 12:27:13.02	59.32	15.67	-38.5	-39.5	22.6	0.00e+00	92	28	0	484442112	50	6068
2026-01-13 12:27:17.05	60.15	15.81	-37.9	-38.8	23.2	0.00e+00	0	28	0	491782144	50	5617
2026-01-13 12:27:21.09	60.98	15.95	-37.9	-38.9	23.1	0.00e+00	0	28	0	500170752	50	5633
2026-01-13 12:27:25.12	61.82	16.09	-38.2	-39.1	23.0	0.00e+00	0	28	0	507510784	50	5811
2026-01-13 12:27:29.16	62.67	16.22	-38.3	-39.3	22.8	0.00e+00	92	28	0	514850816	50	5939
2026-01-13 12:27:33.20	63.53	16.34	-38.4	-39.4	22.7	0.00e+00	11	28	0	522190848	50	5981
2026-01-13 12:27:37.24	64.40	16.46	-38.5	-39.5	22.7	0.00e+00	11	28	0	529530880	50	6041
2026-01-13 12:27:41.28	65.27	16.57	-38.7	-39.8	22.4	0.00e+00	0	28	0	537919488	50	6248
2026-01-13 12:27:45.32	66.15	16.68	-38.7	-39.7	22.4	0.00e+00	92	28	0	545259520	50	6238
2026-01-13 12:27:49.36	67.03	16.78	-38.7	-39.8	22.4	0.00e+00	11	28	0	552599552	50	6248
2026-01-13 12:27:53.40	67.92	16.87	-38.6	-39.6	22.4	0.00e+00	5	28	0	559939584	50	6161
2026-01-13 12:27:57.44	68.81	16.96	-38.6	-39.7	22.5	0.00e+00	20	28	0	568328192	50	6188
2026-01-13 12:28:01.48	69.71	17.04	-38.8	-39.8	22.3	0.00e+00	92	28	0	575668224	50	6304
2026-01-13 12:28:05.51	70.61	17.12	-38.4	-39.4	22.7	0.00e+00	0	28	0	583008256	50	5967
2026-01-13 12:28:09.55	71.52	17.19	-38.2	-39.1	23.0	0.00e+00	0	28	0	590348288	50	5821
2026-01-13 12:28:13.58	72.43	17.25	-38.6	-39.7	22.5	0.00e+00	0	28	0	597688320	50	6179
2026-01-13 12:28:17.62	73.35	17.30	-39.3	-40.4	21.8	0.00e+00	90	28	0	606076928	50	6724
2026-01-13 12:28:21.66	74.27	17.35	-38.9	-40.0	22.2	0.00e+00	6	28	0	613416960	50	6397
2026-01-13 12:28:25.70	75.19	17.39	-38.4	-39.4	22.7	0.00e+00	65	28	0	620756992	50	5969
2026-01-13 12:28:29.73	76.11	17.43	-38.6	-39.6	22.5	0.00e+00	82	28	0	628097024	50	6129
2026-01-13 12:28:33.77	77.04	17.46	-38.8	-39.8	22.4	0.00e+00	9	28	0	636485632	50	6307
2026-01-13 12:28:37.81	77.96	17.48	-38.6	-39.6	22.5	0.00e+00	0	28	0	643825664	50	6170
2026-01-13 12:28:41.85	78.89	17.49	-38.4	-39.4	22.7	0.00e+00	0	28	0	651165696	50	6016
2026-01-13 12:28:45.88	79.82	17.49	-38.6	-39.6	22.5	0.00e+00	92	28	0	658505728	50	6161
2026-01-13 12:28:49.92	80.75	17.49	-38.6	-39.6	22.6	0.00e+00	71	28	0	665845760	50	6118
2026-01-13 12:28:53.96	81.68	17.48	-38.6	-39.6	22.5	0.00e+00	15	28	0	674234368	50	6161
2026-01-13 12:28:58.00	82.61	17.47	-38.6	-39.6	22.5	0.00e+00	0	28	0	681574400	50	6168
2026-01-13 12:29:02.04	83.53	17.45	-38.4	-39.5	22.7	0.00e+00	90	28	0	688914432	50	6041
2026-01-13 12:29:06.08	84.46	17.42	-38.6	-39.6	22.5	0.00e+00	2	28	0	696254464	50	6155
2026-01-13 12:29:10.11	85.38	17.38	-38.1	-39.0	23.1	0.00e+00	72	28	0	704643072	50	5759
2026-01-13 12:29:14.15	86.30	17.33	-38.0	-38.9	23.2	0.00e+00	0	28	0	711983104	48	6386
2026-01-13 12:29:18.19	87.22	17.28	-38.1	-39.1	23.0	0.00e+00	92	28	0	719323136	48	6473
2026-01-13 12:29:22.22	88.14	17.22	-37.9	-38.9	23.2	0.00e+00	2	28	0	726663168	48	6321
2026-01-13 12:29:26.25	89.05	17.16	-37.6	-38.6	23.5	0.00e+00	0	28	0	734003200	48	6108
2026-01-13 12:29:30.29	89.95	17.09	-37.7	-38.7	23.4	0.00e+00	0	28	0	742391808	48	6176
2026-01-13 12:29:34.33	90.86	17.01	-37.8	-38.7	23.2	0.00e+00	92	28	0	749731840	48	6220
2026-01-13 12:29:38.36	91.76	16.92	-37.5	-38.5	23.6	0.00e+00	0	28	0	757071872	48	6040
2026-01-13 12:29:42.40	92.65	16.83	-37.8	-38.7	23.3	0.00e+00	6	28	0	764411904	48	6218
2026-01-13 12:29:46.44	93.54	16.74	-37.2	-38.1	23.8	0.00e+00	0	28	0	771751936	48	5794
2026-01-13 12:29:50.48	94.42	16.63	-36.9	-37.8	24.1	0.00e+00	91	28	0	780140544	48	5596
2026-01-13 12:29:54.51	95.30	16.52	-36.6	-37.5	24.3	0.00e+00	63	28	0	787480576	46	6051
2026-01-13 12:29:58.55	96.17	16.41	-36.9	-37.8	24.1	0.00e+00	18	28	0	794820608	46	6273
2026-01-13 12:30:02.59	97.03	16.29	-36.9	-37.8	24.0	0.00e+00	0	28	0	802160640	46	6295
2026-01-13 12:30:06.63	97.89	16.16	-36.5	-37.3	24.5	0.00e+00	90	28	0	810549248	46	5942
2026-01-13 12:30:10.67	98.74	16.03	-36.4	-37.2	24.6	0.00e+00	7	28	0	817889280	46	5851
2026-01-13 12:30:14.70	99.58	15.89	-37.1	-37.9	23.9	0.00e+00	68	28	0	825229312	46	6388
2026-01-13 12:30:18.74	100.41	15.75	-37.3	-38.2	23.7	0.00e+00	33	28	0	832569344	46	6587
2026-01-13 12:30:22.77	101.24	15.60	-37.0	-37.8	23.8	0.00e+00	63	28	0	839909376	46	6316
2026-01-13 12:30:26.81	102.06	15.45	-37.0	-37.9	23.9	0.00e+00	16	28	0	848297984	46	6338
2026-01-13 12:30:30.85	102.87	15.30	-37.6	-38.5	23.3	0.00e+00	0	28	0	855638016	46	6827
2026-01-13 12:30:34.89	103.68	15.14	-38.5	-39.6	22.4	0.00e+00	92	28	0	862978048	48	6876
2026-01-13 12:30:38.92	104.47	14.97	-39.0	-40.1	22.0	0.00e+00	0	28	0	870318080	50	6491
2026-01-13 12:30:42.96	105.25	14.81	-39.1	-40.2	21.9	0.00e+00	0	28	0	878706688	50	6590
2026-01-13 12:30:47.00	106.03	14.63	-38.4	-39.5	22.6	0.00e+00	2	28	0	886046720	50	6052
2026-01-13 12:30:51.04	106.80	14.46	-38.6	-39.7	22.3	0.00e+00	92	28	0	893386752	50	6224
2026-01-13 12:30:55.08	107.56	14.28	-39.0	-40.1	22.0	0.00e+00	0	28	0	900726784	50	6503
2026-01-13 12:30:59.12	108.31	14.10	-39.4	-40.5	21.6	0.00e+00	0	28	0	908066816	50	6825
2026-01-13 12:31:03.15	109.05	13.91	-39.2	-40.3	21.8	0.00e+00	68	28	0	916455424	50	6656
2026-01-13 12:31:07.19	109.79	13.72	-38.8	-39.8	22.2	0.00e+00	92	28	0	923795456	50	6315
2026-01-13 12:31:11.23	110.51	13.53	-39.1	-40.2	22.0	0.00e+00	2	28	0	931135488	50	6557
2026-01-13 12:31:15.26	111.23	13.34	-38.2	-39.2	22.8	0.00e+00	0	28	0	938475520	50	5837
2026-01-13 12:31:19.30	111.93	13.15	-38.2	-39.2	22.7	0.00e+00	0	28	0	946864128	50	5841
2026-01-13 12:31:23.33	112.63	12.95	-38.3	-39.4	22.5	0.00e+00	92	28	0	954204160	50	5992
2026-01-13 12:31:27.37	113.32	12.75	-39.1	-40.2	21.8	0.00e+00	25	28	0	961544192	50	6558
2026-01-13 12:31:31.40	113.99	12.54	-38.5	-39.6	22.3	0.00e+00	0	28	0	968884224	50	6172
2026-01-13 12:31:35.44	114.66	12.34	-37.9	-38.9	23.0	0.00e+00	0	28	0	976224256	50	5638
2026-01-13 12:31:39.48	115.33	12.13	-37.9	-38.9	22.9	0.00e+00	31	28	0	984612864	48	6389
2026-01-13 12:31:43.51	115.98	11.93	-37.9	-38.9	22.9	0.00e+00	65	28	0	991952896	48	6390
2026-01-13 12:31:47.55	116.62	11.72	-38.0	-39.0	22.9	0.00e+00	66	28	0	999292928	48	6449
2026-01-13 12:31:51.58	117.25	11.51	-38.3	-39.3	22.6	0.00e+00	39	28	0	1006632960	48	6657
2026-01-13 12:31:55.61	117.88	11.30	-37.9	-38.9	22.9	0.00e+00	7	28	0	1013972992	48	6373
2026-01-13 12:31:59.65	118.49	11.08	-37.7	-38.6	23.1	0.00e+00	8	28	0	1022361600	48	6169
2026-01-13 12:32:03.68	119.10	10.87	-38.3	-39.4	22.5	0.00e+00	0	28	0	1029701632	48	6695
2026-01-13 12:32:07.72	119.70	10.66	-38.1	-39.1	22.7	0.00e+00	91	28	0	1037041664	48	6469
2026-01-13 12:32:11.75	120.29	10.44	-37.9	-38.9	22.9	0.00e+00	22	28	0	1044381696	48	6368
2026-01-13 12:32:15.78	120.87	10.22	-38.6	-39.6	22.2	0.00e+00	65	28	0	1052770304	48	6927
2026-01-13 12:32:19.82	121.45	10.01	-38.7	-39.8	22.1	0.00e+00	18	28	0	1060110336	50	6282
2026-01-13 12:32:23.86	122.02	9.79	-37.9	-38.8	22.9	0.00e+00	92	28	0	1067450368	50	5624
2026-01-13 12:32:27.90	122.58	9.57	-38.5	-39.5	22.2	0.00e+00	0	28	0	1074790400	50	6103
2026-01-13 12:32:31.93	123.12	9.35	-38.7	-39.8	22.1	0.00e+00	64	28	0	1082130432	50	6249
2026-01-13 12:32:35.97	123.67	9.13	-38.8	-39.9	22.0	0.00e+00	64	28	0	1090519040	50	6369
2026-01-13 12:32:40.01	124.20	8.91	-39.1	-40.3	21.5	0.00e+00	90	28	0	1097859072	50	6624
2026-01-13 12:32:44.05	124.73	8.70	-39.3	-40.5	21.2	0.00e+00	0	28	0	1105199104	50	6816
2026-01-13 12:32:48.08	125.25	8.48	-39.1	-40.2	21.5	0.00e+00	0	28	0	1112539136	50	6575
2026-01-13 12:32:52.12	125.76	8.26	-39.4	-40.5	21.2	0.00e+00	59	28	0	1120927744	50	6846
2026-01-13 12:32:56.16	126.27	8.04	-39.6	-40.8	21.0	0.00e+00	92	28	0	1128267776	50	7016
2026-01-13 12:33:00.20	126.76	7.82	-39.5	-40.7	21.0	0.00e+00	0	28	0	1135607808	50	6944
2026-01-13 12:33:04.24	127.26	7.60	-39.4	-40.5	21.2	0.00e+00	15	28	0	1142947840	50	6836
2026-01-13 12:33:08.27	127.74	7.38	-39.7	-40.9	20.8	0.00e+00	0	28	0	1150287872	50	7170
2026-01-13 12:33:12.31	128.21	7.16	-40.1	-41.5	20.2	0.00e+00	92	28	0	1158676480	52	6774
2026-01-13 12:33:16.34	128.68	6.94	-40.2	-41.6	20.1	0.00e+00	0	28	0	1166016512	52	6865
2026-01-13 12:33:20.38	129.15	6.72	-40.0	-41.3	20.3	0.00e+00	24	28	0	1173356544	52	6669
2026-01-13 12:33:24.42	129.60	6.50	-39.9	-41.1	20.5	0.00e+00	0	28	0	1180696576	52	6529
2026-01-13 12:33:28.45	130.05	6.29	-40.3	-41.7	19.9	0.00e+00	92	28	0	1189085184	52	6967
2026-01-13 12:33:32.49	130.50	6.07	-40.1	-41.5	20.2	0.00e+00	5	28	0	1196425216	52	6785
2026-01-13 12:33:36.53	130.93	5.85	-40.1	-41.4	20.1	0.00e+00	61	28	0	1203765248	52	6722
2026-01-13 12:33:40.57	131.36	5.64	-40.6	-42.0	19.6	0.00e+00	34	28	0	1211105280	52	7233
2026-01-13 12:33:44.61	131.79	5.42	-41.0	-42.5	19.0	0.00e+00	92	28	0	1218445312	54	6842
2026-01-13 12:33:48.65	132.21	5.20	-41.0	-42.6	18.8	0.00e+00	0	28	0	1226833920	54	6898
2026-01-13 12:33:52.68	132.62	4.99	-40.9	-42.5	18.9	0.00e+00	0	28	0	1234173952	54	6807
2026-01-13 12:33:56.72	133.03	4.77	-41.0	-42.7	18.6	0.00e+00	91	28	0	1241513984	54	7006
2026-01-13 12:34:00.76	133.43	4.56	-41.4	-43.2	18.2	0.00e+00	92	28	0	1248854016	54	7338
2026-01-13 12:34:04.80	133.83	4.35	-40.9	-42.5	18.9	0.00e+00	20	28	0	1257242624	54	6804
2026-01-13 12:34:08.84	134.22	4.13	-41.4	-43.2	18.2	0.00e+00	21	28	0	1264582656	56	6589
2026-01-13 12:34:12.88	134.60	3.92	-41.8	-43.8	17.6	0.00e+00	92	28	0	1271922688	56	7017
2026-01-13 12:34:16.91	134.98	3.71	-42.1	-44.2	17.2	0.00e+00	61	28	0	1279262720	56	7342
2026-01-13 12:34:20.95	135.36	3.50	-41.7	-43.7	17.6	0.00e+00	24	28	0	1286602752	56	6944
2026-01-13 12:34:24.99	135.73	3.29	-41.4	-43.2	18.0	0.00e+00	54	28	0	1294991360	56	6579
2026-01-13 12:34:29.03	136.09	3.08	-42.1	-44.1	17.0	0.00e+00	92	28	0	1302331392	56	7337
2026-01-13 12:34:33.07	136.45	2.87	-48.2	-63.4	3.6	1.51e+00	0	28	104	1304428544	60	53233
2026-01-13 12:34:37.10	136.80	2.66	-48.7	-63.9	3.6	1.51e+00	0	28	104	1304428544	60	56431
2026-01-13 12:34:41.14	137.15	2.46	-48.7	-63.9	3.6	1.51e+00	0	28	104	1304428544	60	56309
2026-01-13 12:34:45.18	137.50	2.25	-48.6	-63.8	3.6	1.51e+00	0	28	104	1304428544	60	56149
2026-01-13 12:34:49.22	137.84	2.04	-48.6	-63.8	3.6	1.51e+00	0	28	104	1304428544	60	55942
2026-01-13 12:34:53.26	138.18	1.84	-48.6	-63.8	3.6	1.51e+00	0	28	104	1304428544	60	56040
2026-01-13 12:34:57.30	138.51	1.63	-48.6	-63.8	3.6	1.51e+00	0	28	104	1304428544	60	56262
2026-01-13 12:35:01.34	138.84	1.43	-48.6	-63.8	3.6	1.51e+00	0	28	104	1304428544	60	56137
2026-01-13 12:35:05.38	139.16	1.22	-48.7	-63.9	3.6	1.51e+00	0	28	104	1304428544	60	56853
2026-01-13 12:35:09.42	139.48	1.02	-48.7	-63.8	3.6	1.51e+00	0	28	104	1304428544	60	56113
2026-01-13 12:35:13.47	139.80	0.82	-48.7	-63.9	3.6	1.51e+00	0	28	104	1304428544	60	56331
2026-01-13 12:35:17.50	140.11	0.62	-48.6	-63.8	3.6	1.51e+00	0	28	104	1304428544	60	56264
2026-01-13 12:35:21.54	140.41	0.42	-48.6	-63.8	3.6	1.51e+00	0	28	104	1304428544	60	56173
2026-01-13 12:35:25.58	140.72	0.22	-48.6	-63.8	3.6	1.51e+00	0	28	104	1304428544	60	55805
2026-01-13 12:35:29.62	141.02	0.02	-48.6	-63.8	3.6	1.51e+00	0	28	104	1304428544	60	56197

#Closed at: 2026-01-13 12:35:31
#Recorded file [1304 MB]: D:/lorett/data/35029_260114_002202.dat