passes_logs/2026/01/13/R4.6S_Anadyr/R4.6S_Anadyr__20260113_155119_AQUA_rec.log

#Pass ID: 20260113_155119_AQUA
#Satellite: AQUA
#Configuration: AQUA
#almurnet v.1.7.20251203
#Start time: 2026-01-13 15:51:20

#Version: 2.2.20231116
#Station: R4.6S_Anadyr
#Location: 177.4865 lon 64.73178 lat
#TLE: 1 27424U 02022A   26012.29577270  .00001027  00000+0  21555-3 0  9995
#TLE: 2 27424  98.4078 338.6778 0002034  81.5885  29.6294 14.61817302260499

#Time	Az	El	Level	Level2	SNR	BER	BlckErr	Temp	State	Recorded	gain1	gain2
2026-01-13 15:51:20.90	19.56	0.07	-48.4	-63.3	3.6	1.51e+00	0	24	0	0	60	53046
2026-01-13 15:51:24.94	19.66	0.31	-48.8	-66.7	3.5	3.01e+01	0	26	104	0	60	82885
2026-01-13 15:51:28.98	19.75	0.56	-48.6	-66.6	3.5	3.01e+01	0	26	104	0	60	82216
2026-01-13 15:51:33.02	19.85	0.81	-48.1	-66.0	3.5	3.01e+01	0	26	104	0	60	76850
2026-01-13 15:51:37.05	19.94	1.07	-47.3	-65.1	3.5	3.01e+01	0	26	104	0	60	69105
2026-01-13 15:51:41.09	20.04	1.32	-47.3	-65.1	3.5	3.01e+01	0	26	104	0	60	69076
2026-01-13 15:51:45.13	20.15	1.58	-47.3	-64.9	3.5	3.01e+01	0	26	104	0	60	67749
2026-01-13 15:51:49.17	20.25	1.84	-47.3	-65.0	3.5	3.01e+01	0	26	104	0	60	68710
2026-01-13 15:51:53.21	20.35	2.10	-47.3	-64.8	3.5	3.01e+01	0	26	104	0	60	66526
2026-01-13 15:51:57.25	20.46	2.37	-47.2	-64.4	3.5	3.01e+01	0	26	104	0	60	63877
2026-01-13 15:52:01.28	20.57	2.63	-46.9	-58.6	6.0	3.01e+01	92	26	104	0	60	32695
2026-01-13 15:52:05.32	20.67	2.91	-46.6	-55.1	8.9	3.01e+01	63	26	0	3670016	60	21880
2026-01-13 15:52:09.36	20.79	3.18	-41.7	-44.0	20.6	3.01e+01	53	26	0	11010048	58	6867
2026-01-13 15:52:13.40	20.90	3.46	-39.1	-49.6	3.5	3.01e+01	0	26	104	14680064	54	16501
2026-01-13 15:52:17.44	21.01	3.74	-41.7	-52.8	3.4	3.01e+01	0	26	104	14680064	56	21225
2026-01-13 15:52:21.47	21.13	4.02	-40.7	-51.6	3.5	3.01e+01	0	26	104	14680064	52	23241
2026-01-13 15:52:25.51	21.25	4.30	-38.5	-48.9	3.8	3.01e+01	0	26	104	14680064	52	17073
2026-01-13 15:52:29.54	21.37	4.59	-39.9	-50.7	3.5	3.01e+01	0	26	104	14680064	56	16519
2026-01-13 15:52:33.58	21.50	4.89	-44.1	-56.2	3.5	3.01e+01	0	26	104	14680064	60	24935
2026-01-13 15:52:37.61	21.62	5.18	-37.5	-47.9	3.5	3.01e+01	0	26	104	14680064	50	17027
2026-01-13 15:52:41.65	21.75	5.48	-40.9	-51.7	3.6	3.01e+01	0	26	104	14680064	52	23548
2026-01-13 15:52:45.69	21.88	5.79	-37.5	-47.9	3.5	3.01e+01	0	27	104	14680064	50	17042
2026-01-13 15:52:49.73	22.01	6.09	-44.2	-56.5	3.5	3.01e+01	0	27	104	14680064	60	25730
2026-01-13 15:52:53.77	22.15	6.41	-38.1	-48.6	3.5	3.01e+01	0	26	104	14680064	52	16398
2026-01-13 15:52:57.80	22.29	6.72	-47.6	-65.3	3.5	3.01e+01	0	27	104	14680064	60	70845
2026-01-13 15:53:01.84	22.43	7.04	-37.9	-48.3	3.5	3.01e+01	0	27	104	14680064	50	17865
2026-01-13 15:53:05.88	22.58	7.37	-39.9	-50.6	3.5	3.01e+01	0	27	104	14680064	56	16454
2026-01-13 15:53:09.92	22.73	7.70	-39.1	-49.7	3.5	3.01e+01	0	27	104	14680064	56	14738
2026-01-13 15:53:13.95	22.88	8.03	-37.1	-47.5	3.5	3.01e+01	0	27	104	14680064	48	18169
2026-01-13 15:53:17.99	23.03	8.37	-47.5	-63.7	3.5	3.01e+01	0	27	104	14680064	60	58896
2026-01-13 15:53:22.03	23.19	8.71	-36.7	-47.0	3.5	3.01e+01	0	27	104	14680064	48	17231
2026-01-13 15:53:26.06	23.35	9.06	-40.3	-51.0	3.5	3.01e+01	0	27	104	14680064	56	17185
2026-01-13 15:53:30.09	23.52	9.42	-39.9	-50.5	3.6	3.01e+01	0	27	104	14680064	54	18313
2026-01-13 15:53:34.13	23.69	9.78	-47.7	-64.5	3.5	3.01e+01	0	27	104	14680064	60	64280
2026-01-13 15:53:38.17	23.86	10.14	-37.8	-48.3	3.5	3.01e+01	0	27	104	14680064	50	17863
2026-01-13 15:53:42.21	24.04	10.51	-38.5	-49.2	3.6	3.01e+01	0	27	104	14680064	52	17504
2026-01-13 15:53:46.24	24.22	10.89	-37.3	-47.8	3.5	3.01e+01	0	27	104	14680064	50	16725
2026-01-13 15:53:50.28	24.41	11.27	-36.9	-47.3	3.5	3.01e+01	0	27	104	14680064	46	20041
2026-01-13 15:53:54.32	24.60	11.66	-47.2	-62.9	3.5	3.01e+01	0	27	104	14680064	60	53625
2026-01-13 15:53:58.35	24.80	12.06	-37.9	-48.3	3.6	3.01e+01	0	27	104	14680064	52	15805
2026-01-13 15:54:02.39	25.00	12.47	-37.1	-47.5	3.5	3.01e+01	0	27	104	14680064	50	16201
2026-01-13 15:54:06.43	25.21	12.88	-36.6	-47.0	3.5	3.01e+01	0	27	104	14680064	48	17123
2026-01-13 15:54:10.47	25.42	13.30	-48.0	-65.2	3.5	3.01e+01	0	27	104	14680064	60	70310
2026-01-13 15:54:14.50	25.64	13.73	-36.2	-46.5	3.5	3.01e+01	0	27	104	14680064	48	16136
2026-01-13 15:54:18.54	25.87	14.16	-37.9	-48.2	3.5	3.01e+01	0	27	104	14680064	48	19688
2026-01-13 15:54:22.58	26.10	14.61	-39.3	-49.9	3.5	3.01e+01	0	27	104	14680064	54	16908
2026-01-13 15:54:26.62	26.34	15.06	-36.8	-47.2	3.5	3.01e+01	0	27	104	14680064	46	19663
2026-01-13 15:54:30.66	26.59	15.52	-39.9	-50.5	3.2	3.01e+01	0	27	104	14680064	60	12835
2026-01-13 15:54:34.69	26.85	15.99	-35.9	-46.1	3.5	3.01e+01	0	27	104	14680064	46	17462
2026-01-13 15:54:38.72	27.11	16.47	-40.4	-51.1	3.5	3.01e+01	0	27	104	14680064	46	30862
2026-01-13 15:54:42.76	27.38	16.96	-35.2	-45.3	3.5	3.01e+01	0	27	104	14680064	46	15909
2026-01-13 15:54:46.81	27.66	17.47	-39.6	-50.3	3.6	3.01e+01	0	27	104	14680064	56	15799
2026-01-13 15:54:50.84	27.95	17.98	-38.8	-49.3	3.5	3.01e+01	0	27	104	14680064	52	17791
2026-01-13 15:54:54.88	28.26	18.50	-48.0	-64.8	3.5	3.01e+01	0	27	104	14680064	60	67168
2026-01-13 15:54:58.91	28.57	19.04	-36.3	-46.6	3.5	3.01e+01	0	27	104	14680064	48	16395
2026-01-13 15:55:02.95	28.89	19.59	-37.6	-48.0	3.5	3.01e+01	0	27	104	14680064	46	21710
2026-01-13 15:55:06.98	29.22	20.15	-36.3	-46.5	3.6	3.01e+01	0	27	104	14680064	48	16318
2026-01-13 15:55:11.02	29.57	20.72	-42.7	-53.9	3.5	3.01e+01	0	27	104	14680064	58	21385
2026-01-13 15:55:15.05	29.93	21.31	-47.8	-63.4	3.5	3.01e+01	0	27	104	14680064	60	56927
2026-01-13 15:55:19.09	30.31	21.91	-39.2	-49.8	3.5	3.01e+01	0	27	104	14680064	52	18892
2026-01-13 15:55:23.13	30.70	22.53	-39.7	-50.3	3.5	3.01e+01	0	27	104	14680064	54	17841
2026-01-13 15:55:27.17	31.10	23.16	-35.8	-46.0	3.5	3.01e+01	0	27	104	14680064	46	17286
2026-01-13 15:55:31.20	31.52	23.81	-47.9	-63.6	3.5	3.01e+01	0	27	104	14680064	60	58201
2026-01-13 15:55:35.24	31.97	24.48	-36.1	-46.4	3.5	3.01e+01	0	27	104	14680064	48	16012
2026-01-13 15:55:39.28	32.43	25.16	-37.0	-47.4	3.5	3.01e+01	0	27	104	14680064	50	15983
2026-01-13 15:55:43.32	32.91	25.86	-39.8	-50.3	3.5	3.01e+01	0	27	104	14680064	54	17816
2026-01-13 15:55:47.36	33.41	26.58	-37.5	-47.7	3.5	3.01e+01	0	27	104	14680064	50	16679
2026-01-13 15:55:51.39	33.94	27.32	-47.2	-61.6	3.5	3.01e+01	0	27	104	14680064	60	46142
2026-01-13 15:55:55.43	34.49	28.07	-36.7	-47.0	3.5	3.01e+01	0	27	104	14680064	48	17178
2026-01-13 15:55:59.47	35.07	28.85	-35.2	-45.4	3.5	3.01e+01	0	27	104	14680064	46	16001
2026-01-13 15:56:03.51	35.68	29.65	-35.3	-45.5	3.5	3.01e+01	0	27	104	14680064	46	16245
2026-01-13 15:56:07.55	36.32	30.47	-46.9	-61.2	3.5	3.01e+01	0	27	104	14680064	60	43939
2026-01-13 15:56:11.58	36.99	31.31	-38.6	-49.0	3.5	3.01e+01	0	27	104	14680064	52	17151
2026-01-13 15:56:15.62	37.70	32.18	-42.0	-53.0	3.5	3.01e+01	0	27	104	14680064	50	30715
2026-01-13 15:56:19.66	38.45	33.06	-40.6	-51.3	3.5	3.01e+01	0	27	104	14680064	56	17839
2026-01-13 15:56:23.70	39.25	33.97	-47.1	-61.6	3.5	3.01e+01	0	27	104	14680064	60	46023
2026-01-13 15:56:27.73	40.08	34.90	-40.4	-51.3	3.5	3.01e+01	0	27	104	14680064	60	14068
2026-01-13 15:56:31.77	40.97	35.86	-47.4	-62.7	3.5	3.01e+01	0	27	104	14680064	60	52720
2026-01-13 15:56:35.81	41.92	36.84	-46.4	-59.5	3.5	3.01e+01	0	27	104	14680064	60	36427
2026-01-13 15:56:39.84	42.92	37.84	-37.1	-47.4	3.5	3.01e+01	0	27	104	14680064	50	15996
2026-01-13 15:56:43.88	43.99	38.87	-43.8	-55.7	3.5	3.01e+01	0	27	104	14680064	60	23474
2026-01-13 15:56:47.92	45.13	39.91	-40.9	-51.6	3.5	3.01e+01	0	27	104	14680064	56	18414
2026-01-13 15:56:51.96	46.35	40.98	-41.2	-51.9	3.5	3.01e+01	0	27	104	14680064	52	24093
2026-01-13 15:56:55.99	47.64	42.07	-36.2	-46.5	3.6	3.01e+01	0	27	104	14680064	48	16300
2026-01-13 15:57:00.03	49.04	43.17	-43.0	-54.2	3.5	3.01e+01	0	27	104	14680064	56	24871
2026-01-13 15:57:04.07	50.53	44.29	-35.2	-45.4	3.5	3.01e+01	0	27	104	14680064	46	16014
2026-01-13 15:57:08.10	52.13	45.42	-48.3	-64.9	3.5	3.01e+01	0	27	104	14680064	60	67407
2026-01-13 15:57:12.14	53.85	46.56	-48.2	-64.5	3.5	3.01e+01	0	27	104	14680064	60	64828
2026-01-13 15:57:16.17	55.70	47.70	-36.3	-46.6	3.5	3.01e+01	0	27	104	14680064	48	16348
2026-01-13 15:57:20.21	57.70	48.84	-37.5	-47.8	3.5	3.01e+01	0	27	104	14680064	52	14899
2026-01-13 15:57:24.24	59.84	49.98	-34.6	-44.9	3.5	3.01e+01	0	27	104	14680064	44	16939
2026-01-13 15:57:28.28	62.15	51.09	-48.0	-63.6	3.5	3.01e+01	0	27	104	14680064	60	58372
2026-01-13 15:57:32.32	64.65	52.19	-35.1	-45.3	3.5	3.01e+01	0	27	104	14680064	44	17825
2026-01-13 15:57:36.35	67.32	53.25	-35.8	-46.1	3.5	3.01e+01	0	27	104	14680064	48	15460
2026-01-13 15:57:40.39	70.20	54.26	-39.5	-50.0	3.5	3.01e+01	0	27	104	14680064	54	17219
2026-01-13 15:57:44.43	73.28	55.22	-42.7	-53.8	3.5	3.01e+01	0	27	104	14680064	60	18826
2026-01-13 15:57:48.46	76.57	56.11	-48.5	-66.0	3.5	3.01e+01	0	27	104	14680064	60	76734
2026-01-13 15:57:52.50	80.07	56.92	-39.0	-49.3	3.5	3.01e+01	0	27	104	14680064	48	22483
2026-01-13 15:57:56.54	83.78	57.63	-37.3	-47.7	3.5	3.01e+01	0	27	104	14680064	48	18625
2026-01-13 15:58:00.58	87.67	58.24	-36.8	-46.8	3.5	3.01e+01	0	27	104	14680064	48	16891
2026-01-13 15:58:04.62	91.72	58.72	-46.2	-59.0	3.5	3.01e+01	0	27	104	14680064	60	34309
2026-01-13 15:58:08.66	95.90	59.07	-40.1	-50.8	3.5	3.01e+01	0	27	104	14680064	56	16707
2026-01-13 15:58:12.69	100.16	59.28	-41.6	-52.3	3.5	3.01e+01	0	27	104	14680064	50	28322
2026-01-13 15:58:16.73	104.48	59.35	-38.1	-48.4	3.5	3.01e+01	0	27	104	14680064	50	17959
2026-01-13 15:58:20.77	108.80	59.27	-45.0	-57.0	3.5	3.01e+01	0	27	104	14680064	60	27374
2026-01-13 15:58:24.80	113.06	59.05	-42.4	-53.2	3.6	3.01e+01	0	27	104	14680064	60	17669
2026-01-13 15:58:28.83	117.22	58.69	-44.0	-55.7	3.5	3.01e+01	0	27	104	14680064	60	23351
2026-01-13 15:58:32.86	121.25	58.19	-46.6	-59.9	3.4	3.01e+01	0	27	104	14680064	60	37850
2026-01-13 15:58:36.90	125.13	57.58	-39.0	-49.6	3.5	3.01e+01	0	27	104	14680064	52	18361
2026-01-13 15:58:40.93	128.82	56.86	-43.5	-55.1	5.1	3.01e+01	0	27	104	14680064	60	21908
2026-01-13 15:58:44.97	132.31	56.04	-37.1	-38.5	27.0	3.01e+01	56	27	0	17825792	48	6444
2026-01-13 15:58:49.01	135.59	55.14	-35.7	-36.9	28.6	3.01e+01	53	27	0	25165824	46	6041
2026-01-13 15:58:53.04	138.66	54.18	-35.0	-36.3	29.1	3.01e+01	61	27	0	32505856	44	6282
2026-01-13 15:58:57.08	141.53	53.16	-34.2	-35.4	29.8	3.01e+01	49	27	0	40370176	44	5679
2026-01-13 15:59:01.12	144.20	52.09	-34.9	-36.1	28.8	3.01e+01	63	27	0	47710208	44	6194
2026-01-13 15:59:05.15	146.68	50.99	-34.7	-35.9	29.2	3.01e+01	51	27	0	55574528	44	6035
2026-01-13 15:59:09.20	148.99	49.87	-34.9	-36.0	29.3	3.01e+01	61	27	0	62914560	44	6133
2026-01-13 15:59:13.23	151.12	48.73	-35.4	-36.6	28.8	3.01e+01	53	27	0	70778880	44	6536
2026-01-13 15:59:17.27	153.11	47.58	-35.2	-36.5	28.9	3.01e+01	56	27	0	78118912	44	6435
2026-01-13 15:59:21.31	154.95	46.44	-35.1	-36.3	29.0	3.01e+01	45	27	0	85983232	44	6295
2026-01-13 15:59:25.34	156.66	45.30	-35.1	-36.3	29.0	3.01e+01	59	27	0	93323264	44	6306
2026-01-13 15:59:29.38	158.26	44.16	-35.0	-36.2	29.1	3.01e+01	44	27	0	100663296	44	6236
2026-01-13 15:59:33.42	159.75	43.04	-35.2	-36.4	29.0	3.01e+01	61	27	0	108527616	44	6387
2026-01-13 15:59:37.45	161.13	41.93	-35.1	-36.3	29.1	3.01e+01	46	27	0	115867648	44	6336
2026-01-13 15:59:41.49	162.42	40.84	-35.3	-36.6	28.8	3.01e+01	59	27	0	123731968	44	6520
2026-01-13 15:59:45.53	163.64	39.77	-35.4	-36.7	28.8	3.01e+01	59	27	0	131072000	44	6575
2026-01-13 15:59:49.56	164.77	38.72	-35.2	-36.4	29.0	3.01e+01	58	27	0	138936320	44	6392
2026-01-13 15:59:53.60	165.83	37.69	-35.2	-36.5	28.9	3.01e+01	59	27	0	146276352	44	6446
2026-01-13 15:59:57.64	166.83	36.69	-35.0	-36.2	29.2	3.01e+01	60	27	0	153616384	44	6244
2026-01-13 16:00:01.68	167.77	35.71	-34.4	-35.6	29.6	3.01e+01	60	27	0	161480704	44	5807
2026-01-13 16:00:05.71	168.66	34.75	-33.8	-35.0	30.3	3.01e+01	58	27	0	168820736	42	6074
2026-01-13 16:00:09.74	169.49	33.82	-33.8	-35.0	30.2	3.01e+01	59	27	0	176685056	42	6118
2026-01-13 16:00:13.77	170.28	32.91	-33.6	-34.8	30.3	3.01e+01	60	27	0	184025088	42	5930
2026-01-13 16:00:17.81	171.03	32.02	-33.5	-34.6	30.4	3.01e+01	61	27	0	191889408	42	5834
2026-01-13 16:00:21.85	171.73	31.15	-33.5	-34.6	30.2	3.01e+01	59	27	0	199229440	42	5849
2026-01-13 16:00:25.88	172.40	30.31	-33.4	-34.6	30.4	3.01e+01	60	27	0	207093760	42	5816
2026-01-13 16:00:29.92	173.04	29.49	-33.6	-34.7	30.2	3.01e+01	57	27	0	214433792	42	5909
2026-01-13 16:00:33.96	173.65	28.69	-33.8	-34.9	30.0	3.01e+01	57	27	0	221773824	42	6060
2026-01-13 16:00:37.99	174.22	27.91	-33.9	-35.1	30.0	3.01e+01	56	27	0	229638144	42	6186
2026-01-13 16:00:42.03	174.77	27.15	-34.1	-35.3	29.7	3.01e+01	61	27	0	236978176	42	6333
2026-01-13 16:00:46.07	175.30	26.41	-34.4	-35.6	29.5	3.01e+01	64	27	0	244842496	42	6540
2026-01-13 16:00:50.10	175.80	25.70	-34.4	-35.6	29.5	3.01e+01	61	27	0	252182528	42	6521
2026-01-13 16:00:54.14	176.28	24.99	-34.5	-35.7	29.5	3.01e+01	58	27	0	260046848	42	6584
2026-01-13 16:00:58.18	176.73	24.31	-34.5	-35.7	29.4	3.01e+01	58	27	0	267386880	42	6604
2026-01-13 16:01:02.22	177.17	23.64	-34.7	-35.9	29.3	3.01e+01	46	27	0	274726912	42	6739
2026-01-13 16:01:06.25	177.59	22.99	-34.7	-35.9	29.2	3.01e+01	58	27	0	282591232	42	6788
2026-01-13 16:01:10.29	178.00	22.36	-34.7	-35.9	29.2	3.01e+01	55	27	0	289931264	42	6740
2026-01-13 16:01:14.33	178.38	21.74	-34.6	-35.9	29.2	3.01e+01	65	27	0	297795584	42	6734
2026-01-13 16:01:18.36	178.76	21.14	-34.3	-35.5	29.6	3.01e+01	55	27	0	305135616	42	6439
2026-01-13 16:01:22.41	179.11	20.55	-34.4	-35.6	29.6	3.01e+01	59	27	0	312999936	42	6553
2026-01-13 16:01:26.44	179.46	19.97	-34.3	-35.5	29.6	3.01e+01	47	27	0	320339968	42	6471
2026-01-13 16:01:30.48	179.79	19.41	-34.2	-35.4	29.7	3.01e+01	51	27	0	328204288	42	6403
2026-01-13 16:01:34.52	180.11	18.86	-34.2	-35.5	29.7	3.01e+01	51	27	0	335544320	42	6426
2026-01-13 16:01:38.55	180.42	18.32	-34.3	-35.5	29.6	3.01e+01	61	27	0	342884352	42	6435
2026-01-13 16:01:42.59	180.72	17.80	-34.3	-35.6	29.5	3.01e+01	51	27	0	350748672	42	6501
2026-01-13 16:01:46.63	181.01	17.29	-34.4	-35.6	29.5	3.01e+01	61	27	0	358088704	42	6530
2026-01-13 16:01:50.66	181.29	16.78	-34.2	-35.5	29.6	3.01e+01	47	27	0	365953024	42	6424
2026-01-13 16:01:54.70	181.56	16.29	-34.3	-35.5	29.5	3.01e+01	60	27	0	373293056	42	6448
2026-01-13 16:01:58.73	181.82	15.81	-34.3	-35.5	29.5	3.01e+01	45	27	0	381157376	42	6472
2026-01-13 16:02:02.77	182.07	15.34	-34.2	-35.5	29.5	3.01e+01	60	27	0	388497408	42	6425
2026-01-13 16:02:06.80	182.31	14.88	-34.2	-35.4	29.6	3.01e+01	46	27	0	395837440	42	6419
2026-01-13 16:02:10.84	182.55	14.42	-34.1	-35.3	29.6	3.01e+01	60	27	0	403701760	42	6346
2026-01-13 16:02:14.88	182.78	13.98	-34.1	-35.3	29.6	3.01e+01	57	27	0	411041792	42	6340
2026-01-13 16:02:18.92	183.01	13.54	-34.2	-35.5	29.5	3.01e+01	58	27	0	418906112	42	6428
2026-01-13 16:02:22.96	183.22	13.11	-34.4	-35.6	29.4	3.01e+01	59	27	0	426246144	42	6513
2026-01-13 16:02:27.00	183.43	12.69	-34.4	-35.6	29.3	3.01e+01	58	27	0	434110464	42	6536
2026-01-13 16:02:31.04	183.64	12.28	-34.5	-35.8	29.3	3.01e+01	55	27	0	441450496	42	6651
2026-01-13 16:02:35.08	183.84	11.87	-35.0	-36.2	28.8	3.01e+01	61	27	0	449314816	44	6252
2026-01-13 16:02:39.11	184.03	11.48	-34.9	-36.2	28.7	3.01e+01	55	27	0	456654848	44	6215
2026-01-13 16:02:43.15	184.22	11.09	-34.5	-35.7	29.1	3.01e+01	59	27	0	463994880	44	5919
2026-01-13 16:02:47.19	184.41	10.70	-34.6	-35.8	29.1	3.01e+01	60	27	0	471859200	44	5945
2026-01-13 16:02:51.22	184.59	10.32	-34.8	-36.1	28.9	3.01e+01	58	27	0	479199232	44	6144
2026-01-13 16:02:55.26	184.76	9.95	-34.8	-36.1	28.8	3.01e+01	58	27	0	487063552	44	6193
2026-01-13 16:02:59.30	184.93	9.58	-35.0	-36.3	28.6	3.01e+01	61	27	0	494403584	44	6321
2026-01-13 16:03:03.33	185.10	9.23	-35.1	-36.4	28.5	3.01e+01	62	27	0	502267904	44	6374
2026-01-13 16:03:07.37	185.26	8.87	-35.4	-36.7	28.2	3.01e+01	59	27	0	509607936	44	6629
2026-01-13 16:03:11.41	185.42	8.52	-35.3	-36.6	28.3	3.01e+01	59	27	0	516947968	44	6540
2026-01-13 16:03:15.45	185.58	8.18	-35.4	-36.7	28.2	3.01e+01	60	27	0	524812288	44	6596
2026-01-13 16:03:19.49	185.73	7.84	-35.4	-36.7	28.2	3.01e+01	57	27	0	532152320	44	6599
2026-01-13 16:03:23.52	185.88	7.50	-35.7	-37.0	27.9	3.01e+01	58	27	0	540016640	44	6859
2026-01-13 16:03:27.56	186.02	7.17	-36.0	-37.3	27.6	3.01e+01	56	27	0	547356672	44	7109
2026-01-13 16:03:31.60	186.16	6.85	-35.9	-37.2	27.7	3.01e+01	45	27	0	555220992	46	6256
2026-01-13 16:03:35.64	186.30	6.53	-35.9	-37.3	27.6	3.01e+01	61	27	0	562561024	46	6320
2026-01-13 16:03:39.68	186.44	6.21	-36.1	-37.5	27.4	3.01e+01	56	27	0	570425344	46	6434
2026-01-13 16:03:43.71	186.57	5.90	-36.3	-37.7	27.1	3.01e+01	60	27	0	577765376	46	6596
2026-01-13 16:03:47.75	186.70	5.59	-36.3	-37.7	27.1	3.01e+01	44	27	0	585105408	46	6588
2026-01-13 16:03:51.79	186.83	5.29	-36.4	-37.9	26.8	3.01e+01	63	27	0	592969728	46	6729
2026-01-13 16:03:55.83	186.95	4.98	-36.7	-38.1	26.7	3.01e+01	59	27	0	600309760	46	6946
2026-01-13 16:03:59.86	187.08	4.69	-36.9	-38.4	26.3	3.01e+01	61	27	0	608174080	48	6374
2026-01-13 16:04:03.90	187.20	4.39	-37.3	-38.7	26.0	3.01e+01	52	27	0	615514112	48	6620
2026-01-13 16:04:07.94	187.31	4.10	-36.8	-38.2	26.5	3.01e+01	60	27	0	623378432	48	6245
2026-01-13 16:04:11.98	187.43	3.82	-36.9	-38.3	26.3	3.01e+01	51	27	0	630718464	48	6318
2026-01-13 16:04:16.02	187.54	3.53	-37.2	-38.7	25.9	3.01e+01	52	27	0	638058496	48	6594
2026-01-13 16:04:20.05	187.65	3.25	-37.5	-39.0	25.6	3.01e+01	46	27	0	645922816	48	6841
2026-01-13 16:04:24.09	187.76	2.98	-47.6	-65.5	3.5	3.01e+01	0	27	104	652214272	60	72322
2026-01-13 16:04:28.13	187.87	2.70	-48.7	-66.5	3.5	3.01e+01	0	27	104	652214272	60	81477
2026-01-13 16:04:32.17	187.98	2.43	-48.7	-66.7	3.5	3.01e+01	0	27	104	652214272	60	82829
2026-01-13 16:04:36.20	188.08	2.16	-48.4	-66.5	3.5	3.01e+01	0	27	104	652214272	60	81626
2026-01-13 16:04:40.24	188.18	1.90	-48.7	-66.5	3.5	3.01e+01	0	27	104	652214272	60	81671
2026-01-13 16:04:44.28	188.28	1.63	-48.7	-66.6	3.5	3.01e+01	0	27	104	652214272	60	81899
2026-01-13 16:04:48.31	188.38	1.37	-48.6	-66.5	3.5	3.01e+01	0	27	104	652214272	60	81562
2026-01-13 16:04:52.35	188.48	1.12	-48.6	-66.5	3.5	3.01e+01	0	27	104	652214272	60	81621
2026-01-13 16:04:56.39	188.57	0.86	-48.6	-66.5	3.5	3.01e+01	0	27	104	652214272	60	81576
2026-01-13 16:05:00.43	188.67	0.61	-48.6	-66.5	3.5	3.01e+01	0	27	104	652214272	60	81406
2026-01-13 16:05:04.47	188.76	0.36	-48.6	-66.5	3.5	3.01e+01	0	27	104	652214272	60	81114
2026-01-13 16:05:08.51	188.85	0.11	-48.6	-66.5	3.5	3.01e+01	0	27	104	652214272	60	81493

#Closed at: 2026-01-13 16:05:10
#Recorded file [652 MB]: D:/lorett/data/35029_260114_035120.dat