passes_logs/2026/01/13/R4.6S_Anadyr/R4.6S_Anadyr__20260113_010650_NOAA_21_JPSS-2_rec.log

#Pass ID: 20260113_010650_NOAA 21 (JPSS-2)
#Satellite: NOAA 21 (JPSS-2)
#Configuration: NOAA-21
#almurnet v.1.7.20251203
#Start time: 2026-01-13 01:06:51

#Version: 2.2.20231116
#Station: R4.6S_Anadyr
#Location: 177.4865 lon 64.73178 lat
#TLE: 1 54234U 22150A   26012.26378519  .00000063  00000+0  50547-4 0  9993
#TLE: 2 54234  98.7495 313.1967 0000726 309.1075  51.0036 14.19534275164425

#Time	Az	El	Level	Level2	SNR	BER	BlckErr	Temp	State	Recorded	gain1	gain2
2026-01-13 01:06:51.55	178.95	0.09	-48.7	-63.6	3.5	1.51e+00	0	25	0	0	60	54661
2026-01-13 01:06:55.59	179.08	0.32	-48.8	-61.6	3.5	1.52e+00	0	26	104	0	60	42223
2026-01-13 01:06:59.62	179.20	0.56	-48.8	-61.6	3.5	1.52e+00	0	27	104	0	60	42293
2026-01-13 01:07:03.67	179.33	0.80	-48.6	-61.4	3.5	1.52e+00	0	27	104	0	60	41248
2026-01-13 01:07:07.71	179.46	1.05	-47.7	-60.5	3.5	1.52e+00	0	27	104	0	60	37134
2026-01-13 01:07:11.74	179.59	1.29	-47.5	-60.2	3.5	1.52e+00	0	27	104	0	60	36107
2026-01-13 01:07:15.78	179.72	1.54	-47.5	-60.3	3.5	1.52e+00	0	27	104	0	60	36292
2026-01-13 01:07:19.82	179.85	1.79	-47.5	-60.2	3.5	1.52e+00	0	27	104	0	60	35743
2026-01-13 01:07:23.86	179.99	2.04	-47.5	-60.2	3.5	1.52e+00	0	27	104	0	60	35900
2026-01-13 01:07:27.90	180.12	2.29	-47.4	-60.2	3.5	1.52e+00	0	27	104	0	60	36006
2026-01-13 01:07:31.94	180.26	2.55	-47.3	-59.0	3.5	1.52e+00	0	27	104	0	60	31141
2026-01-13 01:07:35.98	180.41	2.80	-47.4	-59.3	3.5	1.51e+00	0	27	104	0	60	32217
2026-01-13 01:07:40.01	180.55	3.06	-45.4	-49.5	9.8	3.51e-02	120	27	0	4194304	60	10428
2026-01-13 01:07:44.05	180.70	3.33	-39.9	-41.4	18.1	0.00e+00	123	27	0	16777216	54	5822
2026-01-13 01:07:48.09	180.85	3.59	-38.6	-39.8	19.5	0.00e+00	122	27	0	29360128	50	6128
2026-01-13 01:07:52.13	181.00	3.86	-46.7	-54.0	4.2	0.00e+00	123	27	0	41943040	60	17496
2026-01-13 01:07:56.16	181.15	4.13	-40.8	-42.4	17.3	0.00e+00	122	27	0	48234496	56	5799
2026-01-13 01:08:00.20	181.31	4.40	-40.7	-42.3	17.6	0.00e+00	123	27	0	60817408	54	6440
2026-01-13 01:08:04.24	181.47	4.67	-39.7	-41.1	18.7	0.00e+00	123	27	0	73400320	52	6328
2026-01-13 01:08:08.28	181.63	4.95	-37.9	-39.1	20.4	0.00e+00	120	27	0	85983232	50	5637
2026-01-13 01:08:12.31	181.80	5.23	-37.5	-38.6	20.7	0.00e+00	120	27	0	98566144	48	5990
2026-01-13 01:08:16.36	181.97	5.51	-37.3	-38.4	21.1	0.00e+00	120	27	0	111149056	48	5802
2026-01-13 01:08:20.39	182.14	5.80	-37.1	-38.2	21.2	0.00e+00	123	27	0	123731968	48	5686
2026-01-13 01:08:24.43	182.31	6.09	-37.5	-38.6	20.9	0.00e+00	120	27	0	136314880	48	5983
2026-01-13 01:08:28.47	182.49	6.38	-37.2	-38.3	21.2	0.00e+00	122	27	0	148897792	48	5789
2026-01-13 01:08:32.51	182.67	6.67	-36.8	-37.9	21.6	0.00e+00	123	27	0	161480704	46	6145
2026-01-13 01:08:36.55	182.86	6.97	-36.7	-37.7	21.8	0.00e+00	122	27	0	174063616	46	6031
2026-01-13 01:08:40.59	183.05	7.27	-36.6	-37.7	21.8	0.00e+00	123	27	0	186646528	46	6009
2026-01-13 01:08:44.63	183.24	7.58	-36.5	-37.5	22.0	0.00e+00	122	27	0	199229440	46	5922
2026-01-13 01:08:48.67	183.43	7.89	-36.3	-37.3	22.2	0.00e+00	123	27	0	211812352	46	5777
2026-01-13 01:08:52.71	183.63	8.20	-36.1	-37.1	22.4	0.00e+00	120	28	0	224395264	46	5620
2026-01-13 01:08:56.74	183.84	8.51	-35.9	-36.9	22.5	0.00e+00	122	27	0	236978176	46	5522
2026-01-13 01:09:00.78	184.04	8.83	-36.0	-37.0	22.5	0.00e+00	123	28	0	249561088	46	5547
2026-01-13 01:09:04.81	184.26	9.15	-35.6	-36.7	22.7	0.00e+00	123	27	0	262144000	44	5996
2026-01-13 01:09:08.85	184.47	9.48	-35.6	-36.6	22.9	0.00e+00	122	28	0	274726912	44	5965
2026-01-13 01:09:12.89	184.69	9.81	-35.6	-36.6	22.8	0.00e+00	122	28	0	287309824	44	5952
2026-01-13 01:09:16.93	184.92	10.15	-35.4	-36.4	23.0	0.00e+00	123	27	0	300941312	44	5814
2026-01-13 01:09:20.97	185.15	10.49	-35.3	-36.3	23.1	0.00e+00	120	27	0	313524224	44	5730
2026-01-13 01:09:25.01	185.38	10.83	-35.3	-36.2	23.1	0.00e+00	120	28	0	326107136	44	5723
2026-01-13 01:09:29.05	185.63	11.18	-35.1	-36.0	23.3	0.00e+00	122	28	0	338690048	44	5591
2026-01-13 01:09:33.09	185.87	11.53	-35.0	-36.0	23.3	0.00e+00	120	28	0	351272960	44	5556
2026-01-13 01:09:37.14	186.13	11.89	-34.9	-35.9	23.5	0.00e+00	122	28	0	363855872	44	5499
2026-01-13 01:09:41.17	186.38	12.25	-34.8	-35.7	23.7	0.00e+00	120	28	0	376438784	44	5401
2026-01-13 01:09:45.21	186.65	12.62	-35.1	-36.0	23.5	0.00e+00	120	28	0	389021696	44	5575
2026-01-13 01:09:49.25	186.92	12.99	-34.8	-35.8	23.7	0.00e+00	122	28	0	401604608	42	6068
2026-01-13 01:09:53.29	187.19	13.36	-34.7	-35.7	23.8	0.00e+00	123	28	0	414187520	42	6010
2026-01-13 01:09:57.32	187.48	13.75	-34.8	-35.7	23.8	0.00e+00	123	28	0	426770432	42	6023
2026-01-13 01:10:01.36	187.77	14.13	-34.8	-35.8	23.7	0.00e+00	123	28	0	439353344	42	6078
2026-01-13 01:10:05.40	188.07	14.53	-34.8	-35.8	23.7	0.00e+00	123	28	0	451936256	42	6085
2026-01-13 01:10:09.44	188.37	14.93	-34.9	-35.9	23.7	0.00e+00	123	28	0	464519168	42	6159
2026-01-13 01:10:13.48	188.69	15.33	-35.2	-36.1	23.5	0.00e+00	123	28	0	477102080	42	6332
2026-01-13 01:10:17.51	189.01	15.74	-35.1	-36.1	23.6	0.00e+00	123	28	0	489684992	42	6292
2026-01-13 01:10:21.55	189.34	16.16	-35.3	-36.2	23.3	0.00e+00	123	28	0	502267904	42	6404
2026-01-13 01:10:25.60	189.68	16.59	-35.0	-35.9	23.6	0.00e+00	122	28	0	514850816	42	6191
2026-01-13 01:10:29.64	190.03	17.02	-34.9	-35.8	23.7	0.00e+00	123	28	0	527433728	42	6113
2026-01-13 01:10:33.68	190.39	17.45	-34.9	-35.8	23.9	0.00e+00	123	28	0	540016640	42	6087
2026-01-13 01:10:37.72	190.75	17.90	-34.8	-35.7	23.9	0.00e+00	122	28	0	552599552	42	6034
2026-01-13 01:10:41.75	191.13	18.35	-35.0	-36.0	23.7	0.00e+00	122	28	0	565182464	42	6213
2026-01-13 01:10:45.79	191.52	18.81	-34.4	-35.3	24.2	0.00e+00	120	28	0	577765376	42	5780
2026-01-13 01:10:49.83	191.92	19.27	-34.4	-35.3	24.2	0.00e+00	122	28	0	590348288	42	5774
2026-01-13 01:10:53.87	192.34	19.74	-34.4	-35.3	24.3	0.00e+00	122	28	0	602931200	42	5743
2026-01-13 01:10:57.91	192.76	20.22	-34.1	-35.0	24.4	0.00e+00	120	28	0	616562688	42	5589
2026-01-13 01:11:01.95	193.20	20.71	-33.8	-34.7	24.6	0.00e+00	122	28	0	628097024	42	5365
2026-01-13 01:11:05.99	193.66	21.21	-33.7	-34.6	24.8	0.00e+00	122	28	0	641728512	40	5931
2026-01-13 01:11:10.03	194.12	21.71	-33.8	-34.6	24.8	0.00e+00	120	28	0	654311424	40	5983
2026-01-13 01:11:14.07	194.61	22.23	-33.3	-34.2	25.0	0.00e+00	122	28	0	666894336	40	5709
2026-01-13 01:11:18.11	195.10	22.75	-33.2	-34.1	25.2	0.00e+00	123	28	0	679477248	40	5596
2026-01-13 01:11:22.15	195.62	23.28	-33.2	-34.1	25.1	0.00e+00	123	28	0	692060160	40	5646
2026-01-13 01:11:26.19	196.15	23.82	-33.3	-34.2	25.1	0.00e+00	123	28	0	704643072	40	5661
2026-01-13 01:11:30.23	196.70	24.37	-33.4	-34.3	25.0	0.00e+00	122	28	0	717225984	40	5750
2026-01-13 01:11:34.26	197.27	24.92	-33.6	-34.5	24.8	0.00e+00	122	28	0	729808896	40	5903
2026-01-13 01:11:38.30	197.86	25.49	-34.2	-35.1	24.5	0.00e+00	122	28	0	742391808	40	6294
2026-01-13 01:11:42.34	198.47	26.06	-34.0	-34.9	24.6	0.00e+00	122	28	0	754974720	40	6190
2026-01-13 01:11:46.38	199.10	26.64	-34.1	-35.0	24.5	0.00e+00	120	28	0	767557632	40	6209
2026-01-13 01:11:50.41	199.75	27.23	-34.5	-35.4	24.2	0.00e+00	120	28	0	780140544	40	6568
2026-01-13 01:11:54.45	200.43	27.84	-34.5	-35.4	24.2	0.00e+00	122	28	0	792723456	40	6548
2026-01-13 01:11:58.49	201.13	28.45	-34.3	-35.2	24.3	0.00e+00	123	28	0	805306368	40	6395
2026-01-13 01:12:02.53	201.87	29.06	-34.5	-35.4	24.2	0.00e+00	123	28	0	817889280	40	6534
2026-01-13 01:12:06.57	202.63	29.69	-34.5	-35.4	24.2	0.00e+00	123	28	0	830472192	40	6515
2026-01-13 01:12:10.60	203.41	30.33	-34.4	-35.3	24.3	0.00e+00	122	28	0	843055104	40	6477
2026-01-13 01:12:14.64	204.23	30.97	-34.7	-35.6	24.1	0.00e+00	123	28	0	855638016	40	6702
2026-01-13 01:12:18.67	205.08	31.62	-34.2	-35.1	24.4	0.00e+00	122	28	0	868220928	40	6323
2026-01-13 01:12:22.71	205.97	32.28	-34.3	-35.2	24.3	0.00e+00	122	28	0	880803840	40	6389
2026-01-13 01:12:26.75	206.89	32.95	-34.5	-35.4	24.2	0.00e+00	122	28	0	893386752	40	6530
2026-01-13 01:12:30.79	207.85	33.62	-34.3	-35.2	24.4	0.00e+00	123	28	0	905969664	40	6387
2026-01-13 01:12:34.82	208.85	34.30	-34.9	-35.9	23.9	0.00e+00	122	28	0	918552576	42	6157
2026-01-13 01:12:38.86	209.89	34.99	-35.0	-35.9	23.9	0.00e+00	123	28	0	931135488	42	6195
2026-01-13 01:12:42.89	210.98	35.67	-35.3	-36.3	23.5	0.00e+00	123	28	0	943718400	42	6431
2026-01-13 01:12:46.93	212.11	36.36	-35.6	-36.6	23.3	0.00e+00	120	28	0	956301312	42	6674
2026-01-13 01:12:50.97	213.29	37.06	-36.2	-37.2	22.8	0.00e+00	123	28	0	968884224	44	6358
2026-01-13 01:12:55.01	214.52	37.75	-36.5	-37.5	22.6	0.00e+00	123	28	0	981467136	44	6576
2026-01-13 01:12:59.05	215.81	38.45	-36.5	-37.5	22.7	0.00e+00	122	28	0	994050048	44	6583
2026-01-13 01:13:03.09	217.14	39.14	-36.6	-37.6	22.6	0.00e+00	123	28	0	1006632960	44	6686
2026-01-13 01:13:07.13	218.54	39.82	-36.5	-37.6	22.6	0.00e+00	122	28	0	1020264448	46	5943
2026-01-13 01:13:11.16	219.99	40.50	-36.6	-37.6	22.5	0.00e+00	122	28	0	1032847360	46	5994
2026-01-13 01:13:15.20	221.51	41.18	-37.3	-38.4	21.6	0.00e+00	122	28	0	1045430272	46	6502
2026-01-13 01:13:19.24	223.09	41.84	-37.2	-38.2	21.9	0.00e+00	123	28	0	1058013184	46	6415
2026-01-13 01:13:23.28	224.73	42.49	-37.2	-38.2	22.0	0.00e+00	120	28	0	1070596096	46	6421
2026-01-13 01:13:27.32	226.44	43.12	-36.6	-37.6	22.4	0.00e+00	122	28	0	1083179008	46	5964
2026-01-13 01:13:31.36	228.21	43.74	-37.4	-38.5	21.9	0.00e+00	122	28	0	1095761920	46	6609
2026-01-13 01:13:35.40	230.06	44.33	-37.0	-38.1	22.0	0.00e+00	122	28	0	1108344832	46	6290
2026-01-13 01:13:39.44	231.97	44.90	-37.2	-38.3	21.9	0.00e+00	123	28	0	1120927744	46	6470
2026-01-13 01:13:43.48	233.94	45.44	-36.3	-37.4	22.3	0.00e+00	123	28	0	1133510656	46	5797
2026-01-13 01:13:47.52	235.99	45.95	-36.0	-36.9	23.0	0.00e+00	120	28	0	1146093568	46	5530
2026-01-13 01:13:51.55	238.09	46.42	-36.7	-37.8	22.3	0.00e+00	122	28	0	1158676480	46	6067
2026-01-13 01:13:55.59	240.26	46.86	-36.8	-37.9	22.3	0.00e+00	123	28	0	1171259392	46	6136
2026-01-13 01:13:59.63	242.48	47.25	-37.3	-38.4	22.0	0.00e+00	122	28	0	1183842304	46	6538
2026-01-13 01:14:03.67	244.76	47.61	-36.1	-37.0	23.0	0.00e+00	123	28	0	1196425216	46	5594
2026-01-13 01:14:07.70	247.08	47.91	-36.1	-37.0	23.0	0.00e+00	123	28	0	1209008128	46	5575
2026-01-13 01:14:11.74	249.45	48.17	-36.4	-37.4	22.7	0.00e+00	122	28	0	1221591040	46	5816
2026-01-13 01:14:15.77	251.85	48.37	-36.3	-37.3	22.5	0.00e+00	123	28	0	1234173952	46	5777
2026-01-13 01:14:19.81	254.28	48.52	-36.6	-37.6	22.6	0.00e+00	122	28	0	1246756864	46	5933
2026-01-13 01:14:23.85	256.73	48.62	-36.4	-37.4	22.8	0.00e+00	122	28	0	1259339776	46	5827
2026-01-13 01:14:27.89	259.20	48.66	-36.2	-37.1	22.9	0.00e+00	122	28	0	1271922688	46	5627
2026-01-13 01:14:31.93	261.66	48.65	-36.4	-37.4	22.6	0.00e+00	123	28	0	1284505600	46	5832
2026-01-13 01:14:35.97	264.11	48.58	-36.1	-37.0	23.1	0.00e+00	121	28	0	1297088512	46	5584
2026-01-13 01:14:40.01	266.56	48.45	-36.6	-37.7	22.4	0.00e+00	123	28	0	1309671424	46	6009
2026-01-13 01:14:44.04	268.97	48.28	-37.0	-38.1	22.2	0.00e+00	123	28	0	1322254336	46	6312
2026-01-13 01:14:48.08	271.35	48.04	-37.1	-38.1	22.3	0.00e+00	120	28	0	1334837248	46	6330
2026-01-13 01:14:52.12	273.70	47.76	-37.8	-38.9	21.3	0.00e+00	123	28	0	1347420160	46	6950
2026-01-13 01:14:56.16	276.00	47.43	-36.8	-37.7	22.2	0.00e+00	123	28	0	1360003072	48	5404
2026-01-13 01:15:00.20	278.25	47.06	-36.9	-37.9	22.3	0.00e+00	123	28	0	1372585984	46	6148
2026-01-13 01:15:04.24	280.44	46.64	-36.5	-37.5	22.5	0.00e+00	123	28	0	1386217472	46	5913
2026-01-13 01:15:08.27	282.57	46.19	-37.4	-38.5	21.7	0.00e+00	123	28	0	1398800384	46	6601
2026-01-13 01:15:12.31	284.64	45.70	-36.3	-37.3	22.8	0.00e+00	120	28	0	1411383296	46	5750
2026-01-13 01:15:16.35	286.65	45.18	-36.1	-37.1	22.9	0.00e+00	123	28	0	1423966208	46	5608
2026-01-13 01:15:20.39	288.59	44.62	-35.9	-36.9	22.9	0.00e+00	122	28	0	1436549120	46	5495
2026-01-13 01:15:24.42	290.46	44.04	-36.5	-37.4	22.5	0.00e+00	122	28	0	1449132032	46	5857
2026-01-13 01:15:28.46	292.26	43.44	-36.8	-37.8	22.2	0.00e+00	122	28	0	1461714944	46	6103
2026-01-13 01:15:32.50	294.00	42.82	-37.8	-38.9	21.3	0.00e+00	123	28	0	1474297856	48	6192
2026-01-13 01:15:36.54	295.67	42.18	-37.2	-38.3	21.8	0.00e+00	122	28	0	1486880768	48	5728
2026-01-13 01:15:40.58	297.28	41.53	-36.8	-37.8	22.4	0.00e+00	123	28	0	1499463680	46	6133
2026-01-13 01:15:44.61	298.82	40.87	-36.4	-37.4	22.7	0.00e+00	123	28	0	1512046592	46	5848
2026-01-13 01:15:48.65	300.30	40.19	-36.2	-37.2	22.9	0.00e+00	122	28	0	1524629504	46	5687
2026-01-13 01:15:52.69	301.72	39.51	-36.8	-37.8	22.3	0.00e+00	123	28	0	1537212416	46	6081
2026-01-13 01:15:56.72	303.08	38.83	-36.6	-37.6	22.6	0.00e+00	123	28	0	1549795328	46	5977
2026-01-13 01:16:00.76	304.39	38.14	-36.9	-37.9	22.3	0.00e+00	123	28	0	1562378240	46	6182
2026-01-13 01:16:04.80	305.64	37.45	-35.5	-36.4	23.5	0.00e+00	123	28	0	1574961152	44	5827
2026-01-13 01:16:08.84	306.84	36.76	-35.2	-36.1	23.7	0.00e+00	123	28	0	1587544064	44	5629
2026-01-13 01:16:12.88	308.00	36.07	-35.2	-36.1	23.8	0.00e+00	123	28	0	1600126976	44	5629
2026-01-13 01:16:16.92	309.10	35.38	-35.4	-36.3	23.6	0.00e+00	120	28	0	1612709888	44	5765
2026-01-13 01:16:20.96	310.17	34.70	-35.0	-35.9	23.9	0.00e+00	120	28	0	1625292800	44	5527
2026-01-13 01:16:25.00	311.19	34.02	-35.8	-36.7	23.2	0.00e+00	120	28	0	1637875712	44	6055
2026-01-13 01:16:29.05	312.17	33.34	-35.6	-36.6	23.3	0.00e+00	122	28	0	1650458624	44	5952
2026-01-13 01:16:33.08	313.11	32.68	-35.9	-36.8	23.2	0.00e+00	123	28	0	1663041536	44	6134
2026-01-13 01:16:37.13	314.01	32.02	-35.0	-35.9	23.9	0.00e+00	122	28	0	1675624448	44	5489
2026-01-13 01:16:41.17	314.88	31.37	-34.6	-35.5	24.1	0.00e+00	123	28	0	1688207360	42	5886
2026-01-13 01:16:45.21	315.71	30.72	-34.3	-35.1	24.5	0.00e+00	122	28	0	1700790272	42	5652
2026-01-13 01:16:49.24	316.51	30.09	-34.6	-35.5	24.3	0.00e+00	123	28	0	1713373184	42	5880
2026-01-13 01:16:53.28	317.29	29.46	-34.7	-35.6	24.0	0.00e+00	120	28	0	1727004672	42	5983
2026-01-13 01:16:57.32	318.03	28.84	-34.3	-35.2	24.1	0.00e+00	122	28	0	1739587584	42	5691
2026-01-13 01:17:01.35	318.75	28.23	-34.4	-35.3	24.2	0.00e+00	122	28	0	1752170496	42	5746
2026-01-13 01:17:05.39	319.44	27.62	-34.4	-35.3	24.4	0.00e+00	120	28	0	1764753408	42	5779
2026-01-13 01:17:09.42	320.10	27.03	-34.0	-34.9	24.7	0.00e+00	123	28	0	1777336320	42	5469
2026-01-13 01:17:13.47	320.75	26.45	-34.1	-35.0	24.5	0.00e+00	123	28	0	1789919232	42	5584
2026-01-13 01:17:17.49	321.36	25.87	-34.3	-35.2	24.4	0.00e+00	123	28	0	1802502144	42	5689
2026-01-13 01:17:21.54	321.97	25.31	-33.7	-34.6	24.7	0.00e+00	120	28	0	1815085056	42	5319
2026-01-13 01:17:25.58	322.54	24.75	-33.6	-34.5	24.8	0.00e+00	120	28	0	1827667968	40	5866
2026-01-13 01:17:29.62	323.10	24.20	-33.7	-34.5	24.7	0.00e+00	123	28	0	1840250880	40	5916
2026-01-13 01:17:33.66	323.65	23.66	-33.7	-34.6	24.7	0.00e+00	123	28	0	1852833792	40	5984
2026-01-13 01:17:37.70	324.17	23.13	-33.7	-34.5	24.6	0.00e+00	123	28	0	1865416704	40	5910
2026-01-13 01:17:41.74	324.68	22.60	-34.0	-34.9	24.2	0.00e+00	122	28	0	1877999616	40	6154
2026-01-13 01:17:45.78	325.17	22.09	-34.0	-34.9	24.3	0.00e+00	123	28	0	1890582528	40	6184
2026-01-13 01:17:49.81	325.64	21.58	-34.2	-35.1	24.3	0.00e+00	122	28	0	1903165440	40	6331
2026-01-13 01:17:53.85	326.10	21.09	-34.6	-35.6	24.0	0.00e+00	123	28	0	1915748352	40	6654
2026-01-13 01:17:57.89	326.55	20.60	-34.9	-35.8	23.8	0.00e+00	122	28	0	1928331264	42	6118
2026-01-13 01:18:01.93	326.98	20.11	-34.7	-35.6	24.1	0.00e+00	123	28	0	1940914176	42	5963
2026-01-13 01:18:05.97	327.40	19.64	-34.4	-35.4	24.1	0.00e+00	123	28	0	1953497088	42	5793
2026-01-13 01:18:10.01	327.81	19.17	-34.0	-34.9	24.3	0.00e+00	123	28	0	1966080000	42	5527
2026-01-13 01:18:14.05	328.21	18.71	-34.0	-34.9	24.4	0.00e+00	122	28	0	1978662912	42	5491
2026-01-13 01:18:18.09	328.60	18.26	-33.7	-34.6	24.6	0.00e+00	121	28	0	1991245824	40	5958
2026-01-13 01:18:22.12	328.97	17.82	-33.7	-34.6	24.7	0.00e+00	123	28	0	2003828736	40	5956
2026-01-13 01:18:26.16	329.34	17.38	-34.2	-35.1	24.3	0.00e+00	122	28	0	2016411648	40	6306
2026-01-13 01:18:30.21	329.69	16.94	-34.7	-35.7	23.8	0.00e+00	122	28	0	2028994560	40	6737
2026-01-13 01:18:34.24	330.04	16.52	-35.1	-36.1	23.5	0.00e+00	122	28	0	2041577472	42	6322
2026-01-13 01:18:38.28	330.37	16.10	-35.3	-36.3	23.3	0.00e+00	120	28	0	2054160384	42	6479
2026-01-13 01:18:42.32	330.70	15.69	-35.3	-36.2	23.3	0.00e+00	123	28	0	2067791872	42	6408
2026-01-13 01:18:46.36	331.02	15.28	-35.2	-36.1	23.3	0.00e+00	123	28	0	2079326208	42	6331
2026-01-13 01:18:50.40	331.33	14.88	-35.5	-36.4	23.1	0.00e+00	120	28	0	2092957696	42	6567
2026-01-13 01:18:54.44	331.64	14.49	-35.7	-36.6	23.0	0.00e+00	120	28	0	2105540608	42	6715
2026-01-13 01:18:58.48	331.93	14.10	-35.1	-36.0	23.5	0.00e+00	120	28	0	2118123520	42	6242
2026-01-13 01:19:02.51	332.22	13.72	-35.2	-36.1	23.5	0.00e+00	123	28	0	2130706432	42	6336
2026-01-13 01:19:06.55	332.50	13.34	-35.1	-36.0	23.5	0.00e+00	120	28	0	2143289344	42	6277
2026-01-13 01:19:10.59	332.78	12.96	-35.3	-36.2	23.3	0.00e+00	123	28	0	2155872256	42	6414
2026-01-13 01:19:14.63	333.05	12.60	-35.5	-36.4	23.1	0.00e+00	123	28	0	2168455168	42	6567
2026-01-13 01:19:18.67	333.31	12.23	-35.7	-36.6	22.9	0.00e+00	123	28	0	2181038080	44	5981
2026-01-13 01:19:22.71	333.57	11.88	-35.7	-36.7	22.8	0.00e+00	120	28	0	2193620992	44	6045
2026-01-13 01:19:26.75	333.82	11.52	-36.0	-36.9	22.6	0.00e+00	122	28	0	2206203904	44	6203
2026-01-13 01:19:30.79	334.07	11.17	-35.8	-36.8	22.8	0.00e+00	123	28	0	2218786816	44	6065
2026-01-13 01:19:34.83	334.31	10.83	-35.9	-36.9	22.7	0.00e+00	123	28	0	2231369728	44	6186
2026-01-13 01:19:38.87	334.55	10.49	-36.2	-37.2	22.3	0.00e+00	122	28	0	2243952640	44	6411
2026-01-13 01:19:42.91	334.78	10.15	-36.0	-37.0	22.5	0.00e+00	122	28	0	2256535552	44	6250
2026-01-13 01:19:46.95	335.00	9.82	-36.1	-37.1	22.3	0.00e+00	122	28	0	2269118464	44	6338
2026-01-13 01:19:50.99	335.22	9.50	-36.1	-37.1	22.4	0.00e+00	123	28	0	2281701376	44	6287
2026-01-13 01:19:55.03	335.44	9.17	-36.2	-37.2	22.2	0.00e+00	122	28	0	2294284288	44	6401
2026-01-13 01:19:59.07	335.65	8.85	-36.2	-37.2	22.1	0.00e+00	123	28	0	2306867200	44	6420
2026-01-13 01:20:03.11	335.86	8.54	-36.3	-37.4	22.0	0.00e+00	123	28	0	2319450112	44	6499
2026-01-13 01:20:07.15	336.07	8.22	-36.6	-37.7	21.6	0.00e+00	122	28	0	2332033024	44	6770
2026-01-13 01:20:11.19	336.27	7.92	-36.7	-37.8	21.6	0.00e+00	123	27	0	2344615936	46	6081
2026-01-13 01:20:15.23	336.47	7.61	-36.9	-37.9	21.5	0.00e+00	120	28	0	2357198848	46	6197
2026-01-13 01:20:19.27	336.66	7.31	-37.0	-38.1	21.4	0.00e+00	123	28	0	2369781760	46	6279
2026-01-13 01:20:23.31	336.85	7.01	-37.1	-38.2	21.1	0.00e+00	122	28	0	2382364672	46	6390
2026-01-13 01:20:27.35	337.03	6.72	-37.1	-38.2	21.2	0.00e+00	123	28	0	2394947584	46	6393
2026-01-13 01:20:31.39	337.22	6.42	-37.0	-38.2	21.1	0.00e+00	123	28	0	2408579072	46	6357
2026-01-13 01:20:35.43	337.40	6.13	-37.2	-38.3	20.9	0.00e+00	120	27	0	2421161984	46	6472
2026-01-13 01:20:39.47	337.57	5.85	-37.4	-38.5	20.5	0.00e+00	123	27	0	2433744896	46	6646
2026-01-13 01:20:43.51	337.75	5.56	-38.0	-39.3	19.6	0.00e+00	122	28	0	2446327808	48	6431
2026-01-13 01:20:47.55	337.92	5.28	-38.8	-40.3	18.4	0.00e+00	123	28	0	2458910720	50	6429
2026-01-13 01:20:51.59	338.08	5.01	-40.1	-41.9	16.4	0.00e+00	123	28	0	2471493632	52	6929
2026-01-13 01:20:55.62	338.25	4.73	-41.2	-43.6	14.0	1.50e-06	122	28	0	2484076544	54	7509
2026-01-13 01:20:59.66	338.41	4.46	-42.5	-46.2	10.6	2.70e-03	122	28	0	2496659456	56	9041
2026-01-13 01:21:03.71	338.57	4.19	-43.3	-48.9	6.6	1.63e-01	122	28	0	2509242368	58	11003
2026-01-13 01:21:07.74	338.73	3.92	-43.7	-53.4	3.7	1.42e+00	0	28	104	2512388096	58	18441
2026-01-13 01:21:11.78	338.88	3.66	-43.7	-56.0	3.5	1.51e+00	0	28	104	2512388096	60	22138
2026-01-13 01:21:15.82	339.03	3.40	-43.9	-56.2	3.5	1.52e+00	0	28	104	2512388096	60	22715
2026-01-13 01:21:19.86	339.18	3.14	-43.9	-56.6	3.5	1.52e+00	0	28	104	2512388096	60	23599
2026-01-13 01:21:23.90	339.33	2.88	-47.1	-59.9	3.5	1.51e+00	0	28	104	2512388096	60	34673
2026-01-13 01:21:27.94	339.48	2.62	-48.7	-61.5	3.5	1.52e+00	0	28	104	2512388096	60	41857
2026-01-13 01:21:31.97	339.62	2.37	-48.8	-61.7	3.5	1.52e+00	0	28	104	2512388096	60	42749
2026-01-13 01:21:36.01	339.76	2.12	-48.7	-61.6	3.5	1.52e+00	0	28	104	2512388096	60	42126
2026-01-13 01:21:40.04	339.90	1.87	-48.7	-61.6	3.5	1.51e+00	0	28	104	2512388096	60	42222
2026-01-13 01:21:44.09	340.04	1.62	-48.7	-61.5	3.5	1.52e+00	0	28	104	2512388096	60	41763
2026-01-13 01:21:48.13	340.17	1.38	-48.7	-61.6	3.5	1.52e+00	0	28	104	2512388096	60	42085
2026-01-13 01:21:52.17	340.31	1.14	-48.7	-61.6	3.5	1.52e+00	0	28	104	2512388096	60	41991
2026-01-13 01:21:56.21	340.44	0.90	-48.7	-61.6	3.5	1.51e+00	0	28	104	2512388096	60	41995
2026-01-13 01:22:00.25	340.57	0.66	-48.7	-61.5	3.5	1.52e+00	0	28	104	2512388096	60	41920
2026-01-13 01:22:04.29	340.69	0.42	-48.7	-61.6	3.5	1.52e+00	0	28	104	2512388096	60	42051
2026-01-13 01:22:08.33	340.82	0.18	-48.7	-61.5	3.5	1.52e+00	0	28	104	2512388096	60	41935
2026-01-13 01:22:12.37	340.95	-0.05	-48.7	-61.6	3.5	1.52e+00	0	28	104	2512388096	60	42002

#Closed at: 2026-01-13 01:22:14
#Recorded file [2512 MB]: D:/lorett/data/35029_260113_130651.dat