passes_logs/2026/01/13/R4.6S_Anadyr/R4.6S_Anadyr__20260113_172853_AQUA_rec.log

#Pass ID: 20260113_172853_AQUA
#Satellite: AQUA
#Configuration: AQUA
#almurnet v.1.7.20251203
#Start time: 2026-01-13 17:28:56

#Version: 2.2.20231116
#Station: R4.6S_Anadyr
#Location: 177.4865 lon 64.73178 lat
#TLE: 1 27424U 02022A   26012.29577270  .00001027  00000+0  21555-3 0  9995
#TLE: 2 27424  98.4078 338.6778 0002034  81.5885  29.6294 14.61817302260499

#Time	Az	El	Level	Level2	SNR	BER	BlckErr	Temp	State	Recorded	gain1	gain2
2026-01-13 17:28:56.95	21.49	0.18	-48.8	-65.2	3.3	3.02e+01	0	26	0	0	60	69700
2026-01-13 17:29:00.98	21.37	0.43	-48.6	-66.6	3.5	3.02e+01	0	26	104	0	60	82008
2026-01-13 17:29:05.02	21.23	0.67	-48.0	-66.2	3.5	3.02e+01	0	26	104	0	60	78443
2026-01-13 17:29:09.06	21.10	0.92	-47.5	-65.3	3.5	3.02e+01	0	27	104	0	60	70970
2026-01-13 17:29:13.10	20.96	1.17	-47.2	-65.0	3.4	3.02e+01	0	27	104	0	60	68734
2026-01-13 17:29:17.14	20.82	1.43	-47.2	-65.0	3.5	3.02e+01	0	27	104	0	60	68749
2026-01-13 17:29:21.18	20.68	1.68	-47.2	-65.0	3.5	3.02e+01	0	27	104	0	60	68760
2026-01-13 17:29:25.22	20.53	1.94	-47.1	-65.0	3.5	3.02e+01	0	27	104	0	60	68710
2026-01-13 17:29:29.25	20.38	2.20	-47.1	-64.9	3.5	3.02e+01	0	27	104	0	60	67502
2026-01-13 17:29:33.29	20.23	2.46	-47.2	-65.0	3.5	3.02e+01	0	27	104	0	60	68767
2026-01-13 17:29:37.33	20.08	2.72	-47.1	-64.9	3.5	3.02e+01	0	27	104	0	60	67359
2026-01-13 17:29:41.37	19.92	2.99	-47.1	-64.4	3.5	3.02e+01	0	27	104	0	60	63944
2026-01-13 17:29:45.40	19.75	3.26	-47.0	-64.3	3.5	3.02e+01	0	27	104	0	60	63326
2026-01-13 17:29:49.44	19.59	3.53	-44.9	-57.8	3.5	3.02e+01	0	27	104	0	60	29897
2026-01-13 17:29:53.48	19.42	3.81	-45.9	-60.1	3.6	3.02e+01	0	27	104	0	60	38798
2026-01-13 17:29:57.52	19.24	4.09	-44.3	-56.7	3.5	3.02e+01	0	27	104	0	60	26434
2026-01-13 17:30:01.55	19.07	4.37	-39.2	-49.8	3.5	3.02e+01	0	27	104	0	54	16880
2026-01-13 17:30:05.59	18.88	4.65	-44.5	-56.9	3.5	3.02e+01	0	27	104	0	60	26909
2026-01-13 17:30:09.63	18.70	4.94	-42.7	-54.1	3.4	3.02e+01	0	27	104	0	60	19524
2026-01-13 17:30:13.67	18.51	5.23	-37.9	-39.3	25.8	3.02e+01	60	28	0	1048576	56	4473
2026-01-13 17:30:17.70	18.31	5.52	-36.4	-37.8	26.8	3.02e+01	57	28	0	6291456	48	5938
2026-01-13 17:30:21.74	18.11	5.82	-36.3	-37.6	27.0	3.02e+01	62	28	0	14155776	48	5844
2026-01-13 17:30:25.77	17.91	6.12	-36.2	-37.6	27.0	3.02e+01	60	28	0	21495808	48	5809
2026-01-13 17:30:29.81	17.69	6.43	-36.0	-37.3	27.4	3.02e+01	57	28	0	29360128	46	6311
2026-01-13 17:30:33.84	17.48	6.73	-35.9	-37.3	27.4	3.02e+01	62	28	0	36700160	46	6288
2026-01-13 17:30:37.88	17.26	7.05	-35.8	-37.1	27.7	3.02e+01	59	28	0	44564480	46	6165
2026-01-13 17:30:41.91	17.03	7.36	-35.7	-37.1	27.8	3.02e+01	59	28	0	51904512	46	6139
2026-01-13 17:30:45.95	16.80	7.68	-35.5	-36.8	27.9	3.02e+01	57	28	0	59244544	46	5984
2026-01-13 17:30:49.99	16.56	8.00	-35.5	-36.8	28.1	3.02e+01	60	28	0	67108864	46	5938
2026-01-13 17:30:54.03	16.32	8.33	-35.2	-36.5	28.3	3.02e+01	60	28	0	74448896	46	5740
2026-01-13 17:30:58.07	16.07	8.66	-35.2	-36.5	28.4	3.02e+01	60	28	0	82313216	46	5753
2026-01-13 17:31:02.11	15.81	9.00	-35.0	-36.3	28.6	3.02e+01	61	28	0	89653248	46	5613
2026-01-13 17:31:06.14	15.54	9.34	-35.0	-36.2	28.6	3.02e+01	61	28	0	97517568	44	6252
2026-01-13 17:31:10.17	15.27	9.69	-35.0	-36.2	28.6	3.02e+01	54	28	0	104857600	44	6245
2026-01-13 17:31:14.21	14.99	10.04	-34.9	-36.2	28.6	3.02e+01	62	28	0	112721920	44	6223
2026-01-13 17:31:18.25	14.70	10.39	-34.7	-36.0	28.9	3.02e+01	52	28	0	120061952	44	6101
2026-01-13 17:31:22.29	14.41	10.75	-34.7	-35.9	28.9	3.02e+01	57	28	0	127401984	44	6025
2026-01-13 17:31:26.32	14.11	11.12	-34.6	-35.8	29.0	3.02e+01	63	28	0	135266304	44	5960
2026-01-13 17:31:30.36	13.79	11.49	-34.5	-35.7	29.1	3.02e+01	57	28	0	142606336	44	5916
2026-01-13 17:31:34.40	13.47	11.86	-34.7	-35.9	29.1	3.02e+01	60	28	0	150470656	44	6012
2026-01-13 17:31:38.43	13.14	12.25	-34.6	-35.8	29.1	3.02e+01	58	28	0	157810688	44	5988
2026-01-13 17:31:42.47	12.80	12.63	-34.4	-35.7	29.2	3.02e+01	54	28	0	165675008	44	5862
2026-01-13 17:31:46.51	12.45	13.03	-34.4	-35.6	29.3	3.02e+01	59	28	0	173015040	44	5826
2026-01-13 17:31:50.55	12.09	13.43	-34.1	-35.3	29.6	3.02e+01	50	28	0	180355072	44	5611
2026-01-13 17:31:54.59	11.71	13.83	-34.0	-35.2	29.7	3.02e+01	62	28	0	188219392	44	5550
2026-01-13 17:31:58.62	11.33	14.25	-34.0	-35.2	29.6	3.02e+01	48	29	0	195559424	42	6262
2026-01-13 17:32:02.66	10.93	14.66	-34.2	-35.4	29.6	3.02e+01	59	28	0	203423744	42	6362
2026-01-13 17:32:06.70	10.52	15.09	-34.0	-35.2	29.7	3.02e+01	50	29	0	210763776	42	6227
2026-01-13 17:32:10.74	10.10	15.52	-34.1	-35.3	29.6	3.02e+01	53	29	0	218628096	42	6333
2026-01-13 17:32:14.78	9.66	15.96	-33.8	-35.0	29.9	3.02e+01	46	29	0	225968128	42	6092
2026-01-13 17:32:18.82	9.21	16.41	-33.9	-35.1	29.8	3.02e+01	57	29	0	233832448	42	6172
2026-01-13 17:32:22.85	8.74	16.86	-34.0	-35.2	29.9	3.02e+01	47	29	0	241172480	42	6207
2026-01-13 17:32:26.89	8.26	17.33	-34.0	-35.2	29.9	3.02e+01	60	29	0	248512512	42	6223
2026-01-13 17:32:30.93	7.76	17.80	-34.0	-35.2	29.8	3.02e+01	58	28	0	256376832	42	6252
2026-01-13 17:32:34.96	7.25	18.27	-34.3	-35.5	29.6	3.02e+01	60	29	0	263716864	42	6466
2026-01-13 17:32:39.00	6.71	18.76	-34.3	-35.5	29.7	3.02e+01	60	29	0	271581184	42	6468
2026-01-13 17:32:43.04	6.16	19.25	-34.4	-35.6	29.6	3.02e+01	59	29	0	278921216	42	6562
2026-01-13 17:32:47.08	5.59	19.75	-34.2	-35.4	29.8	3.02e+01	59	29	0	286785536	42	6384
2026-01-13 17:32:51.12	4.99	20.26	-34.4	-35.6	29.6	3.02e+01	56	29	0	294125568	42	6499
2026-01-13 17:32:55.16	4.38	20.78	-34.3	-35.5	29.6	3.02e+01	62	29	0	301465600	42	6464
2026-01-13 17:32:59.20	3.74	21.31	-34.1	-35.3	30.0	3.02e+01	59	29	0	309329920	42	6280
2026-01-13 17:33:03.23	3.08	21.84	-34.4	-35.6	29.7	3.02e+01	57	29	0	316669952	42	6504
2026-01-13 17:33:07.26	2.39	22.38	-34.6	-35.8	29.4	3.02e+01	60	29	0	324534272	42	6724
2026-01-13 17:33:11.30	1.68	22.93	-34.7	-35.9	29.3	3.02e+01	53	29	0	331874304	42	6779
2026-01-13 17:33:15.34	0.94	23.49	-34.6	-35.8	29.5	3.02e+01	58	29	0	339738624	44	5943
2026-01-13 17:33:19.37	0.17	24.06	-34.2	-35.4	29.8	3.02e+01	59	29	0	347078656	44	5681
2026-01-13 17:33:23.40	359.37	24.63	-34.3	-35.4	29.7	3.02e+01	56	29	0	354942976	44	5719
2026-01-13 17:33:27.44	358.54	25.21	-34.6	-35.8	29.4	3.02e+01	60	29	0	362283008	44	5944
2026-01-13 17:33:31.48	357.67	25.80	-34.4	-35.6	29.6	3.02e+01	58	29	0	369623040	44	5794
2026-01-13 17:33:35.52	356.77	26.40	-34.2	-35.4	29.7	3.02e+01	59	29	0	377487360	44	5703
2026-01-13 17:33:39.55	355.83	27.00	-34.2	-35.4	29.8	3.02e+01	62	29	0	384827392	44	5698
2026-01-13 17:33:43.59	354.86	27.61	-34.1	-35.3	29.9	3.02e+01	60	29	0	392691712	44	5602
2026-01-13 17:33:47.63	353.84	28.23	-34.0	-35.2	30.1	3.02e+01	53	29	0	400031744	44	5548
2026-01-13 17:33:51.66	352.79	28.85	-33.9	-35.0	30.2	3.02e+01	58	29	0	407896064	42	6122
2026-01-13 17:33:55.70	351.69	29.47	-33.8	-35.0	30.2	3.02e+01	60	29	0	415236096	42	6119
2026-01-13 17:33:59.74	350.54	30.10	-33.6	-34.7	30.5	3.02e+01	59	29	0	423100416	42	5922
2026-01-13 17:34:03.78	349.34	30.72	-33.7	-34.8	30.3	3.02e+01	53	29	0	430440448	42	5990
2026-01-13 17:34:07.81	348.10	31.35	-33.5	-34.7	30.4	3.02e+01	58	29	0	437780480	42	5897
2026-01-13 17:34:11.85	346.81	31.98	-33.6	-34.8	30.4	3.02e+01	51	29	0	445644800	42	5962
2026-01-13 17:34:15.89	345.46	32.60	-33.6	-34.8	30.4	3.02e+01	61	29	0	452984832	42	5944
2026-01-13 17:34:19.93	344.06	33.22	-33.9	-35.1	30.1	3.02e+01	46	29	0	460849152	42	6177
2026-01-13 17:34:23.96	342.60	33.83	-33.9	-35.1	30.1	3.02e+01	60	29	0	468189184	42	6166
2026-01-13 17:34:28.00	341.08	34.44	-34.4	-35.6	29.7	3.02e+01	47	29	0	476053504	42	6547
2026-01-13 17:34:32.04	339.51	35.03	-34.6	-35.8	29.6	3.02e+01	58	29	0	483393536	42	6692
2026-01-13 17:34:36.07	337.88	35.61	-35.0	-36.2	29.3	3.02e+01	54	29	0	491257856	42	6983
2026-01-13 17:34:40.11	336.18	36.17	-34.9	-36.1	29.3	3.02e+01	57	29	0	498597888	44	6168
2026-01-13 17:34:44.15	334.43	36.72	-34.9	-36.1	29.3	3.02e+01	47	29	0	505937920	44	6156
2026-01-13 17:34:48.18	332.61	37.24	-35.3	-36.6	28.9	3.02e+01	59	29	0	513802240	44	6507
2026-01-13 17:34:52.22	330.74	37.74	-35.3	-36.5	29.0	3.02e+01	57	29	0	521142272	44	6466
2026-01-13 17:34:56.25	328.81	38.20	-35.5	-36.8	28.8	3.02e+01	63	29	0	529006592	44	6658
2026-01-13 17:35:00.29	326.82	38.64	-35.7	-37.0	28.5	3.02e+01	59	29	0	536346624	44	6829
2026-01-13 17:35:04.33	324.78	39.05	-35.6	-36.9	28.7	3.02e+01	57	29	0	544210944	46	6012
2026-01-13 17:35:08.36	322.69	39.41	-35.7	-37.0	28.6	3.02e+01	60	30	0	551550976	46	6086
2026-01-13 17:35:12.40	320.55	39.74	-35.6	-36.8	28.7	3.02e+01	55	29	0	558891008	46	5994
2026-01-13 17:35:16.43	318.37	40.03	-35.5	-36.8	28.8	3.02e+01	59	30	0	566755328	46	5944
2026-01-13 17:35:20.47	316.15	40.27	-35.5	-36.8	28.7	3.02e+01	57	30	0	574095360	46	5950
2026-01-13 17:35:24.51	313.90	40.46	-35.4	-36.6	28.9	3.02e+01	61	30	0	581959680	46	5827
2026-01-13 17:35:28.54	311.63	40.60	-35.6	-36.9	28.7	3.02e+01	61	30	0	589299712	46	6012
2026-01-13 17:35:32.58	309.34	40.70	-36.3	-37.6	28.2	3.02e+01	59	30	0	597164032	46	6536
2026-01-13 17:35:36.62	307.04	40.74	-35.9	-37.1	28.5	3.02e+01	61	30	0	604504064	46	6203
2026-01-13 17:35:40.65	304.74	40.73	-36.6	-38.0	27.8	3.02e+01	58	30	0	611844096	46	6812
2026-01-13 17:35:44.69	302.44	40.67	-36.3	-37.6	27.9	3.02e+01	58	30	0	619708416	46	6512
2026-01-13 17:35:48.70	300.17	40.56	-34.8	-36.0	29.3	3.02e+01	58	30	0	627048448	44	6122
2026-01-13 17:35:52.74	297.90	40.39	-35.3	-36.5	29.0	3.02e+01	56	30	0	634912768	44	6483
2026-01-13 17:35:56.77	295.66	40.18	-35.7	-37.0	28.1	3.02e+01	60	30	0	642252800	46	6097
2026-01-13 17:36:00.81	293.45	39.93	-36.3	-37.7	24.3	3.02e+01	62	30	0	650117120	44	7454
2026-01-13 17:36:04.85	291.28	39.63	-35.1	-36.2	28.9	3.02e+01	56	30	0	657457152	46	5590
2026-01-13 17:36:08.88	289.16	39.28	-35.3	-36.5	28.8	3.02e+01	43	30	0	664797184	46	5764
2026-01-13 17:36:12.91	287.09	38.90	-35.7	-36.9	28.5	3.02e+01	60	30	0	672661504	46	6020
2026-01-13 17:36:16.95	285.06	38.48	-35.8	-37.0	28.7	3.02e+01	47	30	0	680001536	46	6099
2026-01-13 17:36:20.99	283.08	38.03	-36.4	-37.7	26.9	3.02e+01	56	30	0	687865856	48	5899
2026-01-13 17:36:25.03	281.17	37.55	-36.6	-38.0	27.8	3.02e+01	57	30	0	695205888	46	6829
2026-01-13 17:36:29.06	279.31	37.04	-35.9	-37.1	28.1	3.02e+01	59	30	0	703070208	46	6179
2026-01-13 17:36:33.10	277.52	36.51	-36.1	-37.4	27.7	3.02e+01	47	30	0	710410240	46	6404
2026-01-13 17:36:37.13	275.78	35.96	-34.7	-35.8	29.4	3.02e+01	60	30	0	717750272	46	5324
2026-01-13 17:36:41.17	274.11	35.39	-35.2	-36.3	28.3	3.02e+01	52	30	0	725614592	46	5619
2026-01-13 17:36:45.21	272.49	34.80	-35.7	-36.9	28.2	3.02e+01	59	30	0	732954624	46	6006
2026-01-13 17:36:49.24	270.93	34.20	-36.1	-37.3	28.2	3.02e+01	48	30	0	740818944	46	6322
2026-01-13 17:36:53.28	269.44	33.59	-36.8	-38.1	27.6	3.02e+01	55	30	0	748158976	46	6945
2026-01-13 17:36:57.32	267.99	32.98	-36.0	-37.2	28.5	3.02e+01	38	30	0	756023296	46	6252
2026-01-13 17:37:01.35	266.61	32.35	-35.7	-37.0	28.4	3.02e+01	62	30	0	763363328	44	6856
2026-01-13 17:37:05.39	265.28	31.73	-35.5	-36.7	28.7	3.02e+01	50	30	0	770703360	44	6632
2026-01-13 17:37:09.42	264.00	31.10	-34.7	-35.9	29.5	3.02e+01	59	30	0	778567680	44	6004
2026-01-13 17:37:13.46	262.77	30.47	-34.7	-35.9	29.4	3.02e+01	46	30	0	785907712	44	6031
2026-01-13 17:37:17.49	261.59	29.84	-34.9	-36.1	29.2	3.02e+01	56	30	0	793772032	44	6198
2026-01-13 17:37:21.53	260.46	29.21	-34.8	-36.0	29.5	3.02e+01	47	30	0	801112064	44	6078
2026-01-13 17:37:25.56	259.37	28.59	-34.9	-36.1	29.3	3.02e+01	61	30	0	808976384	44	6143
2026-01-13 17:37:29.60	258.33	27.97	-34.9	-36.1	29.3	3.02e+01	62	30	0	816316416	44	6139
2026-01-13 17:37:33.64	257.32	27.35	-35.4	-36.6	28.9	3.02e+01	59	30	0	824180736	44	6549
2026-01-13 17:37:37.68	256.36	26.74	-35.0	-36.2	29.2	3.02e+01	58	30	0	831520768	44	6253
2026-01-13 17:37:41.71	255.43	26.14	-35.2	-36.4	29.1	3.02e+01	59	30	0	838860800	44	6367
2026-01-13 17:37:45.75	254.54	25.54	-35.1	-36.3	29.2	3.02e+01	57	30	0	846725120	44	6294
2026-01-13 17:37:49.79	253.69	24.95	-35.3	-36.6	28.9	3.02e+01	62	30	0	854065152	44	6512
2026-01-13 17:37:53.82	252.86	24.37	-35.0	-36.2	29.2	3.02e+01	58	30	0	861929472	44	6243
2026-01-13 17:37:57.86	252.07	23.80	-35.4	-36.6	28.8	3.02e+01	56	30	0	869269504	44	6545
2026-01-13 17:38:01.90	251.31	23.23	-35.0	-36.2	29.1	3.02e+01	59	30	0	877133824	44	6247
2026-01-13 17:38:05.94	250.57	22.67	-35.2	-36.4	29.0	3.02e+01	59	30	0	884473856	44	6375
2026-01-13 17:38:09.98	249.87	22.12	-35.2	-36.4	28.9	3.02e+01	59	30	0	891813888	44	6398
2026-01-13 17:38:14.01	249.19	21.58	-35.3	-36.5	28.8	3.02e+01	59	30	0	899678208	44	6462
2026-01-13 17:38:18.04	248.53	21.05	-34.8	-36.0	29.3	3.02e+01	57	30	0	907018240	44	6121
2026-01-13 17:38:22.08	247.90	20.53	-35.3	-36.5	28.9	3.02e+01	62	30	0	914882560	44	6457
2026-01-13 17:38:26.12	247.29	20.01	-35.3	-36.5	28.9	3.02e+01	61	30	0	922222592	44	6460
2026-01-13 17:38:30.15	246.70	19.50	-34.7	-35.9	29.4	3.02e+01	50	30	0	930086912	44	6006
2026-01-13 17:38:34.19	246.13	19.00	-35.0	-36.2	29.0	3.02e+01	60	30	0	937426944	44	6272
2026-01-13 17:38:38.23	245.59	18.51	-35.0	-36.2	29.1	3.02e+01	51	30	0	945291264	44	6255
2026-01-13 17:38:42.26	245.06	18.03	-35.0	-36.3	29.0	3.02e+01	58	30	0	952631296	44	6292
2026-01-13 17:38:46.30	244.54	17.55	-35.0	-36.2	29.1	3.02e+01	48	30	0	959971328	44	6228
2026-01-13 17:38:50.34	244.05	17.08	-35.3	-36.5	28.9	3.02e+01	57	30	0	967835648	44	6464
2026-01-13 17:38:54.38	243.57	16.62	-34.9	-36.1	29.1	3.02e+01	54	30	0	975175680	44	6146
2026-01-13 17:38:58.41	243.11	16.17	-35.0	-36.2	29.1	3.02e+01	62	30	0	983040000	44	6225
2026-01-13 17:39:02.45	242.66	15.73	-35.2	-36.5	28.8	3.02e+01	50	30	0	990380032	44	6428
2026-01-13 17:39:06.49	242.22	15.29	-35.0	-36.2	29.0	3.02e+01	60	30	0	998244352	44	6237
2026-01-13 17:39:10.52	241.80	14.86	-35.3	-36.5	28.7	3.02e+01	46	30	0	1005584384	44	6474
2026-01-13 17:39:14.56	241.40	14.43	-35.4	-36.7	28.4	3.02e+01	64	30	0	1013448704	44	6605
2026-01-13 17:39:18.60	241.00	14.01	-35.5	-36.8	28.3	3.02e+01	49	30	0	1020788736	44	6673
2026-01-13 17:39:22.63	240.62	13.60	-35.7	-37.0	28.2	3.02e+01	59	30	0	1028128768	44	6826
2026-01-13 17:39:26.67	240.25	13.20	-36.1	-37.4	27.8	3.02e+01	44	30	0	1035993088	46	6367
2026-01-13 17:39:30.71	239.89	12.80	-36.7	-38.1	27.2	3.02e+01	56	29	0	1043333120	46	6889
2026-01-13 17:39:34.75	239.54	12.41	-36.7	-38.0	27.1	3.02e+01	45	30	0	1051197440	46	6871
2026-01-13 17:39:38.79	239.19	12.02	-37.0	-38.4	26.7	3.02e+01	58	30	0	1058537472	48	6356
2026-01-13 17:39:42.82	238.87	11.64	-37.7	-39.2	26.0	3.02e+01	45	29	0	1066401792	48	6968
2026-01-13 17:39:46.86	238.54	11.26	-38.2	-39.8	25.4	3.02e+01	58	29	0	1073741824	50	6690
2026-01-13 17:39:50.90	238.23	10.89	-38.5	-40.0	25.2	3.02e+01	58	29	0	1081081856	50	6873
2026-01-13 17:39:54.94	237.93	10.53	-38.9	-40.5	24.8	3.02e+01	59	29	0	1088946176	52	6428
2026-01-13 17:39:58.98	237.63	10.17	-39.4	-41.2	24.1	3.02e+01	61	29	0	1096286208	52	6977
2026-01-13 17:40:03.00	237.35	9.82	-40.2	-42.0	23.3	3.02e+01	60	30	0	1104150528	54	6814
2026-01-13 17:40:07.04	237.07	9.47	-40.7	-42.7	22.6	3.02e+01	60	29	0	1111490560	54	7381
2026-01-13 17:40:11.08	236.80	9.12	-41.2	-43.3	22.0	3.02e+01	57	29	0	1119354880	56	7052
2026-01-13 17:40:15.11	236.53	8.78	-41.7	-44.0	21.2	3.02e+01	60	29	0	1126694912	56	7719
2026-01-13 17:40:19.15	236.27	8.45	-42.3	-44.9	20.2	3.02e+01	61	29	0	1134559232	58	7603
2026-01-13 17:40:23.19	236.02	8.12	-42.9	-45.7	19.4	3.02e+01	59	29	0	1141899264	58	8318
2026-01-13 17:40:27.23	235.78	7.79	-43.4	-46.7	18.5	3.02e+01	58	29	0	1149239296	60	8309
2026-01-13 17:40:31.26	235.54	7.47	-43.9	-47.4	17.7	3.02e+01	62	29	0	1157103616	60	9068
2026-01-13 17:40:35.30	235.30	7.15	-44.4	-48.5	16.6	3.02e+01	61	29	0	1164443648	60	10193
2026-01-13 17:40:39.34	235.08	6.83	-45.0	-49.4	15.4	3.02e+01	56	29	0	1172307968	60	11414
2026-01-13 17:40:43.37	234.86	6.52	-45.0	-50.3	14.5	3.02e+01	61	29	0	1179648000	60	12614
2026-01-13 17:40:47.41	234.64	6.22	-44.8	-51.0	13.6	3.02e+01	60	29	0	1187512320	60	13703
2026-01-13 17:40:51.45	234.43	5.91	-45.7	-52.0	12.6	3.02e+01	58	29	0	1194852352	60	15289
2026-01-13 17:40:55.49	234.22	5.61	-45.9	-52.8	11.6	3.02e+01	59	29	0	1202716672	60	16807
2026-01-13 17:40:59.53	234.02	5.31	-45.9	-54.1	10.0	3.02e+01	60	29	0	1210056704	60	19608
2026-01-13 17:41:03.57	233.82	5.02	-46.3	-54.7	9.1	3.02e+01	61	29	0	1217396736	60	20952
2026-01-13 17:41:07.61	233.63	4.73	-46.3	-55.3	8.3	3.02e+01	54	29	0	1225261056	60	22321
2026-01-13 17:41:11.64	233.44	4.45	-46.4	-56.2	7.1	3.02e+01	90	29	0	1232601088	60	24961
2026-01-13 17:41:15.68	233.26	4.16	-46.0	-56.7	6.3	3.02e+01	92	29	0	1240465408	60	26212
2026-01-13 17:41:19.72	233.08	3.88	-46.1	-57.5	6.0	3.02e+01	90	29	0	1244659712	60	28959
2026-01-13 17:41:23.75	232.90	3.60	-46.2	-59.6	4.8	3.02e+01	0	29	104	1246756864	60	36609
2026-01-13 17:41:27.79	232.73	3.33	-45.9	-60.2	4.4	3.02e+01	0	29	104	1246756864	60	39275
2026-01-13 17:41:31.83	232.56	3.06	-45.2	-63.2	3.5	3.02e+01	0	29	104	1246756864	60	55862
2026-01-13 17:41:35.87	232.40	2.79	-48.7	-66.6	3.5	3.02e+01	0	29	104	1246756864	60	82181
2026-01-13 17:41:39.90	232.24	2.52	-48.8	-66.7	3.5	3.02e+01	0	29	104	1246756864	60	83346
2026-01-13 17:41:43.94	232.08	2.26	-48.5	-66.6	3.5	3.02e+01	0	29	104	1246756864	60	82539
2026-01-13 17:41:47.98	231.92	1.99	-48.6	-66.6	3.5	3.02e+01	0	29	104	1246756864	60	81859
2026-01-13 17:41:52.02	231.77	1.74	-48.7	-66.6	3.5	3.02e+01	0	29	104	1246756864	60	82337
2026-01-13 17:41:56.06	231.62	1.48	-48.7	-66.6	3.5	3.02e+01	0	29	104	1246756864	60	82581
2026-01-13 17:42:00.10	231.48	1.22	-48.7	-66.6	3.5	3.02e+01	0	29	104	1246756864	60	82235
2026-01-13 17:42:04.13	231.34	0.97	-48.7	-66.6	3.5	3.02e+01	0	29	104	1246756864	60	82117
2026-01-13 17:42:08.18	231.20	0.72	-48.7	-66.6	3.5	3.02e+01	0	29	104	1246756864	60	81974
2026-01-13 17:42:12.22	231.06	0.47	-48.7	-66.6	3.5	3.02e+01	0	29	104	1246756864	60	82301
2026-01-13 17:42:16.25	230.93	0.23	-48.6	-66.6	3.5	3.02e+01	0	29	104	1246756864	60	82010
2026-01-13 17:42:20.29	230.80	-0.02	-48.7	-66.6	3.5	3.02e+01	0	29	104	1246756864	60	82294

#Closed at: 2026-01-13 17:42:21
#Recorded file [1246 MB]: D:/lorett/data/35029_260114_052856.dat