passes_logs/2026/01/13/R4.6S_Anadyr/R4.6S_Anadyr__20260113_170220_SUOMI_NPP_rec.log

#Pass ID: 20260113_170220_SUOMI NPP
#Satellite: SUOMI NPP
#Configuration: NPP
#almurnet v.1.7.20251203
#Start time: 2026-01-13 17:02:23

#Version: 2.2.20231116
#Station: R4.6S_Anadyr
#Location: 177.4865 lon 64.73178 lat
#TLE: 1 37849U 11061A   26012.28456845  .00000093  00000+0  65163-4 0  9999
#TLE: 2 37849  98.7807 314.3566 0002508  68.3553 291.7890 14.19524725736322

#Time	Az	El	Level	Level2	SNR	BER	BlckErr	Temp	State	Recorded	gain1	gain2
2026-01-13 17:02:23.61	28.77	0.19	-48.5	-62.4	3.4	1.54e+00	0	26	0	0	60	47466
2026-01-13 17:02:27.64	28.56	0.41	-48.5	-63.7	3.6	1.51e+00	0	26	104	0	60	55123
2026-01-13 17:02:31.69	28.35	0.63	-48.0	-63.3	3.6	1.51e+00	0	26	104	0	60	52568
2026-01-13 17:02:35.72	28.14	0.86	-47.1	-62.3	3.6	1.51e+00	0	26	104	0	60	46999
2026-01-13 17:02:39.75	27.93	1.09	-46.8	-62.0	3.6	1.51e+00	0	26	104	0	60	45503
2026-01-13 17:02:43.79	27.71	1.32	-46.8	-61.9	3.6	1.51e+00	0	26	104	0	60	45196
2026-01-13 17:02:47.83	27.48	1.55	-46.8	-62.0	3.6	1.51e+00	0	26	104	0	60	45507
2026-01-13 17:02:51.87	27.25	1.78	-46.8	-61.9	3.6	1.51e+00	0	26	104	0	60	45231
2026-01-13 17:02:55.91	27.02	2.01	-46.8	-61.7	3.6	1.51e+00	0	26	104	0	60	43881
2026-01-13 17:02:59.95	26.79	2.24	-46.8	-61.9	3.6	1.51e+00	0	26	104	0	60	45069
2026-01-13 17:03:03.98	26.55	2.48	-46.8	-61.9	3.6	1.51e+00	0	27	104	0	60	45144
2026-01-13 17:03:08.02	26.31	2.72	-46.8	-61.4	3.6	1.51e+00	0	27	104	0	60	42280
2026-01-13 17:03:12.06	26.06	2.96	-46.8	-61.6	3.6	1.51e+00	0	27	104	0	60	43399
2026-01-13 17:03:16.09	25.81	3.20	-45.9	-52.4	7.7	1.09e-01	2	27	0	2097152	60	15152
2026-01-13 17:03:20.13	25.55	3.44	-46.8	-60.0	3.6	1.51e+00	0	27	104	6291456	60	36227
2026-01-13 17:03:24.17	25.29	3.68	-41.3	-43.2	17.0	1.17e+00	0	27	104	7340032	56	6549
2026-01-13 17:03:28.21	25.02	3.93	-41.0	-42.7	18.2	0.00e+00	0	27	0	13631488	56	6245
2026-01-13 17:03:32.24	24.75	4.17	-41.0	-42.7	18.4	0.00e+00	90	27	0	20971520	56	6185
2026-01-13 17:03:36.27	24.48	4.42	-40.7	-42.4	18.6	0.00e+00	0	27	0	28311552	54	6713
2026-01-13 17:03:40.30	24.20	4.67	-40.9	-42.5	18.3	0.00e+00	0	27	0	36700160	54	6829
2026-01-13 17:03:44.34	23.91	4.92	-41.7	-43.6	17.6	0.00e+00	0	27	0	44040192	56	6924
2026-01-13 17:03:48.37	23.62	5.17	-41.1	-42.8	18.5	0.00e+00	81	27	0	51380224	56	6292
2026-01-13 17:03:52.41	23.33	5.43	-40.9	-42.6	18.6	0.00e+00	0	27	0	58720256	54	6859
2026-01-13 17:03:56.45	23.03	5.69	-40.7	-42.3	18.9	0.00e+00	0	27	0	66060288	54	6674
2026-01-13 17:04:00.49	22.72	5.95	-40.8	-42.4	18.8	0.00e+00	54	27	0	74448896	54	6752
2026-01-13 17:04:04.53	22.41	6.21	-40.8	-42.4	18.9	0.00e+00	0	27	0	81788928	54	6709
2026-01-13 17:04:08.57	22.09	6.47	-40.6	-42.1	19.1	0.00e+00	0	27	0	89128960	54	6530
2026-01-13 17:04:12.61	21.76	6.73	-40.2	-41.6	19.7	0.00e+00	0	27	0	96468992	54	6123
2026-01-13 17:04:16.64	21.43	7.00	-39.8	-41.2	20.1	0.00e+00	63	27	0	104857600	52	6548
2026-01-13 17:04:20.68	21.10	7.26	-39.4	-40.7	20.6	0.00e+00	0	27	0	112197632	52	6179
2026-01-13 17:04:24.72	20.75	7.53	-39.6	-40.9	20.4	0.00e+00	0	27	0	119537664	52	6336
2026-01-13 17:04:28.76	20.40	7.80	-39.8	-41.1	20.2	0.00e+00	0	27	0	126877696	52	6503
2026-01-13 17:04:32.80	20.04	8.08	-39.7	-41.0	20.3	0.00e+00	90	27	0	134217728	52	6464
2026-01-13 17:04:36.84	19.68	8.35	-39.8	-41.1	20.2	0.00e+00	0	27	0	142606336	52	6535
2026-01-13 17:04:40.88	19.31	8.63	-40.0	-41.4	19.9	0.00e+00	0	27	0	149946368	52	6720
2026-01-13 17:04:44.91	18.93	8.91	-39.7	-41.0	20.4	0.00e+00	0	27	0	157286400	52	6422
2026-01-13 17:04:48.94	18.54	9.19	-39.7	-40.9	20.4	0.00e+00	67	27	0	164626432	52	6388
2026-01-13 17:04:52.97	18.15	9.47	-40.0	-41.3	20.2	0.00e+00	0	27	0	171966464	52	6671
2026-01-13 17:04:57.01	17.74	9.75	-39.9	-41.2	20.3	0.00e+00	0	27	0	180355072	52	6615
2026-01-13 17:05:01.05	17.33	10.04	-40.2	-41.6	20.0	0.00e+00	16	27	0	187695104	52	6880
2026-01-13 17:05:05.09	16.91	10.33	-39.7	-41.0	20.5	0.00e+00	0	27	0	195035136	52	6402
2026-01-13 17:05:09.13	16.49	10.62	-39.3	-40.6	20.9	0.00e+00	0	27	0	202375168	52	6104
2026-01-13 17:05:13.16	16.05	10.91	-39.3	-40.5	20.9	0.00e+00	0	27	0	210763776	52	6080
2026-01-13 17:05:17.20	15.60	11.20	-39.2	-40.4	21.0	0.00e+00	60	27	0	218103808	52	5999
2026-01-13 17:05:21.24	15.15	11.50	-39.1	-40.3	21.2	0.00e+00	0	27	0	225443840	52	5924
2026-01-13 17:05:25.28	14.68	11.79	-38.6	-39.7	21.6	0.00e+00	0	27	0	232783872	50	6179
2026-01-13 17:05:29.32	14.21	12.09	-38.6	-39.7	21.8	0.00e+00	0	27	0	240123904	50	6186
2026-01-13 17:05:33.35	13.73	12.39	-38.7	-39.9	21.6	0.00e+00	69	27	0	248512512	50	6320
2026-01-13 17:05:37.39	13.23	12.69	-38.8	-39.9	21.4	0.00e+00	0	27	0	255852544	50	6385
2026-01-13 17:05:41.42	12.73	12.99	-39.3	-40.5	21.0	0.00e+00	0	27	0	263192576	50	6804
2026-01-13 17:05:45.46	12.21	13.30	-39.4	-40.6	20.9	0.00e+00	0	27	0	270532608	50	6891
2026-01-13 17:05:49.50	11.68	13.61	-38.9	-40.0	21.5	0.00e+00	90	27	0	278921216	50	6431
2026-01-13 17:05:53.53	11.14	13.91	-38.6	-39.7	21.8	0.00e+00	0	27	0	286261248	50	6174
2026-01-13 17:05:57.57	10.59	14.22	-38.2	-39.3	22.1	0.00e+00	0	27	0	293601280	50	5913
2026-01-13 17:06:01.61	10.03	14.53	-37.8	-38.7	22.6	0.00e+00	31	27	0	300941312	48	6234
2026-01-13 17:06:05.64	9.46	14.84	-37.9	-38.9	22.4	0.00e+00	0	27	0	308281344	48	6372
2026-01-13 17:06:09.67	8.87	15.15	-37.9	-38.9	22.4	0.00e+00	0	27	0	316669952	48	6371
2026-01-13 17:06:13.72	8.27	15.47	-37.9	-38.9	22.4	0.00e+00	0	27	0	324009984	48	6382
2026-01-13 17:06:17.75	7.66	15.78	-38.1	-39.2	22.3	0.00e+00	60	27	0	331350016	48	6580
2026-01-13 17:06:21.78	7.04	16.09	-37.9	-39.0	22.4	0.00e+00	0	27	0	338690048	48	6412
2026-01-13 17:06:25.81	6.40	16.41	-38.3	-39.4	22.0	0.00e+00	0	27	0	346030080	48	6747
2026-01-13 17:06:29.85	5.75	16.72	-38.5	-39.5	21.9	0.00e+00	0	27	0	354418688	48	6841
2026-01-13 17:06:33.88	5.08	17.04	-38.9	-40.1	21.5	0.00e+00	92	27	0	361758720	50	6484
2026-01-13 17:06:37.92	4.40	17.35	-39.3	-40.5	21.1	0.00e+00	0	27	0	369098752	50	6812
2026-01-13 17:06:41.96	3.70	17.67	-38.5	-39.5	22.0	0.00e+00	0	27	0	376438784	50	6084
2026-01-13 17:06:46.00	2.99	17.98	-38.6	-39.7	22.0	0.00e+00	68	27	0	384827392	50	6178
2026-01-13 17:06:50.04	2.26	18.30	-38.3	-39.4	22.2	0.00e+00	0	27	0	392167424	50	5984
2026-01-13 17:06:54.07	1.52	18.61	-38.5	-39.5	22.0	0.00e+00	0	27	0	399507456	50	6092
2026-01-13 17:06:58.10	0.77	18.92	-38.6	-39.7	21.9	0.00e+00	0	27	0	406847488	50	6205
2026-01-13 17:07:02.14	360.00	19.23	-38.5	-39.6	22.0	0.00e+00	94	27	0	414187520	50	6132
2026-01-13 17:07:06.18	359.21	19.54	-37.8	-38.8	22.6	0.00e+00	0	27	0	422576128	48	6246
2026-01-13 17:07:10.21	358.40	19.84	-37.7	-38.7	22.7	0.00e+00	33	27	0	429916160	48	6188
2026-01-13 17:07:14.25	357.58	20.15	-38.8	-39.9	21.7	0.00e+00	0	27	0	437256192	48	7124
2026-01-13 17:07:18.28	356.74	20.45	-38.1	-39.2	22.2	0.00e+00	81	27	0	444596224	50	5835
2026-01-13 17:07:22.32	355.89	20.75	-37.3	-38.2	22.9	0.00e+00	0	27	0	452984832	48	5878
2026-01-13 17:07:26.36	355.02	21.04	-37.0	-38.0	23.3	0.00e+00	0	27	0	460324864	46	6431
2026-01-13 17:07:30.39	354.13	21.33	-37.1	-38.1	23.3	0.00e+00	0	27	0	467664896	46	6470
2026-01-13 17:07:34.43	353.22	21.62	-36.7	-37.6	23.7	0.00e+00	78	27	0	475004928	46	6108
2026-01-13 17:07:38.47	352.30	21.90	-36.3	-37.2	23.9	0.00e+00	0	27	0	482344960	46	5855
2026-01-13 17:07:42.51	351.36	22.18	-36.6	-37.5	23.8	0.00e+00	0	27	0	490733568	46	6052
2026-01-13 17:07:46.54	350.41	22.45	-36.0	-36.8	24.2	0.00e+00	22	27	0	498073600	46	5604
2026-01-13 17:07:50.57	349.43	22.72	-36.1	-37.0	24.0	0.00e+00	0	27	0	505413632	44	6415
2026-01-13 17:07:54.61	348.44	22.98	-36.3	-37.2	24.0	0.00e+00	0	27	0	512753664	44	6561
2026-01-13 17:07:58.65	347.43	23.23	-35.8	-36.6	24.3	0.00e+00	0	27	0	521142272	44	6138
2026-01-13 17:08:02.69	346.41	23.47	-36.3	-37.1	24.0	0.00e+00	90	27	0	528482304	44	6531
2026-01-13 17:08:06.72	345.37	23.71	-36.1	-37.0	24.2	0.00e+00	0	27	0	535822336	44	6405
2026-01-13 17:08:10.76	344.32	23.94	-35.8	-36.6	24.4	0.00e+00	0	27	0	543162368	44	6164
2026-01-13 17:08:14.79	343.25	24.16	-36.4	-37.3	23.8	0.00e+00	0	27	0	550502400	44	6686
2026-01-13 17:08:18.84	342.16	24.37	-36.1	-37.0	24.1	0.00e+00	90	27	0	558891008	46	5707
2026-01-13 17:08:22.87	341.06	24.57	-36.2	-37.1	24.0	0.00e+00	0	27	0	566231040	46	5763
2026-01-13 17:08:26.91	339.95	24.77	-35.7	-36.5	24.5	0.00e+00	0	27	0	573571072	44	6067
2026-01-13 17:08:30.95	338.82	24.95	-36.1	-37.0	24.1	0.00e+00	57	27	0	580911104	44	6393
2026-01-13 17:08:34.99	337.68	25.12	-35.4	-36.2	24.7	0.00e+00	0	27	0	589299712	44	5884
2026-01-13 17:08:39.03	336.52	25.27	-37.5	-38.5	23.0	0.00e+00	0	27	0	596639744	46	6826
2026-01-13 17:08:43.07	335.36	25.42	-38.1	-39.1	22.2	0.00e+00	0	27	0	603979776	48	6530
2026-01-13 17:08:47.11	334.18	25.55	-39.7	-41.0	20.9	0.00e+00	36	27	0	611319808	52	6402
2026-01-13 17:08:51.14	333.00	25.68	-37.1	-38.0	23.4	0.00e+00	0	27	0	618659840	48	5751
2026-01-13 17:08:55.18	331.81	25.78	-38.6	-39.7	22.0	0.00e+00	0	27	0	627048448	48	6956
2026-01-13 17:08:59.22	330.61	25.88	-37.6	-38.5	23.0	0.00e+00	0	27	0	634388480	48	6094
2026-01-13 17:09:03.26	329.40	25.96	-38.9	-40.1	21.7	0.00e+00	90	27	0	641728512	50	6493
2026-01-13 17:09:07.29	328.19	26.03	-37.5	-38.5	23.0	0.00e+00	0	27	0	649068544	48	6039
2026-01-13 17:09:11.33	326.97	26.08	-37.7	-38.6	22.9	0.00e+00	0	27	0	657457152	48	6166
2026-01-13 17:09:15.37	325.75	26.12	-38.2	-39.2	22.4	0.00e+00	0	27	0	664797184	48	6586
2026-01-13 17:09:19.40	324.53	26.14	-38.4	-39.4	22.3	0.00e+00	91	27	0	672137216	48	6751
2026-01-13 17:09:23.44	323.30	26.15	-37.6	-38.5	22.9	0.00e+00	0	27	0	679477248	48	6059
2026-01-13 17:09:27.48	322.08	26.15	-37.6	-38.6	23.1	0.00e+00	0	27	0	686817280	48	6136
2026-01-13 17:09:31.51	320.85	26.13	-38.8	-39.9	21.9	0.00e+00	60	27	0	695205888	50	6387
2026-01-13 17:09:35.55	319.63	26.10	-37.7	-38.7	22.9	0.00e+00	0	27	0	702545920	48	6212
2026-01-13 17:09:39.58	318.41	26.05	-36.7	-37.5	23.7	0.00e+00	0	27	0	709885952	46	6097
2026-01-13 17:09:43.62	317.20	25.99	-37.2	-38.2	23.4	0.00e+00	0	27	0	717225984	46	6542
2026-01-13 17:09:47.66	315.98	25.92	-35.9	-36.7	24.5	0.00e+00	62	27	0	724566016	46	5510
2026-01-13 17:09:51.69	314.78	25.83	-35.4	-36.2	24.8	0.00e+00	0	27	0	732954624	44	5871
2026-01-13 17:09:55.73	313.58	25.72	-35.4	-36.1	24.8	0.00e+00	0	27	0	740294656	44	5809
2026-01-13 17:09:59.77	312.40	25.61	-36.2	-37.1	24.1	0.00e+00	0	27	0	747634688	44	6493
2026-01-13 17:10:03.81	311.21	25.48	-36.3	-37.2	24.0	0.00e+00	83	27	0	754974720	44	6567
2026-01-13 17:10:07.84	310.05	25.34	-36.7	-37.5	23.8	0.00e+00	0	27	0	763363328	44	6828
2026-01-13 17:10:11.88	308.89	25.19	-36.8	-37.7	23.7	0.00e+00	0	27	0	770703360	46	6203
2026-01-13 17:10:15.91	307.74	25.02	-37.2	-38.2	23.3	0.00e+00	57	27	0	778043392	46	6542
2026-01-13 17:10:19.95	306.61	24.85	-37.2	-38.1	23.3	0.00e+00	16	27	0	785383424	46	6498
2026-01-13 17:10:23.99	305.49	24.66	-38.5	-39.5	22.3	0.00e+00	0	27	0	792723456	48	6813
2026-01-13 17:10:28.02	304.38	24.46	-38.6	-39.7	22.2	0.00e+00	0	27	0	801112064	50	6175
2026-01-13 17:10:32.06	303.28	24.26	-38.6	-39.7	22.1	0.00e+00	66	27	0	808452096	50	6224
2026-01-13 17:10:36.10	302.20	24.04	-37.9	-38.8	22.9	0.00e+00	0	27	0	815792128	48	6308
2026-01-13 17:10:40.14	301.14	23.81	-38.5	-39.5	22.4	0.00e+00	0	27	0	823132160	48	6795
2026-01-13 17:10:44.18	300.09	23.58	-38.0	-38.9	22.6	0.00e+00	33	27	0	831520768	48	6362
2026-01-13 17:10:48.22	299.06	23.34	-38.0	-39.0	22.6	0.00e+00	90	27	0	838860800	48	6395
2026-01-13 17:10:52.25	298.04	23.09	-39.1	-40.3	21.7	0.00e+00	0	27	0	846200832	50	6617
2026-01-13 17:10:56.29	297.04	22.83	-37.9	-38.8	22.8	0.00e+00	0	27	0	853540864	48	6295
2026-01-13 17:11:00.33	296.06	22.56	-38.0	-38.9	22.7	0.00e+00	0	27	0	860880896	48	6388
2026-01-13 17:11:04.37	295.09	22.29	-38.2	-39.2	22.5	0.00e+00	91	27	0	869269504	48	6581
2026-01-13 17:11:08.40	294.15	22.02	-36.8	-37.6	23.7	0.00e+00	0	27	0	876609536	48	5501
2026-01-13 17:11:12.44	293.21	21.74	-37.3	-38.2	23.2	0.00e+00	0	27	0	883949568	46	6607
2026-01-13 17:11:16.48	292.30	21.45	-38.1	-39.1	22.5	0.00e+00	60	27	0	891289600	48	6529
2026-01-13 17:11:20.51	291.40	21.16	-36.6	-37.4	23.8	0.00e+00	0	27	0	898629632	46	6014
2026-01-13 17:11:24.55	290.52	20.87	-36.0	-36.9	24.3	0.00e+00	0	27	0	907018240	44	6325
2026-01-13 17:11:28.59	289.65	20.57	-36.8	-37.7	23.7	0.00e+00	0	27	0	914358272	46	6200
2026-01-13 17:11:32.63	288.80	20.27	-36.9	-37.8	23.6	0.00e+00	60	27	0	921698304	46	6298
2026-01-13 17:11:36.66	287.97	19.97	-36.7	-37.6	23.8	0.00e+00	0	27	0	929038336	46	6130
2026-01-13 17:11:40.70	287.16	19.66	-36.7	-37.6	23.7	0.00e+00	0	27	0	937426944	46	6134
2026-01-13 17:11:44.73	286.36	19.35	-37.3	-38.2	23.2	0.00e+00	0	27	0	944766976	46	6608
2026-01-13 17:11:48.77	285.58	19.04	-37.1	-38.0	23.4	0.00e+00	74	27	0	952107008	46	6448
2026-01-13 17:11:52.81	284.81	18.73	-37.1	-38.0	23.3	0.00e+00	0	27	0	959447040	46	6425
2026-01-13 17:11:56.84	284.06	18.42	-36.8	-37.7	23.5	0.00e+00	0	27	0	966787072	48	5521
2026-01-13 17:12:00.88	283.33	18.11	-36.4	-37.3	23.8	0.00e+00	0	27	0	975175680	46	5898
2026-01-13 17:12:04.91	282.61	17.79	-36.2	-37.0	24.2	0.00e+00	92	27	0	982515712	46	5712
2026-01-13 17:12:08.95	281.91	17.48	-36.9	-37.8	23.6	0.00e+00	0	27	0	989855744	46	6258
2026-01-13 17:12:12.99	281.22	17.16	-36.4	-37.3	23.9	0.00e+00	0	27	0	997195776	46	5917
2026-01-13 17:12:17.03	280.54	16.84	-36.3	-37.1	23.9	0.00e+00	63	27	0	1005584384	46	5818
2026-01-13 17:12:21.06	279.88	16.53	-36.7	-37.6	23.7	0.00e+00	0	27	0	1012924416	46	6112
2026-01-13 17:12:25.10	279.23	16.21	-37.1	-38.0	23.3	0.00e+00	0	27	0	1020264448	46	6439
2026-01-13 17:12:29.13	278.60	15.90	-36.4	-37.2	23.9	0.00e+00	0	27	0	1027604480	46	5879
2026-01-13 17:12:33.17	277.98	15.58	-36.5	-37.3	23.8	0.00e+00	38	27	0	1034944512	46	5953
2026-01-13 17:12:37.20	277.37	15.27	-37.6	-38.5	22.5	0.00e+00	33	27	0	1043333120	46	6841
2026-01-13 17:12:41.23	276.78	14.96	-37.1	-38.0	23.0	0.00e+00	33	27	0	1050673152	48	5719
2026-01-13 17:12:45.27	276.20	14.65	-37.0	-37.9	23.4	0.00e+00	0	27	0	1058013184	46	6373
2026-01-13 17:12:49.31	275.63	14.33	-36.8	-37.7	23.5	0.00e+00	77	27	0	1065353216	46	6211
2026-01-13 17:12:53.34	275.07	14.03	-38.0	-39.0	22.5	0.00e+00	0	27	0	1072693248	48	6404
2026-01-13 17:12:57.37	274.53	13.72	-38.5	-39.6	22.0	0.00e+00	0	27	0	1081081856	50	6146
2026-01-13 17:13:01.41	273.99	13.41	-37.3	-38.2	23.1	0.00e+00	0	27	0	1088421888	48	5838
2026-01-13 17:13:05.44	273.47	13.10	-36.9	-37.8	23.2	0.00e+00	70	27	0	1095761920	46	6288
2026-01-13 17:13:09.48	272.96	12.80	-37.3	-38.2	23.1	0.00e+00	0	27	0	1103101952	46	6559
2026-01-13 17:13:13.52	272.45	12.50	-37.2	-38.1	23.2	0.00e+00	0	27	0	1110441984	46	6484
2026-01-13 17:13:17.55	271.96	12.20	-37.6	-38.5	22.7	0.00e+00	69	27	0	1118830592	46	6844
2026-01-13 17:13:21.59	271.48	11.90	-38.2	-39.2	22.2	0.00e+00	0	27	0	1126170624	48	6585
2026-01-13 17:13:25.63	271.01	11.60	-38.4	-39.5	22.1	0.00e+00	0	27	0	1133510656	48	6815
2026-01-13 17:13:29.66	270.55	11.30	-38.7	-39.8	21.7	0.00e+00	0	27	0	1140850688	48	7051
2026-01-13 17:13:33.70	270.10	11.01	-39.1	-40.3	21.2	0.00e+00	83	27	0	1149239296	50	6632
2026-01-13 17:13:37.73	269.66	10.72	-38.5	-39.6	21.9	0.00e+00	0	27	0	1156579328	50	6111
2026-01-13 17:13:41.77	269.22	10.42	-37.9	-38.9	22.3	0.00e+00	0	27	0	1163919360	48	6326
2026-01-13 17:13:45.81	268.80	10.14	-38.3	-39.4	22.0	0.00e+00	0	27	0	1171259392	48	6720
2026-01-13 17:13:49.85	268.38	9.85	-38.9	-40.0	21.4	2.20e-06	57	27	0	1178599424	50	6432
2026-01-13 17:13:53.88	267.97	9.56	-38.7	-39.8	21.5	0.00e+00	0	27	0	1186988032	50	6287
2026-01-13 17:13:57.92	267.57	9.28	-38.4	-39.4	21.9	0.00e+00	0	27	0	1194328064	50	6020
2026-01-13 17:14:01.96	267.18	9.00	-38.0	-39.0	22.2	0.00e+00	24	27	0	1201668096	50	5756
2026-01-13 17:14:06.00	266.79	8.72	-38.6	-39.7	21.7	0.00e+00	0	27	0	1209008128	50	6185
2026-01-13 17:14:10.03	266.42	8.44	-39.1	-40.2	21.0	0.00e+00	0	27	0	1217396736	50	6596
2026-01-13 17:14:14.07	266.04	8.16	-39.6	-40.8	20.5	0.00e+00	0	27	0	1224736768	50	7085
2026-01-13 17:14:18.11	265.68	7.89	-40.0	-41.3	20.1	0.00e+00	22	27	0	1232076800	52	6679
2026-01-13 17:14:22.15	265.33	7.62	-40.4	-41.8	19.7	0.00e+00	0	27	0	1239416832	52	7029
2026-01-13 17:14:26.19	264.98	7.35	-40.3	-41.7	19.7	0.00e+00	0	27	0	1246756864	52	6977
2026-01-13 17:14:30.23	264.63	7.08	-40.3	-41.7	19.7	0.00e+00	0	27	0	1255145472	52	6962
2026-01-13 17:14:34.27	264.30	6.81	-40.5	-42.0	19.4	0.00e+00	92	27	0	1262485504	54	6410
2026-01-13 17:14:38.31	263.97	6.55	-41.3	-42.9	18.6	0.00e+00	0	27	0	1269825536	54	7132
2026-01-13 17:14:42.34	263.64	6.28	-41.2	-42.9	18.5	0.00e+00	0	27	0	1277165568	54	7106
2026-01-13 17:14:46.38	263.33	6.02	-40.7	-42.2	19.1	0.00e+00	0	27	0	1285554176	54	6568
2026-01-13 17:14:50.42	263.01	5.76	-39.9	-41.3	19.9	0.00e+00	61	27	0	1292894208	54	5898
2026-01-13 17:14:54.45	262.71	5.50	-39.4	-40.6	20.4	0.00e+00	0	27	0	1300234240	52	6137
2026-01-13 17:14:58.49	262.41	5.25	-39.3	-40.5	20.5	0.00e+00	0	27	0	1307574272	52	6095
2026-01-13 17:15:02.53	262.11	4.99	-39.6	-40.9	20.1	0.00e+00	90	27	0	1314914304	52	6345
2026-01-13 17:15:06.57	261.82	4.74	-40.2	-41.6	19.4	0.00e+00	0	27	0	1323302912	52	6924
2026-01-13 17:15:10.60	261.54	4.49	-41.2	-43.0	18.1	0.00e+00	0	27	0	1330642944	54	7189
2026-01-13 17:15:14.64	261.26	4.24	-41.3	-43.1	18.0	0.00e+00	0	27	0	1337982976	54	7273
2026-01-13 17:15:18.67	260.98	3.99	-41.8	-43.8	17.4	0.00e+00	92	27	0	1345323008	56	7008
2026-01-13 17:15:22.71	260.71	3.75	-41.6	-43.5	17.5	0.00e+00	0	27	0	1353711616	56	6844
2026-01-13 17:15:26.74	260.45	3.50	-41.7	-43.7	17.4	0.00e+00	0	27	0	1361051648	56	6965
2026-01-13 17:15:30.78	260.19	3.26	-41.8	-43.8	17.0	0.00e+00	48	27	0	1368391680	56	7009
2026-01-13 17:15:34.82	259.93	3.02	-41.8	-43.8	17.0	0.00e+00	72	27	0	1375731712	56	7087
2026-01-13 17:15:38.85	259.68	2.78	-48.3	-63.4	3.6	1.51e+00	0	27	104	1376780288	60	53370
2026-01-13 17:15:42.89	259.43	2.54	-48.4	-63.6	3.6	1.51e+00	0	27	104	1376780288	60	54647
2026-01-13 17:15:46.93	259.19	2.30	-48.3	-63.5	3.6	1.51e+00	0	27	104	1376780288	60	54035
2026-01-13 17:15:50.98	258.95	2.07	-48.3	-63.5	3.6	1.51e+00	0	27	104	1376780288	60	53876
2026-01-13 17:15:55.01	258.71	1.84	-48.4	-63.6	3.6	1.51e+00	0	27	104	1376780288	60	54486
2026-01-13 17:15:59.05	258.48	1.60	-48.4	-63.5	3.6	1.51e+00	0	27	104	1376780288	60	54166
2026-01-13 17:16:03.08	258.25	1.37	-48.4	-63.5	3.6	1.51e+00	0	27	104	1376780288	60	54162
2026-01-13 17:16:07.12	258.03	1.14	-48.3	-63.5	3.6	1.51e+00	0	27	104	1376780288	60	53960
2026-01-13 17:16:11.16	257.81	0.91	-48.4	-63.6	3.6	1.51e+00	0	27	104	1376780288	60	54583
2026-01-13 17:16:15.20	257.59	0.69	-48.4	-63.5	3.6	1.51e+00	0	27	104	1376780288	60	54249
2026-01-13 17:16:19.24	257.38	0.46	-48.3	-63.5	3.6	1.51e+00	0	27	104	1376780288	60	54324
2026-01-13 17:16:23.28	257.16	0.24	-48.3	-63.5	3.6	1.51e+00	0	27	104	1376780288	60	54095
2026-01-13 17:16:27.31	256.96	0.02	-48.3	-63.5	3.6	1.51e+00	0	27	104	1376780288	60	53976

#Closed at: 2026-01-13 17:16:29
#Recorded file [1376 MB]: D:/lorett/data/35029_260114_050223.dat