passes_logs/2026/01/13/R4.6S_Anadyr/R4.6S_Anadyr__20260113_162125_FENGYUN_3D_rec.log

#Pass ID: 20260113_162125_FENGYUN 3D
#Satellite: FENGYUN 3D
#Configuration: FENGYUN 3D
#almurnet v.1.7.20251203
#Start time: 2026-01-13 16:21:26

#Version: 2.2.20231116
#Station: R4.6S_Anadyr
#Location: 177.4865 lon 64.73178 lat
#TLE: 1 43010U 17072A   26012.32543542  .00000598  00000+0  30457-3 0  9997
#TLE: 2 43010  98.9935 344.1005 0002233 112.6136 247.5276 14.19696644422876

#Time	Az	El	Level	Level2	SNR	BER	BlckErr	Temp	State	Recorded	gain1	gain2
2026-01-13 16:21:26.68	20.25	0.06	-48.6	-66.3	3.5	3.01e+01	0	25	0	0	60	79898
2026-01-13 16:21:30.71	20.33	0.30	-48.5	-60.6	3.6	8.45e-01	0	27	104	0	60	38823
2026-01-13 16:21:34.75	20.40	0.54	-48.5	-60.6	3.6	8.45e-01	0	27	104	0	60	38573
2026-01-13 16:21:38.79	20.47	0.79	-48.0	-60.0	3.6	8.46e-01	0	27	104	0	60	36158
2026-01-13 16:21:42.83	20.55	1.03	-46.9	-58.9	3.6	8.45e-01	0	27	104	0	60	31750
2026-01-13 16:21:46.86	20.63	1.28	-46.9	-58.8	3.6	8.45e-01	0	27	104	0	60	31584
2026-01-13 16:21:50.90	20.70	1.53	-46.9	-58.9	3.6	8.45e-01	0	27	104	0	60	31686
2026-01-13 16:21:54.94	20.78	1.78	-46.8	-58.9	3.6	8.45e-01	0	27	104	0	60	31761
2026-01-13 16:21:58.97	20.86	2.03	-46.9	-59.0	3.6	8.44e-01	0	27	104	0	60	32184
2026-01-13 16:22:03.00	20.94	2.29	-46.6	-56.5	3.8	8.45e-01	0	28	104	0	60	24097
2026-01-13 16:22:07.04	21.02	2.55	-46.4	-53.7	3.9	8.28e-01	0	28	0	0	60	17463
2026-01-13 16:22:11.08	21.10	2.81	-44.2	-47.4	10.4	1.72e-02	0	28	0	10485760	60	8435
2026-01-13 16:22:15.12	21.19	3.07	-38.8	-39.9	18.1	0.00e+00	0	28	0	33554432	52	5673
2026-01-13 16:22:19.16	21.27	3.34	-37.1	-38.1	19.8	0.00e+00	0	28	0	55574528	48	5772
2026-01-13 16:22:23.20	21.36	3.61	-40.2	-41.6	16.3	0.00e+00	0	28	0	78643200	52	6909
2026-01-13 16:22:27.24	21.45	3.88	-46.7	-57.7	3.6	8.45e-01	0	28	104	98566144	60	27836
2026-01-13 16:22:31.28	21.53	4.15	-37.0	-38.0	20.2	0.00e+00	0	28	0	112197632	48	5711
2026-01-13 16:22:35.32	21.62	4.43	-36.4	-37.3	20.8	0.00e+00	0	28	0	134217728	46	5912
2026-01-13 16:22:39.36	21.71	4.71	-34.9	-35.7	22.4	0.00e+00	0	28	0	157286400	42	6218
2026-01-13 16:22:43.39	21.81	4.99	-34.7	-35.5	22.6	0.00e+00	0	28	0	180355072	42	6089
2026-01-13 16:22:47.43	21.90	5.28	-34.6	-35.4	22.7	0.00e+00	0	28	0	202375168	42	6005
2026-01-13 16:22:51.47	22.00	5.57	-34.5	-35.3	22.9	0.00e+00	0	28	0	225443840	42	5899
2026-01-13 16:22:55.51	22.09	5.86	-34.5	-35.2	23.2	0.00e+00	0	28	0	248512512	42	5865
2026-01-13 16:22:59.54	22.19	6.15	-34.1	-34.8	23.4	0.00e+00	0	28	0	270532608	42	5595
2026-01-13 16:23:03.58	22.29	6.45	-34.0	-34.7	23.5	0.00e+00	0	28	0	293601280	42	5558
2026-01-13 16:23:07.62	22.39	6.75	-33.8	-34.5	23.8	0.00e+00	0	28	0	316669952	42	5408
2026-01-13 16:23:11.66	22.50	7.06	-33.8	-34.5	23.8	0.00e+00	0	28	0	338690048	40	6094
2026-01-13 16:23:15.70	22.60	7.37	-33.6	-34.3	23.9	0.00e+00	0	28	0	361758720	40	5957
2026-01-13 16:23:19.74	22.71	7.68	-33.6	-34.3	24.0	0.00e+00	0	28	0	384827392	40	5918
2026-01-13 16:23:23.77	22.82	7.99	-33.5	-34.2	24.1	0.00e+00	0	29	0	406847488	40	5895
2026-01-13 16:23:27.81	22.93	8.31	-33.4	-34.1	24.2	0.00e+00	0	29	0	429916160	40	5807
2026-01-13 16:23:31.84	23.04	8.64	-33.4	-34.2	24.2	0.00e+00	0	29	0	452984832	40	5838
2026-01-13 16:23:35.88	23.16	8.97	-33.5	-34.2	24.2	0.00e+00	0	29	0	475004928	40	5877
2026-01-13 16:23:39.92	23.28	9.30	-33.3	-34.0	24.4	0.00e+00	0	29	0	498073600	40	5737
2026-01-13 16:23:43.96	23.40	9.64	-33.3	-34.0	24.4	0.00e+00	0	29	0	521142272	40	5747
2026-01-13 16:23:47.99	23.52	9.98	-33.4	-34.1	24.4	0.00e+00	0	29	0	543162368	40	5780
2026-01-13 16:23:52.02	23.65	10.32	-33.1	-33.8	24.6	0.00e+00	0	29	0	566231040	40	5573
2026-01-13 16:23:56.06	23.77	10.68	-33.0	-33.7	24.8	0.00e+00	0	29	0	588251136	40	5519
2026-01-13 16:24:00.10	23.90	11.03	-32.8	-33.5	24.9	0.00e+00	0	29	0	611319808	40	5388
2026-01-13 16:24:04.14	24.04	11.39	-32.9	-33.6	24.8	0.00e+00	0	29	0	634388480	40	5443
2026-01-13 16:24:08.17	24.17	11.76	-32.9	-33.6	25.0	0.00e+00	0	29	0	656408576	38	6109
2026-01-13 16:24:12.21	24.31	12.13	-32.7	-33.4	25.1	0.00e+00	0	29	0	679477248	38	5993
2026-01-13 16:24:16.25	24.45	12.51	-32.8	-33.4	25.1	0.00e+00	0	29	0	702545920	38	6022
2026-01-13 16:24:20.29	24.60	12.89	-32.9	-33.6	24.9	0.00e+00	0	29	0	724566016	38	6167
2026-01-13 16:24:24.32	24.75	13.28	-32.9	-33.6	24.8	0.00e+00	0	29	0	747634688	38	6148
2026-01-13 16:24:28.36	24.90	13.68	-32.8	-33.5	25.0	0.00e+00	0	29	0	770703360	38	6091
2026-01-13 16:24:32.40	25.05	14.08	-32.9	-33.6	25.0	0.00e+00	0	29	0	792723456	38	6119
2026-01-13 16:24:36.44	25.21	14.49	-32.3	-33.0	25.5	0.00e+00	0	29	0	815792128	38	5739
2026-01-13 16:24:40.48	25.38	14.91	-32.3	-33.0	25.6	0.00e+00	0	29	0	838860800	38	5742
2026-01-13 16:24:44.52	25.55	15.33	-31.9	-32.6	25.9	0.00e+00	0	29	0	860880896	38	5459
2026-01-13 16:24:48.56	25.72	15.76	-31.8	-32.5	26.0	0.00e+00	0	29	0	883949568	36	6049
2026-01-13 16:24:52.59	25.90	16.20	-31.6	-32.2	26.2	0.00e+00	0	29	0	907018240	36	5888
2026-01-13 16:24:56.63	26.08	16.65	-31.6	-32.3	26.3	0.00e+00	0	29	0	929038336	36	5919
2026-01-13 16:25:00.67	26.26	17.10	-31.5	-32.1	26.4	0.00e+00	0	29	0	952107008	36	5818
2026-01-13 16:25:04.71	26.45	17.56	-31.2	-31.8	26.6	0.00e+00	0	29	0	975175680	36	5619
2026-01-13 16:25:08.74	26.65	18.03	-31.1	-31.7	26.8	0.00e+00	0	29	0	997195776	36	5548
2026-01-13 16:25:12.78	26.85	18.51	-31.2	-31.8	26.7	0.00e+00	0	29	0	1020264448	36	5621
2026-01-13 16:25:16.82	27.06	19.00	-30.8	-31.4	27.0	0.00e+00	0	29	0	1043333120	36	5375
2026-01-13 16:25:20.86	27.28	19.50	-30.7	-31.3	27.2	0.00e+00	0	29	0	1065353216	34	5921
2026-01-13 16:25:24.89	27.50	20.01	-30.6	-31.3	27.2	0.00e+00	0	29	0	1088421888	34	5901
2026-01-13 16:25:28.93	27.73	20.53	-30.4	-31.0	27.3	0.00e+00	0	29	0	1111490560	34	5744
2026-01-13 16:25:32.97	27.96	21.06	-30.5	-31.1	27.3	0.00e+00	0	29	0	1133510656	34	5799
2026-01-13 16:25:37.01	28.21	21.60	-30.4	-31.1	27.4	0.00e+00	0	29	0	1156579328	34	5785
2026-01-13 16:25:41.05	28.46	22.15	-30.4	-31.1	27.4	0.00e+00	0	29	0	1179648000	34	5763
2026-01-13 16:25:45.09	28.72	22.71	-30.0	-30.7	27.6	0.00e+00	0	29	0	1201668096	34	5508
2026-01-13 16:25:49.12	28.99	23.29	-29.9	-30.5	27.8	0.00e+00	0	29	0	1224736768	32	6082
2026-01-13 16:25:53.16	29.27	23.87	-29.9	-30.5	27.8	0.00e+00	0	29	0	1247805440	32	6046
2026-01-13 16:25:57.20	29.56	24.48	-30.0	-30.6	27.7	0.00e+00	0	29	0	1269825536	32	6160
2026-01-13 16:26:01.24	29.86	25.09	-29.9	-30.6	27.8	0.00e+00	0	30	0	1292894208	32	6109
2026-01-13 16:26:05.28	30.17	25.72	-29.8	-30.5	27.9	0.00e+00	0	30	0	1315962880	32	6037
2026-01-13 16:26:09.32	30.49	26.36	-29.6	-30.3	28.0	0.00e+00	0	30	0	1337982976	32	5908
2026-01-13 16:26:13.35	30.83	27.02	-29.7	-30.3	27.9	0.00e+00	0	30	0	1361051648	32	5925
2026-01-13 16:26:17.39	31.18	27.69	-29.4	-30.0	28.2	0.00e+00	0	30	0	1383071744	32	5733
2026-01-13 16:26:21.43	31.54	28.38	-29.4	-30.1	28.1	0.00e+00	0	30	0	1406140416	32	5776
2026-01-13 16:26:25.47	31.92	29.08	-29.7	-30.4	27.9	0.00e+00	0	30	0	1429209088	32	5966
2026-01-13 16:26:29.51	32.31	29.81	-29.8	-30.4	27.9	0.00e+00	0	30	0	1452277760	32	6005
2026-01-13 16:26:33.54	32.73	30.54	-29.5	-30.1	28.2	0.00e+00	0	30	0	1474297856	32	5789
2026-01-13 16:26:37.58	33.16	31.30	-29.7	-30.3	28.0	0.00e+00	0	30	0	1497366528	32	5912
2026-01-13 16:26:41.62	33.61	32.08	-29.5	-30.1	28.2	0.00e+00	0	30	0	1520435200	32	5813
2026-01-13 16:26:45.66	34.08	32.87	-29.5	-30.1	28.2	0.00e+00	0	30	0	1542455296	32	5796
2026-01-13 16:26:49.69	34.58	33.69	-29.1	-29.7	28.5	0.00e+00	0	30	0	1565523968	32	5521
2026-01-13 16:26:53.73	35.10	34.52	-29.2	-29.9	28.4	0.00e+00	0	30	0	1587544064	32	5643
2026-01-13 16:26:57.77	35.65	35.37	-29.2	-29.8	28.4	0.00e+00	0	30	0	1610612736	32	5612
2026-01-13 16:27:01.80	36.23	36.25	-29.0	-29.6	28.5	0.00e+00	0	30	0	1633681408	32	5487
2026-01-13 16:27:05.83	36.83	37.14	-28.9	-29.6	28.6	0.00e+00	0	30	0	1655701504	32	5441
2026-01-13 16:27:09.87	37.48	38.06	-29.0	-29.6	28.6	0.00e+00	0	30	0	1678770176	30	6156
2026-01-13 16:27:13.91	38.15	39.00	-29.3	-29.9	28.5	0.00e+00	0	30	0	1701838848	30	6358
2026-01-13 16:27:17.95	38.87	39.96	-28.8	-29.4	28.7	0.00e+00	0	30	0	1724907520	30	6001
2026-01-13 16:27:21.98	39.63	40.94	-29.0	-29.6	28.6	0.00e+00	0	30	0	1746927616	30	6126
2026-01-13 16:27:26.02	40.44	41.94	-29.2	-29.9	28.4	0.00e+00	0	30	0	1769996288	30	6336
2026-01-13 16:27:30.06	41.30	42.97	-29.2	-29.8	28.4	0.00e+00	0	30	0	1792016384	30	6287
2026-01-13 16:27:34.10	42.22	44.02	-29.5	-30.1	28.2	0.00e+00	0	30	0	1815085056	30	6537
2026-01-13 16:27:38.14	43.20	45.08	-29.4	-30.0	28.3	0.00e+00	0	30	0	1838153728	30	6438
2026-01-13 16:27:42.18	44.24	46.17	-29.2	-29.9	28.4	0.00e+00	0	30	0	1860173824	30	6332
2026-01-13 16:27:46.21	45.36	47.28	-29.5	-30.1	28.2	0.00e+00	0	30	0	1883242496	32	5813
2026-01-13 16:27:50.24	46.56	48.40	-29.5	-30.1	28.1	0.00e+00	0	30	0	1906311168	32	5809
2026-01-13 16:27:54.28	47.85	49.54	-29.8	-30.5	27.9	0.00e+00	0	30	0	1928331264	32	6042
2026-01-13 16:27:58.32	49.24	50.69	-29.9	-30.5	28.0	0.00e+00	0	30	0	1951399936	32	6072
2026-01-13 16:28:02.35	50.74	51.85	-30.0	-30.6	27.9	0.00e+00	0	30	0	1974468608	32	6132
2026-01-13 16:28:06.39	52.36	53.02	-30.0	-30.6	27.8	0.00e+00	0	30	0	1996488704	32	6113
2026-01-13 16:28:10.43	54.12	54.19	-30.6	-31.3	27.2	0.00e+00	0	30	0	2019557376	32	6642
2026-01-13 16:28:14.47	56.02	55.36	-30.4	-31.1	27.6	0.00e+00	0	30	0	2042626048	34	5764
2026-01-13 16:28:18.51	58.09	56.52	-30.3	-30.9	27.5	0.00e+00	0	30	0	2064646144	34	5683
2026-01-13 16:28:22.55	60.34	57.67	-29.8	-30.4	28.0	0.00e+00	0	30	0	2087714816	34	5368
2026-01-13 16:28:26.59	62.78	58.80	-30.1	-30.7	27.7	0.00e+00	0	30	0	2110783488	34	5538
2026-01-13 16:28:30.63	65.43	59.89	-29.5	-30.2	28.2	0.00e+00	0	30	0	2132803584	32	5829
2026-01-13 16:28:34.67	68.32	60.95	-29.1	-29.7	28.6	0.00e+00	0	30	0	2155872256	32	5503
2026-01-13 16:28:38.69	71.43	61.94	-28.9	-29.5	28.6	0.00e+00	0	30	0	2178940928	32	5424
2026-01-13 16:28:42.73	74.82	62.88	-29.2	-29.8	28.5	0.00e+00	0	30	0	2200961024	30	6271
2026-01-13 16:28:46.77	78.46	63.75	-28.8	-29.4	28.7	0.00e+00	0	30	0	2224029696	30	6001
2026-01-13 16:28:50.81	82.38	64.52	-29.0	-29.6	28.6	0.00e+00	0	30	0	2247098368	30	6139
2026-01-13 16:28:54.85	86.54	65.18	-29.3	-30.0	28.5	0.00e+00	0	30	0	2269118464	30	6432
2026-01-13 16:28:58.88	90.93	65.73	-29.0	-29.7	28.6	0.00e+00	0	30	0	2292187136	30	6196
2026-01-13 16:29:02.92	95.52	66.14	-29.2	-29.8	28.5	0.00e+00	0	30	0	2315255808	30	6300
2026-01-13 16:29:06.95	100.25	66.42	-28.6	-29.2	28.9	0.00e+00	0	30	0	2337275904	30	5848
2026-01-13 16:29:10.99	105.08	66.54	-28.9	-29.6	28.7	0.00e+00	0	30	0	2360344576	30	6118
2026-01-13 16:29:15.02	109.93	66.52	-28.8	-29.4	28.7	0.00e+00	0	30	0	2382364672	30	5996
2026-01-13 16:29:19.06	114.74	66.34	-28.7	-29.3	28.6	0.00e+00	0	30	0	2405433344	30	5936
2026-01-13 16:29:23.10	119.44	66.02	-28.9	-29.5	28.5	0.00e+00	0	30	0	2428502016	30	6091
2026-01-13 16:29:27.13	123.96	65.56	-29.0	-29.7	28.5	0.00e+00	0	30	0	2450522112	30	6184
2026-01-13 16:29:31.17	128.29	64.97	-29.3	-29.9	28.3	0.00e+00	0	30	0	2473590784	30	6376
2026-01-13 16:29:35.21	132.37	64.27	-29.0	-29.6	28.6	0.00e+00	0	30	0	2496659456	30	6131
2026-01-13 16:29:39.24	136.19	63.46	-28.9	-29.6	28.5	0.00e+00	0	30	0	2519728128	30	6121
2026-01-13 16:29:43.28	139.75	62.57	-28.8	-29.5	28.5	0.00e+00	0	30	0	2541748224	30	6073
2026-01-13 16:29:47.32	143.06	61.61	-28.7	-29.3	28.7	0.00e+00	0	30	0	2564816896	30	5936
2026-01-13 16:29:51.36	146.10	60.58	-29.3	-30.0	28.4	0.00e+00	0	30	0	2586836992	30	6392
2026-01-13 16:29:55.40	148.91	59.51	-29.7	-30.4	28.0	0.00e+00	0	30	0	2609905664	30	6693
2026-01-13 16:29:59.43	151.49	58.40	-29.7	-30.3	28.0	0.00e+00	0	30	0	2632974336	32	5911
2026-01-13 16:30:03.47	153.87	57.26	-29.9	-30.6	27.9	0.00e+00	0	30	0	2654994432	32	6152
2026-01-13 16:30:07.51	156.05	56.11	-30.3	-31.1	27.5	0.00e+00	0	30	0	2678063104	32	6472
2026-01-13 16:30:11.55	158.07	54.94	-30.1	-30.6	27.7	0.00e+00	0	30	0	2701131776	32	6166
2026-01-13 16:30:15.58	159.92	53.77	-30.3	-30.9	27.6	0.00e+00	0	30	0	2723151872	32	6331
2026-01-13 16:30:19.62	161.63	52.59	-30.1	-30.7	27.7	0.00e+00	0	30	0	2746220544	32	6188
2026-01-13 16:30:23.66	163.21	51.42	-29.9	-30.4	27.8	0.00e+00	0	30	0	2769289216	32	6024
2026-01-13 16:30:27.70	164.67	50.26	-29.7	-30.3	27.9	0.00e+00	0	30	0	2791309312	32	5903
2026-01-13 16:30:31.74	166.03	49.10	-29.5	-30.0	28.0	0.00e+00	0	30	0	2814377984	32	5759
2026-01-13 16:30:35.78	167.29	47.97	-29.3	-29.9	28.2	0.00e+00	0	30	0	2837446656	32	5632
2026-01-13 16:30:39.82	168.47	46.84	-29.5	-30.1	28.1	0.00e+00	0	30	0	2859466752	32	5784
2026-01-13 16:30:43.85	169.56	45.74	-29.3	-29.9	28.3	0.00e+00	0	30	0	2882535424	32	5674
2026-01-13 16:30:47.89	170.58	44.66	-29.1	-29.8	28.4	0.00e+00	0	30	0	2905604096	32	5609
2026-01-13 16:30:51.93	171.54	43.59	-29.3	-29.9	28.3	0.00e+00	0	30	0	2927624192	32	5647
2026-01-13 16:30:55.97	172.43	42.55	-29.1	-29.8	28.4	0.00e+00	0	30	0	2950692864	32	5620
2026-01-13 16:31:00.01	173.28	41.52	-29.0	-29.6	28.4	0.00e+00	0	30	0	2973761536	32	5453
2026-01-13 16:31:04.04	174.07	40.53	-28.8	-29.5	28.7	0.00e+00	0	30	0	2995781632	30	6045
2026-01-13 16:31:08.08	174.81	39.55	-29.1	-29.8	28.4	0.00e+00	0	30	0	3018850304	30	6276
2026-01-13 16:31:12.12	175.52	38.59	-29.0	-29.5	28.5	0.00e+00	0	29	0	3041918976	30	6086
2026-01-13 16:31:16.16	176.18	37.65	-28.8	-29.4	28.6	0.00e+00	0	29	0	3063939072	30	6025
2026-01-13 16:31:20.20	176.81	36.74	-28.4	-28.9	28.9	0.00e+00	0	29	0	3087007744	30	5689
2026-01-13 16:31:24.24	177.41	35.85	-28.5	-29.0	28.8	0.00e+00	0	29	0	3110076416	30	5723
2026-01-13 16:31:28.28	177.98	34.98	-28.6	-29.1	28.7	0.00e+00	0	29	0	3132096512	30	5791
2026-01-13 16:31:32.31	178.51	34.13	-28.7	-29.2	28.8	0.00e+00	0	29	0	3155165184	30	5854
2026-01-13 16:31:36.35	179.02	33.30	-29.0	-29.5	28.5	0.00e+00	0	29	0	3178233856	30	6076
2026-01-13 16:31:40.39	179.51	32.49	-29.2	-29.9	28.4	0.00e+00	0	29	0	3200253952	30	6360
2026-01-13 16:31:44.43	179.98	31.70	-29.1	-29.7	28.4	0.00e+00	0	29	0	3223322624	30	6177
2026-01-13 16:31:48.47	180.42	30.93	-28.7	-29.2	28.8	0.00e+00	0	29	0	3246391296	30	5840
2026-01-13 16:31:52.51	180.84	30.17	-28.9	-29.5	28.5	0.00e+00	0	29	0	3268411392	30	6036
2026-01-13 16:31:56.54	181.25	29.44	-29.1	-29.7	28.4	0.00e+00	0	29	0	3291480064	30	6187
2026-01-13 16:32:00.58	181.64	28.72	-29.1	-29.7	28.4	0.00e+00	0	29	0	3314548736	30	6175
2026-01-13 16:32:04.62	182.01	28.02	-29.0	-29.6	28.4	0.00e+00	0	29	0	3336568832	30	6118
2026-01-13 16:32:08.65	182.37	27.33	-29.2	-29.8	28.2	0.00e+00	0	29	0	3359637504	30	6273
2026-01-13 16:32:12.69	182.71	26.66	-29.3	-30.0	28.2	0.00e+00	0	29	0	3382706176	30	6403
2026-01-13 16:32:16.74	183.04	26.01	-29.3	-30.0	28.1	0.00e+00	0	29	0	3404726272	30	6399
2026-01-13 16:32:20.77	183.36	25.37	-29.1	-29.6	28.2	0.00e+00	0	29	0	3427794944	30	6169
2026-01-13 16:32:24.81	183.66	24.74	-29.5	-30.0	28.1	0.00e+00	0	29	0	3450863616	30	6425
2026-01-13 16:32:28.85	183.96	24.13	-29.6	-30.1	28.0	0.00e+00	0	29	0	3472883712	30	6518
2026-01-13 16:32:32.88	184.24	23.53	-29.8	-30.3	27.8	0.00e+00	0	29	0	3495952384	32	5948
2026-01-13 16:32:36.92	184.51	22.95	-30.1	-30.8	27.7	0.00e+00	0	29	0	3519021056	32	6262
2026-01-13 16:32:40.96	184.78	22.37	-29.8	-30.4	27.8	0.00e+00	0	29	0	3541041152	32	5979
2026-01-13 16:32:44.99	185.03	21.81	-30.0	-30.7	27.7	0.00e+00	0	29	0	3564109824	32	6190
2026-01-13 16:32:49.03	185.28	21.26	-30.3	-30.8	27.4	0.00e+00	0	29	0	3586129920	32	6306
2026-01-13 16:32:53.07	185.52	20.73	-30.4	-30.9	27.3	0.00e+00	0	29	0	3609198592	32	6375
2026-01-13 16:32:57.11	185.75	20.20	-30.4	-30.9	27.3	0.00e+00	0	29	0	3632267264	32	6375
2026-01-13 16:33:01.14	185.98	19.68	-30.5	-31.1	27.2	0.00e+00	0	29	0	3655335936	32	6467
2026-01-13 16:33:05.18	186.19	19.18	-30.7	-31.3	27.0	0.00e+00	0	29	0	3677356032	34	5903
2026-01-13 16:33:09.22	186.40	18.68	-30.6	-31.2	27.0	0.00e+00	0	29	0	3700424704	34	5854
2026-01-13 16:33:13.25	186.61	18.19	-30.8	-31.4	26.9	0.00e+00	0	29	0	3723493376	34	6002
2026-01-13 16:33:17.29	186.81	17.71	-31.0	-31.7	26.7	0.00e+00	0	29	0	3745513472	34	6239
2026-01-13 16:33:21.33	187.00	17.24	-31.3	-32.1	26.5	0.00e+00	0	29	0	3768582144	34	6485
2026-01-13 16:33:25.37	187.19	16.78	-31.5	-32.1	26.2	0.00e+00	0	29	0	3790602240	34	6516
2026-01-13 16:33:29.41	187.37	16.33	-31.7	-32.4	26.1	0.00e+00	0	29	0	3813670912	34	6726
2026-01-13 16:33:33.44	187.55	15.89	-31.6	-32.3	26.2	0.00e+00	0	29	0	3836739584	36	5956
2026-01-13 16:33:37.48	187.72	15.45	-31.7	-32.3	26.1	0.00e+00	0	29	0	3858759680	36	5921
2026-01-13 16:33:41.52	187.89	15.02	-31.7	-32.4	26.1	0.00e+00	0	29	0	3881828352	36	6018
2026-01-13 16:33:45.56	188.05	14.60	-31.8	-32.4	26.0	0.00e+00	0	29	0	3904897024	36	6000
2026-01-13 16:33:49.60	188.21	14.18	-31.7	-32.3	26.1	0.00e+00	0	29	0	3927965696	36	5924
2026-01-13 16:33:53.64	188.37	13.78	-31.8	-32.5	26.0	0.00e+00	0	29	0	3949985792	36	6070
2026-01-13 16:33:57.68	188.52	13.38	-32.0	-32.7	25.8	0.00e+00	0	29	0	3973054464	36	6245
2026-01-13 16:34:01.72	188.67	12.98	-32.2	-32.9	25.7	0.00e+00	0	29	0	3995074560	36	6366
2026-01-13 16:34:05.75	188.81	12.59	-32.4	-33.1	25.5	0.00e+00	0	29	0	4018143232	36	6503
2026-01-13 16:34:09.79	188.95	12.21	-32.8	-33.6	25.1	0.00e+00	0	29	0	4041211904	38	6115
2026-01-13 16:34:13.83	189.09	11.83	-32.7	-33.5	25.2	0.00e+00	0	29	0	4063232000	38	6051
2026-01-13 16:34:17.87	189.23	11.46	-32.8	-33.5	25.1	0.00e+00	0	29	0	4086300672	38	6052
2026-01-13 16:34:21.91	189.36	11.09	-32.9	-33.6	24.9	0.00e+00	0	29	0	4109369344	38	6105
2026-01-13 16:34:25.94	189.49	10.73	-33.0	-33.7	24.8	0.00e+00	0	29	0	4132438016	38	6181
2026-01-13 16:34:29.98	189.61	10.38	-33.3	-34.0	24.6	0.00e+00	0	29	0	4154458112	38	6403
2026-01-13 16:34:34.02	189.74	10.03	-33.3	-33.9	24.6	0.00e+00	0	29	0	4177526784	38	6389
2026-01-13 16:34:38.05	189.86	9.68	-33.3	-34.1	24.4	0.00e+00	0	29	0	4199546880	38	6524
2026-01-13 16:34:42.09	189.98	9.34	-33.4	-34.2	24.5	0.00e+00	0	29	0	4222615552	38	6542
2026-01-13 16:34:46.13	190.09	9.00	-33.8	-34.5	24.0	0.00e+00	0	29	0	4245684224	40	6089
2026-01-13 16:34:50.17	190.21	8.67	-33.7	-34.4	24.1	1.10e-06	0	29	0	4267704320	40	6001
2026-01-13 16:34:54.20	190.32	8.34	-33.8	-34.6	24.0	0.00e+00	0	29	0	4290772992	40	6112
2026-01-13 16:34:58.24	190.43	8.02	-33.6	-34.3	24.1	0.00e+00	0	29	0	4313841664	40	5947
2026-01-13 16:35:02.28	190.53	7.70	-33.8	-34.5	23.9	0.00e+00	0	29	0	4335861760	40	6058
2026-01-13 16:35:06.31	190.64	7.39	-33.8	-34.6	23.9	0.00e+00	0	29	0	4358930432	40	6144
2026-01-13 16:35:10.35	190.74	7.07	-34.2	-34.9	23.5	0.00e+00	0	29	0	4381999104	40	6366
2026-01-13 16:35:14.39	190.84	6.77	-34.0	-34.9	23.6	0.00e+00	0	29	0	4404019200	40	6323
2026-01-13 16:35:18.43	190.94	6.46	-34.1	-34.8	23.5	0.00e+00	0	29	0	4427087872	40	6282
2026-01-13 16:35:22.47	191.04	6.16	-34.5	-35.3	23.2	0.00e+00	0	29	0	4450156544	40	6656
2026-01-13 16:35:26.51	191.14	5.86	-34.3	-35.0	23.2	0.00e+00	0	29	0	4472176640	40	6440
2026-01-13 16:35:30.54	191.23	5.57	-34.5	-35.3	23.1	0.00e+00	0	29	0	4495245312	40	6644
2026-01-13 16:35:34.58	191.33	5.28	-34.6	-35.4	23.0	0.00e+00	0	29	0	4517265408	42	6010
2026-01-13 16:35:38.62	191.42	4.99	-35.0	-35.7	22.4	0.00e+00	0	29	0	4540334080	42	6226
2026-01-13 16:35:42.66	191.51	4.70	-35.0	-35.7	22.5	0.00e+00	0	29	0	4563402752	42	6243
2026-01-13 16:35:46.70	191.59	4.42	-34.9	-35.7	22.6	0.00e+00	0	29	0	4586471424	42	6195
2026-01-13 16:35:50.72	191.68	4.14	-35.1	-36.0	22.2	0.00e+00	0	29	0	4608491520	42	6408
2026-01-13 16:35:54.76	191.77	3.87	-35.3	-36.0	21.9	0.00e+00	0	29	0	4631560192	44	5756
2026-01-13 16:35:58.80	191.85	3.59	-35.0	-35.9	22.2	0.00e+00	0	29	0	4654628864	44	5662
2026-01-13 16:36:02.84	191.93	3.32	-36.2	-37.1	21.0	0.00e+00	0	29	0	4676648960	44	6517
2026-01-13 16:36:06.88	192.01	3.05	-35.8	-36.6	21.2	0.00e+00	0	29	0	4699717632	44	6136
2026-01-13 16:36:10.92	192.09	2.79	-48.1	-60.4	3.6	8.45e-01	0	29	104	4702863360	60	37643
2026-01-13 16:36:14.96	192.17	2.52	-48.4	-60.6	3.6	8.45e-01	0	29	104	4702863360	60	38747
2026-01-13 16:36:19.00	192.25	2.26	-48.3	-60.5	3.6	8.44e-01	0	29	104	4702863360	60	38412
2026-01-13 16:36:23.04	192.33	2.00	-48.4	-60.5	3.6	8.45e-01	0	29	104	4702863360	60	38394
2026-01-13 16:36:27.08	192.40	1.75	-48.4	-60.5	3.6	8.46e-01	0	29	104	4702863360	60	38213
2026-01-13 16:36:31.12	192.48	1.49	-48.4	-60.5	3.6	8.45e-01	0	29	104	4702863360	60	38183
2026-01-13 16:36:35.16	192.55	1.24	-48.4	-60.4	3.6	8.47e-01	0	29	104	4702863360	60	38059
2026-01-13 16:36:39.20	192.62	0.99	-48.4	-60.4	3.6	8.45e-01	0	29	104	4702863360	60	37938
2026-01-13 16:36:43.24	192.70	0.74	-48.4	-60.4	3.6	8.46e-01	0	29	104	4702863360	60	37980
2026-01-13 16:36:47.28	192.77	0.50	-48.4	-60.5	3.6	8.46e-01	0	29	104	4702863360	60	38293
2026-01-13 16:36:51.32	192.84	0.25	-48.4	-60.5	3.6	8.45e-01	0	29	104	4702863360	60	38380
2026-01-13 16:36:55.36	192.90	0.01	-48.4	-60.5	3.6	8.45e-01	0	29	104	4702863360	60	38090

#Closed at: 2026-01-13 16:36:56
#Recorded file [4702 MB]: D:/lorett/data/35029_260114_042126.dat