passes_logs/2026/01/13/R4.6S_Anadyr/R4.6S_Anadyr__20260113_215826_SUOMI_NPP_rec.log

#Pass ID: 20260113_215826_SUOMI NPP
#Satellite: SUOMI NPP
#Configuration: NPP
#almurnet v.1.7.20251203
#Start time: 2026-01-13 21:58:28

#Version: 2.2.20231116
#Station: R4.6S_Anadyr
#Location: 177.4865 lon 64.73178 lat
#TLE: 1 37849U 11061A   26013.55331121  .00000059  00000+0  48721-4 0  9992
#TLE: 2 37849  98.7808 315.6144 0002478  66.1553 293.9883 14.19524925736509

#Time	Az	El	Level	Level2	SNR	BER	BlckErr	Temp	State	Recorded	gain1	gain2
2026-01-13 21:58:28.17	100.70	0.12	-48.4	-60.9	3.5	1.52e+00	0	26	0	0	60	38970
2026-01-13 21:58:32.21	100.49	0.34	-48.5	-63.6	3.6	1.51e+00	0	27	104	0	60	54922
2026-01-13 21:58:36.24	100.27	0.56	-48.5	-63.7	3.6	1.51e+00	0	27	104	0	60	55074
2026-01-13 21:58:40.28	100.04	0.79	-48.4	-63.5	3.6	1.51e+00	0	27	104	0	60	54376
2026-01-13 21:58:44.32	99.82	1.02	-47.2	-62.8	3.6	1.51e+00	0	27	104	0	60	49769
2026-01-13 21:58:48.36	99.59	1.24	-46.2	-61.6	3.6	1.51e+00	0	27	104	0	60	43658
2026-01-13 21:58:52.39	99.35	1.47	-46.2	-61.6	3.6	1.51e+00	0	27	104	0	60	43387
2026-01-13 21:58:56.43	99.11	1.70	-46.2	-61.7	3.6	1.51e+00	0	27	104	0	60	43830
2026-01-13 21:59:00.47	98.87	1.93	-46.2	-61.6	3.6	1.51e+00	0	27	104	0	60	43430
2026-01-13 21:59:04.51	98.63	2.16	-46.2	-61.5	3.6	1.51e+00	0	27	104	0	60	42834
2026-01-13 21:59:08.55	98.38	2.40	-46.2	-61.6	3.6	1.51e+00	0	27	104	0	60	43476
2026-01-13 21:59:12.59	98.12	2.63	-46.2	-61.5	3.6	1.51e+00	0	27	104	0	60	43126
2026-01-13 21:59:16.63	97.86	2.87	-46.2	-61.0	3.6	1.51e+00	0	27	104	0	60	40769
2026-01-13 21:59:20.67	97.60	3.11	-46.3	-61.1	3.5	1.51e+00	0	27	104	0	60	41066
2026-01-13 21:59:24.71	97.33	3.35	-44.9	-50.4	9.8	4.22e-02	92	27	0	4194304	60	11940
2026-01-13 21:59:28.75	97.06	3.59	-46.2	-59.9	3.6	3.25e-01	9	28	104	11534336	60	35570
2026-01-13 21:59:32.79	96.78	3.83	-43.1	-46.1	14.6	9.10e-06	92	28	0	13631488	60	7283
2026-01-13 21:59:36.83	96.50	4.08	-41.6	-44.2	16.6	0.00e+00	92	28	0	20971520	56	7413
2026-01-13 21:59:40.87	96.21	4.32	-41.0	-42.9	17.8	0.00e+00	82	28	0	28311552	56	6338
2026-01-13 21:59:44.91	95.92	4.57	-41.0	-42.8	18.0	0.00e+00	0	28	0	36700160	54	7083
2026-01-13 21:59:48.95	95.62	4.82	-40.3	-42.0	18.9	0.00e+00	92	28	0	44040192	54	6454
2026-01-13 21:59:52.98	95.32	5.07	-40.3	-42.0	19.0	0.00e+00	91	27	0	51380224	54	6452
2026-01-13 21:59:57.02	95.02	5.32	-40.1	-42.0	18.9	0.00e+00	0	28	0	58720256	54	6463
2026-01-13 22:00:01.06	94.70	5.58	-40.2	-41.8	19.2	0.00e+00	0	28	0	66060288	54	6261
2026-01-13 22:00:05.10	94.38	5.83	-39.8	-41.3	19.6	0.00e+00	65	28	0	74448896	54	5921
2026-01-13 22:00:09.14	94.06	6.09	-40.3	-41.8	19.1	0.00e+00	92	28	0	81788928	54	6259
2026-01-13 22:00:13.18	93.73	6.35	-40.0	-41.4	19.8	0.00e+00	0	28	0	89128960	54	5995
2026-01-13 22:00:17.21	93.39	6.61	-40.1	-41.6	19.5	0.00e+00	10	28	0	96468992	54	6111
2026-01-13 22:00:21.25	93.05	6.87	-40.2	-41.6	19.6	0.00e+00	92	28	0	104857600	52	6884
2026-01-13 22:00:25.28	92.70	7.13	-40.2	-41.7	19.6	0.00e+00	92	28	0	112197632	52	6946
2026-01-13 22:00:29.32	92.34	7.40	-40.6	-42.2	19.0	0.00e+00	0	28	0	119537664	52	7380
2026-01-13 22:00:33.36	91.98	7.67	-40.5	-42.0	19.3	0.00e+00	91	28	0	126877696	52	7227
2026-01-13 22:00:37.40	91.61	7.94	-40.4	-41.9	19.4	0.00e+00	92	28	0	134217728	52	7160
2026-01-13 22:00:41.44	91.23	8.21	-39.7	-41.1	20.0	0.00e+00	0	28	0	142606336	52	6510
2026-01-13 22:00:45.47	90.85	8.48	-39.9	-41.3	20.1	0.00e+00	0	28	0	149946368	52	6631
2026-01-13 22:00:49.51	90.45	8.75	-39.2	-40.4	20.7	0.00e+00	92	28	0	157286400	52	6010
2026-01-13 22:00:53.55	90.05	9.03	-39.6	-41.0	20.4	0.00e+00	92	28	0	164626432	52	6393
2026-01-13 22:00:57.60	89.64	9.31	-38.8	-40.1	21.2	0.00e+00	0	28	0	173015040	52	5764
2026-01-13 22:01:01.64	89.23	9.59	-39.5	-40.8	20.6	0.00e+00	41	28	0	180355072	52	6267
2026-01-13 22:01:05.67	88.81	9.87	-39.3	-40.5	20.8	0.00e+00	71	28	0	187695104	52	6064
2026-01-13 22:01:09.70	88.37	10.15	-39.3	-40.5	20.8	0.00e+00	91	28	0	195035136	52	6060
2026-01-13 22:01:13.74	87.93	10.43	-40.0	-41.3	20.1	0.00e+00	0	28	0	202375168	52	6686
2026-01-13 22:01:17.78	87.48	10.72	-39.4	-40.6	20.8	0.00e+00	40	28	0	210763776	52	6155
2026-01-13 22:01:21.82	87.02	11.01	-39.8	-41.2	20.2	0.00e+00	91	28	0	218103808	52	6552
2026-01-13 22:01:25.86	86.55	11.29	-39.3	-40.6	20.8	0.00e+00	0	28	0	225443840	52	6111
2026-01-13 22:01:29.90	86.08	11.58	-39.6	-40.8	20.7	0.00e+00	0	28	0	232783872	52	6269
2026-01-13 22:01:33.93	85.59	11.88	-39.0	-40.1	21.2	0.00e+00	92	28	0	240123904	52	5820
2026-01-13 22:01:37.97	85.09	12.17	-38.5	-39.6	21.7	0.00e+00	92	28	0	248512512	50	6125
2026-01-13 22:01:42.01	84.58	12.46	-38.4	-39.5	21.8	0.00e+00	0	28	0	255852544	50	6046
2026-01-13 22:01:46.05	84.06	12.76	-38.5	-39.6	22.0	0.00e+00	0	28	0	263192576	50	6133
2026-01-13 22:01:50.09	83.54	13.06	-38.5	-39.5	21.9	0.00e+00	75	28	0	270532608	50	6087
2026-01-13 22:01:54.13	82.99	13.35	-38.3	-39.3	22.0	0.00e+00	92	28	0	278921216	50	5946
2026-01-13 22:01:58.16	82.44	13.65	-38.4	-39.5	21.8	0.00e+00	0	28	0	286261248	50	6068
2026-01-13 22:02:02.21	81.88	13.95	-38.2	-39.3	21.9	0.00e+00	88	28	0	293601280	50	5917
2026-01-13 22:02:06.25	81.31	14.25	-38.1	-39.2	22.2	0.00e+00	73	28	0	300941312	50	5832
2026-01-13 22:02:10.29	80.72	14.56	-38.2	-39.3	22.0	0.00e+00	0	28	0	309329920	50	5913
2026-01-13 22:02:14.33	80.12	14.86	-38.4	-39.5	21.8	0.00e+00	0	28	0	316669952	50	6060
2026-01-13 22:02:18.37	79.51	15.16	-39.1	-40.2	21.2	0.00e+00	92	28	0	324009984	50	6607
2026-01-13 22:02:22.41	78.88	15.46	-38.6	-39.7	21.7	0.00e+00	92	28	0	331350016	50	6216
2026-01-13 22:02:26.45	78.25	15.77	-39.0	-40.1	21.3	0.00e+00	0	28	0	338690048	50	6519
2026-01-13 22:02:30.48	77.60	16.07	-39.1	-40.3	21.3	0.00e+00	0	28	0	347078656	50	6664
2026-01-13 22:02:34.52	76.93	16.37	-39.3	-40.5	21.0	0.00e+00	72	28	0	354418688	50	6846
2026-01-13 22:02:38.55	76.26	16.68	-38.9	-40.0	21.6	0.00e+00	92	28	0	361758720	50	6400
2026-01-13 22:02:42.59	75.57	16.98	-38.5	-39.6	21.9	0.00e+00	0	28	0	369098752	50	6115
2026-01-13 22:02:46.63	74.86	17.28	-38.6	-39.7	21.8	0.00e+00	39	28	0	376438784	50	6215
2026-01-13 22:02:50.67	74.14	17.58	-38.9	-40.0	21.7	0.00e+00	34	28	0	384827392	50	6405
2026-01-13 22:02:54.71	73.40	17.88	-38.6	-39.7	21.9	0.00e+00	0	28	0	392167424	50	6201
2026-01-13 22:02:58.75	72.65	18.18	-39.1	-40.2	21.4	0.00e+00	0	28	0	399507456	50	6573
2026-01-13 22:03:02.79	71.89	18.48	-38.7	-39.7	21.9	0.00e+00	91	28	0	406847488	50	6242
2026-01-13 22:03:06.84	71.11	18.78	-37.9	-38.8	22.6	0.00e+00	92	28	0	415236096	50	5609
2026-01-13 22:03:10.88	70.31	19.07	-37.8	-38.8	22.6	0.00e+00	0	28	0	422576128	48	6246
2026-01-13 22:03:14.91	69.50	19.36	-37.5	-38.4	22.7	0.00e+00	0	28	0	429916160	48	6029
2026-01-13 22:03:18.95	68.68	19.65	-37.1	-38.0	23.2	0.00e+00	43	28	0	437256192	48	5728
2026-01-13 22:03:22.99	67.83	19.93	-36.6	-37.4	23.7	0.00e+00	73	28	0	445644800	46	6027
2026-01-13 22:03:27.03	66.98	20.21	-36.8	-37.6	23.5	0.00e+00	0	28	0	452984832	46	6162
2026-01-13 22:03:31.07	66.10	20.49	-36.8	-37.7	23.5	0.00e+00	9	28	0	460324864	46	6195
2026-01-13 22:03:35.11	65.21	20.76	-36.7	-37.6	23.5	0.00e+00	92	28	0	467664896	46	6132
2026-01-13 22:03:39.14	64.31	21.03	-36.2	-37.1	23.8	0.00e+00	2	28	0	475004928	46	5786
2026-01-13 22:03:43.18	63.39	21.30	-36.4	-37.2	23.9	0.00e+00	0	28	0	483393536	46	5876
2026-01-13 22:03:47.22	62.45	21.56	-36.1	-36.9	24.0	0.00e+00	92	28	0	490733568	46	5669
2026-01-13 22:03:51.26	61.49	21.81	-36.0	-36.8	24.1	0.00e+00	92	28	0	498073600	46	5589
2026-01-13 22:03:55.30	60.53	22.06	-36.2	-37.1	24.1	0.00e+00	0	28	0	505413632	46	5774
2026-01-13 22:03:59.34	59.54	22.30	-36.0	-36.8	24.2	0.00e+00	0	27	0	513802240	44	6275
2026-01-13 22:04:03.38	58.54	22.53	-35.9	-36.7	24.2	0.00e+00	87	28	0	521142272	44	6229
2026-01-13 22:04:07.43	57.52	22.76	-36.0	-36.8	24.2	0.00e+00	92	28	0	528482304	44	6305
2026-01-13 22:04:11.46	56.50	22.97	-36.2	-37.0	24.0	0.00e+00	0	28	0	535822336	44	6456
2026-01-13 22:04:15.50	55.45	23.18	-36.1	-37.0	24.0	0.00e+00	0	28	0	543162368	44	6403
2026-01-13 22:04:19.54	54.40	23.38	-35.6	-36.4	24.4	0.00e+00	41	28	0	551550976	44	6031
2026-01-13 22:04:23.57	53.33	23.57	-35.3	-36.1	23.7	0.00e+00	47	28	0	558891008	44	5795
2026-01-13 22:04:27.61	52.25	23.76	-35.5	-36.3	24.7	0.00e+00	0	27	0	566231040	44	5932
2026-01-13 22:04:31.65	51.15	23.93	-36.5	-37.3	23.8	0.00e+00	40	28	0	573571072	44	6683
2026-01-13 22:04:35.69	50.04	24.09	-37.4	-38.3	23.2	0.00e+00	78	27	0	581959680	46	6660
2026-01-13 22:04:39.73	48.92	24.24	-38.3	-39.3	22.4	0.00e+00	0	28	0	589299712	48	6631
2026-01-13 22:04:43.77	47.79	24.38	-37.6	-38.5	22.9	0.00e+00	0	28	0	596639744	48	6073
2026-01-13 22:04:47.81	46.65	24.51	-37.2	-38.1	23.2	0.00e+00	92	28	0	603979776	48	5825
2026-01-13 22:04:51.84	45.51	24.62	-37.4	-38.3	23.0	0.00e+00	87	28	0	611319808	48	5927
2026-01-13 22:04:55.88	44.35	24.73	-38.0	-38.9	22.7	0.00e+00	0	28	0	619708416	48	6374
2026-01-13 22:04:59.91	43.19	24.82	-38.3	-39.3	22.2	0.00e+00	0	28	0	627048448	48	6688
2026-01-13 22:05:03.95	42.02	24.90	-38.1	-39.1	22.5	0.00e+00	86	28	0	634388480	48	6483
2026-01-13 22:05:07.99	40.85	24.97	-37.7	-38.6	22.9	0.00e+00	0	28	0	641728512	48	6171
2026-01-13 22:05:12.03	39.67	25.02	-38.5	-39.6	22.2	0.00e+00	0	27	0	649068544	48	6863
2026-01-13 22:05:16.07	38.49	25.06	-37.7	-38.6	22.9	0.00e+00	17	28	0	657457152	48	6149
2026-01-13 22:05:20.11	37.30	25.08	-37.0	-37.9	23.3	0.00e+00	92	28	0	664797184	48	5667
2026-01-13 22:05:24.15	36.12	25.10	-38.5	-39.6	22.1	0.00e+00	0	28	0	672137216	48	6864
2026-01-13 22:05:28.19	34.93	25.10	-38.3	-39.3	22.2	0.00e+00	0	28	0	679477248	48	6686
2026-01-13 22:05:32.23	33.74	25.08	-37.0	-37.9	23.3	0.00e+00	92	27	0	687865856	48	5688
2026-01-13 22:05:36.27	32.56	25.06	-36.4	-37.2	23.8	0.00e+00	92	28	0	695205888	46	5887
2026-01-13 22:05:40.31	31.38	25.02	-36.2	-37.0	23.7	0.00e+00	0	28	0	702545920	46	5734
2026-01-13 22:05:44.35	30.20	24.96	-35.5	-36.2	24.6	0.00e+00	0	28	0	709885952	44	5893
2026-01-13 22:05:48.40	29.02	24.90	-35.2	-36.0	24.7	0.00e+00	92	28	0	718274560	44	5708
2026-01-13 22:05:52.44	27.85	24.82	-35.0	-35.7	25.0	0.00e+00	0	28	0	725614592	42	6216
2026-01-13 22:05:56.48	26.69	24.72	-35.6	-36.4	24.1	0.00e+00	0	27	0	732954624	42	6758
2026-01-13 22:06:00.52	25.54	24.62	-35.7	-36.5	24.3	0.00e+00	0	28	0	740294656	44	6050
2026-01-13 22:06:04.56	24.39	24.50	-36.1	-37.0	24.0	0.00e+00	90	27	0	747634688	44	6403
2026-01-13 22:06:08.59	23.26	24.38	-36.7	-37.6	23.5	0.00e+00	0	28	0	756023296	44	6895
2026-01-13 22:06:12.63	22.13	24.24	-36.5	-37.4	23.7	0.00e+00	0	28	0	763363328	46	5991
2026-01-13 22:06:16.67	21.01	24.08	-37.4	-38.3	23.0	0.00e+00	40	28	0	770703360	46	6683
2026-01-13 22:06:20.71	19.91	23.92	-38.1	-39.1	22.5	0.00e+00	0	28	0	778043392	48	6513
2026-01-13 22:06:24.75	18.81	23.75	-38.1	-39.1	22.3	0.00e+00	0	28	0	786432000	48	6535
2026-01-13 22:06:28.79	17.73	23.57	-38.2	-39.3	22.1	0.00e+00	0	27	0	793772032	50	5906
2026-01-13 22:06:32.83	16.66	23.38	-37.8	-38.8	22.7	0.00e+00	74	27	0	801112064	48	6281
2026-01-13 22:06:36.87	15.61	23.18	-38.5	-39.5	21.9	0.00e+00	0	27	0	808452096	48	6831
2026-01-13 22:06:40.91	14.57	22.97	-38.0	-39.0	22.4	0.00e+00	0	28	0	815792128	48	6460
2026-01-13 22:06:44.95	13.54	22.75	-37.8	-38.8	22.6	0.00e+00	17	28	0	824180736	48	6290
2026-01-13 22:06:48.99	12.53	22.52	-38.9	-40.1	21.4	0.00e+00	92	28	0	831520768	50	6497
2026-01-13 22:06:53.03	11.53	22.29	-37.9	-39.0	22.5	0.00e+00	0	28	0	838860800	48	6392
2026-01-13 22:06:57.07	10.55	22.05	-38.5	-39.7	21.6	0.00e+00	0	28	0	846200832	48	6937
2026-01-13 22:07:01.11	9.59	21.80	-38.2	-39.3	22.3	0.00e+00	79	28	0	853540864	50	5897
2026-01-13 22:07:05.15	8.64	21.55	-37.0	-38.0	23.3	0.00e+00	0	28	0	861929472	48	5723
2026-01-13 22:07:09.19	7.70	21.29	-37.5	-38.5	22.9	0.00e+00	0	27	0	869269504	48	6043
2026-01-13 22:07:13.24	6.78	21.03	-36.9	-37.8	23.3	0.00e+00	0	28	0	876609536	48	5614
2026-01-13 22:07:17.28	5.88	20.76	-35.8	-36.6	24.2	0.00e+00	40	27	0	883949568	46	5499
2026-01-13 22:07:21.32	4.99	20.49	-36.3	-37.2	23.7	0.00e+00	0	27	0	892338176	44	6586
2026-01-13 22:07:25.36	4.12	20.21	-37.1	-38.0	23.2	0.00e+00	0	27	0	899678208	46	6431
2026-01-13 22:07:29.40	3.27	19.93	-37.1	-38.1	23.1	0.00e+00	0	27	0	907018240	46	6509
2026-01-13 22:07:33.44	2.43	19.64	-36.9	-37.9	23.3	0.00e+00	71	27	0	914358272	46	6350
2026-01-13 22:07:37.48	1.60	19.36	-36.6	-37.5	23.5	0.00e+00	0	27	0	921698304	46	6044
2026-01-13 22:07:41.52	0.80	19.07	-37.3	-38.3	22.8	0.00e+00	0	28	0	930086912	46	6658
2026-01-13 22:07:45.56	0.00	18.77	-36.9	-37.8	23.4	0.00e+00	43	27	0	937426944	46	6281
2026-01-13 22:07:49.60	359.23	18.48	-37.0	-37.9	23.2	0.00e+00	0	27	0	944766976	46	6380
2026-01-13 22:07:53.64	358.47	18.18	-36.3	-37.1	23.8	0.00e+00	0	28	0	952107008	46	5811
2026-01-13 22:07:57.68	357.72	17.88	-36.0	-36.8	24.0	0.00e+00	0	27	0	960495616	46	5626
2026-01-13 22:08:01.71	356.99	17.59	-36.2	-37.1	23.8	0.00e+00	92	28	0	967835648	46	5763
2026-01-13 22:08:05.75	356.27	17.29	-36.7	-37.6	23.3	0.00e+00	0	28	0	975175680	46	6154
2026-01-13 22:08:09.79	355.57	16.98	-35.5	-36.4	24.4	0.00e+00	0	27	0	982515712	44	5965
2026-01-13 22:08:13.83	354.88	16.68	-36.0	-36.9	24.0	0.00e+00	0	27	0	989855744	44	6334
2026-01-13 22:08:17.87	354.21	16.38	-36.3	-37.2	23.7	0.00e+00	92	28	0	998244352	44	6583
2026-01-13 22:08:21.90	353.55	16.08	-36.0	-36.8	24.0	0.00e+00	0	27	0	1005584384	44	6291
2026-01-13 22:08:25.94	352.90	15.78	-35.7	-36.5	24.2	0.00e+00	0	27	0	1012924416	44	6052
2026-01-13 22:08:29.98	352.27	15.47	-37.1	-38.0	23.1	0.00e+00	26	28	0	1020264448	46	6460
2026-01-13 22:08:34.02	351.65	15.17	-36.8	-37.7	23.4	0.00e+00	72	28	0	1028653056	46	6195
2026-01-13 22:08:38.06	351.04	14.87	-36.5	-37.4	23.6	0.00e+00	0	28	0	1035993088	46	5965
2026-01-13 22:08:42.10	350.44	14.57	-36.7	-37.6	23.1	0.00e+00	0	28	0	1043333120	46	6120
2026-01-13 22:08:46.14	349.86	14.27	-37.5	-38.5	22.7	0.00e+00	33	27	0	1050673152	46	6803
2026-01-13 22:08:50.17	349.29	13.97	-38.1	-39.2	21.8	0.00e+00	0	27	0	1058013184	48	6600
2026-01-13 22:08:54.21	348.73	13.67	-37.1	-38.1	23.0	0.00e+00	0	28	0	1066401792	48	5786
2026-01-13 22:08:58.25	348.18	13.37	-36.5	-37.4	23.5	0.00e+00	0	28	0	1073741824	46	6004
2026-01-13 22:09:02.29	347.64	13.07	-37.1	-38.0	23.1	0.00e+00	92	27	0	1081081856	46	6414
2026-01-13 22:09:06.33	347.12	12.78	-37.2	-38.1	23.0	0.00e+00	0	27	0	1088421888	46	6518
2026-01-13 22:09:10.37	346.60	12.48	-37.4	-38.4	22.7	0.00e+00	0	27	0	1096810496	46	6720
2026-01-13 22:09:14.40	346.10	12.19	-37.7	-38.7	22.4	0.00e+00	32	27	0	1104150528	48	6240
2026-01-13 22:09:18.44	345.60	11.90	-38.0	-39.0	22.2	0.00e+00	39	28	0	1111490560	48	6451
2026-01-13 22:09:22.48	345.12	11.61	-38.5	-39.6	21.7	0.00e+00	0	27	0	1118830592	48	6887
2026-01-13 22:09:26.51	344.64	11.32	-38.5	-39.6	21.5	0.00e+00	0	28	0	1126170624	48	6927
2026-01-13 22:09:30.55	344.18	11.03	-38.1	-39.1	22.1	0.00e+00	26	27	0	1134559232	48	6516
2026-01-13 22:09:34.59	343.72	10.74	-38.3	-39.4	21.7	0.00e+00	0	27	0	1141899264	48	6735
2026-01-13 22:09:38.63	343.27	10.46	-38.5	-39.7	21.5	0.00e+00	0	27	0	1149239296	48	6942
2026-01-13 22:09:42.66	342.83	10.18	-38.8	-40.0	21.3	0.00e+00	0	28	0	1156579328	50	6399
2026-01-13 22:09:46.70	342.41	9.89	-38.5	-39.7	21.7	0.00e+00	91	27	0	1164967936	50	6185
2026-01-13 22:09:50.73	341.98	9.61	-38.1	-39.1	22.0	0.00e+00	0	27	0	1172307968	50	5812
2026-01-13 22:09:54.77	341.57	9.34	-38.3	-39.4	21.7	0.00e+00	0	27	0	1179648000	50	6027
2026-01-13 22:09:58.80	341.17	9.06	-39.0	-40.3	21.0	0.00e+00	0	27	0	1186988032	50	6639
2026-01-13 22:10:02.84	340.77	8.78	-39.5	-40.9	20.5	0.00e+00	92	27	0	1194328064	50	7098
2026-01-13 22:10:06.88	340.38	8.51	-40.0	-41.4	19.9	0.00e+00	0	28	0	1202716672	52	6696
2026-01-13 22:10:10.92	340.00	8.24	-39.8	-41.2	20.2	0.00e+00	0	27	0	1210056704	52	6543
2026-01-13 22:10:14.96	339.62	7.97	-39.5	-40.8	20.4	0.00e+00	29	28	0	1217396736	52	6276
2026-01-13 22:10:19.00	339.26	7.70	-39.6	-40.9	20.4	0.00e+00	48	27	0	1224736768	52	6329
2026-01-13 22:10:23.03	338.90	7.43	-40.2	-41.7	19.7	0.00e+00	0	27	0	1233125376	52	6943
2026-01-13 22:10:27.07	338.54	7.17	-40.5	-42.0	19.2	7.00e-07	0	27	0	1240465408	52	7217
2026-01-13 22:10:31.11	338.20	6.91	-40.4	-41.9	19.2	0.00e+00	87	27	0	1247805440	54	6345
2026-01-13 22:10:35.15	337.86	6.65	-40.1	-41.5	19.9	0.00e+00	0	27	0	1255145472	52	6824
2026-01-13 22:10:39.18	337.52	6.39	-39.2	-40.4	20.6	0.00e+00	0	28	0	1262485504	52	6009
2026-01-13 22:10:43.23	337.19	6.13	-38.7	-39.9	20.8	0.00e+00	0	27	0	1270874112	50	6366
2026-01-13 22:10:47.27	336.87	5.87	-39.4	-40.9	19.7	0.00e+00	91	27	0	1278214144	50	7093
2026-01-13 22:10:51.30	336.56	5.62	-40.7	-42.6	17.6	0.00e+00	0	27	0	1285554176	52	7728
2026-01-13 22:10:55.34	336.24	5.36	-42.5	-45.6	14.2	0.00e+00	0	28	0	1292894208	56	8628
2026-01-13 22:10:59.38	335.94	5.11	-43.4	-48.3	10.5	2.08e-03	0	28	0	1301282816	58	10504
2026-01-13 22:11:03.42	335.64	4.86	-43.7	-51.4	5.9	2.40e-01	81	27	0	1308622848	58	15143
2026-01-13 22:11:07.46	335.35	4.61	-43.7	-53.4	4.0	1.06e+00	56	28	0	1315962880	58	19010
2026-01-13 22:11:11.50	335.06	4.36	-43.4	-56.8	3.6	1.50e+00	0	28	104	1315962880	58	28110
2026-01-13 22:11:15.53	334.77	4.12	-43.3	-57.7	3.6	1.51e+00	0	27	104	1315962880	58	31158
2026-01-13 22:11:19.57	334.49	3.88	-43.2	-58.2	3.6	1.51e+00	0	27	104	1315962880	58	32816
2026-01-13 22:11:23.61	334.22	3.63	-43.3	-58.3	3.6	1.51e+00	0	28	104	1315962880	58	33460
2026-01-13 22:11:27.65	333.95	3.39	-43.3	-58.3	3.6	1.51e+00	0	28	104	1315962880	58	33507
2026-01-13 22:11:31.69	333.69	3.15	-43.3	-58.3	3.6	1.51e+00	0	28	104	1315962880	58	33524
2026-01-13 22:11:35.73	333.43	2.92	-47.5	-62.7	3.6	1.51e+00	0	28	104	1315962880	60	49091
2026-01-13 22:11:39.76	333.17	2.68	-48.4	-63.6	3.6	1.51e+00	0	28	104	1315962880	60	54614
2026-01-13 22:11:43.80	332.92	2.44	-48.5	-63.7	3.6	1.51e+00	0	28	104	1315962880	60	55549
2026-01-13 22:11:47.84	332.67	2.21	-48.3	-63.5	3.6	1.51e+00	0	28	104	1315962880	60	54216
2026-01-13 22:11:51.88	332.43	1.98	-48.5	-63.7	3.6	1.51e+00	0	28	104	1315962880	60	55103
2026-01-13 22:11:55.92	332.19	1.75	-48.5	-63.6	3.6	1.51e+00	0	28	104	1315962880	60	54633
2026-01-13 22:11:59.96	331.95	1.52	-48.4	-63.6	3.6	1.51e+00	0	28	104	1315962880	60	54611
2026-01-13 22:12:04.00	331.72	1.29	-48.4	-63.6	3.6	1.51e+00	0	28	104	1315962880	60	54679
2026-01-13 22:12:08.03	331.50	1.06	-48.4	-63.5	3.6	1.51e+00	0	28	104	1315962880	60	54381
2026-01-13 22:12:12.08	331.27	0.84	-48.4	-63.6	3.6	1.51e+00	0	28	104	1315962880	60	54751
2026-01-13 22:12:16.12	331.05	0.61	-48.4	-63.6	3.6	1.51e+00	0	28	104	1315962880	60	54641
2026-01-13 22:12:20.15	330.83	0.39	-48.4	-63.5	3.6	1.51e+00	0	28	104	1315962880	60	54286
2026-01-13 22:12:24.19	330.62	0.17	-48.4	-63.6	3.6	1.51e+00	0	28	104	1315962880	60	54770
2026-01-13 22:12:28.23	330.41	-0.05	-48.4	-63.6	3.6	1.51e+00	0	28	104	1315962880	60	54673

#Closed at: 2026-01-13 22:12:29
#Recorded file [1315 MB]: D:/lorett/data/35029_260114_095828.dat