passes_logs/2026/01/13/R4.6S_Anadyr/R4.6S_Anadyr__20260113_152210_SUOMI_NPP_rec.log

#Pass ID: 20260113_152210_SUOMI NPP
#Satellite: SUOMI NPP
#Configuration: NPP
#almurnet v.1.7.20251203
#Start time: 2026-01-13 15:22:12

#Version: 2.2.20231116
#Station: R4.6S_Anadyr
#Location: 177.4865 lon 64.73178 lat
#TLE: 1 37849U 11061A   26012.28456845  .00000093  00000+0  65163-4 0  9999
#TLE: 2 37849  98.7807 314.3566 0002508  68.3553 291.7890 14.19524725736322

#Time	Az	El	Level	Level2	SNR	BER	BlckErr	Temp	State	Recorded	gain1	gain2
2026-01-13 15:22:12.25	21.91	0.13	-48.4	-61.0	3.4	1.52e+00	0	24	0	0	60	39165
2026-01-13 15:22:16.28	21.86	0.37	-48.6	-63.8	3.6	1.51e+00	0	25	104	0	60	55878
2026-01-13 15:22:20.32	21.82	0.62	-48.6	-63.9	3.6	1.51e+00	0	26	104	0	60	56327
2026-01-13 15:22:24.36	21.77	0.86	-48.4	-63.6	3.6	1.51e+00	0	26	104	0	60	54667
2026-01-13 15:22:28.40	21.72	1.11	-47.9	-63.0	3.6	1.51e+00	0	26	104	0	60	51258
2026-01-13 15:22:32.44	21.67	1.36	-47.0	-62.2	3.5	1.51e+00	0	26	104	0	60	46467
2026-01-13 15:22:36.48	21.62	1.61	-47.0	-61.8	3.6	1.51e+00	0	26	104	0	60	44549
2026-01-13 15:22:40.52	21.56	1.87	-47.0	-61.8	3.6	1.51e+00	0	26	104	0	60	44485
2026-01-13 15:22:44.56	21.51	2.12	-47.0	-62.2	3.6	1.51e+00	0	26	104	0	60	46500
2026-01-13 15:22:48.59	21.45	2.38	-47.0	-61.9	3.6	1.51e+00	0	26	104	0	60	44874
2026-01-13 15:22:52.63	21.40	2.64	-46.9	-60.8	3.6	1.51e+00	0	26	104	0	60	39840
2026-01-13 15:22:56.67	21.34	2.90	-46.9	-61.0	3.6	1.51e+00	0	26	104	0	60	40651
2026-01-13 15:23:00.71	21.28	3.17	-46.4	-54.1	6.0	5.75e-01	56	26	0	2097152	60	18401
2026-01-13 15:23:04.75	21.22	3.44	-44.8	-48.8	12.1	3.31e-04	0	26	0	9437184	60	9968
2026-01-13 15:23:08.78	21.16	3.71	-44.3	-47.8	13.2	2.51e-05	0	26	0	16777216	60	8889
2026-01-13 15:23:12.82	21.09	3.98	-45.4	-50.5	7.8	4.79e-03	0	26	0	19922944	60	12139
2026-01-13 15:23:16.86	21.03	4.26	-39.8	-41.1	19.4	0.00e+00	92	27	104	19922944	52	6509
2026-01-13 15:23:20.90	20.96	4.54	-39.9	-41.3	19.7	0.00e+00	0	27	0	27262976	52	6617
2026-01-13 15:23:24.93	20.89	4.82	-39.9	-41.2	19.9	0.00e+00	0	26	0	34603008	52	6590
2026-01-13 15:23:28.96	20.82	5.11	-39.7	-41.1	20.0	0.00e+00	57	26	0	41943040	52	6498
2026-01-13 15:23:33.00	20.75	5.39	-39.5	-40.8	20.3	0.00e+00	92	26	0	49283072	52	6259
2026-01-13 15:23:37.03	20.67	5.68	-39.4	-40.7	20.4	0.00e+00	0	27	0	57671680	52	6216
2026-01-13 15:23:41.07	20.60	5.98	-39.8	-41.2	19.9	0.00e+00	0	27	0	65011712	52	6550
2026-01-13 15:23:45.11	20.52	6.28	-39.3	-40.5	20.7	0.00e+00	60	27	0	72351744	52	6100
2026-01-13 15:23:49.15	20.44	6.58	-39.3	-40.6	20.7	0.00e+00	0	27	0	79691776	52	6108
2026-01-13 15:23:53.18	20.36	6.88	-38.9	-40.1	21.0	0.00e+00	0	27	0	87031808	52	5818
2026-01-13 15:23:57.22	20.28	7.19	-38.9	-40.0	21.2	0.00e+00	0	27	0	95420416	52	5758
2026-01-13 15:24:01.26	20.19	7.50	-38.7	-39.9	21.3	0.00e+00	91	27	0	102760448	50	6335
2026-01-13 15:24:05.29	20.10	7.82	-38.7	-39.8	21.5	0.00e+00	0	27	0	110100480	50	6288
2026-01-13 15:24:09.33	20.01	8.14	-38.5	-39.6	21.5	0.00e+00	0	27	0	117440512	50	6142
2026-01-13 15:24:13.37	19.92	8.46	-38.3	-39.4	21.8	0.00e+00	49	27	0	125829120	50	6011
2026-01-13 15:24:17.40	19.82	8.79	-38.4	-39.5	21.7	0.00e+00	92	27	0	133169152	50	6078
2026-01-13 15:24:21.44	19.73	9.12	-38.1	-39.2	22.1	0.00e+00	0	27	0	140509184	50	5838
2026-01-13 15:24:25.48	19.63	9.46	-38.1	-39.1	22.1	0.00e+00	0	27	0	147849216	50	5819
2026-01-13 15:24:29.52	19.52	9.80	-37.7	-38.7	22.5	0.00e+00	61	27	0	155189248	48	6191
2026-01-13 15:24:33.55	19.42	10.14	-37.6	-38.6	22.5	0.00e+00	0	27	0	163577856	48	6134
2026-01-13 15:24:37.58	19.31	10.49	-37.2	-38.2	22.8	0.00e+00	0	27	0	170917888	48	5855
2026-01-13 15:24:41.62	19.20	10.85	-37.3	-38.2	22.9	0.00e+00	0	27	0	178257920	48	5876
2026-01-13 15:24:45.66	19.08	11.21	-37.1	-38.1	23.0	0.00e+00	61	26	0	185597952	48	5780
2026-01-13 15:24:49.70	18.96	11.57	-36.8	-37.7	23.2	0.00e+00	0	27	0	192937984	48	5531
2026-01-13 15:24:53.73	18.84	11.94	-36.8	-37.7	23.4	0.00e+00	0	27	0	201326592	46	6196
2026-01-13 15:24:57.77	18.71	12.32	-36.5	-37.4	23.6	0.00e+00	0	27	0	208666624	46	5984
2026-01-13 15:25:01.81	18.58	12.70	-36.5	-37.4	23.6	0.00e+00	89	27	0	216006656	46	5989
2026-01-13 15:25:05.85	18.45	13.09	-36.4	-37.2	23.6	0.00e+00	0	27	0	223346688	46	5871
2026-01-13 15:25:09.88	18.31	13.48	-36.4	-37.2	23.2	0.00e+00	0	27	0	231735296	46	5864
2026-01-13 15:25:13.92	18.17	13.88	-36.3	-37.1	23.6	0.00e+00	0	27	0	239075328	46	5803
2026-01-13 15:25:17.96	18.03	14.29	-36.4	-37.2	23.8	0.00e+00	92	27	0	246415360	46	5869
2026-01-13 15:25:21.98	17.88	14.70	-36.4	-37.3	23.7	0.00e+00	0	27	0	253755392	46	5919
2026-01-13 15:25:26.02	17.72	15.12	-36.5	-37.4	23.6	0.00e+00	0	27	0	261095424	46	6014
2026-01-13 15:25:30.06	17.56	15.55	-36.5	-37.4	23.6	0.00e+00	63	27	0	269484032	46	5995
2026-01-13 15:25:34.10	17.40	15.98	-36.6	-37.5	23.6	0.00e+00	0	27	0	276824064	46	6080
2026-01-13 15:25:38.13	17.23	16.43	-36.5	-37.4	23.7	0.00e+00	0	27	0	284164096	46	6013
2026-01-13 15:25:42.17	17.05	16.88	-36.6	-37.5	23.6	0.00e+00	0	27	0	291504128	46	6077
2026-01-13 15:25:46.21	16.87	17.34	-36.7	-37.6	23.5	0.00e+00	88	27	0	299892736	46	6142
2026-01-13 15:25:50.25	16.68	17.80	-36.5	-37.4	23.8	0.00e+00	0	27	0	307232768	46	6017
2026-01-13 15:25:54.29	16.49	18.28	-36.7	-37.6	23.6	0.00e+00	0	27	0	314572800	46	6137
2026-01-13 15:25:58.32	16.28	18.76	-36.5	-37.4	23.8	0.00e+00	0	27	0	321912832	46	5965
2026-01-13 15:26:02.36	16.08	19.26	-36.2	-37.0	24.1	0.00e+00	92	27	0	329252864	46	5755
2026-01-13 15:26:06.40	15.86	19.76	-36.2	-37.0	24.1	0.00e+00	0	27	0	337641472	46	5759
2026-01-13 15:26:10.44	15.64	20.28	-36.4	-37.2	24.0	0.00e+00	0	27	0	344981504	46	5887
2026-01-13 15:26:14.47	15.40	20.80	-36.2	-37.0	24.1	0.00e+00	65	27	0	352321536	46	5735
2026-01-13 15:26:18.50	15.16	21.33	-36.3	-37.2	24.0	0.00e+00	68	27	0	359661568	46	5841
2026-01-13 15:26:22.54	14.91	21.88	-36.6	-37.5	23.8	0.00e+00	0	27	0	368050176	46	6064
2026-01-13 15:26:26.57	14.66	22.43	-36.8	-37.7	23.5	0.00e+00	0	27	0	375390208	46	6229
2026-01-13 15:26:30.61	14.39	23.00	-36.7	-37.6	23.7	0.00e+00	64	27	0	382730240	46	6127
2026-01-13 15:26:34.65	14.11	23.58	-36.4	-37.3	23.9	0.00e+00	0	27	0	390070272	46	5939
2026-01-13 15:26:38.69	13.81	24.18	-36.9	-37.8	23.5	0.00e+00	0	27	0	397410304	46	6295
2026-01-13 15:26:42.72	13.51	24.78	-37.8	-38.8	22.9	0.00e+00	0	27	0	405798912	46	7058
2026-01-13 15:26:46.76	13.20	25.40	-37.8	-38.8	22.7	0.00e+00	59	27	0	413138944	48	6264
2026-01-13 15:26:50.79	12.87	26.03	-37.8	-38.8	22.8	0.00e+00	0	27	0	420478976	48	6300
2026-01-13 15:26:54.83	12.52	26.68	-37.8	-38.7	22.9	0.00e+00	0	27	0	427819008	48	6226
2026-01-13 15:26:58.87	12.16	27.34	-38.5	-39.5	22.3	0.00e+00	0	27	0	436207616	48	6834
2026-01-13 15:27:02.90	11.79	28.02	-38.1	-39.0	22.7	0.00e+00	90	27	0	443547648	48	6454
2026-01-13 15:27:06.94	11.40	28.71	-38.2	-39.2	22.6	0.00e+00	0	27	0	450887680	48	6559
2026-01-13 15:27:10.97	10.99	29.42	-38.4	-39.4	22.3	0.00e+00	0	27	0	458227712	48	6720
2026-01-13 15:27:15.01	10.56	30.14	-38.4	-39.4	22.4	0.00e+00	63	27	0	465567744	50	6010
2026-01-13 15:27:19.04	10.11	30.88	-38.7	-39.7	22.2	0.00e+00	0	27	0	473956352	50	6238
2026-01-13 15:27:23.08	9.64	31.64	-39.6	-40.8	21.1	0.00e+00	0	27	0	481296384	50	7053
2026-01-13 15:27:27.12	9.15	32.42	-41.4	-42.9	19.4	0.00e+00	0	27	0	488636416	54	7152
2026-01-13 15:27:31.16	8.63	33.21	-41.6	-43.3	18.9	0.00e+00	88	27	0	495976448	56	6633
2026-01-13 15:27:35.20	8.08	34.02	-43.5	-45.9	16.5	0.00e+00	0	27	0	503316480	58	7954
2026-01-13 15:27:39.23	7.50	34.85	-42.1	-44.0	18.2	0.00e+00	0	27	0	511705088	56	7190
2026-01-13 15:27:43.26	6.90	35.70	-41.9	-43.7	18.6	0.00e+00	0	27	0	519045120	56	6966
2026-01-13 15:27:47.30	6.26	36.57	-41.4	-43.0	19.3	0.00e+00	36	27	0	526385152	56	6445
2026-01-13 15:27:51.34	5.58	37.46	-39.9	-41.2	20.9	0.00e+00	0	27	0	533725184	52	6560
2026-01-13 15:27:55.38	4.86	38.37	-40.0	-41.3	20.9	0.00e+00	33	27	0	542113792	52	6670
2026-01-13 15:27:59.41	4.10	39.29	-39.2	-40.4	21.4	0.00e+00	0	27	0	549453824	52	5973
2026-01-13 15:28:03.45	3.30	40.24	-38.5	-39.6	22.3	0.00e+00	92	27	0	556793856	50	6125
2026-01-13 15:28:07.49	2.44	41.21	-38.3	-39.3	22.5	0.00e+00	0	27	0	564133888	50	5936
2026-01-13 15:28:11.52	1.53	42.19	-38.0	-38.9	22.7	0.00e+00	0	27	0	571473920	50	5680
2026-01-13 15:28:15.56	0.57	43.19	-38.1	-39.0	22.8	0.00e+00	13	27	0	579862528	48	6463
2026-01-13 15:28:19.60	359.54	44.21	-38.4	-39.4	22.4	0.00e+00	0	27	0	587202560	48	6719
2026-01-13 15:28:23.63	358.44	45.24	-38.2	-39.2	22.6	0.00e+00	0	27	0	594542592	50	5844
2026-01-13 15:28:27.66	357.26	46.29	-36.9	-37.8	23.7	0.00e+00	0	27	0	601882624	48	5568
2026-01-13 15:28:31.70	356.00	47.35	-38.2	-39.3	22.5	0.00e+00	92	27	0	609222656	48	6657
2026-01-13 15:28:35.74	354.65	48.43	-37.8	-38.8	22.8	0.00e+00	0	27	0	617611264	48	6280
2026-01-13 15:28:39.78	353.20	49.51	-36.4	-37.2	23.9	0.00e+00	0	27	0	624951296	46	5889
2026-01-13 15:28:43.81	351.65	50.59	-36.7	-37.6	23.7	0.00e+00	0	27	0	632291328	46	6159
2026-01-13 15:28:47.85	349.98	51.68	-36.3	-37.1	24.1	0.00e+00	66	27	0	639631360	46	5821
2026-01-13 15:28:51.88	348.18	52.76	-36.7	-37.6	23.8	0.00e+00	0	27	0	648019968	46	6170
2026-01-13 15:28:55.92	346.24	53.84	-37.7	-38.7	23.0	0.00e+00	0	27	0	655360000	46	6946
2026-01-13 15:28:59.96	344.15	54.90	-37.6	-38.6	22.9	0.00e+00	57	27	0	662700032	48	6123
2026-01-13 15:29:03.98	341.91	55.94	-37.4	-38.4	23.2	0.00e+00	0	27	0	670040064	48	6021
2026-01-13 15:29:08.02	339.48	56.95	-36.6	-37.5	23.9	0.00e+00	0	27	0	677380096	46	6059
2026-01-13 15:29:12.05	336.88	57.93	-38.1	-39.1	22.3	0.00e+00	0	27	0	685768704	48	6534
2026-01-13 15:29:16.10	334.07	58.87	-37.8	-38.8	22.7	0.00e+00	30	27	0	693108736	48	6299
2026-01-13 15:29:20.13	331.07	59.75	-36.8	-37.7	23.7	0.00e+00	0	27	0	700448768	48	5513
2026-01-13 15:29:24.16	327.87	60.56	-36.8	-37.7	23.6	0.00e+00	33	27	0	707788800	46	6240
2026-01-13 15:29:28.20	324.46	61.30	-35.3	-36.1	24.7	0.00e+00	0	27	0	715128832	44	5792
2026-01-13 15:29:32.24	320.85	61.96	-35.1	-36.0	24.9	0.00e+00	79	27	0	723517440	44	5724
2026-01-13 15:29:36.28	317.06	62.51	-35.4	-36.3	24.6	0.00e+00	0	27	0	730857472	42	6619
2026-01-13 15:29:40.31	313.11	62.96	-34.2	-35.0	25.5	0.00e+00	0	27	0	738197504	42	5719
2026-01-13 15:29:44.35	309.02	63.29	-36.8	-37.7	23.6	0.00e+00	0	27	0	745537536	46	6241
2026-01-13 15:29:48.38	304.85	63.50	-34.2	-34.9	25.6	0.00e+00	91	27	0	753926144	42	5692
2026-01-13 15:29:52.41	300.63	63.59	-33.5	-34.3	26.0	0.00e+00	33	27	0	761266176	40	5905
2026-01-13 15:29:56.45	296.38	63.54	-34.9	-35.7	24.9	0.00e+00	0	27	0	768606208	42	6219
2026-01-13 15:30:00.48	292.19	63.37	-35.3	-36.2	24.9	0.00e+00	0	27	0	775946240	42	6545
2026-01-13 15:30:04.52	288.07	63.07	-34.8	-35.6	25.2	0.00e+00	0	27	0	783286272	42	6106
2026-01-13 15:30:08.56	284.07	62.65	-36.4	-37.3	24.0	0.00e+00	0	27	0	791674880	44	6675
2026-01-13 15:30:12.59	280.24	62.13	-34.6	-35.3	25.3	0.00e+00	0	27	0	799014912	42	5936
2026-01-13 15:30:16.63	276.57	61.50	-34.8	-35.6	25.0	0.00e+00	63	27	0	806354944	42	6165
2026-01-13 15:30:20.67	273.10	60.78	-35.6	-36.5	24.7	0.00e+00	0	27	0	813694976	42	6777
2026-01-13 15:30:24.71	269.83	59.98	-36.0	-36.8	24.4	0.00e+00	0	27	0	822083584	44	6296
2026-01-13 15:30:28.74	266.77	59.12	-38.8	-40.0	21.8	0.00e+00	0	27	0	829423616	50	6420
2026-01-13 15:30:32.78	263.90	58.20	-39.6	-40.9	21.1	0.00e+00	85	27	0	836763648	52	6376
2026-01-13 15:30:36.81	261.24	57.23	-39.7	-41.2	21.0	0.00e+00	0	27	0	844103680	52	6551
2026-01-13 15:30:40.85	258.76	56.22	-36.8	-37.7	23.7	0.00e+00	0	27	0	851443712	46	6240
2026-01-13 15:30:44.89	256.46	55.18	-36.4	-37.3	23.8	0.00e+00	62	27	0	859832320	44	6653
2026-01-13 15:30:48.93	254.32	54.12	-38.5	-39.7	22.2	0.00e+00	29	27	0	867172352	50	6221
2026-01-13 15:30:52.96	252.34	53.05	-37.6	-38.7	23.0	0.00e+00	0	27	0	874512384	48	6195
2026-01-13 15:30:57.00	250.50	51.96	-37.9	-38.9	22.4	0.00e+00	0	27	0	881852416	50	5657
2026-01-13 15:31:01.04	248.79	50.87	-36.8	-37.7	23.9	0.00e+00	63	27	0	890241024	46	6179
2026-01-13 15:31:05.08	247.20	49.78	-37.6	-38.6	23.2	0.00e+00	0	27	0	897581056	48	6104
2026-01-13 15:31:09.11	245.72	48.70	-38.4	-39.4	22.4	0.00e+00	0	27	0	904921088	48	6743
2026-01-13 15:31:13.15	244.34	47.62	-39.2	-40.3	22.0	0.00e+00	0	27	0	912261120	52	5911
2026-01-13 15:31:17.19	243.06	46.55	-39.4	-40.5	21.5	0.00e+00	92	27	0	919601152	52	6073
2026-01-13 15:31:21.22	241.86	45.50	-38.3	-39.3	22.6	0.00e+00	0	27	0	927989760	50	5907
2026-01-13 15:31:25.26	240.73	44.46	-39.3	-40.4	21.4	0.00e+00	0	27	0	935329792	50	6737
2026-01-13 15:31:29.30	239.68	43.43	-39.0	-40.2	21.8	0.00e+00	0	27	0	942669824	52	5846
2026-01-13 15:31:33.33	238.70	42.42	-39.1	-40.3	21.8	0.00e+00	92	27	0	950009856	50	6632
2026-01-13 15:31:37.37	237.77	41.43	-41.3	-42.8	19.6	0.00e+00	0	27	0	958398464	54	7048
2026-01-13 15:31:41.41	236.90	40.46	-41.6	-43.2	19.4	0.00e+00	0	27	0	965738496	54	7375
2026-01-13 15:31:45.44	236.08	39.50	-44.8	-48.1	14.3	0.00e+00	61	27	0	973078528	60	9206
2026-01-13 15:31:49.48	235.31	38.57	-42.1	-43.9	18.5	0.00e+00	0	27	0	980418560	58	6344
2026-01-13 15:31:53.51	234.58	37.65	-43.6	-45.8	17.0	0.00e+00	0	27	0	987758592	60	7075
2026-01-13 15:31:57.55	233.89	36.76	-41.3	-42.8	19.6	0.00e+00	0	27	0	996147200	56	6254
2026-01-13 15:32:01.58	233.24	35.88	-41.5	-43.2	19.2	0.00e+00	59	27	0	1003487232	56	6545
2026-01-13 15:32:05.62	232.62	35.02	-42.0	-43.9	18.4	0.00e+00	0	27	0	1010827264	56	7143
2026-01-13 15:32:09.66	232.03	34.18	-41.0	-42.5	19.6	0.00e+00	0	27	0	1018167296	56	6070
2026-01-13 15:32:13.70	231.47	33.36	-40.8	-42.4	20.0	0.00e+00	0	27	0	1025507328	56	5989
2026-01-13 15:32:17.73	230.94	32.56	-39.9	-41.2	21.0	0.00e+00	92	27	0	1033895936	52	6578
2026-01-13 15:32:21.77	230.44	31.78	-39.7	-40.9	21.2	0.00e+00	0	27	0	1041235968	52	6346
2026-01-13 15:32:25.80	229.96	31.02	-41.0	-42.5	19.9	0.00e+00	0	27	0	1048576000	54	6782
2026-01-13 15:32:29.84	229.50	30.27	-38.6	-39.7	22.2	0.00e+00	17	27	0	1055916032	50	6195
2026-01-13 15:32:33.88	229.07	29.54	-38.0	-38.9	22.8	0.00e+00	91	27	0	1064304640	48	6385
2026-01-13 15:32:37.91	228.65	28.82	-38.3	-39.4	22.5	0.00e+00	0	27	0	1071644672	48	6696
2026-01-13 15:32:41.95	228.25	28.13	-39.3	-40.4	21.6	0.00e+00	0	27	0	1078984704	50	6721
2026-01-13 15:32:45.98	227.87	27.44	-41.3	-42.8	19.2	0.00e+00	61	27	0	1086324736	54	7018
2026-01-13 15:32:50.02	227.51	26.78	-39.9	-41.2	20.8	0.00e+00	0	27	0	1093664768	54	5834
2026-01-13 15:32:54.06	227.16	26.12	-38.7	-39.7	22.1	0.00e+00	0	27	0	1102053376	50	6223
2026-01-13 15:32:58.09	226.83	25.49	-38.2	-39.1	22.7	0.00e+00	0	27	0	1109393408	50	5815
2026-01-13 15:33:02.13	226.50	24.86	-38.7	-39.8	22.1	0.00e+00	59	27	0	1116733440	50	6275
2026-01-13 15:33:06.17	226.20	24.25	-39.1	-40.2	21.7	0.00e+00	0	27	0	1124073472	50	6594
2026-01-13 15:33:10.20	225.90	23.65	-37.7	-38.7	23.0	0.00e+00	0	27	0	1131413504	48	6236
2026-01-13 15:33:14.24	225.61	23.07	-38.7	-39.8	22.1	0.00e+00	0	27	0	1139802112	48	7067
2026-01-13 15:33:18.28	225.34	22.49	-41.0	-42.7	19.4	0.00e+00	36	27	0	1147142144	54	6935
2026-01-13 15:33:22.32	225.08	21.93	-40.5	-42.0	20.3	0.00e+00	0	27	0	1154482176	54	6408
2026-01-13 15:33:26.36	224.82	21.38	-38.2	-39.3	22.5	0.00e+00	0	27	0	1161822208	50	5914
2026-01-13 15:33:30.39	224.58	20.84	-37.7	-38.7	23.2	0.00e+00	57	27	0	1170210816	48	6197
2026-01-13 15:33:34.43	224.34	20.32	-37.6	-38.6	22.8	0.00e+00	73	27	0	1177550848	48	6164
2026-01-13 15:33:38.47	224.11	19.80	-37.2	-38.1	23.3	0.00e+00	0	27	0	1184890880	48	5800
2026-01-13 15:33:42.51	223.89	19.29	-37.0	-37.9	23.5	0.00e+00	0	27	0	1192230912	48	5647
2026-01-13 15:33:46.55	223.68	18.79	-37.1	-38.1	23.4	0.00e+00	60	27	0	1199570944	48	5771
2026-01-13 15:33:50.59	223.47	18.30	-37.7	-38.6	22.9	0.00e+00	0	27	0	1207959552	48	6159
2026-01-13 15:33:54.63	223.27	17.83	-38.1	-39.1	22.6	0.00e+00	0	27	0	1215299584	48	6515
2026-01-13 15:33:58.66	223.08	17.36	-38.6	-39.7	22.1	0.00e+00	0	27	0	1222639616	48	6977
2026-01-13 15:34:02.70	222.90	16.89	-39.4	-40.6	21.3	0.00e+00	92	27	0	1229979648	50	6917
2026-01-13 15:34:06.73	222.72	16.44	-40.1	-41.3	20.6	0.00e+00	0	27	0	1238368256	52	6686
2026-01-13 15:34:10.77	222.54	15.99	-39.5	-40.6	21.2	0.00e+00	0	27	0	1245708288	52	6158
2026-01-13 15:34:14.81	222.37	15.56	-38.6	-39.6	22.0	0.00e+00	41	27	0	1253048320	50	6162
2026-01-13 15:34:18.85	222.21	15.13	-37.9	-38.8	22.7	0.00e+00	92	27	0	1260388352	50	5622
2026-01-13 15:34:22.88	222.05	14.70	-37.5	-38.5	23.0	0.00e+00	0	27	0	1267728384	48	6042
2026-01-13 15:34:26.92	221.90	14.29	-37.8	-38.8	22.6	0.00e+00	0	27	0	1276116992	48	6287
2026-01-13 15:34:30.96	221.75	13.88	-38.4	-39.4	21.9	0.00e+00	52	27	0	1283457024	48	6754
2026-01-13 15:34:34.99	221.60	13.48	-39.2	-40.3	21.4	0.00e+00	0	27	0	1290797056	50	6692
2026-01-13 15:34:39.03	221.46	13.08	-39.5	-40.7	21.1	0.00e+00	0	27	0	1298137088	50	6959
2026-01-13 15:34:43.06	221.33	12.69	-39.3	-40.4	21.3	0.00e+00	0	27	0	1306525696	50	6765
2026-01-13 15:34:47.09	221.19	12.31	-39.1	-40.2	21.5	0.00e+00	70	27	0	1313865728	50	6585
2026-01-13 15:34:51.13	221.06	11.93	-38.8	-39.9	21.7	0.00e+00	0	27	0	1321205760	50	6362
2026-01-13 15:34:55.16	220.94	11.55	-38.9	-40.1	21.6	0.00e+00	0	27	0	1328545792	50	6471
2026-01-13 15:34:59.20	220.82	11.19	-39.0	-40.1	21.5	0.00e+00	0	27	0	1335885824	50	6498
2026-01-13 15:35:03.24	220.70	10.82	-39.1	-40.3	21.3	0.00e+00	92	27	0	1344274432	50	6650
2026-01-13 15:35:07.27	220.58	10.47	-39.4	-40.6	21.0	0.00e+00	0	27	0	1351614464	50	6912
2026-01-13 15:35:11.31	220.47	10.12	-39.6	-40.8	21.0	0.00e+00	0	27	0	1358954496	52	6273
2026-01-13 15:35:15.35	220.36	9.77	-40.0	-41.3	20.5	0.00e+00	28	27	0	1366294528	52	6632
2026-01-13 15:35:19.38	220.25	9.43	-40.1	-41.4	20.3	0.00e+00	92	27	0	1373634560	52	6725
2026-01-13 15:35:23.42	220.15	9.09	-40.4	-41.8	20.0	0.00e+00	0	27	0	1382023168	52	7021
2026-01-13 15:35:27.46	220.05	8.75	-40.4	-41.7	19.9	0.00e+00	0	27	0	1389363200	52	6999
2026-01-13 15:35:31.49	219.95	8.43	-40.5	-41.9	19.8	0.00e+00	15	27	0	1396703232	52	7110
2026-01-13 15:35:35.53	219.85	8.10	-40.3	-41.6	20.0	0.00e+00	0	27	0	1404043264	52	6915
2026-01-13 15:35:39.56	219.76	7.78	-40.6	-42.0	19.8	0.00e+00	0	27	0	1412431872	52	7244
2026-01-13 15:35:43.60	219.66	7.46	-40.4	-41.7	19.9	0.00e+00	0	27	0	1419771904	52	7000
2026-01-13 15:35:47.64	219.57	7.15	-40.5	-41.9	19.8	0.00e+00	83	27	0	1427111936	54	6343
2026-01-13 15:35:51.62	219.49	6.84	-40.8	-42.2	19.4	0.00e+00	0	27	0	1434451968	54	6608
2026-01-13 15:35:55.65	219.40	6.54	-40.8	-42.2	19.3	0.00e+00	0	27	0	1442840576	54	6602
2026-01-13 15:35:59.69	219.32	6.24	-41.2	-42.8	18.8	0.00e+00	9	27	0	1450180608	54	7020
2026-01-13 15:36:03.73	219.24	5.94	-41.0	-42.5	18.9	0.00e+00	0	27	0	1457520640	54	6834
2026-01-13 15:36:07.77	219.16	5.64	-41.1	-42.7	18.6	0.00e+00	0	27	0	1464860672	54	6982
2026-01-13 15:36:11.81	219.08	5.35	-41.2	-42.8	18.5	0.00e+00	0	27	0	1473249280	54	7083
2026-01-13 15:36:15.85	219.00	5.06	-41.1	-42.8	18.7	0.00e+00	48	27	0	1480589312	54	7015
2026-01-13 15:36:19.88	218.93	4.77	-41.2	-42.9	18.5	0.00e+00	0	27	0	1487929344	54	7106
2026-01-13 15:36:23.91	218.86	4.49	-41.0	-42.7	18.6	0.00e+00	0	27	0	1495269376	54	6972
2026-01-13 15:36:27.95	218.79	4.21	-41.0	-42.7	18.5	0.00e+00	0	27	0	1502609408	54	6943
2026-01-13 15:36:31.99	218.72	3.93	-40.9	-42.5	18.5	0.00e+00	92	27	0	1510998016	54	6844
2026-01-13 15:36:36.03	218.65	3.66	-41.3	-43.1	18.0	0.00e+00	0	27	0	1518338048	54	7294
2026-01-13 15:36:40.07	218.58	3.39	-41.7	-43.7	17.2	0.00e+00	0	27	0	1525678080	54	7791
2026-01-13 15:36:44.10	218.52	3.12	-41.5	-43.4	17.7	0.00e+00	16	27	0	1533018112	56	6716
2026-01-13 15:36:48.14	218.45	2.85	-48.2	-63.4	3.6	1.51e+00	0	27	104	1536163840	60	53760
2026-01-13 15:36:52.18	218.39	2.58	-48.6	-63.8	3.6	1.51e+00	0	27	104	1536163840	60	55951
2026-01-13 15:36:56.22	218.33	2.32	-47.7	-63.7	3.6	1.51e+00	0	27	104	1536163840	60	55200
2026-01-13 15:37:00.26	218.27	2.06	-48.4	-63.6	3.6	1.51e+00	0	27	104	1536163840	60	54768
2026-01-13 15:37:04.29	218.21	1.81	-48.4	-63.7	3.6	1.51e+00	0	27	104	1536163840	60	55133
2026-01-13 15:37:08.33	218.16	1.55	-48.5	-63.6	3.6	1.51e+00	0	27	104	1536163840	60	55008
2026-01-13 15:37:12.37	218.10	1.30	-48.5	-63.6	3.6	1.51e+00	0	27	104	1536163840	60	54851
2026-01-13 15:37:16.41	218.05	1.05	-48.4	-63.6	3.6	1.51e+00	0	27	104	1536163840	60	54621
2026-01-13 15:37:20.45	217.99	0.80	-48.4	-63.6	3.6	1.51e+00	0	27	104	1536163840	60	54418
2026-01-13 15:37:24.49	217.94	0.55	-48.4	-63.6	3.6	1.51e+00	0	27	104	1536163840	60	54856
2026-01-13 15:37:28.53	217.89	0.31	-48.4	-63.6	3.6	1.51e+00	0	27	104	1536163840	60	54859
2026-01-13 15:37:32.57	217.84	0.06	-48.4	-63.6	3.6	1.51e+00	0	27	104	1536163840	60	54892

#Closed at: 2026-01-13 15:37:33
#Recorded file [1536 MB]: D:/lorett/data/35029_260114_032212.dat