passes_logs/2026/01/13/R4.6S_Anadyr/R4.6S_Anadyr__20260113_032019_SUOMI_NPP_rec.log

#Pass ID: 20260113_032019_SUOMI NPP
#Satellite: SUOMI NPP
#Configuration: NPP
#almurnet v.1.7.20251203
#Start time: 2026-01-13 03:20:20

#Version: 2.2.20231116
#Station: R4.6S_Anadyr
#Location: 177.4865 lon 64.73178 lat
#TLE: 1 37849U 11061A   26012.28456845  .00000093  00000+0  65163-4 0  9999
#TLE: 2 37849  98.7807 314.3566 0002508  68.3553 291.7890 14.19524725736322

#Time	Az	El	Level	Level2	SNR	BER	BlckErr	Temp	State	Recorded	gain1	gain2
2026-01-13 03:20:20.95	238.58	0.07	-48.6	-60.3	3.5	8.46e-01	0	25	0	0	60	37205
2026-01-13 03:20:23.97	238.86	0.20	-48.8	-64.1	3.6	1.51e+00	0	26	104	0	60	58064
2026-01-13 03:20:27.00	239.14	0.32	-48.9	-64.1	3.6	1.51e+00	0	26	104	0	60	57933
2026-01-13 03:20:30.03	239.42	0.45	-48.7	-64.3	3.6	1.51e+00	0	26	104	0	60	58972
2026-01-13 03:20:33.06	239.71	0.58	-49.0	-64.3	3.6	1.51e+00	0	26	104	0	60	59118
2026-01-13 03:20:36.09	240.00	0.71	-48.8	-64.0	3.6	1.51e+00	0	26	104	0	60	57237
2026-01-13 03:20:39.12	240.29	0.84	-47.2	-62.3	3.6	1.51e+00	0	26	104	0	60	47101
2026-01-13 03:20:42.15	240.58	0.96	-47.1	-62.2	3.6	1.51e+00	0	26	104	0	60	46633
2026-01-13 03:20:45.17	240.88	1.09	-47.1	-62.2	3.6	1.51e+00	0	26	104	0	60	46668
2026-01-13 03:20:48.20	241.18	1.22	-47.1	-62.2	3.6	1.51e+00	0	26	104	0	60	46635
2026-01-13 03:20:51.23	241.48	1.35	-47.1	-62.2	3.6	1.51e+00	0	26	104	0	60	46534
2026-01-13 03:20:54.26	241.78	1.47	-47.1	-62.2	3.6	1.51e+00	0	26	104	0	60	46651
2026-01-13 03:20:57.29	242.09	1.60	-47.1	-62.1	3.6	1.51e+00	0	26	104	0	60	46234
2026-01-13 03:21:00.31	242.39	1.73	-47.1	-62.2	3.6	1.51e+00	0	26	104	0	60	46472
2026-01-13 03:21:03.34	242.70	1.85	-47.1	-62.1	3.6	1.51e+00	0	26	104	0	60	45891
2026-01-13 03:21:06.37	243.02	1.98	-47.1	-62.1	3.6	1.51e+00	0	26	104	0	60	45905
2026-01-13 03:21:09.40	243.33	2.11	-47.0	-61.8	3.6	1.51e+00	0	26	104	0	60	44493
2026-01-13 03:21:12.43	243.65	2.24	-47.0	-61.8	3.6	1.51e+00	0	26	104	0	60	44286
2026-01-13 03:21:15.45	243.97	2.36	-47.0	-60.8	3.6	1.51e+00	0	26	104	0	60	39729
2026-01-13 03:21:18.48	244.29	2.49	-47.0	-60.2	3.6	1.51e+00	0	26	104	0	60	36862
2026-01-13 03:21:21.51	244.62	2.62	-47.0	-61.2	3.6	1.51e+00	0	26	104	0	60	41314
2026-01-13 03:21:24.54	244.95	2.74	-46.7	-55.3	4.9	8.16e-01	92	26	0	1048576	60	20976
2026-01-13 03:21:27.56	245.28	2.87	-46.0	-52.0	8.5	3.02e-02	90	27	0	7340032	60	14359
2026-01-13 03:21:30.59	245.62	2.99	-45.8	-51.6	9.1	2.14e-02	0	27	0	12582912	60	13713
2026-01-13 03:21:33.62	245.95	3.12	-46.2	-53.3	5.8	1.51e+00	0	27	104	16777216	60	16675
2026-01-13 03:21:36.65	246.29	3.24	-44.3	-47.6	14.3	8.02e-04	90	27	0	19922944	60	8631
2026-01-13 03:21:39.67	246.63	3.37	-42.9	-45.3	16.2	0.00e+00	45	26	0	25165824	60	6628
2026-01-13 03:21:42.70	246.98	3.49	-42.3	-44.3	17.1	0.00e+00	24	27	0	31457280	58	6680
2026-01-13 03:21:45.73	247.33	3.62	-41.7	-43.5	18.0	0.00e+00	92	27	0	36700160	58	6075
2026-01-13 03:21:48.76	247.68	3.74	-41.5	-43.2	18.4	0.00e+00	92	26	0	42991616	56	6548
2026-01-13 03:21:51.78	248.03	3.87	-41.4	-43.0	18.5	0.00e+00	0	27	0	48234496	56	6460
2026-01-13 03:21:54.81	248.39	3.99	-41.2	-42.8	18.9	0.00e+00	92	27	0	54525952	56	6255
2026-01-13 03:21:57.84	248.75	4.11	-40.7	-42.1	19.4	0.00e+00	90	26	0	59768832	54	6503
2026-01-13 03:22:00.86	249.11	4.24	-40.5	-42.0	19.5	0.00e+00	0	27	0	65011712	54	6392
2026-01-13 03:22:03.89	249.48	4.36	-40.6	-42.0	19.6	0.00e+00	92	27	0	71303168	54	6401
2026-01-13 03:22:06.92	249.85	4.48	-40.2	-41.5	20.1	0.00e+00	92	27	0	76546048	54	6102
2026-01-13 03:22:09.94	250.22	4.60	-40.5	-41.9	19.8	0.00e+00	92	27	0	82837504	54	6336
2026-01-13 03:22:12.97	250.59	4.72	-40.0	-41.3	20.3	0.00e+00	0	27	0	88080384	54	5962
2026-01-13 03:22:16.00	250.97	4.84	-39.8	-41.0	20.5	0.00e+00	92	27	0	93323264	54	5732
2026-01-13 03:22:19.03	251.35	4.97	-39.7	-41.0	20.6	0.00e+00	90	27	0	99614720	52	6392
2026-01-13 03:22:22.05	251.73	5.08	-40.3	-41.6	20.1	0.00e+00	0	27	0	104857600	52	6886
2026-01-13 03:22:25.08	252.12	5.20	-40.2	-41.5	20.2	0.00e+00	90	27	0	111149056	52	6833
2026-01-13 03:22:28.11	252.51	5.32	-40.6	-42.0	19.7	0.00e+00	92	27	0	116391936	52	7249
2026-01-13 03:22:31.14	252.90	5.44	-40.1	-41.4	20.4	0.00e+00	0	27	0	121634816	52	6724
2026-01-13 03:22:34.17	253.30	5.56	-39.9	-41.1	20.5	0.00e+00	0	27	0	127926272	52	6504
2026-01-13 03:22:37.19	253.70	5.68	-40.1	-41.4	20.4	0.00e+00	92	27	0	133169152	52	6711
2026-01-13 03:22:40.22	254.10	5.79	-40.1	-41.3	20.4	0.00e+00	92	27	0	139460608	52	6669
2026-01-13 03:22:43.25	254.50	5.91	-40.2	-41.5	20.3	0.00e+00	0	27	0	144703488	52	6800
2026-01-13 03:22:46.28	254.91	6.02	-39.8	-41.0	20.7	0.00e+00	92	27	0	150994944	52	6457
2026-01-13 03:22:49.31	255.32	6.14	-39.8	-41.0	20.7	0.00e+00	92	27	0	156237824	52	6455
2026-01-13 03:22:52.34	255.74	6.25	-39.8	-41.0	20.7	0.00e+00	0	27	0	161480704	52	6406
2026-01-13 03:22:55.37	256.15	6.36	-40.0	-41.3	20.6	0.00e+00	0	27	0	167772160	52	6616
2026-01-13 03:22:58.40	256.57	6.48	-40.0	-41.3	20.6	0.00e+00	62	27	0	173015040	52	6621
2026-01-13 03:23:01.43	257.00	6.59	-40.0	-41.3	20.6	0.00e+00	0	27	0	179306496	52	6635
2026-01-13 03:23:04.45	257.42	6.70	-40.4	-41.7	20.1	0.00e+00	0	27	0	184549376	52	6966
2026-01-13 03:23:07.48	257.85	6.81	-40.3	-41.6	20.2	0.00e+00	92	27	0	189792256	52	6910
2026-01-13 03:23:10.50	258.29	6.92	-40.3	-41.5	20.3	0.00e+00	91	27	0	196083712	52	6848
2026-01-13 03:23:13.53	258.72	7.02	-40.1	-41.3	20.5	0.00e+00	0	27	0	201326592	52	6662
2026-01-13 03:23:16.56	259.16	7.13	-40.3	-41.7	20.2	0.00e+00	92	27	0	207618048	52	6932
2026-01-13 03:23:19.59	259.60	7.24	-40.6	-42.0	20.0	0.00e+00	90	27	0	212860928	52	7172
2026-01-13 03:23:22.62	260.05	7.34	-40.6	-42.0	20.0	0.00e+00	0	27	0	219152384	54	6420
2026-01-13 03:23:25.65	260.50	7.44	-40.4	-41.7	20.3	0.00e+00	11	27	0	224395264	54	6199
2026-01-13 03:23:28.67	260.95	7.55	-40.2	-41.5	20.4	0.00e+00	92	27	0	229638144	54	6071
2026-01-13 03:23:31.70	261.40	7.65	-40.0	-41.2	20.6	0.00e+00	24	27	0	235929600	54	5884
2026-01-13 03:23:34.73	261.86	7.75	-40.4	-41.8	20.1	0.00e+00	0	27	0	241172480	54	6252
2026-01-13 03:23:37.76	262.32	7.85	-40.4	-41.8	20.1	0.00e+00	81	27	0	247463936	54	6252
2026-01-13 03:23:40.78	262.78	7.95	-40.7	-42.1	19.9	0.00e+00	92	27	0	252706816	54	6465
2026-01-13 03:23:43.81	263.25	8.04	-41.0	-42.4	19.7	0.00e+00	0	27	0	257949696	54	6706
2026-01-13 03:23:46.84	263.72	8.14	-40.9	-42.3	19.7	0.00e+00	92	27	0	264241152	54	6634
2026-01-13 03:23:49.87	264.19	8.23	-40.9	-42.3	19.8	0.00e+00	30	27	0	269484032	54	6664
2026-01-13 03:23:52.90	264.67	8.33	-42.2	-44.0	19.2	2.20e-06	0	27	0	275775488	56	7191
2026-01-13 03:23:55.93	265.14	8.42	-40.2	-41.5	20.5	0.00e+00	0	27	0	281018368	54	6034
2026-01-13 03:23:58.95	265.62	8.51	-40.2	-41.5	20.4	0.00e+00	92	27	0	286261248	54	6059
2026-01-13 03:24:01.98	266.11	8.60	-40.1	-41.3	20.6	0.00e+00	6	27	0	292552704	54	5947
2026-01-13 03:24:05.00	266.59	8.68	-40.5	-41.8	20.3	0.00e+00	0	27	0	297795584	54	6268
2026-01-13 03:24:08.04	267.08	8.77	-40.8	-42.2	19.9	0.00e+00	92	27	0	304087040	54	6563
2026-01-13 03:24:11.06	267.58	8.85	-40.0	-41.3	20.7	0.00e+00	90	27	0	309329920	54	5903
2026-01-13 03:24:14.09	268.07	8.94	-39.8	-41.0	21.0	0.00e+00	0	27	0	315621376	52	6407
2026-01-13 03:24:17.12	268.57	9.02	-40.3	-41.6	20.3	0.00e+00	61	27	0	320864256	52	6850
2026-01-13 03:24:20.15	269.07	9.10	-40.8	-42.2	19.8	0.00e+00	23	27	0	326107136	54	6541
2026-01-13 03:24:23.18	269.57	9.17	-40.7	-42.0	20.1	0.00e+00	0	27	0	332398592	54	6428
2026-01-13 03:24:26.21	270.08	9.25	-40.5	-41.7	20.3	0.00e+00	0	27	0	337641472	54	6233
2026-01-13 03:24:29.23	270.58	9.32	-40.3	-41.6	20.4	0.00e+00	92	27	0	343932928	54	6141
2026-01-13 03:24:32.26	271.09	9.40	-40.2	-41.4	20.6	0.00e+00	92	27	0	349175808	54	6029
2026-01-13 03:24:35.29	271.61	9.47	-39.6	-40.8	21.2	0.00e+00	8	27	0	354418688	52	6274
2026-01-13 03:24:38.31	272.12	9.54	-40.1	-41.3	20.6	0.00e+00	92	27	0	360710144	52	6688
2026-01-13 03:24:41.34	272.64	9.60	-40.9	-42.3	19.8	0.00e+00	92	27	0	365953024	54	6632
2026-01-13 03:24:44.37	273.16	9.67	-41.3	-42.7	19.3	0.00e+00	0	27	0	372244480	54	6973
2026-01-13 03:24:47.40	273.68	9.73	-40.8	-42.2	20.0	0.00e+00	91	27	0	377487360	54	6542
2026-01-13 03:24:50.42	274.20	9.79	-40.3	-41.5	20.5	0.00e+00	34	27	0	383778816	54	6086
2026-01-13 03:24:53.45	274.73	9.85	-40.4	-41.6	20.4	0.00e+00	0	27	0	389021696	54	6167
2026-01-13 03:24:56.48	275.26	9.91	-40.4	-41.7	20.3	0.00e+00	0	27	0	394264576	54	6228
2026-01-13 03:24:59.51	275.79	9.97	-39.7	-40.9	21.1	0.00e+00	92	27	0	400556032	52	6354
2026-01-13 03:25:02.54	276.32	10.02	-39.9	-41.1	20.9	0.00e+00	90	27	0	405798912	52	6506
2026-01-13 03:25:05.57	276.85	10.07	-40.6	-41.9	20.4	0.00e+00	10	27	0	412090368	52	7093
2026-01-13 03:25:08.59	277.39	10.12	-40.1	-41.4	20.6	0.00e+00	92	27	0	417333248	52	6705
2026-01-13 03:25:11.62	277.93	10.17	-39.7	-40.8	21.1	0.00e+00	91	27	0	422576128	52	6288
2026-01-13 03:25:14.65	278.47	10.21	-40.6	-41.9	20.2	0.00e+00	0	27	0	428867584	52	7101
2026-01-13 03:25:17.68	279.01	10.26	-40.3	-41.6	20.5	0.00e+00	76	27	0	434110464	54	6131
2026-01-13 03:25:20.71	279.55	10.30	-39.6	-40.8	21.3	0.00e+00	53	27	0	440401920	52	6257
2026-01-13 03:25:23.74	280.09	10.34	-40.0	-41.2	20.9	0.00e+00	0	27	0	445644800	52	6547
2026-01-13 03:25:26.76	280.63	10.37	-40.4	-41.6	20.5	0.00e+00	0	27	0	451936256	52	6906
2026-01-13 03:25:29.79	281.18	10.41	-40.5	-41.8	20.3	0.00e+00	71	27	0	457179136	52	7043
2026-01-13 03:25:32.81	281.73	10.44	-41.4	-42.9	19.3	0.00e+00	60	27	0	462422016	54	7151
2026-01-13 03:25:35.84	282.27	10.47	-42.4	-44.2	18.2	0.00e+00	0	27	0	468713472	56	7354
2026-01-13 03:25:38.87	282.82	10.50	-41.7	-43.2	19.0	0.00e+00	90	27	0	473956352	56	6570
2026-01-13 03:25:41.90	283.37	10.52	-41.4	-42.9	19.3	0.00e+00	92	27	0	480247808	56	6354
2026-01-13 03:25:44.93	283.93	10.55	-41.3	-42.7	19.5	0.00e+00	0	27	0	485490688	56	6225
2026-01-13 03:25:47.96	284.48	10.57	-41.2	-42.6	19.7	0.00e+00	0	27	0	490733568	56	6122
2026-01-13 03:25:50.99	285.03	10.58	-40.8	-42.1	20.0	0.00e+00	70	27	0	497025024	54	6508
2026-01-13 03:25:54.01	285.58	10.60	-40.7	-42.1	20.1	0.00e+00	38	27	0	502267904	54	6481
2026-01-13 03:25:57.04	286.14	10.61	-40.6	-41.9	20.2	0.00e+00	0	27	0	508559360	54	6348
2026-01-13 03:26:00.07	286.69	10.63	-40.0	-41.2	20.8	0.00e+00	73	27	0	513802240	54	5892
2026-01-13 03:26:03.10	287.24	10.63	-40.0	-41.2	20.9	0.00e+00	92	27	0	519045120	54	5870
2026-01-13 03:26:06.12	287.80	10.64	-40.1	-41.3	20.7	0.00e+00	0	27	0	525336576	54	5954
2026-01-13 03:26:09.15	288.35	10.65	-40.0	-41.2	20.9	0.00e+00	83	27	0	530579456	54	5840
2026-01-13 03:26:12.18	288.91	10.65	-40.0	-41.2	20.8	0.00e+00	27	27	0	536870912	52	6577
2026-01-13 03:26:15.21	289.46	10.65	-40.2	-41.4	20.7	0.00e+00	0	27	0	542113792	52	6740
2026-01-13 03:26:18.24	290.02	10.64	-39.7	-40.8	21.2	0.00e+00	0	27	0	548405248	52	6296
2026-01-13 03:26:21.26	290.57	10.64	-39.3	-40.4	21.5	0.00e+00	64	27	0	553648128	52	5992
2026-01-13 03:26:24.29	291.13	10.63	-39.3	-40.4	21.5	0.00e+00	27	27	0	558891008	52	5975
2026-01-13 03:26:27.32	291.68	10.62	-39.1	-40.2	21.8	0.00e+00	0	27	0	565182464	52	5836
2026-01-13 03:26:30.35	292.23	10.61	-38.8	-39.9	22.0	0.00e+00	92	27	0	570425344	52	5640
2026-01-13 03:26:33.38	292.79	10.59	-39.3	-40.4	21.5	0.00e+00	92	27	0	576716800	52	6012
2026-01-13 03:26:36.41	293.34	10.58	-39.5	-40.6	21.4	0.00e+00	0	27	0	581959680	52	6167
2026-01-13 03:26:39.43	293.89	10.56	-39.3	-40.4	21.5	0.00e+00	0	27	0	587202560	52	6032
2026-01-13 03:26:42.46	294.44	10.54	-39.1	-40.2	21.7	0.00e+00	92	27	0	593494016	52	5875
2026-01-13 03:26:45.49	294.99	10.51	-39.3	-40.5	21.4	0.00e+00	0	27	0	598736896	52	6038
2026-01-13 03:26:48.52	295.54	10.49	-39.2	-40.3	21.7	0.00e+00	0	27	0	605028352	52	5924
2026-01-13 03:26:51.55	296.09	10.46	-38.9	-39.9	22.0	0.00e+00	58	27	0	610271232	52	5668
2026-01-13 03:26:54.57	296.63	10.43	-38.8	-39.8	22.0	0.00e+00	21	27	0	616562688	52	5620
2026-01-13 03:26:57.60	297.18	10.39	-38.8	-39.9	22.1	0.00e+00	0	27	0	621805568	52	5640
2026-01-13 03:27:00.63	297.72	10.36	-38.2	-39.1	22.6	0.00e+00	87	27	0	627048448	50	5820
2026-01-13 03:27:03.66	298.27	10.32	-38.0	-38.9	22.7	0.00e+00	92	27	0	633339904	50	5679
2026-01-13 03:27:06.69	298.81	10.28	-38.3	-39.3	22.5	0.00e+00	0	27	0	638582784	50	5912
2026-01-13 03:27:09.72	299.35	10.24	-38.6	-39.6	22.1	0.00e+00	6	27	0	644874240	50	6155
2026-01-13 03:27:12.74	299.89	10.19	-38.4	-39.5	22.3	0.00e+00	22	27	0	650117120	50	6035
2026-01-13 03:27:15.77	300.42	10.15	-38.5	-39.6	22.2	0.00e+00	0	27	0	655360000	50	6109
2026-01-13 03:27:18.80	300.96	10.10	-38.9	-40.0	22.0	0.00e+00	0	27	0	661651456	50	6423
2026-01-13 03:27:21.83	301.49	10.05	-39.2	-40.3	21.7	0.00e+00	71	27	0	666894336	50	6639
2026-01-13 03:27:24.86	302.02	10.00	-39.0	-40.0	21.9	0.00e+00	24	27	0	673185792	50	6454
2026-01-13 03:27:27.88	302.55	9.94	-39.1	-40.1	21.7	0.00e+00	0	27	0	678428672	50	6525
2026-01-13 03:27:30.91	303.08	9.89	-39.5	-40.6	21.3	0.00e+00	92	27	0	683671552	50	6890
2026-01-13 03:27:33.93	303.61	9.83	-40.1	-41.3	20.5	0.00e+00	92	27	0	689963008	52	6651
2026-01-13 03:27:36.97	304.13	9.77	-39.7	-40.8	21.2	0.00e+00	0	27	0	695205888	52	6292
2026-01-13 03:27:39.99	304.65	9.71	-39.5	-40.7	21.6	0.00e+00	0	27	0	701497344	52	6180
2026-01-13 03:27:43.02	305.17	9.64	-39.2	-40.3	21.5	0.00e+00	43	27	0	706740224	52	5898
2026-01-13 03:27:46.05	305.69	9.58	-38.6	-39.7	22.1	0.00e+00	0	27	0	713031680	50	6174
2026-01-13 03:27:49.08	306.20	9.51	-37.7	-38.6	23.1	0.00e+00	0	27	0	718274560	48	6153
2026-01-13 03:27:52.10	306.71	9.44	-38.0	-39.0	22.5	0.00e+00	82	27	0	723517440	48	6427
2026-01-13 03:27:55.13	307.22	9.37	-38.4	-39.4	22.2	0.00e+00	5	27	0	729808896	48	6696
2026-01-13 03:27:58.16	307.73	9.30	-38.5	-39.5	22.2	0.00e+00	0	27	0	735051776	48	6810
2026-01-13 03:28:01.18	308.24	9.22	-38.4	-39.4	22.3	0.00e+00	86	27	0	741343232	48	6751
2026-01-13 03:28:04.21	308.74	9.14	-38.1	-39.1	22.5	0.00e+00	63	27	0	746586112	48	6503
2026-01-13 03:28:07.24	309.24	9.07	-38.3	-39.3	22.2	0.00e+00	0	27	0	751828992	48	6669
2026-01-13 03:28:10.27	309.74	8.99	-38.4	-39.4	22.2	0.00e+00	0	27	0	758120448	48	6713
2026-01-13 03:28:13.29	310.23	8.91	-37.8	-38.8	22.8	0.00e+00	89	27	0	763363328	48	6272
2026-01-13 03:28:16.32	310.72	8.82	-37.5	-38.4	23.1	0.00e+00	25	27	0	769654784	48	5984
2026-01-13 03:28:19.35	311.21	8.74	-37.9	-38.9	22.6	0.00e+00	0	27	0	774897664	48	6351
2026-01-13 03:28:22.37	311.70	8.65	-38.4	-39.5	22.1	0.00e+00	92	27	0	781189120	48	6783
2026-01-13 03:28:25.40	312.18	8.56	-38.4	-39.4	22.2	0.00e+00	92	27	0	786432000	48	6736
2026-01-13 03:28:28.43	312.66	8.48	-38.2	-39.2	22.2	0.00e+00	0	27	0	791674880	48	6608
2026-01-13 03:28:31.46	313.14	8.39	-38.8	-39.8	21.9	0.00e+00	41	27	0	797966336	50	6317
2026-01-13 03:28:34.49	313.61	8.29	-39.5	-40.7	21.0	0.00e+00	17	27	0	803209216	50	6955
2026-01-13 03:28:37.52	314.09	8.20	-40.1	-41.3	20.6	0.00e+00	0	27	0	809500672	52	6692
2026-01-13 03:28:40.54	314.55	8.11	-39.8	-41.0	20.8	0.00e+00	0	27	0	814743552	52	6396
2026-01-13 03:28:43.57	315.02	8.01	-40.1	-41.4	20.6	0.00e+00	92	27	0	819986432	52	6695
2026-01-13 03:28:46.60	315.48	7.92	-40.3	-41.6	20.3	0.00e+00	19	27	0	826277888	52	6866
2026-01-13 03:28:49.62	315.94	7.82	-40.1	-41.4	20.5	0.00e+00	0	27	0	831520768	52	6719
2026-01-13 03:28:52.65	316.40	7.72	-40.0	-41.3	20.4	0.00e+00	90	27	0	837812224	52	6658
2026-01-13 03:28:55.68	316.85	7.62	-40.4	-41.7	20.1	0.00e+00	59	27	0	843055104	52	7005
2026-01-13 03:28:58.71	317.31	7.52	-40.6	-41.9	19.9	0.00e+00	0	27	0	848297984	54	6377
2026-01-13 03:29:01.74	317.75	7.42	-40.6	-41.9	19.9	0.00e+00	0	27	0	854589440	54	6384
2026-01-13 03:29:04.77	318.20	7.31	-40.8	-42.3	19.5	0.00e+00	21	27	0	859832320	54	6623
2026-01-13 03:29:07.79	318.64	7.21	-41.8	-43.4	18.7	0.00e+00	0	27	0	866123776	56	6738
2026-01-13 03:29:10.82	319.08	7.10	-42.2	-44.0	18.1	0.00e+00	0	27	0	871366656	56	7191
2026-01-13 03:29:13.85	319.52	7.00	-42.1	-43.9	18.2	0.00e+00	90	27	0	877658112	56	7100
2026-01-13 03:29:16.88	319.95	6.89	-41.9	-43.5	18.3	0.00e+00	22	27	0	882900992	56	6841
2026-01-13 03:29:19.91	320.38	6.78	-41.3	-42.8	19.2	0.00e+00	0	27	0	888143872	56	6264
2026-01-13 03:29:22.93	320.80	6.67	-41.6	-43.3	18.9	0.00e+00	0	27	0	894435328	56	6639
2026-01-13 03:29:25.96	321.23	6.56	-41.8	-43.4	18.5	0.00e+00	20	27	0	899678208	56	6755
2026-01-13 03:29:28.98	321.65	6.45	-42.1	-43.9	17.9	0.00e+00	0	27	0	905969664	56	7140
2026-01-13 03:29:32.01	322.06	6.34	-42.0	-43.8	18.1	0.00e+00	0	27	0	911212544	56	7022
2026-01-13 03:29:35.04	322.48	6.23	-41.8	-43.5	18.3	0.00e+00	90	27	0	916455424	56	6816
2026-01-13 03:29:38.07	322.89	6.12	-41.4	-42.9	19.0	0.00e+00	0	27	0	922746880	56	6375
2026-01-13 03:29:41.10	323.30	6.00	-41.1	-42.6	19.3	0.00e+00	0	27	0	927989760	56	6108
2026-01-13 03:29:44.12	323.70	5.89	-41.3	-42.8	18.9	0.00e+00	0	27	0	934281216	56	6296
2026-01-13 03:29:47.15	324.11	5.77	-41.2	-42.8	18.9	0.00e+00	83	27	0	939524096	56	6267
2026-01-13 03:29:50.18	324.50	5.66	-41.0	-42.6	19.1	0.00e+00	0	27	0	945815552	56	6114
2026-01-13 03:29:53.21	324.90	5.54	-40.8	-42.2	19.5	0.00e+00	0	27	0	951058432	56	5869
2026-01-13 03:29:56.24	325.29	5.43	-40.5	-41.9	19.7	0.00e+00	92	27	0	956301312	54	6368
2026-01-13 03:29:59.26	325.68	5.31	-40.6	-42.0	19.6	0.00e+00	0	27	0	962592768	54	6409
2026-01-13 03:30:02.29	326.07	5.19	-40.6	-42.0	19.6	0.00e+00	0	27	0	967835648	54	6409
2026-01-13 03:30:05.32	326.45	5.07	-40.8	-42.3	19.4	0.00e+00	59	27	0	974127104	54	6620
2026-01-13 03:30:08.35	326.83	4.95	-40.8	-42.2	19.3	0.00e+00	0	27	0	979369984	54	6603
2026-01-13 03:30:11.38	327.21	4.83	-41.1	-42.6	18.9	0.00e+00	0	27	0	984612864	54	6908
2026-01-13 03:30:14.41	327.59	4.71	-41.2	-42.9	18.7	0.00e+00	22	27	0	990904320	54	7105
2026-01-13 03:30:17.44	327.96	4.59	-40.9	-42.4	18.9	0.00e+00	76	27	0	996147200	54	6763
2026-01-13 03:30:20.47	328.33	4.47	-40.4	-41.8	19.5	0.00e+00	0	27	0	1002438656	54	6314
2026-01-13 03:30:23.50	328.70	4.35	-40.1	-41.5	19.9	0.00e+00	0	27	0	1007681536	54	6043
2026-01-13 03:30:26.53	329.06	4.23	-39.8	-41.1	20.1	0.00e+00	91	27	0	1013972992	52	6493
2026-01-13 03:30:29.55	329.42	4.11	-39.9	-41.3	20.0	0.00e+00	0	27	0	1019215872	52	6636
2026-01-13 03:30:32.58	329.78	3.99	-39.7	-41.1	20.0	0.00e+00	0	27	0	1024458752	52	6492
2026-01-13 03:30:35.61	330.13	3.86	-39.8	-41.1	19.9	0.00e+00	44	27	0	1030750208	52	6538
2026-01-13 03:30:38.64	330.48	3.74	-39.7	-41.1	20.0	0.00e+00	10	27	0	1035993088	52	6492
2026-01-13 03:30:41.67	330.83	3.62	-40.3	-41.9	18.7	0.00e+00	0	27	0	1042284544	52	7130
2026-01-13 03:30:44.70	331.18	3.49	-41.6	-43.7	16.5	0.00e+00	0	27	0	1047527424	54	7821
2026-01-13 03:30:47.73	331.52	3.37	-42.7	-46.1	13.2	1.06e-05	18	27	0	1052770304	56	9173
2026-01-13 03:30:50.75	331.86	3.25	-43.5	-49.7	8.1	4.15e-02	0	27	0	1059061760	58	12353
2026-01-13 03:30:53.79	332.20	3.12	-43.8	-53.5	4.1	7.47e-01	6	27	0	1064304640	60	17026
2026-01-13 03:30:56.81	332.54	3.00	-47.4	-62.6	3.6	1.51e+00	0	27	104	1065353216	60	48532
2026-01-13 03:30:59.84	332.87	2.87	-48.6	-63.9	3.6	1.51e+00	0	27	104	1065353216	60	56357
2026-01-13 03:31:02.87	333.20	2.75	-48.9	-64.1	3.6	1.51e+00	0	27	104	1065353216	60	57808
2026-01-13 03:31:05.90	333.53	2.62	-48.8	-64.2	3.6	1.51e+00	0	27	104	1065353216	60	58300
2026-01-13 03:31:08.93	333.85	2.50	-48.7	-64.1	3.6	1.51e+00	0	27	104	1065353216	60	57636
2026-01-13 03:31:11.96	334.17	2.37	-48.8	-64.0	3.6	1.51e+00	0	27	104	1065353216	60	57228
2026-01-13 03:31:14.98	334.49	2.25	-48.8	-64.0	3.6	1.51e+00	0	27	104	1065353216	60	57539
2026-01-13 03:31:18.01	334.81	2.12	-48.8	-64.1	3.6	1.51e+00	0	27	104	1065353216	60	57625
2026-01-13 03:31:21.04	335.12	2.00	-48.8	-64.0	3.6	1.51e+00	0	27	104	1065353216	60	57584
2026-01-13 03:31:24.07	335.44	1.87	-48.8	-64.0	3.6	1.51e+00	0	27	104	1065353216	60	57354
2026-01-13 03:31:27.10	335.74	1.75	-48.8	-64.0	3.6	1.51e+00	0	27	104	1065353216	60	57315
2026-01-13 03:31:30.13	336.05	1.62	-48.8	-64.0	3.6	1.51e+00	0	27	104	1065353216	60	57219
2026-01-13 03:31:33.16	336.36	1.49	-48.8	-64.0	3.6	1.51e+00	0	27	104	1065353216	60	56995
2026-01-13 03:31:36.19	336.66	1.37	-48.8	-64.0	3.6	1.51e+00	0	27	104	1065353216	60	56964
2026-01-13 03:31:39.22	336.96	1.24	-48.8	-64.0	3.6	1.51e+00	0	27	104	1065353216	60	57095
2026-01-13 03:31:42.25	337.25	1.12	-48.8	-64.0	3.6	1.51e+00	0	27	104	1065353216	60	57414
2026-01-13 03:31:45.28	337.55	0.99	-48.8	-64.0	3.6	1.51e+00	0	27	104	1065353216	60	57358
2026-01-13 03:31:48.31	337.84	0.86	-48.8	-64.0	3.6	1.51e+00	0	27	104	1065353216	60	57451
2026-01-13 03:31:51.33	338.13	0.74	-48.8	-63.9	3.6	1.51e+00	0	27	104	1065353216	60	56866
2026-01-13 03:31:54.36	338.42	0.61	-48.8	-64.0	3.6	1.51e+00	0	27	104	1065353216	60	57269
2026-01-13 03:31:57.39	338.70	0.48	-48.8	-64.0	3.6	1.51e+00	0	27	104	1065353216	60	57290
2026-01-13 03:32:00.41	338.99	0.36	-48.8	-64.0	3.6	1.51e+00	0	27	104	1065353216	60	57089
2026-01-13 03:32:03.44	339.27	0.23	-48.8	-64.0	3.6	1.51e+00	0	27	104	1065353216	60	57173
2026-01-13 03:32:06.47	339.55	0.11	-48.8	-64.0	3.6	1.51e+00	0	27	104	1065353216	60	57012
2026-01-13 03:32:09.50	339.82	-0.02	-48.8	-64.0	3.6	1.51e+00	0	27	104	1065353216	60	57244

#Closed at: 2026-01-13 03:32:10
#Recorded file [1065 MB]: D:/lorett/data/35029_260113_152020.dat