passes_logs/2026/01/13/R4.6S_Anadyr/R4.6S_Anadyr__20260113_180146_FENGYUN_3D_rec.log

#Pass ID: 20260113_180146_FENGYUN 3D
#Satellite: FENGYUN 3D
#Configuration: FENGYUN 3D
#almurnet v.1.7.20251203
#Start time: 2026-01-13 18:01:48

#Version: 2.2.20231116
#Station: R4.6S_Anadyr
#Location: 177.4865 lon 64.73178 lat
#TLE: 1 43010U 17072A   26012.32543542  .00000598  00000+0  30457-3 0  9997
#TLE: 2 43010  98.9935 344.1005 0002233 112.6136 247.5276 14.19696644422876

#Time	Az	El	Level	Level2	SNR	BER	BlckErr	Temp	State	Recorded	gain1	gain2
2026-01-13 18:01:48.96	24.56	0.17	-48.3	-59.0	3.3	8.39e-01	0	26	0	0	60	32317
2026-01-13 18:01:53.00	24.44	0.41	-48.4	-60.5	3.6	8.46e-01	0	26	104	0	60	38462
2026-01-13 18:01:57.03	24.33	0.65	-48.2	-60.3	3.6	8.45e-01	0	26	104	0	60	37222
2026-01-13 18:02:01.07	24.21	0.89	-47.5	-59.6	3.6	8.45e-01	0	26	104	0	60	34626
2026-01-13 18:02:05.10	24.09	1.13	-46.8	-58.8	3.6	8.44e-01	0	26	104	0	60	31584
2026-01-13 18:02:09.14	23.96	1.38	-46.8	-58.7	3.6	8.46e-01	0	26	104	0	60	31102
2026-01-13 18:02:13.17	23.84	1.62	-46.8	-58.8	3.6	8.45e-01	0	27	104	0	60	31519
2026-01-13 18:02:17.21	23.71	1.87	-46.7	-58.4	3.6	8.44e-01	0	27	104	0	60	30007
2026-01-13 18:02:21.24	23.58	2.12	-46.7	-58.8	3.6	8.46e-01	0	27	104	0	60	31482
2026-01-13 18:02:25.28	23.45	2.37	-46.7	-58.6	3.6	8.45e-01	0	27	104	0	60	30787
2026-01-13 18:02:29.32	23.32	2.63	-46.7	-57.7	3.6	8.45e-01	0	27	104	0	60	27805
2026-01-13 18:02:33.36	23.18	2.88	-46.7	-58.3	3.6	8.44e-01	0	27	104	0	60	29790
2026-01-13 18:02:37.40	23.04	3.14	-45.6	-50.5	6.2	5.04e-01	0	27	0	1048576	60	12154
2026-01-13 18:02:41.44	22.89	3.40	-42.7	-45.1	12.7	1.85e-04	0	27	0	24117248	60	6469
2026-01-13 18:02:45.48	22.75	3.67	-46.6	-56.1	3.8	8.40e-01	0	27	104	40894464	60	23143
2026-01-13 18:02:49.52	22.60	3.93	-46.7	-58.6	4.4	8.46e-01	0	27	104	44040192	60	30876
2026-01-13 18:02:53.55	22.45	4.20	-35.4	-36.2	21.6	0.00e+00	0	27	0	59768832	44	5884
2026-01-13 18:02:57.59	22.29	4.47	-35.2	-36.0	21.9	0.00e+00	0	27	0	82837504	44	5726
2026-01-13 18:03:01.63	22.13	4.75	-35.1	-35.9	22.0	0.00e+00	0	27	0	105906176	44	5666
2026-01-13 18:03:05.67	21.97	5.02	-35.0	-35.8	22.2	0.00e+00	0	27	0	127926272	44	5618
2026-01-13 18:03:09.71	21.81	5.30	-34.9	-35.7	22.5	0.00e+00	0	27	0	150994944	42	6178
2026-01-13 18:03:13.74	21.64	5.58	-34.8	-35.6	22.5	0.00e+00	0	27	0	174063616	42	6115
2026-01-13 18:03:17.79	21.47	5.87	-34.6	-35.4	22.8	0.00e+00	0	27	0	196083712	42	5985
2026-01-13 18:03:21.82	21.29	6.15	-34.7	-35.4	22.8	0.00e+00	0	27	0	219152384	42	6011
2026-01-13 18:03:25.87	21.11	6.44	-34.4	-35.1	23.1	0.00e+00	0	27	0	241172480	42	5802
2026-01-13 18:03:29.91	20.93	6.74	-34.2	-34.9	23.3	0.00e+00	0	27	0	264241152	42	5688
2026-01-13 18:03:33.95	20.74	7.03	-34.2	-35.0	23.3	0.00e+00	0	27	0	287309824	42	5714
2026-01-13 18:03:37.99	20.54	7.33	-34.1	-34.8	23.5	0.00e+00	0	27	0	310378496	42	5591
2026-01-13 18:03:42.03	20.35	7.63	-33.8	-34.5	23.7	0.00e+00	0	27	0	332398592	42	5416
2026-01-13 18:03:46.07	20.15	7.94	-33.7	-34.5	23.9	0.00e+00	0	27	0	355467264	40	6055
2026-01-13 18:03:50.10	19.94	8.25	-33.8	-34.5	23.8	0.00e+00	0	27	0	378535936	40	6085
2026-01-13 18:03:54.15	19.73	8.56	-33.8	-34.5	23.9	0.00e+00	0	27	0	400556032	40	6061
2026-01-13 18:03:58.19	19.52	8.87	-33.6	-34.4	24.0	0.00e+00	0	27	0	423624704	40	5982
2026-01-13 18:04:02.22	19.30	9.19	-33.7	-34.5	24.0	0.00e+00	0	27	0	445644800	40	6041
2026-01-13 18:04:06.25	19.07	9.52	-33.8	-34.6	23.9	0.00e+00	0	27	0	468713472	40	6114
2026-01-13 18:04:10.29	18.84	9.84	-33.6	-34.3	24.2	0.00e+00	0	27	0	491782144	40	5912
2026-01-13 18:04:14.33	18.60	10.17	-33.7	-34.4	23.9	0.00e+00	0	27	0	514850816	40	5993
2026-01-13 18:04:18.36	18.36	10.51	-33.4	-34.1	24.3	0.00e+00	0	27	0	536870912	40	5822
2026-01-13 18:04:22.40	18.11	10.85	-33.3	-34.0	24.4	0.00e+00	0	27	0	559939584	40	5717
2026-01-13 18:04:26.44	17.86	11.19	-33.3	-34.0	24.5	0.00e+00	0	27	0	583008256	40	5736
2026-01-13 18:04:30.48	17.59	11.54	-33.0	-33.7	24.8	0.00e+00	0	27	0	605028352	40	5513
2026-01-13 18:04:34.52	17.33	11.89	-32.8	-33.5	25.0	0.00e+00	0	27	0	628097024	40	5413
2026-01-13 18:04:38.56	17.05	12.24	-32.9	-33.6	24.8	0.00e+00	0	27	0	650117120	38	6162
2026-01-13 18:04:42.60	16.77	12.60	-33.0	-33.7	24.9	0.00e+00	0	27	0	673185792	38	6203
2026-01-13 18:04:46.64	16.48	12.97	-32.7	-33.3	25.1	0.00e+00	0	27	0	696254464	38	5957
2026-01-13 18:04:50.68	16.18	13.34	-32.8	-33.4	25.1	0.00e+00	0	27	0	719323136	38	6023
2026-01-13 18:04:54.72	15.88	13.71	-32.6	-33.3	25.2	0.00e+00	0	27	0	741343232	38	5923
2026-01-13 18:04:58.76	15.56	14.09	-32.3	-33.0	25.4	0.00e+00	0	27	0	764411904	38	5733
2026-01-13 18:05:02.80	15.24	14.48	-32.2	-32.9	25.6	0.00e+00	0	27	0	787480576	38	5661
2026-01-13 18:05:06.84	14.91	14.87	-32.1	-32.8	25.7	0.00e+00	0	27	0	809500672	38	5567
2026-01-13 18:05:10.88	14.57	15.26	-32.1	-32.7	25.8	0.00e+00	0	27	0	832569344	38	5558
2026-01-13 18:05:14.91	14.22	15.66	-32.0	-32.7	25.8	0.00e+00	0	27	0	854589440	38	5512
2026-01-13 18:05:18.95	13.86	16.07	-31.7	-32.4	26.1	0.00e+00	0	27	0	877658112	36	5991
2026-01-13 18:05:22.99	13.49	16.48	-31.3	-32.0	26.4	0.00e+00	0	27	0	900726784	36	5714
2026-01-13 18:05:27.03	13.11	16.90	-31.4	-32.0	26.4	0.00e+00	0	27	0	923795456	36	5761
2026-01-13 18:05:31.07	12.72	17.32	-31.4	-32.0	26.4	0.00e+00	0	27	0	945815552	36	5736
2026-01-13 18:05:35.10	12.32	17.75	-31.4	-32.0	26.4	0.00e+00	0	27	0	968884224	36	5742
2026-01-13 18:05:39.14	11.90	18.19	-31.2	-31.8	26.6	0.00e+00	0	27	0	991952896	36	5601
2026-01-13 18:05:43.18	11.47	18.63	-30.9	-31.5	26.8	0.00e+00	0	27	0	1013972992	36	5421
2026-01-13 18:05:47.22	11.03	19.08	-30.9	-31.5	26.9	0.00e+00	0	27	0	1037041664	36	5417
2026-01-13 18:05:51.25	10.58	19.53	-30.8	-31.5	27.0	0.00e+00	0	27	0	1059061760	36	5388
2026-01-13 18:05:55.28	10.11	19.99	-30.8	-31.4	27.0	0.00e+00	0	27	0	1082130432	34	6010
2026-01-13 18:05:59.32	9.62	20.46	-30.5	-31.1	27.2	0.00e+00	0	27	0	1105199104	34	5776
2026-01-13 18:06:03.36	9.12	20.93	-30.5	-31.2	27.2	0.00e+00	0	27	0	1127219200	34	5830
2026-01-13 18:06:07.39	8.61	21.41	-30.5	-31.2	27.2	0.00e+00	0	27	0	1150287872	34	5857
2026-01-13 18:06:11.43	8.08	21.90	-30.5	-31.2	27.3	0.00e+00	0	27	0	1173356544	34	5854
2026-01-13 18:06:15.47	7.53	22.39	-30.3	-30.9	27.3	0.00e+00	0	27	0	1195376640	34	5660
2026-01-13 18:06:19.51	6.96	22.89	-30.4	-31.1	27.3	0.00e+00	0	27	0	1218445312	34	5783
2026-01-13 18:06:23.55	6.37	23.40	-30.3	-31.0	27.4	0.00e+00	0	27	0	1241513984	34	5716
2026-01-13 18:06:27.59	5.76	23.91	-30.0	-30.6	27.7	0.00e+00	0	27	0	1263534080	34	5442
2026-01-13 18:06:31.63	5.13	24.43	-29.9	-30.5	27.8	0.00e+00	0	27	0	1286602752	34	5389
2026-01-13 18:06:35.66	4.48	24.96	-29.9	-30.6	27.7	0.00e+00	0	27	0	1309671424	32	6130
2026-01-13 18:06:39.70	3.81	25.49	-29.9	-30.5	27.8	0.00e+00	0	27	0	1331691520	32	6080
2026-01-13 18:06:43.74	3.11	26.03	-29.7	-30.3	27.9	0.00e+00	0	27	0	1354760192	32	5943
2026-01-13 18:06:47.78	2.39	26.58	-29.7	-30.4	27.9	0.00e+00	0	27	0	1377828864	32	5966
2026-01-13 18:06:51.81	1.65	27.13	-29.6	-30.2	28.1	0.00e+00	0	27	0	1399848960	32	5847
2026-01-13 18:06:55.85	0.87	27.68	-29.4	-30.0	28.2	0.00e+00	0	27	0	1422917632	32	5750
2026-01-13 18:06:59.88	0.07	28.24	-29.4	-30.0	28.1	0.00e+00	0	27	0	1445986304	32	5702
2026-01-13 18:07:03.92	359.24	28.81	-29.2	-29.8	28.3	0.00e+00	0	27	0	1468006400	32	5617
2026-01-13 18:07:07.96	358.38	29.38	-29.5	-30.2	28.1	0.00e+00	0	27	0	1491075072	32	5832
2026-01-13 18:07:12.00	357.48	29.96	-29.3	-29.9	28.3	0.00e+00	0	27	0	1514143744	32	5687
2026-01-13 18:07:16.04	356.56	30.54	-29.1	-29.8	28.3	0.00e+00	0	27	0	1536163840	32	5575
2026-01-13 18:07:20.08	355.59	31.12	-29.4	-30.0	28.2	0.00e+00	0	27	0	1559232512	32	5759
2026-01-13 18:07:24.11	354.60	31.70	-29.4	-30.0	28.2	0.00e+00	0	27	0	1582301184	32	5717
2026-01-13 18:07:28.15	353.56	32.29	-29.5	-30.1	28.1	0.00e+00	0	27	0	1604321280	32	5784
2026-01-13 18:07:32.19	352.49	32.88	-29.1	-29.7	28.4	0.00e+00	0	27	0	1627389952	32	5535
2026-01-13 18:07:36.23	351.38	33.46	-29.3	-29.9	28.3	0.00e+00	0	27	0	1650458624	32	5647
2026-01-13 18:07:40.26	350.23	34.05	-29.2	-29.8	28.4	0.00e+00	0	27	0	1672478720	32	5571
2026-01-13 18:07:44.30	349.03	34.63	-29.0	-29.5	28.6	0.00e+00	0	27	0	1695547392	32	5428
2026-01-13 18:07:48.34	347.79	35.21	-28.9	-29.5	28.6	0.00e+00	0	27	0	1718616064	32	5407
2026-01-13 18:07:52.38	346.50	35.78	-29.1	-29.7	28.5	0.00e+00	0	27	0	1740636160	32	5557
2026-01-13 18:07:56.41	345.18	36.34	-29.1	-29.7	28.4	0.00e+00	0	27	0	1763704832	32	5536
2026-01-13 18:08:00.45	343.80	36.90	-29.3	-30.0	28.2	0.00e+00	0	27	0	1786773504	32	5721
2026-01-13 18:08:04.49	342.37	37.44	-28.9	-29.5	28.5	0.00e+00	0	27	0	1808793600	32	5418
2026-01-13 18:08:08.53	340.90	37.98	-29.3	-29.9	28.3	0.00e+00	0	27	0	1831862272	32	5694
2026-01-13 18:08:12.56	339.38	38.50	-29.2	-29.8	28.4	0.00e+00	0	27	0	1853882368	32	5611
2026-01-13 18:08:16.60	337.80	39.00	-29.4	-30.0	28.3	0.00e+00	0	27	0	1876951040	32	5705
2026-01-13 18:08:20.64	336.18	39.49	-29.4	-30.0	28.2	0.00e+00	0	27	0	1900019712	32	5741
2026-01-13 18:08:24.69	334.51	39.95	-29.2	-29.8	28.4	0.00e+00	0	27	0	1923088384	32	5609
2026-01-13 18:08:28.72	332.79	40.39	-29.1	-29.7	28.5	0.00e+00	0	27	0	1945108480	32	5564
2026-01-13 18:08:32.76	331.03	40.81	-29.1	-29.8	28.5	0.00e+00	0	27	0	1968177152	32	5584
2026-01-13 18:08:36.81	329.21	41.20	-28.9	-29.5	28.5	0.00e+00	0	27	0	1991245824	32	5430
2026-01-13 18:08:40.84	327.36	41.56	-29.1	-29.7	28.4	0.00e+00	0	27	0	2013265920	32	5552
2026-01-13 18:08:44.88	325.47	41.89	-29.1	-29.8	28.5	0.00e+00	0	27	0	2036334592	32	5570
2026-01-13 18:08:48.92	323.54	42.19	-28.8	-29.4	28.6	0.00e+00	0	27	0	2058354688	32	5360
2026-01-13 18:08:52.95	321.58	42.45	-28.8	-29.4	28.6	0.00e+00	0	27	0	2081423360	30	5994
2026-01-13 18:08:56.99	319.58	42.68	-28.7	-29.3	28.7	0.00e+00	0	27	0	2104492032	30	5934
2026-01-13 18:09:01.02	317.57	42.86	-29.2	-29.7	28.4	0.00e+00	0	27	0	2127560704	30	6239
2026-01-13 18:09:05.06	315.52	43.01	-28.9	-29.6	28.6	0.00e+00	0	27	0	2149580800	30	6113
2026-01-13 18:09:09.11	313.46	43.11	-28.8	-29.5	28.7	0.00e+00	0	27	0	2172649472	30	6042
2026-01-13 18:09:13.14	311.39	43.17	-28.9	-29.5	28.6	0.00e+00	0	27	0	2195718144	30	6035
2026-01-13 18:09:17.18	309.32	43.20	-29.0	-29.7	28.5	0.00e+00	0	27	0	2217738240	30	6185
2026-01-13 18:09:21.22	307.24	43.17	-28.6	-29.3	28.7	0.00e+00	0	27	0	2240806912	30	5909
2026-01-13 18:09:25.25	305.18	43.11	-28.6	-29.2	28.6	0.00e+00	0	27	0	2262827008	30	5842
2026-01-13 18:09:29.29	303.12	43.01	-28.9	-29.5	28.6	0.00e+00	0	27	0	2285895680	30	6098
2026-01-13 18:09:33.33	301.08	42.86	-28.7	-29.3	28.8	0.00e+00	0	27	0	2308964352	30	5916
2026-01-13 18:09:37.36	299.06	42.68	-28.6	-29.2	28.9	0.00e+00	0	27	0	2330984448	30	5879
2026-01-13 18:09:41.40	297.06	42.45	-28.9	-29.5	28.5	0.00e+00	0	27	0	2354053120	30	6047
2026-01-13 18:09:45.43	295.10	42.19	-28.5	-29.0	28.7	0.00e+00	0	27	0	2377121792	30	5755
2026-01-13 18:09:49.47	293.16	41.89	-28.8	-29.4	28.6	0.00e+00	0	27	0	2399141888	30	5995
2026-01-13 18:09:53.51	291.27	41.56	-28.8	-29.4	28.7	0.00e+00	0	27	0	2422210560	30	6016
2026-01-13 18:09:57.55	289.41	41.20	-28.8	-29.5	28.6	0.00e+00	0	27	0	2445279232	30	6046
2026-01-13 18:10:01.59	287.60	40.81	-28.7	-29.4	28.6	0.00e+00	0	27	0	2467299328	30	6005
2026-01-13 18:10:05.62	285.83	40.39	-29.0	-29.7	28.5	0.00e+00	0	27	0	2490368000	30	6218
2026-01-13 18:10:09.66	284.11	39.95	-28.7	-29.3	28.8	0.00e+00	0	27	0	2513436672	30	5956
2026-01-13 18:10:13.70	282.44	39.48	-28.6	-29.2	28.8	0.00e+00	0	27	0	2535456768	30	5848
2026-01-13 18:10:17.74	280.81	39.00	-28.7	-29.3	28.7	0.00e+00	0	27	0	2558525440	30	5930
2026-01-13 18:10:21.78	279.23	38.49	-28.8	-29.4	28.7	0.00e+00	0	27	0	2581594112	30	6007
2026-01-13 18:10:25.82	277.71	37.97	-29.1	-29.8	28.5	0.00e+00	0	27	0	2603614208	30	6271
2026-01-13 18:10:29.86	276.23	37.44	-28.9	-29.4	28.6	0.00e+00	0	27	0	2626682880	30	6028
2026-01-13 18:10:33.90	274.80	36.89	-29.1	-29.7	28.5	0.00e+00	0	27	0	2649751552	30	6236
2026-01-13 18:10:37.94	273.42	36.33	-29.0	-29.7	28.5	0.00e+00	0	27	0	2671771648	30	6187
2026-01-13 18:10:41.97	272.08	35.76	-29.1	-29.8	28.3	0.00e+00	0	27	0	2694840320	30	6302
2026-01-13 18:10:46.01	270.80	35.19	-28.8	-29.4	28.7	0.00e+00	0	27	0	2717908992	30	5991
2026-01-13 18:10:50.04	269.55	34.61	-28.3	-28.9	29.0	0.00e+00	0	27	0	2739929088	30	5655
2026-01-13 18:10:54.09	268.35	34.03	-28.6	-29.2	28.7	0.00e+00	0	27	0	2762997760	30	5891
2026-01-13 18:10:58.12	267.20	33.44	-28.9	-29.7	28.2	0.00e+00	0	27	0	2786066432	30	6177
2026-01-13 18:11:02.15	266.08	32.85	-28.8	-29.5	28.5	0.00e+00	0	27	0	2808086528	30	6037
2026-01-13 18:11:06.19	265.01	32.27	-29.0	-29.6	28.4	0.00e+00	0	27	0	2831155200	30	6128
2026-01-13 18:11:10.23	263.97	31.68	-29.2	-29.8	28.5	0.00e+00	0	27	0	2854223872	30	6295
2026-01-13 18:11:14.27	262.97	31.09	-29.0	-29.5	28.3	0.00e+00	0	27	0	2876243968	30	6089
2026-01-13 18:11:18.31	262.00	30.51	-29.3	-29.9	28.0	0.00e+00	0	27	0	2899312640	30	6357
2026-01-13 18:11:22.34	261.08	29.93	-29.2	-29.7	28.2	0.00e+00	0	27	0	2922381312	30	6207
2026-01-13 18:11:26.38	260.18	29.35	-29.4	-29.9	28.0	0.00e+00	0	27	0	2944401408	30	6367
2026-01-13 18:11:30.42	259.31	28.77	-29.7	-30.3	27.7	0.00e+00	0	27	0	2967470080	30	6619
2026-01-13 18:11:34.46	258.48	28.20	-29.6	-30.1	27.8	0.00e+00	0	27	0	2990538752	32	5817
2026-01-13 18:11:38.50	257.67	27.64	-29.7	-30.3	27.8	0.00e+00	0	27	0	3012558848	32	5899
2026-01-13 18:11:42.54	256.90	27.08	-29.7	-30.2	27.7	0.00e+00	0	27	0	3035627520	32	5895
2026-01-13 18:11:46.57	256.15	26.53	-29.7	-30.3	27.7	0.00e+00	0	27	0	3057647616	32	5920
2026-01-13 18:11:50.61	255.42	25.98	-29.7	-30.4	27.7	0.00e+00	0	27	0	3080716288	32	5966
2026-01-13 18:11:54.65	254.72	25.44	-29.8	-30.4	27.6	0.00e+00	0	27	0	3103784960	32	5984
2026-01-13 18:11:58.69	254.05	24.90	-30.0	-30.5	27.5	0.00e+00	0	27	0	3126853632	32	6064
2026-01-13 18:12:02.72	253.40	24.38	-29.8	-30.4	27.6	0.00e+00	0	27	0	3148873728	32	5971
2026-01-13 18:12:06.76	252.76	23.85	-29.8	-30.5	27.6	0.00e+00	0	27	0	3171942400	32	6080
2026-01-13 18:12:10.79	252.16	23.34	-29.8	-30.4	27.6	0.00e+00	0	27	0	3195011072	32	5975
2026-01-13 18:12:14.82	251.57	22.83	-29.9	-30.4	27.6	0.00e+00	0	27	0	3217031168	32	6017
2026-01-13 18:12:18.86	250.99	22.33	-30.0	-30.7	27.4	0.00e+00	0	27	0	3240099840	32	6219
2026-01-13 18:12:22.90	250.44	21.84	-30.1	-30.8	27.4	0.00e+00	0	27	0	3262119936	32	6261
2026-01-13 18:12:26.93	249.91	21.35	-30.1	-30.8	27.4	0.00e+00	0	27	0	3285188608	32	6298
2026-01-13 18:12:30.97	249.39	20.87	-30.4	-31.0	27.1	0.00e+00	0	27	0	3308257280	32	6420
2026-01-13 18:12:35.01	248.89	20.39	-30.4	-31.0	27.2	0.00e+00	0	27	0	3330277376	32	6422
2026-01-13 18:12:39.04	248.40	19.92	-30.3	-30.9	27.2	0.00e+00	0	27	0	3353346048	32	6343
2026-01-13 18:12:43.08	247.93	19.46	-30.4	-30.9	27.2	0.00e+00	0	27	0	3376414720	32	6387
2026-01-13 18:12:47.12	247.47	19.00	-30.7	-31.4	26.9	0.00e+00	0	27	0	3398434816	32	6701
2026-01-13 18:12:51.16	247.03	18.56	-30.9	-31.4	26.8	0.00e+00	0	27	0	3421503488	34	6032
2026-01-13 18:12:55.20	246.59	18.11	-31.0	-31.6	26.7	0.00e+00	0	27	0	3444572160	34	6114
2026-01-13 18:12:59.24	246.18	17.68	-31.1	-31.7	26.6	0.00e+00	0	27	0	3466592256	34	6176
2026-01-13 18:13:03.28	245.77	17.24	-31.2	-31.8	26.4	0.00e+00	0	27	0	3489660928	34	6274
2026-01-13 18:13:07.32	245.38	16.82	-31.4	-32.0	26.2	0.00e+00	0	27	0	3512729600	34	6430
2026-01-13 18:13:11.35	244.99	16.40	-31.6	-32.2	26.1	0.00e+00	0	27	0	3534749696	34	6605
2026-01-13 18:13:15.39	244.62	15.99	-31.8	-32.5	26.0	0.00e+00	0	27	0	3557818368	36	6075
2026-01-13 18:13:19.43	244.26	15.58	-31.7	-32.4	26.0	0.00e+00	0	27	0	3580887040	36	6016
2026-01-13 18:13:23.47	243.91	15.18	-31.8	-32.5	26.0	0.00e+00	0	27	0	3602907136	36	6055
2026-01-13 18:13:27.50	243.56	14.78	-31.9	-32.5	25.9	0.00e+00	0	27	0	3625975808	36	6039
2026-01-13 18:13:31.54	243.23	14.39	-32.0	-32.6	25.8	0.00e+00	0	27	0	3649044480	36	6111
2026-01-13 18:13:35.58	242.91	14.01	-32.3	-33.0	25.5	0.00e+00	0	27	0	3671064576	36	6442
2026-01-13 18:13:39.62	242.59	13.63	-32.5	-33.3	25.2	0.00e+00	0	27	0	3694133248	36	6623
2026-01-13 18:13:43.66	242.28	13.25	-32.9	-33.5	24.9	0.00e+00	0	27	0	3717201920	38	6068
2026-01-13 18:13:47.69	241.98	12.88	-33.2	-33.9	24.6	0.00e+00	0	27	0	3739222016	38	6385
2026-01-13 18:13:51.74	241.69	12.51	-33.6	-34.2	24.2	0.00e+00	0	27	0	3762290688	38	6594
2026-01-13 18:13:55.77	241.41	12.15	-33.9	-34.6	23.8	0.00e+00	0	27	0	3785359360	40	6135
2026-01-13 18:13:59.81	241.13	11.80	-34.1	-34.7	23.6	0.00e+00	0	27	0	3807379456	40	6223
2026-01-13 18:14:03.85	240.86	11.44	-34.5	-35.2	23.2	0.00e+00	0	27	0	3830448128	40	6588
2026-01-13 18:14:07.88	240.59	11.10	-35.0	-35.7	22.7	0.00e+00	0	27	0	3853516800	42	6198
2026-01-13 18:14:11.92	240.34	10.75	-35.5	-36.4	22.2	0.00e+00	0	27	0	3875536896	42	6741
2026-01-13 18:14:15.96	240.08	10.41	-36.1	-36.9	21.5	0.00e+00	0	27	0	3898605568	44	6342
2026-01-13 18:14:20.00	239.84	10.08	-36.4	-37.3	21.1	0.00e+00	0	27	0	3921674240	44	6643
2026-01-13 18:14:24.04	239.60	9.75	-37.0	-38.0	20.5	0.00e+00	0	27	0	3943694336	46	6417
2026-01-13 18:14:28.08	239.37	9.42	-37.6	-38.6	19.8	0.00e+00	0	27	0	3966763008	46	6855
2026-01-13 18:14:32.11	239.14	9.10	-38.1	-39.2	19.2	0.00e+00	0	27	0	3989831680	48	6570
2026-01-13 18:14:36.15	238.91	8.78	-38.9	-40.1	18.3	0.00e+00	0	27	0	4011851776	50	6516
2026-01-13 18:14:40.19	238.70	8.46	-39.7	-40.9	17.4	0.00e+00	0	27	0	4034920448	50	7145
2026-01-13 18:14:44.22	238.48	8.15	-40.1	-41.5	16.8	0.00e+00	0	27	0	4057989120	52	6838
2026-01-13 18:14:48.26	238.27	7.84	-40.8	-42.2	16.0	0.00e+00	0	27	0	4080009216	54	6591
2026-01-13 18:14:52.30	238.07	7.53	-41.4	-43.0	15.1	0.00e+00	0	27	0	4103077888	54	7238
2026-01-13 18:14:56.33	237.87	7.23	-42.2	-44.1	14.0	0.00e+00	0	27	0	4126146560	56	7333
2026-01-13 18:15:00.37	237.68	6.93	-43.0	-45.2	12.8	3.31e-05	0	27	0	4148166656	58	7381
2026-01-13 18:15:04.41	237.49	6.63	-43.6	-46.2	11.4	5.94e-04	0	27	0	4171235328	58	8321
2026-01-13 18:15:08.44	237.30	6.34	-44.3	-47.5	10.0	4.36e-03	0	27	0	4194304000	60	8541
2026-01-13 18:15:12.48	237.12	6.05	-44.8	-48.6	8.6	2.30e-02	0	27	0	4216324096	60	9676
2026-01-13 18:15:16.52	236.94	5.76	-45.1	-49.4	7.6	6.69e-02	0	27	0	4239392768	60	10703
2026-01-13 18:15:20.56	236.76	5.48	-45.4	-50.2	6.6	1.56e-01	0	27	0	4261412864	60	11749
2026-01-13 18:15:24.60	236.59	5.20	-45.7	-51.3	5.3	6.21e-01	0	27	0	4283432960	60	13305
2026-01-13 18:15:28.64	236.42	4.92	-45.9	-52.0	4.8	7.64e-01	0	27	0	4292870144	60	14355
2026-01-13 18:15:32.68	236.26	4.64	-46.1	-53.0	4.2	8.14e-01	0	27	0	4293918720	60	16066
2026-01-13 18:15:36.72	236.09	4.37	-46.2	-53.7	3.8	8.31e-01	0	27	0	4293918720	60	17482
2026-01-13 18:15:40.76	235.94	4.10	-46.2	-55.7	3.9	8.43e-01	0	27	104	4293918720	60	21986
2026-01-13 18:15:44.79	235.78	3.83	-46.1	-56.6	3.6	8.44e-01	0	27	104	4293918720	60	24377
2026-01-13 18:15:48.83	235.63	3.56	-45.9	-57.7	3.6	8.45e-01	0	27	104	4293918720	60	27585
2026-01-13 18:15:52.87	235.48	3.30	-45.7	-57.6	3.6	8.45e-01	0	27	104	4293918720	60	27391
2026-01-13 18:15:56.91	235.33	3.03	-45.6	-57.6	3.6	8.45e-01	0	27	104	4293918720	60	27356
2026-01-13 18:16:00.94	235.19	2.78	-48.3	-60.3	3.6	8.45e-01	0	27	104	4293918720	60	37619
2026-01-13 18:16:04.98	235.05	2.52	-48.4	-60.5	3.6	8.45e-01	0	27	104	4293918720	60	38294
2026-01-13 18:16:09.02	234.91	2.26	-48.2	-60.5	3.6	8.45e-01	0	28	104	4293918720	60	38095
2026-01-13 18:16:13.06	234.77	2.01	-48.2	-60.4	3.6	8.45e-01	0	27	104	4293918720	60	37705
2026-01-13 18:16:17.10	234.64	1.76	-48.4	-60.4	3.6	8.45e-01	0	27	104	4293918720	60	37987
2026-01-13 18:16:21.14	234.51	1.51	-48.3	-60.4	3.6	8.44e-01	0	27	104	4293918720	60	38063
2026-01-13 18:16:25.17	234.38	1.26	-48.3	-60.4	3.6	8.47e-01	0	27	104	4293918720	60	37929
2026-01-13 18:16:29.21	234.25	1.02	-48.3	-60.4	3.6	8.45e-01	0	27	104	4293918720	60	37768
2026-01-13 18:16:33.25	234.13	0.78	-48.3	-60.4	3.5	8.45e-01	0	27	104	4293918720	60	37831
2026-01-13 18:16:37.28	234.01	0.54	-48.3	-60.4	3.6	8.45e-01	0	27	104	4293918720	60	37743
2026-01-13 18:16:41.32	233.89	0.30	-48.3	-60.4	3.6	8.45e-01	0	27	104	4293918720	60	37766
2026-01-13 18:16:45.36	233.77	0.06	-48.3	-60.4	3.6	8.45e-01	0	27	104	4293918720	60	37827

#Closed at: 2026-01-13 18:16:48
#Recorded file [4293 MB]: D:/lorett/data/35029_260114_060148.dat