passes_logs/2026/01/13/R4.6S_Anadyr/R4.6S_Anadyr__20260113_131202_NOAA_21_JPSS-2_rec.log

#Pass ID: 20260113_131202_NOAA 21 (JPSS-2)
#Satellite: NOAA 21 (JPSS-2)
#Configuration: NOAA-21
#almurnet v.1.7.20251203
#Start time: 2026-01-13 13:12:04

#Version: 2.2.20231116
#Station: R4.6S_Anadyr
#Location: 177.4865 lon 64.73178 lat
#TLE: 1 54234U 22150A   26012.26378519  .00000063  00000+0  50547-4 0  9993
#TLE: 2 54234  98.7495 313.1967 0000726 309.1075  51.0036 14.19534275164425

#Time	Az	El	Level	Level2	SNR	BER	BlckErr	Temp	State	Recorded	gain1	gain2
2026-01-13 13:12:04.63	18.77	0.11	-48.6	-63.6	3.5	1.51e+00	0	25	0	0	60	54456
2026-01-13 13:12:08.66	18.97	0.33	-48.7	-61.5	3.5	1.52e+00	0	27	104	0	60	41715
2026-01-13 13:12:12.70	19.18	0.56	-48.6	-61.5	3.5	1.51e+00	0	27	104	0	60	41627
2026-01-13 13:12:16.74	19.38	0.78	-48.8	-61.6	3.5	1.52e+00	0	27	104	0	60	42350
2026-01-13 13:12:20.78	19.59	1.01	-48.8	-61.7	3.5	1.52e+00	0	27	104	0	60	42493
2026-01-13 13:12:24.82	19.81	1.24	-48.6	-61.5	3.5	1.52e+00	0	27	104	0	60	41721
2026-01-13 13:12:28.86	20.02	1.47	-48.6	-61.4	3.5	1.51e+00	0	27	104	0	60	41253
2026-01-13 13:12:32.90	20.24	1.70	-48.6	-61.4	3.5	1.52e+00	0	27	104	0	60	41299
2026-01-13 13:12:36.94	20.46	1.94	-48.7	-61.5	3.5	1.51e+00	0	27	104	0	60	41950
2026-01-13 13:12:40.98	20.69	2.17	-48.6	-61.4	3.5	1.52e+00	0	27	104	0	60	41408
2026-01-13 13:12:45.01	20.92	2.41	-48.6	-61.5	3.5	1.52e+00	0	28	104	0	60	41500
2026-01-13 13:12:49.05	21.15	2.65	-48.8	-61.6	3.5	1.52e+00	0	27	104	0	60	42362
2026-01-13 13:12:53.09	21.38	2.89	-48.5	-61.4	3.5	1.52e+00	0	28	104	0	60	41346
2026-01-13 13:12:57.13	21.62	3.13	-48.5	-61.4	3.5	1.52e+00	0	28	104	0	60	41290
2026-01-13 13:13:01.17	21.86	3.37	-48.4	-61.3	3.5	1.52e+00	0	28	104	0	60	40918
2026-01-13 13:13:05.21	22.11	3.62	-48.6	-61.4	3.5	1.51e+00	0	28	104	0	60	41360
2026-01-13 13:13:09.25	22.36	3.87	-48.5	-61.4	3.5	1.52e+00	0	28	104	0	60	41162
2026-01-13 13:13:13.29	22.61	4.12	-48.6	-61.4	3.5	1.52e+00	0	28	104	0	60	41349
2026-01-13 13:13:17.33	22.87	4.37	-48.6	-61.4	3.5	1.52e+00	0	28	104	0	60	41259
2026-01-13 13:13:21.37	23.13	4.62	-48.5	-61.4	3.5	1.52e+00	0	28	104	0	60	41394
2026-01-13 13:13:25.41	23.40	4.88	-48.5	-61.4	3.5	1.52e+00	0	28	104	0	60	41177
2026-01-13 13:13:29.45	23.67	5.13	-48.4	-61.4	3.5	1.51e+00	0	28	104	0	60	41268
2026-01-13 13:13:33.49	23.95	5.39	-48.4	-61.5	3.5	1.52e+00	0	28	104	0	60	41557
2026-01-13 13:13:37.52	24.23	5.65	-48.5	-61.4	3.5	1.52e+00	0	28	104	0	60	41070
2026-01-13 13:13:41.56	24.51	5.92	-48.5	-61.4	3.5	1.51e+00	0	28	104	0	60	41439
2026-01-13 13:13:45.60	24.80	6.18	-48.6	-61.4	3.5	1.52e+00	0	28	104	0	60	41395
2026-01-13 13:13:49.64	25.09	6.45	-48.5	-61.4	3.5	1.52e+00	0	28	104	0	60	41359
2026-01-13 13:13:53.68	25.39	6.72	-48.5	-61.4	3.5	1.52e+00	0	28	104	0	60	41138
2026-01-13 13:13:57.72	25.70	6.99	-48.4	-61.4	3.5	1.51e+00	0	28	104	0	60	41065
2026-01-13 13:14:01.76	26.01	7.27	-48.4	-61.3	3.5	1.52e+00	0	28	104	0	60	40980
2026-01-13 13:14:05.80	26.32	7.54	-48.5	-61.4	3.5	1.52e+00	0	28	104	0	60	41332
2026-01-13 13:14:09.84	26.64	7.82	-48.6	-61.4	3.5	1.52e+00	0	28	104	0	60	41082
2026-01-13 13:14:13.88	26.97	8.10	-48.5	-61.4	3.5	1.52e+00	0	28	104	0	60	41372
2026-01-13 13:14:17.92	27.30	8.39	-48.4	-61.4	3.5	1.52e+00	0	28	104	0	60	41099
2026-01-13 13:14:21.96	27.64	8.67	-48.5	-61.4	3.5	1.52e+00	0	28	104	0	60	41090
2026-01-13 13:14:26.00	27.99	8.96	-48.5	-61.4	3.5	1.51e+00	0	28	104	0	60	41420
2026-01-13 13:14:30.04	28.34	9.25	-48.5	-61.4	3.5	1.52e+00	0	28	104	0	60	41107
2026-01-13 13:14:34.08	28.70	9.54	-48.5	-61.4	3.5	1.52e+00	0	28	104	0	60	41210
2026-01-13 13:14:38.12	29.07	9.84	-48.4	-61.4	3.5	1.51e+00	0	28	104	0	60	41259
2026-01-13 13:14:42.16	29.44	10.14	-48.4	-61.4	3.5	1.52e+00	0	28	104	0	60	41130
2026-01-13 13:14:46.20	29.82	10.44	-48.4	-61.4	3.5	1.51e+00	0	28	104	0	60	41032
2026-01-13 13:14:50.24	30.21	10.74	-48.5	-61.4	3.5	1.52e+00	0	28	104	0	60	41189
2026-01-13 13:14:54.28	30.60	11.05	-48.5	-61.4	3.5	1.52e+00	0	28	104	0	60	41043
2026-01-13 13:14:58.32	31.01	11.36	-48.5	-61.4	3.5	1.52e+00	0	28	104	0	60	41125
2026-01-13 13:15:02.36	31.42	11.67	-48.5	-61.4	3.5	1.52e+00	0	28	104	0	60	41107
2026-01-13 13:15:06.40	31.84	11.99	-48.5	-61.4	3.5	1.52e+00	0	28	104	0	60	41188
2026-01-13 13:15:10.43	32.27	12.30	-48.5	-61.4	3.5	1.52e+00	0	28	104	0	60	41268
2026-01-13 13:15:14.47	32.70	12.62	-48.5	-61.4	3.5	1.52e+00	0	28	104	0	60	41177
2026-01-13 13:15:18.51	33.15	12.95	-48.5	-61.3	3.5	1.52e+00	0	28	104	0	60	40970
2026-01-13 13:15:22.55	33.61	13.27	-48.5	-61.4	3.5	1.52e+00	0	28	104	0	60	41010
2026-01-13 13:15:26.59	34.07	13.60	-48.5	-61.4	3.5	1.52e+00	0	28	104	0	60	41299
2026-01-13 13:15:30.62	34.55	13.93	-48.5	-61.4	3.5	1.52e+00	0	28	104	0	60	41247
2026-01-13 13:15:34.66	35.03	14.27	-48.5	-61.4	3.5	1.52e+00	0	28	104	0	60	41149
2026-01-13 13:15:38.70	35.53	14.60	-48.4	-61.4	3.5	1.52e+00	0	28	104	0	60	41329
2026-01-13 13:15:42.74	36.04	14.94	-48.4	-61.4	3.5	1.52e+00	0	28	104	0	60	41018
2026-01-13 13:15:46.78	36.56	15.28	-48.5	-61.4	3.5	1.52e+00	0	28	104	0	60	41096
2026-01-13 13:15:50.82	37.09	15.63	-48.5	-61.4	3.5	1.52e+00	0	28	104	0	60	41202
2026-01-13 13:15:54.86	37.63	15.98	-48.5	-61.3	3.5	1.52e+00	0	28	104	0	60	40970
2026-01-13 13:15:58.90	38.19	16.33	-48.5	-61.4	3.5	1.51e+00	0	28	104	0	60	41117
2026-01-13 13:16:02.94	38.76	16.68	-48.5	-61.3	3.5	1.52e+00	0	28	104	0	60	40800
2026-01-13 13:16:06.98	39.34	17.03	-48.5	-61.4	3.5	1.52e+00	0	28	104	0	60	41041
2026-01-13 13:16:11.02	39.93	17.39	-48.5	-61.4	3.5	1.52e+00	0	28	104	0	60	41233
2026-01-13 13:16:15.06	40.54	17.75	-48.5	-61.4	3.5	1.52e+00	0	28	104	0	60	41034
2026-01-13 13:16:19.10	41.17	18.11	-48.5	-61.4	3.5	1.52e+00	0	28	104	0	60	41131
2026-01-13 13:16:23.14	41.80	18.48	-48.5	-61.3	3.5	1.52e+00	0	28	104	0	60	40613
2026-01-13 13:16:27.18	42.46	18.84	-48.5	-61.4	3.5	1.52e+00	0	28	104	0	60	41078
2026-01-13 13:16:31.21	43.12	19.21	-48.5	-61.3	3.5	1.52e+00	0	28	104	0	60	40998
2026-01-13 13:16:35.25	43.81	19.58	-48.5	-61.3	3.5	1.51e+00	0	28	104	0	60	40973
2026-01-13 13:16:39.29	44.51	19.95	-48.5	-61.3	3.5	1.52e+00	0	28	104	0	60	40906
2026-01-13 13:16:43.33	45.22	20.33	-48.5	-61.4	3.5	1.52e+00	0	28	104	0	60	41069
2026-01-13 13:16:47.37	45.96	20.70	-48.5	-61.4	3.5	1.52e+00	0	28	104	0	60	41082
2026-01-13 13:16:51.41	46.71	21.07	-48.5	-61.3	3.5	1.52e+00	0	28	104	0	60	40691
2026-01-13 13:16:55.45	47.48	21.45	-48.5	-61.4	3.5	1.52e+00	0	29	104	0	60	41135
2026-01-13 13:16:59.49	48.26	21.82	-48.4	-61.3	3.5	1.52e+00	0	28	104	0	60	40872
2026-01-13 13:17:03.53	49.07	22.20	-48.5	-61.3	3.5	1.52e+00	0	29	104	0	60	40824
2026-01-13 13:17:07.57	49.90	22.57	-48.5	-61.2	3.5	1.52e+00	0	29	104	0	60	40350
2026-01-13 13:17:11.61	50.74	22.95	-48.5	-61.3	3.5	1.52e+00	0	28	104	0	60	40954
2026-01-13 13:17:15.65	51.61	23.32	-48.4	-61.3	3.5	1.52e+00	0	28	104	0	60	40778
2026-01-13 13:17:19.69	52.49	23.70	-48.4	-61.3	3.5	1.52e+00	0	28	104	0	60	40764
2026-01-13 13:17:23.73	53.40	24.07	-48.4	-61.3	3.5	1.52e+00	0	28	104	0	60	40867
2026-01-13 13:17:27.77	54.33	24.43	-48.5	-61.2	3.5	1.52e+00	0	28	104	0	60	40530
2026-01-13 13:17:31.81	55.28	24.80	-48.4	-61.2	3.5	1.51e+00	0	28	104	0	60	40511
2026-01-13 13:17:35.84	56.25	25.16	-48.4	-61.3	3.5	1.52e+00	0	28	104	0	60	40656
2026-01-13 13:17:39.88	57.24	25.52	-48.4	-61.3	3.5	1.51e+00	0	28	104	0	60	40590
2026-01-13 13:17:43.93	58.26	25.88	-48.4	-61.2	3.5	1.52e+00	0	29	104	0	60	40525
2026-01-13 13:17:47.97	59.30	26.23	-48.3	-61.3	3.5	1.52e+00	0	29	104	0	60	40606
2026-01-13 13:17:52.01	60.36	26.57	-48.4	-61.3	3.5	1.52e+00	0	28	104	0	60	40638
2026-01-13 13:17:56.05	61.44	26.91	-48.3	-61.3	3.5	1.52e+00	0	28	104	0	60	40551
2026-01-13 13:18:00.09	62.55	27.24	-48.3	-61.2	3.5	1.52e+00	0	29	104	0	60	40191
2026-01-13 13:18:04.13	63.67	27.56	-48.3	-61.2	3.5	1.52e+00	0	29	104	0	60	40288
2026-01-13 13:18:08.17	64.82	27.88	-48.3	-61.2	3.5	1.52e+00	0	28	104	0	60	40182
2026-01-13 13:18:12.21	66.00	28.19	-48.4	-61.2	3.5	1.51e+00	0	28	104	0	60	40126
2026-01-13 13:18:16.26	67.20	28.48	-48.4	-61.2	3.5	1.52e+00	0	28	104	0	60	40306
2026-01-13 13:18:20.29	68.41	28.77	-48.3	-61.1	3.5	1.52e+00	0	28	104	0	60	40046
2026-01-13 13:18:24.33	69.65	29.05	-48.3	-61.2	3.5	1.52e+00	0	28	104	0	60	40149
2026-01-13 13:18:28.38	70.91	29.31	-48.3	-61.2	3.5	1.52e+00	0	29	104	0	60	40257
2026-01-13 13:18:32.42	72.19	29.56	-48.3	-61.2	3.5	1.52e+00	0	28	104	0	60	40188
2026-01-13 13:18:36.46	73.49	29.80	-48.3	-61.2	3.5	1.52e+00	0	28	104	0	60	40133
2026-01-13 13:18:40.50	74.80	30.02	-48.3	-61.2	3.5	1.52e+00	0	28	104	0	60	40073
2026-01-13 13:18:44.54	76.14	30.23	-48.3	-61.2	3.5	1.51e+00	0	28	104	0	60	40142
2026-01-13 13:18:48.57	77.48	30.42	-48.3	-61.2	3.5	1.52e+00	0	28	104	0	60	40173
2026-01-13 13:18:52.61	78.85	30.60	-48.2	-61.1	3.5	1.52e+00	0	29	104	0	60	39951
2026-01-13 13:18:56.65	80.23	30.76	-48.3	-61.1	3.5	1.52e+00	0	29	104	0	60	39978
2026-01-13 13:19:00.68	81.62	30.91	-48.3	-61.1	3.5	1.52e+00	0	29	104	0	60	39836
2026-01-13 13:19:04.72	83.02	31.03	-48.3	-61.1	3.5	1.52e+00	0	28	104	0	60	39677
2026-01-13 13:19:08.76	84.44	31.14	-48.2	-61.1	3.5	1.52e+00	0	28	104	0	60	39669
2026-01-13 13:19:12.80	85.86	31.23	-48.2	-61.1	3.5	1.52e+00	0	28	104	0	60	39744
2026-01-13 13:19:16.84	87.29	31.30	-48.2	-61.1	3.5	1.52e+00	0	28	104	0	60	39650
2026-01-13 13:19:20.88	88.73	31.35	-48.2	-61.0	3.5	1.52e+00	0	28	104	0	60	39579
2026-01-13 13:19:24.92	90.17	31.38	-48.2	-61.0	3.5	1.52e+00	0	28	104	0	60	39491
2026-01-13 13:19:28.96	91.61	31.39	-48.2	-61.0	3.5	1.52e+00	0	28	104	0	60	39435
2026-01-13 13:19:33.00	93.05	31.38	-48.2	-61.0	3.5	1.52e+00	0	29	104	0	60	39279
2026-01-13 13:19:37.04	94.49	31.35	-48.1	-61.0	3.5	1.52e+00	0	28	104	0	60	39537
2026-01-13 13:19:41.08	95.93	31.31	-48.1	-61.0	3.5	1.52e+00	0	29	104	0	60	39223
2026-01-13 13:19:45.12	97.36	31.24	-48.1	-60.9	3.5	1.52e+00	0	29	104	0	60	39077
2026-01-13 13:19:49.16	98.79	31.15	-48.1	-60.9	3.5	1.52e+00	0	29	104	0	60	39111
2026-01-13 13:19:53.20	100.21	31.05	-48.1	-60.9	3.5	1.51e+00	0	29	104	0	60	39091
2026-01-13 13:19:57.24	101.62	30.93	-48.1	-61.0	3.5	1.52e+00	0	28	104	0	60	39198
2026-01-13 13:20:01.28	103.01	30.79	-48.1	-60.9	3.5	1.52e+00	0	29	104	0	60	38970
2026-01-13 13:20:05.32	104.40	30.63	-48.0	-60.8	3.5	1.52e+00	0	29	104	0	60	38694
2026-01-13 13:20:09.36	105.77	30.45	-48.0	-60.8	3.5	1.52e+00	0	28	104	0	60	38690
2026-01-13 13:20:13.39	107.12	30.26	-48.0	-60.8	3.5	1.51e+00	0	28	104	0	60	38520
2026-01-13 13:20:17.44	108.47	30.05	-47.9	-60.8	3.5	1.52e+00	0	29	104	0	60	38529
2026-01-13 13:20:21.48	109.79	29.83	-48.0	-60.8	3.5	1.52e+00	0	28	104	0	60	38609
2026-01-13 13:20:25.52	111.09	29.60	-48.0	-60.8	3.5	1.52e+00	0	28	104	0	60	38671
2026-01-13 13:20:29.56	112.38	29.35	-47.9	-60.7	3.5	1.52e+00	0	29	104	0	60	38227
2026-01-13 13:20:33.60	113.64	29.08	-47.9	-60.7	3.5	1.52e+00	0	28	104	0	60	38233
2026-01-13 13:20:37.64	114.89	28.81	-47.9	-60.8	3.5	1.52e+00	0	29	104	0	60	38344
2026-01-13 13:20:41.68	116.11	28.52	-47.7	-60.7	3.5	1.52e+00	0	29	104	0	60	38189
2026-01-13 13:20:45.72	117.31	28.22	-47.6	-60.7	3.5	1.51e+00	0	29	104	0	60	38125
2026-01-13 13:20:49.77	118.50	27.92	-47.8	-60.7	3.5	1.51e+00	0	28	104	0	60	37868
2026-01-13 13:20:53.81	119.65	27.60	-47.8	-60.7	3.5	1.52e+00	0	29	104	0	60	37972
2026-01-13 13:20:57.85	120.79	27.28	-47.8	-60.7	3.5	1.52e+00	0	29	104	0	60	37885
2026-01-13 13:21:01.89	121.90	26.94	-47.7	-60.6	3.5	1.52e+00	0	29	104	0	60	37763
2026-01-13 13:21:05.93	122.99	26.61	-47.8	-60.7	3.5	1.52e+00	0	29	104	0	60	37843
2026-01-13 13:21:09.97	124.06	26.26	-47.8	-60.7	3.5	1.52e+00	0	28	104	0	60	37837
2026-01-13 13:21:14.01	125.10	25.91	-47.8	-60.6	3.5	1.52e+00	0	29	104	0	60	37629
2026-01-13 13:21:18.05	126.13	25.55	-47.8	-60.6	3.5	1.52e+00	0	29	104	0	60	37609
2026-01-13 13:21:22.09	127.13	25.19	-47.7	-60.6	3.5	1.51e+00	0	29	104	0	60	37480
2026-01-13 13:21:26.13	128.10	24.83	-47.7	-60.6	3.5	1.52e+00	0	29	104	0	60	37579
2026-01-13 13:21:30.17	129.06	24.46	-47.7	-60.6	3.5	1.52e+00	0	29	104	0	60	37439
2026-01-13 13:21:34.21	130.00	24.09	-47.6	-60.5	3.5	1.52e+00	0	29	104	0	60	37392
2026-01-13 13:21:38.25	130.91	23.72	-47.6	-60.5	3.5	1.52e+00	0	28	104	0	60	36972
2026-01-13 13:21:42.29	131.80	23.34	-47.6	-60.5	3.4	1.52e+00	0	28	104	0	60	37189
2026-01-13 13:21:46.33	132.67	22.97	-47.6	-60.5	3.5	1.52e+00	0	29	104	0	60	37061
2026-01-13 13:21:50.37	133.52	22.59	-47.6	-60.5	3.5	1.52e+00	0	29	104	0	60	37026
2026-01-13 13:21:54.41	134.35	22.21	-47.6	-60.4	3.5	1.52e+00	0	29	104	0	60	36921
2026-01-13 13:21:58.45	135.17	21.83	-47.6	-60.4	3.5	1.52e+00	0	29	104	0	60	36742
2026-01-13 13:22:02.49	135.96	21.46	-47.5	-60.4	3.5	1.52e+00	0	29	104	0	60	36735
2026-01-13 13:22:06.53	136.73	21.08	-47.5	-60.3	3.5	1.52e+00	0	28	104	0	60	36476
2026-01-13 13:22:10.57	137.49	20.70	-47.4	-60.3	3.5	1.51e+00	0	29	104	0	60	36265
2026-01-13 13:22:14.61	138.23	20.32	-47.4	-60.3	3.5	1.52e+00	0	29	104	0	60	36284
2026-01-13 13:22:18.66	138.95	19.95	-47.4	-60.3	3.5	1.52e+00	0	29	104	0	60	36154
2026-01-13 13:22:22.70	139.66	19.57	-47.4	-60.2	3.5	1.52e+00	0	29	104	0	60	35964
2026-01-13 13:22:26.74	140.34	19.20	-47.4	-60.2	3.5	1.52e+00	0	29	104	0	60	35891
2026-01-13 13:22:30.78	141.01	18.83	-47.3	-60.1	3.5	1.52e+00	0	29	104	0	60	35707
2026-01-13 13:22:34.81	141.67	18.46	-47.3	-60.1	3.5	1.52e+00	0	29	104	0	60	35534
2026-01-13 13:22:38.85	142.31	18.09	-47.2	-60.0	3.5	1.52e+00	0	29	104	0	60	35290
2026-01-13 13:22:42.89	142.94	17.73	-47.2	-60.0	3.5	1.52e+00	0	29	104	0	60	35083
2026-01-13 13:22:46.93	143.55	17.37	-47.1	-60.0	3.5	1.52e+00	0	28	104	0	60	34977
2026-01-13 13:22:50.97	144.15	17.01	-47.1	-59.9	3.5	1.52e+00	0	29	104	0	60	34871
2026-01-13 13:22:55.01	144.73	16.65	-47.0	-59.8	3.5	1.51e+00	0	29	104	0	60	34484
2026-01-13 13:22:59.05	145.30	16.29	-47.0	-59.8	3.5	1.52e+00	0	29	104	0	60	34321
2026-01-13 13:23:03.09	145.86	15.94	-46.9	-59.7	3.5	1.51e+00	0	28	104	0	60	34055
2026-01-13 13:23:07.13	146.40	15.59	-47.5	-60.4	3.5	1.52e+00	0	28	104	0	60	36639
2026-01-13 13:23:11.17	146.94	15.24	-48.3	-61.2	3.5	1.52e+00	0	28	104	0	60	40253
2026-01-13 13:23:15.21	147.46	14.90	-48.4	-61.3	3.5	1.52e+00	0	29	104	0	60	40732
2026-01-13 13:23:19.25	147.97	14.55	-48.3	-61.3	3.5	1.52e+00	0	28	104	0	60	40553
2026-01-13 13:23:23.29	148.47	14.21	-48.4	-61.2	3.5	1.52e+00	0	28	104	0	60	40409
2026-01-13 13:23:27.33	148.95	13.88	-48.1	-61.1	3.5	1.52e+00	0	28	104	0	60	39971
2026-01-13 13:23:31.37	149.43	13.54	-38.6	-40.1	19.2	1.03e+00	0	28	104	0	50	6332
2026-01-13 13:23:35.40	149.90	13.21	-45.3	-49.4	12.1	1.36e+00	0	28	104	9437184	60	10341
2026-01-13 13:23:39.45	150.36	12.88	-36.4	-37.4	22.0	0.00e+00	0	28	0	19922944	46	5806
2026-01-13 13:23:43.49	150.80	12.56	-35.1	-36.1	23.2	0.00e+00	0	28	0	32505856	44	5615
2026-01-13 13:23:47.52	151.24	12.24	-35.3	-36.3	23.0	0.00e+00	0	28	0	45088768	44	5739
2026-01-13 13:23:51.56	151.67	11.92	-35.4	-36.3	23.0	0.00e+00	0	28	0	57671680	44	5788
2026-01-13 13:23:55.61	152.09	11.60	-35.4	-36.4	22.8	0.00e+00	0	28	0	70254592	44	5816
2026-01-13 13:23:59.65	152.50	11.28	-35.7	-36.7	22.5	0.00e+00	0	28	0	82837504	44	6047
2026-01-13 13:24:03.68	152.91	10.97	-36.0	-37.0	22.1	0.00e+00	0	28	0	95420416	44	6276
2026-01-13 13:24:07.72	153.30	10.66	-36.8	-37.9	21.2	0.00e+00	0	28	0	108003328	46	6153
2026-01-13 13:24:11.75	153.69	10.36	-37.7	-39.0	20.0	0.00e+00	0	28	0	120586240	48	6213
2026-01-13 13:24:15.79	154.07	10.05	-38.8	-40.2	18.6	0.00e+00	0	28	0	133169152	48	7171
2026-01-13 13:24:19.83	154.44	9.75	-39.6	-41.2	17.3	0.00e+00	0	28	0	145752064	50	7177
2026-01-13 13:24:23.87	154.81	9.45	-40.8	-42.8	15.6	0.00e+00	0	28	0	158334976	54	6865
2026-01-13 13:24:27.91	155.17	9.16	-40.7	-42.6	15.9	0.00e+00	0	28	0	170917888	54	6695
2026-01-13 13:24:31.95	155.52	8.87	-39.9	-41.6	17.1	0.00e+00	0	28	0	183500800	54	5960
2026-01-13 13:24:35.99	155.86	8.57	-38.7	-40.1	18.7	0.00e+00	0	29	0	196083712	50	6289
2026-01-13 13:24:40.03	156.20	8.29	-37.8	-39.0	19.9	0.00e+00	0	28	0	208666624	50	5566
2026-01-13 13:24:44.06	156.53	8.00	-37.2	-38.4	20.6	0.00e+00	0	28	0	221249536	48	5814
2026-01-13 13:24:48.10	156.86	7.72	-37.0	-38.1	21.1	0.00e+00	0	28	0	233832448	48	5638
2026-01-13 13:24:52.13	157.18	7.44	-36.8	-37.9	21.4	0.00e+00	0	28	0	246415360	46	6160
2026-01-13 13:24:56.17	157.49	7.16	-36.6	-37.7	21.5	0.00e+00	0	28	0	258998272	46	6051
2026-01-13 13:25:00.21	157.80	6.88	-37.0	-38.1	21.2	0.00e+00	0	28	0	272629760	46	6319
2026-01-13 13:25:04.25	158.10	6.61	-36.7	-37.8	21.4	0.00e+00	0	28	0	285212672	46	6090
2026-01-13 13:25:08.29	158.40	6.34	-37.1	-38.3	21.0	0.00e+00	0	28	0	297795584	46	6446
2026-01-13 13:25:12.33	158.69	6.07	-37.4	-38.6	20.7	0.00e+00	0	29	0	310378496	48	5955
2026-01-13 13:25:16.37	158.98	5.80	-37.4	-38.6	20.5	0.00e+00	0	28	0	322961408	48	5970
2026-01-13 13:25:20.41	159.26	5.53	-37.7	-38.9	20.2	0.00e+00	0	28	0	335544320	48	6141
2026-01-13 13:25:24.45	159.54	5.27	-37.3	-38.4	20.6	0.00e+00	0	28	0	348127232	48	5834
2026-01-13 13:25:28.49	159.81	5.01	-37.4	-38.6	20.4	0.00e+00	0	28	0	360710144	48	5960
2026-01-13 13:25:32.53	160.08	4.75	-37.4	-38.5	20.4	0.00e+00	0	28	0	373293056	48	5909
2026-01-13 13:25:36.57	160.35	4.49	-37.3	-38.5	20.5	0.00e+00	0	28	0	385875968	48	5872
2026-01-13 13:25:40.61	160.61	4.24	-37.6	-38.8	20.0	0.00e+00	0	28	0	398458880	48	6084
2026-01-13 13:25:44.65	160.86	3.99	-37.5	-38.7	20.2	0.00e+00	0	28	0	411041792	48	6028
2026-01-13 13:25:48.68	161.11	3.74	-37.8	-39.0	20.0	0.00e+00	0	28	0	423624704	48	6262
2026-01-13 13:25:52.73	161.36	3.49	-37.7	-38.9	19.9	0.00e+00	0	28	0	436207616	48	6200
2026-01-13 13:25:56.76	161.60	3.24	-38.3	-39.6	19.2	0.00e+00	0	28	0	448790528	48	6676
2026-01-13 13:26:00.80	161.84	2.99	-47.2	-59.8	3.5	1.04e+00	0	28	104	460324864	60	34491
2026-01-13 13:26:04.85	162.08	2.75	-48.3	-61.1	3.5	1.52e+00	0	28	104	460324864	60	40028
2026-01-13 13:26:08.88	162.31	2.51	-48.6	-61.5	3.5	1.52e+00	0	28	104	460324864	60	41625
2026-01-13 13:26:12.92	162.54	2.27	-48.6	-61.4	3.5	1.52e+00	0	29	104	460324864	60	41267
2026-01-13 13:26:16.96	162.77	2.03	-48.5	-61.3	3.5	1.52e+00	0	28	104	460324864	60	40964
2026-01-13 13:26:21.00	162.99	1.79	-48.5	-61.3	3.5	1.52e+00	0	28	104	460324864	60	40946
2026-01-13 13:26:25.04	163.21	1.55	-48.5	-61.4	3.5	1.52e+00	0	28	104	460324864	60	41095
2026-01-13 13:26:29.08	163.42	1.32	-48.5	-61.4	3.5	1.52e+00	0	28	104	460324864	60	41016
2026-01-13 13:26:33.12	163.64	1.09	-48.5	-61.4	3.5	1.51e+00	0	28	104	460324864	60	41048
2026-01-13 13:26:37.16	163.85	0.86	-48.5	-61.4	3.5	1.52e+00	0	28	104	460324864	60	41065
2026-01-13 13:26:41.20	164.05	0.63	-48.5	-61.4	3.5	1.52e+00	0	28	104	460324864	60	41148
2026-01-13 13:26:45.24	164.26	0.40	-48.5	-61.3	3.5	1.52e+00	0	28	104	460324864	60	40996
2026-01-13 13:26:49.28	164.46	0.17	-48.5	-61.4	3.5	1.52e+00	0	28	104	460324864	60	41243

#Closed at: 2026-01-13 13:26:53
#Recorded file [460 MB]: D:/lorett/data/35029_260114_011204.dat