passes_logs/2026/01/13/R4.6S_Anadyr/R4.6S_Anadyr__20260113_145230_NOAA_21_JPSS-2_rec.log

#Pass ID: 20260113_145230_NOAA 21 (JPSS-2)
#Satellite: NOAA 21 (JPSS-2)
#Configuration: NOAA-21
#almurnet v.1.7.20251203
#Start time: 2026-01-13 14:52:31

#Version: 2.2.20231116
#Station: R4.6S_Anadyr
#Location: 177.4865 lon 64.73178 lat
#TLE: 1 54234U 22150A   26012.26378519  .00000063  00000+0  50547-4 0  9993
#TLE: 2 54234  98.7495 313.1967 0000726 309.1075  51.0036 14.19534275164425

#Time	Az	El	Level	Level2	SNR	BER	BlckErr	Temp	State	Recorded	gain1	gain2
2026-01-13 14:52:31.73	20.81	0.08	-48.5	-63.4	3.5	1.51e+00	0	24	0	0	60	53286
2026-01-13 14:52:35.77	20.81	0.32	-48.6	-61.5	3.5	1.52e+00	0	26	104	0	60	41543
2026-01-13 14:52:39.81	20.81	0.57	-48.5	-61.4	3.5	1.51e+00	0	26	104	0	60	41176
2026-01-13 14:52:43.85	20.81	0.81	-47.9	-60.7	3.5	1.52e+00	0	26	104	0	60	38198
2026-01-13 14:52:47.89	20.81	1.06	-47.1	-59.9	3.5	1.52e+00	0	26	104	0	60	34682
2026-01-13 14:52:51.93	20.81	1.31	-47.0	-59.7	3.5	1.51e+00	0	26	104	0	60	33730
2026-01-13 14:52:55.97	20.81	1.57	-47.0	-59.4	3.5	1.52e+00	0	27	104	0	60	32842
2026-01-13 14:53:00.00	20.81	1.82	-47.0	-59.7	3.5	1.52e+00	0	27	104	0	60	34059
2026-01-13 14:53:04.03	20.81	2.08	-47.0	-59.8	3.5	1.52e+00	0	27	104	0	60	34142
2026-01-13 14:53:08.07	20.80	2.34	-46.9	-59.0	3.5	1.52e+00	0	27	104	0	60	31335
2026-01-13 14:53:12.11	20.80	2.60	-46.7	-57.2	3.6	1.49e+00	0	27	104	0	60	25451
2026-01-13 14:53:16.15	20.80	2.86	-46.5	-55.7	4.5	1.31e+00	41	27	104	0	60	21339
2026-01-13 14:53:20.18	20.80	3.13	-43.7	-46.7	12.3	1.66e-03	0	27	0	9437184	60	7606
2026-01-13 14:53:24.22	20.79	3.40	-41.8	-43.9	15.1	0.00e+00	0	27	0	22020096	56	6948
2026-01-13 14:53:28.26	20.79	3.67	-42.3	-44.6	14.3	1.50e-06	0	27	0	34603008	56	7507
2026-01-13 14:53:32.30	20.78	3.94	-46.8	-59.0	3.5	1.51e+00	0	27	104	46137344	60	31378
2026-01-13 14:53:36.33	20.78	4.22	-37.7	-38.9	20.0	0.00e+00	0	27	0	47185920	50	5517
2026-01-13 14:53:40.37	20.77	4.50	-37.3	-38.5	20.5	0.00e+00	0	27	0	59768832	48	5881
2026-01-13 14:53:44.41	20.77	4.78	-37.6	-38.8	20.2	0.00e+00	0	27	0	72351744	48	6125
2026-01-13 14:53:48.45	20.76	5.07	-37.4	-38.5	20.5	0.00e+00	0	27	0	84934656	48	5923
2026-01-13 14:53:52.48	20.76	5.36	-37.0	-38.1	20.9	0.00e+00	0	27	0	97517568	48	5657
2026-01-13 14:53:56.52	20.75	5.65	-37.0	-38.1	21.0	0.00e+00	0	27	0	110100480	48	5626
2026-01-13 14:54:00.56	20.74	5.95	-37.4	-38.6	20.6	0.00e+00	0	27	0	122683392	48	5939
2026-01-13 14:54:04.60	20.73	6.25	-36.9	-38.0	21.1	0.00e+00	0	27	0	135266304	48	5572
2026-01-13 14:54:08.64	20.72	6.55	-36.6	-37.7	21.4	0.00e+00	0	27	0	147849216	46	6020
2026-01-13 14:54:12.68	20.71	6.86	-36.7	-37.8	21.3	0.00e+00	0	27	0	160432128	46	6119
2026-01-13 14:54:16.71	20.70	7.17	-36.4	-37.4	21.7	0.00e+00	0	27	0	173015040	46	5852
2026-01-13 14:54:20.75	20.69	7.48	-36.4	-37.5	21.7	0.00e+00	0	27	0	185597952	46	5866
2026-01-13 14:54:24.79	20.68	7.80	-36.2	-37.3	21.9	0.00e+00	0	27	0	198180864	46	5737
2026-01-13 14:54:28.82	20.67	8.12	-36.2	-37.3	21.9	0.00e+00	0	27	0	210763776	46	5755
2026-01-13 14:54:32.86	20.66	8.45	-36.4	-37.5	21.9	0.00e+00	0	27	0	223346688	46	5875
2026-01-13 14:54:36.90	20.65	8.78	-36.2	-37.2	22.1	0.00e+00	0	27	0	236978176	46	5722
2026-01-13 14:54:40.94	20.63	9.11	-35.9	-37.0	22.3	0.00e+00	0	27	0	248512512	46	5534
2026-01-13 14:54:44.98	20.62	9.45	-35.8	-36.8	22.4	0.00e+00	0	27	0	262144000	44	6108
2026-01-13 14:54:49.02	20.60	9.79	-35.7	-36.7	22.5	0.00e+00	0	27	0	274726912	44	6013
2026-01-13 14:54:53.06	20.59	10.14	-35.5	-36.5	22.6	0.00e+00	0	27	0	287309824	44	5923
2026-01-13 14:54:57.09	20.57	10.50	-35.4	-36.4	22.8	0.00e+00	0	27	0	299892736	44	5805
2026-01-13 14:55:01.13	20.55	10.85	-35.3	-36.3	22.9	0.00e+00	0	27	0	312475648	44	5749
2026-01-13 14:55:05.17	20.53	11.22	-35.1	-36.1	23.0	0.00e+00	0	27	0	325058560	44	5628
2026-01-13 14:55:09.20	20.51	11.59	-35.1	-36.1	23.0	0.00e+00	0	27	0	337641472	44	5629
2026-01-13 14:55:13.24	20.49	11.96	-34.9	-35.9	23.3	0.00e+00	0	27	0	350224384	44	5494
2026-01-13 14:55:17.28	20.47	12.34	-34.8	-35.8	23.4	0.00e+00	0	27	0	362807296	44	5409
2026-01-13 14:55:21.32	20.45	12.73	-34.8	-35.8	23.5	0.00e+00	0	27	0	375390208	42	6070
2026-01-13 14:55:25.36	20.43	13.12	-34.6	-35.5	23.7	0.00e+00	0	27	0	387973120	42	5918
2026-01-13 14:55:29.39	20.40	13.52	-34.4	-35.3	23.9	0.00e+00	0	27	0	400556032	42	5747
2026-01-13 14:55:33.43	20.37	13.93	-34.4	-35.4	23.8	0.00e+00	0	27	0	413138944	42	5792
2026-01-13 14:55:37.47	20.35	14.34	-34.3	-35.3	23.9	0.00e+00	0	27	0	425721856	42	5738
2026-01-13 14:55:41.51	20.32	14.76	-34.3	-35.2	23.9	0.00e+00	0	27	0	438304768	42	5707
2026-01-13 14:55:45.54	20.29	15.19	-34.4	-35.3	23.8	0.00e+00	0	27	0	450887680	42	5761
2026-01-13 14:55:49.58	20.26	15.63	-34.2	-35.2	24.0	0.00e+00	0	27	0	463470592	42	5666
2026-01-13 14:55:53.62	20.23	16.07	-34.3	-35.2	24.0	0.00e+00	0	27	0	476053504	42	5715
2026-01-13 14:55:57.66	20.19	16.52	-34.3	-35.2	23.9	0.00e+00	0	27	0	488636416	42	5724
2026-01-13 14:56:01.70	20.16	16.98	-34.3	-35.2	23.9	0.00e+00	0	27	0	501219328	42	5676
2026-01-13 14:56:05.74	20.12	17.45	-34.4	-35.3	23.9	0.00e+00	0	27	0	513802240	42	5740
2026-01-13 14:56:09.78	20.08	17.93	-34.3	-35.3	23.9	0.00e+00	0	27	0	526385152	42	5734
2026-01-13 14:56:13.82	20.04	18.42	-34.4	-35.3	23.9	0.00e+00	0	27	0	538968064	42	5749
2026-01-13 14:56:17.86	20.00	18.92	-34.4	-35.3	24.0	0.00e+00	0	27	0	551550976	42	5731
2026-01-13 14:56:21.90	19.96	19.42	-34.2	-35.1	24.1	0.00e+00	0	27	0	564133888	42	5659
2026-01-13 14:56:25.94	19.91	19.94	-34.2	-35.1	24.1	0.00e+00	0	27	0	576716800	42	5604
2026-01-13 14:56:29.98	19.86	20.47	-33.9	-34.8	24.3	0.00e+00	0	27	0	589299712	42	5428
2026-01-13 14:56:34.01	19.81	21.01	-33.6	-34.5	24.5	0.00e+00	0	27	0	602931200	40	5905
2026-01-13 14:56:38.05	19.76	21.56	-33.5	-34.3	24.7	0.00e+00	0	27	0	615514112	40	5789
2026-01-13 14:56:42.09	19.70	22.13	-33.2	-34.0	24.8	0.00e+00	0	27	0	628097024	40	5578
2026-01-13 14:56:46.12	19.64	22.71	-32.9	-33.7	25.2	0.00e+00	0	27	0	640679936	40	5397
2026-01-13 14:56:50.16	19.58	23.30	-32.7	-33.5	25.2	0.00e+00	0	27	0	653262848	38	5908
2026-01-13 14:56:54.20	19.52	23.90	-32.6	-33.4	25.5	0.00e+00	0	27	0	665845760	38	5826
2026-01-13 14:56:58.24	19.45	24.52	-32.6	-33.5	25.3	0.00e+00	0	27	0	678428672	38	5882
2026-01-13 14:57:02.28	19.38	25.15	-32.7	-33.5	25.3	0.00e+00	0	28	0	691011584	38	5907
2026-01-13 14:57:06.32	19.30	25.80	-33.1	-33.9	25.0	0.00e+00	0	27	0	703594496	38	6188
2026-01-13 14:57:10.36	19.22	26.47	-33.6	-34.4	24.6	0.00e+00	0	27	0	716177408	38	6559
2026-01-13 14:57:14.40	19.14	27.15	-34.0	-34.9	24.4	0.00e+00	0	28	0	728760320	40	6198
2026-01-13 14:57:18.43	19.05	27.85	-34.3	-35.2	24.2	0.00e+00	0	27	0	741343232	40	6379
2026-01-13 14:57:22.47	18.96	28.57	-34.6	-35.5	24.0	0.00e+00	0	28	0	753926144	40	6608
2026-01-13 14:57:26.50	18.87	29.31	-34.4	-35.4	24.1	0.00e+00	0	28	0	766509056	42	5792
2026-01-13 14:57:30.54	18.76	30.06	-34.0	-34.9	24.4	0.00e+00	0	28	0	779091968	42	5502
2026-01-13 14:57:34.58	18.66	30.84	-33.7	-34.6	24.7	0.00e+00	0	27	0	791674880	40	5958
2026-01-13 14:57:38.62	18.54	31.64	-33.6	-34.4	24.7	0.00e+00	0	28	0	804257792	40	5846
2026-01-13 14:57:42.66	18.42	32.46	-33.7	-34.6	24.6	0.00e+00	0	28	0	816840704	40	5956
2026-01-13 14:57:46.70	18.29	33.30	-34.2	-35.1	24.2	0.00e+00	0	27	0	829423616	40	6344
2026-01-13 14:57:50.73	18.16	34.17	-35.2	-36.1	23.5	0.00e+00	0	27	0	842006528	42	6320
2026-01-13 14:57:54.78	18.01	35.06	-35.7	-36.7	23.0	0.00e+00	0	28	0	854589440	42	6783
2026-01-13 14:57:58.81	17.86	35.98	-35.8	-36.8	22.9	0.00e+00	0	28	0	867172352	44	6084
2026-01-13 14:58:02.85	17.70	36.92	-35.9	-36.9	22.7	0.00e+00	0	28	0	879755264	44	6163
2026-01-13 14:58:06.88	17.53	37.89	-35.9	-37.0	22.5	0.00e+00	0	27	0	892338176	44	6219
2026-01-13 14:58:10.92	17.34	38.90	-36.0	-37.0	22.7	0.00e+00	0	28	0	904921088	44	6245
2026-01-13 14:58:14.96	17.14	39.93	-36.0	-37.0	22.8	0.00e+00	0	28	0	917504000	44	6244
2026-01-13 14:58:19.00	16.93	40.99	-36.1	-37.1	22.8	0.00e+00	0	27	0	930086912	44	6305
2026-01-13 14:58:23.04	16.70	42.08	-36.2	-37.2	22.6	0.00e+00	0	28	0	942669824	44	6410
2026-01-13 14:58:27.07	16.45	43.21	-36.9	-37.9	22.1	0.00e+00	0	27	0	955252736	46	6186
2026-01-13 14:58:31.11	16.19	44.37	-36.6	-37.7	22.4	0.00e+00	0	27	0	968884224	46	6008
2026-01-13 14:58:35.16	15.90	45.57	-37.1	-38.1	21.9	0.00e+00	0	28	0	981467136	46	6313
2026-01-13 14:58:39.20	15.59	46.80	-36.8	-37.9	21.9	0.00e+00	0	27	0	994050048	46	6159
2026-01-13 14:58:43.24	15.25	48.06	-36.2	-37.2	22.7	0.00e+00	0	28	0	1006632960	46	5692
2026-01-13 14:58:47.28	14.88	49.37	-35.7	-36.7	22.9	0.00e+00	0	27	0	1019215872	46	5369
2026-01-13 14:58:51.31	14.48	50.71	-36.1	-37.1	22.7	0.00e+00	0	27	0	1031798784	44	6345
2026-01-13 14:58:55.35	14.04	52.09	-35.5	-36.4	23.0	0.00e+00	0	27	0	1044381696	44	5831
2026-01-13 14:58:59.38	13.55	53.50	-35.2	-36.2	23.5	0.00e+00	0	28	0	1056964608	44	5678
2026-01-13 14:59:03.42	13.01	54.96	-34.2	-35.2	24.1	0.00e+00	0	27	0	1069547520	42	5662
2026-01-13 14:59:07.46	12.41	56.45	-33.9	-34.8	24.5	0.00e+00	0	27	0	1082130432	42	5456
2026-01-13 14:59:11.49	11.74	57.98	-33.1	-33.9	25.2	0.00e+00	0	28	0	1094713344	40	5527
2026-01-13 14:59:15.53	10.98	59.55	-33.0	-33.8	25.2	0.00e+00	0	27	0	1107296256	40	5445
2026-01-13 14:59:19.57	10.12	61.16	-33.1	-33.9	25.0	0.00e+00	0	27	0	1119879168	40	5516
2026-01-13 14:59:23.61	9.14	62.80	-32.6	-33.4	25.3	0.00e+00	0	27	0	1132462080	38	5854
2026-01-13 14:59:27.64	8.02	64.46	-32.4	-33.2	25.6	0.00e+00	0	28	0	1145044992	38	5708
2026-01-13 14:59:31.68	6.71	66.16	-32.0	-32.8	25.8	0.00e+00	0	27	0	1157627904	38	5429
2026-01-13 14:59:35.71	5.18	67.88	-32.3	-33.2	25.7	0.00e+00	0	27	0	1170210816	38	5666
2026-01-13 14:59:39.76	3.35	69.62	-33.0	-33.9	25.1	0.00e+00	0	27	0	1182793728	38	6141
2026-01-13 14:59:43.79	1.17	71.36	-33.0	-33.9	25.3	0.00e+00	0	27	0	1195376640	38	6168
2026-01-13 14:59:47.84	358.48	73.11	-32.9	-33.7	25.2	0.00e+00	0	27	0	1207959552	38	6059
2026-01-13 14:59:51.87	355.15	74.84	-32.9	-33.8	24.9	0.00e+00	0	27	0	1220542464	38	6102
2026-01-13 14:59:55.91	350.93	76.52	-32.4	-33.3	25.1	0.00e+00	0	28	0	1233125376	38	5752
2026-01-13 14:59:59.95	345.49	78.13	-32.8	-33.7	25.1	0.00e+00	0	27	0	1245708288	38	6002
2026-01-13 15:00:03.99	338.36	79.62	-33.0	-33.9	25.1	0.00e+00	0	27	0	1258291200	38	6176
2026-01-13 15:00:08.03	328.98	80.91	-32.8	-33.7	25.3	0.00e+00	0	28	0	1270874112	38	6002
2026-01-13 15:00:12.07	316.89	81.90	-33.0	-33.9	25.1	0.00e+00	0	28	0	1283457024	38	6143
2026-01-13 15:00:16.11	302.27	82.44	-33.1	-33.9	25.1	0.00e+00	0	27	0	1296039936	38	6197
2026-01-13 15:00:20.14	286.61	82.44	-33.3	-34.1	25.1	0.00e+00	0	27	0	1308622848	38	6318
2026-01-13 15:00:24.18	271.97	81.90	-33.3	-34.2	24.9	0.00e+00	0	27	0	1321205760	40	5671
2026-01-13 15:00:28.22	259.84	80.93	-33.1	-34.0	25.0	0.00e+00	0	28	0	1334837248	40	5554
2026-01-13 15:00:32.26	250.43	79.64	-33.1	-34.0	24.8	0.00e+00	0	28	0	1347420160	38	6252
2026-01-13 15:00:36.29	243.30	78.15	-33.1	-33.9	25.0	0.00e+00	0	28	0	1358954496	40	5530
2026-01-13 15:00:40.33	237.84	76.54	-32.3	-33.2	25.6	0.00e+00	0	27	0	1372585984	38	5660
2026-01-13 15:00:44.37	233.60	74.85	-32.7	-33.5	25.4	0.00e+00	0	27	0	1385168896	38	5903
2026-01-13 15:00:48.40	230.27	73.12	-32.5	-33.4	25.1	0.00e+00	0	27	0	1397751808	38	5804
2026-01-13 15:00:52.44	227.58	71.38	-32.3	-33.1	25.6	0.00e+00	0	27	0	1410334720	36	6316
2026-01-13 15:00:56.48	225.38	69.63	-32.6	-33.5	25.2	0.00e+00	0	27	0	1422917632	38	5866
2026-01-13 15:01:00.51	223.55	67.89	-34.3	-35.3	24.1	0.00e+00	0	27	0	1435500544	40	6457
2026-01-13 15:01:04.55	222.01	66.17	-32.6	-33.4	25.7	0.00e+00	0	28	0	1448083456	38	5850
2026-01-13 15:01:08.59	220.70	64.46	-32.5	-33.3	25.6	0.00e+00	0	28	0	1460666368	36	6478
2026-01-13 15:01:12.63	219.57	62.79	-32.1	-32.9	25.8	0.00e+00	0	28	0	1473249280	36	6195
2026-01-13 15:01:16.66	218.59	61.15	-34.9	-35.8	23.6	0.00e+00	0	28	0	1485832192	42	6125
2026-01-13 15:01:20.70	217.73	59.54	-32.8	-33.7	25.3	0.00e+00	0	27	0	1498415104	40	5354
2026-01-13 15:01:24.74	216.97	57.96	-34.3	-35.2	24.3	0.00e+00	0	27	0	1510998016	40	6394
2026-01-13 15:01:28.78	216.30	56.43	-34.2	-35.1	24.3	0.00e+00	0	27	0	1523580928	42	5647
2026-01-13 15:01:32.82	215.69	54.93	-34.2	-35.1	24.0	0.00e+00	0	27	0	1536163840	40	6344
2026-01-13 15:01:36.86	215.15	53.47	-36.3	-37.3	22.7	0.00e+00	0	28	0	1548746752	44	6445
2026-01-13 15:01:40.90	214.66	52.04	-34.9	-35.9	23.6	0.00e+00	0	27	0	1561329664	44	5491
2026-01-13 15:01:44.94	214.22	50.66	-35.2	-36.1	23.6	0.00e+00	0	27	0	1573912576	44	5631
2026-01-13 15:01:48.97	213.81	49.32	-36.4	-37.4	22.6	0.00e+00	0	27	0	1586495488	44	6532
2026-01-13 15:01:53.01	213.44	48.01	-36.2	-37.2	22.3	0.00e+00	0	27	0	1599078400	46	5723
2026-01-13 15:01:57.04	213.11	46.74	-35.9	-36.9	22.8	0.00e+00	0	27	0	1611661312	44	6180
2026-01-13 15:02:01.09	212.79	45.50	-37.5	-38.6	21.5	0.00e+00	0	27	0	1624244224	46	6654
2026-01-13 15:02:05.12	212.51	44.31	-36.6	-37.6	22.4	0.00e+00	0	28	0	1636827136	46	5937
2026-01-13 15:02:09.16	212.24	43.14	-37.6	-38.8	21.1	0.00e+00	0	28	0	1649410048	46	6831
2026-01-13 15:02:13.20	211.99	42.01	-36.3	-37.2	22.7	0.00e+00	0	28	0	1661992960	46	5722
2026-01-13 15:02:17.24	211.76	40.91	-36.0	-37.0	22.8	0.00e+00	0	28	0	1674575872	46	5578
2026-01-13 15:02:21.28	211.55	39.85	-36.1	-37.1	22.8	0.00e+00	0	27	0	1687158784	46	5648
2026-01-13 15:02:25.31	211.35	38.82	-36.8	-37.8	22.2	0.00e+00	0	27	0	1699741696	46	6131
2026-01-13 15:02:29.35	211.16	37.81	-36.0	-37.0	22.9	0.00e+00	0	28	0	1713373184	46	5560
2026-01-13 15:02:33.39	210.99	36.84	-35.5	-36.5	23.2	0.00e+00	0	27	0	1724907520	44	5912
2026-01-13 15:02:37.42	210.82	35.89	-35.4	-36.4	23.5	0.00e+00	0	28	0	1738539008	44	5815
2026-01-13 15:02:41.47	210.67	34.97	-35.5	-36.4	23.4	0.00e+00	0	28	0	1751121920	44	5836
2026-01-13 15:02:45.51	210.52	34.07	-34.8	-35.7	23.9	0.00e+00	0	28	0	1763704832	42	6010
2026-01-13 15:02:49.55	210.38	33.20	-34.2	-35.1	24.2	0.00e+00	0	28	0	1776287744	42	5632
2026-01-13 15:02:53.59	210.26	32.35	-34.7	-35.6	23.8	0.00e+00	0	28	0	1788870656	42	5983
2026-01-13 15:02:57.62	210.13	31.53	-34.6	-35.5	24.2	0.00e+00	0	28	0	1801453568	42	5879
2026-01-13 15:03:01.66	210.02	30.73	-34.4	-35.3	24.3	0.00e+00	0	28	0	1814036480	42	5761
2026-01-13 15:03:05.70	209.91	29.95	-34.2	-35.1	24.4	0.00e+00	0	28	0	1826619392	42	5634
2026-01-13 15:03:09.73	209.81	29.20	-34.4	-35.3	24.2	0.00e+00	0	28	0	1839202304	42	5768
2026-01-13 15:03:13.77	209.71	28.46	-34.8	-35.7	23.9	0.00e+00	0	28	0	1851785216	42	6023
2026-01-13 15:03:17.81	209.61	27.74	-34.3	-35.2	24.3	0.00e+00	0	28	0	1864368128	42	5686
2026-01-13 15:03:21.85	209.52	27.03	-33.8	-34.7	24.6	0.00e+00	0	28	0	1876951040	40	6009
2026-01-13 15:03:25.89	209.44	26.35	-33.3	-34.2	25.0	0.00e+00	0	28	0	1889533952	40	5692
2026-01-13 15:03:29.93	209.36	25.68	-33.2	-34.0	24.8	0.00e+00	0	28	0	1902116864	40	5586
2026-01-13 15:03:33.96	209.28	25.03	-33.4	-34.3	24.6	0.00e+00	0	28	0	1914699776	40	5772
2026-01-13 15:03:38.00	209.21	24.39	-33.5	-34.4	24.6	0.00e+00	0	28	0	1927282688	40	5795
2026-01-13 15:03:42.04	209.14	23.77	-33.8	-34.7	24.4	0.00e+00	0	28	0	1939865600	40	6009
2026-01-13 15:03:46.06	209.07	23.17	-33.8	-34.7	24.5	0.00e+00	0	28	0	1952448512	40	6019
2026-01-13 15:03:50.10	209.01	22.58	-33.4	-34.2	24.8	0.00e+00	0	27	0	1965031424	40	5720
2026-01-13 15:03:54.14	208.95	22.00	-33.3	-34.1	24.9	0.00e+00	0	28	0	1977614336	40	5650
2026-01-13 15:03:58.17	208.89	21.43	-33.3	-34.2	24.9	0.00e+00	0	27	0	1990197248	40	5660
2026-01-13 15:04:02.21	208.84	20.88	-33.4	-34.3	24.9	0.00e+00	0	28	0	2002780160	40	5729
2026-01-13 15:04:06.24	208.78	20.34	-33.5	-34.3	24.8	0.00e+00	0	28	0	2015363072	40	5762
2026-01-13 15:04:10.28	208.73	19.81	-33.6	-34.5	24.7	0.00e+00	0	28	0	2027945984	40	5871
2026-01-13 15:04:14.31	208.69	19.29	-33.9	-34.7	24.4	0.00e+00	0	28	0	2040528896	40	6063
2026-01-13 15:04:18.35	208.64	18.78	-34.2	-35.0	24.3	0.00e+00	0	27	0	2053111808	40	6268
2026-01-13 15:04:22.39	208.59	18.28	-34.4	-35.3	24.0	0.00e+00	0	28	0	2065694720	40	6464
2026-01-13 15:04:26.43	208.55	17.79	-34.5	-35.4	24.0	0.00e+00	0	28	0	2078277632	40	6517
2026-01-13 15:04:30.47	208.51	17.31	-34.6	-35.5	23.8	0.00e+00	0	28	0	2090860544	40	6626
2026-01-13 15:04:34.51	208.47	16.84	-34.7	-35.7	23.8	0.00e+00	0	28	0	2104492032	42	6004
2026-01-13 15:04:38.55	208.43	16.38	-34.9	-35.8	23.6	0.00e+00	0	28	0	2117074944	42	6117
2026-01-13 15:04:42.58	208.40	15.93	-35.0	-36.0	23.6	0.00e+00	0	28	0	2129657856	42	6217
2026-01-13 15:04:46.62	208.36	15.48	-35.0	-35.9	23.5	0.00e+00	0	28	0	2142240768	42	6198
2026-01-13 15:04:50.66	208.33	15.05	-35.2	-36.2	23.3	0.00e+00	0	28	0	2154823680	42	6361
2026-01-13 15:04:54.70	208.30	14.62	-35.2	-36.1	23.4	0.00e+00	0	28	0	2167406592	42	6343
2026-01-13 15:04:58.74	208.27	14.20	-35.1	-36.1	23.5	0.00e+00	0	28	0	2179989504	42	6293
2026-01-13 15:05:02.78	208.24	13.78	-35.1	-36.1	23.4	0.00e+00	0	28	0	2192572416	42	6280
2026-01-13 15:05:06.81	208.21	13.37	-35.0	-36.0	23.4	0.00e+00	0	28	0	2205155328	42	6232
2026-01-13 15:05:10.85	208.18	12.97	-35.1	-36.1	23.4	0.00e+00	0	28	0	2217738240	42	6296
2026-01-13 15:05:14.89	208.16	12.58	-35.1	-36.0	23.4	0.00e+00	0	28	0	2230321152	42	6272
2026-01-13 15:05:18.93	208.13	12.19	-35.1	-36.1	23.4	0.00e+00	0	28	0	2242904064	42	6305
2026-01-13 15:05:22.97	208.11	11.81	-35.1	-36.0	23.3	0.00e+00	0	28	0	2255486976	42	6264
2026-01-13 15:05:27.00	208.08	11.43	-35.3	-36.2	23.2	0.00e+00	0	28	0	2268069888	42	6418
2026-01-13 15:05:31.04	208.06	11.06	-35.4	-36.3	23.1	0.00e+00	0	28	0	2280652800	42	6496
2026-01-13 15:05:35.08	208.04	10.70	-35.4	-36.3	23.2	0.00e+00	0	27	0	2293235712	42	6491
2026-01-13 15:05:39.12	208.02	10.34	-35.5	-36.5	23.0	0.00e+00	0	28	0	2305818624	42	6582
2026-01-13 15:05:43.16	208.00	9.98	-35.4	-36.4	23.0	0.00e+00	0	28	0	2318401536	42	6535
2026-01-13 15:05:47.19	207.98	9.64	-35.7	-36.7	22.8	0.00e+00	0	28	0	2330984448	42	6754
2026-01-13 15:05:51.23	207.96	9.29	-35.5	-36.5	22.9	0.00e+00	0	28	0	2343567360	44	5899
2026-01-13 15:05:55.27	207.94	8.95	-35.8	-36.8	22.6	0.00e+00	0	28	0	2356150272	44	6104
2026-01-13 15:05:59.31	207.93	8.62	-35.8	-36.8	22.5	0.00e+00	0	28	0	2368733184	44	6117
2026-01-13 15:06:03.35	207.91	8.28	-36.0	-37.1	22.3	0.00e+00	0	28	0	2381316096	44	6286
2026-01-13 15:06:07.39	207.89	7.96	-36.3	-37.3	22.1	0.00e+00	0	28	0	2393899008	44	6481
2026-01-13 15:06:11.43	207.88	7.64	-36.4	-37.5	22.0	0.00e+00	0	28	0	2406481920	44	6594
2026-01-13 15:06:15.46	207.87	7.32	-36.7	-37.7	21.7	0.00e+00	0	27	0	2419064832	44	6799
2026-01-13 15:06:19.50	207.85	7.00	-36.9	-38.0	21.5	0.00e+00	0	27	0	2431647744	46	6206
2026-01-13 15:06:23.54	207.84	6.69	-37.1	-38.2	21.2	0.00e+00	0	28	0	2444230656	46	6395
2026-01-13 15:06:27.57	207.83	6.39	-37.1	-38.2	21.2	0.00e+00	0	28	0	2456813568	46	6423
2026-01-13 15:06:31.61	207.81	6.08	-37.4	-38.5	20.9	0.00e+00	0	28	0	2470445056	46	6615
2026-01-13 15:06:35.65	207.80	5.78	-37.4	-38.5	20.9	0.00e+00	0	28	0	2483027968	46	6623
2026-01-13 15:06:39.69	207.79	5.49	-37.8	-38.9	20.6	0.00e+00	0	28	0	2494562304	48	6196
2026-01-13 15:06:43.73	207.78	5.19	-37.7	-38.8	20.5	0.00e+00	0	28	0	2508193792	48	6111
2026-01-13 15:06:47.76	207.77	4.90	-38.0	-39.2	20.1	0.00e+00	0	28	0	2520776704	48	6412
2026-01-13 15:06:51.80	207.76	4.62	-38.5	-39.7	19.5	0.00e+00	0	28	0	2533359616	48	6797
2026-01-13 15:06:55.84	207.75	4.33	-38.4	-39.7	19.6	0.00e+00	0	27	0	2545942528	48	6766
2026-01-13 15:06:59.88	207.74	4.05	-38.5	-39.8	19.5	0.00e+00	0	28	0	2558525440	48	6878
2026-01-13 15:07:03.92	207.73	3.77	-39.0	-40.3	18.9	0.00e+00	0	28	0	2571108352	50	6493
2026-01-13 15:07:07.96	207.72	3.50	-38.6	-39.9	19.3	0.00e+00	0	28	0	2583691264	50	6205
2026-01-13 15:07:12.00	207.72	3.23	-39.2	-40.7	18.3	0.00e+00	0	28	0	2596274176	50	6731
2026-01-13 15:07:16.03	207.71	2.96	-47.5	-60.3	3.5	7.52e-01	0	28	104	2607808512	60	36243
2026-01-13 15:07:20.08	207.70	2.69	-48.2	-61.3	3.5	1.51e+00	0	28	104	2607808512	60	40990
2026-01-13 15:07:24.12	207.70	2.42	-48.5	-61.5	3.5	1.52e+00	0	28	104	2607808512	60	41476
2026-01-13 15:07:28.16	207.69	2.16	-48.4	-61.4	3.5	1.52e+00	0	28	104	2607808512	60	41055
2026-01-13 15:07:32.19	207.68	1.90	-48.6	-61.4	3.5	1.52e+00	0	28	104	2607808512	60	41372
2026-01-13 15:07:36.23	207.68	1.64	-48.5	-61.3	3.5	1.52e+00	0	28	104	2607808512	60	40651
2026-01-13 15:07:40.27	207.67	1.39	-48.5	-61.4	3.5	1.52e+00	0	28	104	2607808512	60	41260
2026-01-13 15:07:44.30	207.67	1.14	-48.5	-61.3	3.5	1.52e+00	0	28	104	2607808512	60	40779
2026-01-13 15:07:48.35	207.66	0.89	-48.5	-61.3	3.5	1.52e+00	0	28	104	2607808512	60	40863
2026-01-13 15:07:52.38	207.66	0.64	-48.4	-61.3	3.5	1.52e+00	0	28	104	2607808512	60	40697
2026-01-13 15:07:56.42	207.65	0.39	-48.5	-61.3	3.5	1.52e+00	0	28	104	2607808512	60	40832
2026-01-13 15:08:00.46	207.65	0.15	-48.4	-61.2	3.5	1.52e+00	0	28	104	2607808512	60	40452

#Closed at: 2026-01-13 15:08:04
#Recorded file [2607 MB]: D:/lorett/data/35029_260114_025231.dat