passes_logs/2026/01/13/R4.6S_Anadyr/R4.6S_Anadyr__20260113_230751_NOAA_21_JPSS-2_rec.log

#Pass ID: 20260113_230751_NOAA 21 (JPSS-2)
#Satellite: NOAA 21 (JPSS-2)
#Configuration: NOAA-21
#almurnet v.1.7.20251203
#Start time: 2026-01-13 23:07:55

#Version: 2.2.20231116
#Station: R4.6S_Anadyr
#Location: 177.4865 lon 64.73178 lat
#TLE: 1 54234U 22150A   26013.60300550  .00000047  00000+0  43143-4 0  9998
#TLE: 2 54234  98.7496 314.5197 0000681 301.0337  59.0772 14.19534502164617

#Time	Az	El	Level	Level2	SNR	BER	BlckErr	Temp	State	Recorded	gain1	gain2
2026-01-13 23:07:55.80	129.57	0.28	-48.6	-50.2	5.7	0.00e+00	0	25	0	0	60	39665
2026-01-13 23:07:59.71	129.47	0.51	-48.6	-61.4	3.5	1.52e+00	0	27	104	0	60	41191
2026-01-13 23:08:03.63	129.36	0.75	-48.2	-61.2	3.5	1.52e+00	0	27	104	0	60	40087
2026-01-13 23:08:07.54	129.25	0.99	-47.8	-60.7	3.5	1.52e+00	0	27	104	0	60	37992
2026-01-13 23:08:11.44	129.14	1.22	-46.8	-59.7	3.5	1.52e+00	0	27	104	0	60	33939
2026-01-13 23:08:15.35	129.03	1.46	-46.8	-59.6	3.5	1.52e+00	0	27	104	0	60	33435
2026-01-13 23:08:19.26	128.92	1.71	-46.8	-59.7	3.5	1.52e+00	0	27	104	0	60	33797
2026-01-13 23:08:23.18	128.80	1.95	-46.8	-59.6	3.5	1.52e+00	0	27	104	0	60	33695
2026-01-13 23:08:27.09	128.69	2.20	-46.8	-59.5	3.5	1.52e+00	0	27	104	0	60	33044
2026-01-13 23:08:31.00	128.57	2.44	-46.8	-59.7	3.5	1.52e+00	0	27	104	0	60	33785
2026-01-13 23:08:34.91	128.44	2.69	-46.8	-59.6	3.5	1.51e+00	0	27	104	0	60	33335
2026-01-13 23:08:38.82	128.32	2.94	-46.8	-59.1	3.5	1.52e+00	0	27	104	0	60	31819
2026-01-13 23:08:42.73	128.19	3.20	-46.7	-57.9	3.5	1.51e+00	0	27	104	0	60	27641
2026-01-13 23:08:46.64	128.06	3.45	-44.0	-47.3	11.4	1.42e-03	0	27	0	6291456	60	8160
2026-01-13 23:08:50.55	127.93	3.71	-41.3	-43.3	15.0	0.00e+00	0	27	0	17825792	56	6465
2026-01-13 23:08:54.46	127.80	3.97	-37.7	-38.9	20.0	0.00e+00	0	27	0	20971520	48	6145
2026-01-13 23:08:58.37	127.66	4.24	-38.8	-40.1	18.7	0.00e+00	0	27	0	27262976	50	6324
2026-01-13 23:09:02.27	127.52	4.50	-37.3	-38.5	20.4	0.00e+00	0	27	0	39845888	48	5861
2026-01-13 23:09:06.18	127.38	4.77	-37.2	-38.4	20.5	0.00e+00	0	27	0	51380224	48	5814
2026-01-13 23:09:10.09	127.23	5.04	-37.0	-38.2	20.7	0.00e+00	0	28	0	63963136	48	5662
2026-01-13 23:09:13.99	127.08	5.31	-37.1	-38.3	20.8	0.00e+00	0	28	0	76546048	48	5752
2026-01-13 23:09:17.90	126.93	5.59	-36.9	-38.1	21.0	0.00e+00	0	27	0	88080384	48	5602
2026-01-13 23:09:21.80	126.78	5.87	-36.6	-37.7	21.3	0.00e+00	0	27	0	100663296	46	6043
2026-01-13 23:09:25.71	126.62	6.15	-36.6	-37.7	21.4	0.00e+00	0	28	0	113246208	46	5999
2026-01-13 23:09:29.62	126.46	6.43	-36.4	-37.5	21.5	0.00e+00	0	28	0	124780544	46	5874
2026-01-13 23:09:33.53	126.30	6.72	-36.0	-37.1	21.8	0.00e+00	0	28	0	137363456	46	5655
2026-01-13 23:09:37.43	126.13	7.01	-36.2	-37.3	21.8	0.00e+00	0	28	0	148897792	46	5729
2026-01-13 23:09:41.34	125.96	7.30	-36.0	-37.0	22.0	0.00e+00	0	28	0	161480704	46	5567
2026-01-13 23:09:45.25	125.78	7.60	-35.8	-36.8	22.2	0.00e+00	0	28	0	174063616	46	5448
2026-01-13 23:09:49.16	125.60	7.90	-36.0	-37.0	22.1	0.00e+00	0	28	0	185597952	46	5573
2026-01-13 23:09:53.07	125.42	8.20	-35.9	-36.9	22.1	0.00e+00	0	28	0	198180864	44	6186
2026-01-13 23:09:56.99	125.23	8.51	-35.6	-36.6	22.4	0.00e+00	0	28	0	210763776	44	5932
2026-01-13 23:10:00.90	125.04	8.82	-35.4	-36.4	22.7	0.00e+00	0	28	0	222298112	44	5806
2026-01-13 23:10:04.80	124.85	9.13	-35.3	-36.3	22.8	0.00e+00	0	28	0	234881024	44	5732
2026-01-13 23:10:08.70	124.65	9.44	-35.0	-35.9	23.1	0.00e+00	0	28	0	247463936	44	5522
2026-01-13 23:10:12.60	124.44	9.76	-34.9	-35.9	23.0	0.00e+00	0	28	0	258998272	44	5496
2026-01-13 23:10:16.51	124.23	10.09	-35.1	-36.0	23.0	0.00e+00	0	28	0	271581184	44	5569
2026-01-13 23:10:20.42	124.02	10.42	-34.9	-35.9	23.1	0.00e+00	0	28	0	284164096	44	5470
2026-01-13 23:10:24.33	123.80	10.75	-34.9	-35.8	23.2	0.00e+00	0	28	0	295698432	44	5455
2026-01-13 23:10:28.24	123.57	11.08	-34.9	-35.8	23.2	0.00e+00	0	28	0	308281344	44	5466
2026-01-13 23:10:32.16	123.34	11.43	-34.9	-35.9	23.2	0.00e+00	0	28	0	319815680	44	5470
2026-01-13 23:10:36.06	123.11	11.77	-34.7	-35.7	23.4	0.00e+00	0	28	0	332398592	42	5998
2026-01-13 23:10:39.98	122.86	12.12	-34.5	-35.4	23.7	0.00e+00	0	28	0	344981504	42	5825
2026-01-13 23:10:43.88	122.62	12.47	-34.5	-35.4	23.7	0.00e+00	0	28	0	356515840	42	5819
2026-01-13 23:10:47.78	122.36	12.83	-34.2	-35.1	23.9	0.00e+00	0	28	0	369098752	42	5643
2026-01-13 23:10:51.69	122.10	13.19	-34.3	-35.2	23.8	0.00e+00	0	28	0	381681664	42	5725
2026-01-13 23:10:55.59	121.83	13.56	-34.3	-35.2	23.9	0.00e+00	0	28	0	393216000	42	5702
2026-01-13 23:10:59.50	121.56	13.93	-34.3	-35.2	23.8	0.00e+00	0	28	0	405798912	42	5719
2026-01-13 23:11:03.40	121.28	14.31	-34.4	-35.3	23.7	0.00e+00	0	28	0	418381824	42	5742
2026-01-13 23:11:07.31	120.99	14.69	-34.4	-35.3	23.9	0.00e+00	0	28	0	429916160	42	5750
2026-01-13 23:11:11.22	120.69	15.08	-34.2	-35.1	24.0	0.00e+00	0	28	0	442499072	42	5606
2026-01-13 23:11:15.13	120.38	15.47	-34.2	-35.1	23.9	0.00e+00	0	28	0	455081984	42	5649
2026-01-13 23:11:19.03	120.07	15.87	-34.2	-35.2	23.9	0.00e+00	0	28	0	466616320	42	5660
2026-01-13 23:11:22.95	119.74	16.28	-34.2	-35.1	23.9	0.00e+00	0	28	0	479199232	42	5621
2026-01-13 23:11:26.86	119.41	16.69	-34.5	-35.4	23.7	0.00e+00	0	28	0	490733568	42	5830
2026-01-13 23:11:30.77	119.07	17.10	-34.6	-35.5	23.7	0.00e+00	0	28	0	503316480	42	5905
2026-01-13 23:11:34.68	118.72	17.53	-34.7	-35.6	23.6	0.00e+00	0	28	0	515899392	42	5982
2026-01-13 23:11:38.58	118.36	17.96	-34.8	-35.8	23.5	0.00e+00	0	28	0	527433728	42	6104
2026-01-13 23:11:42.49	117.98	18.39	-34.6	-35.6	23.7	0.00e+00	0	28	0	540016640	42	5940
2026-01-13 23:11:46.41	117.60	18.83	-34.8	-35.8	23.5	0.00e+00	0	28	0	552599552	42	6072
2026-01-13 23:11:50.32	117.20	19.28	-34.6	-35.5	23.6	0.00e+00	0	28	0	565182464	42	5905
2026-01-13 23:11:54.23	116.79	19.74	-34.4	-35.3	23.8	0.00e+00	0	28	0	576716800	42	5781
2026-01-13 23:11:58.14	116.37	20.20	-34.1	-35.0	24.1	0.00e+00	0	28	0	589299712	42	5538
2026-01-13 23:12:02.05	115.94	20.67	-33.9	-34.8	24.4	0.00e+00	0	28	0	600834048	42	5430
2026-01-13 23:12:05.95	115.49	21.14	-33.4	-34.3	24.6	0.00e+00	0	28	0	613416960	40	5753
2026-01-13 23:12:09.86	115.03	21.62	-33.1	-34.0	24.8	0.00e+00	0	28	0	625999872	40	5542
2026-01-13 23:12:13.77	114.55	22.11	-32.8	-33.7	25.1	0.00e+00	0	28	0	637534208	40	5377
2026-01-13 23:12:17.68	114.06	22.61	-32.7	-33.6	25.4	0.00e+00	0	28	0	650117120	38	5934
2026-01-13 23:12:21.58	113.55	23.12	-32.8	-33.7	25.2	0.00e+00	0	28	0	662700032	38	6018
2026-01-13 23:12:25.49	113.02	23.63	-33.1	-34.0	25.0	0.00e+00	0	28	0	674234368	38	6251
2026-01-13 23:12:29.40	112.47	24.15	-32.9	-33.8	25.2	0.00e+00	0	28	0	686817280	38	6066
2026-01-13 23:12:33.30	111.91	24.67	-32.9	-33.8	25.0	0.00e+00	0	28	0	699400192	38	6103
2026-01-13 23:12:37.21	111.33	25.21	-33.2	-34.0	25.0	0.00e+00	0	28	0	710934528	38	6269
2026-01-13 23:12:41.12	110.72	25.75	-33.2	-34.1	24.9	0.00e+00	0	28	0	723517440	38	6298
2026-01-13 23:12:45.02	110.10	26.30	-33.4	-34.3	24.8	0.00e+00	0	28	0	736100352	38	6426
2026-01-13 23:12:48.93	109.45	26.86	-33.4	-34.3	24.7	0.00e+00	0	28	0	747634688	38	6469
2026-01-13 23:12:52.84	108.78	27.42	-33.8	-34.7	24.4	0.00e+00	0	28	0	760217600	40	5999
2026-01-13 23:12:56.75	108.09	27.99	-33.8	-34.7	24.6	0.00e+00	0	28	0	771751936	40	6028
2026-01-13 23:13:00.66	107.36	28.57	-34.0	-34.9	24.3	0.00e+00	0	28	0	784334848	40	6166
2026-01-13 23:13:04.57	106.62	29.16	-34.1	-35.1	24.0	0.00e+00	0	28	0	796917760	40	6292
2026-01-13 23:13:08.48	105.84	29.75	-34.5	-35.5	23.8	0.00e+00	0	28	0	808452096	40	6603
2026-01-13 23:13:12.38	105.03	30.34	-34.5	-35.4	24.0	0.00e+00	0	28	0	821035008	42	5825
2026-01-13 23:13:16.29	104.20	30.95	-34.4	-35.3	23.9	0.00e+00	0	28	0	833617920	42	5770
2026-01-13 23:13:20.20	103.33	31.56	-34.6	-35.6	24.1	0.00e+00	0	28	0	845152256	42	5942
2026-01-13 23:13:24.11	102.42	32.17	-34.3	-35.2	24.2	0.00e+00	0	28	0	857735168	42	5713
2026-01-13 23:13:28.02	101.48	32.79	-34.3	-35.2	24.1	0.00e+00	0	28	0	870318080	42	5706
2026-01-13 23:13:31.93	100.51	33.41	-34.0	-34.9	24.5	0.00e+00	0	28	0	881852416	42	5477
2026-01-13 23:13:35.84	99.50	34.03	-33.9	-34.7	24.5	0.00e+00	0	28	0	894435328	42	5404
2026-01-13 23:13:39.75	98.44	34.66	-35.0	-36.0	23.6	0.00e+00	0	28	0	907018240	42	6233
2026-01-13 23:13:43.66	97.35	35.29	-35.3	-36.2	23.4	0.00e+00	0	28	0	918552576	42	6419
2026-01-13 23:13:47.58	96.20	35.92	-35.5	-36.5	23.2	0.00e+00	0	28	0	931135488	42	6576
2026-01-13 23:13:51.49	95.02	36.54	-35.2	-36.1	23.4	0.00e+00	0	28	0	943718400	42	6321
2026-01-13 23:13:55.40	93.79	37.17	-35.3	-36.2	23.4	0.00e+00	0	28	0	955252736	42	6396
2026-01-13 23:13:59.31	92.51	37.79	-35.8	-36.8	23.0	0.00e+00	0	28	0	967835648	44	6071
2026-01-13 23:14:03.21	91.19	38.40	-35.8	-36.8	22.9	0.00e+00	0	28	0	979369984	44	6114
2026-01-13 23:14:07.12	89.81	39.01	-36.1	-37.1	22.6	0.00e+00	0	28	0	991952896	44	6328
2026-01-13 23:14:11.03	88.38	39.60	-36.1	-37.1	22.6	0.00e+00	0	28	0	1004535808	44	6297
2026-01-13 23:14:14.94	86.89	40.19	-36.2	-37.2	22.7	0.00e+00	0	28	0	1016070144	44	6365
2026-01-13 23:14:18.84	85.36	40.76	-36.0	-37.0	22.7	0.00e+00	0	28	0	1028653056	44	6234
2026-01-13 23:14:22.76	83.76	41.32	-36.7	-37.7	22.0	0.00e+00	0	28	0	1041235968	44	6762
2026-01-13 23:14:26.66	82.12	41.86	-36.7	-37.7	22.1	0.00e+00	0	28	0	1052770304	44	6781
2026-01-13 23:14:30.57	80.41	42.38	-37.0	-38.1	21.9	0.00e+00	0	28	0	1065353216	46	6327
2026-01-13 23:14:34.48	78.65	42.87	-36.7	-37.7	22.2	0.00e+00	0	28	0	1077936128	46	6046
2026-01-13 23:14:38.38	76.85	43.34	-36.4	-37.3	22.5	0.00e+00	0	28	0	1089470464	46	5789
2026-01-13 23:14:42.29	74.98	43.79	-36.1	-37.1	22.7	0.00e+00	0	28	0	1102053376	46	5629
2026-01-13 23:14:46.20	73.07	44.20	-35.9	-36.9	22.6	0.00e+00	0	28	0	1114636288	46	5469
2026-01-13 23:14:50.10	71.11	44.58	-37.1	-38.2	21.6	0.00e+00	0	28	0	1126170624	46	6374
2026-01-13 23:14:54.00	69.10	44.93	-37.4	-38.5	21.4	0.00e+00	0	28	0	1138753536	46	6618
2026-01-13 23:14:57.91	67.05	45.23	-36.2	-37.2	22.5	0.00e+00	0	28	0	1151336448	46	5722
2026-01-13 23:15:01.81	64.97	45.50	-36.3	-37.3	22.4	0.00e+00	0	28	0	1162870784	46	5790
2026-01-13 23:15:05.72	62.85	45.73	-36.9	-38.0	22.0	0.00e+00	0	28	0	1175453696	46	6248
2026-01-13 23:15:09.63	60.70	45.92	-37.1	-38.2	21.9	0.00e+00	0	28	0	1186988032	46	6357
2026-01-13 23:15:13.53	58.53	46.06	-36.5	-37.5	22.4	0.00e+00	0	28	0	1199570944	46	5905
2026-01-13 23:15:17.44	56.34	46.15	-36.3	-37.3	22.6	0.00e+00	0	28	0	1212153856	46	5729
2026-01-13 23:15:21.35	54.15	46.20	-37.1	-38.2	21.6	0.00e+00	0	28	0	1223688192	46	6408
2026-01-13 23:15:25.26	51.94	46.20	-36.2	-37.2	22.7	0.00e+00	0	28	0	1236271104	46	5681
2026-01-13 23:15:29.16	49.75	46.16	-37.7	-38.8	21.2	0.00e+00	0	28	0	1248854016	46	6875
2026-01-13 23:15:33.07	47.56	46.07	-36.4	-37.4	22.5	0.00e+00	0	28	0	1260388352	46	5839
2026-01-13 23:15:36.98	45.39	45.93	-36.6	-37.6	22.2	0.00e+00	0	28	0	1272971264	46	5988
2026-01-13 23:15:40.88	43.25	45.75	-35.8	-36.8	22.2	0.00e+00	0	28	0	1285554176	46	5431
2026-01-13 23:15:44.79	41.12	45.53	-36.0	-37.0	22.8	0.00e+00	0	28	0	1297088512	44	6208
2026-01-13 23:15:48.70	39.03	45.26	-37.4	-38.5	21.5	0.00e+00	0	28	0	1309671424	46	6609
2026-01-13 23:15:52.60	36.99	44.96	-36.8	-37.9	22.1	0.00e+00	0	28	0	1321205760	46	6155
2026-01-13 23:15:56.52	34.97	44.61	-37.1	-38.2	21.7	0.00e+00	0	28	0	1333788672	46	6402
2026-01-13 23:16:00.43	33.01	44.23	-35.7	-36.6	23.0	0.00e+00	0	28	0	1346371584	44	5986
2026-01-13 23:16:04.33	31.09	43.83	-36.0	-37.0	22.5	0.00e+00	0	28	0	1357905920	44	6251
2026-01-13 23:16:08.24	29.23	43.39	-36.2	-37.2	22.7	0.00e+00	0	28	0	1370488832	44	6353
2026-01-13 23:16:12.15	27.42	42.92	-35.5	-36.4	23.0	0.00e+00	0	28	0	1383071744	44	5846
2026-01-13 23:16:16.05	25.66	42.42	-37.6	-38.8	21.2	0.00e+00	0	28	0	1394606080	46	6807
2026-01-13 23:16:19.96	23.96	41.91	-35.1	-36.1	23.0	0.00e+00	0	28	0	1407188992	44	5632
2026-01-13 23:16:23.87	22.31	41.37	-37.3	-38.5	21.5	0.00e+00	0	28	0	1419771904	46	6579
2026-01-13 23:16:27.78	20.71	40.82	-36.0	-37.1	22.0	0.00e+00	0	28	0	1431306240	46	5610
2026-01-13 23:16:31.69	19.17	40.25	-37.1	-38.2	21.7	0.00e+00	0	28	0	1443889152	46	6387
2026-01-13 23:16:35.60	17.69	39.66	-35.0	-35.9	23.7	0.00e+00	0	28	0	1456472064	44	5514
2026-01-13 23:16:39.52	16.25	39.07	-37.4	-38.6	21.0	0.00e+00	0	28	0	1468006400	46	6669
2026-01-13 23:16:43.43	14.87	38.46	-36.1	-37.2	22.2	0.00e+00	0	28	0	1480589312	46	5682
2026-01-13 23:16:47.34	13.54	37.85	-36.8	-37.8	22.0	0.00e+00	0	28	0	1493172224	44	6848
2026-01-13 23:16:51.25	12.27	37.24	-37.0	-38.1	21.8	0.00e+00	0	28	0	1504706560	48	5619
2026-01-13 23:16:55.17	11.03	36.61	-35.6	-36.5	23.1	0.00e+00	0	28	0	1517289472	44	5921
2026-01-13 23:16:59.08	9.85	35.99	-36.3	-37.3	22.5	0.00e+00	0	28	0	1529872384	46	5778
2026-01-13 23:17:02.99	8.71	35.36	-34.8	-35.7	23.8	0.00e+00	0	28	0	1541406720	44	5367
2026-01-13 23:17:06.91	7.61	34.74	-35.7	-36.7	23.2	0.00e+00	0	28	0	1553989632	44	6009
2026-01-13 23:17:10.82	6.56	34.11	-35.2	-36.1	23.5	0.00e+00	0	28	0	1566572544	44	5638
2026-01-13 23:17:14.74	5.54	33.49	-34.2	-35.1	24.3	0.00e+00	0	28	0	1578106880	42	5641
2026-01-13 23:17:18.65	4.57	32.87	-34.6	-35.5	24.0	0.00e+00	0	28	0	1590689792	42	5896
2026-01-13 23:17:22.57	3.63	32.25	-34.0	-34.9	24.3	0.00e+00	0	28	0	1603272704	42	5487
2026-01-13 23:17:26.49	2.72	31.64	-34.7	-35.6	23.8	0.00e+00	0	28	0	1614807040	42	5963
2026-01-13 23:17:30.40	1.85	31.03	-33.7	-34.6	24.6	0.00e+00	0	28	0	1627389952	40	5934
2026-01-13 23:17:34.30	1.02	30.43	-33.9	-34.9	24.4	0.00e+00	0	28	0	1639972864	40	6146
2026-01-13 23:17:38.23	0.21	29.83	-34.1	-35.0	24.1	0.00e+00	0	28	0	1651507200	40	6261
2026-01-13 23:17:42.15	359.43	29.24	-33.6	-34.5	24.5	0.00e+00	0	28	0	1664090112	40	5910
2026-01-13 23:17:46.07	358.68	28.66	-33.8	-34.7	24.5	0.00e+00	0	28	0	1676673024	40	6017
2026-01-13 23:17:49.98	357.96	28.08	-34.3	-35.2	24.1	0.00e+00	0	28	0	1688207360	40	6404
2026-01-13 23:17:53.90	357.26	27.51	-34.0	-35.0	24.2	0.00e+00	0	28	0	1700790272	40	6213
2026-01-13 23:17:57.90	356.58	26.93	-33.3	-34.2	24.6	0.00e+00	0	28	0	1713373184	40	5713
2026-01-13 23:18:01.89	355.92	26.37	-33.7	-34.6	24.6	0.00e+00	0	28	0	1725956096	40	5939
2026-01-13 23:18:05.88	355.28	25.81	-33.9	-34.8	24.5	0.00e+00	0	28	0	1738539008	40	6104
2026-01-13 23:18:09.86	354.67	25.26	-33.6	-34.5	24.6	0.00e+00	0	28	0	1751121920	40	5912
2026-01-13 23:18:13.84	354.08	24.72	-33.6	-34.5	24.5	0.00e+00	0	28	0	1762656256	40	5894
2026-01-13 23:18:17.86	353.50	24.18	-33.8	-34.7	24.5	0.00e+00	0	28	0	1775239168	40	6016
2026-01-13 23:18:21.85	352.95	23.65	-33.7	-34.6	24.5	0.00e+00	0	28	0	1787822080	40	5933
2026-01-13 23:18:25.84	352.42	23.13	-33.5	-34.4	24.7	0.00e+00	0	28	0	1800404992	40	5820
2026-01-13 23:18:29.83	351.90	22.62	-33.4	-34.3	24.6	0.00e+00	0	28	0	1812987904	40	5774
2026-01-13 23:18:33.83	351.40	22.11	-33.6	-34.5	24.5	0.00e+00	0	28	0	1825570816	40	5913
2026-01-13 23:18:37.84	350.92	21.61	-33.7	-34.6	24.5	0.00e+00	0	28	0	1838153728	40	5971
2026-01-13 23:18:41.88	350.45	21.11	-33.7	-34.6	24.6	0.00e+00	0	28	0	1850736640	40	5944
2026-01-13 23:18:45.93	349.99	20.63	-33.7	-34.6	24.5	0.00e+00	0	28	0	1863319552	40	5943
2026-01-13 23:18:49.97	349.54	20.14	-33.6	-34.5	24.4	0.00e+00	0	28	0	1875902464	40	5915
2026-01-13 23:18:54.01	349.12	19.67	-33.4	-34.2	24.7	0.00e+00	0	28	0	1888485376	40	5715
2026-01-13 23:18:58.05	348.70	19.20	-33.5	-34.4	24.6	0.00e+00	0	28	0	1901068288	40	5837
2026-01-13 23:19:02.09	348.30	18.75	-33.6	-34.5	24.4	0.00e+00	0	28	0	1913651200	40	5924
2026-01-13 23:19:06.13	347.91	18.29	-33.9	-34.8	24.2	0.00e+00	0	28	0	1926234112	40	6132
2026-01-13 23:19:10.17	347.53	17.85	-34.2	-35.1	24.0	0.00e+00	0	28	0	1938817024	40	6318
2026-01-13 23:19:14.21	347.16	17.41	-34.4	-35.4	23.9	0.00e+00	0	28	0	1951399936	40	6517
2026-01-13 23:19:18.25	346.81	16.98	-34.7	-35.6	23.6	0.00e+00	0	28	0	1963982848	40	6708
2026-01-13 23:19:22.29	346.46	16.55	-34.8	-35.7	23.6	0.00e+00	0	28	0	1976565760	42	6036
2026-01-13 23:19:26.33	346.13	16.13	-34.5	-35.4	23.8	0.00e+00	0	28	0	1989148672	42	5825
2026-01-13 23:19:30.37	345.80	15.72	-34.3	-35.2	23.9	0.00e+00	0	28	0	2002780160	42	5713
2026-01-13 23:19:34.41	345.48	15.31	-34.4	-35.3	23.8	0.00e+00	0	28	0	2014314496	42	5783
2026-01-13 23:19:38.44	345.18	14.91	-34.6	-35.5	23.7	0.00e+00	0	28	0	2027945984	42	5883
2026-01-13 23:19:42.47	344.88	14.51	-34.8	-35.7	23.5	0.00e+00	0	28	0	2040528896	42	6021
2026-01-13 23:19:46.52	344.58	14.12	-35.0	-36.0	23.3	0.00e+00	0	28	0	2053111808	42	6220
2026-01-13 23:19:50.55	344.30	13.74	-35.1	-36.1	23.2	0.00e+00	0	28	0	2065694720	42	6303
2026-01-13 23:19:54.60	344.03	13.36	-35.3	-36.3	23.1	0.00e+00	0	28	0	2078277632	42	6426
2026-01-13 23:19:58.64	343.76	12.98	-35.4	-36.4	22.8	0.00e+00	0	28	0	2090860544	42	6516
2026-01-13 23:20:02.68	343.50	12.61	-35.3	-36.3	22.9	0.00e+00	0	28	0	2103443456	42	6464
2026-01-13 23:20:06.72	343.24	12.25	-35.3	-36.3	23.0	0.00e+00	0	28	0	2116026368	42	6431
2026-01-13 23:20:10.76	342.99	11.89	-35.1	-36.1	23.1	0.00e+00	0	28	0	2128609280	42	6301
2026-01-13 23:20:14.80	342.75	11.53	-35.2	-36.2	23.0	0.00e+00	0	28	0	2141192192	42	6361
2026-01-13 23:20:18.84	342.52	11.18	-35.3	-36.3	22.9	0.00e+00	0	28	0	2153775104	42	6446
2026-01-13 23:20:22.88	342.29	10.84	-35.5	-36.5	22.8	0.00e+00	0	28	0	2166358016	42	6583
2026-01-13 23:20:26.92	342.06	10.49	-35.4	-36.4	22.8	0.00e+00	0	28	0	2178940928	42	6533
2026-01-13 23:20:30.96	341.84	10.16	-35.4	-36.3	22.9	0.00e+00	0	28	0	2191523840	42	6496
2026-01-13 23:20:35.00	341.63	9.82	-35.5	-36.5	22.7	0.00e+00	0	28	0	2204106752	44	5909
2026-01-13 23:20:39.04	341.42	9.49	-35.6	-36.6	22.6	0.00e+00	0	28	0	2216689664	44	5959
2026-01-13 23:20:43.08	341.22	9.17	-35.8	-36.8	22.4	0.00e+00	0	28	0	2229272576	44	6118
2026-01-13 23:20:47.12	341.02	8.85	-36.0	-37.0	22.1	0.00e+00	0	28	0	2241855488	44	6274
2026-01-13 23:20:51.16	340.83	8.53	-36.0	-37.1	22.0	0.00e+00	0	28	0	2254438400	44	6323
2026-01-13 23:20:55.20	340.64	8.21	-36.2	-37.2	21.9	0.00e+00	0	28	0	2267021312	44	6408
2026-01-13 23:20:59.25	340.45	7.90	-36.5	-37.6	21.6	0.00e+00	0	28	0	2279604224	44	6693
2026-01-13 23:21:03.26	340.28	7.60	-36.4	-37.5	21.6	0.00e+00	0	28	0	2292187136	44	6639
2026-01-13 23:21:07.30	340.10	7.29	-36.4	-37.5	21.6	0.00e+00	0	28	0	2304770048	44	6620
2026-01-13 23:21:11.35	339.93	6.99	-36.7	-37.8	21.3	0.00e+00	0	28	0	2317352960	44	6851
2026-01-13 23:21:15.39	339.76	6.69	-36.6	-37.7	21.4	0.00e+00	0	28	0	2329935872	46	6035
2026-01-13 23:21:19.43	339.59	6.40	-36.6	-37.7	21.3	0.00e+00	0	28	0	2343567360	46	6040
2026-01-13 23:21:23.47	339.43	6.11	-36.7	-37.8	21.2	0.00e+00	0	28	0	2356150272	46	6085
2026-01-13 23:21:27.51	339.27	5.82	-37.1	-38.2	20.7	0.00e+00	0	28	0	2368733184	46	6408
2026-01-13 23:21:31.56	339.12	5.53	-37.6	-38.9	19.8	0.00e+00	0	28	0	2381316096	46	6892
2026-01-13 23:21:35.60	338.97	5.25	-38.6	-40.0	18.2	0.00e+00	0	28	0	2393899008	48	7014
2026-01-13 23:21:39.64	338.82	4.97	-39.9	-41.8	16.0	0.00e+00	0	28	0	2406481920	52	6827
2026-01-13 23:21:43.67	338.68	4.69	-41.3	-44.0	13.0	3.58e-05	0	28	0	2419064832	54	7886
2026-01-13 23:21:47.72	338.53	4.42	-42.7	-46.9	9.2	1.45e-02	0	28	0	2431647744	56	9767
2026-01-13 23:21:51.76	338.39	4.15	-43.4	-51.0	4.0	8.75e-01	0	28	104	2444230656	58	13973
2026-01-13 23:21:55.80	338.26	3.88	-43.6	-54.0	3.8	1.50e+00	0	28	104	2444230656	58	19770
2026-01-13 23:21:59.84	338.13	3.61	-43.7	-55.8	3.5	1.51e+00	0	28	104	2444230656	60	21520
2026-01-13 23:22:03.88	338.00	3.35	-43.6	-56.1	3.5	1.52e+00	0	28	104	2444230656	60	22384
2026-01-13 23:22:07.92	337.87	3.08	-43.5	-56.3	3.5	1.52e+00	0	28	104	2444230656	60	22946
2026-01-13 23:22:11.95	337.74	2.83	-47.9	-60.7	3.5	1.51e+00	0	28	104	2444230656	60	38008
2026-01-13 23:22:15.99	337.62	2.57	-48.6	-61.4	3.5	1.52e+00	0	28	104	2444230656	60	41052
2026-01-13 23:22:20.03	337.50	2.31	-48.4	-61.4	3.5	1.52e+00	0	28	104	2444230656	60	41245
2026-01-13 23:22:24.07	337.38	2.06	-48.4	-61.2	3.5	1.52e+00	0	28	104	2444230656	60	40490
2026-01-13 23:22:28.10	337.27	1.81	-48.6	-61.3	3.5	1.52e+00	0	28	104	2444230656	60	40946
2026-01-13 23:22:32.14	337.15	1.56	-48.5	-61.3	3.5	1.52e+00	0	28	104	2444230656	60	40854
2026-01-13 23:22:36.18	337.04	1.31	-48.5	-61.3	3.5	1.51e+00	0	28	104	2444230656	60	40923
2026-01-13 23:22:40.22	336.93	1.07	-48.5	-61.3	3.5	1.52e+00	0	28	104	2444230656	60	40716
2026-01-13 23:22:44.26	336.82	0.82	-48.5	-61.3	3.5	1.52e+00	0	28	104	2444230656	60	40785
2026-01-13 23:22:48.30	336.72	0.58	-48.5	-61.3	3.5	1.52e+00	0	28	104	2444230656	60	40636
2026-01-13 23:22:52.34	336.62	0.34	-48.5	-61.3	3.5	1.52e+00	0	28	104	2444230656	60	40592
2026-01-13 23:22:56.37	336.51	0.11	-48.5	-61.3	3.5	1.52e+00	0	28	104	2444230656	60	40578

#Closed at: 2026-01-13 23:22:58
#Recorded file [2444 MB]: D:/lorett/data/35029_260114_110755.dat