passes_logs/2026/01/13/R4.6S_Anadyr/R4.6S_Anadyr__20260113_202021_SUOMI_NPP_rec.log

#Pass ID: 20260113_202021_SUOMI NPP
#Satellite: SUOMI NPP
#Configuration: NPP
#almurnet v.1.7.20251203
#Start time: 2026-01-13 20:20:24

#Version: 2.2.20231116
#Station: R4.6S_Anadyr
#Location: 177.4865 lon 64.73178 lat
#TLE: 1 37849U 11061A   26012.28456845  .00000093  00000+0  65163-4 0  9999
#TLE: 2 37849  98.7807 314.3566 0002508  68.3553 291.7890 14.19524725736322

#Time	Az	El	Level	Level2	SNR	BER	BlckErr	Temp	State	Recorded	gain1	gain2
2026-01-13 20:20:24.61	66.75	0.16	-48.5	-62.2	3.3	1.54e+00	0	25	0	0	60	46676
2026-01-13 20:20:27.63	66.53	0.31	-48.4	-63.6	3.6	1.51e+00	0	26	104	0	60	54755
2026-01-13 20:20:30.67	66.30	0.46	-48.4	-63.6	3.6	1.51e+00	0	26	104	0	60	54538
2026-01-13 20:20:33.70	66.07	0.61	-48.3	-63.5	3.6	1.51e+00	0	26	104	0	60	54395
2026-01-13 20:20:36.73	65.84	0.76	-48.0	-63.2	3.6	1.51e+00	0	26	104	0	60	52036
2026-01-13 20:20:39.76	65.60	0.91	-46.5	-61.7	3.6	1.51e+00	0	26	104	0	60	43881
2026-01-13 20:20:42.79	65.37	1.06	-46.4	-61.6	3.6	1.51e+00	0	26	104	0	60	43261
2026-01-13 20:20:45.82	65.13	1.22	-46.4	-61.6	3.6	1.51e+00	0	26	104	0	60	43336
2026-01-13 20:20:48.85	64.89	1.37	-46.4	-61.5	3.6	1.51e+00	0	26	104	0	60	43110
2026-01-13 20:20:51.88	64.64	1.52	-46.4	-61.6	3.6	1.51e+00	0	26	104	0	60	43372
2026-01-13 20:20:54.90	64.40	1.67	-46.4	-61.6	3.6	1.51e+00	0	26	104	0	60	43227
2026-01-13 20:20:57.93	64.15	1.82	-46.4	-61.6	3.6	1.51e+00	0	26	104	0	60	43319
2026-01-13 20:21:00.96	63.90	1.98	-46.4	-61.5	3.6	1.51e+00	0	26	104	0	60	42823
2026-01-13 20:21:03.99	63.64	2.13	-46.3	-61.2	3.6	1.51e+00	0	26	104	0	60	41439
2026-01-13 20:21:07.02	63.38	2.28	-46.3	-61.4	3.6	1.51e+00	0	26	104	0	60	42298
2026-01-13 20:21:10.05	63.12	2.44	-46.3	-61.4	3.6	1.51e+00	0	26	104	0	60	42617
2026-01-13 20:21:13.07	62.86	2.59	-46.3	-61.4	3.6	1.51e+00	0	26	104	0	60	42541
2026-01-13 20:21:16.10	62.60	2.75	-46.3	-60.4	3.6	1.51e+00	0	26	104	0	60	37957
2026-01-13 20:21:19.13	62.33	2.90	-46.1	-57.8	4.1	1.50e+00	0	26	104	0	60	27941
2026-01-13 20:21:22.16	62.05	3.06	-44.6	-49.3	11.1	8.71e-03	70	26	0	5242880	60	10561
2026-01-13 20:21:25.19	61.78	3.21	-44.5	-49.4	11.3	4.37e-01	92	26	104	5242880	60	10610
2026-01-13 20:21:28.22	61.50	3.37	-41.7	-43.9	16.1	7.48e-01	28	26	104	7340032	58	6348
2026-01-13 20:21:31.25	61.22	3.52	-41.8	-44.0	16.8	0.00e+00	92	26	0	11534336	56	7179
2026-01-13 20:21:34.27	60.94	3.68	-41.6	-43.6	17.1	0.00e+00	90	26	0	17825792	56	6883
2026-01-13 20:21:37.30	60.65	3.84	-41.8	-43.9	16.8	0.00e+00	0	26	0	23068672	56	7154
2026-01-13 20:21:40.33	60.36	3.99	-42.1	-44.3	16.5	0.00e+00	0	26	0	29360128	56	7489
2026-01-13 20:21:43.36	60.07	4.15	-41.8	-43.9	16.9	0.00e+00	92	26	0	34603008	56	7159
2026-01-13 20:21:46.39	59.77	4.31	-41.5	-43.4	17.5	0.00e+00	0	26	0	39845888	56	6757
2026-01-13 20:21:49.41	59.47	4.46	-41.3	-43.2	17.6	0.00e+00	0	26	0	46137344	56	6568
2026-01-13 20:21:52.45	59.17	4.62	-41.7	-43.7	17.3	0.00e+00	92	26	0	51380224	56	6961
2026-01-13 20:21:55.48	58.86	4.78	-41.3	-43.1	17.9	0.00e+00	92	26	0	57671680	56	6519
2026-01-13 20:21:58.50	58.55	4.93	-41.0	-42.8	18.2	0.00e+00	0	26	0	62914560	56	6268
2026-01-13 20:22:01.53	58.24	5.09	-41.4	-43.2	17.8	0.00e+00	92	26	0	68157440	56	6601
2026-01-13 20:22:04.56	57.92	5.25	-41.3	-43.2	17.9	0.00e+00	5	26	0	74448896	56	6568
2026-01-13 20:22:07.58	57.60	5.41	-41.4	-43.2	17.9	0.00e+00	0	26	0	79691776	56	6579
2026-01-13 20:22:10.61	57.27	5.57	-41.3	-43.1	18.0	0.00e+00	0	26	0	85983232	56	6487
2026-01-13 20:22:13.64	56.95	5.72	-41.3	-43.1	18.0	0.00e+00	92	26	0	91226112	56	6515
2026-01-13 20:22:16.66	56.62	5.88	-41.1	-42.9	18.2	0.00e+00	1	26	0	96468992	56	6346
2026-01-13 20:22:19.69	56.28	6.04	-41.2	-43.0	18.1	0.00e+00	0	26	0	102760448	56	6403
2026-01-13 20:22:22.72	55.94	6.20	-41.0	-42.6	18.5	0.00e+00	90	26	0	108003328	56	6143
2026-01-13 20:22:25.74	55.60	6.36	-40.4	-42.0	19.1	0.00e+00	92	27	0	114294784	54	6394
2026-01-13 20:22:28.77	55.25	6.51	-40.1	-41.5	19.6	0.00e+00	0	27	0	119537664	54	6063
2026-01-13 20:22:31.79	54.90	6.67	-40.1	-41.5	19.6	0.00e+00	35	27	0	125829120	54	6075
2026-01-13 20:22:34.82	54.55	6.83	-39.9	-41.2	19.9	0.00e+00	5	26	0	131072000	52	6599
2026-01-13 20:22:37.85	54.19	6.99	-39.9	-41.3	19.8	0.00e+00	0	27	0	136314880	52	6651
2026-01-13 20:22:40.88	53.83	7.15	-40.2	-41.7	19.5	0.00e+00	0	27	0	142606336	52	6938
2026-01-13 20:22:43.91	53.46	7.30	-40.0	-41.4	19.8	0.00e+00	77	27	0	147849216	52	6719
2026-01-13 20:22:46.94	53.09	7.46	-40.1	-41.6	19.7	0.00e+00	92	27	0	154140672	52	6856
2026-01-13 20:22:49.96	52.72	7.62	-40.0	-41.4	19.9	0.00e+00	0	27	0	159383552	52	6715
2026-01-13 20:22:52.99	52.34	7.78	-40.2	-41.6	19.7	0.00e+00	48	27	0	164626432	52	6898
2026-01-13 20:22:56.02	51.95	7.93	-40.3	-41.7	19.6	0.00e+00	81	27	0	170917888	52	6964
2026-01-13 20:22:59.05	51.57	8.09	-40.1	-41.5	19.8	0.00e+00	0	27	0	176160768	52	6775
2026-01-13 20:23:02.08	51.17	8.25	-39.9	-41.3	19.9	0.00e+00	0	27	0	182452224	52	6635
2026-01-13 20:23:05.11	50.78	8.40	-40.1	-41.5	19.8	0.00e+00	83	27	0	187695104	52	6786
2026-01-13 20:23:08.14	50.38	8.56	-39.8	-41.1	20.1	0.00e+00	0	27	0	193986560	52	6537
2026-01-13 20:23:11.17	49.97	8.71	-39.9	-41.2	20.2	0.00e+00	0	27	0	199229440	52	6543
2026-01-13 20:23:14.20	49.56	8.87	-39.8	-41.2	20.1	0.00e+00	92	27	0	204472320	52	6550
2026-01-13 20:23:17.22	49.15	9.02	-39.9	-41.2	20.1	0.00e+00	92	27	0	210763776	52	6599
2026-01-13 20:23:20.25	48.73	9.18	-40.2	-41.6	19.7	0.00e+00	0	27	0	216006656	52	6901
2026-01-13 20:23:23.27	48.31	9.33	-40.6	-42.2	19.2	0.00e+00	92	27	0	222298112	52	7347
2026-01-13 20:23:26.30	47.88	9.48	-40.4	-41.8	19.6	0.00e+00	90	27	0	227540992	52	7046
2026-01-13 20:23:29.33	47.45	9.63	-40.0	-41.4	19.9	0.00e+00	0	27	0	232783872	52	6735
2026-01-13 20:23:32.36	47.02	9.79	-39.6	-40.9	20.4	0.00e+00	0	27	0	239075328	52	6347
2026-01-13 20:23:35.38	46.58	9.94	-39.7	-41.0	20.4	0.00e+00	90	27	0	244318208	52	6415
2026-01-13 20:23:38.41	46.13	10.09	-39.4	-40.6	20.8	0.00e+00	0	27	0	250609664	52	6142
2026-01-13 20:23:41.43	45.68	10.24	-39.0	-40.2	21.1	0.00e+00	0	27	0	255852544	52	5842
2026-01-13 20:23:44.46	45.23	10.38	-38.7	-39.8	21.4	0.00e+00	92	27	0	261095424	50	6272
2026-01-13 20:23:47.49	44.77	10.53	-38.5	-39.6	21.6	0.00e+00	87	27	0	267386880	50	6108
2026-01-13 20:23:50.52	44.30	10.68	-38.1	-39.1	22.0	0.00e+00	0	27	0	272629760	50	5827
2026-01-13 20:23:53.54	43.84	10.82	-37.9	-38.9	22.1	0.00e+00	61	27	0	278921216	50	5667
2026-01-13 20:23:56.57	43.36	10.97	-38.3	-39.4	21.7	0.00e+00	3	27	0	284164096	50	5968
2026-01-13 20:23:59.61	42.88	11.11	-38.3	-39.4	21.8	0.00e+00	0	27	0	290455552	50	5978
2026-01-13 20:24:02.63	42.40	11.25	-38.3	-39.4	21.8	0.00e+00	0	27	0	295698432	50	5973
2026-01-13 20:24:05.65	41.91	11.40	-37.7	-38.7	22.3	0.00e+00	76	27	0	300941312	48	6188
2026-01-13 20:24:08.68	41.42	11.54	-37.5	-38.5	22.5	0.00e+00	0	27	0	307232768	48	6050
2026-01-13 20:24:11.71	40.92	11.67	-37.4	-38.3	22.6	0.00e+00	0	27	0	312475648	48	5956
2026-01-13 20:24:14.74	40.42	11.81	-37.5	-38.5	22.3	0.00e+00	76	27	0	318767104	48	6080
2026-01-13 20:24:17.77	39.91	11.95	-37.8	-38.9	22.2	0.00e+00	5	27	0	324009984	48	6323
2026-01-13 20:24:20.80	39.40	12.08	-37.6	-38.6	22.3	0.00e+00	0	27	0	329252864	48	6167
2026-01-13 20:24:23.83	38.88	12.22	-36.9	-37.9	23.0	0.00e+00	0	27	0	335544320	48	5657
2026-01-13 20:24:26.85	38.36	12.35	-37.0	-37.9	23.0	0.00e+00	44	28	0	340787200	46	6362
2026-01-13 20:24:29.88	37.84	12.48	-37.0	-37.9	23.1	0.00e+00	0	28	0	347078656	46	6380
2026-01-13 20:24:32.91	37.31	12.60	-37.3	-38.3	22.7	0.00e+00	0	28	0	352321536	46	6687
2026-01-13 20:24:35.93	36.77	12.73	-37.7	-38.7	22.3	0.00e+00	0	27	0	358612992	48	6199
2026-01-13 20:24:38.96	36.23	12.85	-37.6	-38.6	22.0	0.00e+00	67	28	0	363855872	48	6158
2026-01-13 20:24:41.98	35.69	12.98	-37.8	-38.8	22.3	0.00e+00	0	28	0	369098752	48	6296
2026-01-13 20:24:45.01	35.14	13.10	-37.8	-38.8	22.3	0.00e+00	0	28	0	375390208	48	6306
2026-01-13 20:24:48.04	34.59	13.22	-38.4	-39.5	21.7	0.00e+00	0	28	0	380633088	48	6816
2026-01-13 20:24:51.07	34.03	13.33	-37.6	-38.7	22.3	0.00e+00	0	28	0	386924544	48	6178
2026-01-13 20:24:54.09	33.47	13.45	-37.4	-38.4	22.6	0.00e+00	0	28	0	392167424	48	6003
2026-01-13 20:24:57.12	32.90	13.56	-37.5	-38.5	22.6	0.00e+00	91	28	0	397410304	48	6041
2026-01-13 20:25:00.15	32.33	13.67	-37.4	-38.4	22.7	0.00e+00	10	28	0	403701760	48	5990
2026-01-13 20:25:03.18	31.75	13.78	-37.1	-38.1	22.9	0.00e+00	0	28	0	408944640	48	5781
2026-01-13 20:25:06.20	31.17	13.88	-37.0	-38.0	23.0	0.00e+00	3	28	0	415236096	48	5706
2026-01-13 20:25:09.23	30.59	13.98	-37.6	-38.7	22.4	0.00e+00	89	28	0	420478976	48	6192
2026-01-13 20:25:12.26	30.00	14.08	-37.6	-38.6	22.4	0.00e+00	0	28	0	425721856	48	6149
2026-01-13 20:25:15.29	29.41	14.18	-37.4	-38.4	22.6	0.00e+00	0	28	0	432013312	48	5988
2026-01-13 20:25:18.31	28.82	14.27	-36.7	-37.6	23.3	0.00e+00	43	28	0	437256192	48	5500
2026-01-13 20:25:21.34	28.22	14.37	-36.7	-37.6	23.1	0.00e+00	0	28	0	443547648	46	6166
2026-01-13 20:25:24.37	27.61	14.45	-36.7	-37.7	23.3	0.00e+00	0	28	0	448790528	46	6186
2026-01-13 20:25:27.40	27.01	14.54	-37.0	-38.0	23.1	0.00e+00	88	28	0	455081984	46	6396
2026-01-13 20:25:30.42	26.40	14.62	-36.8	-37.7	23.2	0.00e+00	0	28	0	460324864	46	6235
2026-01-13 20:25:33.45	25.78	14.70	-37.2	-38.1	22.6	0.00e+00	0	28	0	465567744	46	6529
2026-01-13 20:25:36.48	25.17	14.78	-37.7	-38.7	22.4	0.00e+00	0	28	0	471859200	48	6240
2026-01-13 20:25:39.51	24.55	14.85	-37.5	-38.4	22.7	0.00e+00	70	28	0	477102080	48	6033
2026-01-13 20:25:42.54	23.92	14.92	-37.9	-39.0	22.2	0.00e+00	0	28	0	483393536	48	6426
2026-01-13 20:25:45.57	23.30	14.99	-37.8	-38.8	22.1	0.00e+00	0	28	0	488636416	48	6298
2026-01-13 20:25:48.59	22.67	15.06	-37.8	-38.8	22.2	0.00e+00	78	28	0	493879296	48	6301
2026-01-13 20:25:51.62	22.04	15.12	-37.8	-38.8	22.2	0.00e+00	0	28	0	500170752	48	6281
2026-01-13 20:25:54.65	21.40	15.17	-37.1	-38.0	23.0	0.00e+00	0	28	0	505413632	48	5727
2026-01-13 20:25:57.68	20.77	15.23	-37.1	-38.0	22.9	0.00e+00	60	28	0	511705088	48	5724
2026-01-13 20:26:00.70	20.13	15.28	-37.2	-38.2	22.8	0.00e+00	0	28	0	516947968	48	5843
2026-01-13 20:26:03.72	19.49	15.33	-37.3	-38.3	22.7	0.00e+00	0	28	0	522190848	48	5943
2026-01-13 20:26:06.74	18.85	15.37	-37.4	-38.4	22.6	0.00e+00	0	28	0	528482304	48	6005
2026-01-13 20:26:09.76	18.21	15.41	-37.5	-38.5	22.4	0.00e+00	78	28	0	533725184	48	6044
2026-01-13 20:26:12.79	17.56	15.45	-37.8	-38.8	22.2	0.00e+00	0	28	0	540016640	48	6285
2026-01-13 20:26:15.82	16.91	15.48	-37.8	-38.8	22.3	0.00e+00	0	28	0	545259520	48	6279
2026-01-13 20:26:18.85	16.26	15.51	-37.8	-38.9	22.2	0.00e+00	46	28	0	551550976	48	6327
2026-01-13 20:26:21.88	15.61	15.53	-37.7	-38.7	22.3	0.00e+00	0	28	0	556793856	48	6211
2026-01-13 20:26:24.90	14.97	15.56	-37.6	-38.7	22.4	0.00e+00	0	28	0	562036736	48	6179
2026-01-13 20:26:27.93	14.31	15.57	-37.5	-38.4	22.7	0.00e+00	50	29	0	568328192	48	6030
2026-01-13 20:26:30.96	13.66	15.59	-37.2	-38.2	22.8	0.00e+00	0	28	0	573571072	48	5871
2026-01-13 20:26:33.98	13.01	15.60	-37.6	-38.6	22.6	0.00e+00	0	28	0	579862528	48	6116
2026-01-13 20:26:37.01	12.35	15.60	-37.7	-38.7	22.5	0.00e+00	0	28	0	585105408	48	6212
2026-01-13 20:26:40.04	11.70	15.61	-37.2	-38.2	22.8	0.00e+00	0	29	0	590348288	48	5858
2026-01-13 20:26:43.06	11.05	15.61	-36.9	-37.8	23.1	0.00e+00	0	29	0	596639744	48	5605
2026-01-13 20:26:46.09	10.39	15.60	-37.2	-38.1	22.9	0.00e+00	0	28	0	601882624	48	5828
2026-01-13 20:26:49.11	9.74	15.59	-37.8	-38.8	22.5	0.00e+00	92	29	0	608174080	48	6264
2026-01-13 20:26:52.14	9.09	15.58	-38.0	-39.0	22.3	0.00e+00	0	29	0	613416960	48	6452
2026-01-13 20:26:55.17	8.44	15.57	-38.2	-39.3	21.9	0.00e+00	0	29	0	618659840	48	6647
2026-01-13 20:26:58.20	7.79	15.55	-38.6	-39.8	21.6	0.00e+00	67	29	0	624951296	48	7013
2026-01-13 20:27:01.22	7.14	15.52	-37.8	-38.9	22.3	0.00e+00	0	29	0	630194176	48	6351
2026-01-13 20:27:04.24	6.49	15.50	-37.9	-39.0	22.3	0.00e+00	0	29	0	636485632	48	6404
2026-01-13 20:27:07.27	5.84	15.47	-37.5	-38.5	22.7	0.00e+00	0	29	0	641728512	48	6045
2026-01-13 20:27:10.30	5.19	15.43	-37.6	-38.6	22.5	0.00e+00	90	29	0	648019968	48	6116
2026-01-13 20:27:13.33	4.55	15.39	-37.7	-38.7	22.5	0.00e+00	0	29	0	653262848	48	6233
2026-01-13 20:27:16.36	3.90	15.35	-37.0	-37.9	23.1	0.00e+00	0	29	0	658505728	48	5655
2026-01-13 20:27:19.38	3.26	15.31	-37.0	-37.9	23.0	0.00e+00	92	29	0	664797184	48	5680
2026-01-13 20:27:22.41	2.62	15.26	-37.2	-38.2	22.9	0.00e+00	0	29	0	670040064	48	5880
2026-01-13 20:27:25.44	1.99	15.21	-37.7	-38.8	22.5	0.00e+00	0	29	0	676331520	48	6261
2026-01-13 20:27:28.47	1.35	15.15	-37.9	-39.0	22.3	0.00e+00	55	29	0	681574400	48	6403
2026-01-13 20:27:31.49	0.72	15.09	-38.1	-39.2	22.1	0.00e+00	0	29	0	686817280	48	6583
2026-01-13 20:27:34.52	0.09	15.03	-38.3	-39.4	21.9	0.00e+00	0	29	0	693108736	48	6769
2026-01-13 20:27:37.55	359.46	14.96	-38.2	-39.3	22.1	0.00e+00	0	29	0	698351616	50	5923
2026-01-13 20:27:40.58	358.84	14.90	-36.7	-37.6	23.3	0.00e+00	14	29	0	704643072	48	5495
2026-01-13 20:27:43.61	358.22	14.82	-37.1	-38.0	23.0	0.00e+00	0	29	0	709885952	46	6421
2026-01-13 20:27:46.64	357.60	14.75	-36.9	-37.8	23.3	0.00e+00	0	29	0	716177408	46	6257
2026-01-13 20:27:49.67	356.98	14.67	-36.8	-37.7	23.1	0.00e+00	92	29	0	721420288	46	6223
2026-01-13 20:27:52.69	356.37	14.59	-37.5	-38.5	22.6	0.00e+00	0	29	0	726663168	46	6811
2026-01-13 20:27:55.72	355.76	14.51	-37.5	-38.5	22.6	0.00e+00	0	29	0	732954624	46	6841
2026-01-13 20:27:58.75	355.16	14.42	-37.4	-38.4	22.7	0.00e+00	0	29	0	738197504	46	6760
2026-01-13 20:28:01.77	354.56	14.33	-37.9	-38.9	22.2	0.00e+00	15	29	0	744488960	48	6389
2026-01-13 20:28:04.80	353.96	14.24	-38.0	-39.0	22.4	0.00e+00	0	29	0	749731840	48	6416
2026-01-13 20:28:07.83	353.37	14.14	-37.4	-38.4	22.7	0.00e+00	0	29	0	754974720	48	5993
2026-01-13 20:28:10.86	352.78	14.04	-37.6	-38.6	22.6	0.00e+00	5	29	0	761266176	48	6105
2026-01-13 20:28:13.88	352.19	13.94	-37.4	-38.3	22.8	0.00e+00	0	29	0	766509056	48	5939
2026-01-13 20:28:16.91	351.61	13.84	-37.0	-37.9	23.2	0.00e+00	0	29	0	772800512	48	5639
2026-01-13 20:28:19.94	351.04	13.73	-36.5	-37.3	23.5	0.00e+00	64	29	0	778043392	46	5960
2026-01-13 20:28:22.97	350.46	13.62	-36.6	-37.5	23.4	0.00e+00	0	29	0	784334848	46	6048
2026-01-13 20:28:26.00	349.89	13.51	-36.9	-37.8	23.2	0.00e+00	0	29	0	789577728	46	6292
2026-01-13 20:28:29.03	349.33	13.40	-37.5	-38.5	22.6	0.00e+00	0	29	0	794820608	46	6812
2026-01-13 20:28:32.06	348.77	13.29	-38.2	-39.3	21.9	0.00e+00	0	29	0	801112064	48	6648
2026-01-13 20:28:35.09	348.21	13.17	-38.7	-39.9	21.6	0.00e+00	0	29	0	806354944	48	7121
2026-01-13 20:28:38.11	347.66	13.05	-38.3	-39.4	21.9	0.00e+00	0	29	0	812646400	50	5967
2026-01-13 20:28:41.13	347.12	12.93	-38.3	-39.4	21.8	0.00e+00	27	29	0	817889280	50	5996
2026-01-13 20:28:44.16	346.58	12.81	-38.6	-39.8	21.5	0.00e+00	6	29	0	823132160	50	6277
2026-01-13 20:28:47.18	346.04	12.68	-38.3	-39.4	21.9	0.00e+00	0	29	0	829423616	50	6023
2026-01-13 20:28:50.21	345.51	12.55	-38.3	-39.4	22.2	0.00e+00	92	29	0	834666496	50	5988
2026-01-13 20:28:53.24	344.98	12.43	-38.2	-39.3	22.0	0.00e+00	0	29	0	840957952	50	5928
2026-01-13 20:28:56.27	344.45	12.30	-38.1	-39.2	22.1	0.00e+00	0	30	0	846200832	50	5876
2026-01-13 20:28:59.30	343.94	12.16	-37.6	-38.5	22.5	0.00e+00	0	29	0	851443712	48	6099
2026-01-13 20:29:02.32	343.42	12.03	-37.8	-38.8	22.2	0.00e+00	3	29	0	857735168	48	6295
2026-01-13 20:29:05.35	342.91	11.90	-38.7	-39.9	21.4	0.00e+00	0	29	0	862978048	48	7126
2026-01-13 20:29:08.38	342.41	11.76	-39.3	-40.5	20.9	0.00e+00	0	30	0	869269504	50	6847
2026-01-13 20:29:11.41	341.91	11.62	-39.0	-40.2	21.1	0.00e+00	80	29	0	874512384	50	6611
2026-01-13 20:29:14.43	341.42	11.48	-38.9	-40.1	21.2	0.00e+00	0	30	0	880803840	50	6518
2026-01-13 20:29:17.46	340.93	11.34	-39.7	-41.0	20.4	0.00e+00	0	29	0	886046720	50	7243
2026-01-13 20:29:20.49	340.44	11.20	-41.4	-43.2	18.4	0.00e+00	70	30	0	891289600	54	7393
2026-01-13 20:29:23.52	339.96	11.06	-41.6	-43.4	18.3	0.00e+00	0	30	0	897581056	56	6744
2026-01-13 20:29:26.55	339.48	10.91	-41.0	-42.7	18.9	0.00e+00	0	30	0	902823936	56	6216
2026-01-13 20:29:29.57	339.01	10.77	-40.5	-42.0	19.5	0.00e+00	0	30	0	909115392	54	6455
2026-01-13 20:29:32.60	338.55	10.62	-40.1	-41.5	20.0	0.00e+00	65	30	0	914358272	54	6092
2026-01-13 20:29:35.63	338.08	10.48	-39.4	-40.7	20.6	0.00e+00	0	30	0	919601152	52	6206
2026-01-13 20:29:38.66	337.63	10.33	-39.3	-40.5	20.7	0.00e+00	0	30	0	925892608	52	6059
2026-01-13 20:29:41.69	337.18	10.18	-39.6	-40.8	20.7	0.00e+00	78	30	0	931135488	52	6309
2026-01-13 20:29:44.71	336.73	10.03	-39.2	-40.4	20.9	0.00e+00	0	30	0	937426944	52	6019
2026-01-13 20:29:47.73	336.29	9.88	-38.9	-40.1	21.1	0.00e+00	0	30	0	942669824	52	5811
2026-01-13 20:29:50.76	335.85	9.73	-38.8	-40.0	21.2	0.00e+00	78	30	0	947912704	50	6438
2026-01-13 20:29:53.79	335.42	9.58	-38.9	-40.1	21.0	0.00e+00	0	30	0	954204160	50	6516
2026-01-13 20:29:56.82	334.99	9.42	-39.2	-40.4	20.9	0.00e+00	0	30	0	959447040	50	6760
2026-01-13 20:29:59.85	334.56	9.27	-39.4	-40.7	20.6	0.00e+00	0	30	0	965738496	50	6936
2026-01-13 20:30:02.88	334.14	9.12	-39.4	-40.7	20.6	0.00e+00	5	30	0	970981376	50	6961
2026-01-13 20:30:05.90	333.73	8.96	-39.5	-40.8	20.4	0.00e+00	0	30	0	977272832	50	7047
2026-01-13 20:30:08.94	333.32	8.81	-39.5	-40.8	20.4	0.00e+00	0	30	0	982515712	50	7065
2026-01-13 20:30:11.96	332.91	8.66	-39.1	-40.3	20.9	0.00e+00	89	30	0	987758592	50	6666
2026-01-13 20:30:14.99	332.51	8.50	-38.5	-39.7	21.4	0.00e+00	0	30	0	994050048	50	6203
2026-01-13 20:30:18.02	332.11	8.34	-38.1	-39.2	21.8	0.00e+00	0	30	0	999292928	50	5881
2026-01-13 20:30:21.04	331.72	8.19	-37.8	-38.8	22.2	1.50e-06	92	30	0	1005584384	48	6303
2026-01-13 20:30:24.07	331.33	8.03	-38.1	-39.2	21.8	0.00e+00	0	30	0	1010827264	48	6571
2026-01-13 20:30:27.10	330.94	7.88	-38.5	-39.6	21.4	0.00e+00	0	30	0	1016070144	48	6896
2026-01-13 20:30:30.12	330.56	7.72	-38.1	-39.2	21.8	0.00e+00	0	30	0	1022361600	48	6545
2026-01-13 20:30:33.15	330.19	7.56	-37.8	-38.9	22.0	0.00e+00	5	30	0	1027604480	48	6349
2026-01-13 20:30:36.18	329.82	7.40	-38.4	-39.5	21.4	0.00e+00	0	30	0	1033895936	48	6839
2026-01-13 20:30:39.21	329.45	7.25	-38.2	-39.3	21.7	0.00e+00	0	30	0	1039138816	48	6663
2026-01-13 20:30:42.24	329.08	7.09	-38.7	-39.9	21.1	0.00e+00	73	30	0	1045430272	48	7155
2026-01-13 20:30:45.26	328.72	6.93	-38.9	-40.2	21.0	0.00e+00	0	30	0	1050673152	50	6540
2026-01-13 20:30:48.29	328.37	6.77	-38.7	-39.9	21.1	0.00e+00	0	30	0	1055916032	50	6367
2026-01-13 20:30:51.32	328.02	6.62	-39.0	-40.2	20.9	0.00e+00	90	30	0	1062207488	50	6548
2026-01-13 20:30:54.34	327.67	6.46	-38.9	-40.0	21.1	0.00e+00	7	30	0	1067450368	50	6463
2026-01-13 20:30:57.37	327.32	6.30	-38.4	-39.5	21.2	0.00e+00	0	30	0	1073741824	50	6055
2026-01-13 20:31:00.40	326.98	6.14	-38.1	-39.2	21.6	0.00e+00	0	30	0	1078984704	50	5865
2026-01-13 20:31:03.43	326.65	5.98	-37.9	-38.9	21.8	0.00e+00	85	30	0	1084227584	50	5674
2026-01-13 20:31:06.46	326.31	5.83	-38.0	-39.1	21.7	0.00e+00	33	30	0	1090519040	50	5803
2026-01-13 20:31:09.48	325.98	5.67	-38.4	-39.5	21.3	0.00e+00	0	30	0	1095761920	50	6093
2026-01-13 20:31:12.51	325.66	5.51	-39.3	-40.5	20.5	0.00e+00	52	30	0	1102053376	50	6839
2026-01-13 20:31:15.54	325.34	5.35	-39.4	-40.7	20.4	0.00e+00	0	30	0	1107296256	50	6970
2026-01-13 20:31:18.57	325.02	5.20	-39.2	-40.5	20.5	0.00e+00	0	30	0	1112539136	50	6808
2026-01-13 20:31:21.60	324.70	5.04	-39.2	-40.4	20.5	0.00e+00	0	30	0	1118830592	50	6733
2026-01-13 20:31:24.62	324.39	4.88	-38.9	-40.1	20.9	0.00e+00	0	30	0	1124073472	50	6486
2026-01-13 20:31:27.65	324.08	4.72	-38.6	-39.8	21.0	0.00e+00	0	30	0	1130364928	50	6265
2026-01-13 20:31:30.68	323.78	4.57	-39.1	-40.3	20.4	0.00e+00	0	30	0	1135607808	50	6683
2026-01-13 20:31:33.70	323.48	4.41	-39.2	-40.5	20.3	0.00e+00	92	30	0	1141899264	50	6809
2026-01-13 20:31:36.73	323.18	4.25	-39.5	-40.8	20.0	0.00e+00	0	30	0	1147142144	50	7051
2026-01-13 20:31:39.76	322.89	4.10	-40.3	-41.8	19.1	0.00e+00	0	30	0	1152385024	52	7069
2026-01-13 20:31:42.77	322.60	3.94	-40.2	-41.8	19.2	0.00e+00	87	30	0	1158676480	52	7014
2026-01-13 20:31:45.80	322.31	3.78	-40.7	-42.3	18.6	0.00e+00	0	30	0	1163919360	54	6679
2026-01-13 20:31:48.83	322.02	3.63	-40.6	-42.3	18.4	0.00e+00	0	30	0	1170210816	54	6623
2026-01-13 20:31:51.86	321.74	3.47	-40.5	-42.1	18.8	0.00e+00	0	30	0	1175453696	54	6518
2026-01-13 20:31:54.89	321.46	3.32	-40.6	-42.2	18.4	0.00e+00	33	30	0	1180696576	54	6585
2026-01-13 20:31:57.92	321.19	3.16	-41.0	-42.8	18.1	0.00e+00	0	30	0	1186988032	54	7021
2026-01-13 20:32:00.95	320.91	3.01	-41.1	-42.9	17.8	0.00e+00	0	30	0	1192230912	54	7142
2026-01-13 20:32:03.97	320.65	2.85	-48.1	-63.3	3.6	1.51e+00	0	30	104	1193279488	60	52585
2026-01-13 20:32:07.00	320.38	2.70	-48.5	-63.7	3.6	1.51e+00	0	30	104	1193279488	60	55177
2026-01-13 20:32:10.03	320.11	2.54	-48.5	-63.7	3.6	1.51e+00	0	30	104	1193279488	60	55392
2026-01-13 20:32:13.06	319.85	2.39	-48.3	-63.6	3.6	1.51e+00	0	30	104	1193279488	60	54705
2026-01-13 20:32:16.09	319.59	2.24	-48.3	-63.5	3.6	1.51e+00	0	30	104	1193279488	60	54148
2026-01-13 20:32:19.12	319.34	2.08	-48.5	-63.6	3.6	1.51e+00	0	30	104	1193279488	60	54872
2026-01-13 20:32:22.15	319.09	1.93	-48.4	-63.6	3.6	1.51e+00	0	30	104	1193279488	60	54722
2026-01-13 20:32:25.18	318.84	1.78	-48.4	-63.5	3.6	1.51e+00	0	30	104	1193279488	60	54368
2026-01-13 20:32:28.21	318.59	1.62	-48.4	-63.6	3.6	1.51e+00	0	30	104	1193279488	60	54940
2026-01-13 20:32:31.24	318.34	1.47	-48.4	-63.5	3.6	1.51e+00	0	30	104	1193279488	60	54294
2026-01-13 20:32:34.26	318.10	1.32	-48.4	-63.6	3.6	1.51e+00	0	30	104	1193279488	60	54481
2026-01-13 20:32:37.29	317.86	1.17	-48.4	-63.5	3.6	1.51e+00	0	30	104	1193279488	60	54277
2026-01-13 20:32:40.32	317.63	1.02	-48.4	-63.5	3.6	1.51e+00	0	30	104	1193279488	60	54319
2026-01-13 20:32:43.34	317.39	0.87	-48.4	-63.5	3.6	1.51e+00	0	30	104	1193279488	60	54116
2026-01-13 20:32:46.38	317.16	0.72	-48.4	-63.5	3.6	1.51e+00	0	30	104	1193279488	60	54195
2026-01-13 20:32:49.41	316.93	0.57	-48.4	-63.5	3.6	1.51e+00	0	30	104	1193279488	60	54303
2026-01-13 20:32:52.44	316.70	0.42	-48.3	-63.5	3.6	1.51e+00	0	30	104	1193279488	60	54150
2026-01-13 20:32:55.47	316.48	0.27	-48.3	-63.5	3.6	1.51e+00	0	30	104	1193279488	60	54213
2026-01-13 20:32:58.49	316.25	0.12	-48.3	-63.6	3.6	1.51e+00	0	30	104	1193279488	60	54454
2026-01-13 20:33:01.52	316.03	-0.03	-48.3	-63.5	3.6	1.51e+00	0	30	104	1193279488	60	54056

#Closed at: 2026-01-13 20:33:02
#Recorded file [1193 MB]: D:/lorett/data/35029_260114_082024.dat