passes_logs/2026/01/13/R4.6S_Anadyr/R4.6S_Anadyr__20260113_134143_SUOMI_NPP_rec.log

#Pass ID: 20260113_134143_SUOMI NPP
#Satellite: SUOMI NPP
#Configuration: NPP
#almurnet v.1.7.20251203
#Start time: 2026-01-13 13:41:46

#Version: 2.2.20231116
#Station: R4.6S_Anadyr
#Location: 177.4865 lon 64.73178 lat
#TLE: 1 37849U 11061A   26012.28456845  .00000093  00000+0  65163-4 0  9999
#TLE: 2 37849  98.7807 314.3566 0002508  68.3553 291.7890 14.19524725736322

#Time	Az	El	Level	Level2	SNR	BER	BlckErr	Temp	State	Recorded	gain1	gain2
2026-01-13 13:41:46.36	19.09	0.17	-48.8	-62.5	3.3	1.54e+00	0	26	0	0	60	48260
2026-01-13 13:41:50.40	19.25	0.40	-48.6	-63.8	3.6	1.51e+00	0	27	104	0	60	55737
2026-01-13 13:41:54.44	19.40	0.63	-48.3	-63.5	3.6	1.51e+00	0	27	104	0	60	53901
2026-01-13 13:41:58.48	19.56	0.87	-47.6	-62.7	3.6	1.51e+00	0	27	104	0	60	49530
2026-01-13 13:42:02.52	19.71	1.11	-47.0	-62.2	3.6	1.51e+00	0	27	104	0	60	46365
2026-01-13 13:42:06.56	19.87	1.35	-47.0	-62.1	3.6	1.51e+00	0	27	104	0	60	46102
2026-01-13 13:42:10.60	20.04	1.59	-47.0	-62.1	3.6	1.51e+00	0	27	104	0	60	46007
2026-01-13 13:42:14.64	20.20	1.83	-46.9	-62.1	3.6	1.51e+00	0	27	104	0	60	46104
2026-01-13 13:42:18.68	20.37	2.08	-46.9	-62.1	3.6	1.51e+00	0	27	104	0	60	45844
2026-01-13 13:42:22.72	20.54	2.32	-46.9	-61.1	3.6	1.51e+00	0	27	104	0	60	41219
2026-01-13 13:42:26.76	20.71	2.57	-46.8	-59.9	3.6	1.51e+00	0	27	104	0	60	35579
2026-01-13 13:42:30.80	20.89	2.82	-44.5	-48.3	12.8	1.94e-04	0	27	0	5242880	60	9359
2026-01-13 13:42:34.84	21.07	3.07	-42.0	-44.1	16.8	0.00e+00	0	27	0	12582912	58	6530
2026-01-13 13:42:38.88	21.25	3.33	-43.3	-46.1	14.8	0.00e+00	0	27	0	19922944	58	8230
2026-01-13 13:42:42.92	21.43	3.59	-42.0	-44.1	17.1	0.00e+00	35	27	0	27262976	56	7281
2026-01-13 13:42:46.96	21.62	3.85	-42.9	-45.3	16.1	3.59e-02	0	27	0	30408704	60	6632
2026-01-13 13:42:51.00	21.81	4.11	-43.2	-45.8	15.7	0.00e+00	0	27	0	37748736	58	7866
2026-01-13 13:42:55.03	22.00	4.37	-42.3	-44.4	16.9	0.00e+00	0	27	0	45088768	58	6725
2026-01-13 13:42:59.07	22.19	4.64	-42.4	-44.5	17.3	0.00e+00	92	27	0	53477376	56	7602
2026-01-13 13:43:03.10	22.39	4.91	-42.1	-44.0	17.3	0.00e+00	0	27	0	60817408	56	7243
2026-01-13 13:43:07.14	22.59	5.18	-41.4	-43.2	18.1	0.00e+00	0	27	0	68157440	56	6567
2026-01-13 13:43:11.18	22.80	5.45	-41.2	-42.9	18.5	0.00e+00	39	27	0	75497472	56	6378
2026-01-13 13:43:15.22	23.01	5.73	-41.1	-42.7	18.7	0.00e+00	66	27	0	82837504	56	6218
2026-01-13 13:43:19.25	23.22	6.01	-41.2	-42.8	18.7	0.00e+00	0	27	0	91226112	56	6302
2026-01-13 13:43:23.30	23.44	6.29	-40.9	-42.4	19.0	0.00e+00	33	27	0	98566144	56	6032
2026-01-13 13:43:27.33	23.66	6.58	-41.0	-42.7	18.7	0.00e+00	81	27	0	105906176	56	6176
2026-01-13 13:43:31.37	23.88	6.86	-40.5	-42.0	19.3	0.00e+00	0	27	0	113246208	54	6391
2026-01-13 13:43:35.40	24.11	7.15	-40.4	-41.8	19.7	0.00e+00	0	27	0	121634816	54	6295
2026-01-13 13:43:39.44	24.35	7.45	-40.3	-41.8	19.7	0.00e+00	0	27	0	128974848	54	6247
2026-01-13 13:43:43.48	24.58	7.74	-40.2	-41.6	19.9	0.00e+00	81	27	0	136314880	54	6146
2026-01-13 13:43:47.51	24.82	8.04	-39.7	-41.0	20.5	0.00e+00	0	27	0	143654912	52	6408
2026-01-13 13:43:51.54	25.07	8.35	-39.9	-41.3	20.3	0.00e+00	0	27	0	150994944	52	6625
2026-01-13 13:43:55.58	25.32	8.65	-39.5	-40.8	20.7	0.00e+00	0	27	0	159383552	52	6277
2026-01-13 13:43:59.62	25.58	8.96	-39.3	-40.4	21.0	0.00e+00	92	27	0	166723584	52	6024
2026-01-13 13:44:03.66	25.84	9.27	-39.0	-40.2	21.3	0.00e+00	0	27	0	174063616	52	5833
2026-01-13 13:44:07.70	26.11	9.59	-38.9	-40.0	21.5	0.00e+00	0	27	0	181403648	50	6413
2026-01-13 13:44:11.73	26.38	9.91	-38.7	-39.8	21.6	0.00e+00	39	27	0	189792256	50	6299
2026-01-13 13:44:15.77	26.65	10.23	-38.2	-39.3	22.1	0.00e+00	0	27	0	197132288	50	5911
2026-01-13 13:44:19.81	26.94	10.56	-38.3	-39.4	22.1	0.00e+00	0	27	0	204472320	50	5965
2026-01-13 13:44:23.86	27.23	10.89	-38.2	-39.2	22.1	0.00e+00	0	27	0	211812352	50	5871
2026-01-13 13:44:27.89	27.52	11.23	-38.2	-39.2	22.1	0.00e+00	92	27	0	219152384	50	5865
2026-01-13 13:44:31.93	27.83	11.57	-38.3	-39.3	22.1	0.00e+00	0	27	0	227540992	50	5956
2026-01-13 13:44:35.97	28.13	11.91	-38.5	-39.5	21.9	0.00e+00	0	27	0	234881024	50	6094
2026-01-13 13:44:40.01	28.45	12.26	-38.3	-39.3	22.1	0.00e+00	0	27	0	242221056	50	5960
2026-01-13 13:44:44.05	28.77	12.61	-38.4	-39.4	22.0	0.00e+00	32	27	0	249561088	50	6017
2026-01-13 13:44:48.09	29.10	12.97	-38.2	-39.2	22.2	0.00e+00	0	27	0	257949696	50	5860
2026-01-13 13:44:52.12	29.44	13.33	-38.4	-39.4	22.1	0.00e+00	0	27	0	265289728	50	6032
2026-01-13 13:44:56.16	29.79	13.69	-38.2	-39.3	22.1	0.00e+00	30	27	0	272629760	50	5907
2026-01-13 13:45:00.20	30.14	14.06	-37.9	-38.9	22.5	0.00e+00	3	27	0	279969792	50	5662
2026-01-13 13:45:04.23	30.50	14.44	-38.2	-39.2	22.3	0.00e+00	0	28	0	287309824	50	5873
2026-01-13 13:45:08.27	30.87	14.82	-38.2	-39.3	22.3	0.00e+00	0	28	0	295698432	50	5916
2026-01-13 13:45:12.31	31.25	15.20	-37.9	-38.9	22.5	0.00e+00	47	28	0	303038464	50	5648
2026-01-13 13:45:16.34	31.64	15.59	-38.2	-39.2	22.4	0.00e+00	0	28	0	310378496	50	5853
2026-01-13 13:45:20.38	32.04	15.98	-37.6	-38.5	22.9	0.00e+00	0	28	0	317718528	48	6085
2026-01-13 13:45:24.42	32.45	16.38	-37.7	-38.6	22.8	0.00e+00	0	28	0	326107136	48	6161
2026-01-13 13:45:28.46	32.87	16.79	-38.2	-39.2	22.3	0.00e+00	44	28	0	333447168	48	6577
2026-01-13 13:45:32.50	33.31	17.20	-38.1	-39.1	22.5	0.00e+00	0	28	0	340787200	48	6504
2026-01-13 13:45:36.53	33.75	17.61	-38.4	-39.4	22.1	0.00e+00	0	28	0	348127232	48	6765
2026-01-13 13:45:40.57	34.20	18.04	-38.3	-39.4	22.0	0.00e+00	0	27	0	355467264	48	6707
2026-01-13 13:45:44.61	34.67	18.46	-38.5	-39.6	22.1	0.00e+00	83	27	0	363855872	50	6119
2026-01-13 13:45:48.65	35.15	18.90	-38.5	-39.6	22.2	0.00e+00	0	28	0	371195904	50	6151
2026-01-13 13:45:52.69	35.64	19.34	-38.3	-39.3	22.4	0.00e+00	0	27	0	378535936	50	5924
2026-01-13 13:45:56.73	36.15	19.78	-38.4	-39.5	22.2	0.00e+00	41	27	0	385875968	50	6058
2026-01-13 13:46:00.76	36.67	20.23	-38.4	-39.5	22.3	0.00e+00	0	28	0	394264576	50	6064
2026-01-13 13:46:04.80	37.21	20.69	-38.6	-39.7	21.9	0.00e+00	0	27	0	401604608	50	6203
2026-01-13 13:46:08.84	37.76	21.15	-38.8	-39.9	21.9	0.00e+00	0	27	0	408944640	50	6343
2026-01-13 13:46:12.88	38.33	21.62	-38.2	-39.3	22.6	0.00e+00	92	28	0	416284672	50	5912
2026-01-13 13:46:16.92	38.92	22.09	-37.8	-38.7	22.8	0.00e+00	0	27	0	423624704	48	6234
2026-01-13 13:46:20.95	39.52	22.57	-37.4	-38.3	23.3	0.00e+00	0	27	0	432013312	48	5939
2026-01-13 13:46:24.99	40.14	23.06	-37.4	-38.3	23.1	0.00e+00	0	27	0	439353344	48	5936
2026-01-13 13:46:29.02	40.78	23.55	-38.0	-39.0	22.6	0.00e+00	37	27	0	446693376	48	6415
2026-01-13 13:46:33.06	41.44	24.04	-38.1	-39.1	22.6	0.00e+00	0	27	0	454033408	48	6480
2026-01-13 13:46:37.10	42.13	24.55	-37.6	-38.5	23.2	0.00e+00	0	27	0	462422016	48	6063
2026-01-13 13:46:41.14	42.83	25.06	-37.9	-38.9	22.8	0.00e+00	39	28	0	469762048	48	6355
2026-01-13 13:46:45.18	43.56	25.57	-38.3	-39.4	22.4	0.00e+00	66	28	0	477102080	48	6700
2026-01-13 13:46:49.22	44.31	26.09	-37.9	-38.8	22.8	0.00e+00	0	28	0	484442112	48	6303
2026-01-13 13:46:53.25	45.08	26.61	-37.9	-38.9	22.7	0.00e+00	0	27	0	491782144	48	6374
2026-01-13 13:46:57.29	45.88	27.14	-38.8	-39.8	22.2	0.00e+00	42	28	0	500170752	50	6297
2026-01-13 13:47:01.33	46.71	27.68	-38.3	-39.4	22.4	0.00e+00	0	28	0	507510784	50	5966
2026-01-13 13:47:05.37	47.56	28.21	-37.6	-38.5	22.8	0.00e+00	0	28	0	514850816	48	6072
2026-01-13 13:47:09.40	48.44	28.76	-38.6	-39.6	22.2	0.00e+00	0	28	0	522190848	50	6129
2026-01-13 13:47:13.44	49.35	29.30	-38.2	-39.2	22.6	0.00e+00	91	28	0	530579456	50	5833
2026-01-13 13:47:17.48	50.30	29.85	-38.7	-39.8	22.3	0.00e+00	0	28	0	537919488	50	6251
2026-01-13 13:47:21.52	51.27	30.40	-39.0	-40.0	21.9	0.00e+00	0	28	0	545259520	50	6461
2026-01-13 13:47:25.56	52.28	30.95	-38.4	-39.4	22.4	0.00e+00	0	28	0	552599552	50	6011
2026-01-13 13:47:29.59	53.32	31.50	-38.6	-39.6	22.3	0.00e+00	90	28	0	559939584	50	6163
2026-01-13 13:47:33.63	54.40	32.05	-41.7	-43.4	18.9	0.00e+00	0	28	0	568328192	54	7514
2026-01-13 13:47:37.67	55.51	32.60	-41.0	-42.4	19.9	0.00e+00	0	28	0	575668224	56	5997
2026-01-13 13:47:41.71	56.66	33.15	-40.7	-42.0	20.2	0.00e+00	14	28	0	583008256	54	6457
2026-01-13 13:47:45.75	57.85	33.69	-41.6	-43.2	19.2	0.00e+00	0	28	0	590348288	56	6545
2026-01-13 13:47:49.79	59.09	34.24	-41.2	-42.8	19.5	0.00e+00	0	28	0	598736896	56	6261
2026-01-13 13:47:53.82	60.35	34.77	-41.9	-43.5	19.2	0.00e+00	0	28	0	606076928	56	6800
2026-01-13 13:47:57.86	61.67	35.30	-41.7	-43.3	19.0	0.00e+00	92	28	0	613416960	56	6670
2026-01-13 13:48:01.90	63.02	35.82	-41.2	-42.6	19.7	0.00e+00	0	28	0	620756992	56	6171
2026-01-13 13:48:05.93	64.42	36.33	-42.0	-43.6	19.0	0.00e+00	0	28	0	628097024	56	6914
2026-01-13 13:48:09.97	65.86	36.83	-40.6	-41.9	20.4	0.00e+00	0	28	0	636485632	54	6353
2026-01-13 13:48:14.01	67.35	37.32	-41.8	-43.5	19.1	0.00e+00	21	28	0	643825664	56	6775
2026-01-13 13:48:18.04	68.87	37.79	-39.2	-40.4	21.6	0.00e+00	0	28	0	651165696	52	5985
2026-01-13 13:48:22.08	70.44	38.24	-40.3	-41.6	20.7	0.00e+00	0	28	0	658505728	52	6919
2026-01-13 13:48:26.12	72.06	38.68	-39.4	-40.6	21.3	0.00e+00	0	28	0	665845760	52	6139
2026-01-13 13:48:30.16	73.72	39.10	-40.3	-41.7	20.8	0.00e+00	91	28	0	674234368	52	6939
2026-01-13 13:48:34.20	75.42	39.49	-38.8	-39.8	22.0	0.00e+00	0	28	0	681574400	52	5628
2026-01-13 13:48:38.24	77.16	39.86	-39.3	-40.5	21.5	0.00e+00	0	28	0	688914432	50	6778
2026-01-13 13:48:42.27	78.94	40.21	-40.2	-41.5	20.5	0.00e+00	48	28	0	696254464	54	6057
2026-01-13 13:48:46.31	80.75	40.52	-39.2	-40.3	21.8	0.00e+00	0	28	0	704643072	52	5915
2026-01-13 13:48:50.34	82.60	40.81	-42.6	-44.5	18.0	0.00e+00	0	28	0	711983104	56	7676
2026-01-13 13:48:54.38	84.48	41.06	-41.5	-43.0	19.4	0.00e+00	0	28	0	719323136	56	6451
2026-01-13 13:48:58.42	86.39	41.29	-42.2	-43.9	18.5	0.00e+00	92	28	0	726663168	56	7150
2026-01-13 13:49:02.45	88.31	41.48	-43.0	-45.0	17.2	0.00e+00	0	28	0	734003200	58	7230
2026-01-13 13:49:06.49	90.27	41.63	-42.6	-44.5	18.2	0.00e+00	0	28	0	742391808	58	6826
2026-01-13 13:49:10.53	92.24	41.75	-44.7	-47.9	15.0	3.00e-06	0	28	0	749731840	60	9023
2026-01-13 13:49:14.57	94.22	41.83	-40.4	-41.7	20.4	0.00e+00	48	28	0	757071872	54	6209
2026-01-13 13:49:18.61	96.21	41.87	-41.2	-42.6	19.8	0.00e+00	0	28	0	764411904	56	6161
2026-01-13 13:49:22.64	98.19	41.87	-41.7	-43.3	18.8	0.00e+00	0	28	0	772800512	56	6631
2026-01-13 13:49:26.68	100.19	41.84	-41.5	-43.0	19.3	0.00e+00	42	28	0	780140544	54	7247
2026-01-13 13:49:30.72	102.17	41.77	-38.7	-39.8	21.5	0.00e+00	44	27	0	787480576	50	6276
2026-01-13 13:49:34.76	104.14	41.66	-41.3	-42.8	19.6	0.00e+00	0	28	0	794820608	56	6271
2026-01-13 13:49:38.80	106.10	41.52	-40.3	-41.6	20.7	0.00e+00	0	28	0	802160640	54	6139
2026-01-13 13:49:42.84	108.04	41.34	-41.0	-42.5	19.8	0.00e+00	92	28	0	810549248	54	6792
2026-01-13 13:49:46.87	109.96	41.12	-40.9	-42.4	19.9	0.00e+00	0	28	0	817889280	54	6700
2026-01-13 13:49:50.91	111.85	40.87	-41.0	-42.6	19.9	0.00e+00	0	28	0	825229312	56	6124
2026-01-13 13:49:54.95	113.71	40.60	-38.8	-39.9	22.2	0.00e+00	0	28	0	832569344	52	5656
2026-01-13 13:49:58.99	115.53	40.28	-38.6	-39.7	22.2	0.00e+00	25	28	0	840957952	50	6191
2026-01-13 13:50:03.03	117.32	39.95	-37.8	-38.8	23.0	0.00e+00	0	28	0	848297984	50	5611
2026-01-13 13:50:07.07	119.08	39.58	-36.9	-37.8	23.7	0.00e+00	0	28	0	855638016	48	5588
2026-01-13 13:50:11.11	120.79	39.19	-34.9	-35.7	25.2	0.00e+00	38	28	0	862978048	42	6197
2026-01-13 13:50:15.15	122.46	38.78	-35.1	-35.9	25.1	0.00e+00	92	28	0	870318080	42	6326
2026-01-13 13:50:19.19	124.09	38.34	-35.0	-35.8	25.1	0.00e+00	0	28	0	878706688	44	5602
2026-01-13 13:50:23.22	125.68	37.89	-34.0	-34.7	25.2	0.00e+00	0	28	0	886046720	40	6216
2026-01-13 13:50:27.26	127.22	37.42	-34.8	-35.6	25.2	0.00e+00	43	28	0	893386752	42	6148
2026-01-13 13:50:31.29	128.72	36.94	-34.3	-35.1	25.3	0.00e+00	0	28	0	900726784	42	5763
2026-01-13 13:50:35.33	130.17	36.44	-35.4	-36.2	24.8	0.00e+00	0	28	0	909115392	42	6558
2026-01-13 13:50:39.37	131.59	35.93	-36.8	-37.7	23.8	0.00e+00	0	28	0	916455424	46	6223
2026-01-13 13:50:43.40	132.95	35.41	-36.1	-36.9	24.3	0.00e+00	92	28	0	923795456	46	5686
2026-01-13 13:50:47.44	134.28	34.88	-36.7	-37.5	23.9	0.00e+00	0	28	0	931135488	46	6089
2026-01-13 13:50:51.48	135.56	34.34	-38.6	-39.6	22.2	0.00e+00	0	28	0	938475520	48	6922
2026-01-13 13:50:55.52	136.81	33.80	-36.4	-37.3	24.0	0.00e+00	0	28	0	946864128	46	5905
2026-01-13 13:50:59.55	138.01	33.25	-41.5	-43.1	19.2	0.00e+00	42	28	0	954204160	54	7278
2026-01-13 13:51:03.59	139.17	32.70	-37.9	-38.8	22.9	0.00e+00	0	28	0	961544192	50	5585
2026-01-13 13:51:07.63	140.30	32.15	-40.9	-42.4	20.0	0.00e+00	0	28	0	968884224	56	5968
2026-01-13 13:51:11.67	141.39	31.60	-37.5	-38.4	23.2	0.00e+00	38	28	0	976224256	46	6702
2026-01-13 13:51:15.71	142.44	31.04	-39.6	-40.8	21.2	0.00e+00	0	28	0	984612864	54	5621
2026-01-13 13:51:19.75	143.46	30.49	-37.4	-38.3	23.1	0.00e+00	0	28	0	991952896	48	5909
2026-01-13 13:51:23.78	144.44	29.94	-39.1	-40.2	21.8	0.00e+00	0	28	0	999292928	52	5888
2026-01-13 13:51:27.82	145.39	29.39	-37.2	-38.1	23.5	0.00e+00	90	28	0	1006632960	46	6498
2026-01-13 13:51:31.85	146.31	28.84	-39.7	-41.0	21.1	0.00e+00	0	28	0	1015021568	52	6424
2026-01-13 13:51:35.89	147.20	28.29	-36.3	-37.2	24.1	0.00e+00	0	28	0	1022361600	46	5837
2026-01-13 13:51:39.93	148.07	27.75	-38.6	-39.7	22.1	0.00e+00	0	28	0	1029701632	48	6973
2026-01-13 13:51:43.97	148.90	27.21	-37.3	-38.2	23.4	0.00e+00	90	28	0	1037041664	48	5880
2026-01-13 13:51:48.00	149.71	26.68	-37.8	-38.8	22.7	0.00e+00	0	28	0	1044381696	48	6255
2026-01-13 13:51:52.04	150.49	26.15	-37.7	-38.6	22.6	0.00e+00	0	28	0	1052770304	48	6170
2026-01-13 13:51:56.08	151.24	25.63	-36.6	-37.4	23.9	0.00e+00	13	28	0	1060110336	46	6023
2026-01-13 13:52:00.12	151.98	25.11	-36.6	-37.4	24.0	0.00e+00	92	28	0	1067450368	46	6024
2026-01-13 13:52:04.15	152.68	24.60	-36.8	-37.7	23.7	0.00e+00	0	28	0	1074790400	46	6217
2026-01-13 13:52:08.19	153.37	24.09	-37.0	-37.9	23.5	0.00e+00	0	28	0	1083179008	46	6363
2026-01-13 13:52:12.23	154.04	23.59	-36.7	-37.6	23.7	0.00e+00	41	28	0	1090519040	46	6131
2026-01-13 13:52:16.27	154.69	23.09	-37.9	-38.9	22.6	0.00e+00	0	28	0	1097859072	48	6356
2026-01-13 13:52:20.31	155.31	22.60	-38.3	-39.4	22.2	0.00e+00	0	28	0	1105199104	50	5990
2026-01-13 13:52:24.35	155.92	22.12	-37.6	-38.5	23.0	0.00e+00	0	28	0	1112539136	48	6096
2026-01-13 13:52:28.39	156.51	21.64	-38.0	-39.0	22.6	0.00e+00	90	28	0	1120927744	48	6438
2026-01-13 13:52:32.43	157.08	21.17	-38.8	-40.0	21.9	0.00e+00	0	28	0	1128267776	50	6397
2026-01-13 13:52:36.46	157.64	20.71	-37.3	-38.2	23.1	0.00e+00	0	28	0	1135607808	48	5879
2026-01-13 13:52:40.50	158.18	20.24	-36.4	-37.2	23.8	0.00e+00	35	28	0	1142947840	46	5884
2026-01-13 13:52:44.54	158.71	19.79	-37.2	-38.2	23.2	0.00e+00	67	28	0	1151336448	46	6545
2026-01-13 13:52:48.57	159.21	19.34	-37.6	-38.6	22.9	0.00e+00	0	28	0	1158676480	48	6115
2026-01-13 13:52:52.61	159.71	18.90	-37.8	-38.8	22.6	0.00e+00	0	28	0	1166016512	48	6297
2026-01-13 13:52:56.65	160.19	18.46	-36.9	-37.8	23.4	0.00e+00	48	28	0	1173356544	48	5611
2026-01-13 13:53:00.68	160.66	18.03	-37.1	-38.1	23.2	0.00e+00	0	28	0	1180696576	46	6477
2026-01-13 13:53:04.72	161.12	17.61	-37.3	-38.2	23.1	0.00e+00	0	28	0	1189085184	46	6588
2026-01-13 13:53:08.76	161.56	17.19	-37.9	-38.9	22.6	0.00e+00	0	28	0	1196425216	48	6345
2026-01-13 13:53:12.80	162.00	16.78	-38.4	-39.4	22.1	0.00e+00	69	28	0	1203765248	48	6750
2026-01-13 13:53:16.83	162.42	16.37	-39.3	-40.4	21.2	0.00e+00	0	28	0	1211105280	50	6751
2026-01-13 13:53:20.87	162.83	15.97	-40.1	-41.4	20.4	0.00e+00	0	28	0	1218445312	52	6751
2026-01-13 13:53:24.91	163.23	15.57	-39.9	-41.2	20.5	0.00e+00	0	28	0	1226833920	52	6544
2026-01-13 13:53:28.95	163.62	15.18	-39.0	-40.1	21.6	0.00e+00	92	28	0	1234173952	52	5827
2026-01-13 13:53:32.98	164.00	14.79	-38.1	-39.1	22.3	0.00e+00	0	28	0	1241513984	50	5803
2026-01-13 13:53:37.03	164.38	14.40	-37.3	-38.2	23.0	0.00e+00	0	28	0	1248854016	48	5850
2026-01-13 13:53:41.06	164.74	14.03	-37.1	-38.0	23.2	0.00e+00	25	28	0	1257242624	48	5707
2026-01-13 13:53:45.10	165.09	13.66	-37.3	-38.2	23.0	0.00e+00	90	28	0	1264582656	46	6581
2026-01-13 13:53:49.14	165.44	13.29	-37.4	-38.4	23.0	0.00e+00	0	28	0	1271922688	46	6700
2026-01-13 13:53:53.18	165.78	12.92	-38.0	-39.1	22.3	0.00e+00	0	28	0	1279262720	48	6499
2026-01-13 13:53:57.21	166.10	12.57	-38.4	-39.5	22.0	0.00e+00	32	28	0	1286602752	48	6818
2026-01-13 13:54:01.25	166.43	12.21	-39.0	-40.1	21.5	0.00e+00	0	28	0	1294991360	50	6538
2026-01-13 13:54:05.28	166.74	11.86	-38.7	-39.8	21.7	0.00e+00	0	28	0	1302331392	50	6296
2026-01-13 13:54:09.32	167.05	11.52	-39.1	-40.2	21.3	0.00e+00	0	28	0	1309671424	50	6576
2026-01-13 13:54:13.36	167.35	11.17	-39.1	-40.2	21.3	0.00e+00	91	28	0	1317011456	50	6567
2026-01-13 13:54:17.39	167.65	10.84	-39.0	-40.1	21.3	0.00e+00	0	28	0	1325400064	50	6516
2026-01-13 13:54:21.43	167.93	10.50	-39.3	-40.4	21.1	0.00e+00	0	28	0	1332740096	50	6752
2026-01-13 13:54:25.46	168.22	10.17	-39.7	-41.0	20.7	0.00e+00	0	28	0	1340080128	52	6421
2026-01-13 13:54:29.50	168.49	9.85	-39.5	-40.8	20.8	0.00e+00	92	28	0	1347420160	52	6248
2026-01-13 13:54:33.54	168.76	9.52	-39.7	-41.0	20.6	0.00e+00	0	28	0	1354760192	52	6427
2026-01-13 13:54:37.57	169.03	9.21	-39.4	-40.6	20.8	0.00e+00	0	28	0	1363148800	52	6148
2026-01-13 13:54:41.61	169.29	8.89	-39.9	-41.2	20.4	0.00e+00	29	28	0	1370488832	52	6547
2026-01-13 13:54:45.65	169.54	8.58	-39.3	-40.5	21.0	0.00e+00	26	28	0	1377828864	52	6039
2026-01-13 13:54:49.68	169.79	8.27	-39.0	-40.2	21.2	0.00e+00	0	28	0	1385168896	52	5835
2026-01-13 13:54:53.72	170.04	7.97	-39.2	-40.4	21.0	0.00e+00	0	28	0	1392508928	52	6012
2026-01-13 13:54:57.76	170.28	7.66	-39.2	-40.4	21.0	0.00e+00	92	28	0	1400897536	52	5993
2026-01-13 13:55:01.80	170.51	7.37	-39.2	-40.5	20.8	0.00e+00	0	28	0	1408237568	52	6036
2026-01-13 13:55:05.83	170.74	7.07	-39.7	-40.9	20.5	0.00e+00	0	28	0	1415577600	52	6374
2026-01-13 13:55:09.87	170.97	6.78	-40.1	-41.5	19.9	0.00e+00	0	28	0	1422917632	52	6810
2026-01-13 13:55:13.91	171.19	6.49	-40.2	-41.5	19.8	0.00e+00	90	28	0	1431306240	52	6827
2026-01-13 13:55:17.95	171.41	6.20	-40.7	-42.2	19.2	0.00e+00	0	28	0	1438646272	54	6606
2026-01-13 13:55:21.98	171.62	5.92	-41.1	-42.7	18.7	0.00e+00	0	28	0	1445986304	54	6964
2026-01-13 13:55:26.02	171.84	5.64	-41.2	-42.8	18.5	0.00e+00	0	28	0	1453326336	54	7079
2026-01-13 13:55:30.05	172.04	5.36	-41.4	-43.2	18.2	0.00e+00	61	28	0	1460666368	54	7358
2026-01-13 13:55:34.09	172.24	5.08	-40.9	-42.5	18.8	0.00e+00	0	28	0	1469054976	54	6774
2026-01-13 13:55:38.13	172.44	4.81	-41.3	-43.0	18.2	0.00e+00	0	28	0	1476395008	54	7220
2026-01-13 13:55:42.16	172.64	4.54	-41.4	-43.1	18.0	0.00e+00	79	28	0	1483735040	54	7321
2026-01-13 13:55:46.19	172.83	4.27	-41.3	-43.0	18.1	0.00e+00	0	28	0	1491075072	56	6400
2026-01-13 13:55:50.23	173.02	4.01	-41.2	-42.9	18.1	0.00e+00	0	28	0	1499463680	56	6329
2026-01-13 13:55:54.27	173.21	3.74	-41.3	-43.0	17.8	0.00e+00	0	28	0	1506803712	54	7248
2026-01-13 13:55:58.31	173.39	3.48	-41.2	-42.9	18.1	0.00e+00	92	28	0	1514143744	54	7145
2026-01-13 13:56:02.35	173.57	3.22	-41.6	-43.5	17.3	0.00e+00	0	28	0	1521483776	56	6780
2026-01-13 13:56:06.38	173.75	2.97	-47.7	-62.9	3.6	1.51e+00	0	28	104	1527775232	60	50443
2026-01-13 13:56:10.42	173.93	2.71	-48.4	-63.6	3.6	1.51e+00	0	28	104	1527775232	60	54774
2026-01-13 13:56:14.46	174.10	2.46	-48.5	-63.8	3.6	1.51e+00	0	28	104	1527775232	60	55685
2026-01-13 13:56:18.50	174.27	2.21	-48.5	-63.7	3.6	1.51e+00	0	28	104	1527775232	60	55173
2026-01-13 13:56:22.54	174.43	1.96	-48.5	-63.7	3.6	1.51e+00	0	28	104	1527775232	60	55247
2026-01-13 13:56:26.59	174.60	1.71	-48.5	-63.6	3.6	1.51e+00	0	28	104	1527775232	60	54951
2026-01-13 13:56:30.63	174.76	1.47	-48.5	-63.7	3.6	1.51e+00	0	28	104	1527775232	60	55235
2026-01-13 13:56:34.67	174.92	1.22	-48.5	-63.6	3.6	1.51e+00	0	28	104	1527775232	60	54755
2026-01-13 13:56:38.70	175.08	0.98	-48.5	-63.7	3.6	1.51e+00	0	28	104	1527775232	60	55040
2026-01-13 13:56:42.74	175.23	0.75	-48.5	-63.6	3.6	1.51e+00	0	28	104	1527775232	60	54978
2026-01-13 13:56:46.78	175.38	0.51	-48.5	-63.7	3.6	1.51e+00	0	28	104	1527775232	60	55207
2026-01-13 13:56:50.83	175.53	0.27	-48.5	-63.6	3.6	1.51e+00	0	28	104	1527775232	60	55019
2026-01-13 13:56:54.87	175.68	0.04	-48.5	-63.7	3.6	1.51e+00	0	28	104	1527775232	60	55126

#Closed at: 2026-01-13 13:56:55
#Recorded file [1527 MB]: D:/lorett/data/35029_260114_014146.dat