passes_logs/2026/01/13/R4.6S_Anadyr/R4.6S_Anadyr__20260113_075427_TY-42_rec.log

#Pass ID: 20260113_075427_TY-42
#Satellite: TY-42
#Configuration: TY-42_900M
#almurnet v.1.7.20251203
#Start time: 2026-01-13 07:54:59

#Version: 2.2.20231116
#Station: R4.6S_Anadyr
#Location: 177.4865 lon 64.73178 lat
#TLE: 1 64048U 25103A   26012.66797454  .00008010  00000-0  38191-3 0 09996
#TLE: 2 64048 097.4120 088.1293 0001877 092.3162 302.2280 15.19166642 36461

#Time	Az	El	Level	Level2	SNR	BER	BlckErr	Temp	State	Recorded	gain1	gain2
2026-01-13 07:54:59.57	115.60	1.98	-48.7	-60.4	3.5	8.45e-01	0	24	0	0	60	37950
2026-01-13 07:55:02.60	115.37	2.17	-46.3	-48.9	6.1	0.00e+00	0	26	104	0	60	34079
2026-01-13 07:55:05.63	115.14	2.37	-46.3	-48.9	6.1	0.00e+00	0	26	104	0	60	33944
2026-01-13 07:55:08.66	114.91	2.56	-46.3	-48.9	6.1	0.00e+00	0	26	104	0	60	33964
2026-01-13 07:55:11.68	114.67	2.76	-46.3	-48.9	6.1	0.00e+00	0	26	104	0	60	34194
2026-01-13 07:55:14.71	114.42	2.96	-46.3	-48.9	6.1	0.00e+00	0	26	104	0	60	34167
2026-01-13 07:55:17.74	114.17	3.16	-46.3	-48.9	6.1	0.00e+00	0	26	104	0	60	34164
2026-01-13 07:55:20.77	113.92	3.36	-46.3	-48.9	6.1	0.00e+00	0	27	104	0	60	34146
2026-01-13 07:55:23.80	113.66	3.57	-46.3	-48.9	6.1	0.00e+00	0	26	104	0	60	34214
2026-01-13 07:55:26.83	113.40	3.77	-46.3	-48.9	6.1	0.00e+00	0	27	104	0	60	34167
2026-01-13 07:55:29.85	113.13	3.98	-46.4	-48.9	6.1	0.00e+00	0	27	104	0	60	34056
2026-01-13 07:55:32.88	112.86	4.19	-46.6	-49.2	6.1	0.00e+00	0	27	104	0	60	35275
2026-01-13 07:55:35.91	112.58	4.40	-46.5	-49.1	6.1	0.00e+00	0	27	104	0	60	35111
2026-01-13 07:55:38.94	112.30	4.61	-47.5	-50.0	6.1	0.00e+00	0	27	104	0	60	38573
2026-01-13 07:55:41.97	112.01	4.83	-47.3	-49.8	6.1	0.00e+00	0	27	104	0	60	37852
2026-01-13 07:55:44.99	111.72	5.04	-47.4	-49.9	6.1	0.00e+00	0	27	104	0	60	38392
2026-01-13 07:55:48.02	111.42	5.26	-47.4	-50.0	6.1	0.00e+00	0	27	104	0	60	38583
2026-01-13 07:55:51.05	111.11	5.48	-47.4	-50.0	6.1	0.00e+00	0	27	104	0	60	38593
2026-01-13 07:55:54.08	110.80	5.70	-47.0	-49.4	6.1	9.22e-02	0	27	104	25165824	60	36140
2026-01-13 07:55:57.10	110.48	5.92	-29.6	-30.1	15.0	6.75e-02	0	28	0	209715200	34	17555
2026-01-13 07:56:00.13	110.16	6.15	-27.3	-27.9	16.0	3.83e-03	0	28	0	545259520	30	17052
2026-01-13 07:56:03.16	109.83	6.37	-27.2	-27.7	16.0	6.27e-04	0	28	0	889192448	30	16786
2026-01-13 07:56:06.19	109.49	6.60	-26.9	-27.5	16.0	4.25e-04	0	28	0	1233125376	30	16270
2026-01-13 07:56:09.22	109.14	6.83	-26.7	-27.3	16.2	3.05e-04	0	28	0	1568669696	28	17864
2026-01-13 07:56:12.25	108.79	7.07	-26.8	-27.3	16.1	1.63e-04	0	28	0	1912602624	28	17932
2026-01-13 07:56:15.28	108.43	7.30	-26.5	-27.1	16.1	2.72e-04	0	28	0	2248146944	28	17412
2026-01-13 07:56:18.31	108.07	7.54	-26.3	-26.9	16.3	2.62e-04	0	28	0	2592079872	28	17047
2026-01-13 07:56:21.34	107.69	7.77	-26.2	-26.7	16.4	1.14e-04	0	28	0	2936012800	28	16772
2026-01-13 07:56:24.36	107.31	8.01	-26.1	-26.6	16.3	4.90e-05	0	28	0	3271557120	28	16540
2026-01-13 07:56:27.39	106.92	8.25	-25.9	-26.5	16.5	5.99e-05	0	28	0	3615490048	28	16256
2026-01-13 07:56:30.42	106.53	8.50	-26.0	-26.5	16.5	9.80e-05	0	28	0	3959422976	26	18263
2026-01-13 07:56:33.45	106.12	8.75	-25.7	-26.2	16.6	4.35e-05	0	29	0	4294967296	26	17755
2026-01-13 07:56:36.48	105.70	8.99	-25.5	-26.1	16.6	7.08e-05	0	29	0	4638900224	26	17436
2026-01-13 07:56:39.50	105.28	9.24	-25.5	-26.0	16.5	4.90e-05	0	29	0	4982833152	26	17345
2026-01-13 07:56:42.53	104.85	9.49	-25.3	-25.8	16.7	2.72e-05	0	29	0	5318377472	26	16918
2026-01-13 07:56:45.55	104.41	9.75	-25.1	-25.6	16.7	7.62e-05	0	29	0	5662310400	26	16520
2026-01-13 07:56:48.58	103.95	10.00	-25.2	-25.7	16.8	3.81e-05	0	29	0	5997854720	26	16642
2026-01-13 07:56:51.61	103.49	10.26	-25.4	-25.8	16.8	1.63e-05	0	29	0	6341787648	26	16974
2026-01-13 07:56:54.63	103.02	10.52	-25.0	-25.5	16.9	5.40e-06	0	29	0	6677331968	26	16337
2026-01-13 07:56:57.65	102.54	10.78	-25.1	-25.6	16.8	1.08e-05	0	29	0	7021264896	26	16433
2026-01-13 07:57:00.68	102.05	11.05	-24.9	-25.4	16.9	1.63e-05	0	29	0	7356809216	26	16174
2026-01-13 07:57:03.71	101.54	11.31	-24.8	-25.3	17.1	1.08e-05	0	29	0	7700742144	26	15956
2026-01-13 07:57:06.74	101.02	11.58	-24.7	-25.2	17.1	0.00e+00	0	29	0	8036286464	24	17619
2026-01-13 07:57:09.76	100.50	11.85	-24.6	-25.1	17.1	5.40e-06	0	29	0	8380219392	24	17410
2026-01-13 07:57:12.79	99.96	12.12	-24.5	-25.0	17.1	0.00e+00	0	29	0	8724152320	24	17343
2026-01-13 07:57:15.82	99.40	12.40	-24.4	-24.9	17.1	5.40e-06	0	29	0	9059696640	24	17058
2026-01-13 07:57:18.84	98.84	12.67	-24.3	-24.7	17.3	0.00e+00	0	29	0	9403629568	24	16799
2026-01-13 07:57:21.88	98.26	12.95	-24.1	-24.6	17.2	5.40e-06	0	29	0	9747562496	24	16447
2026-01-13 07:57:24.91	97.67	13.23	-24.0	-24.5	17.3	0.00e+00	0	29	0	10091495424	24	16416
2026-01-13 07:57:27.93	97.07	13.51	-23.8	-24.3	17.2	0.00e+00	0	29	0	10427039744	24	15961
2026-01-13 07:57:30.96	96.45	13.79	-23.7	-24.2	17.3	0.00e+00	0	29	0	10770972672	22	17755
2026-01-13 07:57:33.99	95.81	14.07	-23.6	-24.1	17.2	0.00e+00	0	29	0	11106516992	22	17554
2026-01-13 07:57:37.02	95.17	14.35	-23.4	-23.9	17.2	5.40e-06	0	29	0	11450449920	22	17082
2026-01-13 07:57:40.05	94.50	14.64	-23.4	-23.9	17.3	0.00e+00	0	29	0	11794382848	22	17121
2026-01-13 07:57:43.07	93.83	14.92	-23.2	-23.7	17.1	0.00e+00	0	29	0	12129927168	22	16680
2026-01-13 07:57:46.10	93.13	15.21	-23.1	-23.6	17.3	0.00e+00	0	29	0	12473860096	22	16491
2026-01-13 07:57:49.13	92.42	15.50	-23.2	-23.7	17.3	0.00e+00	0	29	0	12809404416	22	16647
2026-01-13 07:57:52.16	91.70	15.78	-23.1	-23.6	17.2	0.00e+00	0	29	0	13153337344	22	16442
2026-01-13 07:57:55.19	90.95	16.07	-22.8	-23.2	17.3	0.00e+00	0	29	0	13497270272	22	15852
2026-01-13 07:57:58.22	90.19	16.36	-22.6	-23.1	17.4	0.00e+00	0	29	0	13832814592	20	17520
2026-01-13 07:58:01.25	89.42	16.65	-22.7	-23.2	17.4	0.00e+00	0	29	0	14176747520	20	17648
2026-01-13 07:58:04.28	88.62	16.93	-22.4	-22.9	17.4	0.00e+00	0	30	0	14512291840	20	17107
2026-01-13 07:58:07.31	87.81	17.22	-22.2	-22.6	17.4	0.00e+00	0	30	0	14856224768	20	16573
2026-01-13 07:58:10.34	86.98	17.50	-22.0	-22.5	17.4	0.00e+00	0	30	0	15191769088	20	16293
2026-01-13 07:58:13.37	86.13	17.79	-22.0	-22.5	17.4	0.00e+00	0	30	0	15535702016	20	16297
2026-01-13 07:58:16.39	85.27	18.07	-22.1	-22.5	17.4	0.00e+00	0	30	0	15879634944	20	16382
2026-01-13 07:58:19.42	84.38	18.35	-21.9	-22.4	17.3	0.00e+00	0	30	0	16215179264	20	16059
2026-01-13 07:58:22.45	83.47	18.63	-21.9	-22.4	17.2	0.00e+00	0	30	0	16559112192	20	16063
2026-01-13 07:58:25.48	82.55	18.90	-21.8	-22.2	17.4	0.00e+00	0	30	0	16903045120	20	15848
2026-01-13 07:58:28.50	81.61	19.17	-21.7	-22.1	17.4	0.00e+00	0	30	0	17238589440	18	17577
2026-01-13 07:58:31.53	80.64	19.44	-21.6	-22.1	17.5	0.00e+00	0	30	0	17582522368	18	17480
2026-01-13 07:58:34.56	79.66	19.70	-21.6	-22.0	17.3	0.00e+00	0	30	0	17926455296	18	17395
2026-01-13 07:58:37.58	78.66	19.96	-21.5	-21.9	17.1	0.00e+00	0	30	0	18261999616	18	17159
2026-01-13 07:58:40.61	77.64	20.21	-21.6	-22.1	17.4	0.00e+00	0	30	0	18605932544	18	17418
2026-01-13 07:58:43.64	76.60	20.46	-21.3	-21.7	17.4	0.00e+00	0	30	0	18949865472	18	16773
2026-01-13 07:58:46.67	75.54	20.70	-21.4	-21.8	17.4	0.00e+00	0	30	0	19285409792	18	16974
2026-01-13 07:58:49.70	74.46	20.94	-21.4	-21.8	17.4	0.00e+00	0	30	0	19629342720	18	16976
2026-01-13 07:58:52.72	73.37	21.16	-21.1	-21.5	17.0	0.00e+00	0	30	0	19964887040	18	16358
2026-01-13 07:58:55.75	72.26	21.38	-20.9	-21.4	17.3	0.00e+00	0	30	0	20308819968	18	16088
2026-01-13 07:58:58.78	71.12	21.60	-20.8	-21.2	17.3	0.00e+00	0	30	0	20644364288	18	15795
2026-01-13 07:59:01.81	69.97	21.80	-20.7	-21.1	17.3	0.00e+00	0	30	0	20988297216	16	17512
2026-01-13 07:59:04.83	68.81	21.99	-20.7	-21.1	17.1	0.00e+00	0	30	0	21323841536	16	17512
2026-01-13 07:59:07.86	67.63	22.18	-20.8	-21.3	17.3	0.00e+00	0	30	0	21667774464	16	17884
2026-01-13 07:59:10.89	66.43	22.35	-20.8	-21.3	17.2	0.00e+00	0	30	0	22003318784	16	17822
2026-01-13 07:59:13.91	65.22	22.51	-20.6	-21.0	17.1	0.00e+00	0	30	0	22347251712	16	17305
2026-01-13 07:59:16.94	63.99	22.66	-20.7	-21.1	17.1	0.00e+00	0	30	0	22691184640	16	17486
2026-01-13 07:59:19.97	62.75	22.80	-20.6	-21.0	17.1	0.00e+00	0	30	0	23026728960	16	17312
2026-01-13 07:59:23.00	61.50	22.93	-20.6	-21.0	17.1	0.00e+00	0	30	0	23370661888	16	17273
2026-01-13 07:59:26.03	60.24	23.05	-20.7	-21.1	17.0	0.00e+00	0	30	0	23714594816	16	17601
2026-01-13 07:59:29.05	58.97	23.15	-20.7	-21.1	16.9	0.00e+00	0	30	0	24050139136	16	17512
2026-01-13 07:59:32.08	57.69	23.24	-20.7	-21.1	16.6	0.00e+00	0	30	0	24394072064	16	17420
2026-01-13 07:59:35.10	56.41	23.31	-20.7	-21.1	16.8	0.00e+00	0	30	0	24738004992	16	17530
2026-01-13 07:59:38.13	55.11	23.37	-20.7	-21.1	16.9	0.00e+00	0	30	0	25073549312	16	17511
2026-01-13 07:59:41.16	53.82	23.42	-20.8	-21.2	16.9	0.00e+00	0	30	0	25417482240	16	17634
2026-01-13 07:59:44.19	52.51	23.45	-20.6	-21.0	16.8	0.00e+00	0	30	0	25761415168	16	17305
2026-01-13 07:59:47.22	51.21	23.47	-20.6	-21.1	17.0	0.00e+00	0	30	0	26096959488	16	17435
2026-01-13 07:59:50.24	49.91	23.47	-20.7	-21.1	17.0	0.00e+00	0	30	0	26440892416	16	17548
2026-01-13 07:59:53.27	48.60	23.46	-20.6	-21.1	17.0	0.00e+00	0	30	0	26776436736	16	17438
2026-01-13 07:59:56.30	47.30	23.43	-20.7	-21.2	17.1	0.00e+00	0	30	0	27120369664	16	17644
2026-01-13 07:59:59.33	46.00	23.39	-20.7	-21.1	17.1	0.00e+00	0	30	0	27455913984	16	17526
2026-01-13 08:00:02.36	44.70	23.34	-20.7	-21.2	17.1	0.00e+00	0	30	0	27799846912	16	17640
2026-01-13 08:00:05.39	43.42	23.27	-20.5	-21.0	17.2	0.00e+00	0	30	0	28143779840	16	17349
2026-01-13 08:00:08.42	42.13	23.18	-20.8	-21.3	17.2	0.00e+00	0	30	0	28479324160	16	17838
2026-01-13 08:00:11.45	40.86	23.09	-20.6	-21.1	17.3	0.00e+00	0	30	0	28823257088	16	17453
2026-01-13 08:00:14.47	39.60	22.98	-20.7	-21.2	17.2	0.00e+00	0	30	0	29158801408	16	17748
2026-01-13 08:00:17.50	38.34	22.86	-20.7	-21.2	17.3	0.00e+00	0	30	0	29502734336	16	17703
2026-01-13 08:00:20.53	37.10	22.72	-20.8	-21.4	17.3	0.00e+00	0	30	0	29838278656	16	18067
2026-01-13 08:00:23.56	35.87	22.58	-20.8	-21.4	17.3	0.00e+00	0	30	0	30182211584	16	18015
2026-01-13 08:00:26.59	34.66	22.42	-20.9	-21.4	17.3	0.00e+00	0	30	0	30526144512	16	18110
2026-01-13 08:00:29.61	33.46	22.25	-21.0	-21.5	17.3	0.00e+00	0	30	0	30870077440	16	18383
2026-01-13 08:00:32.64	32.27	22.07	-21.0	-21.5	17.3	0.00e+00	0	30	0	31205621760	16	18395
2026-01-13 08:00:35.67	31.10	21.88	-21.0	-21.5	17.3	0.00e+00	0	30	0	31549554688	16	18371
2026-01-13 08:00:38.70	29.95	21.68	-21.0	-21.5	17.3	0.00e+00	0	30	0	31893487616	16	18301
2026-01-13 08:00:41.72	28.82	21.47	-21.1	-21.6	17.4	0.00e+00	0	30	0	32229031936	16	18569
2026-01-13 08:00:44.75	27.70	21.26	-21.1	-21.6	17.3	0.00e+00	0	30	0	32572964864	16	18462
2026-01-13 08:00:47.78	26.60	21.03	-21.2	-21.7	17.3	0.00e+00	0	30	0	32908509184	16	18712
2026-01-13 08:00:50.81	25.51	20.80	-21.1	-21.6	17.3	0.00e+00	0	30	0	33252442112	16	18442
2026-01-13 08:00:53.83	24.45	20.56	-21.1	-21.5	17.4	0.00e+00	0	30	0	33587986432	16	18428
2026-01-13 08:00:56.87	23.41	20.32	-21.3	-21.7	17.5	0.00e+00	0	30	0	33931919360	16	18843
2026-01-13 08:00:59.89	22.38	20.07	-21.2	-21.7	17.4	0.00e+00	0	30	0	34275852288	16	18664
2026-01-13 08:01:02.92	21.38	19.81	-21.2	-21.8	17.5	0.00e+00	0	30	0	34611396608	16	18871
2026-01-13 08:01:05.95	20.39	19.55	-21.3	-21.8	17.5	0.00e+00	0	30	0	34955329536	16	19008
2026-01-13 08:01:08.98	19.42	19.29	-21.4	-21.9	17.5	0.00e+00	0	30	0	35290873856	16	19141
2026-01-13 08:01:12.01	18.48	19.02	-21.6	-22.1	17.6	0.00e+00	0	30	0	35634806784	16	19608
2026-01-13 08:01:15.04	17.55	18.75	-21.7	-22.2	17.5	0.00e+00	0	30	0	35978739712	16	19807
2026-01-13 08:01:18.07	16.64	18.47	-21.8	-22.3	17.6	0.00e+00	0	30	0	36314284032	18	17909
2026-01-13 08:01:21.10	15.75	18.20	-21.9	-22.5	17.5	0.00e+00	0	30	0	36658216960	18	18237
2026-01-13 08:01:24.13	14.88	17.92	-22.0	-22.5	17.5	0.00e+00	0	30	0	36993761280	18	18368
2026-01-13 08:01:27.15	14.03	17.64	-22.3	-22.8	17.5	0.00e+00	0	30	0	37337694208	18	18902
2026-01-13 08:01:30.18	13.19	17.35	-22.2	-22.7	17.6	0.00e+00	0	30	0	37681627136	18	18698
2026-01-13 08:01:33.21	12.38	17.07	-22.4	-22.9	17.5	0.00e+00	0	30	0	38017171456	18	19164
2026-01-13 08:01:36.24	11.58	16.78	-22.4	-22.9	17.6	0.00e+00	0	30	0	38361104384	18	19089
2026-01-13 08:01:39.27	10.80	16.50	-22.5	-23.0	17.6	0.00e+00	0	30	0	38705037312	18	19313
2026-01-13 08:01:42.30	10.03	16.21	-22.6	-23.1	17.5	0.00e+00	0	30	0	39048970240	18	19641
2026-01-13 08:01:45.32	9.29	15.93	-22.6	-23.0	17.5	0.00e+00	0	30	0	39384514560	18	19490
2026-01-13 08:01:48.35	8.56	15.64	-22.8	-23.3	17.5	0.00e+00	0	30	0	39728447488	20	17959
2026-01-13 08:01:51.38	7.85	15.36	-22.9	-23.4	17.5	0.00e+00	0	30	0	40063991808	20	18079
2026-01-13 08:01:54.41	7.15	15.07	-23.0	-23.5	17.5	0.00e+00	0	30	0	40407924736	20	18347
2026-01-13 08:01:57.44	6.47	14.79	-23.2	-23.7	17.4	0.00e+00	0	30	0	40751857664	20	18723
2026-01-13 08:02:00.48	5.80	14.50	-23.4	-23.9	17.4	0.00e+00	0	30	0	41087401984	20	19094
2026-01-13 08:02:03.51	5.15	14.22	-23.4	-23.9	17.4	0.00e+00	0	30	0	41431334912	20	19172
2026-01-13 08:02:06.54	4.52	13.94	-23.7	-24.1	17.4	0.00e+00	0	30	0	41775267840	20	19710
2026-01-13 08:02:09.57	3.89	13.66	-23.7	-24.1	17.4	0.00e+00	0	30	0	42110812160	22	17519
2026-01-13 08:02:12.59	3.29	13.38	-24.1	-24.5	17.4	0.00e+00	0	30	0	42454745088	22	18323
2026-01-13 08:02:15.62	2.70	13.10	-48.3	-50.7	6.1	0.00e+00	0	30	104	42513465344	60	42166
2026-01-13 08:02:18.65	2.12	12.82	-48.3	-50.8	6.1	0.00e+00	0	30	104	42513465344	60	42339
2026-01-13 08:02:21.68	1.55	12.55	-48.2	-50.7	6.0	0.00e+00	0	30	104	42513465344	60	41852
2026-01-13 08:02:24.70	1.00	12.28	-48.2	-50.7	6.1	0.00e+00	0	30	104	42513465344	60	42016
2026-01-13 08:02:27.73	0.45	12.01	-48.3	-50.8	6.1	0.00e+00	0	30	104	42513465344	60	42499
2026-01-13 08:02:30.76	359.92	11.74	-48.3	-50.8	6.1	0.00e+00	0	30	104	42513465344	60	42244
2026-01-13 08:02:33.78	359.41	11.47	-48.1	-50.7	6.1	0.00e+00	0	30	104	42513465344	60	41779
2026-01-13 08:02:36.81	358.90	11.20	-48.1	-50.6	6.1	0.00e+00	0	30	104	42513465344	60	41600
2026-01-13 08:02:39.84	358.40	10.94	-48.2	-50.7	6.1	0.00e+00	0	30	104	42513465344	60	41858
2026-01-13 08:02:42.87	357.92	10.68	-48.2	-50.7	6.1	0.00e+00	0	30	104	42513465344	60	41982
2026-01-13 08:02:45.90	357.45	10.42	-48.1	-50.6	6.1	0.00e+00	0	30	104	42513465344	60	41420
2026-01-13 08:02:48.93	356.98	10.16	-48.1	-50.5	6.1	0.00e+00	0	30	104	42513465344	60	41199
2026-01-13 08:02:51.96	356.53	9.90	-48.2	-50.6	6.1	0.00e+00	0	30	104	42513465344	60	41521
2026-01-13 08:02:54.99	356.09	9.65	-48.1	-50.5	6.1	0.00e+00	0	30	104	42513465344	60	41220
2026-01-13 08:02:58.01	355.65	9.40	-48.1	-50.6	6.1	0.00e+00	0	30	104	42513465344	60	41359
2026-01-13 08:03:01.04	355.23	9.15	-48.0	-50.5	6.1	0.00e+00	0	30	104	42513465344	60	40854
2026-01-13 08:03:04.07	354.81	8.90	-48.1	-50.6	6.1	0.00e+00	0	30	104	42513465344	60	41534
2026-01-13 08:03:07.10	354.40	8.65	-48.0	-50.5	6.1	0.00e+00	0	30	104	42513465344	60	41008
2026-01-13 08:03:10.13	354.01	8.41	-48.0	-50.5	6.1	0.00e+00	0	30	104	42513465344	60	41025
2026-01-13 08:03:13.15	353.62	8.17	-47.9	-50.4	6.1	0.00e+00	0	30	104	42513465344	60	40401
2026-01-13 08:03:16.18	353.24	7.93	-48.1	-50.5	6.1	0.00e+00	0	30	104	42513465344	60	41207
2026-01-13 08:03:19.20	352.86	7.69	-48.1	-50.6	6.1	0.00e+00	0	30	104	42513465344	60	41319
2026-01-13 08:03:22.23	352.50	7.46	-47.9	-50.4	6.1	0.00e+00	0	30	104	42513465344	60	40690
2026-01-13 08:03:25.26	352.14	7.22	-47.8	-50.3	6.1	0.00e+00	0	30	104	42513465344	60	40056
2026-01-13 08:03:28.29	351.78	6.99	-47.9	-50.4	6.1	0.00e+00	0	30	104	42513465344	60	40544
2026-01-13 08:03:31.31	351.44	6.76	-47.9	-50.4	6.1	0.00e+00	0	30	104	42513465344	60	40602
2026-01-13 08:03:34.34	351.10	6.53	-47.8	-50.3	6.1	0.00e+00	0	30	104	42513465344	60	39999
2026-01-13 08:03:37.37	350.77	6.31	-47.7	-50.2	6.1	0.00e+00	0	30	104	42513465344	60	39508
2026-01-13 08:03:40.40	350.45	6.08	-47.8	-50.3	6.1	0.00e+00	0	30	104	42513465344	60	40221
2026-01-13 08:03:43.43	350.13	5.86	-47.8	-50.3	6.1	0.00e+00	0	30	104	42513465344	60	40175
2026-01-13 08:03:46.46	349.82	5.64	-47.7	-50.1	6.1	0.00e+00	0	30	104	42513465344	60	39405
2026-01-13 08:03:49.48	349.51	5.42	-47.7	-50.1	6.1	0.00e+00	0	30	104	42513465344	60	39389
2026-01-13 08:03:52.51	349.21	5.20	-47.8	-50.3	6.1	0.00e+00	0	30	104	42513465344	60	40077
2026-01-13 08:03:55.54	348.92	4.99	-47.8	-50.2	6.1	0.00e+00	0	29	104	42513465344	60	39770
2026-01-13 08:03:58.57	348.63	4.77	-47.5	-50.0	6.1	0.00e+00	0	30	104	42513465344	60	38782
2026-01-13 08:04:01.59	348.35	4.56	-46.8	-49.2	6.1	0.00e+00	0	30	104	42513465344	60	35502
2026-01-13 08:04:04.62	348.07	4.35	-45.8	-48.3	6.1	0.00e+00	0	30	104	42513465344	60	31821
2026-01-13 08:04:07.65	347.80	4.14	-44.9	-47.3	6.1	0.00e+00	0	30	104	42513465344	60	28523
2026-01-13 08:04:10.67	347.53	3.93	-44.9	-47.4	6.1	0.00e+00	0	30	104	42513465344	60	28553
2026-01-13 08:04:13.70	347.27	3.73	-45.2	-47.7	6.1	0.00e+00	0	29	104	42513465344	60	29889
2026-01-13 08:04:16.73	347.01	3.52	-44.1	-46.6	6.1	0.00e+00	0	30	104	42513465344	60	26186
2026-01-13 08:04:19.75	346.76	3.32	-43.9	-46.3	6.1	0.00e+00	0	29	104	42513465344	60	25395
2026-01-13 08:04:22.78	346.51	3.12	-43.9	-46.3	6.1	0.00e+00	0	29	104	42513465344	60	25303
2026-01-13 08:04:25.81	346.27	2.92	-47.9	-50.4	6.1	0.00e+00	0	29	104	42513465344	60	40582
2026-01-13 08:04:28.84	346.03	2.72	-48.6	-51.1	6.1	0.00e+00	0	29	104	42513465344	60	44191
2026-01-13 08:04:31.87	345.79	2.52	-48.8	-51.3	6.1	0.00e+00	0	30	104	42513465344	60	44891
2026-01-13 08:04:34.90	345.56	2.33	-48.6	-51.1	6.1	0.00e+00	0	30	104	42513465344	60	44006
2026-01-13 08:04:37.93	345.33	2.13	-48.7	-51.2	6.1	0.00e+00	0	30	104	42513465344	60	44383
2026-01-13 08:04:40.95	345.11	1.94	-48.8	-51.2	6.1	0.00e+00	0	30	104	42513465344	60	44635
2026-01-13 08:04:43.98	344.89	1.75	-48.7	-51.2	6.0	0.00e+00	0	30	104	42513465344	60	44458
2026-01-13 08:04:47.01	344.68	1.56	-48.7	-51.2	6.1	0.00e+00	0	30	104	42513465344	60	44366
2026-01-13 08:04:50.04	344.47	1.37	-48.7	-51.2	6.1	0.00e+00	0	30	104	42513465344	60	44476
2026-01-13 08:04:53.07	344.26	1.18	-48.7	-51.2	6.0	0.00e+00	0	30	104	42513465344	60	44246
2026-01-13 08:04:56.10	344.05	1.00	-48.7	-51.2	6.1	0.00e+00	0	30	104	42513465344	60	44608
2026-01-13 08:04:59.13	343.85	0.81	-48.7	-51.2	6.1	0.00e+00	0	30	104	42513465344	60	44349
2026-01-13 08:05:02.16	343.65	0.63	-48.7	-51.1	6.1	0.00e+00	0	30	104	42513465344	60	44174
2026-01-13 08:05:05.19	343.46	0.45	-48.7	-51.2	6.1	0.00e+00	0	30	104	42513465344	60	44479
2026-01-13 08:05:08.22	343.27	0.26	-48.7	-51.2	6.0	0.00e+00	0	30	104	42513465344	60	44585
2026-01-13 08:05:11.25	343.08	0.08	-48.7	-51.1	6.1	0.00e+00	0	30	104	42513465344	60	44161

#Closed at: 2026-01-13 08:05:14
#Recorded file [42513 MB]: D:/lorett/data/35029_260113_195459.dat