passes_logs/2026/01/13/R4.6S_Anadyr/R4.6S_Anadyr__20260113_221950_TY-42_rec.log

#Pass ID: 20260113_221950_TY-42
#Satellite: TY-42
#Configuration: TY-42_900M
#almurnet v.1.7.20251203
#Start time: 2026-01-13 22:20:21

#Version: 2.2.20231116
#Station: R4.6S_Anadyr
#Location: 177.4865 lon 64.73178 lat
#TLE: 1 64048U 25103A   26013.70377315  .00008011  00000-0  38191-3 0 09993
#TLE: 2 64048 097.4118 089.1457 0001799 091.6416 204.0819 15.19171765 36614

#Time	Az	El	Level	Level2	SNR	BER	BlckErr	Temp	State	Recorded	gain1	gain2
2026-01-13 22:20:21.35	22.44	1.88	-48.4	-63.3	3.5	1.51e+00	0	25	0	0	60	53127
2026-01-13 22:20:24.37	22.66	2.08	-47.0	-49.5	6.1	0.00e+00	0	27	104	0	60	36460
2026-01-13 22:20:27.40	22.88	2.27	-47.0	-49.5	6.1	0.00e+00	0	26	104	0	60	36759
2026-01-13 22:20:30.43	23.10	2.47	-47.0	-49.5	6.1	0.00e+00	0	27	104	0	60	36390
2026-01-13 22:20:33.47	23.33	2.66	-46.9	-49.5	6.1	0.00e+00	0	27	104	0	60	36425
2026-01-13 22:20:36.50	23.57	2.86	-46.9	-49.5	6.1	0.00e+00	0	27	104	0	60	36363
2026-01-13 22:20:39.53	23.80	3.06	-46.9	-49.5	6.1	0.00e+00	0	27	104	0	60	36455
2026-01-13 22:20:42.55	24.04	3.26	-46.9	-49.5	6.0	0.00e+00	0	27	104	0	60	36385
2026-01-13 22:20:45.58	24.29	3.47	-46.9	-49.4	6.1	0.00e+00	0	27	104	0	60	36225
2026-01-13 22:20:48.62	24.54	3.67	-34.4	-34.9	9.7	1.12e-01	1	27	0	67108864	34	30391
2026-01-13 22:20:51.64	24.79	3.88	-32.2	-32.5	13.7	0.00e+00	0	27	0	100663296	44	12994
2026-01-13 22:20:54.67	25.04	4.09	-31.9	-32.3	14.0	0.00e+00	0	28	0	234881024	38	17831
2026-01-13 22:20:57.70	25.31	4.30	-28.9	-29.3	15.3	1.22e-02	0	28	0	570425344	34	15925
2026-01-13 22:21:00.73	25.57	4.51	-27.7	-28.1	15.7	2.59e-03	0	28	0	914358272	30	17462
2026-01-13 22:21:03.75	25.84	4.72	-27.1	-27.5	16.0	6.21e-04	0	28	0	1249902592	30	16308
2026-01-13 22:21:06.79	26.12	4.94	-27.0	-27.4	16.0	5.18e-04	0	28	0	1593835520	30	16233
2026-01-13 22:21:09.82	26.40	5.16	-26.6	-27.0	16.2	4.31e-04	0	28	0	1937768448	28	17326
2026-01-13 22:21:12.85	26.68	5.38	-26.7	-27.1	16.2	3.11e-04	0	28	0	2273312768	28	17420
2026-01-13 22:21:15.88	26.97	5.60	-26.7	-27.1	16.2	3.60e-04	0	28	0	2617245696	28	17428
2026-01-13 22:21:18.91	27.27	5.82	-26.6	-27.0	16.2	4.47e-04	0	28	0	2961178624	28	17220
2026-01-13 22:21:21.94	27.57	6.05	-26.7	-27.1	16.2	4.09e-04	0	28	0	3296722944	28	17545
2026-01-13 22:21:24.97	27.88	6.28	-26.7	-27.1	16.3	3.71e-04	0	28	0	3640655872	28	17515
2026-01-13 22:21:28.00	28.19	6.51	-26.2	-26.6	16.4	1.96e-04	0	28	0	3976200192	28	16547
2026-01-13 22:21:31.03	28.51	6.74	-26.2	-26.6	16.3	2.07e-04	0	29	0	4320133120	28	16594
2026-01-13 22:21:34.06	28.84	6.97	-26.3	-26.7	16.3	2.29e-04	0	29	0	4664066048	28	16743
2026-01-13 22:21:37.09	29.17	7.21	-26.2	-26.6	16.4	1.74e-04	0	29	0	5007998976	28	16601
2026-01-13 22:21:40.12	29.50	7.45	-26.0	-26.4	16.5	1.42e-04	0	29	0	5343543296	28	16164
2026-01-13 22:21:43.15	29.85	7.69	-26.2	-26.6	16.5	1.03e-04	0	29	0	5687476224	28	16508
2026-01-13 22:21:46.18	30.20	7.93	-25.9	-26.3	16.5	1.09e-04	0	29	0	6031409152	28	15958
2026-01-13 22:21:49.21	30.56	8.18	-26.1	-26.5	16.3	5.44e-05	0	29	0	6366953472	28	16336
2026-01-13 22:21:52.24	30.93	8.43	-25.6	-26.0	16.6	1.03e-04	0	29	0	6710886400	26	17373
2026-01-13 22:21:55.28	31.30	8.68	-25.6	-26.0	16.6	4.90e-05	0	29	0	7054819328	26	17271
2026-01-13 22:21:58.31	31.68	8.93	-25.5	-25.9	16.6	7.62e-05	0	29	0	7390363648	26	17097
2026-01-13 22:22:01.34	32.07	9.19	-25.3	-25.7	16.7	3.81e-05	0	29	0	7734296576	26	16722
2026-01-13 22:22:04.36	32.47	9.44	-25.3	-25.7	16.5	5.40e-06	0	29	0	8078229504	26	16686
2026-01-13 22:22:07.39	32.87	9.70	-25.2	-25.6	16.4	8.71e-05	0	29	0	8413773824	26	16524
2026-01-13 22:22:10.42	33.29	9.97	-25.3	-25.7	16.5	6.53e-05	0	29	0	8757706752	26	16770
2026-01-13 22:22:13.45	33.71	10.23	-25.2	-25.6	16.6	2.17e-05	0	29	0	9093251072	26	16603
2026-01-13 22:22:16.48	34.14	10.50	-24.8	-25.2	16.8	1.63e-05	0	29	0	9437184000	24	17723
2026-01-13 22:22:19.51	34.58	10.77	-24.6	-25.0	13.9	0.00e+00	0	29	0	9781116928	24	17346
2026-01-13 22:22:22.55	35.04	11.05	-24.7	-25.1	16.7	1.65e-02	0	29	0	10116661248	24	17601
2026-01-13 22:22:25.58	35.50	11.32	-24.5	-25.0	16.8	5.40e-06	0	29	0	10460594176	24	17234
2026-01-13 22:22:28.61	35.97	11.60	-24.5	-25.0	16.9	5.40e-06	0	29	0	10796138496	24	17281
2026-01-13 22:22:31.63	36.45	11.88	-24.4	-24.8	16.9	5.40e-06	0	29	0	11140071424	24	16976
2026-01-13 22:22:34.66	36.95	12.17	-24.2	-24.7	16.7	5.40e-06	0	29	0	11484004352	24	16633
2026-01-13 22:22:37.69	37.45	12.45	-24.2	-24.6	16.7	2.17e-05	0	29	0	11819548672	24	16607
2026-01-13 22:22:40.72	37.97	12.74	-24.0	-24.4	17.0	1.08e-05	0	29	0	12163481600	24	16192
2026-01-13 22:22:43.75	38.50	13.03	-23.8	-24.2	16.9	5.40e-06	0	29	0	12499025920	24	15803
2026-01-13 22:22:46.78	39.04	13.33	-23.5	-24.0	17.1	5.40e-06	0	29	0	12842958848	22	17331
2026-01-13 22:22:49.81	39.60	13.63	-23.5	-24.0	17.1	0.00e+00	0	30	0	13186891776	22	17251
2026-01-13 22:22:52.84	40.16	13.93	-23.2	-23.7	17.0	0.00e+00	0	29	0	13522436096	22	16714
2026-01-13 22:22:55.86	40.74	14.23	-23.5	-23.9	17.1	0.00e+00	0	29	0	13866369024	22	17103
2026-01-13 22:22:58.90	41.34	14.54	-23.0	-23.4	17.2	0.00e+00	0	30	0	14210301952	22	16185
2026-01-13 22:23:01.93	41.95	14.84	-22.9	-23.4	17.1	0.00e+00	0	30	0	14545846272	22	16078
2026-01-13 22:23:04.95	42.57	15.15	-22.8	-23.3	16.9	0.00e+00	0	30	0	14889779200	20	17821
2026-01-13 22:23:07.98	43.21	15.46	-22.5	-23.0	17.2	5.40e-06	0	30	0	15233712128	20	17290
2026-01-13 22:23:11.01	43.86	15.78	-22.4	-22.9	17.3	0.00e+00	0	30	0	15569256448	20	17025
2026-01-13 22:23:14.04	44.54	16.10	-22.4	-22.9	17.3	0.00e+00	0	30	0	15913189376	20	17118
2026-01-13 22:23:17.07	45.22	16.41	-22.2	-22.7	17.3	0.00e+00	0	30	0	16257122304	20	16755
2026-01-13 22:23:20.10	45.93	16.74	-22.0	-22.5	17.4	0.00e+00	0	30	0	16592666624	20	16257
2026-01-13 22:23:23.13	46.65	17.06	-21.9	-22.4	17.4	0.00e+00	0	30	0	16936599552	18	18029
2026-01-13 22:23:26.16	47.39	17.38	-21.6	-22.1	17.4	0.00e+00	0	30	0	17272143872	18	17575
2026-01-13 22:23:29.18	48.14	17.71	-21.5	-21.9	17.5	0.00e+00	0	30	0	17616076800	18	17151
2026-01-13 22:23:32.21	48.92	18.03	-21.5	-21.9	17.5	0.00e+00	0	30	0	17951621120	18	17199
2026-01-13 22:23:35.23	49.72	18.36	-21.4	-21.9	17.4	0.00e+00	0	30	0	18295554048	18	17051
2026-01-13 22:23:38.26	50.53	18.69	-21.1	-21.6	17.4	0.00e+00	0	30	0	18639486976	18	16564
2026-01-13 22:23:41.30	51.37	19.01	-21.4	-21.9	17.5	0.00e+00	0	30	0	18975031296	18	17111
2026-01-13 22:23:44.32	52.22	19.34	-21.0	-21.5	17.5	0.00e+00	0	30	0	19318964224	18	16337
2026-01-13 22:23:47.35	53.10	19.67	-21.0	-21.5	17.4	0.00e+00	0	30	0	19654508544	18	16306
2026-01-13 22:23:50.38	54.00	20.00	-20.7	-21.2	17.5	0.00e+00	0	30	0	19998441472	16	17742
2026-01-13 22:23:53.41	54.92	20.32	-29.2	-29.5	13.9	6.60e-03	0	30	0	20342374400	34	16391
2026-01-13 22:23:56.44	55.86	20.65	-28.9	-29.2	13.0	3.66e-02	0	30	0	20677918720	34	15715
2026-01-13 22:23:59.46	56.83	20.97	-28.7	-29.0	13.8	2.68e-02	0	30	0	21021851648	32	17309
2026-01-13 22:24:02.50	57.82	21.29	-28.4	-28.7	14.3	2.58e-02	0	30	0	21365784576	32	16782
2026-01-13 22:24:05.53	58.83	21.61	-20.2	-20.7	17.0	2.32e-02	0	30	0	21701328896	14	18759
2026-01-13 22:24:08.56	59.86	21.92	-20.1	-20.6	17.5	0.00e+00	0	30	0	22045261824	14	18551
2026-01-13 22:24:11.59	60.92	22.23	-20.0	-20.5	17.4	0.00e+00	0	30	0	22389194752	14	18370
2026-01-13 22:24:14.62	62.00	22.53	-19.9	-20.4	17.5	0.00e+00	0	30	0	22724739072	14	18033
2026-01-13 22:24:17.65	63.11	22.83	-19.8	-20.3	17.5	0.00e+00	0	30	0	23068672000	14	17844
2026-01-13 22:24:20.68	64.24	23.13	-19.8	-20.3	17.4	0.00e+00	0	30	0	23412604928	14	17836
2026-01-13 22:24:23.71	65.39	23.41	-19.6	-20.1	17.5	0.00e+00	0	30	0	23756537856	14	17520
2026-01-13 22:24:26.74	66.56	23.69	-19.6	-20.1	17.6	0.00e+00	0	30	0	24092082176	14	17559
2026-01-13 22:24:29.78	67.77	23.97	-19.5	-20.0	17.6	0.00e+00	0	30	0	24436015104	14	17220
2026-01-13 22:24:32.81	68.99	24.23	-19.3	-19.8	17.5	0.00e+00	0	30	0	24771559424	14	16832
2026-01-13 22:24:35.84	70.23	24.48	-19.0	-19.5	17.5	0.00e+00	0	30	0	25115492352	14	16335
2026-01-13 22:24:38.86	71.49	24.73	-19.1	-19.6	17.5	0.00e+00	0	30	0	25459425280	14	16499
2026-01-13 22:24:41.89	72.78	24.96	-18.9	-19.4	17.5	0.00e+00	0	30	0	25794969600	14	16182
2026-01-13 22:24:44.92	74.09	25.18	-19.1	-19.5	17.5	0.00e+00	0	30	0	26138902528	14	16424
2026-01-13 22:24:47.95	75.41	25.39	-18.7	-19.2	17.2	0.00e+00	0	30	0	26474446848	12	17743
2026-01-13 22:24:50.98	76.76	25.58	-18.7	-19.2	17.5	0.00e+00	0	30	0	26818379776	12	17762
2026-01-13 22:24:54.01	78.12	25.77	-18.7	-19.2	17.5	0.00e+00	0	30	0	27153924096	12	17672
2026-01-13 22:24:57.03	79.50	25.93	-18.7	-19.2	17.5	0.00e+00	0	30	0	27497857024	12	17731
2026-01-13 22:25:00.07	80.90	26.08	-18.7	-19.1	17.4	0.00e+00	0	30	0	27841789952	12	17598
2026-01-13 22:25:03.09	82.30	26.22	-18.7	-19.1	17.4	0.00e+00	0	30	0	28177334272	12	17600
2026-01-13 22:25:06.12	83.73	26.34	-18.8	-19.3	17.3	0.00e+00	0	30	0	28521267200	12	17945
2026-01-13 22:25:09.15	85.16	26.44	-18.6	-19.1	17.3	0.00e+00	0	30	0	28856811520	12	17495
2026-01-13 22:25:12.18	86.60	26.53	-18.6	-19.0	17.3	0.00e+00	0	30	0	29200744448	12	17347
2026-01-13 22:25:15.20	88.05	26.59	-18.6	-19.1	17.3	0.00e+00	0	30	0	29544677376	12	17457
2026-01-13 22:25:18.24	89.51	26.64	-18.8	-19.2	17.3	0.00e+00	0	30	0	29880221696	12	17679
2026-01-13 22:25:21.27	90.97	26.68	-18.7	-19.1	17.3	0.00e+00	0	30	0	30224154624	12	17489
2026-01-13 22:25:24.30	92.43	26.69	-18.3	-18.8	17.3	0.00e+00	0	30	0	30568087552	12	16810
2026-01-13 22:25:27.32	93.89	26.68	-48.0	-50.5	6.1	0.00e+00	0	30	104	30685528064	60	41259
2026-01-13 22:25:30.35	95.35	26.66	-47.3	-50.0	6.1	0.00e+00	0	30	104	30685528064	60	38868
2026-01-13 22:25:33.37	96.81	26.62	-48.0	-50.6	6.1	0.00e+00	0	30	104	30685528064	60	41628
2026-01-13 22:25:36.40	98.26	26.56	-47.3	-50.0	6.1	0.00e+00	0	30	104	30685528064	60	38530
2026-01-13 22:25:39.43	99.71	26.48	-47.7	-50.4	6.1	0.00e+00	0	30	104	30685528064	60	40505
2026-01-13 22:25:42.46	101.15	26.39	-48.3	-50.8	6.1	0.00e+00	0	30	104	30685528064	60	42553
2026-01-13 22:25:45.49	102.58	26.28	-48.4	-50.9	6.1	0.00e+00	0	30	104	30685528064	60	42997
2026-01-13 22:25:48.52	104.00	26.15	-48.4	-50.9	6.1	0.00e+00	0	30	104	30685528064	60	42882
2026-01-13 22:25:51.55	105.40	26.00	-48.3	-50.8	6.1	0.00e+00	0	30	104	30685528064	60	42601
2026-01-13 22:25:54.57	106.79	25.84	-48.4	-50.9	6.1	0.00e+00	0	30	104	30685528064	60	42885
2026-01-13 22:25:57.60	108.16	25.67	-48.4	-50.8	6.1	0.00e+00	0	29	104	30685528064	60	42605
2026-01-13 22:26:00.62	109.52	25.48	-48.4	-50.9	6.1	0.00e+00	0	30	104	30685528064	60	42908
2026-01-13 22:26:03.65	110.86	25.28	-48.4	-50.8	6.1	0.00e+00	0	30	104	30685528064	60	42638
2026-01-13 22:26:06.68	112.18	25.06	-48.4	-50.9	6.1	0.00e+00	0	29	104	30685528064	60	42860
2026-01-13 22:26:09.70	113.47	24.83	-48.4	-50.9	6.1	0.00e+00	0	29	104	30685528064	60	42942
2026-01-13 22:26:12.73	114.75	24.59	-48.2	-50.7	6.1	0.00e+00	0	30	104	30685528064	60	41994
2026-01-13 22:26:15.75	116.01	24.34	-48.2	-50.7	6.1	0.00e+00	0	30	104	30685528064	60	41754
2026-01-13 22:26:18.78	117.24	24.08	-48.4	-50.9	6.1	0.00e+00	0	30	104	30685528064	60	42963
2026-01-13 22:26:21.80	118.45	23.81	-48.4	-50.8	6.1	0.00e+00	0	30	104	30685528064	60	42624
2026-01-13 22:26:24.84	119.65	23.53	-48.2	-50.7	6.1	0.00e+00	0	30	104	30685528064	60	42015
2026-01-13 22:26:27.87	120.81	23.25	-48.2	-50.7	6.1	0.00e+00	0	30	104	30685528064	60	42064
2026-01-13 22:26:30.89	121.96	22.96	-48.1	-50.6	6.1	0.00e+00	0	30	104	30685528064	60	41660
2026-01-13 22:26:33.92	123.08	22.66	-48.3	-50.8	6.1	0.00e+00	0	30	104	30685528064	60	42394
2026-01-13 22:26:36.94	124.17	22.36	-48.3	-50.8	6.1	0.00e+00	0	29	104	30685528064	60	42552
2026-01-13 22:26:39.97	125.24	22.05	-48.3	-50.8	6.1	0.00e+00	0	30	104	30685528064	60	42523
2026-01-13 22:26:43.00	126.29	21.73	-48.3	-50.8	6.1	0.00e+00	0	29	104	30685528064	60	42400
2026-01-13 22:26:46.02	127.32	21.42	-48.3	-50.8	6.1	0.00e+00	0	29	104	30685528064	60	42392
2026-01-13 22:26:49.05	128.32	21.09	-48.3	-50.8	6.1	0.00e+00	0	29	104	30685528064	60	42485
2026-01-13 22:26:52.08	129.30	20.77	-48.2	-50.7	6.1	0.00e+00	0	29	104	30685528064	60	42167
2026-01-13 22:26:55.10	130.25	20.45	-48.3	-50.8	6.1	0.00e+00	0	29	104	30685528064	60	42311
2026-01-13 22:26:58.13	131.19	20.12	-48.3	-50.8	6.0	0.00e+00	0	29	104	30685528064	60	42340
2026-01-13 22:27:01.16	132.10	19.79	-48.1	-50.6	6.1	0.00e+00	0	29	104	30685528064	60	41627
2026-01-13 22:27:04.18	132.99	19.46	-48.3	-50.7	6.1	0.00e+00	0	30	104	30685528064	60	42191
2026-01-13 22:27:07.21	133.86	19.13	-48.1	-50.6	6.1	0.00e+00	0	29	104	30685528064	60	41515
2026-01-13 22:27:10.24	134.71	18.80	-48.1	-50.6	6.1	0.00e+00	0	30	104	30685528064	60	41661
2026-01-13 22:27:13.27	135.54	18.47	-48.3	-50.8	6.1	0.00e+00	0	30	104	30685528064	60	42269
2026-01-13 22:27:16.30	136.35	18.14	-48.1	-50.6	6.1	0.00e+00	0	29	104	30685528064	60	41538
2026-01-13 22:27:19.32	137.14	17.81	-48.2	-50.6	6.1	0.00e+00	0	30	104	30685528064	60	41712
2026-01-13 22:27:22.35	137.91	17.48	-48.1	-50.6	6.1	0.00e+00	0	29	104	30685528064	60	41342
2026-01-13 22:27:25.38	138.66	17.16	-48.1	-50.6	6.1	0.00e+00	0	29	104	30685528064	60	41545
2026-01-13 22:27:28.41	139.39	16.83	-48.1	-50.6	6.1	0.00e+00	0	29	104	30685528064	60	41674
2026-01-13 22:27:31.43	140.10	16.51	-48.1	-50.6	6.1	0.00e+00	0	29	104	30685528064	60	41415
2026-01-13 22:27:34.46	140.80	16.19	-48.1	-50.6	6.1	0.00e+00	0	29	104	30685528064	60	41388
2026-01-13 22:27:37.49	141.48	15.87	-48.1	-50.6	6.1	0.00e+00	0	29	104	30685528064	60	41719
2026-01-13 22:27:40.52	142.15	15.55	-48.0	-50.6	6.1	0.00e+00	0	29	104	30685528064	60	41513
2026-01-13 22:27:43.55	142.80	15.23	-48.0	-50.5	6.1	0.00e+00	0	29	104	30685528064	60	41151
2026-01-13 22:27:46.58	143.43	14.92	-48.1	-50.6	6.1	0.00e+00	0	29	104	30685528064	60	41358
2026-01-13 22:27:49.60	144.05	14.61	-48.0	-50.5	6.1	0.00e+00	0	29	104	30685528064	60	41245
2026-01-13 22:27:52.63	144.65	14.30	-48.1	-50.5	6.1	0.00e+00	0	30	104	30685528064	60	41173
2026-01-13 22:27:55.66	145.24	13.99	-47.9	-50.4	6.1	0.00e+00	0	29	104	30685528064	60	40461
2026-01-13 22:27:58.68	145.81	13.69	-48.0	-50.6	6.1	0.00e+00	0	29	104	30685528064	60	41268
2026-01-13 22:28:01.71	146.38	13.39	-47.9	-50.4	6.1	0.00e+00	0	29	104	30685528064	60	40494
2026-01-13 22:28:04.74	146.93	13.09	-47.8	-50.3	6.1	0.00e+00	0	29	104	30685528064	60	40191
2026-01-13 22:28:07.77	147.46	12.80	-48.0	-50.5	6.1	0.00e+00	0	29	104	30685528064	60	40969
2026-01-13 22:28:10.80	147.99	12.50	-48.0	-50.5	6.1	0.00e+00	0	29	104	30685528064	60	41122
2026-01-13 22:28:13.83	148.50	12.21	-48.0	-50.5	6.1	0.00e+00	0	29	104	30685528064	60	40981
2026-01-13 22:28:16.86	149.00	11.93	-48.0	-50.5	6.1	0.00e+00	0	29	104	30685528064	60	40948
2026-01-13 22:28:19.88	149.49	11.64	-47.9	-50.4	6.1	0.00e+00	0	29	104	30685528064	60	40489
2026-01-13 22:28:22.91	149.97	11.36	-47.9	-50.4	6.1	0.00e+00	0	29	104	30685528064	60	40777
2026-01-13 22:28:25.94	150.43	11.08	-47.9	-50.4	6.1	0.00e+00	0	29	104	30685528064	60	40610
2026-01-13 22:28:28.97	150.89	10.80	-47.9	-50.4	6.1	0.00e+00	0	29	104	30685528064	60	40731
2026-01-13 22:28:32.00	151.34	10.53	-47.8	-50.3	6.1	0.00e+00	0	29	104	30685528064	60	39905
2026-01-13 22:28:35.02	151.77	10.26	-47.9	-50.4	6.1	0.00e+00	0	29	104	30685528064	60	40417
2026-01-13 22:28:38.05	152.20	9.99	-47.8	-50.2	6.1	0.00e+00	0	29	104	30685528064	60	39829
2026-01-13 22:28:41.08	152.62	9.72	-47.8	-50.3	6.1	0.00e+00	0	29	104	30685528064	60	39926
2026-01-13 22:28:44.11	153.03	9.46	-47.6	-50.1	6.1	0.00e+00	0	29	104	30685528064	60	39362
2026-01-13 22:28:47.14	153.43	9.20	-47.5	-50.1	6.1	0.00e+00	0	29	104	30685528064	60	39004
2026-01-13 22:28:50.16	153.83	8.94	-46.8	-49.3	6.0	0.00e+00	0	30	104	30685528064	60	35752
2026-01-13 22:28:53.18	154.21	8.69	-46.5	-49.0	6.1	0.00e+00	0	30	104	30685528064	60	34519
2026-01-13 22:28:56.21	154.59	8.43	-46.3	-48.8	6.1	0.00e+00	0	30	104	30685528064	60	33876
2026-01-13 22:28:59.23	154.95	8.18	-46.4	-48.9	6.1	0.00e+00	0	29	104	30685528064	60	33965
2026-01-13 22:29:02.26	155.32	7.94	-46.4	-48.9	6.1	0.00e+00	0	29	104	30685528064	60	34236
2026-01-13 22:29:05.29	155.67	7.69	-46.6	-49.1	6.1	0.00e+00	0	30	104	30685528064	60	35012
2026-01-13 22:29:08.32	156.02	7.45	-46.9	-49.3	6.1	0.00e+00	0	29	104	30685528064	60	35903
2026-01-13 22:29:11.35	156.36	7.21	-47.2	-49.6	6.1	0.00e+00	0	29	104	30685528064	60	37197
2026-01-13 22:29:14.37	156.69	6.97	-47.4	-49.8	6.1	0.00e+00	0	29	104	30685528064	60	37934
2026-01-13 22:29:17.41	157.02	6.73	-47.0	-49.5	6.1	0.00e+00	0	29	104	30685528064	60	36748
2026-01-13 22:29:20.44	157.34	6.50	-47.2	-49.7	6.1	0.00e+00	0	29	104	30685528064	60	37610
2026-01-13 22:29:23.47	157.66	6.26	-47.5	-50.0	6.1	0.00e+00	0	29	104	30685528064	60	38934
2026-01-13 22:29:26.50	157.97	6.03	-47.5	-50.0	6.1	0.00e+00	0	29	104	30685528064	60	38669
2026-01-13 22:29:29.53	158.27	5.81	-47.4	-49.9	6.1	0.00e+00	0	29	104	30685528064	60	38340
2026-01-13 22:29:32.56	158.57	5.58	-47.4	-49.9	6.1	0.00e+00	0	29	104	30685528064	60	38245
2026-01-13 22:29:35.59	158.86	5.36	-47.2	-49.7	6.1	0.00e+00	0	29	104	30685528064	60	37368
2026-01-13 22:29:38.62	159.15	5.13	-47.2	-49.7	6.1	0.00e+00	0	29	104	30685528064	60	37368
2026-01-13 22:29:41.65	159.43	4.91	-47.2	-49.6	6.1	0.00e+00	0	29	104	30685528064	60	37178
2026-01-13 22:29:44.68	159.71	4.70	-47.2	-49.7	6.1	0.00e+00	0	29	104	30685528064	60	37561
2026-01-13 22:29:47.71	159.98	4.48	-47.2	-49.7	6.1	0.00e+00	0	29	104	30685528064	60	37559
2026-01-13 22:29:50.74	160.25	4.26	-47.3	-49.8	6.1	0.00e+00	0	29	104	30685528064	60	37709
2026-01-13 22:29:53.77	160.51	4.05	-47.0	-49.5	6.1	0.00e+00	0	29	104	30685528064	60	36426
2026-01-13 22:29:56.79	160.77	3.84	-47.2	-49.6	6.1	0.00e+00	0	29	104	30685528064	60	37119
2026-01-13 22:29:59.82	161.02	3.63	-47.0	-49.5	6.1	0.00e+00	0	29	104	30685528064	60	36642
2026-01-13 22:30:02.86	161.27	3.43	-47.0	-49.5	6.1	0.00e+00	0	30	104	30685528064	60	36580
2026-01-13 22:30:05.89	161.52	3.22	-46.8	-49.3	6.1	0.00e+00	0	29	104	30685528064	60	35682
2026-01-13 22:30:08.92	161.76	3.02	-47.0	-49.5	6.1	0.00e+00	0	29	104	30685528064	60	36423
2026-01-13 22:30:11.95	161.99	2.81	-48.0	-50.5	6.1	0.00e+00	0	29	104	30685528064	60	41201
2026-01-13 22:30:14.98	162.23	2.61	-48.5	-51.0	6.1	0.00e+00	0	29	104	30685528064	60	43458
2026-01-13 22:30:18.01	162.46	2.41	-48.5	-51.0	6.1	0.00e+00	0	29	104	30685528064	60	43532
2026-01-13 22:30:21.04	162.68	2.22	-48.8	-51.3	6.1	0.00e+00	0	29	104	30685528064	60	45088
2026-01-13 22:30:24.07	162.90	2.02	-48.7	-51.1	6.1	0.00e+00	0	29	104	30685528064	60	44018
2026-01-13 22:30:27.10	163.12	1.83	-48.6	-51.1	6.1	0.00e+00	0	29	104	30685528064	60	44040
2026-01-13 22:30:30.13	163.34	1.63	-48.6	-51.1	6.1	0.00e+00	0	30	104	30685528064	60	43920
2026-01-13 22:30:33.16	163.55	1.44	-48.6	-51.1	6.1	0.00e+00	0	29	104	30685528064	60	44092
2026-01-13 22:30:36.20	163.76	1.25	-48.6	-51.1	6.1	0.00e+00	0	29	104	30685528064	60	43893
2026-01-13 22:30:39.23	163.96	1.06	-48.6	-51.1	6.1	0.00e+00	0	29	104	30685528064	60	43837
2026-01-13 22:30:42.26	164.16	0.87	-48.6	-51.1	6.1	0.00e+00	0	29	104	30685528064	60	43985
2026-01-13 22:30:45.29	164.36	0.69	-48.6	-51.1	6.1	0.00e+00	0	29	104	30685528064	60	44017
2026-01-13 22:30:48.32	164.56	0.50	-48.6	-51.1	6.1	0.00e+00	0	29	104	30685528064	60	44045
2026-01-13 22:30:51.35	164.75	0.32	-48.6	-51.2	6.1	0.00e+00	0	29	104	30685528064	60	44284
2026-01-13 22:30:54.38	164.94	0.14	-48.6	-51.1	6.1	0.00e+00	0	29	104	30685528064	60	43841
2026-01-13 22:30:57.41	165.13	-0.05	-48.6	-51.1	6.1	0.00e+00	0	29	104	30685528064	60	43917

#Closed at: 2026-01-13 22:30:57
#Recorded file [30685 MB]: D:/lorett/data/35029_260114_102021.dat