passes_logs/2026/01/13/R4.6S_Anadyr/R4.6S_Anadyr__20260113_120122_SUOMI_NPP_rec.log

#Pass ID: 20260113_120122_SUOMI NPP
#Satellite: SUOMI NPP
#Configuration: NPP
#almurnet v.1.7.20251203
#Start time: 2026-01-13 12:01:23

#Version: 2.2.20231116
#Station: R4.6S_Anadyr
#Location: 177.4865 lon 64.73178 lat
#TLE: 1 37849U 11061A   26012.28456845  .00000093  00000+0  65163-4 0  9999
#TLE: 2 37849  98.7807 314.3566 0002508  68.3553 291.7890 14.19524725736322

#Time	Az	El	Level	Level2	SNR	BER	BlckErr	Temp	State	Recorded	gain1	gain2
2026-01-13 12:01:23.12	19.81	0.04	-48.6	-61.1	3.4	1.52e+00	0	25	0	0	60	40050
2026-01-13 12:01:26.14	20.06	0.18	-48.8	-64.0	3.6	1.51e+00	0	27	104	0	60	57077
2026-01-13 12:01:29.17	20.33	0.31	-48.7	-64.0	3.6	1.51e+00	0	27	104	0	60	57207
2026-01-13 12:01:32.20	20.59	0.45	-48.8	-64.0	3.6	1.51e+00	0	27	104	0	60	57188
2026-01-13 12:01:35.23	20.86	0.58	-48.7	-63.9	3.6	1.51e+00	0	27	104	0	60	56389
2026-01-13 12:01:38.26	21.13	0.72	-48.4	-63.6	3.6	1.51e+00	0	27	104	0	60	54591
2026-01-13 12:01:41.29	21.40	0.85	-47.9	-63.1	3.5	1.51e+00	0	27	104	0	60	51591
2026-01-13 12:01:44.32	21.67	0.99	-47.0	-62.3	3.6	1.51e+00	0	27	104	0	60	46883
2026-01-13 12:01:47.35	21.95	1.12	-47.0	-62.2	3.6	1.51e+00	0	27	104	0	60	46722
2026-01-13 12:01:50.38	22.23	1.26	-47.0	-62.2	3.6	1.51e+00	0	27	104	0	60	46437
2026-01-13 12:01:53.41	22.51	1.39	-47.0	-62.2	3.6	1.51e+00	0	27	104	0	60	46523
2026-01-13 12:01:56.45	22.79	1.53	-47.0	-62.2	3.6	1.51e+00	0	27	104	0	60	46330
2026-01-13 12:01:59.48	23.08	1.66	-47.0	-62.1	3.6	1.51e+00	0	27	104	0	60	46285
2026-01-13 12:02:02.51	23.37	1.80	-47.0	-62.2	3.6	1.51e+00	0	27	104	0	60	46526
2026-01-13 12:02:05.54	23.66	1.94	-47.0	-62.2	3.6	1.51e+00	0	27	104	0	60	46615
2026-01-13 12:02:08.57	23.95	2.07	-47.0	-62.0	3.6	1.51e+00	0	27	104	0	60	45580
2026-01-13 12:02:11.60	24.25	2.21	-47.0	-62.2	3.6	1.51e+00	0	27	104	0	60	46316
2026-01-13 12:02:14.63	24.55	2.34	-47.0	-62.2	3.6	1.51e+00	0	27	104	0	60	46387
2026-01-13 12:02:17.66	24.85	2.48	-46.9	-60.8	3.6	1.51e+00	0	27	104	0	60	39820
2026-01-13 12:02:20.69	25.15	2.61	-46.8	-58.2	4.2	1.50e+00	47	27	104	0	60	29529
2026-01-13 12:02:23.71	25.46	2.75	-43.2	-45.9	15.3	0.00e+00	78	27	0	4194304	60	7148
2026-01-13 12:02:26.74	25.77	2.89	-40.5	-42.1	18.8	0.00e+00	0	27	0	9437184	54	6475
2026-01-13 12:02:29.77	26.08	3.02	-43.6	-46.6	14.0	0.00e+00	0	27	0	15728640	58	8650
2026-01-13 12:02:32.80	26.39	3.16	-47.0	-61.3	3.6	5.81e-01	0	28	104	20971520	60	42097
2026-01-13 12:02:35.83	26.71	3.30	-42.0	-43.9	17.9	8.69e-05	0	27	0	23068672	56	7131
2026-01-13 12:02:38.85	27.03	3.43	-41.2	-42.9	18.0	0.00e+00	0	27	0	28311552	56	6341
2026-01-13 12:02:41.88	27.35	3.57	-41.5	-43.3	18.2	0.00e+00	0	27	0	34603008	56	6628
2026-01-13 12:02:44.91	27.68	3.70	-41.4	-43.2	18.0	0.00e+00	32	28	0	39845888	56	6567
2026-01-13 12:02:47.94	28.01	3.84	-41.7	-43.5	17.9	0.00e+00	0	27	0	45088768	56	6804
2026-01-13 12:02:50.97	28.34	3.97	-42.0	-44.0	18.1	0.00e+00	0	27	0	51380224	56	7176
2026-01-13 12:02:54.00	28.68	4.11	-42.2	-44.2	16.9	0.00e+00	92	28	0	56623104	56	7394
2026-01-13 12:02:57.03	29.01	4.25	-42.8	-45.0	16.7	0.00e+00	0	28	0	62914560	56	8077
2026-01-13 12:03:00.06	29.36	4.38	-42.9	-45.2	17.1	0.00e+00	0	27	0	68157440	56	8243
2026-01-13 12:03:03.08	29.70	4.52	-42.0	-43.9	17.8	0.00e+00	0	28	0	73400320	58	6322
2026-01-13 12:03:06.11	30.04	4.65	-41.7	-43.6	18.0	0.00e+00	0	27	0	79691776	56	6853
2026-01-13 12:03:09.14	30.39	4.79	-40.3	-41.8	19.6	0.00e+00	31	28	0	84934656	54	6250
2026-01-13 12:03:12.17	30.75	4.92	-40.0	-41.4	19.8	0.00e+00	3	28	0	91226112	54	5998
2026-01-13 12:03:15.20	31.10	5.06	-40.2	-41.6	20.0	0.00e+00	36	28	0	96468992	54	6161
2026-01-13 12:03:18.22	31.46	5.19	-39.6	-40.9	20.4	0.00e+00	0	28	0	101711872	52	6334
2026-01-13 12:03:21.25	31.82	5.33	-39.5	-40.8	20.5	0.00e+00	0	27	0	108003328	52	6274
2026-01-13 12:03:24.28	32.19	5.46	-39.7	-41.0	20.2	0.00e+00	92	28	0	113246208	52	6422
2026-01-13 12:03:27.31	32.56	5.59	-39.5	-40.7	20.6	0.00e+00	0	28	0	119537664	52	6229
2026-01-13 12:03:30.33	32.93	5.73	-39.0	-40.2	20.9	0.00e+00	0	28	0	124780544	52	5878
2026-01-13 12:03:33.35	33.30	5.86	-39.1	-40.2	21.0	0.00e+00	60	28	0	131072000	52	5896
2026-01-13 12:03:36.38	33.68	5.99	-39.3	-40.5	20.9	0.00e+00	17	28	0	136314880	52	6045
2026-01-13 12:03:39.41	34.07	6.12	-39.6	-40.9	20.5	0.00e+00	0	28	0	141557760	52	6372
2026-01-13 12:03:42.43	34.45	6.26	-39.6	-40.9	20.5	0.00e+00	0	28	0	147849216	52	6364
2026-01-13 12:03:45.46	34.84	6.39	-39.5	-40.7	20.7	0.00e+00	92	28	0	153092096	52	6209
2026-01-13 12:03:48.49	35.23	6.52	-39.5	-40.7	20.6	0.00e+00	0	28	0	159383552	52	6238
2026-01-13 12:03:51.52	35.63	6.65	-39.5	-40.8	20.6	0.00e+00	0	28	0	164626432	52	6265
2026-01-13 12:03:54.54	36.02	6.78	-39.6	-40.8	20.6	0.00e+00	92	28	0	169869312	52	6291
2026-01-13 12:03:57.57	36.43	6.91	-39.7	-40.9	20.6	0.00e+00	0	28	0	176160768	52	6373
2026-01-13 12:04:00.60	36.83	7.04	-39.5	-40.7	20.8	0.00e+00	0	28	0	181403648	52	6197
2026-01-13 12:04:03.63	37.24	7.17	-39.4	-40.6	20.9	0.00e+00	0	28	0	187695104	52	6114
2026-01-13 12:04:06.66	37.65	7.30	-39.3	-40.5	20.9	0.00e+00	27	28	0	192937984	52	6098
2026-01-13 12:04:09.68	38.07	7.42	-39.5	-40.8	20.6	0.00e+00	0	28	0	199229440	52	6253
2026-01-13 12:04:12.71	38.49	7.55	-39.6	-40.9	20.6	0.00e+00	0	28	0	204472320	52	6362
2026-01-13 12:04:15.74	38.91	7.68	-39.4	-40.7	20.8	0.00e+00	91	28	0	209715200	52	6183
2026-01-13 12:04:18.77	39.34	7.80	-39.4	-40.6	20.9	0.00e+00	0	28	0	216006656	52	6161
2026-01-13 12:04:21.80	39.77	7.93	-39.6	-40.9	20.7	0.00e+00	0	28	0	221249536	52	6318
2026-01-13 12:04:24.83	40.20	8.05	-39.9	-41.2	20.5	0.00e+00	92	28	0	227540992	52	6575
2026-01-13 12:04:27.86	40.64	8.17	-39.5	-40.7	20.8	0.00e+00	0	28	0	232783872	52	6227
2026-01-13 12:04:30.89	41.08	8.30	-39.6	-40.8	20.7	0.00e+00	0	28	0	238026752	52	6286
2026-01-13 12:04:33.92	41.53	8.42	-39.8	-41.1	20.5	0.00e+00	0	28	0	244318208	52	6520
2026-01-13 12:04:36.95	41.98	8.54	-40.1	-41.5	20.3	0.00e+00	39	28	0	249561088	52	6787
2026-01-13 12:04:39.97	42.43	8.66	-40.1	-41.4	20.4	0.00e+00	0	28	0	255852544	52	6723
2026-01-13 12:04:43.00	42.88	8.78	-39.7	-41.0	20.7	0.00e+00	0	28	0	261095424	52	6394
2026-01-13 12:04:46.02	43.34	8.90	-39.7	-40.9	20.7	0.00e+00	4	28	0	266338304	52	6369
2026-01-13 12:04:49.05	43.80	9.01	-39.9	-41.2	20.4	0.00e+00	0	28	0	272629760	52	6576
2026-01-13 12:04:52.08	44.27	9.13	-40.2	-41.5	20.1	0.00e+00	0	28	0	277872640	52	6828
2026-01-13 12:04:55.11	44.74	9.24	-40.1	-41.4	20.2	0.00e+00	92	28	0	284164096	52	6766
2026-01-13 12:04:58.13	45.21	9.36	-40.3	-41.7	20.0	0.00e+00	0	28	0	289406976	52	6944
2026-01-13 12:05:01.16	45.69	9.47	-40.3	-41.7	20.1	0.00e+00	0	28	0	295698432	52	6955
2026-01-13 12:05:04.19	46.17	9.58	-40.2	-41.5	20.2	0.00e+00	0	28	0	300941312	52	6811
2026-01-13 12:05:07.21	46.65	9.69	-40.3	-41.7	20.1	0.00e+00	27	28	0	306184192	54	6209
2026-01-13 12:05:10.25	47.14	9.80	-40.1	-41.4	20.3	0.00e+00	0	28	0	312475648	54	5968
2026-01-13 12:05:13.27	47.63	9.90	-39.7	-40.9	20.8	0.00e+00	0	28	0	317718528	52	6369
2026-01-13 12:05:16.30	48.13	10.01	-39.7	-40.9	20.8	0.00e+00	90	28	0	324009984	52	6386
2026-01-13 12:05:19.32	48.62	10.11	-39.9	-41.2	20.5	0.00e+00	0	28	0	329252864	52	6554
2026-01-13 12:05:22.35	49.12	10.22	-39.9	-41.1	20.6	0.00e+00	0	28	0	334495744	52	6528
2026-01-13 12:05:25.38	49.63	10.32	-39.2	-40.4	21.3	0.00e+00	92	28	0	340787200	52	5996
2026-01-13 12:05:28.41	50.14	10.42	-39.2	-40.4	21.2	0.00e+00	0	28	0	346030080	52	5991
2026-01-13 12:05:31.43	50.65	10.52	-39.4	-40.5	21.1	0.00e+00	0	28	0	352321536	52	6094
2026-01-13 12:05:34.46	51.16	10.61	-39.7	-40.9	20.9	0.00e+00	0	28	0	357564416	52	6334
2026-01-13 12:05:37.49	51.68	10.71	-39.6	-40.9	20.9	0.00e+00	43	28	0	363855872	52	6326
2026-01-13 12:05:40.51	52.20	10.80	-39.8	-41.1	20.8	0.00e+00	0	28	0	369098752	52	6474
2026-01-13 12:05:43.54	52.73	10.89	-39.7	-40.9	20.9	0.00e+00	0	28	0	374341632	52	6343
2026-01-13 12:05:46.57	53.25	10.98	-39.3	-40.5	21.3	0.00e+00	58	28	0	380633088	52	6035
2026-01-13 12:05:49.60	53.79	11.07	-38.9	-40.0	21.6	0.00e+00	0	28	0	385875968	52	5732
2026-01-13 12:05:52.63	54.32	11.16	-39.2	-40.3	21.4	0.00e+00	0	28	0	392167424	52	5960
2026-01-13 12:05:55.65	54.86	11.24	-39.7	-40.9	20.9	0.00e+00	36	28	0	397410304	52	6374
2026-01-13 12:05:58.68	55.40	11.32	-39.9	-41.1	20.7	0.00e+00	33	28	0	402653184	52	6526
2026-01-13 12:06:01.71	55.94	11.40	-39.1	-40.2	21.0	0.00e+00	0	28	0	408944640	52	5859
2026-01-13 12:06:04.74	56.49	11.48	-38.9	-40.0	21.6	0.00e+00	0	28	0	414187520	50	6463
2026-01-13 12:06:07.77	57.03	11.56	-39.5	-40.7	21.1	0.00e+00	34	28	0	420478976	50	6938
2026-01-13 12:06:10.80	57.59	11.63	-38.9	-40.0	21.7	0.00e+00	0	28	0	425721856	50	6411
2026-01-13 12:06:13.83	58.14	11.71	-38.2	-39.2	22.2	0.00e+00	0	28	0	430964736	50	5883
2026-01-13 12:06:16.86	58.70	11.78	-39.0	-40.1	21.5	0.00e+00	82	28	0	437256192	50	6524
2026-01-13 12:06:19.89	59.26	11.84	-39.3	-40.4	21.3	0.00e+00	0	28	0	442499072	50	6746
2026-01-13 12:06:22.92	59.82	11.91	-39.0	-40.1	21.5	0.00e+00	0	28	0	448790528	50	6537
2026-01-13 12:06:25.94	60.38	11.97	-40.3	-41.7	20.3	0.00e+00	0	28	0	454033408	52	6957
2026-01-13 12:06:28.97	60.95	12.03	-40.7	-42.1	19.9	0.00e+00	9	28	0	460324864	54	6493
2026-01-13 12:06:32.00	61.52	12.09	-39.5	-40.7	20.8	0.00e+00	0	28	0	465567744	52	6226
2026-01-13 12:06:35.03	62.09	12.15	-39.7	-40.9	20.9	0.00e+00	0	28	0	470810624	52	6337
2026-01-13 12:06:38.05	62.66	12.20	-40.4	-41.7	20.2	0.00e+00	92	28	0	477102080	52	6983
2026-01-13 12:06:41.08	63.24	12.25	-40.1	-41.3	20.5	0.00e+00	0	28	0	482344960	52	6672
2026-01-13 12:06:44.11	63.81	12.30	-40.3	-41.6	20.2	0.00e+00	0	28	0	488636416	52	6926
2026-01-13 12:06:47.13	64.39	12.34	-40.9	-42.4	19.5	0.00e+00	90	28	0	493879296	54	6762
2026-01-13 12:06:50.16	64.97	12.39	-40.4	-41.8	20.2	0.00e+00	30	28	0	499122176	54	6260
2026-01-13 12:06:53.18	65.55	12.43	-39.9	-41.2	20.5	0.00e+00	0	28	0	505413632	52	6558
2026-01-13 12:06:56.21	66.14	12.47	-40.0	-41.3	20.5	0.00e+00	90	28	0	510656512	52	6619
2026-01-13 12:06:59.24	66.72	12.50	-39.4	-40.6	21.2	0.00e+00	23	28	0	516947968	52	6106
2026-01-13 12:07:02.27	67.31	12.53	-38.6	-39.7	22.0	0.00e+00	0	28	0	522190848	50	6189
2026-01-13 12:07:05.30	67.90	12.56	-38.4	-39.4	22.2	0.00e+00	0	28	0	528482304	50	6021
2026-01-13 12:07:08.33	68.49	12.59	-38.5	-39.5	22.0	0.00e+00	92	28	0	533725184	50	6097
2026-01-13 12:07:11.36	69.08	12.62	-38.5	-39.5	22.0	0.00e+00	0	28	0	538968064	50	6078
2026-01-13 12:07:14.38	69.67	12.64	-38.6	-39.7	21.9	0.00e+00	0	28	0	545259520	50	6213
2026-01-13 12:07:17.41	70.26	12.66	-38.8	-39.9	21.7	0.00e+00	92	28	0	550502400	50	6376
2026-01-13 12:07:20.44	70.85	12.67	-38.3	-39.3	22.3	0.00e+00	0	28	0	556793856	50	5940
2026-01-13 12:07:23.47	71.45	12.69	-38.5	-39.5	22.0	0.00e+00	0	28	0	562036736	50	6084
2026-01-13 12:07:26.49	72.04	12.70	-38.6	-39.7	21.9	0.00e+00	0	28	0	567279616	50	6236
2026-01-13 12:07:29.52	72.63	12.71	-38.3	-39.3	22.2	0.00e+00	0	28	0	573571072	50	5951
2026-01-13 12:07:32.55	73.23	12.71	-38.5	-39.6	22.0	0.00e+00	0	28	0	578813952	50	6147
2026-01-13 12:07:35.58	73.82	12.72	-38.5	-39.6	22.1	0.00e+00	0	28	0	585105408	50	6107
2026-01-13 12:07:38.61	74.42	12.72	-38.2	-39.3	22.3	0.00e+00	92	28	0	590348288	50	5901
2026-01-13 12:07:41.63	75.01	12.71	-38.5	-39.6	22.0	0.00e+00	2	28	0	596639744	50	6155
2026-01-13 12:07:44.66	75.60	12.71	-38.3	-39.4	22.2	0.00e+00	0	28	0	601882624	50	5993
2026-01-13 12:07:47.69	76.20	12.70	-37.5	-38.5	22.8	0.00e+00	92	28	0	607125504	48	6040
2026-01-13 12:07:50.72	76.79	12.69	-37.2	-38.2	23.1	0.00e+00	0	28	0	613416960	48	5830
2026-01-13 12:07:53.75	77.39	12.67	-37.5	-38.4	22.8	0.00e+00	0	28	0	618659840	48	6016
2026-01-13 12:07:56.78	77.98	12.66	-37.3	-38.3	22.3	0.00e+00	0	28	0	624951296	48	5900
2026-01-13 12:07:59.80	78.57	12.64	-37.5	-38.4	22.9	0.00e+00	25	28	0	630194176	48	6028
2026-01-13 12:08:02.82	79.16	12.61	-37.9	-38.9	22.5	0.00e+00	0	28	0	635437056	48	6362
2026-01-13 12:08:05.85	79.75	12.59	-37.7	-38.7	22.7	0.00e+00	0	28	0	641728512	48	6190
2026-01-13 12:08:08.87	80.34	12.56	-37.5	-38.5	22.9	0.00e+00	31	28	0	646971392	48	6039
2026-01-13 12:08:11.90	80.93	12.53	-37.8	-38.8	22.6	0.00e+00	0	28	0	653262848	48	6308
2026-01-13 12:08:14.93	81.51	12.50	-37.8	-38.7	22.6	0.00e+00	0	28	0	658505728	48	6245
2026-01-13 12:08:17.96	82.10	12.46	-37.7	-38.7	22.6	0.00e+00	92	28	0	663748608	48	6215
2026-01-13 12:08:20.98	82.68	12.42	-37.6	-38.5	22.8	0.00e+00	0	28	0	670040064	48	6084
2026-01-13 12:08:24.01	83.27	12.38	-37.9	-38.8	22.6	0.00e+00	0	28	0	675282944	48	6316
2026-01-13 12:08:27.04	83.85	12.34	-37.4	-38.4	23.0	0.00e+00	0	28	0	681574400	48	5995
2026-01-13 12:08:30.07	84.43	12.29	-37.5	-38.4	23.0	0.00e+00	89	28	0	686817280	48	5992
2026-01-13 12:08:33.10	85.01	12.24	-37.5	-38.4	23.0	0.00e+00	27	28	0	693108736	48	6009
2026-01-13 12:08:36.13	85.58	12.19	-37.3	-38.3	23.0	0.00e+00	0	28	0	698351616	48	5905
2026-01-13 12:08:39.15	86.16	12.14	-37.0	-38.0	23.1	0.00e+00	92	28	0	703594496	48	5701
2026-01-13 12:08:42.18	86.73	12.08	-36.9	-37.9	23.3	0.00e+00	0	28	0	709885952	48	5646
2026-01-13 12:08:45.21	87.30	12.02	-37.2	-38.1	23.1	0.00e+00	0	28	0	715128832	48	5823
2026-01-13 12:08:48.24	87.87	11.96	-37.2	-38.2	23.2	0.00e+00	58	28	0	721420288	48	5835
2026-01-13 12:08:51.26	88.43	11.90	-36.8	-37.7	23.4	0.00e+00	0	28	0	726663168	46	6210
2026-01-13 12:08:54.29	88.99	11.84	-36.9	-37.9	23.3	0.00e+00	0	28	0	731906048	46	6341
2026-01-13 12:08:57.32	89.55	11.77	-37.1	-38.1	23.1	0.00e+00	0	28	0	738197504	46	6498
2026-01-13 12:09:00.35	90.11	11.70	-36.7	-37.6	23.6	0.00e+00	89	28	0	743440384	46	6119
2026-01-13 12:09:03.38	90.67	11.62	-36.9	-37.8	23.5	0.00e+00	0	28	0	749731840	46	6253
2026-01-13 12:09:06.41	91.22	11.55	-36.8	-37.7	23.5	0.00e+00	0	28	0	754974720	46	6202
2026-01-13 12:09:09.44	91.77	11.47	-36.8	-37.7	23.4	0.00e+00	92	28	0	761266176	46	6196
2026-01-13 12:09:12.47	92.32	11.39	-36.8	-37.7	23.5	0.00e+00	0	28	0	766509056	46	6222
2026-01-13 12:09:15.50	92.86	11.31	-36.8	-37.7	23.4	0.00e+00	0	28	0	771751936	46	6222
2026-01-13 12:09:18.53	93.41	11.23	-36.8	-37.7	23.4	0.00e+00	90	28	0	778043392	46	6216
2026-01-13 12:09:21.55	93.94	11.15	-37.1	-38.0	23.2	0.00e+00	0	28	0	783286272	46	6423
2026-01-13 12:09:24.58	94.48	11.06	-37.5	-38.5	22.8	0.00e+00	0	28	0	789577728	46	6789
2026-01-13 12:09:27.61	95.01	10.97	-37.5	-38.4	22.9	0.00e+00	0	28	0	794820608	46	6752
2026-01-13 12:09:30.63	95.54	10.88	-38.0	-39.0	22.3	0.00e+00	21	28	0	800063488	48	6428
2026-01-13 12:09:33.66	96.07	10.79	-38.4	-39.4	22.1	0.00e+00	0	28	0	806354944	48	6745
2026-01-13 12:09:36.69	96.59	10.69	-38.3	-39.4	22.0	0.00e+00	0	28	0	811597824	48	6718
2026-01-13 12:09:39.72	97.11	10.60	-38.1	-39.2	22.2	0.00e+00	73	28	0	817889280	48	6547
2026-01-13 12:09:42.75	97.62	10.50	-38.3	-39.4	21.9	0.00e+00	0	28	0	823132160	48	6737
2026-01-13 12:09:45.78	98.14	10.40	-38.9	-40.0	21.3	0.00e+00	0	28	0	829423616	50	6439
2026-01-13 12:09:48.81	98.65	10.30	-39.3	-40.5	21.0	0.00e+00	0	28	0	834666496	50	6848
2026-01-13 12:09:51.84	99.15	10.20	-39.0	-40.2	21.2	0.00e+00	26	28	0	839909376	50	6570
2026-01-13 12:09:54.87	99.66	10.09	-39.0	-40.1	21.3	0.00e+00	0	28	0	846200832	50	6509
2026-01-13 12:09:57.89	100.16	9.99	-39.7	-41.0	20.5	0.00e+00	0	28	0	851443712	50	7210
2026-01-13 12:10:00.92	100.65	9.88	-39.6	-40.9	20.7	0.00e+00	28	28	0	857735168	52	6347
2026-01-13 12:10:03.95	101.14	9.77	-39.1	-40.2	21.2	0.00e+00	0	28	0	862978048	52	5888
2026-01-13 12:10:06.98	101.63	9.66	-39.5	-40.8	20.7	0.00e+00	0	28	0	868220928	52	6255
2026-01-13 12:10:10.01	102.12	9.55	-39.9	-41.3	20.3	0.00e+00	92	28	0	874512384	52	6654
2026-01-13 12:10:13.04	102.60	9.44	-39.6	-41.1	20.6	0.00e+00	0	28	0	879755264	52	6474
2026-01-13 12:10:16.06	103.08	9.33	-39.6	-41.1	20.5	0.00e+00	0	28	0	886046720	52	6478
2026-01-13 12:10:19.09	103.55	9.21	-39.4	-41.0	20.5	0.00e+00	0	28	0	891289600	52	6430
2026-01-13 12:10:22.12	104.02	9.10	-39.5	-41.0	20.5	0.00e+00	25	28	0	896532480	52	6420
2026-01-13 12:10:25.15	104.49	8.98	-40.2	-41.7	20.0	0.00e+00	0	28	0	902823936	52	6970
2026-01-13 12:10:28.17	104.95	8.86	-39.6	-41.0	20.6	0.00e+00	0	28	0	908066816	52	6416
2026-01-13 12:10:31.20	105.41	8.75	-39.5	-40.8	20.8	0.00e+00	90	28	0	914358272	52	6278
2026-01-13 12:10:34.23	105.87	8.63	-38.8	-39.9	21.6	0.00e+00	0	28	0	919601152	52	5669
2026-01-13 12:10:37.26	106.32	8.50	-38.7	-39.9	21.5	0.00e+00	0	28	0	925892608	50	6340
2026-01-13 12:10:40.29	106.77	8.38	-39.5	-40.8	20.7	0.00e+00	91	28	0	931135488	50	7018
2026-01-13 12:10:43.32	107.22	8.26	-40.0	-41.4	20.2	0.00e+00	0	28	0	936378368	52	6762
2026-01-13 12:10:46.35	107.66	8.14	-39.7	-40.9	20.5	0.00e+00	0	28	0	942669824	52	6373
2026-01-13 12:10:49.37	108.10	8.01	-39.3	-40.6	20.9	0.00e+00	0	28	0	947912704	52	6170
2026-01-13 12:10:52.40	108.54	7.89	-39.2	-40.4	21.1	0.00e+00	24	28	0	954204160	52	5993
2026-01-13 12:10:55.43	108.97	7.76	-39.1	-40.4	21.0	0.00e+00	0	28	0	959447040	52	5996
2026-01-13 12:10:58.46	109.39	7.63	-39.0	-40.2	21.1	0.00e+00	0	28	0	964689920	52	5850
2026-01-13 12:11:01.49	109.82	7.51	-39.1	-40.3	21.1	0.00e+00	91	28	0	970981376	52	5947
2026-01-13 12:11:04.52	110.24	7.38	-38.7	-39.8	21.5	0.00e+00	0	28	0	976224256	50	6279
2026-01-13 12:11:07.55	110.66	7.25	-38.9	-40.1	21.3	0.00e+00	0	28	0	982515712	50	6476
2026-01-13 12:11:10.57	111.07	7.12	-38.5	-39.7	21.6	0.00e+00	71	28	0	987758592	50	6197
2026-01-13 12:11:13.60	111.48	6.99	-38.7	-40.0	21.3	0.00e+00	25	28	0	994050048	50	6405
2026-01-13 12:11:16.63	111.89	6.86	-38.5	-39.6	21.5	0.00e+00	0	28	0	999292928	50	6173
2026-01-13 12:11:19.66	112.29	6.73	-38.8	-39.9	21.3	0.00e+00	0	28	0	1004535808	50	6366
2026-01-13 12:11:22.68	112.69	6.60	-39.0	-40.2	21.0	0.00e+00	47	28	0	1010827264	50	6611
2026-01-13 12:11:25.71	113.08	6.47	-39.3	-40.6	20.7	0.00e+00	0	28	0	1016070144	50	6869
2026-01-13 12:11:28.74	113.48	6.33	-39.1	-40.3	20.9	0.00e+00	0	28	0	1022361600	50	6654
2026-01-13 12:11:31.77	113.87	6.20	-39.1	-40.3	20.9	0.00e+00	90	28	0	1027604480	50	6673
2026-01-13 12:11:34.80	114.25	6.07	-39.4	-40.7	20.5	0.00e+00	0	28	0	1032847360	50	6980
2026-01-13 12:11:37.83	114.64	5.93	-39.0	-40.2	21.0	0.00e+00	0	28	0	1039138816	50	6615
2026-01-13 12:11:40.86	115.01	5.80	-38.8	-40.0	21.1	0.00e+00	81	28	0	1044381696	50	6437
2026-01-13 12:11:43.88	115.39	5.66	-39.0	-40.3	20.9	0.00e+00	28	28	0	1050673152	50	6616
2026-01-13 12:11:46.91	115.76	5.53	-39.2	-40.5	20.7	0.00e+00	0	28	0	1055916032	50	6795
2026-01-13 12:11:49.94	116.13	5.39	-39.6	-40.9	20.2	0.00e+00	0	28	0	1061158912	50	7170
2026-01-13 12:11:52.97	116.50	5.26	-40.0	-41.4	19.8	0.00e+00	91	28	0	1067450368	52	6723
2026-01-13 12:11:55.99	116.86	5.12	-39.7	-41.1	20.0	0.00e+00	0	28	0	1072693248	52	6534
2026-01-13 12:11:59.02	117.22	4.99	-39.5	-41.0	20.2	0.00e+00	0	28	0	1078984704	52	6403
2026-01-13 12:12:02.05	117.57	4.85	-39.3	-40.9	20.2	0.00e+00	88	28	0	1084227584	52	6358
2026-01-13 12:12:05.08	117.93	4.72	-39.6	-41.1	20.0	0.00e+00	0	28	0	1089470464	52	6473
2026-01-13 12:12:08.10	118.28	4.58	-39.4	-40.7	20.5	0.00e+00	0	28	0	1095761920	52	6208
2026-01-13 12:12:11.13	118.62	4.44	-39.2	-40.5	20.5	0.00e+00	14	28	0	1101004800	52	6079
2026-01-13 12:12:14.16	118.97	4.31	-40.1	-41.6	19.6	0.00e+00	23	28	0	1107296256	52	6867
2026-01-13 12:12:17.19	119.31	4.17	-40.3	-41.9	19.2	0.00e+00	0	28	0	1112539136	52	7099
2026-01-13 12:12:20.21	119.65	4.03	-40.0	-41.6	19.5	0.00e+00	0	28	0	1118830592	52	6904
2026-01-13 12:12:23.24	119.98	3.90	-40.5	-42.3	18.9	0.00e+00	91	28	0	1124073472	52	7478
2026-01-13 12:12:26.27	120.31	3.76	-40.6	-42.3	18.9	0.00e+00	0	28	0	1129316352	52	7449
2026-01-13 12:12:29.30	120.64	3.62	-40.4	-42.0	18.9	0.00e+00	0	28	0	1135607808	54	6437
2026-01-13 12:12:32.32	120.97	3.48	-40.9	-42.6	18.4	0.00e+00	92	28	0	1140850688	54	6864
2026-01-13 12:12:35.35	121.29	3.35	-41.1	-43.0	17.8	0.00e+00	0	28	0	1147142144	54	7192
2026-01-13 12:12:38.38	121.61	3.21	-40.9	-42.7	18.1	0.00e+00	0	28	0	1152385024	54	6965
2026-01-13 12:12:41.41	121.93	3.07	-41.0	-42.9	17.8	0.00e+00	0	28	0	1157627904	54	7097
2026-01-13 12:12:44.44	122.24	2.93	-47.0	-62.9	3.6	1.51e+00	0	28	104	1161822208	60	50604
2026-01-13 12:12:47.47	122.55	2.80	-48.4	-63.6	3.6	1.51e+00	0	28	104	1161822208	60	54731
2026-01-13 12:12:50.50	122.86	2.66	-48.7	-63.9	3.6	1.51e+00	0	28	104	1161822208	60	56446
2026-01-13 12:12:53.52	123.17	2.52	-48.7	-63.9	3.6	1.51e+00	0	28	104	1161822208	60	56402
2026-01-13 12:12:56.55	123.47	2.39	-48.7	-63.9	3.6	1.51e+00	0	28	104	1161822208	60	56508
2026-01-13 12:12:59.58	123.77	2.25	-48.6	-63.9	3.6	1.51e+00	0	28	104	1161822208	60	56715
2026-01-13 12:13:02.61	124.07	2.11	-48.6	-63.8	3.6	1.51e+00	0	28	104	1161822208	60	56171
2026-01-13 12:13:05.65	124.36	1.97	-48.7	-63.9	3.6	1.51e+00	0	28	104	1161822208	60	56437
2026-01-13 12:13:08.68	124.66	1.84	-48.7	-63.9	3.6	1.51e+00	0	28	104	1161822208	60	56338
2026-01-13 12:13:11.71	124.95	1.70	-48.6	-63.8	3.6	1.51e+00	0	28	104	1161822208	60	56288
2026-01-13 12:13:14.74	125.23	1.56	-48.6	-63.9	3.6	1.51e+00	0	28	104	1161822208	60	56408
2026-01-13 12:13:17.77	125.52	1.42	-48.6	-63.9	3.6	1.51e+00	0	28	104	1161822208	60	56590
2026-01-13 12:13:20.80	125.80	1.29	-48.6	-63.9	3.6	1.51e+00	0	28	104	1161822208	60	56402
2026-01-13 12:13:23.83	126.08	1.15	-48.7	-63.9	3.6	1.51e+00	0	28	104	1161822208	60	56349
2026-01-13 12:13:26.85	126.36	1.01	-48.7	-63.9	3.6	1.51e+00	0	28	104	1161822208	60	56422
2026-01-13 12:13:29.89	126.64	0.88	-48.6	-63.8	3.6	1.51e+00	0	28	104	1161822208	60	56285
2026-01-13 12:13:32.92	126.91	0.74	-48.6	-63.8	3.6	1.51e+00	0	28	104	1161822208	60	56226
2026-01-13 12:13:35.94	127.18	0.61	-48.6	-63.8	3.6	1.51e+00	0	28	104	1161822208	60	55899
2026-01-13 12:13:38.97	127.45	0.47	-48.6	-63.9	3.6	1.51e+00	0	28	104	1161822208	60	56377
2026-01-13 12:13:42.00	127.71	0.33	-48.7	-63.9	3.6	1.51e+00	0	28	104	1161822208	60	56474
2026-01-13 12:13:45.02	127.98	0.20	-48.6	-63.9	3.6	1.51e+00	0	28	104	1161822208	60	56348
2026-01-13 12:13:48.06	128.24	0.06	-48.7	-63.9	3.6	1.51e+00	0	28	104	1161822208	60	56675

#Closed at: 2026-01-13 12:13:50
#Recorded file [1161 MB]: D:/lorett/data/35029_260114_000123.dat