passes_logs/2026/01/13/R4.6S_Anadyr/R4.6S_Anadyr__20260113_212919_NOAA_21_JPSS-2_rec.log

#Pass ID: 20260113_212919_NOAA 21 (JPSS-2)
#Satellite: NOAA 21 (JPSS-2)
#Configuration: NOAA-21
#almurnet v.1.7.20251203
#Start time: 2026-01-13 21:29:22

#Version: 2.2.20231116
#Station: R4.6S_Anadyr
#Location: 177.4865 lon 64.73178 lat
#TLE: 1 54234U 22150A   26013.60300550  .00000047  00000+0  43143-4 0  9998
#TLE: 2 54234  98.7496 314.5197 0000681 301.0337  59.0772 14.19534502164617

#Time	Az	El	Level	Level2	SNR	BER	BlckErr	Temp	State	Recorded	gain1	gain2
2026-01-13 21:29:22.86	91.48	0.18	-48.6	-59.9	3.3	1.54e+00	0	25	0	0	60	34891
2026-01-13 21:29:26.89	91.24	0.40	-48.4	-61.3	3.5	1.51e+00	0	26	104	0	60	40718
2026-01-13 21:29:30.93	90.99	0.62	-48.4	-61.2	3.5	1.52e+00	0	26	104	0	60	40401
2026-01-13 21:29:34.97	90.74	0.83	-48.0	-60.8	3.5	1.52e+00	0	26	104	0	60	38586
2026-01-13 21:29:39.01	90.48	1.05	-46.5	-59.3	3.5	1.52e+00	0	26	104	0	60	32263
2026-01-13 21:29:43.05	90.22	1.27	-46.5	-59.2	3.5	1.51e+00	0	26	104	0	60	32066
2026-01-13 21:29:47.09	89.95	1.49	-46.5	-59.2	3.5	1.52e+00	0	26	104	0	60	32101
2026-01-13 21:29:51.13	89.68	1.72	-46.5	-59.3	3.5	1.52e+00	0	26	104	0	60	32382
2026-01-13 21:29:55.16	89.41	1.94	-46.5	-59.2	3.5	1.52e+00	0	26	104	0	60	32135
2026-01-13 21:29:59.20	89.13	2.16	-46.4	-58.8	3.5	1.52e+00	0	26	104	0	60	30481
2026-01-13 21:30:03.24	88.85	2.39	-46.4	-59.3	3.5	1.52e+00	0	26	104	0	60	32320
2026-01-13 21:30:07.27	88.56	2.61	-46.4	-59.2	3.5	1.52e+00	0	26	104	0	60	32016
2026-01-13 21:30:11.31	88.27	2.84	-46.4	-58.3	3.5	1.51e+00	0	26	104	0	60	28805
2026-01-13 21:30:15.35	87.98	3.07	-45.0	-50.0	7.9	1.14e-01	122	26	0	0	60	11158
2026-01-13 21:30:19.40	87.67	3.30	-45.3	-51.6	8.8	1.31e+00	120	26	104	11534336	60	13409
2026-01-13 21:30:23.43	87.37	3.53	-42.2	-44.6	13.8	6.10e-06	122	26	0	15728640	56	7536
2026-01-13 21:30:27.47	87.06	3.76	-41.6	-43.9	14.8	0.00e+00	123	26	0	28311552	56	6946
2026-01-13 21:30:31.51	86.74	4.00	-41.9	-44.3	14.2	0.00e+00	123	26	0	40894464	56	7258
2026-01-13 21:30:35.54	86.42	4.23	-42.0	-44.5	14.1	1.50e-06	122	27	0	53477376	58	6579
2026-01-13 21:30:39.57	86.09	4.47	-42.5	-45.1	13.8	7.00e-07	122	27	0	66060288	56	7931
2026-01-13 21:30:43.61	85.76	4.71	-37.6	-38.8	19.8	0.00e+00	123	27	0	78643200	48	6115
2026-01-13 21:30:47.65	85.42	4.94	-37.0	-38.2	20.6	0.00e+00	122	27	0	91226112	48	5678
2026-01-13 21:30:51.69	85.08	5.18	-36.9	-38.1	20.7	0.00e+00	120	26	0	103809024	46	6316
2026-01-13 21:30:55.73	84.73	5.42	-36.8	-38.0	20.9	0.00e+00	123	27	0	116391936	46	6214
2026-01-13 21:30:59.76	84.38	5.66	-36.8	-37.9	21.0	0.00e+00	123	27	0	128974848	46	6158
2026-01-13 21:31:03.80	84.01	5.91	-36.4	-37.5	21.4	0.00e+00	120	27	0	141557760	46	5881
2026-01-13 21:31:07.84	83.65	6.15	-36.5	-37.6	21.2	0.00e+00	123	27	0	154140672	46	5956
2026-01-13 21:31:11.88	83.27	6.40	-36.3	-37.3	21.5	0.00e+00	122	27	0	167772160	46	5779
2026-01-13 21:31:15.92	82.89	6.64	-36.2	-37.3	21.6	0.00e+00	123	27	0	180355072	46	5758
2026-01-13 21:31:19.96	82.50	6.89	-36.2	-37.3	21.6	0.00e+00	120	27	0	192937984	46	5757
2026-01-13 21:31:24.00	82.11	7.14	-35.9	-37.0	21.9	0.00e+00	122	27	0	205520896	46	5553
2026-01-13 21:31:28.04	81.71	7.39	-35.9	-36.9	22.0	0.00e+00	123	27	0	218103808	46	5508
2026-01-13 21:31:32.08	81.30	7.64	-35.6	-36.7	22.2	0.00e+00	123	27	0	230686720	44	6009
2026-01-13 21:31:36.12	80.88	7.89	-35.8	-36.8	22.1	0.00e+00	122	27	0	243269632	44	6126
2026-01-13 21:31:40.15	80.46	8.14	-35.6	-36.7	22.3	0.00e+00	122	27	0	255852544	44	5999
2026-01-13 21:31:44.20	80.03	8.40	-35.4	-36.5	22.3	0.00e+00	120	27	0	268435456	44	5871
2026-01-13 21:31:48.23	79.59	8.65	-35.7	-36.8	22.1	0.00e+00	122	27	0	281018368	44	6078
2026-01-13 21:31:52.27	79.14	8.91	-35.7	-36.7	22.3	0.00e+00	122	27	0	293601280	44	6021
2026-01-13 21:31:56.31	78.69	9.17	-35.4	-36.5	22.4	0.00e+00	122	27	0	306184192	44	5874
2026-01-13 21:32:00.35	78.22	9.42	-35.4	-36.5	22.4	0.00e+00	121	27	0	318767104	44	5878
2026-01-13 21:32:04.39	77.75	9.68	-35.4	-36.4	22.5	0.00e+00	122	27	0	331350016	44	5840
2026-01-13 21:32:08.43	77.27	9.94	-35.4	-36.4	22.6	0.00e+00	123	27	0	343932928	44	5827
2026-01-13 21:32:12.47	76.78	10.20	-35.6	-36.7	22.3	0.00e+00	122	27	0	356515840	44	6013
2026-01-13 21:32:16.51	76.28	10.46	-35.1	-36.1	22.6	0.00e+00	122	27	0	369098752	44	5646
2026-01-13 21:32:20.55	75.77	10.72	-34.8	-35.8	23.0	0.00e+00	123	27	0	381681664	44	5440
2026-01-13 21:32:24.59	75.26	10.99	-34.8	-35.8	23.1	0.00e+00	120	27	0	394264576	42	6086
2026-01-13 21:32:28.63	74.73	11.25	-34.6	-35.6	23.4	0.00e+00	122	27	0	406847488	42	5936
2026-01-13 21:32:32.67	74.20	11.51	-34.4	-35.4	23.4	0.00e+00	120	27	0	419430400	42	5817
2026-01-13 21:32:36.71	73.65	11.77	-34.7	-35.7	23.2	0.00e+00	120	27	0	432013312	42	6001
2026-01-13 21:32:40.75	73.09	12.04	-34.4	-35.4	23.5	0.00e+00	127	27	0	444596224	42	5812
2026-01-13 21:32:44.79	72.53	12.30	-34.1	-35.0	23.7	0.00e+00	122	27	0	457179136	42	5557
2026-01-13 21:32:48.82	71.95	12.56	-34.5	-35.4	23.4	0.00e+00	122	27	0	469762048	42	5850
2026-01-13 21:32:52.86	71.37	12.83	-34.5	-35.5	23.5	0.00e+00	122	27	0	482344960	42	5871
2026-01-13 21:32:56.90	70.77	13.09	-34.2	-35.2	23.7	0.00e+00	123	27	0	494927872	42	5667
2026-01-13 21:33:00.94	70.16	13.35	-34.6	-35.5	23.4	0.00e+00	123	27	0	508559360	42	5917
2026-01-13 21:33:04.98	69.54	13.61	-34.5	-35.5	23.6	0.00e+00	125	27	0	521142272	42	5872
2026-01-13 21:33:09.02	68.91	13.87	-34.4	-35.3	23.6	0.00e+00	122	27	0	533725184	42	5784
2026-01-13 21:33:13.06	68.27	14.14	-34.6	-35.5	23.5	0.00e+00	123	27	0	546308096	42	5925
2026-01-13 21:33:17.10	67.62	14.39	-34.6	-35.5	23.5	0.00e+00	123	27	0	558891008	42	5911
2026-01-13 21:33:21.14	66.95	14.65	-34.6	-35.6	23.4	0.00e+00	120	27	0	571473920	42	5948
2026-01-13 21:33:25.19	66.27	14.91	-34.3	-35.3	23.7	0.00e+00	123	27	0	584056832	42	5744
2026-01-13 21:33:29.22	65.58	15.17	-34.2	-35.2	23.8	0.00e+00	122	27	0	596639744	42	5664
2026-01-13 21:33:33.27	64.88	15.42	-34.3	-35.3	23.6	0.00e+00	122	27	0	609222656	42	5742
2026-01-13 21:33:37.31	64.17	15.68	-34.3	-35.3	23.8	0.00e+00	123	27	0	621805568	42	5734
2026-01-13 21:33:41.35	63.44	15.93	-34.4	-35.4	23.6	0.00e+00	122	27	0	634388480	42	5812
2026-01-13 21:33:45.39	62.71	16.18	-34.5	-35.5	23.5	0.00e+00	120	27	0	646971392	42	5893
2026-01-13 21:33:49.43	61.96	16.42	-34.7	-35.7	23.4	0.00e+00	122	27	0	659554304	42	6020
2026-01-13 21:33:53.47	61.19	16.66	-34.8	-35.7	23.4	0.00e+00	122	27	0	672137216	42	6041
2026-01-13 21:33:57.51	60.42	16.91	-34.8	-35.8	23.4	0.00e+00	122	27	0	684720128	42	6071
2026-01-13 21:34:01.55	59.63	17.14	-34.6	-35.6	23.5	0.00e+00	123	27	0	697303040	42	5937
2026-01-13 21:34:05.59	58.83	17.38	-34.6	-35.6	23.5	0.00e+00	123	27	0	709885952	42	5946
2026-01-13 21:34:09.63	58.02	17.61	-34.7	-35.7	23.5	0.00e+00	123	27	0	722468864	42	6020
2026-01-13 21:34:13.67	57.19	17.83	-34.3	-35.3	23.8	0.00e+00	123	27	0	735051776	42	5726
2026-01-13 21:34:17.71	56.36	18.06	-34.2	-35.1	24.0	0.00e+00	123	27	0	747634688	42	5608
2026-01-13 21:34:21.75	55.51	18.27	-33.6	-34.5	24.5	0.00e+00	122	27	0	760217600	40	5886
2026-01-13 21:34:25.79	54.64	18.49	-33.7	-34.6	24.2	0.00e+00	123	27	0	772800512	40	5986
2026-01-13 21:34:29.83	53.77	18.70	-33.8	-34.7	24.2	0.00e+00	121	27	0	785383424	40	6028
2026-01-13 21:34:33.86	52.89	18.90	-33.8	-34.7	24.1	0.00e+00	122	27	0	797966336	40	6030
2026-01-13 21:34:37.90	51.99	19.09	-33.8	-34.7	24.2	0.00e+00	123	27	0	810549248	40	6018
2026-01-13 21:34:41.95	51.08	19.29	-33.5	-34.4	24.5	0.00e+00	123	27	0	824180736	40	5828
2026-01-13 21:34:45.99	50.16	19.47	-33.4	-34.3	24.6	0.00e+00	121	27	0	836763648	40	5768
2026-01-13 21:34:50.02	49.23	19.65	-33.4	-34.2	24.5	0.00e+00	122	27	0	849346560	40	5720
2026-01-13 21:34:54.06	48.28	19.82	-33.4	-34.3	24.4	0.00e+00	120	27	0	861929472	40	5769
2026-01-13 21:34:58.10	47.33	19.99	-33.3	-34.2	24.6	0.00e+00	122	27	0	874512384	40	5697
2026-01-13 21:35:02.13	46.37	20.14	-33.2	-34.0	24.8	0.00e+00	122	27	0	887095296	40	5584
2026-01-13 21:35:06.18	45.39	20.29	-33.3	-34.2	24.7	0.00e+00	123	27	0	899678208	40	5703
2026-01-13 21:35:10.21	44.41	20.43	-33.3	-34.2	24.6	0.00e+00	123	27	0	912261120	40	5706
2026-01-13 21:35:14.25	43.42	20.57	-33.3	-34.2	24.6	0.00e+00	121	27	0	924844032	40	5689
2026-01-13 21:35:18.29	42.42	20.69	-33.5	-34.4	24.4	0.00e+00	123	27	0	937426944	40	5848
2026-01-13 21:35:22.33	41.42	20.81	-33.4	-34.3	24.5	0.00e+00	122	27	0	950009856	40	5746
2026-01-13 21:35:26.37	40.40	20.91	-33.4	-34.3	24.6	0.00e+00	122	27	0	962592768	40	5761
2026-01-13 21:35:30.40	39.38	21.01	-33.2	-34.1	24.8	0.00e+00	120	27	0	975175680	40	5642
2026-01-13 21:35:34.44	38.36	21.10	-33.4	-34.3	24.4	0.00e+00	123	27	0	987758592	40	5759
2026-01-13 21:35:38.48	37.32	21.18	-33.3	-34.2	24.6	0.00e+00	123	27	0	1000341504	40	5710
2026-01-13 21:35:42.52	36.28	21.25	-33.4	-34.3	24.6	0.00e+00	123	27	0	1012924416	40	5767
2026-01-13 21:35:46.56	35.24	21.31	-33.4	-34.3	24.6	0.00e+00	120	27	0	1025507328	40	5740
2026-01-13 21:35:50.57	34.20	21.36	-33.2	-34.1	24.6	0.00e+00	122	27	0	1038090240	40	5639
2026-01-13 21:35:54.61	33.15	21.40	-33.3	-34.2	24.6	0.00e+00	123	27	0	1050673152	40	5687
2026-01-13 21:35:58.65	32.10	21.43	-33.6	-34.5	24.4	0.00e+00	122	27	0	1063256064	40	5880
2026-01-13 21:36:02.69	31.05	21.45	-33.4	-34.3	24.6	0.00e+00	123	27	0	1075838976	40	5729
2026-01-13 21:36:06.73	30.00	21.45	-33.5	-34.4	24.5	0.00e+00	120	27	0	1088421888	40	5795
2026-01-13 21:36:10.77	28.94	21.45	-33.5	-34.4	24.6	0.00e+00	123	27	0	1101004800	40	5795
2026-01-13 21:36:14.81	27.89	21.44	-33.5	-34.4	24.5	0.00e+00	123	27	0	1113587712	40	5843
2026-01-13 21:36:18.85	26.84	21.42	-33.6	-34.5	24.5	0.00e+00	120	27	0	1126170624	40	5909
2026-01-13 21:36:22.89	25.79	21.39	-33.5	-34.4	24.6	0.00e+00	122	27	0	1138753536	40	5807
2026-01-13 21:36:26.92	24.74	21.34	-33.4	-34.3	24.6	0.00e+00	122	27	0	1151336448	40	5777
2026-01-13 21:36:30.96	23.70	21.29	-33.2	-34.1	24.6	0.00e+00	120	27	0	1164967936	40	5638
2026-01-13 21:36:35.00	22.66	21.23	-33.5	-34.4	24.5	0.00e+00	123	27	0	1177550848	40	5833
2026-01-13 21:36:39.04	21.62	21.16	-33.7	-34.6	24.3	0.00e+00	122	27	0	1190133760	40	5988
2026-01-13 21:36:43.08	20.59	21.07	-33.3	-34.2	24.6	0.00e+00	122	27	0	1202716672	40	5671
2026-01-13 21:36:47.12	19.56	20.98	-33.2	-34.1	24.6	0.00e+00	123	28	0	1215299584	40	5604
2026-01-13 21:36:51.16	18.55	20.88	-33.3	-34.1	24.5	0.00e+00	123	28	0	1227882496	40	5649
2026-01-13 21:36:55.19	17.54	20.77	-33.4	-34.3	24.6	0.00e+00	122	28	0	1240465408	40	5745
2026-01-13 21:36:59.23	16.53	20.65	-33.6	-34.5	24.4	0.00e+00	123	28	0	1253048320	40	5918
2026-01-13 21:37:03.27	15.54	20.53	-33.7	-34.6	24.2	0.00e+00	123	28	0	1265631232	40	5953
2026-01-13 21:37:07.31	14.55	20.39	-33.5	-34.4	24.4	0.00e+00	123	28	0	1278214144	40	5827
2026-01-13 21:37:11.35	13.57	20.25	-33.6	-34.5	24.4	0.00e+00	123	28	0	1290797056	40	5921
2026-01-13 21:37:15.39	12.61	20.09	-33.7	-34.6	24.4	0.00e+00	120	28	0	1303379968	40	5933
2026-01-13 21:37:19.43	11.65	19.94	-33.8	-34.7	24.4	0.00e+00	120	28	0	1315962880	40	6016
2026-01-13 21:37:23.47	10.70	19.77	-33.7	-34.6	24.4	0.00e+00	122	28	0	1328545792	40	5960
2026-01-13 21:37:27.51	9.76	19.60	-33.2	-34.1	24.8	0.00e+00	123	28	0	1341128704	40	5629
2026-01-13 21:37:31.55	8.83	19.42	-33.5	-34.4	24.4	0.00e+00	123	28	0	1353711616	40	5834
2026-01-13 21:37:35.58	7.92	19.23	-33.8	-34.7	24.3	0.00e+00	122	28	0	1366294528	40	6037
2026-01-13 21:37:39.62	7.02	19.04	-33.8	-34.7	24.3	0.00e+00	123	28	0	1378877440	40	6001
2026-01-13 21:37:43.66	6.13	18.84	-33.8	-34.7	24.3	0.00e+00	122	28	0	1391460352	40	6031
2026-01-13 21:37:47.69	5.25	18.63	-33.5	-34.4	24.5	0.00e+00	123	28	0	1404043264	40	5843
2026-01-13 21:37:51.72	4.38	18.43	-33.9	-34.8	24.2	0.00e+00	122	28	0	1416626176	40	6133
2026-01-13 21:37:55.76	3.52	18.21	-34.1	-35.0	24.1	0.00e+00	123	28	0	1429209088	40	6258
2026-01-13 21:37:59.80	2.68	17.99	-33.8	-34.8	24.3	0.00e+00	120	28	0	1441792000	40	6075
2026-01-13 21:38:03.84	1.85	17.77	-33.9	-34.8	24.3	0.00e+00	122	28	0	1454374912	40	6067
2026-01-13 21:38:07.87	1.03	17.54	-33.6	-34.5	24.5	0.00e+00	123	28	0	1466957824	40	5863
2026-01-13 21:38:11.91	0.23	17.31	-33.9	-34.9	24.1	0.00e+00	120	28	0	1479540736	40	6147
2026-01-13 21:38:15.95	359.43	17.08	-34.0	-34.9	24.0	0.00e+00	120	28	0	1492123648	40	6173
2026-01-13 21:38:19.98	358.65	16.84	-33.9	-34.8	24.1	0.00e+00	122	28	0	1504706560	40	6101
2026-01-13 21:38:24.02	357.88	16.60	-34.1	-35.0	24.0	0.00e+00	123	28	0	1517289472	40	6236
2026-01-13 21:38:28.06	357.13	16.35	-34.2	-35.1	23.9	0.00e+00	122	29	0	1529872384	40	6325
2026-01-13 21:38:32.09	356.38	16.11	-34.2	-35.1	24.0	0.00e+00	124	29	0	1542455296	40	6330
2026-01-13 21:38:36.14	355.65	15.86	-34.4	-35.4	23.7	0.00e+00	123	29	0	1555038208	40	6506
2026-01-13 21:38:40.17	354.93	15.61	-34.1	-35.0	24.0	0.00e+00	122	29	0	1568669696	40	6252
2026-01-13 21:38:44.21	354.23	15.36	-34.2	-35.1	24.0	0.00e+00	123	29	0	1581252608	40	6286
2026-01-13 21:38:48.25	353.53	15.10	-34.6	-35.5	23.6	0.00e+00	122	29	0	1593835520	40	6613
2026-01-13 21:38:52.29	352.85	14.85	-34.5	-35.4	23.8	0.00e+00	123	29	0	1606418432	40	6519
2026-01-13 21:38:56.33	352.18	14.59	-34.3	-35.2	23.8	0.00e+00	122	29	0	1619001344	40	6422
2026-01-13 21:39:00.36	351.52	14.33	-34.6	-35.6	23.6	0.00e+00	122	29	0	1631584256	40	6670
2026-01-13 21:39:04.40	350.87	14.07	-34.5	-35.5	23.6	0.00e+00	122	29	0	1644167168	42	5889
2026-01-13 21:39:08.44	350.23	13.81	-34.3	-35.3	23.7	0.00e+00	123	29	0	1656750080	42	5726
2026-01-13 21:39:12.48	349.61	13.55	-34.4	-35.4	23.6	0.00e+00	120	29	0	1669332992	42	5802
2026-01-13 21:39:16.52	349.00	13.29	-34.3	-35.2	23.7	0.00e+00	123	29	0	1681915904	42	5716
2026-01-13 21:39:20.56	348.39	13.03	-34.4	-35.4	23.5	0.00e+00	125	29	0	1694498816	42	5815
2026-01-13 21:39:24.60	347.80	12.76	-34.8	-35.7	23.2	0.00e+00	123	29	0	1707081728	42	6059
2026-01-13 21:39:28.63	347.22	12.50	-35.1	-36.1	22.9	0.00e+00	124	29	0	1719664640	42	6283
2026-01-13 21:39:32.68	346.65	12.24	-35.0	-35.9	23.1	0.00e+00	122	29	0	1732247552	42	6196
2026-01-13 21:39:36.71	346.09	11.98	-35.2	-36.2	23.0	0.00e+00	123	29	0	1744830464	42	6386
2026-01-13 21:39:40.75	345.54	11.71	-35.6	-36.6	22.7	0.00e+00	122	29	0	1757413376	42	6681
2026-01-13 21:39:44.79	345.00	11.45	-35.7	-36.8	22.4	0.00e+00	120	29	0	1769996288	44	6082
2026-01-13 21:39:48.83	344.47	11.19	-35.4	-36.5	22.6	0.00e+00	123	29	0	1782579200	44	5866
2026-01-13 21:39:52.87	343.95	10.93	-35.5	-36.6	22.6	0.00e+00	120	29	0	1795162112	44	5928
2026-01-13 21:39:56.90	343.44	10.67	-35.9	-36.9	22.2	0.00e+00	123	29	0	1807745024	44	6203
2026-01-13 21:40:00.94	342.93	10.41	-36.2	-37.3	21.8	0.00e+00	122	29	0	1820327936	44	6449
2026-01-13 21:40:04.97	342.44	10.15	-35.9	-36.9	22.2	0.00e+00	120	29	0	1832910848	44	6175
2026-01-13 21:40:09.01	341.96	9.89	-35.6	-36.6	22.5	0.00e+00	122	29	0	1845493760	44	5986
2026-01-13 21:40:13.05	341.48	9.63	-36.1	-37.2	22.0	0.00e+00	123	29	0	1858076672	44	6386
2026-01-13 21:40:17.09	341.02	9.37	-36.4	-37.5	21.6	0.00e+00	122	29	0	1870659584	44	6608
2026-01-13 21:40:21.13	340.56	9.12	-36.1	-37.2	21.8	0.00e+00	123	29	0	1883242496	44	6352
2026-01-13 21:40:25.17	340.11	8.86	-35.8	-36.9	22.2	0.00e+00	122	29	0	1895825408	44	6142
2026-01-13 21:40:29.21	339.66	8.61	-36.0	-37.1	22.1	0.00e+00	123	29	0	1909456896	44	6295
2026-01-13 21:40:33.25	339.23	8.35	-36.6	-37.7	21.5	0.00e+00	123	29	0	1920991232	44	6785
2026-01-13 21:40:37.28	338.80	8.10	-36.9	-38.0	21.2	0.00e+00	123	29	0	1934622720	46	6232
2026-01-13 21:40:41.33	338.38	7.85	-36.7	-37.8	21.2	0.00e+00	122	29	0	1947205632	46	6124
2026-01-13 21:40:45.37	337.97	7.59	-36.3	-37.3	21.8	0.00e+00	120	29	0	1959788544	46	5758
2026-01-13 21:40:49.40	337.57	7.35	-36.1	-37.1	21.9	0.00e+00	122	30	0	1972371456	46	5658
2026-01-13 21:40:53.44	337.17	7.10	-36.8	-37.9	21.2	0.00e+00	120	30	0	1984954368	46	6175
2026-01-13 21:40:57.48	336.78	6.85	-37.0	-38.2	20.9	0.00e+00	120	30	0	1997537280	46	6367
2026-01-13 21:41:01.52	336.40	6.60	-37.0	-38.1	20.8	0.00e+00	123	30	0	2010120192	46	6326
2026-01-13 21:41:05.56	336.02	6.36	-36.2	-37.3	21.4	0.00e+00	122	30	0	2022703104	46	5726
2026-01-13 21:41:09.60	335.65	6.11	-36.5	-37.6	21.0	0.00e+00	123	30	0	2035286016	46	5937
2026-01-13 21:41:13.64	335.29	5.87	-37.6	-38.8	19.4	0.00e+00	120	30	0	2047868928	46	6879
2026-01-13 21:41:17.67	334.93	5.63	-39.2	-40.9	16.7	0.00e+00	123	30	0	2060451840	50	6884
2026-01-13 21:41:21.71	334.58	5.39	-40.8	-43.2	13.8	2.20e-06	122	30	0	2073034752	54	7170
2026-01-13 21:41:25.74	334.23	5.15	-41.9	-45.5	10.6	2.82e-03	123	30	0	2085617664	56	8296
2026-01-13 21:41:29.79	333.89	4.91	-42.4	-46.5	9.3	1.33e-02	123	30	0	2098200576	56	9368
2026-01-13 21:41:33.83	333.56	4.67	-42.6	-47.0	8.6	3.08e-02	123	30	0	2110783488	56	9872
2026-01-13 21:41:37.87	333.23	4.43	-42.8	-47.5	8.1	4.38e-02	123	30	0	2123366400	58	9317
2026-01-13 21:41:41.91	332.91	4.20	-42.9	-47.5	8.4	5.15e-02	120	30	0	2135949312	58	9311
2026-01-13 21:41:45.95	332.59	3.96	-42.5	-46.5	9.9	1.21e-02	122	30	0	2148532224	58	8297
2026-01-13 21:41:49.99	332.28	3.73	-42.5	-46.1	10.4	4.33e-03	122	30	0	2161115136	58	7987
2026-01-13 21:41:54.03	331.97	3.50	-42.6	-46.4	10.1	6.07e-03	120	30	0	2173698048	58	8229
2026-01-13 21:41:58.07	331.67	3.27	-42.4	-46.0	10.7	3.91e-03	123	30	0	2186280960	58	7871
2026-01-13 21:42:02.11	331.37	3.04	-42.5	-46.1	10.7	3.89e-03	122	30	0	2198863872	58	7943
2026-01-13 21:42:06.15	331.08	2.81	-48.3	-61.2	3.5	1.52e+00	0	30	104	2199912448	60	40086
2026-01-13 21:42:10.19	330.79	2.58	-48.6	-61.4	3.5	1.52e+00	0	30	104	2199912448	60	41200
2026-01-13 21:42:14.23	330.51	2.36	-48.4	-61.3	3.5	1.52e+00	0	30	104	2199912448	60	40701
2026-01-13 21:42:18.27	330.23	2.13	-48.7	-61.5	3.5	1.52e+00	0	30	104	2199912448	60	41788
2026-01-13 21:42:22.31	329.95	1.91	-48.5	-61.3	3.5	1.52e+00	0	30	104	2199912448	60	40816
2026-01-13 21:42:26.34	329.68	1.69	-48.5	-61.3	3.5	1.52e+00	0	30	104	2199912448	60	40628
2026-01-13 21:42:30.38	329.42	1.47	-48.4	-61.3	3.5	1.52e+00	0	30	104	2199912448	60	40771
2026-01-13 21:42:34.42	329.16	1.25	-48.5	-61.3	3.5	1.52e+00	0	30	104	2199912448	60	40865
2026-01-13 21:42:38.46	328.90	1.03	-48.4	-61.2	3.5	1.52e+00	0	30	104	2199912448	60	40439
2026-01-13 21:42:42.49	328.65	0.81	-48.5	-61.3	3.5	1.52e+00	0	30	104	2199912448	60	40652
2026-01-13 21:42:46.53	328.40	0.59	-48.4	-61.3	3.5	1.52e+00	0	30	104	2199912448	60	40661
2026-01-13 21:42:50.57	328.15	0.38	-48.5	-61.2	3.5	1.51e+00	0	30	104	2199912448	60	40526
2026-01-13 21:42:54.61	327.91	0.16	-48.4	-61.3	3.5	1.52e+00	0	30	104	2199912448	60	40534
2026-01-13 21:42:58.65	327.67	-0.05	-48.4	-61.2	3.5	1.52e+00	0	30	104	2199912448	60	40461

#Closed at: 2026-01-13 21:43:00
#Recorded file [2199 MB]: D:/lorett/data/35029_260114_092922.dat