passes_logs/2026/01/13/R4.6S_Anadyr/R4.6S_Anadyr__20260113_001633_NOAA_20_JPSS-1_rec.log

#Pass ID: 20260113_001633_NOAA 20 (JPSS-1)
#Satellite: NOAA 20 (JPSS-1)
#Configuration: NOAA 20
#almurnet v.1.7.20251203
#Start time: 2026-01-13 00:16:35

#Version: 2.2.20231116
#Station: R4.6S_Anadyr
#Location: 177.4865 lon 64.73178 lat
#TLE: 1 43013U 17073A   26012.29914746  .00000087  00000+0  62270-4 0  9997
#TLE: 2 43013  98.7632 313.2670 0001616  43.2193 316.9110 14.19535514422351

#Time	Az	El	Level	Level2	SNR	BER	BlckErr	Temp	State	Recorded	gain1	gain2
2026-01-13 00:16:35.18	157.70	0.08	-48.7	-63.6	3.5	1.51e+00	0	25	0	0	60	54444
2026-01-13 00:16:39.09	157.72	0.31	-48.8	-63.9	3.6	1.51e+00	0	26	104	0	60	56943
2026-01-13 00:16:43.01	157.74	0.55	-48.7	-63.9	3.6	1.51e+00	0	26	104	0	60	56451
2026-01-13 00:16:46.92	157.76	0.79	-48.1	-63.3	3.6	1.51e+00	0	27	104	0	60	52714
2026-01-13 00:16:50.82	157.79	1.03	-47.2	-62.4	3.6	1.51e+00	0	27	104	0	60	47403
2026-01-13 00:16:54.73	157.81	1.28	-47.2	-62.2	3.6	1.51e+00	0	27	104	0	60	46717
2026-01-13 00:16:58.65	157.83	1.52	-47.1	-62.2	3.6	1.51e+00	0	27	104	0	60	46729
2026-01-13 00:17:02.56	157.85	1.77	-47.1	-62.2	3.6	1.51e+00	0	27	104	0	60	46809
2026-01-13 00:17:06.47	157.87	2.02	-47.1	-62.2	3.6	1.51e+00	0	27	104	0	60	46409
2026-01-13 00:17:10.37	157.89	2.27	-47.1	-62.0	3.6	1.51e+00	0	27	104	0	60	45388
2026-01-13 00:17:14.28	157.91	2.53	-47.1	-61.6	3.6	1.51e+00	0	27	104	0	60	43467
2026-01-13 00:17:18.19	157.94	2.78	-47.1	-61.6	3.6	1.51e+00	0	27	104	0	60	43586
2026-01-13 00:17:22.10	157.96	3.04	-46.8	-57.3	4.6	1.11e+00	93	27	104	0	60	26585
2026-01-13 00:17:26.01	157.98	3.31	-45.2	-49.5	11.4	1.91e-03	90	27	0	6291456	60	10839
2026-01-13 00:17:29.92	158.00	3.57	-43.6	-46.4	14.9	7.00e-07	93	27	0	13631488	60	7553
2026-01-13 00:17:33.82	158.03	3.84	-47.4	-61.7	3.6	1.50e-06	0	27	104	20971520	60	44091
2026-01-13 00:17:37.73	158.05	4.11	-46.6	-54.6	5.9	2.63e-01	68	27	0	20971520	60	19459
2026-01-13 00:17:41.64	158.07	4.38	-41.8	-43.6	17.9	0.00e+00	92	27	0	25165824	56	6897
2026-01-13 00:17:45.54	158.10	4.65	-41.7	-43.5	18.0	0.00e+00	94	27	0	32505856	56	6803
2026-01-13 00:17:49.46	158.12	4.93	-41.7	-43.5	18.0	0.00e+00	92	27	0	39845888	56	6829
2026-01-13 00:17:53.36	158.15	5.21	-41.6	-43.3	18.4	0.00e+00	93	27	0	47185920	56	6656
2026-01-13 00:17:57.27	158.17	5.50	-41.5	-43.1	18.5	0.00e+00	76	27	0	54525952	56	6516
2026-01-13 00:18:01.18	158.19	5.78	-41.3	-42.9	18.7	0.00e+00	93	27	0	61865984	56	6384
2026-01-13 00:18:05.10	158.22	6.07	-41.3	-42.9	18.8	0.00e+00	92	27	0	69206016	56	6383
2026-01-13 00:18:09.00	158.24	6.37	-41.3	-42.9	18.9	0.00e+00	90	27	0	76546048	56	6322
2026-01-13 00:18:12.92	158.27	6.67	-41.3	-42.8	18.9	0.00e+00	90	27	0	83886080	56	6313
2026-01-13 00:18:16.83	158.30	6.97	-41.1	-42.6	19.2	0.00e+00	92	27	0	91226112	56	6138
2026-01-13 00:18:20.74	158.32	7.27	-41.0	-42.5	19.4	0.00e+00	0	27	0	98566144	56	6053
2026-01-13 00:18:24.65	158.35	7.58	-41.0	-42.5	19.5	0.00e+00	91	27	0	105906176	56	6036
2026-01-13 00:18:28.56	158.37	7.89	-40.9	-42.3	19.5	0.00e+00	91	27	0	113246208	56	5955
2026-01-13 00:18:32.47	158.40	8.20	-40.8	-42.3	19.6	0.00e+00	91	27	0	120586240	56	5898
2026-01-13 00:18:36.37	158.43	8.52	-40.6	-42.0	19.8	0.00e+00	92	27	0	127926272	54	6450
2026-01-13 00:18:40.28	158.46	8.85	-40.6	-42.0	20.0	0.00e+00	0	27	0	135266304	54	6413
2026-01-13 00:18:44.19	158.48	9.17	-40.5	-41.9	20.1	0.00e+00	91	27	0	142606336	54	6322
2026-01-13 00:18:48.11	158.51	9.51	-40.5	-41.8	20.1	0.00e+00	92	27	0	149946368	54	6295
2026-01-13 00:18:52.01	158.54	9.84	-40.4	-41.7	20.3	0.00e+00	92	27	0	157286400	54	6194
2026-01-13 00:18:55.92	158.57	10.18	-40.3	-41.6	20.4	0.00e+00	92	27	0	164626432	54	6173
2026-01-13 00:18:59.83	158.60	10.53	-40.2	-41.5	20.5	0.00e+00	17	27	0	171966464	54	6096
2026-01-13 00:19:03.74	158.63	10.88	-40.0	-41.2	20.8	0.00e+00	41	27	0	179306496	54	5895
2026-01-13 00:19:07.64	158.66	11.24	-39.8	-41.0	21.0	0.00e+00	90	27	0	186646528	54	5734
2026-01-13 00:19:11.56	158.69	11.60	-39.7	-40.9	21.2	0.00e+00	93	27	0	193986560	52	6366
2026-01-13 00:19:15.46	158.72	11.96	-39.7	-40.8	21.3	0.00e+00	91	27	0	201326592	52	6305
2026-01-13 00:19:19.37	158.75	12.34	-39.5	-40.7	21.5	0.00e+00	92	27	0	208666624	52	6175
2026-01-13 00:19:23.28	158.78	12.71	-39.3	-40.4	21.7	0.00e+00	8	27	0	216006656	52	6024
2026-01-13 00:19:27.18	158.81	13.10	-39.2	-40.3	21.7	0.00e+00	91	27	0	223346688	52	5908
2026-01-13 00:19:31.09	158.85	13.49	-39.2	-40.3	21.8	0.00e+00	94	27	0	230686720	52	5918
2026-01-13 00:19:35.00	158.88	13.88	-39.0	-40.0	22.1	0.00e+00	92	27	0	238026752	52	5741
2026-01-13 00:19:38.91	158.91	14.29	-38.9	-39.9	22.2	0.00e+00	47	27	0	245366784	52	5673
2026-01-13 00:19:42.81	158.95	14.70	-38.7	-39.7	22.4	0.00e+00	14	27	0	252706816	50	6191
2026-01-13 00:19:46.72	158.98	15.11	-38.5	-39.5	22.6	0.00e+00	90	27	0	260046848	50	6039
2026-01-13 00:19:50.63	159.02	15.54	-38.2	-39.2	22.8	0.00e+00	92	27	0	267386880	50	5843
2026-01-13 00:19:54.53	159.06	15.97	-38.2	-39.1	23.0	0.00e+00	92	27	0	274726912	50	5824
2026-01-13 00:19:58.43	159.09	16.41	-38.0	-38.9	23.1	0.00e+00	90	27	0	282066944	50	5688
2026-01-13 00:20:02.34	159.13	16.85	-37.9	-38.8	23.3	0.00e+00	0	27	0	289406976	50	5605
2026-01-13 00:20:06.24	159.17	17.31	-37.8	-38.7	23.3	0.00e+00	57	27	0	296747008	50	5519
2026-01-13 00:20:10.16	159.21	17.78	-37.7	-38.7	23.4	0.00e+00	93	27	0	304087040	48	6179
2026-01-13 00:20:14.06	159.25	18.25	-37.5	-38.4	23.6	0.00e+00	92	27	0	311427072	48	5983
2026-01-13 00:20:17.98	159.29	18.73	-37.6	-38.5	23.6	0.00e+00	91	27	0	318767104	48	6052
2026-01-13 00:20:21.89	159.33	19.22	-37.3	-38.2	23.8	0.00e+00	92	27	0	326107136	48	5876
2026-01-13 00:20:25.80	159.37	19.73	-37.3	-38.2	23.9	0.00e+00	24	27	0	333447168	48	5881
2026-01-13 00:20:29.70	159.42	20.24	-37.2	-38.1	23.9	0.00e+00	92	27	0	340787200	48	5773
2026-01-13 00:20:33.62	159.46	20.76	-37.2	-38.1	23.9	0.00e+00	93	27	0	348127232	48	5807
2026-01-13 00:20:37.52	159.51	21.30	-37.1	-38.0	24.0	0.00e+00	92	27	0	355467264	48	5714
2026-01-13 00:20:41.43	159.56	21.84	-37.2	-38.0	24.0	0.00e+00	91	27	0	362807296	48	5759
2026-01-13 00:20:45.33	159.60	22.40	-37.1	-38.0	24.1	0.00e+00	0	27	0	370147328	48	5720
2026-01-13 00:20:49.24	159.65	22.97	-37.2	-38.1	24.0	0.00e+00	91	27	0	377487360	48	5803
2026-01-13 00:20:53.14	159.70	23.55	-37.2	-38.1	24.1	0.00e+00	93	27	0	384827392	48	5762
2026-01-13 00:20:57.04	159.76	24.15	-37.2	-38.1	24.0	0.00e+00	91	27	0	392167424	48	5774
2026-01-13 00:21:00.96	159.81	24.76	-37.3	-38.1	24.0	0.00e+00	90	27	0	399507456	48	5826
2026-01-13 00:21:04.85	159.87	25.38	-37.4	-38.3	23.9	0.00e+00	92	27	0	406847488	48	5933
2026-01-13 00:21:08.76	159.92	26.02	-37.8	-38.7	23.6	0.00e+00	93	27	0	414187520	48	6175
2026-01-13 00:21:12.68	159.98	26.68	-38.1	-39.0	23.2	0.00e+00	92	27	0	421527552	48	6427
2026-01-13 00:21:16.58	160.04	27.35	-38.5	-39.5	22.9	0.00e+00	90	27	0	428867584	48	6776
2026-01-13 00:21:20.49	160.11	28.04	-39.3	-40.3	22.0	0.00e+00	91	27	0	436207616	50	6663
2026-01-13 00:21:24.40	160.17	28.75	-39.9	-41.0	21.6	0.00e+00	61	27	0	443547648	52	6428
2026-01-13 00:21:28.31	160.24	29.47	-40.1	-41.3	21.2	0.00e+00	0	27	0	450887680	52	6662
2026-01-13 00:21:32.22	160.31	30.22	-40.5	-41.7	20.8	0.00e+00	92	27	0	458227712	52	6990
2026-01-13 00:21:36.13	160.38	30.98	-40.6	-41.8	20.8	0.00e+00	93	27	0	465567744	52	7086
2026-01-13 00:21:40.04	160.46	31.77	-40.8	-42.0	20.6	0.00e+00	93	27	0	472907776	54	6445
2026-01-13 00:21:43.96	160.54	32.58	-40.6	-41.9	20.8	0.00e+00	90	27	0	480247808	54	6342
2026-01-13 00:21:47.86	160.62	33.40	-39.8	-41.0	21.6	0.00e+00	0	27	0	487587840	54	5701
2026-01-13 00:21:51.77	160.70	34.25	-39.1	-40.1	22.4	0.00e+00	92	27	0	494927872	52	5788
2026-01-13 00:21:55.69	160.79	35.13	-37.9	-38.8	23.6	0.00e+00	91	27	0	501219328	50	5613
2026-01-13 00:21:59.60	160.89	36.03	-37.4	-38.3	23.9	0.00e+00	92	27	0	509607936	48	5940
2026-01-13 00:22:03.51	160.99	36.96	-36.8	-37.6	23.7	0.00e+00	90	27	0	516947968	48	5466
2026-01-13 00:22:07.42	161.09	37.91	-36.1	-36.8	24.7	0.00e+00	40	27	0	524288000	46	5621
2026-01-13 00:22:11.33	161.20	38.89	-36.5	-37.3	24.8	0.00e+00	90	27	0	530579456	46	5908
2026-01-13 00:22:15.24	161.31	39.90	-36.1	-36.8	25.2	0.00e+00	93	27	0	537919488	46	5627
2026-01-13 00:22:19.16	161.44	40.94	-35.5	-36.3	25.7	0.00e+00	91	27	0	546308096	44	5905
2026-01-13 00:22:23.08	161.56	42.01	-36.4	-37.2	24.9	0.00e+00	92	27	0	552599552	44	6550
2026-01-13 00:22:26.99	161.70	43.11	-36.9	-37.8	24.5	0.00e+00	0	27	0	559939584	46	6256
2026-01-13 00:22:30.91	161.85	44.25	-37.6	-38.5	23.8	0.00e+00	80	27	0	568328192	46	6811
2026-01-13 00:22:34.82	162.00	45.42	-39.1	-40.1	22.4	0.00e+00	92	27	0	575668224	50	6514
2026-01-13 00:22:38.74	162.17	46.63	-39.4	-40.5	22.0	0.00e+00	91	27	0	581959680	50	6786
2026-01-13 00:22:42.64	162.35	47.86	-39.7	-40.8	21.9	0.00e+00	92	27	0	589299712	50	7037
2026-01-13 00:22:46.55	162.54	49.14	-40.4	-41.6	21.0	0.00e+00	92	27	0	597688320	52	6913
2026-01-13 00:22:50.46	162.75	50.45	-39.2	-40.2	22.4	0.00e+00	5	27	0	603979776	52	5839
2026-01-13 00:22:54.37	162.97	51.80	-37.2	-38.1	24.3	0.00e+00	92	27	0	611319808	48	5774
2026-01-13 00:22:58.28	163.22	53.18	-36.0	-36.7	25.2	0.00e+00	94	27	0	618659840	46	5556
2026-01-13 00:23:02.19	163.49	54.61	-35.4	-36.2	25.7	0.00e+00	91	27	0	625999872	44	5835
2026-01-13 00:23:06.09	163.78	56.07	-36.5	-37.3	24.8	0.00e+00	90	27	0	633339904	44	6640
2026-01-13 00:23:10.01	164.11	57.58	-38.1	-39.1	23.1	0.00e+00	4	27	0	640679936	48	6474
2026-01-13 00:23:13.94	164.48	59.14	-38.1	-39.0	23.4	0.00e+00	93	27	0	648019968	50	5720
2026-01-13 00:23:17.86	164.89	60.73	-35.5	-36.2	25.7	0.00e+00	91	27	0	655360000	44	5882
2026-01-13 00:23:21.78	165.36	62.35	-34.5	-35.2	26.3	0.00e+00	91	27	0	662700032	42	5891
2026-01-13 00:23:25.69	165.89	64.01	-36.1	-36.9	25.1	0.00e+00	92	27	0	670040064	44	6361
2026-01-13 00:23:29.63	166.50	65.72	-37.6	-38.5	23.6	0.00e+00	12	27	0	677380096	46	6814
2026-01-13 00:23:33.62	167.23	67.49	-38.8	-39.8	22.7	0.00e+00	91	27	0	685768704	48	7026
2026-01-13 00:23:37.61	168.09	69.29	-38.1	-39.0	23.5	0.00e+00	91	27	0	693108736	50	5723
2026-01-13 00:23:41.61	169.13	71.12	-37.8	-38.7	23.6	0.00e+00	92	27	0	700448768	48	6212
2026-01-13 00:23:45.61	170.41	72.98	-38.8	-39.7	22.6	0.00e+00	7	27	0	707788800	50	6235
2026-01-13 00:23:49.63	172.03	74.88	-39.9	-41.0	21.7	0.00e+00	90	27	0	715128832	52	6399
2026-01-13 00:23:53.62	174.11	76.77	-38.6	-39.6	22.9	0.00e+00	92	27	0	722468864	50	6133
2026-01-13 00:23:57.61	176.90	78.66	-37.7	-38.7	23.7	0.00e+00	92	27	0	730857472	50	5515
2026-01-13 00:24:01.59	180.81	80.53	-36.2	-37.0	25.0	0.00e+00	0	27	0	738197504	46	5743
2026-01-13 00:24:05.58	186.66	82.35	-41.9	-43.4	19.3	0.00e+00	0	27	0	745537536	56	6762
2026-01-13 00:24:09.56	196.03	84.06	-38.1	-39.0	23.3	0.00e+00	92	27	0	752877568	50	5727
2026-01-13 00:24:13.55	212.18	85.50	-36.7	-37.6	24.6	0.00e+00	92	27	0	760217600	46	6114
2026-01-13 00:24:17.54	238.91	86.32	-38.1	-39.0	23.4	0.00e+00	30	27	0	767557632	48	6458
2026-01-13 00:24:21.57	270.44	86.09	-37.8	-38.7	23.4	0.00e+00	66	27	0	774897664	48	6221
2026-01-13 00:24:25.61	292.82	84.94	-37.8	-38.7	23.7	0.00e+00	92	27	0	783286272	48	6226
2026-01-13 00:24:29.64	305.68	83.34	-40.6	-41.8	20.8	0.00e+00	90	27	0	790626304	52	7042
2026-01-13 00:24:33.68	313.32	81.55	-39.9	-41.0	21.5	0.00e+00	7	27	0	797966336	54	5756
2026-01-13 00:24:37.72	318.22	79.67	-37.2	-38.1	24.1	0.00e+00	0	27	0	805306368	48	5787
2026-01-13 00:24:41.76	321.58	77.76	-41.1	-42.5	20.2	0.00e+00	90	27	0	813694976	54	6801
2026-01-13 00:24:45.80	324.02	75.85	-42.4	-44.1	18.7	0.00e+00	90	27	0	821035008	58	6532
2026-01-13 00:24:49.84	325.87	73.94	-40.2	-41.5	21.3	0.00e+00	5	27	0	828375040	54	6045
2026-01-13 00:24:53.88	327.31	72.06	-37.8	-38.7	23.7	0.00e+00	71	27	0	835715072	50	5540
2026-01-13 00:24:57.92	328.47	70.19	-38.1	-39.1	23.1	0.00e+00	92	27	0	843055104	48	6476
2026-01-13 00:25:01.96	329.42	68.36	-40.8	-42.2	20.2	0.00e+00	92	27	0	851443712	52	7355
2026-01-13 00:25:05.99	330.22	66.56	-40.0	-41.2	21.5	0.00e+00	82	27	0	858783744	54	5850
2026-01-13 00:25:10.03	330.89	64.80	-38.0	-38.9	23.4	0.00e+00	92	27	0	866123776	50	5682
2026-01-13 00:25:14.07	331.48	63.07	-35.8	-36.6	25.3	0.00e+00	92	27	0	873463808	46	5463
2026-01-13 00:25:18.11	331.98	61.38	-35.5	-36.3	25.5	0.00e+00	81	27	0	881852416	44	5927
2026-01-13 00:25:22.15	332.43	59.74	-38.6	-39.5	22.8	0.00e+00	2	27	0	889192448	50	6086
2026-01-13 00:25:26.19	332.82	58.13	-40.1	-41.2	21.4	0.00e+00	91	27	0	896532480	52	6602
2026-01-13 00:25:30.22	333.17	56.57	-39.0	-40.0	22.5	0.00e+00	91	27	0	903872512	52	5728
2026-01-13 00:25:34.26	333.48	55.05	-37.2	-38.1	24.2	0.00e+00	0	27	0	911212544	48	5767
2026-01-13 00:25:38.29	333.77	53.57	-37.0	-37.9	24.4	0.00e+00	0	27	0	919601152	48	5666
2026-01-13 00:25:42.33	334.03	52.13	-38.4	-39.4	23.0	0.00e+00	92	27	0	926941184	48	6727
2026-01-13 00:25:46.36	334.27	50.74	-42.7	-44.5	18.3	0.00e+00	92	27	0	934281216	56	7630
2026-01-13 00:25:50.39	334.48	49.38	-40.3	-41.4	21.0	0.00e+00	2	27	0	941621248	54	6030
2026-01-13 00:25:54.43	334.69	48.07	-43.8	-46.3	16.8	0.00e+00	0	27	0	948961280	60	7459
2026-01-13 00:25:58.46	334.87	46.79	-39.5	-40.6	22.1	0.00e+00	92	27	0	957349888	54	5482
2026-01-13 00:26:02.49	335.04	45.55	-40.5	-41.9	20.9	0.00e+00	19	27	0	964689920	52	7090
2026-01-13 00:26:06.54	335.21	44.35	-38.3	-39.4	23.1	0.00e+00	80	27	0	972029952	50	5995
2026-01-13 00:26:10.57	335.36	43.18	-35.5	-36.2	25.7	0.00e+00	0	27	0	979369984	44	5867
2026-01-13 00:26:14.61	335.50	42.05	-39.6	-40.8	21.6	0.00e+00	90	27	0	987758592	50	7057
2026-01-13 00:26:18.65	335.63	40.95	-38.6	-39.6	22.8	0.00e+00	6	27	0	995098624	50	6124
2026-01-13 00:26:22.68	335.76	39.88	-37.0	-37.8	24.4	0.00e+00	6	27	0	1002438656	46	6260
2026-01-13 00:26:26.72	335.88	38.85	-41.0	-42.4	20.3	0.00e+00	80	27	0	1009778688	54	6700
2026-01-13 00:26:30.75	335.99	37.85	-41.8	-43.4	19.5	0.00e+00	92	27	0	1017118720	56	6707
2026-01-13 00:26:34.79	336.10	36.87	-39.5	-40.6	22.0	0.00e+00	80	27	0	1025507328	52	6148
2026-01-13 00:26:38.83	336.20	35.92	-39.1	-40.2	22.3	0.00e+00	2	27	0	1032847360	52	5833
2026-01-13 00:26:42.86	336.29	35.00	-41.2	-42.6	20.1	0.00e+00	92	27	0	1040187392	54	6885
2026-01-13 00:26:46.90	336.39	34.11	-44.1	-46.6	16.2	0.00e+00	90	27	0	1047527424	60	7723
2026-01-13 00:26:50.94	336.48	33.24	-43.0	-44.9	17.9	0.00e+00	0	27	0	1054867456	60	6343
2026-01-13 00:26:54.97	336.56	32.40	-41.0	-42.4	20.4	0.00e+00	78	27	0	1063256064	56	5972
2026-01-13 00:26:59.01	336.64	31.58	-40.9	-42.2	20.4	0.00e+00	92	27	0	1070596096	54	6588
2026-01-13 00:27:03.04	336.72	30.78	-41.0	-42.4	20.2	0.00e+00	91	27	0	1077936128	54	6732
2026-01-13 00:27:07.08	336.80	30.00	-40.7	-42.0	20.6	0.00e+00	0	27	0	1085276160	54	6404
2026-01-13 00:27:11.12	336.87	29.24	-40.3	-41.6	21.0	0.00e+00	79	27	0	1093664768	54	6122
2026-01-13 00:27:15.16	336.94	28.51	-39.8	-41.0	21.6	0.00e+00	92	27	0	1101004800	54	5700
2026-01-13 00:27:19.19	337.01	27.79	-39.0	-40.0	22.4	0.00e+00	79	27	0	1108344832	52	5751
2026-01-13 00:27:23.23	337.07	27.09	-37.9	-38.8	23.5	0.00e+00	0	27	0	1115684864	50	5611
2026-01-13 00:27:27.26	337.14	26.41	-37.8	-38.7	23.5	0.00e+00	0	27	0	1123024896	48	6204
2026-01-13 00:27:31.30	337.20	25.74	-37.9	-38.9	23.4	0.00e+00	92	27	0	1131413504	48	6325
2026-01-13 00:27:35.33	337.26	25.10	-37.9	-38.8	23.3	0.00e+00	77	27	0	1138753536	48	6269
2026-01-13 00:27:39.37	337.31	24.46	-37.3	-38.2	24.0	0.00e+00	0	27	0	1146093568	48	5873
2026-01-13 00:27:43.41	337.37	23.84	-36.7	-37.6	24.2	0.00e+00	0	27	0	1153433600	46	6117
2026-01-13 00:27:47.45	337.43	23.24	-36.5	-37.3	24.6	0.00e+00	92	27	0	1161822208	46	5941
2026-01-13 00:27:51.49	337.48	22.65	-36.5	-37.3	24.7	0.00e+00	4	27	0	1169162240	46	5914
2026-01-13 00:27:55.52	337.53	22.07	-36.7	-37.5	24.5	0.00e+00	0	27	0	1176502272	46	6088
2026-01-13 00:27:59.56	337.58	21.51	-36.7	-37.6	24.5	0.00e+00	0	27	0	1183842304	46	6119
2026-01-13 00:28:03.60	337.63	20.96	-37.1	-37.9	24.2	0.00e+00	92	27	0	1191182336	46	6382
2026-01-13 00:28:07.63	337.68	20.42	-37.2	-38.1	24.1	0.00e+00	12	27	0	1199570944	46	6504
2026-01-13 00:28:11.67	337.73	19.89	-37.0	-37.9	24.2	0.00e+00	0	27	0	1206910976	46	6352
2026-01-13 00:28:15.71	337.77	19.37	-37.1	-38.0	24.0	0.00e+00	17	27	0	1214251008	46	6429
2026-01-13 00:28:19.75	337.82	18.86	-37.4	-38.2	23.8	0.00e+00	7	27	0	1221591040	46	6613
2026-01-13 00:28:23.79	337.86	18.37	-37.6	-38.5	23.6	0.00e+00	6	27	0	1228931072	46	6773
2026-01-13 00:28:27.82	337.91	17.88	-37.7	-38.7	23.4	0.00e+00	7	27	0	1237319680	48	6184
2026-01-13 00:28:31.85	337.95	17.40	-37.9	-38.8	23.3	0.00e+00	92	27	0	1244659712	48	6306
2026-01-13 00:28:35.89	337.99	16.93	-37.8	-38.8	23.3	0.00e+00	0	27	0	1251999744	48	6259
2026-01-13 00:28:39.93	338.03	16.47	-37.8	-38.7	23.3	0.00e+00	0	27	0	1259339776	48	6199
2026-01-13 00:28:43.97	338.08	16.02	-37.6	-38.6	23.5	0.00e+00	8	27	0	1267728384	48	6108
2026-01-13 00:28:48.00	338.12	15.58	-37.7	-38.6	23.3	0.00e+00	90	27	0	1275068416	48	6172
2026-01-13 00:28:52.03	338.15	15.15	-37.7	-38.7	23.4	0.00e+00	10	27	0	1282408448	48	6176
2026-01-13 00:28:56.07	338.19	14.72	-37.7	-38.7	23.4	0.00e+00	0	27	0	1289748480	48	6195
2026-01-13 00:29:00.11	338.23	14.30	-37.9	-38.9	23.1	0.00e+00	0	27	0	1297088512	48	6322
2026-01-13 00:29:04.14	338.27	13.89	-37.8	-38.8	23.2	0.00e+00	92	27	0	1305477120	48	6269
2026-01-13 00:29:08.18	338.31	13.48	-37.9	-38.8	23.2	0.00e+00	74	27	0	1312817152	48	6276
2026-01-13 00:29:12.21	338.34	13.08	-38.0	-39.0	23.0	0.00e+00	0	27	0	1320157184	48	6431
2026-01-13 00:29:16.25	338.38	12.69	-38.0	-39.0	23.0	0.00e+00	0	27	0	1327497216	48	6420
2026-01-13 00:29:20.29	338.41	12.30	-38.2	-39.2	22.8	0.00e+00	90	27	0	1334837248	48	6581
2026-01-13 00:29:24.33	338.45	11.92	-38.3	-39.3	22.7	0.00e+00	0	27	0	1343225856	48	6645
2026-01-13 00:29:28.36	338.48	11.55	-38.5	-39.5	22.5	0.00e+00	70	27	0	1350565888	48	6824
2026-01-13 00:29:32.40	338.52	11.18	-38.5	-39.5	22.4	0.00e+00	0	27	0	1357905920	48	6813
2026-01-13 00:29:36.43	338.55	10.82	-38.6	-39.7	22.4	0.00e+00	90	27	0	1365245952	48	6937
2026-01-13 00:29:40.47	338.58	10.46	-38.7	-39.8	22.2	0.00e+00	0	27	0	1373634560	48	7032
2026-01-13 00:29:44.51	338.62	10.11	-38.8	-39.9	22.0	0.00e+00	70	27	0	1380974592	50	6346
2026-01-13 00:29:48.54	338.65	9.76	-38.9	-40.0	21.9	0.00e+00	0	27	0	1388314624	50	6448
2026-01-13 00:29:52.58	338.68	9.42	-38.9	-40.0	21.9	0.00e+00	92	27	0	1395654656	50	6434
2026-01-13 00:29:56.62	338.71	9.08	-38.9	-40.0	21.9	0.00e+00	7	27	0	1402994688	50	6414
2026-01-13 00:30:00.65	338.74	8.74	-39.0	-40.2	21.6	0.00e+00	0	27	0	1411383296	50	6545
2026-01-13 00:30:04.69	338.78	8.41	-38.8	-39.9	21.9	0.00e+00	0	27	0	1418723328	50	6332
2026-01-13 00:30:08.73	338.81	8.09	-38.8	-40.0	21.8	0.00e+00	92	27	0	1426063360	50	6397
2026-01-13 00:30:12.76	338.84	7.77	-38.9	-40.1	21.5	0.00e+00	13	27	0	1433403392	50	6472
2026-01-13 00:30:16.80	338.87	7.45	-39.0	-40.1	21.4	0.00e+00	12	27	0	1441792000	50	6496
2026-01-13 00:30:20.84	338.90	7.14	-39.0	-40.2	21.6	0.00e+00	92	27	0	1449132032	50	6549
2026-01-13 00:30:24.88	338.93	6.83	-39.1	-40.3	21.3	0.00e+00	0	27	0	1456472064	50	6635
2026-01-13 00:30:28.91	338.96	6.52	-39.0	-40.1	21.4	0.00e+00	0	27	0	1463812096	50	6537
2026-01-13 00:30:32.95	338.99	6.22	-38.8	-40.0	21.5	0.00e+00	15	27	0	1471152128	50	6400
2026-01-13 00:30:36.99	339.02	5.92	-39.0	-40.2	21.2	0.00e+00	92	27	0	1479540736	50	6590
2026-01-13 00:30:41.02	339.04	5.63	-39.4	-40.7	20.6	0.00e+00	15	27	0	1486880768	50	6929
2026-01-13 00:30:45.06	339.07	5.34	-40.1	-41.7	19.0	0.00e+00	2	27	0	1494220800	52	6962
2026-01-13 00:30:49.10	339.10	5.05	-41.1	-43.2	17.1	0.00e+00	61	27	0	1501560832	54	7416
2026-01-13 00:30:53.13	339.13	4.76	-42.4	-45.8	13.7	7.00e-07	90	27	0	1509949440	56	8852
2026-01-13 00:30:57.17	339.16	4.48	-43.2	-48.8	9.4	7.39e-03	20	27	0	1517289472	58	11185
2026-01-13 00:31:01.21	339.19	4.20	-43.6	-52.0	5.3	3.92e-01	14	27	0	1524629504	58	16108
2026-01-13 00:31:05.25	339.21	3.92	-43.7	-56.3	3.8	1.48e+00	0	27	104	1529872384	58	26450
2026-01-13 00:31:09.28	339.24	3.65	-43.7	-58.0	3.6	1.51e+00	0	27	104	1529872384	58	32378
2026-01-13 00:31:13.32	339.27	3.38	-43.8	-58.8	3.6	1.51e+00	0	27	104	1529872384	60	31302
2026-01-13 00:31:17.36	339.30	3.11	-43.7	-59.0	3.6	1.51e+00	0	27	104	1529872384	60	32289
2026-01-13 00:31:21.40	339.32	2.84	-48.5	-63.6	3.5	1.51e+00	0	27	104	1529872384	60	54873
2026-01-13 00:31:25.44	339.35	2.58	-48.8	-64.0	3.5	1.51e+00	0	27	104	1529872384	60	57140
2026-01-13 00:31:29.48	339.38	2.32	-48.7	-63.9	3.6	1.51e+00	0	27	104	1529872384	60	56451
2026-01-13 00:31:33.52	339.40	2.06	-48.8	-63.9	3.6	1.51e+00	0	27	104	1529872384	60	56920
2026-01-13 00:31:37.55	339.43	1.80	-48.7	-63.9	3.6	1.51e+00	0	27	104	1529872384	60	56744
2026-01-13 00:31:41.59	339.46	1.55	-48.7	-63.9	3.6	1.51e+00	0	27	104	1529872384	60	56627
2026-01-13 00:31:45.63	339.48	1.29	-48.7	-63.9	3.6	1.51e+00	0	27	104	1529872384	60	56739
2026-01-13 00:31:49.68	339.51	1.04	-48.7	-63.9	3.6	1.51e+00	0	27	104	1529872384	60	56700
2026-01-13 00:31:53.72	339.53	0.80	-48.7	-63.9	3.6	1.51e+00	0	27	104	1529872384	60	56510
2026-01-13 00:31:57.75	339.56	0.55	-48.7	-63.9	3.6	1.51e+00	0	27	104	1529872384	60	56435
2026-01-13 00:32:01.79	339.59	0.31	-48.7	-63.9	3.6	1.51e+00	0	27	104	1529872384	60	56543
2026-01-13 00:32:05.82	339.61	0.07	-48.7	-63.9	3.6	1.51e+00	0	27	104	1529872384	60	56354

#Closed at: 2026-01-13 00:32:07
#Recorded file [1529 MB]: D:/lorett/data/35029_260113_121635.dat