passes_logs/2026/01/13/R4.6S_Anadyr/R4.6S_Anadyr__20260113_194141_FENGYUN_3D_rec.log

#Pass ID: 20260113_194141_FENGYUN 3D
#Satellite: FENGYUN 3D
#Configuration: FENGYUN 3D
#almurnet v.1.7.20251203
#Start time: 2026-01-13 19:41:42

#Version: 2.2.20231116
#Station: R4.6S_Anadyr
#Location: 177.4865 lon 64.73178 lat
#TLE: 1 43010U 17072A   26012.32543542  .00000598  00000+0  30457-3 0  9997
#TLE: 2 43010  98.9935 344.1005 0002233 112.6136 247.5276 14.19696644422876

#Time	Az	El	Level	Level2	SNR	BER	BlckErr	Temp	State	Recorded	gain1	gain2
2026-01-13 19:41:42.49	33.92	0.07	-48.6	-66.4	3.5	3.02e+01	0	25	0	0	60	80419
2026-01-13 19:41:46.52	33.67	0.28	-48.4	-60.5	3.6	8.44e-01	0	26	104	0	60	38323
2026-01-13 19:41:50.56	33.42	0.50	-48.3	-60.4	3.6	8.44e-01	0	26	104	0	60	37701
2026-01-13 19:41:54.60	33.17	0.71	-47.9	-60.1	3.6	8.44e-01	0	27	104	0	60	36465
2026-01-13 19:41:58.64	32.91	0.93	-46.9	-59.0	3.6	8.46e-01	0	27	104	0	60	32302
2026-01-13 19:42:02.68	32.65	1.15	-46.4	-58.4	3.6	8.45e-01	0	27	104	0	60	30189
2026-01-13 19:42:06.71	32.38	1.36	-46.4	-58.5	3.6	8.46e-01	0	27	104	0	60	30270
2026-01-13 19:42:10.75	32.11	1.58	-46.4	-58.4	3.6	8.45e-01	0	27	104	0	60	30109
2026-01-13 19:42:14.79	31.84	1.80	-46.4	-58.5	3.6	8.45e-01	0	27	104	0	60	30272
2026-01-13 19:42:18.83	31.56	2.03	-46.4	-58.2	3.6	8.45e-01	0	27	104	0	60	29368
2026-01-13 19:42:22.87	31.27	2.25	-46.4	-58.0	3.6	8.45e-01	0	27	104	0	60	28767
2026-01-13 19:42:26.91	30.99	2.47	-46.4	-58.4	3.6	8.44e-01	0	27	104	0	60	30005
2026-01-13 19:42:30.95	30.69	2.70	-46.3	-57.7	3.6	8.46e-01	0	27	104	0	60	27798
2026-01-13 19:42:34.99	30.40	2.92	-46.3	-57.9	3.6	8.46e-01	0	27	104	0	60	28374
2026-01-13 19:42:39.02	30.09	3.15	-43.0	-45.6	11.9	3.64e-03	0	27	0	9437184	60	6919
2026-01-13 19:42:43.06	29.79	3.38	-43.7	-47.2	10.8	2.11e-01	0	27	104	17825792	58	9319
2026-01-13 19:42:47.10	29.48	3.61	-35.5	-36.4	21.3	0.00e+00	0	27	0	26214400	44	6000
2026-01-13 19:42:51.13	29.16	3.84	-35.5	-36.4	21.3	0.00e+00	0	27	0	49283072	44	5989
2026-01-13 19:42:55.17	28.84	4.07	-35.3	-36.2	21.5	0.00e+00	0	27	0	72351744	44	5840
2026-01-13 19:42:59.21	28.51	4.30	-35.3	-36.1	21.7	0.00e+00	0	27	0	95420416	44	5786
2026-01-13 19:43:03.25	28.18	4.54	-35.6	-36.4	21.4	0.00e+00	0	27	0	117440512	44	6021
2026-01-13 19:43:07.29	27.84	4.77	-35.3	-36.1	21.8	0.00e+00	0	27	0	140509184	44	5807
2026-01-13 19:43:11.33	27.49	5.01	-35.5	-36.4	21.6	0.00e+00	0	27	0	162529280	44	5988
2026-01-13 19:43:15.37	27.14	5.24	-35.2	-36.0	21.9	0.00e+00	0	27	0	185597952	44	5747
2026-01-13 19:43:19.41	26.78	5.48	-35.1	-35.9	22.1	0.00e+00	0	27	0	208666624	44	5638
2026-01-13 19:43:23.45	26.42	5.72	-35.0	-35.8	22.3	0.00e+00	0	27	0	230686720	44	5569
2026-01-13 19:43:27.49	26.05	5.96	-34.8	-35.6	22.5	0.00e+00	0	27	0	253755392	42	6142
2026-01-13 19:43:31.53	25.68	6.20	-34.7	-35.5	22.6	0.00e+00	0	27	0	276824064	42	6069
2026-01-13 19:43:35.57	25.29	6.44	-34.7	-35.5	22.7	0.00e+00	0	27	0	299892736	42	6051
2026-01-13 19:43:39.61	24.91	6.69	-34.6	-35.4	22.8	0.00e+00	0	27	0	321912832	42	5970
2026-01-13 19:43:43.66	24.51	6.93	-34.4	-35.2	23.0	0.00e+00	0	27	0	344981504	42	5858
2026-01-13 19:43:47.69	24.11	7.18	-34.5	-35.3	23.0	0.00e+00	0	27	0	367001600	42	5907
2026-01-13 19:43:51.73	23.70	7.42	-34.3	-35.0	23.2	0.00e+00	0	27	0	390070272	42	5740
2026-01-13 19:43:55.77	23.28	7.67	-34.4	-35.2	23.0	0.00e+00	0	27	0	413138944	42	5856
2026-01-13 19:43:59.81	22.86	7.92	-34.2	-35.0	23.2	0.00e+00	0	27	0	436207616	42	5716
2026-01-13 19:44:03.85	22.43	8.17	-34.1	-34.8	23.5	0.00e+00	0	27	0	458227712	42	5583
2026-01-13 19:44:07.88	21.99	8.42	-33.8	-34.6	23.7	0.00e+00	0	27	0	481296384	42	5457
2026-01-13 19:44:11.92	21.54	8.67	-34.1	-34.9	23.5	0.00e+00	0	27	0	504365056	42	5644
2026-01-13 19:44:15.95	21.09	8.92	-34.0	-34.8	23.6	0.00e+00	0	27	0	526385152	42	5568
2026-01-13 19:44:19.99	20.62	9.17	-33.9	-34.6	23.7	0.00e+00	0	27	0	549453824	42	5491
2026-01-13 19:44:24.03	20.15	9.43	-33.7	-34.3	23.9	0.00e+00	0	28	0	571473920	40	5945
2026-01-13 19:44:28.07	19.67	9.68	-33.3	-34.0	24.3	0.00e+00	0	27	0	594542592	40	5697
2026-01-13 19:44:32.11	19.18	9.93	-33.1	-33.8	24.5	0.00e+00	0	27	0	617611264	40	5615
2026-01-13 19:44:36.15	18.68	10.19	-33.2	-33.9	24.3	0.00e+00	0	27	0	639631360	40	5664
2026-01-13 19:44:40.19	18.18	10.44	-33.1	-33.8	24.4	0.00e+00	0	27	0	662700032	40	5619
2026-01-13 19:44:44.22	17.66	10.70	-33.3	-34.0	24.3	0.00e+00	0	27	0	685768704	40	5730
2026-01-13 19:44:48.26	17.14	10.95	-33.2	-33.9	24.5	0.00e+00	0	27	0	708837376	40	5678
2026-01-13 19:44:52.30	16.60	11.21	-33.1	-33.8	24.6	0.00e+00	0	27	0	730857472	40	5585
2026-01-13 19:44:56.33	16.06	11.47	-32.6	-33.3	25.0	0.00e+00	0	27	0	753926144	38	5918
2026-01-13 19:45:00.37	15.50	11.72	-32.9	-33.6	24.7	0.00e+00	0	27	0	775946240	38	6133
2026-01-13 19:45:04.41	14.94	11.98	-33.0	-33.7	24.8	0.00e+00	0	28	0	799014912	38	6174
2026-01-13 19:45:08.45	14.37	12.24	-32.6	-33.2	25.1	0.00e+00	0	27	0	822083584	38	5894
2026-01-13 19:45:12.48	13.78	12.49	-32.6	-33.3	25.1	0.00e+00	0	27	0	844103680	38	5941
2026-01-13 19:45:16.52	13.19	12.75	-32.3	-33.0	25.4	0.00e+00	0	27	0	867172352	38	5729
2026-01-13 19:45:20.57	12.58	13.00	-32.3	-32.9	25.4	0.00e+00	0	27	0	890241024	38	5669
2026-01-13 19:45:24.60	11.96	13.26	-32.4	-33.0	25.4	0.00e+00	0	27	0	912261120	38	5736
2026-01-13 19:45:28.64	11.34	13.51	-32.2	-32.8	25.5	0.00e+00	0	28	0	935329792	38	5600
2026-01-13 19:45:32.67	10.70	13.77	-32.2	-32.8	25.5	0.00e+00	0	27	0	958398464	38	5616
2026-01-13 19:45:36.71	10.05	14.02	-32.3	-32.9	25.5	0.00e+00	0	27	0	980418560	38	5683
2026-01-13 19:45:40.75	9.39	14.27	-32.2	-32.9	25.5	0.00e+00	0	27	0	1003487232	38	5662
2026-01-13 19:45:44.79	8.71	14.52	-32.1	-32.8	25.6	0.00e+00	0	27	0	1026555904	38	5595
2026-01-13 19:45:48.82	8.03	14.77	-31.8	-32.5	25.9	0.00e+00	0	27	0	1048576000	38	5381
2026-01-13 19:45:52.86	7.34	15.01	-31.6	-32.3	26.0	0.00e+00	0	27	0	1071644672	36	5916
2026-01-13 19:45:56.90	6.63	15.26	-32.0	-32.6	25.7	0.00e+00	0	27	0	1094713344	36	6162
2026-01-13 19:46:00.94	5.91	15.50	-32.0	-32.7	25.7	0.00e+00	0	27	0	1116733440	36	6189
2026-01-13 19:46:04.98	5.18	15.74	-31.8	-32.5	25.8	0.00e+00	0	27	0	1139802112	36	6066
2026-01-13 19:46:09.02	4.43	15.98	-31.5	-32.2	26.2	0.00e+00	0	27	0	1162870784	36	5831
2026-01-13 19:46:13.05	3.68	16.21	-31.5	-32.1	26.3	0.00e+00	0	27	0	1184890880	36	5796
2026-01-13 19:46:17.09	2.91	16.45	-31.5	-32.1	26.3	0.00e+00	0	27	0	1207959552	36	5822
2026-01-13 19:46:21.13	2.13	16.68	-31.2	-31.8	26.6	0.00e+00	0	27	0	1231028224	36	5599
2026-01-13 19:46:25.17	1.34	16.90	-31.2	-31.8	26.4	0.00e+00	0	27	0	1253048320	36	5628
2026-01-13 19:46:29.21	0.54	17.12	-31.4	-32.0	26.3	0.00e+00	0	27	0	1276116992	36	5746
2026-01-13 19:46:33.25	359.72	17.34	-31.1	-31.8	26.6	0.00e+00	0	27	0	1299185664	36	5576
2026-01-13 19:46:37.29	358.89	17.56	-31.1	-31.8	26.6	0.00e+00	0	28	0	1321205760	36	5579
2026-01-13 19:46:41.32	358.05	17.76	-30.8	-31.4	26.8	0.00e+00	0	27	0	1344274432	36	5372
2026-01-13 19:46:45.36	357.20	17.97	-30.7	-31.4	26.9	0.00e+00	0	27	0	1367343104	36	5339
2026-01-13 19:46:49.40	356.34	18.17	-30.7	-31.4	26.9	0.00e+00	0	27	0	1389363200	34	5972
2026-01-13 19:46:53.43	355.47	18.36	-30.8	-31.4	26.8	0.00e+00	0	27	0	1412431872	34	6000
2026-01-13 19:46:57.47	354.58	18.55	-30.5	-31.1	27.1	0.00e+00	0	27	0	1435500544	34	5788
2026-01-13 19:47:01.51	353.68	18.74	-30.6	-31.3	27.0	0.00e+00	0	27	0	1457520640	34	5904
2026-01-13 19:47:05.55	352.78	18.91	-30.6	-31.3	27.0	0.00e+00	0	27	0	1480589312	34	5908
2026-01-13 19:47:09.59	351.86	19.08	-30.8	-31.4	26.9	0.00e+00	0	27	0	1503657984	34	6033
2026-01-13 19:47:13.63	350.93	19.25	-30.9	-31.5	26.9	0.00e+00	0	27	0	1525678080	34	6058
2026-01-13 19:47:17.67	349.99	19.41	-31.0	-31.6	26.8	0.00e+00	0	27	0	1548746752	34	6136
2026-01-13 19:47:21.70	349.04	19.56	-30.8	-31.4	26.9	0.00e+00	0	27	0	1570766848	34	5986
2026-01-13 19:47:25.75	348.08	19.70	-30.3	-31.0	27.2	0.00e+00	0	27	0	1593835520	34	5699
2026-01-13 19:47:29.78	347.12	19.83	-30.1	-30.7	27.4	0.00e+00	0	27	0	1616904192	34	5552
2026-01-13 19:47:33.82	346.14	19.96	-30.1	-30.7	27.4	0.00e+00	0	27	0	1639972864	34	5531
2026-01-13 19:47:37.86	345.16	20.08	-30.1	-30.8	27.4	0.00e+00	0	27	0	1661992960	34	5569
2026-01-13 19:47:41.90	344.17	20.19	-30.0	-30.7	27.4	0.00e+00	0	27	0	1685061632	34	5521
2026-01-13 19:47:45.94	343.17	20.29	-30.0	-30.7	27.5	0.00e+00	0	27	0	1708130304	34	5510
2026-01-13 19:47:49.97	342.17	20.39	-30.1	-30.7	27.4	0.00e+00	0	27	0	1730150400	34	5548
2026-01-13 19:47:54.01	341.16	20.47	-30.5	-31.2	27.1	0.00e+00	0	27	0	1753219072	34	5829
2026-01-13 19:47:58.05	340.15	20.54	-30.1	-30.7	27.4	0.00e+00	0	27	0	1775239168	34	5522
2026-01-13 19:48:02.09	339.13	20.61	-30.4	-31.1	27.3	0.00e+00	0	27	0	1798307840	34	5770
2026-01-13 19:48:06.13	338.10	20.67	-30.4	-31.1	27.2	0.00e+00	0	27	0	1821376512	34	5779
2026-01-13 19:48:10.16	337.08	20.71	-30.0	-30.6	27.5	0.00e+00	0	27	0	1844445184	34	5491
2026-01-13 19:48:14.20	336.05	20.75	-30.1	-30.7	27.3	0.00e+00	0	27	0	1866465280	34	5540
2026-01-13 19:48:18.24	335.01	20.78	-30.3	-30.9	27.2	0.00e+00	0	27	0	1889533952	34	5647
2026-01-13 19:48:22.28	333.98	20.79	-30.8	-31.4	26.9	0.00e+00	0	27	0	1912602624	34	5983
2026-01-13 19:48:26.32	332.95	20.80	-30.2	-30.9	27.3	0.00e+00	0	27	0	1934622720	34	5634
2026-01-13 19:48:30.36	331.91	20.80	-30.0	-30.6	27.5	0.00e+00	0	27	0	1957691392	34	5444
2026-01-13 19:48:34.40	330.88	20.79	-30.2	-30.8	27.4	0.00e+00	0	27	0	1979711488	34	5583
2026-01-13 19:48:38.44	329.84	20.76	-30.3	-30.9	27.2	0.00e+00	0	27	0	2002780160	34	5692
2026-01-13 19:48:42.48	328.81	20.73	-30.2	-30.8	27.2	0.00e+00	0	27	0	2025848832	34	5608
2026-01-13 19:48:46.52	327.78	20.69	-30.5	-31.2	27.1	0.00e+00	0	27	0	2048917504	34	5879
2026-01-13 19:48:50.56	326.75	20.64	-30.3	-30.9	27.4	0.00e+00	0	27	0	2070937600	34	5680
2026-01-13 19:48:54.60	325.73	20.58	-30.3	-31.0	27.4	0.00e+00	0	27	0	2094006272	34	5709
2026-01-13 19:48:58.64	324.71	20.51	-30.3	-30.9	27.2	0.00e+00	0	27	0	2117074944	34	5666
2026-01-13 19:49:02.68	323.70	20.43	-30.0	-30.5	27.6	0.00e+00	0	27	0	2139095040	34	5426
2026-01-13 19:49:06.71	322.70	20.34	-30.2	-30.8	27.4	0.00e+00	0	27	0	2162163712	34	5590
2026-01-13 19:49:10.75	321.69	20.24	-30.0	-30.6	27.5	0.00e+00	0	27	0	2185232384	34	5494
2026-01-13 19:49:14.79	320.70	20.13	-30.2	-30.8	27.4	0.00e+00	0	28	0	2207252480	34	5572
2026-01-13 19:49:18.83	319.71	20.02	-30.2	-30.9	27.4	0.00e+00	0	27	0	2230321152	34	5656
2026-01-13 19:49:22.87	318.73	19.90	-30.2	-30.8	27.3	0.00e+00	0	27	0	2253389824	34	5590
2026-01-13 19:49:26.91	317.76	19.76	-30.1	-30.8	27.5	0.00e+00	0	27	0	2275409920	34	5576
2026-01-13 19:49:30.96	316.79	19.62	-30.2	-30.8	27.4	0.00e+00	0	27	0	2298478592	34	5577
2026-01-13 19:49:35.00	315.84	19.48	-30.6	-31.2	27.1	0.00e+00	0	27	0	2321547264	34	5891
2026-01-13 19:49:39.04	314.89	19.32	-30.5	-31.1	27.1	0.00e+00	0	27	0	2343567360	34	5822
2026-01-13 19:49:43.07	313.96	19.16	-30.5	-31.0	27.2	0.00e+00	0	27	0	2366636032	34	5754
2026-01-13 19:49:47.12	313.03	18.99	-30.4	-31.0	27.2	0.00e+00	0	27	0	2389704704	34	5700
2026-01-13 19:49:51.16	312.12	18.82	-30.6	-31.2	27.1	0.00e+00	0	27	0	2411724800	34	5887
2026-01-13 19:49:55.19	311.22	18.64	-30.6	-31.2	27.1	0.00e+00	0	27	0	2434793472	34	5870
2026-01-13 19:49:59.24	310.32	18.45	-30.8	-31.4	26.9	0.00e+00	0	27	0	2457862144	34	5981
2026-01-13 19:50:03.27	309.44	18.26	-30.7	-31.4	27.0	0.00e+00	0	27	0	2479882240	34	5971
2026-01-13 19:50:07.31	308.57	18.06	-30.9	-31.5	26.8	0.00e+00	0	27	0	2502950912	34	6074
2026-01-13 19:50:11.35	307.71	17.86	-31.0	-31.6	26.7	0.00e+00	0	27	0	2524971008	34	6133
2026-01-13 19:50:15.38	306.87	17.65	-31.2	-31.9	26.5	0.00e+00	0	27	0	2548039680	34	6341
2026-01-13 19:50:19.42	306.03	17.44	-31.4	-32.0	26.4	0.00e+00	0	27	0	2571108352	34	6427
2026-01-13 19:50:23.46	305.21	17.22	-31.2	-31.7	26.6	0.00e+00	0	27	0	2594177024	34	6211
2026-01-13 19:50:27.49	304.40	17.00	-31.3	-32.0	26.4	0.00e+00	0	27	0	2616197120	34	6415
2026-01-13 19:50:31.53	303.60	16.78	-31.0	-31.7	26.6	0.00e+00	0	27	0	2639265792	34	6176
2026-01-13 19:50:35.57	302.81	16.55	-31.2	-31.9	26.5	0.00e+00	0	27	0	2662334464	34	6334
2026-01-13 19:50:39.61	302.04	16.32	-31.3	-32.0	26.4	0.00e+00	0	27	0	2684354560	34	6392
2026-01-13 19:50:43.65	301.27	16.08	-31.4	-31.9	26.4	0.00e+00	0	27	0	2707423232	34	6381
2026-01-13 19:50:47.69	300.52	15.85	-31.6	-32.1	26.2	0.00e+00	0	27	0	2729443328	34	6539
2026-01-13 19:50:51.73	299.78	15.61	-31.4	-32.0	26.4	0.00e+00	0	27	0	2752512000	34	6427
2026-01-13 19:50:55.76	299.06	15.37	-31.7	-32.3	26.0	0.00e+00	0	27	0	2775580672	36	5948
2026-01-13 19:50:59.80	298.34	15.12	-31.5	-32.0	26.1	0.00e+00	0	27	0	2797600768	36	5738
2026-01-13 19:51:03.84	297.64	14.88	-31.9	-32.5	25.5	0.00e+00	0	27	0	2820669440	36	6068
2026-01-13 19:51:07.87	296.95	14.63	-31.7	-32.4	25.9	0.00e+00	0	27	0	2843738112	36	5965
2026-01-13 19:51:11.91	296.27	14.38	-32.2	-32.8	25.5	0.00e+00	0	27	0	2866806784	36	6287
2026-01-13 19:51:15.95	295.60	14.13	-31.9	-32.5	25.7	0.00e+00	0	27	0	2888826880	36	6075
2026-01-13 19:51:19.99	294.94	13.87	-32.1	-32.8	25.6	0.00e+00	0	27	0	2911895552	36	6273
2026-01-13 19:51:24.03	294.29	13.62	-32.1	-32.9	25.6	0.00e+00	0	27	0	2933915648	36	6342
2026-01-13 19:51:28.07	293.66	13.37	-32.4	-33.1	25.4	0.00e+00	0	27	0	2956984320	36	6514
2026-01-13 19:51:32.10	293.04	13.11	-32.3	-32.9	25.4	0.00e+00	0	27	0	2980052992	36	6335
2026-01-13 19:51:36.14	292.42	12.86	-32.5	-33.2	25.2	0.00e+00	0	27	0	3002073088	36	6580
2026-01-13 19:51:40.18	291.82	12.60	-32.6	-33.3	25.1	0.00e+00	0	28	0	3025141760	38	5936
2026-01-13 19:51:44.21	291.23	12.34	-32.7	-33.4	25.0	0.00e+00	0	27	0	3048210432	38	6002
2026-01-13 19:51:48.25	290.65	12.09	-32.6	-33.2	25.1	0.00e+00	0	27	0	3070230528	38	5887
2026-01-13 19:51:52.29	290.08	11.83	-32.5	-33.1	25.2	0.00e+00	0	27	0	3093299200	38	5811
2026-01-13 19:51:56.33	289.52	11.57	-32.8	-33.6	24.9	0.00e+00	0	27	0	3116367872	38	6133
2026-01-13 19:52:00.37	288.97	11.32	-33.0	-33.6	24.8	0.00e+00	0	27	0	3138387968	38	6139
2026-01-13 19:52:04.40	288.43	11.06	-33.4	-34.0	24.4	0.00e+00	0	27	0	3161456640	38	6414
2026-01-13 19:52:08.44	287.89	10.80	-33.1	-33.7	24.6	0.00e+00	0	27	0	3184525312	40	5543
2026-01-13 19:52:12.47	287.37	10.55	-33.1	-33.7	24.6	0.00e+00	0	27	0	3206545408	40	5539
2026-01-13 19:52:16.51	286.86	10.29	-33.3	-33.9	24.4	0.00e+00	0	27	0	3229614080	40	5673
2026-01-13 19:52:20.54	286.36	10.04	-33.2	-34.0	24.4	0.00e+00	0	27	0	3252682752	40	5726
2026-01-13 19:52:24.58	285.86	9.78	-33.4	-34.2	24.2	0.00e+00	0	27	0	3274702848	40	5874
2026-01-13 19:52:28.61	285.37	9.53	-33.6	-34.2	24.1	0.00e+00	0	27	0	3297771520	40	5875
2026-01-13 19:52:32.65	284.90	9.27	-33.6	-34.3	24.1	0.00e+00	0	27	0	3319791616	40	5955
2026-01-13 19:52:36.69	284.43	9.02	-33.7	-34.3	24.0	0.00e+00	0	27	0	3342860288	40	5959
2026-01-13 19:52:40.73	283.97	8.77	-33.9	-34.5	23.8	0.00e+00	0	27	0	3365928960	40	6100
2026-01-13 19:52:44.77	283.51	8.52	-34.0	-34.6	23.7	0.00e+00	0	27	0	3388997632	40	6161
2026-01-13 19:52:48.80	283.07	8.27	-34.1	-34.8	23.6	0.00e+00	0	27	0	3411017728	40	6310
2026-01-13 19:52:52.84	282.63	8.02	-34.1	-34.9	23.5	0.00e+00	0	27	0	3434086400	40	6378
2026-01-13 19:52:56.88	282.20	7.77	-34.1	-34.7	23.6	0.00e+00	0	27	0	3457155072	40	6227
2026-01-13 19:53:00.92	281.78	7.52	-34.1	-34.8	23.5	0.00e+00	0	27	0	3479175168	40	6306
2026-01-13 19:53:04.95	281.36	7.27	-34.4	-35.0	23.2	0.00e+00	0	27	0	3502243840	40	6451
2026-01-13 19:53:08.99	280.96	7.03	-34.4	-35.1	23.2	0.00e+00	0	27	0	3524263936	40	6490
2026-01-13 19:53:13.03	280.56	6.78	-34.5	-35.3	23.0	0.00e+00	0	27	0	3547332608	40	6644
2026-01-13 19:53:17.07	280.16	6.54	-34.6	-35.5	22.9	0.00e+00	0	27	0	3570401280	40	6777
2026-01-13 19:53:21.10	279.78	6.29	-34.5	-35.2	23.0	0.00e+00	0	27	0	3592421376	40	6549
2026-01-13 19:53:25.14	279.39	6.05	-34.7	-35.4	22.7	0.00e+00	0	27	0	3615490048	42	6022
2026-01-13 19:53:29.18	279.02	5.81	-34.9	-35.7	22.6	0.00e+00	0	27	0	3638558720	42	6191
2026-01-13 19:53:33.22	278.65	5.57	-34.9	-35.7	22.6	0.00e+00	0	27	0	3661627392	42	6244
2026-01-13 19:53:37.26	278.29	5.33	-34.6	-35.5	22.7	0.00e+00	0	27	0	3683647488	42	6045
2026-01-13 19:53:41.30	277.94	5.09	-34.8	-35.5	22.5	0.00e+00	0	27	0	3706716160	42	6089
2026-01-13 19:53:45.33	277.59	4.86	-34.9	-35.6	22.4	0.00e+00	0	27	0	3728736256	42	6136
2026-01-13 19:53:49.37	277.24	4.62	-34.9	-35.6	22.4	0.00e+00	0	27	0	3751804928	42	6161
2026-01-13 19:53:53.41	276.90	4.39	-35.0	-35.9	22.2	0.00e+00	0	27	0	3774873600	42	6347
2026-01-13 19:53:57.45	276.57	4.15	-35.2	-35.9	22.0	0.00e+00	0	27	0	3796893696	42	6367
2026-01-13 19:54:01.49	276.24	3.92	-35.4	-36.2	21.7	0.00e+00	0	27	0	3819962368	42	6558
2026-01-13 19:54:05.53	275.92	3.69	-35.4	-36.3	21.6	0.00e+00	0	27	0	3843031040	42	6690
2026-01-13 19:54:09.56	275.61	3.46	-35.7	-36.5	21.4	0.00e+00	0	27	0	3866099712	44	6067
2026-01-13 19:54:13.60	275.29	3.23	-35.5	-36.3	21.4	0.00e+00	0	27	0	3888119808	44	5926
2026-01-13 19:54:17.64	274.99	3.00	-47.1	-59.0	3.6	4.40e-01	0	27	104	3910139904	60	32106
2026-01-13 19:54:21.68	274.69	2.78	-48.3	-60.4	3.6	8.45e-01	0	27	104	3910139904	60	37794
2026-01-13 19:54:25.73	274.39	2.55	-48.4	-60.5	3.6	8.46e-01	0	28	104	3910139904	60	38190
2026-01-13 19:54:29.77	274.10	2.32	-48.2	-60.3	3.6	8.45e-01	0	27	104	3910139904	60	37446
2026-01-13 19:54:33.81	273.81	2.10	-48.3	-60.3	3.6	8.46e-01	0	27	104	3910139904	60	37573
2026-01-13 19:54:37.84	273.53	1.88	-48.3	-60.4	3.6	8.46e-01	0	27	104	3910139904	60	37838
2026-01-13 19:54:41.88	273.25	1.66	-48.3	-60.4	3.6	8.45e-01	0	27	104	3910139904	60	37875
2026-01-13 19:54:45.92	272.97	1.44	-48.3	-60.3	3.6	8.46e-01	0	28	104	3910139904	60	37607
2026-01-13 19:54:49.95	272.70	1.22	-48.3	-60.4	3.6	8.45e-01	0	27	104	3910139904	60	37706
2026-01-13 19:54:54.00	272.44	1.00	-48.3	-60.4	3.6	8.46e-01	0	28	104	3910139904	60	38014
2026-01-13 19:54:58.03	272.17	0.78	-48.3	-60.3	3.6	8.45e-01	0	27	104	3910139904	60	37490
2026-01-13 19:55:02.07	271.92	0.57	-48.3	-60.3	3.6	8.45e-01	0	28	104	3910139904	60	37468
2026-01-13 19:55:06.10	271.66	0.35	-48.2	-60.4	3.6	8.45e-01	0	27	104	3910139904	60	37633
2026-01-13 19:55:10.14	271.41	0.14	-48.3	-60.4	3.6	8.45e-01	0	28	104	3910139904	60	37884

#Closed at: 2026-01-13 19:55:13
#Recorded file [3910 MB]: D:/lorett/data/35029_260114_074142.dat