passes_logs/2026/01/13/R4.6S_Anadyr/R4.6S_Anadyr__20260113_015802_NOAA_20_JPSS-1_rec.log

#Pass ID: 20260113_015802_NOAA 20 (JPSS-1)
#Satellite: NOAA 20 (JPSS-1)
#Configuration: NOAA 20
#almurnet v.1.7.20251203
#Start time: 2026-01-13 01:58:03

#Version: 2.2.20231116
#Station: R4.6S_Anadyr
#Location: 177.4865 lon 64.73178 lat
#TLE: 1 43013U 17073A   26012.29914746  .00000087  00000+0  62270-4 0  9997
#TLE: 2 43013  98.7632 313.2670 0001616  43.2193 316.9110 14.19535514422351

#Time	Az	El	Level	Level2	SNR	BER	BlckErr	Temp	State	Recorded	gain1	gain2
2026-01-13 01:58:03.10	201.35	0.05	-48.6	-63.6	3.5	1.51e+00	0	24	0	0	60	54403
2026-01-13 01:58:07.14	201.58	0.27	-48.8	-64.0	3.6	1.51e+00	0	26	104	0	60	57324
2026-01-13 01:58:11.17	201.81	0.49	-48.8	-64.1	3.6	1.51e+00	0	26	104	0	60	57828
2026-01-13 01:58:15.21	202.04	0.71	-48.5	-63.8	3.6	1.51e+00	0	26	104	0	60	55968
2026-01-13 01:58:19.25	202.28	0.93	-47.9	-63.0	3.6	1.51e+00	0	26	104	0	60	51177
2026-01-13 01:58:23.29	202.51	1.16	-47.3	-62.4	3.6	1.51e+00	0	26	104	0	60	47765
2026-01-13 01:58:27.32	202.76	1.38	-47.3	-62.5	3.6	1.51e+00	0	26	104	0	60	48242
2026-01-13 01:58:31.36	203.00	1.61	-47.3	-62.5	3.6	1.51e+00	0	26	104	0	60	48236
2026-01-13 01:58:35.40	203.25	1.84	-47.3	-62.4	3.6	1.51e+00	0	26	104	0	60	47661
2026-01-13 01:58:39.44	203.50	2.07	-47.3	-62.4	3.6	1.51e+00	0	26	104	0	60	47385
2026-01-13 01:58:43.48	203.76	2.31	-47.2	-62.5	3.6	1.51e+00	0	26	104	0	60	47985
2026-01-13 01:58:47.52	204.02	2.54	-47.2	-61.2	3.6	1.51e+00	0	26	104	0	60	41362
2026-01-13 01:58:51.55	204.29	2.77	-47.2	-62.1	3.6	1.51e+00	0	26	104	0	60	45938
2026-01-13 01:58:55.59	204.56	3.01	-45.3	-49.7	11.5	2.56e-03	90	26	0	3145728	60	11008
2026-01-13 01:58:59.62	204.83	3.25	-43.3	-45.9	15.4	0.00e+00	92	26	0	9437184	60	7153
2026-01-13 01:59:03.67	205.11	3.49	-44.7	-48.5	11.5	1.67e-01	92	26	104	13631488	60	9649
2026-01-13 01:59:07.70	205.39	3.73	-42.2	-44.2	17.4	0.00e+00	92	26	0	14680064	58	6551
2026-01-13 01:59:11.74	205.67	3.97	-41.8	-43.6	18.1	0.00e+00	92	26	0	22020096	56	6868
2026-01-13 01:59:15.78	205.96	4.22	-41.5	-43.2	18.5	0.00e+00	92	26	0	30408704	56	6605
2026-01-13 01:59:19.82	206.26	4.46	-42.1	-44.0	17.8	0.00e+00	92	26	0	37748736	56	7183
2026-01-13 01:59:23.86	206.56	4.71	-40.7	-42.2	19.5	0.00e+00	92	26	0	45088768	54	6569
2026-01-13 01:59:27.90	206.86	4.96	-40.8	-42.3	19.6	0.00e+00	32	26	0	52428800	54	6634
2026-01-13 01:59:31.93	207.17	5.21	-40.3	-41.6	20.3	0.00e+00	92	26	0	59768832	54	6124
2026-01-13 01:59:35.97	207.49	5.46	-40.1	-41.4	20.5	0.00e+00	92	27	0	68157440	54	6005
2026-01-13 01:59:40.00	207.81	5.72	-40.0	-41.3	20.6	0.00e+00	91	26	0	75497472	54	5922
2026-01-13 01:59:44.04	208.13	5.98	-39.9	-41.1	20.8	0.00e+00	80	26	0	82837504	54	5821
2026-01-13 01:59:48.08	208.46	6.23	-39.8	-41.0	21.0	0.00e+00	90	26	0	90177536	52	6391
2026-01-13 01:59:52.11	208.80	6.49	-39.6	-40.8	21.1	0.00e+00	92	26	0	98566144	52	6299
2026-01-13 01:59:56.15	209.14	6.76	-39.4	-40.6	21.4	0.00e+00	92	27	0	105906176	52	6129
2026-01-13 02:00:00.18	209.49	7.02	-39.5	-40.7	21.4	0.00e+00	0	27	0	113246208	52	6201
2026-01-13 02:00:04.22	209.84	7.28	-39.5	-40.6	21.5	0.00e+00	90	27	0	120586240	52	6165
2026-01-13 02:00:08.26	210.21	7.55	-39.3	-40.4	21.7	0.00e+00	92	27	0	127926272	52	5975
2026-01-13 02:00:12.29	210.57	7.82	-39.0	-40.1	21.8	0.00e+00	32	27	0	136314880	52	5809
2026-01-13 02:00:16.33	210.95	8.09	-39.2	-40.3	21.8	0.00e+00	0	27	0	143654912	52	5951
2026-01-13 02:00:20.37	211.33	8.36	-39.3	-40.4	21.6	0.00e+00	90	27	0	150994944	52	5996
2026-01-13 02:00:24.40	211.71	8.64	-39.1	-40.2	22.0	0.00e+00	92	27	0	158334976	52	5853
2026-01-13 02:00:28.44	212.11	8.92	-39.1	-40.2	21.9	0.00e+00	92	27	0	165675008	52	5871
2026-01-13 02:00:32.48	212.51	9.20	-38.9	-40.0	22.1	0.00e+00	90	27	0	174063616	52	5722
2026-01-13 02:00:36.52	212.92	9.48	-39.0	-40.1	22.1	0.00e+00	92	27	0	181403648	52	5767
2026-01-13 02:00:40.55	213.33	9.76	-38.7	-39.7	22.4	0.00e+00	92	27	0	188743680	50	6227
2026-01-13 02:00:44.59	213.76	10.04	-38.6	-39.6	22.5	0.00e+00	0	27	0	196083712	50	6118
2026-01-13 02:00:48.63	214.19	10.33	-38.6	-39.6	22.5	0.00e+00	91	27	0	204472320	50	6140
2026-01-13 02:00:52.67	214.63	10.62	-38.5	-39.5	22.6	0.00e+00	91	27	0	211812352	50	6087
2026-01-13 02:00:56.71	215.08	10.91	-38.7	-39.7	22.5	0.00e+00	90	27	0	219152384	50	6175
2026-01-13 02:01:00.74	215.54	11.20	-39.0	-40.1	22.1	0.00e+00	12	27	0	226492416	50	6472
2026-01-13 02:01:04.78	216.01	11.49	-38.8	-39.8	22.4	0.00e+00	90	27	0	233832448	50	6257
2026-01-13 02:01:08.82	216.48	11.79	-38.5	-39.5	22.8	0.00e+00	91	27	0	242221056	50	6065
2026-01-13 02:01:12.86	216.97	12.09	-38.5	-39.4	22.8	0.00e+00	92	27	0	249561088	50	6023
2026-01-13 02:01:16.89	217.46	12.39	-38.5	-39.5	22.7	0.00e+00	21	27	0	256901120	50	6073
2026-01-13 02:01:20.93	217.97	12.69	-38.4	-39.3	22.9	0.00e+00	92	27	0	264241152	50	5962
2026-01-13 02:01:24.97	218.48	12.99	-38.3	-39.2	23.0	0.00e+00	92	27	0	272629760	50	5877
2026-01-13 02:01:29.00	219.01	13.30	-38.5	-39.5	22.8	0.00e+00	90	27	0	279969792	50	6052
2026-01-13 02:01:33.04	219.54	13.60	-38.8	-39.8	22.5	0.00e+00	28	27	0	287309824	50	6268
2026-01-13 02:01:37.08	220.09	13.91	-38.7	-39.7	22.5	0.00e+00	91	27	0	294649856	50	6201
2026-01-13 02:01:41.12	220.65	14.22	-38.4	-39.4	22.9	0.00e+00	92	27	0	301989888	50	5995
2026-01-13 02:01:45.15	221.21	14.53	-38.6	-39.6	22.7	0.00e+00	92	27	0	310378496	50	6129
2026-01-13 02:01:49.19	221.80	14.84	-38.3	-39.3	22.2	0.00e+00	0	27	0	317718528	50	5898
2026-01-13 02:01:53.23	222.39	15.16	-38.2	-39.1	23.2	0.00e+00	92	27	0	325058560	50	5808
2026-01-13 02:01:57.26	222.99	15.47	-38.2	-39.2	23.1	0.00e+00	92	27	0	332398592	50	5852
2026-01-13 02:02:01.30	223.61	15.79	-38.1	-39.1	23.2	0.00e+00	90	27	0	340787200	50	5801
2026-01-13 02:02:05.34	224.24	16.11	-37.8	-38.7	23.5	0.00e+00	20	27	0	348127232	50	5560
2026-01-13 02:02:09.38	224.88	16.42	-37.9	-38.8	23.5	0.00e+00	92	27	0	355467264	50	5613
2026-01-13 02:02:13.41	225.54	16.74	-37.8	-38.7	23.6	0.00e+00	92	27	0	362807296	48	6200
2026-01-13 02:02:17.45	226.21	17.06	-37.6	-38.5	23.7	0.00e+00	92	27	0	370147328	48	6052
2026-01-13 02:02:21.49	226.89	17.38	-37.5	-38.4	23.8	0.00e+00	51	27	0	378535936	48	5995
2026-01-13 02:02:25.53	227.59	17.70	-37.3	-38.2	24.0	0.00e+00	90	27	0	385875968	48	5887
2026-01-13 02:02:29.56	228.30	18.02	-37.2	-38.1	24.1	0.00e+00	92	27	0	393216000	48	5779
2026-01-13 02:02:33.60	229.03	18.34	-37.3	-38.1	24.0	0.00e+00	0	27	0	400556032	48	5825
2026-01-13 02:02:37.63	229.77	18.65	-37.2	-38.1	24.1	0.00e+00	92	27	0	408944640	48	5779
2026-01-13 02:02:41.67	230.52	18.97	-37.2	-38.1	24.2	0.00e+00	92	27	0	416284672	48	5777
2026-01-13 02:02:45.71	231.30	19.29	-37.4	-38.3	24.0	0.00e+00	92	27	0	423624704	48	5922
2026-01-13 02:02:49.75	232.09	19.61	-37.2	-38.0	24.2	0.00e+00	12	27	0	430964736	48	5759
2026-01-13 02:02:53.79	232.89	19.92	-37.0	-37.9	24.3	0.00e+00	92	27	0	438304768	48	5657
2026-01-13 02:02:57.82	233.71	20.23	-36.9	-37.7	24.5	0.00e+00	90	27	0	446693376	48	5540
2026-01-13 02:03:01.85	234.55	20.54	-36.9	-37.8	24.5	0.00e+00	92	27	0	454033408	48	5567
2026-01-13 02:03:05.89	235.40	20.85	-36.7	-37.6	24.6	0.00e+00	0	27	0	461373440	46	6111
2026-01-13 02:03:09.92	236.27	21.16	-36.5	-37.3	24.7	0.00e+00	90	27	0	468713472	46	5957
2026-01-13 02:03:13.96	237.15	21.46	-36.6	-37.4	24.8	0.00e+00	91	27	0	476053504	46	6002
2026-01-13 02:03:18.00	238.06	21.76	-36.2	-37.0	25.0	0.00e+00	90	27	0	484442112	46	5732
2026-01-13 02:03:22.03	238.98	22.06	-36.5	-37.3	24.9	0.00e+00	53	27	0	491782144	46	5942
2026-01-13 02:03:26.07	239.92	22.35	-36.5	-37.3	24.8	0.00e+00	91	27	0	499122176	46	5940
2026-01-13 02:03:30.10	240.87	22.64	-36.7	-37.6	24.6	0.00e+00	91	27	0	506462208	46	6108
2026-01-13 02:03:34.14	241.84	22.92	-37.4	-38.3	24.1	0.00e+00	73	27	0	514850816	46	6634
2026-01-13 02:03:38.17	242.83	23.19	-37.6	-38.5	23.9	0.00e+00	0	27	0	522190848	48	6039
2026-01-13 02:03:42.21	243.84	23.47	-37.2	-38.1	24.2	0.00e+00	92	27	0	529530880	48	5795
2026-01-13 02:03:46.25	244.86	23.73	-37.3	-38.1	24.2	0.00e+00	92	27	0	536870912	48	5810
2026-01-13 02:03:50.28	245.90	23.99	-37.5	-38.3	24.1	0.00e+00	90	27	0	544210944	48	5938
2026-01-13 02:03:54.32	246.96	24.24	-37.6	-38.5	23.9	0.00e+00	0	27	0	552599552	48	6046
2026-01-13 02:03:58.36	248.03	24.48	-38.1	-39.1	23.4	0.00e+00	91	27	0	559939584	48	6477
2026-01-13 02:04:02.40	249.12	24.71	-38.6	-39.5	22.9	0.00e+00	92	27	0	567279616	48	6834
2026-01-13 02:04:06.43	250.22	24.94	-38.8	-39.8	22.8	0.00e+00	68	27	0	574619648	50	6296
2026-01-13 02:04:10.47	251.34	25.15	-39.1	-40.1	22.4	0.00e+00	92	27	0	583008256	50	6515
2026-01-13 02:04:14.51	252.47	25.36	-39.9	-41.0	21.7	0.00e+00	90	27	0	590348288	52	6444
2026-01-13 02:04:18.54	253.62	25.55	-39.5	-40.6	22.0	0.00e+00	92	27	0	597688320	52	6147
2026-01-13 02:04:22.58	254.78	25.74	-40.7	-42.0	20.7	0.00e+00	61	27	0	605028352	52	7204
2026-01-13 02:04:26.62	255.96	25.91	-40.6	-41.9	20.8	0.00e+00	92	27	0	612368384	54	6342
2026-01-13 02:04:30.66	257.15	26.07	-39.8	-40.9	21.7	0.00e+00	92	27	0	620756992	54	5649
2026-01-13 02:04:34.70	258.34	26.22	-40.1	-41.3	21.4	0.00e+00	92	27	0	628097024	52	6643
2026-01-13 02:04:38.73	259.55	26.36	-40.1	-41.2	21.5	0.00e+00	7	27	0	635437056	52	6607
2026-01-13 02:04:42.77	260.77	26.49	-39.9	-41.0	21.7	0.00e+00	91	27	0	642777088	52	6440
2026-01-13 02:04:46.81	262.00	26.60	-39.4	-40.5	22.2	0.00e+00	92	27	0	650117120	52	6040
2026-01-13 02:04:50.84	263.23	26.70	-38.6	-39.6	22.9	0.00e+00	92	27	0	658505728	50	6140
2026-01-13 02:04:54.88	264.47	26.78	-39.4	-40.4	22.2	0.00e+00	7	27	0	665845760	50	6741
2026-01-13 02:04:58.92	265.72	26.85	-39.6	-40.7	22.0	0.00e+00	91	27	0	673185792	50	6940
2026-01-13 02:05:02.95	266.97	26.91	-39.8	-41.0	21.7	0.00e+00	91	27	0	680525824	52	6397
2026-01-13 02:05:06.99	268.23	26.95	-39.2	-40.2	22.4	0.00e+00	40	27	0	688914432	52	5867
2026-01-13 02:05:11.02	269.48	26.98	-38.9	-39.8	22.8	0.00e+00	31	27	0	696254464	50	6307
2026-01-13 02:05:15.06	270.74	26.99	-38.4	-39.4	23.1	0.00e+00	92	27	0	703594496	50	5968
2026-01-13 02:05:19.10	272.00	26.99	-38.3	-39.3	23.2	0.00e+00	92	27	0	710934528	50	5921
2026-01-13 02:05:23.14	273.26	26.97	-37.9	-38.7	23.7	0.00e+00	0	27	0	718274560	48	6241
2026-01-13 02:05:27.18	274.52	26.94	-38.3	-39.3	23.2	0.00e+00	0	27	0	726663168	48	6625
2026-01-13 02:05:31.22	275.78	26.89	-38.1	-39.0	23.4	0.00e+00	92	27	0	734003200	48	6422
2026-01-13 02:05:35.25	277.02	26.84	-38.3	-39.2	23.1	0.00e+00	90	27	0	741343232	48	6601
2026-01-13 02:05:39.28	278.27	26.76	-39.6	-40.6	22.0	0.00e+00	7	27	0	748683264	50	6923
2026-01-13 02:05:43.32	279.51	26.67	-38.8	-39.8	22.7	0.00e+00	92	27	0	757071872	50	6271
2026-01-13 02:05:47.35	280.74	26.57	-38.5	-39.4	23.1	0.00e+00	90	27	0	764411904	50	6016
2026-01-13 02:05:51.39	281.96	26.46	-39.0	-40.0	22.6	0.00e+00	92	27	0	771751936	50	6452
2026-01-13 02:05:55.43	283.17	26.33	-38.2	-39.1	23.4	0.00e+00	0	27	0	779091968	50	5821
2026-01-13 02:05:59.46	284.38	26.19	-38.2	-39.2	23.3	0.00e+00	92	27	0	786432000	50	5841
2026-01-13 02:06:03.50	285.57	26.04	-38.2	-39.1	23.3	0.00e+00	92	27	0	794820608	50	5813
2026-01-13 02:06:07.54	286.75	25.87	-37.9	-38.8	23.6	0.00e+00	92	27	0	802160640	50	5612
2026-01-13 02:06:11.57	287.92	25.70	-37.6	-38.5	23.9	0.00e+00	58	27	0	809500672	48	6049
2026-01-13 02:06:15.60	289.07	25.51	-37.0	-37.9	24.3	0.00e+00	92	27	0	816840704	48	5652
2026-01-13 02:06:19.64	290.21	25.32	-36.9	-37.8	24.5	0.00e+00	92	27	0	824180736	48	5575
2026-01-13 02:06:23.68	291.34	25.11	-36.8	-37.7	24.6	0.00e+00	6	27	0	832569344	48	5504
2026-01-13 02:06:27.72	292.45	24.89	-36.6	-37.4	24.8	0.00e+00	5	27	0	839909376	46	5980
2026-01-13 02:06:31.76	293.55	24.67	-36.1	-36.9	25.1	0.00e+00	92	27	0	847249408	46	5671
2026-01-13 02:06:35.80	294.63	24.43	-36.9	-37.8	24.5	0.00e+00	92	27	0	854589440	46	6252
2026-01-13 02:06:39.84	295.70	24.19	-36.4	-37.2	24.8	0.00e+00	15	27	0	862978048	46	5832
2026-01-13 02:06:43.88	296.75	23.94	-36.7	-37.5	24.7	0.00e+00	16	27	0	870318080	46	6069
2026-01-13 02:06:47.92	297.78	23.68	-37.4	-38.2	24.0	0.00e+00	91	27	0	877658112	46	6595
2026-01-13 02:06:51.96	298.80	23.42	-37.9	-38.8	23.5	0.00e+00	0	27	0	884998144	48	6303
2026-01-13 02:06:55.99	299.79	23.15	-37.5	-38.4	23.9	0.00e+00	0	27	0	892338176	48	5973
2026-01-13 02:07:00.03	300.78	22.87	-37.6	-38.4	23.8	0.00e+00	0	27	0	900726784	48	6030
2026-01-13 02:07:04.07	301.74	22.59	-37.7	-38.6	23.6	0.00e+00	92	27	0	908066816	48	6152
2026-01-13 02:07:08.10	302.69	22.30	-37.5	-38.4	23.9	0.00e+00	41	27	0	915406848	48	6008
2026-01-13 02:07:12.14	303.62	22.01	-37.8	-38.7	23.6	0.00e+00	0	27	0	922746880	48	6211
2026-01-13 02:07:16.18	304.53	21.72	-37.6	-38.5	23.8	0.00e+00	66	27	0	931135488	48	6072
2026-01-13 02:07:20.22	305.43	21.42	-37.7	-38.6	23.7	0.00e+00	92	27	0	938475520	48	6137
2026-01-13 02:07:24.25	306.31	21.12	-37.2	-38.1	24.2	0.00e+00	67	27	0	945815552	48	5784
2026-01-13 02:07:28.29	307.17	20.81	-37.8	-38.7	23.6	0.00e+00	16	27	0	953155584	48	6196
2026-01-13 02:07:32.33	308.02	20.50	-37.8	-38.7	23.6	0.00e+00	90	27	0	960495616	48	6232
2026-01-13 02:07:36.37	308.85	20.20	-38.8	-39.8	22.6	0.00e+00	90	27	0	968884224	50	6294
2026-01-13 02:07:40.40	309.66	19.88	-39.0	-40.1	22.4	0.00e+00	0	27	0	976224256	50	6481
2026-01-13 02:07:44.44	310.46	19.57	-38.3	-39.3	23.1	0.00e+00	64	27	0	983564288	50	5907
2026-01-13 02:07:48.47	311.24	19.26	-38.9	-39.9	22.5	0.00e+00	92	27	0	990904320	50	6360
2026-01-13 02:07:52.51	312.00	18.94	-37.9	-38.8	23.5	0.00e+00	91	27	0	999292928	48	6246
2026-01-13 02:07:56.55	312.76	18.63	-38.7	-39.7	22.7	0.00e+00	6	27	0	1006632960	48	6938
2026-01-13 02:08:00.58	313.49	18.31	-38.7	-39.7	22.8	0.00e+00	0	27	0	1013972992	50	6208
2026-01-13 02:08:04.62	314.21	17.99	-38.9	-39.9	22.4	0.00e+00	92	27	0	1021313024	50	6374
2026-01-13 02:08:08.65	314.92	17.68	-38.7	-39.7	22.7	0.00e+00	92	27	0	1028653056	50	6243
2026-01-13 02:08:12.69	315.61	17.36	-37.6	-38.5	23.7	0.00e+00	23	27	0	1037041664	48	6034
2026-01-13 02:08:16.72	316.29	17.05	-39.5	-40.6	21.5	0.00e+00	0	27	0	1044381696	50	6909
2026-01-13 02:08:20.76	316.95	16.73	-39.0	-40.0	22.4	0.00e+00	91	27	0	1051721728	52	5749
2026-01-13 02:08:24.79	317.60	16.41	-38.3	-39.3	23.0	0.00e+00	92	27	0	1059061760	50	5906
2026-01-13 02:08:28.83	318.24	16.10	-38.6	-39.6	22.7	0.00e+00	64	27	0	1066401792	50	6111
2026-01-13 02:08:32.86	318.86	15.79	-38.3	-39.2	23.1	0.00e+00	18	27	0	1074790400	50	5894
2026-01-13 02:08:36.90	319.48	15.47	-38.5	-39.5	22.8	0.00e+00	92	27	0	1082130432	50	6035
2026-01-13 02:08:40.94	320.08	15.16	-38.9	-39.9	22.5	0.00e+00	0	27	0	1089470464	50	6364
2026-01-13 02:08:44.97	320.66	14.85	-38.4	-39.4	22.8	0.00e+00	63	27	0	1096810496	50	5969
2026-01-13 02:08:49.01	321.24	14.54	-38.5	-39.5	22.8	0.00e+00	0	27	0	1105199104	50	6039
2026-01-13 02:08:53.05	321.81	14.23	-38.6	-39.6	22.6	0.00e+00	90	27	0	1112539136	50	6105
2026-01-13 02:08:57.08	322.36	13.93	-38.6	-39.6	22.6	0.00e+00	20	27	0	1119879168	50	6113
2026-01-13 02:09:01.12	322.90	13.62	-38.3	-39.2	22.9	0.00e+00	0	27	0	1127219200	50	5893
2026-01-13 02:09:05.16	323.44	13.32	-38.4	-39.4	22.7	0.00e+00	18	27	0	1134559232	50	6016
2026-01-13 02:09:09.20	323.96	13.02	-38.7	-39.7	22.4	0.00e+00	90	27	0	1142947840	50	6194
2026-01-13 02:09:13.23	324.47	12.72	-38.6	-39.6	22.5	0.00e+00	18	27	0	1150287872	50	6151
2026-01-13 02:09:17.27	324.97	12.42	-39.0	-40.0	22.1	0.00e+00	20	27	0	1157627904	50	6464
2026-01-13 02:09:21.31	325.46	12.12	-39.0	-40.0	22.2	0.00e+00	92	27	0	1164967936	50	6445
2026-01-13 02:09:25.35	325.95	11.82	-38.9	-39.9	22.2	0.00e+00	0	27	0	1173356544	50	6381
2026-01-13 02:09:29.39	326.42	11.53	-38.7	-39.7	22.3	0.00e+00	0	27	0	1180696576	50	6233
2026-01-13 02:09:33.42	326.89	11.24	-39.1	-40.1	22.1	0.00e+00	21	27	0	1188036608	50	6511
2026-01-13 02:09:37.46	327.34	10.95	-39.4	-40.6	21.5	0.00e+00	91	27	0	1195376640	50	6866
2026-01-13 02:09:41.49	327.79	10.66	-40.1	-41.3	20.9	0.00e+00	21	27	0	1202716672	52	6640
2026-01-13 02:09:45.53	328.23	10.38	-40.3	-41.6	20.6	0.00e+00	0	27	0	1211105280	52	6866
2026-01-13 02:09:49.57	328.66	10.09	-40.3	-41.5	20.6	0.00e+00	59	27	0	1218445312	52	6846
2026-01-13 02:09:53.61	329.08	9.81	-40.3	-41.6	20.5	0.00e+00	90	27	0	1225785344	52	6868
2026-01-13 02:09:57.65	329.50	9.53	-40.3	-41.6	20.6	0.00e+00	58	27	0	1233125376	52	6856
2026-01-13 02:10:01.69	329.91	9.25	-40.1	-41.3	20.8	0.00e+00	8	27	0	1241513984	52	6671
2026-01-13 02:10:05.72	330.31	8.98	-39.9	-41.2	20.9	0.00e+00	5	27	0	1248854016	52	6541
2026-01-13 02:10:09.76	330.70	8.70	-39.9	-41.1	20.8	0.00e+00	92	27	0	1256194048	52	6538
2026-01-13 02:10:13.79	331.09	8.43	-40.1	-41.4	20.6	0.00e+00	60	27	0	1263534080	52	6735
2026-01-13 02:10:17.83	331.47	8.16	-40.4	-41.8	20.2	0.00e+00	58	27	0	1270874112	52	7014
2026-01-13 02:10:21.87	331.84	7.89	-40.5	-41.8	20.0	0.00e+00	22	27	0	1279262720	52	7075
2026-01-13 02:10:25.91	332.21	7.63	-39.8	-41.0	20.9	0.00e+00	91	27	0	1286602752	52	6430
2026-01-13 02:10:29.94	332.57	7.36	-39.3	-40.5	21.3	0.00e+00	2	27	0	1293942784	52	6069
2026-01-13 02:10:33.99	332.92	7.10	-39.3	-40.4	21.3	0.00e+00	0	27	0	1301282816	52	6008
2026-01-13 02:10:38.02	333.27	6.84	-39.7	-41.0	20.7	0.00e+00	24	27	0	1309671424	52	6415
2026-01-13 02:10:42.06	333.61	6.58	-40.3	-41.6	20.0	0.00e+00	92	27	0	1317011456	52	6919
2026-01-13 02:10:46.10	333.95	6.32	-40.9	-42.4	19.1	0.00e+00	0	27	0	1324351488	54	6767
2026-01-13 02:10:50.14	334.28	6.06	-41.0	-42.7	18.5	0.00e+00	0	27	0	1331691520	54	6957
2026-01-13 02:10:54.17	334.61	5.81	-41.4	-43.4	17.2	0.00e+00	89	27	0	1339031552	54	7592
2026-01-13 02:10:58.20	334.93	5.56	-42.0	-44.7	15.2	0.00e+00	2	27	0	1347420160	56	7804
2026-01-13 02:11:02.23	335.24	5.31	-42.7	-46.5	12.8	3.43e-05	23	27	0	1354760192	58	8537
2026-01-13 02:11:06.27	335.56	5.06	-43.3	-48.4	9.9	4.92e-03	2	27	0	1362100224	58	10622
2026-01-13 02:11:10.31	335.86	4.81	-43.7	-50.2	7.8	5.14e-02	53	27	0	1369440256	58	13170
2026-01-13 02:11:14.34	336.16	4.57	-43.9	-51.9	5.6	3.77e-01	0	27	0	1376780288	60	14172
2026-01-13 02:11:18.38	336.46	4.32	-44.0	-53.3	4.3	7.93e-01	0	27	0	1385168896	60	16656
2026-01-13 02:11:22.42	336.75	4.08	-44.0	-54.3	3.8	1.33e+00	0	27	0	1391460352	60	18727
2026-01-13 02:11:26.46	337.04	3.84	-43.9	-57.2	3.7	1.50e+00	0	27	104	1391460352	60	26115
2026-01-13 02:11:30.49	337.32	3.60	-43.8	-58.1	3.6	1.51e+00	0	27	104	1391460352	60	29132
2026-01-13 02:11:34.52	337.60	3.36	-43.8	-58.7	3.5	1.51e+00	0	27	104	1391460352	60	31271
2026-01-13 02:11:38.56	337.87	3.13	-43.8	-58.9	3.6	1.51e+00	0	27	104	1391460352	60	31735
2026-01-13 02:11:42.60	338.14	2.89	-48.2	-63.4	3.6	1.51e+00	0	27	104	1391460352	60	53336
2026-01-13 02:11:46.63	338.41	2.66	-48.8	-63.9	3.6	1.51e+00	0	27	104	1391460352	60	56658
2026-01-13 02:11:50.67	338.67	2.43	-47.4	-63.9	3.6	1.51e+00	0	27	104	1391460352	60	56867
2026-01-13 02:11:54.71	338.93	2.20	-48.7	-63.9	3.6	1.51e+00	0	27	104	1391460352	60	56366
2026-01-13 02:11:58.74	339.19	1.97	-48.7	-63.9	3.6	1.51e+00	0	27	104	1391460352	60	56500
2026-01-13 02:12:02.78	339.44	1.74	-48.7	-63.9	3.5	1.51e+00	0	27	104	1391460352	60	56484
2026-01-13 02:12:06.82	339.69	1.52	-48.7	-63.9	3.5	1.51e+00	0	27	104	1391460352	60	56486
2026-01-13 02:12:10.86	339.93	1.29	-48.7	-63.9	3.6	1.51e+00	0	27	104	1391460352	60	56311
2026-01-13 02:12:14.90	340.17	1.07	-48.7	-63.8	3.6	1.51e+00	0	27	104	1391460352	60	56043
2026-01-13 02:12:18.95	340.41	0.85	-48.7	-63.8	3.6	1.51e+00	0	27	104	1391460352	60	56222
2026-01-13 02:12:22.99	340.65	0.62	-48.7	-63.9	3.6	1.51e+00	0	27	104	1391460352	60	56464
2026-01-13 02:12:27.03	340.88	0.41	-48.7	-63.9	3.6	1.51e+00	0	27	104	1391460352	60	56447
2026-01-13 02:12:31.07	341.11	0.19	-48.7	-63.9	3.6	1.51e+00	0	27	104	1391460352	60	56512

#Closed at: 2026-01-13 02:12:34
#Recorded file [1391 MB]: D:/lorett/data/35029_260113_135803.dat