passes_logs/2026/01/13/R4.6S_Anadyr/R4.6S_Anadyr__20260113_184150_SUOMI_NPP_rec.log

#Pass ID: 20260113_184150_SUOMI NPP
#Satellite: SUOMI NPP
#Configuration: NPP
#almurnet v.1.7.20251203
#Start time: 2026-01-13 18:41:53

#Version: 2.2.20231116
#Station: R4.6S_Anadyr
#Location: 177.4865 lon 64.73178 lat
#TLE: 1 37849U 11061A   26012.28456845  .00000093  00000+0  65163-4 0  9999
#TLE: 2 37849  98.7807 314.3566 0002508  68.3553 291.7890 14.19524725736322

#Time	Az	El	Level	Level2	SNR	BER	BlckErr	Temp	State	Recorded	gain1	gain2
2026-01-13 18:41:53.47	42.52	0.17	-48.4	-62.1	3.3	1.54e+00	0	26	0	0	60	46082
2026-01-13 18:41:56.50	42.30	0.32	-48.5	-63.7	3.6	1.51e+00	0	26	104	0	60	55093
2026-01-13 18:41:59.52	42.08	0.47	-48.4	-63.6	3.6	1.51e+00	0	26	104	0	60	54606
2026-01-13 18:42:02.55	41.85	0.62	-48.2	-63.4	3.6	1.51e+00	0	26	104	0	60	53533
2026-01-13 18:42:05.58	41.62	0.78	-47.7	-62.9	3.6	1.51e+00	0	26	104	0	60	50595
2026-01-13 18:42:08.61	41.39	0.93	-46.6	-61.8	3.6	1.51e+00	0	26	104	0	60	44495
2026-01-13 18:42:11.63	41.16	1.08	-46.6	-61.8	3.6	1.51e+00	0	26	104	0	60	44249
2026-01-13 18:42:14.66	40.92	1.23	-46.6	-61.7	3.6	1.51e+00	0	26	104	0	60	44200
2026-01-13 18:42:17.69	40.68	1.38	-46.6	-61.7	3.6	1.51e+00	0	26	104	0	60	44013
2026-01-13 18:42:20.72	40.44	1.54	-46.6	-61.7	3.6	1.51e+00	0	26	104	0	60	44005
2026-01-13 18:42:23.75	40.20	1.69	-46.6	-61.7	3.6	1.51e+00	0	26	104	0	60	43788
2026-01-13 18:42:26.78	39.95	1.84	-46.6	-61.7	3.6	1.51e+00	0	26	104	0	60	43830
2026-01-13 18:42:29.81	39.70	2.00	-46.6	-61.5	3.6	1.51e+00	0	26	104	0	60	43137
2026-01-13 18:42:32.84	39.45	2.15	-46.5	-61.2	3.6	1.51e+00	0	26	104	0	60	41655
2026-01-13 18:42:35.86	39.20	2.30	-46.6	-61.7	3.6	1.51e+00	0	26	104	0	60	44018
2026-01-13 18:42:38.89	38.94	2.46	-46.6	-61.6	3.6	1.51e+00	0	26	104	0	60	43673
2026-01-13 18:42:41.92	38.68	2.61	-46.5	-61.1	3.6	1.51e+00	0	27	104	0	60	41171
2026-01-13 18:42:44.95	38.42	2.77	-46.5	-61.1	3.6	1.51e+00	0	27	104	0	60	41158
2026-01-13 18:42:47.98	38.15	2.93	-46.1	-55.3	5.6	1.39e+00	0	27	104	0	60	21024
2026-01-13 18:42:51.00	37.88	3.08	-46.7	-61.7	3.6	4.59e-01	0	27	104	4194304	60	44193
2026-01-13 18:42:54.03	37.61	3.24	-46.7	-60.5	3.6	1.51e+00	0	27	104	4194304	60	38288
2026-01-13 18:42:57.06	37.34	3.39	-42.4	-44.8	15.9	0.00e+00	0	27	0	7340032	58	7024
2026-01-13 18:43:00.08	37.06	3.55	-41.8	-43.8	17.0	0.00e+00	0	27	0	12582912	56	7056
2026-01-13 18:43:03.10	36.78	3.71	-41.3	-43.1	17.7	0.00e+00	0	27	0	17825792	56	6497
2026-01-13 18:43:06.13	36.49	3.86	-41.1	-42.9	18.2	0.00e+00	0	26	0	24117248	56	6324
2026-01-13 18:43:09.15	36.21	4.02	-41.1	-42.8	18.0	0.00e+00	0	26	0	29360128	56	6291
2026-01-13 18:43:12.18	35.92	4.18	-41.3	-43.1	17.9	0.00e+00	0	27	0	35651584	56	6488
2026-01-13 18:43:15.20	35.62	4.34	-41.2	-43.0	17.9	0.00e+00	0	27	0	40894464	56	6433
2026-01-13 18:43:18.22	35.33	4.49	-41.5	-43.4	17.5	0.00e+00	0	26	0	46137344	56	6758
2026-01-13 18:43:21.24	35.03	4.65	-41.2	-43.0	18.0	0.00e+00	0	27	0	52428800	56	6456
2026-01-13 18:43:24.27	34.72	4.81	-41.5	-43.4	17.6	0.00e+00	0	27	0	57671680	56	6765
2026-01-13 18:43:27.30	34.42	4.97	-41.2	-43.0	18.0	0.00e+00	0	26	0	63963136	56	6401
2026-01-13 18:43:30.33	34.11	5.13	-41.2	-43.0	18.2	0.00e+00	0	27	0	69206016	56	6429
2026-01-13 18:43:33.36	33.79	5.29	-41.1	-42.9	18.2	0.00e+00	0	27	0	74448896	56	6343
2026-01-13 18:43:36.38	33.47	5.44	-41.1	-42.8	18.4	0.00e+00	0	27	0	80740352	56	6261
2026-01-13 18:43:39.41	33.15	5.60	-41.0	-42.7	18.5	0.00e+00	0	27	0	85983232	56	6184
2026-01-13 18:43:42.43	32.83	5.76	-40.9	-42.6	18.6	0.00e+00	0	27	0	92274688	56	6151
2026-01-13 18:43:45.46	32.50	5.92	-41.1	-42.8	18.5	0.00e+00	0	27	0	97517568	56	6252
2026-01-13 18:43:48.49	32.17	6.08	-40.9	-42.5	18.6	0.00e+00	0	27	0	103809024	56	6088
2026-01-13 18:43:51.51	31.83	6.24	-40.7	-42.3	18.6	0.00e+00	0	27	0	109051904	54	6674
2026-01-13 18:43:54.54	31.49	6.40	-41.1	-42.8	18.4	0.00e+00	0	27	0	114294784	54	7033
2026-01-13 18:43:57.57	31.15	6.56	-41.0	-42.6	18.6	0.00e+00	0	27	0	120586240	54	6923
2026-01-13 18:44:00.60	30.80	6.72	-40.6	-42.2	19.1	0.00e+00	0	27	0	125829120	54	6579
2026-01-13 18:44:03.63	30.45	6.88	-40.8	-42.4	18.9	0.00e+00	0	27	0	132120576	54	6764
2026-01-13 18:44:06.65	30.09	7.04	-40.2	-41.6	19.7	0.00e+00	0	27	0	137363456	54	6149
2026-01-13 18:44:09.68	29.73	7.20	-39.7	-41.1	20.1	0.00e+00	0	27	0	142606336	52	6476
2026-01-13 18:44:12.71	29.37	7.36	-40.2	-41.6	19.7	0.00e+00	0	27	0	148897792	52	6925
2026-01-13 18:44:15.73	29.00	7.52	-40.4	-41.8	19.3	0.00e+00	0	27	0	154140672	52	7063
2026-01-13 18:44:18.76	28.63	7.68	-40.1	-41.5	19.7	0.00e+00	0	27	0	160432128	52	6811
2026-01-13 18:44:21.78	28.26	7.83	-40.2	-41.7	19.6	0.00e+00	0	27	0	165675008	52	6949
2026-01-13 18:44:24.81	27.88	7.99	-39.9	-41.3	20.0	0.00e+00	0	27	0	170917888	52	6629
2026-01-13 18:44:27.83	27.49	8.15	-40.1	-41.5	19.8	0.00e+00	0	27	0	177209344	52	6838
2026-01-13 18:44:30.86	27.10	8.31	-40.3	-41.8	19.6	0.00e+00	0	27	0	182452224	52	7008
2026-01-13 18:44:33.89	26.71	8.47	-40.1	-41.4	19.9	0.00e+00	0	27	0	188743680	52	6764
2026-01-13 18:44:36.92	26.31	8.62	-40.1	-41.5	19.9	0.00e+00	0	27	0	193986560	52	6809
2026-01-13 18:44:39.94	25.91	8.78	-40.0	-41.3	19.9	0.00e+00	0	27	0	200278016	52	6687
2026-01-13 18:44:42.97	25.50	8.94	-39.9	-41.2	20.2	0.00e+00	0	27	0	205520896	52	6609
2026-01-13 18:44:46.00	25.09	9.09	-39.7	-41.0	20.3	0.00e+00	0	27	0	210763776	52	6418
2026-01-13 18:44:49.02	24.68	9.25	-39.8	-41.1	20.3	0.00e+00	0	27	0	217055232	52	6513
2026-01-13 18:44:52.05	24.26	9.41	-39.7	-41.0	20.4	0.00e+00	0	27	0	222298112	52	6394
2026-01-13 18:44:55.07	23.83	9.56	-39.8	-41.1	20.3	0.00e+00	0	27	0	228589568	52	6495
2026-01-13 18:44:58.10	23.40	9.71	-40.3	-41.8	19.6	0.00e+00	0	27	0	233832448	52	7027
2026-01-13 18:45:01.13	22.97	9.87	-40.5	-42.0	19.5	0.00e+00	0	27	0	239075328	52	7180
2026-01-13 18:45:04.16	22.53	10.02	-40.2	-41.6	19.9	0.00e+00	0	27	0	245366784	52	6874
2026-01-13 18:45:07.18	22.09	10.17	-40.0	-41.4	20.0	0.00e+00	0	27	0	250609664	52	6695
2026-01-13 18:45:10.21	21.64	10.32	-39.5	-40.8	20.6	0.00e+00	0	27	0	256901120	52	6272
2026-01-13 18:45:13.24	21.19	10.48	-39.5	-40.7	20.7	0.00e+00	0	27	0	262144000	52	6221
2026-01-13 18:45:16.27	20.73	10.63	-39.1	-40.3	21.1	0.00e+00	0	27	0	267386880	52	5916
2026-01-13 18:45:19.29	20.27	10.77	-39.0	-40.2	21.1	0.00e+00	0	27	0	273678336	52	5865
2026-01-13 18:45:22.32	19.80	10.92	-38.6	-39.7	21.4	0.00e+00	0	27	0	278921216	50	6240
2026-01-13 18:45:25.35	19.33	11.07	-38.4	-39.6	21.8	0.00e+00	0	27	0	285212672	50	6106
2026-01-13 18:45:28.38	18.85	11.22	-38.0	-39.0	22.1	0.00e+00	0	27	0	290455552	50	5740
2026-01-13 18:45:31.41	18.37	11.36	-38.3	-39.4	21.9	0.00e+00	0	27	0	296747008	50	5991
2026-01-13 18:45:34.43	17.88	11.50	-38.2	-39.3	21.9	0.00e+00	0	27	0	301989888	50	5925
2026-01-13 18:45:37.46	17.39	11.65	-38.4	-39.5	21.8	0.00e+00	0	27	0	307232768	50	6090
2026-01-13 18:45:40.49	16.90	11.79	-38.1	-39.2	22.1	0.00e+00	0	27	0	313524224	50	5876
2026-01-13 18:45:43.52	16.40	11.93	-37.8	-38.8	22.5	0.00e+00	0	27	0	318767104	48	6262
2026-01-13 18:45:46.54	15.89	12.07	-37.6	-38.6	22.5	0.00e+00	0	27	0	325058560	48	6142
2026-01-13 18:45:49.57	15.38	12.20	-37.5	-38.5	22.6	0.00e+00	0	27	0	330301440	48	6035
2026-01-13 18:45:52.59	14.87	12.34	-38.0	-39.1	22.1	0.00e+00	0	27	0	335544320	48	6507
2026-01-13 18:45:55.62	14.34	12.47	-38.2	-39.3	22.0	0.00e+00	0	27	0	341835776	48	6644
2026-01-13 18:45:58.65	13.82	12.61	-37.2	-38.1	23.0	0.00e+00	0	27	0	347078656	48	5823
2026-01-13 18:46:01.67	13.29	12.74	-37.0	-38.0	23.1	0.00e+00	0	27	0	353370112	48	5711
2026-01-13 18:46:04.70	12.76	12.87	-36.7	-37.6	23.5	0.00e+00	0	27	0	358612992	46	6107
2026-01-13 18:46:07.73	12.22	12.99	-37.1	-38.0	22.9	0.00e+00	0	27	0	363855872	46	6463
2026-01-13 18:46:10.75	11.67	13.12	-37.6	-38.6	22.4	0.00e+00	0	27	0	370147328	46	6869
2026-01-13 18:46:13.78	11.12	13.24	-37.7	-38.7	22.5	0.00e+00	0	27	0	375390208	48	6214
2026-01-13 18:46:16.81	10.57	13.36	-37.9	-39.0	22.3	0.00e+00	0	27	0	381681664	48	6404
2026-01-13 18:46:19.84	10.01	13.48	-37.7	-38.7	22.6	0.00e+00	0	27	0	386924544	48	6186
2026-01-13 18:46:22.86	9.45	13.60	-38.4	-39.5	21.8	0.00e+00	0	27	0	393216000	48	6795
2026-01-13 18:46:25.89	8.88	13.71	-38.2	-39.3	22.0	0.00e+00	0	27	0	398458880	48	6678
2026-01-13 18:46:28.91	8.31	13.83	-37.6	-38.6	22.6	0.00e+00	0	27	0	403701760	48	6111
2026-01-13 18:46:31.94	7.74	13.94	-37.7	-38.7	22.5	0.00e+00	0	27	0	409993216	48	6176
2026-01-13 18:46:34.97	7.15	14.05	-37.3	-38.3	22.8	0.00e+00	0	27	0	415236096	48	5928
2026-01-13 18:46:37.99	6.57	14.15	-37.3	-38.2	22.7	0.00e+00	0	27	0	421527552	48	5894
2026-01-13 18:46:41.02	5.98	14.25	-37.3	-38.3	22.9	0.00e+00	0	27	0	426770432	48	5924
2026-01-13 18:46:44.05	5.39	14.35	-37.4	-38.4	22.9	0.00e+00	0	27	0	432013312	48	6029
2026-01-13 18:46:47.07	4.79	14.45	-37.8	-38.8	22.4	0.00e+00	0	27	0	438304768	48	6301
2026-01-13 18:46:50.10	4.19	14.55	-37.4	-38.4	22.7	0.00e+00	0	27	0	443547648	48	5974
2026-01-13 18:46:53.13	3.59	14.64	-36.8	-37.7	23.3	0.00e+00	0	27	0	449839104	46	6198
2026-01-13 18:46:56.16	2.98	14.73	-36.6	-37.5	23.5	0.00e+00	0	27	0	455081984	46	6091
2026-01-13 18:46:59.18	2.37	14.81	-36.9	-37.8	23.4	0.00e+00	0	27	0	461373440	46	6280
2026-01-13 18:47:02.21	1.75	14.90	-37.3	-38.3	22.9	0.00e+00	0	27	0	466616320	46	6631
2026-01-13 18:47:05.24	1.13	14.98	-36.7	-37.6	23.4	0.00e+00	0	27	0	471859200	46	6138
2026-01-13 18:47:08.27	0.51	15.05	-37.1	-38.0	23.2	0.00e+00	0	27	0	478150656	46	6434
2026-01-13 18:47:11.29	359.89	15.13	-37.5	-38.5	22.7	0.00e+00	0	27	0	483393536	48	6070
2026-01-13 18:47:14.32	359.26	15.20	-37.4	-38.4	22.9	0.00e+00	0	27	0	489684992	48	5999
2026-01-13 18:47:17.35	358.63	15.27	-37.7	-38.7	22.5	0.00e+00	0	27	0	494927872	48	6190
2026-01-13 18:47:20.37	357.99	15.33	-37.7	-38.7	22.6	0.00e+00	0	27	0	500170752	48	6210
2026-01-13 18:47:23.40	357.36	15.39	-37.5	-38.5	22.8	0.00e+00	0	27	0	506462208	48	6034
2026-01-13 18:47:26.43	356.72	15.45	-37.6	-38.6	22.6	0.00e+00	0	27	0	511705088	48	6165
2026-01-13 18:47:29.46	356.07	15.50	-37.1	-38.0	23.0	0.00e+00	0	27	0	517996544	48	5715
2026-01-13 18:47:32.49	355.43	15.55	-36.7	-37.5	23.4	0.00e+00	0	27	0	523239424	46	6098
2026-01-13 18:47:35.52	354.78	15.60	-37.2	-38.1	22.8	0.00e+00	0	27	0	528482304	46	6528
2026-01-13 18:47:38.54	354.14	15.64	-37.1	-38.1	23.1	0.00e+00	0	27	0	534773760	46	6465
2026-01-13 18:47:41.57	353.48	15.68	-37.3	-38.3	22.9	0.00e+00	0	27	0	540016640	46	6667
2026-01-13 18:47:44.60	352.83	15.71	-37.7	-38.7	22.6	0.00e+00	0	27	0	546308096	48	6216
2026-01-13 18:47:47.62	352.18	15.75	-37.8	-38.8	22.5	0.00e+00	0	27	0	551550976	48	6262
2026-01-13 18:47:50.65	351.53	15.77	-37.8	-38.8	22.5	0.00e+00	0	27	0	557842432	48	6291
2026-01-13 18:47:53.67	350.87	15.80	-37.8	-38.8	22.6	0.00e+00	0	27	0	563085312	48	6277
2026-01-13 18:47:56.70	350.21	15.82	-37.6	-38.6	22.7	0.00e+00	0	27	0	568328192	48	6127
2026-01-13 18:47:59.73	349.56	15.84	-37.7	-38.7	22.5	0.00e+00	0	27	0	574619648	48	6233
2026-01-13 18:48:02.76	348.90	15.85	-37.6	-38.5	22.7	0.00e+00	0	27	0	579862528	48	6101
2026-01-13 18:48:05.78	348.24	15.86	-37.4	-38.4	22.8	0.00e+00	0	27	0	586153984	48	6025
2026-01-13 18:48:08.81	347.58	15.86	-37.7	-38.7	22.7	0.00e+00	0	27	0	591396864	48	6184
2026-01-13 18:48:11.84	346.92	15.86	-37.9	-38.9	22.6	0.00e+00	0	27	0	596639744	48	6348
2026-01-13 18:48:14.86	346.26	15.86	-37.5	-38.5	22.8	0.00e+00	0	27	0	602931200	48	6084
2026-01-13 18:48:17.89	345.60	15.86	-36.8	-37.7	23.3	0.00e+00	0	27	0	608174080	48	5563
2026-01-13 18:48:20.92	344.95	15.85	-37.0	-38.0	23.2	0.00e+00	0	27	0	614465536	48	5697
2026-01-13 18:48:23.94	344.29	15.83	-37.4	-38.4	22.8	0.00e+00	0	27	0	619708416	48	6015
2026-01-13 18:48:26.97	343.63	15.81	-37.7	-38.7	22.0	0.00e+00	0	27	0	624951296	48	6219
2026-01-13 18:48:30.00	342.97	15.79	-38.2	-39.2	21.9	0.00e+00	0	27	0	631242752	48	6610
2026-01-13 18:48:33.03	342.32	15.77	-38.2	-39.2	22.0	0.00e+00	0	27	0	636485632	48	6603
2026-01-13 18:48:36.06	341.66	15.74	-37.7	-38.8	22.5	0.00e+00	0	27	0	642777088	48	6266
2026-01-13 18:48:39.08	341.01	15.70	-37.5	-38.5	22.6	0.00e+00	0	27	0	648019968	48	6067
2026-01-13 18:48:42.11	340.36	15.67	-37.5	-38.5	22.7	0.00e+00	0	27	0	653262848	48	6063
2026-01-13 18:48:45.14	339.71	15.63	-37.8	-38.8	22.4	0.00e+00	0	27	0	659554304	48	6280
2026-01-13 18:48:48.16	339.06	15.58	-37.5	-38.5	22.7	0.00e+00	0	27	0	664797184	48	6082
2026-01-13 18:48:51.19	338.42	15.54	-37.1	-38.0	23.1	0.00e+00	0	27	0	671088640	48	5760
2026-01-13 18:48:54.22	337.77	15.49	-37.0	-38.0	23.0	0.00e+00	0	27	0	676331520	46	6411
2026-01-13 18:48:57.25	337.13	15.43	-37.3	-38.2	23.0	0.00e+00	0	27	0	682622976	46	6599
2026-01-13 18:49:00.27	336.49	15.37	-37.2	-38.2	23.0	0.00e+00	0	27	0	687865856	46	6543
2026-01-13 18:49:03.30	335.86	15.31	-37.4	-38.4	22.7	0.00e+00	0	27	0	693108736	46	6745
2026-01-13 18:49:06.33	335.22	15.25	-37.7	-38.7	22.6	0.00e+00	0	27	0	699400192	46	6958
2026-01-13 18:49:09.35	334.59	15.18	-38.0	-39.0	22.4	0.00e+00	0	27	0	704643072	48	6429
2026-01-13 18:49:12.38	333.97	15.11	-37.5	-38.5	22.6	0.00e+00	0	27	0	710934528	48	6095
2026-01-13 18:49:15.41	333.34	15.03	-37.5	-38.4	22.8	0.00e+00	0	27	0	716177408	48	6022
2026-01-13 18:49:18.44	332.72	14.95	-37.0	-37.9	23.2	0.00e+00	0	27	0	721420288	48	5636
2026-01-13 18:49:21.47	332.10	14.87	-36.9	-37.7	23.4	0.00e+00	0	27	0	727711744	46	6241
2026-01-13 18:49:24.50	331.48	14.79	-37.2	-38.2	23.0	0.00e+00	0	27	0	732954624	46	6547
2026-01-13 18:49:27.52	330.87	14.70	-37.7	-38.6	22.6	0.00e+00	0	27	0	739246080	46	6922
2026-01-13 18:49:30.55	330.27	14.61	-37.8	-38.9	22.4	0.00e+00	0	27	0	744488960	48	6319
2026-01-13 18:49:33.58	329.66	14.52	-38.1	-39.2	22.2	0.00e+00	0	27	0	749731840	48	6554
2026-01-13 18:49:36.61	329.06	14.42	-38.5	-39.6	21.8	0.00e+00	0	27	0	756023296	48	6921
2026-01-13 18:49:39.63	328.47	14.33	-38.0	-39.1	22.3	0.00e+00	0	27	0	761266176	48	6494
2026-01-13 18:49:42.66	327.88	14.22	-37.7	-38.7	22.6	0.00e+00	0	27	0	767557632	48	6223
2026-01-13 18:49:45.69	327.29	14.12	-37.3	-38.2	22.9	0.00e+00	0	27	0	772800512	48	5889
2026-01-13 18:49:48.72	326.70	14.01	-37.2	-38.1	23.1	0.00e+00	0	27	0	779091968	48	5817
2026-01-13 18:49:51.75	326.12	13.91	-37.1	-38.0	23.3	0.00e+00	0	27	0	784334848	48	5739
2026-01-13 18:49:54.78	325.55	13.79	-36.4	-37.2	23.4	0.00e+00	0	27	0	789577728	46	5875
2026-01-13 18:49:57.80	324.98	13.68	-36.8	-37.6	23.4	0.00e+00	0	27	0	795869184	46	6165
2026-01-13 18:50:00.83	324.41	13.57	-37.5	-38.4	22.9	0.00e+00	0	27	0	801112064	46	6739
2026-01-13 18:50:03.86	323.85	13.45	-37.9	-38.9	22.4	0.00e+00	0	27	0	807403520	48	6371
2026-01-13 18:50:06.88	323.29	13.33	-38.5	-39.6	21.9	0.00e+00	0	27	0	812646400	48	6873
2026-01-13 18:50:09.91	322.74	13.21	-38.8	-39.9	21.6	0.00e+00	0	27	0	817889280	50	6335
2026-01-13 18:50:12.93	322.19	13.08	-38.4	-39.5	22.0	0.00e+00	0	27	0	824180736	50	6062
2026-01-13 18:50:15.96	321.65	12.96	-38.8	-39.9	21.6	0.00e+00	0	27	0	829423616	50	6325
2026-01-13 18:50:18.99	321.11	12.83	-38.8	-40.0	21.5	0.00e+00	0	27	0	835715072	50	6394
2026-01-13 18:50:22.01	320.58	12.70	-38.7	-39.8	21.7	0.00e+00	0	27	0	840957952	50	6264
2026-01-13 18:50:25.04	320.05	12.57	-38.9	-40.0	21.6	0.00e+00	0	27	0	847249408	50	6457
2026-01-13 18:50:28.07	319.52	12.43	-38.9	-40.0	21.5	0.00e+00	0	27	0	852492288	50	6449
2026-01-13 18:50:31.10	319.01	12.30	-38.0	-39.0	22.3	0.00e+00	0	27	0	857735168	50	5746
2026-01-13 18:50:34.13	318.49	12.16	-37.9	-38.8	22.5	0.00e+00	0	27	0	864026624	50	5623
2026-01-13 18:50:37.15	317.98	12.03	-38.3	-39.3	22.0	0.00e+00	0	27	0	869269504	50	5956
2026-01-13 18:50:40.18	317.48	11.89	-38.8	-39.9	21.6	0.00e+00	0	27	0	875560960	50	6321
2026-01-13 18:50:43.21	316.98	11.75	-39.2	-40.3	21.4	0.00e+00	0	27	0	880803840	50	6648
2026-01-13 18:50:46.24	316.48	11.60	-38.4	-39.5	21.9	0.00e+00	0	27	0	886046720	50	6042
2026-01-13 18:50:49.27	315.99	11.46	-38.4	-39.4	21.9	0.00e+00	0	27	0	892338176	50	6023
2026-01-13 18:50:52.30	315.50	11.32	-39.9	-41.2	20.5	0.00e+00	0	27	0	897581056	52	6568
2026-01-13 18:50:55.32	315.02	11.17	-41.6	-43.3	18.5	0.00e+00	0	27	0	903872512	54	7472
2026-01-13 18:50:58.35	314.55	11.03	-41.3	-42.9	18.9	0.00e+00	0	27	0	909115392	54	7164
2026-01-13 18:51:01.37	314.08	10.88	-40.9	-42.3	19.4	0.00e+00	0	27	0	914358272	54	6687
2026-01-13 18:51:04.40	313.61	10.73	-40.3	-41.7	19.9	0.00e+00	0	27	0	920649728	54	6209
2026-01-13 18:51:07.43	313.15	10.58	-40.0	-41.3	20.3	0.00e+00	0	27	0	925892608	54	5908
2026-01-13 18:51:10.46	312.69	10.43	-39.3	-40.5	21.1	0.00e+00	0	27	0	932184064	52	6060
2026-01-13 18:51:13.49	312.24	10.28	-39.4	-40.6	21.0	0.00e+00	0	27	0	937426944	52	6104
2026-01-13 18:51:16.51	311.79	10.13	-39.5	-40.6	20.9	0.00e+00	0	27	0	943718400	52	6161
2026-01-13 18:51:19.54	311.35	9.98	-39.2	-40.4	21.2	0.00e+00	0	27	0	948961280	52	5972
2026-01-13 18:51:22.57	310.91	9.82	-38.6	-39.7	21.6	0.00e+00	0	27	0	954204160	50	6212
2026-01-13 18:51:25.60	310.48	9.67	-38.7	-39.8	21.6	0.00e+00	0	27	0	960495616	50	6251
2026-01-13 18:51:28.62	310.05	9.51	-38.7	-39.8	21.5	0.00e+00	0	27	0	965738496	50	6304
2026-01-13 18:51:31.66	309.63	9.36	-38.9	-40.0	21.4	0.00e+00	0	27	0	972029952	50	6451
2026-01-13 18:51:34.69	309.21	9.20	-39.3	-40.5	21.0	0.00e+00	0	27	0	977272832	50	6772
2026-01-13 18:51:37.72	308.79	9.05	-39.4	-40.6	20.9	0.00e+00	0	27	0	982515712	50	6899
2026-01-13 18:51:40.75	308.38	8.89	-39.2	-40.4	21.0	0.00e+00	0	27	0	988807168	50	6727
2026-01-13 18:51:43.78	307.98	8.73	-39.1	-40.3	21.1	0.00e+00	0	27	0	994050048	50	6618
2026-01-13 18:51:46.80	307.58	8.58	-38.9	-40.1	21.4	0.00e+00	0	27	0	1000341504	50	6495
2026-01-13 18:51:49.83	307.18	8.42	-38.4	-39.5	21.8	0.00e+00	0	27	0	1005584384	50	6080
2026-01-13 18:51:52.86	306.79	8.26	-38.0	-39.0	22.2	0.00e+00	0	27	0	1011875840	50	5747
2026-01-13 18:51:55.89	306.40	8.10	-37.6	-38.6	22.5	0.00e+00	0	27	0	1017118720	48	6152
2026-01-13 18:51:58.91	306.02	7.94	-37.8	-38.9	22.3	0.00e+00	0	27	0	1022361600	48	6320
2026-01-13 18:52:01.94	305.64	7.78	-38.0	-39.0	22.1	0.00e+00	0	27	0	1028653056	48	6461
2026-01-13 18:52:04.97	305.26	7.63	-37.9	-38.9	22.2	0.00e+00	0	27	0	1033895936	48	6356
2026-01-13 18:52:08.00	304.89	7.47	-37.8	-38.8	22.2	0.00e+00	0	27	0	1040187392	48	6272
2026-01-13 18:52:11.02	304.52	7.31	-37.9	-39.0	22.3	0.00e+00	0	27	0	1045430272	48	6404
2026-01-13 18:52:14.05	304.16	7.15	-38.3	-39.4	21.7	0.00e+00	0	27	0	1050673152	48	6749
2026-01-13 18:52:17.08	303.80	6.99	-38.5	-39.7	21.6	0.00e+00	0	27	0	1056964608	50	6175
2026-01-13 18:52:20.11	303.44	6.83	-38.9	-40.0	21.2	0.00e+00	0	27	0	1062207488	50	6454
2026-01-13 18:52:23.14	303.09	6.67	-38.8	-40.0	21.2	0.00e+00	0	27	0	1068498944	50	6404
2026-01-13 18:52:26.17	302.75	6.51	-39.0	-40.1	20.9	0.00e+00	0	27	0	1073741824	50	6536
2026-01-13 18:52:29.19	302.40	6.35	-38.7	-39.8	21.3	0.00e+00	0	27	0	1080033280	50	6314
2026-01-13 18:52:32.22	302.06	6.19	-39.1	-40.2	20.7	0.00e+00	0	27	0	1085276160	50	6608
2026-01-13 18:52:35.25	301.73	6.03	-38.6	-39.8	21.3	0.00e+00	0	27	0	1090519040	50	6262
2026-01-13 18:52:38.27	301.40	5.87	-38.4	-39.5	21.6	0.00e+00	0	27	0	1096810496	50	6076
2026-01-13 18:52:41.30	301.07	5.71	-38.4	-39.5	21.5	0.00e+00	0	27	0	1102053376	50	6068
2026-01-13 18:52:44.33	300.74	5.55	-38.5	-39.7	21.4	0.00e+00	0	27	0	1108344832	50	6180
2026-01-13 18:52:47.36	300.42	5.39	-39.2	-40.4	20.8	0.00e+00	0	27	0	1113587712	50	6724
2026-01-13 18:52:50.39	300.11	5.23	-39.6	-40.8	20.5	0.00e+00	0	27	0	1118830592	52	6307
2026-01-13 18:52:53.42	299.79	5.08	-39.5	-40.7	20.4	0.00e+00	0	27	0	1125122048	52	6229
2026-01-13 18:52:56.45	299.48	4.92	-39.5	-40.8	20.4	0.00e+00	0	27	0	1130364928	52	6247
2026-01-13 18:52:59.47	299.18	4.76	-38.5	-39.6	21.3	0.00e+00	0	27	0	1136656384	50	6150
2026-01-13 18:53:02.49	298.87	4.60	-38.5	-39.6	21.3	0.00e+00	0	27	0	1141899264	50	6135
2026-01-13 18:53:05.52	298.57	4.44	-38.4	-39.5	21.3	0.00e+00	0	27	0	1147142144	50	6100
2026-01-13 18:53:08.55	298.28	4.28	-39.0	-40.2	20.8	0.00e+00	0	27	0	1153433600	50	6545
2026-01-13 18:53:11.58	297.98	4.13	-39.2	-40.5	20.5	0.00e+00	0	27	0	1158676480	50	6788
2026-01-13 18:53:14.60	297.69	3.97	-39.8	-41.2	19.8	0.00e+00	0	27	0	1164967936	52	6579
2026-01-13 18:53:17.63	297.41	3.81	-40.6	-42.1	19.0	0.00e+00	0	27	0	1170210816	52	7334
2026-01-13 18:53:20.66	297.12	3.65	-40.6	-42.2	18.8	0.00e+00	0	27	0	1176502272	54	6599
2026-01-13 18:53:23.68	296.84	3.50	-40.9	-42.6	18.4	0.00e+00	0	27	0	1181745152	54	6873
2026-01-13 18:53:26.71	296.56	3.34	-40.4	-41.9	19.0	0.00e+00	0	27	0	1186988032	54	6357
2026-01-13 18:53:29.74	296.29	3.18	-40.6	-42.2	18.7	0.00e+00	0	27	0	1193279488	54	6569
2026-01-13 18:53:32.77	296.02	3.03	-40.9	-42.6	18.3	0.00e+00	0	27	0	1198522368	54	6849
2026-01-13 18:53:35.79	295.75	2.87	-48.2	-63.4	3.6	1.51e+00	0	27	104	1199570944	60	53169
2026-01-13 18:53:38.82	295.48	2.72	-48.5	-63.7	3.6	1.51e+00	0	27	104	1199570944	60	55116
2026-01-13 18:53:41.85	295.22	2.56	-48.5	-63.7	3.6	1.51e+00	0	27	104	1199570944	60	55222
2026-01-13 18:53:44.88	294.96	2.41	-48.3	-63.6	3.6	1.51e+00	0	27	104	1199570944	60	54948
2026-01-13 18:53:47.91	294.70	2.25	-48.3	-63.5	3.6	1.51e+00	0	27	104	1199570944	60	54243
2026-01-13 18:53:50.94	294.45	2.10	-48.5	-63.7	3.6	1.51e+00	0	27	104	1199570944	60	55057
2026-01-13 18:53:53.97	294.20	1.94	-48.4	-63.6	3.6	1.51e+00	0	27	104	1199570944	60	54603
2026-01-13 18:53:57.00	293.95	1.79	-48.4	-63.6	3.6	1.51e+00	0	27	104	1199570944	60	54630
2026-01-13 18:54:00.03	293.70	1.64	-48.4	-63.6	3.6	1.51e+00	0	27	104	1199570944	60	54485
2026-01-13 18:54:03.06	293.46	1.48	-48.4	-63.6	3.6	1.51e+00	0	27	104	1199570944	60	54637
2026-01-13 18:54:06.08	293.22	1.33	-48.4	-63.5	3.6	1.51e+00	0	27	104	1199570944	60	54091
2026-01-13 18:54:09.11	292.98	1.18	-48.3	-63.5	3.6	1.51e+00	0	27	104	1199570944	60	54179
2026-01-13 18:54:12.14	292.74	1.03	-48.4	-63.5	3.6	1.51e+00	0	27	104	1199570944	60	54099
2026-01-13 18:54:15.17	292.51	0.87	-48.3	-63.5	3.6	1.51e+00	0	27	104	1199570944	60	54171
2026-01-13 18:54:18.20	292.28	0.72	-48.4	-63.5	3.6	1.51e+00	0	27	104	1199570944	60	54206
2026-01-13 18:54:21.23	292.05	0.57	-48.3	-63.5	3.6	1.51e+00	0	27	104	1199570944	60	54038
2026-01-13 18:54:24.25	291.82	0.42	-48.4	-63.5	3.6	1.51e+00	0	27	104	1199570944	60	54075
2026-01-13 18:54:27.28	291.60	0.27	-48.3	-63.5	3.6	1.51e+00	0	27	104	1199570944	60	54037
2026-01-13 18:54:30.31	291.38	0.12	-48.4	-63.6	3.6	1.51e+00	0	27	104	1199570944	60	54476
2026-01-13 18:54:33.34	291.16	-0.03	-48.3	-63.5	3.6	1.51e+00	0	27	104	1199570944	60	54025

#Closed at: 2026-01-13 18:54:33
#Recorded file [1199 MB]: D:/lorett/data/35029_260114_064153.dat