passes_logs/2026/01/13/R4.6S_Anadyr/R4.6S_Anadyr__20260113_023538_FENGYUN_3D_rec.log

#Pass ID: 20260113_023538_FENGYUN 3D
#Satellite: FENGYUN 3D
#Configuration: FENGYUN 3D
#almurnet v.1.7.20251203
#Start time: 2026-01-13 02:35:40

#Version: 2.2.20231116
#Station: R4.6S_Anadyr
#Location: 177.4865 lon 64.73178 lat
#TLE: 1 43010U 17072A   26012.32543542  .00000598  00000+0  30457-3 0  9997
#TLE: 2 43010  98.9935 344.1005 0002233 112.6136 247.5276 14.19696644422876

#Time	Az	El	Level	Level2	SNR	BER	BlckErr	Temp	State	Recorded	gain1	gain2
2026-01-13 02:35:40.04	164.59	0.11	-48.7	-63.6	3.5	1.51e+00	0	24	0	0	60	54422
2026-01-13 02:35:44.08	164.65	0.35	-48.8	-60.9	3.6	8.45e-01	0	25	104	0	60	40019
2026-01-13 02:35:48.10	164.71	0.59	-48.7	-60.8	3.6	8.46e-01	0	26	104	0	60	39812
2026-01-13 02:35:52.14	164.77	0.84	-48.1	-60.2	3.6	8.46e-01	0	26	104	0	60	37132
2026-01-13 02:35:56.18	164.82	1.09	-47.3	-59.4	3.6	8.45e-01	0	26	104	0	60	33650
2026-01-13 02:36:00.22	164.88	1.34	-47.3	-59.3	3.6	8.44e-01	0	26	104	0	60	33186
2026-01-13 02:36:04.26	164.94	1.60	-47.2	-59.3	3.6	8.45e-01	0	26	104	0	60	33402
2026-01-13 02:36:08.30	165.01	1.85	-47.2	-59.2	3.6	8.44e-01	0	26	104	0	60	33000
2026-01-13 02:36:12.34	165.07	2.11	-47.2	-58.7	3.6	8.46e-01	0	26	104	0	60	31203
2026-01-13 02:36:16.38	165.13	2.37	-47.1	-57.9	3.6	8.45e-01	0	26	104	0	60	28505
2026-01-13 02:36:20.42	165.20	2.63	-47.0	-56.8	3.8	8.43e-01	0	26	104	0	60	24982
2026-01-13 02:36:24.46	165.26	2.90	-47.0	-56.6	3.6	8.44e-01	0	26	104	0	60	24534
2026-01-13 02:36:28.50	165.33	3.16	-43.1	-45.4	13.0	6.74e-04	0	26	0	15728640	60	6712
2026-01-13 02:36:32.53	165.39	3.43	-38.6	-39.7	18.7	0.00e+00	0	26	0	37748736	50	6235
2026-01-13 02:36:36.57	165.46	3.71	-37.6	-38.5	19.6	0.00e+00	0	26	0	60817408	48	6088
2026-01-13 02:36:40.61	165.53	3.98	-39.2	-40.4	16.9	0.00e+00	0	26	0	81788928	50	6712
2026-01-13 02:36:44.65	165.60	4.26	-42.1	-43.9	14.0	2.40e-05	0	26	0	95420416	58	6356
2026-01-13 02:36:48.69	165.67	4.54	-41.2	-42.7	15.7	0.00e+00	0	26	0	118489088	56	6244
2026-01-13 02:36:52.72	165.75	4.83	-40.7	-42.1	15.2	0.00e+00	0	26	0	141557760	56	5807
2026-01-13 02:36:56.76	165.82	5.11	-39.8	-41.0	17.1	0.00e+00	0	26	0	163577856	52	6441
2026-01-13 02:37:00.80	165.89	5.40	-38.0	-39.0	19.5	0.00e+00	0	26	0	186646528	50	5729
2026-01-13 02:37:04.84	165.97	5.70	-35.9	-36.7	21.9	0.00e+00	0	26	0	209715200	46	5515
2026-01-13 02:37:08.88	166.05	5.99	-34.8	-35.6	22.9	0.00e+00	0	26	0	231735296	44	5463
2026-01-13 02:37:12.91	166.13	6.29	-34.7	-35.4	23.1	0.00e+00	0	26	0	254803968	42	6030
2026-01-13 02:37:16.95	166.21	6.60	-34.7	-35.4	23.2	0.00e+00	0	26	0	277872640	42	6008
2026-01-13 02:37:20.99	166.29	6.91	-34.4	-35.2	23.5	0.00e+00	0	26	0	299892736	42	5847
2026-01-13 02:37:25.03	166.37	7.22	-34.2	-34.9	23.7	0.00e+00	0	26	0	322961408	42	5688
2026-01-13 02:37:29.07	166.46	7.53	-34.2	-34.9	23.7	0.00e+00	0	27	0	346030080	42	5678
2026-01-13 02:37:33.10	166.54	7.85	-34.1	-34.9	23.8	0.00e+00	0	27	0	368050176	42	5632
2026-01-13 02:37:37.14	166.63	8.17	-34.3	-35.0	23.7	0.00e+00	0	27	0	391118848	42	5737
2026-01-13 02:37:41.17	166.72	8.50	-33.8	-34.5	24.2	0.00e+00	0	27	0	414187520	40	6053
2026-01-13 02:37:45.22	166.81	8.83	-33.8	-34.5	24.1	0.00e+00	0	27	0	436207616	40	6069
2026-01-13 02:37:49.26	166.90	9.17	-33.7	-34.4	24.3	0.00e+00	0	26	0	459276288	40	5981
2026-01-13 02:37:53.29	167.00	9.51	-33.6	-34.3	24.4	0.00e+00	0	27	0	482344960	40	5935
2026-01-13 02:37:57.33	167.09	9.85	-33.6	-34.3	24.5	0.00e+00	0	27	0	504365056	40	5899
2026-01-13 02:38:01.37	167.19	10.20	-33.7	-34.4	24.3	0.00e+00	0	27	0	527433728	40	6019
2026-01-13 02:38:05.41	167.29	10.56	-33.4	-34.1	24.6	0.00e+00	0	27	0	550502400	40	5814
2026-01-13 02:38:09.45	167.40	10.92	-33.4	-34.1	24.6	0.00e+00	0	27	0	572522496	40	5814
2026-01-13 02:38:13.49	167.50	11.28	-33.3	-34.0	24.8	0.00e+00	0	27	0	595591168	40	5718
2026-01-13 02:38:17.53	167.61	11.65	-33.3	-34.0	24.8	0.00e+00	0	27	0	618659840	40	5697
2026-01-13 02:38:21.56	167.72	12.03	-33.4	-34.1	24.8	0.00e+00	0	27	0	640679936	40	5785
2026-01-13 02:38:25.60	167.83	12.41	-33.2	-33.9	24.9	0.00e+00	0	26	0	663748608	40	5659
2026-01-13 02:38:29.64	167.95	12.80	-33.1	-33.8	25.0	0.00e+00	0	26	0	686817280	40	5600
2026-01-13 02:38:33.67	168.06	13.19	-33.1	-33.7	25.1	0.00e+00	0	27	0	708837376	40	5563
2026-01-13 02:38:37.71	168.18	13.59	-32.7	-33.4	25.4	0.00e+00	0	27	0	731906048	40	5358
2026-01-13 02:38:41.75	168.31	14.00	-32.7	-33.4	25.5	0.00e+00	0	27	0	754974720	38	6008
2026-01-13 02:38:45.79	168.44	14.42	-32.5	-33.2	25.6	0.00e+00	0	27	0	776994816	38	5874
2026-01-13 02:38:49.83	168.56	14.84	-32.3	-32.9	25.8	0.00e+00	0	27	0	800063488	38	5693
2026-01-13 02:38:53.87	168.70	15.27	-31.9	-32.5	26.2	0.00e+00	0	27	0	823132160	38	5427
2026-01-13 02:38:57.90	168.83	15.70	-31.7	-32.3	26.3	0.00e+00	0	27	0	845152256	36	5929
2026-01-13 02:39:01.94	168.97	16.14	-31.6	-32.2	26.5	0.00e+00	0	27	0	868220928	36	5893
2026-01-13 02:39:05.97	169.12	16.60	-31.2	-31.9	26.8	0.00e+00	0	27	0	890241024	36	5638
2026-01-13 02:39:10.01	169.27	17.06	-31.2	-31.8	26.8	0.00e+00	0	27	0	913309696	36	5619
2026-01-13 02:39:14.05	169.42	17.53	-31.2	-31.8	26.9	0.00e+00	0	27	0	936378368	36	5602
2026-01-13 02:39:18.08	169.58	18.00	-31.1	-31.7	27.0	0.00e+00	0	27	0	958398464	36	5563
2026-01-13 02:39:22.12	169.74	18.49	-31.0	-31.7	27.0	0.00e+00	0	27	0	981467136	36	5515
2026-01-13 02:39:26.16	169.90	18.99	-30.9	-31.6	27.1	0.00e+00	0	27	0	1004535808	36	5463
2026-01-13 02:39:30.20	170.07	19.49	-30.7	-31.3	27.3	0.00e+00	0	27	0	1027604480	34	5952
2026-01-13 02:39:34.24	170.25	20.01	-30.6	-31.2	27.4	0.00e+00	0	27	0	1049624576	34	5840
2026-01-13 02:39:38.27	170.43	20.54	-30.5	-31.1	27.5	0.00e+00	0	27	0	1072693248	34	5770
2026-01-13 02:39:42.31	170.62	21.08	-30.3	-30.9	27.6	0.00e+00	0	27	0	1094713344	34	5675
2026-01-13 02:39:46.35	170.82	21.63	-30.2	-30.8	27.8	0.00e+00	0	27	0	1117782016	34	5573
2026-01-13 02:39:50.39	171.02	22.19	-30.1	-30.8	27.8	0.00e+00	0	27	0	1140850688	34	5574
2026-01-13 02:39:54.43	171.22	22.77	-30.4	-31.0	27.6	0.00e+00	0	27	0	1162870784	34	5743
2026-01-13 02:39:58.46	171.44	23.35	-30.3	-31.0	27.7	0.00e+00	0	27	0	1185939456	34	5709
2026-01-13 02:40:02.50	171.66	23.96	-30.0	-30.6	27.9	0.00e+00	0	27	0	1209008128	34	5497
2026-01-13 02:40:06.53	171.89	24.57	-29.7	-30.3	28.1	0.00e+00	0	27	0	1231028224	32	5935
2026-01-13 02:40:10.57	172.13	25.20	-29.7	-30.3	28.1	0.00e+00	0	27	0	1254096896	32	5945
2026-01-13 02:40:14.61	172.38	25.84	-29.7	-30.4	28.2	0.00e+00	0	27	0	1277165568	32	5967
2026-01-13 02:40:18.64	172.64	26.50	-29.8	-30.4	28.1	0.00e+00	0	27	0	1299185664	32	6010
2026-01-13 02:40:22.68	172.91	27.18	-29.6	-30.2	28.2	0.00e+00	0	27	0	1322254336	32	5877
2026-01-13 02:40:26.72	173.19	27.87	-29.9	-30.5	28.0	0.00e+00	0	27	0	1345323008	32	6062
2026-01-13 02:40:30.76	173.48	28.58	-29.9	-30.5	28.1	0.00e+00	0	27	0	1367343104	32	6059
2026-01-13 02:40:34.80	173.79	29.30	-29.8	-30.4	28.1	0.00e+00	0	27	0	1390411776	32	6033
2026-01-13 02:40:38.84	174.10	30.05	-30.0	-30.6	27.8	0.00e+00	0	27	0	1413480448	32	6126
2026-01-13 02:40:42.87	174.44	30.81	-29.6	-30.2	28.4	0.00e+00	0	27	0	1435500544	32	5848
2026-01-13 02:40:46.91	174.78	31.60	-29.1	-29.7	28.7	0.00e+00	0	27	0	1458569216	32	5527
2026-01-13 02:40:50.95	175.15	32.40	-29.6	-30.2	28.4	0.00e+00	0	27	0	1481637888	32	5834
2026-01-13 02:40:54.98	175.53	33.22	-29.4	-30.1	28.4	0.00e+00	0	27	0	1503657984	32	5763
2026-01-13 02:40:59.02	175.93	34.07	-29.5	-30.1	28.4	0.00e+00	0	27	0	1526726656	32	5764
2026-01-13 02:41:03.06	176.36	34.94	-29.4	-30.0	28.4	0.00e+00	0	27	0	1549795328	32	5748
2026-01-13 02:41:07.10	176.80	35.83	-29.3	-29.9	28.5	0.00e+00	0	27	0	1571815424	32	5679
2026-01-13 02:41:11.14	177.27	36.74	-28.8	-29.4	28.9	0.00e+00	0	27	0	1594884096	32	5331
2026-01-13 02:41:15.18	177.77	37.68	-28.9	-29.4	28.9	0.00e+00	0	27	0	1617952768	30	6032
2026-01-13 02:41:19.22	178.29	38.65	-29.0	-29.6	28.7	0.00e+00	0	27	0	1639972864	30	6142
2026-01-13 02:41:23.25	178.85	39.63	-29.5	-30.1	28.4	0.00e+00	0	27	0	1663041536	30	6477
2026-01-13 02:41:27.29	179.44	40.65	-29.1	-29.6	28.7	0.00e+00	0	27	0	1686110208	30	6152
2026-01-13 02:41:31.33	180.07	41.69	-29.6	-30.2	28.4	0.00e+00	0	27	0	1708130304	30	6551
2026-01-13 02:41:35.37	180.74	42.76	-29.7	-30.3	28.3	0.00e+00	0	27	0	1731198976	32	5946
2026-01-13 02:41:39.40	181.45	43.85	-29.5	-30.1	28.5	0.00e+00	0	27	0	1754267648	32	5789
2026-01-13 02:41:43.44	182.22	44.97	-29.5	-30.1	28.5	0.00e+00	0	27	0	1776287744	32	5805
2026-01-13 02:41:47.48	183.04	46.11	-29.5	-30.1	28.4	0.00e+00	0	27	0	1799356416	32	5800
2026-01-13 02:41:51.52	183.92	47.29	-29.5	-30.2	28.4	0.00e+00	0	27	0	1822425088	32	5837
2026-01-13 02:41:55.55	184.87	48.48	-29.7	-30.3	28.3	0.00e+00	0	27	0	1844445184	32	5924
2026-01-13 02:41:59.59	185.90	49.70	-29.7	-30.3	28.3	0.00e+00	0	27	0	1867513856	32	5927
2026-01-13 02:42:03.63	187.01	50.95	-30.5	-31.1	27.8	0.00e+00	0	27	0	1889533952	32	6471
2026-01-13 02:42:07.67	188.22	52.22	-30.6	-31.2	27.6	0.00e+00	0	27	0	1912602624	32	6543
2026-01-13 02:42:11.71	189.53	53.51	-30.7	-31.3	27.6	0.00e+00	0	27	0	1935671296	34	5901
2026-01-13 02:42:15.75	190.97	54.81	-31.1	-31.7	27.2	0.00e+00	0	27	0	1958739968	34	6215
2026-01-13 02:42:19.78	192.54	56.13	-30.3	-30.9	27.9	0.00e+00	0	27	0	1980760064	34	5650
2026-01-13 02:42:23.83	194.27	57.46	-30.3	-30.9	27.5	0.00e+00	0	27	0	2003828736	34	5640
2026-01-13 02:42:27.87	196.17	58.79	-29.8	-30.4	28.2	0.00e+00	0	27	0	2026897408	34	5323
2026-01-13 02:42:31.91	198.28	60.12	-29.7	-30.3	28.2	0.00e+00	0	27	0	2048917504	32	5952
2026-01-13 02:42:35.95	200.61	61.44	-29.5	-30.1	28.3	0.00e+00	0	27	0	2071986176	32	5769
2026-01-13 02:42:39.98	203.19	62.73	-29.3	-29.9	28.5	0.00e+00	0	27	0	2094006272	32	5669
2026-01-13 02:42:44.02	206.07	64.00	-29.1	-29.7	28.7	0.00e+00	0	27	0	2117074944	32	5546
2026-01-13 02:42:48.06	209.27	65.23	-29.2	-29.8	28.6	0.00e+00	0	27	0	2140143616	32	5623
2026-01-13 02:42:52.09	212.83	66.40	-28.9	-29.5	28.8	0.00e+00	0	27	0	2163212288	32	5391
2026-01-13 02:42:56.13	216.78	67.49	-29.0	-29.6	28.7	0.00e+00	0	27	0	2185232384	32	5458
2026-01-13 02:43:00.17	221.16	68.49	-28.8	-29.4	28.9	0.00e+00	0	27	0	2208301056	30	5972
2026-01-13 02:43:04.21	225.97	69.37	-28.4	-28.9	29.1	0.00e+00	0	27	0	2231369728	30	5688
2026-01-13 02:43:08.25	231.20	70.11	-28.7	-29.3	28.9	0.00e+00	0	27	0	2253389824	30	5919
2026-01-13 02:43:12.28	236.80	70.69	-28.5	-29.1	29.1	0.00e+00	0	27	0	2276458496	30	5763
2026-01-13 02:43:16.32	242.72	71.08	-28.2	-28.7	29.3	0.00e+00	0	27	0	2298478592	30	5544
2026-01-13 02:43:20.36	248.84	71.29	-28.3	-28.9	29.1	0.00e+00	0	27	0	2321547264	30	5657
2026-01-13 02:43:24.40	255.04	71.29	-28.3	-29.0	29.0	0.00e+00	0	27	0	2344615936	30	5702
2026-01-13 02:43:28.43	261.15	71.09	-28.7	-29.2	28.8	0.00e+00	0	27	0	2367684608	30	5892
2026-01-13 02:43:32.48	267.08	70.69	-28.3	-29.0	29.2	0.00e+00	0	27	0	2389704704	30	5699
2026-01-13 02:43:36.52	272.69	70.11	-28.6	-29.2	28.9	0.00e+00	0	27	0	2412773376	30	5886
2026-01-13 02:43:40.56	277.92	69.37	-28.6	-29.2	29.0	0.00e+00	0	27	0	2435842048	30	5841
2026-01-13 02:43:44.60	282.73	68.49	-28.6	-29.2	29.1	0.00e+00	0	27	0	2457862144	30	5862
2026-01-13 02:43:48.64	287.10	67.50	-28.9	-29.5	28.7	0.00e+00	0	27	0	2480930816	30	6074
2026-01-13 02:43:52.68	291.06	66.41	-29.1	-29.6	28.6	0.00e+00	0	27	0	2502950912	30	6159
2026-01-13 02:43:56.71	294.61	65.24	-29.1	-29.7	28.7	0.00e+00	0	27	0	2526019584	30	6237
2026-01-13 02:44:00.74	297.81	64.02	-29.0	-29.6	28.6	0.00e+00	0	27	0	2549088256	30	6161
2026-01-13 02:44:04.77	300.68	62.76	-29.4	-30.0	28.4	0.00e+00	0	27	0	2571108352	30	6402
2026-01-13 02:44:08.82	303.27	61.46	-28.9	-29.5	28.7	0.00e+00	0	27	0	2594177024	30	6094
2026-01-13 02:44:12.86	305.60	60.14	-30.1	-30.6	27.9	0.00e+00	0	27	0	2617245696	32	6156
2026-01-13 02:44:16.90	307.71	58.82	-29.7	-30.4	28.2	0.00e+00	0	27	0	2640314368	32	5979
2026-01-13 02:44:20.94	309.61	57.49	-30.2	-30.8	27.8	0.00e+00	0	27	0	2662334464	32	6262
2026-01-13 02:44:24.97	311.33	56.17	-30.7	-31.4	27.4	0.00e+00	0	27	0	2685403136	34	5988
2026-01-13 02:44:29.01	312.91	54.86	-30.4	-31.0	27.7	0.00e+00	0	27	0	2707423232	34	5744
2026-01-13 02:44:33.05	314.34	53.55	-30.7	-31.4	27.3	0.00e+00	0	27	0	2730491904	34	6003
2026-01-13 02:44:37.09	315.66	52.27	-30.0	-30.5	27.9	0.00e+00	0	27	0	2753560576	34	5428
2026-01-13 02:44:41.13	316.87	51.01	-30.2	-30.8	27.7	0.00e+00	0	27	0	2775580672	34	5629
2026-01-13 02:44:45.17	317.98	49.76	-29.8	-30.4	28.0	0.00e+00	0	27	0	2798649344	34	5336
2026-01-13 02:44:49.21	319.01	48.54	-29.9	-30.4	28.1	0.00e+00	0	27	0	2821718016	32	5992
2026-01-13 02:44:53.25	319.96	47.35	-29.9	-30.4	28.1	0.00e+00	0	27	0	2843738112	32	6028
2026-01-13 02:44:57.29	320.84	46.18	-29.6	-30.2	28.3	0.00e+00	0	27	0	2866806784	32	5864
2026-01-13 02:45:01.33	321.66	45.04	-29.4	-30.0	28.4	0.00e+00	0	27	0	2889875456	32	5696
2026-01-13 02:45:05.36	322.43	43.92	-29.4	-29.9	28.5	0.00e+00	0	27	0	2911895552	32	5655
2026-01-13 02:45:09.40	323.14	42.83	-29.2	-29.7	28.6	0.00e+00	0	27	0	2934964224	32	5519
2026-01-13 02:45:13.44	323.82	41.77	-29.3	-29.9	28.5	0.00e+00	0	27	0	2958032896	32	5643
2026-01-13 02:45:17.48	324.44	40.73	-29.4	-30.1	28.4	0.00e+00	0	27	0	2980052992	32	5796
2026-01-13 02:45:21.51	325.04	39.72	-29.2	-29.7	28.6	0.00e+00	0	27	0	3003121664	32	5566
2026-01-13 02:45:25.55	325.59	38.74	-29.3	-29.9	28.5	0.00e+00	0	27	0	3026190336	32	5654
2026-01-13 02:45:29.59	326.12	37.77	-29.0	-29.5	28.7	0.00e+00	0	27	0	3048210432	32	5432
2026-01-13 02:45:33.62	326.62	36.84	-29.0	-29.5	28.7	0.00e+00	0	27	0	3071279104	32	5431
2026-01-13 02:45:37.66	327.09	35.93	-29.3	-29.8	28.5	0.00e+00	0	27	0	3094347776	32	5603
2026-01-13 02:45:41.70	327.53	35.04	-29.0	-29.5	28.7	0.00e+00	0	27	0	3116367872	32	5430
2026-01-13 02:45:45.75	327.96	34.17	-29.2	-29.7	28.5	0.00e+00	0	27	0	3139436544	32	5536
2026-01-13 02:45:49.78	328.36	33.33	-29.4	-29.9	28.4	0.00e+00	0	27	0	3162505216	32	5679
2026-01-13 02:45:53.82	328.75	32.51	-29.2	-29.9	28.5	0.00e+00	0	27	0	3184525312	32	5665
2026-01-13 02:45:57.86	329.11	31.71	-29.2	-29.7	28.5	0.00e+00	0	27	0	3207593984	32	5504
2026-01-13 02:46:01.89	329.46	30.93	-29.3	-30.0	28.5	0.00e+00	0	27	0	3230662656	32	5715
2026-01-13 02:46:05.93	329.80	30.16	-29.6	-30.3	28.2	0.00e+00	0	27	0	3252682752	32	5912
2026-01-13 02:46:09.97	330.12	29.42	-29.5	-30.0	28.3	0.00e+00	0	27	0	3275751424	32	5733
2026-01-13 02:46:14.01	330.42	28.70	-29.5	-30.0	28.3	0.00e+00	0	27	0	3298820096	32	5711
2026-01-13 02:46:18.05	330.72	27.99	-29.6	-30.1	28.2	0.00e+00	0	27	0	3320840192	32	5804
2026-01-13 02:46:22.09	331.00	27.30	-29.8	-30.5	28.1	0.00e+00	0	27	0	3343908864	32	6058
2026-01-13 02:46:26.12	331.27	26.63	-29.6	-30.3	28.2	0.00e+00	0	27	0	3366977536	32	5952
2026-01-13 02:46:30.16	331.53	25.97	-29.7	-30.2	28.2	0.00e+00	0	27	0	3388997632	32	5856
2026-01-13 02:46:34.20	331.78	25.33	-29.6	-30.1	28.3	0.00e+00	0	27	0	3412066304	32	5809
2026-01-13 02:46:38.24	332.02	24.70	-29.9	-30.4	27.9	0.00e+00	0	27	0	3435134976	32	6019
2026-01-13 02:46:42.28	332.25	24.08	-30.1	-30.8	27.8	0.00e+00	0	27	0	3457155072	32	6274
2026-01-13 02:46:46.31	332.48	23.49	-30.3	-31.0	27.6	0.00e+00	0	27	0	3480223744	32	6458
2026-01-13 02:46:50.35	332.70	22.90	-30.4	-31.0	27.6	0.00e+00	0	27	0	3503292416	32	6410
2026-01-13 02:46:54.39	332.91	22.33	-30.5	-31.1	27.5	0.00e+00	0	27	0	3525312512	32	6477
2026-01-13 02:46:58.43	333.11	21.76	-30.7	-31.4	27.4	0.00e+00	0	27	0	3548381184	32	6722
2026-01-13 02:47:02.46	333.30	21.22	-30.9	-31.6	27.1	0.00e+00	0	27	0	3571449856	34	6108
2026-01-13 02:47:06.50	333.49	20.68	-30.9	-31.6	27.1	0.00e+00	0	27	0	3593469952	34	6172
2026-01-13 02:47:10.54	333.68	20.15	-31.1	-31.6	27.1	0.00e+00	0	27	0	3616538624	34	6147
2026-01-13 02:47:14.58	333.86	19.64	-31.3	-31.9	26.8	0.00e+00	0	27	0	3638558720	34	6321
2026-01-13 02:47:18.61	334.03	19.13	-31.2	-31.8	26.9	0.00e+00	0	27	0	3661627392	34	6271
2026-01-13 02:47:22.65	334.20	18.63	-31.4	-31.9	26.8	0.00e+00	0	27	0	3684696064	34	6362
2026-01-13 02:47:26.69	334.36	18.15	-31.4	-32.0	26.7	0.00e+00	0	27	0	3707764736	34	6394
2026-01-13 02:47:30.73	334.52	17.67	-31.7	-32.3	26.5	0.00e+00	0	27	0	3729784832	36	5904
2026-01-13 02:47:34.77	334.68	17.20	-31.7	-32.2	26.5	0.00e+00	0	27	0	3752853504	36	5887
2026-01-13 02:47:38.81	334.83	16.74	-31.8	-32.5	26.3	0.00e+00	0	27	0	3775922176	36	6098
2026-01-13 02:47:42.85	334.97	16.29	-32.0	-32.7	26.2	0.00e+00	0	27	0	3797942272	36	6239
2026-01-13 02:47:46.88	335.12	15.85	-32.1	-32.9	26.0	0.00e+00	0	27	0	3821010944	36	6339
2026-01-13 02:47:50.92	335.26	15.42	-32.3	-32.9	26.0	0.00e+00	0	27	0	3843031040	36	6339
2026-01-13 02:47:54.97	335.39	14.99	-32.5	-33.1	25.7	0.00e+00	0	27	0	3866099712	36	6495
2026-01-13 02:47:59.01	335.52	14.57	-32.5	-33.1	25.7	0.00e+00	0	27	0	3889168384	36	6486
2026-01-13 02:48:03.05	335.65	14.15	-32.8	-33.4	25.4	0.00e+00	0	27	0	3912237056	38	6001
2026-01-13 02:48:07.08	335.78	13.75	-32.8	-33.4	25.4	0.00e+00	0	27	0	3934257152	38	6009
2026-01-13 02:48:11.12	335.90	13.35	-32.8	-33.5	25.4	0.00e+00	0	27	0	3957325824	38	6083
2026-01-13 02:48:15.16	336.02	12.95	-32.9	-33.6	25.3	0.00e+00	0	27	0	3980394496	38	6148
2026-01-13 02:48:19.19	336.14	12.57	-33.0	-33.6	25.2	0.00e+00	0	27	0	4002414592	38	6110
2026-01-13 02:48:23.22	336.26	12.19	-33.1	-33.7	25.1	0.00e+00	0	27	0	4025483264	38	6183
2026-01-13 02:48:27.26	336.37	11.81	-33.2	-33.7	25.0	0.00e+00	0	27	0	4047503360	38	6244
2026-01-13 02:48:31.29	336.48	11.44	-33.2	-33.9	25.0	0.00e+00	0	27	0	4070572032	38	6383
2026-01-13 02:48:35.32	336.59	11.08	-33.2	-33.8	25.0	0.00e+00	0	27	0	4093640704	38	6306
2026-01-13 02:48:39.36	336.69	10.72	-33.3	-33.9	24.7	0.00e+00	0	27	0	4115660800	38	6351
2026-01-13 02:48:43.40	336.80	10.37	-33.4	-34.0	24.7	0.00e+00	0	27	0	4138729472	38	6436
2026-01-13 02:48:47.44	336.90	10.02	-33.6	-34.3	24.5	0.00e+00	0	27	0	4161798144	38	6630
2026-01-13 02:48:51.48	337.00	9.67	-33.5	-34.3	24.4	0.00e+00	0	27	0	4183818240	40	5914
2026-01-13 02:48:55.52	337.10	9.33	-33.7	-34.5	24.3	0.00e+00	0	27	0	4206886912	40	6061
2026-01-13 02:48:59.55	337.19	9.00	-33.8	-34.4	24.2	0.00e+00	0	27	0	4229955584	40	5993
2026-01-13 02:49:03.58	337.29	8.67	-34.1	-34.8	23.9	0.00e+00	0	27	0	4251975680	40	6263
2026-01-13 02:49:07.62	337.38	8.34	-34.2	-35.1	23.7	0.00e+00	0	27	0	4275044352	40	6465
2026-01-13 02:49:11.66	337.47	8.02	-34.2	-34.9	23.7	0.00e+00	0	27	0	4298113024	40	6350
2026-01-13 02:49:15.70	337.56	7.70	-34.5	-35.2	23.4	0.00e+00	0	27	0	4320133120	40	6562
2026-01-13 02:49:19.74	337.65	7.39	-34.4	-35.2	23.5	0.00e+00	0	27	0	4343201792	40	6559
2026-01-13 02:49:23.77	337.73	7.08	-34.7	-35.4	23.1	0.00e+00	0	27	0	4366270464	40	6762
2026-01-13 02:49:27.81	337.82	6.77	-34.8	-35.6	23.0	0.00e+00	0	27	0	4388290560	42	6108
2026-01-13 02:49:31.85	337.90	6.47	-34.8	-35.5	23.0	0.00e+00	0	27	0	4411359232	42	6088
2026-01-13 02:49:35.88	337.99	6.17	-34.7	-35.5	23.0	0.00e+00	0	27	0	4433379328	42	6103
2026-01-13 02:49:39.92	338.07	5.87	-34.9	-35.7	22.5	0.00e+00	0	27	0	4456448000	42	6201
2026-01-13 02:49:43.96	338.15	5.58	-36.0	-37.0	21.6	0.00e+00	0	27	0	4479516672	44	6402
2026-01-13 02:49:48.00	338.23	5.29	-36.4	-37.3	20.6	0.00e+00	0	27	0	4502585344	44	6678
2026-01-13 02:49:52.03	338.30	5.00	-37.5	-38.6	18.7	0.00e+00	0	27	0	4524605440	46	6902
2026-01-13 02:49:56.07	338.38	4.72	-39.4	-41.0	15.6	0.00e+00	0	27	0	4547674112	50	7229
2026-01-13 02:50:00.11	338.45	4.44	-41.2	-44.0	11.6	6.43e-04	0	27	0	4570742784	54	8064
2026-01-13 02:50:04.15	338.53	4.16	-42.8	-47.6	6.9	1.25e-01	0	27	0	4592762880	56	10945
2026-01-13 02:50:08.19	338.60	3.88	-43.3	-51.0	3.8	8.26e-01	0	27	0	4603248640	58	14314
2026-01-13 02:50:12.23	338.67	3.61	-43.5	-54.8	3.6	8.45e-01	0	27	104	4603248640	58	22235
2026-01-13 02:50:16.27	338.74	3.34	-43.6	-55.7	3.6	8.46e-01	0	27	104	4603248640	60	22045
2026-01-13 02:50:20.31	338.81	3.08	-43.6	-55.8	3.6	8.45e-01	0	27	104	4603248640	60	22362
2026-01-13 02:50:24.34	338.88	2.81	-48.4	-60.5	3.6	8.45e-01	0	27	104	4603248640	60	38165
2026-01-13 02:50:28.38	338.95	2.55	-48.8	-60.9	3.6	8.45e-01	0	27	104	4603248640	60	40083
2026-01-13 02:50:32.42	339.02	2.29	-48.7	-60.8	3.6	8.46e-01	0	27	104	4603248640	60	39443
2026-01-13 02:50:36.46	339.09	2.03	-48.6	-60.7	3.6	8.44e-01	0	27	104	4603248640	60	39336
2026-01-13 02:50:40.50	339.15	1.78	-48.7	-60.8	3.6	8.45e-01	0	27	104	4603248640	60	39679
2026-01-13 02:50:44.54	339.22	1.52	-48.7	-60.8	3.6	8.46e-01	0	27	104	4603248640	60	39706
2026-01-13 02:50:48.57	339.28	1.27	-48.6	-60.8	3.6	8.45e-01	0	27	104	4603248640	60	39488
2026-01-13 02:50:52.61	339.34	1.03	-48.6	-60.8	3.6	8.45e-01	0	27	104	4603248640	60	39747
2026-01-13 02:50:56.65	339.41	0.78	-48.6	-60.7	3.6	8.44e-01	0	27	104	4603248640	60	39397
2026-01-13 02:51:00.69	339.47	0.53	-48.6	-60.8	3.6	8.45e-01	0	27	104	4603248640	60	39510
2026-01-13 02:51:04.73	339.53	0.29	-48.6	-60.8	3.6	8.44e-01	0	27	104	4603248640	60	39442
2026-01-13 02:51:08.78	339.59	0.05	-48.6	-60.7	3.6	8.45e-01	0	27	104	4603248640	60	39391

#Closed at: 2026-01-13 02:51:11
#Recorded file [4603 MB]: D:/lorett/data/35029_260113_143540.dat