passes_logs/2026/01/13/R4.6S_Anadyr/R4.6S_Anadyr__20260113_235747_NOAA_20_JPSS-1_rec.log

#Pass ID: 20260113_235747_NOAA 20 (JPSS-1)
#Satellite: NOAA 20 (JPSS-1)
#Configuration: NOAA 20
#almurnet v.1.7.20251203
#Start time: 2026-01-13 23:57:50

#Version: 2.2.20231116
#Station: R4.6S_Anadyr
#Location: 177.4865 lon 64.73178 lat
#TLE: 1 43013U 17073A   26013.56788096  .00000060  00000+0  49292-4 0  9995
#TLE: 2 43013  98.7633 314.5224 0001558  41.3934 318.7360 14.19535692422532

#Time	Az	El	Level	Level2	SNR	BER	BlckErr	Temp	State	Recorded	gain1	gain2
2026-01-13 23:57:50.48	149.92	0.17	-48.4	-63.3	3.5	1.51e+00	0	24	0	0	60	53015
2026-01-13 23:57:54.51	149.91	0.41	-48.6	-63.8	3.6	1.51e+00	0	26	104	0	60	56057
2026-01-13 23:57:58.55	149.89	0.66	-48.6	-63.7	3.6	1.51e+00	0	26	104	0	60	55564
2026-01-13 23:58:02.59	149.88	0.91	-48.1	-63.2	3.6	1.51e+00	0	26	104	0	60	52083
2026-01-13 23:58:06.63	149.86	1.16	-46.9	-62.0	3.6	1.51e+00	0	26	104	0	60	45582
2026-01-13 23:58:10.67	149.84	1.41	-46.8	-62.0	3.6	1.51e+00	0	26	104	0	60	45282
2026-01-13 23:58:14.70	149.83	1.66	-46.8	-61.9	3.6	1.51e+00	0	26	104	0	60	45087
2026-01-13 23:58:18.74	149.81	1.92	-46.8	-62.0	3.6	1.51e+00	0	26	104	0	60	45336
2026-01-13 23:58:22.78	149.79	2.18	-46.8	-61.8	3.6	1.51e+00	0	26	104	0	60	44432
2026-01-13 23:58:26.82	149.77	2.44	-46.8	-61.7	3.6	1.51e+00	0	26	104	0	60	44200
2026-01-13 23:58:30.86	149.75	2.71	-46.8	-61.7	3.6	1.51e+00	0	26	104	0	60	43978
2026-01-13 23:58:34.90	149.73	2.98	-46.8	-61.9	3.6	1.51e+00	0	26	104	0	60	44870
2026-01-13 23:58:38.94	149.71	3.25	-46.6	-58.1	4.2	1.44e+00	0	26	104	0	60	29055
2026-01-13 23:58:42.98	149.69	3.52	-45.3	-50.3	10.3	1.05e-02	92	26	0	6291456	60	11878
2026-01-13 23:58:47.02	149.66	3.80	-43.8	-47.0	13.8	3.00e-06	92	26	0	13631488	60	8138
2026-01-13 23:58:51.06	149.64	4.07	-46.8	-61.8	3.6	9.68e-01	0	26	104	18874368	60	44345
2026-01-13 23:58:55.10	149.62	4.35	-41.4	-43.3	17.8	0.00e+00	0	26	0	23068672	56	6634
2026-01-13 23:58:59.14	149.59	4.64	-40.8	-42.4	18.8	0.00e+00	92	26	0	30408704	56	5989
2026-01-13 23:59:03.18	149.57	4.93	-40.8	-42.4	18.8	0.00e+00	92	26	0	37748736	54	6736
2026-01-13 23:59:07.22	149.54	5.22	-40.5	-42.0	19.3	0.00e+00	90	27	0	45088768	54	6406
2026-01-13 23:59:11.26	149.51	5.51	-40.3	-41.8	19.5	0.00e+00	9	26	0	53477376	54	6257
2026-01-13 23:59:15.30	149.49	5.81	-40.3	-41.7	19.6	0.00e+00	92	26	0	60817408	54	6228
2026-01-13 23:59:19.34	149.46	6.11	-40.2	-41.6	19.8	0.00e+00	92	26	0	68157440	54	6143
2026-01-13 23:59:23.38	149.43	6.41	-40.1	-41.5	19.9	0.00e+00	92	26	0	75497472	54	6049
2026-01-13 23:59:27.42	149.40	6.72	-39.9	-41.3	20.2	0.00e+00	64	26	0	82837504	54	5906
2026-01-13 23:59:31.47	149.37	7.03	-39.9	-41.2	20.3	0.00e+00	92	27	0	91226112	54	5860
2026-01-13 23:59:35.50	149.34	7.34	-39.7	-41.0	20.5	0.00e+00	92	27	0	98566144	52	6433
2026-01-13 23:59:39.54	149.30	7.66	-39.7	-41.0	20.6	0.00e+00	90	27	0	105906176	52	6430
2026-01-13 23:59:43.58	149.27	7.99	-39.6	-40.8	20.8	0.00e+00	0	27	0	113246208	52	6274
2026-01-13 23:59:47.62	149.23	8.31	-39.5	-40.8	20.8	0.00e+00	91	27	0	121634816	52	6270
2026-01-13 23:59:51.66	149.20	8.64	-39.5	-40.8	20.9	0.00e+00	92	27	0	128974848	52	6255
2026-01-13 23:59:55.70	149.16	8.98	-39.3	-40.5	21.1	0.00e+00	0	27	0	136314880	52	6068
2026-01-13 23:59:59.75	149.12	9.32	-39.3	-40.5	21.2	0.00e+00	92	27	0	143654912	52	6074
2026-01-14 00:00:03.79	149.08	9.67	-39.1	-40.3	21.4	0.00e+00	92	27	0	150994944	52	5913
2026-01-14 00:00:07.82	149.04	10.01	-39.1	-40.2	21.5	0.00e+00	92	27	0	159383552	52	5858
2026-01-14 00:00:11.87	149.00	10.37	-38.8	-39.8	21.9	0.00e+00	15	27	0	166723584	52	5630
2026-01-14 00:00:15.91	148.96	10.73	-38.8	-39.8	21.8	0.00e+00	91	27	0	174063616	50	6313
2026-01-14 00:00:19.95	148.91	11.10	-38.8	-39.9	21.8	0.00e+00	91	27	0	181403648	50	6343
2026-01-14 00:00:23.98	148.87	11.47	-38.7	-39.8	21.9	0.00e+00	92	27	0	189792256	50	6294
2026-01-14 00:00:28.02	148.82	11.84	-38.7	-39.8	21.9	0.00e+00	77	27	0	197132288	50	6272
2026-01-14 00:00:32.06	148.77	12.22	-38.7	-39.7	22.0	0.00e+00	90	27	0	204472320	50	6245
2026-01-14 00:00:36.11	148.72	12.61	-38.4	-39.4	22.3	0.00e+00	90	27	0	211812352	50	6027
2026-01-14 00:00:40.15	148.67	13.01	-38.3	-39.3	22.5	0.00e+00	92	27	0	220200960	50	5925
2026-01-14 00:00:44.19	148.61	13.41	-38.4	-39.4	22.4	0.00e+00	0	27	0	227540992	50	6001
2026-01-14 00:00:48.22	148.56	13.82	-38.3	-39.3	22.5	0.00e+00	92	27	0	234881024	50	5931
2026-01-14 00:00:52.26	148.50	14.23	-38.1	-39.0	22.7	0.00e+00	92	27	0	242221056	50	5760
2026-01-14 00:00:56.30	148.44	14.65	-38.0	-39.0	22.8	0.00e+00	92	27	0	249561088	50	5703
2026-01-14 00:01:00.34	148.37	15.08	-37.9	-38.8	23.0	0.00e+00	0	27	0	257949696	50	5620
2026-01-14 00:01:04.39	148.31	15.52	-37.9	-38.9	23.0	0.00e+00	91	27	0	265289728	50	5638
2026-01-14 00:01:08.43	148.24	15.96	-37.5	-38.4	23.3	0.00e+00	92	27	0	272629760	48	6032
2026-01-14 00:01:12.47	148.17	16.42	-37.5	-38.4	23.4	0.00e+00	92	27	0	279969792	48	6006
2026-01-14 00:01:16.51	148.10	16.88	-37.3	-38.1	23.6	0.00e+00	0	27	0	288358400	48	5823
2026-01-14 00:01:20.54	148.03	17.35	-37.1	-38.0	23.8	0.00e+00	92	27	0	295698432	48	5732
2026-01-14 00:01:24.58	147.95	17.83	-36.9	-37.7	24.0	0.00e+00	92	27	0	303038464	48	5555
2026-01-14 00:01:28.62	147.87	18.32	-36.8	-37.6	24.1	0.00e+00	92	27	0	310378496	46	6166
2026-01-14 00:01:32.67	147.79	18.82	-36.8	-37.6	24.2	0.00e+00	92	27	0	317718528	46	6139
2026-01-14 00:01:36.71	147.70	19.33	-36.6	-37.4	24.3	0.00e+00	92	27	0	326107136	46	5997
2026-01-14 00:01:40.75	147.61	19.85	-36.5	-37.4	24.4	0.00e+00	90	27	0	333447168	46	5983
2026-01-14 00:01:44.79	147.52	20.38	-36.4	-37.2	24.4	0.00e+00	92	27	0	340787200	46	5888
2026-01-14 00:01:48.83	147.42	20.92	-36.5	-37.4	24.4	0.00e+00	92	27	0	348127232	46	5970
2026-01-14 00:01:52.87	147.32	21.47	-36.3	-37.1	24.6	0.00e+00	92	27	0	356515840	46	5814
2026-01-14 00:01:56.91	147.21	22.04	-36.2	-37.1	24.7	0.00e+00	92	27	0	363855872	46	5766
2026-01-14 00:02:00.95	147.10	22.62	-36.1	-36.9	24.8	0.00e+00	92	27	0	371195904	46	5659
2026-01-14 00:02:04.99	146.99	23.21	-36.2	-37.0	24.7	0.00e+00	92	27	0	378535936	46	5743
2026-01-14 00:02:09.03	146.87	23.82	-36.3	-37.1	24.6	0.00e+00	92	27	0	385875968	46	5779
2026-01-14 00:02:13.07	146.74	24.44	-36.2	-37.1	24.7	0.00e+00	92	27	0	394264576	46	5767
2026-01-14 00:02:17.11	146.61	25.07	-36.3	-37.2	24.7	0.00e+00	7	27	0	401604608	46	5831
2026-01-14 00:02:21.15	146.47	25.72	-36.4	-37.2	24.6	0.00e+00	92	27	0	408944640	46	5880
2026-01-14 00:02:25.20	146.33	26.39	-36.7	-37.6	24.3	0.00e+00	92	27	0	416284672	46	6107
2026-01-14 00:02:29.23	146.18	27.07	-37.1	-38.0	24.0	0.00e+00	92	27	0	424673280	46	6402
2026-01-14 00:02:33.27	146.02	27.77	-37.4	-38.3	23.8	0.00e+00	3	27	0	432013312	46	6646
2026-01-14 00:02:37.32	145.86	28.49	-37.7	-38.7	23.3	0.00e+00	91	27	0	439353344	48	6175
2026-01-14 00:02:41.35	145.69	29.23	-38.3	-39.3	22.9	0.00e+00	91	27	0	446693376	48	6623
2026-01-14 00:02:45.40	145.50	29.99	-39.0	-40.0	22.1	0.00e+00	92	27	0	454033408	50	6432
2026-01-14 00:02:49.44	145.31	30.77	-39.3	-40.4	21.9	0.00e+00	0	27	0	462422016	50	6697
2026-01-14 00:02:53.48	145.11	31.56	-39.9	-41.1	21.3	0.00e+00	92	27	0	469762048	52	6465
2026-01-14 00:02:57.52	144.90	32.38	-40.2	-41.4	21.0	0.00e+00	92	27	0	477102080	52	6758
2026-01-14 00:03:01.55	144.67	33.22	-40.2	-41.4	20.9	0.00e+00	92	27	0	484442112	52	6765
2026-01-14 00:03:05.59	144.44	34.09	-40.0	-41.2	21.3	0.00e+00	91	27	0	492830720	52	6547
2026-01-14 00:03:09.63	144.19	34.98	-39.4	-40.4	21.9	0.00e+00	92	27	0	500170752	52	6012
2026-01-14 00:03:13.66	143.92	35.89	-38.3	-39.2	23.0	0.00e+00	92	27	0	507510784	50	5889
2026-01-14 00:03:17.70	143.64	36.83	-37.9	-38.8	23.3	0.00e+00	7	27	0	514850816	50	5603
2026-01-14 00:03:21.74	143.34	37.80	-37.8	-38.8	23.4	0.00e+00	92	27	0	522190848	48	6250
2026-01-14 00:03:25.78	143.02	38.80	-37.9	-38.8	23.3	0.00e+00	92	27	0	530579456	48	6274
2026-01-14 00:03:29.82	142.68	39.82	-38.8	-39.8	22.6	0.00e+00	92	27	0	537919488	50	6300
2026-01-14 00:03:33.86	142.32	40.87	-38.8	-39.8	22.5	0.00e+00	7	27	0	545259520	50	6294
2026-01-14 00:03:37.89	141.93	41.95	-39.0	-40.0	22.3	0.00e+00	92	27	0	552599552	50	6464
2026-01-14 00:03:41.93	141.51	43.07	-39.5	-40.6	21.8	0.00e+00	92	27	0	560988160	50	6859
2026-01-14 00:03:45.96	141.06	44.21	-39.8	-41.0	21.5	0.00e+00	91	27	0	568328192	52	6408
2026-01-14 00:03:50.01	140.58	45.39	-39.7	-40.8	21.7	0.00e+00	0	27	0	575668224	52	6276
2026-01-14 00:03:54.05	140.05	46.60	-39.6	-40.7	21.7	0.00e+00	90	27	0	583008256	52	6175
2026-01-14 00:03:58.09	139.49	47.85	-41.0	-42.3	20.2	0.00e+00	92	27	0	590348288	54	6676
2026-01-14 00:04:02.13	138.87	49.13	-40.1	-41.3	21.1	0.00e+00	50	27	0	598736896	54	5932
2026-01-14 00:04:06.17	138.20	50.44	-38.3	-39.2	23.0	0.00e+00	0	27	0	606076928	50	5892
2026-01-14 00:04:10.21	137.46	51.79	-36.5	-37.3	24.7	0.00e+00	91	27	0	613416960	46	5915
2026-01-14 00:04:14.25	136.66	53.16	-35.9	-36.7	25.1	0.00e+00	92	27	0	620756992	44	6218
2026-01-14 00:04:18.29	135.77	54.57	-36.4	-37.2	24.8	0.00e+00	0	27	0	629145600	44	6547
2026-01-14 00:04:22.33	134.79	56.02	-37.5	-38.4	23.8	0.00e+00	0	27	0	636485632	46	6712
2026-01-14 00:04:26.37	133.69	57.49	-38.2	-39.2	22.9	0.00e+00	91	27	0	643825664	48	6564
2026-01-14 00:04:30.41	132.47	58.99	-38.6	-39.6	22.8	0.00e+00	92	27	0	651165696	50	6121
2026-01-14 00:04:34.45	131.10	60.51	-37.1	-38.0	24.1	0.00e+00	11	27	0	658505728	48	5704
2026-01-14 00:04:38.49	129.56	62.05	-36.3	-37.0	24.8	0.00e+00	93	27	0	666894336	46	5760
2026-01-14 00:04:42.52	127.80	63.60	-35.7	-36.5	25.2	0.00e+00	92	27	0	674234368	44	6091
2026-01-14 00:04:46.56	125.79	65.17	-36.5	-37.3	24.6	0.00e+00	92	27	0	681574400	44	6627
2026-01-14 00:04:50.60	123.48	66.73	-39.6	-40.7	21.6	0.00e+00	83	27	0	688914432	50	6950
2026-01-14 00:04:54.64	120.79	68.28	-38.8	-39.8	22.5	0.00e+00	92	27	0	697303040	50	6293
2026-01-14 00:04:58.67	117.67	69.81	-37.6	-38.5	23.6	0.00e+00	91	27	0	704643072	48	6058
2026-01-14 00:05:02.71	113.99	71.29	-36.9	-37.8	24.3	0.00e+00	91	27	0	711983104	46	6250
2026-01-14 00:05:06.75	109.65	72.71	-38.0	-38.9	23.1	0.00e+00	77	27	0	719323136	48	6346
2026-01-14 00:05:10.79	104.53	74.03	-37.9	-38.8	23.3	0.00e+00	92	27	0	726663168	48	6294
2026-01-14 00:05:14.82	98.49	75.22	-39.4	-40.4	22.2	0.00e+00	92	27	0	735051776	50	6745
2026-01-14 00:05:18.86	91.44	76.23	-39.6	-40.7	21.7	0.00e+00	92	27	0	742391808	52	6211
2026-01-14 00:05:22.90	83.36	77.01	-39.9	-41.1	21.4	0.00e+00	2	27	0	749731840	52	6493
2026-01-14 00:05:26.94	74.42	77.52	-40.5	-41.8	20.6	0.00e+00	90	27	0	757071872	54	6262
2026-01-14 00:05:30.98	64.95	77.71	-39.8	-41.0	21.5	0.00e+00	92	27	0	765460480	52	6420
2026-01-14 00:05:35.02	55.44	77.57	-39.8	-41.0	21.5	0.00e+00	0	27	0	772800512	52	6395
2026-01-14 00:05:39.06	46.41	77.10	-40.6	-41.9	20.4	0.00e+00	0	27	0	780140544	54	6347
2026-01-14 00:05:43.10	38.20	76.35	-40.4	-41.7	20.7	0.00e+00	92	27	0	787480576	54	6195
2026-01-14 00:05:47.14	31.01	75.37	-42.4	-44.1	18.5	0.00e+00	92	27	0	794820608	56	7304
2026-01-14 00:05:51.19	24.82	74.20	-40.5	-41.8	20.6	0.00e+00	78	27	0	803209216	54	6252
2026-01-14 00:05:55.22	19.59	72.90	-38.3	-39.3	23.0	0.00e+00	55	27	0	810549248	50	5917
2026-01-14 00:05:59.26	15.16	71.49	-36.9	-37.7	24.2	0.00e+00	92	27	0	817889280	48	5553
2026-01-14 00:06:03.30	11.41	70.02	-37.9	-38.8	23.4	0.00e+00	55	27	0	825229312	48	6265
2026-01-14 00:06:07.34	8.21	68.50	-39.1	-40.2	22.2	0.00e+00	0	27	0	833617920	52	5849
2026-01-14 00:06:11.38	5.47	66.95	-40.2	-41.4	21.0	0.00e+00	92	27	0	840957952	52	6759
2026-01-14 00:06:15.42	3.12	65.39	-37.9	-38.8	23.4	0.00e+00	91	27	0	848297984	50	5604
2026-01-14 00:06:19.46	1.07	63.83	-35.2	-36.0	25.7	0.00e+00	0	27	0	855638016	44	5708
2026-01-14 00:06:23.51	359.28	62.27	-35.4	-36.2	25.4	0.00e+00	6	27	0	862978048	44	5865
2026-01-14 00:06:27.55	357.71	60.73	-38.3	-39.3	22.8	0.00e+00	90	27	0	871366656	48	6626
2026-01-14 00:06:31.59	356.32	59.21	-40.2	-41.4	20.9	0.00e+00	92	27	0	878706688	52	6735
2026-01-14 00:06:35.63	355.08	57.71	-41.6	-43.0	19.6	0.00e+00	79	27	0	886046720	56	6460
2026-01-14 00:06:39.66	353.98	56.25	-39.0	-40.1	22.3	0.00e+00	4	27	0	893386752	52	5777
2026-01-14 00:06:43.70	352.98	54.80	-37.4	-38.3	23.7	0.00e+00	91	27	0	901775360	48	5933
2026-01-14 00:06:47.74	352.08	53.39	-36.0	-36.8	25.0	0.00e+00	92	27	0	909115392	46	5597
2026-01-14 00:06:51.78	351.27	52.02	-36.8	-37.7	24.3	0.00e+00	81	27	0	916455424	46	6192
2026-01-14 00:06:55.82	350.53	50.67	-38.1	-39.1	23.1	0.00e+00	0	27	0	923795456	48	6492
2026-01-14 00:06:59.85	349.85	49.36	-40.3	-41.6	20.9	0.00e+00	91	27	0	931135488	52	6850
2026-01-14 00:07:03.89	349.23	48.08	-40.5	-41.7	20.7	0.00e+00	90	27	0	939524096	52	6996
2026-01-14 00:07:07.93	348.66	46.84	-41.3	-42.8	19.6	0.00e+00	0	27	0	946864128	54	7059
2026-01-14 00:07:11.97	348.13	45.62	-40.0	-41.2	21.2	0.00e+00	0	27	0	954204160	54	5843
2026-01-14 00:07:16.01	347.64	44.44	-39.6	-40.7	21.6	0.00e+00	92	27	0	961544192	52	6238
2026-01-14 00:07:20.05	347.19	43.30	-40.8	-42.1	20.3	0.00e+00	35	27	0	969932800	54	6519
2026-01-14 00:07:24.09	346.77	42.18	-40.3	-41.6	20.9	0.00e+00	7	27	0	977272832	54	6109
2026-01-14 00:07:28.12	346.38	41.10	-40.5	-41.8	20.6	0.00e+00	27	27	0	984612864	54	6285
2026-01-14 00:07:32.16	346.01	40.05	-41.0	-42.4	19.9	0.00e+00	92	27	0	991952896	54	6736
2026-01-14 00:07:36.21	345.67	39.02	-40.6	-41.9	20.8	0.00e+00	1	27	0	999292928	54	6369
2026-01-14 00:07:40.25	345.35	38.02	-39.5	-40.6	21.8	0.00e+00	2	27	0	1007681536	52	6130
2026-01-14 00:07:44.29	345.05	37.06	-39.7	-40.8	21.7	0.00e+00	43	27	0	1015021568	52	6287
2026-01-14 00:07:48.33	344.76	36.11	-39.8	-40.9	21.4	0.00e+00	92	27	0	1022361600	52	6377
2026-01-14 00:07:52.37	344.50	35.20	-39.9	-41.1	21.4	0.00e+00	0	27	0	1029701632	52	6491
2026-01-14 00:07:56.40	344.25	34.31	-39.4	-40.5	21.9	0.00e+00	4	27	0	1038090240	52	6049
2026-01-14 00:08:00.44	344.01	33.45	-38.8	-39.8	22.4	0.00e+00	92	27	0	1045430272	52	5630
2026-01-14 00:08:04.48	343.78	32.60	-39.7	-40.8	21.6	0.00e+00	92	27	0	1052770304	52	6258
2026-01-14 00:08:08.52	343.57	31.78	-40.3	-41.5	20.8	0.00e+00	0	27	0	1060110336	52	6845
2026-01-14 00:08:12.56	343.37	30.98	-40.0	-41.2	21.2	0.00e+00	78	27	0	1067450368	52	6563
2026-01-14 00:08:16.60	343.18	30.21	-39.6	-40.7	21.6	0.00e+00	92	27	0	1075838976	52	6222
2026-01-14 00:08:20.64	343.00	29.45	-39.1	-40.1	22.1	0.00e+00	7	27	0	1083179008	52	5802
2026-01-14 00:08:24.68	342.83	28.71	-39.6	-40.7	21.6	0.00e+00	8	27	0	1090519040	52	6238
2026-01-14 00:08:28.72	342.66	27.99	-39.6	-40.7	21.6	0.00e+00	0	27	0	1097859072	52	6225
2026-01-14 00:08:32.77	342.50	27.29	-39.3	-40.4	21.9	0.00e+00	92	27	0	1106247680	52	5987
2026-01-14 00:08:36.81	342.36	26.61	-39.0	-40.0	22.2	0.00e+00	7	27	0	1113587712	52	5741
2026-01-14 00:08:40.85	342.21	25.94	-38.5	-39.5	22.6	0.00e+00	3	27	0	1120927744	50	6091
2026-01-14 00:08:44.89	342.08	25.29	-38.0	-39.0	23.1	0.00e+00	0	27	0	1128267776	50	5726
2026-01-14 00:08:48.93	341.95	24.65	-38.2	-39.2	22.9	0.00e+00	90	27	0	1135607808	50	5840
2026-01-14 00:08:52.97	341.82	24.03	-38.0	-39.0	23.1	0.00e+00	75	27	0	1143996416	50	5708
2026-01-14 00:08:57.01	341.71	23.43	-38.0	-39.0	23.0	0.00e+00	6	27	0	1151336448	50	5735
2026-01-14 00:09:01.05	341.59	22.83	-38.1	-39.1	22.9	0.00e+00	92	27	0	1158676480	50	5772
2026-01-14 00:09:05.09	341.48	22.26	-38.1	-39.1	22.9	0.00e+00	0	27	0	1166016512	50	5771
2026-01-14 00:09:09.13	341.38	21.69	-38.1	-39.0	23.0	0.00e+00	0	27	0	1174405120	50	5750
2026-01-14 00:09:13.17	341.28	21.13	-38.3	-39.3	22.8	0.00e+00	0	27	0	1181745152	50	5913
2026-01-14 00:09:17.21	341.18	20.59	-38.5	-39.5	22.5	0.00e+00	92	27	0	1189085184	50	6043
2026-01-14 00:09:21.25	341.09	20.06	-38.6	-39.7	22.3	0.00e+00	0	27	0	1196425216	50	6182
2026-01-14 00:09:25.29	341.00	19.54	-38.8	-39.9	22.2	0.00e+00	6	27	0	1203765248	50	6337
2026-01-14 00:09:29.32	340.92	19.03	-38.8	-39.8	22.2	0.00e+00	0	27	0	1212153856	50	6317
2026-01-14 00:09:33.36	340.84	18.53	-38.9	-39.9	22.1	0.00e+00	92	27	0	1219493888	50	6384
2026-01-14 00:09:37.40	340.76	18.04	-39.0	-40.1	21.9	0.00e+00	9	27	0	1226833920	50	6481
2026-01-14 00:09:41.44	340.68	17.56	-39.1	-40.2	21.8	0.00e+00	7	27	0	1234173952	50	6607
2026-01-14 00:09:45.48	340.61	17.09	-39.3	-40.5	21.5	0.00e+00	6	27	0	1242562560	50	6790
2026-01-14 00:09:49.52	340.54	16.63	-39.4	-40.6	21.4	0.00e+00	92	27	0	1249902592	50	6897
2026-01-14 00:09:53.56	340.47	16.18	-39.5	-40.8	21.2	0.00e+00	0	27	0	1257242624	50	7011
2026-01-14 00:09:57.59	340.41	15.74	-39.5	-40.7	21.2	0.00e+00	14	27	0	1264582656	50	6979
2026-01-14 00:10:01.64	340.34	15.30	-39.5	-40.8	21.2	0.00e+00	0	27	0	1271922688	50	7014
2026-01-14 00:10:05.68	340.28	14.87	-39.5	-40.8	21.2	0.00e+00	90	27	0	1280311296	50	7018
2026-01-14 00:10:09.72	340.23	14.45	-39.6	-40.8	21.1	0.00e+00	8	27	0	1287651328	50	7084
2026-01-14 00:10:13.76	340.17	14.03	-39.4	-40.5	21.4	0.00e+00	0	27	0	1294991360	50	6827
2026-01-14 00:10:17.80	340.12	13.62	-39.5	-40.6	21.3	0.00e+00	0	27	0	1302331392	50	6924
2026-01-14 00:10:21.84	340.06	13.22	-39.4	-40.6	21.3	0.00e+00	92	27	0	1310720000	50	6877
2026-01-14 00:10:25.87	340.01	12.83	-39.5	-40.6	21.3	0.00e+00	16	27	0	1318060032	50	6907
2026-01-14 00:10:29.91	339.97	12.44	-39.5	-40.7	21.2	0.00e+00	0	27	0	1325400064	50	6951
2026-01-14 00:10:33.96	339.92	12.06	-39.5	-40.7	21.2	0.00e+00	47	27	0	1332740096	50	6954
2026-01-14 00:10:38.00	339.87	11.68	-39.8	-41.0	21.0	0.00e+00	10	27	0	1341128704	52	6419
2026-01-14 00:10:42.04	339.83	11.31	-40.0	-41.3	20.6	0.00e+00	17	27	0	1348468736	52	6622
2026-01-14 00:10:46.08	339.79	10.94	-40.0	-41.2	20.6	0.00e+00	0	27	0	1355808768	52	6595
2026-01-14 00:10:50.12	339.75	10.58	-40.1	-41.4	20.4	0.00e+00	92	27	0	1363148800	52	6731
2026-01-14 00:10:54.16	339.71	10.23	-40.2	-41.5	20.3	0.00e+00	64	27	0	1370488832	52	6825
2026-01-14 00:10:58.20	339.67	9.88	-40.1	-41.5	20.3	0.00e+00	0	27	0	1378877440	52	6778
2026-01-14 00:11:02.24	339.63	9.53	-40.3	-41.6	20.2	0.00e+00	72	27	0	1386217472	52	6901
2026-01-14 00:11:06.28	339.60	9.19	-40.3	-41.6	20.1	0.00e+00	90	27	0	1393557504	52	6910
2026-01-14 00:11:10.32	339.56	8.86	-40.3	-41.6	20.1	0.00e+00	0	27	0	1400897536	52	6908
2026-01-14 00:11:14.36	339.53	8.53	-40.1	-41.5	20.2	0.00e+00	0	27	0	1409286144	52	6799
2026-01-14 00:11:18.40	339.50	8.20	-40.3	-41.7	20.0	0.00e+00	66	27	0	1416626176	52	7001
2026-01-14 00:11:22.44	339.47	7.88	-40.2	-41.6	19.9	0.00e+00	90	27	0	1423966208	52	6863
2026-01-14 00:11:26.48	339.44	7.56	-40.1	-41.4	20.0	0.00e+00	18	27	0	1431306240	52	6743
2026-01-14 00:11:30.52	339.41	7.24	-40.2	-41.6	19.9	0.00e+00	6	27	0	1438646272	52	6851
2026-01-14 00:11:34.56	339.38	6.93	-40.2	-41.5	19.9	0.00e+00	0	27	0	1447034880	52	6840
2026-01-14 00:11:38.60	339.36	6.63	-40.1	-41.5	19.9	0.00e+00	92	27	0	1454374912	52	6812
2026-01-14 00:11:42.64	339.33	6.32	-40.0	-41.4	20.0	0.00e+00	6	27	0	1461714944	52	6710
2026-01-14 00:11:46.68	339.30	6.02	-40.0	-41.4	19.9	0.00e+00	20	27	0	1469054976	52	6740
2026-01-14 00:11:50.73	339.28	5.73	-40.2	-41.7	19.3	0.00e+00	0	27	0	1477443584	52	6996
2026-01-14 00:11:54.77	339.26	5.43	-40.7	-42.5	18.2	0.00e+00	62	27	0	1484783616	52	7636
2026-01-14 00:11:58.81	339.23	5.14	-41.6	-44.2	15.8	0.00e+00	20	27	0	1492123648	54	8255
2026-01-14 00:12:02.85	339.21	4.85	-42.8	-46.7	12.6	3.20e-05	3	27	0	1499463680	56	9827
2026-01-14 00:12:06.89	339.19	4.57	-43.4	-49.2	8.8	1.89e-02	63	27	0	1506803712	58	11723
2026-01-14 00:12:10.93	339.17	4.29	-43.7	-52.1	5.2	3.99e-01	0	27	0	1515192320	58	16417
2026-01-14 00:12:14.96	339.15	4.01	-43.7	-56.2	3.8	1.48e+00	0	27	104	1519386624	60	23367
2026-01-14 00:12:19.01	339.13	3.74	-43.6	-58.0	3.6	1.51e+00	0	27	104	1519386624	60	28586
2026-01-14 00:12:23.04	339.12	3.46	-43.8	-58.5	3.6	1.51e+00	0	27	104	1519386624	60	30242
2026-01-14 00:12:27.08	339.10	3.19	-43.6	-58.7	3.6	1.51e+00	0	27	104	1519386624	60	30962
2026-01-14 00:12:31.12	339.08	2.93	-45.5	-60.7	3.6	1.51e+00	0	27	104	1519386624	60	39256
2026-01-14 00:12:35.16	339.07	2.66	-48.5	-63.6	3.6	1.51e+00	0	27	104	1519386624	60	54929
2026-01-14 00:12:39.20	339.05	2.40	-48.5	-63.8	3.6	1.51e+00	0	27	104	1519386624	60	55971
2026-01-14 00:12:43.24	339.03	2.14	-48.4	-63.6	3.6	1.51e+00	0	27	104	1519386624	60	54985
2026-01-14 00:12:47.28	339.02	1.88	-48.6	-63.7	3.6	1.51e+00	0	27	104	1519386624	60	55266
2026-01-14 00:12:51.33	339.01	1.63	-48.5	-63.7	3.6	1.51e+00	0	27	104	1519386624	60	55052
2026-01-14 00:12:55.37	338.99	1.37	-48.5	-63.7	3.6	1.51e+00	0	27	104	1519386624	60	55296
2026-01-14 00:12:59.41	338.98	1.12	-48.5	-63.7	3.6	1.51e+00	0	27	104	1519386624	60	55246
2026-01-14 00:13:03.45	338.97	0.87	-48.5	-63.6	3.6	1.51e+00	0	27	104	1519386624	60	54689
2026-01-14 00:13:07.49	338.96	0.63	-48.5	-63.6	3.6	1.51e+00	0	27	104	1519386624	60	54928
2026-01-14 00:13:11.53	338.95	0.38	-48.5	-63.7	3.6	1.51e+00	0	27	104	1519386624	60	55193
2026-01-14 00:13:15.57	338.93	0.14	-48.5	-63.7	3.6	1.51e+00	0	27	104	1519386624	60	55093

#Closed at: 2026-01-14 00:13:19
#Recorded file [1519 MB]: D:/lorett/data/35029_260114_115750.dat