passes_logs/2026/01/13/R4.6S_Anadyr/R4.6S_Anadyr__20260113_091556_TY-39_rec.log

#Pass ID: 20260113_091556_TY-39
#Satellite: TY-39
#Configuration: TY-39
#almurnet v.1.7.20251203
#Start time: 2026-01-13 09:15:59

#Version: 2.2.20231116
#Station: R4.6S_Anadyr
#Location: 177.4865 lon 64.73178 lat
#TLE: 1 51832U 22019J   26012.32466558  .00003209  00000-0  15361-3 0  9996
#TLE: 2 51832  97.3649  79.0801 0010062  60.6005 299.6233 15.19628684214124

#Time	Az	El	Level	Level2	SNR	BER	BlckErr	Temp	State	Recorded	gain1	gain2
2026-01-13 09:15:59.43	172.33	0.21	-48.7	-50.3	5.7	0.00e+00	0	25	0	0	60	40016
2026-01-13 09:16:02.36	172.40	0.40	-48.7	-51.2	3.6	0.00e+00	0	26	104	0	60	44290
2026-01-13 09:16:05.31	172.48	0.59	-48.7	-51.2	3.6	0.00e+00	0	26	104	0	60	44461
2026-01-13 09:16:08.25	172.55	0.78	-48.4	-50.9	3.6	0.00e+00	0	27	104	0	60	42894
2026-01-13 09:16:11.18	172.63	0.97	-48.1	-50.6	3.6	0.00e+00	0	27	104	0	60	41610
2026-01-13 09:16:14.12	172.70	1.17	-47.4	-50.0	3.6	0.00e+00	0	27	104	0	60	38557
2026-01-13 09:16:17.07	172.78	1.37	-47.4	-49.9	3.6	0.00e+00	0	27	104	0	60	38341
2026-01-13 09:16:20.00	172.86	1.57	-47.4	-49.9	3.6	0.00e+00	0	27	104	0	60	38362
2026-01-13 09:16:22.94	172.94	1.77	-47.4	-49.9	3.6	0.00e+00	0	27	104	0	60	38315
2026-01-13 09:16:25.87	173.03	1.97	-47.4	-49.9	3.6	0.00e+00	0	27	104	0	60	38471
2026-01-13 09:16:28.81	173.11	2.17	-47.4	-49.9	3.6	0.00e+00	0	27	104	0	60	38143
2026-01-13 09:16:31.74	173.19	2.38	-47.4	-49.9	3.6	0.00e+00	0	27	104	0	60	38181
2026-01-13 09:16:34.68	173.28	2.59	-47.4	-49.9	3.6	0.00e+00	0	27	104	0	60	38262
2026-01-13 09:16:37.62	173.37	2.80	-47.4	-49.9	3.6	0.00e+00	0	27	104	0	60	38397
2026-01-13 09:16:40.56	173.46	3.01	-47.4	-49.9	3.6	0.00e+00	0	28	104	0	60	38312
2026-01-13 09:16:43.52	173.55	3.23	-47.4	-49.9	3.6	0.00e+00	0	28	104	0	60	38144
2026-01-13 09:16:46.48	173.64	3.45	-47.4	-49.9	3.6	0.00e+00	0	28	104	0	60	38154
2026-01-13 09:16:49.44	173.74	3.67	-47.4	-49.9	3.6	0.00e+00	0	28	104	0	60	38268
2026-01-13 09:16:52.39	173.83	3.89	-47.4	-49.9	3.6	0.00e+00	0	28	104	0	60	38189
2026-01-13 09:16:55.33	173.93	4.12	-47.5	-50.0	3.5	0.00e+00	0	28	104	0	60	38546
2026-01-13 09:16:58.28	174.03	4.34	-47.7	-50.2	3.6	0.00e+00	0	28	104	0	60	39614
2026-01-13 09:17:01.25	174.13	4.58	-41.1	-41.3	5.6	5.30e-03	0	28	0	16777216	52	22673
2026-01-13 09:17:04.21	174.23	4.81	-33.8	-34.1	13.0	1.05e-01	0	28	0	159383552	46	13834
2026-01-13 09:17:07.19	174.34	5.05	-32.9	-33.3	13.6	0.00e+00	0	28	0	385875968	40	18003
2026-01-13 09:17:10.18	174.45	5.29	-30.4	-30.8	14.9	0.00e+00	0	28	0	603979776	36	16931
2026-01-13 09:17:13.18	174.56	5.53	-29.3	-29.8	15.4	0.00e+00	0	28	0	830472192	34	16839
2026-01-13 09:17:16.20	174.67	5.78	-28.8	-29.3	15.6	0.00e+00	0	28	0	1056964608	32	17898
2026-01-13 09:17:19.19	174.79	6.03	-28.7	-29.1	15.6	0.00e+00	0	28	0	1283457024	32	17536
2026-01-13 09:17:22.18	174.91	6.29	-28.7	-29.2	15.6	0.00e+00	0	28	0	1509949440	32	17624
2026-01-13 09:17:25.16	175.02	6.54	-28.7	-29.1	15.6	0.00e+00	0	28	0	1728053248	32	17535
2026-01-13 09:17:28.16	175.15	6.81	-28.4	-28.8	15.7	0.00e+00	0	28	0	1954545664	32	16971
2026-01-13 09:17:31.15	175.27	7.07	-28.6	-29.0	15.7	0.00e+00	0	28	0	2181038080	32	17375
2026-01-13 09:17:34.14	175.40	7.34	-28.3	-28.8	15.8	0.00e+00	0	29	0	2407530496	32	16855
2026-01-13 09:17:37.13	175.53	7.61	-28.0	-28.4	15.9	0.00e+00	0	29	0	2625634304	32	16231
2026-01-13 09:17:40.12	175.66	7.88	-27.9	-28.4	15.9	0.00e+00	0	29	0	2852126720	32	16172
2026-01-13 09:17:43.12	175.80	8.16	-27.9	-28.4	16.0	0.00e+00	0	28	0	3078619136	32	16082
2026-01-13 09:17:46.15	175.94	8.45	-27.9	-28.4	16.0	0.00e+00	0	29	0	3305111552	32	16062
2026-01-13 09:17:49.17	176.08	8.74	-27.7	-28.1	16.0	0.00e+00	0	29	0	3531603968	30	17578
2026-01-13 09:17:52.19	176.23	9.04	-27.6	-28.1	16.1	0.00e+00	0	29	0	3758096384	30	17401
2026-01-13 09:17:55.22	176.38	9.34	-27.5	-27.9	16.0	0.00e+00	0	29	0	3984588800	30	17128
2026-01-13 09:17:58.24	176.53	9.64	-27.4	-27.8	16.0	0.00e+00	0	29	0	4211081216	30	16985
2026-01-13 09:18:01.24	176.69	9.95	-27.2	-27.7	16.1	0.00e+00	0	29	0	4437573632	30	16764
2026-01-13 09:18:04.27	176.85	10.26	-27.2	-27.7	16.2	0.00e+00	0	29	0	4664066048	30	16640
2026-01-13 09:18:07.29	177.02	10.58	-26.9	-27.4	16.1	0.00e+00	0	29	0	4890558464	30	16151
2026-01-13 09:18:10.32	177.19	10.91	-26.9	-27.3	16.2	0.00e+00	0	29	0	5117050880	30	16050
2026-01-13 09:18:13.35	177.36	11.24	-26.9	-27.3	16.2	0.00e+00	0	29	0	5343543296	28	17971
2026-01-13 09:18:16.38	177.54	11.58	-26.8	-27.3	16.2	0.00e+00	0	29	0	5570035712	28	17831
2026-01-13 09:18:19.41	177.72	11.92	-26.5	-27.0	16.3	0.00e+00	0	29	0	5804916736	28	17282
2026-01-13 09:18:22.44	177.91	12.27	-26.4	-26.9	16.3	0.00e+00	0	29	0	6023020544	28	17013
2026-01-13 09:18:25.47	178.11	12.63	-26.3	-26.8	16.4	0.00e+00	0	29	0	6257901568	28	16854
2026-01-13 09:18:28.50	178.31	12.99	-26.2	-26.6	16.4	0.00e+00	0	29	0	6484393984	28	16549
2026-01-13 09:18:31.53	178.51	13.36	-26.0	-26.5	16.4	0.00e+00	0	29	0	6710886400	28	16250
2026-01-13 09:18:34.55	178.72	13.74	-26.0	-26.5	16.5	0.00e+00	0	29	0	6937378816	28	16249
2026-01-13 09:18:37.58	178.94	14.12	-25.8	-26.2	16.5	0.00e+00	0	29	0	7163871232	28	15838
2026-01-13 09:18:40.61	179.16	14.51	-25.8	-26.3	16.5	0.00e+00	0	29	0	7390363648	26	17889
2026-01-13 09:18:43.64	179.40	14.91	-25.7	-26.2	16.6	0.00e+00	0	29	0	7616856064	26	17696
2026-01-13 09:18:46.67	179.63	15.32	-25.6	-26.1	16.6	0.00e+00	0	29	0	7843348480	26	17428
2026-01-13 09:18:49.69	179.88	15.74	-25.3	-25.8	16.6	0.00e+00	0	29	0	8069840896	26	16942
2026-01-13 09:18:52.72	180.13	16.17	-25.4	-25.9	16.6	0.00e+00	0	29	0	8296333312	26	17088
2026-01-13 09:18:55.75	180.39	16.60	-25.2	-25.6	16.7	0.00e+00	0	29	0	8531214336	26	16616
2026-01-13 09:18:58.78	180.66	17.05	-25.0	-25.5	16.8	0.00e+00	0	29	0	8749318144	26	16269
2026-01-13 09:19:01.81	180.94	17.51	-24.9	-25.4	16.7	0.00e+00	0	29	0	8984199168	26	16179
2026-01-13 09:19:04.84	181.23	17.97	-24.9	-25.3	16.8	0.00e+00	0	29	0	9202302976	24	17992
2026-01-13 09:19:07.86	181.53	18.45	-24.5	-25.0	16.8	0.00e+00	0	29	0	9437184000	24	17326
2026-01-13 09:19:10.89	181.84	18.94	-24.4	-24.9	16.8	0.00e+00	0	29	0	9663676416	24	17068
2026-01-13 09:19:13.91	182.16	19.44	-24.3	-24.8	16.9	0.00e+00	0	29	0	9890168832	24	16855
2026-01-13 09:19:16.93	182.49	19.95	-24.2	-24.7	16.9	0.00e+00	0	29	0	10116661248	24	16620
2026-01-13 09:19:19.96	182.84	20.47	-24.0	-24.5	16.9	0.00e+00	0	29	0	10343153664	24	16363
2026-01-13 09:19:22.99	183.20	21.01	-23.9	-24.4	17.0	0.00e+00	0	29	0	10569646080	24	16067
2026-01-13 09:19:26.02	183.57	21.57	-23.8	-24.3	16.9	0.00e+00	0	29	0	10796138496	24	15941
2026-01-13 09:19:29.05	183.96	22.13	-23.6	-24.0	17.0	0.00e+00	0	30	0	11022630912	22	17372
2026-01-13 09:19:32.08	184.37	22.72	-23.5	-24.0	16.9	0.00e+00	0	30	0	11249123328	22	17247
2026-01-13 09:19:35.11	184.79	23.31	-23.3	-23.8	17.0	0.00e+00	0	30	0	11475615744	22	16876
2026-01-13 09:19:38.14	185.23	23.93	-23.3	-23.8	17.0	0.00e+00	0	29	0	11710496768	22	16852
2026-01-13 09:19:41.17	185.69	24.56	-23.0	-23.5	17.0	0.00e+00	0	30	0	11928600576	22	16388
2026-01-13 09:19:44.20	186.17	25.20	-23.0	-23.5	17.0	0.00e+00	0	30	0	12163481600	22	16262
2026-01-13 09:19:47.23	186.67	25.87	-22.8	-23.2	17.0	0.00e+00	0	30	0	12389974016	20	17778
2026-01-13 09:19:50.26	187.20	26.55	-22.7	-23.2	17.0	0.00e+00	0	30	0	12616466432	20	17630
2026-01-13 09:19:53.29	187.75	27.26	-22.6	-23.1	17.0	0.00e+00	0	30	0	12842958848	20	17547
2026-01-13 09:19:56.32	188.33	27.98	-22.4	-22.9	17.1	0.00e+00	0	30	0	13069451264	20	17037
2026-01-13 09:19:59.35	188.93	28.72	-22.4	-22.9	17.1	0.00e+00	0	30	0	13295943680	20	17081
2026-01-13 09:20:02.38	189.57	29.49	-22.0	-22.5	17.2	0.00e+00	0	30	0	13522436096	20	16281
2026-01-13 09:20:05.41	190.24	30.27	-21.8	-22.3	17.1	0.00e+00	0	30	0	13748928512	20	15945
2026-01-13 09:20:08.44	190.95	31.08	-21.6	-22.1	17.1	0.00e+00	0	30	0	13983809536	18	17562
2026-01-13 09:20:11.47	191.70	31.91	-21.4	-21.9	17.2	0.00e+00	0	30	0	14201913344	18	17119
2026-01-13 09:20:14.50	192.48	32.76	-21.3	-21.8	17.2	0.00e+00	0	30	0	14436794368	18	16838
2026-01-13 09:20:17.53	193.32	33.63	-21.1	-21.6	17.1	0.00e+00	0	30	0	14654898176	18	16486
2026-01-13 09:20:20.55	194.20	34.53	-21.0	-21.5	17.2	0.00e+00	0	30	0	14889779200	18	16319
2026-01-13 09:20:23.58	195.13	35.45	-20.9	-21.3	17.2	0.00e+00	0	30	0	15116271616	18	16015
2026-01-13 09:20:26.61	196.12	36.40	-20.7	-21.2	17.3	0.00e+00	0	30	0	15342764032	16	17668
2026-01-13 09:20:29.64	197.18	37.36	-20.6	-21.0	17.2	0.00e+00	0	30	0	15569256448	16	17397
2026-01-13 09:20:32.67	198.30	38.35	-20.3	-20.8	17.3	0.00e+00	0	30	0	15795748864	16	16953
2026-01-13 09:20:35.70	199.50	39.36	-20.1	-20.6	17.3	0.00e+00	0	30	0	16022241280	16	16512
2026-01-13 09:20:38.73	200.78	40.40	-20.0	-20.5	17.3	0.00e+00	0	30	0	16248733696	16	16311
2026-01-13 09:20:41.76	202.15	41.45	-19.9	-20.4	17.3	0.00e+00	0	30	0	16475226112	16	16084
2026-01-13 09:20:44.79	203.61	42.51	-19.6	-20.1	17.3	0.00e+00	0	30	0	16710107136	14	17565
2026-01-13 09:20:47.82	205.17	43.59	-19.5	-20.0	17.3	0.00e+00	0	30	0	16928210944	14	17335
2026-01-13 09:20:50.84	206.84	44.68	-19.5	-20.0	17.3	0.00e+00	0	30	0	17163091968	14	17223
2026-01-13 09:20:53.87	208.64	45.77	-19.2	-19.7	17.3	0.00e+00	0	30	0	17381195776	14	16769
2026-01-13 09:20:56.90	210.58	46.87	-19.4	-19.9	17.3	0.00e+00	0	30	0	17616076800	14	17015
2026-01-13 09:20:59.92	212.65	47.96	-19.0	-19.5	17.2	0.00e+00	0	30	0	17842569216	14	16348
2026-01-13 09:21:02.95	214.88	49.04	-18.9	-19.4	17.4	0.00e+00	0	30	0	18069061632	14	16118
2026-01-13 09:21:05.98	217.27	50.10	-18.7	-19.2	17.3	0.00e+00	0	30	0	18295554048	12	17722
2026-01-13 09:21:09.01	219.84	51.14	-18.7	-19.2	17.3	0.00e+00	0	30	0	18522046464	12	17655
2026-01-13 09:21:12.04	222.59	52.13	-18.6	-19.1	17.3	0.00e+00	0	30	0	18748538880	12	17482
2026-01-13 09:21:15.07	225.53	53.08	-18.6	-19.1	17.3	0.00e+00	0	30	0	18975031296	12	17461
2026-01-13 09:21:18.10	228.67	53.96	-18.4	-18.8	17.4	0.00e+00	0	30	0	19201523712	12	16972
2026-01-13 09:21:21.12	231.98	54.77	-18.3	-18.8	17.4	0.00e+00	0	30	0	19428016128	12	16942
2026-01-13 09:21:24.15	235.50	55.49	-18.3	-18.8	17.4	0.00e+00	0	30	0	19654508544	12	16908
2026-01-13 09:21:27.18	239.18	56.12	-18.3	-18.8	17.4	0.00e+00	0	30	0	19881000960	12	16882
2026-01-13 09:21:30.21	243.03	56.63	-18.1	-18.6	17.4	0.00e+00	0	30	0	20107493376	12	16570
2026-01-13 09:21:33.24	247.00	57.02	-18.0	-18.5	17.4	0.00e+00	0	30	0	20333985792	12	16358
2026-01-13 09:21:36.26	251.05	57.28	-18.0	-18.5	17.4	0.00e+00	0	30	0	20568866816	12	16340
2026-01-13 09:21:39.29	255.18	57.41	-18.1	-18.5	17.4	0.00e+00	0	30	0	20795359232	12	16422
2026-01-13 09:21:42.32	259.32	57.40	-18.1	-18.6	17.3	0.00e+00	0	30	0	21021851648	12	16481
2026-01-13 09:21:45.35	263.44	57.25	-18.1	-18.6	17.3	0.00e+00	0	30	0	21248344064	12	16455
2026-01-13 09:21:48.37	267.48	56.97	-18.0	-18.5	17.4	0.00e+00	0	30	0	21474836480	12	16393
2026-01-13 09:21:51.40	271.43	56.56	-18.1	-18.6	17.3	0.00e+00	0	30	0	21701328896	12	16546
2026-01-13 09:21:54.43	275.24	56.02	-18.1	-18.6	17.4	0.00e+00	0	30	0	21927821312	12	16571
2026-01-13 09:21:57.46	278.90	55.38	-18.3	-18.8	17.4	0.00e+00	0	30	0	22154313728	12	16819
2026-01-13 09:22:00.49	282.38	54.65	-18.4	-18.9	17.3	0.00e+00	0	30	0	22380806144	12	17076
2026-01-13 09:22:03.52	285.67	53.83	-18.3	-18.8	17.3	0.00e+00	0	30	0	22607298560	12	16911
2026-01-13 09:22:06.55	288.76	52.93	-18.6	-19.1	17.3	0.00e+00	0	30	0	22833790976	12	17478
2026-01-13 09:22:09.58	291.67	51.98	-18.5	-19.0	17.3	0.00e+00	0	30	0	23060283392	12	17318
2026-01-13 09:22:12.61	294.38	50.98	-18.6	-19.1	17.3	0.00e+00	0	30	0	23295164416	12	17554
2026-01-13 09:22:15.63	296.91	49.95	-18.7	-19.2	17.3	0.00e+00	0	30	0	23513268224	12	17766
2026-01-13 09:22:18.66	299.27	48.89	-19.0	-19.5	17.4	0.00e+00	0	30	0	23748149248	12	18278
2026-01-13 09:22:21.69	301.47	47.81	-19.0	-19.5	17.3	0.00e+00	0	30	0	23966253056	12	18381
2026-01-13 09:22:24.72	303.52	46.72	-19.2	-19.7	17.3	0.00e+00	0	30	0	24201134080	12	18832
2026-01-13 09:22:27.75	305.43	45.63	-19.3	-19.8	17.3	0.00e+00	0	30	0	24427626496	12	19015
2026-01-13 09:22:30.77	307.20	44.55	-19.5	-20.0	17.3	0.00e+00	0	30	0	24654118912	12	19328
2026-01-13 09:22:33.80	308.85	43.46	-19.7	-20.1	17.4	0.00e+00	0	30	0	24880611328	12	19739
2026-01-13 09:22:36.83	310.40	42.39	-19.7	-20.2	17.3	0.00e+00	0	30	0	25107103744	14	17731
2026-01-13 09:22:39.86	311.84	41.33	-19.9	-20.4	17.3	0.00e+00	0	30	0	25333596160	14	18107
2026-01-13 09:22:42.89	313.19	40.29	-20.1	-20.6	17.3	0.00e+00	0	30	0	25560088576	14	18571
2026-01-13 09:22:45.92	314.45	39.27	-20.3	-20.8	17.3	0.00e+00	0	30	0	25786580992	14	19047
2026-01-13 09:22:48.95	315.63	38.26	-20.3	-20.8	17.3	0.00e+00	0	30	0	26021462016	14	19036
2026-01-13 09:22:51.97	316.74	37.28	-20.6	-21.1	17.2	0.00e+00	0	30	0	26239565824	14	19574
2026-01-13 09:22:55.00	317.78	36.32	-20.7	-21.2	17.3	0.00e+00	0	30	0	26474446848	16	17682
2026-01-13 09:22:58.03	318.77	35.39	-20.9	-21.4	17.3	0.00e+00	0	30	0	26692550656	16	18133
2026-01-13 09:23:01.06	319.69	34.47	-21.0	-21.5	17.2	0.00e+00	0	30	0	26927431680	16	18338
2026-01-13 09:23:04.09	320.56	33.58	-21.2	-21.7	17.2	0.00e+00	0	30	0	27153924096	16	18809
2026-01-13 09:23:07.12	321.39	32.72	-21.5	-22.0	17.1	0.00e+00	0	30	0	27380416512	16	19441
2026-01-13 09:23:10.15	322.17	31.87	-21.5	-22.0	17.2	0.00e+00	0	30	0	27606908928	16	19361
2026-01-13 09:23:13.17	322.91	31.05	-21.6	-22.1	17.2	0.00e+00	0	30	0	27833401344	16	19721
2026-01-13 09:23:16.20	323.61	30.25	-21.9	-22.4	17.2	0.00e+00	0	30	0	28059893760	18	18039
2026-01-13 09:23:19.23	324.27	29.48	-22.0	-22.5	17.1	0.00e+00	0	30	0	28286386176	18	18318
2026-01-13 09:23:22.26	324.90	28.72	-22.2	-22.7	17.2	0.00e+00	0	30	0	28512878592	18	18769
2026-01-13 09:23:25.29	325.51	27.98	-22.3	-22.8	17.1	0.00e+00	0	30	0	28739371008	18	18986
2026-01-13 09:23:28.32	326.08	27.27	-22.5	-23.0	17.1	0.00e+00	0	30	0	28965863424	18	19420
2026-01-13 09:23:31.34	326.62	26.57	-22.6	-23.1	17.0	0.00e+00	0	30	0	29200744448	18	19707
2026-01-13 09:23:34.37	327.15	25.90	-22.8	-23.3	17.1	0.00e+00	0	30	0	29418848256	20	17917
2026-01-13 09:23:37.39	327.64	25.24	-22.9	-23.4	17.0	0.00e+00	0	30	0	29653729280	20	18105
2026-01-13 09:23:40.42	328.12	24.60	-23.1	-23.6	17.1	0.00e+00	0	30	0	29880221696	20	18571
2026-01-13 09:23:43.45	328.58	23.97	-23.3	-23.8	17.0	0.00e+00	0	30	0	30106714112	20	18871
2026-01-13 09:23:46.48	329.01	23.36	-23.4	-23.9	17.0	0.00e+00	0	30	0	30333206528	20	19096
2026-01-13 09:23:49.51	329.43	22.77	-23.7	-24.2	17.0	0.00e+00	0	30	0	30559698944	20	19781
2026-01-13 09:23:52.53	329.84	22.19	-23.7	-24.2	16.9	0.00e+00	0	30	0	30786191360	22	17659
2026-01-13 09:23:55.56	330.22	21.63	-24.0	-24.5	16.9	0.00e+00	0	30	0	31012683776	22	18245
2026-01-13 09:23:58.59	330.60	21.08	-24.1	-24.6	16.9	0.00e+00	0	30	0	31239176192	22	18582
2026-01-13 09:24:01.62	330.95	20.55	-24.2	-24.7	16.9	0.00e+00	0	30	0	31465668608	22	18814
2026-01-13 09:24:04.65	331.30	20.03	-24.3	-24.8	16.9	0.00e+00	0	30	0	31692161024	22	19018
2026-01-13 09:24:07.68	331.63	19.52	-24.5	-25.0	16.8	0.00e+00	0	30	0	31918653440	22	19460
2026-01-13 09:24:10.71	331.95	19.02	-24.5	-25.0	16.9	0.00e+00	0	30	0	32145145856	22	19492
2026-01-13 09:24:13.74	332.26	18.53	-24.7	-25.2	16.8	0.00e+00	0	30	0	32371638272	22	19761
2026-01-13 09:24:16.76	332.56	18.06	-24.8	-25.3	16.1	0.00e+00	0	30	0	32598130688	24	17883
2026-01-13 09:24:19.79	332.85	17.60	-25.0	-25.5	16.7	0.00e+00	0	30	0	32833011712	24	18275
2026-01-13 09:24:22.82	333.13	17.14	-25.1	-25.6	16.8	0.00e+00	0	30	0	33059504128	24	18459
2026-01-13 09:24:25.84	333.40	16.70	-25.2	-25.7	16.7	0.00e+00	0	30	0	33285996544	24	18816
2026-01-13 09:24:28.87	333.66	16.27	-25.5	-26.0	16.6	0.00e+00	0	30	0	33512488960	24	19454
2026-01-13 09:24:31.90	333.91	15.84	-25.5	-26.0	16.7	0.00e+00	0	30	0	33738981376	24	19337
2026-01-13 09:24:34.93	334.16	15.43	-25.7	-26.1	16.7	0.00e+00	0	30	0	33965473792	24	19740
2026-01-13 09:24:37.96	334.39	15.02	-25.8	-26.2	16.6	0.00e+00	0	30	0	34191966208	26	17777
2026-01-13 09:24:40.99	334.63	14.62	-25.9	-26.4	16.6	0.00e+00	0	30	0	34418458624	26	18139
2026-01-13 09:24:44.02	334.85	14.23	-26.0	-26.4	16.6	0.00e+00	0	30	0	34644951040	26	18199
2026-01-13 09:24:47.04	335.07	13.85	-26.2	-26.7	16.5	0.00e+00	0	30	0	34871443456	26	18723
2026-01-13 09:24:50.07	335.28	13.48	-26.3	-26.8	16.5	0.00e+00	0	30	0	35097935872	26	18887
2026-01-13 09:24:53.10	335.48	13.11	-26.5	-27.0	16.4	0.00e+00	0	30	0	35324428288	26	19398
2026-01-13 09:24:56.13	335.68	12.75	-26.5	-27.0	16.5	0.00e+00	0	30	0	35550920704	26	19374
2026-01-13 09:24:59.16	335.88	12.40	-26.7	-27.2	16.4	0.00e+00	0	30	0	35785801728	28	17701
2026-01-13 09:25:02.18	336.07	12.05	-26.8	-27.3	16.3	0.00e+00	0	30	0	36003905536	28	17961
2026-01-13 09:25:05.21	336.25	11.71	-26.9	-27.4	16.3	0.00e+00	0	30	0	36238786560	28	18103
2026-01-13 09:25:08.24	336.43	11.37	-27.1	-27.6	16.1	0.00e+00	0	30	0	36456890368	28	18581
2026-01-13 09:25:11.26	336.61	11.04	-27.1	-27.6	16.2	0.00e+00	0	30	0	36691771392	28	18488
2026-01-13 09:25:14.29	336.78	10.72	-27.3	-27.8	16.1	0.00e+00	0	30	0	36918263808	28	18992
2026-01-13 09:25:17.32	336.95	10.40	-27.4	-27.9	16.1	0.00e+00	0	30	0	37144756224	28	19239
2026-01-13 09:25:20.35	337.11	10.09	-27.3	-27.8	16.1	0.00e+00	0	30	0	37371248640	28	19022
2026-01-13 09:25:23.37	337.27	9.78	-27.6	-28.1	16.1	0.00e+00	0	30	0	37597741056	28	19532
2026-01-13 09:25:26.40	337.42	9.48	-27.9	-28.3	16.0	0.00e+00	0	30	0	37824233472	30	18007
2026-01-13 09:25:29.43	337.57	9.18	-48.0	-50.5	3.6	0.00e+00	0	30	104	37916508160	60	41039
2026-01-13 09:25:32.46	337.72	8.88	-48.0	-50.4	3.6	0.00e+00	0	30	104	37916508160	60	40543
2026-01-13 09:25:35.49	337.87	8.59	-48.0	-50.5	3.6	0.00e+00	0	30	104	37916508160	60	41034
2026-01-13 09:25:38.52	338.01	8.31	-47.9	-50.3	3.6	0.00e+00	0	30	104	37916508160	60	40299
2026-01-13 09:25:41.54	338.15	8.03	-47.9	-50.4	3.6	0.00e+00	0	30	104	37916508160	60	40757
2026-01-13 09:25:44.57	338.28	7.75	-47.8	-50.4	3.6	0.00e+00	0	29	104	37916508160	60	40334
2026-01-13 09:25:47.60	338.42	7.48	-47.9	-50.3	3.6	0.00e+00	0	30	104	37916508160	60	40322
2026-01-13 09:25:50.63	338.55	7.21	-47.7	-50.3	3.6	0.00e+00	0	30	104	37916508160	60	39866
2026-01-13 09:25:53.65	338.67	6.94	-47.8	-50.3	3.6	0.00e+00	0	30	104	37916508160	60	40091
2026-01-13 09:25:56.68	338.80	6.68	-47.7	-50.1	3.6	0.00e+00	0	30	104	37916508160	60	39214
2026-01-13 09:25:59.71	338.92	6.42	-47.7	-50.2	3.6	0.00e+00	0	30	104	37916508160	60	39423
2026-01-13 09:26:02.74	339.04	6.16	-47.5	-50.0	3.6	0.00e+00	0	30	104	37916508160	60	38590
2026-01-13 09:26:05.76	339.16	5.91	-47.5	-50.0	3.6	0.00e+00	0	30	104	37916508160	60	38553
2026-01-13 09:26:08.79	339.27	5.66	-45.5	-47.9	3.6	0.00e+00	0	30	104	37916508160	60	30550
2026-01-13 09:26:11.82	339.39	5.42	-44.3	-46.8	3.6	0.00e+00	0	30	104	37916508160	60	26805
2026-01-13 09:26:14.84	339.50	5.17	-45.7	-48.2	3.6	0.00e+00	0	30	104	37916508160	60	31363
2026-01-13 09:26:17.87	339.61	4.93	-44.4	-46.8	3.6	0.00e+00	0	30	104	37916508160	60	26931
2026-01-13 09:26:20.90	339.71	4.70	-44.4	-46.9	3.6	0.00e+00	0	30	104	37916508160	60	27093
2026-01-13 09:26:23.93	339.82	4.46	-44.4	-46.8	3.6	0.00e+00	0	30	104	37916508160	60	26867
2026-01-13 09:26:26.95	339.92	4.23	-44.3	-46.7	3.6	0.00e+00	0	30	104	37916508160	60	26480
2026-01-13 09:26:29.98	340.02	4.00	-44.3	-46.9	3.6	0.00e+00	0	29	104	37916508160	60	26974
2026-01-13 09:26:33.00	340.12	3.77	-44.3	-46.7	3.6	0.00e+00	0	30	104	37916508160	60	26588
2026-01-13 09:26:36.03	340.22	3.55	-44.3	-46.8	3.6	0.00e+00	0	29	104	37916508160	60	26851
2026-01-13 09:26:39.06	340.32	3.33	-44.3	-46.8	3.6	0.00e+00	0	30	104	37916508160	60	26739
2026-01-13 09:26:42.09	340.41	3.11	-44.3	-46.8	3.6	0.00e+00	0	30	104	37916508160	60	26855
2026-01-13 09:26:45.12	340.51	2.89	-47.5	-50.1	3.6	0.00e+00	0	30	104	37916508160	60	38989
2026-01-13 09:26:48.14	340.60	2.67	-48.6	-51.1	3.6	0.00e+00	0	30	104	37916508160	60	43759
2026-01-13 09:26:51.17	340.69	2.46	-48.8	-51.3	3.6	0.00e+00	0	30	104	37916508160	60	44918
2026-01-13 09:26:54.20	340.78	2.25	-48.7	-51.2	3.6	0.00e+00	0	29	104	37916508160	60	44308
2026-01-13 09:26:57.23	340.87	2.04	-48.7	-51.1	3.6	0.00e+00	0	29	104	37916508160	60	43966
2026-01-13 09:27:00.25	340.95	1.83	-48.7	-51.2	3.6	0.00e+00	0	29	104	37916508160	60	44445
2026-01-13 09:27:03.28	341.04	1.63	-48.7	-51.2	3.6	0.00e+00	0	29	104	37916508160	60	44219
2026-01-13 09:27:06.31	341.12	1.43	-48.7	-51.1	3.6	0.00e+00	0	29	104	37916508160	60	44201
2026-01-13 09:27:09.34	341.20	1.22	-48.7	-51.1	3.6	0.00e+00	0	29	104	37916508160	60	44119
2026-01-13 09:27:12.36	341.29	1.02	-48.7	-51.1	3.6	0.00e+00	0	30	104	37916508160	60	44033
2026-01-13 09:27:15.39	341.37	0.83	-48.7	-51.2	3.6	0.00e+00	0	29	104	37916508160	60	44269
2026-01-13 09:27:18.42	341.45	0.63	-48.7	-51.2	3.6	0.00e+00	0	29	104	37916508160	60	44283
2026-01-13 09:27:21.45	341.52	0.43	-48.7	-51.1	3.6	0.00e+00	0	29	104	37916508160	60	43972
2026-01-13 09:27:24.48	341.60	0.24	-48.7	-51.1	3.6	0.00e+00	0	29	104	37916508160	60	43958
2026-01-13 09:27:27.50	341.68	0.05	-48.7	-51.1	3.6	0.00e+00	0	30	104	37916508160	60	44155

#Closed at: 2026-01-13 09:27:30
#Recorded file [37916 MB]: D:/lorett/data/35029_260113_211559.dat