passes_logs/2026/01/13/R4.6S_Anadyr/R4.6S_Anadyr__20260113_204028_NOAA_20_JPSS-1_rec.log

#Pass ID: 20260113_204028_NOAA 20 (JPSS-1)
#Satellite: NOAA 20 (JPSS-1)
#Configuration: NOAA 20
#almurnet v.1.7.20251203
#Start time: 2026-01-13 20:40:31

#Version: 2.2.20231116
#Station: R4.6S_Anadyr
#Location: 177.4865 lon 64.73178 lat
#TLE: 1 43013U 17073A   26013.56788096  .00000060  00000+0  49292-4 0  9995
#TLE: 2 43013  98.7633 314.5224 0001558  41.3934 318.7360 14.19535692422532

#Time	Az	El	Level	Level2	SNR	BER	BlckErr	Temp	State	Recorded	gain1	gain2
2026-01-13 20:40:31.52	74.49	0.15	-48.4	-62.1	3.3	1.54e+00	0	27	0	0	60	46147
2026-01-13 20:40:35.56	74.20	0.36	-48.4	-63.6	3.6	1.51e+00	0	27	104	0	60	54684
2026-01-13 20:40:39.59	73.91	0.56	-48.3	-63.5	3.6	1.51e+00	0	27	104	0	60	54357
2026-01-13 20:40:43.64	73.62	0.76	-47.8	-62.9	3.6	1.51e+00	0	27	104	0	60	50655
2026-01-13 20:40:47.68	73.32	0.97	-46.5	-61.6	3.6	1.51e+00	0	27	104	0	60	43337
2026-01-13 20:40:51.72	73.01	1.18	-46.5	-61.5	3.6	1.51e+00	0	28	104	0	60	43177
2026-01-13 20:40:55.76	72.71	1.38	-46.5	-61.6	3.6	1.51e+00	0	27	104	0	60	43402
2026-01-13 20:40:59.80	72.39	1.59	-46.5	-61.5	3.6	1.51e+00	0	28	104	0	60	43039
2026-01-13 20:41:03.84	72.08	1.80	-46.4	-61.6	3.6	1.51e+00	0	28	104	0	60	43502
2026-01-13 20:41:07.88	71.75	2.01	-46.4	-61.3	3.6	1.51e+00	0	28	104	0	60	42097
2026-01-13 20:41:11.91	71.43	2.22	-46.4	-61.5	3.6	1.51e+00	0	28	104	0	60	43061
2026-01-13 20:41:15.96	71.10	2.43	-46.4	-61.5	3.6	1.51e+00	0	28	104	0	60	43056
2026-01-13 20:41:20.00	70.76	2.64	-46.4	-60.7	3.6	1.51e+00	0	28	104	0	60	39361
2026-01-13 20:41:24.04	70.42	2.85	-46.3	-58.1	4.1	1.49e+00	0	28	104	0	60	28968
2026-01-13 20:41:28.08	70.07	3.07	-46.4	-56.5	4.3	3.90e-01	73	28	0	6291456	60	24066
2026-01-13 20:41:32.12	69.72	3.28	-46.2	-60.5	3.6	9.38e-01	0	28	104	8388608	60	38130
2026-01-13 20:41:36.16	69.36	3.49	-41.7	-43.8	16.9	0.00e+00	90	28	0	12582912	58	6309
2026-01-13 20:41:40.19	69.00	3.71	-41.5	-43.5	17.4	0.00e+00	92	28	0	19922944	56	6798
2026-01-13 20:41:44.22	68.63	3.92	-41.8	-43.8	17.1	0.00e+00	28	28	0	28311552	56	7052
2026-01-13 20:41:48.26	68.26	4.14	-41.9	-44.0	17.0	0.00e+00	92	28	0	35651584	56	7195
2026-01-13 20:41:52.29	67.88	4.35	-41.7	-43.7	17.3	0.00e+00	92	28	0	42991616	56	6951
2026-01-13 20:41:56.33	67.50	4.57	-42.0	-44.1	17.0	0.00e+00	91	28	0	50331648	56	7315
2026-01-13 20:42:00.37	67.11	4.79	-41.6	-43.6	17.5	0.00e+00	64	28	0	57671680	56	6857
2026-01-13 20:42:04.40	66.71	5.00	-41.7	-43.7	17.5	0.00e+00	90	28	0	66060288	56	6945
2026-01-13 20:42:08.44	66.31	5.22	-41.8	-43.7	17.6	0.00e+00	92	28	0	73400320	56	6943
2026-01-13 20:42:12.47	65.90	5.44	-41.7	-43.5	17.7	0.00e+00	6	28	0	80740352	56	6843
2026-01-13 20:42:16.51	65.48	5.66	-41.5	-43.3	18.0	0.00e+00	0	28	0	88080384	56	6670
2026-01-13 20:42:20.54	65.06	5.88	-41.2	-42.9	18.4	0.00e+00	92	28	0	96468992	56	6372
2026-01-13 20:42:24.58	64.63	6.10	-41.2	-42.9	18.4	0.00e+00	92	28	0	103809024	56	6371
2026-01-13 20:42:28.62	64.20	6.32	-40.8	-42.4	19.0	0.00e+00	50	28	0	111149056	56	6008
2026-01-13 20:42:32.66	63.75	6.54	-40.7	-42.3	19.0	0.00e+00	7	28	0	118489088	54	6622
2026-01-13 20:42:36.70	63.30	6.76	-40.6	-42.1	19.2	0.00e+00	90	28	0	125829120	54	6505
2026-01-13 20:42:40.74	62.85	6.98	-40.5	-42.0	19.3	0.00e+00	90	28	0	134217728	54	6436
2026-01-13 20:42:44.77	62.39	7.20	-40.5	-42.0	19.3	0.00e+00	66	28	0	141557760	54	6437
2026-01-13 20:42:48.80	61.92	7.42	-40.3	-41.7	19.7	0.00e+00	62	28	0	148897792	54	6243
2026-01-13 20:42:52.84	61.44	7.64	-40.1	-41.5	19.9	0.00e+00	90	28	0	156237824	54	6077
2026-01-13 20:42:56.88	60.95	7.86	-40.2	-41.6	19.8	0.00e+00	92	28	0	163577856	54	6111
2026-01-13 20:43:00.92	60.46	8.08	-40.3	-41.7	19.8	0.00e+00	0	28	0	171966464	54	6221
2026-01-13 20:43:04.95	59.96	8.31	-40.2	-41.6	19.9	0.00e+00	65	28	0	179306496	54	6124
2026-01-13 20:43:08.98	59.45	8.53	-40.0	-41.3	20.1	0.00e+00	91	28	0	186646528	54	5944
2026-01-13 20:43:13.02	58.94	8.75	-39.9	-41.2	20.3	0.00e+00	92	28	0	193986560	54	5876
2026-01-13 20:43:17.05	58.41	8.97	-39.8	-41.1	20.5	0.00e+00	0	28	0	202375168	52	6468
2026-01-13 20:43:21.09	57.88	9.19	-39.7	-41.0	20.6	0.00e+00	92	28	0	209715200	52	6408
2026-01-13 20:43:25.13	57.34	9.40	-39.8	-41.1	20.5	0.00e+00	92	28	0	217055232	52	6493
2026-01-13 20:43:29.16	56.79	9.62	-39.7	-41.0	20.6	0.00e+00	16	28	0	224395264	52	6406
2026-01-13 20:43:33.20	56.23	9.84	-39.9	-41.2	20.4	0.00e+00	15	28	0	231735296	52	6604
2026-01-13 20:43:37.23	55.67	10.06	-39.9	-41.1	20.5	0.00e+00	91	28	0	240123904	52	6527
2026-01-13 20:43:41.27	55.09	10.27	-39.6	-40.9	20.8	0.00e+00	92	28	0	247463936	52	6332
2026-01-13 20:43:45.31	54.51	10.49	-39.7	-40.9	20.7	0.00e+00	64	28	0	254803968	52	6385
2026-01-13 20:43:49.35	53.92	10.70	-39.9	-41.2	20.6	0.00e+00	66	28	0	262144000	52	6540
2026-01-13 20:43:53.38	53.32	10.92	-39.9	-41.1	20.6	0.00e+00	92	28	0	270532608	52	6533
2026-01-13 20:43:57.42	52.71	11.13	-39.7	-40.9	20.8	0.00e+00	92	28	0	277872640	52	6377
2026-01-13 20:44:01.46	52.09	11.34	-39.3	-40.5	21.2	0.00e+00	0	28	0	285212672	52	6087
2026-01-13 20:44:05.49	51.46	11.55	-39.4	-40.6	21.1	0.00e+00	54	28	0	292552704	52	6165
2026-01-13 20:44:09.54	50.82	11.75	-38.7	-39.8	21.9	0.00e+00	92	28	0	299892736	52	5594
2026-01-13 20:44:13.57	50.18	11.96	-38.4	-39.4	22.2	0.00e+00	92	28	0	308281344	50	6025
2026-01-13 20:44:17.61	49.52	12.16	-38.1	-39.1	22.5	0.00e+00	9	28	0	315621376	50	5803
2026-01-13 20:44:21.65	48.86	12.36	-38.2	-39.2	22.5	0.00e+00	6	28	0	322961408	50	5845
2026-01-13 20:44:25.69	48.18	12.56	-38.0	-39.0	22.6	0.00e+00	92	28	0	330301440	50	5759
2026-01-13 20:44:29.72	47.50	12.76	-37.8	-38.8	22.8	0.00e+00	92	28	0	337641472	50	5606
2026-01-13 20:44:33.76	46.81	12.95	-37.6	-38.5	23.1	0.00e+00	15	28	0	346030080	48	6074
2026-01-13 20:44:37.80	46.11	13.15	-37.4	-38.4	23.2	0.00e+00	61	28	0	353370112	48	5970
2026-01-13 20:44:41.84	45.40	13.34	-37.2	-38.1	23.4	0.00e+00	90	28	0	360710144	48	5814
2026-01-13 20:44:45.88	44.68	13.52	-37.1	-38.0	23.5	0.00e+00	0	28	0	368050176	48	5743
2026-01-13 20:44:49.92	43.95	13.70	-37.3	-38.2	23.4	0.00e+00	66	28	0	376438784	48	5892
2026-01-13 20:44:53.96	43.21	13.88	-37.6	-38.6	23.1	0.00e+00	67	28	0	383778816	48	6138
2026-01-13 20:44:57.99	42.46	14.06	-37.7	-38.6	23.1	0.00e+00	92	28	0	391118848	48	6164
2026-01-13 20:45:02.03	41.71	14.23	-37.6	-38.5	23.1	0.00e+00	0	28	0	398458880	48	6099
2026-01-13 20:45:06.07	40.94	14.40	-37.7	-38.6	23.1	0.00e+00	0	28	0	405798912	48	6134
2026-01-13 20:45:10.11	40.17	14.56	-37.5	-38.4	23.2	0.00e+00	91	28	0	414187520	48	6012
2026-01-13 20:45:14.14	39.39	14.72	-37.4	-38.3	23.4	0.00e+00	2	28	0	421527552	48	5921
2026-01-13 20:45:18.18	38.60	14.88	-37.1	-38.0	23.6	0.00e+00	0	28	0	428867584	48	5748
2026-01-13 20:45:22.21	37.80	15.03	-37.0	-37.9	23.7	0.00e+00	0	28	0	436207616	48	5668
2026-01-13 20:45:26.25	36.99	15.18	-37.2	-38.1	23.5	0.00e+00	91	28	0	444596224	48	5782
2026-01-13 20:45:30.28	36.18	15.32	-37.0	-37.9	23.8	0.00e+00	0	28	0	451936256	48	5641
2026-01-13 20:45:34.31	35.36	15.45	-36.9	-37.8	23.8	0.00e+00	0	28	0	459276288	48	5599
2026-01-13 20:45:38.35	34.53	15.58	-37.1	-38.0	23.6	0.00e+00	2	28	0	466616320	48	5702
2026-01-13 20:45:42.38	33.69	15.71	-37.3	-38.2	23.4	0.00e+00	92	28	0	473956352	48	5884
2026-01-13 20:45:46.42	32.85	15.83	-37.0	-37.9	23.7	0.00e+00	6	28	0	482344960	48	5678
2026-01-13 20:45:50.47	32.00	15.94	-37.2	-38.1	23.4	0.00e+00	0	28	0	489684992	48	5803
2026-01-13 20:45:54.50	31.14	16.05	-37.3	-38.2	23.5	0.00e+00	0	28	0	497025024	48	5846
2026-01-13 20:45:58.55	30.27	16.15	-37.3	-38.2	23.4	0.00e+00	92	28	0	504365056	48	5831
2026-01-13 20:46:02.58	29.41	16.25	-37.8	-38.8	22.9	0.00e+00	8	28	0	512753664	48	6295
2026-01-13 20:46:06.62	28.53	16.34	-37.8	-38.7	23.0	0.00e+00	6	28	0	520093696	48	6239
2026-01-13 20:46:10.66	27.65	16.42	-37.7	-38.6	23.2	0.00e+00	6	28	0	527433728	48	6137
2026-01-13 20:46:14.70	26.77	16.50	-37.4	-38.3	23.5	0.00e+00	92	28	0	534773760	48	5906
2026-01-13 20:46:18.74	25.88	16.57	-37.5	-38.5	23.3	0.00e+00	14	28	0	542113792	48	6049
2026-01-13 20:46:22.77	24.99	16.63	-38.0	-39.0	22.8	0.00e+00	15	28	0	550502400	48	6412
2026-01-13 20:46:26.81	24.09	16.69	-37.6	-38.5	23.2	0.00e+00	49	28	0	557842432	48	6103
2026-01-13 20:46:30.84	23.20	16.74	-38.0	-39.0	22.9	0.00e+00	13	28	0	565182464	48	6416
2026-01-13 20:46:34.88	22.30	16.78	-37.8	-38.8	22.9	0.00e+00	0	28	0	572522496	48	6289
2026-01-13 20:46:38.92	21.39	16.81	-38.1	-39.1	22.6	0.00e+00	60	28	0	579862528	48	6527
2026-01-13 20:46:42.96	20.49	16.84	-37.8	-38.8	22.9	0.00e+00	92	28	0	588251136	48	6248
2026-01-13 20:46:47.00	19.58	16.86	-38.0	-38.9	22.8	0.00e+00	0	28	0	595591168	48	6387
2026-01-13 20:46:51.03	18.67	16.87	-37.9	-38.9	22.8	0.00e+00	0	28	0	602931200	48	6330
2026-01-13 20:46:55.07	17.76	16.87	-38.2	-39.2	22.6	0.00e+00	0	28	0	610271232	48	6599
2026-01-13 20:46:59.11	16.85	16.87	-37.7	-38.6	23.1	0.00e+00	92	28	0	618659840	48	6151
2026-01-13 20:47:03.14	15.95	16.86	-37.9	-38.8	22.7	0.00e+00	65	28	0	625999872	48	6300
2026-01-13 20:47:07.18	15.04	16.85	-37.7	-38.7	23.1	0.00e+00	0	28	0	633339904	48	6209
2026-01-13 20:47:11.21	14.14	16.82	-37.8	-38.7	23.0	0.00e+00	13	28	0	640679936	48	6230
2026-01-13 20:47:15.25	13.23	16.79	-37.5	-38.5	23.2	0.00e+00	90	28	0	648019968	48	6049
2026-01-13 20:47:19.29	12.33	16.75	-37.4	-38.3	23.4	0.00e+00	0	28	0	656408576	48	5917
2026-01-13 20:47:23.32	11.43	16.70	-37.5	-38.5	23.1	0.00e+00	0	28	0	663748608	48	6047
2026-01-13 20:47:27.36	10.53	16.65	-37.1	-38.0	23.7	0.00e+00	21	28	0	671088640	48	5746
2026-01-13 20:47:31.40	9.64	16.59	-36.9	-37.8	23.8	0.00e+00	90	28	0	678428672	48	5590
2026-01-13 20:47:35.44	8.75	16.52	-36.9	-37.8	23.9	0.00e+00	6	28	0	686817280	48	5571
2026-01-13 20:47:39.47	7.87	16.45	-36.9	-37.8	23.8	0.00e+00	5	28	0	694157312	48	5570
2026-01-13 20:47:43.51	6.99	16.37	-37.2	-38.1	23.6	0.00e+00	0	28	0	701497344	48	5787
2026-01-13 20:47:47.54	6.11	16.28	-37.2	-38.1	23.6	0.00e+00	91	28	0	708837376	48	5783
2026-01-13 20:47:51.58	5.24	16.19	-37.2	-38.1	23.6	0.00e+00	34	28	0	716177408	48	5769
2026-01-13 20:47:55.62	4.38	16.09	-37.3	-38.2	23.5	0.00e+00	27	28	0	724566016	48	5864
2026-01-13 20:47:59.66	3.52	15.98	-37.6	-38.6	23.1	0.00e+00	15	28	0	731906048	48	6122
2026-01-13 20:48:03.69	2.67	15.87	-37.9	-38.8	23.0	0.00e+00	66	28	0	739246080	48	6312
2026-01-13 20:48:07.73	1.82	15.75	-37.8	-38.8	23.1	0.00e+00	16	28	0	746586112	48	6256
2026-01-13 20:48:11.77	0.99	15.63	-37.8	-38.8	23.0	0.00e+00	66	28	0	754974720	48	6289
2026-01-13 20:48:15.80	0.16	15.50	-37.6	-38.5	23.2	0.00e+00	90	28	0	762314752	48	6075
2026-01-13 20:48:19.84	359.33	15.37	-37.4	-38.4	23.3	0.00e+00	18	28	0	769654784	48	5971
2026-01-13 20:48:23.88	358.52	15.23	-37.4	-38.4	23.3	0.00e+00	0	28	0	776994816	48	5975
2026-01-13 20:48:27.92	357.71	15.08	-37.4	-38.4	23.3	0.00e+00	0	28	0	784334848	48	5969
2026-01-13 20:48:31.96	356.91	14.94	-37.6	-38.6	23.1	0.00e+00	90	28	0	792723456	48	6116
2026-01-13 20:48:36.00	356.11	14.78	-37.3	-38.2	23.0	0.00e+00	2	28	0	800063488	48	5889
2026-01-13 20:48:40.04	355.33	14.62	-38.0	-39.0	22.5	0.00e+00	0	28	0	807403520	48	6452
2026-01-13 20:48:44.07	354.56	14.46	-38.1	-39.2	22.6	0.00e+00	0	28	0	814743552	48	6547
2026-01-13 20:48:48.11	353.79	14.29	-37.7	-38.6	23.0	0.00e+00	92	28	0	823132160	48	6165
2026-01-13 20:48:52.15	353.03	14.12	-37.8	-38.7	23.0	0.00e+00	60	28	0	830472192	48	6214
2026-01-13 20:48:56.19	352.28	13.95	-38.1	-39.0	22.7	0.00e+00	0	28	0	837812224	48	6458
2026-01-13 20:49:00.22	351.54	13.77	-38.1	-39.1	22.5	0.00e+00	16	28	0	845152256	48	6533
2026-01-13 20:49:04.26	350.81	13.59	-38.5	-39.5	22.1	0.00e+00	92	28	0	852492288	48	6838
2026-01-13 20:49:08.30	350.09	13.41	-38.6	-39.7	22.0	0.00e+00	63	28	0	860880896	48	6958
2026-01-13 20:49:12.34	349.38	13.22	-39.0	-40.2	21.6	0.00e+00	63	28	0	868220928	50	6545
2026-01-13 20:49:16.37	348.67	13.03	-39.3	-40.5	21.2	0.00e+00	20	28	0	875560960	50	6817
2026-01-13 20:49:20.41	347.98	12.83	-39.3	-40.5	21.3	0.00e+00	90	28	0	882900992	50	6785
2026-01-13 20:49:24.45	347.29	12.64	-39.5	-40.7	20.9	0.00e+00	0	28	0	891289600	50	6973
2026-01-13 20:49:28.49	346.62	12.44	-39.9	-41.2	20.7	0.00e+00	0	28	0	898629632	52	6559
2026-01-13 20:49:32.52	345.95	12.24	-39.8	-41.1	20.7	0.00e+00	0	28	0	905969664	52	6496
2026-01-13 20:49:36.56	345.30	12.04	-40.0	-41.3	20.5	0.00e+00	92	28	0	913309696	52	6688
2026-01-13 20:49:40.60	344.65	11.83	-40.3	-41.6	20.2	0.00e+00	27	28	0	920649728	52	6927
2026-01-13 20:49:44.64	344.01	11.63	-40.0	-41.3	20.5	0.00e+00	0	28	0	929038336	52	6622
2026-01-13 20:49:48.67	343.38	11.42	-40.2	-41.5	20.2	0.00e+00	0	28	0	936378368	52	6807
2026-01-13 20:49:52.71	342.76	11.21	-40.1	-41.5	20.3	0.00e+00	92	28	0	943718400	52	6793
2026-01-13 20:49:56.75	342.15	11.00	-39.9	-41.2	20.5	0.00e+00	18	28	0	951058432	52	6590
2026-01-13 20:50:00.79	341.55	10.79	-39.6	-40.8	20.9	0.00e+00	22	28	0	959447040	52	6268
2026-01-13 20:50:04.83	340.95	10.57	-39.2	-40.3	21.3	0.00e+00	92	28	0	966787072	52	5950
2026-01-13 20:50:08.87	340.37	10.36	-39.1	-40.3	21.4	0.00e+00	0	28	0	974127104	52	5926
2026-01-13 20:50:12.90	339.79	10.14	-39.0	-40.2	21.4	0.00e+00	62	28	0	981467136	52	5869
2026-01-13 20:50:16.94	339.22	9.93	-38.7	-39.9	21.7	0.00e+00	56	28	0	988807168	50	6334
2026-01-13 20:50:20.98	338.66	9.71	-38.6	-39.7	21.8	0.00e+00	92	28	0	997195776	50	6203
2026-01-13 20:50:25.01	338.11	9.49	-38.5	-39.6	22.1	0.00e+00	0	28	0	1004535808	50	6133
2026-01-13 20:50:29.04	337.57	9.27	-38.1	-39.2	22.3	0.00e+00	0	28	0	1011875840	50	5842
2026-01-13 20:50:33.08	337.04	9.06	-38.2	-39.3	22.2	0.00e+00	0	28	0	1019215872	50	5897
2026-01-13 20:50:37.12	336.51	8.84	-37.8	-38.8	22.6	0.00e+00	92	28	0	1026555904	48	6274
2026-01-13 20:50:41.15	336.00	8.62	-37.8	-38.8	22.5	0.00e+00	56	28	0	1034944512	48	6283
2026-01-13 20:50:45.19	335.49	8.40	-38.1	-39.2	21.9	0.00e+00	21	28	0	1042284544	48	6560
2026-01-13 20:50:49.22	334.99	8.18	-38.2	-39.3	22.0	0.00e+00	26	28	0	1049624576	48	6646
2026-01-13 20:50:53.26	334.49	7.96	-38.4	-39.5	21.8	0.00e+00	92	28	0	1056964608	48	6847
2026-01-13 20:50:57.30	334.00	7.73	-38.6	-39.7	21.8	7.00e-07	54	28	0	1065353216	48	6970
2026-01-13 20:51:01.34	333.52	7.51	-38.6	-39.7	21.6	0.00e+00	59	28	0	1072693248	50	6227
2026-01-13 20:51:05.37	333.05	7.29	-38.5	-39.6	21.7	0.00e+00	53	28	0	1080033280	50	6165
2026-01-13 20:51:09.41	332.59	7.07	-38.9	-40.0	21.3	0.00e+00	93	28	0	1087373312	50	6436
2026-01-13 20:51:13.45	332.13	6.85	-38.7	-39.9	21.5	0.00e+00	0	28	0	1094713344	50	6319
2026-01-13 20:51:17.48	331.68	6.63	-38.9	-40.0	21.2	0.00e+00	0	28	0	1103101952	50	6464
2026-01-13 20:51:21.52	331.24	6.41	-39.3	-40.5	20.8	0.00e+00	0	28	0	1110441984	52	6073
2026-01-13 20:51:25.56	330.80	6.19	-39.0	-40.2	21.1	0.00e+00	92	28	0	1117782016	52	5861
2026-01-13 20:51:29.59	330.37	5.97	-39.5	-40.8	20.6	0.00e+00	0	28	0	1125122048	52	6269
2026-01-13 20:51:33.63	329.95	5.75	-39.4	-40.7	20.5	0.00e+00	6	28	0	1133510656	52	6202
2026-01-13 20:51:37.67	329.53	5.54	-40.0	-41.4	19.9	0.00e+00	0	28	0	1140850688	52	6743
2026-01-13 20:51:41.71	329.12	5.32	-40.5	-42.0	19.3	0.00e+00	60	28	0	1148190720	52	7215
2026-01-13 20:51:45.75	328.72	5.10	-40.6	-42.1	19.1	0.00e+00	53	28	0	1155530752	54	6534
2026-01-13 20:51:49.78	328.32	4.88	-40.0	-41.3	19.8	0.00e+00	0	28	0	1162870784	54	5964
2026-01-13 20:51:53.82	327.93	4.66	-40.5	-42.1	19.1	0.00e+00	92	28	0	1171259392	54	6481
2026-01-13 20:51:57.86	327.55	4.45	-41.1	-42.8	18.4	0.00e+00	0	28	0	1178599424	54	7056
2026-01-13 20:52:01.90	327.17	4.23	-40.7	-42.3	18.9	0.00e+00	57	28	0	1185939456	54	6623
2026-01-13 20:52:05.94	326.79	4.02	-40.8	-42.5	18.4	0.00e+00	58	28	0	1193279488	54	6810
2026-01-13 20:52:09.97	326.42	3.80	-40.9	-42.6	18.3	0.00e+00	92	28	0	1200619520	54	6878
2026-01-13 20:52:14.01	326.06	3.59	-41.4	-43.3	17.6	0.00e+00	0	28	0	1209008128	54	7481
2026-01-13 20:52:18.04	325.70	3.37	-41.4	-43.3	17.6	0.00e+00	0	28	0	1216348160	54	7467
2026-01-13 20:52:22.08	325.35	3.16	-41.6	-43.5	17.3	0.00e+00	0	28	0	1223688192	56	6844
2026-01-13 20:52:26.12	325.01	2.95	-47.4	-62.5	3.5	1.26e+00	0	28	104	1229979648	60	48403
2026-01-13 20:52:30.15	324.67	2.74	-48.4	-63.6	3.6	1.51e+00	0	28	104	1229979648	60	54492
2026-01-13 20:52:34.19	324.33	2.53	-48.5	-63.7	3.6	1.51e+00	0	28	104	1229979648	60	55344
2026-01-13 20:52:38.23	324.00	2.31	-48.4	-63.6	3.6	1.51e+00	0	28	104	1229979648	60	54954
2026-01-13 20:52:42.27	323.67	2.11	-48.5	-63.7	3.6	1.51e+00	0	28	104	1229979648	60	55097
2026-01-13 20:52:46.31	323.35	1.90	-48.5	-63.6	3.6	1.51e+00	0	28	104	1229979648	60	54846
2026-01-13 20:52:50.35	323.03	1.69	-48.4	-63.5	3.6	1.51e+00	0	28	104	1229979648	60	54373
2026-01-13 20:52:54.38	322.72	1.48	-48.4	-63.6	3.6	1.51e+00	0	28	104	1229979648	60	54589
2026-01-13 20:52:58.42	322.41	1.27	-48.4	-63.6	3.6	1.51e+00	0	28	104	1229979648	60	54627
2026-01-13 20:53:02.46	322.11	1.07	-48.4	-63.5	3.6	1.51e+00	0	28	104	1229979648	60	54360
2026-01-13 20:53:06.50	321.81	0.86	-48.4	-63.5	3.6	1.51e+00	0	28	104	1229979648	60	54310
2026-01-13 20:53:10.54	321.51	0.66	-48.4	-63.6	3.6	1.51e+00	0	28	104	1229979648	60	54510
2026-01-13 20:53:14.58	321.22	0.45	-48.4	-63.5	3.6	1.51e+00	0	28	104	1229979648	60	54025
2026-01-13 20:53:18.62	320.94	0.25	-48.3	-63.5	3.6	1.51e+00	0	28	104	1229979648	60	53896
2026-01-13 20:53:22.66	320.65	0.04	-48.4	-63.5	3.6	1.51e+00	0	28	104	1229979648	60	54311

#Closed at: 2026-01-13 20:53:25
#Recorded file [1229 MB]: D:/lorett/data/35029_260114_084031.dat