passes_logs/2025/01/04/XPeterburg/XPeterburg__20250104_012104_AQUA_rec.log

#Pass ID: 20250104_012104_AQUA
#Satellite: AQUA
#Configuration: AQUA
#Start time: 2025-01-04 01:20:57

#Version: 1.5.20200625
#Station: XPeterburg
#Location: 30.318091 lon 59.932769 lat
#TLE: 1 27424U 02022A   24362.17797472  .00002820  00000+0  59018-3 0  9993
#TLE: 2 27424  98.3558 312.6762 0000863 121.1743 355.2277 14.60570844204873

#Time	Az	El	Level	Level2	SNR	BER	Gain	Gain2
2025-01-04 01:20:57.37	24.93	66.74	-35.3	-45.2	3.3	7709197	87	1849
2025-01-04 01:20:57.77	25.00	66.96	-35.0	-52.5	3.5	7548828	74	4448
2025-01-04 01:20:58.17	25.08	67.17	-35.3	-45.9	3.4	7651062	87	2012
2025-01-04 01:20:58.57	25.15	67.39	-35.3	-46.3	3.5	7572479	87	2117
2025-01-04 01:20:58.97	25.23	67.60	-35.3	-45.6	3.4	7622222	87	1954
2025-01-04 01:20:59.38	25.31	67.82	-35.3	-46.0	3.5	7573394	87	2055
2025-01-04 01:20:59.78	25.39	68.04	-35.2	-45.3	3.4	7599029	87	1901
2025-01-04 01:21:00.18	25.47	68.26	-35.2	-45.6	3.5	7574157	87	1964
2025-01-04 01:21:00.58	25.56	68.47	-35.2	-45.3	3.4	7624969	87	1895
2025-01-04 01:21:00.98	25.64	68.69	-35.2	-45.6	3.5	7564544	87	1972
2025-01-04 01:21:01.39	25.73	68.91	-35.2	-45.1	3.5	7615966	87	1854
2025-01-04 01:21:01.79	25.82	69.13	-35.2	-45.4	3.4	7567291	87	1924
2025-01-04 01:21:02.19	25.91	69.35	-35.2	-45.1	3.5	7590942	87	1870
2025-01-04 01:21:02.59	26.01	69.57	-35.2	-45.6	3.2	7597808	87	1979
2025-01-04 01:21:02.99	26.10	69.79	-35.3	-45.6	3.5	7565917	87	1961
2025-01-04 01:21:03.39	26.20	70.01	-35.3	-45.2	3.4	7663269	87	1874
2025-01-04 01:21:03.80	26.30	70.24	-35.3	-45.8	3.5	7579040	87	2018
2025-01-04 01:21:04.20	26.40	70.46	-35.3	-45.5	3.4	7603912	87	1944
2025-01-04 01:21:04.60	26.51	70.68	-35.3	-46.1	3.5	7575683	87	2085
2025-01-04 01:21:05.00	26.62	70.90	-35.3	-45.7	3.4	7605285	87	1979
2025-01-04 01:21:05.41	26.73	71.13	-35.3	-46.4	3.5	7582092	87	2140
2025-01-04 01:21:05.81	26.84	71.36	-35.3	-45.9	3.4	7585906	87	2012
2025-01-04 01:21:06.21	26.96	71.58	-35.3	-46.3	3.5	7570343	87	2135
2025-01-04 01:21:06.61	27.08	71.80	-35.3	-45.8	3.4	7590332	87	2006
2025-01-04 01:21:07.01	27.20	72.03	-35.3	-46.3	3.5	7565307	87	2124
2025-01-04 01:21:07.41	27.33	72.25	-35.3	-46.0	3.4	7584381	87	2044
2025-01-04 01:21:07.82	27.46	72.48	-35.3	-46.5	3.5	7581787	87	2171
2025-01-04 01:21:08.22	27.59	72.71	-35.3	-46.3	3.4	7622833	87	2112
2025-01-04 01:21:08.62	27.73	72.94	-35.3	-46.7	3.5	7552032	87	2198
2025-01-04 01:21:09.02	27.87	73.16	-35.3	-46.0	3.5	7619934	87	2054
2025-01-04 01:21:09.42	28.01	73.39	-35.3	-46.0	3.4	7566070	87	2052
2025-01-04 01:21:09.83	28.16	73.62	-35.2	-45.1	3.5	7568969	87	1868
2025-01-04 01:21:10.23	28.32	73.85	-35.2	-45.4	3.3	7581024	87	1926
2025-01-04 01:21:10.63	28.47	74.08	-35.3	-45.4	3.5	7560882	87	1921
2025-01-04 01:21:11.03	28.64	74.31	-35.3	-45.4	3.4	7636566	87	1910
2025-01-04 01:21:11.43	28.80	74.53	-35.3	-46.3	3.5	7578735	87	2106
2025-01-04 01:21:11.84	28.98	74.77	-35.3	-46.0	3.4	7635345	87	2040
2025-01-04 01:21:12.24	29.16	75.00	-35.3	-46.6	3.5	7547607	87	2196
2025-01-04 01:21:12.64	29.34	75.23	-35.3	-46.1	3.4	7638397	87	2064
2025-01-04 01:21:13.04	29.53	75.46	-35.3	-46.6	3.5	7590484	87	2183
2025-01-04 01:21:13.44	29.72	75.69	-35.3	-46.1	3.4	7614746	87	2070
2025-01-04 01:21:13.85	29.93	75.92	-35.3	-46.7	3.5	7561950	87	2196
2025-01-04 01:21:14.25	30.14	76.15	-35.3	-46.2	3.4	7644805	87	2086
2025-01-04 01:21:14.65	30.36	76.39	-35.3	-46.7	3.5	7566375	87	2208
2025-01-04 01:21:15.05	30.58	76.62	-35.3	-46.2	3.4	7610168	87	2082
2025-01-04 01:21:15.46	30.82	76.85	-35.3	-46.5	3.5	7600860	87	2169
2025-01-04 01:21:15.86	31.06	77.08	-35.3	-46.3	3.4	7619171	87	2106
2025-01-04 01:21:16.26	31.31	77.32	-35.3	-46.6	3.5	7560119	87	2199
2025-01-04 01:21:16.66	31.57	77.55	-35.3	-46.3	3.5	7605285	87	2121
2025-01-04 01:21:17.06	31.84	77.78	-35.3	-46.7	3.3	7588043	87	2204
2025-01-04 01:21:17.46	32.12	78.01	-35.3	-46.4	3.5	7606353	87	2130
2025-01-04 01:21:17.87	32.42	78.25	-35.3	-46.6	3.2	7539520	87	2180
2025-01-04 01:21:18.27	32.72	78.48	-35.3	-46.3	3.5	7586364	87	2123
2025-01-04 01:21:18.67	33.04	78.71	-35.3	-45.8	3.4	7612457	87	2001
2025-01-04 01:21:19.07	33.37	78.94	-35.3	-46.4	3.5	7596740	87	2135
2025-01-04 01:21:19.47	33.71	79.17	-35.3	-45.9	3.4	7615509	87	2022
2025-01-04 01:21:19.88	34.08	79.41	-35.3	-46.5	3.5	7572174	87	2165
2025-01-04 01:21:20.28	34.46	79.64	-35.3	-46.0	3.4	7616729	87	2034
2025-01-04 01:21:20.68	34.85	79.87	-35.3	-46.5	3.5	7601165	87	2160
2025-01-04 01:21:21.08	35.26	80.11	-35.3	-46.0	3.4	7621612	87	2048
2025-01-04 01:21:21.49	35.71	80.34	-35.3	-46.6	3.5	7577362	87	2195
2025-01-04 01:21:21.89	36.16	80.57	-35.3	-46.1	3.4	7622680	87	2071
2025-01-04 01:21:22.29	36.64	80.80	-35.3	-46.6	3.5	7568511	87	2189
2025-01-04 01:21:22.69	37.14	81.03	-35.3	-46.2	3.4	7607879	87	2098
2025-01-04 01:21:23.10	37.68	81.27	-35.3	-46.7	3.5	7547760	87	2210
2025-01-04 01:21:23.50	38.24	81.50	-35.3	-46.4	3.5	7618560	87	2126
2025-01-04 01:21:23.90	38.83	81.73	-35.3	-46.7	3.5	7604522	87	2199
2025-01-04 01:21:24.30	39.45	81.95	-35.3	-46.4	3.5	7574005	87	2138
2025-01-04 01:21:24.70	40.11	82.18	-35.3	-46.7	3.2	7600250	87	2200
2025-01-04 01:21:25.11	40.83	82.41	-35.3	-46.4	3.5	7592315	87	2147
2025-01-04 01:21:25.51	41.58	82.64	-35.3	-46.0	3.4	7659606	87	2044
2025-01-04 01:21:25.91	42.37	82.86	-35.3	-46.5	3.5	7600860	87	2151
2025-01-04 01:21:26.31	43.21	83.08	-35.3	-46.0	3.4	7635498	87	2029
2025-01-04 01:21:26.71	44.11	83.30	-35.3	-46.5	3.5	7563323	87	2170
2025-01-04 01:21:27.12	45.09	83.53	-35.3	-46.1	3.4	7628631	87	2060
2025-01-04 01:21:27.52	46.12	83.75	-35.3	-46.6	3.5	7598571	87	2185
2025-01-04 01:21:27.92	47.23	83.96	-35.3	-46.1	3.4	7612762	87	2055
2025-01-04 01:21:28.32	48.41	84.18	-35.3	-46.6	3.5	7554321	87	2184
2025-01-04 01:21:28.72	49.69	84.39	-35.3	-46.2	3.4	7595520	87	2076
2025-01-04 01:21:29.13	51.10	84.60	-35.3	-46.7	3.5	7575073	87	2219
2025-01-04 01:21:29.53	52.59	84.80	-35.3	-46.2	3.5	7613983	87	2079
2025-01-04 01:21:29.93	54.20	85.01	-35.3	-46.6	3.5	7595367	87	2196
2025-01-04 01:21:30.33	55.94	85.20	-35.3	-46.2	3.5	7622375	87	2081
2025-01-04 01:21:30.73	57.83	85.39	-35.3	-46.5	3.5	7601013	87	2170
2025-01-04 01:21:31.14	59.94	85.59	-35.3	-46.1	3.4	7577819	87	2069
2025-01-04 01:21:31.54	62.18	85.77	-35.3	-46.5	3.5	7577362	87	2170
2025-01-04 01:21:31.94	64.61	85.94	-35.3	-46.2	3.5	7610473	87	2097
2025-01-04 01:21:32.34	67.26	86.11	-35.3	-46.6	3.3	7598571	87	2184
2025-01-04 01:21:32.74	70.14	86.26	-35.3	-46.4	3.5	7582092	87	2141
2025-01-04 01:21:33.15	73.34	86.41	-35.3	-46.0	3.4	7647399	87	2041
2025-01-04 01:21:33.55	76.72	86.55	-35.3	-46.5	3.5	7537689	87	2164
2025-01-04 01:21:33.95	80.37	86.67	-35.3	-46.0	3.4	7632751	87	2032
2025-01-04 01:21:34.35	84.28	86.78	-35.3	-46.6	3.5	7544555	87	2180
2025-01-04 01:21:34.75	88.44	86.87	-35.3	-46.2	3.4	7610778	87	2078
2025-01-04 01:21:35.15	92.82	86.95	-35.3	-46.6	3.5	7587738	87	2200
2025-01-04 01:21:35.56	97.52	87.00	-35.3	-45.9	3.4	7634277	87	2020
2025-01-04 01:21:35.96	102.24	87.04	-35.3	-46.2	3.5	7557678	87	2090
2025-01-04 01:21:36.36	107.04	87.05	-35.3	-45.6	3.5	7614135	87	1970
2025-01-04 01:21:36.76	111.86	87.05	-35.3	-46.3	3.5	7585296	87	2115
2025-01-04 01:21:37.17	116.75	87.02	-35.3	-46.0	3.4	7612609	87	2051
2025-01-04 01:21:37.57	121.40	86.97	-35.3	-46.8	3.5	7550201	87	2226
2025-01-04 01:21:37.97	125.87	86.91	-35.3	-46.2	3.4	7595062	87	2090
2025-01-04 01:21:38.37	130.14	86.82	-35.3	-46.7	3.5	7560882	87	2209
2025-01-04 01:21:38.77	134.16	86.72	-35.3	-46.2	3.5	7608642	87	2092
2025-01-04 01:21:39.17	137.93	86.61	-35.3	-46.6	3.4	7584533	87	2174
2025-01-04 01:21:39.58	141.52	86.47	-35.3	-46.3	3.5	7605285	87	2107
2025-01-04 01:21:39.98	144.76	86.33	-35.3	-46.6	3.3	7528228	87	2182
2025-01-04 01:21:40.38	147.74	86.18	-35.3	-46.4	3.5	7592163	87	2130
2025-01-04 01:21:40.78	150.50	86.02	-35.3	-45.9	3.4	7640533	87	2014
2025-01-04 01:21:41.19	153.09	85.84	-35.3	-46.3	3.5	7588500	87	2125
2025-01-04 01:21:41.59	155.41	85.66	-35.3	-45.9	3.4	7616271	87	2012
2025-01-04 01:21:41.99	157.54	85.48	-35.3	-46.4	3.5	7620086	87	2145
2025-01-04 01:21:42.39	159.50	85.29	-35.3	-45.9	3.4	7621612	87	2026
2025-01-04 01:21:42.79	161.31	85.09	-35.3	-46.6	3.5	7552032	87	2194
2025-01-04 01:21:43.20	163.02	84.89	-35.3	-46.0	3.4	7630310	87	2051
2025-01-04 01:21:43.60	164.56	84.69	-35.3	-46.6	3.5	7559356	87	2182
2025-01-04 01:21:44.00	165.98	84.48	-35.3	-46.1	3.4	7623291	87	2064
2025-01-04 01:21:44.40	167.30	84.27	-35.3	-46.6	3.5	7606506	87	2183
2025-01-04 01:21:44.80	168.53	84.06	-35.3	-46.2	3.5	7590332	87	2088
2025-01-04 01:21:45.21	169.70	83.84	-35.3	-46.7	3.5	7574310	87	2214
2025-01-04 01:21:45.61	170.76	83.62	-35.3	-46.3	3.4	7633819	87	2105
2025-01-04 01:21:46.01	171.75	83.40	-35.3	-46.5	3.4	7586364	87	2170
2025-01-04 01:21:46.41	172.68	83.18	-35.3	-46.2	3.5	7613067	87	2092
2025-01-04 01:21:46.81	173.54	82.96	-35.3	-46.5	3.3	7543640	87	2170
2025-01-04 01:21:47.22	174.38	82.73	-35.3	-46.3	3.5	7614593	87	2112
2025-01-04 01:21:47.62	175.14	82.51	-35.3	-46.7	3.3	7549896	87	2209
2025-01-04 01:21:48.02	175.86	82.28	-35.3	-46.3	3.5	7583160	87	2127
2025-01-04 01:21:48.42	176.54	82.05	-35.3	-45.9	3.4	7641296	87	2019
2025-01-04 01:21:48.82	177.18	81.83	-35.3	-46.4	3.5	7565612	87	2146
2025-01-04 01:21:49.23	177.80	81.59	-35.3	-46.0	3.4	7649383	87	2046
2025-01-04 01:21:49.63	178.37	81.36	-35.3	-46.6	3.5	7571411	87	2181
2025-01-04 01:21:50.03	178.91	81.13	-35.3	-46.0	3.4	7618560	87	2035
2025-01-04 01:21:50.43	179.42	80.90	-35.3	-46.6	3.5	7586517	87	2184
2025-01-04 01:21:50.83	179.91	80.67	-35.3	-46.1	3.4	7675476	87	2057
2025-01-04 01:21:51.24	180.39	80.44	-35.3	-46.5	3.5	7564544	87	2177
2025-01-04 01:21:51.64	180.83	80.21	-35.3	-46.1	3.4	7601470	87	2065
2025-01-04 01:21:52.04	181.25	79.97	-35.3	-46.6	3.5	7564544	87	2202
2025-01-04 01:21:52.44	181.65	79.74	-35.3	-46.2	3.4	7577209	87	2084
2025-01-04 01:21:52.84	182.04	79.51	-35.3	-46.6	3.5	7556304	87	2184
2025-01-04 01:21:53.24	182.40	79.28	-35.3	-46.3	3.5	7581787	87	2099
2025-01-04 01:21:53.64	182.76	79.05	-35.3	-46.7	3.5	7608337	87	2204
2025-01-04 01:21:54.05	183.10	78.81	-35.3	-46.4	3.5	7595520	87	2135
2025-01-04 01:21:54.45	183.42	78.58	-35.3	-46.6	3.2	7610321	87	2198
2025-01-04 01:21:54.85	183.73	78.35	-35.3	-46.4	3.5	7582550	87	2149
2025-01-04 01:21:55.25	184.03	78.11	-35.3	-46.0	3.4	7618713	87	2039
2025-01-04 01:21:55.66	184.32	77.88	-35.3	-46.5	3.5	7586212	87	2166
2025-01-04 01:21:56.06	184.60	77.64	-35.4	-46.1	3.4	7660980	87	2062
2025-01-04 01:21:56.46	184.86	77.41	-35.3	-46.6	3.5	7565917	87	2179
2025-01-04 01:21:56.86	185.11	77.18	-35.3	-46.0	3.4	7640991	87	2052
2025-01-04 01:21:57.26	185.36	76.95	-35.3	-46.6	3.5	7594909	87	2199
2025-01-04 01:21:57.67	185.60	76.71	-35.3	-46.0	3.4	7615661	87	2036
2025-01-04 01:21:58.07	185.83	76.48	-35.3	-46.4	3.5	7583007	87	2150
2025-01-04 01:21:58.47	186.05	76.25	-35.3	-46.0	3.4	7613677	87	2042
2025-01-04 01:21:58.87	186.26	76.02	-35.3	-46.5	3.5	7607574	87	2162
2025-01-04 01:21:59.27	186.47	75.79	-35.3	-46.1	3.4	7626342	87	2067
2025-01-04 01:21:59.67	186.67	75.56	-35.3	-46.7	3.5	7563476	87	2208
2025-01-04 01:22:00.08	186.86	75.32	-35.3	-46.2	3.4	7633056	87	2094
2025-01-04 01:22:00.48	187.05	75.09	-35.3	-46.7	3.5	7571563	87	2208
2025-01-04 01:22:00.88	187.23	74.86	-35.3	-46.3	3.4	7589569	87	2118
2025-01-04 01:22:01.28	187.40	74.63	-35.3	-46.7	3.5	7601318	87	2216
2025-01-04 01:22:01.69	187.58	74.40	-35.3	-46.3	3.5	7621459	87	2123
2025-01-04 01:22:02.09	187.74	74.17	-35.3	-46.7	3.2	7543334	87	2210
2025-01-04 01:22:02.49	187.90	73.94	-35.3	-46.4	3.5	7569580	87	2136
2025-01-04 01:22:02.89	188.05	73.71	-35.3	-45.9	3.4	7649993	87	2028
2025-01-04 01:22:03.29	188.20	73.48	-35.3	-46.4	3.5	7570495	87	2130
2025-01-04 01:22:03.69	188.35	73.26	-35.3	-45.9	3.4	7621307	87	2026
2025-01-04 01:22:04.10	188.50	73.02	-35.3	-46.5	3.5	7593841	87	2165
2025-01-04 01:22:04.50	188.63	72.80	-35.3	-46.1	3.4	7658386	87	2062
2025-01-04 01:22:04.90	188.77	72.57	-35.3	-46.6	3.5	7537841	87	2193
2025-01-04 01:22:05.30	188.90	72.34	-35.3	-46.1	3.4	7593078	87	2076
2025-01-04 01:22:05.71	189.03	72.11	-35.3	-46.7	3.5	7565460	87	2216
2025-01-04 01:22:06.11	189.15	71.89	-35.3	-46.2	3.4	7621307	87	2084
2025-01-04 01:22:06.51	189.27	71.66	-35.3	-46.7	3.5	7566680	87	2204
2025-01-04 01:22:06.91	189.39	71.44	-35.3	-46.3	3.4	7621459	87	2110
2025-01-04 01:22:07.31	189.50	71.22	-35.3	-46.7	3.5	7551422	87	2213
2025-01-04 01:22:07.72	189.62	70.99	-35.3	-46.2	3.5	7647399	87	2099
2025-01-04 01:22:08.12	189.73	70.76	-35.3	-46.7	3.5	7572479	87	2225
2025-01-04 01:22:08.52	189.83	70.54	-35.3	-46.4	3.5	7615966	87	2127
2025-01-04 01:22:08.92	189.94	70.32	-35.3	-46.7	3.4	7575073	87	2221

#Closed at: 2025-01-04 01:22:09