passes_logs/2025/01/04/XPeterburg/XPeterburg__20250104_101752_SUOMI_NPP_rec.log

#Pass ID: 20250104_101752_SUOMI NPP
#Satellite: SUOMI NPP
#Configuration: NPP
#Start time: 2025-01-04 10:17:46

#Version: 1.5.20200625
#Station: XPeterburg
#Location: 30.318091 lon 59.932769 lat
#TLE: 1 37849U 11061A   24362.17075939  .00000286  00000+0  15639-3 0  9990
#TLE: 2 37849  98.7425 297.4002 0002189  69.4164 290.7247 14.19524990682249

#Time	Az	El	Level	Level2	SNR	BER	Gain	Gain2
2025-01-04 10:17:46.25	149.41	67.40	-38.7	-44.9	3.3	15344726	95	2509
2025-01-04 10:17:46.66	149.32	67.58	-38.7	-56.4	3.6	15271430	73	9538
2025-01-04 10:17:47.06	149.23	67.76	-38.4	-44.9	3.3	15215148	94	2591
2025-01-04 10:17:47.46	149.14	67.94	-38.4	-45.7	3.6	15215148	94	2870
2025-01-04 10:17:47.86	149.05	68.12	-38.3	-44.0	3.4	15143577	94	2390
2025-01-04 10:17:48.26	148.96	68.30	-38.2	-44.7	3.6	15228645	94	2594
2025-01-04 10:17:48.67	148.86	68.48	-38.0	-42.5	3.7	15072853	94	2075
2025-01-04 10:17:49.07	148.76	68.66	-37.8	-42.8	3.7	14737632	94	2197
2025-01-04 10:17:49.47	148.67	68.84	-37.8	-42.2	4.1	14491722	93	2057
2025-01-04 10:17:49.87	148.56	69.02	-37.8	-41.6	4.0	13129890	93	1914
2025-01-04 10:17:50.27	148.46	69.21	-37.7	-41.3	4.1	12239341	93	1871
2025-01-04 10:17:50.68	148.35	69.39	-37.8	-41.7	3.9	11520751	93	1938
2025-01-04 10:17:51.08	148.25	69.57	-38.0	-42.6	3.7	13162857	93	2083
2025-01-04 10:17:51.48	148.14	69.76	-38.0	-43.8	3.7	14481254	93	2421
2025-01-04 10:17:51.88	148.03	69.94	-38.0	-43.0	3.8	14334037	93	2185
2025-01-04 10:17:52.28	147.91	70.12	-38.0	-44.2	3.7	14334037	93	2506
2025-01-04 10:17:52.69	147.80	70.31	-38.0	-43.2	3.7	14766647	93	2244
2025-01-04 10:17:53.09	147.68	70.49	-38.1	-44.4	3.7	14507720	93	2548
2025-01-04 10:17:53.49	147.56	70.68	-38.1	-43.7	3.7	14796279	93	2351
2025-01-04 10:17:53.89	147.44	70.86	-38.1	-44.4	3.7	14790199	93	2566
2025-01-04 10:17:54.30	147.31	71.05	-38.0	-43.2	3.8	14882049	93	2232
2025-01-04 10:17:54.70	147.18	71.23	-37.9	-42.4	3.7	14620597	93	2056
2025-01-04 10:17:55.10	147.05	71.42	-37.9	-42.1	3.8	14396224	93	1995
2025-01-04 10:17:55.50	146.91	71.60	-38.0	-43.9	3.7	13951911	93	2444
2025-01-04 10:17:55.91	146.77	71.79	-38.1	-43.8	3.7	14626152	93	2377
2025-01-04 10:17:56.31	146.64	71.98	-38.3	-45.6	3.4	14909767	93	2842
2025-01-04 10:17:56.71	146.49	72.16	-38.5	-45.7	3.5	15083961	94	2815
2025-01-04 10:17:57.11	146.35	72.35	-38.6	-45.7	3.3	15271789	94	2776
2025-01-04 10:17:57.51	146.20	72.54	-38.8	-47.4	3.5	15271789	94	3300
2025-01-04 10:17:57.92	146.04	72.73	-38.8	-46.3	3.3	15063819	94	2910
2025-01-04 10:17:58.32	145.88	72.91	-39.0	-46.9	3.1	15273849	96	3077
2025-01-04 10:17:58.72	145.72	73.10	-38.9	-45.3	3.4	15044113	96	2575
2025-01-04 10:17:59.12	145.56	73.29	-38.7	-46.3	3.6	15249725	95	2965
2025-01-04 10:17:59.52	145.39	73.47	-38.7	-45.2	3.4	15088676	95	2602
2025-01-04 10:17:59.93	145.22	73.66	-38.6	-45.8	3.6	15242858	95	2823
2025-01-04 10:18:00.33	145.04	73.85	-38.6	-44.9	3.4	15117263	95	2537
2025-01-04 10:18:00.73	144.86	74.04	-38.6	-45.7	3.6	15251846	95	2782
2025-01-04 10:18:01.13	144.68	74.23	-38.6	-45.0	3.5	15100349	95	2582
2025-01-04 10:18:01.53	144.49	74.41	-38.6	-45.9	3.5	15259277	95	2831
2025-01-04 10:18:01.94	144.29	74.61	-38.7	-45.5	3.5	15090950	95	2712
2025-01-04 10:18:02.34	144.09	74.79	-38.7	-45.1	3.3	15090950	95	2577
2025-01-04 10:18:02.74	143.88	74.98	-38.8	-46.3	3.5	15271682	95	2922
2025-01-04 10:18:03.14	143.67	75.17	-38.8	-45.6	3.3	15109756	95	2691
2025-01-04 10:18:03.54	143.46	75.36	-38.8	-46.7	3.6	15252883	95	3073
2025-01-04 10:18:03.95	143.23	75.55	-38.8	-45.7	3.4	15109001	95	2718
2025-01-04 10:18:04.35	143.00	75.74	-38.8	-46.7	3.6	15255058	95	3066
2025-01-04 10:18:04.75	142.77	75.93	-38.8	-45.9	3.4	15118301	95	2767
2025-01-04 10:18:05.15	142.53	76.11	-38.8	-47.1	3.6	15242317	95	3181
2025-01-04 10:18:05.55	142.28	76.30	-38.9	-46.1	3.4	15131263	95	2825
2025-01-04 10:18:05.95	142.03	76.49	-38.8	-47.3	3.6	15237716	95	3240
2025-01-04 10:18:06.36	141.76	76.68	-38.9	-46.1	3.4	15150596	95	2847
2025-01-04 10:18:06.76	141.49	76.87	-38.8	-47.3	3.6	15225875	95	3259
2025-01-04 10:18:07.16	141.21	77.06	-38.8	-46.3	3.4	15155052	95	2893
2025-01-04 10:18:07.56	140.92	77.25	-38.9	-47.2	3.6	15155052	95	3234
2025-01-04 10:18:07.97	140.62	77.44	-38.8	-46.4	3.4	15220893	95	2940
2025-01-04 10:18:08.37	140.31	77.63	-38.8	-47.3	3.6	15149055	95	3261
2025-01-04 10:18:08.77	140.00	77.82	-38.8	-46.5	3.5	15213874	95	2976
2025-01-04 10:18:09.17	139.67	78.00	-38.8	-47.2	3.4	15164344	95	3230
2025-01-04 10:18:09.57	139.34	78.19	-39.0	-46.5	3.5	15194046	96	2927
2025-01-04 10:18:09.98	138.98	78.38	-39.0	-45.7	3.4	15137428	96	2660
2025-01-04 10:18:10.38	138.62	78.57	-38.8	-47.0	3.6	15180702	95	3162
2025-01-04 10:18:10.78	138.25	78.76	-38.8	-46.0	3.4	15157485	95	2820
2025-01-04 10:18:11.18	137.87	78.94	-38.8	-47.1	3.6	15197669	95	3191
2025-01-04 10:18:11.58	137.47	79.13	-38.8	-46.1	3.4	15179153	95	2830
2025-01-04 10:18:11.98	137.06	79.31	-38.8	-47.2	3.6	15188896	95	3218
2025-01-04 10:18:12.39	136.62	79.50	-39.0	-46.1	3.4	15188896	96	2788
2025-01-04 10:18:12.79	136.18	79.69	-38.8	-47.2	3.6	15142585	95	3216
2025-01-04 10:18:13.19	135.72	79.87	-38.8	-46.2	3.4	15133888	95	2893
2025-01-04 10:18:13.59	135.25	80.06	-38.8	-47.2	3.6	15185585	95	3219
2025-01-04 10:18:13.99	134.75	80.24	-38.8	-46.3	3.4	15162193	95	2919
2025-01-04 10:18:14.40	134.23	80.43	-38.8	-47.2	3.6	15216918	95	3243
2025-01-04 10:18:14.80	133.69	80.61	-38.8	-46.3	3.4	15140136	95	2924
2025-01-04 10:18:15.20	133.14	80.79	-38.8	-47.2	3.6	15229888	95	3227
2025-01-04 10:18:15.60	132.56	80.97	-38.8	-46.4	3.5	15130058	95	2948
2025-01-04 10:18:16.00	131.96	81.15	-38.8	-47.2	3.1	15239051	95	3235
2025-01-04 10:18:16.41	131.31	81.33	-38.8	-46.6	3.5	15132255	95	3004
2025-01-04 10:18:16.81	130.66	81.51	-38.8	-45.8	3.3	15251663	95	2746
2025-01-04 10:18:17.21	129.97	81.69	-38.8	-46.8	3.5	15130882	95	3075
2025-01-04 10:18:17.61	129.26	81.86	-38.8	-45.8	3.3	15130882	95	2766
2025-01-04 10:18:18.01	128.52	82.04	-39.0	-46.8	3.6	15263282	96	3052
2025-01-04 10:18:18.42	127.72	82.22	-38.9	-45.9	3.4	15076240	96	2728
2025-01-04 10:18:18.82	126.90	82.39	-39.0	-47.3	2.8	15277420	96	3193
2025-01-04 10:18:19.22	126.05	82.56	-38.9	-46.0	3.4	15036720	96	2762
2025-01-04 10:18:19.62	125.15	82.73	-38.8	-47.2	3.6	15263442	95	3233
2025-01-04 10:18:20.02	124.22	82.90	-38.8	-46.3	3.4	15074569	95	2910
2025-01-04 10:18:20.42	123.23	83.06	-38.8	-47.2	3.6	15266708	95	3242
2025-01-04 10:18:20.83	122.18	83.23	-38.8	-46.3	3.4	15114372	95	2914
2025-01-04 10:18:21.23	121.09	83.39	-38.8	-47.2	3.6	15279411	95	3253
2025-01-04 10:18:21.63	119.96	83.55	-38.8	-46.5	3.5	15107933	95	2978
2025-01-04 10:18:22.03	118.76	83.70	-38.8	-47.2	3.4	15276092	95	3249
2025-01-04 10:18:22.43	117.51	83.86	-38.8	-46.6	3.5	15276092	95	3010
2025-01-04 10:18:22.83	116.19	84.01	-38.8	-45.8	3.3	15102905	95	2745
2025-01-04 10:18:23.24	114.77	84.16	-38.9	-46.5	3.5	15267547	96	2948
2025-01-04 10:18:23.64	113.31	84.30	-38.9	-45.6	3.4	15080726	96	2671
2025-01-04 10:18:24.04	111.77	84.44	-39.0	-46.9	3.6	15217796	96	3085
2025-01-04 10:18:24.44	110.16	84.58	-38.9	-45.8	3.4	15077041	96	2713
2025-01-04 10:18:24.84	108.47	84.71	-38.8	-47.2	3.6	15225105	95	3221
2025-01-04 10:18:25.25	106.64	84.84	-38.8	-46.0	3.4	15116813	95	2806
2025-01-04 10:18:25.65	104.77	84.96	-38.8	-47.1	3.6	15243896	95	3206
2025-01-04 10:18:26.05	102.82	85.07	-38.8	-46.0	3.4	15127662	95	2824
2025-01-04 10:18:26.45	100.77	85.18	-38.8	-47.0	3.6	15243965	95	3189
2025-01-04 10:18:26.86	98.57	85.29	-38.8	-46.1	3.4	15134857	95	2858
2025-01-04 10:18:27.26	96.33	85.38	-38.8	-47.2	3.6	15233306	95	3225
2025-01-04 10:18:27.66	94.00	85.47	-38.8	-46.3	3.4	15233306	95	2904
2025-01-04 10:18:28.06	91.58	85.55	-38.8	-47.2	3.6	15146850	95	3234
2025-01-04 10:18:28.47	89.01	85.63	-38.9	-46.3	3.5	15221527	96	2882
2025-01-04 10:18:28.87	86.42	85.69	-38.8	-47.1	2.8	15115623	95	3213
2025-01-04 10:18:29.27	83.77	85.75	-38.8	-46.6	3.5	15177764	95	3023
2025-01-04 10:18:29.67	81.04	85.79	-38.8	-45.8	3.3	15152000	95	2746
2025-01-04 10:18:30.07	78.27	85.83	-38.8	-46.7	3.5	15201309	95	3061
2025-01-04 10:18:30.47	75.45	85.85	-38.8	-45.8	3.3	15182922	95	2753
2025-01-04 10:18:30.88	72.53	85.87	-38.8	-46.9	3.6	15196777	95	3113
2025-01-04 10:18:31.28	69.67	85.88	-38.8	-45.9	3.4	15182510	95	2784
2025-01-04 10:18:31.68	66.81	85.87	-38.9	-47.1	3.0	15177742	96	3128
2025-01-04 10:18:32.08	63.97	85.85	-38.9	-46.0	3.4	15169975	96	2758
2025-01-04 10:18:32.48	61.15	85.83	-38.8	-47.2	3.6	15169975	95	3231
2025-01-04 10:18:32.89	58.30	85.79	-38.8	-46.2	3.4	15165191	95	2871
2025-01-04 10:18:33.29	55.58	85.75	-38.8	-47.2	3.6	15166191	95	3242
2025-01-04 10:18:33.69	52.92	85.69	-38.9	-46.1	3.4	15188751	96	2826
2025-01-04 10:18:34.09	50.33	85.63	-38.8	-47.1	3.6	15147453	95	3213
2025-01-04 10:18:34.49	47.82	85.56	-38.9	-46.4	3.5	15146064	96	2917
2025-01-04 10:18:34.90	45.34	85.48	-38.8	-47.2	2.9	15158988	95	3254
2025-01-04 10:18:35.30	43.01	85.39	-38.8	-46.6	3.5	15149116	95	3035
2025-01-04 10:18:35.70	40.76	85.29	-38.8	-45.8	3.3	15183471	95	2750
2025-01-04 10:18:35.97	39.30	85.22	-38.8	-47.2	3.6	15163307	95	3244
2025-01-04 10:18:36.38	37.17	85.11	-38.9	-46.0	3.4	15099082	96	2764
2025-01-04 10:18:36.78	35.18	85.00	-38.8	-47.1	3.6	15198974	95	3221
2025-01-04 10:18:37.18	33.28	84.88	-38.8	-46.2	3.4	15144454	95	2885
2025-01-04 10:18:37.58	31.47	84.76	-38.8	-47.1	3.6	15144454	95	3205
2025-01-04 10:18:37.98	29.74	84.63	-38.8	-46.3	3.4	15207786	95	2915
2025-01-04 10:18:38.39	28.06	84.49	-38.8	-47.2	3.6	15165832	95	3243
2025-01-04 10:18:38.79	26.50	84.35	-38.8	-46.4	3.5	15207344	95	2968
2025-01-04 10:18:39.19	25.01	84.21	-38.8	-47.2	3.5	15168342	95	3229
2025-01-04 10:18:39.59	23.60	84.06	-38.9	-46.5	3.5	15194854	96	2925
2025-01-04 10:18:39.99	22.26	83.92	-38.9	-45.6	3.3	15142646	96	2652
2025-01-04 10:18:40.40	20.95	83.76	-38.9	-46.7	3.6	15157180	96	2998
2025-01-04 10:18:40.80	19.73	83.60	-38.9	-45.7	3.3	15137001	96	2684
2025-01-04 10:18:41.20	18.58	83.45	-38.8	-47.0	3.6	15175689	95	3191
2025-01-04 10:18:41.60	17.48	83.29	-38.8	-45.9	3.4	15172058	95	2795
2025-01-04 10:18:42.00	16.43	83.12	-38.8	-47.0	3.6	15219352	95	3176
2025-01-04 10:18:42.41	15.40	82.96	-38.9	-46.0	3.4	15219352	96	2788
2025-01-04 10:18:42.81	14.45	82.79	-38.8	-47.1	3.6	15133430	95	3222
2025-01-04 10:18:43.21	13.54	82.62	-38.8	-46.3	3.4	15167053	95	2912
2025-01-04 10:18:43.61	12.67	82.45	-38.8	-47.1	3.6	15177360	95	3196
2025-01-04 10:18:44.01	11.85	82.28	-38.8	-46.4	3.5	15188980	95	2944
2025-01-04 10:18:44.41	11.05	82.11	-38.8	-47.1	3.6	15194541	95	3212
2025-01-04 10:18:44.82	10.28	81.93	-38.9	-46.3	3.5	15166625	96	2879
2025-01-04 10:18:45.22	9.55	81.75	-38.9	-45.6	3.3	15161064	96	2645
2025-01-04 10:18:45.62	8.86	81.58	-38.9	-46.7	3.6	15161491	96	3017
2025-01-04 10:18:46.02	8.19	81.40	-38.9	-45.7	3.4	15153434	96	2699
2025-01-04 10:18:46.43	7.54	81.22	-38.8	-47.1	3.6	15172111	95	3208
2025-01-04 10:18:46.83	6.93	81.04	-38.8	-46.0	3.4	15170265	95	2816
2025-01-04 10:18:47.23	6.34	80.86	-38.8	-47.2	3.6	15201217	95	3235
2025-01-04 10:18:47.63	5.78	80.68	-38.8	-46.0	3.4	15201217	95	2833
2025-01-04 10:18:48.03	5.24	80.49	-38.8	-47.2	3.6	15191619	95	3228
2025-01-04 10:18:48.44	4.70	80.31	-38.8	-46.2	3.4	15164466	95	2900
2025-01-04 10:18:48.84	4.20	80.12	-38.8	-47.2	3.6	15206039	95	3236
2025-01-04 10:18:49.24	3.72	79.94	-38.9	-46.1	3.4	15140281	96	2819
2025-01-04 10:18:49.64	3.26	79.76	-38.8	-47.2	2.8	15202400	95	3239
2025-01-04 10:18:50.04	2.81	79.57	-38.8	-46.5	3.5	15153755	95	3009
2025-01-04 10:18:50.45	2.37	79.38	-38.8	-45.8	3.3	15199623	95	2758
2025-01-04 10:18:50.85	1.95	79.20	-38.8	-46.7	3.5	15159973	95	3053
2025-01-04 10:18:51.25	1.55	79.01	-38.8	-45.7	3.3	15207878	95	2751
2025-01-04 10:18:51.65	1.16	78.83	-38.9	-46.7	3.6	15108383	96	3030
2025-01-04 10:18:52.05	0.79	78.64	-38.9	-45.7	3.4	15218063	96	2699
2025-01-04 10:18:52.46	0.41	78.45	-39.0	-47.8	3.1	15218063	95	3371
2025-01-04 10:18:52.86	0.06	78.26	-39.0	-46.5	3.4	15082786	95	2926
2025-01-04 10:18:53.26	359.72	78.08	-38.8	-47.1	3.6	15219146	95	3212
2025-01-04 10:18:53.66	359.40	77.89	-38.8	-46.1	3.4	15125411	95	2873
2025-01-04 10:18:54.06	359.08	77.70	-38.8	-47.2	3.6	15209396	95	3244
2025-01-04 10:18:54.47	358.76	77.51	-38.8	-46.3	3.4	15176361	95	2921
2025-01-04 10:18:54.87	358.46	77.32	-38.8	-47.1	3.6	15209777	95	3197
2025-01-04 10:18:55.27	358.17	77.13	-38.9	-46.2	3.5	15131187	96	2838
2025-01-04 10:18:55.67	357.89	76.95	-38.9	-45.6	3.3	15218849	96	2652
2025-01-04 10:18:56.07	357.62	76.76	-38.8	-46.7	3.5	15147911	95	3068
2025-01-04 10:18:56.48	357.35	76.57	-38.8	-45.8	3.4	15202499	95	2767
2025-01-04 10:18:56.88	357.09	76.38	-38.8	-47.0	3.6	15182533	95	3173
2025-01-04 10:18:57.28	356.84	76.19	-38.8	-45.9	3.4	15193771	95	2787
2025-01-04 10:18:57.68	356.60	76.00	-38.8	-47.1	3.6	15193771	95	3212
2025-01-04 10:18:58.09	356.35	75.81	-38.8	-46.0	3.4	15164939	95	2825
2025-01-04 10:18:58.49	356.12	75.62	-38.8	-47.1	3.6	15198135	95	3204
2025-01-04 10:18:58.89	355.90	75.43	-38.8	-46.2	3.4	15160552	95	2876
2025-01-04 10:18:59.29	355.68	75.25	-38.8	-47.1	3.6	15221946	95	3211
2025-01-04 10:18:59.69	355.47	75.06	-38.8	-46.3	3.4	15145683	95	2924
2025-01-04 10:19:00.10	355.26	74.87	-38.8	-47.2	3.6	15242050	95	3236
2025-01-04 10:19:00.50	355.06	74.68	-38.8	-46.3	3.5	15145286	95	2939
2025-01-04 10:19:00.90	354.86	74.49	-38.8	-47.2	3.3	15230377	95	3235
2025-01-04 10:19:01.30	354.67	74.30	-38.8	-46.5	3.5	15132812	95	3000
2025-01-04 10:19:01.70	354.49	74.12	-38.8	-45.7	3.3	15250617	95	2722
2025-01-04 10:19:02.11	354.30	73.93	-39.0	-47.2	3.5	15085258	95	3154
2025-01-04 10:19:02.51	354.12	73.74	-39.0	-46.2	3.4	15085258	95	2835
2025-01-04 10:19:02.91	353.95	73.55	-38.8	-46.9	3.6	15253677	95	3130
2025-01-04 10:19:03.31	353.78	73.37	-38.8	-45.9	3.4	15078643	95	2794
2025-01-04 10:19:03.71	353.61	73.18	-38.8	-47.0	3.6	15278190	95	3189
2025-01-04 10:19:04.12	353.45	72.99	-38.8	-45.8	3.4	15101264	95	2763
2025-01-04 10:19:04.52	353.29	72.80	-38.8	-47.0	3.6	15271499	95	3178
2025-01-04 10:19:04.92	353.14	72.62	-38.8	-45.9	3.4	15100372	95	2810
2025-01-04 10:19:05.32	352.99	72.43	-38.8	-47.1	3.6	15259002	95	3214
2025-01-04 10:19:05.72	352.84	72.25	-38.8	-46.0	3.4	15104827	95	2846
2025-01-04 10:19:06.13	352.69	72.06	-38.8	-47.1	3.6	15258979	95	3217
2025-01-04 10:19:06.53	352.55	71.87	-38.8	-46.1	3.4	15109863	95	2873
2025-01-04 10:19:06.93	352.42	71.69	-38.8	-47.1	3.6	15250823	95	3226
2025-01-04 10:19:07.33	352.28	71.50	-38.8	-46.3	3.4	15129364	95	2922
2025-01-04 10:19:07.73	352.15	71.32	-38.8	-47.1	3.6	15129364	95	3225
2025-01-04 10:19:08.14	352.02	71.13	-38.8	-46.4	3.4	15239524	95	2951
2025-01-04 10:19:08.54	351.89	70.94	-38.8	-47.2	3.3	15136360	95	3235
2025-01-04 10:19:08.94	351.77	70.76	-38.8	-46.6	3.5	15231185	95	3018
2025-01-04 10:19:09.34	351.65	70.58	-38.8	-45.8	3.3	15164764	95	2747
2025-01-04 10:19:09.74	351.53	70.39	-38.8	-46.7	3.5	15233291	95	3075
2025-01-04 10:19:10.15	351.41	70.21	-38.8	-45.9	3.3	15156066	95	2782

#Closed at: 2025-01-04 10:19:10