passes_logs/2025/01/05/XPeterburg/XPeterburg__20250105_144534_FENGYUN_3E_rec.log

#Pass ID: 20250105_144534_FENGYUN 3E
#Satellite: FENGYUN 3E
#Configuration: FENGYUN 3E
#Start time: 2025-01-05 14:45:28

#Version: 1.5.20200625
#Station: XPeterburg
#Location: 30.318091 lon 59.932769 lat
#TLE: 1 49008U 21062A   24362.16046100  .00000127  00000+0  80596-4 0  9998
#TLE: 2 49008  98.7386   0.9208 0001625 158.3591 201.7655 14.19826678180376

#Time	Az	El	Level	Level2	SNR	BER	Gain	Gain2
2025-01-05 14:45:28.61	187.46	67.76	-38.2	-40.8	3.3	8381744	94	6593
2025-01-05 14:45:29.01	187.68	67.93	-37.8	-51.3	3.5	8268550	73	23222
2025-01-05 14:45:29.41	187.91	68.09	-38.3	-41.3	3.3	8404163	93	6960
2025-01-05 14:45:29.81	188.13	68.26	-38.2	-42.1	3.6	8376949	94	7655
2025-01-05 14:45:30.22	188.37	68.42	-38.2	-40.7	3.3	8404060	94	6559
2025-01-05 14:45:30.62	188.60	68.59	-38.2	-42.2	3.6	8426410	94	7798
2025-01-05 14:45:31.02	188.84	68.75	-38.2	-40.7	3.3	8434627	94	6552
2025-01-05 14:45:31.42	189.08	68.92	-38.2	-42.1	3.6	8385898	94	7689
2025-01-05 14:45:31.83	189.33	69.09	-38.2	-40.9	3.3	8417827	94	6685
2025-01-05 14:45:32.23	189.58	69.25	-38.2	-42.1	3.6	8396713	94	7702
2025-01-05 14:45:32.63	189.84	69.42	-38.2	-40.9	3.4	8414314	94	6740
2025-01-05 14:45:33.03	190.10	69.58	-38.2	-42.1	3.6	8395637	94	7726
2025-01-05 14:45:33.44	190.37	69.75	-38.2	-41.0	3.4	8439033	94	6829
2025-01-05 14:45:33.84	190.64	69.91	-38.2	-40.6	3.3	8380393	94	6529
2025-01-05 14:45:34.24	190.91	70.08	-38.2	-41.3	3.4	8387523	94	7062
2025-01-05 14:45:34.64	191.19	70.24	-38.2	-40.6	3.3	8403453	94	6474
2025-01-05 14:45:35.05	191.48	70.41	-38.2	-42.0	3.6	8371089	94	7669
2025-01-05 14:45:35.45	191.76	70.57	-38.2	-40.6	3.3	8397846	94	6527
2025-01-05 14:45:35.85	192.06	70.73	-38.2	-42.1	3.6	8452354	94	7707
2025-01-05 14:45:36.25	192.36	70.90	-38.2	-40.6	3.3	8394161	94	6550
2025-01-05 14:45:36.65	192.66	71.06	-38.1	-42.0	3.6	8407722	94	7642
2025-01-05 14:45:37.06	192.98	71.23	-38.1	-40.6	3.3	8420356	94	6509
2025-01-05 14:45:37.46	193.29	71.39	-38.1	-42.0	3.6	8415092	94	7703
2025-01-05 14:45:37.86	193.61	71.55	-38.2	-40.5	3.3	8403751	94	6474
2025-01-05 14:45:38.26	193.94	71.71	-38.2	-42.1	3.6	8393508	94	7718
2025-01-05 14:45:38.66	194.27	71.87	-38.1	-40.7	3.3	8432407	94	6577
2025-01-05 14:45:39.06	194.61	72.03	-38.2	-42.1	3.6	8396896	94	7723
2025-01-05 14:45:39.47	194.97	72.20	-38.2	-40.8	3.4	8425838	94	6668
2025-01-05 14:45:39.87	195.32	72.36	-38.1	-42.0	3.6	8402709	94	7684
2025-01-05 14:45:40.27	195.68	72.52	-38.2	-41.0	3.4	8442970	94	6790
2025-01-05 14:45:40.67	196.04	72.68	-38.2	-40.6	3.3	8398155	94	6484
2025-01-05 14:45:41.08	196.43	72.84	-38.3	-41.4	3.4	8443153	94	7036
2025-01-05 14:45:41.48	196.81	73.00	-38.2	-40.7	3.3	8409862	94	6548
2025-01-05 14:45:41.88	197.19	73.16	-38.3	-41.6	3.5	8428127	94	7232
2025-01-05 14:45:42.28	197.59	73.31	-38.3	-40.7	3.3	8411304	94	6513
2025-01-05 14:45:42.68	197.99	73.47	-38.3	-42.0	3.6	8445316	94	7561
2025-01-05 14:45:43.09	198.42	73.63	-38.3	-40.7	3.3	8391323	94	6553
2025-01-05 14:45:43.49	198.84	73.79	-38.2	-42.1	3.6	8399677	94	7725
2025-01-05 14:45:43.89	199.27	73.94	-38.3	-40.7	3.3	8416145	94	6513
2025-01-05 14:45:44.29	199.70	74.09	-38.2	-42.1	3.6	8363079	94	7702
2025-01-05 14:45:44.69	200.15	74.25	-38.2	-40.7	3.3	8412517	94	6543
2025-01-05 14:45:45.10	200.62	74.40	-38.2	-42.1	3.6	8393692	94	7730
2025-01-05 14:45:45.50	201.08	74.56	-38.2	-41.0	3.3	8442546	94	6779
2025-01-05 14:45:45.90	201.56	74.71	-38.2	-42.1	3.6	8383415	94	7741
2025-01-05 14:45:46.30	202.04	74.86	-38.2	-40.8	3.4	8431755	94	6638
2025-01-05 14:45:46.70	202.53	75.01	-38.2	-42.1	3.6	8398601	94	7705
2025-01-05 14:45:47.11	203.05	75.16	-38.2	-41.0	3.4	8449985	94	6795
2025-01-05 14:45:47.51	203.57	75.31	-38.1	-40.5	3.3	8397926	94	6454
2025-01-05 14:45:47.91	204.09	75.45	-38.2	-41.2	3.4	8439731	94	6950
2025-01-05 14:45:48.31	204.63	75.60	-38.2	-40.5	3.3	8398326	94	6434
2025-01-05 14:45:48.71	205.18	75.74	-38.4	-41.5	3.5	8417987	95	6994
2025-01-05 14:45:49.11	205.74	75.89	-38.4	-40.5	3.3	8405628	95	6286
2025-01-05 14:45:49.51	206.31	76.03	-38.2	-42.0	3.6	8382911	94	7634
2025-01-05 14:45:49.92	206.91	76.17	-38.2	-40.6	3.3	8402263	94	6485
2025-01-05 14:45:50.32	207.51	76.31	-38.2	-42.1	3.6	8379226	94	7723
2025-01-05 14:45:50.72	208.12	76.45	-38.2	-40.6	3.3	8427486	94	6489
2025-01-05 14:45:51.12	208.74	76.59	-38.2	-42.1	3.6	8400844	94	7744
2025-01-05 14:45:51.52	209.37	76.72	-38.4	-40.7	3.4	8361511	95	6382
2025-01-05 14:45:51.93	210.04	76.86	-38.2	-42.0	3.6	8350261	94	7684
2025-01-05 14:45:52.33	210.70	76.99	-38.1	-40.8	3.4	8437614	94	6694
2025-01-05 14:45:52.73	211.38	77.12	-38.2	-42.0	3.6	8387008	94	7648
2025-01-05 14:45:53.13	212.07	77.25	-38.1	-40.9	3.4	8429889	94	6766
2025-01-05 14:45:53.54	212.79	77.38	-38.2	-40.6	3.3	8388324	94	6490
2025-01-05 14:45:53.94	213.51	77.51	-38.1	-41.2	3.4	8440841	94	6987
2025-01-05 14:45:54.34	214.25	77.63	-38.1	-40.5	3.3	8390979	94	6490
2025-01-05 14:45:54.74	215.00	77.76	-38.2	-41.4	3.5	8444023	94	7181
2025-01-05 14:45:55.14	215.76	77.87	-38.1	-40.5	3.3	8396186	94	6478
2025-01-05 14:45:55.54	216.54	77.99	-38.3	-41.7	3.6	8417495	95	7256
2025-01-05 14:45:55.95	217.36	78.11	-38.3	-40.3	3.3	8416763	95	6188
2025-01-05 14:45:56.35	218.17	78.22	-38.1	-41.9	3.6	8352424	94	7586
2025-01-05 14:45:56.75	219.00	78.34	-38.1	-40.5	3.3	8421867	94	6460
2025-01-05 14:45:57.15	219.84	78.44	-38.1	-41.8	3.6	8384044	94	7534
2025-01-05 14:45:57.55	220.70	78.55	-38.1	-40.3	3.3	8431755	94	6367
2025-01-05 14:45:57.96	221.60	78.66	-38.1	-41.8	3.6	8379295	94	7548
2025-01-05 14:45:58.36	222.50	78.76	-38.1	-40.5	3.3	8425895	94	6488
2025-01-05 14:45:58.76	223.41	78.86	-38.1	-41.8	3.6	8400478	94	7527
2025-01-05 14:45:59.16	224.33	78.95	-38.1	-40.6	3.4	8440143	94	6559
2025-01-05 14:45:59.56	225.28	79.05	-38.1	-41.8	3.6	8396873	94	7547
2025-01-05 14:45:59.97	226.26	79.14	-38.1	-40.7	3.4	8428653	94	6684
2025-01-05 14:46:00.37	227.23	79.22	-38.1	-40.4	3.3	8394287	94	6420
2025-01-05 14:46:00.77	228.23	79.31	-38.4	-41.1	3.5	8373836	95	6759
2025-01-05 14:46:01.17	229.23	79.39	-38.3	-40.4	3.3	8409416	95	6228
2025-01-05 14:46:01.57	230.25	79.47	-38.6	-42.3	1.5	8376777	95	7546
2025-01-05 14:46:01.98	231.32	79.54	-38.0	-40.2	3.3	8402400	94	6327
2025-01-05 14:46:02.38	232.37	79.61	-38.3	-41.8	3.6	8374694	95	7377
2025-01-05 14:46:02.78	233.44	79.68	-38.3	-40.4	3.3	8449253	95	6267
2025-01-05 14:46:03.18	234.52	79.74	-38.3	-41.9	3.6	8392776	95	7406
2025-01-05 14:46:03.59	235.64	79.81	-38.3	-40.6	3.3	8424957	95	6371
2025-01-05 14:46:03.99	236.75	79.86	-38.3	-41.9	3.6	8414794	95	7435
2025-01-05 14:46:04.39	237.86	79.92	-38.4	-40.8	3.4	8446517	95	6501
2025-01-05 14:46:04.79	239.00	79.96	-38.3	-41.9	3.6	8400260	95	7407
2025-01-05 14:46:05.19	240.14	80.01	-38.4	-40.9	3.4	8437774	95	6603
2025-01-05 14:46:05.59	241.29	80.05	-38.4	-40.5	3.3	8396747	95	6267
2025-01-05 14:46:06.00	242.48	80.09	-38.4	-41.1	3.4	8436012	95	6785
2025-01-05 14:46:06.40	243.65	80.12	-38.4	-40.5	3.3	8400638	95	6287
2025-01-05 14:46:06.80	244.82	80.15	-38.4	-41.4	3.5	8447261	95	7001
2025-01-05 14:46:07.20	246.01	80.18	-38.4	-40.6	3.3	8398647	95	6327
2025-01-05 14:46:07.60	247.20	80.20	-38.3	-41.4	3.5	8444355	95	6982
2025-01-05 14:46:08.01	248.42	80.21	-38.5	-40.6	3.3	8400272	95	6261
2025-01-05 14:46:08.41	249.62	80.23	-38.4	-41.7	3.6	8430244	95	7184
2025-01-05 14:46:08.81	250.82	80.23	-38.4	-40.5	3.3	8415401	95	6251
2025-01-05 14:46:09.21	252.02	80.24	-38.4	-41.9	3.6	8420425	95	7368
2025-01-05 14:46:09.61	253.22	80.24	-38.4	-40.4	3.3	8435131	95	6237
2025-01-05 14:46:10.02	254.45	80.23	-38.3	-41.7	3.6	8386917	95	7285
2025-01-05 14:46:10.42	255.65	80.22	-38.4	-40.4	3.3	8373058	95	6222
2025-01-05 14:46:10.82	256.85	80.21	-38.3	-41.6	3.6	8365150	95	7230
2025-01-05 14:46:11.22	258.04	80.19	-38.3	-40.4	3.3	8418823	95	6275
2025-01-05 14:46:11.62	259.23	80.17	-38.3	-41.6	3.6	8388439	95	7181
2025-01-05 14:46:12.03	260.44	80.15	-38.3	-40.5	3.4	8442249	95	6320
2025-01-05 14:46:12.43	261.61	80.12	-38.3	-41.8	3.6	8384410	95	7334
2025-01-05 14:46:12.83	262.78	80.08	-38.3	-40.8	3.4	8435428	95	6542
2025-01-05 14:46:13.23	263.94	80.05	-38.3	-40.5	3.3	8390625	95	6285
2025-01-05 14:46:13.64	265.12	80.00	-38.4	-41.2	3.4	8444126	95	6801
2025-01-05 14:46:14.04	266.26	79.96	-38.4	-40.5	3.3	8408157	95	6276
2025-01-05 14:46:14.44	267.39	79.91	-38.4	-41.4	3.5	8438838	95	6994
2025-01-05 14:46:14.84	268.51	79.85	-38.4	-40.6	3.3	8422622	95	6358
2025-01-05 14:46:15.24	269.61	79.80	-38.4	-41.7	3.6	8432762	95	7251
2025-01-05 14:46:15.65	270.73	79.74	-38.4	-40.5	3.3	8402000	95	6287
2025-01-05 14:46:16.05	271.81	79.67	-38.4	-42.0	3.6	8440406	95	7448
2025-01-05 14:46:16.45	272.87	79.60	-38.3	-40.5	3.3	8436916	95	6304
2025-01-05 14:46:16.85	273.92	79.53	-38.3	-41.9	3.6	8418273	95	7416
2025-01-05 14:46:17.25	274.96	79.46	-38.4	-40.6	3.3	8363136	95	6335
2025-01-05 14:46:17.65	275.98	79.38	-38.4	-42.0	3.6	8336860	95	7438
2025-01-05 14:46:18.06	277.00	79.30	-38.4	-40.7	3.3	8439319	95	6434
2025-01-05 14:46:18.46	277.99	79.21	-38.3	-42.0	3.6	8388828	95	7516
2025-01-05 14:46:18.86	278.97	79.12	-38.3	-40.8	3.4	8394149	95	6560
2025-01-05 14:46:19.26	279.92	79.03	-38.3	-40.3	3.3	8398315	95	6231
2025-01-05 14:46:19.66	280.86	78.94	-38.4	-41.4	3.5	8376514	95	6962
2025-01-05 14:46:20.07	281.81	78.84	-38.4	-40.4	3.3	8386058	95	6227
2025-01-05 14:46:20.47	282.72	78.74	-38.0	-41.6	3.6	8358329	94	7423
2025-01-05 14:46:20.87	283.61	78.64	-38.0	-40.2	3.3	8414611	94	6303
2025-01-05 14:46:21.27	284.48	78.54	-38.0	-41.6	3.6	8423229	94	7416
2025-01-05 14:46:21.67	285.34	78.43	-38.1	-40.2	3.3	8409553	94	6304
2025-01-05 14:46:22.08	286.20	78.32	-38.0	-41.6	3.6	8397697	94	7418
2025-01-05 14:46:22.48	287.03	78.21	-38.0	-40.2	3.3	8433746	94	6334
2025-01-05 14:46:22.88	287.84	78.09	-38.0	-41.6	3.6	8383037	94	7390
2025-01-05 14:46:23.28	288.63	77.98	-38.3	-40.5	3.4	8369338	95	6352
2025-01-05 14:46:23.68	289.41	77.86	-38.3	-40.3	3.3	8403774	95	6167
2025-01-05 14:46:24.08	290.17	77.74	-38.1	-41.1	3.4	8454334	94	6982
2025-01-05 14:46:24.49	290.94	77.62	-38.0	-40.3	3.3	8397628	94	6347
2025-01-05 14:46:24.89	291.67	77.49	-38.0	-41.1	3.5	8441654	94	6978
2025-01-05 14:46:25.29	292.39	77.37	-38.1	-40.3	3.3	8411235	94	6342
2025-01-05 14:46:25.69	293.09	77.24	-38.0	-41.5	3.6	8422016	94	7309
2025-01-05 14:46:26.10	293.80	77.11	-38.1	-40.2	3.3	8409290	94	6307
2025-01-05 14:46:26.50	294.47	76.98	-38.0	-41.6	3.6	8423126	94	7460
2025-01-05 14:46:26.90	295.13	76.84	-38.0	-40.2	3.3	8428276	94	6312
2025-01-05 14:46:27.30	295.78	76.71	-38.1	-41.6	3.6	8394859	94	7420
2025-01-05 14:46:27.70	296.41	76.57	-38.0	-40.2	3.3	8416980	94	6288
2025-01-05 14:46:28.11	297.05	76.43	-38.1	-41.7	3.6	8406967	94	7490
2025-01-05 14:46:28.51	297.65	76.30	-38.1	-40.2	3.3	8401771	94	6320
2025-01-05 14:46:28.91	298.25	76.16	-38.1	-41.7	3.6	8424842	94	7473
2025-01-05 14:46:29.31	298.83	76.01	-38.1	-40.3	3.3	8433963	94	6371
2025-01-05 14:46:29.71	299.40	75.87	-38.0	-41.6	3.6	8388061	94	7388
2025-01-05 14:46:30.12	299.97	75.73	-38.1	-40.5	3.4	8427738	94	6489
2025-01-05 14:46:30.52	300.52	75.58	-38.0	-41.5	3.6	8395076	94	7358
2025-01-05 14:46:30.92	301.05	75.44	-38.0	-40.5	3.4	8436733	94	6537
2025-01-05 14:46:31.32	301.58	75.29	-38.0	-40.0	3.3	8391437	94	6167
2025-01-05 14:46:31.72	302.09	75.14	-38.3	-41.1	3.5	8378906	95	6725
2025-01-05 14:46:32.13	302.61	74.99	-38.4	-40.3	3.3	8399311	95	6177
2025-01-05 14:46:32.53	303.10	74.84	-38.1	-41.3	3.5	8370529	94	7116
2025-01-05 14:46:32.93	303.58	74.69	-38.1	-40.3	3.3	8396118	94	6392
2025-01-05 14:46:33.33	304.05	74.54	-38.1	-41.9	3.6	8410320	94	7618
2025-01-05 14:46:33.73	304.52	74.39	-38.1	-40.4	3.3	8405044	94	6433
2025-01-05 14:46:34.14	304.98	74.23	-38.1	-41.9	3.6	8397605	94	7647
2025-01-05 14:46:34.54	305.43	74.08	-38.1	-40.4	3.3	8443531	94	6428
2025-01-05 14:46:34.94	305.86	73.92	-38.1	-41.8	3.6	8398200	94	7541
2025-01-05 14:46:35.34	306.29	73.77	-38.1	-40.4	3.3	8421627	94	6428
2025-01-05 14:46:35.74	306.71	73.61	-38.1	-41.7	3.6	8388359	94	7450
2025-01-05 14:46:36.15	307.13	73.45	-38.3	-40.5	3.4	8388027	95	6334
2025-01-05 14:46:36.55	307.53	73.30	-38.3	-40.3	3.3	8397548	95	6217
2025-01-05 14:46:36.95	307.93	73.14	-38.3	-41.1	3.5	8437431	95	6746
2025-01-05 14:46:37.35	308.31	72.98	-38.4	-40.4	3.3	8390567	95	6233
2025-01-05 14:46:37.75	308.69	72.82	-38.4	-41.2	3.5	8372840	95	6799
2025-01-05 14:46:38.16	309.07	72.66	-38.4	-40.6	3.3	8412174	95	6313
2025-01-05 14:46:38.56	309.44	72.50	-38.2	-41.6	3.5	8383460	94	7285
2025-01-05 14:46:38.96	309.80	72.34	-38.2	-40.6	3.3	8393600	94	6506
2025-01-05 14:46:39.36	310.15	72.18	-38.2	-42.0	3.6	8444950	94	7686
2025-01-05 14:46:39.76	310.49	72.02	-38.4	-40.6	3.3	8365665	95	6350
2025-01-05 14:46:40.17	310.84	71.86	-38.2	-42.0	3.6	8395099	94	7683
2025-01-05 14:46:40.57	311.17	71.70	-38.4	-40.8	3.3	8377796	95	6460
2025-01-05 14:46:40.97	311.50	71.53	-38.2	-42.0	3.6	8344734	94	7643
2025-01-05 14:46:41.37	311.82	71.37	-38.4	-41.2	3.4	8442295	95	6750
2025-01-05 14:46:41.78	312.14	71.21	-38.4	-40.6	3.3	8391574	95	6315
2025-01-05 14:46:42.18	312.45	71.05	-38.1	-41.5	3.5	8442844	94	7248
2025-01-05 14:46:42.58	312.75	70.88	-38.1	-40.5	3.3	8378311	94	6470
2025-01-05 14:46:42.98	313.05	70.72	-38.1	-42.0	3.6	8408626	94	7667
2025-01-05 14:46:43.38	313.34	70.56	-38.4	-40.5	3.3	8387454	95	6277
2025-01-05 14:46:43.79	313.63	70.39	-38.1	-42.0	3.6	8356636	94	7693
2025-01-05 14:46:44.19	313.92	70.23	-38.3	-40.4	3.3	8428001	95	6265
2025-01-05 14:46:44.59	314.19	70.06	-38.1	-42.1	3.6	8383277	94	7723

#Closed at: 2025-01-05 14:46:44