passes_logs/2025/01/05/XPeterburg/XPeterburg__20250105_113437_FENGYUN_3D_rec.log

#Pass ID: 20250105_113437_FENGYUN 3D
#Satellite: FENGYUN 3D
#Configuration: FENGYUN 3D
#Start time: 2025-01-05 11:34:31

#Version: 1.5.20200625
#Station: XPeterburg
#Location: 30.318091 lon 59.932769 lat
#TLE: 1 43010U 17072A   24362.16670685  .00000332  00000+0  17913-3 0  9992
#TLE: 2 43010  98.9391 318.2242 0002184 121.2776 238.8614 14.19528556368793

#Time	Az	El	Level	Level2	SNR	BER	Gain	Gain2
2025-01-05 11:34:31.17	131.51	67.76	-38.6	-42.0	3.3	8388278	94	3633
2025-01-05 11:34:31.57	131.28	67.92	-38.3	-53.2	3.5	7575290	72	13788
2025-01-05 11:34:31.97	131.05	68.09	-38.6	-42.1	3.3	8395008	94	3672
2025-01-05 11:34:32.37	130.82	68.25	-38.6	-43.4	3.6	8424110	94	4260
2025-01-05 11:34:32.77	130.58	68.41	-38.6	-42.1	3.3	8429214	94	3684
2025-01-05 11:34:33.18	130.33	68.58	-38.6	-43.8	3.6	8429466	94	4440
2025-01-05 11:34:33.58	130.08	68.74	-38.6	-42.3	3.3	8427040	94	3748
2025-01-05 11:34:33.98	129.83	68.91	-38.6	-43.7	3.6	8390819	94	4430
2025-01-05 11:34:34.38	129.58	69.07	-38.6	-42.3	3.3	8418983	94	3750
2025-01-05 11:34:34.79	129.31	69.24	-38.6	-43.7	3.6	8386276	94	4408
2025-01-05 11:34:35.19	129.05	69.40	-38.6	-42.5	3.4	8430255	94	3844
2025-01-05 11:34:35.59	128.78	69.56	-38.7	-43.6	3.6	8392124	94	4335
2025-01-05 11:34:35.99	128.51	69.73	-38.6	-42.5	3.4	8449378	94	3848
2025-01-05 11:34:36.39	128.23	69.89	-38.6	-43.7	3.6	8399642	94	4398
2025-01-05 11:34:36.80	127.94	70.05	-38.6	-42.7	3.4	8450969	94	3927
2025-01-05 11:34:37.20	127.66	70.22	-38.6	-42.0	3.3	8412643	94	3619
2025-01-05 11:34:37.60	127.36	70.38	-38.6	-42.9	3.4	8440818	94	4022
2025-01-05 11:34:38.00	127.07	70.54	-38.7	-42.3	3.3	8410732	94	3711
2025-01-05 11:34:38.40	126.76	70.70	-38.7	-43.1	3.5	8398933	94	4099
2025-01-05 11:34:38.80	126.46	70.86	-38.7	-42.2	3.3	8413375	94	3678
2025-01-05 11:34:39.21	126.13	71.03	-38.7	-43.4	3.6	8407093	94	4227
2025-01-05 11:34:39.61	125.81	71.19	-38.6	-42.1	3.3	8411933	94	3647
2025-01-05 11:34:40.01	125.49	71.35	-38.6	-43.4	3.6	8404438	94	4290
2025-01-05 11:34:40.41	125.16	71.50	-38.6	-42.0	3.3	8449550	94	3638
2025-01-05 11:34:40.81	124.82	71.66	-38.6	-43.4	3.6	8407321	94	4274
2025-01-05 11:34:41.21	124.47	71.82	-38.6	-41.9	3.3	8425952	94	3620
2025-01-05 11:34:41.62	124.12	71.99	-38.6	-43.3	3.6	8414920	94	4258
2025-01-05 11:34:42.02	123.76	72.14	-38.6	-42.0	3.3	8436904	94	3647
2025-01-05 11:34:42.42	123.39	72.30	-38.6	-43.5	3.6	8391368	94	4342
2025-01-05 11:34:42.82	123.02	72.46	-38.6	-42.1	3.4	8424888	94	3691
2025-01-05 11:34:43.22	122.65	72.62	-38.6	-43.3	3.6	8393371	94	4272
2025-01-05 11:34:43.63	122.25	72.78	-38.6	-42.3	3.4	8426330	94	3774
2025-01-05 11:34:44.03	121.86	72.93	-38.6	-43.4	3.6	8396598	94	4268
2025-01-05 11:34:44.43	121.46	73.09	-38.6	-42.4	3.4	8436939	94	3826
2025-01-05 11:34:44.83	121.05	73.24	-38.6	-42.0	3.3	8396839	94	3617
2025-01-05 11:34:45.23	120.63	73.39	-38.6	-43.0	3.5	8439697	94	4061
2025-01-05 11:34:45.63	120.21	73.55	-38.7	-42.2	3.3	8423881	94	3680
2025-01-05 11:34:46.04	119.77	73.70	-38.7	-43.1	3.5	8434730	94	4124
2025-01-05 11:34:46.44	119.32	73.86	-38.7	-42.2	3.3	8423583	94	3686
2025-01-05 11:34:46.84	118.87	74.01	-38.6	-43.4	3.6	8442615	94	4234
2025-01-05 11:34:47.24	118.42	74.16	-38.6	-42.0	3.3	8417690	94	3630
2025-01-05 11:34:47.64	117.95	74.31	-38.7	-43.6	3.6	8390029	94	4373
2025-01-05 11:34:48.05	117.46	74.46	-38.6	-42.1	3.3	8408866	94	3668
2025-01-05 11:34:48.45	116.97	74.61	-38.6	-43.4	3.6	8401451	94	4293
2025-01-05 11:34:48.85	116.47	74.75	-38.6	-42.2	3.3	8452262	94	3722
2025-01-05 11:34:49.25	115.97	74.90	-38.6	-43.4	3.6	8398338	94	4276
2025-01-05 11:34:49.65	115.45	75.04	-38.6	-42.1	3.4	8448120	94	3664
2025-01-05 11:34:50.06	114.91	75.19	-38.6	-43.4	3.6	8413833	94	4263
2025-01-05 11:34:50.46	114.37	75.33	-38.6	-42.2	3.4	8430942	94	3747
2025-01-05 11:34:50.86	113.82	75.47	-38.5	-43.4	3.6	8405044	94	4284
2025-01-05 11:34:51.26	113.26	75.61	-38.5	-42.2	3.4	8425918	94	3764
2025-01-05 11:34:51.66	112.68	75.75	-38.5	-41.7	3.3	8410034	94	3559
2025-01-05 11:34:52.07	112.08	75.89	-38.5	-42.3	3.4	8442787	94	3804
2025-01-05 11:34:52.47	111.49	76.03	-38.5	-41.8	3.3	8393840	94	3600
2025-01-05 11:34:52.87	110.88	76.17	-38.5	-42.6	3.5	8419086	94	3918
2025-01-05 11:34:53.27	110.26	76.30	-38.6	-42.0	3.3	8407939	94	3643
2025-01-05 11:34:53.67	109.62	76.43	-38.6	-43.0	3.5	8417793	94	4071
2025-01-05 11:34:54.07	108.98	76.56	-38.6	-42.0	3.3	8431400	94	3662
2025-01-05 11:34:54.48	108.30	76.69	-38.5	-43.1	3.6	8435211	94	4201
2025-01-05 11:34:54.88	107.63	76.82	-38.5	-41.7	3.3	8377452	94	3574
2025-01-05 11:34:55.28	106.94	76.95	-38.8	-43.5	3.6	8379432	95	4227
2025-01-05 11:34:55.68	106.24	77.07	-38.8	-42.1	3.3	8442100	95	3592
2025-01-05 11:34:56.08	105.53	77.19	-38.9	-43.6	3.6	8403110	95	4233
2025-01-05 11:34:56.48	104.80	77.31	-38.9	-42.5	3.4	8430725	95	3694
2025-01-05 11:34:56.89	104.04	77.43	-38.9	-43.6	3.6	8379215	95	4231
2025-01-05 11:34:57.29	103.28	77.55	-38.9	-42.7	3.4	8431491	95	3783
2025-01-05 11:34:57.69	102.51	77.66	-39.0	-43.9	3.6	8389675	95	4310
2025-01-05 11:34:58.09	101.73	77.78	-39.0	-42.7	3.4	8446643	95	3803
2025-01-05 11:34:58.49	100.93	77.89	-39.0	-42.3	3.3	8414955	95	3589
2025-01-05 11:34:58.89	100.11	77.99	-39.0	-43.0	3.5	8445487	95	3934
2025-01-05 11:34:59.30	99.26	78.10	-39.0	-42.4	3.3	8427864	95	3639
2025-01-05 11:34:59.70	98.41	78.20	-38.9	-43.1	3.5	8432258	95	3955
2025-01-05 11:35:00.10	97.55	78.30	-38.9	-42.1	3.3	8409484	95	3554
2025-01-05 11:35:00.50	96.68	78.40	-38.8	-43.3	3.6	8398223	95	4088
2025-01-05 11:35:00.90	95.79	78.50	-38.8	-42.0	3.3	8410984	95	3540
2025-01-05 11:35:01.30	94.88	78.59	-38.8	-43.3	3.6	8408248	95	4096
2025-01-05 11:35:01.71	93.94	78.68	-38.8	-41.6	3.3	8404861	95	3419
2025-01-05 11:35:02.11	93.00	78.77	-38.8	-43.0	3.6	8346462	96	3983
2025-01-05 11:35:02.51	92.05	78.85	-38.8	-41.9	3.4	8445224	96	3505
2025-01-05 11:35:02.91	91.09	78.93	-38.9	-42.9	3.6	8384193	96	3928
2025-01-05 11:35:03.32	90.08	79.01	-38.9	-42.0	3.4	8434787	96	3500
2025-01-05 11:35:03.72	89.09	79.08	-38.9	-43.1	3.6	8400810	96	4033
2025-01-05 11:35:04.12	88.08	79.15	-38.9	-42.0	3.4	8451610	96	3525
2025-01-05 11:35:04.52	87.06	79.22	-38.8	-41.4	3.3	8401645	96	3319
2025-01-05 11:35:04.92	86.03	79.28	-38.8	-42.1	3.4	8428138	96	3608
2025-01-05 11:35:05.32	84.99	79.35	-38.8	-41.5	3.3	8414726	96	3377
2025-01-05 11:35:05.72	83.93	79.40	-38.8	-42.4	3.5	8405422	96	3736
2025-01-05 11:35:06.13	82.83	79.46	-38.8	-41.9	3.3	8406417	95	3501
2025-01-05 11:35:06.53	81.76	79.51	-38.8	-43.3	3.6	8403911	95	4118
2025-01-05 11:35:06.93	80.67	79.55	-38.8	-41.8	3.3	8438690	95	3497
2025-01-05 11:35:07.33	79.57	79.60	-38.8	-43.1	3.6	8413833	95	4035
2025-01-05 11:35:07.73	78.46	79.63	-38.7	-41.8	3.3	8435577	95	3491
2025-01-05 11:35:08.14	77.32	79.67	-38.7	-43.0	3.6	8410377	95	4044
2025-01-05 11:35:08.54	76.19	79.70	-38.8	-41.8	3.3	8436985	95	3496
2025-01-05 11:35:08.94	75.06	79.73	-38.8	-43.3	3.6	8398487	95	4148
2025-01-05 11:35:09.34	73.93	79.75	-38.7	-41.8	3.4	8388679	95	3512
2025-01-05 11:35:09.74	72.79	79.77	-38.7	-43.1	3.6	8390853	95	4046
2025-01-05 11:35:10.14	71.65	79.79	-38.7	-42.0	3.4	8366386	95	3590
2025-01-05 11:35:10.55	70.47	79.80	-38.7	-43.0	3.6	8395191	95	4046
2025-01-05 11:35:10.95	69.32	79.80	-38.7	-41.8	3.4	8427864	95	3528
2025-01-05 11:35:11.35	68.17	79.81	-38.7	-41.4	3.3	8389114	95	3358
2025-01-05 11:35:11.75	67.02	79.81	-38.7	-42.3	3.5	8432727	95	3726
2025-01-05 11:35:12.15	65.87	79.80	-38.7	-41.6	3.3	8424259	95	3449
2025-01-05 11:35:12.56	64.70	79.79	-38.7	-42.6	3.5	8433723	95	3837
2025-01-05 11:35:12.96	63.55	79.78	-38.8	-41.8	3.3	8408878	95	3486
2025-01-05 11:35:13.36	62.41	79.76	-38.8	-43.1	3.6	8394630	95	4007
2025-01-05 11:35:13.76	61.28	79.74	-38.8	-42.0	3.3	8416442	95	3575
2025-01-05 11:35:14.16	60.14	79.71	-38.8	-43.6	3.6	8402069	95	4292
2025-01-05 11:35:14.57	58.99	79.68	-39.0	-42.1	3.3	8410034	95	3545
2025-01-05 11:35:14.97	57.87	79.65	-38.9	-43.6	3.6	8416934	95	4208
2025-01-05 11:35:15.37	56.76	79.61	-38.9	-41.9	3.3	8411842	95	3502
2025-01-05 11:35:15.77	55.66	79.57	-38.8	-43.1	3.6	8400581	95	4044
2025-01-05 11:35:16.17	54.57	79.53	-38.7	-41.4	3.3	8397834	95	3368
2025-01-05 11:35:16.57	53.48	79.48	-38.7	-42.8	3.6	8355709	95	3941
2025-01-05 11:35:16.98	52.38	79.43	-38.7	-41.7	3.4	8438266	95	3470
2025-01-05 11:35:17.38	51.32	79.37	-38.7	-42.9	3.6	8410091	95	3969
2025-01-05 11:35:17.78	50.27	79.31	-38.8	-42.2	3.4	8436916	95	3655
2025-01-05 11:35:18.18	49.24	79.25	-38.8	-41.8	3.3	8400466	95	3475
2025-01-05 11:35:18.59	48.19	79.18	-38.9	-42.7	3.5	8409690	95	3825
2025-01-05 11:35:18.99	47.17	79.11	-38.9	-42.1	3.3	8402664	95	3547
2025-01-05 11:35:19.39	46.18	79.04	-38.9	-43.0	3.5	8414943	95	3965
2025-01-05 11:35:19.79	45.19	78.96	-38.9	-42.1	3.3	8393154	95	3565
2025-01-05 11:35:20.19	44.22	78.88	-38.9	-43.4	3.6	8415824	95	4136
2025-01-05 11:35:20.59	43.27	78.80	-38.9	-42.1	3.3	8433700	95	3550
2025-01-05 11:35:21.00	42.30	78.71	-38.9	-43.5	3.6	8431274	95	4182
2025-01-05 11:35:21.40	41.38	78.63	-38.9	-42.1	3.3	8422439	95	3570
2025-01-05 11:35:21.80	40.46	78.53	-38.9	-43.7	3.6	8405181	95	4279
2025-01-05 11:35:22.20	39.57	78.44	-38.9	-42.2	3.3	8428779	95	3588
2025-01-05 11:35:22.60	38.69	78.34	-38.9	-43.6	3.6	8400100	95	4232
2025-01-05 11:35:23.01	37.80	78.24	-38.9	-42.3	3.4	8424659	95	3652
2025-01-05 11:35:23.41	36.95	78.14	-38.9	-43.5	3.6	8377887	95	4188
2025-01-05 11:35:23.81	36.11	78.04	-38.9	-42.4	3.4	8442901	95	3714
2025-01-05 11:35:24.21	35.29	77.93	-38.9	-43.6	3.6	8392673	95	4216
2025-01-05 11:35:24.61	34.48	77.82	-38.9	-42.6	3.4	8437202	95	3796
2025-01-05 11:35:25.01	33.69	77.71	-38.9	-42.1	3.3	8412860	95	3572
2025-01-05 11:35:25.42	32.89	77.60	-38.8	-42.5	3.4	8443130	95	3766
2025-01-05 11:35:25.82	32.13	77.48	-38.9	-42.0	3.3	8411315	95	3531
2025-01-05 11:35:26.22	31.38	77.36	-38.8	-42.7	3.5	8450775	95	3831
2025-01-05 11:35:26.62	30.65	77.24	-38.8	-41.9	3.3	8407035	95	3488
2025-01-05 11:35:27.02	29.93	77.12	-38.8	-42.8	3.5	8395534	95	3912
2025-01-05 11:35:27.43	29.21	77.00	-38.8	-41.9	3.3	8416076	95	3519
2025-01-05 11:35:27.83	28.52	76.87	-38.8	-43.1	3.6	8407711	95	4040
2025-01-05 11:35:28.23	27.84	76.75	-38.8	-41.7	3.3	8399299	95	3456
2025-01-05 11:35:28.63	27.18	76.62	-38.8	-43.3	3.6	8411235	95	4123
2025-01-05 11:35:29.04	26.51	76.48	-38.8	-42.0	3.3	8445499	95	3524
2025-01-05 11:35:29.44	25.87	76.35	-38.9	-43.4	3.6	8422931	95	4152
2025-01-05 11:35:29.84	25.24	76.22	-38.8	-41.8	3.3	8390773	95	3512
2025-01-05 11:35:30.24	24.63	76.09	-38.8	-43.4	3.6	8412082	95	4181
2025-01-05 11:35:30.64	24.03	75.95	-38.9	-42.5	3.4	8443508	95	3744
2025-01-05 11:35:31.04	23.44	75.81	-38.9	-42.0	3.3	8408981	95	3536
2025-01-05 11:35:31.45	22.85	75.67	-38.9	-42.7	3.5	8437465	95	3841
2025-01-05 11:35:31.85	22.29	75.53	-38.8	-42.0	3.3	8415287	95	3544
2025-01-05 11:35:32.25	21.73	75.39	-38.8	-42.9	3.5	8425552	95	3917
2025-01-05 11:35:32.65	21.19	75.25	-38.8	-42.0	3.3	8394641	95	3542
2025-01-05 11:35:33.06	20.64	75.10	-38.9	-43.2	3.6	8411682	95	4061
2025-01-05 11:35:33.46	20.12	74.96	-38.9	-42.1	3.3	8437202	95	3557
2025-01-05 11:35:33.86	19.61	74.81	-38.9	-43.5	3.6	8413810	95	4201
2025-01-05 11:35:34.26	19.11	74.67	-38.9	-42.1	3.3	8426124	95	3562
2025-01-05 11:35:34.66	18.62	74.52	-38.9	-43.5	3.6	8419189	95	4198
2025-01-05 11:35:35.06	18.14	74.37	-38.8	-42.1	3.3	8442787	95	3588
2025-01-05 11:35:35.47	17.65	74.22	-38.9	-43.5	3.6	8414806	95	4222
2025-01-05 11:35:35.87	17.19	74.07	-38.8	-42.1	3.3	8427394	95	3572
2025-01-05 11:35:36.27	16.74	73.92	-38.8	-43.4	3.6	8395477	95	4160
2025-01-05 11:35:36.67	16.29	73.77	-38.8	-42.1	3.4	8442317	95	3602
2025-01-05 11:35:37.07	15.86	73.62	-38.9	-43.6	3.6	8384456	95	4233
2025-01-05 11:35:37.48	15.42	73.46	-38.9	-42.6	3.4	8425220	95	3751
2025-01-05 11:35:37.88	15.00	73.31	-38.9	-43.6	3.6	8397205	95	4216
2025-01-05 11:35:38.28	14.59	73.15	-38.9	-42.7	3.4	8427474	95	3836
2025-01-05 11:35:38.68	14.19	73.00	-38.9	-42.1	3.3	8395236	95	3564
2025-01-05 11:35:39.08	13.79	72.84	-38.9	-42.9	3.6	8388370	96	3907
2025-01-05 11:35:39.48	13.40	72.69	-38.9	-41.6	3.3	8418960	96	3348
2025-01-05 11:35:39.89	13.01	72.53	-38.9	-43.3	3.6	8416122	96	4070
2025-01-05 11:35:40.29	12.64	72.37	-38.9	-41.9	3.3	8418491	96	3442
2025-01-05 11:35:40.69	12.27	72.21	-39.0	-43.5	3.6	8390727	96	4129
2025-01-05 11:35:41.09	11.91	72.06	-38.9	-41.9	3.3	8429260	96	3458
2025-01-05 11:35:41.49	11.56	71.90	-38.9	-43.4	3.6	8398452	96	4120
2025-01-05 11:35:41.90	11.21	71.74	-38.9	-42.0	3.3	8439708	96	3512
2025-01-05 11:35:42.30	10.87	71.58	-38.9	-43.4	3.6	8390327	96	4126
2025-01-05 11:35:42.70	10.53	71.42	-38.9	-42.2	3.4	8439811	96	3591
2025-01-05 11:35:43.10	10.20	71.26	-38.9	-43.3	3.6	8394802	96	4111
2025-01-05 11:35:43.50	9.88	71.10	-38.9	-42.4	3.4	8442123	96	3701
2025-01-05 11:35:43.90	9.57	70.94	-38.8	-41.8	3.3	8396518	96	3453
2025-01-05 11:35:44.31	9.25	70.77	-38.8	-42.5	3.5	8444229	96	3760
2025-01-05 11:35:44.71	8.94	70.61	-38.8	-41.9	3.3	8406543	96	3489
2025-01-05 11:35:45.11	8.64	70.45	-38.9	-42.7	3.5	8398132	96	3835
2025-01-05 11:35:45.51	8.35	70.29	-38.9	-41.8	3.3	8387214	96	3449
2025-01-05 11:35:45.91	8.06	70.13	-38.9	-42.9	3.6	8412437	96	3921

#Closed at: 2025-01-05 11:35:46