passes_logs/2025/01/05/XPeterburg/XPeterburg__20250105_014151_FENGYUN_3D_rec.log

#Pass ID: 20250105_014151_FENGYUN 3D
#Satellite: FENGYUN 3D
#Configuration: FENGYUN 3D
#Start time: 2025-01-05 01:41:44

#Version: 1.5.20200625
#Station: XPeterburg
#Location: 30.318091 lon 59.932769 lat
#TLE: 1 43010U 17072A   24362.16670685  .00000332  00000+0  17913-3 0  9992
#TLE: 2 43010  98.9391 318.2242 0002184 121.2776 238.8614 14.19528556368793

#Time	Az	El	Level	Level2	SNR	BER	Gain	Gain2
2025-01-05 01:41:44.84	38.64	67.10	-38.5	-41.9	3.3	8394115	94	3632
2025-01-05 01:41:45.24	38.81	67.26	-38.2	-52.7	3.5	7611202	73	13056
2025-01-05 01:41:45.64	38.99	67.43	-38.6	-42.1	3.3	8391666	94	3673
2025-01-05 01:41:46.04	39.17	67.60	-38.6	-43.3	3.6	8424007	94	4221
2025-01-05 01:41:46.45	39.37	67.77	-38.6	-42.0	3.3	8434776	94	3655
2025-01-05 01:41:46.85	39.55	67.94	-38.6	-43.5	3.6	8422313	94	4315
2025-01-05 01:41:47.25	39.75	68.11	-38.6	-42.0	3.3	8433094	94	3648
2025-01-05 01:41:47.65	39.94	68.28	-38.6	-43.5	3.6	8391792	94	4344
2025-01-05 01:41:48.05	40.14	68.45	-38.6	-42.1	3.3	8422279	94	3694
2025-01-05 01:41:48.46	40.35	68.62	-38.6	-43.5	3.6	8395580	94	4317
2025-01-05 01:41:48.86	40.55	68.79	-38.6	-42.2	3.4	8419727	94	3744
2025-01-05 01:41:49.26	40.76	68.96	-38.6	-43.5	3.6	8405342	94	4326
2025-01-05 01:41:49.66	40.97	69.13	-38.6	-42.4	3.4	8439296	94	3820
2025-01-05 01:41:50.06	41.19	69.30	-38.6	-43.5	3.6	8390750	94	4328
2025-01-05 01:41:50.46	41.41	69.47	-38.6	-42.5	3.4	8449802	94	3867
2025-01-05 01:41:50.87	41.64	69.65	-38.6	-42.0	3.3	8407070	94	3651
2025-01-05 01:41:51.27	41.87	69.82	-38.6	-42.7	3.5	8453418	94	3956
2025-01-05 01:41:51.67	42.10	69.99	-38.5	-41.9	3.3	8410926	94	3633
2025-01-05 01:41:52.07	42.33	70.16	-38.5	-42.8	3.5	8438644	94	4012
2025-01-05 01:41:52.47	42.57	70.33	-38.5	-41.9	3.3	8410366	94	3611
2025-01-05 01:41:52.88	42.83	70.50	-38.5	-43.1	3.6	8403923	94	4147
2025-01-05 01:41:53.28	43.08	70.67	-38.5	-41.7	3.3	8406955	94	3554
2025-01-05 01:41:53.68	43.33	70.84	-38.5	-43.2	3.6	8404769	94	4213
2025-01-05 01:41:54.08	43.59	71.01	-38.5	-41.7	3.3	8434055	94	3568
2025-01-05 01:41:54.48	43.85	71.18	-38.5	-43.1	3.6	8415138	94	4187
2025-01-05 01:41:54.89	44.13	71.35	-38.5	-41.7	3.3	8433254	94	3587
2025-01-05 01:41:55.29	44.40	71.52	-38.5	-43.2	3.6	8407138	94	4225
2025-01-05 01:41:55.69	44.68	71.69	-38.5	-41.8	3.3	8431674	94	3601
2025-01-05 01:41:56.09	44.97	71.86	-38.5	-43.3	3.6	8399494	94	4277
2025-01-05 01:41:56.49	45.26	72.03	-38.6	-42.1	3.4	8432910	94	3718
2025-01-05 01:41:56.90	45.57	72.20	-38.6	-43.4	3.6	8393772	94	4288
2025-01-05 01:41:57.30	45.87	72.37	-38.5	-42.2	3.4	8428722	94	3764
2025-01-05 01:41:57.70	46.18	72.54	-38.6	-43.4	3.6	8386596	94	4289
2025-01-05 01:41:58.10	46.49	72.70	-38.6	-42.4	3.4	8422645	94	3845
2025-01-05 01:41:58.50	46.82	72.87	-38.5	-42.0	3.3	8379238	94	3643
2025-01-05 01:41:58.90	47.14	73.04	-38.6	-42.7	3.5	8433986	94	3958
2025-01-05 01:41:59.31	47.49	73.21	-38.6	-42.0	3.3	8420997	94	3643
2025-01-05 01:41:59.71	47.83	73.38	-38.6	-42.9	3.5	8443679	94	4063
2025-01-05 01:42:00.11	48.18	73.54	-38.6	-41.9	3.3	8406589	94	3618
2025-01-05 01:42:00.51	48.54	73.71	-38.6	-43.3	3.6	8437637	94	4221
2025-01-05 01:42:00.91	48.90	73.88	-38.6	-42.0	3.3	8420574	94	3657
2025-01-05 01:42:01.31	49.28	74.04	-38.6	-43.4	3.6	8394447	94	4314
2025-01-05 01:42:01.72	49.67	74.21	-38.6	-42.0	3.3	8413890	94	3635
2025-01-05 01:42:02.12	50.06	74.37	-38.6	-43.4	3.6	8394607	94	4315
2025-01-05 01:42:02.52	50.45	74.54	-38.6	-41.9	3.3	8433666	94	3635
2025-01-05 01:42:02.92	50.86	74.70	-38.6	-43.3	3.6	8409107	94	4262
2025-01-05 01:42:03.32	51.28	74.86	-38.5	-42.1	3.4	8439800	94	3706
2025-01-05 01:42:03.72	51.70	75.03	-38.5	-43.3	3.6	8412071	94	4259
2025-01-05 01:42:04.13	52.15	75.19	-38.6	-42.3	3.4	8434913	94	3772
2025-01-05 01:42:04.53	52.59	75.35	-38.5	-43.4	3.6	8399803	94	4296
2025-01-05 01:42:04.93	53.05	75.51	-38.6	-42.5	3.4	8443096	94	3855
2025-01-05 01:42:05.33	53.52	75.67	-38.6	-43.4	3.6	8404907	94	4285
2025-01-05 01:42:05.73	53.99	75.83	-38.6	-42.4	3.4	8442741	94	3850
2025-01-05 01:42:06.14	54.49	76.00	-38.6	-42.0	3.3	8406406	94	3655
2025-01-05 01:42:06.54	54.99	76.15	-38.6	-42.6	3.5	8430770	94	3924
2025-01-05 01:42:06.94	55.51	76.31	-38.6	-41.9	3.3	8395774	94	3607
2025-01-05 01:42:07.34	56.03	76.46	-38.5	-42.9	3.5	8416145	94	4067
2025-01-05 01:42:07.74	56.57	76.62	-38.6	-41.9	3.3	8422130	94	3609
2025-01-05 01:42:08.15	57.13	76.78	-38.5	-43.0	3.6	8426616	94	4098
2025-01-05 01:42:08.55	57.69	76.93	-38.5	-41.8	3.3	8409908	94	3571
2025-01-05 01:42:08.95	58.27	77.08	-38.5	-43.2	3.6	8446300	94	4246
2025-01-05 01:42:09.35	58.86	77.23	-38.5	-41.8	3.3	8411281	94	3594
2025-01-05 01:42:09.75	59.46	77.38	-38.1	-42.9	3.6	8398807	94	4238
2025-01-05 01:42:10.16	60.10	77.53	-38.2	-41.5	3.4	8387008	94	3615
2025-01-05 01:42:10.56	60.73	77.68	-38.2	-43.0	3.7	8365962	94	4243
2025-01-05 01:42:10.96	61.38	77.82	-38.2	-41.6	3.4	8436733	94	3619
2025-01-05 01:42:11.36	62.05	77.97	-38.1	-42.6	3.7	8358100	94	4158
2025-01-05 01:42:11.76	62.73	78.11	-38.1	-41.5	3.5	8419452	94	3610
2025-01-05 01:42:12.17	63.45	78.25	-38.1	-42.6	3.6	8376319	94	4102
2025-01-05 01:42:12.57	64.17	78.39	-38.0	-41.5	3.5	8420322	94	3694
2025-01-05 01:42:12.97	64.90	78.53	-38.1	-41.1	3.4	8399196	94	3466
2025-01-05 01:42:13.37	65.66	78.67	-38.1	-41.9	3.6	8419967	94	3821
2025-01-05 01:42:13.77	66.43	78.80	-38.0	-41.0	3.4	8382385	94	3484
2025-01-05 01:42:14.18	67.24	78.93	-38.2	-42.4	3.6	8378997	94	3985
2025-01-05 01:42:14.58	68.05	79.06	-38.2	-41.5	3.3	8370380	94	3595
2025-01-05 01:42:14.98	68.88	79.19	-38.2	-42.7	3.6	8409873	94	4124
2025-01-05 01:42:15.38	69.73	79.32	-38.3	-41.4	3.3	8410274	94	3510
2025-01-05 01:42:15.78	70.60	79.44	-38.4	-42.7	3.6	8410388	94	4042
2025-01-05 01:42:16.19	71.51	79.56	-38.4	-41.5	3.3	8434101	94	3539
2025-01-05 01:42:16.59	72.42	79.68	-38.4	-43.1	3.6	8420059	94	4214
2025-01-05 01:42:16.99	73.36	79.80	-38.5	-41.8	3.3	8427909	94	3579
2025-01-05 01:42:17.39	74.31	79.91	-38.5	-43.4	3.6	8418548	94	4309
2025-01-05 01:42:17.79	75.29	80.02	-38.4	-41.9	3.4	8425861	94	3648
2025-01-05 01:42:18.20	76.32	80.13	-38.4	-43.2	3.6	8401165	94	4258
2025-01-05 01:42:18.60	77.34	80.24	-38.3	-41.8	3.4	8419132	94	3672
2025-01-05 01:42:19.00	78.38	80.34	-38.4	-43.1	3.6	8385429	94	4245
2025-01-05 01:42:19.40	79.45	80.44	-38.4	-42.0	3.4	8424739	94	3730
2025-01-05 01:42:19.80	80.53	80.53	-38.4	-43.2	3.6	8380920	94	4274
2025-01-05 01:42:20.20	81.64	80.62	-38.4	-42.3	3.4	8424980	94	3838
2025-01-05 01:42:20.61	82.80	80.71	-38.5	-41.9	3.3	8398784	94	3640
2025-01-05 01:42:21.01	83.96	80.80	-38.5	-42.6	3.5	8433139	94	3969
2025-01-05 01:42:21.41	85.13	80.88	-38.4	-41.7	3.4	8424922	94	3619
2025-01-05 01:42:21.81	86.33	80.95	-38.4	-42.6	3.6	8431400	94	4005
2025-01-05 01:42:22.21	87.55	81.03	-38.4	-41.7	3.3	8385715	94	3607
2025-01-05 01:42:22.62	88.81	81.10	-38.4	-43.0	3.6	8388553	94	4174
2025-01-05 01:42:23.02	90.07	81.16	-38.3	-41.6	3.4	8403156	94	3601
2025-01-05 01:42:23.42	91.34	81.22	-38.3	-43.0	3.7	8382179	94	4248
2025-01-05 01:42:23.82	92.63	81.28	-38.3	-41.5	3.4	8401966	94	3592
2025-01-05 01:42:24.22	93.94	81.33	-38.3	-43.1	3.7	8376995	94	4289
2025-01-05 01:42:24.63	95.29	81.38	-38.1	-41.5	3.4	8414657	94	3628
2025-01-05 01:42:25.03	96.63	81.42	-38.1	-42.8	3.6	8387443	94	4219
2025-01-05 01:42:25.43	97.98	81.46	-38.0	-41.4	3.4	8411647	94	3631
2025-01-05 01:42:25.83	99.34	81.49	-38.1	-42.6	3.6	8386413	94	4151
2025-01-05 01:42:26.23	100.71	81.52	-38.1	-41.5	3.5	8410182	94	3648
2025-01-05 01:42:26.63	102.09	81.55	-38.2	-42.8	3.7	8374969	94	4176
2025-01-05 01:42:27.04	103.51	81.57	-38.2	-41.8	3.5	8417163	94	3702
2025-01-05 01:42:27.44	104.90	81.58	-38.2	-42.9	3.6	8369968	94	4211
2025-01-05 01:42:27.84	106.30	81.59	-38.3	-42.0	3.4	8405387	94	3757
2025-01-05 01:42:28.24	107.70	81.59	-38.4	-41.7	3.3	8382465	94	3596
2025-01-05 01:42:28.64	109.10	81.59	-38.4	-42.4	3.5	8421924	94	3905
2025-01-05 01:42:29.04	110.49	81.59	-38.4	-41.8	3.3	8394390	94	3648
2025-01-05 01:42:29.45	111.92	81.58	-38.2	-42.6	3.5	8421169	94	4043
2025-01-05 01:42:29.85	113.31	81.56	-38.1	-41.4	3.3	8416557	94	3604
2025-01-05 01:42:30.25	114.70	81.54	-37.9	-42.3	3.6	8422851	94	4083
2025-01-05 01:42:30.65	116.07	81.51	-38.0	-41.0	3.4	8417404	94	3472
2025-01-05 01:42:31.05	117.44	81.48	-38.0	-42.1	3.7	8385463	94	3945
2025-01-05 01:42:31.45	118.80	81.45	-37.9	-40.6	3.4	8385555	94	3345
2025-01-05 01:42:31.86	120.18	81.41	-37.9	-41.9	3.7	8369464	94	3891
2025-01-05 01:42:32.26	121.51	81.36	-38.0	-40.8	3.4	8398292	94	3390
2025-01-05 01:42:32.66	122.83	81.31	-38.2	-42.5	3.6	8382923	94	4033
2025-01-05 01:42:33.06	124.13	81.26	-38.4	-41.3	3.4	8390533	95	3452
2025-01-05 01:42:33.46	125.41	81.20	-38.5	-42.9	3.6	8345512	95	4071
2025-01-05 01:42:33.87	126.71	81.14	-38.6	-41.9	3.4	8429946	95	3621
2025-01-05 01:42:34.27	127.96	81.07	-38.7	-43.2	3.6	8427234	95	4164
2025-01-05 01:42:34.67	129.19	81.00	-38.8	-42.6	3.4	8442317	95	3793
2025-01-05 01:42:35.07	130.40	80.93	-38.8	-42.0	3.3	8407882	95	3561
2025-01-05 01:42:35.47	131.59	80.85	-38.8	-42.6	3.5	8406829	95	3813
2025-01-05 01:42:35.88	132.78	80.77	-38.9	-42.1	3.3	8411830	95	3568
2025-01-05 01:42:36.28	133.93	80.68	-38.8	-43.0	3.5	8413112	95	3973
2025-01-05 01:42:36.68	135.05	80.59	-38.9	-42.0	3.3	8411544	95	3551
2025-01-05 01:42:37.08	136.16	80.50	-38.9	-43.5	3.6	8421489	95	4193
2025-01-05 01:42:37.48	137.24	80.40	-38.8	-42.0	3.3	8404037	95	3544
2025-01-05 01:42:37.88	138.30	80.30	-38.8	-43.3	3.6	8423664	95	4121
2025-01-05 01:42:38.29	139.36	80.20	-38.8	-42.0	3.3	8425495	95	3563
2025-01-05 01:42:38.69	140.37	80.09	-38.8	-43.3	3.6	8428241	95	4158
2025-01-05 01:42:39.09	141.36	79.98	-38.8	-41.9	3.3	8431892	95	3527
2025-01-05 01:42:39.49	142.33	79.87	-38.8	-43.3	3.6	8404541	95	4131
2025-01-05 01:42:39.89	143.28	79.76	-38.8	-41.9	3.3	8424842	95	3529
2025-01-05 01:42:40.30	144.23	79.64	-38.8	-43.5	3.6	8394390	95	4219
2025-01-05 01:42:40.70	145.14	79.52	-38.8	-42.1	3.4	8411178	95	3608
2025-01-05 01:42:41.10	146.02	79.40	-38.8	-43.5	3.6	8394584	95	4199
2025-01-05 01:42:41.50	146.88	79.27	-38.8	-42.3	3.4	8435348	95	3693
2025-01-05 01:42:41.90	147.73	79.14	-38.8	-43.5	3.6	8389377	95	4227
2025-01-05 01:42:42.31	148.57	79.01	-38.8	-42.4	3.4	8450946	95	3738
2025-01-05 01:42:42.71	149.37	78.88	-38.8	-41.9	3.3	8418983	95	3523
2025-01-05 01:42:43.11	150.16	78.75	-38.8	-42.7	3.4	8442432	95	3861
2025-01-05 01:42:43.51	150.92	78.62	-38.8	-41.9	3.3	8413478	95	3542
2025-01-05 01:42:43.92	151.69	78.48	-38.7	-42.8	3.5	8399414	95	3929
2025-01-05 01:42:44.32	152.42	78.34	-38.7	-41.7	3.3	8417507	95	3457
2025-01-05 01:42:44.72	153.13	78.20	-38.8	-43.4	3.6	8359691	95	4168
2025-01-05 01:42:45.12	153.82	78.06	-38.8	-42.1	3.3	8409255	95	3570
2025-01-05 01:42:45.52	154.50	77.91	-38.8	-43.4	3.6	8405147	95	4182
2025-01-05 01:42:45.93	155.18	77.77	-38.8	-41.9	3.3	8436801	95	3525
2025-01-05 01:42:46.33	155.82	77.62	-38.8	-43.3	3.6	8414806	95	4135
2025-01-05 01:42:46.73	156.45	77.47	-38.7	-41.8	3.3	8423355	95	3491
2025-01-05 01:42:47.13	157.07	77.32	-38.7	-43.1	3.6	8407527	95	4076
2025-01-05 01:42:47.53	157.67	77.17	-38.7	-41.8	3.3	8431869	95	3524
2025-01-05 01:42:47.93	158.25	77.02	-38.8	-43.3	3.6	8391391	95	4162
2025-01-05 01:42:48.34	158.84	76.87	-38.8	-42.1	3.4	8437099	95	3586
2025-01-05 01:42:48.74	159.40	76.71	-38.8	-43.4	3.6	8395820	95	4169
2025-01-05 01:42:49.14	159.94	76.56	-38.7	-42.2	3.4	8381011	95	3649
2025-01-05 01:42:49.54	160.47	76.40	-38.8	-43.4	3.6	8396152	95	4188
2025-01-05 01:42:49.94	160.99	76.25	-38.8	-42.5	3.4	8391323	95	3787
2025-01-05 01:42:50.34	161.50	76.09	-38.8	-41.9	3.3	8393589	95	3525
2025-01-05 01:42:50.75	162.01	75.93	-38.8	-42.9	3.5	8419692	95	3966
2025-01-05 01:42:51.15	162.49	75.77	-38.8	-41.9	3.3	8424922	95	3538
2025-01-05 01:42:51.55	162.97	75.61	-38.8	-43.2	3.6	8427177	95	4078
2025-01-05 01:42:51.95	163.43	75.45	-38.8	-42.0	3.3	8421638	95	3538
2025-01-05 01:42:52.35	163.88	75.29	-38.8	-43.5	3.6	8435966	95	4211
2025-01-05 01:42:52.75	164.32	75.13	-38.8	-42.1	3.3	8423686	95	3572
2025-01-05 01:42:53.16	164.77	74.96	-38.8	-43.4	3.6	8391769	95	4181
2025-01-05 01:42:53.56	165.19	74.80	-38.8	-42.2	3.3	8432121	95	3612
2025-01-05 01:42:53.96	165.60	74.64	-38.8	-43.4	3.6	8388965	95	4159
2025-01-05 01:42:54.36	166.00	74.47	-38.8	-42.1	3.4	8447284	95	3584
2025-01-05 01:42:54.76	166.40	74.31	-38.8	-43.3	3.6	8382419	95	4158
2025-01-05 01:42:55.16	166.79	74.14	-38.8	-42.2	3.4	8441459	95	3650
2025-01-05 01:42:55.57	167.17	73.97	-38.8	-43.4	3.6	8407379	95	4183
2025-01-05 01:42:55.97	167.54	73.81	-38.8	-42.5	3.4	8451770	95	3768
2025-01-05 01:42:56.37	167.91	73.64	-38.8	-42.0	3.3	8411933	95	3548
2025-01-05 01:42:56.77	168.26	73.48	-38.8	-42.7	3.5	8434570	95	3843
2025-01-05 01:42:57.17	168.61	73.31	-38.8	-41.9	3.3	8416912	95	3517
2025-01-05 01:42:57.58	168.96	73.14	-38.8	-42.9	3.5	8411590	95	3932
2025-01-05 01:42:57.98	169.29	72.97	-38.8	-42.0	3.3	8399929	95	3546
2025-01-05 01:42:58.38	169.62	72.80	-38.8	-43.2	3.6	8421993	95	4099
2025-01-05 01:42:58.78	169.94	72.63	-38.8	-42.0	3.3	8428791	95	3550
2025-01-05 01:42:59.18	170.25	72.47	-38.8	-43.2	3.6	8418720	95	4079
2025-01-05 01:42:59.59	170.57	72.29	-38.8	-42.0	3.3	8450111	95	3553
2025-01-05 01:42:59.99	170.87	72.12	-38.8	-43.5	3.6	8420482	95	4202
2025-01-05 01:43:00.39	171.16	71.96	-38.8	-42.0	3.3	8427852	95	3561
2025-01-05 01:43:00.79	171.45	71.79	-38.8	-43.5	3.6	8420516	95	4211
2025-01-05 01:43:01.19	171.73	71.62	-38.8	-42.1	3.3	8427097	95	3578
2025-01-05 01:43:01.59	172.01	71.45	-38.8	-43.4	3.6	8396472	95	4187
2025-01-05 01:43:02.00	172.29	71.27	-38.8	-42.1	3.3	8419166	95	3602
2025-01-05 01:43:02.40	172.56	71.10	-38.8	-43.4	3.6	8393772	95	4188
2025-01-05 01:43:02.80	172.82	70.93	-38.8	-42.3	3.4	8439285	95	3665
2025-01-05 01:43:03.20	173.08	70.76	-38.8	-43.4	3.6	8387786	95	4182
2025-01-05 01:43:03.60	173.33	70.59	-38.8	-42.6	3.4	8432785	95	3785
2025-01-05 01:43:04.01	173.59	70.42	-38.8	-42.0	3.3	8412437	95	3555
2025-01-05 01:43:04.41	173.83	70.25	-38.7	-42.6	3.5	8400993	95	3833
2025-01-05 01:43:04.81	174.07	70.08	-38.7	-41.7	3.3	8421833	95	3488

#Closed at: 2025-01-05 01:43:05