passes_logs/2026/01/29/planumMaritime01/planumMaritime01__20260129_013517_METEOR-M2_4_rec.log

#Pass ID: 20260129_013517_METEOR-M2 4
#Satellite: METEOR-M2 4
#Configuration: METEOR-M2 4
#Start time: 2026-01-29 01:35:22.780940

#LorettStation: 1.0.0 05.05.2024
#Station: planumMaritime01
#Location: 37.49445 lon 55.92918 lat
#TLE: 1 59051U 24039A   26027.99098058  .00000074  00000+0  53046-4 0  9995
#TLE: 2 59051  98.6834 349.1906 0006417 208.3204 151.7626 14.22410257 99339

#Time	Az	El	Level	SNR
2026-01-29 01:35:24.952628	11.1	10.2	-78.4	0.0
2026-01-29 01:35:27.199348	11.0	10.4	-77.5	0.0
2026-01-29 01:35:29.447411	10.9	10.6	-78.5	0.0
2026-01-29 01:35:31.699094	10.8	10.8	-76.3	0.0
2026-01-29 01:35:33.944322	10.7	11.0	-76.0	0.0
2026-01-29 01:35:36.192109	10.6	11.2	-75.8	1.8
2026-01-29 01:35:38.441258	10.6	11.4	-74.8	0.0
2026-01-29 01:35:40.689809	10.5	11.6	-75.9	2.1
2026-01-29 01:35:42.941086	10.4	11.8	-74.7	0.0
2026-01-29 01:35:45.188331	10.3	12.0	-76.2	1.7
2026-01-29 01:35:47.436393	10.2	12.2	-76.2	1.5
2026-01-29 01:35:49.687429	10.1	12.4	-76.0	0.0
2026-01-29 01:35:51.936395	10.0	12.6	-75.8	0.0
2026-01-29 01:35:54.185113	9.9	12.8	-76.2	0.0
2026-01-29 01:35:56.431841	9.8	13.0	-75.3	1.6
2026-01-29 01:35:58.682200	9.7	13.3	-74.9	0.0
2026-01-29 01:36:00.935992	9.6	13.5	-75.9	3.5
2026-01-29 01:36:03.185385	9.5	13.7	-74.0	2.7
2026-01-29 01:36:05.432507	9.4	13.9	-76.2	3.5
2026-01-29 01:36:07.680729	9.3	14.1	-75.1	1.4
2026-01-29 01:36:09.930863	9.2	14.4	-76.5	2.3
2026-01-29 01:36:12.178448	9.1	14.6	-74.5	3.0
2026-01-29 01:36:14.424786	9.0	14.8	-75.5	2.8
2026-01-29 01:36:16.672845	8.8	15.1	-75.6	3.4
2026-01-29 01:36:18.920902	8.7	15.3	-75.1	1.0
2026-01-29 01:36:21.165952	8.6	15.5	-74.8	0.8
2026-01-29 01:36:23.416375	8.5	15.8	-74.3	1.9
2026-01-29 01:36:25.664707	8.4	16.0	-75.3	2.7
2026-01-29 01:36:27.913865	8.2	16.2	-75.8	3.6
2026-01-29 01:36:30.160773	8.1	16.5	-75.7	2.1
2026-01-29 01:36:32.408867	8.0	16.7	-75.1	3.1
2026-01-29 01:36:34.654173	7.9	17.0	-74.8	0.1
2026-01-29 01:36:36.904537	7.7	17.2	-75.5	3.9
2026-01-29 01:36:39.152714	7.6	17.5	-74.5	0.0
2026-01-29 01:36:41.399803	7.5	17.8	-74.8	0.1
2026-01-29 01:36:43.647005	7.3	18.0	-75.0	2.8
2026-01-29 01:36:45.893985	7.2	18.3	-75.2	0.0
2026-01-29 01:36:48.141993	7.0	18.5	-73.7	0.0
2026-01-29 01:36:50.389890	6.9	18.8	-75.3	2.9
2026-01-29 01:36:52.634596	6.7	19.1	-75.0	2.1
2026-01-29 01:36:54.884662	6.6	19.4	-74.7	1.0
2026-01-29 01:36:57.133013	6.4	19.6	-74.4	1.1
2026-01-29 01:36:59.380041	6.2	19.9	-75.7	4.1
2026-01-29 01:37:01.626506	6.1	20.2	-75.2	2.9
2026-01-29 01:37:03.878679	5.9	20.5	-75.1	1.7
2026-01-29 01:37:06.127176	5.7	20.8	-75.8	3.7
2026-01-29 01:37:08.375447	5.6	21.1	-74.7	2.5
2026-01-29 01:37:10.623565	5.4	21.4	-75.1	2.7
2026-01-29 01:37:12.869779	5.2	21.7	-74.7	4.2
2026-01-29 01:37:15.118747	5.0	22.0	-76.1	5.4
2026-01-29 01:37:17.366496	4.8	22.3	-76.1	0.5
2026-01-29 01:37:19.611920	4.6	22.6	-75.7	5.0
2026-01-29 01:37:21.859802	4.5	22.9	-76.2	2.5
2026-01-29 01:37:24.107402	4.3	23.2	-76.0	2.2
2026-01-29 01:37:26.357077	4.0	23.5	-76.1	1.6
2026-01-29 01:37:28.601952	3.8	23.8	-76.5	5.8
2026-01-29 01:37:30.849882	3.6	24.2	-76.0	3.5
2026-01-29 01:37:33.098131	3.4	24.5	-74.1	2.3
2026-01-29 01:37:35.346219	3.2	24.8	-75.9	6.5
2026-01-29 01:37:37.593766	3.0	25.2	-77.1	6.1
2026-01-29 01:37:39.842238	2.7	25.5	-75.0	3.6
2026-01-29 01:37:42.087042	2.5	25.8	-76.8	7.4
2026-01-29 01:37:44.339326	2.2	26.2	-77.0	7.7
2026-01-29 01:37:46.590389	2.0	26.5	-74.8	3.4
2026-01-29 01:37:48.837051	1.7	26.9	-76.7	8.9
2026-01-29 01:37:51.085946	1.5	27.3	-76.9	8.7
2026-01-29 01:37:53.334740	1.2	27.6	-74.6	4.5
2026-01-29 01:37:55.583964	0.9	28.0	-75.9	6.9
2026-01-29 01:37:57.830140	0.6	28.4	-76.8	8.0
2026-01-29 01:38:00.076592	0.4	28.8	-76.8	8.7
2026-01-29 01:38:02.324281	0.1	29.1	-77.4	6.2
2026-01-29 01:38:04.574925	359.8	29.5	-76.2	6.4
2026-01-29 01:38:06.820478	359.5	29.9	-76.6	5.7
2026-01-29 01:38:09.069354	359.1	30.3	-75.2	3.6
2026-01-29 01:38:11.316878	358.8	30.7	-75.6	6.2
2026-01-29 01:38:13.567964	358.5	31.1	-75.3	6.7
2026-01-29 01:38:15.817027	358.1	31.5	-74.8	5.5
2026-01-29 01:38:18.066095	357.8	31.9	-73.4	1.7
2026-01-29 01:38:20.313899	357.4	32.4	-76.2	6.9
2026-01-29 01:38:22.560379	357.0	32.8	-75.8	6.3
2026-01-29 01:38:24.808166	356.7	33.2	-74.6	5.7
2026-01-29 01:38:27.053775	356.3	33.6	-75.5	3.9
2026-01-29 01:38:29.302107	355.9	34.1	-75.9	7.1
2026-01-29 01:38:31.549148	355.5	34.5	-76.6	7.6
2026-01-29 01:38:33.796614	355.0	35.0	-76.7	7.4
2026-01-29 01:38:36.045009	354.6	35.4	-76.9	7.9
2026-01-29 01:38:38.292355	354.1	35.9	-77.0	6.7
2026-01-29 01:38:40.543858	353.7	36.3	-77.4	7.4
2026-01-29 01:38:42.794436	353.2	36.8	-77.2	8.2
2026-01-29 01:38:45.041021	352.7	37.3	-77.0	6.7
2026-01-29 01:38:47.290221	352.2	37.7	-77.8	7.8
2026-01-29 01:38:49.538866	351.7	38.2	-78.0	7.2
2026-01-29 01:38:51.785466	351.1	38.7	-77.4	8.9
2026-01-29 01:38:54.033078	350.6	39.2	-77.8	9.3
2026-01-29 01:38:56.279803	350.0	39.7	-78.0	11.5
2026-01-29 01:38:58.528173	349.4	40.1	-77.1	10.7
2026-01-29 01:39:00.775248	348.8	40.6	-77.7	10.5
2026-01-29 01:39:03.022499	348.2	41.1	-77.1	9.0
2026-01-29 01:39:05.273026	347.6	41.6	-78.3	11.6
2026-01-29 01:39:07.520768	346.9	42.1	-77.7	11.3
2026-01-29 01:39:09.769455	346.2	42.7	-77.2	8.7
2026-01-29 01:39:12.017626	345.5	43.2	-77.7	10.8
2026-01-29 01:39:14.265990	344.8	43.7	-78.5	11.2
2026-01-29 01:39:16.516241	344.0	44.2	-78.0	12.1
2026-01-29 01:39:18.763032	343.2	44.7	-79.1	12.0
2026-01-29 01:39:21.012429	342.4	45.2	-79.1	10.8
2026-01-29 01:39:23.262733	341.6	45.7	-79.0	11.6
2026-01-29 01:39:25.509321	340.7	46.2	-79.5	12.4
2026-01-29 01:39:27.760551	339.8	46.7	-79.5	12.0
2026-01-29 01:39:30.007264	338.9	47.3	-79.6	12.0
2026-01-29 01:39:32.258272	338.0	47.8	-79.6	10.8
2026-01-29 01:39:34.508768	337.0	48.3	-79.0	8.8
2026-01-29 01:39:36.754305	335.9	48.8	-79.5	11.9
2026-01-29 01:39:39.004648	334.9	49.3	-79.7	12.1
2026-01-29 01:39:41.251184	333.8	49.8	-79.9	11.7
2026-01-29 01:39:43.499808	332.7	50.3	-79.8	11.6
2026-01-29 01:39:45.743494	331.5	50.7	-79.6	11.7
2026-01-29 01:39:47.993957	330.3	51.2	-79.9	10.0
2026-01-29 01:39:50.241605	329.1	51.7	-79.7	10.3
2026-01-29 01:39:52.489334	327.8	52.1	-79.7	9.5
2026-01-29 01:39:54.734949	326.5	52.6	-80.5	11.6
2026-01-29 01:39:56.982147	325.2	53.0	-80.3	10.7
2026-01-29 01:39:59.230215	323.8	53.4	-80.1	10.3
2026-01-29 01:40:01.477535	322.3	53.8	-80.5	9.7
2026-01-29 01:40:03.725710	320.9	54.2	-80.8	10.3
2026-01-29 01:40:05.974797	319.4	54.6	-80.6	9.4
2026-01-29 01:40:08.221787	317.8	54.9	-79.9	8.2
2026-01-29 01:40:10.471705	316.2	55.2	-80.9	8.7
2026-01-29 01:40:12.719328	314.6	55.6	-81.0	6.6
2026-01-29 01:40:14.968199	312.9	55.8	-81.6	8.6
2026-01-29 01:40:17.215812	311.2	56.1	-81.2	6.2
2026-01-29 01:40:19.461395	309.5	56.4	-81.2	8.4
2026-01-29 01:40:21.710477	307.8	56.6	-81.1	5.0
2026-01-29 01:40:23.955029	306.0	56.8	-81.1	5.9
2026-01-29 01:40:26.203110	304.2	56.9	-80.7	7.5
2026-01-29 01:40:28.452205	302.3	57.1	-80.8	5.9
2026-01-29 01:40:30.700057	300.5	57.2	-81.7	7.3
2026-01-29 01:40:32.946304	298.6	57.3	-82.1	7.5
2026-01-29 01:40:35.192630	296.8	57.3	-81.7	5.1
2026-01-29 01:40:37.439982	294.9	57.4	-82.0	8.5
2026-01-29 01:40:39.694131	293.0	57.4	-81.8	7.5
2026-01-29 01:40:41.942211	291.2	57.3	-81.2	7.0
2026-01-29 01:40:44.191862	289.3	57.3	-81.0	8.8
2026-01-29 01:40:46.439636	287.4	57.2	-80.9	9.1
2026-01-29 01:40:48.689094	285.6	57.0	-81.1	8.3
2026-01-29 01:40:50.933286	283.8	56.9	-81.2	8.7
2026-01-29 01:40:53.180727	282.0	56.7	-81.0	7.7
2026-01-29 01:40:55.430003	280.2	56.5	-81.6	9.2
2026-01-29 01:40:57.679218	278.4	56.3	-82.0	8.8
2026-01-29 01:40:59.927894	276.7	56.0	-82.0	7.1
2026-01-29 01:41:02.173823	275.0	55.8	-81.6	8.9
2026-01-29 01:41:04.422883	273.4	55.5	-80.9	8.9
2026-01-29 01:41:06.676215	271.7	55.2	-81.2	11.2
2026-01-29 01:41:08.926234	270.2	54.8	-81.1	11.0
2026-01-29 01:41:11.177063	268.6	54.5	-80.9	11.9
2026-01-29 01:41:13.425147	267.1	54.1	-81.0	11.3
2026-01-29 01:41:15.669880	265.6	53.7	-81.3	10.2
2026-01-29 01:41:17.922319	264.2	53.3	-81.7	9.8
2026-01-29 01:41:20.171662	262.8	52.9	-81.5	10.0
2026-01-29 01:41:22.421206	261.5	52.4	-82.3	10.4
2026-01-29 01:41:24.669797	260.2	52.0	-81.6	10.2
2026-01-29 01:41:26.915756	258.9	51.5	-81.4	9.8
2026-01-29 01:41:29.163033	257.7	51.1	-81.1	11.0
2026-01-29 01:41:31.410784	256.5	50.6	-81.1	11.5
2026-01-29 01:41:33.660370	255.3	50.1	-80.8	11.1
2026-01-29 01:41:35.910082	254.2	49.6	-80.7	12.5
2026-01-29 01:41:38.156782	253.1	49.1	-80.5	10.4
2026-01-29 01:41:40.403544	252.1	48.6	-80.5	12.1
2026-01-29 01:41:42.652285	251.1	48.1	-80.7	11.0
2026-01-29 01:41:44.899019	250.1	47.6	-80.7	11.3
2026-01-29 01:41:47.146795	249.2	47.1	-80.8	11.1
2026-01-29 01:41:49.394948	248.2	46.6	-80.7	12.2
2026-01-29 01:41:51.645187	247.4	46.1	-80.7	12.1
2026-01-29 01:41:53.890700	246.5	45.5	-80.6	11.7
2026-01-29 01:41:56.137609	245.7	45.0	-80.5	12.5
2026-01-29 01:41:58.388394	244.9	44.5	-80.7	11.5
2026-01-29 01:42:00.635912	244.1	44.0	-81.0	12.5
2026-01-29 01:42:02.883245	243.3	43.5	-80.9	12.1
2026-01-29 01:42:05.130910	242.6	43.0	-80.6	12.5
2026-01-29 01:42:07.377667	241.9	42.5	-80.6	12.9
2026-01-29 01:42:09.624684	241.2	42.0	-80.7	12.5
2026-01-29 01:42:11.872271	240.5	41.4	-81.0	13.2
2026-01-29 01:42:14.121488	239.9	40.9	-80.4	12.5
2026-01-29 01:42:16.368554	239.3	40.4	-80.0	13.1
2026-01-29 01:42:18.615838	238.7	39.9	-80.2	12.4
2026-01-29 01:42:20.862852	238.1	39.5	-80.9	13.2
2026-01-29 01:42:23.110707	237.5	39.0	-80.4	12.5
2026-01-29 01:42:25.359488	237.0	38.5	-79.7	13.6
2026-01-29 01:42:27.610848	236.4	38.0	-79.5	13.4
2026-01-29 01:42:29.861054	235.9	37.5	-79.4	14.6
2026-01-29 01:42:32.110486	235.4	37.0	-79.7	13.7
2026-01-29 01:42:34.360047	234.9	36.6	-79.7	13.6
2026-01-29 01:42:36.606882	234.5	36.1	-79.8	14.6
2026-01-29 01:42:38.855799	234.0	35.6	-79.7	14.1
2026-01-29 01:42:41.102532	233.5	35.2	-79.6	14.4
2026-01-29 01:42:43.353229	233.1	34.7	-79.6	13.9
2026-01-29 01:42:45.603411	232.7	34.3	-79.2	14.3
2026-01-29 01:42:47.851683	232.3	33.8	-79.2	14.2
2026-01-29 01:42:50.102696	231.9	33.4	-79.6	14.4
2026-01-29 01:42:52.347770	231.5	33.0	-79.5	13.8
2026-01-29 01:42:54.594334	231.1	32.5	-79.7	14.0
2026-01-29 01:42:56.839994	230.7	32.1	-79.9	13.6
2026-01-29 01:42:59.086590	230.4	31.7	-79.8	13.8
2026-01-29 01:43:01.336265	230.0	31.3	-79.7	14.3
2026-01-29 01:43:03.583641	229.7	30.9	-79.7	13.9
2026-01-29 01:43:05.829419	229.3	30.5	-79.4	14.1
2026-01-29 01:43:08.077539	229.0	30.1	-79.3	14.5
2026-01-29 01:43:10.326086	228.7	29.7	-79.5	14.4
2026-01-29 01:43:12.576166	228.4	29.3	-79.7	12.9
2026-01-29 01:43:14.823909	228.1	28.9	-79.4	13.9
2026-01-29 01:43:17.074358	227.8	28.5	-79.3	13.5
2026-01-29 01:43:19.322408	227.5	28.1	-79.0	14.1
2026-01-29 01:43:21.572011	227.2	27.8	-79.4	14.3
2026-01-29 01:43:23.820140	226.9	27.4	-79.6	12.4
2026-01-29 01:43:26.070133	226.7	27.0	-79.5	13.4
2026-01-29 01:43:28.319928	226.4	26.7	-79.5	13.5
2026-01-29 01:43:30.568380	226.2	26.3	-79.5	10.7
2026-01-29 01:43:32.817212	225.9	25.9	-79.4	11.4
2026-01-29 01:43:35.066947	225.7	25.6	-79.2	14.1
2026-01-29 01:43:37.314795	225.4	25.3	-79.5	14.4
2026-01-29 01:43:39.562784	225.2	24.9	-78.9	11.9
2026-01-29 01:43:41.816061	225.0	24.6	-78.8	12.9
2026-01-29 01:43:44.063053	224.7	24.2	-79.3	13.8
2026-01-29 01:43:46.311170	224.5	23.9	-79.1	10.1
2026-01-29 01:43:48.561418	224.3	23.6	-78.7	12.6
2026-01-29 01:43:50.811936	224.1	23.3	-79.1	11.8
2026-01-29 01:43:53.059449	223.9	22.9	-78.9	11.5
2026-01-29 01:43:55.307370	223.7	22.6	-79.0	8.9
2026-01-29 01:43:57.558857	223.5	22.3	-79.2	11.6
2026-01-29 01:43:59.808025	223.3	22.0	-79.0	13.3
2026-01-29 01:44:02.060930	223.1	21.7	-79.1	12.9
2026-01-29 01:44:04.310103	222.9	21.4	-79.2	9.7
2026-01-29 01:44:06.556986	222.7	21.1	-78.5	9.0
2026-01-29 01:44:08.804813	222.6	20.8	-79.0	8.5
2026-01-29 01:44:11.050798	222.4	20.5	-78.4	10.0
2026-01-29 01:44:13.301798	222.2	20.2	-79.0	8.3
2026-01-29 01:44:15.552269	222.0	19.9	-79.0	11.7
2026-01-29 01:44:17.800006	221.9	19.6	-79.2	6.7
2026-01-29 01:44:20.045706	221.7	19.4	-79.3	6.9
2026-01-29 01:44:22.293713	221.6	19.1	-79.4	7.5
2026-01-29 01:44:24.540207	221.4	18.8	-78.7	4.9
2026-01-29 01:44:26.792502	221.2	18.5	-79.3	10.0
2026-01-29 01:44:29.040370	221.1	18.3	-78.0	5.4
2026-01-29 01:44:31.288493	221.0	18.0	-78.5	6.7
2026-01-29 01:44:33.538462	220.8	17.7	-78.6	8.1
2026-01-29 01:44:35.785165	220.7	17.5	-78.6	4.8
2026-01-29 01:44:38.036202	220.5	17.2	-78.4	7.1
2026-01-29 01:44:40.288699	220.4	17.0	-78.7	7.0
2026-01-29 01:44:42.535996	220.3	16.7	-78.9	3.8
2026-01-29 01:44:44.782023	220.1	16.5	-79.3	10.3
2026-01-29 01:44:47.029683	220.0	16.2	-79.1	4.9
2026-01-29 01:44:49.276063	219.9	16.0	-79.1	7.4
2026-01-29 01:44:51.526702	219.7	15.7	-79.3	4.0
2026-01-29 01:44:53.775920	219.6	15.5	-79.1	6.8
2026-01-29 01:44:56.023584	219.5	15.2	-78.5	2.3
2026-01-29 01:44:58.270748	219.4	15.0	-78.7	2.8
2026-01-29 01:45:00.522756	219.3	14.8	-79.0	8.6
2026-01-29 01:45:02.768796	219.1	14.5	-79.0	3.9
2026-01-29 01:45:05.019461	219.0	14.3	-78.8	2.8
2026-01-29 01:45:07.267753	218.9	14.1	-78.2	0.0
2026-01-29 01:45:09.516488	218.8	13.9	-79.0	2.7
2026-01-29 01:45:11.762290	218.7	13.6	-78.8	8.6
2026-01-29 01:45:14.009973	218.6	13.4	-78.1	1.3
2026-01-29 01:45:16.259493	218.5	13.2	-77.5	2.7
2026-01-29 01:45:18.509459	218.4	13.0	-78.8	4.2
2026-01-29 01:45:20.755373	218.3	12.8	-79.1	9.2
2026-01-29 01:45:23.004548	218.2	12.5	-78.9	6.3
2026-01-29 01:45:25.253140	218.1	12.3	-78.5	1.6
2026-01-29 01:45:27.504173	218.0	12.1	-78.4	4.4
2026-01-29 01:45:29.749413	217.9	11.9	-79.2	5.2
2026-01-29 01:45:31.996457	217.8	11.7	-79.5	0.0
2026-01-29 01:45:34.243901	217.7	11.5	-78.8	6.9
2026-01-29 01:45:36.494669	217.6	11.3	-78.9	0.0
2026-01-29 01:45:38.741722	217.5	11.1	-78.6	1.5
2026-01-29 01:45:40.990333	217.4	10.9	-80.6	8.5
2026-01-29 01:45:43.233199	217.3	10.7	-84.8	0.0
2026-01-29 01:45:45.480905	217.3	10.5	-85.3	0.0
2026-01-29 01:45:47.728664	217.2	10.3	-84.8	0.0
2026-01-29 01:45:49.977060	217.1	10.1	-84.9	0.5
#Closed at: 2026-01-29 01:35:17.786494