passes_logs/2026/01/29/planumMaritime01/planumMaritime01__20260129_174131_METOP-B_rec.log

#Pass ID: 20260129_174131_METOP-B
#Satellite: METOP-B
#Configuration: METOP-B
#Start time: 2026-01-29 17:41:36.357065

#LorettStation: 1.0.0 05.05.2024
#Station: planumMaritime01
#Location: 37.49445 lon 55.92918 lat
#TLE: 1 38771U 12049A   26027.89976253  .00000165  00000+0  95570-4 0  9999
#TLE: 2 38771  98.6728  82.0610 0002891  50.2602 309.8830 14.21429510693334

#Time	Az	El	Level	SNR
2026-01-29 17:41:38.524389	166.8	10.2	-72.1	0.0
2026-01-29 17:41:40.773175	166.8	10.4	-71.7	0.0
2026-01-29 17:41:43.024543	166.9	10.6	-72.3	0.0
2026-01-29 17:41:45.271636	166.9	10.8	-73.0	3.2
2026-01-29 17:41:47.518330	166.9	11.0	-73.5	3.4
2026-01-29 17:41:49.763752	167.0	11.2	-73.5	3.5
2026-01-29 17:41:52.012644	167.0	11.4	-72.5	5.2
2026-01-29 17:41:54.263536	167.0	11.6	-73.2	3.5
2026-01-29 17:41:56.512894	167.1	11.8	-73.4	5.1
2026-01-29 17:41:58.758933	167.1	12.0	-73.2	3.8
2026-01-29 17:42:01.006755	167.2	12.3	-73.4	4.0
2026-01-29 17:42:03.251901	167.2	12.5	-73.4	5.5
2026-01-29 17:42:05.496693	167.2	12.7	-72.9	3.9
2026-01-29 17:42:07.741321	167.3	12.9	-73.0	2.5
2026-01-29 17:42:09.986752	167.3	13.1	-72.0	1.5
2026-01-29 17:42:12.231031	167.4	13.4	-72.3	4.8
2026-01-29 17:42:14.477155	167.4	13.6	-72.7	2.8
2026-01-29 17:42:16.723647	167.4	13.8	-72.1	3.8
2026-01-29 17:42:18.967834	167.5	14.0	-71.7	3.3
2026-01-29 17:42:21.213124	167.5	14.3	-72.4	2.5
2026-01-29 17:42:23.458989	167.6	14.5	-72.2	0.0
2026-01-29 17:42:25.705026	167.6	14.7	-72.1	3.5
2026-01-29 17:42:27.950503	167.7	15.0	-70.6	1.8
2026-01-29 17:42:30.195836	167.7	15.2	-72.2	4.2
2026-01-29 17:42:32.439683	167.7	15.5	-71.8	3.3
2026-01-29 17:42:34.684381	167.8	15.7	-71.2	0.7
2026-01-29 17:42:36.928831	167.8	16.0	-72.2	2.4
2026-01-29 17:42:39.173919	167.9	16.2	-71.6	1.3
2026-01-29 17:42:41.419637	167.9	16.5	-71.9	1.8
2026-01-29 17:42:43.666393	168.0	16.7	-72.2	0.0
2026-01-29 17:42:45.909277	168.0	17.0	-72.2	2.8
2026-01-29 17:42:48.158981	168.1	17.3	-71.5	4.7
2026-01-29 17:42:50.402869	168.1	17.5	-71.3	2.1
2026-01-29 17:42:52.648533	168.2	17.8	-71.7	1.0
2026-01-29 17:42:54.896757	168.2	18.1	-71.8	5.3
2026-01-29 17:42:57.140625	168.3	18.3	-71.9	1.5
2026-01-29 17:42:59.384656	168.4	18.6	-71.3	0.6
2026-01-29 17:43:01.629087	168.4	18.9	-71.3	2.5
2026-01-29 17:43:03.874177	168.5	19.2	-71.6	2.8
2026-01-29 17:43:06.120610	168.5	19.5	-72.2	4.2
2026-01-29 17:43:08.365908	168.6	19.8	-71.5	3.3
2026-01-29 17:43:10.610609	168.6	20.1	-71.8	1.1
2026-01-29 17:43:12.855210	168.7	20.4	-71.7	4.8
2026-01-29 17:43:15.099608	168.8	20.7	-71.7	4.2
2026-01-29 17:43:17.348177	168.8	21.0	-71.7	2.6
2026-01-29 17:43:19.593237	168.9	21.3	-71.4	1.2
2026-01-29 17:43:21.835696	169.0	21.6	-71.3	4.6
2026-01-29 17:43:24.081600	169.0	21.9	-71.1	5.6
2026-01-29 17:43:26.326727	169.1	22.2	-71.3	0.7
2026-01-29 17:43:28.571903	169.2	22.6	-71.4	3.2
2026-01-29 17:43:30.817531	169.2	22.9	-71.2	5.7
2026-01-29 17:43:33.061743	169.3	23.2	-71.3	3.2
2026-01-29 17:43:35.306885	169.4	23.6	-71.4	5.9
2026-01-29 17:43:37.554251	169.4	23.9	-71.6	6.9
2026-01-29 17:43:39.798041	169.5	24.2	-70.7	3.8
2026-01-29 17:43:42.042724	169.6	24.6	-71.2	5.7
2026-01-29 17:43:44.287592	169.7	25.0	-71.1	6.3
2026-01-29 17:43:46.531982	169.8	25.3	-70.7	4.3
2026-01-29 17:43:48.781532	169.8	25.7	-70.4	3.3
2026-01-29 17:43:51.029867	169.9	26.0	-70.7	4.6
2026-01-29 17:43:53.274672	170.0	26.4	-70.9	5.7
2026-01-29 17:43:55.521070	170.1	26.8	-71.3	5.0
2026-01-29 17:43:57.767399	170.2	27.2	-70.8	3.7
2026-01-29 17:44:00.016472	170.3	27.6	-71.3	5.3
2026-01-29 17:44:02.260314	170.4	28.0	-71.1	5.1
2026-01-29 17:44:04.506414	170.5	28.4	-70.8	5.1
2026-01-29 17:44:06.757623	170.6	28.8	-70.4	3.5
2026-01-29 17:44:09.003210	170.7	29.2	-71.4	4.5
2026-01-29 17:44:11.252093	170.8	29.6	-71.7	6.0
2026-01-29 17:44:13.500845	170.9	30.1	-71.0	4.1
2026-01-29 17:44:15.747656	171.0	30.5	-70.8	7.0
2026-01-29 17:44:17.994000	171.1	30.9	-71.4	6.5
2026-01-29 17:44:20.238998	171.2	31.4	-71.4	6.2
2026-01-29 17:44:22.485001	171.3	31.8	-71.5	6.2
2026-01-29 17:44:24.728232	171.4	32.3	-71.3	7.0
2026-01-29 17:44:26.976557	171.6	32.8	-71.5	7.4
2026-01-29 17:44:29.221031	171.7	33.3	-71.6	7.8
2026-01-29 17:44:31.466654	171.8	33.7	-71.2	8.0
2026-01-29 17:44:33.717760	172.0	34.2	-71.9	8.7
2026-01-29 17:44:35.965066	172.1	34.7	-71.6	8.1
2026-01-29 17:44:38.207893	172.2	35.2	-71.7	7.3
2026-01-29 17:44:40.455655	172.4	35.8	-72.0	8.6
2026-01-29 17:44:42.698601	172.5	36.3	-72.4	9.1
2026-01-29 17:44:44.940946	172.7	36.8	-72.5	10.2
2026-01-29 17:44:47.188394	172.9	37.3	-72.9	10.1
2026-01-29 17:44:49.434853	173.0	37.9	-72.9	10.7
2026-01-29 17:44:51.681659	173.2	38.5	-73.3	10.1
2026-01-29 17:44:53.927827	173.4	39.0	-73.5	10.9
2026-01-29 17:44:56.172777	173.6	39.6	-73.6	10.0
2026-01-29 17:44:58.416718	173.7	40.2	-73.5	10.8
2026-01-29 17:45:00.665151	173.9	40.8	-73.4	11.5
2026-01-29 17:45:02.909641	174.1	41.4	-73.3	11.6
2026-01-29 17:45:05.154894	174.4	42.0	-72.9	10.8
2026-01-29 17:45:07.401310	174.6	42.6	-73.1	12.1
2026-01-29 17:45:09.645068	174.8	43.3	-73.1	11.9
2026-01-29 17:45:11.889407	175.0	43.9	-73.3	11.9
2026-01-29 17:45:14.134794	175.3	44.6	-73.2	11.5
2026-01-29 17:45:16.379654	175.5	45.2	-73.4	11.5
2026-01-29 17:45:18.627366	175.8	45.9	-72.8	10.9
2026-01-29 17:45:20.875174	176.1	46.6	-73.1	11.0
2026-01-29 17:45:23.120334	176.4	47.3	-73.2	10.8
2026-01-29 17:45:25.363677	176.7	48.0	-72.9	11.2
2026-01-29 17:45:27.609452	177.0	48.7	-72.8	10.6
2026-01-29 17:45:29.857719	177.3	49.5	-72.8	11.2
2026-01-29 17:45:32.103591	177.7	50.2	-72.4	10.5
2026-01-29 17:45:34.346792	178.0	51.0	-72.5	10.8
2026-01-29 17:45:36.593130	178.4	51.7	-72.7	10.6
2026-01-29 17:45:38.838782	178.8	52.5	-72.2	10.2
2026-01-29 17:45:41.085373	179.2	53.3	-72.8	11.5
2026-01-29 17:45:43.330381	179.7	54.1	-73.3	10.9
2026-01-29 17:45:45.578725	180.2	54.9	-72.9	10.5
2026-01-29 17:45:47.823074	180.7	55.7	-72.5	10.5
2026-01-29 17:45:50.067819	181.2	56.5	-72.4	10.6
2026-01-29 17:45:52.312574	181.8	57.4	-72.7	11.7
2026-01-29 17:45:54.557405	182.4	58.2	-72.3	9.5
2026-01-29 17:45:56.805733	183.0	59.1	-72.0	10.4
2026-01-29 17:45:59.053663	183.7	60.0	-72.4	8.8
2026-01-29 17:46:01.299690	184.4	60.8	-72.8	8.7
2026-01-29 17:46:03.544169	185.2	61.7	-72.3	9.0
2026-01-29 17:46:05.788720	186.0	62.6	-72.3	8.8
2026-01-29 17:46:08.035331	186.9	63.5	-72.0	9.6
2026-01-29 17:46:10.280741	187.9	64.4	-71.8	9.6
2026-01-29 17:46:12.529687	189.0	65.3	-72.1	10.9
2026-01-29 17:46:14.774684	190.1	66.2	-72.1	10.4
2026-01-29 17:46:17.022989	191.4	67.1	-72.2	9.7
2026-01-29 17:46:19.267222	192.7	68.0	-72.6	9.8
2026-01-29 17:46:21.512234	194.2	68.9	-72.9	8.5
2026-01-29 17:46:23.758827	195.8	69.8	-72.9	8.4
2026-01-29 17:46:26.002287	197.6	70.7	-72.9	8.5
2026-01-29 17:46:28.247689	199.5	71.6	-73.4	7.9
2026-01-29 17:46:30.493418	201.7	72.5	-73.1	7.6
2026-01-29 17:46:32.735629	204.1	73.3	-73.4	8.6
2026-01-29 17:46:34.984552	206.8	74.1	-73.1	8.3
2026-01-29 17:46:37.228817	209.8	74.9	-73.0	9.6
2026-01-29 17:46:39.474730	213.1	75.7	-72.7	10.1
2026-01-29 17:46:41.720579	216.7	76.4	-73.2	9.9
2026-01-29 17:46:43.966670	220.8	77.0	-73.2	7.6
2026-01-29 17:46:46.213386	225.3	77.6	-73.0	7.1
2026-01-29 17:46:48.456513	230.2	78.1	-72.6	8.4
2026-01-29 17:46:50.704099	235.5	78.5	-72.4	7.6
2026-01-29 17:46:52.950688	241.1	78.8	-73.1	9.0
2026-01-29 17:46:55.197309	247.0	79.0	-73.0	8.2
2026-01-29 17:46:57.442649	253.1	79.1	-72.2	8.0
2026-01-29 17:46:59.685013	259.2	79.1	-71.7	6.5
2026-01-29 17:47:01.931180	265.2	78.9	-71.7	6.1
2026-01-29 17:47:04.177735	270.9	78.7	-72.6	8.2
2026-01-29 17:47:06.424611	276.4	78.3	-71.3	2.8
2026-01-29 17:47:08.669576	281.4	77.8	-71.4	7.6
2026-01-29 17:47:10.915490	286.0	77.3	-70.9	3.8
2026-01-29 17:47:13.156875	290.2	76.6	-71.7	6.3
2026-01-29 17:47:15.400414	294.0	76.0	-71.2	3.7
2026-01-29 17:47:17.646793	297.5	75.2	-70.8	6.7
2026-01-29 17:47:19.890808	300.5	74.4	-69.9	5.8
2026-01-29 17:47:22.136806	303.3	73.6	-71.8	7.1
2026-01-29 17:47:24.381571	305.8	72.8	-71.0	3.9
2026-01-29 17:47:26.627720	308.1	71.9	-70.0	3.0
2026-01-29 17:47:28.872615	310.1	71.1	-69.7	1.9
2026-01-29 17:47:31.119238	311.9	70.2	-71.2	5.4
2026-01-29 17:47:33.365834	313.6	69.3	-69.8	2.9
2026-01-29 17:47:35.610094	315.2	68.4	-70.4	5.9
2026-01-29 17:47:37.855420	316.5	67.5	-70.5	4.5
2026-01-29 17:47:40.098479	317.8	66.6	-70.7	6.6
2026-01-29 17:47:42.343416	319.0	65.7	-68.3	1.1
2026-01-29 17:47:44.590055	320.1	64.8	-70.3	3.1
2026-01-29 17:47:46.836699	321.1	63.9	-69.1	3.3
2026-01-29 17:47:49.080071	322.0	63.0	-68.0	1.9
2026-01-29 17:47:51.325136	322.9	62.1	-67.9	2.2
2026-01-29 17:47:53.570205	323.7	61.2	-69.4	4.5
2026-01-29 17:47:55.816202	324.4	60.3	-68.4	2.7
2026-01-29 17:47:58.061676	325.1	59.4	-69.6	4.2
2026-01-29 17:48:00.308190	325.8	58.6	-69.6	4.5
2026-01-29 17:48:02.553428	326.4	57.7	-70.1	3.6
2026-01-29 17:48:04.798598	327.0	56.9	-70.2	1.6
2026-01-29 17:48:07.041689	327.5	56.1	-70.6	1.7
2026-01-29 17:48:09.285316	328.0	55.2	-70.0	4.6
2026-01-29 17:48:11.529951	328.5	54.4	-67.9	0.0
2026-01-29 17:48:13.772878	329.0	53.6	-69.9	3.9
2026-01-29 17:48:16.019946	329.4	52.9	-69.7	5.9
2026-01-29 17:48:18.266825	329.8	52.1	-69.2	5.1
2026-01-29 17:48:20.513000	330.2	51.3	-69.3	5.7
2026-01-29 17:48:22.755644	330.6	50.6	-69.4	5.9
2026-01-29 17:48:25.005037	330.9	49.8	-69.9	5.2
2026-01-29 17:48:27.249660	331.3	49.1	-67.0	0.0
2026-01-29 17:48:29.494312	331.6	48.4	-70.6	5.3
2026-01-29 17:48:31.738713	331.9	47.6	-70.4	4.5
2026-01-29 17:48:33.985315	332.2	46.9	-69.3	1.8
2026-01-29 17:48:36.232524	332.5	46.3	-69.5	4.2
2026-01-29 17:48:38.476093	332.7	45.6	-68.9	4.5
2026-01-29 17:48:40.723778	333.0	44.9	-68.4	3.8
2026-01-29 17:48:42.971579	333.2	44.2	-67.8	0.1
2026-01-29 17:48:45.217886	333.5	43.6	-68.6	0.9
2026-01-29 17:48:47.465659	333.7	43.0	-68.4	2.4
2026-01-29 17:48:49.713112	333.9	42.3	-68.2	3.0
2026-01-29 17:48:51.957727	334.2	41.7	-68.4	4.4
2026-01-29 17:48:54.205078	334.4	41.1	-67.7	1.4
2026-01-29 17:48:56.447766	334.6	40.5	-66.3	0.0
2026-01-29 17:48:58.692786	334.8	39.9	-66.8	0.0
2026-01-29 17:49:00.938538	334.9	39.4	-67.6	0.0
2026-01-29 17:49:03.185347	335.1	38.8	-67.5	0.0
2026-01-29 17:49:05.429844	335.3	38.2	-66.8	0.0
2026-01-29 17:49:07.675275	335.5	37.7	-66.9	0.0
2026-01-29 17:49:09.919817	335.6	37.1	-66.1	0.0
2026-01-29 17:49:12.165403	335.8	36.6	-66.2	0.0
2026-01-29 17:49:14.412339	335.9	36.1	-64.5	0.0
2026-01-29 17:49:16.657394	336.1	35.6	-65.2	0.0
2026-01-29 17:49:18.902662	336.2	35.1	-65.3	0.0
2026-01-29 17:49:21.148811	336.4	34.6	-65.6	0.0
2026-01-29 17:49:23.397329	336.5	34.1	-65.1	0.0
2026-01-29 17:49:25.644027	336.6	33.6	-65.3	0.0
2026-01-29 17:49:27.890038	336.8	33.1	-66.6	0.0
2026-01-29 17:49:30.136594	336.9	32.6	-66.2	0.0
2026-01-29 17:49:32.382244	337.0	32.2	-65.8	0.0
2026-01-29 17:49:34.626806	337.1	31.7	-62.8	0.0
2026-01-29 17:49:36.871456	337.3	31.3	-66.9	0.0
2026-01-29 17:49:39.118851	337.4	30.8	-65.4	0.0
2026-01-29 17:49:41.365408	337.5	30.4	-66.0	0.0
2026-01-29 17:49:43.611068	337.6	30.0	-65.0	0.0
2026-01-29 17:49:45.855133	337.7	29.5	-65.5	0.0
2026-01-29 17:49:48.099546	337.8	29.1	-66.7	0.0
2026-01-29 17:49:50.344532	337.9	28.7	-64.9	0.0
2026-01-29 17:49:52.590186	338.0	28.3	-65.4	0.0
2026-01-29 17:49:54.835005	338.1	27.9	-64.5	0.0
2026-01-29 17:49:57.077915	338.2	27.5	-65.4	0.0
2026-01-29 17:49:59.325141	338.3	27.1	-63.0	0.0
2026-01-29 17:50:01.570279	338.4	26.7	-64.3	0.0
2026-01-29 17:50:03.814788	338.5	26.4	-63.3	0.0
2026-01-29 17:50:06.057051	338.5	26.0	-65.0	0.0
2026-01-29 17:50:08.304329	338.6	25.6	-63.9	0.0
2026-01-29 17:50:10.547641	338.7	25.3	-61.4	0.0
2026-01-29 17:50:12.797040	338.8	24.9	-64.6	0.0
2026-01-29 17:50:15.043152	338.9	24.6	-62.8	0.0
2026-01-29 17:50:17.286870	338.9	24.2	-65.6	0.0
2026-01-29 17:50:19.533331	339.0	23.9	-63.9	0.0
2026-01-29 17:50:21.778777	339.1	23.5	-66.0	0.0
2026-01-29 17:50:24.021580	339.2	23.2	-64.5	0.0
2026-01-29 17:50:26.265210	339.2	22.9	-62.9	0.0
2026-01-29 17:50:28.510002	339.3	22.5	-64.4	0.0
2026-01-29 17:50:30.753110	339.4	22.2	-62.1	0.0
2026-01-29 17:50:32.997551	339.4	21.9	-63.5	0.0
2026-01-29 17:50:35.240424	339.5	21.6	-63.0	0.0
2026-01-29 17:50:37.482919	339.6	21.3	-64.4	0.0
2026-01-29 17:50:39.726971	339.6	21.0	-64.1	0.0
2026-01-29 17:50:41.973680	339.7	20.7	-63.7	0.0
2026-01-29 17:50:44.220067	339.8	20.4	-64.7	0.0
2026-01-29 17:50:46.466769	339.8	20.1	-61.6	0.0
2026-01-29 17:50:48.711766	339.9	19.8	-63.2	0.0
2026-01-29 17:50:50.956615	340.0	19.5	-62.3	0.0
2026-01-29 17:50:53.199697	340.0	19.2	-65.7	0.0
2026-01-29 17:50:55.445108	340.1	18.9	-62.5	0.0
2026-01-29 17:50:57.691921	340.1	18.6	-61.1	0.0
2026-01-29 17:50:59.938036	340.2	18.4	-64.9	0.0
2026-01-29 17:51:02.182741	340.2	18.1	-62.6	0.0
2026-01-29 17:51:04.426672	340.3	17.8	-60.6	0.0
2026-01-29 17:51:06.676096	340.3	17.6	-62.9	0.0
2026-01-29 17:51:08.920530	340.4	17.3	-64.0	0.0
2026-01-29 17:51:11.164758	340.5	17.0	-64.1	0.0
2026-01-29 17:51:13.410151	340.5	16.8	-63.5	0.0
2026-01-29 17:51:15.655429	340.6	16.5	-65.2	0.0
2026-01-29 17:51:17.898731	340.6	16.3	-65.2	0.0
2026-01-29 17:51:20.142248	340.7	16.0	-64.3	0.0
2026-01-29 17:51:22.388340	340.7	15.8	-64.9	0.0
2026-01-29 17:51:24.630814	340.7	15.5	-63.2	0.0
2026-01-29 17:51:26.873012	340.8	15.3	-64.0	0.0
2026-01-29 17:51:29.118827	340.8	15.0	-65.2	0.0
2026-01-29 17:51:31.360609	340.9	14.8	-63.6	0.0
2026-01-29 17:51:33.606532	340.9	14.6	-64.3	0.0
2026-01-29 17:51:35.852397	341.0	14.3	-65.8	0.0
2026-01-29 17:51:38.097575	341.0	14.1	-66.2	0.0
2026-01-29 17:51:40.342458	341.1	13.9	-66.8	0.0
2026-01-29 17:51:42.583919	341.1	13.7	-64.7	0.0
2026-01-29 17:51:44.833584	341.2	13.4	-65.6	0.0
2026-01-29 17:51:47.081320	341.2	13.2	-64.0	0.0
2026-01-29 17:51:49.326717	341.2	13.0	-66.7	0.0
2026-01-29 17:51:51.573152	341.3	12.8	-65.7	0.0
2026-01-29 17:51:53.821275	341.3	12.6	-65.2	0.0
2026-01-29 17:51:56.070900	341.4	12.3	-64.7	0.0
2026-01-29 17:51:58.317918	341.4	12.1	-66.0	0.0
2026-01-29 17:52:00.565048	341.4	11.9	-65.1	0.0
2026-01-29 17:52:02.809768	341.5	11.7	-64.5	0.0
2026-01-29 17:52:05.056180	341.5	11.5	-64.7	0.0
2026-01-29 17:52:07.302132	341.6	11.3	-64.4	0.0
2026-01-29 17:52:09.547441	341.6	11.1	-63.5	0.0
2026-01-29 17:52:11.790444	341.6	10.9	-63.7	0.0
2026-01-29 17:52:14.036120	341.7	10.7	-63.6	0.0
2026-01-29 17:52:16.280297	341.7	10.5	-61.8	0.0
2026-01-29 17:52:18.525795	341.7	10.3	-60.9	0.0
2026-01-29 17:52:20.771377	341.8	10.1	-70.5	0.0
#Closed at: 2026-01-29 17:41:31.362883