passes_logs/2026/01/29/planumMaritime01/planumMaritime01__20260129_064340_METEOR-M2_3_rec.log

#Pass ID: 20260129_064340_METEOR-M2 3
#Satellite: METEOR-M2 3
#Configuration: METEOR-M2 3
#Start time: 2026-01-29 06:43:45.358594

#LorettStation: 1.0.0 05.05.2024
#Station: planumMaritime01
#Location: 37.49445 lon 55.92918 lat
#TLE: 1 57166U 23091A   26027.99488459  .00000021  00000+0  27978-4 0  9992
#TLE: 2 57166  98.6303  85.7107 0003472 203.3715 156.7307 14.24032890134562

#Time	Az	El	Level	SNR
2026-01-29 06:43:47.534314	25.9	10.2	-76.6	0.0
2026-01-29 06:43:49.783741	26.0	10.4	-77.1	0.0
2026-01-29 06:43:52.032546	26.2	10.5	-71.8	0.0
2026-01-29 06:43:54.278576	26.3	10.7	-69.1	0.0
2026-01-29 06:43:56.526931	26.5	10.9	-65.9	0.0
2026-01-29 06:43:58.777582	26.7	11.1	-65.0	0.0
2026-01-29 06:44:01.023301	26.8	11.3	-62.6	0.0
2026-01-29 06:44:03.272823	27.0	11.5	-67.6	0.0
2026-01-29 06:44:05.521481	27.1	11.7	-65.6	0.0
2026-01-29 06:44:07.770717	27.3	11.9	-64.0	0.0
2026-01-29 06:44:10.018880	27.5	12.1	-66.7	0.0
2026-01-29 06:44:12.265631	27.6	12.3	-64.2	0.0
2026-01-29 06:44:14.514278	27.8	12.5	-63.0	0.0
2026-01-29 06:44:16.762775	28.0	12.7	-64.1	0.0
2026-01-29 06:44:19.009849	28.1	12.9	-62.9	0.0
2026-01-29 06:44:21.254917	28.3	13.1	-63.4	0.0
2026-01-29 06:44:23.503715	28.5	13.3	-65.1	0.0
2026-01-29 06:44:25.752075	28.7	13.5	-64.8	0.0
2026-01-29 06:44:28.000105	28.9	13.7	-65.4	0.0
2026-01-29 06:44:30.247012	29.0	13.9	-66.8	0.0
2026-01-29 06:44:32.496856	29.2	14.1	-66.7	0.0
2026-01-29 06:44:34.745409	29.4	14.3	-66.1	0.0
2026-01-29 06:44:36.991626	29.6	14.6	-64.0	0.0
2026-01-29 06:44:39.239681	29.8	14.8	-66.2	0.0
2026-01-29 06:44:41.485684	30.0	15.0	-66.1	0.0
2026-01-29 06:44:43.732690	30.2	15.2	-61.6	0.0
2026-01-29 06:44:45.979948	30.4	15.4	-65.4	0.0
2026-01-29 06:44:48.229368	30.6	15.7	-64.0	0.0
2026-01-29 06:44:50.480854	30.8	15.9	-65.5	0.0
2026-01-29 06:44:52.726801	31.0	16.1	-65.6	0.0
2026-01-29 06:44:54.974629	31.3	16.3	-63.9	0.0
2026-01-29 06:44:57.224554	31.5	16.6	-65.0	0.0
2026-01-29 06:44:59.470858	31.7	16.8	-66.1	0.0
2026-01-29 06:45:01.717495	31.9	17.0	-63.7	0.0
2026-01-29 06:45:03.965163	32.2	17.3	-61.1	0.0
2026-01-29 06:45:06.213746	32.4	17.5	-60.2	0.0
2026-01-29 06:45:08.461792	32.6	17.7	-65.0	0.0
2026-01-29 06:45:10.707396	32.9	18.0	-66.2	0.0
2026-01-29 06:45:12.954457	33.1	18.2	-64.0	0.0
2026-01-29 06:45:15.203890	33.4	18.5	-69.5	0.0
2026-01-29 06:45:17.450273	33.6	18.7	-63.4	0.0
2026-01-29 06:45:19.699116	33.9	19.0	-66.4	0.0
2026-01-29 06:45:21.950793	34.1	19.2	-64.2	0.0
2026-01-29 06:45:24.199293	34.4	19.5	-66.7	0.0
2026-01-29 06:45:26.445533	34.7	19.7	-64.3	0.0
2026-01-29 06:45:28.688030	34.9	20.0	-68.8	0.0
2026-01-29 06:45:30.936679	35.2	20.2	-68.6	0.0
2026-01-29 06:45:33.182739	35.5	20.5	-68.5	0.0
2026-01-29 06:45:35.432869	35.8	20.8	-67.9	0.0
2026-01-29 06:45:37.679004	36.1	21.0	-64.1	0.0
2026-01-29 06:45:39.927496	36.4	21.3	-69.7	0.0
2026-01-29 06:45:42.174278	36.7	21.6	-69.0	0.0
2026-01-29 06:45:44.421724	37.0	21.9	-68.1	0.0
2026-01-29 06:45:46.670608	37.3	22.1	-65.4	0.0
2026-01-29 06:45:48.920680	37.6	22.4	-70.2	0.0
2026-01-29 06:45:51.168699	37.9	22.7	-70.1	0.0
2026-01-29 06:45:53.418503	38.3	23.0	-68.1	0.0
2026-01-29 06:45:55.666621	38.6	23.3	-69.4	0.0
2026-01-29 06:45:57.914012	39.0	23.5	-69.6	0.0
2026-01-29 06:46:00.158196	39.3	23.8	-69.4	0.0
2026-01-29 06:46:02.405829	39.7	24.1	-69.9	0.0
2026-01-29 06:46:04.653412	40.0	24.4	-67.8	0.0
2026-01-29 06:46:06.903346	40.4	24.7	-69.4	0.0
2026-01-29 06:46:09.152050	40.8	25.0	-71.3	0.0
2026-01-29 06:46:11.398988	41.1	25.3	-71.4	0.0
2026-01-29 06:46:13.650068	41.5	25.6	-71.7	0.0
2026-01-29 06:46:15.896353	41.9	25.9	-71.5	0.0
2026-01-29 06:46:18.140939	42.3	26.2	-73.0	2.9
2026-01-29 06:46:20.386825	42.7	26.5	-72.7	0.7
2026-01-29 06:46:22.634311	43.2	26.8	-69.6	0.0
2026-01-29 06:46:24.881206	43.6	27.1	-74.2	4.0
2026-01-29 06:46:27.129056	44.0	27.4	-72.3	2.7
2026-01-29 06:46:29.377208	44.5	27.8	-74.2	0.0
2026-01-29 06:46:31.624821	44.9	28.1	-71.8	0.0
2026-01-29 06:46:33.872379	45.4	28.4	-73.0	1.7
2026-01-29 06:46:36.119657	45.8	28.7	-72.1	0.0
2026-01-29 06:46:38.367336	46.3	29.0	-73.2	2.6
2026-01-29 06:46:40.616590	46.8	29.4	-73.3	0.6
2026-01-29 06:46:42.863356	47.3	29.7	-73.0	0.6
2026-01-29 06:46:45.111848	47.8	30.0	-74.0	3.1
2026-01-29 06:46:47.361098	48.3	30.3	-74.3	3.1
2026-01-29 06:46:49.606876	48.9	30.7	-72.8	2.0
2026-01-29 06:46:51.852818	49.4	31.0	-74.3	4.2
2026-01-29 06:46:54.099654	50.0	31.3	-73.7	3.7
2026-01-29 06:46:56.347376	50.5	31.7	-74.5	6.0
2026-01-29 06:46:58.595860	51.1	32.0	-71.2	0.0
2026-01-29 06:47:00.845229	51.7	32.3	-75.1	7.0
2026-01-29 06:47:03.091741	52.3	32.7	-74.8	5.0
2026-01-29 06:47:05.340692	52.9	33.0	-73.9	3.5
2026-01-29 06:47:07.589819	53.5	33.3	-74.1	1.4
2026-01-29 06:47:09.837583	54.2	33.7	-75.8	5.8
2026-01-29 06:47:12.084573	54.8	34.0	-75.3	6.7
2026-01-29 06:47:14.332645	55.5	34.4	-75.7	6.4
2026-01-29 06:47:16.580634	56.1	34.7	-75.2	4.9
2026-01-29 06:47:18.829379	56.8	35.0	-74.9	5.3
2026-01-29 06:47:21.076149	57.5	35.4	-74.6	4.5
2026-01-29 06:47:23.323374	58.3	35.7	-75.1	4.1
2026-01-29 06:47:25.572247	59.0	36.0	-75.3	8.5
2026-01-29 06:47:27.821494	59.7	36.3	-75.4	8.7
2026-01-29 06:47:30.066685	60.5	36.7	-74.5	7.1
2026-01-29 06:47:32.318069	61.3	37.0	-74.6	7.4
2026-01-29 06:47:34.567686	62.1	37.3	-72.8	0.9
2026-01-29 06:47:36.815708	62.9	37.6	-75.5	8.2
2026-01-29 06:47:39.061364	63.7	37.9	-73.8	4.6
2026-01-29 06:47:41.311736	64.5	38.3	-75.5	6.3
2026-01-29 06:47:43.556398	65.4	38.6	-76.1	6.3
2026-01-29 06:47:45.804945	66.3	38.9	-75.2	4.9
2026-01-29 06:47:48.052318	67.2	39.2	-76.7	7.9
2026-01-29 06:47:50.301761	68.1	39.5	-76.2	7.5
2026-01-29 06:47:52.549866	69.0	39.7	-73.5	3.8
2026-01-29 06:47:54.796962	69.9	40.0	-75.6	8.2
2026-01-29 06:47:57.042327	70.9	40.3	-74.9	7.6
2026-01-29 06:47:59.290638	71.8	40.6	-75.8	7.9
2026-01-29 06:48:01.535877	72.8	40.8	-75.1	4.9
2026-01-29 06:48:03.783930	73.8	41.1	-75.0	6.4
2026-01-29 06:48:06.030476	74.8	41.3	-73.4	2.6
2026-01-29 06:48:08.280294	75.9	41.6	-74.8	5.9
2026-01-29 06:48:10.527711	76.9	41.8	-73.4	1.6
2026-01-29 06:48:12.778460	78.0	42.0	-73.8	2.6
2026-01-29 06:48:15.028207	79.1	42.2	-73.4	1.6
2026-01-29 06:48:17.275993	80.2	42.4	-72.8	0.0
2026-01-29 06:48:19.523699	81.3	42.6	-73.3	1.8
2026-01-29 06:48:21.773800	82.4	42.8	-74.4	3.8
2026-01-29 06:48:24.020003	83.5	42.9	-74.8	4.3
2026-01-29 06:48:26.265406	84.6	43.1	-73.9	0.6
2026-01-29 06:48:28.513304	85.8	43.2	-73.2	0.3
2026-01-29 06:48:30.760798	86.9	43.4	-73.2	2.0
2026-01-29 06:48:33.006336	88.1	43.5	-72.1	0.0
2026-01-29 06:48:35.258664	89.3	43.6	-72.4	0.0
2026-01-29 06:48:37.507699	90.5	43.7	-73.4	3.0
2026-01-29 06:48:39.757041	91.7	43.8	-75.0	2.9
2026-01-29 06:48:42.002814	92.8	43.8	-73.5	0.4
2026-01-29 06:48:44.246823	94.0	43.9	-74.1	0.0
2026-01-29 06:48:46.496664	95.2	43.9	-72.4	0.2
2026-01-29 06:48:48.745234	96.5	43.9	-72.8	5.5
2026-01-29 06:48:50.993990	97.7	44.0	-74.0	3.5
2026-01-29 06:48:53.242322	98.9	44.0	-73.4	0.0
2026-01-29 06:48:55.491833	100.1	43.9	-74.9	4.0
2026-01-29 06:48:57.738545	101.3	43.9	-76.0	4.4
2026-01-29 06:48:59.987367	102.5	43.9	-75.6	2.1
2026-01-29 06:49:02.233900	103.7	43.8	-76.6	6.3
2026-01-29 06:49:04.482697	104.9	43.7	-76.2	5.9
2026-01-29 06:49:06.732405	106.1	43.7	-74.2	1.5
2026-01-29 06:49:08.981656	107.2	43.6	-74.9	3.2
2026-01-29 06:49:11.227464	108.4	43.4	-75.2	4.0
2026-01-29 06:49:13.475466	109.6	43.3	-76.0	1.8
2026-01-29 06:49:15.723456	110.7	43.2	-72.9	0.0
2026-01-29 06:49:17.973782	111.9	43.0	-74.7	2.0
2026-01-29 06:49:20.222550	113.0	42.9	-73.9	2.2
2026-01-29 06:49:22.466688	114.2	42.7	-76.9	6.6
2026-01-29 06:49:24.711290	115.3	42.5	-77.1	7.3
2026-01-29 06:49:26.958610	116.4	42.3	-76.5	8.7
2026-01-29 06:49:29.206891	117.4	42.1	-76.8	8.5
2026-01-29 06:49:31.456804	118.5	41.9	-76.3	10.1
2026-01-29 06:49:33.706461	119.6	41.7	-74.7	4.5
2026-01-29 06:49:35.951708	120.6	41.5	-74.7	7.3
2026-01-29 06:49:38.199883	121.7	41.2	-75.3	7.6
2026-01-29 06:49:40.448134	122.7	41.0	-75.0	6.5
2026-01-29 06:49:42.694102	123.7	40.7	-75.6	7.3
2026-01-29 06:49:44.943628	124.6	40.5	-75.8	6.9
2026-01-29 06:49:47.193341	125.6	40.2	-76.3	9.8
2026-01-29 06:49:49.441584	126.6	39.9	-76.9	8.5
2026-01-29 06:49:51.690035	127.5	39.6	-76.7	9.8
2026-01-29 06:49:53.937940	128.4	39.3	-76.9	11.1
2026-01-29 06:49:56.185305	129.3	39.0	-76.2	9.0
2026-01-29 06:49:58.431023	130.2	38.7	-76.5	9.9
2026-01-29 06:50:00.677192	131.1	38.4	-76.1	8.7
2026-01-29 06:50:02.923465	131.9	38.1	-76.7	11.7
2026-01-29 06:50:05.169396	132.8	37.8	-75.7	8.4
2026-01-29 06:50:07.416310	133.6	37.5	-76.6	10.0
2026-01-29 06:50:09.663985	134.4	37.2	-76.8	9.1
2026-01-29 06:50:11.911160	135.2	36.8	-76.8	10.3
2026-01-29 06:50:14.157678	136.0	36.5	-76.2	10.4
2026-01-29 06:50:16.404559	136.7	36.2	-76.8	11.6
2026-01-29 06:50:18.649077	137.5	35.9	-76.1	8.6
2026-01-29 06:50:20.899095	138.2	35.5	-76.6	10.3
2026-01-29 06:50:23.145148	138.9	35.2	-76.4	10.9
2026-01-29 06:50:25.394766	139.6	34.9	-77.0	9.0
2026-01-29 06:50:27.642231	140.3	34.5	-76.5	9.4
2026-01-29 06:50:29.890773	141.0	34.2	-76.7	11.6
2026-01-29 06:50:32.137025	141.6	33.9	-76.9	11.9
2026-01-29 06:50:34.384556	142.3	33.5	-76.4	9.6
2026-01-29 06:50:36.632646	142.9	33.2	-76.8	13.2
2026-01-29 06:50:38.881035	143.5	32.8	-76.8	10.6
2026-01-29 06:50:41.130153	144.1	32.5	-77.2	12.4
2026-01-29 06:50:43.379079	144.7	32.2	-77.3	12.7
2026-01-29 06:50:45.627120	145.3	31.8	-77.0	11.4
2026-01-29 06:50:47.878098	145.9	31.5	-77.2	11.6
2026-01-29 06:50:50.124062	146.5	31.2	-77.4	12.5
2026-01-29 06:50:52.373413	147.0	30.8	-77.1	10.2
2026-01-29 06:50:54.618920	147.5	30.5	-77.1	11.1
2026-01-29 06:50:56.867299	148.1	30.2	-77.5	10.0
2026-01-29 06:50:59.115595	148.6	29.8	-77.5	11.7
2026-01-29 06:51:01.364379	149.1	29.5	-76.7	9.3
2026-01-29 06:51:03.612656	149.6	29.2	-77.7	12.7
2026-01-29 06:51:05.861503	150.1	28.8	-77.4	10.9
2026-01-29 06:51:08.106857	150.6	28.5	-77.2	11.4
2026-01-29 06:51:10.355444	151.0	28.2	-77.2	11.2
2026-01-29 06:51:12.602893	151.5	27.9	-77.5	11.3
2026-01-29 06:51:14.848560	151.9	27.6	-77.2	11.5
2026-01-29 06:51:17.097606	152.4	27.2	-77.4	11.1
2026-01-29 06:51:19.343409	152.8	26.9	-77.0	9.9
2026-01-29 06:51:21.596415	153.2	26.6	-76.0	7.8
2026-01-29 06:51:23.843169	153.7	26.3	-76.8	9.7
2026-01-29 06:51:26.091925	154.1	26.0	-76.8	10.8
2026-01-29 06:51:28.339045	154.5	25.7	-76.7	9.4
2026-01-29 06:51:30.584849	154.9	25.4	-77.0	8.5
2026-01-29 06:51:32.831787	155.2	25.1	-76.9	10.9
2026-01-29 06:51:35.079908	155.6	24.8	-76.6	10.1
2026-01-29 06:51:37.326516	156.0	24.5	-77.0	9.6
2026-01-29 06:51:39.573372	156.4	24.2	-76.9	7.8
2026-01-29 06:51:41.821640	156.7	23.9	-76.5	8.9
2026-01-29 06:51:44.069739	157.1	23.6	-76.7	10.4
2026-01-29 06:51:46.321127	157.4	23.3	-76.9	11.3
2026-01-29 06:51:48.568656	157.8	23.0	-76.6	9.8
2026-01-29 06:51:50.815483	158.1	22.7	-76.6	6.2
2026-01-29 06:51:53.064477	158.4	22.4	-76.0	7.1
2026-01-29 06:51:55.311798	158.7	22.2	-77.2	10.0
2026-01-29 06:51:57.562471	159.1	21.9	-77.5	9.3
2026-01-29 06:51:59.808545	159.4	21.6	-77.6	9.2
2026-01-29 06:52:02.055522	159.7	21.3	-77.6	9.4
2026-01-29 06:52:04.306591	160.0	21.1	-77.8	10.1
2026-01-29 06:52:06.553399	160.3	20.8	-76.7	7.1
2026-01-29 06:52:08.800650	160.6	20.5	-77.7	8.4
2026-01-29 06:52:11.047328	160.8	20.3	-77.2	7.0
2026-01-29 06:52:13.293204	161.1	20.0	-77.5	7.6
2026-01-29 06:52:15.542602	161.4	19.7	-78.0	7.4
2026-01-29 06:52:17.790374	161.7	19.5	-77.5	8.9
2026-01-29 06:52:20.038578	161.9	19.2	-77.6	8.1
2026-01-29 06:52:22.283760	162.2	19.0	-77.9	8.7
2026-01-29 06:52:24.530948	162.5	18.7	-76.9	6.5
2026-01-29 06:52:26.779769	162.7	18.5	-77.5	7.9
2026-01-29 06:52:29.027456	163.0	18.2	-77.6	7.3
2026-01-29 06:52:31.280633	163.2	18.0	-77.2	8.1
2026-01-29 06:52:33.531030	163.5	17.7	-77.3	7.9
2026-01-29 06:52:35.779427	163.7	17.5	-77.4	7.0
2026-01-29 06:52:38.028898	163.9	17.2	-77.6	7.0
2026-01-29 06:52:40.273361	164.2	17.0	-77.7	6.1
2026-01-29 06:52:42.522186	164.4	16.8	-76.9	4.8
2026-01-29 06:52:44.772684	164.6	16.5	-77.5	6.6
2026-01-29 06:52:47.020809	164.8	16.3	-77.9	7.6
2026-01-29 06:52:49.270538	165.0	16.1	-77.6	7.1
2026-01-29 06:52:51.517249	165.3	15.8	-77.6	7.2
2026-01-29 06:52:53.764361	165.5	15.6	-78.5	9.9
2026-01-29 06:52:56.015638	165.7	15.4	-78.1	9.0
2026-01-29 06:52:58.262197	165.9	15.2	-77.9	8.2
2026-01-29 06:53:00.512662	166.1	14.9	-78.4	9.8
2026-01-29 06:53:02.765997	166.3	14.7	-78.2	7.6
2026-01-29 06:53:05.011632	166.5	14.5	-78.9	9.7
2026-01-29 06:53:07.258413	166.7	14.3	-78.4	9.3
2026-01-29 06:53:09.507536	166.9	14.1	-78.6	9.1
2026-01-29 06:53:11.757700	167.1	13.8	-78.6	9.8
2026-01-29 06:53:14.003256	167.2	13.6	-78.7	9.1
2026-01-29 06:53:16.248385	167.4	13.4	-78.5	8.7
2026-01-29 06:53:18.496618	167.6	13.2	-79.2	8.7
2026-01-29 06:53:20.746182	167.8	13.0	-79.0	8.1
2026-01-29 06:53:22.995329	168.0	12.8	-78.8	7.6
2026-01-29 06:53:25.242200	168.1	12.6	-78.9	8.0
2026-01-29 06:53:27.489366	168.3	12.4	-79.2	8.6
2026-01-29 06:53:29.737743	168.5	12.2	-78.4	8.6
2026-01-29 06:53:31.988195	168.6	12.0	-78.7	8.3
2026-01-29 06:53:34.238298	168.8	11.8	-79.0	8.3
2026-01-29 06:53:36.487333	169.0	11.6	-78.5	8.9
2026-01-29 06:53:38.736177	169.1	11.4	-78.4	6.3
2026-01-29 06:53:40.987272	169.3	11.2	-79.1	6.5
2026-01-29 06:53:43.237285	169.5	11.0	-78.5	6.5
2026-01-29 06:53:45.485797	169.6	10.8	-79.6	6.7
2026-01-29 06:53:47.733116	169.8	10.6	-80.0	0.0
2026-01-29 06:53:49.980920	169.9	10.4	-80.3	0.0
2026-01-29 06:53:52.227861	170.1	10.3	-82.6	0.0
2026-01-29 06:53:54.476052	170.2	10.1	-85.4	0.0
#Closed at: 2026-01-29 06:43:40.365480