passes_logs/2026/01/29/planumMaritime01/planumMaritime01__20260129_061145_METOP-B_rec.log

#Pass ID: 20260129_061145_METOP-B
#Satellite: METOP-B
#Configuration: METOP-B
#Start time: 2026-01-29 06:11:50.176383

#LorettStation: 1.0.0 05.05.2024
#Station: planumMaritime01
#Location: 37.49445 lon 55.92918 lat
#TLE: 1 38771U 12049A   26027.89976253  .00000165  00000+0  95570-4 0  9999
#TLE: 2 38771  98.6728  82.0610 0002891  50.2602 309.8830 14.21429510693334

#Time	Az	El	Level	SNR
2026-01-29 06:11:52.347668	30.2	10.2	-68.9	0.0
2026-01-29 06:11:54.594147	30.4	10.3	-69.5	0.0
2026-01-29 06:11:56.836932	30.6	10.5	-63.0	0.0
2026-01-29 06:11:59.083884	30.8	10.7	-61.8	0.0
2026-01-29 06:12:01.325942	31.0	10.9	-53.9	0.0
2026-01-29 06:12:03.571734	31.3	11.0	-56.0	0.0
2026-01-29 06:12:05.817304	31.5	11.2	-52.0	0.0
2026-01-29 06:12:08.057579	31.7	11.4	-53.8	0.0
2026-01-29 06:12:10.305845	31.9	11.6	-55.7	0.0
2026-01-29 06:12:12.552239	32.1	11.7	-53.0	0.0
2026-01-29 06:12:14.795733	32.3	11.9	-53.0	0.0
2026-01-29 06:12:17.039492	32.6	12.1	-52.4	0.0
2026-01-29 06:12:19.284985	32.8	12.3	-51.8	0.0
2026-01-29 06:12:21.529429	33.0	12.5	-50.1	0.0
2026-01-29 06:12:23.773280	33.2	12.7	-50.8	0.0
2026-01-29 06:12:26.017254	33.5	12.8	-57.2	0.0
2026-01-29 06:12:28.262886	33.7	13.0	-54.1	0.0
2026-01-29 06:12:30.507766	34.0	13.2	-59.1	0.0
2026-01-29 06:12:32.752406	34.2	13.4	-55.3	0.0
2026-01-29 06:12:34.996709	34.4	13.6	-54.2	0.0
2026-01-29 06:12:37.244743	34.7	13.8	-55.2	0.0
2026-01-29 06:12:39.490279	34.9	14.0	-59.4	0.0
2026-01-29 06:12:41.736465	35.2	14.2	-60.2	0.0
2026-01-29 06:12:43.981277	35.5	14.4	-60.0	0.0
2026-01-29 06:12:46.225923	35.7	14.6	-55.9	0.0
2026-01-29 06:12:48.471829	36.0	14.7	-58.8	0.0
2026-01-29 06:12:50.716846	36.3	14.9	-56.9	0.0
2026-01-29 06:12:52.961718	36.5	15.1	-57.6	0.0
2026-01-29 06:12:55.209416	36.8	15.3	-59.4	0.0
2026-01-29 06:12:57.456089	37.1	15.5	-55.9	0.0
2026-01-29 06:12:59.702918	37.4	15.7	-58.2	0.0
2026-01-29 06:13:01.946767	37.7	15.9	-59.8	0.0
2026-01-29 06:13:04.187048	37.9	16.1	-59.8	0.0
2026-01-29 06:13:06.434675	38.2	16.3	-63.3	0.0
2026-01-29 06:13:08.679323	38.5	16.6	-60.2	0.0
2026-01-29 06:13:10.923122	38.8	16.8	-55.7	0.0
2026-01-29 06:13:13.167485	39.1	17.0	-62.0	0.0
2026-01-29 06:13:15.414264	39.5	17.2	-54.0	0.0
2026-01-29 06:13:17.656654	39.8	17.4	-56.6	0.0
2026-01-29 06:13:19.902762	40.1	17.6	-61.5	0.0
2026-01-29 06:13:22.149166	40.4	17.8	-56.7	0.0
2026-01-29 06:13:24.391911	40.7	18.0	-60.2	0.0
2026-01-29 06:13:26.635877	41.1	18.2	-57.7	0.0
2026-01-29 06:13:28.881452	41.4	18.4	-62.6	0.0
2026-01-29 06:13:31.131664	41.8	18.7	-61.9	0.0
2026-01-29 06:13:33.375744	42.1	18.9	-60.5	0.0
2026-01-29 06:13:35.620710	42.4	19.1	-61.2	0.0
2026-01-29 06:13:37.870212	42.8	19.3	-61.9	0.0
2026-01-29 06:13:40.115488	43.2	19.5	-61.9	0.0
2026-01-29 06:13:42.362017	43.5	19.7	-61.8	0.0
2026-01-29 06:13:44.610045	43.9	20.0	-65.3	0.0
2026-01-29 06:13:46.855999	44.3	20.2	-61.4	0.0
2026-01-29 06:13:49.100774	44.7	20.4	-66.3	0.0
2026-01-29 06:13:51.345367	45.0	20.6	-60.2	0.0
2026-01-29 06:13:53.588816	45.4	20.8	-64.2	0.0
2026-01-29 06:13:55.833369	45.8	21.1	-63.3	0.0
2026-01-29 06:13:58.075823	46.2	21.3	-67.1	0.0
2026-01-29 06:14:00.321701	46.7	21.5	-64.8	0.0
2026-01-29 06:14:02.568478	47.1	21.7	-64.3	0.0
2026-01-29 06:14:04.812785	47.5	22.0	-66.0	0.0
2026-01-29 06:14:07.061566	47.9	22.2	-64.1	0.0
2026-01-29 06:14:09.307897	48.3	22.4	-66.5	0.0
2026-01-29 06:14:11.552855	48.8	22.6	-64.6	0.0
2026-01-29 06:14:13.797580	49.2	22.9	-62.2	0.0
2026-01-29 06:14:16.042079	49.7	23.1	-66.4	0.0
2026-01-29 06:14:18.287205	50.1	23.3	-67.0	0.0
2026-01-29 06:14:20.533476	50.6	23.6	-64.8	0.0
2026-01-29 06:14:22.778723	51.1	23.8	-67.0	0.0
2026-01-29 06:14:25.023711	51.6	24.0	-66.1	0.0
2026-01-29 06:14:27.270316	52.0	24.2	-67.6	0.0
2026-01-29 06:14:29.520115	52.5	24.5	-68.4	0.0
2026-01-29 06:14:31.765632	53.0	24.7	-64.7	0.0
2026-01-29 06:14:34.010944	53.5	24.9	-68.0	0.0
2026-01-29 06:14:36.259409	54.1	25.1	-66.7	0.0
2026-01-29 06:14:38.501880	54.6	25.4	-66.3	0.0
2026-01-29 06:14:40.748711	55.1	25.6	-65.2	0.0
2026-01-29 06:14:42.994456	55.6	25.8	-66.9	0.0
2026-01-29 06:14:45.237434	56.2	26.0	-69.4	0.0
2026-01-29 06:14:47.480510	56.7	26.3	-64.6	0.0
2026-01-29 06:14:49.722628	57.3	26.5	-67.2	0.0
2026-01-29 06:14:51.966008	57.9	26.7	-66.1	0.0
2026-01-29 06:14:54.210529	58.4	26.9	-63.8	0.0
2026-01-29 06:14:56.456410	59.0	27.2	-67.0	0.0
2026-01-29 06:14:58.703325	59.6	27.4	-66.9	0.0
2026-01-29 06:15:00.948563	60.2	27.6	-69.0	0.0
2026-01-29 06:15:03.195552	60.8	27.8	-66.5	0.0
2026-01-29 06:15:05.437479	61.4	28.0	-67.6	0.0
2026-01-29 06:15:07.680352	62.1	28.2	-69.4	0.6
2026-01-29 06:15:09.924570	62.7	28.4	-66.8	0.9
2026-01-29 06:15:12.169925	63.3	28.6	-69.7	2.5
2026-01-29 06:15:14.415687	64.0	28.8	-69.2	2.6
2026-01-29 06:15:16.661938	64.6	29.1	-69.6	3.5
2026-01-29 06:15:18.905717	65.3	29.2	-70.6	5.3
2026-01-29 06:15:21.150891	66.0	29.4	-66.9	4.5
2026-01-29 06:15:23.397473	66.6	29.6	-68.3	0.0
2026-01-29 06:15:25.641712	67.3	29.8	-69.9	2.1
2026-01-29 06:15:27.884852	68.0	30.0	-70.7	5.3
2026-01-29 06:15:30.129090	68.7	30.2	-67.1	0.0
2026-01-29 06:15:32.372950	69.4	30.4	-64.8	0.0
2026-01-29 06:15:34.618770	70.2	30.6	-70.3	0.0
2026-01-29 06:15:36.861587	70.9	30.7	-66.9	0.0
2026-01-29 06:15:39.109228	71.6	30.9	-69.2	0.0
2026-01-29 06:15:41.359719	72.4	31.1	-70.8	5.0
2026-01-29 06:15:43.605900	73.1	31.2	-71.8	3.4
2026-01-29 06:15:45.851862	73.9	31.4	-71.6	5.0
2026-01-29 06:15:48.097380	74.6	31.5	-70.4	2.6
2026-01-29 06:15:50.346698	75.4	31.7	-71.7	4.7
2026-01-29 06:15:52.591837	76.2	31.8	-70.7	5.4
2026-01-29 06:15:54.836961	77.0	32.0	-70.7	2.0
2026-01-29 06:15:57.080640	77.8	32.1	-67.6	0.0
2026-01-29 06:15:59.324783	78.6	32.2	-70.6	5.1
2026-01-29 06:16:01.570363	79.4	32.3	-70.7	6.3
2026-01-29 06:16:03.815702	80.2	32.5	-69.7	4.1
2026-01-29 06:16:06.065240	81.0	32.6	-70.9	6.8
2026-01-29 06:16:08.310151	81.8	32.7	-70.4	5.7
2026-01-29 06:16:10.555391	82.6	32.8	-71.0	5.0
2026-01-29 06:16:12.798242	83.5	32.9	-70.3	6.1
2026-01-29 06:16:15.045691	84.3	32.9	-70.1	5.9
2026-01-29 06:16:17.289886	85.1	33.0	-70.8	6.7
2026-01-29 06:16:19.536940	86.0	33.1	-70.9	6.3
2026-01-29 06:16:21.780040	86.8	33.2	-70.8	5.1
2026-01-29 06:16:24.027898	87.7	33.2	-70.7	3.9
2026-01-29 06:16:26.273142	88.5	33.3	-70.3	5.1
2026-01-29 06:16:28.516868	89.4	33.3	-71.1	5.4
2026-01-29 06:16:30.764862	90.2	33.4	-71.4	6.9
2026-01-29 06:16:33.010827	91.1	33.4	-70.7	6.6
2026-01-29 06:16:35.255770	92.0	33.4	-71.2	7.2
2026-01-29 06:16:37.502274	92.8	33.4	-70.4	5.9
2026-01-29 06:16:39.748748	93.7	33.4	-71.8	7.3
2026-01-29 06:16:41.991681	94.6	33.4	-71.3	5.8
2026-01-29 06:16:44.235105	95.4	33.4	-70.8	5.7
2026-01-29 06:16:46.479659	96.3	33.4	-71.2	6.3
2026-01-29 06:16:48.723527	97.1	33.4	-71.2	7.3
2026-01-29 06:16:50.971264	98.0	33.4	-71.4	6.4
2026-01-29 06:16:53.214756	98.9	33.3	-69.0	1.6
2026-01-29 06:16:55.460213	99.7	33.3	-70.0	4.7
2026-01-29 06:16:57.705719	100.6	33.3	-71.8	7.9
2026-01-29 06:16:59.952392	101.4	33.2	-71.2	7.1
2026-01-29 06:17:02.197405	102.3	33.1	-71.0	6.7
2026-01-29 06:17:04.443736	103.1	33.1	-71.2	6.8
2026-01-29 06:17:06.692330	104.0	33.0	-71.5	6.4
2026-01-29 06:17:08.933608	104.8	32.9	-71.9	6.5
2026-01-29 06:17:11.177538	105.6	32.8	-72.1	7.4
2026-01-29 06:17:13.425606	106.5	32.7	-72.4	4.9
2026-01-29 06:17:15.669969	107.3	32.6	-72.0	7.0
2026-01-29 06:17:17.914825	108.1	32.5	-72.2	6.9
2026-01-29 06:17:20.159177	108.9	32.4	-71.6	3.5
2026-01-29 06:17:22.406064	109.7	32.3	-71.7	6.0
2026-01-29 06:17:24.650594	110.5	32.2	-72.0	2.1
2026-01-29 06:17:26.894801	111.3	32.1	-72.5	6.8
2026-01-29 06:17:29.140188	112.1	31.9	-72.6	5.8
2026-01-29 06:17:31.385764	112.9	31.8	-73.0	6.6
2026-01-29 06:17:33.630186	113.7	31.6	-72.4	6.2
2026-01-29 06:17:35.877732	114.5	31.5	-72.4	5.3
2026-01-29 06:17:38.124295	115.2	31.3	-72.5	7.2
2026-01-29 06:17:40.370246	116.0	31.2	-71.7	7.4
2026-01-29 06:17:42.618541	116.7	31.0	-72.6	7.1
2026-01-29 06:17:44.866851	117.5	30.8	-72.0	4.9
2026-01-29 06:17:47.113576	118.2	30.7	-72.7	7.7
2026-01-29 06:17:49.356696	118.9	30.5	-72.5	7.0
2026-01-29 06:17:51.604517	119.7	30.3	-72.5	6.6
2026-01-29 06:17:53.849458	120.4	30.1	-72.8	7.2
2026-01-29 06:17:56.096012	121.1	30.0	-72.3	7.3
2026-01-29 06:17:58.340006	121.8	29.8	-72.7	6.2
2026-01-29 06:18:00.585900	122.5	29.6	-72.5	6.4
2026-01-29 06:18:02.829730	123.1	29.4	-72.6	6.3
2026-01-29 06:18:05.073884	123.8	29.2	-72.8	7.8
2026-01-29 06:18:07.316622	124.5	29.0	-72.9	7.4
2026-01-29 06:18:09.562167	125.1	28.8	-72.7	8.2
2026-01-29 06:18:11.807279	125.8	28.6	-72.6	7.0
2026-01-29 06:18:14.051763	126.4	28.4	-72.5	7.5
2026-01-29 06:18:16.296665	127.0	28.1	-72.3	6.9
2026-01-29 06:18:18.543511	127.7	27.9	-72.8	7.5
2026-01-29 06:18:20.788456	128.3	27.7	-72.5	7.4
2026-01-29 06:18:23.032818	128.9	27.5	-72.4	7.9
2026-01-29 06:18:25.278993	129.5	27.3	-72.6	7.8
2026-01-29 06:18:27.522881	130.1	27.1	-72.8	7.5
2026-01-29 06:18:29.770127	130.7	26.8	-72.7	7.4
2026-01-29 06:18:32.018619	131.2	26.6	-72.6	6.9
2026-01-29 06:18:34.264707	131.8	26.4	-72.4	6.7
2026-01-29 06:18:36.510645	132.4	26.2	-72.6	7.5
2026-01-29 06:18:38.758215	132.9	25.9	-72.8	5.9
2026-01-29 06:18:41.001562	133.4	25.7	-73.1	5.7
2026-01-29 06:18:43.245847	134.0	25.5	-72.9	5.6
2026-01-29 06:18:45.490823	134.5	25.3	-73.0	7.0
2026-01-29 06:18:47.741625	135.0	25.0	-73.4	6.0
2026-01-29 06:18:49.985348	135.5	24.8	-73.1	6.4
2026-01-29 06:18:52.227565	136.1	24.6	-73.3	5.7
2026-01-29 06:18:54.474496	136.6	24.4	-73.6	4.7
2026-01-29 06:18:56.721679	137.0	24.1	-73.1	3.7
2026-01-29 06:18:58.965845	137.5	23.9	-73.8	4.2
2026-01-29 06:19:01.210145	138.0	23.7	-73.5	4.7
2026-01-29 06:19:03.456241	138.5	23.4	-73.9	5.8
2026-01-29 06:19:05.704948	138.9	23.2	-73.6	4.6
2026-01-29 06:19:07.951422	139.4	23.0	-73.3	3.5
2026-01-29 06:19:10.199337	139.9	22.7	-73.8	5.2
2026-01-29 06:19:12.444193	140.3	22.5	-73.7	4.8
2026-01-29 06:19:14.691824	140.7	22.3	-73.2	4.6
2026-01-29 06:19:16.937951	141.2	22.1	-73.4	3.0
2026-01-29 06:19:19.184668	141.6	21.8	-73.4	4.2
2026-01-29 06:19:21.430587	142.0	21.6	-73.2	3.2
2026-01-29 06:19:23.679429	142.4	21.4	-73.1	5.2
2026-01-29 06:19:25.926315	142.8	21.2	-73.7	5.0
2026-01-29 06:19:28.175566	143.2	20.9	-73.1	5.4
2026-01-29 06:19:30.419775	143.6	20.7	-73.1	5.0
2026-01-29 06:19:32.665553	144.0	20.5	-73.0	5.6
2026-01-29 06:19:34.906503	144.4	20.3	-73.3	6.4
2026-01-29 06:19:37.152444	144.8	20.0	-73.4	6.2
2026-01-29 06:19:39.395769	145.2	19.8	-72.9	4.7
2026-01-29 06:19:41.641964	145.5	19.6	-72.3	2.5
2026-01-29 06:19:43.887582	145.9	19.4	-73.0	3.1
2026-01-29 06:19:46.132410	146.3	19.2	-73.2	5.5
2026-01-29 06:19:48.382139	146.6	18.9	-73.8	6.0
2026-01-29 06:19:50.629680	147.0	18.7	-73.4	3.8
2026-01-29 06:19:52.877678	147.3	18.5	-72.9	3.5
2026-01-29 06:19:55.121799	147.7	18.3	-72.9	3.9
2026-01-29 06:19:57.369004	148.0	18.1	-72.5	4.8
2026-01-29 06:19:59.611280	148.3	17.9	-72.6	4.2
2026-01-29 06:20:01.854137	148.6	17.6	-72.2	4.4
2026-01-29 06:20:04.099065	149.0	17.4	-73.6	5.8
2026-01-29 06:20:06.345585	149.3	17.2	-71.9	0.1
2026-01-29 06:20:08.590916	149.6	17.0	-72.5	3.6
2026-01-29 06:20:10.834953	149.9	16.8	-74.3	4.4
2026-01-29 06:20:13.084194	150.2	16.6	-72.9	3.9
2026-01-29 06:20:15.331728	150.5	16.4	-73.1	2.1
2026-01-29 06:20:17.580020	150.8	16.2	-72.0	0.1
2026-01-29 06:20:19.822357	151.1	16.0	-72.4	1.1
2026-01-29 06:20:22.064771	151.4	15.8	-72.2	0.0
2026-01-29 06:20:24.307391	151.7	15.6	-72.6	1.3
2026-01-29 06:20:26.553289	152.0	15.4	-74.2	3.6
2026-01-29 06:20:28.798767	152.2	15.2	-73.6	2.2
2026-01-29 06:20:31.042664	152.5	15.0	-73.5	0.0
2026-01-29 06:20:33.288761	152.8	14.8	-72.2	0.0
2026-01-29 06:20:35.530440	153.0	14.6	-73.4	3.1
2026-01-29 06:20:37.776519	153.3	14.4	-72.1	0.0
2026-01-29 06:20:40.020262	153.6	14.2	-73.2	1.7
2026-01-29 06:20:42.265569	153.8	14.0	-72.5	0.5
2026-01-29 06:20:44.506195	154.1	13.8	-73.1	0.0
2026-01-29 06:20:46.750478	154.3	13.6	-73.1	0.6
2026-01-29 06:20:48.998576	154.6	13.4	-72.7	0.0
2026-01-29 06:20:51.243130	154.8	13.2	-72.8	0.0
2026-01-29 06:20:53.489773	155.1	13.0	-72.8	0.0
2026-01-29 06:20:55.735135	155.3	12.8	-72.6	0.0
2026-01-29 06:20:57.984645	155.5	12.7	-72.9	0.0
2026-01-29 06:21:00.229727	155.8	12.5	-72.5	0.0
2026-01-29 06:21:02.472661	156.0	12.3	-72.0	0.0
2026-01-29 06:21:04.717124	156.2	12.1	-72.4	0.0
2026-01-29 06:21:06.960746	156.5	11.9	-73.2	0.0
2026-01-29 06:21:09.202955	156.7	11.7	-73.1	0.0
2026-01-29 06:21:11.449260	156.9	11.6	-73.6	0.0
2026-01-29 06:21:13.695770	157.1	11.4	-73.6	0.0
2026-01-29 06:21:15.941697	157.3	11.2	-72.6	0.0
2026-01-29 06:21:18.183818	157.5	11.0	-72.7	0.0
2026-01-29 06:21:20.430952	157.7	10.8	-72.2	0.0
2026-01-29 06:21:22.680983	158.0	10.7	-74.5	0.0
2026-01-29 06:21:24.926904	158.2	10.5	-76.5	0.0
2026-01-29 06:21:27.173319	158.4	10.3	-78.9	0.0
2026-01-29 06:21:29.415868	158.6	10.1	-77.7	0.0
#Closed at: 2026-01-29 06:11:45.183433