passes_logs/2026/01/29/planumMaritime01/planumMaritime01__20260129_195629_METEOR-M2_3_rec.log

#Pass ID: 20260129_195629_METEOR-M2 3
#Satellite: METEOR-M2 3
#Configuration: METEOR-M2 3
#Start time: 2026-01-29 19:56:34.993503

#LorettStation: 1.0.0 05.05.2024
#Station: planumMaritime01
#Location: 37.49445 lon 55.92918 lat
#TLE: 1 57166U 23091A   26027.99488459  .00000021  00000+0  27978-4 0  9992
#TLE: 2 57166  98.6303  85.7107 0003472 203.3715 156.7307 14.24032890134562

#Time	Az	El	Level	SNR
2026-01-29 19:56:37.167713	253.8	10.1	-78.6	0.0
2026-01-29 19:56:38.292880	254.0	10.1	-79.0	0.0
2026-01-29 19:56:39.414649	254.1	10.2	-79.8	0.0
2026-01-29 19:56:40.539631	254.3	10.2	-80.7	0.0
2026-01-29 19:56:41.663924	254.5	10.2	-81.0	0.0
2026-01-29 19:56:42.785917	254.7	10.3	-80.2	0.0
2026-01-29 19:56:43.909471	254.9	10.3	-79.5	2.9
2026-01-29 19:56:45.033182	255.1	10.3	-79.1	5.1
2026-01-29 19:56:46.160339	255.3	10.4	-78.4	5.3
2026-01-29 19:56:47.283586	255.5	10.4	-78.4	5.8
2026-01-29 19:56:48.407149	255.7	10.4	-78.3	6.5
2026-01-29 19:56:49.530281	255.9	10.5	-78.1	6.1
2026-01-29 19:56:50.652642	256.1	10.5	-77.5	6.0
2026-01-29 19:56:51.776556	256.3	10.6	-77.5	5.3
2026-01-29 19:56:52.900762	256.5	10.6	-76.4	3.3
2026-01-29 19:56:54.025738	256.6	10.6	-77.8	5.7
2026-01-29 19:56:55.148985	256.8	10.7	-77.9	6.6
2026-01-29 19:56:56.271361	257.0	10.7	-77.6	7.6
2026-01-29 19:56:57.395724	257.2	10.7	-77.8	6.9
2026-01-29 19:56:58.520825	257.4	10.8	-78.0	8.0
2026-01-29 19:56:59.645898	257.6	10.8	-78.0	8.1
2026-01-29 19:57:00.770906	257.8	10.8	-78.3	7.2
2026-01-29 19:57:01.893730	258.0	10.9	-78.4	7.9
2026-01-29 19:57:03.017662	258.2	10.9	-78.5	7.5
2026-01-29 19:57:04.142293	258.4	10.9	-78.1	8.0
2026-01-29 19:57:05.265538	258.6	11.0	-77.9	9.0
2026-01-29 19:57:06.391631	258.8	11.0	-78.1	8.7
2026-01-29 19:57:07.515982	259.0	11.0	-78.1	8.5
2026-01-29 19:57:08.641982	259.2	11.1	-78.6	8.7
2026-01-29 19:57:09.765479	259.4	11.1	-77.9	8.8
2026-01-29 19:57:10.889216	259.6	11.1	-77.9	8.9
2026-01-29 19:57:12.013228	259.8	11.1	-77.8	8.8
2026-01-29 19:57:13.136308	260.0	11.2	-78.4	8.6
2026-01-29 19:57:14.259489	260.2	11.2	-77.8	6.9
2026-01-29 19:57:15.384378	260.5	11.2	-78.2	9.2
2026-01-29 19:57:16.509029	260.7	11.3	-78.1	9.3
2026-01-29 19:57:17.634304	260.9	11.3	-78.1	9.3
2026-01-29 19:57:18.758014	261.1	11.3	-77.9	8.4
2026-01-29 19:57:19.881885	261.3	11.4	-77.9	8.7
2026-01-29 19:57:21.005232	261.5	11.4	-77.8	7.5
2026-01-29 19:57:22.128503	261.7	11.4	-77.3	6.7
2026-01-29 19:57:23.250054	261.9	11.4	-78.1	9.5
2026-01-29 19:57:24.374624	262.1	11.5	-78.4	8.5
2026-01-29 19:57:25.500168	262.3	11.5	-77.9	6.4
2026-01-29 19:57:26.624659	262.5	11.5	-78.2	9.0
2026-01-29 19:57:27.750008	262.7	11.5	-78.1	8.0
2026-01-29 19:57:28.872765	262.9	11.6	-77.6	6.5
2026-01-29 19:57:29.996652	263.1	11.6	-77.9	9.0
2026-01-29 19:57:31.121626	263.3	11.6	-78.0	7.9
2026-01-29 19:57:32.246980	263.6	11.7	-77.8	8.4
2026-01-29 19:57:33.369754	263.8	11.7	-77.9	8.5
2026-01-29 19:57:34.492501	264.0	11.7	-77.9	8.8
2026-01-29 19:57:35.617355	264.2	11.7	-77.6	8.9
2026-01-29 19:57:36.741919	264.4	11.8	-77.4	8.0
2026-01-29 19:57:37.865608	264.6	11.8	-77.8	8.7
2026-01-29 19:57:38.988319	264.8	11.8	-77.6	8.8
2026-01-29 19:57:40.111984	265.0	11.8	-77.3	8.8
2026-01-29 19:57:41.234481	265.2	11.8	-78.0	9.3
2026-01-29 19:57:42.359619	265.5	11.9	-77.5	8.5
2026-01-29 19:57:43.484946	265.7	11.9	-77.8	8.6
2026-01-29 19:57:44.609980	265.9	11.9	-77.9	9.2
2026-01-29 19:57:45.731995	266.1	11.9	-77.9	8.6
2026-01-29 19:57:46.855356	266.3	12.0	-77.5	8.2
2026-01-29 19:57:47.977807	266.5	12.0	-77.8	7.0
2026-01-29 19:57:49.102551	266.7	12.0	-77.7	8.7
2026-01-29 19:57:50.225545	267.0	12.0	-77.8	8.6
2026-01-29 19:57:51.350315	267.2	12.0	-77.6	6.6
2026-01-29 19:57:52.474304	267.4	12.1	-77.7	8.3
2026-01-29 19:57:53.597117	267.6	12.1	-77.4	8.5
2026-01-29 19:57:54.723156	267.8	12.1	-77.6	7.7
2026-01-29 19:57:55.844386	268.0	12.1	-77.3	7.2
2026-01-29 19:57:56.967709	268.3	12.1	-77.6	8.2
2026-01-29 19:57:58.091747	268.5	12.1	-77.6	7.8
2026-01-29 19:57:59.216355	268.7	12.2	-77.6	8.0
2026-01-29 19:58:00.341064	268.9	12.2	-77.5	7.6
2026-01-29 19:58:01.463901	269.1	12.2	-77.8	6.7
2026-01-29 19:58:02.587624	269.3	12.2	-77.8	7.1
2026-01-29 19:58:03.710002	269.6	12.2	-77.6	6.7
2026-01-29 19:58:04.833365	269.8	12.2	-77.8	8.0
2026-01-29 19:58:05.955531	270.0	12.3	-77.6	6.0
2026-01-29 19:58:07.079130	270.2	12.3	-77.4	8.3
2026-01-29 19:58:08.200912	270.4	12.3	-77.3	7.8
2026-01-29 19:58:09.325491	270.6	12.3	-77.2	7.5
2026-01-29 19:58:10.449235	270.9	12.3	-77.7	7.4
2026-01-29 19:58:11.573344	271.1	12.3	-77.7	7.6
2026-01-29 19:58:12.695644	271.3	12.3	-77.5	5.4
2026-01-29 19:58:13.820219	271.5	12.4	-77.8	6.4
2026-01-29 19:58:14.945154	271.7	12.4	-78.0	6.4
2026-01-29 19:58:16.068508	272.0	12.4	-78.0	7.7
2026-01-29 19:58:17.194471	272.2	12.4	-77.8	8.3
2026-01-29 19:58:18.317505	272.4	12.4	-77.4	6.3
2026-01-29 19:58:19.439698	272.6	12.4	-77.6	6.6
2026-01-29 19:58:20.562709	272.8	12.4	-76.9	6.7
2026-01-29 19:58:21.685897	273.1	12.4	-76.7	6.5
2026-01-29 19:58:22.809187	273.3	12.4	-76.7	7.3
2026-01-29 19:58:23.932555	273.5	12.5	-76.7	6.8
2026-01-29 19:58:25.059368	273.7	12.5	-76.9	7.1
2026-01-29 19:58:26.183917	273.9	12.5	-76.2	7.1
2026-01-29 19:58:27.306015	274.2	12.5	-76.6	6.0
2026-01-29 19:58:28.430708	274.4	12.5	-76.4	7.1
2026-01-29 19:58:29.556451	274.6	12.5	-77.2	7.0
2026-01-29 19:58:30.680162	274.8	12.5	-76.9	6.6
2026-01-29 19:58:31.805583	275.1	12.5	-76.7	5.4
2026-01-29 19:58:32.928419	275.3	12.5	-77.2	5.7
2026-01-29 19:58:34.053655	275.5	12.5	-77.0	6.6
2026-01-29 19:58:35.177748	275.7	12.5	-77.1	5.8
2026-01-29 19:58:36.304786	275.9	12.5	-77.4	7.7
2026-01-29 19:58:37.430143	276.2	12.5	-77.3	7.1
2026-01-29 19:58:38.552807	276.4	12.5	-77.2	7.5
2026-01-29 19:58:39.677701	276.6	12.5	-76.5	4.7
2026-01-29 19:58:40.801637	276.8	12.5	-76.3	3.9
2026-01-29 19:58:41.927288	277.1	12.5	-76.7	7.0
2026-01-29 19:58:43.051807	277.3	12.5	-76.5	4.7
2026-01-29 19:58:44.178302	277.5	12.6	-76.5	6.4
2026-01-29 19:58:45.302940	277.7	12.6	-76.8	4.9
2026-01-29 19:58:46.427213	277.9	12.6	-75.7	4.5
2026-01-29 19:58:47.551082	278.2	12.6	-75.5	4.0
2026-01-29 19:58:48.675512	278.4	12.6	-75.4	2.8
2026-01-29 19:58:49.799471	278.6	12.6	-76.3	5.8
2026-01-29 19:58:50.922413	278.8	12.6	-76.3	7.3
2026-01-29 19:58:52.046220	279.1	12.6	-76.6	5.2
2026-01-29 19:58:53.170719	279.3	12.6	-76.1	7.6
2026-01-29 19:58:54.295315	279.5	12.6	-75.9	5.5
2026-01-29 19:58:55.420151	279.7	12.6	-75.9	6.8
2026-01-29 19:58:56.545430	280.0	12.5	-75.8	6.1
2026-01-29 19:58:57.669332	280.2	12.5	-76.1	6.2
2026-01-29 19:58:58.791518	280.4	12.5	-76.0	7.1
2026-01-29 19:58:59.917807	280.6	12.5	-75.6	4.6
2026-01-29 19:59:01.041876	280.8	12.5	-75.4	5.1
2026-01-29 19:59:02.166121	281.1	12.5	-74.9	4.8
2026-01-29 19:59:03.287901	281.3	12.5	-75.3	3.9
2026-01-29 19:59:04.412858	281.5	12.5	-75.5	5.5
2026-01-29 19:59:05.536593	281.7	12.5	-74.5	2.5
2026-01-29 19:59:06.659607	281.9	12.5	-74.8	2.6
2026-01-29 19:59:07.781660	282.2	12.5	-74.7	1.9
2026-01-29 19:59:08.906452	282.4	12.5	-75.3	3.6
2026-01-29 19:59:10.029775	282.6	12.5	-74.8	4.1
2026-01-29 19:59:11.155705	282.8	12.5	-74.6	2.8
2026-01-29 19:59:12.278202	283.1	12.5	-74.5	2.3
2026-01-29 19:59:13.403393	283.3	12.5	-75.3	6.0
2026-01-29 19:59:14.526263	283.5	12.5	-74.0	0.0
2026-01-29 19:59:15.650176	283.7	12.5	-73.8	0.3
2026-01-29 19:59:16.775839	283.9	12.4	-72.1	0.0
2026-01-29 19:59:17.900012	284.2	12.4	-74.9	2.6
2026-01-29 19:59:19.022743	284.4	12.4	-74.0	1.4
2026-01-29 19:59:20.145284	284.6	12.4	-75.2	2.9
2026-01-29 19:59:21.268145	284.8	12.4	-72.8	0.0
2026-01-29 19:59:22.392350	285.0	12.4	-75.1	4.7
2026-01-29 19:59:23.516421	285.3	12.4	-73.9	1.4
2026-01-29 19:59:24.640754	285.5	12.4	-74.4	0.7
2026-01-29 19:59:25.763819	285.7	12.4	-75.3	4.0
2026-01-29 19:59:26.885801	285.9	12.3	-72.1	0.0
2026-01-29 19:59:28.010068	286.1	12.3	-73.6	0.0
2026-01-29 19:59:29.131972	286.4	12.3	-73.5	1.8
2026-01-29 19:59:30.257618	286.6	12.3	-74.7	1.4
2026-01-29 19:59:31.382109	286.8	12.3	-74.9	3.1
2026-01-29 19:59:32.506783	287.0	12.3	-73.1	0.0
2026-01-29 19:59:33.632550	287.2	12.3	-74.1	0.0
2026-01-29 19:59:34.754684	287.5	12.3	-75.1	3.8
2026-01-29 19:59:35.879234	287.7	12.2	-74.3	1.7
2026-01-29 19:59:37.002259	287.9	12.2	-73.1	0.4
2026-01-29 19:59:38.127485	288.1	12.2	-75.1	2.3
2026-01-29 19:59:39.251488	288.3	12.2	-74.2	0.0
2026-01-29 19:59:40.377337	288.5	12.2	-73.7	0.0
2026-01-29 19:59:41.501578	288.8	12.2	-73.8	0.0
2026-01-29 19:59:42.626093	289.0	12.1	-73.5	0.0
2026-01-29 19:59:43.749777	289.2	12.1	-75.8	2.4
2026-01-29 19:59:44.875058	289.4	12.1	-74.3	0.0
2026-01-29 19:59:46.001732	289.6	12.1	-74.9	0.0
2026-01-29 19:59:47.124750	289.8	12.1	-74.3	0.9
2026-01-29 19:59:48.249580	290.0	12.0	-73.1	0.0
2026-01-29 19:59:49.373220	290.3	12.0	-73.5	0.0
2026-01-29 19:59:50.495972	290.5	12.0	-73.1	0.0
2026-01-29 19:59:51.617044	290.7	12.0	-73.9	1.1
2026-01-29 19:59:52.741057	290.9	12.0	-73.2	0.9
2026-01-29 19:59:53.866278	291.1	11.9	-72.8	0.0
2026-01-29 19:59:54.989127	291.3	11.9	-72.5	0.0
2026-01-29 19:59:56.112198	291.5	11.9	-73.1	0.0
2026-01-29 19:59:57.235505	291.8	11.9	-72.6	0.0
2026-01-29 19:59:58.358576	292.0	11.9	-72.5	0.0
2026-01-29 19:59:59.481173	292.2	11.8	-73.3	0.0
2026-01-29 20:00:00.605067	292.4	11.8	-73.3	0.0
2026-01-29 20:00:01.727928	292.6	11.8	-73.8	0.0
2026-01-29 20:00:02.850403	292.8	11.8	-73.7	0.0
2026-01-29 20:00:03.974550	293.0	11.7	-72.6	0.0
2026-01-29 20:00:05.097547	293.2	11.7	-74.0	0.0
2026-01-29 20:00:06.223669	293.4	11.7	-72.0	0.0
2026-01-29 20:00:07.346560	293.7	11.7	-72.9	0.0
2026-01-29 20:00:08.469338	293.9	11.6	-72.5	0.0
2026-01-29 20:00:09.593330	294.1	11.6	-72.4	0.0
2026-01-29 20:00:10.717711	294.3	11.6	-73.1	0.0
2026-01-29 20:00:11.839979	294.5	11.6	-73.9	0.0
2026-01-29 20:00:12.963276	294.7	11.5	-72.7	0.0
2026-01-29 20:00:14.088261	294.9	11.5	-71.6	0.0
2026-01-29 20:00:15.212005	295.1	11.5	-72.5	0.0
2026-01-29 20:00:16.335178	295.3	11.5	-72.7	0.0
2026-01-29 20:00:17.460464	295.5	11.4	-72.9	0.0
2026-01-29 20:00:18.582325	295.7	11.4	-72.1	0.0
2026-01-29 20:00:19.706677	295.9	11.4	-72.6	0.0
2026-01-29 20:00:20.832343	296.1	11.3	-70.9	0.0
2026-01-29 20:00:21.955146	296.3	11.3	-72.3	0.0
2026-01-29 20:00:23.078643	296.5	11.3	-74.2	0.0
2026-01-29 20:00:24.202160	296.8	11.3	-72.2	0.0
2026-01-29 20:00:25.324565	297.0	11.2	-73.3	0.0
2026-01-29 20:00:26.447786	297.2	11.2	-73.8	0.0
2026-01-29 20:00:27.573916	297.4	11.2	-73.1	0.0
2026-01-29 20:00:28.698097	297.6	11.1	-73.7	0.0
2026-01-29 20:00:29.819767	297.8	11.1	-73.6	0.0
2026-01-29 20:00:30.945704	298.0	11.1	-73.8	0.0
2026-01-29 20:00:32.069011	298.2	11.0	-73.6	0.0
2026-01-29 20:00:33.191996	298.4	11.0	-75.1	0.0
2026-01-29 20:00:34.315803	298.6	11.0	-73.8	0.0
2026-01-29 20:00:35.438325	298.8	10.9	-71.8	0.0
2026-01-29 20:00:36.564043	299.0	10.9	-74.7	0.0
2026-01-29 20:00:37.687883	299.2	10.9	-77.3	0.0
2026-01-29 20:00:38.810139	299.4	10.9	-77.3	0.0
2026-01-29 20:00:39.934273	299.6	10.8	-76.9	0.0
2026-01-29 20:00:41.057029	299.8	10.8	-77.6	0.0
2026-01-29 20:00:42.181052	300.0	10.8	-79.4	0.0
2026-01-29 20:00:43.303217	300.2	10.7	-80.1	0.0
2026-01-29 20:00:44.424571	300.3	10.7	-79.5	0.0
2026-01-29 20:00:45.549236	300.5	10.6	-81.4	0.0
2026-01-29 20:00:46.675959	300.7	10.6	-82.3	0.0
2026-01-29 20:00:47.800526	300.9	10.6	-83.3	0.0
2026-01-29 20:00:48.923966	301.1	10.5	-84.1	0.0
2026-01-29 20:00:50.047272	301.3	10.5	-83.9	0.0
2026-01-29 20:00:51.171451	301.5	10.5	-83.9	0.0
2026-01-29 20:00:52.296591	301.7	10.4	-82.8	0.0
2026-01-29 20:00:53.421316	301.9	10.4	-83.4	0.0
2026-01-29 20:00:54.545209	302.1	10.4	-82.9	0.0
2026-01-29 20:00:55.668044	302.3	10.3	-81.6	0.0
2026-01-29 20:00:56.791832	302.5	10.3	-81.6	0.0
2026-01-29 20:00:57.916229	302.7	10.3	-81.2	0.0
2026-01-29 20:00:59.042321	302.9	10.2	-81.6	0.0
2026-01-29 20:01:00.168532	303.0	10.2	-80.1	0.0
2026-01-29 20:01:01.290951	303.2	10.1	-81.2	0.0
2026-01-29 20:01:02.415114	303.4	10.1	-80.6	0.0
2026-01-29 20:01:03.536816	303.6	10.1	-79.9	0.0
2026-01-29 20:01:04.660611	303.8	10.0	-80.3	0.0
#Closed at: 2026-01-29 19:56:30.000570