passes_logs/2026/01/29/planumMaritime01/planumMaritime01__20260129_112438_METEOR-M2_4_rec.log

#Pass ID: 20260129_112438_METEOR-M2 4
#Satellite: METEOR-M2 4
#Configuration: METEOR-M2 4
#Start time: 2026-01-29 11:24:43.550980

#LorettStation: 1.0.0 05.05.2024
#Station: planumMaritime01
#Location: 37.49445 lon 55.92918 lat
#TLE: 1 59051U 24039A   26027.99098058  .00000074  00000+0  53046-4 0  9995
#TLE: 2 59051  98.6834 349.1906 0006417 208.3204 151.7626 14.22410257 99339

#Time	Az	El	Level	SNR
2026-01-29 11:24:45.727091	163.8	10.2	-79.2	0.0
2026-01-29 11:24:47.978049	163.8	10.4	-79.0	0.0
2026-01-29 11:24:50.223987	163.8	10.6	-76.8	1.8
2026-01-29 11:24:52.469530	163.9	10.8	-77.8	5.6
2026-01-29 11:24:54.717871	163.9	11.0	-77.6	6.5
2026-01-29 11:24:56.964529	163.9	11.2	-77.8	6.2
2026-01-29 11:24:59.217019	163.9	11.4	-77.5	5.7
2026-01-29 11:25:01.461216	163.9	11.6	-77.9	6.9
2026-01-29 11:25:03.708741	164.0	11.8	-77.4	5.8
2026-01-29 11:25:05.957926	164.0	12.0	-77.0	7.4
2026-01-29 11:25:08.207015	164.0	12.3	-76.8	4.9
2026-01-29 11:25:10.455580	164.0	12.5	-76.6	6.0
2026-01-29 11:25:12.702272	164.0	12.7	-76.7	6.8
2026-01-29 11:25:14.953345	164.1	12.9	-77.1	6.8
2026-01-29 11:25:17.201043	164.1	13.1	-77.0	6.0
2026-01-29 11:25:19.447829	164.1	13.4	-76.2	6.2
2026-01-29 11:25:21.695799	164.1	13.6	-76.3	5.5
2026-01-29 11:25:23.945322	164.2	13.8	-76.7	5.4
2026-01-29 11:25:26.193746	164.2	14.0	-76.7	6.7
2026-01-29 11:25:28.441202	164.2	14.3	-75.9	3.6
2026-01-29 11:25:30.690208	164.2	14.5	-76.8	6.6
2026-01-29 11:25:32.937978	164.2	14.8	-76.6	6.0
2026-01-29 11:25:35.185017	164.3	15.0	-77.0	6.4
2026-01-29 11:25:37.431164	164.3	15.2	-76.6	5.9
2026-01-29 11:25:39.681309	164.3	15.5	-76.5	6.5
2026-01-29 11:25:41.927881	164.3	15.7	-76.8	7.0
2026-01-29 11:25:44.176354	164.4	16.0	-77.1	7.3
2026-01-29 11:25:46.427937	164.4	16.2	-76.9	6.8
2026-01-29 11:25:48.672674	164.4	16.5	-76.9	5.0
2026-01-29 11:25:50.920196	164.5	16.7	-76.8	6.7
2026-01-29 11:25:53.163809	164.5	17.0	-76.2	7.0
2026-01-29 11:25:55.412545	164.5	17.3	-76.4	6.3
2026-01-29 11:25:57.658465	164.5	17.5	-76.0	7.3
2026-01-29 11:25:59.907002	164.6	17.8	-76.6	7.6
2026-01-29 11:26:02.152842	164.6	18.1	-76.8	7.9
2026-01-29 11:26:04.402389	164.6	18.4	-77.1	7.0
2026-01-29 11:26:06.650877	164.6	18.6	-77.1	7.6
2026-01-29 11:26:08.895626	164.7	18.9	-76.8	9.8
2026-01-29 11:26:11.143528	164.7	19.2	-76.9	8.6
2026-01-29 11:26:13.392053	164.7	19.5	-77.1	8.3
2026-01-29 11:26:15.639260	164.8	19.8	-77.1	8.2
2026-01-29 11:26:17.889858	164.8	20.1	-76.7	7.8
2026-01-29 11:26:20.136864	164.8	20.4	-76.7	8.5
2026-01-29 11:26:22.383489	164.9	20.7	-76.4	7.5
2026-01-29 11:26:24.630867	164.9	21.0	-76.3	7.2
2026-01-29 11:26:26.879198	164.9	21.3	-76.4	8.8
2026-01-29 11:26:29.126776	165.0	21.6	-76.2	7.6
2026-01-29 11:26:31.376767	165.0	21.9	-76.8	9.3
2026-01-29 11:26:33.626846	165.0	22.3	-76.6	8.8
2026-01-29 11:26:35.874048	165.1	22.6	-76.5	9.1
2026-01-29 11:26:38.125397	165.1	22.9	-75.6	8.9
2026-01-29 11:26:40.372588	165.1	23.2	-76.6	8.8
2026-01-29 11:26:42.622311	165.2	23.6	-76.7	9.4
2026-01-29 11:26:44.871942	165.2	23.9	-76.3	8.5
2026-01-29 11:26:47.118377	165.3	24.3	-75.5	6.1
2026-01-29 11:26:49.367092	165.3	24.6	-77.1	9.4
2026-01-29 11:26:51.617887	165.3	25.0	-77.0	9.2
2026-01-29 11:26:53.864825	165.4	25.3	-75.8	4.4
2026-01-29 11:26:56.112107	165.4	25.7	-76.5	8.1
2026-01-29 11:26:58.359787	165.5	26.1	-75.9	9.3
2026-01-29 11:27:00.609344	165.5	26.5	-76.6	9.3
2026-01-29 11:27:02.857406	165.5	26.8	-76.1	7.5
2026-01-29 11:27:05.104199	165.6	27.2	-76.7	10.6
2026-01-29 11:27:07.353120	165.6	27.6	-76.0	7.4
2026-01-29 11:27:09.602319	165.7	28.0	-76.6	8.3
2026-01-29 11:27:11.845540	165.7	28.4	-76.4	9.3
2026-01-29 11:27:14.092249	165.8	28.9	-77.5	9.8
2026-01-29 11:27:16.340794	165.8	29.3	-76.8	10.0
2026-01-29 11:27:18.589818	165.9	29.7	-77.0	9.6
2026-01-29 11:27:20.837929	165.9	30.1	-77.4	9.3
2026-01-29 11:27:23.083613	166.0	30.6	-77.4	9.9
2026-01-29 11:27:25.331774	166.0	31.0	-77.5	9.2
2026-01-29 11:27:27.580033	166.1	31.5	-77.3	10.0
2026-01-29 11:27:29.830473	166.2	31.9	-77.5	11.0
2026-01-29 11:27:32.076362	166.2	32.4	-76.7	10.5
2026-01-29 11:27:34.324136	166.3	32.9	-77.0	10.7
2026-01-29 11:27:36.571338	166.3	33.3	-77.1	10.4
2026-01-29 11:27:38.823245	166.4	33.8	-77.6	10.3
2026-01-29 11:27:41.074066	166.5	34.3	-77.4	10.3
2026-01-29 11:27:43.325454	166.5	34.8	-77.8	11.9
2026-01-29 11:27:45.572472	166.6	35.3	-78.2	11.9
2026-01-29 11:27:47.824133	166.7	35.9	-78.4	11.1
2026-01-29 11:27:50.073101	166.8	36.4	-78.3	11.8
2026-01-29 11:27:52.321924	166.8	36.9	-78.2	11.1
2026-01-29 11:27:54.573195	166.9	37.5	-78.5	12.1
2026-01-29 11:27:56.824931	167.0	38.0	-78.3	12.5
2026-01-29 11:27:59.072108	167.1	38.6	-78.7	12.2
2026-01-29 11:28:01.324691	167.2	39.2	-78.9	11.1
2026-01-29 11:28:03.576875	167.3	39.8	-79.1	12.1
2026-01-29 11:28:05.823064	167.3	40.4	-78.5	11.3
2026-01-29 11:28:08.069723	167.4	41.0	-78.7	11.1
2026-01-29 11:28:10.317563	167.5	41.6	-78.8	10.9
2026-01-29 11:28:12.565058	167.6	42.2	-78.7	11.6
2026-01-29 11:28:14.811594	167.7	42.8	-78.6	11.3
2026-01-29 11:28:17.059459	167.9	43.5	-78.5	11.2
2026-01-29 11:28:19.310148	168.0	44.1	-78.8	10.3
2026-01-29 11:28:21.555947	168.1	44.8	-78.8	11.2
2026-01-29 11:28:23.804492	168.2	45.5	-78.3	12.0
2026-01-29 11:28:26.051477	168.3	46.2	-78.6	11.6
2026-01-29 11:28:28.301134	168.5	46.9	-78.8	10.5
2026-01-29 11:28:30.546840	168.6	47.6	-79.0	10.9
2026-01-29 11:28:32.795248	168.8	48.3	-79.1	10.4
2026-01-29 11:28:35.041947	168.9	49.1	-79.4	10.4
2026-01-29 11:28:37.290874	169.1	49.8	-79.5	11.1
2026-01-29 11:28:39.541071	169.2	50.6	-79.6	10.4
2026-01-29 11:28:41.789095	169.4	51.4	-80.0	10.7
2026-01-29 11:28:44.037895	169.6	52.1	-79.9	8.7
2026-01-29 11:28:46.286058	169.8	52.9	-80.3	9.5
2026-01-29 11:28:48.533387	170.0	53.8	-80.4	8.5
2026-01-29 11:28:50.779754	170.2	54.6	-80.7	9.3
2026-01-29 11:28:53.029627	170.5	55.4	-80.3	8.4
2026-01-29 11:28:55.276859	170.7	56.3	-81.0	8.4
2026-01-29 11:28:57.527747	171.0	57.2	-80.5	7.4
2026-01-29 11:28:59.774885	171.2	58.0	-81.0	7.6
2026-01-29 11:29:02.025227	171.5	58.9	-80.3	7.8
2026-01-29 11:29:04.273644	171.8	59.8	-80.6	6.2
2026-01-29 11:29:06.519167	172.2	60.7	-81.1	7.0
2026-01-29 11:29:08.764368	172.5	61.7	-80.7	8.6
2026-01-29 11:29:11.010799	172.9	62.6	-79.3	7.3
2026-01-29 11:29:13.255406	173.4	63.6	-79.7	8.7
2026-01-29 11:29:15.502335	173.8	64.5	-79.6	9.7
2026-01-29 11:29:17.749666	174.3	65.5	-79.2	10.5
2026-01-29 11:29:19.998541	174.8	66.5	-79.0	9.5
2026-01-29 11:29:22.244366	175.4	67.5	-79.2	10.3
2026-01-29 11:29:24.493530	176.1	68.5	-79.7	10.9
2026-01-29 11:29:26.741520	176.8	69.5	-79.3	10.3
2026-01-29 11:29:28.993274	177.6	70.5	-79.3	9.9
2026-01-29 11:29:31.240069	178.5	71.6	-79.9	10.0
2026-01-29 11:29:33.485645	179.5	72.6	-79.7	9.4
2026-01-29 11:29:35.731643	180.7	73.6	-79.6	10.0
2026-01-29 11:29:37.981079	182.0	74.7	-79.4	10.6
2026-01-29 11:29:40.226751	183.5	75.7	-79.6	10.5
2026-01-29 11:29:42.474415	185.2	76.7	-79.0	10.5
2026-01-29 11:29:44.722138	187.3	77.8	-78.5	10.6
2026-01-29 11:29:46.968706	189.7	78.8	-78.0	10.6
2026-01-29 11:29:49.217600	192.6	79.8	-78.8	8.8
2026-01-29 11:29:51.465876	196.2	80.8	-78.4	11.4
2026-01-29 11:29:53.712492	200.6	81.7	-78.2	9.0
2026-01-29 11:29:55.960578	206.0	82.6	-78.0	9.9
2026-01-29 11:29:58.207721	212.9	83.4	-78.4	9.9
2026-01-29 11:30:00.456019	221.5	84.1	-78.3	9.3
2026-01-29 11:30:02.704259	232.1	84.6	-78.2	10.3
2026-01-29 11:30:04.953195	244.3	84.9	-78.2	8.3
2026-01-29 11:30:07.201667	257.5	84.9	-78.5	9.4
2026-01-29 11:30:09.448097	270.1	84.7	-78.1	7.1
2026-01-29 11:30:11.694990	281.3	84.3	-78.2	10.2
2026-01-29 11:30:13.942923	290.6	83.6	-78.4	9.3
2026-01-29 11:30:16.191567	298.0	82.9	-78.3	8.4
2026-01-29 11:30:18.438522	304.0	82.0	-77.9	6.1
2026-01-29 11:30:20.687506	308.7	81.1	-78.2	8.2
2026-01-29 11:30:22.933730	312.5	80.1	-78.4	8.1
2026-01-29 11:30:25.180466	315.6	79.2	-77.5	6.0
2026-01-29 11:30:27.427959	318.2	78.1	-77.5	5.2
2026-01-29 11:30:29.673787	320.4	77.1	-77.7	2.9
2026-01-29 11:30:31.925418	322.2	76.1	-77.7	7.4
2026-01-29 11:30:34.170345	323.8	75.0	-77.7	4.9
2026-01-29 11:30:36.416603	325.2	74.0	-77.9	4.7
2026-01-29 11:30:38.663702	326.4	73.0	-77.7	7.2
2026-01-29 11:30:40.915158	327.4	71.9	-78.2	5.2
2026-01-29 11:30:43.160315	328.4	70.9	-78.4	6.9
2026-01-29 11:30:45.408986	329.2	69.9	-78.1	5.5
2026-01-29 11:30:47.657201	329.9	68.9	-78.3	3.5
2026-01-29 11:30:49.907378	330.6	67.9	-78.4	4.9
2026-01-29 11:30:52.152036	331.2	66.9	-77.6	1.7
2026-01-29 11:30:54.402970	331.8	65.9	-77.4	1.9
2026-01-29 11:30:56.653050	332.3	64.9	-77.1	3.9
2026-01-29 11:30:58.900969	332.8	63.9	-77.8	5.5
2026-01-29 11:31:01.147910	333.2	63.0	-77.6	4.9
2026-01-29 11:31:03.393267	333.6	62.0	-77.3	3.3
2026-01-29 11:31:05.642848	334.0	61.1	-76.6	0.4
2026-01-29 11:31:07.888953	334.3	60.2	-77.7	4.5
2026-01-29 11:31:10.135265	334.7	59.3	-77.8	1.0
2026-01-29 11:31:12.383522	335.0	58.4	-76.8	1.2
2026-01-29 11:31:14.633389	335.2	57.5	-77.4	0.0
2026-01-29 11:31:16.882279	335.5	56.6	-77.8	2.4
2026-01-29 11:31:19.131356	335.8	55.8	-78.9	5.4
2026-01-29 11:31:21.379316	336.0	54.9	-77.5	2.0
2026-01-29 11:31:23.627393	336.2	54.1	-78.4	4.9
2026-01-29 11:31:25.874537	336.4	53.3	-78.1	3.2
2026-01-29 11:31:28.122431	336.6	52.5	-77.2	3.4
2026-01-29 11:31:30.373653	336.8	51.7	-77.0	1.6
2026-01-29 11:31:32.624341	337.0	50.9	-76.6	1.2
2026-01-29 11:31:34.871989	337.2	50.1	-77.7	5.4
2026-01-29 11:31:37.116736	337.3	49.4	-77.1	0.2
2026-01-29 11:31:39.364568	337.5	48.6	-76.7	1.2
2026-01-29 11:31:41.610783	337.6	47.9	-76.9	5.0
2026-01-29 11:31:43.857191	337.8	47.2	-76.7	1.8
2026-01-29 11:31:46.103322	337.9	46.5	-75.1	0.0
2026-01-29 11:31:48.349761	338.0	45.8	-74.9	0.0
2026-01-29 11:31:50.598225	338.2	45.1	-73.4	0.0
2026-01-29 11:31:52.847497	338.3	44.4	-72.9	0.0
2026-01-29 11:31:55.095844	338.4	43.8	-75.1	3.1
2026-01-29 11:31:57.340748	338.5	43.1	-74.1	1.5
2026-01-29 11:31:59.587381	338.6	42.5	-74.4	0.0
2026-01-29 11:32:01.835945	338.7	41.9	-74.6	2.2
2026-01-29 11:32:04.083170	338.8	41.3	-75.1	2.2
2026-01-29 11:32:06.329559	338.9	40.7	-72.8	0.0
2026-01-29 11:32:08.576227	339.0	40.1	-73.7	0.0
2026-01-29 11:32:10.825504	339.1	39.5	-72.4	0.0
2026-01-29 11:32:13.073430	339.2	38.9	-71.9	0.0
2026-01-29 11:32:15.318963	339.3	38.3	-71.6	0.0
2026-01-29 11:32:17.566522	339.4	37.8	-71.6	0.0
2026-01-29 11:32:19.815508	339.5	37.2	-70.8	0.0
2026-01-29 11:32:22.062618	339.5	36.7	-72.4	0.0
2026-01-29 11:32:24.307563	339.6	36.2	-72.3	0.0
2026-01-29 11:32:26.554596	339.7	35.6	-71.1	0.0
2026-01-29 11:32:28.801422	339.8	35.1	-67.7	0.0
2026-01-29 11:32:31.049693	339.8	34.6	-70.3	0.0
2026-01-29 11:32:33.294471	339.9	34.1	-71.0	0.0
2026-01-29 11:32:35.541628	340.0	33.6	-71.2	0.0
2026-01-29 11:32:37.787405	340.0	33.1	-71.4	0.0
2026-01-29 11:32:40.035545	340.1	32.7	-71.7	0.0
2026-01-29 11:32:42.286804	340.1	32.2	-69.0	0.0
2026-01-29 11:32:44.532602	340.2	31.7	-72.1	0.0
2026-01-29 11:32:46.776057	340.3	31.3	-72.1	0.0
2026-01-29 11:32:49.022873	340.3	30.8	-71.4	0.0
2026-01-29 11:32:51.268744	340.4	30.4	-71.7	0.0
2026-01-29 11:32:53.516811	340.4	30.0	-71.8	0.0
2026-01-29 11:32:55.764506	340.5	29.5	-71.0	0.0
2026-01-29 11:32:58.011682	340.5	29.1	-71.5	0.0
2026-01-29 11:33:00.261910	340.6	28.7	-70.4	0.0
2026-01-29 11:33:02.506506	340.6	28.3	-68.7	0.0
2026-01-29 11:33:04.753270	340.7	27.9	-71.3	0.0
2026-01-29 11:33:07.001014	340.7	27.5	-70.9	0.0
2026-01-29 11:33:09.247566	340.8	27.1	-71.1	0.0
2026-01-29 11:33:11.493863	340.8	26.7	-70.3	0.0
2026-01-29 11:33:13.741051	340.9	26.4	-69.8	0.0
2026-01-29 11:33:15.989403	340.9	26.0	-69.1	0.0
2026-01-29 11:33:18.237883	341.0	25.6	-70.5	0.0
2026-01-29 11:33:20.488309	341.0	25.3	-69.5	0.0
2026-01-29 11:33:22.735747	341.0	24.9	-70.7	0.0
2026-01-29 11:33:24.983526	341.1	24.5	-69.8	0.0
2026-01-29 11:33:27.230495	341.1	24.2	-70.6	0.0
2026-01-29 11:33:29.476445	341.2	23.8	-70.7	0.0
2026-01-29 11:33:31.725628	341.2	23.5	-70.7	0.0
2026-01-29 11:33:33.974472	341.2	23.2	-69.8	0.0
2026-01-29 11:33:36.223107	341.3	22.8	-69.6	0.0
2026-01-29 11:33:38.470911	341.3	22.5	-68.5	0.0
2026-01-29 11:33:40.716594	341.3	22.2	-68.3	0.0
2026-01-29 11:33:42.962940	341.4	21.9	-69.0	0.0
2026-01-29 11:33:45.209522	341.4	21.6	-70.2	0.0
2026-01-29 11:33:47.457328	341.5	21.2	-70.2	0.0
2026-01-29 11:33:49.706354	341.5	20.9	-69.9	0.0
2026-01-29 11:33:51.952819	341.5	20.6	-68.4	0.0
2026-01-29 11:33:54.198749	341.6	20.3	-68.8	0.0
2026-01-29 11:33:56.447808	341.6	20.0	-70.3	0.0
2026-01-29 11:33:58.694157	341.6	19.7	-70.3	0.0
2026-01-29 11:34:00.941407	341.7	19.5	-69.9	0.0
2026-01-29 11:34:03.190024	341.7	19.2	-70.1	0.0
2026-01-29 11:34:05.436659	341.7	18.9	-70.3	0.0
2026-01-29 11:34:07.681023	341.7	18.6	-69.5	0.0
2026-01-29 11:34:09.926219	341.8	18.3	-70.3	0.0
2026-01-29 11:34:12.172431	341.8	18.1	-69.4	0.0
2026-01-29 11:34:14.416348	341.8	17.8	-69.1	0.0
2026-01-29 11:34:16.667501	341.9	17.5	-71.2	0.0
2026-01-29 11:34:18.914554	341.9	17.3	-71.6	0.0
2026-01-29 11:34:21.161273	341.9	17.0	-69.7	0.0
2026-01-29 11:34:23.408052	342.0	16.7	-71.7	0.0
2026-01-29 11:34:25.655781	342.0	16.5	-69.8	0.0
2026-01-29 11:34:27.904904	342.0	16.2	-69.6	0.0
2026-01-29 11:34:30.151675	342.0	16.0	-69.7	0.0
2026-01-29 11:34:32.397339	342.1	15.7	-70.6	0.0
2026-01-29 11:34:34.643031	342.1	15.5	-69.4	0.0
2026-01-29 11:34:36.890789	342.1	15.2	-69.6	0.0
2026-01-29 11:34:39.140829	342.1	15.0	-70.4	0.0
2026-01-29 11:34:41.387299	342.2	14.8	-71.6	0.0
2026-01-29 11:34:43.635326	342.2	14.5	-71.0	0.0
2026-01-29 11:34:45.882726	342.2	14.3	-71.6	0.0
2026-01-29 11:34:48.128012	342.2	14.1	-71.1	0.0
2026-01-29 11:34:50.374478	342.3	13.8	-71.5	0.0
2026-01-29 11:34:52.619515	342.3	13.6	-70.1	0.0
2026-01-29 11:34:54.867382	342.3	13.4	-71.9	0.0
2026-01-29 11:34:57.112119	342.3	13.2	-71.0	0.0
2026-01-29 11:34:59.359805	342.4	12.9	-71.3	0.0
2026-01-29 11:35:01.606866	342.4	12.7	-72.2	0.0
2026-01-29 11:35:03.854202	342.4	12.5	-71.6	0.0
2026-01-29 11:35:06.099705	342.4	12.3	-70.6	0.0
2026-01-29 11:35:08.347570	342.5	12.1	-71.1	0.0
2026-01-29 11:35:10.595100	342.5	11.9	-72.8	0.0
2026-01-29 11:35:12.843681	342.5	11.7	-72.3	0.0
2026-01-29 11:35:15.089683	342.5	11.5	-72.3	0.0
2026-01-29 11:35:17.334834	342.6	11.2	-71.7	0.0
2026-01-29 11:35:19.581900	342.6	11.0	-72.3	0.0
2026-01-29 11:35:21.830060	342.6	10.8	-69.8	0.0
2026-01-29 11:35:24.077153	342.6	10.6	-70.3	0.0
2026-01-29 11:35:26.323700	342.6	10.4	-70.5	0.0
2026-01-29 11:35:28.573776	342.7	10.2	-73.4	0.0
2026-01-29 11:35:30.819083	342.7	10.0	-80.8	0.0
#Closed at: 2026-01-29 11:24:38.557447