passes_logs/2026/01/29/planumMaritime01/planumMaritime01__20260129_163323_METEOR-M2_3_rec.log

#Pass ID: 20260129_163323_METEOR-M2 3
#Satellite: METEOR-M2 3
#Configuration: METEOR-M2 3
#Start time: 2026-01-29 16:33:28.923779

#LorettStation: 1.0.0 05.05.2024
#Station: planumMaritime01
#Location: 37.49445 lon 55.92918 lat
#TLE: 1 57166U 23091A   26027.99488459  .00000021  00000+0  27978-4 0  9992
#TLE: 2 57166  98.6303  85.7107 0003472 203.3715 156.7307 14.24032890134562

#Time	Az	El	Level	SNR
2026-01-29 16:33:31.088579	117.0	10.2	-80.8	0.0
2026-01-29 16:33:33.336995	116.8	10.3	-80.0	0.0
2026-01-29 16:33:35.585934	116.6	10.5	-78.1	0.0
2026-01-29 16:33:37.835551	116.4	10.7	-77.6	0.0
2026-01-29 16:33:40.083254	116.2	10.9	-76.6	3.8
2026-01-29 16:33:42.331686	116.0	11.0	-75.7	0.7
2026-01-29 16:33:44.581295	115.7	11.2	-74.8	0.0
2026-01-29 16:33:46.828871	115.5	11.4	-74.2	0.0
2026-01-29 16:33:49.072242	115.3	11.6	-75.5	0.0
2026-01-29 16:33:51.316078	115.1	11.8	-75.2	0.4
2026-01-29 16:33:53.561336	114.9	11.9	-75.2	1.6
2026-01-29 16:33:55.807537	114.6	12.1	-75.5	0.7
2026-01-29 16:33:58.057988	114.4	12.3	-76.1	3.3
2026-01-29 16:34:00.302150	114.2	12.5	-75.3	0.8
2026-01-29 16:34:02.548003	113.9	12.7	-75.3	3.2
2026-01-29 16:34:04.792706	113.7	12.9	-76.4	0.0
2026-01-29 16:34:07.042524	113.4	13.0	-75.4	1.2
2026-01-29 16:34:09.288800	113.2	13.2	-74.6	0.0
2026-01-29 16:34:11.539111	112.9	13.4	-76.2	3.0
2026-01-29 16:34:13.783860	112.7	13.6	-75.6	0.9
2026-01-29 16:34:16.035076	112.4	13.8	-74.1	1.2
2026-01-29 16:34:18.280936	112.2	14.0	-75.3	3.3
2026-01-29 16:34:20.527624	111.9	14.2	-75.9	4.1
2026-01-29 16:34:22.775245	111.6	14.4	-75.6	2.2
2026-01-29 16:34:25.025110	111.3	14.6	-75.1	1.1
2026-01-29 16:34:27.270896	111.1	14.8	-75.6	2.3
2026-01-29 16:34:29.525095	110.8	15.0	-75.0	2.8
2026-01-29 16:34:31.771322	110.5	15.2	-75.4	2.6
2026-01-29 16:34:34.018666	110.2	15.4	-76.6	4.0
2026-01-29 16:34:36.266522	109.9	15.6	-75.8	2.7
2026-01-29 16:34:38.516109	109.6	15.8	-75.1	3.4
2026-01-29 16:34:40.759617	109.3	16.0	-76.0	3.7
2026-01-29 16:34:43.006221	109.0	16.2	-75.7	3.7
2026-01-29 16:34:45.256219	108.7	16.4	-75.4	3.8
2026-01-29 16:34:47.507006	108.4	16.6	-75.6	3.3
2026-01-29 16:34:49.756004	108.1	16.8	-76.2	5.3
2026-01-29 16:34:52.011284	107.8	17.0	-76.5	4.9
2026-01-29 16:34:54.262264	107.4	17.2	-75.9	5.0
2026-01-29 16:34:56.510120	107.1	17.4	-76.1	4.0
2026-01-29 16:34:58.759754	106.8	17.6	-76.3	6.2
2026-01-29 16:35:01.009542	106.4	17.8	-75.7	5.4
2026-01-29 16:35:03.255163	106.1	18.0	-75.5	4.6
2026-01-29 16:35:05.506939	105.7	18.2	-75.7	4.9
2026-01-29 16:35:07.751990	105.4	18.4	-75.5	2.6
2026-01-29 16:35:09.999134	105.0	18.7	-75.1	2.7
2026-01-29 16:35:12.245667	104.7	18.9	-75.7	4.2
2026-01-29 16:35:14.494129	104.3	19.1	-76.0	5.1
2026-01-29 16:35:16.742602	103.9	19.3	-75.7	5.7
2026-01-29 16:35:18.989399	103.5	19.5	-75.1	2.7
2026-01-29 16:35:21.237049	103.1	19.7	-75.4	1.0
2026-01-29 16:35:23.482456	102.8	19.9	-74.6	0.3
2026-01-29 16:35:25.729387	102.4	20.1	-75.2	4.4
2026-01-29 16:35:27.973870	102.0	20.4	-75.6	3.9
2026-01-29 16:35:30.220276	101.5	20.6	-76.0	4.7
2026-01-29 16:35:32.463761	101.1	20.8	-74.8	2.7
2026-01-29 16:35:34.709836	100.7	21.0	-75.9	4.3
2026-01-29 16:35:36.956534	100.3	21.2	-75.4	3.7
2026-01-29 16:35:39.206760	99.9	21.4	-75.5	4.5
2026-01-29 16:35:41.456455	99.4	21.7	-75.8	4.3
2026-01-29 16:35:43.702755	99.0	21.9	-76.2	4.1
2026-01-29 16:35:45.953418	98.5	22.1	-76.0	3.5
2026-01-29 16:35:48.200490	98.1	22.3	-75.7	3.1
2026-01-29 16:35:50.447172	97.6	22.5	-75.5	5.1
2026-01-29 16:35:52.696836	97.1	22.7	-75.3	4.5
2026-01-29 16:35:54.942012	96.7	23.0	-75.2	5.5
2026-01-29 16:35:57.188358	96.2	23.2	-74.9	4.2
2026-01-29 16:35:59.437416	95.7	23.4	-74.2	2.7
2026-01-29 16:36:01.685163	95.2	23.6	-75.1	5.5
2026-01-29 16:36:03.932256	94.7	23.8	-74.3	3.1
2026-01-29 16:36:06.182397	94.2	24.0	-74.5	3.7
2026-01-29 16:36:08.428916	93.6	24.2	-74.8	4.1
2026-01-29 16:36:10.677051	93.1	24.4	-74.5	2.8
2026-01-29 16:36:12.929915	92.6	24.7	-73.7	0.0
2026-01-29 16:36:15.175803	92.0	24.9	-75.3	5.5
2026-01-29 16:36:17.424683	91.5	25.1	-75.7	4.9
2026-01-29 16:36:19.671809	90.9	25.3	-75.1	3.8
2026-01-29 16:36:21.919030	90.4	25.5	-74.5	3.2
2026-01-29 16:36:24.166368	89.8	25.7	-74.6	1.0
2026-01-29 16:36:26.412911	89.2	25.9	-75.4	5.5
2026-01-29 16:36:28.664074	88.7	26.1	-74.6	1.6
2026-01-29 16:36:30.914100	88.1	26.3	-75.6	5.5
2026-01-29 16:36:33.161444	87.5	26.5	-75.7	4.6
2026-01-29 16:36:35.411294	86.9	26.7	-74.9	4.2
2026-01-29 16:36:37.656757	86.2	26.9	-75.5	5.7
2026-01-29 16:36:39.904661	85.6	27.1	-75.4	6.3
2026-01-29 16:36:42.150854	85.0	27.3	-76.0	7.6
2026-01-29 16:36:44.399781	84.4	27.5	-75.2	6.5
2026-01-29 16:36:46.648937	83.7	27.6	-75.7	4.5
2026-01-29 16:36:48.897018	83.1	27.8	-75.6	5.8
2026-01-29 16:36:51.140064	82.4	28.0	-73.3	2.2
2026-01-29 16:36:53.385375	81.7	28.2	-74.1	4.9
2026-01-29 16:36:55.634780	81.1	28.3	-74.5	1.6
2026-01-29 16:36:57.882787	80.4	28.5	-74.8	5.1
2026-01-29 16:37:00.129337	79.7	28.7	-74.8	5.6
2026-01-29 16:37:02.378180	79.0	28.8	-74.7	4.6
2026-01-29 16:37:04.628812	78.3	29.0	-74.6	5.9
2026-01-29 16:37:06.879884	77.6	29.1	-73.8	4.4
2026-01-29 16:37:09.129882	76.9	29.3	-75.2	4.3
2026-01-29 16:37:11.377375	76.1	29.4	-75.2	2.7
2026-01-29 16:37:13.624666	75.4	29.6	-75.1	5.1
2026-01-29 16:37:15.869854	74.7	29.7	-74.0	2.7
2026-01-29 16:37:18.118810	73.9	29.8	-75.1	5.5
2026-01-29 16:37:20.368088	73.2	30.0	-75.4	4.9
2026-01-29 16:37:22.615540	72.4	30.1	-73.5	2.6
2026-01-29 16:37:24.863118	71.7	30.2	-74.8	3.8
2026-01-29 16:37:27.108606	70.9	30.3	-72.5	0.0
2026-01-29 16:37:29.358535	70.2	30.4	-73.7	2.0
2026-01-29 16:37:31.605316	69.4	30.5	-74.6	3.2
2026-01-29 16:37:33.850775	68.6	30.6	-75.8	6.8
2026-01-29 16:37:36.099526	67.8	30.7	-73.8	0.9
2026-01-29 16:37:38.351411	67.0	30.8	-74.3	2.6
2026-01-29 16:37:40.599818	66.2	30.9	-73.9	0.4
2026-01-29 16:37:42.847576	65.5	30.9	-74.1	2.8
2026-01-29 16:37:45.095175	64.7	31.0	-74.1	2.1
2026-01-29 16:37:47.344558	63.9	31.1	-74.7	4.1
2026-01-29 16:37:49.592631	63.0	31.1	-74.0	3.4
2026-01-29 16:37:51.840168	62.2	31.2	-74.6	2.3
2026-01-29 16:37:54.089857	61.4	31.2	-74.5	3.7
2026-01-29 16:37:56.334204	60.6	31.2	-73.7	2.0
2026-01-29 16:37:58.581905	59.8	31.3	-74.5	2.9
2026-01-29 16:38:00.830229	59.0	31.3	-73.2	0.1
2026-01-29 16:38:03.076677	58.2	31.3	-73.5	0.9
2026-01-29 16:38:05.324686	57.4	31.3	-73.8	4.1
2026-01-29 16:38:07.573414	56.6	31.3	-74.8	3.5
2026-01-29 16:38:09.817176	55.8	31.3	-74.1	0.8
2026-01-29 16:38:12.064446	54.9	31.3	-74.0	2.3
2026-01-29 16:38:14.316187	54.1	31.3	-73.8	0.8
2026-01-29 16:38:16.562562	53.3	31.2	-73.8	0.5
2026-01-29 16:38:18.808080	52.5	31.2	-73.3	0.0
2026-01-29 16:38:21.059453	51.7	31.2	-73.3	0.0
2026-01-29 16:38:23.307919	50.9	31.1	-71.8	0.0
2026-01-29 16:38:25.556136	50.1	31.1	-70.7	0.0
2026-01-29 16:38:27.804967	49.3	31.0	-72.4	0.0
2026-01-29 16:38:30.052448	48.5	31.0	-72.7	0.0
2026-01-29 16:38:32.299030	47.7	30.9	-72.0	0.0
2026-01-29 16:38:34.544617	46.9	30.8	-71.8	0.0
2026-01-29 16:38:36.793911	46.1	30.7	-72.7	0.0
2026-01-29 16:38:39.042987	45.3	30.7	-72.8	0.0
2026-01-29 16:38:41.290818	44.6	30.6	-70.6	0.0
2026-01-29 16:38:43.535202	43.8	30.5	-72.2	0.0
2026-01-29 16:38:45.780840	43.0	30.4	-72.2	0.0
2026-01-29 16:38:48.029165	42.2	30.3	-71.3	0.0
2026-01-29 16:38:50.278542	41.5	30.1	-69.3	0.0
2026-01-29 16:38:52.523592	40.7	30.0	-70.7	0.0
2026-01-29 16:38:54.768333	40.0	29.9	-68.4	0.0
2026-01-29 16:38:57.015813	39.2	29.8	-68.4	0.0
2026-01-29 16:38:59.262769	38.5	29.6	-69.4	0.0
2026-01-29 16:39:01.507567	37.8	29.5	-69.9	0.0
2026-01-29 16:39:03.754161	37.1	29.4	-69.4	0.0
2026-01-29 16:39:06.004127	36.3	29.2	-70.0	0.0
2026-01-29 16:39:08.252374	35.6	29.1	-69.5	0.0
2026-01-29 16:39:10.500309	34.9	28.9	-67.2	0.0
2026-01-29 16:39:12.748015	34.2	28.7	-68.6	0.0
2026-01-29 16:39:14.995778	33.5	28.6	-68.0	0.0
2026-01-29 16:39:17.244138	32.9	28.4	-66.9	0.0
2026-01-29 16:39:19.490509	32.2	28.2	-67.3	0.0
2026-01-29 16:39:21.736178	31.5	28.1	-67.1	0.0
2026-01-29 16:39:23.988155	30.9	27.9	-64.7	0.0
2026-01-29 16:39:26.234677	30.2	27.7	-62.5	0.0
2026-01-29 16:39:28.481130	29.6	27.5	-65.1	0.0
2026-01-29 16:39:30.729031	28.9	27.4	-63.7	0.0
2026-01-29 16:39:32.974992	28.3	27.2	-64.9	0.0
2026-01-29 16:39:35.221319	27.7	27.0	-65.4	0.0
2026-01-29 16:39:37.467843	27.1	26.8	-67.0	0.0
2026-01-29 16:39:39.712702	26.5	26.6	-66.3	0.0
2026-01-29 16:39:41.961486	25.9	26.4	-68.6	0.0
2026-01-29 16:39:44.208954	25.3	26.2	-65.3	0.0
2026-01-29 16:39:46.456566	24.7	26.0	-65.0	0.0
2026-01-29 16:39:48.704649	24.1	25.8	-66.1	0.0
2026-01-29 16:39:50.952059	23.5	25.6	-66.4	0.0
2026-01-29 16:39:53.197038	23.0	25.4	-66.6	0.0
2026-01-29 16:39:55.446504	22.4	25.2	-65.6	0.0
2026-01-29 16:39:57.695548	21.9	25.0	-65.2	0.0
2026-01-29 16:39:59.946963	21.3	24.8	-66.5	0.0
2026-01-29 16:40:02.193714	20.8	24.6	-68.0	0.0
2026-01-29 16:40:04.440239	20.3	24.4	-66.1	0.0
2026-01-29 16:40:06.688925	19.7	24.1	-67.7	0.0
2026-01-29 16:40:08.937028	19.2	23.9	-64.3	0.0
2026-01-29 16:40:11.184482	18.7	23.7	-68.1	0.0
2026-01-29 16:40:13.435203	18.2	23.5	-66.8	0.0
2026-01-29 16:40:15.680693	17.7	23.3	-65.2	0.0
2026-01-29 16:40:17.925457	17.2	23.1	-67.7	0.0
2026-01-29 16:40:20.172469	16.8	22.9	-64.4	0.0
2026-01-29 16:40:22.417221	16.3	22.6	-66.0	0.0
2026-01-29 16:40:24.665141	15.8	22.4	-66.9	0.0
2026-01-29 16:40:26.912992	15.4	22.2	-66.9	0.0
2026-01-29 16:40:29.160879	14.9	22.0	-64.0	0.0
2026-01-29 16:40:31.410538	14.5	21.8	-67.0	0.0
2026-01-29 16:40:33.656944	14.0	21.6	-67.9	0.0
2026-01-29 16:40:35.903916	13.6	21.3	-68.1	0.0
2026-01-29 16:40:38.149008	13.2	21.1	-68.4	0.0
2026-01-29 16:40:40.398983	12.8	20.9	-65.7	0.0
2026-01-29 16:40:42.643375	12.3	20.7	-66.9	0.0
2026-01-29 16:40:44.889904	11.9	20.5	-66.7	0.0
2026-01-29 16:40:47.136975	11.5	20.3	-66.9	0.0
2026-01-29 16:40:49.384290	11.1	20.1	-67.2	0.0
2026-01-29 16:40:51.630108	10.7	19.8	-68.5	0.0
2026-01-29 16:40:53.877547	10.4	19.6	-69.0	0.0
2026-01-29 16:40:56.124585	10.0	19.4	-68.2	0.0
2026-01-29 16:40:58.372329	9.6	19.2	-68.7	0.0
2026-01-29 16:41:00.619030	9.2	19.0	-69.4	0.0
2026-01-29 16:41:02.864322	8.9	18.8	-67.7	0.0
2026-01-29 16:41:05.112351	8.5	18.6	-68.5	0.0
2026-01-29 16:41:07.361290	8.2	18.4	-69.2	0.0
2026-01-29 16:41:09.608668	7.8	18.2	-69.2	0.0
2026-01-29 16:41:11.860578	7.5	17.9	-66.4	0.0
2026-01-29 16:41:14.108408	7.1	17.7	-69.2	0.0
2026-01-29 16:41:16.354497	6.8	17.5	-69.4	0.0
2026-01-29 16:41:18.599581	6.5	17.3	-69.3	0.0
2026-01-29 16:41:20.847030	6.1	17.1	-68.2	0.0
2026-01-29 16:41:23.096674	5.8	16.9	-63.9	0.0
2026-01-29 16:41:25.344091	5.5	16.7	-65.8	0.0
2026-01-29 16:41:27.592530	5.2	16.5	-66.0	0.0
2026-01-29 16:41:29.837587	4.9	16.3	-64.5	0.0
2026-01-29 16:41:32.082574	4.6	16.1	-65.6	0.0
2026-01-29 16:41:34.332065	4.3	15.9	-66.4	0.0
2026-01-29 16:41:36.578994	4.0	15.7	-68.6	0.0
2026-01-29 16:41:38.822895	3.7	15.5	-70.9	0.0
2026-01-29 16:41:41.074445	3.4	15.3	-69.4	0.0
2026-01-29 16:41:43.321103	3.1	15.1	-69.8	0.0
2026-01-29 16:41:45.567597	2.8	14.9	-69.2	0.0
2026-01-29 16:41:47.816487	2.5	14.7	-69.6	0.0
2026-01-29 16:41:50.061777	2.3	14.5	-68.8	0.0
2026-01-29 16:41:52.308626	2.0	14.3	-69.5	0.0
2026-01-29 16:41:54.554932	1.7	14.1	-69.9	0.0
2026-01-29 16:41:56.801747	1.5	14.0	-68.6	0.0
2026-01-29 16:41:59.050823	1.2	13.8	-69.8	0.0
2026-01-29 16:42:01.297724	1.0	13.6	-71.3	0.0
2026-01-29 16:42:03.545849	0.7	13.4	-69.1	0.0
2026-01-29 16:42:05.794209	0.5	13.2	-68.5	0.0
2026-01-29 16:42:08.040651	0.2	13.0	-69.2	0.0
2026-01-29 16:42:10.287319	360.0	12.8	-71.7	0.0
2026-01-29 16:42:12.533139	359.7	12.6	-69.9	0.0
2026-01-29 16:42:14.782085	359.5	12.5	-68.9	0.0
2026-01-29 16:42:17.032305	359.3	12.3	-70.3	0.0
2026-01-29 16:42:19.279552	359.0	12.1	-71.0	0.0
2026-01-29 16:42:21.526658	358.8	11.9	-69.9	0.0
2026-01-29 16:42:23.772555	358.6	11.7	-70.3	0.0
2026-01-29 16:42:26.016799	358.4	11.5	-70.8	0.0
2026-01-29 16:42:28.264713	358.2	11.4	-68.7	0.0
2026-01-29 16:42:30.512821	357.9	11.2	-69.8	0.0
2026-01-29 16:42:32.761028	357.7	11.0	-69.1	0.0
2026-01-29 16:42:35.010051	357.5	10.8	-68.0	0.0
2026-01-29 16:42:37.255442	357.3	10.7	-67.3	0.0
2026-01-29 16:42:39.500106	357.1	10.5	-71.9	0.0
2026-01-29 16:42:41.746918	356.9	10.3	-76.8	0.0
2026-01-29 16:42:43.994139	356.7	10.1	-77.6	0.0
#Closed at: 2026-01-29 16:33:23.930884