passes_logs/2026/01/29/planumMaritime01/planumMaritime01__20260129_101050_METOP-C_rec.log

#Pass ID: 20260129_101050_METOP-C
#Satellite: METOP-C
#Configuration: METOP-C
#Start time: 2026-01-29 10:10:55.063612

#LorettStation: 1.0.0 05.05.2024
#Station: planumMaritime01
#Location: 37.49445 lon 55.92918 lat
#TLE: 1 43689U 18087A   26027.92599966  .00000174  00000+0  99447-4 0  9994
#TLE: 2 43689  98.6855  89.9715 0001194 159.8041 200.3184 14.21505574374900

#Time	Az	El	Level	SNR
2026-01-29 10:10:57.239631	348.3	10.1	-62.7	0.0
2026-01-29 10:10:58.366839	348.1	10.1	-64.7	0.0
2026-01-29 10:10:59.490316	347.9	10.2	-61.8	0.0
2026-01-29 10:11:00.614572	347.7	10.2	-65.2	0.0
2026-01-29 10:11:01.738166	347.6	10.3	-65.3	0.0
2026-01-29 10:11:02.859427	347.4	10.3	-65.7	0.0
2026-01-29 10:11:03.984631	347.2	10.4	-61.7	0.0
2026-01-29 10:11:05.105799	347.0	10.4	-66.5	0.0
2026-01-29 10:11:06.226913	346.8	10.5	-68.3	0.0
2026-01-29 10:11:07.351551	346.7	10.5	-66.4	0.0
2026-01-29 10:11:08.472488	346.5	10.6	-64.0	0.0
2026-01-29 10:11:09.593587	346.3	10.6	-64.9	0.0
2026-01-29 10:11:10.715443	346.1	10.7	-67.1	0.0
2026-01-29 10:11:11.837811	345.9	10.7	-65.8	0.0
2026-01-29 10:11:12.959192	345.8	10.8	-65.0	0.0
2026-01-29 10:11:14.080715	345.6	10.8	-65.8	0.0
2026-01-29 10:11:15.203504	345.4	10.9	-65.9	0.0
2026-01-29 10:11:16.326425	345.2	10.9	-67.5	0.0
2026-01-29 10:11:17.448688	345.0	10.9	-65.4	0.0
2026-01-29 10:11:18.571401	344.8	11.0	-69.2	0.0
2026-01-29 10:11:19.694148	344.6	11.0	-67.1	0.0
2026-01-29 10:11:20.815709	344.5	11.1	-64.3	0.0
2026-01-29 10:11:21.936984	344.3	11.1	-64.5	0.0
2026-01-29 10:11:23.059600	344.1	11.2	-66.4	0.0
2026-01-29 10:11:24.181757	343.9	11.2	-64.8	0.0
2026-01-29 10:11:25.305267	343.7	11.3	-67.2	0.0
2026-01-29 10:11:26.426679	343.5	11.3	-67.8	0.0
2026-01-29 10:11:27.550330	343.3	11.3	-65.4	0.0
2026-01-29 10:11:28.672539	343.1	11.4	-66.4	0.0
2026-01-29 10:11:29.795594	342.9	11.4	-67.9	0.0
2026-01-29 10:11:30.918908	342.7	11.5	-66.4	0.0
2026-01-29 10:11:32.043629	342.5	11.5	-65.4	0.0
2026-01-29 10:11:33.166449	342.3	11.6	-66.3	0.0
2026-01-29 10:11:34.287765	342.2	11.6	-65.3	0.0
2026-01-29 10:11:35.410759	342.0	11.6	-66.9	0.0
2026-01-29 10:11:36.532844	341.8	11.7	-66.7	0.0
2026-01-29 10:11:37.657825	341.6	11.7	-66.6	0.0
2026-01-29 10:11:38.780095	341.4	11.8	-65.8	0.0
2026-01-29 10:11:39.902628	341.2	11.8	-67.6	0.0
2026-01-29 10:11:41.024650	341.0	11.9	-66.8	0.0
2026-01-29 10:11:42.147730	340.8	11.9	-67.5	0.0
2026-01-29 10:11:43.269553	340.6	11.9	-66.7	0.0
2026-01-29 10:11:44.390738	340.4	12.0	-66.8	0.0
2026-01-29 10:11:45.511402	340.2	12.0	-67.6	0.0
2026-01-29 10:11:46.634711	340.0	12.1	-64.8	0.0
2026-01-29 10:11:47.755729	339.8	12.1	-62.8	0.0
2026-01-29 10:11:48.878833	339.6	12.1	-65.8	0.0
2026-01-29 10:11:50.001037	339.4	12.2	-61.9	0.0
2026-01-29 10:11:51.124885	339.2	12.2	-64.2	0.0
2026-01-29 10:11:52.249414	339.0	12.2	-63.7	0.0
2026-01-29 10:11:53.373133	338.8	12.3	-64.9	0.0
2026-01-29 10:11:54.496850	338.6	12.3	-64.7	0.0
2026-01-29 10:11:55.620895	338.3	12.4	-62.2	0.0
2026-01-29 10:11:56.744018	338.1	12.4	-61.5	0.0
2026-01-29 10:11:57.865483	337.9	12.4	-60.7	0.0
2026-01-29 10:11:58.986945	337.7	12.5	-65.0	0.0
2026-01-29 10:12:00.109204	337.5	12.5	-59.5	0.0
2026-01-29 10:12:01.231177	337.3	12.5	-63.9	0.0
2026-01-29 10:12:02.356135	337.1	12.6	-59.9	0.0
2026-01-29 10:12:03.478983	336.9	12.6	-65.7	0.0
2026-01-29 10:12:04.600955	336.7	12.6	-66.7	0.0
2026-01-29 10:12:05.724385	336.5	12.7	-64.7	0.0
2026-01-29 10:12:06.846903	336.3	12.7	-65.4	0.0
2026-01-29 10:12:07.968709	336.1	12.7	-63.6	0.0
2026-01-29 10:12:09.091709	335.8	12.8	-65.8	0.0
2026-01-29 10:12:10.214181	335.6	12.8	-65.1	0.0
2026-01-29 10:12:11.338815	335.4	12.8	-64.5	0.0
2026-01-29 10:12:12.460757	335.2	12.9	-64.2	0.0
2026-01-29 10:12:13.582484	335.0	12.9	-63.6	0.0
2026-01-29 10:12:14.704970	334.8	12.9	-63.7	0.0
2026-01-29 10:12:15.827298	334.6	13.0	-63.4	0.0
2026-01-29 10:12:16.951579	334.4	13.0	-63.1	0.0
2026-01-29 10:12:18.076031	334.1	13.0	-63.3	0.0
2026-01-29 10:12:19.199080	333.9	13.1	-64.0	0.0
2026-01-29 10:12:20.322366	333.7	13.1	-64.6	0.0
2026-01-29 10:12:21.444807	333.5	13.1	-63.3	0.0
2026-01-29 10:12:22.568888	333.3	13.2	-65.4	0.0
2026-01-29 10:12:23.692009	333.1	13.2	-64.0	0.0
2026-01-29 10:12:24.814406	332.8	13.2	-64.2	0.0
2026-01-29 10:12:25.934959	332.6	13.2	-64.7	0.0
2026-01-29 10:12:27.058548	332.4	13.3	-65.1	0.0
2026-01-29 10:12:28.182104	332.2	13.3	-65.6	0.0
2026-01-29 10:12:29.305604	332.0	13.3	-65.3	0.0
2026-01-29 10:12:30.426610	331.7	13.3	-65.4	0.0
2026-01-29 10:12:31.548830	331.5	13.4	-64.9	0.0
2026-01-29 10:12:32.672073	331.3	13.4	-64.5	0.0
2026-01-29 10:12:33.794568	331.1	13.4	-62.6	0.0
2026-01-29 10:12:34.916015	330.9	13.4	-63.9	0.0
2026-01-29 10:12:36.039231	330.6	13.5	-64.7	0.0
2026-01-29 10:12:37.164028	330.4	13.5	-64.6	0.0
2026-01-29 10:12:38.287246	330.2	13.5	-62.9	0.0
2026-01-29 10:12:39.409757	330.0	13.5	-64.6	0.0
2026-01-29 10:12:40.530693	329.8	13.6	-64.5	0.0
2026-01-29 10:12:41.656508	329.5	13.6	-63.8	0.0
2026-01-29 10:12:42.780229	329.3	13.6	-63.9	0.0
2026-01-29 10:12:43.903328	329.1	13.6	-65.9	0.0
2026-01-29 10:12:45.023493	328.9	13.7	-64.2	0.0
2026-01-29 10:12:46.145634	328.6	13.7	-64.4	0.0
2026-01-29 10:12:47.268789	328.4	13.7	-65.3	0.0
2026-01-29 10:12:48.388364	328.2	13.7	-65.6	0.0
2026-01-29 10:12:49.510680	328.0	13.7	-66.3	0.0
2026-01-29 10:12:50.634920	327.7	13.8	-65.9	0.0
2026-01-29 10:12:51.755695	327.5	13.8	-65.1	0.0
2026-01-29 10:12:52.877358	327.3	13.8	-64.1	0.0
2026-01-29 10:12:53.999999	327.0	13.8	-67.6	0.0
2026-01-29 10:12:55.121770	326.8	13.8	-65.0	0.0
2026-01-29 10:12:56.244873	326.6	13.8	-67.5	0.0
2026-01-29 10:12:57.369894	326.4	13.9	-66.9	0.0
2026-01-29 10:12:58.492582	326.1	13.9	-66.6	0.0
2026-01-29 10:12:59.614596	325.9	13.9	-67.9	0.0
2026-01-29 10:13:00.735783	325.7	13.9	-68.5	0.0
2026-01-29 10:13:01.857487	325.5	13.9	-68.5	0.0
2026-01-29 10:13:02.979569	325.2	13.9	-66.3	0.0
2026-01-29 10:13:04.102348	325.0	13.9	-66.7	0.0
2026-01-29 10:13:05.223312	324.8	14.0	-67.8	0.0
2026-01-29 10:13:06.343666	324.5	14.0	-65.8	0.0
2026-01-29 10:13:07.466713	324.3	14.0	-67.7	0.0
2026-01-29 10:13:08.589827	324.1	14.0	-67.5	0.0
2026-01-29 10:13:09.711281	323.8	14.0	-66.3	0.0
2026-01-29 10:13:10.833585	323.6	14.0	-66.5	0.0
2026-01-29 10:13:11.956743	323.4	14.0	-67.2	0.0
2026-01-29 10:13:13.080194	323.2	14.0	-68.3	0.0
2026-01-29 10:13:14.205752	322.9	14.0	-67.8	0.0
2026-01-29 10:13:15.329406	322.7	14.1	-66.8	0.0
2026-01-29 10:13:16.451791	322.5	14.1	-67.2	0.0
2026-01-29 10:13:17.576590	322.2	14.1	-66.8	0.0
2026-01-29 10:13:18.699537	322.0	14.1	-65.7	0.0
2026-01-29 10:13:19.823210	321.8	14.1	-65.1	0.0
2026-01-29 10:13:20.945061	321.5	14.1	-67.0	0.0
2026-01-29 10:13:22.065565	321.3	14.1	-66.6	0.0
2026-01-29 10:13:23.188921	321.1	14.1	-64.3	0.0
2026-01-29 10:13:24.312521	320.8	14.1	-65.0	0.0
2026-01-29 10:13:25.435918	320.6	14.1	-64.3	0.0
2026-01-29 10:13:26.559396	320.4	14.1	-66.9	0.0
2026-01-29 10:13:27.682342	320.1	14.1	-64.6	0.0
2026-01-29 10:13:28.804792	319.9	14.1	-67.0	0.0
2026-01-29 10:13:29.925461	319.7	14.1	-66.7	0.0
2026-01-29 10:13:31.046162	319.4	14.1	-66.1	0.0
2026-01-29 10:13:32.169886	319.2	14.1	-66.8	0.0
2026-01-29 10:13:33.291244	319.0	14.1	-63.8	0.0
2026-01-29 10:13:34.414261	318.7	14.1	-64.3	0.0
2026-01-29 10:13:35.536746	318.5	14.1	-66.2	0.0
2026-01-29 10:13:36.661474	318.3	14.1	-63.2	0.0
2026-01-29 10:13:37.784774	318.0	14.1	-65.8	0.0
2026-01-29 10:13:38.908700	317.8	14.1	-66.6	0.0
2026-01-29 10:13:40.032792	317.6	14.1	-67.0	0.0
2026-01-29 10:13:41.153678	317.3	14.1	-67.2	0.0
2026-01-29 10:13:42.275484	317.1	14.1	-68.2	0.0
2026-01-29 10:13:43.398232	316.9	14.1	-67.1	0.0
2026-01-29 10:13:44.522388	316.7	14.1	-67.1	0.0
2026-01-29 10:13:45.644182	316.4	14.1	-65.1	0.0
2026-01-29 10:13:46.765597	316.2	14.1	-66.2	0.0
2026-01-29 10:13:47.887603	316.0	14.1	-63.3	0.0
2026-01-29 10:13:49.009739	315.7	14.1	-64.9	0.0
2026-01-29 10:13:50.130924	315.5	14.1	-65.1	0.0
2026-01-29 10:13:51.253586	315.3	14.1	-62.7	0.0
2026-01-29 10:13:52.375282	315.0	14.1	-66.4	0.0
2026-01-29 10:13:53.496491	314.8	14.1	-66.7	0.0
2026-01-29 10:13:54.620117	314.6	14.1	-67.1	0.0
2026-01-29 10:13:55.743319	314.3	14.1	-67.4	0.0
2026-01-29 10:13:56.867837	314.1	14.1	-67.1	0.0
2026-01-29 10:13:57.991634	313.9	14.1	-66.0	0.0
2026-01-29 10:13:59.113369	313.6	14.1	-64.9	0.0
2026-01-29 10:14:00.235771	313.4	14.0	-62.8	0.0
2026-01-29 10:14:01.358696	313.2	14.0	-63.8	0.0
2026-01-29 10:14:02.478903	312.9	14.0	-63.0	0.0
2026-01-29 10:14:03.600053	312.7	14.0	-64.6	0.0
2026-01-29 10:14:04.722040	312.5	14.0	-66.2	0.0
2026-01-29 10:14:05.844925	312.3	14.0	-64.6	0.0
2026-01-29 10:14:06.967027	312.0	14.0	-66.5	0.0
2026-01-29 10:14:08.090487	311.8	14.0	-63.5	0.0
2026-01-29 10:14:09.212488	311.6	14.0	-64.3	0.0
2026-01-29 10:14:10.334792	311.3	13.9	-66.1	0.0
2026-01-29 10:14:11.458758	311.1	13.9	-63.4	0.0
2026-01-29 10:14:12.582091	310.9	13.9	-65.2	0.0
2026-01-29 10:14:13.707201	310.6	13.9	-64.8	0.0
2026-01-29 10:14:14.832522	310.4	13.9	-64.6	0.0
2026-01-29 10:14:15.954833	310.2	13.9	-65.9	0.0
2026-01-29 10:14:17.078291	310.0	13.9	-67.0	0.0
2026-01-29 10:14:18.199806	309.7	13.8	-65.1	0.0
2026-01-29 10:14:19.320947	309.5	13.8	-65.8	0.0
2026-01-29 10:14:20.444364	309.3	13.8	-66.4	0.0
2026-01-29 10:14:21.565420	309.0	13.8	-65.0	0.0
2026-01-29 10:14:22.688228	308.8	13.8	-65.9	0.0
2026-01-29 10:14:23.810163	308.6	13.7	-64.1	0.0
2026-01-29 10:14:24.932611	308.4	13.7	-66.6	0.0
2026-01-29 10:14:26.055636	308.1	13.7	-66.8	0.0
2026-01-29 10:14:27.178758	307.9	13.7	-66.2	0.0
2026-01-29 10:14:28.303835	307.7	13.7	-67.6	0.0
2026-01-29 10:14:29.425387	307.5	13.7	-67.3	0.0
2026-01-29 10:14:30.547590	307.2	13.6	-65.6	0.0
2026-01-29 10:14:31.669501	307.0	13.6	-68.4	0.0
2026-01-29 10:14:32.793181	306.8	13.6	-68.0	0.0
2026-01-29 10:14:33.912612	306.6	13.6	-65.9	0.0
2026-01-29 10:14:35.036126	306.3	13.5	-65.9	0.0
2026-01-29 10:14:36.159082	306.1	13.5	-67.4	0.0
2026-01-29 10:14:37.281724	305.9	13.5	-67.2	0.0
2026-01-29 10:14:38.405928	305.7	13.5	-61.7	0.0
2026-01-29 10:14:39.527894	305.5	13.4	-66.8	0.0
2026-01-29 10:14:40.650502	305.2	13.4	-67.9	0.0
2026-01-29 10:14:41.772988	305.0	13.4	-66.1	0.0
2026-01-29 10:14:42.894445	304.8	13.4	-67.5	0.0
2026-01-29 10:14:44.015978	304.6	13.3	-66.3	0.0
2026-01-29 10:14:45.137008	304.3	13.3	-67.0	0.0
2026-01-29 10:14:46.261575	304.1	13.3	-67.5	0.0
2026-01-29 10:14:47.385743	303.9	13.3	-66.4	0.0
2026-01-29 10:14:48.508116	303.7	13.2	-67.5	0.0
2026-01-29 10:14:49.630581	303.5	13.2	-68.2	0.0
2026-01-29 10:14:50.753986	303.3	13.2	-67.9	0.0
2026-01-29 10:14:51.875726	303.0	13.1	-66.5	0.0
2026-01-29 10:14:52.998909	302.8	13.1	-61.7	0.0
2026-01-29 10:14:54.122606	302.6	13.1	-67.4	0.0
2026-01-29 10:14:55.243921	302.4	13.1	-64.6	0.0
2026-01-29 10:14:56.367089	302.2	13.0	-68.7	0.0
2026-01-29 10:14:57.491850	302.0	13.0	-68.6	0.0
2026-01-29 10:14:58.615627	301.7	13.0	-67.2	0.0
2026-01-29 10:14:59.738401	301.5	12.9	-65.5	0.0
2026-01-29 10:15:00.858474	301.3	12.9	-67.4	0.0
2026-01-29 10:15:01.980603	301.1	12.9	-66.6	0.0
2026-01-29 10:15:03.102808	300.9	12.8	-66.2	0.0
2026-01-29 10:15:04.225758	300.7	12.8	-65.7	0.0
2026-01-29 10:15:05.346964	300.5	12.8	-63.6	0.0
2026-01-29 10:15:06.468493	300.2	12.7	-64.0	0.0
2026-01-29 10:15:07.592204	300.0	12.7	-66.5	0.0
2026-01-29 10:15:08.714121	299.8	12.7	-60.9	0.0
2026-01-29 10:15:09.836730	299.6	12.6	-66.6	0.0
2026-01-29 10:15:10.958578	299.4	12.6	-69.6	0.0
2026-01-29 10:15:12.082656	299.2	12.6	-67.0	0.0
2026-01-29 10:15:13.204371	299.0	12.5	-67.9	0.0
2026-01-29 10:15:14.325334	298.8	12.5	-68.1	0.0
2026-01-29 10:15:15.448749	298.6	12.5	-65.4	0.0
2026-01-29 10:15:16.570505	298.4	12.4	-67.0	0.0
2026-01-29 10:15:17.694288	298.2	12.4	-63.6	0.0
2026-01-29 10:15:18.818249	297.9	12.4	-65.6	0.0
2026-01-29 10:15:19.940605	297.7	12.3	-68.4	0.0
2026-01-29 10:15:21.064705	297.5	12.3	-68.1	0.0
2026-01-29 10:15:22.186269	297.3	12.2	-67.1	0.0
2026-01-29 10:15:23.310542	297.1	12.2	-70.1	0.0
2026-01-29 10:15:24.432779	296.9	12.2	-67.4	0.0
2026-01-29 10:15:25.554848	296.7	12.1	-69.7	0.0
2026-01-29 10:15:26.678232	296.5	12.1	-68.1	0.0
2026-01-29 10:15:27.801186	296.3	12.0	-67.2	0.0
2026-01-29 10:15:28.924106	296.1	12.0	-68.5	0.0
2026-01-29 10:15:30.048072	295.9	12.0	-61.3	0.0
2026-01-29 10:15:31.169500	295.7	11.9	-68.3	0.0
2026-01-29 10:15:32.291637	295.5	11.9	-69.6	0.0
2026-01-29 10:15:33.415688	295.3	11.8	-68.4	0.0
2026-01-29 10:15:34.537464	295.1	11.8	-67.9	0.0
2026-01-29 10:15:35.658147	294.9	11.8	-67.8	0.0
2026-01-29 10:15:36.779469	294.7	11.7	-69.2	0.0
2026-01-29 10:15:37.901962	294.5	11.7	-68.0	0.0
2026-01-29 10:15:39.025449	294.3	11.6	-66.5	0.0
2026-01-29 10:15:40.146792	294.1	11.6	-67.1	0.0
2026-01-29 10:15:41.269636	293.9	11.6	-68.4	0.0
2026-01-29 10:15:42.392281	293.7	11.5	-67.0	0.0
2026-01-29 10:15:43.513858	293.5	11.5	-68.1	0.0
2026-01-29 10:15:44.638581	293.4	11.4	-69.6	0.0
2026-01-29 10:15:45.760608	293.2	11.4	-68.7	0.0
2026-01-29 10:15:46.883149	293.0	11.3	-70.5	0.0
2026-01-29 10:15:48.006766	292.8	11.3	-69.1	0.0
2026-01-29 10:15:49.129530	292.6	11.3	-68.8	0.0
2026-01-29 10:15:50.253175	292.4	11.2	-69.5	0.0
2026-01-29 10:15:51.376313	292.2	11.2	-67.7	0.0
2026-01-29 10:15:52.498799	292.0	11.1	-68.7	0.0
2026-01-29 10:15:53.621296	291.8	11.1	-67.0	0.0
2026-01-29 10:15:54.744543	291.6	11.0	-69.6	0.0
2026-01-29 10:15:55.870486	291.4	11.0	-69.7	0.0
2026-01-29 10:15:56.996136	291.3	10.9	-68.7	0.0
2026-01-29 10:15:58.118332	291.1	10.9	-71.4	0.0
2026-01-29 10:15:59.240869	290.9	10.8	-70.8	0.0
2026-01-29 10:16:00.363703	290.7	10.8	-73.7	0.0
2026-01-29 10:16:01.485361	290.5	10.8	-73.5	0.0
2026-01-29 10:16:02.608325	290.3	10.7	-75.7	0.0
2026-01-29 10:16:03.732630	290.1	10.7	-75.9	0.0
2026-01-29 10:16:04.856145	290.0	10.6	-77.2	0.0
2026-01-29 10:16:05.978793	289.8	10.6	-75.8	0.0
2026-01-29 10:16:07.100681	289.6	10.5	-75.8	0.0
2026-01-29 10:16:08.224920	289.4	10.5	-77.1	0.0
2026-01-29 10:16:09.348757	289.2	10.4	-78.8	0.0
2026-01-29 10:16:10.468785	289.1	10.4	-77.7	0.0
2026-01-29 10:16:11.593469	288.9	10.3	-78.6	0.0
2026-01-29 10:16:12.713899	288.7	10.3	-78.9	0.0
2026-01-29 10:16:13.836445	288.5	10.2	-78.5	0.0
2026-01-29 10:16:14.959710	288.3	10.2	-78.8	0.0
2026-01-29 10:16:16.079648	288.2	10.1	-78.8	0.0
2026-01-29 10:16:17.204594	288.0	10.1	-78.4	0.0
2026-01-29 10:16:18.326413	287.8	10.0	-77.6	0.0
#Closed at: 2026-01-29 10:10:50.071496