passes_logs/2026/01/29/planumMaritime01/planumMaritime01__20260129_075144_METOP-B_rec.log

#Pass ID: 20260129_075144_METOP-B
#Satellite: METOP-B
#Configuration: METOP-B
#Start time: 2026-01-29 07:51:49.668144

#LorettStation: 1.0.0 05.05.2024
#Station: planumMaritime01
#Location: 37.49445 lon 55.92918 lat
#TLE: 1 38771U 12049A   26027.89976253  .00000165  00000+0  95570-4 0  9999
#TLE: 2 38771  98.6728  82.0610 0002891  50.2602 309.8830 14.21429510693334

#Time	Az	El	Level	SNR
2026-01-29 07:51:51.829009	10.2	10.2	-62.7	0.0
2026-01-29 07:51:54.075297	10.2	10.4	-65.3	0.0
2026-01-29 07:51:56.321354	10.1	10.6	-63.8	0.0
2026-01-29 07:51:58.570096	10.0	10.8	-62.9	0.0
2026-01-29 07:52:00.819963	9.9	11.0	-63.6	0.0
2026-01-29 07:52:03.071354	9.8	11.2	-62.0	0.0
2026-01-29 07:52:05.319490	9.7	11.4	-61.2	0.0
2026-01-29 07:52:07.568986	9.6	11.6	-61.7	0.0
2026-01-29 07:52:09.817146	9.5	11.8	-62.2	0.0
2026-01-29 07:52:12.065754	9.4	12.0	-61.1	0.0
2026-01-29 07:52:14.312915	9.2	12.2	-61.8	0.0
2026-01-29 07:52:16.562039	9.1	12.4	-56.1	0.0
2026-01-29 07:52:18.811877	9.0	12.6	-62.9	0.0
2026-01-29 07:52:21.059912	8.9	12.8	-62.5	0.0
2026-01-29 07:52:23.310332	8.8	13.0	-60.9	0.0
2026-01-29 07:52:25.558202	8.7	13.2	-63.6	0.0
2026-01-29 07:52:27.805208	8.6	13.4	-62.1	0.0
2026-01-29 07:52:30.055499	8.4	13.7	-60.0	0.0
2026-01-29 07:52:32.306137	8.3	13.9	-63.2	0.0
2026-01-29 07:52:34.553990	8.2	14.1	-62.3	0.0
2026-01-29 07:52:36.804125	8.1	14.3	-61.2	0.0
2026-01-29 07:52:39.047728	7.9	14.6	-60.7	0.0
2026-01-29 07:52:41.293681	7.8	14.8	-61.5	0.0
2026-01-29 07:52:43.537238	7.7	15.0	-62.4	0.0
2026-01-29 07:52:45.783085	7.6	15.2	-63.5	0.0
2026-01-29 07:52:48.027897	7.4	15.5	-63.3	0.0
2026-01-29 07:52:50.274119	7.3	15.7	-63.1	0.0
2026-01-29 07:52:52.519618	7.1	15.9	-63.8	0.0
2026-01-29 07:52:54.767370	7.0	16.2	-66.3	0.0
2026-01-29 07:52:57.013963	6.9	16.4	-63.5	0.0
2026-01-29 07:52:59.258375	6.7	16.7	-65.3	0.0
2026-01-29 07:53:01.504114	6.6	16.9	-63.9	0.0
2026-01-29 07:53:03.745587	6.4	17.2	-64.7	0.0
2026-01-29 07:53:05.988182	6.2	17.4	-65.6	0.0
2026-01-29 07:53:08.232271	6.1	17.7	-65.4	0.0
2026-01-29 07:53:10.476672	5.9	17.9	-66.0	0.0
2026-01-29 07:53:12.722479	5.8	18.2	-63.6	0.0
2026-01-29 07:53:14.968408	5.6	18.4	-64.4	0.0
2026-01-29 07:53:17.214038	5.4	18.7	-64.1	0.0
2026-01-29 07:53:19.459916	5.3	19.0	-62.3	0.0
2026-01-29 07:53:21.703384	5.1	19.2	-64.4	0.0
2026-01-29 07:53:23.946008	4.9	19.5	-63.7	0.0
2026-01-29 07:53:26.193808	4.7	19.8	-65.3	0.0
2026-01-29 07:53:28.438869	4.5	20.1	-62.5	0.0
2026-01-29 07:53:30.686408	4.3	20.3	-66.1	0.0
2026-01-29 07:53:32.934085	4.1	20.6	-64.7	0.0
2026-01-29 07:53:35.178835	3.9	20.9	-64.1	0.0
2026-01-29 07:53:37.426105	3.7	21.2	-65.7	0.0
2026-01-29 07:53:39.673568	3.5	21.5	-64.1	0.0
2026-01-29 07:53:41.921037	3.3	21.8	-66.8	0.0
2026-01-29 07:53:44.167507	3.1	22.1	-66.6	0.0
2026-01-29 07:53:46.414799	2.9	22.4	-65.0	0.0
2026-01-29 07:53:48.662240	2.7	22.7	-65.1	0.0
2026-01-29 07:53:50.907922	2.4	23.0	-66.3	0.0
2026-01-29 07:53:53.156849	2.2	23.3	-65.2	0.0
2026-01-29 07:53:55.401849	2.0	23.6	-65.3	0.0
2026-01-29 07:53:57.647979	1.7	23.9	-65.5	0.0
2026-01-29 07:53:59.891510	1.5	24.3	-63.8	0.0
2026-01-29 07:54:02.140351	1.2	24.6	-64.5	0.0
2026-01-29 07:54:04.385428	1.0	24.9	-64.5	0.0
2026-01-29 07:54:06.628007	0.7	25.2	-64.6	0.0
2026-01-29 07:54:08.874319	0.4	25.6	-65.7	0.0
2026-01-29 07:54:11.118689	0.2	25.9	-64.9	0.0
2026-01-29 07:54:13.362832	359.9	26.2	-64.8	0.0
2026-01-29 07:54:15.608919	359.6	26.6	-65.6	0.0
2026-01-29 07:54:17.851442	359.3	26.9	-61.7	0.0
2026-01-29 07:54:20.097106	359.0	27.3	-64.6	0.0
2026-01-29 07:54:22.339212	358.7	27.6	-64.6	0.0
2026-01-29 07:54:24.585429	358.4	28.0	-63.3	0.0
2026-01-29 07:54:26.826171	358.1	28.4	-66.4	0.0
2026-01-29 07:54:29.072454	357.7	28.7	-64.0	0.0
2026-01-29 07:54:31.316132	357.4	29.1	-65.1	0.0
2026-01-29 07:54:33.559964	357.1	29.5	-65.6	0.0
2026-01-29 07:54:35.801416	356.7	29.8	-65.5	0.0
2026-01-29 07:54:38.048297	356.3	30.2	-64.6	0.0
2026-01-29 07:54:40.293718	356.0	30.6	-64.1	0.0
2026-01-29 07:54:42.540925	355.6	31.0	-64.5	0.0
2026-01-29 07:54:44.782918	355.2	31.4	-64.3	0.0
2026-01-29 07:54:47.027366	354.8	31.8	-65.2	0.0
2026-01-29 07:54:49.270176	354.4	32.2	-64.2	0.0
2026-01-29 07:54:51.513257	354.0	32.6	-64.3	0.0
2026-01-29 07:54:53.758769	353.5	33.0	-62.8	0.0
2026-01-29 07:54:56.003096	353.1	33.4	-64.4	0.0
2026-01-29 07:54:58.246904	352.6	33.8	-67.0	0.0
2026-01-29 07:55:00.494004	352.2	34.2	-64.7	0.0
2026-01-29 07:55:02.739993	351.7	34.7	-66.9	0.0
2026-01-29 07:55:04.983994	351.2	35.1	-67.5	0.0
2026-01-29 07:55:07.228866	350.7	35.5	-68.2	0.0
2026-01-29 07:55:09.475657	350.2	36.0	-68.4	0.0
2026-01-29 07:55:11.719835	349.7	36.4	-65.4	0.0
2026-01-29 07:55:13.966242	349.1	36.8	-67.0	0.0
2026-01-29 07:55:16.211617	348.6	37.3	-67.1	0.0
2026-01-29 07:55:18.460388	348.0	37.7	-68.4	0.0
2026-01-29 07:55:20.705991	347.4	38.2	-68.0	0.0
2026-01-29 07:55:22.949440	346.8	38.6	-69.9	0.1
2026-01-29 07:55:25.193910	346.1	39.1	-68.9	0.0
2026-01-29 07:55:27.442960	345.5	39.5	-68.9	3.1
2026-01-29 07:55:29.686073	344.8	40.0	-68.1	0.0
2026-01-29 07:55:31.931151	344.2	40.4	-70.1	5.8
2026-01-29 07:55:34.179626	343.4	40.9	-68.4	3.9
2026-01-29 07:55:36.421912	342.7	41.3	-66.5	2.3
2026-01-29 07:55:38.668067	342.0	41.8	-69.3	4.0
2026-01-29 07:55:40.912012	341.2	42.2	-69.2	3.9
2026-01-29 07:55:43.155667	340.4	42.7	-69.4	5.2
2026-01-29 07:55:45.399888	339.6	43.2	-69.5	4.0
2026-01-29 07:55:47.645903	338.8	43.6	-70.7	6.6
2026-01-29 07:55:49.889587	337.9	44.1	-70.6	4.5
2026-01-29 07:55:52.134341	337.0	44.5	-70.7	6.9
2026-01-29 07:55:54.380335	336.1	45.0	-71.2	6.5
2026-01-29 07:55:56.623568	335.2	45.4	-72.3	8.3
2026-01-29 07:55:58.868906	334.2	45.9	-71.0	6.3
2026-01-29 07:56:01.116012	333.3	46.3	-72.0	8.0
2026-01-29 07:56:03.361500	332.2	46.7	-71.4	6.7
2026-01-29 07:56:05.606160	331.2	47.1	-71.9	6.3
2026-01-29 07:56:07.850034	330.1	47.6	-72.3	7.2
2026-01-29 07:56:10.093043	329.0	48.0	-71.6	6.0
2026-01-29 07:56:12.337993	327.9	48.4	-71.5	6.7
2026-01-29 07:56:14.583734	326.7	48.8	-71.7	8.6
2026-01-29 07:56:16.828802	325.5	49.2	-70.8	7.5
2026-01-29 07:56:19.073484	324.3	49.5	-71.1	7.0
2026-01-29 07:56:21.318719	323.0	49.9	-71.7	8.7
2026-01-29 07:56:23.568491	321.8	50.3	-71.7	7.0
2026-01-29 07:56:25.818279	320.4	50.6	-71.1	6.2
2026-01-29 07:56:28.061238	319.1	50.9	-71.1	7.9
2026-01-29 07:56:30.306032	317.7	51.2	-71.5	8.7
2026-01-29 07:56:32.553179	316.3	51.5	-71.2	9.0
2026-01-29 07:56:34.798006	314.9	51.8	-71.1	5.9
2026-01-29 07:56:37.044083	313.4	52.1	-72.0	8.3
2026-01-29 07:56:39.287451	311.9	52.3	-71.2	6.6
2026-01-29 07:56:41.528754	310.4	52.5	-70.9	4.7
2026-01-29 07:56:43.773309	308.9	52.7	-71.6	5.8
2026-01-29 07:56:46.018398	307.4	52.9	-72.1	7.8
2026-01-29 07:56:48.264599	305.8	53.1	-71.6	6.3
2026-01-29 07:56:50.509896	304.2	53.2	-70.8	4.2
2026-01-29 07:56:52.756293	302.6	53.4	-71.8	7.8
2026-01-29 07:56:54.999588	301.0	53.5	-70.5	6.7
2026-01-29 07:56:57.243633	299.4	53.5	-70.9	7.7
2026-01-29 07:56:59.488757	297.8	53.6	-70.7	5.1
2026-01-29 07:57:01.737566	296.1	53.6	-70.8	4.4
2026-01-29 07:57:03.983104	294.5	53.6	-71.3	7.1
2026-01-29 07:57:06.229713	292.9	53.6	-70.3	3.6
2026-01-29 07:57:08.475406	291.2	53.5	-71.0	5.2
2026-01-29 07:57:10.723445	289.6	53.5	-70.0	1.6
2026-01-29 07:57:12.965198	288.0	53.4	-70.8	6.5
2026-01-29 07:57:15.210966	286.4	53.3	-71.2	7.3
2026-01-29 07:57:17.456363	284.8	53.1	-71.4	6.3
2026-01-29 07:57:19.698910	283.3	53.0	-73.0	9.0
2026-01-29 07:57:21.944757	281.7	52.8	-72.8	9.4
2026-01-29 07:57:24.189801	280.2	52.6	-73.0	8.9
2026-01-29 07:57:26.438195	278.7	52.4	-72.5	9.4
2026-01-29 07:57:28.684997	277.2	52.1	-72.6	9.8
2026-01-29 07:57:30.928203	275.7	51.9	-71.8	9.0
2026-01-29 07:57:33.172141	274.3	51.6	-71.6	7.7
2026-01-29 07:57:35.417024	272.9	51.3	-72.6	7.7
2026-01-29 07:57:37.659199	271.5	51.0	-72.5	6.9
2026-01-29 07:57:39.907100	270.1	50.7	-72.3	8.6
2026-01-29 07:57:42.148122	268.8	50.3	-73.0	11.1
2026-01-29 07:57:44.391391	267.5	50.0	-72.9	10.2
2026-01-29 07:57:46.638336	266.2	49.6	-72.4	8.9
2026-01-29 07:57:48.883916	265.0	49.3	-73.0	9.6
2026-01-29 07:57:51.130094	263.8	48.9	-72.8	8.3
2026-01-29 07:57:53.372631	262.6	48.5	-73.1	8.9
2026-01-29 07:57:55.616662	261.5	48.1	-73.4	9.6
2026-01-29 07:57:57.863714	260.4	47.7	-73.2	8.4
2026-01-29 07:58:00.107075	259.3	47.2	-72.9	8.7
2026-01-29 07:58:02.350890	258.2	46.8	-73.8	9.3
2026-01-29 07:58:04.597962	257.2	46.4	-73.3	7.5
2026-01-29 07:58:06.842977	256.2	45.9	-72.9	8.2
2026-01-29 07:58:09.088152	255.2	45.5	-73.1	9.7
2026-01-29 07:58:11.331670	254.3	45.1	-73.1	9.3
2026-01-29 07:58:13.577602	253.4	44.6	-72.6	8.7
2026-01-29 07:58:15.823969	252.5	44.2	-72.9	9.5
2026-01-29 07:58:18.070397	251.6	43.7	-73.0	8.2
2026-01-29 07:58:20.312653	250.8	43.2	-73.1	8.7
2026-01-29 07:58:22.562362	249.9	42.8	-72.6	8.1
2026-01-29 07:58:24.808381	249.2	42.3	-72.9	9.4
2026-01-29 07:58:27.053171	248.4	41.9	-73.1	8.9
2026-01-29 07:58:29.300012	247.6	41.4	-73.1	8.9
2026-01-29 07:58:31.547103	246.9	40.9	-73.1	9.3
2026-01-29 07:58:33.793059	246.2	40.5	-73.0	9.6
2026-01-29 07:58:36.035996	245.5	40.0	-73.1	9.7
2026-01-29 07:58:38.280358	244.8	39.6	-73.3	9.5
2026-01-29 07:58:40.525958	244.2	39.1	-73.2	9.3
2026-01-29 07:58:42.769806	243.5	38.7	-73.2	8.5
2026-01-29 07:58:45.017327	242.9	38.2	-73.1	9.5
2026-01-29 07:58:47.262596	242.3	37.8	-72.9	9.3
2026-01-29 07:58:49.509082	241.7	37.3	-73.3	9.8
2026-01-29 07:58:51.751950	241.2	36.9	-73.0	9.7
2026-01-29 07:58:53.995222	240.6	36.4	-73.2	9.6
2026-01-29 07:58:56.237974	240.1	36.0	-73.8	9.4
2026-01-29 07:58:58.482974	239.6	35.6	-73.6	9.7
2026-01-29 07:59:00.729412	239.1	35.1	-73.6	8.8
2026-01-29 07:59:02.970949	238.6	34.7	-72.8	8.3
2026-01-29 07:59:05.220287	238.1	34.3	-73.3	10.1
2026-01-29 07:59:07.464649	237.6	33.9	-73.3	9.4
2026-01-29 07:59:09.710883	237.2	33.5	-73.5	9.1
2026-01-29 07:59:11.956919	236.7	33.0	-73.5	9.1
2026-01-29 07:59:14.203744	236.3	32.6	-73.9	9.2
2026-01-29 07:59:16.450889	235.8	32.2	-73.4	9.2
2026-01-29 07:59:18.696932	235.4	31.8	-74.0	9.7
2026-01-29 07:59:20.943909	235.0	31.4	-73.5	8.7
2026-01-29 07:59:23.187489	234.6	31.0	-74.0	9.6
2026-01-29 07:59:25.430091	234.3	30.6	-73.4	7.7
2026-01-29 07:59:27.677178	233.9	30.3	-73.9	9.8
2026-01-29 07:59:29.920101	233.5	29.9	-73.9	9.6
2026-01-29 07:59:32.163143	233.2	29.5	-74.1	10.0
2026-01-29 07:59:34.410083	232.8	29.1	-74.0	9.6
2026-01-29 07:59:36.656690	232.5	28.7	-74.0	8.0
2026-01-29 07:59:38.906098	232.1	28.4	-74.7	8.8
2026-01-29 07:59:41.150543	231.8	28.0	-74.3	8.4
2026-01-29 07:59:43.394970	231.5	27.6	-74.4	7.8
2026-01-29 07:59:45.642796	231.2	27.3	-74.4	8.1
2026-01-29 07:59:47.888549	230.9	26.9	-74.2	7.1
2026-01-29 07:59:50.136372	230.6	26.6	-74.6	8.7
2026-01-29 07:59:52.381989	230.3	26.2	-74.8	7.8
2026-01-29 07:59:54.624836	230.0	25.9	-74.4	7.7
2026-01-29 07:59:56.868996	229.7	25.6	-74.0	8.0
2026-01-29 07:59:59.115939	229.5	25.2	-73.8	7.6
2026-01-29 08:00:01.359986	229.2	24.9	-73.9	6.2
2026-01-29 08:00:03.605809	228.9	24.6	-73.4	6.0
2026-01-29 08:00:05.848555	228.7	24.2	-73.6	5.7
2026-01-29 08:00:08.094846	228.4	23.9	-74.0	6.7
2026-01-29 08:00:10.340999	228.2	23.6	-73.4	5.5
2026-01-29 08:00:12.586642	227.9	23.3	-73.1	3.3
2026-01-29 08:00:14.834650	227.7	23.0	-73.1	4.0
2026-01-29 08:00:17.078764	227.5	22.7	-73.1	4.8
2026-01-29 08:00:19.323195	227.3	22.4	-72.8	4.8
2026-01-29 08:00:21.565962	227.0	22.1	-72.7	2.9
2026-01-29 08:00:23.809703	226.8	21.8	-72.9	2.5
2026-01-29 08:00:26.056043	226.6	21.5	-72.9	4.6
2026-01-29 08:00:28.298425	226.4	21.2	-72.5	4.1
2026-01-29 08:00:30.543705	226.2	20.9	-72.6	4.5
2026-01-29 08:00:32.788749	226.0	20.6	-72.3	2.9
2026-01-29 08:00:35.033691	225.8	20.3	-72.3	1.5
2026-01-29 08:00:37.277517	225.6	20.0	-72.4	1.8
2026-01-29 08:00:39.522971	225.4	19.8	-72.3	0.8
2026-01-29 08:00:41.767987	225.2	19.5	-72.5	0.0
2026-01-29 08:00:44.018217	225.0	19.2	-71.9	0.1
2026-01-29 08:00:46.265905	224.9	18.9	-71.9	0.9
2026-01-29 08:00:48.508732	224.7	18.7	-71.6	0.0
2026-01-29 08:00:50.753150	224.5	18.4	-71.6	0.0
2026-01-29 08:00:53.000915	224.3	18.1	-72.3	0.0
2026-01-29 08:00:55.245091	224.2	17.9	-71.7	0.0
2026-01-29 08:00:57.488496	224.0	17.6	-71.7	0.0
2026-01-29 08:00:59.731771	223.9	17.4	-72.2	0.0
2026-01-29 08:01:01.976834	223.7	17.1	-71.9	0.0
2026-01-29 08:01:04.223582	223.5	16.9	-71.8	0.0
2026-01-29 08:01:06.468581	223.4	16.6	-71.5	0.0
2026-01-29 08:01:08.714991	223.2	16.4	-71.6	0.0
2026-01-29 08:01:10.961552	223.1	16.1	-71.6	0.0
2026-01-29 08:01:13.207574	222.9	15.9	-71.7	0.0
2026-01-29 08:01:15.451831	222.8	15.7	-71.9	0.0
2026-01-29 08:01:17.697303	222.7	15.4	-71.5	0.0
2026-01-29 08:01:19.942821	222.5	15.2	-71.0	0.0
2026-01-29 08:01:22.188567	222.4	14.9	-71.5	0.0
2026-01-29 08:01:24.435180	222.3	14.7	-70.9	0.0
2026-01-29 08:01:26.679569	222.1	14.5	-70.6	0.0
2026-01-29 08:01:28.923140	222.0	14.3	-70.7	0.0
2026-01-29 08:01:31.167974	221.9	14.0	-71.1	0.0
2026-01-29 08:01:33.409816	221.7	13.8	-70.7	0.0
2026-01-29 08:01:35.650865	221.6	13.6	-70.7	0.0
2026-01-29 08:01:37.894844	221.5	13.4	-70.3	0.0
2026-01-29 08:01:40.142389	221.4	13.2	-70.7	0.0
2026-01-29 08:01:42.387515	221.3	12.9	-70.5	0.0
2026-01-29 08:01:44.630984	221.1	12.7	-68.7	0.0
2026-01-29 08:01:46.876531	221.0	12.5	-69.5	0.0
2026-01-29 08:01:49.120590	220.9	12.3	-70.6	0.0
2026-01-29 08:01:51.368874	220.8	12.1	-70.3	0.0
2026-01-29 08:01:53.614200	220.7	11.9	-70.1	0.0
2026-01-29 08:01:55.854891	220.6	11.7	-69.6	0.0
2026-01-29 08:01:58.104089	220.5	11.5	-70.1	0.0
2026-01-29 08:02:00.347428	220.4	11.3	-70.6	0.0
2026-01-29 08:02:02.592691	220.3	11.1	-69.4	0.0
2026-01-29 08:02:04.837485	220.2	10.9	-73.5	0.0
2026-01-29 08:02:07.083732	220.1	10.7	-78.2	0.0
2026-01-29 08:02:09.327149	220.0	10.5	-78.3	0.0
2026-01-29 08:02:11.569502	219.9	10.3	-78.8	0.0
2026-01-29 08:02:13.815405	219.8	10.1	-78.6	0.0
#Closed at: 2026-01-29 07:51:44.674289