passes_logs/2026/01/29/planumMaritime01/planumMaritime01__20260129_181906_METOP-C_rec.log

#Pass ID: 20260129_181906_METOP-C
#Satellite: METOP-C
#Configuration: METOP-C
#Start time: 2026-01-29 18:19:11.857732

#LorettStation: 1.0.0 05.05.2024
#Station: planumMaritime01
#Location: 37.49445 lon 55.92918 lat
#TLE: 1 43689U 18087A   26027.92599966  .00000174  00000+0  99447-4 0  9994
#TLE: 2 43689  98.6855  89.9715 0001194 159.8041 200.3184 14.21505574374900

#Time	Az	El	Level	SNR
2026-01-29 18:19:14.029359	170.4	10.2	-71.8	0.0
2026-01-29 18:19:16.278016	170.5	10.4	-71.6	0.0
2026-01-29 18:19:18.528951	170.5	10.6	-72.0	0.0
2026-01-29 18:19:20.776493	170.6	10.8	-73.0	3.8
2026-01-29 18:19:23.024335	170.6	11.0	-73.5	3.1
2026-01-29 18:19:25.276233	170.7	11.2	-73.2	5.4
2026-01-29 18:19:27.525718	170.8	11.4	-73.0	5.0
2026-01-29 18:19:29.773505	170.8	11.6	-73.3	5.1
2026-01-29 18:19:32.022573	170.9	11.8	-73.1	5.3
2026-01-29 18:19:34.271114	170.9	12.0	-73.3	5.0
2026-01-29 18:19:36.518889	171.0	12.2	-73.1	6.3
2026-01-29 18:19:38.767049	171.0	12.5	-73.0	7.0
2026-01-29 18:19:41.020587	171.1	12.7	-73.2	4.7
2026-01-29 18:19:43.268743	171.2	12.9	-73.0	4.4
2026-01-29 18:19:45.523562	171.2	13.1	-73.0	3.2
2026-01-29 18:19:47.774466	171.3	13.3	-72.6	4.9
2026-01-29 18:19:50.023685	171.4	13.6	-72.2	4.4
2026-01-29 18:19:52.268752	171.4	13.8	-72.9	5.0
2026-01-29 18:19:54.516875	171.5	14.0	-72.5	5.0
2026-01-29 18:19:56.764621	171.6	14.3	-71.7	4.6
2026-01-29 18:19:59.007544	171.6	14.5	-71.1	1.7
2026-01-29 18:20:01.248976	171.7	14.7	-72.7	3.2
2026-01-29 18:20:03.496930	171.8	15.0	-72.8	3.7
2026-01-29 18:20:05.740598	171.8	15.2	-72.2	3.6
2026-01-29 18:20:07.984912	171.9	15.4	-72.9	3.3
2026-01-29 18:20:10.232762	172.0	15.7	-72.5	3.3
2026-01-29 18:20:12.478404	172.0	15.9	-72.2	4.4
2026-01-29 18:20:14.723606	172.1	16.2	-71.1	2.2
2026-01-29 18:20:16.969872	172.2	16.4	-72.5	2.7
2026-01-29 18:20:19.213709	172.3	16.7	-71.7	0.6
2026-01-29 18:20:21.458314	172.3	16.9	-72.4	2.1
2026-01-29 18:20:23.705750	172.4	17.2	-71.6	0.0
2026-01-29 18:20:25.947504	172.5	17.5	-71.2	2.2
2026-01-29 18:20:28.190937	172.6	17.7	-71.7	2.1
2026-01-29 18:20:30.433185	172.7	18.0	-72.1	5.9
2026-01-29 18:20:32.679445	172.8	18.3	-71.2	1.0
2026-01-29 18:20:34.924903	172.8	18.6	-71.6	0.5
2026-01-29 18:20:37.169161	172.9	18.8	-71.8	3.0
2026-01-29 18:20:39.415838	173.0	19.1	-71.1	2.9
2026-01-29 18:20:41.662525	173.1	19.4	-71.2	6.5
2026-01-29 18:20:43.907067	173.2	19.7	-70.2	0.1
2026-01-29 18:20:46.151573	173.3	20.0	-71.0	2.1
2026-01-29 18:20:48.394504	173.4	20.3	-70.4	0.2
2026-01-29 18:20:50.636562	173.5	20.6	-70.8	1.8
2026-01-29 18:20:52.881185	173.6	20.9	-70.2	1.9
2026-01-29 18:20:55.126162	173.7	21.2	-70.3	0.0
2026-01-29 18:20:57.374754	173.8	21.5	-70.6	1.8
2026-01-29 18:20:59.620287	173.9	21.8	-70.2	1.0
2026-01-29 18:21:01.863877	174.0	22.1	-70.7	2.1
2026-01-29 18:21:04.114295	174.1	22.4	-70.3	1.5
2026-01-29 18:21:06.358928	174.2	22.7	-71.2	5.0
2026-01-29 18:21:08.607809	174.3	23.1	-70.7	3.2
2026-01-29 18:21:10.851528	174.4	23.4	-70.2	3.1
2026-01-29 18:21:13.094988	174.6	23.7	-70.2	2.8
2026-01-29 18:21:15.338926	174.7	24.1	-70.9	5.4
2026-01-29 18:21:17.587929	174.8	24.4	-70.5	3.6
2026-01-29 18:21:19.837883	174.9	24.8	-70.6	3.9
2026-01-29 18:21:22.080785	175.1	25.1	-70.8	3.7
2026-01-29 18:21:24.324489	175.2	25.5	-70.7	4.2
2026-01-29 18:21:26.570116	175.3	25.9	-70.7	4.1
2026-01-29 18:21:28.815475	175.5	26.2	-70.0	2.8
2026-01-29 18:21:31.063183	175.6	26.6	-70.5	5.7
2026-01-29 18:21:33.306965	175.7	27.0	-71.2	2.2
2026-01-29 18:21:35.557636	175.9	27.4	-70.2	3.5
2026-01-29 18:21:37.802166	176.0	27.7	-70.3	1.6
2026-01-29 18:21:40.046762	176.2	28.1	-71.3	5.1
2026-01-29 18:21:42.290943	176.3	28.5	-70.9	2.7
2026-01-29 18:21:44.537172	176.5	28.9	-70.5	2.7
2026-01-29 18:21:46.785506	176.7	29.4	-70.7	3.9
2026-01-29 18:21:49.033695	176.8	29.8	-70.3	3.3
2026-01-29 18:21:51.280679	177.0	30.2	-70.9	3.4
2026-01-29 18:21:53.525864	177.2	30.6	-70.9	5.9
2026-01-29 18:21:55.775347	177.4	31.1	-71.7	10.1
2026-01-29 18:21:58.021049	177.5	31.5	-70.3	4.9
2026-01-29 18:22:00.268495	177.7	32.0	-70.4	5.8
2026-01-29 18:22:02.515796	177.9	32.4	-70.8	7.8
2026-01-29 18:22:04.760134	178.1	32.9	-70.8	6.7
2026-01-29 18:22:07.003497	178.3	33.3	-71.5	8.4
2026-01-29 18:22:09.247578	178.5	33.8	-71.8	8.9
2026-01-29 18:22:11.493867	178.8	34.3	-71.1	7.6
2026-01-29 18:22:13.738499	179.0	34.8	-71.3	8.0
2026-01-29 18:22:15.982860	179.2	35.3	-71.4	8.8
2026-01-29 18:22:18.228768	179.5	35.8	-71.9	8.8
2026-01-29 18:22:20.474330	179.7	36.3	-72.2	7.7
2026-01-29 18:22:22.718871	180.0	36.8	-72.4	9.0
2026-01-29 18:22:24.964762	180.2	37.3	-72.5	10.1
2026-01-29 18:22:27.210618	180.5	37.9	-72.7	11.6
2026-01-29 18:22:29.452656	180.8	38.4	-72.7	11.3
2026-01-29 18:22:31.699117	181.0	39.0	-72.8	12.6
2026-01-29 18:22:33.944704	181.3	39.5	-72.6	12.7
2026-01-29 18:22:36.190989	181.7	40.1	-72.8	12.5
2026-01-29 18:22:38.434995	182.0	40.7	-72.8	14.0
2026-01-29 18:22:40.679096	182.3	41.2	-73.0	13.6
2026-01-29 18:22:42.927463	182.6	41.8	-73.2	13.6
2026-01-29 18:22:45.174568	183.0	42.4	-73.6	13.8
2026-01-29 18:22:47.419637	183.4	43.0	-73.4	14.1
2026-01-29 18:22:49.665929	183.7	43.7	-73.3	13.7
2026-01-29 18:22:51.911031	184.1	44.3	-73.6	14.5
2026-01-29 18:22:54.153619	184.5	44.9	-73.4	13.2
2026-01-29 18:22:56.401360	185.0	45.6	-73.5	13.9
2026-01-29 18:22:58.646908	185.4	46.2	-73.6	14.3
2026-01-29 18:23:00.892734	185.9	46.9	-73.1	13.9
2026-01-29 18:23:03.135124	186.4	47.6	-72.5	13.2
2026-01-29 18:23:05.382850	186.9	48.2	-72.5	13.4
2026-01-29 18:23:07.624832	187.4	48.9	-72.3	13.9
2026-01-29 18:23:09.868246	187.9	49.6	-72.2	13.0
2026-01-29 18:23:12.116447	188.5	50.3	-72.4	13.1
2026-01-29 18:23:14.360386	189.1	51.0	-72.5	12.4
2026-01-29 18:23:16.605103	189.8	51.7	-72.7	12.2
2026-01-29 18:23:18.853761	190.4	52.5	-72.6	12.7
2026-01-29 18:23:21.096730	191.1	53.2	-72.5	11.4
2026-01-29 18:23:23.339750	191.8	53.9	-72.2	11.1
2026-01-29 18:23:25.585200	192.6	54.7	-72.9	12.9
2026-01-29 18:23:27.834478	193.4	55.4	-72.5	10.9
2026-01-29 18:23:30.077495	194.3	56.2	-72.4	11.5
2026-01-29 18:23:32.325457	195.2	56.9	-72.2	11.1
2026-01-29 18:23:34.572341	196.1	57.7	-72.9	12.8
2026-01-29 18:23:36.815413	197.1	58.5	-72.9	11.7
2026-01-29 18:23:39.060295	198.2	59.2	-73.2	12.3
2026-01-29 18:23:41.308799	199.3	60.0	-72.5	13.0
2026-01-29 18:23:43.553423	200.5	60.8	-72.3	11.9
2026-01-29 18:23:45.796949	201.8	61.5	-72.0	12.0
2026-01-29 18:23:48.044561	203.2	62.3	-72.1	11.9
2026-01-29 18:23:50.290716	204.6	63.0	-72.3	13.2
2026-01-29 18:23:52.533935	206.1	63.8	-72.5	11.5
2026-01-29 18:23:54.781572	207.8	64.5	-72.7	12.4
2026-01-29 18:23:57.024468	209.5	65.2	-72.8	12.1
2026-01-29 18:23:59.270706	211.4	65.9	-72.8	11.6
2026-01-29 18:24:01.516152	213.3	66.6	-72.7	11.9
2026-01-29 18:24:03.759968	215.4	67.3	-72.5	11.0
2026-01-29 18:24:06.004699	217.7	67.9	-73.2	11.7
2026-01-29 18:24:08.249231	220.0	68.5	-73.4	11.3
2026-01-29 18:24:10.492161	222.6	69.1	-73.5	11.2
2026-01-29 18:24:12.735485	225.2	69.7	-73.7	12.5
2026-01-29 18:24:14.982606	228.1	70.2	-73.3	11.3
2026-01-29 18:24:17.227627	231.0	70.6	-73.3	11.4
2026-01-29 18:24:19.472115	234.2	71.0	-73.2	9.8
2026-01-29 18:24:21.716955	237.4	71.4	-73.8	9.6
2026-01-29 18:24:23.964185	240.8	71.7	-73.1	10.3
2026-01-29 18:24:26.209170	244.3	71.9	-72.9	10.8
2026-01-29 18:24:28.455270	247.9	72.1	-73.2	11.1
2026-01-29 18:24:30.699458	251.5	72.2	-73.4	10.0
2026-01-29 18:24:32.946240	255.2	72.3	-72.9	9.3
2026-01-29 18:24:35.193236	258.8	72.2	-72.4	10.1
2026-01-29 18:24:37.438383	262.5	72.1	-72.5	8.7
2026-01-29 18:24:39.685066	266.1	72.0	-72.1	8.9
2026-01-29 18:24:41.929476	269.6	71.7	-71.8	10.6
2026-01-29 18:24:44.173814	273.0	71.4	-71.3	9.8
2026-01-29 18:24:46.418882	276.2	71.1	-71.8	9.0
2026-01-29 18:24:48.661114	279.4	70.7	-71.0	6.6
2026-01-29 18:24:50.904972	282.4	70.2	-71.5	9.9
2026-01-29 18:24:53.148766	285.2	69.7	-71.7	9.6
2026-01-29 18:24:55.395642	287.9	69.2	-71.2	7.4
2026-01-29 18:24:57.641286	290.4	68.6	-71.4	8.3
2026-01-29 18:24:59.886564	292.8	68.0	-71.4	7.1
2026-01-29 18:25:02.134040	295.1	67.4	-71.0	7.6
2026-01-29 18:25:04.379760	297.2	66.7	-70.5	10.2
2026-01-29 18:25:06.627884	299.2	66.0	-70.8	7.9
2026-01-29 18:25:08.872519	301.1	65.3	-70.7	8.0
2026-01-29 18:25:11.117542	302.8	64.6	-70.5	8.0
2026-01-29 18:25:13.363072	304.5	63.9	-70.3	5.5
2026-01-29 18:25:15.607065	306.0	63.2	-69.3	6.5
2026-01-29 18:25:17.858428	307.5	62.4	-70.5	8.4
2026-01-29 18:25:20.102712	308.8	61.6	-69.0	4.0
2026-01-29 18:25:22.348004	310.1	60.9	-70.1	7.5
2026-01-29 18:25:24.592862	311.3	60.1	-70.8	9.2
2026-01-29 18:25:26.841516	312.5	59.4	-69.7	6.7
2026-01-29 18:25:29.088131	313.5	58.6	-70.2	6.5
2026-01-29 18:25:31.334825	314.5	57.8	-69.8	4.7
2026-01-29 18:25:33.581935	315.5	57.1	-70.3	6.4
2026-01-29 18:25:35.828945	316.4	56.3	-70.3	6.5
2026-01-29 18:25:38.073744	317.3	55.6	-69.4	4.0
2026-01-29 18:25:40.318521	318.1	54.8	-71.2	10.1
2026-01-29 18:25:42.563040	318.9	54.1	-69.9	7.2
2026-01-29 18:25:44.808585	319.6	53.4	-69.3	5.5
2026-01-29 18:25:47.054684	320.3	52.6	-71.0	9.6
2026-01-29 18:25:49.296372	321.0	51.9	-71.1	9.2
2026-01-29 18:25:51.541961	321.6	51.2	-71.2	8.2
2026-01-29 18:25:53.789697	322.2	50.5	-71.5	10.0
2026-01-29 18:25:56.035555	322.8	49.8	-71.0	9.0
2026-01-29 18:25:58.280676	323.3	49.1	-70.3	6.4
2026-01-29 18:26:00.525719	323.9	48.4	-70.6	7.0
2026-01-29 18:26:02.774824	324.4	47.7	-70.7	7.2
2026-01-29 18:26:05.019766	324.9	47.0	-70.5	6.2
2026-01-29 18:26:07.267221	325.3	46.4	-69.8	4.5
2026-01-29 18:26:09.512798	325.8	45.7	-69.9	6.4
2026-01-29 18:26:11.756285	326.2	45.1	-69.8	9.0
2026-01-29 18:26:14.004554	326.6	44.5	-68.5	5.6
2026-01-29 18:26:16.253956	327.0	43.8	-67.3	1.1
2026-01-29 18:26:18.497116	327.4	43.2	-68.9	2.7
2026-01-29 18:26:20.740060	327.8	42.6	-68.7	4.6
2026-01-29 18:26:22.983369	328.1	42.0	-67.5	0.4
2026-01-29 18:26:25.230518	328.5	41.4	-69.0	4.2
2026-01-29 18:26:27.475334	328.8	40.8	-68.3	4.1
2026-01-29 18:26:29.722811	329.1	40.3	-68.8	2.5
2026-01-29 18:26:31.971151	329.4	39.7	-67.3	2.1
2026-01-29 18:26:34.216790	329.7	39.1	-67.4	0.5
2026-01-29 18:26:36.460258	330.0	38.6	-67.3	0.0
2026-01-29 18:26:38.703471	330.3	38.1	-67.8	0.0
2026-01-29 18:26:40.948688	330.6	37.5	-65.2	0.0
2026-01-29 18:26:43.191906	330.8	37.0	-67.3	0.0
2026-01-29 18:26:45.435896	331.1	36.5	-68.0	0.9
2026-01-29 18:26:47.679790	331.3	36.0	-66.2	0.0
2026-01-29 18:26:49.925910	331.6	35.5	-67.3	0.0
2026-01-29 18:26:52.173185	331.8	35.0	-66.2	0.0
2026-01-29 18:26:54.415599	332.0	34.5	-67.7	1.2
2026-01-29 18:26:56.659531	332.3	34.0	-66.7	0.0
2026-01-29 18:26:58.902768	332.5	33.5	-67.6	0.0
2026-01-29 18:27:01.147335	332.7	33.1	-67.7	0.0
2026-01-29 18:27:03.393079	332.9	32.6	-66.4	0.0
2026-01-29 18:27:05.636949	333.1	32.1	-67.5	0.0
2026-01-29 18:27:07.883196	333.3	31.7	-65.8	0.0
2026-01-29 18:27:10.130164	333.5	31.3	-64.1	0.0
2026-01-29 18:27:12.377065	333.6	30.8	-65.7	0.0
2026-01-29 18:27:14.620232	333.8	30.4	-66.9	0.0
2026-01-29 18:27:16.863223	334.0	30.0	-64.3	0.0
2026-01-29 18:27:19.106309	334.2	29.6	-65.2	0.0
2026-01-29 18:27:21.350489	334.3	29.1	-68.5	0.0
2026-01-29 18:27:23.593809	334.5	28.7	-66.0	0.0
2026-01-29 18:27:25.842949	334.6	28.3	-64.9	0.0
2026-01-29 18:27:28.091061	334.8	28.0	-63.5	0.0
2026-01-29 18:27:30.334432	334.9	27.6	-63.3	0.0
2026-01-29 18:27:32.578291	335.1	27.2	-64.3	0.0
2026-01-29 18:27:34.825005	335.2	26.8	-65.4	0.0
2026-01-29 18:27:37.073921	335.4	26.4	-63.6	0.0
2026-01-29 18:27:39.320658	335.5	26.1	-63.2	0.0
2026-01-29 18:27:41.566897	335.6	25.7	-64.9	0.0
2026-01-29 18:27:43.812682	335.8	25.3	-64.2	0.0
2026-01-29 18:27:46.060727	335.9	25.0	-64.0	0.0
2026-01-29 18:27:48.306965	336.0	24.6	-63.5	0.0
2026-01-29 18:27:50.550436	336.2	24.3	-64.8	0.0
2026-01-29 18:27:52.797401	336.3	24.0	-64.6	0.0
2026-01-29 18:27:55.044710	336.4	23.6	-64.1	0.0
2026-01-29 18:27:57.291646	336.5	23.3	-64.3	0.0
2026-01-29 18:27:59.535313	336.6	23.0	-64.8	0.0
2026-01-29 18:28:01.779996	336.7	22.6	-64.6	0.0
2026-01-29 18:28:04.025245	336.9	22.3	-65.4	0.0
2026-01-29 18:28:06.272643	337.0	22.0	-66.3	0.0
2026-01-29 18:28:08.520173	337.1	21.7	-64.2	0.0
2026-01-29 18:28:10.765043	337.2	21.4	-63.9	0.0
2026-01-29 18:28:13.008560	337.3	21.1	-67.0	0.0
2026-01-29 18:28:15.253427	337.4	20.8	-63.9	0.0
2026-01-29 18:28:17.500465	337.5	20.5	-64.6	0.0
2026-01-29 18:28:19.744353	337.6	20.2	-62.3	0.0
2026-01-29 18:28:21.989708	337.7	19.9	-61.9	0.0
2026-01-29 18:28:24.234660	337.8	19.6	-65.1	0.0
2026-01-29 18:28:26.484071	337.9	19.3	-64.4	0.0
2026-01-29 18:28:28.730072	337.9	19.0	-63.7	0.0
2026-01-29 18:28:30.977808	338.0	18.8	-65.4	0.0
2026-01-29 18:28:33.224981	338.1	18.5	-64.4	0.0
2026-01-29 18:28:35.474408	338.2	18.2	-62.9	0.0
2026-01-29 18:28:37.719723	338.3	18.0	-64.0	0.0
2026-01-29 18:28:39.966627	338.4	17.7	-65.0	0.0
2026-01-29 18:28:42.209833	338.5	17.4	-64.5	0.0
2026-01-29 18:28:44.453954	338.5	17.2	-63.7	0.0
2026-01-29 18:28:46.698858	338.6	16.9	-65.1	0.0
2026-01-29 18:28:48.946746	338.7	16.7	-67.3	0.0
2026-01-29 18:28:51.194275	338.8	16.4	-65.6	0.0
2026-01-29 18:28:53.435935	338.8	16.2	-66.4	0.0
2026-01-29 18:28:55.681660	338.9	15.9	-65.3	0.0
2026-01-29 18:28:57.925054	339.0	15.7	-66.1	0.0
2026-01-29 18:29:00.173822	339.1	15.4	-64.8	0.0
2026-01-29 18:29:02.416911	339.1	15.2	-65.9	0.0
2026-01-29 18:29:04.662747	339.2	14.9	-65.3	0.0
2026-01-29 18:29:06.910902	339.3	14.7	-66.3	0.0
2026-01-29 18:29:09.155166	339.4	14.5	-65.7	0.0
2026-01-29 18:29:11.402219	339.4	14.2	-66.0	0.0
2026-01-29 18:29:13.647065	339.5	14.0	-65.5	0.0
2026-01-29 18:29:15.890093	339.6	13.8	-63.8	0.0
2026-01-29 18:29:18.136763	339.6	13.6	-65.5	0.0
2026-01-29 18:29:20.381023	339.7	13.3	-65.8	0.0
2026-01-29 18:29:22.628144	339.7	13.1	-67.2	0.0
2026-01-29 18:29:24.873646	339.8	12.9	-64.8	0.0
2026-01-29 18:29:27.120661	339.9	12.7	-66.6	0.0
2026-01-29 18:29:29.363142	339.9	12.5	-67.2	0.0
2026-01-29 18:29:31.605481	340.0	12.3	-67.0	0.0
2026-01-29 18:29:33.849937	340.1	12.0	-67.9	0.0
2026-01-29 18:29:36.094635	340.1	11.8	-66.2	0.0
2026-01-29 18:29:38.339751	340.2	11.6	-66.2	0.0
2026-01-29 18:29:40.584093	340.2	11.4	-68.3	0.0
2026-01-29 18:29:42.829553	340.3	11.2	-69.1	0.0
2026-01-29 18:29:45.071632	340.3	11.0	-62.8	0.0
2026-01-29 18:29:47.318788	340.4	10.8	-64.1	0.0
2026-01-29 18:29:49.562950	340.5	10.6	-66.6	0.0
2026-01-29 18:29:51.805900	340.5	10.4	-65.6	0.0
2026-01-29 18:29:54.049571	340.6	10.2	-70.3	0.0
#Closed at: 2026-01-29 18:19:06.865319