passes_logs/2026/01/29/planumMaritime01/planumMaritime01__20260129_082923_METOP-C_rec.log

#Pass ID: 20260129_082923_METOP-C
#Satellite: METOP-C
#Configuration: METOP-C
#Start time: 2026-01-29 08:29:28.248479

#LorettStation: 1.0.0 05.05.2024
#Station: planumMaritime01
#Location: 37.49445 lon 55.92918 lat
#TLE: 1 43689U 18087A   26027.92599966  .00000174  00000+0  99447-4 0  9994
#TLE: 2 43689  98.6855  89.9715 0001194 159.8041 200.3184 14.21505574374900

#Time	Az	El	Level	SNR
2026-01-29 08:29:30.413780	9.2	10.2	-62.3	0.0
2026-01-29 08:29:32.658791	9.1	10.4	-62.7	0.0
2026-01-29 08:29:34.903035	9.0	10.6	-61.8	0.0
2026-01-29 08:29:37.148280	8.9	10.8	-65.1	0.0
2026-01-29 08:29:39.391186	8.8	10.9	-63.5	0.0
2026-01-29 08:29:41.636789	8.7	11.1	-60.3	0.0
2026-01-29 08:29:43.882140	8.6	11.3	-61.5	0.0
2026-01-29 08:29:46.126687	8.4	11.5	-61.4	0.0
2026-01-29 08:29:48.376036	8.3	11.7	-60.7	0.0
2026-01-29 08:29:50.622147	8.2	11.9	-63.5	0.0
2026-01-29 08:29:52.867016	8.1	12.1	-60.8	0.0
2026-01-29 08:29:55.114427	7.9	12.3	-62.5	0.0
2026-01-29 08:29:57.360706	7.8	12.6	-61.8	0.0
2026-01-29 08:29:59.605953	7.7	12.8	-63.7	0.0
2026-01-29 08:30:01.850695	7.6	13.0	-61.8	0.0
2026-01-29 08:30:04.096088	7.4	13.2	-63.2	0.0
2026-01-29 08:30:06.343047	7.3	13.4	-63.0	0.0
2026-01-29 08:30:08.590918	7.1	13.6	-62.5	0.0
2026-01-29 08:30:10.834532	7.0	13.8	-62.4	0.0
2026-01-29 08:30:13.081653	6.9	14.0	-62.0	0.0
2026-01-29 08:30:15.324496	6.7	14.3	-60.2	0.0
2026-01-29 08:30:17.568775	6.6	14.5	-62.8	0.0
2026-01-29 08:30:19.816048	6.4	14.7	-62.6	0.0
2026-01-29 08:30:22.060327	6.3	14.9	-64.1	0.0
2026-01-29 08:30:24.307030	6.1	15.2	-63.3	0.0
2026-01-29 08:30:26.551900	5.9	15.4	-62.9	0.0
2026-01-29 08:30:28.801181	5.8	15.6	-63.2	0.0
2026-01-29 08:30:31.045883	5.6	15.8	-64.8	0.0
2026-01-29 08:30:33.292088	5.5	16.1	-63.7	0.0
2026-01-29 08:30:35.538532	5.3	16.3	-63.5	0.0
2026-01-29 08:30:37.782749	5.1	16.6	-63.9	0.0
2026-01-29 08:30:40.028047	4.9	16.8	-63.8	0.0
2026-01-29 08:30:42.276021	4.8	17.0	-65.6	0.0
2026-01-29 08:30:44.524136	4.6	17.3	-64.6	0.0
2026-01-29 08:30:46.764952	4.4	17.5	-63.5	0.0
2026-01-29 08:30:49.008782	4.2	17.8	-61.6	0.0
2026-01-29 08:30:51.253928	4.0	18.0	-63.6	0.0
2026-01-29 08:30:53.499617	3.8	18.3	-63.1	0.0
2026-01-29 08:30:55.744466	3.6	18.5	-62.9	0.0
2026-01-29 08:30:57.988602	3.4	18.8	-65.0	0.0
2026-01-29 08:31:00.234699	3.2	19.1	-62.4	0.0
2026-01-29 08:31:02.482647	3.0	19.3	-63.1	0.0
2026-01-29 08:31:04.726646	2.8	19.6	-64.1	0.0
2026-01-29 08:31:06.971852	2.6	19.9	-63.9	0.0
2026-01-29 08:31:09.219566	2.4	20.1	-66.3	0.0
2026-01-29 08:31:11.466187	2.1	20.4	-65.3	0.0
2026-01-29 08:31:13.713802	1.9	20.7	-63.0	0.0
2026-01-29 08:31:15.960648	1.7	21.0	-64.7	0.0
2026-01-29 08:31:18.206096	1.4	21.2	-63.6	0.0
2026-01-29 08:31:20.450905	1.2	21.5	-62.7	0.0
2026-01-29 08:31:22.697157	1.0	21.8	-63.6	0.0
2026-01-29 08:31:24.943297	0.7	22.1	-63.3	0.0
2026-01-29 08:31:27.190217	0.5	22.4	-63.0	0.0
2026-01-29 08:31:29.437540	0.2	22.7	-62.3	0.0
2026-01-29 08:31:31.685260	359.9	23.0	-64.0	0.0
2026-01-29 08:31:33.925764	359.7	23.3	-63.4	0.0
2026-01-29 08:31:36.171256	359.4	23.6	-63.5	0.0
2026-01-29 08:31:38.413784	359.1	23.9	-65.2	0.0
2026-01-29 08:31:40.659465	358.8	24.2	-63.9	0.0
2026-01-29 08:31:42.903024	358.5	24.5	-64.4	0.0
2026-01-29 08:31:45.147893	358.2	24.8	-65.2	0.0
2026-01-29 08:31:47.391228	357.9	25.1	-64.8	0.0
2026-01-29 08:31:49.638388	357.6	25.5	-63.2	0.0
2026-01-29 08:31:51.881082	357.3	25.8	-63.5	0.0
2026-01-29 08:31:54.125929	357.0	26.1	-65.1	0.0
2026-01-29 08:31:56.373875	356.6	26.4	-62.7	0.0
2026-01-29 08:31:58.617132	356.3	26.8	-63.3	0.0
2026-01-29 08:32:00.862997	355.9	27.1	-64.5	0.0
2026-01-29 08:32:03.109890	355.6	27.5	-65.3	0.0
2026-01-29 08:32:05.355775	355.2	27.8	-64.1	0.0
2026-01-29 08:32:07.601197	354.9	28.1	-64.4	0.0
2026-01-29 08:32:09.847559	354.5	28.5	-63.5	0.0
2026-01-29 08:32:12.097211	354.1	28.8	-64.3	0.0
2026-01-29 08:32:14.341017	353.7	29.2	-64.7	0.0
2026-01-29 08:32:16.584713	353.3	29.5	-64.6	0.0
2026-01-29 08:32:18.828574	352.9	29.9	-64.1	0.0
2026-01-29 08:32:21.076016	352.4	30.3	-63.9	0.0
2026-01-29 08:32:23.321107	352.0	30.6	-65.0	0.0
2026-01-29 08:32:25.563541	351.6	31.0	-66.0	0.0
2026-01-29 08:32:27.808887	351.1	31.4	-64.2	0.0
2026-01-29 08:32:30.054502	350.7	31.7	-66.1	0.0
2026-01-29 08:32:32.300297	350.2	32.1	-67.6	0.0
2026-01-29 08:32:34.547639	349.7	32.5	-62.8	0.0
2026-01-29 08:32:36.795508	349.2	32.9	-67.7	0.0
2026-01-29 08:32:39.043055	348.7	33.3	-65.4	0.0
2026-01-29 08:32:41.290368	348.2	33.6	-65.7	0.0
2026-01-29 08:32:43.534344	347.6	34.0	-65.7	0.0
2026-01-29 08:32:45.783194	347.1	34.4	-64.1	0.0
2026-01-29 08:32:48.030308	346.5	34.8	-62.6	0.0
2026-01-29 08:32:50.277734	345.9	35.2	-61.8	0.0
2026-01-29 08:32:52.520926	345.3	35.6	-62.3	0.0
2026-01-29 08:32:54.766397	344.7	36.0	-63.3	0.0
2026-01-29 08:32:57.014986	344.1	36.4	-68.5	0.9
2026-01-29 08:32:59.259919	343.5	36.8	-66.8	0.0
2026-01-29 08:33:01.505753	342.8	37.2	-67.6	0.6
2026-01-29 08:33:03.749261	342.2	37.6	-67.6	1.6
2026-01-29 08:33:05.997530	341.5	38.0	-68.1	1.4
2026-01-29 08:33:08.243059	340.8	38.4	-68.3	0.6
2026-01-29 08:33:10.484484	340.1	38.8	-66.8	0.0
2026-01-29 08:33:12.725982	339.3	39.2	-69.1	2.4
2026-01-29 08:33:14.971200	338.6	39.6	-69.4	3.6
2026-01-29 08:33:17.217929	337.8	40.0	-69.6	5.6
2026-01-29 08:33:19.464293	337.0	40.3	-69.1	6.4
2026-01-29 08:33:21.707509	336.2	40.7	-70.5	8.3
2026-01-29 08:33:23.951600	335.4	41.1	-69.7	4.2
2026-01-29 08:33:26.198185	334.5	41.5	-70.9	8.9
2026-01-29 08:33:28.445526	333.6	41.9	-69.7	6.3
2026-01-29 08:33:30.690200	332.7	42.3	-70.6	6.3
2026-01-29 08:33:32.934963	331.8	42.6	-70.0	7.1
2026-01-29 08:33:35.180402	330.9	43.0	-70.0	8.5
2026-01-29 08:33:37.425100	329.9	43.4	-69.4	5.7
2026-01-29 08:33:39.672094	328.9	43.7	-70.4	9.0
2026-01-29 08:33:41.918829	327.9	44.1	-70.4	7.0
2026-01-29 08:33:44.404465	326.8	44.5	-71.3	9.7
2026-01-29 08:33:46.648103	325.7	44.8	-70.5	8.1
2026-01-29 08:33:48.894369	324.7	45.1	-70.4	9.6
2026-01-29 08:33:51.138887	323.6	45.5	-70.5	7.5
2026-01-29 08:33:53.386259	322.4	45.8	-71.1	6.7
2026-01-29 08:33:55.631184	321.3	46.1	-71.5	9.4
2026-01-29 08:33:57.875454	320.1	46.4	-71.0	7.3
2026-01-29 08:34:00.120443	318.9	46.6	-71.6	7.0
2026-01-29 08:34:02.366010	317.7	46.9	-71.5	6.4
2026-01-29 08:34:04.614380	316.5	47.2	-72.0	7.4
2026-01-29 08:34:06.860761	315.3	47.4	-72.2	5.7
2026-01-29 08:34:09.107326	314.0	47.6	-72.1	6.4
2026-01-29 08:34:11.353367	312.7	47.8	-70.0	4.1
2026-01-29 08:34:13.601688	311.4	48.0	-70.2	5.2
2026-01-29 08:34:15.850369	310.1	48.2	-71.4	6.1
2026-01-29 08:34:18.098875	308.8	48.4	-71.3	3.8
2026-01-29 08:34:20.346462	307.4	48.5	-68.9	0.8
2026-01-29 08:34:22.591395	306.1	48.7	-71.4	8.9
2026-01-29 08:34:24.837805	304.7	48.8	-68.0	0.8
2026-01-29 08:34:27.080913	303.3	48.9	-70.7	7.1
2026-01-29 08:34:29.326355	301.9	49.0	-70.2	3.1
2026-01-29 08:34:31.571040	300.5	49.0	-69.2	3.2
2026-01-29 08:34:33.822065	299.1	49.1	-70.9	6.4
2026-01-29 08:34:36.064175	297.7	49.1	-71.1	4.3
2026-01-29 08:34:38.310132	296.3	49.1	-71.4	6.4
2026-01-29 08:34:40.556683	294.9	49.1	-70.5	4.7
2026-01-29 08:34:42.798983	293.5	49.1	-71.2	5.1
2026-01-29 08:34:45.043568	292.1	49.0	-72.5	7.5
2026-01-29 08:34:47.288085	290.7	49.0	-70.4	2.3
2026-01-29 08:34:49.530040	289.3	48.9	-71.5	8.8
2026-01-29 08:34:51.774581	287.9	48.8	-71.6	4.9
2026-01-29 08:34:54.021162	286.6	48.7	-72.3	7.0
2026-01-29 08:34:56.268301	285.2	48.5	-72.5	9.0
2026-01-29 08:34:58.512211	283.9	48.4	-72.7	7.5
2026-01-29 08:35:00.757924	282.5	48.2	-72.4	7.2
2026-01-29 08:35:03.000354	281.2	48.0	-72.5	6.0
2026-01-29 08:35:05.246782	279.9	47.8	-72.1	7.2
2026-01-29 08:35:07.491195	278.6	47.6	-72.0	5.5
2026-01-29 08:35:09.738786	277.4	47.4	-72.1	6.9
2026-01-29 08:35:11.987500	276.1	47.1	-71.7	8.3
2026-01-29 08:35:14.231646	274.9	46.9	-72.6	8.9
2026-01-29 08:35:16.479341	273.7	46.6	-72.3	8.9
2026-01-29 08:35:18.724521	272.5	46.3	-72.8	10.9
2026-01-29 08:35:20.968079	271.3	46.0	-72.2	7.8
2026-01-29 08:35:23.213355	270.2	45.7	-72.5	8.4
2026-01-29 08:35:25.457841	269.1	45.4	-72.9	10.1
2026-01-29 08:35:27.701279	268.0	45.1	-72.1	8.1
2026-01-29 08:35:29.947961	266.9	44.8	-72.8	10.7
2026-01-29 08:35:32.199083	265.9	44.4	-72.7	11.0
2026-01-29 08:35:34.443081	264.8	44.1	-72.9	11.1
2026-01-29 08:35:36.689037	263.8	43.7	-72.1	9.9
2026-01-29 08:35:38.932355	262.8	43.4	-72.9	9.6
2026-01-29 08:35:41.179303	261.9	43.0	-72.3	9.6
2026-01-29 08:35:43.425540	260.9	42.6	-72.3	9.0
2026-01-29 08:35:45.674930	260.0	42.2	-72.7	9.7
2026-01-29 08:35:47.916808	259.1	41.9	-71.9	8.3
2026-01-29 08:35:50.161104	258.2	41.5	-72.8	10.3
2026-01-29 08:35:52.406105	257.4	41.1	-72.5	9.2
2026-01-29 08:35:54.649031	256.5	40.7	-72.8	11.5
2026-01-29 08:35:56.894417	255.7	40.3	-72.7	9.6
2026-01-29 08:35:59.138106	254.9	39.9	-72.7	10.0
2026-01-29 08:36:01.383080	254.2	39.5	-72.7	10.1
2026-01-29 08:36:03.629381	253.4	39.1	-72.8	10.2
2026-01-29 08:36:05.877895	252.7	38.7	-73.2	10.3
2026-01-29 08:36:08.124391	251.9	38.3	-73.1	11.0
2026-01-29 08:36:10.370060	251.2	37.9	-72.8	10.0
2026-01-29 08:36:12.615187	250.5	37.5	-73.0	11.0
2026-01-29 08:36:14.860759	249.9	37.1	-72.9	9.6
2026-01-29 08:36:17.107854	249.2	36.7	-73.0	9.5
2026-01-29 08:36:19.351492	248.6	36.3	-73.2	9.7
2026-01-29 08:36:21.598965	248.0	35.9	-73.3	10.5
2026-01-29 08:36:23.847749	247.4	35.5	-73.7	10.8
2026-01-29 08:36:26.090121	246.8	35.1	-73.1	9.2
2026-01-29 08:36:28.334429	246.2	34.7	-72.9	10.7
2026-01-29 08:36:30.579354	245.6	34.3	-73.0	10.5
2026-01-29 08:36:32.826353	245.1	34.0	-73.3	9.8
2026-01-29 08:36:35.070120	244.5	33.6	-73.1	10.5
2026-01-29 08:36:37.319363	244.0	33.2	-73.2	10.9
2026-01-29 08:36:39.562578	243.5	32.8	-73.5	9.3
2026-01-29 08:36:41.811420	243.0	32.4	-73.7	9.3
2026-01-29 08:36:44.056910	242.5	32.0	-73.7	10.0
2026-01-29 08:36:46.299757	242.0	31.7	-73.4	8.8
2026-01-29 08:36:48.545338	241.6	31.3	-73.9	9.1
2026-01-29 08:36:50.791707	241.1	30.9	-73.8	8.6
2026-01-29 08:36:53.039959	240.7	30.5	-73.8	9.4
2026-01-29 08:36:55.283520	240.2	30.2	-73.6	9.0
2026-01-29 08:36:57.530673	239.8	29.8	-73.9	10.1
2026-01-29 08:36:59.776740	239.4	29.5	-73.7	9.7
2026-01-29 08:37:02.021658	239.0	29.1	-73.8	10.2
2026-01-29 08:37:04.265380	238.6	28.7	-73.3	10.8
2026-01-29 08:37:06.509088	238.2	28.4	-73.0	5.6
2026-01-29 08:37:08.754978	237.8	28.0	-74.2	8.7
2026-01-29 08:37:11.001254	237.4	27.7	-73.8	8.4
2026-01-29 08:37:13.247855	237.1	27.4	-74.2	8.6
2026-01-29 08:37:15.496462	236.7	27.0	-74.3	9.1
2026-01-29 08:37:17.740506	236.4	26.7	-74.8	9.1
2026-01-29 08:37:19.985533	236.0	26.3	-74.0	8.7
2026-01-29 08:37:22.230721	235.7	26.0	-74.3	6.5
2026-01-29 08:37:24.476379	235.4	25.7	-74.7	10.0
2026-01-29 08:37:26.723256	235.0	25.4	-74.2	8.8
2026-01-29 08:37:28.968137	234.7	25.0	-74.2	9.3
2026-01-29 08:37:31.213258	234.4	24.7	-74.5	9.4
2026-01-29 08:37:33.457718	234.1	24.4	-73.9	8.5
2026-01-29 08:37:35.702103	233.8	24.1	-74.4	8.4
2026-01-29 08:37:37.945632	233.5	23.8	-73.6	7.7
2026-01-29 08:37:40.190960	233.3	23.5	-74.1	6.8
2026-01-29 08:37:42.435948	233.0	23.2	-74.4	7.9
2026-01-29 08:37:44.680536	232.7	22.9	-74.8	8.3
2026-01-29 08:37:46.925705	232.4	22.6	-75.4	7.4
2026-01-29 08:37:49.173101	232.2	22.3	-74.6	7.4
2026-01-29 08:37:51.421763	231.9	22.0	-73.6	6.0
2026-01-29 08:37:53.663042	231.7	21.7	-74.8	8.1
2026-01-29 08:37:55.908605	231.4	21.4	-74.8	7.2
2026-01-29 08:37:58.159907	231.2	21.1	-74.4	7.0
2026-01-29 08:38:00.405237	230.9	20.8	-74.2	6.6
2026-01-29 08:38:02.650753	230.7	20.6	-74.1	6.8
2026-01-29 08:38:04.896976	230.5	20.3	-74.0	7.6
2026-01-29 08:38:07.146578	230.3	20.0	-74.0	5.9
2026-01-29 08:38:09.393137	230.0	19.7	-73.7	5.0
2026-01-29 08:38:11.637203	229.8	19.5	-73.9	4.7
2026-01-29 08:38:13.882330	229.6	19.2	-73.5	5.0
2026-01-29 08:38:16.129649	229.4	18.9	-74.0	3.9
2026-01-29 08:38:18.377741	229.2	18.7	-73.8	3.8
2026-01-29 08:38:20.622213	229.0	18.4	-73.7	5.1
2026-01-29 08:38:22.867482	228.8	18.2	-74.1	4.9
2026-01-29 08:38:25.111825	228.6	17.9	-73.5	3.0
2026-01-29 08:38:27.353310	228.4	17.7	-73.1	2.3
2026-01-29 08:38:29.597977	228.2	17.4	-73.4	4.0
2026-01-29 08:38:31.841024	228.0	17.2	-73.4	2.9
2026-01-29 08:38:34.085236	227.8	16.9	-73.5	3.8
2026-01-29 08:38:36.330106	227.7	16.7	-72.8	2.9
2026-01-29 08:38:38.575065	227.5	16.4	-72.8	0.0
2026-01-29 08:38:40.819510	227.3	16.2	-72.9	0.8
2026-01-29 08:38:43.063972	227.1	15.9	-72.8	1.4
2026-01-29 08:38:45.309578	227.0	15.7	-73.0	0.7
2026-01-29 08:38:47.556540	226.8	15.5	-72.6	0.0
2026-01-29 08:38:49.800593	226.6	15.2	-72.7	0.6
2026-01-29 08:38:52.045314	226.5	15.0	-72.9	1.1
2026-01-29 08:38:54.291412	226.3	14.8	-72.4	0.0
2026-01-29 08:38:56.536762	226.2	14.6	-72.1	0.0
2026-01-29 08:38:58.777856	226.0	14.3	-72.1	0.0
2026-01-29 08:39:01.020896	225.9	14.1	-72.6	0.7
2026-01-29 08:39:03.266204	225.7	13.9	-71.6	0.0
2026-01-29 08:39:05.510275	225.6	13.7	-72.2	0.0
2026-01-29 08:39:07.754024	225.4	13.5	-71.9	0.0
2026-01-29 08:39:10.003644	225.3	13.2	-73.2	0.1
2026-01-29 08:39:12.250515	225.2	13.0	-72.3	0.0
2026-01-29 08:39:14.496118	225.0	12.8	-72.9	0.0
2026-01-29 08:39:16.743239	224.9	12.6	-71.9	0.0
2026-01-29 08:39:18.987839	224.7	12.4	-72.2	0.0
2026-01-29 08:39:21.230632	224.6	12.2	-71.5	0.0
2026-01-29 08:39:23.476183	224.5	12.0	-71.6	0.0
2026-01-29 08:39:25.722359	224.4	11.8	-71.5	0.0
2026-01-29 08:39:27.966464	224.2	11.6	-71.7	0.0
2026-01-29 08:39:30.212520	224.1	11.4	-71.7	0.0
2026-01-29 08:39:32.458110	224.0	11.2	-72.6	0.0
2026-01-29 08:39:34.704029	223.9	11.0	-71.7	0.0
2026-01-29 08:39:36.950852	223.8	10.8	-75.0	2.6
2026-01-29 08:39:39.197363	223.6	10.6	-77.2	0.0
2026-01-29 08:39:41.441779	223.5	10.4	-78.2	0.0
2026-01-29 08:39:43.684923	223.4	10.2	-78.2	0.0
#Closed at: 2026-01-29 08:29:23.255054