passes_logs/2025/01/23/XPeterburg/XPeterburg__20250123_191858_FENGYUN_3F_rec.log

#Pass ID: 20250123_191858_FENGYUN 3F
#Satellite: FENGYUN 3F
#Configuration: FENGYUN 3F
#Start time: 2025-01-23 19:18:51

#Version: 1.5.20200625
#Station: XPeterburg
#Location: 30.318091 lon 59.932769 lat
#TLE: 1 57490U 23111A   25023.15922735  .00000230  00000+0  12906-3 0  9994
#TLE: 2 57490  98.7451  96.0025 0001451 131.5350 228.5950 14.19980740 76481

#Time	Az	El	Level	Level2	SNR	BER	Gain	Gain2
2025-01-23 19:18:51.50	185.97	67.52	-39.3	-41.4	3.3	8384273	97	6242
2025-01-23 19:18:51.90	186.17	67.69	-38.7	-53.0	3.5	8262451	73	25433
2025-01-23 19:18:52.31	186.39	67.86	-39.3	-42.3	3.3	8412254	95	6931
2025-01-23 19:18:52.71	186.60	68.03	-39.3	-43.5	3.6	8415252	95	7975
2025-01-23 19:18:53.11	186.82	68.19	-39.3	-42.2	3.3	8403396	95	6893
2025-01-23 19:18:53.51	187.04	68.36	-39.3	-43.6	3.6	8435977	95	8121
2025-01-23 19:18:53.91	187.26	68.53	-39.3	-41.7	3.3	8364772	96	6496
2025-01-23 19:18:54.32	187.49	68.70	-39.2	-43.1	3.6	8345375	96	7654
2025-01-23 19:18:54.72	187.72	68.86	-39.2	-41.7	3.3	8427795	96	6533
2025-01-23 19:18:55.12	187.96	69.03	-39.2	-43.0	3.6	8403385	96	7641
2025-01-23 19:18:55.52	188.20	69.19	-39.2	-41.6	3.3	8411853	96	6497
2025-01-23 19:18:55.92	188.44	69.36	-39.1	-42.7	3.6	8389812	96	7429
2025-01-23 19:18:56.33	188.69	69.53	-39.0	-41.1	3.4	8439685	96	6240
2025-01-23 19:18:56.73	188.94	69.70	-39.0	-42.1	3.6	8385784	96	7058
2025-01-23 19:18:57.13	189.20	69.86	-38.9	-41.0	3.4	8431102	96	6270
2025-01-23 19:18:57.53	189.46	70.03	-38.8	-40.1	3.3	8401874	96	5748
2025-01-23 19:18:57.94	189.73	70.20	-38.7	-40.8	3.4	8444789	95	6305
2025-01-23 19:18:58.34	190.00	70.36	-38.6	-39.9	3.3	8386264	95	5721
2025-01-23 19:18:58.74	190.28	70.53	-38.5	-40.5	3.6	8433586	95	6212
2025-01-23 19:18:59.14	190.56	70.70	-38.6	-40.1	3.4	8403408	95	5806
2025-01-23 19:18:59.54	190.84	70.86	-38.8	-41.5	3.5	8418502	95	6728
2025-01-23 19:18:59.95	191.14	71.03	-38.9	-40.8	3.3	8391448	95	6131
2025-01-23 19:19:00.35	191.44	71.19	-38.8	-42.0	3.6	8438095	95	7114
2025-01-23 19:19:00.75	191.74	71.36	-38.7	-40.3	3.3	8400787	95	5894
2025-01-23 19:19:01.15	192.04	71.52	-38.7	-41.5	3.6	8345603	95	6779
2025-01-23 19:19:01.55	192.36	71.69	-38.7	-40.0	3.4	8429054	95	5726
2025-01-23 19:19:01.96	192.68	71.86	-38.6	-41.1	3.6	8404117	95	6547
2025-01-23 19:19:02.36	193.01	72.02	-38.5	-39.4	3.5	8415138	95	5467
2025-01-23 19:19:02.76	193.34	72.18	-38.6	-41.1	3.6	8385761	95	6547
2025-01-23 19:19:03.16	193.68	72.35	-38.5	-39.6	3.5	8431514	95	5583
2025-01-23 19:19:03.56	194.02	72.51	-38.5	-40.8	3.6	8388118	95	6442
2025-01-23 19:19:03.97	194.38	72.67	-38.4	-39.6	3.6	8418216	95	5621
2025-01-23 19:19:04.37	194.74	72.84	-38.5	-39.3	3.5	8383037	95	5421
2025-01-23 19:19:04.77	195.11	73.00	-38.6	-40.5	3.6	8432407	95	6078
2025-01-23 19:19:05.17	195.48	73.16	-38.7	-40.0	3.4	8386516	95	5709
2025-01-23 19:19:05.57	195.86	73.32	-38.6	-40.3	3.6	8427406	95	6029
2025-01-23 19:19:05.98	196.26	73.48	-38.5	-39.1	3.5	8373767	95	5329
2025-01-23 19:19:06.38	196.65	73.64	-38.4	-40.0	3.8	8404048	95	5901
2025-01-23 19:19:06.78	197.06	73.80	-38.3	-38.6	3.6	8391128	95	5101
2025-01-23 19:19:07.18	197.47	73.96	-38.0	-39.7	3.7	8405216	94	6015
2025-01-23 19:19:07.58	197.89	74.12	-38.0	-38.3	3.7	8360652	94	5108
2025-01-23 19:19:07.99	198.33	74.28	-38.3	-40.4	3.6	8370643	94	6330
2025-01-23 19:19:08.39	198.77	74.44	-38.3	-39.1	3.5	8401920	94	5432
2025-01-23 19:19:08.79	199.22	74.59	-38.0	-39.8	3.7	8388416	94	6006
2025-01-23 19:19:09.19	199.67	74.75	-38.1	-38.6	3.6	8392135	94	5226
2025-01-23 19:19:09.60	200.15	74.90	-38.6	-41.4	3.6	8403751	94	6821
2025-01-23 19:19:10.00	200.63	75.06	-38.8	-40.6	3.4	8444149	94	6071
2025-01-23 19:19:10.40	201.12	75.21	-38.6	-41.4	3.6	8391162	94	6782
2025-01-23 19:19:10.80	201.62	75.36	-38.6	-40.2	3.4	8421787	94	5898
2025-01-23 19:19:11.21	202.14	75.52	-38.7	-41.8	3.6	8378082	94	6997
2025-01-23 19:19:11.61	202.66	75.67	-38.9	-41.2	3.4	8453590	94	6402
2025-01-23 19:19:12.01	203.19	75.82	-38.6	-39.9	3.4	8398853	94	5693
2025-01-23 19:19:12.41	203.73	75.96	-38.1	-38.9	3.7	8437019	94	5401
2025-01-23 19:19:12.81	204.29	76.11	-38.0	-38.1	3.7	8337284	94	4974
2025-01-23 19:19:13.21	204.86	76.26	-38.2	-39.5	3.8	8382259	94	5731
2025-01-23 19:19:13.62	205.45	76.40	-38.0	-38.2	3.7	8365653	94	5028
2025-01-23 19:19:14.02	206.04	76.55	-37.9	-38.0	3.7	8356166	94	4963
2025-01-23 19:19:14.42	206.65	76.69	-37.9	-38.0	3.7	8336402	94	4947
2025-01-23 19:19:14.82	207.27	76.83	-38.0	-38.9	3.9	8393772	94	5491
2025-01-23 19:19:15.23	207.92	76.97	-38.2	-38.8	3.6	8371112	94	5284
2025-01-23 19:19:15.63	208.56	77.11	-38.3	-40.3	3.8	8403751	94	6170
2025-01-23 19:19:16.03	209.23	77.25	-38.4	-39.3	3.6	8377967	94	5487
2025-01-23 19:19:16.43	209.90	77.38	-38.3	-40.6	3.6	8420276	94	6403
2025-01-23 19:19:16.84	210.61	77.52	-38.1	-38.7	3.7	8403236	94	5248
2025-01-23 19:19:17.24	211.32	77.65	-38.2	-39.0	3.6	8349918	94	5398
2025-01-23 19:19:17.64	212.04	77.78	-38.3	-40.8	3.6	8362026	94	6503
2025-01-23 19:19:18.04	212.78	77.91	-38.1	-39.2	3.7	8395374	94	5574
2025-01-23 19:19:18.44	213.53	78.03	-38.2	-40.4	3.7	8365356	94	6311
2025-01-23 19:19:18.85	214.32	78.16	-38.1	-39.0	3.8	8413307	94	5483
2025-01-23 19:19:19.25	215.10	78.28	-38.2	-38.9	3.7	8350547	94	5325
2025-01-23 19:19:19.65	215.91	78.40	-38.3	-39.8	3.7	8406269	94	5839
2025-01-23 19:19:20.05	216.73	78.52	-38.3	-39.2	3.6	8360881	94	5456
2025-01-23 19:19:20.46	217.59	78.63	-38.2	-39.5	3.8	8401165	94	5779
2025-01-23 19:19:20.86	218.44	78.75	-38.2	-38.8	3.7	8359085	94	5287
2025-01-23 19:19:21.26	219.31	78.86	-38.4	-40.8	3.8	8420494	94	6434
2025-01-23 19:19:21.66	220.20	78.97	-38.7	-40.3	3.4	8394733	94	5937
2025-01-23 19:19:22.07	221.14	79.07	-38.6	-41.6	3.6	8381710	94	6947
2025-01-23 19:19:22.47	222.06	79.18	-38.5	-39.9	3.5	8408718	94	5750
2025-01-23 19:19:22.87	223.00	79.28	-38.7	-41.8	3.6	8399814	94	7066
2025-01-23 19:19:23.27	223.97	79.37	-38.9	-41.0	3.4	8412128	94	6300
2025-01-23 19:19:23.67	224.95	79.47	-38.8	-42.3	3.6	8421569	94	7292
2025-01-23 19:19:24.07	225.94	79.56	-38.8	-40.6	3.4	8431308	94	6071
2025-01-23 19:19:24.48	226.98	79.65	-38.7	-41.9	3.6	8388107	94	7112
2025-01-23 19:19:24.88	228.01	79.73	-38.8	-40.9	3.5	8420803	94	6300
2025-01-23 19:19:25.28	229.06	79.81	-38.8	-42.3	3.6	8392730	94	7309
2025-01-23 19:19:25.68	230.13	79.89	-38.8	-41.1	3.5	8442592	94	6425
2025-01-23 19:19:26.08	231.21	79.97	-38.7	-40.4	3.4	8387466	94	5986
2025-01-23 19:19:26.49	232.34	80.04	-38.6	-40.6	3.6	8429191	94	6185
2025-01-23 19:19:26.89	233.45	80.11	-38.4	-39.4	3.5	8376296	94	5542
2025-01-23 19:19:27.29	234.58	80.17	-38.5	-40.4	3.7	8398727	94	6155
2025-01-23 19:19:27.69	235.73	80.23	-38.4	-39.5	3.5	8383941	94	5573
2025-01-23 19:19:28.10	236.91	80.29	-38.4	-40.2	3.7	8420722	94	6062
2025-01-23 19:19:28.50	238.08	80.34	-38.5	-39.8	3.5	8390373	94	5662
2025-01-23 19:19:28.90	239.27	80.39	-38.6	-41.2	3.7	8438896	94	6656
2025-01-23 19:19:29.30	240.46	80.43	-38.6	-39.9	3.5	8415264	94	5716
2025-01-23 19:19:29.71	241.70	80.47	-38.4	-40.8	3.6	8397182	94	6485
2025-01-23 19:19:30.11	242.91	80.51	-38.6	-39.9	3.5	8400924	94	5711
2025-01-23 19:19:30.51	244.14	80.54	-38.7	-41.9	3.6	8416145	94	7076
2025-01-23 19:19:30.91	245.37	80.56	-38.8	-40.7	3.4	8433414	94	6123
2025-01-23 19:19:31.31	246.61	80.59	-38.6	-41.5	3.6	8378265	94	6847
2025-01-23 19:19:31.72	247.88	80.61	-38.5	-39.8	3.5	8419097	94	5716
2025-01-23 19:19:32.12	249.13	80.62	-38.7	-41.5	3.6	8381824	94	6845
2025-01-23 19:19:32.52	250.38	80.63	-38.7	-40.5	3.5	8404014	94	6036
2025-01-23 19:19:32.92	251.64	80.63	-38.8	-41.9	3.6	8384925	94	7045
2025-01-23 19:19:33.32	252.89	80.63	-38.5	-40.1	3.6	8429843	94	5901
2025-01-23 19:19:33.72	254.14	80.63	-38.6	-39.9	3.5	8377120	94	5725
2025-01-23 19:19:34.13	255.43	80.62	-38.5	-40.1	3.7	8427051	94	5942
2025-01-23 19:19:34.53	256.68	80.61	-38.6	-40.0	3.5	8405754	94	5798
2025-01-23 19:19:34.93	257.92	80.59	-38.5	-40.7	3.7	8431102	94	6292
2025-01-23 19:19:35.33	259.16	80.57	-38.3	-39.0	3.7	8360240	94	5346
2025-01-23 19:19:35.74	260.43	80.54	-38.5	-40.8	3.8	8417198	94	6415
2025-01-23 19:19:36.14	261.65	80.51	-38.4	-39.5	3.6	8387317	94	5573
2025-01-23 19:19:36.54	262.87	80.48	-38.6	-41.5	3.6	8391998	94	6875
2025-01-23 19:19:36.94	264.08	80.44	-38.4	-39.4	3.6	8383792	94	5537
2025-01-23 19:19:37.35	265.31	80.40	-38.5	-41.1	3.6	8406028	94	6653
2025-01-23 19:19:37.75	266.49	80.35	-38.4	-39.3	3.6	8389228	94	5496
2025-01-23 19:19:38.15	267.67	80.30	-38.4	-41.0	3.6	8367565	94	6617
2025-01-23 19:19:38.55	268.83	80.25	-38.5	-39.9	3.5	8399917	94	5771
2025-01-23 19:19:38.96	270.00	80.19	-38.7	-41.7	3.6	8392639	94	6972
2025-01-23 19:19:39.36	271.14	80.12	-38.6	-40.1	3.5	8413444	94	5843
2025-01-23 19:19:39.76	272.26	80.06	-38.5	-41.0	3.6	8385463	94	6593
2025-01-23 19:19:40.16	273.36	79.99	-38.7	-40.4	3.5	8425895	94	6037
2025-01-23 19:19:40.56	274.44	79.91	-38.9	-42.2	3.6	8391231	94	7267
2025-01-23 19:19:40.97	275.54	79.83	-38.9	-41.4	3.5	8427555	94	6574
2025-01-23 19:19:41.37	276.59	79.75	-39.2	-41.4	3.4	8392902	95	6283
2025-01-23 19:19:41.77	277.63	79.67	-39.3	-42.3	3.5	8438072	95	6951
2025-01-23 19:19:42.17	278.65	79.58	-39.3	-41.6	3.3	8387420	95	6438
2025-01-23 19:19:42.57	279.65	79.49	-39.2	-42.1	3.5	8438713	95	6885
2025-01-23 19:19:42.98	280.66	79.40	-38.8	-40.2	3.4	8380828	95	5733
2025-01-23 19:19:43.38	281.63	79.30	-38.8	-41.0	3.7	8411087	95	6373
2025-01-23 19:19:43.78	282.57	79.20	-38.7	-39.6	3.5	8389675	95	5491
2025-01-23 19:19:44.18	283.50	79.10	-38.7	-41.2	3.6	8419876	95	6519
2025-01-23 19:19:44.58	284.42	79.00	-38.8	-40.1	3.5	8387615	95	5684
2025-01-23 19:19:44.99	285.33	78.89	-38.7	-41.3	3.6	8391929	95	6613
2025-01-23 19:19:45.39	286.21	78.78	-38.4	-38.8	3.7	8407550	95	5151
2025-01-23 19:19:45.79	287.07	78.67	-38.5	-40.3	3.7	8364315	95	6110
2025-01-23 19:19:46.19	287.91	78.55	-38.9	-40.4	3.4	8407367	95	5829
2025-01-23 19:19:46.60	288.76	78.43	-39.1	-42.2	3.6	8416717	95	7059
2025-01-23 19:19:47.00	289.56	78.31	-39.1	-40.8	3.4	8432922	95	5999
2025-01-23 19:19:47.40	290.35	78.19	-39.0	-42.0	3.6	8385669	95	6901
2025-01-23 19:19:47.80	291.13	78.07	-39.3	-41.5	3.4	8422565	95	6394
2025-01-23 19:19:48.20	291.89	77.94	-39.4	-43.1	3.6	8387546	95	7532
2025-01-23 19:19:48.61	292.64	77.81	-39.3	-41.9	3.4	8440292	95	6583
2025-01-23 19:19:49.01	293.37	77.68	-39.2	-41.1	3.3	8392444	95	6104
2025-01-23 19:19:49.41	294.08	77.55	-39.3	-41.8	3.4	8439788	95	6552
2025-01-23 19:19:49.81	294.78	77.42	-39.3	-41.4	3.3	8390316	95	6216
2025-01-23 19:19:50.22	295.47	77.28	-39.4	-42.4	3.5	8415573	95	6970
2025-01-23 19:19:50.62	296.14	77.15	-39.3	-41.3	3.3	8401748	95	6193
2025-01-23 19:19:51.02	296.79	77.01	-39.0	-41.6	3.6	8425403	95	6653
2025-01-23 19:19:51.42	297.42	76.87	-38.9	-40.1	3.3	8402847	95	5625
2025-01-23 19:19:51.82	298.05	76.73	-38.9	-41.6	3.6	8438255	95	6680
2025-01-23 19:19:52.22	298.66	76.59	-39.1	-40.6	3.4	8424190	95	5847
2025-01-23 19:19:52.63	299.27	76.44	-39.0	-41.9	3.6	8403808	95	6824
2025-01-23 19:19:53.03	299.85	76.30	-39.0	-40.4	3.3	8406280	95	5787
2025-01-23 19:19:53.43	300.42	76.16	-39.0	-41.8	3.6	8411716	95	6797
2025-01-23 19:19:53.83	300.98	76.01	-39.2	-41.2	3.3	8430255	95	6196
2025-01-23 19:19:54.24	301.54	75.86	-39.3	-43.2	3.6	8387649	95	7645
2025-01-23 19:19:54.64	302.07	75.71	-39.4	-42.2	3.4	8439353	95	6791
2025-01-23 19:19:55.04	302.60	75.56	-39.4	-43.2	3.6	8393829	95	7692
2025-01-23 19:19:55.44	303.11	75.41	-39.2	-41.5	3.4	8422805	95	6385
2025-01-23 19:19:55.85	303.62	75.26	-39.0	-42.3	3.6	8390750	95	7181
2025-01-23 19:19:56.25	304.11	75.10	-38.9	-41.1	3.4	8386814	95	6305
2025-01-23 19:19:56.65	304.59	74.95	-39.0	-41.1	3.3	8393932	95	6219
2025-01-23 19:19:57.05	305.06	74.80	-39.0	-41.2	3.5	8390750	96	6308
2025-01-23 19:19:57.45	305.52	74.64	-39.1	-40.5	3.3	8413330	96	5842
2025-01-23 19:19:57.86	305.98	74.48	-39.0	-42.2	3.6	8359931	95	7119
2025-01-23 19:19:58.26	306.42	74.33	-39.0	-40.9	3.3	8399642	95	6132
2025-01-23 19:19:58.66	306.86	74.17	-38.8	-41.8	3.6	8442535	95	6964
2025-01-23 19:19:59.06	307.28	74.01	-38.7	-40.1	3.4	8424419	95	5735
2025-01-23 19:19:59.46	307.69	73.85	-38.6	-40.9	3.6	8387180	95	6407
2025-01-23 19:19:59.87	308.11	73.69	-38.6	-39.6	3.5	8413387	95	5510
2025-01-23 19:20:00.27	308.51	73.53	-38.6	-40.9	3.6	8394435	95	6447
2025-01-23 19:20:00.67	308.90	73.37	-38.4	-39.0	3.6	8385978	95	5271
2025-01-23 19:20:01.07	309.28	73.21	-38.4	-40.3	3.6	8370117	95	6140
2025-01-23 19:20:01.48	309.66	73.05	-38.5	-39.4	3.6	8421054	95	5451
2025-01-23 19:20:01.88	310.03	72.89	-38.6	-41.1	3.6	8382408	95	6529
2025-01-23 19:20:02.28	310.39	72.73	-38.6	-40.0	3.5	8423686	95	5757
2025-01-23 19:20:02.68	310.74	72.56	-38.6	-39.6	3.4	8389286	95	5496
2025-01-23 19:20:03.09	311.10	72.40	-38.6	-40.2	3.6	8430484	95	5918
2025-01-23 19:20:03.49	311.44	72.24	-38.6	-39.6	3.4	8389022	95	5512
2025-01-23 19:20:03.89	311.77	72.07	-38.4	-39.8	3.7	8425117	95	5797
2025-01-23 19:20:04.29	312.10	71.91	-37.8	-38.2	3.7	8351749	94	5110
2025-01-23 19:20:04.70	312.43	71.74	-37.8	-39.8	4.0	8368995	93	6142
2025-01-23 19:20:05.10	312.74	71.58	-37.8	-38.5	3.8	8355400	93	5353
2025-01-23 19:20:05.50	313.05	71.41	-37.8	-39.8	3.7	8389125	93	6205
2025-01-23 19:20:05.90	313.35	71.25	-37.8	-38.4	3.8	8336940	93	5269
2025-01-23 19:20:06.31	313.66	71.08	-37.8	-39.9	3.7	8346015	93	6223
2025-01-23 19:20:06.71	313.95	70.92	-37.9	-38.6	3.7	8376651	93	5354
2025-01-23 19:20:07.11	314.23	70.75	-38.0	-40.2	3.7	8374580	93	6382
2025-01-23 19:20:07.51	314.51	70.59	-38.0	-39.1	3.6	8389286	93	5577
2025-01-23 19:20:07.91	314.79	70.42	-38.0	-40.3	3.7	8377315	93	6423
2025-01-23 19:20:08.32	315.07	70.25	-38.7	-40.6	3.4	8425472	94	6147

#Closed at: 2025-01-23 19:20:08