passes_logs/2026/01/23/R4.6S_Anadyr/R4.6S_Anadyr__20260123_153455_SUOMI_NPP_rec.log

#Pass ID: 20260123_153455_SUOMI NPP
#Satellite: SUOMI NPP
#Configuration: NPP
#almurnet v.1.7.20251203
#Start time: 2026-01-23 15:34:57

#Version: 2.2.20231116
#Station: R4.6S_Anadyr
#Location: 177.4865 lon 64.73178 lat
#TLE: 1 37849U 11061A   26022.50498765  .00000208  00000+0  11976-3 0  9992
#TLE: 2 37849  98.7820 324.4892 0002275  50.8149 309.3229 14.19528284737775

#Time	Az	El	Level	Level2	SNR	BER	BlckErr	Temp	State	Recorded	gain1	gain2
2026-01-23 15:34:57.33	22.52	0.11	-50.9	-63.4	3.4	1.52e+00	0	38	0	0	60	51740
2026-01-23 15:35:01.37	22.46	0.36	-51.0	-66.2	3.6	1.51e+00	0	39	104	0	60	74126
2026-01-23 15:35:05.41	22.39	0.60	-51.1	-66.3	3.6	1.51e+00	0	39	104	0	60	74496
2026-01-23 15:35:09.45	22.31	0.84	-51.0	-66.2	3.6	1.51e+00	0	39	104	0	60	73938
2026-01-23 15:35:13.49	22.24	1.09	-50.8	-66.0	3.6	1.51e+00	0	40	104	0	60	72215
2026-01-23 15:35:17.53	22.17	1.34	-50.4	-65.5	3.6	1.51e+00	0	40	104	0	60	68362
2026-01-23 15:35:21.57	22.09	1.59	-49.7	-64.9	3.6	1.51e+00	0	40	104	0	60	63224
2026-01-23 15:35:25.61	22.01	1.84	-49.6	-64.3	3.6	1.51e+00	0	40	104	0	60	59519
2026-01-23 15:35:29.65	21.93	2.09	-49.6	-64.4	3.6	1.51e+00	0	40	104	0	60	59769
2026-01-23 15:35:33.69	21.85	2.35	-49.6	-64.9	3.6	1.51e+00	0	40	104	0	60	63182
2026-01-23 15:35:37.73	21.77	2.61	-49.6	-64.1	3.6	1.51e+00	0	40	104	0	60	57743
2026-01-23 15:35:41.77	21.68	2.87	-49.5	-63.3	3.6	1.51e+00	0	40	104	0	60	52713
2026-01-23 15:35:45.81	21.60	3.14	-49.6	-64.7	3.6	1.51e+00	0	40	104	0	60	62198
2026-01-23 15:35:49.85	21.51	3.40	-49.3	-58.7	4.6	1.12e+00	0	40	0	0	60	31207
2026-01-23 15:35:53.89	21.42	3.67	-48.5	-54.5	8.6	4.75e-02	0	40	0	7340032	60	19156
2026-01-23 15:35:57.93	21.32	3.94	-49.5	-64.5	3.6	1.49e+00	0	40	104	11534336	60	60602
2026-01-23 15:36:01.97	21.23	4.22	-42.5	-44.0	19.6	0.00e+00	0	40	0	13631488	58	6426
2026-01-23 15:36:06.00	21.13	4.49	-41.8	-43.1	20.4	0.00e+00	0	40	0	20971520	58	5828
2026-01-23 15:36:10.04	21.04	4.77	-41.7	-42.9	20.7	0.00e+00	0	40	0	28311552	56	6347
2026-01-23 15:36:14.07	20.93	5.06	-41.5	-42.7	20.9	0.00e+00	0	40	0	35651584	56	6233
2026-01-23 15:36:18.11	20.83	5.34	-41.7	-42.9	20.9	0.00e+00	0	40	0	44040192	56	6355
2026-01-23 15:36:22.15	20.73	5.63	-41.6	-42.8	20.9	0.00e+00	0	40	0	51380224	56	6285
2026-01-23 15:36:26.18	20.62	5.92	-41.3	-42.5	21.3	0.00e+00	0	40	0	58720256	56	6073
2026-01-23 15:36:30.22	20.51	6.22	-41.2	-42.4	21.3	0.00e+00	0	40	0	66060288	56	5993
2026-01-23 15:36:34.18	20.40	6.51	-41.2	-42.3	21.6	0.00e+00	0	40	0	74448896	56	5941
2026-01-23 15:36:38.22	20.28	6.81	-41.0	-42.2	21.6	0.00e+00	0	40	0	81788928	56	5835
2026-01-23 15:36:42.26	20.16	7.11	-41.0	-42.1	21.6	0.00e+00	0	40	0	89128960	56	5809
2026-01-23 15:36:46.29	20.04	7.42	-41.1	-42.2	21.6	0.00e+00	0	40	0	96468992	56	5888
2026-01-23 15:36:50.33	19.91	7.73	-41.0	-42.1	21.7	0.00e+00	0	40	0	103809024	56	5803
2026-01-23 15:36:54.37	19.79	8.05	-40.4	-41.4	22.2	0.00e+00	0	40	0	112197632	54	6028
2026-01-23 15:36:58.41	19.66	8.37	-40.4	-41.5	22.3	0.00e+00	0	40	0	119537664	54	6054
2026-01-23 15:37:02.45	19.52	8.69	-40.3	-41.3	22.3	0.00e+00	0	40	0	126877696	54	5948
2026-01-23 15:37:06.48	19.38	9.02	-40.1	-41.1	22.5	0.00e+00	0	40	0	134217728	54	5809
2026-01-23 15:37:10.52	19.24	9.35	-40.0	-41.0	22.7	0.00e+00	0	40	0	142606336	54	5704
2026-01-23 15:37:14.56	19.10	9.69	-40.0	-40.9	22.5	0.00e+00	0	40	0	149946368	54	5689
2026-01-23 15:37:18.59	18.95	10.02	-39.8	-40.7	22.4	0.00e+00	0	40	0	157286400	52	6205
2026-01-23 15:37:22.63	18.80	10.37	-39.7	-40.7	22.9	0.00e+00	0	40	0	164626432	52	6203
2026-01-23 15:37:26.67	18.64	10.72	-39.7	-40.7	23.0	0.00e+00	0	40	0	171966464	52	6191
2026-01-23 15:37:30.71	18.48	11.07	-39.7	-40.7	22.9	0.00e+00	0	40	0	180355072	52	6196
2026-01-23 15:37:34.75	18.32	11.43	-39.4	-40.3	23.3	0.00e+00	0	40	0	187695104	52	5938
2026-01-23 15:37:38.78	18.15	11.79	-39.5	-40.5	23.1	0.00e+00	0	40	0	195035136	52	6034
2026-01-23 15:37:42.83	17.97	12.17	-39.2	-40.1	23.6	0.00e+00	0	40	0	202375168	52	5789
2026-01-23 15:37:46.87	17.79	12.54	-39.5	-40.4	23.3	0.00e+00	0	40	0	209715200	52	6009
2026-01-23 15:37:50.90	17.61	12.92	-39.4	-40.3	23.4	0.00e+00	0	41	0	218103808	52	5904
2026-01-23 15:37:54.94	17.42	13.31	-39.4	-40.3	23.5	0.00e+00	0	41	0	225443840	52	5908
2026-01-23 15:37:58.98	17.22	13.70	-39.5	-40.4	23.3	0.00e+00	0	40	0	232783872	52	6015
2026-01-23 15:38:03.02	17.02	14.09	-39.3	-40.2	23.5	0.00e+00	0	41	0	240123904	52	5858
2026-01-23 15:38:07.06	16.82	14.50	-39.3	-40.2	23.6	0.00e+00	0	41	0	248512512	52	5854
2026-01-23 15:38:11.10	16.60	14.91	-39.4	-40.3	23.5	0.00e+00	0	40	0	255852544	52	5899
2026-01-23 15:38:15.13	16.39	15.33	-39.3	-40.2	23.6	0.00e+00	0	41	0	263192576	52	5842
2026-01-23 15:38:19.17	16.16	15.75	-39.5	-40.4	23.5	0.00e+00	0	41	0	270532608	52	6016
2026-01-23 15:38:23.20	15.93	16.18	-39.2	-40.1	23.7	0.00e+00	0	41	0	277872640	52	5808
2026-01-23 15:38:27.25	15.69	16.62	-39.1	-40.0	23.7	0.00e+00	0	41	0	286261248	52	5741
2026-01-23 15:38:31.29	15.44	17.06	-39.0	-39.9	23.9	0.00e+00	0	41	0	293601280	52	5670
2026-01-23 15:38:35.33	15.18	17.52	-39.3	-40.1	23.7	0.00e+00	0	41	0	300941312	52	5826
2026-01-23 15:38:39.36	14.92	17.98	-39.1	-39.9	23.7	0.00e+00	0	41	0	308281344	52	5684
2026-01-23 15:38:43.40	14.65	18.45	-39.2	-40.1	23.8	0.00e+00	0	41	0	316669952	52	5763
2026-01-23 15:38:47.44	14.36	18.92	-39.1	-40.0	23.9	0.00e+00	0	41	0	324009984	52	5705
2026-01-23 15:38:51.48	14.07	19.41	-39.1	-39.9	23.9	0.00e+00	0	41	0	331350016	52	5683
2026-01-23 15:38:55.51	13.77	19.90	-39.4	-40.3	23.7	0.00e+00	0	41	0	338690048	52	5908
2026-01-23 15:38:59.55	13.46	20.41	-39.4	-40.3	23.7	0.00e+00	0	41	0	346030080	52	5949
2026-01-23 15:39:03.58	13.14	20.92	-39.8	-40.7	23.4	0.00e+00	0	41	0	354418688	52	6239
2026-01-23 15:39:07.62	12.80	21.44	-39.8	-40.7	23.3	0.00e+00	0	41	0	361758720	52	6229
2026-01-23 15:39:11.66	12.46	21.97	-39.6	-40.4	23.6	0.00e+00	0	41	0	369098752	52	6032
2026-01-23 15:39:15.70	12.10	22.52	-39.5	-40.4	23.7	0.00e+00	0	41	0	376438784	52	5979
2026-01-23 15:39:19.74	11.72	23.07	-39.6	-40.5	23.7	0.00e+00	0	41	0	384827392	52	6073
2026-01-23 15:39:23.78	11.34	23.63	-40.2	-41.2	23.1	0.00e+00	0	41	0	392167424	52	6552
2026-01-23 15:39:27.82	10.94	24.21	-40.0	-40.9	23.3	0.00e+00	0	41	0	399507456	52	6366
2026-01-23 15:39:31.85	10.52	24.79	-41.2	-42.3	22.2	0.00e+00	0	41	0	406847488	54	6616
2026-01-23 15:39:35.89	10.09	25.39	-40.6	-41.6	22.6	0.00e+00	0	41	0	414187520	54	6119
2026-01-23 15:39:39.92	9.64	26.00	-41.0	-42.0	22.4	0.00e+00	0	41	0	422576128	54	6459
2026-01-23 15:39:43.96	9.17	26.62	-41.2	-42.2	22.3	0.00e+00	0	41	0	429916160	54	6590
2026-01-23 15:39:48.00	8.68	27.26	-41.6	-42.6	22.0	0.00e+00	0	41	0	437256192	56	6173
2026-01-23 15:39:52.03	8.17	27.90	-41.2	-42.2	22.2	0.00e+00	0	41	0	444596224	56	5863
2026-01-23 15:39:56.07	7.64	28.56	-42.0	-43.1	21.7	0.00e+00	0	41	0	452984832	56	6506
2026-01-23 15:40:00.11	7.08	29.23	-42.3	-43.5	21.0	0.00e+00	0	41	0	460324864	56	6801
2026-01-23 15:40:04.14	6.50	29.92	-41.9	-43.0	21.7	0.00e+00	0	41	0	467664896	56	6437
2026-01-23 15:40:08.18	5.90	30.62	-41.8	-42.9	21.8	0.00e+00	0	41	0	475004928	56	6346
2026-01-23 15:40:12.22	5.27	31.33	-41.7	-42.8	21.8	0.00e+00	0	41	0	482344960	56	6275
2026-01-23 15:40:16.26	4.60	32.05	-41.5	-42.5	21.8	0.00e+00	0	41	0	490733568	54	6842
2026-01-23 15:40:20.29	3.91	32.79	-42.0	-43.1	21.5	0.00e+00	0	41	0	498073600	56	6483
2026-01-23 15:40:24.32	3.19	33.54	-42.2	-43.4	21.3	0.00e+00	0	41	0	505413632	58	5976
2026-01-23 15:40:28.36	2.42	34.31	-42.2	-43.3	21.4	0.00e+00	0	41	0	512753664	56	6672
2026-01-23 15:40:32.40	1.62	35.09	-43.7	-45.2	20.0	0.00e+00	0	41	0	520093696	60	6582
2026-01-23 15:40:36.44	0.79	35.88	-44.2	-45.8	19.2	0.00e+00	0	41	0	528482304	60	7047
2026-01-23 15:40:40.48	359.90	36.68	-45.4	-47.4	17.4	0.00e+00	0	41	0	535822336	60	8495
2026-01-23 15:40:44.51	358.98	37.49	-43.0	-44.3	20.5	0.00e+00	0	41	0	543162368	60	5942
2026-01-23 15:40:48.55	358.00	38.32	-42.0	-43.1	21.7	0.00e+00	0	41	0	550502400	56	6493
2026-01-23 15:40:52.59	356.97	39.16	-42.4	-43.6	21.1	0.00e+00	0	41	0	558891008	56	6873
2026-01-23 15:40:56.63	355.89	40.00	-44.2	-45.8	19.2	0.00e+00	0	41	0	566231040	60	7075
2026-01-23 15:41:00.66	354.75	40.86	-45.1	-46.9	18.1	0.00e+00	0	41	0	573571072	60	8045
2026-01-23 15:41:04.70	353.54	41.72	-45.0	-46.9	18.2	0.00e+00	0	41	0	580911104	60	7980
2026-01-23 15:41:08.74	352.27	42.59	-43.7	-45.2	19.9	0.00e+00	0	41	0	588251136	60	6562
2026-01-23 15:41:12.77	350.93	43.45	-41.9	-43.0	21.6	0.00e+00	0	41	0	596639744	58	5741
2026-01-23 15:41:16.81	349.51	44.32	-41.8	-42.9	21.6	0.00e+00	0	41	0	603979776	56	6342
2026-01-23 15:41:20.85	348.01	45.19	-43.0	-44.3	20.6	0.00e+00	0	41	0	611319808	58	6683
2026-01-23 15:41:24.89	346.42	46.06	-42.2	-43.3	21.5	0.00e+00	0	41	0	618659840	58	5958
2026-01-23 15:41:28.93	344.75	46.92	-41.8	-42.9	21.8	0.00e+00	0	41	0	627048448	56	6376
2026-01-23 15:41:32.97	342.97	47.76	-41.4	-42.4	22.1	0.00e+00	0	41	0	634388480	56	6016
2026-01-23 15:41:37.00	341.11	48.59	-41.9	-43.1	21.5	0.00e+00	0	41	0	641728512	56	6495
2026-01-23 15:41:41.04	339.14	49.40	-42.6	-43.8	20.7	0.00e+00	0	41	0	649068544	56	7087
2026-01-23 15:41:45.07	337.06	50.19	-39.6	-40.4	23.8	0.00e+00	0	41	0	656408576	52	6008
2026-01-23 15:41:49.11	334.88	50.95	-39.8	-40.7	23.4	0.00e+00	0	41	0	664797184	52	6214
2026-01-23 15:41:53.15	332.58	51.67	-39.3	-40.2	23.9	0.00e+00	0	41	0	672137216	50	6558
2026-01-23 15:41:57.19	330.16	52.35	-40.6	-41.6	22.7	0.00e+00	0	41	0	679477248	54	6148
2026-01-23 15:42:01.23	327.64	52.99	-40.7	-41.8	22.5	0.00e+00	0	41	0	686817280	54	6305
2026-01-23 15:42:05.27	325.01	53.58	-40.2	-41.1	22.4	0.00e+00	0	41	0	695205888	54	5799
2026-01-23 15:42:09.31	322.27	54.10	-40.4	-41.5	22.8	0.00e+00	0	41	0	702545920	52	6774
2026-01-23 15:42:13.34	319.45	54.57	-39.6	-40.5	23.6	0.00e+00	0	41	0	709885952	52	6069
2026-01-23 15:42:17.38	316.53	54.96	-39.6	-40.5	23.6	0.00e+00	0	41	0	717225984	50	6804
2026-01-23 15:42:21.42	313.54	55.28	-38.3	-39.1	24.5	0.00e+00	0	41	0	724566016	50	5823
2026-01-23 15:42:25.46	310.48	55.53	-37.7	-38.5	24.9	0.00e+00	0	41	0	732954624	48	6082
2026-01-23 15:42:29.49	307.39	55.69	-38.0	-38.8	24.7	0.00e+00	0	41	0	740294656	48	6302
2026-01-23 15:42:33.54	304.26	55.77	-37.3	-38.1	25.3	0.00e+00	0	41	0	747634688	48	5768
2026-01-23 15:42:37.57	301.13	55.77	-37.0	-37.7	25.4	0.00e+00	0	41	0	754974720	48	5551
2026-01-23 15:42:41.61	298.00	55.68	-37.5	-38.3	25.0	0.00e+00	0	41	0	763363328	48	5927
2026-01-23 15:42:45.65	294.91	55.51	-37.9	-38.8	24.8	0.00e+00	0	41	0	770703360	48	6249
2026-01-23 15:42:49.69	291.86	55.26	-38.3	-39.1	24.6	0.00e+00	0	41	0	778043392	48	6511
2026-01-23 15:42:53.72	288.88	54.93	-37.2	-38.0	25.3	0.00e+00	0	41	0	785383424	46	6393
2026-01-23 15:42:57.76	285.96	54.53	-36.6	-37.3	25.5	0.00e+00	0	41	0	792723456	46	5963
2026-01-23 15:43:01.80	283.14	54.06	-37.3	-38.1	25.3	0.00e+00	0	41	0	801112064	46	6469
2026-01-23 15:43:05.84	280.41	53.52	-37.9	-38.7	24.8	0.00e+00	0	41	0	808452096	48	6207
2026-01-23 15:43:09.87	277.79	52.93	-39.4	-40.3	23.8	0.00e+00	0	41	0	815792128	50	6633
2026-01-23 15:43:13.91	275.28	52.29	-39.6	-40.5	23.5	0.00e+00	0	41	0	823132160	52	6077
2026-01-23 15:43:17.95	272.87	51.60	-41.0	-42.0	22.6	0.00e+00	0	41	0	831520768	54	6426
2026-01-23 15:43:21.98	270.58	50.87	-40.8	-41.8	22.7	0.00e+00	0	41	0	838860800	52	7014
2026-01-23 15:43:26.02	268.40	50.11	-39.6	-40.4	23.5	0.00e+00	0	41	0	846200832	52	6033
2026-01-23 15:43:30.06	266.33	49.32	-40.3	-41.2	22.8	0.00e+00	0	41	0	853540864	54	5887
2026-01-23 15:43:34.09	264.37	48.51	-41.3	-42.3	22.3	0.00e+00	0	41	0	860880896	54	6674
2026-01-23 15:43:38.13	262.51	47.67	-42.5	-43.7	21.2	0.00e+00	0	41	0	869269504	56	6936
2026-01-23 15:43:42.17	260.74	46.82	-46.1	-48.4	16.8	0.00e+00	0	41	0	876609536	60	9524
2026-01-23 15:43:46.21	259.07	45.96	-43.5	-45.0	20.2	0.00e+00	0	41	0	883949568	60	6410
2026-01-23 15:43:50.25	257.49	45.09	-41.5	-42.5	22.0	0.00e+00	0	41	0	891289600	56	6085
2026-01-23 15:43:54.28	256.00	44.22	-40.7	-41.6	22.8	0.00e+00	0	41	0	899678208	54	6142
2026-01-23 15:43:58.32	254.58	43.35	-42.8	-44.0	20.9	0.00e+00	0	41	0	907018240	58	6424
2026-01-23 15:44:02.36	253.24	42.48	-44.2	-45.8	19.3	0.00e+00	0	41	0	914358272	60	7053
2026-01-23 15:44:06.40	251.97	41.61	-42.6	-43.8	20.7	0.00e+00	0	41	0	921698304	60	5628
2026-01-23 15:44:10.44	250.77	40.75	-43.1	-44.4	20.5	0.00e+00	0	41	0	929038336	58	6741
2026-01-23 15:44:14.48	249.63	39.89	-43.7	-45.2	19.4	0.00e+00	0	41	0	937426944	60	6614
2026-01-23 15:44:18.52	248.55	39.04	-42.3	-43.6	21.0	0.00e+00	0	41	0	944766976	58	6128
2026-01-23 15:44:22.56	247.52	38.20	-41.9	-43.0	21.7	0.00e+00	0	41	0	952107008	56	6449
2026-01-23 15:44:26.60	246.55	37.37	-42.8	-44.1	20.7	0.00e+00	0	41	0	959447040	58	6472
2026-01-23 15:44:30.63	245.63	36.56	-43.7	-45.1	19.9	0.00e+00	0	41	0	967835648	60	6525
2026-01-23 15:44:34.67	244.75	35.76	-42.3	-43.4	21.2	0.00e+00	0	41	0	975175680	58	6026
2026-01-23 15:44:38.71	243.91	34.96	-43.9	-45.3	19.5	0.00e+00	0	41	0	982515712	60	6671
2026-01-23 15:44:42.75	243.11	34.18	-42.2	-43.3	21.3	0.00e+00	0	41	0	989855744	58	5956
2026-01-23 15:44:46.78	242.35	33.42	-41.4	-42.4	22.0	0.00e+00	0	41	0	997195776	54	6754
2026-01-23 15:44:50.82	241.63	32.67	-41.8	-42.8	21.7	0.00e+00	0	41	0	1005584384	56	6311
2026-01-23 15:44:54.86	240.93	31.93	-42.5	-43.8	21.1	0.00e+00	0	41	0	1012924416	56	7041
2026-01-23 15:44:58.90	240.27	31.20	-43.6	-45.1	19.8	0.00e+00	0	41	0	1020264448	58	7281
2026-01-23 15:45:02.93	239.64	30.49	-42.2	-43.4	21.3	0.00e+00	0	41	0	1027604480	58	6001
2026-01-23 15:45:06.97	239.04	29.79	-41.0	-42.0	22.6	0.00e+00	0	41	0	1035993088	56	5710
2026-01-23 15:45:11.01	238.46	29.10	-41.4	-42.5	22.1	0.00e+00	0	41	0	1043333120	54	6830
2026-01-23 15:45:15.05	237.90	28.43	-42.4	-43.6	21.0	0.00e+00	0	41	0	1050673152	56	6903
2026-01-23 15:45:19.08	237.37	27.77	-40.4	-41.4	23.0	0.00e+00	0	41	0	1058013184	56	5320
2026-01-23 15:45:23.12	236.86	27.12	-39.9	-40.8	23.3	0.00e+00	0	41	0	1065353216	52	6311
2026-01-23 15:45:27.15	236.38	26.49	-40.2	-41.1	22.9	0.00e+00	0	41	0	1073741824	52	6504
2026-01-23 15:45:31.19	235.91	25.87	-41.1	-42.1	22.4	0.00e+00	0	41	0	1081081856	54	6525
2026-01-23 15:45:35.23	235.45	25.26	-40.7	-41.7	22.6	0.00e+00	0	41	0	1088421888	54	6212
2026-01-23 15:45:39.27	235.02	24.66	-40.0	-40.9	23.2	0.00e+00	0	41	0	1095761920	52	6337
2026-01-23 15:45:43.30	234.60	24.08	-40.5	-41.5	22.7	0.00e+00	0	41	0	1103101952	52	6779
2026-01-23 15:45:47.34	234.20	23.50	-40.3	-41.2	23.0	0.00e+00	0	41	0	1111490560	52	6596
2026-01-23 15:45:51.38	233.81	22.94	-41.1	-42.2	22.1	0.00e+00	0	41	0	1118830592	54	6542
2026-01-23 15:45:55.42	233.44	22.38	-42.4	-43.6	21.0	0.00e+00	0	41	0	1126170624	56	6880
2026-01-23 15:45:59.46	233.08	21.84	-41.5	-42.6	22.0	0.00e+00	0	41	0	1133510656	56	6106
2026-01-23 15:46:03.50	232.73	21.31	-41.4	-42.5	22.0	0.00e+00	0	41	0	1141899264	56	6040
2026-01-23 15:46:07.54	232.40	20.78	-42.0	-43.1	21.4	0.00e+00	0	41	0	1149239296	56	6510
2026-01-23 15:46:11.58	232.07	20.27	-41.3	-42.3	22.1	0.00e+00	0	41	0	1156579328	56	5945
2026-01-23 15:46:15.61	231.76	19.77	-40.5	-41.4	22.7	0.00e+00	0	41	0	1163919360	54	6020
2026-01-23 15:46:19.65	231.46	19.27	-40.3	-41.3	22.8	0.00e+00	0	41	0	1171259392	54	5909
2026-01-23 15:46:23.69	231.17	18.78	-40.2	-41.1	22.8	0.00e+00	0	41	0	1179648000	54	5814
2026-01-23 15:46:27.73	230.88	18.31	-41.1	-42.1	22.0	0.00e+00	0	41	0	1186988032	54	6537
2026-01-23 15:46:31.77	230.61	17.84	-41.5	-42.5	21.8	0.00e+00	0	41	0	1194328064	56	6077
2026-01-23 15:46:35.80	230.34	17.38	-41.8	-42.9	21.5	0.00e+00	0	41	0	1201668096	56	6390
2026-01-23 15:46:39.84	230.09	16.92	-41.9	-43.1	21.3	0.00e+00	0	41	0	1210056704	56	6474
2026-01-23 15:46:43.87	229.84	16.48	-42.0	-43.2	21.2	0.00e+00	0	41	0	1217396736	56	6560
2026-01-23 15:46:47.91	229.60	16.04	-42.4	-43.6	20.9	0.00e+00	0	41	0	1224736768	56	6867
2026-01-23 15:46:51.95	229.36	15.61	-42.4	-43.6	20.8	0.00e+00	0	41	0	1232076800	56	6884
2026-01-23 15:46:55.98	229.13	15.19	-41.7	-42.8	21.5	0.00e+00	0	41	0	1239416832	56	6295
2026-01-23 15:47:00.02	228.91	14.77	-42.2	-43.4	21.0	0.00e+00	0	41	0	1247805440	56	6717
2026-01-23 15:47:04.06	228.70	14.36	-42.2	-43.4	20.9	0.00e+00	0	41	0	1255145472	56	6756
2026-01-23 15:47:08.10	228.49	13.96	-42.2	-43.5	20.8	0.00e+00	0	41	0	1262485504	56	6784
2026-01-23 15:47:12.13	228.29	13.56	-42.2	-43.5	20.9	0.00e+00	0	41	0	1269825536	56	6777
2026-01-23 15:47:16.17	228.09	13.17	-42.5	-43.8	20.5	0.00e+00	0	41	0	1278214144	56	7086
2026-01-23 15:47:20.21	227.90	12.78	-43.0	-44.4	20.0	0.00e+00	0	41	0	1285554176	58	6724
2026-01-23 15:47:24.25	227.71	12.40	-43.4	-44.9	19.5	0.00e+00	0	42	0	1292894208	58	7117
2026-01-23 15:47:28.28	227.53	12.03	-43.9	-45.5	18.8	0.00e+00	0	42	0	1300234240	60	6841
2026-01-23 15:47:32.32	227.36	11.66	-44.1	-45.8	18.4	0.00e+00	0	42	0	1307574272	60	7087
2026-01-23 15:47:36.36	227.18	11.29	-43.7	-45.3	19.1	0.00e+00	0	42	0	1315962880	60	6636
2026-01-23 15:47:40.40	227.02	10.93	-43.3	-44.8	19.5	0.00e+00	0	42	0	1323302912	60	6271
2026-01-23 15:47:44.44	226.85	10.58	-43.0	-44.4	19.8	0.00e+00	0	42	0	1330642944	60	6031
2026-01-23 15:47:48.48	226.70	10.23	-43.1	-44.5	19.6	0.00e+00	0	41	0	1337982976	60	6089
2026-01-23 15:47:52.52	226.54	9.88	-43.5	-45.0	19.1	0.00e+00	0	42	0	1346371584	60	6404
2026-01-23 15:47:56.56	226.39	9.54	-43.2	-44.7	19.5	0.00e+00	0	42	0	1353711616	60	6184
2026-01-23 15:48:00.60	226.24	9.21	-43.5	-45.0	19.2	0.00e+00	0	42	0	1361051648	60	6427
2026-01-23 15:48:04.63	226.10	8.88	-43.6	-45.2	19.0	0.00e+00	0	42	0	1368391680	60	6587
2026-01-23 15:48:08.67	225.96	8.55	-43.8	-45.5	18.6	0.00e+00	0	42	0	1375731712	60	6828
2026-01-23 15:48:12.70	225.82	8.23	-44.0	-45.7	18.4	0.00e+00	0	42	0	1384120320	60	6959
2026-01-23 15:48:16.74	225.69	7.91	-44.0	-45.8	18.3	0.00e+00	0	42	0	1391460352	60	7008
2026-01-23 15:48:20.78	225.56	7.59	-44.3	-46.1	18.1	0.00e+00	0	42	0	1398800384	60	7304
2026-01-23 15:48:24.81	225.43	7.28	-44.2	-46.1	17.9	0.00e+00	0	42	0	1406140416	60	7260
2026-01-23 15:48:28.85	225.31	6.97	-44.7	-46.7	17.5	0.00e+00	0	42	0	1413480448	60	7791
2026-01-23 15:48:32.89	225.18	6.67	-45.1	-47.3	16.6	0.00e+00	0	41	0	1421869056	60	8379
2026-01-23 15:48:36.93	225.07	6.37	-45.4	-47.9	16.0	0.00e+00	0	41	0	1429209088	60	8931
2026-01-23 15:48:40.97	224.95	6.07	-45.4	-47.8	16.0	0.00e+00	0	42	0	1436549120	60	8856
2026-01-23 15:48:45.01	224.84	5.77	-45.7	-48.3	15.5	0.00e+00	0	42	0	1443889152	60	9429
2026-01-23 15:48:49.04	224.73	5.48	-45.7	-48.4	15.2	7.00e-07	0	41	0	1452277760	60	9476
2026-01-23 15:48:53.08	224.62	5.19	-46.0	-49.0	14.6	0.00e+00	0	42	0	1459617792	60	10136
2026-01-23 15:48:57.12	224.51	4.91	-46.0	-48.9	14.5	0.00e+00	0	42	0	1466957824	60	10123
2026-01-23 15:49:01.16	224.41	4.63	-46.2	-49.4	14.1	7.00e-07	0	41	0	1474297856	60	10631
2026-01-23 15:49:05.19	224.30	4.35	-46.1	-49.2	14.1	0.00e+00	0	41	0	1481637888	60	10440
2026-01-23 15:49:09.23	224.20	4.07	-46.1	-49.4	13.8	2.20e-06	0	41	0	1490026496	60	10653
2026-01-23 15:49:13.27	224.11	3.79	-46.0	-49.2	13.9	3.00e-06	0	41	0	1497366528	60	10402
2026-01-23 15:49:17.30	224.01	3.52	-46.2	-49.7	13.3	5.30e-06	0	42	0	1504706560	60	11027
2026-01-23 15:49:21.34	223.92	3.25	-46.2	-49.7	13.5	2.13e-05	0	42	0	1512046592	60	11093
2026-01-23 15:49:25.38	223.83	2.99	-47.9	-55.1	3.8	1.22e-05	0	41	0	1520435200	60	20472
2026-01-23 15:49:29.42	223.74	2.72	-50.5	-65.7	3.6	1.51e+00	0	41	104	1520435200	60	69476
2026-01-23 15:49:33.46	223.65	2.46	-50.8	-66.0	3.6	1.51e+00	0	41	104	1520435200	60	71962
2026-01-23 15:49:37.50	223.56	2.20	-50.9	-66.1	3.6	1.51e+00	0	41	104	1520435200	60	72817
2026-01-23 15:49:41.53	223.48	1.95	-50.8	-66.0	3.6	1.51e+00	0	41	104	1520435200	60	71854
2026-01-23 15:49:45.57	223.39	1.69	-50.7	-66.0	3.6	1.51e+00	0	41	104	1520435200	60	72174
2026-01-23 15:49:49.61	223.31	1.44	-50.7	-65.9	3.6	1.51e+00	0	41	104	1520435200	60	71617
2026-01-23 15:49:53.64	223.23	1.19	-50.7	-66.0	3.6	1.51e+00	0	41	104	1520435200	60	71749
2026-01-23 15:49:57.69	223.15	0.94	-50.7	-65.9	3.6	1.51e+00	0	41	104	1520435200	60	71375
2026-01-23 15:50:01.73	223.08	0.69	-50.7	-65.9	3.6	1.51e+00	0	41	104	1520435200	60	71384
2026-01-23 15:50:05.76	223.00	0.45	-50.7	-65.9	3.6	1.51e+00	0	41	104	1520435200	60	71377
2026-01-23 15:50:09.81	222.93	0.21	-50.7	-65.9	3.6	1.51e+00	0	41	104	1520435200	60	71385
2026-01-23 15:50:13.85	222.86	-0.03	-50.7	-65.9	3.6	1.51e+00	0	41	104	1520435200	60	71437

#Closed at: 2026-01-23 15:50:13
#Recorded file [1520 MB]: D:/lorett/data/35029_260124_033457.dat