passes_logs/2026/01/23/R4.6S_Anadyr/R4.6S_Anadyr__20260123_094432_TY-42_rec.log

#Pass ID: 20260123_094432_TY-42
#Satellite: TY-42
#Configuration: TY-42_900M
#almurnet v.1.7.20251203
#Start time: 2026-01-23 09:45:04

#Version: 2.2.20231116
#Station: R4.6S_Anadyr
#Location: 177.4865 lon 64.73178 lat
#TLE: 1 64048U 25103A   26022.94299769  .00008011  00000-0  38191-3 0 09995
#TLE: 2 64048 097.4121 098.2110 0001873 095.7304 297.1754 15.19173584 38028

#Time	Az	El	Level	Level2	SNR	BER	BlckErr	Temp	State	Recorded	gain1	gain2
2026-01-23 09:45:04.15	170.05	2.17	-51.1	-62.7	3.5	8.44e-01	0	39	0	0	60	49583
2026-01-23 09:45:07.17	170.12	2.38	-49.8	-52.3	6.1	0.00e+00	0	40	104	0	60	50195
2026-01-23 09:45:10.21	170.19	2.60	-49.8	-52.3	6.1	0.00e+00	0	40	104	0	60	50368
2026-01-23 09:45:13.24	170.26	2.81	-49.8	-52.3	6.1	0.00e+00	0	41	104	0	60	50379
2026-01-23 09:45:16.26	170.33	3.03	-49.8	-52.3	6.1	0.00e+00	0	41	104	0	60	50356
2026-01-23 09:45:19.29	170.41	3.26	-49.8	-52.2	6.1	0.00e+00	0	41	104	0	60	50172
2026-01-23 09:45:22.32	170.48	3.48	-49.8	-52.2	6.1	0.00e+00	0	41	104	0	60	50161
2026-01-23 09:45:25.35	170.56	3.71	-49.8	-52.3	6.1	0.00e+00	0	41	104	0	60	50260
2026-01-23 09:45:28.38	170.64	3.94	-49.8	-52.2	6.1	0.00e+00	0	41	104	0	60	50007
2026-01-23 09:45:31.41	170.72	4.17	-49.8	-52.2	6.1	0.00e+00	0	41	104	0	60	50140
2026-01-23 09:45:34.43	170.80	4.40	-49.8	-52.3	6.1	0.00e+00	0	41	104	0	60	50206
2026-01-23 09:45:37.46	170.88	4.64	-49.9	-52.4	6.1	0.00e+00	0	41	104	0	60	50834
2026-01-23 09:45:40.49	170.97	4.88	-49.9	-52.4	6.1	0.00e+00	0	41	104	0	60	51004
2026-01-23 09:45:43.52	171.05	5.12	-49.9	-52.4	6.1	0.00e+00	0	41	104	0	60	51333
2026-01-23 09:45:46.55	171.14	5.37	-49.9	-52.4	6.1	0.00e+00	0	41	104	0	60	51259
2026-01-23 09:45:49.58	171.23	5.62	-36.3	-36.7	10.8	0.00e+00	630	42	104	16777216	52	13209
2026-01-23 09:45:52.60	171.32	5.87	-31.5	-31.9	15.1	3.54e-02	0	42	0	234881024	38	17156
2026-01-23 09:45:55.63	171.41	6.13	-30.3	-30.7	15.5	1.92e-03	0	42	0	578813952	36	16738
2026-01-23 09:45:58.66	171.50	6.38	-30.0	-30.5	15.6	1.73e-03	0	42	0	914358272	36	16265
2026-01-23 09:46:01.69	171.60	6.65	-29.8	-30.2	15.6	1.18e-03	0	42	0	1258291200	36	15827
2026-01-23 09:46:04.72	171.70	6.91	-29.8	-30.2	15.6	8.77e-04	0	42	0	1602224128	34	17732
2026-01-23 09:46:07.75	171.80	7.18	-29.5	-30.0	15.7	8.83e-04	0	42	0	1937768448	34	17242
2026-01-23 09:46:10.78	171.90	7.45	-29.5	-30.0	15.8	6.21e-04	0	42	0	2281701376	34	17221
2026-01-23 09:46:13.81	172.00	7.73	-29.4	-29.8	15.7	5.34e-04	0	42	0	2617245696	34	16998
2026-01-23 09:46:16.84	172.11	8.01	-29.1	-29.5	15.9	5.50e-04	0	42	0	2961178624	34	16333
2026-01-23 09:46:19.86	172.22	8.30	-28.9	-29.3	15.9	3.16e-04	0	43	0	3305111552	34	16041
2026-01-23 09:46:22.89	172.33	8.59	-28.7	-29.2	15.9	2.18e-04	0	43	0	3640655872	32	17628
2026-01-23 09:46:25.92	172.44	8.88	-28.8	-29.2	15.9	3.00e-04	0	43	0	3984588800	32	17669
2026-01-23 09:46:28.95	172.56	9.18	-28.7	-29.1	16.0	1.85e-04	0	43	0	4328521728	32	17583
2026-01-23 09:46:31.98	172.68	9.48	-28.5	-28.9	16.1	1.31e-04	0	43	0	4664066048	32	17128
2026-01-23 09:46:35.01	172.80	9.79	-28.2	-28.7	16.1	5.44e-05	0	43	0	5007998976	32	16638
2026-01-23 09:46:38.04	172.92	10.10	-28.2	-28.6	16.1	1.80e-04	0	43	0	5351931904	32	16508
2026-01-23 09:46:41.07	173.05	10.42	-27.9	-28.3	16.1	1.14e-04	0	43	0	5687476224	32	16053
2026-01-23 09:46:44.10	173.18	10.75	-27.8	-28.2	16.2	7.62e-05	0	43	0	6031409152	30	17720
2026-01-23 09:46:47.12	173.32	11.07	-27.8	-28.2	16.3	2.72e-05	0	43	0	6375342080	30	17670
2026-01-23 09:46:50.16	173.46	11.41	-27.4	-27.8	16.3	3.81e-05	0	43	0	6710886400	30	16920
2026-01-23 09:46:53.18	173.60	11.75	-27.4	-27.8	16.3	3.26e-05	0	43	0	7054819328	30	16906
2026-01-23 09:46:56.21	173.74	12.10	-27.2	-27.6	16.3	3.26e-05	0	43	0	7398752256	30	16613
2026-01-23 09:46:59.24	173.89	12.45	-27.2	-27.7	16.3	5.40e-06	0	43	0	7734296576	30	16671
2026-01-23 09:47:02.27	174.04	12.81	-26.9	-27.3	16.4	1.63e-05	0	43	0	8078229504	30	15966
2026-01-23 09:47:05.29	174.20	13.18	-26.8	-27.3	16.4	5.40e-06	0	43	0	8413773824	28	17826
2026-01-23 09:47:08.32	174.36	13.56	-26.6	-27.1	16.4	1.08e-05	0	43	0	8757706752	28	17432
2026-01-23 09:47:11.36	174.53	13.94	-26.6	-27.0	16.4	1.08e-05	0	43	0	9093251072	28	17358
2026-01-23 09:47:14.39	174.70	14.33	-26.4	-26.8	16.5	0.00e+00	0	44	0	9437184000	28	16965
2026-01-23 09:47:17.42	174.88	14.73	-26.2	-26.7	16.5	5.40e-06	0	43	0	9781116928	28	16619
2026-01-23 09:47:20.45	175.06	15.13	-25.9	-26.4	16.5	0.00e+00	0	43	0	10116661248	28	16086
2026-01-23 09:47:23.48	175.25	15.55	-25.8	-26.2	16.5	0.00e+00	0	44	0	10460594176	28	15851
2026-01-23 09:47:26.51	175.44	15.98	-25.7	-26.2	16.6	1.08e-05	0	44	0	10796138496	26	17686
2026-01-23 09:47:29.54	175.64	16.41	-25.6	-26.1	16.6	0.00e+00	0	44	0	11140071424	26	17454
2026-01-23 09:47:32.57	175.84	16.85	-25.4	-25.8	16.7	0.00e+00	0	44	0	11484004352	26	16979
2026-01-23 09:47:35.59	176.06	17.31	-25.2	-25.7	16.7	0.00e+00	0	44	0	11819548672	26	16627
2026-01-23 09:47:38.62	176.28	17.77	-24.9	-25.3	16.7	0.00e+00	0	44	0	12163481600	26	16032
2026-01-23 09:47:41.65	176.50	18.25	-24.8	-25.3	16.7	0.00e+00	0	44	0	12507414528	26	15883
2026-01-23 09:47:44.68	176.74	18.73	-24.6	-25.1	16.8	0.00e+00	0	44	0	12842958848	24	17415
2026-01-23 09:47:47.70	176.98	19.23	-24.3	-24.7	16.8	0.00e+00	0	44	0	13186891776	24	16797
2026-01-23 09:47:50.73	177.24	19.74	-24.2	-24.6	16.8	0.00e+00	0	44	0	13530824704	24	16569
2026-01-23 09:47:53.76	177.50	20.27	-24.1	-24.6	16.9	0.00e+00	0	44	0	13866369024	24	16450
2026-01-23 09:47:56.79	177.77	20.81	-23.9	-24.3	16.9	0.00e+00	0	44	0	14210301952	24	16040
2026-01-23 09:47:59.82	178.05	21.36	-23.6	-24.1	17.0	0.00e+00	0	44	0	14554234880	22	17435
2026-01-23 09:48:02.85	178.35	21.93	-23.6	-24.0	17.0	0.00e+00	0	44	0	14889779200	22	17309
2026-01-23 09:48:05.87	178.65	22.51	-23.3	-23.8	17.0	0.00e+00	0	44	0	15233712128	22	16816
2026-01-23 09:48:08.90	178.97	23.11	-23.0	-23.4	17.0	0.00e+00	0	44	0	15569256448	22	16231
2026-01-23 09:48:11.93	179.31	23.72	-22.9	-23.3	17.0	0.00e+00	0	44	0	15913189376	22	15963
2026-01-23 09:48:14.96	179.65	24.36	-22.4	-22.8	17.1	0.00e+00	0	44	0	16257122304	20	16977
2026-01-23 09:48:17.99	180.02	25.01	-22.0	-22.4	17.1	0.00e+00	0	44	0	16592666624	20	16226
2026-01-23 09:48:21.02	180.40	25.68	-21.7	-22.1	17.2	0.00e+00	0	44	0	16936599552	18	17592
2026-01-23 09:48:24.05	180.79	26.37	-21.6	-22.1	17.2	0.00e+00	0	44	0	17272143872	18	17423
2026-01-23 09:48:27.08	181.21	27.08	-21.4	-21.9	17.2	0.00e+00	0	44	0	17616076800	18	17042
2026-01-23 09:48:30.11	181.65	27.81	-21.0	-21.4	17.2	0.00e+00	0	44	0	17951621120	18	16216
2026-01-23 09:48:33.14	182.11	28.56	-20.9	-21.3	17.2	0.00e+00	0	44	0	18295554048	18	16043
2026-01-23 09:48:36.17	182.59	29.34	-20.5	-20.9	17.2	0.00e+00	0	44	0	18639486976	16	17140
2026-01-23 09:48:39.20	183.10	30.14	-50.7	-53.2	6.1	0.00e+00	0	44	104	18882756608	60	55839
2026-01-23 09:48:42.23	183.64	30.97	-50.7	-53.2	6.1	0.00e+00	0	44	104	18882756608	60	56000
2026-01-23 09:48:45.26	184.20	31.82	-50.6	-53.2	6.1	0.00e+00	0	43	104	18882756608	60	55703
2026-01-23 09:48:48.28	184.80	32.69	-50.6	-53.2	6.1	0.00e+00	0	43	104	18882756608	60	55761
2026-01-23 09:48:51.32	185.44	33.60	-50.6	-53.2	6.1	0.00e+00	0	43	104	18882756608	60	55782
2026-01-23 09:48:54.35	186.11	34.54	-50.6	-53.1	6.1	0.00e+00	0	43	104	18882756608	60	55393
2026-01-23 09:48:57.37	186.82	35.50	-50.6	-53.2	6.1	0.00e+00	0	44	104	18882756608	60	55945
2026-01-23 09:49:00.40	187.58	36.49	-50.6	-53.1	6.1	0.00e+00	0	44	104	18882756608	60	55533
2026-01-23 09:49:03.43	188.39	37.51	-50.7	-53.2	6.1	0.00e+00	0	43	104	18882756608	60	55953
2026-01-23 09:49:06.46	189.26	38.57	-50.8	-53.4	6.1	0.00e+00	0	43	104	18882756608	60	57032
2026-01-23 09:49:09.49	190.19	39.65	-50.8	-53.4	6.1	0.00e+00	0	43	104	18882756608	60	57328
2026-01-23 09:49:12.52	191.18	40.76	-50.8	-53.3	6.1	0.00e+00	0	43	104	18882756608	60	56890
2026-01-23 09:49:15.55	192.25	41.91	-50.9	-53.4	6.1	0.00e+00	0	44	104	18882756608	60	57318
2026-01-23 09:49:18.58	193.40	43.08	-51.0	-53.4	6.1	0.00e+00	0	43	104	18882756608	60	57614
2026-01-23 09:49:21.61	194.64	44.29	-51.0	-53.5	6.1	0.00e+00	0	43	104	18882756608	60	57695
2026-01-23 09:49:24.64	195.99	45.52	-51.0	-53.5	6.1	0.00e+00	0	43	104	18882756608	60	57920
2026-01-23 09:49:27.67	197.44	46.78	-51.1	-53.5	6.1	0.00e+00	0	43	104	18882756608	60	58217
2026-01-23 09:49:30.70	199.02	48.05	-51.0	-53.5	6.1	0.00e+00	0	43	104	18882756608	60	57974
2026-01-23 09:49:33.73	200.74	49.35	-51.0	-53.4	6.1	0.00e+00	0	43	104	18882756608	60	57469
2026-01-23 09:49:36.76	202.62	50.66	-51.0	-53.4	6.1	0.00e+00	0	43	104	18882756608	60	57544
2026-01-23 09:49:39.78	204.66	51.97	-51.0	-53.4	6.1	0.00e+00	0	43	104	18882756608	60	57495
2026-01-23 09:49:42.81	206.90	53.28	-51.0	-53.5	6.1	0.00e+00	0	43	104	18882756608	60	57913
2026-01-23 09:49:45.85	209.37	54.59	-51.0	-53.4	6.1	0.00e+00	0	43	104	18882756608	60	57518
2026-01-23 09:49:48.87	212.05	55.87	-50.9	-53.4	6.1	0.00e+00	0	43	104	18882756608	60	57528
2026-01-23 09:49:51.90	215.00	57.12	-50.8	-53.3	6.1	0.00e+00	0	43	104	18882756608	60	56812
2026-01-23 09:49:54.93	218.23	58.32	-50.9	-53.4	6.1	0.00e+00	0	43	104	18882756608	60	57275
2026-01-23 09:49:57.95	221.74	59.45	-50.9	-53.4	6.1	0.00e+00	0	43	104	18882756608	60	57183
2026-01-23 09:50:00.98	225.58	60.50	-50.9	-53.4	6.1	0.00e+00	0	43	104	18882756608	60	57343
2026-01-23 09:50:04.01	229.74	61.45	-50.9	-53.4	6.1	0.00e+00	0	43	104	18882756608	60	56981
2026-01-23 09:50:07.04	234.20	62.27	-51.0	-53.4	6.1	0.00e+00	0	43	104	18882756608	60	57385
2026-01-23 09:50:10.07	238.95	62.95	-50.9	-53.5	6.1	0.00e+00	0	43	104	18882756608	60	57634
2026-01-23 09:50:13.09	243.92	63.46	-50.9	-53.4	6.1	0.00e+00	0	43	104	18882756608	60	57129
2026-01-23 09:50:16.12	249.09	63.79	-50.8	-53.3	6.1	0.00e+00	0	43	104	18882756608	60	56953
2026-01-23 09:50:19.15	254.37	63.93	-51.0	-53.5	6.1	0.00e+00	0	43	104	18882756608	60	57812
2026-01-23 09:50:22.18	259.67	63.87	-51.0	-53.6	6.1	0.00e+00	0	43	104	18882756608	60	58354
2026-01-23 09:50:25.21	264.90	63.62	-51.1	-53.5	6.1	0.00e+00	0	43	104	18882756608	60	58259
2026-01-23 09:50:28.24	269.97	63.19	-51.0	-53.5	6.1	0.00e+00	0	43	104	18882756608	60	57999
2026-01-23 09:50:31.27	274.83	62.58	-50.9	-53.3	6.1	0.00e+00	0	43	104	18882756608	60	56882
2026-01-23 09:50:34.29	279.40	61.83	-50.9	-53.5	6.1	0.00e+00	0	43	104	18882756608	60	57643
2026-01-23 09:50:37.32	283.68	60.93	-50.8	-53.3	6.1	0.00e+00	0	43	104	18882756608	60	56815
2026-01-23 09:50:40.35	287.65	59.93	-51.0	-53.4	6.1	0.00e+00	0	43	104	18882756608	60	57612
2026-01-23 09:50:43.38	291.31	58.83	-51.0	-53.5	6.1	0.00e+00	0	43	104	18882756608	60	57818
2026-01-23 09:50:46.40	294.65	57.66	-51.0	-53.5	6.1	0.00e+00	0	43	104	18882756608	60	57894
2026-01-23 09:50:49.43	297.72	56.43	-51.0	-53.5	6.1	0.00e+00	0	43	104	18882756608	60	57767
2026-01-23 09:50:52.46	300.51	55.17	-50.9	-53.4	6.1	0.00e+00	0	43	104	18882756608	60	57286
2026-01-23 09:50:55.49	303.06	53.87	-51.0	-53.5	6.1	0.00e+00	0	43	104	18882756608	60	58018
2026-01-23 09:50:58.52	305.39	52.57	-50.9	-53.3	6.0	0.00e+00	0	43	104	18882756608	60	56924
2026-01-23 09:51:01.54	307.51	51.26	-50.9	-53.4	6.1	0.00e+00	0	43	104	18882756608	60	57385
2026-01-23 09:51:04.56	309.45	49.96	-51.1	-53.5	6.1	0.00e+00	0	43	104	18882756608	60	57896
2026-01-23 09:51:07.60	311.24	48.65	-51.1	-53.6	6.1	0.00e+00	0	43	104	18882756608	60	58625
2026-01-23 09:51:10.63	312.88	47.37	-51.0	-53.6	6.1	0.00e+00	0	43	104	18882756608	60	58306
2026-01-23 09:51:13.65	314.38	46.12	-51.1	-53.6	6.1	0.00e+00	0	43	104	18882756608	60	58511
2026-01-23 09:51:16.68	315.77	44.88	-51.0	-53.5	6.1	0.00e+00	0	43	104	18882756608	60	57888
2026-01-23 09:51:19.71	317.05	43.67	-51.1	-53.6	6.1	0.00e+00	0	43	104	18882756608	60	58695
2026-01-23 09:51:22.73	318.24	42.49	-51.0	-53.5	6.0	0.00e+00	0	43	104	18882756608	60	57808
2026-01-23 09:51:25.76	319.34	41.33	-51.1	-53.6	6.1	0.00e+00	0	43	104	18882756608	60	58371
2026-01-23 09:51:28.79	320.37	40.21	-51.0	-53.5	6.1	0.00e+00	0	43	104	18882756608	60	58034
2026-01-23 09:51:31.81	321.32	39.12	-51.2	-53.6	6.1	0.00e+00	0	43	104	18882756608	60	58507
2026-01-23 09:51:34.84	322.21	38.06	-50.9	-53.4	6.1	0.00e+00	0	43	104	18882756608	60	57534
2026-01-23 09:51:37.88	323.05	37.02	-50.7	-53.2	6.1	0.00e+00	0	43	104	18882756608	60	55942
2026-01-23 09:51:40.91	323.83	36.02	-51.1	-53.6	6.1	0.00e+00	0	43	104	18882756608	60	58630
2026-01-23 09:51:43.94	324.57	35.05	-50.7	-53.2	6.1	0.00e+00	0	43	104	18882756608	60	56235
2026-01-23 09:51:46.96	325.26	34.11	-50.7	-53.2	6.1	0.00e+00	0	43	104	18882756608	60	55975
2026-01-23 09:51:49.99	325.91	33.19	-50.8	-53.3	6.1	0.00e+00	0	43	104	18882756608	60	56937
2026-01-23 09:51:53.02	326.52	32.30	-50.8	-53.3	6.1	0.00e+00	0	43	104	18882756608	60	56859
2026-01-23 09:51:56.05	327.10	31.44	-50.6	-53.2	6.1	0.00e+00	0	43	104	18882756608	60	55860
2026-01-23 09:51:59.08	327.65	30.61	-50.6	-53.2	6.1	0.00e+00	0	43	104	18882756608	60	55917
2026-01-23 09:52:02.10	328.17	29.80	-51.1	-53.5	6.1	0.00e+00	0	43	104	18882756608	60	58279
2026-01-23 09:52:05.13	328.67	29.02	-50.7	-53.3	6.1	0.00e+00	0	43	104	18882756608	60	56460
2026-01-23 09:52:08.16	329.14	28.26	-50.9	-53.4	6.0	0.00e+00	0	43	104	18882756608	60	57199
2026-01-23 09:52:11.18	329.58	27.52	-51.0	-53.5	6.1	0.00e+00	0	43	104	18882756608	60	57994
2026-01-23 09:52:14.21	330.01	26.80	-50.9	-53.4	6.1	0.00e+00	0	43	104	18882756608	60	57236
2026-01-23 09:52:17.24	330.42	26.11	-51.0	-53.5	6.1	0.00e+00	0	43	104	18882756608	60	57684
2026-01-23 09:52:20.26	330.80	25.43	-50.9	-53.4	6.1	0.00e+00	0	43	104	18882756608	60	57323
2026-01-23 09:52:23.29	331.17	24.77	-51.0	-53.4	6.1	0.00e+00	0	43	104	18882756608	60	57618
2026-01-23 09:52:26.32	331.53	24.13	-50.9	-53.4	6.1	0.00e+00	0	43	104	18882756608	60	57347
2026-01-23 09:52:29.35	331.87	23.51	-50.9	-53.4	6.1	0.00e+00	0	43	104	18882756608	60	56981
2026-01-23 09:52:32.38	332.20	22.91	-50.9	-53.4	6.1	0.00e+00	0	43	104	18882756608	60	57142
2026-01-23 09:52:35.40	332.51	22.32	-50.8	-53.3	6.1	0.00e+00	0	43	104	18882756608	60	56813
2026-01-23 09:52:38.43	332.81	21.75	-50.8	-53.3	6.1	0.00e+00	0	43	104	18882756608	60	56554
2026-01-23 09:52:41.46	333.10	21.19	-50.9	-53.4	6.1	0.00e+00	0	43	104	18882756608	60	57115
2026-01-23 09:52:44.49	333.38	20.65	-50.8	-53.3	6.1	0.00e+00	0	43	104	18882756608	60	56865
2026-01-23 09:52:47.51	333.64	20.12	-50.8	-53.3	6.1	0.00e+00	0	43	104	18882756608	60	56419
2026-01-23 09:52:50.54	333.90	19.60	-50.9	-53.3	6.1	0.00e+00	0	43	104	18882756608	60	56710
2026-01-23 09:52:53.57	334.15	19.10	-50.8	-53.3	6.1	0.00e+00	0	43	104	18882756608	60	56765
2026-01-23 09:52:56.60	334.39	18.61	-50.8	-53.3	6.1	0.00e+00	0	43	104	18882756608	60	56625
2026-01-23 09:52:59.63	334.62	18.13	-50.8	-53.3	6.1	0.00e+00	0	43	104	18882756608	60	56710
2026-01-23 09:53:02.65	334.85	17.66	-50.8	-53.3	6.1	0.00e+00	0	43	104	18882756608	60	56730
2026-01-23 09:53:05.68	335.06	17.21	-50.8	-53.3	6.1	0.00e+00	0	43	104	18882756608	60	56384
2026-01-23 09:53:08.71	335.27	16.76	-50.8	-53.3	6.1	0.00e+00	0	43	104	18882756608	60	56442
2026-01-23 09:53:11.74	335.48	16.32	-50.7	-53.2	6.1	0.00e+00	0	43	104	18882756608	60	56152
2026-01-23 09:53:14.76	335.67	15.89	-50.8	-53.3	6.1	0.00e+00	0	43	104	18882756608	60	56557
2026-01-23 09:53:17.79	335.87	15.48	-50.7	-53.2	6.1	0.00e+00	0	43	104	18882756608	60	56145
2026-01-23 09:53:20.82	336.05	15.07	-50.7	-53.2	6.1	0.00e+00	0	43	104	18882756608	60	56221
2026-01-23 09:53:23.85	336.23	14.66	-50.5	-53.0	6.1	0.00e+00	0	43	104	18882756608	60	54836
2026-01-23 09:53:26.88	336.41	14.27	-50.7	-53.2	6.1	0.00e+00	0	43	104	18882756608	60	55922
2026-01-23 09:53:29.91	336.58	13.89	-50.4	-53.0	6.1	0.00e+00	0	43	104	18882756608	60	54451
2026-01-23 09:53:32.93	336.74	13.51	-50.4	-53.0	6.1	0.00e+00	0	43	104	18882756608	60	54718
2026-01-23 09:53:35.96	336.90	13.14	-50.6	-53.1	6.1	0.00e+00	0	43	104	18882756608	60	55242
2026-01-23 09:53:38.99	337.06	12.78	-50.4	-53.0	6.1	0.00e+00	0	43	104	18882756608	60	54498
2026-01-23 09:53:42.02	337.21	12.42	-50.5	-53.0	6.1	0.00e+00	0	43	104	18882756608	60	54733
2026-01-23 09:53:45.05	337.36	12.07	-50.5	-53.0	6.1	0.00e+00	0	43	104	18882756608	60	54687
2026-01-23 09:53:48.07	337.50	11.73	-50.4	-52.9	6.1	0.00e+00	0	43	104	18882756608	60	54264
2026-01-23 09:53:51.10	337.64	11.39	-50.5	-53.1	6.1	0.00e+00	0	43	104	18882756608	60	55127
2026-01-23 09:53:54.13	337.78	11.06	-50.6	-53.1	6.1	0.00e+00	0	43	104	18882756608	60	55109
2026-01-23 09:53:57.15	337.91	10.73	-50.5	-53.0	6.1	0.00e+00	0	43	104	18882756608	60	54684
2026-01-23 09:54:00.18	338.04	10.41	-50.2	-52.7	6.1	0.00e+00	0	43	104	18882756608	60	52840
2026-01-23 09:54:03.21	338.17	10.10	-50.6	-53.1	6.1	0.00e+00	0	43	104	18882756608	60	55307
2026-01-23 09:54:06.24	338.30	9.79	-50.4	-52.9	6.1	0.00e+00	0	43	104	18882756608	60	54012
2026-01-23 09:54:09.26	338.42	9.49	-50.3	-52.8	6.1	0.00e+00	0	43	104	18882756608	60	53771
2026-01-23 09:54:12.29	338.54	9.19	-50.4	-52.9	6.1	0.00e+00	0	43	104	18882756608	60	54107
2026-01-23 09:54:15.32	338.65	8.89	-50.5	-53.0	6.1	0.00e+00	0	43	104	18882756608	60	54702
2026-01-23 09:54:18.35	338.77	8.60	-50.4	-52.9	6.1	0.00e+00	0	43	104	18882756608	60	54057
2026-01-23 09:54:21.38	338.88	8.31	-50.4	-52.9	6.1	0.00e+00	0	43	104	18882756608	60	53776
2026-01-23 09:54:24.41	338.99	8.03	-50.4	-52.9	6.1	0.00e+00	0	43	104	18882756608	60	53980
2026-01-23 09:54:27.43	339.10	7.75	-50.4	-52.9	6.1	0.00e+00	0	43	104	18882756608	60	54004
2026-01-23 09:54:30.46	339.20	7.48	-50.3	-52.8	6.1	0.00e+00	0	43	104	18882756608	60	53672
2026-01-23 09:54:33.48	339.30	7.21	-50.3	-52.8	6.1	0.00e+00	0	43	104	18882756608	60	53241
2026-01-23 09:54:36.51	339.41	6.94	-50.2	-52.7	6.1	0.00e+00	0	43	104	18882756608	60	52886
2026-01-23 09:54:39.54	339.50	6.68	-50.2	-52.8	6.1	0.00e+00	0	43	104	18882756608	60	53226
2026-01-23 09:54:42.56	339.60	6.42	-50.1	-52.6	6.1	0.00e+00	0	43	104	18882756608	60	52101
2026-01-23 09:54:45.59	339.70	6.16	-49.7	-52.2	6.1	0.00e+00	0	43	104	18882756608	60	50022
2026-01-23 09:54:48.62	339.79	5.91	-48.5	-51.0	6.1	0.00e+00	0	43	104	18882756608	60	43244
2026-01-23 09:54:51.65	339.88	5.66	-46.7	-49.2	6.1	0.00e+00	0	43	104	18882756608	60	35245
2026-01-23 09:54:54.68	339.97	5.41	-47.4	-49.9	6.1	0.00e+00	0	43	104	18882756608	60	38345
2026-01-23 09:54:57.70	340.06	5.17	-46.7	-49.2	6.1	0.00e+00	0	43	104	18882756608	60	35355
2026-01-23 09:55:00.73	340.15	4.93	-46.6	-49.1	6.1	0.00e+00	0	43	104	18882756608	60	34983
2026-01-23 09:55:03.76	340.23	4.69	-46.7	-49.2	6.1	0.00e+00	0	43	104	18882756608	60	35175
2026-01-23 09:55:06.78	340.31	4.46	-46.7	-49.2	6.1	0.00e+00	0	43	104	18882756608	60	35139
2026-01-23 09:55:09.82	340.40	4.22	-46.6	-49.0	6.1	0.00e+00	0	43	104	18882756608	60	34671
2026-01-23 09:55:12.84	340.48	3.99	-46.7	-49.1	6.1	0.00e+00	0	43	104	18882756608	60	35066
2026-01-23 09:55:15.87	340.56	3.76	-46.7	-49.2	6.1	0.00e+00	0	43	104	18882756608	60	35214
2026-01-23 09:55:18.90	340.64	3.54	-46.5	-48.9	6.1	0.00e+00	0	43	104	18882756608	60	34228
2026-01-23 09:55:21.93	340.71	3.32	-46.6	-49.1	6.1	0.00e+00	0	43	104	18882756608	60	34924
2026-01-23 09:55:24.96	340.79	3.10	-46.6	-49.0	6.1	0.00e+00	0	43	104	18882756608	60	34656
2026-01-23 09:55:27.99	340.86	2.88	-50.0	-52.5	6.1	0.00e+00	0	43	104	18882756608	60	51404
2026-01-23 09:55:31.02	340.94	2.66	-50.8	-53.3	6.1	0.00e+00	0	43	104	18882756608	60	56704
2026-01-23 09:55:34.05	341.01	2.45	-51.0	-53.4	6.1	0.00e+00	0	43	104	18882756608	60	57403
2026-01-23 09:55:37.08	341.08	2.24	-51.2	-53.6	6.1	0.00e+00	0	43	104	18882756608	60	58560
2026-01-23 09:55:40.11	341.15	2.03	-51.0	-53.5	6.1	0.00e+00	0	43	104	18882756608	60	57873
2026-01-23 09:55:43.14	341.22	1.82	-51.0	-53.5	6.1	0.00e+00	0	43	104	18882756608	60	58072
2026-01-23 09:55:46.16	341.29	1.61	-51.0	-53.5	6.1	0.00e+00	0	43	104	18882756608	60	57889
2026-01-23 09:55:49.19	341.36	1.41	-51.0	-53.5	6.1	0.00e+00	0	43	104	18882756608	60	58208
2026-01-23 09:55:52.22	341.42	1.21	-51.0	-53.5	6.1	0.00e+00	0	43	104	18882756608	60	57683
2026-01-23 09:55:55.25	341.49	1.01	-51.0	-53.5	6.1	0.00e+00	0	43	104	18882756608	60	57874
2026-01-23 09:55:58.28	341.56	0.81	-51.0	-53.5	6.1	0.00e+00	0	43	104	18882756608	60	57697
2026-01-23 09:56:01.31	341.62	0.61	-51.0	-53.5	6.1	0.00e+00	0	43	104	18882756608	60	57685
2026-01-23 09:56:04.34	341.68	0.41	-51.0	-53.5	6.1	0.00e+00	0	43	104	18882756608	60	57664
2026-01-23 09:56:07.37	341.74	0.22	-51.0	-53.4	6.1	0.00e+00	0	43	104	18882756608	60	57570
2026-01-23 09:56:10.40	341.81	0.03	-51.0	-53.4	6.1	0.00e+00	0	43	104	18882756608	60	57561

#Closed at: 2026-01-23 09:56:12
#Recorded file [18882 MB]: D:/lorett/data/35029_260123_214504.dat