passes_logs/2026/01/23/R4.6S_Anadyr/R4.6S_Anadyr__20260123_150511_NOAA_21_JPSS-2_rec.log

#Pass ID: 20260123_150511_NOAA 21 (JPSS-2)
#Satellite: NOAA 21 (JPSS-2)
#Configuration: NOAA-21
#almurnet v.1.7.20251203
#Start time: 2026-01-23 15:05:12

#Version: 2.2.20231116
#Station: R4.6S_Anadyr
#Location: 177.4865 lon 64.73178 lat
#TLE: 1 54234U 22150A   26022.41365820  .00000211  00000+0  12084-3 0  9990
#TLE: 2 54234  98.7507 323.2240 0000658 234.5287 125.5828 14.19537645165864

#Time	Az	El	Level	Level2	SNR	BER	BlckErr	Temp	State	Recorded	gain1	gain2
2026-01-23 15:05:12.17	21.31	0.06	-51.0	-65.9	3.5	1.51e+00	0	38	0	0	60	70996
2026-01-23 15:05:16.21	21.29	0.30	-51.0	-63.9	3.5	1.52e+00	0	39	104	0	60	55059
2026-01-23 15:05:20.25	21.27	0.54	-51.1	-63.9	3.5	1.52e+00	0	40	104	0	60	54949
2026-01-23 15:05:24.29	21.24	0.79	-51.0	-63.9	3.5	1.52e+00	0	40	104	0	60	54916
2026-01-23 15:05:28.33	21.22	1.03	-50.8	-63.6	3.5	1.52e+00	0	40	104	0	60	53287
2026-01-23 15:05:32.37	21.19	1.28	-50.3	-63.2	3.5	1.52e+00	0	40	104	0	60	50647
2026-01-23 15:05:36.41	21.16	1.54	-49.6	-62.0	3.5	1.52e+00	0	40	104	0	60	44220
2026-01-23 15:05:40.44	21.14	1.79	-49.6	-62.0	3.5	1.51e+00	0	40	104	0	60	44083
2026-01-23 15:05:44.48	21.11	2.05	-49.6	-62.5	3.5	1.52e+00	0	40	104	0	60	46608
2026-01-23 15:05:48.51	21.08	2.30	-49.6	-62.3	3.5	1.52e+00	0	40	104	0	60	45495
2026-01-23 15:05:52.55	21.05	2.57	-49.5	-61.2	3.5	1.51e+00	0	40	104	0	60	40241
2026-01-23 15:05:56.59	21.02	2.83	-49.5	-61.6	3.5	1.52e+00	0	40	104	0	60	42184
2026-01-23 15:06:00.63	20.99	3.10	-49.4	-60.5	3.6	1.51e+00	0	40	104	0	60	37157
2026-01-23 15:06:04.67	20.95	3.36	-48.3	-53.5	7.5	1.35e-01	120	40	0	2097152	60	16596
2026-01-23 15:06:08.72	20.92	3.64	-47.9	-52.4	8.9	2.75e-02	122	41	0	14680064	60	14609
2026-01-23 15:06:12.75	20.88	3.91	-49.6	-61.4	3.5	8.99e-04	0	40	104	20971520	60	41325
2026-01-23 15:06:16.79	20.85	4.19	-41.9	-43.4	18.2	0.00e+00	123	40	0	26214400	58	5804
2026-01-23 15:06:20.82	20.81	4.46	-40.5	-41.7	20.0	0.00e+00	123	40	0	38797312	54	6015
2026-01-23 15:06:24.86	20.77	4.75	-40.0	-41.2	20.5	0.00e+00	122	41	0	51380224	54	5672
2026-01-23 15:06:28.91	20.74	5.03	-40.2	-41.3	20.3	0.00e+00	122	40	0	63963136	54	5780
2026-01-23 15:06:32.94	20.70	5.32	-40.2	-41.4	20.4	0.00e+00	123	41	0	76546048	54	5813
2026-01-23 15:06:36.98	20.65	5.61	-39.7	-40.8	20.9	0.00e+00	120	41	0	89128960	52	6117
2026-01-23 15:06:41.02	20.61	5.91	-39.9	-41.0	20.8	0.00e+00	122	40	0	101711872	52	6276
2026-01-23 15:06:45.06	20.57	6.21	-39.6	-40.7	21.1	0.00e+00	120	41	0	114294784	52	6043
2026-01-23 15:06:49.10	20.52	6.51	-39.4	-40.5	21.3	0.00e+00	122	41	0	126877696	52	5875
2026-01-23 15:06:53.14	20.48	6.81	-39.1	-40.2	21.7	0.00e+00	123	41	0	139460608	52	5694
2026-01-23 15:06:57.18	20.43	7.12	-39.3	-40.3	21.4	0.00e+00	123	41	0	152043520	52	5791
2026-01-23 15:07:01.21	20.38	7.43	-39.1	-40.1	21.7	0.00e+00	122	41	0	164626432	52	5639
2026-01-23 15:07:05.26	20.33	7.75	-38.9	-39.9	22.0	0.00e+00	123	41	0	177209344	52	5525
2026-01-23 15:07:09.29	20.28	8.07	-38.8	-39.8	22.1	0.00e+00	123	41	0	189792256	50	6113
2026-01-23 15:07:13.33	20.23	8.39	-38.7	-39.8	22.2	0.00e+00	123	41	0	202375168	50	6076
2026-01-23 15:07:17.37	20.17	8.72	-38.4	-39.5	22.5	0.00e+00	123	41	0	214958080	50	5859
2026-01-23 15:07:21.41	20.12	9.06	-38.5	-39.5	22.5	0.00e+00	123	41	0	227540992	50	5874
2026-01-23 15:07:25.45	20.06	9.39	-38.3	-39.2	22.6	0.00e+00	120	41	0	241172480	50	5719
2026-01-23 15:07:29.49	20.00	9.73	-38.2	-39.2	22.7	0.00e+00	123	41	0	253755392	50	5707
2026-01-23 15:07:33.53	19.94	10.08	-38.0	-39.0	22.9	0.00e+00	123	41	0	266338304	50	5566
2026-01-23 15:07:37.57	19.87	10.43	-38.1	-39.1	22.8	0.00e+00	123	41	0	278921216	50	5613
2026-01-23 15:07:41.61	19.81	10.79	-37.7	-38.6	23.1	0.00e+00	123	41	0	291504128	48	5993
2026-01-23 15:07:45.65	19.74	11.15	-37.8	-38.7	23.0	0.00e+00	123	41	0	304087040	48	6057
2026-01-23 15:07:49.69	19.67	11.52	-37.6	-38.6	23.2	0.00e+00	120	41	0	316669952	48	5928
2026-01-23 15:07:53.72	19.60	11.89	-37.4	-38.4	23.4	0.00e+00	122	41	0	329252864	48	5821
2026-01-23 15:07:57.76	19.52	12.27	-37.4	-38.3	23.5	0.00e+00	123	41	0	341835776	48	5764
2026-01-23 15:08:01.81	19.45	12.65	-37.2	-38.1	23.6	0.00e+00	120	41	0	354418688	48	5643
2026-01-23 15:08:05.85	19.37	13.04	-37.2	-38.2	23.6	0.00e+00	123	41	0	367001600	48	5675
2026-01-23 15:08:09.89	19.28	13.44	-37.1	-38.1	23.6	0.00e+00	122	41	0	379584512	48	5602
2026-01-23 15:08:13.93	19.20	13.84	-37.2	-38.1	23.6	0.00e+00	122	41	0	392167424	48	5657
2026-01-23 15:08:17.97	19.11	14.25	-37.5	-38.4	23.6	0.00e+00	122	41	0	404750336	48	5818
2026-01-23 15:08:22.01	19.02	14.67	-36.9	-37.8	24.0	0.00e+00	123	41	0	417333248	48	5457
2026-01-23 15:08:26.05	18.93	15.10	-37.1	-38.0	23.8	0.00e+00	123	41	0	429916160	48	5571
2026-01-23 15:08:30.09	18.83	15.53	-37.1	-38.0	23.8	0.00e+00	122	41	0	442499072	48	5587
2026-01-23 15:08:34.13	18.73	15.97	-37.2	-38.2	23.7	0.00e+00	123	41	0	455081984	48	5662
2026-01-23 15:08:38.17	18.63	16.41	-37.3	-38.2	23.7	0.00e+00	121	41	0	467664896	48	5677
2026-01-23 15:08:42.21	18.52	16.87	-37.5	-38.5	23.5	0.00e+00	120	41	0	480247808	48	5863
2026-01-23 15:08:46.24	18.41	17.33	-37.7	-38.7	23.5	0.00e+00	123	41	0	492830720	48	6009
2026-01-23 15:08:50.29	18.30	17.81	-37.6	-38.5	23.5	0.00e+00	122	41	0	505413632	48	5909
2026-01-23 15:08:54.33	18.18	18.29	-37.4	-38.4	23.6	0.00e+00	123	41	0	517996544	48	5798
2026-01-23 15:08:58.36	18.05	18.78	-37.4	-38.3	23.6	0.00e+00	123	41	0	530579456	48	5779
2026-01-23 15:09:02.41	17.92	19.28	-37.3	-38.2	23.7	0.00e+00	122	41	0	544210944	48	5706
2026-01-23 15:09:06.44	17.79	19.79	-37.2	-38.1	23.8	0.00e+00	123	41	0	556793856	48	5629
2026-01-23 15:09:10.49	17.65	20.31	-37.1	-38.0	23.9	0.00e+00	122	41	0	569376768	48	5583
2026-01-23 15:09:14.52	17.51	20.84	-36.8	-37.7	24.1	0.00e+00	120	41	0	581959680	46	6031
2026-01-23 15:09:18.56	17.36	21.39	-36.7	-37.6	24.2	0.00e+00	122	41	0	594542592	46	5965
2026-01-23 15:09:22.60	17.21	21.94	-36.5	-37.5	24.4	0.00e+00	123	41	0	607125504	46	5864
2026-01-23 15:09:26.64	17.05	22.51	-36.2	-37.1	24.7	0.00e+00	122	41	0	619708416	46	5635
2026-01-23 15:09:30.68	16.88	23.09	-36.1	-37.0	24.8	0.00e+00	123	41	0	632291328	46	5577
2026-01-23 15:09:34.71	16.70	23.68	-35.8	-36.7	25.0	0.00e+00	123	41	0	644874240	46	5364
2026-01-23 15:09:38.75	16.52	24.29	-36.0	-36.9	24.9	0.00e+00	123	41	0	657457152	46	5477
2026-01-23 15:09:42.79	16.33	24.91	-36.1	-37.0	24.8	0.00e+00	123	41	0	670040064	46	5573
2026-01-23 15:09:46.83	16.13	25.55	-36.4	-37.3	24.6	0.00e+00	123	41	0	682622976	46	5736
2026-01-23 15:09:50.86	15.92	26.20	-36.9	-37.9	24.2	0.00e+00	123	41	0	695205888	46	6150
2026-01-23 15:09:54.90	15.71	26.87	-37.3	-38.2	23.9	0.00e+00	123	41	0	707788800	46	6395
2026-01-23 15:09:58.94	15.48	27.55	-37.5	-38.4	23.7	0.00e+00	123	41	0	720371712	46	6527
2026-01-23 15:10:02.98	15.24	28.25	-37.6	-38.6	23.6	0.00e+00	123	41	0	732954624	46	6670
2026-01-23 15:10:07.02	14.99	28.97	-37.6	-38.5	23.7	0.00e+00	122	41	0	745537536	46	6621
2026-01-23 15:10:11.05	14.73	29.70	-37.1	-38.0	24.0	0.00e+00	123	41	0	758120448	46	6231
2026-01-23 15:10:15.09	14.46	30.45	-36.9	-37.8	24.3	0.00e+00	122	41	0	770703360	46	6090
2026-01-23 15:10:19.13	14.17	31.23	-36.9	-37.8	24.3	0.00e+00	123	41	0	783286272	46	6130
2026-01-23 15:10:23.17	13.86	32.02	-36.7	-37.6	24.4	0.00e+00	123	41	0	795869184	46	5974
2026-01-23 15:10:27.21	13.54	32.84	-37.1	-38.0	24.1	0.00e+00	123	41	0	808452096	46	6257
2026-01-23 15:10:31.25	13.20	33.67	-37.5	-38.4	23.8	0.00e+00	123	41	0	821035008	46	6536
2026-01-23 15:10:35.29	12.85	34.53	-37.9	-38.9	23.4	0.00e+00	123	41	0	833617920	48	6151
2026-01-23 15:10:39.33	12.47	35.41	-38.3	-39.2	23.2	0.00e+00	122	41	0	846200832	48	6419
2026-01-23 15:10:43.37	12.07	36.32	-38.8	-39.7	22.8	0.00e+00	123	41	0	858783744	50	6058
2026-01-23 15:10:47.41	11.65	37.24	-38.9	-39.9	22.7	0.00e+00	120	41	0	871366656	50	6190
2026-01-23 15:10:51.45	11.20	38.20	-38.7	-39.6	22.9	0.00e+00	123	41	0	884998144	50	5980
2026-01-23 15:10:55.49	10.72	39.18	-38.6	-39.6	22.9	0.00e+00	120	41	0	897581056	50	5987
2026-01-23 15:10:59.53	10.22	40.18	-39.4	-40.5	22.3	0.00e+00	120	41	0	909115392	50	6587
2026-01-23 15:11:03.57	9.67	41.22	-39.5	-40.5	22.1	0.00e+00	120	41	0	922746880	50	6619
2026-01-23 15:11:07.61	9.09	42.27	-40.0	-41.0	21.7	0.00e+00	120	41	0	935329792	52	6274
2026-01-23 15:11:11.64	8.47	43.36	-39.6	-40.7	22.0	0.00e+00	122	41	0	947912704	52	6027
2026-01-23 15:11:15.68	7.81	44.47	-40.0	-41.1	21.6	0.00e+00	122	41	0	960495616	52	6312
2026-01-23 15:11:19.72	7.09	45.61	-39.6	-40.7	22.0	0.00e+00	123	41	0	973078528	52	5995
2026-01-23 15:11:23.76	6.32	46.78	-38.8	-39.8	22.8	0.00e+00	123	42	0	985661440	52	5421
2026-01-23 15:11:27.80	5.49	47.98	-38.6	-39.5	23.0	0.00e+00	123	41	0	998244352	50	5913
2026-01-23 15:11:31.84	4.59	49.20	-38.4	-39.4	23.0	0.00e+00	123	42	0	1010827264	50	5816
2026-01-23 15:11:35.88	3.61	50.45	-38.4	-39.3	23.0	0.00e+00	122	41	0	1023410176	50	5790
2026-01-23 15:11:39.92	2.55	51.73	-38.6	-39.6	22.9	0.00e+00	123	42	0	1035993088	50	5955
2026-01-23 15:11:43.96	1.38	53.03	-37.9	-38.9	23.3	0.00e+00	123	41	0	1048576000	50	5471
2026-01-23 15:11:47.99	0.11	54.34	-37.1	-38.0	24.0	0.00e+00	123	42	0	1061158912	48	5584
2026-01-23 15:11:52.04	358.71	55.68	-36.8	-37.7	24.2	0.00e+00	120	42	0	1073741824	48	5399
2026-01-23 15:11:56.07	357.18	57.03	-36.2	-37.1	24.8	0.00e+00	122	42	0	1086324736	46	5640
2026-01-23 15:12:00.12	355.47	58.40	-36.5	-37.4	24.6	0.00e+00	123	41	0	1098907648	46	5844
2026-01-23 15:12:04.16	353.58	59.76	-36.7	-37.6	24.5	0.00e+00	120	42	0	1111490560	46	5952
2026-01-23 15:12:08.20	351.48	61.13	-36.2	-37.1	24.7	0.00e+00	121	41	0	1124073472	46	5617
2026-01-23 15:12:12.24	349.14	62.49	-35.8	-36.6	25.1	0.00e+00	123	42	0	1136656384	46	5324
2026-01-23 15:12:16.28	346.52	63.82	-35.5	-36.3	25.4	0.00e+00	122	42	0	1149239296	44	5776
2026-01-23 15:12:20.32	343.58	65.13	-35.5	-36.4	25.0	0.00e+00	123	42	0	1161822208	44	5823
2026-01-23 15:12:24.36	340.28	66.39	-35.2	-36.1	25.3	0.00e+00	122	42	0	1174405120	44	5617
2026-01-23 15:12:28.40	336.58	67.59	-35.5	-36.4	25.3	0.00e+00	120	41	0	1186988032	44	5822
2026-01-23 15:12:32.44	332.43	68.71	-35.4	-36.3	25.2	0.00e+00	123	41	0	1200619520	44	5758
2026-01-23 15:12:36.49	327.80	69.72	-35.5	-36.4	25.1	0.00e+00	122	42	0	1213202432	44	5800
2026-01-23 15:12:40.53	322.69	70.61	-35.9	-36.8	24.9	0.00e+00	123	41	0	1225785344	44	6112
2026-01-23 15:12:44.57	317.10	71.35	-35.7	-36.5	25.0	0.00e+00	123	42	0	1238368256	44	5919
2026-01-23 15:12:48.61	311.08	71.90	-35.8	-36.7	24.9	0.00e+00	123	41	0	1250951168	44	6027
2026-01-23 15:12:52.65	304.73	72.26	-35.7	-36.6	24.8	0.00e+00	120	42	0	1263534080	44	5972
2026-01-23 15:12:56.69	298.19	72.40	-35.8	-36.7	24.8	0.00e+00	120	42	0	1276116992	44	6038
2026-01-23 15:13:00.73	291.62	72.33	-35.4	-36.3	25.1	0.00e+00	122	42	0	1288699904	44	5761
2026-01-23 15:13:04.76	285.21	72.03	-35.6	-36.5	25.2	0.00e+00	123	41	0	1301282816	44	5886
2026-01-23 15:13:08.80	279.07	71.53	-36.1	-37.1	24.4	0.00e+00	122	42	0	1313865728	44	6316
2026-01-23 15:13:12.84	273.34	70.85	-36.0	-36.9	24.9	0.00e+00	122	42	0	1326448640	44	6185
2026-01-23 15:13:16.88	268.08	70.01	-35.6	-36.5	25.0	0.00e+00	120	42	0	1339031552	44	5903
2026-01-23 15:13:20.92	263.30	69.03	-35.7	-36.5	25.1	0.00e+00	120	42	0	1351614464	44	5921
2026-01-23 15:13:24.96	259.01	67.94	-35.5	-36.4	24.8	0.00e+00	123	42	0	1364197376	44	5809
2026-01-23 15:13:29.00	255.17	66.76	-37.2	-38.2	23.7	0.00e+00	120	42	0	1376780288	46	6403
2026-01-23 15:13:33.03	251.76	65.51	-35.5	-36.4	25.2	0.00e+00	122	42	0	1389363200	44	5824
2026-01-23 15:13:37.07	248.71	64.22	-36.2	-37.1	24.6	0.00e+00	122	42	0	1401946112	44	6308
2026-01-23 15:13:41.11	245.99	62.89	-36.6	-37.5	24.5	0.00e+00	122	42	0	1414529024	44	6595
2026-01-23 15:13:45.15	243.57	61.53	-35.2	-36.0	25.5	0.00e+00	120	42	0	1427111936	44	5564
2026-01-23 15:13:49.18	241.40	60.17	-36.8	-37.7	24.3	0.00e+00	123	42	0	1439694848	46	6054
2026-01-23 15:13:53.22	239.44	58.80	-35.4	-36.3	25.3	0.00e+00	120	42	0	1452277760	44	5745
2026-01-23 15:13:57.26	237.68	57.43	-37.4	-38.4	23.2	0.00e+00	122	42	0	1464860672	46	6507
2026-01-23 15:14:01.29	236.10	56.07	-36.2	-37.1	24.5	0.00e+00	122	42	0	1477443584	46	5610
2026-01-23 15:14:05.33	234.66	54.73	-38.2	-39.2	23.1	0.00e+00	120	42	0	1490026496	48	6384
2026-01-23 15:14:09.37	233.34	53.40	-38.0	-39.0	22.9	0.00e+00	123	42	0	1502609408	50	5574
2026-01-23 15:14:13.41	232.15	52.09	-37.2	-38.1	23.7	0.00e+00	123	42	0	1515192320	48	5645
2026-01-23 15:14:17.45	231.05	50.80	-39.2	-40.2	22.2	0.00e+00	123	42	0	1527775232	50	6413
2026-01-23 15:14:21.49	230.04	49.54	-38.0	-38.9	23.3	0.00e+00	123	42	0	1541406720	50	5524
2026-01-23 15:14:25.53	229.12	48.31	-39.4	-40.4	22.1	0.00e+00	123	42	0	1552941056	50	6539
2026-01-23 15:14:29.57	228.26	47.10	-40.4	-41.5	21.2	0.00e+00	120	42	0	1565523968	52	6615
2026-01-23 15:14:33.61	227.47	45.91	-38.2	-39.1	23.1	0.00e+00	123	42	0	1579155456	50	5645
2026-01-23 15:14:37.65	226.74	44.76	-38.8	-39.8	22.5	0.00e+00	122	42	0	1591738368	48	6854
2026-01-23 15:14:41.69	226.06	43.63	-41.3	-42.6	20.2	0.00e+00	122	42	0	1604321280	54	6674
2026-01-23 15:14:45.73	225.42	42.54	-40.1	-41.2	21.4	0.00e+00	123	42	0	1616904192	54	5680
2026-01-23 15:14:49.77	224.83	41.46	-38.5	-39.5	23.0	0.00e+00	123	42	0	1629487104	50	5863
2026-01-23 15:14:53.81	224.27	40.42	-37.6	-38.5	23.7	0.00e+00	123	42	0	1642070016	48	5892
2026-01-23 15:14:57.85	223.76	39.40	-39.9	-41.1	21.6	0.00e+00	120	42	0	1654652928	52	6282
2026-01-23 15:15:01.88	223.27	38.42	-39.1	-40.1	22.5	0.00e+00	122	42	0	1667235840	52	5642
2026-01-23 15:15:05.92	222.81	37.45	-38.2	-39.2	23.1	0.00e+00	123	42	0	1679818752	50	5686
2026-01-23 15:15:09.96	222.38	36.51	-37.3	-38.2	23.9	0.00e+00	122	42	0	1692401664	48	5714
2026-01-23 15:15:14.00	221.97	35.60	-37.3	-38.2	23.8	0.00e+00	121	42	0	1704984576	48	5718
2026-01-23 15:15:18.04	221.58	34.70	-37.6	-38.5	23.7	0.00e+00	122	42	0	1717567488	48	5898
2026-01-23 15:15:22.07	221.22	33.84	-37.4	-38.4	23.8	0.00e+00	122	42	0	1730150400	48	5810
2026-01-23 15:15:26.11	220.88	32.99	-37.7	-38.7	23.5	0.00e+00	120	42	0	1742733312	48	6017
2026-01-23 15:15:30.15	220.55	32.17	-37.0	-38.0	24.0	0.00e+00	122	42	0	1755316224	48	5538
2026-01-23 15:15:34.19	220.24	31.37	-36.8	-37.7	24.2	0.00e+00	123	42	0	1767899136	46	6060
2026-01-23 15:15:38.23	219.94	30.58	-37.5	-38.4	23.7	0.00e+00	123	42	0	1780482048	46	6538
2026-01-23 15:15:42.26	219.66	29.82	-37.4	-38.3	23.8	0.00e+00	122	42	0	1793064960	46	6489
2026-01-23 15:15:46.30	219.40	29.08	-37.0	-38.0	24.1	0.00e+00	120	42	0	1805647872	46	6213
2026-01-23 15:15:50.34	219.14	28.35	-36.3	-37.2	24.6	0.00e+00	120	42	0	1818230784	46	5691
2026-01-23 15:15:54.38	218.90	27.65	-35.7	-36.5	25.1	0.00e+00	123	42	0	1830813696	44	5908
2026-01-23 15:15:58.42	218.67	26.96	-35.3	-36.2	25.2	0.00e+00	123	42	0	1843396608	44	5674
2026-01-23 15:16:02.46	218.44	26.28	-35.6	-36.5	25.0	0.00e+00	123	42	0	1855979520	44	5867
2026-01-23 15:16:06.50	218.23	25.63	-36.2	-37.1	24.7	0.00e+00	123	42	0	1868562432	44	6336
2026-01-23 15:16:10.54	218.03	24.98	-36.6	-37.5	24.3	0.00e+00	122	42	0	1881145344	44	6605
2026-01-23 15:16:14.57	217.83	24.36	-36.9	-37.8	24.1	0.00e+00	123	42	0	1893728256	46	6099
2026-01-23 15:16:18.61	217.65	23.74	-36.8	-37.7	24.2	0.00e+00	122	42	0	1906311168	46	6062
2026-01-23 15:16:22.65	217.47	23.15	-36.8	-37.8	24.2	0.00e+00	123	42	0	1919942656	46	6066
2026-01-23 15:16:26.68	217.30	22.56	-36.7	-37.7	24.2	0.00e+00	122	42	0	1931476992	46	5998
2026-01-23 15:16:30.72	217.13	21.99	-36.4	-37.3	24.5	0.00e+00	123	42	0	1945108480	46	5784
2026-01-23 15:16:34.76	216.97	21.43	-36.3	-37.2	24.5	0.00e+00	120	42	0	1957691392	46	5703
2026-01-23 15:16:38.81	216.82	20.88	-36.4	-37.3	24.4	0.00e+00	122	42	0	1970274304	46	5755
2026-01-23 15:16:42.85	216.67	20.34	-36.5	-37.5	24.4	0.00e+00	123	42	0	1982857216	46	5861
2026-01-23 15:16:46.89	216.53	19.81	-36.2	-37.1	24.5	0.00e+00	123	42	0	1995440128	46	5637
2026-01-23 15:16:50.93	216.39	19.30	-36.3	-37.2	24.4	0.00e+00	122	42	0	2008023040	46	5719
2026-01-23 15:16:54.97	216.26	18.79	-36.5	-37.4	24.4	0.00e+00	122	42	0	2020605952	46	5858
2026-01-23 15:16:59.00	216.13	18.30	-36.7	-37.6	24.2	0.00e+00	123	42	0	2033188864	46	5939
2026-01-23 15:17:03.04	216.01	17.81	-36.9	-37.9	24.1	0.00e+00	123	42	0	2045771776	46	6148
2026-01-23 15:17:07.08	215.89	17.33	-37.0	-37.9	23.9	0.00e+00	123	42	0	2058354688	46	6175
2026-01-23 15:17:11.11	215.78	16.87	-37.1	-38.1	23.8	0.00e+00	123	42	0	2070937600	46	6285
2026-01-23 15:17:15.15	215.67	16.41	-37.2	-38.2	23.7	0.00e+00	123	42	0	2083520512	46	6364
2026-01-23 15:17:19.19	215.56	15.96	-37.3	-38.2	23.7	0.00e+00	123	42	0	2096103424	46	6406
2026-01-23 15:17:23.23	215.46	15.51	-37.3	-38.3	23.7	0.00e+00	123	42	0	2108686336	46	6430
2026-01-23 15:17:27.27	215.36	15.08	-37.5	-38.5	23.5	0.00e+00	120	42	0	2121269248	46	6596
2026-01-23 15:17:31.31	215.26	14.65	-37.7	-38.6	23.3	0.00e+00	123	42	0	2133852160	46	6713
2026-01-23 15:17:35.34	215.17	14.23	-37.7	-38.7	23.2	0.00e+00	120	42	0	2146435072	48	6036
2026-01-23 15:17:39.38	215.08	13.82	-37.8	-38.7	23.2	0.00e+00	120	42	0	2159017984	48	6052
2026-01-23 15:17:43.42	214.99	13.41	-37.9	-38.9	23.1	0.00e+00	122	42	0	2171600896	48	6148
2026-01-23 15:17:47.46	214.90	13.01	-37.9	-38.8	23.2	0.00e+00	120	42	0	2184183808	48	6119
2026-01-23 15:17:51.50	214.82	12.62	-37.9	-38.8	23.1	0.00e+00	124	42	0	2196766720	48	6124
2026-01-23 15:17:55.53	214.74	12.24	-37.9	-38.9	23.1	0.00e+00	121	42	0	2209349632	48	6145
2026-01-23 15:17:59.57	214.66	11.85	-37.8	-38.8	23.1	0.00e+00	120	41	0	2221932544	48	6085
2026-01-23 15:18:03.62	214.59	11.48	-37.9	-38.8	23.0	0.00e+00	122	41	0	2234515456	48	6114
2026-01-23 15:18:07.66	214.51	11.11	-37.9	-38.8	22.9	0.00e+00	123	41	0	2247098368	48	6108
2026-01-23 15:18:11.69	214.44	10.75	-38.0	-39.0	22.9	0.00e+00	122	41	0	2260729856	48	6212
2026-01-23 15:18:15.73	214.37	10.39	-37.9	-38.9	22.8	0.00e+00	123	41	0	2272264192	48	6188
2026-01-23 15:18:19.77	214.31	10.03	-37.9	-38.9	22.9	0.00e+00	123	41	0	2285895680	48	6162
2026-01-23 15:18:23.81	214.24	9.68	-38.1	-39.1	22.7	0.00e+00	122	41	0	2298478592	48	6323
2026-01-23 15:18:27.85	214.18	9.34	-38.0	-39.0	22.7	0.00e+00	123	41	0	2311061504	48	6271
2026-01-23 15:18:31.89	214.12	9.00	-38.4	-39.4	22.3	0.00e+00	123	41	0	2323644416	48	6521
2026-01-23 15:18:35.93	214.06	8.66	-38.3	-39.3	22.4	0.00e+00	120	41	0	2336227328	48	6441
2026-01-23 15:18:39.97	214.00	8.33	-38.7	-39.7	22.1	0.00e+00	123	41	0	2348810240	48	6792
2026-01-23 15:18:44.00	213.94	8.01	-38.5	-39.6	22.2	0.00e+00	122	41	0	2361393152	48	6674
2026-01-23 15:18:48.04	213.88	7.69	-38.9	-39.9	21.9	0.00e+00	123	41	0	2373976064	50	6201
2026-01-23 15:18:52.08	213.83	7.37	-38.9	-39.9	21.9	0.00e+00	122	41	0	2386558976	50	6195
2026-01-23 15:18:56.12	213.78	7.05	-38.9	-40.0	21.7	0.00e+00	123	41	0	2399141888	50	6237
2026-01-23 15:19:00.16	213.73	6.74	-39.1	-40.1	21.6	0.00e+00	122	41	0	2411724800	50	6333
2026-01-23 15:19:04.20	213.68	6.44	-39.3	-40.4	21.3	0.00e+00	123	41	0	2424307712	50	6532
2026-01-23 15:19:08.24	213.63	6.13	-39.8	-41.0	20.8	0.00e+00	121	41	0	2436890624	50	6968
2026-01-23 15:19:12.28	213.58	5.83	-39.9	-41.0	20.7	0.00e+00	123	41	0	2449473536	52	6254
2026-01-23 15:19:16.32	213.54	5.54	-39.8	-40.9	20.8	0.00e+00	121	41	0	2462056448	52	6177
2026-01-23 15:19:20.36	213.49	5.24	-39.9	-41.1	20.5	0.00e+00	120	41	0	2474639360	52	6313
2026-01-23 15:19:24.40	213.45	4.95	-40.0	-41.1	20.4	0.00e+00	123	41	0	2487222272	52	6337
2026-01-23 15:19:28.44	213.40	4.67	-40.2	-41.4	20.2	0.00e+00	123	41	0	2499805184	52	6514
2026-01-23 15:19:32.47	213.36	4.38	-40.8	-42.1	19.5	0.00e+00	123	41	0	2512388096	52	7049
2026-01-23 15:19:36.51	213.32	4.10	-40.5	-41.8	19.7	0.00e+00	123	41	0	2524971008	54	6102
2026-01-23 15:19:40.55	213.28	3.82	-40.9	-42.2	19.3	0.00e+00	120	41	0	2537553920	54	6407
2026-01-23 15:19:44.58	213.24	3.55	-41.0	-42.4	19.1	0.00e+00	120	41	0	2550136832	54	6514
2026-01-23 15:19:48.62	213.21	3.28	-40.8	-42.1	19.1	0.00e+00	123	41	0	2562719744	54	6298
2026-01-23 15:19:52.66	213.17	3.01	-49.6	-62.2	3.5	8.97e-01	0	41	104	2575302656	60	45448
2026-01-23 15:19:56.71	213.13	2.74	-50.6	-63.5	3.5	1.52e+00	0	41	104	2575302656	60	52302
2026-01-23 15:20:00.75	213.10	2.48	-50.9	-63.8	3.5	1.52e+00	0	41	104	2575302656	60	54086
2026-01-23 15:20:04.79	213.06	2.21	-50.9	-63.8	3.5	1.52e+00	0	41	104	2575302656	60	54386
2026-01-23 15:20:08.83	213.03	1.95	-50.5	-63.8	3.5	1.52e+00	0	41	104	2575302656	60	54111
2026-01-23 15:20:12.86	213.00	1.70	-50.8	-63.8	3.5	1.52e+00	0	41	104	2575302656	60	54126
2026-01-23 15:20:16.90	212.97	1.44	-50.9	-63.8	3.5	1.52e+00	0	41	104	2575302656	60	54065
2026-01-23 15:20:20.94	212.94	1.19	-50.9	-63.7	3.5	1.52e+00	0	41	104	2575302656	60	53970
2026-01-23 15:20:24.98	212.91	0.94	-50.9	-63.7	3.5	1.52e+00	0	41	104	2575302656	60	54019
2026-01-23 15:20:29.01	212.88	0.69	-50.9	-63.8	3.5	1.52e+00	0	41	104	2575302656	60	54146
2026-01-23 15:20:33.05	212.85	0.44	-50.9	-63.7	3.5	1.52e+00	0	41	104	2575302656	60	54006
2026-01-23 15:20:37.09	212.82	0.20	-50.9	-63.8	3.5	1.52e+00	0	41	104	2575302656	60	54111

#Closed at: 2026-01-23 15:20:41
#Recorded file [2575 MB]: D:/lorett/data/35029_260124_030512.dat