passes_logs/2026/01/23/R4.6S_Anadyr/R4.6S_Anadyr__20260123_010646_FENGYUN_3D_rec.log

#Pass ID: 20260123_010646_FENGYUN 3D
#Satellite: FENGYUN 3D
#Configuration: FENGYUN 3D
#almurnet v.1.7.20251203
#Start time: 2026-01-23 01:06:49

#Version: 2.2.20231116
#Station: R4.6S_Anadyr
#Location: 177.4865 lon 64.73178 lat
#TLE: 1 43010U 17072A   26022.47411728  .00000617  00000+0  31375-3 0  9996
#TLE: 2 43010  98.9952 354.4060 0002481  95.7964 264.3494 14.19699924424319

#Time	Az	El	Level	Level2	SNR	BER	BlckErr	Temp	State	Recorded	gain1	gain2
2026-01-23 01:06:49.15	127.71	0.14	-51.1	-66.0	3.5	1.51e+00	0	39	0	0	60	72426
2026-01-23 01:06:53.18	127.59	0.38	-50.9	-63.0	3.6	8.45e-01	0	40	104	0	60	51335
2026-01-23 01:06:57.22	127.48	0.62	-51.0	-63.1	3.6	8.44e-01	0	40	104	0	60	51711
2026-01-23 01:07:01.26	127.36	0.86	-51.0	-63.1	3.6	8.45e-01	0	40	104	0	60	51606
2026-01-23 01:07:05.30	127.25	1.10	-50.8	-63.0	3.6	8.47e-01	0	40	104	0	60	50785
2026-01-23 01:07:09.34	127.13	1.35	-50.5	-62.7	3.6	8.45e-01	0	40	104	0	60	49408
2026-01-23 01:07:13.38	127.00	1.60	-49.9	-62.2	3.6	8.45e-01	0	40	104	0	60	46443
2026-01-23 01:07:17.42	126.88	1.85	-49.5	-61.5	3.6	8.45e-01	0	40	104	0	60	43007
2026-01-23 01:07:21.46	126.75	2.10	-49.5	-61.6	3.6	8.45e-01	0	40	104	0	60	43508
2026-01-23 01:07:25.50	126.62	2.36	-49.5	-61.0	3.6	8.45e-01	0	40	104	0	60	40542
2026-01-23 01:07:29.54	126.49	2.61	-49.5	-61.6	3.6	8.45e-01	0	41	104	0	60	43582
2026-01-23 01:07:33.58	126.36	2.87	-49.5	-61.5	3.6	8.45e-01	0	41	104	0	60	43115
2026-01-23 01:07:37.62	126.22	3.13	-49.4	-60.5	3.6	8.44e-01	0	41	104	0	60	38259
2026-01-23 01:07:41.66	126.08	3.40	-49.5	-61.5	3.6	8.45e-01	0	41	104	0	60	42758
2026-01-23 01:07:45.70	125.94	3.66	-46.9	-50.0	10.3	3.22e-02	0	41	0	8388608	60	11431
2026-01-23 01:07:49.74	125.79	3.93	-49.1	-58.0	3.4	3.15e-04	0	41	0	19922944	60	28617
2026-01-23 01:07:53.78	125.64	4.20	-39.8	-40.7	19.9	0.00e+00	0	41	0	26214400	52	6221
2026-01-23 01:07:57.82	125.49	4.47	-38.6	-39.5	21.3	0.00e+00	0	41	0	49283072	50	6069
2026-01-23 01:08:01.86	125.34	4.75	-39.5	-40.4	20.7	0.00e+00	0	41	0	72351744	50	6756
2026-01-23 01:08:05.89	125.18	5.03	-38.9	-39.7	21.2	0.00e+00	0	41	0	94371840	52	5564
2026-01-23 01:08:09.93	125.02	5.31	-37.9	-38.7	22.2	0.00e+00	0	41	0	117440512	50	5559
2026-01-23 01:08:13.97	124.86	5.59	-37.3	-38.1	22.7	0.00e+00	0	41	0	140509184	48	5799
2026-01-23 01:08:18.01	124.69	5.88	-37.0	-37.8	23.0	0.00e+00	0	41	0	162529280	48	5579
2026-01-23 01:08:22.05	124.52	6.17	-37.2	-38.0	22.9	0.00e+00	0	41	0	185597952	48	5716
2026-01-23 01:08:26.09	124.34	6.46	-37.7	-38.5	22.5	0.00e+00	0	41	0	208666624	48	6055
2026-01-23 01:08:30.13	124.16	6.76	-37.4	-38.2	22.8	0.00e+00	0	41	0	230686720	48	5851
2026-01-23 01:08:34.17	123.98	7.06	-37.5	-38.2	22.7	0.00e+00	0	41	0	253755392	48	5882
2026-01-23 01:08:38.21	123.79	7.36	-37.2	-38.0	23.1	0.00e+00	0	41	0	276824064	48	5703
2026-01-23 01:08:42.25	123.60	7.67	-37.2	-37.9	23.1	0.00e+00	0	41	0	298844160	48	5680
2026-01-23 01:08:46.28	123.41	7.97	-36.9	-37.6	23.4	0.00e+00	0	41	0	321912832	46	6156
2026-01-23 01:08:50.32	123.21	8.29	-36.8	-37.6	23.5	0.00e+00	0	41	0	344981504	46	6118
2026-01-23 01:08:54.36	123.00	8.60	-36.8	-37.5	23.7	0.00e+00	0	41	0	367001600	46	6058
2026-01-23 01:08:58.39	122.79	8.92	-36.9	-37.6	23.5	0.00e+00	0	41	0	390070272	46	6134
2026-01-23 01:09:02.44	122.58	9.25	-36.8	-37.5	23.6	0.00e+00	0	41	0	413138944	46	6087
2026-01-23 01:09:06.48	122.36	9.57	-36.6	-37.3	23.8	0.00e+00	0	41	0	435159040	46	5932
2026-01-23 01:09:10.52	122.14	9.91	-36.3	-37.0	24.1	0.00e+00	0	41	0	458227712	46	5742
2026-01-23 01:09:14.56	121.91	10.24	-36.3	-37.0	24.2	0.00e+00	0	41	0	481296384	46	5718
2026-01-23 01:09:18.60	121.67	10.58	-36.3	-37.0	24.1	0.00e+00	0	41	0	503316480	46	5720
2026-01-23 01:09:22.64	121.43	10.92	-36.4	-37.1	24.1	0.00e+00	0	41	0	526385152	46	5813
2026-01-23 01:09:26.68	121.18	11.27	-36.4	-37.1	24.1	0.00e+00	0	41	0	549453824	46	5772
2026-01-23 01:09:30.72	120.93	11.63	-36.2	-36.9	24.2	0.00e+00	0	41	0	571473920	46	5682
2026-01-23 01:09:34.75	120.67	11.98	-36.0	-36.7	24.6	0.00e+00	0	41	0	594542592	46	5521
2026-01-23 01:09:38.79	120.40	12.34	-35.6	-36.3	24.8	0.00e+00	0	41	0	617611264	44	5912
2026-01-23 01:09:42.83	120.13	12.71	-35.4	-36.1	25.0	0.00e+00	0	41	0	639631360	44	5779
2026-01-23 01:09:46.87	119.85	13.08	-35.3	-36.0	25.2	0.00e+00	0	41	0	662700032	44	5742
2026-01-23 01:09:50.91	119.56	13.46	-35.3	-36.0	25.2	0.00e+00	0	41	0	685768704	44	5713
2026-01-23 01:09:54.94	119.26	13.84	-35.4	-36.1	25.0	0.00e+00	0	41	0	707788800	44	5782
2026-01-23 01:09:58.98	118.96	14.23	-35.0	-35.7	25.3	0.00e+00	0	41	0	730857472	44	5524
2026-01-23 01:10:03.02	118.64	14.62	-34.9	-35.5	25.5	0.00e+00	0	41	0	753926144	44	5427
2026-01-23 01:10:07.05	118.32	15.01	-34.8	-35.5	25.6	0.00e+00	0	41	0	775946240	44	5402
2026-01-23 01:10:11.09	117.99	15.42	-34.7	-35.3	25.7	0.00e+00	0	41	0	799014912	42	5948
2026-01-23 01:10:15.13	117.65	15.83	-34.7	-35.4	25.7	0.00e+00	0	41	0	822083584	42	5989
2026-01-23 01:10:19.17	117.30	16.24	-34.6	-35.3	25.8	0.00e+00	0	41	0	844103680	42	5923
2026-01-23 01:10:23.21	116.94	16.66	-34.3	-34.9	26.1	0.00e+00	0	41	0	867172352	42	5695
2026-01-23 01:10:27.25	116.57	17.09	-34.2	-34.9	26.2	0.00e+00	0	41	0	890241024	42	5653
2026-01-23 01:10:31.29	116.19	17.52	-34.2	-34.9	26.1	0.00e+00	0	41	0	912261120	42	5647
2026-01-23 01:10:35.33	115.80	17.96	-34.2	-34.8	26.3	0.00e+00	0	41	0	935329792	42	5618
2026-01-23 01:10:39.37	115.39	18.41	-34.1	-34.8	26.4	0.00e+00	0	41	0	958398464	42	5585
2026-01-23 01:10:43.40	114.98	18.86	-33.8	-34.4	26.6	0.00e+00	0	41	0	980418560	40	6025
2026-01-23 01:10:47.45	114.54	19.32	-33.6	-34.2	26.7	0.00e+00	0	41	0	1003487232	40	5855
2026-01-23 01:10:51.49	114.10	19.79	-33.7	-34.3	26.6	0.00e+00	0	41	0	1026555904	40	5928
2026-01-23 01:10:55.53	113.64	20.26	-33.7	-34.3	26.7	0.00e+00	0	41	0	1048576000	40	5939
2026-01-23 01:10:59.56	113.17	20.74	-33.5	-34.1	26.8	0.00e+00	0	42	0	1071644672	40	5813
2026-01-23 01:11:03.60	112.68	21.23	-33.3	-33.9	27.1	0.00e+00	0	42	0	1094713344	40	5693
2026-01-23 01:11:07.65	112.17	21.73	-33.4	-34.0	27.0	0.00e+00	0	41	0	1116733440	40	5739
2026-01-23 01:11:11.68	111.65	22.23	-33.5	-34.1	26.9	0.00e+00	0	41	0	1139802112	40	5791
2026-01-23 01:11:15.72	111.11	22.74	-33.4	-34.0	27.0	0.00e+00	0	42	0	1162870784	40	5747
2026-01-23 01:11:19.76	110.56	23.25	-32.9	-33.5	27.4	0.00e+00	0	41	0	1184890880	40	5419
2026-01-23 01:11:23.80	109.98	23.78	-32.8	-33.5	27.5	0.00e+00	0	41	0	1207959552	40	5380
2026-01-23 01:11:27.84	109.38	24.31	-33.0	-33.7	27.4	0.00e+00	0	42	0	1231028224	40	5519
2026-01-23 01:11:31.88	108.76	24.85	-32.9	-33.6	27.4	0.00e+00	0	41	0	1253048320	40	5445
2026-01-23 01:11:35.92	108.12	25.40	-32.8	-33.4	27.5	0.00e+00	0	41	0	1276116992	38	5978
2026-01-23 01:11:39.95	107.46	25.95	-32.7	-33.3	27.6	0.00e+00	0	41	0	1299185664	38	5961
2026-01-23 01:11:43.99	106.77	26.51	-32.8	-33.4	27.6	0.00e+00	0	41	0	1321205760	38	5985
2026-01-23 01:11:48.03	106.06	27.08	-32.5	-33.1	27.8	0.00e+00	0	41	0	1344274432	38	5802
2026-01-23 01:11:52.07	105.32	27.65	-32.8	-33.4	27.6	0.00e+00	0	41	0	1367343104	38	6032
2026-01-23 01:11:56.11	104.56	28.23	-32.6	-33.2	27.7	0.00e+00	0	41	0	1389363200	38	5862
2026-01-23 01:12:00.15	103.76	28.82	-32.7	-33.3	27.6	0.00e+00	0	41	0	1412431872	38	5941
2026-01-23 01:12:04.19	102.94	29.42	-32.7	-33.3	27.7	0.00e+00	0	41	0	1435500544	38	5947
2026-01-23 01:12:08.22	102.08	30.01	-32.2	-32.8	28.1	0.00e+00	0	42	0	1457520640	38	5591
2026-01-23 01:12:12.26	101.19	30.62	-32.5	-33.1	27.8	0.00e+00	0	42	0	1480589312	38	5821
2026-01-23 01:12:16.30	100.27	31.23	-32.5	-33.2	27.7	0.00e+00	0	41	0	1503657984	38	5830
2026-01-23 01:12:20.34	99.31	31.84	-32.2	-32.8	28.0	0.00e+00	0	42	0	1525678080	38	5629
2026-01-23 01:12:24.38	98.31	32.46	-32.2	-32.8	28.1	0.00e+00	0	42	0	1548746752	38	5594
2026-01-23 01:12:28.42	97.27	33.07	-32.1	-32.7	28.2	0.00e+00	0	41	0	1571815424	38	5527
2026-01-23 01:12:32.46	96.20	33.69	-32.6	-33.2	27.8	0.00e+00	0	42	0	1593835520	38	5892
2026-01-23 01:12:36.50	95.08	34.31	-32.0	-32.6	28.2	0.00e+00	0	41	0	1616904192	38	5496
2026-01-23 01:12:40.54	93.91	34.93	-32.1	-32.7	28.2	0.00e+00	0	42	0	1639972864	38	5529
2026-01-23 01:12:44.58	92.71	35.55	-32.0	-32.6	28.2	0.00e+00	0	41	0	1661992960	38	5492
2026-01-23 01:12:48.62	91.45	36.17	-32.4	-33.0	28.0	0.00e+00	0	41	0	1685061632	38	5704
2026-01-23 01:12:52.66	90.15	36.78	-32.4	-32.9	28.0	0.00e+00	0	41	0	1708130304	38	5695
2026-01-23 01:12:56.70	88.79	37.38	-32.7	-33.2	27.7	0.00e+00	0	42	0	1730150400	38	5896
2026-01-23 01:13:00.74	87.39	37.98	-32.5	-33.1	27.8	0.00e+00	0	42	0	1753219072	38	5794
2026-01-23 01:13:04.78	85.93	38.56	-32.2	-32.8	28.1	0.00e+00	0	42	0	1776287744	38	5591
2026-01-23 01:13:08.81	84.43	39.13	-32.5	-33.1	27.8	0.00e+00	0	41	0	1798307840	38	5824
2026-01-23 01:13:12.85	82.87	39.69	-32.0	-32.6	28.2	0.00e+00	0	42	0	1821376512	38	5454
2026-01-23 01:13:16.89	81.25	40.24	-32.2	-32.8	28.1	0.00e+00	0	41	0	1844445184	38	5609
2026-01-23 01:13:20.93	79.58	40.76	-32.4	-33.0	28.0	0.00e+00	0	41	0	1866465280	38	5732
2026-01-23 01:13:24.98	77.85	41.26	-32.1	-32.8	28.1	0.00e+00	0	41	0	1889533952	38	5596
2026-01-23 01:13:29.02	76.07	41.74	-31.9	-32.5	28.3	0.00e+00	0	41	0	1912602624	38	5422
2026-01-23 01:13:33.05	74.24	42.19	-32.0	-32.6	28.3	0.00e+00	0	41	0	1934622720	38	5475
2026-01-23 01:13:37.09	72.36	42.62	-32.1	-32.7	28.2	0.00e+00	0	41	0	1957691392	38	5553
2026-01-23 01:13:41.13	70.43	43.01	-31.9	-32.5	28.4	0.00e+00	0	41	0	1980760064	38	5411
2026-01-23 01:13:45.17	68.46	43.37	-31.9	-32.5	28.4	0.00e+00	0	41	0	2002780160	36	6072
2026-01-23 01:13:49.22	66.43	43.69	-31.9	-32.5	28.4	0.00e+00	0	41	0	2025848832	36	6075
2026-01-23 01:13:53.25	64.38	43.97	-32.0	-32.5	28.3	0.00e+00	0	41	0	2048917504	36	6103
2026-01-23 01:13:57.29	62.29	44.22	-32.0	-32.6	28.3	0.00e+00	0	41	0	2070937600	36	6168
2026-01-23 01:14:01.33	60.17	44.42	-32.0	-32.6	28.4	0.00e+00	0	41	0	2094006272	36	6129
2026-01-23 01:14:05.37	58.03	44.58	-31.7	-32.3	28.5	0.00e+00	0	41	0	2117074944	36	5905
2026-01-23 01:14:09.41	55.86	44.69	-32.0	-32.6	28.3	0.00e+00	0	41	0	2139095040	36	6131
2026-01-23 01:14:13.45	53.69	44.76	-31.8	-32.3	28.3	0.00e+00	0	41	0	2162163712	36	5962
2026-01-23 01:14:17.49	51.51	44.78	-31.6	-32.3	28.5	0.00e+00	0	41	0	2185232384	36	5897
2026-01-23 01:14:21.53	49.33	44.76	-31.6	-32.2	28.5	0.00e+00	0	41	0	2207252480	36	5832
2026-01-23 01:14:25.56	47.16	44.69	-31.4	-32.1	28.5	0.00e+00	0	41	0	2230321152	36	5776
2026-01-23 01:14:29.60	45.00	44.57	-31.7	-32.3	28.4	0.00e+00	0	41	0	2253389824	36	5947
2026-01-23 01:14:33.64	42.85	44.41	-31.8	-32.5	28.4	0.00e+00	0	41	0	2275409920	36	6037
2026-01-23 01:14:37.68	40.74	44.21	-31.5	-32.1	28.6	0.00e+00	0	41	0	2298478592	36	5798
2026-01-23 01:14:41.72	38.65	43.96	-31.7	-32.4	28.4	0.00e+00	0	41	0	2321547264	36	5978
2026-01-23 01:14:45.76	36.60	43.68	-31.6	-32.2	28.6	0.00e+00	0	41	0	2344615936	36	5855
2026-01-23 01:14:49.80	34.58	43.35	-31.7	-32.3	28.4	0.00e+00	0	41	0	2366636032	36	5962
2026-01-23 01:14:53.84	32.61	42.99	-31.6	-32.3	28.5	0.00e+00	0	41	0	2389704704	36	5897
2026-01-23 01:14:57.88	30.69	42.60	-31.6	-32.3	28.6	0.00e+00	0	41	0	2411724800	36	5935
2026-01-23 01:15:01.92	28.81	42.18	-31.6	-32.1	28.7	0.00e+00	0	41	0	2434793472	36	5776
2026-01-23 01:15:05.96	26.98	41.72	-31.6	-32.2	28.6	0.00e+00	0	41	0	2457862144	36	5845
2026-01-23 01:15:10.00	25.21	41.24	-31.7	-32.3	28.5	0.00e+00	0	41	0	2479882240	36	5915
2026-01-23 01:15:14.04	23.49	40.74	-31.6	-32.2	28.5	0.00e+00	0	41	0	2502950912	36	5894
2026-01-23 01:15:18.08	21.83	40.22	-31.5	-32.0	28.6	0.00e+00	0	41	0	2526019584	36	5760
2026-01-23 01:15:22.11	20.22	39.68	-31.7	-32.3	28.4	0.00e+00	0	41	0	2549088256	36	5900
2026-01-23 01:15:26.15	18.66	39.12	-31.6	-32.2	28.6	0.00e+00	0	41	0	2571108352	36	5839
2026-01-23 01:15:30.18	17.16	38.55	-31.7	-32.2	28.4	0.00e+00	0	41	0	2594177024	36	5895
2026-01-23 01:15:34.23	15.71	37.96	-31.9	-32.6	28.3	0.00e+00	0	41	0	2616197120	36	6112
2026-01-23 01:15:38.26	14.31	37.37	-32.1	-32.8	28.1	0.00e+00	0	41	0	2639265792	36	6262
2026-01-23 01:15:42.30	12.96	36.77	-31.7	-32.3	28.4	0.00e+00	0	41	0	2662334464	36	5915
2026-01-23 01:15:46.33	11.67	36.16	-31.4	-32.0	28.8	0.00e+00	0	41	0	2684354560	36	5733
2026-01-23 01:15:50.37	10.42	35.55	-31.4	-32.0	28.4	0.00e+00	0	41	0	2707423232	36	5700
2026-01-23 01:15:54.41	9.22	34.93	-31.5	-32.1	28.1	0.00e+00	0	41	0	2730491904	36	5799
2026-01-23 01:15:58.45	8.06	34.31	-31.4	-32.1	28.4	0.00e+00	0	41	0	2752512000	36	5788
2026-01-23 01:16:02.49	6.94	33.69	-31.2	-31.7	28.8	0.00e+00	0	41	0	2775580672	36	5526
2026-01-23 01:16:06.52	5.87	33.08	-31.2	-31.7	28.7	0.00e+00	0	41	0	2798649344	36	5548
2026-01-23 01:16:10.56	4.84	32.46	-31.6	-32.2	28.5	0.00e+00	0	41	0	2820669440	36	5833
2026-01-23 01:16:14.60	3.85	31.85	-31.8	-32.5	28.3	0.00e+00	0	41	0	2843738112	36	6047
2026-01-23 01:16:18.63	2.90	31.24	-31.6	-32.3	28.4	0.00e+00	0	41	0	2866806784	36	5921
2026-01-23 01:16:22.67	1.98	30.63	-32.1	-32.8	28.1	0.00e+00	0	41	0	2888826880	36	6259
2026-01-23 01:16:26.71	1.09	30.03	-32.1	-32.6	28.2	0.00e+00	0	41	0	2911895552	36	6136
2026-01-23 01:16:30.75	0.24	29.43	-32.1	-32.6	28.1	0.00e+00	0	41	0	2934964224	36	6160
2026-01-23 01:16:34.79	359.42	28.84	-32.0	-32.7	28.1	0.00e+00	0	41	0	2956984320	36	6222
2026-01-23 01:16:38.83	358.62	28.25	-32.0	-32.7	28.2	0.00e+00	0	41	0	2980052992	36	6207
2026-01-23 01:16:42.87	357.86	27.68	-32.3	-32.9	27.9	0.00e+00	0	41	0	3003121664	36	6339
2026-01-23 01:16:46.90	357.13	27.10	-32.3	-33.0	28.0	0.00e+00	0	41	0	3025141760	36	6417
2026-01-23 01:16:50.94	356.42	26.54	-32.0	-32.6	28.1	0.00e+00	0	41	0	3048210432	36	6123
2026-01-23 01:16:54.98	355.73	25.98	-32.2	-32.7	28.0	0.00e+00	0	41	0	3071279104	36	6207
2026-01-23 01:16:59.02	355.07	25.43	-32.3	-32.9	27.8	0.00e+00	0	41	0	3093299200	36	6324
2026-01-23 01:17:03.06	354.44	24.88	-32.4	-33.1	27.8	0.00e+00	0	41	0	3116367872	36	6490
2026-01-23 01:17:07.10	353.82	24.35	-32.1	-32.7	28.1	0.00e+00	0	41	0	3139436544	36	6238
2026-01-23 01:17:11.14	353.23	23.82	-32.4	-33.1	27.8	0.00e+00	0	41	0	3161456640	36	6505
2026-01-23 01:17:15.18	352.65	23.29	-32.3	-33.0	27.8	0.00e+00	0	41	0	3184525312	36	6399
2026-01-23 01:17:19.22	352.10	22.78	-32.6	-33.1	27.7	0.00e+00	0	41	0	3207593984	36	6537
2026-01-23 01:17:23.26	351.56	22.27	-33.0	-33.7	27.3	0.00e+00	0	41	0	3229614080	38	6238
2026-01-23 01:17:27.30	351.04	21.77	-32.8	-33.4	27.4	0.00e+00	0	41	0	3252682752	38	5990
2026-01-23 01:17:31.34	350.54	21.28	-33.0	-33.5	27.3	0.00e+00	0	41	0	3275751424	38	6099
2026-01-23 01:17:35.38	350.06	20.79	-33.0	-33.6	27.3	0.00e+00	0	41	0	3297771520	38	6119
2026-01-23 01:17:39.42	349.59	20.31	-33.1	-33.7	27.2	0.00e+00	0	41	0	3320840192	38	6203
2026-01-23 01:17:43.45	349.13	19.84	-33.0	-33.6	27.2	0.00e+00	0	41	0	3343908864	38	6127
2026-01-23 01:17:47.49	348.69	19.38	-33.5	-34.2	27.0	0.00e+00	0	41	0	3365928960	38	6557
2026-01-23 01:17:51.53	348.26	18.92	-33.9	-34.5	26.5	0.00e+00	0	41	0	3388997632	40	6056
2026-01-23 01:17:55.57	347.85	18.47	-33.9	-34.5	26.5	0.00e+00	0	41	0	3412066304	40	6088
2026-01-23 01:17:59.61	347.45	18.02	-34.3	-34.9	26.2	0.00e+00	0	41	0	3434086400	40	6359
2026-01-23 01:18:03.63	347.06	17.59	-34.1	-34.9	26.3	0.00e+00	0	41	0	3457155072	40	6325
2026-01-23 01:18:07.66	346.68	17.15	-34.2	-34.8	26.3	0.00e+00	0	41	0	3479175168	40	6273
2026-01-23 01:18:11.70	346.31	16.73	-34.2	-34.9	26.3	0.00e+00	0	41	0	3502243840	40	6351
2026-01-23 01:18:15.74	345.95	16.31	-34.2	-34.7	26.3	0.00e+00	0	41	0	3525312512	40	6231
2026-01-23 01:18:19.78	345.61	15.89	-34.3	-35.0	26.1	0.00e+00	0	41	0	3548381184	40	6458
2026-01-23 01:18:23.82	345.27	15.49	-34.6	-35.1	25.7	0.00e+00	0	41	0	3570401280	40	6531
2026-01-23 01:18:27.86	344.94	15.08	-34.5	-35.1	25.9	0.00e+00	0	41	0	3593469952	40	6510
2026-01-23 01:18:31.90	344.62	14.69	-34.6	-35.2	25.8	0.00e+00	0	41	0	3615490048	42	5881
2026-01-23 01:18:35.93	344.31	14.30	-34.9	-35.5	25.6	0.00e+00	0	41	0	3638558720	42	6054
2026-01-23 01:18:39.97	344.01	13.91	-35.1	-35.7	25.4	0.00e+00	0	41	0	3661627392	42	6203
2026-01-23 01:18:44.01	343.72	13.53	-35.4	-36.0	25.2	0.00e+00	0	41	0	3683647488	42	6432
2026-01-23 01:18:48.05	343.43	13.16	-35.6	-36.4	24.9	0.00e+00	0	41	0	3706716160	42	6728
2026-01-23 01:18:52.09	343.15	12.79	-35.6	-36.4	24.9	0.00e+00	0	41	0	3729784832	42	6715
2026-01-23 01:18:56.13	342.88	12.42	-35.3	-35.9	25.1	0.00e+00	0	41	0	3752853504	44	5678
2026-01-23 01:19:00.17	342.62	12.06	-35.4	-36.1	25.0	0.00e+00	0	41	0	3774873600	44	5801
2026-01-23 01:19:04.21	342.36	11.70	-35.3	-36.0	25.1	0.00e+00	0	41	0	3797942272	44	5739
2026-01-23 01:19:08.25	342.11	11.35	-35.5	-36.2	24.9	0.00e+00	0	41	0	3819962368	44	5875
2026-01-23 01:19:12.29	341.86	11.00	-35.5	-36.2	24.9	0.00e+00	0	41	0	3843031040	44	5889
2026-01-23 01:19:16.32	341.63	10.66	-35.8	-36.5	24.6	0.00e+00	0	41	0	3866099712	44	6087
2026-01-23 01:19:20.35	341.39	10.32	-36.0	-36.6	24.4	0.00e+00	0	41	0	3888119808	44	6159
2026-01-23 01:19:24.39	341.17	9.99	-36.0	-36.7	24.4	0.00e+00	0	41	0	3911188480	44	6183
2026-01-23 01:19:28.43	340.95	9.66	-36.1	-36.7	24.3	0.00e+00	0	41	0	3934257152	44	6220
2026-01-23 01:19:32.47	340.73	9.33	-36.5	-37.3	24.0	0.00e+00	0	41	0	3956277248	44	6627
2026-01-23 01:19:36.51	340.52	9.01	-36.5	-37.1	23.9	0.00e+00	0	41	0	3979345920	44	6499
2026-01-23 01:19:40.55	340.31	8.69	-36.9	-37.6	23.5	0.00e+00	0	41	0	4002414592	46	6135
2026-01-23 01:19:44.58	340.11	8.38	-36.8	-37.6	23.6	0.00e+00	0	41	0	4024434688	46	6162
2026-01-23 01:19:48.63	339.91	8.06	-37.1	-37.8	23.3	0.00e+00	0	41	0	4047503360	46	6286
2026-01-23 01:19:52.66	339.72	7.76	-36.8	-37.5	23.5	0.00e+00	0	41	0	4070572032	46	6060
2026-01-23 01:19:56.70	339.53	7.45	-36.8	-37.6	23.6	0.00e+00	0	41	0	4092592128	46	6141
2026-01-23 01:20:00.74	339.35	7.15	-36.9	-37.6	23.4	0.00e+00	0	41	0	4115660800	46	6118
2026-01-23 01:20:04.78	339.17	6.85	-37.2	-37.9	23.1	0.00e+00	0	41	0	4138729472	46	6351
2026-01-23 01:20:08.82	338.99	6.55	-37.7	-38.4	22.5	0.00e+00	0	41	0	4160749568	48	5986
2026-01-23 01:20:12.85	338.82	6.26	-37.7	-38.5	22.4	0.00e+00	0	41	0	4183818240	48	6088
2026-01-23 01:20:16.89	338.65	5.97	-37.0	-37.7	23.0	0.00e+00	0	41	0	4206886912	48	5513
2026-01-23 01:20:20.94	338.49	5.69	-37.6	-38.5	22.2	0.00e+00	0	41	0	4228907008	48	6034
2026-01-23 01:20:24.97	338.33	5.40	-38.4	-39.4	20.9	0.00e+00	0	41	0	4251975680	48	6731
2026-01-23 01:20:29.01	338.17	5.12	-40.1	-41.1	18.5	0.00e+00	0	41	0	4275044352	52	6535
2026-01-23 01:20:33.05	338.02	4.84	-41.8	-43.4	15.4	1.10e-06	0	41	0	4297064448	56	6729
2026-01-23 01:20:37.09	337.87	4.57	-44.0	-47.1	10.8	2.10e-03	0	41	0	4320133120	60	8162
2026-01-23 01:20:41.13	337.72	4.30	-45.1	-49.9	6.5	1.44e-01	0	42	0	4343201792	60	11318
2026-01-23 01:20:45.17	337.57	4.03	-45.8	-53.3	3.9	8.26e-01	0	42	0	4351590400	60	16647
2026-01-23 01:20:49.21	337.43	3.76	-45.9	-56.3	3.7	8.44e-01	0	41	104	4351590400	60	23491
2026-01-23 01:20:53.25	337.29	3.49	-45.9	-57.5	3.6	8.45e-01	0	42	104	4351590400	60	27013
2026-01-23 01:20:57.28	337.16	3.23	-45.9	-58.0	3.6	8.45e-01	0	41	104	4351590400	60	28621
2026-01-23 01:21:01.32	337.02	2.97	-45.9	-57.9	3.6	8.45e-01	0	41	104	4351590400	60	28513
2026-01-23 01:21:05.36	336.89	2.71	-50.7	-62.8	3.6	8.46e-01	0	42	104	4351590400	60	50113
2026-01-23 01:21:09.40	336.76	2.45	-51.0	-63.1	3.6	8.45e-01	0	42	104	4351590400	60	51738
2026-01-23 01:21:13.44	336.64	2.20	-51.0	-63.2	3.6	8.44e-01	0	42	104	4351590400	60	52233
2026-01-23 01:21:17.49	336.51	1.95	-50.7	-63.1	3.6	8.46e-01	0	42	104	4351590400	60	51737
2026-01-23 01:21:21.52	336.39	1.70	-51.0	-63.1	3.6	8.45e-01	0	42	104	4351590400	60	51446
2026-01-23 01:21:25.56	336.27	1.45	-51.0	-63.2	3.6	8.46e-01	0	42	104	4351590400	60	52060
2026-01-23 01:21:29.60	336.16	1.20	-51.0	-63.1	3.6	8.45e-01	0	42	104	4351590400	60	51466
2026-01-23 01:21:33.65	336.04	0.96	-51.0	-63.1	3.6	8.45e-01	0	42	104	4351590400	60	51582
2026-01-23 01:21:37.69	335.93	0.72	-51.0	-63.1	3.6	8.45e-01	0	42	104	4351590400	60	51709
2026-01-23 01:21:41.73	335.82	0.48	-51.0	-63.1	3.6	8.45e-01	0	42	104	4351590400	60	51652
2026-01-23 01:21:45.78	335.71	0.24	-50.9	-63.1	3.6	8.44e-01	0	42	104	4351590400	60	51505
2026-01-23 01:21:49.82	335.60	0.00	-50.9	-63.1	3.6	8.46e-01	0	42	104	4351590400	60	51588

#Closed at: 2026-01-23 01:21:51
#Recorded file [4351 MB]: D:/lorett/data/35029_260123_130649.dat