passes_logs/2026/01/23/R4.6S_Anadyr/R4.6S_Anadyr__20260123_232022_NOAA_21_JPSS-2_rec.log

#Pass ID: 20260123_232022_NOAA 21 (JPSS-2)
#Satellite: NOAA 21 (JPSS-2)
#Configuration: NOAA-21
#almurnet v.1.7.20251203
#Start time: 2026-01-23 23:20:28

#Version: 2.2.20231116
#Station: R4.6S_Anadyr
#Location: 177.4865 lon 64.73178 lat
#TLE: 1 54234U 22150A   26023.61190495  .00000215  00000+0  12293-3 0  9993
#TLE: 2 54234  98.7508 324.4078 0000700 226.6110 133.5008 14.19538339166032

#Time	Az	El	Level	Level2	SNR	BER	BlckErr	Temp	State	Recorded	gain1	gain2
2026-01-23 23:20:28.42	134.59	0.33	-51.7	-53.3	5.7	0.00e+00	0	39	0	0	60	56478
2026-01-23 23:20:32.46	134.50	0.58	-51.3	-64.2	3.5	1.52e+00	0	41	104	0	60	56597
2026-01-23 23:20:36.50	134.42	0.82	-51.3	-64.1	3.5	1.52e+00	0	41	104	0	60	56108
2026-01-23 23:20:40.54	134.33	1.07	-51.1	-63.8	3.5	1.52e+00	0	41	104	0	60	54648
2026-01-23 23:20:44.58	134.24	1.32	-50.8	-63.5	3.5	1.52e+00	0	41	104	0	60	52804
2026-01-23 23:20:48.62	134.14	1.57	-50.2	-62.9	3.5	1.52e+00	0	41	104	0	60	49169
2026-01-23 23:20:52.66	134.05	1.82	-49.7	-62.7	3.5	1.52e+00	0	41	104	0	60	47839
2026-01-23 23:20:56.70	133.95	2.08	-49.7	-62.5	3.5	1.52e+00	0	41	104	0	60	46969
2026-01-23 23:21:00.74	133.85	2.33	-49.7	-62.3	3.5	1.52e+00	0	41	104	0	60	45831
2026-01-23 23:21:04.78	133.75	2.59	-49.7	-62.6	3.5	1.52e+00	0	41	104	0	60	47604
2026-01-23 23:21:08.82	133.65	2.85	-49.7	-62.0	3.5	1.52e+00	0	41	104	0	60	44232
2026-01-23 23:21:12.86	133.55	3.12	-49.6	-61.5	3.5	1.52e+00	0	41	104	0	60	41737
2026-01-23 23:21:16.90	133.44	3.39	-49.7	-62.0	3.5	1.52e+00	0	41	104	0	60	44439
2026-01-23 23:21:20.95	133.33	3.66	-47.1	-50.7	10.9	6.58e-03	0	41	0	6291456	60	12042
2026-01-23 23:21:24.98	133.22	3.93	-44.8	-47.2	5.1	1.48e+00	0	41	104	13631488	60	8021
2026-01-23 23:21:29.02	133.11	4.20	-42.9	-44.5	17.6	0.00e+00	0	41	0	14680064	60	5868
2026-01-23 23:21:33.05	132.99	4.48	-41.4	-42.7	19.6	0.00e+00	0	41	0	27262976	56	6008
2026-01-23 23:21:37.09	132.88	4.76	-40.5	-41.6	20.2	0.00e+00	0	41	0	39845888	54	5992
2026-01-23 23:21:41.13	132.76	5.04	-40.2	-41.4	20.4	0.00e+00	0	41	0	52428800	54	5801
2026-01-23 23:21:45.17	132.63	5.33	-39.8	-40.9	20.9	0.00e+00	0	41	0	65011712	54	5528
2026-01-23 23:21:49.21	132.51	5.61	-39.9	-41.1	20.7	0.00e+00	0	41	0	77594624	54	5618
2026-01-23 23:21:53.25	132.38	5.91	-40.0	-41.1	20.7	0.00e+00	0	41	0	90177536	54	5645
2026-01-23 23:21:57.29	132.25	6.20	-39.8	-40.9	21.0	0.00e+00	0	41	0	102760448	52	6167
2026-01-23 23:22:01.33	132.11	6.50	-39.8	-40.9	21.1	0.00e+00	0	41	0	115343360	52	6170
2026-01-23 23:22:05.36	131.98	6.80	-39.6	-40.8	21.2	0.00e+00	0	41	0	127926272	52	6066
2026-01-23 23:22:09.40	131.84	7.10	-39.8	-40.9	21.2	0.00e+00	0	41	0	140509184	52	6199
2026-01-23 23:22:13.44	131.69	7.41	-39.7	-40.9	21.2	0.00e+00	0	41	0	153092096	52	6156
2026-01-23 23:22:17.47	131.55	7.72	-39.3	-40.3	21.7	0.00e+00	0	41	0	165675008	52	5778
2026-01-23 23:22:21.51	131.40	8.04	-39.4	-40.5	21.6	0.00e+00	0	41	0	178257920	52	5887
2026-01-23 23:22:25.55	131.24	8.36	-39.0	-40.0	22.0	0.00e+00	0	41	0	190840832	52	5591
2026-01-23 23:22:29.59	131.09	8.68	-38.9	-39.9	22.2	0.00e+00	0	41	0	203423744	52	5510
2026-01-23 23:22:33.63	130.93	9.01	-38.7	-39.7	22.4	0.00e+00	0	41	0	216006656	50	6019
2026-01-23 23:22:37.67	130.76	9.34	-38.4	-39.4	22.5	0.00e+00	0	41	0	228589568	50	5845
2026-01-23 23:22:41.71	130.59	9.67	-38.3	-39.3	22.8	0.00e+00	0	41	0	241172480	50	5731
2026-01-23 23:22:45.75	130.42	10.01	-38.2	-39.2	22.9	0.00e+00	0	41	0	254803968	50	5683
2026-01-23 23:22:49.79	130.24	10.36	-38.1	-39.1	22.9	0.00e+00	0	41	0	267386880	50	5626
2026-01-23 23:22:53.83	130.06	10.71	-37.9	-38.8	23.2	0.00e+00	0	41	0	279969792	50	5460
2026-01-23 23:22:57.87	129.87	11.06	-38.0	-39.0	23.1	0.00e+00	0	41	0	292552704	50	5555
2026-01-23 23:23:01.91	129.68	11.42	-37.6	-38.6	23.4	0.00e+00	0	41	0	305135616	48	5935
2026-01-23 23:23:05.94	129.48	11.78	-37.4	-38.4	23.5	0.00e+00	0	41	0	317718528	48	5812
2026-01-23 23:23:09.98	129.28	12.15	-37.6	-38.6	23.3	0.00e+00	0	41	0	330301440	48	5938
2026-01-23 23:23:14.03	129.07	12.52	-37.4	-38.3	23.5	0.00e+00	0	41	0	342884352	48	5756
2026-01-23 23:23:18.06	128.86	12.90	-37.3	-38.2	23.7	0.00e+00	0	41	0	355467264	48	5708
2026-01-23 23:23:22.10	128.64	13.28	-37.3	-38.3	23.6	0.00e+00	0	41	0	368050176	48	5742
2026-01-23 23:23:26.15	128.41	13.67	-37.3	-38.2	23.7	0.00e+00	0	41	0	380633088	48	5688
2026-01-23 23:23:30.19	128.18	14.07	-37.4	-38.3	23.6	0.00e+00	0	41	0	393216000	48	5768
2026-01-23 23:23:34.23	127.94	14.47	-37.3	-38.3	23.7	0.00e+00	0	41	0	405798912	48	5740
2026-01-23 23:23:38.27	127.69	14.88	-37.5	-38.5	23.6	0.00e+00	0	41	0	418381824	48	5861
2026-01-23 23:23:42.31	127.44	15.29	-37.6	-38.5	23.6	0.00e+00	0	41	0	430964736	48	5909
2026-01-23 23:23:46.35	127.18	15.72	-37.5	-38.4	23.7	0.00e+00	0	41	0	443547648	48	5835
2026-01-23 23:23:50.39	126.91	16.14	-37.3	-38.2	23.7	0.00e+00	0	41	0	456130560	48	5719
2026-01-23 23:23:54.43	126.64	16.58	-37.5	-38.5	23.6	0.00e+00	0	41	0	468713472	48	5878
2026-01-23 23:23:58.47	126.35	17.02	-37.7	-38.7	23.5	0.00e+00	0	41	0	481296384	48	6026
2026-01-23 23:24:02.51	126.06	17.47	-37.8	-38.8	23.4	0.00e+00	0	41	0	493879296	48	6085
2026-01-23 23:24:06.55	125.76	17.93	-37.9	-38.9	23.3	0.00e+00	0	41	0	506462208	48	6166
2026-01-23 23:24:10.59	125.44	18.39	-38.1	-39.1	23.2	0.00e+00	0	42	0	519045120	48	6288
2026-01-23 23:24:14.63	125.12	18.86	-37.8	-38.8	23.5	0.00e+00	0	41	0	531628032	48	6081
2026-01-23 23:24:18.67	124.79	19.34	-37.6	-38.6	23.6	0.00e+00	0	42	0	544210944	48	5928
2026-01-23 23:24:22.71	124.44	19.83	-37.3	-38.3	23.9	0.00e+00	0	41	0	556793856	48	5726
2026-01-23 23:24:26.75	124.09	20.33	-37.3	-38.2	23.9	0.00e+00	0	41	0	570425344	48	5702
2026-01-23 23:24:30.79	123.72	20.84	-37.1	-38.0	24.1	0.00e+00	0	42	0	583008256	48	5556
2026-01-23 23:24:34.83	123.34	21.35	-36.7	-37.6	24.4	0.00e+00	0	42	0	595591168	46	5945
2026-01-23 23:24:38.86	122.95	21.87	-36.4	-37.2	24.6	0.00e+00	0	42	0	608174080	46	5716
2026-01-23 23:24:42.90	122.54	22.41	-36.3	-37.2	24.7	0.00e+00	0	42	0	620756992	46	5705
2026-01-23 23:24:46.95	122.11	22.95	-36.2	-37.1	24.6	0.00e+00	0	41	0	633339904	46	5600
2026-01-23 23:24:50.98	121.68	23.50	-36.4	-37.2	24.6	0.00e+00	0	42	0	645922816	46	5720
2026-01-23 23:24:55.02	121.22	24.07	-36.3	-37.2	24.8	0.00e+00	0	42	0	658505728	46	5704
2026-01-23 23:24:59.07	120.75	24.64	-36.4	-37.3	24.7	0.00e+00	0	42	0	671088640	46	5780
2026-01-23 23:25:03.11	120.26	25.23	-36.8	-37.7	24.3	0.00e+00	0	42	0	683671552	46	6041
2026-01-23 23:25:07.15	119.75	25.82	-37.0	-37.9	24.1	0.00e+00	0	42	0	696254464	46	6199
2026-01-23 23:25:11.19	119.22	26.43	-37.2	-38.1	24.0	0.00e+00	0	42	0	708837376	46	6331
2026-01-23 23:25:15.24	118.67	27.05	-37.4	-38.3	23.9	0.00e+00	0	42	0	721420288	46	6442
2026-01-23 23:25:19.28	118.10	27.67	-37.4	-38.3	23.6	0.00e+00	0	42	0	734003200	46	6465
2026-01-23 23:25:23.32	117.50	28.31	-37.7	-38.7	23.5	0.00e+00	0	42	0	746586112	48	6028
2026-01-23 23:25:27.36	116.88	28.96	-37.5	-38.5	23.9	0.00e+00	0	42	0	759169024	48	5860
2026-01-23 23:25:31.39	116.23	29.62	-37.2	-38.1	23.9	0.00e+00	0	42	0	771751936	48	5640
2026-01-23 23:25:35.43	115.56	30.30	-37.5	-38.5	23.3	0.00e+00	0	42	0	784334848	48	5860
2026-01-23 23:25:39.46	114.85	30.98	-37.7	-38.7	23.6	0.00e+00	0	42	0	796917760	48	6017
2026-01-23 23:25:43.50	114.12	31.67	-37.2	-38.1	24.1	0.00e+00	0	42	0	809500672	48	5657
2026-01-23 23:25:47.54	113.35	32.38	-37.1	-38.1	23.8	0.00e+00	0	42	0	822083584	48	5598
2026-01-23 23:25:51.58	112.55	33.10	-37.7	-38.6	23.7	0.00e+00	0	42	0	834666496	48	5967
2026-01-23 23:25:55.62	111.71	33.82	-37.9	-38.8	23.7	0.00e+00	0	42	0	847249408	48	6104
2026-01-23 23:25:59.66	110.83	34.56	-38.3	-39.3	23.3	0.00e+00	0	42	0	859832320	48	6443
2026-01-23 23:26:03.70	109.91	35.31	-38.8	-39.8	22.8	0.00e+00	0	42	0	872415232	50	6119
2026-01-23 23:26:07.74	108.94	36.06	-38.7	-39.7	23.0	0.00e+00	0	42	0	886046720	50	6034
2026-01-23 23:26:11.78	107.93	36.83	-39.7	-40.8	22.1	0.00e+00	0	42	0	897581056	50	6813
2026-01-23 23:26:15.82	106.87	37.60	-39.5	-40.5	22.3	0.00e+00	0	42	0	911212544	52	5923
2026-01-23 23:26:19.86	105.76	38.37	-39.3	-40.3	22.4	0.00e+00	0	42	0	923795456	52	5771
2026-01-23 23:26:23.90	104.59	39.15	-39.1	-40.1	22.4	0.00e+00	0	42	0	936378368	52	5656
2026-01-23 23:26:27.94	103.37	39.94	-39.4	-40.4	22.2	0.00e+00	0	42	0	948961280	52	5825
2026-01-23 23:26:31.97	102.09	40.72	-39.6	-40.6	22.1	0.00e+00	0	42	0	961544192	52	5989
2026-01-23 23:26:36.01	100.74	41.51	-40.3	-41.4	21.5	0.00e+00	0	42	0	974127104	52	6553
2026-01-23 23:26:40.05	99.32	42.29	-40.3	-41.4	21.4	0.00e+00	0	42	0	986710016	52	6553
2026-01-23 23:26:44.09	97.83	43.07	-40.3	-41.4	21.6	0.00e+00	0	42	0	999292928	52	6536
2026-01-23 23:26:48.13	96.27	43.85	-40.0	-41.1	21.9	0.00e+00	0	42	0	1011875840	52	6296
2026-01-23 23:26:52.17	94.63	44.61	-40.4	-41.4	21.7	0.00e+00	0	42	0	1024458752	52	6568
2026-01-23 23:26:56.21	92.91	45.36	-40.1	-41.1	21.8	0.00e+00	0	42	0	1037041664	52	6342
2026-01-23 23:27:00.25	91.10	46.09	-40.6	-41.8	21.4	0.00e+00	0	42	0	1049624576	52	6805
2026-01-23 23:27:04.29	89.21	46.80	-39.8	-40.9	22.1	0.00e+00	0	42	0	1062207488	54	5472
2026-01-23 23:27:08.33	87.24	47.49	-39.3	-40.3	22.6	0.00e+00	0	42	0	1074790400	52	5746
2026-01-23 23:27:12.37	85.17	48.15	-39.8	-40.9	21.9	0.00e+00	0	42	0	1087373312	52	6167
2026-01-23 23:27:16.41	83.02	48.78	-39.7	-40.8	22.1	0.00e+00	0	42	0	1099956224	52	6096
2026-01-23 23:27:20.45	80.79	49.37	-39.9	-40.9	22.0	0.00e+00	0	42	0	1112539136	52	6182
2026-01-23 23:27:24.49	78.46	49.92	-39.3	-40.3	22.5	0.00e+00	0	42	0	1125122048	52	5767
2026-01-23 23:27:28.53	76.06	50.43	-39.7	-40.8	22.0	0.00e+00	0	42	0	1137704960	52	6100
2026-01-23 23:27:32.56	73.58	50.88	-39.6	-40.6	22.3	0.00e+00	0	42	0	1150287872	52	5959
2026-01-23 23:27:36.60	71.03	51.28	-39.9	-41.0	22.1	0.00e+00	0	42	0	1162870784	52	6226
2026-01-23 23:27:40.64	68.41	51.62	-39.8	-40.8	22.0	0.00e+00	0	42	0	1175453696	52	6116
2026-01-23 23:27:44.68	65.74	51.89	-40.0	-41.1	21.3	0.00e+00	0	42	0	1188036608	52	6311
2026-01-23 23:27:48.72	63.02	52.11	-39.1	-40.2	22.7	0.00e+00	0	42	0	1200619520	52	5667
2026-01-23 23:27:52.76	60.27	52.25	-38.7	-39.7	23.2	0.00e+00	0	42	0	1213202432	52	5370
2026-01-23 23:27:56.80	57.50	52.33	-38.5	-39.5	23.3	0.00e+00	0	42	0	1226833920	50	5873
2026-01-23 23:28:00.82	54.73	52.34	-38.0	-38.9	23.5	0.00e+00	0	42	0	1238368256	50	5487
2026-01-23 23:28:04.84	51.97	52.27	-38.3	-39.3	23.2	0.00e+00	0	42	0	1251999744	50	5749
2026-01-23 23:28:08.88	49.22	52.14	-38.0	-38.9	23.2	0.00e+00	0	42	0	1263534080	50	5529
2026-01-23 23:28:12.92	46.49	51.95	-39.0	-39.9	22.8	0.00e+00	0	42	0	1277165568	50	6203
2026-01-23 23:28:16.96	43.81	51.68	-39.3	-40.3	22.3	0.00e+00	0	42	0	1289748480	50	6475
2026-01-23 23:28:20.99	41.19	51.36	-38.8	-39.8	22.9	0.00e+00	0	42	0	1302331392	50	6091
2026-01-23 23:28:25.03	38.62	50.97	-40.3	-41.4	21.3	0.00e+00	0	42	0	1314914304	52	6541
2026-01-23 23:28:29.07	36.13	50.53	-39.1	-40.1	22.6	0.00e+00	0	42	0	1327497216	52	5630
2026-01-23 23:28:33.11	33.71	50.04	-39.8	-40.9	21.7	0.00e+00	0	42	0	1340080128	52	6135
2026-01-23 23:28:37.15	31.37	49.50	-40.2	-41.2	21.8	0.00e+00	0	42	0	1352663040	52	6411
2026-01-23 23:28:41.19	29.11	48.92	-38.3	-39.2	23.6	0.00e+00	0	42	0	1365245952	50	5673
2026-01-23 23:28:45.22	26.95	48.30	-40.1	-41.2	21.3	0.00e+00	0	42	0	1377828864	52	6368
2026-01-23 23:28:49.26	24.87	47.65	-38.8	-39.7	22.8	0.00e+00	0	42	0	1390411776	50	6056
2026-01-23 23:28:53.30	22.88	46.97	-39.9	-40.9	21.7	0.00e+00	0	42	0	1402994688	54	5530
2026-01-23 23:28:57.34	20.98	46.27	-38.9	-39.8	23.0	0.00e+00	0	42	0	1415577600	50	6102
2026-01-23 23:29:01.38	19.16	45.54	-40.8	-42.0	20.7	0.00e+00	0	42	0	1428160512	54	6242
2026-01-23 23:29:05.42	17.42	44.79	-40.8	-41.9	21.1	0.00e+00	0	42	0	1440743424	54	6170
2026-01-23 23:29:09.46	15.77	44.04	-41.0	-42.1	21.1	0.00e+00	0	42	0	1453326336	56	5642
2026-01-23 23:29:13.50	14.19	43.27	-39.8	-40.8	22.0	0.00e+00	0	42	0	1465909248	52	6104
2026-01-23 23:29:17.54	12.69	42.49	-41.6	-42.8	20.0	0.00e+00	0	42	0	1478492160	56	6129
2026-01-23 23:29:21.58	11.26	41.71	-38.6	-39.6	23.1	0.00e+00	0	42	0	1491075072	50	5946
2026-01-23 23:29:25.62	9.90	40.93	-40.8	-42.0	21.1	0.00e+00	0	42	0	1503657984	54	6221
2026-01-23 23:29:29.67	8.60	40.14	-39.0	-39.9	22.9	0.00e+00	0	42	0	1516240896	52	5522
2026-01-23 23:29:33.71	7.36	39.36	-38.7	-39.6	23.1	0.00e+00	0	42	0	1528823808	50	5991
2026-01-23 23:29:37.75	6.19	38.58	-40.1	-41.3	21.2	0.00e+00	0	42	0	1541406720	52	6460
2026-01-23 23:29:41.79	5.06	37.80	-38.5	-39.5	23.2	0.00e+00	0	42	0	1553989632	50	5866
2026-01-23 23:29:45.83	4.00	37.03	-39.2	-40.2	22.5	0.00e+00	0	42	0	1566572544	50	6363
2026-01-23 23:29:49.87	2.98	36.27	-38.5	-39.4	23.2	0.00e+00	0	42	0	1579155456	50	5850
2026-01-23 23:29:53.91	2.01	35.52	-38.1	-39.1	23.1	0.00e+00	0	42	0	1592786944	50	5627
2026-01-23 23:29:57.95	1.08	34.77	-39.5	-40.5	22.4	0.00e+00	0	42	0	1605369856	50	6615
2026-01-23 23:30:01.99	0.19	34.03	-38.2	-39.2	23.2	0.00e+00	0	42	0	1617952768	50	5669
2026-01-23 23:30:06.02	359.35	33.31	-37.9	-38.8	23.7	0.00e+00	0	42	0	1630535680	48	6120
2026-01-23 23:30:10.06	358.54	32.59	-38.3	-39.3	23.2	0.00e+00	0	42	0	1643118592	48	6477
2026-01-23 23:30:14.11	357.76	31.89	-37.7	-38.6	23.6	0.00e+00	0	42	0	1655701504	48	5969
2026-01-23 23:30:18.15	357.02	31.19	-37.7	-38.7	23.6	0.00e+00	0	42	0	1668284416	48	6019
2026-01-23 23:30:22.19	356.31	30.51	-37.8	-38.8	23.6	0.00e+00	0	42	0	1680867328	48	6078
2026-01-23 23:30:26.23	355.64	29.83	-37.7	-38.6	23.8	0.00e+00	0	42	0	1693450240	48	5954
2026-01-23 23:30:30.27	354.98	29.17	-37.1	-38.0	23.8	0.00e+00	0	42	0	1706033152	48	5581
2026-01-23 23:30:34.31	354.36	28.52	-37.1	-38.0	24.0	0.00e+00	0	42	0	1718616064	48	5583
2026-01-23 23:30:38.35	353.76	27.88	-37.1	-38.0	24.1	0.00e+00	0	42	0	1731198976	48	5566
2026-01-23 23:30:42.39	353.18	27.25	-36.9	-37.9	24.3	0.00e+00	0	42	0	1743781888	48	5472
2026-01-23 23:30:46.42	352.63	26.64	-36.7	-37.6	24.2	0.00e+00	0	42	0	1756364800	46	5987
2026-01-23 23:30:50.46	352.10	26.03	-36.7	-37.6	24.3	0.00e+00	0	42	0	1768947712	46	5927
2026-01-23 23:30:54.50	351.59	25.44	-36.7	-37.6	24.4	0.00e+00	0	42	0	1781530624	46	5943
2026-01-23 23:30:58.54	351.10	24.85	-36.7	-37.6	24.6	0.00e+00	0	42	0	1794113536	46	5949
2026-01-23 23:31:02.57	350.63	24.28	-36.6	-37.5	24.6	0.00e+00	0	42	0	1806696448	46	5899
2026-01-23 23:31:06.61	350.17	23.71	-36.6	-37.5	24.6	0.00e+00	0	42	0	1819279360	46	5867
2026-01-23 23:31:10.65	349.73	23.16	-37.0	-38.0	24.2	0.00e+00	0	42	0	1831862272	46	6217
2026-01-23 23:31:14.68	349.31	22.62	-37.3	-38.2	23.9	0.00e+00	0	42	0	1844445184	46	6397
2026-01-23 23:31:18.72	348.90	22.08	-37.5	-38.4	23.6	0.00e+00	0	42	0	1857028096	46	6558
2026-01-23 23:31:22.76	348.50	21.56	-36.8	-37.8	24.0	0.00e+00	0	42	0	1869611008	46	6067
2026-01-23 23:31:26.80	348.12	21.04	-36.3	-37.2	24.5	0.00e+00	0	42	0	1882193920	46	5710
2026-01-23 23:31:30.84	347.75	20.54	-36.0	-36.9	24.8	0.00e+00	0	42	0	1894776832	46	5471
2026-01-23 23:31:34.88	347.39	20.04	-35.9	-36.8	24.8	0.00e+00	0	42	0	1907359744	46	5425
2026-01-23 23:31:38.92	347.05	19.55	-36.1	-36.9	24.8	0.00e+00	0	42	0	1919942656	46	5530
2026-01-23 23:31:42.96	346.72	19.07	-36.4	-37.2	24.5	0.00e+00	0	42	0	1933574144	46	5723
2026-01-23 23:31:47.00	346.39	18.60	-36.7	-37.7	24.2	0.00e+00	0	42	0	1946157056	46	5996
2026-01-23 23:31:51.05	346.08	18.13	-37.0	-38.0	23.9	0.00e+00	0	42	0	1958739968	46	6215
2026-01-23 23:31:55.09	345.78	17.67	-37.2	-38.2	23.6	0.00e+00	0	42	0	1971322880	46	6361
2026-01-23 23:31:59.13	345.48	17.22	-37.4	-38.3	23.4	0.00e+00	0	42	0	1983905792	46	6483
2026-01-23 23:32:03.17	345.20	16.78	-37.5	-38.4	23.3	0.00e+00	0	42	0	1996488704	46	6542
2026-01-23 23:32:07.21	344.92	16.34	-37.6	-38.5	23.3	0.00e+00	0	42	0	2009071616	48	5901
2026-01-23 23:32:11.25	344.66	15.92	-37.5	-38.4	23.5	0.00e+00	0	42	0	2021654528	48	5841
2026-01-23 23:32:15.29	344.40	15.50	-37.7	-38.6	23.3	0.00e+00	0	42	0	2034237440	48	5993
2026-01-23 23:32:19.33	344.15	15.08	-37.6	-38.6	23.4	0.00e+00	0	42	0	2046820352	48	5956
2026-01-23 23:32:23.37	343.90	14.67	-37.7	-38.7	23.3	0.00e+00	0	42	0	2059403264	48	6008
2026-01-23 23:32:27.41	343.66	14.27	-37.7	-38.7	23.4	0.00e+00	0	42	0	2071986176	48	6024
2026-01-23 23:32:31.45	343.43	13.87	-37.6	-38.6	23.4	0.00e+00	0	42	0	2084569088	48	5955
2026-01-23 23:32:35.49	343.21	13.48	-37.9	-38.9	23.1	0.00e+00	0	42	0	2097152000	48	6183
2026-01-23 23:32:39.53	342.99	13.10	-37.6	-38.6	23.2	0.00e+00	0	42	0	2109734912	48	5938
2026-01-23 23:32:43.57	342.78	12.72	-37.6	-38.6	23.3	0.00e+00	0	42	0	2122317824	48	5950
2026-01-23 23:32:47.61	342.57	12.35	-37.8	-38.8	23.1	0.00e+00	0	42	0	2134900736	48	6087
2026-01-23 23:32:51.65	342.37	11.98	-38.0	-39.0	22.9	0.00e+00	0	42	0	2147483648	48	6239
2026-01-23 23:32:55.69	342.17	11.61	-38.2	-39.2	22.8	0.00e+00	0	42	0	2160066560	48	6357
2026-01-23 23:32:59.72	341.98	11.26	-38.1	-39.1	22.8	0.00e+00	0	42	0	2172649472	48	6323
2026-01-23 23:33:03.76	341.80	10.90	-38.1	-39.1	22.8	0.00e+00	0	42	0	2185232384	48	6342
2026-01-23 23:33:07.80	341.62	10.55	-38.4	-39.5	22.6	0.00e+00	0	42	0	2197815296	48	6580
2026-01-23 23:33:11.84	341.44	10.21	-38.7	-39.7	22.3	0.00e+00	0	42	0	2210398208	50	6029
2026-01-23 23:33:15.87	341.27	9.87	-38.4	-39.4	22.5	0.00e+00	0	42	0	2222981120	50	5843
2026-01-23 23:33:19.92	341.10	9.53	-38.6	-39.6	22.3	0.00e+00	0	42	0	2235564032	50	5974
2026-01-23 23:33:23.96	340.94	9.20	-38.7	-39.7	22.1	0.00e+00	0	42	0	2249195520	50	6043
2026-01-23 23:33:28.00	340.78	8.87	-38.8	-39.9	22.0	0.00e+00	0	42	0	2261778432	50	6150
2026-01-23 23:33:32.04	340.62	8.55	-38.9	-40.0	22.0	0.00e+00	0	42	0	2274361344	50	6207
2026-01-23 23:33:36.08	340.47	8.23	-39.1	-40.2	21.7	0.00e+00	0	42	0	2286944256	50	6401
2026-01-23 23:33:40.12	340.32	7.92	-39.2	-40.2	21.7	0.00e+00	0	42	0	2299527168	50	6423
2026-01-23 23:33:44.16	340.18	7.60	-39.2	-40.3	21.5	0.00e+00	0	43	0	2312110080	50	6479
2026-01-23 23:33:48.20	340.04	7.30	-39.6	-40.7	21.2	0.00e+00	0	42	0	2324692992	50	6770
2026-01-23 23:33:52.24	339.90	6.99	-39.7	-40.9	21.0	0.00e+00	0	42	0	2337275904	50	6900
2026-01-23 23:33:56.28	339.77	6.69	-39.8	-41.0	20.9	0.00e+00	0	42	0	2349858816	52	6208
2026-01-23 23:34:00.32	339.63	6.39	-39.8	-41.0	20.9	0.00e+00	0	42	0	2362441728	52	6217
2026-01-23 23:34:04.35	339.51	6.10	-40.1	-41.3	20.4	0.00e+00	0	42	0	2375024640	52	6483
2026-01-23 23:34:08.39	339.38	5.81	-40.3	-41.6	20.0	0.00e+00	0	42	0	2387607552	52	6674
2026-01-23 23:34:12.43	339.26	5.52	-41.0	-42.3	19.0	0.00e+00	0	42	0	2400190464	54	6469
2026-01-23 23:34:16.47	339.14	5.23	-41.9	-43.6	17.3	0.00e+00	0	42	0	2412773376	56	6666
2026-01-23 23:34:20.51	339.02	4.95	-43.2	-45.5	14.7	0.00e+00	0	42	0	2425356288	58	7377
2026-01-23 23:34:24.55	338.91	4.67	-44.6	-47.9	11.6	4.71e-04	0	42	0	2437939200	60	8702
2026-01-23 23:34:28.60	338.79	4.39	-45.6	-50.8	7.3	1.03e-01	0	42	0	2450522112	60	12222
2026-01-23 23:34:32.64	338.68	4.12	-46.1	-55.1	4.5	1.24e+00	0	43	104	2455764992	60	20021
2026-01-23 23:34:36.68	338.57	3.84	-46.2	-58.7	3.5	1.51e+00	0	43	104	2455764992	60	30249
2026-01-23 23:34:40.71	338.47	3.58	-46.4	-58.2	3.5	1.51e+00	0	42	104	2455764992	60	28451
2026-01-23 23:34:44.76	338.37	3.31	-46.2	-58.9	3.5	1.52e+00	0	42	104	2455764992	60	30791
2026-01-23 23:34:48.79	338.27	3.04	-46.3	-59.1	3.5	1.52e+00	0	42	104	2455764992	60	31522
2026-01-23 23:34:52.84	338.17	2.78	-50.5	-63.4	3.5	1.52e+00	0	42	104	2455764992	60	51751
2026-01-23 23:34:56.87	338.07	2.52	-51.0	-63.8	3.5	1.52e+00	0	42	104	2455764992	60	54458
2026-01-23 23:35:00.91	337.97	2.27	-51.1	-64.0	3.5	1.52e+00	0	42	104	2455764992	60	55424
2026-01-23 23:35:04.94	337.88	2.01	-51.0	-64.0	3.5	1.52e+00	0	42	104	2455764992	60	55397
2026-01-23 23:35:08.98	337.79	1.76	-51.1	-63.9	3.5	1.52e+00	0	42	104	2455764992	60	55210
2026-01-23 23:35:13.02	337.70	1.51	-51.1	-63.9	3.5	1.52e+00	0	42	104	2455764992	60	55052
2026-01-23 23:35:17.07	337.61	1.26	-51.1	-64.0	3.5	1.52e+00	0	43	104	2455764992	60	55591
2026-01-23 23:35:21.11	337.53	1.01	-51.1	-64.0	3.5	1.52e+00	0	42	104	2455764992	60	55794
2026-01-23 23:35:25.15	337.44	0.77	-51.1	-64.0	3.5	1.52e+00	0	42	104	2455764992	60	55497
2026-01-23 23:35:29.19	337.36	0.52	-51.1	-64.0	3.5	1.52e+00	0	42	104	2455764992	60	55352
2026-01-23 23:35:33.22	337.28	0.28	-51.1	-64.0	3.5	1.52e+00	0	42	104	2455764992	60	55414
2026-01-23 23:35:37.26	337.20	0.04	-51.2	-64.0	3.5	1.52e+00	0	42	104	2455764992	60	55773

#Closed at: 2026-01-23 23:35:39
#Recorded file [2455 MB]: D:/lorett/data/35029_260124_112028.dat