passes_logs/2026/01/23/R4.6S_Anadyr/R4.6S_Anadyr__20260123_002914_NOAA_20_JPSS-1_rec.log

#Pass ID: 20260123_002914_NOAA 20 (JPSS-1)
#Satellite: NOAA 20 (JPSS-1)
#Configuration: NOAA 20
#almurnet v.1.7.20251203
#Start time: 2026-01-23 00:29:16

#Version: 2.2.20231116
#Station: R4.6S_Anadyr
#Location: 177.4865 lon 64.73178 lat
#TLE: 1 43013U 17073A   26022.44900781  .00000193  00000+0  11233-3 0  9999
#TLE: 2 43013  98.7645 323.3100 0001197  28.8413 331.2829 14.19538802423792

#Time	Az	El	Level	Level2	SNR	BER	BlckErr	Temp	State	Recorded	gain1	gain2
2026-01-23 00:29:16.83	162.94	0.15	-51.3	-66.2	3.5	1.51e+00	0	38	0	0	60	73760
2026-01-23 00:29:20.87	162.99	0.40	-51.1	-66.4	3.6	1.51e+00	0	40	104	0	60	75126
2026-01-23 00:29:24.91	163.03	0.64	-51.2	-66.4	3.6	1.51e+00	0	40	104	0	60	75088
2026-01-23 00:29:28.94	163.08	0.89	-51.1	-66.3	3.6	1.51e+00	0	40	104	0	60	74899
2026-01-23 00:29:32.98	163.13	1.14	-50.8	-66.0	3.6	1.51e+00	0	40	104	0	60	72186
2026-01-23 00:29:37.02	163.18	1.39	-49.1	-64.3	3.6	1.51e+00	0	40	104	0	60	59346
2026-01-23 00:29:41.06	163.23	1.65	-49.8	-64.9	3.6	1.51e+00	0	40	104	0	60	63226
2026-01-23 00:29:45.10	163.28	1.90	-49.8	-64.8	3.6	1.51e+00	0	40	104	0	60	62782
2026-01-23 00:29:49.14	163.33	2.16	-49.8	-65.0	3.6	1.51e+00	0	40	104	0	60	63944
2026-01-23 00:29:53.18	163.38	2.42	-49.8	-64.8	3.6	1.51e+00	0	40	104	0	60	63030
2026-01-23 00:29:57.22	163.43	2.69	-49.7	-64.4	3.6	1.51e+00	0	40	104	0	60	60205
2026-01-23 00:30:01.26	163.48	2.95	-49.7	-64.5	3.6	1.51e+00	0	40	104	0	60	60356
2026-01-23 00:30:05.30	163.54	3.22	-49.6	-62.4	3.8	1.50e+00	0	40	104	0	60	47584
2026-01-23 00:30:09.34	163.59	3.49	-48.5	-54.1	9.2	4.59e-02	0	40	0	6291456	60	18416
2026-01-23 00:30:13.38	163.65	3.77	-47.6	-51.7	12.1	3.39e-04	91	40	0	13631488	60	13853
2026-01-23 00:30:17.42	163.70	4.05	-48.0	-52.8	12.3	4.88e-01	92	40	104	17825792	60	15765
2026-01-23 00:30:21.46	163.76	4.33	-47.3	-51.2	12.5	3.09e-01	90	40	104	17825792	60	13183
2026-01-23 00:30:25.50	163.82	4.61	-46.6	-49.6	14.5	7.60e-06	92	40	0	24117248	60	10877
2026-01-23 00:30:29.54	163.87	4.89	-45.5	-47.8	16.4	0.00e+00	92	40	0	31457280	60	8884
2026-01-23 00:30:33.57	163.93	5.18	-44.1	-45.8	18.5	0.00e+00	92	40	0	39845888	60	7068
2026-01-23 00:30:37.60	163.99	5.47	-44.2	-45.9	18.1	0.00e+00	92	40	0	47185920	60	7134
2026-01-23 00:30:41.64	164.05	5.77	-44.2	-45.9	18.7	0.00e+00	35	40	0	54525952	60	7157
2026-01-23 00:30:45.68	164.12	6.07	-44.0	-45.6	19.0	0.00e+00	92	40	0	61865984	60	6905
2026-01-23 00:30:49.72	164.18	6.37	-43.6	-45.2	19.2	0.00e+00	92	40	0	70254592	60	6565
2026-01-23 00:30:53.76	164.24	6.68	-43.3	-44.7	19.9	0.00e+00	0	40	0	77594624	60	6240
2026-01-23 00:30:57.80	164.31	6.99	-42.9	-44.3	20.2	0.00e+00	92	40	0	84934656	60	5923
2026-01-23 00:31:01.84	164.38	7.30	-42.7	-44.0	20.3	0.00e+00	93	40	0	92274688	58	6411
2026-01-23 00:31:05.88	164.44	7.62	-42.7	-44.1	20.3	0.00e+00	92	41	0	100663296	58	6473
2026-01-23 00:31:09.92	164.51	7.94	-42.7	-44.0	20.4	0.00e+00	0	41	0	108003328	58	6420
2026-01-23 00:31:13.97	164.58	8.26	-42.5	-43.8	20.6	0.00e+00	91	40	0	115343360	58	6246
2026-01-23 00:31:18.01	164.65	8.59	-42.7	-44.0	20.4	0.00e+00	91	40	0	122683392	58	6459
2026-01-23 00:31:22.04	164.73	8.92	-42.7	-44.0	20.9	0.00e+00	90	41	0	130023424	58	6441
2026-01-23 00:31:26.08	164.80	9.26	-42.4	-43.7	20.8	0.00e+00	2	41	0	138412032	58	6189
2026-01-23 00:31:30.12	164.88	9.61	-41.9	-43.1	21.3	0.00e+00	92	40	0	145752064	58	5795
2026-01-23 00:31:34.16	164.95	9.95	-41.9	-43.1	21.4	0.00e+00	92	41	0	153092096	56	6485
2026-01-23 00:31:38.20	165.03	10.31	-41.6	-42.7	21.8	0.00e+00	92	41	0	160432128	56	6183
2026-01-23 00:31:42.24	165.11	10.66	-41.5	-42.6	22.0	0.00e+00	68	41	0	168820736	56	6137
2026-01-23 00:31:46.28	165.20	11.03	-41.2	-42.3	22.3	0.00e+00	92	41	0	176160768	56	5932
2026-01-23 00:31:50.32	165.28	11.39	-41.3	-42.4	22.2	0.00e+00	91	41	0	183500800	56	5966
2026-01-23 00:31:54.36	165.36	11.77	-41.1	-42.1	22.5	0.00e+00	0	41	0	190840832	56	5798
2026-01-23 00:31:58.40	165.45	12.15	-40.9	-41.9	22.7	0.00e+00	39	41	0	198180864	56	5641
2026-01-23 00:32:02.44	165.54	12.53	-40.7	-41.7	22.7	0.00e+00	92	41	0	206569472	54	6174
2026-01-23 00:32:06.48	165.63	12.92	-40.6	-41.6	22.9	0.00e+00	92	41	0	213909504	54	6127
2026-01-23 00:32:10.51	165.73	13.32	-40.8	-41.8	22.8	0.00e+00	12	41	0	221249536	54	6259
2026-01-23 00:32:14.54	165.82	13.73	-40.9	-42.0	22.5	0.00e+00	78	41	0	228589568	54	6391
2026-01-23 00:32:18.58	165.92	14.14	-40.6	-41.6	22.9	0.00e+00	92	41	0	236978176	54	6105
2026-01-23 00:32:22.63	166.02	14.56	-40.6	-41.5	23.1	0.00e+00	92	41	0	244318208	54	6076
2026-01-23 00:32:26.66	166.12	14.98	-40.5	-41.5	23.0	0.00e+00	45	41	0	251658240	54	6060
2026-01-23 00:32:30.71	166.23	15.42	-40.5	-41.4	23.0	0.00e+00	92	41	0	258998272	54	6019
2026-01-23 00:32:34.74	166.33	15.85	-40.5	-41.5	23.0	0.00e+00	92	41	0	266338304	54	6048
2026-01-23 00:32:38.78	166.45	16.30	-40.4	-41.3	23.3	0.00e+00	92	41	0	274726912	54	5931
2026-01-23 00:32:42.81	166.56	16.76	-40.3	-41.2	23.3	0.00e+00	35	41	0	282066944	54	5892
2026-01-23 00:32:46.85	166.68	17.23	-40.4	-41.3	23.2	0.00e+00	92	41	0	289406976	54	5923
2026-01-23 00:32:50.88	166.80	17.70	-40.3	-41.2	23.3	0.00e+00	92	41	0	296747008	54	5892
2026-01-23 00:32:54.92	166.92	18.18	-40.4	-41.3	23.3	0.00e+00	90	41	0	305135616	54	5924
2026-01-23 00:32:58.96	167.05	18.68	-40.4	-41.4	23.3	0.00e+00	0	41	0	312475648	54	5971
2026-01-23 00:33:02.99	167.18	19.18	-40.5	-41.4	23.2	0.00e+00	90	41	0	319815680	54	6023
2026-01-23 00:33:07.03	167.31	19.69	-40.7	-41.7	23.0	0.00e+00	92	41	0	327155712	54	6206
2026-01-23 00:33:11.07	167.45	20.22	-40.8	-41.8	22.9	0.00e+00	92	41	0	334495744	54	6246
2026-01-23 00:33:15.10	167.59	20.75	-41.1	-42.1	22.6	0.00e+00	7	41	0	342884352	54	6509
2026-01-23 00:33:19.14	167.74	21.30	-41.1	-42.1	22.5	0.00e+00	93	41	0	350224384	54	6503
2026-01-23 00:33:23.18	167.89	21.86	-41.2	-42.2	22.6	0.00e+00	90	41	0	357564416	54	6581
2026-01-23 00:33:27.22	168.05	22.43	-41.2	-42.2	22.5	0.00e+00	92	41	0	364904448	54	6587
2026-01-23 00:33:31.26	168.21	23.02	-41.2	-42.2	22.5	0.00e+00	0	41	0	373293056	54	6602
2026-01-23 00:33:35.29	168.38	23.61	-41.3	-42.4	22.3	0.00e+00	92	41	0	380633088	54	6703
2026-01-23 00:33:39.33	168.56	24.23	-41.2	-42.2	22.5	0.00e+00	92	41	0	387973120	54	6605
2026-01-23 00:33:43.37	168.74	24.85	-41.0	-42.0	22.7	0.00e+00	57	41	0	395313152	54	6451
2026-01-23 00:33:47.41	168.93	25.49	-40.7	-41.7	23.0	0.00e+00	92	41	0	402653184	54	6196
2026-01-23 00:33:51.45	169.12	26.15	-40.8	-41.7	23.1	0.00e+00	92	41	0	411041792	54	6232
2026-01-23 00:33:55.49	169.33	26.82	-40.8	-41.8	22.9	0.00e+00	92	41	0	418381824	54	6270
2026-01-23 00:33:59.52	169.54	27.51	-41.0	-42.0	22.7	0.00e+00	0	41	0	425721856	54	6403
2026-01-23 00:34:03.55	169.76	28.22	-41.3	-42.3	22.5	0.00e+00	92	41	0	433061888	54	6629
2026-01-23 00:34:07.59	169.99	28.94	-41.9	-43.0	22.0	0.00e+00	92	41	0	440401920	56	6425
2026-01-23 00:34:11.63	170.23	29.69	-42.2	-43.3	21.6	0.00e+00	90	41	0	448790528	56	6675
2026-01-23 00:34:15.67	170.48	30.45	-42.6	-43.7	21.3	0.00e+00	6	41	0	456130560	56	6979
2026-01-23 00:34:19.70	170.74	31.23	-42.9	-44.1	20.9	0.00e+00	92	41	0	463470592	58	6511
2026-01-23 00:34:23.74	171.01	32.03	-43.4	-44.7	20.3	0.00e+00	91	41	0	470810624	58	6990
2026-01-23 00:34:27.77	171.30	32.86	-42.6	-43.8	21.2	0.00e+00	90	41	0	479199232	58	6317
2026-01-23 00:34:31.81	171.60	33.71	-41.8	-42.8	21.9	0.00e+00	39	41	0	486539264	58	5614
2026-01-23 00:34:35.85	171.92	34.58	-41.2	-42.2	22.7	0.00e+00	92	41	0	493879296	56	5888
2026-01-23 00:34:39.89	172.25	35.47	-40.5	-41.5	23.2	0.00e+00	92	41	0	501219328	54	6052
2026-01-23 00:34:43.93	172.60	36.39	-40.1	-41.0	23.8	0.00e+00	0	41	0	508559360	54	5734
2026-01-23 00:34:47.96	172.98	37.34	-40.5	-41.4	23.2	0.00e+00	23	41	0	516947968	54	6017
2026-01-23 00:34:52.00	173.37	38.31	-40.7	-41.7	23.1	0.00e+00	91	41	0	524288000	54	6193
2026-01-23 00:34:56.04	173.79	39.31	-41.0	-42.0	22.8	0.00e+00	92	41	0	531628032	54	6412
2026-01-23 00:35:00.08	174.23	40.34	-41.4	-42.5	22.4	0.00e+00	9	41	0	538968064	54	6776
2026-01-23 00:35:04.12	174.70	41.39	-41.5	-42.5	22.3	0.00e+00	8	41	0	547356672	54	6816
2026-01-23 00:35:08.16	175.20	42.48	-41.6	-42.6	22.3	0.00e+00	92	41	0	554696704	54	6886
2026-01-23 00:35:12.20	175.74	43.59	-41.4	-42.4	22.5	0.00e+00	92	41	0	562036736	54	6763
2026-01-23 00:35:16.24	176.31	44.74	-42.2	-43.3	21.6	0.00e+00	34	41	0	569376768	56	6689
2026-01-23 00:35:20.28	176.93	45.92	-42.1	-43.1	21.8	0.00e+00	92	41	0	576716800	56	6518
2026-01-23 00:35:24.32	177.60	47.12	-41.7	-42.7	22.3	0.00e+00	92	41	0	585105408	56	6245
2026-01-23 00:35:28.36	178.31	48.36	-42.2	-43.3	21.7	0.00e+00	92	41	0	592445440	56	6672
2026-01-23 00:35:32.40	179.09	49.63	-41.0	-41.9	23.1	0.00e+00	50	41	0	599785472	56	5685
2026-01-23 00:35:36.44	179.93	50.93	-39.0	-39.8	24.8	0.00e+00	45	41	0	607125504	52	5582
2026-01-23 00:35:40.47	180.85	52.26	-38.4	-39.2	25.3	0.00e+00	90	41	0	615514112	50	5880
2026-01-23 00:35:44.51	181.85	53.62	-37.6	-38.4	25.9	0.00e+00	92	41	0	622854144	48	5977
2026-01-23 00:35:48.55	182.96	55.01	-37.5	-38.2	26.0	0.00e+00	0	41	0	630194176	48	5884
2026-01-23 00:35:52.59	184.17	56.42	-38.1	-38.9	25.5	0.00e+00	92	41	0	637534208	48	6352
2026-01-23 00:35:56.62	185.51	57.85	-39.2	-40.0	24.6	0.00e+00	92	41	0	644874240	50	6423
2026-01-23 00:36:00.66	187.01	59.31	-37.9	-38.7	25.7	0.00e+00	91	41	0	653262848	50	5515
2026-01-23 00:36:04.70	188.68	60.78	-37.4	-38.1	26.2	0.00e+00	0	41	0	660602880	48	5782
2026-01-23 00:36:08.74	190.56	62.26	-36.7	-37.4	26.7	0.00e+00	92	41	0	667942912	46	5988
2026-01-23 00:36:12.77	192.67	63.74	-37.2	-37.9	26.2	0.00e+00	92	41	0	675282944	46	6357
2026-01-23 00:36:16.81	195.07	65.22	-38.2	-38.9	25.4	0.00e+00	92	41	0	683671552	48	6364
2026-01-23 00:36:20.85	197.80	66.68	-41.2	-42.2	22.7	0.00e+00	36	41	0	691011584	54	6559
2026-01-23 00:36:24.89	200.94	68.11	-41.5	-42.5	22.5	0.00e+00	92	41	0	698351616	54	6789
2026-01-23 00:36:28.92	204.53	69.50	-41.1	-42.1	22.9	0.00e+00	92	41	0	705691648	56	5772
2026-01-23 00:36:32.94	208.65	70.81	-41.0	-42.0	23.0	0.00e+00	92	41	0	713031680	56	5710
2026-01-23 00:36:36.98	213.42	72.04	-42.8	-44.1	21.1	0.00e+00	8	41	0	721420288	56	7263
2026-01-23 00:36:41.02	218.89	73.14	-42.4	-43.6	21.5	0.00e+00	92	41	0	728760320	58	6108
2026-01-23 00:36:45.06	225.10	74.09	-41.6	-42.7	22.3	0.00e+00	92	41	0	736100352	56	6213
2026-01-23 00:36:49.09	232.03	74.85	-41.8	-42.9	22.2	0.00e+00	92	41	0	743440384	56	6328
2026-01-23 00:36:53.13	239.61	75.37	-41.7	-42.7	22.3	0.00e+00	0	41	0	751828992	56	6213
2026-01-23 00:36:57.17	247.62	75.64	-41.4	-42.4	22.7	0.00e+00	90	41	0	759169024	56	5999
2026-01-23 00:37:01.21	255.77	75.62	-41.7	-42.7	22.3	0.00e+00	90	41	0	766509056	56	6222
2026-01-23 00:37:05.25	263.75	75.33	-43.4	-44.7	20.6	0.00e+00	75	41	0	773849088	60	6213
2026-01-23 00:37:09.28	271.26	74.79	-45.8	-47.9	17.4	0.00e+00	92	41	0	781189120	60	8928
2026-01-23 00:37:13.32	278.14	74.02	-44.4	-46.0	19.2	0.00e+00	92	41	0	789577728	60	7222
2026-01-23 00:37:17.35	284.27	73.06	-43.8	-45.3	19.9	0.00e+00	92	41	0	796917760	60	6623
2026-01-23 00:37:21.39	289.67	71.94	-42.5	-43.7	21.3	0.00e+00	44	41	0	804257792	58	6180
2026-01-23 00:37:25.43	294.38	70.70	-41.6	-42.6	22.3	0.00e+00	92	41	0	811597824	56	6173
2026-01-23 00:37:29.47	298.46	69.38	-41.3	-42.3	22.7	0.00e+00	92	41	0	818937856	56	5945
2026-01-23 00:37:33.50	302.01	67.99	-41.8	-42.9	22.2	0.00e+00	92	41	0	827326464	56	6321
2026-01-23 00:37:37.54	305.10	66.56	-40.3	-41.2	23.7	0.00e+00	0	41	0	834666496	54	5856
2026-01-23 00:37:41.58	307.80	65.10	-39.0	-39.8	24.8	0.00e+00	92	41	0	842006528	52	5579
2026-01-23 00:37:45.62	310.17	63.63	-37.3	-38.0	26.3	0.00e+00	92	41	0	849346560	48	5737
2026-01-23 00:37:49.66	312.26	62.15	-36.8	-37.5	26.6	0.00e+00	92	41	0	857735168	46	6075
2026-01-23 00:37:53.70	314.12	60.67	-36.8	-37.5	26.5	0.00e+00	7	41	0	865075200	46	6035
2026-01-23 00:37:57.74	315.77	59.20	-42.6	-43.9	21.3	0.00e+00	96	41	0	872415232	56	7089
2026-01-23 00:38:01.78	317.25	57.76	-41.2	-42.3	22.5	0.00e+00	92	41	0	879755264	54	6629
2026-01-23 00:38:05.82	318.58	56.33	-39.7	-40.5	24.3	0.00e+00	37	41	0	887095296	52	6103
2026-01-23 00:38:09.86	319.78	54.92	-38.4	-39.2	25.4	0.00e+00	0	41	0	895483904	50	5884
2026-01-23 00:38:13.90	320.88	53.54	-36.6	-37.3	26.7	0.00e+00	92	41	0	902823936	46	5906
2026-01-23 00:38:17.94	321.87	52.19	-38.3	-39.1	25.4	0.00e+00	90	41	0	910163968	48	6500
2026-01-23 00:38:21.97	322.78	50.87	-39.6	-40.5	24.3	0.00e+00	39	41	0	917504000	50	6779
2026-01-23 00:38:26.02	323.62	49.57	-44.6	-46.3	19.1	0.00e+00	0	42	0	925892608	60	7495
2026-01-23 00:38:30.06	324.39	48.31	-42.5	-43.7	21.5	0.00e+00	92	41	0	933232640	58	6221
2026-01-23 00:38:34.10	325.10	47.08	-44.0	-45.5	19.8	0.00e+00	92	41	0	940572672	60	6824
2026-01-23 00:38:38.14	325.76	45.88	-40.8	-41.8	23.2	0.00e+00	46	41	0	947912704	56	5588
2026-01-23 00:38:42.18	326.38	44.71	-41.2	-42.3	22.7	0.00e+00	46	41	0	955252736	54	6637
2026-01-23 00:38:46.22	326.95	43.57	-40.5	-41.4	23.5	0.00e+00	91	41	0	963641344	54	6009
2026-01-23 00:38:50.26	327.48	42.46	-39.0	-39.8	25.0	0.00e+00	0	41	0	970981376	52	5571
2026-01-23 00:38:54.30	327.98	41.38	-43.2	-44.6	20.5	0.00e+00	0	42	0	978321408	58	6863
2026-01-23 00:38:58.34	328.45	40.33	-40.7	-41.6	23.5	0.00e+00	92	41	0	985661440	56	5498
2026-01-23 00:39:02.37	328.89	39.31	-39.7	-40.6	24.1	0.00e+00	92	42	0	994050048	52	6113
2026-01-23 00:39:06.41	329.31	38.32	-42.7	-43.9	21.3	0.00e+00	0	42	0	1001390080	56	7119
2026-01-23 00:39:10.46	329.70	37.35	-41.4	-42.4	22.7	0.00e+00	39	42	0	1008730112	56	6016
2026-01-23 00:39:14.50	330.07	36.41	-39.7	-40.6	24.2	0.00e+00	92	41	0	1016070144	52	6131
2026-01-23 00:39:18.54	330.43	35.50	-40.8	-41.7	23.3	0.00e+00	92	41	0	1024458752	52	6949
2026-01-23 00:39:22.58	330.76	34.61	-41.5	-42.5	22.4	0.00e+00	43	41	0	1031798784	54	6844
2026-01-23 00:39:26.62	331.08	33.74	-42.1	-43.2	21.7	0.00e+00	50	41	0	1039138816	56	6614
2026-01-23 00:39:30.65	331.38	32.90	-41.8	-42.8	22.3	0.00e+00	92	42	0	1046478848	56	6281
2026-01-23 00:39:34.69	331.66	32.08	-41.7	-42.8	22.2	0.00e+00	92	41	0	1053818880	56	6246
2026-01-23 00:39:38.73	331.94	31.28	-42.2	-43.3	21.8	0.00e+00	0	41	0	1062207488	56	6680
2026-01-23 00:39:42.77	332.20	30.50	-42.5	-43.6	21.5	0.00e+00	0	42	0	1069547520	56	6914
2026-01-23 00:39:46.80	332.45	29.74	-42.0	-43.1	22.0	0.00e+00	92	41	0	1076887552	56	6487
2026-01-23 00:39:50.84	332.69	29.00	-41.5	-42.5	22.4	0.00e+00	92	41	0	1084227584	56	6075
2026-01-23 00:39:54.88	332.92	28.28	-40.0	-40.8	23.8	0.00e+00	39	41	0	1091567616	54	5622
2026-01-23 00:39:58.91	333.14	27.58	-39.6	-40.4	24.3	0.00e+00	0	41	0	1099956224	52	6001
2026-01-23 00:40:02.95	333.35	26.90	-39.8	-40.7	24.0	0.00e+00	91	41	0	1107296256	52	6231
2026-01-23 00:40:06.98	333.56	26.23	-40.0	-40.9	23.8	0.00e+00	92	42	0	1114636288	52	6371
2026-01-23 00:40:11.02	333.75	25.57	-39.9	-40.8	24.0	0.00e+00	0	42	0	1121976320	52	6268
2026-01-23 00:40:15.05	333.94	24.94	-39.7	-40.5	24.1	0.00e+00	2	41	0	1130364928	52	6080
2026-01-23 00:40:19.10	334.13	24.31	-39.1	-40.0	24.6	0.00e+00	92	42	0	1137704960	52	5700
2026-01-23 00:40:23.13	334.30	23.71	-39.0	-39.8	24.7	0.00e+00	0	42	0	1145044992	52	5620
2026-01-23 00:40:27.17	334.47	23.11	-39.1	-40.0	24.2	0.00e+00	0	42	0	1152385024	52	5706
2026-01-23 00:40:31.21	334.64	22.53	-39.0	-39.9	24.6	0.00e+00	91	42	0	1159725056	52	5637
2026-01-23 00:40:35.25	334.80	21.96	-39.2	-40.0	24.5	0.00e+00	0	42	0	1168113664	52	5730
2026-01-23 00:40:39.29	334.95	21.40	-39.2	-40.1	24.4	0.00e+00	0	42	0	1175453696	52	5792
2026-01-23 00:40:43.33	335.10	20.86	-39.3	-40.2	24.4	0.00e+00	0	42	0	1182793728	52	5842
2026-01-23 00:40:47.37	335.24	20.33	-39.5	-40.3	24.2	0.00e+00	90	41	0	1190133760	52	5960
2026-01-23 00:40:51.41	335.39	19.80	-39.6	-40.5	24.0	0.00e+00	0	41	0	1198522368	52	6078
2026-01-23 00:40:55.44	335.52	19.29	-39.5	-40.4	24.2	0.00e+00	40	42	0	1205862400	52	5971
2026-01-23 00:40:59.48	335.65	18.79	-39.7	-40.5	24.0	0.00e+00	5	42	0	1213202432	52	6095
2026-01-23 00:41:03.52	335.78	18.30	-39.8	-40.7	23.8	0.00e+00	91	42	0	1220542464	52	6227
2026-01-23 00:41:07.56	335.91	17.82	-39.9	-40.8	23.7	0.00e+00	36	41	0	1227882496	52	6266
2026-01-23 00:41:11.59	336.03	17.35	-40.0	-40.9	23.6	0.00e+00	49	41	0	1236271104	52	6368
2026-01-23 00:41:15.64	336.15	16.88	-40.1	-41.0	23.5	0.00e+00	0	42	0	1243611136	52	6416
2026-01-23 00:41:19.68	336.27	16.43	-40.2	-41.1	23.5	0.00e+00	92	42	0	1250951168	52	6481
2026-01-23 00:41:23.71	336.38	15.98	-40.1	-41.0	23.5	0.00e+00	8	41	0	1258291200	52	6438
2026-01-23 00:41:27.75	336.49	15.54	-40.0	-40.9	23.5	0.00e+00	38	41	0	1266679808	52	6379
2026-01-23 00:41:31.79	336.60	15.11	-40.0	-40.9	23.5	0.00e+00	21	41	0	1274019840	52	6357
2026-01-23 00:41:35.83	336.70	14.69	-40.1	-41.0	23.5	0.00e+00	92	41	0	1281359872	52	6407
2026-01-23 00:41:39.87	336.80	14.27	-40.1	-41.0	23.4	0.00e+00	2	41	0	1288699904	52	6444
2026-01-23 00:41:43.91	336.90	13.86	-40.3	-41.2	23.3	0.00e+00	0	41	0	1296039936	52	6586
2026-01-23 00:41:47.95	337.00	13.46	-40.4	-41.3	23.2	0.00e+00	73	41	0	1304428544	52	6651
2026-01-23 00:41:51.98	337.10	13.06	-40.5	-41.4	23.0	0.00e+00	92	41	0	1311768576	54	6023
2026-01-23 00:41:56.02	337.19	12.67	-40.8	-41.8	22.8	0.00e+00	37	41	0	1319108608	54	6250
2026-01-23 00:42:00.06	337.28	12.29	-40.6	-41.6	22.8	0.00e+00	46	41	0	1326448640	54	6113
2026-01-23 00:42:04.09	337.37	11.91	-40.7	-41.7	22.7	0.00e+00	92	41	0	1334837248	54	6181
2026-01-23 00:42:08.13	337.46	11.54	-40.5	-41.5	22.9	0.00e+00	0	41	0	1342177280	54	6064
2026-01-23 00:42:12.17	337.55	11.17	-40.7	-41.7	22.7	0.00e+00	36	41	0	1349517312	54	6216
2026-01-23 00:42:16.21	337.63	10.81	-40.8	-41.9	22.5	0.00e+00	44	41	0	1356857344	54	6325
2026-01-23 00:42:20.24	337.71	10.46	-40.7	-41.7	22.6	0.00e+00	92	41	0	1364197376	54	6210
2026-01-23 00:42:24.28	337.80	10.10	-40.8	-41.8	22.4	0.00e+00	0	41	0	1372585984	54	6280
2026-01-23 00:42:28.32	337.88	9.76	-40.7	-41.7	22.5	0.00e+00	0	41	0	1379926016	54	6232
2026-01-23 00:42:32.36	337.96	9.42	-40.8	-41.9	22.5	0.00e+00	34	41	0	1387266048	54	6341
2026-01-23 00:42:36.40	338.03	9.08	-41.1	-42.2	22.1	0.00e+00	92	41	0	1394606080	54	6569
2026-01-23 00:42:40.44	338.11	8.75	-41.7	-42.9	21.3	0.00e+00	5	41	0	1402994688	54	7126
2026-01-23 00:42:44.48	338.18	8.42	-41.6	-42.7	21.5	0.00e+00	6	41	0	1410334720	56	6245
2026-01-23 00:42:48.51	338.26	8.10	-41.7	-42.8	21.4	0.00e+00	6	41	0	1417674752	56	6297
2026-01-23 00:42:52.56	338.33	7.78	-41.6	-42.8	21.5	0.00e+00	92	41	0	1425014784	56	6269
2026-01-23 00:42:56.60	338.40	7.46	-41.4	-42.5	21.6	0.00e+00	52	41	0	1432354816	56	6092
2026-01-23 00:43:00.64	338.47	7.15	-41.8	-43.0	21.2	0.00e+00	54	41	0	1440743424	56	6453
2026-01-23 00:43:04.67	338.54	6.84	-41.9	-43.2	21.0	0.00e+00	57	41	0	1448083456	56	6541
2026-01-23 00:43:08.72	338.61	6.53	-42.6	-43.9	20.3	0.00e+00	92	41	0	1455423488	56	7124
2026-01-23 00:43:12.76	338.67	6.23	-41.9	-43.1	20.9	0.00e+00	0	41	0	1462763520	56	6511
2026-01-23 00:43:16.80	338.74	5.94	-42.3	-43.6	20.5	0.00e+00	55	41	0	1471152128	56	6895
2026-01-23 00:43:20.83	338.80	5.64	-42.4	-43.8	20.0	0.00e+00	76	41	0	1478492160	56	7027
2026-01-23 00:43:24.87	338.87	5.35	-43.2	-44.8	18.6	0.00e+00	92	41	0	1485832192	58	7080
2026-01-23 00:43:28.91	338.93	5.06	-43.5	-45.5	17.3	0.00e+00	0	41	0	1493172224	58	7629
2026-01-23 00:43:32.95	338.99	4.78	-45.1	-48.7	13.3	1.37e-05	33	41	0	1500512256	60	9790
2026-01-23 00:43:36.99	339.05	4.50	-45.8	-51.1	9.8	1.06e-02	92	41	0	1508900864	60	13032
2026-01-23 00:43:41.03	339.11	4.22	-46.2	-54.5	5.4	3.17e-01	50	41	0	1516240896	60	19250
2026-01-23 00:43:45.07	339.17	3.94	-46.2	-58.7	3.6	1.44e+00	0	41	104	1521483776	60	30981
2026-01-23 00:43:49.11	339.23	3.67	-46.1	-60.6	3.6	1.51e+00	0	41	104	1521483776	60	38933
2026-01-23 00:43:53.14	339.29	3.40	-46.1	-61.2	3.6	1.51e+00	0	41	104	1521483776	60	41595
2026-01-23 00:43:57.18	339.35	3.13	-46.2	-61.4	3.5	1.51e+00	0	41	104	1521483776	60	42444
2026-01-23 00:44:01.22	339.40	2.86	-50.0	-65.2	3.6	1.51e+00	0	41	104	1521483776	60	66031
2026-01-23 00:44:05.26	339.46	2.60	-50.9	-66.1	3.6	1.51e+00	0	41	104	1521483776	60	72851
2026-01-23 00:44:09.29	339.52	2.34	-51.1	-66.3	3.6	1.51e+00	0	41	104	1521483776	60	74880
2026-01-23 00:44:13.33	339.57	2.08	-51.0	-66.3	3.6	1.51e+00	0	41	104	1521483776	60	74583
2026-01-23 00:44:17.37	339.62	1.83	-51.0	-66.3	3.6	1.51e+00	0	41	104	1521483776	60	74364
2026-01-23 00:44:21.41	339.68	1.57	-51.0	-66.3	3.6	1.51e+00	0	41	104	1521483776	60	74501
2026-01-23 00:44:25.46	339.73	1.32	-51.1	-66.3	3.6	1.51e+00	0	41	104	1521483776	60	74983
2026-01-23 00:44:29.50	339.78	1.07	-51.1	-66.2	3.6	1.51e+00	0	41	104	1521483776	60	74129
2026-01-23 00:44:33.54	339.83	0.83	-51.1	-66.3	3.6	1.51e+00	0	41	104	1521483776	60	74683
2026-01-23 00:44:37.58	339.89	0.58	-51.1	-66.3	3.6	1.51e+00	0	41	104	1521483776	60	74394
2026-01-23 00:44:41.62	339.94	0.34	-51.1	-66.3	3.6	1.51e+00	0	41	104	1521483776	60	74435
2026-01-23 00:44:45.66	339.99	0.10	-51.1	-66.3	3.6	1.51e+00	0	41	104	1521483776	60	74596

#Closed at: 2026-01-23 00:44:48
#Recorded file [1521 MB]: D:/lorett/data/35029_260123_122916.dat