passes_logs/2026/01/23/R4.6S_Anadyr/R4.6S_Anadyr__20260123_141507_NOAA_20_JPSS-1_rec.log

#Pass ID: 20260123_141507_NOAA 20 (JPSS-1)
#Satellite: NOAA 20 (JPSS-1)
#Configuration: NOAA 20
#almurnet v.1.7.20251203
#Start time: 2026-01-23 14:15:10

#Version: 2.2.20231116
#Station: R4.6S_Anadyr
#Location: 177.4865 lon 64.73178 lat
#TLE: 1 43013U 17073A   26022.44900781  .00000193  00000+0  11233-3 0  9999
#TLE: 2 43013  98.7645 323.3100 0001197  28.8413 331.2829 14.19538802423792

#Time	Az	El	Level	Level2	SNR	BER	BlckErr	Temp	State	Recorded	gain1	gain2
2026-01-23 14:15:10.47	19.72	0.21	-50.9	-64.6	3.3	1.54e+00	0	40	0	0	60	61335
2026-01-23 14:15:14.51	19.80	0.45	-50.9	-66.1	3.6	1.51e+00	0	40	104	0	60	73124
2026-01-23 14:15:18.54	19.87	0.69	-50.9	-66.1	3.6	1.51e+00	0	40	104	0	60	72661
2026-01-23 14:15:22.58	19.95	0.93	-50.8	-66.0	3.6	1.51e+00	0	40	104	0	60	71726
2026-01-23 14:15:26.63	20.03	1.18	-50.3	-65.5	3.6	1.51e+00	0	40	104	0	60	68054
2026-01-23 14:15:30.67	20.11	1.43	-49.8	-65.0	3.6	1.51e+00	0	40	104	0	60	64397
2026-01-23 14:15:34.71	20.19	1.68	-49.4	-64.6	3.6	1.51e+00	0	40	104	0	60	61504
2026-01-23 14:15:38.74	20.27	1.93	-49.4	-64.6	3.6	1.51e+00	0	40	104	0	60	61658
2026-01-23 14:15:42.78	20.35	2.19	-49.4	-64.0	3.6	1.51e+00	0	40	104	0	60	57445
2026-01-23 14:15:46.83	20.43	2.45	-49.3	-62.5	3.6	1.49e+00	0	40	104	0	60	48450
2026-01-23 14:15:50.86	20.52	2.71	-49.2	-60.5	4.2	1.41e+00	52	40	104	0	60	38342
2026-01-23 14:15:54.90	20.60	2.97	-47.7	-52.4	10.9	6.72e-03	0	40	0	6291456	60	15056
2026-01-23 14:15:58.94	20.69	3.23	-46.2	-49.3	14.1	7.00e-07	92	40	0	14680064	60	10546
2026-01-23 14:16:02.99	20.78	3.50	-47.7	-52.4	10.9	5.59e-04	2	40	0	22020096	60	15020
2026-01-23 14:16:07.02	20.87	3.77	-48.1	-53.9	9.3	1.50e-06	69	40	0	29360128	60	17815
2026-01-23 14:16:11.06	20.96	4.04	-46.7	-50.1	13.5	1.44e+00	0	40	104	30408704	60	11621
2026-01-23 14:16:15.10	21.05	4.32	-46.1	-49.0	15.0	3.00e-06	51	40	0	36700160	60	10184
2026-01-23 14:16:19.14	21.14	4.60	-45.2	-47.5	16.3	0.00e+00	2	40	0	44040192	60	8580
2026-01-23 14:16:23.17	21.24	4.88	-43.5	-45.2	19.0	0.00e+00	73	40	0	51380224	60	6563
2026-01-23 14:16:27.21	21.33	5.16	-42.8	-44.2	19.5	0.00e+00	91	41	0	59768832	58	6600
2026-01-23 14:16:31.25	21.43	5.45	-41.9	-43.2	20.7	0.00e+00	0	41	0	67108864	58	5844
2026-01-23 14:16:35.29	21.53	5.74	-41.7	-42.9	21.0	0.00e+00	0	41	0	74448896	56	6362
2026-01-23 14:16:39.33	21.63	6.03	-42.2	-43.5	20.6	0.00e+00	0	41	0	81788928	56	6842
2026-01-23 14:16:43.36	21.73	6.33	-41.8	-43.0	21.0	0.00e+00	91	41	0	89128960	56	6460
2026-01-23 14:16:47.40	21.84	6.62	-41.6	-42.8	21.1	0.00e+00	73	40	0	97517568	56	6291
2026-01-23 14:16:51.44	21.94	6.93	-41.5	-42.7	21.4	0.00e+00	6	41	0	104857600	56	6175
2026-01-23 14:16:55.47	22.05	7.23	-41.6	-42.8	21.3	0.00e+00	0	41	0	112197632	56	6298
2026-01-23 14:16:59.50	22.16	7.54	-41.3	-42.4	21.6	0.00e+00	92	41	0	119537664	56	6011
2026-01-23 14:17:03.54	22.27	7.86	-41.4	-42.5	21.7	0.00e+00	73	41	0	127926272	56	6063
2026-01-23 14:17:07.58	22.39	8.18	-41.4	-42.5	21.6	0.00e+00	75	41	0	135266304	56	6070
2026-01-23 14:17:11.62	22.50	8.50	-41.3	-42.5	21.8	0.00e+00	0	41	0	142606336	56	6043
2026-01-23 14:17:15.66	22.62	8.83	-41.3	-42.4	21.7	0.00e+00	93	41	0	149946368	56	6000
2026-01-23 14:17:19.70	22.74	9.16	-41.0	-42.1	22.1	0.00e+00	15	41	0	157286400	56	5782
2026-01-23 14:17:23.73	22.86	9.49	-41.1	-42.2	22.0	0.00e+00	7	41	0	165675008	56	5854
2026-01-23 14:17:27.77	22.99	9.83	-40.8	-41.8	22.4	0.00e+00	68	41	0	173015040	56	5584
2026-01-23 14:17:31.81	23.12	10.17	-40.7	-41.7	22.3	0.00e+00	92	41	0	180355072	54	6197
2026-01-23 14:17:35.85	23.25	10.52	-40.6	-41.6	22.5	0.00e+00	0	41	0	187695104	54	6163
2026-01-23 14:17:39.88	23.38	10.87	-40.7	-41.7	22.5	0.00e+00	0	41	0	195035136	54	6218
2026-01-23 14:17:43.92	23.52	11.23	-40.5	-41.4	22.7	0.00e+00	0	41	0	203423744	54	6027
2026-01-23 14:17:47.96	23.65	11.60	-40.4	-41.4	22.8	0.00e+00	92	41	0	210763776	54	6019
2026-01-23 14:17:52.00	23.80	11.97	-40.7	-41.7	22.6	0.00e+00	0	41	0	218103808	54	6201
2026-01-23 14:17:56.03	23.94	12.34	-40.5	-41.5	22.6	0.00e+00	2	41	0	225443840	54	6063
2026-01-23 14:18:00.08	24.09	12.72	-40.4	-41.4	22.8	0.00e+00	92	41	0	233832448	54	5978
2026-01-23 14:18:04.11	24.24	13.11	-40.4	-41.4	22.8	0.00e+00	57	41	0	241172480	54	6010
2026-01-23 14:18:08.15	24.40	13.50	-40.3	-41.3	23.0	0.00e+00	19	41	0	248512512	54	5951
2026-01-23 14:18:12.19	24.56	13.90	-40.3	-41.3	23.0	0.00e+00	71	41	0	255852544	54	5908
2026-01-23 14:18:16.22	24.72	14.30	-40.3	-41.3	23.0	0.00e+00	90	41	0	263192576	54	5939
2026-01-23 14:18:20.26	24.89	14.71	-40.3	-41.2	23.1	0.00e+00	2	41	0	271581184	54	5868
2026-01-23 14:18:24.30	25.06	15.13	-40.4	-41.4	22.9	0.00e+00	16	41	0	278921216	54	6012
2026-01-23 14:18:28.34	25.23	15.56	-40.6	-41.6	22.8	0.00e+00	71	41	0	286261248	54	6124
2026-01-23 14:18:32.37	25.41	15.99	-40.5	-41.4	22.9	0.00e+00	90	41	0	293601280	54	6016
2026-01-23 14:18:36.41	25.60	16.43	-40.6	-41.6	22.7	0.00e+00	0	41	0	301989888	54	6156
2026-01-23 14:18:40.45	25.79	16.88	-40.6	-41.5	22.9	0.00e+00	6	41	0	309329920	54	6103
2026-01-23 14:18:44.48	25.98	17.34	-40.5	-41.4	23.0	0.00e+00	7	41	0	316669952	54	6028
2026-01-23 14:18:48.51	26.18	17.80	-40.5	-41.5	22.9	0.00e+00	92	41	0	324009984	54	6077
2026-01-23 14:18:52.56	26.39	18.28	-40.4	-41.3	23.1	0.00e+00	11	41	0	331350016	54	5963
2026-01-23 14:18:56.59	26.60	18.76	-40.5	-41.4	23.0	0.00e+00	67	41	0	339738624	54	6011
2026-01-23 14:19:00.63	26.82	19.25	-40.6	-41.5	22.9	0.00e+00	0	41	0	347078656	54	6101
2026-01-23 14:19:04.67	27.05	19.75	-40.7	-41.7	22.8	0.00e+00	92	41	0	354418688	54	6197
2026-01-23 14:19:08.70	27.28	20.26	-40.7	-41.7	22.8	0.00e+00	13	41	0	361758720	54	6175
2026-01-23 14:19:12.74	27.52	20.79	-40.6	-41.6	22.9	0.00e+00	61	41	0	370147328	54	6148
2026-01-23 14:19:16.78	27.76	21.32	-40.5	-41.5	23.1	0.00e+00	3	41	0	377487360	54	6044
2026-01-23 14:19:20.82	28.02	21.86	-40.4	-41.3	23.2	0.00e+00	92	41	0	384827392	54	5933
2026-01-23 14:19:24.85	28.28	22.42	-40.0	-40.9	23.5	0.00e+00	0	41	0	392167424	54	5689
2026-01-23 14:19:28.89	28.56	22.98	-40.0	-40.9	23.5	0.00e+00	0	41	0	399507456	54	5664
2026-01-23 14:19:32.93	28.84	23.56	-39.7	-40.6	23.9	0.00e+00	2	41	0	407896064	52	6147
2026-01-23 14:19:36.96	29.13	24.15	-39.7	-40.6	24.0	0.00e+00	92	41	0	415236096	52	6139
2026-01-23 14:19:41.00	29.44	24.76	-39.3	-40.2	24.1	0.00e+00	68	41	0	422576128	52	5855
2026-01-23 14:19:45.04	29.75	25.38	-39.4	-40.2	24.2	0.00e+00	0	41	0	429916160	52	5891
2026-01-23 14:19:49.07	30.08	26.01	-39.7	-40.6	24.0	0.00e+00	80	41	0	437256192	52	6104
2026-01-23 14:19:53.11	30.42	26.65	-39.3	-40.1	24.3	0.00e+00	82	41	0	445644800	52	5826
2026-01-23 14:19:57.15	30.77	27.32	-39.3	-40.2	24.3	0.00e+00	65	41	0	452984832	52	5835
2026-01-23 14:20:01.18	31.14	27.99	-39.9	-40.8	23.8	0.00e+00	0	41	0	460324864	52	6283
2026-01-23 14:20:05.22	31.52	28.68	-40.4	-41.3	23.4	0.00e+00	90	41	0	467664896	52	6655
2026-01-23 14:20:09.26	31.92	29.39	-40.8	-41.7	22.8	0.00e+00	0	41	0	476053504	54	6244
2026-01-23 14:20:13.30	32.33	30.12	-41.0	-42.0	22.7	0.00e+00	0	41	0	483393536	54	6459
2026-01-23 14:20:17.34	32.77	30.86	-41.9	-43.0	22.0	0.00e+00	63	41	0	490733568	56	6436
2026-01-23 14:20:21.37	33.22	31.62	-42.1	-43.2	21.7	0.00e+00	92	41	0	498073600	56	6543
2026-01-23 14:20:25.41	33.70	32.40	-42.3	-43.5	21.5	0.00e+00	63	41	0	505413632	56	6794
2026-01-23 14:20:29.45	34.20	33.19	-42.8	-44.0	21.0	0.00e+00	5	41	0	513802240	58	6415
2026-01-23 14:20:33.49	34.72	34.01	-42.8	-44.1	21.0	0.00e+00	0	41	0	521142272	58	6470
2026-01-23 14:20:37.53	35.27	34.85	-42.9	-44.1	20.9	0.00e+00	92	41	0	528482304	58	6491
2026-01-23 14:20:41.56	35.85	35.70	-43.0	-44.3	20.7	0.00e+00	0	41	0	535822336	58	6629
2026-01-23 14:20:45.60	36.45	36.58	-42.8	-44.0	21.0	0.00e+00	65	41	0	544210944	58	6431
2026-01-23 14:20:49.64	37.10	37.47	-42.9	-44.2	20.9	0.00e+00	7	41	0	551550976	58	6540
2026-01-23 14:20:53.68	37.77	38.39	-43.3	-44.7	20.4	0.00e+00	92	41	0	558891008	58	6943
2026-01-23 14:20:57.71	38.49	39.33	-43.0	-44.2	20.8	0.00e+00	3	41	0	566231040	58	6592
2026-01-23 14:21:01.75	39.24	40.29	-42.5	-43.7	21.3	0.00e+00	59	41	0	573571072	58	6214
2026-01-23 14:21:05.79	40.05	41.27	-41.8	-42.9	22.0	0.00e+00	0	41	0	581959680	58	5684
2026-01-23 14:21:09.83	40.90	42.27	-41.1	-42.0	22.8	0.00e+00	92	41	0	589299712	56	5756
2026-01-23 14:21:13.87	41.81	43.29	-41.3	-42.3	22.6	0.00e+00	2	41	0	596639744	56	5917
2026-01-23 14:21:17.90	42.77	44.33	-42.1	-43.2	21.9	0.00e+00	0	41	0	603979776	56	6553
2026-01-23 14:21:21.94	43.80	45.39	-41.5	-42.5	22.4	0.00e+00	92	41	0	612368384	56	6100
2026-01-23 14:21:25.98	44.90	46.47	-43.0	-44.2	20.8	0.00e+00	90	41	0	619708416	58	6587
2026-01-23 14:21:30.02	46.08	47.57	-42.8	-44.0	20.9	0.00e+00	0	41	0	627048448	58	6424
2026-01-23 14:21:34.05	47.34	48.67	-41.5	-42.5	22.3	0.00e+00	0	41	0	634388480	56	6063
2026-01-23 14:21:38.09	48.70	49.80	-40.9	-41.9	22.9	0.00e+00	92	41	0	641728512	56	5683
2026-01-23 14:21:42.12	50.16	50.93	-39.5	-40.3	24.2	0.00e+00	58	41	0	650117120	52	5934
2026-01-23 14:21:46.16	51.73	52.07	-37.5	-38.2	25.9	0.00e+00	0	41	0	657457152	48	5884
2026-01-23 14:21:50.20	53.43	53.21	-37.3	-38.0	26.2	0.00e+00	65	41	0	664797184	48	5749
2026-01-23 14:21:54.24	55.27	54.36	-37.6	-38.3	25.8	0.00e+00	92	41	0	672137216	48	5960
2026-01-23 14:21:58.27	57.25	55.49	-39.5	-40.4	24.2	0.00e+00	27	41	0	680525824	50	6731
2026-01-23 14:22:02.31	59.41	56.61	-40.1	-41.1	23.6	0.00e+00	0	41	0	687865856	52	6468
2026-01-23 14:22:06.35	61.74	57.72	-41.2	-42.2	22.6	0.00e+00	20	41	0	695205888	54	6543
2026-01-23 14:22:10.39	64.27	58.80	-41.9	-43.0	22.0	0.00e+00	90	41	0	702545920	56	6448
2026-01-23 14:22:14.42	67.00	59.84	-40.1	-41.0	23.6	0.00e+00	59	41	0	709885952	54	5737
2026-01-23 14:22:18.46	69.96	60.84	-38.9	-39.7	24.8	0.00e+00	4	41	0	718274560	52	5523
2026-01-23 14:22:22.50	73.16	61.78	-38.8	-39.6	24.8	0.00e+00	5	41	0	725614592	50	6147
2026-01-23 14:22:26.53	76.59	62.65	-39.4	-40.3	24.3	0.00e+00	92	41	0	732954624	50	6639
2026-01-23 14:22:30.57	80.28	63.43	-38.9	-39.7	24.9	0.00e+00	64	41	0	740294656	50	6176
2026-01-23 14:22:34.61	84.20	64.13	-39.7	-40.6	24.2	0.00e+00	6	41	0	748683264	52	6121
2026-01-23 14:22:38.65	88.35	64.71	-40.8	-41.8	23.1	0.00e+00	0	41	0	756023296	54	6262
2026-01-23 14:22:42.68	92.68	65.18	-40.5	-41.5	23.2	0.00e+00	92	41	0	763363328	54	6069
2026-01-23 14:22:46.71	97.17	65.51	-42.0	-43.1	21.7	0.00e+00	4	41	0	770703360	56	6538
2026-01-23 14:22:50.76	101.79	65.71	-40.5	-41.5	23.3	0.00e+00	18	41	0	778043392	54	6072
2026-01-23 14:22:54.79	106.44	65.77	-40.3	-41.2	23.6	0.00e+00	72	41	0	786432000	54	5867
2026-01-23 14:22:58.83	111.10	65.68	-40.5	-41.5	23.3	0.00e+00	92	41	0	793772032	54	6041
2026-01-23 14:23:02.84	115.66	65.45	-39.7	-40.6	24.1	0.00e+00	0	41	0	801112064	54	5475
2026-01-23 14:23:06.88	120.13	65.09	-40.7	-41.6	23.3	0.00e+00	5	41	0	808452096	52	6891
2026-01-23 14:23:10.92	124.43	64.59	-39.8	-40.7	23.9	0.00e+00	22	41	0	815792128	52	6196
2026-01-23 14:23:14.96	128.54	63.98	-39.2	-40.0	24.6	0.00e+00	51	41	0	824180736	52	5733
2026-01-23 14:23:19.00	132.41	63.26	-38.1	-38.9	25.5	0.00e+00	0	41	0	831520768	48	6330
2026-01-23 14:23:23.04	136.04	62.45	-36.8	-37.5	26.6	0.00e+00	0	41	0	838860800	46	6064
2026-01-23 14:23:27.07	139.43	61.57	-36.5	-37.3	26.7	0.00e+00	82	41	0	846200832	46	5897
2026-01-23 14:23:31.11	142.57	60.61	-38.6	-39.4	25.1	0.00e+00	0	41	0	854589440	48	6768
2026-01-23 14:23:35.15	145.49	59.60	-39.6	-40.4	24.0	0.00e+00	59	41	0	861929472	52	6023
2026-01-23 14:23:39.19	148.18	58.55	-39.2	-40.1	24.6	0.00e+00	2	41	0	869269504	52	5781
2026-01-23 14:23:43.23	150.67	57.46	-38.2	-38.9	25.4	0.00e+00	91	41	0	876609536	50	5685
2026-01-23 14:23:47.27	152.96	56.34	-37.8	-38.6	25.9	0.00e+00	0	41	0	883949568	48	6129
2026-01-23 14:23:51.30	155.07	55.21	-37.8	-38.5	25.8	0.00e+00	14	41	0	892338176	48	6075
2026-01-23 14:23:55.34	157.03	54.07	-36.9	-37.6	26.5	0.00e+00	0	41	0	899678208	48	5490
2026-01-23 14:23:59.38	158.83	52.92	-38.8	-39.6	24.8	0.00e+00	92	41	0	907018240	50	6148
2026-01-23 14:24:03.41	160.50	51.78	-38.1	-38.8	25.2	0.00e+00	5	41	0	914358272	48	6315
2026-01-23 14:24:07.45	162.05	50.64	-40.3	-41.2	23.5	0.00e+00	0	41	0	922746880	52	6580
2026-01-23 14:24:11.49	163.49	49.50	-41.9	-43.0	22.0	0.00e+00	0	41	0	930086912	56	6409
2026-01-23 14:24:15.52	164.82	48.38	-44.4	-46.0	19.3	0.00e+00	91	42	0	937426944	60	7195
2026-01-23 14:24:19.56	166.07	47.27	-44.3	-46.0	19.0	0.00e+00	72	41	0	944766976	60	7176
2026-01-23 14:24:23.60	167.23	46.17	-43.3	-44.6	20.6	0.00e+00	1	41	0	952107008	60	6151
2026-01-23 14:24:27.64	168.32	45.09	-41.3	-42.4	22.4	0.00e+00	2	41	0	960495616	54	6718
2026-01-23 14:24:31.67	169.33	44.04	-40.0	-40.9	23.9	0.00e+00	92	41	0	967835648	54	5679
2026-01-23 14:24:35.71	170.28	42.99	-38.5	-39.2	25.1	0.00e+00	21	41	0	975175680	50	5892
2026-01-23 14:24:39.75	171.18	41.97	-39.9	-40.8	23.9	0.00e+00	60	41	0	982515712	54	5568
2026-01-23 14:24:43.79	172.02	40.97	-38.5	-39.3	25.1	0.00e+00	14	41	0	990904320	50	5927
2026-01-23 14:24:47.82	172.81	40.00	-41.0	-42.0	22.7	0.00e+00	92	41	0	998244352	54	6446
2026-01-23 14:24:51.86	173.55	39.04	-39.7	-40.6	24.0	0.00e+00	0	41	0	1005584384	52	6120
2026-01-23 14:24:55.90	174.26	38.10	-38.6	-39.4	24.9	0.00e+00	0	41	0	1012924416	50	6022
2026-01-23 14:24:59.93	174.93	37.19	-40.3	-41.3	23.3	0.00e+00	91	41	0	1020264448	54	5919
2026-01-23 14:25:03.97	175.56	36.29	-38.7	-39.4	25.0	0.00e+00	91	41	0	1028653056	52	5373
2026-01-23 14:25:08.01	176.16	35.42	-39.1	-39.9	24.6	0.00e+00	0	41	0	1035993088	50	6343
2026-01-23 14:25:12.05	176.73	34.56	-40.5	-41.4	23.2	0.00e+00	0	41	0	1043333120	52	6739
2026-01-23 14:25:16.09	177.27	33.73	-40.3	-41.2	23.4	0.00e+00	90	41	0	1050673152	52	6609
2026-01-23 14:25:20.13	177.79	32.91	-40.8	-41.8	22.9	0.00e+00	55	41	0	1058013184	54	6266
2026-01-23 14:25:24.17	178.28	32.12	-40.5	-41.4	23.3	0.00e+00	14	41	0	1066401792	54	5982
2026-01-23 14:25:28.21	178.75	31.34	-40.9	-41.8	22.8	0.00e+00	0	41	0	1073741824	54	6300
2026-01-23 14:25:32.25	179.20	30.58	-41.5	-42.5	22.2	0.00e+00	90	41	0	1081081856	54	6825
2026-01-23 14:25:36.28	179.63	29.84	-40.9	-41.9	22.7	0.00e+00	0	41	0	1088421888	54	6360
2026-01-23 14:25:40.32	180.04	29.12	-39.8	-40.7	23.8	0.00e+00	17	41	0	1096810496	54	5520
2026-01-23 14:25:44.36	180.43	28.41	-39.7	-40.6	24.0	0.00e+00	18	41	0	1104150528	52	6137
2026-01-23 14:25:48.39	180.81	27.72	-40.4	-41.3	23.3	0.00e+00	90	41	0	1111490560	52	6651
2026-01-23 14:25:52.43	181.17	27.05	-40.5	-41.5	23.2	0.00e+00	68	41	0	1118830592	52	6807
2026-01-23 14:25:56.47	181.52	26.39	-39.7	-40.6	23.9	0.00e+00	4	41	0	1126170624	52	6105
2026-01-23 14:26:00.51	181.86	25.74	-38.7	-39.5	24.8	0.00e+00	0	41	0	1134559232	50	6060
2026-01-23 14:26:04.55	182.18	25.11	-38.6	-39.4	24.9	0.00e+00	92	41	0	1141899264	50	5974
2026-01-23 14:26:08.58	182.49	24.49	-38.9	-39.7	24.6	0.00e+00	69	41	0	1149239296	50	6201
2026-01-23 14:26:12.62	182.79	23.89	-39.0	-39.9	24.5	0.00e+00	2	41	0	1156579328	50	6345
2026-01-23 14:26:16.66	183.08	23.30	-38.9	-39.7	24.7	0.00e+00	5	41	0	1164967936	50	6199
2026-01-23 14:26:20.70	183.36	22.72	-38.6	-39.4	24.8	0.00e+00	91	41	0	1172307968	50	5995
2026-01-23 14:26:24.74	183.62	22.15	-38.6	-39.4	24.9	0.00e+00	13	41	0	1179648000	50	5978
2026-01-23 14:26:28.77	183.88	21.60	-38.6	-39.4	24.7	0.00e+00	67	41	0	1186988032	50	6018
2026-01-23 14:26:32.81	184.14	21.06	-38.8	-39.6	24.7	0.00e+00	9	41	0	1194328064	50	6168
2026-01-23 14:26:36.85	184.38	20.53	-38.8	-39.6	24.4	0.00e+00	92	41	0	1202716672	50	6169
2026-01-23 14:26:40.88	184.62	20.01	-38.8	-39.6	24.6	0.00e+00	0	41	0	1210056704	50	6151
2026-01-23 14:26:44.92	184.84	19.50	-38.8	-39.7	24.5	0.00e+00	0	41	0	1217396736	50	6189
2026-01-23 14:26:48.96	185.07	18.99	-38.8	-39.6	24.6	0.00e+00	67	41	0	1224736768	50	6158
2026-01-23 14:26:53.00	185.28	18.50	-38.8	-39.6	24.6	0.00e+00	0	41	0	1233125376	50	6112
2026-01-23 14:26:57.04	185.49	18.02	-39.0	-39.8	24.4	0.00e+00	2	41	0	1240465408	50	6310
2026-01-23 14:27:01.08	185.69	17.55	-39.3	-40.2	24.1	0.00e+00	0	41	0	1247805440	50	6571
2026-01-23 14:27:05.12	185.89	17.08	-39.9	-40.8	23.6	0.00e+00	90	41	0	1255145472	52	6248
2026-01-23 14:27:09.15	186.08	16.63	-40.1	-41.0	23.4	0.00e+00	66	41	0	1262485504	52	6460
2026-01-23 14:27:13.19	186.27	16.18	-40.4	-41.4	23.2	0.00e+00	0	41	0	1270874112	52	6716
2026-01-23 14:27:17.23	186.45	15.74	-40.3	-41.3	23.2	0.00e+00	0	41	0	1278214144	52	6637
2026-01-23 14:27:21.27	186.63	15.31	-40.2	-41.1	23.3	0.00e+00	90	41	0	1285554176	52	6539
2026-01-23 14:27:25.31	186.80	14.88	-40.3	-41.3	23.1	0.00e+00	13	41	0	1292894208	52	6647
2026-01-23 14:27:29.35	186.97	14.46	-40.3	-41.2	23.2	0.00e+00	12	41	0	1301282816	52	6596
2026-01-23 14:27:33.39	187.13	14.05	-40.4	-41.3	23.0	0.00e+00	68	41	0	1308622848	52	6661
2026-01-23 14:27:37.43	187.29	13.65	-40.4	-41.3	23.0	0.00e+00	92	41	0	1315962880	52	6659
2026-01-23 14:27:41.47	187.44	13.25	-40.4	-41.3	23.0	0.00e+00	5	41	0	1323302912	52	6692
2026-01-23 14:27:45.51	187.60	12.85	-40.4	-41.4	23.0	0.00e+00	6	41	0	1330642944	52	6714
2026-01-23 14:27:49.54	187.74	12.47	-40.4	-41.4	22.9	0.00e+00	2	41	0	1339031552	52	6730
2026-01-23 14:27:53.58	187.89	12.09	-40.5	-41.4	22.9	0.00e+00	90	41	0	1346371584	52	6749
2026-01-23 14:27:57.62	188.03	11.72	-40.5	-41.5	22.9	0.00e+00	0	41	0	1353711616	52	6804
2026-01-23 14:28:01.66	188.17	11.35	-40.4	-41.3	23.0	0.00e+00	0	41	0	1361051648	52	6655
2026-01-23 14:28:05.70	188.30	10.98	-40.4	-41.4	23.0	0.00e+00	18	41	0	1369440256	52	6708
2026-01-23 14:28:09.74	188.44	10.62	-40.4	-41.3	23.0	0.00e+00	81	41	0	1376780288	52	6671
2026-01-23 14:28:13.77	188.56	10.27	-40.3	-41.2	23.1	0.00e+00	69	41	0	1384120320	52	6577
2026-01-23 14:28:17.81	188.69	9.92	-40.4	-41.4	23.0	0.00e+00	0	41	0	1391460352	52	6709
2026-01-23 14:28:21.85	188.81	9.58	-40.5	-41.5	22.7	0.00e+00	92	41	0	1398800384	52	6791
2026-01-23 14:28:25.89	188.94	9.24	-40.4	-41.4	22.8	0.00e+00	75	41	0	1407188992	52	6729
2026-01-23 14:28:29.93	189.06	8.91	-40.5	-41.5	22.7	0.00e+00	12	41	0	1414529024	54	6075
2026-01-23 14:28:33.97	189.17	8.58	-40.7	-41.7	22.5	0.00e+00	10	41	0	1421869056	54	6217
2026-01-23 14:28:38.00	189.29	8.25	-40.8	-41.8	22.5	0.00e+00	90	41	0	1429209088	54	6267
2026-01-23 14:28:42.03	189.40	7.93	-41.0	-42.1	22.2	0.00e+00	2	41	0	1437597696	54	6495
2026-01-23 14:28:46.07	189.51	7.61	-41.0	-42.0	22.1	0.00e+00	0	41	0	1444937728	54	6449
2026-01-23 14:28:50.11	189.62	7.30	-41.0	-42.1	22.1	0.00e+00	0	41	0	1452277760	54	6486
2026-01-23 14:28:54.15	189.72	6.99	-41.4	-42.5	21.7	0.00e+00	90	41	0	1459617792	54	6804
2026-01-23 14:28:58.19	189.83	6.68	-41.6	-42.7	21.4	0.00e+00	2	41	0	1466957824	54	6977
2026-01-23 14:29:02.22	189.93	6.38	-41.6	-42.8	21.5	0.00e+00	71	41	0	1475346432	56	6259
2026-01-23 14:29:06.26	190.03	6.08	-41.9	-43.1	21.2	0.00e+00	0	41	0	1482686464	56	6482
2026-01-23 14:29:10.30	190.13	5.78	-41.7	-42.9	21.3	0.00e+00	92	41	0	1490026496	56	6330
2026-01-23 14:29:14.34	190.22	5.49	-42.2	-43.4	20.6	0.00e+00	2	41	0	1497366528	56	6747
2026-01-23 14:29:18.38	190.32	5.20	-42.1	-43.4	20.6	0.00e+00	1	41	0	1504706560	56	6706
2026-01-23 14:29:22.41	190.41	4.91	-42.5	-43.8	20.1	0.00e+00	0	41	0	1513095168	56	7084
2026-01-23 14:29:26.45	190.50	4.63	-42.3	-43.6	20.4	0.00e+00	92	41	0	1520435200	56	6913
2026-01-23 14:29:30.49	190.59	4.35	-42.5	-43.9	20.1	0.00e+00	6	41	0	1527775232	58	6333
2026-01-23 14:29:34.53	190.68	4.07	-42.8	-44.2	19.8	0.00e+00	6	41	0	1535115264	58	6566
2026-01-23 14:29:38.56	190.77	3.79	-43.1	-44.6	19.3	0.00e+00	0	41	0	1543503872	58	6920
2026-01-23 14:29:42.60	190.86	3.52	-43.1	-44.7	19.3	0.00e+00	90	41	0	1550843904	58	6958
2026-01-23 14:29:46.64	190.94	3.25	-43.7	-45.5	18.4	0.00e+00	0	41	0	1558183936	60	6778
2026-01-23 14:29:50.67	191.03	2.99	-49.7	-63.4	3.6	0.00e+00	0	41	104	1565523968	60	53405
2026-01-23 14:29:54.71	191.11	2.72	-50.6	-65.8	3.6	1.51e+00	0	41	104	1565523968	60	70433
2026-01-23 14:29:58.75	191.19	2.46	-50.8	-66.0	3.6	1.51e+00	0	41	104	1565523968	60	72467
2026-01-23 14:30:02.79	191.27	2.20	-50.9	-66.1	3.6	1.51e+00	0	41	104	1565523968	60	73320
2026-01-23 14:30:06.83	191.35	1.94	-50.9	-66.1	3.6	1.51e+00	0	41	104	1565523968	60	73244
2026-01-23 14:30:10.86	191.42	1.69	-50.8	-66.2	3.6	1.51e+00	0	41	104	1565523968	60	73395
2026-01-23 14:30:14.90	191.50	1.43	-51.0	-66.1	3.6	1.51e+00	0	41	104	1565523968	60	73360
2026-01-23 14:30:18.95	191.58	1.18	-51.0	-66.2	3.6	1.51e+00	0	41	104	1565523968	60	73697
2026-01-23 14:30:22.99	191.65	0.93	-51.0	-66.2	3.6	1.51e+00	0	41	104	1565523968	60	73536
2026-01-23 14:30:27.03	191.72	0.69	-51.0	-66.2	3.6	1.51e+00	0	41	104	1565523968	60	73574
2026-01-23 14:30:31.07	191.80	0.44	-51.0	-66.1	3.6	1.51e+00	0	41	104	1565523968	60	73314
2026-01-23 14:30:35.11	191.87	0.20	-51.0	-66.1	3.6	1.51e+00	0	41	104	1565523968	60	73243
2026-01-23 14:30:39.15	191.94	-0.04	-50.9	-66.2	3.6	1.51e+00	0	41	104	1565523968	60	73490

#Closed at: 2026-01-23 14:30:41
#Recorded file [1565 MB]: D:/lorett/data/35029_260124_021510.dat