passes_logs/2026/01/23/R4.6S_Anadyr/R4.6S_Anadyr__20260123_205250_NOAA_20_JPSS-1_rec.log

#Pass ID: 20260123_205250_NOAA 20 (JPSS-1)
#Satellite: NOAA 20 (JPSS-1)
#Configuration: NOAA 20
#almurnet v.1.7.20251203
#Start time: 2026-01-23 20:52:53

#Version: 2.2.20231116
#Station: R4.6S_Anadyr
#Location: 177.4865 lon 64.73178 lat
#TLE: 1 43013U 17073A   26022.94240312  .00000200  00000+0  11574-3 0  9998
#TLE: 2 43013  98.7645 323.7982 0001179  28.0279 332.0961 14.19539020423863

#Time	Az	El	Level	Level2	SNR	BER	BlckErr	Temp	State	Recorded	gain1	gain2
2026-01-23 20:52:53.25	78.56	0.15	-50.9	-64.6	3.3	1.54e+00	0	39	0	0	60	61222
2026-01-23 20:52:56.28	78.36	0.31	-50.9	-66.0	3.6	1.51e+00	0	39	104	0	60	72495
2026-01-23 20:52:59.31	78.15	0.46	-50.9	-66.0	3.6	1.51e+00	0	40	104	0	60	72459
2026-01-23 20:53:02.33	77.93	0.62	-50.9	-66.1	3.6	1.51e+00	0	40	104	0	60	72953
2026-01-23 20:53:05.36	77.72	0.77	-50.9	-66.1	3.6	1.51e+00	0	40	104	0	60	72684
2026-01-23 20:53:08.39	77.50	0.93	-50.9	-66.1	3.6	1.51e+00	0	40	104	0	60	72548
2026-01-23 20:53:11.43	77.28	1.09	-50.9	-66.1	3.6	1.51e+00	0	40	104	0	60	72681
2026-01-23 20:53:14.46	77.06	1.24	-50.9	-66.0	3.6	1.51e+00	0	40	104	0	60	72272
2026-01-23 20:53:17.49	76.83	1.40	-50.9	-66.1	3.5	1.51e+00	0	40	104	0	60	72735
2026-01-23 20:53:20.52	76.61	1.56	-50.9	-66.1	3.6	1.51e+00	0	40	104	0	60	72689
2026-01-23 20:53:23.55	76.38	1.72	-50.9	-66.1	3.6	1.51e+00	0	40	104	0	60	72565
2026-01-23 20:53:26.57	76.15	1.88	-50.9	-66.0	3.6	1.51e+00	0	40	104	0	60	72508
2026-01-23 20:53:29.60	75.91	2.04	-50.9	-66.1	3.6	1.51e+00	0	40	104	0	60	72607
2026-01-23 20:53:32.64	75.67	2.20	-50.9	-66.1	3.6	1.51e+00	0	40	104	0	60	72557
2026-01-23 20:53:35.66	75.43	2.36	-50.9	-66.1	3.6	1.51e+00	0	40	104	0	60	72749
2026-01-23 20:53:38.70	75.19	2.52	-50.9	-66.1	3.6	1.51e+00	0	40	104	0	60	72621
2026-01-23 20:53:41.73	74.94	2.68	-50.9	-66.1	3.6	1.51e+00	0	40	104	0	60	72768
2026-01-23 20:53:44.76	74.69	2.84	-50.9	-66.1	3.6	1.51e+00	0	40	104	0	60	72833
2026-01-23 20:53:47.79	74.44	3.00	-50.9	-66.1	3.6	1.51e+00	0	40	104	0	60	72748
2026-01-23 20:53:50.82	74.19	3.17	-50.9	-66.1	3.6	1.51e+00	0	40	104	0	60	72577
2026-01-23 20:53:53.85	73.93	3.33	-50.9	-66.0	3.6	1.51e+00	0	40	104	0	60	72442
2026-01-23 20:53:56.88	73.67	3.49	-50.9	-66.1	3.6	1.51e+00	0	40	104	0	60	72643
2026-01-23 20:53:59.91	73.41	3.66	-50.9	-66.1	3.6	1.51e+00	0	40	104	0	60	72820
2026-01-23 20:54:02.94	73.14	3.82	-50.9	-66.1	3.6	1.51e+00	0	40	104	0	60	72841
2026-01-23 20:54:05.96	72.87	3.98	-50.9	-66.1	3.6	1.51e+00	0	40	104	0	60	72540
2026-01-23 20:54:08.99	72.60	4.15	-50.9	-66.1	3.6	1.51e+00	0	40	104	0	60	72936
2026-01-23 20:54:12.02	72.32	4.31	-50.9	-66.1	3.6	1.51e+00	0	40	104	0	60	72816
2026-01-23 20:54:15.05	72.04	4.48	-50.9	-66.1	3.6	1.51e+00	0	40	104	0	60	72894
2026-01-23 20:54:18.08	71.76	4.65	-50.9	-66.1	3.6	1.51e+00	0	40	104	0	60	72686
2026-01-23 20:54:21.10	71.48	4.81	-50.9	-66.1	3.6	1.51e+00	0	40	104	0	60	72688
2026-01-23 20:54:24.13	71.19	4.98	-50.9	-66.1	3.6	1.51e+00	0	40	104	0	60	72666
2026-01-23 20:54:27.16	70.90	5.15	-50.9	-66.1	3.6	1.51e+00	0	40	104	0	60	72933
2026-01-23 20:54:30.19	70.60	5.31	-50.9	-66.1	3.6	1.51e+00	0	40	104	0	60	72591
2026-01-23 20:54:33.22	70.30	5.48	-50.9	-66.1	3.6	1.51e+00	0	41	104	0	60	72930
2026-01-23 20:54:36.25	70.00	5.65	-50.9	-66.1	3.6	1.51e+00	0	41	104	0	60	72761
2026-01-23 20:54:39.28	69.69	5.82	-50.9	-66.1	3.6	1.51e+00	0	41	104	0	60	72718
2026-01-23 20:54:42.31	69.38	5.99	-50.9	-66.1	3.6	1.51e+00	0	41	104	0	60	72814
2026-01-23 20:54:45.34	69.07	6.16	-50.9	-66.1	3.6	1.51e+00	0	41	104	0	60	72763
2026-01-23 20:54:48.36	68.75	6.33	-50.9	-66.1	3.6	1.51e+00	0	41	104	0	60	72577
2026-01-23 20:54:51.39	68.43	6.50	-50.9	-66.0	3.6	1.51e+00	0	41	104	0	60	72190
2026-01-23 20:54:54.42	68.10	6.67	-50.9	-66.1	3.5	1.51e+00	0	41	104	0	60	72916
2026-01-23 20:54:57.45	67.77	6.84	-50.9	-66.1	3.6	1.51e+00	0	41	104	0	60	72918
2026-01-23 20:55:00.48	67.44	7.01	-50.9	-66.1	3.6	1.51e+00	0	41	104	0	60	73063
2026-01-23 20:55:03.51	67.10	7.18	-50.9	-66.1	3.6	1.51e+00	0	41	104	0	60	73081
2026-01-23 20:55:06.54	66.76	7.35	-50.9	-66.1	3.6	1.51e+00	0	41	104	0	60	73098
2026-01-23 20:55:09.57	66.42	7.52	-50.9	-66.1	3.6	1.51e+00	0	41	104	0	60	72577
2026-01-23 20:55:12.61	66.06	7.69	-50.9	-66.1	3.6	1.51e+00	0	41	104	0	60	72820
2026-01-23 20:55:15.64	65.71	7.86	-50.9	-66.1	3.6	1.51e+00	0	41	104	0	60	72778
2026-01-23 20:55:18.67	65.35	8.03	-50.9	-66.1	3.6	1.51e+00	0	41	104	0	60	73159
2026-01-23 20:55:21.69	64.99	8.20	-50.9	-66.1	3.6	1.51e+00	0	41	104	0	60	72882
2026-01-23 20:55:24.72	64.62	8.37	-50.9	-66.1	3.6	1.51e+00	0	41	104	0	60	73024
2026-01-23 20:55:27.75	64.25	8.55	-50.9	-66.1	3.6	1.51e+00	0	41	104	0	60	73025
2026-01-23 20:55:30.78	63.88	8.72	-50.9	-66.1	3.6	1.51e+00	0	41	104	0	60	72907
2026-01-23 20:55:33.81	63.50	8.89	-50.9	-66.1	3.6	1.51e+00	0	41	104	0	60	73137
2026-01-23 20:55:36.84	63.11	9.06	-50.9	-66.1	3.6	1.51e+00	0	41	104	0	60	72765
2026-01-23 20:55:39.87	62.72	9.23	-50.9	-66.1	3.5	1.51e+00	0	41	104	0	60	72999
2026-01-23 20:55:42.90	62.33	9.40	-50.9	-66.1	3.6	1.51e+00	0	41	104	0	60	72900
2026-01-23 20:55:45.93	61.93	9.57	-50.9	-66.1	3.6	1.51e+00	0	41	104	0	60	73020
2026-01-23 20:55:48.95	61.53	9.74	-50.9	-66.2	3.6	1.51e+00	0	41	104	0	60	73444
2026-01-23 20:55:51.98	61.12	9.91	-50.9	-66.1	3.6	1.51e+00	0	41	104	0	60	73168
2026-01-23 20:55:55.01	60.70	10.08	-50.9	-66.1	3.6	1.51e+00	0	41	104	0	60	72939
2026-01-23 20:55:58.05	60.28	10.25	-50.9	-66.1	3.6	1.51e+00	0	41	104	0	60	73247
2026-01-23 20:56:01.07	59.86	10.42	-50.9	-66.1	3.6	1.51e+00	0	41	104	0	60	73115
2026-01-23 20:56:04.10	59.43	10.59	-50.9	-66.1	3.6	1.51e+00	0	41	104	0	60	72961
2026-01-23 20:56:07.12	59.00	10.76	-50.9	-66.1	3.6	1.51e+00	0	41	104	0	60	72729
2026-01-23 20:56:10.15	58.56	10.93	-50.9	-66.1	3.6	1.51e+00	0	41	104	0	60	72691
2026-01-23 20:56:13.18	58.12	11.10	-50.9	-66.1	3.6	1.51e+00	0	41	104	0	60	73067
2026-01-23 20:56:16.22	57.67	11.27	-50.9	-66.1	3.5	1.51e+00	0	41	104	0	60	72820
2026-01-23 20:56:19.25	57.21	11.43	-50.9	-66.1	3.6	1.51e+00	0	41	104	0	60	73150
2026-01-23 20:56:22.27	56.76	11.60	-50.9	-66.1	3.6	1.51e+00	0	41	104	0	60	73037
2026-01-23 20:56:25.30	56.29	11.76	-50.9	-66.1	3.6	1.51e+00	0	41	104	0	60	73071
2026-01-23 20:56:28.33	55.82	11.93	-50.9	-66.1	3.6	1.51e+00	0	41	104	0	60	72800
2026-01-23 20:56:31.35	55.35	12.09	-50.9	-66.1	3.6	1.51e+00	0	41	104	0	60	73059
2026-01-23 20:56:34.39	54.86	12.25	-50.9	-66.1	3.6	1.51e+00	0	41	104	0	60	73186
2026-01-23 20:56:37.42	54.38	12.42	-50.9	-66.1	3.6	1.51e+00	0	41	104	0	60	72968
2026-01-23 20:56:40.45	53.89	12.58	-50.9	-66.2	3.6	1.51e+00	0	41	104	0	60	73575
2026-01-23 20:56:43.47	53.39	12.74	-50.9	-66.1	3.5	1.51e+00	0	41	104	0	60	73301
2026-01-23 20:56:46.50	52.89	12.90	-50.9	-66.1	3.6	1.51e+00	0	41	104	0	60	73183
2026-01-23 20:56:49.53	52.38	13.05	-50.9	-66.2	3.6	1.51e+00	0	41	104	0	60	73384
2026-01-23 20:56:52.56	51.87	13.21	-50.9	-66.1	3.6	1.51e+00	0	41	104	0	60	73001
2026-01-23 20:56:55.59	51.35	13.36	-50.9	-66.1	3.6	1.51e+00	0	41	104	0	60	72771
2026-01-23 20:56:58.62	50.82	13.52	-50.9	-66.1	3.6	1.51e+00	0	41	104	0	60	72762
2026-01-23 20:57:01.64	50.29	13.67	-50.9	-66.1	3.6	1.51e+00	0	41	104	0	60	72963
2026-01-23 20:57:04.67	49.76	13.82	-50.9	-66.1	3.6	1.51e+00	0	41	104	0	60	72794
2026-01-23 20:57:07.70	49.22	13.97	-50.9	-66.1	3.6	1.51e+00	0	41	104	0	60	73032
2026-01-23 20:57:10.73	48.67	14.12	-50.9	-66.1	3.6	1.51e+00	0	41	104	0	60	72952
2026-01-23 20:57:13.76	48.12	14.26	-50.9	-66.1	3.6	1.51e+00	0	41	104	0	60	72940
2026-01-23 20:57:16.79	47.56	14.41	-50.9	-66.1	3.6	1.51e+00	0	41	104	0	60	72760
2026-01-23 20:57:19.82	47.00	14.55	-50.9	-66.1	3.6	1.51e+00	0	41	104	0	60	72812
2026-01-23 20:57:22.84	46.43	14.69	-50.9	-66.1	3.6	1.51e+00	0	41	104	0	60	72926
2026-01-23 20:57:25.87	45.86	14.83	-50.9	-66.1	3.5	1.51e+00	0	41	104	0	60	73243
2026-01-23 20:57:28.90	45.28	14.96	-50.9	-66.1	3.6	1.51e+00	0	41	104	0	60	73263
2026-01-23 20:57:31.93	44.69	15.09	-50.9	-66.1	3.6	1.51e+00	0	41	104	0	60	73204
2026-01-23 20:57:34.96	44.10	15.23	-50.9	-66.1	3.6	1.51e+00	0	41	104	0	60	73078
2026-01-23 20:57:37.99	43.51	15.35	-50.9	-66.1	3.6	1.51e+00	0	41	104	0	60	72854
2026-01-23 20:57:41.02	42.91	15.48	-50.9	-66.1	3.6	1.51e+00	0	41	104	0	60	72953
2026-01-23 20:57:44.05	42.30	15.60	-50.9	-66.1	3.6	1.51e+00	0	41	104	0	60	73033
2026-01-23 20:57:47.08	41.69	15.73	-50.9	-66.1	3.6	1.51e+00	0	41	104	0	60	72899
2026-01-23 20:57:50.11	41.08	15.84	-50.9	-66.1	3.6	1.51e+00	0	41	104	0	60	73049
2026-01-23 20:57:53.14	40.46	15.96	-50.9	-66.1	3.6	1.51e+00	0	41	104	0	60	73332
2026-01-23 20:57:56.18	39.83	16.07	-50.9	-66.1	3.6	1.51e+00	0	41	104	0	60	72836
2026-01-23 20:57:59.21	39.20	16.18	-50.9	-66.1	3.5	1.51e+00	0	41	104	0	60	73115
2026-01-23 20:58:02.24	38.57	16.29	-50.9	-66.1	3.6	1.51e+00	0	41	104	0	60	73231
2026-01-23 20:58:05.27	37.93	16.39	-50.9	-66.1	3.6	1.51e+00	0	41	104	0	60	73006
2026-01-23 20:58:08.29	37.29	16.49	-50.9	-66.1	3.6	1.51e+00	0	41	104	0	60	73138
2026-01-23 20:58:11.32	36.64	16.59	-50.9	-66.2	3.6	1.51e+00	0	41	104	0	60	73474
2026-01-23 20:58:14.35	35.99	16.68	-50.9	-66.1	3.6	1.51e+00	0	41	104	0	60	72873
2026-01-23 20:58:17.39	35.33	16.77	-50.9	-66.1	3.6	1.51e+00	0	41	104	0	60	73158
2026-01-23 20:58:20.42	34.67	16.86	-50.9	-66.1	3.6	1.51e+00	0	41	104	0	60	72785
2026-01-23 20:58:23.45	34.01	16.94	-50.9	-66.1	3.6	1.51e+00	0	41	104	0	60	73198
2026-01-23 20:58:26.48	33.34	17.02	-50.9	-66.1	3.6	1.51e+00	0	41	104	0	60	73277
2026-01-23 20:58:29.51	32.67	17.10	-50.9	-66.1	3.6	1.51e+00	0	41	104	0	60	73115
2026-01-23 20:58:32.54	32.00	17.17	-50.9	-66.1	3.6	1.51e+00	0	41	104	0	60	72948
2026-01-23 20:58:35.57	31.32	17.24	-50.9	-66.1	3.6	1.51e+00	0	41	104	0	60	72951
2026-01-23 20:58:38.60	30.64	17.30	-50.9	-66.1	3.6	1.51e+00	0	41	104	0	60	73104
2026-01-23 20:58:41.63	29.96	17.36	-50.9	-66.1	3.6	1.51e+00	0	41	104	0	60	72831
2026-01-23 20:58:44.65	29.28	17.41	-50.9	-66.1	3.6	1.51e+00	0	41	104	0	60	73082
2026-01-23 20:58:47.68	28.59	17.47	-50.9	-66.1	3.6	1.51e+00	0	41	104	0	60	73164
2026-01-23 20:58:50.71	27.90	17.51	-50.9	-66.1	3.6	1.51e+00	0	41	104	0	60	73157
2026-01-23 20:58:53.74	27.21	17.56	-50.9	-66.1	3.6	1.51e+00	0	41	104	0	60	72914
2026-01-23 20:58:56.77	26.52	17.60	-50.9	-66.1	3.6	1.51e+00	0	41	104	0	60	72834
2026-01-23 20:58:59.80	25.82	17.63	-50.9	-66.2	3.6	1.51e+00	0	41	104	0	60	73514
2026-01-23 20:59:02.83	25.13	17.66	-50.9	-66.1	3.6	1.51e+00	0	41	104	0	60	73017
2026-01-23 20:59:05.86	24.43	17.69	-50.9	-66.1	3.6	1.51e+00	0	41	104	0	60	73110
2026-01-23 20:59:08.88	23.73	17.71	-50.9	-66.1	3.6	1.51e+00	0	41	104	0	60	73115
2026-01-23 20:59:11.91	23.03	17.73	-50.9	-66.1	3.6	1.51e+00	0	41	104	0	60	73262
2026-01-23 20:59:14.94	22.33	17.74	-50.9	-66.1	3.6	1.51e+00	0	41	104	0	60	73054
2026-01-23 20:59:17.97	21.63	17.75	-50.9	-66.1	3.6	1.51e+00	0	41	104	0	60	73155
2026-01-23 20:59:21.00	20.93	17.75	-50.9	-66.1	3.6	1.51e+00	0	41	104	0	60	73321
2026-01-23 20:59:24.03	20.23	17.75	-50.9	-66.1	3.6	1.51e+00	0	41	104	0	60	72853
2026-01-23 20:59:27.06	19.53	17.75	-50.9	-66.1	3.6	1.51e+00	0	41	104	0	60	73125
2026-01-23 20:59:30.08	18.83	17.74	-50.9	-66.1	3.6	1.51e+00	0	41	104	0	60	73039
2026-01-23 20:59:33.11	18.13	17.73	-50.9	-66.1	3.6	1.51e+00	0	41	104	0	60	72721
2026-01-23 20:59:36.14	17.43	17.71	-50.9	-66.1	3.6	1.51e+00	0	41	104	0	60	73099
2026-01-23 20:59:39.17	16.73	17.68	-50.9	-66.1	3.6	1.51e+00	0	41	104	0	60	73214
2026-01-23 20:59:42.20	16.03	17.66	-50.9	-66.1	3.6	1.51e+00	0	41	104	0	60	73375
2026-01-23 20:59:45.23	15.33	17.63	-50.9	-66.1	3.6	1.51e+00	0	41	104	0	60	73325
2026-01-23 20:59:48.26	14.64	17.59	-50.9	-66.1	3.6	1.51e+00	0	41	104	0	60	72894
2026-01-23 20:59:51.28	13.95	17.55	-50.9	-66.1	3.6	1.51e+00	0	41	104	0	60	73355
2026-01-23 20:59:54.32	13.26	17.51	-50.9	-66.1	3.6	1.51e+00	0	41	104	0	60	73071
2026-01-23 20:59:57.34	12.57	17.46	-50.9	-66.1	3.6	1.51e+00	0	41	104	0	60	73319
2026-01-23 21:00:00.38	11.88	17.41	-50.9	-66.1	3.6	1.51e+00	0	41	104	0	60	73004
2026-01-23 21:00:03.40	11.20	17.35	-50.9	-66.1	3.6	1.51e+00	0	41	104	0	60	72868
2026-01-23 21:00:06.43	10.52	17.29	-50.9	-66.0	3.6	1.51e+00	0	41	104	0	60	72514
2026-01-23 21:00:09.45	9.84	17.23	-50.9	-66.1	3.6	1.51e+00	0	41	104	0	60	73291
2026-01-23 21:00:12.49	9.16	17.16	-50.9	-66.1	3.6	1.51e+00	0	41	104	0	60	72983
2026-01-23 21:00:15.52	8.49	17.09	-50.9	-66.1	3.6	1.51e+00	0	41	104	0	60	73136
2026-01-23 21:00:18.54	7.82	17.01	-50.9	-66.1	3.6	1.51e+00	0	41	104	0	60	73127
2026-01-23 21:00:21.57	7.16	16.93	-50.9	-66.1	3.6	1.51e+00	0	41	104	0	60	73231
2026-01-23 21:00:24.60	6.50	16.85	-50.9	-66.1	3.6	1.51e+00	0	41	104	0	60	73367
2026-01-23 21:00:27.63	5.84	16.76	-50.9	-66.1	3.6	1.51e+00	0	42	104	0	60	73166
2026-01-23 21:00:30.66	5.19	16.67	-50.9	-66.2	3.6	1.51e+00	0	41	104	0	60	73587
2026-01-23 21:00:33.69	4.54	16.58	-50.9	-66.1	3.6	1.51e+00	0	41	104	0	60	73029
2026-01-23 21:00:36.72	3.89	16.48	-50.9	-66.1	3.6	1.51e+00	0	41	104	0	60	73110
2026-01-23 21:00:39.74	3.25	16.38	-50.9	-66.1	3.6	1.51e+00	0	41	104	0	60	73197
2026-01-23 21:00:42.78	2.61	16.28	-50.9	-66.1	3.6	1.51e+00	0	41	104	0	60	73000
2026-01-23 21:00:45.81	1.98	16.17	-50.9	-66.1	3.6	1.51e+00	0	41	104	0	60	73220
2026-01-23 21:00:48.84	1.35	16.06	-50.9	-66.1	3.6	1.51e+00	0	41	104	0	60	73089
2026-01-23 21:00:51.87	0.73	15.95	-50.9	-66.1	3.6	1.51e+00	0	41	104	0	60	73194
2026-01-23 21:00:54.90	0.11	15.83	-50.9	-66.1	3.6	1.51e+00	0	41	104	0	60	72987
2026-01-23 21:00:57.93	359.49	15.71	-50.9	-66.1	3.6	1.51e+00	0	41	104	0	60	72998
2026-01-23 21:01:00.96	358.89	15.59	-50.9	-66.1	3.6	1.51e+00	0	41	104	0	60	73155
2026-01-23 21:01:03.98	358.28	15.47	-50.9	-66.1	3.6	1.51e+00	0	41	104	0	60	72964
2026-01-23 21:01:07.01	357.69	15.34	-50.9	-66.1	3.6	1.51e+00	0	41	104	0	60	72902
2026-01-23 21:01:10.04	357.09	15.21	-50.9	-66.1	3.6	1.51e+00	0	41	104	0	60	73069
2026-01-23 21:01:13.08	356.50	15.08	-50.9	-66.2	3.6	1.51e+00	0	41	104	0	60	73444
2026-01-23 21:01:16.11	355.92	14.95	-50.9	-66.1	3.6	1.51e+00	0	41	104	0	60	73020
2026-01-23 21:01:19.13	355.34	14.81	-50.9	-66.1	3.6	1.51e+00	0	42	104	0	60	73036
2026-01-23 21:01:22.16	354.77	14.68	-50.9	-66.2	3.6	1.51e+00	0	41	104	0	60	73393
2026-01-23 21:01:25.19	354.21	14.54	-50.9	-66.2	3.6	1.51e+00	0	41	104	0	60	73382
2026-01-23 21:01:28.22	353.64	14.39	-50.9	-66.1	3.6	1.51e+00	0	41	104	0	60	73059
2026-01-23 21:01:31.25	353.09	14.25	-50.9	-66.1	3.6	1.51e+00	0	41	104	0	60	73204
2026-01-23 21:01:34.28	352.54	14.11	-50.9	-66.1	3.6	1.51e+00	0	41	104	0	60	73277
2026-01-23 21:01:37.31	351.99	13.96	-50.9	-66.1	3.6	1.51e+00	0	41	104	0	60	73306
2026-01-23 21:01:40.34	351.45	13.81	-50.9	-66.1	3.6	1.51e+00	0	41	104	0	60	72906
2026-01-23 21:01:43.37	350.92	13.66	-50.9	-66.2	3.6	1.51e+00	0	41	104	0	60	73497
2026-01-23 21:01:46.40	350.39	13.51	-50.9	-66.1	3.6	1.51e+00	0	41	104	0	60	73252
2026-01-23 21:01:49.43	349.87	13.35	-50.9	-66.1	3.6	1.51e+00	0	41	104	0	60	73152
2026-01-23 21:01:52.46	349.35	13.20	-50.9	-66.1	3.6	1.51e+00	0	41	104	0	60	73213
2026-01-23 21:01:55.49	348.84	13.04	-50.9	-66.1	3.6	1.51e+00	0	41	104	0	60	72951
2026-01-23 21:01:58.53	348.33	12.88	-50.9	-66.1	3.6	1.51e+00	0	42	104	0	60	73290
2026-01-23 21:02:01.56	347.83	12.73	-50.9	-66.1	3.6	1.51e+00	0	41	104	0	60	72956
2026-01-23 21:02:04.58	347.34	12.57	-50.9	-66.1	3.6	1.51e+00	0	42	104	0	60	72982
2026-01-23 21:02:07.61	346.85	12.41	-50.9	-66.1	3.6	1.51e+00	0	41	104	0	60	73373
2026-01-23 21:02:10.64	346.36	12.24	-50.9	-66.1	3.6	1.51e+00	0	42	104	0	60	73362
2026-01-23 21:02:13.67	345.88	12.08	-50.9	-66.1	3.6	1.51e+00	0	42	104	0	60	72966
2026-01-23 21:02:16.70	345.41	11.92	-50.9	-66.1	3.6	1.51e+00	0	42	104	0	60	73137
2026-01-23 21:02:19.74	344.94	11.75	-50.9	-66.1	3.5	1.51e+00	0	42	104	0	60	73070
2026-01-23 21:02:22.77	344.48	11.59	-50.9	-66.1	3.6	1.51e+00	0	41	104	0	60	73083
2026-01-23 21:02:25.79	344.02	11.42	-50.9	-66.1	3.6	1.51e+00	0	41	104	0	60	73074
2026-01-23 21:02:28.82	343.57	11.26	-50.9	-66.1	3.6	1.51e+00	0	41	104	0	60	73074
2026-01-23 21:02:31.85	343.12	11.09	-50.9	-66.1	3.6	1.51e+00	0	41	104	0	60	73238
2026-01-23 21:02:34.88	342.68	10.92	-50.9	-66.1	3.6	1.51e+00	0	41	104	0	60	73376
2026-01-23 21:02:37.91	342.24	10.75	-50.9	-66.1	3.6	1.51e+00	0	42	104	0	60	73024
2026-01-23 21:02:40.94	341.81	10.58	-50.9	-66.2	3.6	1.51e+00	0	42	104	0	60	73463
2026-01-23 21:02:43.97	341.39	10.41	-50.9	-66.1	3.6	1.51e+00	0	41	104	0	60	73213
2026-01-23 21:02:46.99	340.96	10.25	-50.9	-66.1	3.6	1.51e+00	0	42	104	0	60	73177
2026-01-23 21:02:50.02	340.55	10.08	-50.9	-66.1	3.6	1.51e+00	0	41	104	0	60	73347
2026-01-23 21:02:53.05	340.14	9.91	-50.9	-66.1	3.6	1.51e+00	0	42	104	0	60	73247
2026-01-23 21:02:56.08	339.73	9.74	-50.9	-66.1	3.6	1.51e+00	0	42	104	0	60	73312
2026-01-23 21:02:59.11	339.33	9.57	-50.9	-66.1	3.6	1.51e+00	0	42	104	0	60	73209
2026-01-23 21:03:02.15	338.93	9.39	-50.9	-66.1	3.6	1.51e+00	0	41	104	0	60	73276
2026-01-23 21:03:05.17	338.54	9.22	-50.9	-66.1	3.6	1.51e+00	0	42	104	0	60	73114
2026-01-23 21:03:08.20	338.15	9.05	-50.9	-66.1	3.6	1.51e+00	0	42	104	0	60	73194
2026-01-23 21:03:11.23	337.77	8.88	-50.9	-66.1	3.6	1.51e+00	0	41	104	0	60	73363
2026-01-23 21:03:14.27	337.39	8.71	-50.9	-66.1	3.6	1.51e+00	0	42	104	0	60	72862
2026-01-23 21:03:17.30	337.01	8.54	-50.9	-66.2	3.6	1.51e+00	0	41	104	0	60	73417
2026-01-23 21:03:20.33	336.64	8.37	-50.9	-66.1	3.6	1.51e+00	0	42	104	0	60	72963
2026-01-23 21:03:23.36	336.28	8.20	-50.9	-66.1	3.6	1.51e+00	0	42	104	0	60	73294
2026-01-23 21:03:26.39	335.92	8.03	-50.9	-66.1	3.6	1.51e+00	0	42	104	0	60	72954
2026-01-23 21:03:29.41	335.56	7.86	-50.9	-66.1	3.6	1.51e+00	0	42	104	0	60	73257
2026-01-23 21:03:32.44	335.21	7.68	-50.9	-66.1	3.6	1.51e+00	0	41	104	0	60	73128
2026-01-23 21:03:35.47	334.86	7.51	-50.9	-66.1	3.6	1.51e+00	0	42	104	0	60	73169
2026-01-23 21:03:38.50	334.52	7.34	-50.9	-66.1	3.6	1.51e+00	0	42	104	0	60	72753
2026-01-23 21:03:41.53	334.18	7.17	-50.9	-66.2	3.6	1.51e+00	0	41	104	0	60	73428
2026-01-23 21:03:44.56	333.84	7.00	-50.9	-66.1	3.6	1.51e+00	0	42	104	0	60	73156
2026-01-23 21:03:47.59	333.51	6.83	-50.9	-66.1	3.6	1.51e+00	0	42	104	0	60	73245
2026-01-23 21:03:50.62	333.18	6.66	-50.9	-66.1	3.6	1.51e+00	0	42	104	0	60	73240
2026-01-23 21:03:53.65	332.86	6.49	-50.9	-66.1	3.6	1.51e+00	0	42	104	0	60	73208
2026-01-23 21:03:56.68	332.54	6.32	-50.9	-66.1	3.6	1.51e+00	0	42	104	0	60	72708
2026-01-23 21:03:59.71	332.22	6.16	-50.9	-66.1	3.6	1.51e+00	0	42	104	0	60	73353
2026-01-23 21:04:02.73	331.91	5.99	-50.9	-66.1	3.6	1.51e+00	0	42	104	0	60	72717
2026-01-23 21:04:05.76	331.60	5.82	-50.9	-66.1	3.6	1.51e+00	0	42	104	0	60	73032
2026-01-23 21:04:08.79	331.30	5.65	-50.9	-66.1	3.6	1.51e+00	0	42	104	0	60	73231
2026-01-23 21:04:11.82	331.00	5.48	-50.9	-66.2	3.6	1.51e+00	0	42	104	0	60	73508
2026-01-23 21:04:14.84	330.70	5.32	-50.9	-66.1	3.6	1.51e+00	0	42	104	0	60	73138
2026-01-23 21:04:17.87	330.41	5.15	-50.9	-66.1	3.6	1.51e+00	0	42	104	0	60	72861
2026-01-23 21:04:20.90	330.12	4.98	-50.9	-66.1	3.6	1.51e+00	0	42	104	0	60	72951
2026-01-23 21:04:23.93	329.83	4.81	-50.9	-66.1	3.6	1.51e+00	0	42	104	0	60	73175
2026-01-23 21:04:26.96	329.55	4.65	-50.9	-66.1	3.6	1.51e+00	0	42	104	0	60	72974
2026-01-23 21:04:29.99	329.27	4.48	-50.9	-66.1	3.6	1.51e+00	0	42	104	0	60	73286
2026-01-23 21:04:33.02	328.99	4.32	-50.9	-66.1	3.6	1.51e+00	0	42	104	0	60	73103
2026-01-23 21:04:36.05	328.71	4.15	-50.9	-66.1	3.6	1.51e+00	0	42	104	0	60	72854
2026-01-23 21:04:39.08	328.44	3.99	-50.9	-66.1	3.6	1.51e+00	0	42	104	0	60	72884
2026-01-23 21:04:42.11	328.18	3.82	-50.9	-66.1	3.6	1.51e+00	0	42	104	0	60	72907
2026-01-23 21:04:45.14	327.91	3.66	-50.9	-66.1	3.6	1.51e+00	0	42	104	0	60	72992
2026-01-23 21:04:48.17	327.65	3.50	-50.9	-66.1	3.6	1.51e+00	0	42	104	0	60	73097
2026-01-23 21:04:51.20	327.39	3.33	-50.9	-66.1	3.6	1.51e+00	0	42	104	0	60	73069
2026-01-23 21:04:54.23	327.13	3.17	-50.9	-66.1	3.6	1.51e+00	0	42	104	0	60	73306
2026-01-23 21:04:57.26	326.88	3.01	-50.9	-66.1	3.6	1.51e+00	0	42	104	0	60	72850
2026-01-23 21:05:00.29	326.63	2.85	-50.9	-66.2	3.6	1.51e+00	0	42	104	0	60	73393
2026-01-23 21:05:03.32	326.39	2.68	-50.9	-66.2	3.6	1.51e+00	0	42	104	0	60	73413
2026-01-23 21:05:06.35	326.14	2.52	-50.9	-66.1	3.6	1.51e+00	0	42	104	0	60	73178
2026-01-23 21:05:09.38	325.90	2.36	-50.9	-66.1	3.6	1.51e+00	0	42	104	0	60	73351
2026-01-23 21:05:12.41	325.66	2.20	-50.9	-66.2	3.6	1.51e+00	0	42	104	0	60	73493
2026-01-23 21:05:15.44	325.43	2.04	-50.9	-66.2	3.6	1.51e+00	0	42	104	0	60	73380
2026-01-23 21:05:18.47	325.19	1.88	-50.9	-66.2	3.6	1.51e+00	0	42	104	0	60	73389
2026-01-23 21:05:21.49	324.96	1.73	-50.9	-66.1	3.6	1.51e+00	0	42	104	0	60	73058
2026-01-23 21:05:24.52	324.73	1.57	-50.9	-66.1	3.6	1.51e+00	0	42	104	0	60	73210
2026-01-23 21:05:27.55	324.51	1.41	-50.9	-66.1	3.6	1.51e+00	0	42	104	0	60	72950
2026-01-23 21:05:30.58	324.29	1.25	-50.9	-66.1	3.5	1.51e+00	0	42	104	0	60	73013
2026-01-23 21:05:33.61	324.06	1.09	-50.9	-66.1	3.6	1.51e+00	0	42	104	0	60	73034
2026-01-23 21:05:36.63	323.85	0.94	-50.9	-66.1	3.6	1.51e+00	0	42	104	0	60	73084
2026-01-23 21:05:39.66	323.63	0.78	-50.9	-66.1	3.6	1.51e+00	0	42	104	0	60	72771
2026-01-23 21:05:42.69	323.42	0.63	-50.9	-66.1	3.6	1.51e+00	0	42	104	0	60	73290
2026-01-23 21:05:45.72	323.21	0.47	-50.9	-66.1	3.6	1.51e+00	0	42	104	0	60	73133
2026-01-23 21:05:48.75	323.00	0.32	-50.9	-66.1	3.6	1.51e+00	0	42	104	0	60	73172
2026-01-23 21:05:51.78	322.79	0.16	-50.9	-66.2	3.6	1.51e+00	0	42	104	0	60	73525
2026-01-23 21:05:54.81	322.59	0.01	-50.9	-66.1	3.6	1.51e+00	0	42	104	0	60	73202

#Closed at: 2026-01-23 21:05:56
#Recorded file [0 MB]: D:/lorett/data/35029_260124_085253.dat