passes_logs/2026/01/23/R4.6S_Anadyr/R4.6S_Anadyr__20260123_135429_SUOMI_NPP_rec.log

#Pass ID: 20260123_135429_SUOMI NPP
#Satellite: SUOMI NPP
#Configuration: NPP
#almurnet v.1.7.20251203
#Start time: 2026-01-23 13:54:30

#Version: 2.2.20231116
#Station: R4.6S_Anadyr
#Location: 177.4865 lon 64.73178 lat
#TLE: 1 37849U 11061A   26022.50498765  .00000208  00000+0  11976-3 0  9992
#TLE: 2 37849  98.7820 324.4892 0002275  50.8149 309.3229 14.19528284737775

#Time	Az	El	Level	Level2	SNR	BER	BlckErr	Temp	State	Recorded	gain1	gain2
2026-01-23 13:54:30.84	19.20	0.06	-51.0	-63.5	3.4	1.52e+00	0	38	0	0	60	52649
2026-01-23 13:54:34.88	19.33	0.30	-51.0	-66.1	3.6	1.51e+00	0	39	104	0	60	73339
2026-01-23 13:54:38.92	19.46	0.53	-51.0	-66.3	3.6	1.51e+00	0	39	104	0	60	74529
2026-01-23 13:54:42.96	19.59	0.77	-51.0	-66.2	3.6	1.51e+00	0	40	104	0	60	74069
2026-01-23 13:54:47.00	19.72	1.01	-50.8	-66.1	3.6	1.51e+00	0	40	104	0	60	72645
2026-01-23 13:54:51.04	19.85	1.26	-50.4	-65.6	3.6	1.51e+00	0	40	104	0	60	68844
2026-01-23 13:54:55.08	19.98	1.50	-49.8	-65.0	3.6	1.51e+00	0	40	104	0	60	64113
2026-01-23 13:54:59.11	20.12	1.75	-49.6	-64.8	3.6	1.51e+00	0	40	104	0	60	62486
2026-01-23 13:55:03.15	20.26	1.99	-49.6	-64.8	3.6	1.51e+00	0	40	104	0	60	62763
2026-01-23 13:55:07.20	20.40	2.24	-49.5	-64.3	3.6	1.51e+00	0	40	104	0	60	58997
2026-01-23 13:55:11.24	20.54	2.50	-49.5	-63.2	3.6	1.51e+00	0	40	104	0	60	51969
2026-01-23 13:55:15.28	20.69	2.75	-49.2	-58.1	4.9	1.04e+00	0	40	0	0	60	29211
2026-01-23 13:55:19.32	20.83	3.01	-47.0	-50.7	13.1	2.21e-04	0	40	0	7340032	60	12402
2026-01-23 13:55:23.36	20.98	3.27	-46.3	-49.4	14.1	0.00e+00	0	40	0	14680064	60	10712
2026-01-23 13:55:27.40	21.13	3.53	-48.0	-53.2	10.1	1.53e-03	92	40	0	23068672	60	16451
2026-01-23 13:55:31.44	21.29	3.79	-48.8	-56.3	7.3	1.43e+00	2	40	104	29360128	60	23718
2026-01-23 13:55:35.48	21.44	4.06	-46.2	-49.2	14.7	0.00e+00	0	40	104	29360128	60	10374
2026-01-23 13:55:39.52	21.60	4.33	-45.1	-47.4	16.5	0.00e+00	0	40	0	36700160	60	8495
2026-01-23 13:55:43.55	21.76	4.60	-43.5	-45.1	18.8	0.00e+00	92	40	0	44040192	60	6511
2026-01-23 13:55:47.59	21.93	4.87	-43.5	-45.1	18.8	0.00e+00	0	40	0	51380224	60	6512
2026-01-23 13:55:51.63	22.09	5.15	-43.0	-44.5	19.4	0.00e+00	0	40	0	58720256	60	6035
2026-01-23 13:55:55.67	22.26	5.43	-43.3	-44.8	19.1	0.00e+00	33	40	0	67108864	60	6304
2026-01-23 13:55:59.71	22.43	5.71	-43.2	-44.7	19.2	0.00e+00	0	40	0	74448896	60	6226
2026-01-23 13:56:03.75	22.61	5.99	-43.1	-44.5	19.5	0.00e+00	0	40	0	81788928	60	6097
2026-01-23 13:56:07.79	22.79	6.28	-42.9	-44.4	19.6	0.00e+00	0	40	0	89128960	60	5975
2026-01-23 13:56:11.82	22.97	6.57	-42.9	-44.3	19.7	0.00e+00	44	40	0	96468992	58	6658
2026-01-23 13:56:15.86	23.15	6.87	-43.0	-44.5	19.4	0.00e+00	0	40	0	104857600	58	6806
2026-01-23 13:56:19.91	23.34	7.16	-42.9	-44.3	19.6	0.00e+00	0	40	0	112197632	58	6685
2026-01-23 13:56:23.95	23.54	7.47	-43.5	-45.0	19.2	0.00e+00	0	40	0	119537664	58	7230
2026-01-23 13:56:27.99	23.73	7.77	-42.9	-44.3	19.8	0.00e+00	81	40	0	126877696	58	6692
2026-01-23 13:56:32.02	23.93	8.08	-42.3	-43.6	20.4	0.00e+00	0	40	0	135266304	58	6166
2026-01-23 13:56:36.06	24.13	8.39	-42.5	-43.8	20.3	0.00e+00	0	40	0	142606336	58	6280
2026-01-23 13:56:40.09	24.34	8.70	-42.1	-43.4	20.8	0.00e+00	0	40	0	149946368	58	5980
2026-01-23 13:56:44.13	24.55	9.02	-42.0	-43.3	20.7	0.00e+00	90	40	0	157286400	58	5905
2026-01-23 13:56:48.17	24.77	9.34	-41.8	-43.0	21.1	0.00e+00	0	40	0	164626432	56	6404
2026-01-23 13:56:52.20	24.99	9.66	-41.6	-42.8	21.2	0.00e+00	0	40	0	173015040	56	6251
2026-01-23 13:56:56.24	25.21	9.99	-41.5	-42.7	21.4	0.00e+00	45	40	0	180355072	56	6201
2026-01-23 13:57:00.28	25.44	10.33	-41.7	-42.9	21.2	0.00e+00	0	41	0	187695104	56	6345
2026-01-23 13:57:04.32	25.67	10.67	-41.5	-42.7	21.4	0.00e+00	0	41	0	195035136	56	6209
2026-01-23 13:57:08.36	25.91	11.01	-41.4	-42.6	21.5	0.00e+00	0	41	0	203423744	56	6112
2026-01-23 13:57:12.39	26.16	11.36	-41.4	-42.5	21.6	0.00e+00	43	41	0	210763776	56	6067
2026-01-23 13:57:16.44	26.41	11.71	-41.0	-42.1	21.9	0.00e+00	0	41	0	218103808	56	5770
2026-01-23 13:57:20.47	26.66	12.06	-40.8	-41.9	22.1	0.00e+00	0	41	0	225443840	56	5652
2026-01-23 13:57:24.51	26.92	12.42	-40.3	-41.3	22.6	0.00e+00	17	41	0	232783872	54	5947
2026-01-23 13:57:28.55	27.19	12.79	-40.3	-41.3	22.6	0.00e+00	90	40	0	241172480	54	5910
2026-01-23 13:57:32.59	27.46	13.16	-40.4	-41.4	22.5	0.00e+00	0	41	0	248512512	54	6027
2026-01-23 13:57:36.62	27.74	13.54	-40.2	-41.1	22.6	0.00e+00	0	41	0	255852544	54	5821
2026-01-23 13:57:40.66	28.03	13.92	-39.8	-40.8	23.1	0.00e+00	44	41	0	263192576	54	5576
2026-01-23 13:57:44.70	28.32	14.30	-39.8	-40.8	23.1	0.00e+00	0	41	0	270532608	54	5587
2026-01-23 13:57:48.74	28.62	14.70	-39.7	-40.6	23.2	0.00e+00	0	41	0	278921216	52	6150
2026-01-23 13:57:52.77	28.93	15.09	-39.5	-40.5	23.2	0.00e+00	0	40	0	286261248	52	6036
2026-01-23 13:57:56.81	29.25	15.50	-39.7	-40.6	23.3	0.00e+00	92	41	0	293601280	52	6124
2026-01-23 13:58:00.85	29.57	15.91	-39.5	-40.4	23.3	0.00e+00	0	41	0	300941312	52	6025
2026-01-23 13:58:04.89	29.91	16.32	-39.6	-40.5	23.3	0.00e+00	33	41	0	309329920	52	6076
2026-01-23 13:58:08.93	30.25	16.75	-39.7	-40.6	23.3	0.00e+00	0	40	0	316669952	52	6164
2026-01-23 13:58:12.97	30.60	17.18	-40.2	-41.2	22.9	0.00e+00	87	41	0	324009984	52	6547
2026-01-23 13:58:17.00	30.96	17.61	-39.9	-40.8	22.9	0.00e+00	0	41	0	331350016	52	6295
2026-01-23 13:58:21.04	31.33	18.05	-40.1	-41.0	23.1	0.00e+00	0	41	0	338690048	52	6454
2026-01-23 13:58:25.08	31.72	18.50	-40.3	-41.3	22.8	0.00e+00	27	40	0	347078656	52	6636
2026-01-23 13:58:29.11	32.11	18.96	-40.4	-41.3	22.9	0.00e+00	27	41	0	354418688	52	6687
2026-01-23 13:58:33.15	32.51	19.42	-40.2	-41.2	22.9	0.00e+00	0	41	0	361758720	52	6581
2026-01-23 13:58:37.20	32.93	19.90	-40.0	-40.9	23.1	0.00e+00	0	40	0	369098752	52	6390
2026-01-23 13:58:41.23	33.36	20.37	-40.5	-41.5	22.6	0.00e+00	48	41	0	377487360	52	6802
2026-01-23 13:58:45.27	33.80	20.86	-41.1	-42.1	22.3	0.00e+00	0	41	0	384827392	54	6539
2026-01-23 13:58:49.31	34.25	21.36	-40.7	-41.7	22.4	0.00e+00	0	41	0	392167424	54	6224
2026-01-23 13:58:53.35	34.72	21.86	-40.2	-41.2	23.0	0.00e+00	0	41	0	399507456	54	5846
2026-01-23 13:58:57.38	35.21	22.37	-40.0	-40.9	23.3	0.00e+00	91	41	0	406847488	54	5653
2026-01-23 13:59:01.42	35.71	22.89	-40.6	-41.5	22.7	0.00e+00	0	41	0	415236096	54	6100
2026-01-23 13:59:05.46	36.23	23.42	-40.9	-41.9	22.3	0.00e+00	0	41	0	422576128	54	6370
2026-01-23 13:59:09.50	36.76	23.95	-40.6	-41.5	22.6	0.00e+00	0	41	0	429916160	54	6103
2026-01-23 13:59:13.53	37.31	24.50	-40.3	-41.3	22.8	0.00e+00	76	41	0	437256192	54	5936
2026-01-23 13:59:17.57	37.88	25.05	-40.4	-41.4	22.8	0.00e+00	0	41	0	445644800	54	5999
2026-01-23 13:59:21.61	38.47	25.62	-41.1	-42.1	22.4	0.00e+00	0	41	0	452984832	54	6504
2026-01-23 13:59:25.65	39.09	26.19	-41.9	-43.1	21.4	0.00e+00	0	41	0	460324864	56	6476
2026-01-23 13:59:29.69	39.72	26.77	-41.2	-42.2	22.3	0.00e+00	39	41	0	467664896	56	5885
2026-01-23 13:59:33.73	40.38	27.36	-41.3	-42.4	22.1	0.00e+00	0	41	0	475004928	56	5996
2026-01-23 13:59:37.77	41.06	27.96	-41.6	-42.7	21.8	0.00e+00	0	41	0	483393536	56	6217
2026-01-23 13:59:41.81	41.77	28.57	-41.2	-42.3	22.2	0.00e+00	70	41	0	490733568	56	5915
2026-01-23 13:59:45.85	42.50	29.19	-41.0	-42.0	22.5	0.00e+00	0	41	0	498073600	56	5715
2026-01-23 13:59:49.89	43.26	29.81	-41.0	-42.0	22.3	0.00e+00	0	41	0	505413632	54	6461
2026-01-23 13:59:53.93	44.06	30.44	-41.3	-42.4	22.3	0.00e+00	0	41	0	513802240	54	6702
2026-01-23 13:59:57.96	44.88	31.09	-42.1	-43.3	21.4	0.00e+00	88	41	0	521142272	56	6621
2026-01-23 14:00:02.00	45.73	31.74	-41.7	-42.8	21.9	0.00e+00	0	41	0	528482304	56	6313
2026-01-23 14:00:06.04	46.62	32.39	-40.8	-41.8	22.5	0.00e+00	0	41	0	535822336	56	5580
2026-01-23 14:00:10.08	47.55	33.06	-41.2	-42.2	22.6	0.00e+00	26	41	0	543162368	54	6565
2026-01-23 14:00:14.12	48.51	33.73	-41.6	-42.7	21.8	0.00e+00	33	41	0	551550976	54	6963
2026-01-23 14:00:18.16	49.52	34.40	-42.0	-43.2	21.5	0.00e+00	33	41	0	558891008	56	6570
2026-01-23 14:00:22.19	50.56	35.08	-41.6	-42.6	21.9	0.00e+00	0	41	0	566231040	56	6168
2026-01-23 14:00:26.23	51.65	35.77	-40.9	-41.9	22.5	0.00e+00	32	41	0	573571072	56	5695
2026-01-23 14:00:30.27	52.79	36.46	-40.9	-41.9	22.4	0.00e+00	0	41	0	581959680	54	6375
2026-01-23 14:00:34.31	53.97	37.15	-39.5	-40.4	23.8	0.00e+00	0	41	0	589299712	52	5990
2026-01-23 14:00:38.35	55.21	37.84	-40.3	-41.2	23.0	0.00e+00	0	41	0	596639744	52	6613
2026-01-23 14:00:42.38	56.49	38.53	-40.5	-41.4	22.9	0.00e+00	90	41	0	603979776	54	6025
2026-01-23 14:00:46.42	57.83	39.22	-41.1	-42.2	22.4	0.00e+00	0	41	0	611319808	54	6610
2026-01-23 14:00:50.46	59.23	39.90	-39.6	-40.5	23.3	0.00e+00	0	41	0	619708416	52	6062
2026-01-23 14:00:54.50	60.69	40.58	-41.7	-42.9	21.9	0.00e+00	0	41	0	627048448	56	6321
2026-01-23 14:00:58.54	62.21	41.25	-40.2	-41.2	22.9	0.00e+00	92	41	0	634388480	54	5896
2026-01-23 14:01:02.57	63.79	41.90	-40.3	-41.3	23.0	0.00e+00	0	41	0	641728512	54	5901
2026-01-23 14:01:06.61	65.44	42.55	-40.9	-41.9	22.4	0.00e+00	0	41	0	650117120	54	6389
2026-01-23 14:01:10.65	67.15	43.18	-41.4	-42.5	22.0	0.00e+00	54	41	0	657457152	54	6782
2026-01-23 14:01:14.69	68.93	43.79	-42.1	-43.3	21.3	0.00e+00	0	41	0	664797184	58	5943
2026-01-23 14:01:18.73	70.78	44.38	-41.7	-42.9	21.8	0.00e+00	0	41	0	672137216	56	6326
2026-01-23 14:01:22.77	72.69	44.94	-41.6	-42.7	21.8	0.00e+00	0	41	0	679477248	54	6955
2026-01-23 14:01:26.81	74.67	45.48	-41.7	-42.8	21.6	0.00e+00	81	41	0	687865856	56	6257
2026-01-23 14:01:30.85	76.72	45.98	-43.0	-44.3	20.4	0.00e+00	0	41	0	695205888	58	6670
2026-01-23 14:01:34.89	78.83	46.45	-45.0	-46.8	18.4	0.00e+00	0	41	0	702545920	60	7936
2026-01-23 14:01:38.93	81.01	46.88	-44.0	-45.6	19.5	0.00e+00	0	41	0	709885952	60	6859
2026-01-23 14:01:42.96	83.23	47.27	-44.0	-45.6	19.6	0.00e+00	92	41	0	718274560	60	6876
2026-01-23 14:01:47.00	85.51	47.62	-44.4	-46.0	18.9	0.00e+00	0	41	0	725614592	60	7228
2026-01-23 14:01:51.03	87.84	47.92	-43.0	-44.3	20.8	0.00e+00	0	41	0	732954624	60	5934
2026-01-23 14:01:55.07	90.21	48.17	-44.4	-46.1	18.7	0.00e+00	32	41	0	740294656	60	7269
2026-01-23 14:01:59.11	92.62	48.36	-44.3	-45.9	19.2	0.00e+00	55	41	0	747634688	60	7166
2026-01-23 14:02:03.15	95.05	48.51	-43.0	-44.4	20.3	0.00e+00	0	41	0	756023296	58	6737
2026-01-23 14:02:07.18	97.49	48.60	-43.0	-44.4	20.3	0.00e+00	0	41	0	763363328	58	6754
2026-01-23 14:02:11.22	99.96	48.64	-41.6	-42.6	22.0	0.00e+00	84	41	0	770703360	56	6150
2026-01-23 14:02:15.26	102.42	48.61	-43.3	-44.7	20.1	0.00e+00	0	41	0	778043392	58	6937
2026-01-23 14:02:19.29	104.87	48.54	-43.2	-44.7	20.5	0.00e+00	0	41	0	786432000	60	6186
2026-01-23 14:02:23.33	107.31	48.41	-45.0	-46.9	18.1	0.00e+00	0	41	0	793772032	60	7997
2026-01-23 14:02:27.37	109.73	48.22	-42.0	-43.1	21.2	0.00e+00	72	41	0	801112064	58	5823
2026-01-23 14:02:31.42	112.12	47.99	-43.1	-44.5	20.2	0.00e+00	0	41	0	808452096	58	6781
2026-01-23 14:02:35.46	114.46	47.70	-43.2	-44.6	20.3	0.00e+00	0	41	0	815792128	60	6114
2026-01-23 14:02:39.50	116.76	47.36	-45.6	-47.8	17.3	0.00e+00	0	41	0	824180736	60	8882
2026-01-23 14:02:43.54	119.01	46.98	-43.0	-44.3	20.4	0.00e+00	92	41	0	831520768	60	5934
2026-01-23 14:02:47.58	121.20	46.56	-42.1	-43.3	21.1	0.00e+00	0	41	0	838860800	56	6633
2026-01-23 14:02:51.62	123.33	46.10	-42.2	-43.3	21.3	0.00e+00	0	41	0	846200832	58	5957
2026-01-23 14:02:55.66	125.39	45.60	-40.8	-41.8	22.4	0.00e+00	49	41	0	854589440	54	6308
2026-01-23 14:02:59.70	127.40	45.07	-41.9	-43.1	21.6	0.00e+00	0	41	0	861929472	56	6510
2026-01-23 14:03:03.74	129.33	44.51	-40.8	-41.8	22.5	0.00e+00	0	41	0	869269504	54	6304
2026-01-23 14:03:07.77	131.19	43.93	-38.9	-39.7	24.2	0.00e+00	0	41	0	876609536	50	6217
2026-01-23 14:03:11.81	133.00	43.32	-38.8	-39.7	24.0	0.00e+00	89	41	0	883949568	50	6186
2026-01-23 14:03:15.85	134.73	42.70	-38.8	-39.6	24.3	0.00e+00	0	41	0	892338176	50	6171
2026-01-23 14:03:19.89	136.40	42.05	-38.4	-39.2	24.6	0.00e+00	0	41	0	899678208	50	5876
2026-01-23 14:03:23.93	138.00	41.40	-37.3	-38.0	25.4	0.00e+00	0	41	0	907018240	46	6435
2026-01-23 14:03:27.97	139.54	40.73	-38.4	-39.2	24.4	0.00e+00	52	41	0	914358272	48	6599
2026-01-23 14:03:32.01	141.01	40.05	-39.2	-40.1	23.9	0.00e+00	0	41	0	922746880	50	6480
2026-01-23 14:03:36.05	142.43	39.36	-41.2	-42.3	22.1	0.00e+00	0	41	0	930086912	54	6624
2026-01-23 14:03:40.09	143.79	38.67	-42.4	-43.6	21.0	0.00e+00	44	41	0	937426944	56	6887
2026-01-23 14:03:44.13	145.09	37.98	-44.1	-45.7	19.2	0.00e+00	33	41	0	944766976	60	7001
2026-01-23 14:03:48.16	146.34	37.29	-42.5	-43.7	21.0	0.00e+00	0	41	0	952107008	58	6244
2026-01-23 14:03:52.20	147.54	36.59	-43.2	-44.5	20.2	0.00e+00	33	41	0	960495616	58	6845
2026-01-23 14:03:56.24	148.69	35.90	-43.7	-45.1	19.7	0.00e+00	46	41	0	967835648	58	7299
2026-01-23 14:04:00.28	149.79	35.21	-46.0	-48.4	16.6	0.00e+00	0	41	0	975175680	60	9545
2026-01-23 14:04:04.31	150.85	34.53	-40.5	-41.5	22.9	0.00e+00	0	41	0	982515712	54	6068
2026-01-23 14:04:08.35	151.86	33.85	-43.5	-45.1	19.8	0.00e+00	0	41	0	990904320	58	7256
2026-01-23 14:04:12.39	152.84	33.17	-41.9	-43.1	21.5	0.00e+00	72	41	0	998244352	58	5768
2026-01-23 14:04:16.43	153.78	32.50	-42.9	-44.2	20.5	0.00e+00	0	41	0	1005584384	58	6558
2026-01-23 14:04:20.47	154.68	31.84	-41.3	-42.3	22.2	0.00e+00	0	41	0	1012924416	56	5958
2026-01-23 14:04:24.51	155.54	31.19	-41.1	-42.1	22.2	0.00e+00	0	41	0	1020264448	54	6509
2026-01-23 14:04:28.55	156.37	30.54	-42.6	-43.9	20.7	0.00e+00	92	41	0	1028653056	58	6362
2026-01-23 14:04:32.59	157.17	29.90	-41.0	-42.0	22.4	0.00e+00	0	41	0	1035993088	56	5744
2026-01-23 14:04:36.62	157.94	29.27	-41.1	-42.1	22.2	0.00e+00	0	41	0	1043333120	54	6539
2026-01-23 14:04:40.66	158.68	28.65	-40.9	-41.9	22.4	0.00e+00	46	41	0	1050673152	54	6371
2026-01-23 14:04:44.70	159.40	28.04	-41.0	-42.0	22.4	0.00e+00	0	41	0	1059061760	54	6416
2026-01-23 14:04:48.73	160.08	27.43	-40.0	-41.0	23.2	0.00e+00	0	41	0	1066401792	54	5701
2026-01-23 14:04:52.77	160.75	26.84	-39.5	-40.4	23.6	0.00e+00	0	41	0	1073741824	52	6008
2026-01-23 14:04:56.81	161.38	26.25	-40.6	-41.6	22.7	0.00e+00	82	41	0	1081081856	54	6143
2026-01-23 14:05:00.85	162.00	25.67	-39.8	-40.7	23.3	0.00e+00	0	41	0	1088421888	52	6208
2026-01-23 14:05:04.90	162.60	25.10	-39.9	-40.8	23.3	0.00e+00	0	41	0	1096810496	52	6266
2026-01-23 14:05:08.93	163.17	24.55	-40.6	-41.6	22.6	0.00e+00	33	41	0	1104150528	54	6167
2026-01-23 14:05:12.97	163.73	24.00	-39.8	-40.7	23.2	0.00e+00	83	41	0	1111490560	52	6198
2026-01-23 14:05:17.00	164.27	23.46	-39.9	-40.8	23.2	0.00e+00	0	41	0	1118830592	52	6283
2026-01-23 14:05:21.03	164.79	22.92	-40.6	-41.6	22.4	0.00e+00	0	41	0	1127219200	52	6904
2026-01-23 14:05:25.07	165.29	22.40	-41.1	-42.2	21.9	0.00e+00	28	41	0	1134559232	54	6564
2026-01-23 14:05:29.11	165.78	21.88	-40.5	-41.5	22.6	0.00e+00	33	41	0	1141899264	54	6072
2026-01-23 14:05:33.15	166.25	21.38	-39.3	-40.2	23.7	0.00e+00	0	41	0	1149239296	52	5843
2026-01-23 14:05:37.19	166.71	20.88	-40.0	-41.0	23.1	0.00e+00	0	41	0	1156579328	52	6418
2026-01-23 14:05:41.23	167.15	20.39	-41.2	-42.3	21.9	0.00e+00	92	41	0	1164967936	54	6678
2026-01-23 14:05:45.27	167.59	19.90	-42.2	-43.5	20.9	0.00e+00	0	41	0	1172307968	56	6774
2026-01-23 14:05:49.31	168.00	19.43	-40.6	-41.6	22.6	0.00e+00	0	41	0	1179648000	54	6127
2026-01-23 14:05:53.34	168.41	18.96	-39.8	-40.8	23.1	0.00e+00	0	41	0	1186988032	54	5587
2026-01-23 14:05:57.38	168.80	18.50	-39.7	-40.6	23.3	0.00e+00	92	41	0	1195376640	52	6131
2026-01-23 14:06:01.42	169.19	18.05	-40.3	-41.3	22.7	0.00e+00	0	41	0	1202716672	52	6620
2026-01-23 14:06:05.46	169.56	17.60	-40.3	-41.3	22.8	0.00e+00	0	41	0	1210056704	52	6664
2026-01-23 14:06:09.50	169.92	17.16	-39.9	-40.9	23.1	0.00e+00	11	41	0	1217396736	52	6326
2026-01-23 14:06:13.55	170.27	16.73	-39.2	-40.1	23.6	0.00e+00	5	41	0	1224736768	52	5817
2026-01-23 14:06:17.58	170.62	16.30	-38.7	-39.5	24.1	0.00e+00	0	41	0	1233125376	50	6075
2026-01-23 14:06:21.63	170.95	15.88	-38.8	-39.6	23.9	0.00e+00	0	41	0	1240465408	50	6149
2026-01-23 14:06:25.67	171.28	15.47	-39.2	-40.1	23.5	0.00e+00	92	41	0	1247805440	50	6490
2026-01-23 14:06:29.71	171.59	15.06	-40.0	-40.9	22.9	0.00e+00	0	41	0	1255145472	52	6386
2026-01-23 14:06:33.75	171.90	14.66	-40.7	-41.8	22.2	0.00e+00	0	41	0	1263534080	54	6257
2026-01-23 14:06:37.79	172.20	14.27	-41.5	-42.6	21.4	0.00e+00	0	41	0	1270874112	54	6911
2026-01-23 14:06:41.83	172.50	13.88	-41.5	-42.7	21.4	0.00e+00	66	41	0	1278214144	54	6930
2026-01-23 14:06:45.87	172.78	13.49	-41.1	-42.2	21.8	0.00e+00	0	41	0	1285554176	54	6613
2026-01-23 14:06:49.90	173.06	13.11	-40.3	-41.3	22.5	0.00e+00	0	41	0	1292894208	54	5956
2026-01-23 14:06:53.94	173.33	12.74	-39.7	-40.6	23.0	0.00e+00	0	41	0	1301282816	52	6150
2026-01-23 14:06:57.98	173.60	12.37	-39.5	-40.3	23.3	0.00e+00	79	41	0	1308622848	52	5964
2026-01-23 14:07:02.02	173.86	12.01	-39.6	-40.5	23.2	0.00e+00	0	41	0	1315962880	52	6075
2026-01-23 14:07:06.05	174.11	11.65	-39.6	-40.5	23.1	0.00e+00	0	42	0	1323302912	52	6056
2026-01-23 14:07:10.10	174.36	11.30	-40.3	-41.2	22.6	0.00e+00	20	42	0	1331691520	52	6614
2026-01-23 14:07:14.13	174.60	10.95	-40.5	-41.6	22.4	0.00e+00	0	41	0	1339031552	52	6850
2026-01-23 14:07:18.18	174.84	10.60	-40.7	-41.7	22.1	0.00e+00	0	41	0	1346371584	54	6224
2026-01-23 14:07:22.21	175.07	10.26	-40.9	-41.9	22.0	0.00e+00	0	41	0	1353711616	54	6388
2026-01-23 14:07:26.26	175.30	9.92	-40.7	-41.8	22.0	0.00e+00	92	41	0	1361051648	54	6273
2026-01-23 14:07:30.30	175.53	9.59	-40.7	-41.7	22.0	0.00e+00	0	41	0	1369440256	54	6231
2026-01-23 14:07:34.34	175.74	9.26	-40.9	-42.0	21.7	0.00e+00	0	41	0	1376780288	54	6444
2026-01-23 14:07:38.38	175.96	8.94	-41.1	-42.3	21.5	0.00e+00	0	41	0	1384120320	54	6621
2026-01-23 14:07:42.41	176.17	8.62	-41.2	-42.4	21.5	0.00e+00	92	42	0	1391460352	54	6696
2026-01-23 14:07:46.45	176.37	8.30	-41.5	-42.7	21.0	0.00e+00	0	42	0	1398800384	54	6956
2026-01-23 14:07:50.50	176.57	7.99	-41.8	-43.0	20.8	0.00e+00	0	42	0	1407188992	56	6460
2026-01-23 14:07:54.54	176.77	7.68	-41.9	-43.1	20.8	0.00e+00	36	41	0	1414529024	56	6532
2026-01-23 14:07:58.57	176.96	7.38	-41.9	-43.2	20.6	0.00e+00	0	42	0	1421869056	56	6552
2026-01-23 14:08:02.61	177.15	7.07	-42.2	-43.5	20.3	0.00e+00	0	41	0	1429209088	56	6775
2026-01-23 14:08:06.65	177.34	6.78	-42.6	-43.9	20.1	0.00e+00	0	42	0	1437597696	56	7153
2026-01-23 14:08:10.68	177.52	6.48	-42.7	-44.1	19.8	0.00e+00	92	42	0	1444937728	58	6477
2026-01-23 14:08:14.72	177.70	6.19	-43.0	-44.5	19.3	0.00e+00	0	41	0	1452277760	58	6833
2026-01-23 14:08:18.76	177.87	5.90	-43.2	-44.8	19.1	0.00e+00	0	41	0	1459617792	58	7031
2026-01-23 14:08:22.80	178.05	5.61	-43.8	-45.5	18.5	0.00e+00	0	42	0	1466957824	60	6807
2026-01-23 14:08:26.83	178.22	5.33	-43.9	-45.7	18.3	0.00e+00	92	42	0	1475346432	60	6936
2026-01-23 14:08:30.87	178.38	5.05	-44.1	-45.8	18.2	0.00e+00	0	41	0	1482686464	60	7081
2026-01-23 14:08:34.91	178.55	4.77	-44.2	-46.1	17.9	0.00e+00	0	42	0	1490026496	60	7290
2026-01-23 14:08:38.95	178.71	4.49	-44.4	-46.4	17.5	0.00e+00	0	42	0	1497366528	60	7509
2026-01-23 14:08:42.98	178.86	4.22	-44.3	-46.2	17.7	0.00e+00	92	42	0	1505755136	60	7407
2026-01-23 14:08:47.02	179.02	3.95	-44.6	-46.6	17.2	0.00e+00	0	42	0	1513095168	60	7717
2026-01-23 14:08:51.06	179.17	3.68	-44.4	-46.4	17.4	0.00e+00	0	42	0	1520435200	60	7520
2026-01-23 14:08:55.10	179.32	3.42	-44.1	-45.9	17.9	0.00e+00	18	42	0	1527775232	60	7165
2026-01-23 14:08:59.13	179.47	3.16	-44.3	-46.3	17.4	0.00e+00	0	42	0	1535115264	60	7488
2026-01-23 14:09:03.17	179.62	2.90	-50.2	-65.5	3.6	1.51e+00	0	42	104	1540358144	60	67904
2026-01-23 14:09:07.21	179.76	2.64	-50.7	-65.9	3.6	1.51e+00	0	42	104	1540358144	60	71419
2026-01-23 14:09:11.25	179.90	2.38	-50.8	-66.1	3.6	1.51e+00	0	42	104	1540358144	60	72745
2026-01-23 14:09:15.29	180.04	2.13	-50.9	-66.1	3.6	1.51e+00	0	41	104	1540358144	60	72751
2026-01-23 14:09:19.33	180.18	1.88	-50.9	-66.1	3.6	1.51e+00	0	42	104	1540358144	60	72975
2026-01-23 14:09:23.37	180.31	1.63	-50.8	-66.1	3.6	1.51e+00	0	42	104	1540358144	60	72776
2026-01-23 14:09:27.40	180.44	1.38	-50.9	-66.1	3.6	1.51e+00	0	42	104	1540358144	60	72710
2026-01-23 14:09:31.44	180.57	1.13	-50.9	-66.1	3.6	1.51e+00	0	42	104	1540358144	60	72822
2026-01-23 14:09:35.47	180.70	0.89	-50.9	-66.1	3.5	1.51e+00	0	41	104	1540358144	60	72860
2026-01-23 14:09:39.51	180.83	0.65	-50.9	-66.0	3.6	1.51e+00	0	41	104	1540358144	60	72256
2026-01-23 14:09:43.55	180.95	0.41	-50.9	-66.1	3.6	1.51e+00	0	42	104	1540358144	60	72854
2026-01-23 14:09:47.59	181.08	0.17	-50.9	-66.1	3.6	1.51e+00	0	41	104	1540358144	60	72538
2026-01-23 14:09:51.64	181.20	-0.07	-50.9	-66.1	3.6	1.51e+00	0	41	104	1540358144	60	72678

#Closed at: 2026-01-23 14:09:53
#Recorded file [1540 MB]: D:/lorett/data/35029_260124_015430.dat