passes_logs/2026/01/23/R4.6S_Anadyr/R4.6S_Anadyr__20260123_121406_SUOMI_NPP_rec.log

#Pass ID: 20260123_121406_SUOMI NPP
#Satellite: SUOMI NPP
#Configuration: NPP
#almurnet v.1.7.20251203
#Start time: 2026-01-23 12:14:09

#Version: 2.2.20231116
#Station: R4.6S_Anadyr
#Location: 177.4865 lon 64.73178 lat
#TLE: 1 37849U 11061A   26022.50498765  .00000208  00000+0  11976-3 0  9992
#TLE: 2 37849  98.7820 324.4892 0002275  50.8149 309.3229 14.19528284737775

#Time	Az	El	Level	Level2	SNR	BER	BlckErr	Temp	State	Recorded	gain1	gain2
2026-01-23 12:14:09.31	19.60	0.15	-50.6	-64.4	3.3	1.54e+00	0	39	0	0	60	59829
2026-01-23 12:14:13.35	19.92	0.34	-50.5	-65.9	3.6	1.51e+00	0	39	104	0	60	71008
2026-01-23 12:14:17.39	20.25	0.52	-50.7	-65.9	3.6	1.51e+00	0	39	104	0	60	71268
2026-01-23 12:14:21.43	20.59	0.71	-50.5	-65.7	3.6	1.51e+00	0	39	104	0	60	69734
2026-01-23 12:14:25.47	20.92	0.90	-50.2	-65.4	3.6	1.51e+00	0	39	104	0	60	67340
2026-01-23 12:14:29.51	21.27	1.09	-49.7	-65.0	3.6	1.51e+00	0	39	104	0	60	64303
2026-01-23 12:14:33.55	21.61	1.29	-49.1	-64.3	3.6	1.51e+00	0	40	104	0	60	59057
2026-01-23 12:14:37.59	21.96	1.48	-49.1	-64.3	3.6	1.51e+00	0	40	104	0	60	59039
2026-01-23 12:14:41.62	22.32	1.67	-49.1	-64.3	3.6	1.51e+00	0	40	104	0	60	59426
2026-01-23 12:14:45.66	22.68	1.86	-49.1	-64.2	3.5	1.51e+00	0	40	104	0	60	58399
2026-01-23 12:14:49.70	23.04	2.05	-49.1	-64.2	3.6	1.51e+00	0	40	104	0	60	58867
2026-01-23 12:14:53.74	23.41	2.25	-49.1	-64.0	3.6	1.51e+00	0	40	104	0	60	57277
2026-01-23 12:14:57.78	23.78	2.44	-49.0	-63.4	3.6	1.51e+00	0	40	104	0	60	53433
2026-01-23 12:15:01.82	24.16	2.63	-45.1	-47.7	15.6	0.00e+00	0	40	0	5242880	60	8763
2026-01-23 12:15:05.86	24.54	2.83	-42.7	-44.4	18.6	0.00e+00	0	40	0	12582912	58	6730
2026-01-23 12:15:09.90	24.93	3.02	-48.1	-54.5	7.9	8.75e-03	92	40	0	19922944	60	19221
2026-01-23 12:15:13.94	25.32	3.22	-45.0	-47.4	16.5	5.69e-01	0	40	0	23068672	60	8462
2026-01-23 12:15:17.98	25.72	3.41	-44.8	-47.1	16.5	0.00e+00	0	40	0	26214400	60	8214
2026-01-23 12:15:22.02	26.12	3.61	-43.6	-45.4	18.1	0.00e+00	0	40	0	33554432	60	6709
2026-01-23 12:15:26.05	26.52	3.80	-43.0	-44.6	18.8	0.00e+00	90	40	0	41943040	60	6151
2026-01-23 12:15:30.09	26.94	4.00	-42.7	-44.3	18.9	0.00e+00	0	40	0	49283072	58	6643
2026-01-23 12:15:34.13	27.35	4.20	-42.6	-44.1	19.2	0.00e+00	0	40	0	56623104	58	6476
2026-01-23 12:15:38.16	27.78	4.39	-42.4	-43.8	19.5	0.00e+00	51	40	0	63963136	58	6295
2026-01-23 12:15:42.20	28.20	4.59	-42.1	-43.5	19.8	0.00e+00	5	40	0	72351744	58	6043
2026-01-23 12:15:46.24	28.64	4.79	-42.0	-43.3	20.2	0.00e+00	0	40	0	79691776	56	6662
2026-01-23 12:15:50.27	29.08	4.98	-41.5	-42.7	20.5	0.00e+00	0	40	0	87031808	56	6245
2026-01-23 12:15:54.31	29.52	5.18	-41.4	-42.6	20.8	0.00e+00	81	40	0	94371840	56	6126
2026-01-23 12:15:58.35	29.97	5.38	-41.7	-43.0	20.4	0.00e+00	0	40	0	101711872	56	6411
2026-01-23 12:16:02.39	30.43	5.58	-42.4	-43.9	19.5	0.00e+00	0	40	0	110100480	56	7093
2026-01-23 12:16:06.42	30.89	5.77	-42.1	-43.4	20.1	0.00e+00	0	40	0	117440512	56	6768
2026-01-23 12:16:10.46	31.36	5.97	-41.9	-43.2	20.4	0.00e+00	91	40	0	124780544	56	6612
2026-01-23 12:16:14.50	31.83	6.17	-41.7	-42.9	20.6	0.00e+00	0	40	0	132120576	56	6387
2026-01-23 12:16:18.54	32.31	6.36	-41.7	-43.0	20.5	0.00e+00	0	40	0	140509184	56	6408
2026-01-23 12:16:22.57	32.80	6.56	-41.6	-42.9	20.6	0.00e+00	0	40	0	147849216	56	6339
2026-01-23 12:16:26.61	33.29	6.76	-41.7	-42.9	20.6	0.00e+00	56	40	0	155189248	56	6376
2026-01-23 12:16:30.64	33.79	6.95	-41.3	-42.5	20.9	0.00e+00	0	40	0	162529280	56	6068
2026-01-23 12:16:34.68	34.30	7.15	-41.1	-42.3	21.2	0.00e+00	0	41	0	169869312	56	5933
2026-01-23 12:16:38.72	34.81	7.35	-40.7	-41.8	21.5	0.00e+00	48	41	0	178257920	54	6295
2026-01-23 12:16:42.75	35.33	7.54	-40.6	-41.7	21.7	0.00e+00	0	41	0	185597952	54	6215
2026-01-23 12:16:46.79	35.86	7.74	-40.5	-41.6	21.7	0.00e+00	0	40	0	192937984	54	6155
2026-01-23 12:16:50.83	36.39	7.93	-40.2	-41.3	22.1	0.00e+00	0	41	0	200278016	54	5915
2026-01-23 12:16:54.87	36.93	8.12	-40.3	-41.3	22.1	0.00e+00	92	40	0	207618048	54	5932
2026-01-23 12:16:58.90	37.48	8.32	-40.6	-41.7	21.6	0.00e+00	0	40	0	216006656	54	6206
2026-01-23 12:17:02.94	38.03	8.51	-40.6	-41.7	21.8	0.00e+00	0	41	0	223346688	54	6189
2026-01-23 12:17:06.98	38.59	8.70	-40.3	-41.3	22.0	0.00e+00	0	41	0	230686720	54	5955
2026-01-23 12:17:11.02	39.16	8.89	-40.4	-41.5	22.0	0.00e+00	36	41	0	238026752	54	6046
2026-01-23 12:17:15.05	39.73	9.08	-40.8	-42.0	21.6	0.00e+00	0	41	0	246415360	54	6396
2026-01-23 12:17:19.09	40.31	9.27	-40.7	-41.8	21.7	0.00e+00	0	41	0	253755392	54	6295
2026-01-23 12:17:23.13	40.90	9.46	-40.5	-41.6	21.7	0.00e+00	69	40	0	261095424	54	6110
2026-01-23 12:17:27.17	41.50	9.64	-40.5	-41.5	21.9	0.00e+00	92	41	0	268435456	54	6096
2026-01-23 12:17:31.20	42.11	9.83	-40.3	-41.4	22.2	0.00e+00	0	40	0	275775488	54	5967
2026-01-23 12:17:35.24	42.72	10.01	-40.4	-41.4	22.2	0.00e+00	0	41	0	284164096	54	6022
2026-01-23 12:17:39.27	43.33	10.19	-40.9	-42.1	21.6	0.00e+00	92	41	0	291504128	54	6474
2026-01-23 12:17:43.32	43.96	10.37	-40.8	-41.9	21.6	0.00e+00	0	41	0	298844160	54	6342
2026-01-23 12:17:47.36	44.60	10.55	-40.8	-41.9	21.8	0.00e+00	0	41	0	306184192	54	6347
2026-01-23 12:17:51.40	45.24	10.73	-41.0	-42.2	21.4	0.00e+00	0	41	0	314572800	54	6577
2026-01-23 12:17:55.43	45.89	10.90	-41.4	-42.5	21.2	0.00e+00	92	41	0	321912832	54	6842
2026-01-23 12:17:59.47	46.54	11.07	-41.2	-42.3	21.3	0.00e+00	0	41	0	329252864	54	6688
2026-01-23 12:18:03.50	47.21	11.24	-41.2	-42.3	21.4	0.00e+00	0	41	0	336592896	54	6660
2026-01-23 12:18:07.54	47.88	11.41	-41.8	-43.0	20.7	0.00e+00	20	41	0	343932928	56	6457
2026-01-23 12:18:11.57	48.56	11.58	-42.1	-43.4	20.4	0.00e+00	90	41	0	352321536	56	6755
2026-01-23 12:18:15.61	49.24	11.74	-42.0	-43.3	20.6	0.00e+00	0	41	0	359661568	56	6648
2026-01-23 12:18:19.65	49.94	11.90	-42.1	-43.4	20.3	0.00e+00	0	41	0	367001600	56	6719
2026-01-23 12:18:23.69	50.64	12.06	-42.3	-43.6	20.4	0.00e+00	54	41	0	374341632	56	6901
2026-01-23 12:18:27.73	51.35	12.22	-42.4	-43.7	20.5	0.00e+00	0	41	0	382730240	56	6977
2026-01-23 12:18:31.77	52.07	12.37	-42.1	-43.4	20.7	0.00e+00	0	41	0	390070272	56	6694
2026-01-23 12:18:35.80	52.79	12.52	-42.0	-43.2	20.6	0.00e+00	0	41	0	397410304	56	6608
2026-01-23 12:18:39.84	53.52	12.66	-42.0	-43.3	20.7	0.00e+00	35	41	0	404750336	56	6646
2026-01-23 12:18:43.88	54.26	12.81	-42.1	-43.4	20.5	0.00e+00	0	41	0	412090368	56	6752
2026-01-23 12:18:47.91	55.00	12.95	-41.8	-43.1	20.9	0.00e+00	0	41	0	420478976	56	6479
2026-01-23 12:18:51.95	55.75	13.08	-41.6	-42.9	20.9	0.00e+00	0	41	0	427819008	56	6324
2026-01-23 12:18:55.99	56.51	13.21	-40.9	-41.9	21.7	0.00e+00	92	41	0	435159040	56	5692
2026-01-23 12:19:00.02	57.27	13.34	-40.2	-41.2	22.3	0.00e+00	0	41	0	442499072	54	5860
2026-01-23 12:19:04.06	58.04	13.46	-40.3	-41.3	22.4	0.00e+00	0	41	0	449839104	54	5920
2026-01-23 12:19:08.10	58.82	13.58	-40.6	-41.7	22.0	0.00e+00	16	41	0	458227712	54	6222
2026-01-23 12:19:12.13	59.60	13.70	-39.7	-40.7	22.8	0.00e+00	0	41	0	465567744	54	5533
2026-01-23 12:19:16.17	60.39	13.81	-40.3	-41.4	22.3	0.00e+00	28	41	0	472907776	52	6707
2026-01-23 12:19:20.20	61.18	13.92	-40.3	-41.3	22.4	0.00e+00	0	41	0	480247808	52	6640
2026-01-23 12:19:24.24	61.98	14.02	-40.5	-41.5	22.1	0.00e+00	92	41	0	488636416	52	6838
2026-01-23 12:19:28.28	62.79	14.12	-40.9	-42.0	21.7	0.00e+00	0	41	0	495976448	54	6391
2026-01-23 12:19:32.31	63.60	14.21	-40.8	-41.9	21.8	0.00e+00	0	41	0	503316480	54	6342
2026-01-23 12:19:36.35	64.41	14.30	-42.6	-43.9	20.1	0.00e+00	0	41	0	510656512	56	7139
2026-01-23 12:19:40.39	65.23	14.38	-40.8	-41.8	21.9	0.00e+00	90	41	0	517996544	56	5617
2026-01-23 12:19:44.43	66.06	14.46	-41.1	-42.2	21.5	0.00e+00	0	41	0	526385152	54	6605
2026-01-23 12:19:48.47	66.88	14.53	-40.6	-41.7	22.0	0.00e+00	0	41	0	533725184	54	6189
2026-01-23 12:19:52.50	67.71	14.59	-40.2	-41.3	22.3	0.00e+00	0	41	0	541065216	54	5933
2026-01-23 12:19:56.54	68.55	14.66	-40.2	-41.3	22.4	0.00e+00	92	41	0	548405248	54	5901
2026-01-23 12:20:00.58	69.39	14.71	-39.9	-40.9	22.5	0.00e+00	0	41	0	556793856	52	6370
2026-01-23 12:20:04.62	70.23	14.76	-40.6	-41.6	22.0	0.00e+00	0	41	0	564133888	52	6914
2026-01-23 12:20:08.66	71.08	14.81	-39.7	-40.7	22.8	0.00e+00	53	41	0	571473920	52	6215
2026-01-23 12:20:12.69	71.92	14.84	-40.6	-41.6	22.0	0.00e+00	0	41	0	578813952	52	6921
2026-01-23 12:20:16.73	72.77	14.88	-40.6	-41.6	22.0	0.00e+00	0	41	0	586153984	54	6169
2026-01-23 12:20:20.77	73.62	14.90	-40.5	-41.5	22.0	0.00e+00	0	41	0	594542592	54	6086
2026-01-23 12:20:24.81	74.47	14.93	-40.4	-41.5	22.2	0.00e+00	77	41	0	601882624	54	6036
2026-01-23 12:20:28.84	75.33	14.94	-40.7	-41.8	22.0	0.00e+00	0	41	0	609222656	54	6303
2026-01-23 12:20:32.88	76.18	14.95	-40.1	-41.2	22.5	0.00e+00	0	41	0	616562688	54	5830
2026-01-23 12:20:36.92	77.03	14.95	-40.4	-41.5	22.2	0.00e+00	0	41	0	624951296	54	6048
2026-01-23 12:20:40.96	77.89	14.95	-39.6	-40.6	22.9	0.00e+00	91	41	0	632291328	52	6132
2026-01-23 12:20:44.99	78.74	14.94	-40.2	-41.3	22.4	0.00e+00	0	41	0	639631360	52	6622
2026-01-23 12:20:49.03	79.60	14.93	-39.4	-40.4	23.1	0.00e+00	0	41	0	646971392	52	5981
2026-01-23 12:20:53.06	80.45	14.91	-39.2	-40.2	22.9	0.00e+00	57	41	0	654311424	52	5838
2026-01-23 12:20:57.10	81.30	14.88	-39.9	-40.9	22.5	0.00e+00	92	41	0	662700032	52	6325
2026-01-23 12:21:01.14	82.15	14.85	-39.9	-40.9	22.7	0.00e+00	0	41	0	670040064	52	6374
2026-01-23 12:21:05.18	83.00	14.81	-39.9	-40.9	22.6	0.00e+00	0	41	0	677380096	52	6340
2026-01-23 12:21:09.22	83.84	14.77	-40.1	-41.2	22.5	0.00e+00	79	41	0	684720128	52	6553
2026-01-23 12:21:13.25	84.68	14.72	-40.2	-41.2	22.5	0.00e+00	0	41	0	692060160	52	6614
2026-01-23 12:21:17.29	85.53	14.67	-39.8	-40.8	22.6	0.00e+00	0	41	0	700448768	52	6287
2026-01-23 12:21:21.33	86.36	14.61	-39.5	-40.4	23.0	0.00e+00	0	41	0	707788800	52	6010
2026-01-23 12:21:25.37	87.20	14.54	-38.8	-39.7	23.5	0.00e+00	76	41	0	715128832	50	6202
2026-01-23 12:21:29.40	88.03	14.47	-38.9	-39.8	23.4	0.00e+00	0	41	0	722468864	50	6303
2026-01-23 12:21:33.43	88.85	14.39	-38.8	-39.8	23.3	0.00e+00	0	41	0	730857472	50	6246
2026-01-23 12:21:37.47	89.67	14.31	-39.4	-40.4	23.0	0.00e+00	0	41	0	738197504	50	6718
2026-01-23 12:21:41.51	90.49	14.22	-39.8	-40.8	22.7	0.00e+00	87	41	0	745537536	52	6287
2026-01-23 12:21:45.54	91.30	14.13	-39.6	-40.6	22.9	0.00e+00	0	41	0	752877568	52	6122
2026-01-23 12:21:49.58	92.11	14.04	-38.9	-39.9	23.4	0.00e+00	0	41	0	760217600	52	5635
2026-01-23 12:21:53.62	92.91	13.93	-38.2	-39.0	24.1	0.00e+00	79	41	0	768606208	50	5726
2026-01-23 12:21:57.66	93.71	13.83	-38.5	-39.4	23.7	0.00e+00	9	41	0	775946240	50	5979
2026-01-23 12:22:01.68	94.50	13.72	-38.4	-39.3	23.8	0.00e+00	0	41	0	783286272	50	5908
2026-01-23 12:22:05.72	95.29	13.60	-39.1	-40.1	23.3	0.00e+00	0	41	0	790626304	50	6475
2026-01-23 12:22:09.76	96.07	13.48	-38.9	-39.8	23.4	0.00e+00	90	41	0	799014912	50	6277
2026-01-23 12:22:13.78	96.84	13.36	-38.9	-39.8	23.4	0.00e+00	0	41	0	806354944	50	6247
2026-01-23 12:22:17.82	97.61	13.23	-39.0	-39.9	23.3	0.00e+00	0	41	0	813694976	50	6369
2026-01-23 12:22:21.85	98.37	13.10	-39.2	-40.1	23.1	0.00e+00	0	41	0	821035008	50	6524
2026-01-23 12:22:25.89	99.12	12.97	-39.7	-40.7	22.8	0.00e+00	92	41	0	828375040	50	6987
2026-01-23 12:22:29.93	99.87	12.83	-40.4	-41.5	21.8	0.00e+00	0	41	0	836763648	52	6798
2026-01-23 12:22:33.96	100.61	12.68	-40.2	-41.3	21.9	0.00e+00	0	41	0	844103680	52	6622
2026-01-23 12:22:38.00	101.34	12.54	-41.0	-42.1	21.6	0.00e+00	0	41	0	851443712	54	6486
2026-01-23 12:22:42.04	102.07	12.39	-40.9	-42.0	21.6	0.00e+00	92	41	0	858783744	54	6433
2026-01-23 12:22:46.08	102.79	12.23	-41.4	-42.8	20.7	0.00e+00	0	41	0	866123776	54	7076
2026-01-23 12:22:50.12	103.50	12.08	-40.9	-42.1	21.4	0.00e+00	21	41	0	874512384	54	6531
2026-01-23 12:22:54.16	104.21	11.92	-40.3	-41.3	22.2	0.00e+00	20	41	0	881852416	54	5953
2026-01-23 12:22:58.19	104.91	11.76	-41.3	-42.5	21.2	0.00e+00	0	41	0	889192448	54	6821
2026-01-23 12:23:02.23	105.60	11.59	-42.1	-43.4	20.4	0.00e+00	0	41	0	896532480	56	6704
2026-01-23 12:23:06.27	106.28	11.43	-41.8	-43.1	20.5	0.00e+00	0	41	0	904921088	56	6516
2026-01-23 12:23:10.31	106.95	11.26	-41.1	-42.3	21.3	0.00e+00	91	41	0	912261120	56	5958
2026-01-23 12:23:14.34	107.62	11.09	-41.2	-42.4	21.2	0.00e+00	0	41	0	919601152	56	6028
2026-01-23 12:23:18.38	108.28	10.91	-41.3	-42.4	21.2	0.00e+00	0	41	0	926941184	56	6026
2026-01-23 12:23:22.42	108.94	10.74	-40.9	-42.0	21.5	0.00e+00	0	41	0	934281216	54	6453
2026-01-23 12:23:26.46	109.58	10.56	-41.6	-42.9	20.8	0.00e+00	50	41	0	942669824	54	7098
2026-01-23 12:23:30.49	110.22	10.38	-41.8	-43.1	20.7	0.00e+00	0	41	0	950009856	56	6468
2026-01-23 12:23:34.53	110.85	10.20	-41.2	-42.4	21.2	0.00e+00	0	41	0	957349888	56	6033
2026-01-23 12:23:38.57	111.47	10.02	-41.0	-42.2	21.4	0.00e+00	17	41	0	964689920	56	5830
2026-01-23 12:23:42.61	112.09	9.83	-40.5	-41.7	21.8	0.00e+00	87	41	0	973078528	54	6183
2026-01-23 12:23:46.64	112.69	9.65	-40.6	-41.7	21.7	0.00e+00	0	41	0	980418560	54	6237
2026-01-23 12:23:50.68	113.29	9.46	-40.5	-41.6	21.8	0.00e+00	0	41	0	987758592	54	6169
2026-01-23 12:23:54.72	113.89	9.27	-40.4	-41.5	21.9	0.00e+00	90	41	0	995098624	54	6093
2026-01-23 12:23:58.76	114.47	9.08	-40.5	-41.6	21.8	0.00e+00	0	41	0	1002438656	54	6134
2026-01-23 12:24:02.79	115.05	8.89	-40.6	-41.7	21.7	0.00e+00	0	41	0	1010827264	54	6195
2026-01-23 12:24:06.83	115.62	8.70	-40.3	-41.4	22.0	0.00e+00	0	41	0	1018167296	54	5975
2026-01-23 12:24:10.87	116.18	8.50	-40.0	-41.0	22.2	0.00e+00	39	41	0	1025507328	54	5760
2026-01-23 12:24:14.90	116.74	8.31	-40.5	-41.6	21.9	0.00e+00	0	41	0	1032847360	54	6113
2026-01-23 12:24:18.94	117.29	8.12	-40.5	-41.6	21.7	0.00e+00	0	41	0	1041235968	54	6149
2026-01-23 12:24:22.98	117.83	7.92	-40.7	-41.9	21.5	0.00e+00	0	41	0	1048576000	54	6330
2026-01-23 12:24:27.02	118.37	7.73	-41.0	-42.2	21.2	0.00e+00	65	41	0	1055916032	54	6599
2026-01-23 12:24:31.06	118.90	7.53	-40.6	-41.7	21.5	0.00e+00	0	41	0	1063256064	54	6236
2026-01-23 12:24:35.10	119.42	7.33	-40.7	-41.8	21.6	0.00e+00	0	41	0	1070596096	54	6276
2026-01-23 12:24:39.14	119.93	7.13	-40.9	-42.0	21.3	0.00e+00	16	41	0	1078984704	54	6436
2026-01-23 12:24:43.18	120.44	6.94	-41.1	-42.3	21.0	0.00e+00	0	41	0	1086324736	54	6682
2026-01-23 12:24:47.21	120.94	6.74	-41.1	-42.3	21.0	0.00e+00	0	41	0	1093664768	54	6665
2026-01-23 12:24:51.26	121.44	6.54	-41.2	-42.4	20.8	0.00e+00	0	41	0	1101004800	54	6726
2026-01-23 12:24:55.29	121.93	6.34	-41.9	-43.2	20.2	0.00e+00	91	41	0	1109393408	56	6575
2026-01-23 12:24:59.33	122.41	6.14	-42.8	-44.3	19.1	0.00e+00	0	41	0	1116733440	58	6667
2026-01-23 12:25:03.37	122.89	5.94	-41.8	-43.2	20.1	0.00e+00	0	41	0	1124073472	58	5865
2026-01-23 12:25:07.41	123.36	5.74	-42.4	-44.0	19.4	0.00e+00	0	41	0	1131413504	58	6409
2026-01-23 12:25:11.44	123.82	5.55	-42.5	-44.0	19.5	0.00e+00	39	41	0	1138753536	58	6439
2026-01-23 12:25:15.48	124.28	5.35	-42.2	-43.7	19.7	0.00e+00	0	41	0	1147142144	58	6204
2026-01-23 12:25:19.52	124.73	5.15	-42.0	-43.4	20.0	0.00e+00	0	41	0	1154482176	56	6716
2026-01-23 12:25:23.55	125.17	4.95	-42.6	-44.1	19.1	0.00e+00	15	41	0	1161822208	56	7314
2026-01-23 12:25:27.59	125.61	4.75	-43.2	-44.9	18.2	0.00e+00	49	41	0	1169162240	58	7164
2026-01-23 12:25:31.63	126.05	4.55	-43.9	-45.8	17.4	0.00e+00	0	41	0	1177550848	60	7045
2026-01-23 12:25:35.67	126.48	4.35	-43.0	-44.7	18.6	0.00e+00	0	41	0	1184890880	60	6207
2026-01-23 12:25:39.70	126.90	4.15	-43.7	-45.6	17.8	0.00e+00	37	41	0	1192230912	60	6849
2026-01-23 12:25:43.74	127.32	3.96	-43.2	-45.0	18.4	0.00e+00	0	41	0	1199570944	60	6408
2026-01-23 12:25:47.78	127.73	3.76	-42.9	-44.5	18.6	0.00e+00	0	41	0	1206910976	58	6846
2026-01-23 12:25:51.82	128.14	3.56	-42.6	-44.2	18.7	0.00e+00	0	41	0	1215299584	58	6590
2026-01-23 12:25:55.86	128.54	3.36	-43.2	-45.0	18.0	0.00e+00	90	41	0	1222639616	58	7247
2026-01-23 12:25:59.89	128.94	3.17	-44.1	-46.3	16.8	0.00e+00	0	41	0	1229979648	60	7457
2026-01-23 12:26:03.93	129.33	2.97	-49.3	-64.6	3.6	6.23e-01	0	41	104	1236271104	60	61240
2026-01-23 12:26:07.97	129.71	2.77	-50.0	-65.4	3.6	1.51e+00	0	41	104	1236271104	60	67487
2026-01-23 12:26:12.00	130.10	2.58	-50.5	-65.6	3.6	1.51e+00	0	41	104	1236271104	60	69148
2026-01-23 12:26:16.04	130.47	2.38	-50.6	-65.8	3.6	1.51e+00	0	41	104	1236271104	60	70473
2026-01-23 12:26:20.08	130.85	2.18	-50.5	-65.8	3.6	1.51e+00	0	41	104	1236271104	60	70114
2026-01-23 12:26:24.12	131.21	1.99	-50.6	-65.8	3.6	1.51e+00	0	41	104	1236271104	60	70379
2026-01-23 12:26:28.17	131.58	1.79	-50.5	-65.8	3.6	1.51e+00	0	41	104	1236271104	60	70092
2026-01-23 12:26:32.21	131.94	1.60	-50.6	-65.7	3.6	1.51e+00	0	41	104	1236271104	60	69989
2026-01-23 12:26:36.25	132.29	1.41	-50.6	-65.7	3.6	1.51e+00	0	41	104	1236271104	60	69916
2026-01-23 12:26:40.29	132.64	1.21	-50.5	-65.7	3.6	1.51e+00	0	41	104	1236271104	60	69653
2026-01-23 12:26:44.33	132.99	1.02	-50.5	-65.7	3.6	1.51e+00	0	41	104	1236271104	60	69728
2026-01-23 12:26:48.37	133.33	0.83	-50.5	-65.8	3.6	1.51e+00	0	41	104	1236271104	60	70099
2026-01-23 12:26:52.41	133.67	0.64	-50.5	-65.7	3.6	1.51e+00	0	41	104	1236271104	60	69576
2026-01-23 12:26:56.45	134.00	0.44	-50.5	-65.7	3.6	1.51e+00	0	41	104	1236271104	60	69918
2026-01-23 12:27:00.49	134.33	0.25	-50.5	-65.7	3.6	1.51e+00	0	41	104	1236271104	60	69653
2026-01-23 12:27:04.53	134.65	0.06	-50.5	-65.7	3.6	1.51e+00	0	41	104	1236271104	60	69898

#Closed at: 2026-01-23 12:27:06
#Recorded file [1236 MB]: D:/lorett/data/35029_260124_001409.dat