passes_logs/2026/01/23/R4.6S_Anadyr/R4.6S_Anadyr__20260123_171928_AQUA_rec.log

#Pass ID: 20260123_171928_AQUA
#Satellite: AQUA
#Configuration: AQUA
#almurnet v.1.7.20251203
#Start time: 2026-01-23 17:19:29

#Version: 2.2.20231116
#Station: R4.6S_Anadyr
#Location: 177.4865 lon 64.73178 lat
#TLE: 1 27424U 02022A   26022.49486490  .00002153  00000+0  44069-3 0  9997
#TLE: 2 27424  98.4099 349.0485 0001970  69.5876  43.4746 14.61847233261984

#Time	Az	El	Level	Level2	SNR	BER	BlckErr	Temp	State	Recorded	gain1	gain2
2026-01-23 17:19:29.35	21.15	0.08	-50.8	-62.5	3.5	8.45e-01	0	38	0	0	60	47976
2026-01-23 17:19:33.39	21.05	0.33	-51.3	-69.2	3.5	3.02e+01	0	39	104	0	60	110642
2026-01-23 17:19:37.42	20.94	0.57	-51.3	-69.2	3.5	3.02e+01	0	39	104	0	60	111440
2026-01-23 17:19:41.46	20.83	0.82	-51.3	-69.2	3.5	3.02e+01	0	40	104	0	60	110422
2026-01-23 17:19:45.50	20.72	1.08	-51.1	-68.9	3.5	3.02e+01	0	40	104	0	60	107685
2026-01-23 17:19:49.54	20.60	1.33	-50.6	-68.5	3.5	3.02e+01	0	40	104	0	60	102760
2026-01-23 17:19:53.57	20.49	1.59	-50.0	-67.7	3.5	3.02e+01	0	40	104	0	60	93182
2026-01-23 17:19:57.61	20.37	1.85	-50.0	-67.7	3.5	3.02e+01	0	40	104	0	60	93694
2026-01-23 17:20:01.65	20.24	2.11	-50.0	-67.0	3.5	3.02e+01	0	40	104	0	60	86576
2026-01-23 17:20:05.69	20.12	2.37	-50.0	-66.2	3.5	3.02e+01	0	40	104	0	60	79026
2026-01-23 17:20:09.73	19.99	2.64	-50.0	-67.7	3.5	3.02e+01	0	40	104	0	60	93798
2026-01-23 17:20:13.76	19.86	2.91	-50.0	-66.3	3.5	3.02e+01	0	40	104	0	60	79418
2026-01-23 17:20:17.80	19.73	3.18	-49.8	-63.6	4.4	3.02e+01	0	40	104	0	60	58056
2026-01-23 17:20:21.84	19.59	3.45	-49.9	-65.6	3.6	3.02e+01	0	40	104	0	60	73079
2026-01-23 17:20:25.89	19.45	3.73	-48.7	-55.0	11.8	3.02e+01	60	40	0	4718592	60	21761
2026-01-23 17:20:29.92	19.30	4.01	-49.8	-67.0	3.5	3.02e+01	0	40	104	7340032	60	86081
2026-01-23 17:20:33.96	19.16	4.30	-42.8	-53.5	3.6	3.02e+01	0	40	104	7340032	60	18239
2026-01-23 17:20:38.00	19.01	4.58	-41.1	-51.6	3.4	3.02e+01	0	40	104	7340032	58	16333
2026-01-23 17:20:42.03	18.85	4.87	-42.7	-53.3	4.0	3.02e+01	0	40	104	7340032	60	17720
2026-01-23 17:20:46.07	18.69	5.17	-40.5	-51.0	3.5	3.02e+01	0	40	104	7340032	54	19301
2026-01-23 17:20:50.11	18.53	5.46	-44.2	-55.1	3.5	3.02e+01	0	40	104	7340032	60	22002
2026-01-23 17:20:54.14	18.37	5.76	-39.5	-49.8	3.5	3.02e+01	0	40	104	7340032	54	16813
2026-01-23 17:20:58.18	18.19	6.07	-50.2	-66.9	3.5	3.02e+01	0	40	104	7340032	60	85222
2026-01-23 17:21:02.22	18.02	6.37	-42.2	-52.8	3.5	3.02e+01	0	40	104	7340032	60	16848
2026-01-23 17:21:06.25	17.84	6.69	-49.9	-66.2	3.5	3.02e+01	0	40	104	7340032	60	78312
2026-01-23 17:21:10.29	17.66	7.00	-40.1	-50.5	3.5	3.02e+01	0	40	104	7340032	56	16242
2026-01-23 17:21:14.32	17.47	7.32	-41.6	-52.1	3.5	3.02e+01	0	40	104	7340032	54	21851
2026-01-23 17:21:18.36	17.28	7.64	-39.5	-49.8	3.5	3.02e+01	0	40	104	7340032	54	16818
2026-01-23 17:21:22.40	17.08	7.97	-39.2	-49.6	3.5	3.02e+01	0	40	104	7340032	52	18327
2026-01-23 17:21:26.43	16.87	8.31	-43.7	-54.6	3.5	3.02e+01	0	40	104	7340032	60	20590
2026-01-23 17:21:30.47	16.66	8.64	-39.9	-50.3	3.5	3.02e+01	0	40	104	7340032	56	15773
2026-01-23 17:21:34.51	16.45	8.98	-48.2	-60.9	3.5	3.02e+01	0	41	104	7340032	60	42774
2026-01-23 17:21:38.54	16.23	9.33	-42.6	-53.3	3.5	3.02e+01	0	40	104	7340032	60	17707
2026-01-23 17:21:42.58	16.00	9.68	-50.1	-66.0	3.5	3.02e+01	0	41	104	7340032	60	76645
2026-01-23 17:21:46.61	15.77	10.04	-38.4	-48.7	3.5	3.02e+01	0	40	104	7340032	52	16547
2026-01-23 17:21:50.65	15.53	10.40	-50.3	-67.0	3.5	3.02e+01	0	41	104	7340032	60	86516
2026-01-23 17:21:54.69	15.28	10.77	-42.1	-52.9	3.5	3.02e+01	0	41	104	7340032	58	19005
2026-01-23 17:21:58.73	15.02	11.14	-49.3	-64.5	3.5	3.02e+01	0	41	104	7340032	60	64822
2026-01-23 17:22:02.77	14.76	11.52	-44.9	-56.0	3.5	3.02e+01	0	41	104	7340032	60	24240
2026-01-23 17:22:06.81	14.49	11.91	-50.4	-66.8	3.5	3.02e+01	0	41	104	7340032	60	84468
2026-01-23 17:22:10.84	14.21	12.30	-39.6	-49.9	3.5	3.02e+01	0	41	104	7340032	50	21445
2026-01-23 17:22:14.88	13.92	12.70	-37.3	-47.5	3.5	3.02e+01	0	41	104	7340032	50	16209
2026-01-23 17:22:18.92	13.63	13.10	-50.3	-66.1	3.5	3.02e+01	0	41	104	7340032	60	77278
2026-01-23 17:22:22.95	13.32	13.52	-38.9	-49.1	3.5	3.02e+01	0	41	104	7340032	54	15558
2026-01-23 17:22:26.99	13.01	13.93	-50.5	-67.4	3.5	3.02e+01	0	41	104	7340032	60	90479
2026-01-23 17:22:31.03	12.68	14.36	-50.0	-65.4	3.5	3.02e+01	0	41	104	7340032	60	71760
2026-01-23 17:22:35.06	12.34	14.79	-50.8	-68.5	3.5	3.02e+01	0	41	104	7340032	60	102129
2026-01-23 17:22:39.10	12.00	15.23	-50.8	-68.4	3.5	3.02e+01	0	41	104	7340032	60	101082
2026-01-23 17:22:43.14	11.64	15.68	-50.8	-68.5	3.5	3.02e+01	0	41	104	7340032	60	102543
2026-01-23 17:22:47.17	11.26	16.14	-50.8	-68.6	3.5	3.02e+01	0	41	104	7340032	60	103877
2026-01-23 17:22:51.21	10.88	16.60	-50.8	-68.6	3.5	3.02e+01	0	41	104	7340032	60	103531
2026-01-23 17:22:55.24	10.48	17.08	-50.8	-68.5	3.5	3.02e+01	0	41	104	7340032	60	102539
2026-01-23 17:22:59.28	10.07	17.56	-50.8	-68.6	3.5	3.02e+01	0	41	104	7340032	60	103882
2026-01-23 17:23:03.32	9.64	18.05	-50.8	-68.7	3.5	3.02e+01	0	41	104	7340032	60	104389
2026-01-23 17:23:07.35	9.20	18.55	-50.8	-68.7	3.5	3.02e+01	0	41	104	7340032	60	104413
2026-01-23 17:23:11.39	8.74	19.06	-50.8	-68.7	3.5	3.02e+01	0	41	104	7340032	60	104835
2026-01-23 17:23:15.43	8.27	19.59	-50.8	-68.6	3.5	3.02e+01	0	41	104	7340032	60	103826
2026-01-23 17:23:19.46	7.77	20.12	-50.8	-68.6	3.5	3.02e+01	0	41	104	7340032	60	104051
2026-01-23 17:23:23.49	7.26	20.66	-50.8	-68.7	3.5	3.02e+01	0	41	104	7340032	60	104362
2026-01-23 17:23:27.53	6.73	21.21	-50.8	-68.7	3.5	3.02e+01	0	41	104	7340032	60	104369
2026-01-23 17:23:31.57	6.17	21.77	-50.8	-68.6	3.5	3.02e+01	0	41	104	7340032	60	104167
2026-01-23 17:23:35.60	5.60	22.34	-50.8	-68.7	3.5	3.02e+01	0	41	104	7340032	60	104203
2026-01-23 17:23:39.64	4.99	22.93	-50.8	-68.7	3.5	3.02e+01	0	41	104	7340032	60	104366
2026-01-23 17:23:43.68	4.37	23.52	-50.8	-68.7	3.5	3.02e+01	0	41	104	7340032	60	104451
2026-01-23 17:23:47.71	3.72	24.13	-50.8	-68.7	3.5	3.02e+01	0	41	104	7340032	60	104612
2026-01-23 17:23:51.75	3.04	24.75	-50.8	-68.7	3.5	3.02e+01	0	41	104	7340032	60	104356
2026-01-23 17:23:55.79	2.33	25.38	-50.8	-68.7	3.5	3.02e+01	0	41	104	7340032	60	104267
2026-01-23 17:23:59.83	1.59	26.02	-50.8	-68.6	3.5	3.02e+01	0	41	104	7340032	60	103881
2026-01-23 17:24:03.84	0.82	26.67	-50.8	-68.7	3.5	3.02e+01	0	41	104	7340032	60	104656
2026-01-23 17:24:07.89	0.02	27.34	-50.8	-68.6	3.5	3.02e+01	0	41	104	7340032	60	104090
2026-01-23 17:24:11.92	359.17	28.01	-50.8	-68.6	3.5	3.02e+01	0	41	104	7340032	60	104069
2026-01-23 17:24:15.96	358.29	28.70	-50.8	-68.7	3.5	3.02e+01	0	41	104	7340032	60	104712
2026-01-23 17:24:20.00	357.37	29.40	-50.8	-68.7	3.5	3.02e+01	0	41	104	7340032	60	104299
2026-01-23 17:24:24.04	356.40	30.10	-50.8	-68.6	3.5	3.02e+01	0	41	104	7340032	60	103861
2026-01-23 17:24:28.07	355.39	30.82	-50.8	-68.7	3.5	3.02e+01	0	41	104	7340032	60	104606
2026-01-23 17:24:32.11	354.33	31.55	-50.8	-68.7	3.5	3.02e+01	0	41	104	7340032	60	104338
2026-01-23 17:24:36.15	353.22	32.28	-50.8	-68.7	3.5	3.02e+01	0	41	104	7340032	60	104793
2026-01-23 17:24:40.19	352.06	33.02	-50.8	-68.6	3.5	3.02e+01	0	41	104	7340032	60	103799
2026-01-23 17:24:44.23	350.84	33.77	-50.8	-68.6	3.5	3.02e+01	0	41	104	7340032	60	103706
2026-01-23 17:24:48.26	349.56	34.52	-50.8	-68.7	3.5	3.02e+01	0	41	104	7340032	60	104276
2026-01-23 17:24:52.30	348.21	35.27	-50.8	-68.6	3.5	3.02e+01	0	41	104	7340032	60	104051
2026-01-23 17:24:56.34	346.80	36.03	-50.8	-68.6	3.5	3.02e+01	0	41	104	7340032	60	103566
2026-01-23 17:25:00.37	345.33	36.78	-50.8	-68.6	3.5	3.02e+01	0	41	104	7340032	60	103674
2026-01-23 17:25:04.41	343.77	37.53	-50.8	-68.6	3.5	3.02e+01	0	41	104	7340032	60	103984
2026-01-23 17:25:08.45	342.15	38.27	-50.8	-68.6	3.5	3.02e+01	0	41	104	7340032	60	103969
2026-01-23 17:25:12.49	340.44	39.00	-50.8	-68.6	3.5	3.02e+01	0	41	104	7340032	60	104128
2026-01-23 17:25:16.53	338.66	39.72	-50.8	-68.6	3.5	3.02e+01	0	41	104	7340032	60	103493
2026-01-23 17:25:20.56	336.80	40.42	-50.8	-68.6	3.5	3.02e+01	0	41	104	7340032	60	103853
2026-01-23 17:25:24.60	334.85	41.10	-50.8	-68.6	3.5	3.02e+01	0	41	104	7340032	60	103642
2026-01-23 17:25:28.64	332.82	41.75	-50.8	-68.6	3.5	3.02e+01	0	41	104	7340032	60	103754
2026-01-23 17:25:32.68	330.70	42.38	-50.8	-68.6	3.5	3.02e+01	0	41	104	7340032	60	103734
2026-01-23 17:25:36.71	328.51	42.97	-50.8	-68.6	3.5	3.02e+01	0	41	104	7340032	60	103691
2026-01-23 17:25:40.75	326.22	43.52	-50.8	-68.6	3.5	3.02e+01	0	41	104	7340032	60	103832
2026-01-23 17:25:44.79	323.86	44.02	-50.7	-68.6	3.5	3.02e+01	0	41	104	7340032	60	103339
2026-01-23 17:25:48.83	321.43	44.48	-50.7	-68.6	3.5	3.02e+01	0	41	104	7340032	60	103347
2026-01-23 17:25:52.87	318.93	44.88	-50.7	-68.6	3.5	3.02e+01	0	41	104	7340032	60	103684
2026-01-23 17:25:56.91	316.36	45.22	-50.7	-68.6	3.5	3.02e+01	0	41	104	7340032	60	103934
2026-01-23 17:26:00.94	313.76	45.51	-50.7	-68.6	3.5	3.02e+01	0	41	104	7340032	60	103710
2026-01-23 17:26:04.98	311.10	45.73	-50.8	-68.6	3.5	3.02e+01	0	41	104	7340032	60	103500
2026-01-23 17:26:09.02	308.41	45.88	-50.7	-68.6	3.5	3.02e+01	0	41	104	7340032	60	103749
2026-01-23 17:26:13.06	305.70	45.96	-50.8	-68.6	3.5	3.02e+01	0	41	104	7340032	60	103710
2026-01-23 17:26:17.10	302.98	45.97	-50.7	-68.6	3.5	3.02e+01	0	41	104	7340032	60	103622
2026-01-23 17:26:21.13	300.27	45.91	-50.7	-68.6	3.5	3.02e+01	0	41	104	7340032	60	103615
2026-01-23 17:26:25.17	297.57	45.78	-50.8	-68.6	3.5	3.02e+01	0	41	104	7340032	60	103479
2026-01-23 17:26:29.20	294.90	45.59	-50.8	-68.6	3.5	3.02e+01	0	41	104	7340032	60	103655
2026-01-23 17:26:33.24	292.27	45.33	-50.8	-68.6	3.5	3.02e+01	0	41	104	7340032	60	103165
2026-01-23 17:26:37.27	289.69	45.00	-50.8	-68.6	3.5	3.02e+01	0	41	104	7340032	60	103429
2026-01-23 17:26:41.31	287.17	44.62	-50.8	-68.6	3.5	3.02e+01	0	41	104	7340032	60	103538
2026-01-23 17:26:45.35	284.70	44.18	-50.8	-68.6	3.5	3.02e+01	0	41	104	7340032	60	103414
2026-01-23 17:26:49.38	282.32	43.69	-50.8	-68.6	3.5	3.02e+01	0	41	104	7340032	60	103313
2026-01-23 17:26:53.42	280.01	43.16	-50.8	-68.6	3.5	3.02e+01	0	41	104	7340032	60	103553
2026-01-23 17:26:57.45	277.78	42.58	-50.8	-68.6	3.5	3.02e+01	0	41	104	7340032	60	103757
2026-01-23 17:27:01.49	275.63	41.97	-50.8	-68.6	3.5	3.02e+01	0	41	104	7340032	60	103482
2026-01-23 17:27:05.53	273.57	41.32	-50.8	-68.6	3.5	3.02e+01	0	41	104	7340032	60	103584
2026-01-23 17:27:09.57	271.58	40.65	-50.8	-68.6	3.5	3.02e+01	0	41	104	7340032	60	103459
2026-01-23 17:27:13.61	269.69	39.95	-50.8	-68.5	3.5	3.02e+01	0	41	104	7340032	60	102921
2026-01-23 17:27:17.65	267.87	39.23	-50.7	-68.6	3.5	3.02e+01	0	41	104	7340032	60	103338
2026-01-23 17:27:21.68	266.14	38.51	-50.8	-68.6	3.5	3.02e+01	0	41	104	7340032	60	104133
2026-01-23 17:27:25.72	264.48	37.77	-50.8	-68.6	3.5	3.02e+01	0	41	104	7340032	60	103221
2026-01-23 17:27:29.76	262.90	37.02	-50.8	-68.6	3.5	3.02e+01	0	41	104	7340032	60	103703
2026-01-23 17:27:33.80	261.40	36.26	-50.8	-68.6	3.5	3.02e+01	0	41	104	7340032	60	103743
2026-01-23 17:27:37.83	259.96	35.51	-50.8	-68.7	3.5	3.02e+01	0	41	104	7340032	60	104330
2026-01-23 17:27:41.87	258.59	34.75	-50.8	-68.6	3.5	3.02e+01	0	41	104	7340032	60	103773
2026-01-23 17:27:45.91	257.29	33.99	-50.8	-68.6	3.5	3.02e+01	0	41	104	7340032	60	104097
2026-01-23 17:27:49.95	256.04	33.24	-50.8	-68.6	3.5	3.02e+01	0	41	104	7340032	60	103841
2026-01-23 17:27:53.99	254.85	32.50	-50.8	-68.6	3.5	3.02e+01	0	42	104	7340032	60	103758
2026-01-23 17:27:58.03	253.72	31.76	-50.8	-68.6	3.5	3.02e+01	0	41	104	7340032	60	103466
2026-01-23 17:28:02.06	252.64	31.03	-50.8	-68.6	3.5	3.02e+01	0	41	104	7340032	60	103941
2026-01-23 17:28:06.10	251.61	30.30	-50.8	-68.6	3.5	3.02e+01	0	41	104	7340032	60	103638
2026-01-23 17:28:10.14	250.63	29.59	-50.8	-68.6	3.5	3.02e+01	0	41	104	7340032	60	103810
2026-01-23 17:28:14.18	249.69	28.88	-50.8	-68.6	3.5	3.02e+01	0	41	104	7340032	60	103477
2026-01-23 17:28:18.22	248.79	28.19	-50.8	-68.6	3.5	3.02e+01	0	41	104	7340032	60	103655
2026-01-23 17:28:22.25	247.93	27.51	-50.8	-68.7	3.5	3.02e+01	0	41	104	7340032	60	104183
2026-01-23 17:28:26.29	247.11	26.84	-50.8	-68.6	3.5	3.02e+01	0	42	104	7340032	60	103028
2026-01-23 17:28:30.32	246.33	26.18	-50.8	-68.6	3.5	3.02e+01	0	41	104	7340032	60	103911
2026-01-23 17:28:34.36	245.58	25.53	-50.8	-68.6	3.5	3.02e+01	0	42	104	7340032	60	103643
2026-01-23 17:28:38.40	244.85	24.90	-50.8	-68.6	3.5	3.02e+01	0	41	104	7340032	60	103866
2026-01-23 17:28:42.44	244.16	24.27	-50.8	-68.6	3.5	3.02e+01	0	42	104	7340032	60	103576
2026-01-23 17:28:46.47	243.50	23.66	-50.8	-68.6	3.5	3.02e+01	0	42	104	7340032	60	103782
2026-01-23 17:28:50.51	242.86	23.06	-50.8	-68.6	3.5	3.02e+01	0	42	104	7340032	60	103834
2026-01-23 17:28:54.55	242.25	22.47	-50.8	-68.6	3.5	3.02e+01	0	41	104	7340032	60	103991
2026-01-23 17:28:58.58	241.67	21.89	-50.8	-68.6	3.5	3.02e+01	0	41	104	7340032	60	103173
2026-01-23 17:29:02.63	241.10	21.32	-50.8	-68.6	3.5	3.02e+01	0	41	104	7340032	60	103843
2026-01-23 17:29:06.66	240.56	20.76	-50.8	-68.6	3.5	3.02e+01	0	41	104	7340032	60	103768
2026-01-23 17:29:10.70	240.04	20.22	-50.8	-68.6	3.5	3.02e+01	0	41	104	7340032	60	104139
2026-01-23 17:29:14.74	239.53	19.68	-50.8	-68.6	3.5	3.02e+01	0	41	104	7340032	60	103777
2026-01-23 17:29:18.77	239.05	19.16	-50.8	-68.6	3.5	3.02e+01	0	41	104	7340032	60	103316
2026-01-23 17:29:22.81	238.58	18.64	-50.8	-68.6	3.5	3.02e+01	0	41	104	7340032	60	104111
2026-01-23 17:29:26.85	238.13	18.14	-50.8	-68.6	3.5	3.02e+01	0	41	104	7340032	60	103943
2026-01-23 17:29:30.89	237.70	17.64	-50.7	-68.6	3.5	3.02e+01	0	41	104	7340032	60	103488
2026-01-23 17:29:34.92	237.28	17.15	-50.7	-68.6	3.5	3.02e+01	0	41	104	7340032	60	103450
2026-01-23 17:29:38.96	236.87	16.67	-50.7	-68.5	3.5	3.02e+01	0	41	104	7340032	60	102905
2026-01-23 17:29:43.00	236.48	16.20	-50.7	-68.6	3.5	3.02e+01	0	41	104	7340032	60	103406
2026-01-23 17:29:47.04	236.10	15.74	-50.7	-68.6	3.5	3.02e+01	0	41	104	7340032	60	103338
2026-01-23 17:29:51.08	235.74	15.29	-50.7	-68.6	3.5	3.02e+01	0	41	104	7340032	60	103469
2026-01-23 17:29:55.12	235.38	14.84	-50.7	-68.6	3.5	3.02e+01	0	41	104	7340032	60	103473
2026-01-23 17:29:59.16	235.04	14.41	-50.7	-68.6	3.5	3.02e+01	0	41	104	7340032	60	103631
2026-01-23 17:30:03.19	234.71	13.98	-50.7	-68.6	3.5	3.02e+01	0	41	104	7340032	60	103583
2026-01-23 17:30:07.23	234.39	13.56	-50.7	-68.6	3.5	3.02e+01	0	41	104	7340032	60	103911
2026-01-23 17:30:11.27	234.08	13.14	-50.7	-68.6	3.5	3.02e+01	0	41	104	7340032	60	103098
2026-01-23 17:30:15.30	233.77	12.73	-50.7	-68.6	3.5	3.02e+01	0	41	104	7340032	60	103531
2026-01-23 17:30:19.34	233.48	12.33	-50.7	-68.6	3.5	3.02e+01	0	41	104	7340032	60	103490
2026-01-23 17:30:23.38	233.20	11.94	-50.7	-68.6	3.5	3.02e+01	0	41	104	7340032	60	103407
2026-01-23 17:30:27.41	232.92	11.55	-50.7	-68.6	3.5	3.02e+01	0	41	104	7340032	60	103453
2026-01-23 17:30:31.45	232.65	11.17	-50.7	-68.6	3.5	3.02e+01	0	41	104	7340032	60	103321
2026-01-23 17:30:35.49	232.39	10.79	-50.7	-68.6	3.5	3.02e+01	0	41	104	7340032	60	103529
2026-01-23 17:30:39.53	232.14	10.42	-50.7	-68.6	3.5	3.02e+01	0	41	104	7340032	60	103480
2026-01-23 17:30:43.57	231.90	10.05	-50.7	-68.6	3.5	3.02e+01	0	41	104	7340032	60	103414
2026-01-23 17:30:47.61	231.66	9.69	-50.7	-68.6	3.5	3.02e+01	0	41	104	7340032	60	103720
2026-01-23 17:30:51.64	231.43	9.34	-50.7	-68.6	3.5	3.02e+01	0	41	104	7340032	60	103650
2026-01-23 17:30:55.68	231.20	8.99	-50.7	-68.5	3.5	3.02e+01	0	41	104	7340032	60	102951
2026-01-23 17:30:59.72	230.98	8.65	-50.7	-68.6	3.5	3.02e+01	0	41	104	7340032	60	103169
2026-01-23 17:31:03.76	230.76	8.31	-50.7	-68.6	3.5	3.02e+01	0	41	104	7340032	60	103663
2026-01-23 17:31:07.80	230.56	7.97	-50.7	-68.6	3.5	3.02e+01	0	41	104	7340032	60	103485
2026-01-23 17:31:11.83	230.35	7.64	-50.7	-68.6	3.5	3.02e+01	0	41	104	7340032	60	103385
2026-01-23 17:31:15.87	230.16	7.32	-50.7	-68.5	3.5	3.02e+01	0	41	104	7340032	60	102988
2026-01-23 17:31:19.90	229.96	7.00	-50.7	-68.6	3.5	3.02e+01	0	41	104	7340032	60	103325
2026-01-23 17:31:23.93	229.77	6.68	-50.7	-68.6	3.5	3.02e+01	0	41	104	7340032	60	103340
2026-01-23 17:31:27.97	229.59	6.37	-50.7	-68.5	3.5	3.02e+01	0	41	104	7340032	60	102793
2026-01-23 17:31:32.01	229.41	6.06	-50.7	-68.6	3.6	3.02e+01	0	41	104	7340032	60	103386
2026-01-23 17:31:36.05	229.24	5.75	-50.7	-68.6	3.5	3.02e+01	0	41	104	7340032	60	103682
2026-01-23 17:31:40.08	229.07	5.45	-50.7	-68.6	3.5	3.02e+01	0	41	104	7340032	60	104034
2026-01-23 17:31:44.12	228.90	5.15	-50.7	-68.6	3.5	3.02e+01	0	41	104	7340032	60	103346
2026-01-23 17:31:48.16	228.74	4.85	-50.7	-68.6	3.5	3.02e+01	0	41	104	7340032	60	103219
2026-01-23 17:31:52.20	228.58	4.56	-50.7	-68.6	3.5	3.02e+01	0	41	104	7340032	60	103163
2026-01-23 17:31:56.24	228.42	4.27	-50.7	-68.6	3.5	3.02e+01	0	41	104	7340032	60	103118
2026-01-23 17:32:00.28	228.27	3.99	-50.7	-68.6	3.5	3.02e+01	0	41	104	7340032	60	103452
2026-01-23 17:32:04.31	228.13	3.71	-50.7	-68.6	3.5	3.02e+01	0	41	104	7340032	60	103863
2026-01-23 17:32:08.35	227.98	3.43	-50.7	-68.6	3.5	3.02e+01	0	41	104	7340032	60	103667
2026-01-23 17:32:12.38	227.84	3.15	-50.7	-68.6	3.5	3.02e+01	0	41	104	7340032	60	103173
2026-01-23 17:32:16.43	227.70	2.88	-51.0	-68.8	3.5	3.02e+01	0	41	104	7340032	60	106607
2026-01-23 17:32:20.46	227.57	2.61	-51.0	-69.1	3.5	3.02e+01	0	41	104	7340032	60	109776
2026-01-23 17:32:24.51	227.43	2.34	-51.4	-69.2	3.5	3.02e+01	0	41	104	7340032	60	111239
2026-01-23 17:32:28.55	227.30	2.07	-51.1	-69.1	3.5	3.02e+01	0	41	104	7340032	60	109260
2026-01-23 17:32:32.59	227.18	1.81	-51.3	-69.0	3.5	3.02e+01	0	41	104	7340032	60	108980
2026-01-23 17:32:36.63	227.05	1.55	-51.2	-69.0	3.5	3.02e+01	0	41	104	7340032	60	108379
2026-01-23 17:32:40.67	226.93	1.29	-51.2	-69.0	3.5	3.02e+01	0	41	104	7340032	60	108597
2026-01-23 17:32:44.71	226.81	1.04	-51.2	-69.0	3.5	3.02e+01	0	41	104	7340032	60	108669
2026-01-23 17:32:48.75	226.69	0.79	-51.2	-69.0	3.5	3.02e+01	0	41	104	7340032	60	108572
2026-01-23 17:32:52.79	226.58	0.53	-51.2	-69.0	3.5	3.02e+01	0	41	104	7340032	60	108763
2026-01-23 17:32:56.83	226.47	0.29	-51.2	-69.0	3.5	3.02e+01	0	41	104	7340032	60	108801
2026-01-23 17:33:00.86	226.36	0.04	-51.2	-69.0	3.5	3.02e+01	0	41	104	7340032	60	108046

#Closed at: 2026-01-23 17:33:04
#Recorded file [7 MB]: D:/lorett/data/35029_260124_051929.dat