passes_logs/2026/01/23/R4.6S_Anadyr/R4.6S_Anadyr__20260123_155529_NOAA_20_JPSS-1_rec.log

#Pass ID: 20260123_155529_NOAA 20 (JPSS-1)
#Satellite: NOAA 20 (JPSS-1)
#Configuration: NOAA 20
#almurnet v.1.7.20251203
#Start time: 2026-01-23 15:55:30

#Version: 2.2.20231116
#Station: R4.6S_Anadyr
#Location: 177.4865 lon 64.73178 lat
#TLE: 1 43013U 17073A   26022.44900781  .00000193  00000+0  11233-3 0  9999
#TLE: 2 43013  98.7645 323.3100 0001197  28.8413 331.2829 14.19538802423792

#Time	Az	El	Level	Level2	SNR	BER	BlckErr	Temp	State	Recorded	gain1	gain2
2026-01-23 15:55:30.75	23.93	0.05	-50.7	-65.6	3.5	1.51e+00	0	38	0	0	60	69009
2026-01-23 15:55:34.79	23.82	0.29	-50.8	-66.0	3.6	1.51e+00	0	40	104	0	60	72385
2026-01-23 15:55:38.83	23.71	0.53	-50.8	-66.0	3.6	1.51e+00	0	40	104	0	60	72484
2026-01-23 15:55:42.87	23.59	0.77	-50.7	-66.0	3.6	1.51e+00	0	40	104	0	60	71790
2026-01-23 15:55:46.91	23.47	1.01	-50.5	-65.8	3.6	1.51e+00	0	40	104	0	60	70253
2026-01-23 15:55:50.96	23.35	1.25	-50.1	-65.3	3.6	1.51e+00	0	40	104	0	60	66793
2026-01-23 15:55:55.00	23.23	1.50	-49.4	-64.5	3.6	1.51e+00	0	40	104	0	60	60579
2026-01-23 15:55:59.03	23.11	1.74	-49.3	-64.5	3.6	1.51e+00	0	40	104	0	60	60462
2026-01-23 15:56:03.07	22.98	1.99	-49.3	-64.0	3.6	1.51e+00	0	40	104	0	60	57446
2026-01-23 15:56:07.11	22.85	2.25	-49.3	-64.5	3.6	1.51e+00	0	40	104	0	60	60505
2026-01-23 15:56:11.15	22.72	2.50	-49.3	-64.3	3.6	1.51e+00	0	40	104	0	60	59521
2026-01-23 15:56:15.19	22.58	2.76	-49.3	-63.7	3.6	1.51e+00	0	40	104	0	60	55211
2026-01-23 15:56:19.23	22.44	3.01	-49.3	-63.6	3.6	1.51e+00	0	40	104	0	60	54900
2026-01-23 15:56:23.27	22.30	3.27	-49.2	-61.8	3.8	1.50e+00	0	40	104	0	60	44470
2026-01-23 15:56:27.31	22.16	3.54	-48.5	-55.1	7.6	1.47e-01	0	40	0	6291456	60	20522
2026-01-23 15:56:31.35	22.01	3.80	-49.3	-62.6	3.6	1.51e+00	0	40	104	8388608	60	48677
2026-01-23 15:56:35.39	21.87	4.07	-45.2	-47.6	15.8	0.00e+00	0	40	0	12582912	60	8674
2026-01-23 15:56:39.42	21.71	4.34	-44.6	-46.6	17.2	0.00e+00	0	40	0	19922944	60	7769
2026-01-23 15:56:43.46	21.56	4.61	-44.5	-46.5	16.7	0.00e+00	0	40	0	28311552	60	7660
2026-01-23 15:56:47.50	21.40	4.88	-43.0	-44.5	19.3	0.00e+00	0	40	0	35651584	60	6075
2026-01-23 15:56:51.53	21.24	5.16	-42.8	-44.2	19.8	0.00e+00	0	40	0	42991616	58	6601
2026-01-23 15:56:55.57	21.07	5.44	-42.8	-44.3	19.3	0.00e+00	0	40	0	50331648	58	6665
2026-01-23 15:56:59.61	20.90	5.72	-42.8	-44.3	19.6	0.00e+00	0	40	0	57671680	58	6637
2026-01-23 15:57:03.64	20.73	6.01	-41.6	-42.9	21.1	0.00e+00	0	40	0	66060288	56	6318
2026-01-23 15:57:07.68	20.56	6.30	-41.5	-42.7	21.2	0.00e+00	0	40	0	73400320	56	6216
2026-01-23 15:57:11.73	20.38	6.59	-42.1	-43.4	20.6	0.00e+00	0	40	0	80740352	56	6719
2026-01-23 15:57:15.77	20.19	6.88	-42.2	-43.5	20.3	0.00e+00	0	40	0	88080384	56	6837
2026-01-23 15:57:19.81	20.00	7.18	-42.0	-43.3	20.8	0.00e+00	0	41	0	96468992	56	6623
2026-01-23 15:57:23.85	19.81	7.48	-41.6	-42.7	21.4	0.00e+00	0	40	0	103809024	56	6237
2026-01-23 15:57:27.88	19.61	7.78	-41.4	-42.6	21.4	0.00e+00	0	40	0	111149056	56	6117
2026-01-23 15:57:31.92	19.41	8.09	-41.6	-42.8	21.3	0.00e+00	0	41	0	118489088	56	6276
2026-01-23 15:57:35.96	19.21	8.40	-41.3	-42.5	21.6	0.00e+00	0	40	0	125829120	56	6041
2026-01-23 15:57:40.00	19.00	8.72	-41.1	-42.2	21.8	0.00e+00	0	41	0	134217728	56	5895
2026-01-23 15:57:44.04	18.78	9.03	-41.0	-42.1	22.0	0.00e+00	0	41	0	141557760	56	5790
2026-01-23 15:57:48.08	18.56	9.35	-41.0	-42.1	22.0	0.00e+00	0	41	0	148897792	56	5774
2026-01-23 15:57:52.12	18.33	9.68	-41.0	-42.1	22.1	0.00e+00	0	41	0	156237824	56	5808
2026-01-23 15:57:56.16	18.10	10.01	-40.8	-41.9	22.3	0.00e+00	0	41	0	164626432	56	5649
2026-01-23 15:58:00.19	17.87	10.34	-41.0	-42.1	22.1	0.00e+00	0	41	0	171966464	54	6493
2026-01-23 15:58:04.23	17.62	10.68	-40.8	-41.9	22.1	0.00e+00	0	40	0	179306496	54	6348
2026-01-23 15:58:08.27	17.37	11.02	-40.8	-41.8	22.4	0.00e+00	0	41	0	186646528	54	6300
2026-01-23 15:58:12.31	17.12	11.36	-40.6	-41.6	22.5	0.00e+00	0	41	0	193986560	54	6170
2026-01-23 15:58:16.35	16.86	11.71	-40.6	-41.6	22.5	0.00e+00	0	41	0	202375168	54	6116
2026-01-23 15:58:20.39	16.59	12.07	-40.4	-41.4	22.8	0.00e+00	0	41	0	209715200	54	6025
2026-01-23 15:58:24.43	16.31	12.42	-40.3	-41.3	22.9	0.00e+00	0	41	0	217055232	54	5945
2026-01-23 15:58:28.47	16.03	12.79	-40.3	-41.3	22.9	0.00e+00	0	41	0	224395264	54	5910
2026-01-23 15:58:32.51	15.74	13.15	-40.1	-41.1	23.0	0.00e+00	0	41	0	232783872	54	5794
2026-01-23 15:58:36.55	15.44	13.53	-40.5	-41.5	22.6	0.00e+00	0	41	0	240123904	54	6093
2026-01-23 15:58:40.58	15.13	13.90	-40.2	-41.2	23.0	0.00e+00	0	41	0	247463936	54	5862
2026-01-23 15:58:44.62	14.82	14.28	-40.1	-41.0	23.2	0.00e+00	0	41	0	254803968	54	5752
2026-01-23 15:58:48.66	14.50	14.67	-40.3	-41.3	23.0	0.00e+00	0	41	0	262144000	54	5900
2026-01-23 15:58:52.70	14.16	15.07	-40.0	-41.0	23.3	0.00e+00	0	41	0	270532608	54	5722
2026-01-23 15:58:56.74	13.82	15.46	-40.4	-41.3	22.9	0.00e+00	0	41	0	277872640	54	5957
2026-01-23 15:59:00.78	13.47	15.87	-40.3	-41.3	23.0	0.00e+00	0	41	0	285212672	54	5902
2026-01-23 15:59:04.82	13.11	16.28	-40.6	-41.6	22.7	0.00e+00	0	41	0	292552704	54	6118
2026-01-23 15:59:08.86	12.74	16.69	-40.3	-41.3	23.0	0.00e+00	0	41	0	300941312	54	5916
2026-01-23 15:59:12.90	12.36	17.11	-40.2	-41.2	23.1	0.00e+00	0	41	0	308281344	54	5850
2026-01-23 15:59:16.94	11.96	17.54	-40.5	-41.5	22.9	0.00e+00	0	41	0	315621376	54	6046
2026-01-23 15:59:20.97	11.56	17.97	-40.7	-41.6	22.7	0.00e+00	0	41	0	322961408	54	6168
2026-01-23 15:59:25.01	11.14	18.41	-40.7	-41.7	22.8	0.00e+00	0	41	0	330301440	54	6228
2026-01-23 15:59:29.05	10.71	18.85	-40.7	-41.6	22.8	0.00e+00	0	41	0	338690048	54	6158
2026-01-23 15:59:33.08	10.27	19.31	-40.7	-41.6	22.8	0.00e+00	0	41	0	346030080	54	6163
2026-01-23 15:59:37.12	9.81	19.76	-40.5	-41.5	22.7	0.00e+00	0	41	0	353370112	54	6053
2026-01-23 15:59:41.16	9.34	20.23	-40.6	-41.6	22.9	0.00e+00	0	41	0	360710144	54	6151
2026-01-23 15:59:45.20	8.85	20.70	-40.7	-41.7	22.8	0.00e+00	0	41	0	369098752	54	6179
2026-01-23 15:59:49.24	8.35	21.18	-40.6	-41.6	23.0	0.00e+00	0	41	0	376438784	54	6127
2026-01-23 15:59:53.28	7.83	21.66	-40.6	-41.5	22.9	0.00e+00	0	41	0	383778816	54	6085
2026-01-23 15:59:57.31	7.29	22.15	-40.6	-41.6	22.8	0.00e+00	0	41	0	391118848	54	6149
2026-01-23 16:00:01.35	6.74	22.65	-40.6	-41.6	22.9	0.00e+00	0	41	0	398458880	54	6148
2026-01-23 16:00:05.39	6.17	23.15	-40.7	-41.7	22.9	0.00e+00	0	41	0	406847488	54	6177
2026-01-23 16:00:09.42	5.58	23.66	-40.7	-41.7	23.0	0.00e+00	0	41	0	414187520	54	6204
2026-01-23 16:00:13.46	4.96	24.18	-40.7	-41.7	22.9	0.00e+00	0	41	0	421527552	54	6206
2026-01-23 16:00:17.50	4.33	24.71	-40.9	-41.9	22.8	0.00e+00	0	41	0	428867584	54	6380
2026-01-23 16:00:21.54	3.68	25.24	-40.9	-41.9	22.6	0.00e+00	0	41	0	437256192	54	6348
2026-01-23 16:00:25.58	3.00	25.78	-40.9	-41.9	22.8	0.00e+00	0	41	0	444596224	54	6369
2026-01-23 16:00:29.62	2.30	26.32	-40.8	-41.8	22.8	0.00e+00	0	41	0	451936256	54	6267
2026-01-23 16:00:33.66	1.57	26.87	-41.0	-42.0	22.8	0.00e+00	0	41	0	459276288	54	6420
2026-01-23 16:00:37.70	0.81	27.43	-41.2	-42.2	22.4	0.00e+00	0	41	0	466616320	54	6581
2026-01-23 16:00:41.74	0.03	27.99	-41.1	-42.1	22.6	0.00e+00	0	41	0	475004928	54	6505
2026-01-23 16:00:45.78	359.22	28.55	-41.5	-42.6	22.2	0.00e+00	0	41	0	482344960	54	6888
2026-01-23 16:00:49.82	358.38	29.13	-42.1	-43.3	21.6	0.00e+00	0	41	0	489684992	56	6624
2026-01-23 16:00:53.86	357.51	29.70	-42.8	-44.0	20.9	0.00e+00	0	41	0	497025024	56	7215
2026-01-23 16:00:57.89	356.61	30.28	-43.7	-45.2	19.8	0.00e+00	0	41	0	505413632	58	7339
2026-01-23 16:01:01.93	355.68	30.87	-44.4	-46.0	19.0	0.00e+00	0	41	0	512753664	60	7229
2026-01-23 16:01:05.96	354.71	31.45	-44.5	-46.1	19.0	0.00e+00	0	41	0	520093696	60	7335
2026-01-23 16:01:10.00	353.70	32.04	-43.6	-45.0	20.0	0.00e+00	0	41	0	527433728	60	6450
2026-01-23 16:01:14.04	352.66	32.63	-44.2	-45.8	19.3	0.00e+00	0	41	0	534773760	60	7052
2026-01-23 16:01:18.07	351.58	33.22	-44.3	-45.8	19.3	0.00e+00	0	41	0	543162368	60	7071
2026-01-23 16:01:22.11	350.45	33.81	-43.8	-45.3	19.8	0.00e+00	0	41	0	550502400	60	6633
2026-01-23 16:01:26.14	349.29	34.40	-43.2	-44.5	20.6	0.00e+00	0	41	0	557842432	60	6090
2026-01-23 16:01:30.18	348.08	34.98	-42.2	-43.3	21.6	0.00e+00	0	41	0	565182464	58	5940
2026-01-23 16:01:34.22	346.82	35.56	-42.0	-43.1	21.8	0.00e+00	0	41	0	573571072	58	5827
2026-01-23 16:01:38.26	345.53	36.14	-41.8	-42.9	22.1	0.00e+00	0	41	0	580911104	56	6319
2026-01-23 16:01:42.30	344.18	36.70	-42.3	-43.5	21.5	0.00e+00	0	41	0	588251136	56	6785
2026-01-23 16:01:46.34	342.78	37.26	-42.1	-43.2	21.6	0.00e+00	0	41	0	595591168	56	6585
2026-01-23 16:01:50.38	341.34	37.81	-42.4	-43.6	21.4	0.00e+00	0	41	0	602931200	56	6898
2026-01-23 16:01:54.42	339.85	38.35	-42.5	-43.7	21.1	0.00e+00	0	41	0	611319808	56	6961
2026-01-23 16:01:58.45	338.31	38.86	-42.5	-43.7	21.2	0.00e+00	0	41	0	618659840	58	6239
2026-01-23 16:02:02.48	336.72	39.37	-42.0	-43.1	21.7	0.00e+00	0	41	0	625999872	58	5824
2026-01-23 16:02:06.52	335.08	39.85	-41.2	-42.2	22.6	0.00e+00	0	41	0	633339904	56	5883
2026-01-23 16:02:10.56	333.39	40.31	-40.7	-41.7	22.6	0.00e+00	0	41	0	640679936	54	6178
2026-01-23 16:02:14.60	331.66	40.75	-40.5	-41.5	23.3	0.00e+00	0	41	0	649068544	54	6051
2026-01-23 16:02:18.63	329.88	41.17	-40.5	-41.5	23.3	0.00e+00	0	41	0	656408576	54	6044
2026-01-23 16:02:22.67	328.05	41.55	-41.7	-42.8	22.1	0.00e+00	0	41	0	663748608	54	7062
2026-01-23 16:02:26.71	326.17	41.91	-40.5	-41.5	23.3	0.00e+00	0	41	0	671088640	54	6060
2026-01-23 16:02:30.75	324.26	42.23	-40.0	-40.9	23.7	0.00e+00	0	41	0	679477248	54	5679
2026-01-23 16:02:34.79	322.31	42.52	-40.3	-41.2	23.6	0.00e+00	0	41	0	686817280	54	5853
2026-01-23 16:02:38.82	320.33	42.78	-39.9	-40.7	23.9	0.00e+00	0	41	0	694157312	54	5559
2026-01-23 16:02:42.86	318.32	42.99	-40.0	-40.9	23.6	0.00e+00	0	41	0	701497344	54	5678
2026-01-23 16:02:46.90	316.28	43.17	-40.2	-41.1	23.5	0.00e+00	0	41	0	708837376	54	5823
2026-01-23 16:02:50.93	314.23	43.31	-40.3	-41.2	23.6	0.00e+00	0	41	0	717225984	54	5855
2026-01-23 16:02:54.97	312.15	43.40	-41.3	-42.4	22.6	0.00e+00	0	41	0	724566016	54	6711
2026-01-23 16:02:59.01	310.07	43.45	-41.2	-42.2	22.7	0.00e+00	0	41	0	731906048	54	6601
2026-01-23 16:03:03.04	307.99	43.46	-41.5	-42.5	22.5	0.00e+00	0	41	0	739246080	56	6089
2026-01-23 16:03:07.08	305.90	43.43	-42.4	-43.6	21.6	0.00e+00	0	41	0	747634688	56	6851
2026-01-23 16:03:11.12	303.82	43.36	-42.8	-44.0	21.0	0.00e+00	0	41	0	754974720	58	6426
2026-01-23 16:03:15.16	301.75	43.24	-42.9	-44.2	20.9	0.00e+00	0	41	0	762314752	58	6576
2026-01-23 16:03:19.20	299.71	43.08	-43.8	-45.2	20.0	0.00e+00	0	41	0	769654784	60	6566
2026-01-23 16:03:23.23	297.68	42.88	-44.3	-45.8	19.4	0.00e+00	0	41	0	776994816	60	7018
2026-01-23 16:03:27.27	295.68	42.65	-44.0	-45.5	19.6	0.00e+00	0	41	0	785383424	60	6815
2026-01-23 16:03:31.31	293.72	42.37	-43.7	-45.1	20.1	0.00e+00	0	41	0	792723456	60	6524
2026-01-23 16:03:35.35	291.78	42.06	-42.1	-43.2	21.9	0.00e+00	0	41	0	800063488	58	5838
2026-01-23 16:03:39.39	289.89	41.72	-41.7	-42.8	22.1	0.00e+00	0	41	0	807403520	58	5589
2026-01-23 16:03:43.42	288.04	41.35	-40.2	-41.1	23.7	0.00e+00	0	41	0	815792128	54	5824
2026-01-23 16:03:47.46	286.23	40.95	-40.2	-41.1	23.7	0.00e+00	0	41	0	823132160	54	5803
2026-01-23 16:03:51.50	284.47	40.52	-39.0	-39.8	24.8	0.00e+00	0	41	0	830472192	52	5624
2026-01-23 16:03:55.54	282.75	40.06	-39.0	-39.8	24.9	0.00e+00	0	41	0	837812224	50	6260
2026-01-23 16:03:59.57	281.09	39.59	-38.5	-39.3	25.2	0.00e+00	0	41	0	845152256	50	5906
2026-01-23 16:04:03.61	279.47	39.09	-38.9	-39.7	24.9	0.00e+00	0	41	0	853540864	50	6210
2026-01-23 16:04:07.65	277.91	38.58	-39.0	-39.9	24.8	0.00e+00	0	41	0	860880896	50	6323
2026-01-23 16:04:11.68	276.39	38.05	-39.2	-40.1	24.4	0.00e+00	0	41	0	868220928	50	6483
2026-01-23 16:04:15.72	274.92	37.51	-39.6	-40.5	24.2	0.00e+00	0	41	0	875560960	50	6809
2026-01-23 16:04:19.75	273.51	36.95	-39.8	-40.6	24.1	0.00e+00	0	41	0	882900992	52	6161
2026-01-23 16:04:23.80	272.13	36.39	-40.1	-41.0	23.7	0.00e+00	0	41	0	891289600	52	6453
2026-01-23 16:04:27.83	270.81	35.82	-40.5	-41.5	23.2	0.00e+00	0	41	0	898629632	52	6790
2026-01-23 16:04:31.87	269.53	35.24	-41.2	-42.3	22.6	0.00e+00	0	41	0	905969664	54	6626
2026-01-23 16:04:35.91	268.30	34.65	-41.3	-42.3	22.6	0.00e+00	0	42	0	913309696	54	6683
2026-01-23 16:04:39.94	267.11	34.06	-42.2	-43.3	21.7	0.00e+00	0	42	0	921698304	56	6636
2026-01-23 16:04:43.99	265.96	33.47	-42.9	-44.2	20.7	0.00e+00	0	42	0	929038336	58	6563
2026-01-23 16:04:48.03	264.86	32.88	-43.3	-44.6	20.5	0.00e+00	0	42	0	936378368	58	6877
2026-01-23 16:04:52.06	263.79	32.29	-43.7	-45.1	20.0	0.00e+00	0	42	0	943718400	58	7261
2026-01-23 16:04:56.10	262.77	31.70	-43.3	-44.5	20.6	0.00e+00	0	41	0	951058432	60	6097
2026-01-23 16:05:00.14	261.78	31.11	-43.6	-45.0	19.9	0.00e+00	0	41	0	959447040	60	6423
2026-01-23 16:05:04.18	260.82	30.52	-43.8	-45.2	20.1	0.00e+00	0	41	0	966787072	60	6582
2026-01-23 16:05:08.21	259.90	29.94	-42.6	-43.8	21.2	0.00e+00	0	42	0	974127104	58	6272
2026-01-23 16:05:12.25	259.02	29.36	-41.9	-43.0	21.9	0.00e+00	0	41	0	981467136	58	5753
2026-01-23 16:05:16.29	258.16	28.78	-41.5	-42.6	22.4	0.00e+00	0	41	0	989855744	56	6107
2026-01-23 16:05:20.33	257.33	28.21	-41.6	-42.7	22.2	0.00e+00	0	41	0	997195776	56	6193
2026-01-23 16:05:24.36	256.54	27.64	-41.7	-42.7	22.2	0.00e+00	0	41	0	1004535808	56	6230
2026-01-23 16:05:28.39	255.77	27.09	-41.2	-42.2	22.8	0.00e+00	0	41	0	1011875840	56	5848
2026-01-23 16:05:32.43	255.03	26.53	-41.5	-42.6	22.3	0.00e+00	0	41	0	1019215872	56	6130
2026-01-23 16:05:36.47	254.31	25.98	-41.8	-42.9	22.0	0.00e+00	0	41	0	1027604480	56	6367
2026-01-23 16:05:40.50	253.62	25.44	-41.5	-42.5	22.4	0.00e+00	0	41	0	1034944512	56	6074
2026-01-23 16:05:44.54	252.96	24.90	-41.7	-42.7	22.2	0.00e+00	0	41	0	1042284544	56	6241
2026-01-23 16:05:48.58	252.31	24.37	-42.1	-43.3	21.7	0.00e+00	0	41	0	1049624576	56	6621
2026-01-23 16:05:52.61	251.69	23.85	-42.1	-43.2	21.7	0.00e+00	0	41	0	1056964608	56	6596
2026-01-23 16:05:56.65	251.08	23.34	-41.8	-42.9	22.0	0.00e+00	0	41	0	1065353216	56	6322
2026-01-23 16:06:00.68	250.50	22.83	-41.7	-42.7	22.1	0.00e+00	0	41	0	1072693248	56	6231
2026-01-23 16:06:04.72	249.94	22.33	-41.8	-42.8	22.0	0.00e+00	0	41	0	1080033280	56	6311
2026-01-23 16:06:08.75	249.39	21.83	-41.9	-43.1	21.8	0.00e+00	0	41	0	1087373312	56	6467
2026-01-23 16:06:12.79	248.86	21.34	-41.9	-42.9	21.9	0.00e+00	0	41	0	1095761920	56	6390
2026-01-23 16:06:16.83	248.35	20.86	-41.8	-42.9	21.8	0.00e+00	0	41	0	1103101952	56	6328
2026-01-23 16:06:20.86	247.85	20.39	-41.6	-42.7	22.0	0.00e+00	0	41	0	1110441984	56	6226
2026-01-23 16:06:24.89	247.37	19.92	-41.6	-42.7	22.1	0.00e+00	0	41	0	1117782016	56	6230
2026-01-23 16:06:28.92	246.91	19.46	-41.8	-42.9	21.9	0.00e+00	0	41	0	1125122048	56	6382
2026-01-23 16:06:32.95	246.45	19.00	-42.0	-43.2	21.7	0.00e+00	0	41	0	1133510656	56	6565
2026-01-23 16:06:36.99	246.02	18.55	-41.7	-42.8	22.0	0.00e+00	0	41	0	1140850688	56	6288
2026-01-23 16:06:41.03	245.59	18.11	-41.6	-42.7	22.1	0.00e+00	0	41	0	1148190720	56	6193
2026-01-23 16:06:45.06	245.18	17.67	-41.3	-42.3	22.3	0.00e+00	0	41	0	1155530752	56	5948
2026-01-23 16:06:49.10	244.77	17.24	-41.5	-42.5	22.2	0.00e+00	0	41	0	1163919360	56	6084
2026-01-23 16:06:53.13	244.39	16.82	-41.7	-42.8	21.9	0.00e+00	0	41	0	1171259392	56	6283
2026-01-23 16:06:57.17	244.01	16.40	-42.1	-43.3	21.4	0.00e+00	0	41	0	1178599424	56	6620
2026-01-23 16:07:01.21	243.64	15.99	-41.8	-43.0	21.7	0.00e+00	0	41	0	1185939456	56	6401
2026-01-23 16:07:05.24	243.28	15.58	-42.0	-43.1	21.6	0.00e+00	0	41	0	1193279488	56	6509
2026-01-23 16:07:09.27	242.93	15.18	-41.9	-43.0	21.6	0.00e+00	0	41	0	1201668096	56	6443
2026-01-23 16:07:13.30	242.59	14.79	-42.1	-43.3	21.3	0.00e+00	0	41	0	1209008128	56	6622
2026-01-23 16:07:17.34	242.26	14.39	-42.4	-43.6	21.1	0.00e+00	0	41	0	1216348160	56	6909
2026-01-23 16:07:21.38	241.94	14.01	-42.6	-43.9	20.7	0.00e+00	0	41	0	1223688192	56	7113
2026-01-23 16:07:25.41	241.63	13.63	-42.8	-44.1	20.4	0.00e+00	0	41	0	1232076800	58	6512
2026-01-23 16:07:29.45	241.33	13.25	-43.0	-44.4	20.1	0.00e+00	0	41	0	1239416832	58	6734
2026-01-23 16:07:33.49	241.03	12.88	-43.2	-44.7	19.8	0.00e+00	0	41	0	1246756864	58	6948
2026-01-23 16:07:37.52	240.74	12.52	-43.7	-45.3	19.1	0.00e+00	0	41	0	1254096896	60	6646
2026-01-23 16:07:41.56	240.46	12.16	-44.1	-45.8	18.7	0.00e+00	0	41	0	1261436928	60	7063
2026-01-23 16:07:45.60	240.19	11.80	-44.4	-46.1	18.3	0.00e+00	0	41	0	1269825536	60	7315
2026-01-23 16:07:49.63	239.92	11.45	-44.5	-46.3	18.0	0.00e+00	0	41	0	1277165568	60	7508
2026-01-23 16:07:53.66	239.66	11.10	-44.7	-46.6	17.6	0.00e+00	0	41	0	1284505600	60	7757
2026-01-23 16:07:57.70	239.40	10.76	-45.0	-47.1	17.2	0.00e+00	0	41	0	1291845632	60	8170
2026-01-23 16:08:01.73	239.15	10.42	-45.4	-47.5	16.8	0.00e+00	0	41	0	1299185664	60	8620
2026-01-23 16:08:05.77	238.91	10.08	-45.9	-48.3	15.9	0.00e+00	0	41	0	1307574272	60	9447
2026-01-23 16:08:09.81	238.67	9.75	-46.3	-49.1	15.2	0.00e+00	0	41	0	1314914304	60	10274
2026-01-23 16:08:13.85	238.44	9.42	-46.7	-49.8	14.3	7.00e-07	0	41	0	1322254336	60	11165
2026-01-23 16:08:17.89	238.22	9.10	-47.1	-50.5	13.5	1.14e-05	0	41	0	1329594368	60	12137
2026-01-23 16:08:21.92	238.00	8.78	-47.4	-51.2	12.9	6.02e-05	0	41	0	1337982976	60	13069
2026-01-23 16:08:25.96	237.78	8.46	-47.7	-51.8	12.1	2.92e-04	0	41	0	1345323008	60	14119
2026-01-23 16:08:30.00	237.57	8.15	-48.0	-52.5	11.4	1.15e-03	0	41	0	1352663040	60	15255
2026-01-23 16:08:34.03	237.36	7.84	-48.2	-53.1	10.5	2.85e-03	0	41	0	1360003072	60	16319
2026-01-23 16:08:38.06	237.16	7.54	-48.4	-53.7	9.8	1.14e-02	0	41	0	1367343104	60	17571
2026-01-23 16:08:42.10	236.96	7.24	-48.6	-54.4	8.9	2.50e-02	0	41	0	1375731712	60	18967
2026-01-23 16:08:46.14	236.77	6.94	-48.8	-55.4	7.7	7.08e-02	0	41	0	1383071744	60	21206
2026-01-23 16:08:50.17	236.58	6.64	-49.0	-56.3	6.5	1.83e-01	0	41	0	1390411776	60	23546
2026-01-23 16:08:54.21	236.40	6.35	-49.1	-57.1	5.6	3.75e-01	0	41	0	1397751808	60	25965
2026-01-23 16:08:58.25	236.22	6.06	-49.1	-57.7	5.0	5.92e-01	0	41	0	1405091840	60	27759
2026-01-23 16:09:02.29	236.04	5.77	-49.1	-58.6	4.3	8.74e-01	0	41	0	1413480448	60	30820
2026-01-23 16:09:06.32	235.86	5.49	-49.1	-61.0	3.7	1.34e+00	0	41	104	1418723328	60	40411
2026-01-23 16:09:10.36	235.69	5.20	-49.1	-61.4	3.9	1.45e+00	0	41	104	1418723328	60	42696
2026-01-23 16:09:14.40	235.53	4.92	-49.1	-62.3	3.6	1.51e+00	0	41	104	1418723328	60	46848
2026-01-23 16:09:18.44	235.36	4.65	-49.1	-62.4	3.7	1.50e+00	0	41	104	1418723328	60	47598
2026-01-23 16:09:22.48	235.20	4.37	-48.6	-63.5	3.6	1.51e+00	0	41	104	1418723328	60	54040
2026-01-23 16:09:26.51	235.05	4.10	-48.9	-63.4	3.6	1.51e+00	0	41	104	1418723328	60	53510
2026-01-23 16:09:30.55	234.89	3.83	-48.5	-63.5	3.6	1.51e+00	0	41	104	1418723328	60	54182
2026-01-23 16:09:34.59	234.74	3.57	-48.4	-63.5	3.6	1.51e+00	0	41	104	1418723328	60	54199
2026-01-23 16:09:38.63	234.60	3.30	-48.3	-63.4	3.5	1.51e+00	0	41	104	1418723328	60	53764
2026-01-23 16:09:42.66	234.45	3.04	-48.2	-63.3	3.6	1.51e+00	0	41	104	1418723328	60	52909
2026-01-23 16:09:46.70	234.31	2.78	-50.5	-65.7	3.6	1.51e+00	0	41	104	1418723328	60	69459
2026-01-23 16:09:50.74	234.17	2.53	-50.8	-66.0	3.6	1.51e+00	0	41	104	1418723328	60	72450
2026-01-23 16:09:54.78	234.03	2.27	-50.9	-66.1	3.6	1.51e+00	0	41	104	1418723328	60	73008
2026-01-23 16:09:58.82	233.90	2.02	-50.9	-66.1	3.6	1.51e+00	0	41	104	1418723328	60	72931
2026-01-23 16:10:02.86	233.76	1.77	-50.6	-66.0	3.6	1.51e+00	0	41	104	1418723328	60	72256
2026-01-23 16:10:06.90	233.63	1.52	-50.6	-66.1	3.6	1.51e+00	0	41	104	1418723328	60	72546
2026-01-23 16:10:10.94	233.51	1.27	-50.8	-66.0	3.6	1.51e+00	0	41	104	1418723328	60	72273
2026-01-23 16:10:14.98	233.38	1.03	-50.8	-66.0	3.6	1.51e+00	0	41	104	1418723328	60	72348
2026-01-23 16:10:19.02	233.26	0.78	-50.8	-66.0	3.6	1.51e+00	0	41	104	1418723328	60	72350
2026-01-23 16:10:23.06	233.14	0.54	-50.8	-66.1	3.6	1.51e+00	0	41	104	1418723328	60	72698
2026-01-23 16:10:27.10	233.02	0.30	-50.8	-66.0	3.6	1.51e+00	0	41	104	1418723328	60	72287
2026-01-23 16:10:31.14	232.90	0.07	-50.8	-66.0	3.6	1.51e+00	0	41	104	1418723328	60	72410

#Closed at: 2026-01-23 16:10:33
#Recorded file [1418 MB]: D:/lorett/data/35029_260124_035530.dat