passes_logs/2026/01/23/R4.6S_Anadyr/R4.6S_Anadyr__20260123_181245_FENGYUN_3D_rec.log

#Pass ID: 20260123_181245_FENGYUN 3D
#Satellite: FENGYUN 3D
#Configuration: FENGYUN 3D
#almurnet v.1.7.20251203
#Start time: 2026-01-23 18:12:47

#Version: 2.2.20231116
#Station: R4.6S_Anadyr
#Location: 177.4865 lon 64.73178 lat
#TLE: 1 43010U 17072A   26022.47411728  .00000617  00000+0  31375-3 0  9996
#TLE: 2 43010  98.9952 354.4060 0002481  95.7964 264.3494 14.19699924424319

#Time	Az	El	Level	Level2	SNR	BER	BlckErr	Temp	State	Recorded	gain1	gain2
2026-01-23 18:12:47.92	25.22	0.13	-49.2	-64.1	3.6	1.51e+00	0	39	0	0	60	57846
2026-01-23 18:12:51.96	25.09	0.37	-50.2	-62.3	3.6	8.45e-01	0	40	104	0	60	47259
2026-01-23 18:12:56.00	24.96	0.60	-50.5	-62.6	3.6	8.46e-01	0	40	104	0	60	48881
2026-01-23 18:13:00.03	24.83	0.84	-50.6	-62.8	3.6	8.45e-01	0	40	104	0	60	49650
2026-01-23 18:13:04.08	24.69	1.08	-50.6	-62.8	3.6	8.45e-01	0	40	104	0	60	49742
2026-01-23 18:13:08.12	24.55	1.33	-50.7	-62.9	3.6	8.45e-01	0	40	104	0	60	50201
2026-01-23 18:13:12.16	24.41	1.57	-50.6	-62.9	3.6	8.46e-01	0	40	104	0	60	50276
2026-01-23 18:13:16.20	24.26	1.82	-50.6	-62.9	3.6	8.45e-01	0	40	104	0	60	50220
2026-01-23 18:13:20.24	24.12	2.06	-50.5	-62.8	3.6	8.46e-01	0	40	104	0	60	50045
2026-01-23 18:13:24.28	23.97	2.31	-50.5	-62.8	3.6	8.46e-01	0	40	104	0	60	49907
2026-01-23 18:13:28.33	23.81	2.57	-50.5	-62.9	3.6	8.45e-01	0	40	104	0	60	50217
2026-01-23 18:13:32.37	23.66	2.82	-50.5	-62.8	3.6	8.46e-01	0	41	104	0	60	50079
2026-01-23 18:13:36.41	23.50	3.08	-50.5	-62.8	3.6	8.45e-01	0	40	104	0	60	49669
2026-01-23 18:13:40.45	23.34	3.33	-50.5	-62.8	3.6	8.45e-01	0	41	104	0	60	49967
2026-01-23 18:13:44.49	23.17	3.60	-50.5	-62.7	3.6	8.45e-01	0	41	104	0	60	49570
2026-01-23 18:13:48.53	23.00	3.86	-50.5	-62.8	3.6	8.45e-01	0	41	104	0	60	49812
2026-01-23 18:13:52.57	22.83	4.12	-50.5	-62.8	3.6	8.45e-01	0	41	104	0	60	50019
2026-01-23 18:13:56.61	22.66	4.39	-50.5	-62.8	3.6	8.45e-01	0	41	104	0	60	49734
2026-01-23 18:14:00.65	22.48	4.66	-50.5	-62.8	3.6	8.45e-01	0	41	104	0	60	49845
2026-01-23 18:14:04.69	22.29	4.93	-50.5	-62.8	3.6	8.45e-01	0	41	104	0	60	49767
2026-01-23 18:14:08.73	22.11	5.21	-50.5	-62.8	3.6	8.45e-01	0	41	104	0	60	49918
2026-01-23 18:14:12.77	21.92	5.48	-50.5	-62.8	3.6	8.45e-01	0	41	104	0	60	49710
2026-01-23 18:14:16.81	21.72	5.76	-50.5	-62.8	3.6	8.44e-01	0	41	104	0	60	49977
2026-01-23 18:14:20.84	21.53	6.05	-50.5	-62.8	3.6	8.45e-01	0	41	104	0	60	49749
2026-01-23 18:14:24.89	21.32	6.33	-50.5	-62.7	3.6	8.46e-01	0	41	104	0	60	49584
2026-01-23 18:14:28.93	21.12	6.62	-50.5	-62.7	3.6	8.45e-01	0	41	104	0	60	49571
2026-01-23 18:14:32.97	20.91	6.91	-50.5	-62.8	3.6	8.44e-01	0	41	104	0	60	49695
2026-01-23 18:14:37.01	20.69	7.20	-50.5	-62.8	3.6	8.45e-01	0	41	104	0	60	49862
2026-01-23 18:14:41.05	20.47	7.50	-50.5	-62.8	3.6	8.46e-01	0	41	104	0	60	49809
2026-01-23 18:14:45.09	20.24	7.80	-50.5	-62.8	3.6	8.45e-01	0	41	104	0	60	49847
2026-01-23 18:14:49.13	20.01	8.10	-50.5	-62.8	3.6	8.45e-01	0	41	104	0	60	49705
2026-01-23 18:14:53.17	19.78	8.41	-50.5	-62.8	3.6	8.45e-01	0	41	104	0	60	49786
2026-01-23 18:14:57.22	19.54	8.72	-50.5	-62.8	3.6	8.46e-01	0	41	104	0	60	49799
2026-01-23 18:15:01.26	19.29	9.03	-50.5	-62.8	3.6	8.45e-01	0	41	104	0	60	50076
2026-01-23 18:15:05.30	19.04	9.35	-50.5	-62.8	3.6	8.46e-01	0	41	104	0	60	49816
2026-01-23 18:15:09.34	18.78	9.67	-50.5	-62.7	3.6	8.46e-01	0	41	104	0	60	49441
2026-01-23 18:15:13.38	18.51	9.99	-50.5	-62.8	3.6	8.46e-01	0	41	104	0	60	49816
2026-01-23 18:15:17.43	18.24	10.32	-50.5	-62.7	3.6	8.46e-01	0	41	104	0	60	49376
2026-01-23 18:15:21.47	17.97	10.65	-50.5	-62.8	3.6	8.45e-01	0	41	104	0	60	49665
2026-01-23 18:15:25.50	17.68	10.98	-50.5	-62.7	3.6	8.45e-01	0	41	104	0	60	49572
2026-01-23 18:15:29.54	17.39	11.32	-50.5	-62.8	3.6	8.46e-01	0	41	104	0	60	49650
2026-01-23 18:15:33.59	17.09	11.67	-50.5	-62.7	3.6	8.45e-01	0	41	104	0	60	49445
2026-01-23 18:15:37.63	16.79	12.01	-50.5	-62.7	3.6	8.44e-01	0	41	104	0	60	49529
2026-01-23 18:15:41.67	16.47	12.36	-50.5	-62.7	3.6	8.46e-01	0	41	104	0	60	49181
2026-01-23 18:15:45.70	16.15	12.72	-50.4	-62.7	3.6	8.45e-01	0	41	104	0	60	49505
2026-01-23 18:15:49.75	15.82	13.08	-50.4	-62.7	3.6	8.44e-01	0	41	104	0	60	49437
2026-01-23 18:15:53.79	15.49	13.44	-50.4	-62.7	3.6	8.45e-01	0	41	104	0	60	49250
2026-01-23 18:15:57.83	15.14	13.81	-50.4	-62.7	3.6	8.46e-01	0	42	104	0	60	49346
2026-01-23 18:16:01.87	14.78	14.18	-50.4	-62.8	3.6	8.44e-01	0	41	104	0	60	49642
2026-01-23 18:16:05.91	14.42	14.56	-50.4	-62.7	3.6	8.46e-01	0	41	104	0	60	49390
2026-01-23 18:16:09.94	14.04	14.94	-50.4	-62.7	3.6	8.46e-01	0	41	104	0	60	49307
2026-01-23 18:16:13.98	13.66	15.32	-50.4	-62.7	3.5	8.45e-01	0	41	104	0	60	49069
2026-01-23 18:16:18.02	13.26	15.71	-50.4	-62.7	3.6	8.45e-01	0	41	104	0	60	49126
2026-01-23 18:16:22.06	12.86	16.11	-50.4	-62.6	3.6	8.45e-01	0	41	104	0	60	48906
2026-01-23 18:16:26.10	12.44	16.51	-50.4	-62.6	3.6	8.45e-01	0	42	104	0	60	49007
2026-01-23 18:16:30.14	12.01	16.91	-50.4	-62.7	3.6	8.45e-01	0	41	104	0	60	49156
2026-01-23 18:16:34.19	11.56	17.33	-50.3	-62.6	3.6	8.46e-01	0	41	104	0	60	48965
2026-01-23 18:16:38.23	11.11	17.74	-50.3	-62.7	3.6	8.44e-01	0	41	104	0	60	49092
2026-01-23 18:16:42.27	10.64	18.16	-50.3	-62.6	3.6	8.46e-01	0	42	104	0	60	48757
2026-01-23 18:16:46.31	10.16	18.59	-50.3	-62.6	3.6	8.43e-01	0	42	104	0	60	48854
2026-01-23 18:16:50.35	9.66	19.02	-50.3	-62.6	3.6	8.45e-01	0	41	104	0	60	48632
2026-01-23 18:16:54.39	9.15	19.46	-50.3	-62.6	3.6	8.46e-01	0	41	104	0	60	48921
2026-01-23 18:16:58.43	8.63	19.90	-50.3	-62.6	3.6	8.45e-01	0	42	104	0	60	48483
2026-01-23 18:17:02.47	8.09	20.35	-50.3	-62.6	3.6	8.45e-01	0	42	104	0	60	48734
2026-01-23 18:17:06.51	7.53	20.80	-50.3	-62.6	3.6	8.46e-01	0	41	104	0	60	48760
2026-01-23 18:17:10.55	6.95	21.26	-50.3	-62.6	3.6	8.44e-01	0	42	104	0	60	48536
2026-01-23 18:17:14.59	6.36	21.72	-50.3	-62.6	3.6	8.46e-01	0	42	104	0	60	48591
2026-01-23 18:17:18.63	5.75	22.19	-50.3	-62.6	3.6	8.45e-01	0	42	104	0	60	48846
2026-01-23 18:17:22.67	5.11	22.66	-50.3	-62.6	3.6	8.45e-01	0	42	104	0	60	48537
2026-01-23 18:17:26.71	4.46	23.14	-50.3	-62.6	3.6	8.46e-01	0	42	104	0	60	48754
2026-01-23 18:17:30.75	3.79	23.62	-50.3	-62.7	3.6	8.44e-01	0	42	104	0	60	49129
2026-01-23 18:17:34.79	3.10	24.11	-50.3	-62.6	3.6	8.45e-01	0	42	104	0	60	48913
2026-01-23 18:17:38.83	2.38	24.60	-50.3	-62.6	3.6	8.45e-01	0	41	104	0	60	48642
2026-01-23 18:17:42.86	1.64	25.10	-50.3	-62.6	3.6	8.45e-01	0	42	104	0	60	48732
2026-01-23 18:17:46.90	0.88	25.60	-50.3	-62.6	3.6	8.46e-01	0	41	104	0	60	48564
2026-01-23 18:17:50.94	0.09	26.10	-50.3	-62.4	3.6	8.45e-01	0	42	104	0	60	47609
2026-01-23 18:17:54.99	359.28	26.61	-50.3	-62.5	3.6	8.45e-01	0	42	104	0	60	48445
2026-01-23 18:17:59.03	358.43	27.12	-50.3	-62.4	3.6	8.45e-01	0	42	104	0	60	47912
2026-01-23 18:18:03.07	357.57	27.64	-50.3	-62.6	3.6	8.45e-01	0	41	104	0	60	48541
2026-01-23 18:18:07.10	356.67	28.15	-50.3	-62.6	3.6	8.45e-01	0	42	104	0	60	48810
2026-01-23 18:18:11.14	355.74	28.66	-50.3	-62.6	3.6	8.46e-01	0	42	104	0	60	48734
2026-01-23 18:18:15.18	354.78	29.18	-50.3	-62.2	3.6	8.45e-01	0	42	104	0	60	46759
2026-01-23 18:18:19.22	353.79	29.70	-50.4	-62.6	3.6	8.45e-01	0	42	104	0	60	48841
2026-01-23 18:18:23.26	352.77	30.22	-50.3	-62.3	3.6	8.44e-01	0	42	104	0	60	47370
2026-01-23 18:18:27.29	351.72	30.73	-50.2	-61.1	3.6	8.44e-01	0	42	104	0	60	40987
2026-01-23 18:18:31.33	350.63	31.24	-50.2	-60.6	3.6	8.45e-01	0	42	104	0	60	38555
2026-01-23 18:18:35.37	349.50	31.75	-50.4	-62.4	3.6	8.45e-01	0	42	104	0	60	47585
2026-01-23 18:18:39.41	348.34	32.26	-50.4	-62.4	3.6	8.45e-01	0	42	104	0	60	47510
2026-01-23 18:18:43.45	347.14	32.76	-50.4	-62.6	3.6	8.45e-01	0	41	104	0	60	48968
2026-01-23 18:18:47.49	345.90	33.25	-50.4	-62.7	3.6	8.46e-01	0	41	104	0	60	49215
2026-01-23 18:18:51.54	344.62	33.74	-50.4	-62.6	3.6	8.46e-01	0	41	104	0	60	48965
2026-01-23 18:18:55.57	343.31	34.21	-50.4	-62.5	3.6	8.45e-01	0	41	104	0	60	48433
2026-01-23 18:18:59.61	341.95	34.68	-50.4	-62.7	3.6	8.46e-01	0	41	104	0	60	49148
2026-01-23 18:19:03.65	340.56	35.13	-50.4	-62.6	3.6	8.46e-01	0	41	104	0	60	49035
2026-01-23 18:19:07.69	339.13	35.57	-50.4	-62.6	3.6	8.46e-01	0	41	104	0	60	48834
2026-01-23 18:19:11.73	337.66	36.00	-50.4	-62.5	3.6	8.45e-01	0	41	104	0	60	48448
2026-01-23 18:19:15.77	336.15	36.41	-50.4	-62.6	3.6	8.45e-01	0	41	104	0	60	48659
2026-01-23 18:19:19.82	334.60	36.80	-50.4	-62.6	3.6	8.46e-01	0	41	104	0	60	48653
2026-01-23 18:19:23.86	333.02	37.17	-50.4	-62.5	3.6	8.44e-01	0	41	104	0	60	48384
2026-01-23 18:19:27.90	331.40	37.52	-50.4	-62.6	3.6	8.45e-01	0	41	104	0	60	48990
2026-01-23 18:19:31.94	329.74	37.84	-50.4	-62.7	3.6	8.46e-01	0	41	104	0	60	49191
2026-01-23 18:19:35.97	328.06	38.14	-50.4	-62.5	3.6	8.47e-01	0	41	104	0	60	48196
2026-01-23 18:19:40.01	326.34	38.42	-50.4	-62.6	3.6	8.45e-01	0	41	104	0	60	48628
2026-01-23 18:19:44.05	324.60	38.66	-50.4	-62.7	3.6	8.46e-01	0	41	104	0	60	49132
2026-01-23 18:19:48.09	322.83	38.88	-50.4	-62.7	3.6	8.47e-01	0	41	104	0	60	49062
2026-01-23 18:19:52.13	321.04	39.07	-50.4	-62.7	3.6	8.45e-01	0	41	104	0	60	49349
2026-01-23 18:19:56.16	319.23	39.22	-50.4	-62.7	3.6	8.46e-01	0	41	104	0	60	49396
2026-01-23 18:20:00.20	317.41	39.35	-50.4	-62.7	3.6	8.45e-01	0	41	104	0	60	49188
2026-01-23 18:20:04.24	315.57	39.44	-50.4	-62.6	3.6	8.44e-01	0	41	104	0	60	48999
2026-01-23 18:20:08.29	313.71	39.49	-50.4	-62.7	3.6	8.46e-01	0	41	104	0	60	49176
2026-01-23 18:20:12.33	311.86	39.52	-50.4	-62.7	3.6	8.45e-01	0	41	104	0	60	49357
2026-01-23 18:20:16.37	310.01	39.50	-50.4	-62.7	3.6	8.45e-01	0	41	104	0	60	49175
2026-01-23 18:20:20.41	308.16	39.46	-50.4	-62.7	3.6	8.46e-01	0	41	104	0	60	49201
2026-01-23 18:20:24.45	306.31	39.38	-50.4	-62.7	3.6	8.46e-01	0	41	104	0	60	49329
2026-01-23 18:20:28.49	304.48	39.27	-50.4	-62.7	3.6	8.47e-01	0	41	104	0	60	49445
2026-01-23 18:20:32.53	302.66	39.12	-50.4	-62.7	3.6	8.46e-01	0	41	104	0	60	49050
2026-01-23 18:20:36.57	300.86	38.95	-50.4	-62.7	3.6	8.44e-01	0	41	104	0	60	49491
2026-01-23 18:20:40.61	299.09	38.74	-50.4	-62.7	3.6	8.45e-01	0	41	104	0	60	49328
2026-01-23 18:20:44.65	297.33	38.50	-50.4	-62.7	3.6	8.45e-01	0	41	104	0	60	49257
2026-01-23 18:20:48.68	295.61	38.24	-50.4	-62.7	3.6	8.46e-01	0	41	104	0	60	49326
2026-01-23 18:20:52.72	293.91	37.94	-50.4	-62.7	3.6	8.45e-01	0	41	104	0	60	49260
2026-01-23 18:20:56.76	292.24	37.62	-50.4	-62.7	3.6	8.45e-01	0	41	104	0	60	49238
2026-01-23 18:21:00.80	290.61	37.28	-50.4	-62.7	3.6	8.45e-01	0	41	104	0	60	49382
2026-01-23 18:21:04.84	289.01	36.92	-50.4	-62.7	3.6	8.46e-01	0	41	104	0	60	49294
2026-01-23 18:21:08.88	287.45	36.53	-50.4	-62.7	3.6	8.46e-01	0	41	104	0	60	49407
2026-01-23 18:21:12.92	285.92	36.13	-50.4	-62.8	3.6	8.45e-01	0	41	104	0	60	49693
2026-01-23 18:21:16.96	284.44	35.71	-50.4	-62.7	3.6	8.45e-01	0	41	104	0	60	49259
2026-01-23 18:21:21.00	282.99	35.27	-50.4	-62.7	3.6	8.45e-01	0	41	104	0	60	49245
2026-01-23 18:21:25.04	281.58	34.82	-50.4	-62.7	3.6	8.46e-01	0	41	104	0	60	49071
2026-01-23 18:21:29.08	280.21	34.36	-50.4	-62.6	3.6	8.45e-01	0	41	104	0	60	48849
2026-01-23 18:21:33.12	278.88	33.88	-50.4	-62.7	3.6	8.45e-01	0	41	104	0	60	49312
2026-01-23 18:21:37.16	277.59	33.40	-50.4	-62.7	3.6	8.46e-01	0	41	104	0	60	49176
2026-01-23 18:21:41.20	276.34	32.91	-50.4	-62.7	3.6	8.45e-01	0	41	104	0	60	49165
2026-01-23 18:21:45.24	275.12	32.41	-50.4	-62.7	3.6	8.46e-01	0	41	104	0	60	49046
2026-01-23 18:21:49.28	273.94	31.90	-50.4	-62.7	3.6	8.45e-01	0	41	104	0	60	49164
2026-01-23 18:21:53.32	272.80	31.39	-50.4	-62.7	3.6	8.46e-01	0	41	104	0	60	49246
2026-01-23 18:21:57.36	271.70	30.88	-50.4	-62.7	3.6	8.44e-01	0	41	104	0	60	49307
2026-01-23 18:22:01.39	270.63	30.36	-50.4	-62.7	3.6	8.45e-01	0	41	104	0	60	49286
2026-01-23 18:22:05.43	269.59	29.85	-50.4	-62.6	3.6	8.45e-01	0	41	104	0	60	49018
2026-01-23 18:22:09.47	268.59	29.33	-50.4	-62.7	3.6	8.45e-01	0	41	104	0	60	49202
2026-01-23 18:22:13.51	267.62	28.81	-50.4	-62.7	3.6	8.46e-01	0	41	104	0	60	49148
2026-01-23 18:22:17.55	266.67	28.29	-50.4	-62.7	3.6	8.45e-01	0	41	104	0	60	49238
2026-01-23 18:22:21.59	265.76	27.77	-50.4	-62.7	3.6	8.45e-01	0	41	104	0	60	49123
2026-01-23 18:22:25.63	264.88	27.26	-50.4	-62.7	3.6	8.46e-01	0	41	104	0	60	49137
2026-01-23 18:22:29.67	264.03	26.75	-50.4	-62.7	3.6	8.46e-01	0	41	104	0	60	49196
2026-01-23 18:22:33.70	263.21	26.24	-50.4	-62.6	3.6	8.44e-01	0	41	104	0	60	48860
2026-01-23 18:22:37.74	262.41	25.73	-50.4	-62.7	3.6	8.45e-01	0	41	104	0	60	49159
2026-01-23 18:22:41.78	261.63	25.23	-50.4	-62.7	3.6	8.45e-01	0	41	104	0	60	49255
2026-01-23 18:22:45.82	260.88	24.73	-50.4	-62.7	3.6	8.46e-01	0	41	104	0	60	49044
2026-01-23 18:22:49.86	260.16	24.23	-50.4	-62.7	3.6	8.45e-01	0	41	104	0	60	49198
2026-01-23 18:22:53.91	259.45	23.74	-50.4	-62.7	3.6	8.45e-01	0	41	104	0	60	49157
2026-01-23 18:22:57.95	258.77	23.25	-50.4	-62.7	3.6	8.46e-01	0	41	104	0	60	49073
2026-01-23 18:23:01.99	258.11	22.77	-50.4	-62.6	3.6	8.45e-01	0	41	104	0	60	48947
2026-01-23 18:23:06.03	257.47	22.30	-50.4	-62.7	3.6	8.45e-01	0	41	104	0	60	49112
2026-01-23 18:23:10.07	256.85	21.83	-50.4	-62.7	3.5	8.45e-01	0	41	104	0	60	49314
2026-01-23 18:23:14.11	256.25	21.36	-50.4	-62.6	3.6	8.45e-01	0	41	104	0	60	48954
2026-01-23 18:23:18.15	255.66	20.90	-50.4	-62.6	3.6	8.45e-01	0	41	104	0	60	48930
2026-01-23 18:23:22.19	255.09	20.44	-50.4	-62.6	3.6	8.46e-01	0	41	104	0	60	48850
2026-01-23 18:23:26.23	254.55	19.99	-50.4	-62.7	3.6	8.46e-01	0	41	104	0	60	49099
2026-01-23 18:23:30.27	254.01	19.55	-50.4	-62.6	3.6	8.45e-01	0	41	104	0	60	48843
2026-01-23 18:23:34.31	253.49	19.11	-50.4	-62.7	3.6	8.45e-01	0	41	104	0	60	49042
2026-01-23 18:23:38.35	252.99	18.67	-50.4	-62.6	3.6	8.44e-01	0	41	104	0	60	48986
2026-01-23 18:23:42.39	252.50	18.24	-50.4	-62.7	3.6	8.45e-01	0	41	104	0	60	49079
2026-01-23 18:23:46.43	252.03	17.82	-50.4	-62.7	3.6	8.45e-01	0	41	104	0	60	49110
2026-01-23 18:23:50.47	251.56	17.40	-50.4	-62.7	3.6	8.45e-01	0	41	104	0	60	49278
2026-01-23 18:23:54.51	251.12	16.99	-50.4	-62.7	3.6	8.45e-01	0	41	104	0	60	49133
2026-01-23 18:23:58.54	250.68	16.58	-50.4	-62.6	3.6	8.45e-01	0	41	104	0	60	48919
2026-01-23 18:24:02.58	250.26	16.17	-50.4	-62.6	3.6	8.45e-01	0	41	104	0	60	48917
2026-01-23 18:24:06.62	249.84	15.78	-50.4	-62.6	3.6	8.45e-01	0	41	104	0	60	48949
2026-01-23 18:24:10.65	249.44	15.38	-50.4	-62.6	3.6	8.44e-01	0	41	104	0	60	49003
2026-01-23 18:24:14.69	249.05	14.99	-50.4	-62.6	3.6	8.46e-01	0	41	104	0	60	48725
2026-01-23 18:24:18.73	248.67	14.61	-50.4	-62.6	3.6	8.46e-01	0	41	104	0	60	48866
2026-01-23 18:24:22.77	248.30	14.23	-50.4	-62.6	3.6	8.45e-01	0	41	104	0	60	48985
2026-01-23 18:24:26.81	247.94	13.86	-50.4	-62.6	3.6	8.46e-01	0	41	104	0	60	48921
2026-01-23 18:24:30.85	247.59	13.49	-50.4	-62.6	3.6	8.45e-01	0	41	104	0	60	49002
2026-01-23 18:24:34.89	247.24	13.12	-50.4	-62.7	3.6	8.45e-01	0	41	104	0	60	49128
2026-01-23 18:24:38.92	246.91	12.76	-50.3	-62.6	3.6	8.45e-01	0	41	104	0	60	48830
2026-01-23 18:24:42.96	246.58	12.40	-50.3	-62.7	3.6	8.46e-01	0	41	104	0	60	49067
2026-01-23 18:24:47.00	246.26	12.05	-50.3	-62.6	3.6	8.44e-01	0	41	104	0	60	48737
2026-01-23 18:24:51.05	245.95	11.70	-50.3	-62.6	3.6	8.45e-01	0	41	104	0	60	49022
2026-01-23 18:24:55.09	245.65	11.36	-50.3	-62.6	3.6	8.45e-01	0	41	104	0	60	48982
2026-01-23 18:24:59.13	245.35	11.02	-50.3	-62.6	3.6	8.46e-01	0	41	104	0	60	48828
2026-01-23 18:25:03.13	245.07	10.68	-50.3	-62.6	3.6	8.45e-01	0	41	104	0	60	48978
2026-01-23 18:25:07.17	244.78	10.35	-50.3	-62.6	3.6	8.45e-01	0	41	104	0	60	48684
2026-01-23 18:25:11.22	244.51	10.02	-50.3	-62.6	3.6	8.46e-01	0	41	104	0	60	48884
2026-01-23 18:25:15.26	244.24	9.70	-50.3	-62.6	3.6	8.46e-01	0	41	104	0	60	48644
2026-01-23 18:25:19.30	243.98	9.38	-50.3	-62.7	3.6	8.45e-01	0	41	104	0	60	49077
2026-01-23 18:25:23.34	243.72	9.06	-50.3	-62.6	3.6	8.45e-01	0	41	104	0	60	48908
2026-01-23 18:25:27.37	243.47	8.74	-50.3	-62.6	3.6	8.45e-01	0	41	104	0	60	48736
2026-01-23 18:25:31.41	243.22	8.43	-50.3	-62.6	3.6	8.45e-01	0	41	104	0	60	48859
2026-01-23 18:25:35.45	242.98	8.12	-50.3	-62.6	3.6	8.44e-01	0	41	104	0	60	48744
2026-01-23 18:25:39.49	242.75	7.82	-50.3	-62.6	3.6	8.45e-01	0	41	104	0	60	48839
2026-01-23 18:25:43.53	242.52	7.52	-50.3	-62.6	3.6	8.45e-01	0	41	104	0	60	48748
2026-01-23 18:25:47.57	242.29	7.22	-50.3	-62.6	3.6	8.45e-01	0	41	104	0	60	48631
2026-01-23 18:25:51.61	242.07	6.92	-50.3	-62.6	3.6	8.45e-01	0	41	104	0	60	48807
2026-01-23 18:25:55.65	241.86	6.63	-50.3	-62.6	3.6	8.45e-01	0	41	104	0	60	48763
2026-01-23 18:25:59.68	241.65	6.34	-50.3	-62.6	3.6	8.45e-01	0	41	104	0	60	48738
2026-01-23 18:26:03.72	241.44	6.06	-50.3	-62.6	3.6	8.45e-01	0	41	104	0	60	48778
2026-01-23 18:26:07.76	241.24	5.77	-50.3	-62.6	3.6	8.45e-01	0	41	104	0	60	48651
2026-01-23 18:26:11.80	241.04	5.49	-50.3	-62.6	3.6	8.45e-01	0	41	104	0	60	48750
2026-01-23 18:26:15.85	240.84	5.21	-50.3	-62.6	3.6	8.47e-01	0	41	104	0	60	48516
2026-01-23 18:26:19.89	240.65	4.94	-50.3	-62.6	3.6	8.45e-01	0	41	104	0	60	48879
2026-01-23 18:26:23.93	240.47	4.66	-50.3	-62.6	3.6	8.45e-01	0	41	104	0	60	48581
2026-01-23 18:26:27.97	240.28	4.39	-50.3	-62.6	3.6	8.44e-01	0	41	104	0	60	48884
2026-01-23 18:26:32.01	240.10	4.12	-50.3	-62.6	3.6	8.45e-01	0	41	104	0	60	48903
2026-01-23 18:26:36.05	239.93	3.86	-50.3	-62.6	3.6	8.45e-01	0	41	104	0	60	48852
2026-01-23 18:26:40.09	239.75	3.59	-50.3	-62.6	3.6	8.45e-01	0	41	104	0	60	48636
2026-01-23 18:26:44.13	239.59	3.33	-50.3	-62.6	3.6	8.45e-01	0	41	104	0	60	48764
2026-01-23 18:26:48.17	239.42	3.07	-50.3	-62.6	3.6	8.45e-01	0	41	104	0	60	48810
2026-01-23 18:26:52.21	239.26	2.81	-50.3	-62.5	3.6	8.45e-01	0	41	104	0	60	48473
2026-01-23 18:26:56.25	239.10	2.56	-50.3	-62.6	3.6	8.45e-01	0	41	104	0	60	48910
2026-01-23 18:27:00.29	238.94	2.31	-50.3	-62.6	3.6	8.46e-01	0	41	104	0	60	48614
2026-01-23 18:27:04.32	238.78	2.06	-50.3	-62.6	3.6	8.45e-01	0	41	104	0	60	48805
2026-01-23 18:27:08.36	238.63	1.81	-50.3	-62.6	3.6	8.45e-01	0	41	104	0	60	48697
2026-01-23 18:27:12.40	238.48	1.56	-50.3	-62.6	3.6	8.46e-01	0	41	104	0	60	48791
2026-01-23 18:27:16.44	238.34	1.31	-50.3	-62.6	3.6	8.45e-01	0	41	104	0	60	48822
2026-01-23 18:27:20.48	238.19	1.07	-50.3	-62.6	3.6	8.45e-01	0	41	104	0	60	48608
2026-01-23 18:27:24.52	238.05	0.83	-50.3	-62.6	3.6	8.46e-01	0	41	104	0	60	48544
2026-01-23 18:27:28.56	237.91	0.59	-50.3	-62.6	3.6	8.45e-01	0	41	104	0	60	48638
2026-01-23 18:27:32.60	237.78	0.35	-50.3	-62.6	3.6	8.45e-01	0	41	104	0	60	48862
2026-01-23 18:27:36.64	237.64	0.12	-50.3	-62.6	3.6	8.45e-01	0	41	104	0	60	48828

#Closed at: 2026-01-23 18:27:40
#Recorded file [0 MB]: D:/lorett/data/35029_260124_061247.dat