passes_logs/2026/01/23/R4.6S_Anadyr/R4.6S_Anadyr__20260123_024641_FENGYUN_3D_rec.log

#Pass ID: 20260123_024641_FENGYUN 3D
#Satellite: FENGYUN 3D
#Configuration: FENGYUN 3D
#almurnet v.1.7.20251203
#Start time: 2026-01-23 02:46:42

#Version: 2.2.20231116
#Station: R4.6S_Anadyr
#Location: 177.4865 lon 64.73178 lat
#TLE: 1 43010U 17072A   26022.47411728  .00000617  00000+0  31375-3 0  9996
#TLE: 2 43010  98.9952 354.4060 0002481  95.7964 264.3494 14.19699924424319

#Time	Az	El	Level	Level2	SNR	BER	BlckErr	Temp	State	Recorded	gain1	gain2
2026-01-23 02:46:42.74	168.73	0.06	-52.1	-69.8	3.5	3.02e+01	0	38	0	0	60	119020
2026-01-23 02:46:46.78	168.81	0.30	-51.2	-63.4	3.6	8.44e-01	0	39	104	0	60	53499
2026-01-23 02:46:50.82	168.89	0.54	-51.3	-63.4	3.6	8.45e-01	0	40	104	0	60	53524
2026-01-23 02:46:54.86	168.96	0.79	-51.2	-63.3	3.6	8.44e-01	0	40	104	0	60	53148
2026-01-23 02:46:58.90	169.04	1.04	-51.0	-63.2	3.6	8.46e-01	0	40	104	0	60	51983
2026-01-23 02:47:02.94	169.13	1.29	-50.8	-62.9	3.6	8.46e-01	0	40	104	0	60	50335
2026-01-23 02:47:06.98	169.21	1.54	-50.0	-61.9	3.6	8.46e-01	0	40	104	0	60	44822
2026-01-23 02:47:11.01	169.29	1.79	-49.8	-61.1	3.6	8.45e-01	0	40	104	0	60	41211
2026-01-23 02:47:15.05	169.37	2.05	-49.9	-62.0	3.6	8.45e-01	0	40	104	0	60	45325
2026-01-23 02:47:19.10	169.46	2.31	-49.8	-61.5	3.5	8.47e-01	0	40	104	0	60	43097
2026-01-23 02:47:23.14	169.55	2.57	-49.7	-60.2	3.6	8.45e-01	0	40	104	0	60	36978
2026-01-23 02:47:27.18	169.64	2.83	-49.8	-61.6	3.6	8.46e-01	0	40	104	0	60	43684
2026-01-23 02:47:31.22	169.73	3.10	-48.1	-52.2	8.0	1.68e-01	0	40	0	3145728	60	14757
2026-01-23 02:47:35.26	169.82	3.36	-43.3	-44.7	16.2	0.00e+00	0	40	0	25165824	60	6234
2026-01-23 02:47:39.30	169.91	3.63	-42.1	-43.3	17.7	0.00e+00	0	40	0	48234496	56	6665
2026-01-23 02:47:43.34	170.00	3.91	-49.7	-59.1	3.8	8.45e-01	0	40	104	67108864	60	32764
2026-01-23 02:47:47.38	170.10	4.18	-43.9	-45.5	16.6	0.00e+00	0	40	0	74448896	60	6790
2026-01-23 02:47:51.42	170.20	4.46	-43.4	-44.8	16.6	0.00e+00	0	40	0	97517568	58	7070
2026-01-23 02:47:55.46	170.30	4.74	-42.6	-43.8	17.6	0.00e+00	0	40	0	119537664	58	6298
2026-01-23 02:47:59.50	170.40	5.03	-41.7	-42.8	18.3	0.00e+00	0	40	0	142606336	56	6307
2026-01-23 02:48:03.54	170.50	5.32	-39.7	-40.6	20.4	0.00e+00	0	40	0	165675008	52	6162
2026-01-23 02:48:07.58	170.60	5.61	-39.3	-40.2	20.6	0.00e+00	0	40	0	187695104	52	5860
2026-01-23 02:48:11.62	170.71	5.90	-38.5	-39.2	22.1	0.00e+00	0	40	0	210763776	50	5895
2026-01-23 02:48:15.65	170.82	6.20	-38.5	-39.3	21.9	0.00e+00	0	40	0	232783872	50	5961
2026-01-23 02:48:19.69	170.93	6.50	-38.5	-39.3	22.2	0.00e+00	0	40	0	255852544	50	5945
2026-01-23 02:48:23.73	171.04	6.80	-37.9	-38.7	22.7	0.00e+00	0	41	0	278921216	50	5507
2026-01-23 02:48:27.76	171.15	7.11	-37.3	-38.0	23.2	0.00e+00	0	41	0	301989888	48	5761
2026-01-23 02:48:31.80	171.27	7.42	-37.3	-38.0	23.3	0.00e+00	0	40	0	324009984	48	5725
2026-01-23 02:48:35.85	171.39	7.74	-36.9	-37.6	23.7	0.00e+00	0	41	0	347078656	48	5462
2026-01-23 02:48:39.89	171.51	8.06	-36.7	-37.4	23.8	0.00e+00	0	41	0	370147328	46	5987
2026-01-23 02:48:43.93	171.63	8.38	-36.6	-37.3	24.0	0.00e+00	0	41	0	392167424	46	5950
2026-01-23 02:48:47.97	171.76	8.71	-36.6	-37.3	23.9	0.00e+00	0	40	0	415236096	46	5942
2026-01-23 02:48:52.01	171.88	9.04	-36.5	-37.2	24.1	0.00e+00	0	41	0	438304768	46	5852
2026-01-23 02:48:56.05	172.02	9.38	-36.4	-37.1	24.1	0.00e+00	0	41	0	460324864	46	5815
2026-01-23 02:49:00.09	172.15	9.72	-36.0	-36.7	24.5	0.00e+00	0	41	0	483393536	46	5534
2026-01-23 02:49:04.13	172.29	10.06	-36.6	-37.3	24.1	0.00e+00	0	41	0	506462208	46	5953
2026-01-23 02:49:08.17	172.42	10.41	-36.1	-36.8	24.5	0.00e+00	0	41	0	528482304	46	5615
2026-01-23 02:49:12.21	172.57	10.77	-36.2	-36.8	24.6	0.00e+00	0	41	0	551550976	46	5623
2026-01-23 02:49:16.24	172.71	11.12	-36.0	-36.7	24.6	0.00e+00	0	41	0	574619648	46	5527
2026-01-23 02:49:20.28	172.86	11.49	-35.9	-36.6	24.8	0.00e+00	0	41	0	596639744	46	5455
2026-01-23 02:49:24.32	173.01	11.86	-35.9	-36.6	24.7	0.00e+00	0	41	0	619708416	46	5473
2026-01-23 02:49:28.35	173.17	12.23	-35.9	-36.6	24.8	0.00e+00	0	41	0	641728512	44	6128
2026-01-23 02:49:32.39	173.33	12.62	-35.9	-36.5	24.8	0.00e+00	0	41	0	664797184	44	6102
2026-01-23 02:49:36.43	173.49	13.00	-36.0	-36.7	24.6	0.00e+00	0	41	0	687865856	44	6176
2026-01-23 02:49:40.46	173.66	13.40	-35.9	-36.5	24.8	0.00e+00	0	41	0	710934528	44	6103
2026-01-23 02:49:44.50	173.83	13.80	-35.4	-36.1	25.3	0.00e+00	0	41	0	732954624	44	5784
2026-01-23 02:49:48.54	174.00	14.20	-35.2	-35.8	25.4	0.00e+00	0	41	0	756023296	44	5624
2026-01-23 02:49:52.57	174.18	14.61	-35.1	-35.8	25.5	0.00e+00	0	41	0	779091968	44	5592
2026-01-23 02:49:56.62	174.37	15.04	-34.7	-35.4	25.9	0.00e+00	0	41	0	801112064	44	5336
2026-01-23 02:50:00.66	174.56	15.46	-34.5	-35.2	26.1	0.00e+00	0	41	0	824180736	42	5871
2026-01-23 02:50:04.69	174.75	15.90	-34.3	-35.0	26.3	0.00e+00	0	41	0	846200832	42	5697
2026-01-23 02:50:08.73	174.95	16.34	-34.1	-34.8	26.5	0.00e+00	0	41	0	869269504	42	5576
2026-01-23 02:50:12.77	175.16	16.79	-34.0	-34.6	26.6	0.00e+00	0	41	0	892338176	42	5479
2026-01-23 02:50:16.81	175.37	17.25	-34.0	-34.6	26.6	0.00e+00	0	41	0	915406848	42	5453
2026-01-23 02:50:20.84	175.59	17.71	-33.7	-34.3	26.9	0.00e+00	0	41	0	937426944	40	5952
2026-01-23 02:50:24.88	175.81	18.19	-33.8	-34.4	26.8	0.00e+00	0	41	0	960495616	40	5989
2026-01-23 02:50:28.92	176.05	18.67	-34.1	-34.7	26.6	0.00e+00	0	41	0	983564288	40	6196
2026-01-23 02:50:32.96	176.28	19.16	-33.9	-34.5	26.7	0.00e+00	0	41	0	1005584384	40	6077
2026-01-23 02:50:37.00	176.53	19.67	-33.6	-34.3	26.9	0.00e+00	0	41	0	1028653056	40	5935
2026-01-23 02:50:41.03	176.78	20.18	-33.5	-34.1	27.0	0.00e+00	0	41	0	1050673152	40	5797
2026-01-23 02:50:45.07	177.04	20.70	-33.4	-34.0	27.2	0.00e+00	0	41	0	1073741824	40	5736
2026-01-23 02:50:49.11	177.31	21.23	-33.4	-34.0	27.2	0.00e+00	0	41	0	1096810496	40	5736
2026-01-23 02:50:53.15	177.59	21.78	-33.3	-34.0	27.2	0.00e+00	0	41	0	1118830592	40	5704
2026-01-23 02:50:57.19	177.88	22.33	-33.2	-33.8	27.4	0.00e+00	0	41	0	1141899264	40	5577
2026-01-23 02:51:01.23	178.18	22.90	-33.0	-33.6	27.4	0.00e+00	0	41	0	1164967936	40	5465
2026-01-23 02:51:05.27	178.49	23.48	-32.9	-33.5	27.6	0.00e+00	0	41	0	1188036608	38	6060
2026-01-23 02:51:09.31	178.81	24.07	-32.7	-33.3	27.7	0.00e+00	0	41	0	1210056704	38	5955
2026-01-23 02:51:13.34	179.14	24.68	-32.7	-33.3	27.8	0.00e+00	0	41	0	1233125376	38	5907
2026-01-23 02:51:17.38	179.48	25.29	-32.4	-33.0	28.0	0.00e+00	0	41	0	1255145472	38	5742
2026-01-23 02:51:21.42	179.84	25.93	-32.4	-33.0	27.9	0.00e+00	0	41	0	1278214144	38	5721
2026-01-23 02:51:25.46	180.21	26.57	-32.4	-33.0	28.0	0.00e+00	0	41	0	1301282816	38	5752
2026-01-23 02:51:29.49	180.60	27.23	-32.4	-33.0	28.0	0.00e+00	0	41	0	1323302912	38	5738
2026-01-23 02:51:33.53	181.00	27.90	-32.1	-32.7	28.2	0.00e+00	0	41	0	1346371584	38	5526
2026-01-23 02:51:37.57	181.42	28.59	-32.2	-32.8	28.1	0.00e+00	0	41	0	1369440256	38	5603
2026-01-23 02:51:41.61	181.86	29.30	-32.3	-33.0	28.0	0.00e+00	0	41	0	1392508928	38	5699
2026-01-23 02:51:45.64	182.31	30.02	-32.5	-33.1	28.0	0.00e+00	0	41	0	1414529024	38	5775
2026-01-23 02:51:49.68	182.79	30.76	-32.1	-32.6	28.3	0.00e+00	0	41	0	1437597696	38	5489
2026-01-23 02:51:53.72	183.29	31.52	-32.2	-32.8	28.2	0.00e+00	0	41	0	1459617792	38	5620
2026-01-23 02:51:57.76	183.81	32.29	-32.3	-32.9	28.1	0.00e+00	0	41	0	1482686464	38	5649
2026-01-23 02:52:01.79	184.36	33.08	-31.9	-32.5	28.4	0.00e+00	0	41	0	1505755136	38	5404
2026-01-23 02:52:05.83	184.93	33.89	-31.8	-32.3	28.5	0.00e+00	0	41	0	1527775232	38	5307
2026-01-23 02:52:09.87	185.53	34.72	-32.3	-32.9	28.2	0.00e+00	0	41	0	1550843904	38	5640
2026-01-23 02:52:13.91	186.17	35.57	-32.2	-32.8	28.2	0.00e+00	0	41	0	1573912576	38	5573
2026-01-23 02:52:17.95	186.83	36.43	-31.7	-32.3	28.5	0.00e+00	0	41	0	1595932672	36	5940
2026-01-23 02:52:21.98	187.53	37.32	-31.5	-32.1	28.7	0.00e+00	0	41	0	1619001344	36	5812
2026-01-23 02:52:26.02	188.27	38.22	-32.2	-32.8	28.2	0.00e+00	0	41	0	1642070016	36	6269
2026-01-23 02:52:30.06	189.05	39.15	-31.8	-32.4	28.5	0.00e+00	0	41	0	1664090112	36	5990
2026-01-23 02:52:34.10	189.88	40.09	-31.7	-32.3	28.6	0.00e+00	0	41	0	1687158784	36	5941
2026-01-23 02:52:38.14	190.76	41.05	-32.4	-33.0	28.1	0.00e+00	0	41	0	1710227456	36	6403
2026-01-23 02:52:42.18	191.69	42.04	-32.2	-32.8	28.2	0.00e+00	0	41	0	1732247552	36	6270
2026-01-23 02:52:46.22	192.67	43.03	-32.3	-32.9	28.2	0.00e+00	0	41	0	1755316224	36	6343
2026-01-23 02:52:50.25	193.72	44.05	-32.3	-32.9	28.3	0.00e+00	0	41	0	1778384896	36	6339
2026-01-23 02:52:54.30	194.84	45.08	-32.2	-32.8	28.2	0.00e+00	0	41	0	1800404992	36	6282
2026-01-23 02:52:58.33	196.03	46.13	-32.5	-33.1	28.0	0.00e+00	0	41	0	1823473664	36	6501
2026-01-23 02:53:02.37	197.31	47.19	-32.6	-33.1	28.0	0.00e+00	0	41	0	1846542336	36	6533
2026-01-23 02:53:06.41	198.67	48.26	-32.5	-33.1	28.0	0.00e+00	0	41	0	1868562432	36	6519
2026-01-23 02:53:10.44	200.12	49.33	-32.8	-33.4	27.8	0.00e+00	0	41	0	1891631104	38	5996
2026-01-23 02:53:14.48	201.69	50.42	-32.8	-33.4	27.8	0.00e+00	0	41	0	1914699776	38	6023
2026-01-23 02:53:18.52	203.37	51.50	-32.9	-33.5	27.7	0.00e+00	0	41	0	1936719872	38	6037
2026-01-23 02:53:22.56	205.17	52.59	-33.3	-33.9	27.4	0.00e+00	0	41	0	1959788544	38	6324
2026-01-23 02:53:26.59	207.11	53.66	-33.2	-33.8	27.5	0.00e+00	0	41	0	1982857216	38	6308
2026-01-23 02:53:30.63	209.20	54.72	-33.5	-34.1	27.3	0.00e+00	0	41	0	2004877312	38	6528
2026-01-23 02:53:34.67	211.44	55.77	-33.6	-34.3	27.2	0.00e+00	0	41	0	2027945984	38	6658
2026-01-23 02:53:38.70	213.85	56.78	-32.9	-33.5	27.7	0.00e+00	0	41	0	2049966080	40	5409
2026-01-23 02:53:42.74	216.45	57.77	-33.0	-33.6	27.6	0.00e+00	0	41	0	2073034752	40	5455
2026-01-23 02:53:46.78	219.24	58.71	-32.9	-33.5	27.8	0.00e+00	0	41	0	2096103424	40	5395
2026-01-23 02:53:50.82	222.23	59.60	-32.4	-33.0	28.1	0.00e+00	0	41	0	2119172096	38	5722
2026-01-23 02:53:54.86	225.41	60.43	-32.6	-33.3	27.9	0.00e+00	0	41	0	2141192192	38	5912
2026-01-23 02:53:58.90	228.81	61.18	-32.4	-33.0	28.2	0.00e+00	0	41	0	2164260864	38	5703
2026-01-23 02:54:02.94	232.40	61.85	-32.1	-32.8	28.4	0.00e+00	0	41	0	2187329536	38	5571
2026-01-23 02:54:06.98	236.17	62.43	-32.2	-32.8	28.3	0.00e+00	0	41	0	2209349632	36	6291
2026-01-23 02:54:11.02	240.11	62.90	-32.2	-32.8	28.2	0.00e+00	0	41	0	2232418304	36	6287
2026-01-23 02:54:15.06	244.19	63.26	-31.9	-32.6	28.5	0.00e+00	0	41	0	2255486976	36	6112
2026-01-23 02:54:19.10	248.37	63.49	-31.9	-32.6	28.4	0.00e+00	0	41	0	2277507072	36	6107
2026-01-23 02:54:23.14	252.61	63.60	-31.9	-32.4	28.5	0.00e+00	0	41	0	2300575744	36	6013
2026-01-23 02:54:27.19	256.88	63.59	-31.8	-32.5	28.5	0.00e+00	0	41	0	2323644416	36	6051
2026-01-23 02:54:31.22	261.10	63.44	-31.9	-32.6	28.4	0.00e+00	0	41	0	2345664512	36	6116
2026-01-23 02:54:35.26	265.26	63.17	-32.1	-32.7	28.3	0.00e+00	0	41	0	2368733184	36	6204
2026-01-23 02:54:39.30	269.30	62.78	-31.8	-32.5	28.6	0.00e+00	0	41	0	2391801856	36	6040
2026-01-23 02:54:43.34	273.19	62.28	-31.9	-32.4	28.5	0.00e+00	0	41	0	2413821952	36	6017
2026-01-23 02:54:47.38	276.92	61.68	-32.3	-32.9	28.2	0.00e+00	0	41	0	2436890624	36	6328
2026-01-23 02:54:51.41	280.44	60.99	-32.1	-32.7	28.4	0.00e+00	0	42	0	2459959296	36	6207
2026-01-23 02:54:55.45	283.78	60.22	-32.5	-33.2	28.0	0.00e+00	0	42	0	2481979392	36	6556
2026-01-23 02:54:59.49	286.91	59.37	-32.9	-33.5	27.7	0.00e+00	0	42	0	2505048064	38	6061
2026-01-23 02:55:03.52	289.83	58.47	-33.2	-33.8	27.5	0.00e+00	0	41	0	2528116736	38	6302
2026-01-23 02:55:07.56	292.56	57.52	-32.7	-33.3	27.8	0.00e+00	0	41	0	2550136832	38	5942
2026-01-23 02:55:11.61	295.11	56.53	-33.4	-34.1	27.4	0.00e+00	0	42	0	2573205504	38	6479
2026-01-23 02:55:15.64	297.47	55.50	-33.7	-34.4	27.1	0.00e+00	0	42	0	2596274176	40	6009
2026-01-23 02:55:19.68	299.67	54.46	-33.8	-34.4	27.0	0.00e+00	0	41	0	2618294272	40	5994
2026-01-23 02:55:23.73	301.72	53.39	-33.7	-34.4	27.1	0.00e+00	0	41	0	2641362944	40	6000
2026-01-23 02:55:27.76	303.62	52.32	-33.5	-34.0	27.4	0.00e+00	0	41	0	2664431616	40	5741
2026-01-23 02:55:31.80	305.38	51.24	-32.7	-33.2	27.8	0.00e+00	0	41	0	2686451712	40	5254
2026-01-23 02:55:35.84	307.03	50.15	-33.3	-34.1	27.4	0.00e+00	0	41	0	2709520384	38	6476
2026-01-23 02:55:39.88	308.56	49.07	-32.7	-33.2	27.9	0.00e+00	0	42	0	2732589056	38	5881
2026-01-23 02:55:43.92	309.99	48.00	-32.4	-32.9	27.7	0.00e+00	0	41	0	2754609152	38	5682
2026-01-23 02:55:47.95	311.33	46.94	-32.6	-33.2	27.8	0.00e+00	0	42	0	2777677824	38	5841
2026-01-23 02:55:51.99	312.58	45.89	-32.5	-33.1	28.1	0.00e+00	0	42	0	2800746496	38	5822
2026-01-23 02:55:56.04	313.75	44.85	-32.2	-32.8	28.3	0.00e+00	0	42	0	2822766592	38	5621
2026-01-23 02:56:00.07	314.85	43.83	-32.4	-33.1	28.1	0.00e+00	0	41	0	2845835264	38	5790
2026-01-23 02:56:04.11	315.88	42.82	-32.6	-33.2	27.8	0.00e+00	0	42	0	2868903936	38	5848
2026-01-23 02:56:08.15	316.85	41.83	-32.5	-33.1	28.1	0.00e+00	0	42	0	2890924032	38	5821
2026-01-23 02:56:12.19	317.76	40.85	-32.1	-32.6	28.4	0.00e+00	0	42	0	2913992704	38	5489
2026-01-23 02:56:16.23	318.63	39.90	-32.1	-32.8	28.3	0.00e+00	0	42	0	2937061376	38	5618
2026-01-23 02:56:20.26	319.44	38.97	-32.0	-32.6	28.4	0.00e+00	0	42	0	2959081472	38	5449
2026-01-23 02:56:24.30	320.21	38.05	-32.1	-32.7	28.3	0.00e+00	0	42	0	2982150144	38	5557
2026-01-23 02:56:28.34	320.94	37.16	-32.0	-32.6	28.4	0.00e+00	0	42	0	3005218816	38	5486
2026-01-23 02:56:32.38	321.63	36.28	-31.9	-32.6	28.4	0.00e+00	0	42	0	3027238912	38	5467
2026-01-23 02:56:36.42	322.29	35.42	-32.2	-32.7	28.4	0.00e+00	0	42	0	3050307584	38	5539
2026-01-23 02:56:40.46	322.91	34.58	-31.9	-32.4	28.5	0.00e+00	0	42	0	3073376256	38	5355
2026-01-23 02:56:44.50	323.51	33.76	-32.1	-32.6	28.3	0.00e+00	0	42	0	3095396352	38	5496
2026-01-23 02:56:48.54	324.08	32.96	-32.3	-32.9	28.1	0.00e+00	0	42	0	3118465024	38	5663
2026-01-23 02:56:52.58	324.62	32.17	-32.4	-32.9	28.2	0.00e+00	0	42	0	3141533696	38	5670
2026-01-23 02:56:56.62	325.13	31.41	-32.3	-32.8	28.2	0.00e+00	0	42	0	3163553792	38	5605
2026-01-23 02:57:00.65	325.62	30.66	-32.4	-32.9	28.2	0.00e+00	0	42	0	3186622464	38	5680
2026-01-23 02:57:04.69	326.10	29.93	-32.4	-32.9	28.1	0.00e+00	0	42	0	3209691136	38	5663
2026-01-23 02:57:08.73	326.55	29.21	-32.4	-33.0	28.0	0.00e+00	0	42	0	3231711232	38	5697
2026-01-23 02:57:12.77	326.98	28.51	-32.7	-33.4	27.9	0.00e+00	0	42	0	3254779904	38	5968
2026-01-23 02:57:16.80	327.40	27.83	-32.2	-32.7	28.2	0.00e+00	0	42	0	3276800000	38	5521
2026-01-23 02:57:20.84	327.80	27.16	-32.1	-32.8	28.2	0.00e+00	0	42	0	3299868672	38	5568
2026-01-23 02:57:24.88	328.18	26.51	-32.3	-33.0	28.1	0.00e+00	0	42	0	3322937344	38	5716
2026-01-23 02:57:28.92	328.55	25.87	-32.5	-33.2	27.9	0.00e+00	0	42	0	3346006016	38	5868
2026-01-23 02:57:32.96	328.91	25.24	-32.7	-33.4	27.8	0.00e+00	0	42	0	3368026112	38	6002
2026-01-23 02:57:37.00	329.25	24.63	-32.8	-33.4	27.7	0.00e+00	0	42	0	3391094784	38	5974
2026-01-23 02:57:41.05	329.58	24.03	-32.9	-33.4	27.6	0.00e+00	0	42	0	3414163456	38	6029
2026-01-23 02:57:45.08	329.90	23.45	-32.9	-33.4	27.6	0.00e+00	0	42	0	3436183552	38	6032
2026-01-23 02:57:49.11	330.20	22.87	-33.0	-33.6	27.5	0.00e+00	0	42	0	3459252224	38	6116
2026-01-23 02:57:53.16	330.50	22.31	-33.1	-33.8	27.4	0.00e+00	0	42	0	3482320896	38	6268
2026-01-23 02:57:57.19	330.79	21.76	-33.3	-34.0	27.2	0.00e+00	0	42	0	3504340992	38	6443
2026-01-23 02:58:01.23	331.07	21.22	-33.6	-34.3	27.0	0.00e+00	0	42	0	3527409664	38	6622
2026-01-23 02:58:05.27	331.34	20.69	-33.8	-34.5	26.8	0.00e+00	0	42	0	3550478336	40	6093
2026-01-23 02:58:09.31	331.60	20.17	-34.1	-34.8	26.6	0.00e+00	0	42	0	3572498432	40	6255
2026-01-23 02:58:13.34	331.85	19.67	-34.0	-34.7	26.6	0.00e+00	0	42	0	3595567104	40	6192
2026-01-23 02:58:17.38	332.10	19.17	-34.0	-34.7	26.6	0.00e+00	0	42	0	3618635776	40	6244
2026-01-23 02:58:21.42	332.33	18.68	-34.3	-35.0	26.5	0.00e+00	0	42	0	3640655872	40	6406
2026-01-23 02:58:25.46	332.57	18.20	-34.4	-35.0	26.3	0.00e+00	0	42	0	3663724544	40	6418
2026-01-23 02:58:29.50	332.79	17.73	-34.4	-35.0	26.3	0.00e+00	0	42	0	3685744640	40	6413
2026-01-23 02:58:33.54	333.01	17.26	-34.6	-35.3	26.1	0.00e+00	0	42	0	3708813312	40	6674
2026-01-23 02:58:37.58	333.22	16.81	-34.5	-35.1	26.2	0.00e+00	0	42	0	3731881984	40	6474
2026-01-23 02:58:41.61	333.43	16.36	-34.6	-35.1	26.1	0.00e+00	0	42	0	3754950656	40	6519
2026-01-23 02:58:45.65	333.63	15.93	-34.8	-35.4	25.8	0.00e+00	0	42	0	3776970752	42	6012
2026-01-23 02:58:49.69	333.82	15.49	-35.0	-35.6	25.6	0.00e+00	0	42	0	3800039424	42	6166
2026-01-23 02:58:53.73	334.02	15.07	-34.9	-35.7	25.8	0.00e+00	0	42	0	3822059520	42	6193
2026-01-23 02:58:57.77	334.20	14.65	-35.2	-36.0	25.4	0.00e+00	0	42	0	3845128192	42	6419
2026-01-23 02:59:01.80	334.38	14.24	-35.5	-36.1	25.1	0.00e+00	0	42	0	3868196864	42	6519
2026-01-23 02:59:05.84	334.56	13.84	-35.5	-36.1	25.1	0.00e+00	0	42	0	3890216960	44	5821
2026-01-23 02:59:09.88	334.73	13.44	-35.5	-36.3	25.1	0.00e+00	0	42	0	3913285632	44	5909
2026-01-23 02:59:13.92	334.90	13.05	-35.5	-36.2	25.1	0.00e+00	0	42	0	3936354304	44	5863
2026-01-23 02:59:17.97	335.07	12.67	-35.9	-36.5	24.8	0.00e+00	0	41	0	3959422976	44	6092
2026-01-23 02:59:22.00	335.23	12.29	-36.0	-36.6	24.6	0.00e+00	0	42	0	3981443072	44	6156
2026-01-23 02:59:26.04	335.39	11.92	-36.0	-36.6	24.6	0.00e+00	0	41	0	4004511744	44	6154
2026-01-23 02:59:30.08	335.54	11.55	-36.5	-37.3	24.1	0.00e+00	0	41	0	4026531840	44	6676
2026-01-23 02:59:34.12	335.69	11.19	-36.9	-37.7	23.9	0.00e+00	0	41	0	4049600512	46	6197
2026-01-23 02:59:38.15	335.84	10.83	-36.4	-37.0	24.3	0.00e+00	0	41	0	4072669184	46	5730
2026-01-23 02:59:42.19	335.98	10.48	-36.3	-37.0	24.2	0.00e+00	0	41	0	4094689280	46	5697
2026-01-23 02:59:46.23	336.12	10.13	-36.2	-36.8	24.4	0.00e+00	0	41	0	4117757952	46	5622
2026-01-23 02:59:50.27	336.26	9.79	-36.5	-37.2	24.1	0.00e+00	0	41	0	4140826624	46	5838
2026-01-23 02:59:54.30	336.40	9.45	-36.4	-37.2	24.1	0.00e+00	0	41	0	4163895296	46	5868
2026-01-23 02:59:58.34	336.53	9.12	-36.8	-37.6	23.9	0.00e+00	0	41	0	4185915392	46	6119
2026-01-23 03:00:02.38	336.66	8.79	-36.8	-37.4	23.7	0.00e+00	0	41	0	4208984064	46	6026
2026-01-23 03:00:06.42	336.79	8.46	-36.9	-37.5	23.6	0.00e+00	0	41	0	4231004160	46	6091
2026-01-23 03:00:10.45	336.92	8.14	-37.0	-37.6	23.5	0.00e+00	0	41	0	4254072832	46	6158
2026-01-23 03:00:14.49	337.04	7.82	-37.2	-38.1	23.2	0.00e+00	0	41	0	4277141504	46	6481
2026-01-23 03:00:18.53	337.16	7.51	-37.3	-38.0	23.2	0.00e+00	0	41	0	4299161600	46	6395
2026-01-23 03:00:22.57	337.28	7.20	-37.2	-38.1	23.1	0.00e+00	0	41	0	4322230272	46	6477
2026-01-23 03:00:26.61	337.40	6.89	-37.0	-37.7	23.4	0.00e+00	0	41	0	4345298944	48	5506
2026-01-23 03:00:30.64	337.51	6.59	-38.1	-38.9	22.1	0.00e+00	0	41	0	4367319040	48	6323
2026-01-23 03:00:34.68	337.62	6.29	-37.4	-38.1	22.9	0.00e+00	0	41	0	4390387712	48	5768
2026-01-23 03:00:38.72	337.73	6.00	-37.4	-38.1	22.5	0.00e+00	0	41	0	4413456384	48	5788
2026-01-23 03:00:42.76	337.84	5.71	-38.1	-38.8	21.8	0.00e+00	0	41	0	4435476480	48	6316
2026-01-23 03:00:46.80	337.95	5.42	-38.6	-39.6	20.8	0.00e+00	0	41	0	4458545152	50	6110
2026-01-23 03:00:50.83	338.06	5.13	-40.2	-41.2	18.8	0.00e+00	0	41	0	4481613824	52	6599
2026-01-23 03:00:54.86	338.16	4.85	-41.7	-43.0	16.2	0.00e+00	0	41	0	4503633920	54	7245
2026-01-23 03:00:58.91	338.26	4.57	-43.2	-45.4	13.3	1.94e-05	0	41	0	4526702592	58	7510
2026-01-23 03:01:02.95	338.36	4.29	-45.1	-49.3	8.0	3.76e-02	0	41	0	4549771264	60	10526
2026-01-23 03:01:06.99	338.46	4.01	-45.8	-52.3	4.4	6.99e-01	0	41	0	4569694208	60	14942
2026-01-23 03:01:11.02	338.56	3.74	-46.0	-56.1	3.7	8.44e-01	0	41	104	4569694208	60	23071
2026-01-23 03:01:15.06	338.66	3.47	-46.4	-56.8	3.6	8.46e-01	0	41	104	4569694208	60	25105
2026-01-23 03:01:19.10	338.75	3.21	-46.2	-58.3	3.6	8.45e-01	0	41	104	4569694208	60	29597
2026-01-23 03:01:23.14	338.84	2.94	-46.5	-58.7	3.6	8.45e-01	0	41	104	4569694208	60	30953
2026-01-23 03:01:27.17	338.94	2.68	-50.8	-62.9	3.6	8.45e-01	0	41	104	4569694208	60	50443
2026-01-23 03:01:31.21	339.03	2.42	-51.1	-63.2	3.6	8.45e-01	0	41	104	4569694208	60	52104
2026-01-23 03:01:35.25	339.12	2.17	-51.1	-63.3	3.6	8.46e-01	0	41	104	4569694208	60	52795
2026-01-23 03:01:39.29	339.20	1.91	-51.0	-63.2	3.6	8.46e-01	0	41	104	4569694208	60	52040
2026-01-23 03:01:43.33	339.29	1.66	-51.0	-63.2	3.6	8.45e-01	0	41	104	4569694208	60	52128
2026-01-23 03:01:47.37	339.38	1.41	-51.1	-63.2	3.6	8.46e-01	0	41	104	4569694208	60	52387
2026-01-23 03:01:51.41	339.46	1.16	-51.1	-63.2	3.6	8.44e-01	0	41	104	4569694208	60	52272
2026-01-23 03:01:55.45	339.55	0.91	-51.1	-63.2	3.6	8.47e-01	0	41	104	4569694208	60	52308
2026-01-23 03:01:59.49	339.63	0.67	-51.0	-63.1	3.6	8.44e-01	0	41	104	4569694208	60	51928
2026-01-23 03:02:03.53	339.71	0.43	-51.0	-63.2	3.6	8.46e-01	0	41	104	4569694208	60	52152
2026-01-23 03:02:07.57	339.79	0.19	-51.0	-63.2	3.6	8.46e-01	0	41	104	4569694208	60	52273
2026-01-23 03:02:11.61	339.87	-0.05	-51.0	-63.1	3.6	8.45e-01	0	41	104	4569694208	60	51924

#Closed at: 2026-01-23 03:02:11
#Recorded file [4569 MB]: D:/lorett/data/35029_260123_144642.dat