passes_logs/2026/01/23/R4.6S_Anadyr/R4.6S_Anadyr__20260123_222007_TY-39_rec.log

#Pass ID: 20260123_222007_TY-39
#Satellite: TY-39
#Configuration: TY-39
#almurnet v.1.7.20251203
#Start time: 2026-01-23 22:20:12

#Version: 2.2.20231116
#Station: R4.6S_Anadyr
#Location: 177.4865 lon 64.73178 lat
#TLE: 1 51832U 22019J   26022.99179368  .00002273  00000-0  10954-3 0  9993
#TLE: 2 51832  97.3628  89.4856 0009275  27.6116 332.5610 15.19698092215741

#Time	Az	El	Level	Level2	SNR	BER	BlckErr	Temp	State	Recorded	gain1	gain2
2026-01-23 22:20:12.72	18.82	0.36	-51.1	-63.6	3.4	1.52e+00	0	39	0	0	60	53272
2026-01-23 22:20:15.75	18.93	0.55	-51.7	-54.1	3.6	0.00e+00	0	41	104	0	60	62151
2026-01-23 22:20:18.77	19.03	0.74	-51.7	-54.2	3.6	0.00e+00	0	41	104	0	60	62540
2026-01-23 22:20:21.80	19.13	0.94	-51.6	-54.1	3.6	0.00e+00	0	41	104	0	60	61854
2026-01-23 22:20:24.83	19.24	1.14	-51.4	-53.9	3.6	0.00e+00	0	41	104	0	60	60888
2026-01-23 22:20:27.86	19.35	1.34	-51.1	-53.6	3.6	0.00e+00	0	41	104	0	60	58458
2026-01-23 22:20:30.89	19.46	1.54	-50.8	-53.3	3.6	0.00e+00	0	41	104	0	60	56725
2026-01-23 22:20:33.92	19.57	1.74	-50.3	-52.7	3.6	0.00e+00	0	41	104	0	60	53127
2026-01-23 22:20:36.95	19.69	1.95	-50.2	-52.7	3.6	0.00e+00	0	41	104	0	60	52784
2026-01-23 22:20:39.98	19.80	2.15	-50.2	-52.7	3.6	0.00e+00	0	41	104	0	60	52824
2026-01-23 22:20:43.01	19.92	2.36	-50.2	-52.7	3.6	0.00e+00	0	42	104	0	60	52786
2026-01-23 22:20:46.04	20.04	2.57	-50.2	-52.7	3.6	0.00e+00	0	42	104	0	60	52923
2026-01-23 22:20:49.07	20.16	2.78	-50.2	-52.7	3.5	0.00e+00	0	42	104	0	60	52876
2026-01-23 22:20:52.09	20.28	3.00	-50.2	-52.7	3.6	0.00e+00	0	42	104	0	60	52839
2026-01-23 22:20:55.12	20.41	3.21	-50.2	-52.7	3.6	0.00e+00	0	42	104	0	60	52871
2026-01-23 22:20:58.15	20.54	3.43	-50.2	-52.7	3.6	0.00e+00	0	42	104	0	60	52616
2026-01-23 22:21:01.17	20.67	3.65	-50.2	-52.7	3.6	0.00e+00	0	42	104	0	60	52803
2026-01-23 22:21:04.20	20.80	3.88	-50.2	-52.7	3.6	0.00e+00	0	42	104	0	60	53057
2026-01-23 22:21:07.23	20.93	4.10	-50.2	-52.7	3.6	0.00e+00	0	42	104	0	60	53009
2026-01-23 22:21:10.26	21.07	4.33	-50.2	-52.7	3.6	0.00e+00	0	42	104	0	60	52877
2026-01-23 22:21:13.29	21.21	4.56	-34.0	-34.4	14.3	0.00e+00	0	43	0	100663296	44	16216
2026-01-23 22:21:16.32	21.35	4.80	-34.3	-34.7	14.2	0.00e+00	0	43	0	318767104	42	18851
2026-01-23 22:21:19.35	21.49	5.03	-33.3	-33.7	14.7	0.00e+00	0	43	0	545259520	42	16644
2026-01-23 22:21:22.38	21.64	5.27	-33.5	-33.9	14.6	0.00e+00	0	43	0	771751936	42	17038
2026-01-23 22:21:25.41	21.79	5.51	-32.0	-32.5	15.3	0.00e+00	0	43	0	998244352	40	16303
2026-01-23 22:21:28.43	21.94	5.76	-32.1	-32.5	15.3	0.00e+00	0	43	0	1224736768	40	16344
2026-01-23 22:21:31.46	22.10	6.00	-32.2	-32.6	15.3	0.00e+00	0	43	0	1451229184	40	16579
2026-01-23 22:21:34.49	22.26	6.25	-32.4	-32.8	15.2	0.00e+00	0	43	0	1686110208	40	16863
2026-01-23 22:21:37.52	22.42	6.51	-32.2	-32.7	15.3	0.00e+00	0	43	0	1904214016	40	16619
2026-01-23 22:21:40.55	22.58	6.76	-31.7	-32.2	15.5	0.00e+00	0	43	0	2139095040	38	17641
2026-01-23 22:21:43.58	22.75	7.02	-31.5	-31.9	15.6	0.00e+00	0	43	0	2365587456	38	17184
2026-01-23 22:21:46.61	22.92	7.29	-31.4	-31.8	15.6	0.00e+00	0	43	0	2592079872	38	16880
2026-01-23 22:21:49.64	23.10	7.55	-31.5	-32.0	15.6	0.00e+00	0	43	0	2818572288	38	17225
2026-01-23 22:21:52.67	23.28	7.82	-31.3	-31.7	15.7	0.00e+00	0	43	0	3045064704	38	16795
2026-01-23 22:21:55.70	23.46	8.10	-31.3	-31.7	15.7	0.00e+00	0	43	0	3271557120	38	16748
2026-01-23 22:21:58.73	23.65	8.37	-31.3	-31.7	15.7	0.00e+00	0	43	0	3498049536	38	16719
2026-01-23 22:22:01.76	23.84	8.66	-30.9	-31.4	15.8	0.00e+00	0	43	0	3724541952	38	16131
2026-01-23 22:22:04.79	24.04	8.94	-30.9	-31.4	15.8	0.00e+00	0	43	0	3951034368	38	16102
2026-01-23 22:22:07.82	24.24	9.23	-30.7	-31.2	15.8	0.00e+00	0	43	0	4177526784	36	17645
2026-01-23 22:22:10.85	24.44	9.53	-31.0	-31.4	15.8	0.00e+00	0	43	0	4412407808	36	18103
2026-01-23 22:22:13.88	24.65	9.82	-30.5	-31.0	15.9	0.00e+00	0	43	0	4630511616	36	17288
2026-01-23 22:22:16.91	24.87	10.13	-30.5	-30.9	16.0	0.00e+00	0	43	0	4865392640	36	17140
2026-01-23 22:22:19.94	25.09	10.44	-30.6	-31.0	15.7	0.00e+00	0	43	0	5091885056	36	17217
2026-01-23 22:22:22.97	25.31	10.75	-30.4	-30.9	15.7	0.00e+00	0	44	0	5318377472	36	17015
2026-01-23 22:22:25.99	25.54	11.07	-30.3	-30.7	15.9	0.00e+00	0	44	0	5544869888	36	16726
2026-01-23 22:22:29.02	25.78	11.39	-30.2	-30.6	16.1	0.00e+00	0	44	0	5771362304	36	16572
2026-01-23 22:22:32.05	26.02	11.72	-30.0	-30.4	15.9	0.00e+00	0	44	0	5997854720	36	16205
2026-01-23 22:22:35.08	26.27	12.05	-29.9	-30.3	15.9	0.00e+00	0	44	0	6224347136	36	16000
2026-01-23 22:22:38.11	26.53	12.39	-29.8	-30.3	16.2	0.00e+00	0	44	0	6450839552	34	17915
2026-01-23 22:22:41.14	26.79	12.73	-29.7	-30.1	16.2	0.00e+00	0	44	0	6677331968	34	17588
2026-01-23 22:22:44.16	27.06	13.09	-29.5	-29.9	16.2	0.00e+00	0	44	0	6903824384	34	17198
2026-01-23 22:22:47.19	27.33	13.44	-29.5	-30.0	16.2	0.00e+00	0	44	0	7138705408	34	17223
2026-01-23 22:22:50.22	27.62	13.81	-29.3	-29.7	16.3	0.00e+00	0	44	0	7356809216	34	16796
2026-01-23 22:22:53.25	27.91	14.18	-29.2	-29.6	16.3	0.00e+00	0	44	0	7591690240	34	16576
2026-01-23 22:22:56.28	28.21	14.56	-29.2	-29.7	16.3	0.00e+00	0	44	0	7818182656	34	16654
2026-01-23 22:22:59.31	28.52	14.94	-28.9	-29.3	16.3	0.00e+00	0	44	0	8044675072	34	15971
2026-01-23 22:23:02.34	28.84	15.33	-28.8	-29.2	16.3	0.00e+00	0	44	0	8271167488	34	15781
2026-01-23 22:23:05.36	29.17	15.73	-28.9	-29.3	16.3	0.00e+00	0	44	0	8497659904	32	17998
2026-01-23 22:23:08.38	29.51	16.14	-28.8	-29.3	16.4	0.00e+00	0	44	0	8724152320	32	17897
2026-01-23 22:23:11.41	29.86	16.55	-28.4	-28.9	16.4	0.00e+00	0	44	0	8950644736	32	17069
2026-01-23 22:23:14.45	30.22	16.98	-28.4	-28.8	16.5	0.00e+00	0	44	0	9177137152	32	16916
2026-01-23 22:23:17.48	30.60	17.41	-28.1	-28.6	16.5	0.00e+00	0	44	0	9403629568	32	16531
2026-01-23 22:23:20.50	30.98	17.85	-28.1	-28.5	16.6	0.00e+00	0	44	0	9630121984	32	16391
2026-01-23 22:23:23.53	31.38	18.30	-28.0	-28.4	16.6	0.00e+00	0	44	0	9856614400	32	16154
2026-01-23 22:23:26.56	31.79	18.76	-27.8	-28.3	16.6	0.00e+00	0	44	0	10083106816	32	15915
2026-01-23 22:23:29.59	32.21	19.23	-27.8	-28.2	16.6	0.00e+00	0	44	0	10317987840	30	17803
2026-01-23 22:23:32.62	32.66	19.71	-27.8	-28.2	16.6	0.00e+00	0	44	0	10544480256	30	17803
2026-01-23 22:23:35.65	33.11	20.20	-27.4	-27.9	16.6	0.00e+00	0	44	0	10770972672	30	17086
2026-01-23 22:23:38.68	33.58	20.70	-27.4	-27.9	16.7	0.00e+00	0	44	0	10997465088	30	17035
2026-01-23 22:23:41.71	34.08	21.21	-27.3	-27.7	16.6	0.00e+00	0	44	0	11223957504	30	16746
2026-01-23 22:23:44.74	34.58	21.74	-27.1	-27.6	16.7	0.00e+00	0	44	0	11450449920	30	16539
2026-01-23 22:23:47.78	35.11	22.27	-26.9	-27.3	16.7	0.00e+00	0	44	0	11676942336	30	16043
2026-01-23 22:23:50.81	35.66	22.82	-26.8	-27.3	16.7	0.00e+00	0	44	0	11903434752	30	15945
2026-01-23 22:23:53.83	36.23	23.38	-26.6	-27.0	16.7	0.00e+00	0	44	0	12129927168	28	17373
2026-01-23 22:23:56.86	36.83	23.95	-26.5	-27.0	16.8	0.00e+00	0	44	0	12356419584	28	17267
2026-01-23 22:23:59.89	37.44	24.53	-26.3	-26.8	16.8	0.00e+00	0	44	0	12591300608	28	16841
2026-01-23 22:24:02.92	38.09	25.13	-26.2	-26.6	16.8	0.00e+00	0	44	0	12809404416	28	16564
2026-01-23 22:24:05.94	38.75	25.74	-26.1	-26.5	16.8	0.00e+00	0	44	0	13044285440	28	16389
2026-01-23 22:24:08.97	39.45	26.36	-26.0	-26.5	16.8	0.00e+00	0	44	0	13270777856	28	16320
2026-01-23 22:24:12.00	40.18	27.00	-25.8	-26.3	17.0	0.00e+00	0	44	0	13497270272	28	15890
2026-01-23 22:24:15.02	40.94	27.65	-25.7	-26.1	16.9	0.00e+00	0	44	0	13723762688	26	17558
2026-01-23 22:24:18.05	41.74	28.31	-25.5	-25.9	16.9	0.00e+00	0	44	0	13950255104	26	17169
2026-01-23 22:24:21.08	42.57	28.99	-25.4	-25.8	16.9	0.00e+00	0	44	0	14176747520	26	16952
2026-01-23 22:24:24.11	43.45	29.68	-25.4	-25.8	16.9	0.00e+00	0	44	0	14403239936	26	16970
2026-01-23 22:24:27.14	44.36	30.39	-25.3	-25.7	16.9	0.00e+00	0	44	0	14629732352	26	16805
2026-01-23 22:24:30.17	45.32	31.11	-24.9	-25.3	17.0	0.00e+00	0	44	0	14856224768	26	16035
2026-01-23 22:24:33.20	46.32	31.84	-24.9	-25.3	16.9	0.00e+00	0	44	0	15082717184	26	15987
2026-01-23 22:24:36.23	47.37	32.58	-24.7	-25.2	17.0	0.00e+00	0	44	0	15309209600	24	17676
2026-01-23 22:24:39.25	48.48	33.33	-24.8	-25.2	17.0	0.00e+00	0	44	0	15535702016	24	17738
2026-01-23 22:24:42.29	49.64	34.10	-24.3	-24.8	16.9	0.00e+00	0	44	0	15770583040	24	16880
2026-01-23 22:24:45.31	50.86	34.87	-24.3	-24.8	17.0	0.00e+00	0	44	0	15997075456	24	16837
2026-01-23 22:24:48.34	52.14	35.65	-24.1	-24.6	17.0	0.00e+00	0	44	0	16223567872	24	16522
2026-01-23 22:24:51.37	53.49	36.44	-24.0	-24.5	17.1	0.00e+00	0	44	0	16450060288	24	16353
2026-01-23 22:24:54.40	54.91	37.24	-23.9	-24.3	17.1	0.00e+00	0	44	0	16676552704	24	16017
2026-01-23 22:24:57.42	56.40	38.03	-23.6	-24.1	17.2	0.00e+00	0	44	0	16903045120	22	17494
2026-01-23 22:25:00.45	57.98	38.83	-23.9	-24.3	17.0	0.00e+00	0	44	0	17129537536	22	17973
2026-01-23 22:25:03.48	59.63	39.62	-23.6	-24.0	17.1	0.00e+00	0	44	0	17356029952	22	17362
2026-01-23 22:25:06.51	61.37	40.41	-23.2	-23.7	17.1	0.00e+00	0	44	0	17582522368	22	16722
2026-01-23 22:25:09.54	63.20	41.18	-23.2	-23.7	17.0	0.00e+00	0	44	0	17809014784	22	16646
2026-01-23 22:25:12.57	65.12	41.94	-23.1	-23.5	17.1	0.00e+00	0	44	0	18035507200	22	16377
2026-01-23 22:25:15.59	67.13	42.69	-23.0	-23.4	17.1	0.00e+00	0	44	0	18261999616	22	16238
2026-01-23 22:25:18.62	69.25	43.41	-23.0	-23.4	17.1	0.00e+00	0	44	0	18488492032	22	16199
2026-01-23 22:25:21.65	71.46	44.10	-22.9	-23.3	17.1	0.00e+00	0	44	0	18723373056	22	16000
2026-01-23 22:25:24.68	73.77	44.76	-22.9	-23.4	17.2	0.00e+00	0	44	0	18941476864	20	18037
2026-01-23 22:25:27.71	76.18	45.37	-22.7	-23.2	17.1	0.00e+00	0	44	0	19176357888	20	17606
2026-01-23 22:25:30.74	78.69	45.94	-22.6	-23.1	17.1	0.00e+00	0	44	0	19402850304	20	17497
2026-01-23 22:25:33.77	81.28	46.47	-22.5	-22.9	17.2	0.00e+00	0	44	0	19629342720	20	17167
2026-01-23 22:25:36.80	83.96	46.93	-22.5	-22.9	17.2	0.00e+00	0	44	0	19855835136	20	17139
2026-01-23 22:25:39.83	86.72	47.33	-22.5	-22.9	17.1	0.00e+00	0	44	0	20082327552	20	17119
2026-01-23 22:25:42.86	89.54	47.66	-22.4	-22.8	17.1	0.00e+00	0	44	0	20308819968	20	16986
2026-01-23 22:25:45.89	92.42	47.92	-22.4	-22.9	17.2	0.00e+00	0	44	0	20535312384	20	17045
2026-01-23 22:25:48.92	95.34	48.11	-22.7	-23.1	17.1	0.00e+00	0	44	0	20761804800	20	17565
2026-01-23 22:25:51.95	98.30	48.22	-22.2	-22.6	17.2	0.00e+00	0	44	0	20988297216	20	16602
2026-01-23 22:25:54.97	101.25	48.25	-22.3	-22.8	17.1	0.00e+00	0	44	0	21214789632	20	16855
2026-01-23 22:25:58.00	104.22	48.20	-22.4	-22.8	17.1	0.00e+00	0	44	0	21441282048	20	16940
2026-01-23 22:26:01.02	107.15	48.07	-22.2	-22.7	17.2	0.00e+00	0	44	0	21667774464	20	16709
2026-01-23 22:26:04.05	110.07	47.86	-22.3	-22.8	17.2	0.00e+00	0	44	0	21902655488	20	16898
2026-01-23 22:26:07.08	112.93	47.58	-22.4	-22.9	17.1	0.00e+00	0	44	0	22120759296	20	17060
2026-01-23 22:26:10.11	115.74	47.23	-22.5	-22.9	17.1	0.00e+00	0	44	0	22355640320	20	17134
2026-01-23 22:26:13.13	118.47	46.81	-22.5	-22.9	17.2	0.00e+00	0	44	0	22573744128	20	17140
2026-01-23 22:26:16.16	121.13	46.34	-22.5	-22.9	17.1	0.00e+00	0	44	0	22808625152	20	17194
2026-01-23 22:26:19.19	123.71	45.80	-22.5	-23.0	17.1	0.00e+00	0	44	0	23035117568	20	17226
2026-01-23 22:26:22.21	126.18	45.22	-22.7	-23.1	17.1	0.00e+00	0	44	0	23261609984	20	17572
2026-01-23 22:26:25.24	128.57	44.59	-22.8	-23.2	17.1	0.00e+00	0	44	0	23488102400	20	17797
2026-01-23 22:26:28.27	130.86	43.92	-22.7	-23.2	17.1	0.00e+00	0	44	0	23714594816	20	17665
2026-01-23 22:26:31.30	133.05	43.22	-22.9	-23.3	17.2	0.00e+00	0	44	0	23941087232	20	17984
2026-01-23 22:26:34.33	135.14	42.49	-22.9	-23.4	17.1	0.00e+00	0	44	0	24167579648	20	18085
2026-01-23 22:26:37.36	137.13	41.74	-23.0	-23.5	17.1	0.00e+00	0	44	0	24394072064	20	18296
2026-01-23 22:26:40.38	139.03	40.98	-23.2	-23.7	17.1	0.00e+00	0	44	0	24620564480	20	18689
2026-01-23 22:26:43.41	140.83	40.19	-23.3	-23.7	17.1	0.00e+00	0	44	0	24847056896	20	18825
2026-01-23 22:26:46.45	142.56	39.40	-23.3	-23.7	17.1	0.00e+00	0	44	0	25081937920	20	18857
2026-01-23 22:26:49.47	144.19	38.61	-23.5	-24.0	17.1	0.00e+00	0	44	0	25300041728	20	19387
2026-01-23 22:26:52.50	145.74	37.81	-23.6	-24.0	17.1	0.00e+00	0	44	0	25534922752	20	19472
2026-01-23 22:26:55.53	147.22	37.01	-23.7	-24.1	17.1	0.00e+00	0	44	0	25761415168	20	19685
2026-01-23 22:26:58.56	148.62	36.22	-23.9	-24.3	17.1	0.00e+00	0	44	0	25987907584	22	18002
2026-01-23 22:27:01.59	149.96	35.43	-24.0	-24.5	17.1	0.00e+00	0	44	0	26214400000	22	18324
2026-01-23 22:27:04.62	151.22	34.65	-24.1	-24.6	17.1	0.00e+00	0	44	0	26440892416	22	18557
2026-01-23 22:27:07.65	152.43	33.87	-24.4	-24.8	17.1	0.00e+00	0	44	0	26667384832	22	19078
2026-01-23 22:27:10.68	153.58	33.11	-24.5	-25.0	17.0	0.00e+00	0	44	0	26893877248	22	19379
2026-01-23 22:27:13.70	154.67	32.36	-24.7	-25.1	17.0	0.00e+00	0	44	0	27120369664	22	19713
2026-01-23 22:27:16.73	155.71	31.62	-24.7	-25.2	17.1	0.00e+00	0	44	0	27346862080	22	19785
2026-01-23 22:27:19.76	156.70	30.89	-24.8	-25.3	17.0	0.00e+00	0	44	0	27573354496	24	17816
2026-01-23 22:27:22.79	157.65	30.17	-25.0	-25.5	17.0	0.00e+00	0	44	0	27808235520	24	18311
2026-01-23 22:27:25.82	158.55	29.47	-25.1	-25.6	17.0	0.00e+00	0	44	0	28026339328	24	18491
2026-01-23 22:27:28.84	159.41	28.78	-25.2	-25.7	17.0	0.00e+00	0	44	0	28261220352	24	18705
2026-01-23 22:27:31.88	160.24	28.10	-25.4	-25.8	16.9	0.00e+00	0	44	0	28487712768	24	19030
2026-01-23 22:27:34.90	161.02	27.44	-25.6	-26.1	16.9	0.00e+00	0	44	0	28714205184	24	19598
2026-01-23 22:27:37.93	161.77	26.79	-25.8	-26.3	16.9	0.00e+00	0	44	0	28940697600	26	17882
2026-01-23 22:27:40.96	162.50	26.16	-25.8	-26.2	16.9	0.00e+00	0	44	0	29167190016	26	17753
2026-01-23 22:27:43.99	163.19	25.54	-26.1	-26.6	16.9	0.00e+00	0	44	0	29393682432	26	18452
2026-01-23 22:27:47.02	163.85	24.93	-26.1	-26.6	16.9	0.00e+00	0	44	0	29620174848	26	18484
2026-01-23 22:27:50.05	164.49	24.33	-26.1	-26.6	16.9	0.00e+00	0	44	0	29846667264	26	18540
2026-01-23 22:27:53.07	165.10	23.75	-26.3	-26.7	16.9	0.00e+00	0	44	0	30073159680	26	18849
2026-01-23 22:27:56.10	165.68	23.18	-26.4	-26.9	16.9	0.00e+00	0	44	0	30299652096	26	19177
2026-01-23 22:27:59.13	166.25	22.63	-26.6	-27.0	16.8	0.00e+00	0	44	0	30526144512	26	19453
2026-01-23 22:28:02.14	166.79	22.09	-26.6	-27.1	16.8	0.00e+00	0	44	0	30752636928	28	17517
2026-01-23 22:28:05.17	167.31	21.55	-26.9	-27.4	16.8	0.00e+00	0	44	0	30979129344	28	18112
2026-01-23 22:28:08.20	167.81	21.03	-26.9	-27.4	16.8	0.00e+00	0	44	0	31214010368	28	18047
2026-01-23 22:28:11.22	168.30	20.52	-27.0	-27.5	16.8	0.00e+00	0	44	0	31432114176	28	18359
2026-01-23 22:28:14.25	168.77	20.02	-27.2	-27.7	16.7	0.00e+00	0	44	0	31666995200	28	18706
2026-01-23 22:28:17.28	169.22	19.53	-27.3	-27.7	16.7	0.00e+00	0	44	0	31885099008	28	18801
2026-01-23 22:28:20.30	169.65	19.06	-27.4	-27.8	16.7	0.00e+00	0	44	0	32119980032	28	19027
2026-01-23 22:28:23.33	170.07	18.59	-27.5	-28.0	16.7	0.00e+00	0	44	0	32346472448	28	19429
2026-01-23 22:28:26.35	170.48	18.13	-27.7	-28.2	16.6	0.00e+00	0	44	0	32572964864	28	19812
2026-01-23 22:28:29.37	170.87	17.68	-28.1	-28.5	16.6	0.00e+00	0	44	0	32799457280	30	18377
2026-01-23 22:28:32.40	171.25	17.24	-28.0	-28.5	16.6	0.00e+00	0	44	0	33025949696	30	18222
2026-01-23 22:28:35.43	171.62	16.81	-28.1	-28.5	16.6	0.00e+00	0	44	0	33252442112	30	18386
2026-01-23 22:28:38.46	171.98	16.39	-28.3	-28.8	16.5	0.00e+00	0	44	0	33478934528	30	18952
2026-01-23 22:28:41.49	172.33	15.98	-28.4	-28.8	16.5	0.00e+00	0	44	0	33705426944	30	19036
2026-01-23 22:28:44.52	172.66	15.57	-28.5	-29.0	16.4	0.00e+00	0	44	0	33931919360	30	19385
2026-01-23 22:28:47.54	172.99	15.17	-28.6	-29.1	16.3	0.00e+00	0	44	0	34158411776	30	19618
2026-01-23 22:28:50.57	173.30	14.78	-28.7	-29.2	16.1	0.00e+00	0	44	0	34384904192	32	17679
2026-01-23 22:28:53.60	173.61	14.40	-50.9	-53.4	3.5	0.00e+00	0	44	104	34594619392	60	57541
2026-01-23 22:28:56.62	173.91	14.02	-51.0	-53.5	3.5	0.00e+00	0	44	104	34594619392	60	57737
2026-01-23 22:28:59.65	174.20	13.65	-51.0	-53.4	3.6	0.00e+00	0	44	104	34594619392	60	57339
2026-01-23 22:29:02.68	174.48	13.29	-50.9	-53.4	3.6	0.00e+00	0	44	104	34594619392	60	57259
2026-01-23 22:29:05.71	174.75	12.93	-50.9	-53.3	3.6	0.00e+00	0	44	104	34594619392	60	56796
2026-01-23 22:29:08.74	175.02	12.58	-50.9	-53.3	3.6	0.00e+00	0	44	104	34594619392	60	56756
2026-01-23 22:29:11.77	175.28	12.24	-50.8	-53.3	3.6	0.00e+00	0	44	104	34594619392	60	56712
2026-01-23 22:29:14.80	175.53	11.90	-50.8	-53.3	3.6	0.00e+00	0	44	104	34594619392	60	56856
2026-01-23 22:29:17.82	175.78	11.57	-50.8	-53.3	3.6	0.00e+00	0	44	104	34594619392	60	56491
2026-01-23 22:29:20.85	176.02	11.24	-50.8	-53.3	3.6	0.00e+00	0	44	104	34594619392	60	56575
2026-01-23 22:29:23.88	176.25	10.92	-50.5	-53.0	3.6	0.00e+00	0	44	104	34594619392	60	54568
2026-01-23 22:29:26.91	176.48	10.60	-50.5	-53.1	3.6	0.00e+00	0	44	104	34594619392	60	55390
2026-01-23 22:29:29.94	176.70	10.29	-50.6	-53.2	3.6	0.00e+00	0	44	104	34594619392	60	55808
2026-01-23 22:29:32.97	176.92	9.98	-50.7	-53.1	3.6	0.00e+00	0	44	104	34594619392	60	55641
2026-01-23 22:29:36.00	177.13	9.68	-50.7	-53.2	3.5	0.00e+00	0	44	104	34594619392	60	56124
2026-01-23 22:29:39.03	177.34	9.38	-50.8	-53.3	3.6	0.00e+00	0	44	104	34594619392	60	56427
2026-01-23 22:29:42.06	177.54	9.09	-50.7	-53.2	3.6	0.00e+00	0	44	104	34594619392	60	56042
2026-01-23 22:29:45.09	177.74	8.80	-50.7	-53.2	3.6	0.00e+00	0	44	104	34594619392	60	56175
2026-01-23 22:29:48.12	177.93	8.51	-50.5	-53.0	3.6	0.00e+00	0	44	104	34594619392	60	54679
2026-01-23 22:29:51.15	178.12	8.23	-50.7	-53.2	3.6	0.00e+00	0	44	104	34594619392	60	55810
2026-01-23 22:29:54.18	178.30	7.95	-50.6	-53.1	3.6	0.00e+00	0	44	104	34594619392	60	55215
2026-01-23 22:29:57.21	178.48	7.68	-50.5	-53.1	3.6	0.00e+00	0	44	104	34594619392	60	55176
2026-01-23 22:30:00.23	178.66	7.41	-50.6	-53.1	3.6	0.00e+00	0	44	104	34594619392	60	55091
2026-01-23 22:30:03.26	178.83	7.15	-50.6	-53.1	3.6	0.00e+00	0	44	104	34594619392	60	55268
2026-01-23 22:30:06.29	179.00	6.88	-50.6	-53.1	3.6	0.00e+00	0	44	104	34594619392	60	55155
2026-01-23 22:30:09.32	179.17	6.62	-50.6	-53.1	3.6	0.00e+00	0	44	104	34594619392	60	55218
2026-01-23 22:30:12.35	179.33	6.37	-50.4	-52.9	3.6	0.00e+00	0	44	104	34594619392	60	54218
2026-01-23 22:30:15.38	179.49	6.11	-50.4	-52.9	3.5	0.00e+00	0	44	104	34594619392	60	54301
2026-01-23 22:30:18.40	179.64	5.87	-50.2	-52.8	3.6	0.00e+00	0	44	104	34594619392	60	53273
2026-01-23 22:30:21.43	179.80	5.62	-50.3	-52.8	3.6	0.00e+00	0	44	104	34594619392	60	53597
2026-01-23 22:30:24.46	179.95	5.37	-50.5	-52.9	3.6	0.00e+00	0	44	104	34594619392	60	54348
2026-01-23 22:30:27.49	180.09	5.13	-50.5	-53.0	3.6	0.00e+00	0	44	104	34594619392	60	54455
2026-01-23 22:30:30.51	180.24	4.90	-50.4	-52.9	3.6	0.00e+00	0	44	104	34594619392	60	54392
2026-01-23 22:30:33.55	180.38	4.66	-50.5	-53.0	3.6	0.00e+00	0	44	104	34594619392	60	54683
2026-01-23 22:30:36.57	180.52	4.43	-50.3	-52.9	3.6	0.00e+00	0	44	104	34594619392	60	53784
2026-01-23 22:30:39.60	180.65	4.20	-50.1	-52.6	3.6	0.00e+00	0	44	104	34594619392	60	52530
2026-01-23 22:30:42.63	180.79	3.97	-49.8	-52.4	3.6	0.00e+00	0	44	104	34594619392	60	50786
2026-01-23 22:30:45.65	180.92	3.74	-50.0	-52.5	3.6	0.00e+00	0	44	104	34594619392	60	51521
2026-01-23 22:30:48.68	181.05	3.52	-49.9	-52.4	3.6	0.00e+00	0	44	104	34594619392	60	51173
2026-01-23 22:30:51.71	181.17	3.30	-49.8	-52.4	3.6	0.00e+00	0	44	104	34594619392	60	51218
2026-01-23 22:30:54.73	181.30	3.08	-50.1	-52.6	3.6	0.00e+00	0	44	104	34594619392	60	52298
2026-01-23 22:30:57.76	181.42	2.86	-50.1	-52.8	3.6	0.00e+00	0	44	104	34594619392	60	53298
2026-01-23 22:31:00.79	181.54	2.65	-51.2	-53.7	3.6	0.00e+00	0	44	104	34594619392	60	59375
2026-01-23 22:31:03.82	181.66	2.44	-51.4	-53.9	3.6	0.00e+00	0	44	104	34594619392	60	60759
2026-01-23 22:31:06.85	181.78	2.23	-51.5	-54.0	3.6	0.00e+00	0	44	104	34594619392	60	61632
2026-01-23 22:31:09.88	181.89	2.02	-51.6	-54.0	3.6	0.00e+00	0	44	104	34594619392	60	61347
2026-01-23 22:31:12.90	182.00	1.81	-51.6	-54.0	3.6	0.00e+00	0	44	104	34594619392	60	61717
2026-01-23 22:31:15.94	182.11	1.61	-51.6	-54.1	3.6	0.00e+00	0	44	104	34594619392	60	62234
2026-01-23 22:31:18.97	182.22	1.40	-51.8	-54.2	3.6	0.00e+00	0	44	104	34594619392	60	63109
2026-01-23 22:31:22.00	182.33	1.20	-51.8	-54.3	3.6	0.00e+00	0	44	104	34594619392	60	63425
2026-01-23 22:31:25.03	182.44	1.00	-51.8	-54.3	3.6	0.00e+00	0	44	104	34594619392	60	63272
2026-01-23 22:31:28.05	182.54	0.81	-51.8	-54.2	3.6	0.00e+00	0	44	104	34594619392	60	62935
2026-01-23 22:31:31.09	182.64	0.61	-51.8	-54.2	3.5	0.00e+00	0	44	104	34594619392	60	62960
2026-01-23 22:31:34.12	182.74	0.42	-51.8	-54.2	3.6	0.00e+00	0	44	104	34594619392	60	62827
2026-01-23 22:31:37.15	182.84	0.22	-51.8	-54.2	3.6	0.00e+00	0	44	104	34594619392	60	63042
2026-01-23 22:31:40.18	182.94	0.03	-51.7	-54.2	3.6	0.00e+00	0	44	104	34594619392	60	62864
2026-01-23 22:31:43.21	183.04	-0.16	-51.7	-54.2	3.6	0.00e+00	0	43	104	34594619392	60	63090

#Closed at: 2026-01-23 22:31:43
#Recorded file [34594 MB]: D:/lorett/data/35029_260124_102012.dat