passes_logs/2026/01/23/R4.6S_Anadyr/R4.6S_Anadyr__20260123_203249_SUOMI_NPP_rec.log

#Pass ID: 20260123_203249_SUOMI NPP
#Satellite: SUOMI NPP
#Configuration: NPP
#almurnet v.1.7.20251203
#Start time: 2026-01-23 20:32:50

#Version: 2.2.20231116
#Station: R4.6S_Anadyr
#Location: 177.4865 lon 64.73178 lat
#TLE: 1 37849U 11061A   26022.92790088  .00000200  00000+0  11571-3 0  9994
#TLE: 2 37849  98.7820 324.9085 0002258  50.1112 310.0263 14.19528452737839

#Time	Az	El	Level	Level2	SNR	BER	BlckErr	Temp	State	Recorded	gain1	gain2
2026-01-23 20:32:50.98	70.69	0.06	-50.9	-62.7	3.5	8.46e-01	0	39	0	0	60	49168
2026-01-23 20:32:54.00	70.47	0.21	-50.9	-66.1	3.6	1.51e+00	0	40	104	0	60	73345
2026-01-23 20:32:57.04	70.25	0.36	-50.9	-66.1	3.6	1.51e+00	0	40	104	0	60	73202
2026-01-23 20:33:00.07	70.03	0.52	-50.9	-66.1	3.6	1.51e+00	0	40	104	0	60	73129
2026-01-23 20:33:03.09	69.80	0.67	-50.9	-66.1	3.6	1.51e+00	0	40	104	0	60	73074
2026-01-23 20:33:06.12	69.58	0.82	-50.9	-66.1	3.6	1.51e+00	0	40	104	0	60	72889
2026-01-23 20:33:09.15	69.35	0.97	-50.9	-66.1	3.6	1.51e+00	0	40	104	0	60	72889
2026-01-23 20:33:12.18	69.11	1.13	-50.9	-66.1	3.6	1.51e+00	0	40	104	0	60	73100
2026-01-23 20:33:15.20	68.88	1.28	-50.9	-66.1	3.6	1.51e+00	0	40	104	0	60	73101
2026-01-23 20:33:18.23	68.64	1.43	-50.9	-66.1	3.6	1.51e+00	0	40	104	0	60	72976
2026-01-23 20:33:21.26	68.40	1.59	-50.9	-66.1	3.6	1.51e+00	0	40	104	0	60	73056
2026-01-23 20:33:24.29	68.16	1.74	-50.9	-66.1	3.6	1.51e+00	0	40	104	0	60	73198
2026-01-23 20:33:27.33	67.91	1.90	-50.9	-66.1	3.6	1.51e+00	0	41	104	0	60	73279
2026-01-23 20:33:30.36	67.66	2.05	-50.9	-66.1	3.6	1.51e+00	0	41	104	0	60	73207
2026-01-23 20:33:33.39	67.41	2.21	-50.9	-66.1	3.6	1.51e+00	0	41	104	0	60	72972
2026-01-23 20:33:36.42	67.16	2.36	-50.9	-66.1	3.6	1.51e+00	0	41	104	0	60	73041
2026-01-23 20:33:39.45	66.90	2.52	-50.9	-66.2	3.6	1.51e+00	0	41	104	0	60	73582
2026-01-23 20:33:42.48	66.64	2.67	-50.9	-66.2	3.6	1.51e+00	0	41	104	0	60	73386
2026-01-23 20:33:45.51	66.38	2.83	-50.9	-66.1	3.6	1.51e+00	0	41	104	0	60	73074
2026-01-23 20:33:48.54	66.11	2.99	-50.9	-66.2	3.5	1.51e+00	0	41	104	0	60	73447
2026-01-23 20:33:51.57	65.85	3.14	-50.9	-66.1	3.6	1.51e+00	0	41	104	0	60	73195
2026-01-23 20:33:54.60	65.57	3.30	-50.9	-66.1	3.6	1.51e+00	0	41	104	0	60	73156
2026-01-23 20:33:57.62	65.30	3.46	-50.9	-66.1	3.6	1.51e+00	0	41	104	0	60	73281
2026-01-23 20:34:00.65	65.02	3.62	-50.9	-66.2	3.5	1.51e+00	0	41	104	0	60	73449
2026-01-23 20:34:03.68	64.74	3.78	-50.9	-66.1	3.6	1.51e+00	0	41	104	0	60	73374
2026-01-23 20:34:06.71	64.46	3.94	-50.9	-66.1	3.6	1.51e+00	0	41	104	0	60	73243
2026-01-23 20:34:09.74	64.17	4.09	-50.9	-66.2	3.6	1.51e+00	0	41	104	0	60	73529
2026-01-23 20:34:12.76	63.88	4.25	-50.9	-66.2	3.6	1.51e+00	0	41	104	0	60	73396
2026-01-23 20:34:15.80	63.59	4.41	-50.9	-66.1	3.6	1.51e+00	0	41	104	0	60	72969
2026-01-23 20:34:18.83	63.29	4.57	-50.9	-66.1	3.6	1.51e+00	0	41	104	0	60	73187
2026-01-23 20:34:21.86	62.99	4.73	-50.9	-66.1	3.6	1.51e+00	0	41	104	0	60	73179
2026-01-23 20:34:24.89	62.69	4.89	-50.9	-66.2	3.6	1.51e+00	0	41	104	0	60	73692
2026-01-23 20:34:27.92	62.38	5.05	-50.9	-66.2	3.6	1.51e+00	0	41	104	0	60	73702
2026-01-23 20:34:30.95	62.07	5.21	-50.9	-66.2	3.6	1.51e+00	0	41	104	0	60	73480
2026-01-23 20:34:33.98	61.76	5.38	-50.9	-66.1	3.6	1.51e+00	0	41	104	0	60	72865
2026-01-23 20:34:37.01	61.44	5.54	-50.9	-66.1	3.6	1.51e+00	0	41	104	0	60	73209
2026-01-23 20:34:40.03	61.12	5.70	-50.9	-66.1	3.6	1.51e+00	0	41	104	0	60	73235
2026-01-23 20:34:43.07	60.80	5.86	-50.9	-66.2	3.6	1.51e+00	0	41	104	0	60	73422
2026-01-23 20:34:46.10	60.47	6.02	-50.9	-66.1	3.6	1.51e+00	0	41	104	0	60	73352
2026-01-23 20:34:49.13	60.14	6.18	-50.9	-66.1	3.6	1.51e+00	0	41	104	0	60	73331
2026-01-23 20:34:52.16	59.80	6.34	-50.9	-66.2	3.6	1.51e+00	0	41	104	0	60	73558
2026-01-23 20:34:55.19	59.46	6.50	-50.9	-66.2	3.6	1.51e+00	0	41	104	0	60	73473
2026-01-23 20:34:58.21	59.12	6.67	-50.9	-66.2	3.6	1.51e+00	0	41	104	0	60	73451
2026-01-23 20:35:01.24	58.77	6.83	-50.9	-66.2	3.6	1.51e+00	0	41	104	0	60	73508
2026-01-23 20:35:04.27	58.42	6.99	-50.9	-66.1	3.6	1.51e+00	0	41	104	0	60	73346
2026-01-23 20:35:07.30	58.06	7.15	-50.9	-66.2	3.6	1.51e+00	0	41	104	0	60	73406
2026-01-23 20:35:10.33	57.70	7.31	-50.9	-66.1	3.6	1.51e+00	0	41	104	0	60	72947
2026-01-23 20:35:13.36	57.34	7.47	-50.9	-66.2	3.6	1.51e+00	0	41	104	0	60	73553
2026-01-23 20:35:16.39	56.97	7.63	-50.9	-66.2	3.6	1.51e+00	0	41	104	0	60	73425
2026-01-23 20:35:19.42	56.60	7.80	-50.9	-66.1	3.6	1.51e+00	0	41	104	0	60	73161
2026-01-23 20:35:22.45	56.22	7.96	-50.9	-66.1	3.5	1.51e+00	0	41	104	0	60	72584
2026-01-23 20:35:25.48	55.84	8.12	-50.9	-66.1	3.6	1.51e+00	0	41	104	0	60	72999
2026-01-23 20:35:28.51	55.46	8.28	-50.9	-66.1	3.6	1.51e+00	0	41	104	0	60	73214
2026-01-23 20:35:31.54	55.07	8.44	-50.9	-66.1	3.6	1.51e+00	0	41	104	0	60	73027
2026-01-23 20:35:34.57	54.67	8.60	-50.9	-66.1	3.6	1.51e+00	0	41	104	0	60	73183
2026-01-23 20:35:37.59	54.28	8.76	-50.9	-66.1	3.6	1.51e+00	0	41	104	0	60	72945
2026-01-23 20:35:40.62	53.87	8.92	-50.9	-66.1	3.6	1.51e+00	0	41	104	0	60	73233
2026-01-23 20:35:43.65	53.47	9.08	-50.9	-66.1	3.6	1.51e+00	0	41	104	0	60	73175
2026-01-23 20:35:46.68	53.06	9.24	-50.9	-66.1	3.6	1.51e+00	0	41	104	0	60	73339
2026-01-23 20:35:49.71	52.64	9.40	-50.9	-66.1	3.6	1.51e+00	0	41	104	0	60	72931
2026-01-23 20:35:52.73	52.22	9.55	-50.9	-66.1	3.6	1.51e+00	0	41	104	0	60	73241
2026-01-23 20:35:55.77	51.79	9.71	-50.9	-66.1	3.6	1.51e+00	0	41	104	0	60	73184
2026-01-23 20:35:58.80	51.36	9.87	-50.9	-66.1	3.6	1.51e+00	0	41	104	0	60	73103
2026-01-23 20:36:01.82	50.93	10.02	-50.9	-66.1	3.6	1.51e+00	0	41	104	0	60	73186
2026-01-23 20:36:04.85	50.49	10.18	-50.9	-66.1	3.6	1.51e+00	0	41	104	0	60	73355
2026-01-23 20:36:07.88	50.04	10.34	-50.9	-66.1	3.6	1.51e+00	0	41	104	0	60	72954
2026-01-23 20:36:10.91	49.60	10.49	-50.9	-66.1	3.6	1.51e+00	0	41	104	0	60	72783
2026-01-23 20:36:13.94	49.14	10.64	-50.9	-66.1	3.6	1.51e+00	0	41	104	0	60	72814
2026-01-23 20:36:16.97	48.68	10.80	-50.9	-66.1	3.6	1.51e+00	0	41	104	0	60	72974
2026-01-23 20:36:20.00	48.22	10.95	-50.9	-66.1	3.6	1.51e+00	0	41	104	0	60	72776
2026-01-23 20:36:23.02	47.75	11.10	-50.9	-66.1	3.6	1.51e+00	0	41	104	0	60	73186
2026-01-23 20:36:26.05	47.28	11.25	-50.9	-66.1	3.6	1.51e+00	0	41	104	0	60	72844
2026-01-23 20:36:29.08	46.80	11.40	-50.9	-66.1	3.6	1.51e+00	0	41	104	0	60	73191
2026-01-23 20:36:32.11	46.32	11.55	-50.9	-66.1	3.6	1.51e+00	0	41	104	0	60	73199
2026-01-23 20:36:34.86	45.87	11.68	-50.9	-66.1	3.6	1.51e+00	0	41	104	0	60	73104
2026-01-23 20:36:38.18	45.33	11.84	-50.9	-66.1	3.6	1.51e+00	0	41	104	0	60	72864
2026-01-23 20:36:40.92	44.88	11.97	-50.9	-66.1	3.6	1.51e+00	0	41	104	0	60	72878
2026-01-23 20:36:44.24	44.33	12.13	-50.9	-66.1	3.6	1.51e+00	0	41	104	0	60	72617
2026-01-23 20:36:46.98	43.87	12.26	-50.9	-66.1	3.6	1.51e+00	0	41	104	0	60	73145
2026-01-23 20:36:50.30	43.31	12.41	-50.9	-66.1	3.6	1.51e+00	0	41	104	0	60	73147
2026-01-23 20:36:53.04	42.84	12.53	-50.9	-66.1	3.6	1.51e+00	0	41	104	0	60	73129
2026-01-23 20:36:56.36	42.27	12.68	-50.9	-66.1	3.6	1.51e+00	0	41	104	0	60	72984
2026-01-23 20:36:59.10	41.79	12.81	-50.9	-66.1	3.6	1.51e+00	0	41	104	0	60	73315
2026-01-23 20:37:02.42	41.21	12.95	-50.9	-66.1	3.6	1.51e+00	0	41	104	0	60	72984
2026-01-23 20:37:05.16	40.72	13.07	-50.9	-66.1	3.6	1.51e+00	0	41	104	0	60	72725
2026-01-23 20:37:08.47	40.13	13.22	-50.9	-66.1	3.6	1.51e+00	0	41	104	0	60	73129
2026-01-23 20:37:11.22	39.63	13.33	-50.9	-66.1	3.6	1.51e+00	0	41	104	0	60	73301
2026-01-23 20:37:14.54	39.02	13.47	-50.9	-66.1	3.6	1.51e+00	0	41	104	0	60	73244
2026-01-23 20:37:17.28	38.52	13.58	-50.9	-66.1	3.5	1.51e+00	0	41	104	0	60	73173
2026-01-23 20:37:20.60	37.91	13.72	-50.9	-66.1	3.6	1.51e+00	0	41	104	0	60	72960
2026-01-23 20:37:23.34	37.39	13.83	-50.9	-66.1	3.6	1.51e+00	0	41	104	0	60	73141
2026-01-23 20:37:26.66	36.77	13.96	-50.9	-66.1	3.6	1.51e+00	0	41	104	0	60	73091
2026-01-23 20:37:29.40	36.25	14.06	-50.9	-66.0	3.6	1.51e+00	0	41	104	0	60	72340
2026-01-23 20:37:32.72	35.61	14.19	-50.9	-66.1	3.6	1.51e+00	0	41	104	0	60	72886
2026-01-23 20:37:35.46	35.08	14.29	-50.9	-66.1	3.6	1.51e+00	0	41	104	0	60	73057
2026-01-23 20:37:38.78	34.44	14.41	-50.9	-66.1	3.6	1.51e+00	0	41	104	0	60	73018
2026-01-23 20:37:41.52	33.90	14.50	-50.9	-66.1	3.6	1.51e+00	0	41	104	0	60	72949
2026-01-23 20:37:44.84	33.25	14.61	-50.9	-66.1	3.6	1.51e+00	0	41	104	0	60	72590
2026-01-23 20:37:47.58	32.70	14.71	-50.9	-66.1	3.5	1.51e+00	0	41	104	0	60	72811
2026-01-23 20:37:50.90	32.04	14.81	-50.9	-66.1	3.6	1.51e+00	0	41	104	0	60	73130
2026-01-23 20:37:53.64	31.49	14.90	-50.9	-66.2	3.6	1.51e+00	0	41	104	0	60	73431
2026-01-23 20:37:56.96	30.81	15.00	-50.9	-66.1	3.6	1.51e+00	0	41	104	0	60	73005
2026-01-23 20:37:59.70	30.26	15.08	-50.9	-66.1	3.5	1.51e+00	0	41	104	0	60	72807
2026-01-23 20:38:03.01	29.58	15.17	-50.9	-66.1	3.6	1.51e+00	0	41	104	0	60	72899
2026-01-23 20:38:05.76	29.01	15.25	-50.9	-66.1	3.6	1.51e+00	0	41	104	0	60	72864
2026-01-23 20:38:09.07	28.33	15.34	-50.9	-66.1	3.6	1.51e+00	0	41	104	0	60	72901
2026-01-23 20:38:11.82	27.75	15.41	-50.9	-66.1	3.6	1.51e+00	0	41	104	0	60	73099
2026-01-23 20:38:15.13	27.06	15.49	-50.9	-66.1	3.6	1.51e+00	0	41	104	0	60	73009
2026-01-23 20:38:17.87	26.48	15.55	-50.9	-66.1	3.6	1.51e+00	0	41	104	0	60	73002
2026-01-23 20:38:21.20	25.78	15.62	-50.9	-66.1	3.6	1.51e+00	0	41	104	0	60	73161
2026-01-23 20:38:23.94	25.20	15.68	-50.9	-66.1	3.6	1.51e+00	0	41	104	0	60	73278
2026-01-23 20:38:27.26	24.49	15.74	-50.9	-66.1	3.6	1.51e+00	0	41	104	0	60	72879
2026-01-23 20:38:30.00	23.90	15.79	-50.9	-66.1	3.6	1.51e+00	0	41	104	0	60	72939
2026-01-23 20:38:33.31	23.19	15.85	-50.9	-66.1	3.6	1.51e+00	0	41	104	0	60	72737
2026-01-23 20:38:36.06	22.60	15.90	-50.9	-66.1	3.6	1.51e+00	0	41	104	0	60	72998
2026-01-23 20:38:39.37	21.88	15.94	-50.9	-66.1	3.6	1.51e+00	0	41	104	0	60	73173
2026-01-23 20:38:42.11	21.29	15.98	-50.9	-66.1	3.6	1.51e+00	0	41	104	0	60	73153
2026-01-23 20:38:45.42	20.57	16.02	-50.9	-66.1	3.6	1.51e+00	0	41	104	0	60	73193
2026-01-23 20:38:48.17	19.97	16.05	-50.9	-66.1	3.6	1.51e+00	0	41	104	0	60	72926
2026-01-23 20:38:51.49	19.25	16.09	-50.9	-66.1	3.6	1.51e+00	0	41	104	0	60	72607
2026-01-23 20:38:54.22	18.65	16.11	-50.9	-66.1	3.6	1.51e+00	0	41	104	0	60	73263
2026-01-23 20:38:57.54	17.92	16.13	-50.9	-66.1	3.6	1.51e+00	0	41	104	0	60	72692
2026-01-23 20:39:00.28	17.32	16.15	-50.9	-66.0	3.6	1.51e+00	0	41	104	0	60	72389
2026-01-23 20:39:03.60	16.59	16.16	-50.9	-66.1	3.6	1.51e+00	0	41	104	0	60	72871
2026-01-23 20:39:06.34	15.99	16.17	-50.9	-66.1	3.6	1.51e+00	0	41	104	0	60	73036
2026-01-23 20:39:09.65	15.26	16.18	-50.9	-66.1	3.6	1.51e+00	0	41	104	0	60	72771
2026-01-23 20:39:12.40	14.66	16.18	-50.9	-66.1	3.6	1.51e+00	0	41	104	0	60	72903
2026-01-23 20:39:15.71	13.93	16.18	-50.9	-66.1	3.6	1.51e+00	0	41	104	0	60	73052
2026-01-23 20:39:18.45	13.33	16.18	-50.9	-66.1	3.6	1.51e+00	0	41	104	0	60	72730
2026-01-23 20:39:21.77	12.60	16.17	-50.9	-66.1	3.6	1.51e+00	0	41	104	0	60	73037
2026-01-23 20:39:24.51	11.99	16.15	-50.9	-66.1	3.6	1.51e+00	0	41	104	0	60	72774
2026-01-23 20:39:27.83	11.27	16.14	-50.9	-66.1	3.6	1.51e+00	0	41	104	0	60	72835
2026-01-23 20:39:30.57	10.67	16.12	-50.9	-66.1	3.6	1.51e+00	0	41	104	0	60	73016
2026-01-23 20:39:33.89	9.94	16.09	-50.9	-66.1	3.6	1.51e+00	0	41	104	0	60	72952
2026-01-23 20:39:36.63	9.34	16.06	-50.9	-66.1	3.6	1.51e+00	0	41	104	0	60	73142
2026-01-23 20:39:39.95	8.62	16.03	-50.9	-66.1	3.6	1.51e+00	0	41	104	0	60	72842
2026-01-23 20:39:42.69	8.02	15.99	-50.9	-66.1	3.6	1.51e+00	0	41	104	0	60	72743
2026-01-23 20:39:46.01	7.30	15.95	-50.9	-66.1	3.6	1.51e+00	0	41	104	0	60	72999
2026-01-23 20:39:48.75	6.71	15.91	-50.9	-66.1	3.6	1.51e+00	0	41	104	0	60	72764
2026-01-23 20:39:52.07	5.99	15.86	-50.9	-66.1	3.6	1.51e+00	0	41	104	0	60	72824
2026-01-23 20:39:54.81	5.41	15.81	-50.9	-66.1	3.6	1.51e+00	0	41	104	0	60	73124
2026-01-23 20:39:58.13	4.69	15.75	-50.9	-66.1	3.6	1.51e+00	0	41	104	0	60	73326
2026-01-23 20:40:00.87	4.11	15.70	-50.9	-66.1	3.6	1.51e+00	0	41	104	0	60	73266
2026-01-23 20:40:04.19	3.41	15.63	-50.9	-66.1	3.6	1.51e+00	0	41	104	0	60	73270
2026-01-23 20:40:06.93	2.83	15.57	-50.9	-66.1	3.6	1.51e+00	0	41	104	0	60	73079
2026-01-23 20:40:10.24	2.13	15.50	-50.9	-66.1	3.6	1.51e+00	0	41	104	0	60	72998
2026-01-23 20:40:12.98	1.56	15.43	-50.9	-66.1	3.6	1.51e+00	0	41	104	0	60	72668
2026-01-23 20:40:16.30	0.86	15.35	-50.9	-66.1	3.6	1.51e+00	0	41	104	0	60	73220
2026-01-23 20:40:19.04	0.30	15.28	-50.9	-66.1	3.6	1.51e+00	0	41	104	0	60	72542
2026-01-23 20:40:22.36	359.61	15.19	-50.9	-66.1	3.6	1.51e+00	0	41	104	0	60	73009
2026-01-23 20:40:25.10	359.05	15.11	-50.9	-66.1	3.6	1.51e+00	0	41	104	0	60	73015
2026-01-23 20:40:28.42	358.37	15.01	-50.9	-66.1	3.6	1.51e+00	0	41	104	0	60	72905
2026-01-23 20:40:31.16	357.82	14.93	-50.9	-66.1	3.6	1.51e+00	0	41	104	0	60	72916
2026-01-23 20:40:34.48	357.15	14.83	-50.9	-66.1	3.6	1.51e+00	0	41	104	0	60	72806
2026-01-23 20:40:37.22	356.60	14.74	-50.9	-66.1	3.6	1.51e+00	0	41	104	0	60	72984
2026-01-23 20:40:40.53	355.94	14.63	-50.9	-66.1	3.6	1.51e+00	0	41	104	0	60	73045
2026-01-23 20:40:43.28	355.40	14.54	-50.9	-66.1	3.6	1.51e+00	0	41	104	0	60	73054
2026-01-23 20:40:46.60	354.75	14.42	-50.9	-66.1	3.6	1.51e+00	0	41	104	0	60	73048
2026-01-23 20:40:49.34	354.22	14.33	-50.9	-66.1	3.6	1.51e+00	0	41	104	0	60	72980
2026-01-23 20:40:52.66	353.58	14.20	-50.9	-66.1	3.6	1.51e+00	0	41	104	0	60	72770
2026-01-23 20:40:55.40	353.05	14.10	-50.9	-66.1	3.6	1.51e+00	0	41	104	0	60	73196
2026-01-23 20:40:58.72	352.42	13.98	-50.9	-66.0	3.6	1.51e+00	0	41	104	0	60	72349
2026-01-23 20:41:01.46	351.90	13.87	-50.9	-66.1	3.6	1.51e+00	0	41	104	0	60	72982
2026-01-23 20:41:04.78	351.28	13.74	-50.9	-66.1	3.6	1.51e+00	0	41	104	0	60	72802
2026-01-23 20:41:07.52	350.78	13.63	-50.9	-66.1	3.6	1.51e+00	0	41	104	0	60	72744
2026-01-23 20:41:10.84	350.17	13.49	-50.9	-66.1	3.6	1.51e+00	0	41	104	0	60	73371
2026-01-23 20:41:13.58	349.67	13.38	-50.9	-66.1	3.6	1.51e+00	0	41	104	0	60	72856
2026-01-23 20:41:16.90	349.07	13.24	-50.9	-66.1	3.6	1.51e+00	0	41	104	0	60	73139
2026-01-23 20:41:19.64	348.57	13.12	-50.9	-66.1	3.6	1.51e+00	0	41	104	0	60	72825
2026-01-23 20:41:22.96	347.99	12.98	-50.9	-66.1	3.6	1.51e+00	0	41	104	0	60	73074
2026-01-23 20:41:25.70	347.50	12.86	-50.9	-66.1	3.6	1.51e+00	0	41	104	0	60	72769
2026-01-23 20:41:29.02	346.92	12.71	-50.9	-66.1	3.6	1.51e+00	0	41	104	0	60	72778
2026-01-23 20:41:31.76	346.45	12.58	-50.9	-66.1	3.6	1.51e+00	0	41	104	0	60	72623
2026-01-23 20:41:35.07	345.89	12.43	-50.9	-66.1	3.5	1.51e+00	0	41	104	0	60	73214
2026-01-23 20:41:37.81	345.42	12.31	-50.9	-66.1	3.5	1.51e+00	0	41	104	0	60	72894
2026-01-23 20:41:41.13	344.86	12.15	-50.9	-66.1	3.6	1.51e+00	0	41	104	0	60	72955
2026-01-23 20:41:43.86	344.41	12.02	-50.9	-66.1	3.6	1.51e+00	0	41	104	0	60	72900
2026-01-23 20:41:47.18	343.86	11.87	-50.9	-66.1	3.6	1.51e+00	0	41	104	0	60	72925
2026-01-23 20:41:49.92	343.42	11.73	-50.9	-66.1	3.6	1.51e+00	0	41	104	0	60	72900
2026-01-23 20:41:53.24	342.88	11.57	-50.9	-66.1	3.6	1.51e+00	0	41	104	0	60	72805
2026-01-23 20:41:55.98	342.45	11.44	-50.9	-66.1	3.6	1.51e+00	0	41	104	0	60	72887
2026-01-23 20:41:59.30	341.92	11.28	-50.9	-66.1	3.6	1.51e+00	0	41	104	0	60	72895
2026-01-23 20:42:02.04	341.49	11.14	-50.9	-66.1	3.6	1.51e+00	0	41	104	0	60	72856
2026-01-23 20:42:05.36	340.98	10.98	-50.9	-66.1	3.6	1.51e+00	0	41	104	0	60	72787
2026-01-23 20:42:08.10	340.56	10.84	-50.9	-66.1	3.6	1.51e+00	0	41	104	0	60	73218
2026-01-23 20:42:11.42	340.06	10.67	-50.9	-66.1	3.6	1.51e+00	0	41	104	0	60	72862
2026-01-23 20:42:14.16	339.65	10.53	-50.9	-66.2	3.6	1.51e+00	0	41	104	0	60	73499
2026-01-23 20:42:17.48	339.15	10.37	-50.9	-66.1	3.6	1.51e+00	0	41	104	0	60	72591
2026-01-23 20:42:20.22	338.75	10.23	-50.9	-66.1	3.6	1.51e+00	0	41	104	0	60	73086
2026-01-23 20:42:23.54	338.27	10.06	-50.9	-66.1	3.6	1.51e+00	0	41	104	0	60	73015
2026-01-23 20:42:26.28	337.88	9.91	-50.9	-66.1	3.6	1.51e+00	0	41	104	0	60	73035
2026-01-23 20:42:29.60	337.41	9.74	-50.9	-66.1	3.6	1.51e+00	0	41	104	0	60	72843
2026-01-23 20:42:32.35	337.02	9.60	-50.9	-66.1	3.6	1.51e+00	0	41	104	0	60	72710
2026-01-23 20:42:35.67	336.56	9.43	-50.9	-66.1	3.6	1.51e+00	0	41	104	0	60	72634
2026-01-23 20:42:38.41	336.18	9.28	-50.9	-66.1	3.6	1.51e+00	0	41	104	0	60	73320
2026-01-23 20:42:41.73	335.73	9.11	-50.9	-66.1	3.6	1.51e+00	0	41	104	0	60	72774
2026-01-23 20:42:44.47	335.36	8.97	-50.9	-66.1	3.6	1.51e+00	0	41	104	0	60	72987
2026-01-23 20:42:47.79	334.92	8.79	-50.9	-66.1	3.6	1.51e+00	0	41	104	0	60	72573
2026-01-23 20:42:50.53	334.56	8.65	-50.9	-66.1	3.6	1.51e+00	0	41	104	0	60	72873
2026-01-23 20:42:53.85	334.13	8.47	-50.9	-66.1	3.6	1.51e+00	0	41	104	0	60	73072
2026-01-23 20:42:56.59	333.78	8.33	-50.9	-66.1	3.6	1.51e+00	0	41	104	0	60	72825
2026-01-23 20:42:59.91	333.36	8.15	-50.9	-66.1	3.6	1.51e+00	0	41	104	0	60	73314
2026-01-23 20:43:02.65	333.01	8.01	-50.9	-66.1	3.6	1.51e+00	0	41	104	0	60	72878
2026-01-23 20:43:05.97	332.60	7.83	-50.9	-66.1	3.6	1.51e+00	0	41	104	0	60	73292
2026-01-23 20:43:08.71	332.27	7.68	-50.9	-66.1	3.6	1.51e+00	0	41	104	0	60	72775
2026-01-23 20:43:12.02	331.86	7.51	-50.9	-66.1	3.6	1.51e+00	0	41	104	0	60	72851
2026-01-23 20:43:14.77	331.53	7.36	-50.9	-66.1	3.6	1.51e+00	0	41	104	0	60	72930
2026-01-23 20:43:18.08	331.14	7.18	-50.9	-66.1	3.6	1.51e+00	0	41	104	0	60	72704
2026-01-23 20:43:20.83	330.82	7.04	-50.9	-66.1	3.6	1.51e+00	0	41	104	0	60	72941
2026-01-23 20:43:24.15	330.43	6.86	-50.9	-66.1	3.6	1.51e+00	0	41	104	0	60	73051
2026-01-23 20:43:26.89	330.12	6.72	-50.9	-66.1	3.6	1.51e+00	0	41	104	0	60	72832
2026-01-23 20:43:30.21	329.74	6.54	-50.9	-66.1	3.6	1.51e+00	0	41	104	0	60	72836
2026-01-23 20:43:32.95	329.44	6.39	-50.9	-66.1	3.6	1.51e+00	0	41	104	0	60	73169
2026-01-23 20:43:36.27	329.07	6.22	-50.9	-66.1	3.6	1.51e+00	0	41	104	0	60	72587
2026-01-23 20:43:39.01	328.77	6.07	-50.9	-66.1	3.6	1.51e+00	0	41	104	0	60	72944
2026-01-23 20:43:42.33	328.41	5.89	-50.9	-66.1	3.6	1.51e+00	0	41	104	0	60	72789
2026-01-23 20:43:45.07	328.12	5.75	-50.9	-66.1	3.6	1.51e+00	0	41	104	0	60	73006
2026-01-23 20:43:48.39	327.76	5.57	-50.9	-66.1	3.6	1.51e+00	0	41	104	0	60	72951
2026-01-23 20:43:51.13	327.48	5.43	-50.9	-66.1	3.6	1.51e+00	0	41	104	0	60	72641
2026-01-23 20:43:54.45	327.13	5.25	-50.9	-66.0	3.6	1.51e+00	0	41	104	0	60	72459
2026-01-23 20:43:57.19	326.85	5.11	-50.9	-66.1	3.6	1.51e+00	0	41	104	0	60	72895
2026-01-23 20:44:00.51	326.52	4.93	-50.9	-66.1	3.6	1.51e+00	0	41	104	0	60	73189
2026-01-23 20:44:03.25	326.24	4.79	-50.9	-66.1	3.6	1.51e+00	0	41	104	0	60	72590
2026-01-23 20:44:06.56	325.92	4.61	-50.9	-66.1	3.6	1.51e+00	0	41	104	0	60	72770
2026-01-23 20:44:09.30	325.65	4.47	-50.9	-66.1	3.6	1.51e+00	0	41	104	0	60	72970
2026-01-23 20:44:12.62	325.33	4.29	-50.9	-66.1	3.6	1.51e+00	0	41	104	0	60	73156
2026-01-23 20:44:15.36	325.07	4.15	-50.9	-66.1	3.6	1.51e+00	0	41	104	0	60	72813
2026-01-23 20:44:18.68	324.75	3.97	-50.9	-66.1	3.6	1.51e+00	0	41	104	0	60	72744
2026-01-23 20:44:21.42	324.50	3.83	-50.9	-66.1	3.6	1.51e+00	0	41	104	0	60	72594
2026-01-23 20:44:24.74	324.19	3.66	-50.9	-66.1	3.6	1.51e+00	0	41	104	0	60	72828
2026-01-23 20:44:27.48	323.94	3.51	-50.9	-66.1	3.6	1.51e+00	0	42	104	0	60	73140
2026-01-23 20:44:30.80	323.64	3.34	-50.9	-66.0	3.6	1.51e+00	0	41	104	0	60	72273
2026-01-23 20:44:33.54	323.40	3.20	-50.9	-66.1	3.6	1.51e+00	0	41	104	0	60	72927
2026-01-23 20:44:36.86	323.10	3.03	-50.9	-66.1	3.6	1.51e+00	0	41	104	0	60	72897
2026-01-23 20:44:39.60	322.86	2.88	-50.9	-66.1	3.6	1.51e+00	0	41	104	0	60	72740
2026-01-23 20:44:42.92	322.58	2.71	-50.9	-66.1	3.6	1.51e+00	0	41	104	0	60	72921
2026-01-23 20:44:45.66	322.34	2.57	-50.9	-66.1	3.6	1.51e+00	0	41	104	0	60	73153
2026-01-23 20:44:48.97	322.06	2.40	-50.9	-66.1	3.6	1.51e+00	0	41	104	0	60	72539
2026-01-23 20:44:51.71	321.83	2.26	-50.9	-66.1	3.6	1.51e+00	0	42	104	0	60	72922
2026-01-23 20:44:55.03	321.56	2.09	-50.9	-66.1	3.6	1.51e+00	0	42	104	0	60	72734
2026-01-23 20:44:57.77	321.33	1.95	-50.9	-66.1	3.6	1.51e+00	0	41	104	0	60	72792
2026-01-23 20:45:01.08	321.07	1.78	-50.9	-66.1	3.6	1.51e+00	0	41	104	0	60	72632
2026-01-23 20:45:03.83	320.85	1.64	-50.9	-66.1	3.6	1.51e+00	0	42	104	0	60	72847
2026-01-23 20:45:07.14	320.58	1.47	-50.9	-66.1	3.6	1.51e+00	0	41	104	0	60	72554
2026-01-23 20:45:09.88	320.37	1.33	-50.9	-66.1	3.6	1.51e+00	0	41	104	0	60	72863
2026-01-23 20:45:13.20	320.11	1.17	-50.9	-66.1	3.6	1.51e+00	0	41	104	0	60	73244
2026-01-23 20:45:15.94	319.90	1.03	-50.9	-66.1	3.6	1.51e+00	0	42	104	0	60	72846
2026-01-23 20:45:19.25	319.65	0.86	-50.9	-66.1	3.6	1.51e+00	0	41	104	0	60	73159
2026-01-23 20:45:21.99	319.45	0.72	-50.9	-66.1	3.6	1.51e+00	0	42	104	0	60	72929
2026-01-23 20:45:25.31	319.20	0.56	-50.9	-66.1	3.6	1.51e+00	0	42	104	0	60	73243
2026-01-23 20:45:28.05	319.00	0.42	-50.9	-66.1	3.6	1.51e+00	0	41	104	0	60	73099
2026-01-23 20:45:31.37	318.76	0.26	-50.9	-66.1	3.6	1.51e+00	0	41	104	0	60	73032
2026-01-23 20:45:34.11	318.56	0.12	-50.9	-66.1	3.6	1.51e+00	0	42	104	0	60	73260

#Closed at: 2026-01-23 20:45:36
#Recorded file [0 MB]: D:/lorett/data/35029_260124_083250.dat