passes_logs/2026/01/23/R4.6S_Anadyr/R4.6S_Anadyr__20260123_000838_SUOMI_NPP_rec.log

#Pass ID: 20260123_000838_SUOMI NPP
#Satellite: SUOMI NPP
#Configuration: NPP
#almurnet v.1.7.20251203
#Start time: 2026-01-23 00:08:41

#Version: 2.2.20231116
#Station: R4.6S_Anadyr
#Location: 177.4865 lon 64.73178 lat
#TLE: 1 37849U 11061A   26022.50498765  .00000208  00000+0  11976-3 0  9992
#TLE: 2 37849  98.7820 324.4892 0002275  50.8149 309.3229 14.19528284737775

#Time	Az	El	Level	Level2	SNR	BER	BlckErr	Temp	State	Recorded	gain1	gain2
2026-01-23 00:08:41.67	152.51	0.19	-51.5	-65.3	3.3	1.54e+00	0	40	0	0	60	66295
2026-01-23 00:08:45.71	152.51	0.43	-51.4	-66.6	3.6	1.51e+00	0	40	104	0	60	77722
2026-01-23 00:08:49.75	152.51	0.68	-51.3	-66.6	3.6	1.51e+00	0	40	104	0	60	77105
2026-01-23 00:08:53.78	152.50	0.93	-51.2	-66.4	3.6	1.51e+00	0	40	104	0	60	75346
2026-01-23 00:08:57.82	152.50	1.18	-50.7	-65.9	3.6	1.51e+00	0	40	104	0	60	71340
2026-01-23 00:09:01.86	152.50	1.44	-50.0	-65.2	3.6	1.51e+00	0	40	104	0	60	66075
2026-01-23 00:09:05.90	152.49	1.69	-49.8	-64.9	3.6	1.51e+00	0	41	104	0	60	63890
2026-01-23 00:09:09.94	152.49	1.95	-49.8	-64.9	3.6	1.51e+00	0	41	104	0	60	63765
2026-01-23 00:09:13.98	152.48	2.21	-49.8	-65.0	3.6	1.51e+00	0	41	104	0	60	64274
2026-01-23 00:09:18.02	152.48	2.47	-49.9	-65.0	3.6	1.51e+00	0	41	104	0	60	63982
2026-01-23 00:09:22.06	152.47	2.74	-49.8	-64.7	3.6	1.51e+00	0	41	104	0	60	61941
2026-01-23 00:09:26.10	152.47	3.01	-49.8	-64.9	3.6	1.51e+00	0	41	104	0	60	63784
2026-01-23 00:09:30.14	152.46	3.28	-49.4	-57.8	5.4	7.22e-01	90	41	0	2097152	60	27993
2026-01-23 00:09:34.18	152.45	3.55	-48.5	-54.0	9.5	1.00e-02	0	41	0	8388608	60	18040
2026-01-23 00:09:38.22	152.45	3.83	-45.1	-47.3	16.0	1.42e+00	86	41	104	12582912	60	8403
2026-01-23 00:09:42.26	152.44	4.10	-46.3	-49.2	14.8	1.50e-06	74	41	0	12582912	60	10439
2026-01-23 00:09:46.30	152.43	4.39	-45.9	-48.4	15.7	0.00e+00	92	41	0	19922944	60	9522
2026-01-23 00:09:50.33	152.42	4.67	-45.7	-48.2	15.9	0.00e+00	0	41	0	27262976	60	9290
2026-01-23 00:09:54.38	152.41	4.96	-45.1	-47.1	17.4	0.00e+00	89	41	0	34603008	60	8219
2026-01-23 00:09:58.42	152.41	5.25	-44.6	-46.6	17.7	0.00e+00	92	41	0	42991616	60	7692
2026-01-23 00:10:02.46	152.40	5.54	-44.6	-46.5	17.7	0.00e+00	0	41	0	50331648	60	7675
2026-01-23 00:10:06.50	152.39	5.84	-44.5	-46.3	17.9	0.00e+00	0	41	0	57671680	60	7471
2026-01-23 00:10:10.53	152.38	6.14	-44.5	-46.3	17.9	0.00e+00	92	41	0	65011712	60	7453
2026-01-23 00:10:14.57	152.37	6.45	-44.4	-46.2	18.1	0.00e+00	87	41	0	72351744	60	7391
2026-01-23 00:10:18.61	152.35	6.75	-43.9	-45.5	18.8	0.00e+00	0	41	0	80740352	60	6832
2026-01-23 00:10:22.65	152.34	7.07	-43.9	-45.5	18.8	0.00e+00	17	41	0	88080384	60	6847
2026-01-23 00:10:26.69	152.33	7.38	-43.9	-45.6	18.8	0.00e+00	72	41	0	95420416	60	6869
2026-01-23 00:10:30.73	152.32	7.70	-43.9	-45.6	18.8	0.00e+00	92	41	0	102760448	60	6856
2026-01-23 00:10:34.77	152.30	8.03	-43.5	-45.0	19.5	0.00e+00	0	41	0	111149056	60	6396
2026-01-23 00:10:38.81	152.29	8.35	-43.6	-45.2	19.3	0.00e+00	92	41	0	118489088	60	6548
2026-01-23 00:10:42.85	152.28	8.69	-43.1	-44.6	19.8	0.00e+00	92	41	0	125829120	60	6108
2026-01-23 00:10:46.88	152.26	9.02	-43.1	-44.6	19.8	0.00e+00	5	41	0	133169152	60	6125
2026-01-23 00:10:50.92	152.25	9.36	-43.0	-44.4	19.9	0.00e+00	0	41	0	140509184	60	5991
2026-01-23 00:10:54.96	152.23	9.71	-43.2	-44.6	19.9	0.00e+00	92	41	0	148897792	60	6155
2026-01-23 00:10:59.00	152.21	10.06	-43.1	-44.5	20.0	0.00e+00	92	41	0	156237824	60	6039
2026-01-23 00:11:03.04	152.19	10.42	-42.5	-43.8	20.6	0.00e+00	0	41	0	163577856	58	6259
2026-01-23 00:11:07.08	152.18	10.78	-42.4	-43.6	20.7	0.00e+00	0	41	0	170917888	58	6168
2026-01-23 00:11:11.12	152.16	11.14	-42.5	-43.8	20.6	0.00e+00	89	41	0	179306496	58	6285
2026-01-23 00:11:15.16	152.14	11.52	-42.3	-43.5	20.9	0.00e+00	90	41	0	186646528	58	6050
2026-01-23 00:11:19.20	152.11	11.89	-42.0	-43.3	21.2	0.00e+00	0	41	0	193986560	58	5902
2026-01-23 00:11:23.24	152.09	12.28	-41.9	-43.1	21.3	0.00e+00	92	41	0	201326592	56	6504
2026-01-23 00:11:27.27	152.07	12.67	-41.8	-43.0	21.5	0.00e+00	90	41	0	208666624	56	6404
2026-01-23 00:11:31.31	152.05	13.06	-41.8	-43.0	21.6	0.00e+00	92	41	0	217055232	56	6406
2026-01-23 00:11:35.35	152.02	13.47	-41.6	-42.7	21.7	0.00e+00	0	41	0	224395264	56	6188
2026-01-23 00:11:39.40	151.99	13.88	-41.1	-42.2	22.1	0.00e+00	92	41	0	231735296	56	5855
2026-01-23 00:11:43.43	151.97	14.29	-41.1	-42.2	22.1	0.00e+00	92	41	0	239075328	56	5846
2026-01-23 00:11:47.47	151.94	14.72	-41.0	-42.1	22.3	0.00e+00	0	41	0	247463936	56	5780
2026-01-23 00:11:51.50	151.91	15.15	-40.9	-41.9	22.3	0.00e+00	0	41	0	254803968	56	5668
2026-01-23 00:11:55.54	151.88	15.59	-40.3	-41.3	22.8	0.00e+00	37	41	0	262144000	54	5931
2026-01-23 00:11:59.58	151.85	16.03	-40.2	-41.2	22.9	0.00e+00	92	41	0	269484032	54	5846
2026-01-23 00:12:03.62	151.81	16.49	-40.0	-40.9	23.1	0.00e+00	31	41	0	276824064	54	5654
2026-01-23 00:12:07.66	151.78	16.95	-40.1	-41.1	23.1	0.00e+00	2	41	0	285212672	54	5765
2026-01-23 00:12:11.69	151.74	17.43	-39.9	-40.8	23.2	0.00e+00	60	41	0	292552704	54	5618
2026-01-23 00:12:15.73	151.70	17.91	-40.2	-41.1	23.0	0.00e+00	90	41	0	299892736	54	5797
2026-01-23 00:12:19.77	151.66	18.40	-40.0	-40.9	23.3	0.00e+00	0	41	0	307232768	54	5692
2026-01-23 00:12:23.81	151.62	18.90	-40.1	-41.0	23.1	0.00e+00	90	41	0	315621376	54	5727
2026-01-23 00:12:27.84	151.58	19.42	-39.6	-40.5	23.5	0.00e+00	91	41	0	322961408	52	6093
2026-01-23 00:12:31.88	151.54	19.94	-40.0	-40.9	23.3	0.00e+00	0	41	0	330301440	52	6356
2026-01-23 00:12:35.92	151.49	20.47	-40.2	-41.2	23.1	0.00e+00	0	41	0	337641472	52	6553
2026-01-23 00:12:39.96	151.44	21.02	-40.4	-41.4	22.8	0.00e+00	92	41	0	344981504	52	6756
2026-01-23 00:12:44.00	151.39	21.58	-40.5	-41.5	22.8	0.00e+00	92	41	0	353370112	54	6067
2026-01-23 00:12:48.04	151.33	22.15	-40.4	-41.3	23.0	0.00e+00	0	41	0	360710144	54	5952
2026-01-23 00:12:52.08	151.28	22.73	-40.4	-41.4	22.9	0.00e+00	0	41	0	368050176	54	5981
2026-01-23 00:12:56.12	151.22	23.33	-40.4	-41.4	22.9	0.00e+00	65	41	0	375390208	54	6019
2026-01-23 00:13:00.16	151.15	23.94	-40.0	-40.9	23.3	0.00e+00	92	41	0	383778816	54	5659
2026-01-23 00:13:04.19	151.09	24.57	-40.1	-41.0	23.2	0.00e+00	7	41	0	391118848	52	6455
2026-01-23 00:13:08.23	151.02	25.21	-40.6	-41.6	22.9	0.00e+00	9	41	0	398458880	52	6854
2026-01-23 00:13:12.27	150.95	25.87	-40.3	-41.2	23.2	0.00e+00	91	41	0	405798912	54	5887
2026-01-23 00:13:16.31	150.87	26.54	-40.4	-41.3	23.1	0.00e+00	0	41	0	413138944	54	5943
2026-01-23 00:13:20.34	150.79	27.23	-40.9	-41.9	22.7	0.00e+00	0	41	0	421527552	54	6345
2026-01-23 00:13:24.38	150.71	27.94	-41.4	-42.5	22.2	0.00e+00	92	41	0	428867584	54	6788
2026-01-23 00:13:28.42	150.62	28.67	-41.2	-42.2	22.3	0.00e+00	92	41	0	436207616	54	6553
2026-01-23 00:13:32.46	150.53	29.41	-41.4	-42.4	22.1	0.00e+00	0	41	0	443547648	54	6719
2026-01-23 00:13:36.50	150.43	30.18	-42.1	-43.2	21.7	0.00e+00	0	41	0	451936256	56	6609
2026-01-23 00:13:40.54	150.33	30.97	-41.7	-42.7	22.0	0.00e+00	64	41	0	459276288	56	6237
2026-01-23 00:13:44.58	150.22	31.78	-42.7	-43.9	21.0	0.00e+00	92	41	0	466616320	58	6324
2026-01-23 00:13:48.62	150.10	32.61	-43.8	-45.2	20.0	0.00e+00	0	41	0	473956352	60	6587
2026-01-23 00:13:52.66	149.98	33.47	-43.4	-44.7	20.4	0.00e+00	92	41	0	481296384	60	6224
2026-01-23 00:13:56.69	149.85	34.35	-43.3	-44.6	20.5	0.00e+00	78	41	0	489684992	60	6144
2026-01-23 00:14:00.73	149.71	35.25	-41.0	-42.0	22.6	0.00e+00	3	41	0	497025024	56	5759
2026-01-23 00:14:04.77	149.57	36.19	-39.9	-40.7	23.7	0.00e+00	0	41	0	504365056	52	6237
2026-01-23 00:14:08.80	149.41	37.14	-39.0	-39.8	24.2	0.00e+00	92	41	0	511705088	52	5616
2026-01-23 00:14:12.84	149.24	38.13	-39.0	-39.9	24.1	0.00e+00	92	41	0	520093696	50	6341
2026-01-23 00:14:16.88	149.07	39.15	-40.1	-41.1	23.3	0.00e+00	0	41	0	527433728	54	5774
2026-01-23 00:14:20.92	148.87	40.20	-40.1	-41.1	23.3	0.00e+00	0	41	0	534773760	54	5804
2026-01-23 00:14:24.95	148.67	41.27	-41.0	-42.1	22.6	0.00e+00	92	41	0	542113792	54	6473
2026-01-23 00:14:28.99	148.45	42.39	-41.4	-42.4	22.3	0.00e+00	92	41	0	549453824	56	6025
2026-01-23 00:14:33.03	148.21	43.53	-42.4	-43.6	21.4	0.00e+00	0	41	0	557842432	56	6906
2026-01-23 00:14:37.07	147.96	44.71	-42.3	-43.5	21.7	0.00e+00	0	41	0	565182464	58	6034
2026-01-23 00:14:41.11	147.68	45.93	-41.4	-42.4	22.6	0.00e+00	76	41	0	572522496	56	6029
2026-01-23 00:14:45.14	147.38	47.18	-42.9	-44.1	21.0	0.00e+00	87	41	0	579862528	58	6512
2026-01-23 00:14:49.18	147.05	48.47	-42.4	-43.6	21.4	0.00e+00	0	41	0	588251136	56	6888
2026-01-23 00:14:53.22	146.70	49.79	-42.1	-43.2	21.6	0.00e+00	69	41	0	595591168	58	5850
2026-01-23 00:14:57.26	146.30	51.16	-41.2	-42.2	22.6	0.00e+00	90	41	0	602931200	54	6600
2026-01-23 00:15:01.30	145.87	52.56	-40.6	-41.6	23.0	0.00e+00	0	41	0	610271232	52	6902
2026-01-23 00:15:05.34	145.40	54.01	-41.4	-42.4	22.6	0.00e+00	0	41	0	617611264	56	6027
2026-01-23 00:15:09.38	144.87	55.49	-40.1	-41.1	23.4	0.00e+00	92	41	0	625999872	52	6466
2026-01-23 00:15:13.41	144.28	57.01	-40.5	-41.5	22.8	0.00e+00	92	41	0	633339904	54	6053
2026-01-23 00:15:17.45	143.62	58.57	-43.5	-45.0	20.2	0.00e+00	0	41	0	640679936	58	7224
2026-01-23 00:15:21.49	142.87	60.17	-41.2	-42.2	22.5	0.00e+00	5	41	0	648019968	56	5864
2026-01-23 00:15:25.53	142.02	61.80	-39.8	-40.7	23.8	0.00e+00	86	41	0	656408576	54	5543
2026-01-23 00:15:29.57	141.05	63.47	-39.7	-40.6	23.6	0.00e+00	92	41	0	663748608	52	6146
2026-01-23 00:15:33.61	139.92	65.17	-40.6	-41.6	23.0	0.00e+00	0	41	0	671088640	54	6114
2026-01-23 00:15:37.64	138.61	66.89	-41.9	-43.1	21.8	0.00e+00	70	41	0	678428672	56	6471
2026-01-23 00:15:41.68	137.06	68.64	-42.3	-43.6	21.4	0.00e+00	92	41	0	685768704	56	6857
2026-01-23 00:15:45.72	135.20	70.41	-42.5	-43.7	21.4	0.00e+00	0	41	0	694157312	56	6941
2026-01-23 00:15:49.75	132.95	72.18	-39.6	-40.4	23.8	0.00e+00	0	41	0	701497344	52	6023
2026-01-23 00:15:53.79	130.16	73.95	-38.6	-39.3	24.6	0.00e+00	92	41	0	708837376	50	5956
2026-01-23 00:15:57.83	126.65	75.70	-41.2	-42.2	22.5	0.00e+00	91	41	0	716177408	54	6587
2026-01-23 00:16:01.87	122.13	77.41	-42.8	-44.0	20.6	0.00e+00	0	41	0	724566016	60	5756
2026-01-23 00:16:05.91	116.18	79.03	-41.1	-42.0	22.6	0.00e+00	0	41	0	731906048	56	5754
2026-01-23 00:16:09.95	108.24	80.50	-40.0	-40.9	23.5	0.00e+00	59	41	0	739246080	54	5645
2026-01-23 00:16:13.99	97.61	81.75	-40.3	-41.2	23.5	0.00e+00	92	41	0	746586112	54	5895
2026-01-23 00:16:18.03	83.82	82.62	-41.6	-42.6	22.4	0.00e+00	0	41	0	753926144	56	6153
2026-01-23 00:16:22.06	67.56	82.98	-41.8	-42.8	22.3	0.00e+00	0	41	0	762314752	56	6307
2026-01-23 00:16:26.10	50.96	82.75	-39.8	-40.7	23.7	0.00e+00	71	41	0	769654784	52	6179
2026-01-23 00:16:30.14	36.51	81.97	-42.3	-43.4	21.3	0.00e+00	0	41	0	776994816	56	6700
2026-01-23 00:16:34.17	25.24	80.80	-43.6	-45.0	20.2	0.00e+00	9	41	0	784334848	60	6421
2026-01-23 00:16:38.21	16.76	79.37	-44.1	-45.6	20.1	0.00e+00	92	41	0	792723456	60	6866
2026-01-23 00:16:42.25	10.44	77.78	-41.4	-42.4	22.4	0.00e+00	90	41	0	800063488	56	5971
2026-01-23 00:16:46.29	5.65	76.09	-41.4	-42.4	22.6	0.00e+00	0	41	0	807403520	56	5993
2026-01-23 00:16:50.32	1.95	74.35	-40.7	-41.6	23.2	0.00e+00	0	41	0	814743552	54	6151
2026-01-23 00:16:54.36	359.02	72.59	-43.5	-44.9	20.0	0.00e+00	92	41	0	822083584	58	7123
2026-01-23 00:16:58.40	356.66	70.82	-41.7	-42.7	22.1	0.00e+00	92	41	0	830472192	56	6223
2026-01-23 00:17:02.44	354.72	69.05	-42.3	-43.5	21.6	0.00e+00	0	41	0	837812224	58	6054
2026-01-23 00:17:06.48	353.11	67.30	-40.0	-40.9	23.4	0.00e+00	0	41	0	845152256	52	6344
2026-01-23 00:17:10.52	351.75	65.57	-38.4	-39.2	24.8	0.00e+00	92	41	0	852492288	50	5852
2026-01-23 00:17:14.56	350.58	63.87	-40.9	-41.9	22.5	0.00e+00	72	41	0	860880896	54	6381
2026-01-23 00:17:18.60	349.58	62.20	-40.9	-41.9	22.9	0.00e+00	0	41	0	868220928	56	5656
2026-01-23 00:17:22.64	348.71	60.56	-40.7	-41.7	22.7	0.00e+00	92	41	0	875560960	52	6965
2026-01-23 00:17:26.67	347.94	58.96	-39.2	-40.0	24.2	0.00e+00	70	41	0	882900992	52	5754
2026-01-23 00:17:30.72	347.26	57.39	-40.4	-41.4	23.3	0.00e+00	0	41	0	890241024	52	6727
2026-01-23 00:17:34.76	346.66	55.87	-39.2	-40.0	24.1	0.00e+00	0	41	0	898629632	52	5739
2026-01-23 00:17:38.79	346.12	54.38	-40.8	-41.8	22.9	0.00e+00	73	41	0	905969664	54	6295
2026-01-23 00:17:42.83	345.63	52.93	-41.0	-42.0	22.6	0.00e+00	91	41	0	913309696	56	5759
2026-01-23 00:17:46.87	345.19	51.52	-41.0	-42.1	22.8	0.00e+00	0	41	0	920649728	54	6484
2026-01-23 00:17:50.91	344.80	50.15	-42.1	-43.4	21.5	0.00e+00	0	41	0	929038336	56	6713
2026-01-23 00:17:54.94	344.43	48.83	-41.8	-42.9	21.6	0.00e+00	90	41	0	936378368	58	5686
2026-01-23 00:17:58.98	344.10	47.53	-41.8	-42.9	22.0	0.00e+00	4	41	0	943718400	58	5673
2026-01-23 00:18:02.99	343.80	46.28	-41.1	-42.1	22.5	0.00e+00	0	41	0	951058432	54	6493
2026-01-23 00:18:07.03	343.52	45.06	-44.5	-46.2	19.1	0.00e+00	9	41	0	958398464	60	7386
2026-01-23 00:18:11.06	343.26	43.88	-43.9	-45.5	19.7	0.00e+00	92	41	0	966787072	60	6770
2026-01-23 00:18:15.10	343.02	42.73	-41.2	-42.2	22.6	0.00e+00	0	41	0	974127104	56	5868
2026-01-23 00:18:19.14	342.79	41.62	-44.6	-46.4	18.8	0.00e+00	0	41	0	981467136	60	7555
2026-01-23 00:18:23.17	342.59	40.54	-41.3	-42.3	22.4	0.00e+00	76	41	0	988807168	56	5963
2026-01-23 00:18:27.21	342.39	39.48	-42.2	-43.4	21.6	0.00e+00	92	41	0	996147200	56	6695
2026-01-23 00:18:31.25	342.21	38.46	-42.6	-43.8	21.1	0.00e+00	0	41	0	1004535808	56	7075
2026-01-23 00:18:35.29	342.05	37.47	-43.3	-44.7	20.6	0.00e+00	0	41	0	1011875840	60	6182
2026-01-23 00:18:39.32	341.89	36.51	-43.8	-45.3	19.7	0.00e+00	91	41	0	1019215872	58	7476
2026-01-23 00:18:43.36	341.74	35.57	-42.2	-43.3	21.7	0.00e+00	90	41	0	1026555904	58	5953
2026-01-23 00:18:47.40	341.60	34.67	-43.3	-44.7	20.1	0.00e+00	0	41	0	1034944512	58	6990
2026-01-23 00:18:51.44	341.47	33.78	-47.8	-51.2	13.9	6.80e-06	0	41	0	1042284544	60	13117
2026-01-23 00:18:55.47	341.35	32.92	-45.1	-46.8	18.7	0.00e+00	55	41	0	1049624576	60	7933
2026-01-23 00:18:59.51	341.23	32.09	-42.6	-43.8	21.2	0.00e+00	0	41	0	1056964608	58	6276
2026-01-23 00:19:03.55	341.12	31.28	-43.3	-44.7	20.2	0.00e+00	0	41	0	1064304640	58	6942
2026-01-23 00:19:07.59	341.02	30.49	-42.5	-43.7	21.3	0.00e+00	90	41	0	1072693248	58	6189
2026-01-23 00:19:11.63	340.92	29.72	-44.7	-46.3	18.9	0.00e+00	91	41	0	1080033280	60	7502
2026-01-23 00:19:15.67	340.83	28.97	-45.9	-48.0	17.2	0.00e+00	0	41	0	1087373312	60	9128
2026-01-23 00:19:19.70	340.74	28.24	-42.7	-43.9	21.0	0.00e+00	0	41	0	1094713344	58	6386
2026-01-23 00:19:23.74	340.66	27.53	-40.3	-41.3	23.1	0.00e+00	92	41	0	1103101952	54	5927
2026-01-23 00:19:27.78	340.58	26.83	-40.1	-41.1	23.2	0.00e+00	59	41	0	1110441984	54	5767
2026-01-23 00:19:31.81	340.51	26.16	-40.5	-41.5	22.9	0.00e+00	0	41	0	1117782016	54	6034
2026-01-23 00:19:35.85	340.44	25.50	-41.0	-42.1	22.2	0.00e+00	0	41	0	1125122048	54	6480
2026-01-23 00:19:39.88	340.37	24.86	-41.0	-42.1	22.4	0.00e+00	5	41	0	1132462080	54	6467
2026-01-23 00:19:43.92	340.31	24.23	-40.7	-41.8	22.7	0.00e+00	16	41	0	1140850688	54	6270
2026-01-23 00:19:47.96	340.24	23.62	-40.7	-41.8	22.7	0.00e+00	0	41	0	1148190720	54	6248
2026-01-23 00:19:52.00	340.19	23.02	-41.5	-42.6	22.0	0.00e+00	59	41	0	1155530752	54	6888
2026-01-23 00:19:56.04	340.13	22.43	-41.3	-42.3	22.2	0.00e+00	0	41	0	1162870784	56	5961
2026-01-23 00:20:00.08	340.08	21.86	-40.1	-41.0	23.1	0.00e+00	0	41	0	1170210816	54	5721
2026-01-23 00:20:04.11	340.03	21.30	-39.6	-40.5	23.6	0.00e+00	0	41	0	1178599424	52	6095
2026-01-23 00:20:08.15	339.98	20.75	-39.9	-40.8	23.4	0.00e+00	67	41	0	1185939456	52	6316
2026-01-23 00:20:12.18	339.94	20.22	-39.9	-40.8	23.2	0.00e+00	0	41	0	1193279488	52	6314
2026-01-23 00:20:16.22	339.89	19.69	-40.1	-41.1	23.1	0.00e+00	33	41	0	1200619520	52	6492
2026-01-23 00:20:20.25	339.85	19.18	-40.7	-41.7	22.6	0.00e+00	0	41	0	1209008128	52	7001
2026-01-23 00:20:24.29	339.81	18.68	-40.9	-42.0	22.3	0.00e+00	91	41	0	1216348160	54	6403
2026-01-23 00:20:28.33	339.77	18.18	-41.9	-43.1	21.2	0.00e+00	0	41	0	1223688192	56	6531
2026-01-23 00:20:32.37	339.74	17.70	-42.0	-43.3	21.2	0.00e+00	0	41	0	1231028224	56	6633
2026-01-23 00:20:36.41	339.70	17.22	-42.2	-43.4	21.2	0.00e+00	70	41	0	1238368256	56	6765
2026-01-23 00:20:40.44	339.67	16.76	-41.7	-42.9	21.6	0.00e+00	90	41	0	1246756864	56	6321
2026-01-23 00:20:44.48	339.64	16.30	-40.9	-41.9	22.5	0.00e+00	0	41	0	1254096896	56	5660
2026-01-23 00:20:48.51	339.61	15.85	-40.7	-41.7	22.5	0.00e+00	0	41	0	1261436928	54	6201
2026-01-23 00:20:52.56	339.58	15.41	-40.9	-42.0	22.2	0.00e+00	73	41	0	1268776960	54	6422
2026-01-23 00:20:56.59	339.55	14.98	-42.1	-43.3	21.2	0.00e+00	0	41	0	1277165568	56	6687
2026-01-23 00:21:00.63	339.53	14.56	-42.0	-43.2	21.4	0.00e+00	0	41	0	1284505600	56	6583
2026-01-23 00:21:04.67	339.50	14.14	-42.4	-43.6	21.0	0.00e+00	0	41	0	1291845632	56	6883
2026-01-23 00:21:08.71	339.48	13.73	-42.4	-43.6	20.9	0.00e+00	90	41	0	1299185664	56	6923
2026-01-23 00:21:12.75	339.46	13.33	-42.0	-43.2	21.3	0.00e+00	0	41	0	1306525696	56	6597
2026-01-23 00:21:16.79	339.43	12.93	-41.9	-43.1	21.3	0.00e+00	0	41	0	1314914304	56	6488
2026-01-23 00:21:20.83	339.41	12.54	-41.7	-42.8	21.6	0.00e+00	0	41	0	1322254336	56	6290
2026-01-23 00:21:24.86	339.39	12.15	-41.6	-42.8	21.6	0.00e+00	89	41	0	1329594368	56	6265
2026-01-23 00:21:28.90	339.38	11.78	-41.6	-42.8	21.6	0.00e+00	0	41	0	1336934400	56	6255
2026-01-23 00:21:32.95	339.36	11.40	-41.9	-43.1	21.2	0.00e+00	0	41	0	1345323008	56	6506
2026-01-23 00:21:36.99	339.34	11.03	-41.5	-42.6	21.5	0.00e+00	0	41	0	1352663040	56	6168
2026-01-23 00:21:41.02	339.33	10.67	-41.7	-42.8	21.5	0.00e+00	8	41	0	1360003072	56	6303
2026-01-23 00:21:45.06	339.31	10.32	-41.8	-42.9	21.4	0.00e+00	0	41	0	1367343104	56	6381
2026-01-23 00:21:49.10	339.30	9.97	-41.5	-42.6	21.5	0.00e+00	0	41	0	1374683136	56	6141
2026-01-23 00:21:53.14	339.28	9.62	-41.9	-43.1	21.3	0.00e+00	55	41	0	1383071744	56	6502
2026-01-23 00:21:57.18	339.27	9.28	-41.8	-42.9	21.4	0.00e+00	0	41	0	1390411776	56	6356
2026-01-23 00:22:01.22	339.26	8.94	-41.7	-42.9	21.3	0.00e+00	0	41	0	1397751808	56	6333
2026-01-23 00:22:05.26	339.25	8.61	-42.3	-43.6	20.8	0.00e+00	0	41	0	1405091840	56	6887
2026-01-23 00:22:09.29	339.23	8.28	-41.9	-43.1	21.0	0.00e+00	92	41	0	1413480448	58	5776
2026-01-23 00:22:13.33	339.22	7.96	-41.7	-42.9	21.2	0.00e+00	0	41	0	1420820480	58	5648
2026-01-23 00:22:17.36	339.22	7.64	-41.8	-43.0	21.2	0.00e+00	0	41	0	1428160512	56	6411
2026-01-23 00:22:21.40	339.21	7.32	-42.0	-43.1	21.0	0.00e+00	65	41	0	1435500544	56	6536
2026-01-23 00:22:25.44	339.20	7.01	-42.1	-43.3	20.9	0.00e+00	0	41	0	1442840576	56	6681
2026-01-23 00:22:29.48	339.19	6.70	-42.1	-43.3	20.7	0.00e+00	0	41	0	1451229184	56	6678
2026-01-23 00:22:33.52	339.18	6.39	-41.9	-43.1	21.0	0.00e+00	0	41	0	1458569216	56	6513
2026-01-23 00:22:37.55	339.18	6.09	-42.0	-43.2	20.8	0.00e+00	73	41	0	1465909248	56	6540
2026-01-23 00:22:41.59	339.17	5.80	-41.8	-43.0	20.7	0.00e+00	0	41	0	1473249280	56	6436
2026-01-23 00:22:45.63	339.16	5.50	-42.7	-44.2	19.4	0.00e+00	0	41	0	1480589312	58	6575
2026-01-23 00:22:49.67	339.16	5.21	-43.2	-45.0	17.8	0.00e+00	0	41	0	1488977920	58	7185
2026-01-23 00:22:53.70	339.15	4.92	-44.9	-48.1	14.0	0.00e+00	81	41	0	1496317952	60	9155
2026-01-23 00:22:57.74	339.15	4.64	-45.7	-50.7	10.3	1.37e-03	0	42	0	1503657984	60	12353
2026-01-23 00:23:01.78	339.14	4.36	-46.3	-53.9	6.0	2.22e-01	0	41	0	1510998016	60	17958
2026-01-23 00:23:05.82	339.14	4.08	-46.3	-57.9	4.1	1.47e+00	1	42	104	1517289472	60	28229
2026-01-23 00:23:09.86	339.14	3.80	-46.4	-60.5	3.6	1.51e+00	0	42	104	1517289472	60	38226
2026-01-23 00:23:13.89	339.13	3.53	-46.4	-61.2	3.6	1.51e+00	0	42	104	1517289472	60	41572
2026-01-23 00:23:17.93	339.13	3.26	-46.4	-61.5	3.6	1.51e+00	0	42	104	1517289472	60	42993
2026-01-23 00:23:21.97	339.13	2.99	-46.9	-62.0	3.6	1.51e+00	0	42	104	1517289472	60	45753
2026-01-23 00:23:26.00	339.13	2.73	-50.9	-66.1	3.6	1.51e+00	0	42	104	1517289472	60	73105
2026-01-23 00:23:30.04	339.13	2.46	-51.2	-66.4	3.6	1.51e+00	0	42	104	1517289472	60	75715
2026-01-23 00:23:34.09	339.13	2.20	-51.3	-66.6	3.6	1.51e+00	0	42	104	1517289472	60	76928
2026-01-23 00:23:38.13	339.13	1.94	-51.2	-66.5	3.6	1.51e+00	0	42	104	1517289472	60	76487
2026-01-23 00:23:42.17	339.12	1.69	-51.2	-66.4	3.6	1.51e+00	0	42	104	1517289472	60	75578
2026-01-23 00:23:46.21	339.12	1.43	-51.3	-66.5	3.6	1.51e+00	0	42	104	1517289472	60	76240
2026-01-23 00:23:50.25	339.13	1.18	-51.3	-66.5	3.6	1.51e+00	0	42	104	1517289472	60	76133
2026-01-23 00:23:54.29	339.13	0.93	-51.3	-66.5	3.6	1.51e+00	0	42	104	1517289472	60	76000
2026-01-23 00:23:58.33	339.13	0.69	-51.3	-66.5	3.6	1.51e+00	0	42	104	1517289472	60	76312
2026-01-23 00:24:02.36	339.13	0.44	-51.3	-66.4	3.6	1.51e+00	0	42	104	1517289472	60	75236
2026-01-23 00:24:06.40	339.13	0.20	-51.3	-66.5	3.6	1.51e+00	0	42	104	1517289472	60	76415
2026-01-23 00:24:10.44	339.13	-0.04	-51.3	-66.5	3.6	1.51e+00	0	42	104	1517289472	60	76161

#Closed at: 2026-01-23 00:24:12
#Recorded file [1517 MB]: D:/lorett/data/35029_260123_120841.dat