passes_logs/2026/01/23/R4.6S_Anadyr/R4.6S_Anadyr__20260123_123440_NOAA_20_JPSS-1_rec.log

#Pass ID: 20260123_123440_NOAA 20 (JPSS-1)
#Satellite: NOAA 20 (JPSS-1)
#Configuration: NOAA 20
#almurnet v.1.7.20251203
#Start time: 2026-01-23 12:34:43

#Version: 2.2.20231116
#Station: R4.6S_Anadyr
#Location: 177.4865 lon 64.73178 lat
#TLE: 1 43013U 17073A   26022.44900781  .00000193  00000+0  11233-3 0  9999
#TLE: 2 43013  98.7645 323.3100 0001197  28.8413 331.2829 14.19538802423792

#Time	Az	El	Level	Level2	SNR	BER	BlckErr	Temp	State	Recorded	gain1	gain2
2026-01-23 12:34:43.86	19.07	0.17	-50.6	-64.4	3.3	1.54e+00	0	39	0	0	60	60129
2026-01-23 12:34:47.89	19.34	0.38	-50.7	-65.9	3.6	1.51e+00	0	39	104	0	60	71437
2026-01-23 12:34:51.93	19.63	0.58	-50.7	-65.9	3.6	1.51e+00	0	39	104	0	60	71510
2026-01-23 12:34:55.97	19.91	0.79	-50.5	-65.7	3.6	1.51e+00	0	40	104	0	60	70038
2026-01-23 12:35:00.01	20.20	1.00	-50.1	-65.4	3.6	1.51e+00	0	40	104	0	60	67052
2026-01-23 12:35:04.05	20.49	1.21	-49.5	-64.8	3.6	1.51e+00	0	40	104	0	60	62605
2026-01-23 12:35:08.09	20.79	1.42	-49.1	-64.3	3.6	1.51e+00	0	40	104	0	60	59510
2026-01-23 12:35:12.13	21.09	1.63	-49.1	-64.2	3.6	1.51e+00	0	40	104	0	60	58950
2026-01-23 12:35:16.17	21.39	1.84	-49.1	-64.3	3.6	1.51e+00	0	40	104	0	60	59049
2026-01-23 12:35:20.21	21.70	2.05	-49.1	-64.3	3.6	1.51e+00	0	40	104	0	60	58972
2026-01-23 12:35:24.25	22.01	2.27	-49.1	-63.2	3.6	1.51e+00	0	40	104	0	60	52253
2026-01-23 12:35:28.29	22.33	2.48	-47.8	-53.1	9.7	7.12e-02	0	40	0	1048576	60	16376
2026-01-23 12:35:32.33	22.65	2.70	-43.7	-45.5	18.0	0.00e+00	16	40	0	8388608	60	6828
2026-01-23 12:35:36.37	22.98	2.91	-45.6	-48.4	14.9	0.00e+00	90	40	0	15728640	60	9520
2026-01-23 12:35:40.41	23.31	3.13	-43.3	-45.0	18.5	0.00e+00	52	40	0	24117248	60	6419
2026-01-23 12:35:44.45	23.64	3.35	-48.2	-53.8	9.4	4.16e-01	6	40	0	27262976	60	17785
2026-01-23 12:35:48.48	23.98	3.57	-46.5	-49.8	13.6	2.36e-05	9	40	0	34603008	60	11165
2026-01-23 12:35:52.52	24.33	3.79	-46.4	-49.6	13.8	3.20e-05	61	40	0	42991616	60	10949
2026-01-23 12:35:56.56	24.68	4.01	-46.6	-50.0	13.6	3.00e-06	24	40	0	50331648	60	11449
2026-01-23 12:36:00.59	25.03	4.23	-45.7	-48.4	15.3	1.50e-06	6	40	0	57671680	60	9464
2026-01-23 12:36:04.63	25.39	4.45	-43.3	-45.0	18.7	0.00e+00	92	40	0	65011712	60	6419
2026-01-23 12:36:08.67	25.75	4.68	-43.5	-45.2	18.7	0.00e+00	31	40	0	73400320	60	6543
2026-01-23 12:36:12.71	26.12	4.90	-43.4	-45.0	19.0	0.00e+00	0	40	0	80740352	60	6437
2026-01-23 12:36:16.75	26.50	5.13	-43.5	-45.2	18.7	0.00e+00	50	40	0	88080384	60	6547
2026-01-23 12:36:20.78	26.88	5.36	-42.8	-44.3	19.5	0.00e+00	92	40	0	95420416	60	5947
2026-01-23 12:36:24.82	27.26	5.58	-43.1	-44.6	19.2	0.00e+00	0	40	0	102760448	58	6908
2026-01-23 12:36:28.86	27.66	5.81	-42.8	-44.2	19.8	0.00e+00	2	40	0	111149056	58	6579
2026-01-23 12:36:32.92	28.06	6.04	-43.0	-44.5	19.4	0.00e+00	55	40	0	117440512	58	6814
2026-01-23 12:36:36.95	28.46	6.27	-42.7	-44.1	19.7	0.00e+00	0	40	0	125829120	58	6536
2026-01-23 12:36:40.99	28.87	6.51	-42.3	-43.7	20.2	0.00e+00	89	40	0	133169152	58	6200
2026-01-23 12:36:45.02	29.29	6.74	-42.4	-43.8	20.1	0.00e+00	0	40	0	140509184	58	6263
2026-01-23 12:36:49.06	29.71	6.97	-42.3	-43.6	20.3	0.00e+00	31	40	0	147849216	58	6159
2026-01-23 12:36:53.10	30.14	7.21	-42.2	-43.6	20.4	0.00e+00	15	40	0	155189248	58	6119
2026-01-23 12:36:57.14	30.58	7.44	-42.3	-43.6	20.4	0.00e+00	28	41	0	163577856	58	6112
2026-01-23 12:37:01.18	31.02	7.68	-42.1	-43.4	20.6	0.00e+00	0	40	0	170917888	58	6013
2026-01-23 12:37:05.21	31.47	7.91	-42.2	-43.5	20.7	0.00e+00	0	40	0	178257920	58	6070
2026-01-23 12:37:09.25	31.92	8.15	-42.2	-43.5	20.6	0.00e+00	81	40	0	185597952	58	6100
2026-01-23 12:37:13.29	32.39	8.39	-41.7	-42.9	21.2	0.00e+00	2	40	0	193986560	56	6318
2026-01-23 12:37:17.32	32.86	8.63	-41.4	-42.5	21.6	0.00e+00	49	41	0	201326592	56	6056
2026-01-23 12:37:21.36	33.34	8.87	-41.5	-42.6	21.4	0.00e+00	0	40	0	208666624	56	6141
2026-01-23 12:37:25.40	33.82	9.11	-41.2	-42.3	21.7	0.00e+00	92	40	0	216006656	56	5922
2026-01-23 12:37:29.44	34.32	9.35	-41.2	-42.3	21.7	0.00e+00	49	40	0	223346688	56	5930
2026-01-23 12:37:33.47	34.82	9.59	-41.4	-42.5	21.6	0.00e+00	47	40	0	231735296	56	6082
2026-01-23 12:37:37.51	35.33	9.83	-41.6	-42.7	21.4	0.00e+00	48	40	0	239075328	56	6234
2026-01-23 12:37:41.55	35.85	10.07	-41.8	-43.0	21.1	0.00e+00	90	41	0	246415360	56	6445
2026-01-23 12:37:45.59	36.37	10.31	-41.6	-42.7	21.4	0.00e+00	31	41	0	253755392	56	6231
2026-01-23 12:37:49.63	36.91	10.56	-41.5	-42.6	21.6	0.00e+00	0	41	0	262144000	56	6162
2026-01-23 12:37:53.67	37.45	10.80	-41.5	-42.7	21.6	0.00e+00	49	41	0	269484032	56	6175
2026-01-23 12:37:57.70	38.00	11.04	-41.5	-42.7	21.6	0.00e+00	90	41	0	276824064	56	6191
2026-01-23 12:38:01.74	38.57	11.28	-41.0	-42.1	22.1	0.00e+00	0	41	0	284164096	56	5782
2026-01-23 12:38:05.78	39.14	11.53	-40.8	-41.8	22.3	0.00e+00	0	41	0	291504128	54	6274
2026-01-23 12:38:09.81	39.71	11.77	-41.1	-42.2	22.0	0.00e+00	0	41	0	299892736	54	6572
2026-01-23 12:38:13.84	40.30	12.01	-40.8	-41.9	22.2	0.00e+00	92	41	0	307232768	54	6342
2026-01-23 12:38:17.88	40.90	12.25	-40.7	-41.8	22.4	0.00e+00	7	41	0	314572800	54	6251
2026-01-23 12:38:21.92	41.51	12.50	-40.8	-41.8	22.3	0.00e+00	53	41	0	321912832	54	6298
2026-01-23 12:38:25.96	42.13	12.74	-40.6	-41.7	22.5	0.00e+00	0	41	0	330301440	54	6175
2026-01-23 12:38:30.00	42.75	12.98	-40.5	-41.5	22.6	0.00e+00	91	41	0	337641472	54	6049
2026-01-23 12:38:34.04	43.39	13.22	-40.4	-41.4	22.8	0.00e+00	32	41	0	344981504	54	5974
2026-01-23 12:38:38.07	44.04	13.46	-39.9	-40.9	23.0	0.00e+00	46	41	0	352321536	54	5655
2026-01-23 12:38:42.11	44.69	13.70	-40.0	-41.0	23.1	0.00e+00	92	41	0	359661568	54	5727
2026-01-23 12:38:46.15	45.36	13.93	-39.9	-40.9	23.2	0.00e+00	22	41	0	368050176	54	5634
2026-01-23 12:38:50.19	46.04	14.17	-39.8	-40.7	23.4	0.00e+00	0	41	0	375390208	52	6189
2026-01-23 12:38:54.23	46.73	14.40	-39.8	-40.7	23.4	0.00e+00	0	41	0	382730240	52	6239
2026-01-23 12:38:58.27	47.43	14.64	-39.9	-40.8	23.4	0.00e+00	92	41	0	390070272	52	6291
2026-01-23 12:39:02.30	48.14	14.87	-39.8	-40.7	23.5	0.00e+00	48	41	0	398458880	52	6196
2026-01-23 12:39:06.34	48.86	15.10	-39.8	-40.7	23.4	0.00e+00	0	41	0	405798912	52	6208
2026-01-23 12:39:10.38	49.59	15.32	-39.9	-40.9	23.3	0.00e+00	34	41	0	413138944	52	6319
2026-01-23 12:39:14.42	50.33	15.55	-40.1	-41.0	23.2	0.00e+00	92	41	0	420478976	52	6424
2026-01-23 12:39:18.46	51.09	15.77	-40.3	-41.3	23.0	0.00e+00	52	41	0	427819008	52	6622
2026-01-23 12:39:22.49	51.85	15.99	-40.4	-41.4	22.8	0.00e+00	0	41	0	436207616	52	6729
2026-01-23 12:39:26.52	52.62	16.20	-40.7	-41.7	22.6	0.00e+00	47	41	0	443547648	52	6967
2026-01-23 12:39:30.56	53.41	16.42	-40.8	-41.8	22.4	0.00e+00	91	41	0	450887680	54	6317
2026-01-23 12:39:34.60	54.21	16.63	-40.9	-41.9	22.3	0.00e+00	0	41	0	458227712	54	6383
2026-01-23 12:39:38.64	55.02	16.84	-41.1	-42.2	22.2	0.00e+00	0	41	0	466616320	54	6551
2026-01-23 12:39:42.67	55.83	17.04	-41.3	-42.4	21.9	0.00e+00	47	41	0	473956352	54	6704
2026-01-23 12:39:46.71	56.66	17.24	-41.8	-43.0	21.5	0.00e+00	90	41	0	481296384	56	6406
2026-01-23 12:39:50.75	57.50	17.43	-41.7	-42.8	21.7	0.00e+00	0	41	0	488636416	56	6287
2026-01-23 12:39:54.79	58.35	17.62	-41.2	-42.2	22.1	0.00e+00	0	41	0	495976448	56	5865
2026-01-23 12:39:58.83	59.22	17.81	-41.3	-42.4	22.0	0.00e+00	0	41	0	504365056	56	5983
2026-01-23 12:40:02.86	60.09	17.99	-41.6	-42.7	21.8	0.00e+00	92	41	0	511705088	56	6185
2026-01-23 12:40:06.90	60.97	18.16	-41.0	-42.0	22.4	0.00e+00	52	41	0	519045120	56	5731
2026-01-23 12:40:10.94	61.86	18.34	-40.6	-41.6	21.9	0.00e+00	0	41	0	526385152	54	6169
2026-01-23 12:40:14.98	62.76	18.50	-40.6	-41.7	22.6	0.00e+00	79	41	0	534773760	54	6181
2026-01-23 12:40:19.02	63.67	18.66	-40.8	-41.9	22.4	0.00e+00	92	41	0	542113792	54	6334
2026-01-23 12:40:23.06	64.59	18.81	-41.1	-42.2	22.1	0.00e+00	53	41	0	549453824	54	6559
2026-01-23 12:40:27.10	65.52	18.96	-40.7	-41.7	22.6	0.00e+00	46	41	0	556793856	54	6193
2026-01-23 12:40:31.14	66.46	19.10	-40.7	-41.7	22.6	0.00e+00	92	41	0	564133888	54	6195
2026-01-23 12:40:35.17	67.40	19.23	-40.8	-41.9	22.4	0.00e+00	7	41	0	572522496	54	6332
2026-01-23 12:40:39.21	68.36	19.36	-40.6	-41.6	22.7	0.00e+00	34	41	0	579862528	54	6109
2026-01-23 12:40:43.25	69.32	19.48	-40.3	-41.2	23.1	0.00e+00	3	41	0	587202560	54	5890
2026-01-23 12:40:47.28	70.28	19.59	-40.6	-41.6	22.8	0.00e+00	92	41	0	594542592	54	6114
2026-01-23 12:40:51.32	71.26	19.69	-40.3	-41.3	23.0	0.00e+00	0	41	0	601882624	54	5908
2026-01-23 12:40:55.36	72.24	19.79	-40.3	-41.3	23.0	0.00e+00	0	41	0	610271232	54	5932
2026-01-23 12:40:59.40	73.23	19.88	-41.0	-42.0	22.3	0.00e+00	0	41	0	617611264	54	6433
2026-01-23 12:41:03.43	74.22	19.96	-41.2	-42.2	22.1	0.00e+00	92	41	0	624951296	54	6607
2026-01-23 12:41:07.47	75.22	20.03	-40.8	-41.8	22.5	0.00e+00	0	41	0	632291328	54	6288
2026-01-23 12:41:11.51	76.22	20.09	-40.8	-41.8	22.6	0.00e+00	3	41	0	640679936	54	6258
2026-01-23 12:41:15.55	77.23	20.15	-41.3	-42.4	22.1	0.00e+00	0	41	0	648019968	54	6695
2026-01-23 12:41:19.58	78.24	20.19	-41.0	-42.1	22.3	0.00e+00	92	41	0	655360000	54	6489
2026-01-23 12:41:23.62	79.25	20.23	-41.5	-42.6	21.8	0.00e+00	0	41	0	662700032	54	6898
2026-01-23 12:41:27.66	80.26	20.26	-41.4	-42.5	21.9	0.00e+00	49	41	0	670040064	54	6807
2026-01-23 12:41:31.69	81.28	20.28	-41.4	-42.5	21.9	0.00e+00	0	41	0	678428672	54	6777
2026-01-23 12:41:35.73	82.29	20.29	-40.8	-41.8	22.6	0.00e+00	92	41	0	685768704	54	6276
2026-01-23 12:41:39.77	83.31	20.29	-40.5	-41.5	22.8	0.00e+00	0	41	0	693108736	54	6091
2026-01-23 12:41:43.80	84.33	20.29	-41.1	-42.1	22.3	0.00e+00	34	41	0	700448768	54	6521
2026-01-23 12:41:47.84	85.34	20.27	-41.0	-42.1	22.3	0.00e+00	14	41	0	708837376	54	6492
2026-01-23 12:41:51.88	86.36	20.25	-41.2	-42.2	22.2	0.00e+00	92	41	0	716177408	54	6594
2026-01-23 12:41:55.91	87.37	20.21	-41.2	-42.2	22.1	0.00e+00	8	41	0	723517440	54	6609
2026-01-23 12:41:59.95	88.38	20.17	-41.0	-42.0	22.4	0.00e+00	0	41	0	730857472	54	6451
2026-01-23 12:42:03.99	89.39	20.12	-40.5	-41.4	22.8	0.00e+00	2	41	0	738197504	54	6023
2026-01-23 12:42:08.03	90.40	20.06	-40.9	-42.0	22.3	0.00e+00	92	41	0	746586112	54	6414
2026-01-23 12:42:12.06	91.40	19.99	-40.5	-41.5	22.9	0.00e+00	34	41	0	753926144	54	6072
2026-01-23 12:42:16.10	92.40	19.92	-40.4	-41.4	22.8	0.00e+00	0	41	0	761266176	54	5973
2026-01-23 12:42:20.14	93.39	19.83	-39.8	-40.7	23.4	0.00e+00	92	41	0	768606208	52	6186
2026-01-23 12:42:24.17	94.37	19.74	-40.0	-40.9	23.3	0.00e+00	0	41	0	775946240	52	6389
2026-01-23 12:42:28.21	95.35	19.64	-40.3	-41.3	23.0	0.00e+00	34	41	0	784334848	52	6625
2026-01-23 12:42:32.25	96.33	19.53	-39.9	-40.8	23.5	0.00e+00	47	41	0	791674880	52	6284
2026-01-23 12:42:36.29	97.29	19.41	-39.1	-39.9	24.3	0.00e+00	92	41	0	799014912	52	5695
2026-01-23 12:42:40.33	98.25	19.29	-39.1	-40.0	24.1	0.00e+00	0	41	0	806354944	52	5736
2026-01-23 12:42:44.36	99.20	19.16	-39.8	-40.7	23.4	0.00e+00	0	41	0	814743552	52	6200
2026-01-23 12:42:48.40	100.15	19.02	-39.6	-40.5	23.8	0.00e+00	0	41	0	822083584	52	6040
2026-01-23 12:42:52.44	101.08	18.88	-38.7	-39.5	24.5	0.00e+00	92	41	0	829423616	50	6103
2026-01-23 12:42:56.48	102.01	18.73	-38.5	-39.3	24.7	0.00e+00	47	41	0	836763648	50	5934
2026-01-23 12:43:00.51	102.93	18.57	-38.7	-39.5	24.5	0.00e+00	48	41	0	844103680	50	6070
2026-01-23 12:43:04.55	103.83	18.41	-39.2	-40.1	24.0	0.00e+00	0	41	0	852492288	50	6481
2026-01-23 12:43:08.59	104.73	18.24	-39.2	-40.1	23.8	0.00e+00	92	41	0	859832320	50	6519
2026-01-23 12:43:12.63	105.62	18.06	-39.7	-40.6	23.5	0.00e+00	34	41	0	867172352	50	6885
2026-01-23 12:43:16.66	106.50	17.88	-39.6	-40.5	23.6	0.00e+00	27	41	0	874512384	52	6064
2026-01-23 12:43:20.69	107.37	17.70	-40.1	-41.1	23.2	0.00e+00	59	41	0	882900992	52	6487
2026-01-23 12:43:24.73	108.23	17.51	-40.3	-41.3	23.0	0.00e+00	92	41	0	890241024	52	6623
2026-01-23 12:43:28.77	109.07	17.32	-40.4	-41.4	22.9	0.00e+00	6	41	0	897581056	52	6753
2026-01-23 12:43:32.81	109.91	17.12	-40.7	-41.8	22.4	0.00e+00	0	41	0	904921088	52	7048
2026-01-23 12:43:36.85	110.74	16.92	-40.5	-41.5	22.7	0.00e+00	4	41	0	912261120	54	6072
2026-01-23 12:43:40.89	111.55	16.71	-40.3	-41.3	22.8	0.00e+00	64	41	0	920649728	54	5939
2026-01-23 12:43:44.92	112.36	16.50	-40.6	-41.6	22.6	0.00e+00	54	41	0	927989760	54	6130
2026-01-23 12:43:48.96	113.15	16.29	-40.7	-41.8	22.5	0.00e+00	0	41	0	935329792	54	6256
2026-01-23 12:43:53.00	113.94	16.07	-40.0	-40.9	23.2	0.00e+00	13	41	0	942669824	54	5676
2026-01-23 12:43:57.04	114.71	15.85	-39.7	-40.6	23.5	0.00e+00	60	41	0	951058432	52	6168
2026-01-23 12:44:01.08	115.47	15.63	-40.1	-41.1	23.1	0.00e+00	49	41	0	958398464	52	6480
2026-01-23 12:44:05.12	116.22	15.40	-41.1	-42.2	21.9	0.00e+00	49	41	0	965738496	54	6589
2026-01-23 12:44:09.15	116.96	15.17	-40.6	-41.7	22.5	0.00e+00	92	41	0	973078528	54	6182
2026-01-23 12:44:13.19	117.69	14.94	-40.0	-40.9	23.1	0.00e+00	7	41	0	980418560	54	5675
2026-01-23 12:44:17.23	118.40	14.71	-40.2	-41.2	22.8	0.00e+00	0	41	0	988807168	54	5889
2026-01-23 12:44:21.26	119.11	14.48	-39.9	-40.9	23.2	0.00e+00	54	41	0	996147200	54	5667
2026-01-23 12:44:25.30	119.81	14.24	-40.2	-41.2	22.9	0.00e+00	92	41	0	1003487232	52	6582
2026-01-23 12:44:29.33	120.49	14.01	-40.0	-41.0	23.1	0.00e+00	0	41	0	1010827264	52	6411
2026-01-23 12:44:33.37	121.16	13.77	-39.8	-40.8	23.1	0.00e+00	2	41	0	1018167296	52	6266
2026-01-23 12:44:37.41	121.83	13.53	-40.4	-41.4	22.7	0.00e+00	0	41	0	1026555904	52	6717
2026-01-23 12:44:41.44	122.48	13.29	-39.9	-40.9	23.1	0.00e+00	92	41	0	1033895936	52	6346
2026-01-23 12:44:45.48	123.13	13.05	-39.9	-40.8	23.3	0.00e+00	50	41	0	1041235968	52	6294
2026-01-23 12:44:49.52	123.76	12.80	-40.6	-41.6	22.5	0.00e+00	56	41	0	1048576000	52	6898
2026-01-23 12:44:53.56	124.38	12.56	-40.2	-41.2	22.9	0.00e+00	0	41	0	1056964608	52	6595
2026-01-23 12:44:57.59	125.00	12.32	-40.4	-41.4	22.5	0.00e+00	92	41	0	1064304640	52	6769
2026-01-23 12:45:01.64	125.60	12.07	-40.8	-41.8	22.3	0.00e+00	49	41	0	1071644672	54	6287
2026-01-23 12:45:05.67	126.20	11.83	-40.2	-41.2	22.8	0.00e+00	52	41	0	1078984704	54	5871
2026-01-23 12:45:09.71	126.78	11.58	-40.7	-41.7	22.3	0.00e+00	60	41	0	1086324736	54	6237
2026-01-23 12:45:13.75	127.36	11.34	-41.2	-42.3	21.6	0.00e+00	92	41	0	1094713344	54	6689
2026-01-23 12:45:17.79	127.92	11.09	-40.9	-42.0	22.1	0.00e+00	25	41	0	1102053376	54	6439
2026-01-23 12:45:21.83	128.48	10.85	-40.9	-42.0	21.7	0.00e+00	6	40	0	1109393408	54	6416
2026-01-23 12:45:25.86	129.03	10.61	-41.0	-42.1	21.9	0.00e+00	16	41	0	1116733440	54	6512
2026-01-23 12:45:29.90	129.57	10.36	-41.1	-42.2	21.8	0.00e+00	7	41	0	1125122048	54	6579
2026-01-23 12:45:33.94	130.10	10.12	-41.4	-42.5	21.4	0.00e+00	0	40	0	1132462080	54	6820
2026-01-23 12:45:37.97	130.62	9.87	-42.0	-43.2	21.0	0.00e+00	7	40	0	1139802112	56	6585
2026-01-23 12:45:42.02	131.14	9.63	-42.0	-43.2	20.9	0.00e+00	92	41	0	1147142144	56	6610
2026-01-23 12:45:46.05	131.64	9.38	-41.5	-42.6	21.4	0.00e+00	52	41	0	1154482176	56	6168
2026-01-23 12:45:50.09	132.14	9.14	-41.3	-42.4	21.7	0.00e+00	0	40	0	1162870784	56	6017
2026-01-23 12:45:54.13	132.63	8.90	-41.6	-42.8	21.3	0.00e+00	2	40	0	1170210816	56	6258
2026-01-23 12:45:58.17	133.11	8.66	-41.6	-42.8	21.2	0.00e+00	90	40	0	1177550848	56	6274
2026-01-23 12:46:02.21	133.59	8.42	-42.0	-43.3	20.7	0.00e+00	0	40	0	1184890880	56	6665
2026-01-23 12:46:06.24	134.06	8.18	-42.5	-43.9	20.1	0.00e+00	52	41	0	1193279488	56	7121
2026-01-23 12:46:10.27	134.52	7.94	-42.1	-43.5	20.6	0.00e+00	53	41	0	1200619520	56	6788
2026-01-23 12:46:14.31	134.97	7.70	-42.2	-43.5	20.4	0.00e+00	92	40	0	1207959552	56	6821
2026-01-23 12:46:18.35	135.41	7.46	-42.0	-43.3	20.6	0.00e+00	0	41	0	1215299584	56	6655
2026-01-23 12:46:22.38	135.85	7.22	-42.7	-44.1	19.8	0.00e+00	24	41	0	1222639616	56	7276
2026-01-23 12:46:26.42	136.28	6.99	-42.8	-44.3	19.6	0.00e+00	0	41	0	1231028224	58	6647
2026-01-23 12:46:30.46	136.71	6.75	-43.0	-44.5	19.3	0.00e+00	92	41	0	1238368256	58	6815
2026-01-23 12:46:34.50	137.13	6.51	-42.9	-44.4	19.4	0.00e+00	0	40	0	1245708288	58	6762
2026-01-23 12:46:38.53	137.54	6.28	-43.3	-44.9	18.9	0.00e+00	0	41	0	1253048320	58	7146
2026-01-23 12:46:42.57	137.95	6.05	-43.2	-44.8	18.8	0.00e+00	0	41	0	1261436928	58	7049
2026-01-23 12:46:46.61	138.35	5.82	-43.9	-45.7	18.1	0.00e+00	92	41	0	1268776960	60	6952
2026-01-23 12:46:50.64	138.74	5.58	-44.4	-46.4	16.7	0.00e+00	2	41	0	1276116992	60	7580
2026-01-23 12:46:54.68	139.13	5.35	-44.6	-46.9	16.3	3.00e-06	5	41	0	1283457024	60	8000
2026-01-23 12:46:58.72	139.51	5.12	-45.1	-48.2	14.0	1.25e-03	0	41	0	1290797056	60	9310
2026-01-23 12:47:02.75	139.89	4.90	-45.4	-49.9	10.2	2.86e-03	92	41	0	1299185664	60	11350
2026-01-23 12:47:06.80	140.26	4.67	-46.1	-52.3	8.2	6.29e-02	25	41	0	1306525696	60	14878
2026-01-23 12:47:10.83	140.62	4.44	-46.5	-54.1	5.6	3.19e-01	62	41	0	1313865728	60	18375
2026-01-23 12:47:14.87	140.98	4.22	-46.7	-54.8	5.9	2.96e-01	91	41	0	1321205760	60	19850
2026-01-23 12:47:18.91	141.34	3.99	-46.7	-54.4	6.2	2.61e-01	90	41	0	1329594368	60	19049
2026-01-23 12:47:22.95	141.69	3.77	-46.6	-53.1	8.3	6.23e-02	0	41	0	1336934400	60	16282
2026-01-23 12:47:26.98	142.03	3.55	-46.5	-51.8	10.0	9.62e-03	0	41	0	1344274432	60	14122
2026-01-23 12:47:31.02	142.37	3.32	-46.1	-50.8	11.2	8.80e-04	90	41	0	1351614464	60	12580
2026-01-23 12:47:35.06	142.71	3.10	-46.0	-50.6	11.6	6.20e-04	55	41	0	1358954496	60	12234
2026-01-23 12:47:39.09	143.04	2.88	-50.0	-65.2	3.6	1.51e+00	0	41	104	1362100224	60	65921
2026-01-23 12:47:43.13	143.36	2.67	-50.4	-65.7	3.6	1.51e+00	0	41	104	1362100224	60	69508
2026-01-23 12:47:47.17	143.69	2.45	-50.7	-65.9	3.6	1.51e+00	0	41	104	1362100224	60	71442
2026-01-23 12:47:51.21	144.00	2.23	-50.7	-65.9	3.6	1.51e+00	0	41	104	1362100224	60	71144
2026-01-23 12:47:55.26	144.32	2.02	-50.7	-65.9	3.6	1.51e+00	0	41	104	1362100224	60	70971
2026-01-23 12:47:59.30	144.62	1.80	-50.7	-65.9	3.6	1.51e+00	0	41	104	1362100224	60	71405
2026-01-23 12:48:03.34	144.93	1.59	-50.7	-65.9	3.6	1.51e+00	0	41	104	1362100224	60	71222
2026-01-23 12:48:07.38	145.23	1.37	-50.6	-65.9	3.6	1.51e+00	0	41	104	1362100224	60	71100
2026-01-23 12:48:11.43	145.52	1.16	-50.6	-65.9	3.6	1.51e+00	0	41	104	1362100224	60	71129
2026-01-23 12:48:15.47	145.82	0.95	-50.6	-65.9	3.6	1.51e+00	0	41	104	1362100224	60	71168
2026-01-23 12:48:19.50	146.10	0.74	-50.6	-65.9	3.6	1.51e+00	0	41	104	1362100224	60	71001
2026-01-23 12:48:23.55	146.39	0.53	-50.6	-65.9	3.6	1.51e+00	0	41	104	1362100224	60	70918
2026-01-23 12:48:27.59	146.67	0.32	-50.6	-65.9	3.6	1.51e+00	0	41	104	1362100224	60	71224
2026-01-23 12:48:31.62	146.94	0.12	-50.6	-65.8	3.6	1.51e+00	0	41	104	1362100224	60	70886
2026-01-23 12:48:35.66	147.22	-0.09	-50.7	-65.9	3.6	1.51e+00	0	41	104	1362100224	60	71265

#Closed at: 2026-01-23 12:48:36
#Recorded file [1362 MB]: D:/lorett/data/35029_260124_003443.dat